country,state,city,station,last_update,latitude,longitude,pollutant_id,pollutant_min,pollutant_max,pollutant_avg
India,Andhra_Pradesh,Amaravati,"Secretariat, Amaravati - APPCB",10-01-2024 07:00:00,16.5150833,80.5181667,CO,30,56,46
India,Andhra_Pradesh,Anantapur,"Gulzarpet, Anantapur - APPCB",10-01-2024 07:00:00,14.675886,77.593027,OZONE,NA,NA,NA
India,Andhra_Pradesh,Chittoor,"Gangineni Cheruvu, Chittoor - APPCB",10-01-2024 07:00:00,13.204880,79.097889,PM10,39,152,63
India,Andhra_Pradesh,Chittoor,"Gangineni Cheruvu, Chittoor - APPCB",10-01-2024 07:00:00,13.204880,79.097889,NH3,1,2,1
India,Andhra_Pradesh,Kadapa,"Yerramukkapalli, Kadapa - APPCB",10-01-2024 07:00:00,14.465052,78.824187,OZONE,8,50,35
India,Andhra_Pradesh,Rajamahendravaram,"Anand Kala Kshetram, Rajamahendravaram - APPCB",10-01-2024 07:00:00,16.9872867,81.7363176,NH3,3,5,4
India,Andhra_Pradesh,Tirupati,"Tirumala, Tirupati - APPCB",10-01-2024 07:00:00,13.67,79.35,OZONE,31,44,39
India,Andhra_Pradesh,Vijayawada,"HB Colony, Vijayawada - APPCB",10-01-2024 07:00:00,16.536107,80.594233,PM2.5,49,121,65
India,Andhra_Pradesh,Vijayawada,"HB Colony, Vijayawada - APPCB",10-01-2024 07:00:00,16.536107,80.594233,NO2,6,32,16
India,Andhra_Pradesh,Vijayawada,"HB Colony, Vijayawada - APPCB",10-01-2024 07:00:00,16.536107,80.594233,SO2,4,31,11
India,Andhra_Pradesh,Vijayawada,"HB Colony, Vijayawada - APPCB",10-01-2024 07:00:00,16.536107,80.594233,OZONE,21,79,33
India,Andhra_Pradesh,Vijayawada,"Kanuru, Vijayawada - APPCB",10-01-2024 07:00:00,16.486692,80.699436,PM10,98,125,110
India,Andhra_Pradesh,Visakhapatnam,"GVM Corporation, Visakhapatnam - APPCB",10-01-2024 07:00:00,17.72,83.3,PM2.5,301,334,314
India,Assam,Byrnihat,"Central Academy for SFS, Byrnihat - PCBA",10-01-2024 07:00:00,26.071318,91.87488,NH3,2,3,3
India,Assam,Guwahati,"IITG, Guwahati - PCBA",10-01-2024 07:00:00,26.2028636,91.70046436,SO2,NA,NA,NA
India,Assam,Guwahati,"LGBI Airport, Guwahati - PCBA",10-01-2024 07:00:00,26.10887,91.589544,NO2,10,70,28
India,Assam,Guwahati,"LGBI Airport, Guwahati - PCBA",10-01-2024 07:00:00,26.10887,91.589544,NH3,1,8,3
India,Assam,Guwahati,"Pan Bazaar, Guwahati - PCBA",10-01-2024 07:00:00,26.187500,91.744194,PM2.5,139,374,298
India,Assam,Guwahati,"Railway Colony, Guwahati - PCBA",10-01-2024 07:00:00,26.181742,91.78063,PM10,128,500,244
India,Assam,Guwahati,"Railway Colony, Guwahati - PCBA",10-01-2024 07:00:00,26.181742,91.78063,NO2,3,3,3
India,Assam,Nalbari,"Bata Chowk, Nalbari - PCBA",10-01-2024 07:00:00,26.446912,91.439057,SO2,4,15,9
India,Assam,Silchar,"Tarapur, Silchar - PCBA",10-01-2024 07:00:00,24.82827,92.79525,SO2,6,11,8
India,Assam,Sivasagar,"Girls College, Sivasagar - PCBA",10-01-2024 07:00:00,26.987634,94.636574,PM10,31,98,59
India,Bihar,Araria,"Kharahiya Basti, Araria - BSPCB",10-01-2024 07:00:00,26.146529,87.454184,PM2.5,100,455,285
India,Bihar,Araria,"Kharahiya Basti, Araria - BSPCB",10-01-2024 07:00:00,26.146529,87.454184,OZONE,10,44,10
India,Bihar,Arrah,"New DM Office, Arrah - BSPCB",10-01-2024 07:00:00,25.5626095,84.663264,NH3,6,15,8
India,Bihar,Aurangabad,"Gurdeo Nagar, Aurangabad - BSPCB",10-01-2024 07:00:00,24.75746,84.366208,OZONE,1,75,11
India,Bihar,Bettiah,"Kamalnath Nagar, Bettiah - BSPCB",10-01-2024 07:00:00,26.80365,84.51954,NH3,NA,NA,NA
India,Bihar,Bettiah,"Kamalnath Nagar, Bettiah - BSPCB",10-01-2024 07:00:00,26.80365,84.51954,OZONE,NA,NA,NA
India,Bihar,Bhagalpur,"DM Office_Kachari Chowk, Bhagalpur - BSPCB",10-01-2024 07:00:00,25.251013,86.989001,NO2,31,92,52
India,Bihar,Bihar Sharif,"D M Colony, Bihar Sharif - BSPCB",10-01-2024 07:00:00,25.204762,85.514960,OZONE,3,22,6
India,Bihar,Chhapra,"Darshan Nagar, Chhapra - BSPCB",10-01-2024 07:00:00,25.7808257,84.7446768,PM10,111,249,176
India,Bihar,Gaya,"Collectorate, Gaya - BSPCB",10-01-2024 07:00:00,24.7955,84.9994,OZONE,43,74,64
India,Bihar,Gaya,"Kareemganj, Gaya - BSPCB",10-01-2024 07:00:00,24.792403,84.992416,NO2,30,31,30
India,Bihar,Gaya,"SFTI Kusdihra, Gaya - BSPCB",10-01-2024 07:00:00,24.762518,84.982348,CO,52,104,77
India,Bihar,Hajipur,"Industrial Area, Hajipur - BSPCB",10-01-2024 07:00:00,25.697189,85.245900,PM10,143,452,241
India,Bihar,Hajipur,"Industrial Area, Hajipur - BSPCB",10-01-2024 07:00:00,25.697189,85.245900,CO,46,99,74
India,Bihar,Hajipur,"Industrial Area, Hajipur - BSPCB",10-01-2024 07:00:00,25.697189,85.245900,OZONE,1,74,2
India,Bihar,Katihar,"Mirchaibari, Katihar - BSPCB",10-01-2024 07:00:00,25.560083,87.553265,NO2,20,38,28
India,Bihar,Kishanganj,"SDM Office_Khagra, Kishanganj - BSPCB",10-01-2024 07:00:00,26.0881305,87.93840336,PM10,101,445,195
India,Bihar,Kishanganj,"SDM Office_Khagra, Kishanganj - BSPCB",10-01-2024 07:00:00,26.0881305,87.93840336,SO2,7,21,14
India,Bihar,Manguraha,"Forest Rest House, Manguraha - BSPCB",10-01-2024 07:00:00,27.308328,84.531742,NH3,2,3,2
India,Bihar,Manguraha,"Forest Rest House, Manguraha - BSPCB",10-01-2024 07:00:00,27.308328,84.531742,CO,5,28,17
India,Bihar,Manguraha,"Forest Rest House, Manguraha - BSPCB",10-01-2024 07:00:00,27.308328,84.531742,OZONE,16,40,39
India,Bihar,Motihari,"Gandak Colony, Motihari - BSPCB",10-01-2024 07:00:00,26.63086,84.90051,PM10,67,191,110
India,Bihar,Motihari,"Gandak Colony, Motihari - BSPCB",10-01-2024 07:00:00,26.63086,84.90051,NO2,66,106,87
India,Bihar,Munger,"Town Hall, Munger - BSPCB",10-01-2024 07:00:00,25.376776,86.471523,CO,7,40,21
India,Bihar,Muzaffarpur,"Buddha Colony, Muzaffarpur - BSPCB",10-01-2024 07:00:00,26.11442,85.39813,NO2,7,17,10
India,Bihar,Muzaffarpur,"Muzaffarpur Collectorate, Muzaffarpur - BSPCB",10-01-2024 07:00:00,26.1209,85.3647,CO,28,89,62
India,Bihar,Muzaffarpur,"Muzaffarpur Collectorate, Muzaffarpur - BSPCB",10-01-2024 07:00:00,26.1209,85.3647,OZONE,24,95,44
India,Bihar,Patna,"DRM Office Danapur, Patna - BSPCB",10-01-2024 07:00:00,25.586562,85.043586,PM2.5,256,388,320
India,Bihar,Patna,"DRM Office Danapur, Patna - BSPCB",10-01-2024 07:00:00,25.586562,85.043586,NO2,17,68,37
India,Bihar,Patna,"Govt. High School Shikarpur, Patna - BSPCB",10-01-2024 07:00:00,25.592539,85.227158,SO2,2,8,6
India,Bihar,Patna,"IGSC Planetarium Complex, Patna - BSPCB",10-01-2024 07:00:00,25.610369,85.132568,PM2.5,43,350,183
India,Bihar,Patna,"IGSC Planetarium Complex, Patna - BSPCB",10-01-2024 07:00:00,25.610369,85.132568,SO2,NA,NA,NA
India,Bihar,Patna,"Muradpur, Patna - BSPCB",10-01-2024 07:00:00,25.619651,85.147382,NH3,1,10,4
India,Bihar,Patna,"Muradpur, Patna - BSPCB",10-01-2024 07:00:00,25.619651,85.147382,OZONE,10,83,21
India,Bihar,Patna,"Rajbansi Nagar, Patna - BSPCB",10-01-2024 07:00:00,25.599486,85.113666,PM2.5,162,320,240
India,Bihar,Patna,"Rajbansi Nagar, Patna - BSPCB",10-01-2024 07:00:00,25.599486,85.113666,NH3,6,8,7
India,Bihar,Patna,"Samanpura, Patna - BSPCB",10-01-2024 07:00:00,25.596727,85.085624,NH3,2,3,3
India,Bihar,Patna,"Samanpura, Patna - BSPCB",10-01-2024 07:00:00,25.596727,85.085624,CO,81,161,119
India,Bihar,Saharsa,"Police Line, Saharsa - BSPCB",10-01-2024 07:00:00,25.892357,86.590325,PM2.5,88,488,304
India,Bihar,Saharsa,"Police Line, Saharsa - BSPCB",10-01-2024 07:00:00,25.892357,86.590325,SO2,18,18,18
India,Bihar,Samastipur,"DM Office_Kasipur, Samastipur - BSPCB",10-01-2024 07:00:00,25.859655,85.77944,PM10,42,121,80
India,Bihar,Samastipur,"DM Office_Kasipur, Samastipur - BSPCB",10-01-2024 07:00:00,25.859655,85.77944,OZONE,5,11,6
India,Bihar,Sasaram,"Dada Peer, Sasaram - BSPCB",10-01-2024 07:00:00,24.952822,84.002396,NO2,3,12,8
India,Bihar,Siwan,"Chitragupta Nagar, Siwan - BSPCB",10-01-2024 07:00:00,26.2271665,84.3570427,NO2,24,91,47
India,Chandigarh,Chandigarh,"Sector 22, Chandigarh - CPCC",10-01-2024 07:00:00,30.735567,76.775714,CO,46,75,50
India,Chandigarh,Chandigarh,"Sector-25, Chandigarh - CPCC",10-01-2024 07:00:00,30.751462,76.762879,CO,32,45,34
India,Chandigarh,Chandigarh,"Sector-25, Chandigarh - CPCC",10-01-2024 07:00:00,30.751462,76.762879,OZONE,2,7,3
India,Chandigarh,Chandigarh,"Sector-53, Chandigarh - CPCC",10-01-2024 07:00:00,30.719859,76.738637,PM10,114,250,166
India,Chandigarh,Chandigarh,"Sector-53, Chandigarh - CPCC",10-01-2024 07:00:00,30.719859,76.738637,NO2,10,13,12
India,Chandigarh,Chandigarh,"Sector-53, Chandigarh - CPCC",10-01-2024 07:00:00,30.719859,76.738637,SO2,2,41,9
India,Chhattisgarh,Bhilai,"32Bungalows, Bhilai - CECB",10-01-2024 07:00:00,21.194815,81.314770,SO2,8,12,10
India,Chhattisgarh,Bhilai,"Civic Center, Bhilai - Bhilai Steel Plant",10-01-2024 07:00:00,21.185571,81.343175,PM2.5,NA,NA,NA
India,Chhattisgarh,Bhilai,"Civic Center, Bhilai - Bhilai Steel Plant",10-01-2024 07:00:00,21.185571,81.343175,SO2,2,50,18
India,Chhattisgarh,Bilaspur,"Mangala, Bilaspur - NTPC",10-01-2024 07:00:00,22.08815,82.13737,SO2,6,50,33
India,Chhattisgarh,Chhal,"Nawapara SECL Colony, Chhal - CECB",10-01-2024 07:00:00,22.118125,83.140608,CO,79,116,96
India,Chhattisgarh,Korba,"Rampur, Korba - CECB",10-01-2024 07:00:00,22.368195,82.746431,PM2.5,47,146,91
India,Chhattisgarh,Korba,"Rampur, Korba - CECB",10-01-2024 07:00:00,22.368195,82.746431,SO2,7,46,16
India,Chhattisgarh,Korba,"Rampur, Korba - CECB",10-01-2024 07:00:00,22.368195,82.746431,OZONE,2,38,6
India,Chhattisgarh,Korba,"Urja Nagar, Korba - CECB",10-01-2024 07:00:00,22.348441,82.549611,SO2,3,31,7
India,Chhattisgarh,Kunjemura,"OP Jindal School, Kunjemura - CECB",10-01-2024 07:00:00,22.126650,83.483212,PM10,68,402,158
India,Chhattisgarh,Milupara,"Govt. Higher Secondary School, Milupara - CECB",10-01-2024 07:00:00,22.1910172,83.5197009,CO,40,86,55
India,Chhattisgarh,Raipur,"Bhatagaon New ISBT, Raipur - CECB",10-01-2024 07:00:00,21.219665,81.630094,NO2,63,100,80
India,Chhattisgarh,Raipur,"Bhatagaon New ISBT, Raipur - CECB",10-01-2024 07:00:00,21.219665,81.630094,CO,36,127,114
India,Chhattisgarh,Raipur,"Krishak Nagar, Raipur - CECB",10-01-2024 07:00:00,21.237755,81.705301,PM10,67,140,111
India,Chhattisgarh,Raipur,"Krishak Nagar, Raipur - CECB",10-01-2024 07:00:00,21.237755,81.705301,NH3,1,1,1
India,Chhattisgarh,Raipur,"Krishak Nagar, Raipur - CECB",10-01-2024 07:00:00,21.237755,81.705301,SO2,7,12,9
India,Chhattisgarh,Tumidih,"OP Jindal Industrial Park, Tumidih - CECB",10-01-2024 07:00:00,22.06631475,83.33820077,OZONE,4,68,5
India,Delhi,Delhi,"Alipur, Delhi - DPCC",10-01-2024 07:00:00,28.815329,77.153010,PM10,99,230,134
India,Delhi,Delhi,"Alipur, Delhi - DPCC",10-01-2024 07:00:00,28.815329,77.153010,NH3,6,7,6
India,Delhi,Delhi,"Anand Vihar, Delhi - DPCC",10-01-2024 07:00:00,28.647622,77.3158090,NH3,8,12,10
India,Delhi,Delhi,"Anand Vihar, Delhi - DPCC",10-01-2024 07:00:00,28.647622,77.3158090,OZONE,14,18,16
India,Delhi,Delhi,"Bawana, Delhi - DPCC",10-01-2024 07:00:00,28.776200,77.051074,CO,37,60,44
India,Delhi,Delhi,"CRRI Mathura Road, Delhi - IMD",10-01-2024 07:00:00,28.5512005,77.2735737,NO2,22,26,25
India,Delhi,Delhi,"CRRI Mathura Road, Delhi - IMD",10-01-2024 07:00:00,28.5512005,77.2735737,CO,1,19,5
India,Delhi,Delhi,"DTU, Delhi - CPCB",10-01-2024 07:00:00,28.7500499,77.1112615,PM10,144,246,175
India,Delhi,Delhi,"DTU, Delhi - CPCB",10-01-2024 07:00:00,28.7500499,77.1112615,OZONE,19,20,20
India,Delhi,Delhi,"Dr. Karni Singh Shooting Range, Delhi - DPCC",10-01-2024 07:00:00,28.498571,77.264840,PM10,137,290,180
India,Delhi,Delhi,"Dr. Karni Singh Shooting Range, Delhi - DPCC",10-01-2024 07:00:00,28.498571,77.264840,NO2,36,78,57
India,Delhi,Delhi,"Dr. Karni Singh Shooting Range, Delhi - DPCC",10-01-2024 07:00:00,28.498571,77.264840,OZONE,3,32,17
India,Delhi,Delhi,"IHBAS, Dilshad Garden, Delhi - CPCB",10-01-2024 07:00:00,28.6811736,77.3025234,PM10,103,212,136
India,Delhi,Delhi,"Jahangirpuri, Delhi - DPCC",10-01-2024 07:00:00,28.732820,77.170633,PM10,160,420,240
India,Delhi,Delhi,"Jahangirpuri, Delhi - DPCC",10-01-2024 07:00:00,28.732820,77.170633,NH3,8,10,9
India,Delhi,Delhi,"Jahangirpuri, Delhi - DPCC",10-01-2024 07:00:00,28.732820,77.170633,SO2,13,17,15
India,Delhi,Delhi,"Jahangirpuri, Delhi - DPCC",10-01-2024 07:00:00,28.732820,77.170633,CO,25,64,30
India,Delhi,Delhi,"Jawaharlal Nehru Stadium, Delhi - DPCC",10-01-2024 07:00:00,28.580280,77.233829,NH3,9,11,10
India,Delhi,Delhi,"Jawaharlal Nehru Stadium, Delhi - DPCC",10-01-2024 07:00:00,28.580280,77.233829,OZONE,6,20,11
India,Delhi,Delhi,"Major Dhyan Chand National Stadium, Delhi - DPCC",10-01-2024 07:00:00,28.611281,77.237738,PM2.5,252,348,304
India,Delhi,Delhi,"Major Dhyan Chand National Stadium, Delhi - DPCC",10-01-2024 07:00:00,28.611281,77.237738,PM10,123,240,162
India,Delhi,Delhi,"Major Dhyan Chand National Stadium, Delhi - DPCC",10-01-2024 07:00:00,28.611281,77.237738,NH3,10,12,11
India,Delhi,Delhi,"Major Dhyan Chand National Stadium, Delhi - DPCC",10-01-2024 07:00:00,28.611281,77.237738,CO,42,68,59
India,Delhi,Delhi,"Major Dhyan Chand National Stadium, Delhi - DPCC",10-01-2024 07:00:00,28.611281,77.237738,OZONE,5,16,8
India,Delhi,Delhi,"Mandir Marg, Delhi - DPCC",10-01-2024 07:00:00,28.636429,77.201067,PM2.5,211,358,292
India,Delhi,Delhi,"Mandir Marg, Delhi - DPCC",10-01-2024 07:00:00,28.636429,77.201067,PM10,124,314,174
India,Delhi,Delhi,"Mundka, Delhi - DPCC",10-01-2024 07:00:00,28.684678,77.076574,PM10,125,236,151
India,Delhi,Delhi,"Mundka, Delhi - DPCC",10-01-2024 07:00:00,28.684678,77.076574,CO,43,52,44
India,Delhi,Delhi,"NSIT Dwarka, Delhi - CPCB",10-01-2024 07:00:00,28.60909,77.0325413,SO2,7,13,10
India,Delhi,Delhi,"Najafgarh, Delhi - DPCC",10-01-2024 07:00:00,28.570173,76.933762,PM2.5,147,312,225
India,Delhi,Delhi,"Narela, Delhi - DPCC",10-01-2024 07:00:00,28.822836,77.101981,PM2.5,211,326,265
India,Delhi,Delhi,"Narela, Delhi - DPCC",10-01-2024 07:00:00,28.822836,77.101981,OZONE,13,54,29
India,Delhi,Delhi,"Nehru Nagar, Delhi - DPCC",10-01-2024 07:00:00,28.567890,77.250515,PM2.5,292,400,340
India,Delhi,Delhi,"New Moti Bagh, Delhi - MHUA",10-01-2024 07:00:00,28.57834,77.18400,NO2,1,3,2
India,Delhi,Delhi,"New Moti Bagh, Delhi - MHUA",10-01-2024 07:00:00,28.57834,77.18400,CO,24,48,28
India,Delhi,Delhi,"North Campus, DU, Delhi - IMD",10-01-2024 07:00:00,28.6573814,77.1585447,CO,35,48,39
India,Delhi,Delhi,"Okhla Phase-2, Delhi - DPCC",10-01-2024 07:00:00,28.530785,77.271255,OZONE,10,20,16
India,Delhi,Delhi,"Patparganj, Delhi - DPCC",10-01-2024 07:00:00,28.623763,77.287209,PM2.5,268,378,317
India,Delhi,Delhi,"Punjabi Bagh, Delhi - DPCC",10-01-2024 07:00:00,28.674045,77.131023,PM2.5,199,352,300
India,Delhi,Delhi,"Punjabi Bagh, Delhi - DPCC",10-01-2024 07:00:00,28.674045,77.131023,SO2,1,6,3
India,Delhi,Delhi,"Pusa, Delhi - DPCC",10-01-2024 07:00:00,28.639652,77.146275,NO2,36,59,46
India,Delhi,Delhi,"Pusa, Delhi - DPCC",10-01-2024 07:00:00,28.639652,77.146275,NH3,2,12,4
India,Delhi,Delhi,"Pusa, Delhi - IMD",10-01-2024 07:00:00,28.636110,77.173332,PM2.5,64,325,197
India,Delhi,Delhi,"Pusa, Delhi - IMD",10-01-2024 07:00:00,28.636110,77.173332,PM10,91,193,124
India,Delhi,Delhi,"Pusa, Delhi - IMD",10-01-2024 07:00:00,28.636110,77.173332,NO2,16,31,23
India,Delhi,Delhi,"R K Puram, Delhi - DPCC",10-01-2024 07:00:00,28.563262,77.186937,SO2,4,23,13
India,Delhi,Delhi,"Sonia Vihar, Delhi - DPCC",10-01-2024 07:00:00,28.710508,77.249485,NH3,6,10,7
India,Delhi,Delhi,"Sonia Vihar, Delhi - DPCC",10-01-2024 07:00:00,28.710508,77.249485,SO2,2,8,4
India,Delhi,Delhi,"Sonia Vihar, Delhi - DPCC",10-01-2024 07:00:00,28.710508,77.249485,OZONE,8,37,18
India,Delhi,Delhi,"Sri Aurobindo Marg, Delhi - DPCC",10-01-2024 07:00:00,28.531346,77.190156,CO,24,44,31
India,Delhi,Delhi,"Vivek Vihar, Delhi - DPCC",10-01-2024 07:00:00,28.672342,77.315260,SO2,7,8,7
India,Delhi,Delhi,"Wazirpur, Delhi - DPCC",10-01-2024 07:00:00,28.699793,77.165453,NO2,86,153,120
India,Delhi,Delhi,"Wazirpur, Delhi - DPCC",10-01-2024 07:00:00,28.699793,77.165453,NH3,3,5,4
India,Delhi,Delhi,"Wazirpur, Delhi - DPCC",10-01-2024 07:00:00,28.699793,77.165453,CO,36,64,43
India,Gujarat,Ahmedabad,"Chandkheda, Ahmedabad - IITM",10-01-2024 07:00:00,23.107969,72.574648,PM10,50,130,97
India,Gujarat,Ahmedabad,"Chandkheda, Ahmedabad - IITM",10-01-2024 07:00:00,23.107969,72.574648,NO2,8,11,9
India,Gujarat,Ahmedabad,"Chandkheda, Ahmedabad - IITM",10-01-2024 07:00:00,23.107969,72.574648,SO2,4,7,4
India,Gujarat,Ahmedabad,"Gyaspur, Ahmedabad - IITM",10-01-2024 07:00:00,22.977134,72.553024,PM10,82,175,126
India,Gujarat,Ahmedabad,"Gyaspur, Ahmedabad - IITM",10-01-2024 07:00:00,22.977134,72.553024,CO,22,37,24
India,Gujarat,Ahmedabad,"Maninagar, Ahmedabad - GPCB",10-01-2024 07:00:00,23.002657,72.591912,PM2.5,77,204,111
India,Gujarat,Ahmedabad,"Rakhial, Ahmedabad - IITM",10-01-2024 07:00:00,23.016834,72.625775,OZONE,1,38,15
India,Gujarat,Ahmedabad,"SAC ISRO Bopal, Ahmedabad - IITM",10-01-2024 07:00:00,23.041137,72.456691,NO2,11,16,14
India,Gujarat,Ahmedabad,"SAC ISRO Bopal, Ahmedabad - IITM",10-01-2024 07:00:00,23.041137,72.456691,SO2,6,8,8
India,Gujarat,Ahmedabad,"Sardar Vallabhbhai Patel Stadium, Ahmedabad - IITM",10-01-2024 07:00:00,23.043070,72.562968,NO2,11,14,12
India,Gujarat,Ankleshwar,"GIDC, Ankleshwar - GPCB",10-01-2024 07:00:00,21.613267,73.010555,SO2,10,28,20
India,Gujarat,Gandhinagar,"GIFT City, Gandhinagar - IITM",10-01-2024 07:00:00,23.163798,72.677768,SO2,4,6,6
India,Gujarat,Gandhinagar,"IIPHG Lekawada, Gandhinagar - IITM",10-01-2024 07:00:00,23.243639,72.68994,OZONE,16,20,17
India,Gujarat,Gandhinagar,"Sector-10, Gandhinagar - GPCB",10-01-2024 07:00:00,23.221714,72.654328,NO2,11,15,13
India,Gujarat,Gandhinagar,"Sector-10, Gandhinagar - GPCB",10-01-2024 07:00:00,23.221714,72.654328,SO2,3,10,8
India,Gujarat,Gandhinagar,"Sector-10, Gandhinagar - GPCB",10-01-2024 07:00:00,23.221714,72.654328,OZONE,2,49,20
India,Gujarat,Surat,"Science Center, Surat - SMC",10-01-2024 07:00:00,21.170046,72.795405,PM2.5,49,166,89
India,Gujarat,Surat,"Science Center, Surat - SMC",10-01-2024 07:00:00,21.170046,72.795405,PM10,54,90,70
India,Gujarat,Surat,"Science Center, Surat - SMC",10-01-2024 07:00:00,21.170046,72.795405,SO2,13,16,15
India,Gujarat,Surat,"Science Center, Surat - SMC",10-01-2024 07:00:00,21.170046,72.795405,CO,56,69,59
India,Gujarat,Vatva,"Phase-4 GIDC, Vatva - GPCB",10-01-2024 07:00:00,22.969611,72.643500,PM10,73,107,94
India,Gujarat,Vatva,"Phase-4 GIDC, Vatva - GPCB",10-01-2024 07:00:00,22.969611,72.643500,NO2,7,49,21
India,Gujarat,Vatva,"Phase-4 GIDC, Vatva - GPCB",10-01-2024 07:00:00,22.969611,72.643500,SO2,4,6,5
India,Gujarat,Vatva,"Phase-4 GIDC, Vatva - GPCB",10-01-2024 07:00:00,22.969611,72.643500,CO,38,40,39
India,Haryana,Ambala,"Patti Mehar, Ambala - HSPCB",10-01-2024 07:00:00,30.379589,76.778328,PM10,95,190,123
India,Haryana,Ambala,"Patti Mehar, Ambala - HSPCB",10-01-2024 07:00:00,30.379589,76.778328,SO2,1,35,9
India,Haryana,Bahadurgarh,"Arya Nagar, Bahadurgarh - HSPCB",10-01-2024 07:00:00,28.6701,76.9254,SO2,12,15,13
India,Haryana,Ballabgarh,"Nathu Colony, Ballabgarh - HSPCB",10-01-2024 07:00:00,28.3419248,77.319699,PM10,103,212,148
India,Haryana,Ballabgarh,"Nathu Colony, Ballabgarh - HSPCB",10-01-2024 07:00:00,28.3419248,77.319699,SO2,1,20,10
India,Haryana,Ballabgarh,"Nathu Colony, Ballabgarh - HSPCB",10-01-2024 07:00:00,28.3419248,77.319699,OZONE,4,11,9
India,Haryana,Bhiwani,"H.B. Colony, Bhiwani - HSPCB",10-01-2024 07:00:00,28.806223,76.141105,NH3,6,6,6
India,Haryana,Bhiwani,"H.B. Colony, Bhiwani - HSPCB",10-01-2024 07:00:00,28.806223,76.141105,OZONE,15,20,17
India,Haryana,Charkhi Dadri,"Mini Secretariat, Charkhi Dadri - HSPCB",10-01-2024 07:00:00,28.593883,76.270653,PM10,81,112,96
India,Haryana,Faridabad,"New Industrial Town, Faridabad - HSPCB",10-01-2024 07:00:00,28.39072,77.30059,PM2.5,180,367,286
India,Haryana,Faridabad,"New Industrial Town, Faridabad - HSPCB",10-01-2024 07:00:00,28.39072,77.30059,OZONE,30,76,46
India,Haryana,Faridabad,"Sector 11, Faridabad - HSPCB",10-01-2024 07:00:00,28.376058,77.315741,PM2.5,159,183,165
India,Haryana,Faridabad,"Sector 11, Faridabad - HSPCB",10-01-2024 07:00:00,28.376058,77.315741,OZONE,2,4,3
India,Haryana,Faridabad,"Sector 30, Faridabad - HSPCB",10-01-2024 07:00:00,28.4417,77.3217,PM2.5,NA,NA,NA
India,Haryana,Faridabad,"Sector 30, Faridabad - HSPCB",10-01-2024 07:00:00,28.4417,77.3217,PM10,NA,NA,NA
India,Haryana,Faridabad,"Sector 30, Faridabad - HSPCB",10-01-2024 07:00:00,28.4417,77.3217,OZONE,NA,NA,NA
India,Haryana,Faridabad,"Sector- 16A, Faridabad - HSPCB",10-01-2024 07:00:00,28.4088421,77.3099081,CO,5,32,14
India,Haryana,Fatehabad,"Huda Sector, Fatehabad - HSPCB",10-01-2024 07:00:00,29.503664,75.467934,PM10,73,189,126
India,Haryana,Fatehabad,"Huda Sector, Fatehabad - HSPCB",10-01-2024 07:00:00,29.503664,75.467934,CO,5,14,6
India,Haryana,Gurugram,"Sector-51, Gurugram - HSPCB",10-01-2024 07:00:00,28.4227,77.0667,SO2,1,2,2
India,Haryana,Gurugram,"Sector-51, Gurugram - HSPCB",10-01-2024 07:00:00,28.4227,77.0667,CO,47,80,52
India,Haryana,Gurugram,"Sector-51, Gurugram - HSPCB",10-01-2024 07:00:00,28.4227,77.0667,OZONE,27,67,40
India,Haryana,Gurugram,"Teri Gram, Gurugram - HSPCB",10-01-2024 07:00:00,28.4275,77.1465,NH3,34,60,43
India,Haryana,Gurugram,"Teri Gram, Gurugram - HSPCB",10-01-2024 07:00:00,28.4275,77.1465,SO2,5,8,6
India,Haryana,Gurugram,"Vikas Sadan, Gurugram - HSPCB",10-01-2024 07:00:00,28.4501238,77.0263051,PM2.5,44,297,87
India,Haryana,Gurugram,"Vikas Sadan, Gurugram - HSPCB",10-01-2024 07:00:00,28.4501238,77.0263051,SO2,14,32,26
India,Haryana,Gurugram,"Vikas Sadan, Gurugram - HSPCB",10-01-2024 07:00:00,28.4501238,77.0263051,CO,52,140,109
India,Haryana,Jind,"Police Lines, Jind - HSPCB",10-01-2024 07:00:00,29.307814,76.337619,NH3,2,5,4
India,Haryana,Kaithal,"Rishi Nagar, Kaithal - HSPCB",10-01-2024 07:00:00,29.8006,76.4155,SO2,6,16,12
India,Haryana,Kaithal,"Rishi Nagar, Kaithal - HSPCB",10-01-2024 07:00:00,29.8006,76.4155,OZONE,6,10,7
India,Haryana,Karnal,"Sector-12, Karnal - HSPCB",10-01-2024 07:00:00,29.695300,77.002700,PM10,NA,NA,NA
India,Haryana,Kurukshetra,"Sector-7, Kurukshetra - HSPCB",10-01-2024 07:00:00,29.966942,76.875879,PM10,56,147,99
India,Haryana,Mandikhera,"General Hospital, Mandikhera - HSPCB",10-01-2024 07:00:00,27.9002,76.9938,PM2.5,3,13,7
India,Haryana,Mandikhera,"General Hospital, Mandikhera - HSPCB",10-01-2024 07:00:00,27.9002,76.9938,PM10,70,117,99
India,Haryana,Mandikhera,"General Hospital, Mandikhera - HSPCB",10-01-2024 07:00:00,27.9002,76.9938,SO2,31,38,34
India,Haryana,Narnaul,"Shastri Nagar, Narnaul - HSPCB",10-01-2024 07:00:00,28.060249,76.113115,NO2,17,47,33
India,Haryana,Narnaul,"Shastri Nagar, Narnaul - HSPCB",10-01-2024 07:00:00,28.060249,76.113115,OZONE,17,68,64
India,Haryana,Palwal,"Shyam Nagar, Palwal - HSPCB",10-01-2024 07:00:00,28.1485564,77.3320667,NO2,3,6,5
India,Haryana,Palwal,"Shyam Nagar, Palwal - HSPCB",10-01-2024 07:00:00,28.1485564,77.3320667,OZONE,1,17,5
India,Haryana,Panchkula,"Sector-6, Panchkula - HSPCB ",10-01-2024 07:00:00,30.7057778,76.8531805555555,PM2.5,55,308,161
India,Haryana,Panchkula,"Sector-6, Panchkula - HSPCB ",10-01-2024 07:00:00,30.7057778,76.8531805555555,NO2,28,31,29
India,Haryana,Panchkula,"Sector-6, Panchkula - HSPCB ",10-01-2024 07:00:00,30.7057778,76.8531805555555,SO2,11,12,12
India,Haryana,Panipat,"Sector-18, Panipat - HSPCB",10-01-2024 07:00:00,29.497973,76.993331,NH3,2,3,2
India,Haryana,Rohtak,"MD University, Rohtak - HSPCB",10-01-2024 07:00:00,28.52123,76.37138,OZONE,36,134,129
India,Haryana,Sirsa,"F-Block, Sirsa - HSPCB",10-01-2024 07:00:00,29.536400,75.015800,CO,29,62,58
India,Haryana,Sonipat,"Murthal, Sonipat - HSPCB",10-01-2024 07:00:00,29.027200,77.062100,SO2,13,29,20
India,Haryana,Sonipat,"Murthal, Sonipat - HSPCB",10-01-2024 07:00:00,29.027200,77.062100,CO,18,27,19
India,Himachal Pradesh,Baddi,"HIMUDA Complex Phase-1, Baddi - HPPCB",10-01-2024 07:00:00,30.943887,76.801991,SO2,21,103,51
India,Jharkhand,Dhanbad,"Kalakusuma, Dhanbad - DMC",10-01-2024 07:00:00,23.811548,86.481238,PM2.5,12,238,74
India,Jharkhand,Dhanbad,"Kalakusuma, Dhanbad - DMC",10-01-2024 07:00:00,23.811548,86.481238,PM10,64,249,130
India,Jharkhand,Dhanbad,"Kalakusuma, Dhanbad - DMC",10-01-2024 07:00:00,23.811548,86.481238,NO2,32,34,33
India,Jharkhand,Dhanbad,"Sardar Patel Nagar, Dhanbad - JSPCB",10-01-2024 07:00:00,23.80569,86.44268,PM2.5,8,306,124
India,Jharkhand,Pathardih,"Mohalbani Ghat, Pathardih - DMC",10-01-2024 07:00:00,23.669880,86.411725,PM2.5,76,170,81
India,Karnataka,Bagalkot,"Vidayagiri, Bagalkot - KSPCB",10-01-2024 07:00:00,16.172806,75.659694,NO2,10,11,10
India,Karnataka,Bagalkot,"Vidayagiri, Bagalkot - KSPCB",10-01-2024 07:00:00,16.172806,75.659694,SO2,9,9,9
India,Karnataka,Belgaum,"Ramteerth Nagar, Belgaum - KSPCB",10-01-2024 07:00:00,15.888653,74.541751,OZONE,19,20,19
India,Karnataka,Bengaluru,"Bapuji Nagar, Bengaluru - KSPCB",10-01-2024 07:00:00,12.951913,77.539784,PM2.5,48,88,67
India,Karnataka,Bengaluru,"Bapuji Nagar, Bengaluru - KSPCB",10-01-2024 07:00:00,12.951913,77.539784,NH3,1,1,1
India,Karnataka,Bengaluru,"Bapuji Nagar, Bengaluru - KSPCB",10-01-2024 07:00:00,12.951913,77.539784,CO,22,72,31
India,Karnataka,Bengaluru,"Hebbal, Bengaluru - KSPCB",10-01-2024 07:00:00,13.029152,77.585901,NH3,1,1,1
India,Karnataka,Bengaluru,"Hebbal, Bengaluru - KSPCB",10-01-2024 07:00:00,13.029152,77.585901,CO,4,32,8
India,Karnataka,Bengaluru,"Hombegowda Nagar, Bengaluru - KSPCB",10-01-2024 07:00:00,12.938539,77.590100,SO2,4,5,5
India,Karnataka,Bengaluru,"Jayanagar 5th Block, Bengaluru - KSPCB",10-01-2024 07:00:00,12.920984,77.584908,PM2.5,55,87,74
India,Karnataka,Bengaluru,"Jayanagar 5th Block, Bengaluru - KSPCB",10-01-2024 07:00:00,12.920984,77.584908,PM10,61,167,101
India,Karnataka,Bengaluru,"Jayanagar 5th Block, Bengaluru - KSPCB",10-01-2024 07:00:00,12.920984,77.584908,NH3,2,3,3
India,Karnataka,Bengaluru,"Jayanagar 5th Block, Bengaluru - KSPCB",10-01-2024 07:00:00,12.920984,77.584908,SO2,14,19,17
India,Karnataka,Bengaluru,"Jigani, Bengaluru - KSPCB",10-01-2024 07:00:00,12.7816279,77.6299145,PM2.5,17,99,54
India,Karnataka,Bengaluru,"Jigani, Bengaluru - KSPCB",10-01-2024 07:00:00,12.7816279,77.6299145,PM10,57,109,88
India,Karnataka,Bengaluru,"Jigani, Bengaluru - KSPCB",10-01-2024 07:00:00,12.7816279,77.6299145,SO2,9,15,13
India,Karnataka,Bengaluru,"Kasturi Nagar, Bengaluru - KSPCB",10-01-2024 07:00:00,13.003872,77.664217,PM10,43,132,101
India,Karnataka,Bengaluru,"Peenya, Bengaluru - CPCB",10-01-2024 07:00:00,13.0270199,77.494094,PM2.5,17,70,44
India,Karnataka,Bengaluru,"Peenya, Bengaluru - CPCB",10-01-2024 07:00:00,13.0270199,77.494094,SO2,11,19,15
India,Karnataka,Bengaluru,"RVCE-Mailasandra, Bengaluru - KSPCB",10-01-2024 07:00:00,12.921418,77.502466,PM10,61,113,98
India,Karnataka,Bengaluru,"RVCE-Mailasandra, Bengaluru - KSPCB",10-01-2024 07:00:00,12.921418,77.502466,CO,44,54,47
India,Karnataka,Chamarajanagar,"Urban, Chamarajanagar - KSPCB",10-01-2024 07:00:00,11.55358,76.55521,NO2,23,29,29
India,Karnataka,Chamarajanagar,"Urban, Chamarajanagar - KSPCB",10-01-2024 07:00:00,11.55358,76.55521,CO,18,120,30
India,Karnataka,Davanagere,"Devaraj Urs Badavane, Davanagere - KSPCB",10-01-2024 07:00:00,14.475800,75.905200,NH3,1,1,1
India,Karnataka,Gadag,"Panchal Nagar, Gadag - KSPCB",10-01-2024 07:00:00,15.411456,75.638133,PM10,51,69,60
India,Karnataka,Gadag,"Panchal Nagar, Gadag - KSPCB",10-01-2024 07:00:00,15.411456,75.638133,CO,50,58,53
India,Karnataka,Hassan,"B.Katihalli, Hassan - KSPCB",10-01-2024 07:00:00,13.008556,76.125258,NH3,3,6,4
India,Karnataka,Hassan,"B.Katihalli, Hassan - KSPCB",10-01-2024 07:00:00,13.008556,76.125258,SO2,NA,NA,NA
India,Karnataka,Haveri,"Ashwini Nagar, Haveri - KSPCB",10-01-2024 07:00:00,14.791800,75.389600,PM2.5,NA,NA,NA
India,Karnataka,Haveri,"Ashwini Nagar, Haveri - KSPCB",10-01-2024 07:00:00,14.791800,75.389600,SO2,NA,NA,NA
India,Karnataka,Haveri,"Ashwini Nagar, Haveri - KSPCB",10-01-2024 07:00:00,14.791800,75.389600,OZONE,18,19,19
India,Karnataka,Hubballi,"Deshpande Nagar, Hubballi - KSPCB",10-01-2024 07:00:00,15.351773,75.140726,PM2.5,49,114,73
India,Karnataka,Hubballi,"Lingaraj Nagar, Hubballi - KSPCB",10-01-2024 07:00:00,15.3714823,75.1160168,NO2,16,16,16
India,Karnataka,Hubballi,"Lingaraj Nagar, Hubballi - KSPCB",10-01-2024 07:00:00,15.3714823,75.1160168,SO2,3,14,6
India,Karnataka,Hubballi,"Lingaraj Nagar, Hubballi - KSPCB",10-01-2024 07:00:00,15.3714823,75.1160168,CO,32,60,42
India,Karnataka,Hubballi,"Lingaraj Nagar, Hubballi - KSPCB",10-01-2024 07:00:00,15.3714823,75.1160168,OZONE,30,51,38
India,Karnataka,Kalaburagi,"Lal Bahadur Shastri Nagar, Kalaburagi - KSPCB",10-01-2024 07:00:00,17.321993,76.822628,PM2.5,NA,NA,NA
India,Karnataka,Kalaburagi,"Lal Bahadur Shastri Nagar, Kalaburagi - KSPCB",10-01-2024 07:00:00,17.321993,76.822628,NH3,2,3,2
India,Karnataka,Kalaburagi,"Lal Bahadur Shastri Nagar, Kalaburagi - KSPCB",10-01-2024 07:00:00,17.321993,76.822628,OZONE,7,46,34
India,Karnataka,Kalaburagi,"Mahatma Basaveswar Colony, Kalaburgi - KSPCB",10-01-2024 07:00:00,17.336318,76.847397,PM10,22,64,48
India,Karnataka,Kalaburagi,"Mahatma Basaveswar Colony, Kalaburgi - KSPCB",10-01-2024 07:00:00,17.336318,76.847397,NO2,8,20,12
India,Karnataka,Karwar,"KHB Colony, Karwar - KSPCB",10-01-2024 07:00:00,14.816666,74.141003,PM2.5,25,120,54
India,Karnataka,Karwar,"KHB Colony, Karwar - KSPCB",10-01-2024 07:00:00,14.816666,74.141003,PM10,31,117,62
India,Karnataka,Karwar,"KHB Colony, Karwar - KSPCB",10-01-2024 07:00:00,14.816666,74.141003,CO,1,160,103
India,Karnataka,Karwar,"KHB Colony, Karwar - KSPCB",10-01-2024 07:00:00,14.816666,74.141003,OZONE,21,22,21
India,Karnataka,Kolar,"Tamaka Ind. Area, Kolar - KSPCB",10-01-2024 07:00:00,13.1276288,78.1570122,SO2,13,17,13
India,Karnataka,Madikeri,"Stuart Hill, Madikeri - KSPCB",10-01-2024 07:00:00,12.415911,75.735050,OZONE,20,35,29
India,Karnataka,Mangalore,"Kadri, Mangalore - KSPCB",10-01-2024 07:00:00,12.889250,74.853000,NO2,2,5,3
India,Karnataka,Mysuru,"Hebbal 1st Stage, Mysuru - KSPCB",10-01-2024 07:00:00,12.21041,76.37376,PM10,23,86,56
India,Karnataka,Mysuru,"Hebbal 1st Stage, Mysuru - KSPCB",10-01-2024 07:00:00,12.21041,76.37376,NO2,6,57,30
India,Karnataka,Mysuru,"Hebbal 1st Stage, Mysuru - KSPCB",10-01-2024 07:00:00,12.21041,76.37376,CO,8,46,14
India,Karnataka,Mysuru,"Hebbal 1st Stage, Mysuru - KSPCB",10-01-2024 07:00:00,12.21041,76.37376,OZONE,10,55,21
India,Karnataka,Raichur,"Haji Colony, Raichur - KSPCB",10-01-2024 07:00:00,16.208139,77.348417,PM10,79,135,108
India,Karnataka,Raichur,"Haji Colony, Raichur - KSPCB",10-01-2024 07:00:00,16.208139,77.348417,SO2,63,94,72
India,Karnataka,Ramanagara,"Vijay Nagar, Ramanagara - KSPCB",10-01-2024 07:00:00,12.733409,77.298051,NO2,1,10,4
India,Karnataka,Ramanagara,"Vijay Nagar, Ramanagara - KSPCB",10-01-2024 07:00:00,12.733409,77.298051,SO2,38,45,42
India,Karnataka,Tumakuru,"Thimmalapura, Tumakuru - KSPCB",10-01-2024 07:00:00,13.377516,77.099072,PM10,54,371,100
India,Karnataka,Tumakuru,"Thimmalapura, Tumakuru - KSPCB",10-01-2024 07:00:00,13.377516,77.099072,SO2,7,12,8
India,Karnataka,Vijayapura,"Ibrahimpur, Vijayapura - KSPCB",10-01-2024 07:00:00,16.802639,75.722694,PM10,42,44,43
India,Karnataka,Vijayapura,"Ibrahimpur, Vijayapura - KSPCB",10-01-2024 07:00:00,16.802639,75.722694,NO2,17,19,19
India,Karnataka,Vijayapura,"Ibrahimpur, Vijayapura - KSPCB",10-01-2024 07:00:00,16.802639,75.722694,OZONE,14,16,15
India,Karnataka,Yadgir,"Collector Office, Yadgir - KSPCB",10-01-2024 07:00:00,16.7602,77.1428,PM10,56,99,78
India,Karnataka,Yadgir,"Collector Office, Yadgir - KSPCB",10-01-2024 07:00:00,16.7602,77.1428,OZONE,18,19,19
India,Kerala,Kollam,"Polayathode, Kollam - Kerala PCB",10-01-2024 07:00:00,8.8787,76.6073,NH3,1,1,1
India,Kerala,Kollam,"Polayathode, Kollam - Kerala PCB",10-01-2024 07:00:00,8.8787,76.6073,CO,8,55,10
India,Kerala,Kollam,"Polayathode, Kollam - Kerala PCB",10-01-2024 07:00:00,8.8787,76.6073,OZONE,31,33,32
India,Kerala,Thiruvananthapuram,"Kariavattom, Thiruvananthapuram - Kerala PCB",10-01-2024 07:00:00,8.563700,76.886500,PM2.5,61,75,66
India,Kerala,Thiruvananthapuram,"Plammoodu, Thiruvananthapuram - Kerala PCB",10-01-2024 07:00:00,8.5149093,76.9435879,CO,19,46,28
India,Kerala,Thiruvananthapuram,"Plammoodu, Thiruvananthapuram - Kerala PCB",10-01-2024 07:00:00,8.5149093,76.9435879,OZONE,9,48,17
India,Kerala,Thrissur,"Corporation Ground, Thrissur - Kerala PCB",10-01-2024 07:00:00,10.532400,76.215900,PM10,55,63,59
India,Madhya Pradesh,Bhopal,"Idgah Hills, Bhopal - MPPCB",10-01-2024 07:00:00,23.264759,77.381568,PM2.5,85,319,228
India,Madhya Pradesh,Bhopal,"Paryavaran Parisar, Bhopal - MPPCB",10-01-2024 07:00:00,23.210494,77.425409,NO2,22,48,32
India,Madhya Pradesh,Bhopal,"T T Nagar, Bhopal - MPPCB",10-01-2024 07:00:00,23.233584,77.400574,NH3,1,3,1
India,Madhya Pradesh,Bhopal,"T T Nagar, Bhopal - MPPCB",10-01-2024 07:00:00,23.233584,77.400574,OZONE,26,122,43
India,Madhya Pradesh,Damoh,"Shrivastav Colony, Damoh - MPPCB",10-01-2024 07:00:00,23.81748678,79.446246,PM2.5,15,61,41
India,Madhya Pradesh,Damoh,"Shrivastav Colony, Damoh - MPPCB",10-01-2024 07:00:00,23.81748678,79.446246,PM10,28,105,73
India,Madhya Pradesh,Dewas,"Bhopal Chauraha, Dewas - MPPCB",10-01-2024 07:00:00,22.9682591,76.064118,NO2,11,14,12
India,Madhya Pradesh,Gwalior,"City Center, Gwalior - MPPCB",10-01-2024 07:00:00,26.203442,78.193251,NO2,33,49,40
India,Madhya Pradesh,Gwalior,"City Center, Gwalior - MPPCB",10-01-2024 07:00:00,26.203442,78.193251,OZONE,16,20,16
India,Madhya Pradesh,Gwalior,"Deen Dayal Nagar, Gwalior - MPPCB",10-01-2024 07:00:00,26.259242,78.216432,NO2,32,47,40
India,Madhya Pradesh,Gwalior,"Deen Dayal Nagar, Gwalior - MPPCB",10-01-2024 07:00:00,26.259242,78.216432,SO2,13,17,15
India,Madhya Pradesh,Gwalior,"Maharaj Bada, Gwalior - MPPCB",10-01-2024 07:00:00,26.200388,78.147714,NH3,8,14,11
India,Madhya Pradesh,Indore,"Chhoti Gwaltoli, Indore - MPPCB",10-01-2024 07:00:00,22.4310,75.5213,NH3,4,6,5
India,Madhya Pradesh,Indore,"Chhoti Gwaltoli, Indore - MPPCB",10-01-2024 07:00:00,22.4310,75.5213,CO,40,99,59
India,Madhya Pradesh,Indore,"Maguda Nagar, Indore - IMC",10-01-2024 07:00:00,22.7524,75.8872,PM2.5,2,219,113
India,Madhya Pradesh,Indore,"Maguda Nagar, Indore - IMC",10-01-2024 07:00:00,22.7524,75.8872,CO,24,30,26
India,Madhya Pradesh,Indore,"Regional Park, Indore - IMC",10-01-2024 07:00:00,22.6780,75.8559,PM2.5,32,105,79
India,Madhya Pradesh,Indore,"Regional Park, Indore - IMC",10-01-2024 07:00:00,22.6780,75.8559,NO2,3,7,6
India,Madhya Pradesh,Indore,"Residency Area, Indore - IMC",10-01-2024 07:00:00,22.7084,75.8815,SO2,14,25,19
India,Madhya Pradesh,Jabalpur,"Gupteshwar, Jabalpur - JMC",10-01-2024 07:00:00,23.142888,79.916147,PM10,38,125,76
India,Madhya Pradesh,Jabalpur,"Gupteshwar, Jabalpur - JMC",10-01-2024 07:00:00,23.142888,79.916147,OZONE,3,133,32
India,Madhya Pradesh,Jabalpur,"Marhatal, Jabalpur - MPPCB",10-01-2024 07:00:00,23.168606,79.932247,PM10,68,173,122
India,Madhya Pradesh,Jabalpur,"Suhagi, Jabalpur - JMC",10-01-2024 07:00:00,23.218135,79.957770,SO2,8,19,13
India,Madhya Pradesh,Jabalpur,"Suhagi, Jabalpur - JMC",10-01-2024 07:00:00,23.218135,79.957770,CO,29,110,51
India,Madhya Pradesh,Jabalpur,"Suhagi, Jabalpur - JMC",10-01-2024 07:00:00,23.218135,79.957770,OZONE,8,187,32
India,Madhya Pradesh,Katni,"Gole Bazar, Katni - MPPCB",10-01-2024 07:00:00,23.50016,80.23284,NH3,4,7,6
India,Madhya Pradesh,Katni,"Gole Bazar, Katni - MPPCB",10-01-2024 07:00:00,23.50016,80.23284,OZONE,8,80,24
India,Madhya Pradesh,Mandideep,"Sector-D Industrial Area, Mandideep - MPPCB",10-01-2024 07:00:00,23.108440,77.511428,NO2,52,100,76
India,Madhya Pradesh,Mandideep,"Sector-D Industrial Area, Mandideep - MPPCB",10-01-2024 07:00:00,23.108440,77.511428,SO2,41,130,94
India,Madhya Pradesh,Pithampur,"Sector-2 Industrial Area, Pithampur - MPPCB",10-01-2024 07:00:00,22.624758,75.675238,SO2,11,17,13
India,Madhya Pradesh,Pithampur,"Sector-2 Industrial Area, Pithampur - MPPCB",10-01-2024 07:00:00,22.624758,75.675238,CO,3,66,62
India,Madhya Pradesh,Sagar,"Civil Lines, Sagar - MPPCB",10-01-2024 07:00:00,23.838586,78.759431,NO2,11,15,13
India,Madhya Pradesh,Sagar,"Civil Lines, Sagar - MPPCB",10-01-2024 07:00:00,23.838586,78.759431,SO2,1,10,6
India,Madhya Pradesh,Sagar,"Civil Lines, Sagar - MPPCB",10-01-2024 07:00:00,23.838586,78.759431,CO,30,52,47
India,Madhya Pradesh,Sagar,"Deen Dayal Nagar, Sagar - MPPCB",10-01-2024 07:00:00,23.8640158,78.80289321,SO2,5,13,9
India,Madhya Pradesh,Satna,"Bandhavgar Colony, Satna - Birla Cement",10-01-2024 07:00:00,24.58434363,80.8549414,PM10,15,70,41
India,Madhya Pradesh,Singrauli,"Suryakiran Bhawan NCL, Singrauli - MPPCB",10-01-2024 07:00:00,24.108970,82.645580,NH3,1,2,2
India,Maharashtra,Ahmednagar,"Tarakpur, Ahmednagar - MPCB",10-01-2024 07:00:00,19.10122,74.73339,NO2,17,66,41
India,Maharashtra,Akola,"Ramdaspeth, Akola - MPCB",10-01-2024 07:00:00,20.719516,77.000253,SO2,8,13,10
India,Maharashtra,Amravati,"Shivneri Colony, Amravati - MPCB",10-01-2024 07:00:00,20.9402359,77.7895248,SO2,1,15,4
India,Maharashtra,Amravati,"Shivneri Colony, Amravati - MPCB",10-01-2024 07:00:00,20.9402359,77.7895248,OZONE,1,81,8
India,Maharashtra,Amravati,"Shri Shivaji Science College, Amaravati - MPCB",10-01-2024 07:00:00,20.939198,77.765701,NO2,19,115,51
India,Maharashtra,Aurangabad,"MIDC Chilkalthana, Aurangabad - MPCB",10-01-2024 07:00:00,19.875620,75.387310,NH3,3,4,4
India,Maharashtra,Aurangabad,"MIDC Chilkalthana, Aurangabad - MPCB",10-01-2024 07:00:00,19.875620,75.387310,OZONE,8,32,10
India,Maharashtra,Aurangabad,"More Chowk Waluj, Aurangabad - MPCB",10-01-2024 07:00:00,19.8389439,75.244448,PM10,NA,NA,NA
India,Maharashtra,Aurangabad,"More Chowk Waluj, Aurangabad - MPCB",10-01-2024 07:00:00,19.8389439,75.244448,NO2,32,47,37
India,Maharashtra,Aurangabad,"Rachnakar Colony, Aurangabad - MPCB",10-01-2024 07:00:00,19.863756,75.321188,OZONE,8,92,9
India,Maharashtra,Belapur,"CBD Belapur, Belapur - MPCB",10-01-2024 07:00:00,19.0243902,73.0406721,OZONE,2,71,3
India,Maharashtra,Bhiwandi,"Gokul Nagar, Bhiwandi - MPCB",10-01-2024 07:00:00,19.309073,73.057223,PM10,86,220,140
India,Maharashtra,Bhiwandi,"Gokul Nagar, Bhiwandi - MPCB",10-01-2024 07:00:00,19.309073,73.057223,CO,28,76,39
India,Maharashtra,Boisar,"Khaira, Boisar - MPCB",10-01-2024 07:00:00,19.786089,72.757971,OZONE,29,30,30
India,Maharashtra,Dhule,"Deopur, Dhule - MPCB",10-01-2024 07:00:00,20.918946,74.776388,NO2,11,29,16
India,Maharashtra,Jalgaon,"Prabhat Colony, Jalgaon - MPCB",10-01-2024 07:00:00,21.001264,75.565602,CO,8,21,12
India,Maharashtra,Jalna,"Old MIDC, Jalna - MPCB",10-01-2024 07:00:00,19.854616,75.905894,SO2,NA,NA,NA
India,Maharashtra,Jalna,"Old MIDC, Jalna - MPCB",10-01-2024 07:00:00,19.854616,75.905894,OZONE,3,45,9
India,Maharashtra,Kolhapur,"Shivaji University, Kolhapur - MPCB",10-01-2024 07:00:00,16.6870449,74.2505872,SO2,2,3,2
India,Maharashtra,Kolhapur,"Sinchan Bhavan, Kolhapur - MPCB",10-01-2024 07:00:00,16.7143745,74.2426398,PM2.5,82,177,124
India,Maharashtra,Kolhapur,"Sinchan Bhavan, Kolhapur - MPCB",10-01-2024 07:00:00,16.7143745,74.2426398,PM10,85,157,132
India,Maharashtra,Kolhapur,"Sinchan Bhavan, Kolhapur - MPCB",10-01-2024 07:00:00,16.7143745,74.2426398,SO2,1,11,2
India,Maharashtra,Latur,"Sawe Wadi, Latur - MPCB",10-01-2024 07:00:00,18.39963,76.57452,NO2,13,67,36
India,Maharashtra,Latur,"Sawe Wadi, Latur - MPCB",10-01-2024 07:00:00,18.39963,76.57452,NH3,8,8,8
India,Maharashtra,Mahad,"Kamble Tarf Birwadi, Mahad - MPCB",10-01-2024 07:00:00,18.1023399,73.4783687,NO2,16,116,55
India,Maharashtra,Mahad,"Kamble Tarf Birwadi, Mahad - MPCB",10-01-2024 07:00:00,18.1023399,73.4783687,CO,9,34,18
India,Maharashtra,Malegaon,"Mahesh Nagar, Malegaon - MPCB",10-01-2024 07:00:00,20.555712,74.529236,NH3,8,15,9
India,Maharashtra,Malegaon,"Mahesh Nagar, Malegaon - MPCB",10-01-2024 07:00:00,20.555712,74.529236,CO,18,50,22
India,Maharashtra,Mira-Bhayandar,"Bhayandar West, Mira-Bhayandar - MPCB",10-01-2024 07:00:00,19.296481,72.840923,NH3,5,8,6
India,Maharashtra,Mira-Bhayandar,"Bhayandar West, Mira-Bhayandar - MPCB",10-01-2024 07:00:00,19.296481,72.840923,SO2,6,72,14
India,Maharashtra,Mumbai,"Bandra Kurla Complex, Mumbai - MPCB",10-01-2024 07:00:00,19.065931,72.862131,CO,8,62,38
India,Maharashtra,Mumbai,"Bandra Kurla Complex, Mumbai - MPCB",10-01-2024 07:00:00,19.065931,72.862131,OZONE,1,58,6
India,Maharashtra,Mumbai,"Borivali East, Mumbai - IITM",10-01-2024 07:00:00,19.23241,72.86895,PM10,12,98,62
India,Maharashtra,Mumbai,"Borivali East, Mumbai - IITM",10-01-2024 07:00:00,19.23241,72.86895,CO,2,75,16
India,Maharashtra,Mumbai,"Chakala-Andheri East, Mumbai - IITM",10-01-2024 07:00:00,19.11074,72.86084,SO2,13,107,39
India,Maharashtra,Mumbai,"Chembur, Mumbai - MPCB",10-01-2024 07:00:00,19.0364585,72.8954371,NO2,20,87,56
India,Maharashtra,Mumbai,"Chembur, Mumbai - MPCB",10-01-2024 07:00:00,19.0364585,72.8954371,NH3,2,3,2
India,Maharashtra,Mumbai,"Chembur, Mumbai - MPCB",10-01-2024 07:00:00,19.0364585,72.8954371,OZONE,1,58,3
India,Maharashtra,Mumbai,"Chhatrapati Shivaji Intl. Airport (T2), Mumbai - MPCB",10-01-2024 07:00:00,19.10078,72.87462,PM10,NA,NA,NA
India,Maharashtra,Mumbai,"Colaba, Mumbai - MPCB",10-01-2024 07:00:00,18.910000,72.820000,PM10,32,154,77
India,Maharashtra,Mumbai,"Ghatkopar, Mumbai - BMC",10-01-2024 07:00:00,19.083694,72.920967,SO2,1,1,1
India,Maharashtra,Mumbai,"Kandivali East, Mumbai - MPCB",10-01-2024 07:00:00,19.205800,72.868200,CO,46,106,64
India,Maharashtra,Mumbai,"Kandivali East, Mumbai - MPCB",10-01-2024 07:00:00,19.205800,72.868200,OZONE,29,31,30
India,Maharashtra,Mumbai,"Kandivali West, Mumbai - BMC",10-01-2024 07:00:00,19.215859,72.831718,CO,10,52,26
India,Maharashtra,Mumbai,"Kherwadi_Bandra East, Mumbai - MPCB",10-01-2024 07:00:00,19.0632143,72.8456324,PM10,57,133,92
India,Maharashtra,Mumbai,"Khindipada-Bhandup West, Mumbai - IITM",10-01-2024 07:00:00,19.1653323,72.922099,PM10,27,141,96
India,Maharashtra,Mumbai,"Khindipada-Bhandup West, Mumbai - IITM",10-01-2024 07:00:00,19.1653323,72.922099,NO2,1,6,3
India,Maharashtra,Mumbai,"Khindipada-Bhandup West, Mumbai - IITM",10-01-2024 07:00:00,19.1653323,72.922099,SO2,2,9,6
India,Maharashtra,Mumbai,"Khindipada-Bhandup West, Mumbai - IITM",10-01-2024 07:00:00,19.1653323,72.922099,CO,32,91,44
India,Maharashtra,Mumbai,"Kurla, Mumbai - MPCB",10-01-2024 07:00:00,19.0863,72.8888,PM2.5,NA,NA,NA
India,Maharashtra,Mumbai,"Malad West, Mumbai - IITM",10-01-2024 07:00:00,19.19709,72.82204,PM2.5,11,299,179
India,Maharashtra,Mumbai,"Malad West, Mumbai - IITM",10-01-2024 07:00:00,19.19709,72.82204,PM10,NA,NA,NA
India,Maharashtra,Mumbai,"Malad West, Mumbai - IITM",10-01-2024 07:00:00,19.19709,72.82204,NH3,2,3,2
India,Maharashtra,Mumbai,"Mazgaon, Mumbai - IITM",10-01-2024 07:00:00,18.96702,72.84214,NO2,47,95,72
India,Maharashtra,Mumbai,"Mazgaon, Mumbai - IITM",10-01-2024 07:00:00,18.96702,72.84214,CO,1,71,7
India,Maharashtra,Mumbai,"Mindspace-Malad West, Mumbai - MPCB",10-01-2024 07:00:00,19.1878657,72.8304069,PM10,38,111,80
India,Maharashtra,Mumbai,"Mindspace-Malad West, Mumbai - MPCB",10-01-2024 07:00:00,19.1878657,72.8304069,NH3,8,9,9
India,Maharashtra,Mumbai,"Mindspace-Malad West, Mumbai - MPCB",10-01-2024 07:00:00,19.1878657,72.8304069,OZONE,2,74,6
India,Maharashtra,Mumbai,"Navy Nagar-Colaba, Mumbai - IITM",10-01-2024 07:00:00,18.897756,72.813320,SO2,1,39,7
India,Maharashtra,Mumbai,"Powai, Mumbai - MPCB",10-01-2024 07:00:00,19.137500,72.915056,PM10,53,184,113
India,Maharashtra,Mumbai,"Powai, Mumbai - MPCB",10-01-2024 07:00:00,19.137500,72.915056,NH3,1,1,1
India,Maharashtra,Mumbai,"Powai, Mumbai - MPCB",10-01-2024 07:00:00,19.137500,72.915056,SO2,44,48,46
India,Maharashtra,Mumbai,"Powai, Mumbai - MPCB",10-01-2024 07:00:00,19.137500,72.915056,OZONE,27,55,28
India,Maharashtra,Mumbai,"Sewri, Mumbai - BMC",10-01-2024 07:00:00,19.000084,72.856730,NO2,29,98,52
India,Maharashtra,Mumbai,"Sewri, Mumbai - BMC",10-01-2024 07:00:00,19.000084,72.856730,NH3,4,13,10
India,Maharashtra,Mumbai,"Siddharth Nagar-Worli, Mumbai - IITM",10-01-2024 07:00:00,19.000083,72.813993,NO2,126,179,149
India,Maharashtra,Mumbai,"Siddharth Nagar-Worli, Mumbai - IITM",10-01-2024 07:00:00,19.000083,72.813993,NH3,21,41,32
India,Maharashtra,Mumbai,"Sion, Mumbai - MPCB",10-01-2024 07:00:00,19.047000,72.874600,NH3,1,2,1
India,Maharashtra,Mumbai,"Sion, Mumbai - MPCB",10-01-2024 07:00:00,19.047000,72.874600,SO2,34,38,35
India,Maharashtra,Mumbai,"Sion, Mumbai - MPCB",10-01-2024 07:00:00,19.047000,72.874600,CO,16,56,31
India,Maharashtra,Mumbai,"Vasai West, Mumbai - MPCB",10-01-2024 07:00:00,19.383200,72.820400,SO2,15,16,16
India,Maharashtra,Mumbai,"Vasai West, Mumbai - MPCB",10-01-2024 07:00:00,19.383200,72.820400,CO,30,50,36
India,Maharashtra,Mumbai,"Vasai West, Mumbai - MPCB",10-01-2024 07:00:00,19.383200,72.820400,OZONE,3,50,6
India,Maharashtra,Mumbai,"Vile Parle West, Mumbai - MPCB",10-01-2024 07:00:00,19.10861,72.83622,SO2,11,17,14
India,Maharashtra,Mumbai,"Worli, Mumbai - MPCB",10-01-2024 07:00:00,18.9936162,72.8128113,NO2,16,17,17
India,Maharashtra,Mumbai,"Worli, Mumbai - MPCB",10-01-2024 07:00:00,18.9936162,72.8128113,OZONE,7,10,8
India,Maharashtra,Nagpur,"Ambazari, Nagpur - MPCB",10-01-2024 07:00:00,21.121801,79.04952,PM10,89,185,121
India,Maharashtra,Nagpur,"Mahal, Nagpur - MPCB",10-01-2024 07:00:00,21.14472,79.107595,PM2.5,159,305,224
India,Maharashtra,Nagpur,"Mahal, Nagpur - MPCB",10-01-2024 07:00:00,21.14472,79.107595,CO,26,172,69
India,Maharashtra,Nagpur,"Opp GPO Civil Lines, Nagpur - MPCB",10-01-2024 07:00:00,21.152875,79.0517531,PM10,86,144,112
India,Maharashtra,Nagpur,"Ram Nagar, Nagpur - MPCB",10-01-2024 07:00:00,21.143383,79.048912,PM10,103,198,128
India,Maharashtra,Nagpur,"Ram Nagar, Nagpur - MPCB",10-01-2024 07:00:00,21.143383,79.048912,NH3,5,5,5
India,Maharashtra,Nagpur,"Ram Nagar, Nagpur - MPCB",10-01-2024 07:00:00,21.143383,79.048912,CO,22,92,41
India,Maharashtra,Nashik,"Gangapur Road, Nashik - MPCB",10-01-2024 07:00:00,20.0073285,73.7762427,PM2.5,NA,NA,NA
India,Maharashtra,Nashik,"Gangapur Road, Nashik - MPCB",10-01-2024 07:00:00,20.0073285,73.7762427,OZONE,NA,NA,NA
India,Maharashtra,Nashik,"MIDC Ambad, Nashik - MPCB",10-01-2024 07:00:00,19.950220,73.731480,OZONE,10,61,22
India,Maharashtra,Navi Mumbai,"Kopripada-Vashi, Navi Mumbai - MPCB",10-01-2024 07:00:00,19.090337,73.014232,PM2.5,8,311,89
India,Maharashtra,Navi Mumbai,"Mahape, Navi Mumbai - MPCB",10-01-2024 07:00:00,19.1135051,73.008978,NH3,3,3,3
India,Maharashtra,Navi Mumbai,"Nerul, Navi Mumbai - MPCB",10-01-2024 07:00:00,19.008751,73.016620,PM2.5,26,156,61
India,Maharashtra,Navi Mumbai,"Nerul, Navi Mumbai - MPCB",10-01-2024 07:00:00,19.008751,73.016620,PM10,29,148,89
India,Maharashtra,Navi Mumbai,"Nerul, Navi Mumbai - MPCB",10-01-2024 07:00:00,19.008751,73.016620,NO2,7,28,14
India,Maharashtra,Navi Mumbai,"Nerul, Navi Mumbai - MPCB",10-01-2024 07:00:00,19.008751,73.016620,CO,13,52,16
India,Maharashtra,Navi Mumbai,"Sanpada, Navi Mumbai - MPCB",10-01-2024 07:00:00,19.0575752,73.0151367,PM2.5,33,192,84
India,Maharashtra,Navi Mumbai,"Sector-19A Nerul, Navi Mumbai - IITM",10-01-2024 07:00:00,19.044,73.0325,CO,2,102,7
India,Maharashtra,Parbhani,"Masoom Colony, Parbhani - MPCB",10-01-2024 07:00:00,19.265594,76.761463,NO2,7,34,18
India,Maharashtra,Parbhani,"Masoom Colony, Parbhani - MPCB",10-01-2024 07:00:00,19.265594,76.761463,CO,32,88,44
India,Maharashtra,Pimpri-Chinchwad,"Gavalinagar, Pimpri Chinchwad - MPCB",10-01-2024 07:00:00,18.63673,73.82487,NH3,5,7,6
India,Maharashtra,Pimpri-Chinchwad,"Thergaon, Pimpri Chinchwad - MPCB",10-01-2024 07:00:00,18.616318,73.765797,PM2.5,56,232,102
India,Maharashtra,Pimpri-Chinchwad,"Thergaon, Pimpri Chinchwad - MPCB",10-01-2024 07:00:00,18.616318,73.765797,PM10,53,138,84
India,Maharashtra,Pimpri-Chinchwad,"Thergaon, Pimpri Chinchwad - MPCB",10-01-2024 07:00:00,18.616318,73.765797,NO2,22,52,40
India,Maharashtra,Pune,"Alandi, Pune - IITM",10-01-2024 07:00:00,18.675076,73.892743,PM10,30,91,48
India,Maharashtra,Pune,"Alandi, Pune - IITM",10-01-2024 07:00:00,18.675076,73.892743,NO2,16,22,19
India,Maharashtra,Pune,"Alandi, Pune - IITM",10-01-2024 07:00:00,18.675076,73.892743,CO,33,51,42
India,Maharashtra,Pune,"Alandi, Pune - IITM",10-01-2024 07:00:00,18.675076,73.892743,OZONE,1,10,2
India,Maharashtra,Pune,"Karve Road, Pune - MPCB",10-01-2024 07:00:00,18.5011743,73.8165527,SO2,18,22,20
India,Maharashtra,Pune,"Mhada Colony, Pune - IITM",10-01-2024 07:00:00,18.573040,73.927715,CO,32,51,45
India,Maharashtra,Pune,"Revenue Colony-Shivajinagar, Pune - IITM",10-01-2024 07:00:00,18.530085,73.849598,PM10,57,160,116
India,Maharashtra,Pune,"Revenue Colony-Shivajinagar, Pune - IITM",10-01-2024 07:00:00,18.530085,73.849598,NH3,30,30,30
India,Maharashtra,Pune,"Transport Nagar-Nigdi, Pune - IITM",10-01-2024 07:00:00,18.664282,73.763966,PM2.5,35,112,54
India,Maharashtra,Sangli,"Vijay Nagar, Sangli - MPCB",10-01-2024 07:00:00, 16.5038,74.3623,PM2.5,61,111,80
India,Maharashtra,Sangli,"Vijay Nagar, Sangli - MPCB",10-01-2024 07:00:00, 16.5038,74.3623,SO2,2,17,9
India,Maharashtra,Solapur,"Dnyaneshwar Nagar, Solapur - MPCB",10-01-2024 07:00:00,17.6336264,75.9132495,NH3,17,28,22
India,Maharashtra,Solapur,"Dnyaneshwar Nagar, Solapur - MPCB",10-01-2024 07:00:00,17.6336264,75.9132495,OZONE,27,68,40
India,Maharashtra,Solapur,"Ratandeep Housing Society, Solapur - MPCB",10-01-2024 07:00:00,17.65439,75.90649,PM2.5,58,100,81
India,Maharashtra,Solapur,"Ratandeep Housing Society, Solapur - MPCB",10-01-2024 07:00:00,17.65439,75.90649,NH3,8,10,9
India,Maharashtra,Solapur,"Solapur, Solapur - MPCB",10-01-2024 07:00:00,17.6599188,75.9063906,NO2,46,54,49
India,Maharashtra,Solapur,"Solapur, Solapur - MPCB",10-01-2024 07:00:00,17.6599188,75.9063906,SO2,30,38,34
India,Maharashtra,Thane,"Kasarvadavali, Thane - MPCB",10-01-2024 07:00:00,19.26777,72.97182,SO2,5,43,17
India,Maharashtra,Thane,"Upvan Fort, Thane - MPCB",10-01-2024 07:00:00,19.222279,72.957979,NH3,8,15,10
India,Maharashtra,Thane,"Upvan Fort, Thane - MPCB",10-01-2024 07:00:00,19.222279,72.957979,OZONE,9,125,20
India,Maharashtra,Ulhasnagar,"Sidhi Vinayak Nagar, Ulhasnagar - MPCB",10-01-2024 07:00:00,19.235581,73.159121,NO2,8,45,19
India,Maharashtra,Ulhasnagar,"Sidhi Vinayak Nagar, Ulhasnagar - MPCB",10-01-2024 07:00:00,19.235581,73.159121,NH3,2,4,3
India,Maharashtra,Virar,"Bolinj, Virar - MPCB",10-01-2024 07:00:00,19.4458210,72.7988231,NH3,5,12,7
India,Manipur,Imphal,"DM College of Science, Imphal - Manipur PCB",10-01-2024 07:00:00,24.8207389,93.9423085,NH3,2,2,2
India,Manipur,Imphal,"DM College of Science, Imphal - Manipur PCB",10-01-2024 07:00:00,24.8207389,93.9423085,CO,6,6,6
India,Manipur,Imphal,"Manipur University, Imphal - Manipur PCB",10-01-2024 07:00:00,24.7524239,93.9286218,SO2,59,64,61
India,Meghalaya,Shillong,"Lumpyngngad, Shillong - Meghalaya PCB",10-01-2024 07:00:00,25.5586,91.8985,NO2,6,7,6
India,Meghalaya,Shillong,"Lumpyngngad, Shillong - Meghalaya PCB",10-01-2024 07:00:00,25.5586,91.8985,NH3,1,1,1
India,Mizoram,Aizawl,"Sikulpuikawn, Aizawl - Mizoram PCB",10-01-2024 07:00:00,23.7176342,92.7192841,OZONE,1,9,4
India,Nagaland,Kohima,"PWD Juction, Kohima - NPCB",10-01-2024 07:00:00,25.6635413,94.0989878,PM10,34,149,74
India,Nagaland,Kohima,"PWD Juction, Kohima - NPCB",10-01-2024 07:00:00,25.6635413,94.0989878,SO2,80,100,90
India,Odisha,Angul,"Hakimapada, Angul - OSPCB",10-01-2024 07:00:00,20.832874,85.104082,NO2,30,99,49
India,Odisha,Baripada,"Meher Colony, Baripada - OSPCB",10-01-2024 07:00:00,21.941841,86.728318,PM10,133,273,177
India,Odisha,Bhubaneswar,"Lingraj Mandir, Bhubaneswar - OSPCB",10-01-2024 07:00:00,20.240790,85.836784,OZONE,4,157,37
India,Odisha,Bhubaneswar,"Patia, Bhubaneswar - OSPCB",10-01-2024 07:00:00,20.34652,85.81630,CO,28,78,56
India,Odisha,Bileipada,"Tata Township, Bileipada - OSPCB",10-01-2024 07:00:00,22.06156703,85.47409613,NH3,NA,NA,NA
India,Odisha,Brajrajnagar,"GM Office, Brajrajnagar - OSPCB",10-01-2024 07:00:00,21.8004996,83.8396977,PM10,104,171,131
India,Odisha,Brajrajnagar,"GM Office, Brajrajnagar - OSPCB",10-01-2024 07:00:00,21.8004996,83.8396977,CO,61,103,83
India,Odisha,Cuttack,"CDA Area, Cuttack - OSPCB",10-01-2024 07:00:00,20.48891     ,85.84768     ,SO2,3,56,19
India,Odisha,Cuttack,"CDA Area, Cuttack - OSPCB",10-01-2024 07:00:00,20.48891     ,85.84768     ,OZONE,2,102,18
India,Odisha,Keonjhar,"Jagamohanpur, Keonjhar - OSPCB",10-01-2024 07:00:00,21.643900,85.599355,NH3,10,15,12
India,Odisha,Keonjhar,"Jagamohanpur, Keonjhar - OSPCB",10-01-2024 07:00:00,21.643900,85.599355,SO2,8,25,10
India,Odisha,Nayagarh,"Dabuna, Nayagarh - OSPCB",10-01-2024 07:00:00,21.847279,85.416905,OZONE,1,50,2
India,Odisha,Rairangpur,"Divisional Forest Office, Rairangpur - OSPCB",10-01-2024 07:00:00,22.265816,86.174829,CO,20,52,30
India,Odisha,Rourkela,"Sector-2, Rourkela - OSPCB",10-01-2024 07:00:00,22.24500000,84.88111111,PM2.5,31,94,61
India,Odisha,Tensa,"Barsua Iron Ore Mines, Tensa - OSPCB",10-01-2024 07:00:00,21.869985,85.167016,SO2,13,19,16
India,Puducherry,Puducherry,"Jawahar Nagar, Puducherry - PPCC",10-01-2024 07:00:00,11.9309,79.8027,NH3,2,3,2
India,Puducherry,Puducherry,"Jawahar Nagar, Puducherry - PPCC",10-01-2024 07:00:00,11.9309,79.8027,OZONE,17,48,31
India,Punjab,Amritsar,"Golden Temple, Amritsar - PPCB",10-01-2024 07:00:00,31.620000,74.876512,NO2,8,45,16
India,Punjab,Bathinda,"Hardev Nagar, Bathinda - PPCB",10-01-2024 07:00:00,30.233011,74.907758,PM10,94,173,128
India,Punjab,Jalandhar,"Civil Line, Jalandhar - PPCB",10-01-2024 07:00:00,31.321907,75.578914,CO,46,70,49
India,Punjab,Khanna,"Kalal Majra, Khanna - PPCB",10-01-2024 07:00:00,30.736056 ,76.209694,NO2,30,33,31
India,Punjab,Ludhiana,"Punjab Agricultural University, Ludhiana - PPCB",10-01-2024 07:00:00,30.9028,75.8086,NH3,4,5,5
India,Punjab,Mandi Gobindgarh,"RIMT University, Mandi Gobindgarh - PPCB",10-01-2024 07:00:00,30.649961,76.331442,PM2.5,68,270,166
India,Punjab,Mandi Gobindgarh,"RIMT University, Mandi Gobindgarh - PPCB",10-01-2024 07:00:00,30.649961,76.331442,PM10,71,162,123
India,Punjab,Patiala,"Model Town, Patiala - PPCB",10-01-2024 07:00:00,30.349388,76.366642,PM2.5,58,214,117
India,Punjab,Rupnagar,"Ratanpura, Rupnagar - Ambuja Cements",10-01-2024 07:00:00,31.0325454,76.5623046,PM2.5,71,219,136
India,Punjab,Rupnagar,"Ratanpura, Rupnagar - Ambuja Cements",10-01-2024 07:00:00,31.0325454,76.5623046,CO,60,105,88
India,Rajasthan,Ajmer,"Civil Lines,  Ajmer - RSPCB",10-01-2024 07:00:00,26.470859,74.646594,PM2.5,5,169,101
India,Rajasthan,Ajmer,"Civil Lines,  Ajmer - RSPCB",10-01-2024 07:00:00,26.470859,74.646594,SO2,10,23,15
India,Rajasthan,Ajmer,"Civil Lines,  Ajmer - RSPCB",10-01-2024 07:00:00,26.470859,74.646594,OZONE,2,38,16
India,Rajasthan,Alwar,"Moti Doongri, Alwar - RSPCB",10-01-2024 07:00:00,27.554793,76.611536,NH3,5,7,6
India,Rajasthan,Baran,"Bamboliya, Baran - RSPCB",10-01-2024 07:00:00,25.106006,76.469948,PM2.5,37,314,167
India,Rajasthan,Baran,"Bamboliya, Baran - RSPCB",10-01-2024 07:00:00,25.106006,76.469948,CO,45,66,51
India,Rajasthan,Bhilwara,"Pratap Nagar, Bhilwara - RSPCB",10-01-2024 07:00:00,25.339605,74.618883,PM2.5,NA,NA,NA
India,Rajasthan,Bhilwara,"Pratap Nagar, Bhilwara - RSPCB",10-01-2024 07:00:00,25.339605,74.618883,PM10,NA,NA,NA
India,Rajasthan,Bhilwara,"Pratap Nagar, Bhilwara - RSPCB",10-01-2024 07:00:00,25.339605,74.618883,SO2,9,17,13
India,Rajasthan,Bhiwadi,"RIICO Ind. Area III, Bhiwadi - RSPCB",10-01-2024 07:00:00,28.194909,76.862296,PM10,87,153,123
India,Rajasthan,Bundi,"New Colony, Bundi - RSPCB",10-01-2024 07:00:00,25.435774,75.644272,SO2,1,3,2
India,Rajasthan,Chittorgarh,"Shastri Nagar, Chittorgarh - RSPCB",10-01-2024 07:00:00,24.892047,74.623527,PM10,128,196,161
India,Rajasthan,Chittorgarh,"Shastri Nagar, Chittorgarh - RSPCB",10-01-2024 07:00:00,24.892047,74.623527,NH3,3,7,4
India,Rajasthan,Chittorgarh,"Shastri Nagar, Chittorgarh - RSPCB",10-01-2024 07:00:00,24.892047,74.623527,CO,26,76,52
India,Rajasthan,Dausa,"Khatikan Mohalla, Dausa - RSPCB",10-01-2024 07:00:00,26.895552,76.334753,CO,22,139,76
India,Rajasthan,Dholpur,"Raja Ganj, Dholpur - RSPCB",10-01-2024 07:00:00,26.699557,77.898881,PM10,112,402,203
India,Rajasthan,Dungarpur,"Bhoiwada, Dungarpur - RSPCB",10-01-2024 07:00:00,23.837789,73.714926,CO,34,52,43
India,Rajasthan,Dungarpur,"Bhoiwada, Dungarpur - RSPCB",10-01-2024 07:00:00,23.837789,73.714926,OZONE,18,47,29
India,Rajasthan,Hanumangarh,"Housing Board, Hanumangarh - RSPCB",10-01-2024 07:00:00,29.610750,74.283608,SO2,NA,NA,NA
India,Rajasthan,Hanumangarh,"Housing Board, Hanumangarh - RSPCB",10-01-2024 07:00:00,29.610750,74.283608,OZONE,12,23,22
India,Rajasthan,Jaipur,"Mansarovar Sector-12, Jaipur - RSPCB",10-01-2024 07:00:00,26.843698,75.766894,SO2,1,6,4
India,Rajasthan,Jaipur,"Mansarovar Sector-12, Jaipur - RSPCB",10-01-2024 07:00:00,26.843698,75.766894,OZONE,1,43,1
India,Rajasthan,Jaipur,"Police Commissionerate, Jaipur - RSPCB",10-01-2024 07:00:00,26.9164092,75.7994901,PM10,125,190,157
India,Rajasthan,Jaipur,"RIICO Sitapura, Jaipur - RSPCB",10-01-2024 07:00:00,26.786682,75.827928,OZONE,1,53,2
India,Rajasthan,Jaipur,"Shastri Nagar, Jaipur - RSPCB",10-01-2024 07:00:00,26.9502929,75.730943,NH3,8,25,13
India,Rajasthan,Jaipur,"Shastri Nagar, Jaipur - RSPCB",10-01-2024 07:00:00,26.9502929,75.730943,OZONE,9,36,15
India,Rajasthan,Jaisalmer,"Sadar Bazar, Jaisalmer - RSPCB",10-01-2024 07:00:00,26.912329,70.909168,NH3,9,13,11
India,Rajasthan,Jalore,"Mudtra Sili, Jalore - RSPCB",10-01-2024 07:00:00,25.344694,72.626208,PM10,109,184,141
India,Rajasthan,Jalore,"Mudtra Sili, Jalore - RSPCB",10-01-2024 07:00:00,25.344694,72.626208,SO2,2,8,5
India,Rajasthan,Jalore,"Mudtra Sili, Jalore - RSPCB",10-01-2024 07:00:00,25.344694,72.626208,OZONE,8,83,56
India,Rajasthan,Jhunjhunu,"Indra Nagar, Jhunjhunu - RSPCB",10-01-2024 07:00:00,28.108988,75.386577,NO2,8,45,22
India,Rajasthan,Jhunjhunu,"Indra Nagar, Jhunjhunu - RSPCB",10-01-2024 07:00:00,28.108988,75.386577,NH3,8,11,10
India,Rajasthan,Jhunjhunu,"Indra Nagar, Jhunjhunu - RSPCB",10-01-2024 07:00:00,28.108988,75.386577,SO2,2,3,2
India,Rajasthan,Jodhpur,"Collectorate, Jodhpur - RSPCB",10-01-2024 07:00:00,26.268249,73.0193853,OZONE,43,96,53
India,Rajasthan,Jodhpur,"Jhalamand, Jodhpur - RSPCB",10-01-2024 07:00:00,26.215415,73.070156,PM2.5,73,176,129
India,Rajasthan,Jodhpur,"Mandor, Jodhpur - RSPCB",10-01-2024 07:00:00,26.358805,73.047444,SO2,1,3,2
India,Rajasthan,Jodhpur,"Samrat Ashok Udhyan, Jodhpur - RSPCB",10-01-2024 07:00:00,26.253384,72.976571,PM10,72,151,127
India,Rajasthan,Jodhpur,"Samrat Ashok Udhyan, Jodhpur - RSPCB",10-01-2024 07:00:00,26.253384,72.976571,NO2,18,47,27
India,Rajasthan,Karauli,"Satyawati Vihar, Karauli - RSPCB",10-01-2024 07:00:00,26.506177,77.025989,PM10,122,238,166
India,Rajasthan,Kota,"Dhanmandi, Kota - RSPCB",10-01-2024 07:00:00,25.164090,75.858137,NO2,18,351,56
India,Rajasthan,Kota,"Dhanmandi, Kota - RSPCB",10-01-2024 07:00:00,25.164090,75.858137,CO,35,76,48
India,Rajasthan,Kota,"Nayapura, Kota - RSPCB",10-01-2024 07:00:00,25.196024,75.855668,OZONE,2,55,22
India,Rajasthan,Kota,"Shrinath Puram, Kota - RSPCB",10-01-2024 07:00:00,25.14389,75.821256,PM10,67,142,110
India,Rajasthan,Nagaur,"Karni Colony, Nagaur - RSPCB",10-01-2024 07:00:00,27.213494,73.734444,NH3,9,30,12
India,Rajasthan,Pratapgarh,"Pragati Nagar, Pratapgarh - RSPCB",10-01-2024 07:00:00,24.041198,74.780702,PM10,89,223,146
India,Rajasthan,Rajsamand,"Dhoinda, Rajsamand - RSPCB",10-01-2024 07:00:00,25.036360,73.883502,PM10,37,165,96
India,Rajasthan,Sawai Madhopur,"Sahu Nagar, Sawai Madhopur - RSPCB",10-01-2024 07:00:00,26.031443,76.359327,CO,9,81,55
India,Rajasthan,Sikar,"Radhakishan Pura, Sikar - RSPCB",10-01-2024 07:00:00,27.608912,75.153302,PM2.5,48,301,176
India,Rajasthan,Sikar,"Radhakishan Pura, Sikar - RSPCB",10-01-2024 07:00:00,27.608912,75.153302,NH3,7,10,8
India,Rajasthan,Sirohi,"Vedhaynath Colony, Sirohi - RSPCB",10-01-2024 07:00:00,24.885261,72.857549,NO2,21,58,32
India,Rajasthan,Sirohi,"Vedhaynath Colony, Sirohi - RSPCB",10-01-2024 07:00:00,24.885261,72.857549,NH3,5,9,6
India,Rajasthan,Sirohi,"Vedhaynath Colony, Sirohi - RSPCB",10-01-2024 07:00:00,24.885261,72.857549,SO2,1,5,3
India,Rajasthan,Sri Ganganagar,"Old City, Sri Ganganagar - RSPCB",10-01-2024 07:00:00,29.931624,73.864511,NH3,4,14,7
India,Rajasthan,Sri Ganganagar,"Old City, Sri Ganganagar - RSPCB",10-01-2024 07:00:00,29.931624,73.864511,CO,47,108,54
India,Rajasthan,Sri Ganganagar,"Old City, Sri Ganganagar - RSPCB",10-01-2024 07:00:00,29.931624,73.864511,OZONE,12,57,49
India,Sikkim,Gangtok,"Zero Point GICI, Gangtok - SSPCB",10-01-2024 07:00:00,27.338530,88.614099,OZONE,17,65,33
India,TamilNadu,Chengalpattu,"Crescent University, Chengalpattu - TNPCB",10-01-2024 07:00:00,12.8777316,80.0834807,PM2.5,13,66,42
India,TamilNadu,Chennai,"Alandur Bus Depot, Chennai - CPCB",10-01-2024 07:00:00,12.9099161,80.1076538,PM10,82,104,91
India,TamilNadu,Chennai,"Alandur Bus Depot, Chennai - CPCB",10-01-2024 07:00:00,12.9099161,80.1076538,SO2,25,32,28
India,TamilNadu,Chennai,"Kodungaiyur, Chennai - TNPCB",10-01-2024 07:00:00,13.1278,80.2642,NO2,8,16,11
India,TamilNadu,Chennai,"Kodungaiyur, Chennai - TNPCB",10-01-2024 07:00:00,13.1278,80.2642,CO,27,40,34
India,TamilNadu,Chennai,"Manali, Chennai - CPCB",10-01-2024 07:00:00,13.164544,80.26285,SO2,2,14,7
India,TamilNadu,Chennai,"Manali, Chennai - CPCB",10-01-2024 07:00:00,13.164544,80.26285,CO,10,92,45
India,TamilNadu,Chennai,"Perungudi, Chennai - TNPCB",10-01-2024 07:00:00,12.9533,80.2357,CO,16,31,20
India,TamilNadu,Chennai,"Perungudi, Chennai - TNPCB",10-01-2024 07:00:00,12.9533,80.2357,OZONE,14,83,68
India,TamilNadu,Chennai,"Royapuram, Chennai - TNPCB",10-01-2024 07:00:00,13.1036,80.2909,NH3,1,1,1
India,TamilNadu,Chennai,"Royapuram, Chennai - TNPCB",10-01-2024 07:00:00,13.1036,80.2909,SO2,1,5,3
India,TamilNadu,Chennai,"Royapuram, Chennai - TNPCB",10-01-2024 07:00:00,13.1036,80.2909,CO,22,32,24
India,TamilNadu,Coimbatore,"PSG College of Arts and Science, Coimbatore - TNPCB",10-01-2024 07:00:00,11.0328,77.0349,CO,8,32,21
India,TamilNadu,Coimbatore,"PSG College of Arts and Science, Coimbatore - TNPCB",10-01-2024 07:00:00,11.0328,77.0349,OZONE,3,5,4
India,TamilNadu,Cuddalore,"Kudikadu, Cuddalore - TNPCB",10-01-2024 07:00:00,11.6829898,79.7532099,PM10,47,129,78
India,TamilNadu,Kanchipuram,"Kilambi, Kanchipuram - TNPCB",10-01-2024 07:00:00,12.864618,79.659968,PM2.5,33,62,51
India,TamilNadu,Kanchipuram,"Kilambi, Kanchipuram - TNPCB",10-01-2024 07:00:00,12.864618,79.659968,CO,NA,NA,NA
India,TamilNadu,Ooty,"Bombay Castel, Ooty - TNPCB",10-01-2024 07:00:00,11.4068288,76.7138973,PM2.5,2,37,25
India,TamilNadu,Ooty,"Bombay Castel, Ooty - TNPCB",10-01-2024 07:00:00,11.4068288,76.7138973,NO2,NA,NA,NA
India,TamilNadu,Ooty,"Bombay Castel, Ooty - TNPCB",10-01-2024 07:00:00,11.4068288,76.7138973,NH3,NA,NA,NA
India,TamilNadu,Palkalaiperur,"Bharathidasan University, Palkalaiperur - TNPCB",10-01-2024 07:00:00,10.681158,78.741746,SO2,26,28,27
India,TamilNadu,Palkalaiperur,"Bharathidasan University, Palkalaiperur - TNPCB",10-01-2024 07:00:00,10.681158,78.741746,OZONE,1,2,1
India,TamilNadu,Ramanathapuram,"Chalai Bazaar, Ramanathapuram - TNPCB",10-01-2024 07:00:00,9.36399,78.831977,PM10,17,51,35
India,TamilNadu,Salem,"Sona College of Technology, Salem - TNPCB",10-01-2024 07:00:00,11.679111,78.125052,PM10,31,86,54
India,TamilNadu,Salem,"Sona College of Technology, Salem - TNPCB",10-01-2024 07:00:00,11.679111,78.125052,OZONE,2,4,3
India,TamilNadu,Thoothukudi,"Meelavittan, Thoothukudi - TNPCB",10-01-2024 07:00:00,8.816428 ,78.099039,OZONE,5,28,11
India,TamilNadu,Tiruchirappalli,"St Joseph College, Tiruchirappalli - TNPCB",10-01-2024 07:00:00,10.830158,78.691849,PM2.5,39,62,48
India,TamilNadu,Tiruchirappalli,"St Joseph College, Tiruchirappalli - TNPCB",10-01-2024 07:00:00,10.830158,78.691849,NH3,3,3,3
India,TamilNadu,Tiruchirappalli,"St Joseph College, Tiruchirappalli - TNPCB",10-01-2024 07:00:00,10.830158,78.691849,SO2,3,17,5
India,TamilNadu,Tirupur,"Kumaran College, Tirupur - TNPCB",10-01-2024 07:00:00,11.0973603,77.3228673,PM2.5,23,63,46
India,TamilNadu,Tirupur,"Kumaran College, Tirupur - TNPCB",10-01-2024 07:00:00,11.0973603,77.3228673,CO,30,114,76
India,TamilNadu,Vellore,"Vasanthapuram, Vellore - TNPCB",10-01-2024 07:00:00,12.909494,79.131861,PM2.5,NA,NA,NA
India,TamilNadu,Vellore,"Vasanthapuram, Vellore - TNPCB",10-01-2024 07:00:00,12.909494,79.131861,CO,24,65,65
India,TamilNadu,Virudhunagar,"Collectorate Office, Virudhunagar - TNPCB",10-01-2024 07:00:00,9.559382,77.948828,NH3,NA,NA,NA
India,Telangana,Hyderabad,"Bollaram Industrial Area, Hyderabad - TSPCB",10-01-2024 07:00:00,17.540891,78.358528,PM10,107,131,116
India,Telangana,Hyderabad,"Bollaram Industrial Area, Hyderabad - TSPCB",10-01-2024 07:00:00,17.540891,78.358528,OZONE,27,41,38
India,Telangana,Hyderabad,"ECIL Kapra, Hyderabad - TSPCB",10-01-2024 07:00:00,17.470431,78.566959,NO2,10,12,11
India,Telangana,Hyderabad,"ICRISAT Patancheru, Hyderabad - TSPCB",10-01-2024 07:00:00,17.518400,78.278777,NO2,15,17,16
India,Telangana,Hyderabad,"IITH Kandi, Hyderabad - TSPCB",10-01-2024 07:00:00,17.585705,78.126199,NO2,NA,NA,NA
India,Telangana,Hyderabad,"IITH Kandi, Hyderabad - TSPCB",10-01-2024 07:00:00,17.585705,78.126199,NH3,NA,NA,NA
India,Telangana,Hyderabad,"IITH Kandi, Hyderabad - TSPCB",10-01-2024 07:00:00,17.585705,78.126199,SO2,NA,NA,NA
India,Telangana,Hyderabad,"Kokapet, Hyderabad - TSPCB",10-01-2024 07:00:00,17.393559,78.339194,NO2,7,11,9
India,Telangana,Hyderabad,"Kokapet, Hyderabad - TSPCB",10-01-2024 07:00:00,17.393559,78.339194,NH3,1,3,2
India,Telangana,Hyderabad,"Kompally Municipal Office, Hyderabad - TSPCB",10-01-2024 07:00:00,17.544899,78.486949,PM10,47,57,52
India,Telangana,Hyderabad,"Kompally Municipal Office, Hyderabad - TSPCB",10-01-2024 07:00:00,17.544899,78.486949,NO2,9,12,12
India,Telangana,Hyderabad,"Kompally Municipal Office, Hyderabad - TSPCB",10-01-2024 07:00:00,17.544899,78.486949,SO2,8,16,11
India,Telangana,Hyderabad,"New Malakpet, Hyderabad - TSPCB",10-01-2024 07:00:00,17.37206,78.50864,SO2,8,18,11
India,Telangana,Hyderabad,"Sanathnagar, Hyderabad - TSPCB",10-01-2024 07:00:00,17.4559458,78.4332152,PM2.5,100,261,179
India,Telangana,Hyderabad,"Sanathnagar, Hyderabad - TSPCB",10-01-2024 07:00:00,17.4559458,78.4332152,SO2,4,22,9
India,Telangana,Hyderabad,"Sanathnagar, Hyderabad - TSPCB",10-01-2024 07:00:00,17.4559458,78.4332152,OZONE,1,96,19
India,Telangana,Hyderabad,"Somajiguda, Hyderabad - TSPCB",10-01-2024 07:00:00,17.417094,78.457437,PM2.5,57,79,67
India,Telangana,Hyderabad,"Somajiguda, Hyderabad - TSPCB",10-01-2024 07:00:00,17.417094,78.457437,NO2,20,27,23
India,Tripura,Agartala,"Bardowali, Agartala - Tripura SPCB",10-01-2024 07:00:00,23.8175497,91.2726974,CO,42,107,64
India,Uttar_Pradesh,Agra,"Manoharpur, Agra - UPPCB",10-01-2024 07:00:00,27.23711,78.01936,NH3,1,2,1
India,Uttar_Pradesh,Agra,"Rohta, Agra - UPPCB",10-01-2024 07:00:00,27.106972,78.000111,NH3,2,2,2
India,Uttar_Pradesh,Agra,"Rohta, Agra - UPPCB",10-01-2024 07:00:00,27.106972,78.000111,SO2,5,18,12
India,Uttar_Pradesh,Agra,"Sanjay Palace, Agra - UPPCB",10-01-2024 07:00:00,27.19865833,78.00598056,SO2,1,13,7
India,Uttar_Pradesh,Agra,"Shahjahan Garden, Agra - UPPCB",10-01-2024 07:00:00,27.169338,78.03582,PM2.5,NA,NA,NA
India,Uttar_Pradesh,Agra,"Shahjahan Garden, Agra - UPPCB",10-01-2024 07:00:00,27.169338,78.03582,NH3,NA,NA,NA
India,Uttar_Pradesh,Agra,"Shastripuram, Agra - UPPCB",10-01-2024 07:00:00,27.19862,77.92066,OZONE,1,8,2
India,Uttar_Pradesh,Baghpat,"Sardar Patel Inter College, Baghpat - UPPCB",10-01-2024 07:00:00,28.964949,77.278761,NH3,2,5,3
India,Uttar_Pradesh,Baghpat,"Sardar Patel Inter College, Baghpat - UPPCB",10-01-2024 07:00:00,28.964949,77.278761,OZONE,4,20,9
India,Uttar_Pradesh,Bareilly,"Civil Lines, Bareilly - UPPCB",10-01-2024 07:00:00,28.359581,79.414455,PM10,24,88,43
India,Uttar_Pradesh,Bareilly,"Civil Lines, Bareilly - UPPCB",10-01-2024 07:00:00,28.359581,79.414455,CO,9,48,26
India,Uttar_Pradesh,Bareilly,"Rajendra Nagar, Bareilly - UPPCB",10-01-2024 07:00:00,28.38910936,79.42963708,PM10,38,93,64
India,Uttar_Pradesh,Bulandshahr,"Yamunapuram, Bulandshahr - UPPCB",10-01-2024 07:00:00,28.406963,77.849831,CO,2,106,24
India,Uttar_Pradesh,Bulandshahr,"Yamunapuram, Bulandshahr - UPPCB",10-01-2024 07:00:00,28.406963,77.849831,OZONE,2,41,6
India,Uttar_Pradesh,Firozabad,"Vibhab Nagar, Firozabad - UPPCB",10-01-2024 07:00:00,27.1594,78.3953,PM2.5,46,148,86
India,Uttar_Pradesh,Firozabad,"Vibhab Nagar, Firozabad - UPPCB",10-01-2024 07:00:00,27.1594,78.3953,SO2,20,63,46
India,Uttar_Pradesh,Ghaziabad,"Indirapuram, Ghaziabad - UPPCB",10-01-2024 07:00:00,28.646233,77.358075,PM10,121,310,176
India,Uttar_Pradesh,Ghaziabad,"Loni, Ghaziabad - UPPCB",10-01-2024 07:00:00,28.757294,77.278792,SO2,6,24,10
India,Uttar_Pradesh,Ghaziabad,"Loni, Ghaziabad - UPPCB",10-01-2024 07:00:00,28.757294,77.278792,CO,4,88,10
India,Uttar_Pradesh,Ghaziabad,"Vasundhara, Ghaziabad - UPPCB",10-01-2024 07:00:00,28.6603346,77.3572563,PM2.5,126,324,226
India,Uttar_Pradesh,Ghaziabad,"Vasundhara, Ghaziabad - UPPCB",10-01-2024 07:00:00,28.6603346,77.3572563,NH3,11,18,15
India,Uttar_Pradesh,Gorakhpur,"Madan Mohan Malaviya University of Technology, Gorakhpur - UPPCB",10-01-2024 07:00:00,26.730136,83.433859,NO2,2,2,2
India,Uttar_Pradesh,Greater Noida,"Knowledge Park - III, Greater Noida - UPPCB",10-01-2024 07:00:00,28.47272,77.482000,NO2,20,47,32
India,Uttar_Pradesh,Hapur,"Anand Vihar, Hapur - UPPCB",10-01-2024 07:00:00,28.725645,77.749675,CO,7,52,39
India,Uttar_Pradesh,Jhansi,"Shivaji Nagar, Jhansi - UPPCB",10-01-2024 07:00:00,25.4547,78.6039,SO2,10,18,12
India,Uttar_Pradesh,Kanpur,"FTI Kidwai Nagar, Kanpur - UPPCB",10-01-2024 07:00:00,26.428282,80.327067,CO,42,59,49
India,Uttar_Pradesh,Kanpur,"NSI Kalyanpur, Kanpur - UPPCB",10-01-2024 07:00:00,26.509954,80.249612,PM2.5,33,110,73
India,Uttar_Pradesh,Kanpur,"NSI Kalyanpur, Kanpur - UPPCB",10-01-2024 07:00:00,26.509954,80.249612,PM10,102,175,132
India,Uttar_Pradesh,Kanpur,"NSI Kalyanpur, Kanpur - UPPCB",10-01-2024 07:00:00,26.509954,80.249612,SO2,22,23,23
India,Uttar_Pradesh,Kanpur,"NSI Kalyanpur, Kanpur - UPPCB",10-01-2024 07:00:00,26.509954,80.249612,CO,44,58,52
India,Uttar_Pradesh,Kanpur,"Nehru Nagar, Kanpur - UPPCB",10-01-2024 07:00:00,26.4703136,80.3229863,SO2,7,34,13
India,Uttar_Pradesh,Khurja,"Kalindi Kunj, Khurja - UPPCB",10-01-2024 07:00:00,28.2348927,77.8683002,PM10,41,144,78
India,Uttar_Pradesh,Khurja,"Kalindi Kunj, Khurja - UPPCB",10-01-2024 07:00:00,28.2348927,77.8683002,OZONE,21,27,26
India,Uttar_Pradesh,Lucknow,"B R Ambedkar University, Lucknow - UPPCB",10-01-2024 07:00:00,26.766433,80.927299,NH3,6,7,7
India,Uttar_Pradesh,Lucknow,"B R Ambedkar University, Lucknow - UPPCB",10-01-2024 07:00:00,26.766433,80.927299,CO,12,32,18
India,Uttar_Pradesh,Lucknow,"B R Ambedkar University, Lucknow - UPPCB",10-01-2024 07:00:00,26.766433,80.927299,OZONE,3,17,7
India,Uttar_Pradesh,Lucknow,"Gomti Nagar, Lucknow - UPPCB",10-01-2024 07:00:00,26.868120,81.005119,OZONE,42,56,46
India,Uttar_Pradesh,Lucknow,"Kendriya Vidyalaya, Lucknow - CPCB",10-01-2024 07:00:00,26.906111,80.948222,CO,39,101,47
India,Uttar_Pradesh,Lucknow,"Talkatora District Industries Center, Lucknow - CPCB",10-01-2024 07:00:00,26.83399722,80.8917361,PM10,14,186,134
India,Uttar_Pradesh,Lucknow,"Talkatora District Industries Center, Lucknow - CPCB",10-01-2024 07:00:00,26.83399722,80.8917361,NH3,14,32,22
India,Uttar_Pradesh,Meerut,"Ganga Nagar, Meerut - UPPCB",10-01-2024 07:00:00,28.999264,77.7590354,NO2,25,46,34
India,Uttar_Pradesh,Meerut,"Ganga Nagar, Meerut - UPPCB",10-01-2024 07:00:00,28.999264,77.7590354,NH3,6,9,8
India,Uttar_Pradesh,Meerut,"Pallavpuram Phase 2, Meerut - UPPCB",10-01-2024 07:00:00,29.063510,77.709723,PM10,86,189,119
India,Uttar_Pradesh,Meerut,"Pallavpuram Phase 2, Meerut - UPPCB",10-01-2024 07:00:00,29.063510,77.709723,SO2,4,10,8
India,Uttar_Pradesh,Moradabad,"Buddhi Vihar, Moradabad - UPPCB",10-01-2024 07:00:00,28.83526,78.74460,SO2,12,18,13
India,Uttar_Pradesh,Moradabad,"Eco Herbal Park, Moradabad - UPPCB",10-01-2024 07:00:00,28.840739,78.697531,PM10,44,124,75
India,Uttar_Pradesh,Moradabad,"Eco Herbal Park, Moradabad - UPPCB",10-01-2024 07:00:00,28.840739,78.697531,NH3,7,81,12
India,Uttar_Pradesh,Moradabad,"Eco Herbal Park, Moradabad - UPPCB",10-01-2024 07:00:00,28.840739,78.697531,OZONE,10,29,13
India,Uttar_Pradesh,Moradabad,"Employment Office, Moradabad - UPPCB",10-01-2024 07:00:00,28.88528,78.73880,PM2.5,41,111,68
India,Uttar_Pradesh,Moradabad,"Employment Office, Moradabad - UPPCB",10-01-2024 07:00:00,28.88528,78.73880,PM10,58,139,94
India,Uttar_Pradesh,Moradabad,"Employment Office, Moradabad - UPPCB",10-01-2024 07:00:00,28.88528,78.73880,NO2,25,26,26
India,Uttar_Pradesh,Moradabad,"Employment Office, Moradabad - UPPCB",10-01-2024 07:00:00,28.88528,78.73880,NH3,4,4,4
India,Uttar_Pradesh,Moradabad,"Jigar Colony, Moradabad - UPPCB",10-01-2024 07:00:00,28.856664,78.772638,OZONE,8,40,10
India,Uttar_Pradesh,Moradabad,"Kashiram Nagar, Moradabad - UPPCB",10-01-2024 07:00:00,28.849399,78.742362,PM2.5,39,89,56
India,Uttar_Pradesh,Moradabad,"Transport Nagar, Moradabad - UPPCB",10-01-2024 07:00:00,28.802625,78.753728,NO2,17,28,22
India,Uttar_Pradesh,Noida,"Sector - 125, Noida - UPPCB",10-01-2024 07:00:00,28.5447608,77.3231257,NH3,8,13,12
India,Uttar_Pradesh,Noida,"Sector - 62, Noida - IMD",10-01-2024 07:00:00,28.6245479,77.3577104,PM2.5,146,374,246
India,Uttar_Pradesh,Noida,"Sector-116, Noida - UPPCB",10-01-2024 07:00:00,28.569230,77.393848,SO2,10,20,14
India,Uttar_Pradesh,Prayagraj,"Jhunsi, Prayagraj - UPPCB",10-01-2024 07:00:00,25.425602,81.917152,OZONE,1,11,1
India,Uttar_Pradesh,Prayagraj,"Motilal Nehru NIT, Prayagraj - UPPCB",10-01-2024 07:00:00,25.494,81.863,NO2,12,12,12
India,Uttar_Pradesh,Prayagraj,"Motilal Nehru NIT, Prayagraj - UPPCB",10-01-2024 07:00:00,25.494,81.863,CO,31,62,40
India,Uttar_Pradesh,Prayagraj,"Motilal Nehru NIT, Prayagraj - UPPCB",10-01-2024 07:00:00,25.494,81.863,OZONE,6,20,7
India,Uttar_Pradesh,Prayagraj,"Nagar Nigam, Prayagraj - UPPCB",10-01-2024 07:00:00,25.44919916 ,81.82735986 ,NH3,4,13,6
India,Uttar_Pradesh,Varanasi,"Ardhali Bazar, Varanasi - UPPCB",10-01-2024 07:00:00,25.3505986,82.9083074,PM10,43,90,61
India,Uttar_Pradesh,Varanasi,"Bhelupur, Varanasi - UPPCB",10-01-2024 07:00:00,25.301778,82.996789,PM10,34,99,58
India,Uttar_Pradesh,Varanasi,"Bhelupur, Varanasi - UPPCB",10-01-2024 07:00:00,25.301778,82.996789,NH3,2,3,2
India,Uttar_Pradesh,Varanasi,"Bhelupur, Varanasi - UPPCB",10-01-2024 07:00:00,25.301778,82.996789,SO2,19,20,19
India,Uttar_Pradesh,Varanasi,"Bhelupur, Varanasi - UPPCB",10-01-2024 07:00:00,25.301778,82.996789,CO,2,88,11
India,Uttar_Pradesh,Varanasi,"Maldahiya, Varanasi - UPPCB",10-01-2024 07:00:00,25.32393,82.99687,NH3,1,1,1
India,Uttarakhand,Rishikesh,"Shivaji Nagar, Rishikesh - UKPCB",10-01-2024 07:00:00,30.075911,78.2859547,SO2,5,5,5
India,Uttarakhand,Rishikesh,"Shivaji Nagar, Rishikesh - UKPCB",10-01-2024 07:00:00,30.075911,78.2859547,CO,40,59,46
India,West_Bengal,Asansol,"Asansol Court Area, Asansol - WBPCB",10-01-2024 07:00:00,23.685297,86.945968,PM10,115,198,150
India,West_Bengal,Barrackpore,"SVSPA Campus, Barrackpore - WBPCB",10-01-2024 07:00:00,22.7605581,88.3617589,PM10,118,220,162
India,West_Bengal,Kolkata,"Ballygunge, Kolkata - WBPCB",10-01-2024 07:00:00,22.5367507,88.3638022,PM10,129,200,162
India,West_Bengal,Kolkata,"Ballygunge, Kolkata - WBPCB",10-01-2024 07:00:00,22.5367507,88.3638022,NH3,13,20,15
India,West_Bengal,Kolkata,"Ballygunge, Kolkata - WBPCB",10-01-2024 07:00:00,22.5367507,88.3638022,CO,18,104,68
India,West_Bengal,Kolkata,"Bidhannagar, Kolkata - WBPCB",10-01-2024 07:00:00,22.58157048,88.41002457,PM10,129,210,166
India,West_Bengal,Kolkata,"Fort William, Kolkata - WBPCB",10-01-2024 07:00:00,22.556640,88.342674,PM10,NA,NA,NA
India,West_Bengal,Kolkata,"Fort William, Kolkata - WBPCB",10-01-2024 07:00:00,22.556640,88.342674,NH3,NA,NA,NA
India,West_Bengal,Kolkata,"Fort William, Kolkata - WBPCB",10-01-2024 07:00:00,22.556640,88.342674,SO2,NA,NA,NA
India,West_Bengal,Kolkata,"Jadavpur, Kolkata - WBPCB",10-01-2024 07:00:00,22.49929,88.36917,PM2.5,114,302,203
India,West_Bengal,Kolkata,"Jadavpur, Kolkata - WBPCB",10-01-2024 07:00:00,22.49929,88.36917,NO2,6,24,11
India,West_Bengal,Kolkata,"Rabindra Sarobar, Kolkata - WBPCB",10-01-2024 07:00:00,22.51106,88.35142,NO2,32,172,79
India,West_Bengal,Siliguri,"Ward-32 Bapupara, Siliguri - WBPCB",10-01-2024 07:00:00,26.6879226,88.4152495,PM2.5,70,156,110
India,West_Bengal,Siliguri,"Ward-32 Bapupara, Siliguri - WBPCB",10-01-2024 07:00:00,26.6879226,88.4152495,NO2,28,59,41
India,Andhra_Pradesh,Amaravati,"Secretariat, Amaravati - APPCB",10-01-2024 07:00:00,16.5150833,80.5181667,PM10,101,146,131
India,Andhra_Pradesh,Amaravati,"Secretariat, Amaravati - APPCB",10-01-2024 07:00:00,16.5150833,80.5181667,NO2,13,24,17
India,Andhra_Pradesh,Anantapur,"Gulzarpet, Anantapur - APPCB",10-01-2024 07:00:00,14.675886,77.593027,NH3,3,3,3
India,Andhra_Pradesh,Chittoor,"Gangineni Cheruvu, Chittoor - APPCB",10-01-2024 07:00:00,13.204880,79.097889,CO,1,70,68
India,Andhra_Pradesh,Chittoor,"Gangineni Cheruvu, Chittoor - APPCB",10-01-2024 07:00:00,13.204880,79.097889,OZONE,8,95,26
India,Andhra_Pradesh,Tirupati,"Tirumala, Tirupati - APPCB",10-01-2024 07:00:00,13.67,79.35,PM2.5,66,94,79
India,Andhra_Pradesh,Tirupati,"Tirumala, Tirupati - APPCB",10-01-2024 07:00:00,13.67,79.35,PM10,62,78,69
India,Andhra_Pradesh,Tirupati,"Tirumala, Tirupati - APPCB",10-01-2024 07:00:00,13.67,79.35,NH3,1,3,1
India,Andhra_Pradesh,Tirupati,"Vaikuntapuram, Tirupati - APPCB",10-01-2024 07:00:00,13.615387,79.409230,SO2,4,5,5
India,Andhra_Pradesh,Vijayawada,"Kanuru, Vijayawada - APPCB",10-01-2024 07:00:00,16.486692,80.699436,PM2.5,92,148,114
India,Andhra_Pradesh,Vijayawada,"Kanuru, Vijayawada - APPCB",10-01-2024 07:00:00,16.486692,80.699436,SO2,5,5,5
India,Andhra_Pradesh,Visakhapatnam,"GVM Corporation, Visakhapatnam - APPCB",10-01-2024 07:00:00,17.72,83.3,NH3,1,4,3
India,Andhra_Pradesh,Visakhapatnam,"GVM Corporation, Visakhapatnam - APPCB",10-01-2024 07:00:00,17.72,83.3,SO2,11,16,13
India,Arunachal_Pradesh,Naharlagun,"Naharlagun, Naharlagun - APSPCB",10-01-2024 07:00:00,27.103358,93.679645,PM2.5,55,306,118
India,Arunachal_Pradesh,Naharlagun,"Naharlagun, Naharlagun - APSPCB",10-01-2024 07:00:00,27.103358,93.679645,SO2,3,3,3
India,Arunachal_Pradesh,Naharlagun,"Naharlagun, Naharlagun - APSPCB",10-01-2024 07:00:00,27.103358,93.679645,OZONE,2,2,2
India,Assam,Byrnihat,"Central Academy for SFS, Byrnihat - PCBA",10-01-2024 07:00:00,26.071318,91.87488,NO2,33,86,57
India,Assam,Byrnihat,"Central Academy for SFS, Byrnihat - PCBA",10-01-2024 07:00:00,26.071318,91.87488,SO2,12,24,18
India,Assam,Guwahati,"IITG, Guwahati - PCBA",10-01-2024 07:00:00,26.2028636,91.70046436,PM10,NA,NA,NA
India,Assam,Guwahati,"IITG, Guwahati - PCBA",10-01-2024 07:00:00,26.2028636,91.70046436,CO,NA,NA,NA
India,Assam,Guwahati,"Pan Bazaar, Guwahati - PCBA",10-01-2024 07:00:00,26.187500,91.744194,PM10,125,329,202
India,Assam,Guwahati,"Railway Colony, Guwahati - PCBA",10-01-2024 07:00:00,26.181742,91.78063,CO,49,130,112
India,Assam,Nagaon,"Christianpatty, Nagaon - PCBA",10-01-2024 07:00:00,26.349082,92.68449,PM10,107,444,227
India,Assam,Nagaon,"Christianpatty, Nagaon - PCBA",10-01-2024 07:00:00,26.349082,92.68449,NH3,3,6,4
India,Assam,Nalbari,"Bata Chowk, Nalbari - PCBA",10-01-2024 07:00:00,26.446912,91.439057,NH3,8,15,10
India,Assam,Silchar,"Tarapur, Silchar - PCBA",10-01-2024 07:00:00,24.82827,92.79525,CO,26,38,30
India,Assam,Sivasagar,"Girls College, Sivasagar - PCBA",10-01-2024 07:00:00,26.987634,94.636574,NH3,3,15,10
India,Assam,Sivasagar,"Girls College, Sivasagar - PCBA",10-01-2024 07:00:00,26.987634,94.636574,SO2,3,5,4
India,Bihar,Araria,"Kharahiya Basti, Araria - BSPCB",10-01-2024 07:00:00,26.146529,87.454184,PM10,117,445,239
India,Bihar,Araria,"Kharahiya Basti, Araria - BSPCB",10-01-2024 07:00:00,26.146529,87.454184,CO,14,133,83
India,Bihar,Aurangabad,"Gurdeo Nagar, Aurangabad - BSPCB",10-01-2024 07:00:00,24.75746,84.366208,PM10,45,131,89
India,Bihar,Aurangabad,"Gurdeo Nagar, Aurangabad - BSPCB",10-01-2024 07:00:00,24.75746,84.366208,NH3,5,77,12
India,Bihar,Bhagalpur,"Mayaganj, Bhagalpur - BSPCB",10-01-2024 07:00:00,25.265194,87.012947,SO2,11,13,12
India,Bihar,Bhagalpur,"Mayaganj, Bhagalpur - BSPCB",10-01-2024 07:00:00,25.265194,87.012947,CO,8,10,9
India,Bihar,Chhapra,"Darshan Nagar, Chhapra - BSPCB",10-01-2024 07:00:00,25.7808257,84.7446768,SO2,13,41,27
India,Bihar,Chhapra,"Darshan Nagar, Chhapra - BSPCB",10-01-2024 07:00:00,25.7808257,84.7446768,OZONE,1,3,1
India,Bihar,Gaya,"Kareemganj, Gaya - BSPCB",10-01-2024 07:00:00,24.792403,84.992416,CO,7,106,58
India,Bihar,Gaya,"Kareemganj, Gaya - BSPCB",10-01-2024 07:00:00,24.792403,84.992416,OZONE,5,34,22
India,Bihar,Gaya,"SFTI Kusdihra, Gaya - BSPCB",10-01-2024 07:00:00,24.762518,84.982348,PM2.5,89,228,140
India,Bihar,Gaya,"SFTI Kusdihra, Gaya - BSPCB",10-01-2024 07:00:00,24.762518,84.982348,NO2,20,55,35
India,Bihar,Gaya,"SFTI Kusdihra, Gaya - BSPCB",10-01-2024 07:00:00,24.762518,84.982348,OZONE,7,59,10
India,Bihar,Katihar,"Mirchaibari, Katihar - BSPCB",10-01-2024 07:00:00,25.560083,87.553265,PM2.5,67,377,189
India,Bihar,Katihar,"Mirchaibari, Katihar - BSPCB",10-01-2024 07:00:00,25.560083,87.553265,NH3,3,6,4
India,Bihar,Katihar,"Mirchaibari, Katihar - BSPCB",10-01-2024 07:00:00,25.560083,87.553265,CO,30,36,36
India,Bihar,Katihar,"Mirchaibari, Katihar - BSPCB",10-01-2024 07:00:00,25.560083,87.553265,OZONE,22,29,27
India,Bihar,Kishanganj,"SDM Office_Khagra, Kishanganj - BSPCB",10-01-2024 07:00:00,26.0881305,87.93840336,NH3,7,13,10
India,Bihar,Manguraha,"Forest Rest House, Manguraha - BSPCB",10-01-2024 07:00:00,27.308328,84.531742,PM10,NA,NA,NA
India,Bihar,Manguraha,"Forest Rest House, Manguraha - BSPCB",10-01-2024 07:00:00,27.308328,84.531742,NO2,26,53,42
India,Bihar,Motihari,"Gandak Colony, Motihari - BSPCB",10-01-2024 07:00:00,26.63086,84.90051,PM2.5,70,321,149
India,Bihar,Motihari,"Gandak Colony, Motihari - BSPCB",10-01-2024 07:00:00,26.63086,84.90051,CO,47,96,69
India,Bihar,Motihari,"Gandak Colony, Motihari - BSPCB",10-01-2024 07:00:00,26.63086,84.90051,OZONE,27,91,49
India,Bihar,Muzaffarpur,"Buddha Colony, Muzaffarpur - BSPCB",10-01-2024 07:00:00,26.11442,85.39813,PM2.5,204,356,296
India,Bihar,Muzaffarpur,"Buddha Colony, Muzaffarpur - BSPCB",10-01-2024 07:00:00,26.11442,85.39813,PM10,156,360,236
India,Bihar,Muzaffarpur,"Buddha Colony, Muzaffarpur - BSPCB",10-01-2024 07:00:00,26.11442,85.39813,CO,26,82,50
India,Bihar,Muzaffarpur,"MIT-Daudpur Kothi, Muzaffarpur - BSPCB",10-01-2024 07:00:00,26.1403345,85.3650192,PM10,115,277,170
India,Bihar,Muzaffarpur,"MIT-Daudpur Kothi, Muzaffarpur - BSPCB",10-01-2024 07:00:00,26.1403345,85.3650192,NO2,5,11,7
India,Bihar,Muzaffarpur,"MIT-Daudpur Kothi, Muzaffarpur - BSPCB",10-01-2024 07:00:00,26.1403345,85.3650192,NH3,8,16,12
India,Bihar,Muzaffarpur,"MIT-Daudpur Kothi, Muzaffarpur - BSPCB",10-01-2024 07:00:00,26.1403345,85.3650192,SO2,4,7,5
India,Bihar,Muzaffarpur,"Muzaffarpur Collectorate, Muzaffarpur - BSPCB",10-01-2024 07:00:00,26.1209,85.3647,PM2.5,97,334,218
India,Bihar,Muzaffarpur,"Muzaffarpur Collectorate, Muzaffarpur - BSPCB",10-01-2024 07:00:00,26.1209,85.3647,SO2,7,37,13
India,Bihar,Patna,"DRM Office Danapur, Patna - BSPCB",10-01-2024 07:00:00,25.586562,85.043586,NH3,4,5,4
India,Bihar,Patna,"Govt. High School Shikarpur, Patna - BSPCB",10-01-2024 07:00:00,25.592539,85.227158,NO2,13,37,23
India,Bihar,Patna,"IGSC Planetarium Complex, Patna - BSPCB",10-01-2024 07:00:00,25.610369,85.132568,NO2,9,10,9
India,Bihar,Patna,"Muradpur, Patna - BSPCB",10-01-2024 07:00:00,25.619651,85.147382,PM2.5,64,375,242
India,Bihar,Patna,"Muradpur, Patna - BSPCB",10-01-2024 07:00:00,25.619651,85.147382,CO,26,123,72
India,Bihar,Patna,"Rajbansi Nagar, Patna - BSPCB",10-01-2024 07:00:00,25.599486,85.113666,NO2,58,94,74
India,Bihar,Purnia,"Mariam Nagar, Purnia - BSPCB",10-01-2024 07:00:00,25.366336,87.117468,SO2,17,19,18
India,Bihar,Purnia,"Mariam Nagar, Purnia - BSPCB",10-01-2024 07:00:00,25.366336,87.117468,OZONE,8,17,9
India,Bihar,Rajgir,"Dangi Tola, Rajgir - BSPCB",10-01-2024 07:00:00,25.03280,85.41948,PM2.5,97,335,266
India,Bihar,Rajgir,"Dangi Tola, Rajgir - BSPCB",10-01-2024 07:00:00,25.03280,85.41948,NH3,1,8,2
India,Bihar,Saharsa,"Police Line, Saharsa - BSPCB",10-01-2024 07:00:00,25.892357,86.590325,OZONE,2,7,2
India,Bihar,Samastipur,"DM Office_Kasipur, Samastipur - BSPCB",10-01-2024 07:00:00,25.859655,85.77944,CO,28,39,34
India,Bihar,Siwan,"Chitragupta Nagar, Siwan - BSPCB",10-01-2024 07:00:00,26.2271665,84.3570427,NH3,2,13,5
India,Chandigarh,Chandigarh,"Sector 22, Chandigarh - CPCC",10-01-2024 07:00:00,30.735567,76.775714,PM2.5,160,336,296
India,Chandigarh,Chandigarh,"Sector 22, Chandigarh - CPCC",10-01-2024 07:00:00,30.735567,76.775714,NO2,NA,NA,NA
India,Chandigarh,Chandigarh,"Sector-25, Chandigarh - CPCC",10-01-2024 07:00:00,30.751462,76.762879,NH3,9,12,10
India,Chandigarh,Chandigarh,"Sector-53, Chandigarh - CPCC",10-01-2024 07:00:00,30.719859,76.738637,NH3,4,6,5
India,Chhattisgarh,Bhilai,"32Bungalows, Bhilai - CECB",10-01-2024 07:00:00,21.194815,81.314770,PM2.5,108,285,194
India,Chhattisgarh,Bhilai,"32Bungalows, Bhilai - CECB",10-01-2024 07:00:00,21.194815,81.314770,CO,48,105,103
India,Chhattisgarh,Bhilai,"32Bungalows, Bhilai - CECB",10-01-2024 07:00:00,21.194815,81.314770,OZONE,3,9,4
India,Chhattisgarh,Bhilai,"Civic Center, Bhilai - Bhilai Steel Plant",10-01-2024 07:00:00,21.185571,81.343175,PM10,77,169,120
India,Chhattisgarh,Bhilai,"Civic Center, Bhilai - Bhilai Steel Plant",10-01-2024 07:00:00,21.185571,81.343175,CO,18,82,43
India,Chhattisgarh,Bhilai,"Civic Center, Bhilai - Bhilai Steel Plant",10-01-2024 07:00:00,21.185571,81.343175,OZONE,7,49,8
India,Chhattisgarh,Bhilai,"Hathkhoj, Bhilai - CECB",10-01-2024 07:00:00,21.224231,81.408350,SO2,11,102,36
India,Chhattisgarh,Bilaspur,"Mangala, Bilaspur - NTPC",10-01-2024 07:00:00,22.08815,82.13737,NO2,8,11,11
India,Chhattisgarh,Chhal,"Nawapara SECL Colony, Chhal - CECB",10-01-2024 07:00:00,22.118125,83.140608,PM10,62,230,108
India,Chhattisgarh,Korba,"Rampur, Korba - CECB",10-01-2024 07:00:00,22.368195,82.746431,PM10,67,153,106
India,Chhattisgarh,Korba,"Rampur, Korba - CECB",10-01-2024 07:00:00,22.368195,82.746431,CO,32,52,44
India,Chhattisgarh,Korba,"Urja Nagar, Korba - CECB",10-01-2024 07:00:00,22.348441,82.549611,PM2.5,24,88,51
India,Chhattisgarh,Kunjemura,"OP Jindal School, Kunjemura - CECB",10-01-2024 07:00:00,22.126650,83.483212,CO,50,100,64
India,Chhattisgarh,Kunjemura,"OP Jindal School, Kunjemura - CECB",10-01-2024 07:00:00,22.126650,83.483212,OZONE,3,76,5
India,Chhattisgarh,Milupara,"Govt. Higher Secondary School, Milupara - CECB",10-01-2024 07:00:00,22.1910172,83.5197009,PM10,73,238,105
India,Chhattisgarh,Raipur,"AIIMS, Raipur - CECB",10-01-2024 07:00:00,21.258815,81.578979,CO,40,80,69
India,Chhattisgarh,Raipur,"Krishak Nagar, Raipur - CECB",10-01-2024 07:00:00,21.237755,81.705301,OZONE,2,7,2
India,Delhi,Delhi,"Alipur, Delhi - DPCC",10-01-2024 07:00:00,28.815329,77.153010,PM2.5,195,299,232
India,Delhi,Delhi,"Alipur, Delhi - DPCC",10-01-2024 07:00:00,28.815329,77.153010,NO2,17,44,23
India,Delhi,Delhi,"Alipur, Delhi - DPCC",10-01-2024 07:00:00,28.815329,77.153010,CO,42,56,46
India,Delhi,Delhi,"Alipur, Delhi - DPCC",10-01-2024 07:00:00,28.815329,77.153010,OZONE,7,41,21
India,Delhi,Delhi,"Anand Vihar, Delhi - DPCC",10-01-2024 07:00:00,28.647622,77.3158090,PM2.5,282,407,336
India,Delhi,Delhi,"Anand Vihar, Delhi - DPCC",10-01-2024 07:00:00,28.647622,77.3158090,PM10,148,422,236
India,Delhi,Delhi,"Ashok Vihar, Delhi - DPCC",10-01-2024 07:00:00,28.695381,77.181665,PM2.5,208,353,266
India,Delhi,Delhi,"Ashok Vihar, Delhi - DPCC",10-01-2024 07:00:00,28.695381,77.181665,CO,35,56,39
India,Delhi,Delhi,"Aya Nagar, Delhi - IMD",10-01-2024 07:00:00,28.4706914,77.1099364,PM10,97,192,135
India,Delhi,Delhi,"Aya Nagar, Delhi - IMD",10-01-2024 07:00:00,28.4706914,77.1099364,OZONE,11,11,11
India,Delhi,Delhi,"Bawana, Delhi - DPCC",10-01-2024 07:00:00,28.776200,77.051074,SO2,2,5,4
India,Delhi,Delhi,"Burari Crossing, Delhi - IMD",10-01-2024 07:00:00,28.7256504,77.2011573,NO2,9,17,12
India,Delhi,Delhi,"Burari Crossing, Delhi - IMD",10-01-2024 07:00:00,28.7256504,77.2011573,CO,101,108,106
India,Delhi,Delhi,"CRRI Mathura Road, Delhi - IMD",10-01-2024 07:00:00,28.5512005,77.2735737,PM2.5,147,322,212
India,Delhi,Delhi,"Dr. Karni Singh Shooting Range, Delhi - DPCC",10-01-2024 07:00:00,28.498571,77.264840,PM2.5,242,346,307
India,Delhi,Delhi,"Dr. Karni Singh Shooting Range, Delhi - DPCC",10-01-2024 07:00:00,28.498571,77.264840,SO2,3,8,6
India,Delhi,Delhi,"IGI Airport (T3), Delhi - IMD",10-01-2024 07:00:00,28.5627763,77.1180053,NO2,14,28,20
India,Delhi,Delhi,"IGI Airport (T3), Delhi - IMD",10-01-2024 07:00:00,28.5627763,77.1180053,CO,34,82,39
India,Delhi,Delhi,"IHBAS, Dilshad Garden, Delhi - CPCB",10-01-2024 07:00:00,28.6811736,77.3025234,NO2,20,45,33
India,Delhi,Delhi,"ITO, Delhi - CPCB",10-01-2024 07:00:00,28.628624,77.241060,CO,34,70,38
India,Delhi,Delhi,"Lodhi Road, Delhi - IMD",10-01-2024 07:00:00,28.5918245,77.2273074,OZONE,15,33,23
India,Delhi,Delhi,"Mandir Marg, Delhi - DPCC",10-01-2024 07:00:00,28.636429,77.201067,CO,8,35,11
India,Delhi,Delhi,"NSIT Dwarka, Delhi - CPCB",10-01-2024 07:00:00,28.60909,77.0325413,PM2.5,190,309,278
India,Delhi,Delhi,"NSIT Dwarka, Delhi - CPCB",10-01-2024 07:00:00,28.60909,77.0325413,NH3,7,8,8
India,Delhi,Delhi,"NSIT Dwarka, Delhi - CPCB",10-01-2024 07:00:00,28.60909,77.0325413,OZONE,13,35,21
India,Delhi,Delhi,"Najafgarh, Delhi - DPCC",10-01-2024 07:00:00,28.570173,76.933762,NH3,6,8,7
India,Delhi,Delhi,"Narela, Delhi - DPCC",10-01-2024 07:00:00,28.822836,77.101981,SO2,2,8,5
India,Delhi,Delhi,"Narela, Delhi - DPCC",10-01-2024 07:00:00,28.822836,77.101981,CO,67,89,74
India,Delhi,Delhi,"Nehru Nagar, Delhi - DPCC",10-01-2024 07:00:00,28.567890,77.250515,PM10,139,358,203
India,Delhi,Delhi,"Nehru Nagar, Delhi - DPCC",10-01-2024 07:00:00,28.567890,77.250515,NO2,42,70,55
India,Delhi,Delhi,"Okhla Phase-2, Delhi - DPCC",10-01-2024 07:00:00,28.530785,77.271255,PM2.5,253,352,312
India,Delhi,Delhi,"Okhla Phase-2, Delhi - DPCC",10-01-2024 07:00:00,28.530785,77.271255,NO2,43,80,63
India,Delhi,Delhi,"Patparganj, Delhi - DPCC",10-01-2024 07:00:00,28.623763,77.287209,PM10,166,361,223
India,Delhi,Delhi,"Patparganj, Delhi - DPCC",10-01-2024 07:00:00,28.623763,77.287209,NO2,32,57,44
India,Delhi,Delhi,"Punjabi Bagh, Delhi - DPCC",10-01-2024 07:00:00,28.674045,77.131023,NH3,6,8,7
India,Delhi,Delhi,"Pusa, Delhi - DPCC",10-01-2024 07:00:00,28.639652,77.146275,PM10,154,332,216
India,Delhi,Delhi,"Pusa, Delhi - DPCC",10-01-2024 07:00:00,28.639652,77.146275,CO,17,107,46
India,Delhi,Delhi,"Pusa, Delhi - IMD",10-01-2024 07:00:00,28.636110,77.173332,OZONE,26,31,28
India,Delhi,Delhi,"Shadipur, Delhi - CPCB",10-01-2024 07:00:00,28.6514781,77.1473105,PM10,136,265,177
India,Delhi,Delhi,"Sirifort, Delhi - CPCB",10-01-2024 07:00:00,28.5504249,77.2159377,NH3,6,12,10
India,Delhi,Delhi,"Sirifort, Delhi - CPCB",10-01-2024 07:00:00,28.5504249,77.2159377,CO,15,30,17
India,Delhi,Delhi,"Sonia Vihar, Delhi - DPCC",10-01-2024 07:00:00,28.710508,77.249485,CO,52,73,54
India,Delhi,Delhi,"Sri Aurobindo Marg, Delhi - DPCC",10-01-2024 07:00:00,28.531346,77.190156,PM2.5,237,329,299
India,Delhi,Delhi,"Sri Aurobindo Marg, Delhi - DPCC",10-01-2024 07:00:00,28.531346,77.190156,OZONE,3,10,5
India,Delhi,Delhi,"Vivek Vihar, Delhi - DPCC",10-01-2024 07:00:00,28.672342,77.315260,PM10,132,407,201
India,Delhi,Delhi,"Vivek Vihar, Delhi - DPCC",10-01-2024 07:00:00,28.672342,77.315260,CO,22,53,26
India,Delhi,Delhi,"Vivek Vihar, Delhi - DPCC",10-01-2024 07:00:00,28.672342,77.315260,OZONE,3,6,4
India,Delhi,Delhi,"Wazirpur, Delhi - DPCC",10-01-2024 07:00:00,28.699793,77.165453,PM2.5,279,373,318
India,Delhi,Delhi,"Wazirpur, Delhi - DPCC",10-01-2024 07:00:00,28.699793,77.165453,SO2,12,25,17
India,Gujarat,Ahmedabad,"Gyaspur, Ahmedabad - IITM",10-01-2024 07:00:00,22.977134,72.553024,PM2.5,77,295,151
India,Gujarat,Ahmedabad,"Gyaspur, Ahmedabad - IITM",10-01-2024 07:00:00,22.977134,72.553024,OZONE,11,17,16
India,Gujarat,Ahmedabad,"SAC ISRO Bopal, Ahmedabad - IITM",10-01-2024 07:00:00,23.041137,72.456691,PM2.5,81,301,151
India,Gujarat,Ahmedabad,"SAC ISRO Satellite, Ahmedabad - IITM",10-01-2024 07:00:00,23.023389,72.515201,NH3,2,3,3
India,Gujarat,Ahmedabad,"SVPI Airport Hansol, Ahmedabad - IITM",10-01-2024 07:00:00,23.076793,72.627874,OZONE,5,19,10
India,Gujarat,Ankleshwar,"GIDC, Ankleshwar - GPCB",10-01-2024 07:00:00,21.613267,73.010555,NH3,6,6,6
India,Gujarat,Ankleshwar,"GIDC, Ankleshwar - GPCB",10-01-2024 07:00:00,21.613267,73.010555,CO,50,68,57
India,Gujarat,Gandhinagar,"GIFT City, Gandhinagar - IITM",10-01-2024 07:00:00,23.163798,72.677768,PM2.5,58,313,143
India,Gujarat,Gandhinagar,"GIFT City, Gandhinagar - IITM",10-01-2024 07:00:00,23.163798,72.677768,NO2,6,8,7
India,Gujarat,Surat,"Science Center, Surat - SMC",10-01-2024 07:00:00,21.170046,72.795405,NO2,7,26,12
India,Gujarat,Vatva,"Phase-4 GIDC, Vatva - GPCB",10-01-2024 07:00:00,22.969611,72.643500,NH3,1,1,1
India,Haryana,Ambala,"Patti Mehar, Ambala - HSPCB",10-01-2024 07:00:00,30.379589,76.778328,OZONE,23,32,27
India,Haryana,Bahadurgarh,"Arya Nagar, Bahadurgarh - HSPCB",10-01-2024 07:00:00,28.6701,76.9254,OZONE,39,48,43
India,Haryana,Ballabgarh,"Nathu Colony, Ballabgarh - HSPCB",10-01-2024 07:00:00,28.3419248,77.319699,NO2,11,13,12
India,Haryana,Bhiwani,"H.B. Colony, Bhiwani - HSPCB",10-01-2024 07:00:00,28.806223,76.141105,CO,83,101,90
India,Haryana,Charkhi Dadri,"Mini Secretariat, Charkhi Dadri - HSPCB",10-01-2024 07:00:00,28.593883,76.270653,NH3,4,6,5
India,Haryana,Charkhi Dadri,"Mini Secretariat, Charkhi Dadri - HSPCB",10-01-2024 07:00:00,28.593883,76.270653,SO2,7,14,10
India,Haryana,Dharuhera,"Municipal Corporation Office, Dharuhera -  HSPCB",10-01-2024 07:00:00,28.206800,76.799700,PM2.5,71,178,111
India,Haryana,Dharuhera,"Municipal Corporation Office, Dharuhera -  HSPCB",10-01-2024 07:00:00,28.206800,76.799700,CO,24,46,26
India,Haryana,Dharuhera,"Municipal Corporation Office, Dharuhera -  HSPCB",10-01-2024 07:00:00,28.206800,76.799700,OZONE,4,38,18
India,Haryana,Faridabad,"New Industrial Town, Faridabad - HSPCB",10-01-2024 07:00:00,28.39072,77.30059,PM10,145,359,218
India,Haryana,Faridabad,"New Industrial Town, Faridabad - HSPCB",10-01-2024 07:00:00,28.39072,77.30059,NO2,1,15,7
India,Haryana,Faridabad,"New Industrial Town, Faridabad - HSPCB",10-01-2024 07:00:00,28.39072,77.30059,NH3,2,5,3
India,Haryana,Faridabad,"Sector 11, Faridabad - HSPCB",10-01-2024 07:00:00,28.376058,77.315741,NH3,6,6,6
India,Haryana,Faridabad,"Sector 11, Faridabad - HSPCB",10-01-2024 07:00:00,28.376058,77.315741,CO,26,56,36
India,Haryana,Fatehabad,"Huda Sector, Fatehabad - HSPCB",10-01-2024 07:00:00,29.503664,75.467934,SO2,5,12,8
India,Haryana,Gurugram,"Teri Gram, Gurugram - HSPCB",10-01-2024 07:00:00,28.4275,77.1465,PM2.5,68,119,88
India,Haryana,Gurugram,"Vikas Sadan, Gurugram - HSPCB",10-01-2024 07:00:00,28.4501238,77.0263051,NO2,5,25,14
India,Haryana,Hisar,"Urban Estate-II, Hisar - HSPCB",10-01-2024 07:00:00,29.140560,75.744941,PM10,68,129,86
India,Haryana,Hisar,"Urban Estate-II, Hisar - HSPCB",10-01-2024 07:00:00,29.140560,75.744941,CO,101,105,102
India,Haryana,Jind,"Police Lines, Jind - HSPCB",10-01-2024 07:00:00,29.307814,76.337619,OZONE,5,11,7
India,Haryana,Kaithal,"Rishi Nagar, Kaithal - HSPCB",10-01-2024 07:00:00,29.8006,76.4155,PM2.5,42,86,64
India,Haryana,Kaithal,"Rishi Nagar, Kaithal - HSPCB",10-01-2024 07:00:00,29.8006,76.4155,NH3,8,8,8
India,Haryana,Karnal,"Sector-12, Karnal - HSPCB",10-01-2024 07:00:00,29.695300,77.002700,OZONE,NA,NA,NA
India,Haryana,Kurukshetra,"Sector-7, Kurukshetra - HSPCB",10-01-2024 07:00:00,29.966942,76.875879,NO2,8,11,10
India,Haryana,Kurukshetra,"Sector-7, Kurukshetra - HSPCB",10-01-2024 07:00:00,29.966942,76.875879,OZONE,13,33,23
India,Haryana,Manesar,"Sector-2 IMT, Manesar - HSPCB",10-01-2024 07:00:00,28.360699,76.936090,PM10,51,119,79
India,Haryana,Manesar,"Sector-2 IMT, Manesar - HSPCB",10-01-2024 07:00:00,28.360699,76.936090,OZONE,8,22,12
India,Haryana,Narnaul,"Shastri Nagar, Narnaul - HSPCB",10-01-2024 07:00:00,28.060249,76.113115,PM10,1,131,73
India,Haryana,Narnaul,"Shastri Nagar, Narnaul - HSPCB",10-01-2024 07:00:00,28.060249,76.113115,NH3,5,15,11
India,Haryana,Narnaul,"Shastri Nagar, Narnaul - HSPCB",10-01-2024 07:00:00,28.060249,76.113115,SO2,12,89,26
India,Haryana,Panipat,"Sector-18, Panipat - HSPCB",10-01-2024 07:00:00,29.497973,76.993331,NO2,27,33,30
India,Haryana,Rohtak,"MD University, Rohtak - HSPCB",10-01-2024 07:00:00,28.52123,76.37138,PM2.5,198,356,280
India,Haryana,Rohtak,"MD University, Rohtak - HSPCB",10-01-2024 07:00:00,28.52123,76.37138,NO2,34,55,46
India,Haryana,Sirsa,"F-Block, Sirsa - HSPCB",10-01-2024 07:00:00,29.536400,75.015800,NO2,10,10,10
India,Haryana,Sirsa,"F-Block, Sirsa - HSPCB",10-01-2024 07:00:00,29.536400,75.015800,OZONE,21,36,23
India,Haryana,Yamuna Nagar,"Gobind Pura, Yamuna Nagar - HSPCB",10-01-2024 07:00:00,30.1480566,77.2893471,PM10,25,165,118
India,Haryana,Yamuna Nagar,"Gobind Pura, Yamuna Nagar - HSPCB",10-01-2024 07:00:00,30.1480566,77.2893471,OZONE,7,10,9
India,Himachal Pradesh,Baddi,"HIMUDA Complex Phase-1, Baddi - HPPCB",10-01-2024 07:00:00,30.943887,76.801991,PM2.5,98,355,235
India,Himachal Pradesh,Baddi,"HIMUDA Complex Phase-1, Baddi - HPPCB",10-01-2024 07:00:00,30.943887,76.801991,CO,39,60,41
India,Jharkhand,Dhanbad,"Kalakusuma, Dhanbad - DMC",10-01-2024 07:00:00,23.811548,86.481238,SO2,113,116,114
India,Jharkhand,Dhanbad,"Sardar Patel Nagar, Dhanbad - JSPCB",10-01-2024 07:00:00,23.80569,86.44268,NO2,124,420,269
India,Jharkhand,Dhanbad,"Sardar Patel Nagar, Dhanbad - JSPCB",10-01-2024 07:00:00,23.80569,86.44268,CO,NA,NA,NA
India,Jharkhand,Dhanbad,"Sardar Patel Nagar, Dhanbad - JSPCB",10-01-2024 07:00:00,23.80569,86.44268,OZONE,12,32,13
India,Jharkhand,Pathardih,"Mohalbani Ghat, Pathardih - DMC",10-01-2024 07:00:00,23.669880,86.411725,NO2,117,415,260
India,Jharkhand,Pathardih,"Mohalbani Ghat, Pathardih - DMC",10-01-2024 07:00:00,23.669880,86.411725,SO2,2,102,37
India,Jharkhand,Pathardih,"Mohalbani Ghat, Pathardih - DMC",10-01-2024 07:00:00,23.669880,86.411725,CO,118,162,153
India,Karnataka,Bagalkot,"Vidayagiri, Bagalkot - KSPCB",10-01-2024 07:00:00,16.172806,75.659694,NH3,1,2,1
India,Karnataka,Belgaum,"Ramteerth Nagar, Belgaum - KSPCB",10-01-2024 07:00:00,15.888653,74.541751,PM10,32,100,65
India,Karnataka,Belgaum,"Ramteerth Nagar, Belgaum - KSPCB",10-01-2024 07:00:00,15.888653,74.541751,NO2,25,30,27
India,Karnataka,Belgaum,"Ramteerth Nagar, Belgaum - KSPCB",10-01-2024 07:00:00,15.888653,74.541751,NH3,33,34,33
India,Karnataka,Bengaluru,"Bapuji Nagar, Bengaluru - KSPCB",10-01-2024 07:00:00,12.951913,77.539784,NO2,10,12,11
India,Karnataka,Bengaluru,"Hebbal, Bengaluru - KSPCB",10-01-2024 07:00:00,13.029152,77.585901,NO2,5,5,5
India,Karnataka,Bengaluru,"Hebbal, Bengaluru - KSPCB",10-01-2024 07:00:00,13.029152,77.585901,SO2,7,14,11
India,Karnataka,Bengaluru,"Hombegowda Nagar, Bengaluru - KSPCB",10-01-2024 07:00:00,12.938539,77.590100,OZONE,4,5,5
India,Karnataka,Bengaluru,"Jigani, Bengaluru - KSPCB",10-01-2024 07:00:00,12.7816279,77.6299145,NH3,2,4,3
India,Karnataka,Bengaluru,"Kasturi Nagar, Bengaluru - KSPCB",10-01-2024 07:00:00,13.003872,77.664217,PM2.5,39,99,74
India,Karnataka,Bengaluru,"Kasturi Nagar, Bengaluru - KSPCB",10-01-2024 07:00:00,13.003872,77.664217,OZONE,33,75,67
India,Karnataka,Bengaluru,"Peenya, Bengaluru - CPCB",10-01-2024 07:00:00,13.0270199,77.494094,PM10,60,107,81
India,Karnataka,Bengaluru,"Shivapura_Peenya, Bengaluru - KSPCB",10-01-2024 07:00:00,13.0246342,77.5080115,PM2.5,2,60,24
India,Karnataka,Bengaluru,"Shivapura_Peenya, Bengaluru - KSPCB",10-01-2024 07:00:00,13.0246342,77.5080115,NO2,15,16,16
India,Karnataka,Bengaluru,"Shivapura_Peenya, Bengaluru - KSPCB",10-01-2024 07:00:00,13.0246342,77.5080115,NH3,4,4,4
India,Karnataka,Bengaluru,"Shivapura_Peenya, Bengaluru - KSPCB",10-01-2024 07:00:00,13.0246342,77.5080115,OZONE,30,76,68
India,Karnataka,Bidar,"Naubad, Bidar - KSPCB",10-01-2024 07:00:00,17.930306,77.482194,PM10,100,125,113
India,Karnataka,Bidar,"Naubad, Bidar - KSPCB",10-01-2024 07:00:00,17.930306,77.482194,NH3,3,3,3
India,Karnataka,Chamarajanagar,"Urban, Chamarajanagar - KSPCB",10-01-2024 07:00:00,11.55358,76.55521,OZONE,15,36,26
India,Karnataka,Chikkaballapur,"Chikkaballapur Rural, Chikkaballapur - KSPCB",10-01-2024 07:00:00,13.428828,77.731418,SO2,11,25,21
India,Karnataka,Chikkamagaluru,"Kalyana Nagara, Chikkamagaluru - KSPCB",10-01-2024 07:00:00,13.328028,75.797056,PM2.5,6,47,26
India,Karnataka,Chikkamagaluru,"Kalyana Nagara, Chikkamagaluru - KSPCB",10-01-2024 07:00:00,13.328028,75.797056,PM10,27,65,38
