country,state,city,station,last_update,latitude,longitude,pollutant_id,pollutant_min,pollutant_max,pollutant_avg
India,Andhra_Pradesh,Anantapur,"Gulzarpet, Anantapur - APPCB",08-01-2024 09:00:00,14.675886,77.593027,PM2.5,28,50,40
India,Andhra_Pradesh,Anantapur,"Gulzarpet, Anantapur - APPCB",08-01-2024 09:00:00,14.675886,77.593027,NO2,8,25,10
India,Andhra_Pradesh,Anantapur,"Gulzarpet, Anantapur - APPCB",08-01-2024 09:00:00,14.675886,77.593027,CO,22,36,25
India,Andhra_Pradesh,Chittoor,"Gangineni Cheruvu, Chittoor - APPCB",08-01-2024 09:00:00,13.204880,79.097889,NH3,1,2,1
India,Andhra_Pradesh,Kadapa,"Yerramukkapalli, Kadapa - APPCB",08-01-2024 09:00:00,14.465052,78.824187,PM10,30,130,46
India,Andhra_Pradesh,Tirupati,"Tirumala, Tirupati - APPCB",08-01-2024 09:00:00,13.67,79.35,PM2.5,8,98,48
India,Andhra_Pradesh,Tirupati,"Vaikuntapuram, Tirupati - APPCB",08-01-2024 09:00:00,13.615387,79.409230,NO2,NA,NA,NA
India,Andhra_Pradesh,Tirupati,"Vaikuntapuram, Tirupati - APPCB",08-01-2024 09:00:00,13.615387,79.409230,CO,14,15,14
India,Andhra_Pradesh,Vijayawada,"Kanuru, Vijayawada - APPCB",08-01-2024 09:00:00,16.486692,80.699436,PM10,59,100,76
India,Andhra_Pradesh,Vijayawada,"Kanuru, Vijayawada - APPCB",08-01-2024 09:00:00,16.486692,80.699436,NH3,1,1,1
India,Andhra_Pradesh,Vijayawada,"Kanuru, Vijayawada - APPCB",08-01-2024 09:00:00,16.486692,80.699436,OZONE,30,30,30
India,Andhra_Pradesh,Vijayawada,"Rajiv Gandhi Park, Vijayawada - APPCB",08-01-2024 09:00:00,16.509717,80.612222,PM10,38,64,51
India,Assam,Byrnihat,"Central Academy for SFS, Byrnihat - PCBA",08-01-2024 09:00:00,26.071318,91.87488,SO2,13,17,15
India,Assam,Byrnihat,"Central Academy for SFS, Byrnihat - PCBA",08-01-2024 09:00:00,26.071318,91.87488,CO,10,141,31
India,Assam,Guwahati,"IITG, Guwahati - PCBA",08-01-2024 09:00:00,26.2028636,91.70046436,NO2,1,16,8
India,Assam,Guwahati,"IITG, Guwahati - PCBA",08-01-2024 09:00:00,26.2028636,91.70046436,OZONE,2,20,2
India,Assam,Nagaon,"Christianpatty, Nagaon - PCBA",08-01-2024 09:00:00,26.349082,92.68449,SO2,1,5,2
India,Assam,Nalbari,"Bata Chowk, Nalbari - PCBA",08-01-2024 09:00:00,26.446912,91.439057,PM10,111,500,291
India,Assam,Nalbari,"Bata Chowk, Nalbari - PCBA",08-01-2024 09:00:00,26.446912,91.439057,SO2,3,22,11
India,Assam,Silchar,"Tarapur, Silchar - PCBA",08-01-2024 09:00:00,24.82827,92.79525,SO2,3,9,6
India,Assam,Sivasagar,"Girls College, Sivasagar - PCBA",08-01-2024 09:00:00,26.987634,94.636574,CO,12,64,41
India,Bihar,Araria,"Kharahiya Basti, Araria - BSPCB",08-01-2024 09:00:00,26.146529,87.454184,CO,57,101,60
India,Bihar,Araria,"Kharahiya Basti, Araria - BSPCB",08-01-2024 09:00:00,26.146529,87.454184,OZONE,10,29,13
India,Bihar,Arrah,"New DM Office, Arrah - BSPCB",08-01-2024 09:00:00,25.5626095,84.663264,CO,2,86,9
India,Bihar,Aurangabad,"Gurdeo Nagar, Aurangabad - BSPCB",08-01-2024 09:00:00,24.75746,84.366208,NO2,9,14,11
India,Bihar,Aurangabad,"Gurdeo Nagar, Aurangabad - BSPCB",08-01-2024 09:00:00,24.75746,84.366208,NH3,4,16,9
India,Bihar,Aurangabad,"Gurdeo Nagar, Aurangabad - BSPCB",08-01-2024 09:00:00,24.75746,84.366208,CO,2,118,71
India,Bihar,Bettiah,"Kamalnath Nagar, Bettiah - BSPCB",08-01-2024 09:00:00,26.80365,84.51954,PM10,NA,NA,NA
India,Bihar,Bettiah,"Kamalnath Nagar, Bettiah - BSPCB",08-01-2024 09:00:00,26.80365,84.51954,SO2,9,20,13
India,Bihar,Bhagalpur,"DM Office_Kachari Chowk, Bhagalpur - BSPCB",08-01-2024 09:00:00,25.251013,86.989001,CO,41,63,48
India,Bihar,Bhagalpur,"Mayaganj, Bhagalpur - BSPCB",08-01-2024 09:00:00,25.265194,87.012947,NH3,8,10,9
India,Bihar,Bihar Sharif,"D M Colony, Bihar Sharif - BSPCB",08-01-2024 09:00:00,25.204762,85.514960,NO2,NA,NA,NA
India,Bihar,Chhapra,"Darshan Nagar, Chhapra - BSPCB",08-01-2024 09:00:00,25.7808257,84.7446768,PM2.5,120,345,288
India,Bihar,Chhapra,"Darshan Nagar, Chhapra - BSPCB",08-01-2024 09:00:00,25.7808257,84.7446768,CO,20,31,22
India,Bihar,Gaya,"Kareemganj, Gaya - BSPCB",08-01-2024 09:00:00,24.792403,84.992416,CO,12,108,45
India,Bihar,Gaya,"SFTI Kusdihra, Gaya - BSPCB",08-01-2024 09:00:00,24.762518,84.982348,OZONE,6,20,7
India,Bihar,Hajipur,"Industrial Area, Hajipur - BSPCB",08-01-2024 09:00:00,25.697189,85.245900,PM2.5,76,190,142
India,Bihar,Hajipur,"Industrial Area, Hajipur - BSPCB",08-01-2024 09:00:00,25.697189,85.245900,SO2,6,6,6
India,Bihar,Katihar,"Mirchaibari, Katihar - BSPCB",08-01-2024 09:00:00,25.560083,87.553265,OZONE,19,24,21
India,Bihar,Manguraha,"Forest Rest House, Manguraha - BSPCB",08-01-2024 09:00:00,27.308328,84.531742,SO2,NA,NA,NA
India,Bihar,Motihari,"Gandak Colony, Motihari - BSPCB",08-01-2024 09:00:00,26.63086,84.90051,PM2.5,87,306,194
India,Bihar,Motihari,"Gandak Colony, Motihari - BSPCB",08-01-2024 09:00:00,26.63086,84.90051,NO2,58,108,83
India,Bihar,Munger,"Town Hall, Munger - BSPCB",08-01-2024 09:00:00,25.376776,86.471523,SO2,31,49,42
India,Bihar,Muzaffarpur,"Buddha Colony, Muzaffarpur - BSPCB",08-01-2024 09:00:00,26.11442,85.39813,SO2,7,13,8
India,Bihar,Muzaffarpur,"MIT-Daudpur Kothi, Muzaffarpur - BSPCB",08-01-2024 09:00:00,26.1403345,85.3650192,PM10,91,187,134
India,Bihar,Muzaffarpur,"MIT-Daudpur Kothi, Muzaffarpur - BSPCB",08-01-2024 09:00:00,26.1403345,85.3650192,NO2,5,17,8
India,Bihar,Muzaffarpur,"MIT-Daudpur Kothi, Muzaffarpur - BSPCB",08-01-2024 09:00:00,26.1403345,85.3650192,NH3,7,10,9
India,Bihar,Muzaffarpur,"MIT-Daudpur Kothi, Muzaffarpur - BSPCB",08-01-2024 09:00:00,26.1403345,85.3650192,SO2,5,8,6
India,Bihar,Patna,"Govt. High School Shikarpur, Patna - BSPCB",08-01-2024 09:00:00,25.592539,85.227158,SO2,2,7,4
India,Bihar,Patna,"IGSC Planetarium Complex, Patna - BSPCB",08-01-2024 09:00:00,25.610369,85.132568,PM2.5,64,305,125
India,Bihar,Patna,"Muradpur, Patna - BSPCB",08-01-2024 09:00:00,25.619651,85.147382,NH3,1,4,2
India,Bihar,Purnia,"Mariam Nagar, Purnia - BSPCB",08-01-2024 09:00:00,25.366336,87.117468,PM2.5,82,308,203
India,Bihar,Purnia,"Mariam Nagar, Purnia - BSPCB",08-01-2024 09:00:00,25.366336,87.117468,PM10,133,222,162
India,Bihar,Purnia,"Mariam Nagar, Purnia - BSPCB",08-01-2024 09:00:00,25.366336,87.117468,NO2,12,13,13
India,Bihar,Purnia,"Mariam Nagar, Purnia - BSPCB",08-01-2024 09:00:00,25.366336,87.117468,CO,27,70,61
India,Bihar,Saharsa,"Police Line, Saharsa - BSPCB",08-01-2024 09:00:00,25.892357,86.590325,NH3,9,9,9
India,Bihar,Saharsa,"Police Line, Saharsa - BSPCB",08-01-2024 09:00:00,25.892357,86.590325,SO2,18,18,18
India,Bihar,Saharsa,"Police Line, Saharsa - BSPCB",08-01-2024 09:00:00,25.892357,86.590325,CO,NA,NA,NA
India,Bihar,Saharsa,"Police Line, Saharsa - BSPCB",08-01-2024 09:00:00,25.892357,86.590325,OZONE,2,4,3
India,Bihar,Sasaram,"Dada Peer, Sasaram - BSPCB",08-01-2024 09:00:00,24.952822,84.002396,NH3,4,9,6
India,Bihar,Siwan,"Chitragupta Nagar, Siwan - BSPCB",08-01-2024 09:00:00,26.2271665,84.3570427,SO2,11,34,30
India,Chandigarh,Chandigarh,"Sector-25, Chandigarh - CPCC",08-01-2024 09:00:00,30.751462,76.762879,NH3,10,17,12
India,Chandigarh,Chandigarh,"Sector-25, Chandigarh - CPCC",08-01-2024 09:00:00,30.751462,76.762879,SO2,7,38,11
India,Chhattisgarh,Bhilai,"Hathkhoj, Bhilai - CECB",08-01-2024 09:00:00,21.224231,81.408350,SO2,13,65,33
India,Chhattisgarh,Bhilai,"Hathkhoj, Bhilai - CECB",08-01-2024 09:00:00,21.224231,81.408350,CO,24,46,35
India,Chhattisgarh,Bilaspur,"Mangala, Bilaspur - NTPC",08-01-2024 09:00:00,22.08815,82.13737,PM10,57,114,87
India,Chhattisgarh,Bilaspur,"Mangala, Bilaspur - NTPC",08-01-2024 09:00:00,22.08815,82.13737,CO,32,36,34
India,Chhattisgarh,Chhal,"Nawapara SECL Colony, Chhal - CECB",08-01-2024 09:00:00,22.118125,83.140608,PM10,57,107,87
India,Chhattisgarh,Chhal,"Nawapara SECL Colony, Chhal - CECB",08-01-2024 09:00:00,22.118125,83.140608,NO2,13,44,22
India,Chhattisgarh,Chhal,"Nawapara SECL Colony, Chhal - CECB",08-01-2024 09:00:00,22.118125,83.140608,CO,76,120,94
India,Chhattisgarh,Korba,"Urja Nagar, Korba - CECB",08-01-2024 09:00:00,22.348441,82.549611,PM10,54,71,62
India,Chhattisgarh,Korba,"Urja Nagar, Korba - CECB",08-01-2024 09:00:00,22.348441,82.549611,SO2,2,7,4
India,Chhattisgarh,Kunjemura,"OP Jindal School, Kunjemura - CECB",08-01-2024 09:00:00,22.126650,83.483212,NO2,15,109,54
India,Chhattisgarh,Kunjemura,"OP Jindal School, Kunjemura - CECB",08-01-2024 09:00:00,22.126650,83.483212,SO2,1,88,29
India,Chhattisgarh,Kunjemura,"OP Jindal School, Kunjemura - CECB",08-01-2024 09:00:00,22.126650,83.483212,CO,35,72,54
India,Chhattisgarh,Raipur,"Bhatagaon New ISBT, Raipur - CECB",08-01-2024 09:00:00,21.219665,81.630094,NO2,61,88,73
India,Chhattisgarh,Raipur,"Bhatagaon New ISBT, Raipur - CECB",08-01-2024 09:00:00,21.219665,81.630094,NH3,1,2,1
India,Chhattisgarh,Raipur,"Siltara Phase-II, Raipur - CECB",08-01-2024 09:00:00,21.371751,81.664929,SO2,NA,NA,NA
India,Delhi,Delhi,"Alipur, Delhi - DPCC",08-01-2024 09:00:00,28.815329,77.153010,SO2,7,15,9
India,Delhi,Delhi,"Alipur, Delhi - DPCC",08-01-2024 09:00:00,28.815329,77.153010,OZONE,4,57,8
India,Delhi,Delhi,"Anand Vihar, Delhi - DPCC",08-01-2024 09:00:00,28.647622,77.3158090,PM2.5,330,431,378
India,Delhi,Delhi,"Anand Vihar, Delhi - DPCC",08-01-2024 09:00:00,28.647622,77.3158090,SO2,1,18,9
India,Delhi,Delhi,"Ashok Vihar, Delhi - DPCC",08-01-2024 09:00:00,28.695381,77.181665,NO2,41,82,63
India,Delhi,Delhi,"Aya Nagar, Delhi - IMD",08-01-2024 09:00:00,28.4706914,77.1099364,CO,63,92,89
India,Delhi,Delhi,"CRRI Mathura Road, Delhi - IMD",08-01-2024 09:00:00,28.5512005,77.2735737,CO,6,26,19
India,Delhi,Delhi,"DTU, Delhi - CPCB",08-01-2024 09:00:00,28.7500499,77.1112615,PM10,237,409,286
India,Delhi,Delhi,"DTU, Delhi - CPCB",08-01-2024 09:00:00,28.7500499,77.1112615,SO2,28,29,29
India,Delhi,Delhi,"Dr. Karni Singh Shooting Range, Delhi - DPCC",08-01-2024 09:00:00,28.498571,77.264840,NO2,43,124,70
India,Delhi,Delhi,"IHBAS, Dilshad Garden, Delhi - CPCB",08-01-2024 09:00:00,28.6811736,77.3025234,NH3,7,9,9
India,Delhi,Delhi,"IHBAS, Dilshad Garden, Delhi - CPCB",08-01-2024 09:00:00,28.6811736,77.3025234,CO,36,100,64
India,Delhi,Delhi,"ITO, Delhi - CPCB",08-01-2024 09:00:00,28.628624,77.241060,CO,1,38,14
India,Delhi,Delhi,"Jahangirpuri, Delhi - DPCC",08-01-2024 09:00:00,28.732820,77.170633,NO2,38,52,42
India,Delhi,Delhi,"Jahangirpuri, Delhi - DPCC",08-01-2024 09:00:00,28.732820,77.170633,CO,1,186,172
India,Delhi,Delhi,"Jahangirpuri, Delhi - DPCC",08-01-2024 09:00:00,28.732820,77.170633,OZONE,8,24,9
India,Delhi,Delhi,"Jawaharlal Nehru Stadium, Delhi - DPCC",08-01-2024 09:00:00,28.580280,77.233829,PM2.5,251,377,323
India,Delhi,Delhi,"Major Dhyan Chand National Stadium, Delhi - DPCC",08-01-2024 09:00:00,28.611281,77.237738,PM10,165,361,229
India,Delhi,Delhi,"Mandir Marg, Delhi - DPCC",08-01-2024 09:00:00,28.636429,77.201067,NH3,20,22,21
India,Delhi,Delhi,"Mundka, Delhi - DPCC",08-01-2024 09:00:00,28.684678,77.076574,CO,46,70,56
India,Delhi,Delhi,"NSIT Dwarka, Delhi - CPCB",08-01-2024 09:00:00,28.60909,77.0325413,PM2.5,285,383,328
India,Delhi,Delhi,"Najafgarh, Delhi - DPCC",08-01-2024 09:00:00,28.570173,76.933762,PM2.5,167,309,239
India,Delhi,Delhi,"Najafgarh, Delhi - DPCC",08-01-2024 09:00:00,28.570173,76.933762,OZONE,1,87,6
India,Delhi,Delhi,"Nehru Nagar, Delhi - DPCC",08-01-2024 09:00:00,28.567890,77.250515,NH3,24,38,27
India,Delhi,Delhi,"North Campus, DU, Delhi - IMD",08-01-2024 09:00:00,28.6573814,77.1585447,NO2,33,65,47
India,Delhi,Delhi,"Okhla Phase-2, Delhi - DPCC",08-01-2024 09:00:00,28.530785,77.271255,SO2,8,15,12
India,Delhi,Delhi,"Patparganj, Delhi - DPCC",08-01-2024 09:00:00,28.623763,77.287209,NH3,6,10,8
India,Delhi,Delhi,"Patparganj, Delhi - DPCC",08-01-2024 09:00:00,28.623763,77.287209,SO2,9,14,11
India,Delhi,Delhi,"Punjabi Bagh, Delhi - DPCC",08-01-2024 09:00:00,28.674045,77.131023,PM10,190,336,265
India,Delhi,Delhi,"Punjabi Bagh, Delhi - DPCC",08-01-2024 09:00:00,28.674045,77.131023,NH3,6,9,7
India,Delhi,Delhi,"Pusa, Delhi - DPCC",08-01-2024 09:00:00,28.639652,77.146275,PM2.5,307,379,342
India,Delhi,Delhi,"Pusa, Delhi - IMD",08-01-2024 09:00:00,28.636110,77.173332,PM2.5,160,343,286
India,Delhi,Delhi,"Pusa, Delhi - IMD",08-01-2024 09:00:00,28.636110,77.173332,PM10,129,233,175
India,Delhi,Delhi,"Pusa, Delhi - IMD",08-01-2024 09:00:00,28.636110,77.173332,OZONE,26,42,26
India,Delhi,Delhi,"R K Puram, Delhi - DPCC",08-01-2024 09:00:00,28.563262,77.186937,NO2,1,16,7
India,Delhi,Delhi,"Rohini, Delhi - DPCC",08-01-2024 09:00:00,28.732528,77.119920,PM2.5,337,403,361
India,Delhi,Delhi,"Rohini, Delhi - DPCC",08-01-2024 09:00:00,28.732528,77.119920,SO2,9,40,14
India,Delhi,Delhi,"Shadipur, Delhi - CPCB",08-01-2024 09:00:00,28.6514781,77.1473105,PM10,187,381,289
India,Delhi,Delhi,"Shadipur, Delhi - CPCB",08-01-2024 09:00:00,28.6514781,77.1473105,NO2,32,57,44
India,Delhi,Delhi,"Sirifort, Delhi - CPCB",08-01-2024 09:00:00,28.5504249,77.2159377,SO2,25,27,26
India,Delhi,Delhi,"Sonia Vihar, Delhi - DPCC",08-01-2024 09:00:00,28.710508,77.249485,OZONE,7,69,12
India,Delhi,Delhi,"Sri Aurobindo Marg, Delhi - DPCC",08-01-2024 09:00:00,28.531346,77.190156,SO2,8,13,11
India,Delhi,Delhi,"Vivek Vihar, Delhi - DPCC",08-01-2024 09:00:00,28.672342,77.315260,OZONE,3,14,4
India,Delhi,Delhi,"Wazirpur, Delhi - DPCC",08-01-2024 09:00:00,28.699793,77.165453,OZONE,12,64,15
India,Gujarat,Ahmedabad,"Chandkheda, Ahmedabad - IITM",08-01-2024 09:00:00,23.107969,72.574648,PM2.5,51,180,84
India,Gujarat,Ahmedabad,"Chandkheda, Ahmedabad - IITM",08-01-2024 09:00:00,23.107969,72.574648,NO2,5,6,5
India,Gujarat,Ahmedabad,"Gyaspur, Ahmedabad - IITM",08-01-2024 09:00:00,22.977134,72.553024,PM10,73,154,116
India,Gujarat,Ahmedabad,"Raikhad, Ahmedabad - IITM",08-01-2024 09:00:00,23.020509,72.579261,CO,35,66,45
India,Gujarat,Ahmedabad,"Rakhial, Ahmedabad - IITM",08-01-2024 09:00:00,23.016834,72.625775,PM10,77,123,100
India,Gujarat,Ahmedabad,"Rakhial, Ahmedabad - IITM",08-01-2024 09:00:00,23.016834,72.625775,SO2,1,3,2
India,Gujarat,Ahmedabad,"SAC ISRO Bopal, Ahmedabad - IITM",08-01-2024 09:00:00,23.041137,72.456691,PM2.5,96,236,149
India,Gujarat,Ahmedabad,"SAC ISRO Bopal, Ahmedabad - IITM",08-01-2024 09:00:00,23.041137,72.456691,NO2,13,16,14
India,Gujarat,Ahmedabad,"SAC ISRO Bopal, Ahmedabad - IITM",08-01-2024 09:00:00,23.041137,72.456691,OZONE,2,9,7
India,Gujarat,Ahmedabad,"SAC ISRO Satellite, Ahmedabad - IITM",08-01-2024 09:00:00,23.023389,72.515201,CO,24,29,25
India,Gujarat,Ahmedabad,"SVPI Airport Hansol, Ahmedabad - IITM",08-01-2024 09:00:00,23.076793,72.627874,NH3,4,4,4
India,Gujarat,Ahmedabad,"Sardar Vallabhbhai Patel Stadium, Ahmedabad - IITM",08-01-2024 09:00:00,23.043070,72.562968,SO2,1,2,2
India,Gujarat,Ankleshwar,"GIDC, Ankleshwar - GPCB",08-01-2024 09:00:00,21.613267,73.010555,NH3,7,7,7
India,Gujarat,Ankleshwar,"GIDC, Ankleshwar - GPCB",08-01-2024 09:00:00,21.613267,73.010555,CO,6,88,44
India,Gujarat,Gandhinagar,"GIFT City, Gandhinagar - IITM",08-01-2024 09:00:00,23.163798,72.677768,NO2,6,9,7
India,Gujarat,Gandhinagar,"GIFT City, Gandhinagar - IITM",08-01-2024 09:00:00,23.163798,72.677768,SO2,5,7,6
India,Gujarat,Gandhinagar,"IIPHG Lekawada, Gandhinagar - IITM",08-01-2024 09:00:00,23.243639,72.68994,OZONE,9,13,11
India,Gujarat,Gandhinagar,"Sector-10, Gandhinagar - GPCB",08-01-2024 09:00:00,23.221714,72.654328,NO2,NA,NA,NA
India,Gujarat,Surat,"Science Center, Surat - SMC",08-01-2024 09:00:00,21.170046,72.795405,PM2.5,44,123,78
India,Gujarat,Surat,"Science Center, Surat - SMC",08-01-2024 09:00:00,21.170046,72.795405,PM10,42,76,60
India,Gujarat,Surat,"Science Center, Surat - SMC",08-01-2024 09:00:00,21.170046,72.795405,CO,54,74,66
India,Gujarat,Vapi,"Phase-1 GIDC, Vapi - GPCB",08-01-2024 09:00:00,20.362421,72.918013,OZONE,1,3,1
India,Haryana,Ambala,"Patti Mehar, Ambala - HSPCB",08-01-2024 09:00:00,30.379589,76.778328,NO2,7,21,14
India,Haryana,Ambala,"Patti Mehar, Ambala - HSPCB",08-01-2024 09:00:00,30.379589,76.778328,OZONE,22,34,29
India,Haryana,Bahadurgarh,"Arya Nagar, Bahadurgarh - HSPCB",08-01-2024 09:00:00,28.6701,76.9254,PM10,119,178,148
India,Haryana,Ballabgarh,"Nathu Colony, Ballabgarh - HSPCB",08-01-2024 09:00:00,28.3419248,77.319699,NO2,NA,NA,NA
India,Haryana,Ballabgarh,"Nathu Colony, Ballabgarh - HSPCB",08-01-2024 09:00:00,28.3419248,77.319699,OZONE,NA,NA,NA
India,Haryana,Bhiwani,"H.B. Colony, Bhiwani - HSPCB",08-01-2024 09:00:00,28.806223,76.141105,PM2.5,61,176,130
India,Haryana,Bhiwani,"H.B. Colony, Bhiwani - HSPCB",08-01-2024 09:00:00,28.806223,76.141105,NH3,2,6,6
India,Haryana,Bhiwani,"H.B. Colony, Bhiwani - HSPCB",08-01-2024 09:00:00,28.806223,76.141105,SO2,6,13,10
India,Haryana,Charkhi Dadri,"Mini Secretariat, Charkhi Dadri - HSPCB",08-01-2024 09:00:00,28.593883,76.270653,SO2,8,14,11
India,Haryana,Faridabad,"Sector 11, Faridabad - HSPCB",08-01-2024 09:00:00,28.376058,77.315741,PM10,96,500,244
India,Haryana,Faridabad,"Sector 11, Faridabad - HSPCB",08-01-2024 09:00:00,28.376058,77.315741,NO2,30,33,31
India,Haryana,Faridabad,"Sector 30, Faridabad - HSPCB",08-01-2024 09:00:00,28.4417,77.3217,CO,80,103,98
India,Haryana,Fatehabad,"Huda Sector, Fatehabad - HSPCB",08-01-2024 09:00:00,29.503664,75.467934,SO2,2,11,6
India,Haryana,Gurugram,"Sector-51, Gurugram - HSPCB",08-01-2024 09:00:00,28.4227,77.0667,NH3,7,14,9
India,Haryana,Gurugram,"Sector-51, Gurugram - HSPCB",08-01-2024 09:00:00,28.4227,77.0667,CO,52,111,108
India,Haryana,Gurugram,"Teri Gram, Gurugram - HSPCB",08-01-2024 09:00:00,28.4275,77.1465,CO,31,62,60
India,Haryana,Gurugram,"Vikas Sadan, Gurugram - HSPCB",08-01-2024 09:00:00,28.4501238,77.0263051,NO2,4,26,14
India,Haryana,Gurugram,"Vikas Sadan, Gurugram - HSPCB",08-01-2024 09:00:00,28.4501238,77.0263051,SO2,20,31,27
India,Haryana,Kaithal,"Rishi Nagar, Kaithal - HSPCB",08-01-2024 09:00:00,29.8006,76.4155,PM2.5,38,127,78
India,Haryana,Kaithal,"Rishi Nagar, Kaithal - HSPCB",08-01-2024 09:00:00,29.8006,76.4155,SO2,2,8,5
India,Haryana,Kaithal,"Rishi Nagar, Kaithal - HSPCB",08-01-2024 09:00:00,29.8006,76.4155,CO,20,48,27
India,Haryana,Karnal,"Sector-12, Karnal - HSPCB",08-01-2024 09:00:00,29.695300,77.002700,NH3,10,13,11
India,Haryana,Karnal,"Sector-12, Karnal - HSPCB",08-01-2024 09:00:00,29.695300,77.002700,SO2,15,90,24
India,Haryana,Karnal,"Sector-12, Karnal - HSPCB",08-01-2024 09:00:00,29.695300,77.002700,OZONE,32,32,32
India,Haryana,Kurukshetra,"Sector-7, Kurukshetra - HSPCB",08-01-2024 09:00:00,29.966942,76.875879,NH3,2,6,5
India,Haryana,Kurukshetra,"Sector-7, Kurukshetra - HSPCB",08-01-2024 09:00:00,29.966942,76.875879,OZONE,4,18,10
India,Haryana,Mandikhera,"General Hospital, Mandikhera - HSPCB",08-01-2024 09:00:00,27.9002,76.9938,NH3,18,22,20
India,Haryana,Mandikhera,"General Hospital, Mandikhera - HSPCB",08-01-2024 09:00:00,27.9002,76.9938,SO2,31,39,34
India,Haryana,Narnaul,"Shastri Nagar, Narnaul - HSPCB",08-01-2024 09:00:00,28.060249,76.113115,NO2,16,46,29
India,Haryana,Panipat,"Sector-18, Panipat - HSPCB",08-01-2024 09:00:00,29.497973,76.993331,NO2,28,32,30
India,Haryana,Panipat,"Sector-18, Panipat - HSPCB",08-01-2024 09:00:00,29.497973,76.993331,OZONE,31,35,33
India,Haryana,Rohtak,"MD University, Rohtak - HSPCB",08-01-2024 09:00:00,28.52123,76.37138,PM2.5,125,500,329
India,Haryana,Rohtak,"MD University, Rohtak - HSPCB",08-01-2024 09:00:00,28.52123,76.37138,OZONE,37,42,40
India,Haryana,Sonipat,"Murthal, Sonipat - HSPCB",08-01-2024 09:00:00,29.027200,77.062100,NH3,5,10,8
India,Haryana,Sonipat,"Murthal, Sonipat - HSPCB",08-01-2024 09:00:00,29.027200,77.062100,SO2,12,29,18
India,Himachal Pradesh,Baddi,"HIMUDA Complex Phase-1, Baddi - HPPCB",08-01-2024 09:00:00,30.943887,76.801991,NH3,NA,NA,NA
India,Himachal Pradesh,Baddi,"HIMUDA Complex Phase-1, Baddi - HPPCB",08-01-2024 09:00:00,30.943887,76.801991,CO,NA,NA,NA
India,Karnataka,Bagalkot,"Vidayagiri, Bagalkot - KSPCB",08-01-2024 09:00:00,16.172806,75.659694,NH3,1,2,1
India,Karnataka,Belgaum,"Ramteerth Nagar, Belgaum - KSPCB",08-01-2024 09:00:00,15.888653,74.541751,NO2,26,31,27
India,Karnataka,Bengaluru,"BTM Layout, Bengaluru - CPCB",08-01-2024 09:00:00,12.9135218,77.5950804,CO,4,35,19
India,Karnataka,Bengaluru,"Bapuji Nagar, Bengaluru - KSPCB",08-01-2024 09:00:00,12.951913,77.539784,PM10,49,105,69
India,Karnataka,Bengaluru,"Hebbal, Bengaluru - KSPCB",08-01-2024 09:00:00,13.029152,77.585901,SO2,4,19,13
India,Karnataka,Bengaluru,"Jayanagar 5th Block, Bengaluru - KSPCB",08-01-2024 09:00:00,12.920984,77.584908,PM10,51,134,94
India,Karnataka,Bengaluru,"Jayanagar 5th Block, Bengaluru - KSPCB",08-01-2024 09:00:00,12.920984,77.584908,CO,19,40,24
India,Karnataka,Bengaluru,"Jigani, Bengaluru - KSPCB",08-01-2024 09:00:00,12.7816279,77.6299145,NO2,40,41,40
India,Karnataka,Bengaluru,"Jigani, Bengaluru - KSPCB",08-01-2024 09:00:00,12.7816279,77.6299145,NH3,3,3,3
India,Karnataka,Bengaluru,"Jigani, Bengaluru - KSPCB",08-01-2024 09:00:00,12.7816279,77.6299145,CO,34,77,52
India,Karnataka,Bengaluru,"Jigani, Bengaluru - KSPCB",08-01-2024 09:00:00,12.7816279,77.6299145,OZONE,35,60,39
India,Karnataka,Bengaluru,"Peenya, Bengaluru - CPCB",08-01-2024 09:00:00,13.0270199,77.494094,NH3,1,2,1
India,Karnataka,Bengaluru,"Peenya, Bengaluru - CPCB",08-01-2024 09:00:00,13.0270199,77.494094,CO,44,60,47
India,Karnataka,Bengaluru,"Sanegurava Halli, Bengaluru - KSPCB",08-01-2024 09:00:00,12.990328,77.5431385,SO2,NA,NA,NA
India,Karnataka,Bengaluru,"Sanegurava Halli, Bengaluru - KSPCB",08-01-2024 09:00:00,12.990328,77.5431385,CO,NA,NA,NA
India,Karnataka,Bengaluru,"Shivapura_Peenya, Bengaluru - KSPCB",08-01-2024 09:00:00,13.0246342,77.5080115,PM2.5,2,45,23
India,Karnataka,Bengaluru,"Shivapura_Peenya, Bengaluru - KSPCB",08-01-2024 09:00:00,13.0246342,77.5080115,NO2,15,16,15
India,Karnataka,Bengaluru,"Silk Board, Bengaluru - KSPCB",08-01-2024 09:00:00,12.917348,77.622813,PM10,40,69,58
India,Karnataka,Bengaluru,"Silk Board, Bengaluru - KSPCB",08-01-2024 09:00:00,12.917348,77.622813,CO,6,24,8
India,Karnataka,Chikkaballapur,"Chikkaballapur Rural, Chikkaballapur - KSPCB",08-01-2024 09:00:00,13.428828,77.731418,NH3,1,1,1
India,Karnataka,Chikkamagaluru,"Kalyana Nagara, Chikkamagaluru - KSPCB",08-01-2024 09:00:00,13.328028,75.797056,CO,11,42,23
India,Karnataka,Davanagere,"Devaraj Urs Badavane, Davanagere - KSPCB",08-01-2024 09:00:00,14.475800,75.905200,NO2,9,11,10
India,Karnataka,Davanagere,"Devaraj Urs Badavane, Davanagere - KSPCB",08-01-2024 09:00:00,14.475800,75.905200,SO2,4,5,4
India,Karnataka,Davanagere,"Devaraj Urs Badavane, Davanagere - KSPCB",08-01-2024 09:00:00,14.475800,75.905200,CO,14,16,14
India,Karnataka,Davanagere,"Devaraj Urs Badavane, Davanagere - KSPCB",08-01-2024 09:00:00,14.475800,75.905200,OZONE,22,27,24
India,Karnataka,Dharwad,"Kalabhavan, Dharwad - KSPCB",08-01-2024 09:00:00,15.459706,75.008381,PM10,35,93,64
India,Karnataka,Dharwad,"Kalabhavan, Dharwad - KSPCB",08-01-2024 09:00:00,15.459706,75.008381,NO2,1,29,16
India,Karnataka,Dharwad,"Kalabhavan, Dharwad - KSPCB",08-01-2024 09:00:00,15.459706,75.008381,OZONE,2,30,17
India,Karnataka,Gadag,"Panchal Nagar, Gadag - KSPCB",08-01-2024 09:00:00,15.411456,75.638133,NH3,2,3,2
India,Karnataka,Hassan,"B.Katihalli, Hassan - KSPCB",08-01-2024 09:00:00,13.008556,76.125258,PM10,31,86,53
India,Karnataka,Hassan,"B.Katihalli, Hassan - KSPCB",08-01-2024 09:00:00,13.008556,76.125258,CO,2,14,7
India,Karnataka,Haveri,"Ashwini Nagar, Haveri - KSPCB",08-01-2024 09:00:00,14.791800,75.389600,OZONE,18,20,19
India,Karnataka,Hubballi,"Deshpande Nagar, Hubballi - KSPCB",08-01-2024 09:00:00,15.351773,75.140726,PM2.5,22,60,34
India,Karnataka,Hubballi,"Deshpande Nagar, Hubballi - KSPCB",08-01-2024 09:00:00,15.351773,75.140726,NO2,24,27,26
India,Karnataka,Hubballi,"Deshpande Nagar, Hubballi - KSPCB",08-01-2024 09:00:00,15.351773,75.140726,SO2,15,18,17
India,Karnataka,Hubballi,"Deshpande Nagar, Hubballi - KSPCB",08-01-2024 09:00:00,15.351773,75.140726,OZONE,13,36,20
India,Karnataka,Kalaburagi,"Lal Bahadur Shastri Nagar, Kalaburagi - KSPCB",08-01-2024 09:00:00,17.321993,76.822628,PM10,1,51,15
India,Karnataka,Kalaburagi,"Lal Bahadur Shastri Nagar, Kalaburagi - KSPCB",08-01-2024 09:00:00,17.321993,76.822628,NO2,11,12,12
India,Karnataka,Kalaburagi,"Lal Bahadur Shastri Nagar, Kalaburagi - KSPCB",08-01-2024 09:00:00,17.321993,76.822628,CO,34,42,35
India,Karnataka,Kalaburagi,"Mahatma Basaveswar Colony, Kalaburgi - KSPCB",08-01-2024 09:00:00,17.336318,76.847397,OZONE,18,41,23
India,Karnataka,Karwar,"KHB Colony, Karwar - KSPCB",08-01-2024 09:00:00,14.816666,74.141003,NH3,NA,NA,NA
India,Karnataka,Madikeri,"Stuart Hill, Madikeri - KSPCB",08-01-2024 09:00:00,12.415911,75.735050,SO2,4,4,4
India,Karnataka,Madikeri,"Stuart Hill, Madikeri - KSPCB",08-01-2024 09:00:00,12.415911,75.735050,OZONE,18,30,23
India,Karnataka,Mangalore,"Kadri, Mangalore - KSPCB",08-01-2024 09:00:00,12.889250,74.853000,NH3,1,2,2
India,Karnataka,Mangalore,"Kadri, Mangalore - KSPCB",08-01-2024 09:00:00,12.889250,74.853000,SO2,22,24,23
India,Karnataka,Mysuru,"Hebbal 1st Stage, Mysuru - KSPCB",08-01-2024 09:00:00,12.21041,76.37376,PM10,35,49,44
India,Karnataka,Raichur,"Haji Colony, Raichur - KSPCB",08-01-2024 09:00:00,16.208139,77.348417,NO2,15,34,23
India,Karnataka,Raichur,"Haji Colony, Raichur - KSPCB",08-01-2024 09:00:00,16.208139,77.348417,SO2,61,84,69
India,Karnataka,Ramanagara,"Vijay Nagar, Ramanagara - KSPCB",08-01-2024 09:00:00,12.733409,77.298051,NH3,2,3,3
India,Karnataka,Ramanagara,"Vijay Nagar, Ramanagara - KSPCB",08-01-2024 09:00:00,12.733409,77.298051,CO,13,40,21
India,Karnataka,Tumakuru,"Thimmalapura, Tumakuru - KSPCB",08-01-2024 09:00:00,13.377516,77.099072,PM10,64,136,106
India,Karnataka,Udupi,"Brahmagiri, Udupi - KSPCB",08-01-2024 09:00:00,13.34194444,74.74694444,PM10,NA,NA,NA
India,Karnataka,Vijayapura,"Ibrahimpur, Vijayapura - KSPCB",08-01-2024 09:00:00,16.802639,75.722694,PM10,42,43,42
India,Karnataka,Vijayapura,"Ibrahimpur, Vijayapura - KSPCB",08-01-2024 09:00:00,16.802639,75.722694,NH3,2,2,2
India,Karnataka,Yadgir,"Collector Office, Yadgir - KSPCB",08-01-2024 09:00:00,16.7602,77.1428,PM10,49,70,58
India,Karnataka,Yadgir,"Collector Office, Yadgir - KSPCB",08-01-2024 09:00:00,16.7602,77.1428,SO2,7,38,19
India,Kerala,Kannur,"Thavakkara, Kannur - Kerala PCB",08-01-2024 09:00:00,11.875000,75.373200,PM10,46,63,56
India,Kerala,Kannur,"Thavakkara, Kannur - Kerala PCB",08-01-2024 09:00:00,11.875000,75.373200,OZONE,31,35,31
India,Kerala,Thiruvananthapuram,"Kariavattom, Thiruvananthapuram - Kerala PCB",08-01-2024 09:00:00,8.563700,76.886500,NO2,8,9,9
India,Kerala,Thiruvananthapuram,"Plammoodu, Thiruvananthapuram - Kerala PCB",08-01-2024 09:00:00,8.5149093,76.9435879,OZONE,12,67,19
India,Kerala,Thrissur,"Corporation Ground, Thrissur - Kerala PCB",08-01-2024 09:00:00,10.532400,76.215900,SO2,1,11,5
India,Madhya Pradesh,Bhopal,"Idgah Hills, Bhopal - MPPCB",08-01-2024 09:00:00,23.264759,77.381568,PM2.5,88,300,191
India,Madhya Pradesh,Bhopal,"Idgah Hills, Bhopal - MPPCB",08-01-2024 09:00:00,23.264759,77.381568,SO2,2,9,6
India,Madhya Pradesh,Dewas,"Bhopal Chauraha, Dewas - MPPCB",08-01-2024 09:00:00,22.9682591,76.064118,NO2,10,13,12
India,Madhya Pradesh,Gwalior,"Deen Dayal Nagar, Gwalior - MPPCB",08-01-2024 09:00:00,26.259242,78.216432,PM2.5,141,320,237
India,Madhya Pradesh,Gwalior,"Deen Dayal Nagar, Gwalior - MPPCB",08-01-2024 09:00:00,26.259242,78.216432,CO,75,126,80
India,Madhya Pradesh,Gwalior,"Deen Dayal Nagar, Gwalior - MPPCB",08-01-2024 09:00:00,26.259242,78.216432,OZONE,12,96,25
India,Madhya Pradesh,Gwalior,"Maharaj Bada, Gwalior - MPPCB",08-01-2024 09:00:00,26.200388,78.147714,PM10,152,430,322
India,Madhya Pradesh,Gwalior,"Maharaj Bada, Gwalior - MPPCB",08-01-2024 09:00:00,26.200388,78.147714,NO2,38,115,66
India,Madhya Pradesh,Gwalior,"Maharaj Bada, Gwalior - MPPCB",08-01-2024 09:00:00,26.200388,78.147714,CO,36,112,50
India,Madhya Pradesh,Indore,"Maguda Nagar, Indore - IMC",08-01-2024 09:00:00,22.7524,75.8872,PM2.5,50,97,75
India,Madhya Pradesh,Indore,"Maguda Nagar, Indore - IMC",08-01-2024 09:00:00,22.7524,75.8872,PM10,33,64,50
India,Madhya Pradesh,Indore,"Maguda Nagar, Indore - IMC",08-01-2024 09:00:00,22.7524,75.8872,NO2,4,6,5
India,Madhya Pradesh,Indore,"Maguda Nagar, Indore - IMC",08-01-2024 09:00:00,22.7524,75.8872,NH3,1,2,1
India,Madhya Pradesh,Indore,"Regional Park, Indore - IMC",08-01-2024 09:00:00,22.6780,75.8559,NO2,5,7,6
India,Madhya Pradesh,Indore,"Residency Area, Indore - IMC",08-01-2024 09:00:00,22.7084,75.8815,SO2,24,40,29
India,Madhya Pradesh,Jabalpur,"Govindh Bhavan Colony, Jabalpur - JMC",08-01-2024 09:00:00,23.163174,79.973061,CO,38,48,42
India,Madhya Pradesh,Jabalpur,"Marhatal, Jabalpur - MPPCB",08-01-2024 09:00:00,23.168606,79.932247,PM10,68,141,109
India,Madhya Pradesh,Katni,"Gole Bazar, Katni - MPPCB",08-01-2024 09:00:00,23.50016,80.23284,PM2.5,89,248,171
India,Madhya Pradesh,Katni,"Gole Bazar, Katni - MPPCB",08-01-2024 09:00:00,23.50016,80.23284,NO2,7,29,16
India,Madhya Pradesh,Mandideep,"Sector-D Industrial Area, Mandideep - MPPCB",08-01-2024 09:00:00,23.108440,77.511428,PM2.5,77,305,105
India,Madhya Pradesh,Mandideep,"Sector-D Industrial Area, Mandideep - MPPCB",08-01-2024 09:00:00,23.108440,77.511428,NH3,8,9,9
India,Madhya Pradesh,Mandideep,"Sector-D Industrial Area, Mandideep - MPPCB",08-01-2024 09:00:00,23.108440,77.511428,OZONE,14,19,16
India,Madhya Pradesh,Pithampur,"Sector-2 Industrial Area, Pithampur - MPPCB",08-01-2024 09:00:00,22.624758,75.675238,PM10,71,126,104
India,Madhya Pradesh,Pithampur,"Sector-2 Industrial Area, Pithampur - MPPCB",08-01-2024 09:00:00,22.624758,75.675238,OZONE,28,36,30
India,Madhya Pradesh,Sagar,"Civil Lines, Sagar - MPPCB",08-01-2024 09:00:00,23.838586,78.759431,PM2.5,86,289,183
India,Madhya Pradesh,Sagar,"Civil Lines, Sagar - MPPCB",08-01-2024 09:00:00,23.838586,78.759431,PM10,106,168,129
India,Madhya Pradesh,Sagar,"Civil Lines, Sagar - MPPCB",08-01-2024 09:00:00,23.838586,78.759431,SO2,3,7,5
India,Madhya Pradesh,Sagar,"Civil Lines, Sagar - MPPCB",08-01-2024 09:00:00,23.838586,78.759431,CO,34,56,37
India,Madhya Pradesh,Sagar,"Deen Dayal Nagar, Sagar - MPPCB",08-01-2024 09:00:00,23.8640158,78.80289321,PM2.5,37,64,48
India,Madhya Pradesh,Satna,"Bandhavgar Colony, Satna - Birla Cement",08-01-2024 09:00:00,24.58434363,80.8549414,PM2.5,9,25,17
India,Madhya Pradesh,Ujjain,"Mahakaleshwar Temple, Ujjain - MPPCB",08-01-2024 09:00:00,23.182719 ,75.768218 ,PM10,80,143,114
India,Madhya Pradesh,Ujjain,"Mahakaleshwar Temple, Ujjain - MPPCB",08-01-2024 09:00:00,23.182719 ,75.768218 ,CO,46,78,53
India,Maharashtra,Ahmednagar,"Tarakpur, Ahmednagar - MPCB",08-01-2024 09:00:00,19.10122,74.73339,PM10,65,134,94
India,Maharashtra,Ahmednagar,"Tarakpur, Ahmednagar - MPCB",08-01-2024 09:00:00,19.10122,74.73339,SO2,7,15,11
India,Maharashtra,Akola,"Ramdaspeth, Akola - MPCB",08-01-2024 09:00:00,20.719516,77.000253,NH3,3,6,4
India,Maharashtra,Akola,"Ramdaspeth, Akola - MPCB",08-01-2024 09:00:00,20.719516,77.000253,SO2,3,18,10
India,Maharashtra,Amravati,"Shivneri Colony, Amravati - MPCB",08-01-2024 09:00:00,20.9402359,77.7895248,NH3,2,3,3
India,Maharashtra,Amravati,"Shivneri Colony, Amravati - MPCB",08-01-2024 09:00:00,20.9402359,77.7895248,CO,22,42,30
India,Maharashtra,Amravati,"Shri Shivaji Science College, Amaravati - MPCB",08-01-2024 09:00:00,20.939198,77.765701,NO2,11,68,23
India,Maharashtra,Aurangabad,"MIDC Chilkalthana, Aurangabad - MPCB",08-01-2024 09:00:00,19.875620,75.387310,CO,37,59,50
India,Maharashtra,Aurangabad,"More Chowk Waluj, Aurangabad - MPCB",08-01-2024 09:00:00,19.8389439,75.244448,CO,16,105,20
India,Maharashtra,Aurangabad,"Rachnakar Colony, Aurangabad - MPCB",08-01-2024 09:00:00,19.863756,75.321188,SO2,16,22,19
India,Maharashtra,Aurangabad,"Rachnakar Colony, Aurangabad - MPCB",08-01-2024 09:00:00,19.863756,75.321188,CO,22,66,27
India,Maharashtra,Badlapur,"Katrap, Badlapur - MPCB",08-01-2024 09:00:00,19.16485,73.23409,NH3,1,1,1
India,Maharashtra,Belapur,"CBD Belapur, Belapur - MPCB",08-01-2024 09:00:00,19.0243902,73.0406721,CO,32,67,47
India,Maharashtra,Bhiwandi,"Gokul Nagar, Bhiwandi - MPCB",08-01-2024 09:00:00,19.309073,73.057223,NH3,NA,NA,NA
India,Maharashtra,Chandrapur,"Chauhan Colony, Chandrapur - MPCB",08-01-2024 09:00:00,19.962900,79.298714,PM2.5,73,304,156
India,Maharashtra,Chandrapur,"Chauhan Colony, Chandrapur - MPCB",08-01-2024 09:00:00,19.962900,79.298714,NO2,12,34,18
India,Maharashtra,Dhule,"Deopur, Dhule - MPCB",08-01-2024 09:00:00,20.918946,74.776388,PM2.5,44,151,111
India,Maharashtra,Dhule,"Deopur, Dhule - MPCB",08-01-2024 09:00:00,20.918946,74.776388,CO,23,46,34
India,Maharashtra,Jalna,"Old MIDC, Jalna - MPCB",08-01-2024 09:00:00,19.854616,75.905894,PM2.5,57,154,107
India,Maharashtra,Jalna,"Old MIDC, Jalna - MPCB",08-01-2024 09:00:00,19.854616,75.905894,NH3,6,8,7
India,Maharashtra,Jalna,"Old MIDC, Jalna - MPCB",08-01-2024 09:00:00,19.854616,75.905894,SO2,1,18,7
India,Maharashtra,Kalyan,"Khadakpada, Kalyan - MPCB",08-01-2024 09:00:00,19.25292,73.142019,OZONE,8,37,10
India,Maharashtra,Kolhapur,"Shivaji University, Kolhapur - MPCB",08-01-2024 09:00:00,16.6870449,74.2505872,NO2,9,29,17
India,Maharashtra,Kolhapur,"Sinchan Bhavan, Kolhapur - MPCB",08-01-2024 09:00:00,16.7143745,74.2426398,PM2.5,59,164,109
India,Maharashtra,Kolhapur,"Sinchan Bhavan, Kolhapur - MPCB",08-01-2024 09:00:00,16.7143745,74.2426398,NO2,17,70,37
India,Maharashtra,Kolhapur,"Sinchan Bhavan, Kolhapur - MPCB",08-01-2024 09:00:00,16.7143745,74.2426398,OZONE,3,71,18
India,Maharashtra,Mahad,"Kamble Tarf Birwadi, Mahad - MPCB",08-01-2024 09:00:00,18.1023399,73.4783687,OZONE,7,56,11
India,Maharashtra,Mira-Bhayandar,"Bhayandar West, Mira-Bhayandar - MPCB",08-01-2024 09:00:00,19.296481,72.840923,NH3,5,8,6
India,Maharashtra,Mira-Bhayandar,"Bhayandar West, Mira-Bhayandar - MPCB",08-01-2024 09:00:00,19.296481,72.840923,OZONE,1,70,10
India,Maharashtra,Mumbai,"Bandra Kurla Complex, Mumbai - MPCB",08-01-2024 09:00:00,19.065931,72.862131,PM2.5,86,151,110
India,Maharashtra,Mumbai,"Bandra Kurla Complex, Mumbai - MPCB",08-01-2024 09:00:00,19.065931,72.862131,NH3,15,23,18
India,Maharashtra,Mumbai,"Borivali East, Mumbai - IITM",08-01-2024 09:00:00,19.23241,72.86895,PM2.5,58,123,74
India,Maharashtra,Mumbai,"Borivali East, Mumbai - MPCB",08-01-2024 09:00:00,19.2243333,72.8658113,PM10,70,158,100
India,Maharashtra,Mumbai,"Borivali East, Mumbai - MPCB",08-01-2024 09:00:00,19.2243333,72.8658113,SO2,7,9,8
India,Maharashtra,Mumbai,"Borivali East, Mumbai - MPCB",08-01-2024 09:00:00,19.2243333,72.8658113,OZONE,8,9,9
India,Maharashtra,Mumbai,"Byculla, Mumbai - BMC",08-01-2024 09:00:00,18.9767,72.8380,PM2.5,37,92,64
India,Maharashtra,Mumbai,"Chakala-Andheri East, Mumbai - IITM",08-01-2024 09:00:00,19.11074,72.86084,PM2.5,64,88,74
India,Maharashtra,Mumbai,"Chakala-Andheri East, Mumbai - IITM",08-01-2024 09:00:00,19.11074,72.86084,SO2,1,36,17
India,Maharashtra,Mumbai,"Chembur, Mumbai - MPCB",08-01-2024 09:00:00,19.0364585,72.8954371,NO2,31,92,60
India,Maharashtra,Mumbai,"Chhatrapati Shivaji Intl. Airport (T2), Mumbai - MPCB",08-01-2024 09:00:00,19.10078,72.87462,NH3,4,8,6
India,Maharashtra,Mumbai,"Colaba, Mumbai - MPCB",08-01-2024 09:00:00,18.910000,72.820000,CO,13,22,19
India,Maharashtra,Mumbai,"Ghatkopar, Mumbai - BMC",08-01-2024 09:00:00,19.083694,72.920967,PM10,76,110,90
India,Maharashtra,Mumbai,"Kandivali East, Mumbai - MPCB",08-01-2024 09:00:00,19.205800,72.868200,SO2,19,35,27
India,Maharashtra,Mumbai,"Kandivali East, Mumbai - MPCB",08-01-2024 09:00:00,19.205800,72.868200,CO,64,104,90
India,Maharashtra,Mumbai,"Kandivali East, Mumbai - MPCB",08-01-2024 09:00:00,19.205800,72.868200,OZONE,29,31,30
India,Maharashtra,Mumbai,"Khindipada-Bhandup West, Mumbai - IITM",08-01-2024 09:00:00,19.1653323,72.922099,PM2.5,68,109,91
India,Maharashtra,Mumbai,"Khindipada-Bhandup West, Mumbai - IITM",08-01-2024 09:00:00,19.1653323,72.922099,OZONE,14,93,23
India,Maharashtra,Mumbai,"Kurla, Mumbai - MPCB",08-01-2024 09:00:00,19.0863,72.8888,SO2,32,32,32
India,Maharashtra,Mumbai,"Malad West, Mumbai - IITM",08-01-2024 09:00:00,19.19709,72.82204,NH3,2,2,2
India,Maharashtra,Mumbai,"Malad West, Mumbai - IITM",08-01-2024 09:00:00,19.19709,72.82204,SO2,4,31,11
India,Maharashtra,Mumbai,"Malad West, Mumbai - IITM",08-01-2024 09:00:00,19.19709,72.82204,CO,2,62,7
India,Maharashtra,Mumbai,"Mindspace-Malad West, Mumbai - MPCB",08-01-2024 09:00:00,19.1878657,72.8304069,NO2,23,102,53
India,Maharashtra,Mumbai,"Mindspace-Malad West, Mumbai - MPCB",08-01-2024 09:00:00,19.1878657,72.8304069,NH3,8,9,8
India,Maharashtra,Mumbai,"Mindspace-Malad West, Mumbai - MPCB",08-01-2024 09:00:00,19.1878657,72.8304069,CO,39,105,75
India,Maharashtra,Mumbai,"Mulund West, Mumbai - MPCB",08-01-2024 09:00:00,19.1750,72.9419,PM10,58,110,80
India,Maharashtra,Mumbai,"Mulund West, Mumbai - MPCB",08-01-2024 09:00:00,19.1750,72.9419,CO,44,45,44
India,Maharashtra,Mumbai,"Mulund West, Mumbai - MPCB",08-01-2024 09:00:00,19.1750,72.9419,OZONE,8,8,8
India,Maharashtra,Mumbai,"Navy Nagar-Colaba, Mumbai - IITM",08-01-2024 09:00:00,18.897756,72.813320,SO2,2,25,9
India,Maharashtra,Mumbai,"Powai, Mumbai - MPCB",08-01-2024 09:00:00,19.137500,72.915056,PM10,100,167,123
India,Maharashtra,Mumbai,"Powai, Mumbai - MPCB",08-01-2024 09:00:00,19.137500,72.915056,NO2,17,43,27
India,Maharashtra,Mumbai,"Powai, Mumbai - MPCB",08-01-2024 09:00:00,19.137500,72.915056,NH3,1,1,1
India,Maharashtra,Mumbai,"Powai, Mumbai - MPCB",08-01-2024 09:00:00,19.137500,72.915056,SO2,43,47,45
India,Maharashtra,Mumbai,"Sewri, Mumbai - BMC",08-01-2024 09:00:00,19.000084,72.856730,PM2.5,87,164,111
India,Maharashtra,Mumbai,"Sion, Mumbai - MPCB",08-01-2024 09:00:00,19.047000,72.874600,CO,29,71,52
India,Maharashtra,Mumbai,"Vile Parle West, Mumbai - MPCB",08-01-2024 09:00:00,19.10861,72.83622,NO2,1,42,11
India,Maharashtra,Mumbai,"Worli, Mumbai - MPCB",08-01-2024 09:00:00,18.9936162,72.8128113,NH3,1,1,1
India,Maharashtra,Mumbai,"Worli, Mumbai - MPCB",08-01-2024 09:00:00,18.9936162,72.8128113,SO2,10,11,10
India,Maharashtra,Nagpur,"Opp GPO Civil Lines, Nagpur - MPCB",08-01-2024 09:00:00,21.152875,79.0517531,PM2.5,110,231,154
India,Maharashtra,Nagpur,"Opp GPO Civil Lines, Nagpur - MPCB",08-01-2024 09:00:00,21.152875,79.0517531,OZONE,6,98,21
India,Maharashtra,Nagpur,"Ram Nagar, Nagpur - MPCB",08-01-2024 09:00:00,21.143383,79.048912,PM2.5,89,195,123
India,Maharashtra,Nagpur,"Ram Nagar, Nagpur - MPCB",08-01-2024 09:00:00,21.143383,79.048912,NO2,14,62,27
India,Maharashtra,Nanded,"Sneh Nagar, Nanded - MPCB",08-01-2024 09:00:00,19.173852,77.296291,NH3,1,3,2
India,Maharashtra,Nashik,"MIDC Ambad, Nashik - MPCB",08-01-2024 09:00:00,19.950220,73.731480,PM2.5,72,215,142
India,Maharashtra,Nashik,"MIDC Ambad, Nashik - MPCB",08-01-2024 09:00:00,19.950220,73.731480,NH3,2,2,2
India,Maharashtra,Navi Mumbai,"Kopripada-Vashi, Navi Mumbai - MPCB",08-01-2024 09:00:00,19.090337,73.014232,NO2,NA,NA,NA
India,Maharashtra,Navi Mumbai,"Kopripada-Vashi, Navi Mumbai - MPCB",08-01-2024 09:00:00,19.090337,73.014232,SO2,NA,NA,NA
India,Maharashtra,Navi Mumbai,"Mahape, Navi Mumbai - MPCB",08-01-2024 09:00:00,19.1135051,73.008978,NH3,3,3,3
India,Maharashtra,Navi Mumbai,"Mahape, Navi Mumbai - MPCB",08-01-2024 09:00:00,19.1135051,73.008978,CO,28,44,38
India,Maharashtra,Navi Mumbai,"Nerul, Navi Mumbai - MPCB",08-01-2024 09:00:00,19.008751,73.016620,PM10,74,138,107
India,Maharashtra,Navi Mumbai,"Nerul, Navi Mumbai - MPCB",08-01-2024 09:00:00,19.008751,73.016620,OZONE,28,43,36
India,Maharashtra,Navi Mumbai,"Sector-19A Nerul, Navi Mumbai - IITM",08-01-2024 09:00:00,19.044,73.0325,SO2,11,33,22
India,Maharashtra,Navi Mumbai,"Sector-19A Nerul, Navi Mumbai - IITM",08-01-2024 09:00:00,19.044,73.0325,CO,46,114,69
India,Maharashtra,Navi Mumbai,"Sector-2E Kalamboli, Navi Mumbai - MPCB",08-01-2024 09:00:00,19.02579,73.10297,PM2.5,53,320,196
India,Maharashtra,Navi Mumbai,"Tondare-Taloja, Navi Mumbai - MPCB",08-01-2024 09:00:00,19.0630,73.1209,SO2,16,77,41
India,Maharashtra,Navi Mumbai,"Tondare-Taloja, Navi Mumbai - MPCB",08-01-2024 09:00:00,19.0630,73.1209,OZONE,1,125,11
India,Maharashtra,Pimpri-Chinchwad,"Gavalinagar, Pimpri Chinchwad - MPCB",08-01-2024 09:00:00,18.63673,73.82487,OZONE,2,84,23
India,Maharashtra,Pimpri-Chinchwad,"Park Street Wakad, Pimpri Chinchwad - MPCB",08-01-2024 09:00:00,18.59051,73.77946,OZONE,1,89,10
India,Maharashtra,Pimpri-Chinchwad,"Thergaon, Pimpri Chinchwad - MPCB",08-01-2024 09:00:00,18.616318,73.765797,PM10,103,151,123
India,Maharashtra,Pimpri-Chinchwad,"Thergaon, Pimpri Chinchwad - MPCB",08-01-2024 09:00:00,18.616318,73.765797,CO,24,78,37
India,Maharashtra,Pimpri-Chinchwad,"Thergaon, Pimpri Chinchwad - MPCB",08-01-2024 09:00:00,18.616318,73.765797,OZONE,1,112,24
India,Maharashtra,Pune,"Alandi, Pune - IITM",08-01-2024 09:00:00,18.675076,73.892743,PM2.5,33,135,74
India,Maharashtra,Pune,"Bhosari, Pune - IITM",08-01-2024 09:00:00,18.640051,73.848956,OZONE,3,29,12
India,Maharashtra,Pune,"Karve Road, Pune - MPCB",08-01-2024 09:00:00,18.5011743,73.8165527,SO2,20,20,20
India,Maharashtra,Pune,"Katraj Dairy, Pune - MPCB",08-01-2024 09:00:00,18.454450,73.854155,PM2.5,37,93,59
India,Maharashtra,Pune,"Revenue Colony-Shivajinagar, Pune - IITM",08-01-2024 09:00:00,18.530085,73.849598,CO,106,106,106
India,Maharashtra,Sangli,"Vijay Nagar, Sangli - MPCB",08-01-2024 09:00:00, 16.5038,74.3623,SO2,2,14,7
India,Maharashtra,Solapur,"Dnyaneshwar Nagar, Solapur - MPCB",08-01-2024 09:00:00,17.6336264,75.9132495,PM10,65,106,83
India,Maharashtra,Solapur,"Dnyaneshwar Nagar, Solapur - MPCB",08-01-2024 09:00:00,17.6336264,75.9132495,NH3,16,22,18
India,Maharashtra,Solapur,"Dnyaneshwar Nagar, Solapur - MPCB",08-01-2024 09:00:00,17.6336264,75.9132495,OZONE,38,73,43
India,Maharashtra,Solapur,"Ratandeep Housing Society, Solapur - MPCB",08-01-2024 09:00:00,17.65439,75.90649,PM2.5,50,86,64
India,Maharashtra,Solapur,"Ratandeep Housing Society, Solapur - MPCB",08-01-2024 09:00:00,17.65439,75.90649,SO2,4,18,6
India,Maharashtra,Solapur,"Solapur, Solapur - MPCB",08-01-2024 09:00:00,17.6599188,75.9063906,PM10,80,112,99
India,Maharashtra,Solapur,"Solapur, Solapur - MPCB",08-01-2024 09:00:00,17.6599188,75.9063906,SO2,32,37,34
India,Maharashtra,Thane,"Upvan Fort, Thane - MPCB",08-01-2024 09:00:00,19.222279,72.957979,PM2.5,143,304,196
India,Maharashtra,Thane,"Upvan Fort, Thane - MPCB",08-01-2024 09:00:00,19.222279,72.957979,OZONE,11,137,35
India,Maharashtra,Ulhasnagar,"Sidhi Vinayak Nagar, Ulhasnagar - MPCB",08-01-2024 09:00:00,19.235581,73.159121,PM2.5,89,260,164
India,Maharashtra,Ulhasnagar,"Sidhi Vinayak Nagar, Ulhasnagar - MPCB",08-01-2024 09:00:00,19.235581,73.159121,NO2,12,59,24
India,Maharashtra,Virar,"Bolinj, Virar - MPCB",08-01-2024 09:00:00,19.4458210,72.7988231,PM2.5,55,96,77
India,Maharashtra,Virar,"Bolinj, Virar - MPCB",08-01-2024 09:00:00,19.4458210,72.7988231,CO,26,76,47
India,Manipur,Imphal,"DM College of Science, Imphal - Manipur PCB",08-01-2024 09:00:00,24.8207389,93.9423085,CO,6,6,6
India,Meghalaya,Shillong,"JN Stadium, Shillong - Meghalaya PCB",08-01-2024 09:00:00,25.5803419,91.8942571,NH3,3,4,3
India,Meghalaya,Shillong,"JN Stadium, Shillong - Meghalaya PCB",08-01-2024 09:00:00,25.5803419,91.8942571,OZONE,1,19,4
India,Meghalaya,Shillong,"Lumpyngngad, Shillong - Meghalaya PCB",08-01-2024 09:00:00,25.5586,91.8985,NH3,1,1,1
India,Meghalaya,Shillong,"Lumpyngngad, Shillong - Meghalaya PCB",08-01-2024 09:00:00,25.5586,91.8985,CO,6,24,9
India,Meghalaya,Shillong,"Lumpyngngad, Shillong - Meghalaya PCB",08-01-2024 09:00:00,25.5586,91.8985,OZONE,38,76,64
India,Mizoram,Aizawl,"Sikulpuikawn, Aizawl - Mizoram PCB",08-01-2024 09:00:00,23.7176342,92.7192841,OZONE,1,17,4
India,Nagaland,Kohima,"PWD Juction, Kohima - NPCB",08-01-2024 09:00:00,25.6635413,94.0989878,PM10,26,116,52
India,Odisha,Angul,"Hakimapada, Angul - OSPCB",08-01-2024 09:00:00,20.832874,85.104082,PM10,134,421,226
India,Odisha,Angul,"Hakimapada, Angul - OSPCB",08-01-2024 09:00:00,20.832874,85.104082,CO,32,124,63
India,Odisha,Balasore,"Kalidaspur, Balasore - OSPCB",08-01-2024 09:00:00,21.51161,86.89088,SO2,20,95,38
India,Odisha,Balasore,"Kalidaspur, Balasore - OSPCB",08-01-2024 09:00:00,21.51161,86.89088,OZONE,22,84,27
India,Odisha,Baripada,"Meher Colony, Baripada - OSPCB",08-01-2024 09:00:00,21.941841,86.728318,PM2.5,NA,NA,NA
India,Odisha,Bileipada,"Tata Township, Bileipada - OSPCB",08-01-2024 09:00:00,22.06156703,85.47409613,SO2,20,33,25
India,Odisha,Brajrajnagar,"GM Office, Brajrajnagar - OSPCB",08-01-2024 09:00:00,21.8004996,83.8396977,PM2.5,54,158,88
India,Odisha,Byasanagar,"Ferro Chrome Colony, Byasanagar - OSPCB",08-01-2024 09:00:00,20.94185,86.11510,PM2.5,200,335,269
India,Odisha,Byasanagar,"Ferro Chrome Colony, Byasanagar - OSPCB",08-01-2024 09:00:00,20.94185,86.11510,SO2,5,34,18
India,Odisha,Cuttack,"CDA Area, Cuttack - OSPCB",08-01-2024 09:00:00,20.48891     ,85.84768     ,NH3,4,6,4
India,Odisha,Cuttack,"CDA Area, Cuttack - OSPCB",08-01-2024 09:00:00,20.48891     ,85.84768     ,CO,47,108,58
India,Odisha,Keonjhar,"Jagamohanpur, Keonjhar - OSPCB",08-01-2024 09:00:00,21.643900,85.599355,NH3,10,17,13
India,Odisha,Keonjhar,"Jagamohanpur, Keonjhar - OSPCB",08-01-2024 09:00:00,21.643900,85.599355,SO2,7,13,9
India,Odisha,Rairangpur,"Divisional Forest Office, Rairangpur - OSPCB",08-01-2024 09:00:00,22.265816,86.174829,NO2,7,8,7
India,Odisha,Rairangpur,"Divisional Forest Office, Rairangpur - OSPCB",08-01-2024 09:00:00,22.265816,86.174829,SO2,4,29,12
India,Odisha,Rourkela,"Sector-2, Rourkela - OSPCB",08-01-2024 09:00:00,22.24500000,84.88111111,PM10,106,139,125
India,Odisha,Suakati,"OMC Colony, Suakati - OSPCB",08-01-2024 09:00:00,21.606865,85.510538,PM2.5,NA,NA,NA
India,Odisha,Suakati,"OMC Colony, Suakati - OSPCB",08-01-2024 09:00:00,21.606865,85.510538,PM10,NA,NA,NA
India,Odisha,Suakati,"OMC Colony, Suakati - OSPCB",08-01-2024 09:00:00,21.606865,85.510538,CO,NA,NA,NA
India,Odisha,Talcher,"Talcher Coalfields,Talcher - OSPCB",08-01-2024 09:00:00,20.9360711,85.1707021,PM10,89,401,180
India,Odisha,Tensa,"Barsua Iron Ore Mines, Tensa - OSPCB",08-01-2024 09:00:00,21.869985,85.167016,NO2,47,84,55
India,Puducherry,Puducherry,"Jawahar Nagar, Puducherry - PPCC",08-01-2024 09:00:00,11.9309,79.8027,PM10,NA,NA,NA
India,Punjab,Amritsar,"Golden Temple, Amritsar - PPCB",08-01-2024 09:00:00,31.620000,74.876512,PM10,97,160,126
India,Punjab,Jalandhar,"Civil Line, Jalandhar - PPCB",08-01-2024 09:00:00,31.321907,75.578914,PM2.5,29,139,75
India,Punjab,Jalandhar,"Civil Line, Jalandhar - PPCB",08-01-2024 09:00:00,31.321907,75.578914,SO2,19,25,21
India,Punjab,Jalandhar,"Civil Line, Jalandhar - PPCB",08-01-2024 09:00:00,31.321907,75.578914,CO,46,70,48
India,Punjab,Jalandhar,"Civil Line, Jalandhar - PPCB",08-01-2024 09:00:00,31.321907,75.578914,OZONE,16,50,17
India,Punjab,Khanna,"Kalal Majra, Khanna - PPCB",08-01-2024 09:00:00,30.736056 ,76.209694,PM2.5,16,103,48
India,Punjab,Khanna,"Kalal Majra, Khanna - PPCB",08-01-2024 09:00:00,30.736056 ,76.209694,NH3,15,16,15
India,Punjab,Ludhiana,"Punjab Agricultural University, Ludhiana - PPCB",08-01-2024 09:00:00,30.9028,75.8086,CO,2,103,58
India,Punjab,Mandi Gobindgarh,"RIMT University, Mandi Gobindgarh - PPCB",08-01-2024 09:00:00,30.649961,76.331442,OZONE,41,42,41
India,Punjab,Patiala,"Model Town, Patiala - PPCB",08-01-2024 09:00:00,30.349388,76.366642,PM2.5,51,109,73
India,Punjab,Patiala,"Model Town, Patiala - PPCB",08-01-2024 09:00:00,30.349388,76.366642,SO2,2,13,8
India,Punjab,Rupnagar,"Ratanpura, Rupnagar - Ambuja Cements",08-01-2024 09:00:00,31.0325454,76.5623046,PM2.5,76,282,146
India,Rajasthan,Ajmer,"Civil Lines,  Ajmer - RSPCB",08-01-2024 09:00:00,26.470859,74.646594,PM2.5,58,197,112
India,Rajasthan,Ajmer,"Civil Lines,  Ajmer - RSPCB",08-01-2024 09:00:00,26.470859,74.646594,PM10,89,152,113
India,Rajasthan,Ajmer,"Civil Lines,  Ajmer - RSPCB",08-01-2024 09:00:00,26.470859,74.646594,CO,16,53,28
India,Rajasthan,Alwar,"Moti Doongri, Alwar - RSPCB",08-01-2024 09:00:00,27.554793,76.611536,PM2.5,80,179,118
India,Rajasthan,Alwar,"Moti Doongri, Alwar - RSPCB",08-01-2024 09:00:00,27.554793,76.611536,CO,31,105,49
India,Rajasthan,Banswara,"Rati Talai, Banswara - RSPCB",08-01-2024 09:00:00,23.555190,74.440010,PM10,75,138,111
India,Rajasthan,Banswara,"Rati Talai, Banswara - RSPCB",08-01-2024 09:00:00,23.555190,74.440010,SO2,26,34,28
India,Rajasthan,Banswara,"Rati Talai, Banswara - RSPCB",08-01-2024 09:00:00,23.555190,74.440010,CO,46,61,49
India,Rajasthan,Banswara,"Rati Talai, Banswara - RSPCB",08-01-2024 09:00:00,23.555190,74.440010,OZONE,33,77,36
India,Rajasthan,Baran,"Bamboliya, Baran - RSPCB",08-01-2024 09:00:00,25.106006,76.469948,NH3,3,9,5
India,Rajasthan,Baran,"Bamboliya, Baran - RSPCB",08-01-2024 09:00:00,25.106006,76.469948,OZONE,3,75,11
India,Rajasthan,Bharatpur,"Krishna Nagar, Bharatpur - RSPCB",08-01-2024 09:00:00,27.215415,77.50873,OZONE,6,109,8
India,Rajasthan,Bhilwara,"Pratap Nagar, Bhilwara - RSPCB",08-01-2024 09:00:00,25.339605,74.618883,NH3,3,6,4
India,Rajasthan,Bhiwadi,"RIICO Ind. Area III, Bhiwadi - RSPCB",08-01-2024 09:00:00,28.194909,76.862296,NO2,17,48,29
India,Rajasthan,Bikaner,"MM Ground, Bikaner - RSPCB",08-01-2024 09:00:00,28.018792,73.292658,PM2.5,101,406,240
India,Rajasthan,Bikaner,"MM Ground, Bikaner - RSPCB",08-01-2024 09:00:00,28.018792,73.292658,NH3,10,14,12
India,Rajasthan,Bikaner,"MM Ground, Bikaner - RSPCB",08-01-2024 09:00:00,28.018792,73.292658,CO,30,104,38
India,Rajasthan,Bundi,"New Colony, Bundi - RSPCB",08-01-2024 09:00:00,25.435774,75.644272,PM2.5,111,414,254
India,Rajasthan,Bundi,"New Colony, Bundi - RSPCB",08-01-2024 09:00:00,25.435774,75.644272,NO2,20,78,34
India,Rajasthan,Chittorgarh,"Shastri Nagar, Chittorgarh - RSPCB",08-01-2024 09:00:00,24.892047,74.623527,PM10,97,315,167
India,Rajasthan,Chittorgarh,"Shastri Nagar, Chittorgarh - RSPCB",08-01-2024 09:00:00,24.892047,74.623527,SO2,2,116,38
India,Rajasthan,Chittorgarh,"Shastri Nagar, Chittorgarh - RSPCB",08-01-2024 09:00:00,24.892047,74.623527,CO,34,110,54
India,Rajasthan,Dungarpur,"Bhoiwada, Dungarpur - RSPCB",08-01-2024 09:00:00,23.837789,73.714926,NO2,17,28,21
India,Rajasthan,Dungarpur,"Bhoiwada, Dungarpur - RSPCB",08-01-2024 09:00:00,23.837789,73.714926,NH3,8,9,8
India,Rajasthan,Hanumangarh,"Housing Board, Hanumangarh - RSPCB",08-01-2024 09:00:00,29.610750,74.283608,PM2.5,167,344,276
India,Rajasthan,Hanumangarh,"Housing Board, Hanumangarh - RSPCB",08-01-2024 09:00:00,29.610750,74.283608,NH3,15,20,18
India,Rajasthan,Hanumangarh,"Housing Board, Hanumangarh - RSPCB",08-01-2024 09:00:00,29.610750,74.283608,CO,34,66,39
India,Rajasthan,Hanumangarh,"Housing Board, Hanumangarh - RSPCB",08-01-2024 09:00:00,29.610750,74.283608,OZONE,9,17,16
India,Rajasthan,Jaipur,"Adarsh Nagar, Jaipur - RSPCB",08-01-2024 09:00:00,26.902909,75.836858,NO2,23,119,42
India,Rajasthan,Jaipur,"Adarsh Nagar, Jaipur - RSPCB",08-01-2024 09:00:00,26.902909,75.836858,CO,16,104,38
India,Rajasthan,Jaipur,"Adarsh Nagar, Jaipur - RSPCB",08-01-2024 09:00:00,26.902909,75.836858,OZONE,11,74,56
India,Rajasthan,Jaipur,"Police Commissionerate, Jaipur - RSPCB",08-01-2024 09:00:00,26.9164092,75.7994901,OZONE,10,80,46
India,Rajasthan,Jaipur,"RIICO Sitapura, Jaipur - RSPCB",08-01-2024 09:00:00,26.786682,75.827928,PM2.5,222,410,322
India,Rajasthan,Jaipur,"RIICO Sitapura, Jaipur - RSPCB",08-01-2024 09:00:00,26.786682,75.827928,NO2,22,104,48
India,Rajasthan,Jaipur,"Shastri Nagar, Jaipur - RSPCB",08-01-2024 09:00:00,26.9502929,75.730943,NO2,34,128,64
India,Rajasthan,Jaipur,"Shastri Nagar, Jaipur - RSPCB",08-01-2024 09:00:00,26.9502929,75.730943,NH3,9,40,17
India,Rajasthan,Jaipur,"Shastri Nagar, Jaipur - RSPCB",08-01-2024 09:00:00,26.9502929,75.730943,CO,40,135,46
India,Rajasthan,Jaisalmer,"Sadar Bazar, Jaisalmer - RSPCB",08-01-2024 09:00:00,26.912329,70.909168,SO2,4,9,6
India,Rajasthan,Jalore,"Mudtra Sili, Jalore - RSPCB",08-01-2024 09:00:00,25.344694,72.626208,PM10,89,187,123
India,Rajasthan,Jodhpur,"Digari Kalan, Jodhpur - RSPCB",08-01-2024 09:00:00,26.295810,73.082283,PM10,57,102,81
India,Rajasthan,Jodhpur,"Digari Kalan, Jodhpur - RSPCB",08-01-2024 09:00:00,26.295810,73.082283,NH3,5,6,5
India,Rajasthan,Jodhpur,"Digari Kalan, Jodhpur - RSPCB",08-01-2024 09:00:00,26.295810,73.082283,OZONE,19,98,25
India,Rajasthan,Jodhpur,"Jhalamand, Jodhpur - RSPCB",08-01-2024 09:00:00,26.215415,73.070156,PM10,85,121,105
India,Rajasthan,Jodhpur,"Mandor, Jodhpur - RSPCB",08-01-2024 09:00:00,26.358805,73.047444,NH3,5,8,6
India,Rajasthan,Jodhpur,"Mandor, Jodhpur - RSPCB",08-01-2024 09:00:00,26.358805,73.047444,CO,39,59,46
India,Rajasthan,Jodhpur,"Samrat Ashok Udhyan, Jodhpur - RSPCB",08-01-2024 09:00:00,26.253384,72.976571,NH3,5,7,6
India,Rajasthan,Jodhpur,"Samrat Ashok Udhyan, Jodhpur - RSPCB",08-01-2024 09:00:00,26.253384,72.976571,SO2,3,8,5
India,Rajasthan,Karauli,"Satyawati Vihar, Karauli - RSPCB",08-01-2024 09:00:00,26.506177,77.025989,CO,3,68,27
India,Rajasthan,Kota,"Dhanmandi, Kota - RSPCB",08-01-2024 09:00:00,25.164090,75.858137,PM2.5,196,368,286
India,Rajasthan,Kota,"Nayapura, Kota - RSPCB",08-01-2024 09:00:00,25.196024,75.855668,PM10,104,334,170
India,Rajasthan,Kota,"Nayapura, Kota - RSPCB",08-01-2024 09:00:00,25.196024,75.855668,OZONE,2,65,7
India,Rajasthan,Nagaur,"Karni Colony, Nagaur - RSPCB",08-01-2024 09:00:00,27.213494,73.734444,OZONE,26,55,33
India,Rajasthan,Pali,"Indira Colony Vistar, Pali - RSPCB",08-01-2024 09:00:00,25.771061, 73.340227,PM2.5,98,318,248
India,Rajasthan,Pali,"Indira Colony Vistar, Pali - RSPCB",08-01-2024 09:00:00,25.771061, 73.340227,NO2,19,71,41
India,Rajasthan,Pali,"Indira Colony Vistar, Pali - RSPCB",08-01-2024 09:00:00,25.771061, 73.340227,OZONE,19,84,30
India,Rajasthan,Pratapgarh,"Pragati Nagar, Pratapgarh - RSPCB",08-01-2024 09:00:00,24.041198,74.780702,NO2,13,28,20
India,Rajasthan,Pratapgarh,"Pragati Nagar, Pratapgarh - RSPCB",08-01-2024 09:00:00,24.041198,74.780702,NH3,6,9,8
India,Rajasthan,Pratapgarh,"Pragati Nagar, Pratapgarh - RSPCB",08-01-2024 09:00:00,24.041198,74.780702,SO2,2,6,4
India,Rajasthan,Rajsamand,"Dhoinda, Rajsamand - RSPCB",08-01-2024 09:00:00,25.036360,73.883502,PM2.5,113,421,244
India,Rajasthan,Rajsamand,"Dhoinda, Rajsamand - RSPCB",08-01-2024 09:00:00,25.036360,73.883502,PM10,84,308,145
India,Rajasthan,Sawai Madhopur,"Sahu Nagar, Sawai Madhopur - RSPCB",08-01-2024 09:00:00,26.031443,76.359327,PM10,116,227,164
India,Rajasthan,Sawai Madhopur,"Sahu Nagar, Sawai Madhopur - RSPCB",08-01-2024 09:00:00,26.031443,76.359327,SO2,17,26,21
India,Rajasthan,Sirohi,"Vedhaynath Colony, Sirohi - RSPCB",08-01-2024 09:00:00,24.885261,72.857549,CO,16,70,39
India,Rajasthan,Udaipur,"Ashok Nagar, Udaipur - RSPCB",08-01-2024 09:00:00,24.5886166,73.6321397,PM10,92,159,129
India,Rajasthan,Udaipur,"Ashok Nagar, Udaipur - RSPCB",08-01-2024 09:00:00,24.5886166,73.6321397,OZONE,5,9,8
India,Sikkim,Gangtok,"Zero Point GICI, Gangtok - SSPCB",08-01-2024 09:00:00,27.338530,88.614099,NH3,1,1,1
India,Sikkim,Gangtok,"Zero Point GICI, Gangtok - SSPCB",08-01-2024 09:00:00,27.338530,88.614099,CO,10,23,16
India,TamilNadu,Chengalpattu,"Crescent University, Chengalpattu - TNPCB",08-01-2024 09:00:00,12.8777316,80.0834807,SO2,22,23,23
India,TamilNadu,Chennai,"Alandur Bus Depot, Chennai - CPCB",08-01-2024 09:00:00,12.9099161,80.1076538,PM2.5,66,116,82
India,TamilNadu,Chennai,"Alandur Bus Depot, Chennai - CPCB",08-01-2024 09:00:00,12.9099161,80.1076538,NH3,5,19,9
India,TamilNadu,Chennai,"Arumbakkam, Chennai - TNPCB",08-01-2024 09:00:00,13.0664,80.2112 ,PM2.5,NA,NA,NA
India,TamilNadu,Chennai,"Kodungaiyur, Chennai - TNPCB",08-01-2024 09:00:00,13.1278,80.2642,OZONE,5,6,6
India,TamilNadu,Chennai,"Manali, Chennai - CPCB",08-01-2024 09:00:00,13.164544,80.26285,NO2,9,14,12
India,TamilNadu,Chennai,"Manali, Chennai - CPCB",08-01-2024 09:00:00,13.164544,80.26285,NH3,5,6,5
India,TamilNadu,Chennai,"Velachery Res. Area, Chennai - CPCB",08-01-2024 09:00:00,13.0052189,80.2398125,NO2,9,86,34
India,TamilNadu,Chennai,"Velachery Res. Area, Chennai - CPCB",08-01-2024 09:00:00,13.0052189,80.2398125,OZONE,20,30,23
India,TamilNadu,Coimbatore,"PSG College of Arts and Science, Coimbatore - TNPCB",08-01-2024 09:00:00,11.0328,77.0349,CO,1,33,9
India,TamilNadu,Cuddalore,"Kudikadu, Cuddalore - TNPCB",08-01-2024 09:00:00,11.6829898,79.7532099,PM2.5,3,59,21
India,TamilNadu,Kanchipuram,"Kilambi, Kanchipuram - TNPCB",08-01-2024 09:00:00,12.864618,79.659968,PM10,NA,NA,NA
India,TamilNadu,Ooty,"Bombay Castel, Ooty - TNPCB",08-01-2024 09:00:00,11.4068288,76.7138973,PM2.5,10,63,34
India,TamilNadu,Palkalaiperur,"Bharathidasan University, Palkalaiperur - TNPCB",08-01-2024 09:00:00,10.681158,78.741746,PM2.5,1,32,18
India,TamilNadu,Palkalaiperur,"Bharathidasan University, Palkalaiperur - TNPCB",08-01-2024 09:00:00,10.681158,78.741746,SO2,27,28,27
India,TamilNadu,Salem,"Sona College of Technology, Salem - TNPCB",08-01-2024 09:00:00,11.679111,78.125052,NH3,1,1,1
India,TamilNadu,Tiruchirappalli,"St Joseph College, Tiruchirappalli - TNPCB",08-01-2024 09:00:00,10.830158,78.691849,PM2.5,NA,NA,NA
India,TamilNadu,Tirupur,"Kumaran College, Tirupur - TNPCB",08-01-2024 09:00:00,11.0973603,77.3228673,CO,18,98,24
India,TamilNadu,Virudhunagar,"Collectorate Office, Virudhunagar - TNPCB",08-01-2024 09:00:00,9.559382,77.948828,NH3,2,3,3
India,Telangana,Hyderabad,"Bollaram Industrial Area, Hyderabad - TSPCB",08-01-2024 09:00:00,17.540891,78.358528,NH3,NA,NA,NA
India,Telangana,Hyderabad,"Central University, Hyderabad - TSPCB",08-01-2024 09:00:00,17.460103,78.334361,NO2,10,37,23
India,Telangana,Hyderabad,"ECIL Kapra, Hyderabad - TSPCB",08-01-2024 09:00:00,17.470431,78.566959,PM10,NA,NA,NA
India,Telangana,Hyderabad,"Kokapet, Hyderabad - TSPCB",08-01-2024 09:00:00,17.393559,78.339194,PM10,66,74,70
India,Telangana,Hyderabad,"Kokapet, Hyderabad - TSPCB",08-01-2024 09:00:00,17.393559,78.339194,NO2,8,8,8
India,Telangana,Hyderabad,"Kokapet, Hyderabad - TSPCB",08-01-2024 09:00:00,17.393559,78.339194,SO2,8,8,8
India,Telangana,Hyderabad,"Kokapet, Hyderabad - TSPCB",08-01-2024 09:00:00,17.393559,78.339194,CO,18,18,18
India,Telangana,Hyderabad,"Kokapet, Hyderabad - TSPCB",08-01-2024 09:00:00,17.393559,78.339194,OZONE,2,5,3
India,Telangana,Hyderabad,"Nacharam_TSIIC IALA, Hyderabad - TSPCB",08-01-2024 09:00:00,17.429398,78.569354,PM2.5,45,78,62
India,Telangana,Hyderabad,"Nacharam_TSIIC IALA, Hyderabad - TSPCB",08-01-2024 09:00:00,17.429398,78.569354,NO2,11,13,13
India,Telangana,Hyderabad,"New Malakpet, Hyderabad - TSPCB",08-01-2024 09:00:00,17.37206,78.50864,PM10,54,66,58
India,Telangana,Hyderabad,"New Malakpet, Hyderabad - TSPCB",08-01-2024 09:00:00,17.37206,78.50864,CO,12,238,19
India,Telangana,Hyderabad,"New Malakpet, Hyderabad - TSPCB",08-01-2024 09:00:00,17.37206,78.50864,OZONE,6,24,11
India,Tripura,Agartala,"Bardowali, Agartala - Tripura SPCB",08-01-2024 09:00:00,23.8175497,91.2726974,PM2.5,65,339,248
India,Tripura,Agartala,"Bardowali, Agartala - Tripura SPCB",08-01-2024 09:00:00,23.8175497,91.2726974,PM10,97,284,175
India,Tripura,Agartala,"Bardowali, Agartala - Tripura SPCB",08-01-2024 09:00:00,23.8175497,91.2726974,SO2,23,26,24
India,Tripura,Agartala,"Bardowali, Agartala - Tripura SPCB",08-01-2024 09:00:00,23.8175497,91.2726974,CO,32,102,61
India,Tripura,Agartala,"Bardowali, Agartala - Tripura SPCB",08-01-2024 09:00:00,23.8175497,91.2726974,OZONE,NA,NA,NA
India,Uttar_Pradesh,Agra,"Manoharpur, Agra - UPPCB",08-01-2024 09:00:00,27.23711,78.01936,PM10,45,137,94
India,Uttar_Pradesh,Agra,"Manoharpur, Agra - UPPCB",08-01-2024 09:00:00,27.23711,78.01936,NO2,22,22,22
India,Uttar_Pradesh,Agra,"Manoharpur, Agra - UPPCB",08-01-2024 09:00:00,27.23711,78.01936,SO2,21,24,22
India,Uttar_Pradesh,Agra,"Rohta, Agra - UPPCB",08-01-2024 09:00:00,27.106972,78.000111,PM2.5,80,374,182
India,Uttar_Pradesh,Agra,"Sanjay Palace, Agra - UPPCB",08-01-2024 09:00:00,27.19865833,78.00598056,PM2.5,58,162,105
India,Uttar_Pradesh,Agra,"Sanjay Palace, Agra - UPPCB",08-01-2024 09:00:00,27.19865833,78.00598056,NO2,36,96,67
India,Uttar_Pradesh,Agra,"Shahjahan Garden, Agra - UPPCB",08-01-2024 09:00:00,27.169338,78.03582,NO2,28,28,28
India,Uttar_Pradesh,Baghpat,"Sardar Patel Inter College, Baghpat - UPPCB",08-01-2024 09:00:00,28.964949,77.278761,CO,32,73,37
India,Uttar_Pradesh,Baghpat,"Sardar Patel Inter College, Baghpat - UPPCB",08-01-2024 09:00:00,28.964949,77.278761,OZONE,5,17,8
India,Uttar_Pradesh,Bareilly,"Civil Lines, Bareilly - UPPCB",08-01-2024 09:00:00,28.359581,79.414455,PM10,NA,NA,NA
India,Uttar_Pradesh,Bareilly,"Rajendra Nagar, Bareilly - UPPCB",08-01-2024 09:00:00,28.38910936,79.42963708,PM2.5,32,91,65
India,Uttar_Pradesh,Bareilly,"Rajendra Nagar, Bareilly - UPPCB",08-01-2024 09:00:00,28.38910936,79.42963708,PM10,48,118,90
India,Uttar_Pradesh,Bareilly,"Rajendra Nagar, Bareilly - UPPCB",08-01-2024 09:00:00,28.38910936,79.42963708,NO2,32,59,44
India,Uttar_Pradesh,Bareilly,"Rajendra Nagar, Bareilly - UPPCB",08-01-2024 09:00:00,28.38910936,79.42963708,CO,37,76,50
India,Uttar_Pradesh,Bulandshahr,"Yamunapuram, Bulandshahr - UPPCB",08-01-2024 09:00:00,28.406963,77.849831,PM10,136,339,188
India,Uttar_Pradesh,Bulandshahr,"Yamunapuram, Bulandshahr - UPPCB",08-01-2024 09:00:00,28.406963,77.849831,SO2,9,22,14
India,Uttar_Pradesh,Ghaziabad,"Loni, Ghaziabad - UPPCB",08-01-2024 09:00:00,28.757294,77.278792,PM10,148,294,190
India,Uttar_Pradesh,Ghaziabad,"Loni, Ghaziabad - UPPCB",08-01-2024 09:00:00,28.757294,77.278792,OZONE,1,64,16
India,Uttar_Pradesh,Ghaziabad,"Sanjay Nagar, Ghaziabad - UPPCB",08-01-2024 09:00:00,28.685382,77.453839,PM2.5,230,340,305
India,Uttar_Pradesh,Ghaziabad,"Sanjay Nagar, Ghaziabad - UPPCB",08-01-2024 09:00:00,28.685382,77.453839,PM10,137,223,172
India,Uttar_Pradesh,Ghaziabad,"Sanjay Nagar, Ghaziabad - UPPCB",08-01-2024 09:00:00,28.685382,77.453839,CO,4,106,11
India,Uttar_Pradesh,Ghaziabad,"Vasundhara, Ghaziabad - UPPCB",08-01-2024 09:00:00,28.6603346,77.3572563,PM10,140,183,157
India,Uttar_Pradesh,Gorakhpur,"Madan Mohan Malaviya University of Technology, Gorakhpur - UPPCB",08-01-2024 09:00:00,26.730136,83.433859,NH3,2,3,2
India,Uttar_Pradesh,Gorakhpur,"Madan Mohan Malaviya University of Technology, Gorakhpur - UPPCB",08-01-2024 09:00:00,26.730136,83.433859,CO,56,79,72
India,Uttar_Pradesh,Greater Noida,"Knowledge Park - V, Greater Noida - UPPCB",08-01-2024 09:00:00,28.557054,77.453663,CO,50,109,58
India,Uttar_Pradesh,Jhansi,"Shivaji Nagar, Jhansi - UPPCB",08-01-2024 09:00:00,25.4547,78.6039,CO,26,106,42
India,Uttar_Pradesh,Kanpur,"NSI Kalyanpur, Kanpur - UPPCB",08-01-2024 09:00:00,26.509954,80.249612,NH3,2,3,3
India,Uttar_Pradesh,Khurja,"Kalindi Kunj, Khurja - UPPCB",08-01-2024 09:00:00,28.2348927,77.8683002,SO2,37,45,42
India,Uttar_Pradesh,Khurja,"Kalindi Kunj, Khurja - UPPCB",08-01-2024 09:00:00,28.2348927,77.8683002,CO,22,55,51
India,Uttar_Pradesh,Lucknow,"B R Ambedkar University, Lucknow - UPPCB",08-01-2024 09:00:00,26.766433,80.927299,PM2.5,43,160,78
India,Uttar_Pradesh,Lucknow,"B R Ambedkar University, Lucknow - UPPCB",08-01-2024 09:00:00,26.766433,80.927299,NO2,11,12,12
India,Uttar_Pradesh,Lucknow,"B R Ambedkar University, Lucknow - UPPCB",08-01-2024 09:00:00,26.766433,80.927299,NH3,5,8,7
India,Uttar_Pradesh,Lucknow,"B R Ambedkar University, Lucknow - UPPCB",08-01-2024 09:00:00,26.766433,80.927299,CO,5,22,17
India,Uttar_Pradesh,Lucknow,"Gomti Nagar, Lucknow - UPPCB",08-01-2024 09:00:00,26.868120,81.005119,PM2.5,27,99,61
India,Uttar_Pradesh,Lucknow,"Gomti Nagar, Lucknow - UPPCB",08-01-2024 09:00:00,26.868120,81.005119,NO2,6,9,7
India,Uttar_Pradesh,Lucknow,"Kendriya Vidyalaya, Lucknow - CPCB",08-01-2024 09:00:00,26.906111,80.948222,SO2,1,3,1
India,Uttar_Pradesh,Lucknow,"Kendriya Vidyalaya, Lucknow - CPCB",08-01-2024 09:00:00,26.906111,80.948222,OZONE,6,46,9
India,Uttar_Pradesh,Lucknow,"Lalbagh, Lucknow - CPCB",08-01-2024 09:00:00,26.8458805,80.9365541,PM2.5,99,322,220
India,Uttar_Pradesh,Lucknow,"Lalbagh, Lucknow - CPCB",08-01-2024 09:00:00,26.8458805,80.9365541,OZONE,6,41,12
India,Uttar_Pradesh,Lucknow,"Talkatora District Industries Center, Lucknow - CPCB",08-01-2024 09:00:00,26.83399722,80.8917361,PM2.5,146,337,272
India,Uttar_Pradesh,Lucknow,"Talkatora District Industries Center, Lucknow - CPCB",08-01-2024 09:00:00,26.83399722,80.8917361,CO,27,64,42
India,Uttar_Pradesh,Meerut,"Ganga Nagar, Meerut - UPPCB",08-01-2024 09:00:00,28.999264,77.7590354,PM10,103,191,154
India,Uttar_Pradesh,Meerut,"Ganga Nagar, Meerut - UPPCB",08-01-2024 09:00:00,28.999264,77.7590354,SO2,14,19,16
India,Uttar_Pradesh,Meerut,"Jai Bhim Nagar, Meerut - UPPCB",08-01-2024 09:00:00,28.9535882,77.7622941,NH3,8,12,10
India,Uttar_Pradesh,Meerut,"Jai Bhim Nagar, Meerut - UPPCB",08-01-2024 09:00:00,28.9535882,77.7622941,OZONE,11,30,17
India,Uttar_Pradesh,Moradabad,"Buddhi Vihar, Moradabad - UPPCB",08-01-2024 09:00:00,28.83526,78.74460,PM2.5,33,130,72
India,Uttar_Pradesh,Moradabad,"Buddhi Vihar, Moradabad - UPPCB",08-01-2024 09:00:00,28.83526,78.74460,NO2,23,24,23
India,Uttar_Pradesh,Moradabad,"Buddhi Vihar, Moradabad - UPPCB",08-01-2024 09:00:00,28.83526,78.74460,NH3,7,8,8
India,Uttar_Pradesh,Moradabad,"Eco Herbal Park, Moradabad - UPPCB",08-01-2024 09:00:00,28.840739,78.697531,OZONE,13,41,19
India,Uttar_Pradesh,Moradabad,"Employment Office, Moradabad - UPPCB",08-01-2024 09:00:00,28.88528,78.73880,CO,48,67,50
India,Uttar_Pradesh,Moradabad,"Jigar Colony, Moradabad - UPPCB",08-01-2024 09:00:00,28.856664,78.772638,NO2,25,30,29
India,Uttar_Pradesh,Moradabad,"Jigar Colony, Moradabad - UPPCB",08-01-2024 09:00:00,28.856664,78.772638,NH3,4,5,5
India,Uttar_Pradesh,Moradabad,"Kashiram Nagar, Moradabad - UPPCB",08-01-2024 09:00:00,28.849399,78.742362,NH3,4,4,4
India,Uttar_Pradesh,Moradabad,"Transport Nagar, Moradabad - UPPCB",08-01-2024 09:00:00,28.802625,78.753728,NO2,17,29,22
India,Uttar_Pradesh,Moradabad,"Transport Nagar, Moradabad - UPPCB",08-01-2024 09:00:00,28.802625,78.753728,NH3,6,6,6
India,Uttar_Pradesh,Moradabad,"Transport Nagar, Moradabad - UPPCB",08-01-2024 09:00:00,28.802625,78.753728,CO,40,42,40
India,Uttar_Pradesh,Muzaffarnagar,"New Mandi, Muzaffarnagar - UPPCB",08-01-2024 09:00:00,29.4723508,77.7194031,NO2,26,62,40
India,Uttar_Pradesh,Noida,"Sector - 62, Noida - IMD",08-01-2024 09:00:00,28.6245479,77.3577104,PM10,215,378,268
India,Uttar_Pradesh,Noida,"Sector - 62, Noida - IMD",08-01-2024 09:00:00,28.6245479,77.3577104,NO2,26,43,33
India,Uttar_Pradesh,Noida,"Sector-116, Noida - UPPCB",08-01-2024 09:00:00,28.569230,77.393848,NH3,5,13,9
India,Uttar_Pradesh,Noida,"Sector-116, Noida - UPPCB",08-01-2024 09:00:00,28.569230,77.393848,SO2,9,37,22
India,Uttar_Pradesh,Prayagraj,"Jhunsi, Prayagraj - UPPCB",08-01-2024 09:00:00,25.425602,81.917152,PM2.5,37,88,60
India,Uttar_Pradesh,Prayagraj,"Jhunsi, Prayagraj - UPPCB",08-01-2024 09:00:00,25.425602,81.917152,NO2,6,6,6
India,Uttar_Pradesh,Prayagraj,"Jhunsi, Prayagraj - UPPCB",08-01-2024 09:00:00,25.425602,81.917152,SO2,30,32,31
India,Uttar_Pradesh,Prayagraj,"Motilal Nehru NIT, Prayagraj - UPPCB",08-01-2024 09:00:00,25.494,81.863,NH3,6,7,6
India,Uttar_Pradesh,Prayagraj,"Nagar Nigam, Prayagraj - UPPCB",08-01-2024 09:00:00,25.44919916 ,81.82735986 ,CO,16,57,39
India,Uttar_Pradesh,Varanasi,"Bhelupur, Varanasi - UPPCB",08-01-2024 09:00:00,25.301778,82.996789,NH3,2,2,2
India,Uttar_Pradesh,Varanasi,"IESD Banaras Hindu University, Varanasi - UPPCB",08-01-2024 09:00:00,25.262326,82.995408,PM10,21,63,44
India,Uttar_Pradesh,Vrindavan,"Omex Eternity, Vrindavan - UPPCB",08-01-2024 09:00:00,27.5714090,77.6557570,PM10,38,116,70
India,Uttar_Pradesh,Vrindavan,"Omex Eternity, Vrindavan - UPPCB",08-01-2024 09:00:00,27.5714090,77.6557570,NH3,2,3,3
India,Uttarakhand,Dehradun,"Doon University, Dehradun - UKPCB",08-01-2024 09:00:00,30.269444,78.044167,PM2.5,60,325,232
India,Uttarakhand,Kashipur,"Govt. Girls Inter College, Kashipur - UKPCB",08-01-2024 09:00:00,29.2124114,78.9611753,PM2.5,46,221,129
India,Uttarakhand,Kashipur,"Govt. Girls Inter College, Kashipur - UKPCB",08-01-2024 09:00:00,29.2124114,78.9611753,NH3,8,11,9
India,Uttarakhand,Rishikesh,"Shivaji Nagar, Rishikesh - UKPCB",08-01-2024 09:00:00,30.075911,78.2859547,SO2,4,6,5
India,Uttarakhand,Rishikesh,"Shivaji Nagar, Rishikesh - UKPCB",08-01-2024 09:00:00,30.075911,78.2859547,CO,42,67,58
India,West_Bengal,Asansol,"Asansol Court Area, Asansol - WBPCB",08-01-2024 09:00:00,23.685297,86.945968,OZONE,17,74,27
India,West_Bengal,Durgapur,"Sidhu Kanhu Indoor Stadium, Durgapur - WBPCB",08-01-2024 09:00:00,23.5404352,87.2892225,SO2,25,41,33
India,West_Bengal,Durgapur,"Sidhu Kanhu Indoor Stadium, Durgapur - WBPCB",08-01-2024 09:00:00,23.5404352,87.2892225,CO,38,52,44
India,West_Bengal,Haldia,"Priyambada Housing Estate, Haldia - WBPCB",08-01-2024 09:00:00,22.06047,88.109737,PM2.5,126,214,169
India,West_Bengal,Haldia,"Priyambada Housing Estate, Haldia - WBPCB",08-01-2024 09:00:00,22.06047,88.109737,PM10,140,210,173
India,West_Bengal,Haldia,"Priyambada Housing Estate, Haldia - WBPCB",08-01-2024 09:00:00,22.06047,88.109737,NH3,4,5,4
India,West_Bengal,Haldia,"Priyambada Housing Estate, Haldia - WBPCB",08-01-2024 09:00:00,22.06047,88.109737,OZONE,18,38,21
India,West_Bengal,Howrah,"Ghusuri, Howrah - WBPCB",08-01-2024 09:00:00,22.611968,88.347422,PM2.5,302,380,330
India,West_Bengal,Howrah,"Padmapukur, Howrah - WBPCB",08-01-2024 09:00:00,22.5687319,88.2797276,SO2,11,48,20
India,West_Bengal,Kolkata,"Ballygunge, Kolkata - WBPCB",08-01-2024 09:00:00,22.5367507,88.3638022,PM10,145,363,194
India,West_Bengal,Kolkata,"Ballygunge, Kolkata - WBPCB",08-01-2024 09:00:00,22.5367507,88.3638022,NH3,13,18,15
India,West_Bengal,Kolkata,"Bidhannagar, Kolkata - WBPCB",08-01-2024 09:00:00,22.58157048,88.41002457,SO2,9,22,16
India,West_Bengal,Kolkata,"Fort William, Kolkata - WBPCB",08-01-2024 09:00:00,22.556640,88.342674,NO2,33,98,58
India,West_Bengal,Kolkata,"Fort William, Kolkata - WBPCB",08-01-2024 09:00:00,22.556640,88.342674,OZONE,41,134,53
India,West_Bengal,Kolkata,"Jadavpur, Kolkata - WBPCB",08-01-2024 09:00:00,22.49929,88.36917,PM10,143,248,183
India,West_Bengal,Kolkata,"Jadavpur, Kolkata - WBPCB",08-01-2024 09:00:00,22.49929,88.36917,SO2,4,9,6
India,West_Bengal,Kolkata,"Jadavpur, Kolkata - WBPCB",08-01-2024 09:00:00,22.49929,88.36917,CO,28,100,67
India,Andhra_Pradesh,Anantapur,"Gulzarpet, Anantapur - APPCB",08-01-2024 09:00:00,14.675886,77.593027,OZONE,14,46,23
India,Andhra_Pradesh,Chittoor,"Gangineni Cheruvu, Chittoor - APPCB",08-01-2024 09:00:00,13.204880,79.097889,NO2,7,22,11
India,Andhra_Pradesh,Chittoor,"Gangineni Cheruvu, Chittoor - APPCB",08-01-2024 09:00:00,13.204880,79.097889,OZONE,26,78,40
India,Andhra_Pradesh,Rajamahendravaram,"Anand Kala Kshetram, Rajamahendravaram - APPCB",08-01-2024 09:00:00,16.9872867,81.7363176,PM2.5,69,261,127
India,Andhra_Pradesh,Rajamahendravaram,"Anand Kala Kshetram, Rajamahendravaram - APPCB",08-01-2024 09:00:00,16.9872867,81.7363176,PM10,85,170,105
India,Andhra_Pradesh,Rajamahendravaram,"Anand Kala Kshetram, Rajamahendravaram - APPCB",08-01-2024 09:00:00,16.9872867,81.7363176,NH3,2,3,3
India,Andhra_Pradesh,Rajamahendravaram,"Anand Kala Kshetram, Rajamahendravaram - APPCB",08-01-2024 09:00:00,16.9872867,81.7363176,SO2,13,36,21
India,Andhra_Pradesh,Rajamahendravaram,"Anand Kala Kshetram, Rajamahendravaram - APPCB",08-01-2024 09:00:00,16.9872867,81.7363176,CO,7,78,18
India,Andhra_Pradesh,Tirupati,"Tirumala, Tirupati - APPCB",08-01-2024 09:00:00,13.67,79.35,NO2,30,45,38
India,Andhra_Pradesh,Tirupati,"Tirumala, Tirupati - APPCB",08-01-2024 09:00:00,13.67,79.35,OZONE,26,40,34
India,Andhra_Pradesh,Tirupati,"Vaikuntapuram, Tirupati - APPCB",08-01-2024 09:00:00,13.615387,79.409230,NH3,NA,NA,NA
India,Andhra_Pradesh,Tirupati,"Vaikuntapuram, Tirupati - APPCB",08-01-2024 09:00:00,13.615387,79.409230,OZONE,11,19,15
India,Andhra_Pradesh,Vijayawada,"HB Colony, Vijayawada - APPCB",08-01-2024 09:00:00,16.536107,80.594233,CO,23,26,23
India,Andhra_Pradesh,Vijayawada,"Kanuru, Vijayawada - APPCB",08-01-2024 09:00:00,16.486692,80.699436,SO2,4,4,4
India,Andhra_Pradesh,Vijayawada,"Rajiv Gandhi Park, Vijayawada - APPCB",08-01-2024 09:00:00,16.509717,80.612222,PM2.5,44,74,58
India,Andhra_Pradesh,Visakhapatnam,"GVM Corporation, Visakhapatnam - APPCB",08-01-2024 09:00:00,17.72,83.3,PM10,108,149,127
India,Andhra_Pradesh,Visakhapatnam,"GVM Corporation, Visakhapatnam - APPCB",08-01-2024 09:00:00,17.72,83.3,SO2,8,14,11
India,Arunachal_Pradesh,Naharlagun,"Naharlagun, Naharlagun - APSPCB",08-01-2024 09:00:00,27.103358,93.679645,CO,10,85,22
India,Assam,Byrnihat,"Central Academy for SFS, Byrnihat - PCBA",08-01-2024 09:00:00,26.071318,91.87488,NH3,2,3,3
India,Assam,Guwahati,"LGBI Airport, Guwahati - PCBA",08-01-2024 09:00:00,26.10887,91.589544,PM2.5,90,387,201
India,Assam,Guwahati,"LGBI Airport, Guwahati - PCBA",08-01-2024 09:00:00,26.10887,91.589544,PM10,82,252,135
India,Assam,Guwahati,"LGBI Airport, Guwahati - PCBA",08-01-2024 09:00:00,26.10887,91.589544,SO2,9,14,12
India,Assam,Guwahati,"Pan Bazaar, Guwahati - PCBA",08-01-2024 09:00:00,26.187500,91.744194,PM2.5,58,378,217
India,Assam,Guwahati,"Pan Bazaar, Guwahati - PCBA",08-01-2024 09:00:00,26.187500,91.744194,NH3,3,5,4
India,Assam,Guwahati,"Pan Bazaar, Guwahati - PCBA",08-01-2024 09:00:00,26.187500,91.744194,OZONE,17,17,17
India,Assam,Guwahati,"Railway Colony, Guwahati - PCBA",08-01-2024 09:00:00,26.181742,91.78063,PM2.5,NA,NA,NA
India,Assam,Guwahati,"Railway Colony, Guwahati - PCBA",08-01-2024 09:00:00,26.181742,91.78063,PM10,NA,NA,NA
India,Assam,Guwahati,"Railway Colony, Guwahati - PCBA",08-01-2024 09:00:00,26.181742,91.78063,NO2,NA,NA,NA
India,Assam,Nalbari,"Bata Chowk, Nalbari - PCBA",08-01-2024 09:00:00,26.446912,91.439057,PM2.5,183,500,373
India,Assam,Nalbari,"Bata Chowk, Nalbari - PCBA",08-01-2024 09:00:00,26.446912,91.439057,NH3,9,16,12
India,Assam,Nalbari,"Bata Chowk, Nalbari - PCBA",08-01-2024 09:00:00,26.446912,91.439057,OZONE,13,21,18
India,Assam,Silchar,"Tarapur, Silchar - PCBA",08-01-2024 09:00:00,24.82827,92.79525,PM2.5,30,38,34
India,Assam,Silchar,"Tarapur, Silchar - PCBA",08-01-2024 09:00:00,24.82827,92.79525,NO2,24,36,29
India,Bihar,Araria,"Kharahiya Basti, Araria - BSPCB",08-01-2024 09:00:00,26.146529,87.454184,PM10,NA,NA,NA
India,Bihar,Arrah,"New DM Office, Arrah - BSPCB",08-01-2024 09:00:00,25.5626095,84.663264,NO2,17,111,39
India,Bihar,Arrah,"New DM Office, Arrah - BSPCB",08-01-2024 09:00:00,25.5626095,84.663264,NH3,5,12,8
India,Bihar,Aurangabad,"Gurdeo Nagar, Aurangabad - BSPCB",08-01-2024 09:00:00,24.75746,84.366208,OZONE,1,29,1
India,Bihar,Bettiah,"Kamalnath Nagar, Bettiah - BSPCB",08-01-2024 09:00:00,26.80365,84.51954,PM2.5,NA,NA,NA
India,Bihar,Bhagalpur,"DM Office_Kachari Chowk, Bhagalpur - BSPCB",08-01-2024 09:00:00,25.251013,86.989001,PM10,165,260,205
India,Bihar,Bhagalpur,"DM Office_Kachari Chowk, Bhagalpur - BSPCB",08-01-2024 09:00:00,25.251013,86.989001,NO2,22,48,34
India,Bihar,Bhagalpur,"Mayaganj, Bhagalpur - BSPCB",08-01-2024 09:00:00,25.265194,87.012947,PM2.5,273,420,345
India,Bihar,Bhagalpur,"Mayaganj, Bhagalpur - BSPCB",08-01-2024 09:00:00,25.265194,87.012947,PM10,131,318,196
India,Bihar,Gaya,"Collectorate, Gaya - BSPCB",08-01-2024 09:00:00,24.7955,84.9994,NO2,15,18,17
India,Bihar,Gaya,"Collectorate, Gaya - BSPCB",08-01-2024 09:00:00,24.7955,84.9994,SO2,18,24,21
India,Bihar,Gaya,"Collectorate, Gaya - BSPCB",08-01-2024 09:00:00,24.7955,84.9994,CO,26,40,39
India,Bihar,Gaya,"Kareemganj, Gaya - BSPCB",08-01-2024 09:00:00,24.792403,84.992416,PM10,89,198,139
India,Bihar,Gaya,"Kareemganj, Gaya - BSPCB",08-01-2024 09:00:00,24.792403,84.992416,OZONE,2,41,20
India,Bihar,Hajipur,"Industrial Area, Hajipur - BSPCB",08-01-2024 09:00:00,25.697189,85.245900,NO2,32,52,41
India,Bihar,Hajipur,"Industrial Area, Hajipur - BSPCB",08-01-2024 09:00:00,25.697189,85.245900,NH3,14,17,15
India,Bihar,Katihar,"Mirchaibari, Katihar - BSPCB",08-01-2024 09:00:00,25.560083,87.553265,SO2,16,22,19
India,Bihar,Katihar,"Mirchaibari, Katihar - BSPCB",08-01-2024 09:00:00,25.560083,87.553265,CO,14,33,31
India,Bihar,Kishanganj,"SDM Office_Khagra, Kishanganj - BSPCB",08-01-2024 09:00:00,26.0881305,87.93840336,PM10,174,259,215
India,Bihar,Kishanganj,"SDM Office_Khagra, Kishanganj - BSPCB",08-01-2024 09:00:00,26.0881305,87.93840336,NO2,28,39,31
India,Bihar,Kishanganj,"SDM Office_Khagra, Kishanganj - BSPCB",08-01-2024 09:00:00,26.0881305,87.93840336,SO2,21,25,23
India,Bihar,Motihari,"Gandak Colony, Motihari - BSPCB",08-01-2024 09:00:00,26.63086,84.90051,CO,10,102,70
India,Bihar,Munger,"Town Hall, Munger - BSPCB",08-01-2024 09:00:00,25.376776,86.471523,NO2,7,8,8
India,Bihar,Munger,"Town Hall, Munger - BSPCB",08-01-2024 09:00:00,25.376776,86.471523,OZONE,10,41,14
India,Bihar,Muzaffarpur,"MIT-Daudpur Kothi, Muzaffarpur - BSPCB",08-01-2024 09:00:00,26.1403345,85.3650192,PM2.5,50,277,110
India,Bihar,Muzaffarpur,"MIT-Daudpur Kothi, Muzaffarpur - BSPCB",08-01-2024 09:00:00,26.1403345,85.3650192,CO,100,104,102
India,Bihar,Muzaffarpur,"Muzaffarpur Collectorate, Muzaffarpur - BSPCB",08-01-2024 09:00:00,26.1209,85.3647,CO,16,64,50
India,Bihar,Patna,"DRM Office Danapur, Patna - BSPCB",08-01-2024 09:00:00,25.586562,85.043586,NH3,4,5,4
India,Bihar,Patna,"DRM Office Danapur, Patna - BSPCB",08-01-2024 09:00:00,25.586562,85.043586,SO2,6,9,8
India,Bihar,Patna,"DRM Office Danapur, Patna - BSPCB",08-01-2024 09:00:00,25.586562,85.043586,CO,36,102,59
India,Bihar,Patna,"Govt. High School Shikarpur, Patna - BSPCB",08-01-2024 09:00:00,25.592539,85.227158,OZONE,13,33,15
India,Bihar,Patna,"IGSC Planetarium Complex, Patna - BSPCB",08-01-2024 09:00:00,25.610369,85.132568,CO,16,28,17
India,Bihar,Patna,"Muradpur, Patna - BSPCB",08-01-2024 09:00:00,25.619651,85.147382,PM2.5,NA,NA,NA
India,Bihar,Patna,"Muradpur, Patna - BSPCB",08-01-2024 09:00:00,25.619651,85.147382,CO,30,103,74
India,Bihar,Patna,"Samanpura, Patna - BSPCB",08-01-2024 09:00:00,25.596727,85.085624,SO2,4,10,6
India,Bihar,Patna,"Samanpura, Patna - BSPCB",08-01-2024 09:00:00,25.596727,85.085624,OZONE,3,45,19
India,Bihar,Rajgir,"Dangi Tola, Rajgir - BSPCB",08-01-2024 09:00:00,25.03280,85.41948,OZONE,22,25,23
India,Bihar,Saharsa,"Police Line, Saharsa - BSPCB",08-01-2024 09:00:00,25.892357,86.590325,NO2,6,8,7
India,Bihar,Samastipur,"DM Office_Kasipur, Samastipur - BSPCB",08-01-2024 09:00:00,25.859655,85.77944,PM2.5,NA,NA,NA
India,Bihar,Samastipur,"DM Office_Kasipur, Samastipur - BSPCB",08-01-2024 09:00:00,25.859655,85.77944,NO2,3,7,4
India,Bihar,Samastipur,"DM Office_Kasipur, Samastipur - BSPCB",08-01-2024 09:00:00,25.859655,85.77944,NH3,3,4,4
India,Bihar,Samastipur,"DM Office_Kasipur, Samastipur - BSPCB",08-01-2024 09:00:00,25.859655,85.77944,OZONE,5,7,6
India,Bihar,Sasaram,"Dada Peer, Sasaram - BSPCB",08-01-2024 09:00:00,24.952822,84.002396,PM10,100,196,130
India,Bihar,Sasaram,"Dada Peer, Sasaram - BSPCB",08-01-2024 09:00:00,24.952822,84.002396,SO2,7,25,20
India,Bihar,Siwan,"Chitragupta Nagar, Siwan - BSPCB",08-01-2024 09:00:00,26.2271665,84.3570427,PM2.5,NA,NA,NA
India,Chandigarh,Chandigarh,"Sector 22, Chandigarh - CPCC",08-01-2024 09:00:00,30.735567,76.775714,OZONE,5,23,12
India,Chandigarh,Chandigarh,"Sector-25, Chandigarh - CPCC",08-01-2024 09:00:00,30.751462,76.762879,NO2,13,40,22
India,Chandigarh,Chandigarh,"Sector-25, Chandigarh - CPCC",08-01-2024 09:00:00,30.751462,76.762879,CO,38,62,39
India,Chandigarh,Chandigarh,"Sector-53, Chandigarh - CPCC",08-01-2024 09:00:00,30.719859,76.738637,PM2.5,98,353,243
India,Chandigarh,Chandigarh,"Sector-53, Chandigarh - CPCC",08-01-2024 09:00:00,30.719859,76.738637,NO2,9,12,10
India,Chhattisgarh,Bhilai,"32Bungalows, Bhilai - CECB",08-01-2024 09:00:00,21.194815,81.314770,NO2,17,27,21
India,Chhattisgarh,Bhilai,"32Bungalows, Bhilai - CECB",08-01-2024 09:00:00,21.194815,81.314770,SO2,8,11,9
India,Chhattisgarh,Bhilai,"32Bungalows, Bhilai - CECB",08-01-2024 09:00:00,21.194815,81.314770,OZONE,4,7,4
India,Chhattisgarh,Bhilai,"Hathkhoj, Bhilai - CECB",08-01-2024 09:00:00,21.224231,81.408350,PM2.5,91,192,125
India,Chhattisgarh,Bilaspur,"Mangala, Bilaspur - NTPC",08-01-2024 09:00:00,22.08815,82.13737,NO2,11,11,11
India,Chhattisgarh,Bilaspur,"Mangala, Bilaspur - NTPC",08-01-2024 09:00:00,22.08815,82.13737,SO2,1,31,15
India,Chhattisgarh,Korba,"Urja Nagar, Korba - CECB",08-01-2024 09:00:00,22.348441,82.549611,NH3,5,6,5
India,Chhattisgarh,Kunjemura,"OP Jindal School, Kunjemura - CECB",08-01-2024 09:00:00,22.126650,83.483212,PM2.5,55,143,89
India,Chhattisgarh,Milupara,"Govt. Higher Secondary School, Milupara - CECB",08-01-2024 09:00:00,22.1910172,83.5197009,OZONE,14,82,22
India,Chhattisgarh,Raipur,"AIIMS, Raipur - CECB",08-01-2024 09:00:00,21.258815,81.578979,SO2,5,9,6
India,Chhattisgarh,Raipur,"AIIMS, Raipur - CECB",08-01-2024 09:00:00,21.258815,81.578979,OZONE,1,4,1
India,Chhattisgarh,Raipur,"Bhatagaon New ISBT, Raipur - CECB",08-01-2024 09:00:00,21.219665,81.630094,PM10,68,112,90
India,Chhattisgarh,Raipur,"Krishak Nagar, Raipur - CECB",08-01-2024 09:00:00,21.237755,81.705301,NO2,25,38,31
India,Chhattisgarh,Raipur,"Siltara Phase-II, Raipur - CECB",08-01-2024 09:00:00,21.371751,81.664929,PM2.5,41,75,57
India,Delhi,Delhi,"Anand Vihar, Delhi - DPCC",08-01-2024 09:00:00,28.647622,77.3158090,PM10,230,404,315
India,Delhi,Delhi,"Ashok Vihar, Delhi - DPCC",08-01-2024 09:00:00,28.695381,77.181665,NH3,9,11,10
India,Delhi,Delhi,"Ashok Vihar, Delhi - DPCC",08-01-2024 09:00:00,28.695381,77.181665,SO2,14,39,20
India,Delhi,Delhi,"Aya Nagar, Delhi - IMD",08-01-2024 09:00:00,28.4706914,77.1099364,NO2,19,37,28
India,Delhi,Delhi,"CRRI Mathura Road, Delhi - IMD",08-01-2024 09:00:00,28.5512005,77.2735737,PM10,132,252,174
India,Delhi,Delhi,"DTU, Delhi - CPCB",08-01-2024 09:00:00,28.7500499,77.1112615,OZONE,19,22,19
India,Delhi,Delhi,"Dr. Karni Singh Shooting Range, Delhi - DPCC",08-01-2024 09:00:00,28.498571,77.264840,OZONE,1,150,1
India,Delhi,Delhi,"Dwarka-Sector 8, Delhi - DPCC ",08-01-2024 09:00:00,28.5710274,77.0719006,OZONE,8,53,9
India,Delhi,Delhi,"IGI Airport (T3), Delhi - IMD",08-01-2024 09:00:00,28.5627763,77.1180053,PM10,128,271,187
India,Delhi,Delhi,"IGI Airport (T3), Delhi - IMD",08-01-2024 09:00:00,28.5627763,77.1180053,NO2,4,40,21
India,Delhi,Delhi,"IGI Airport (T3), Delhi - IMD",08-01-2024 09:00:00,28.5627763,77.1180053,OZONE,16,42,18
India,Delhi,Delhi,"IHBAS, Dilshad Garden, Delhi - CPCB",08-01-2024 09:00:00,28.6811736,77.3025234,PM2.5,108,303,200
India,Delhi,Delhi,"IHBAS, Dilshad Garden, Delhi - CPCB",08-01-2024 09:00:00,28.6811736,77.3025234,NO2,37,46,41
India,Delhi,Delhi,"ITO, Delhi - CPCB",08-01-2024 09:00:00,28.628624,77.241060,OZONE,10,193,10
India,Delhi,Delhi,"Jahangirpuri, Delhi - DPCC",08-01-2024 09:00:00,28.732820,77.170633,PM2.5,324,482,368
India,Delhi,Delhi,"Jahangirpuri, Delhi - DPCC",08-01-2024 09:00:00,28.732820,77.170633,PM10,267,462,337
India,Delhi,Delhi,"Jahangirpuri, Delhi - DPCC",08-01-2024 09:00:00,28.732820,77.170633,SO2,14,32,18
India,Delhi,Delhi,"Jawaharlal Nehru Stadium, Delhi - DPCC",08-01-2024 09:00:00,28.580280,77.233829,NH3,9,11,10
India,Delhi,Delhi,"Lodhi Road, Delhi - IMD",08-01-2024 09:00:00,28.5918245,77.2273074,NO2,14,15,14
India,Delhi,Delhi,"Major Dhyan Chand National Stadium, Delhi - DPCC",08-01-2024 09:00:00,28.611281,77.237738,CO,42,97,77
India,Delhi,Delhi,"Mandir Marg, Delhi - DPCC",08-01-2024 09:00:00,28.636429,77.201067,NO2,47,79,61
India,Delhi,Delhi,"Mandir Marg, Delhi - DPCC",08-01-2024 09:00:00,28.636429,77.201067,SO2,1,5,3
India,Delhi,Delhi,"Mandir Marg, Delhi - DPCC",08-01-2024 09:00:00,28.636429,77.201067,OZONE,1,9,1
India,Delhi,Delhi,"Mundka, Delhi - DPCC",08-01-2024 09:00:00,28.684678,77.076574,PM10,192,313,253
India,Delhi,Delhi,"Mundka, Delhi - DPCC",08-01-2024 09:00:00,28.684678,77.076574,NO2,37,65,51
India,Delhi,Delhi,"Mundka, Delhi - DPCC",08-01-2024 09:00:00,28.684678,77.076574,SO2,11,35,16
India,Delhi,Delhi,"NSIT Dwarka, Delhi - CPCB",08-01-2024 09:00:00,28.60909,77.0325413,PM10,180,421,263
India,Delhi,Delhi,"NSIT Dwarka, Delhi - CPCB",08-01-2024 09:00:00,28.60909,77.0325413,NH3,7,8,7
India,Delhi,Delhi,"Najafgarh, Delhi - DPCC",08-01-2024 09:00:00,28.570173,76.933762,CO,9,45,38
India,Delhi,Delhi,"Narela, Delhi - DPCC",08-01-2024 09:00:00,28.822836,77.101981,NO2,24,149,43
India,Delhi,Delhi,"Narela, Delhi - DPCC",08-01-2024 09:00:00,28.822836,77.101981,SO2,5,28,11
India,Delhi,Delhi,"Nehru Nagar, Delhi - DPCC",08-01-2024 09:00:00,28.567890,77.250515,PM2.5,321,500,387
India,Delhi,Delhi,"Nehru Nagar, Delhi - DPCC",08-01-2024 09:00:00,28.567890,77.250515,PM10,195,472,304
India,Delhi,Delhi,"Nehru Nagar, Delhi - DPCC",08-01-2024 09:00:00,28.567890,77.250515,NO2,50,76,61
India,Delhi,Delhi,"Nehru Nagar, Delhi - DPCC",08-01-2024 09:00:00,28.567890,77.250515,SO2,4,13,10
India,Delhi,Delhi,"Okhla Phase-2, Delhi - DPCC",08-01-2024 09:00:00,28.530785,77.271255,PM2.5,330,416,369
India,Delhi,Delhi,"Okhla Phase-2, Delhi - DPCC",08-01-2024 09:00:00,28.530785,77.271255,NH3,12,15,14
India,Delhi,Delhi,"Punjabi Bagh, Delhi - DPCC",08-01-2024 09:00:00,28.674045,77.131023,SO2,2,11,5
India,Delhi,Delhi,"Punjabi Bagh, Delhi - DPCC",08-01-2024 09:00:00,28.674045,77.131023,CO,28,64,57
India,Delhi,Delhi,"Punjabi Bagh, Delhi - DPCC",08-01-2024 09:00:00,28.674045,77.131023,OZONE,6,10,8
India,Delhi,Delhi,"Pusa, Delhi - DPCC",08-01-2024 09:00:00,28.639652,77.146275,NO2,33,88,57
India,Delhi,Delhi,"Pusa, Delhi - DPCC",08-01-2024 09:00:00,28.639652,77.146275,OZONE,7,39,8
India,Delhi,Delhi,"Pusa, Delhi - IMD",08-01-2024 09:00:00,28.636110,77.173332,NO2,24,37,30
India,Delhi,Delhi,"R K Puram, Delhi - DPCC",08-01-2024 09:00:00,28.563262,77.186937,NH3,1,3,2
India,Delhi,Delhi,"Shadipur, Delhi - CPCB",08-01-2024 09:00:00,28.6514781,77.1473105,SO2,19,35,25
India,Delhi,Delhi,"Sonia Vihar, Delhi - DPCC",08-01-2024 09:00:00,28.710508,77.249485,NO2,36,60,48
India,Delhi,Delhi,"Sri Aurobindo Marg, Delhi - DPCC",08-01-2024 09:00:00,28.531346,77.190156,NO2,21,79,44
India,Delhi,Delhi,"Vivek Vihar, Delhi - DPCC",08-01-2024 09:00:00,28.672342,77.315260,NO2,55,87,69
India,Delhi,Delhi,"Vivek Vihar, Delhi - DPCC",08-01-2024 09:00:00,28.672342,77.315260,SO2,7,8,7
India,Gujarat,Ahmedabad,"Chandkheda, Ahmedabad - IITM",08-01-2024 09:00:00,23.107969,72.574648,PM10,55,142,88
India,Gujarat,Ahmedabad,"Chandkheda, Ahmedabad - IITM",08-01-2024 09:00:00,23.107969,72.574648,NH3,3,3,3
India,Gujarat,Ahmedabad,"Gyaspur, Ahmedabad - IITM",08-01-2024 09:00:00,22.977134,72.553024,PM2.5,73,242,134
India,Gujarat,Ahmedabad,"Raikhad, Ahmedabad - IITM",08-01-2024 09:00:00,23.020509,72.579261,PM2.5,64,421,152
India,Gujarat,Ahmedabad,"Raikhad, Ahmedabad - IITM",08-01-2024 09:00:00,23.020509,72.579261,NO2,9,18,13
India,Gujarat,Ahmedabad,"Rakhial, Ahmedabad - IITM",08-01-2024 09:00:00,23.016834,72.625775,NO2,4,6,5
India,Gujarat,Ahmedabad,"Rakhial, Ahmedabad - IITM",08-01-2024 09:00:00,23.016834,72.625775,OZONE,10,41,13
India,Gujarat,Ahmedabad,"SAC ISRO Bopal, Ahmedabad - IITM",08-01-2024 09:00:00,23.041137,72.456691,SO2,5,8,7
India,Gujarat,Ahmedabad,"SAC ISRO Satellite, Ahmedabad - IITM",08-01-2024 09:00:00,23.023389,72.515201,NO2,12,15,14
India,Gujarat,Ahmedabad,"SAC ISRO Satellite, Ahmedabad - IITM",08-01-2024 09:00:00,23.023389,72.515201,OZONE,6,18,9
India,Gujarat,Ahmedabad,"SVPI Airport Hansol, Ahmedabad - IITM",08-01-2024 09:00:00,23.076793,72.627874,PM10,89,121,105
India,Gujarat,Ahmedabad,"Sardar Vallabhbhai Patel Stadium, Ahmedabad - IITM",08-01-2024 09:00:00,23.043070,72.562968,PM2.5,58,245,94
India,Gujarat,Ahmedabad,"Sardar Vallabhbhai Patel Stadium, Ahmedabad - IITM",08-01-2024 09:00:00,23.043070,72.562968,NO2,12,14,13
India,Gujarat,Ahmedabad,"Sardar Vallabhbhai Patel Stadium, Ahmedabad - IITM",08-01-2024 09:00:00,23.043070,72.562968,CO,12,36,20
India,Gujarat,Ankleshwar,"GIDC, Ankleshwar - GPCB",08-01-2024 09:00:00,21.613267,73.010555,PM2.5,78,185,129
India,Gujarat,Gandhinagar,"GIFT City, Gandhinagar - IITM",08-01-2024 09:00:00,23.163798,72.677768,PM2.5,49,346,106
India,Gujarat,Gandhinagar,"IIPHG Lekawada, Gandhinagar - IITM",08-01-2024 09:00:00,23.243639,72.68994,SO2,5,10,8
India,Gujarat,Gandhinagar,"Sector-10, Gandhinagar - GPCB",08-01-2024 09:00:00,23.221714,72.654328,SO2,NA,NA,NA
India,Gujarat,Surat,"Science Center, Surat - SMC",08-01-2024 09:00:00,21.170046,72.795405,NO2,6,26,11
India,Gujarat,Vapi,"Phase-1 GIDC, Vapi - GPCB",08-01-2024 09:00:00,20.362421,72.918013,PM10,131,312,165
India,Gujarat,Vapi,"Phase-1 GIDC, Vapi - GPCB",08-01-2024 09:00:00,20.362421,72.918013,NH3,6,6,6
India,Gujarat,Vatva,"Phase-4 GIDC, Vatva - GPCB",08-01-2024 09:00:00,22.969611,72.643500,NO2,7,33,14
India,Gujarat,Vatva,"Phase-4 GIDC, Vatva - GPCB",08-01-2024 09:00:00,22.969611,72.643500,SO2,4,5,5
India,Haryana,Ambala,"Patti Mehar, Ambala - HSPCB",08-01-2024 09:00:00,30.379589,76.778328,PM2.5,22,94,59
India,Haryana,Ambala,"Patti Mehar, Ambala - HSPCB",08-01-2024 09:00:00,30.379589,76.778328,NH3,5,12,8
India,Haryana,Bahadurgarh,"Arya Nagar, Bahadurgarh - HSPCB",08-01-2024 09:00:00,28.6701,76.9254,NO2,34,40,37
India,Haryana,Ballabgarh,"Nathu Colony, Ballabgarh - HSPCB",08-01-2024 09:00:00,28.3419248,77.319699,PM2.5,NA,NA,NA
India,Haryana,Bhiwani,"H.B. Colony, Bhiwani - HSPCB",08-01-2024 09:00:00,28.806223,76.141105,NO2,5,10,8
India,Haryana,Charkhi Dadri,"Mini Secretariat, Charkhi Dadri - HSPCB",08-01-2024 09:00:00,28.593883,76.270653,PM2.5,50,278,176
India,Haryana,Dharuhera,"Municipal Corporation Office, Dharuhera -  HSPCB",08-01-2024 09:00:00,28.206800,76.799700,PM10,161,322,217
India,Haryana,Dharuhera,"Municipal Corporation Office, Dharuhera -  HSPCB",08-01-2024 09:00:00,28.206800,76.799700,CO,30,106,66
India,Haryana,Faridabad,"New Industrial Town, Faridabad - HSPCB",08-01-2024 09:00:00,28.39072,77.30059,PM2.5,258,370,328
India,Haryana,Faridabad,"New Industrial Town, Faridabad - HSPCB",08-01-2024 09:00:00,28.39072,77.30059,SO2,6,7,6
India,Haryana,Faridabad,"New Industrial Town, Faridabad - HSPCB",08-01-2024 09:00:00,28.39072,77.30059,CO,45,55,48
India,Haryana,Faridabad,"Sector 11, Faridabad - HSPCB",08-01-2024 09:00:00,28.376058,77.315741,CO,30,72,64
India,Haryana,Faridabad,"Sector 30, Faridabad - HSPCB",08-01-2024 09:00:00,28.4417,77.3217,PM2.5,NA,NA,NA
India,Haryana,Faridabad,"Sector 30, Faridabad - HSPCB",08-01-2024 09:00:00,28.4417,77.3217,NH3,NA,NA,NA
India,Haryana,Faridabad,"Sector- 16A, Faridabad - HSPCB",08-01-2024 09:00:00,28.4088421,77.3099081,NO2,14,62,37
India,Haryana,Fatehabad,"Huda Sector, Fatehabad - HSPCB",08-01-2024 09:00:00,29.503664,75.467934,NH3,9,10,10
India,Haryana,Gurugram,"Teri Gram, Gurugram - HSPCB",08-01-2024 09:00:00,28.4275,77.1465,NO2,2,52,24
India,Haryana,Gurugram,"Teri Gram, Gurugram - HSPCB",08-01-2024 09:00:00,28.4275,77.1465,SO2,6,7,7
India,Haryana,Gurugram,"Vikas Sadan, Gurugram - HSPCB",08-01-2024 09:00:00,28.4501238,77.0263051,CO,54,139,98
India,Haryana,Gurugram,"Vikas Sadan, Gurugram - HSPCB",08-01-2024 09:00:00,28.4501238,77.0263051,OZONE,8,68,11
India,Haryana,Hisar,"Urban Estate-II, Hisar - HSPCB",08-01-2024 09:00:00,29.140560,75.744941,PM2.5,80,115,91
India,Haryana,Hisar,"Urban Estate-II, Hisar - HSPCB",08-01-2024 09:00:00,29.140560,75.744941,SO2,30,77,54
India,Haryana,Hisar,"Urban Estate-II, Hisar - HSPCB",08-01-2024 09:00:00,29.140560,75.744941,CO,100,108,100
India,Haryana,Jind,"Police Lines, Jind - HSPCB",08-01-2024 09:00:00,29.307814,76.337619,SO2,NA,NA,NA
India,Haryana,Jind,"Police Lines, Jind - HSPCB",08-01-2024 09:00:00,29.307814,76.337619,CO,NA,NA,NA
India,Haryana,Kaithal,"Rishi Nagar, Kaithal - HSPCB",08-01-2024 09:00:00,29.8006,76.4155,NH3,7,9,8
India,Haryana,Karnal,"Sector-12, Karnal - HSPCB",08-01-2024 09:00:00,29.695300,77.002700,NO2,7,12,10
India,Haryana,Karnal,"Sector-12, Karnal - HSPCB",08-01-2024 09:00:00,29.695300,77.002700,CO,18,44,29
India,Haryana,Kurukshetra,"Sector-7, Kurukshetra - HSPCB",08-01-2024 09:00:00,29.966942,76.875879,SO2,4,77,38
India,Haryana,Narnaul,"Shastri Nagar, Narnaul - HSPCB",08-01-2024 09:00:00,28.060249,76.113115,SO2,12,70,16
India,Haryana,Palwal,"Shyam Nagar, Palwal - HSPCB",08-01-2024 09:00:00,28.1485564,77.3320667,SO2,1,21,8
India,Haryana,Palwal,"Shyam Nagar, Palwal - HSPCB",08-01-2024 09:00:00,28.1485564,77.3320667,OZONE,1,44,2
India,Haryana,Panchkula,"Sector-6, Panchkula - HSPCB ",08-01-2024 09:00:00,30.7057778,76.8531805555555,PM2.5,50,304,135
India,Haryana,Panchkula,"Sector-6, Panchkula - HSPCB ",08-01-2024 09:00:00,30.7057778,76.8531805555555,OZONE,36,59,45
India,Haryana,Panipat,"Sector-18, Panipat - HSPCB",08-01-2024 09:00:00,29.497973,76.993331,PM10,171,178,174
India,Haryana,Sirsa,"F-Block, Sirsa - HSPCB",08-01-2024 09:00:00,29.536400,75.015800,PM2.5,81,169,104
India,Haryana,Sirsa,"F-Block, Sirsa - HSPCB",08-01-2024 09:00:00,29.536400,75.015800,PM10,52,84,65
India,Haryana,Sirsa,"F-Block, Sirsa - HSPCB",08-01-2024 09:00:00,29.536400,75.015800,NH3,5,13,12
India,Haryana,Sirsa,"F-Block, Sirsa - HSPCB",08-01-2024 09:00:00,29.536400,75.015800,CO,29,62,43
India,Haryana,Sonipat,"Murthal, Sonipat - HSPCB",08-01-2024 09:00:00,29.027200,77.062100,PM2.5,222,500,292
India,Haryana,Yamuna Nagar,"Gobind Pura, Yamuna Nagar - HSPCB",08-01-2024 09:00:00,30.1480566,77.2893471,NH3,1,6,4
India,Himachal Pradesh,Baddi,"HIMUDA Complex Phase-1, Baddi - HPPCB",08-01-2024 09:00:00,30.943887,76.801991,PM2.5,NA,NA,NA
India,Himachal Pradesh,Baddi,"HIMUDA Complex Phase-1, Baddi - HPPCB",08-01-2024 09:00:00,30.943887,76.801991,PM10,NA,NA,NA
India,Jharkhand,Dhanbad,"Kalakusuma, Dhanbad - DMC",08-01-2024 09:00:00,23.811548,86.481238,NO2,32,34,33
India,Karnataka,Bagalkot,"Vidayagiri, Bagalkot - KSPCB",08-01-2024 09:00:00,16.172806,75.659694,SO2,NA,NA,NA
India,Karnataka,Bagalkot,"Vidayagiri, Bagalkot - KSPCB",08-01-2024 09:00:00,16.172806,75.659694,OZONE,NA,NA,NA
India,Karnataka,Belgaum,"Ramteerth Nagar, Belgaum - KSPCB",08-01-2024 09:00:00,15.888653,74.541751,PM2.5,22,63,36
India,Karnataka,Bengaluru,"BTM Layout, Bengaluru - CPCB",08-01-2024 09:00:00,12.9135218,77.5950804,PM10,32,58,47
India,Karnataka,Bengaluru,"BTM Layout, Bengaluru - CPCB",08-01-2024 09:00:00,12.9135218,77.5950804,NH3,3,3,3
India,Karnataka,Bengaluru,"Bapuji Nagar, Bengaluru - KSPCB",08-01-2024 09:00:00,12.951913,77.539784,NH3,1,1,1
India,Karnataka,Bengaluru,"Kasturi Nagar, Bengaluru - KSPCB",08-01-2024 09:00:00,13.003872,77.664217,SO2,8,8,8
India,Karnataka,Bengaluru,"Kasturi Nagar, Bengaluru - KSPCB",08-01-2024 09:00:00,13.003872,77.664217,OZONE,45,82,50
India,Karnataka,Bengaluru,"Peenya, Bengaluru - CPCB",08-01-2024 09:00:00,13.0270199,77.494094,NO2,21,29,24
India,Karnataka,Bengaluru,"RVCE-Mailasandra, Bengaluru - KSPCB",08-01-2024 09:00:00,12.921418,77.502466,PM2.5,47,71,61
India,Karnataka,Bengaluru,"Sanegurava Halli, Bengaluru - KSPCB",08-01-2024 09:00:00,12.990328,77.5431385,NO2,NA,NA,NA
India,Karnataka,Chamarajanagar,"Urban, Chamarajanagar - KSPCB",08-01-2024 09:00:00,11.55358,76.55521,PM2.5,20,46,33
India,Karnataka,Chamarajanagar,"Urban, Chamarajanagar - KSPCB",08-01-2024 09:00:00,11.55358,76.55521,PM10,34,56,44
India,Karnataka,Chamarajanagar,"Urban, Chamarajanagar - KSPCB",08-01-2024 09:00:00,11.55358,76.55521,NO2,23,35,30
India,Karnataka,Chikkaballapur,"Chikkaballapur Rural, Chikkaballapur - KSPCB",08-01-2024 09:00:00,13.428828,77.731418,NO2,8,10,8
India,Karnataka,Davanagere,"Devaraj Urs Badavane, Davanagere - KSPCB",08-01-2024 09:00:00,14.475800,75.905200,PM2.5,28,74,43
India,Karnataka,Dharwad,"Kalabhavan, Dharwad - KSPCB",08-01-2024 09:00:00,15.459706,75.008381,SO2,2,39,5
India,Karnataka,Dharwad,"Kalabhavan, Dharwad - KSPCB",08-01-2024 09:00:00,15.459706,75.008381,CO,32,129,50
India,Karnataka,Gadag,"Panchal Nagar, Gadag - KSPCB",08-01-2024 09:00:00,15.411456,75.638133,PM10,24,57,39
India,Karnataka,Gadag,"Panchal Nagar, Gadag - KSPCB",08-01-2024 09:00:00,15.411456,75.638133,CO,46,64,55
India,Karnataka,Hassan,"B.Katihalli, Hassan - KSPCB",08-01-2024 09:00:00,13.008556,76.125258,NO2,10,14,12
India,Karnataka,Haveri,"Ashwini Nagar, Haveri - KSPCB",08-01-2024 09:00:00,14.791800,75.389600,PM10,NA,NA,NA
India,Karnataka,Haveri,"Ashwini Nagar, Haveri - KSPCB",08-01-2024 09:00:00,14.791800,75.389600,NO2,21,58,33
India,Karnataka,Hubballi,"Lingaraj Nagar, Hubballi - KSPCB",08-01-2024 09:00:00,15.3714823,75.1160168,PM10,57,78,67
India,Karnataka,Hubballi,"Lingaraj Nagar, Hubballi - KSPCB",08-01-2024 09:00:00,15.3714823,75.1160168,SO2,1,12,5
India,Karnataka,Hubballi,"Lingaraj Nagar, Hubballi - KSPCB",08-01-2024 09:00:00,15.3714823,75.1160168,CO,2,43,36
India,Karnataka,Kalaburagi,"Lal Bahadur Shastri Nagar, Kalaburagi - KSPCB",08-01-2024 09:00:00,17.321993,76.822628,OZONE,10,50,35
India,Karnataka,Kalaburagi,"Mahatma Basaveswar Colony, Kalaburgi - KSPCB",08-01-2024 09:00:00,17.336318,76.847397,NO2,8,30,16
India,Karnataka,Karwar,"KHB Colony, Karwar - KSPCB",08-01-2024 09:00:00,14.816666,74.141003,NO2,NA,NA,NA
India,Karnataka,Koppal,"Diwator Nagar, Koppal - KSPCB",08-01-2024 09:00:00,15.347630,76.181767,PM10,21,41,28
India,Karnataka,Koppal,"Diwator Nagar, Koppal - KSPCB",08-01-2024 09:00:00,15.347630,76.181767,CO,85,107,92
India,Karnataka,Madikeri,"Stuart Hill, Madikeri - KSPCB",08-01-2024 09:00:00,12.415911,75.735050,NH3,NA,NA,NA
India,Karnataka,Madikeri,"Stuart Hill, Madikeri - KSPCB",08-01-2024 09:00:00,12.415911,75.735050,CO,4,45,15
India,Karnataka,Mangalore,"Kadri, Mangalore - KSPCB",08-01-2024 09:00:00,12.889250,74.853000,PM2.5,12,83,37
India,Karnataka,Mysuru,"Hebbal 1st Stage, Mysuru - KSPCB",08-01-2024 09:00:00,12.21041,76.37376,CO,10,101,21
India,Karnataka,Mysuru,"Hebbal 1st Stage, Mysuru - KSPCB",08-01-2024 09:00:00,12.21041,76.37376,OZONE,6,52,14
India,Karnataka,Shivamogga,"Vinoba Nagara, Shivamogga - KSPCB",08-01-2024 09:00:00,13.940000,75.555917,PM10,35,62,54
India,Karnataka,Shivamogga,"Vinoba Nagara, Shivamogga - KSPCB",08-01-2024 09:00:00,13.940000,75.555917,SO2,2,10,4
India,Karnataka,Tumakuru,"Thimmalapura, Tumakuru - KSPCB",08-01-2024 09:00:00,13.377516,77.099072,SO2,8,10,8
India,Karnataka,Udupi,"Brahmagiri, Udupi - KSPCB",08-01-2024 09:00:00,13.34194444,74.74694444,NO2,NA,NA,NA
India,Karnataka,Vijayapura,"Ibrahimpur, Vijayapura - KSPCB",08-01-2024 09:00:00,16.802639,75.722694,SO2,1,3,2
India,Karnataka,Yadgir,"Collector Office, Yadgir - KSPCB",08-01-2024 09:00:00,16.7602,77.1428,NO2,5,6,6
India,Kerala,Kannur,"Thavakkara, Kannur - Kerala PCB",08-01-2024 09:00:00,11.875000,75.373200,NH3,1,1,1
India,Kerala,Thiruvananthapuram,"Kariavattom, Thiruvananthapuram - Kerala PCB",08-01-2024 09:00:00,8.563700,76.886500,PM2.5,69,78,74
India,Kerala,Thiruvananthapuram,"Kariavattom, Thiruvananthapuram - Kerala PCB",08-01-2024 09:00:00,8.563700,76.886500,OZONE,28,32,30
India,Kerala,Thiruvananthapuram,"Plammoodu, Thiruvananthapuram - Kerala PCB",08-01-2024 09:00:00,8.5149093,76.9435879,NH3,2,2,2
India,Kerala,Thrissur,"Corporation Ground, Thrissur - Kerala PCB",08-01-2024 09:00:00,10.532400,76.215900,PM10,54,62,58
India,Kerala,Thrissur,"Corporation Ground, Thrissur - Kerala PCB",08-01-2024 09:00:00,10.532400,76.215900,NO2,9,11,10
India,Kerala,Thrissur,"Corporation Ground, Thrissur - Kerala PCB",08-01-2024 09:00:00,10.532400,76.215900,CO,14,74,19
India,Madhya Pradesh,Bhopal,"Idgah Hills, Bhopal - MPPCB",08-01-2024 09:00:00,23.264759,77.381568,PM10,122,180,153
India,Madhya Pradesh,Bhopal,"Idgah Hills, Bhopal - MPPCB",08-01-2024 09:00:00,23.264759,77.381568,CO,41,77,45
India,Madhya Pradesh,Bhopal,"Idgah Hills, Bhopal - MPPCB",08-01-2024 09:00:00,23.264759,77.381568,OZONE,15,35,26
India,Madhya Pradesh,Bhopal,"Paryavaran Parisar, Bhopal - MPPCB",08-01-2024 09:00:00,23.210494,77.425409,PM10,107,142,125
India,Madhya Pradesh,Bhopal,"Paryavaran Parisar, Bhopal - MPPCB",08-01-2024 09:00:00,23.210494,77.425409,NO2,24,47,36
India,Madhya Pradesh,Bhopal,"Paryavaran Parisar, Bhopal - MPPCB",08-01-2024 09:00:00,23.210494,77.425409,SO2,8,11,10
India,Madhya Pradesh,Bhopal,"Paryavaran Parisar, Bhopal - MPPCB",08-01-2024 09:00:00,23.210494,77.425409,CO,29,52,37
India,Madhya Pradesh,Bhopal,"T T Nagar, Bhopal - MPPCB",08-01-2024 09:00:00,23.233584,77.400574,SO2,15,43,26
India,Madhya Pradesh,Damoh,"Shrivastav Colony, Damoh - MPPCB",08-01-2024 09:00:00,23.81748678,79.446246,PM2.5,23,43,34
India,Madhya Pradesh,Damoh,"Shrivastav Colony, Damoh - MPPCB",08-01-2024 09:00:00,23.81748678,79.446246,CO,23,24,23
India,Madhya Pradesh,Dewas,"Bhopal Chauraha, Dewas - MPPCB",08-01-2024 09:00:00,22.9682591,76.064118,NH3,3,3,3
India,Madhya Pradesh,Dewas,"Bhopal Chauraha, Dewas - MPPCB",08-01-2024 09:00:00,22.9682591,76.064118,CO,28,39,31
India,Madhya Pradesh,Gwalior,"City Center, Gwalior - MPPCB",08-01-2024 09:00:00,26.203442,78.193251,NO2,21,62,34
India,Madhya Pradesh,Gwalior,"City Center, Gwalior - MPPCB",08-01-2024 09:00:00,26.203442,78.193251,SO2,11,30,23
India,Madhya Pradesh,Gwalior,"City Center, Gwalior - MPPCB",08-01-2024 09:00:00,26.203442,78.193251,OZONE,18,49,19
India,Madhya Pradesh,Gwalior,"Maharaj Bada, Gwalior - MPPCB",08-01-2024 09:00:00,26.200388,78.147714,PM2.5,217,374,316
India,Madhya Pradesh,Gwalior,"Maharaj Bada, Gwalior - MPPCB",08-01-2024 09:00:00,26.200388,78.147714,OZONE,5,42,11
