country,state,city,station,last_update,latitude,longitude,pollutant_id,pollutant_min,pollutant_max,pollutant_avg
India,Andhra_Pradesh,Anantapur,"Gulzarpet, Anantapur - APPCB",08-01-2024 19:00:00,14.675886,77.593027,PM10,44,107,76
India,Andhra_Pradesh,Anantapur,"Gulzarpet, Anantapur - APPCB",08-01-2024 19:00:00,14.675886,77.593027,NO2,8,27,14
India,Andhra_Pradesh,Chittoor,"Gangineni Cheruvu, Chittoor - APPCB",08-01-2024 19:00:00,13.204880,79.097889,PM2.5,14,36,24
India,Andhra_Pradesh,Chittoor,"Gangineni Cheruvu, Chittoor - APPCB",08-01-2024 19:00:00,13.204880,79.097889,NO2,7,22,11
India,Andhra_Pradesh,Kadapa,"Yerramukkapalli, Kadapa - APPCB",08-01-2024 19:00:00,14.465052,78.824187,NO2,9,13,11
India,Andhra_Pradesh,Rajamahendravaram,"Anand Kala Kshetram, Rajamahendravaram - APPCB",08-01-2024 19:00:00,16.9872867,81.7363176,SO2,15,56,27
India,Andhra_Pradesh,Rajamahendravaram,"Anand Kala Kshetram, Rajamahendravaram - APPCB",08-01-2024 19:00:00,16.9872867,81.7363176,CO,7,86,48
India,Andhra_Pradesh,Tirupati,"Tirumala, Tirupati - APPCB",08-01-2024 19:00:00,13.67,79.35,PM10,12,62,27
India,Andhra_Pradesh,Tirupati,"Tirumala, Tirupati - APPCB",08-01-2024 19:00:00,13.67,79.35,NO2,30,48,39
India,Andhra_Pradesh,Tirupati,"Tirumala, Tirupati - APPCB",08-01-2024 19:00:00,13.67,79.35,CO,40,48,45
India,Andhra_Pradesh,Tirupati,"Vaikuntapuram, Tirupati - APPCB",08-01-2024 19:00:00,13.615387,79.409230,SO2,NA,NA,NA
India,Andhra_Pradesh,Vijayawada,"Kanuru, Vijayawada - APPCB",08-01-2024 19:00:00,16.486692,80.699436,NO2,15,21,17
India,Andhra_Pradesh,Vijayawada,"Kanuru, Vijayawada - APPCB",08-01-2024 19:00:00,16.486692,80.699436,CO,43,43,43
India,Andhra_Pradesh,Vijayawada,"Kanuru, Vijayawada - APPCB",08-01-2024 19:00:00,16.486692,80.699436,OZONE,30,30,30
India,Andhra_Pradesh,Visakhapatnam,"GVM Corporation, Visakhapatnam - APPCB",08-01-2024 19:00:00,17.72,83.3,PM10,117,168,142
India,Andhra_Pradesh,Visakhapatnam,"GVM Corporation, Visakhapatnam - APPCB",08-01-2024 19:00:00,17.72,83.3,NO2,24,57,43
India,Andhra_Pradesh,Visakhapatnam,"GVM Corporation, Visakhapatnam - APPCB",08-01-2024 19:00:00,17.72,83.3,OZONE,4,125,43
India,Arunachal_Pradesh,Naharlagun,"Naharlagun, Naharlagun - APSPCB",08-01-2024 19:00:00,27.103358,93.679645,PM2.5,29,313,113
India,Arunachal_Pradesh,Naharlagun,"Naharlagun, Naharlagun - APSPCB",08-01-2024 19:00:00,27.103358,93.679645,CO,12,85,18
India,Assam,Byrnihat,"Central Academy for SFS, Byrnihat - PCBA",08-01-2024 19:00:00,26.071318,91.87488,PM10,57,422,235
India,Assam,Byrnihat,"Central Academy for SFS, Byrnihat - PCBA",08-01-2024 19:00:00,26.071318,91.87488,NO2,32,93,49
India,Assam,Byrnihat,"Central Academy for SFS, Byrnihat - PCBA",08-01-2024 19:00:00,26.071318,91.87488,NH3,2,3,3
India,Assam,Byrnihat,"Central Academy for SFS, Byrnihat - PCBA",08-01-2024 19:00:00,26.071318,91.87488,CO,10,141,40
India,Assam,Guwahati,"LGBI Airport, Guwahati - PCBA",08-01-2024 19:00:00,26.10887,91.589544,PM10,82,223,135
India,Assam,Guwahati,"Pan Bazaar, Guwahati - PCBA",08-01-2024 19:00:00,26.187500,91.744194,PM2.5,84,378,234
India,Assam,Guwahati,"Pan Bazaar, Guwahati - PCBA",08-01-2024 19:00:00,26.187500,91.744194,SO2,56,104,68
India,Assam,Guwahati,"Railway Colony, Guwahati - PCBA",08-01-2024 19:00:00,26.181742,91.78063,PM2.5,NA,NA,NA
India,Assam,Guwahati,"Railway Colony, Guwahati - PCBA",08-01-2024 19:00:00,26.181742,91.78063,NO2,NA,NA,NA
India,Assam,Nagaon,"Christianpatty, Nagaon - PCBA",08-01-2024 19:00:00,26.349082,92.68449,PM2.5,48,366,150
India,Assam,Nagaon,"Christianpatty, Nagaon - PCBA",08-01-2024 19:00:00,26.349082,92.68449,NO2,17,29,23
India,Assam,Nalbari,"Bata Chowk, Nalbari - PCBA",08-01-2024 19:00:00,26.446912,91.439057,PM2.5,153,500,366
India,Assam,Nalbari,"Bata Chowk, Nalbari - PCBA",08-01-2024 19:00:00,26.446912,91.439057,PM10,119,500,279
India,Assam,Nalbari,"Bata Chowk, Nalbari - PCBA",08-01-2024 19:00:00,26.446912,91.439057,NO2,47,76,60
India,Assam,Nalbari,"Bata Chowk, Nalbari - PCBA",08-01-2024 19:00:00,26.446912,91.439057,NH3,9,16,12
India,Assam,Silchar,"Tarapur, Silchar - PCBA",08-01-2024 19:00:00,24.82827,92.79525,NO2,24,40,29
India,Assam,Silchar,"Tarapur, Silchar - PCBA",08-01-2024 19:00:00,24.82827,92.79525,SO2,3,9,6
India,Assam,Silchar,"Tarapur, Silchar - PCBA",08-01-2024 19:00:00,24.82827,92.79525,CO,18,36,20
India,Assam,Sivasagar,"Girls College, Sivasagar - PCBA",08-01-2024 19:00:00,26.987634,94.636574,NO2,20,40,28
India,Bihar,Araria,"Kharahiya Basti, Araria - BSPCB",08-01-2024 19:00:00,26.146529,87.454184,NH3,6,8,7
India,Bihar,Arrah,"New DM Office, Arrah - BSPCB",08-01-2024 19:00:00,25.5626095,84.663264,OZONE,12,33,24
India,Bihar,Aurangabad,"Gurdeo Nagar, Aurangabad - BSPCB",08-01-2024 19:00:00,24.75746,84.366208,NO2,8,23,11
India,Bihar,Aurangabad,"Gurdeo Nagar, Aurangabad - BSPCB",08-01-2024 19:00:00,24.75746,84.366208,NH3,7,47,12
India,Bihar,Bhagalpur,"DM Office_Kachari Chowk, Bhagalpur - BSPCB",08-01-2024 19:00:00,25.251013,86.989001,PM10,165,251,200
India,Bihar,Bhagalpur,"Mayaganj, Bhagalpur - BSPCB",08-01-2024 19:00:00,25.265194,87.012947,PM10,131,500,198
India,Bihar,Bhagalpur,"Mayaganj, Bhagalpur - BSPCB",08-01-2024 19:00:00,25.265194,87.012947,NH3,8,10,9
India,Bihar,Bhagalpur,"Mayaganj, Bhagalpur - BSPCB",08-01-2024 19:00:00,25.265194,87.012947,OZONE,21,43,32
India,Bihar,Chhapra,"Darshan Nagar, Chhapra - BSPCB",08-01-2024 19:00:00,25.7808257,84.7446768,NO2,10,16,13
India,Bihar,Gaya,"Collectorate, Gaya - BSPCB",08-01-2024 19:00:00,24.7955,84.9994,PM2.5,118,320,232
India,Bihar,Gaya,"Collectorate, Gaya - BSPCB",08-01-2024 19:00:00,24.7955,84.9994,CO,27,40,36
India,Bihar,Gaya,"Kareemganj, Gaya - BSPCB",08-01-2024 19:00:00,24.792403,84.992416,SO2,8,13,11
India,Bihar,Gaya,"SFTI Kusdihra, Gaya - BSPCB",08-01-2024 19:00:00,24.762518,84.982348,NH3,4,6,5
India,Bihar,Gaya,"SFTI Kusdihra, Gaya - BSPCB",08-01-2024 19:00:00,24.762518,84.982348,SO2,7,10,8
India,Bihar,Hajipur,"Industrial Area, Hajipur - BSPCB",08-01-2024 19:00:00,25.697189,85.245900,PM10,119,500,178
India,Bihar,Hajipur,"Industrial Area, Hajipur - BSPCB",08-01-2024 19:00:00,25.697189,85.245900,NO2,19,52,41
India,Bihar,Katihar,"Mirchaibari, Katihar - BSPCB",08-01-2024 19:00:00,25.560083,87.553265,PM2.5,85,306,169
India,Bihar,Katihar,"Mirchaibari, Katihar - BSPCB",08-01-2024 19:00:00,25.560083,87.553265,PM10,119,220,156
India,Bihar,Katihar,"Mirchaibari, Katihar - BSPCB",08-01-2024 19:00:00,25.560083,87.553265,NH3,3,5,4
India,Bihar,Kishanganj,"SDM Office_Khagra, Kishanganj - BSPCB",08-01-2024 19:00:00,26.0881305,87.93840336,PM10,179,298,212
India,Bihar,Kishanganj,"SDM Office_Khagra, Kishanganj - BSPCB",08-01-2024 19:00:00,26.0881305,87.93840336,SO2,11,25,20
India,Bihar,Manguraha,"Forest Rest House, Manguraha - BSPCB",08-01-2024 19:00:00,27.308328,84.531742,PM2.5,NA,NA,NA
India,Bihar,Manguraha,"Forest Rest House, Manguraha - BSPCB",08-01-2024 19:00:00,27.308328,84.531742,PM10,NA,NA,NA
India,Bihar,Motihari,"Gandak Colony, Motihari - BSPCB",08-01-2024 19:00:00,26.63086,84.90051,NH3,9,16,13
India,Bihar,Motihari,"Gandak Colony, Motihari - BSPCB",08-01-2024 19:00:00,26.63086,84.90051,SO2,2,8,5
India,Bihar,Munger,"Town Hall, Munger - BSPCB",08-01-2024 19:00:00,25.376776,86.471523,CO,9,40,24
India,Bihar,Muzaffarpur,"Buddha Colony, Muzaffarpur - BSPCB",08-01-2024 19:00:00,26.11442,85.39813,PM10,NA,NA,NA
India,Bihar,Muzaffarpur,"Muzaffarpur Collectorate, Muzaffarpur - BSPCB",08-01-2024 19:00:00,26.1209,85.3647,PM2.5,95,332,199
India,Bihar,Muzaffarpur,"Muzaffarpur Collectorate, Muzaffarpur - BSPCB",08-01-2024 19:00:00,26.1209,85.3647,NO2,6,27,10
India,Bihar,Muzaffarpur,"Muzaffarpur Collectorate, Muzaffarpur - BSPCB",08-01-2024 19:00:00,26.1209,85.3647,CO,16,64,42
India,Bihar,Patna,"DRM Office Danapur, Patna - BSPCB",08-01-2024 19:00:00,25.586562,85.043586,OZONE,1,50,26
India,Bihar,Patna,"Govt. High School Shikarpur, Patna - BSPCB",08-01-2024 19:00:00,25.592539,85.227158,PM10,109,151,128
India,Bihar,Patna,"Govt. High School Shikarpur, Patna - BSPCB",08-01-2024 19:00:00,25.592539,85.227158,NH3,2,6,4
India,Bihar,Patna,"Govt. High School Shikarpur, Patna - BSPCB",08-01-2024 19:00:00,25.592539,85.227158,OZONE,13,45,30
India,Bihar,Patna,"IGSC Planetarium Complex, Patna - BSPCB",08-01-2024 19:00:00,25.610369,85.132568,NO2,9,73,12
India,Bihar,Patna,"Muradpur, Patna - BSPCB",08-01-2024 19:00:00,25.619651,85.147382,SO2,5,12,8
India,Bihar,Patna,"Rajbansi Nagar, Patna - BSPCB",08-01-2024 19:00:00,25.599486,85.113666,PM10,NA,NA,NA
India,Bihar,Patna,"Rajbansi Nagar, Patna - BSPCB",08-01-2024 19:00:00,25.599486,85.113666,SO2,NA,NA,NA
India,Bihar,Patna,"Samanpura, Patna - BSPCB",08-01-2024 19:00:00,25.596727,85.085624,NO2,16,17,16
India,Bihar,Purnia,"Mariam Nagar, Purnia - BSPCB",08-01-2024 19:00:00,25.366336,87.117468,OZONE,10,23,15
India,Bihar,Rajgir,"Dangi Tola, Rajgir - BSPCB",08-01-2024 19:00:00,25.03280,85.41948,PM10,130,301,192
India,Bihar,Samastipur,"DM Office_Kasipur, Samastipur - BSPCB",08-01-2024 19:00:00,25.859655,85.77944,PM2.5,NA,NA,NA
India,Bihar,Samastipur,"DM Office_Kasipur, Samastipur - BSPCB",08-01-2024 19:00:00,25.859655,85.77944,PM10,NA,NA,NA
India,Bihar,Samastipur,"DM Office_Kasipur, Samastipur - BSPCB",08-01-2024 19:00:00,25.859655,85.77944,NO2,3,6,5
India,Bihar,Samastipur,"DM Office_Kasipur, Samastipur - BSPCB",08-01-2024 19:00:00,25.859655,85.77944,OZONE,5,7,6
India,Bihar,Siwan,"Chitragupta Nagar, Siwan - BSPCB",08-01-2024 19:00:00,26.2271665,84.3570427,PM2.5,73,270,114
India,Bihar,Siwan,"Chitragupta Nagar, Siwan - BSPCB",08-01-2024 19:00:00,26.2271665,84.3570427,PM10,68,149,94
India,Chandigarh,Chandigarh,"Sector 22, Chandigarh - CPCC",08-01-2024 19:00:00,30.735567,76.775714,PM2.5,117,431,264
India,Chandigarh,Chandigarh,"Sector 22, Chandigarh - CPCC",08-01-2024 19:00:00,30.735567,76.775714,NO2,NA,NA,NA
India,Chandigarh,Chandigarh,"Sector 22, Chandigarh - CPCC",08-01-2024 19:00:00,30.735567,76.775714,CO,56,84,77
India,Chandigarh,Chandigarh,"Sector-25, Chandigarh - CPCC",08-01-2024 19:00:00,30.751462,76.762879,PM10,91,192,135
India,Chandigarh,Chandigarh,"Sector-25, Chandigarh - CPCC",08-01-2024 19:00:00,30.751462,76.762879,OZONE,1,12,5
India,Chandigarh,Chandigarh,"Sector-53, Chandigarh - CPCC",08-01-2024 19:00:00,30.719859,76.738637,PM10,83,267,147
India,Chandigarh,Chandigarh,"Sector-53, Chandigarh - CPCC",08-01-2024 19:00:00,30.719859,76.738637,CO,62,87,76
India,Chandigarh,Chandigarh,"Sector-53, Chandigarh - CPCC",08-01-2024 19:00:00,30.719859,76.738637,OZONE,6,26,15
India,Chhattisgarh,Bhilai,"32Bungalows, Bhilai - CECB",08-01-2024 19:00:00,21.194815,81.314770,NH3,6,6,6
India,Chhattisgarh,Bhilai,"32Bungalows, Bhilai - CECB",08-01-2024 19:00:00,21.194815,81.314770,SO2,8,15,11
India,Chhattisgarh,Bhilai,"Civic Center, Bhilai - Bhilai Steel Plant",08-01-2024 19:00:00,21.185571,81.343175,SO2,NA,NA,NA
India,Chhattisgarh,Bhilai,"Hathkhoj, Bhilai - CECB",08-01-2024 19:00:00,21.224231,81.408350,CO,26,42,32
India,Chhattisgarh,Bhilai,"Hathkhoj, Bhilai - CECB",08-01-2024 19:00:00,21.224231,81.408350,OZONE,13,38,33
India,Chhattisgarh,Korba,"Rampur, Korba - CECB",08-01-2024 19:00:00,22.368195,82.746431,CO,30,42,37
India,Chhattisgarh,Kunjemura,"OP Jindal School, Kunjemura - CECB",08-01-2024 19:00:00,22.126650,83.483212,PM10,64,425,189
India,Chhattisgarh,Kunjemura,"OP Jindal School, Kunjemura - CECB",08-01-2024 19:00:00,22.126650,83.483212,NO2,32,215,77
India,Chhattisgarh,Raipur,"AIIMS, Raipur - CECB",08-01-2024 19:00:00,21.258815,81.578979,NO2,51,73,61
India,Chhattisgarh,Raipur,"AIIMS, Raipur - CECB",08-01-2024 19:00:00,21.258815,81.578979,OZONE,1,51,22
India,Chhattisgarh,Raipur,"Bhatagaon New ISBT, Raipur - CECB",08-01-2024 19:00:00,21.219665,81.630094,PM10,65,130,96
India,Chhattisgarh,Raipur,"Bhatagaon New ISBT, Raipur - CECB",08-01-2024 19:00:00,21.219665,81.630094,NH3,1,3,1
India,Chhattisgarh,Raipur,"Bhatagaon New ISBT, Raipur - CECB",08-01-2024 19:00:00,21.219665,81.630094,CO,30,70,40
India,Chhattisgarh,Raipur,"Bhatagaon New ISBT, Raipur - CECB",08-01-2024 19:00:00,21.219665,81.630094,OZONE,3,7,5
India,Chhattisgarh,Raipur,"Krishak Nagar, Raipur - CECB",08-01-2024 19:00:00,21.237755,81.705301,PM2.5,61,99,81
India,Chhattisgarh,Raipur,"Siltara Phase-II, Raipur - CECB",08-01-2024 19:00:00,21.371751,81.664929,SO2,1,4,1
India,Chhattisgarh,Tumidih,"OP Jindal Industrial Park, Tumidih - CECB",08-01-2024 19:00:00,22.06631475,83.33820077,PM2.5,NA,NA,NA
India,Delhi,Delhi,"Alipur, Delhi - DPCC",08-01-2024 19:00:00,28.815329,77.153010,PM2.5,272,388,334
India,Delhi,Delhi,"Alipur, Delhi - DPCC",08-01-2024 19:00:00,28.815329,77.153010,NO2,25,63,36
India,Delhi,Delhi,"Anand Vihar, Delhi - DPCC",08-01-2024 19:00:00,28.647622,77.3158090,SO2,2,24,16
India,Delhi,Delhi,"Anand Vihar, Delhi - DPCC",08-01-2024 19:00:00,28.647622,77.3158090,OZONE,14,19,16
India,Delhi,Delhi,"Ashok Vihar, Delhi - DPCC",08-01-2024 19:00:00,28.695381,77.181665,OZONE,5,8,6
India,Delhi,Delhi,"Aya Nagar, Delhi - IMD",08-01-2024 19:00:00,28.4706914,77.1099364,CO,66,103,94
India,Delhi,Delhi,"Bawana, Delhi - DPCC",08-01-2024 19:00:00,28.776200,77.051074,PM10,224,387,303
India,Delhi,Delhi,"Bawana, Delhi - DPCC",08-01-2024 19:00:00,28.776200,77.051074,OZONE,4,30,17
India,Delhi,Delhi,"Burari Crossing, Delhi - IMD",08-01-2024 19:00:00,28.7256504,77.2011573,NO2,10,17,11
India,Delhi,Delhi,"Burari Crossing, Delhi - IMD",08-01-2024 19:00:00,28.7256504,77.2011573,CO,101,104,102
India,Delhi,Delhi,"DTU, Delhi - CPCB",08-01-2024 19:00:00,28.7500499,77.1112615,PM10,237,421,336
India,Delhi,Delhi,"DTU, Delhi - CPCB",08-01-2024 19:00:00,28.7500499,77.1112615,NO2,17,52,32
India,Delhi,Delhi,"DTU, Delhi - CPCB",08-01-2024 19:00:00,28.7500499,77.1112615,CO,35,55,38
India,Delhi,Delhi,"Dr. Karni Singh Shooting Range, Delhi - DPCC",08-01-2024 19:00:00,28.498571,77.264840,PM10,204,480,335
India,Delhi,Delhi,"Dr. Karni Singh Shooting Range, Delhi - DPCC",08-01-2024 19:00:00,28.498571,77.264840,NH3,6,21,8
India,Delhi,Delhi,"Dwarka-Sector 8, Delhi - DPCC ",08-01-2024 19:00:00,28.5710274,77.0719006,SO2,5,17,10
India,Delhi,Delhi,"IGI Airport (T3), Delhi - IMD",08-01-2024 19:00:00,28.5627763,77.1180053,CO,50,105,81
India,Delhi,Delhi,"ITO, Delhi - CPCB",08-01-2024 19:00:00,28.628624,77.241060,NO2,20,44,28
India,Delhi,Delhi,"ITO, Delhi - CPCB",08-01-2024 19:00:00,28.628624,77.241060,NH3,6,9,7
India,Delhi,Delhi,"ITO, Delhi - CPCB",08-01-2024 19:00:00,28.628624,77.241060,OZONE,10,46,21
India,Delhi,Delhi,"Jahangirpuri, Delhi - DPCC",08-01-2024 19:00:00,28.732820,77.170633,NO2,38,58,45
India,Delhi,Delhi,"Jahangirpuri, Delhi - DPCC",08-01-2024 19:00:00,28.732820,77.170633,NH3,7,9,8
India,Delhi,Delhi,"Jawaharlal Nehru Stadium, Delhi - DPCC",08-01-2024 19:00:00,28.580280,77.233829,SO2,17,31,23
India,Delhi,Delhi,"Jawaharlal Nehru Stadium, Delhi - DPCC",08-01-2024 19:00:00,28.580280,77.233829,CO,57,105,81
India,Delhi,Delhi,"Jawaharlal Nehru Stadium, Delhi - DPCC",08-01-2024 19:00:00,28.580280,77.233829,OZONE,3,34,20
India,Delhi,Delhi,"Lodhi Road, Delhi - IMD",08-01-2024 19:00:00,28.5918245,77.2273074,PM2.5,200,440,324
India,Delhi,Delhi,"Lodhi Road, Delhi - IMD",08-01-2024 19:00:00,28.5918245,77.2273074,PM10,161,449,267
India,Delhi,Delhi,"Major Dhyan Chand National Stadium, Delhi - DPCC",08-01-2024 19:00:00,28.611281,77.237738,NH3,10,14,12
India,Delhi,Delhi,"Major Dhyan Chand National Stadium, Delhi - DPCC",08-01-2024 19:00:00,28.611281,77.237738,SO2,14,20,16
India,Delhi,Delhi,"Major Dhyan Chand National Stadium, Delhi - DPCC",08-01-2024 19:00:00,28.611281,77.237738,CO,63,108,86
India,Delhi,Delhi,"Mandir Marg, Delhi - DPCC",08-01-2024 19:00:00,28.636429,77.201067,PM10,193,465,315
India,Delhi,Delhi,"Mundka, Delhi - DPCC",08-01-2024 19:00:00,28.684678,77.076574,PM10,199,424,296
India,Delhi,Delhi,"Mundka, Delhi - DPCC",08-01-2024 19:00:00,28.684678,77.076574,NO2,43,74,54
India,Delhi,Delhi,"NSIT Dwarka, Delhi - CPCB",08-01-2024 19:00:00,28.60909,77.0325413,NH3,6,8,7
India,Delhi,Delhi,"Najafgarh, Delhi - DPCC",08-01-2024 19:00:00,28.570173,76.933762,OZONE,1,54,33
India,Delhi,Delhi,"Nehru Nagar, Delhi - DPCC",08-01-2024 19:00:00,28.567890,77.250515,PM10,220,500,366
India,Delhi,Delhi,"Nehru Nagar, Delhi - DPCC",08-01-2024 19:00:00,28.567890,77.250515,NH3,24,38,27
India,Delhi,Delhi,"Okhla Phase-2, Delhi - DPCC",08-01-2024 19:00:00,28.530785,77.271255,OZONE,7,18,13
India,Delhi,Delhi,"Patparganj, Delhi - DPCC",08-01-2024 19:00:00,28.623763,77.287209,NO2,37,98,60
India,Delhi,Delhi,"Patparganj, Delhi - DPCC",08-01-2024 19:00:00,28.623763,77.287209,OZONE,9,36,23
India,Delhi,Delhi,"Punjabi Bagh, Delhi - DPCC",08-01-2024 19:00:00,28.674045,77.131023,PM10,240,454,338
India,Delhi,Delhi,"Punjabi Bagh, Delhi - DPCC",08-01-2024 19:00:00,28.674045,77.131023,SO2,2,7,5
India,Delhi,Delhi,"Pusa, Delhi - DPCC",08-01-2024 19:00:00,28.639652,77.146275,PM2.5,307,480,376
India,Delhi,Delhi,"Pusa, Delhi - DPCC",08-01-2024 19:00:00,28.639652,77.146275,NO2,33,111,64
India,Delhi,Delhi,"Pusa, Delhi - DPCC",08-01-2024 19:00:00,28.639652,77.146275,SO2,5,18,10
India,Delhi,Delhi,"Pusa, Delhi - DPCC",08-01-2024 19:00:00,28.639652,77.146275,OZONE,7,37,16
India,Delhi,Delhi,"Pusa, Delhi - IMD",08-01-2024 19:00:00,28.636110,77.173332,PM2.5,160,435,304
India,Delhi,Delhi,"R K Puram, Delhi - DPCC",08-01-2024 19:00:00,28.563262,77.186937,NH3,1,10,3
India,Delhi,Delhi,"Rohini, Delhi - DPCC",08-01-2024 19:00:00,28.732528,77.119920,NH3,7,11,9
India,Delhi,Delhi,"Rohini, Delhi - DPCC",08-01-2024 19:00:00,28.732528,77.119920,SO2,9,40,18
India,Delhi,Delhi,"Rohini, Delhi - DPCC",08-01-2024 19:00:00,28.732528,77.119920,CO,40,78,50
India,Delhi,Delhi,"Shadipur, Delhi - CPCB",08-01-2024 19:00:00,28.6514781,77.1473105,OZONE,12,32,24
India,Delhi,Delhi,"Sirifort, Delhi - CPCB",08-01-2024 19:00:00,28.5504249,77.2159377,NH3,NA,NA,NA
India,Delhi,Delhi,"Sonia Vihar, Delhi - DPCC",08-01-2024 19:00:00,28.710508,77.249485,PM10,198,413,312
India,Delhi,Delhi,"Sonia Vihar, Delhi - DPCC",08-01-2024 19:00:00,28.710508,77.249485,CO,64,94,79
India,Delhi,Delhi,"Sonia Vihar, Delhi - DPCC",08-01-2024 19:00:00,28.710508,77.249485,OZONE,7,39,25
India,Delhi,Delhi,"Vivek Vihar, Delhi - DPCC",08-01-2024 19:00:00,28.672342,77.315260,NO2,NA,NA,NA
India,Delhi,Delhi,"Vivek Vihar, Delhi - DPCC",08-01-2024 19:00:00,28.672342,77.315260,CO,51,109,88
India,Delhi,Delhi,"Vivek Vihar, Delhi - DPCC",08-01-2024 19:00:00,28.672342,77.315260,OZONE,2,8,5
India,Gujarat,Ahmedabad,"Chandkheda, Ahmedabad - IITM",08-01-2024 19:00:00,23.107969,72.574648,NO2,5,6,6
India,Gujarat,Ahmedabad,"Chandkheda, Ahmedabad - IITM",08-01-2024 19:00:00,23.107969,72.574648,OZONE,21,23,23
India,Gujarat,Ahmedabad,"Gyaspur, Ahmedabad - IITM",08-01-2024 19:00:00,22.977134,72.553024,PM2.5,73,242,129
India,Gujarat,Ahmedabad,"Gyaspur, Ahmedabad - IITM",08-01-2024 19:00:00,22.977134,72.553024,NO2,7,17,13
India,Gujarat,Ahmedabad,"Maninagar, Ahmedabad - GPCB",08-01-2024 19:00:00,23.002657,72.591912,PM2.5,66,116,85
India,Gujarat,Ahmedabad,"Raikhad, Ahmedabad - IITM",08-01-2024 19:00:00,23.020509,72.579261,NH3,5,6,6
India,Gujarat,Ahmedabad,"Raikhad, Ahmedabad - IITM",08-01-2024 19:00:00,23.020509,72.579261,CO,30,66,41
India,Gujarat,Ahmedabad,"SAC ISRO Satellite, Ahmedabad - IITM",08-01-2024 19:00:00,23.023389,72.515201,SO2,3,8,4
India,Gujarat,Ahmedabad,"SAC ISRO Satellite, Ahmedabad - IITM",08-01-2024 19:00:00,23.023389,72.515201,OZONE,6,17,13
India,Gujarat,Ahmedabad,"SVPI Airport Hansol, Ahmedabad - IITM",08-01-2024 19:00:00,23.076793,72.627874,NO2,9,10,10
India,Gujarat,Ahmedabad,"Sardar Vallabhbhai Patel Stadium, Ahmedabad - IITM",08-01-2024 19:00:00,23.043070,72.562968,CO,17,40,27
India,Gujarat,Ankleshwar,"GIDC, Ankleshwar - GPCB",08-01-2024 19:00:00,21.613267,73.010555,NH3,6,7,7
India,Gujarat,Gandhinagar,"GIFT City, Gandhinagar - IITM",08-01-2024 19:00:00,23.163798,72.677768,CO,18,32,28
India,Gujarat,Gandhinagar,"IIPHG Lekawada, Gandhinagar - IITM",08-01-2024 19:00:00,23.243639,72.68994,PM10,61,123,98
India,Gujarat,Gandhinagar,"IIPHG Lekawada, Gandhinagar - IITM",08-01-2024 19:00:00,23.243639,72.68994,NO2,7,12,10
India,Gujarat,Vapi,"Phase-1 GIDC, Vapi - GPCB",08-01-2024 19:00:00,20.362421,72.918013,PM2.5,82,315,217
India,Gujarat,Vatva,"Phase-4 GIDC, Vatva - GPCB",08-01-2024 19:00:00,22.969611,72.643500,NH3,1,1,1
India,Gujarat,Vatva,"Phase-4 GIDC, Vatva - GPCB",08-01-2024 19:00:00,22.969611,72.643500,CO,38,40,39
India,Haryana,Ambala,"Patti Mehar, Ambala - HSPCB",08-01-2024 19:00:00,30.379589,76.778328,NH3,5,12,8
India,Haryana,Ambala,"Patti Mehar, Ambala - HSPCB",08-01-2024 19:00:00,30.379589,76.778328,OZONE,22,36,30
India,Haryana,Ballabgarh,"Nathu Colony, Ballabgarh - HSPCB",08-01-2024 19:00:00,28.3419248,77.319699,NO2,NA,NA,NA
India,Haryana,Ballabgarh,"Nathu Colony, Ballabgarh - HSPCB",08-01-2024 19:00:00,28.3419248,77.319699,SO2,NA,NA,NA
India,Haryana,Bhiwani,"H.B. Colony, Bhiwani - HSPCB",08-01-2024 19:00:00,28.806223,76.141105,PM10,56,178,117
India,Haryana,Bhiwani,"H.B. Colony, Bhiwani - HSPCB",08-01-2024 19:00:00,28.806223,76.141105,SO2,5,13,10
India,Haryana,Bhiwani,"H.B. Colony, Bhiwani - HSPCB",08-01-2024 19:00:00,28.806223,76.141105,OZONE,12,19,16
India,Haryana,Charkhi Dadri,"Mini Secretariat, Charkhi Dadri - HSPCB",08-01-2024 19:00:00,28.593883,76.270653,PM2.5,50,301,193
India,Haryana,Charkhi Dadri,"Mini Secretariat, Charkhi Dadri - HSPCB",08-01-2024 19:00:00,28.593883,76.270653,NH3,3,8,5
India,Haryana,Charkhi Dadri,"Mini Secretariat, Charkhi Dadri - HSPCB",08-01-2024 19:00:00,28.593883,76.270653,SO2,8,14,10
India,Haryana,Charkhi Dadri,"Mini Secretariat, Charkhi Dadri - HSPCB",08-01-2024 19:00:00,28.593883,76.270653,OZONE,13,18,16
India,Haryana,Dharuhera,"Municipal Corporation Office, Dharuhera -  HSPCB",08-01-2024 19:00:00,28.206800,76.799700,NO2,45,111,72
India,Haryana,Dharuhera,"Municipal Corporation Office, Dharuhera -  HSPCB",08-01-2024 19:00:00,28.206800,76.799700,NH3,9,26,19
India,Haryana,Faridabad,"New Industrial Town, Faridabad - HSPCB",08-01-2024 19:00:00,28.39072,77.30059,PM2.5,337,498,371
India,Haryana,Faridabad,"Sector 30, Faridabad - HSPCB",08-01-2024 19:00:00,28.4417,77.3217,PM2.5,175,219,186
India,Haryana,Faridabad,"Sector 30, Faridabad - HSPCB",08-01-2024 19:00:00,28.4417,77.3217,NO2,30,32,31
India,Haryana,Fatehabad,"Huda Sector, Fatehabad - HSPCB",08-01-2024 19:00:00,29.503664,75.467934,NO2,29,31,30
India,Haryana,Gurugram,"Sector-51, Gurugram - HSPCB",08-01-2024 19:00:00,28.4227,77.0667,NO2,13,110,35
India,Haryana,Gurugram,"Sector-51, Gurugram - HSPCB",08-01-2024 19:00:00,28.4227,77.0667,NH3,7,23,11
India,Haryana,Gurugram,"Sector-51, Gurugram - HSPCB",08-01-2024 19:00:00,28.4227,77.0667,SO2,2,4,3
India,Haryana,Gurugram,"Vikas Sadan, Gurugram - HSPCB",08-01-2024 19:00:00,28.4501238,77.0263051,NO2,5,26,14
India,Haryana,Hisar,"Urban Estate-II, Hisar - HSPCB",08-01-2024 19:00:00,29.140560,75.744941,NO2,6,10,8
India,Haryana,Hisar,"Urban Estate-II, Hisar - HSPCB",08-01-2024 19:00:00,29.140560,75.744941,SO2,28,77,50
India,Haryana,Jind,"Police Lines, Jind - HSPCB",08-01-2024 19:00:00,29.307814,76.337619,NH3,NA,NA,NA
India,Haryana,Jind,"Police Lines, Jind - HSPCB",08-01-2024 19:00:00,29.307814,76.337619,CO,5,72,41
India,Haryana,Karnal,"Sector-12, Karnal - HSPCB",08-01-2024 19:00:00,29.695300,77.002700,NO2,7,12,10
India,Haryana,Karnal,"Sector-12, Karnal - HSPCB",08-01-2024 19:00:00,29.695300,77.002700,NH3,10,13,11
India,Haryana,Karnal,"Sector-12, Karnal - HSPCB",08-01-2024 19:00:00,29.695300,77.002700,SO2,5,90,21
India,Haryana,Kurukshetra,"Sector-7, Kurukshetra - HSPCB",08-01-2024 19:00:00,29.966942,76.875879,NO2,8,11,10
India,Haryana,Mandikhera,"General Hospital, Mandikhera - HSPCB",08-01-2024 19:00:00,27.9002,76.9938,PM10,86,138,117
India,Haryana,Mandikhera,"General Hospital, Mandikhera - HSPCB",08-01-2024 19:00:00,27.9002,76.9938,SO2,30,36,34
India,Haryana,Manesar,"Sector-2 IMT, Manesar - HSPCB",08-01-2024 19:00:00,28.360699,76.936090,NO2,14,24,19
India,Haryana,Palwal,"Shyam Nagar, Palwal - HSPCB",08-01-2024 19:00:00,28.1485564,77.3320667,NO2,5,5,5
India,Haryana,Palwal,"Shyam Nagar, Palwal - HSPCB",08-01-2024 19:00:00,28.1485564,77.3320667,SO2,5,21,10
India,Haryana,Palwal,"Shyam Nagar, Palwal - HSPCB",08-01-2024 19:00:00,28.1485564,77.3320667,CO,12,24,20
India,Haryana,Panchkula,"Sector-6, Panchkula - HSPCB ",08-01-2024 19:00:00,30.7057778,76.8531805555555,PM2.5,50,321,145
India,Haryana,Panchkula,"Sector-6, Panchkula - HSPCB ",08-01-2024 19:00:00,30.7057778,76.8531805555555,OZONE,36,61,52
India,Haryana,Rohtak,"MD University, Rohtak - HSPCB",08-01-2024 19:00:00,28.52123,76.37138,NO2,34,40,36
India,Haryana,Sirsa,"F-Block, Sirsa - HSPCB",08-01-2024 19:00:00,29.536400,75.015800,PM10,41,84,59
India,Haryana,Sirsa,"F-Block, Sirsa - HSPCB",08-01-2024 19:00:00,29.536400,75.015800,NO2,9,10,10
India,Haryana,Sirsa,"F-Block, Sirsa - HSPCB",08-01-2024 19:00:00,29.536400,75.015800,SO2,1,13,6
India,Haryana,Sonipat,"Murthal, Sonipat - HSPCB",08-01-2024 19:00:00,29.027200,77.062100,PM10,124,470,196
India,Haryana,Sonipat,"Murthal, Sonipat - HSPCB",08-01-2024 19:00:00,29.027200,77.062100,SO2,12,29,20
India,Haryana,Sonipat,"Murthal, Sonipat - HSPCB",08-01-2024 19:00:00,29.027200,77.062100,OZONE,16,36,33
India,Haryana,Yamuna Nagar,"Gobind Pura, Yamuna Nagar - HSPCB",08-01-2024 19:00:00,30.1480566,77.2893471,PM2.5,37,334,124
India,Haryana,Yamuna Nagar,"Gobind Pura, Yamuna Nagar - HSPCB",08-01-2024 19:00:00,30.1480566,77.2893471,CO,27,105,93
India,Haryana,Yamuna Nagar,"Gobind Pura, Yamuna Nagar - HSPCB",08-01-2024 19:00:00,30.1480566,77.2893471,OZONE,6,9,7
India,Himachal Pradesh,Baddi,"HIMUDA Complex Phase-1, Baddi - HPPCB",08-01-2024 19:00:00,30.943887,76.801991,SO2,NA,NA,NA
India,Karnataka,Bagalkot,"Vidayagiri, Bagalkot - KSPCB",08-01-2024 19:00:00,16.172806,75.659694,PM10,53,58,54
India,Karnataka,Bagalkot,"Vidayagiri, Bagalkot - KSPCB",08-01-2024 19:00:00,16.172806,75.659694,NH3,1,2,1
India,Karnataka,Belgaum,"Ramteerth Nagar, Belgaum - KSPCB",08-01-2024 19:00:00,15.888653,74.541751,PM2.5,29,63,43
India,Karnataka,Belgaum,"Ramteerth Nagar, Belgaum - KSPCB",08-01-2024 19:00:00,15.888653,74.541751,NH3,33,34,33
India,Karnataka,Bengaluru,"BTM Layout, Bengaluru - CPCB",08-01-2024 19:00:00,12.9135218,77.5950804,PM2.5,NA,NA,NA
India,Karnataka,Bengaluru,"BTM Layout, Bengaluru - CPCB",08-01-2024 19:00:00,12.9135218,77.5950804,CO,4,35,25
India,Karnataka,Bengaluru,"Bapuji Nagar, Bengaluru - KSPCB",08-01-2024 19:00:00,12.951913,77.539784,CO,22,76,54
India,Karnataka,Bengaluru,"Hebbal, Bengaluru - KSPCB",08-01-2024 19:00:00,13.029152,77.585901,PM10,19,66,48
India,Karnataka,Bengaluru,"Hebbal, Bengaluru - KSPCB",08-01-2024 19:00:00,13.029152,77.585901,SO2,1,19,11
India,Karnataka,Bengaluru,"Hombegowda Nagar, Bengaluru - KSPCB",08-01-2024 19:00:00,12.938539,77.590100,PM2.5,NA,NA,NA
India,Karnataka,Bengaluru,"Hombegowda Nagar, Bengaluru - KSPCB",08-01-2024 19:00:00,12.938539,77.590100,CO,13,26,17
India,Karnataka,Bengaluru,"Jigani, Bengaluru - KSPCB",08-01-2024 19:00:00,12.7816279,77.6299145,SO2,6,11,10
India,Karnataka,Bengaluru,"Jigani, Bengaluru - KSPCB",08-01-2024 19:00:00,12.7816279,77.6299145,CO,38,66,49
India,Karnataka,Bengaluru,"Kasturi Nagar, Bengaluru - KSPCB",08-01-2024 19:00:00,13.003872,77.664217,PM2.5,34,86,60
India,Karnataka,Bengaluru,"Peenya, Bengaluru - CPCB",08-01-2024 19:00:00,13.0270199,77.494094,PM2.5,10,67,34
India,Karnataka,Bengaluru,"Sanegurava Halli, Bengaluru - KSPCB",08-01-2024 19:00:00,12.990328,77.5431385,SO2,NA,NA,NA
India,Karnataka,Bengaluru,"Shivapura_Peenya, Bengaluru - KSPCB",08-01-2024 19:00:00,13.0246342,77.5080115,CO,24,42,35
India,Karnataka,Bengaluru,"Silk Board, Bengaluru - KSPCB",08-01-2024 19:00:00,12.917348,77.622813,PM10,13,74,49
India,Karnataka,Bengaluru,"Silk Board, Bengaluru - KSPCB",08-01-2024 19:00:00,12.917348,77.622813,SO2,6,9,8
India,Karnataka,Bidar,"Naubad, Bidar - KSPCB",08-01-2024 19:00:00,17.930306,77.482194,SO2,15,16,16
India,Karnataka,Chamarajanagar,"Urban, Chamarajanagar - KSPCB",08-01-2024 19:00:00,11.55358,76.55521,PM10,34,55,44
India,Karnataka,Chikkaballapur,"Chikkaballapur Rural, Chikkaballapur - KSPCB",08-01-2024 19:00:00,13.428828,77.731418,PM2.5,2,69,45
India,Karnataka,Chikkaballapur,"Chikkaballapur Rural, Chikkaballapur - KSPCB",08-01-2024 19:00:00,13.428828,77.731418,PM10,12,79,46
India,Karnataka,Chikkamagaluru,"Kalyana Nagara, Chikkamagaluru - KSPCB",08-01-2024 19:00:00,13.328028,75.797056,CO,4,104,46
India,Karnataka,Davanagere,"Devaraj Urs Badavane, Davanagere - KSPCB",08-01-2024 19:00:00,14.475800,75.905200,NH3,1,1,1
India,Karnataka,Dharwad,"Kalabhavan, Dharwad - KSPCB",08-01-2024 19:00:00,15.459706,75.008381,PM10,47,112,74
India,Karnataka,Dharwad,"Kalabhavan, Dharwad - KSPCB",08-01-2024 19:00:00,15.459706,75.008381,SO2,2,4,3
India,Karnataka,Gadag,"Panchal Nagar, Gadag - KSPCB",08-01-2024 19:00:00,15.411456,75.638133,NH3,2,3,2
India,Karnataka,Gadag,"Panchal Nagar, Gadag - KSPCB",08-01-2024 19:00:00,15.411456,75.638133,SO2,8,10,9
India,Karnataka,Hassan,"B.Katihalli, Hassan - KSPCB",08-01-2024 19:00:00,13.008556,76.125258,SO2,NA,NA,NA
India,Karnataka,Haveri,"Ashwini Nagar, Haveri - KSPCB",08-01-2024 19:00:00,14.791800,75.389600,PM2.5,47,97,74
India,Karnataka,Haveri,"Ashwini Nagar, Haveri - KSPCB",08-01-2024 19:00:00,14.791800,75.389600,SO2,13,14,14
India,Karnataka,Hubballi,"Deshpande Nagar, Hubballi - KSPCB",08-01-2024 19:00:00,15.351773,75.140726,PM2.5,22,62,44
India,Karnataka,Hubballi,"Deshpande Nagar, Hubballi - KSPCB",08-01-2024 19:00:00,15.351773,75.140726,NH3,6,10,9
India,Karnataka,Hubballi,"Deshpande Nagar, Hubballi - KSPCB",08-01-2024 19:00:00,15.351773,75.140726,OZONE,13,36,29
India,Karnataka,Hubballi,"Lingaraj Nagar, Hubballi - KSPCB",08-01-2024 19:00:00,15.3714823,75.1160168,PM2.5,12,52,32
India,Karnataka,Hubballi,"Lingaraj Nagar, Hubballi - KSPCB",08-01-2024 19:00:00,15.3714823,75.1160168,PM10,48,78,67
India,Karnataka,Kalaburagi,"Lal Bahadur Shastri Nagar, Kalaburagi - KSPCB",08-01-2024 19:00:00,17.321993,76.822628,OZONE,10,43,36
India,Karnataka,Kalaburagi,"Mahatma Basaveswar Colony, Kalaburgi - KSPCB",08-01-2024 19:00:00,17.336318,76.847397,NO2,8,30,19
India,Karnataka,Kalaburagi,"Mahatma Basaveswar Colony, Kalaburgi - KSPCB",08-01-2024 19:00:00,17.336318,76.847397,NH3,2,3,3
India,Karnataka,Kalaburagi,"Mahatma Basaveswar Colony, Kalaburgi - KSPCB",08-01-2024 19:00:00,17.336318,76.847397,SO2,4,13,5
India,Karnataka,Karwar,"KHB Colony, Karwar - KSPCB",08-01-2024 19:00:00,14.816666,74.141003,SO2,17,20,19
India,Karnataka,Kolar,"Tamaka Ind. Area, Kolar - KSPCB",08-01-2024 19:00:00,13.1276288,78.1570122,NH3,4,5,5
India,Karnataka,Koppal,"Diwator Nagar, Koppal - KSPCB",08-01-2024 19:00:00,15.347630,76.181767,NO2,NA,NA,NA
India,Karnataka,Mangalore,"Kadri, Mangalore - KSPCB",08-01-2024 19:00:00,12.889250,74.853000,NO2,2,6,3
India,Karnataka,Mangalore,"Kadri, Mangalore - KSPCB",08-01-2024 19:00:00,12.889250,74.853000,SO2,15,72,24
India,Karnataka,Mysuru,"Hebbal 1st Stage, Mysuru - KSPCB",08-01-2024 19:00:00,12.21041,76.37376,SO2,2,4,2
India,Karnataka,Mysuru,"Hebbal 1st Stage, Mysuru - KSPCB",08-01-2024 19:00:00,12.21041,76.37376,OZONE,6,44,36
India,Karnataka,Raichur,"Haji Colony, Raichur - KSPCB",08-01-2024 19:00:00,16.208139,77.348417,NO2,15,40,24
India,Karnataka,Raichur,"Haji Colony, Raichur - KSPCB",08-01-2024 19:00:00,16.208139,77.348417,NH3,1,2,1
India,Karnataka,Ramanagara,"Vijay Nagar, Ramanagara - KSPCB",08-01-2024 19:00:00,12.733409,77.298051,PM10,11,44,28
India,Karnataka,Ramanagara,"Vijay Nagar, Ramanagara - KSPCB",08-01-2024 19:00:00,12.733409,77.298051,NO2,1,7,3
India,Karnataka,Ramanagara,"Vijay Nagar, Ramanagara - KSPCB",08-01-2024 19:00:00,12.733409,77.298051,NH3,3,3,3
India,Karnataka,Shivamogga,"Vinoba Nagara, Shivamogga - KSPCB",08-01-2024 19:00:00,13.940000,75.555917,PM10,35,81,58
India,Karnataka,Shivamogga,"Vinoba Nagara, Shivamogga - KSPCB",08-01-2024 19:00:00,13.940000,75.555917,NO2,13,95,42
India,Karnataka,Udupi,"Brahmagiri, Udupi - KSPCB",08-01-2024 19:00:00,13.34194444,74.74694444,PM10,NA,NA,NA
India,Karnataka,Udupi,"Brahmagiri, Udupi - KSPCB",08-01-2024 19:00:00,13.34194444,74.74694444,SO2,NA,NA,NA
India,Karnataka,Udupi,"Brahmagiri, Udupi - KSPCB",08-01-2024 19:00:00,13.34194444,74.74694444,CO,22,52,31
India,Karnataka,Vijayapura,"Ibrahimpur, Vijayapura - KSPCB",08-01-2024 19:00:00,16.802639,75.722694,PM2.5,26,31,30
India,Karnataka,Yadgir,"Collector Office, Yadgir - KSPCB",08-01-2024 19:00:00,16.7602,77.1428,PM2.5,38,85,62
India,Karnataka,Yadgir,"Collector Office, Yadgir - KSPCB",08-01-2024 19:00:00,16.7602,77.1428,NO2,5,6,6
India,Kerala,Eloor,"Udyogamandal, Eloor - Kerala PCB",08-01-2024 19:00:00,10.073232,76.302765,PM10,NA,NA,NA
India,Kerala,Eloor,"Udyogamandal, Eloor - Kerala PCB",08-01-2024 19:00:00,10.073232,76.302765,SO2,NA,NA,NA
India,Kerala,Kannur,"Thavakkara, Kannur - Kerala PCB",08-01-2024 19:00:00,11.875000,75.373200,NO2,NA,NA,NA
India,Kerala,Kannur,"Thavakkara, Kannur - Kerala PCB",08-01-2024 19:00:00,11.875000,75.373200,OZONE,NA,NA,NA
India,Kerala,Thiruvananthapuram,"Kariavattom, Thiruvananthapuram - Kerala PCB",08-01-2024 19:00:00,8.563700,76.886500,NH3,1,1,1
India,Kerala,Thiruvananthapuram,"Kariavattom, Thiruvananthapuram - Kerala PCB",08-01-2024 19:00:00,8.563700,76.886500,CO,6,51,18
India,Kerala,Thiruvananthapuram,"Plammoodu, Thiruvananthapuram - Kerala PCB",08-01-2024 19:00:00,8.5149093,76.9435879,PM10,17,63,37
India,Kerala,Thiruvananthapuram,"Plammoodu, Thiruvananthapuram - Kerala PCB",08-01-2024 19:00:00,8.5149093,76.9435879,NO2,12,14,13
India,Kerala,Thiruvananthapuram,"Plammoodu, Thiruvananthapuram - Kerala PCB",08-01-2024 19:00:00,8.5149093,76.9435879,OZONE,7,67,13
India,Kerala,Thrissur,"Corporation Ground, Thrissur - Kerala PCB",08-01-2024 19:00:00,10.532400,76.215900,NH3,1,1,1
India,Kerala,Thrissur,"Corporation Ground, Thrissur - Kerala PCB",08-01-2024 19:00:00,10.532400,76.215900,CO,14,74,24
India,Madhya Pradesh,Bhopal,"Idgah Hills, Bhopal - MPPCB",08-01-2024 19:00:00,23.264759,77.381568,SO2,2,22,9
India,Madhya Pradesh,Bhopal,"Idgah Hills, Bhopal - MPPCB",08-01-2024 19:00:00,23.264759,77.381568,OZONE,15,96,67
India,Madhya Pradesh,Bhopal,"Paryavaran Parisar, Bhopal - MPPCB",08-01-2024 19:00:00,23.210494,77.425409,PM2.5,58,253,151
India,Madhya Pradesh,Bhopal,"Paryavaran Parisar, Bhopal - MPPCB",08-01-2024 19:00:00,23.210494,77.425409,NH3,NA,NA,NA
India,Madhya Pradesh,Damoh,"Shrivastav Colony, Damoh - MPPCB",08-01-2024 19:00:00,23.81748678,79.446246,PM2.5,23,60,40
India,Madhya Pradesh,Dewas,"Bhopal Chauraha, Dewas - MPPCB",08-01-2024 19:00:00,22.9682591,76.064118,NO2,10,13,12
India,Madhya Pradesh,Dewas,"Bhopal Chauraha, Dewas - MPPCB",08-01-2024 19:00:00,22.9682591,76.064118,OZONE,11,56,25
India,Madhya Pradesh,Gwalior,"Deen Dayal Nagar, Gwalior - MPPCB",08-01-2024 19:00:00,26.259242,78.216432,NH3,10,12,11
India,Madhya Pradesh,Gwalior,"Deen Dayal Nagar, Gwalior - MPPCB",08-01-2024 19:00:00,26.259242,78.216432,SO2,14,18,16
India,Madhya Pradesh,Gwalior,"Deen Dayal Nagar, Gwalior - MPPCB",08-01-2024 19:00:00,26.259242,78.216432,OZONE,12,81,59
India,Madhya Pradesh,Indore,"Chhoti Gwaltoli, Indore - MPPCB",08-01-2024 19:00:00,22.4310,75.5213,SO2,12,46,20
India,Madhya Pradesh,Indore,"Chhoti Gwaltoli, Indore - MPPCB",08-01-2024 19:00:00,22.4310,75.5213,CO,41,113,79
India,Madhya Pradesh,Indore,"Maguda Nagar, Indore - IMC",08-01-2024 19:00:00,22.7524,75.8872,SO2,26,101,71
India,Madhya Pradesh,Indore,"Regional Park, Indore - IMC",08-01-2024 19:00:00,22.6780,75.8559,PM2.5,62,97,73
India,Madhya Pradesh,Jabalpur,"Govindh Bhavan Colony, Jabalpur - JMC",08-01-2024 19:00:00,23.163174,79.973061,NH3,1,4,2
India,Madhya Pradesh,Jabalpur,"Govindh Bhavan Colony, Jabalpur - JMC",08-01-2024 19:00:00,23.163174,79.973061,SO2,1,21,7
India,Madhya Pradesh,Jabalpur,"Govindh Bhavan Colony, Jabalpur - JMC",08-01-2024 19:00:00,23.163174,79.973061,CO,37,48,42
India,Madhya Pradesh,Jabalpur,"Govindh Bhavan Colony, Jabalpur - JMC",08-01-2024 19:00:00,23.163174,79.973061,OZONE,7,80,65
India,Madhya Pradesh,Jabalpur,"Gupteshwar, Jabalpur - JMC",08-01-2024 19:00:00,23.142888,79.916147,PM2.5,47,160,98
India,Madhya Pradesh,Jabalpur,"Gupteshwar, Jabalpur - JMC",08-01-2024 19:00:00,23.142888,79.916147,NO2,12,45,27
India,Madhya Pradesh,Jabalpur,"Gupteshwar, Jabalpur - JMC",08-01-2024 19:00:00,23.142888,79.916147,NH3,7,9,7
India,Madhya Pradesh,Jabalpur,"Suhagi, Jabalpur - JMC",08-01-2024 19:00:00,23.218135,79.957770,SO2,4,12,7
India,Madhya Pradesh,Katni,"Gole Bazar, Katni - MPPCB",08-01-2024 19:00:00,23.50016,80.23284,NO2,7,33,19
India,Madhya Pradesh,Maihar,"Sahilara, Maihar - KJS Cements",08-01-2024 19:00:00,24.2613009,80.7231783,PM10,48,101,81
India,Madhya Pradesh,Maihar,"Sahilara, Maihar - KJS Cements",08-01-2024 19:00:00,24.2613009,80.7231783,CO,58,72,62
India,Madhya Pradesh,Mandideep,"Sector-D Industrial Area, Mandideep - MPPCB",08-01-2024 19:00:00,23.108440,77.511428,PM10,109,272,137
India,Madhya Pradesh,Mandideep,"Sector-D Industrial Area, Mandideep - MPPCB",08-01-2024 19:00:00,23.108440,77.511428,NO2,33,87,47
India,Madhya Pradesh,Mandideep,"Sector-D Industrial Area, Mandideep - MPPCB",08-01-2024 19:00:00,23.108440,77.511428,SO2,17,105,57
India,Madhya Pradesh,Pithampur,"Sector-2 Industrial Area, Pithampur - MPPCB",08-01-2024 19:00:00,22.624758,75.675238,OZONE,28,58,45
India,Madhya Pradesh,Sagar,"Civil Lines, Sagar - MPPCB",08-01-2024 19:00:00,23.838586,78.759431,SO2,3,7,4
India,Madhya Pradesh,Sagar,"Civil Lines, Sagar - MPPCB",08-01-2024 19:00:00,23.838586,78.759431,OZONE,38,44,42
India,Madhya Pradesh,Sagar,"Deen Dayal Nagar, Sagar - MPPCB",08-01-2024 19:00:00,23.8640158,78.80289321,PM2.5,42,84,58
India,Madhya Pradesh,Satna,"Bandhavgar Colony, Satna - Birla Cement",08-01-2024 19:00:00,24.58434363,80.8549414,PM10,23,53,37
India,Madhya Pradesh,Satna,"Bandhavgar Colony, Satna - Birla Cement",08-01-2024 19:00:00,24.58434363,80.8549414,SO2,3,6,4
India,Madhya Pradesh,Ujjain,"Mahakaleshwar Temple, Ujjain - MPPCB",08-01-2024 19:00:00,23.182719 ,75.768218 ,PM10,80,148,122
India,Madhya Pradesh,Ujjain,"Mahakaleshwar Temple, Ujjain - MPPCB",08-01-2024 19:00:00,23.182719 ,75.768218 ,SO2,7,26,12
India,Maharashtra,Ahmednagar,"Tarakpur, Ahmednagar - MPCB",08-01-2024 19:00:00,19.10122,74.73339,PM2.5,56,87,71
India,Maharashtra,Ahmednagar,"Tarakpur, Ahmednagar - MPCB",08-01-2024 19:00:00,19.10122,74.73339,PM10,65,134,105
India,Maharashtra,Ahmednagar,"Tarakpur, Ahmednagar - MPCB",08-01-2024 19:00:00,19.10122,74.73339,NO2,21,110,43
India,Maharashtra,Akola,"Ramdaspeth, Akola - MPCB",08-01-2024 19:00:00,20.719516,77.000253,OZONE,22,78,63
India,Maharashtra,Amravati,"Shivneri Colony, Amravati - MPCB",08-01-2024 19:00:00,20.9402359,77.7895248,NH3,2,4,3
India,Maharashtra,Amravati,"Shri Shivaji Science College, Amaravati - MPCB",08-01-2024 19:00:00,20.939198,77.765701,PM2.5,136,218,190
India,Maharashtra,Amravati,"Shri Shivaji Science College, Amaravati - MPCB",08-01-2024 19:00:00,20.939198,77.765701,NH3,2,6,2
India,Maharashtra,Amravati,"Shri Shivaji Science College, Amaravati - MPCB",08-01-2024 19:00:00,20.939198,77.765701,SO2,6,32,16
India,Maharashtra,Aurangabad,"MIDC Chilkalthana, Aurangabad - MPCB",08-01-2024 19:00:00,19.875620,75.387310,PM2.5,77,249,198
India,Maharashtra,Aurangabad,"Rachnakar Colony, Aurangabad - MPCB",08-01-2024 19:00:00,19.863756,75.321188,PM2.5,15,241,105
India,Maharashtra,Aurangabad,"Rachnakar Colony, Aurangabad - MPCB",08-01-2024 19:00:00,19.863756,75.321188,NO2,18,83,37
India,Maharashtra,Aurangabad,"Rachnakar Colony, Aurangabad - MPCB",08-01-2024 19:00:00,19.863756,75.321188,SO2,4,22,17
India,Maharashtra,Badlapur,"Katrap, Badlapur - MPCB",08-01-2024 19:00:00,19.16485,73.23409,SO2,4,15,11
India,Maharashtra,Belapur,"CBD Belapur, Belapur - MPCB",08-01-2024 19:00:00,19.0243902,73.0406721,CO,20,67,30
India,Maharashtra,Bhiwandi,"Gokul Nagar, Bhiwandi - MPCB",08-01-2024 19:00:00,19.309073,73.057223,PM2.5,NA,NA,NA
India,Maharashtra,Dhule,"Deopur, Dhule - MPCB",08-01-2024 19:00:00,20.918946,74.776388,SO2,1,22,8
India,Maharashtra,Jalna,"Old MIDC, Jalna - MPCB",08-01-2024 19:00:00,19.854616,75.905894,PM2.5,1,154,104
India,Maharashtra,Kalyan,"Khadakpada, Kalyan - MPCB",08-01-2024 19:00:00,19.25292,73.142019,PM2.5,27,113,71
India,Maharashtra,Kalyan,"Khadakpada, Kalyan - MPCB",08-01-2024 19:00:00,19.25292,73.142019,PM10,64,185,123
India,Maharashtra,Kalyan,"Khadakpada, Kalyan - MPCB",08-01-2024 19:00:00,19.25292,73.142019,SO2,13,64,33
India,Maharashtra,Kolhapur,"Sinchan Bhavan, Kolhapur - MPCB",08-01-2024 19:00:00,16.7143745,74.2426398,NO2,17,70,42
India,Maharashtra,Latur,"Sawe Wadi, Latur - MPCB",08-01-2024 19:00:00,18.39963,76.57452,SO2,1,7,4
India,Maharashtra,Latur,"Sawe Wadi, Latur - MPCB",08-01-2024 19:00:00,18.39963,76.57452,OZONE,21,52,45
India,Maharashtra,Malegaon,"Mahesh Nagar, Malegaon - MPCB",08-01-2024 19:00:00,20.555712,74.529236,NO2,9,32,11
India,Maharashtra,Mira-Bhayandar,"Bhayandar West, Mira-Bhayandar - MPCB",08-01-2024 19:00:00,19.296481,72.840923,NH3,5,8,6
India,Maharashtra,Mira-Bhayandar,"Bhayandar West, Mira-Bhayandar - MPCB",08-01-2024 19:00:00,19.296481,72.840923,SO2,4,18,8
India,Maharashtra,Mumbai,"Bandra Kurla Complex, Mumbai - MPCB",08-01-2024 19:00:00,19.065931,72.862131,NO2,21,63,42
India,Maharashtra,Mumbai,"Borivali East, Mumbai - MPCB",08-01-2024 19:00:00,19.2243333,72.8658113,SO2,8,9,8
India,Maharashtra,Mumbai,"Byculla, Mumbai - BMC",08-01-2024 19:00:00,18.9767,72.8380,PM10,64,96,80
India,Maharashtra,Mumbai,"Chembur, Mumbai - MPCB",08-01-2024 19:00:00,19.0364585,72.8954371,PM10,73,109,95
India,Maharashtra,Mumbai,"Chembur, Mumbai - MPCB",08-01-2024 19:00:00,19.0364585,72.8954371,SO2,5,20,10
India,Maharashtra,Mumbai,"Chembur, Mumbai - MPCB",08-01-2024 19:00:00,19.0364585,72.8954371,OZONE,3,70,54
India,Maharashtra,Mumbai,"Colaba, Mumbai - MPCB",08-01-2024 19:00:00,18.910000,72.820000,CO,10,22,12
India,Maharashtra,Mumbai,"Ghatkopar, Mumbai - BMC",08-01-2024 19:00:00,19.083694,72.920967,NO2,39,54,46
India,Maharashtra,Mumbai,"Ghatkopar, Mumbai - BMC",08-01-2024 19:00:00,19.083694,72.920967,SO2,1,2,1
India,Maharashtra,Mumbai,"Kandivali East, Mumbai - MPCB",08-01-2024 19:00:00,19.205800,72.868200,PM2.5,33,96,60
India,Maharashtra,Mumbai,"Kandivali West, Mumbai - BMC",08-01-2024 19:00:00,19.215859,72.831718,PM2.5,NA,NA,NA
India,Maharashtra,Mumbai,"Kherwadi_Bandra East, Mumbai - MPCB",08-01-2024 19:00:00,19.0632143,72.8456324,SO2,9,107,34
India,Maharashtra,Mumbai,"Kherwadi_Bandra East, Mumbai - MPCB",08-01-2024 19:00:00,19.0632143,72.8456324,OZONE,1,72,43
India,Maharashtra,Mumbai,"Kurla, Mumbai - MPCB",08-01-2024 19:00:00,19.0863,72.8888,PM10,38,140,83
India,Maharashtra,Mumbai,"Mazgaon, Mumbai - IITM",08-01-2024 19:00:00,18.96702,72.84214,PM2.5,46,78,66
India,Maharashtra,Mumbai,"Mazgaon, Mumbai - IITM",08-01-2024 19:00:00,18.96702,72.84214,PM10,62,120,92
India,Maharashtra,Mumbai,"Mazgaon, Mumbai - IITM",08-01-2024 19:00:00,18.96702,72.84214,SO2,7,15,12
India,Maharashtra,Mumbai,"Mulund West, Mumbai - MPCB",08-01-2024 19:00:00,19.1750,72.9419,PM10,58,116,77
India,Maharashtra,Mumbai,"Mulund West, Mumbai - MPCB",08-01-2024 19:00:00,19.1750,72.9419,SO2,14,16,14
India,Maharashtra,Mumbai,"Mulund West, Mumbai - MPCB",08-01-2024 19:00:00,19.1750,72.9419,OZONE,8,8,8
India,Maharashtra,Mumbai,"Navy Nagar-Colaba, Mumbai - IITM",08-01-2024 19:00:00,18.897756,72.813320,PM2.5,43,83,69
India,Maharashtra,Mumbai,"Navy Nagar-Colaba, Mumbai - IITM",08-01-2024 19:00:00,18.897756,72.813320,CO,32,102,45
India,Maharashtra,Mumbai,"Powai, Mumbai - MPCB",08-01-2024 19:00:00,19.137500,72.915056,PM10,100,158,118
India,Maharashtra,Mumbai,"Powai, Mumbai - MPCB",08-01-2024 19:00:00,19.137500,72.915056,NH3,1,1,1
India,Maharashtra,Mumbai,"Sion, Mumbai - MPCB",08-01-2024 19:00:00,19.047000,72.874600,PM2.5,34,135,81
India,Maharashtra,Mumbai,"Sion, Mumbai - MPCB",08-01-2024 19:00:00,19.047000,72.874600,NH3,1,2,1
India,Maharashtra,Mumbai,"Vasai West, Mumbai - MPCB",08-01-2024 19:00:00,19.383200,72.820400,PM10,39,122,83
India,Maharashtra,Mumbai,"Worli, Mumbai - MPCB",08-01-2024 19:00:00,18.9936162,72.8128113,NO2,17,18,18
India,Maharashtra,Mumbai,"Worli, Mumbai - MPCB",08-01-2024 19:00:00,18.9936162,72.8128113,CO,32,34,33
India,Maharashtra,Nagpur,"Opp GPO Civil Lines, Nagpur - MPCB",08-01-2024 19:00:00,21.152875,79.0517531,PM10,87,148,123
India,Maharashtra,Nagpur,"Opp GPO Civil Lines, Nagpur - MPCB",08-01-2024 19:00:00,21.152875,79.0517531,CO,28,102,46
India,Maharashtra,Nagpur,"Ram Nagar, Nagpur - MPCB",08-01-2024 19:00:00,21.143383,79.048912,NO2,14,86,29
India,Maharashtra,Nagpur,"Ram Nagar, Nagpur - MPCB",08-01-2024 19:00:00,21.143383,79.048912,NH3,3,11,6
India,Maharashtra,Nagpur,"Ram Nagar, Nagpur - MPCB",08-01-2024 19:00:00,21.143383,79.048912,CO,24,64,34
India,Maharashtra,Nanded,"Sneh Nagar, Nanded - MPCB",08-01-2024 19:00:00,19.173852,77.296291,NH3,1,3,2
India,Maharashtra,Nanded,"Sneh Nagar, Nanded - MPCB",08-01-2024 19:00:00,19.173852,77.296291,CO,34,46,41
India,Maharashtra,Nashik,"Gangapur Road, Nashik - MPCB",08-01-2024 19:00:00,20.0073285,73.7762427,PM10,NA,NA,NA
India,Maharashtra,Nashik,"Gangapur Road, Nashik - MPCB",08-01-2024 19:00:00,20.0073285,73.7762427,NO2,NA,NA,NA
India,Maharashtra,Nashik,"MIDC Ambad, Nashik - MPCB",08-01-2024 19:00:00,19.950220,73.731480,PM2.5,58,198,134
India,Maharashtra,Nashik,"MIDC Ambad, Nashik - MPCB",08-01-2024 19:00:00,19.950220,73.731480,OZONE,13,61,25
India,Maharashtra,Nashik,"Pandav Nagari, Nashik - MPCB",08-01-2024 19:00:00,19.9591346,73.7788008,PM2.5,62,138,110
India,Maharashtra,Nashik,"Pandav Nagari, Nashik - MPCB",08-01-2024 19:00:00,19.9591346,73.7788008,PM10,42,157,107
India,Maharashtra,Navi Mumbai,"Kopripada-Vashi, Navi Mumbai - MPCB",08-01-2024 19:00:00,19.090337,73.014232,PM2.5,35,120,77
India,Maharashtra,Navi Mumbai,"Mahape, Navi Mumbai - MPCB",08-01-2024 19:00:00,19.1135051,73.008978,NO2,38,39,38
India,Maharashtra,Navi Mumbai,"Nerul, Navi Mumbai - MPCB",08-01-2024 19:00:00,19.008751,73.016620,NH3,1,4,2
India,Maharashtra,Navi Mumbai,"Nerul, Navi Mumbai - MPCB",08-01-2024 19:00:00,19.008751,73.016620,CO,2,44,13
India,Maharashtra,Navi Mumbai,"Sanpada, Navi Mumbai - MPCB",08-01-2024 19:00:00,19.0575752,73.0151367,OZONE,1,71,51
India,Maharashtra,Navi Mumbai,"Sector-19A Nerul, Navi Mumbai - IITM",08-01-2024 19:00:00,19.044,73.0325,PM2.5,43,163,114
India,Maharashtra,Navi Mumbai,"Tondare-Taloja, Navi Mumbai - MPCB",08-01-2024 19:00:00,19.0630,73.1209,CO,4,136,31
India,Maharashtra,Parbhani,"Masoom Colony, Parbhani - MPCB",08-01-2024 19:00:00,19.265594,76.761463,PM10,64,99,82
India,Maharashtra,Pimpri-Chinchwad,"Gavalinagar, Pimpri Chinchwad - MPCB",08-01-2024 19:00:00,18.63673,73.82487,NO2,23,106,56
India,Maharashtra,Pimpri-Chinchwad,"Gavalinagar, Pimpri Chinchwad - MPCB",08-01-2024 19:00:00,18.63673,73.82487,NH3,5,6,5
India,Maharashtra,Pimpri-Chinchwad,"Gavalinagar, Pimpri Chinchwad - MPCB",08-01-2024 19:00:00,18.63673,73.82487,SO2,6,14,8
India,Maharashtra,Pimpri-Chinchwad,"Gavalinagar, Pimpri Chinchwad - MPCB",08-01-2024 19:00:00,18.63673,73.82487,CO,24,84,38
India,Maharashtra,Pimpri-Chinchwad,"Park Street Wakad, Pimpri Chinchwad - MPCB",08-01-2024 19:00:00,18.59051,73.77946,NH3,9,19,12
India,Maharashtra,Pimpri-Chinchwad,"Thergaon, Pimpri Chinchwad - MPCB",08-01-2024 19:00:00,18.616318,73.765797,PM2.5,105,272,161
India,Maharashtra,Pimpri-Chinchwad,"Thergaon, Pimpri Chinchwad - MPCB",08-01-2024 19:00:00,18.616318,73.765797,PM10,97,151,116
India,Maharashtra,Pimpri-Chinchwad,"Thergaon, Pimpri Chinchwad - MPCB",08-01-2024 19:00:00,18.616318,73.765797,NH3,8,17,11
India,Maharashtra,Pune,"Alandi, Pune - IITM",08-01-2024 19:00:00,18.675076,73.892743,PM10,60,101,76
India,Maharashtra,Pune,"Alandi, Pune - IITM",08-01-2024 19:00:00,18.675076,73.892743,CO,30,66,43
India,Maharashtra,Pune,"Alandi, Pune - IITM",08-01-2024 19:00:00,18.675076,73.892743,OZONE,1,28,22
India,Maharashtra,Pune,"Karve Road, Pune - MPCB",08-01-2024 19:00:00,18.5011743,73.8165527,PM2.5,51,72,69
India,Maharashtra,Pune,"Karve Road, Pune - MPCB",08-01-2024 19:00:00,18.5011743,73.8165527,CO,44,62,54
India,Maharashtra,Pune,"Katraj Dairy, Pune - MPCB",08-01-2024 19:00:00,18.454450,73.854155,PM10,58,101,76
India,Maharashtra,Pune,"Mhada Colony, Pune - IITM",08-01-2024 19:00:00,18.573040,73.927715,OZONE,3,32,24
India,Maharashtra,Pune,"Savitribai Phule Pune University, Pune - MPCB",08-01-2024 19:00:00,18.547056,73.826908,PM10,NA,NA,NA
India,Maharashtra,Pune,"Transport Nagar-Nigdi, Pune - IITM",08-01-2024 19:00:00,18.664282,73.763966,PM2.5,33,193,88
India,Maharashtra,Sangli,"Vijay Nagar, Sangli - MPCB",08-01-2024 19:00:00, 16.5038,74.3623,PM2.5,34,69,56
India,Maharashtra,Sangli,"Vijay Nagar, Sangli - MPCB",08-01-2024 19:00:00, 16.5038,74.3623,PM10,46,79,59
India,Maharashtra,Sangli,"Vijay Nagar, Sangli - MPCB",08-01-2024 19:00:00, 16.5038,74.3623,NO2,2,59,28
India,Maharashtra,Sangli,"Vijay Nagar, Sangli - MPCB",08-01-2024 19:00:00, 16.5038,74.3623,NH3,1,3,2
India,Maharashtra,Solapur,"Ratandeep Housing Society, Solapur - MPCB",08-01-2024 19:00:00,17.65439,75.90649,CO,18,48,21
India,Maharashtra,Solapur,"Ratandeep Housing Society, Solapur - MPCB",08-01-2024 19:00:00,17.65439,75.90649,OZONE,13,37,28
India,Maharashtra,Solapur,"Solapur, Solapur - MPCB",08-01-2024 19:00:00,17.6599188,75.9063906,PM2.5,38,73,53
India,Maharashtra,Thane,"Kasarvadavali, Thane - MPCB",08-01-2024 19:00:00,19.26777,72.97182,PM10,147,158,150
India,Maharashtra,Thane,"Kasarvadavali, Thane - MPCB",08-01-2024 19:00:00,19.26777,72.97182,SO2,4,29,13
India,Maharashtra,Virar,"Bolinj, Virar - MPCB",08-01-2024 19:00:00,19.4458210,72.7988231,NO2,16,83,34
India,Maharashtra,Virar,"Bolinj, Virar - MPCB",08-01-2024 19:00:00,19.4458210,72.7988231,SO2,7,15,10
India,Maharashtra,Virar,"Bolinj, Virar - MPCB",08-01-2024 19:00:00,19.4458210,72.7988231,CO,18,76,30
India,Manipur,Imphal,"DM College of Science, Imphal - Manipur PCB",08-01-2024 19:00:00,24.8207389,93.9423085,NH3,2,2,2
India,Manipur,Imphal,"DM College of Science, Imphal - Manipur PCB",08-01-2024 19:00:00,24.8207389,93.9423085,SO2,76,80,78
India,Manipur,Imphal,"Manipur University, Imphal - Manipur PCB",08-01-2024 19:00:00,24.7524239,93.9286218,SO2,NA,NA,NA
India,Meghalaya,Shillong,"Lumpyngngad, Shillong - Meghalaya PCB",08-01-2024 19:00:00,25.5586,91.8985,PM2.5,32,120,61
India,Mizoram,Aizawl,"Sikulpuikawn, Aizawl - Mizoram PCB",08-01-2024 19:00:00,23.7176342,92.7192841,CO,8,15,12
India,Odisha,Angul,"Hakimapada, Angul - OSPCB",08-01-2024 19:00:00,20.832874,85.104082,PM10,134,456,261
India,Odisha,Angul,"Hakimapada, Angul - OSPCB",08-01-2024 19:00:00,20.832874,85.104082,NO2,10,82,25
India,Odisha,Balasore,"Kalidaspur, Balasore - OSPCB",08-01-2024 19:00:00,21.51161,86.89088,PM10,156,246,196
India,Odisha,Balasore,"Kalidaspur, Balasore - OSPCB",08-01-2024 19:00:00,21.51161,86.89088,CO,90,108,102
India,Odisha,Bhubaneswar,"Patia, Bhubaneswar - OSPCB",08-01-2024 19:00:00,20.34652,85.81630,NO2,15,70,32
India,Odisha,Bhubaneswar,"Patia, Bhubaneswar - OSPCB",08-01-2024 19:00:00,20.34652,85.81630,NH3,5,6,6
India,Odisha,Bhubaneswar,"Patia, Bhubaneswar - OSPCB",08-01-2024 19:00:00,20.34652,85.81630,OZONE,8,143,111
India,Odisha,Bileipada,"Tata Township, Bileipada - OSPCB",08-01-2024 19:00:00,22.06156703,85.47409613,NH3,11,11,11
India,Odisha,Bileipada,"Tata Township, Bileipada - OSPCB",08-01-2024 19:00:00,22.06156703,85.47409613,OZONE,10,20,17
India,Odisha,Brajrajnagar,"GM Office, Brajrajnagar - OSPCB",08-01-2024 19:00:00,21.8004996,83.8396977,PM10,94,168,116
India,Odisha,Byasanagar,"Ferro Chrome Colony, Byasanagar - OSPCB",08-01-2024 19:00:00,20.94185,86.11510,NO2,14,47,22
India,Odisha,Byasanagar,"Ferro Chrome Colony, Byasanagar - OSPCB",08-01-2024 19:00:00,20.94185,86.11510,NH3,3,4,3
India,Odisha,Cuttack,"CDA Area, Cuttack - OSPCB",08-01-2024 19:00:00,20.48891     ,85.84768     ,CO,50,108,56
India,Odisha,Keonjhar,"Jagamohanpur, Keonjhar - OSPCB",08-01-2024 19:00:00,21.643900,85.599355,PM10,120,204,164
India,Odisha,Keonjhar,"Jagamohanpur, Keonjhar - OSPCB",08-01-2024 19:00:00,21.643900,85.599355,NO2,33,118,72
India,Odisha,Keonjhar,"Jagamohanpur, Keonjhar - OSPCB",08-01-2024 19:00:00,21.643900,85.599355,CO,12,41,22
India,Odisha,Nayagarh,"Dabuna, Nayagarh - OSPCB",08-01-2024 19:00:00,21.847279,85.416905,PM10,129,195,160
India,Odisha,Nayagarh,"Dabuna, Nayagarh - OSPCB",08-01-2024 19:00:00,21.847279,85.416905,NH3,4,19,5
India,Odisha,Rairangpur,"Divisional Forest Office, Rairangpur - OSPCB",08-01-2024 19:00:00,22.265816,86.174829,PM10,99,408,166
India,Odisha,Rairangpur,"Divisional Forest Office, Rairangpur - OSPCB",08-01-2024 19:00:00,22.265816,86.174829,NO2,7,8,8
India,Odisha,Rourkela,"Fertilizer Township, Rourkela - OSPCB",08-01-2024 19:00:00,22.18972222,84.86277778,SO2,12,16,13
India,Odisha,Rourkela,"Raghunathpali, Rourkela - OSPCB",08-01-2024 19:00:00,22.220833,84.809444,CO,50,88,60
India,Odisha,Talcher,"Talcher Coalfields,Talcher - OSPCB",08-01-2024 19:00:00,20.9360711,85.1707021,NH3,7,8,7
India,Odisha,Talcher,"Talcher Coalfields,Talcher - OSPCB",08-01-2024 19:00:00,20.9360711,85.1707021,CO,72,163,126
India,Odisha,Talcher,"Talcher Coalfields,Talcher - OSPCB",08-01-2024 19:00:00,20.9360711,85.1707021,OZONE,1,44,16
India,Odisha,Tensa,"Barsua Iron Ore Mines, Tensa - OSPCB",08-01-2024 19:00:00,21.869985,85.167016,PM2.5,106,228,179
India,Punjab,Amritsar,"Golden Temple, Amritsar - PPCB",08-01-2024 19:00:00,31.620000,74.876512,PM2.5,78,274,145
India,Punjab,Amritsar,"Golden Temple, Amritsar - PPCB",08-01-2024 19:00:00,31.620000,74.876512,CO,17,26,24
India,Punjab,Bathinda,"Hardev Nagar, Bathinda - PPCB",08-01-2024 19:00:00,30.233011,74.907758,CO,3,92,34
India,Punjab,Jalandhar,"Civil Line, Jalandhar - PPCB",08-01-2024 19:00:00,31.321907,75.578914,PM2.5,59,209,99
India,Punjab,Jalandhar,"Civil Line, Jalandhar - PPCB",08-01-2024 19:00:00,31.321907,75.578914,PM10,67,147,87
India,Punjab,Jalandhar,"Civil Line, Jalandhar - PPCB",08-01-2024 19:00:00,31.321907,75.578914,CO,46,69,60
India,Punjab,Jalandhar,"Civil Line, Jalandhar - PPCB",08-01-2024 19:00:00,31.321907,75.578914,OZONE,16,47,27
India,Punjab,Khanna,"Kalal Majra, Khanna - PPCB",08-01-2024 19:00:00,30.736056 ,76.209694,NO2,30,32,30
India,Punjab,Mandi Gobindgarh,"RIMT University, Mandi Gobindgarh - PPCB",08-01-2024 19:00:00,30.649961,76.331442,PM2.5,33,323,100
India,Punjab,Patiala,"Model Town, Patiala - PPCB",08-01-2024 19:00:00,30.349388,76.366642,NH3,6,7,7
India,Punjab,Rupnagar,"Ratanpura, Rupnagar - Ambuja Cements",08-01-2024 19:00:00,31.0325454,76.5623046,PM10,75,183,135
India,Rajasthan,Ajmer,"Civil Lines,  Ajmer - RSPCB",08-01-2024 19:00:00,26.470859,74.646594,PM10,98,152,122
India,Rajasthan,Ajmer,"Civil Lines,  Ajmer - RSPCB",08-01-2024 19:00:00,26.470859,74.646594,OZONE,3,48,37
India,Rajasthan,Alwar,"Moti Doongri, Alwar - RSPCB",08-01-2024 19:00:00,27.554793,76.611536,NO2,36,48,42
India,Rajasthan,Alwar,"Moti Doongri, Alwar - RSPCB",08-01-2024 19:00:00,27.554793,76.611536,NH3,4,7,5
India,Rajasthan,Baran,"Bamboliya, Baran - RSPCB",08-01-2024 19:00:00,25.106006,76.469948,PM2.5,23,262,116
India,Rajasthan,Baran,"Bamboliya, Baran - RSPCB",08-01-2024 19:00:00,25.106006,76.469948,PM10,64,164,106
India,Rajasthan,Barmer,"Railway Colony, Barmer - RSPCB",08-01-2024 19:00:00,25.747299,71.393989,NO2,11,34,17
India,Rajasthan,Bharatpur,"Krishna Nagar, Bharatpur - RSPCB",08-01-2024 19:00:00,27.215415,77.50873,PM10,140,366,243
India,Rajasthan,Bharatpur,"Krishna Nagar, Bharatpur - RSPCB",08-01-2024 19:00:00,27.215415,77.50873,SO2,4,47,24
India,Rajasthan,Bhilwara,"Pratap Nagar, Bhilwara - RSPCB",08-01-2024 19:00:00,25.339605,74.618883,NH3,3,12,5
India,Rajasthan,Bhilwara,"Pratap Nagar, Bhilwara - RSPCB",08-01-2024 19:00:00,25.339605,74.618883,CO,34,68,44
India,Rajasthan,Bhilwara,"Pratap Nagar, Bhilwara - RSPCB",08-01-2024 19:00:00,25.339605,74.618883,OZONE,10,57,45
India,Rajasthan,Bhiwadi,"RIICO Ind. Area III, Bhiwadi - RSPCB",08-01-2024 19:00:00,28.194909,76.862296,SO2,1,8,4
India,Rajasthan,Bikaner,"MM Ground, Bikaner - RSPCB",08-01-2024 19:00:00,28.018792,73.292658,NO2,10,70,26
India,Rajasthan,Bundi,"New Colony, Bundi - RSPCB",08-01-2024 19:00:00,25.435774,75.644272,PM10,108,439,202
India,Rajasthan,Bundi,"New Colony, Bundi - RSPCB",08-01-2024 19:00:00,25.435774,75.644272,NO2,20,70,34
India,Rajasthan,Chittorgarh,"Shastri Nagar, Chittorgarh - RSPCB",08-01-2024 19:00:00,24.892047,74.623527,NH3,4,8,6
India,Rajasthan,Churu,"Subash Chowk, Churu - RSPCB",08-01-2024 19:00:00,28.296139,74.961696,OZONE,6,98,62
India,Rajasthan,Dausa,"Khatikan Mohalla, Dausa - RSPCB",08-01-2024 19:00:00,26.895552,76.334753,SO2,7,8,8
India,Rajasthan,Jaipur,"Adarsh Nagar, Jaipur - RSPCB",08-01-2024 19:00:00,26.902909,75.836858,PM2.5,119,316,267
India,Rajasthan,Jaipur,"Adarsh Nagar, Jaipur - RSPCB",08-01-2024 19:00:00,26.902909,75.836858,CO,22,104,38
India,Rajasthan,Jaipur,"RIICO Sitapura, Jaipur - RSPCB",08-01-2024 19:00:00,26.786682,75.827928,PM10,140,342,219
India,Rajasthan,Jaipur,"RIICO Sitapura, Jaipur - RSPCB",08-01-2024 19:00:00,26.786682,75.827928,SO2,7,11,8
India,Rajasthan,Jaipur,"RIICO Sitapura, Jaipur - RSPCB",08-01-2024 19:00:00,26.786682,75.827928,OZONE,2,50,35
India,Rajasthan,Jaipur,"Shastri Nagar, Jaipur - RSPCB",08-01-2024 19:00:00,26.9502929,75.730943,SO2,6,26,17
India,Rajasthan,Jaisalmer,"Sadar Bazar, Jaisalmer - RSPCB",08-01-2024 19:00:00,26.912329,70.909168,PM10,33,149,82
India,Rajasthan,Jaisalmer,"Sadar Bazar, Jaisalmer - RSPCB",08-01-2024 19:00:00,26.912329,70.909168,CO,20,66,39
India,Rajasthan,Jalore,"Mudtra Sili, Jalore - RSPCB",08-01-2024 19:00:00,25.344694,72.626208,PM10,101,169,124
India,Rajasthan,Jalore,"Mudtra Sili, Jalore - RSPCB",08-01-2024 19:00:00,25.344694,72.626208,NO2,20,120,44
India,Rajasthan,Jhunjhunu,"Indra Nagar, Jhunjhunu - RSPCB",08-01-2024 19:00:00,28.108988,75.386577,PM2.5,36,304,156
India,Rajasthan,Jhunjhunu,"Indra Nagar, Jhunjhunu - RSPCB",08-01-2024 19:00:00,28.108988,75.386577,NH3,8,12,10
India,Rajasthan,Jodhpur,"Collectorate, Jodhpur - RSPCB",08-01-2024 19:00:00,26.268249,73.0193853,PM10,NA,NA,NA
India,Rajasthan,Jodhpur,"Samrat Ashok Udhyan, Jodhpur - RSPCB",08-01-2024 19:00:00,26.253384,72.976571,NH3,5,13,6
India,Rajasthan,Jodhpur,"Samrat Ashok Udhyan, Jodhpur - RSPCB",08-01-2024 19:00:00,26.253384,72.976571,OZONE,20,117,88
India,Rajasthan,Karauli,"Satyawati Vihar, Karauli - RSPCB",08-01-2024 19:00:00,26.506177,77.025989,OZONE,22,41,36
India,Rajasthan,Kota,"Dhanmandi, Kota - RSPCB",08-01-2024 19:00:00,25.164090,75.858137,PM2.5,196,386,324
India,Rajasthan,Kota,"Dhanmandi, Kota - RSPCB",08-01-2024 19:00:00,25.164090,75.858137,PM10,138,281,204
India,Rajasthan,Kota,"Dhanmandi, Kota - RSPCB",08-01-2024 19:00:00,25.164090,75.858137,NO2,32,73,52
India,Rajasthan,Kota,"Nayapura, Kota - RSPCB",08-01-2024 19:00:00,25.196024,75.855668,PM10,123,334,199
India,Rajasthan,Kota,"Nayapura, Kota - RSPCB",08-01-2024 19:00:00,25.196024,75.855668,CO,2,168,23
India,Rajasthan,Kota,"Shrinath Puram, Kota - RSPCB",08-01-2024 19:00:00,25.14389,75.821256,PM10,NA,NA,NA
India,Rajasthan,Nagaur,"Karni Colony, Nagaur - RSPCB",08-01-2024 19:00:00,27.213494,73.734444,SO2,3,6,4
India,Rajasthan,Nagaur,"Karni Colony, Nagaur - RSPCB",08-01-2024 19:00:00,27.213494,73.734444,CO,43,68,64
India,Rajasthan,Pali,"Indira Colony Vistar, Pali - RSPCB",08-01-2024 19:00:00,25.771061, 73.340227,SO2,8,18,13
India,Rajasthan,Pratapgarh,"Pragati Nagar, Pratapgarh - RSPCB",08-01-2024 19:00:00,24.041198,74.780702,PM10,52,143,99
India,Rajasthan,Sawai Madhopur,"Sahu Nagar, Sawai Madhopur - RSPCB",08-01-2024 19:00:00,26.031443,76.359327,OZONE,132,147,137
India,Rajasthan,Sikar,"Radhakishan Pura, Sikar - RSPCB",08-01-2024 19:00:00,27.608912,75.153302,PM2.5,142,348,252
India,Rajasthan,Sikar,"Radhakishan Pura, Sikar - RSPCB",08-01-2024 19:00:00,27.608912,75.153302,OZONE,23,69,60
India,Rajasthan,Sirohi,"Vedhaynath Colony, Sirohi - RSPCB",08-01-2024 19:00:00,24.885261,72.857549,PM10,81,296,130
India,Rajasthan,Sirohi,"Vedhaynath Colony, Sirohi - RSPCB",08-01-2024 19:00:00,24.885261,72.857549,CO,10,70,20
India,Rajasthan,Tonk,"Shastri Nagar, Tonk - RSPCB",08-01-2024 19:00:00,26.159933,75.780517,PM2.5,179,447,323
India,Rajasthan,Tonk,"Shastri Nagar, Tonk - RSPCB",08-01-2024 19:00:00,26.159933,75.780517,CO,28,126,39
India,Rajasthan,Udaipur,"Ashok Nagar, Udaipur - RSPCB",08-01-2024 19:00:00,24.5886166,73.6321397,NH3,5,16,7
India,Rajasthan,Udaipur,"Ashok Nagar, Udaipur - RSPCB",08-01-2024 19:00:00,24.5886166,73.6321397,SO2,5,54,16
India,Sikkim,Gangtok,"Zero Point GICI, Gangtok - SSPCB",08-01-2024 19:00:00,27.338530,88.614099,CO,12,28,16
India,TamilNadu,Chengalpattu,"Crescent University, Chengalpattu - TNPCB",08-01-2024 19:00:00,12.8777316,80.0834807,SO2,23,23,23
India,TamilNadu,Chennai,"Alandur Bus Depot, Chennai - CPCB",08-01-2024 19:00:00,12.9099161,80.1076538,PM2.5,64,87,75
India,TamilNadu,Chennai,"Alandur Bus Depot, Chennai - CPCB",08-01-2024 19:00:00,12.9099161,80.1076538,CO,56,178,116
India,TamilNadu,Chennai,"Arumbakkam, Chennai - TNPCB",08-01-2024 19:00:00,13.0664,80.2112 ,PM10,NA,NA,NA
India,TamilNadu,Chennai,"Gandhi Nagar_Ennore, Chennai - TNPCB",08-01-2024 19:00:00,13.218341,80.32027,OZONE,3,4,3
India,TamilNadu,Chennai,"Kodungaiyur, Chennai - TNPCB",08-01-2024 19:00:00,13.1278,80.2642,PM2.5,5,33,15
India,TamilNadu,Chennai,"Kodungaiyur, Chennai - TNPCB",08-01-2024 19:00:00,13.1278,80.2642,CO,28,104,41
India,TamilNadu,Chennai,"Perungudi, Chennai - TNPCB",08-01-2024 19:00:00,12.9533,80.2357,PM10,8,79,34
India,TamilNadu,Chennai,"Perungudi, Chennai - TNPCB",08-01-2024 19:00:00,12.9533,80.2357,NO2,2,9,6
India,TamilNadu,Chennai,"Royapuram, Chennai - TNPCB",08-01-2024 19:00:00,13.1036,80.2909,SO2,2,4,2
India,TamilNadu,Chennai,"Velachery Res. Area, Chennai - CPCB",08-01-2024 19:00:00,13.0052189,80.2398125,NO2,9,86,32
India,TamilNadu,Chennai,"Velachery Res. Area, Chennai - CPCB",08-01-2024 19:00:00,13.0052189,80.2398125,OZONE,21,30,23
India,TamilNadu,Cuddalore,"Kudikadu, Cuddalore - TNPCB",08-01-2024 19:00:00,11.6829898,79.7532099,PM2.5,3,22,10
India,TamilNadu,Cuddalore,"Kudikadu, Cuddalore - TNPCB",08-01-2024 19:00:00,11.6829898,79.7532099,SO2,17,21,18
India,TamilNadu,Gummidipoondi,"Anthoni Pillai Nagar, Gummidipoondi - TNPCB",08-01-2024 19:00:00,13.4127,80.1081,SO2,8,102,24
India,TamilNadu,Kanchipuram,"Kilambi, Kanchipuram - TNPCB",08-01-2024 19:00:00,12.864618,79.659968,PM10,NA,NA,NA
India,TamilNadu,Kanchipuram,"Kilambi, Kanchipuram - TNPCB",08-01-2024 19:00:00,12.864618,79.659968,CO,37,162,60
India,TamilNadu,Ooty,"Bombay Castel, Ooty - TNPCB",08-01-2024 19:00:00,11.4068288,76.7138973,PM10,7,59,26
India,TamilNadu,Ooty,"Bombay Castel, Ooty - TNPCB",08-01-2024 19:00:00,11.4068288,76.7138973,CO,18,20,18
India,TamilNadu,Palkalaiperur,"Bharathidasan University, Palkalaiperur - TNPCB",08-01-2024 19:00:00,10.681158,78.741746,SO2,27,28,27
India,TamilNadu,Ramanathapuram,"Chalai Bazaar, Ramanathapuram - TNPCB",08-01-2024 19:00:00,9.36399,78.831977,PM10,NA,NA,NA
India,TamilNadu,Ramanathapuram,"Chalai Bazaar, Ramanathapuram - TNPCB",08-01-2024 19:00:00,9.36399,78.831977,CO,6,24,16
India,TamilNadu,Salem,"Sona College of Technology, Salem - TNPCB",08-01-2024 19:00:00,11.679111,78.125052,PM10,NA,NA,NA
India,TamilNadu,Tirupur,"Kumaran College, Tirupur - TNPCB",08-01-2024 19:00:00,11.0973603,77.3228673,PM10,29,126,52
India,TamilNadu,Tirupur,"Kumaran College, Tirupur - TNPCB",08-01-2024 19:00:00,11.0973603,77.3228673,NO2,8,46,17
India,TamilNadu,Vellore,"Vasanthapuram, Vellore - TNPCB",08-01-2024 19:00:00,12.909494,79.131861,OZONE,1,2,2
India,Telangana,Hyderabad,"Central University, Hyderabad - TSPCB",08-01-2024 19:00:00,17.460103,78.334361,CO,26,50,36
India,Telangana,Hyderabad,"Central University, Hyderabad - TSPCB",08-01-2024 19:00:00,17.460103,78.334361,OZONE,2,5,4
India,Telangana,Hyderabad,"ECIL Kapra, Hyderabad - TSPCB",08-01-2024 19:00:00,17.470431,78.566959,NH3,4,6,4
India,Telangana,Hyderabad,"ECIL Kapra, Hyderabad - TSPCB",08-01-2024 19:00:00,17.470431,78.566959,CO,12,31,16
India,Telangana,Hyderabad,"ICRISAT Patancheru, Hyderabad - TSPCB",08-01-2024 19:00:00,17.518400,78.278777,PM10,64,91,78
India,Telangana,Hyderabad,"ICRISAT Patancheru, Hyderabad - TSPCB",08-01-2024 19:00:00,17.518400,78.278777,NH3,2,2,2
India,Telangana,Hyderabad,"ICRISAT Patancheru, Hyderabad - TSPCB",08-01-2024 19:00:00,17.518400,78.278777,OZONE,54,98,90
India,Telangana,Hyderabad,"IITH Kandi, Hyderabad - TSPCB",08-01-2024 19:00:00,17.585705,78.126199,CO,36,114,65
India,Telangana,Hyderabad,"Kokapet, Hyderabad - TSPCB",08-01-2024 19:00:00,17.393559,78.339194,PM2.5,43,69,51
India,Telangana,Hyderabad,"Kokapet, Hyderabad - TSPCB",08-01-2024 19:00:00,17.393559,78.339194,NO2,8,11,9
India,Telangana,Hyderabad,"Kompally Municipal Office, Hyderabad - TSPCB",08-01-2024 19:00:00,17.544899,78.486949,OZONE,17,52,48
India,Telangana,Hyderabad,"Nacharam_TSIIC IALA, Hyderabad - TSPCB",08-01-2024 19:00:00,17.429398,78.569354,CO,20,24,22
India,Telangana,Hyderabad,"New Malakpet, Hyderabad - TSPCB",08-01-2024 19:00:00,17.37206,78.50864,OZONE,6,28,22
India,Telangana,Hyderabad,"Ramachandrapuram, Hyderabad - TSPCB",08-01-2024 19:00:00,17.528544,78.286195,PM2.5,NA,NA,NA
India,Telangana,Hyderabad,"Ramachandrapuram, Hyderabad - TSPCB",08-01-2024 19:00:00,17.528544,78.286195,OZONE,24,47,40
India,Telangana,Hyderabad,"Sanathnagar, Hyderabad - TSPCB",08-01-2024 19:00:00,17.4559458,78.4332152,PM2.5,65,152,99
India,Telangana,Hyderabad,"Sanathnagar, Hyderabad - TSPCB",08-01-2024 19:00:00,17.4559458,78.4332152,NO2,23,317,140
India,Telangana,Hyderabad,"Sanathnagar, Hyderabad - TSPCB",08-01-2024 19:00:00,17.4559458,78.4332152,CO,40,64,43
India,Telangana,Hyderabad,"Zoo Park, Hyderabad - TSPCB",08-01-2024 19:00:00,17.349694,78.451437,PM2.5,53,106,78
India,Tripura,Agartala,"Bardowali, Agartala - Tripura SPCB",08-01-2024 19:00:00,23.8175497,91.2726974,NH3,2,4,2
India,Tripura,Agartala,"Bardowali, Agartala - Tripura SPCB",08-01-2024 19:00:00,23.8175497,91.2726974,SO2,23,26,24
India,Uttar_Pradesh,Agra,"Rohta, Agra - UPPCB",08-01-2024 19:00:00,27.106972,78.000111,PM10,72,275,126
India,Uttar_Pradesh,Agra,"Rohta, Agra - UPPCB",08-01-2024 19:00:00,27.106972,78.000111,NH3,2,2,2
India,Uttar_Pradesh,Agra,"Sanjay Palace, Agra - UPPCB",08-01-2024 19:00:00,27.19865833,78.00598056,PM10,73,162,115
India,Uttar_Pradesh,Agra,"Sanjay Palace, Agra - UPPCB",08-01-2024 19:00:00,27.19865833,78.00598056,OZONE,15,67,38
India,Uttar_Pradesh,Agra,"Sector-3B Avas Vikas Colony, Agra - UPPCB",08-01-2024 19:00:00,27.19412,77.96237,CO,11,42,16
India,Uttar_Pradesh,Baghpat,"Sardar Patel Inter College, Baghpat - UPPCB",08-01-2024 19:00:00,28.964949,77.278761,NO2,33,85,43
India,Uttar_Pradesh,Baghpat,"Sardar Patel Inter College, Baghpat - UPPCB",08-01-2024 19:00:00,28.964949,77.278761,SO2,6,101,22
India,Uttar_Pradesh,Bareilly,"Civil Lines, Bareilly - UPPCB",08-01-2024 19:00:00,28.359581,79.414455,NH3,NA,NA,NA
India,Uttar_Pradesh,Bareilly,"Rajendra Nagar, Bareilly - UPPCB",08-01-2024 19:00:00,28.38910936,79.42963708,NH3,1,3,1
India,Uttar_Pradesh,Bareilly,"Rajendra Nagar, Bareilly - UPPCB",08-01-2024 19:00:00,28.38910936,79.42963708,SO2,38,41,39
India,Uttar_Pradesh,Bareilly,"Rajendra Nagar, Bareilly - UPPCB",08-01-2024 19:00:00,28.38910936,79.42963708,CO,26,76,40
India,Uttar_Pradesh,Bulandshahr,"Yamunapuram, Bulandshahr - UPPCB",08-01-2024 19:00:00,28.406963,77.849831,NO2,58,145,90
India,Uttar_Pradesh,Bulandshahr,"Yamunapuram, Bulandshahr - UPPCB",08-01-2024 19:00:00,28.406963,77.849831,CO,2,61,22
India,Uttar_Pradesh,Bulandshahr,"Yamunapuram, Bulandshahr - UPPCB",08-01-2024 19:00:00,28.406963,77.849831,OZONE,2,23,11
India,Uttar_Pradesh,Firozabad,"Nagla Bhau, Firozabad - UPPCB",08-01-2024 19:00:00,27.168897,78.376960,PM10,32,149,68
India,Uttar_Pradesh,Firozabad,"Nagla Bhau, Firozabad - UPPCB",08-01-2024 19:00:00,27.168897,78.376960,NH3,1,2,2
India,Uttar_Pradesh,Firozabad,"Vibhab Nagar, Firozabad - UPPCB",08-01-2024 19:00:00,27.1594,78.3953,PM2.5,50,323,122
India,Uttar_Pradesh,Firozabad,"Vibhab Nagar, Firozabad - UPPCB",08-01-2024 19:00:00,27.1594,78.3953,NH3,2,2,2
India,Uttar_Pradesh,Firozabad,"Vibhab Nagar, Firozabad - UPPCB",08-01-2024 19:00:00,27.1594,78.3953,OZONE,21,36,29
India,Uttar_Pradesh,Ghaziabad,"Indirapuram, Ghaziabad - UPPCB",08-01-2024 19:00:00,28.646233,77.358075,PM2.5,217,384,308
India,Uttar_Pradesh,Ghaziabad,"Loni, Ghaziabad - UPPCB",08-01-2024 19:00:00,28.757294,77.278792,OZONE,1,40,24
India,Uttar_Pradesh,Ghaziabad,"Sanjay Nagar, Ghaziabad - UPPCB",08-01-2024 19:00:00,28.685382,77.453839,OZONE,6,40,26
India,Uttar_Pradesh,Greater Noida,"Knowledge Park - III, Greater Noida - UPPCB",08-01-2024 19:00:00,28.47272,77.482000,SO2,8,25,16
India,Uttar_Pradesh,Jhansi,"Shivaji Nagar, Jhansi - UPPCB",08-01-2024 19:00:00,25.4547,78.6039,PM10,8,139,89
India,Uttar_Pradesh,Kanpur,"FTI Kidwai Nagar, Kanpur - UPPCB",08-01-2024 19:00:00,26.428282,80.327067,SO2,19,19,19
India,Uttar_Pradesh,Kanpur,"FTI Kidwai Nagar, Kanpur - UPPCB",08-01-2024 19:00:00,26.428282,80.327067,OZONE,2,6,4
India,Uttar_Pradesh,Kanpur,"Nehru Nagar, Kanpur - UPPCB",08-01-2024 19:00:00,26.4703136,80.3229863,PM10,74,132,97
India,Uttar_Pradesh,Khurja,"Kalindi Kunj, Khurja - UPPCB",08-01-2024 19:00:00,28.2348927,77.8683002,PM10,41,133,81
India,Uttar_Pradesh,Lucknow,"B R Ambedkar University, Lucknow - UPPCB",08-01-2024 19:00:00,26.766433,80.927299,NO2,11,18,12
India,Uttar_Pradesh,Lucknow,"B R Ambedkar University, Lucknow - UPPCB",08-01-2024 19:00:00,26.766433,80.927299,OZONE,6,48,36
India,Uttar_Pradesh,Lucknow,"Gomti Nagar, Lucknow - UPPCB",08-01-2024 19:00:00,26.868120,81.005119,PM10,71,123,97
India,Uttar_Pradesh,Lucknow,"Kendriya Vidyalaya, Lucknow - CPCB",08-01-2024 19:00:00,26.906111,80.948222,SO2,1,2,1
India,Uttar_Pradesh,Lucknow,"Kendriya Vidyalaya, Lucknow - CPCB",08-01-2024 19:00:00,26.906111,80.948222,OZONE,6,46,36
India,Uttar_Pradesh,Lucknow,"Kukrail Picnic Spot-1, Lucknow - UPPCB",08-01-2024 19:00:00,26.90723,80.98579,PM10,78,107,90
India,Uttar_Pradesh,Lucknow,"Talkatora District Industries Center, Lucknow - CPCB",08-01-2024 19:00:00,26.83399722,80.8917361,NH3,15,22,16
India,Uttar_Pradesh,Meerut,"Jai Bhim Nagar, Meerut - UPPCB",08-01-2024 19:00:00,28.9535882,77.7622941,NH3,8,12,9
India,Uttar_Pradesh,Meerut,"Jai Bhim Nagar, Meerut - UPPCB",08-01-2024 19:00:00,28.9535882,77.7622941,SO2,4,14,7
India,Uttar_Pradesh,Meerut,"Jai Bhim Nagar, Meerut - UPPCB",08-01-2024 19:00:00,28.9535882,77.7622941,CO,36,101,53
India,Uttar_Pradesh,Meerut,"Pallavpuram Phase 2, Meerut - UPPCB",08-01-2024 19:00:00,29.063510,77.709723,NO2,13,28,18
India,Uttar_Pradesh,Meerut,"Pallavpuram Phase 2, Meerut - UPPCB",08-01-2024 19:00:00,29.063510,77.709723,NH3,3,4,3
India,Uttar_Pradesh,Meerut,"Pallavpuram Phase 2, Meerut - UPPCB",08-01-2024 19:00:00,29.063510,77.709723,SO2,2,8,5
India,Uttar_Pradesh,Meerut,"Pallavpuram Phase 2, Meerut - UPPCB",08-01-2024 19:00:00,29.063510,77.709723,CO,32,42,37
India,Uttar_Pradesh,Moradabad,"Buddhi Vihar, Moradabad - UPPCB",08-01-2024 19:00:00,28.83526,78.74460,PM10,49,131,81
India,Uttar_Pradesh,Moradabad,"Buddhi Vihar, Moradabad - UPPCB",08-01-2024 19:00:00,28.83526,78.74460,NH3,7,10,8
India,Uttar_Pradesh,Moradabad,"Buddhi Vihar, Moradabad - UPPCB",08-01-2024 19:00:00,28.83526,78.74460,SO2,12,19,14
India,Uttar_Pradesh,Moradabad,"Eco Herbal Park, Moradabad - UPPCB",08-01-2024 19:00:00,28.840739,78.697531,NO2,1,48,10
India,Uttar_Pradesh,Moradabad,"Employment Office, Moradabad - UPPCB",08-01-2024 19:00:00,28.88528,78.73880,NH3,4,4,4
India,Uttar_Pradesh,Moradabad,"Employment Office, Moradabad - UPPCB",08-01-2024 19:00:00,28.88528,78.73880,CO,48,67,55
India,Uttar_Pradesh,Moradabad,"Jigar Colony, Moradabad - UPPCB",08-01-2024 19:00:00,28.856664,78.772638,PM2.5,30,97,62
India,Uttar_Pradesh,Moradabad,"Jigar Colony, Moradabad - UPPCB",08-01-2024 19:00:00,28.856664,78.772638,CO,36,53,45
India,Uttar_Pradesh,Moradabad,"Kashiram Nagar, Moradabad - UPPCB",08-01-2024 19:00:00,28.849399,78.742362,NO2,13,38,20
India,Uttar_Pradesh,Moradabad,"Kashiram Nagar, Moradabad - UPPCB",08-01-2024 19:00:00,28.849399,78.742362,OZONE,15,138,30
India,Uttar_Pradesh,Moradabad,"Transport Nagar, Moradabad - UPPCB",08-01-2024 19:00:00,28.802625,78.753728,NO2,17,30,23
India,Uttar_Pradesh,Moradabad,"Transport Nagar, Moradabad - UPPCB",08-01-2024 19:00:00,28.802625,78.753728,NH3,6,6,6
India,Uttar_Pradesh,Moradabad,"Transport Nagar, Moradabad - UPPCB",08-01-2024 19:00:00,28.802625,78.753728,SO2,41,43,41
India,Uttar_Pradesh,Moradabad,"Transport Nagar, Moradabad - UPPCB",08-01-2024 19:00:00,28.802625,78.753728,OZONE,15,19,17
India,Uttar_Pradesh,Muzaffarnagar,"New Mandi, Muzaffarnagar - UPPCB",08-01-2024 19:00:00,29.4723508,77.7194031,PM10,52,158,102
India,Uttar_Pradesh,Muzaffarnagar,"New Mandi, Muzaffarnagar - UPPCB",08-01-2024 19:00:00,29.4723508,77.7194031,NO2,26,70,42
India,Uttar_Pradesh,Muzaffarnagar,"New Mandi, Muzaffarnagar - UPPCB",08-01-2024 19:00:00,29.4723508,77.7194031,NH3,6,8,7
India,Uttar_Pradesh,Muzaffarnagar,"New Mandi, Muzaffarnagar - UPPCB",08-01-2024 19:00:00,29.4723508,77.7194031,CO,44,100,84
India,Uttar_Pradesh,Muzaffarnagar,"New Mandi, Muzaffarnagar - UPPCB",08-01-2024 19:00:00,29.4723508,77.7194031,OZONE,8,20,13
India,Uttar_Pradesh,Noida,"Sector - 125, Noida - UPPCB",08-01-2024 19:00:00,28.5447608,77.3231257,PM2.5,NA,NA,NA
India,Uttar_Pradesh,Noida,"Sector - 125, Noida - UPPCB",08-01-2024 19:00:00,28.5447608,77.3231257,CO,30,72,53
India,Uttar_Pradesh,Noida,"Sector-1, Noida - UPPCB",08-01-2024 19:00:00,28.5898,77.3101,CO,28,101,45
India,Uttar_Pradesh,Prayagraj,"Nagar Nigam, Prayagraj - UPPCB",08-01-2024 19:00:00,25.44919916 ,81.82735986 ,PM10,72,142,111
India,Uttar_Pradesh,Prayagraj,"Nagar Nigam, Prayagraj - UPPCB",08-01-2024 19:00:00,25.44919916 ,81.82735986 ,CO,20,68,32
India,Uttar_Pradesh,Varanasi,"Ardhali Bazar, Varanasi - UPPCB",08-01-2024 19:00:00,25.3505986,82.9083074,PM10,43,84,60
India,Uttar_Pradesh,Varanasi,"Ardhali Bazar, Varanasi - UPPCB",08-01-2024 19:00:00,25.3505986,82.9083074,OZONE,16,31,18
India,Uttar_Pradesh,Varanasi,"Bhelupur, Varanasi - UPPCB",08-01-2024 19:00:00,25.301778,82.996789,NH3,2,3,2
India,Uttar_Pradesh,Varanasi,"Bhelupur, Varanasi - UPPCB",08-01-2024 19:00:00,25.301778,82.996789,CO,2,42,13
India,Uttar_Pradesh,Varanasi,"IESD Banaras Hindu University, Varanasi - UPPCB",08-01-2024 19:00:00,25.262326,82.995408,PM2.5,10,24,18
India,Uttar_Pradesh,Varanasi,"IESD Banaras Hindu University, Varanasi - UPPCB",08-01-2024 19:00:00,25.262326,82.995408,PM10,21,63,41
India,Uttar_Pradesh,Varanasi,"IESD Banaras Hindu University, Varanasi - UPPCB",08-01-2024 19:00:00,25.262326,82.995408,OZONE,1,1,1
India,Uttar_Pradesh,Varanasi,"Maldahiya, Varanasi - UPPCB",08-01-2024 19:00:00,25.32393,82.99687,NO2,NA,NA,NA
India,Uttar_Pradesh,Vrindavan,"Omex Eternity, Vrindavan - UPPCB",08-01-2024 19:00:00,27.5714090,77.6557570,PM10,38,116,75
India,Uttar_Pradesh,Vrindavan,"Omex Eternity, Vrindavan - UPPCB",08-01-2024 19:00:00,27.5714090,77.6557570,CO,52,89,66
India,Uttarakhand,Dehradun,"Doon University, Dehradun - UKPCB",08-01-2024 19:00:00,30.269444,78.044167,OZONE,1,10,8
India,Uttarakhand,Kashipur,"Govt. Girls Inter College, Kashipur - UKPCB",08-01-2024 19:00:00,29.2124114,78.9611753,PM10,48,122,90
India,Uttarakhand,Rishikesh,"Shivaji Nagar, Rishikesh - UKPCB",08-01-2024 19:00:00,30.075911,78.2859547,CO,48,67,53
India,West_Bengal,Asansol,"Asansol Court Area, Asansol - WBPCB",08-01-2024 19:00:00,23.685297,86.945968,NO2,24,65,42
India,West_Bengal,Asansol,"Asansol Court Area, Asansol - WBPCB",08-01-2024 19:00:00,23.685297,86.945968,CO,14,50,29
India,West_Bengal,Barrackpore,"SVSPA Campus, Barrackpore - WBPCB",08-01-2024 19:00:00,22.7605581,88.3617589,CO,59,104,63
India,West_Bengal,Durgapur,"Sidhu Kanhu Indoor Stadium, Durgapur - WBPCB",08-01-2024 19:00:00,23.5404352,87.2892225,OZONE,2,71,40
India,West_Bengal,Haldia,"Priyambada Housing Estate, Haldia - WBPCB",08-01-2024 19:00:00,22.06047,88.109737,PM10,112,210,162
India,West_Bengal,Haldia,"Priyambada Housing Estate, Haldia - WBPCB",08-01-2024 19:00:00,22.06047,88.109737,CO,33,78,41
India,West_Bengal,Howrah,"Belur Math, Howrah - WBPCB",08-01-2024 19:00:00,22.629801,88.352017,PM2.5,219,322,269
India,West_Bengal,Howrah,"Ghusuri, Howrah - WBPCB",08-01-2024 19:00:00,22.611968,88.347422,PM10,165,363,213
India,West_Bengal,Howrah,"Ghusuri, Howrah - WBPCB",08-01-2024 19:00:00,22.611968,88.347422,SO2,12,14,13
India,West_Bengal,Howrah,"Padmapukur, Howrah - WBPCB",08-01-2024 19:00:00,22.5687319,88.2797276,PM10,145,196,171
India,West_Bengal,Howrah,"Padmapukur, Howrah - WBPCB",08-01-2024 19:00:00,22.5687319,88.2797276,CO,26,133,83
India,West_Bengal,Kolkata,"Ballygunge, Kolkata - WBPCB",08-01-2024 19:00:00,22.5367507,88.3638022,PM2.5,250,359,303
India,West_Bengal,Kolkata,"Ballygunge, Kolkata - WBPCB",08-01-2024 19:00:00,22.5367507,88.3638022,NO2,34,152,75
India,West_Bengal,Kolkata,"Ballygunge, Kolkata - WBPCB",08-01-2024 19:00:00,22.5367507,88.3638022,OZONE,6,87,67
India,West_Bengal,Kolkata,"Bidhannagar, Kolkata - WBPCB",08-01-2024 19:00:00,22.58157048,88.41002457,NO2,14,48,29
India,West_Bengal,Kolkata,"Fort William, Kolkata - WBPCB",08-01-2024 19:00:00,22.556640,88.342674,PM2.5,268,366,311
India,West_Bengal,Kolkata,"Fort William, Kolkata - WBPCB",08-01-2024 19:00:00,22.556640,88.342674,NO2,27,98,56
India,West_Bengal,Kolkata,"Jadavpur, Kolkata - WBPCB",08-01-2024 19:00:00,22.49929,88.36917,NO2,4,12,5
India,West_Bengal,Kolkata,"Jadavpur, Kolkata - WBPCB",08-01-2024 19:00:00,22.49929,88.36917,SO2,4,8,6
India,West_Bengal,Kolkata,"Jadavpur, Kolkata - WBPCB",08-01-2024 19:00:00,22.49929,88.36917,CO,34,100,36
India,West_Bengal,Kolkata,"Jadavpur, Kolkata - WBPCB",08-01-2024 19:00:00,22.49929,88.36917,OZONE,12,41,23
India,West_Bengal,Kolkata,"Rabindra Bharati University, Kolkata - WBPCB",08-01-2024 19:00:00,22.627847,88.380669,PM2.5,100,303,161
India,West_Bengal,Kolkata,"Rabindra Bharati University, Kolkata - WBPCB",08-01-2024 19:00:00,22.627847,88.380669,PM10,133,184,149
India,West_Bengal,Kolkata,"Rabindra Bharati University, Kolkata - WBPCB",08-01-2024 19:00:00,22.627847,88.380669,CO,40,105,43
India,West_Bengal,Kolkata,"Rabindra Bharati University, Kolkata - WBPCB",08-01-2024 19:00:00,22.627847,88.380669,OZONE,1,78,59
India,West_Bengal,Kolkata,"Rabindra Sarobar, Kolkata - WBPCB",08-01-2024 19:00:00,22.51106,88.35142,PM10,122,164,135
India,West_Bengal,Kolkata,"Rabindra Sarobar, Kolkata - WBPCB",08-01-2024 19:00:00,22.51106,88.35142,OZONE,3,91,64
India,West_Bengal,Kolkata,"Victoria, Kolkata - WBPCB",08-01-2024 19:00:00,22.5448082,88.3403691,NH3,1,2,1
India,West_Bengal,Siliguri,"Ward-32 Bapupara, Siliguri - WBPCB",08-01-2024 19:00:00,26.6879226,88.4152495,PM10,NA,NA,NA
India,West_Bengal,Siliguri,"Ward-32 Bapupara, Siliguri - WBPCB",08-01-2024 19:00:00,26.6879226,88.4152495,NO2,NA,NA,NA
India,West_Bengal,Siliguri,"Ward-32 Bapupara, Siliguri - WBPCB",08-01-2024 19:00:00,26.6879226,88.4152495,CO,42,60,49
India,West_Bengal,Siliguri,"Ward-32 Bapupara, Siliguri - WBPCB",08-01-2024 19:00:00,26.6879226,88.4152495,OZONE,14,49,29
India,Andhra_Pradesh,Amaravati,"Secretariat, Amaravati - APPCB",08-01-2024 19:00:00,16.5150833,80.5181667,PM2.5,NA,NA,NA
India,Andhra_Pradesh,Amaravati,"Secretariat, Amaravati - APPCB",08-01-2024 19:00:00,16.5150833,80.5181667,CO,10,36,23
India,Andhra_Pradesh,Chittoor,"Gangineni Cheruvu, Chittoor - APPCB",08-01-2024 19:00:00,13.204880,79.097889,SO2,3,9,6
India,Andhra_Pradesh,Kadapa,"Yerramukkapalli, Kadapa - APPCB",08-01-2024 19:00:00,14.465052,78.824187,CO,17,30,28
India,Andhra_Pradesh,Rajamahendravaram,"Anand Kala Kshetram, Rajamahendravaram - APPCB",08-01-2024 19:00:00,16.9872867,81.7363176,PM2.5,83,261,183
India,Andhra_Pradesh,Tirupati,"Vaikuntapuram, Tirupati - APPCB",08-01-2024 19:00:00,13.615387,79.409230,NH3,NA,NA,NA
India,Andhra_Pradesh,Vijayawada,"HB Colony, Vijayawada - APPCB",08-01-2024 19:00:00,16.536107,80.594233,PM2.5,49,73,58
India,Andhra_Pradesh,Vijayawada,"HB Colony, Vijayawada - APPCB",08-01-2024 19:00:00,16.536107,80.594233,PM10,43,82,58
India,Andhra_Pradesh,Vijayawada,"HB Colony, Vijayawada - APPCB",08-01-2024 19:00:00,16.536107,80.594233,CO,19,23,19
India,Andhra_Pradesh,Vijayawada,"Kanuru, Vijayawada - APPCB",08-01-2024 19:00:00,16.486692,80.699436,PM2.5,71,94,81
India,Andhra_Pradesh,Vijayawada,"Kanuru, Vijayawada - APPCB",08-01-2024 19:00:00,16.486692,80.699436,PM10,72,100,85
India,Andhra_Pradesh,Vijayawada,"Rajiv Gandhi Park, Vijayawada - APPCB",08-01-2024 19:00:00,16.509717,80.612222,SO2,5,23,14
India,Andhra_Pradesh,Visakhapatnam,"GVM Corporation, Visakhapatnam - APPCB",08-01-2024 19:00:00,17.72,83.3,PM2.5,133,302,235
India,Andhra_Pradesh,Visakhapatnam,"GVM Corporation, Visakhapatnam - APPCB",08-01-2024 19:00:00,17.72,83.3,NH3,1,4,2
India,Assam,Byrnihat,"Central Academy for SFS, Byrnihat - PCBA",08-01-2024 19:00:00,26.071318,91.87488,SO2,10,17,14
India,Assam,Byrnihat,"Central Academy for SFS, Byrnihat - PCBA",08-01-2024 19:00:00,26.071318,91.87488,OZONE,5,7,6
India,Assam,Guwahati,"IITG, Guwahati - PCBA",08-01-2024 19:00:00,26.2028636,91.70046436,NO2,1,16,8
India,Assam,Guwahati,"IITG, Guwahati - PCBA",08-01-2024 19:00:00,26.2028636,91.70046436,OZONE,2,19,11
India,Assam,Guwahati,"LGBI Airport, Guwahati - PCBA",08-01-2024 19:00:00,26.10887,91.589544,SO2,9,14,11
India,Assam,Guwahati,"Railway Colony, Guwahati - PCBA",08-01-2024 19:00:00,26.181742,91.78063,OZONE,11,54,31
India,Assam,Nagaon,"Christianpatty, Nagaon - PCBA",08-01-2024 19:00:00,26.349082,92.68449,PM10,74,434,179
India,Assam,Nagaon,"Christianpatty, Nagaon - PCBA",08-01-2024 19:00:00,26.349082,92.68449,CO,1,15,7
India,Assam,Nalbari,"Bata Chowk, Nalbari - PCBA",08-01-2024 19:00:00,26.446912,91.439057,SO2,3,26,11
India,Assam,Nalbari,"Bata Chowk, Nalbari - PCBA",08-01-2024 19:00:00,26.446912,91.439057,CO,10,156,98
India,Bihar,Araria,"Kharahiya Basti, Araria - BSPCB",08-01-2024 19:00:00,26.146529,87.454184,NO2,6,12,7
India,Bihar,Araria,"Kharahiya Basti, Araria - BSPCB",08-01-2024 19:00:00,26.146529,87.454184,SO2,NA,NA,NA
India,Bihar,Arrah,"New DM Office, Arrah - BSPCB",08-01-2024 19:00:00,25.5626095,84.663264,NO2,18,111,41
India,Bihar,Arrah,"New DM Office, Arrah - BSPCB",08-01-2024 19:00:00,25.5626095,84.663264,CO,5,86,14
India,Bihar,Aurangabad,"Gurdeo Nagar, Aurangabad - BSPCB",08-01-2024 19:00:00,24.75746,84.366208,SO2,NA,NA,NA
India,Bihar,Bettiah,"Kamalnath Nagar, Bettiah - BSPCB",08-01-2024 19:00:00,26.80365,84.51954,PM2.5,NA,NA,NA
India,Bihar,Bettiah,"Kamalnath Nagar, Bettiah - BSPCB",08-01-2024 19:00:00,26.80365,84.51954,SO2,10,20,15
India,Bihar,Bettiah,"Kamalnath Nagar, Bettiah - BSPCB",08-01-2024 19:00:00,26.80365,84.51954,OZONE,6,41,23
India,Bihar,Bhagalpur,"DM Office_Kachari Chowk, Bhagalpur - BSPCB",08-01-2024 19:00:00,25.251013,86.989001,PM2.5,312,368,346
India,Bihar,Bhagalpur,"DM Office_Kachari Chowk, Bhagalpur - BSPCB",08-01-2024 19:00:00,25.251013,86.989001,OZONE,17,45,24
India,Bihar,Bihar Sharif,"D M Colony, Bihar Sharif - BSPCB",08-01-2024 19:00:00,25.204762,85.514960,PM10,NA,NA,NA
India,Bihar,Bihar Sharif,"D M Colony, Bihar Sharif - BSPCB",08-01-2024 19:00:00,25.204762,85.514960,NO2,NA,NA,NA
India,Bihar,Bihar Sharif,"D M Colony, Bihar Sharif - BSPCB",08-01-2024 19:00:00,25.204762,85.514960,CO,2,42,23
India,Bihar,Gaya,"Collectorate, Gaya - BSPCB",08-01-2024 19:00:00,24.7955,84.9994,NO2,16,21,18
India,Bihar,Gaya,"Collectorate, Gaya - BSPCB",08-01-2024 19:00:00,24.7955,84.9994,SO2,18,34,22
India,Bihar,Gaya,"SFTI Kusdihra, Gaya - BSPCB",08-01-2024 19:00:00,24.762518,84.982348,PM2.5,38,175,96
India,Bihar,Hajipur,"Industrial Area, Hajipur - BSPCB",08-01-2024 19:00:00,25.697189,85.245900,CO,53,74,66
India,Bihar,Katihar,"Mirchaibari, Katihar - BSPCB",08-01-2024 19:00:00,25.560083,87.553265,OZONE,18,27,23
India,Bihar,Kishanganj,"SDM Office_Khagra, Kishanganj - BSPCB",08-01-2024 19:00:00,26.0881305,87.93840336,PM2.5,12,83,44
India,Bihar,Kishanganj,"SDM Office_Khagra, Kishanganj - BSPCB",08-01-2024 19:00:00,26.0881305,87.93840336,NO2,28,33,30
India,Bihar,Manguraha,"Forest Rest House, Manguraha - BSPCB",08-01-2024 19:00:00,27.308328,84.531742,CO,4,32,18
India,Bihar,Motihari,"Gandak Colony, Motihari - BSPCB",08-01-2024 19:00:00,26.63086,84.90051,PM2.5,87,306,172
India,Bihar,Motihari,"Gandak Colony, Motihari - BSPCB",08-01-2024 19:00:00,26.63086,84.90051,OZONE,33,66,48
India,Bihar,Munger,"Town Hall, Munger - BSPCB",08-01-2024 19:00:00,25.376776,86.471523,PM2.5,113,297,204
India,Bihar,Munger,"Town Hall, Munger - BSPCB",08-01-2024 19:00:00,25.376776,86.471523,OZONE,10,54,39
India,Bihar,Muzaffarpur,"Buddha Colony, Muzaffarpur - BSPCB",08-01-2024 19:00:00,26.11442,85.39813,PM2.5,NA,NA,NA
India,Bihar,Muzaffarpur,"Buddha Colony, Muzaffarpur - BSPCB",08-01-2024 19:00:00,26.11442,85.39813,NO2,NA,NA,NA
India,Bihar,Muzaffarpur,"Buddha Colony, Muzaffarpur - BSPCB",08-01-2024 19:00:00,26.11442,85.39813,NH3,NA,NA,NA
India,Bihar,Muzaffarpur,"MIT-Daudpur Kothi, Muzaffarpur - BSPCB",08-01-2024 19:00:00,26.1403345,85.3650192,PM2.5,50,311,168
India,Bihar,Muzaffarpur,"MIT-Daudpur Kothi, Muzaffarpur - BSPCB",08-01-2024 19:00:00,26.1403345,85.3650192,NH3,7,10,8
India,Bihar,Muzaffarpur,"MIT-Daudpur Kothi, Muzaffarpur - BSPCB",08-01-2024 19:00:00,26.1403345,85.3650192,SO2,6,8,6
India,Bihar,Patna,"DRM Office Danapur, Patna - BSPCB",08-01-2024 19:00:00,25.586562,85.043586,NH3,4,4,4
India,Bihar,Patna,"DRM Office Danapur, Patna - BSPCB",08-01-2024 19:00:00,25.586562,85.043586,SO2,6,9,7
India,Bihar,Patna,"Govt. High School Shikarpur, Patna - BSPCB",08-01-2024 19:00:00,25.592539,85.227158,PM2.5,54,235,155
India,Bihar,Patna,"Govt. High School Shikarpur, Patna - BSPCB",08-01-2024 19:00:00,25.592539,85.227158,NO2,16,25,19
India,Bihar,Patna,"Rajbansi Nagar, Patna - BSPCB",08-01-2024 19:00:00,25.599486,85.113666,PM2.5,NA,NA,NA
India,Bihar,Patna,"Rajbansi Nagar, Patna - BSPCB",08-01-2024 19:00:00,25.599486,85.113666,OZONE,2,32,21
India,Bihar,Patna,"Samanpura, Patna - BSPCB",08-01-2024 19:00:00,25.596727,85.085624,PM10,199,455,283
India,Bihar,Purnia,"Mariam Nagar, Purnia - BSPCB",08-01-2024 19:00:00,25.366336,87.117468,NO2,12,14,13
India,Bihar,Rajgir,"Dangi Tola, Rajgir - BSPCB",08-01-2024 19:00:00,25.03280,85.41948,SO2,4,20,7
India,Bihar,Saharsa,"Police Line, Saharsa - BSPCB",08-01-2024 19:00:00,25.892357,86.590325,PM2.5,193,352,295
India,Bihar,Saharsa,"Police Line, Saharsa - BSPCB",08-01-2024 19:00:00,25.892357,86.590325,PM10,154,225,178
India,Bihar,Samastipur,"DM Office_Kasipur, Samastipur - BSPCB",08-01-2024 19:00:00,25.859655,85.77944,CO,10,36,28
India,Bihar,Siwan,"Chitragupta Nagar, Siwan - BSPCB",08-01-2024 19:00:00,26.2271665,84.3570427,SO2,31,34,32
India,Bihar,Siwan,"Chitragupta Nagar, Siwan - BSPCB",08-01-2024 19:00:00,26.2271665,84.3570427,OZONE,5,80,53
India,Chandigarh,Chandigarh,"Sector 22, Chandigarh - CPCC",08-01-2024 19:00:00,30.735567,76.775714,NH3,5,11,8
India,Chandigarh,Chandigarh,"Sector-25, Chandigarh - CPCC",08-01-2024 19:00:00,30.751462,76.762879,CO,38,58,54
India,Chhattisgarh,Bhilai,"Civic Center, Bhilai - Bhilai Steel Plant",08-01-2024 19:00:00,21.185571,81.343175,CO,42,64,48
India,Chhattisgarh,Bhilai,"Hathkhoj, Bhilai - CECB",08-01-2024 19:00:00,21.224231,81.408350,PM2.5,88,165,120
India,Chhattisgarh,Bhilai,"Hathkhoj, Bhilai - CECB",08-01-2024 19:00:00,21.224231,81.408350,NO2,39,68,47
India,Chhattisgarh,Bilaspur,"Mangala, Bilaspur - NTPC",08-01-2024 19:00:00,22.08815,82.13737,PM2.5,46,88,67
India,Chhattisgarh,Chhal,"Nawapara SECL Colony, Chhal - CECB",08-01-2024 19:00:00,22.118125,83.140608,PM10,57,107,82
India,Chhattisgarh,Korba,"Rampur, Korba - CECB",08-01-2024 19:00:00,22.368195,82.746431,NH3,NA,NA,NA
India,Chhattisgarh,Korba,"Rampur, Korba - CECB",08-01-2024 19:00:00,22.368195,82.746431,SO2,NA,NA,NA
India,Chhattisgarh,Korba,"Urja Nagar, Korba - CECB",08-01-2024 19:00:00,22.348441,82.549611,PM10,53,71,64
India,Chhattisgarh,Korba,"Urja Nagar, Korba - CECB",08-01-2024 19:00:00,22.348441,82.549611,SO2,2,6,3
India,Chhattisgarh,Korba,"Urja Nagar, Korba - CECB",08-01-2024 19:00:00,22.348441,82.549611,OZONE,47,48,47
India,Chhattisgarh,Kunjemura,"OP Jindal School, Kunjemura - CECB",08-01-2024 19:00:00,22.126650,83.483212,OZONE,3,65,40
India,Chhattisgarh,Milupara,"Govt. Higher Secondary School, Milupara - CECB",08-01-2024 19:00:00,22.1910172,83.5197009,NO2,14,56,25
India,Chhattisgarh,Milupara,"Govt. Higher Secondary School, Milupara - CECB",08-01-2024 19:00:00,22.1910172,83.5197009,SO2,9,62,21
India,Chhattisgarh,Raipur,"AIIMS, Raipur - CECB",08-01-2024 19:00:00,21.258815,81.578979,PM2.5,70,231,115
India,Chhattisgarh,Raipur,"AIIMS, Raipur - CECB",08-01-2024 19:00:00,21.258815,81.578979,CO,36,74,45
India,Chhattisgarh,Tumidih,"OP Jindal Industrial Park, Tumidih - CECB",08-01-2024 19:00:00,22.06631475,83.33820077,NH3,NA,NA,NA
India,Delhi,Delhi,"Alipur, Delhi - DPCC",08-01-2024 19:00:00,28.815329,77.153010,CO,46,74,57
India,Delhi,Delhi,"Anand Vihar, Delhi - DPCC",08-01-2024 19:00:00,28.647622,77.3158090,CO,113,140,125
India,Delhi,Delhi,"Ashok Vihar, Delhi - DPCC",08-01-2024 19:00:00,28.695381,77.181665,PM10,260,451,370
India,Delhi,Delhi,"Ashok Vihar, Delhi - DPCC",08-01-2024 19:00:00,28.695381,77.181665,NO2,54,93,72
India,Delhi,Delhi,"Ashok Vihar, Delhi - DPCC",08-01-2024 19:00:00,28.695381,77.181665,NH3,9,11,10
India,Delhi,Delhi,"Ashok Vihar, Delhi - DPCC",08-01-2024 19:00:00,28.695381,77.181665,CO,44,95,67
India,Delhi,Delhi,"Bawana, Delhi - DPCC",08-01-2024 19:00:00,28.776200,77.051074,NO2,22,50,34
India,Delhi,Delhi,"Bawana, Delhi - DPCC",08-01-2024 19:00:00,28.776200,77.051074,SO2,4,13,8
India,Delhi,Delhi,"Burari Crossing, Delhi - IMD",08-01-2024 19:00:00,28.7256504,77.2011573,PM2.5,267,428,346
India,Delhi,Delhi,"Burari Crossing, Delhi - IMD",08-01-2024 19:00:00,28.7256504,77.2011573,PM10,214,415,302
India,Delhi,Delhi,"CRRI Mathura Road, Delhi - IMD",08-01-2024 19:00:00,28.5512005,77.2735737,PM10,132,443,222
India,Delhi,Delhi,"DTU, Delhi - CPCB",08-01-2024 19:00:00,28.7500499,77.1112615,PM2.5,127,293,218
India,Delhi,Delhi,"Dwarka-Sector 8, Delhi - DPCC ",08-01-2024 19:00:00,28.5710274,77.0719006,PM10,239,491,350
India,Delhi,Delhi,"IGI Airport (T3), Delhi - IMD",08-01-2024 19:00:00,28.5627763,77.1180053,PM10,142,452,281
India,Delhi,Delhi,"IHBAS, Dilshad Garden, Delhi - CPCB",08-01-2024 19:00:00,28.6811736,77.3025234,SO2,6,34,16
India,Delhi,Delhi,"ITO, Delhi - CPCB",08-01-2024 19:00:00,28.628624,77.241060,PM2.5,92,423,303
India,Delhi,Delhi,"Jahangirpuri, Delhi - DPCC",08-01-2024 19:00:00,28.732820,77.170633,PM10,269,462,390
India,Delhi,Delhi,"Jawaharlal Nehru Stadium, Delhi - DPCC",08-01-2024 19:00:00,28.580280,77.233829,PM10,190,480,298
India,Delhi,Delhi,"Jawaharlal Nehru Stadium, Delhi - DPCC",08-01-2024 19:00:00,28.580280,77.233829,NO2,58,148,90
India,Delhi,Delhi,"Lodhi Road, Delhi - IMD",08-01-2024 19:00:00,28.5918245,77.2273074,CO,74,103,83
India,Delhi,Delhi,"Major Dhyan Chand National Stadium, Delhi - DPCC",08-01-2024 19:00:00,28.611281,77.237738,NO2,49,133,79
India,Delhi,Delhi,"Major Dhyan Chand National Stadium, Delhi - DPCC",08-01-2024 19:00:00,28.611281,77.237738,OZONE,5,29,16
India,Delhi,Delhi,"Mandir Marg, Delhi - DPCC",08-01-2024 19:00:00,28.636429,77.201067,NH3,20,22,21
India,Delhi,Delhi,"Mandir Marg, Delhi - DPCC",08-01-2024 19:00:00,28.636429,77.201067,SO2,2,5,4
India,Delhi,Delhi,"Mundka, Delhi - DPCC",08-01-2024 19:00:00,28.684678,77.076574,SO2,11,38,21
India,Delhi,Delhi,"NSIT Dwarka, Delhi - CPCB",08-01-2024 19:00:00,28.60909,77.0325413,PM2.5,306,432,367
India,Delhi,Delhi,"NSIT Dwarka, Delhi - CPCB",08-01-2024 19:00:00,28.60909,77.0325413,NO2,37,66,50
India,Delhi,Delhi,"NSIT Dwarka, Delhi - CPCB",08-01-2024 19:00:00,28.60909,77.0325413,CO,6,110,43
India,Delhi,Delhi,"Narela, Delhi - DPCC",08-01-2024 19:00:00,28.822836,77.101981,PM2.5,337,402,364
India,Delhi,Delhi,"Narela, Delhi - DPCC",08-01-2024 19:00:00,28.822836,77.101981,NH3,3,11,8
India,Delhi,Delhi,"Nehru Nagar, Delhi - DPCC",08-01-2024 19:00:00,28.567890,77.250515,SO2,4,19,11
India,Delhi,Delhi,"Patparganj, Delhi - DPCC",08-01-2024 19:00:00,28.623763,77.287209,PM10,247,500,388
India,Delhi,Delhi,"Patparganj, Delhi - DPCC",08-01-2024 19:00:00,28.623763,77.287209,CO,18,100,64
India,Delhi,Delhi,"Punjabi Bagh, Delhi - DPCC",08-01-2024 19:00:00,28.674045,77.131023,PM2.5,345,488,407
India,Delhi,Delhi,"Punjabi Bagh, Delhi - DPCC",08-01-2024 19:00:00,28.674045,77.131023,NH3,6,9,7
India,Delhi,Delhi,"Pusa, Delhi - DPCC",08-01-2024 19:00:00,28.639652,77.146275,CO,42,112,94
India,Delhi,Delhi,"Pusa, Delhi - IMD",08-01-2024 19:00:00,28.636110,77.173332,OZONE,26,35,30
India,Delhi,Delhi,"R K Puram, Delhi - DPCC",08-01-2024 19:00:00,28.563262,77.186937,SO2,26,40,30
India,Delhi,Delhi,"Rohini, Delhi - DPCC",08-01-2024 19:00:00,28.732528,77.119920,NO2,38,70,52
India,Delhi,Delhi,"Shadipur, Delhi - CPCB",08-01-2024 19:00:00,28.6514781,77.1473105,PM2.5,340,477,393
India,Delhi,Delhi,"Shadipur, Delhi - CPCB",08-01-2024 19:00:00,28.6514781,77.1473105,PM10,270,493,363
India,Delhi,Delhi,"Shadipur, Delhi - CPCB",08-01-2024 19:00:00,28.6514781,77.1473105,CO,6,105,49
India,Delhi,Delhi,"Sirifort, Delhi - CPCB",08-01-2024 19:00:00,28.5504249,77.2159377,SO2,26,28,27
India,Delhi,Delhi,"Sirifort, Delhi - CPCB",08-01-2024 19:00:00,28.5504249,77.2159377,CO,30,78,40
India,Delhi,Delhi,"Sonia Vihar, Delhi - DPCC",08-01-2024 19:00:00,28.710508,77.249485,NH3,6,8,7
India,Delhi,Delhi,"Sonia Vihar, Delhi - DPCC",08-01-2024 19:00:00,28.710508,77.249485,SO2,4,15,9
India,Delhi,Delhi,"Sri Aurobindo Marg, Delhi - DPCC",08-01-2024 19:00:00,28.531346,77.190156,PM10,168,436,286
India,Delhi,Delhi,"Sri Aurobindo Marg, Delhi - DPCC",08-01-2024 19:00:00,28.531346,77.190156,NH3,7,11,9
India,Delhi,Delhi,"Sri Aurobindo Marg, Delhi - DPCC",08-01-2024 19:00:00,28.531346,77.190156,OZONE,3,11,7
India,Delhi,Delhi,"Vivek Vihar, Delhi - DPCC",08-01-2024 19:00:00,28.672342,77.315260,PM10,NA,NA,NA
India,Delhi,Delhi,"Vivek Vihar, Delhi - DPCC",08-01-2024 19:00:00,28.672342,77.315260,SO2,NA,NA,NA
India,Delhi,Delhi,"Wazirpur, Delhi - DPCC",08-01-2024 19:00:00,28.699793,77.165453,PM10,272,460,382
India,Delhi,Delhi,"Wazirpur, Delhi - DPCC",08-01-2024 19:00:00,28.699793,77.165453,SO2,20,65,36
India,Delhi,Delhi,"Wazirpur, Delhi - DPCC",08-01-2024 19:00:00,28.699793,77.165453,OZONE,12,33,23
India,Gujarat,Ahmedabad,"Gyaspur, Ahmedabad - IITM",08-01-2024 19:00:00,22.977134,72.553024,SO2,3,5,5
India,Gujarat,Ahmedabad,"Maninagar, Ahmedabad - GPCB",08-01-2024 19:00:00,23.002657,72.591912,PM10,83,124,104
India,Gujarat,Ahmedabad,"Maninagar, Ahmedabad - GPCB",08-01-2024 19:00:00,23.002657,72.591912,CO,18,32,23
India,Gujarat,Ahmedabad,"Raikhad, Ahmedabad - IITM",08-01-2024 19:00:00,23.020509,72.579261,NO2,9,18,16
India,Gujarat,Ahmedabad,"Rakhial, Ahmedabad - IITM",08-01-2024 19:00:00,23.016834,72.625775,PM10,77,152,106
India,Gujarat,Ahmedabad,"Rakhial, Ahmedabad - IITM",08-01-2024 19:00:00,23.016834,72.625775,NH3,5,7,6
India,Gujarat,Ahmedabad,"Rakhial, Ahmedabad - IITM",08-01-2024 19:00:00,23.016834,72.625775,OZONE,10,29,20
India,Gujarat,Ahmedabad,"SAC ISRO Bopal, Ahmedabad - IITM",08-01-2024 19:00:00,23.041137,72.456691,NH3,4,5,5
India,Gujarat,Ahmedabad,"SAC ISRO Bopal, Ahmedabad - IITM",08-01-2024 19:00:00,23.041137,72.456691,OZONE,2,12,11
India,Gujarat,Ahmedabad,"SAC ISRO Satellite, Ahmedabad - IITM",08-01-2024 19:00:00,23.023389,72.515201,NO2,12,15,13
India,Gujarat,Ahmedabad,"SAC ISRO Satellite, Ahmedabad - IITM",08-01-2024 19:00:00,23.023389,72.515201,NH3,2,4,3
India,Gujarat,Ahmedabad,"SVPI Airport Hansol, Ahmedabad - IITM",08-01-2024 19:00:00,23.076793,72.627874,NH3,4,4,4
India,Gujarat,Ahmedabad,"Sardar Vallabhbhai Patel Stadium, Ahmedabad - IITM",08-01-2024 19:00:00,23.043070,72.562968,NO2,12,14,13
India,Gujarat,Ankleshwar,"GIDC, Ankleshwar - GPCB",08-01-2024 19:00:00,21.613267,73.010555,SO2,21,118,48
India,Gujarat,Gandhinagar,"GIFT City, Gandhinagar - IITM",08-01-2024 19:00:00,23.163798,72.677768,PM10,49,102,83
India,Gujarat,Gandhinagar,"GIFT City, Gandhinagar - IITM",08-01-2024 19:00:00,23.163798,72.677768,OZONE,9,19,15
India,Gujarat,Gandhinagar,"IIPHG Lekawada, Gandhinagar - IITM",08-01-2024 19:00:00,23.243639,72.68994,PM2.5,58,167,125
India,Gujarat,Gandhinagar,"IIPHG Lekawada, Gandhinagar - IITM",08-01-2024 19:00:00,23.243639,72.68994,NH3,3,6,4
India,Gujarat,Gandhinagar,"Sector-10, Gandhinagar - GPCB",08-01-2024 19:00:00,23.221714,72.654328,PM2.5,NA,NA,NA
India,Gujarat,Gandhinagar,"Sector-10, Gandhinagar - GPCB",08-01-2024 19:00:00,23.221714,72.654328,NH3,NA,NA,NA
India,Gujarat,Gandhinagar,"Sector-10, Gandhinagar - GPCB",08-01-2024 19:00:00,23.221714,72.654328,CO,10,20,20
India,Gujarat,Gandhinagar,"Sector-10, Gandhinagar - GPCB",08-01-2024 19:00:00,23.221714,72.654328,OZONE,2,36,22
India,Gujarat,Surat,"Science Center, Surat - SMC",08-01-2024 19:00:00,21.170046,72.795405,PM2.5,44,126,86
India,Gujarat,Surat,"Science Center, Surat - SMC",08-01-2024 19:00:00,21.170046,72.795405,NO2,7,26,12
India,Gujarat,Surat,"Science Center, Surat - SMC",08-01-2024 19:00:00,21.170046,72.795405,SO2,12,17,14
India,Gujarat,Vapi,"Phase-1 GIDC, Vapi - GPCB",08-01-2024 19:00:00,20.362421,72.918013,SO2,41,51,49
India,Haryana,Ambala,"Patti Mehar, Ambala - HSPCB",08-01-2024 19:00:00,30.379589,76.778328,PM2.5,22,88,45
India,Haryana,Ambala,"Patti Mehar, Ambala - HSPCB",08-01-2024 19:00:00,30.379589,76.778328,PM10,25,131,51
India,Haryana,Bahadurgarh,"Arya Nagar, Bahadurgarh - HSPCB",08-01-2024 19:00:00,28.6701,76.9254,PM2.5,253,346,310
India,Haryana,Bahadurgarh,"Arya Nagar, Bahadurgarh - HSPCB",08-01-2024 19:00:00,28.6701,76.9254,NO2,31,40,37
India,Haryana,Bahadurgarh,"Arya Nagar, Bahadurgarh - HSPCB",08-01-2024 19:00:00,28.6701,76.9254,CO,42,56,49
India,Haryana,Ballabgarh,"Nathu Colony, Ballabgarh - HSPCB",08-01-2024 19:00:00,28.3419248,77.319699,CO,53,94,66
India,Haryana,Ballabgarh,"Nathu Colony, Ballabgarh - HSPCB",08-01-2024 19:00:00,28.3419248,77.319699,OZONE,5,15,10
India,Haryana,Charkhi Dadri,"Mini Secretariat, Charkhi Dadri - HSPCB",08-01-2024 19:00:00,28.593883,76.270653,NO2,3,21,11
India,Haryana,Dharuhera,"Municipal Corporation Office, Dharuhera -  HSPCB",08-01-2024 19:00:00,28.206800,76.799700,PM2.5,110,325,239
India,Haryana,Faridabad,"New Industrial Town, Faridabad - HSPCB",08-01-2024 19:00:00,28.39072,77.30059,PM10,272,500,347
India,Haryana,Faridabad,"Sector 11, Faridabad - HSPCB",08-01-2024 19:00:00,28.376058,77.315741,SO2,17,19,19
India,Haryana,Faridabad,"Sector 30, Faridabad - HSPCB",08-01-2024 19:00:00,28.4417,77.3217,PM10,137,154,141
India,Haryana,Faridabad,"Sector- 16A, Faridabad - HSPCB",08-01-2024 19:00:00,28.4088421,77.3099081,CO,26,80,47
India,Haryana,Fatehabad,"Huda Sector, Fatehabad - HSPCB",08-01-2024 19:00:00,29.503664,75.467934,PM2.5,48,190,96
India,Haryana,Gurugram,"Sector-51, Gurugram - HSPCB",08-01-2024 19:00:00,28.4227,77.0667,CO,64,111,100
India,Haryana,Gurugram,"Teri Gram, Gurugram - HSPCB",08-01-2024 19:00:00,28.4275,77.1465,NO2,2,59,24
India,Haryana,Gurugram,"Teri Gram, Gurugram - HSPCB",08-01-2024 19:00:00,28.4275,77.1465,OZONE,11,18,16
India,Haryana,Gurugram,"Vikas Sadan, Gurugram - HSPCB",08-01-2024 19:00:00,28.4501238,77.0263051,CO,54,139,100
India,Haryana,Hisar,"Urban Estate-II, Hisar - HSPCB",08-01-2024 19:00:00,29.140560,75.744941,CO,100,108,104
India,Haryana,Jind,"Police Lines, Jind - HSPCB",08-01-2024 19:00:00,29.307814,76.337619,PM2.5,NA,NA,NA
India,Haryana,Kaithal,"Rishi Nagar, Kaithal - HSPCB",08-01-2024 19:00:00,29.8006,76.4155,CO,2,48,22
India,Haryana,Kaithal,"Rishi Nagar, Kaithal - HSPCB",08-01-2024 19:00:00,29.8006,76.4155,OZONE,5,19,9
India,Haryana,Karnal,"Sector-12, Karnal - HSPCB",08-01-2024 19:00:00,29.695300,77.002700,PM2.5,25,89,50
India,Haryana,Kurukshetra,"Sector-7, Kurukshetra - HSPCB",08-01-2024 19:00:00,29.966942,76.875879,NH3,2,6,5
India,Haryana,Manesar,"Sector-2 IMT, Manesar - HSPCB",08-01-2024 19:00:00,28.360699,76.936090,PM2.5,144,339,270
India,Haryana,Narnaul,"Shastri Nagar, Narnaul - HSPCB",08-01-2024 19:00:00,28.060249,76.113115,NO2,16,47,33
India,Haryana,Narnaul,"Shastri Nagar, Narnaul - HSPCB",08-01-2024 19:00:00,28.060249,76.113115,CO,11,30,19
India,Haryana,Panipat,"Sector-18, Panipat - HSPCB",08-01-2024 19:00:00,29.497973,76.993331,PM2.5,129,176,139
India,Haryana,Panipat,"Sector-18, Panipat - HSPCB",08-01-2024 19:00:00,29.497973,76.993331,NO2,26,33,30
India,Haryana,Panipat,"Sector-18, Panipat - HSPCB",08-01-2024 19:00:00,29.497973,76.993331,NH3,2,3,2
India,Haryana,Panipat,"Sector-18, Panipat - HSPCB",08-01-2024 19:00:00,29.497973,76.993331,CO,22,28,24
