country,state,city,station,last_update,latitude,longitude,pollutant_id,pollutant_min,pollutant_max,pollutant_avg
India,Andhra_Pradesh,Anantapur,"Gulzarpet, Anantapur - APPCB",08-01-2024 20:00:00,14.675886,77.593027,NO2,8,27,14
India,Andhra_Pradesh,Chittoor,"Gangineni Cheruvu, Chittoor - APPCB",08-01-2024 20:00:00,13.204880,79.097889,PM10,14,34,25
India,Andhra_Pradesh,Chittoor,"Gangineni Cheruvu, Chittoor - APPCB",08-01-2024 20:00:00,13.204880,79.097889,SO2,3,9,6
India,Andhra_Pradesh,Kadapa,"Yerramukkapalli, Kadapa - APPCB",08-01-2024 20:00:00,14.465052,78.824187,PM10,30,130,61
India,Andhra_Pradesh,Rajamahendravaram,"Anand Kala Kshetram, Rajamahendravaram - APPCB",08-01-2024 20:00:00,16.9872867,81.7363176,PM2.5,93,261,183
India,Andhra_Pradesh,Rajamahendravaram,"Anand Kala Kshetram, Rajamahendravaram - APPCB",08-01-2024 20:00:00,16.9872867,81.7363176,NO2,14,47,29
India,Andhra_Pradesh,Tirupati,"Tirumala, Tirupati - APPCB",08-01-2024 20:00:00,13.67,79.35,NO2,30,48,39
India,Andhra_Pradesh,Tirupati,"Tirumala, Tirupati - APPCB",08-01-2024 20:00:00,13.67,79.35,SO2,4,7,5
India,Andhra_Pradesh,Tirupati,"Tirumala, Tirupati - APPCB",08-01-2024 20:00:00,13.67,79.35,OZONE,27,46,34
India,Andhra_Pradesh,Tirupati,"Vaikuntapuram, Tirupati - APPCB",08-01-2024 20:00:00,13.615387,79.409230,PM10,NA,NA,NA
India,Andhra_Pradesh,Tirupati,"Vaikuntapuram, Tirupati - APPCB",08-01-2024 20:00:00,13.615387,79.409230,SO2,NA,NA,NA
India,Andhra_Pradesh,Vijayawada,"HB Colony, Vijayawada - APPCB",08-01-2024 20:00:00,16.536107,80.594233,PM2.5,49,79,58
India,Andhra_Pradesh,Vijayawada,"HB Colony, Vijayawada - APPCB",08-01-2024 20:00:00,16.536107,80.594233,PM10,43,90,58
India,Andhra_Pradesh,Vijayawada,"Rajiv Gandhi Park, Vijayawada - APPCB",08-01-2024 20:00:00,16.509717,80.612222,PM2.5,52,78,66
India,Andhra_Pradesh,Vijayawada,"Rajiv Gandhi Park, Vijayawada - APPCB",08-01-2024 20:00:00,16.509717,80.612222,NH3,5,8,7
India,Andhra_Pradesh,Vijayawada,"Rajiv Gandhi Park, Vijayawada - APPCB",08-01-2024 20:00:00,16.509717,80.612222,SO2,5,23,14
India,Andhra_Pradesh,Vijayawada,"Rajiv Gandhi Park, Vijayawada - APPCB",08-01-2024 20:00:00,16.509717,80.612222,OZONE,26,70,61
India,Andhra_Pradesh,Visakhapatnam,"GVM Corporation, Visakhapatnam - APPCB",08-01-2024 20:00:00,17.72,83.3,PM2.5,200,302,235
India,Andhra_Pradesh,Visakhapatnam,"GVM Corporation, Visakhapatnam - APPCB",08-01-2024 20:00:00,17.72,83.3,PM10,129,168,143
India,Andhra_Pradesh,Visakhapatnam,"GVM Corporation, Visakhapatnam - APPCB",08-01-2024 20:00:00,17.72,83.3,NH3,1,4,2
India,Andhra_Pradesh,Visakhapatnam,"GVM Corporation, Visakhapatnam - APPCB",08-01-2024 20:00:00,17.72,83.3,SO2,8,28,14
India,Arunachal_Pradesh,Naharlagun,"Naharlagun, Naharlagun - APSPCB",08-01-2024 20:00:00,27.103358,93.679645,NO2,2,2,2
India,Arunachal_Pradesh,Naharlagun,"Naharlagun, Naharlagun - APSPCB",08-01-2024 20:00:00,27.103358,93.679645,SO2,3,3,3
India,Arunachal_Pradesh,Naharlagun,"Naharlagun, Naharlagun - APSPCB",08-01-2024 20:00:00,27.103358,93.679645,OZONE,2,2,2
India,Assam,Guwahati,"IITG, Guwahati - PCBA",08-01-2024 20:00:00,26.2028636,91.70046436,PM2.5,83,370,209
India,Assam,Guwahati,"LGBI Airport, Guwahati - PCBA",08-01-2024 20:00:00,26.10887,91.589544,NH3,1,7,3
India,Assam,Guwahati,"Pan Bazaar, Guwahati - PCBA",08-01-2024 20:00:00,26.187500,91.744194,PM2.5,84,377,234
India,Assam,Guwahati,"Railway Colony, Guwahati - PCBA",08-01-2024 20:00:00,26.181742,91.78063,PM10,NA,NA,NA
India,Assam,Guwahati,"Railway Colony, Guwahati - PCBA",08-01-2024 20:00:00,26.181742,91.78063,OZONE,11,54,31
India,Assam,Nagaon,"Christianpatty, Nagaon - PCBA",08-01-2024 20:00:00,26.349082,92.68449,PM10,74,434,179
India,Assam,Nalbari,"Bata Chowk, Nalbari - PCBA",08-01-2024 20:00:00,26.446912,91.439057,PM2.5,153,500,372
India,Assam,Nalbari,"Bata Chowk, Nalbari - PCBA",08-01-2024 20:00:00,26.446912,91.439057,NO2,47,76,61
India,Assam,Nalbari,"Bata Chowk, Nalbari - PCBA",08-01-2024 20:00:00,26.446912,91.439057,SO2,3,26,11
India,Assam,Nalbari,"Bata Chowk, Nalbari - PCBA",08-01-2024 20:00:00,26.446912,91.439057,OZONE,18,21,20
India,Assam,Silchar,"Tarapur, Silchar - PCBA",08-01-2024 20:00:00,24.82827,92.79525,CO,18,36,21
India,Bihar,Araria,"Kharahiya Basti, Araria - BSPCB",08-01-2024 20:00:00,26.146529,87.454184,NO2,6,12,7
India,Bihar,Araria,"Kharahiya Basti, Araria - BSPCB",08-01-2024 20:00:00,26.146529,87.454184,OZONE,10,33,18
India,Bihar,Arrah,"New DM Office, Arrah - BSPCB",08-01-2024 20:00:00,25.5626095,84.663264,SO2,6,22,17
India,Bihar,Aurangabad,"Gurdeo Nagar, Aurangabad - BSPCB",08-01-2024 20:00:00,24.75746,84.366208,NH3,7,47,12
India,Bihar,Aurangabad,"Gurdeo Nagar, Aurangabad - BSPCB",08-01-2024 20:00:00,24.75746,84.366208,CO,32,118,50
India,Bihar,Bettiah,"Kamalnath Nagar, Bettiah - BSPCB",08-01-2024 20:00:00,26.80365,84.51954,SO2,10,20,15
India,Bihar,Bhagalpur,"DM Office_Kachari Chowk, Bhagalpur - BSPCB",08-01-2024 20:00:00,25.251013,86.989001,PM2.5,312,368,346
India,Bihar,Bhagalpur,"DM Office_Kachari Chowk, Bhagalpur - BSPCB",08-01-2024 20:00:00,25.251013,86.989001,NO2,22,63,38
India,Bihar,Bhagalpur,"DM Office_Kachari Chowk, Bhagalpur - BSPCB",08-01-2024 20:00:00,25.251013,86.989001,CO,41,70,61
India,Bihar,Bhagalpur,"Mayaganj, Bhagalpur - BSPCB",08-01-2024 20:00:00,25.265194,87.012947,PM2.5,273,500,346
India,Bihar,Bihar Sharif,"D M Colony, Bihar Sharif - BSPCB",08-01-2024 20:00:00,25.204762,85.514960,PM2.5,NA,NA,NA
India,Bihar,Bihar Sharif,"D M Colony, Bihar Sharif - BSPCB",08-01-2024 20:00:00,25.204762,85.514960,NO2,9,10,9
India,Bihar,Chhapra,"Darshan Nagar, Chhapra - BSPCB",08-01-2024 20:00:00,25.7808257,84.7446768,PM10,105,241,173
India,Bihar,Chhapra,"Darshan Nagar, Chhapra - BSPCB",08-01-2024 20:00:00,25.7808257,84.7446768,NH3,2,2,2
India,Bihar,Gaya,"Collectorate, Gaya - BSPCB",08-01-2024 20:00:00,24.7955,84.9994,PM2.5,118,346,233
India,Bihar,Gaya,"Kareemganj, Gaya - BSPCB",08-01-2024 20:00:00,24.792403,84.992416,PM2.5,23,78,52
India,Bihar,Gaya,"Kareemganj, Gaya - BSPCB",08-01-2024 20:00:00,24.792403,84.992416,NO2,30,31,30
India,Bihar,Gaya,"Kareemganj, Gaya - BSPCB",08-01-2024 20:00:00,24.792403,84.992416,CO,12,102,46
India,Bihar,Gaya,"SFTI Kusdihra, Gaya - BSPCB",08-01-2024 20:00:00,24.762518,84.982348,NO2,17,37,24
India,Bihar,Gaya,"SFTI Kusdihra, Gaya - BSPCB",08-01-2024 20:00:00,24.762518,84.982348,NH3,4,6,5
India,Bihar,Gaya,"SFTI Kusdihra, Gaya - BSPCB",08-01-2024 20:00:00,24.762518,84.982348,CO,40,101,58
India,Bihar,Gaya,"SFTI Kusdihra, Gaya - BSPCB",08-01-2024 20:00:00,24.762518,84.982348,OZONE,6,55,38
India,Bihar,Hajipur,"Industrial Area, Hajipur - BSPCB",08-01-2024 20:00:00,25.697189,85.245900,CO,56,76,65
India,Bihar,Katihar,"Mirchaibari, Katihar - BSPCB",08-01-2024 20:00:00,25.560083,87.553265,PM10,119,204,156
India,Bihar,Kishanganj,"SDM Office_Khagra, Kishanganj - BSPCB",08-01-2024 20:00:00,26.0881305,87.93840336,PM2.5,12,83,44
India,Bihar,Kishanganj,"SDM Office_Khagra, Kishanganj - BSPCB",08-01-2024 20:00:00,26.0881305,87.93840336,PM10,179,298,215
India,Bihar,Kishanganj,"SDM Office_Khagra, Kishanganj - BSPCB",08-01-2024 20:00:00,26.0881305,87.93840336,SO2,11,25,19
India,Bihar,Motihari,"Gandak Colony, Motihari - BSPCB",08-01-2024 20:00:00,26.63086,84.90051,PM10,85,171,120
India,Bihar,Motihari,"Gandak Colony, Motihari - BSPCB",08-01-2024 20:00:00,26.63086,84.90051,NH3,9,16,13
India,Bihar,Motihari,"Gandak Colony, Motihari - BSPCB",08-01-2024 20:00:00,26.63086,84.90051,SO2,2,8,5
India,Bihar,Muzaffarpur,"Buddha Colony, Muzaffarpur - BSPCB",08-01-2024 20:00:00,26.11442,85.39813,NO2,NA,NA,NA
India,Bihar,Muzaffarpur,"MIT-Daudpur Kothi, Muzaffarpur - BSPCB",08-01-2024 20:00:00,26.1403345,85.3650192,CO,83,106,98
India,Bihar,Muzaffarpur,"Muzaffarpur Collectorate, Muzaffarpur - BSPCB",08-01-2024 20:00:00,26.1209,85.3647,CO,16,64,45
India,Bihar,Patna,"DRM Office Danapur, Patna - BSPCB",08-01-2024 20:00:00,25.586562,85.043586,SO2,6,9,7
India,Bihar,Patna,"Govt. High School Shikarpur, Patna - BSPCB",08-01-2024 20:00:00,25.592539,85.227158,PM10,109,151,128
India,Bihar,Patna,"Govt. High School Shikarpur, Patna - BSPCB",08-01-2024 20:00:00,25.592539,85.227158,NH3,3,6,4
India,Bihar,Patna,"Muradpur, Patna - BSPCB",08-01-2024 20:00:00,25.619651,85.147382,PM10,NA,NA,NA
India,Bihar,Purnia,"Mariam Nagar, Purnia - BSPCB",08-01-2024 20:00:00,25.366336,87.117468,OZONE,10,23,15
India,Bihar,Rajgir,"Dangi Tola, Rajgir - BSPCB",08-01-2024 20:00:00,25.03280,85.41948,NH3,1,6,2
India,Bihar,Rajgir,"Dangi Tola, Rajgir - BSPCB",08-01-2024 20:00:00,25.03280,85.41948,OZONE,22,29,24
India,Bihar,Saharsa,"Police Line, Saharsa - BSPCB",08-01-2024 20:00:00,25.892357,86.590325,PM2.5,193,364,294
India,Bihar,Saharsa,"Police Line, Saharsa - BSPCB",08-01-2024 20:00:00,25.892357,86.590325,SO2,18,18,18
India,Bihar,Samastipur,"DM Office_Kasipur, Samastipur - BSPCB",08-01-2024 20:00:00,25.859655,85.77944,PM2.5,NA,NA,NA
India,Bihar,Samastipur,"DM Office_Kasipur, Samastipur - BSPCB",08-01-2024 20:00:00,25.859655,85.77944,PM10,NA,NA,NA
India,Bihar,Samastipur,"DM Office_Kasipur, Samastipur - BSPCB",08-01-2024 20:00:00,25.859655,85.77944,CO,10,36,26
India,Bihar,Samastipur,"DM Office_Kasipur, Samastipur - BSPCB",08-01-2024 20:00:00,25.859655,85.77944,OZONE,5,7,6
India,Bihar,Siwan,"Chitragupta Nagar, Siwan - BSPCB",08-01-2024 20:00:00,26.2271665,84.3570427,OZONE,5,80,52
India,Chandigarh,Chandigarh,"Sector 22, Chandigarh - CPCC",08-01-2024 20:00:00,30.735567,76.775714,NH3,5,11,8
India,Chandigarh,Chandigarh,"Sector 22, Chandigarh - CPCC",08-01-2024 20:00:00,30.735567,76.775714,OZONE,3,56,24
India,Chandigarh,Chandigarh,"Sector-25, Chandigarh - CPCC",08-01-2024 20:00:00,30.751462,76.762879,SO2,7,12,9
India,Chandigarh,Chandigarh,"Sector-53, Chandigarh - CPCC",08-01-2024 20:00:00,30.719859,76.738637,NO2,6,14,10
India,Chandigarh,Chandigarh,"Sector-53, Chandigarh - CPCC",08-01-2024 20:00:00,30.719859,76.738637,NH3,5,9,7
India,Chhattisgarh,Bhilai,"32Bungalows, Bhilai - CECB",08-01-2024 20:00:00,21.194815,81.314770,NO2,18,29,23
India,Chhattisgarh,Bhilai,"Civic Center, Bhilai - Bhilai Steel Plant",08-01-2024 20:00:00,21.185571,81.343175,SO2,NA,NA,NA
India,Chhattisgarh,Bilaspur,"Mangala, Bilaspur - NTPC",08-01-2024 20:00:00,22.08815,82.13737,CO,32,40,34
India,Chhattisgarh,Korba,"Rampur, Korba - CECB",08-01-2024 20:00:00,22.368195,82.746431,NH3,NA,NA,NA
India,Chhattisgarh,Korba,"Rampur, Korba - CECB",08-01-2024 20:00:00,22.368195,82.746431,CO,30,45,37
India,Chhattisgarh,Korba,"Urja Nagar, Korba - CECB",08-01-2024 20:00:00,22.348441,82.549611,PM10,53,75,64
India,Chhattisgarh,Kunjemura,"OP Jindal School, Kunjemura - CECB",08-01-2024 20:00:00,22.126650,83.483212,PM2.5,69,124,86
India,Chhattisgarh,Milupara,"Govt. Higher Secondary School, Milupara - CECB",08-01-2024 20:00:00,22.1910172,83.5197009,CO,34,58,43
India,Chhattisgarh,Raipur,"AIIMS, Raipur - CECB",08-01-2024 20:00:00,21.258815,81.578979,SO2,5,77,20
India,Chhattisgarh,Raipur,"AIIMS, Raipur - CECB",08-01-2024 20:00:00,21.258815,81.578979,OZONE,1,51,22
India,Chhattisgarh,Raipur,"Krishak Nagar, Raipur - CECB",08-01-2024 20:00:00,21.237755,81.705301,PM10,68,163,106
India,Chhattisgarh,Raipur,"Siltara Phase-II, Raipur - CECB",08-01-2024 20:00:00,21.371751,81.664929,OZONE,3,4,3
India,Chhattisgarh,Tumidih,"OP Jindal Industrial Park, Tumidih - CECB",08-01-2024 20:00:00,22.06631475,83.33820077,PM2.5,NA,NA,NA
India,Chhattisgarh,Tumidih,"OP Jindal Industrial Park, Tumidih - CECB",08-01-2024 20:00:00,22.06631475,83.33820077,PM10,NA,NA,NA
India,Delhi,Delhi,"Anand Vihar, Delhi - DPCC",08-01-2024 20:00:00,28.647622,77.3158090,NO2,40,159,91
India,Delhi,Delhi,"Anand Vihar, Delhi - DPCC",08-01-2024 20:00:00,28.647622,77.3158090,NH3,4,9,7
India,Delhi,Delhi,"Ashok Vihar, Delhi - DPCC",08-01-2024 20:00:00,28.695381,77.181665,PM2.5,309,430,370
India,Delhi,Delhi,"Ashok Vihar, Delhi - DPCC",08-01-2024 20:00:00,28.695381,77.181665,PM10,260,451,370
India,Delhi,Delhi,"Bawana, Delhi - DPCC",08-01-2024 20:00:00,28.776200,77.051074,PM10,224,387,303
India,Delhi,Delhi,"Bawana, Delhi - DPCC",08-01-2024 20:00:00,28.776200,77.051074,NO2,22,50,34
India,Delhi,Delhi,"Bawana, Delhi - DPCC",08-01-2024 20:00:00,28.776200,77.051074,SO2,4,13,8
India,Delhi,Delhi,"Bawana, Delhi - DPCC",08-01-2024 20:00:00,28.776200,77.051074,OZONE,4,30,16
India,Delhi,Delhi,"CRRI Mathura Road, Delhi - IMD",08-01-2024 20:00:00,28.5512005,77.2735737,NO2,23,27,25
India,Delhi,Delhi,"CRRI Mathura Road, Delhi - IMD",08-01-2024 20:00:00,28.5512005,77.2735737,OZONE,34,50,43
India,Delhi,Delhi,"DTU, Delhi - CPCB",08-01-2024 20:00:00,28.7500499,77.1112615,CO,35,55,39
India,Delhi,Delhi,"Dr. Karni Singh Shooting Range, Delhi - DPCC",08-01-2024 20:00:00,28.498571,77.264840,PM10,204,480,335
India,Delhi,Delhi,"Dr. Karni Singh Shooting Range, Delhi - DPCC",08-01-2024 20:00:00,28.498571,77.264840,NO2,52,139,86
India,Delhi,Delhi,"Dwarka-Sector 8, Delhi - DPCC ",08-01-2024 20:00:00,28.5710274,77.0719006,CO,62,111,82
India,Delhi,Delhi,"IGI Airport (T3), Delhi - IMD",08-01-2024 20:00:00,28.5627763,77.1180053,PM2.5,290,448,353
India,Delhi,Delhi,"IGI Airport (T3), Delhi - IMD",08-01-2024 20:00:00,28.5627763,77.1180053,PM10,157,452,292
India,Delhi,Delhi,"IGI Airport (T3), Delhi - IMD",08-01-2024 20:00:00,28.5627763,77.1180053,OZONE,16,30,24
India,Delhi,Delhi,"IHBAS, Dilshad Garden, Delhi - CPCB",08-01-2024 20:00:00,28.6811736,77.3025234,NH3,6,9,8
India,Delhi,Delhi,"ITO, Delhi - CPCB",08-01-2024 20:00:00,28.628624,77.241060,NO2,20,49,28
India,Delhi,Delhi,"Jahangirpuri, Delhi - DPCC",08-01-2024 20:00:00,28.732820,77.170633,NH3,7,9,8
India,Delhi,Delhi,"Jahangirpuri, Delhi - DPCC",08-01-2024 20:00:00,28.732820,77.170633,OZONE,8,16,11
India,Delhi,Delhi,"Jawaharlal Nehru Stadium, Delhi - DPCC",08-01-2024 20:00:00,28.580280,77.233829,OZONE,3,34,21
India,Delhi,Delhi,"Lodhi Road, Delhi - IMD",08-01-2024 20:00:00,28.5918245,77.2273074,PM2.5,200,440,324
India,Delhi,Delhi,"Lodhi Road, Delhi - IMD",08-01-2024 20:00:00,28.5918245,77.2273074,NO2,14,15,14
India,Delhi,Delhi,"Mundka, Delhi - DPCC",08-01-2024 20:00:00,28.684678,77.076574,PM10,199,424,296
India,Delhi,Delhi,"NSIT Dwarka, Delhi - CPCB",08-01-2024 20:00:00,28.60909,77.0325413,SO2,10,17,12
India,Delhi,Delhi,"Najafgarh, Delhi - DPCC",08-01-2024 20:00:00,28.570173,76.933762,OZONE,1,54,34
India,Delhi,Delhi,"Narela, Delhi - DPCC",08-01-2024 20:00:00,28.822836,77.101981,PM10,229,410,304
India,Delhi,Delhi,"Narela, Delhi - DPCC",08-01-2024 20:00:00,28.822836,77.101981,NH3,3,11,8
India,Delhi,Delhi,"Nehru Nagar, Delhi - DPCC",08-01-2024 20:00:00,28.567890,77.250515,PM2.5,321,500,411
India,Delhi,Delhi,"Nehru Nagar, Delhi - DPCC",08-01-2024 20:00:00,28.567890,77.250515,NO2,50,91,66
India,Delhi,Delhi,"North Campus, DU, Delhi - IMD",08-01-2024 20:00:00,28.6573814,77.1585447,NO2,33,85,55
India,Delhi,Delhi,"Okhla Phase-2, Delhi - DPCC",08-01-2024 20:00:00,28.530785,77.271255,PM10,224,500,354
India,Delhi,Delhi,"Okhla Phase-2, Delhi - DPCC",08-01-2024 20:00:00,28.530785,77.271255,NO2,72,158,103
India,Delhi,Delhi,"Okhla Phase-2, Delhi - DPCC",08-01-2024 20:00:00,28.530785,77.271255,OZONE,7,18,12
India,Delhi,Delhi,"Patparganj, Delhi - DPCC",08-01-2024 20:00:00,28.623763,77.287209,CO,18,112,71
India,Delhi,Delhi,"Punjabi Bagh, Delhi - DPCC",08-01-2024 20:00:00,28.674045,77.131023,CO,49,77,66
India,Delhi,Delhi,"Pusa, Delhi - DPCC",08-01-2024 20:00:00,28.639652,77.146275,PM2.5,307,480,376
India,Delhi,Delhi,"Pusa, Delhi - DPCC",08-01-2024 20:00:00,28.639652,77.146275,PM10,211,499,367
India,Delhi,Delhi,"R K Puram, Delhi - DPCC",08-01-2024 20:00:00,28.563262,77.186937,PM2.5,335,485,395
India,Delhi,Delhi,"R K Puram, Delhi - DPCC",08-01-2024 20:00:00,28.563262,77.186937,NH3,1,10,3
India,Delhi,Delhi,"R K Puram, Delhi - DPCC",08-01-2024 20:00:00,28.563262,77.186937,SO2,26,72,30
India,Delhi,Delhi,"Rohini, Delhi - DPCC",08-01-2024 20:00:00,28.732528,77.119920,PM2.5,337,441,385
India,Delhi,Delhi,"Rohini, Delhi - DPCC",08-01-2024 20:00:00,28.732528,77.119920,OZONE,3,63,25
India,Delhi,Delhi,"Shadipur, Delhi - CPCB",08-01-2024 20:00:00,28.6514781,77.1473105,PM10,270,493,369
India,Delhi,Delhi,"Sirifort, Delhi - CPCB",08-01-2024 20:00:00,28.5504249,77.2159377,NH3,NA,NA,NA
India,Delhi,Delhi,"Sirifort, Delhi - CPCB",08-01-2024 20:00:00,28.5504249,77.2159377,CO,30,101,46
India,Delhi,Delhi,"Sri Aurobindo Marg, Delhi - DPCC",08-01-2024 20:00:00,28.531346,77.190156,CO,42,94,60
India,Delhi,Delhi,"Vivek Vihar, Delhi - DPCC",08-01-2024 20:00:00,28.672342,77.315260,PM2.5,NA,NA,NA
India,Delhi,Delhi,"Vivek Vihar, Delhi - DPCC",08-01-2024 20:00:00,28.672342,77.315260,NO2,NA,NA,NA
India,Delhi,Delhi,"Wazirpur, Delhi - DPCC",08-01-2024 20:00:00,28.699793,77.165453,PM10,272,460,382
India,Delhi,Delhi,"Wazirpur, Delhi - DPCC",08-01-2024 20:00:00,28.699793,77.165453,SO2,20,65,37
India,Gujarat,Ahmedabad,"Maninagar, Ahmedabad - GPCB",08-01-2024 20:00:00,23.002657,72.591912,PM10,83,124,104
India,Gujarat,Ahmedabad,"Raikhad, Ahmedabad - IITM",08-01-2024 20:00:00,23.020509,72.579261,PM2.5,74,421,112
India,Gujarat,Ahmedabad,"Rakhial, Ahmedabad - IITM",08-01-2024 20:00:00,23.016834,72.625775,NH3,5,7,6
India,Gujarat,Ahmedabad,"Rakhial, Ahmedabad - IITM",08-01-2024 20:00:00,23.016834,72.625775,SO2,1,5,2
India,Gujarat,Ahmedabad,"SAC ISRO Satellite, Ahmedabad - IITM",08-01-2024 20:00:00,23.023389,72.515201,PM10,76,109,93
India,Gujarat,Ahmedabad,"SAC ISRO Satellite, Ahmedabad - IITM",08-01-2024 20:00:00,23.023389,72.515201,NH3,2,4,3
India,Gujarat,Ahmedabad,"SVPI Airport Hansol, Ahmedabad - IITM",08-01-2024 20:00:00,23.076793,72.627874,PM2.5,69,108,86
India,Gujarat,Ahmedabad,"Sardar Vallabhbhai Patel Stadium, Ahmedabad - IITM",08-01-2024 20:00:00,23.043070,72.562968,NO2,12,14,13
India,Gujarat,Ahmedabad,"Sardar Vallabhbhai Patel Stadium, Ahmedabad - IITM",08-01-2024 20:00:00,23.043070,72.562968,CO,17,50,27
India,Gujarat,Ahmedabad,"Sardar Vallabhbhai Patel Stadium, Ahmedabad - IITM",08-01-2024 20:00:00,23.043070,72.562968,OZONE,4,14,10
India,Gujarat,Ankleshwar,"GIDC, Ankleshwar - GPCB",08-01-2024 20:00:00,21.613267,73.010555,NH3,6,7,7
India,Gujarat,Gandhinagar,"GIFT City, Gandhinagar - IITM",08-01-2024 20:00:00,23.163798,72.677768,PM2.5,57,185,103
India,Gujarat,Gandhinagar,"GIFT City, Gandhinagar - IITM",08-01-2024 20:00:00,23.163798,72.677768,NO2,6,9,7
India,Gujarat,Gandhinagar,"GIFT City, Gandhinagar - IITM",08-01-2024 20:00:00,23.163798,72.677768,NH3,2,2,2
India,Gujarat,Gandhinagar,"GIFT City, Gandhinagar - IITM",08-01-2024 20:00:00,23.163798,72.677768,CO,18,32,28
India,Gujarat,Gandhinagar,"Sector-10, Gandhinagar - GPCB",08-01-2024 20:00:00,23.221714,72.654328,CO,10,20,20
India,Gujarat,Surat,"Science Center, Surat - SMC",08-01-2024 20:00:00,21.170046,72.795405,PM2.5,44,126,86
India,Gujarat,Surat,"Science Center, Surat - SMC",08-01-2024 20:00:00,21.170046,72.795405,CO,62,79,71
India,Gujarat,Vapi,"Phase-1 GIDC, Vapi - GPCB",08-01-2024 20:00:00,20.362421,72.918013,PM10,93,268,162
India,Gujarat,Vapi,"Phase-1 GIDC, Vapi - GPCB",08-01-2024 20:00:00,20.362421,72.918013,NH3,6,6,6
India,Gujarat,Vapi,"Phase-1 GIDC, Vapi - GPCB",08-01-2024 20:00:00,20.362421,72.918013,CO,105,195,122
India,Haryana,Bahadurgarh,"Arya Nagar, Bahadurgarh - HSPCB",08-01-2024 20:00:00,28.6701,76.9254,NO2,31,40,37
India,Haryana,Ballabgarh,"Nathu Colony, Ballabgarh - HSPCB",08-01-2024 20:00:00,28.3419248,77.319699,OZONE,5,15,9
India,Haryana,Bhiwani,"H.B. Colony, Bhiwani - HSPCB",08-01-2024 20:00:00,28.806223,76.141105,PM2.5,61,331,179
India,Haryana,Bhiwani,"H.B. Colony, Bhiwani - HSPCB",08-01-2024 20:00:00,28.806223,76.141105,CO,78,101,93
India,Haryana,Charkhi Dadri,"Mini Secretariat, Charkhi Dadri - HSPCB",08-01-2024 20:00:00,28.593883,76.270653,NO2,3,21,11
India,Haryana,Faridabad,"New Industrial Town, Faridabad - HSPCB",08-01-2024 20:00:00,28.39072,77.30059,PM2.5,337,498,371
India,Haryana,Faridabad,"Sector 11, Faridabad - HSPCB",08-01-2024 20:00:00,28.376058,77.315741,NH3,6,6,6
India,Haryana,Fatehabad,"Huda Sector, Fatehabad - HSPCB",08-01-2024 20:00:00,29.503664,75.467934,PM2.5,48,205,96
India,Haryana,Gurugram,"Sector-51, Gurugram - HSPCB",08-01-2024 20:00:00,28.4227,77.0667,PM2.5,114,421,284
India,Haryana,Gurugram,"Teri Gram, Gurugram - HSPCB",08-01-2024 20:00:00,28.4275,77.1465,PM10,128,333,161
India,Haryana,Hisar,"Urban Estate-II, Hisar - HSPCB",08-01-2024 20:00:00,29.140560,75.744941,NH3,3,4,3
India,Haryana,Hisar,"Urban Estate-II, Hisar - HSPCB",08-01-2024 20:00:00,29.140560,75.744941,SO2,28,77,50
India,Haryana,Jind,"Police Lines, Jind - HSPCB",08-01-2024 20:00:00,29.307814,76.337619,PM2.5,NA,NA,NA
India,Haryana,Jind,"Police Lines, Jind - HSPCB",08-01-2024 20:00:00,29.307814,76.337619,NH3,NA,NA,NA
India,Haryana,Kaithal,"Rishi Nagar, Kaithal - HSPCB",08-01-2024 20:00:00,29.8006,76.4155,OZONE,5,19,9
India,Haryana,Karnal,"Sector-12, Karnal - HSPCB",08-01-2024 20:00:00,29.695300,77.002700,PM2.5,25,89,50
India,Haryana,Karnal,"Sector-12, Karnal - HSPCB",08-01-2024 20:00:00,29.695300,77.002700,NO2,7,12,10
India,Haryana,Kurukshetra,"Sector-7, Kurukshetra - HSPCB",08-01-2024 20:00:00,29.966942,76.875879,PM2.5,50,116,72
India,Haryana,Kurukshetra,"Sector-7, Kurukshetra - HSPCB",08-01-2024 20:00:00,29.966942,76.875879,CO,3,38,25
India,Haryana,Mandikhera,"General Hospital, Mandikhera - HSPCB",08-01-2024 20:00:00,27.9002,76.9938,OZONE,21,30,26
India,Haryana,Manesar,"Sector-2 IMT, Manesar - HSPCB",08-01-2024 20:00:00,28.360699,76.936090,NO2,16,24,19
India,Haryana,Palwal,"Shyam Nagar, Palwal - HSPCB",08-01-2024 20:00:00,28.1485564,77.3320667,PM10,88,150,119
India,Haryana,Palwal,"Shyam Nagar, Palwal - HSPCB",08-01-2024 20:00:00,28.1485564,77.3320667,CO,12,24,20
India,Haryana,Palwal,"Shyam Nagar, Palwal - HSPCB",08-01-2024 20:00:00,28.1485564,77.3320667,OZONE,1,6,2
India,Haryana,Panchkula,"Sector-6, Panchkula - HSPCB ",08-01-2024 20:00:00,30.7057778,76.8531805555555,NO2,27,31,29
India,Haryana,Panipat,"Sector-18, Panipat - HSPCB",08-01-2024 20:00:00,29.497973,76.993331,CO,22,28,24
India,Haryana,Rohtak,"MD University, Rohtak - HSPCB",08-01-2024 20:00:00,28.52123,76.37138,OZONE,35,42,39
India,Haryana,Sirsa,"F-Block, Sirsa - HSPCB",08-01-2024 20:00:00,29.536400,75.015800,PM2.5,66,169,100
India,Haryana,Sirsa,"F-Block, Sirsa - HSPCB",08-01-2024 20:00:00,29.536400,75.015800,NO2,9,10,10
India,Haryana,Sirsa,"F-Block, Sirsa - HSPCB",08-01-2024 20:00:00,29.536400,75.015800,SO2,1,12,6
India,Haryana,Sirsa,"F-Block, Sirsa - HSPCB",08-01-2024 20:00:00,29.536400,75.015800,OZONE,16,21,20
India,Haryana,Sonipat,"Murthal, Sonipat - HSPCB",08-01-2024 20:00:00,29.027200,77.062100,PM10,124,470,185
India,Haryana,Sonipat,"Murthal, Sonipat - HSPCB",08-01-2024 20:00:00,29.027200,77.062100,SO2,12,29,20
India,Haryana,Sonipat,"Murthal, Sonipat - HSPCB",08-01-2024 20:00:00,29.027200,77.062100,OZONE,17,36,35
India,Haryana,Yamuna Nagar,"Gobind Pura, Yamuna Nagar - HSPCB",08-01-2024 20:00:00,30.1480566,77.2893471,CO,27,105,85
India,Himachal Pradesh,Baddi,"HIMUDA Complex Phase-1, Baddi - HPPCB",08-01-2024 20:00:00,30.943887,76.801991,PM2.5,NA,NA,NA
India,Jharkhand,Dhanbad,"Sardar Patel Nagar, Dhanbad - JSPCB",08-01-2024 20:00:00,23.80569,86.44268,PM10,NA,NA,NA
India,Jharkhand,Pathardih,"Mohalbani Ghat, Pathardih - DMC",08-01-2024 20:00:00,23.669880,86.411725,PM10,NA,NA,NA
India,Jharkhand,Pathardih,"Mohalbani Ghat, Pathardih - DMC",08-01-2024 20:00:00,23.669880,86.411725,SO2,NA,NA,NA
India,Karnataka,Belgaum,"Ramteerth Nagar, Belgaum - KSPCB",08-01-2024 20:00:00,15.888653,74.541751,PM2.5,29,63,44
India,Karnataka,Belgaum,"Ramteerth Nagar, Belgaum - KSPCB",08-01-2024 20:00:00,15.888653,74.541751,SO2,8,9,8
India,Karnataka,Bengaluru,"Bapuji Nagar, Bengaluru - KSPCB",08-01-2024 20:00:00,12.951913,77.539784,PM10,39,81,63
India,Karnataka,Bengaluru,"Bapuji Nagar, Bengaluru - KSPCB",08-01-2024 20:00:00,12.951913,77.539784,CO,22,76,54
India,Karnataka,Bengaluru,"Hebbal, Bengaluru - KSPCB",08-01-2024 20:00:00,13.029152,77.585901,NO2,5,5,5
India,Karnataka,Bengaluru,"Hebbal, Bengaluru - KSPCB",08-01-2024 20:00:00,13.029152,77.585901,OZONE,6,12,10
India,Karnataka,Bengaluru,"Hombegowda Nagar, Bengaluru - KSPCB",08-01-2024 20:00:00,12.938539,77.590100,SO2,NA,NA,NA
India,Karnataka,Bengaluru,"Jayanagar 5th Block, Bengaluru - KSPCB",08-01-2024 20:00:00,12.920984,77.584908,OZONE,18,19,18
India,Karnataka,Bengaluru,"Jigani, Bengaluru - KSPCB",08-01-2024 20:00:00,12.7816279,77.6299145,PM2.5,2,94,32
India,Karnataka,Bengaluru,"Kasturi Nagar, Bengaluru - KSPCB",08-01-2024 20:00:00,13.003872,77.664217,CO,24,25,24
India,Karnataka,Bengaluru,"Peenya, Bengaluru - CPCB",08-01-2024 20:00:00,13.0270199,77.494094,SO2,12,23,17
India,Karnataka,Bengaluru,"Sanegurava Halli, Bengaluru - KSPCB",08-01-2024 20:00:00,12.990328,77.5431385,CO,NA,NA,NA
India,Karnataka,Bengaluru,"Shivapura_Peenya, Bengaluru - KSPCB",08-01-2024 20:00:00,13.0246342,77.5080115,PM10,31,77,54
India,Karnataka,Bengaluru,"Shivapura_Peenya, Bengaluru - KSPCB",08-01-2024 20:00:00,13.0246342,77.5080115,SO2,3,7,5
India,Karnataka,Bengaluru,"Silk Board, Bengaluru - KSPCB",08-01-2024 20:00:00,12.917348,77.622813,PM2.5,8,52,34
India,Karnataka,Bengaluru,"Silk Board, Bengaluru - KSPCB",08-01-2024 20:00:00,12.917348,77.622813,NO2,14,19,16
India,Karnataka,Bidar,"Naubad, Bidar - KSPCB",08-01-2024 20:00:00,17.930306,77.482194,PM2.5,67,153,94
India,Karnataka,Bidar,"Naubad, Bidar - KSPCB",08-01-2024 20:00:00,17.930306,77.482194,NO2,7,9,8
India,Karnataka,Bidar,"Naubad, Bidar - KSPCB",08-01-2024 20:00:00,17.930306,77.482194,SO2,15,16,16
India,Karnataka,Chamarajanagar,"Urban, Chamarajanagar - KSPCB",08-01-2024 20:00:00,11.55358,76.55521,NO2,23,39,30
India,Karnataka,Davanagere,"Devaraj Urs Badavane, Davanagere - KSPCB",08-01-2024 20:00:00,14.475800,75.905200,PM2.5,18,74,41
India,Karnataka,Dharwad,"Kalabhavan, Dharwad - KSPCB",08-01-2024 20:00:00,15.459706,75.008381,NO2,11,29,19
India,Karnataka,Dharwad,"Kalabhavan, Dharwad - KSPCB",08-01-2024 20:00:00,15.459706,75.008381,NH3,3,3,3
India,Karnataka,Gadag,"Panchal Nagar, Gadag - KSPCB",08-01-2024 20:00:00,15.411456,75.638133,PM10,36,57,45
India,Karnataka,Gadag,"Panchal Nagar, Gadag - KSPCB",08-01-2024 20:00:00,15.411456,75.638133,NO2,6,31,14
India,Karnataka,Gadag,"Panchal Nagar, Gadag - KSPCB",08-01-2024 20:00:00,15.411456,75.638133,NH3,2,3,2
India,Karnataka,Gadag,"Panchal Nagar, Gadag - KSPCB",08-01-2024 20:00:00,15.411456,75.638133,CO,46,64,50
India,Karnataka,Hassan,"B.Katihalli, Hassan - KSPCB",08-01-2024 20:00:00,13.008556,76.125258,NO2,10,13,12
India,Karnataka,Hassan,"B.Katihalli, Hassan - KSPCB",08-01-2024 20:00:00,13.008556,76.125258,NH3,3,7,4
India,Karnataka,Hassan,"B.Katihalli, Hassan - KSPCB",08-01-2024 20:00:00,13.008556,76.125258,SO2,NA,NA,NA
India,Karnataka,Haveri,"Ashwini Nagar, Haveri - KSPCB",08-01-2024 20:00:00,14.791800,75.389600,SO2,13,14,14
India,Karnataka,Hubballi,"Deshpande Nagar, Hubballi - KSPCB",08-01-2024 20:00:00,15.351773,75.140726,OZONE,13,36,29
India,Karnataka,Hubballi,"Lingaraj Nagar, Hubballi - KSPCB",08-01-2024 20:00:00,15.3714823,75.1160168,PM2.5,12,52,33
India,Karnataka,Hubballi,"Lingaraj Nagar, Hubballi - KSPCB",08-01-2024 20:00:00,15.3714823,75.1160168,NH3,2,2,2
India,Karnataka,Kalaburagi,"Mahatma Basaveswar Colony, Kalaburgi - KSPCB",08-01-2024 20:00:00,17.336318,76.847397,NH3,2,3,3
India,Karnataka,Kalaburagi,"Mahatma Basaveswar Colony, Kalaburgi - KSPCB",08-01-2024 20:00:00,17.336318,76.847397,OZONE,18,30,25
India,Karnataka,Karwar,"KHB Colony, Karwar - KSPCB",08-01-2024 20:00:00,14.816666,74.141003,PM10,34,97,69
India,Karnataka,Kolar,"Tamaka Ind. Area, Kolar - KSPCB",08-01-2024 20:00:00,13.1276288,78.1570122,SO2,13,13,13
India,Karnataka,Koppal,"Diwator Nagar, Koppal - KSPCB",08-01-2024 20:00:00,15.347630,76.181767,SO2,34,57,40
India,Karnataka,Koppal,"Diwator Nagar, Koppal - KSPCB",08-01-2024 20:00:00,15.347630,76.181767,CO,85,107,103
India,Karnataka,Koppal,"Diwator Nagar, Koppal - KSPCB",08-01-2024 20:00:00,15.347630,76.181767,OZONE,18,33,31
India,Karnataka,Madikeri,"Stuart Hill, Madikeri - KSPCB",08-01-2024 20:00:00,12.415911,75.735050,OZONE,16,31,24
India,Karnataka,Mangalore,"Kadri, Mangalore - KSPCB",08-01-2024 20:00:00,12.889250,74.853000,PM10,35,106,68
India,Karnataka,Mysuru,"Hebbal 1st Stage, Mysuru - KSPCB",08-01-2024 20:00:00,12.21041,76.37376,NH3,1,4,2
India,Karnataka,Ramanagara,"Vijay Nagar, Ramanagara - KSPCB",08-01-2024 20:00:00,12.733409,77.298051,SO2,34,41,37
India,Karnataka,Ramanagara,"Vijay Nagar, Ramanagara - KSPCB",08-01-2024 20:00:00,12.733409,77.298051,CO,12,24,17
India,Karnataka,Ramanagara,"Vijay Nagar, Ramanagara - KSPCB",08-01-2024 20:00:00,12.733409,77.298051,OZONE,24,26,25
India,Karnataka,Shivamogga,"Vinoba Nagara, Shivamogga - KSPCB",08-01-2024 20:00:00,13.940000,75.555917,SO2,2,12,5
India,Kerala,Kannur,"Thavakkara, Kannur - Kerala PCB",08-01-2024 20:00:00,11.875000,75.373200,PM2.5,NA,NA,NA
India,Kerala,Kannur,"Thavakkara, Kannur - Kerala PCB",08-01-2024 20:00:00,11.875000,75.373200,SO2,NA,NA,NA
India,Kerala,Kollam,"Polayathode, Kollam - Kerala PCB",08-01-2024 20:00:00,8.8787,76.6073,PM10,NA,NA,NA
India,Kerala,Thiruvananthapuram,"Kariavattom, Thiruvananthapuram - Kerala PCB",08-01-2024 20:00:00,8.563700,76.886500,PM2.5,58,78,72
India,Kerala,Thiruvananthapuram,"Kariavattom, Thiruvananthapuram - Kerala PCB",08-01-2024 20:00:00,8.563700,76.886500,PM10,66,86,81
India,Kerala,Thrissur,"Corporation Ground, Thrissur - Kerala PCB",08-01-2024 20:00:00,10.532400,76.215900,PM2.5,48,53,50
India,Madhya Pradesh,Bhopal,"Paryavaran Parisar, Bhopal - MPPCB",08-01-2024 20:00:00,23.210494,77.425409,PM2.5,58,277,154
India,Madhya Pradesh,Bhopal,"Paryavaran Parisar, Bhopal - MPPCB",08-01-2024 20:00:00,23.210494,77.425409,NH3,NA,NA,NA
India,Madhya Pradesh,Bhopal,"Paryavaran Parisar, Bhopal - MPPCB",08-01-2024 20:00:00,23.210494,77.425409,OZONE,8,63,41
India,Madhya Pradesh,Bhopal,"T T Nagar, Bhopal - MPPCB",08-01-2024 20:00:00,23.233584,77.400574,PM10,100,222,139
India,Madhya Pradesh,Bhopal,"T T Nagar, Bhopal - MPPCB",08-01-2024 20:00:00,23.233584,77.400574,NO2,19,54,37
India,Madhya Pradesh,Gwalior,"City Center, Gwalior - MPPCB",08-01-2024 20:00:00,26.203442,78.193251,PM2.5,87,353,195
India,Madhya Pradesh,Gwalior,"City Center, Gwalior - MPPCB",08-01-2024 20:00:00,26.203442,78.193251,NH3,7,9,8
India,Madhya Pradesh,Gwalior,"City Center, Gwalior - MPPCB",08-01-2024 20:00:00,26.203442,78.193251,SO2,12,30,22
India,Madhya Pradesh,Gwalior,"Phool Bagh, Gwalior - Mondelez Ind. Food",08-01-2024 20:00:00,26.210536,78.171,PM10,96,162,149
India,Madhya Pradesh,Gwalior,"Phool Bagh, Gwalior - Mondelez Ind. Food",08-01-2024 20:00:00,26.210536,78.171,NO2,4,5,4
India,Madhya Pradesh,Gwalior,"Phool Bagh, Gwalior - Mondelez Ind. Food",08-01-2024 20:00:00,26.210536,78.171,SO2,11,15,12
India,Madhya Pradesh,Indore,"Chhoti Gwaltoli, Indore - MPPCB",08-01-2024 20:00:00,22.4310,75.5213,NO2,41,136,58
India,Madhya Pradesh,Indore,"Chhoti Gwaltoli, Indore - MPPCB",08-01-2024 20:00:00,22.4310,75.5213,SO2,12,46,20
India,Madhya Pradesh,Indore,"Chhoti Gwaltoli, Indore - MPPCB",08-01-2024 20:00:00,22.4310,75.5213,OZONE,14,115,81
India,Madhya Pradesh,Indore,"Regional Park, Indore - IMC",08-01-2024 20:00:00,22.6780,75.8559,NO2,5,7,5
India,Madhya Pradesh,Indore,"Residency Area, Indore - IMC",08-01-2024 20:00:00,22.7084,75.8815,PM10,43,96,64
India,Madhya Pradesh,Indore,"Residency Area, Indore - IMC",08-01-2024 20:00:00,22.7084,75.8815,NO2,18,47,33
India,Madhya Pradesh,Indore,"Residency Area, Indore - IMC",08-01-2024 20:00:00,22.7084,75.8815,NH3,NA,NA,NA
India,Madhya Pradesh,Indore,"Residency Area, Indore - IMC",08-01-2024 20:00:00,22.7084,75.8815,SO2,24,51,31
India,Madhya Pradesh,Indore,"Residency Area, Indore - IMC",08-01-2024 20:00:00,22.7084,75.8815,CO,11,16,12
India,Madhya Pradesh,Indore,"Residency Area, Indore - IMC",08-01-2024 20:00:00,22.7084,75.8815,OZONE,11,24,18
India,Madhya Pradesh,Jabalpur,"Govindh Bhavan Colony, Jabalpur - JMC",08-01-2024 20:00:00,23.163174,79.973061,PM2.5,45,297,120
India,Madhya Pradesh,Jabalpur,"Govindh Bhavan Colony, Jabalpur - JMC",08-01-2024 20:00:00,23.163174,79.973061,NH3,1,4,2
India,Madhya Pradesh,Jabalpur,"Govindh Bhavan Colony, Jabalpur - JMC",08-01-2024 20:00:00,23.163174,79.973061,CO,37,48,42
India,Madhya Pradesh,Jabalpur,"Govindh Bhavan Colony, Jabalpur - JMC",08-01-2024 20:00:00,23.163174,79.973061,OZONE,7,80,65
India,Madhya Pradesh,Jabalpur,"Gupteshwar, Jabalpur - JMC",08-01-2024 20:00:00,23.142888,79.916147,PM10,54,106,76
India,Madhya Pradesh,Jabalpur,"Gupteshwar, Jabalpur - JMC",08-01-2024 20:00:00,23.142888,79.916147,SO2,1,10,5
India,Madhya Pradesh,Jabalpur,"Marhatal, Jabalpur - MPPCB",08-01-2024 20:00:00,23.168606,79.932247,PM10,68,166,118
India,Madhya Pradesh,Jabalpur,"Marhatal, Jabalpur - MPPCB",08-01-2024 20:00:00,23.168606,79.932247,CO,24,80,45
India,Madhya Pradesh,Jabalpur,"Suhagi, Jabalpur - JMC",08-01-2024 20:00:00,23.218135,79.957770,PM10,51,194,115
India,Madhya Pradesh,Jabalpur,"Suhagi, Jabalpur - JMC",08-01-2024 20:00:00,23.218135,79.957770,CO,42,109,64
India,Madhya Pradesh,Katni,"Gole Bazar, Katni - MPPCB",08-01-2024 20:00:00,23.50016,80.23284,SO2,6,28,16
India,Madhya Pradesh,Katni,"Gole Bazar, Katni - MPPCB",08-01-2024 20:00:00,23.50016,80.23284,OZONE,17,69,52
India,Madhya Pradesh,Mandideep,"Sector-D Industrial Area, Mandideep - MPPCB",08-01-2024 20:00:00,23.108440,77.511428,NH3,7,9,9
India,Madhya Pradesh,Mandideep,"Sector-D Industrial Area, Mandideep - MPPCB",08-01-2024 20:00:00,23.108440,77.511428,SO2,17,105,55
India,Madhya Pradesh,Mandideep,"Sector-D Industrial Area, Mandideep - MPPCB",08-01-2024 20:00:00,23.108440,77.511428,CO,36,73,46
India,Madhya Pradesh,Pithampur,"Sector-2 Industrial Area, Pithampur - MPPCB",08-01-2024 20:00:00,22.624758,75.675238,PM10,78,176,111
India,Madhya Pradesh,Ratlam,"Shasthri Nagar, Ratlam - IPCA Lab",08-01-2024 20:00:00,23.331731,75.045981,PM10,62,148,113
India,Madhya Pradesh,Sagar,"Civil Lines, Sagar - MPPCB",08-01-2024 20:00:00,23.838586,78.759431,NO2,10,17,13
India,Madhya Pradesh,Sagar,"Civil Lines, Sagar - MPPCB",08-01-2024 20:00:00,23.838586,78.759431,CO,34,56,43
India,Maharashtra,Ahmednagar,"Tarakpur, Ahmednagar - MPCB",08-01-2024 20:00:00,19.10122,74.73339,PM10,65,134,105
India,Maharashtra,Ahmednagar,"Tarakpur, Ahmednagar - MPCB",08-01-2024 20:00:00,19.10122,74.73339,NO2,21,126,44
India,Maharashtra,Akola,"Ramdaspeth, Akola - MPCB",08-01-2024 20:00:00,20.719516,77.000253,PM2.5,83,158,111
India,Maharashtra,Akola,"Ramdaspeth, Akola - MPCB",08-01-2024 20:00:00,20.719516,77.000253,NH3,3,6,4
India,Maharashtra,Akola,"Ramdaspeth, Akola - MPCB",08-01-2024 20:00:00,20.719516,77.000253,OZONE,22,78,64
India,Maharashtra,Amravati,"Shri Shivaji Science College, Amaravati - MPCB",08-01-2024 20:00:00,20.939198,77.765701,PM10,123,450,145
India,Maharashtra,Amravati,"Shri Shivaji Science College, Amaravati - MPCB",08-01-2024 20:00:00,20.939198,77.765701,NH3,2,6,2
India,Maharashtra,Badlapur,"Katrap, Badlapur - MPCB",08-01-2024 20:00:00,19.16485,73.23409,PM2.5,77,264,179
India,Maharashtra,Belapur,"CBD Belapur, Belapur - MPCB",08-01-2024 20:00:00,19.0243902,73.0406721,PM10,71,140,111
India,Maharashtra,Belapur,"CBD Belapur, Belapur - MPCB",08-01-2024 20:00:00,19.0243902,73.0406721,SO2,3,8,5
India,Maharashtra,Bhiwandi,"Gokul Nagar, Bhiwandi - MPCB",08-01-2024 20:00:00,19.309073,73.057223,PM10,NA,NA,NA
India,Maharashtra,Bhiwandi,"Gokul Nagar, Bhiwandi - MPCB",08-01-2024 20:00:00,19.309073,73.057223,NO2,NA,NA,NA
India,Maharashtra,Bhiwandi,"Gokul Nagar, Bhiwandi - MPCB",08-01-2024 20:00:00,19.309073,73.057223,NH3,NA,NA,NA
India,Maharashtra,Bhiwandi,"Gokul Nagar, Bhiwandi - MPCB",08-01-2024 20:00:00,19.309073,73.057223,OZONE,3,56,38
India,Maharashtra,Chandrapur,"Chauhan Colony, Chandrapur - MPCB",08-01-2024 20:00:00,19.962900,79.298714,OZONE,15,27,18
India,Maharashtra,Dhule,"Deopur, Dhule - MPCB",08-01-2024 20:00:00,20.918946,74.776388,NO2,11,29,16
India,Maharashtra,Dhule,"Deopur, Dhule - MPCB",08-01-2024 20:00:00,20.918946,74.776388,OZONE,8,48,38
India,Maharashtra,Jalgaon,"Prabhat Colony, Jalgaon - MPCB",08-01-2024 20:00:00,21.001264,75.565602,NO2,12,86,28
India,Maharashtra,Kalyan,"Khadakpada, Kalyan - MPCB",08-01-2024 20:00:00,19.25292,73.142019,PM2.5,27,113,71
India,Maharashtra,Kalyan,"Khadakpada, Kalyan - MPCB",08-01-2024 20:00:00,19.25292,73.142019,OZONE,8,23,18
India,Maharashtra,Kolhapur,"Shivaji University, Kolhapur - MPCB",08-01-2024 20:00:00,16.6870449,74.2505872,PM2.5,70,89,80
India,Maharashtra,Kolhapur,"Sinchan Bhavan, Kolhapur - MPCB",08-01-2024 20:00:00,16.7143745,74.2426398,PM2.5,59,164,112
India,Maharashtra,Kolhapur,"Sinchan Bhavan, Kolhapur - MPCB",08-01-2024 20:00:00,16.7143745,74.2426398,SO2,1,4,3
India,Maharashtra,Latur,"Sawe Wadi, Latur - MPCB",08-01-2024 20:00:00,18.39963,76.57452,NH3,8,8,8
India,Maharashtra,Latur,"Sawe Wadi, Latur - MPCB",08-01-2024 20:00:00,18.39963,76.57452,OZONE,21,52,42
India,Maharashtra,Mahad,"Kamble Tarf Birwadi, Mahad - MPCB",08-01-2024 20:00:00,18.1023399,73.4783687,PM10,77,107,94
India,Maharashtra,Mahad,"Kamble Tarf Birwadi, Mahad - MPCB",08-01-2024 20:00:00,18.1023399,73.4783687,NO2,16,122,31
India,Maharashtra,Mahad,"Kamble Tarf Birwadi, Mahad - MPCB",08-01-2024 20:00:00,18.1023399,73.4783687,NH3,4,6,5
India,Maharashtra,Mahad,"Kamble Tarf Birwadi, Mahad - MPCB",08-01-2024 20:00:00,18.1023399,73.4783687,CO,12,68,40
India,Maharashtra,Mira-Bhayandar,"Bhayandar West, Mira-Bhayandar - MPCB",08-01-2024 20:00:00,19.296481,72.840923,PM2.5,52,314,109
India,Maharashtra,Mira-Bhayandar,"Bhayandar West, Mira-Bhayandar - MPCB",08-01-2024 20:00:00,19.296481,72.840923,NO2,13,57,39
India,Maharashtra,Mira-Bhayandar,"Bhayandar West, Mira-Bhayandar - MPCB",08-01-2024 20:00:00,19.296481,72.840923,NH3,5,8,6
India,Maharashtra,Mira-Bhayandar,"Bhayandar West, Mira-Bhayandar - MPCB",08-01-2024 20:00:00,19.296481,72.840923,CO,16,57,25
India,Maharashtra,Mumbai,"Bandra Kurla Complex, Mumbai - MPCB",08-01-2024 20:00:00,19.065931,72.862131,SO2,2,23,5
India,Maharashtra,Mumbai,"Borivali East, Mumbai - MPCB",08-01-2024 20:00:00,19.2243333,72.8658113,NO2,5,30,13
India,Maharashtra,Mumbai,"Byculla, Mumbai - BMC",08-01-2024 20:00:00,18.9767,72.8380,CO,16,54,21
India,Maharashtra,Mumbai,"Chakala-Andheri East, Mumbai - IITM",08-01-2024 20:00:00,19.11074,72.86084,OZONE,46,60,54
India,Maharashtra,Mumbai,"Chembur, Mumbai - MPCB",08-01-2024 20:00:00,19.0364585,72.8954371,PM2.5,56,134,90
India,Maharashtra,Mumbai,"Chembur, Mumbai - MPCB",08-01-2024 20:00:00,19.0364585,72.8954371,NH3,2,3,2
India,Maharashtra,Mumbai,"Chembur, Mumbai - MPCB",08-01-2024 20:00:00,19.0364585,72.8954371,CO,4,44,21
India,Maharashtra,Mumbai,"Chhatrapati Shivaji Intl. Airport (T2), Mumbai - MPCB",08-01-2024 20:00:00,19.10078,72.87462,PM2.5,15,52,37
India,Maharashtra,Mumbai,"Chhatrapati Shivaji Intl. Airport (T2), Mumbai - MPCB",08-01-2024 20:00:00,19.10078,72.87462,PM10,43,115,89
India,Maharashtra,Mumbai,"Chhatrapati Shivaji Intl. Airport (T2), Mumbai - MPCB",08-01-2024 20:00:00,19.10078,72.87462,NH3,5,11,7
India,Maharashtra,Mumbai,"Chhatrapati Shivaji Intl. Airport (T2), Mumbai - MPCB",08-01-2024 20:00:00,19.10078,72.87462,CO,45,94,55
India,Maharashtra,Mumbai,"Kandivali East, Mumbai - MPCB",08-01-2024 20:00:00,19.205800,72.868200,PM10,71,154,116
India,Maharashtra,Mumbai,"Kandivali East, Mumbai - MPCB",08-01-2024 20:00:00,19.205800,72.868200,SO2,19,39,29
India,Maharashtra,Mumbai,"Kandivali East, Mumbai - MPCB",08-01-2024 20:00:00,19.205800,72.868200,CO,55,104,64
India,Maharashtra,Mumbai,"Kandivali West, Mumbai - BMC",08-01-2024 20:00:00,19.215859,72.831718,NH3,NA,NA,NA
India,Maharashtra,Mumbai,"Kherwadi_Bandra East, Mumbai - MPCB",08-01-2024 20:00:00,19.0632143,72.8456324,NH3,5,8,7
India,Maharashtra,Mumbai,"Kherwadi_Bandra East, Mumbai - MPCB",08-01-2024 20:00:00,19.0632143,72.8456324,SO2,9,107,34
India,Maharashtra,Mumbai,"Khindipada-Bhandup West, Mumbai - IITM",08-01-2024 20:00:00,19.1653323,72.922099,PM2.5,10,165,85
India,Maharashtra,Mumbai,"Khindipada-Bhandup West, Mumbai - IITM",08-01-2024 20:00:00,19.1653323,72.922099,SO2,1,11,7
India,Maharashtra,Mumbai,"Khindipada-Bhandup West, Mumbai - IITM",08-01-2024 20:00:00,19.1653323,72.922099,CO,35,90,75
India,Maharashtra,Mumbai,"Kurla, Mumbai - MPCB",08-01-2024 20:00:00,19.0863,72.8888,PM2.5,38,219,88
India,Maharashtra,Mumbai,"Malad West, Mumbai - IITM",08-01-2024 20:00:00,19.19709,72.82204,PM2.5,76,151,108
India,Maharashtra,Mumbai,"Mazgaon, Mumbai - IITM",08-01-2024 20:00:00,18.96702,72.84214,PM2.5,46,78,66
India,Maharashtra,Mumbai,"Mazgaon, Mumbai - IITM",08-01-2024 20:00:00,18.96702,72.84214,CO,2,79,14
India,Maharashtra,Mumbai,"Mazgaon, Mumbai - IITM",08-01-2024 20:00:00,18.96702,72.84214,OZONE,26,129,86
India,Maharashtra,Mumbai,"Mindspace-Malad West, Mumbai - MPCB",08-01-2024 20:00:00,19.1878657,72.8304069,PM10,70,113,86
India,Maharashtra,Mumbai,"Mulund West, Mumbai - MPCB",08-01-2024 20:00:00,19.1750,72.9419,PM10,58,116,77
India,Maharashtra,Mumbai,"Mulund West, Mumbai - MPCB",08-01-2024 20:00:00,19.1750,72.9419,NO2,25,34,31
India,Maharashtra,Mumbai,"Navy Nagar-Colaba, Mumbai - IITM",08-01-2024 20:00:00,18.897756,72.813320,NO2,32,74,54
India,Maharashtra,Mumbai,"Powai, Mumbai - MPCB",08-01-2024 20:00:00,19.137500,72.915056,CO,35,50,41
India,Maharashtra,Mumbai,"Sewri, Mumbai - BMC",08-01-2024 20:00:00,19.000084,72.856730,PM10,53,116,93
India,Maharashtra,Mumbai,"Sion, Mumbai - MPCB",08-01-2024 20:00:00,19.047000,72.874600,PM2.5,34,135,81
India,Maharashtra,Mumbai,"Sion, Mumbai - MPCB",08-01-2024 20:00:00,19.047000,72.874600,PM10,61,141,113
India,Maharashtra,Mumbai,"Vasai West, Mumbai - MPCB",08-01-2024 20:00:00,19.383200,72.820400,NO2,26,28,27
India,Maharashtra,Mumbai,"Vasai West, Mumbai - MPCB",08-01-2024 20:00:00,19.383200,72.820400,OZONE,4,30,20
India,Maharashtra,Mumbai,"Vile Parle West, Mumbai - MPCB",08-01-2024 20:00:00,19.10861,72.83622,OZONE,3,3,3
India,Maharashtra,Mumbai,"Worli, Mumbai - MPCB",08-01-2024 20:00:00,18.9936162,72.8128113,PM2.5,48,93,71
India,Maharashtra,Mumbai,"Worli, Mumbai - MPCB",08-01-2024 20:00:00,18.9936162,72.8128113,NH3,NA,NA,NA
India,Maharashtra,Mumbai,"Worli, Mumbai - MPCB",08-01-2024 20:00:00,18.9936162,72.8128113,OZONE,6,9,7
India,Maharashtra,Nagpur,"Ambazari, Nagpur - MPCB",08-01-2024 20:00:00,21.121801,79.04952,PM10,92,130,106
India,Maharashtra,Nagpur,"Ambazari, Nagpur - MPCB",08-01-2024 20:00:00,21.121801,79.04952,NH3,1,12,3
India,Maharashtra,Nagpur,"Ambazari, Nagpur - MPCB",08-01-2024 20:00:00,21.121801,79.04952,SO2,9,55,22
India,Maharashtra,Nagpur,"Ambazari, Nagpur - MPCB",08-01-2024 20:00:00,21.121801,79.04952,CO,28,103,50
India,Maharashtra,Nagpur,"Ambazari, Nagpur - MPCB",08-01-2024 20:00:00,21.121801,79.04952,OZONE,12,121,89
India,Maharashtra,Nagpur,"Mahal, Nagpur - MPCB",08-01-2024 20:00:00,21.14472,79.107595,OZONE,6,95,70
India,Maharashtra,Nagpur,"Opp GPO Civil Lines, Nagpur - MPCB",08-01-2024 20:00:00,21.152875,79.0517531,PM10,87,148,123
India,Maharashtra,Nagpur,"Opp GPO Civil Lines, Nagpur - MPCB",08-01-2024 20:00:00,21.152875,79.0517531,NO2,38,147,50
India,Maharashtra,Nagpur,"Opp GPO Civil Lines, Nagpur - MPCB",08-01-2024 20:00:00,21.152875,79.0517531,SO2,7,46,16
India,Maharashtra,Nagpur,"Opp GPO Civil Lines, Nagpur - MPCB",08-01-2024 20:00:00,21.152875,79.0517531,CO,28,121,50
India,Maharashtra,Nagpur,"Opp GPO Civil Lines, Nagpur - MPCB",08-01-2024 20:00:00,21.152875,79.0517531,OZONE,3,92,66
India,Maharashtra,Nagpur,"Ram Nagar, Nagpur - MPCB",08-01-2024 20:00:00,21.143383,79.048912,PM2.5,54,222,129
India,Maharashtra,Nagpur,"Ram Nagar, Nagpur - MPCB",08-01-2024 20:00:00,21.143383,79.048912,NO2,14,99,30
India,Maharashtra,Nanded,"Sneh Nagar, Nanded - MPCB",08-01-2024 20:00:00,19.173852,77.296291,NO2,33,138,58
India,Maharashtra,Nanded,"Sneh Nagar, Nanded - MPCB",08-01-2024 20:00:00,19.173852,77.296291,SO2,5,7,6
India,Maharashtra,Nashik,"Gangapur Road, Nashik - MPCB",08-01-2024 20:00:00,20.0073285,73.7762427,CO,18,18,18
India,Maharashtra,Nashik,"Gangapur Road, Nashik - MPCB",08-01-2024 20:00:00,20.0073285,73.7762427,OZONE,16,54,40
India,Maharashtra,Nashik,"MIDC Ambad, Nashik - MPCB",08-01-2024 20:00:00,19.950220,73.731480,PM2.5,58,198,134
India,Maharashtra,Nashik,"MIDC Ambad, Nashik - MPCB",08-01-2024 20:00:00,19.950220,73.731480,NH3,2,2,2
India,Maharashtra,Nashik,"MIDC Ambad, Nashik - MPCB",08-01-2024 20:00:00,19.950220,73.731480,CO,16,75,25
India,Maharashtra,Navi Mumbai,"Kopripada-Vashi, Navi Mumbai - MPCB",08-01-2024 20:00:00,19.090337,73.014232,NO2,29,139,75
India,Maharashtra,Navi Mumbai,"Mahape, Navi Mumbai - MPCB",08-01-2024 20:00:00,19.1135051,73.008978,PM2.5,34,86,62
India,Maharashtra,Navi Mumbai,"Nerul, Navi Mumbai - MPCB",08-01-2024 20:00:00,19.008751,73.016620,PM10,42,132,97
India,Maharashtra,Navi Mumbai,"Nerul, Navi Mumbai - MPCB",08-01-2024 20:00:00,19.008751,73.016620,CO,2,44,13
India,Maharashtra,Navi Mumbai,"Sanpada, Navi Mumbai - MPCB",08-01-2024 20:00:00,19.0575752,73.0151367,SO2,6,49,25
India,Maharashtra,Navi Mumbai,"Sector-19A Nerul, Navi Mumbai - IITM",08-01-2024 20:00:00,19.044,73.0325,NO2,27,148,71
India,Maharashtra,Navi Mumbai,"Sector-2E Kalamboli, Navi Mumbai - MPCB",08-01-2024 20:00:00,19.02579,73.10297,NO2,18,125,57
India,Maharashtra,Parbhani,"Masoom Colony, Parbhani - MPCB",08-01-2024 20:00:00,19.265594,76.761463,PM2.5,43,108,63
India,Maharashtra,Parbhani,"Masoom Colony, Parbhani - MPCB",08-01-2024 20:00:00,19.265594,76.761463,PM10,64,99,82
India,Maharashtra,Parbhani,"Masoom Colony, Parbhani - MPCB",08-01-2024 20:00:00,19.265594,76.761463,NO2,14,34,25
India,Maharashtra,Pimpri-Chinchwad,"Gavalinagar, Pimpri Chinchwad - MPCB",08-01-2024 20:00:00,18.63673,73.82487,PM2.5,53,337,170
India,Maharashtra,Pimpri-Chinchwad,"Gavalinagar, Pimpri Chinchwad - MPCB",08-01-2024 20:00:00,18.63673,73.82487,PM10,55,225,124
India,Maharashtra,Pimpri-Chinchwad,"Gavalinagar, Pimpri Chinchwad - MPCB",08-01-2024 20:00:00,18.63673,73.82487,NO2,23,122,57
India,Maharashtra,Pimpri-Chinchwad,"Gavalinagar, Pimpri Chinchwad - MPCB",08-01-2024 20:00:00,18.63673,73.82487,CO,24,84,39
India,Maharashtra,Pimpri-Chinchwad,"Gavalinagar, Pimpri Chinchwad - MPCB",08-01-2024 20:00:00,18.63673,73.82487,OZONE,2,88,61
India,Maharashtra,Pimpri-Chinchwad,"Park Street Wakad, Pimpri Chinchwad - MPCB",08-01-2024 20:00:00,18.59051,73.77946,PM10,102,194,127
India,Maharashtra,Pimpri-Chinchwad,"Park Street Wakad, Pimpri Chinchwad - MPCB",08-01-2024 20:00:00,18.59051,73.77946,OZONE,1,77,62
India,Maharashtra,Pimpri-Chinchwad,"Thergaon, Pimpri Chinchwad - MPCB",08-01-2024 20:00:00,18.616318,73.765797,PM2.5,105,272,161
India,Maharashtra,Pimpri-Chinchwad,"Thergaon, Pimpri Chinchwad - MPCB",08-01-2024 20:00:00,18.616318,73.765797,SO2,3,7,5
India,Maharashtra,Pimpri-Chinchwad,"Thergaon, Pimpri Chinchwad - MPCB",08-01-2024 20:00:00,18.616318,73.765797,CO,23,78,30
India,Maharashtra,Pune,"Alandi, Pune - IITM",08-01-2024 20:00:00,18.675076,73.892743,CO,30,66,45
India,Maharashtra,Pune,"Bhosari, Pune - IITM",08-01-2024 20:00:00,18.640051,73.848956,NO2,9,25,17
India,Maharashtra,Pune,"Bhosari, Pune - IITM",08-01-2024 20:00:00,18.640051,73.848956,CO,28,57,35
India,Maharashtra,Pune,"Karve Road, Pune - MPCB",08-01-2024 20:00:00,18.5011743,73.8165527,SO2,14,20,19
India,Maharashtra,Pune,"Katraj Dairy, Pune - MPCB",08-01-2024 20:00:00,18.454450,73.854155,CO,14,50,26
India,Maharashtra,Pune,"Revenue Colony-Shivajinagar, Pune - IITM",08-01-2024 20:00:00,18.530085,73.849598,PM2.5,NA,NA,NA
India,Maharashtra,Pune,"Revenue Colony-Shivajinagar, Pune - IITM",08-01-2024 20:00:00,18.530085,73.849598,PM10,NA,NA,NA
India,Maharashtra,Pune,"Savitribai Phule Pune University, Pune - MPCB",08-01-2024 20:00:00,18.547056,73.826908,NH3,NA,NA,NA
India,Maharashtra,Pune,"Savitribai Phule Pune University, Pune - MPCB",08-01-2024 20:00:00,18.547056,73.826908,CO,12,21,14
India,Maharashtra,Sangli,"Vijay Nagar, Sangli - MPCB",08-01-2024 20:00:00, 16.5038,74.3623,PM2.5,34,69,56
India,Maharashtra,Solapur,"Ratandeep Housing Society, Solapur - MPCB",08-01-2024 20:00:00,17.65439,75.90649,SO2,4,35,9
India,Maharashtra,Solapur,"Ratandeep Housing Society, Solapur - MPCB",08-01-2024 20:00:00,17.65439,75.90649,OZONE,13,37,28
India,Maharashtra,Thane,"Kasarvadavali, Thane - MPCB",08-01-2024 20:00:00,19.26777,72.97182,PM2.5,77,87,81
India,Maharashtra,Thane,"Upvan Fort, Thane - MPCB",08-01-2024 20:00:00,19.222279,72.957979,PM2.5,80,304,175
India,Maharashtra,Ulhasnagar,"Sidhi Vinayak Nagar, Ulhasnagar - MPCB",08-01-2024 20:00:00,19.235581,73.159121,CO,7,102,32
India,Maharashtra,Virar,"Bolinj, Virar - MPCB",08-01-2024 20:00:00,19.4458210,72.7988231,NO2,16,83,34
India,Maharashtra,Virar,"Bolinj, Virar - MPCB",08-01-2024 20:00:00,19.4458210,72.7988231,OZONE,14,88,64
India,Manipur,Imphal,"DM College of Science, Imphal - Manipur PCB",08-01-2024 20:00:00,24.8207389,93.9423085,CO,6,6,6
India,Meghalaya,Shillong,"JN Stadium, Shillong - Meghalaya PCB",08-01-2024 20:00:00,25.5803419,91.8942571,NO2,8,77,38
India,Meghalaya,Shillong,"JN Stadium, Shillong - Meghalaya PCB",08-01-2024 20:00:00,25.5803419,91.8942571,NH3,3,4,3
India,Meghalaya,Shillong,"JN Stadium, Shillong - Meghalaya PCB",08-01-2024 20:00:00,25.5803419,91.8942571,SO2,25,28,26
India,Meghalaya,Shillong,"JN Stadium, Shillong - Meghalaya PCB",08-01-2024 20:00:00,25.5803419,91.8942571,OZONE,1,25,13
India,Mizoram,Aizawl,"Sikulpuikawn, Aizawl - Mizoram PCB",08-01-2024 20:00:00,23.7176342,92.7192841,OZONE,1,15,4
India,Nagaland,Kohima,"PWD Juction, Kohima - NPCB",08-01-2024 20:00:00,25.6635413,94.0989878,NO2,3,4,3
India,Nagaland,Kohima,"PWD Juction, Kohima - NPCB",08-01-2024 20:00:00,25.6635413,94.0989878,CO,7,40,21
India,Odisha,Angul,"Hakimapada, Angul - OSPCB",08-01-2024 20:00:00,20.832874,85.104082,PM10,134,456,261
India,Odisha,Angul,"Hakimapada, Angul - OSPCB",08-01-2024 20:00:00,20.832874,85.104082,NH3,1,6,2
India,Odisha,Balasore,"Kalidaspur, Balasore - OSPCB",08-01-2024 20:00:00,21.51161,86.89088,PM2.5,305,371,335
India,Odisha,Barbil,"Forest Office, Barbil - OSPCB",08-01-2024 20:00:00,22.1166054,85.3945546,PM2.5,207,355,291
India,Odisha,Barbil,"Forest Office, Barbil - OSPCB",08-01-2024 20:00:00,22.1166054,85.3945546,NH3,2,5,4
India,Odisha,Baripada,"Meher Colony, Baripada - OSPCB",08-01-2024 20:00:00,21.941841,86.728318,PM2.5,NA,NA,NA
India,Odisha,Bhubaneswar,"Lingraj Mandir, Bhubaneswar - OSPCB",08-01-2024 20:00:00,20.240790,85.836784,SO2,5,23,11
India,Odisha,Bhubaneswar,"Lingraj Mandir, Bhubaneswar - OSPCB",08-01-2024 20:00:00,20.240790,85.836784,CO,57,106,68
India,Odisha,Bhubaneswar,"Lingraj Mandir, Bhubaneswar - OSPCB",08-01-2024 20:00:00,20.240790,85.836784,OZONE,5,175,135
India,Odisha,Bhubaneswar,"Patia, Bhubaneswar - OSPCB",08-01-2024 20:00:00,20.34652,85.81630,PM10,168,312,207
India,Odisha,Bhubaneswar,"Patia, Bhubaneswar - OSPCB",08-01-2024 20:00:00,20.34652,85.81630,NH3,5,6,6
India,Odisha,Bileipada,"Tata Township, Bileipada - OSPCB",08-01-2024 20:00:00,22.06156703,85.47409613,NO2,5,13,8
India,Odisha,Bileipada,"Tata Township, Bileipada - OSPCB",08-01-2024 20:00:00,22.06156703,85.47409613,SO2,21,52,29
India,Odisha,Brajrajnagar,"GM Office, Brajrajnagar - OSPCB",08-01-2024 20:00:00,21.8004996,83.8396977,NO2,13,20,15
India,Odisha,Keonjhar,"Jagamohanpur, Keonjhar - OSPCB",08-01-2024 20:00:00,21.643900,85.599355,NH3,10,17,14
India,Odisha,Nayagarh,"Dabuna, Nayagarh - OSPCB",08-01-2024 20:00:00,21.847279,85.416905,CO,30,36,35
India,Odisha,Rourkela,"Raghunathpali, Rourkela - OSPCB",08-01-2024 20:00:00,22.220833,84.809444,PM10,NA,NA,NA
India,Odisha,Suakati,"OMC Colony, Suakati - OSPCB",08-01-2024 20:00:00,21.606865,85.510538,NO2,NA,NA,NA
India,Odisha,Talcher,"Talcher Coalfields,Talcher - OSPCB",08-01-2024 20:00:00,20.9360711,85.1707021,NO2,43,53,47
India,Odisha,Talcher,"Talcher Coalfields,Talcher - OSPCB",08-01-2024 20:00:00,20.9360711,85.1707021,NH3,7,8,7
India,Odisha,Tensa,"Barsua Iron Ore Mines, Tensa - OSPCB",08-01-2024 20:00:00,21.869985,85.167016,CO,40,53,49
India,Puducherry,Puducherry,"Jawahar Nagar, Puducherry - PPCC",08-01-2024 20:00:00,11.9309,79.8027,PM2.5,2,55,14
India,Puducherry,Puducherry,"Jawahar Nagar, Puducherry - PPCC",08-01-2024 20:00:00,11.9309,79.8027,CO,36,75,59
India,Punjab,Amritsar,"Golden Temple, Amritsar - PPCB",08-01-2024 20:00:00,31.620000,74.876512,NO2,11,40,22
India,Punjab,Bathinda,"Hardev Nagar, Bathinda - PPCB",08-01-2024 20:00:00,30.233011,74.907758,PM2.5,34,138,89
India,Punjab,Bathinda,"Hardev Nagar, Bathinda - PPCB",08-01-2024 20:00:00,30.233011,74.907758,PM10,NA,NA,NA
India,Punjab,Khanna,"Kalal Majra, Khanna - PPCB",08-01-2024 20:00:00,30.736056 ,76.209694,NO2,30,32,30
India,Punjab,Ludhiana,"Punjab Agricultural University, Ludhiana - PPCB",08-01-2024 20:00:00,30.9028,75.8086,NH3,4,4,4
India,Punjab,Mandi Gobindgarh,"RIMT University, Mandi Gobindgarh - PPCB",08-01-2024 20:00:00,30.649961,76.331442,PM10,35,211,90
India,Punjab,Mandi Gobindgarh,"RIMT University, Mandi Gobindgarh - PPCB",08-01-2024 20:00:00,30.649961,76.331442,NO2,26,32,31
India,Punjab,Rupnagar,"Ratanpura, Rupnagar - Ambuja Cements",08-01-2024 20:00:00,31.0325454,76.5623046,CO,60,108,73
India,Rajasthan,Alwar,"Moti Doongri, Alwar - RSPCB",08-01-2024 20:00:00,27.554793,76.611536,NO2,36,47,42
India,Rajasthan,Banswara,"Rati Talai, Banswara - RSPCB",08-01-2024 20:00:00,23.555190,74.440010,PM2.5,113,290,182
India,Rajasthan,Banswara,"Rati Talai, Banswara - RSPCB",08-01-2024 20:00:00,23.555190,74.440010,SO2,26,41,31
India,Rajasthan,Banswara,"Rati Talai, Banswara - RSPCB",08-01-2024 20:00:00,23.555190,74.440010,OZONE,23,106,70
India,Rajasthan,Baran,"Bamboliya, Baran - RSPCB",08-01-2024 20:00:00,25.106006,76.469948,NH3,3,9,5
India,Rajasthan,Baran,"Bamboliya, Baran - RSPCB",08-01-2024 20:00:00,25.106006,76.469948,SO2,3,16,5
India,Rajasthan,Barmer,"Railway Colony, Barmer - RSPCB",08-01-2024 20:00:00,25.747299,71.393989,PM10,69,124,90
India,Rajasthan,Barmer,"Railway Colony, Barmer - RSPCB",08-01-2024 20:00:00,25.747299,71.393989,NO2,11,34,18
India,Rajasthan,Barmer,"Railway Colony, Barmer - RSPCB",08-01-2024 20:00:00,25.747299,71.393989,OZONE,19,91,68
India,Rajasthan,Bharatpur,"Krishna Nagar, Bharatpur - RSPCB",08-01-2024 20:00:00,27.215415,77.50873,PM2.5,NA,NA,NA
India,Rajasthan,Bharatpur,"Krishna Nagar, Bharatpur - RSPCB",08-01-2024 20:00:00,27.215415,77.50873,PM10,140,372,250
India,Rajasthan,Bharatpur,"Krishna Nagar, Bharatpur - RSPCB",08-01-2024 20:00:00,27.215415,77.50873,SO2,4,47,23
India,Rajasthan,Bharatpur,"Krishna Nagar, Bharatpur - RSPCB",08-01-2024 20:00:00,27.215415,77.50873,CO,4,113,83
India,Rajasthan,Bharatpur,"Krishna Nagar, Bharatpur - RSPCB",08-01-2024 20:00:00,27.215415,77.50873,OZONE,6,46,32
India,Rajasthan,Bhilwara,"Pratap Nagar, Bhilwara - RSPCB",08-01-2024 20:00:00,25.339605,74.618883,NH3,3,12,5
India,Rajasthan,Bhiwadi,"RIICO Ind. Area III, Bhiwadi - RSPCB",08-01-2024 20:00:00,28.194909,76.862296,CO,12,80,51
India,Rajasthan,Bhiwadi,"RIICO Ind. Area III, Bhiwadi - RSPCB",08-01-2024 20:00:00,28.194909,76.862296,OZONE,6,13,7
India,Rajasthan,Bikaner,"MM Ground, Bikaner - RSPCB",08-01-2024 20:00:00,28.018792,73.292658,NO2,10,70,27
India,Rajasthan,Bikaner,"MM Ground, Bikaner - RSPCB",08-01-2024 20:00:00,28.018792,73.292658,OZONE,2,30,18
India,Rajasthan,Bundi,"New Colony, Bundi - RSPCB",08-01-2024 20:00:00,25.435774,75.644272,PM2.5,128,414,269
India,Rajasthan,Bundi,"New Colony, Bundi - RSPCB",08-01-2024 20:00:00,25.435774,75.644272,PM10,108,439,202
India,Rajasthan,Bundi,"New Colony, Bundi - RSPCB",08-01-2024 20:00:00,25.435774,75.644272,SO2,1,6,2
India,Rajasthan,Chittorgarh,"Shastri Nagar, Chittorgarh - RSPCB",08-01-2024 20:00:00,24.892047,74.623527,CO,38,105,55
India,Rajasthan,Churu,"Subash Chowk, Churu - RSPCB",08-01-2024 20:00:00,28.296139,74.961696,NO2,21,104,40
India,Rajasthan,Dausa,"Khatikan Mohalla, Dausa - RSPCB",08-01-2024 20:00:00,26.895552,76.334753,PM2.5,116,323,231
India,Rajasthan,Dausa,"Khatikan Mohalla, Dausa - RSPCB",08-01-2024 20:00:00,26.895552,76.334753,NH3,4,4,4
India,Rajasthan,Dholpur,"Raja Ganj, Dholpur - RSPCB",08-01-2024 20:00:00,26.699557,77.898881,CO,28,98,54
India,Rajasthan,Dungarpur,"Bhoiwada, Dungarpur - RSPCB",08-01-2024 20:00:00,23.837789,73.714926,PM2.5,82,237,140
India,Rajasthan,Hanumangarh,"Housing Board, Hanumangarh - RSPCB",08-01-2024 20:00:00,29.610750,74.283608,PM2.5,230,322,287
India,Rajasthan,Hanumangarh,"Housing Board, Hanumangarh - RSPCB",08-01-2024 20:00:00,29.610750,74.283608,SO2,4,9,6
India,Rajasthan,Jaipur,"Adarsh Nagar, Jaipur - RSPCB",08-01-2024 20:00:00,26.902909,75.836858,PM2.5,119,316,267
India,Rajasthan,Jaipur,"Police Commissionerate, Jaipur - RSPCB",08-01-2024 20:00:00,26.9164092,75.7994901,NH3,14,19,16
India,Rajasthan,Jaipur,"Police Commissionerate, Jaipur - RSPCB",08-01-2024 20:00:00,26.9164092,75.7994901,OZONE,10,54,38
India,Rajasthan,Jaipur,"RIICO Sitapura, Jaipur - RSPCB",08-01-2024 20:00:00,26.786682,75.827928,PM10,140,374,219
India,Rajasthan,Jaipur,"RIICO Sitapura, Jaipur - RSPCB",08-01-2024 20:00:00,26.786682,75.827928,CO,31,122,55
India,Rajasthan,Jaipur,"Sector-2 Murlipura, Jaipur - RSPCB",08-01-2024 20:00:00,26.960669,75.771817,SO2,5,9,7
India,Rajasthan,Jaipur,"Shastri Nagar, Jaipur - RSPCB",08-01-2024 20:00:00,26.9502929,75.730943,NH3,9,40,17
India,Rajasthan,Jaipur,"Shastri Nagar, Jaipur - RSPCB",08-01-2024 20:00:00,26.9502929,75.730943,OZONE,10,41,22
India,Rajasthan,Jaisalmer,"Sadar Bazar, Jaisalmer - RSPCB",08-01-2024 20:00:00,26.912329,70.909168,NO2,14,43,22
India,Rajasthan,Jalore,"Mudtra Sili, Jalore - RSPCB",08-01-2024 20:00:00,25.344694,72.626208,PM10,101,216,124
India,Rajasthan,Jalore,"Mudtra Sili, Jalore - RSPCB",08-01-2024 20:00:00,25.344694,72.626208,NH3,11,34,17
India,Rajasthan,Jhalawar,"Rajlaxmi Nagar, Jhalawar - RSPCB",08-01-2024 20:00:00,24.588397,76.172782,PM2.5,242,322,292
India,Rajasthan,Jhalawar,"Rajlaxmi Nagar, Jhalawar - RSPCB",08-01-2024 20:00:00,24.588397,76.172782,CO,42,94,47
India,Rajasthan,Jhunjhunu,"Indra Nagar, Jhunjhunu - RSPCB",08-01-2024 20:00:00,28.108988,75.386577,CO,53,88,66
India,Rajasthan,Jodhpur,"Collectorate, Jodhpur - RSPCB",08-01-2024 20:00:00,26.268249,73.0193853,PM2.5,30,500,111
India,Rajasthan,Jodhpur,"Collectorate, Jodhpur - RSPCB",08-01-2024 20:00:00,26.268249,73.0193853,PM10,NA,NA,NA
India,Rajasthan,Jodhpur,"Jhalamand, Jodhpur - RSPCB",08-01-2024 20:00:00,26.215415,73.070156,SO2,3,8,5
India,Rajasthan,Jodhpur,"Mandor, Jodhpur - RSPCB",08-01-2024 20:00:00,26.358805,73.047444,CO,36,62,47
India,Rajasthan,Jodhpur,"Samrat Ashok Udhyan, Jodhpur - RSPCB",08-01-2024 20:00:00,26.253384,72.976571,NO2,19,50,31
India,Rajasthan,Jodhpur,"Samrat Ashok Udhyan, Jodhpur - RSPCB",08-01-2024 20:00:00,26.253384,72.976571,NH3,5,13,6
India,Rajasthan,Karauli,"Satyawati Vihar, Karauli - RSPCB",08-01-2024 20:00:00,26.506177,77.025989,PM2.5,263,384,330
India,Rajasthan,Karauli,"Satyawati Vihar, Karauli - RSPCB",08-01-2024 20:00:00,26.506177,77.025989,SO2,10,20,16
India,Rajasthan,Kota,"Dhanmandi, Kota - RSPCB",08-01-2024 20:00:00,25.164090,75.858137,PM10,138,281,207
India,Rajasthan,Kota,"Dhanmandi, Kota - RSPCB",08-01-2024 20:00:00,25.164090,75.858137,SO2,3,9,7
India,Rajasthan,Kota,"Nayapura, Kota - RSPCB",08-01-2024 20:00:00,25.196024,75.855668,NH3,9,25,13
India,Rajasthan,Kota,"Nayapura, Kota - RSPCB",08-01-2024 20:00:00,25.196024,75.855668,SO2,6,13,9
India,Rajasthan,Kota,"Shrinath Puram, Kota - RSPCB",08-01-2024 20:00:00,25.14389,75.821256,NO2,NA,NA,NA
India,Rajasthan,Kota,"Shrinath Puram, Kota - RSPCB",08-01-2024 20:00:00,25.14389,75.821256,OZONE,22,30,30
India,Rajasthan,Nagaur,"Karni Colony, Nagaur - RSPCB",08-01-2024 20:00:00,27.213494,73.734444,PM10,59,171,110
India,Rajasthan,Pali,"Indira Colony Vistar, Pali - RSPCB",08-01-2024 20:00:00,25.771061, 73.340227,NO2,18,71,41
India,Rajasthan,Pali,"Indira Colony Vistar, Pali - RSPCB",08-01-2024 20:00:00,25.771061, 73.340227,OZONE,19,175,175
India,Rajasthan,Sawai Madhopur,"Sahu Nagar, Sawai Madhopur - RSPCB",08-01-2024 20:00:00,26.031443,76.359327,PM10,116,227,177
India,Rajasthan,Sikar,"Radhakishan Pura, Sikar - RSPCB",08-01-2024 20:00:00,27.608912,75.153302,OZONE,17,69,59
India,Rajasthan,Sirohi,"Vedhaynath Colony, Sirohi - RSPCB",08-01-2024 20:00:00,24.885261,72.857549,NO2,15,108,41
India,Rajasthan,Sri Ganganagar,"Old City, Sri Ganganagar - RSPCB",08-01-2024 20:00:00,29.931624,73.864511,NO2,24,96,44
India,Rajasthan,Sri Ganganagar,"Old City, Sri Ganganagar - RSPCB",08-01-2024 20:00:00,29.931624,73.864511,NH3,4,24,9
India,Rajasthan,Tonk,"Shastri Nagar, Tonk - RSPCB",08-01-2024 20:00:00,26.159933,75.780517,OZONE,1,52,35
India,Rajasthan,Udaipur,"Ashok Nagar, Udaipur - RSPCB",08-01-2024 20:00:00,24.5886166,73.6321397,PM2.5,87,306,197
India,Rajasthan,Udaipur,"Ashok Nagar, Udaipur - RSPCB",08-01-2024 20:00:00,24.5886166,73.6321397,PM10,120,226,154
India,TamilNadu,Ariyalur,"Keelapalur, Ariyalur - TNPCB",08-01-2024 20:00:00,11.06825,79.07033,SO2,2,3,3
India,TamilNadu,Chengalpattu,"Crescent University, Chengalpattu - TNPCB",08-01-2024 20:00:00,12.8777316,80.0834807,CO,26,31,30
India,TamilNadu,Chennai,"Alandur Bus Depot, Chennai - CPCB",08-01-2024 20:00:00,12.9099161,80.1076538,OZONE,17,23,19
India,TamilNadu,Chennai,"Kodungaiyur, Chennai - TNPCB",08-01-2024 20:00:00,13.1278,80.2642,PM2.5,5,33,15
India,TamilNadu,Chennai,"Kodungaiyur, Chennai - TNPCB",08-01-2024 20:00:00,13.1278,80.2642,SO2,48,62,54
India,TamilNadu,Chennai,"Kodungaiyur, Chennai - TNPCB",08-01-2024 20:00:00,13.1278,80.2642,CO,28,104,41
India,TamilNadu,Chennai,"Perungudi, Chennai - TNPCB",08-01-2024 20:00:00,12.9533,80.2357,NO2,2,9,6
India,TamilNadu,Chennai,"Perungudi, Chennai - TNPCB",08-01-2024 20:00:00,12.9533,80.2357,NH3,2,2,2
India,TamilNadu,Chennai,"Royapuram, Chennai - TNPCB",08-01-2024 20:00:00,13.1036,80.2909,PM2.5,5,63,27
India,TamilNadu,Chennai,"Royapuram, Chennai - TNPCB",08-01-2024 20:00:00,13.1036,80.2909,NH3,1,1,1
India,TamilNadu,Chennai,"Velachery Res. Area, Chennai - CPCB",08-01-2024 20:00:00,13.0052189,80.2398125,SO2,10,11,11
India,TamilNadu,Chennai,"Velachery Res. Area, Chennai - CPCB",08-01-2024 20:00:00,13.0052189,80.2398125,CO,24,98,69
India,TamilNadu,Gummidipoondi,"Anthoni Pillai Nagar, Gummidipoondi - TNPCB",08-01-2024 20:00:00,13.4127,80.1081,PM10,8,181,89
India,TamilNadu,Ooty,"Bombay Castel, Ooty - TNPCB",08-01-2024 20:00:00,11.4068288,76.7138973,NH3,NA,NA,NA
India,TamilNadu,Ooty,"Bombay Castel, Ooty - TNPCB",08-01-2024 20:00:00,11.4068288,76.7138973,SO2,13,18,13
India,TamilNadu,Ooty,"Bombay Castel, Ooty - TNPCB",08-01-2024 20:00:00,11.4068288,76.7138973,CO,18,20,18
India,TamilNadu,Ooty,"Bombay Castel, Ooty - TNPCB",08-01-2024 20:00:00,11.4068288,76.7138973,OZONE,5,6,5
India,TamilNadu,Palkalaiperur,"Bharathidasan University, Palkalaiperur - TNPCB",08-01-2024 20:00:00,10.681158,78.741746,SO2,27,28,27
India,TamilNadu,Ramanathapuram,"Chalai Bazaar, Ramanathapuram - TNPCB",08-01-2024 20:00:00,9.36399,78.831977,SO2,NA,NA,NA
India,TamilNadu,Ramanathapuram,"Chalai Bazaar, Ramanathapuram - TNPCB",08-01-2024 20:00:00,9.36399,78.831977,CO,6,24,16
India,TamilNadu,Salem,"Sona College of Technology, Salem - TNPCB",08-01-2024 20:00:00,11.679111,78.125052,NO2,7,10,8
India,TamilNadu,Thoothukudi,"Meelavittan, Thoothukudi - TNPCB",08-01-2024 20:00:00,8.816428 ,78.099039,OZONE,1,3,2
India,TamilNadu,Tiruchirappalli,"St Joseph College, Tiruchirappalli - TNPCB",08-01-2024 20:00:00,10.830158,78.691849,PM2.5,NA,NA,NA
India,TamilNadu,Tiruchirappalli,"St Joseph College, Tiruchirappalli - TNPCB",08-01-2024 20:00:00,10.830158,78.691849,NO2,NA,NA,NA
India,TamilNadu,Tirupur,"Kumaran College, Tirupur - TNPCB",08-01-2024 20:00:00,11.0973603,77.3228673,PM2.5,14,48,24
India,TamilNadu,Tirupur,"Kumaran College, Tirupur - TNPCB",08-01-2024 20:00:00,11.0973603,77.3228673,OZONE,6,7,7
India,TamilNadu,Virudhunagar,"Collectorate Office, Virudhunagar - TNPCB",08-01-2024 20:00:00,9.559382,77.948828,NO2,16,33,22
India,TamilNadu,Virudhunagar,"Collectorate Office, Virudhunagar - TNPCB",08-01-2024 20:00:00,9.559382,77.948828,SO2,17,18,17
India,TamilNadu,Virudhunagar,"Collectorate Office, Virudhunagar - TNPCB",08-01-2024 20:00:00,9.559382,77.948828,OZONE,3,4,3
India,Telangana,Hyderabad,"Bollaram Industrial Area, Hyderabad - TSPCB",08-01-2024 20:00:00,17.540891,78.358528,NH3,2,3,2
India,Telangana,Hyderabad,"Central University, Hyderabad - TSPCB",08-01-2024 20:00:00,17.460103,78.334361,NO2,10,37,22
India,Telangana,Hyderabad,"ICRISAT Patancheru, Hyderabad - TSPCB",08-01-2024 20:00:00,17.518400,78.278777,SO2,8,16,11
India,Telangana,Hyderabad,"IITH Kandi, Hyderabad - TSPCB",08-01-2024 20:00:00,17.585705,78.126199,PM2.5,NA,NA,NA
India,Telangana,Hyderabad,"IITH Kandi, Hyderabad - TSPCB",08-01-2024 20:00:00,17.585705,78.126199,NO2,NA,NA,NA
India,Telangana,Hyderabad,"Kompally Municipal Office, Hyderabad - TSPCB",08-01-2024 20:00:00,17.544899,78.486949,NH3,NA,NA,NA
India,Telangana,Hyderabad,"Ramachandrapuram, Hyderabad - TSPCB",08-01-2024 20:00:00,17.528544,78.286195,SO2,NA,NA,NA
India,Telangana,Hyderabad,"Zoo Park, Hyderabad - TSPCB",08-01-2024 20:00:00,17.349694,78.451437,PM2.5,53,106,78
India,Telangana,Hyderabad,"Zoo Park, Hyderabad - TSPCB",08-01-2024 20:00:00,17.349694,78.451437,CO,34,70,47
India,Tripura,Agartala,"Bardowali, Agartala - Tripura SPCB",08-01-2024 20:00:00,23.8175497,91.2726974,OZONE,1,15,4
India,Uttar_Pradesh,Agra,"Manoharpur, Agra - UPPCB",08-01-2024 20:00:00,27.23711,78.01936,PM10,45,115,82
India,Uttar_Pradesh,Agra,"Manoharpur, Agra - UPPCB",08-01-2024 20:00:00,27.23711,78.01936,NH3,1,2,1
India,Uttar_Pradesh,Agra,"Rohta, Agra - UPPCB",08-01-2024 20:00:00,27.106972,78.000111,CO,18,68,34
India,Uttar_Pradesh,Agra,"Sanjay Palace, Agra - UPPCB",08-01-2024 20:00:00,27.19865833,78.00598056,PM10,73,162,114
India,Uttar_Pradesh,Agra,"Sanjay Palace, Agra - UPPCB",08-01-2024 20:00:00,27.19865833,78.00598056,SO2,1,16,8
India,Uttar_Pradesh,Agra,"Sanjay Palace, Agra - UPPCB",08-01-2024 20:00:00,27.19865833,78.00598056,CO,20,101,74
India,Uttar_Pradesh,Agra,"Sector-3B Avas Vikas Colony, Agra - UPPCB",08-01-2024 20:00:00,27.19412,77.96237,NO2,23,55,33
India,Uttar_Pradesh,Agra,"Sector-3B Avas Vikas Colony, Agra - UPPCB",08-01-2024 20:00:00,27.19412,77.96237,SO2,9,15,13
India,Uttar_Pradesh,Agra,"Shastripuram, Agra - UPPCB",08-01-2024 20:00:00,27.19862,77.92066,NO2,23,27,25
India,Uttar_Pradesh,Baghpat,"Sardar Patel Inter College, Baghpat - UPPCB",08-01-2024 20:00:00,28.964949,77.278761,NO2,33,85,44
India,Uttar_Pradesh,Bareilly,"Rajendra Nagar, Bareilly - UPPCB",08-01-2024 20:00:00,28.38910936,79.42963708,PM2.5,32,91,55
India,Uttar_Pradesh,Bareilly,"Rajendra Nagar, Bareilly - UPPCB",08-01-2024 20:00:00,28.38910936,79.42963708,NO2,22,59,43
India,Uttar_Pradesh,Bareilly,"Rajendra Nagar, Bareilly - UPPCB",08-01-2024 20:00:00,28.38910936,79.42963708,OZONE,8,11,10
India,Uttar_Pradesh,Bulandshahr,"Yamunapuram, Bulandshahr - UPPCB",08-01-2024 20:00:00,28.406963,77.849831,CO,2,61,22
India,Uttar_Pradesh,Firozabad,"Nagla Bhau, Firozabad - UPPCB",08-01-2024 20:00:00,27.168897,78.376960,PM10,32,149,66
India,Uttar_Pradesh,Firozabad,"Vibhab Nagar, Firozabad - UPPCB",08-01-2024 20:00:00,27.1594,78.3953,NH3,2,2,2
India,Uttar_Pradesh,Ghaziabad,"Indirapuram, Ghaziabad - UPPCB",08-01-2024 20:00:00,28.646233,77.358075,PM2.5,217,394,308
India,Uttar_Pradesh,Ghaziabad,"Indirapuram, Ghaziabad - UPPCB",08-01-2024 20:00:00,28.646233,77.358075,NO2,74,144,110
India,Uttar_Pradesh,Ghaziabad,"Indirapuram, Ghaziabad - UPPCB",08-01-2024 20:00:00,28.646233,77.358075,CO,10,28,20
India,Uttar_Pradesh,Ghaziabad,"Loni, Ghaziabad - UPPCB",08-01-2024 20:00:00,28.757294,77.278792,PM2.5,198,408,289
India,Uttar_Pradesh,Ghaziabad,"Sanjay Nagar, Ghaziabad - UPPCB",08-01-2024 20:00:00,28.685382,77.453839,OZONE,6,40,26
India,Uttar_Pradesh,Gorakhpur,"Madan Mohan Malaviya University of Technology, Gorakhpur - UPPCB",08-01-2024 20:00:00,26.730136,83.433859,PM2.5,44,173,94
India,Uttar_Pradesh,Gorakhpur,"Madan Mohan Malaviya University of Technology, Gorakhpur - UPPCB",08-01-2024 20:00:00,26.730136,83.433859,NH3,2,3,2
India,Uttar_Pradesh,Gorakhpur,"Madan Mohan Malaviya University of Technology, Gorakhpur - UPPCB",08-01-2024 20:00:00,26.730136,83.433859,OZONE,3,52,19
India,Uttar_Pradesh,Greater Noida,"Knowledge Park - III, Greater Noida - UPPCB",08-01-2024 20:00:00,28.47272,77.482000,SO2,8,23,16
India,Uttar_Pradesh,Greater Noida,"Knowledge Park - III, Greater Noida - UPPCB",08-01-2024 20:00:00,28.47272,77.482000,CO,54,109,99
India,Uttar_Pradesh,Greater Noida,"Knowledge Park - V, Greater Noida - UPPCB",08-01-2024 20:00:00,28.557054,77.453663,PM2.5,239,425,328
India,Uttar_Pradesh,Hapur,"Anand Vihar, Hapur - UPPCB",08-01-2024 20:00:00,28.725645,77.749675,PM2.5,120,305,204
India,Uttar_Pradesh,Jhansi,"Shivaji Nagar, Jhansi - UPPCB",08-01-2024 20:00:00,25.4547,78.6039,PM10,8,139,88
India,Uttar_Pradesh,Kanpur,"FTI Kidwai Nagar, Kanpur - UPPCB",08-01-2024 20:00:00,26.428282,80.327067,NO2,11,14,11
India,Uttar_Pradesh,Kanpur,"FTI Kidwai Nagar, Kanpur - UPPCB",08-01-2024 20:00:00,26.428282,80.327067,NH3,4,5,4
India,Uttar_Pradesh,Kanpur,"FTI Kidwai Nagar, Kanpur - UPPCB",08-01-2024 20:00:00,26.428282,80.327067,CO,44,79,48
India,Uttar_Pradesh,Kanpur,"FTI Kidwai Nagar, Kanpur - UPPCB",08-01-2024 20:00:00,26.428282,80.327067,OZONE,2,6,4
India,Uttar_Pradesh,Kanpur,"NSI Kalyanpur, Kanpur - UPPCB",08-01-2024 20:00:00,26.509954,80.249612,CO,42,96,50
India,Uttar_Pradesh,Kanpur,"Nehru Nagar, Kanpur - UPPCB",08-01-2024 20:00:00,26.4703136,80.3229863,PM2.5,83,229,129
India,Uttar_Pradesh,Kanpur,"Nehru Nagar, Kanpur - UPPCB",08-01-2024 20:00:00,26.4703136,80.3229863,OZONE,11,113,78
India,Uttar_Pradesh,Khurja,"Kalindi Kunj, Khurja - UPPCB",08-01-2024 20:00:00,28.2348927,77.8683002,NH3,2,2,2
India,Uttar_Pradesh,Khurja,"Kalindi Kunj, Khurja - UPPCB",08-01-2024 20:00:00,28.2348927,77.8683002,SO2,33,45,41
India,Uttar_Pradesh,Khurja,"Kalindi Kunj, Khurja - UPPCB",08-01-2024 20:00:00,28.2348927,77.8683002,CO,38,52,41
India,Uttar_Pradesh,Khurja,"Kalindi Kunj, Khurja - UPPCB",08-01-2024 20:00:00,28.2348927,77.8683002,OZONE,20,27,22
India,Uttar_Pradesh,Lucknow,"B R Ambedkar University, Lucknow - UPPCB",08-01-2024 20:00:00,26.766433,80.927299,PM10,63,129,93
India,Uttar_Pradesh,Lucknow,"B R Ambedkar University, Lucknow - UPPCB",08-01-2024 20:00:00,26.766433,80.927299,OZONE,6,48,36
India,Uttar_Pradesh,Lucknow,"Gomti Nagar, Lucknow - UPPCB",08-01-2024 20:00:00,26.868120,81.005119,PM2.5,47,99,70
India,Uttar_Pradesh,Lucknow,"Gomti Nagar, Lucknow - UPPCB",08-01-2024 20:00:00,26.868120,81.005119,OZONE,45,60,57
India,Uttar_Pradesh,Lucknow,"Kendriya Vidyalaya, Lucknow - CPCB",08-01-2024 20:00:00,26.906111,80.948222,PM2.5,138,303,212
India,Uttar_Pradesh,Lucknow,"Kendriya Vidyalaya, Lucknow - CPCB",08-01-2024 20:00:00,26.906111,80.948222,NO2,1,9,3
India,Uttar_Pradesh,Lucknow,"Kukrail Picnic Spot-1, Lucknow - UPPCB",08-01-2024 20:00:00,26.90723,80.98579,NH3,2,2,2
India,Uttar_Pradesh,Lucknow,"Kukrail Picnic Spot-1, Lucknow - UPPCB",08-01-2024 20:00:00,26.90723,80.98579,SO2,25,27,27
India,Uttar_Pradesh,Lucknow,"Lalbagh, Lucknow - CPCB",08-01-2024 20:00:00,26.8458805,80.9365541,SO2,1,13,4
India,Uttar_Pradesh,Meerut,"Ganga Nagar, Meerut - UPPCB",08-01-2024 20:00:00,28.999264,77.7590354,NO2,26,63,36
India,Uttar_Pradesh,Meerut,"Ganga Nagar, Meerut - UPPCB",08-01-2024 20:00:00,28.999264,77.7590354,SO2,15,32,19
India,Uttar_Pradesh,Meerut,"Pallavpuram Phase 2, Meerut - UPPCB",08-01-2024 20:00:00,29.063510,77.709723,PM2.5,56,234,146
India,Uttar_Pradesh,Moradabad,"Buddhi Vihar, Moradabad - UPPCB",08-01-2024 20:00:00,28.83526,78.74460,NO2,23,24,23
India,Uttar_Pradesh,Moradabad,"Buddhi Vihar, Moradabad - UPPCB",08-01-2024 20:00:00,28.83526,78.74460,SO2,12,19,14
India,Uttar_Pradesh,Moradabad,"Employment Office, Moradabad - UPPCB",08-01-2024 20:00:00,28.88528,78.73880,PM10,56,115,91
India,Uttar_Pradesh,Moradabad,"Jigar Colony, Moradabad - UPPCB",08-01-2024 20:00:00,28.856664,78.772638,NH3,5,5,5
India,Uttar_Pradesh,Moradabad,"Kashiram Nagar, Moradabad - UPPCB",08-01-2024 20:00:00,28.849399,78.742362,OZONE,15,138,30
India,Uttar_Pradesh,Moradabad,"Transport Nagar, Moradabad - UPPCB",08-01-2024 20:00:00,28.802625,78.753728,SO2,41,43,41
India,Uttar_Pradesh,Moradabad,"Transport Nagar, Moradabad - UPPCB",08-01-2024 20:00:00,28.802625,78.753728,OZONE,15,19,17
India,Uttar_Pradesh,Noida,"Sector - 125, Noida - UPPCB",08-01-2024 20:00:00,28.5447608,77.3231257,PM2.5,NA,NA,NA
India,Uttar_Pradesh,Noida,"Sector - 62, Noida - IMD",08-01-2024 20:00:00,28.6245479,77.3577104,PM2.5,261,456,362
India,Uttar_Pradesh,Noida,"Sector - 62, Noida - IMD",08-01-2024 20:00:00,28.6245479,77.3577104,CO,80,105,95
India,Uttar_Pradesh,Noida,"Sector-116, Noida - UPPCB",08-01-2024 20:00:00,28.569230,77.393848,PM2.5,271,447,345
India,Uttar_Pradesh,Noida,"Sector-116, Noida - UPPCB",08-01-2024 20:00:00,28.569230,77.393848,NO2,27,114,54
India,Uttar_Pradesh,Noida,"Sector-116, Noida - UPPCB",08-01-2024 20:00:00,28.569230,77.393848,SO2,9,24,19
India,Uttar_Pradesh,Prayagraj,"Motilal Nehru NIT, Prayagraj - UPPCB",08-01-2024 20:00:00,25.494,81.863,CO,28,66,37
India,Uttar_Pradesh,Prayagraj,"Motilal Nehru NIT, Prayagraj - UPPCB",08-01-2024 20:00:00,25.494,81.863,OZONE,6,20,15
India,Uttar_Pradesh,Prayagraj,"Nagar Nigam, Prayagraj - UPPCB",08-01-2024 20:00:00,25.44919916 ,81.82735986 ,CO,20,102,32
India,Uttar_Pradesh,Varanasi,"Ardhali Bazar, Varanasi - UPPCB",08-01-2024 20:00:00,25.3505986,82.9083074,PM2.5,34,73,47
India,Uttar_Pradesh,Varanasi,"Bhelupur, Varanasi - UPPCB",08-01-2024 20:00:00,25.301778,82.996789,NO2,24,55,33
India,Uttar_Pradesh,Varanasi,"Bhelupur, Varanasi - UPPCB",08-01-2024 20:00:00,25.301778,82.996789,CO,2,42,13
India,Uttar_Pradesh,Varanasi,"Bhelupur, Varanasi - UPPCB",08-01-2024 20:00:00,25.301778,82.996789,OZONE,5,46,36
India,Uttar_Pradesh,Varanasi,"IESD Banaras Hindu University, Varanasi - UPPCB",08-01-2024 20:00:00,25.262326,82.995408,PM2.5,10,24,18
India,Uttarakhand,Dehradun,"Doon University, Dehradun - UKPCB",08-01-2024 20:00:00,30.269444,78.044167,CO,60,100,70
India,Uttarakhand,Kashipur,"Govt. Girls Inter College, Kashipur - UKPCB",08-01-2024 20:00:00,29.2124114,78.9611753,NO2,20,72,45
India,Uttarakhand,Rishikesh,"Shivaji Nagar, Rishikesh - UKPCB",08-01-2024 20:00:00,30.075911,78.2859547,PM2.5,75,238,159
India,Uttarakhand,Rishikesh,"Shivaji Nagar, Rishikesh - UKPCB",08-01-2024 20:00:00,30.075911,78.2859547,CO,48,66,53
India,West_Bengal,Asansol,"Asansol Court Area, Asansol - WBPCB",08-01-2024 20:00:00,23.685297,86.945968,PM10,124,169,135
India,West_Bengal,Barrackpore,"SVSPA Campus, Barrackpore - WBPCB",08-01-2024 20:00:00,22.7605581,88.3617589,CO,59,104,63
India,West_Bengal,Durgapur,"Sidhu Kanhu Indoor Stadium, Durgapur - WBPCB",08-01-2024 20:00:00,23.5404352,87.2892225,PM10,95,130,114
India,West_Bengal,Durgapur,"Sidhu Kanhu Indoor Stadium, Durgapur - WBPCB",08-01-2024 20:00:00,23.5404352,87.2892225,SO2,25,41,32
India,West_Bengal,Durgapur,"Sidhu Kanhu Indoor Stadium, Durgapur - WBPCB",08-01-2024 20:00:00,23.5404352,87.2892225,OZONE,2,71,37
India,West_Bengal,Haldia,"Priyambada Housing Estate, Haldia - WBPCB",08-01-2024 20:00:00,22.06047,88.109737,PM10,112,210,162
India,West_Bengal,Haldia,"Priyambada Housing Estate, Haldia - WBPCB",08-01-2024 20:00:00,22.06047,88.109737,NO2,20,41,31
India,West_Bengal,Howrah,"Belur Math, Howrah - WBPCB",08-01-2024 20:00:00,22.629801,88.352017,NH3,2,2,2
India,West_Bengal,Howrah,"Belur Math, Howrah - WBPCB",08-01-2024 20:00:00,22.629801,88.352017,OZONE,10,56,44
India,West_Bengal,Howrah,"Ghusuri, Howrah - WBPCB",08-01-2024 20:00:00,22.611968,88.347422,PM2.5,306,380,330
India,West_Bengal,Howrah,"Padmapukur, Howrah - WBPCB",08-01-2024 20:00:00,22.5687319,88.2797276,PM2.5,192,313,263
India,West_Bengal,Howrah,"Padmapukur, Howrah - WBPCB",08-01-2024 20:00:00,22.5687319,88.2797276,NO2,25,63,42
India,West_Bengal,Kolkata,"Ballygunge, Kolkata - WBPCB",08-01-2024 20:00:00,22.5367507,88.3638022,NO2,34,143,75
India,West_Bengal,Kolkata,"Ballygunge, Kolkata - WBPCB",08-01-2024 20:00:00,22.5367507,88.3638022,NH3,14,18,15
India,West_Bengal,Kolkata,"Ballygunge, Kolkata - WBPCB",08-01-2024 20:00:00,22.5367507,88.3638022,CO,18,106,30
India,West_Bengal,Kolkata,"Bidhannagar, Kolkata - WBPCB",08-01-2024 20:00:00,22.58157048,88.41002457,PM10,152,195,172
India,West_Bengal,Kolkata,"Bidhannagar, Kolkata - WBPCB",08-01-2024 20:00:00,22.58157048,88.41002457,SO2,9,26,14
India,West_Bengal,Kolkata,"Jadavpur, Kolkata - WBPCB",08-01-2024 20:00:00,22.49929,88.36917,OZONE,12,41,24
India,West_Bengal,Kolkata,"Rabindra Bharati University, Kolkata - WBPCB",08-01-2024 20:00:00,22.627847,88.380669,PM10,133,184,149
India,West_Bengal,Kolkata,"Rabindra Bharati University, Kolkata - WBPCB",08-01-2024 20:00:00,22.627847,88.380669,NO2,21,23,22
India,West_Bengal,Kolkata,"Rabindra Bharati University, Kolkata - WBPCB",08-01-2024 20:00:00,22.627847,88.380669,CO,40,105,44
India,West_Bengal,Kolkata,"Victoria, Kolkata - WBPCB",08-01-2024 20:00:00,22.5448082,88.3403691,PM10,158,251,186
India,West_Bengal,Kolkata,"Victoria, Kolkata - WBPCB",08-01-2024 20:00:00,22.5448082,88.3403691,SO2,20,44,30
India,West_Bengal,Siliguri,"Ward-32 Bapupara, Siliguri - WBPCB",08-01-2024 20:00:00,26.6879226,88.4152495,SO2,NA,NA,NA
India,West_Bengal,Siliguri,"Ward-32 Bapupara, Siliguri - WBPCB",08-01-2024 20:00:00,26.6879226,88.4152495,OZONE,12,49,29
India,Andhra_Pradesh,Amaravati,"Secretariat, Amaravati - APPCB",08-01-2024 20:00:00,16.5150833,80.5181667,PM2.5,NA,NA,NA
India,Andhra_Pradesh,Amaravati,"Secretariat, Amaravati - APPCB",08-01-2024 20:00:00,16.5150833,80.5181667,NO2,NA,NA,NA
India,Andhra_Pradesh,Anantapur,"Gulzarpet, Anantapur - APPCB",08-01-2024 20:00:00,14.675886,77.593027,NH3,2,3,3
India,Andhra_Pradesh,Chittoor,"Gangineni Cheruvu, Chittoor - APPCB",08-01-2024 20:00:00,13.204880,79.097889,PM2.5,14,36,24
India,Andhra_Pradesh,Kadapa,"Yerramukkapalli, Kadapa - APPCB",08-01-2024 20:00:00,14.465052,78.824187,SO2,1,2,2
India,Andhra_Pradesh,Kadapa,"Yerramukkapalli, Kadapa - APPCB",08-01-2024 20:00:00,14.465052,78.824187,OZONE,8,40,28
India,Andhra_Pradesh,Tirupati,"Vaikuntapuram, Tirupati - APPCB",08-01-2024 20:00:00,13.615387,79.409230,NO2,NA,NA,NA
India,Andhra_Pradesh,Tirupati,"Vaikuntapuram, Tirupati - APPCB",08-01-2024 20:00:00,13.615387,79.409230,CO,14,16,14
India,Andhra_Pradesh,Vijayawada,"HB Colony, Vijayawada - APPCB",08-01-2024 20:00:00,16.536107,80.594233,CO,19,23,19
India,Andhra_Pradesh,Vijayawada,"Kanuru, Vijayawada - APPCB",08-01-2024 20:00:00,16.486692,80.699436,SO2,4,4,4
India,Andhra_Pradesh,Visakhapatnam,"GVM Corporation, Visakhapatnam - APPCB",08-01-2024 20:00:00,17.72,83.3,OZONE,4,125,39
India,Assam,Byrnihat,"Central Academy for SFS, Byrnihat - PCBA",08-01-2024 20:00:00,26.071318,91.87488,PM2.5,60,438,290
India,Assam,Byrnihat,"Central Academy for SFS, Byrnihat - PCBA",08-01-2024 20:00:00,26.071318,91.87488,NO2,32,93,49
India,Assam,Guwahati,"IITG, Guwahati - PCBA",08-01-2024 20:00:00,26.2028636,91.70046436,NH3,5,5,5
India,Assam,Guwahati,"Pan Bazaar, Guwahati - PCBA",08-01-2024 20:00:00,26.187500,91.744194,NH3,3,5,4
India,Assam,Guwahati,"Pan Bazaar, Guwahati - PCBA",08-01-2024 20:00:00,26.187500,91.744194,CO,32,116,46
India,Assam,Guwahati,"Railway Colony, Guwahati - PCBA",08-01-2024 20:00:00,26.181742,91.78063,CO,27,119,53
India,Assam,Nagaon,"Christianpatty, Nagaon - PCBA",08-01-2024 20:00:00,26.349082,92.68449,PM2.5,48,366,149
India,Assam,Nagaon,"Christianpatty, Nagaon - PCBA",08-01-2024 20:00:00,26.349082,92.68449,NH3,3,7,4
India,Assam,Nalbari,"Bata Chowk, Nalbari - PCBA",08-01-2024 20:00:00,26.446912,91.439057,NH3,9,16,12
India,Assam,Nalbari,"Bata Chowk, Nalbari - PCBA",08-01-2024 20:00:00,26.446912,91.439057,CO,10,149,110
India,Assam,Silchar,"Tarapur, Silchar - PCBA",08-01-2024 20:00:00,24.82827,92.79525,PM2.5,30,36,33
India,Assam,Silchar,"Tarapur, Silchar - PCBA",08-01-2024 20:00:00,24.82827,92.79525,NH3,1,1,1
India,Assam,Silchar,"Tarapur, Silchar - PCBA",08-01-2024 20:00:00,24.82827,92.79525,SO2,3,9,6
India,Assam,Sivasagar,"Girls College, Sivasagar - PCBA",08-01-2024 20:00:00,26.987634,94.636574,NH3,3,3,3
India,Bihar,Araria,"Kharahiya Basti, Araria - BSPCB",08-01-2024 20:00:00,26.146529,87.454184,CO,44,101,67
India,Bihar,Aurangabad,"Gurdeo Nagar, Aurangabad - BSPCB",08-01-2024 20:00:00,24.75746,84.366208,NO2,8,23,11
India,Bihar,Aurangabad,"Gurdeo Nagar, Aurangabad - BSPCB",08-01-2024 20:00:00,24.75746,84.366208,OZONE,1,68,46
India,Bihar,Bettiah,"Kamalnath Nagar, Bettiah - BSPCB",08-01-2024 20:00:00,26.80365,84.51954,NH3,3,3,3
India,Bihar,Bettiah,"Kamalnath Nagar, Bettiah - BSPCB",08-01-2024 20:00:00,26.80365,84.51954,CO,9,105,16
India,Bihar,Bettiah,"Kamalnath Nagar, Bettiah - BSPCB",08-01-2024 20:00:00,26.80365,84.51954,OZONE,6,41,23
India,Bihar,Bhagalpur,"DM Office_Kachari Chowk, Bhagalpur - BSPCB",08-01-2024 20:00:00,25.251013,86.989001,PM10,165,251,202
India,Bihar,Bihar Sharif,"D M Colony, Bihar Sharif - BSPCB",08-01-2024 20:00:00,25.204762,85.514960,CO,2,42,23
India,Bihar,Chhapra,"Darshan Nagar, Chhapra - BSPCB",08-01-2024 20:00:00,25.7808257,84.7446768,CO,19,29,22
India,Bihar,Gaya,"Collectorate, Gaya - BSPCB",08-01-2024 20:00:00,24.7955,84.9994,SO2,18,36,22
India,Bihar,Gaya,"Collectorate, Gaya - BSPCB",08-01-2024 20:00:00,24.7955,84.9994,OZONE,54,80,66
India,Bihar,Gaya,"SFTI Kusdihra, Gaya - BSPCB",08-01-2024 20:00:00,24.762518,84.982348,PM2.5,38,149,96
India,Bihar,Hajipur,"Industrial Area, Hajipur - BSPCB",08-01-2024 20:00:00,25.697189,85.245900,OZONE,5,83,29
India,Bihar,Katihar,"Mirchaibari, Katihar - BSPCB",08-01-2024 20:00:00,25.560083,87.553265,NH3,3,5,4
India,Bihar,Katihar,"Mirchaibari, Katihar - BSPCB",08-01-2024 20:00:00,25.560083,87.553265,CO,28,33,29
India,Bihar,Kishanganj,"SDM Office_Khagra, Kishanganj - BSPCB",08-01-2024 20:00:00,26.0881305,87.93840336,NH3,8,11,10
India,Bihar,Manguraha,"Forest Rest House, Manguraha - BSPCB",08-01-2024 20:00:00,27.308328,84.531742,NH3,NA,NA,NA
India,Bihar,Motihari,"Gandak Colony, Motihari - BSPCB",08-01-2024 20:00:00,26.63086,84.90051,PM2.5,87,306,172
India,Bihar,Munger,"Town Hall, Munger - BSPCB",08-01-2024 20:00:00,25.376776,86.471523,PM10,119,191,155
India,Bihar,Munger,"Town Hall, Munger - BSPCB",08-01-2024 20:00:00,25.376776,86.471523,CO,9,40,23
India,Bihar,Muzaffarpur,"Buddha Colony, Muzaffarpur - BSPCB",08-01-2024 20:00:00,26.11442,85.39813,PM2.5,NA,NA,NA
India,Bihar,Muzaffarpur,"Buddha Colony, Muzaffarpur - BSPCB",08-01-2024 20:00:00,26.11442,85.39813,SO2,NA,NA,NA
India,Bihar,Muzaffarpur,"Buddha Colony, Muzaffarpur - BSPCB",08-01-2024 20:00:00,26.11442,85.39813,CO,NA,NA,NA
India,Bihar,Muzaffarpur,"MIT-Daudpur Kothi, Muzaffarpur - BSPCB",08-01-2024 20:00:00,26.1403345,85.3650192,NO2,5,8,7
India,Bihar,Patna,"DRM Office Danapur, Patna - BSPCB",08-01-2024 20:00:00,25.586562,85.043586,NO2,17,66,35
India,Bihar,Patna,"IGSC Planetarium Complex, Patna - BSPCB",08-01-2024 20:00:00,25.610369,85.132568,SO2,3,11,8
India,Bihar,Patna,"Muradpur, Patna - BSPCB",08-01-2024 20:00:00,25.619651,85.147382,OZONE,8,74,43
India,Bihar,Patna,"Samanpura, Patna - BSPCB",08-01-2024 20:00:00,25.596727,85.085624,NH3,3,3,3
India,Bihar,Patna,"Samanpura, Patna - BSPCB",08-01-2024 20:00:00,25.596727,85.085624,OZONE,3,55,25
India,Bihar,Purnia,"Mariam Nagar, Purnia - BSPCB",08-01-2024 20:00:00,25.366336,87.117468,NO2,12,14,13
India,Bihar,Rajgir,"Dangi Tola, Rajgir - BSPCB",08-01-2024 20:00:00,25.03280,85.41948,PM10,130,252,184
India,Bihar,Rajgir,"Dangi Tola, Rajgir - BSPCB",08-01-2024 20:00:00,25.03280,85.41948,CO,10,104,20
India,Bihar,Saharsa,"Police Line, Saharsa - BSPCB",08-01-2024 20:00:00,25.892357,86.590325,NO2,4,8,7
India,Bihar,Saharsa,"Police Line, Saharsa - BSPCB",08-01-2024 20:00:00,25.892357,86.590325,OZONE,2,6,5
India,Bihar,Sasaram,"Dada Peer, Sasaram - BSPCB",08-01-2024 20:00:00,24.952822,84.002396,PM2.5,123,333,189
India,Bihar,Sasaram,"Dada Peer, Sasaram - BSPCB",08-01-2024 20:00:00,24.952822,84.002396,PM10,100,196,124
India,Bihar,Siwan,"Chitragupta Nagar, Siwan - BSPCB",08-01-2024 20:00:00,26.2271665,84.3570427,SO2,31,34,33
India,Bihar,Siwan,"Chitragupta Nagar, Siwan - BSPCB",08-01-2024 20:00:00,26.2271665,84.3570427,CO,84,170,163
India,Chandigarh,Chandigarh,"Sector 22, Chandigarh - CPCC",08-01-2024 20:00:00,30.735567,76.775714,PM2.5,117,431,264
India,Chandigarh,Chandigarh,"Sector 22, Chandigarh - CPCC",08-01-2024 20:00:00,30.735567,76.775714,NO2,NA,NA,NA
India,Chandigarh,Chandigarh,"Sector-25, Chandigarh - CPCC",08-01-2024 20:00:00,30.751462,76.762879,PM2.5,79,307,169
India,Chandigarh,Chandigarh,"Sector-25, Chandigarh - CPCC",08-01-2024 20:00:00,30.751462,76.762879,PM10,91,192,137
India,Chandigarh,Chandigarh,"Sector-25, Chandigarh - CPCC",08-01-2024 20:00:00,30.751462,76.762879,NO2,13,45,25
India,Chandigarh,Chandigarh,"Sector-53, Chandigarh - CPCC",08-01-2024 20:00:00,30.719859,76.738637,OZONE,6,26,15
India,Chhattisgarh,Bhilai,"32Bungalows, Bhilai - CECB",08-01-2024 20:00:00,21.194815,81.314770,PM10,100,130,112
India,Chhattisgarh,Bhilai,"32Bungalows, Bhilai - CECB",08-01-2024 20:00:00,21.194815,81.314770,SO2,9,15,11
India,Chhattisgarh,Bhilai,"Civic Center, Bhilai - Bhilai Steel Plant",08-01-2024 20:00:00,21.185571,81.343175,NH3,NA,NA,NA
India,Chhattisgarh,Bhilai,"Civic Center, Bhilai - Bhilai Steel Plant",08-01-2024 20:00:00,21.185571,81.343175,OZONE,9,50,39
India,Chhattisgarh,Bhilai,"Hathkhoj, Bhilai - CECB",08-01-2024 20:00:00,21.224231,81.408350,NO2,39,68,47
India,Chhattisgarh,Bhilai,"Hathkhoj, Bhilai - CECB",08-01-2024 20:00:00,21.224231,81.408350,CO,26,42,31
India,Chhattisgarh,Chhal,"Nawapara SECL Colony, Chhal - CECB",08-01-2024 20:00:00,22.118125,83.140608,PM2.5,52,134,91
India,Chhattisgarh,Chhal,"Nawapara SECL Colony, Chhal - CECB",08-01-2024 20:00:00,22.118125,83.140608,PM10,57,107,82
India,Chhattisgarh,Chhal,"Nawapara SECL Colony, Chhal - CECB",08-01-2024 20:00:00,22.118125,83.140608,SO2,8,70,22
India,Chhattisgarh,Chhal,"Nawapara SECL Colony, Chhal - CECB",08-01-2024 20:00:00,22.118125,83.140608,OZONE,6,78,53
India,Chhattisgarh,Korba,"Urja Nagar, Korba - CECB",08-01-2024 20:00:00,22.348441,82.549611,PM2.5,16,47,32
India,Chhattisgarh,Korba,"Urja Nagar, Korba - CECB",08-01-2024 20:00:00,22.348441,82.549611,NO2,58,70,62
India,Chhattisgarh,Kunjemura,"OP Jindal School, Kunjemura - CECB",08-01-2024 20:00:00,22.126650,83.483212,SO2,1,94,31
India,Chhattisgarh,Milupara,"Govt. Higher Secondary School, Milupara - CECB",08-01-2024 20:00:00,22.1910172,83.5197009,NO2,14,56,26
India,Chhattisgarh,Milupara,"Govt. Higher Secondary School, Milupara - CECB",08-01-2024 20:00:00,22.1910172,83.5197009,SO2,9,62,21
India,Chhattisgarh,Raipur,"AIIMS, Raipur - CECB",08-01-2024 20:00:00,21.258815,81.578979,NO2,51,73,61
India,Chhattisgarh,Raipur,"AIIMS, Raipur - CECB",08-01-2024 20:00:00,21.258815,81.578979,NH3,4,4,4
India,Chhattisgarh,Raipur,"Bhatagaon New ISBT, Raipur - CECB",08-01-2024 20:00:00,21.219665,81.630094,OZONE,3,7,5
India,Chhattisgarh,Raipur,"Krishak Nagar, Raipur - CECB",08-01-2024 20:00:00,21.237755,81.705301,PM2.5,61,99,81
India,Chhattisgarh,Raipur,"Krishak Nagar, Raipur - CECB",08-01-2024 20:00:00,21.237755,81.705301,NO2,21,39,31
India,Chhattisgarh,Raipur,"Krishak Nagar, Raipur - CECB",08-01-2024 20:00:00,21.237755,81.705301,CO,36,52,43
India,Chhattisgarh,Raipur,"Siltara Phase-II, Raipur - CECB",08-01-2024 20:00:00,21.371751,81.664929,PM2.5,41,75,55
India,Chhattisgarh,Raipur,"Siltara Phase-II, Raipur - CECB",08-01-2024 20:00:00,21.371751,81.664929,NH3,5,10,7
India,Chhattisgarh,Raipur,"Siltara Phase-II, Raipur - CECB",08-01-2024 20:00:00,21.371751,81.664929,CO,18,40,26
India,Chhattisgarh,Tumidih,"OP Jindal Industrial Park, Tumidih - CECB",08-01-2024 20:00:00,22.06631475,83.33820077,NO2,NA,NA,NA
India,Chhattisgarh,Tumidih,"OP Jindal Industrial Park, Tumidih - CECB",08-01-2024 20:00:00,22.06631475,83.33820077,OZONE,8,83,54
India,Delhi,Delhi,"Alipur, Delhi - DPCC",08-01-2024 20:00:00,28.815329,77.153010,PM10,173,284,222
India,Delhi,Delhi,"Alipur, Delhi - DPCC",08-01-2024 20:00:00,28.815329,77.153010,NO2,25,63,37
India,Delhi,Delhi,"Burari Crossing, Delhi - IMD",08-01-2024 20:00:00,28.7256504,77.2011573,PM2.5,267,454,346
India,Delhi,Delhi,"Burari Crossing, Delhi - IMD",08-01-2024 20:00:00,28.7256504,77.2011573,OZONE,23,40,28
India,Delhi,Delhi,"DTU, Delhi - CPCB",08-01-2024 20:00:00,28.7500499,77.1112615,PM2.5,127,293,218
India,Delhi,Delhi,"DTU, Delhi - CPCB",08-01-2024 20:00:00,28.7500499,77.1112615,NO2,17,52,32
India,Delhi,Delhi,"DTU, Delhi - CPCB",08-01-2024 20:00:00,28.7500499,77.1112615,NH3,12,16,14
India,Delhi,Delhi,"Dr. Karni Singh Shooting Range, Delhi - DPCC",08-01-2024 20:00:00,28.498571,77.264840,OZONE,1,61,29
India,Delhi,Delhi,"Dwarka-Sector 8, Delhi - DPCC ",08-01-2024 20:00:00,28.5710274,77.0719006,PM10,239,491,350
India,Delhi,Delhi,"IGI Airport (T3), Delhi - IMD",08-01-2024 20:00:00,28.5627763,77.1180053,NO2,4,70,27
India,Delhi,Delhi,"IHBAS, Dilshad Garden, Delhi - CPCB",08-01-2024 20:00:00,28.6811736,77.3025234,OZONE,13,45,30
India,Delhi,Delhi,"Jahangirpuri, Delhi - DPCC",08-01-2024 20:00:00,28.732820,77.170633,SO2,14,32,20
India,Delhi,Delhi,"Jawaharlal Nehru Stadium, Delhi - DPCC",08-01-2024 20:00:00,28.580280,77.233829,PM10,190,480,298
India,Delhi,Delhi,"Lodhi Road, Delhi - IMD",08-01-2024 20:00:00,28.5918245,77.2273074,PM10,161,449,267
India,Delhi,Delhi,"Major Dhyan Chand National Stadium, Delhi - DPCC",08-01-2024 20:00:00,28.611281,77.237738,PM10,189,459,304
India,Delhi,Delhi,"Major Dhyan Chand National Stadium, Delhi - DPCC",08-01-2024 20:00:00,28.611281,77.237738,CO,63,120,90
India,Delhi,Delhi,"Major Dhyan Chand National Stadium, Delhi - DPCC",08-01-2024 20:00:00,28.611281,77.237738,OZONE,5,29,16
India,Delhi,Delhi,"Mandir Marg, Delhi - DPCC",08-01-2024 20:00:00,28.636429,77.201067,PM2.5,310,457,377
India,Delhi,Delhi,"NSIT Dwarka, Delhi - CPCB",08-01-2024 20:00:00,28.60909,77.0325413,NH3,6,8,7
India,Delhi,Delhi,"NSIT Dwarka, Delhi - CPCB",08-01-2024 20:00:00,28.60909,77.0325413,CO,6,110,44
India,Delhi,Delhi,"NSIT Dwarka, Delhi - CPCB",08-01-2024 20:00:00,28.60909,77.0325413,OZONE,16,37,28
India,Delhi,Delhi,"Najafgarh, Delhi - DPCC",08-01-2024 20:00:00,28.570173,76.933762,PM2.5,167,409,273
India,Delhi,Delhi,"Najafgarh, Delhi - DPCC",08-01-2024 20:00:00,28.570173,76.933762,NH3,5,7,6
India,Delhi,Delhi,"Narela, Delhi - DPCC",08-01-2024 20:00:00,28.822836,77.101981,SO2,6,28,12
India,Delhi,Delhi,"Nehru Nagar, Delhi - DPCC",08-01-2024 20:00:00,28.567890,77.250515,SO2,4,20,11
India,Delhi,Delhi,"Nehru Nagar, Delhi - DPCC",08-01-2024 20:00:00,28.567890,77.250515,CO,50,111,74
India,Delhi,Delhi,"Nehru Nagar, Delhi - DPCC",08-01-2024 20:00:00,28.567890,77.250515,OZONE,2,47,20
India,Delhi,Delhi,"New Moti Bagh, Delhi - MHUA",08-01-2024 20:00:00,28.57834,77.18400,PM2.5,302,449,363
India,Delhi,Delhi,"New Moti Bagh, Delhi - MHUA",08-01-2024 20:00:00,28.57834,77.18400,CO,48,106,63
India,Delhi,Delhi,"North Campus, DU, Delhi - IMD",08-01-2024 20:00:00,28.6573814,77.1585447,PM2.5,272,421,366
India,Delhi,Delhi,"North Campus, DU, Delhi - IMD",08-01-2024 20:00:00,28.6573814,77.1585447,CO,47,76,54
India,Delhi,Delhi,"Okhla Phase-2, Delhi - DPCC",08-01-2024 20:00:00,28.530785,77.271255,PM2.5,330,500,399
India,Delhi,Delhi,"Okhla Phase-2, Delhi - DPCC",08-01-2024 20:00:00,28.530785,77.271255,NH3,12,20,15
India,Delhi,Delhi,"Patparganj, Delhi - DPCC",08-01-2024 20:00:00,28.623763,77.287209,SO2,9,15,12
India,Delhi,Delhi,"Patparganj, Delhi - DPCC",08-01-2024 20:00:00,28.623763,77.287209,OZONE,9,37,25
India,Delhi,Delhi,"Punjabi Bagh, Delhi - DPCC",08-01-2024 20:00:00,28.674045,77.131023,PM2.5,345,488,409
India,Delhi,Delhi,"Punjabi Bagh, Delhi - DPCC",08-01-2024 20:00:00,28.674045,77.131023,PM10,240,454,343
India,Delhi,Delhi,"Pusa, Delhi - IMD",08-01-2024 20:00:00,28.636110,77.173332,PM2.5,160,435,304
India,Delhi,Delhi,"Pusa, Delhi - IMD",08-01-2024 20:00:00,28.636110,77.173332,NO2,26,54,35
India,Delhi,Delhi,"Pusa, Delhi - IMD",08-01-2024 20:00:00,28.636110,77.173332,OZONE,26,35,31
India,Delhi,Delhi,"R K Puram, Delhi - DPCC",08-01-2024 20:00:00,28.563262,77.186937,NO2,1,150,27
India,Delhi,Delhi,"R K Puram, Delhi - DPCC",08-01-2024 20:00:00,28.563262,77.186937,OZONE,9,39,24
India,Delhi,Delhi,"Rohini, Delhi - DPCC",08-01-2024 20:00:00,28.732528,77.119920,PM10,241,416,324
India,Delhi,Delhi,"Shadipur, Delhi - CPCB",08-01-2024 20:00:00,28.6514781,77.1473105,PM2.5,340,477,396
India,Delhi,Delhi,"Sonia Vihar, Delhi - DPCC",08-01-2024 20:00:00,28.710508,77.249485,NO2,36,70,51
India,Delhi,Delhi,"Sonia Vihar, Delhi - DPCC",08-01-2024 20:00:00,28.710508,77.249485,NH3,6,8,7
India,Delhi,Delhi,"Sri Aurobindo Marg, Delhi - DPCC",08-01-2024 20:00:00,28.531346,77.190156,PM10,168,436,286
India,Delhi,Delhi,"Vivek Vihar, Delhi - DPCC",08-01-2024 20:00:00,28.672342,77.315260,SO2,NA,NA,NA
India,Delhi,Delhi,"Vivek Vihar, Delhi - DPCC",08-01-2024 20:00:00,28.672342,77.315260,OZONE,2,8,5
India,Delhi,Delhi,"Wazirpur, Delhi - DPCC",08-01-2024 20:00:00,28.699793,77.165453,CO,40,105,65
India,Delhi,Delhi,"Wazirpur, Delhi - DPCC",08-01-2024 20:00:00,28.699793,77.165453,OZONE,12,33,22
India,Gujarat,Ahmedabad,"Chandkheda, Ahmedabad - IITM",08-01-2024 20:00:00,23.107969,72.574648,PM10,55,117,88
India,Gujarat,Ahmedabad,"Chandkheda, Ahmedabad - IITM",08-01-2024 20:00:00,23.107969,72.574648,NH3,3,3,3
India,Gujarat,Ahmedabad,"Chandkheda, Ahmedabad - IITM",08-01-2024 20:00:00,23.107969,72.574648,CO,2,40,14
India,Gujarat,Ahmedabad,"Gyaspur, Ahmedabad - IITM",08-01-2024 20:00:00,22.977134,72.553024,PM2.5,73,192,129
India,Gujarat,Ahmedabad,"Gyaspur, Ahmedabad - IITM",08-01-2024 20:00:00,22.977134,72.553024,NO2,7,17,13
India,Gujarat,Ahmedabad,"Gyaspur, Ahmedabad - IITM",08-01-2024 20:00:00,22.977134,72.553024,NH3,4,5,5
India,Gujarat,Ahmedabad,"Gyaspur, Ahmedabad - IITM",08-01-2024 20:00:00,22.977134,72.553024,SO2,3,5,5
India,Gujarat,Ahmedabad,"Maninagar, Ahmedabad - GPCB",08-01-2024 20:00:00,23.002657,72.591912,CO,18,40,23
India,Gujarat,Ahmedabad,"Maninagar, Ahmedabad - GPCB",08-01-2024 20:00:00,23.002657,72.591912,OZONE,17,107,79
India,Gujarat,Ahmedabad,"Raikhad, Ahmedabad - IITM",08-01-2024 20:00:00,23.020509,72.579261,OZONE,10,13,10
India,Gujarat,Ahmedabad,"SAC ISRO Bopal, Ahmedabad - IITM",08-01-2024 20:00:00,23.041137,72.456691,OZONE,2,12,11
India,Gujarat,Ahmedabad,"SAC ISRO Satellite, Ahmedabad - IITM",08-01-2024 20:00:00,23.023389,72.515201,NO2,12,15,13
India,Gujarat,Ahmedabad,"SAC ISRO Satellite, Ahmedabad - IITM",08-01-2024 20:00:00,23.023389,72.515201,SO2,3,8,4
India,Gujarat,Ahmedabad,"SAC ISRO Satellite, Ahmedabad - IITM",08-01-2024 20:00:00,23.023389,72.515201,CO,20,27,22
India,Gujarat,Ahmedabad,"SAC ISRO Satellite, Ahmedabad - IITM",08-01-2024 20:00:00,23.023389,72.515201,OZONE,4,17,13
India,Gujarat,Ahmedabad,"SVPI Airport Hansol, Ahmedabad - IITM",08-01-2024 20:00:00,23.076793,72.627874,NO2,9,10,10
India,Gujarat,Ahmedabad,"SVPI Airport Hansol, Ahmedabad - IITM",08-01-2024 20:00:00,23.076793,72.627874,NH3,4,4,4
India,Gujarat,Ahmedabad,"Sardar Vallabhbhai Patel Stadium, Ahmedabad - IITM",08-01-2024 20:00:00,23.043070,72.562968,NH3,3,3,3
India,Gujarat,Ankleshwar,"GIDC, Ankleshwar - GPCB",08-01-2024 20:00:00,21.613267,73.010555,PM10,80,117,101
India,Gujarat,Ankleshwar,"GIDC, Ankleshwar - GPCB",08-01-2024 20:00:00,21.613267,73.010555,NO2,34,37,36
India,Gujarat,Ankleshwar,"GIDC, Ankleshwar - GPCB",08-01-2024 20:00:00,21.613267,73.010555,SO2,21,118,48
India,Gujarat,Ankleshwar,"GIDC, Ankleshwar - GPCB",08-01-2024 20:00:00,21.613267,73.010555,CO,6,82,33
India,Gujarat,Gandhinagar,"IIPHG Lekawada, Gandhinagar - IITM",08-01-2024 20:00:00,23.243639,72.68994,CO,22,40,29
India,Gujarat,Gandhinagar,"Sector-10, Gandhinagar - GPCB",08-01-2024 20:00:00,23.221714,72.654328,NH3,NA,NA,NA
India,Gujarat,Vapi,"Phase-1 GIDC, Vapi - GPCB",08-01-2024 20:00:00,20.362421,72.918013,SO2,41,51,49
India,Gujarat,Vatva,"Phase-4 GIDC, Vatva - GPCB",08-01-2024 20:00:00,22.969611,72.643500,NO2,7,63,16
India,Haryana,Ambala,"Patti Mehar, Ambala - HSPCB",08-01-2024 20:00:00,30.379589,76.778328,PM10,25,131,50
India,Haryana,Bahadurgarh,"Arya Nagar, Bahadurgarh - HSPCB",08-01-2024 20:00:00,28.6701,76.9254,PM10,151,249,188
India,Haryana,Bahadurgarh,"Arya Nagar, Bahadurgarh - HSPCB",08-01-2024 20:00:00,28.6701,76.9254,SO2,14,25,17
India,Haryana,Ballabgarh,"Nathu Colony, Ballabgarh - HSPCB",08-01-2024 20:00:00,28.3419248,77.319699,PM10,NA,NA,NA
India,Haryana,Charkhi Dadri,"Mini Secretariat, Charkhi Dadri - HSPCB",08-01-2024 20:00:00,28.593883,76.270653,OZONE,13,18,16
India,Haryana,Faridabad,"New Industrial Town, Faridabad - HSPCB",08-01-2024 20:00:00,28.39072,77.30059,NO2,NA,NA,NA
India,Haryana,Faridabad,"Sector 11, Faridabad - HSPCB",08-01-2024 20:00:00,28.376058,77.315741,PM10,142,500,275
India,Haryana,Faridabad,"Sector 11, Faridabad - HSPCB",08-01-2024 20:00:00,28.376058,77.315741,OZONE,2,4,4
India,Haryana,Faridabad,"Sector 30, Faridabad - HSPCB",08-01-2024 20:00:00,28.4417,77.3217,PM2.5,175,219,186
India,Haryana,Faridabad,"Sector 30, Faridabad - HSPCB",08-01-2024 20:00:00,28.4417,77.3217,PM10,137,154,142
India,Haryana,Faridabad,"Sector 30, Faridabad - HSPCB",08-01-2024 20:00:00,28.4417,77.3217,CO,60,124,89
India,Haryana,Fatehabad,"Huda Sector, Fatehabad - HSPCB",08-01-2024 20:00:00,29.503664,75.467934,NO2,29,31,30
India,Haryana,Gurugram,"Sector-51, Gurugram - HSPCB",08-01-2024 20:00:00,28.4227,77.0667,SO2,2,4,3
India,Haryana,Gurugram,"Teri Gram, Gurugram - HSPCB",08-01-2024 20:00:00,28.4275,77.1465,NO2,2,59,24
India,Haryana,Gurugram,"Teri Gram, Gurugram - HSPCB",08-01-2024 20:00:00,28.4275,77.1465,NH3,20,56,46
India,Haryana,Gurugram,"Vikas Sadan, Gurugram - HSPCB",08-01-2024 20:00:00,28.4501238,77.0263051,SO2,13,33,26
India,Haryana,Gurugram,"Vikas Sadan, Gurugram - HSPCB",08-01-2024 20:00:00,28.4501238,77.0263051,CO,54,139,100
India,Haryana,Hisar,"Urban Estate-II, Hisar - HSPCB",08-01-2024 20:00:00,29.140560,75.744941,PM2.5,80,170,107
India,Haryana,Hisar,"Urban Estate-II, Hisar - HSPCB",08-01-2024 20:00:00,29.140560,75.744941,NO2,6,10,8
India,Haryana,Jind,"Police Lines, Jind - HSPCB",08-01-2024 20:00:00,29.307814,76.337619,OZONE,10,17,11
India,Haryana,Kaithal,"Rishi Nagar, Kaithal - HSPCB",08-01-2024 20:00:00,29.8006,76.4155,SO2,1,106,10
India,Haryana,Karnal,"Sector-12, Karnal - HSPCB",08-01-2024 20:00:00,29.695300,77.002700,SO2,5,90,21
India,Haryana,Mandikhera,"General Hospital, Mandikhera - HSPCB",08-01-2024 20:00:00,27.9002,76.9938,CO,49,60,53
India,Haryana,Manesar,"Sector-2 IMT, Manesar - HSPCB",08-01-2024 20:00:00,28.360699,76.936090,PM2.5,173,339,270
India,Haryana,Manesar,"Sector-2 IMT, Manesar - HSPCB",08-01-2024 20:00:00,28.360699,76.936090,PM10,126,237,172
India,Haryana,Panipat,"Sector-18, Panipat - HSPCB",08-01-2024 20:00:00,29.497973,76.993331,SO2,12,13,13
India,Haryana,Rohtak,"MD University, Rohtak - HSPCB",08-01-2024 20:00:00,28.52123,76.37138,PM2.5,283,463,337
India,Haryana,Sonipat,"Murthal, Sonipat - HSPCB",08-01-2024 20:00:00,29.027200,77.062100,NO2,37,44,40
India,Haryana,Sonipat,"Murthal, Sonipat - HSPCB",08-01-2024 20:00:00,29.027200,77.062100,CO,10,30,24
India,Haryana,Yamuna Nagar,"Gobind Pura, Yamuna Nagar - HSPCB",08-01-2024 20:00:00,30.1480566,77.2893471,PM2.5,37,334,124
India,Haryana,Yamuna Nagar,"Gobind Pura, Yamuna Nagar - HSPCB",08-01-2024 20:00:00,30.1480566,77.2893471,SO2,2,56,8
India,Himachal Pradesh,Baddi,"HIMUDA Complex Phase-1, Baddi - HPPCB",08-01-2024 20:00:00,30.943887,76.801991,PM10,NA,NA,NA
India,Himachal Pradesh,Baddi,"HIMUDA Complex Phase-1, Baddi - HPPCB",08-01-2024 20:00:00,30.943887,76.801991,SO2,NA,NA,NA
India,Jharkhand,Dhanbad,"Kalakusuma, Dhanbad - DMC",08-01-2024 20:00:00,23.811548,86.481238,PM2.5,5,196,22
India,Jharkhand,Dhanbad,"Sardar Patel Nagar, Dhanbad - JSPCB",08-01-2024 20:00:00,23.80569,86.44268,NO2,NA,NA,NA
India,Jharkhand,Pathardih,"Mohalbani Ghat, Pathardih - DMC",08-01-2024 20:00:00,23.669880,86.411725,PM2.5,NA,NA,NA
India,Jharkhand,Pathardih,"Mohalbani Ghat, Pathardih - DMC",08-01-2024 20:00:00,23.669880,86.411725,OZONE,16,17,16
India,Karnataka,Bagalkot,"Vidayagiri, Bagalkot - KSPCB",08-01-2024 20:00:00,16.172806,75.659694,NO2,10,11,10
India,Karnataka,Bengaluru,"BTM Layout, Bengaluru - CPCB",08-01-2024 20:00:00,12.9135218,77.5950804,PM2.5,NA,NA,NA
India,Karnataka,Bengaluru,"BTM Layout, Bengaluru - CPCB",08-01-2024 20:00:00,12.9135218,77.5950804,PM10,25,58,45
India,Karnataka,Bengaluru,"BTM Layout, Bengaluru - CPCB",08-01-2024 20:00:00,12.9135218,77.5950804,OZONE,13,35,28
India,Karnataka,Bengaluru,"Hombegowda Nagar, Bengaluru - KSPCB",08-01-2024 20:00:00,12.938539,77.590100,NO2,NA,NA,NA
