country,state,city,station,last_update,latitude,longitude,pollutant_id,pollutant_min,pollutant_max,pollutant_avg
India,Andhra_Pradesh,Amaravati,"Secretariat, Amaravati - APPCB",17-07-2024 20:00:00,16.5150833,80.5181667,SO2,15,19,17
India,Andhra_Pradesh,Anantapur,"Gulzarpet, Anantapur - APPCB",17-07-2024 20:00:00,14.675886,77.593027,PM10,55,79,65
India,Andhra_Pradesh,Anantapur,"Gulzarpet, Anantapur - APPCB",17-07-2024 20:00:00,14.675886,77.593027,SO2,3,5,4
India,Andhra_Pradesh,Chittoor,"Gangineni Cheruvu, Chittoor - APPCB",17-07-2024 20:00:00,13.204880,79.097889,PM10,NA,NA,NA
India,Andhra_Pradesh,Kadapa,"Yerramukkapalli, Kadapa - APPCB",17-07-2024 20:00:00,14.465052,78.824187,SO2,2,3,2
India,Andhra_Pradesh,Rajamahendravaram,"Anand Kala Kshetram, Rajamahendravaram - APPCB",17-07-2024 20:00:00,16.9872867,81.7363176,CO,19,68,48
India,Andhra_Pradesh,Tirupati,"Tirumala, Tirupati - APPCB",17-07-2024 20:00:00,13.67,79.35,PM2.5,3,28,15
India,Andhra_Pradesh,Tirupati,"Tirumala, Tirupati - APPCB",17-07-2024 20:00:00,13.67,79.35,PM10,11,31,21
India,Andhra_Pradesh,Tirupati,"Tirumala, Tirupati - APPCB",17-07-2024 20:00:00,13.67,79.35,NO2,10,25,18
India,Andhra_Pradesh,Tirupati,"Vaikuntapuram, Tirupati - APPCB",17-07-2024 20:00:00,13.615387,79.409230,SO2,1,5,4
India,Andhra_Pradesh,Vijayawada,"HB Colony, Vijayawada - APPCB",17-07-2024 20:00:00,16.536107,80.594233,NO2,7,21,11
India,Andhra_Pradesh,Vijayawada,"Rajiv Gandhi Park, Vijayawada - APPCB",17-07-2024 20:00:00,16.509717,80.612222,PM10,31,68,45
India,Andhra_Pradesh,Vijayawada,"Rajiv Gandhi Park, Vijayawada - APPCB",17-07-2024 20:00:00,16.509717,80.612222,NO2,26,54,35
India,Andhra_Pradesh,Vijayawada,"Rajiv Gandhi Park, Vijayawada - APPCB",17-07-2024 20:00:00,16.509717,80.612222,OZONE,24,26,26
India,Andhra_Pradesh,Vijayawada,"Rajiv Nagar, Vijayawada - APPCB",17-07-2024 20:00:00,16.554731,80.649110,SO2,26,26,26
India,Andhra_Pradesh,Visakhapatnam,"GVM Corporation, Visakhapatnam - APPCB",17-07-2024 20:00:00,17.72,83.3,SO2,4,15,8
India,Andhra_Pradesh,Visakhapatnam,"GVM Corporation, Visakhapatnam - APPCB",17-07-2024 20:00:00,17.72,83.3,CO,2,46,22
India,Arunachal_Pradesh,Naharlagun,"Naharlagun, Naharlagun - APSPCB",17-07-2024 20:00:00,27.103358,93.679645,PM10,6,81,38
India,Arunachal_Pradesh,Naharlagun,"Naharlagun, Naharlagun - APSPCB",17-07-2024 20:00:00,27.103358,93.679645,SO2,4,4,4
India,Assam,Byrnihat,"Central Academy for SFS, Byrnihat - PCBA",17-07-2024 20:00:00,26.071318,91.87488,SO2,NA,NA,NA
India,Assam,Guwahati,"IITG, Guwahati - PCBA",17-07-2024 20:00:00,26.2028636,91.70046436,SO2,14,16,15
India,Assam,Guwahati,"Railway Colony, Guwahati - PCBA",17-07-2024 20:00:00,26.181742,91.78063,SO2,3,4,4
India,Assam,Nalbari,"Bata Chowk, Nalbari - PCBA",17-07-2024 20:00:00,26.446912,91.439057,SO2,4,59,9
India,Assam,Silchar,"Tarapur, Silchar - PCBA",17-07-2024 20:00:00,24.82827,92.79525,PM10,45,50,47
India,Assam,Sivasagar,"Girls College, Sivasagar - PCBA",17-07-2024 20:00:00,26.987634,94.636574,OZONE,1,6,3
India,Bihar,Araria,"Kharahiya Basti, Araria - BSPCB",17-07-2024 20:00:00,26.146529,87.454184,PM2.5,NA,NA,NA
India,Bihar,Araria,"Kharahiya Basti, Araria - BSPCB",17-07-2024 20:00:00,26.146529,87.454184,NO2,6,13,7
India,Bihar,Araria,"Kharahiya Basti, Araria - BSPCB",17-07-2024 20:00:00,26.146529,87.454184,CO,23,48,41
India,Bihar,Arrah,"New DM Office, Arrah - BSPCB",17-07-2024 20:00:00,25.5626095,84.663264,OZONE,3,66,20
India,Bihar,Aurangabad,"Gurdeo Nagar, Aurangabad - BSPCB",17-07-2024 20:00:00,24.75746,84.366208,PM2.5,NA,NA,NA
India,Bihar,Aurangabad,"Gurdeo Nagar, Aurangabad - BSPCB",17-07-2024 20:00:00,24.75746,84.366208,NO2,9,14,11
India,Bihar,Bhagalpur,"DM Office_Kachari Chowk, Bhagalpur - BSPCB",17-07-2024 20:00:00,25.251013,86.989001,NO2,20,41,34
India,Bihar,Bhagalpur,"Mayaganj, Bhagalpur - BSPCB",17-07-2024 20:00:00,25.265194,87.012947,PM2.5,32,315,77
India,Bihar,Bhagalpur,"Mayaganj, Bhagalpur - BSPCB",17-07-2024 20:00:00,25.265194,87.012947,NO2,4,8,6
India,Bihar,Bhagalpur,"Mayaganj, Bhagalpur - BSPCB",17-07-2024 20:00:00,25.265194,87.012947,NH3,6,9,7
India,Bihar,Bhagalpur,"Mayaganj, Bhagalpur - BSPCB",17-07-2024 20:00:00,25.265194,87.012947,SO2,6,57,36
India,Bihar,Bihar Sharif,"D M Colony, Bihar Sharif - BSPCB",17-07-2024 20:00:00,25.204762,85.514960,PM2.5,10,25,18
India,Bihar,Bihar Sharif,"D M Colony, Bihar Sharif - BSPCB",17-07-2024 20:00:00,25.204762,85.514960,PM10,NA,NA,NA
India,Bihar,Buxar,"Charitra Van, Buxar - BSPCB (Formerly known as Central Jail)",17-07-2024 20:00:00,25.567520,83.966379,CO,36,48,40
India,Bihar,Buxar,"Charitra Van, Buxar - BSPCB (Formerly known as Central Jail)",17-07-2024 20:00:00,25.567520,83.966379,OZONE,17,46,40
India,Bihar,Chhapra,"Darshan Nagar, Chhapra - BSPCB",17-07-2024 20:00:00,25.7808257,84.7446768,PM2.5,12,33,24
India,Bihar,Chhapra,"Darshan Nagar, Chhapra - BSPCB",17-07-2024 20:00:00,25.7808257,84.7446768,CO,28,62,42
India,Bihar,Chhapra,"Darshan Nagar, Chhapra - BSPCB",17-07-2024 20:00:00,25.7808257,84.7446768,OZONE,11,34,19
India,Bihar,Gaya,"Kareemganj, Gaya - BSPCB",17-07-2024 20:00:00,24.792403,84.992416,PM10,33,99,54
India,Bihar,Gaya,"SFTI Kusdihra, Gaya - BSPCB",17-07-2024 20:00:00,24.762518,84.982348,NH3,3,4,3
India,Bihar,Hajipur,"Industrial Area, Hajipur - BSPCB",17-07-2024 20:00:00,25.697189,85.245900,NO2,NA,NA,NA
India,Bihar,Katihar,"Mirchaibari, Katihar - BSPCB",17-07-2024 20:00:00,25.560083,87.553265,PM10,NA,NA,NA
India,Bihar,Kishanganj,"SDM Office_Khagra, Kishanganj - BSPCB",17-07-2024 20:00:00,26.0881305,87.93840336,CO,6,7,6
India,Bihar,Motihari,"Gandak Colony, Motihari - BSPCB",17-07-2024 20:00:00,26.63086,84.90051,PM2.5,NA,NA,NA
India,Bihar,Munger,"Town Hall, Munger - BSPCB",17-07-2024 20:00:00,25.376776,86.471523,PM10,42,108,73
India,Bihar,Muzaffarpur,"Buddha Colony, Muzaffarpur - BSPCB",17-07-2024 20:00:00,26.11442,85.39813,PM10,27,48,37
India,Bihar,Muzaffarpur,"Buddha Colony, Muzaffarpur - BSPCB",17-07-2024 20:00:00,26.11442,85.39813,CO,28,40,31
India,Bihar,Muzaffarpur,"MIT-Daudpur Kothi, Muzaffarpur - BSPCB",17-07-2024 20:00:00,26.1403345,85.3650192,CO,7,84,34
India,Bihar,Patna,"DRM Office Danapur, Patna - BSPCB",17-07-2024 20:00:00,25.586562,85.043586,NO2,19,29,23
India,Bihar,Patna,"IGSC Planetarium Complex, Patna - BSPCB",17-07-2024 20:00:00,25.610369,85.132568,NO2,12,12,12
India,Bihar,Patna,"IGSC Planetarium Complex, Patna - BSPCB",17-07-2024 20:00:00,25.610369,85.132568,CO,16,20,18
India,Bihar,Patna,"Muradpur, Patna - BSPCB",17-07-2024 20:00:00,25.619651,85.147382,PM2.5,25,58,41
India,Bihar,Patna,"Samanpura, Patna - BSPCB",17-07-2024 20:00:00,25.596727,85.085624,PM2.5,28,67,47
India,Bihar,Patna,"Samanpura, Patna - BSPCB",17-07-2024 20:00:00,25.596727,85.085624,PM10,50,88,72
India,Bihar,Patna,"Samanpura, Patna - BSPCB",17-07-2024 20:00:00,25.596727,85.085624,NO2,9,31,13
India,Bihar,Patna,"Samanpura, Patna - BSPCB",17-07-2024 20:00:00,25.596727,85.085624,SO2,2,4,3
India,Bihar,Patna,"Samanpura, Patna - BSPCB",17-07-2024 20:00:00,25.596727,85.085624,CO,28,51,32
India,Bihar,Rajgir,"Dangi Tola, Rajgir - BSPCB",17-07-2024 20:00:00,25.03280,85.41948,NH3,NA,NA,NA
India,Bihar,Rajgir,"Dangi Tola, Rajgir - BSPCB",17-07-2024 20:00:00,25.03280,85.41948,SO2,NA,NA,NA
India,Bihar,Saharsa,"Police Line, Saharsa - BSPCB",17-07-2024 20:00:00,25.892357,86.590325,OZONE,NA,NA,NA
India,Bihar,Sasaram,"Dada Peer, Sasaram - BSPCB",17-07-2024 20:00:00,24.952822,84.002396,PM2.5,10,48,22
India,Bihar,Siwan,"Chitragupta Nagar, Siwan - BSPCB",17-07-2024 20:00:00,26.2271665,84.3570427,SO2,NA,NA,NA
India,Bihar,Siwan,"Chitragupta Nagar, Siwan - BSPCB",17-07-2024 20:00:00,26.2271665,84.3570427,CO,44,105,54
India,Chandigarh,Chandigarh,"Sector 22, Chandigarh - CPCC",17-07-2024 20:00:00,30.735567,76.775714,NO2,21,66,34
India,Chandigarh,Chandigarh,"Sector-25, Chandigarh - CPCC",17-07-2024 20:00:00,30.751462,76.762879,PM2.5,42,88,59
India,Chandigarh,Chandigarh,"Sector-25, Chandigarh - CPCC",17-07-2024 20:00:00,30.751462,76.762879,NH3,17,60,28
India,Chandigarh,Chandigarh,"Sector-53, Chandigarh - CPCC",17-07-2024 20:00:00,30.719859,76.738637,PM2.5,12,103,50
India,Chandigarh,Chandigarh,"Sector-53, Chandigarh - CPCC",17-07-2024 20:00:00,30.719859,76.738637,NH3,1,32,10
India,Chhattisgarh,Bhilai,"32Bungalows, Bhilai - CECB",17-07-2024 20:00:00,21.194815,81.314770,PM2.5,9,39,21
India,Chhattisgarh,Bhilai,"32Bungalows, Bhilai - CECB",17-07-2024 20:00:00,21.194815,81.314770,NO2,7,9,8
India,Chhattisgarh,Bhilai,"Civic Center, Bhilai - Bhilai Steel Plant",17-07-2024 20:00:00,21.185571,81.343175,SO2,9,11,10
India,Chhattisgarh,Bhilai,"Hathkhoj, Bhilai - CECB",17-07-2024 20:00:00,21.224231,81.408350,NH3,9,9,9
India,Chhattisgarh,Bhilai,"Hathkhoj, Bhilai - CECB",17-07-2024 20:00:00,21.224231,81.408350,CO,7,106,54
India,Chhattisgarh,Bilaspur,"Mangala, Bilaspur - NTPC",17-07-2024 20:00:00,22.08815,82.13737,NO2,21,23,22
India,Chhattisgarh,Chhal,"Nawapara SECL Colony, Chhal - CECB",17-07-2024 20:00:00,22.118125,83.140608,CO,20,32,24
India,Chhattisgarh,Korba,"Rampur, Korba - CECB",17-07-2024 20:00:00,22.368195,82.746431,CO,22,26,25
India,Chhattisgarh,Korba,"Urja Nagar, Korba - CECB",17-07-2024 20:00:00,22.348441,82.549611,SO2,7,9,8
India,Chhattisgarh,Raipur,"AIIMS, Raipur - CECB",17-07-2024 20:00:00,21.258815,81.578979,PM2.5,6,30,14
India,Chhattisgarh,Raipur,"AIIMS, Raipur - CECB",17-07-2024 20:00:00,21.258815,81.578979,PM10,13,56,28
India,Chhattisgarh,Raipur,"Bhatagaon New ISBT, Raipur - CECB",17-07-2024 20:00:00,21.219665,81.630094,PM2.5,5,34,14
India,Chhattisgarh,Raipur,"Siltara Phase-II, Raipur - CECB",17-07-2024 20:00:00,21.371751,81.664929,PM2.5,9,336,59
India,Chhattisgarh,Raipur,"Siltara Phase-II, Raipur - CECB",17-07-2024 20:00:00,21.371751,81.664929,PM10,13,192,71
India,Chhattisgarh,Raipur,"Siltara Phase-II, Raipur - CECB",17-07-2024 20:00:00,21.371751,81.664929,NH3,3,3,3
India,Chhattisgarh,Raipur,"Siltara Phase-II, Raipur - CECB",17-07-2024 20:00:00,21.371751,81.664929,SO2,6,17,9
India,Delhi,Delhi,"Alipur, Delhi - DPCC",17-07-2024 20:00:00,28.815329,77.153010,CO,4,12,7
India,Delhi,Delhi,"Anand Vihar, Delhi - DPCC",17-07-2024 20:00:00,28.647622,77.3158090,PM10,57,205,135
India,Delhi,Delhi,"Anand Vihar, Delhi - DPCC",17-07-2024 20:00:00,28.647622,77.3158090,SO2,18,23,20
India,Delhi,Delhi,"Ashok Vihar, Delhi - DPCC",17-07-2024 20:00:00,28.695381,77.181665,PM2.5,15,177,69
India,Delhi,Delhi,"Ashok Vihar, Delhi - DPCC",17-07-2024 20:00:00,28.695381,77.181665,NO2,19,62,33
India,Delhi,Delhi,"Ashok Vihar, Delhi - DPCC",17-07-2024 20:00:00,28.695381,77.181665,NH3,7,10,9
India,Delhi,Delhi,"Aya Nagar, Delhi - IMD",17-07-2024 20:00:00,28.4706914,77.1099364,PM2.5,NA,NA,NA
India,Delhi,Delhi,"Burari Crossing, Delhi - IMD",17-07-2024 20:00:00,28.7256504,77.2011573,OZONE,15,62,50
India,Delhi,Delhi,"Chandni Chowk, Delhi - IITM",17-07-2024 20:00:00,28.656756,77.227234,PM10,NA,NA,NA
India,Delhi,Delhi,"Chandni Chowk, Delhi - IITM",17-07-2024 20:00:00,28.656756,77.227234,NH3,NA,NA,NA
India,Delhi,Delhi,"DTU, Delhi - CPCB",17-07-2024 20:00:00,28.7500499,77.1112615,SO2,44,47,46
India,Delhi,Delhi,"Dr. Karni Singh Shooting Range, Delhi - DPCC",17-07-2024 20:00:00,28.498571,77.264840,NH3,9,22,15
India,Delhi,Delhi,"Dr. Karni Singh Shooting Range, Delhi - DPCC",17-07-2024 20:00:00,28.498571,77.264840,OZONE,22,83,48
India,Delhi,Delhi,"IGI Airport (T3), Delhi - IMD",17-07-2024 20:00:00,28.5627763,77.1180053,PM10,43,133,89
India,Delhi,Delhi,"ITO, Delhi - CPCB",17-07-2024 20:00:00,28.628624,77.241060,PM10,35,80,49
India,Delhi,Delhi,"Jahangirpuri, Delhi - DPCC",17-07-2024 20:00:00,28.732820,77.170633,PM10,57,193,125
India,Delhi,Delhi,"Jahangirpuri, Delhi - DPCC",17-07-2024 20:00:00,28.732820,77.170633,CO,35,87,56
India,Delhi,Delhi,"Jawaharlal Nehru Stadium, Delhi - DPCC",17-07-2024 20:00:00,28.580280,77.233829,PM10,34,105,64
India,Delhi,Delhi,"Jawaharlal Nehru Stadium, Delhi - DPCC",17-07-2024 20:00:00,28.580280,77.233829,OZONE,12,60,35
India,Delhi,Delhi,"Lodhi Road, Delhi - IMD",17-07-2024 20:00:00,28.5918245,77.2273074,PM2.5,29,88,58
India,Delhi,Delhi,"Major Dhyan Chand National Stadium, Delhi - DPCC",17-07-2024 20:00:00,28.611281,77.237738,PM10,41,120,73
India,Delhi,Delhi,"Major Dhyan Chand National Stadium, Delhi - DPCC",17-07-2024 20:00:00,28.611281,77.237738,SO2,3,11,7
India,Delhi,Delhi,"Major Dhyan Chand National Stadium, Delhi - DPCC",17-07-2024 20:00:00,28.611281,77.237738,OZONE,1,35,20
India,Delhi,Delhi,"Mandir Marg, Delhi - DPCC",17-07-2024 20:00:00,28.636429,77.201067,PM2.5,27,200,69
India,Delhi,Delhi,"Mandir Marg, Delhi - DPCC",17-07-2024 20:00:00,28.636429,77.201067,NO2,40,70,58
India,Delhi,Delhi,"Mundka, Delhi - DPCC",17-07-2024 20:00:00,28.684678,77.076574,PM2.5,20,160,60
India,Delhi,Delhi,"NSIT Dwarka, Delhi - CPCB",17-07-2024 20:00:00,28.60909,77.0325413,PM2.5,37,89,58
India,Delhi,Delhi,"NSIT Dwarka, Delhi - CPCB",17-07-2024 20:00:00,28.60909,77.0325413,NH3,9,10,9
India,Delhi,Delhi,"NSIT Dwarka, Delhi - CPCB",17-07-2024 20:00:00,28.60909,77.0325413,SO2,11,20,17
India,Delhi,Delhi,"NSIT Dwarka, Delhi - CPCB",17-07-2024 20:00:00,28.60909,77.0325413,OZONE,3,14,11
India,Delhi,Delhi,"Najafgarh, Delhi - DPCC",17-07-2024 20:00:00,28.570173,76.933762,CO,36,54,40
India,Delhi,Delhi,"Narela, Delhi - DPCC",17-07-2024 20:00:00,28.822836,77.101981,CO,38,59,42
India,Delhi,Delhi,"Nehru Nagar, Delhi - DPCC",17-07-2024 20:00:00,28.567890,77.250515,PM10,58,113,80
India,Delhi,Delhi,"Nehru Nagar, Delhi - DPCC",17-07-2024 20:00:00,28.567890,77.250515,CO,60,78,65
India,Delhi,Delhi,"North Campus, DU, Delhi - IMD",17-07-2024 20:00:00,28.6573814,77.1585447,PM10,15,142,72
India,Delhi,Delhi,"North Campus, DU, Delhi - IMD",17-07-2024 20:00:00,28.6573814,77.1585447,CO,36,56,38
India,Delhi,Delhi,"Okhla Phase-2, Delhi - DPCC",17-07-2024 20:00:00,28.530785,77.271255,NO2,18,50,33
India,Delhi,Delhi,"Okhla Phase-2, Delhi - DPCC",17-07-2024 20:00:00,28.530785,77.271255,CO,44,73,50
India,Delhi,Delhi,"Patparganj, Delhi - DPCC",17-07-2024 20:00:00,28.623763,77.287209,NO2,10,50,22
India,Delhi,Delhi,"Patparganj, Delhi - DPCC",17-07-2024 20:00:00,28.623763,77.287209,NH3,6,14,9
India,Delhi,Delhi,"Punjabi Bagh, Delhi - DPCC",17-07-2024 20:00:00,28.674045,77.131023,NH3,3,10,6
India,Delhi,Delhi,"Punjabi Bagh, Delhi - DPCC",17-07-2024 20:00:00,28.674045,77.131023,OZONE,6,58,40
India,Delhi,Delhi,"Pusa, Delhi - IMD",17-07-2024 20:00:00,28.636110,77.173332,CO,59,80,63
India,Delhi,Delhi,"R K Puram, Delhi - DPCC",17-07-2024 20:00:00,28.563262,77.186937,CO,4,58,23
India,Delhi,Delhi,"Shadipur, Delhi - CPCB",17-07-2024 20:00:00,28.6514781,77.1473105,PM10,35,102,64
India,Delhi,Delhi,"Sonia Vihar, Delhi - DPCC",17-07-2024 20:00:00,28.710508,77.249485,PM2.5,42,366,122
India,Delhi,Delhi,"Sonia Vihar, Delhi - DPCC",17-07-2024 20:00:00,28.710508,77.249485,NO2,14,46,26
India,Delhi,Delhi,"Sonia Vihar, Delhi - DPCC",17-07-2024 20:00:00,28.710508,77.249485,CO,20,48,25
India,Delhi,Delhi,"Sri Aurobindo Marg, Delhi - DPCC",17-07-2024 20:00:00,28.531346,77.190156,PM10,65,111,86
India,Delhi,Delhi,"Vivek Vihar, Delhi - DPCC",17-07-2024 20:00:00,28.672342,77.315260,NH3,17,18,17
India,Delhi,Delhi,"Vivek Vihar, Delhi - DPCC",17-07-2024 20:00:00,28.672342,77.315260,CO,42,74,57
India,Delhi,Delhi,"Wazirpur, Delhi - DPCC",17-07-2024 20:00:00,28.699793,77.165453,PM10,57,166,104
India,Gujarat,Ahmedabad,"Chandkheda, Ahmedabad - IITM",17-07-2024 20:00:00,23.107969,72.574648,PM2.5,19,59,34
India,Gujarat,Ahmedabad,"Gyaspur, Ahmedabad - IITM",17-07-2024 20:00:00,22.977134,72.553024,PM2.5,86,165,108
India,Gujarat,Ahmedabad,"Maninagar, Ahmedabad - GPCB",17-07-2024 20:00:00,23.002657,72.591912,CO,2,102,57
India,Gujarat,Ahmedabad,"Rakhial, Ahmedabad - IITM",17-07-2024 20:00:00,23.016834,72.625775,OZONE,5,97,38
India,Gujarat,Ahmedabad,"SVPI Airport Hansol, Ahmedabad - IITM",17-07-2024 20:00:00,23.076793,72.627874,PM2.5,14,35,24
India,Gujarat,Ahmedabad,"SVPI Airport Hansol, Ahmedabad - IITM",17-07-2024 20:00:00,23.076793,72.627874,NH3,4,7,5
India,Gujarat,Ahmedabad,"Sardar Vallabhbhai Patel Stadium, Ahmedabad - IITM",17-07-2024 20:00:00,23.043070,72.562968,NO2,15,43,24
India,Gujarat,Ahmedabad,"Sardar Vallabhbhai Patel Stadium, Ahmedabad - IITM",17-07-2024 20:00:00,23.043070,72.562968,CO,15,48,28
India,Gujarat,Ankleshwar,"GIDC, Ankleshwar - GPCB",17-07-2024 20:00:00,21.613267,73.010555,NH3,2,3,2
India,Gujarat,Gandhinagar,"GIFT City, Gandhinagar - IITM",17-07-2024 20:00:00,23.163798,72.677768,PM2.5,24,69,49
India,Gujarat,Gandhinagar,"GIFT City, Gandhinagar - IITM",17-07-2024 20:00:00,23.163798,72.677768,CO,16,34,26
India,Gujarat,Vatva,"Phase-4 GIDC, Vatva - GPCB",17-07-2024 20:00:00,22.969611,72.643500,PM10,29,75,54
India,Gujarat,Vatva,"Phase-4 GIDC, Vatva - GPCB",17-07-2024 20:00:00,22.969611,72.643500,CO,20,22,21
India,Haryana,Ambala,"Patti Mehar, Ambala - HSPCB",17-07-2024 20:00:00,30.379589,76.778328,NO2,7,20,14
India,Haryana,Bahadurgarh,"Arya Nagar, Bahadurgarh - HSPCB",17-07-2024 20:00:00,28.6701,76.9254,OZONE,34,41,37
India,Haryana,Ballabgarh,"Nathu Colony, Ballabgarh - HSPCB",17-07-2024 20:00:00,28.3419248,77.319699,PM10,49,121,90
India,Haryana,Ballabgarh,"Nathu Colony, Ballabgarh - HSPCB",17-07-2024 20:00:00,28.3419248,77.319699,OZONE,20,46,32
India,Haryana,Bhiwani,"H.B. Colony, Bhiwani - HSPCB",17-07-2024 20:00:00,28.806223,76.141105,SO2,5,24,9
India,Haryana,Bhiwani,"H.B. Colony, Bhiwani - HSPCB",17-07-2024 20:00:00,28.806223,76.141105,CO,25,101,55
India,Haryana,Charkhi Dadri,"Mini Secretariat, Charkhi Dadri - HSPCB",17-07-2024 20:00:00,28.593883,76.270653,PM10,32,100,68
India,Haryana,Charkhi Dadri,"Mini Secretariat, Charkhi Dadri - HSPCB",17-07-2024 20:00:00,28.593883,76.270653,NH3,6,8,7
India,Haryana,Charkhi Dadri,"Mini Secretariat, Charkhi Dadri - HSPCB",17-07-2024 20:00:00,28.593883,76.270653,SO2,12,17,15
India,Haryana,Faridabad,"New Industrial Town, Faridabad - HSPCB",17-07-2024 20:00:00,28.39072,77.30059,CO,8,38,20
India,Haryana,Faridabad,"New Industrial Town, Faridabad - HSPCB",17-07-2024 20:00:00,28.39072,77.30059,OZONE,3,24,20
India,Haryana,Faridabad,"Sector- 16A, Faridabad - HSPCB",17-07-2024 20:00:00,28.4088421,77.3099081,OZONE,14,14,14
India,Haryana,Fatehabad,"Huda Sector, Fatehabad - HSPCB",17-07-2024 20:00:00,29.503664,75.467934,PM2.5,58,61,59
India,Haryana,Fatehabad,"Huda Sector, Fatehabad - HSPCB",17-07-2024 20:00:00,29.503664,75.467934,NO2,29,31,30
India,Haryana,Fatehabad,"Huda Sector, Fatehabad - HSPCB",17-07-2024 20:00:00,29.503664,75.467934,NH3,10,10,10
India,Haryana,Gurugram,"Teri Gram, Gurugram - HSPCB",17-07-2024 20:00:00,28.4275,77.1465,SO2,4,4,4
India,Haryana,Gurugram,"Teri Gram, Gurugram - HSPCB",17-07-2024 20:00:00,28.4275,77.1465,CO,2,89,48
India,Haryana,Gurugram,"Vikas Sadan, Gurugram - HSPCB",17-07-2024 20:00:00,28.4501238,77.0263051,OZONE,8,68,50
India,Haryana,Hisar,"Urban Estate-II, Hisar - HSPCB",17-07-2024 20:00:00,29.140560,75.744941,SO2,NA,NA,NA
India,Haryana,Kaithal,"Rishi Nagar, Kaithal - HSPCB",17-07-2024 20:00:00,29.8006,76.4155,SO2,1,109,16
India,Haryana,Kaithal,"Rishi Nagar, Kaithal - HSPCB",17-07-2024 20:00:00,29.8006,76.4155,OZONE,20,84,33
India,Haryana,Karnal,"Sector-12, Karnal - HSPCB",17-07-2024 20:00:00,29.695300,77.002700,PM10,25,72,46
India,Haryana,Kurukshetra,"Sector-7, Kurukshetra - HSPCB",17-07-2024 20:00:00,29.966942,76.875879,NO2,16,20,19
India,Haryana,Mandikhera,"General Hospital, Mandikhera - HSPCB",17-07-2024 20:00:00,27.9002,76.9938,PM2.5,5,30,18
India,Haryana,Manesar,"Sector-2 IMT, Manesar - HSPCB",17-07-2024 20:00:00,28.360699,76.936090,NO2,15,16,15
India,Haryana,Manesar,"Sector-2 IMT, Manesar - HSPCB",17-07-2024 20:00:00,28.360699,76.936090,NH3,2,2,2
India,Haryana,Manesar,"Sector-2 IMT, Manesar - HSPCB",17-07-2024 20:00:00,28.360699,76.936090,CO,4,13,6
India,Haryana,Manesar,"Sector-2 IMT, Manesar - HSPCB",17-07-2024 20:00:00,28.360699,76.936090,OZONE,9,52,38
India,Haryana,Narnaul,"Shastri Nagar, Narnaul - HSPCB",17-07-2024 20:00:00,28.060249,76.113115,OZONE,29,55,42
India,Haryana,Palwal,"Shyam Nagar, Palwal - HSPCB",17-07-2024 20:00:00,28.1485564,77.3320667,PM10,NA,NA,NA
India,Haryana,Panchkula,"Sector-6, Panchkula - HSPCB ",17-07-2024 20:00:00,30.7057778,76.8531805555555,SO2,2,108,11
India,Haryana,Panchkula,"Sector-6, Panchkula - HSPCB ",17-07-2024 20:00:00,30.7057778,76.8531805555555,CO,2,14,7
India,Haryana,Panipat,"Sector-18, Panipat - HSPCB",17-07-2024 20:00:00,29.432304,76.972765,SO2,18,19,19
India,Haryana,Panipat,"Sector-18, Panipat - HSPCB",17-07-2024 20:00:00,29.432304,76.972765,CO,24,26,25
India,Haryana,Rohtak,"MD University, Rohtak - HSPCB",17-07-2024 20:00:00,28.52123,76.37138,NO2,34,39,36
India,Haryana,Rohtak,"MD University, Rohtak - HSPCB",17-07-2024 20:00:00,28.52123,76.37138,OZONE,45,53,49
India,Haryana,Sirsa,"F-Block, Sirsa - HSPCB",17-07-2024 20:00:00,29.536400,75.015800,PM10,49,80,67
India,Haryana,Sonipat,"Murthal, Sonipat - HSPCB",17-07-2024 20:00:00,29.027200,77.062100,NO2,37,44,40
India,Haryana,Sonipat,"Murthal, Sonipat - HSPCB",17-07-2024 20:00:00,29.027200,77.062100,NH3,7,10,9
India,Haryana,Sonipat,"Murthal, Sonipat - HSPCB",17-07-2024 20:00:00,29.027200,77.062100,SO2,12,29,20
India,Haryana,Yamuna Nagar,"Gobind Pura, Yamuna Nagar - HSPCB",17-07-2024 20:00:00,30.1480566,77.2893471,PM10,27,81,50
India,Haryana,Yamuna Nagar,"Gobind Pura, Yamuna Nagar - HSPCB",17-07-2024 20:00:00,30.1480566,77.2893471,NO2,11,21,16
India,Himachal Pradesh,Baddi,"HIMUDA Complex Phase-1, Baddi - HPPCB",17-07-2024 20:00:00,30.943887,76.801991,NH3,9,11,10
India,Jammu_and_Kashmir,Srinagar,"Rajbagh, Srinagar - JKSPCB",17-07-2024 20:00:00,34.066206,74.819820,PM10,30,106,77
India,Jharkhand,Dhanbad,"Kalakusuma, Dhanbad - DMC",17-07-2024 20:00:00,23.811548,86.481238,OZONE,29,29,29
India,Jharkhand,Jorapokhar,"Tata Stadium, Jorapokhar - JSPCB",17-07-2024 20:00:00,23.707909,86.414670,PM10,NA,NA,NA
India,Jharkhand,Jorapokhar,"Tata Stadium, Jorapokhar - JSPCB",17-07-2024 20:00:00,23.707909,86.414670,NH3,NA,NA,NA
India,Jharkhand,Pathardih,"Mohalbani Ghat, Pathardih - DMC",17-07-2024 20:00:00,23.669880,86.411725,OZONE,52,70,65
India,Karnataka,Bengaluru,"BTM Layout, Bengaluru - CPCB",17-07-2024 20:00:00,12.9135218,77.5950804,PM2.5,16,18,16
India,Karnataka,Bengaluru,"BTM Layout, Bengaluru - CPCB",17-07-2024 20:00:00,12.9135218,77.5950804,SO2,11,13,11
India,Karnataka,Bengaluru,"Hebbal, Bengaluru - KSPCB",17-07-2024 20:00:00,13.029152,77.585901,PM10,NA,NA,NA
India,Karnataka,Bengaluru,"Hebbal, Bengaluru - KSPCB",17-07-2024 20:00:00,13.029152,77.585901,NH3,NA,NA,NA
India,Karnataka,Bengaluru,"Hebbal, Bengaluru - KSPCB",17-07-2024 20:00:00,13.029152,77.585901,OZONE,7,20,13
India,Karnataka,Bengaluru,"Hombegowda Nagar, Bengaluru - KSPCB",17-07-2024 20:00:00,12.938539,77.590100,PM2.5,5,22,14
India,Karnataka,Bengaluru,"Hombegowda Nagar, Bengaluru - KSPCB",17-07-2024 20:00:00,12.938539,77.590100,NO2,7,15,11
India,Karnataka,Bengaluru,"Hombegowda Nagar, Bengaluru - KSPCB",17-07-2024 20:00:00,12.938539,77.590100,OZONE,7,15,12
India,Karnataka,Bengaluru,"Jayanagar 5th Block, Bengaluru - KSPCB",17-07-2024 20:00:00,12.920984,77.584908,NO2,8,9,8
India,Karnataka,Bengaluru,"Jigani, Bengaluru - KSPCB",17-07-2024 20:00:00,12.7816279,77.6299145,NO2,30,34,32
India,Karnataka,Bengaluru,"Jigani, Bengaluru - KSPCB",17-07-2024 20:00:00,12.7816279,77.6299145,OZONE,28,29,28
India,Karnataka,Bengaluru,"Kasturi Nagar, Bengaluru - KSPCB",17-07-2024 20:00:00,13.003872,77.664217,SO2,10,10,10
India,Karnataka,Bengaluru,"Kasturi Nagar, Bengaluru - KSPCB",17-07-2024 20:00:00,13.003872,77.664217,OZONE,39,39,39
India,Karnataka,Bengaluru,"Peenya, Bengaluru - CPCB",17-07-2024 20:00:00,13.0270199,77.494094,CO,78,81,80
India,Karnataka,Bengaluru,"Shivapura_Peenya, Bengaluru - KSPCB",17-07-2024 20:00:00,13.0246342,77.5080115,PM10,27,64,41
India,Karnataka,Bengaluru,"Shivapura_Peenya, Bengaluru - KSPCB",17-07-2024 20:00:00,13.0246342,77.5080115,NO2,15,16,15
India,Karnataka,Bengaluru,"Shivapura_Peenya, Bengaluru - KSPCB",17-07-2024 20:00:00,13.0246342,77.5080115,CO,18,28,20
India,Karnataka,Bengaluru,"Silk Board, Bengaluru - KSPCB",17-07-2024 20:00:00,12.917348,77.622813,NO2,9,22,16
India,Karnataka,Bengaluru,"Silk Board, Bengaluru - KSPCB",17-07-2024 20:00:00,12.917348,77.622813,OZONE,11,18,15
India,Karnataka,Bidar,"Naubad, Bidar - KSPCB",17-07-2024 20:00:00,17.930306,77.482194,NH3,5,8,6
India,Karnataka,Bidar,"Naubad, Bidar - KSPCB",17-07-2024 20:00:00,17.930306,77.482194,SO2,11,14,12
India,Karnataka,Chamarajanagar,"Urban, Chamarajanagar - KSPCB",17-07-2024 20:00:00,11.55358,76.55521,CO,19,23,22
India,Karnataka,Dharwad,"Kalabhavan, Dharwad - KSPCB",17-07-2024 20:00:00,15.459706,75.008381,PM2.5,20,90,41
India,Karnataka,Dharwad,"Kalabhavan, Dharwad - KSPCB",17-07-2024 20:00:00,15.459706,75.008381,OZONE,14,19,17
India,Karnataka,Gadag,"Panchal Nagar, Gadag - KSPCB",17-07-2024 20:00:00,15.411456,75.638133,NH3,1,3,2
India,Karnataka,Hassan,"B.Katihalli, Hassan - KSPCB",17-07-2024 20:00:00,13.008556,76.125258,NO2,NA,NA,NA
India,Karnataka,Haveri,"Ashwini Nagar, Haveri - KSPCB",17-07-2024 20:00:00,14.791800,75.389600,CO,36,37,36
India,Karnataka,Hubballi,"Lingaraj Nagar, Hubballi - KSPCB",17-07-2024 20:00:00,15.3714823,75.1160168,PM10,38,86,55
India,Karnataka,Hubballi,"Lingaraj Nagar, Hubballi - KSPCB",17-07-2024 20:00:00,15.3714823,75.1160168,NO2,4,10,8
India,Karnataka,Kalaburagi,"Mahatma Basaveswar Colony, Kalaburgi - KSPCB",17-07-2024 20:00:00,17.336318,76.847397,SO2,2,4,3
India,Karnataka,Koppal,"Diwator Nagar, Koppal - KSPCB",17-07-2024 20:00:00,15.347630,76.181767,NO2,23,57,46
India,Karnataka,Koppal,"Diwator Nagar, Koppal - KSPCB",17-07-2024 20:00:00,15.347630,76.181767,CO,4,4,4
India,Karnataka,Madikeri,"Stuart Hill, Madikeri - KSPCB",17-07-2024 20:00:00,12.415911,75.735050,OZONE,16,19,18
India,Karnataka,Mangalore,"Kadri, Mangalore - KSPCB",17-07-2024 20:00:00,12.889250,74.853000,PM2.5,NA,NA,NA
India,Karnataka,Mysuru,"Hebbal 1st Stage, Mysuru - KSPCB",17-07-2024 20:00:00,12.21041,76.37376,PM10,23,50,31
India,Karnataka,Raichur,"Haji Colony, Raichur - KSPCB",17-07-2024 20:00:00,16.208139,77.348417,CO,94,103,101
India,Karnataka,Ramanagara,"Vijay Nagar, Ramanagara - KSPCB",17-07-2024 20:00:00,12.733409,77.298051,NH3,2,3,2
India,Karnataka,Shivamogga,"Vinoba Nagara, Shivamogga - KSPCB",17-07-2024 20:00:00,13.940000,75.555917,NO2,7,132,19
India,Karnataka,Shivamogga,"Vinoba Nagara, Shivamogga - KSPCB",17-07-2024 20:00:00,13.940000,75.555917,NH3,1,26,3
India,Karnataka,Shivamogga,"Vinoba Nagara, Shivamogga - KSPCB",17-07-2024 20:00:00,13.940000,75.555917,SO2,2,9,4
India,Karnataka,Tumakuru,"Thimmalapura, Tumakuru - KSPCB",17-07-2024 20:00:00,13.377516,77.099072,PM2.5,18,41,27
India,Karnataka,Tumakuru,"Thimmalapura, Tumakuru - KSPCB",17-07-2024 20:00:00,13.377516,77.099072,NO2,17,17,17
India,Karnataka,Tumakuru,"Thimmalapura, Tumakuru - KSPCB",17-07-2024 20:00:00,13.377516,77.099072,NH3,2,3,2
India,Karnataka,Yadgir,"Collector Office, Yadgir - KSPCB",17-07-2024 20:00:00,16.7602,77.1428,NH3,1,2,1
India,Kerala,Eloor,"Udyogamandal, Eloor - Kerala PCB",17-07-2024 20:00:00,10.073232,76.302765,PM10,41,48,43
India,Kerala,Kollam,"Polayathode, Kollam - Kerala PCB",17-07-2024 20:00:00,8.8787,76.6073,NO2,8,9,8
India,Kerala,Kollam,"Polayathode, Kollam - Kerala PCB",17-07-2024 20:00:00,8.8787,76.6073,SO2,1,12,3
India,Kerala,Thiruvananthapuram,"Kariavattom, Thiruvananthapuram - Kerala PCB",17-07-2024 20:00:00,8.563700,76.886500,NO2,6,7,7
India,Kerala,Thiruvananthapuram,"Plammoodu, Thiruvananthapuram - Kerala PCB",17-07-2024 20:00:00,8.5149093,76.9435879,CO,6,114,28
India,Kerala,Thiruvananthapuram,"Plammoodu, Thiruvananthapuram - Kerala PCB",17-07-2024 20:00:00,8.5149093,76.9435879,OZONE,8,62,19
India,Kerala,Thrissur,"Corporation Ground, Thrissur - Kerala PCB",17-07-2024 20:00:00,10.532400,76.215900,PM2.5,33,39,36
India,Madhya Pradesh,Bhopal,"Idgah Hills, Bhopal - MPPCB",17-07-2024 20:00:00,23.264759,77.381568,SO2,8,11,9
India,Madhya Pradesh,Damoh,"Shrivastav Colony, Damoh - MPPCB",17-07-2024 20:00:00,23.81748678,79.446246,PM2.5,12,80,29
India,Madhya Pradesh,Damoh,"Shrivastav Colony, Damoh - MPPCB",17-07-2024 20:00:00,23.81748678,79.446246,PM10,14,95,35
India,Madhya Pradesh,Dewas,"Bhopal Chauraha, Dewas - MPPCB",17-07-2024 20:00:00,22.9682591,76.064118,CO,14,30,25
India,Madhya Pradesh,Gwalior,"City Center, Gwalior - MPPCB",17-07-2024 20:00:00,26.203442,78.193251,CO,22,96,40
India,Madhya Pradesh,Gwalior,"Maharaj Bada, Gwalior - MPPCB",17-07-2024 20:00:00,26.200388,78.147714,PM10,18,201,45
India,Madhya Pradesh,Gwalior,"Maharaj Bada, Gwalior - MPPCB",17-07-2024 20:00:00,26.200388,78.147714,SO2,11,20,13
India,Madhya Pradesh,Gwalior,"Maharaj Bada, Gwalior - MPPCB",17-07-2024 20:00:00,26.200388,78.147714,OZONE,29,62,47
India,Madhya Pradesh,Indore,"Chhoti Gwaltoli, Indore - MPPCB",17-07-2024 20:00:00,22.4310,75.5213,CO,1,105,75
India,Madhya Pradesh,Indore,"Chhoti Gwaltoli, Indore - MPPCB",17-07-2024 20:00:00,22.4310,75.5213,OZONE,8,40,26
India,Madhya Pradesh,Indore,"Residency Area, Indore - IMC",17-07-2024 20:00:00,22.7084,75.8815,PM2.5,5,32,19
India,Madhya Pradesh,Jabalpur,"Gupteshwar, Jabalpur - JMC",17-07-2024 20:00:00,23.142888,79.916147,NH3,4,5,4
India,Madhya Pradesh,Jabalpur,"Marhatal, Jabalpur - MPPCB",17-07-2024 20:00:00,23.168606,79.932247,PM2.5,7,53,28
India,Madhya Pradesh,Jabalpur,"Marhatal, Jabalpur - MPPCB",17-07-2024 20:00:00,23.168606,79.932247,CO,24,82,42
India,Madhya Pradesh,Jabalpur,"Suhagi, Jabalpur - JMC",17-07-2024 20:00:00,23.218135,79.957770,NH3,3,3,3
India,Madhya Pradesh,Katni,"Gole Bazar, Katni - MPPCB",17-07-2024 20:00:00,23.50016,80.23284,PM2.5,15,62,32
India,Madhya Pradesh,Katni,"Gole Bazar, Katni - MPPCB",17-07-2024 20:00:00,23.50016,80.23284,PM10,21,85,43
India,Madhya Pradesh,Mandideep,"Sector-D Industrial Area, Mandideep - MPPCB",17-07-2024 20:00:00,23.108440,77.511428,PM2.5,24,112,50
India,Madhya Pradesh,Mandideep,"Sector-D Industrial Area, Mandideep - MPPCB",17-07-2024 20:00:00,23.108440,77.511428,SO2,10,100,39
India,Madhya Pradesh,Sagar,"Civil Lines, Sagar - MPPCB",17-07-2024 20:00:00,23.838586,78.759431,CO,37,55,43
India,Madhya Pradesh,Sagar,"Deen Dayal Nagar, Sagar - MPPCB",17-07-2024 20:00:00,23.8640158,78.80289321,SO2,12,12,12
India,Madhya Pradesh,Satna,"Bandhavgar Colony, Satna - Birla Cement",17-07-2024 20:00:00,24.58434363,80.8549414,PM10,21,26,25
India,Madhya Pradesh,Satna,"Bandhavgar Colony, Satna - Birla Cement",17-07-2024 20:00:00,24.58434363,80.8549414,NO2,22,41,28
India,Madhya Pradesh,Satna,"Bandhavgar Colony, Satna - Birla Cement",17-07-2024 20:00:00,24.58434363,80.8549414,OZONE,8,35,8
India,Madhya Pradesh,Singrauli,"Suryakiran Bhawan NCL, Singrauli - MPPCB",17-07-2024 20:00:00,24.108970,82.645580,SO2,54,87,72
India,Madhya Pradesh,Ujjain,"Mahakaleshwar Temple, Ujjain - MPPCB",17-07-2024 20:00:00,23.182719 ,75.768218 ,PM2.5,14,46,28
India,Maharashtra,Ahmednagar,"Tarakpur, Ahmednagar - MPCB",17-07-2024 20:00:00,19.10122,74.73339,CO,3,56,26
India,Maharashtra,Akola,"Ramdaspeth, Akola - MPCB",17-07-2024 20:00:00,20.719516,77.000253,PM10,21,56,40
India,Maharashtra,Akola,"Ramdaspeth, Akola - MPCB",17-07-2024 20:00:00,20.719516,77.000253,NH3,2,9,5
India,Maharashtra,Badlapur,"Katrap, Badlapur - MPCB",17-07-2024 20:00:00,19.16485,73.23409,PM10,42,77,56
India,Maharashtra,Badlapur,"Katrap, Badlapur - MPCB",17-07-2024 20:00:00,19.16485,73.23409,NH3,2,4,3
India,Maharashtra,Bhiwandi,"Gokul Nagar, Bhiwandi - MPCB",17-07-2024 20:00:00,19.309073,73.057223,PM2.5,31,72,50
India,Maharashtra,Bhiwandi,"Gokul Nagar, Bhiwandi - MPCB",17-07-2024 20:00:00,19.309073,73.057223,NO2,14,34,22
India,Maharashtra,Boisar,"Khaira, Boisar - MPCB",17-07-2024 20:00:00,19.786089,72.757971,OZONE,3,9,6
India,Maharashtra,Chandrapur,"Chauhan Colony, Chandrapur - MPCB",17-07-2024 20:00:00,19.962900,79.298714,PM10,NA,NA,NA
India,Maharashtra,Dhule,"Deopur, Dhule - MPCB",17-07-2024 20:00:00,20.918946,74.776388,PM2.5,12,51,32
India,Maharashtra,Dhule,"Deopur, Dhule - MPCB",17-07-2024 20:00:00,20.918946,74.776388,CO,8,24,10
India,Maharashtra,Jalna,"Old MIDC, Jalna - MPCB",17-07-2024 20:00:00,19.854616,75.905894,NO2,NA,NA,NA
India,Maharashtra,Jalna,"Old MIDC, Jalna - MPCB",17-07-2024 20:00:00,19.854616,75.905894,CO,NA,NA,NA
India,Maharashtra,Jalna,"Old MIDC, Jalna - MPCB",17-07-2024 20:00:00,19.854616,75.905894,OZONE,NA,NA,NA
India,Maharashtra,Kalyan,"Khadakpada, Kalyan - MPCB",17-07-2024 20:00:00,19.25292,73.142019,NH3,1,1,1
India,Maharashtra,Kolhapur,"Shivaji University, Kolhapur - MPCB",17-07-2024 20:00:00,16.6870449,74.2505872,PM2.5,10,36,21
India,Maharashtra,Kolhapur,"Sinchan Bhavan, Kolhapur - MPCB",17-07-2024 20:00:00,16.7143745,74.2426398,PM10,NA,NA,NA
India,Maharashtra,Kolhapur,"Sinchan Bhavan, Kolhapur - MPCB",17-07-2024 20:00:00,16.7143745,74.2426398,SO2,NA,NA,NA
India,Maharashtra,Latur,"Sawe Wadi, Latur - MPCB",17-07-2024 20:00:00,18.39963,76.57452,PM10,28,60,38
India,Maharashtra,Latur,"Sawe Wadi, Latur - MPCB",17-07-2024 20:00:00,18.39963,76.57452,NH3,8,9,8
India,Maharashtra,Latur,"Sawe Wadi, Latur - MPCB",17-07-2024 20:00:00,18.39963,76.57452,CO,7,34,21
India,Maharashtra,Mahad,"Kamble Tarf Birwadi, Mahad - MPCB",17-07-2024 20:00:00,18.1023399,73.4783687,SO2,5,33,14
India,Maharashtra,Malegaon,"Mahesh Nagar, Malegaon - MPCB",17-07-2024 20:00:00,20.555712,74.529236,NO2,3,38,17
India,Maharashtra,Mira-Bhayandar,"Bhayandar West, Mira-Bhayandar - MPCB",17-07-2024 20:00:00,19.296481,72.840923,PM10,27,88,49
India,Maharashtra,Mira-Bhayandar,"Bhayandar West, Mira-Bhayandar - MPCB",17-07-2024 20:00:00,19.296481,72.840923,OZONE,1,28,24
India,Maharashtra,Mumbai,"Bandra Kurla Complex, Mumbai - MPCB",17-07-2024 20:00:00,19.065931,72.862131,NO2,9,25,14
India,Maharashtra,Mumbai,"Borivali East, Mumbai - IITM",17-07-2024 20:00:00,19.23241,72.86895,NH3,2,6,4
India,Maharashtra,Mumbai,"Borivali East, Mumbai - MPCB",17-07-2024 20:00:00,19.2243333,72.8658113,SO2,3,7,5
India,Maharashtra,Mumbai,"Byculla, Mumbai - BMC",17-07-2024 20:00:00,18.9767,72.8380,OZONE,2,25,20
India,Maharashtra,Mumbai,"Chembur, Mumbai - MPCB",17-07-2024 20:00:00,19.0364585,72.8954371,PM2.5,14,39,27
India,Maharashtra,Mumbai,"Chembur, Mumbai - MPCB",17-07-2024 20:00:00,19.0364585,72.8954371,PM10,19,31,25
India,Maharashtra,Mumbai,"Chembur, Mumbai - MPCB",17-07-2024 20:00:00,19.0364585,72.8954371,NO2,22,50,38
India,Maharashtra,Mumbai,"Chembur, Mumbai - MPCB",17-07-2024 20:00:00,19.0364585,72.8954371,OZONE,13,32,21
India,Maharashtra,Mumbai,"Chhatrapati Shivaji Intl. Airport (T2), Mumbai - MPCB",17-07-2024 20:00:00,19.10078,72.87462,SO2,16,19,18
India,Maharashtra,Mumbai,"Deonar, Mumbai - IITM",17-07-2024 20:00:00,19.04946,72.9230,NO2,4,8,6
India,Maharashtra,Mumbai,"Deonar, Mumbai - IITM",17-07-2024 20:00:00,19.04946,72.9230,NH3,2,6,4
India,Maharashtra,Mumbai,"Ghatkopar, Mumbai - BMC",17-07-2024 20:00:00,19.083694,72.920967,SO2,1,2,1
India,Maharashtra,Mumbai,"Kandivali East, Mumbai - MPCB",17-07-2024 20:00:00,19.205800,72.868200,PM10,14,57,21
India,Maharashtra,Mumbai,"Kandivali East, Mumbai - MPCB",17-07-2024 20:00:00,19.205800,72.868200,NO2,13,46,24
India,Maharashtra,Mumbai,"Kandivali East, Mumbai - MPCB",17-07-2024 20:00:00,19.205800,72.868200,NH3,1,8,3
India,Maharashtra,Mumbai,"Kandivali West, Mumbai - BMC",17-07-2024 20:00:00,19.215859,72.831718,PM2.5,8,26,16
India,Maharashtra,Mumbai,"Kandivali West, Mumbai - BMC",17-07-2024 20:00:00,19.215859,72.831718,NH3,2,3,3
India,Maharashtra,Mumbai,"Kherwadi_Bandra East, Mumbai - MPCB",17-07-2024 20:00:00,19.0632143,72.8456324,NO2,5,14,8
India,Maharashtra,Mumbai,"Khindipada-Bhandup West, Mumbai - IITM",17-07-2024 20:00:00,19.1653323,72.922099,NO2,NA,NA,NA
India,Maharashtra,Mumbai,"Khindipada-Bhandup West, Mumbai - IITM",17-07-2024 20:00:00,19.1653323,72.922099,CO,2,10,6
India,Maharashtra,Mumbai,"Malad West, Mumbai - IITM",17-07-2024 20:00:00,19.19709,72.82204,NH3,1,3,1
India,Maharashtra,Mumbai,"Malad West, Mumbai - IITM",17-07-2024 20:00:00,19.19709,72.82204,OZONE,5,20,15
India,Maharashtra,Mumbai,"Mazgaon, Mumbai - IITM",17-07-2024 20:00:00,18.96702,72.84214,NO2,30,68,45
India,Maharashtra,Mumbai,"Mindspace-Malad West, Mumbai - MPCB",17-07-2024 20:00:00,19.1878657,72.8304069,SO2,1,6,3
India,Maharashtra,Mumbai,"Navy Nagar-Colaba, Mumbai - IITM",17-07-2024 20:00:00,18.897756,72.813320,OZONE,20,38,24
India,Maharashtra,Mumbai,"Sewri, Mumbai - BMC",17-07-2024 20:00:00,19.000084,72.856730,PM10,15,57,32
India,Maharashtra,Mumbai,"Sewri, Mumbai - BMC",17-07-2024 20:00:00,19.000084,72.856730,CO,19,48,28
India,Maharashtra,Mumbai,"Sion, Mumbai - MPCB",17-07-2024 20:00:00,19.047000,72.874600,PM2.5,19,49,32
India,Maharashtra,Mumbai,"Worli, Mumbai - MPCB",17-07-2024 20:00:00,18.9936162,72.8128113,CO,58,60,58
India,Maharashtra,Nagpur,"Ambazari, Nagpur - MPCB",17-07-2024 20:00:00,21.121801,79.04952,PM10,33,105,80
India,Maharashtra,Nagpur,"Ambazari, Nagpur - MPCB",17-07-2024 20:00:00,21.121801,79.04952,CO,17,102,21
India,Maharashtra,Nagpur,"Mahal, Nagpur - MPCB",17-07-2024 20:00:00,21.14472,79.107595,CO,30,108,37
India,Maharashtra,Nagpur,"Ram Nagar, Nagpur - MPCB",17-07-2024 20:00:00,21.143383,79.048912,PM10,17,83,52
India,Maharashtra,Nagpur,"Ram Nagar, Nagpur - MPCB",17-07-2024 20:00:00,21.143383,79.048912,SO2,2,4,3
India,Maharashtra,Nagpur,"Ram Nagar, Nagpur - MPCB",17-07-2024 20:00:00,21.143383,79.048912,CO,8,75,12
India,Maharashtra,Nanded,"Sneh Nagar, Nanded - MPCB",17-07-2024 20:00:00,19.173852,77.296291,PM2.5,13,38,23
India,Maharashtra,Nashik,"Hirawadi, Nashik - MPCB",17-07-2024 20:00:00,20.021503,73.813844,OZONE,12,40,30
India,Maharashtra,Nashik,"Pandav Nagari, Nashik - MPCB",17-07-2024 20:00:00,19.9591346,73.7788008,NO2,9,45,22
India,Maharashtra,Navi Mumbai,"Kopripada-Vashi, Navi Mumbai - MPCB",17-07-2024 20:00:00,19.090337,73.014232,PM2.5,NA,NA,NA
India,Maharashtra,Navi Mumbai,"Mahape, Navi Mumbai - MPCB",17-07-2024 20:00:00,19.1135051,73.008978,NO2,34,35,34
India,Maharashtra,Navi Mumbai,"Mahape, Navi Mumbai - MPCB",17-07-2024 20:00:00,19.1135051,73.008978,SO2,7,10,9
India,Maharashtra,Navi Mumbai,"Nerul, Navi Mumbai - MPCB",17-07-2024 20:00:00,19.008751,73.016620,PM10,14,70,40
India,Maharashtra,Navi Mumbai,"Sector-2E Kalamboli, Navi Mumbai - MPCB",17-07-2024 20:00:00,19.02579,73.10297,NO2,32,93,60
India,Maharashtra,Pimpri-Chinchwad,"Gavalinagar, Pimpri Chinchwad - MPCB",17-07-2024 20:00:00,18.63673,73.82487,PM10,19,35,27
India,Maharashtra,Pimpri-Chinchwad,"Gavalinagar, Pimpri Chinchwad - MPCB",17-07-2024 20:00:00,18.63673,73.82487,NO2,31,33,33
India,Maharashtra,Pimpri-Chinchwad,"Thergaon, Pimpri Chinchwad - MPCB",17-07-2024 20:00:00,18.616318,73.765797,SO2,2,3,2
India,Maharashtra,Pune,"Alandi, Pune - IITM",17-07-2024 20:00:00,18.675076,73.892743,CO,38,56,47
India,Maharashtra,Pune,"Bhosari, Pune - IITM",17-07-2024 20:00:00,18.640051,73.848956,PM10,23,66,41
India,Maharashtra,Pune,"Bhumkar Nagar, Pune - IITM",17-07-2024 20:00:00,18.605770,73.749976,PM10,24,108,42
India,Maharashtra,Pune,"Hadapsar, Pune - IITM",17-07-2024 20:00:00,18.501793,73.927532,PM2.5,14,33,22
India,Maharashtra,Pune,"Hadapsar, Pune - IITM",17-07-2024 20:00:00,18.501793,73.927532,NO2,22,36,27
India,Maharashtra,Pune,"Karve Road, Pune - MPCB",17-07-2024 20:00:00,18.5011743,73.8165527,NO2,1,8,3
India,Maharashtra,Pune,"Karve Road, Pune - MPCB",17-07-2024 20:00:00,18.5011743,73.8165527,OZONE,1,42,14
India,Maharashtra,Pune,"Katraj Dairy, Pune - MPCB",17-07-2024 20:00:00,18.454450,73.854155,NO2,17,21,19
India,Maharashtra,Pune,"Katraj Dairy, Pune - MPCB",17-07-2024 20:00:00,18.454450,73.854155,CO,48,50,50
India,Maharashtra,Pune,"Mhada Colony, Pune - IITM",17-07-2024 20:00:00,18.573040,73.927715,PM2.5,26,50,33
India,Maharashtra,Pune,"Savitribai Phule Pune University, Pune - MPCB",17-07-2024 20:00:00,18.547056,73.826908,NH3,2,4,3
India,Maharashtra,Pune,"Transport Nagar-Nigdi, Pune - IITM",17-07-2024 20:00:00,18.664282,73.763966,NO2,18,23,20
India,Maharashtra,Pune,"Transport Nagar-Nigdi, Pune - IITM",17-07-2024 20:00:00,18.664282,73.763966,OZONE,12,38,24
India,Maharashtra,Sangli,"Vijay Nagar, Sangli - MPCB",17-07-2024 20:00:00, 16.5038,74.3623,PM2.5,NA,NA,NA
India,Maharashtra,Sangli,"Vijay Nagar, Sangli - MPCB",17-07-2024 20:00:00, 16.5038,74.3623,NH3,NA,NA,NA
India,Maharashtra,Sangli,"Vijay Nagar, Sangli - MPCB",17-07-2024 20:00:00, 16.5038,74.3623,CO,NA,NA,NA
India,Maharashtra,Solapur,"Dnyaneshwar Nagar, Solapur - MPCB",17-07-2024 20:00:00,17.6336264,75.9132495,PM10,14,40,26
India,Maharashtra,Solapur,"Dnyaneshwar Nagar, Solapur - MPCB",17-07-2024 20:00:00,17.6336264,75.9132495,NO2,NA,NA,NA
India,Maharashtra,Solapur,"Dnyaneshwar Nagar, Solapur - MPCB",17-07-2024 20:00:00,17.6336264,75.9132495,NH3,6,10,8
India,Maharashtra,Solapur,"Dnyaneshwar Nagar, Solapur - MPCB",17-07-2024 20:00:00,17.6336264,75.9132495,OZONE,16,30,21
India,Maharashtra,Solapur,"Ratandeep Housing Society, Solapur - MPCB",17-07-2024 20:00:00,17.65439,75.90649,PM10,18,40,28
India,Maharashtra,Solapur,"Ratandeep Housing Society, Solapur - MPCB",17-07-2024 20:00:00,17.65439,75.90649,NO2,2,15,4
India,Maharashtra,Solapur,"Solapur, Solapur - MPCB",17-07-2024 20:00:00,17.6599188,75.9063906,PM2.5,63,80,70
India,Maharashtra,Solapur,"Solapur, Solapur - MPCB",17-07-2024 20:00:00,17.6599188,75.9063906,PM10,96,115,106
India,Maharashtra,Thane,"Kasarvadavali, Thane - MPCB",17-07-2024 20:00:00,19.26777,72.97182,OZONE,1,13,8
India,Maharashtra,Thane,"Pimpleshwar Mandir, Thane - MPCB",17-07-2024 20:00:00,19.192056,72.9585188,NH3,4,4,4
India,Maharashtra,Thane,"Pimpleshwar Mandir, Thane - MPCB",17-07-2024 20:00:00,19.192056,72.9585188,OZONE,12,24,19
India,Maharashtra,Thane,"Upvan Fort, Thane - MPCB",17-07-2024 20:00:00,19.222279,72.957979,PM2.5,8,41,22
India,Maharashtra,Thane,"Upvan Fort, Thane - MPCB",17-07-2024 20:00:00,19.222279,72.957979,SO2,4,8,6
India,Maharashtra,Virar,"Bolinj, Virar - MPCB",17-07-2024 20:00:00,19.4458210,72.7988231,NH3,1,3,2
India,Maharashtra,Virar,"Bolinj, Virar - MPCB",17-07-2024 20:00:00,19.4458210,72.7988231,SO2,1,3,1
India,Manipur,Imphal,"DM College of Science, Imphal - Manipur PCB",17-07-2024 20:00:00,24.8207389,93.9423085,NH3,2,2,2
India,Mizoram,Aizawl,"Sikulpuikawn, Aizawl - Mizoram PCB",17-07-2024 20:00:00,23.7176342,92.7192841,PM10,2,33,16
India,Mizoram,Aizawl,"Sikulpuikawn, Aizawl - Mizoram PCB",17-07-2024 20:00:00,23.7176342,92.7192841,CO,10,19,13
India,Nagaland,Kohima,"PWD Juction, Kohima - NPCB",17-07-2024 20:00:00,25.6635413,94.0989878,NO2,3,10,4
India,Odisha,Angul,"Hakimapada, Angul - OSPCB",17-07-2024 20:00:00,20.832874,85.104082,PM2.5,NA,NA,NA
India,Odisha,Angul,"Hakimapada, Angul - OSPCB",17-07-2024 20:00:00,20.832874,85.104082,NH3,NA,NA,NA
India,Odisha,Angul,"Hakimapada, Angul - OSPCB",17-07-2024 20:00:00,20.832874,85.104082,SO2,NA,NA,NA
India,Odisha,Balasore,"Kalidaspur, Balasore - OSPCB",17-07-2024 20:00:00,21.51161,86.89088,NH3,1,1,1
India,Odisha,Balasore,"Kalidaspur, Balasore - OSPCB",17-07-2024 20:00:00,21.51161,86.89088,SO2,13,17,14
India,Odisha,Barbil,"Forest Office, Barbil - OSPCB",17-07-2024 20:00:00,22.1166054,85.3945546,NO2,3,7,4
India,Odisha,Barbil,"Forest Office, Barbil - OSPCB",17-07-2024 20:00:00,22.1166054,85.3945546,SO2,1,4,2
India,Odisha,Baripada,"Meher Colony, Baripada - OSPCB",17-07-2024 20:00:00,21.941841,86.728318,PM2.5,10,23,15
India,Odisha,Baripada,"Meher Colony, Baripada - OSPCB",17-07-2024 20:00:00,21.941841,86.728318,OZONE,26,45,35
India,Odisha,Bhubaneswar,"Patia, Bhubaneswar - OSPCB",17-07-2024 20:00:00,20.34652,85.81630,PM10,13,67,32
India,Odisha,Bileipada,"Tata Township, Bileipada - OSPCB",17-07-2024 20:00:00,22.06156703,85.47409613,NO2,NA,NA,NA
India,Odisha,Bileipada,"Tata Township, Bileipada - OSPCB",17-07-2024 20:00:00,22.06156703,85.47409613,CO,8,13,10
India,Odisha,Nayagarh,"Dabuna, Nayagarh - OSPCB",17-07-2024 20:00:00,21.847279,85.416905,PM2.5,13,16,14
India,Odisha,Nayagarh,"Dabuna, Nayagarh - OSPCB",17-07-2024 20:00:00,21.847279,85.416905,SO2,1,2,2
India,Odisha,Nayagarh,"Dabuna, Nayagarh - OSPCB",17-07-2024 20:00:00,21.847279,85.416905,CO,6,12,7
India,Odisha,Rairangpur,"Divisional Forest Office, Rairangpur - OSPCB",17-07-2024 20:00:00,22.265816,86.174829,NO2,14,14,14
India,Odisha,Rairangpur,"Divisional Forest Office, Rairangpur - OSPCB",17-07-2024 20:00:00,22.265816,86.174829,SO2,4,6,5
India,Odisha,Rairangpur,"Divisional Forest Office, Rairangpur - OSPCB",17-07-2024 20:00:00,22.265816,86.174829,CO,26,76,45
India,Odisha,Rourkela,"Raghunathpali, Rourkela - OSPCB",17-07-2024 20:00:00,22.220833,84.809444,OZONE,9,19,15
India,Odisha,Suakati,"OMC Colony, Suakati - OSPCB",17-07-2024 20:00:00,21.606865,85.510538,SO2,6,8,7
India,Punjab,Amritsar,"Golden Temple, Amritsar - PPCB",17-07-2024 20:00:00,31.620000,74.876512,PM10,NA,NA,NA
India,Punjab,Amritsar,"Golden Temple, Amritsar - PPCB",17-07-2024 20:00:00,31.620000,74.876512,CO,20,41,32
India,Punjab,Bathinda,"Hardev Nagar, Bathinda - PPCB",17-07-2024 20:00:00,30.233011,74.907758,NO2,30,34,33
India,Punjab,Bathinda,"Hardev Nagar, Bathinda - PPCB",17-07-2024 20:00:00,30.233011,74.907758,SO2,7,15,10
India,Punjab,Bathinda,"Hardev Nagar, Bathinda - PPCB",17-07-2024 20:00:00,30.233011,74.907758,CO,2,103,47
India,Punjab,Jalandhar,"Civil Line, Jalandhar - PPCB",17-07-2024 20:00:00,31.321907,75.578914,PM10,54,106,77
India,Punjab,Jalandhar,"Civil Line, Jalandhar - PPCB",17-07-2024 20:00:00,31.321907,75.578914,OZONE,53,66,65
India,Punjab,Khanna,"Kalal Majra, Khanna - PPCB",17-07-2024 20:00:00,30.736056 ,76.209694,PM2.5,32,86,59
India,Punjab,Khanna,"Kalal Majra, Khanna - PPCB",17-07-2024 20:00:00,30.736056 ,76.209694,PM10,50,106,82
India,Punjab,Khanna,"Kalal Majra, Khanna - PPCB",17-07-2024 20:00:00,30.736056 ,76.209694,NO2,21,21,21
India,Punjab,Ludhiana,"Punjab Agricultural University, Ludhiana - PPCB",17-07-2024 20:00:00,30.9028,75.8086,NO2,21,28,23
India,Punjab,Ludhiana,"Punjab Agricultural University, Ludhiana - PPCB",17-07-2024 20:00:00,30.9028,75.8086,CO,12,59,27
India,Punjab,Ludhiana,"Punjab Agricultural University, Ludhiana - PPCB",17-07-2024 20:00:00,30.9028,75.8086,OZONE,8,16,13
India,Punjab,Mandi Gobindgarh,"RIMT University, Mandi Gobindgarh - PPCB",17-07-2024 20:00:00,30.649961,76.331442,SO2,7,12,9
India,Punjab,Mandi Gobindgarh,"RIMT University, Mandi Gobindgarh - PPCB",17-07-2024 20:00:00,30.649961,76.331442,CO,46,64,51
India,Rajasthan,Ajmer,"Civil Lines,  Ajmer - RSPCB",17-07-2024 20:00:00,26.470859,74.646594,PM10,50,79,64
India,Rajasthan,Ajmer,"Civil Lines,  Ajmer - RSPCB",17-07-2024 20:00:00,26.470859,74.646594,NH3,6,6,6
India,Rajasthan,Alwar,"Moti Doongri, Alwar - RSPCB",17-07-2024 20:00:00,27.554793,76.611536,PM2.5,41,87,56
India,Rajasthan,Alwar,"Moti Doongri, Alwar - RSPCB",17-07-2024 20:00:00,27.554793,76.611536,OZONE,13,31,30
India,Rajasthan,Banswara,"Rati Talai, Banswara - RSPCB",17-07-2024 20:00:00,23.555190,74.440010,NO2,3,34,12
India,Rajasthan,Baran,"Bamboliya, Baran - RSPCB",17-07-2024 20:00:00,25.106006,76.469948,PM10,30,88,47
India,Rajasthan,Barmer,"Railway Colony, Barmer - RSPCB",17-07-2024 20:00:00,25.747299,71.393989,NH3,5,10,8
India,Rajasthan,Bhiwadi,"RIICO Ind. Area III, Bhiwadi - RSPCB",17-07-2024 20:00:00,28.194909,76.862296,PM2.5,59,251,157
India,Rajasthan,Bhiwadi,"RIICO Ind. Area III, Bhiwadi - RSPCB",17-07-2024 20:00:00,28.194909,76.862296,NH3,6,49,13
India,Rajasthan,Bhiwadi,"RIICO Ind. Area III, Bhiwadi - RSPCB",17-07-2024 20:00:00,28.194909,76.862296,CO,2,100,25
India,Rajasthan,Bhiwadi,"RIICO Ind. Area III, Bhiwadi - RSPCB",17-07-2024 20:00:00,28.194909,76.862296,OZONE,10,62,45
India,Rajasthan,Bikaner,"MM Ground, Bikaner - RSPCB",17-07-2024 20:00:00,28.018792,73.292658,PM2.5,17,53,33
India,Rajasthan,Bikaner,"MM Ground, Bikaner - RSPCB",17-07-2024 20:00:00,28.018792,73.292658,CO,19,95,38
India,Rajasthan,Churu,"Subash Chowk, Churu - RSPCB",17-07-2024 20:00:00,28.296139,74.961696,PM10,40,150,77
India,Rajasthan,Dausa,"Khatikan Mohalla, Dausa - RSPCB",17-07-2024 20:00:00,26.895552,76.334753,PM10,20,122,60
India,Rajasthan,Dausa,"Khatikan Mohalla, Dausa - RSPCB",17-07-2024 20:00:00,26.895552,76.334753,NH3,2,3,2
India,Rajasthan,Dausa,"Khatikan Mohalla, Dausa - RSPCB",17-07-2024 20:00:00,26.895552,76.334753,SO2,2,8,6
India,Rajasthan,Dungarpur,"Bhoiwada, Dungarpur - RSPCB",17-07-2024 20:00:00,23.837789,73.714926,PM10,NA,NA,NA
India,Rajasthan,Hanumangarh,"Housing Board, Hanumangarh - RSPCB",17-07-2024 20:00:00,29.610750,74.283608,PM2.5,28,93,60
India,Rajasthan,Hanumangarh,"Housing Board, Hanumangarh - RSPCB",17-07-2024 20:00:00,29.610750,74.283608,PM10,55,136,83
India,Rajasthan,Hanumangarh,"Housing Board, Hanumangarh - RSPCB",17-07-2024 20:00:00,29.610750,74.283608,SO2,1,7,1
India,Rajasthan,Jaipur,"RIICO Sitapura, Jaipur - RSPCB",17-07-2024 20:00:00,26.786682,75.827928,NO2,9,35,19
India,Rajasthan,Jaipur,"RIICO Sitapura, Jaipur - RSPCB",17-07-2024 20:00:00,26.786682,75.827928,CO,8,49,27
India,Rajasthan,Jaipur,"Sector-2 Murlipura, Jaipur - RSPCB",17-07-2024 20:00:00,26.960669,75.771817,SO2,1,4,2
India,Rajasthan,Jaisalmer,"Sadar Bazar, Jaisalmer - RSPCB",17-07-2024 20:00:00,26.912329,70.909168,PM2.5,18,56,40
India,Rajasthan,Jaisalmer,"Sadar Bazar, Jaisalmer - RSPCB",17-07-2024 20:00:00,26.912329,70.909168,PM10,47,133,103
India,Rajasthan,Jaisalmer,"Sadar Bazar, Jaisalmer - RSPCB",17-07-2024 20:00:00,26.912329,70.909168,NH3,5,13,8
India,Rajasthan,Jalore,"Mudtra Sili, Jalore - RSPCB",17-07-2024 20:00:00,25.344694,72.626208,PM2.5,8,51,26
India,Rajasthan,Jalore,"Mudtra Sili, Jalore - RSPCB",17-07-2024 20:00:00,25.344694,72.626208,CO,15,36,31
India,Rajasthan,Jhalawar,"Rajlaxmi Nagar, Jhalawar - RSPCB",17-07-2024 20:00:00,24.588397,76.172782,NH3,1,3,2
India,Rajasthan,Jhunjhunu,"Indra Nagar, Jhunjhunu - RSPCB",17-07-2024 20:00:00,28.108988,75.386577,PM10,52,130,95
India,Rajasthan,Jodhpur,"Collectorate, Jodhpur - RSPCB",17-07-2024 20:00:00,26.268249,73.0193853,PM10,20,141,72
India,Rajasthan,Jodhpur,"Samrat Ashok Udhyan, Jodhpur - RSPCB",17-07-2024 20:00:00,26.253384,72.976571,OZONE,22,64,54
India,Rajasthan,Karauli,"Satyawati Vihar, Karauli - RSPCB",17-07-2024 20:00:00,26.506177,77.025989,NH3,NA,NA,NA
India,Rajasthan,Kota,"Dhanmandi, Kota - RSPCB",17-07-2024 20:00:00,25.164090,75.858137,NO2,12,32,16
India,Rajasthan,Kota,"Dhanmandi, Kota - RSPCB",17-07-2024 20:00:00,25.164090,75.858137,CO,4,66,42
India,Rajasthan,Kota,"Dhanmandi, Kota - RSPCB",17-07-2024 20:00:00,25.164090,75.858137,OZONE,2,118,59
India,Rajasthan,Kota,"Shrinath Puram, Kota - RSPCB",17-07-2024 20:00:00,25.14389,75.821256,PM2.5,16,307,124
India,Rajasthan,Kota,"Shrinath Puram, Kota - RSPCB",17-07-2024 20:00:00,25.14389,75.821256,CO,62,109,78
India,Rajasthan,Pali,"Indira Colony Vistar, Pali - RSPCB",17-07-2024 20:00:00,25.771061, 73.340227,NO2,24,58,31
India,Rajasthan,Pratapgarh,"Pragati Nagar, Pratapgarh - RSPCB",17-07-2024 20:00:00,24.041198,74.780702,PM10,8,58,27
India,Rajasthan,Pratapgarh,"Pragati Nagar, Pratapgarh - RSPCB",17-07-2024 20:00:00,24.041198,74.780702,SO2,1,3,2
India,Rajasthan,Rajsamand,"Dhoinda, Rajsamand - RSPCB",17-07-2024 20:00:00,25.036360,73.883502,PM2.5,NA,NA,NA
India,Rajasthan,Rajsamand,"Dhoinda, Rajsamand - RSPCB",17-07-2024 20:00:00,25.036360,73.883502,CO,24,63,45
India,Rajasthan,Sawai Madhopur,"Sahu Nagar, Sawai Madhopur - RSPCB",17-07-2024 20:00:00,26.031443,76.359327,NH3,2,3,3
India,Rajasthan,Sikar,"Radhakishan Pura, Sikar - RSPCB",17-07-2024 20:00:00,27.608912,75.153302,PM10,39,111,69
India,Rajasthan,Sirohi,"Vedhaynath Colony, Sirohi - RSPCB",17-07-2024 20:00:00,24.885261,72.857549,PM10,NA,NA,NA
India,Rajasthan,Sirohi,"Vedhaynath Colony, Sirohi - RSPCB",17-07-2024 20:00:00,24.885261,72.857549,NO2,4,28,10
India,Rajasthan,Sirohi,"Vedhaynath Colony, Sirohi - RSPCB",17-07-2024 20:00:00,24.885261,72.857549,NH3,2,8,4
India,Rajasthan,Sirohi,"Vedhaynath Colony, Sirohi - RSPCB",17-07-2024 20:00:00,24.885261,72.857549,OZONE,3,61,32
India,Rajasthan,Sri Ganganagar,"Old City, Sri Ganganagar - RSPCB",17-07-2024 20:00:00,29.931624,73.864511,PM2.5,72,335,153
India,Rajasthan,Sri Ganganagar,"Old City, Sri Ganganagar - RSPCB",17-07-2024 20:00:00,29.931624,73.864511,PM10,66,223,149
India,Rajasthan,Tonk,"Shastri Nagar, Tonk - RSPCB",17-07-2024 20:00:00,26.159933,75.780517,PM2.5,22,38,29
India,Rajasthan,Tonk,"Shastri Nagar, Tonk - RSPCB",17-07-2024 20:00:00,26.159933,75.780517,CO,32,40,35
India,Rajasthan,Udaipur,"Ashok Nagar, Udaipur - RSPCB",17-07-2024 20:00:00,24.5886166,73.6321397,PM10,16,100,61
India,Rajasthan,Udaipur,"Ashok Nagar, Udaipur - RSPCB",17-07-2024 20:00:00,24.5886166,73.6321397,SO2,5,22,9
India,Sikkim,Gangtok,"Zero Point GICI, Gangtok - SSPCB",17-07-2024 20:00:00,27.338530,88.614099,PM10,5,18,9
India,TamilNadu,Chennai,"Alandur Bus Depot, Chennai - CPCB",17-07-2024 20:00:00,12.9099161,80.1076538,PM2.5,23,500,117
India,TamilNadu,Chennai,"Alandur Bus Depot, Chennai - CPCB",17-07-2024 20:00:00,12.9099161,80.1076538,NO2,6,9,8
India,TamilNadu,Chennai,"Kodungaiyur, Chennai - TNPCB",17-07-2024 20:00:00,13.1278,80.2642,CO,12,52,34
India,TamilNadu,Chennai,"Manali, Chennai - CPCB",17-07-2024 20:00:00,13.164544,80.26285,PM2.5,30,95,49
India,TamilNadu,Chennai,"Perungudi, Chennai - TNPCB",17-07-2024 20:00:00,12.9533,80.2357,PM10,18,109,52
India,TamilNadu,Chennai,"Perungudi, Chennai - TNPCB",17-07-2024 20:00:00,12.9533,80.2357,NO2,3,11,6
India,TamilNadu,Chennai,"Perungudi, Chennai - TNPCB",17-07-2024 20:00:00,12.9533,80.2357,SO2,2,9,5
India,TamilNadu,Chennai,"Perungudi, Chennai - TNPCB",17-07-2024 20:00:00,12.9533,80.2357,OZONE,10,16,12
India,TamilNadu,Chennai,"Royapuram, Chennai - TNPCB",17-07-2024 20:00:00,13.1036,80.2909,SO2,3,18,7
India,TamilNadu,Coimbatore,"PSG College of Arts and Science, Coimbatore - TNPCB",17-07-2024 20:00:00,11.0328,77.0349,PM2.5,NA,NA,NA
India,TamilNadu,Coimbatore,"PSG College of Arts and Science, Coimbatore - TNPCB",17-07-2024 20:00:00,11.0328,77.0349,NH3,2,2,2
India,TamilNadu,Cuddalore,"Kudikadu, Cuddalore - TNPCB",17-07-2024 20:00:00,11.6829898,79.7532099,PM2.5,8,28,17
India,TamilNadu,Cuddalore,"Kudikadu, Cuddalore - TNPCB",17-07-2024 20:00:00,11.6829898,79.7532099,SO2,10,10,10
India,TamilNadu,Cuddalore,"Semmandalam, Cuddalore - TNPCB",17-07-2024 20:00:00,11.7637683,79.7499835,PM2.5,10,64,22
India,TamilNadu,Cuddalore,"Semmandalam, Cuddalore - TNPCB",17-07-2024 20:00:00,11.7637683,79.7499835,PM10,8,48,16
India,TamilNadu,Cuddalore,"Semmandalam, Cuddalore - TNPCB",17-07-2024 20:00:00,11.7637683,79.7499835,NO2,20,28,23
India,TamilNadu,Gummidipoondi,"Anthoni Pillai Nagar, Gummidipoondi - TNPCB",17-07-2024 20:00:00,13.4127,80.1081,SO2,10,91,39
India,TamilNadu,Palkalaiperur,"Bharathidasan University, Palkalaiperur - TNPCB",17-07-2024 20:00:00,10.681158,78.741746,PM10,12,27,19
India,TamilNadu,Ramanathapuram,"Chalai Bazaar, Ramanathapuram - TNPCB",17-07-2024 20:00:00,9.36399,78.831977,PM10,6,38,21
India,TamilNadu,Thoothukudi,"Meelavittan, Thoothukudi - TNPCB",17-07-2024 20:00:00,8.816428 ,78.099039,NO2,17,24,21
India,TamilNadu,Thoothukudi,"Meelavittan, Thoothukudi - TNPCB",17-07-2024 20:00:00,8.816428 ,78.099039,SO2,5,13,9
India,TamilNadu,Tirupur,"Kumaran College, Tirupur - TNPCB",17-07-2024 20:00:00,11.0973603,77.3228673,PM2.5,1,9,4
India,TamilNadu,Tirupur,"Kumaran College, Tirupur - TNPCB",17-07-2024 20:00:00,11.0973603,77.3228673,NH3,NA,NA,NA
India,Telangana,Hyderabad,"Bollaram Industrial Area, Hyderabad - TSPCB",17-07-2024 20:00:00,17.540891,78.358528,CO,7,54,37
India,Telangana,Hyderabad,"Central University, Hyderabad - TSPCB",17-07-2024 20:00:00,17.460103,78.334361,PM2.5,3,13,7
India,Telangana,Hyderabad,"ICRISAT Patancheru, Hyderabad - TSPCB",17-07-2024 20:00:00,17.518400,78.278777,PM2.5,2,18,9
India,Telangana,Hyderabad,"ICRISAT Patancheru, Hyderabad - TSPCB",17-07-2024 20:00:00,17.518400,78.278777,NO2,1,174,13
India,Telangana,Hyderabad,"ICRISAT Patancheru, Hyderabad - TSPCB",17-07-2024 20:00:00,17.518400,78.278777,SO2,2,26,13
India,Telangana,Hyderabad,"IDA Pashamylaram, Hyderabad - TSPCB",17-07-2024 20:00:00,17.5316895,78.218939,PM2.5,6,28,15
India,Telangana,Hyderabad,"IDA Pashamylaram, Hyderabad - TSPCB",17-07-2024 20:00:00,17.5316895,78.218939,OZONE,5,13,9
India,Telangana,Hyderabad,"IITH Kandi, Hyderabad - TSPCB",17-07-2024 20:00:00,17.585705,78.126199,NO2,NA,NA,NA
India,Telangana,Hyderabad,"Kokapet, Hyderabad - TSPCB",17-07-2024 20:00:00,17.393559,78.339194,NO2,8,11,9
India,Telangana,Hyderabad,"Kokapet, Hyderabad - TSPCB",17-07-2024 20:00:00,17.393559,78.339194,SO2,10,13,11
India,Telangana,Hyderabad,"Nacharam_TSIIC IALA, Hyderabad - TSPCB",17-07-2024 20:00:00,17.429398,78.569354,OZONE,45,49,49
India,Telangana,Hyderabad,"Ramachandrapuram, Hyderabad - TSPCB",17-07-2024 20:00:00,17.528544,78.286195,NO2,NA,NA,NA
India,Telangana,Hyderabad,"Ramachandrapuram, Hyderabad - TSPCB",17-07-2024 20:00:00,17.528544,78.286195,OZONE,18,29,22
India,Telangana,Hyderabad,"Sanathnagar, Hyderabad - TSPCB",17-07-2024 20:00:00,17.4559458,78.4332152,PM2.5,18,29,23
India,Telangana,Hyderabad,"Sanathnagar, Hyderabad - TSPCB",17-07-2024 20:00:00,17.4559458,78.4332152,NO2,27,32,30
India,Telangana,Hyderabad,"Sanathnagar, Hyderabad - TSPCB",17-07-2024 20:00:00,17.4559458,78.4332152,OZONE,14,18,16
India,Telangana,Hyderabad,"Zoo Park, Hyderabad - TSPCB",17-07-2024 20:00:00,17.349694,78.451437,PM2.5,2,8,5
India,Telangana,Hyderabad,"Zoo Park, Hyderabad - TSPCB",17-07-2024 20:00:00,17.349694,78.451437,PM10,6,16,9
India,Telangana,Hyderabad,"Zoo Park, Hyderabad - TSPCB",17-07-2024 20:00:00,17.349694,78.451437,NH3,1,1,1
India,Telangana,Hyderabad,"Zoo Park, Hyderabad - TSPCB",17-07-2024 20:00:00,17.349694,78.451437,SO2,2,5,3
India,Telangana,Hyderabad,"Zoo Park, Hyderabad - TSPCB",17-07-2024 20:00:00,17.349694,78.451437,OZONE,17,25,20
India,Tripura,Agartala,"Bardowali, Agartala - Tripura SPCB",17-07-2024 20:00:00,23.8175497,91.2726974,PM10,38,82,52
India,Tripura,Agartala,"Bardowali, Agartala - Tripura SPCB",17-07-2024 20:00:00,23.8175497,91.2726974,NH3,2,9,8
India,Uttar_Pradesh,Agra,"Manoharpur, Agra - UPPCB",17-07-2024 20:00:00,27.23711,78.01936,NO2,18,27,24
India,Uttar_Pradesh,Agra,"Rohta, Agra - UPPCB",17-07-2024 20:00:00,27.106972,78.000111,NH3,2,2,2
India,Uttar_Pradesh,Agra,"Rohta, Agra - UPPCB",17-07-2024 20:00:00,27.106972,78.000111,OZONE,8,8,8
India,Uttar_Pradesh,Agra,"Sanjay Palace, Agra - UPPCB",17-07-2024 20:00:00,27.19865833,78.00598056,NO2,4,11,6
India,Uttar_Pradesh,Agra,"Sanjay Palace, Agra - UPPCB",17-07-2024 20:00:00,27.19865833,78.00598056,SO2,5,13,9
India,Uttar_Pradesh,Agra,"Sanjay Palace, Agra - UPPCB",17-07-2024 20:00:00,27.19865833,78.00598056,OZONE,38,51,49
India,Uttar_Pradesh,Agra,"Sector-3B Avas Vikas Colony, Agra - UPPCB",17-07-2024 20:00:00,27.19412,77.96237,CO,10,16,12
India,Uttar_Pradesh,Agra,"Shahjahan Garden, Agra - UPPCB",17-07-2024 20:00:00,27.169338,78.03582,NO2,15,17,16
India,Uttar_Pradesh,Bareilly,"Civil Lines, Bareilly - UPPCB",17-07-2024 20:00:00,28.359581,79.414455,NH3,1,1,1
India,Uttar_Pradesh,Bareilly,"Rajendra Nagar, Bareilly - UPPCB",17-07-2024 20:00:00,28.38910936,79.42963708,PM10,10,18,14
India,Uttar_Pradesh,Bareilly,"Rajendra Nagar, Bareilly - UPPCB",17-07-2024 20:00:00,28.38910936,79.42963708,NH3,1,4,1
India,Uttar_Pradesh,Bareilly,"Rajendra Nagar, Bareilly - UPPCB",17-07-2024 20:00:00,28.38910936,79.42963708,CO,3,12,5
India,Uttar_Pradesh,Bareilly,"Rajendra Nagar, Bareilly - UPPCB",17-07-2024 20:00:00,28.38910936,79.42963708,OZONE,NA,NA,NA
India,Uttar_Pradesh,Bulandshahr,"Yamunapuram, Bulandshahr - UPPCB",17-07-2024 20:00:00,28.406963,77.849831,NO2,8,23,13
India,Uttar_Pradesh,Bulandshahr,"Yamunapuram, Bulandshahr - UPPCB",17-07-2024 20:00:00,28.406963,77.849831,SO2,1,16,10
India,Uttar_Pradesh,Bulandshahr,"Yamunapuram, Bulandshahr - UPPCB",17-07-2024 20:00:00,28.406963,77.849831,CO,18,40,23
India,Uttar_Pradesh,Firozabad,"Nagla Bhau, Firozabad - UPPCB",17-07-2024 20:00:00,27.168897,78.376960,PM2.5,2,22,9
India,Uttar_Pradesh,Ghaziabad,"Indirapuram, Ghaziabad - UPPCB",17-07-2024 20:00:00,28.646233,77.358075,NO2,35,53,41
India,Uttar_Pradesh,Ghaziabad,"Indirapuram, Ghaziabad - UPPCB",17-07-2024 20:00:00,28.646233,77.358075,CO,23,30,24
India,Uttar_Pradesh,Ghaziabad,"Loni, Ghaziabad - UPPCB",17-07-2024 20:00:00,28.757294,77.278792,PM10,NA,NA,NA
India,Uttar_Pradesh,Ghaziabad,"Loni, Ghaziabad - UPPCB",17-07-2024 20:00:00,28.757294,77.278792,SO2,1,7,4
India,Uttar_Pradesh,Ghaziabad,"Sanjay Nagar, Ghaziabad - UPPCB",17-07-2024 20:00:00,28.685382,77.453839,SO2,12,27,19
India,Uttar_Pradesh,Ghaziabad,"Vasundhara, Ghaziabad - UPPCB",17-07-2024 20:00:00,28.6603346,77.3572563,PM2.5,28,83,54
India,Uttar_Pradesh,Ghaziabad,"Vasundhara, Ghaziabad - UPPCB",17-07-2024 20:00:00,28.6603346,77.3572563,NH3,4,8,5
India,Uttar_Pradesh,Gorakhpur,"Madan Mohan Malaviya University of Technology, Gorakhpur - UPPCB",17-07-2024 20:00:00,26.730136,83.433859,NH3,1,1,1
India,Uttar_Pradesh,Gorakhpur,"Madan Mohan Malaviya University of Technology, Gorakhpur - UPPCB",17-07-2024 20:00:00,26.730136,83.433859,CO,2,16,7
India,Uttar_Pradesh,Gorakhpur,"Madan Mohan Malaviya University of Technology, Gorakhpur - UPPCB",17-07-2024 20:00:00,26.730136,83.433859,OZONE,12,12,12
India,Uttar_Pradesh,Greater Noida,"Knowledge Park - III, Greater Noida - UPPCB",17-07-2024 20:00:00,28.47272,77.482000,OZONE,11,66,53
India,Uttar_Pradesh,Greater Noida,"Knowledge Park - V, Greater Noida - UPPCB",17-07-2024 20:00:00,28.557054,77.453663,PM2.5,33,115,70
India,Uttar_Pradesh,Greater Noida,"Knowledge Park - V, Greater Noida - UPPCB",17-07-2024 20:00:00,28.557054,77.453663,PM10,65,412,192
India,Uttar_Pradesh,Hapur,"Anand Vihar, Hapur - UPPCB",17-07-2024 20:00:00,28.725645,77.749675,PM2.5,24,69,45
India,Uttar_Pradesh,Jhansi,"Shivaji Nagar, Jhansi - UPPCB",17-07-2024 20:00:00,25.4547,78.6039,PM2.5,32,131,72
India,Uttar_Pradesh,Jhansi,"Shivaji Nagar, Jhansi - UPPCB",17-07-2024 20:00:00,25.4547,78.6039,PM10,42,134,90
India,Uttar_Pradesh,Jhansi,"Shivaji Nagar, Jhansi - UPPCB",17-07-2024 20:00:00,25.4547,78.6039,SO2,19,28,21
India,Uttar_Pradesh,Kanpur,"FTI Kidwai Nagar, Kanpur - UPPCB",17-07-2024 20:00:00,26.428282,80.327067,PM2.5,11,28,18
India,Uttar_Pradesh,Kanpur,"FTI Kidwai Nagar, Kanpur - UPPCB",17-07-2024 20:00:00,26.428282,80.327067,NO2,15,16,16
India,Uttar_Pradesh,Kanpur,"FTI Kidwai Nagar, Kanpur - UPPCB",17-07-2024 20:00:00,26.428282,80.327067,CO,28,36,33
India,Uttar_Pradesh,Kanpur,"NSI Kalyanpur, Kanpur - UPPCB",17-07-2024 20:00:00,26.509954,80.249612,NO2,17,18,18
India,Uttar_Pradesh,Kanpur,"Nehru Nagar, Kanpur - UPPCB",17-07-2024 20:00:00,26.4703136,80.3229863,PM2.5,25,99,48
India,Uttar_Pradesh,Khurja,"Kalindi Kunj, Khurja - UPPCB",17-07-2024 20:00:00,28.2348927,77.8683002,PM2.5,32,159,55
India,Uttar_Pradesh,Lucknow,"Gomti Nagar, Lucknow - UPPCB",17-07-2024 20:00:00,26.868120,81.005119,PM10,26,56,40
India,Uttar_Pradesh,Lucknow,"Gomti Nagar, Lucknow - UPPCB",17-07-2024 20:00:00,26.868120,81.005119,CO,39,41,40
India,Uttar_Pradesh,Lucknow,"Kukrail Picnic Spot-1, Lucknow - UPPCB",17-07-2024 20:00:00,26.90723,80.98579,NO2,19,19,19
India,Uttar_Pradesh,Lucknow,"Kukrail Picnic Spot-1, Lucknow - UPPCB",17-07-2024 20:00:00,26.90723,80.98579,CO,12,14,12
India,Uttar_Pradesh,Lucknow,"Lalbagh, Lucknow - CPCB",17-07-2024 20:00:00,26.8458805,80.9365541,NH3,13,17,14
India,Uttar_Pradesh,Lucknow,"Talkatora District Industries Center, Lucknow - CPCB",17-07-2024 20:00:00,26.83399722,80.8917361,CO,2,89,37
India,Uttar_Pradesh,Meerut,"Ganga Nagar, Meerut - UPPCB",17-07-2024 20:00:00,28.999264,77.7590354,PM10,13,129,47
India,Uttar_Pradesh,Meerut,"Jai Bhim Nagar, Meerut - UPPCB",17-07-2024 20:00:00,28.9535882,77.7622941,PM2.5,18,92,55
India,Uttar_Pradesh,Meerut,"Jai Bhim Nagar, Meerut - UPPCB",17-07-2024 20:00:00,28.9535882,77.7622941,SO2,8,9,9
India,Uttar_Pradesh,Meerut,"Pallavpuram Phase 2, Meerut - UPPCB",17-07-2024 20:00:00,29.063510,77.709723,PM10,9,101,65
India,Uttar_Pradesh,Meerut,"Pallavpuram Phase 2, Meerut - UPPCB",17-07-2024 20:00:00,29.063510,77.709723,CO,19,42,31
India,Uttar_Pradesh,Moradabad,"Eco Herbal Park, Moradabad - UPPCB",17-07-2024 20:00:00,28.840739,78.697531,CO,9,62,14
India,Uttar_Pradesh,Moradabad,"Employment Office, Moradabad - UPPCB",17-07-2024 20:00:00,28.88528,78.73880,OZONE,22,40,31
India,Uttar_Pradesh,Moradabad,"Jigar Colony, Moradabad - UPPCB",17-07-2024 20:00:00,28.856664,78.772638,NO2,22,23,22
India,Uttar_Pradesh,Moradabad,"Jigar Colony, Moradabad - UPPCB",17-07-2024 20:00:00,28.856664,78.772638,SO2,17,20,18
India,Uttar_Pradesh,Moradabad,"Kashiram Nagar, Moradabad - UPPCB",17-07-2024 20:00:00,28.849399,78.742362,PM2.5,13,51,29
India,Uttar_Pradesh,Noida,"Sector - 125, Noida - UPPCB",17-07-2024 20:00:00,28.5447608,77.3231257,PM2.5,18,37,27
India,Uttar_Pradesh,Noida,"Sector - 62, Noida - IMD",17-07-2024 20:00:00,28.6245479,77.3577104,CO,44,52,47
India,Uttar_Pradesh,Noida,"Sector-1, Noida - UPPCB",17-07-2024 20:00:00,28.5898,77.3101,OZONE,10,41,32
India,Uttar_Pradesh,Noida,"Sector-116, Noida - UPPCB",17-07-2024 20:00:00,28.569230,77.393848,NH3,9,13,11
India,Uttar_Pradesh,Noida,"Sector-116, Noida - UPPCB",17-07-2024 20:00:00,28.569230,77.393848,SO2,6,24,15
India,Uttar_Pradesh,Noida,"Sector-116, Noida - UPPCB",17-07-2024 20:00:00,28.569230,77.393848,OZONE,7,70,48
India,Uttar_Pradesh,Prayagraj,"Jhunsi, Prayagraj - UPPCB",17-07-2024 20:00:00,25.425602,81.917152,PM10,26,85,46
India,Uttar_Pradesh,Prayagraj,"Motilal Nehru NIT, Prayagraj - UPPCB",17-07-2024 20:00:00,25.494,81.863,NO2,11,12,12
India,Uttar_Pradesh,Prayagraj,"Nagar Nigam, Prayagraj - UPPCB",17-07-2024 20:00:00,25.44919916 ,81.82735986 ,SO2,2,135,57
India,Uttar_Pradesh,Prayagraj,"Nagar Nigam, Prayagraj - UPPCB",17-07-2024 20:00:00,25.44919916 ,81.82735986 ,CO,7,24,13
India,Uttar_Pradesh,Varanasi,"Bhelupur, Varanasi - UPPCB",17-07-2024 20:00:00,25.301778,82.996789,OZONE,2,11,6
India,Uttar_Pradesh,Varanasi,"IESD Banaras Hindu University, Varanasi - UPPCB",17-07-2024 20:00:00,25.262326,82.995408,OZONE,9,15,11
India,Uttar_Pradesh,Vrindavan,"Omex Eternity, Vrindavan - UPPCB",17-07-2024 20:00:00,27.5714090,77.6557570,PM2.5,11,25,18
India,Uttar_Pradesh,Vrindavan,"Omex Eternity, Vrindavan - UPPCB",17-07-2024 20:00:00,27.5714090,77.6557570,OZONE,24,27,26
India,Uttarakhand,Dehradun,"Doon University, Dehradun - UKPCB",17-07-2024 20:00:00,30.269444,78.044167,SO2,1,1,1
India,Uttarakhand,Kashipur,"Govt. Girls Inter College, Kashipur - UKPCB",17-07-2024 20:00:00,29.2124114,78.9611753,CO,8,40,16
India,Uttarakhand,Rishikesh,"Shivaji Nagar, Rishikesh - UKPCB",17-07-2024 20:00:00,30.075911,78.2859547,NO2,5,9,7
India,Uttarakhand,Rishikesh,"Shivaji Nagar, Rishikesh - UKPCB",17-07-2024 20:00:00,30.075911,78.2859547,OZONE,10,69,32
India,West_Bengal,Asansol,"Asansol Court Area, Asansol - WBPCB",17-07-2024 20:00:00,23.685297,86.945968,NO2,24,53,33
India,West_Bengal,Asansol,"Evelyn Lodge, Asansol - WBPCB",17-07-2024 20:00:00,23.6979360,86.9443950,PM2.5,14,63,33
India,West_Bengal,Asansol,"Evelyn Lodge, Asansol - WBPCB",17-07-2024 20:00:00,23.6979360,86.9443950,CO,6,24,9
India,West_Bengal,Barrackpore,"SVSPA Campus, Barrackpore - WBPCB",17-07-2024 20:00:00,22.7605581,88.3617589,NH3,1,3,1
India,West_Bengal,Barrackpore,"SVSPA Campus, Barrackpore - WBPCB",17-07-2024 20:00:00,22.7605581,88.3617589,CO,10,32,18
India,West_Bengal,Durgapur,"PCBL Residential Complex, Durgapur - WBPCB",17-07-2024 20:00:00,23.5087640,87.3544400,SO2,9,10,9
India,West_Bengal,Durgapur,"PCBL Residential Complex, Durgapur - WBPCB",17-07-2024 20:00:00,23.5087640,87.3544400,CO,32,57,39
India,West_Bengal,Howrah,"Belur Math, Howrah - WBPCB",17-07-2024 20:00:00,22.629801,88.352017,SO2,4,12,9
India,West_Bengal,Howrah,"Botanical Garden, Howrah - WBPCB",17-07-2024 20:00:00,22.554954,88.292568,NO2,4,24,9
India,West_Bengal,Howrah,"Padmapukur, Howrah - WBPCB",17-07-2024 20:00:00,22.5687319,88.2797276,PM2.5,20,35,26
India,West_Bengal,Howrah,"Padmapukur, Howrah - WBPCB",17-07-2024 20:00:00,22.5687319,88.2797276,PM10,28,41,35
India,West_Bengal,Howrah,"Padmapukur, Howrah - WBPCB",17-07-2024 20:00:00,22.5687319,88.2797276,NO2,27,46,36
India,West_Bengal,Kolkata,"Ballygunge, Kolkata - WBPCB",17-07-2024 20:00:00,22.5367507,88.3638022,PM2.5,14,21,16
India,West_Bengal,Kolkata,"Ballygunge, Kolkata - WBPCB",17-07-2024 20:00:00,22.5367507,88.3638022,PM10,14,28,21
India,West_Bengal,Kolkata,"Ballygunge, Kolkata - WBPCB",17-07-2024 20:00:00,22.5367507,88.3638022,NH3,7,8,8
India,West_Bengal,Kolkata,"Jadavpur, Kolkata - WBPCB",17-07-2024 20:00:00,22.49929,88.36917,NO2,16,20,18
India,West_Bengal,Kolkata,"Jadavpur, Kolkata - WBPCB",17-07-2024 20:00:00,22.49929,88.36917,NH3,4,5,5
India,West_Bengal,Kolkata,"Rabindra Bharati University, Kolkata - WBPCB",17-07-2024 20:00:00,22.627847,88.380669,CO,20,36,25
India,West_Bengal,Kolkata,"Rabindra Sarobar, Kolkata - WBPCB",17-07-2024 20:00:00,22.51106,88.35142,CO,8,48,22
India,West_Bengal,Kolkata,"Rabindra Sarobar, Kolkata - WBPCB",17-07-2024 20:00:00,22.51106,88.35142,OZONE,7,15,11
India,West_Bengal,Siliguri,"Ward-32 Bapupara, Siliguri - WBPCB",17-07-2024 20:00:00,26.6879226,88.4152495,NH3,8,12,10
India,West_Bengal,Siliguri,"Ward-32 Bapupara, Siliguri - WBPCB",17-07-2024 20:00:00,26.6879226,88.4152495,SO2,7,9,8
India,Andhra_Pradesh,Amaravati,"Secretariat, Amaravati - APPCB",17-07-2024 20:00:00,16.5150833,80.5181667,CO,6,41,33
India,Andhra_Pradesh,Amaravati,"Secretariat, Amaravati - APPCB",17-07-2024 20:00:00,16.5150833,80.5181667,OZONE,9,37,32
India,Andhra_Pradesh,Anantapur,"Gulzarpet, Anantapur - APPCB",17-07-2024 20:00:00,14.675886,77.593027,NH3,4,4,4
India,Andhra_Pradesh,Anantapur,"Gulzarpet, Anantapur - APPCB",17-07-2024 20:00:00,14.675886,77.593027,CO,18,32,25
India,Andhra_Pradesh,Chittoor,"Gangineni Cheruvu, Chittoor - APPCB",17-07-2024 20:00:00,13.204880,79.097889,NH3,NA,NA,NA
India,Andhra_Pradesh,Chittoor,"Gangineni Cheruvu, Chittoor - APPCB",17-07-2024 20:00:00,13.204880,79.097889,SO2,NA,NA,NA
India,Andhra_Pradesh,Tirupati,"Tirumala, Tirupati - APPCB",17-07-2024 20:00:00,13.67,79.35,NH3,NA,NA,NA
India,Andhra_Pradesh,Tirupati,"Tirumala, Tirupati - APPCB",17-07-2024 20:00:00,13.67,79.35,CO,12,31,26
India,Andhra_Pradesh,Tirupati,"Vaikuntapuram, Tirupati - APPCB",17-07-2024 20:00:00,13.615387,79.409230,PM10,49,122,75
India,Andhra_Pradesh,Tirupati,"Vaikuntapuram, Tirupati - APPCB",17-07-2024 20:00:00,13.615387,79.409230,NO2,14,36,25
India,Andhra_Pradesh,Vijayawada,"HB Colony, Vijayawada - APPCB",17-07-2024 20:00:00,16.536107,80.594233,PM2.5,37,62,47
India,Andhra_Pradesh,Vijayawada,"HB Colony, Vijayawada - APPCB",17-07-2024 20:00:00,16.536107,80.594233,OZONE,15,40,23
India,Andhra_Pradesh,Vijayawada,"Kanuru, Vijayawada - APPCB",17-07-2024 20:00:00,16.486692,80.699436,PM2.5,NA,NA,NA
India,Andhra_Pradesh,Vijayawada,"Rajiv Gandhi Park, Vijayawada - APPCB",17-07-2024 20:00:00,16.509717,80.612222,NH3,3,6,5
India,Andhra_Pradesh,Vijayawada,"Rajiv Gandhi Park, Vijayawada - APPCB",17-07-2024 20:00:00,16.509717,80.612222,CO,32,36,36
India,Andhra_Pradesh,Visakhapatnam,"GVM Corporation, Visakhapatnam - APPCB",17-07-2024 20:00:00,17.72,83.3,OZONE,12,18,14
India,Arunachal_Pradesh,Naharlagun,"Naharlagun, Naharlagun - APSPCB",17-07-2024 20:00:00,27.103358,93.679645,NO2,3,3,3
India,Arunachal_Pradesh,Naharlagun,"Naharlagun, Naharlagun - APSPCB",17-07-2024 20:00:00,27.103358,93.679645,CO,8,14,9
India,Arunachal_Pradesh,Naharlagun,"Naharlagun, Naharlagun - APSPCB",17-07-2024 20:00:00,27.103358,93.679645,OZONE,3,3,3
India,Assam,Byrnihat,"Central Academy for SFS, Byrnihat - PCBA",17-07-2024 20:00:00,26.071318,91.87488,PM10,NA,NA,NA
India,Assam,Guwahati,"IITG, Guwahati - PCBA",17-07-2024 20:00:00,26.2028636,91.70046436,OZONE,6,26,20
India,Assam,Guwahati,"Railway Colony, Guwahati - PCBA",17-07-2024 20:00:00,26.181742,91.78063,PM2.5,29,99,59
India,Assam,Guwahati,"Railway Colony, Guwahati - PCBA",17-07-2024 20:00:00,26.181742,91.78063,PM10,31,101,61
India,Assam,Nagaon,"Christianpatty, Nagaon - PCBA",17-07-2024 20:00:00,26.349082,92.68449,PM2.5,22,37,28
India,Assam,Nagaon,"Christianpatty, Nagaon - PCBA",17-07-2024 20:00:00,26.349082,92.68449,PM10,14,26,19
India,Assam,Nagaon,"Christianpatty, Nagaon - PCBA",17-07-2024 20:00:00,26.349082,92.68449,NH3,1,6,2
India,Assam,Nagaon,"Christianpatty, Nagaon - PCBA",17-07-2024 20:00:00,26.349082,92.68449,CO,24,101,57
India,Assam,Silchar,"Tarapur, Silchar - PCBA",17-07-2024 20:00:00,24.82827,92.79525,CO,22,38,34
India,Assam,Silchar,"Tarapur, Silchar - PCBA",17-07-2024 20:00:00,24.82827,92.79525,OZONE,1,4,2
India,Assam,Sivasagar,"Girls College, Sivasagar - PCBA",17-07-2024 20:00:00,26.987634,94.636574,PM10,36,62,49
India,Bihar,Araria,"Kharahiya Basti, Araria - BSPCB",17-07-2024 20:00:00,26.146529,87.454184,SO2,11,22,16
India,Bihar,Arrah,"New DM Office, Arrah - BSPCB",17-07-2024 20:00:00,25.5626095,84.663264,PM2.5,5,293,55
India,Bihar,Arrah,"New DM Office, Arrah - BSPCB",17-07-2024 20:00:00,25.5626095,84.663264,SO2,7,10,9
India,Bihar,Bettiah,"Kamalnath Nagar, Bettiah - BSPCB",17-07-2024 20:00:00,26.80365,84.51954,NO2,25,30,28
India,Bihar,Bettiah,"Kamalnath Nagar, Bettiah - BSPCB",17-07-2024 20:00:00,26.80365,84.51954,SO2,10,21,16
India,Bihar,Bettiah,"Kamalnath Nagar, Bettiah - BSPCB",17-07-2024 20:00:00,26.80365,84.51954,CO,32,50,38
India,Bihar,Bettiah,"Kamalnath Nagar, Bettiah - BSPCB",17-07-2024 20:00:00,26.80365,84.51954,OZONE,1,9,6
India,Bihar,Bihar Sharif,"D M Colony, Bihar Sharif - BSPCB",17-07-2024 20:00:00,25.204762,85.514960,SO2,1,3,3
India,Bihar,Chhapra,"Darshan Nagar, Chhapra - BSPCB",17-07-2024 20:00:00,25.7808257,84.7446768,SO2,27,85,56
India,Bihar,Gaya,"Kareemganj, Gaya - BSPCB",17-07-2024 20:00:00,24.792403,84.992416,NH3,5,6,6
India,Bihar,Gaya,"Kareemganj, Gaya - BSPCB",17-07-2024 20:00:00,24.792403,84.992416,SO2,7,24,19
India,Bihar,Gaya,"SFTI Kusdihra, Gaya - BSPCB",17-07-2024 20:00:00,24.762518,84.982348,PM2.5,4,146,30
India,Bihar,Hajipur,"Industrial Area, Hajipur - BSPCB",17-07-2024 20:00:00,25.697189,85.245900,NH3,NA,NA,NA
India,Bihar,Katihar,"Mirchaibari, Katihar - BSPCB",17-07-2024 20:00:00,25.560083,87.553265,CO,22,40,25
India,Bihar,Katihar,"Mirchaibari, Katihar - BSPCB",17-07-2024 20:00:00,25.560083,87.553265,OZONE,4,4,4
India,Bihar,Kishanganj,"SDM Office_Khagra, Kishanganj - BSPCB",17-07-2024 20:00:00,26.0881305,87.93840336,PM2.5,NA,NA,NA
India,Bihar,Motihari,"Gandak Colony, Motihari - BSPCB",17-07-2024 20:00:00,26.63086,84.90051,NO2,1,9,6
India,Bihar,Motihari,"Gandak Colony, Motihari - BSPCB",17-07-2024 20:00:00,26.63086,84.90051,NH3,1,2,2
India,Bihar,Motihari,"Gandak Colony, Motihari - BSPCB",17-07-2024 20:00:00,26.63086,84.90051,CO,2,40,29
India,Bihar,Muzaffarpur,"Buddha Colony, Muzaffarpur - BSPCB",17-07-2024 20:00:00,26.11442,85.39813,NO2,10,25,12
India,Bihar,Muzaffarpur,"Muzaffarpur Collectorate, Muzaffarpur - BSPCB",17-07-2024 20:00:00,26.1209,85.3647,NO2,28,33,32
India,Bihar,Muzaffarpur,"Muzaffarpur Collectorate, Muzaffarpur - BSPCB",17-07-2024 20:00:00,26.1209,85.3647,OZONE,38,80,60
India,Bihar,Patna,"DRM Office Danapur, Patna - BSPCB",17-07-2024 20:00:00,25.586562,85.043586,PM2.5,43,62,50
India,Bihar,Patna,"DRM Office Danapur, Patna - BSPCB",17-07-2024 20:00:00,25.586562,85.043586,PM10,46,83,68
India,Bihar,Patna,"DRM Office Danapur, Patna - BSPCB",17-07-2024 20:00:00,25.586562,85.043586,SO2,6,14,10
India,Bihar,Patna,"DRM Office Danapur, Patna - BSPCB",17-07-2024 20:00:00,25.586562,85.043586,OZONE,9,70,13
India,Bihar,Patna,"Govt. High School Shikarpur, Patna - BSPCB",17-07-2024 20:00:00,25.592539,85.227158,NH3,4,5,5
India,Bihar,Patna,"Govt. High School Shikarpur, Patna - BSPCB",17-07-2024 20:00:00,25.592539,85.227158,SO2,8,11,10
India,Bihar,Patna,"Govt. High School Shikarpur, Patna - BSPCB",17-07-2024 20:00:00,25.592539,85.227158,OZONE,1,58,53
India,Bihar,Patna,"Muradpur, Patna - BSPCB",17-07-2024 20:00:00,25.619651,85.147382,PM10,57,126,91
India,Bihar,Patna,"Muradpur, Patna - BSPCB",17-07-2024 20:00:00,25.619651,85.147382,OZONE,5,62,51
India,Bihar,Patna,"Samanpura, Patna - BSPCB",17-07-2024 20:00:00,25.596727,85.085624,OZONE,40,63,54
India,Bihar,Purnia,"Mariam Nagar, Purnia - BSPCB",17-07-2024 20:00:00,25.366336,87.117468,PM10,NA,NA,NA
India,Bihar,Purnia,"Mariam Nagar, Purnia - BSPCB",17-07-2024 20:00:00,25.366336,87.117468,OZONE,19,82,34
India,Bihar,Rajgir,"Dangi Tola, Rajgir - BSPCB",17-07-2024 20:00:00,25.03280,85.41948,PM10,NA,NA,NA
India,Bihar,Rajgir,"Dangi Tola, Rajgir - BSPCB",17-07-2024 20:00:00,25.03280,85.41948,NO2,NA,NA,NA
India,Bihar,Rajgir,"Dangi Tola, Rajgir - BSPCB",17-07-2024 20:00:00,25.03280,85.41948,CO,38,38,38
India,Bihar,Sasaram,"Dada Peer, Sasaram - BSPCB",17-07-2024 20:00:00,24.952822,84.002396,NH3,2,2,2
India,Bihar,Sasaram,"Dada Peer, Sasaram - BSPCB",17-07-2024 20:00:00,24.952822,84.002396,SO2,5,10,6
India,Bihar,Sasaram,"Dada Peer, Sasaram - BSPCB",17-07-2024 20:00:00,24.952822,84.002396,OZONE,2,23,14
India,Chandigarh,Chandigarh,"Sector 22, Chandigarh - CPCC",17-07-2024 20:00:00,30.735567,76.775714,PM2.5,25,68,47
India,Chandigarh,Chandigarh,"Sector 22, Chandigarh - CPCC",17-07-2024 20:00:00,30.735567,76.775714,NH3,3,76,14
India,Chandigarh,Chandigarh,"Sector-25, Chandigarh - CPCC",17-07-2024 20:00:00,30.751462,76.762879,SO2,5,9,7
India,Chandigarh,Chandigarh,"Sector-53, Chandigarh - CPCC",17-07-2024 20:00:00,30.719859,76.738637,NO2,25,90,44
India,Chandigarh,Chandigarh,"Sector-53, Chandigarh - CPCC",17-07-2024 20:00:00,30.719859,76.738637,OZONE,2,32,22
India,Chhattisgarh,Bhilai,"Civic Center, Bhilai - Bhilai Steel Plant",17-07-2024 20:00:00,21.185571,81.343175,NO2,7,8,8
India,Chhattisgarh,Bhilai,"Civic Center, Bhilai - Bhilai Steel Plant",17-07-2024 20:00:00,21.185571,81.343175,CO,9,60,31
India,Chhattisgarh,Bilaspur,"Mangala, Bilaspur - NTPC",17-07-2024 20:00:00,22.08815,82.13737,SO2,12,16,15
India,Chhattisgarh,Korba,"Urja Nagar, Korba - CECB",17-07-2024 20:00:00,22.348441,82.549611,NO2,23,30,27
India,Chhattisgarh,Kunjemura,"OP Jindal School, Kunjemura - CECB",17-07-2024 20:00:00,22.126650,83.483212,NO2,2,33,14
India,Chhattisgarh,Kunjemura,"OP Jindal School, Kunjemura - CECB",17-07-2024 20:00:00,22.126650,83.483212,CO,22,34,24
India,Chhattisgarh,Raipur,"Krishak Nagar, Raipur - CECB",17-07-2024 20:00:00,21.237755,81.705301,PM2.5,5,20,10
India,Chhattisgarh,Raipur,"Krishak Nagar, Raipur - CECB",17-07-2024 20:00:00,21.237755,81.705301,PM10,9,30,16
India,Chhattisgarh,Raipur,"Krishak Nagar, Raipur - CECB",17-07-2024 20:00:00,21.237755,81.705301,CO,17,22,21
India,Chhattisgarh,Raipur,"Siltara Phase-II, Raipur - CECB",17-07-2024 20:00:00,21.371751,81.664929,NO2,9,20,13
India,Delhi,Delhi,"Alipur, Delhi - DPCC",17-07-2024 20:00:00,28.815329,77.153010,PM2.5,NA,NA,NA
India,Delhi,Delhi,"Alipur, Delhi - DPCC",17-07-2024 20:00:00,28.815329,77.153010,NO2,NA,NA,NA
India,Delhi,Delhi,"Alipur, Delhi - DPCC",17-07-2024 20:00:00,28.815329,77.153010,NH3,NA,NA,NA
India,Delhi,Delhi,"Alipur, Delhi - DPCC",17-07-2024 20:00:00,28.815329,77.153010,OZONE,8,41,24
India,Delhi,Delhi,"Anand Vihar, Delhi - DPCC",17-07-2024 20:00:00,28.647622,77.3158090,NO2,17,83,41
India,Delhi,Delhi,"Anand Vihar, Delhi - DPCC",17-07-2024 20:00:00,28.647622,77.3158090,CO,9,60,49
India,Delhi,Delhi,"Ashok Vihar, Delhi - DPCC",17-07-2024 20:00:00,28.695381,77.181665,CO,24,64,27
India,Delhi,Delhi,"Aya Nagar, Delhi - IMD",17-07-2024 20:00:00,28.4706914,77.1099364,CO,NA,NA,NA
India,Delhi,Delhi,"Aya Nagar, Delhi - IMD",17-07-2024 20:00:00,28.4706914,77.1099364,OZONE,NA,NA,NA
India,Delhi,Delhi,"Bawana, Delhi - DPCC",17-07-2024 20:00:00,28.776200,77.051074,CO,33,44,35
India,Delhi,Delhi,"CRRI Mathura Road, Delhi - IMD",17-07-2024 20:00:00,28.5512005,77.2735737,PM10,NA,NA,NA
India,Delhi,Delhi,"CRRI Mathura Road, Delhi - IMD",17-07-2024 20:00:00,28.5512005,77.2735737,CO,NA,NA,NA
India,Delhi,Delhi,"Dr. Karni Singh Shooting Range, Delhi - DPCC",17-07-2024 20:00:00,28.498571,77.264840,PM2.5,32,83,54
India,Delhi,Delhi,"Dwarka-Sector 8, Delhi - DPCC ",17-07-2024 20:00:00,28.5710274,77.0719006,PM2.5,42,95,69
India,Delhi,Delhi,"Dwarka-Sector 8, Delhi - DPCC ",17-07-2024 20:00:00,28.5710274,77.0719006,NO2,8,39,17
India,Delhi,Delhi,"Dwarka-Sector 8, Delhi - DPCC ",17-07-2024 20:00:00,28.5710274,77.0719006,NH3,6,11,8
India,Delhi,Delhi,"Dwarka-Sector 8, Delhi - DPCC ",17-07-2024 20:00:00,28.5710274,77.0719006,CO,39,101,49
India,Delhi,Delhi,"Dwarka-Sector 8, Delhi - DPCC ",17-07-2024 20:00:00,28.5710274,77.0719006,OZONE,9,37,26
India,Delhi,Delhi,"IGI Airport (T3), Delhi - IMD",17-07-2024 20:00:00,28.5627763,77.1180053,NO2,16,38,25
India,Delhi,Delhi,"IGI Airport (T3), Delhi - IMD",17-07-2024 20:00:00,28.5627763,77.1180053,OZONE,3,16,16
India,Delhi,Delhi,"IHBAS, Dilshad Garden, Delhi - CPCB",17-07-2024 20:00:00,28.6811736,77.3025234,PM2.5,44,52,47
India,Delhi,Delhi,"IHBAS, Dilshad Garden, Delhi - CPCB",17-07-2024 20:00:00,28.6811736,77.3025234,PM10,68,94,81
India,Delhi,Delhi,"IHBAS, Dilshad Garden, Delhi - CPCB",17-07-2024 20:00:00,28.6811736,77.3025234,SO2,3,50,13
India,Delhi,Delhi,"IHBAS, Dilshad Garden, Delhi - CPCB",17-07-2024 20:00:00,28.6811736,77.3025234,OZONE,13,20,16
India,Delhi,Delhi,"Jahangirpuri, Delhi - DPCC",17-07-2024 20:00:00,28.732820,77.170633,NO2,18,69,39
India,Delhi,Delhi,"Jahangirpuri, Delhi - DPCC",17-07-2024 20:00:00,28.732820,77.170633,NH3,2,3,2
India,Delhi,Delhi,"Jawaharlal Nehru Stadium, Delhi - DPCC",17-07-2024 20:00:00,28.580280,77.233829,PM2.5,22,70,43
India,Delhi,Delhi,"Jawaharlal Nehru Stadium, Delhi - DPCC",17-07-2024 20:00:00,28.580280,77.233829,SO2,5,16,10
India,Delhi,Delhi,"Mundka, Delhi - DPCC",17-07-2024 20:00:00,28.684678,77.076574,NH3,4,65,16
India,Delhi,Delhi,"Mundka, Delhi - DPCC",17-07-2024 20:00:00,28.684678,77.076574,CO,40,64,49
India,Delhi,Delhi,"NSIT Dwarka, Delhi - CPCB",17-07-2024 20:00:00,28.60909,77.0325413,PM10,34,82,53
India,Delhi,Delhi,"NSIT Dwarka, Delhi - CPCB",17-07-2024 20:00:00,28.60909,77.0325413,CO,22,68,47
India,Delhi,Delhi,"Najafgarh, Delhi - DPCC",17-07-2024 20:00:00,28.570173,76.933762,PM10,24,98,69
India,Delhi,Delhi,"Najafgarh, Delhi - DPCC",17-07-2024 20:00:00,28.570173,76.933762,OZONE,8,51,22
India,Delhi,Delhi,"Narela, Delhi - DPCC",17-07-2024 20:00:00,28.822836,77.101981,PM2.5,28,113,59
India,Delhi,Delhi,"Narela, Delhi - DPCC",17-07-2024 20:00:00,28.822836,77.101981,NH3,7,10,8
India,Delhi,Delhi,"North Campus, DU, Delhi - IMD",17-07-2024 20:00:00,28.6573814,77.1585447,PM2.5,19,111,59
India,Delhi,Delhi,"Okhla Phase-2, Delhi - DPCC",17-07-2024 20:00:00,28.530785,77.271255,PM2.5,32,92,51
India,Delhi,Delhi,"Okhla Phase-2, Delhi - DPCC",17-07-2024 20:00:00,28.530785,77.271255,NH3,5,8,7
India,Delhi,Delhi,"Patparganj, Delhi - DPCC",17-07-2024 20:00:00,28.623763,77.287209,CO,15,40,21
India,Delhi,Delhi,"Punjabi Bagh, Delhi - DPCC",17-07-2024 20:00:00,28.674045,77.131023,PM2.5,27,143,78
India,Delhi,Delhi,"Punjabi Bagh, Delhi - DPCC",17-07-2024 20:00:00,28.674045,77.131023,NO2,6,37,19
India,Delhi,Delhi,"Pusa, Delhi - DPCC",17-07-2024 20:00:00,28.639652,77.146275,PM10,51,140,90
India,Delhi,Delhi,"Pusa, Delhi - DPCC",17-07-2024 20:00:00,28.639652,77.146275,OZONE,24,47,24
India,Delhi,Delhi,"Pusa, Delhi - IMD",17-07-2024 20:00:00,28.636110,77.173332,PM2.5,17,132,51
India,Delhi,Delhi,"R K Puram, Delhi - DPCC",17-07-2024 20:00:00,28.563262,77.186937,PM2.5,47,167,86
India,Delhi,Delhi,"R K Puram, Delhi - DPCC",17-07-2024 20:00:00,28.563262,77.186937,PM10,64,141,94
India,Delhi,Delhi,"R K Puram, Delhi - DPCC",17-07-2024 20:00:00,28.563262,77.186937,NO2,12,60,29
India,Delhi,Delhi,"R K Puram, Delhi - DPCC",17-07-2024 20:00:00,28.563262,77.186937,SO2,10,24,17
India,Delhi,Delhi,"Rohini, Delhi - DPCC",17-07-2024 20:00:00,28.732528,77.119920,NO2,13,80,33
India,Delhi,Delhi,"Rohini, Delhi - DPCC",17-07-2024 20:00:00,28.732528,77.119920,SO2,1,10,6
India,Delhi,Delhi,"Shadipur, Delhi - CPCB",17-07-2024 20:00:00,28.6514781,77.1473105,PM2.5,25,74,46
India,Delhi,Delhi,"Vivek Vihar, Delhi - DPCC",17-07-2024 20:00:00,28.672342,77.315260,NO2,23,44,32
India,Delhi,Delhi,"Vivek Vihar, Delhi - DPCC",17-07-2024 20:00:00,28.672342,77.315260,SO2,5,11,8
India,Delhi,Delhi,"Vivek Vihar, Delhi - DPCC",17-07-2024 20:00:00,28.672342,77.315260,OZONE,3,34,25
India,Gujarat,Ahmedabad,"Chandkheda, Ahmedabad - IITM",17-07-2024 20:00:00,23.107969,72.574648,NO2,18,76,36
India,Gujarat,Ahmedabad,"Chandkheda, Ahmedabad - IITM",17-07-2024 20:00:00,23.107969,72.574648,OZONE,10,38,34
India,Gujarat,Ahmedabad,"Gyaspur, Ahmedabad - IITM",17-07-2024 20:00:00,22.977134,72.553024,SO2,15,18,16
India,Gujarat,Ahmedabad,"Maninagar, Ahmedabad - GPCB",17-07-2024 20:00:00,23.002657,72.591912,PM10,37,106,69
India,Gujarat,Ahmedabad,"Raikhad, Ahmedabad - IITM",17-07-2024 20:00:00,23.020509,72.579261,SO2,12,13,12
India,Gujarat,Ahmedabad,"SVPI Airport Hansol, Ahmedabad - IITM",17-07-2024 20:00:00,23.076793,72.627874,SO2,8,15,11
India,Gujarat,Ahmedabad,"Sardar Vallabhbhai Patel Stadium, Ahmedabad - IITM",17-07-2024 20:00:00,23.043070,72.562968,NH3,7,9,8
India,Gujarat,Ankleshwar,"GIDC, Ankleshwar - GPCB",17-07-2024 20:00:00,21.613267,73.010555,PM10,41,67,54
India,Gujarat,Ankleshwar,"GIDC, Ankleshwar - GPCB",17-07-2024 20:00:00,21.613267,73.010555,SO2,2,51,25
India,Gujarat,Gandhinagar,"GIFT City, Gandhinagar - IITM",17-07-2024 20:00:00,23.163798,72.677768,PM10,33,107,70
India,Gujarat,Gandhinagar,"GIFT City, Gandhinagar - IITM",17-07-2024 20:00:00,23.163798,72.677768,NO2,13,20,16
India,Gujarat,Gandhinagar,"GIFT City, Gandhinagar - IITM",17-07-2024 20:00:00,23.163798,72.677768,NH3,2,4,3
India,Gujarat,Gandhinagar,"Sector-10, Gandhinagar - GPCB",17-07-2024 20:00:00,23.221714,72.654328,NO2,16,37,19
India,Gujarat,Surat,"Science Center, Surat - SMC",17-07-2024 20:00:00,21.170046,72.795405,NO2,23,31,27
India,Gujarat,Surat,"Science Center, Surat - SMC",17-07-2024 20:00:00,21.170046,72.795405,SO2,11,13,12
India,Gujarat,Vapi,"Phase-1 GIDC, Vapi - GPCB",17-07-2024 20:00:00,20.362421,72.918013,SO2,49,55,50
India,Gujarat,Vatva,"Phase-4 GIDC, Vatva - GPCB",17-07-2024 20:00:00,22.969611,72.643500,NO2,1,5,3
India,Gujarat,Vatva,"Phase-4 GIDC, Vatva - GPCB",17-07-2024 20:00:00,22.969611,72.643500,NH3,2,5,3
India,Haryana,Ambala,"Patti Mehar, Ambala - HSPCB",17-07-2024 20:00:00,30.379589,76.778328,NH3,5,12,9
India,Haryana,Ambala,"Patti Mehar, Ambala - HSPCB",17-07-2024 20:00:00,30.379589,76.778328,SO2,1,11,7
India,Haryana,Ambala,"Patti Mehar, Ambala - HSPCB",17-07-2024 20:00:00,30.379589,76.778328,CO,30,61,42
India,Haryana,Bahadurgarh,"Arya Nagar, Bahadurgarh - HSPCB",17-07-2024 20:00:00,28.6701,76.9254,NO2,19,24,22
India,Haryana,Ballabgarh,"Nathu Colony, Ballabgarh - HSPCB",17-07-2024 20:00:00,28.3419248,77.319699,PM2.5,30,88,55
India,Haryana,Ballabgarh,"Nathu Colony, Ballabgarh - HSPCB",17-07-2024 20:00:00,28.3419248,77.319699,NO2,7,10,9
India,Haryana,Charkhi Dadri,"Mini Secretariat, Charkhi Dadri - HSPCB",17-07-2024 20:00:00,28.593883,76.270653,PM2.5,41,152,89
India,Haryana,Dharuhera,"Municipal Corporation Office, Dharuhera -  HSPCB",17-07-2024 20:00:00,28.206800,76.799700,NO2,NA,NA,NA
India,Haryana,Dharuhera,"Municipal Corporation Office, Dharuhera -  HSPCB",17-07-2024 20:00:00,28.206800,76.799700,OZONE,21,28,24
India,Haryana,Faridabad,"New Industrial Town, Faridabad - HSPCB",17-07-2024 20:00:00,28.39072,77.30059,NH3,1,2,1
India,Haryana,Faridabad,"Sector 11, Faridabad - HSPCB",17-07-2024 20:00:00,28.376058,77.315741,PM2.5,31,190,99
India,Haryana,Faridabad,"Sector 30, Faridabad - HSPCB",17-07-2024 20:00:00,28.4417,77.3217,CO,20,47,23
India,Haryana,Fatehabad,"Huda Sector, Fatehabad - HSPCB",17-07-2024 20:00:00,29.503664,75.467934,SO2,1,16,8
India,Haryana,Fatehabad,"Huda Sector, Fatehabad - HSPCB",17-07-2024 20:00:00,29.503664,75.467934,CO,106,108,107
India,Haryana,Gurugram,"Sector-51, Gurugram - HSPCB",17-07-2024 20:00:00,28.4227,77.0667,PM2.5,23,238,118
India,Haryana,Gurugram,"Sector-51, Gurugram - HSPCB",17-07-2024 20:00:00,28.4227,77.0667,PM10,104,157,127
India,Haryana,Gurugram,"Sector-51, Gurugram - HSPCB",17-07-2024 20:00:00,28.4227,77.0667,CO,21,40,26
India,Haryana,Gurugram,"Sector-51, Gurugram - HSPCB",17-07-2024 20:00:00,28.4227,77.0667,OZONE,30,45,33
India,Haryana,Hisar,"Urban Estate-II, Hisar - HSPCB",17-07-2024 20:00:00,29.140560,75.744941,OZONE,10,144,47
India,Haryana,Jind,"Police Lines, Jind - HSPCB",17-07-2024 20:00:00,29.307814,76.337619,PM2.5,NA,NA,NA
India,Haryana,Jind,"Police Lines, Jind - HSPCB",17-07-2024 20:00:00,29.307814,76.337619,PM10,NA,NA,NA
India,Haryana,Jind,"Police Lines, Jind - HSPCB",17-07-2024 20:00:00,29.307814,76.337619,OZONE,65,226,82
India,Haryana,Kaithal,"Rishi Nagar, Kaithal - HSPCB",17-07-2024 20:00:00,29.8006,76.4155,PM2.5,20,78,49
India,Haryana,Kaithal,"Rishi Nagar, Kaithal - HSPCB",17-07-2024 20:00:00,29.8006,76.4155,PM10,26,97,63
India,Haryana,Kaithal,"Rishi Nagar, Kaithal - HSPCB",17-07-2024 20:00:00,29.8006,76.4155,NO2,24,26,25
India,Haryana,Kaithal,"Rishi Nagar, Kaithal - HSPCB",17-07-2024 20:00:00,29.8006,76.4155,NH3,8,8,8
India,Haryana,Karnal,"Sector-12, Karnal - HSPCB",17-07-2024 20:00:00,29.695300,77.002700,SO2,12,13,12
India,Haryana,Mandikhera,"General Hospital, Mandikhera - HSPCB",17-07-2024 20:00:00,27.9002,76.9938,PM10,9,51,30
India,Haryana,Mandikhera,"General Hospital, Mandikhera - HSPCB",17-07-2024 20:00:00,27.9002,76.9938,NO2,18,24,21
India,Haryana,Narnaul,"Shastri Nagar, Narnaul - HSPCB",17-07-2024 20:00:00,28.060249,76.113115,PM10,46,114,80
India,Haryana,Narnaul,"Shastri Nagar, Narnaul - HSPCB",17-07-2024 20:00:00,28.060249,76.113115,CO,7,80,50
India,Haryana,Palwal,"Shyam Nagar, Palwal - HSPCB",17-07-2024 20:00:00,28.1485564,77.3320667,PM2.5,NA,NA,NA
India,Haryana,Palwal,"Shyam Nagar, Palwal - HSPCB",17-07-2024 20:00:00,28.1485564,77.3320667,NO2,NA,NA,NA
India,Haryana,Palwal,"Shyam Nagar, Palwal - HSPCB",17-07-2024 20:00:00,28.1485564,77.3320667,SO2,NA,NA,NA
India,Haryana,Panchkula,"Sector-6, Panchkula - HSPCB ",17-07-2024 20:00:00,30.7057778,76.8531805555555,OZONE,26,43,34
India,Haryana,Panipat,"Sector-18, Panipat - HSPCB",17-07-2024 20:00:00,29.432304,76.972765,PM2.5,67,72,69
India,Haryana,Rohtak,"MD University, Rohtak - HSPCB",17-07-2024 20:00:00,28.52123,76.37138,PM2.5,16,425,122
India,Haryana,Rohtak,"MD University, Rohtak - HSPCB",17-07-2024 20:00:00,28.52123,76.37138,SO2,5,8,7
India,Haryana,Sirsa,"F-Block, Sirsa - HSPCB",17-07-2024 20:00:00,29.536400,75.015800,SO2,13,20,16
India,Haryana,Sirsa,"F-Block, Sirsa - HSPCB",17-07-2024 20:00:00,29.536400,75.015800,CO,62,74,65
India,Haryana,Yamuna Nagar,"Gobind Pura, Yamuna Nagar - HSPCB",17-07-2024 20:00:00,30.1480566,77.2893471,NH3,1,6,4
India,Haryana,Yamuna Nagar,"Gobind Pura, Yamuna Nagar - HSPCB",17-07-2024 20:00:00,30.1480566,77.2893471,SO2,1,35,7
India,Himachal Pradesh,Baddi,"HIMUDA Complex Phase-1, Baddi - HPPCB",17-07-2024 20:00:00,30.943887,76.801991,PM2.5,30,316,144
India,Himachal Pradesh,Baddi,"HIMUDA Complex Phase-1, Baddi - HPPCB",17-07-2024 20:00:00,30.943887,76.801991,NO2,14,38,24
India,Jammu_and_Kashmir,Srinagar,"Rajbagh, Srinagar - JKSPCB",17-07-2024 20:00:00,34.066206,74.819820,OZONE,12,27,21
India,Jharkhand,Dhanbad,"Kalakusuma, Dhanbad - DMC",17-07-2024 20:00:00,23.811548,86.481238,PM10,68,74,72
India,Karnataka,Bagalkot,"Vidayagiri, Bagalkot - KSPCB",17-07-2024 20:00:00,16.172806,75.659694,PM10,53,54,53
India,Karnataka,Bagalkot,"Vidayagiri, Bagalkot - KSPCB",17-07-2024 20:00:00,16.172806,75.659694,NH3,2,2,2
India,Karnataka,Belgaum,"Ramteerth Nagar, Belgaum - KSPCB",17-07-2024 20:00:00,15.888653,74.541751,PM2.5,5,31,16
India,Karnataka,Belgaum,"Ramteerth Nagar, Belgaum - KSPCB",17-07-2024 20:00:00,15.888653,74.541751,PM10,6,36,18
India,Karnataka,Bengaluru,"Bapuji Nagar, Bengaluru - KSPCB",17-07-2024 20:00:00,12.951913,77.539784,PM2.5,9,77,31
India,Karnataka,Bengaluru,"City Railway Station, Bengaluru - KSPCB",17-07-2024 20:00:00,12.9756843,77.5660749,PM10,84,115,102
India,Karnataka,Bengaluru,"Hebbal, Bengaluru - KSPCB",17-07-2024 20:00:00,13.029152,77.585901,SO2,NA,NA,NA
India,Karnataka,Bengaluru,"Hebbal, Bengaluru - KSPCB",17-07-2024 20:00:00,13.029152,77.585901,CO,6,18,13
India,Karnataka,Bengaluru,"Jigani, Bengaluru - KSPCB",17-07-2024 20:00:00,12.7816279,77.6299145,PM2.5,36,38,37
India,Karnataka,Bengaluru,"Jigani, Bengaluru - KSPCB",17-07-2024 20:00:00,12.7816279,77.6299145,NH3,3,5,4
India,Karnataka,Bengaluru,"Kasturi Nagar, Bengaluru - KSPCB",17-07-2024 20:00:00,13.003872,77.664217,PM10,35,41,37
India,Karnataka,Bengaluru,"Kasturi Nagar, Bengaluru - KSPCB",17-07-2024 20:00:00,13.003872,77.664217,NO2,16,17,17
India,Karnataka,Bengaluru,"Kasturi Nagar, Bengaluru - KSPCB",17-07-2024 20:00:00,13.003872,77.664217,NH3,3,4,4
India,Karnataka,Bengaluru,"Kasturi Nagar, Bengaluru - KSPCB",17-07-2024 20:00:00,13.003872,77.664217,CO,25,26,25
India,Karnataka,Bengaluru,"Peenya, Bengaluru - CPCB",17-07-2024 20:00:00,13.0270199,77.494094,NO2,35,36,36
India,Karnataka,Bengaluru,"Peenya, Bengaluru - CPCB",17-07-2024 20:00:00,13.0270199,77.494094,OZONE,NA,NA,NA
India,Karnataka,Bengaluru,"RVCE-Mailasandra, Bengaluru - KSPCB",17-07-2024 20:00:00,12.921418,77.502466,PM10,NA,NA,NA
India,Karnataka,Bengaluru,"RVCE-Mailasandra, Bengaluru - KSPCB",17-07-2024 20:00:00,12.921418,77.502466,CO,26,36,29
India,Karnataka,Bengaluru,"RVCE-Mailasandra, Bengaluru - KSPCB",17-07-2024 20:00:00,12.921418,77.502466,OZONE,39,39,39
India,Karnataka,Bengaluru,"Sanegurava Halli, Bengaluru - KSPCB",17-07-2024 20:00:00,12.990328,77.5431385,SO2,2,3,3
India,Karnataka,Bengaluru,"Shivapura_Peenya, Bengaluru - KSPCB",17-07-2024 20:00:00,13.0246342,77.5080115,OZONE,53,55,54
India,Karnataka,Bengaluru,"Silk Board, Bengaluru - KSPCB",17-07-2024 20:00:00,12.917348,77.622813,NH3,1,1,1
India,Karnataka,Bengaluru,"Silk Board, Bengaluru - KSPCB",17-07-2024 20:00:00,12.917348,77.622813,SO2,6,11,8
India,Karnataka,Bidar,"Naubad, Bidar - KSPCB",17-07-2024 20:00:00,17.930306,77.482194,PM2.5,NA,NA,NA
India,Karnataka,Bidar,"Naubad, Bidar - KSPCB",17-07-2024 20:00:00,17.930306,77.482194,NO2,24,39,30
India,Karnataka,Chamarajanagar,"Urban, Chamarajanagar - KSPCB",17-07-2024 20:00:00,11.55358,76.55521,PM2.5,20,39,26
India,Karnataka,Chikkaballapur,"Chikkaballapur Rural, Chikkaballapur - KSPCB",17-07-2024 20:00:00,13.428828,77.731418,PM2.5,7,28,16
India,Karnataka,Chikkaballapur,"Chikkaballapur Rural, Chikkaballapur - KSPCB",17-07-2024 20:00:00,13.428828,77.731418,NH3,1,1,1
India,Karnataka,Chikkaballapur,"Chikkaballapur Rural, Chikkaballapur - KSPCB",17-07-2024 20:00:00,13.428828,77.731418,SO2,14,20,17
India,Karnataka,Chikkamagaluru,"Kalyana Nagara, Chikkamagaluru - KSPCB",17-07-2024 20:00:00,13.328028,75.797056,PM10,28,132,40
India,Karnataka,Chikkamagaluru,"Kalyana Nagara, Chikkamagaluru - KSPCB",17-07-2024 20:00:00,13.328028,75.797056,NO2,15,25,17
India,Karnataka,Davanagere,"Devaraj Urs Badavane, Davanagere - KSPCB",17-07-2024 20:00:00,14.475800,75.905200,PM2.5,3,20,10
India,Karnataka,Davanagere,"Devaraj Urs Badavane, Davanagere - KSPCB",17-07-2024 20:00:00,14.475800,75.905200,PM10,5,30,14
India,Karnataka,Gadag,"Panchal Nagar, Gadag - KSPCB",17-07-2024 20:00:00,15.411456,75.638133,PM2.5,NA,NA,NA
India,Karnataka,Haveri,"Ashwini Nagar, Haveri - KSPCB",17-07-2024 20:00:00,14.791800,75.389600,PM10,11,51,22
India,Karnataka,Kalaburagi,"Lal Bahadur Shastri Nagar, Kalaburagi - KSPCB",17-07-2024 20:00:00,17.321993,76.822628,NH3,2,3,2
India,Karnataka,Kalaburagi,"Lal Bahadur Shastri Nagar, Kalaburagi - KSPCB",17-07-2024 20:00:00,17.321993,76.822628,SO2,1,11,3
India,Karnataka,Kalaburagi,"Mahatma Basaveswar Colony, Kalaburgi - KSPCB",17-07-2024 20:00:00,17.336318,76.847397,PM2.5,8,44,28
India,Karnataka,Kalaburagi,"Mahatma Basaveswar Colony, Kalaburgi - KSPCB",17-07-2024 20:00:00,17.336318,76.847397,NH3,2,4,3
India,Karnataka,Koppal,"Diwator Nagar, Koppal - KSPCB",17-07-2024 20:00:00,15.347630,76.181767,PM10,3,9,5
India,Karnataka,Madikeri,"Stuart Hill, Madikeri - KSPCB",17-07-2024 20:00:00,12.415911,75.735050,PM2.5,7,17,12
India,Karnataka,Madikeri,"Stuart Hill, Madikeri - KSPCB",17-07-2024 20:00:00,12.415911,75.735050,NH3,NA,NA,NA
India,Karnataka,Madikeri,"Stuart Hill, Madikeri - KSPCB",17-07-2024 20:00:00,12.415911,75.735050,SO2,4,4,4
India,Karnataka,Madikeri,"Stuart Hill, Madikeri - KSPCB",17-07-2024 20:00:00,12.415911,75.735050,CO,2,18,10
India,Karnataka,Mangalore,"Kadri, Mangalore - KSPCB",17-07-2024 20:00:00,12.889250,74.853000,SO2,NA,NA,NA
India,Karnataka,Mangalore,"Kadri, Mangalore - KSPCB",17-07-2024 20:00:00,12.889250,74.853000,CO,10,22,16
India,Karnataka,Mysuru,"Hebbal 1st Stage, Mysuru - KSPCB",17-07-2024 20:00:00,12.21041,76.37376,PM2.5,8,33,18
India,Karnataka,Mysuru,"Hebbal 1st Stage, Mysuru - KSPCB",17-07-2024 20:00:00,12.21041,76.37376,SO2,1,4,2
India,Karnataka,Raichur,"Haji Colony, Raichur - KSPCB",17-07-2024 20:00:00,16.208139,77.348417,PM2.5,1,10,5
India,Karnataka,Raichur,"Haji Colony, Raichur - KSPCB",17-07-2024 20:00:00,16.208139,77.348417,PM10,9,32,21
India,Karnataka,Ramanagara,"Vijay Nagar, Ramanagara - KSPCB",17-07-2024 20:00:00,12.733409,77.298051,NO2,5,10,7
India,Karnataka,Tumakuru,"Thimmalapura, Tumakuru - KSPCB",17-07-2024 20:00:00,13.377516,77.099072,SO2,4,21,8
India,Karnataka,Tumakuru,"Thimmalapura, Tumakuru - KSPCB",17-07-2024 20:00:00,13.377516,77.099072,CO,29,36,32
India,Karnataka,Udupi,"Brahmagiri, Udupi - KSPCB",17-07-2024 20:00:00,13.34194444,74.74694444,NH3,NA,NA,NA
India,Karnataka,Vijayapura,"Ibrahimpur, Vijayapura - KSPCB",17-07-2024 20:00:00,16.802639,75.722694,CO,NA,NA,NA
India,Karnataka,Yadgir,"Collector Office, Yadgir - KSPCB",17-07-2024 20:00:00,16.7602,77.1428,OZONE,17,20,19
India,Kerala,Eloor,"Udyogamandal, Eloor - Kerala PCB",17-07-2024 20:00:00,10.073232,76.302765,NH3,1,1,1
India,Kerala,Kannur,"Thavakkara, Kannur - Kerala PCB",17-07-2024 20:00:00,11.875000,75.373200,PM2.5,40,48,45
India,Kerala,Kollam,"Polayathode, Kollam - Kerala PCB",17-07-2024 20:00:00,8.8787,76.6073,PM10,29,78,49
India,Kerala,Kollam,"Polayathode, Kollam - Kerala PCB",17-07-2024 20:00:00,8.8787,76.6073,NH3,1,1,1
India,Kerala,Thiruvananthapuram,"Kariavattom, Thiruvananthapuram - Kerala PCB",17-07-2024 20:00:00,8.563700,76.886500,PM10,46,51,49
India,Kerala,Thiruvananthapuram,"Plammoodu, Thiruvananthapuram - Kerala PCB",17-07-2024 20:00:00,8.5149093,76.9435879,PM10,1,34,16
India,Kerala,Thiruvananthapuram,"Plammoodu, Thiruvananthapuram - Kerala PCB",17-07-2024 20:00:00,8.5149093,76.9435879,NO2,8,67,15
India,Kerala,Thiruvananthapuram,"Plammoodu, Thiruvananthapuram - Kerala PCB",17-07-2024 20:00:00,8.5149093,76.9435879,NH3,1,27,3
India,Kerala,Thrissur,"Corporation Ground, Thrissur - Kerala PCB",17-07-2024 20:00:00,10.532400,76.215900,SO2,NA,NA,NA
India,Madhya Pradesh,Bhopal,"Idgah Hills, Bhopal - MPPCB",17-07-2024 20:00:00,23.264759,77.381568,PM10,20,421,82
India,Madhya Pradesh,Bhopal,"T T Nagar, Bhopal - MPPCB",17-07-2024 20:00:00,23.233584,77.400574,PM10,20,62,44
India,Madhya Pradesh,Bhopal,"T T Nagar, Bhopal - MPPCB",17-07-2024 20:00:00,23.233584,77.400574,NH3,6,9,7
India,Madhya Pradesh,Dewas,"Bhopal Chauraha, Dewas - MPPCB",17-07-2024 20:00:00,22.9682591,76.064118,NO2,12,14,13
India,Madhya Pradesh,Dewas,"Bhopal Chauraha, Dewas - MPPCB",17-07-2024 20:00:00,22.9682591,76.064118,NH3,3,3,3
India,Madhya Pradesh,Gwalior,"City Center, Gwalior - MPPCB",17-07-2024 20:00:00,26.203442,78.193251,NH3,1,5,4
India,Madhya Pradesh,Gwalior,"City Center, Gwalior - MPPCB",17-07-2024 20:00:00,26.203442,78.193251,SO2,2,25,10
India,Madhya Pradesh,Gwalior,"Deen Dayal Nagar, Gwalior - MPPCB",17-07-2024 20:00:00,26.259242,78.216432,NO2,4,44,17
India,Madhya Pradesh,Gwalior,"Deen Dayal Nagar, Gwalior - MPPCB",17-07-2024 20:00:00,26.259242,78.216432,SO2,6,11,8
India,Madhya Pradesh,Gwalior,"Phool Bagh, Gwalior - Mondelez Ind. Food",17-07-2024 20:00:00,26.210536,78.171,NO2,3,5,4
India,Madhya Pradesh,Indore,"Chhoti Gwaltoli, Indore - MPPCB",17-07-2024 20:00:00,22.4310,75.5213,NO2,37,81,51
India,Madhya Pradesh,Indore,"Residency Area, Indore - IMC",17-07-2024 20:00:00,22.7084,75.8815,NO2,21,28,26
India,Madhya Pradesh,Indore,"Residency Area, Indore - IMC",17-07-2024 20:00:00,22.7084,75.8815,CO,10,12,10
India,Madhya Pradesh,Indore,"Residency Area, Indore - IMC",17-07-2024 20:00:00,22.7084,75.8815,OZONE,10,11,11
India,Madhya Pradesh,Jabalpur,"Suhagi, Jabalpur - JMC",17-07-2024 20:00:00,23.218135,79.957770,PM10,22,53,32
India,Madhya Pradesh,Jabalpur,"Suhagi, Jabalpur - JMC",17-07-2024 20:00:00,23.218135,79.957770,SO2,7,10,8
India,Madhya Pradesh,Jabalpur,"Suhagi, Jabalpur - JMC",17-07-2024 20:00:00,23.218135,79.957770,OZONE,1,33,25
India,Madhya Pradesh,Katni,"Gole Bazar, Katni - MPPCB",17-07-2024 20:00:00,23.50016,80.23284,CO,17,42,23
India,Madhya Pradesh,Katni,"Gole Bazar, Katni - MPPCB",17-07-2024 20:00:00,23.50016,80.23284,OZONE,8,48,35
