country,state,city,station,last_update,latitude,longitude,pollutant_id,pollutant_min,pollutant_max,pollutant_avg
India,Andhra_Pradesh,Amaravati,"Secretariat, Amaravati - APPCB",25-04-2024 10:00:00,16.5150833,80.5181667,PM2.5,2,48,23
India,Andhra_Pradesh,Anantapur,"Gulzarpet, Anantapur - APPCB",25-04-2024 10:00:00,14.675886,77.593027,CO,22,54,32
India,Andhra_Pradesh,Chittoor,"Gangineni Cheruvu, Chittoor - APPCB",25-04-2024 10:00:00,13.204880,79.097889,SO2,2,45,17
India,Andhra_Pradesh,Chittoor,"Gangineni Cheruvu, Chittoor - APPCB",25-04-2024 10:00:00,13.204880,79.097889,CO,NA,NA,NA
India,Andhra_Pradesh,Kadapa,"Yerramukkapalli, Kadapa - APPCB",25-04-2024 10:00:00,14.465052,78.824187,NO2,NA,NA,NA
India,Andhra_Pradesh,Rajamahendravaram,"Anand Kala Kshetram, Rajamahendravaram - APPCB",25-04-2024 10:00:00,16.9872867,81.7363176,PM10,17,68,49
India,Andhra_Pradesh,Rajamahendravaram,"Anand Kala Kshetram, Rajamahendravaram - APPCB",25-04-2024 10:00:00,16.9872867,81.7363176,NH3,4,6,4
India,Andhra_Pradesh,Rajamahendravaram,"Anand Kala Kshetram, Rajamahendravaram - APPCB",25-04-2024 10:00:00,16.9872867,81.7363176,OZONE,12,27,17
India,Andhra_Pradesh,Tirupati,"Tirumala, Tirupati - APPCB",25-04-2024 10:00:00,13.67,79.35,PM2.5,26,90,57
India,Andhra_Pradesh,Tirupati,"Vaikuntapuram, Tirupati - APPCB",25-04-2024 10:00:00,13.615387,79.409230,SO2,4,5,5
India,Andhra_Pradesh,Vijayawada,"HB Colony, Vijayawada - APPCB",25-04-2024 10:00:00,16.536107,80.594233,SO2,3,5,4
India,Andhra_Pradesh,Vijayawada,"Kanuru, Vijayawada - APPCB",25-04-2024 10:00:00,16.486692,80.699436,NO2,14,17,15
India,Andhra_Pradesh,Vijayawada,"Kanuru, Vijayawada - APPCB",25-04-2024 10:00:00,16.486692,80.699436,NH3,1,1,1
India,Andhra_Pradesh,Vijayawada,"Rajiv Gandhi Park, Vijayawada - APPCB",25-04-2024 10:00:00,16.509717,80.612222,NO2,32,63,46
India,Andhra_Pradesh,Visakhapatnam,"GVM Corporation, Visakhapatnam - APPCB",25-04-2024 10:00:00,17.72,83.3,NO2,28,90,52
India,Andhra_Pradesh,Visakhapatnam,"GVM Corporation, Visakhapatnam - APPCB",25-04-2024 10:00:00,17.72,83.3,SO2,10,26,13
India,Arunachal_Pradesh,Naharlagun,"Naharlagun, Naharlagun - APSPCB",25-04-2024 10:00:00,27.103358,93.679645,PM10,26,79,45
India,Arunachal_Pradesh,Naharlagun,"Naharlagun, Naharlagun - APSPCB",25-04-2024 10:00:00,27.103358,93.679645,NO2,3,3,3
India,Assam,Byrnihat,"Central Academy for SFS, Byrnihat - PCBA",25-04-2024 10:00:00,26.071318,91.87488,NO2,43,103,66
India,Assam,Guwahati,"IITG, Guwahati - PCBA",25-04-2024 10:00:00,26.2028636,91.70046436,NO2,1,5,2
India,Assam,Guwahati,"LGBI Airport, Guwahati - PCBA",25-04-2024 10:00:00,26.10887,91.589544,PM10,85,500,158
India,Assam,Guwahati,"Railway Colony, Guwahati - PCBA",25-04-2024 10:00:00,26.181742,91.78063,PM2.5,66,363,160
India,Assam,Guwahati,"Railway Colony, Guwahati - PCBA",25-04-2024 10:00:00,26.181742,91.78063,CO,12,33,15
India,Assam,Nagaon,"Christianpatty, Nagaon - PCBA",25-04-2024 10:00:00,26.349082,92.68449,NO2,2,33,10
India,Assam,Nagaon,"Christianpatty, Nagaon - PCBA",25-04-2024 10:00:00,26.349082,92.68449,NH3,3,5,4
India,Assam,Nagaon,"Christianpatty, Nagaon - PCBA",25-04-2024 10:00:00,26.349082,92.68449,SO2,4,71,22
India,Assam,Silchar,"Tarapur, Silchar - PCBA",25-04-2024 10:00:00,24.82827,92.79525,NO2,13,13,13
India,Assam,Silchar,"Tarapur, Silchar - PCBA",25-04-2024 10:00:00,24.82827,92.79525,NH3,1,1,1
India,Assam,Silchar,"Tarapur, Silchar - PCBA",25-04-2024 10:00:00,24.82827,92.79525,CO,22,36,23
India,Assam,Sivasagar,"Girls College, Sivasagar - PCBA",25-04-2024 10:00:00,26.987634,94.636574,NO2,9,17,12
India,Assam,Sivasagar,"Girls College, Sivasagar - PCBA",25-04-2024 10:00:00,26.987634,94.636574,NH3,1,1,1
India,Assam,Sivasagar,"Girls College, Sivasagar - PCBA",25-04-2024 10:00:00,26.987634,94.636574,OZONE,2,27,5
India,Bihar,Araria,"Kharahiya Basti, Araria - BSPCB",25-04-2024 10:00:00,26.146529,87.454184,PM2.5,50,113,75
India,Bihar,Araria,"Kharahiya Basti, Araria - BSPCB",25-04-2024 10:00:00,26.146529,87.454184,PM10,88,199,131
India,Bihar,Araria,"Kharahiya Basti, Araria - BSPCB",25-04-2024 10:00:00,26.146529,87.454184,CO,23,29,25
India,Bihar,Arrah,"New DM Office, Arrah - BSPCB",25-04-2024 10:00:00,25.5626095,84.663264,NH3,2,5,3
India,Bihar,Bettiah,"Kamalnath Nagar, Bettiah - BSPCB",25-04-2024 10:00:00,26.80365,84.51954,OZONE,5,20,8
India,Bihar,Bhagalpur,"Mayaganj, Bhagalpur - BSPCB",25-04-2024 10:00:00,25.265194,87.012947,NH3,7,10,9
India,Bihar,Bihar Sharif,"D M Colony, Bihar Sharif - BSPCB",25-04-2024 10:00:00,25.204762,85.514960,NO2,8,10,9
India,Bihar,Bihar Sharif,"D M Colony, Bihar Sharif - BSPCB",25-04-2024 10:00:00,25.204762,85.514960,NH3,2,2,2
India,Bihar,Chhapra,"Darshan Nagar, Chhapra - BSPCB",25-04-2024 10:00:00,25.7808257,84.7446768,CO,36,68,49
India,Bihar,Gaya,"Collectorate, Gaya - BSPCB",25-04-2024 10:00:00,24.7955,84.9994,NO2,1,3,1
India,Bihar,Gaya,"Kareemganj, Gaya - BSPCB",25-04-2024 10:00:00,24.792403,84.992416,CO,9,22,19
India,Bihar,Gaya,"SFTI Kusdihra, Gaya - BSPCB",25-04-2024 10:00:00,24.762518,84.982348,NO2,15,95,43
India,Bihar,Hajipur,"Industrial Area, Hajipur - BSPCB",25-04-2024 10:00:00,25.697189,85.245900,SO2,6,13,8
India,Bihar,Hajipur,"Industrial Area, Hajipur - BSPCB",25-04-2024 10:00:00,25.697189,85.245900,CO,20,47,43
India,Bihar,Motihari,"Gandak Colony, Motihari - BSPCB",25-04-2024 10:00:00,26.63086,84.90051,PM10,27,115,61
India,Bihar,Motihari,"Gandak Colony, Motihari - BSPCB",25-04-2024 10:00:00,26.63086,84.90051,NO2,31,118,82
India,Bihar,Motihari,"Gandak Colony, Motihari - BSPCB",25-04-2024 10:00:00,26.63086,84.90051,OZONE,35,193,80
India,Bihar,Munger,"Town Hall, Munger - BSPCB",25-04-2024 10:00:00,25.376776,86.471523,OZONE,26,118,28
India,Bihar,Muzaffarpur,"Buddha Colony, Muzaffarpur - BSPCB",25-04-2024 10:00:00,26.11442,85.39813,PM10,146,267,186
India,Bihar,Muzaffarpur,"Buddha Colony, Muzaffarpur - BSPCB",25-04-2024 10:00:00,26.11442,85.39813,SO2,5,12,8
India,Bihar,Muzaffarpur,"MIT-Daudpur Kothi, Muzaffarpur - BSPCB",25-04-2024 10:00:00,26.1403345,85.3650192,OZONE,18,51,34
India,Bihar,Muzaffarpur,"Muzaffarpur Collectorate, Muzaffarpur - BSPCB",25-04-2024 10:00:00,26.1209,85.3647,NO2,6,228,51
India,Bihar,Patna,"DRM Office Danapur, Patna - BSPCB",25-04-2024 10:00:00,25.586562,85.043586,PM2.5,92,193,144
India,Bihar,Patna,"Govt. High School Shikarpur, Patna - BSPCB",25-04-2024 10:00:00,25.592539,85.227158,NO2,15,20,17
India,Bihar,Patna,"Govt. High School Shikarpur, Patna - BSPCB",25-04-2024 10:00:00,25.592539,85.227158,NH3,5,5,5
India,Bihar,Patna,"IGSC Planetarium Complex, Patna - BSPCB",25-04-2024 10:00:00,25.610369,85.132568,SO2,5,5,5
India,Bihar,Patna,"IGSC Planetarium Complex, Patna - BSPCB",25-04-2024 10:00:00,25.610369,85.132568,CO,12,13,12
India,Bihar,Patna,"IGSC Planetarium Complex, Patna - BSPCB",25-04-2024 10:00:00,25.610369,85.132568,OZONE,29,42,36
India,Bihar,Purnia,"Mariam Nagar, Purnia - BSPCB",25-04-2024 10:00:00,25.366336,87.117468,PM2.5,NA,NA,NA
India,Bihar,Purnia,"Mariam Nagar, Purnia - BSPCB",25-04-2024 10:00:00,25.366336,87.117468,PM10,NA,NA,NA
India,Bihar,Purnia,"Mariam Nagar, Purnia - BSPCB",25-04-2024 10:00:00,25.366336,87.117468,SO2,5,12,9
India,Bihar,Saharsa,"Police Line, Saharsa - BSPCB",25-04-2024 10:00:00,25.892357,86.590325,PM10,60,148,112
India,Bihar,Saharsa,"Police Line, Saharsa - BSPCB",25-04-2024 10:00:00,25.892357,86.590325,NH3,9,9,9
India,Bihar,Samastipur,"DM Office_Kasipur, Samastipur - BSPCB",25-04-2024 10:00:00,25.859655,85.77944,PM10,NA,NA,NA
India,Bihar,Samastipur,"DM Office_Kasipur, Samastipur - BSPCB",25-04-2024 10:00:00,25.859655,85.77944,NO2,1,27,10
India,Bihar,Sasaram,"Dada Peer, Sasaram - BSPCB",25-04-2024 10:00:00,24.952822,84.002396,SO2,20,23,22
India,Bihar,Siwan,"Chitragupta Nagar, Siwan - BSPCB",25-04-2024 10:00:00,26.2271665,84.3570427,PM10,78,122,99
India,Bihar,Siwan,"Chitragupta Nagar, Siwan - BSPCB",25-04-2024 10:00:00,26.2271665,84.3570427,NO2,14,41,24
India,Bihar,Siwan,"Chitragupta Nagar, Siwan - BSPCB",25-04-2024 10:00:00,26.2271665,84.3570427,NH3,2,4,3
India,Chandigarh,Chandigarh,"Sector 22, Chandigarh - CPCC",25-04-2024 10:00:00,30.735567,76.775714,PM2.5,32,117,61
India,Chandigarh,Chandigarh,"Sector-25, Chandigarh - CPCC",25-04-2024 10:00:00,30.751462,76.762879,PM2.5,59,167,116
India,Chandigarh,Chandigarh,"Sector-53, Chandigarh - CPCC",25-04-2024 10:00:00,30.719859,76.738637,NH3,3,5,4
India,Chhattisgarh,Bhilai,"32Bungalows, Bhilai - CECB",25-04-2024 10:00:00,21.194815,81.314770,PM10,34,100,68
India,Chhattisgarh,Bhilai,"32Bungalows, Bhilai - CECB",25-04-2024 10:00:00,21.194815,81.314770,SO2,4,8,6
India,Chhattisgarh,Bhilai,"Hathkhoj, Bhilai - CECB",25-04-2024 10:00:00,21.224231,81.408350,PM2.5,21,122,54
India,Chhattisgarh,Bhilai,"Hathkhoj, Bhilai - CECB",25-04-2024 10:00:00,21.224231,81.408350,NO2,14,58,29
India,Chhattisgarh,Bhilai,"Hathkhoj, Bhilai - CECB",25-04-2024 10:00:00,21.224231,81.408350,NH3,7,8,8
India,Chhattisgarh,Bilaspur,"Mangala, Bilaspur - NTPC",25-04-2024 10:00:00,22.08815,82.13737,PM2.5,NA,NA,NA
India,Chhattisgarh,Chhal,"Nawapara SECL Colony, Chhal - CECB",25-04-2024 10:00:00,22.118125,83.140608,OZONE,10,101,37
India,Chhattisgarh,Raipur,"AIIMS, Raipur - CECB",25-04-2024 10:00:00,21.258815,81.578979,CO,NA,NA,NA
India,Chhattisgarh,Raipur,"AIIMS, Raipur - CECB",25-04-2024 10:00:00,21.258815,81.578979,OZONE,NA,NA,NA
India,Chhattisgarh,Raipur,"Bhatagaon New ISBT, Raipur - CECB",25-04-2024 10:00:00,21.219665,81.630094,PM10,24,129,71
India,Chhattisgarh,Raipur,"Krishak Nagar, Raipur - CECB",25-04-2024 10:00:00,21.237755,81.705301,PM10,26,65,49
India,Chhattisgarh,Raipur,"Krishak Nagar, Raipur - CECB",25-04-2024 10:00:00,21.237755,81.705301,CO,28,45,39
India,Chhattisgarh,Tumidih,"OP Jindal Industrial Park, Tumidih - CECB",25-04-2024 10:00:00,22.06631475,83.33820077,PM2.5,40,326,127
India,Chhattisgarh,Tumidih,"OP Jindal Industrial Park, Tumidih - CECB",25-04-2024 10:00:00,22.06631475,83.33820077,CO,14,82,48
India,Delhi,Delhi,"Alipur, Delhi - DPCC",25-04-2024 10:00:00,28.815329,77.153010,PM2.5,21,360,188
India,Delhi,Delhi,"Alipur, Delhi - DPCC",25-04-2024 10:00:00,28.815329,77.153010,PM10,68,402,220
India,Delhi,Delhi,"Alipur, Delhi - DPCC",25-04-2024 10:00:00,28.815329,77.153010,NO2,10,136,67
India,Delhi,Delhi,"Alipur, Delhi - DPCC",25-04-2024 10:00:00,28.815329,77.153010,OZONE,1,176,24
India,Delhi,Delhi,"Anand Vihar, Delhi - DPCC",25-04-2024 10:00:00,28.647622,77.3158090,NO2,74,154,114
India,Delhi,Delhi,"Anand Vihar, Delhi - DPCC",25-04-2024 10:00:00,28.647622,77.3158090,NH3,4,12,7
India,Delhi,Delhi,"Anand Vihar, Delhi - DPCC",25-04-2024 10:00:00,28.647622,77.3158090,SO2,16,57,32
India,Delhi,Delhi,"Anand Vihar, Delhi - DPCC",25-04-2024 10:00:00,28.647622,77.3158090,OZONE,4,112,13
India,Delhi,Delhi,"Ashok Vihar, Delhi - DPCC",25-04-2024 10:00:00,28.695381,77.181665,SO2,23,101,36
India,Delhi,Delhi,"Aya Nagar, Delhi - IMD",25-04-2024 10:00:00,28.4706914,77.1099364,NO2,39,58,46
India,Delhi,Delhi,"Aya Nagar, Delhi - IMD",25-04-2024 10:00:00,28.4706914,77.1099364,CO,51,100,92
India,Delhi,Delhi,"Aya Nagar, Delhi - IMD",25-04-2024 10:00:00,28.4706914,77.1099364,OZONE,1,56,11
India,Delhi,Delhi,"Burari Crossing, Delhi - IMD",25-04-2024 10:00:00,28.7256504,77.2011573,PM10,67,355,189
India,Delhi,Delhi,"Burari Crossing, Delhi - IMD",25-04-2024 10:00:00,28.7256504,77.2011573,NO2,10,17,14
India,Delhi,Delhi,"Chandni Chowk, Delhi - IITM",25-04-2024 10:00:00,28.656756,77.227234,PM10,NA,NA,NA
India,Delhi,Delhi,"Chandni Chowk, Delhi - IITM",25-04-2024 10:00:00,28.656756,77.227234,NO2,NA,NA,NA
India,Delhi,Delhi,"DTU, Delhi - CPCB",25-04-2024 10:00:00,28.7500499,77.1112615,PM2.5,41,402,185
India,Delhi,Delhi,"DTU, Delhi - CPCB",25-04-2024 10:00:00,28.7500499,77.1112615,NO2,6,12,9
India,Delhi,Delhi,"DTU, Delhi - CPCB",25-04-2024 10:00:00,28.7500499,77.1112615,NH3,12,14,13
India,Delhi,Delhi,"Dr. Karni Singh Shooting Range, Delhi - DPCC",25-04-2024 10:00:00,28.498571,77.264840,PM10,73,301,162
India,Delhi,Delhi,"Dr. Karni Singh Shooting Range, Delhi - DPCC",25-04-2024 10:00:00,28.498571,77.264840,SO2,12,66,26
India,Delhi,Delhi,"Dr. Karni Singh Shooting Range, Delhi - DPCC",25-04-2024 10:00:00,28.498571,77.264840,OZONE,1,264,39
India,Delhi,Delhi,"Dwarka-Sector 8, Delhi - DPCC ",25-04-2024 10:00:00,28.5710274,77.0719006,PM10,103,471,270
India,Delhi,Delhi,"IGI Airport (T3), Delhi - IMD",25-04-2024 10:00:00,28.5627763,77.1180053,PM10,70,474,220
India,Delhi,Delhi,"ITO, Delhi - CPCB",25-04-2024 10:00:00,28.628624,77.241060,NH3,1,7,3
India,Delhi,Delhi,"ITO, Delhi - CPCB",25-04-2024 10:00:00,28.628624,77.241060,SO2,8,64,19
India,Delhi,Delhi,"Jawaharlal Nehru Stadium, Delhi - DPCC",25-04-2024 10:00:00,28.580280,77.233829,NO2,30,225,134
India,Delhi,Delhi,"Major Dhyan Chand National Stadium, Delhi - DPCC",25-04-2024 10:00:00,28.611281,77.237738,PM10,68,425,169
India,Delhi,Delhi,"Major Dhyan Chand National Stadium, Delhi - DPCC",25-04-2024 10:00:00,28.611281,77.237738,SO2,3,42,14
India,Delhi,Delhi,"Mandir Marg, Delhi - DPCC",25-04-2024 10:00:00,28.636429,77.201067,NH3,4,7,6
India,Delhi,Delhi,"Mandir Marg, Delhi - DPCC",25-04-2024 10:00:00,28.636429,77.201067,SO2,2,14,7
India,Delhi,Delhi,"Najafgarh, Delhi - DPCC",25-04-2024 10:00:00,28.570173,76.933762,NO2,21,125,66
India,Delhi,Delhi,"Najafgarh, Delhi - DPCC",25-04-2024 10:00:00,28.570173,76.933762,OZONE,15,141,37
India,Delhi,Delhi,"Narela, Delhi - DPCC",25-04-2024 10:00:00,28.822836,77.101981,NH3,4,8,6
India,Delhi,Delhi,"Narela, Delhi - DPCC",25-04-2024 10:00:00,28.822836,77.101981,SO2,7,111,33
India,Delhi,Delhi,"Narela, Delhi - DPCC",25-04-2024 10:00:00,28.822836,77.101981,CO,13,62,47
India,Delhi,Delhi,"New Moti Bagh, Delhi - MHUA",25-04-2024 10:00:00,28.57834,77.18400,NO2,6,37,18
India,Delhi,Delhi,"Okhla Phase-2, Delhi - DPCC",25-04-2024 10:00:00,28.530785,77.271255,CO,46,117,76
India,Delhi,Delhi,"Patparganj, Delhi - DPCC",25-04-2024 10:00:00,28.623763,77.287209,PM2.5,NA,NA,NA
India,Delhi,Delhi,"Punjabi Bagh, Delhi - DPCC",25-04-2024 10:00:00,28.674045,77.131023,PM10,74,464,184
India,Delhi,Delhi,"Punjabi Bagh, Delhi - DPCC",25-04-2024 10:00:00,28.674045,77.131023,CO,19,86,36
India,Delhi,Delhi,"Rohini, Delhi - DPCC",25-04-2024 10:00:00,28.732528,77.119920,OZONE,4,184,24
India,Delhi,Delhi,"Shadipur, Delhi - CPCB",25-04-2024 10:00:00,28.6514781,77.1473105,NO2,38,96,70
India,Delhi,Delhi,"Sonia Vihar, Delhi - DPCC",25-04-2024 10:00:00,28.710508,77.249485,NH3,5,9,6
India,Delhi,Delhi,"Sri Aurobindo Marg, Delhi - DPCC",25-04-2024 10:00:00,28.531346,77.190156,PM10,72,405,135
India,Delhi,Delhi,"Wazirpur, Delhi - DPCC",25-04-2024 10:00:00,28.699793,77.165453,PM2.5,31,371,189
India,Delhi,Delhi,"Wazirpur, Delhi - DPCC",25-04-2024 10:00:00,28.699793,77.165453,NO2,14,71,44
India,Delhi,Delhi,"Wazirpur, Delhi - DPCC",25-04-2024 10:00:00,28.699793,77.165453,SO2,7,74,20
India,Delhi,Delhi,"Wazirpur, Delhi - DPCC",25-04-2024 10:00:00,28.699793,77.165453,OZONE,5,172,26
India,Gujarat,Ahmedabad,"Chandkheda, Ahmedabad - IITM",25-04-2024 10:00:00,23.107969,72.574648,PM10,70,167,105
India,Gujarat,Ahmedabad,"Chandkheda, Ahmedabad - IITM",25-04-2024 10:00:00,23.107969,72.574648,CO,5,72,21
India,Gujarat,Ahmedabad,"Gyaspur, Ahmedabad - IITM",25-04-2024 10:00:00,22.977134,72.553024,PM2.5,61,361,150
India,Gujarat,Ahmedabad,"Gyaspur, Ahmedabad - IITM",25-04-2024 10:00:00,22.977134,72.553024,NO2,35,102,67
India,Gujarat,Ahmedabad,"Gyaspur, Ahmedabad - IITM",25-04-2024 10:00:00,22.977134,72.553024,NH3,1,3,2
India,Gujarat,Ahmedabad,"Gyaspur, Ahmedabad - IITM",25-04-2024 10:00:00,22.977134,72.553024,SO2,7,19,12
India,Gujarat,Ahmedabad,"Maninagar, Ahmedabad - GPCB",25-04-2024 10:00:00,23.002657,72.591912,CO,48,105,64
India,Gujarat,Ahmedabad,"Raikhad, Ahmedabad - IITM",25-04-2024 10:00:00,23.020509,72.579261,NH3,5,6,5
India,Gujarat,Ahmedabad,"Rakhial, Ahmedabad - IITM",25-04-2024 10:00:00,23.016834,72.625775,CO,2,101,56
India,Gujarat,Ahmedabad,"Rakhial, Ahmedabad - IITM",25-04-2024 10:00:00,23.016834,72.625775,OZONE,5,58,6
India,Gujarat,Ahmedabad,"SAC ISRO Satellite, Ahmedabad - IITM",25-04-2024 10:00:00,23.023389,72.515201,PM2.5,115,120,117
India,Gujarat,Ahmedabad,"SAC ISRO Satellite, Ahmedabad - IITM",25-04-2024 10:00:00,23.023389,72.515201,NH3,3,3,3
India,Gujarat,Ahmedabad,"SAC ISRO Satellite, Ahmedabad - IITM",25-04-2024 10:00:00,23.023389,72.515201,CO,26,27,26
India,Gujarat,Ahmedabad,"SVPI Airport Hansol, Ahmedabad - IITM",25-04-2024 10:00:00,23.076793,72.627874,PM10,81,175,118
India,Gujarat,Ahmedabad,"Sardar Vallabhbhai Patel Stadium, Ahmedabad - IITM",25-04-2024 10:00:00,23.043070,72.562968,PM2.5,59,236,118
India,Gujarat,Ahmedabad,"Sardar Vallabhbhai Patel Stadium, Ahmedabad - IITM",25-04-2024 10:00:00,23.043070,72.562968,NH3,8,9,9
India,Gujarat,Ankleshwar,"GIDC, Ankleshwar - GPCB",25-04-2024 10:00:00,21.613267,73.010555,OZONE,24,36,26
India,Gujarat,Gandhinagar,"IIPHG Lekawada, Gandhinagar - IITM",25-04-2024 10:00:00,23.243639,72.68994,PM2.5,NA,NA,NA
India,Gujarat,Gandhinagar,"IIPHG Lekawada, Gandhinagar - IITM",25-04-2024 10:00:00,23.243639,72.68994,PM10,NA,NA,NA
India,Gujarat,Gandhinagar,"IIPHG Lekawada, Gandhinagar - IITM",25-04-2024 10:00:00,23.243639,72.68994,NO2,NA,NA,NA
India,Gujarat,Gandhinagar,"Sector-10, Gandhinagar - GPCB",25-04-2024 10:00:00,23.221714,72.654328,NO2,16,24,21
India,Haryana,Ambala,"Patti Mehar, Ambala - HSPCB",25-04-2024 10:00:00,30.379589,76.778328,PM10,29,84,49
India,Haryana,Ambala,"Patti Mehar, Ambala - HSPCB",25-04-2024 10:00:00,30.379589,76.778328,OZONE,27,41,30
India,Haryana,Bahadurgarh,"Arya Nagar, Bahadurgarh - HSPCB",25-04-2024 10:00:00,28.6701,76.9254,NH3,8,10,9
India,Haryana,Bahadurgarh,"Arya Nagar, Bahadurgarh - HSPCB",25-04-2024 10:00:00,28.6701,76.9254,SO2,14,104,57
India,Haryana,Ballabgarh,"Nathu Colony, Ballabgarh - HSPCB",25-04-2024 10:00:00,28.3419248,77.319699,SO2,1,40,12
India,Haryana,Bhiwani,"H.B. Colony, Bhiwani - HSPCB",25-04-2024 10:00:00,28.806223,76.141105,NH3,3,6,6
India,Haryana,Bhiwani,"H.B. Colony, Bhiwani - HSPCB",25-04-2024 10:00:00,28.806223,76.141105,CO,16,56,25
India,Haryana,Charkhi Dadri,"Mini Secretariat, Charkhi Dadri - HSPCB",25-04-2024 10:00:00,28.593883,76.270653,NH3,6,8,7
India,Haryana,Charkhi Dadri,"Mini Secretariat, Charkhi Dadri - HSPCB",25-04-2024 10:00:00,28.593883,76.270653,SO2,12,38,23
India,Haryana,Dharuhera,"Municipal Corporation Office, Dharuhera -  HSPCB",25-04-2024 10:00:00,28.206800,76.799700,PM2.5,24,311,151
India,Haryana,Dharuhera,"Municipal Corporation Office, Dharuhera -  HSPCB",25-04-2024 10:00:00,28.206800,76.799700,NH3,9,27,19
India,Haryana,Dharuhera,"Municipal Corporation Office, Dharuhera -  HSPCB",25-04-2024 10:00:00,28.206800,76.799700,SO2,6,66,30
India,Haryana,Dharuhera,"Municipal Corporation Office, Dharuhera -  HSPCB",25-04-2024 10:00:00,28.206800,76.799700,CO,8,56,47
India,Haryana,Faridabad,"New Industrial Town, Faridabad - HSPCB",25-04-2024 10:00:00,28.39072,77.30059,PM2.5,114,435,244
India,Haryana,Faridabad,"Sector 30, Faridabad - HSPCB",25-04-2024 10:00:00,28.4417,77.3217,NO2,1,32,27
India,Haryana,Faridabad,"Sector 30, Faridabad - HSPCB",25-04-2024 10:00:00,28.4417,77.3217,SO2,3,13,6
India,Haryana,Faridabad,"Sector- 16A, Faridabad - HSPCB",25-04-2024 10:00:00,28.4088421,77.3099081,NO2,7,38,22
India,Haryana,Fatehabad,"Huda Sector, Fatehabad - HSPCB",25-04-2024 10:00:00,29.503664,75.467934,NO2,29,32,30
India,Haryana,Fatehabad,"Huda Sector, Fatehabad - HSPCB",25-04-2024 10:00:00,29.503664,75.467934,CO,5,10,6
India,Haryana,Fatehabad,"Huda Sector, Fatehabad - HSPCB",25-04-2024 10:00:00,29.503664,75.467934,OZONE,35,71,63
India,Haryana,Gurugram,"Teri Gram, Gurugram - HSPCB",25-04-2024 10:00:00,28.4275,77.1465,PM10,144,464,218
India,Haryana,Gurugram,"Teri Gram, Gurugram - HSPCB",25-04-2024 10:00:00,28.4275,77.1465,NH3,37,54,44
India,Haryana,Gurugram,"Teri Gram, Gurugram - HSPCB",25-04-2024 10:00:00,28.4275,77.1465,CO,8,47,41
India,Haryana,Hisar,"Urban Estate-II, Hisar - HSPCB",25-04-2024 10:00:00,29.140560,75.744941,NH3,9,12,10
India,Haryana,Hisar,"Urban Estate-II, Hisar - HSPCB",25-04-2024 10:00:00,29.140560,75.744941,SO2,7,101,61
India,Haryana,Hisar,"Urban Estate-II, Hisar - HSPCB",25-04-2024 10:00:00,29.140560,75.744941,CO,25,45,32
India,Haryana,Hisar,"Urban Estate-II, Hisar - HSPCB",25-04-2024 10:00:00,29.140560,75.744941,OZONE,35,181,64
India,Haryana,Jind,"Police Lines, Jind - HSPCB",25-04-2024 10:00:00,29.307814,76.337619,SO2,6,49,21
India,Haryana,Kaithal,"Rishi Nagar, Kaithal - HSPCB",25-04-2024 10:00:00,29.8006,76.4155,PM2.5,39,113,68
India,Haryana,Kaithal,"Rishi Nagar, Kaithal - HSPCB",25-04-2024 10:00:00,29.8006,76.4155,SO2,21,97,68
India,Haryana,Kaithal,"Rishi Nagar, Kaithal - HSPCB",25-04-2024 10:00:00,29.8006,76.4155,OZONE,9,21,13
India,Haryana,Karnal,"Sector-12, Karnal - HSPCB",25-04-2024 10:00:00,29.695300,77.002700,PM2.5,70,139,97
India,Haryana,Mandikhera,"General Hospital, Mandikhera - HSPCB",25-04-2024 10:00:00,27.9002,76.9938,PM10,41,288,84
India,Haryana,Mandikhera,"General Hospital, Mandikhera - HSPCB",25-04-2024 10:00:00,27.9002,76.9938,NO2,19,24,21
India,Haryana,Manesar,"Sector-2 IMT, Manesar - HSPCB",25-04-2024 10:00:00,28.360699,76.936090,NH3,1,3,2
India,Haryana,Narnaul,"Shastri Nagar, Narnaul - HSPCB",25-04-2024 10:00:00,28.060249,76.113115,NO2,16,82,49
India,Haryana,Palwal,"Shyam Nagar, Palwal - HSPCB",25-04-2024 10:00:00,28.1485564,77.3320667,NH3,8,9,9
India,Haryana,Panchkula,"Sector-6, Panchkula - HSPCB ",25-04-2024 10:00:00,30.7057778,76.8531805555555,PM2.5,40,185,97
India,Haryana,Panipat,"Sector-18, Panipat - HSPCB",25-04-2024 10:00:00,29.497973,76.993331,PM2.5,NA,NA,NA
India,Haryana,Panipat,"Sector-18, Panipat - HSPCB",25-04-2024 10:00:00,29.497973,76.993331,NO2,NA,NA,NA
India,Haryana,Panipat,"Sector-18, Panipat - HSPCB",25-04-2024 10:00:00,29.497973,76.993331,NH3,NA,NA,NA
India,Haryana,Panipat,"Sector-18, Panipat - HSPCB",25-04-2024 10:00:00,29.497973,76.993331,OZONE,30,30,30
India,Haryana,Sirsa,"F-Block, Sirsa - HSPCB",25-04-2024 10:00:00,29.536400,75.015800,PM2.5,2,122,70
India,Haryana,Sonipat,"Murthal, Sonipat - HSPCB",25-04-2024 10:00:00,29.027200,77.062100,NO2,37,44,40
India,Haryana,Yamuna Nagar,"Gobind Pura, Yamuna Nagar - HSPCB",25-04-2024 10:00:00,30.1480566,77.2893471,NO2,11,28,19
India,Haryana,Yamuna Nagar,"Gobind Pura, Yamuna Nagar - HSPCB",25-04-2024 10:00:00,30.1480566,77.2893471,OZONE,17,35,22
India,Himachal Pradesh,Baddi,"HIMUDA Complex Phase-1, Baddi - HPPCB",25-04-2024 10:00:00,30.943887,76.801991,PM2.5,5,170,37
India,Himachal Pradesh,Baddi,"HIMUDA Complex Phase-1, Baddi - HPPCB",25-04-2024 10:00:00,30.943887,76.801991,PM10,21,216,92
India,Himachal Pradesh,Baddi,"HIMUDA Complex Phase-1, Baddi - HPPCB",25-04-2024 10:00:00,30.943887,76.801991,SO2,11,57,20
India,Himachal Pradesh,Baddi,"HIMUDA Complex Phase-1, Baddi - HPPCB",25-04-2024 10:00:00,30.943887,76.801991,CO,6,37,11
India,Himachal Pradesh,Baddi,"HIMUDA Complex Phase-1, Baddi - HPPCB",25-04-2024 10:00:00,30.943887,76.801991,OZONE,59,202,155
India,Jharkhand,Dhanbad,"Kalakusuma, Dhanbad - DMC",25-04-2024 10:00:00,23.811548,86.481238,OZONE,29,29,29
India,Jharkhand,Dhanbad,"Sardar Patel Nagar, Dhanbad - JSPCB",25-04-2024 10:00:00,23.80569,86.44268,PM2.5,1,273,71
India,Jharkhand,Dhanbad,"Sardar Patel Nagar, Dhanbad - JSPCB",25-04-2024 10:00:00,23.80569,86.44268,SO2,NA,NA,NA
India,Jharkhand,Dhanbad,"Sardar Patel Nagar, Dhanbad - JSPCB",25-04-2024 10:00:00,23.80569,86.44268,OZONE,14,46,21
India,Karnataka,Bagalkot,"Vidayagiri, Bagalkot - KSPCB",25-04-2024 10:00:00,16.172806,75.659694,PM10,46,50,50
India,Karnataka,Belgaum,"Ramteerth Nagar, Belgaum - KSPCB",25-04-2024 10:00:00,15.888653,74.541751,OZONE,19,20,20
India,Karnataka,Bengaluru,"Bapuji Nagar, Bengaluru - KSPCB",25-04-2024 10:00:00,12.951913,77.539784,CO,14,62,30
India,Karnataka,Bengaluru,"Hombegowda Nagar, Bengaluru - KSPCB",25-04-2024 10:00:00,12.938539,77.590100,PM10,66,104,80
India,Karnataka,Bengaluru,"Hombegowda Nagar, Bengaluru - KSPCB",25-04-2024 10:00:00,12.938539,77.590100,NO2,11,26,18
India,Karnataka,Bengaluru,"Hombegowda Nagar, Bengaluru - KSPCB",25-04-2024 10:00:00,12.938539,77.590100,SO2,4,7,5
India,Karnataka,Bengaluru,"Jayanagar 5th Block, Bengaluru - KSPCB",25-04-2024 10:00:00,12.920984,77.584908,NH3,3,4,3
India,Karnataka,Bengaluru,"Peenya, Bengaluru - CPCB",25-04-2024 10:00:00,13.0270199,77.494094,NO2,16,39,23
India,Karnataka,Bengaluru,"Peenya, Bengaluru - CPCB",25-04-2024 10:00:00,13.0270199,77.494094,SO2,9,14,11
India,Karnataka,Bengaluru,"Peenya, Bengaluru - CPCB",25-04-2024 10:00:00,13.0270199,77.494094,OZONE,7,21,13
India,Karnataka,Bengaluru,"RVCE-Mailasandra, Bengaluru - KSPCB",25-04-2024 10:00:00,12.921418,77.502466,NO2,17,17,17
India,Karnataka,Bengaluru,"Sanegurava Halli, Bengaluru - KSPCB",25-04-2024 10:00:00,12.990328,77.5431385,SO2,2,3,3
India,Karnataka,Bengaluru,"Shivapura_Peenya, Bengaluru - KSPCB",25-04-2024 10:00:00,13.0246342,77.5080115,NH3,4,4,4
India,Karnataka,Bidar,"Naubad, Bidar - KSPCB",25-04-2024 10:00:00,17.930306,77.482194,OZONE,13,49,25
India,Karnataka,Chamarajanagar,"Urban, Chamarajanagar - KSPCB",25-04-2024 10:00:00,11.55358,76.55521,PM2.5,29,44,37
India,Karnataka,Chikkaballapur,"Chikkaballapur Rural, Chikkaballapur - KSPCB",25-04-2024 10:00:00,13.428828,77.731418,CO,14,46,37
India,Karnataka,Chikkamagaluru,"Kalyana Nagara, Chikkamagaluru - KSPCB",25-04-2024 10:00:00,13.328028,75.797056,CO,11,124,14
India,Karnataka,Davanagere,"Devaraj Urs Badavane, Davanagere - KSPCB",25-04-2024 10:00:00,14.475800,75.905200,NO2,NA,NA,NA
India,Karnataka,Davanagere,"Devaraj Urs Badavane, Davanagere - KSPCB",25-04-2024 10:00:00,14.475800,75.905200,OZONE,NA,NA,NA
India,Karnataka,Dharwad,"Kalabhavan, Dharwad - KSPCB",25-04-2024 10:00:00,15.459706,75.008381,NO2,NA,NA,NA
India,Karnataka,Dharwad,"Kalabhavan, Dharwad - KSPCB",25-04-2024 10:00:00,15.459706,75.008381,NH3,3,3,3
India,Karnataka,Gadag,"Panchal Nagar, Gadag - KSPCB",25-04-2024 10:00:00,15.411456,75.638133,PM2.5,9,398,40
India,Karnataka,Gadag,"Panchal Nagar, Gadag - KSPCB",25-04-2024 10:00:00,15.411456,75.638133,NO2,4,28,14
India,Karnataka,Hassan,"B.Katihalli, Hassan - KSPCB",25-04-2024 10:00:00,13.008556,76.125258,CO,12,20,18
India,Karnataka,Haveri,"Ashwini Nagar, Haveri - KSPCB",25-04-2024 10:00:00,14.791800,75.389600,NO2,17,40,26
India,Karnataka,Hubballi,"Lingaraj Nagar, Hubballi - KSPCB",25-04-2024 10:00:00,15.3714823,75.1160168,PM2.5,36,58,48
India,Karnataka,Hubballi,"Lingaraj Nagar, Hubballi - KSPCB",25-04-2024 10:00:00,15.3714823,75.1160168,CO,4,34,26
India,Karnataka,Kalaburagi,"Lal Bahadur Shastri Nagar, Kalaburagi - KSPCB",25-04-2024 10:00:00,17.321993,76.822628,PM10,18,128,51
India,Karnataka,Kalaburagi,"Lal Bahadur Shastri Nagar, Kalaburagi - KSPCB",25-04-2024 10:00:00,17.321993,76.822628,NO2,11,12,12
India,Karnataka,Kalaburagi,"Lal Bahadur Shastri Nagar, Kalaburagi - KSPCB",25-04-2024 10:00:00,17.321993,76.822628,NH3,2,2,2
India,Karnataka,Kalaburagi,"Lal Bahadur Shastri Nagar, Kalaburagi - KSPCB",25-04-2024 10:00:00,17.321993,76.822628,CO,42,57,45
India,Karnataka,Kalaburagi,"Mahatma Basaveswar Colony, Kalaburgi - KSPCB",25-04-2024 10:00:00,17.336318,76.847397,NO2,8,17,12
India,Karnataka,Kalaburagi,"Mahatma Basaveswar Colony, Kalaburgi - KSPCB",25-04-2024 10:00:00,17.336318,76.847397,NH3,2,4,3
India,Karnataka,Karwar,"KHB Colony, Karwar - KSPCB",25-04-2024 10:00:00,14.816666,74.141003,PM2.5,27,55,39
India,Karnataka,Karwar,"KHB Colony, Karwar - KSPCB",25-04-2024 10:00:00,14.816666,74.141003,PM10,33,64,47
India,Karnataka,Karwar,"KHB Colony, Karwar - KSPCB",25-04-2024 10:00:00,14.816666,74.141003,NO2,NA,NA,NA
India,Karnataka,Kolar,"Tamaka Ind. Area, Kolar - KSPCB",25-04-2024 10:00:00,13.1276288,78.1570122,NH3,NA,NA,NA
India,Karnataka,Kolar,"Tamaka Ind. Area, Kolar - KSPCB",25-04-2024 10:00:00,13.1276288,78.1570122,OZONE,13,15,14
India,Karnataka,Koppal,"Diwator Nagar, Koppal - KSPCB",25-04-2024 10:00:00,15.347630,76.181767,NO2,27,80,47
India,Karnataka,Koppal,"Diwator Nagar, Koppal - KSPCB",25-04-2024 10:00:00,15.347630,76.181767,OZONE,85,143,96
India,Karnataka,Madikeri,"Stuart Hill, Madikeri - KSPCB",25-04-2024 10:00:00,12.415911,75.735050,PM2.5,22,52,32
India,Karnataka,Mangalore,"Kadri, Mangalore - KSPCB",25-04-2024 10:00:00,12.889250,74.853000,NH3,1,2,2
India,Karnataka,Mangalore,"Kadri, Mangalore - KSPCB",25-04-2024 10:00:00,12.889250,74.853000,CO,34,38,34
India,Karnataka,Mysuru,"Hebbal 1st Stage, Mysuru - KSPCB",25-04-2024 10:00:00,12.21041,76.37376,PM2.5,18,48,29
India,Karnataka,Mysuru,"Hebbal 1st Stage, Mysuru - KSPCB",25-04-2024 10:00:00,12.21041,76.37376,NH3,1,2,2
India,Karnataka,Raichur,"Haji Colony, Raichur - KSPCB",25-04-2024 10:00:00,16.208139,77.348417,NO2,NA,NA,NA
India,Karnataka,Ramanagara,"Vijay Nagar, Ramanagara - KSPCB",25-04-2024 10:00:00,12.733409,77.298051,SO2,16,35,25
India,Karnataka,Shivamogga,"Vinoba Nagara, Shivamogga - KSPCB",25-04-2024 10:00:00,13.940000,75.555917,NH3,2,5,3
India,Karnataka,Shivamogga,"Vinoba Nagara, Shivamogga - KSPCB",25-04-2024 10:00:00,13.940000,75.555917,OZONE,18,100,31
India,Karnataka,Tumakuru,"Thimmalapura, Tumakuru - KSPCB",25-04-2024 10:00:00,13.377516,77.099072,NO2,NA,NA,NA
India,Karnataka,Tumakuru,"Thimmalapura, Tumakuru - KSPCB",25-04-2024 10:00:00,13.377516,77.099072,CO,28,34,31
India,Karnataka,Vijayapura,"Ibrahimpur, Vijayapura - KSPCB",25-04-2024 10:00:00,16.802639,75.722694,PM10,41,43,42
India,Karnataka,Vijayapura,"Ibrahimpur, Vijayapura - KSPCB",25-04-2024 10:00:00,16.802639,75.722694,SO2,3,43,12
India,Karnataka,Yadgir,"Collector Office, Yadgir - KSPCB",25-04-2024 10:00:00,16.7602,77.1428,PM2.5,46,72,59
India,Karnataka,Yadgir,"Collector Office, Yadgir - KSPCB",25-04-2024 10:00:00,16.7602,77.1428,PM10,56,87,71
India,Kerala,Eloor,"Udyogamandal, Eloor - Kerala PCB",25-04-2024 10:00:00,10.073232,76.302765,SO2,1,4,2
India,Kerala,Kannur,"Thavakkara, Kannur - Kerala PCB",25-04-2024 10:00:00,11.875000,75.373200,PM2.5,66,80,73
India,Kerala,Kannur,"Thavakkara, Kannur - Kerala PCB",25-04-2024 10:00:00,11.875000,75.373200,PM10,61,91,69
India,Kerala,Kannur,"Thavakkara, Kannur - Kerala PCB",25-04-2024 10:00:00,11.875000,75.373200,NO2,6,7,6
India,Kerala,Kannur,"Thavakkara, Kannur - Kerala PCB",25-04-2024 10:00:00,11.875000,75.373200,OZONE,31,37,32
India,Kerala,Kollam,"Polayathode, Kollam - Kerala PCB",25-04-2024 10:00:00,8.8787,76.6073,PM10,64,112,84
India,Kerala,Kollam,"Polayathode, Kollam - Kerala PCB",25-04-2024 10:00:00,8.8787,76.6073,SO2,1,23,3
India,Kerala,Thrissur,"Corporation Ground, Thrissur - Kerala PCB",25-04-2024 10:00:00,10.532400,76.215900,PM2.5,43,52,48
India,Kerala,Thrissur,"Corporation Ground, Thrissur - Kerala PCB",25-04-2024 10:00:00,10.532400,76.215900,NO2,7,8,7
India,Kerala,Thrissur,"Corporation Ground, Thrissur - Kerala PCB",25-04-2024 10:00:00,10.532400,76.215900,CO,14,49,22
India,Kerala,Thrissur,"Corporation Ground, Thrissur - Kerala PCB",25-04-2024 10:00:00,10.532400,76.215900,OZONE,27,32,30
India,Madhya Pradesh,Bhopal,"Idgah Hills, Bhopal - MPPCB",25-04-2024 10:00:00,23.264759,77.381568,PM2.5,17,53,35
India,Madhya Pradesh,Bhopal,"T T Nagar, Bhopal - MPPCB",25-04-2024 10:00:00,23.233584,77.400574,NH3,4,6,5
India,Madhya Pradesh,Dewas,"Bhopal Chauraha, Dewas - MPPCB",25-04-2024 10:00:00,22.9682591,76.064118,NH3,3,3,3
India,Madhya Pradesh,Dewas,"Bhopal Chauraha, Dewas - MPPCB",25-04-2024 10:00:00,22.9682591,76.064118,SO2,14,69,34
India,Madhya Pradesh,Dewas,"Bhopal Chauraha, Dewas - MPPCB",25-04-2024 10:00:00,22.9682591,76.064118,CO,12,48,32
India,Madhya Pradesh,Dewas,"Bhopal Chauraha, Dewas - MPPCB",25-04-2024 10:00:00,22.9682591,76.064118,OZONE,8,43,19
India,Madhya Pradesh,Gwalior,"Deen Dayal Nagar, Gwalior - MPPCB",25-04-2024 10:00:00,26.259242,78.216432,NO2,15,100,57
India,Madhya Pradesh,Gwalior,"Maharaj Bada, Gwalior - MPPCB",25-04-2024 10:00:00,26.200388,78.147714,PM2.5,8,92,52
India,Madhya Pradesh,Gwalior,"Maharaj Bada, Gwalior - MPPCB",25-04-2024 10:00:00,26.200388,78.147714,PM10,31,242,124
India,Madhya Pradesh,Gwalior,"Maharaj Bada, Gwalior - MPPCB",25-04-2024 10:00:00,26.200388,78.147714,OZONE,3,183,183
India,Madhya Pradesh,Gwalior,"Phool Bagh, Gwalior - Mondelez Ind. Food",25-04-2024 10:00:00,26.210536,78.171,PM2.5,26,80,46
India,Madhya Pradesh,Gwalior,"Phool Bagh, Gwalior - Mondelez Ind. Food",25-04-2024 10:00:00,26.210536,78.171,CO,48,105,77
India,Madhya Pradesh,Indore,"Chhoti Gwaltoli, Indore - MPPCB",25-04-2024 10:00:00,22.4310,75.5213,NH3,3,4,4
India,Madhya Pradesh,Indore,"Maguda Nagar, Indore - IMC",25-04-2024 10:00:00,22.7524,75.8872,CO,24,38,34
India,Madhya Pradesh,Indore,"Regional Park, Indore - IMC",25-04-2024 10:00:00,22.6780,75.8559,PM2.5,28,134,62
India,Madhya Pradesh,Indore,"Regional Park, Indore - IMC",25-04-2024 10:00:00,22.6780,75.8559,NH3,1,4,2
India,Madhya Pradesh,Indore,"Regional Park, Indore - IMC",25-04-2024 10:00:00,22.6780,75.8559,SO2,47,51,50
India,Madhya Pradesh,Indore,"Residency Area, Indore - IMC",25-04-2024 10:00:00,22.7084,75.8815,PM2.5,24,86,53
India,Madhya Pradesh,Indore,"Residency Area, Indore - IMC",25-04-2024 10:00:00,22.7084,75.8815,OZONE,9,20,10
India,Madhya Pradesh,Jabalpur,"Gupteshwar, Jabalpur - JMC",25-04-2024 10:00:00,23.142888,79.916147,PM2.5,22,67,46
India,Madhya Pradesh,Jabalpur,"Gupteshwar, Jabalpur - JMC",25-04-2024 10:00:00,23.142888,79.916147,NO2,13,54,26
India,Madhya Pradesh,Jabalpur,"Gupteshwar, Jabalpur - JMC",25-04-2024 10:00:00,23.142888,79.916147,SO2,7,12,9
India,Madhya Pradesh,Jabalpur,"Marhatal, Jabalpur - MPPCB",25-04-2024 10:00:00,23.168606,79.932247,NH3,3,5,4
India,Madhya Pradesh,Jabalpur,"Suhagi, Jabalpur - JMC",25-04-2024 10:00:00,23.218135,79.957770,PM2.5,27,87,55
India,Madhya Pradesh,Katni,"Gole Bazar, Katni - MPPCB",25-04-2024 10:00:00,23.50016,80.23284,NO2,33,107,68
India,Madhya Pradesh,Maihar,"Sahilara, Maihar - KJS Cements",25-04-2024 10:00:00,24.2613009,80.7231783,NO2,20,23,22
India,Madhya Pradesh,Mandideep,"Sector-D Industrial Area, Mandideep - MPPCB",25-04-2024 10:00:00,23.108440,77.511428,PM10,53,166,86
India,Madhya Pradesh,Mandideep,"Sector-D Industrial Area, Mandideep - MPPCB",25-04-2024 10:00:00,23.108440,77.511428,CO,11,60,40
India,Madhya Pradesh,Pithampur,"Sector-2 Industrial Area, Pithampur - MPPCB",25-04-2024 10:00:00,22.624758,75.675238,SO2,10,13,11
India,Madhya Pradesh,Ratlam,"Shasthri Nagar, Ratlam - IPCA Lab",25-04-2024 10:00:00,23.331731,75.045981,PM2.5,6,204,47
India,Madhya Pradesh,Ratlam,"Shasthri Nagar, Ratlam - IPCA Lab",25-04-2024 10:00:00,23.331731,75.045981,SO2,37,46,39
India,Madhya Pradesh,Sagar,"Civil Lines, Sagar - MPPCB",25-04-2024 10:00:00,23.838586,78.759431,PM2.5,17,73,49
India,Madhya Pradesh,Sagar,"Deen Dayal Nagar, Sagar - MPPCB",25-04-2024 10:00:00,23.8640158,78.80289321,CO,15,106,46
India,Madhya Pradesh,Singrauli,"Suryakiran Bhawan NCL, Singrauli - MPPCB",25-04-2024 10:00:00,24.108970,82.645580,NO2,8,100,44
India,Madhya Pradesh,Singrauli,"Suryakiran Bhawan NCL, Singrauli - MPPCB",25-04-2024 10:00:00,24.108970,82.645580,NH3,3,4,4
India,Maharashtra,Ahmednagar,"Tarakpur, Ahmednagar - MPCB",25-04-2024 10:00:00,19.10122,74.73339,OZONE,NA,NA,NA
India,Maharashtra,Amravati,"Shivneri Colony, Amravati - MPCB",25-04-2024 10:00:00,20.9402359,77.7895248,PM2.5,35,62,46
India,Maharashtra,Amravati,"Shri Shivaji Science College, Amaravati - MPCB",25-04-2024 10:00:00,20.939198,77.765701,NO2,5,36,17
India,Maharashtra,Amravati,"Shri Shivaji Science College, Amaravati - MPCB",25-04-2024 10:00:00,20.939198,77.765701,NH3,1,2,2
India,Maharashtra,Aurangabad,"More Chowk Waluj, Aurangabad - MPCB",25-04-2024 10:00:00,19.8389439,75.244448,NH3,9,10,9
India,Maharashtra,Aurangabad,"Rachnakar Colony, Aurangabad - MPCB",25-04-2024 10:00:00,19.863756,75.321188,NO2,11,60,35
India,Maharashtra,Aurangabad,"Rachnakar Colony, Aurangabad - MPCB",25-04-2024 10:00:00,19.863756,75.321188,OZONE,29,112,39
India,Maharashtra,Badlapur,"Katrap, Badlapur - MPCB",25-04-2024 10:00:00,19.16485,73.23409,PM2.5,59,106,79
India,Maharashtra,Badlapur,"Katrap, Badlapur - MPCB",25-04-2024 10:00:00,19.16485,73.23409,NO2,13,49,26
India,Maharashtra,Belapur,"CBD Belapur, Belapur - MPCB",25-04-2024 10:00:00,19.0243902,73.0406721,PM2.5,75,156,100
India,Maharashtra,Belapur,"CBD Belapur, Belapur - MPCB",25-04-2024 10:00:00,19.0243902,73.0406721,NO2,24,91,55
India,Maharashtra,Bhiwandi,"Gokul Nagar, Bhiwandi - MPCB",25-04-2024 10:00:00,19.309073,73.057223,PM10,86,110,98
India,Maharashtra,Bhiwandi,"Gokul Nagar, Bhiwandi - MPCB",25-04-2024 10:00:00,19.309073,73.057223,SO2,19,24,21
India,Maharashtra,Bhiwandi,"Gokul Nagar, Bhiwandi - MPCB",25-04-2024 10:00:00,19.309073,73.057223,CO,16,67,34
India,Maharashtra,Boisar,"Khaira, Boisar - MPCB",25-04-2024 10:00:00,19.786089,72.757971,NH3,6,12,8
India,Maharashtra,Boisar,"Khaira, Boisar - MPCB",25-04-2024 10:00:00,19.786089,72.757971,CO,2,48,27
India,Maharashtra,Chandrapur,"Chauhan Colony, Chandrapur - MPCB",25-04-2024 10:00:00,19.962900,79.298714,NO2,15,51,28
India,Maharashtra,Dhule,"Deopur, Dhule - MPCB",25-04-2024 10:00:00,20.918946,74.776388,PM2.5,65,168,97
India,Maharashtra,Jalgaon,"Prabhat Colony, Jalgaon - MPCB",25-04-2024 10:00:00,21.001264,75.565602,OZONE,11,118,26
India,Maharashtra,Jalna,"Old MIDC, Jalna - MPCB",25-04-2024 10:00:00,19.854616,75.905894,CO,24,29,24
India,Maharashtra,Kalyan,"Khadakpada, Kalyan - MPCB",25-04-2024 10:00:00,19.25292,73.142019,PM2.5,29,63,43
India,Maharashtra,Kolhapur,"Shivaji University, Kolhapur - MPCB",25-04-2024 10:00:00,16.6870449,74.2505872,PM10,104,141,117
India,Maharashtra,Kolhapur,"Shivaji University, Kolhapur - MPCB",25-04-2024 10:00:00,16.6870449,74.2505872,NO2,NA,NA,NA
India,Maharashtra,Kolhapur,"Shivaji University, Kolhapur - MPCB",25-04-2024 10:00:00,16.6870449,74.2505872,SO2,1,8,2
India,Maharashtra,Kolhapur,"Sinchan Bhavan, Kolhapur - MPCB",25-04-2024 10:00:00,16.7143745,74.2426398,PM2.5,17,73,46
India,Maharashtra,Mahad,"Kamble Tarf Birwadi, Mahad - MPCB",25-04-2024 10:00:00,18.1023399,73.4783687,NO2,18,88,33
India,Maharashtra,Mahad,"Kamble Tarf Birwadi, Mahad - MPCB",25-04-2024 10:00:00,18.1023399,73.4783687,NH3,8,8,8
India,Maharashtra,Malegaon,"Mahesh Nagar, Malegaon - MPCB",25-04-2024 10:00:00,20.555712,74.529236,NH3,2,15,4
India,Maharashtra,Mumbai,"Bandra Kurla Complex, Mumbai - MPCB",25-04-2024 10:00:00,19.065931,72.862131,PM2.5,11,55,46
India,Maharashtra,Mumbai,"Bandra Kurla Complex, Mumbai - MPCB",25-04-2024 10:00:00,19.065931,72.862131,PM10,33,111,91
India,Maharashtra,Mumbai,"Bandra Kurla Complex, Mumbai - MPCB",25-04-2024 10:00:00,19.065931,72.862131,NO2,2,13,6
India,Maharashtra,Mumbai,"Bandra Kurla Complex, Mumbai - MPCB",25-04-2024 10:00:00,19.065931,72.862131,OZONE,11,68,22
India,Maharashtra,Mumbai,"Borivali East, Mumbai - IITM",25-04-2024 10:00:00,19.23241,72.86895,NO2,47,84,66
India,Maharashtra,Mumbai,"Borivali East, Mumbai - IITM",25-04-2024 10:00:00,19.23241,72.86895,OZONE,36,99,47
India,Maharashtra,Mumbai,"Borivali East, Mumbai - MPCB",25-04-2024 10:00:00,19.2243333,72.8658113,PM10,38,93,68
India,Maharashtra,Mumbai,"Byculla, Mumbai - BMC",25-04-2024 10:00:00,18.9767,72.8380,PM2.5,22,36,29
India,Maharashtra,Mumbai,"Byculla, Mumbai - BMC",25-04-2024 10:00:00,18.9767,72.8380,OZONE,23,60,39
India,Maharashtra,Mumbai,"Chakala-Andheri East, Mumbai - IITM",25-04-2024 10:00:00,19.11074,72.86084,SO2,14,49,28
India,Maharashtra,Mumbai,"Chakala-Andheri East, Mumbai - IITM",25-04-2024 10:00:00,19.11074,72.86084,CO,1,50,45
India,Maharashtra,Mumbai,"Chembur, Mumbai - MPCB",25-04-2024 10:00:00,19.0364585,72.8954371,CO,19,38,24
India,Maharashtra,Mumbai,"Chembur, Mumbai - MPCB",25-04-2024 10:00:00,19.0364585,72.8954371,OZONE,7,129,16
India,Maharashtra,Mumbai,"Chhatrapati Shivaji Intl. Airport (T2), Mumbai - MPCB",25-04-2024 10:00:00,19.10078,72.87462,SO2,17,22,20
India,Maharashtra,Mumbai,"Chhatrapati Shivaji Intl. Airport (T2), Mumbai - MPCB",25-04-2024 10:00:00,19.10078,72.87462,CO,32,58,41
India,Maharashtra,Mumbai,"Deonar, Mumbai - IITM",25-04-2024 10:00:00,19.04946,72.9230,PM2.5,NA,NA,NA
India,Maharashtra,Mumbai,"Ghatkopar, Mumbai - BMC",25-04-2024 10:00:00,19.083694,72.920967,SO2,1,1,1
India,Maharashtra,Mumbai,"Ghatkopar, Mumbai - BMC",25-04-2024 10:00:00,19.083694,72.920967,OZONE,1,41,9
India,Maharashtra,Mumbai,"Kandivali East, Mumbai - MPCB",25-04-2024 10:00:00,19.205800,72.868200,PM10,55,430,106
India,Maharashtra,Mumbai,"Kandivali West, Mumbai - BMC",25-04-2024 10:00:00,19.215859,72.831718,NO2,4,24,12
India,Maharashtra,Mumbai,"Kandivali West, Mumbai - BMC",25-04-2024 10:00:00,19.215859,72.831718,CO,7,17,10
India,Maharashtra,Mumbai,"Kandivali West, Mumbai - BMC",25-04-2024 10:00:00,19.215859,72.831718,OZONE,12,55,25
India,Maharashtra,Mumbai,"Kherwadi_Bandra East, Mumbai - MPCB",25-04-2024 10:00:00,19.0632143,72.8456324,PM2.5,NA,NA,NA
India,Maharashtra,Mumbai,"Kherwadi_Bandra East, Mumbai - MPCB",25-04-2024 10:00:00,19.0632143,72.8456324,SO2,NA,NA,NA
India,Maharashtra,Mumbai,"Kherwadi_Bandra East, Mumbai - MPCB",25-04-2024 10:00:00,19.0632143,72.8456324,CO,NA,NA,NA
India,Maharashtra,Mumbai,"Khindipada-Bhandup West, Mumbai - IITM",25-04-2024 10:00:00,19.1653323,72.922099,NO2,8,11,10
India,Maharashtra,Mumbai,"Kurla, Mumbai - MPCB",25-04-2024 10:00:00,19.0863,72.8888,PM2.5,21,87,48
India,Maharashtra,Mumbai,"Mazgaon, Mumbai - IITM",25-04-2024 10:00:00,18.96702,72.84214,CO,10,94,23
India,Maharashtra,Mumbai,"Mazgaon, Mumbai - IITM",25-04-2024 10:00:00,18.96702,72.84214,OZONE,25,58,38
India,Maharashtra,Mumbai,"Mindspace-Malad West, Mumbai - MPCB",25-04-2024 10:00:00,19.1878657,72.8304069,PM2.5,57,81,69
India,Maharashtra,Mumbai,"Mindspace-Malad West, Mumbai - MPCB",25-04-2024 10:00:00,19.1878657,72.8304069,OZONE,16,83,19
India,Maharashtra,Mumbai,"Mulund West, Mumbai - MPCB",25-04-2024 10:00:00,19.1750,72.9419,NH3,10,11,10
India,Maharashtra,Mumbai,"Navy Nagar-Colaba, Mumbai - IITM",25-04-2024 10:00:00,18.897756,72.813320,SO2,5,10,7
India,Maharashtra,Mumbai,"Navy Nagar-Colaba, Mumbai - IITM",25-04-2024 10:00:00,18.897756,72.813320,CO,10,32,27
India,Maharashtra,Mumbai,"Powai, Mumbai - MPCB",25-04-2024 10:00:00,19.137500,72.915056,PM10,77,125,98
India,Maharashtra,Mumbai,"Powai, Mumbai - MPCB",25-04-2024 10:00:00,19.137500,72.915056,CO,29,37,33
India,Maharashtra,Mumbai,"Sewri, Mumbai - BMC",25-04-2024 10:00:00,19.000084,72.856730,PM10,24,41,33
India,Maharashtra,Mumbai,"Sewri, Mumbai - BMC",25-04-2024 10:00:00,19.000084,72.856730,CO,9,26,15
India,Maharashtra,Mumbai,"Shivaji Nagar, Mumbai - BMC",25-04-2024 10:00:00,19.060498,72.923356,PM10,58,102,87
India,Maharashtra,Mumbai,"Shivaji Nagar, Mumbai - BMC",25-04-2024 10:00:00,19.060498,72.923356,NO2,24,89,53
India,Maharashtra,Mumbai,"Shivaji Nagar, Mumbai - BMC",25-04-2024 10:00:00,19.060498,72.923356,OZONE,7,72,23
India,Maharashtra,Mumbai,"Siddharth Nagar-Worli, Mumbai - IITM",25-04-2024 10:00:00,19.000083,72.813993,PM2.5,NA,NA,NA
India,Maharashtra,Mumbai,"Siddharth Nagar-Worli, Mumbai - IITM",25-04-2024 10:00:00,19.000083,72.813993,NO2,NA,NA,NA
India,Maharashtra,Mumbai,"Sion, Mumbai - MPCB",25-04-2024 10:00:00,19.047000,72.874600,NO2,57,68,64
India,Maharashtra,Mumbai,"Vasai West, Mumbai - MPCB",25-04-2024 10:00:00,19.383200,72.820400,SO2,16,16,16
India,Maharashtra,Mumbai,"Vasai West, Mumbai - MPCB",25-04-2024 10:00:00,19.383200,72.820400,CO,28,43,36
India,Maharashtra,Mumbai,"Vasai West, Mumbai - MPCB",25-04-2024 10:00:00,19.383200,72.820400,OZONE,7,38,11
India,Maharashtra,Mumbai,"Vile Parle West, Mumbai - MPCB",25-04-2024 10:00:00,19.10861,72.83622,NO2,8,22,11
India,Maharashtra,Nagpur,"Ambazari, Nagpur - MPCB",25-04-2024 10:00:00,21.121801,79.04952,PM2.5,36,82,52
India,Maharashtra,Nagpur,"Ambazari, Nagpur - MPCB",25-04-2024 10:00:00,21.121801,79.04952,PM10,35,89,59
India,Maharashtra,Nagpur,"Mahal, Nagpur - MPCB",25-04-2024 10:00:00,21.14472,79.107595,NH3,3,10,8
India,Maharashtra,Nagpur,"Mahal, Nagpur - MPCB",25-04-2024 10:00:00,21.14472,79.107595,SO2,2,37,22
India,Maharashtra,Nanded,"Sneh Nagar, Nanded - MPCB",25-04-2024 10:00:00,19.173852,77.296291,PM2.5,NA,NA,NA
India,Maharashtra,Nanded,"Sneh Nagar, Nanded - MPCB",25-04-2024 10:00:00,19.173852,77.296291,PM10,NA,NA,NA
India,Maharashtra,Nanded,"Sneh Nagar, Nanded - MPCB",25-04-2024 10:00:00,19.173852,77.296291,NO2,NA,NA,NA
India,Maharashtra,Nashik,"Gangapur Road, Nashik - MPCB",25-04-2024 10:00:00,20.0073285,73.7762427,PM2.5,74,97,84
India,Maharashtra,Nashik,"Hirawadi, Nashik - MPCB",25-04-2024 10:00:00,20.021503,73.813844,SO2,2,23,12
India,Maharashtra,Nashik,"Hirawadi, Nashik - MPCB",25-04-2024 10:00:00,20.021503,73.813844,OZONE,6,90,17
India,Maharashtra,Nashik,"Pandav Nagari, Nashik - MPCB",25-04-2024 10:00:00,19.9591346,73.7788008,NO2,4,29,14
India,Maharashtra,Nashik,"Pandav Nagari, Nashik - MPCB",25-04-2024 10:00:00,19.9591346,73.7788008,CO,12,41,27
India,Maharashtra,Navi Mumbai,"Kopripada-Vashi, Navi Mumbai - MPCB",25-04-2024 10:00:00,19.090337,73.014232,PM10,89,155,122
India,Maharashtra,Navi Mumbai,"Mahape, Navi Mumbai - MPCB",25-04-2024 10:00:00,19.1135051,73.008978,PM10,83,222,131
India,Maharashtra,Navi Mumbai,"Mahape, Navi Mumbai - MPCB",25-04-2024 10:00:00,19.1135051,73.008978,OZONE,39,62,49
India,Maharashtra,Navi Mumbai,"Sanpada, Navi Mumbai - MPCB",25-04-2024 10:00:00,19.0575752,73.0151367,PM10,71,148,94
India,Maharashtra,Navi Mumbai,"Sanpada, Navi Mumbai - MPCB",25-04-2024 10:00:00,19.0575752,73.0151367,CO,1,10,3
India,Maharashtra,Navi Mumbai,"Sector-19A Nerul, Navi Mumbai - IITM",25-04-2024 10:00:00,19.044,73.0325,PM10,70,111,91
India,Maharashtra,Navi Mumbai,"Sector-19A Nerul, Navi Mumbai - IITM",25-04-2024 10:00:00,19.044,73.0325,CO,16,61,26
India,Maharashtra,Navi Mumbai,"Sector-2E Kalamboli, Navi Mumbai - MPCB",25-04-2024 10:00:00,19.02579,73.10297,PM10,74,116,94
India,Maharashtra,Navi Mumbai,"Tondare-Taloja, Navi Mumbai - MPCB",25-04-2024 10:00:00,19.0630,73.1209,PM2.5,48,147,79
India,Maharashtra,Parbhani,"Masoom Colony, Parbhani - MPCB",25-04-2024 10:00:00,19.265594,76.761463,CO,26,34,28
India,Maharashtra,Parbhani,"Masoom Colony, Parbhani - MPCB",25-04-2024 10:00:00,19.265594,76.761463,OZONE,55,91,64
India,Maharashtra,Pimpri-Chinchwad,"Gavalinagar, Pimpri Chinchwad - MPCB",25-04-2024 10:00:00,18.63673,73.82487,NH3,1,5,3
India,Maharashtra,Pimpri-Chinchwad,"Park Street Wakad, Pimpri Chinchwad - MPCB",25-04-2024 10:00:00,18.59051,73.77946,PM10,27,87,51
India,Maharashtra,Pimpri-Chinchwad,"Park Street Wakad, Pimpri Chinchwad - MPCB",25-04-2024 10:00:00,18.59051,73.77946,NO2,54,93,71
India,Maharashtra,Pimpri-Chinchwad,"Park Street Wakad, Pimpri Chinchwad - MPCB",25-04-2024 10:00:00,18.59051,73.77946,CO,20,48,29
India,Maharashtra,Pimpri-Chinchwad,"Park Street Wakad, Pimpri Chinchwad - MPCB",25-04-2024 10:00:00,18.59051,73.77946,OZONE,11,116,21
India,Maharashtra,Pune,"Bhosari, Pune - IITM",25-04-2024 10:00:00,18.640051,73.848956,PM10,41,101,71
India,Maharashtra,Pune,"Bhosari, Pune - IITM",25-04-2024 10:00:00,18.640051,73.848956,CO,44,50,47
India,Maharashtra,Pune,"Karve Road, Pune - MPCB",25-04-2024 10:00:00,18.5011743,73.8165527,NO2,2,19,11
India,Maharashtra,Pune,"Karve Road, Pune - MPCB",25-04-2024 10:00:00,18.5011743,73.8165527,OZONE,21,203,74
India,Maharashtra,Pune,"Mhada Colony, Pune - IITM",25-04-2024 10:00:00,18.573040,73.927715,PM2.5,24,90,51
India,Maharashtra,Pune,"Revenue Colony-Shivajinagar, Pune - IITM",25-04-2024 10:00:00,18.530085,73.849598,SO2,59,103,83
India,Maharashtra,Pune,"Transport Nagar-Nigdi, Pune - IITM",25-04-2024 10:00:00,18.664282,73.763966,CO,24,40,39
India,Maharashtra,Solapur,"Dnyaneshwar Nagar, Solapur - MPCB",25-04-2024 10:00:00,17.6336264,75.9132495,SO2,2,17,5
India,Maharashtra,Solapur,"Dnyaneshwar Nagar, Solapur - MPCB",25-04-2024 10:00:00,17.6336264,75.9132495,OZONE,22,101,34
India,Maharashtra,Solapur,"Solapur, Solapur - MPCB",25-04-2024 10:00:00,17.6599188,75.9063906,PM10,114,151,135
India,Maharashtra,Solapur,"Solapur, Solapur - MPCB",25-04-2024 10:00:00,17.6599188,75.9063906,SO2,102,106,104
India,Maharashtra,Thane,"Pimpleshwar Mandir, Thane - MPCB",25-04-2024 10:00:00,19.192056,72.9585188,OZONE,1,63,7
India,Maharashtra,Ulhasnagar,"Sidhi Vinayak Nagar, Ulhasnagar - MPCB",25-04-2024 10:00:00,19.235581,73.159121,SO2,11,37,17
India,Manipur,Imphal,"DM College of Science, Imphal - Manipur PCB",25-04-2024 10:00:00,24.8207389,93.9423085,PM2.5,16,48,23
India,Manipur,Imphal,"Manipur University, Imphal - Manipur PCB",25-04-2024 10:00:00,24.7524239,93.9286218,PM2.5,NA,NA,NA
India,Manipur,Imphal,"Manipur University, Imphal - Manipur PCB",25-04-2024 10:00:00,24.7524239,93.9286218,CO,NA,NA,NA
India,Meghalaya,Shillong,"Lumpyngngad, Shillong - Meghalaya PCB",25-04-2024 10:00:00,25.5586,91.8985,PM2.5,44,433,112
India,Meghalaya,Shillong,"Lumpyngngad, Shillong - Meghalaya PCB",25-04-2024 10:00:00,25.5586,91.8985,NO2,1,2,1
India,Mizoram,Aizawl,"Sikulpuikawn, Aizawl - Mizoram PCB",25-04-2024 10:00:00,23.7176342,92.7192841,PM10,56,101,74
India,Odisha,Barbil,"Forest Office, Barbil - OSPCB",25-04-2024 10:00:00,22.1166054,85.3945546,PM2.5,35,319,141
India,Odisha,Barbil,"Forest Office, Barbil - OSPCB",25-04-2024 10:00:00,22.1166054,85.3945546,PM10,65,259,142
India,Odisha,Barbil,"Forest Office, Barbil - OSPCB",25-04-2024 10:00:00,22.1166054,85.3945546,CO,27,80,51
India,Odisha,Bhubaneswar,"Patia, Bhubaneswar - OSPCB",25-04-2024 10:00:00,20.34652,85.81630,OZONE,55,205,159
India,Odisha,Brajrajnagar,"GM Office, Brajrajnagar - OSPCB",25-04-2024 10:00:00,21.8004996,83.8396977,CO,74,102,100
India,Odisha,Byasanagar,"Ferro Chrome Colony, Byasanagar - OSPCB",25-04-2024 10:00:00,20.94185,86.11510,CO,60,104,89
India,Odisha,Keonjhar,"Jagamohanpur, Keonjhar - OSPCB",25-04-2024 10:00:00,21.643900,85.599355,PM2.5,61,96,79
India,Odisha,Keonjhar,"Jagamohanpur, Keonjhar - OSPCB",25-04-2024 10:00:00,21.643900,85.599355,OZONE,14,45,21
India,Odisha,Rourkela,"Fertilizer Township, Rourkela - OSPCB",25-04-2024 10:00:00,22.18972222,84.86277778,PM2.5,58,75,64
India,Odisha,Rourkela,"Fertilizer Township, Rourkela - OSPCB",25-04-2024 10:00:00,22.18972222,84.86277778,CO,15,24,22
India,Odisha,Talcher,"Talcher Coalfields,Talcher - OSPCB",25-04-2024 10:00:00,20.9360711,85.1707021,SO2,69,91,78
India,Odisha,Tensa,"Barsua Iron Ore Mines, Tensa - OSPCB",25-04-2024 10:00:00,21.869985,85.167016,CO,12,34,25
India,Puducherry,Puducherry,"Jawahar Nagar, Puducherry - PPCC",25-04-2024 10:00:00,11.9309,79.8027,PM10,4,53,19
India,Puducherry,Puducherry,"Jawahar Nagar, Puducherry - PPCC",25-04-2024 10:00:00,11.9309,79.8027,NO2,2,25,7
India,Punjab,Amritsar,"Golden Temple, Amritsar - PPCB",25-04-2024 10:00:00,31.620000,74.876512,PM2.5,66,94,79
India,Punjab,Amritsar,"Golden Temple, Amritsar - PPCB",25-04-2024 10:00:00,31.620000,74.876512,SO2,12,25,17
India,Punjab,Amritsar,"Golden Temple, Amritsar - PPCB",25-04-2024 10:00:00,31.620000,74.876512,OZONE,44,62,54
India,Punjab,Bathinda,"Hardev Nagar, Bathinda - PPCB",25-04-2024 10:00:00,30.233011,74.907758,SO2,3,40,15
India,Punjab,Bathinda,"Hardev Nagar, Bathinda - PPCB",25-04-2024 10:00:00,30.233011,74.907758,CO,4,79,34
India,Punjab,Jalandhar,"Civil Line, Jalandhar - PPCB",25-04-2024 10:00:00,31.321907,75.578914,NH3,2,3,2
India,Punjab,Jalandhar,"Civil Line, Jalandhar - PPCB",25-04-2024 10:00:00,31.321907,75.578914,SO2,8,15,10
India,Punjab,Jalandhar,"Civil Line, Jalandhar - PPCB",25-04-2024 10:00:00,31.321907,75.578914,OZONE,11,76,20
India,Punjab,Khanna,"Kalal Majra, Khanna - PPCB",25-04-2024 10:00:00,30.736056 ,76.209694,PM10,69,139,94
India,Punjab,Khanna,"Kalal Majra, Khanna - PPCB",25-04-2024 10:00:00,30.736056 ,76.209694,NH3,15,15,15
India,Punjab,Khanna,"Kalal Majra, Khanna - PPCB",25-04-2024 10:00:00,30.736056 ,76.209694,SO2,7,23,12
India,Punjab,Ludhiana,"Punjab Agricultural University, Ludhiana - PPCB",25-04-2024 10:00:00,30.9028,75.8086,SO2,8,34,14
India,Punjab,Ludhiana,"Punjab Agricultural University, Ludhiana - PPCB",25-04-2024 10:00:00,30.9028,75.8086,CO,17,49,41
India,Punjab,Mandi Gobindgarh,"RIMT University, Mandi Gobindgarh - PPCB",25-04-2024 10:00:00,30.649961,76.331442,PM2.5,NA,NA,NA
India,Punjab,Mandi Gobindgarh,"RIMT University, Mandi Gobindgarh - PPCB",25-04-2024 10:00:00,30.649961,76.331442,SO2,NA,NA,NA
India,Punjab,Mandi Gobindgarh,"RIMT University, Mandi Gobindgarh - PPCB",25-04-2024 10:00:00,30.649961,76.331442,OZONE,NA,NA,NA
India,Punjab,Patiala,"Model Town, Patiala - PPCB",25-04-2024 10:00:00,30.349388,76.366642,CO,13,66,29
India,Punjab,Patiala,"Model Town, Patiala - PPCB",25-04-2024 10:00:00,30.349388,76.366642,OZONE,22,127,38
India,Punjab,Rupnagar,"Ratanpura, Rupnagar - Ambuja Cements",25-04-2024 10:00:00,31.0325454,76.5623046,SO2,9,12,11
India,Rajasthan,Ajmer,"Civil Lines,  Ajmer - RSPCB",25-04-2024 10:00:00,26.470859,74.646594,NO2,11,18,14
India,Rajasthan,Ajmer,"Civil Lines,  Ajmer - RSPCB",25-04-2024 10:00:00,26.470859,74.646594,SO2,9,14,12
India,Rajasthan,Alwar,"Moti Doongri, Alwar - RSPCB",25-04-2024 10:00:00,27.554793,76.611536,PM2.5,19,96,60
India,Rajasthan,Banswara,"Rati Talai, Banswara - RSPCB",25-04-2024 10:00:00,23.555190,74.440010,PM2.5,28,137,72
India,Rajasthan,Banswara,"Rati Talai, Banswara - RSPCB",25-04-2024 10:00:00,23.555190,74.440010,NH3,1,4,2
India,Rajasthan,Barmer,"Railway Colony, Barmer - RSPCB",25-04-2024 10:00:00,25.747299,71.393989,PM10,37,132,78
India,Rajasthan,Bhilwara,"Pratap Nagar, Bhilwara - RSPCB",25-04-2024 10:00:00,25.339605,74.618883,SO2,3,29,17
India,Rajasthan,Bhiwadi,"RIICO Ind. Area III, Bhiwadi - RSPCB",25-04-2024 10:00:00,28.194909,76.862296,CO,14,169,59
India,Rajasthan,Bhiwadi,"Vasundhara Nagar_UIT, Bhiwadi - RSPCB",25-04-2024 10:00:00,28.207266,76.829265,NO2,5,109,49
India,Rajasthan,Bhiwadi,"Vasundhara Nagar_UIT, Bhiwadi - RSPCB",25-04-2024 10:00:00,28.207266,76.829265,NH3,6,26,13
India,Rajasthan,Bikaner,"MM Ground, Bikaner - RSPCB",25-04-2024 10:00:00,28.018792,73.292658,PM2.5,12,138,43
India,Rajasthan,Bikaner,"MM Ground, Bikaner - RSPCB",25-04-2024 10:00:00,28.018792,73.292658,NH3,9,12,10
India,Rajasthan,Bikaner,"MM Ground, Bikaner - RSPCB",25-04-2024 10:00:00,28.018792,73.292658,SO2,4,12,8
India,Rajasthan,Bundi,"New Colony, Bundi - RSPCB",25-04-2024 10:00:00,25.435774,75.644272,NO2,7,169,48
India,Rajasthan,Chittorgarh,"Shastri Nagar, Chittorgarh - RSPCB",25-04-2024 10:00:00,24.892047,74.623527,PM10,88,500,191
India,Rajasthan,Chittorgarh,"Shastri Nagar, Chittorgarh - RSPCB",25-04-2024 10:00:00,24.892047,74.623527,NH3,7,12,9
India,Rajasthan,Churu,"Subash Chowk, Churu - RSPCB",25-04-2024 10:00:00,28.296139,74.961696,PM2.5,13,99,41
India,Rajasthan,Dholpur,"Raja Ganj, Dholpur - RSPCB",25-04-2024 10:00:00,26.699557,77.898881,PM2.5,22,190,81
India,Rajasthan,Dholpur,"Raja Ganj, Dholpur - RSPCB",25-04-2024 10:00:00,26.699557,77.898881,SO2,3,5,3
India,Rajasthan,Dungarpur,"Bhoiwada, Dungarpur - RSPCB",25-04-2024 10:00:00,23.837789,73.714926,PM2.5,12,58,30
India,Rajasthan,Dungarpur,"Bhoiwada, Dungarpur - RSPCB",25-04-2024 10:00:00,23.837789,73.714926,OZONE,18,65,32
India,Rajasthan,Hanumangarh,"Housing Board, Hanumangarh - RSPCB",25-04-2024 10:00:00,29.610750,74.283608,SO2,4,34,13
India,Rajasthan,Jaipur,"Adarsh Nagar, Jaipur - RSPCB",25-04-2024 10:00:00,26.902909,75.836858,SO2,3,27,17
India,Rajasthan,Jaipur,"Mansarovar Sector-12, Jaipur - RSPCB",25-04-2024 10:00:00,26.843698,75.766894,CO,44,67,54
India,Rajasthan,Jaipur,"Mansarovar Sector-12, Jaipur - RSPCB",25-04-2024 10:00:00,26.843698,75.766894,OZONE,5,144,90
India,Rajasthan,Jaipur,"Police Commissionerate, Jaipur - RSPCB",25-04-2024 10:00:00,26.9164092,75.7994901,PM2.5,38,100,63
India,Rajasthan,Jaipur,"Police Commissionerate, Jaipur - RSPCB",25-04-2024 10:00:00,26.9164092,75.7994901,PM10,66,144,106
India,Rajasthan,Jaipur,"Sector-2 Murlipura, Jaipur - RSPCB",25-04-2024 10:00:00,26.960669,75.771817,NH3,3,20,8
India,Rajasthan,Jaipur,"Sector-2 Murlipura, Jaipur - RSPCB",25-04-2024 10:00:00,26.960669,75.771817,OZONE,6,99,68
India,Rajasthan,Jaipur,"Shastri Nagar, Jaipur - RSPCB",25-04-2024 10:00:00,26.9502929,75.730943,NH3,7,19,12
India,Rajasthan,Jaipur,"Shastri Nagar, Jaipur - RSPCB",25-04-2024 10:00:00,26.9502929,75.730943,OZONE,38,74,63
India,Rajasthan,Jaisalmer,"Sadar Bazar, Jaisalmer - RSPCB",25-04-2024 10:00:00,26.912329,70.909168,PM10,54,157,96
India,Rajasthan,Jaisalmer,"Sadar Bazar, Jaisalmer - RSPCB",25-04-2024 10:00:00,26.912329,70.909168,CO,2,54,5
India,Rajasthan,Jalore,"Mudtra Sili, Jalore - RSPCB",25-04-2024 10:00:00,25.344694,72.626208,SO2,8,11,10
India,Rajasthan,Jhalawar,"Rajlaxmi Nagar, Jhalawar - RSPCB",25-04-2024 10:00:00,24.588397,76.172782,PM2.5,6,240,67
India,Rajasthan,Jhalawar,"Rajlaxmi Nagar, Jhalawar - RSPCB",25-04-2024 10:00:00,24.588397,76.172782,NO2,17,54,28
India,Rajasthan,Jhunjhunu,"Indra Nagar, Jhunjhunu - RSPCB",25-04-2024 10:00:00,28.108988,75.386577,SO2,1,13,5
India,Rajasthan,Jodhpur,"Collectorate, Jodhpur - RSPCB",25-04-2024 10:00:00,26.268249,73.0193853,CO,1,104,32
India,Rajasthan,Jodhpur,"Collectorate, Jodhpur - RSPCB",25-04-2024 10:00:00,26.268249,73.0193853,OZONE,7,128,42
India,Rajasthan,Jodhpur,"Digari Kalan, Jodhpur - RSPCB",25-04-2024 10:00:00,26.295810,73.082283,NO2,4,87,24
India,Rajasthan,Jodhpur,"Jhalamand, Jodhpur - RSPCB",25-04-2024 10:00:00,26.215415,73.070156,OZONE,35,95,55
India,Rajasthan,Jodhpur,"Samrat Ashok Udhyan, Jodhpur - RSPCB",25-04-2024 10:00:00,26.253384,72.976571,PM2.5,12,72,28
India,Rajasthan,Jodhpur,"Samrat Ashok Udhyan, Jodhpur - RSPCB",25-04-2024 10:00:00,26.253384,72.976571,NH3,2,4,3
India,Rajasthan,Karauli,"Satyawati Vihar, Karauli - RSPCB",25-04-2024 10:00:00,26.506177,77.025989,NO2,4,82,26
India,Rajasthan,Karauli,"Satyawati Vihar, Karauli - RSPCB",25-04-2024 10:00:00,26.506177,77.025989,SO2,17,27,21
India,Rajasthan,Kota,"Dhanmandi, Kota - RSPCB",25-04-2024 10:00:00,25.164090,75.858137,NO2,10,175,72
India,Rajasthan,Kota,"Dhanmandi, Kota - RSPCB",25-04-2024 10:00:00,25.164090,75.858137,SO2,6,72,16
India,Rajasthan,Kota,"Nayapura, Kota - RSPCB",25-04-2024 10:00:00,25.196024,75.855668,PM10,35,349,148
India,Rajasthan,Kota,"Nayapura, Kota - RSPCB",25-04-2024 10:00:00,25.196024,75.855668,CO,10,111,63
India,Rajasthan,Kota,"Shrinath Puram, Kota - RSPCB",25-04-2024 10:00:00,25.14389,75.821256,CO,4,59,28
India,Rajasthan,Nagaur,"Karni Colony, Nagaur - RSPCB",25-04-2024 10:00:00,27.213494,73.734444,PM2.5,9,54,27
India,Rajasthan,Nagaur,"Karni Colony, Nagaur - RSPCB",25-04-2024 10:00:00,27.213494,73.734444,SO2,1,10,4
India,Rajasthan,Pratapgarh,"Pragati Nagar, Pratapgarh - RSPCB",25-04-2024 10:00:00,24.041198,74.780702,NO2,8,66,27
India,Rajasthan,Pratapgarh,"Pragati Nagar, Pratapgarh - RSPCB",25-04-2024 10:00:00,24.041198,74.780702,NH3,3,7,4
India,Rajasthan,Pratapgarh,"Pragati Nagar, Pratapgarh - RSPCB",25-04-2024 10:00:00,24.041198,74.780702,SO2,4,14,6
India,Rajasthan,Sawai Madhopur,"Sahu Nagar, Sawai Madhopur - RSPCB",25-04-2024 10:00:00,26.031443,76.359327,SO2,1,48,9
India,Rajasthan,Sikar,"Radhakishan Pura, Sikar - RSPCB",25-04-2024 10:00:00,27.608912,75.153302,NH3,4,8,5
India,Rajasthan,Sikar,"Radhakishan Pura, Sikar - RSPCB",25-04-2024 10:00:00,27.608912,75.153302,SO2,2,12,4
India,Rajasthan,Sikar,"Radhakishan Pura, Sikar - RSPCB",25-04-2024 10:00:00,27.608912,75.153302,CO,20,63,32
India,Rajasthan,Sirohi,"Vedhaynath Colony, Sirohi - RSPCB",25-04-2024 10:00:00,24.885261,72.857549,PM2.5,14,256,49
India,Rajasthan,Sirohi,"Vedhaynath Colony, Sirohi - RSPCB",25-04-2024 10:00:00,24.885261,72.857549,PM10,45,292,82
India,Rajasthan,Sirohi,"Vedhaynath Colony, Sirohi - RSPCB",25-04-2024 10:00:00,24.885261,72.857549,NH3,3,40,6
India,Rajasthan,Sri Ganganagar,"Old City, Sri Ganganagar - RSPCB",25-04-2024 10:00:00,29.931624,73.864511,NO2,29,152,82
India,Rajasthan,Sri Ganganagar,"Old City, Sri Ganganagar - RSPCB",25-04-2024 10:00:00,29.931624,73.864511,CO,30,104,81
India,Rajasthan,Tonk,"Shastri Nagar, Tonk - RSPCB",25-04-2024 10:00:00,26.159933,75.780517,OZONE,26,113,47
India,Sikkim,Gangtok,"Zero Point GICI, Gangtok - SSPCB",25-04-2024 10:00:00,27.338530,88.614099,NH3,1,1,1
India,Sikkim,Gangtok,"Zero Point GICI, Gangtok - SSPCB",25-04-2024 10:00:00,27.338530,88.614099,SO2,11,13,12
India,Sikkim,Gangtok,"Zero Point GICI, Gangtok - SSPCB",25-04-2024 10:00:00,27.338530,88.614099,CO,16,28,19
India,TamilNadu,Chennai,"Alandur Bus Depot, Chennai - CPCB",25-04-2024 10:00:00,12.9099161,80.1076538,PM10,32,51,40
India,TamilNadu,Chennai,"Arumbakkam, Chennai - TNPCB",25-04-2024 10:00:00,13.0664,80.2112 ,PM2.5,2,26,11
India,TamilNadu,Chennai,"Arumbakkam, Chennai - TNPCB",25-04-2024 10:00:00,13.0664,80.2112 ,SO2,1,10,4
India,TamilNadu,Chennai,"Kodungaiyur, Chennai - TNPCB",25-04-2024 10:00:00,13.1278,80.2642,PM10,9,58,24
India,TamilNadu,Chennai,"Manali, Chennai - CPCB",25-04-2024 10:00:00,13.164544,80.26285,NH3,4,5,4
India,TamilNadu,Chennai,"Perungudi, Chennai - TNPCB",25-04-2024 10:00:00,12.9533,80.2357,NH3,2,3,2
India,TamilNadu,Chennai,"Perungudi, Chennai - TNPCB",25-04-2024 10:00:00,12.9533,80.2357,CO,8,100,24
India,TamilNadu,Chennai,"Perungudi, Chennai - TNPCB",25-04-2024 10:00:00,12.9533,80.2357,OZONE,4,9,5
India,TamilNadu,Chennai,"Velachery Res. Area, Chennai - CPCB",25-04-2024 10:00:00,13.0052189,80.2398125,NO2,8,21,15
India,TamilNadu,Chennai,"Velachery Res. Area, Chennai - CPCB",25-04-2024 10:00:00,13.0052189,80.2398125,NH3,9,16,11
India,TamilNadu,Chennai,"Velachery Res. Area, Chennai - CPCB",25-04-2024 10:00:00,13.0052189,80.2398125,CO,10,146,44
India,TamilNadu,Cuddalore,"Kudikadu, Cuddalore - TNPCB",25-04-2024 10:00:00,11.6829898,79.7532099,NO2,1,4,3
India,TamilNadu,Cuddalore,"Kudikadu, Cuddalore - TNPCB",25-04-2024 10:00:00,11.6829898,79.7532099,NH3,3,4,4
India,TamilNadu,Gummidipoondi,"Anthoni Pillai Nagar, Gummidipoondi - TNPCB",25-04-2024 10:00:00,13.4127,80.1081,PM2.5,25,123,61
India,TamilNadu,Gummidipoondi,"Anthoni Pillai Nagar, Gummidipoondi - TNPCB",25-04-2024 10:00:00,13.4127,80.1081,NH3,1,2,2
India,TamilNadu,Gummidipoondi,"Anthoni Pillai Nagar, Gummidipoondi - TNPCB",25-04-2024 10:00:00,13.4127,80.1081,SO2,2,77,29
India,TamilNadu,Kanchipuram,"Kilambi, Kanchipuram - TNPCB",25-04-2024 10:00:00,12.864618,79.659968,PM2.5,NA,NA,NA
India,TamilNadu,Kanchipuram,"Kilambi, Kanchipuram - TNPCB",25-04-2024 10:00:00,12.864618,79.659968,PM10,NA,NA,NA
India,TamilNadu,Kanchipuram,"Kilambi, Kanchipuram - TNPCB",25-04-2024 10:00:00,12.864618,79.659968,NH3,NA,NA,NA
India,TamilNadu,Kanchipuram,"Kilambi, Kanchipuram - TNPCB",25-04-2024 10:00:00,12.864618,79.659968,OZONE,NA,NA,NA
India,TamilNadu,Ooty,"Bombay Castel, Ooty - TNPCB",25-04-2024 10:00:00,11.4068288,76.7138973,OZONE,5,6,5
India,TamilNadu,Palkalaiperur,"Bharathidasan University, Palkalaiperur - TNPCB",25-04-2024 10:00:00,10.681158,78.741746,PM2.5,22,45,32
India,TamilNadu,Ramanathapuram,"Chalai Bazaar, Ramanathapuram - TNPCB",25-04-2024 10:00:00,9.36399,78.831977,PM2.5,29,83,48
India,TamilNadu,Thoothukudi,"Meelavittan, Thoothukudi - TNPCB",25-04-2024 10:00:00,8.816428 ,78.099039,NO2,26,48,35
India,TamilNadu,Tirupur,"Kumaran College, Tirupur - TNPCB",25-04-2024 10:00:00,11.0973603,77.3228673,OZONE,6,7,7
India,TamilNadu,Vellore,"Vasanthapuram, Vellore - TNPCB",25-04-2024 10:00:00,12.909494,79.131861,PM2.5,NA,NA,NA
India,TamilNadu,Virudhunagar,"Collectorate Office, Virudhunagar - TNPCB",25-04-2024 10:00:00,9.559382,77.948828,SO2,NA,NA,NA
India,Telangana,Hyderabad,"Bollaram Industrial Area, Hyderabad - TSPCB",25-04-2024 10:00:00,17.540891,78.358528,PM10,78,140,107
India,Telangana,Hyderabad,"Bollaram Industrial Area, Hyderabad - TSPCB",25-04-2024 10:00:00,17.540891,78.358528,SO2,7,112,28
India,Telangana,Hyderabad,"Bollaram Industrial Area, Hyderabad - TSPCB",25-04-2024 10:00:00,17.540891,78.358528,OZONE,33,36,34
India,Telangana,Hyderabad,"Central University, Hyderabad - TSPCB",25-04-2024 10:00:00,17.460103,78.334361,OZONE,3,4,4
India,Telangana,Hyderabad,"ICRISAT Patancheru, Hyderabad - TSPCB",25-04-2024 10:00:00,17.518400,78.278777,SO2,17,37,24
India,Telangana,Hyderabad,"IITH Kandi, Hyderabad - TSPCB",25-04-2024 10:00:00,17.585705,78.126199,PM2.5,NA,NA,NA
India,Telangana,Hyderabad,"IITH Kandi, Hyderabad - TSPCB",25-04-2024 10:00:00,17.585705,78.126199,CO,12,70,33
India,Telangana,Hyderabad,"Kokapet, Hyderabad - TSPCB",25-04-2024 10:00:00,17.393559,78.339194,NO2,11,12,12
India,Telangana,Hyderabad,"Kokapet, Hyderabad - TSPCB",25-04-2024 10:00:00,17.393559,78.339194,NH3,3,3,3
India,Telangana,Hyderabad,"Kokapet, Hyderabad - TSPCB",25-04-2024 10:00:00,17.393559,78.339194,OZONE,2,9,5
India,Telangana,Hyderabad,"Kompally Municipal Office, Hyderabad - TSPCB",25-04-2024 10:00:00,17.544899,78.486949,CO,20,73,35
India,Telangana,Hyderabad,"New Malakpet, Hyderabad - TSPCB",25-04-2024 10:00:00,17.37206,78.50864,PM2.5,25,72,41
India,Telangana,Hyderabad,"New Malakpet, Hyderabad - TSPCB",25-04-2024 10:00:00,17.37206,78.50864,SO2,10,15,11
India,Telangana,Hyderabad,"New Malakpet, Hyderabad - TSPCB",25-04-2024 10:00:00,17.37206,78.50864,OZONE,9,66,25
India,Telangana,Hyderabad,"Ramachandrapuram, Hyderabad - TSPCB",25-04-2024 10:00:00,17.528544,78.286195,PM2.5,25,25,25
India,Telangana,Hyderabad,"Somajiguda, Hyderabad - TSPCB",25-04-2024 10:00:00,17.417094,78.457437,SO2,18,20,19
India,Telangana,Hyderabad,"Somajiguda, Hyderabad - TSPCB",25-04-2024 10:00:00,17.417094,78.457437,CO,22,88,29
India,Telangana,Hyderabad,"Zoo Park, Hyderabad - TSPCB",25-04-2024 10:00:00,17.349694,78.451437,NO2,22,46,32
India,Telangana,Hyderabad,"Zoo Park, Hyderabad - TSPCB",25-04-2024 10:00:00,17.349694,78.451437,SO2,1,12,3
India,Telangana,Hyderabad,"Zoo Park, Hyderabad - TSPCB",25-04-2024 10:00:00,17.349694,78.451437,CO,24,114,44
India,Tripura,Agartala,"Bardowali, Agartala - Tripura SPCB",25-04-2024 10:00:00,23.8175497,91.2726974,SO2,30,31,30
India,Tripura,Agartala,"Bardowali, Agartala - Tripura SPCB",25-04-2024 10:00:00,23.8175497,91.2726974,OZONE,6,57,14
India,Uttar_Pradesh,Agra,"Rohta, Agra - UPPCB",25-04-2024 10:00:00,27.106972,78.000111,SO2,3,16,8
India,Uttar_Pradesh,Agra,"Sector-3B Avas Vikas Colony, Agra - UPPCB",25-04-2024 10:00:00,27.19412,77.96237,CO,6,20,19
India,Uttar_Pradesh,Agra,"Shahjahan Garden, Agra - UPPCB",25-04-2024 10:00:00,27.169338,78.03582,PM10,47,182,100
India,Uttar_Pradesh,Agra,"Shastripuram, Agra - UPPCB",25-04-2024 10:00:00,27.19862,77.92066,PM10,23,168,107
India,Uttar_Pradesh,Agra,"Shastripuram, Agra - UPPCB",25-04-2024 10:00:00,27.19862,77.92066,CO,8,18,15
India,Uttar_Pradesh,Baghpat,"Sardar Patel Inter College, Baghpat - UPPCB",25-04-2024 10:00:00,28.964949,77.278761,PM10,71,340,183
India,Uttar_Pradesh,Baghpat,"Sardar Patel Inter College, Baghpat - UPPCB",25-04-2024 10:00:00,28.964949,77.278761,OZONE,9,103,28
India,Uttar_Pradesh,Bareilly,"Rajendra Nagar, Bareilly - UPPCB",25-04-2024 10:00:00,28.38910936,79.42963708,NO2,2,3,2
India,Uttar_Pradesh,Bareilly,"Rajendra Nagar, Bareilly - UPPCB",25-04-2024 10:00:00,28.38910936,79.42963708,NH3,1,3,1
India,Uttar_Pradesh,Bareilly,"Rajendra Nagar, Bareilly - UPPCB",25-04-2024 10:00:00,28.38910936,79.42963708,SO2,44,54,48
India,Uttar_Pradesh,Bulandshahr,"Yamunapuram, Bulandshahr - UPPCB",25-04-2024 10:00:00,28.406963,77.849831,SO2,14,47,28
India,Uttar_Pradesh,Bulandshahr,"Yamunapuram, Bulandshahr - UPPCB",25-04-2024 10:00:00,28.406963,77.849831,OZONE,4,217,27
India,Uttar_Pradesh,Firozabad,"Nagla Bhau, Firozabad - UPPCB",25-04-2024 10:00:00,27.168897,78.376960,PM2.5,13,125,49
India,Uttar_Pradesh,Firozabad,"Nagla Bhau, Firozabad - UPPCB",25-04-2024 10:00:00,27.168897,78.376960,SO2,19,25,21
India,Uttar_Pradesh,Firozabad,"Nagla Bhau, Firozabad - UPPCB",25-04-2024 10:00:00,27.168897,78.376960,CO,24,34,32
India,Uttar_Pradesh,Firozabad,"Vibhab Nagar, Firozabad - UPPCB",25-04-2024 10:00:00,27.1594,78.3953,NO2,13,14,14
India,Uttar_Pradesh,Ghaziabad,"Indirapuram, Ghaziabad - UPPCB",25-04-2024 10:00:00,28.646233,77.358075,CO,20,88,45
India,Uttar_Pradesh,Ghaziabad,"Loni, Ghaziabad - UPPCB",25-04-2024 10:00:00,28.757294,77.278792,PM2.5,24,303,126
India,Uttar_Pradesh,Ghaziabad,"Loni, Ghaziabad - UPPCB",25-04-2024 10:00:00,28.757294,77.278792,PM10,68,234,158
India,Uttar_Pradesh,Ghaziabad,"Sanjay Nagar, Ghaziabad - UPPCB",25-04-2024 10:00:00,28.685382,77.453839,NO2,26,96,63
India,Uttar_Pradesh,Ghaziabad,"Sanjay Nagar, Ghaziabad - UPPCB",25-04-2024 10:00:00,28.685382,77.453839,CO,7,104,29
India,Uttar_Pradesh,Gorakhpur,"Madan Mohan Malaviya University of Technology, Gorakhpur - UPPCB",25-04-2024 10:00:00,26.730136,83.433859,PM10,75,159,107
India,Uttar_Pradesh,Greater Noida,"Knowledge Park - V, Greater Noida - UPPCB",25-04-2024 10:00:00,28.557054,77.453663,CO,6,118,71
India,Uttar_Pradesh,Jhansi,"Shivaji Nagar, Jhansi - UPPCB",25-04-2024 10:00:00,25.4547,78.6039,PM2.5,10,500,111
India,Uttar_Pradesh,Kanpur,"FTI Kidwai Nagar, Kanpur - UPPCB",25-04-2024 10:00:00,26.428282,80.327067,NH3,2,4,3
India,Uttar_Pradesh,Kanpur,"NSI Kalyanpur, Kanpur - UPPCB",25-04-2024 10:00:00,26.509954,80.249612,NH3,1,4,2
India,Uttar_Pradesh,Kanpur,"Nehru Nagar, Kanpur - UPPCB",25-04-2024 10:00:00,26.4703136,80.3229863,PM2.5,41,302,85
India,Uttar_Pradesh,Khurja,"Kalindi Kunj, Khurja - UPPCB",25-04-2024 10:00:00,28.2348927,77.8683002,PM2.5,23,282,109
India,Uttar_Pradesh,Khurja,"Kalindi Kunj, Khurja - UPPCB",25-04-2024 10:00:00,28.2348927,77.8683002,NO2,3,4,3
India,Uttar_Pradesh,Lucknow,"B R Ambedkar University, Lucknow - UPPCB",25-04-2024 10:00:00,26.766433,80.927299,PM2.5,36,178,74
India,Uttar_Pradesh,Lucknow,"B R Ambedkar University, Lucknow - UPPCB",25-04-2024 10:00:00,26.766433,80.927299,NO2,11,12,11
India,Uttar_Pradesh,Lucknow,"Gomti Nagar, Lucknow - UPPCB",25-04-2024 10:00:00,26.868120,81.005119,OZONE,33,42,35
India,Uttar_Pradesh,Lucknow,"Kukrail Picnic Spot-1, Lucknow - UPPCB",25-04-2024 10:00:00,26.90723,80.98579,PM2.5,28,133,67
India,Uttar_Pradesh,Lucknow,"Kukrail Picnic Spot-1, Lucknow - UPPCB",25-04-2024 10:00:00,26.90723,80.98579,CO,9,24,21
India,Uttar_Pradesh,Lucknow,"Lalbagh, Lucknow - CPCB",25-04-2024 10:00:00,26.8458805,80.9365541,NO2,12,31,19
India,Uttar_Pradesh,Lucknow,"Lalbagh, Lucknow - CPCB",25-04-2024 10:00:00,26.8458805,80.9365541,SO2,1,19,8
India,Uttar_Pradesh,Lucknow,"Talkatora District Industries Center, Lucknow - CPCB",25-04-2024 10:00:00,26.83399722,80.8917361,SO2,1,60,11
India,Uttar_Pradesh,Lucknow,"Talkatora District Industries Center, Lucknow - CPCB",25-04-2024 10:00:00,26.83399722,80.8917361,OZONE,2,80,9
India,Uttar_Pradesh,Meerut,"Ganga Nagar, Meerut - UPPCB",25-04-2024 10:00:00,28.999264,77.7590354,NH3,5,9,7
India,Uttar_Pradesh,Meerut,"Jai Bhim Nagar, Meerut - UPPCB",25-04-2024 10:00:00,28.9535882,77.7622941,NH3,10,24,14
India,Uttar_Pradesh,Meerut,"Jai Bhim Nagar, Meerut - UPPCB",25-04-2024 10:00:00,28.9535882,77.7622941,SO2,8,16,11
India,Uttar_Pradesh,Moradabad,"Buddhi Vihar, Moradabad - UPPCB",25-04-2024 10:00:00,28.83526,78.74460,PM2.5,24,137,69
India,Uttar_Pradesh,Moradabad,"Buddhi Vihar, Moradabad - UPPCB",25-04-2024 10:00:00,28.83526,78.74460,NH3,2,2,2
India,Uttar_Pradesh,Moradabad,"Eco Herbal Park, Moradabad - UPPCB",25-04-2024 10:00:00,28.840739,78.697531,SO2,5,33,14
India,Uttar_Pradesh,Moradabad,"Eco Herbal Park, Moradabad - UPPCB",25-04-2024 10:00:00,28.840739,78.697531,CO,10,62,28
India,Uttar_Pradesh,Moradabad,"Employment Office, Moradabad - UPPCB",25-04-2024 10:00:00,28.88528,78.73880,CO,14,45,42
India,Uttar_Pradesh,Moradabad,"Employment Office, Moradabad - UPPCB",25-04-2024 10:00:00,28.88528,78.73880,OZONE,7,125,19
India,Uttar_Pradesh,Moradabad,"Jigar Colony, Moradabad - UPPCB",25-04-2024 10:00:00,28.856664,78.772638,SO2,6,10,8
India,Uttar_Pradesh,Moradabad,"Kashiram Nagar, Moradabad - UPPCB",25-04-2024 10:00:00,28.849399,78.742362,PM2.5,23,244,90
India,Uttar_Pradesh,Moradabad,"Kashiram Nagar, Moradabad - UPPCB",25-04-2024 10:00:00,28.849399,78.742362,NH3,4,4,4
India,Uttar_Pradesh,Moradabad,"Kashiram Nagar, Moradabad - UPPCB",25-04-2024 10:00:00,28.849399,78.742362,OZONE,13,57,21
India,Uttar_Pradesh,Muzaffarnagar,"New Mandi, Muzaffarnagar - UPPCB",25-04-2024 10:00:00,29.4723508,77.7194031,PM10,104,312,203
India,Uttar_Pradesh,Muzaffarnagar,"New Mandi, Muzaffarnagar - UPPCB",25-04-2024 10:00:00,29.4723508,77.7194031,NO2,15,50,29
India,Uttar_Pradesh,Noida,"Sector - 62, Noida - IMD",25-04-2024 10:00:00,28.6245479,77.3577104,NO2,9,36,20
India,Uttar_Pradesh,Noida,"Sector - 62, Noida - IMD",25-04-2024 10:00:00,28.6245479,77.3577104,OZONE,10,150,44
India,Uttar_Pradesh,Prayagraj,"Jhunsi, Prayagraj - UPPCB",25-04-2024 10:00:00,25.425602,81.917152,PM2.5,23,71,42
India,Uttar_Pradesh,Prayagraj,"Jhunsi, Prayagraj - UPPCB",25-04-2024 10:00:00,25.425602,81.917152,SO2,30,32,31
India,Uttar_Pradesh,Prayagraj,"Motilal Nehru NIT, Prayagraj - UPPCB",25-04-2024 10:00:00,25.494,81.863,NH3,6,7,6
India,Uttar_Pradesh,Prayagraj,"Nagar Nigam, Prayagraj - UPPCB",25-04-2024 10:00:00,25.44919916 ,81.82735986 ,NH3,4,7,6
India,Uttar_Pradesh,Varanasi,"Ardhali Bazar, Varanasi - UPPCB",25-04-2024 10:00:00,25.3505986,82.9083074,PM2.5,21,89,50
India,Uttar_Pradesh,Varanasi,"Ardhali Bazar, Varanasi - UPPCB",25-04-2024 10:00:00,25.3505986,82.9083074,OZONE,14,38,37
India,Uttar_Pradesh,Varanasi,"Bhelupur, Varanasi - UPPCB",25-04-2024 10:00:00,25.301778,82.996789,OZONE,1,9,4
India,Uttar_Pradesh,Varanasi,"IESD Banaras Hindu University, Varanasi - UPPCB",25-04-2024 10:00:00,25.262326,82.995408,NH3,1,2,2
India,Uttar_Pradesh,Varanasi,"IESD Banaras Hindu University, Varanasi - UPPCB",25-04-2024 10:00:00,25.262326,82.995408,CO,2,18,14
India,Uttar_Pradesh,Varanasi,"IESD Banaras Hindu University, Varanasi - UPPCB",25-04-2024 10:00:00,25.262326,82.995408,OZONE,NA,NA,NA
India,Uttar_Pradesh,Varanasi,"Maldahiya, Varanasi - UPPCB",25-04-2024 10:00:00,25.32393,82.99687,OZONE,2,25,5
India,Uttar_Pradesh,Vrindavan,"Omex Eternity, Vrindavan - UPPCB",25-04-2024 10:00:00,27.5714090,77.6557570,NO2,2,3,2
India,Uttar_Pradesh,Vrindavan,"Omex Eternity, Vrindavan - UPPCB",25-04-2024 10:00:00,27.5714090,77.6557570,SO2,38,56,47
India,Uttarakhand,Dehradun,"Doon University, Dehradun - UKPCB",25-04-2024 10:00:00,30.269444,78.044167,NO2,1,8,2
India,Uttarakhand,Kashipur,"Govt. Girls Inter College, Kashipur - UKPCB",25-04-2024 10:00:00,29.2124114,78.9611753,PM2.5,29,145,76
India,Uttarakhand,Kashipur,"Govt. Girls Inter College, Kashipur - UKPCB",25-04-2024 10:00:00,29.2124114,78.9611753,NO2,41,92,59
India,Uttarakhand,Kashipur,"Govt. Girls Inter College, Kashipur - UKPCB",25-04-2024 10:00:00,29.2124114,78.9611753,CO,1,64,19
India,Uttarakhand,Rishikesh,"Shivaji Nagar, Rishikesh - UKPCB",25-04-2024 10:00:00,30.075911,78.2859547,PM2.5,38,86,48
India,Uttarakhand,Rishikesh,"Shivaji Nagar, Rishikesh - UKPCB",25-04-2024 10:00:00,30.075911,78.2859547,SO2,4,5,4
India,West_Bengal,Asansol,"Asansol Court Area, Asansol - WBPCB",25-04-2024 10:00:00,23.685297,86.945968,SO2,9,23,14
India,West_Bengal,Barrackpore,"SVSPA Campus, Barrackpore - WBPCB",25-04-2024 10:00:00,22.7605581,88.3617589,CO,11,31,25
India,West_Bengal,Barrackpore,"SVSPA Campus, Barrackpore - WBPCB",25-04-2024 10:00:00,22.7605581,88.3617589,OZONE,10,76,26
India,West_Bengal,Durgapur,"PCBL Residential Complex, Durgapur - WBPCB",25-04-2024 10:00:00,23.5087640,87.3544400,NO2,15,147,66
India,West_Bengal,Durgapur,"PCBL Residential Complex, Durgapur - WBPCB",25-04-2024 10:00:00,23.5087640,87.3544400,NH3,1,2,1
India,West_Bengal,Durgapur,"PCBL Residential Complex, Durgapur - WBPCB",25-04-2024 10:00:00,23.5087640,87.3544400,SO2,33,120,67
India,West_Bengal,Haldia,"Priyambada Housing Estate, Haldia - WBPCB",25-04-2024 10:00:00,22.06047,88.109737,PM10,37,113,72
India,West_Bengal,Haldia,"Priyambada Housing Estate, Haldia - WBPCB",25-04-2024 10:00:00,22.06047,88.109737,SO2,6,68,20
India,West_Bengal,Howrah,"Belur Math, Howrah - WBPCB",25-04-2024 10:00:00,22.629801,88.352017,NH3,2,3,2
India,West_Bengal,Howrah,"Belur Math, Howrah - WBPCB",25-04-2024 10:00:00,22.629801,88.352017,SO2,6,19,11
India,West_Bengal,Howrah,"Belur Math, Howrah - WBPCB",25-04-2024 10:00:00,22.629801,88.352017,OZONE,12,78,24
India,West_Bengal,Howrah,"Ghusuri, Howrah - WBPCB",25-04-2024 10:00:00,22.611968,88.347422,CO,4,32,13
India,West_Bengal,Howrah,"Padmapukur, Howrah - WBPCB",25-04-2024 10:00:00,22.5687319,88.2797276,SO2,6,109,44
India,West_Bengal,Kolkata,"Bidhannagar, Kolkata - WBPCB",25-04-2024 10:00:00,22.58157048,88.41002457,PM2.5,47,78,62
India,West_Bengal,Kolkata,"Bidhannagar, Kolkata - WBPCB",25-04-2024 10:00:00,22.58157048,88.41002457,PM10,63,112,80
India,West_Bengal,Kolkata,"Fort William, Kolkata - WBPCB",25-04-2024 10:00:00,22.556640,88.342674,NO2,19,53,37
India,West_Bengal,Kolkata,"Fort William, Kolkata - WBPCB",25-04-2024 10:00:00,22.556640,88.342674,NH3,2,3,2
India,West_Bengal,Kolkata,"Fort William, Kolkata - WBPCB",25-04-2024 10:00:00,22.556640,88.342674,CO,14,34,23
India,West_Bengal,Kolkata,"Rabindra Bharati University, Kolkata - WBPCB",25-04-2024 10:00:00,22.627847,88.380669,NO2,32,36,34
India,West_Bengal,Kolkata,"Rabindra Sarobar, Kolkata - WBPCB",25-04-2024 10:00:00,22.51106,88.35142,CO,20,42,30
India,Andhra_Pradesh,Amaravati,"Secretariat, Amaravati - APPCB",25-04-2024 10:00:00,16.5150833,80.5181667,NO2,4,12,8
India,Andhra_Pradesh,Amaravati,"Secretariat, Amaravati - APPCB",25-04-2024 10:00:00,16.5150833,80.5181667,OZONE,3,61,10
India,Andhra_Pradesh,Anantapur,"Gulzarpet, Anantapur - APPCB",25-04-2024 10:00:00,14.675886,77.593027,PM2.5,NA,NA,NA
India,Andhra_Pradesh,Anantapur,"Gulzarpet, Anantapur - APPCB",25-04-2024 10:00:00,14.675886,77.593027,PM10,NA,NA,NA
India,Andhra_Pradesh,Chittoor,"Gangineni Cheruvu, Chittoor - APPCB",25-04-2024 10:00:00,13.204880,79.097889,PM10,31,128,78
India,Andhra_Pradesh,Kadapa,"Yerramukkapalli, Kadapa - APPCB",25-04-2024 10:00:00,14.465052,78.824187,PM10,15,56,36
India,Andhra_Pradesh,Tirupati,"Tirumala, Tirupati - APPCB",25-04-2024 10:00:00,13.67,79.35,PM10,50,117,72
India,Andhra_Pradesh,Tirupati,"Tirumala, Tirupati - APPCB",25-04-2024 10:00:00,13.67,79.35,SO2,1,15,8
India,Andhra_Pradesh,Tirupati,"Vaikuntapuram, Tirupati - APPCB",25-04-2024 10:00:00,13.615387,79.409230,OZONE,4,50,10
India,Andhra_Pradesh,Vijayawada,"HB Colony, Vijayawada - APPCB",25-04-2024 10:00:00,16.536107,80.594233,NO2,4,26,9
India,Andhra_Pradesh,Vijayawada,"Kanuru, Vijayawada - APPCB",25-04-2024 10:00:00,16.486692,80.699436,CO,28,50,38
India,Andhra_Pradesh,Vijayawada,"Kanuru, Vijayawada - APPCB",25-04-2024 10:00:00,16.486692,80.699436,OZONE,34,34,34
India,Andhra_Pradesh,Vijayawada,"Rajiv Gandhi Park, Vijayawada - APPCB",25-04-2024 10:00:00,16.509717,80.612222,PM10,26,81,50
India,Andhra_Pradesh,Vijayawada,"Rajiv Nagar, Vijayawada - APPCB",25-04-2024 10:00:00,16.554731,80.649110,OZONE,6,33,9
India,Andhra_Pradesh,Visakhapatnam,"GVM Corporation, Visakhapatnam - APPCB",25-04-2024 10:00:00,17.72,83.3,PM10,66,169,111
India,Arunachal_Pradesh,Naharlagun,"Naharlagun, Naharlagun - APSPCB",25-04-2024 10:00:00,27.103358,93.679645,SO2,4,4,4
India,Arunachal_Pradesh,Naharlagun,"Naharlagun, Naharlagun - APSPCB",25-04-2024 10:00:00,27.103358,93.679645,CO,8,25,12
India,Arunachal_Pradesh,Naharlagun,"Naharlagun, Naharlagun - APSPCB",25-04-2024 10:00:00,27.103358,93.679645,OZONE,2,2,2
India,Assam,Byrnihat,"Central Academy for SFS, Byrnihat - PCBA",25-04-2024 10:00:00,26.071318,91.87488,PM10,60,433,198
India,Assam,Byrnihat,"Central Academy for SFS, Byrnihat - PCBA",25-04-2024 10:00:00,26.071318,91.87488,NH3,6,9,8
India,Assam,Byrnihat,"Central Academy for SFS, Byrnihat - PCBA",25-04-2024 10:00:00,26.071318,91.87488,CO,32,77,51
India,Assam,Guwahati,"IITG, Guwahati - PCBA",25-04-2024 10:00:00,26.2028636,91.70046436,PM2.5,25,224,103
India,Assam,Guwahati,"IITG, Guwahati - PCBA",25-04-2024 10:00:00,26.2028636,91.70046436,NH3,5,5,5
India,Assam,Guwahati,"LGBI Airport, Guwahati - PCBA",25-04-2024 10:00:00,26.10887,91.589544,CO,26,52,48
India,Assam,Guwahati,"LGBI Airport, Guwahati - PCBA",25-04-2024 10:00:00,26.10887,91.589544,OZONE,5,14,10
India,Assam,Nagaon,"Christianpatty, Nagaon - PCBA",25-04-2024 10:00:00,26.349082,92.68449,PM2.5,NA,NA,NA
India,Assam,Nagaon,"Christianpatty, Nagaon - PCBA",25-04-2024 10:00:00,26.349082,92.68449,PM10,NA,NA,NA
India,Assam,Nalbari,"Bata Chowk, Nalbari - PCBA",25-04-2024 10:00:00,26.446912,91.439057,PM2.5,35,167,84
India,Assam,Nalbari,"Bata Chowk, Nalbari - PCBA",25-04-2024 10:00:00,26.446912,91.439057,SO2,7,18,12
India,Assam,Nalbari,"Bata Chowk, Nalbari - PCBA",25-04-2024 10:00:00,26.446912,91.439057,CO,52,106,63
India,Assam,Nalbari,"Bata Chowk, Nalbari - PCBA",25-04-2024 10:00:00,26.446912,91.439057,OZONE,70,189,79
India,Assam,Silchar,"Tarapur, Silchar - PCBA",25-04-2024 10:00:00,24.82827,92.79525,SO2,3,19,11
India,Assam,Sivasagar,"Girls College, Sivasagar - PCBA",25-04-2024 10:00:00,26.987634,94.636574,PM10,44,63,52
India,Assam,Sivasagar,"Girls College, Sivasagar - PCBA",25-04-2024 10:00:00,26.987634,94.636574,CO,12,18,12
India,Bihar,Araria,"Kharahiya Basti, Araria - BSPCB",25-04-2024 10:00:00,26.146529,87.454184,OZONE,8,10,9
India,Bihar,Arrah,"New DM Office, Arrah - BSPCB",25-04-2024 10:00:00,25.5626095,84.663264,CO,2,20,11
India,Bihar,Arrah,"New DM Office, Arrah - BSPCB",25-04-2024 10:00:00,25.5626095,84.663264,OZONE,11,45,20
India,Bihar,Bettiah,"Kamalnath Nagar, Bettiah - BSPCB",25-04-2024 10:00:00,26.80365,84.51954,SO2,9,22,15
India,Bihar,Bhagalpur,"DM Office_Kachari Chowk, Bhagalpur - BSPCB",25-04-2024 10:00:00,25.251013,86.989001,PM2.5,45,137,75
India,Bihar,Bhagalpur,"DM Office_Kachari Chowk, Bhagalpur - BSPCB",25-04-2024 10:00:00,25.251013,86.989001,OZONE,43,54,47
India,Bihar,Bhagalpur,"Mayaganj, Bhagalpur - BSPCB",25-04-2024 10:00:00,25.265194,87.012947,PM2.5,42,177,78
India,Bihar,Bhagalpur,"Mayaganj, Bhagalpur - BSPCB",25-04-2024 10:00:00,25.265194,87.012947,PM10,36,114,64
India,Bihar,Gaya,"Collectorate, Gaya - BSPCB",25-04-2024 10:00:00,24.7955,84.9994,PM2.5,33,262,133
India,Bihar,Gaya,"Collectorate, Gaya - BSPCB",25-04-2024 10:00:00,24.7955,84.9994,SO2,5,22,15
India,Bihar,Gaya,"Kareemganj, Gaya - BSPCB",25-04-2024 10:00:00,24.792403,84.992416,OZONE,1,21,10
India,Bihar,Gaya,"SFTI Kusdihra, Gaya - BSPCB",25-04-2024 10:00:00,24.762518,84.982348,PM2.5,27,133,70
India,Bihar,Hajipur,"Industrial Area, Hajipur - BSPCB",25-04-2024 10:00:00,25.697189,85.245900,NO2,5,80,43
India,Bihar,Katihar,"Mirchaibari, Katihar - BSPCB",25-04-2024 10:00:00,25.560083,87.553265,PM2.5,18,58,34
India,Bihar,Katihar,"Mirchaibari, Katihar - BSPCB",25-04-2024 10:00:00,25.560083,87.553265,PM10,57,169,111
India,Bihar,Katihar,"Mirchaibari, Katihar - BSPCB",25-04-2024 10:00:00,25.560083,87.553265,CO,31,72,60
India,Bihar,Kishanganj,"SDM Office_Khagra, Kishanganj - BSPCB",25-04-2024 10:00:00,26.0881305,87.93840336,CO,2,7,7
India,Bihar,Kishanganj,"SDM Office_Khagra, Kishanganj - BSPCB",25-04-2024 10:00:00,26.0881305,87.93840336,OZONE,57,65,58
India,Bihar,Munger,"Town Hall, Munger - BSPCB",25-04-2024 10:00:00,25.376776,86.471523,NH3,2,2,2
India,Bihar,Muzaffarpur,"Buddha Colony, Muzaffarpur - BSPCB",25-04-2024 10:00:00,26.11442,85.39813,PM2.5,179,326,260
India,Bihar,Muzaffarpur,"Buddha Colony, Muzaffarpur - BSPCB",25-04-2024 10:00:00,26.11442,85.39813,NH3,16,22,20
India,Bihar,Muzaffarpur,"MIT-Daudpur Kothi, Muzaffarpur - BSPCB",25-04-2024 10:00:00,26.1403345,85.3650192,PM2.5,NA,NA,NA
India,Bihar,Muzaffarpur,"MIT-Daudpur Kothi, Muzaffarpur - BSPCB",25-04-2024 10:00:00,26.1403345,85.3650192,PM10,NA,NA,NA
India,Bihar,Muzaffarpur,"MIT-Daudpur Kothi, Muzaffarpur - BSPCB",25-04-2024 10:00:00,26.1403345,85.3650192,NH3,1,2,1
India,Bihar,Muzaffarpur,"Muzaffarpur Collectorate, Muzaffarpur - BSPCB",25-04-2024 10:00:00,26.1209,85.3647,SO2,9,14,11
India,Bihar,Muzaffarpur,"Muzaffarpur Collectorate, Muzaffarpur - BSPCB",25-04-2024 10:00:00,26.1209,85.3647,CO,45,83,49
India,Bihar,Patna,"DRM Office Danapur, Patna - BSPCB",25-04-2024 10:00:00,25.586562,85.043586,CO,9,102,30
India,Bihar,Patna,"Govt. High School Shikarpur, Patna - BSPCB",25-04-2024 10:00:00,25.592539,85.227158,PM10,118,353,168
India,Bihar,Patna,"Govt. High School Shikarpur, Patna - BSPCB",25-04-2024 10:00:00,25.592539,85.227158,CO,26,62,47
India,Bihar,Patna,"IGSC Planetarium Complex, Patna - BSPCB",25-04-2024 10:00:00,25.610369,85.132568,PM2.5,45,323,152
India,Bihar,Patna,"IGSC Planetarium Complex, Patna - BSPCB",25-04-2024 10:00:00,25.610369,85.132568,NO2,11,12,11
India,Bihar,Patna,"Muradpur, Patna - BSPCB",25-04-2024 10:00:00,25.619651,85.147382,PM2.5,93,384,298
India,Bihar,Patna,"Muradpur, Patna - BSPCB",25-04-2024 10:00:00,25.619651,85.147382,NH3,2,4,3
India,Bihar,Patna,"Muradpur, Patna - BSPCB",25-04-2024 10:00:00,25.619651,85.147382,CO,2,94,63
India,Bihar,Patna,"Rajbansi Nagar, Patna - BSPCB",25-04-2024 10:00:00,25.599486,85.113666,NO2,17,44,25
India,Bihar,Patna,"Rajbansi Nagar, Patna - BSPCB",25-04-2024 10:00:00,25.599486,85.113666,CO,24,79,36
India,Bihar,Patna,"Rajbansi Nagar, Patna - BSPCB",25-04-2024 10:00:00,25.599486,85.113666,OZONE,13,118,56
India,Bihar,Patna,"Samanpura, Patna - BSPCB",25-04-2024 10:00:00,25.596727,85.085624,PM10,154,454,282
India,Bihar,Patna,"Samanpura, Patna - BSPCB",25-04-2024 10:00:00,25.596727,85.085624,NO2,12,107,40
India,Bihar,Patna,"Samanpura, Patna - BSPCB",25-04-2024 10:00:00,25.596727,85.085624,NH3,12,22,15
India,Bihar,Purnia,"Mariam Nagar, Purnia - BSPCB",25-04-2024 10:00:00,25.366336,87.117468,OZONE,8,23,10
India,Bihar,Rajgir,"Dangi Tola, Rajgir - BSPCB",25-04-2024 10:00:00,25.03280,85.41948,PM10,28,130,64
India,Bihar,Rajgir,"Dangi Tola, Rajgir - BSPCB",25-04-2024 10:00:00,25.03280,85.41948,NO2,18,27,20
India,Bihar,Rajgir,"Dangi Tola, Rajgir - BSPCB",25-04-2024 10:00:00,25.03280,85.41948,NH3,2,2,2
India,Bihar,Samastipur,"DM Office_Kasipur, Samastipur - BSPCB",25-04-2024 10:00:00,25.859655,85.77944,SO2,9,11,10
India,Bihar,Samastipur,"DM Office_Kasipur, Samastipur - BSPCB",25-04-2024 10:00:00,25.859655,85.77944,CO,11,23,23
India,Bihar,Samastipur,"DM Office_Kasipur, Samastipur - BSPCB",25-04-2024 10:00:00,25.859655,85.77944,OZONE,9,20,11
India,Bihar,Sasaram,"Dada Peer, Sasaram - BSPCB",25-04-2024 10:00:00,24.952822,84.002396,PM2.5,NA,NA,NA
India,Bihar,Sasaram,"Dada Peer, Sasaram - BSPCB",25-04-2024 10:00:00,24.952822,84.002396,PM10,NA,NA,NA
India,Bihar,Sasaram,"Dada Peer, Sasaram - BSPCB",25-04-2024 10:00:00,24.952822,84.002396,NH3,7,45,17
India,Chandigarh,Chandigarh,"Sector 22, Chandigarh - CPCC",25-04-2024 10:00:00,30.735567,76.775714,PM10,41,150,84
India,Chandigarh,Chandigarh,"Sector 22, Chandigarh - CPCC",25-04-2024 10:00:00,30.735567,76.775714,SO2,11,26,17
India,Chandigarh,Chandigarh,"Sector 22, Chandigarh - CPCC",25-04-2024 10:00:00,30.735567,76.775714,CO,34,84,53
India,Chandigarh,Chandigarh,"Sector-25, Chandigarh - CPCC",25-04-2024 10:00:00,30.751462,76.762879,NO2,11,53,23
India,Chandigarh,Chandigarh,"Sector-25, Chandigarh - CPCC",25-04-2024 10:00:00,30.751462,76.762879,OZONE,3,57,13
India,Chandigarh,Chandigarh,"Sector-53, Chandigarh - CPCC",25-04-2024 10:00:00,30.719859,76.738637,PM10,51,236,112
India,Chandigarh,Chandigarh,"Sector-53, Chandigarh - CPCC",25-04-2024 10:00:00,30.719859,76.738637,CO,28,115,41
India,Chhattisgarh,Bhilai,"32Bungalows, Bhilai - CECB",25-04-2024 10:00:00,21.194815,81.314770,NH3,6,6,6
India,Chhattisgarh,Bhilai,"Civic Center, Bhilai - Bhilai Steel Plant",25-04-2024 10:00:00,21.185571,81.343175,CO,30,65,43
India,Chhattisgarh,Bilaspur,"Mangala, Bilaspur - NTPC",25-04-2024 10:00:00,22.08815,82.13737,NO2,NA,NA,NA
India,Chhattisgarh,Chhal,"Nawapara SECL Colony, Chhal - CECB",25-04-2024 10:00:00,22.118125,83.140608,PM2.5,34,224,83
India,Chhattisgarh,Chhal,"Nawapara SECL Colony, Chhal - CECB",25-04-2024 10:00:00,22.118125,83.140608,NH3,2,2,2
India,Chhattisgarh,Chhal,"Nawapara SECL Colony, Chhal - CECB",25-04-2024 10:00:00,22.118125,83.140608,CO,24,94,55
India,Chhattisgarh,Korba,"Rampur, Korba - CECB",25-04-2024 10:00:00,22.368195,82.746431,CO,16,35,29
India,Chhattisgarh,Korba,"Urja Nagar, Korba - CECB",25-04-2024 10:00:00,22.348441,82.549611,PM2.5,36,225,69
India,Chhattisgarh,Raipur,"AIIMS, Raipur - CECB",25-04-2024 10:00:00,21.258815,81.578979,NH3,NA,NA,NA
India,Chhattisgarh,Raipur,"AIIMS, Raipur - CECB",25-04-2024 10:00:00,21.258815,81.578979,SO2,NA,NA,NA
India,Chhattisgarh,Raipur,"Bhatagaon New ISBT, Raipur - CECB",25-04-2024 10:00:00,21.219665,81.630094,SO2,1,3,2
India,Chhattisgarh,Raipur,"Bhatagaon New ISBT, Raipur - CECB",25-04-2024 10:00:00,21.219665,81.630094,OZONE,3,6,4
India,Chhattisgarh,Raipur,"Krishak Nagar, Raipur - CECB",25-04-2024 10:00:00,21.237755,81.705301,NO2,16,17,17
India,Chhattisgarh,Raipur,"Krishak Nagar, Raipur - CECB",25-04-2024 10:00:00,21.237755,81.705301,NH3,NA,NA,NA
India,Chhattisgarh,Raipur,"Siltara Phase-II, Raipur - CECB",25-04-2024 10:00:00,21.371751,81.664929,PM2.5,25,271,111
India,Chhattisgarh,Raipur,"Siltara Phase-II, Raipur - CECB",25-04-2024 10:00:00,21.371751,81.664929,NH3,3,3,3
India,Chhattisgarh,Tumidih,"OP Jindal Industrial Park, Tumidih - CECB",25-04-2024 10:00:00,22.06631475,83.33820077,SO2,5,11,6
India,Chhattisgarh,Tumidih,"OP Jindal Industrial Park, Tumidih - CECB",25-04-2024 10:00:00,22.06631475,83.33820077,OZONE,4,70,15
India,Delhi,Delhi,"Ashok Vihar, Delhi - DPCC",25-04-2024 10:00:00,28.695381,77.181665,NO2,12,141,72
India,Delhi,Delhi,"Ashok Vihar, Delhi - DPCC",25-04-2024 10:00:00,28.695381,77.181665,NH3,7,20,13
India,Delhi,Delhi,"Aya Nagar, Delhi - IMD",25-04-2024 10:00:00,28.4706914,77.1099364,PM10,78,444,202
India,Delhi,Delhi,"Bawana, Delhi - DPCC",25-04-2024 10:00:00,28.776200,77.051074,PM10,74,487,224
India,Delhi,Delhi,"Bawana, Delhi - DPCC",25-04-2024 10:00:00,28.776200,77.051074,NO2,10,88,49
India,Delhi,Delhi,"Burari Crossing, Delhi - IMD",25-04-2024 10:00:00,28.7256504,77.2011573,PM2.5,6,341,154
India,Delhi,Delhi,"Burari Crossing, Delhi - IMD",25-04-2024 10:00:00,28.7256504,77.2011573,CO,14,71,52
India,Delhi,Delhi,"Chandni Chowk, Delhi - IITM",25-04-2024 10:00:00,28.656756,77.227234,SO2,NA,NA,NA
India,Delhi,Delhi,"DTU, Delhi - CPCB",25-04-2024 10:00:00,28.7500499,77.1112615,SO2,34,76,39
India,Delhi,Delhi,"Dr. Karni Singh Shooting Range, Delhi - DPCC",25-04-2024 10:00:00,28.498571,77.264840,NO2,26,186,104
India,Delhi,Delhi,"Dwarka-Sector 8, Delhi - DPCC ",25-04-2024 10:00:00,28.5710274,77.0719006,NO2,13,65,36
India,Delhi,Delhi,"Dwarka-Sector 8, Delhi - DPCC ",25-04-2024 10:00:00,28.5710274,77.0719006,SO2,7,72,22
India,Delhi,Delhi,"Dwarka-Sector 8, Delhi - DPCC ",25-04-2024 10:00:00,28.5710274,77.0719006,CO,40,109,91
India,Delhi,Delhi,"IGI Airport (T3), Delhi - IMD",25-04-2024 10:00:00,28.5627763,77.1180053,PM2.5,20,385,132
India,Delhi,Delhi,"ITO, Delhi - CPCB",25-04-2024 10:00:00,28.628624,77.241060,OZONE,7,84,15
India,Delhi,Delhi,"Jawaharlal Nehru Stadium, Delhi - DPCC",25-04-2024 10:00:00,28.580280,77.233829,NH3,9,17,12
India,Delhi,Delhi,"Lodhi Road, Delhi - IMD",25-04-2024 10:00:00,28.5918245,77.2273074,NO2,3,13,9
India,Delhi,Delhi,"Lodhi Road, Delhi - IMD",25-04-2024 10:00:00,28.5918245,77.2273074,CO,5,38,32
India,Delhi,Delhi,"Major Dhyan Chand National Stadium, Delhi - DPCC",25-04-2024 10:00:00,28.611281,77.237738,PM2.5,33,402,141
India,Delhi,Delhi,"Major Dhyan Chand National Stadium, Delhi - DPCC",25-04-2024 10:00:00,28.611281,77.237738,NH3,8,12,10
India,Delhi,Delhi,"Mandir Marg, Delhi - DPCC",25-04-2024 10:00:00,28.636429,77.201067,PM2.5,20,381,122
India,Delhi,Delhi,"Mandir Marg, Delhi - DPCC",25-04-2024 10:00:00,28.636429,77.201067,OZONE,1,24,5
India,Delhi,Delhi,"Mundka, Delhi - DPCC",25-04-2024 10:00:00,28.684678,77.076574,PM2.5,NA,NA,NA
India,Delhi,Delhi,"Mundka, Delhi - DPCC",25-04-2024 10:00:00,28.684678,77.076574,NH3,NA,NA,NA
India,Delhi,Delhi,"Mundka, Delhi - DPCC",25-04-2024 10:00:00,28.684678,77.076574,CO,NA,NA,NA
India,Delhi,Delhi,"NSIT Dwarka, Delhi - CPCB",25-04-2024 10:00:00,28.60909,77.0325413,SO2,8,86,30
India,Delhi,Delhi,"NSIT Dwarka, Delhi - CPCB",25-04-2024 10:00:00,28.60909,77.0325413,CO,25,49,35
India,Delhi,Delhi,"Najafgarh, Delhi - DPCC",25-04-2024 10:00:00,28.570173,76.933762,NH3,7,19,10
India,Delhi,Delhi,"Narela, Delhi - DPCC",25-04-2024 10:00:00,28.822836,77.101981,PM10,69,454,215
India,Delhi,Delhi,"Nehru Nagar, Delhi - DPCC",25-04-2024 10:00:00,28.567890,77.250515,PM10,70,278,136
India,Delhi,Delhi,"Nehru Nagar, Delhi - DPCC",25-04-2024 10:00:00,28.567890,77.250515,CO,48,74,56
India,Delhi,Delhi,"New Moti Bagh, Delhi - MHUA",25-04-2024 10:00:00,28.57834,77.18400,PM2.5,18,360,144
India,Delhi,Delhi,"Patparganj, Delhi - DPCC",25-04-2024 10:00:00,28.623763,77.287209,NH3,NA,NA,NA
India,Delhi,Delhi,"Patparganj, Delhi - DPCC",25-04-2024 10:00:00,28.623763,77.287209,SO2,NA,NA,NA
India,Delhi,Delhi,"Punjabi Bagh, Delhi - DPCC",25-04-2024 10:00:00,28.674045,77.131023,PM2.5,13,440,176
India,Delhi,Delhi,"Punjabi Bagh, Delhi - DPCC",25-04-2024 10:00:00,28.674045,77.131023,NH3,4,6,4
India,Delhi,Delhi,"Pusa, Delhi - DPCC",25-04-2024 10:00:00,28.639652,77.146275,PM2.5,27,438,120
India,Delhi,Delhi,"Pusa, Delhi - IMD",25-04-2024 10:00:00,28.636110,77.173332,OZONE,3,60,8
India,Delhi,Delhi,"R K Puram, Delhi - DPCC",25-04-2024 10:00:00,28.563262,77.186937,PM2.5,37,457,169
India,Delhi,Delhi,"R K Puram, Delhi - DPCC",25-04-2024 10:00:00,28.563262,77.186937,NH3,4,6,5
India,Delhi,Delhi,"Sonia Vihar, Delhi - DPCC",25-04-2024 10:00:00,28.710508,77.249485,CO,52,103,88
India,Delhi,Delhi,"Sri Aurobindo Marg, Delhi - DPCC",25-04-2024 10:00:00,28.531346,77.190156,SO2,7,90,19
India,Delhi,Delhi,"Sri Aurobindo Marg, Delhi - DPCC",25-04-2024 10:00:00,28.531346,77.190156,CO,4,56,42
India,Delhi,Delhi,"Vivek Vihar, Delhi - DPCC",25-04-2024 10:00:00,28.672342,77.315260,NH3,15,16,15
India,Delhi,Delhi,"Wazirpur, Delhi - DPCC",25-04-2024 10:00:00,28.699793,77.165453,NH3,12,13,13
India,Delhi,Delhi,"Wazirpur, Delhi - DPCC",25-04-2024 10:00:00,28.699793,77.165453,CO,44,120,105
India,Gujarat,Ahmedabad,"Maninagar, Ahmedabad - GPCB",25-04-2024 10:00:00,23.002657,72.591912,OZONE,15,56,33
India,Gujarat,Ahmedabad,"Raikhad, Ahmedabad - IITM",25-04-2024 10:00:00,23.020509,72.579261,CO,2,129,19
India,Gujarat,Ahmedabad,"SAC ISRO Satellite, Ahmedabad - IITM",25-04-2024 10:00:00,23.023389,72.515201,NO2,17,17,17
India,Gujarat,Ahmedabad,"SVPI Airport Hansol, Ahmedabad - IITM",25-04-2024 10:00:00,23.076793,72.627874,NO2,16,30,23
India,Gujarat,Ahmedabad,"SVPI Airport Hansol, Ahmedabad - IITM",25-04-2024 10:00:00,23.076793,72.627874,SO2,2,19,8
India,Gujarat,Ahmedabad,"SVPI Airport Hansol, Ahmedabad - IITM",25-04-2024 10:00:00,23.076793,72.627874,OZONE,8,47,14
India,Gujarat,Gandhinagar,"Sector-10, Gandhinagar - GPCB",25-04-2024 10:00:00,23.221714,72.654328,NH3,1,1,1
India,Gujarat,Gandhinagar,"Sector-10, Gandhinagar - GPCB",25-04-2024 10:00:00,23.221714,72.654328,SO2,5,5,5
India,Gujarat,Nandesari,"GIDC, Nandesari - Nandesari Ind. Association",25-04-2024 10:00:00,22.410802,73.097923,PM10,102,264,160
India,Gujarat,Surat,"Science Center, Surat - SMC",25-04-2024 10:00:00,21.170046,72.795405,PM2.5,2,34,15
India,Gujarat,Vapi,"Phase-1 GIDC, Vapi - GPCB",25-04-2024 10:00:00,20.362421,72.918013,NO2,6,8,7
India,Gujarat,Vatva,"Phase-4 GIDC, Vatva - GPCB",25-04-2024 10:00:00,22.969611,72.643500,PM2.5,31,95,58
India,Gujarat,Vatva,"Phase-4 GIDC, Vatva - GPCB",25-04-2024 10:00:00,22.969611,72.643500,PM10,70,167,110
India,Gujarat,Vatva,"Phase-4 GIDC, Vatva - GPCB",25-04-2024 10:00:00,22.969611,72.643500,NH3,1,10,7
India,Gujarat,Vatva,"Phase-4 GIDC, Vatva - GPCB",25-04-2024 10:00:00,22.969611,72.643500,SO2,1,24,10
India,Haryana,Ambala,"Patti Mehar, Ambala - HSPCB",25-04-2024 10:00:00,30.379589,76.778328,NO2,3,4,4
India,Haryana,Ambala,"Patti Mehar, Ambala - HSPCB",25-04-2024 10:00:00,30.379589,76.778328,NH3,8,8,8
India,Haryana,Bahadurgarh,"Arya Nagar, Bahadurgarh - HSPCB",25-04-2024 10:00:00,28.6701,76.9254,PM2.5,10,104,53
India,Haryana,Bhiwani,"H.B. Colony, Bhiwani - HSPCB",25-04-2024 10:00:00,28.806223,76.141105,PM2.5,38,227,107
India,Haryana,Bhiwani,"H.B. Colony, Bhiwani - HSPCB",25-04-2024 10:00:00,28.806223,76.141105,NO2,1,13,8
India,Haryana,Charkhi Dadri,"Mini Secretariat, Charkhi Dadri - HSPCB",25-04-2024 10:00:00,28.593883,76.270653,PM2.5,43,318,167
India,Haryana,Dharuhera,"Municipal Corporation Office, Dharuhera -  HSPCB",25-04-2024 10:00:00,28.206800,76.799700,PM10,18,371,208
India,Haryana,Faridabad,"New Industrial Town, Faridabad - HSPCB",25-04-2024 10:00:00,28.39072,77.30059,PM10,105,429,165
India,Haryana,Faridabad,"New Industrial Town, Faridabad - HSPCB",25-04-2024 10:00:00,28.39072,77.30059,SO2,12,43,18
India,Haryana,Faridabad,"Sector 11, Faridabad - HSPCB",25-04-2024 10:00:00,28.376058,77.315741,PM10,133,448,251
India,Haryana,Faridabad,"Sector 11, Faridabad - HSPCB",25-04-2024 10:00:00,28.376058,77.315741,SO2,1,117,8
India,Haryana,Faridabad,"Sector 11, Faridabad - HSPCB",25-04-2024 10:00:00,28.376058,77.315741,OZONE,3,10,4
India,Haryana,Faridabad,"Sector 30, Faridabad - HSPCB",25-04-2024 10:00:00,28.4417,77.3217,CO,18,62,60
India,Haryana,Faridabad,"Sector- 16A, Faridabad - HSPCB",25-04-2024 10:00:00,28.4088421,77.3099081,OZONE,14,14,14
India,Haryana,Fatehabad,"Huda Sector, Fatehabad - HSPCB",25-04-2024 10:00:00,29.503664,75.467934,PM10,93,171,119
India,Haryana,Gurugram,"Sector-51, Gurugram - HSPCB",25-04-2024 10:00:00,28.4227,77.0667,PM2.5,80,500,281
India,Haryana,Gurugram,"Sector-51, Gurugram - HSPCB",25-04-2024 10:00:00,28.4227,77.0667,PM10,70,460,205
India,Haryana,Gurugram,"Sector-51, Gurugram - HSPCB",25-04-2024 10:00:00,28.4227,77.0667,SO2,3,7,3
India,Haryana,Gurugram,"Vikas Sadan, Gurugram - HSPCB",25-04-2024 10:00:00,28.4501238,77.0263051,NO2,5,24,14
India,Haryana,Jind,"Police Lines, Jind - HSPCB",25-04-2024 10:00:00,29.307814,76.337619,NO2,7,15,11
India,Haryana,Jind,"Police Lines, Jind - HSPCB",25-04-2024 10:00:00,29.307814,76.337619,CO,3,68,16
India,Haryana,Kaithal,"Rishi Nagar, Kaithal - HSPCB",25-04-2024 10:00:00,29.8006,76.4155,PM10,93,148,125
India,Haryana,Kurukshetra,"Sector-7, Kurukshetra - HSPCB",25-04-2024 10:00:00,29.966942,76.875879,OZONE,20,79,33
India,Haryana,Mandikhera,"General Hospital, Mandikhera - HSPCB",25-04-2024 10:00:00,27.9002,76.9938,CO,10,36,27
India,Haryana,Manesar,"Sector-2 IMT, Manesar - HSPCB",25-04-2024 10:00:00,28.360699,76.936090,OZONE,3,142,34
India,Haryana,Narnaul,"Shastri Nagar, Narnaul - HSPCB",25-04-2024 10:00:00,28.060249,76.113115,SO2,12,27,14
India,Haryana,Narnaul,"Shastri Nagar, Narnaul - HSPCB",25-04-2024 10:00:00,28.060249,76.113115,CO,18,34,32
India,Haryana,Palwal,"Shyam Nagar, Palwal - HSPCB",25-04-2024 10:00:00,28.1485564,77.3320667,SO2,2,20,9
India,Haryana,Palwal,"Shyam Nagar, Palwal - HSPCB",25-04-2024 10:00:00,28.1485564,77.3320667,CO,18,38,32
India,Haryana,Rohtak,"MD University, Rohtak - HSPCB",25-04-2024 10:00:00,28.52123,76.37138,PM2.5,6,163,62
India,Haryana,Sirsa,"F-Block, Sirsa - HSPCB",25-04-2024 10:00:00,29.536400,75.015800,NH3,12,13,13
India,Haryana,Sirsa,"F-Block, Sirsa - HSPCB",25-04-2024 10:00:00,29.536400,75.015800,SO2,7,82,62
India,Haryana,Sonipat,"Murthal, Sonipat - HSPCB",25-04-2024 10:00:00,29.027200,77.062100,PM2.5,42,45,43
India,Haryana,Sonipat,"Murthal, Sonipat - HSPCB",25-04-2024 10:00:00,29.027200,77.062100,CO,10,28,22
India,Haryana,Sonipat,"Murthal, Sonipat - HSPCB",25-04-2024 10:00:00,29.027200,77.062100,OZONE,16,36,20
India,Himachal Pradesh,Baddi,"HIMUDA Complex Phase-1, Baddi - HPPCB",25-04-2024 10:00:00,30.943887,76.801991,NO2,4,64,14
India,Jharkhand,Dhanbad,"Kalakusuma, Dhanbad - DMC",25-04-2024 10:00:00,23.811548,86.481238,CO,129,134,132
India,Karnataka,Bagalkot,"Vidayagiri, Bagalkot - KSPCB",25-04-2024 10:00:00,16.172806,75.659694,NH3,1,2,1
India,Karnataka,Belgaum,"Ramteerth Nagar, Belgaum - KSPCB",25-04-2024 10:00:00,15.888653,74.541751,NH3,3,7,4
India,Karnataka,Bengaluru,"BTM Layout, Bengaluru - CPCB",25-04-2024 10:00:00,12.9135218,77.5950804,NO2,26,37,32
India,Karnataka,Bengaluru,"Hebbal, Bengaluru - KSPCB",25-04-2024 10:00:00,13.029152,77.585901,SO2,14,25,20
India,Karnataka,Bengaluru,"Jayanagar 5th Block, Bengaluru - KSPCB",25-04-2024 10:00:00,12.920984,77.584908,NO2,4,8,6
India,Karnataka,Bengaluru,"Jayanagar 5th Block, Bengaluru - KSPCB",25-04-2024 10:00:00,12.920984,77.584908,SO2,12,35,26
India,Karnataka,Bengaluru,"Jayanagar 5th Block, Bengaluru - KSPCB",25-04-2024 10:00:00,12.920984,77.584908,OZONE,22,22,22
India,Karnataka,Bengaluru,"Peenya, Bengaluru - CPCB",25-04-2024 10:00:00,13.0270199,77.494094,PM2.5,57,77,69
India,Karnataka,Bengaluru,"Peenya, Bengaluru - CPCB",25-04-2024 10:00:00,13.0270199,77.494094,NH3,3,5,4
India,Karnataka,Bengaluru,"RVCE-Mailasandra, Bengaluru - KSPCB",25-04-2024 10:00:00,12.921418,77.502466,OZONE,39,39,39
India,Karnataka,Bengaluru,"Shivapura_Peenya, Bengaluru - KSPCB",25-04-2024 10:00:00,13.0246342,77.5080115,NO2,15,16,15
India,Karnataka,Bengaluru,"Silk Board, Bengaluru - KSPCB",25-04-2024 10:00:00,12.917348,77.622813,NO2,7,34,13
