country,state,city,station,last_update,latitude,longitude,pollutant_id,pollutant_min,pollutant_max,pollutant_avg
India,Andhra_Pradesh,Amaravati,"Secretariat, Amaravati - APPCB",22-01-2024 21:00:00,16.5150833,80.5181667,PM2.5,22,48,36
India,Andhra_Pradesh,Amaravati,"Secretariat, Amaravati - APPCB",22-01-2024 21:00:00,16.5150833,80.5181667,PM10,33,65,45
India,Andhra_Pradesh,Amaravati,"Secretariat, Amaravati - APPCB",22-01-2024 21:00:00,16.5150833,80.5181667,CO,7,28,22
India,Andhra_Pradesh,Anantapur,"Gulzarpet, Anantapur - APPCB",22-01-2024 21:00:00,14.675886,77.593027,NH3,2,3,3
India,Andhra_Pradesh,Chittoor,"Gangineni Cheruvu, Chittoor - APPCB",22-01-2024 21:00:00,13.204880,79.097889,NO2,NA,NA,NA
India,Andhra_Pradesh,Chittoor,"Gangineni Cheruvu, Chittoor - APPCB",22-01-2024 21:00:00,13.204880,79.097889,NH3,NA,NA,NA
India,Andhra_Pradesh,Kadapa,"Yerramukkapalli, Kadapa - APPCB",22-01-2024 21:00:00,14.465052,78.824187,PM10,26,43,32
India,Andhra_Pradesh,Kadapa,"Yerramukkapalli, Kadapa - APPCB",22-01-2024 21:00:00,14.465052,78.824187,CO,14,20,18
India,Andhra_Pradesh,Rajamahendravaram,"Anand Kala Kshetram, Rajamahendravaram - APPCB",22-01-2024 21:00:00,16.9872867,81.7363176,CO,2,75,21
India,Andhra_Pradesh,Tirupati,"Tirumala, Tirupati - APPCB",22-01-2024 21:00:00,13.67,79.35,PM2.5,48,85,65
India,Andhra_Pradesh,Tirupati,"Vaikuntapuram, Tirupati - APPCB",22-01-2024 21:00:00,13.615387,79.409230,OZONE,1,47,36
India,Andhra_Pradesh,Vijayawada,"HB Colony, Vijayawada - APPCB",22-01-2024 21:00:00,16.536107,80.594233,NH3,NA,NA,NA
India,Andhra_Pradesh,Vijayawada,"HB Colony, Vijayawada - APPCB",22-01-2024 21:00:00,16.536107,80.594233,OZONE,NA,NA,NA
India,Andhra_Pradesh,Visakhapatnam,"GVM Corporation, Visakhapatnam - APPCB",22-01-2024 21:00:00,17.72,83.3,CO,26,85,53
India,Arunachal_Pradesh,Naharlagun,"Naharlagun, Naharlagun - APSPCB",22-01-2024 21:00:00,27.103358,93.679645,NO2,NA,NA,NA
India,Arunachal_Pradesh,Naharlagun,"Naharlagun, Naharlagun - APSPCB",22-01-2024 21:00:00,27.103358,93.679645,OZONE,2,2,2
India,Assam,Byrnihat,"Central Academy for SFS, Byrnihat - PCBA",22-01-2024 21:00:00,26.071318,91.87488,CO,3,154,69
India,Assam,Guwahati,"LGBI Airport, Guwahati - PCBA",22-01-2024 21:00:00,26.10887,91.589544,PM10,171,421,308
India,Assam,Guwahati,"LGBI Airport, Guwahati - PCBA",22-01-2024 21:00:00,26.10887,91.589544,SO2,12,16,14
India,Assam,Guwahati,"Pan Bazaar, Guwahati - PCBA",22-01-2024 21:00:00,26.187500,91.744194,PM10,181,400,216
India,Assam,Guwahati,"Pan Bazaar, Guwahati - PCBA",22-01-2024 21:00:00,26.187500,91.744194,NO2,1,13,5
India,Assam,Guwahati,"Pan Bazaar, Guwahati - PCBA",22-01-2024 21:00:00,26.187500,91.744194,SO2,56,86,62
India,Assam,Guwahati,"Railway Colony, Guwahati - PCBA",22-01-2024 21:00:00,26.181742,91.78063,PM2.5,286,481,325
India,Assam,Nagaon,"Christianpatty, Nagaon - PCBA",22-01-2024 21:00:00,26.349082,92.68449,PM2.5,130,500,290
India,Assam,Nagaon,"Christianpatty, Nagaon - PCBA",22-01-2024 21:00:00,26.349082,92.68449,NO2,12,27,17
India,Assam,Nalbari,"Bata Chowk, Nalbari - PCBA",22-01-2024 21:00:00,26.446912,91.439057,PM10,149,280,196
India,Assam,Nalbari,"Bata Chowk, Nalbari - PCBA",22-01-2024 21:00:00,26.446912,91.439057,NH3,1,3,2
India,Assam,Nalbari,"Bata Chowk, Nalbari - PCBA",22-01-2024 21:00:00,26.446912,91.439057,OZONE,8,93,69
India,Assam,Silchar,"Tarapur, Silchar - PCBA",22-01-2024 21:00:00,24.82827,92.79525,NO2,27,44,34
India,Assam,Silchar,"Tarapur, Silchar - PCBA",22-01-2024 21:00:00,24.82827,92.79525,NH3,1,1,1
India,Assam,Silchar,"Tarapur, Silchar - PCBA",22-01-2024 21:00:00,24.82827,92.79525,OZONE,1,5,2
India,Assam,Sivasagar,"Girls College, Sivasagar - PCBA",22-01-2024 21:00:00,26.987634,94.636574,NH3,3,3,3
India,Bihar,Araria,"Kharahiya Basti, Araria - BSPCB",22-01-2024 21:00:00,26.146529,87.454184,SO2,9,17,15
India,Bihar,Arrah,"New DM Office, Arrah - BSPCB",22-01-2024 21:00:00,25.5626095,84.663264,PM2.5,NA,NA,NA
India,Bihar,Arrah,"New DM Office, Arrah - BSPCB",22-01-2024 21:00:00,25.5626095,84.663264,NH3,NA,NA,NA
India,Bihar,Arrah,"New DM Office, Arrah - BSPCB",22-01-2024 21:00:00,25.5626095,84.663264,SO2,NA,NA,NA
India,Bihar,Aurangabad,"Gurdeo Nagar, Aurangabad - BSPCB",22-01-2024 21:00:00,24.75746,84.366208,SO2,5,34,14
India,Bihar,Aurangabad,"Gurdeo Nagar, Aurangabad - BSPCB",22-01-2024 21:00:00,24.75746,84.366208,OZONE,1,54,23
India,Bihar,Bettiah,"Kamalnath Nagar, Bettiah - BSPCB",22-01-2024 21:00:00,26.80365,84.51954,PM2.5,22,113,39
India,Bihar,Bhagalpur,"DM Office_Kachari Chowk, Bhagalpur - BSPCB",22-01-2024 21:00:00,25.251013,86.989001,PM2.5,297,372,325
India,Bihar,Bhagalpur,"DM Office_Kachari Chowk, Bhagalpur - BSPCB",22-01-2024 21:00:00,25.251013,86.989001,PM10,132,232,170
India,Bihar,Bhagalpur,"DM Office_Kachari Chowk, Bhagalpur - BSPCB",22-01-2024 21:00:00,25.251013,86.989001,OZONE,22,32,26
India,Bihar,Bihar Sharif,"D M Colony, Bihar Sharif - BSPCB",22-01-2024 21:00:00,25.204762,85.514960,PM2.5,23,65,39
India,Bihar,Bihar Sharif,"D M Colony, Bihar Sharif - BSPCB",22-01-2024 21:00:00,25.204762,85.514960,CO,13,53,28
India,Bihar,Chhapra,"Darshan Nagar, Chhapra - BSPCB",22-01-2024 21:00:00,25.7808257,84.7446768,OZONE,1,4,2
India,Bihar,Gaya,"Kareemganj, Gaya - BSPCB",22-01-2024 21:00:00,24.792403,84.992416,NO2,23,31,29
India,Bihar,Gaya,"SFTI Kusdihra, Gaya - BSPCB",22-01-2024 21:00:00,24.762518,84.982348,PM2.5,35,303,140
India,Bihar,Gaya,"SFTI Kusdihra, Gaya - BSPCB",22-01-2024 21:00:00,24.762518,84.982348,NO2,25,40,35
India,Bihar,Gaya,"SFTI Kusdihra, Gaya - BSPCB",22-01-2024 21:00:00,24.762518,84.982348,OZONE,10,60,38
India,Bihar,Hajipur,"Industrial Area, Hajipur - BSPCB",22-01-2024 21:00:00,25.697189,85.245900,PM2.5,108,317,216
India,Bihar,Hajipur,"Industrial Area, Hajipur - BSPCB",22-01-2024 21:00:00,25.697189,85.245900,PM10,163,419,246
India,Bihar,Hajipur,"Industrial Area, Hajipur - BSPCB",22-01-2024 21:00:00,25.697189,85.245900,SO2,1,7,5
India,Bihar,Katihar,"Mirchaibari, Katihar - BSPCB",22-01-2024 21:00:00,25.560083,87.553265,PM10,117,378,145
India,Bihar,Katihar,"Mirchaibari, Katihar - BSPCB",22-01-2024 21:00:00,25.560083,87.553265,NH3,1,3,2
India,Bihar,Manguraha,"Forest Rest House, Manguraha - BSPCB",22-01-2024 21:00:00,27.308328,84.531742,PM2.5,53,98,77
India,Bihar,Manguraha,"Forest Rest House, Manguraha - BSPCB",22-01-2024 21:00:00,27.308328,84.531742,PM10,72,119,94
India,Bihar,Manguraha,"Forest Rest House, Manguraha - BSPCB",22-01-2024 21:00:00,27.308328,84.531742,NO2,6,13,10
India,Bihar,Motihari,"Gandak Colony, Motihari - BSPCB",22-01-2024 21:00:00,26.63086,84.90051,PM2.5,57,283,95
India,Bihar,Munger,"Town Hall, Munger - BSPCB",22-01-2024 21:00:00,25.376776,86.471523,PM10,68,145,106
India,Bihar,Munger,"Town Hall, Munger - BSPCB",22-01-2024 21:00:00,25.376776,86.471523,SO2,26,47,39
India,Bihar,Munger,"Town Hall, Munger - BSPCB",22-01-2024 21:00:00,25.376776,86.471523,OZONE,9,19,14
India,Bihar,Muzaffarpur,"Buddha Colony, Muzaffarpur - BSPCB",22-01-2024 21:00:00,26.11442,85.39813,PM10,120,422,173
India,Bihar,Muzaffarpur,"Buddha Colony, Muzaffarpur - BSPCB",22-01-2024 21:00:00,26.11442,85.39813,CO,52,107,78
India,Bihar,Muzaffarpur,"Buddha Colony, Muzaffarpur - BSPCB",22-01-2024 21:00:00,26.11442,85.39813,OZONE,34,128,58
India,Bihar,Muzaffarpur,"MIT-Daudpur Kothi, Muzaffarpur - BSPCB",22-01-2024 21:00:00,26.1403345,85.3650192,NH3,3,5,4
India,Bihar,Muzaffarpur,"MIT-Daudpur Kothi, Muzaffarpur - BSPCB",22-01-2024 21:00:00,26.1403345,85.3650192,CO,1,130,123
India,Bihar,Patna,"DRM Office Danapur, Patna - BSPCB",22-01-2024 21:00:00,25.586562,85.043586,CO,47,153,85
India,Bihar,Patna,"Govt. High School Shikarpur, Patna - BSPCB",22-01-2024 21:00:00,25.592539,85.227158,PM10,132,334,172
India,Bihar,Patna,"Govt. High School Shikarpur, Patna - BSPCB",22-01-2024 21:00:00,25.592539,85.227158,NO2,9,16,14
India,Bihar,Patna,"Govt. High School Shikarpur, Patna - BSPCB",22-01-2024 21:00:00,25.592539,85.227158,NH3,3,5,4
India,Bihar,Patna,"Muradpur, Patna - BSPCB",22-01-2024 21:00:00,25.619651,85.147382,NH3,1,2,1
India,Bihar,Patna,"Muradpur, Patna - BSPCB",22-01-2024 21:00:00,25.619651,85.147382,SO2,2,9,4
India,Bihar,Patna,"Muradpur, Patna - BSPCB",22-01-2024 21:00:00,25.619651,85.147382,OZONE,8,70,40
India,Bihar,Patna,"Rajbansi Nagar, Patna - BSPCB",22-01-2024 21:00:00,25.599486,85.113666,NH3,6,8,6
India,Bihar,Patna,"Rajbansi Nagar, Patna - BSPCB",22-01-2024 21:00:00,25.599486,85.113666,OZONE,2,42,22
India,Bihar,Patna,"Samanpura, Patna - BSPCB",22-01-2024 21:00:00,25.596727,85.085624,PM10,192,500,328
India,Bihar,Patna,"Samanpura, Patna - BSPCB",22-01-2024 21:00:00,25.596727,85.085624,NO2,14,21,16
India,Bihar,Purnia,"Mariam Nagar, Purnia - BSPCB",22-01-2024 21:00:00,25.366336,87.117468,CO,41,100,64
India,Bihar,Rajgir,"Dangi Tola, Rajgir - BSPCB",22-01-2024 21:00:00,25.03280,85.41948,SO2,4,62,11
India,Bihar,Rajgir,"Dangi Tola, Rajgir - BSPCB",22-01-2024 21:00:00,25.03280,85.41948,OZONE,22,26,23
India,Bihar,Samastipur,"DM Office_Kasipur, Samastipur - BSPCB",22-01-2024 21:00:00,25.859655,85.77944,PM2.5,60,372,118
India,Bihar,Samastipur,"DM Office_Kasipur, Samastipur - BSPCB",22-01-2024 21:00:00,25.859655,85.77944,OZONE,10,15,12
India,Bihar,Sasaram,"Dada Peer, Sasaram - BSPCB",22-01-2024 21:00:00,24.952822,84.002396,NH3,4,9,6
India,Chandigarh,Chandigarh,"Sector 22, Chandigarh - CPCC",22-01-2024 21:00:00,30.735567,76.775714,PM2.5,280,424,364
India,Chandigarh,Chandigarh,"Sector 22, Chandigarh - CPCC",22-01-2024 21:00:00,30.735567,76.775714,PM10,177,368,271
India,Chandigarh,Chandigarh,"Sector 22, Chandigarh - CPCC",22-01-2024 21:00:00,30.735567,76.775714,NO2,11,25,16
India,Chandigarh,Chandigarh,"Sector 22, Chandigarh - CPCC",22-01-2024 21:00:00,30.735567,76.775714,NH3,6,9,8
India,Chandigarh,Chandigarh,"Sector 22, Chandigarh - CPCC",22-01-2024 21:00:00,30.735567,76.775714,CO,60,81,71
India,Chandigarh,Chandigarh,"Sector-53, Chandigarh - CPCC",22-01-2024 21:00:00,30.719859,76.738637,NH3,6,9,7
India,Chhattisgarh,Bhilai,"32Bungalows, Bhilai - CECB",22-01-2024 21:00:00,21.194815,81.314770,CO,26,48,39
India,Chhattisgarh,Bhilai,"Civic Center, Bhilai - Bhilai Steel Plant",22-01-2024 21:00:00,21.185571,81.343175,PM10,46,109,75
India,Chhattisgarh,Bilaspur,"Mangala, Bilaspur - NTPC",22-01-2024 21:00:00,22.08815,82.13737,CO,33,38,35
India,Chhattisgarh,Chhal,"Nawapara SECL Colony, Chhal - CECB",22-01-2024 21:00:00,22.118125,83.140608,PM2.5,34,122,63
India,Chhattisgarh,Chhal,"Nawapara SECL Colony, Chhal - CECB",22-01-2024 21:00:00,22.118125,83.140608,OZONE,7,67,44
India,Chhattisgarh,Korba,"Rampur, Korba - CECB",22-01-2024 21:00:00,22.368195,82.746431,SO2,12,19,16
India,Chhattisgarh,Korba,"Urja Nagar, Korba - CECB",22-01-2024 21:00:00,22.348441,82.549611,PM10,14,198,53
India,Chhattisgarh,Kunjemura,"OP Jindal School, Kunjemura - CECB",22-01-2024 21:00:00,22.126650,83.483212,PM2.5,24,77,42
India,Chhattisgarh,Kunjemura,"OP Jindal School, Kunjemura - CECB",22-01-2024 21:00:00,22.126650,83.483212,NH3,1,5,2
India,Chhattisgarh,Kunjemura,"OP Jindal School, Kunjemura - CECB",22-01-2024 21:00:00,22.126650,83.483212,SO2,1,89,25
India,Chhattisgarh,Raipur,"AIIMS, Raipur - CECB",22-01-2024 21:00:00,21.258815,81.578979,SO2,6,30,11
India,Chhattisgarh,Raipur,"Bhatagaon New ISBT, Raipur - CECB",22-01-2024 21:00:00,21.219665,81.630094,PM10,51,113,73
India,Chhattisgarh,Raipur,"Bhatagaon New ISBT, Raipur - CECB",22-01-2024 21:00:00,21.219665,81.630094,NH3,2,3,2
India,Chhattisgarh,Raipur,"Krishak Nagar, Raipur - CECB",22-01-2024 21:00:00,21.237755,81.705301,PM2.5,42,83,62
India,Chhattisgarh,Raipur,"Krishak Nagar, Raipur - CECB",22-01-2024 21:00:00,21.237755,81.705301,CO,31,48,39
India,Delhi,Delhi,"Anand Vihar, Delhi - DPCC",22-01-2024 21:00:00,28.647622,77.3158090,PM10,170,408,299
India,Delhi,Delhi,"Anand Vihar, Delhi - DPCC",22-01-2024 21:00:00,28.647622,77.3158090,CO,42,80,59
India,Delhi,Delhi,"Ashok Vihar, Delhi - DPCC",22-01-2024 21:00:00,28.695381,77.181665,NH3,6,10,8
India,Delhi,Delhi,"Bawana, Delhi - DPCC",22-01-2024 21:00:00,28.776200,77.051074,PM2.5,270,474,365
India,Delhi,Delhi,"Bawana, Delhi - DPCC",22-01-2024 21:00:00,28.776200,77.051074,SO2,3,12,6
India,Delhi,Delhi,"CRRI Mathura Road, Delhi - IMD",22-01-2024 21:00:00,28.5512005,77.2735737,PM2.5,NA,NA,NA
India,Delhi,Delhi,"DTU, Delhi - CPCB",22-01-2024 21:00:00,28.7500499,77.1112615,PM10,160,459,285
India,Delhi,Delhi,"DTU, Delhi - CPCB",22-01-2024 21:00:00,28.7500499,77.1112615,NO2,27,85,50
India,Delhi,Delhi,"DTU, Delhi - CPCB",22-01-2024 21:00:00,28.7500499,77.1112615,NH3,12,24,16
India,Delhi,Delhi,"Dwarka-Sector 8, Delhi - DPCC ",22-01-2024 21:00:00,28.5710274,77.0719006,PM2.5,320,421,366
India,Delhi,Delhi,"IHBAS, Dilshad Garden, Delhi - CPCB",22-01-2024 21:00:00,28.6811736,77.3025234,SO2,2,62,22
India,Delhi,Delhi,"ITO, Delhi - CPCB",22-01-2024 21:00:00,28.628624,77.241060,SO2,12,33,20
India,Delhi,Delhi,"Jahangirpuri, Delhi - DPCC",22-01-2024 21:00:00,28.732820,77.170633,PM10,196,497,326
India,Delhi,Delhi,"Jahangirpuri, Delhi - DPCC",22-01-2024 21:00:00,28.732820,77.170633,NO2,17,54,32
India,Delhi,Delhi,"Jawaharlal Nehru Stadium, Delhi - DPCC",22-01-2024 21:00:00,28.580280,77.233829,NO2,72,122,90
India,Delhi,Delhi,"Jawaharlal Nehru Stadium, Delhi - DPCC",22-01-2024 21:00:00,28.580280,77.233829,NH3,9,12,11
India,Delhi,Delhi,"Jawaharlal Nehru Stadium, Delhi - DPCC",22-01-2024 21:00:00,28.580280,77.233829,CO,48,102,75
India,Delhi,Delhi,"Lodhi Road, Delhi - IITM",22-01-2024 21:00:00,28.588333,77.221667,PM10,NA,NA,NA
India,Delhi,Delhi,"Major Dhyan Chand National Stadium, Delhi - DPCC",22-01-2024 21:00:00,28.611281,77.237738,NH3,11,15,13
India,Delhi,Delhi,"Mandir Marg, Delhi - DPCC",22-01-2024 21:00:00,28.636429,77.201067,SO2,6,8,7
India,Delhi,Delhi,"Mandir Marg, Delhi - DPCC",22-01-2024 21:00:00,28.636429,77.201067,CO,2,88,52
India,Delhi,Delhi,"NSIT Dwarka, Delhi - CPCB",22-01-2024 21:00:00,28.60909,77.0325413,PM10,219,403,284
India,Delhi,Delhi,"NSIT Dwarka, Delhi - CPCB",22-01-2024 21:00:00,28.60909,77.0325413,NO2,23,68,41
India,Delhi,Delhi,"Najafgarh, Delhi - DPCC",22-01-2024 21:00:00,28.570173,76.933762,CO,9,116,61
India,Delhi,Delhi,"Narela, Delhi - DPCC",22-01-2024 21:00:00,28.822836,77.101981,PM2.5,272,445,359
India,Delhi,Delhi,"Narela, Delhi - DPCC",22-01-2024 21:00:00,28.822836,77.101981,NO2,26,121,60
India,Delhi,Delhi,"Nehru Nagar, Delhi - DPCC",22-01-2024 21:00:00,28.567890,77.250515,OZONE,2,81,41
India,Delhi,Delhi,"New Moti Bagh, Delhi - MHUA",22-01-2024 21:00:00,28.57834,77.18400,PM2.5,NA,NA,NA
India,Delhi,Delhi,"Okhla Phase-2, Delhi - DPCC",22-01-2024 21:00:00,28.530785,77.271255,PM10,194,446,291
India,Delhi,Delhi,"Okhla Phase-2, Delhi - DPCC",22-01-2024 21:00:00,28.530785,77.271255,OZONE,10,69,41
India,Delhi,Delhi,"Patparganj, Delhi - DPCC",22-01-2024 21:00:00,28.623763,77.287209,PM10,167,408,277
India,Delhi,Delhi,"Pusa, Delhi - DPCC",22-01-2024 21:00:00,28.639652,77.146275,NO2,NA,NA,NA
India,Delhi,Delhi,"Rohini, Delhi - DPCC",22-01-2024 21:00:00,28.732528,77.119920,PM2.5,NA,NA,NA
India,Delhi,Delhi,"Rohini, Delhi - DPCC",22-01-2024 21:00:00,28.732528,77.119920,SO2,5,17,11
India,Delhi,Delhi,"Rohini, Delhi - DPCC",22-01-2024 21:00:00,28.732528,77.119920,OZONE,2,90,45
India,Delhi,Delhi,"Sirifort, Delhi - CPCB",22-01-2024 21:00:00,28.5504249,77.2159377,NO2,138,184,161
India,Delhi,Delhi,"Sirifort, Delhi - CPCB",22-01-2024 21:00:00,28.5504249,77.2159377,NH3,5,8,6
India,Delhi,Delhi,"Sirifort, Delhi - CPCB",22-01-2024 21:00:00,28.5504249,77.2159377,SO2,28,29,28
India,Delhi,Delhi,"Sonia Vihar, Delhi - DPCC",22-01-2024 21:00:00,28.710508,77.249485,PM2.5,272,466,366
India,Delhi,Delhi,"Sonia Vihar, Delhi - DPCC",22-01-2024 21:00:00,28.710508,77.249485,NH3,6,8,7
India,Delhi,Delhi,"Sonia Vihar, Delhi - DPCC",22-01-2024 21:00:00,28.710508,77.249485,OZONE,3,116,57
India,Delhi,Delhi,"Sri Aurobindo Marg, Delhi - DPCC",22-01-2024 21:00:00,28.531346,77.190156,SO2,9,16,12
India,Delhi,Delhi,"Vivek Vihar, Delhi - DPCC",22-01-2024 21:00:00,28.672342,77.315260,PM10,164,433,293
India,Delhi,Delhi,"Wazirpur, Delhi - DPCC",22-01-2024 21:00:00,28.699793,77.165453,PM10,186,500,316
India,Delhi,Delhi,"Wazirpur, Delhi - DPCC",22-01-2024 21:00:00,28.699793,77.165453,NH3,1,10,4
India,Delhi,Delhi,"Wazirpur, Delhi - DPCC",22-01-2024 21:00:00,28.699793,77.165453,CO,33,104,74
India,Gujarat,Ahmedabad,"Chandkheda, Ahmedabad - IITM",22-01-2024 21:00:00,23.107969,72.574648,CO,34,131,53
India,Gujarat,Ahmedabad,"Chandkheda, Ahmedabad - IITM",22-01-2024 21:00:00,23.107969,72.574648,OZONE,20,24,23
India,Gujarat,Ahmedabad,"Gyaspur, Ahmedabad - IITM",22-01-2024 21:00:00,22.977134,72.553024,PM2.5,59,394,183
India,Gujarat,Ahmedabad,"Gyaspur, Ahmedabad - IITM",22-01-2024 21:00:00,22.977134,72.553024,PM10,69,404,148
India,Gujarat,Ahmedabad,"Gyaspur, Ahmedabad - IITM",22-01-2024 21:00:00,22.977134,72.553024,CO,6,38,10
India,Gujarat,Ahmedabad,"Gyaspur, Ahmedabad - IITM",22-01-2024 21:00:00,22.977134,72.553024,OZONE,11,13,11
India,Gujarat,Ahmedabad,"Maninagar, Ahmedabad - GPCB",22-01-2024 21:00:00,23.002657,72.591912,NO2,13,119,56
India,Gujarat,Ahmedabad,"Rakhial, Ahmedabad - IITM",22-01-2024 21:00:00,23.016834,72.625775,PM10,58,232,109
India,Gujarat,Ahmedabad,"Rakhial, Ahmedabad - IITM",22-01-2024 21:00:00,23.016834,72.625775,SO2,3,55,14
India,Gujarat,Ahmedabad,"SAC ISRO Bopal, Ahmedabad - IITM",22-01-2024 21:00:00,23.041137,72.456691,CO,19,40,25
India,Gujarat,Ahmedabad,"Sardar Vallabhbhai Patel Stadium, Ahmedabad - IITM",22-01-2024 21:00:00,23.043070,72.562968,NO2,11,14,13
India,Gujarat,Ahmedabad,"Sardar Vallabhbhai Patel Stadium, Ahmedabad - IITM",22-01-2024 21:00:00,23.043070,72.562968,CO,2,120,22
India,Gujarat,Gandhinagar,"GIFT City, Gandhinagar - IITM",22-01-2024 21:00:00,23.163798,72.677768,PM10,47,115,77
India,Gujarat,Gandhinagar,"GIFT City, Gandhinagar - IITM",22-01-2024 21:00:00,23.163798,72.677768,NH3,2,3,3
India,Gujarat,Gandhinagar,"IIPHG Lekawada, Gandhinagar - IITM",22-01-2024 21:00:00,23.243639,72.68994,PM2.5,63,324,175
India,Gujarat,Gandhinagar,"IIPHG Lekawada, Gandhinagar - IITM",22-01-2024 21:00:00,23.243639,72.68994,NO2,13,15,14
India,Gujarat,Gandhinagar,"IIPHG Lekawada, Gandhinagar - IITM",22-01-2024 21:00:00,23.243639,72.68994,NH3,3,4,3
India,Gujarat,Gandhinagar,"IIPHG Lekawada, Gandhinagar - IITM",22-01-2024 21:00:00,23.243639,72.68994,CO,38,84,45
India,Gujarat,Gandhinagar,"Sector-10, Gandhinagar - GPCB",22-01-2024 21:00:00,23.221714,72.654328,PM2.5,NA,NA,NA
India,Gujarat,Gandhinagar,"Sector-10, Gandhinagar - GPCB",22-01-2024 21:00:00,23.221714,72.654328,NO2,NA,NA,NA
India,Gujarat,Vatva,"Phase-4 GIDC, Vatva - GPCB",22-01-2024 21:00:00,22.969611,72.643500,NO2,14,170,64
India,Haryana,Ambala,"Patti Mehar, Ambala - HSPCB",22-01-2024 21:00:00,30.379589,76.778328,NO2,7,21,14
India,Haryana,Bahadurgarh,"Arya Nagar, Bahadurgarh - HSPCB",22-01-2024 21:00:00,28.6701,76.9254,PM2.5,168,322,260
India,Haryana,Bahadurgarh,"Arya Nagar, Bahadurgarh - HSPCB",22-01-2024 21:00:00,28.6701,76.9254,NH3,11,12,11
India,Haryana,Bahadurgarh,"Arya Nagar, Bahadurgarh - HSPCB",22-01-2024 21:00:00,28.6701,76.9254,SO2,6,9,8
India,Haryana,Ballabgarh,"Nathu Colony, Ballabgarh - HSPCB",22-01-2024 21:00:00,28.3419248,77.319699,PM2.5,225,286,259
India,Haryana,Ballabgarh,"Nathu Colony, Ballabgarh - HSPCB",22-01-2024 21:00:00,28.3419248,77.319699,PM10,166,184,176
India,Haryana,Charkhi Dadri,"Mini Secretariat, Charkhi Dadri - HSPCB",22-01-2024 21:00:00,28.593883,76.270653,NO2,9,14,11
India,Haryana,Charkhi Dadri,"Mini Secretariat, Charkhi Dadri - HSPCB",22-01-2024 21:00:00,28.593883,76.270653,CO,54,102,79
India,Haryana,Dharuhera,"Municipal Corporation Office, Dharuhera -  HSPCB",22-01-2024 21:00:00,28.206800,76.799700,PM2.5,57,295,148
India,Haryana,Dharuhera,"Municipal Corporation Office, Dharuhera -  HSPCB",22-01-2024 21:00:00,28.206800,76.799700,PM10,128,343,193
India,Haryana,Faridabad,"New Industrial Town, Faridabad - HSPCB",22-01-2024 21:00:00,28.39072,77.30059,PM2.5,330,498,357
India,Haryana,Faridabad,"Sector 30, Faridabad - HSPCB",22-01-2024 21:00:00,28.4417,77.3217,NH3,NA,NA,NA
India,Haryana,Faridabad,"Sector 30, Faridabad - HSPCB",22-01-2024 21:00:00,28.4417,77.3217,CO,66,118,95
India,Haryana,Faridabad,"Sector 30, Faridabad - HSPCB",22-01-2024 21:00:00,28.4417,77.3217,OZONE,3,22,13
India,Haryana,Fatehabad,"Huda Sector, Fatehabad - HSPCB",22-01-2024 21:00:00,29.503664,75.467934,PM2.5,136,246,188
India,Haryana,Fatehabad,"Huda Sector, Fatehabad - HSPCB",22-01-2024 21:00:00,29.503664,75.467934,SO2,4,12,8
India,Haryana,Gurugram,"NISE Gwal Pahari, Gurugram - IMD",22-01-2024 21:00:00,28.422681,77.148944,PM10,NA,NA,NA
India,Haryana,Gurugram,"Sector-51, Gurugram - HSPCB",22-01-2024 21:00:00,28.4227,77.0667,SO2,2,4,3
India,Haryana,Gurugram,"Sector-51, Gurugram - HSPCB",22-01-2024 21:00:00,28.4227,77.0667,OZONE,27,67,56
India,Haryana,Gurugram,"Teri Gram, Gurugram - HSPCB",22-01-2024 21:00:00,28.4275,77.1465,CO,32,67,50
India,Haryana,Gurugram,"Vikas Sadan, Gurugram - HSPCB",22-01-2024 21:00:00,28.4501238,77.0263051,SO2,22,44,28
India,Haryana,Gurugram,"Vikas Sadan, Gurugram - HSPCB",22-01-2024 21:00:00,28.4501238,77.0263051,CO,54,138,98
India,Haryana,Hisar,"Urban Estate-II, Hisar - HSPCB",22-01-2024 21:00:00,29.140560,75.744941,CO,40,61,52
India,Haryana,Jind,"Police Lines, Jind - HSPCB",22-01-2024 21:00:00,29.307814,76.337619,SO2,4,15,7
India,Haryana,Kaithal,"Rishi Nagar, Kaithal - HSPCB",22-01-2024 21:00:00,29.8006,76.4155,PM10,128,173,146
India,Haryana,Kaithal,"Rishi Nagar, Kaithal - HSPCB",22-01-2024 21:00:00,29.8006,76.4155,CO,32,82,55
India,Haryana,Karnal,"Sector-12, Karnal - HSPCB",22-01-2024 21:00:00,29.695300,77.002700,NO2,7,12,10
India,Haryana,Karnal,"Sector-12, Karnal - HSPCB",22-01-2024 21:00:00,29.695300,77.002700,SO2,12,13,12
India,Haryana,Mandikhera,"General Hospital, Mandikhera - HSPCB",22-01-2024 21:00:00,27.9002,76.9938,PM10,83,145,118
India,Haryana,Manesar,"Sector-2 IMT, Manesar - HSPCB",22-01-2024 21:00:00,28.360699,76.936090,NO2,14,27,21
India,Haryana,Narnaul,"Shastri Nagar, Narnaul - HSPCB",22-01-2024 21:00:00,28.060249,76.113115,NH3,5,15,10
India,Haryana,Narnaul,"Shastri Nagar, Narnaul - HSPCB",22-01-2024 21:00:00,28.060249,76.113115,SO2,12,55,17
India,Haryana,Narnaul,"Shastri Nagar, Narnaul - HSPCB",22-01-2024 21:00:00,28.060249,76.113115,CO,16,34,27
India,Haryana,Palwal,"Shyam Nagar, Palwal - HSPCB",22-01-2024 21:00:00,28.1485564,77.3320667,NH3,2,3,3
India,Haryana,Panchkula,"Sector-6, Panchkula - HSPCB ",22-01-2024 21:00:00,30.7057778,76.8531805555555,PM2.5,159,324,239
India,Haryana,Rohtak,"MD University, Rohtak - HSPCB",22-01-2024 21:00:00,28.52123,76.37138,OZONE,45,106,60
India,Haryana,Sirsa,"F-Block, Sirsa - HSPCB",22-01-2024 21:00:00,29.536400,75.015800,NO2,10,10,10
India,Haryana,Sonipat,"Murthal, Sonipat - HSPCB",22-01-2024 21:00:00,29.027200,77.062100,PM2.5,161,334,269
India,Haryana,Yamuna Nagar,"Gobind Pura, Yamuna Nagar - HSPCB",22-01-2024 21:00:00,30.1480566,77.2893471,PM2.5,108,252,175
India,Haryana,Yamuna Nagar,"Gobind Pura, Yamuna Nagar - HSPCB",22-01-2024 21:00:00,30.1480566,77.2893471,SO2,3,103,14
India,Himachal Pradesh,Baddi,"HIMUDA Complex Phase-1, Baddi - HPPCB",22-01-2024 21:00:00,30.943887,76.801991,PM10,103,287,177
India,Jharkhand,Dhanbad,"Kalakusuma, Dhanbad - DMC",22-01-2024 21:00:00,23.811548,86.481238,OZONE,20,37,32
India,Jharkhand,Dhanbad,"Sardar Patel Nagar, Dhanbad - JSPCB",22-01-2024 21:00:00,23.80569,86.44268,PM10,NA,NA,NA
India,Jharkhand,Dhanbad,"Sardar Patel Nagar, Dhanbad - JSPCB",22-01-2024 21:00:00,23.80569,86.44268,SO2,NA,NA,NA
India,Jharkhand,Pathardih,"Mohalbani Ghat, Pathardih - DMC",22-01-2024 21:00:00,23.669880,86.411725,PM10,NA,NA,NA
India,Karnataka,Belgaum,"Ramteerth Nagar, Belgaum - KSPCB",22-01-2024 21:00:00,15.888653,74.541751,PM2.5,18,78,38
India,Karnataka,Belgaum,"Ramteerth Nagar, Belgaum - KSPCB",22-01-2024 21:00:00,15.888653,74.541751,NH3,33,34,33
India,Karnataka,Bengaluru,"Bapuji Nagar, Bengaluru - KSPCB",22-01-2024 21:00:00,12.951913,77.539784,PM10,49,116,88
India,Karnataka,Bengaluru,"Bapuji Nagar, Bengaluru - KSPCB",22-01-2024 21:00:00,12.951913,77.539784,NO2,9,11,10
India,Karnataka,Bengaluru,"Hebbal, Bengaluru - KSPCB",22-01-2024 21:00:00,13.029152,77.585901,NO2,NA,NA,NA
India,Karnataka,Bengaluru,"Hombegowda Nagar, Bengaluru - KSPCB",22-01-2024 21:00:00,12.938539,77.590100,PM10,43,112,77
India,Karnataka,Bengaluru,"Jayanagar 5th Block, Bengaluru - KSPCB",22-01-2024 21:00:00,12.920984,77.584908,PM2.5,60,137,86
India,Karnataka,Bengaluru,"Jayanagar 5th Block, Bengaluru - KSPCB",22-01-2024 21:00:00,12.920984,77.584908,PM10,48,142,95
India,Karnataka,Bengaluru,"Jayanagar 5th Block, Bengaluru - KSPCB",22-01-2024 21:00:00,12.920984,77.584908,SO2,13,38,26
India,Karnataka,Bengaluru,"Jayanagar 5th Block, Bengaluru - KSPCB",22-01-2024 21:00:00,12.920984,77.584908,CO,8,42,30
India,Karnataka,Bengaluru,"Jayanagar 5th Block, Bengaluru - KSPCB",22-01-2024 21:00:00,12.920984,77.584908,OZONE,18,20,19
India,Karnataka,Bengaluru,"Jigani, Bengaluru - KSPCB",22-01-2024 21:00:00,12.7816279,77.6299145,PM10,55,118,91
India,Karnataka,Bengaluru,"Kasturi Nagar, Bengaluru - KSPCB",22-01-2024 21:00:00,13.003872,77.664217,NH3,3,4,4
India,Karnataka,Bengaluru,"Peenya, Bengaluru - CPCB",22-01-2024 21:00:00,13.0270199,77.494094,NO2,19,27,23
India,Karnataka,Bengaluru,"RVCE-Mailasandra, Bengaluru - KSPCB",22-01-2024 21:00:00,12.921418,77.502466,PM2.5,57,147,84
India,Karnataka,Bengaluru,"RVCE-Mailasandra, Bengaluru - KSPCB",22-01-2024 21:00:00,12.921418,77.502466,OZONE,40,40,40
India,Karnataka,Bengaluru,"Sanegurava Halli, Bengaluru - KSPCB",22-01-2024 21:00:00,12.990328,77.5431385,CO,8,40,17
India,Karnataka,Bengaluru,"Silk Board, Bengaluru - KSPCB",22-01-2024 21:00:00,12.917348,77.622813,NO2,21,29,24
India,Karnataka,Bidar,"Naubad, Bidar - KSPCB",22-01-2024 21:00:00,17.930306,77.482194,PM2.5,69,167,101
India,Karnataka,Chamarajanagar,"Urban, Chamarajanagar - KSPCB",22-01-2024 21:00:00,11.55358,76.55521,OZONE,14,42,30
India,Karnataka,Chikkaballapur,"Chikkaballapur Rural, Chikkaballapur - KSPCB",22-01-2024 21:00:00,13.428828,77.731418,PM10,48,101,67
India,Karnataka,Chikkamagaluru,"Kalyana Nagara, Chikkamagaluru - KSPCB",22-01-2024 21:00:00,13.328028,75.797056,SO2,1,6,4
India,Karnataka,Davanagere,"Devaraj Urs Badavane, Davanagere - KSPCB",22-01-2024 21:00:00,14.475800,75.905200,PM10,45,110,72
India,Karnataka,Davanagere,"Devaraj Urs Badavane, Davanagere - KSPCB",22-01-2024 21:00:00,14.475800,75.905200,NH3,1,3,1
India,Karnataka,Gadag,"Panchal Nagar, Gadag - KSPCB",22-01-2024 21:00:00,15.411456,75.638133,PM10,NA,NA,NA
India,Karnataka,Haveri,"Ashwini Nagar, Haveri - KSPCB",22-01-2024 21:00:00,14.791800,75.389600,CO,32,34,32
India,Karnataka,Haveri,"Ashwini Nagar, Haveri - KSPCB",22-01-2024 21:00:00,14.791800,75.389600,OZONE,18,22,20
India,Karnataka,Hubballi,"Deshpande Nagar, Hubballi - KSPCB",22-01-2024 21:00:00,15.351773,75.140726,PM10,42,110,69
India,Karnataka,Hubballi,"Lingaraj Nagar, Hubballi - KSPCB",22-01-2024 21:00:00,15.3714823,75.1160168,PM10,48,79,63
India,Karnataka,Hubballi,"Lingaraj Nagar, Hubballi - KSPCB",22-01-2024 21:00:00,15.3714823,75.1160168,SO2,1,6,3
India,Karnataka,Hubballi,"Lingaraj Nagar, Hubballi - KSPCB",22-01-2024 21:00:00,15.3714823,75.1160168,CO,30,69,38
India,Karnataka,Kalaburagi,"Mahatma Basaveswar Colony, Kalaburgi - KSPCB",22-01-2024 21:00:00,17.336318,76.847397,SO2,4,42,7
India,Karnataka,Madikeri,"Stuart Hill, Madikeri - KSPCB",22-01-2024 21:00:00,12.415911,75.735050,NO2,4,11,6
India,Karnataka,Mysuru,"Hebbal 1st Stage, Mysuru - KSPCB",22-01-2024 21:00:00,12.21041,76.37376,PM10,53,74,67
India,Karnataka,Raichur,"Haji Colony, Raichur - KSPCB",22-01-2024 21:00:00,16.208139,77.348417,SO2,19,112,75
India,Karnataka,Shivamogga,"Vinoba Nagara, Shivamogga - KSPCB",22-01-2024 21:00:00,13.940000,75.555917,PM2.5,36,61,46
India,Karnataka,Shivamogga,"Vinoba Nagara, Shivamogga - KSPCB",22-01-2024 21:00:00,13.940000,75.555917,PM10,49,86,66
India,Karnataka,Udupi,"Brahmagiri, Udupi - KSPCB",22-01-2024 21:00:00,13.34194444,74.74694444,SO2,19,21,20
India,Karnataka,Yadgir,"Collector Office, Yadgir - KSPCB",22-01-2024 21:00:00,16.7602,77.1428,PM10,57,88,75
India,Kerala,Eloor,"Udyogamandal, Eloor - Kerala PCB",22-01-2024 21:00:00,10.073232,76.302765,NH3,1,1,1
India,Kerala,Eloor,"Udyogamandal, Eloor - Kerala PCB",22-01-2024 21:00:00,10.073232,76.302765,CO,4,70,50
India,Kerala,Eloor,"Udyogamandal, Eloor - Kerala PCB",22-01-2024 21:00:00,10.073232,76.302765,OZONE,5,75,60
India,Kerala,Kannur,"Thavakkara, Kannur - Kerala PCB",22-01-2024 21:00:00,11.875000,75.373200,CO,30,35,33
India,Kerala,Kochi,"Vyttila, Kochi - Kerala PCB",22-01-2024 21:00:00,9.969447,76.321186,NO2,1,9,4
India,Kerala,Kochi,"Vyttila, Kochi - Kerala PCB",22-01-2024 21:00:00,9.969447,76.321186,CO,44,48,46
India,Kerala,Thiruvananthapuram,"Kariavattom, Thiruvananthapuram - Kerala PCB",22-01-2024 21:00:00,8.563700,76.886500,PM10,72,82,77
India,Kerala,Thiruvananthapuram,"Plammoodu, Thiruvananthapuram - Kerala PCB",22-01-2024 21:00:00,8.5149093,76.9435879,SO2,5,17,11
India,Madhya Pradesh,Bhopal,"Idgah Hills, Bhopal - MPPCB",22-01-2024 21:00:00,23.264759,77.381568,NH3,3,5,4
India,Madhya Pradesh,Bhopal,"Paryavaran Parisar, Bhopal - MPPCB",22-01-2024 21:00:00,23.210494,77.425409,NO2,26,114,59
India,Madhya Pradesh,Damoh,"Shrivastav Colony, Damoh - MPPCB",22-01-2024 21:00:00,23.81748678,79.446246,PM2.5,NA,NA,NA
India,Madhya Pradesh,Dewas,"Bhopal Chauraha, Dewas - MPPCB",22-01-2024 21:00:00,22.9682591,76.064118,PM2.5,85,362,155
India,Madhya Pradesh,Gwalior,"City Center, Gwalior - MPPCB",22-01-2024 21:00:00,26.203442,78.193251,NO2,22,52,31
India,Madhya Pradesh,Gwalior,"Maharaj Bada, Gwalior - MPPCB",22-01-2024 21:00:00,26.200388,78.147714,PM10,124,465,253
India,Madhya Pradesh,Gwalior,"Maharaj Bada, Gwalior - MPPCB",22-01-2024 21:00:00,26.200388,78.147714,NO2,30,97,58
India,Madhya Pradesh,Gwalior,"Maharaj Bada, Gwalior - MPPCB",22-01-2024 21:00:00,26.200388,78.147714,CO,7,123,23
India,Madhya Pradesh,Gwalior,"Phool Bagh, Gwalior - Mondelez Ind. Food",22-01-2024 21:00:00,26.210536,78.171,CO,32,54,35
India,Madhya Pradesh,Indore,"Chhoti Gwaltoli, Indore - MPPCB",22-01-2024 21:00:00,22.4310,75.5213,NO2,55,139,82
India,Madhya Pradesh,Indore,"Maguda Nagar, Indore - IMC",22-01-2024 21:00:00,22.7524,75.8872,SO2,19,27,22
India,Madhya Pradesh,Indore,"Residency Area, Indore - IMC",22-01-2024 21:00:00,22.7084,75.8815,NH3,NA,NA,NA
India,Madhya Pradesh,Jabalpur,"Govindh Bhavan Colony, Jabalpur - JMC",22-01-2024 21:00:00,23.163174,79.973061,PM2.5,37,137,74
India,Madhya Pradesh,Jabalpur,"Govindh Bhavan Colony, Jabalpur - JMC",22-01-2024 21:00:00,23.163174,79.973061,PM10,39,95,63
India,Madhya Pradesh,Jabalpur,"Govindh Bhavan Colony, Jabalpur - JMC",22-01-2024 21:00:00,23.163174,79.973061,SO2,8,43,21
India,Madhya Pradesh,Jabalpur,"Govindh Bhavan Colony, Jabalpur - JMC",22-01-2024 21:00:00,23.163174,79.973061,CO,17,54,24
India,Madhya Pradesh,Jabalpur,"Govindh Bhavan Colony, Jabalpur - JMC",22-01-2024 21:00:00,23.163174,79.973061,OZONE,7,311,136
India,Madhya Pradesh,Jabalpur,"Gupteshwar, Jabalpur - JMC",22-01-2024 21:00:00,23.142888,79.916147,PM10,36,254,103
India,Madhya Pradesh,Jabalpur,"Gupteshwar, Jabalpur - JMC",22-01-2024 21:00:00,23.142888,79.916147,NH3,3,6,3
India,Madhya Pradesh,Jabalpur,"Gupteshwar, Jabalpur - JMC",22-01-2024 21:00:00,23.142888,79.916147,OZONE,1,108,75
India,Madhya Pradesh,Katni,"Gole Bazar, Katni - MPPCB",22-01-2024 21:00:00,23.50016,80.23284,PM2.5,22,328,97
India,Madhya Pradesh,Katni,"Gole Bazar, Katni - MPPCB",22-01-2024 21:00:00,23.50016,80.23284,NO2,19,99,49
India,Madhya Pradesh,Katni,"Gole Bazar, Katni - MPPCB",22-01-2024 21:00:00,23.50016,80.23284,SO2,7,43,17
India,Madhya Pradesh,Mandideep,"Sector-D Industrial Area, Mandideep - MPPCB",22-01-2024 21:00:00,23.108440,77.511428,PM2.5,53,348,160
India,Madhya Pradesh,Mandideep,"Sector-D Industrial Area, Mandideep - MPPCB",22-01-2024 21:00:00,23.108440,77.511428,SO2,17,127,79
India,Madhya Pradesh,Pithampur,"Sector-2 Industrial Area, Pithampur - MPPCB",22-01-2024 21:00:00,22.624758,75.675238,CO,42,84,44
India,Madhya Pradesh,Ratlam,"Shasthri Nagar, Ratlam - IPCA Lab",22-01-2024 21:00:00,23.331731,75.045981,PM2.5,44,324,91
India,Madhya Pradesh,Ratlam,"Shasthri Nagar, Ratlam - IPCA Lab",22-01-2024 21:00:00,23.331731,75.045981,PM10,84,384,133
India,Madhya Pradesh,Sagar,"Civil Lines, Sagar - MPPCB",22-01-2024 21:00:00,23.838586,78.759431,PM2.5,30,229,115
India,Madhya Pradesh,Sagar,"Civil Lines, Sagar - MPPCB",22-01-2024 21:00:00,23.838586,78.759431,NH3,2,3,2
India,Madhya Pradesh,Sagar,"Civil Lines, Sagar - MPPCB",22-01-2024 21:00:00,23.838586,78.759431,CO,14,52,18
India,Madhya Pradesh,Satna,"Bandhavgar Colony, Satna - Birla Cement",22-01-2024 21:00:00,24.58434363,80.8549414,PM10,19,36,27
India,Madhya Pradesh,Satna,"Bandhavgar Colony, Satna - Birla Cement",22-01-2024 21:00:00,24.58434363,80.8549414,OZONE,56,95,82
India,Madhya Pradesh,Singrauli,"Suryakiran Bhawan NCL, Singrauli - MPPCB",22-01-2024 21:00:00,24.108970,82.645580,NO2,5,14,10
India,Madhya Pradesh,Singrauli,"Suryakiran Bhawan NCL, Singrauli - MPPCB",22-01-2024 21:00:00,24.108970,82.645580,NH3,1,2,2
India,Madhya Pradesh,Singrauli,"Suryakiran Bhawan NCL, Singrauli - MPPCB",22-01-2024 21:00:00,24.108970,82.645580,SO2,59,110,83
India,Maharashtra,Ahmednagar,"Tarakpur, Ahmednagar - MPCB",22-01-2024 21:00:00,19.10122,74.73339,OZONE,9,159,87
India,Maharashtra,Amravati,"Shivneri Colony, Amravati - MPCB",22-01-2024 21:00:00,20.9402359,77.7895248,PM10,117,145,130
India,Maharashtra,Amravati,"Shivneri Colony, Amravati - MPCB",22-01-2024 21:00:00,20.9402359,77.7895248,OZONE,43,104,84
India,Maharashtra,Amravati,"Shri Shivaji Science College, Amaravati - MPCB",22-01-2024 21:00:00,20.939198,77.765701,NO2,13,80,26
India,Maharashtra,Aurangabad,"MIDC Chilkalthana, Aurangabad - MPCB",22-01-2024 21:00:00,19.875620,75.387310,CO,47,101,59
India,Maharashtra,Aurangabad,"Rachnakar Colony, Aurangabad - MPCB",22-01-2024 21:00:00,19.863756,75.321188,PM10,111,252,135
India,Maharashtra,Aurangabad,"Rachnakar Colony, Aurangabad - MPCB",22-01-2024 21:00:00,19.863756,75.321188,OZONE,14,84,66
India,Maharashtra,Badlapur,"Katrap, Badlapur - MPCB",22-01-2024 21:00:00,19.16485,73.23409,PM2.5,96,241,163
India,Maharashtra,Badlapur,"Katrap, Badlapur - MPCB",22-01-2024 21:00:00,19.16485,73.23409,NO2,25,103,50
India,Maharashtra,Badlapur,"Katrap, Badlapur - MPCB",22-01-2024 21:00:00,19.16485,73.23409,NH3,1,4,3
India,Maharashtra,Badlapur,"Katrap, Badlapur - MPCB",22-01-2024 21:00:00,19.16485,73.23409,OZONE,1,226,118
India,Maharashtra,Belapur,"CBD Belapur, Belapur - MPCB",22-01-2024 21:00:00,19.0243902,73.0406721,NH3,13,52,27
India,Maharashtra,Bhiwandi,"Gokul Nagar, Bhiwandi - MPCB",22-01-2024 21:00:00,19.309073,73.057223,NH3,2,3,2
India,Maharashtra,Boisar,"Khaira, Boisar - MPCB",22-01-2024 21:00:00,19.786089,72.757971,NO2,1,21,11
India,Maharashtra,Chandrapur,"Chauhan Colony, Chandrapur - MPCB",22-01-2024 21:00:00,19.962900,79.298714,PM2.5,137,336,241
India,Maharashtra,Chandrapur,"Chauhan Colony, Chandrapur - MPCB",22-01-2024 21:00:00,19.962900,79.298714,NH3,2,2,2
India,Maharashtra,Chandrapur,"Chauhan Colony, Chandrapur - MPCB",22-01-2024 21:00:00,19.962900,79.298714,SO2,7,48,18
India,Maharashtra,Jalgaon,"Prabhat Colony, Jalgaon - MPCB",22-01-2024 21:00:00,21.001264,75.565602,NH3,2,9,8
India,Maharashtra,Jalgaon,"Prabhat Colony, Jalgaon - MPCB",22-01-2024 21:00:00,21.001264,75.565602,CO,13,48,27
India,Maharashtra,Kalyan,"Khadakpada, Kalyan - MPCB",22-01-2024 21:00:00,19.25292,73.142019,OZONE,8,46,37
India,Maharashtra,Kolhapur,"Shivaji University, Kolhapur - MPCB",22-01-2024 21:00:00,16.6870449,74.2505872,PM10,56,173,117
India,Maharashtra,Kolhapur,"Shivaji University, Kolhapur - MPCB",22-01-2024 21:00:00,16.6870449,74.2505872,OZONE,1,35,20
India,Maharashtra,Kolhapur,"Sinchan Bhavan, Kolhapur - MPCB",22-01-2024 21:00:00,16.7143745,74.2426398,CO,3,51,21
India,Maharashtra,Latur,"Sawe Wadi, Latur - MPCB",22-01-2024 21:00:00,18.39963,76.57452,NO2,6,104,26
India,Maharashtra,Latur,"Sawe Wadi, Latur - MPCB",22-01-2024 21:00:00,18.39963,76.57452,CO,17,96,42
India,Maharashtra,Mahad,"Kamble Tarf Birwadi, Mahad - MPCB",22-01-2024 21:00:00,18.1023399,73.4783687,PM2.5,31,94,73
India,Maharashtra,Mahad,"Kamble Tarf Birwadi, Mahad - MPCB",22-01-2024 21:00:00,18.1023399,73.4783687,OZONE,11,63,40
India,Maharashtra,Malegaon,"Mahesh Nagar, Malegaon - MPCB",22-01-2024 21:00:00,20.555712,74.529236,NO2,5,44,20
India,Maharashtra,Mira-Bhayandar,"Bhayandar West, Mira-Bhayandar - MPCB",22-01-2024 21:00:00,19.296481,72.840923,PM10,104,162,128
India,Maharashtra,Mumbai,"Bandra Kurla Complex, Mumbai - MPCB",22-01-2024 21:00:00,19.065931,72.862131,PM2.5,NA,NA,NA
India,Maharashtra,Mumbai,"Bandra Kurla Complex, Mumbai - MPCB",22-01-2024 21:00:00,19.065931,72.862131,PM10,NA,NA,NA
India,Maharashtra,Mumbai,"Bandra Kurla Complex, Mumbai - MPCB",22-01-2024 21:00:00,19.065931,72.862131,OZONE,3,46,30
India,Maharashtra,Mumbai,"Borivali East, Mumbai - MPCB",22-01-2024 21:00:00,19.2243333,72.8658113,PM2.5,38,127,69
India,Maharashtra,Mumbai,"Byculla, Mumbai - BMC",22-01-2024 21:00:00,18.9767,72.8380,SO2,1,9,3
India,Maharashtra,Mumbai,"Byculla, Mumbai - BMC",22-01-2024 21:00:00,18.9767,72.8380,OZONE,1,192,119
India,Maharashtra,Mumbai,"Chakala-Andheri East, Mumbai - IITM",22-01-2024 21:00:00,19.11074,72.86084,PM10,71,112,93
India,Maharashtra,Mumbai,"Chakala-Andheri East, Mumbai - IITM",22-01-2024 21:00:00,19.11074,72.86084,OZONE,42,72,60
India,Maharashtra,Mumbai,"Chembur, Mumbai - MPCB",22-01-2024 21:00:00,19.0364585,72.8954371,NH3,1,5,3
India,Maharashtra,Mumbai,"Chembur, Mumbai - MPCB",22-01-2024 21:00:00,19.0364585,72.8954371,CO,26,108,32
India,Maharashtra,Mumbai,"Chhatrapati Shivaji Intl. Airport (T2), Mumbai - MPCB",22-01-2024 21:00:00,19.10078,72.87462,SO2,20,29,26
India,Maharashtra,Mumbai,"Colaba, Mumbai - MPCB",22-01-2024 21:00:00,18.910000,72.820000,PM2.5,52,116,74
India,Maharashtra,Mumbai,"Colaba, Mumbai - MPCB",22-01-2024 21:00:00,18.910000,72.820000,NO2,18,42,27
India,Maharashtra,Mumbai,"Ghatkopar, Mumbai - BMC",22-01-2024 21:00:00,19.083694,72.920967,CO,7,70,13
India,Maharashtra,Mumbai,"Kandivali East, Mumbai - MPCB",22-01-2024 21:00:00,19.205800,72.868200,PM2.5,23,92,46
India,Maharashtra,Mumbai,"Kandivali East, Mumbai - MPCB",22-01-2024 21:00:00,19.205800,72.868200,CO,70,110,81
India,Maharashtra,Mumbai,"Kandivali West, Mumbai - BMC",22-01-2024 21:00:00,19.215859,72.831718,PM10,81,123,106
India,Maharashtra,Mumbai,"Khindipada-Bhandup West, Mumbai - IITM",22-01-2024 21:00:00,19.1653323,72.922099,SO2,1,25,4
India,Maharashtra,Mumbai,"Kurla, Mumbai - MPCB",22-01-2024 21:00:00,19.0863,72.8888,CO,28,64,34
India,Maharashtra,Mumbai,"Malad West, Mumbai - IITM",22-01-2024 21:00:00,19.19709,72.82204,PM2.5,13,319,201
India,Maharashtra,Mumbai,"Malad West, Mumbai - IITM",22-01-2024 21:00:00,19.19709,72.82204,NH3,1,2,1
India,Maharashtra,Mumbai,"Mazgaon, Mumbai - IITM",22-01-2024 21:00:00,18.96702,72.84214,SO2,1,22,12
India,Maharashtra,Mumbai,"Mindspace-Malad West, Mumbai - MPCB",22-01-2024 21:00:00,19.1878657,72.8304069,NO2,7,56,22
India,Maharashtra,Mumbai,"Mindspace-Malad West, Mumbai - MPCB",22-01-2024 21:00:00,19.1878657,72.8304069,OZONE,3,99,76
India,Maharashtra,Mumbai,"Mulund West, Mumbai - MPCB",22-01-2024 21:00:00,19.1750,72.9419,PM10,74,141,105
India,Maharashtra,Mumbai,"Mulund West, Mumbai - MPCB",22-01-2024 21:00:00,19.1750,72.9419,CO,18,18,18
India,Maharashtra,Mumbai,"Mulund West, Mumbai - MPCB",22-01-2024 21:00:00,19.1750,72.9419,OZONE,8,8,8
India,Maharashtra,Mumbai,"Powai, Mumbai - MPCB",22-01-2024 21:00:00,19.137500,72.915056,SO2,NA,NA,NA
India,Maharashtra,Mumbai,"Shivaji Nagar, Mumbai - BMC",22-01-2024 21:00:00,19.060498,72.923356,SO2,7,54,20
India,Maharashtra,Mumbai,"Siddharth Nagar-Worli, Mumbai - IITM",22-01-2024 21:00:00,19.000083,72.813993,PM2.5,110,301,198
India,Maharashtra,Mumbai,"Sion, Mumbai - MPCB",22-01-2024 21:00:00,19.047000,72.874600,PM2.5,44,224,83
India,Maharashtra,Mumbai,"Sion, Mumbai - MPCB",22-01-2024 21:00:00,19.047000,72.874600,NO2,29,154,79
India,Maharashtra,Mumbai,"Sion, Mumbai - MPCB",22-01-2024 21:00:00,19.047000,72.874600,SO2,36,42,39
India,Maharashtra,Mumbai,"Vasai West, Mumbai - MPCB",22-01-2024 21:00:00,19.383200,72.820400,PM2.5,31,90,46
India,Maharashtra,Mumbai,"Vasai West, Mumbai - MPCB",22-01-2024 21:00:00,19.383200,72.820400,NH3,4,4,4
India,Maharashtra,Mumbai,"Vasai West, Mumbai - MPCB",22-01-2024 21:00:00,19.383200,72.820400,CO,14,40,15
India,Maharashtra,Mumbai,"Worli, Mumbai - MPCB",22-01-2024 21:00:00,18.9936162,72.8128113,CO,34,36,35
India,Maharashtra,Nagpur,"Ambazari, Nagpur - MPCB",22-01-2024 21:00:00,21.121801,79.04952,NO2,16,88,34
India,Maharashtra,Nagpur,"Mahal, Nagpur - MPCB",22-01-2024 21:00:00,21.14472,79.107595,PM10,88,427,156
India,Maharashtra,Nagpur,"Mahal, Nagpur - MPCB",22-01-2024 21:00:00,21.14472,79.107595,NO2,9,52,25
India,Maharashtra,Nagpur,"Mahal, Nagpur - MPCB",22-01-2024 21:00:00,21.14472,79.107595,OZONE,14,86,63
India,Maharashtra,Nagpur,"Opp GPO Civil Lines, Nagpur - MPCB",22-01-2024 21:00:00,21.152875,79.0517531,PM10,84,181,128
India,Maharashtra,Nagpur,"Ram Nagar, Nagpur - MPCB",22-01-2024 21:00:00,21.143383,79.048912,PM10,111,218,141
India,Maharashtra,Nanded,"Sneh Nagar, Nanded - MPCB",22-01-2024 21:00:00,19.173852,77.296291,OZONE,21,125,98
India,Maharashtra,Nashik,"Gangapur Road, Nashik - MPCB",22-01-2024 21:00:00,20.0073285,73.7762427,PM2.5,58,125,80
India,Maharashtra,Nashik,"Gangapur Road, Nashik - MPCB",22-01-2024 21:00:00,20.0073285,73.7762427,CO,18,18,18
India,Maharashtra,Nashik,"MIDC Ambad, Nashik - MPCB",22-01-2024 21:00:00,19.950220,73.731480,PM2.5,79,110,91
India,Maharashtra,Nashik,"Pandav Nagari, Nashik - MPCB",22-01-2024 21:00:00,19.9591346,73.7788008,SO2,16,109,31
India,Maharashtra,Navi Mumbai,"Mahape, Navi Mumbai - MPCB",22-01-2024 21:00:00,19.1135051,73.008978,SO2,26,26,26
India,Maharashtra,Navi Mumbai,"Mahape, Navi Mumbai - MPCB",22-01-2024 21:00:00,19.1135051,73.008978,OZONE,17,44,32
India,Maharashtra,Navi Mumbai,"Nerul, Navi Mumbai - MPCB",22-01-2024 21:00:00,19.008751,73.016620,PM2.5,55,177,87
India,Maharashtra,Navi Mumbai,"Nerul, Navi Mumbai - MPCB",22-01-2024 21:00:00,19.008751,73.016620,PM10,83,180,121
India,Maharashtra,Navi Mumbai,"Sanpada, Navi Mumbai - MPCB",22-01-2024 21:00:00,19.0575752,73.0151367,SO2,10,59,20
India,Maharashtra,Navi Mumbai,"Sector-19A Nerul, Navi Mumbai - IITM",22-01-2024 21:00:00,19.044,73.0325,PM2.5,91,320,233
India,Maharashtra,Navi Mumbai,"Sector-19A Nerul, Navi Mumbai - IITM",22-01-2024 21:00:00,19.044,73.0325,OZONE,1,241,138
India,Maharashtra,Navi Mumbai,"Tondare-Taloja, Navi Mumbai - MPCB",22-01-2024 21:00:00,19.0630,73.1209,SO2,NA,NA,NA
India,Maharashtra,Parbhani,"Masoom Colony, Parbhani - MPCB",22-01-2024 21:00:00,19.265594,76.761463,NH3,4,4,4
India,Maharashtra,Pimpri-Chinchwad,"Gavalinagar, Pimpri Chinchwad - MPCB",22-01-2024 21:00:00,18.63673,73.82487,PM10,44,159,116
India,Maharashtra,Pimpri-Chinchwad,"Thergaon, Pimpri Chinchwad - MPCB",22-01-2024 21:00:00,18.616318,73.765797,NH3,5,21,9
India,Maharashtra,Pimpri-Chinchwad,"Thergaon, Pimpri Chinchwad - MPCB",22-01-2024 21:00:00,18.616318,73.765797,OZONE,1,161,85
India,Maharashtra,Pune,"Alandi, Pune - IITM",22-01-2024 21:00:00,18.675076,73.892743,NO2,15,28,20
India,Maharashtra,Pune,"Karve Road, Pune - MPCB",22-01-2024 21:00:00,18.5011743,73.8165527,PM2.5,66,83,79
India,Maharashtra,Pune,"Karve Road, Pune - MPCB",22-01-2024 21:00:00,18.5011743,73.8165527,SO2,19,23,22
India,Maharashtra,Pune,"Katraj Dairy, Pune - MPCB",22-01-2024 21:00:00,18.454450,73.854155,PM2.5,32,113,68
India,Maharashtra,Pune,"Katraj Dairy, Pune - MPCB",22-01-2024 21:00:00,18.454450,73.854155,SO2,4,13,7
India,Maharashtra,Pune,"Mhada Colony, Pune - IITM",22-01-2024 21:00:00,18.573040,73.927715,CO,26,66,49
India,Maharashtra,Pune,"Revenue Colony-Shivajinagar, Pune - IITM",22-01-2024 21:00:00,18.530085,73.849598,NO2,100,221,160
India,Maharashtra,Pune,"Revenue Colony-Shivajinagar, Pune - IITM",22-01-2024 21:00:00,18.530085,73.849598,SO2,87,132,113
India,Maharashtra,Pune,"Revenue Colony-Shivajinagar, Pune - IITM",22-01-2024 21:00:00,18.530085,73.849598,OZONE,6,68,47
India,Maharashtra,Pune,"Savitribai Phule Pune University, Pune - MPCB",22-01-2024 21:00:00,18.547056,73.826908,PM2.5,32,181,107
India,Maharashtra,Pune,"Savitribai Phule Pune University, Pune - MPCB",22-01-2024 21:00:00,18.547056,73.826908,NH3,2,8,5
India,Maharashtra,Pune,"Savitribai Phule Pune University, Pune - MPCB",22-01-2024 21:00:00,18.547056,73.826908,OZONE,2,162,102
India,Maharashtra,Pune,"Transport Nagar-Nigdi, Pune - IITM",22-01-2024 21:00:00,18.664282,73.763966,PM2.5,23,208,83
India,Maharashtra,Sangli,"Vijay Nagar, Sangli - MPCB",22-01-2024 21:00:00, 16.5038,74.3623,PM2.5,39,367,202
India,Maharashtra,Sangli,"Vijay Nagar, Sangli - MPCB",22-01-2024 21:00:00, 16.5038,74.3623,SO2,7,18,12
India,Maharashtra,Solapur,"Dnyaneshwar Nagar, Solapur - MPCB",22-01-2024 21:00:00,17.6336264,75.9132495,NO2,14,148,52
India,Maharashtra,Solapur,"Dnyaneshwar Nagar, Solapur - MPCB",22-01-2024 21:00:00,17.6336264,75.9132495,CO,14,105,37
India,Maharashtra,Solapur,"Dnyaneshwar Nagar, Solapur - MPCB",22-01-2024 21:00:00,17.6336264,75.9132495,OZONE,7,108,71
India,Maharashtra,Solapur,"Ratandeep Housing Society, Solapur - MPCB",22-01-2024 21:00:00,17.65439,75.90649,PM2.5,86,193,116
India,Maharashtra,Solapur,"Ratandeep Housing Society, Solapur - MPCB",22-01-2024 21:00:00,17.65439,75.90649,OZONE,2,47,31
India,Maharashtra,Solapur,"Solapur, Solapur - MPCB",22-01-2024 21:00:00,17.6599188,75.9063906,PM10,86,151,112
India,Maharashtra,Virar,"Bolinj, Virar - MPCB",22-01-2024 21:00:00,19.4458210,72.7988231,SO2,7,39,16
India,Maharashtra,Virar,"Bolinj, Virar - MPCB",22-01-2024 21:00:00,19.4458210,72.7988231,OZONE,2,111,95
India,Manipur,Imphal,"DM College of Science, Imphal - Manipur PCB",22-01-2024 21:00:00,24.8207389,93.9423085,PM2.5,11,179,38
India,Manipur,Imphal,"DM College of Science, Imphal - Manipur PCB",22-01-2024 21:00:00,24.8207389,93.9423085,SO2,78,81,79
India,Manipur,Imphal,"DM College of Science, Imphal - Manipur PCB",22-01-2024 21:00:00,24.8207389,93.9423085,CO,6,6,6
India,Meghalaya,Shillong,"JN Stadium, Shillong - Meghalaya PCB",22-01-2024 21:00:00,25.5803419,91.8942571,NH3,2,4,3
India,Meghalaya,Shillong,"JN Stadium, Shillong - Meghalaya PCB",22-01-2024 21:00:00,25.5803419,91.8942571,SO2,28,31,29
India,Nagaland,Kohima,"PWD Juction, Kohima - NPCB",22-01-2024 21:00:00,25.6635413,94.0989878,SO2,88,101,93
India,Odisha,Angul,"Hakimapada, Angul - OSPCB",22-01-2024 21:00:00,20.832874,85.104082,PM2.5,NA,NA,NA
India,Odisha,Angul,"Hakimapada, Angul - OSPCB",22-01-2024 21:00:00,20.832874,85.104082,NO2,NA,NA,NA
India,Odisha,Angul,"Hakimapada, Angul - OSPCB",22-01-2024 21:00:00,20.832874,85.104082,SO2,NA,NA,NA
India,Odisha,Angul,"Hakimapada, Angul - OSPCB",22-01-2024 21:00:00,20.832874,85.104082,CO,12,100,25
India,Odisha,Balasore,"Kalidaspur, Balasore - OSPCB",22-01-2024 21:00:00,21.51161,86.89088,NO2,11,66,24
India,Odisha,Balasore,"Kalidaspur, Balasore - OSPCB",22-01-2024 21:00:00,21.51161,86.89088,SO2,16,44,24
India,Odisha,Balasore,"Kalidaspur, Balasore - OSPCB",22-01-2024 21:00:00,21.51161,86.89088,CO,88,117,97
India,Odisha,Barbil,"Forest Office, Barbil - OSPCB",22-01-2024 21:00:00,22.1166054,85.3945546,PM10,71,201,114
India,Odisha,Barbil,"Forest Office, Barbil - OSPCB",22-01-2024 21:00:00,22.1166054,85.3945546,CO,54,96,65
India,Odisha,Baripada,"Meher Colony, Baripada - OSPCB",22-01-2024 21:00:00,21.941841,86.728318,PM2.5,35,267,131
India,Odisha,Baripada,"Meher Colony, Baripada - OSPCB",22-01-2024 21:00:00,21.941841,86.728318,CO,42,78,46
India,Odisha,Bhubaneswar,"Lingraj Mandir, Bhubaneswar - OSPCB",22-01-2024 21:00:00,20.240790,85.836784,PM2.5,223,493,329
India,Odisha,Bhubaneswar,"Patia, Bhubaneswar - OSPCB",22-01-2024 21:00:00,20.34652,85.81630,PM10,125,204,166
India,Odisha,Bhubaneswar,"Patia, Bhubaneswar - OSPCB",22-01-2024 21:00:00,20.34652,85.81630,NO2,20,47,28
India,Odisha,Bileipada,"Tata Township, Bileipada - OSPCB",22-01-2024 21:00:00,22.06156703,85.47409613,NO2,6,12,9
India,Odisha,Brajrajnagar,"GM Office, Brajrajnagar - OSPCB",22-01-2024 21:00:00,21.8004996,83.8396977,PM2.5,18,198,64
India,Odisha,Brajrajnagar,"GM Office, Brajrajnagar - OSPCB",22-01-2024 21:00:00,21.8004996,83.8396977,PM10,26,172,77
India,Odisha,Brajrajnagar,"GM Office, Brajrajnagar - OSPCB",22-01-2024 21:00:00,21.8004996,83.8396977,CO,42,109,81
India,Odisha,Byasanagar,"Ferro Chrome Colony, Byasanagar - OSPCB",22-01-2024 21:00:00,20.94185,86.11510,NO2,18,51,28
India,Odisha,Cuttack,"CDA Area, Cuttack - OSPCB",22-01-2024 21:00:00,20.48891     ,85.84768     ,PM10,130,227,172
India,Odisha,Cuttack,"CDA Area, Cuttack - OSPCB",22-01-2024 21:00:00,20.48891     ,85.84768     ,NH3,2,2,2
India,Odisha,Cuttack,"CDA Area, Cuttack - OSPCB",22-01-2024 21:00:00,20.48891     ,85.84768     ,CO,50,76,59
India,Odisha,Nayagarh,"Dabuna, Nayagarh - OSPCB",22-01-2024 21:00:00,21.847279,85.416905,CO,22,40,25
India,Odisha,Rairangpur,"Divisional Forest Office, Rairangpur - OSPCB",22-01-2024 21:00:00,22.265816,86.174829,NO2,7,8,7
India,Odisha,Rairangpur,"Divisional Forest Office, Rairangpur - OSPCB",22-01-2024 21:00:00,22.265816,86.174829,NH3,3,3,3
India,Odisha,Rairangpur,"Divisional Forest Office, Rairangpur - OSPCB",22-01-2024 21:00:00,22.265816,86.174829,SO2,2,12,5
India,Odisha,Rourkela,"Fertilizer Township, Rourkela - OSPCB",22-01-2024 21:00:00,22.18972222,84.86277778,PM2.5,57,295,108
India,Odisha,Rourkela,"Fertilizer Township, Rourkela - OSPCB",22-01-2024 21:00:00,22.18972222,84.86277778,NO2,11,111,23
India,Odisha,Rourkela,"Raghunathpali, Rourkela - OSPCB",22-01-2024 21:00:00,22.220833,84.809444,CO,20,90,45
India,Odisha,Rourkela,"Raghunathpali, Rourkela - OSPCB",22-01-2024 21:00:00,22.220833,84.809444,OZONE,17,72,55
India,Odisha,Talcher,"Talcher Coalfields,Talcher - OSPCB",22-01-2024 21:00:00,20.9360711,85.1707021,PM2.5,54,351,140
India,Odisha,Talcher,"Talcher Coalfields,Talcher - OSPCB",22-01-2024 21:00:00,20.9360711,85.1707021,OZONE,1,4,3
India,Odisha,Tensa,"Barsua Iron Ore Mines, Tensa - OSPCB",22-01-2024 21:00:00,21.869985,85.167016,NO2,53,89,66
India,Odisha,Tensa,"Barsua Iron Ore Mines, Tensa - OSPCB",22-01-2024 21:00:00,21.869985,85.167016,CO,23,51,25
India,Odisha,Tensa,"Barsua Iron Ore Mines, Tensa - OSPCB",22-01-2024 21:00:00,21.869985,85.167016,OZONE,1,17,7
India,Puducherry,Puducherry,"Jawahar Nagar, Puducherry - PPCC",22-01-2024 21:00:00,11.9309,79.8027,PM10,25,76,44
India,Punjab,Amritsar,"Golden Temple, Amritsar - PPCB",22-01-2024 21:00:00,31.620000,74.876512,NH3,5,6,5
India,Punjab,Amritsar,"Golden Temple, Amritsar - PPCB",22-01-2024 21:00:00,31.620000,74.876512,SO2,20,22,21
India,Punjab,Bathinda,"Hardev Nagar, Bathinda - PPCB",22-01-2024 21:00:00,30.233011,74.907758,PM10,63,123,99
India,Punjab,Jalandhar,"Civil Line, Jalandhar - PPCB",22-01-2024 21:00:00,31.321907,75.578914,CO,90,111,94
India,Punjab,Khanna,"Kalal Majra, Khanna - PPCB",22-01-2024 21:00:00,30.736056 ,76.209694,NH3,14,15,15
India,Punjab,Khanna,"Kalal Majra, Khanna - PPCB",22-01-2024 21:00:00,30.736056 ,76.209694,SO2,7,20,11
India,Punjab,Khanna,"Kalal Majra, Khanna - PPCB",22-01-2024 21:00:00,30.736056 ,76.209694,OZONE,13,23,21
India,Punjab,Ludhiana,"Punjab Agricultural University, Ludhiana - PPCB",22-01-2024 21:00:00,30.9028,75.8086,PM10,114,283,165
India,Punjab,Ludhiana,"Punjab Agricultural University, Ludhiana - PPCB",22-01-2024 21:00:00,30.9028,75.8086,NO2,26,34,27
India,Punjab,Ludhiana,"Punjab Agricultural University, Ludhiana - PPCB",22-01-2024 21:00:00,30.9028,75.8086,SO2,2,22,8
India,Punjab,Mandi Gobindgarh,"RIMT University, Mandi Gobindgarh - PPCB",22-01-2024 21:00:00,30.649961,76.331442,PM2.5,150,316,254
India,Punjab,Mandi Gobindgarh,"RIMT University, Mandi Gobindgarh - PPCB",22-01-2024 21:00:00,30.649961,76.331442,NO2,30,32,31
India,Punjab,Mandi Gobindgarh,"RIMT University, Mandi Gobindgarh - PPCB",22-01-2024 21:00:00,30.649961,76.331442,OZONE,29,34,33
India,Punjab,Patiala,"Model Town, Patiala - PPCB",22-01-2024 21:00:00,30.349388,76.366642,PM10,121,164,140
India,Punjab,Patiala,"Model Town, Patiala - PPCB",22-01-2024 21:00:00,30.349388,76.366642,SO2,1,23,7
India,Punjab,Patiala,"Model Town, Patiala - PPCB",22-01-2024 21:00:00,30.349388,76.366642,OZONE,29,55,43
India,Punjab,Rupnagar,"Ratanpura, Rupnagar - Ambuja Cements",22-01-2024 21:00:00,31.0325454,76.5623046,PM10,86,178,125
India,Punjab,Rupnagar,"Ratanpura, Rupnagar - Ambuja Cements",22-01-2024 21:00:00,31.0325454,76.5623046,SO2,3,6,5
India,Rajasthan,Alwar,"Moti Doongri, Alwar - RSPCB",22-01-2024 21:00:00,27.554793,76.611536,NH3,4,10,6
India,Rajasthan,Banswara,"Rati Talai, Banswara - RSPCB",22-01-2024 21:00:00,23.555190,74.440010,NO2,9,67,17
India,Rajasthan,Barmer,"Railway Colony, Barmer - RSPCB",22-01-2024 21:00:00,25.747299,71.393989,PM10,65,209,114
India,Rajasthan,Barmer,"Railway Colony, Barmer - RSPCB",22-01-2024 21:00:00,25.747299,71.393989,NO2,14,39,24
India,Rajasthan,Barmer,"Railway Colony, Barmer - RSPCB",22-01-2024 21:00:00,25.747299,71.393989,OZONE,44,102,88
India,Rajasthan,Bharatpur,"Krishna Nagar, Bharatpur - RSPCB",22-01-2024 21:00:00,27.215415,77.50873,SO2,1,10,5
India,Rajasthan,Bharatpur,"Krishna Nagar, Bharatpur - RSPCB",22-01-2024 21:00:00,27.215415,77.50873,CO,74,154,113
India,Rajasthan,Bhilwara,"Pratap Nagar, Bhilwara - RSPCB",22-01-2024 21:00:00,25.339605,74.618883,PM2.5,54,380,208
India,Rajasthan,Bhiwadi,"RIICO Ind. Area III, Bhiwadi - RSPCB",22-01-2024 21:00:00,28.194909,76.862296,CO,1,109,71
India,Rajasthan,Bikaner,"MM Ground, Bikaner - RSPCB",22-01-2024 21:00:00,28.018792,73.292658,PM10,110,500,236
India,Rajasthan,Bikaner,"MM Ground, Bikaner - RSPCB",22-01-2024 21:00:00,28.018792,73.292658,CO,52,137,103
India,Rajasthan,Bundi,"New Colony, Bundi - RSPCB",22-01-2024 21:00:00,25.435774,75.644272,NH3,4,4,4
India,Rajasthan,Bundi,"New Colony, Bundi - RSPCB",22-01-2024 21:00:00,25.435774,75.644272,SO2,3,106,12
India,Rajasthan,Chittorgarh,"Shastri Nagar, Chittorgarh - RSPCB",22-01-2024 21:00:00,24.892047,74.623527,NH3,4,14,9
India,Rajasthan,Churu,"Subash Chowk, Churu - RSPCB",22-01-2024 21:00:00,28.296139,74.961696,PM10,51,154,104
India,Rajasthan,Churu,"Subash Chowk, Churu - RSPCB",22-01-2024 21:00:00,28.296139,74.961696,SO2,6,10,8
India,Rajasthan,Dausa,"Khatikan Mohalla, Dausa - RSPCB",22-01-2024 21:00:00,26.895552,76.334753,PM2.5,98,308,215
India,Rajasthan,Dausa,"Khatikan Mohalla, Dausa - RSPCB",22-01-2024 21:00:00,26.895552,76.334753,OZONE,31,119,84
India,Rajasthan,Dungarpur,"Bhoiwada, Dungarpur - RSPCB",22-01-2024 21:00:00,23.837789,73.714926,PM2.5,53,332,154
India,Rajasthan,Hanumangarh,"Housing Board, Hanumangarh - RSPCB",22-01-2024 21:00:00,29.610750,74.283608,NO2,17,82,34
India,Rajasthan,Jaipur,"Adarsh Nagar, Jaipur - RSPCB",22-01-2024 21:00:00,26.902909,75.836858,NH3,8,10,9
India,Rajasthan,Jaipur,"Adarsh Nagar, Jaipur - RSPCB",22-01-2024 21:00:00,26.902909,75.836858,CO,18,62,34
India,Rajasthan,Jaipur,"Police Commissionerate, Jaipur - RSPCB",22-01-2024 21:00:00,26.9164092,75.7994901,PM10,103,206,150
India,Rajasthan,Jaipur,"Police Commissionerate, Jaipur - RSPCB",22-01-2024 21:00:00,26.9164092,75.7994901,OZONE,14,88,65
India,Rajasthan,Jaipur,"RIICO Sitapura, Jaipur - RSPCB",22-01-2024 21:00:00,26.786682,75.827928,PM10,60,422,166
India,Rajasthan,Jaipur,"Sector-2 Murlipura, Jaipur - RSPCB",22-01-2024 21:00:00,26.960669,75.771817,PM2.5,NA,NA,NA
India,Rajasthan,Jaipur,"Sector-2 Murlipura, Jaipur - RSPCB",22-01-2024 21:00:00,26.960669,75.771817,PM10,104,430,160
India,Rajasthan,Jaipur,"Sector-2 Murlipura, Jaipur - RSPCB",22-01-2024 21:00:00,26.960669,75.771817,NH3,1,10,5
India,Rajasthan,Jaipur,"Sector-2 Murlipura, Jaipur - RSPCB",22-01-2024 21:00:00,26.960669,75.771817,SO2,5,23,11
India,Rajasthan,Jaisalmer,"Sadar Bazar, Jaisalmer - RSPCB",22-01-2024 21:00:00,26.912329,70.909168,NO2,19,72,35
India,Rajasthan,Jalore,"Mudtra Sili, Jalore - RSPCB",22-01-2024 21:00:00,25.344694,72.626208,OZONE,6,125,92
India,Rajasthan,Jhalawar,"Rajlaxmi Nagar, Jhalawar - RSPCB",22-01-2024 21:00:00,24.588397,76.172782,SO2,4,95,13
India,Rajasthan,Jhalawar,"Rajlaxmi Nagar, Jhalawar - RSPCB",22-01-2024 21:00:00,24.588397,76.172782,CO,22,119,37
India,Rajasthan,Jhunjhunu,"Indra Nagar, Jhunjhunu - RSPCB",22-01-2024 21:00:00,28.108988,75.386577,PM10,75,228,152
India,Rajasthan,Jhunjhunu,"Indra Nagar, Jhunjhunu - RSPCB",22-01-2024 21:00:00,28.108988,75.386577,NO2,26,77,44
India,Rajasthan,Jhunjhunu,"Indra Nagar, Jhunjhunu - RSPCB",22-01-2024 21:00:00,28.108988,75.386577,OZONE,6,42,26
India,Rajasthan,Jodhpur,"Digari Kalan, Jodhpur - RSPCB",22-01-2024 21:00:00,26.295810,73.082283,PM2.5,22,182,80
India,Rajasthan,Jodhpur,"Jhalamand, Jodhpur - RSPCB",22-01-2024 21:00:00,26.215415,73.070156,PM10,56,418,127
India,Rajasthan,Jodhpur,"Mandor, Jodhpur - RSPCB",22-01-2024 21:00:00,26.358805,73.047444,SO2,1,16,2
India,Rajasthan,Jodhpur,"Samrat Ashok Udhyan, Jodhpur - RSPCB",22-01-2024 21:00:00,26.253384,72.976571,PM2.5,21,495,123
India,Rajasthan,Jodhpur,"Samrat Ashok Udhyan, Jodhpur - RSPCB",22-01-2024 21:00:00,26.253384,72.976571,CO,26,151,151
India,Rajasthan,Karauli,"Satyawati Vihar, Karauli - RSPCB",22-01-2024 21:00:00,26.506177,77.025989,NH3,8,8,8
India,Rajasthan,Karauli,"Satyawati Vihar, Karauli - RSPCB",22-01-2024 21:00:00,26.506177,77.025989,SO2,11,19,16
India,Rajasthan,Kota,"Nayapura, Kota - RSPCB",22-01-2024 21:00:00,25.196024,75.855668,PM2.5,66,424,278
India,Rajasthan,Kota,"Shrinath Puram, Kota - RSPCB",22-01-2024 21:00:00,25.14389,75.821256,NH3,2,9,7
India,Rajasthan,Pratapgarh,"Pragati Nagar, Pratapgarh - RSPCB",22-01-2024 21:00:00,24.041198,74.780702,PM2.5,27,202,110
India,Rajasthan,Pratapgarh,"Pragati Nagar, Pratapgarh - RSPCB",22-01-2024 21:00:00,24.041198,74.780702,PM10,54,135,98
India,Rajasthan,Pratapgarh,"Pragati Nagar, Pratapgarh - RSPCB",22-01-2024 21:00:00,24.041198,74.780702,NO2,14,31,21
India,Rajasthan,Pratapgarh,"Pragati Nagar, Pratapgarh - RSPCB",22-01-2024 21:00:00,24.041198,74.780702,CO,24,46,29
India,Rajasthan,Rajsamand,"Dhoinda, Rajsamand - RSPCB",22-01-2024 21:00:00,25.036360,73.883502,PM2.5,25,329,133
India,Rajasthan,Rajsamand,"Dhoinda, Rajsamand - RSPCB",22-01-2024 21:00:00,25.036360,73.883502,PM10,35,242,97
India,Rajasthan,Sawai Madhopur,"Sahu Nagar, Sawai Madhopur - RSPCB",22-01-2024 21:00:00,26.031443,76.359327,NH3,4,34,16
India,Rajasthan,Sikar,"Radhakishan Pura, Sikar - RSPCB",22-01-2024 21:00:00,27.608912,75.153302,PM2.5,42,343,221
India,Rajasthan,Sikar,"Radhakishan Pura, Sikar - RSPCB",22-01-2024 21:00:00,27.608912,75.153302,OZONE,7,118,85
India,Rajasthan,Sri Ganganagar,"Old City, Sri Ganganagar - RSPCB",22-01-2024 21:00:00,29.931624,73.864511,PM2.5,167,415,283
India,Rajasthan,Sri Ganganagar,"Old City, Sri Ganganagar - RSPCB",22-01-2024 21:00:00,29.931624,73.864511,NO2,22,110,49
India,Rajasthan,Tonk,"Shastri Nagar, Tonk - RSPCB",22-01-2024 21:00:00,26.159933,75.780517,PM2.5,93,405,155
India,Rajasthan,Tonk,"Shastri Nagar, Tonk - RSPCB",22-01-2024 21:00:00,26.159933,75.780517,NO2,20,113,39
India,Rajasthan,Tonk,"Shastri Nagar, Tonk - RSPCB",22-01-2024 21:00:00,26.159933,75.780517,OZONE,1,76,49
India,Sikkim,Gangtok,"Zero Point GICI, Gangtok - SSPCB",22-01-2024 21:00:00,27.338530,88.614099,NO2,1,7,2
India,TamilNadu,Ariyalur,"Keelapalur, Ariyalur - TNPCB",22-01-2024 21:00:00,11.06825,79.07033,PM2.5,26,50,33
India,TamilNadu,Ariyalur,"Keelapalur, Ariyalur - TNPCB",22-01-2024 21:00:00,11.06825,79.07033,NO2,10,32,19
India,TamilNadu,Chennai,"Alandur Bus Depot, Chennai - CPCB",22-01-2024 21:00:00,12.9099161,80.1076538,PM2.5,45,158,105
India,TamilNadu,Chennai,"Alandur Bus Depot, Chennai - CPCB",22-01-2024 21:00:00,12.9099161,80.1076538,NH3,6,15,7
India,TamilNadu,Chennai,"Arumbakkam, Chennai - TNPCB",22-01-2024 21:00:00,13.0664,80.2112 ,NH3,1,5,3
India,TamilNadu,Chennai,"Kodungaiyur, Chennai - TNPCB",22-01-2024 21:00:00,13.1278,80.2642,PM10,35,152,72
India,TamilNadu,Chennai,"Kodungaiyur, Chennai - TNPCB",22-01-2024 21:00:00,13.1278,80.2642,NH3,3,5,4
India,TamilNadu,Chennai,"Perungudi, Chennai - TNPCB",22-01-2024 21:00:00,12.9533,80.2357,PM2.5,20,256,58
India,TamilNadu,Chennai,"Perungudi, Chennai - TNPCB",22-01-2024 21:00:00,12.9533,80.2357,SO2,1,5,3
India,TamilNadu,Chennai,"Perungudi, Chennai - TNPCB",22-01-2024 21:00:00,12.9533,80.2357,OZONE,4,8,7
India,TamilNadu,Chennai,"Royapuram, Chennai - TNPCB",22-01-2024 21:00:00,13.1036,80.2909,PM10,14,110,38
India,TamilNadu,Chennai,"Royapuram, Chennai - TNPCB",22-01-2024 21:00:00,13.1036,80.2909,OZONE,9,10,9
India,TamilNadu,Chennai,"Velachery Res. Area, Chennai - CPCB",22-01-2024 21:00:00,13.0052189,80.2398125,PM2.5,23,64,37
India,TamilNadu,Coimbatore,"PSG College of Arts and Science, Coimbatore - TNPCB",22-01-2024 21:00:00,11.0328,77.0349,CO,3,36,14
India,TamilNadu,Cuddalore,"Kudikadu, Cuddalore - TNPCB",22-01-2024 21:00:00,11.6829898,79.7532099,PM2.5,24,274,69
India,TamilNadu,Cuddalore,"Kudikadu, Cuddalore - TNPCB",22-01-2024 21:00:00,11.6829898,79.7532099,PM10,29,183,73
India,TamilNadu,Cuddalore,"Kudikadu, Cuddalore - TNPCB",22-01-2024 21:00:00,11.6829898,79.7532099,NH3,4,4,4
India,TamilNadu,Gummidipoondi,"Anthoni Pillai Nagar, Gummidipoondi - TNPCB",22-01-2024 21:00:00,13.4127,80.1081,PM10,48,439,136
India,TamilNadu,Gummidipoondi,"Anthoni Pillai Nagar, Gummidipoondi - TNPCB",22-01-2024 21:00:00,13.4127,80.1081,NO2,11,14,12
India,TamilNadu,Kanchipuram,"Kilambi, Kanchipuram - TNPCB",22-01-2024 21:00:00,12.864618,79.659968,NH3,NA,NA,NA
India,TamilNadu,Palkalaiperur,"Bharathidasan University, Palkalaiperur - TNPCB",22-01-2024 21:00:00,10.681158,78.741746,PM2.5,23,41,32
India,TamilNadu,Ramanathapuram,"Chalai Bazaar, Ramanathapuram - TNPCB",22-01-2024 21:00:00,9.36399,78.831977,PM10,26,74,52
India,TamilNadu,Salem,"Sona College of Technology, Salem - TNPCB",22-01-2024 21:00:00,11.679111,78.125052,PM2.5,NA,NA,NA
India,TamilNadu,Salem,"Sona College of Technology, Salem - TNPCB",22-01-2024 21:00:00,11.679111,78.125052,PM10,NA,NA,NA
India,TamilNadu,Salem,"Sona College of Technology, Salem - TNPCB",22-01-2024 21:00:00,11.679111,78.125052,NO2,NA,NA,NA
India,TamilNadu,Thoothukudi,"Meelavittan, Thoothukudi - TNPCB",22-01-2024 21:00:00,8.816428 ,78.099039,PM10,30,106,48
India,TamilNadu,Tirupur,"Kumaran College, Tirupur - TNPCB",22-01-2024 21:00:00,11.0973603,77.3228673,CO,17,113,52
India,TamilNadu,Virudhunagar,"Collectorate Office, Virudhunagar - TNPCB",22-01-2024 21:00:00,9.559382,77.948828,NO2,12,53,23
India,Telangana,Hyderabad,"Bollaram Industrial Area, Hyderabad - TSPCB",22-01-2024 21:00:00,17.540891,78.358528,PM10,NA,NA,NA
India,Telangana,Hyderabad,"Bollaram Industrial Area, Hyderabad - TSPCB",22-01-2024 21:00:00,17.540891,78.358528,NO2,16,46,26
India,Telangana,Hyderabad,"ECIL Kapra, Hyderabad - TSPCB",22-01-2024 21:00:00,17.470431,78.566959,PM2.5,45,49,48
India,Telangana,Hyderabad,"ICRISAT Patancheru, Hyderabad - TSPCB",22-01-2024 21:00:00,17.518400,78.278777,PM2.5,32,73,47
India,Telangana,Hyderabad,"ICRISAT Patancheru, Hyderabad - TSPCB",22-01-2024 21:00:00,17.518400,78.278777,NH3,2,2,2
India,Telangana,Hyderabad,"ICRISAT Patancheru, Hyderabad - TSPCB",22-01-2024 21:00:00,17.518400,78.278777,OZONE,6,89,74
India,Telangana,Hyderabad,"Kokapet, Hyderabad - TSPCB",22-01-2024 21:00:00,17.393559,78.339194,PM10,NA,NA,NA
India,Telangana,Hyderabad,"Kompally Municipal Office, Hyderabad - TSPCB",22-01-2024 21:00:00,17.544899,78.486949,PM2.5,NA,NA,NA
India,Telangana,Hyderabad,"Kompally Municipal Office, Hyderabad - TSPCB",22-01-2024 21:00:00,17.544899,78.486949,NO2,NA,NA,NA
India,Telangana,Hyderabad,"Kompally Municipal Office, Hyderabad - TSPCB",22-01-2024 21:00:00,17.544899,78.486949,OZONE,16,60,44
India,Telangana,Hyderabad,"Nacharam_TSIIC IALA, Hyderabad - TSPCB",22-01-2024 21:00:00,17.429398,78.569354,NO2,6,13,10
India,Telangana,Hyderabad,"Nacharam_TSIIC IALA, Hyderabad - TSPCB",22-01-2024 21:00:00,17.429398,78.569354,OZONE,30,36,30
India,Telangana,Hyderabad,"New Malakpet, Hyderabad - TSPCB",22-01-2024 21:00:00,17.37206,78.50864,NH3,2,2,2
India,Telangana,Hyderabad,"New Malakpet, Hyderabad - TSPCB",22-01-2024 21:00:00,17.37206,78.50864,OZONE,3,28,18
India,Telangana,Hyderabad,"Ramachandrapuram, Hyderabad - TSPCB",22-01-2024 21:00:00,17.528544,78.286195,PM10,NA,NA,NA
India,Telangana,Hyderabad,"Ramachandrapuram, Hyderabad - TSPCB",22-01-2024 21:00:00,17.528544,78.286195,SO2,NA,NA,NA
India,Telangana,Hyderabad,"Somajiguda, Hyderabad - TSPCB",22-01-2024 21:00:00,17.417094,78.457437,PM10,NA,NA,NA
India,Tripura,Agartala,"Bardowali, Agartala - Tripura SPCB",22-01-2024 21:00:00,23.8175497,91.2726974,OZONE,1,5,2
India,Uttar_Pradesh,Agra,"Rohta, Agra - UPPCB",22-01-2024 21:00:00,27.106972,78.000111,NO2,10,13,11
India,Uttar_Pradesh,Agra,"Shahjahan Garden, Agra - UPPCB",22-01-2024 21:00:00,27.169338,78.03582,NO2,19,20,20
India,Uttar_Pradesh,Agra,"Shahjahan Garden, Agra - UPPCB",22-01-2024 21:00:00,27.169338,78.03582,NH3,6,10,8
India,Uttar_Pradesh,Agra,"Shastripuram, Agra - UPPCB",22-01-2024 21:00:00,27.19862,77.92066,PM10,39,230,135
India,Uttar_Pradesh,Agra,"Shastripuram, Agra - UPPCB",22-01-2024 21:00:00,27.19862,77.92066,NH3,2,6,3
India,Uttar_Pradesh,Baghpat,"Sardar Patel Inter College, Baghpat - UPPCB",22-01-2024 21:00:00,28.964949,77.278761,OZONE,2,43,23
India,Uttar_Pradesh,Bareilly,"Rajendra Nagar, Bareilly - UPPCB",22-01-2024 21:00:00,28.38910936,79.42963708,PM10,97,156,112
India,Uttar_Pradesh,Bulandshahr,"Yamunapuram, Bulandshahr - UPPCB",22-01-2024 21:00:00,28.406963,77.849831,NO2,42,107,58
India,Uttar_Pradesh,Firozabad,"Nagla Bhau, Firozabad - UPPCB",22-01-2024 21:00:00,27.168897,78.376960,CO,18,54,24
India,Uttar_Pradesh,Firozabad,"Vibhab Nagar, Firozabad - UPPCB",22-01-2024 21:00:00,27.1594,78.3953,OZONE,19,22,20
India,Uttar_Pradesh,Ghaziabad,"Indirapuram, Ghaziabad - UPPCB",22-01-2024 21:00:00,28.646233,77.358075,PM2.5,127,347,273
India,Uttar_Pradesh,Ghaziabad,"Indirapuram, Ghaziabad - UPPCB",22-01-2024 21:00:00,28.646233,77.358075,NH3,5,7,6
India,Uttar_Pradesh,Ghaziabad,"Indirapuram, Ghaziabad - UPPCB",22-01-2024 21:00:00,28.646233,77.358075,SO2,13,19,16
India,Uttar_Pradesh,Ghaziabad,"Loni, Ghaziabad - UPPCB",22-01-2024 21:00:00,28.757294,77.278792,PM2.5,129,422,256
India,Uttar_Pradesh,Ghaziabad,"Loni, Ghaziabad - UPPCB",22-01-2024 21:00:00,28.757294,77.278792,SO2,1,28,9
India,Uttar_Pradesh,Ghaziabad,"Loni, Ghaziabad - UPPCB",22-01-2024 21:00:00,28.757294,77.278792,OZONE,2,77,42
India,Uttar_Pradesh,Ghaziabad,"Sanjay Nagar, Ghaziabad - UPPCB",22-01-2024 21:00:00,28.685382,77.453839,CO,18,102,59
India,Uttar_Pradesh,Kanpur,"FTI Kidwai Nagar, Kanpur - UPPCB",22-01-2024 21:00:00,26.428282,80.327067,PM2.5,6,312,73
India,Uttar_Pradesh,Kanpur,"FTI Kidwai Nagar, Kanpur - UPPCB",22-01-2024 21:00:00,26.428282,80.327067,PM10,9,405,108
India,Uttar_Pradesh,Kanpur,"FTI Kidwai Nagar, Kanpur - UPPCB",22-01-2024 21:00:00,26.428282,80.327067,NH3,3,7,4
India,Uttar_Pradesh,Kanpur,"FTI Kidwai Nagar, Kanpur - UPPCB",22-01-2024 21:00:00,26.428282,80.327067,SO2,21,22,21
India,Uttar_Pradesh,Kanpur,"NSI Kalyanpur, Kanpur - UPPCB",22-01-2024 21:00:00,26.509954,80.249612,NO2,11,12,11
India,Uttar_Pradesh,Kanpur,"NSI Kalyanpur, Kanpur - UPPCB",22-01-2024 21:00:00,26.509954,80.249612,CO,36,57,44
India,Uttar_Pradesh,Kanpur,"NSI Kalyanpur, Kanpur - UPPCB",22-01-2024 21:00:00,26.509954,80.249612,OZONE,13,21,17
India,Uttar_Pradesh,Khurja,"Kalindi Kunj, Khurja - UPPCB",22-01-2024 21:00:00,28.2348927,77.8683002,PM2.5,45,249,119
India,Uttar_Pradesh,Lucknow,"B R Ambedkar University, Lucknow - UPPCB",22-01-2024 21:00:00,26.766433,80.927299,PM10,89,277,113
India,Uttar_Pradesh,Lucknow,"Kendriya Vidyalaya, Lucknow - CPCB",22-01-2024 21:00:00,26.906111,80.948222,PM2.5,NA,NA,NA
India,Uttar_Pradesh,Lucknow,"Kendriya Vidyalaya, Lucknow - CPCB",22-01-2024 21:00:00,26.906111,80.948222,NO2,NA,NA,NA
India,Uttar_Pradesh,Lucknow,"Kendriya Vidyalaya, Lucknow - CPCB",22-01-2024 21:00:00,26.906111,80.948222,NH3,NA,NA,NA
India,Uttar_Pradesh,Lucknow,"Kukrail Picnic Spot-1, Lucknow - UPPCB",22-01-2024 21:00:00,26.90723,80.98579,PM2.5,114,198,152
India,Uttar_Pradesh,Lucknow,"Lalbagh, Lucknow - CPCB",22-01-2024 21:00:00,26.8458805,80.9365541,NO2,21,115,39
India,Uttar_Pradesh,Lucknow,"Lalbagh, Lucknow - CPCB",22-01-2024 21:00:00,26.8458805,80.9365541,SO2,1,20,10
India,Uttar_Pradesh,Lucknow,"Lalbagh, Lucknow - CPCB",22-01-2024 21:00:00,26.8458805,80.9365541,CO,70,173,173
India,Uttar_Pradesh,Lucknow,"Talkatora District Industries Center, Lucknow - CPCB",22-01-2024 21:00:00,26.83399722,80.8917361,PM2.5,113,415,200
India,Uttar_Pradesh,Meerut,"Jai Bhim Nagar, Meerut - UPPCB",22-01-2024 21:00:00,28.9535882,77.7622941,NH3,7,10,9
India,Uttar_Pradesh,Meerut,"Pallavpuram Phase 2, Meerut - UPPCB",22-01-2024 21:00:00,29.063510,77.709723,PM2.5,139,343,193
India,Uttar_Pradesh,Moradabad,"Buddhi Vihar, Moradabad - UPPCB",22-01-2024 21:00:00,28.83526,78.74460,NH3,6,8,7
India,Uttar_Pradesh,Moradabad,"Eco Herbal Park, Moradabad - UPPCB",22-01-2024 21:00:00,28.840739,78.697531,PM2.5,120,315,196
India,Uttar_Pradesh,Moradabad,"Eco Herbal Park, Moradabad - UPPCB",22-01-2024 21:00:00,28.840739,78.697531,OZONE,4,5,5
India,Uttar_Pradesh,Moradabad,"Employment Office, Moradabad - UPPCB",22-01-2024 21:00:00,28.88528,78.73880,CO,30,57,40
India,Uttar_Pradesh,Moradabad,"Employment Office, Moradabad - UPPCB",22-01-2024 21:00:00,28.88528,78.73880,OZONE,13,18,16
India,Uttar_Pradesh,Moradabad,"Jigar Colony, Moradabad - UPPCB",22-01-2024 21:00:00,28.856664,78.772638,PM10,105,144,126
India,Uttar_Pradesh,Moradabad,"Jigar Colony, Moradabad - UPPCB",22-01-2024 21:00:00,28.856664,78.772638,NO2,22,23,23
India,Uttar_Pradesh,Moradabad,"Kashiram Nagar, Moradabad - UPPCB",22-01-2024 21:00:00,28.849399,78.742362,SO2,19,27,23
India,Uttar_Pradesh,Moradabad,"Transport Nagar, Moradabad - UPPCB",22-01-2024 21:00:00,28.802625,78.753728,PM2.5,82,214,116
India,Uttar_Pradesh,Moradabad,"Transport Nagar, Moradabad - UPPCB",22-01-2024 21:00:00,28.802625,78.753728,PM10,66,124,93
India,Uttar_Pradesh,Moradabad,"Transport Nagar, Moradabad - UPPCB",22-01-2024 21:00:00,28.802625,78.753728,NH3,6,6,6
India,Uttar_Pradesh,Muzaffarnagar,"New Mandi, Muzaffarnagar - UPPCB",22-01-2024 21:00:00,29.4723508,77.7194031,PM10,115,217,158
India,Uttar_Pradesh,Noida,"Sector - 125, Noida - UPPCB",22-01-2024 21:00:00,28.5447608,77.3231257,PM10,127,213,166
India,Uttar_Pradesh,Noida,"Sector - 125, Noida - UPPCB",22-01-2024 21:00:00,28.5447608,77.3231257,CO,41,76,53
India,Uttar_Pradesh,Noida,"Sector - 62, Noida - IMD",22-01-2024 21:00:00,28.6245479,77.3577104,OZONE,29,53,40
India,Uttar_Pradesh,Noida,"Sector-1, Noida - UPPCB",22-01-2024 21:00:00,28.5898,77.3101,PM2.5,106,307,225
India,Uttar_Pradesh,Noida,"Sector-1, Noida - UPPCB",22-01-2024 21:00:00,28.5898,77.3101,NO2,42,73,56
India,Uttar_Pradesh,Noida,"Sector-1, Noida - UPPCB",22-01-2024 21:00:00,28.5898,77.3101,SO2,8,15,10
India,Uttar_Pradesh,Noida,"Sector-116, Noida - UPPCB",22-01-2024 21:00:00,28.569230,77.393848,NH3,6,12,8
India,Uttar_Pradesh,Noida,"Sector-116, Noida - UPPCB",22-01-2024 21:00:00,28.569230,77.393848,CO,24,74,50
India,Uttar_Pradesh,Noida,"Sector-116, Noida - UPPCB",22-01-2024 21:00:00,28.569230,77.393848,OZONE,6,54,31
India,Uttar_Pradesh,Prayagraj,"Motilal Nehru NIT, Prayagraj - UPPCB",22-01-2024 21:00:00,25.494,81.863,PM2.5,40,236,101
India,Uttar_Pradesh,Prayagraj,"Motilal Nehru NIT, Prayagraj - UPPCB",22-01-2024 21:00:00,25.494,81.863,PM10,52,167,97
India,Uttar_Pradesh,Prayagraj,"Motilal Nehru NIT, Prayagraj - UPPCB",22-01-2024 21:00:00,25.494,81.863,CO,14,92,34
India,Uttar_Pradesh,Varanasi,"Bhelupur, Varanasi - UPPCB",22-01-2024 21:00:00,25.301778,82.996789,NO2,25,52,35
India,Uttar_Pradesh,Varanasi,"IESD Banaras Hindu University, Varanasi - UPPCB",22-01-2024 21:00:00,25.262326,82.995408,NO2,2,3,2
India,Uttar_Pradesh,Varanasi,"IESD Banaras Hindu University, Varanasi - UPPCB",22-01-2024 21:00:00,25.262326,82.995408,NH3,1,1,1
India,Uttar_Pradesh,Varanasi,"IESD Banaras Hindu University, Varanasi - UPPCB",22-01-2024 21:00:00,25.262326,82.995408,CO,34,57,44
India,Uttar_Pradesh,Varanasi,"Maldahiya, Varanasi - UPPCB",22-01-2024 21:00:00,25.32393,82.99687,PM10,56,143,91
India,Uttar_Pradesh,Varanasi,"Maldahiya, Varanasi - UPPCB",22-01-2024 21:00:00,25.32393,82.99687,CO,22,115,33
India,Uttar_Pradesh,Vrindavan,"Omex Eternity, Vrindavan - UPPCB",22-01-2024 21:00:00,27.5714090,77.6557570,SO2,34,36,35
India,Uttar_Pradesh,Vrindavan,"Omex Eternity, Vrindavan - UPPCB",22-01-2024 21:00:00,27.5714090,77.6557570,CO,43,106,45
India,Uttarakhand,Dehradun,"Doon University, Dehradun - UKPCB",22-01-2024 21:00:00,30.269444,78.044167,NO2,2,8,4
India,Uttarakhand,Dehradun,"Doon University, Dehradun - UKPCB",22-01-2024 21:00:00,30.269444,78.044167,OZONE,3,9,6
India,Uttarakhand,Kashipur,"Govt. Girls Inter College, Kashipur - UKPCB",22-01-2024 21:00:00,29.2124114,78.9611753,PM2.5,138,306,201
India,Uttarakhand,Kashipur,"Govt. Girls Inter College, Kashipur - UKPCB",22-01-2024 21:00:00,29.2124114,78.9611753,PM10,91,150,115
India,Uttarakhand,Rishikesh,"Shivaji Nagar, Rishikesh - UKPCB",22-01-2024 21:00:00,30.075911,78.2859547,PM10,72,133,94
India,Uttarakhand,Rishikesh,"Shivaji Nagar, Rishikesh - UKPCB",22-01-2024 21:00:00,30.075911,78.2859547,NH3,3,3,3
India,West_Bengal,Durgapur,"Sidhu Kanhu Indoor Stadium, Durgapur - WBPCB",22-01-2024 21:00:00,23.5404352,87.2892225,PM10,120,174,152
India,West_Bengal,Durgapur,"Sidhu Kanhu Indoor Stadium, Durgapur - WBPCB",22-01-2024 21:00:00,23.5404352,87.2892225,CO,30,60,40
India,West_Bengal,Durgapur,"Sidhu Kanhu Indoor Stadium, Durgapur - WBPCB",22-01-2024 21:00:00,23.5404352,87.2892225,OZONE,2,54,20
India,West_Bengal,Haldia,"Priyambada Housing Estate, Haldia - WBPCB",22-01-2024 21:00:00,22.06047,88.109737,PM2.5,97,228,159
India,West_Bengal,Haldia,"Priyambada Housing Estate, Haldia - WBPCB",22-01-2024 21:00:00,22.06047,88.109737,NO2,27,46,35
India,West_Bengal,Haldia,"Priyambada Housing Estate, Haldia - WBPCB",22-01-2024 21:00:00,22.06047,88.109737,CO,31,86,40
India,West_Bengal,Howrah,"Belur Math, Howrah - WBPCB",22-01-2024 21:00:00,22.629801,88.352017,NH3,4,12,5
India,West_Bengal,Howrah,"Belur Math, Howrah - WBPCB",22-01-2024 21:00:00,22.629801,88.352017,OZONE,10,58,39
India,West_Bengal,Howrah,"Ghusuri, Howrah - WBPCB",22-01-2024 21:00:00,22.611968,88.347422,PM10,NA,NA,NA
India,West_Bengal,Howrah,"Ghusuri, Howrah - WBPCB",22-01-2024 21:00:00,22.611968,88.347422,SO2,5,8,7
India,West_Bengal,Howrah,"Ghusuri, Howrah - WBPCB",22-01-2024 21:00:00,22.611968,88.347422,CO,14,103,29
India,West_Bengal,Howrah,"Padmapukur, Howrah - WBPCB",22-01-2024 21:00:00,22.5687319,88.2797276,SO2,10,27,14
India,West_Bengal,Kolkata,"Ballygunge, Kolkata - WBPCB",22-01-2024 21:00:00,22.5367507,88.3638022,PM10,144,269,196
India,West_Bengal,Kolkata,"Ballygunge, Kolkata - WBPCB",22-01-2024 21:00:00,22.5367507,88.3638022,OZONE,6,78,44
India,West_Bengal,Kolkata,"Bidhannagar, Kolkata - WBPCB",22-01-2024 21:00:00,22.58157048,88.41002457,PM2.5,177,323,265
India,West_Bengal,Kolkata,"Bidhannagar, Kolkata - WBPCB",22-01-2024 21:00:00,22.58157048,88.41002457,PM10,143,300,195
India,West_Bengal,Kolkata,"Bidhannagar, Kolkata - WBPCB",22-01-2024 21:00:00,22.58157048,88.41002457,CO,46,107,52
India,West_Bengal,Kolkata,"Fort William, Kolkata - WBPCB",22-01-2024 21:00:00,22.556640,88.342674,PM10,155,221,183
India,West_Bengal,Kolkata,"Fort William, Kolkata - WBPCB",22-01-2024 21:00:00,22.556640,88.342674,NH3,9,12,10
India,West_Bengal,Kolkata,"Jadavpur, Kolkata - WBPCB",22-01-2024 21:00:00,22.49929,88.36917,SO2,3,8,5
India,West_Bengal,Kolkata,"Jadavpur, Kolkata - WBPCB",22-01-2024 21:00:00,22.49929,88.36917,OZONE,8,21,16
India,West_Bengal,Kolkata,"Rabindra Sarobar, Kolkata - WBPCB",22-01-2024 21:00:00,22.51106,88.35142,NO2,36,191,85
India,West_Bengal,Kolkata,"Rabindra Sarobar, Kolkata - WBPCB",22-01-2024 21:00:00,22.51106,88.35142,NH3,5,22,9
India,West_Bengal,Kolkata,"Victoria, Kolkata - WBPCB",22-01-2024 21:00:00,22.5448082,88.3403691,OZONE,5,103,50
India,West_Bengal,Siliguri,"Ward-32 Bapupara, Siliguri - WBPCB",22-01-2024 21:00:00,26.6879226,88.4152495,NH3,9,11,10
India,Andhra_Pradesh,Amaravati,"Secretariat, Amaravati - APPCB",22-01-2024 21:00:00,16.5150833,80.5181667,NH3,4,4,4
India,Andhra_Pradesh,Chittoor,"Gangineni Cheruvu, Chittoor - APPCB",22-01-2024 21:00:00,13.204880,79.097889,CO,23,47,45
India,Andhra_Pradesh,Rajamahendravaram,"Anand Kala Kshetram, Rajamahendravaram - APPCB",22-01-2024 21:00:00,16.9872867,81.7363176,PM2.5,NA,NA,NA
India,Andhra_Pradesh,Rajamahendravaram,"Anand Kala Kshetram, Rajamahendravaram - APPCB",22-01-2024 21:00:00,16.9872867,81.7363176,PM10,NA,NA,NA
India,Andhra_Pradesh,Rajamahendravaram,"Anand Kala Kshetram, Rajamahendravaram - APPCB",22-01-2024 21:00:00,16.9872867,81.7363176,NO2,NA,NA,NA
India,Andhra_Pradesh,Rajamahendravaram,"Anand Kala Kshetram, Rajamahendravaram - APPCB",22-01-2024 21:00:00,16.9872867,81.7363176,OZONE,4,7,6
India,Andhra_Pradesh,Tirupati,"Vaikuntapuram, Tirupati - APPCB",22-01-2024 21:00:00,13.615387,79.409230,CO,8,17,13
India,Andhra_Pradesh,Vijayawada,"HB Colony, Vijayawada - APPCB",22-01-2024 21:00:00,16.536107,80.594233,CO,NA,NA,NA
India,Andhra_Pradesh,Visakhapatnam,"GVM Corporation, Visakhapatnam - APPCB",22-01-2024 21:00:00,17.72,83.3,PM2.5,58,310,140
India,Andhra_Pradesh,Visakhapatnam,"GVM Corporation, Visakhapatnam - APPCB",22-01-2024 21:00:00,17.72,83.3,PM10,77,185,127
India,Andhra_Pradesh,Visakhapatnam,"GVM Corporation, Visakhapatnam - APPCB",22-01-2024 21:00:00,17.72,83.3,NO2,22,50,38
India,Andhra_Pradesh,Visakhapatnam,"GVM Corporation, Visakhapatnam - APPCB",22-01-2024 21:00:00,17.72,83.3,NH3,3,6,4
India,Arunachal_Pradesh,Naharlagun,"Naharlagun, Naharlagun - APSPCB",22-01-2024 21:00:00,27.103358,93.679645,PM10,NA,NA,NA
India,Assam,Byrnihat,"Central Academy for SFS, Byrnihat - PCBA",22-01-2024 21:00:00,26.071318,91.87488,NH3,1,5,2
India,Assam,Guwahati,"LGBI Airport, Guwahati - PCBA",22-01-2024 21:00:00,26.10887,91.589544,PM2.5,330,420,358
India,Assam,Guwahati,"LGBI Airport, Guwahati - PCBA",22-01-2024 21:00:00,26.10887,91.589544,NH3,1,7,2
India,Assam,Guwahati,"LGBI Airport, Guwahati - PCBA",22-01-2024 21:00:00,26.10887,91.589544,OZONE,3,58,38
India,Assam,Guwahati,"Pan Bazaar, Guwahati - PCBA",22-01-2024 21:00:00,26.187500,91.744194,CO,52,105,69
India,Assam,Guwahati,"Railway Colony, Guwahati - PCBA",22-01-2024 21:00:00,26.181742,91.78063,PM10,165,435,195
India,Assam,Guwahati,"Railway Colony, Guwahati - PCBA",22-01-2024 21:00:00,26.181742,91.78063,SO2,19,24,21
India,Assam,Guwahati,"Railway Colony, Guwahati - PCBA",22-01-2024 21:00:00,26.181742,91.78063,OZONE,8,41,25
India,Assam,Nagaon,"Christianpatty, Nagaon - PCBA",22-01-2024 21:00:00,26.349082,92.68449,NH3,1,1,1
India,Assam,Nalbari,"Bata Chowk, Nalbari - PCBA",22-01-2024 21:00:00,26.446912,91.439057,NO2,9,35,23
India,Assam,Sivasagar,"Girls College, Sivasagar - PCBA",22-01-2024 21:00:00,26.987634,94.636574,PM2.5,13,67,36
India,Bihar,Arrah,"New DM Office, Arrah - BSPCB",22-01-2024 21:00:00,25.5626095,84.663264,CO,2,42,14
India,Bihar,Aurangabad,"Gurdeo Nagar, Aurangabad - BSPCB",22-01-2024 21:00:00,24.75746,84.366208,CO,18,86,44
India,Bihar,Bettiah,"Kamalnath Nagar, Bettiah - BSPCB",22-01-2024 21:00:00,26.80365,84.51954,NO2,1,5,2
India,Bihar,Bhagalpur,"Mayaganj, Bhagalpur - BSPCB",22-01-2024 21:00:00,25.265194,87.012947,PM10,141,292,173
India,Bihar,Bhagalpur,"Mayaganj, Bhagalpur - BSPCB",22-01-2024 21:00:00,25.265194,87.012947,CO,8,11,9
India,Bihar,Bihar Sharif,"D M Colony, Bihar Sharif - BSPCB",22-01-2024 21:00:00,25.204762,85.514960,PM10,75,187,128
India,Bihar,Chhapra,"Darshan Nagar, Chhapra - BSPCB",22-01-2024 21:00:00,25.7808257,84.7446768,CO,24,46,39
India,Bihar,Gaya,"Collectorate, Gaya - BSPCB",22-01-2024 21:00:00,24.7955,84.9994,SO2,16,24,19
India,Bihar,Gaya,"Kareemganj, Gaya - BSPCB",22-01-2024 21:00:00,24.792403,84.992416,NH3,1,6,3
India,Bihar,Gaya,"Kareemganj, Gaya - BSPCB",22-01-2024 21:00:00,24.792403,84.992416,OZONE,6,31,17
India,Bihar,Gaya,"SFTI Kusdihra, Gaya - BSPCB",22-01-2024 21:00:00,24.762518,84.982348,CO,70,107,81
India,Bihar,Katihar,"Mirchaibari, Katihar - BSPCB",22-01-2024 21:00:00,25.560083,87.553265,PM2.5,92,351,126
India,Bihar,Katihar,"Mirchaibari, Katihar - BSPCB",22-01-2024 21:00:00,25.560083,87.553265,CO,32,39,35
India,Bihar,Kishanganj,"SDM Office_Khagra, Kishanganj - BSPCB",22-01-2024 21:00:00,26.0881305,87.93840336,PM2.5,7,113,37
India,Bihar,Kishanganj,"SDM Office_Khagra, Kishanganj - BSPCB",22-01-2024 21:00:00,26.0881305,87.93840336,NO2,28,37,31
India,Bihar,Kishanganj,"SDM Office_Khagra, Kishanganj - BSPCB",22-01-2024 21:00:00,26.0881305,87.93840336,OZONE,11,19,14
India,Bihar,Manguraha,"Forest Rest House, Manguraha - BSPCB",22-01-2024 21:00:00,27.308328,84.531742,NH3,2,2,2
India,Bihar,Motihari,"Gandak Colony, Motihari - BSPCB",22-01-2024 21:00:00,26.63086,84.90051,NH3,10,17,13
India,Bihar,Motihari,"Gandak Colony, Motihari - BSPCB",22-01-2024 21:00:00,26.63086,84.90051,OZONE,34,104,77
India,Bihar,Munger,"Town Hall, Munger - BSPCB",22-01-2024 21:00:00,25.376776,86.471523,NO2,8,10,9
India,Bihar,Muzaffarpur,"Buddha Colony, Muzaffarpur - BSPCB",22-01-2024 21:00:00,26.11442,85.39813,SO2,6,64,19
India,Bihar,Muzaffarpur,"Muzaffarpur Collectorate, Muzaffarpur - BSPCB",22-01-2024 21:00:00,26.1209,85.3647,PM2.5,83,351,180
India,Bihar,Patna,"DRM Office Danapur, Patna - BSPCB",22-01-2024 21:00:00,25.586562,85.043586,PM2.5,NA,NA,NA
India,Bihar,Patna,"DRM Office Danapur, Patna - BSPCB",22-01-2024 21:00:00,25.586562,85.043586,SO2,7,13,9
India,Bihar,Patna,"IGSC Planetarium Complex, Patna - BSPCB",22-01-2024 21:00:00,25.610369,85.132568,CO,38,54,51
India,Bihar,Patna,"Muradpur, Patna - BSPCB",22-01-2024 21:00:00,25.619651,85.147382,NO2,3,10,6
India,Bihar,Patna,"Samanpura, Patna - BSPCB",22-01-2024 21:00:00,25.596727,85.085624,PM2.5,NA,NA,NA
India,Bihar,Saharsa,"Police Line, Saharsa - BSPCB",22-01-2024 21:00:00,25.892357,86.590325,OZONE,12,54,41
India,Bihar,Samastipur,"DM Office_Kasipur, Samastipur - BSPCB",22-01-2024 21:00:00,25.859655,85.77944,NO2,3,6,5
India,Bihar,Sasaram,"Dada Peer, Sasaram - BSPCB",22-01-2024 21:00:00,24.952822,84.002396,PM2.5,141,343,236
India,Bihar,Siwan,"Chitragupta Nagar, Siwan - BSPCB",22-01-2024 21:00:00,26.2271665,84.3570427,NH3,2,6,3
India,Bihar,Siwan,"Chitragupta Nagar, Siwan - BSPCB",22-01-2024 21:00:00,26.2271665,84.3570427,SO2,25,35,32
India,Chandigarh,Chandigarh,"Sector 22, Chandigarh - CPCC",22-01-2024 21:00:00,30.735567,76.775714,SO2,5,38,19
India,Chandigarh,Chandigarh,"Sector-25, Chandigarh - CPCC",22-01-2024 21:00:00,30.751462,76.762879,PM2.5,252,329,308
India,Chandigarh,Chandigarh,"Sector-25, Chandigarh - CPCC",22-01-2024 21:00:00,30.751462,76.762879,PM10,155,284,216
India,Chandigarh,Chandigarh,"Sector-25, Chandigarh - CPCC",22-01-2024 21:00:00,30.751462,76.762879,OZONE,1,7,4
India,Chhattisgarh,Bhilai,"32Bungalows, Bhilai - CECB",22-01-2024 21:00:00,21.194815,81.314770,OZONE,4,5,4
India,Chhattisgarh,Bhilai,"Civic Center, Bhilai - Bhilai Steel Plant",22-01-2024 21:00:00,21.185571,81.343175,NO2,10,13,11
India,Chhattisgarh,Bhilai,"Civic Center, Bhilai - Bhilai Steel Plant",22-01-2024 21:00:00,21.185571,81.343175,NH3,2,3,2
India,Chhattisgarh,Bhilai,"Civic Center, Bhilai - Bhilai Steel Plant",22-01-2024 21:00:00,21.185571,81.343175,OZONE,9,41,28
India,Chhattisgarh,Bhilai,"Hathkhoj, Bhilai - CECB",22-01-2024 21:00:00,21.224231,81.408350,PM10,71,129,102
India,Chhattisgarh,Bhilai,"Hathkhoj, Bhilai - CECB",22-01-2024 21:00:00,21.224231,81.408350,NH3,7,8,8
India,Chhattisgarh,Bhilai,"Hathkhoj, Bhilai - CECB",22-01-2024 21:00:00,21.224231,81.408350,SO2,43,121,81
India,Chhattisgarh,Bhilai,"Hathkhoj, Bhilai - CECB",22-01-2024 21:00:00,21.224231,81.408350,OZONE,15,34,29
India,Chhattisgarh,Bilaspur,"Mangala, Bilaspur - NTPC",22-01-2024 21:00:00,22.08815,82.13737,PM2.5,NA,NA,NA
India,Chhattisgarh,Chhal,"Nawapara SECL Colony, Chhal - CECB",22-01-2024 21:00:00,22.118125,83.140608,PM10,28,111,65
India,Chhattisgarh,Korba,"Rampur, Korba - CECB",22-01-2024 21:00:00,22.368195,82.746431,OZONE,2,62,16
India,Chhattisgarh,Korba,"Urja Nagar, Korba - CECB",22-01-2024 21:00:00,22.348441,82.549611,SO2,3,18,7
India,Chhattisgarh,Kunjemura,"OP Jindal School, Kunjemura - CECB",22-01-2024 21:00:00,22.126650,83.483212,PM10,23,346,86
India,Chhattisgarh,Kunjemura,"OP Jindal School, Kunjemura - CECB",22-01-2024 21:00:00,22.126650,83.483212,CO,24,59,36
India,Chhattisgarh,Milupara,"Govt. Higher Secondary School, Milupara - CECB",22-01-2024 21:00:00,22.1910172,83.5197009,CO,14,43,29
India,Chhattisgarh,Raipur,"Bhatagaon New ISBT, Raipur - CECB",22-01-2024 21:00:00,21.219665,81.630094,PM2.5,41,105,56
India,Chhattisgarh,Raipur,"Krishak Nagar, Raipur - CECB",22-01-2024 21:00:00,21.237755,81.705301,NO2,20,36,30
India,Chhattisgarh,Raipur,"Krishak Nagar, Raipur - CECB",22-01-2024 21:00:00,21.237755,81.705301,NH3,1,1,1
India,Chhattisgarh,Tumidih,"OP Jindal Industrial Park, Tumidih - CECB",22-01-2024 21:00:00,22.06631475,83.33820077,PM10,22,369,89
India,Chhattisgarh,Tumidih,"OP Jindal Industrial Park, Tumidih - CECB",22-01-2024 21:00:00,22.06631475,83.33820077,NO2,10,41,20
India,Chhattisgarh,Tumidih,"OP Jindal Industrial Park, Tumidih - CECB",22-01-2024 21:00:00,22.06631475,83.33820077,OZONE,4,72,46
India,Delhi,Delhi,"Alipur, Delhi - DPCC",22-01-2024 21:00:00,28.815329,77.153010,NH3,9,15,12
India,Delhi,Delhi,"Alipur, Delhi - DPCC",22-01-2024 21:00:00,28.815329,77.153010,OZONE,5,110,50
India,Delhi,Delhi,"Aya Nagar, Delhi - IMD",22-01-2024 21:00:00,28.4706914,77.1099364,PM10,NA,NA,NA
India,Delhi,Delhi,"Bawana, Delhi - DPCC",22-01-2024 21:00:00,28.776200,77.051074,NO2,16,103,47
India,Delhi,Delhi,"Burari Crossing, Delhi - IMD",22-01-2024 21:00:00,28.7256504,77.2011573,CO,106,106,106
India,Delhi,Delhi,"Burari Crossing, Delhi - IMD",22-01-2024 21:00:00,28.7256504,77.2011573,OZONE,24,84,49
India,Delhi,Delhi,"CRRI Mathura Road, Delhi - IMD",22-01-2024 21:00:00,28.5512005,77.2735737,PM10,NA,NA,NA
India,Delhi,Delhi,"DTU, Delhi - CPCB",22-01-2024 21:00:00,28.7500499,77.1112615,SO2,26,28,27
India,Delhi,Delhi,"Dr. Karni Singh Shooting Range, Delhi - DPCC",22-01-2024 21:00:00,28.498571,77.264840,PM10,197,385,272
India,Delhi,Delhi,"Dr. Karni Singh Shooting Range, Delhi - DPCC",22-01-2024 21:00:00,28.498571,77.264840,CO,54,92,68
India,Delhi,Delhi,"IGI Airport (T3), Delhi - IMD",22-01-2024 21:00:00,28.5627763,77.1180053,PM10,NA,NA,NA
India,Delhi,Delhi,"IGI Airport (T3), Delhi - IMD",22-01-2024 21:00:00,28.5627763,77.1180053,NO2,NA,NA,NA
India,Delhi,Delhi,"IHBAS, Dilshad Garden, Delhi - CPCB",22-01-2024 21:00:00,28.6811736,77.3025234,PM10,125,317,196
India,Delhi,Delhi,"ITO, Delhi - CPCB",22-01-2024 21:00:00,28.628624,77.241060,NO2,13,117,51
India,Delhi,Delhi,"ITO, Delhi - CPCB",22-01-2024 21:00:00,28.628624,77.241060,NH3,5,10,6
India,Delhi,Delhi,"Jahangirpuri, Delhi - DPCC",22-01-2024 21:00:00,28.732820,77.170633,NH3,3,5,4
India,Delhi,Delhi,"Jawaharlal Nehru Stadium, Delhi - DPCC",22-01-2024 21:00:00,28.580280,77.233829,PM10,161,371,241
India,Delhi,Delhi,"Jawaharlal Nehru Stadium, Delhi - DPCC",22-01-2024 21:00:00,28.580280,77.233829,SO2,1,10,6
India,Delhi,Delhi,"Major Dhyan Chand National Stadium, Delhi - DPCC",22-01-2024 21:00:00,28.611281,77.237738,SO2,3,22,14
India,Delhi,Delhi,"Major Dhyan Chand National Stadium, Delhi - DPCC",22-01-2024 21:00:00,28.611281,77.237738,OZONE,3,3,3
India,Delhi,Delhi,"Mandir Marg, Delhi - DPCC",22-01-2024 21:00:00,28.636429,77.201067,PM2.5,292,398,345
India,Delhi,Delhi,"Mundka, Delhi - DPCC",22-01-2024 21:00:00,28.684678,77.076574,OZONE,2,14,9
India,Delhi,Delhi,"Najafgarh, Delhi - DPCC",22-01-2024 21:00:00,28.570173,76.933762,SO2,5,13,10
India,Delhi,Delhi,"Narela, Delhi - DPCC",22-01-2024 21:00:00,28.822836,77.101981,NH3,7,12,10
India,Delhi,Delhi,"Narela, Delhi - DPCC",22-01-2024 21:00:00,28.822836,77.101981,CO,75,111,98
India,Delhi,Delhi,"Nehru Nagar, Delhi - DPCC",22-01-2024 21:00:00,28.567890,77.250515,SO2,5,12,8
India,Delhi,Delhi,"New Moti Bagh, Delhi - MHUA",22-01-2024 21:00:00,28.57834,77.18400,NO2,NA,NA,NA
India,Delhi,Delhi,"New Moti Bagh, Delhi - MHUA",22-01-2024 21:00:00,28.57834,77.18400,CO,52,76,66
India,Delhi,Delhi,"North Campus, DU, Delhi - IMD",22-01-2024 21:00:00,28.6573814,77.1585447,PM2.5,NA,NA,NA
India,Delhi,Delhi,"North Campus, DU, Delhi - IMD",22-01-2024 21:00:00,28.6573814,77.1585447,OZONE,26,53,35
India,Delhi,Delhi,"Okhla Phase-2, Delhi - DPCC",22-01-2024 21:00:00,28.530785,77.271255,PM2.5,319,455,371
India,Delhi,Delhi,"Patparganj, Delhi - DPCC",22-01-2024 21:00:00,28.623763,77.287209,OZONE,1,6,4
India,Delhi,Delhi,"Punjabi Bagh, Delhi - DPCC",22-01-2024 21:00:00,28.674045,77.131023,CO,56,74,60
India,Delhi,Delhi,"R K Puram, Delhi - DPCC",22-01-2024 21:00:00,28.563262,77.186937,PM2.5,320,418,372
India,Delhi,Delhi,"R K Puram, Delhi - DPCC",22-01-2024 21:00:00,28.563262,77.186937,NH3,4,7,6
India,Delhi,Delhi,"Rohini, Delhi - DPCC",22-01-2024 21:00:00,28.732528,77.119920,CO,30,110,74
India,Delhi,Delhi,"Shadipur, Delhi - CPCB",22-01-2024 21:00:00,28.6514781,77.1473105,CO,34,112,66
India,Delhi,Delhi,"Sirifort, Delhi - CPCB",22-01-2024 21:00:00,28.5504249,77.2159377,CO,26,62,44
India,Delhi,Delhi,"Sonia Vihar, Delhi - DPCC",22-01-2024 21:00:00,28.710508,77.249485,NO2,31,98,57
India,Delhi,Delhi,"Sri Aurobindo Marg, Delhi - DPCC",22-01-2024 21:00:00,28.531346,77.190156,PM2.5,312,414,362
India,Delhi,Delhi,"Sri Aurobindo Marg, Delhi - DPCC",22-01-2024 21:00:00,28.531346,77.190156,NO2,48,78,61
India,Delhi,Delhi,"Vivek Vihar, Delhi - DPCC",22-01-2024 21:00:00,28.672342,77.315260,PM2.5,314,456,379
India,Delhi,Delhi,"Vivek Vihar, Delhi - DPCC",22-01-2024 21:00:00,28.672342,77.315260,NH3,5,9,7
India,Delhi,Delhi,"Vivek Vihar, Delhi - DPCC",22-01-2024 21:00:00,28.672342,77.315260,OZONE,2,12,8
India,Delhi,Delhi,"Wazirpur, Delhi - DPCC",22-01-2024 21:00:00,28.699793,77.165453,NO2,68,161,107
India,Delhi,Delhi,"Wazirpur, Delhi - DPCC",22-01-2024 21:00:00,28.699793,77.165453,SO2,10,64,28
India,Gujarat,Ahmedabad,"Chandkheda, Ahmedabad - IITM",22-01-2024 21:00:00,23.107969,72.574648,NH3,3,4,4
India,Gujarat,Ahmedabad,"Gyaspur, Ahmedabad - IITM",22-01-2024 21:00:00,22.977134,72.553024,NO2,9,16,12
India,Gujarat,Ahmedabad,"Raikhad, Ahmedabad - IITM",22-01-2024 21:00:00,23.020509,72.579261,OZONE,9,12,11
India,Gujarat,Ahmedabad,"Rakhial, Ahmedabad - IITM",22-01-2024 21:00:00,23.016834,72.625775,CO,4,102,24
India,Gujarat,Ahmedabad,"Rakhial, Ahmedabad - IITM",22-01-2024 21:00:00,23.016834,72.625775,OZONE,1,50,32
India,Gujarat,Ahmedabad,"SAC ISRO Bopal, Ahmedabad - IITM",22-01-2024 21:00:00,23.041137,72.456691,PM2.5,55,324,174
India,Gujarat,Ahmedabad,"SAC ISRO Bopal, Ahmedabad - IITM",22-01-2024 21:00:00,23.041137,72.456691,NH3,3,4,4
India,Gujarat,Ahmedabad,"SVPI Airport Hansol, Ahmedabad - IITM",22-01-2024 21:00:00,23.076793,72.627874,SO2,5,8,7
India,Gujarat,Ankleshwar,"GIDC, Ankleshwar - GPCB",22-01-2024 21:00:00,21.613267,73.010555,PM10,46,113,86
India,Gujarat,Gandhinagar,"GIFT City, Gandhinagar - IITM",22-01-2024 21:00:00,23.163798,72.677768,PM2.5,38,121,64
India,Gujarat,Gandhinagar,"GIFT City, Gandhinagar - IITM",22-01-2024 21:00:00,23.163798,72.677768,SO2,4,8,6
India,Gujarat,Gandhinagar,"IIPHG Lekawada, Gandhinagar - IITM",22-01-2024 21:00:00,23.243639,72.68994,PM10,54,156,100
India,Gujarat,Surat,"Science Center, Surat - SMC",22-01-2024 21:00:00,21.170046,72.795405,NO2,24,33,28
India,Gujarat,Vatva,"Phase-4 GIDC, Vatva - GPCB",22-01-2024 21:00:00,22.969611,72.643500,CO,38,40,40
India,Haryana,Ambala,"Patti Mehar, Ambala - HSPCB",22-01-2024 21:00:00,30.379589,76.778328,SO2,4,30,9
India,Haryana,Bahadurgarh,"Arya Nagar, Bahadurgarh - HSPCB",22-01-2024 21:00:00,28.6701,76.9254,NO2,34,41,36
India,Haryana,Bahadurgarh,"Arya Nagar, Bahadurgarh - HSPCB",22-01-2024 21:00:00,28.6701,76.9254,CO,38,57,48
India,Haryana,Ballabgarh,"Nathu Colony, Ballabgarh - HSPCB",22-01-2024 21:00:00,28.3419248,77.319699,NO2,12,13,13
India,Haryana,Ballabgarh,"Nathu Colony, Ballabgarh - HSPCB",22-01-2024 21:00:00,28.3419248,77.319699,SO2,2,17,10
India,Haryana,Bhiwani,"H.B. Colony, Bhiwani - HSPCB",22-01-2024 21:00:00,28.806223,76.141105,CO,34,56,47
India,Haryana,Dharuhera,"Municipal Corporation Office, Dharuhera -  HSPCB",22-01-2024 21:00:00,28.206800,76.799700,NO2,44,112,67
India,Haryana,Faridabad,"New Industrial Town, Faridabad - HSPCB",22-01-2024 21:00:00,28.39072,77.30059,NH3,3,4,3
India,Haryana,Faridabad,"Sector 11, Faridabad - HSPCB",22-01-2024 21:00:00,28.376058,77.315741,PM2.5,NA,NA,NA
India,Haryana,Faridabad,"Sector 30, Faridabad - HSPCB",22-01-2024 21:00:00,28.4417,77.3217,PM10,NA,NA,NA
India,Haryana,Faridabad,"Sector 30, Faridabad - HSPCB",22-01-2024 21:00:00,28.4417,77.3217,SO2,NA,NA,NA
India,Haryana,Faridabad,"Sector- 16A, Faridabad - HSPCB",22-01-2024 21:00:00,28.4088421,77.3099081,CO,2,102,61
India,Haryana,Fatehabad,"Huda Sector, Fatehabad - HSPCB",22-01-2024 21:00:00,29.503664,75.467934,PM10,97,153,122
India,Haryana,Fatehabad,"Huda Sector, Fatehabad - HSPCB",22-01-2024 21:00:00,29.503664,75.467934,NO2,29,32,30
India,Haryana,Fatehabad,"Huda Sector, Fatehabad - HSPCB",22-01-2024 21:00:00,29.503664,75.467934,NH3,10,11,10
India,Haryana,Fatehabad,"Huda Sector, Fatehabad - HSPCB",22-01-2024 21:00:00,29.503664,75.467934,OZONE,20,25,22
India,Haryana,Gurugram,"Sector-51, Gurugram - HSPCB",22-01-2024 21:00:00,28.4227,77.0667,PM10,194,358,261
India,Haryana,Gurugram,"Vikas Sadan, Gurugram - HSPCB",22-01-2024 21:00:00,28.4501238,77.0263051,OZONE,8,68,44
India,Haryana,Hisar,"Urban Estate-II, Hisar - HSPCB",22-01-2024 21:00:00,29.140560,75.744941,NH3,3,4,3
India,Haryana,Hisar,"Urban Estate-II, Hisar - HSPCB",22-01-2024 21:00:00,29.140560,75.744941,OZONE,28,117,72
India,Haryana,Jind,"Police Lines, Jind - HSPCB",22-01-2024 21:00:00,29.307814,76.337619,PM2.5,122,321,169
India,Haryana,Kaithal,"Rishi Nagar, Kaithal - HSPCB",22-01-2024 21:00:00,29.8006,76.4155,SO2,11,30,17
India,Haryana,Karnal,"Sector-12, Karnal - HSPCB",22-01-2024 21:00:00,29.695300,77.002700,NH3,10,13,11
India,Haryana,Karnal,"Sector-12, Karnal - HSPCB",22-01-2024 21:00:00,29.695300,77.002700,OZONE,31,34,32
India,Haryana,Kurukshetra,"Sector-7, Kurukshetra - HSPCB",22-01-2024 21:00:00,29.966942,76.875879,CO,2,73,48
India,Haryana,Manesar,"Sector-2 IMT, Manesar - HSPCB",22-01-2024 21:00:00,28.360699,76.936090,CO,10,46,33
India,Haryana,Palwal,"Shyam Nagar, Palwal - HSPCB",22-01-2024 21:00:00,28.1485564,77.3320667,OZONE,7,33,22
India,Haryana,Panipat,"Sector-18, Panipat - HSPCB",22-01-2024 21:00:00,29.497973,76.993331,NO2,NA,NA,NA
India,Haryana,Panipat,"Sector-18, Panipat - HSPCB",22-01-2024 21:00:00,29.497973,76.993331,NH3,NA,NA,NA
India,Haryana,Panipat,"Sector-18, Panipat - HSPCB",22-01-2024 21:00:00,29.497973,76.993331,SO2,NA,NA,NA
India,Haryana,Panipat,"Sector-18, Panipat - HSPCB",22-01-2024 21:00:00,29.497973,76.993331,CO,23,26,24
India,Haryana,Rohtak,"MD University, Rohtak - HSPCB",22-01-2024 21:00:00,28.52123,76.37138,SO2,1,25,9
India,Haryana,Sirsa,"F-Block, Sirsa - HSPCB",22-01-2024 21:00:00,29.536400,75.015800,CO,45,52,49
India,Haryana,Sirsa,"F-Block, Sirsa - HSPCB",22-01-2024 21:00:00,29.536400,75.015800,OZONE,30,63,47
India,Haryana,Sonipat,"Murthal, Sonipat - HSPCB",22-01-2024 21:00:00,29.027200,77.062100,NH3,7,10,9
India,Haryana,Sonipat,"Murthal, Sonipat - HSPCB",22-01-2024 21:00:00,29.027200,77.062100,CO,2,40,30
India,Haryana,Yamuna Nagar,"Gobind Pura, Yamuna Nagar - HSPCB",22-01-2024 21:00:00,30.1480566,77.2893471,CO,82,112,104
India,Himachal Pradesh,Baddi,"HIMUDA Complex Phase-1, Baddi - HPPCB",22-01-2024 21:00:00,30.943887,76.801991,NH3,5,8,6
India,Himachal Pradesh,Baddi,"HIMUDA Complex Phase-1, Baddi - HPPCB",22-01-2024 21:00:00,30.943887,76.801991,SO2,16,113,47
India,Jharkhand,Dhanbad,"Sardar Patel Nagar, Dhanbad - JSPCB",22-01-2024 21:00:00,23.80569,86.44268,NO2,NA,NA,NA
India,Jharkhand,Dhanbad,"Sardar Patel Nagar, Dhanbad - JSPCB",22-01-2024 21:00:00,23.80569,86.44268,CO,133,196,189
India,Jharkhand,Pathardih,"Mohalbani Ghat, Pathardih - DMC",22-01-2024 21:00:00,23.669880,86.411725,CO,105,116,110
India,Karnataka,Bengaluru,"BTM Layout, Bengaluru - CPCB",22-01-2024 21:00:00,12.9135218,77.5950804,SO2,NA,NA,NA
India,Karnataka,Bengaluru,"Bapuji Nagar, Bengaluru - KSPCB",22-01-2024 21:00:00,12.951913,77.539784,SO2,5,7,6
India,Karnataka,Bengaluru,"City Railway Station, Bengaluru - KSPCB",22-01-2024 21:00:00,12.9756843,77.5660749,PM10,66,84,77
India,Karnataka,Bengaluru,"City Railway Station, Bengaluru - KSPCB",22-01-2024 21:00:00,12.9756843,77.5660749,CO,50,104,65
India,Karnataka,Bengaluru,"Hebbal, Bengaluru - KSPCB",22-01-2024 21:00:00,13.029152,77.585901,SO2,NA,NA,NA
India,Karnataka,Bengaluru,"Hombegowda Nagar, Bengaluru - KSPCB",22-01-2024 21:00:00,12.938539,77.590100,PM2.5,29,79,52
India,Karnataka,Bengaluru,"Hombegowda Nagar, Bengaluru - KSPCB",22-01-2024 21:00:00,12.938539,77.590100,SO2,4,5,5
India,Karnataka,Bengaluru,"Jigani, Bengaluru - KSPCB",22-01-2024 21:00:00,12.7816279,77.6299145,PM2.5,23,126,60
India,Karnataka,Bengaluru,"Jigani, Bengaluru - KSPCB",22-01-2024 21:00:00,12.7816279,77.6299145,NO2,21,33,25
India,Karnataka,Bengaluru,"Jigani, Bengaluru - KSPCB",22-01-2024 21:00:00,12.7816279,77.6299145,NH3,3,4,3
India,Karnataka,Bengaluru,"Kasturi Nagar, Bengaluru - KSPCB",22-01-2024 21:00:00,13.003872,77.664217,SO2,9,10,10
India,Karnataka,Bengaluru,"Peenya, Bengaluru - CPCB",22-01-2024 21:00:00,13.0270199,77.494094,NH3,5,5,5
India,Karnataka,Bengaluru,"Peenya, Bengaluru - CPCB",22-01-2024 21:00:00,13.0270199,77.494094,OZONE,35,37,37
India,Karnataka,Bengaluru,"Shivapura_Peenya, Bengaluru - KSPCB",22-01-2024 21:00:00,13.0246342,77.5080115,PM10,56,107,81
India,Karnataka,Bengaluru,"Shivapura_Peenya, Bengaluru - KSPCB",22-01-2024 21:00:00,13.0246342,77.5080115,NO2,15,16,15
India,Karnataka,Bengaluru,"Shivapura_Peenya, Bengaluru - KSPCB",22-01-2024 21:00:00,13.0246342,77.5080115,NH3,4,4,4
India,Karnataka,Bengaluru,"Silk Board, Bengaluru - KSPCB",22-01-2024 21:00:00,12.917348,77.622813,PM2.5,39,92,61
India,Karnataka,Bengaluru,"Silk Board, Bengaluru - KSPCB",22-01-2024 21:00:00,12.917348,77.622813,PM10,54,141,93
India,Karnataka,Bengaluru,"Silk Board, Bengaluru - KSPCB",22-01-2024 21:00:00,12.917348,77.622813,SO2,7,12,9
India,Karnataka,Bidar,"Naubad, Bidar - KSPCB",22-01-2024 21:00:00,17.930306,77.482194,NO2,7,8,8
India,Karnataka,Bidar,"Naubad, Bidar - KSPCB",22-01-2024 21:00:00,17.930306,77.482194,OZONE,9,47,40
India,Karnataka,Chikkaballapur,"Chikkaballapur Rural, Chikkaballapur - KSPCB",22-01-2024 21:00:00,13.428828,77.731418,NO2,7,13,9
India,Karnataka,Chikkaballapur,"Chikkaballapur Rural, Chikkaballapur - KSPCB",22-01-2024 21:00:00,13.428828,77.731418,OZONE,24,25,25
India,Karnataka,Davanagere,"Devaraj Urs Badavane, Davanagere - KSPCB",22-01-2024 21:00:00,14.475800,75.905200,SO2,1,9,5
India,Karnataka,Dharwad,"Kalabhavan, Dharwad - KSPCB",22-01-2024 21:00:00,15.459706,75.008381,PM2.5,47,78,56
India,Karnataka,Dharwad,"Kalabhavan, Dharwad - KSPCB",22-01-2024 21:00:00,15.459706,75.008381,SO2,3,6,4
India,Karnataka,Dharwad,"Kalabhavan, Dharwad - KSPCB",22-01-2024 21:00:00,15.459706,75.008381,CO,39,96,55
India,Karnataka,Gadag,"Panchal Nagar, Gadag - KSPCB",22-01-2024 21:00:00,15.411456,75.638133,CO,48,62,49
India,Karnataka,Hassan,"B.Katihalli, Hassan - KSPCB",22-01-2024 21:00:00,13.008556,76.125258,NO2,10,15,12
India,Karnataka,Hassan,"B.Katihalli, Hassan - KSPCB",22-01-2024 21:00:00,13.008556,76.125258,NH3,3,5,3
India,Karnataka,Hassan,"B.Katihalli, Hassan - KSPCB",22-01-2024 21:00:00,13.008556,76.125258,CO,14,26,19
India,Karnataka,Haveri,"Ashwini Nagar, Haveri - KSPCB",22-01-2024 21:00:00,14.791800,75.389600,SO2,NA,NA,NA
India,Karnataka,Kalaburagi,"Mahatma Basaveswar Colony, Kalaburgi - KSPCB",22-01-2024 21:00:00,17.336318,76.847397,CO,38,105,53
India,Karnataka,Karwar,"KHB Colony, Karwar - KSPCB",22-01-2024 21:00:00,14.816666,74.141003,NH3,2,4,2
India,Karnataka,Kolar,"Tamaka Ind. Area, Kolar - KSPCB",22-01-2024 21:00:00,13.1276288,78.1570122,NH3,5,9,7
India,Karnataka,Koppal,"Diwator Nagar, Koppal - KSPCB",22-01-2024 21:00:00,15.347630,76.181767,NO2,2,29,13
India,Karnataka,Madikeri,"Stuart Hill, Madikeri - KSPCB",22-01-2024 21:00:00,12.415911,75.735050,SO2,4,4,4
India,Karnataka,Madikeri,"Stuart Hill, Madikeri - KSPCB",22-01-2024 21:00:00,12.415911,75.735050,CO,4,42,18
