country,state,city,station,last_update,latitude,longitude,pollutant_id,pollutant_min,pollutant_max,pollutant_avg
India,Andhra_Pradesh,Amaravati,"Secretariat, Amaravati - APPCB",14-02-2024 22:00:00,16.5150833,80.5181667,CO,9,58,34
India,Andhra_Pradesh,Anantapur,"Gulzarpet, Anantapur - APPCB",14-02-2024 22:00:00,14.675886,77.593027,SO2,4,18,8
India,Andhra_Pradesh,Kadapa,"Yerramukkapalli, Kadapa - APPCB",14-02-2024 22:00:00,14.465052,78.824187,PM10,18,56,34
India,Andhra_Pradesh,Rajamahendravaram,"Anand Kala Kshetram, Rajamahendravaram - APPCB",14-02-2024 22:00:00,16.9872867,81.7363176,PM2.5,66,112,87
India,Andhra_Pradesh,Rajamahendravaram,"Anand Kala Kshetram, Rajamahendravaram - APPCB",14-02-2024 22:00:00,16.9872867,81.7363176,PM10,74,148,96
India,Andhra_Pradesh,Tirupati,"Tirumala, Tirupati - APPCB",14-02-2024 22:00:00,13.67,79.35,PM10,29,71,47
India,Andhra_Pradesh,Vijayawada,"HB Colony, Vijayawada - APPCB",14-02-2024 22:00:00,16.536107,80.594233,PM10,49,96,64
India,Andhra_Pradesh,Vijayawada,"HB Colony, Vijayawada - APPCB",14-02-2024 22:00:00,16.536107,80.594233,CO,24,29,24
India,Andhra_Pradesh,Vijayawada,"Rajiv Gandhi Park, Vijayawada - APPCB",14-02-2024 22:00:00,16.509717,80.612222,PM10,43,92,62
India,Andhra_Pradesh,Vijayawada,"Rajiv Gandhi Park, Vijayawada - APPCB",14-02-2024 22:00:00,16.509717,80.612222,SO2,6,13,7
India,Andhra_Pradesh,Vijayawada,"Rajiv Nagar, Vijayawada - APPCB",14-02-2024 22:00:00,16.554731,80.649110,CO,NA,NA,NA
India,Arunachal_Pradesh,Naharlagun,"Naharlagun, Naharlagun - APSPCB",14-02-2024 22:00:00,27.103358,93.679645,PM2.5,NA,NA,NA
India,Arunachal_Pradesh,Naharlagun,"Naharlagun, Naharlagun - APSPCB",14-02-2024 22:00:00,27.103358,93.679645,PM10,NA,NA,NA
India,Arunachal_Pradesh,Naharlagun,"Naharlagun, Naharlagun - APSPCB",14-02-2024 22:00:00,27.103358,93.679645,OZONE,NA,NA,NA
India,Assam,Byrnihat,"Central Academy for SFS, Byrnihat - PCBA",14-02-2024 22:00:00,26.071318,91.87488,PM2.5,NA,NA,NA
India,Assam,Byrnihat,"Central Academy for SFS, Byrnihat - PCBA",14-02-2024 22:00:00,26.071318,91.87488,PM10,NA,NA,NA
India,Assam,Byrnihat,"Central Academy for SFS, Byrnihat - PCBA",14-02-2024 22:00:00,26.071318,91.87488,NH3,1,8,6
India,Assam,Byrnihat,"Central Academy for SFS, Byrnihat - PCBA",14-02-2024 22:00:00,26.071318,91.87488,CO,9,104,34
India,Assam,Guwahati,"IITG, Guwahati - PCBA",14-02-2024 22:00:00,26.2028636,91.70046436,NO2,2,16,9
India,Assam,Guwahati,"IITG, Guwahati - PCBA",14-02-2024 22:00:00,26.2028636,91.70046436,CO,12,32,16
India,Assam,Guwahati,"LGBI Airport, Guwahati - PCBA",14-02-2024 22:00:00,26.10887,91.589544,NH3,NA,NA,NA
India,Assam,Guwahati,"LGBI Airport, Guwahati - PCBA",14-02-2024 22:00:00,26.10887,91.589544,OZONE,2,98,55
India,Assam,Guwahati,"Pan Bazaar, Guwahati - PCBA",14-02-2024 22:00:00,26.187500,91.744194,NO2,2,18,10
India,Assam,Guwahati,"Pan Bazaar, Guwahati - PCBA",14-02-2024 22:00:00,26.187500,91.744194,SO2,65,98,74
India,Assam,Guwahati,"Pan Bazaar, Guwahati - PCBA",14-02-2024 22:00:00,26.187500,91.744194,CO,34,111,74
India,Assam,Guwahati,"Pan Bazaar, Guwahati - PCBA",14-02-2024 22:00:00,26.187500,91.744194,OZONE,17,18,18
India,Assam,Guwahati,"Railway Colony, Guwahati - PCBA",14-02-2024 22:00:00,26.181742,91.78063,PM10,96,414,228
India,Assam,Nagaon,"Christianpatty, Nagaon - PCBA",14-02-2024 22:00:00,26.349082,92.68449,NH3,1,7,4
India,Assam,Nagaon,"Christianpatty, Nagaon - PCBA",14-02-2024 22:00:00,26.349082,92.68449,CO,2,117,73
India,Assam,Nalbari,"Bata Chowk, Nalbari - PCBA",14-02-2024 22:00:00,26.446912,91.439057,NO2,17,47,32
India,Assam,Nalbari,"Bata Chowk, Nalbari - PCBA",14-02-2024 22:00:00,26.446912,91.439057,NH3,1,6,2
India,Assam,Nalbari,"Bata Chowk, Nalbari - PCBA",14-02-2024 22:00:00,26.446912,91.439057,SO2,4,8,6
India,Assam,Silchar,"Tarapur, Silchar - PCBA",14-02-2024 22:00:00,24.82827,92.79525,PM2.5,33,48,39
India,Assam,Silchar,"Tarapur, Silchar - PCBA",14-02-2024 22:00:00,24.82827,92.79525,PM10,42,44,43
India,Assam,Silchar,"Tarapur, Silchar - PCBA",14-02-2024 22:00:00,24.82827,92.79525,NH3,1,1,1
India,Assam,Sivasagar,"Girls College, Sivasagar - PCBA",14-02-2024 22:00:00,26.987634,94.636574,NH3,2,2,2
India,Assam,Sivasagar,"Girls College, Sivasagar - PCBA",14-02-2024 22:00:00,26.987634,94.636574,OZONE,1,7,3
India,Bihar,Arrah,"New DM Office, Arrah - BSPCB",14-02-2024 22:00:00,25.5626095,84.663264,PM10,NA,NA,NA
India,Bihar,Arrah,"New DM Office, Arrah - BSPCB",14-02-2024 22:00:00,25.5626095,84.663264,NO2,17,61,32
India,Bihar,Bettiah,"Kamalnath Nagar, Bettiah - BSPCB",14-02-2024 22:00:00,26.80365,84.51954,SO2,12,21,17
India,Bihar,Bhagalpur,"DM Office_Kachari Chowk, Bhagalpur - BSPCB",14-02-2024 22:00:00,25.251013,86.989001,PM2.5,67,378,273
India,Bihar,Bhagalpur,"DM Office_Kachari Chowk, Bhagalpur - BSPCB",14-02-2024 22:00:00,25.251013,86.989001,SO2,6,18,12
India,Bihar,Bhagalpur,"DM Office_Kachari Chowk, Bhagalpur - BSPCB",14-02-2024 22:00:00,25.251013,86.989001,CO,38,90,67
India,Bihar,Bhagalpur,"Mayaganj, Bhagalpur - BSPCB",14-02-2024 22:00:00,25.265194,87.012947,CO,8,10,9
India,Bihar,Bihar Sharif,"D M Colony, Bihar Sharif - BSPCB",14-02-2024 22:00:00,25.204762,85.514960,SO2,1,11,6
India,Bihar,Buxar,"Charitra Van, Buxar - BSPCB (Formerly known as Central Jail)",14-02-2024 22:00:00,25.567520,83.966379,PM2.5,NA,NA,NA
India,Bihar,Chhapra,"Darshan Nagar, Chhapra - BSPCB",14-02-2024 22:00:00,25.7808257,84.7446768,CO,26,46,31
India,Bihar,Chhapra,"Darshan Nagar, Chhapra - BSPCB",14-02-2024 22:00:00,25.7808257,84.7446768,OZONE,1,5,3
India,Bihar,Gaya,"Kareemganj, Gaya - BSPCB",14-02-2024 22:00:00,24.792403,84.992416,OZONE,13,48,22
India,Bihar,Gaya,"SFTI Kusdihra, Gaya - BSPCB",14-02-2024 22:00:00,24.762518,84.982348,PM2.5,17,56,31
India,Bihar,Gaya,"SFTI Kusdihra, Gaya - BSPCB",14-02-2024 22:00:00,24.762518,84.982348,NH3,2,6,5
India,Bihar,Hajipur,"Industrial Area, Hajipur - BSPCB",14-02-2024 22:00:00,25.697189,85.245900,PM10,56,263,129
India,Bihar,Katihar,"Mirchaibari, Katihar - BSPCB",14-02-2024 22:00:00,25.560083,87.553265,NH3,3,4,3
India,Bihar,Kishanganj,"SDM Office_Khagra, Kishanganj - BSPCB",14-02-2024 22:00:00,26.0881305,87.93840336,NO2,37,45,40
India,Bihar,Kishanganj,"SDM Office_Khagra, Kishanganj - BSPCB",14-02-2024 22:00:00,26.0881305,87.93840336,NH3,15,18,16
India,Bihar,Kishanganj,"SDM Office_Khagra, Kishanganj - BSPCB",14-02-2024 22:00:00,26.0881305,87.93840336,CO,4,17,10
India,Bihar,Manguraha,"Forest Rest House, Manguraha - BSPCB",14-02-2024 22:00:00,27.308328,84.531742,PM10,54,242,99
India,Bihar,Manguraha,"Forest Rest House, Manguraha - BSPCB",14-02-2024 22:00:00,27.308328,84.531742,NO2,4,11,7
India,Bihar,Motihari,"Gandak Colony, Motihari - BSPCB",14-02-2024 22:00:00,26.63086,84.90051,PM2.5,210,318,289
India,Bihar,Motihari,"Gandak Colony, Motihari - BSPCB",14-02-2024 22:00:00,26.63086,84.90051,NH3,6,11,9
India,Bihar,Munger,"Town Hall, Munger - BSPCB",14-02-2024 22:00:00,25.376776,86.471523,SO2,13,44,34
India,Bihar,Muzaffarpur,"Buddha Colony, Muzaffarpur - BSPCB",14-02-2024 22:00:00,26.11442,85.39813,PM10,187,415,307
India,Bihar,Muzaffarpur,"MIT-Daudpur Kothi, Muzaffarpur - BSPCB",14-02-2024 22:00:00,26.1403345,85.3650192,NO2,5,9,7
India,Bihar,Muzaffarpur,"MIT-Daudpur Kothi, Muzaffarpur - BSPCB",14-02-2024 22:00:00,26.1403345,85.3650192,NH3,4,20,12
India,Bihar,Muzaffarpur,"MIT-Daudpur Kothi, Muzaffarpur - BSPCB",14-02-2024 22:00:00,26.1403345,85.3650192,SO2,10,12,10
India,Bihar,Muzaffarpur,"MIT-Daudpur Kothi, Muzaffarpur - BSPCB",14-02-2024 22:00:00,26.1403345,85.3650192,CO,16,106,48
India,Bihar,Muzaffarpur,"MIT-Daudpur Kothi, Muzaffarpur - BSPCB",14-02-2024 22:00:00,26.1403345,85.3650192,OZONE,5,22,13
India,Bihar,Muzaffarpur,"Muzaffarpur Collectorate, Muzaffarpur - BSPCB",14-02-2024 22:00:00,26.1209,85.3647,OZONE,5,22,13
India,Bihar,Patna,"DRM Office Danapur, Patna - BSPCB",14-02-2024 22:00:00,25.586562,85.043586,NH3,3,4,3
India,Bihar,Patna,"Govt. High School Shikarpur, Patna - BSPCB",14-02-2024 22:00:00,25.592539,85.227158,OZONE,6,27,15
India,Bihar,Patna,"IGSC Planetarium Complex, Patna - BSPCB",14-02-2024 22:00:00,25.610369,85.132568,OZONE,14,53,33
India,Bihar,Patna,"Muradpur, Patna - BSPCB",14-02-2024 22:00:00,25.619651,85.147382,PM2.5,67,320,142
India,Bihar,Patna,"Muradpur, Patna - BSPCB",14-02-2024 22:00:00,25.619651,85.147382,PM10,70,412,173
India,Bihar,Patna,"Muradpur, Patna - BSPCB",14-02-2024 22:00:00,25.619651,85.147382,NH3,2,5,3
India,Bihar,Patna,"Muradpur, Patna - BSPCB",14-02-2024 22:00:00,25.619651,85.147382,SO2,6,28,13
India,Bihar,Patna,"Muradpur, Patna - BSPCB",14-02-2024 22:00:00,25.619651,85.147382,OZONE,18,45,29
India,Bihar,Patna,"Rajbansi Nagar, Patna - BSPCB",14-02-2024 22:00:00,25.599486,85.113666,NH3,2,3,3
India,Bihar,Patna,"Samanpura, Patna - BSPCB",14-02-2024 22:00:00,25.596727,85.085624,PM2.5,77,365,219
India,Bihar,Patna,"Samanpura, Patna - BSPCB",14-02-2024 22:00:00,25.596727,85.085624,NH3,4,7,4
India,Bihar,Patna,"Samanpura, Patna - BSPCB",14-02-2024 22:00:00,25.596727,85.085624,CO,62,129,98
India,Bihar,Patna,"Samanpura, Patna - BSPCB",14-02-2024 22:00:00,25.596727,85.085624,OZONE,4,25,10
India,Bihar,Purnia,"Mariam Nagar, Purnia - BSPCB",14-02-2024 22:00:00,25.366336,87.117468,NH3,1,1,1
India,Bihar,Rajgir,"Dangi Tola, Rajgir - BSPCB",14-02-2024 22:00:00,25.03280,85.41948,PM2.5,NA,NA,NA
India,Bihar,Rajgir,"Dangi Tola, Rajgir - BSPCB",14-02-2024 22:00:00,25.03280,85.41948,NO2,1,2,1
India,Bihar,Rajgir,"Dangi Tola, Rajgir - BSPCB",14-02-2024 22:00:00,25.03280,85.41948,OZONE,17,30,23
India,Bihar,Saharsa,"Police Line, Saharsa - BSPCB",14-02-2024 22:00:00,25.892357,86.590325,NO2,NA,NA,NA
India,Bihar,Saharsa,"Police Line, Saharsa - BSPCB",14-02-2024 22:00:00,25.892357,86.590325,OZONE,9,51,27
India,Bihar,Samastipur,"DM Office_Kasipur, Samastipur - BSPCB",14-02-2024 22:00:00,25.859655,85.77944,NO2,3,9,5
India,Bihar,Samastipur,"DM Office_Kasipur, Samastipur - BSPCB",14-02-2024 22:00:00,25.859655,85.77944,OZONE,9,21,14
India,Bihar,Sasaram,"Dada Peer, Sasaram - BSPCB",14-02-2024 22:00:00,24.952822,84.002396,PM2.5,30,120,67
India,Bihar,Sasaram,"Dada Peer, Sasaram - BSPCB",14-02-2024 22:00:00,24.952822,84.002396,NO2,1,9,5
India,Bihar,Siwan,"Chitragupta Nagar, Siwan - BSPCB",14-02-2024 22:00:00,26.2271665,84.3570427,NO2,17,40,24
India,Bihar,Siwan,"Chitragupta Nagar, Siwan - BSPCB",14-02-2024 22:00:00,26.2271665,84.3570427,OZONE,2,24,10
India,Chandigarh,Chandigarh,"Sector 22, Chandigarh - CPCC",14-02-2024 22:00:00,30.735567,76.775714,PM10,91,417,154
India,Chandigarh,Chandigarh,"Sector-25, Chandigarh - CPCC",14-02-2024 22:00:00,30.751462,76.762879,OZONE,4,38,26
India,Chandigarh,Chandigarh,"Sector-53, Chandigarh - CPCC",14-02-2024 22:00:00,30.719859,76.738637,PM10,NA,NA,NA
India,Chandigarh,Chandigarh,"Sector-53, Chandigarh - CPCC",14-02-2024 22:00:00,30.719859,76.738637,CO,37,79,56
India,Chhattisgarh,Bhilai,"Civic Center, Bhilai - Bhilai Steel Plant",14-02-2024 22:00:00,21.185571,81.343175,NH3,NA,NA,NA
India,Chhattisgarh,Bhilai,"Civic Center, Bhilai - Bhilai Steel Plant",14-02-2024 22:00:00,21.185571,81.343175,SO2,5,32,11
India,Chhattisgarh,Bhilai,"Hathkhoj, Bhilai - CECB",14-02-2024 22:00:00,21.224231,81.408350,PM2.5,23,90,65
India,Chhattisgarh,Bhilai,"Hathkhoj, Bhilai - CECB",14-02-2024 22:00:00,21.224231,81.408350,NO2,25,61,40
India,Chhattisgarh,Bilaspur,"Mangala, Bilaspur - NTPC",14-02-2024 22:00:00,22.08815,82.13737,NO2,19,21,20
India,Chhattisgarh,Chhal,"Nawapara SECL Colony, Chhal - CECB",14-02-2024 22:00:00,22.118125,83.140608,PM10,67,176,102
India,Chhattisgarh,Chhal,"Nawapara SECL Colony, Chhal - CECB",14-02-2024 22:00:00,22.118125,83.140608,NH3,2,2,2
India,Chhattisgarh,Korba,"Rampur, Korba - CECB",14-02-2024 22:00:00,22.368195,82.746431,PM10,33,66,47
India,Chhattisgarh,Korba,"Rampur, Korba - CECB",14-02-2024 22:00:00,22.368195,82.746431,NH3,3,4,4
India,Chhattisgarh,Korba,"Rampur, Korba - CECB",14-02-2024 22:00:00,22.368195,82.746431,CO,22,38,27
India,Chhattisgarh,Korba,"Urja Nagar, Korba - CECB",14-02-2024 22:00:00,22.348441,82.549611,NO2,88,99,93
India,Chhattisgarh,Korba,"Urja Nagar, Korba - CECB",14-02-2024 22:00:00,22.348441,82.549611,SO2,3,5,4
India,Chhattisgarh,Korba,"Urja Nagar, Korba - CECB",14-02-2024 22:00:00,22.348441,82.549611,CO,34,60,38
India,Chhattisgarh,Kunjemura,"OP Jindal School, Kunjemura - CECB",14-02-2024 22:00:00,22.126650,83.483212,OZONE,4,55,29
India,Chhattisgarh,Raipur,"AIIMS, Raipur - CECB",14-02-2024 22:00:00,21.258815,81.578979,NH3,4,4,4
India,Chhattisgarh,Raipur,"Krishak Nagar, Raipur - CECB",14-02-2024 22:00:00,21.237755,81.705301,NO2,14,33,23
India,Chhattisgarh,Raipur,"Siltara Phase-II, Raipur - CECB",14-02-2024 22:00:00,21.371751,81.664929,NO2,54,65,59
India,Delhi,Delhi,"Alipur, Delhi - DPCC",14-02-2024 22:00:00,28.815329,77.153010,SO2,7,26,12
India,Delhi,Delhi,"Alipur, Delhi - DPCC",14-02-2024 22:00:00,28.815329,77.153010,CO,34,95,49
India,Delhi,Delhi,"Anand Vihar, Delhi - DPCC",14-02-2024 22:00:00,28.647622,77.3158090,CO,2,147,40
India,Delhi,Delhi,"Ashok Vihar, Delhi - DPCC",14-02-2024 22:00:00,28.695381,77.181665,SO2,19,57,29
India,Delhi,Delhi,"Ashok Vihar, Delhi - DPCC",14-02-2024 22:00:00,28.695381,77.181665,OZONE,4,13,9
India,Delhi,Delhi,"Aya Nagar, Delhi - IMD",14-02-2024 22:00:00,28.4706914,77.1099364,NO2,NA,NA,NA
India,Delhi,Delhi,"Burari Crossing, Delhi - IMD",14-02-2024 22:00:00,28.7256504,77.2011573,PM10,NA,NA,NA
India,Delhi,Delhi,"Burari Crossing, Delhi - IMD",14-02-2024 22:00:00,28.7256504,77.2011573,NO2,NA,NA,NA
India,Delhi,Delhi,"Burari Crossing, Delhi - IMD",14-02-2024 22:00:00,28.7256504,77.2011573,CO,90,104,103
India,Delhi,Delhi,"DTU, Delhi - CPCB",14-02-2024 22:00:00,28.7500499,77.1112615,SO2,28,30,29
India,Delhi,Delhi,"Dr. Karni Singh Shooting Range, Delhi - DPCC",14-02-2024 22:00:00,28.498571,77.264840,NH3,8,12,10
India,Delhi,Delhi,"Dwarka-Sector 8, Delhi - DPCC ",14-02-2024 22:00:00,28.5710274,77.0719006,SO2,4,12,7
India,Delhi,Delhi,"IHBAS, Dilshad Garden, Delhi - CPCB",14-02-2024 22:00:00,28.6811736,77.3025234,PM2.5,102,333,248
India,Delhi,Delhi,"IHBAS, Dilshad Garden, Delhi - CPCB",14-02-2024 22:00:00,28.6811736,77.3025234,PM10,126,271,181
India,Delhi,Delhi,"IHBAS, Dilshad Garden, Delhi - CPCB",14-02-2024 22:00:00,28.6811736,77.3025234,CO,8,124,55
India,Delhi,Delhi,"ITO, Delhi - CPCB",14-02-2024 22:00:00,28.628624,77.241060,NO2,2,133,56
India,Delhi,Delhi,"ITO, Delhi - CPCB",14-02-2024 22:00:00,28.628624,77.241060,SO2,1,34,17
India,Delhi,Delhi,"ITO, Delhi - CPCB",14-02-2024 22:00:00,28.628624,77.241060,OZONE,16,198,98
India,Delhi,Delhi,"Jawaharlal Nehru Stadium, Delhi - DPCC",14-02-2024 22:00:00,28.580280,77.233829,CO,34,118,61
India,Delhi,Delhi,"Lodhi Road, Delhi - IITM",14-02-2024 22:00:00,28.588333,77.221667,PM2.5,93,309,188
India,Delhi,Delhi,"Lodhi Road, Delhi - IITM",14-02-2024 22:00:00,28.588333,77.221667,PM10,108,194,141
India,Delhi,Delhi,"Lodhi Road, Delhi - IITM",14-02-2024 22:00:00,28.588333,77.221667,SO2,17,38,29
India,Delhi,Delhi,"Major Dhyan Chand National Stadium, Delhi - DPCC",14-02-2024 22:00:00,28.611281,77.237738,SO2,3,38,17
India,Delhi,Delhi,"Major Dhyan Chand National Stadium, Delhi - DPCC",14-02-2024 22:00:00,28.611281,77.237738,CO,5,124,97
India,Delhi,Delhi,"Mandir Marg, Delhi - DPCC",14-02-2024 22:00:00,28.636429,77.201067,CO,1,118,84
India,Delhi,Delhi,"Mundka, Delhi - DPCC",14-02-2024 22:00:00,28.684678,77.076574,PM2.5,234,443,374
India,Delhi,Delhi,"Mundka, Delhi - DPCC",14-02-2024 22:00:00,28.684678,77.076574,NO2,31,116,74
India,Delhi,Delhi,"NSIT Dwarka, Delhi - CPCB",14-02-2024 22:00:00,28.60909,77.0325413,NO2,25,77,45
India,Delhi,Delhi,"Narela, Delhi - DPCC",14-02-2024 22:00:00,28.822836,77.101981,PM10,152,322,215
India,Delhi,Delhi,"Nehru Nagar, Delhi - DPCC",14-02-2024 22:00:00,28.567890,77.250515,PM10,144,407,290
India,Delhi,Delhi,"New Moti Bagh, Delhi - MHUA",14-02-2024 22:00:00,28.57834,77.18400,NO2,1,8,4
India,Delhi,Delhi,"North Campus, DU, Delhi - IMD",14-02-2024 22:00:00,28.6573814,77.1585447,CO,NA,NA,NA
India,Delhi,Delhi,"Okhla Phase-2, Delhi - DPCC",14-02-2024 22:00:00,28.530785,77.271255,NO2,54,167,120
India,Delhi,Delhi,"Okhla Phase-2, Delhi - DPCC",14-02-2024 22:00:00,28.530785,77.271255,OZONE,10,122,61
India,Delhi,Delhi,"Patparganj, Delhi - DPCC",14-02-2024 22:00:00,28.623763,77.287209,NH3,8,15,11
India,Delhi,Delhi,"Patparganj, Delhi - DPCC",14-02-2024 22:00:00,28.623763,77.287209,CO,14,119,56
India,Delhi,Delhi,"Patparganj, Delhi - DPCC",14-02-2024 22:00:00,28.623763,77.287209,OZONE,1,89,49
India,Delhi,Delhi,"Punjabi Bagh, Delhi - DPCC",14-02-2024 22:00:00,28.674045,77.131023,PM2.5,NA,NA,NA
India,Delhi,Delhi,"Punjabi Bagh, Delhi - DPCC",14-02-2024 22:00:00,28.674045,77.131023,SO2,NA,NA,NA
India,Delhi,Delhi,"Pusa, Delhi - DPCC",14-02-2024 22:00:00,28.639652,77.146275,OZONE,16,65,35
India,Delhi,Delhi,"Pusa, Delhi - IMD",14-02-2024 22:00:00,28.636110,77.173332,PM2.5,NA,NA,NA
India,Delhi,Delhi,"Rohini, Delhi - DPCC",14-02-2024 22:00:00,28.732528,77.119920,PM2.5,212,442,356
India,Delhi,Delhi,"Rohini, Delhi - DPCC",14-02-2024 22:00:00,28.732528,77.119920,CO,26,112,52
India,Delhi,Delhi,"Shadipur, Delhi - CPCB",14-02-2024 22:00:00,28.6514781,77.1473105,PM2.5,298,377,334
India,Delhi,Delhi,"Sirifort, Delhi - CPCB",14-02-2024 22:00:00,28.5504249,77.2159377,CO,25,112,49
India,Delhi,Delhi,"Sonia Vihar, Delhi - DPCC",14-02-2024 22:00:00,28.710508,77.249485,NH3,6,10,8
India,Delhi,Delhi,"Sonia Vihar, Delhi - DPCC",14-02-2024 22:00:00,28.710508,77.249485,CO,40,120,64
India,Delhi,Delhi,"Sri Aurobindo Marg, Delhi - DPCC",14-02-2024 22:00:00,28.531346,77.190156,NH3,7,10,9
India,Delhi,Delhi,"Vivek Vihar, Delhi - DPCC",14-02-2024 22:00:00,28.672342,77.315260,OZONE,3,42,18
India,Delhi,Delhi,"Wazirpur, Delhi - DPCC",14-02-2024 22:00:00,28.699793,77.165453,PM2.5,282,445,370
India,Gujarat,Ahmedabad,"Chandkheda, Ahmedabad - IITM",14-02-2024 22:00:00,23.107969,72.574648,NO2,75,140,96
India,Gujarat,Ahmedabad,"Chandkheda, Ahmedabad - IITM",14-02-2024 22:00:00,23.107969,72.574648,CO,5,62,5
India,Gujarat,Ahmedabad,"Maninagar, Ahmedabad - GPCB",14-02-2024 22:00:00,23.002657,72.591912,PM2.5,39,108,65
India,Gujarat,Ahmedabad,"Maninagar, Ahmedabad - GPCB",14-02-2024 22:00:00,23.002657,72.591912,CO,15,50,33
India,Gujarat,Ahmedabad,"Rakhial, Ahmedabad - IITM",14-02-2024 22:00:00,23.016834,72.625775,CO,37,74,52
India,Gujarat,Ahmedabad,"SAC ISRO Bopal, Ahmedabad - IITM",14-02-2024 22:00:00,23.041137,72.456691,PM2.5,57,409,151
India,Gujarat,Ahmedabad,"SAC ISRO Satellite, Ahmedabad - IITM",14-02-2024 22:00:00,23.023389,72.515201,OZONE,6,16,14
India,Gujarat,Ahmedabad,"SVPI Airport Hansol, Ahmedabad - IITM",14-02-2024 22:00:00,23.076793,72.627874,SO2,4,8,5
India,Gujarat,Ahmedabad,"Sardar Vallabhbhai Patel Stadium, Ahmedabad - IITM",14-02-2024 22:00:00,23.043070,72.562968,PM10,88,143,116
India,Gujarat,Ahmedabad,"Sardar Vallabhbhai Patel Stadium, Ahmedabad - IITM",14-02-2024 22:00:00,23.043070,72.562968,SO2,5,16,8
India,Gujarat,Ankleshwar,"GIDC, Ankleshwar - GPCB",14-02-2024 22:00:00,21.613267,73.010555,NH3,6,7,7
India,Gujarat,Ankleshwar,"GIDC, Ankleshwar - GPCB",14-02-2024 22:00:00,21.613267,73.010555,OZONE,21,40,36
India,Gujarat,Gandhinagar,"GIFT City, Gandhinagar - IITM",14-02-2024 22:00:00,23.163798,72.677768,PM10,70,166,97
India,Gujarat,Gandhinagar,"GIFT City, Gandhinagar - IITM",14-02-2024 22:00:00,23.163798,72.677768,NO2,19,50,38
India,Gujarat,Gandhinagar,"GIFT City, Gandhinagar - IITM",14-02-2024 22:00:00,23.163798,72.677768,SO2,4,7,5
India,Gujarat,Gandhinagar,"GIFT City, Gandhinagar - IITM",14-02-2024 22:00:00,23.163798,72.677768,OZONE,2,30,6
India,Gujarat,Gandhinagar,"IIPHG Lekawada, Gandhinagar - IITM",14-02-2024 22:00:00,23.243639,72.68994,NH3,NA,NA,NA
India,Gujarat,Gandhinagar,"Sector-10, Gandhinagar - GPCB",14-02-2024 22:00:00,23.221714,72.654328,PM10,30,115,72
India,Gujarat,Gandhinagar,"Sector-10, Gandhinagar - GPCB",14-02-2024 22:00:00,23.221714,72.654328,CO,18,60,31
India,Gujarat,Surat,"Science Center, Surat - SMC",14-02-2024 22:00:00,21.170046,72.795405,PM2.5,18,56,40
India,Gujarat,Surat,"Science Center, Surat - SMC",14-02-2024 22:00:00,21.170046,72.795405,NO2,24,32,28
India,Gujarat,Surat,"Science Center, Surat - SMC",14-02-2024 22:00:00,21.170046,72.795405,SO2,17,27,21
India,Gujarat,Vapi,"Phase-1 GIDC, Vapi - GPCB",14-02-2024 22:00:00,20.362421,72.918013,PM2.5,95,332,227
India,Gujarat,Vapi,"Phase-1 GIDC, Vapi - GPCB",14-02-2024 22:00:00,20.362421,72.918013,PM10,118,230,165
India,Haryana,Ambala,"Patti Mehar, Ambala - HSPCB",14-02-2024 22:00:00,30.379589,76.778328,NO2,2,3,3
India,Haryana,Ambala,"Patti Mehar, Ambala - HSPCB",14-02-2024 22:00:00,30.379589,76.778328,SO2,1,37,11
India,Haryana,Bahadurgarh,"Arya Nagar, Bahadurgarh - HSPCB",14-02-2024 22:00:00,28.6701,76.9254,CO,41,56,50
India,Haryana,Ballabgarh,"Nathu Colony, Ballabgarh - HSPCB",14-02-2024 22:00:00,28.3419248,77.319699,PM2.5,71,314,208
India,Haryana,Ballabgarh,"Nathu Colony, Ballabgarh - HSPCB",14-02-2024 22:00:00,28.3419248,77.319699,PM10,162,500,260
India,Haryana,Bhiwani,"H.B. Colony, Bhiwani - HSPCB",14-02-2024 22:00:00,28.806223,76.141105,PM2.5,137,307,219
India,Haryana,Bhiwani,"H.B. Colony, Bhiwani - HSPCB",14-02-2024 22:00:00,28.806223,76.141105,NO2,5,11,9
India,Haryana,Bhiwani,"H.B. Colony, Bhiwani - HSPCB",14-02-2024 22:00:00,28.806223,76.141105,CO,2,80,17
India,Haryana,Bhiwani,"H.B. Colony, Bhiwani - HSPCB",14-02-2024 22:00:00,28.806223,76.141105,OZONE,13,23,19
India,Haryana,Dharuhera,"Municipal Corporation Office, Dharuhera -  HSPCB",14-02-2024 22:00:00,28.206800,76.799700,SO2,7,18,11
India,Haryana,Faridabad,"New Industrial Town, Faridabad - HSPCB",14-02-2024 22:00:00,28.39072,77.30059,NH3,NA,NA,NA
India,Haryana,Faridabad,"New Industrial Town, Faridabad - HSPCB",14-02-2024 22:00:00,28.39072,77.30059,CO,12,100,23
India,Haryana,Faridabad,"Sector 11, Faridabad - HSPCB",14-02-2024 22:00:00,28.376058,77.315741,PM2.5,84,305,195
India,Haryana,Faridabad,"Sector 30, Faridabad - HSPCB",14-02-2024 22:00:00,28.4417,77.3217,CO,10,93,34
India,Haryana,Faridabad,"Sector- 16A, Faridabad - HSPCB",14-02-2024 22:00:00,28.4088421,77.3099081,OZONE,14,14,14
India,Haryana,Fatehabad,"Huda Sector, Fatehabad - HSPCB",14-02-2024 22:00:00,29.503664,75.467934,PM10,NA,NA,NA
India,Haryana,Fatehabad,"Huda Sector, Fatehabad - HSPCB",14-02-2024 22:00:00,29.503664,75.467934,NO2,NA,NA,NA
India,Haryana,Gurugram,"Sector-51, Gurugram - HSPCB",14-02-2024 22:00:00,28.4227,77.0667,NO2,13,29,23
India,Haryana,Gurugram,"Sector-51, Gurugram - HSPCB",14-02-2024 22:00:00,28.4227,77.0667,CO,40,116,45
India,Haryana,Gurugram,"Sector-51, Gurugram - HSPCB",14-02-2024 22:00:00,28.4227,77.0667,OZONE,27,67,56
India,Haryana,Gurugram,"Teri Gram, Gurugram - HSPCB",14-02-2024 22:00:00,28.4275,77.1465,PM10,277,418,349
India,Haryana,Gurugram,"Teri Gram, Gurugram - HSPCB",14-02-2024 22:00:00,28.4275,77.1465,NO2,1,63,37
India,Haryana,Gurugram,"Teri Gram, Gurugram - HSPCB",14-02-2024 22:00:00,28.4275,77.1465,OZONE,10,24,10
India,Haryana,Gurugram,"Vikas Sadan, Gurugram - HSPCB",14-02-2024 22:00:00,28.4501238,77.0263051,SO2,23,33,27
India,Haryana,Jind,"Police Lines, Jind - HSPCB",14-02-2024 22:00:00,29.307814,76.337619,CO,1,124,37
India,Haryana,Kaithal,"Rishi Nagar, Kaithal - HSPCB",14-02-2024 22:00:00,29.8006,76.4155,PM10,109,177,143
India,Haryana,Kaithal,"Rishi Nagar, Kaithal - HSPCB",14-02-2024 22:00:00,29.8006,76.4155,OZONE,5,14,12
India,Haryana,Karnal,"Sector-12, Karnal - HSPCB",14-02-2024 22:00:00,29.695300,77.002700,PM10,79,124,108
India,Haryana,Karnal,"Sector-12, Karnal - HSPCB",14-02-2024 22:00:00,29.695300,77.002700,CO,32,98,41
India,Haryana,Kurukshetra,"Sector-7, Kurukshetra - HSPCB",14-02-2024 22:00:00,29.966942,76.875879,CO,18,51,27
India,Haryana,Kurukshetra,"Sector-7, Kurukshetra - HSPCB",14-02-2024 22:00:00,29.966942,76.875879,OZONE,40,82,63
India,Haryana,Mandikhera,"General Hospital, Mandikhera - HSPCB",14-02-2024 22:00:00,27.9002,76.9938,OZONE,20,32,28
India,Haryana,Manesar,"Sector-2 IMT, Manesar - HSPCB",14-02-2024 22:00:00,28.360699,76.936090,PM10,98,224,152
India,Haryana,Narnaul,"Shastri Nagar, Narnaul - HSPCB",14-02-2024 22:00:00,28.060249,76.113115,PM2.5,51,263,138
India,Haryana,Narnaul,"Shastri Nagar, Narnaul - HSPCB",14-02-2024 22:00:00,28.060249,76.113115,SO2,13,46,17
India,Haryana,Narnaul,"Shastri Nagar, Narnaul - HSPCB",14-02-2024 22:00:00,28.060249,76.113115,CO,2,20,6
India,Haryana,Palwal,"Shyam Nagar, Palwal - HSPCB",14-02-2024 22:00:00,28.1485564,77.3320667,PM10,123,228,174
India,Haryana,Sirsa,"F-Block, Sirsa - HSPCB",14-02-2024 22:00:00,29.536400,75.015800,PM2.5,68,146,108
India,Haryana,Sirsa,"F-Block, Sirsa - HSPCB",14-02-2024 22:00:00,29.536400,75.015800,NO2,10,12,10
India,Haryana,Sonipat,"Murthal, Sonipat - HSPCB",14-02-2024 22:00:00,29.027200,77.062100,PM10,114,165,130
India,Haryana,Yamuna Nagar,"Gobind Pura, Yamuna Nagar - HSPCB",14-02-2024 22:00:00,30.1480566,77.2893471,SO2,2,13,8
India,Himachal Pradesh,Baddi,"HIMUDA Complex Phase-1, Baddi - HPPCB",14-02-2024 22:00:00,30.943887,76.801991,SO2,13,113,51
India,Himachal Pradesh,Baddi,"HIMUDA Complex Phase-1, Baddi - HPPCB",14-02-2024 22:00:00,30.943887,76.801991,CO,8,50,18
India,Karnataka,Bagalkot,"Vidayagiri, Bagalkot - KSPCB",14-02-2024 22:00:00,16.172806,75.659694,NO2,9,10,9
India,Karnataka,Bagalkot,"Vidayagiri, Bagalkot - KSPCB",14-02-2024 22:00:00,16.172806,75.659694,NH3,1,2,1
India,Karnataka,Belgaum,"Ramteerth Nagar, Belgaum - KSPCB",14-02-2024 22:00:00,15.888653,74.541751,OZONE,19,20,20
India,Karnataka,Bengaluru,"BTM Layout, Bengaluru - CPCB",14-02-2024 22:00:00,12.9135218,77.5950804,PM2.5,29,50,37
India,Karnataka,Bengaluru,"BTM Layout, Bengaluru - CPCB",14-02-2024 22:00:00,12.9135218,77.5950804,NH3,5,6,5
India,Karnataka,Bengaluru,"Bapuji Nagar, Bengaluru - KSPCB",14-02-2024 22:00:00,12.951913,77.539784,SO2,5,7,6
India,Karnataka,Bengaluru,"City Railway Station, Bengaluru - KSPCB",14-02-2024 22:00:00,12.9756843,77.5660749,PM10,NA,NA,NA
India,Karnataka,Bengaluru,"Hebbal, Bengaluru - KSPCB",14-02-2024 22:00:00,13.029152,77.585901,PM2.5,25,84,62
India,Karnataka,Bengaluru,"Hebbal, Bengaluru - KSPCB",14-02-2024 22:00:00,13.029152,77.585901,NH3,1,1,1
India,Karnataka,Bengaluru,"Hombegowda Nagar, Bengaluru - KSPCB",14-02-2024 22:00:00,12.938539,77.590100,NO2,26,41,36
India,Karnataka,Bengaluru,"Hombegowda Nagar, Bengaluru - KSPCB",14-02-2024 22:00:00,12.938539,77.590100,NH3,1,2,2
India,Karnataka,Bengaluru,"Hombegowda Nagar, Bengaluru - KSPCB",14-02-2024 22:00:00,12.938539,77.590100,SO2,2,6,4
India,Karnataka,Bengaluru,"Jayanagar 5th Block, Bengaluru - KSPCB",14-02-2024 22:00:00,12.920984,77.584908,PM2.5,NA,NA,NA
India,Karnataka,Bengaluru,"Jigani, Bengaluru - KSPCB",14-02-2024 22:00:00,12.7816279,77.6299145,PM2.5,NA,NA,NA
India,Karnataka,Bengaluru,"Kasturi Nagar, Bengaluru - KSPCB",14-02-2024 22:00:00,13.003872,77.664217,PM10,100,129,114
India,Karnataka,Bengaluru,"Peenya, Bengaluru - CPCB",14-02-2024 22:00:00,13.0270199,77.494094,PM10,40,63,52
India,Karnataka,Bengaluru,"Sanegurava Halli, Bengaluru - KSPCB",14-02-2024 22:00:00,12.990328,77.5431385,PM10,27,57,37
India,Karnataka,Bengaluru,"Shivapura_Peenya, Bengaluru - KSPCB",14-02-2024 22:00:00,13.0246342,77.5080115,PM2.5,2,96,35
India,Karnataka,Bengaluru,"Silk Board, Bengaluru - KSPCB",14-02-2024 22:00:00,12.917348,77.622813,NO2,22,26,24
India,Karnataka,Bengaluru,"Silk Board, Bengaluru - KSPCB",14-02-2024 22:00:00,12.917348,77.622813,SO2,7,18,14
India,Karnataka,Chamarajanagar,"Urban, Chamarajanagar - KSPCB",14-02-2024 22:00:00,11.55358,76.55521,CO,20,120,22
India,Karnataka,Davanagere,"Devaraj Urs Badavane, Davanagere - KSPCB",14-02-2024 22:00:00,14.475800,75.905200,OZONE,22,27,25
India,Karnataka,Dharwad,"Kalabhavan, Dharwad - KSPCB",14-02-2024 22:00:00,15.459706,75.008381,NH3,2,3,3
India,Karnataka,Dharwad,"Kalabhavan, Dharwad - KSPCB",14-02-2024 22:00:00,15.459706,75.008381,OZONE,2,40,21
India,Karnataka,Gadag,"Panchal Nagar, Gadag - KSPCB",14-02-2024 22:00:00,15.411456,75.638133,PM10,NA,NA,NA
India,Karnataka,Hassan,"B.Katihalli, Hassan - KSPCB",14-02-2024 22:00:00,13.008556,76.125258,PM2.5,13,83,60
India,Karnataka,Hassan,"B.Katihalli, Hassan - KSPCB",14-02-2024 22:00:00,13.008556,76.125258,PM10,18,104,76
India,Karnataka,Hassan,"B.Katihalli, Hassan - KSPCB",14-02-2024 22:00:00,13.008556,76.125258,NO2,7,8,8
India,Karnataka,Hassan,"B.Katihalli, Hassan - KSPCB",14-02-2024 22:00:00,13.008556,76.125258,CO,3,10,7
India,Karnataka,Haveri,"Ashwini Nagar, Haveri - KSPCB",14-02-2024 22:00:00,14.791800,75.389600,PM2.5,27,129,60
India,Karnataka,Haveri,"Ashwini Nagar, Haveri - KSPCB",14-02-2024 22:00:00,14.791800,75.389600,NH3,2,4,3
India,Karnataka,Hubballi,"Lingaraj Nagar, Hubballi - KSPCB",14-02-2024 22:00:00,15.3714823,75.1160168,OZONE,3,41,33
India,Karnataka,Karwar,"KHB Colony, Karwar - KSPCB",14-02-2024 22:00:00,14.816666,74.141003,NH3,2,3,2
India,Karnataka,Kolar,"Tamaka Ind. Area, Kolar - KSPCB",14-02-2024 22:00:00,13.1276288,78.1570122,NO2,3,15,7
India,Karnataka,Kolar,"Tamaka Ind. Area, Kolar - KSPCB",14-02-2024 22:00:00,13.1276288,78.1570122,NH3,7,11,8
India,Karnataka,Koppal,"Diwator Nagar, Koppal - KSPCB",14-02-2024 22:00:00,15.347630,76.181767,NH3,3,6,5
India,Karnataka,Madikeri,"Stuart Hill, Madikeri - KSPCB",14-02-2024 22:00:00,12.415911,75.735050,NO2,6,11,8
India,Karnataka,Mangalore,"Kadri, Mangalore - KSPCB",14-02-2024 22:00:00,12.889250,74.853000,NH3,1,2,2
India,Karnataka,Mangalore,"Kadri, Mangalore - KSPCB",14-02-2024 22:00:00,12.889250,74.853000,OZONE,30,32,31
India,Karnataka,Mysuru,"Hebbal 1st Stage, Mysuru - KSPCB",14-02-2024 22:00:00,12.21041,76.37376,PM10,36,59,43
India,Karnataka,Mysuru,"Hebbal 1st Stage, Mysuru - KSPCB",14-02-2024 22:00:00,12.21041,76.37376,NO2,11,45,24
India,Karnataka,Mysuru,"Hebbal 1st Stage, Mysuru - KSPCB",14-02-2024 22:00:00,12.21041,76.37376,SO2,1,6,3
India,Karnataka,Raichur,"Haji Colony, Raichur - KSPCB",14-02-2024 22:00:00,16.208139,77.348417,PM10,NA,NA,NA
India,Karnataka,Raichur,"Haji Colony, Raichur - KSPCB",14-02-2024 22:00:00,16.208139,77.348417,NO2,NA,NA,NA
India,Karnataka,Raichur,"Haji Colony, Raichur - KSPCB",14-02-2024 22:00:00,16.208139,77.348417,OZONE,1,8,5
India,Karnataka,Ramanagara,"Vijay Nagar, Ramanagara - KSPCB",14-02-2024 22:00:00,12.733409,77.298051,SO2,20,34,25
India,Karnataka,Ramanagara,"Vijay Nagar, Ramanagara - KSPCB",14-02-2024 22:00:00,12.733409,77.298051,CO,9,40,15
India,Karnataka,Shivamogga,"Vinoba Nagara, Shivamogga - KSPCB",14-02-2024 22:00:00,13.940000,75.555917,SO2,5,10,7
India,Karnataka,Shivamogga,"Vinoba Nagara, Shivamogga - KSPCB",14-02-2024 22:00:00,13.940000,75.555917,OZONE,7,73,52
India,Karnataka,Tumakuru,"Thimmalapura, Tumakuru - KSPCB",14-02-2024 22:00:00,13.377516,77.099072,PM10,14,37,23
India,Karnataka,Tumakuru,"Thimmalapura, Tumakuru - KSPCB",14-02-2024 22:00:00,13.377516,77.099072,NO2,NA,NA,NA
India,Karnataka,Tumakuru,"Thimmalapura, Tumakuru - KSPCB",14-02-2024 22:00:00,13.377516,77.099072,SO2,8,13,10
India,Karnataka,Udupi,"Brahmagiri, Udupi - KSPCB",14-02-2024 22:00:00,13.34194444,74.74694444,PM10,37,90,52
India,Karnataka,Vijayapura,"Ibrahimpur, Vijayapura - KSPCB",14-02-2024 22:00:00,16.802639,75.722694,PM2.5,26,31,30
India,Karnataka,Vijayapura,"Ibrahimpur, Vijayapura - KSPCB",14-02-2024 22:00:00,16.802639,75.722694,NO2,17,19,19
India,Karnataka,Vijayapura,"Ibrahimpur, Vijayapura - KSPCB",14-02-2024 22:00:00,16.802639,75.722694,SO2,5,131,37
India,Karnataka,Yadgir,"Collector Office, Yadgir - KSPCB",14-02-2024 22:00:00,16.7602,77.1428,NO2,5,9,6
India,Kerala,Eloor,"Udyogamandal, Eloor - Kerala PCB",14-02-2024 22:00:00,10.073232,76.302765,PM10,35,44,40
India,Kerala,Eloor,"Udyogamandal, Eloor - Kerala PCB",14-02-2024 22:00:00,10.073232,76.302765,NH3,1,1,1
India,Kerala,Kannur,"Thavakkara, Kannur - Kerala PCB",14-02-2024 22:00:00,11.875000,75.373200,OZONE,31,36,32
India,Kerala,Kochi,"Vyttila, Kochi - Kerala PCB",14-02-2024 22:00:00,9.969447,76.321186,CO,56,66,64
India,Kerala,Kollam,"Polayathode, Kollam - Kerala PCB",14-02-2024 22:00:00,8.8787,76.6073,SO2,1,9,2
India,Kerala,Thiruvananthapuram,"Kariavattom, Thiruvananthapuram - Kerala PCB",14-02-2024 22:00:00,8.563700,76.886500,OZONE,27,31,29
India,Kerala,Thiruvananthapuram,"Plammoodu, Thiruvananthapuram - Kerala PCB",14-02-2024 22:00:00,8.5149093,76.9435879,SO2,6,13,9
India,Kerala,Thrissur,"Corporation Ground, Thrissur - Kerala PCB",14-02-2024 22:00:00,10.532400,76.215900,NO2,9,11,10
India,Kerala,Thrissur,"Corporation Ground, Thrissur - Kerala PCB",14-02-2024 22:00:00,10.532400,76.215900,SO2,3,26,16
India,Madhya Pradesh,Bhopal,"Paryavaran Parisar, Bhopal - MPPCB",14-02-2024 22:00:00,23.210494,77.425409,NH3,9,12,10
India,Madhya Pradesh,Bhopal,"Paryavaran Parisar, Bhopal - MPPCB",14-02-2024 22:00:00,23.210494,77.425409,CO,5,72,41
India,Madhya Pradesh,Bhopal,"T T Nagar, Bhopal - MPPCB",14-02-2024 22:00:00,23.233584,77.400574,NO2,34,80,50
India,Madhya Pradesh,Dewas,"Bhopal Chauraha, Dewas - MPPCB",14-02-2024 22:00:00,22.9682591,76.064118,CO,18,36,26
India,Madhya Pradesh,Gwalior,"City Center, Gwalior - MPPCB",14-02-2024 22:00:00,26.203442,78.193251,OZONE,50,114,93
India,Madhya Pradesh,Gwalior,"Deen Dayal Nagar, Gwalior - MPPCB",14-02-2024 22:00:00,26.259242,78.216432,PM10,142,261,192
India,Madhya Pradesh,Gwalior,"Deen Dayal Nagar, Gwalior - MPPCB",14-02-2024 22:00:00,26.259242,78.216432,NH3,7,13,10
India,Madhya Pradesh,Gwalior,"Phool Bagh, Gwalior - Mondelez Ind. Food",14-02-2024 22:00:00,26.210536,78.171,NO2,4,5,4
India,Madhya Pradesh,Indore,"Chhoti Gwaltoli, Indore - MPPCB",14-02-2024 22:00:00,22.4310,75.5213,OZONE,18,112,76
India,Madhya Pradesh,Indore,"Maguda Nagar, Indore - IMC",14-02-2024 22:00:00,22.7524,75.8872,CO,24,37,25
India,Madhya Pradesh,Indore,"Regional Park, Indore - IMC",14-02-2024 22:00:00,22.6780,75.8559,NO2,9,15,11
India,Madhya Pradesh,Indore,"Regional Park, Indore - IMC",14-02-2024 22:00:00,22.6780,75.8559,NH3,1,3,1
India,Madhya Pradesh,Indore,"Residency Area, Indore - IMC",14-02-2024 22:00:00,22.7084,75.8815,PM10,70,132,96
India,Madhya Pradesh,Indore,"Residency Area, Indore - IMC",14-02-2024 22:00:00,22.7084,75.8815,NO2,33,62,46
India,Madhya Pradesh,Jabalpur,"Govindh Bhavan Colony, Jabalpur - JMC",14-02-2024 22:00:00,23.163174,79.973061,PM2.5,35,213,107
India,Madhya Pradesh,Jabalpur,"Govindh Bhavan Colony, Jabalpur - JMC",14-02-2024 22:00:00,23.163174,79.973061,CO,20,42,33
India,Madhya Pradesh,Jabalpur,"Gupteshwar, Jabalpur - JMC",14-02-2024 22:00:00,23.142888,79.916147,PM10,41,125,75
India,Madhya Pradesh,Jabalpur,"Gupteshwar, Jabalpur - JMC",14-02-2024 22:00:00,23.142888,79.916147,NO2,8,47,18
India,Madhya Pradesh,Jabalpur,"Gupteshwar, Jabalpur - JMC",14-02-2024 22:00:00,23.142888,79.916147,OZONE,4,65,41
India,Madhya Pradesh,Jabalpur,"Marhatal, Jabalpur - MPPCB",14-02-2024 22:00:00,23.168606,79.932247,NH3,6,7,7
India,Madhya Pradesh,Jabalpur,"Suhagi, Jabalpur - JMC",14-02-2024 22:00:00,23.218135,79.957770,PM2.5,40,193,104
India,Madhya Pradesh,Jabalpur,"Suhagi, Jabalpur - JMC",14-02-2024 22:00:00,23.218135,79.957770,PM10,34,115,78
India,Madhya Pradesh,Jabalpur,"Suhagi, Jabalpur - JMC",14-02-2024 22:00:00,23.218135,79.957770,NO2,46,50,48
India,Madhya Pradesh,Jabalpur,"Suhagi, Jabalpur - JMC",14-02-2024 22:00:00,23.218135,79.957770,NH3,5,5,5
India,Madhya Pradesh,Sagar,"Civil Lines, Sagar - MPPCB",14-02-2024 22:00:00,23.838586,78.759431,PM2.5,139,308,255
India,Madhya Pradesh,Sagar,"Deen Dayal Nagar, Sagar - MPPCB",14-02-2024 22:00:00,23.8640158,78.80289321,PM10,49,114,83
India,Madhya Pradesh,Satna,"Bandhavgar Colony, Satna - Birla Cement",14-02-2024 22:00:00,24.58434363,80.8549414,CO,21,32,29
India,Madhya Pradesh,Singrauli,"Suryakiran Bhawan NCL, Singrauli - MPPCB",14-02-2024 22:00:00,24.108970,82.645580,PM10,78,120,100
India,Madhya Pradesh,Singrauli,"Suryakiran Bhawan NCL, Singrauli - MPPCB",14-02-2024 22:00:00,24.108970,82.645580,SO2,40,138,71
India,Madhya Pradesh,Ujjain,"Mahakaleshwar Temple, Ujjain - MPPCB",14-02-2024 22:00:00,23.182719 ,75.768218 ,PM10,76,128,98
India,Madhya Pradesh,Ujjain,"Mahakaleshwar Temple, Ujjain - MPPCB",14-02-2024 22:00:00,23.182719 ,75.768218 ,CO,34,92,46
India,Madhya Pradesh,Ujjain,"Mahakaleshwar Temple, Ujjain - MPPCB",14-02-2024 22:00:00,23.182719 ,75.768218 ,OZONE,117,149,143
India,Maharashtra,Ahmednagar,"Tarakpur, Ahmednagar - MPCB",14-02-2024 22:00:00,19.10122,74.73339,PM10,69,379,134
India,Maharashtra,Ahmednagar,"Tarakpur, Ahmednagar - MPCB",14-02-2024 22:00:00,19.10122,74.73339,NH3,2,3,3
India,Maharashtra,Ahmednagar,"Tarakpur, Ahmednagar - MPCB",14-02-2024 22:00:00,19.10122,74.73339,CO,8,129,60
India,Maharashtra,Akola,"Ramdaspeth, Akola - MPCB",14-02-2024 22:00:00,20.719516,77.000253,PM2.5,52,311,119
India,Maharashtra,Akola,"Ramdaspeth, Akola - MPCB",14-02-2024 22:00:00,20.719516,77.000253,OZONE,15,84,54
India,Maharashtra,Amravati,"Shivneri Colony, Amravati - MPCB",14-02-2024 22:00:00,20.9402359,77.7895248,PM2.5,79,189,115
India,Maharashtra,Amravati,"Shivneri Colony, Amravati - MPCB",14-02-2024 22:00:00,20.9402359,77.7895248,PM10,115,183,136
India,Maharashtra,Amravati,"Shivneri Colony, Amravati - MPCB",14-02-2024 22:00:00,20.9402359,77.7895248,NH3,1,2,1
India,Maharashtra,Amravati,"Shivneri Colony, Amravati - MPCB",14-02-2024 22:00:00,20.9402359,77.7895248,CO,21,64,33
India,Maharashtra,Aurangabad,"MIDC Chilkalthana, Aurangabad - MPCB",14-02-2024 22:00:00,19.875620,75.387310,SO2,6,36,15
India,Maharashtra,Aurangabad,"Rachnakar Colony, Aurangabad - MPCB",14-02-2024 22:00:00,19.863756,75.321188,PM2.5,53,247,146
India,Maharashtra,Aurangabad,"Rachnakar Colony, Aurangabad - MPCB",14-02-2024 22:00:00,19.863756,75.321188,PM10,75,467,150
India,Maharashtra,Badlapur,"Katrap, Badlapur - MPCB",14-02-2024 22:00:00,19.16485,73.23409,PM10,NA,NA,NA
India,Maharashtra,Belapur,"CBD Belapur, Belapur - MPCB",14-02-2024 22:00:00,19.0243902,73.0406721,CO,15,57,30
India,Maharashtra,Bhiwandi,"Gokul Nagar, Bhiwandi - MPCB",14-02-2024 22:00:00,19.309073,73.057223,CO,16,104,29
India,Maharashtra,Boisar,"Khaira, Boisar - MPCB",14-02-2024 22:00:00,19.786089,72.757971,NO2,NA,NA,NA
India,Maharashtra,Boisar,"Khaira, Boisar - MPCB",14-02-2024 22:00:00,19.786089,72.757971,SO2,NA,NA,NA
India,Maharashtra,Chandrapur,"Chauhan Colony, Chandrapur - MPCB",14-02-2024 22:00:00,19.962900,79.298714,NH3,2,5,2
India,Maharashtra,Chandrapur,"MIDC Khutala, Chandrapur - MPCB",14-02-2024 22:00:00,19.9775302,79.2337086,PM10,NA,NA,NA
India,Maharashtra,Chandrapur,"MIDC Khutala, Chandrapur - MPCB",14-02-2024 22:00:00,19.9775302,79.2337086,OZONE,1,1,1
India,Maharashtra,Dhule,"Deopur, Dhule - MPCB",14-02-2024 22:00:00,20.918946,74.776388,PM2.5,NA,NA,NA
India,Maharashtra,Dhule,"Deopur, Dhule - MPCB",14-02-2024 22:00:00,20.918946,74.776388,PM10,NA,NA,NA
India,Maharashtra,Jalgaon,"Prabhat Colony, Jalgaon - MPCB",14-02-2024 22:00:00,21.001264,75.565602,CO,8,28,17
India,Maharashtra,Jalgaon,"Prabhat Colony, Jalgaon - MPCB",14-02-2024 22:00:00,21.001264,75.565602,OZONE,1,60,30
India,Maharashtra,Kalyan,"Khadakpada, Kalyan - MPCB",14-02-2024 22:00:00,19.25292,73.142019,PM10,65,159,115
India,Maharashtra,Kolhapur,"Shivaji University, Kolhapur - MPCB",14-02-2024 22:00:00,16.6870449,74.2505872,NH3,NA,NA,NA
India,Maharashtra,Kolhapur,"Sinchan Bhavan, Kolhapur - MPCB",14-02-2024 22:00:00,16.7143745,74.2426398,OZONE,8,161,108
India,Maharashtra,Latur,"Sawe Wadi, Latur - MPCB",14-02-2024 22:00:00,18.39963,76.57452,PM2.5,57,168,82
India,Maharashtra,Latur,"Sawe Wadi, Latur - MPCB",14-02-2024 22:00:00,18.39963,76.57452,OZONE,9,63,49
India,Maharashtra,Mahad,"Kamble Tarf Birwadi, Mahad - MPCB",14-02-2024 22:00:00,18.1023399,73.4783687,NO2,11,20,16
India,Maharashtra,Mahad,"Kamble Tarf Birwadi, Mahad - MPCB",14-02-2024 22:00:00,18.1023399,73.4783687,OZONE,12,41,35
India,Maharashtra,Malegaon,"Mahesh Nagar, Malegaon - MPCB",14-02-2024 22:00:00,20.555712,74.529236,OZONE,20,82,66
India,Maharashtra,Mira-Bhayandar,"Bhayandar West, Mira-Bhayandar - MPCB",14-02-2024 22:00:00,19.296481,72.840923,PM2.5,65,133,93
India,Maharashtra,Mira-Bhayandar,"Bhayandar West, Mira-Bhayandar - MPCB",14-02-2024 22:00:00,19.296481,72.840923,PM10,65,130,105
India,Maharashtra,Mira-Bhayandar,"Bhayandar West, Mira-Bhayandar - MPCB",14-02-2024 22:00:00,19.296481,72.840923,NH3,4,14,5
India,Maharashtra,Mira-Bhayandar,"Bhayandar West, Mira-Bhayandar - MPCB",14-02-2024 22:00:00,19.296481,72.840923,CO,16,106,29
India,Maharashtra,Mumbai,"Bandra Kurla Complex, Mumbai - MPCB",14-02-2024 22:00:00,19.065931,72.862131,SO2,4,14,8
India,Maharashtra,Mumbai,"Borivali East, Mumbai - MPCB",14-02-2024 22:00:00,19.2243333,72.8658113,PM10,NA,NA,NA
India,Maharashtra,Mumbai,"Borivali East, Mumbai - MPCB",14-02-2024 22:00:00,19.2243333,72.8658113,NH3,NA,NA,NA
India,Maharashtra,Mumbai,"Borivali East, Mumbai - MPCB",14-02-2024 22:00:00,19.2243333,72.8658113,OZONE,NA,NA,NA
India,Maharashtra,Mumbai,"Byculla, Mumbai - BMC",14-02-2024 22:00:00,18.9767,72.8380,SO2,3,5,4
India,Maharashtra,Mumbai,"Chakala-Andheri East, Mumbai - IITM",14-02-2024 22:00:00,19.11074,72.86084,PM2.5,67,152,104
India,Maharashtra,Mumbai,"Chakala-Andheri East, Mumbai - IITM",14-02-2024 22:00:00,19.11074,72.86084,OZONE,1,89,59
India,Maharashtra,Mumbai,"Chembur, Mumbai - MPCB",14-02-2024 22:00:00,19.0364585,72.8954371,PM2.5,87,117,99
India,Maharashtra,Mumbai,"Chembur, Mumbai - MPCB",14-02-2024 22:00:00,19.0364585,72.8954371,CO,21,68,28
India,Maharashtra,Mumbai,"Chhatrapati Shivaji Intl. Airport (T2), Mumbai - MPCB",14-02-2024 22:00:00,19.10078,72.87462,NH3,4,8,6
India,Maharashtra,Mumbai,"Colaba, Mumbai - MPCB",14-02-2024 22:00:00,18.910000,72.820000,PM2.5,51,80,63
India,Maharashtra,Mumbai,"Colaba, Mumbai - MPCB",14-02-2024 22:00:00,18.910000,72.820000,CO,12,20,13
India,Maharashtra,Mumbai,"Kandivali East, Mumbai - MPCB",14-02-2024 22:00:00,19.205800,72.868200,SO2,62,69,65
India,Maharashtra,Mumbai,"Kandivali West, Mumbai - BMC",14-02-2024 22:00:00,19.215859,72.831718,CO,20,36,23
India,Maharashtra,Mumbai,"Kurla, Mumbai - MPCB",14-02-2024 22:00:00,19.0863,72.8888,PM2.5,47,172,86
India,Maharashtra,Mumbai,"Kurla, Mumbai - MPCB",14-02-2024 22:00:00,19.0863,72.8888,PM10,40,124,79
India,Maharashtra,Mumbai,"Kurla, Mumbai - MPCB",14-02-2024 22:00:00,19.0863,72.8888,NO2,15,41,28
India,Maharashtra,Mumbai,"Kurla, Mumbai - MPCB",14-02-2024 22:00:00,19.0863,72.8888,SO2,32,32,32
India,Maharashtra,Mumbai,"Malad West, Mumbai - IITM",14-02-2024 22:00:00,19.19709,72.82204,NH3,1,4,3
India,Maharashtra,Mumbai,"Mazgaon, Mumbai - IITM",14-02-2024 22:00:00,18.96702,72.84214,PM2.5,NA,NA,NA
India,Maharashtra,Mumbai,"Mindspace-Malad West, Mumbai - MPCB",14-02-2024 22:00:00,19.1878657,72.8304069,NH3,3,4,3
India,Maharashtra,Mumbai,"Navy Nagar-Colaba, Mumbai - IITM",14-02-2024 22:00:00,18.897756,72.813320,PM2.5,NA,NA,NA
India,Maharashtra,Mumbai,"Sewri, Mumbai - BMC",14-02-2024 22:00:00,19.000084,72.856730,SO2,11,21,16
India,Maharashtra,Mumbai,"Sewri, Mumbai - BMC",14-02-2024 22:00:00,19.000084,72.856730,OZONE,9,93,75
India,Maharashtra,Mumbai,"Shivaji Nagar, Mumbai - BMC",14-02-2024 22:00:00,19.060498,72.923356,PM2.5,64,156,100
India,Maharashtra,Mumbai,"Sion, Mumbai - MPCB",14-02-2024 22:00:00,19.047000,72.874600,NO2,22,62,45
India,Maharashtra,Mumbai,"Vile Parle West, Mumbai - MPCB",14-02-2024 22:00:00,19.10861,72.83622,SO2,13,14,14
India,Maharashtra,Mumbai,"Vile Parle West, Mumbai - MPCB",14-02-2024 22:00:00,19.10861,72.83622,OZONE,5,5,5
India,Maharashtra,Mumbai,"Worli, Mumbai - MPCB",14-02-2024 22:00:00,18.9936162,72.8128113,PM10,78,120,98
India,Maharashtra,Nagpur,"Ambazari, Nagpur - MPCB",14-02-2024 22:00:00,21.121801,79.04952,NO2,37,177,75
India,Maharashtra,Nagpur,"Mahal, Nagpur - MPCB",14-02-2024 22:00:00,21.14472,79.107595,NH3,5,18,9
India,Maharashtra,Nanded,"Sneh Nagar, Nanded - MPCB",14-02-2024 22:00:00,19.173852,77.296291,NO2,19,54,33
India,Maharashtra,Nanded,"Sneh Nagar, Nanded - MPCB",14-02-2024 22:00:00,19.173852,77.296291,SO2,12,20,16
India,Maharashtra,Nanded,"Sneh Nagar, Nanded - MPCB",14-02-2024 22:00:00,19.173852,77.296291,OZONE,29,132,97
India,Maharashtra,Nashik,"Gangapur Road, Nashik - MPCB",14-02-2024 22:00:00,20.0073285,73.7762427,PM2.5,60,190,97
India,Maharashtra,Nashik,"Gangapur Road, Nashik - MPCB",14-02-2024 22:00:00,20.0073285,73.7762427,NO2,2,4,3
India,Maharashtra,Nashik,"Gangapur Road, Nashik - MPCB",14-02-2024 22:00:00,20.0073285,73.7762427,SO2,1,26,7
India,Maharashtra,Nashik,"Hirawadi, Nashik - MPCB",14-02-2024 22:00:00,20.021503,73.813844,CO,12,62,24
India,Maharashtra,Nashik,"MIDC Ambad, Nashik - MPCB",14-02-2024 22:00:00,19.950220,73.731480,NH3,2,2,2
India,Maharashtra,Nashik,"Pandav Nagari, Nashik - MPCB",14-02-2024 22:00:00,19.9591346,73.7788008,SO2,7,52,21
India,Maharashtra,Nashik,"Pandav Nagari, Nashik - MPCB",14-02-2024 22:00:00,19.9591346,73.7788008,OZONE,33,82,53
India,Maharashtra,Navi Mumbai,"Nerul, Navi Mumbai - MPCB",14-02-2024 22:00:00,19.008751,73.016620,OZONE,34,46,36
India,Maharashtra,Navi Mumbai,"Sanpada, Navi Mumbai - MPCB",14-02-2024 22:00:00,19.0575752,73.0151367,NO2,NA,NA,NA
India,Maharashtra,Navi Mumbai,"Sanpada, Navi Mumbai - MPCB",14-02-2024 22:00:00,19.0575752,73.0151367,SO2,NA,NA,NA
India,Maharashtra,Navi Mumbai,"Sector-19A Nerul, Navi Mumbai - IITM",14-02-2024 22:00:00,19.044,73.0325,PM10,97,247,166
India,Maharashtra,Navi Mumbai,"Sector-2E Kalamboli, Navi Mumbai - MPCB",14-02-2024 22:00:00,19.02579,73.10297,NO2,22,129,64
India,Maharashtra,Navi Mumbai,"Tondare-Taloja, Navi Mumbai - MPCB",14-02-2024 22:00:00,19.0630,73.1209,PM2.5,56,156,98
India,Maharashtra,Navi Mumbai,"Tondare-Taloja, Navi Mumbai - MPCB",14-02-2024 22:00:00,19.0630,73.1209,PM10,97,152,123
India,Maharashtra,Parbhani,"Masoom Colony, Parbhani - MPCB",14-02-2024 22:00:00,19.265594,76.761463,SO2,18,99,37
India,Maharashtra,Pimpri-Chinchwad,"Gavalinagar, Pimpri Chinchwad - MPCB",14-02-2024 22:00:00,18.63673,73.82487,OZONE,4,193,128
India,Maharashtra,Pune,"Bhosari, Pune - IITM",14-02-2024 22:00:00,18.640051,73.848956,PM10,75,180,129
India,Maharashtra,Pune,"Bhosari, Pune - IITM",14-02-2024 22:00:00,18.640051,73.848956,OZONE,3,12,8
India,Maharashtra,Pune,"Katraj Dairy, Pune - MPCB",14-02-2024 22:00:00,18.454450,73.854155,PM2.5,56,223,107
India,Maharashtra,Pune,"Mhada Colony, Pune - IITM",14-02-2024 22:00:00,18.573040,73.927715,PM2.5,62,283,128
India,Maharashtra,Pune,"Mhada Colony, Pune - IITM",14-02-2024 22:00:00,18.573040,73.927715,OZONE,11,33,23
India,Maharashtra,Pune,"Savitribai Phule Pune University, Pune - MPCB",14-02-2024 22:00:00,18.547056,73.826908,PM2.5,69,167,114
India,Maharashtra,Pune,"Savitribai Phule Pune University, Pune - MPCB",14-02-2024 22:00:00,18.547056,73.826908,OZONE,1,224,113
India,Maharashtra,Pune,"Transport Nagar-Nigdi, Pune - IITM",14-02-2024 22:00:00,18.664282,73.763966,PM2.5,29,189,84
India,Maharashtra,Pune,"Transport Nagar-Nigdi, Pune - IITM",14-02-2024 22:00:00,18.664282,73.763966,PM10,96,250,145
India,Maharashtra,Pune,"Transport Nagar-Nigdi, Pune - IITM",14-02-2024 22:00:00,18.664282,73.763966,OZONE,2,68,46
India,Maharashtra,Sangli,"Vijay Nagar, Sangli - MPCB",14-02-2024 22:00:00, 16.5038,74.3623,PM2.5,60,300,151
India,Maharashtra,Sangli,"Vijay Nagar, Sangli - MPCB",14-02-2024 22:00:00, 16.5038,74.3623,SO2,1,23,9
India,Maharashtra,Sangli,"Vijay Nagar, Sangli - MPCB",14-02-2024 22:00:00, 16.5038,74.3623,OZONE,1,41,33
India,Maharashtra,Solapur,"Dnyaneshwar Nagar, Solapur - MPCB",14-02-2024 22:00:00,17.6336264,75.9132495,NH3,12,54,20
India,Maharashtra,Solapur,"Ratandeep Housing Society, Solapur - MPCB",14-02-2024 22:00:00,17.65439,75.90649,PM10,57,155,88
India,Maharashtra,Thane,"Pimpleshwar Mandir, Thane - MPCB",14-02-2024 22:00:00,19.192056,72.9585188,CO,44,118,74
India,Maharashtra,Ulhasnagar,"Sidhi Vinayak Nagar, Ulhasnagar - MPCB",14-02-2024 22:00:00,19.235581,73.159121,PM2.5,73,254,153
India,Maharashtra,Ulhasnagar,"Sidhi Vinayak Nagar, Ulhasnagar - MPCB",14-02-2024 22:00:00,19.235581,73.159121,SO2,8,110,36
India,Maharashtra,Ulhasnagar,"Sidhi Vinayak Nagar, Ulhasnagar - MPCB",14-02-2024 22:00:00,19.235581,73.159121,OZONE,31,108,76
India,Manipur,Imphal,"DM College of Science, Imphal - Manipur PCB",14-02-2024 22:00:00,24.8207389,93.9423085,PM2.5,15,75,37
India,Manipur,Imphal,"Manipur University, Imphal - Manipur PCB",14-02-2024 22:00:00,24.7524239,93.9286218,CO,12,74,34
India,Meghalaya,Shillong,"Lumpyngngad, Shillong - Meghalaya PCB",14-02-2024 22:00:00,25.5586,91.8985,NH3,1,1,1
India,Mizoram,Aizawl,"Sikulpuikawn, Aizawl - Mizoram PCB",14-02-2024 22:00:00,23.7176342,92.7192841,NH3,NA,NA,NA
India,Odisha,Angul,"Hakimapada, Angul - OSPCB",14-02-2024 22:00:00,20.832874,85.104082,PM10,80,267,141
India,Odisha,Balasore,"Kalidaspur, Balasore - OSPCB",14-02-2024 22:00:00,21.51161,86.89088,PM10,107,207,149
India,Odisha,Barbil,"Forest Office, Barbil - OSPCB",14-02-2024 22:00:00,22.1166054,85.3945546,PM2.5,35,345,151
India,Odisha,Baripada,"Meher Colony, Baripada - OSPCB",14-02-2024 22:00:00,21.941841,86.728318,PM10,NA,NA,NA
India,Odisha,Baripada,"Meher Colony, Baripada - OSPCB",14-02-2024 22:00:00,21.941841,86.728318,NO2,NA,NA,NA
India,Odisha,Baripada,"Meher Colony, Baripada - OSPCB",14-02-2024 22:00:00,21.941841,86.728318,NH3,NA,NA,NA
India,Odisha,Bhubaneswar,"Patia, Bhubaneswar - OSPCB",14-02-2024 22:00:00,20.34652,85.81630,PM2.5,47,163,112
India,Odisha,Brajrajnagar,"GM Office, Brajrajnagar - OSPCB",14-02-2024 22:00:00,21.8004996,83.8396977,NO2,18,22,19
India,Odisha,Cuttack,"CDA Area, Cuttack - OSPCB",14-02-2024 22:00:00,20.48891     ,85.84768     ,CO,38,60,48
India,Odisha,Nayagarh,"Dabuna, Nayagarh - OSPCB",14-02-2024 22:00:00,21.847279,85.416905,PM10,81,279,141
India,Odisha,Nayagarh,"Dabuna, Nayagarh - OSPCB",14-02-2024 22:00:00,21.847279,85.416905,NH3,1,6,4
India,Odisha,Rairangpur,"Divisional Forest Office, Rairangpur - OSPCB",14-02-2024 22:00:00,22.265816,86.174829,PM2.5,27,163,76
India,Odisha,Rairangpur,"Divisional Forest Office, Rairangpur - OSPCB",14-02-2024 22:00:00,22.265816,86.174829,OZONE,7,50,37
India,Odisha,Rourkela,"Fertilizer Township, Rourkela - OSPCB",14-02-2024 22:00:00,22.18972222,84.86277778,NO2,10,68,22
India,Odisha,Rourkela,"Raghunathpali, Rourkela - OSPCB",14-02-2024 22:00:00,22.220833,84.809444,PM2.5,95,237,165
India,Odisha,Rourkela,"Sector-2, Rourkela - OSPCB",14-02-2024 22:00:00,22.24500000,84.88111111,PM10,94,139,109
India,Odisha,Talcher,"Talcher Coalfields,Talcher - OSPCB",14-02-2024 22:00:00,20.9360711,85.1707021,PM10,60,142,98
India,Puducherry,Puducherry,"Jawahar Nagar, Puducherry - PPCC",14-02-2024 22:00:00,11.9309,79.8027,PM2.5,17,59,35
India,Puducherry,Puducherry,"Jawahar Nagar, Puducherry - PPCC",14-02-2024 22:00:00,11.9309,79.8027,SO2,3,7,6
India,Punjab,Amritsar,"Golden Temple, Amritsar - PPCB",14-02-2024 22:00:00,31.620000,74.876512,NH3,4,5,5
India,Punjab,Bathinda,"Hardev Nagar, Bathinda - PPCB",14-02-2024 22:00:00,30.233011,74.907758,NO2,31,33,32
India,Punjab,Jalandhar,"Civil Line, Jalandhar - PPCB",14-02-2024 22:00:00,31.321907,75.578914,PM2.5,52,326,93
India,Punjab,Jalandhar,"Civil Line, Jalandhar - PPCB",14-02-2024 22:00:00,31.321907,75.578914,PM10,71,249,113
India,Punjab,Jalandhar,"Civil Line, Jalandhar - PPCB",14-02-2024 22:00:00,31.321907,75.578914,CO,16,110,70
India,Punjab,Jalandhar,"Civil Line, Jalandhar - PPCB",14-02-2024 22:00:00,31.321907,75.578914,OZONE,22,70,50
India,Punjab,Khanna,"Kalal Majra, Khanna - PPCB",14-02-2024 22:00:00,30.736056 ,76.209694,OZONE,9,104,46
India,Punjab,Ludhiana,"Punjab Agricultural University, Ludhiana - PPCB",14-02-2024 22:00:00,30.9028,75.8086,OZONE,10,60,37
India,Punjab,Mandi Gobindgarh,"RIMT University, Mandi Gobindgarh - PPCB",14-02-2024 22:00:00,30.649961,76.331442,PM2.5,NA,NA,NA
India,Punjab,Mandi Gobindgarh,"RIMT University, Mandi Gobindgarh - PPCB",14-02-2024 22:00:00,30.649961,76.331442,SO2,NA,NA,NA
India,Punjab,Mandi Gobindgarh,"RIMT University, Mandi Gobindgarh - PPCB",14-02-2024 22:00:00,30.649961,76.331442,CO,11,52,32
India,Punjab,Patiala,"Model Town, Patiala - PPCB",14-02-2024 22:00:00,30.349388,76.366642,PM10,86,179,127
India,Punjab,Rupnagar,"Ratanpura, Rupnagar - Ambuja Cements",14-02-2024 22:00:00,31.0325454,76.5623046,PM10,33,229,116
India,Punjab,Rupnagar,"Ratanpura, Rupnagar - Ambuja Cements",14-02-2024 22:00:00,31.0325454,76.5623046,SO2,4,12,9
India,Rajasthan,Ajmer,"Civil Lines,  Ajmer - RSPCB",14-02-2024 22:00:00,26.470859,74.646594,PM2.5,57,134,86
India,Rajasthan,Ajmer,"Civil Lines,  Ajmer - RSPCB",14-02-2024 22:00:00,26.470859,74.646594,CO,24,71,41
India,Rajasthan,Alwar,"Moti Doongri, Alwar - RSPCB",14-02-2024 22:00:00,27.554793,76.611536,PM10,78,128,104
India,Rajasthan,Alwar,"Moti Doongri, Alwar - RSPCB",14-02-2024 22:00:00,27.554793,76.611536,NH3,6,9,7
India,Rajasthan,Alwar,"Moti Doongri, Alwar - RSPCB",14-02-2024 22:00:00,27.554793,76.611536,CO,10,82,50
India,Rajasthan,Jaipur,"Adarsh Nagar, Jaipur - RSPCB",14-02-2024 22:00:00,26.902909,75.836858,PM2.5,111,268,194
India,Rajasthan,Jaipur,"Police Commissionerate, Jaipur - RSPCB",14-02-2024 22:00:00,26.9164092,75.7994901,NO2,NA,NA,NA
India,Rajasthan,Jodhpur,"Collectorate, Jodhpur - RSPCB",14-02-2024 22:00:00,26.268249,73.0193853,PM10,117,165,138
India,Rajasthan,Jodhpur,"Collectorate, Jodhpur - RSPCB",14-02-2024 22:00:00,26.268249,73.0193853,CO,24,94,60
India,Rajasthan,Kota,"Shrinath Puram, Kota - RSPCB",14-02-2024 22:00:00,25.14389,75.821256,PM2.5,99,309,176
India,Rajasthan,Kota,"Shrinath Puram, Kota - RSPCB",14-02-2024 22:00:00,25.14389,75.821256,SO2,8,15,10
India,Rajasthan,Rajsamand,"Dhoinda, Rajsamand - RSPCB",14-02-2024 22:00:00,25.036360,73.883502,NH3,NA,NA,NA
India,Rajasthan,Rajsamand,"Dhoinda, Rajsamand - RSPCB",14-02-2024 22:00:00,25.036360,73.883502,SO2,NA,NA,NA
India,Rajasthan,Udaipur,"Ashok Nagar, Udaipur - RSPCB",14-02-2024 22:00:00,24.5886166,73.6321397,PM2.5,108,288,194
India,Sikkim,Gangtok,"Zero Point GICI, Gangtok - SSPCB",14-02-2024 22:00:00,27.338530,88.614099,SO2,9,10,10
India,TamilNadu,Chennai,"Alandur Bus Depot, Chennai - CPCB",14-02-2024 22:00:00,12.9099161,80.1076538,CO,62,63,62
India,TamilNadu,Chennai,"Arumbakkam, Chennai - TNPCB",14-02-2024 22:00:00,13.0664,80.2112 ,PM2.5,28,94,50
India,TamilNadu,Chennai,"Gandhi Nagar_Ennore, Chennai - TNPCB",14-02-2024 22:00:00,13.218341,80.32027,NO2,7,101,35
India,TamilNadu,Chennai,"Gandhi Nagar_Ennore, Chennai - TNPCB",14-02-2024 22:00:00,13.218341,80.32027,NH3,2,15,7
India,TamilNadu,Chennai,"Manali, Chennai - CPCB",14-02-2024 22:00:00,13.164544,80.26285,PM2.5,11,147,48
India,TamilNadu,Chennai,"Manali, Chennai - CPCB",14-02-2024 22:00:00,13.164544,80.26285,PM10,42,106,71
India,TamilNadu,Chennai,"Manali, Chennai - CPCB",14-02-2024 22:00:00,13.164544,80.26285,SO2,2,18,9
India,TamilNadu,Chennai,"Perungudi, Chennai - TNPCB",14-02-2024 22:00:00,12.9533,80.2357,NO2,2,10,4
India,TamilNadu,Chennai,"Royapuram, Chennai - TNPCB",14-02-2024 22:00:00,13.1036,80.2909,PM10,28,137,66
India,TamilNadu,Chennai,"Royapuram, Chennai - TNPCB",14-02-2024 22:00:00,13.1036,80.2909,NH3,1,1,1
India,TamilNadu,Chennai,"Royapuram, Chennai - TNPCB",14-02-2024 22:00:00,13.1036,80.2909,CO,21,51,28
India,TamilNadu,Chennai,"Velachery Res. Area, Chennai - CPCB",14-02-2024 22:00:00,13.0052189,80.2398125,NO2,16,62,24
India,TamilNadu,Chennai,"Velachery Res. Area, Chennai - CPCB",14-02-2024 22:00:00,13.0052189,80.2398125,SO2,25,38,27
India,TamilNadu,Coimbatore,"PSG College of Arts and Science, Coimbatore - TNPCB",14-02-2024 22:00:00,11.0328,77.0349,OZONE,3,5,4
India,TamilNadu,Cuddalore,"Semmandalam, Cuddalore - TNPCB",14-02-2024 22:00:00,11.7637683,79.7499835,PM10,NA,NA,NA
India,TamilNadu,Gummidipoondi,"Anthoni Pillai Nagar, Gummidipoondi - TNPCB",14-02-2024 22:00:00,13.4127,80.1081,NH3,1,2,2
India,TamilNadu,Palkalaiperur,"Bharathidasan University, Palkalaiperur - TNPCB",14-02-2024 22:00:00,10.681158,78.741746,PM2.5,25,35,30
India,TamilNadu,Palkalaiperur,"Bharathidasan University, Palkalaiperur - TNPCB",14-02-2024 22:00:00,10.681158,78.741746,PM10,30,44,37
India,TamilNadu,Palkalaiperur,"Bharathidasan University, Palkalaiperur - TNPCB",14-02-2024 22:00:00,10.681158,78.741746,SO2,27,28,27
India,TamilNadu,Palkalaiperur,"Bharathidasan University, Palkalaiperur - TNPCB",14-02-2024 22:00:00,10.681158,78.741746,CO,2,10,4
India,TamilNadu,Palkalaiperur,"Bharathidasan University, Palkalaiperur - TNPCB",14-02-2024 22:00:00,10.681158,78.741746,OZONE,1,1,1
India,TamilNadu,Ramanathapuram,"Chalai Bazaar, Ramanathapuram - TNPCB",14-02-2024 22:00:00,9.36399,78.831977,OZONE,13,14,14
India,TamilNadu,Salem,"Sona College of Technology, Salem - TNPCB",14-02-2024 22:00:00,11.679111,78.125052,NH3,1,1,1
India,TamilNadu,Salem,"Sona College of Technology, Salem - TNPCB",14-02-2024 22:00:00,11.679111,78.125052,SO2,21,22,22
India,TamilNadu,Salem,"Sona College of Technology, Salem - TNPCB",14-02-2024 22:00:00,11.679111,78.125052,OZONE,3,4,3
India,TamilNadu,Thoothukudi,"Meelavittan, Thoothukudi - TNPCB",14-02-2024 22:00:00,8.816428 ,78.099039,PM10,34,84,52
India,TamilNadu,Tirupur,"Kumaran College, Tirupur - TNPCB",14-02-2024 22:00:00,11.0973603,77.3228673,OZONE,6,7,7
India,TamilNadu,Virudhunagar,"Collectorate Office, Virudhunagar - TNPCB",14-02-2024 22:00:00,9.559382,77.948828,SO2,15,16,16
India,Telangana,Hyderabad,"Central University, Hyderabad - TSPCB",14-02-2024 22:00:00,17.460103,78.334361,PM10,28,64,44
India,Telangana,Hyderabad,"Central University, Hyderabad - TSPCB",14-02-2024 22:00:00,17.460103,78.334361,NH3,2,6,4
India,Telangana,Hyderabad,"Central University, Hyderabad - TSPCB",14-02-2024 22:00:00,17.460103,78.334361,CO,26,51,34
India,Telangana,Hyderabad,"IITH Kandi, Hyderabad - TSPCB",14-02-2024 22:00:00,17.585705,78.126199,PM2.5,6,22,14
India,Telangana,Hyderabad,"IITH Kandi, Hyderabad - TSPCB",14-02-2024 22:00:00,17.585705,78.126199,SO2,12,15,14
India,Telangana,Hyderabad,"IITH Kandi, Hyderabad - TSPCB",14-02-2024 22:00:00,17.585705,78.126199,CO,7,35,14
India,Telangana,Hyderabad,"Kokapet, Hyderabad - TSPCB",14-02-2024 22:00:00,17.393559,78.339194,OZONE,2,6,4
India,Telangana,Hyderabad,"Kompally Municipal Office, Hyderabad - TSPCB",14-02-2024 22:00:00,17.544899,78.486949,NO2,6,11,8
India,Telangana,Hyderabad,"Kompally Municipal Office, Hyderabad - TSPCB",14-02-2024 22:00:00,17.544899,78.486949,OZONE,13,72,50
India,Telangana,Hyderabad,"Nacharam_TSIIC IALA, Hyderabad - TSPCB",14-02-2024 22:00:00,17.429398,78.569354,CO,29,32,30
India,Telangana,Hyderabad,"New Malakpet, Hyderabad - TSPCB",14-02-2024 22:00:00,17.37206,78.50864,PM10,57,107,69
India,Telangana,Hyderabad,"New Malakpet, Hyderabad - TSPCB",14-02-2024 22:00:00,17.37206,78.50864,OZONE,3,23,14
India,Telangana,Hyderabad,"Somajiguda, Hyderabad - TSPCB",14-02-2024 22:00:00,17.417094,78.457437,PM10,67,76,71
India,Telangana,Hyderabad,"Somajiguda, Hyderabad - TSPCB",14-02-2024 22:00:00,17.417094,78.457437,OZONE,4,25,16
India,Telangana,Hyderabad,"Zoo Park, Hyderabad - TSPCB",14-02-2024 22:00:00,17.349694,78.451437,PM10,104,155,136
India,Telangana,Hyderabad,"Zoo Park, Hyderabad - TSPCB",14-02-2024 22:00:00,17.349694,78.451437,NH3,1,1,1
India,Telangana,Hyderabad,"Zoo Park, Hyderabad - TSPCB",14-02-2024 22:00:00,17.349694,78.451437,CO,32,72,52
India,Tripura,Agartala,"Bardowali, Agartala - Tripura SPCB",14-02-2024 22:00:00,23.8175497,91.2726974,PM10,132,368,231
India,Uttar_Pradesh,Agra,"Manoharpur, Agra - UPPCB",14-02-2024 22:00:00,27.23711,78.01936,NO2,17,18,17
India,Uttar_Pradesh,Agra,"Manoharpur, Agra - UPPCB",14-02-2024 22:00:00,27.23711,78.01936,CO,12,20,14
India,Uttar_Pradesh,Agra,"Rohta, Agra - UPPCB",14-02-2024 22:00:00,27.106972,78.000111,OZONE,21,22,21
India,Uttar_Pradesh,Agra,"Sector-3B Avas Vikas Colony, Agra - UPPCB",14-02-2024 22:00:00,27.19412,77.96237,SO2,14,22,16
India,Uttar_Pradesh,Agra,"Sector-3B Avas Vikas Colony, Agra - UPPCB",14-02-2024 22:00:00,27.19412,77.96237,OZONE,1,40,10
India,Uttar_Pradesh,Agra,"Shahjahan Garden, Agra - UPPCB",14-02-2024 22:00:00,27.169338,78.03582,PM2.5,57,161,99
India,Uttar_Pradesh,Agra,"Shahjahan Garden, Agra - UPPCB",14-02-2024 22:00:00,27.169338,78.03582,PM10,58,141,94
India,Uttar_Pradesh,Agra,"Shahjahan Garden, Agra - UPPCB",14-02-2024 22:00:00,27.169338,78.03582,NH3,11,15,13
India,Uttar_Pradesh,Baghpat,"Sardar Patel Inter College, Baghpat - UPPCB",14-02-2024 22:00:00,28.964949,77.278761,PM10,86,182,140
India,Uttar_Pradesh,Bareilly,"Civil Lines, Bareilly - UPPCB",14-02-2024 22:00:00,28.359581,79.414455,NO2,23,47,29
India,Uttar_Pradesh,Bareilly,"Rajendra Nagar, Bareilly - UPPCB",14-02-2024 22:00:00,28.38910936,79.42963708,NO2,32,89,61
India,Uttar_Pradesh,Bareilly,"Rajendra Nagar, Bareilly - UPPCB",14-02-2024 22:00:00,28.38910936,79.42963708,NH3,1,1,1
India,Uttar_Pradesh,Bareilly,"Rajendra Nagar, Bareilly - UPPCB",14-02-2024 22:00:00,28.38910936,79.42963708,SO2,41,42,41
India,Uttar_Pradesh,Bulandshahr,"Yamunapuram, Bulandshahr - UPPCB",14-02-2024 22:00:00,28.406963,77.849831,OZONE,1,244,120
India,Uttar_Pradesh,Firozabad,"Nagla Bhau, Firozabad - UPPCB",14-02-2024 22:00:00,27.168897,78.376960,PM2.5,56,117,84
India,Uttar_Pradesh,Firozabad,"Nagla Bhau, Firozabad - UPPCB",14-02-2024 22:00:00,27.168897,78.376960,SO2,12,15,14
India,Uttar_Pradesh,Firozabad,"Vibhab Nagar, Firozabad - UPPCB",14-02-2024 22:00:00,27.1594,78.3953,PM2.5,NA,NA,NA
India,Uttar_Pradesh,Firozabad,"Vibhab Nagar, Firozabad - UPPCB",14-02-2024 22:00:00,27.1594,78.3953,SO2,NA,NA,NA
India,Uttar_Pradesh,Ghaziabad,"Indirapuram, Ghaziabad - UPPCB",14-02-2024 22:00:00,28.646233,77.358075,PM10,142,456,283
India,Uttar_Pradesh,Ghaziabad,"Loni, Ghaziabad - UPPCB",14-02-2024 22:00:00,28.757294,77.278792,SO2,9,24,13
India,Uttar_Pradesh,Ghaziabad,"Loni, Ghaziabad - UPPCB",14-02-2024 22:00:00,28.757294,77.278792,CO,13,103,44
India,Uttar_Pradesh,Ghaziabad,"Sanjay Nagar, Ghaziabad - UPPCB",14-02-2024 22:00:00,28.685382,77.453839,OZONE,4,142,66
India,Uttar_Pradesh,Ghaziabad,"Vasundhara, Ghaziabad - UPPCB",14-02-2024 22:00:00,28.6603346,77.3572563,PM10,121,328,200
India,Uttar_Pradesh,Gorakhpur,"Madan Mohan Malaviya University of Technology, Gorakhpur - UPPCB",14-02-2024 22:00:00,26.730136,83.433859,NO2,2,2,2
India,Uttar_Pradesh,Greater Noida,"Knowledge Park - III, Greater Noida - UPPCB",14-02-2024 22:00:00,28.47272,77.482000,PM2.5,304,447,384
India,Uttar_Pradesh,Greater Noida,"Knowledge Park - III, Greater Noida - UPPCB",14-02-2024 22:00:00,28.47272,77.482000,PM10,214,462,354
India,Uttar_Pradesh,Greater Noida,"Knowledge Park - III, Greater Noida - UPPCB",14-02-2024 22:00:00,28.47272,77.482000,NH3,2,3,2
India,Uttar_Pradesh,Greater Noida,"Knowledge Park - V, Greater Noida - UPPCB",14-02-2024 22:00:00,28.557054,77.453663,PM2.5,213,419,360
India,Uttar_Pradesh,Greater Noida,"Knowledge Park - V, Greater Noida - UPPCB",14-02-2024 22:00:00,28.557054,77.453663,SO2,11,23,15
India,Uttar_Pradesh,Hapur,"Anand Vihar, Hapur - UPPCB",14-02-2024 22:00:00,28.725645,77.749675,CO,45,84,58
India,Uttar_Pradesh,Jhansi,"Shivaji Nagar, Jhansi - UPPCB",14-02-2024 22:00:00,25.4547,78.6039,PM10,90,132,105
India,Uttar_Pradesh,Jhansi,"Shivaji Nagar, Jhansi - UPPCB",14-02-2024 22:00:00,25.4547,78.6039,CO,20,63,32
India,Uttar_Pradesh,Kanpur,"FTI Kidwai Nagar, Kanpur - UPPCB",14-02-2024 22:00:00,26.428282,80.327067,PM10,79,246,126
India,Uttar_Pradesh,Kanpur,"FTI Kidwai Nagar, Kanpur - UPPCB",14-02-2024 22:00:00,26.428282,80.327067,NH3,3,4,3
India,Uttar_Pradesh,Kanpur,"FTI Kidwai Nagar, Kanpur - UPPCB",14-02-2024 22:00:00,26.428282,80.327067,SO2,23,23,23
India,Uttar_Pradesh,Kanpur,"NSI Kalyanpur, Kanpur - UPPCB",14-02-2024 22:00:00,26.509954,80.249612,SO2,23,24,23
India,Uttar_Pradesh,Kanpur,"Nehru Nagar, Kanpur - UPPCB",14-02-2024 22:00:00,26.4703136,80.3229863,SO2,NA,NA,NA
India,Uttar_Pradesh,Khurja,"Kalindi Kunj, Khurja - UPPCB",14-02-2024 22:00:00,28.2348927,77.8683002,NO2,22,46,34
India,Uttar_Pradesh,Khurja,"Kalindi Kunj, Khurja - UPPCB",14-02-2024 22:00:00,28.2348927,77.8683002,NH3,1,2,2
India,Uttar_Pradesh,Lucknow,"B R Ambedkar University, Lucknow - UPPCB",14-02-2024 22:00:00,26.766433,80.927299,PM10,107,152,128
India,Uttar_Pradesh,Lucknow,"B R Ambedkar University, Lucknow - UPPCB",14-02-2024 22:00:00,26.766433,80.927299,SO2,25,33,27
India,Uttar_Pradesh,Lucknow,"B R Ambedkar University, Lucknow - UPPCB",14-02-2024 22:00:00,26.766433,80.927299,CO,34,63,42
India,Uttar_Pradesh,Lucknow,"Gomti Nagar, Lucknow - UPPCB",14-02-2024 22:00:00,26.868120,81.005119,PM2.5,38,82,60
India,Uttar_Pradesh,Lucknow,"Gomti Nagar, Lucknow - UPPCB",14-02-2024 22:00:00,26.868120,81.005119,NO2,8,10,9
India,Uttar_Pradesh,Lucknow,"Kendriya Vidyalaya, Lucknow - CPCB",14-02-2024 22:00:00,26.906111,80.948222,PM10,110,150,129
India,Uttar_Pradesh,Lucknow,"Kukrail Picnic Spot-1, Lucknow - UPPCB",14-02-2024 22:00:00,26.90723,80.98579,NH3,2,2,2
India,Uttar_Pradesh,Lucknow,"Lalbagh, Lucknow - CPCB",14-02-2024 22:00:00,26.8458805,80.9365541,SO2,1,37,10
India,Uttar_Pradesh,Lucknow,"Talkatora District Industries Center, Lucknow - CPCB",14-02-2024 22:00:00,26.83399722,80.8917361,PM10,141,198,166
India,Uttar_Pradesh,Lucknow,"Talkatora District Industries Center, Lucknow - CPCB",14-02-2024 22:00:00,26.83399722,80.8917361,OZONE,2,80,40
India,Uttar_Pradesh,Meerut,"Jai Bhim Nagar, Meerut - UPPCB",14-02-2024 22:00:00,28.9535882,77.7622941,OZONE,6,16,9
India,Uttar_Pradesh,Moradabad,"Eco Herbal Park, Moradabad - UPPCB",14-02-2024 22:00:00,28.840739,78.697531,OZONE,11,66,44
India,Uttar_Pradesh,Moradabad,"Jigar Colony, Moradabad - UPPCB",14-02-2024 22:00:00,28.856664,78.772638,PM2.5,42,115,69
India,Uttar_Pradesh,Moradabad,"Jigar Colony, Moradabad - UPPCB",14-02-2024 22:00:00,28.856664,78.772638,NH3,5,15,6
India,Uttar_Pradesh,Moradabad,"Jigar Colony, Moradabad - UPPCB",14-02-2024 22:00:00,28.856664,78.772638,CO,14,56,38
India,Uttar_Pradesh,Moradabad,"Kashiram Nagar, Moradabad - UPPCB",14-02-2024 22:00:00,28.849399,78.742362,OZONE,14,37,20
India,Uttar_Pradesh,Moradabad,"Transport Nagar, Moradabad - UPPCB",14-02-2024 22:00:00,28.802625,78.753728,OZONE,14,26,21
India,Uttar_Pradesh,Noida,"Sector - 125, Noida - UPPCB",14-02-2024 22:00:00,28.5447608,77.3231257,CO,12,138,68
India,Uttar_Pradesh,Noida,"Sector-1, Noida - UPPCB",14-02-2024 22:00:00,28.5898,77.3101,NO2,28,136,79
India,Uttar_Pradesh,Noida,"Sector-116, Noida - UPPCB",14-02-2024 22:00:00,28.569230,77.393848,PM2.5,208,406,350
India,Uttar_Pradesh,Noida,"Sector-116, Noida - UPPCB",14-02-2024 22:00:00,28.569230,77.393848,SO2,12,25,17
India,Uttar_Pradesh,Prayagraj,"Motilal Nehru NIT, Prayagraj - UPPCB",14-02-2024 22:00:00,25.494,81.863,PM2.5,NA,NA,NA
India,Uttar_Pradesh,Prayagraj,"Motilal Nehru NIT, Prayagraj - UPPCB",14-02-2024 22:00:00,25.494,81.863,NH3,6,7,7
India,Uttar_Pradesh,Prayagraj,"Motilal Nehru NIT, Prayagraj - UPPCB",14-02-2024 22:00:00,25.494,81.863,OZONE,6,28,12
India,Uttar_Pradesh,Prayagraj,"Nagar Nigam, Prayagraj - UPPCB",14-02-2024 22:00:00,25.44919916 ,81.82735986 ,NH3,7,13,10
India,Uttar_Pradesh,Varanasi,"Ardhali Bazar, Varanasi - UPPCB",14-02-2024 22:00:00,25.3505986,82.9083074,PM10,16,55,33
India,Uttar_Pradesh,Varanasi,"Ardhali Bazar, Varanasi - UPPCB",14-02-2024 22:00:00,25.3505986,82.9083074,SO2,11,22,14
India,Uttar_Pradesh,Varanasi,"Bhelupur, Varanasi - UPPCB",14-02-2024 22:00:00,25.301778,82.996789,PM10,15,41,26
India,Uttar_Pradesh,Varanasi,"IESD Banaras Hindu University, Varanasi - UPPCB",14-02-2024 22:00:00,25.262326,82.995408,NH3,2,2,2
India,Uttar_Pradesh,Varanasi,"IESD Banaras Hindu University, Varanasi - UPPCB",14-02-2024 22:00:00,25.262326,82.995408,CO,20,30,21
India,Uttar_Pradesh,Varanasi,"Maldahiya, Varanasi - UPPCB",14-02-2024 22:00:00,25.32393,82.99687,NO2,NA,NA,NA
India,Uttar_Pradesh,Varanasi,"Maldahiya, Varanasi - UPPCB",14-02-2024 22:00:00,25.32393,82.99687,NH3,1,1,1
India,Uttar_Pradesh,Varanasi,"Maldahiya, Varanasi - UPPCB",14-02-2024 22:00:00,25.32393,82.99687,OZONE,NA,NA,NA
India,Uttar_Pradesh,Vrindavan,"Omex Eternity, Vrindavan - UPPCB",14-02-2024 22:00:00,27.5714090,77.6557570,SO2,37,44,39
India,Uttarakhand,Dehradun,"Doon University, Dehradun - UKPCB",14-02-2024 22:00:00,30.269444,78.044167,CO,32,52,38
India,Uttarakhand,Rishikesh,"Shivaji Nagar, Rishikesh - UKPCB",14-02-2024 22:00:00,30.075911,78.2859547,CO,19,43,29
India,Uttarakhand,Rishikesh,"Shivaji Nagar, Rishikesh - UKPCB",14-02-2024 22:00:00,30.075911,78.2859547,OZONE,5,87,59
India,West_Bengal,Asansol,"Asansol Court Area, Asansol - WBPCB",14-02-2024 22:00:00,23.685297,86.945968,PM2.5,126,318,215
India,West_Bengal,Barrackpore,"SVSPA Campus, Barrackpore - WBPCB",14-02-2024 22:00:00,22.7605581,88.3617589,PM2.5,43,323,193
India,West_Bengal,Barrackpore,"SVSPA Campus, Barrackpore - WBPCB",14-02-2024 22:00:00,22.7605581,88.3617589,PM10,53,245,142
India,West_Bengal,Barrackpore,"SVSPA Campus, Barrackpore - WBPCB",14-02-2024 22:00:00,22.7605581,88.3617589,CO,30,99,56
India,West_Bengal,Durgapur,"Sidhu Kanhu Indoor Stadium, Durgapur - WBPCB",14-02-2024 22:00:00,23.5404352,87.2892225,PM2.5,88,303,189
India,West_Bengal,Durgapur,"Sidhu Kanhu Indoor Stadium, Durgapur - WBPCB",14-02-2024 22:00:00,23.5404352,87.2892225,NH3,2,3,2
India,West_Bengal,Haldia,"Priyambada Housing Estate, Haldia - WBPCB",14-02-2024 22:00:00,22.06047,88.109737,PM2.5,76,157,106
India,West_Bengal,Haldia,"Priyambada Housing Estate, Haldia - WBPCB",14-02-2024 22:00:00,22.06047,88.109737,SO2,4,61,17
India,West_Bengal,Howrah,"Belur Math, Howrah - WBPCB",14-02-2024 22:00:00,22.629801,88.352017,NO2,1,44,29
India,West_Bengal,Howrah,"Ghusuri, Howrah - WBPCB",14-02-2024 22:00:00,22.611968,88.347422,NH3,7,13,9
India,West_Bengal,Howrah,"Padmapukur, Howrah - WBPCB",14-02-2024 22:00:00,22.5687319,88.2797276,PM10,101,179,148
India,West_Bengal,Kolkata,"Ballygunge, Kolkata - WBPCB",14-02-2024 22:00:00,22.5367507,88.3638022,CO,16,96,37
India,West_Bengal,Kolkata,"Bidhannagar, Kolkata - WBPCB",14-02-2024 22:00:00,22.58157048,88.41002457,NO2,14,44,26
India,West_Bengal,Kolkata,"Fort William, Kolkata - WBPCB",14-02-2024 22:00:00,22.556640,88.342674,SO2,6,54,21
India,West_Bengal,Kolkata,"Rabindra Bharati University, Kolkata - WBPCB",14-02-2024 22:00:00,22.627847,88.380669,PM2.5,44,301,133
India,West_Bengal,Kolkata,"Rabindra Bharati University, Kolkata - WBPCB",14-02-2024 22:00:00,22.627847,88.380669,SO2,7,77,17
India,West_Bengal,Kolkata,"Rabindra Sarobar, Kolkata - WBPCB",14-02-2024 22:00:00,22.51106,88.35142,PM2.5,70,274,162
India,Andhra_Pradesh,Amaravati,"Secretariat, Amaravati - APPCB",14-02-2024 22:00:00,16.5150833,80.5181667,NO2,6,20,12
India,Andhra_Pradesh,Anantapur,"Gulzarpet, Anantapur - APPCB",14-02-2024 22:00:00,14.675886,77.593027,NH3,NA,NA,NA
India,Andhra_Pradesh,Anantapur,"Gulzarpet, Anantapur - APPCB",14-02-2024 22:00:00,14.675886,77.593027,OZONE,5,38,34
India,Andhra_Pradesh,Chittoor,"Gangineni Cheruvu, Chittoor - APPCB",14-02-2024 22:00:00,13.204880,79.097889,PM10,NA,NA,NA
India,Andhra_Pradesh,Chittoor,"Gangineni Cheruvu, Chittoor - APPCB",14-02-2024 22:00:00,13.204880,79.097889,NH3,NA,NA,NA
India,Andhra_Pradesh,Kadapa,"Yerramukkapalli, Kadapa - APPCB",14-02-2024 22:00:00,14.465052,78.824187,PM2.5,18,68,39
India,Andhra_Pradesh,Kadapa,"Yerramukkapalli, Kadapa - APPCB",14-02-2024 22:00:00,14.465052,78.824187,SO2,1,2,2
India,Andhra_Pradesh,Rajamahendravaram,"Anand Kala Kshetram, Rajamahendravaram - APPCB",14-02-2024 22:00:00,16.9872867,81.7363176,NH3,3,6,4
India,Andhra_Pradesh,Tirupati,"Tirumala, Tirupati - APPCB",14-02-2024 22:00:00,13.67,79.35,PM2.5,32,61,46
India,Andhra_Pradesh,Tirupati,"Tirumala, Tirupati - APPCB",14-02-2024 22:00:00,13.67,79.35,SO2,1,8,5
India,Andhra_Pradesh,Tirupati,"Tirumala, Tirupati - APPCB",14-02-2024 22:00:00,13.67,79.35,CO,38,56,44
India,Andhra_Pradesh,Vijayawada,"HB Colony, Vijayawada - APPCB",14-02-2024 22:00:00,16.536107,80.594233,PM2.5,44,85,57
India,Andhra_Pradesh,Vijayawada,"HB Colony, Vijayawada - APPCB",14-02-2024 22:00:00,16.536107,80.594233,NH3,4,5,4
India,Andhra_Pradesh,Vijayawada,"Kanuru, Vijayawada - APPCB",14-02-2024 22:00:00,16.486692,80.699436,PM2.5,51,82,67
India,Andhra_Pradesh,Vijayawada,"Kanuru, Vijayawada - APPCB",14-02-2024 22:00:00,16.486692,80.699436,NO2,14,18,16
India,Andhra_Pradesh,Vijayawada,"Kanuru, Vijayawada - APPCB",14-02-2024 22:00:00,16.486692,80.699436,CO,38,56,49
India,Andhra_Pradesh,Vijayawada,"Rajiv Gandhi Park, Vijayawada - APPCB",14-02-2024 22:00:00,16.509717,80.612222,PM2.5,44,92,63
India,Andhra_Pradesh,Vijayawada,"Rajiv Gandhi Park, Vijayawada - APPCB",14-02-2024 22:00:00,16.509717,80.612222,NO2,4,68,30
India,Andhra_Pradesh,Vijayawada,"Rajiv Nagar, Vijayawada - APPCB",14-02-2024 22:00:00,16.554731,80.649110,PM10,NA,NA,NA
India,Andhra_Pradesh,Visakhapatnam,"GVM Corporation, Visakhapatnam - APPCB",14-02-2024 22:00:00,17.72,83.3,PM2.5,67,204,101
India,Andhra_Pradesh,Visakhapatnam,"GVM Corporation, Visakhapatnam - APPCB",14-02-2024 22:00:00,17.72,83.3,PM10,76,398,138
India,Andhra_Pradesh,Visakhapatnam,"GVM Corporation, Visakhapatnam - APPCB",14-02-2024 22:00:00,17.72,83.3,SO2,8,19,12
India,Andhra_Pradesh,Visakhapatnam,"GVM Corporation, Visakhapatnam - APPCB",14-02-2024 22:00:00,17.72,83.3,CO,17,50,30
India,Assam,Guwahati,"IITG, Guwahati - PCBA",14-02-2024 22:00:00,26.2028636,91.70046436,PM2.5,109,346,256
India,Assam,Guwahati,"IITG, Guwahati - PCBA",14-02-2024 22:00:00,26.2028636,91.70046436,SO2,12,13,12
India,Assam,Guwahati,"LGBI Airport, Guwahati - PCBA",14-02-2024 22:00:00,26.10887,91.589544,SO2,NA,NA,NA
India,Assam,Guwahati,"Railway Colony, Guwahati - PCBA",14-02-2024 22:00:00,26.181742,91.78063,CO,32,112,71
India,Assam,Nalbari,"Bata Chowk, Nalbari - PCBA",14-02-2024 22:00:00,26.446912,91.439057,OZONE,1,98,25
India,Assam,Silchar,"Tarapur, Silchar - PCBA",14-02-2024 22:00:00,24.82827,92.79525,NO2,31,48,37
India,Assam,Silchar,"Tarapur, Silchar - PCBA",14-02-2024 22:00:00,24.82827,92.79525,SO2,4,14,6
India,Assam,Sivasagar,"Girls College, Sivasagar - PCBA",14-02-2024 22:00:00,26.987634,94.636574,PM2.5,21,42,30
India,Assam,Sivasagar,"Girls College, Sivasagar - PCBA",14-02-2024 22:00:00,26.987634,94.636574,CO,13,44,24
India,Bihar,Araria,"Kharahiya Basti, Araria - BSPCB",14-02-2024 22:00:00,26.146529,87.454184,PM2.5,329,449,366
India,Bihar,Araria,"Kharahiya Basti, Araria - BSPCB",14-02-2024 22:00:00,26.146529,87.454184,PM10,207,493,359
India,Bihar,Araria,"Kharahiya Basti, Araria - BSPCB",14-02-2024 22:00:00,26.146529,87.454184,NO2,6,10,7
India,Bihar,Araria,"Kharahiya Basti, Araria - BSPCB",14-02-2024 22:00:00,26.146529,87.454184,NH3,7,9,8
India,Bihar,Araria,"Kharahiya Basti, Araria - BSPCB",14-02-2024 22:00:00,26.146529,87.454184,SO2,13,17,15
India,Bihar,Arrah,"New DM Office, Arrah - BSPCB",14-02-2024 22:00:00,25.5626095,84.663264,PM2.5,NA,NA,NA
India,Bihar,Arrah,"New DM Office, Arrah - BSPCB",14-02-2024 22:00:00,25.5626095,84.663264,SO2,10,23,18
India,Bihar,Bettiah,"Kamalnath Nagar, Bettiah - BSPCB",14-02-2024 22:00:00,26.80365,84.51954,NH3,3,3,3
India,Bihar,Bettiah,"Kamalnath Nagar, Bettiah - BSPCB",14-02-2024 22:00:00,26.80365,84.51954,OZONE,1,2,1
India,Bihar,Bhagalpur,"Mayaganj, Bhagalpur - BSPCB",14-02-2024 22:00:00,25.265194,87.012947,PM10,46,211,153
India,Bihar,Bhagalpur,"Mayaganj, Bhagalpur - BSPCB",14-02-2024 22:00:00,25.265194,87.012947,OZONE,9,24,13
India,Bihar,Bihar Sharif,"D M Colony, Bihar Sharif - BSPCB",14-02-2024 22:00:00,25.204762,85.514960,PM2.5,23,322,133
India,Bihar,Bihar Sharif,"D M Colony, Bihar Sharif - BSPCB",14-02-2024 22:00:00,25.204762,85.514960,OZONE,3,22,11
India,Bihar,Buxar,"Charitra Van, Buxar - BSPCB (Formerly known as Central Jail)",14-02-2024 22:00:00,25.567520,83.966379,NO2,1,136,28
India,Bihar,Chhapra,"Darshan Nagar, Chhapra - BSPCB",14-02-2024 22:00:00,25.7808257,84.7446768,NO2,14,23,17
India,Bihar,Gaya,"Collectorate, Gaya - BSPCB",14-02-2024 22:00:00,24.7955,84.9994,SO2,4,10,6
India,Bihar,Gaya,"Collectorate, Gaya - BSPCB",14-02-2024 22:00:00,24.7955,84.9994,CO,16,60,42
India,Bihar,Gaya,"Kareemganj, Gaya - BSPCB",14-02-2024 22:00:00,24.792403,84.992416,PM10,NA,NA,NA
India,Bihar,Gaya,"Kareemganj, Gaya - BSPCB",14-02-2024 22:00:00,24.792403,84.992416,NH3,NA,NA,NA
India,Bihar,Gaya,"SFTI Kusdihra, Gaya - BSPCB",14-02-2024 22:00:00,24.762518,84.982348,OZONE,1,4,3
India,Bihar,Hajipur,"Industrial Area, Hajipur - BSPCB",14-02-2024 22:00:00,25.697189,85.245900,OZONE,2,9,3
India,Bihar,Katihar,"Mirchaibari, Katihar - BSPCB",14-02-2024 22:00:00,25.560083,87.553265,NO2,9,23,15
India,Bihar,Katihar,"Mirchaibari, Katihar - BSPCB",14-02-2024 22:00:00,25.560083,87.553265,OZONE,18,26,25
India,Bihar,Kishanganj,"SDM Office_Khagra, Kishanganj - BSPCB",14-02-2024 22:00:00,26.0881305,87.93840336,SO2,15,47,30
India,Bihar,Motihari,"Gandak Colony, Motihari - BSPCB",14-02-2024 22:00:00,26.63086,84.90051,SO2,1,4,3
India,Bihar,Munger,"Town Hall, Munger - BSPCB",14-02-2024 22:00:00,25.376776,86.471523,PM2.5,28,302,124
India,Bihar,Munger,"Town Hall, Munger - BSPCB",14-02-2024 22:00:00,25.376776,86.471523,NO2,8,10,9
India,Bihar,Muzaffarpur,"Buddha Colony, Muzaffarpur - BSPCB",14-02-2024 22:00:00,26.11442,85.39813,PM2.5,276,383,340
India,Bihar,Muzaffarpur,"Buddha Colony, Muzaffarpur - BSPCB",14-02-2024 22:00:00,26.11442,85.39813,SO2,4,8,6
India,Bihar,Muzaffarpur,"Buddha Colony, Muzaffarpur - BSPCB",14-02-2024 22:00:00,26.11442,85.39813,CO,58,116,86
India,Bihar,Patna,"DRM Office Danapur, Patna - BSPCB",14-02-2024 22:00:00,25.586562,85.043586,NO2,2,42,24
India,Bihar,Patna,"IGSC Planetarium Complex, Patna - BSPCB",14-02-2024 22:00:00,25.610369,85.132568,PM2.5,54,319,164
India,Bihar,Patna,"Muradpur, Patna - BSPCB",14-02-2024 22:00:00,25.619651,85.147382,NO2,10,22,14
India,Bihar,Patna,"Muradpur, Patna - BSPCB",14-02-2024 22:00:00,25.619651,85.147382,CO,38,144,85
India,Bihar,Patna,"Rajbansi Nagar, Patna - BSPCB",14-02-2024 22:00:00,25.599486,85.113666,NO2,26,40,32
India,Bihar,Patna,"Rajbansi Nagar, Patna - BSPCB",14-02-2024 22:00:00,25.599486,85.113666,OZONE,1,27,12
India,Bihar,Purnia,"Mariam Nagar, Purnia - BSPCB",14-02-2024 22:00:00,25.366336,87.117468,CO,45,103,75
India,Bihar,Rajgir,"Dangi Tola, Rajgir - BSPCB",14-02-2024 22:00:00,25.03280,85.41948,SO2,3,6,4
India,Bihar,Saharsa,"Police Line, Saharsa - BSPCB",14-02-2024 22:00:00,25.892357,86.590325,PM10,NA,NA,NA
India,Bihar,Saharsa,"Police Line, Saharsa - BSPCB",14-02-2024 22:00:00,25.892357,86.590325,NH3,NA,NA,NA
India,Bihar,Saharsa,"Police Line, Saharsa - BSPCB",14-02-2024 22:00:00,25.892357,86.590325,CO,NA,NA,NA
India,Bihar,Siwan,"Chitragupta Nagar, Siwan - BSPCB",14-02-2024 22:00:00,26.2271665,84.3570427,PM10,NA,NA,NA
India,Bihar,Siwan,"Chitragupta Nagar, Siwan - BSPCB",14-02-2024 22:00:00,26.2271665,84.3570427,SO2,2,35,28
India,Chandigarh,Chandigarh,"Sector 22, Chandigarh - CPCC",14-02-2024 22:00:00,30.735567,76.775714,OZONE,3,178,106
India,Chandigarh,Chandigarh,"Sector-25, Chandigarh - CPCC",14-02-2024 22:00:00,30.751462,76.762879,NO2,12,47,24
India,Chandigarh,Chandigarh,"Sector-25, Chandigarh - CPCC",14-02-2024 22:00:00,30.751462,76.762879,SO2,8,21,11
India,Chandigarh,Chandigarh,"Sector-53, Chandigarh - CPCC",14-02-2024 22:00:00,30.719859,76.738637,NO2,NA,NA,NA
India,Chandigarh,Chandigarh,"Sector-53, Chandigarh - CPCC",14-02-2024 22:00:00,30.719859,76.738637,NH3,NA,NA,NA
India,Chhattisgarh,Bhilai,"32Bungalows, Bhilai - CECB",14-02-2024 22:00:00,21.194815,81.314770,CO,17,78,21
India,Chhattisgarh,Bhilai,"Civic Center, Bhilai - Bhilai Steel Plant",14-02-2024 22:00:00,21.185571,81.343175,PM10,32,85,56
India,Chhattisgarh,Bhilai,"Civic Center, Bhilai - Bhilai Steel Plant",14-02-2024 22:00:00,21.185571,81.343175,OZONE,8,42,37
India,Chhattisgarh,Bhilai,"Hathkhoj, Bhilai - CECB",14-02-2024 22:00:00,21.224231,81.408350,SO2,11,18,13
India,Chhattisgarh,Chhal,"Nawapara SECL Colony, Chhal - CECB",14-02-2024 22:00:00,22.118125,83.140608,SO2,11,22,15
India,Chhattisgarh,Chhal,"Nawapara SECL Colony, Chhal - CECB",14-02-2024 22:00:00,22.118125,83.140608,OZONE,1,64,37
India,Chhattisgarh,Korba,"Rampur, Korba - CECB",14-02-2024 22:00:00,22.368195,82.746431,PM2.5,24,58,42
India,Chhattisgarh,Korba,"Rampur, Korba - CECB",14-02-2024 22:00:00,22.368195,82.746431,SO2,7,11,8
India,Chhattisgarh,Korba,"Urja Nagar, Korba - CECB",14-02-2024 22:00:00,22.348441,82.549611,PM2.5,32,72,57
India,Chhattisgarh,Kunjemura,"OP Jindal School, Kunjemura - CECB",14-02-2024 22:00:00,22.126650,83.483212,SO2,2,15,8
India,Chhattisgarh,Raipur,"AIIMS, Raipur - CECB",14-02-2024 22:00:00,21.258815,81.578979,PM2.5,18,72,49
India,Chhattisgarh,Raipur,"AIIMS, Raipur - CECB",14-02-2024 22:00:00,21.258815,81.578979,SO2,5,8,7
India,Chhattisgarh,Raipur,"AIIMS, Raipur - CECB",14-02-2024 22:00:00,21.258815,81.578979,CO,32,87,34
India,Chhattisgarh,Raipur,"Krishak Nagar, Raipur - CECB",14-02-2024 22:00:00,21.237755,81.705301,PM2.5,13,127,49
India,Chhattisgarh,Raipur,"Krishak Nagar, Raipur - CECB",14-02-2024 22:00:00,21.237755,81.705301,PM10,25,163,70
India,Chhattisgarh,Raipur,"Siltara Phase-II, Raipur - CECB",14-02-2024 22:00:00,21.371751,81.664929,SO2,7,15,9
India,Chhattisgarh,Tumidih,"OP Jindal Industrial Park, Tumidih - CECB",14-02-2024 22:00:00,22.06631475,83.33820077,PM10,34,407,83
India,Delhi,Delhi,"Anand Vihar, Delhi - DPCC",14-02-2024 22:00:00,28.647622,77.3158090,PM10,187,500,368
India,Delhi,Delhi,"Anand Vihar, Delhi - DPCC",14-02-2024 22:00:00,28.647622,77.3158090,NO2,95,233,145
India,Delhi,Delhi,"Ashok Vihar, Delhi - DPCC",14-02-2024 22:00:00,28.695381,77.181665,PM10,160,425,286
India,Delhi,Delhi,"Aya Nagar, Delhi - IMD",14-02-2024 22:00:00,28.4706914,77.1099364,OZONE,14,19,18
India,Delhi,Delhi,"Burari Crossing, Delhi - IMD",14-02-2024 22:00:00,28.7256504,77.2011573,OZONE,26,116,65
India,Delhi,Delhi,"CRRI Mathura Road, Delhi - IMD",14-02-2024 22:00:00,28.5512005,77.2735737,PM2.5,144,387,302
India,Delhi,Delhi,"CRRI Mathura Road, Delhi - IMD",14-02-2024 22:00:00,28.5512005,77.2735737,PM10,124,364,212
India,Delhi,Delhi,"Dr. Karni Singh Shooting Range, Delhi - DPCC",14-02-2024 22:00:00,28.498571,77.264840,PM2.5,207,423,356
India,Delhi,Delhi,"Dr. Karni Singh Shooting Range, Delhi - DPCC",14-02-2024 22:00:00,28.498571,77.264840,PM10,143,420,283
India,Delhi,Delhi,"Dwarka-Sector 8, Delhi - DPCC ",14-02-2024 22:00:00,28.5710274,77.0719006,PM2.5,221,443,354
India,Delhi,Delhi,"IGI Airport (T3), Delhi - IMD",14-02-2024 22:00:00,28.5627763,77.1180053,PM10,129,456,235
India,Delhi,Delhi,"Jahangirpuri, Delhi - DPCC",14-02-2024 22:00:00,28.732820,77.170633,NH3,2,42,9
India,Delhi,Delhi,"Jahangirpuri, Delhi - DPCC",14-02-2024 22:00:00,28.732820,77.170633,OZONE,3,177,91
India,Delhi,Delhi,"Jawaharlal Nehru Stadium, Delhi - DPCC",14-02-2024 22:00:00,28.580280,77.233829,NO2,46,156,95
India,Delhi,Delhi,"Jawaharlal Nehru Stadium, Delhi - DPCC",14-02-2024 22:00:00,28.580280,77.233829,SO2,2,47,22
India,Delhi,Delhi,"Lodhi Road, Delhi - IITM",14-02-2024 22:00:00,28.588333,77.221667,OZONE,15,17,16
India,Delhi,Delhi,"Major Dhyan Chand National Stadium, Delhi - DPCC",14-02-2024 22:00:00,28.611281,77.237738,OZONE,1,209,99
India,Delhi,Delhi,"Mandir Marg, Delhi - DPCC",14-02-2024 22:00:00,28.636429,77.201067,NH3,17,20,19
India,Delhi,Delhi,"Mundka, Delhi - DPCC",14-02-2024 22:00:00,28.684678,77.076574,PM10,158,414,314
India,Delhi,Delhi,"NSIT Dwarka, Delhi - CPCB",14-02-2024 22:00:00,28.60909,77.0325413,PM10,183,431,276
India,Delhi,Delhi,"NSIT Dwarka, Delhi - CPCB",14-02-2024 22:00:00,28.60909,77.0325413,OZONE,11,103,57
India,Delhi,Delhi,"Najafgarh, Delhi - DPCC",14-02-2024 22:00:00,28.570173,76.933762,PM10,99,263,147
India,Delhi,Delhi,"Najafgarh, Delhi - DPCC",14-02-2024 22:00:00,28.570173,76.933762,CO,7,60,19
India,Delhi,Delhi,"Narela, Delhi - DPCC",14-02-2024 22:00:00,28.822836,77.101981,PM2.5,262,403,342
India,Delhi,Delhi,"Nehru Nagar, Delhi - DPCC",14-02-2024 22:00:00,28.567890,77.250515,PM2.5,252,442,378
India,Delhi,Delhi,"Nehru Nagar, Delhi - DPCC",14-02-2024 22:00:00,28.567890,77.250515,NO2,18,40,26
India,Delhi,Delhi,"Nehru Nagar, Delhi - DPCC",14-02-2024 22:00:00,28.567890,77.250515,SO2,3,44,15
India,Delhi,Delhi,"New Moti Bagh, Delhi - MHUA",14-02-2024 22:00:00,28.57834,77.18400,PM2.5,216,433,346
India,Delhi,Delhi,"North Campus, DU, Delhi - IMD",14-02-2024 22:00:00,28.6573814,77.1585447,PM10,NA,NA,NA
India,Delhi,Delhi,"Okhla Phase-2, Delhi - DPCC",14-02-2024 22:00:00,28.530785,77.271255,SO2,3,16,7
India,Delhi,Delhi,"Patparganj, Delhi - DPCC",14-02-2024 22:00:00,28.623763,77.287209,PM10,167,466,328
India,Delhi,Delhi,"Punjabi Bagh, Delhi - DPCC",14-02-2024 22:00:00,28.674045,77.131023,NH3,NA,NA,NA
India,Delhi,Delhi,"Pusa, Delhi - DPCC",14-02-2024 22:00:00,28.639652,77.146275,CO,4,116,55
India,Delhi,Delhi,"R K Puram, Delhi - DPCC",14-02-2024 22:00:00,28.563262,77.186937,PM2.5,218,435,363
India,Delhi,Delhi,"Sirifort, Delhi - CPCB",14-02-2024 22:00:00,28.5504249,77.2159377,OZONE,10,171,20
India,Delhi,Delhi,"Sonia Vihar, Delhi - DPCC",14-02-2024 22:00:00,28.710508,77.249485,SO2,4,45,13
India,Delhi,Delhi,"Wazirpur, Delhi - DPCC",14-02-2024 22:00:00,28.699793,77.165453,CO,10,116,65
India,Gujarat,Ahmedabad,"Chandkheda, Ahmedabad - IITM",14-02-2024 22:00:00,23.107969,72.574648,SO2,9,18,12
India,Gujarat,Ahmedabad,"Maninagar, Ahmedabad - GPCB",14-02-2024 22:00:00,23.002657,72.591912,NO2,NA,NA,NA
India,Gujarat,Ahmedabad,"Rakhial, Ahmedabad - IITM",14-02-2024 22:00:00,23.016834,72.625775,NO2,61,80,71
India,Gujarat,Ahmedabad,"Rakhial, Ahmedabad - IITM",14-02-2024 22:00:00,23.016834,72.625775,NH3,4,12,7
India,Gujarat,Ahmedabad,"SAC ISRO Bopal, Ahmedabad - IITM",14-02-2024 22:00:00,23.041137,72.456691,SO2,11,12,12
India,Gujarat,Ahmedabad,"SAC ISRO Satellite, Ahmedabad - IITM",14-02-2024 22:00:00,23.023389,72.515201,PM10,86,88,87
India,Gujarat,Ahmedabad,"SAC ISRO Satellite, Ahmedabad - IITM",14-02-2024 22:00:00,23.023389,72.515201,CO,48,49,48
India,Gujarat,Ahmedabad,"SVPI Airport Hansol, Ahmedabad - IITM",14-02-2024 22:00:00,23.076793,72.627874,PM10,101,164,128
India,Gujarat,Ahmedabad,"SVPI Airport Hansol, Ahmedabad - IITM",14-02-2024 22:00:00,23.076793,72.627874,NO2,1,6,3
India,Gujarat,Ankleshwar,"GIDC, Ankleshwar - GPCB",14-02-2024 22:00:00,21.613267,73.010555,PM10,66,130,98
India,Gujarat,Ankleshwar,"GIDC, Ankleshwar - GPCB",14-02-2024 22:00:00,21.613267,73.010555,NO2,34,37,35
India,Gujarat,Ankleshwar,"GIDC, Ankleshwar - GPCB",14-02-2024 22:00:00,21.613267,73.010555,SO2,15,82,38
India,Gujarat,Gandhinagar,"IIPHG Lekawada, Gandhinagar - IITM",14-02-2024 22:00:00,23.243639,72.68994,NO2,NA,NA,NA
India,Gujarat,Gandhinagar,"Sector-10, Gandhinagar - GPCB",14-02-2024 22:00:00,23.221714,72.654328,PM2.5,31,52,40
India,Gujarat,Gandhinagar,"Sector-10, Gandhinagar - GPCB",14-02-2024 22:00:00,23.221714,72.654328,NO2,5,13,9
India,Gujarat,Gandhinagar,"Sector-10, Gandhinagar - GPCB",14-02-2024 22:00:00,23.221714,72.654328,NH3,1,2,2
India,Gujarat,Gandhinagar,"Sector-10, Gandhinagar - GPCB",14-02-2024 22:00:00,23.221714,72.654328,SO2,5,29,8
India,Gujarat,Surat,"Science Center, Surat - SMC",14-02-2024 22:00:00,21.170046,72.795405,PM10,29,87,57
India,Gujarat,Vapi,"Phase-1 GIDC, Vapi - GPCB",14-02-2024 22:00:00,20.362421,72.918013,SO2,45,46,45
India,Gujarat,Vatva,"Phase-4 GIDC, Vatva - GPCB",14-02-2024 22:00:00,22.969611,72.643500,NO2,32,107,60
India,Gujarat,Vatva,"Phase-4 GIDC, Vatva - GPCB",14-02-2024 22:00:00,22.969611,72.643500,SO2,17,18,17
India,Gujarat,Vatva,"Phase-4 GIDC, Vatva - GPCB",14-02-2024 22:00:00,22.969611,72.643500,CO,48,50,49
India,Haryana,Ambala,"Patti Mehar, Ambala - HSPCB",14-02-2024 22:00:00,30.379589,76.778328,OZONE,4,27,5
India,Haryana,Bahadurgarh,"Arya Nagar, Bahadurgarh - HSPCB",14-02-2024 22:00:00,28.6701,76.9254,SO2,9,29,14
India,Haryana,Bahadurgarh,"Arya Nagar, Bahadurgarh - HSPCB",14-02-2024 22:00:00,28.6701,76.9254,OZONE,39,48,45
India,Haryana,Ballabgarh,"Nathu Colony, Ballabgarh - HSPCB",14-02-2024 22:00:00,28.3419248,77.319699,NH3,1,2,2
India,Haryana,Charkhi Dadri,"Mini Secretariat, Charkhi Dadri - HSPCB",14-02-2024 22:00:00,28.593883,76.270653,NO2,10,17,12
India,Haryana,Charkhi Dadri,"Mini Secretariat, Charkhi Dadri - HSPCB",14-02-2024 22:00:00,28.593883,76.270653,NH3,5,7,6
India,Haryana,Dharuhera,"Municipal Corporation Office, Dharuhera -  HSPCB",14-02-2024 22:00:00,28.206800,76.799700,PM10,123,389,237
India,Haryana,Dharuhera,"Municipal Corporation Office, Dharuhera -  HSPCB",14-02-2024 22:00:00,28.206800,76.799700,NO2,45,111,72
India,Haryana,Dharuhera,"Municipal Corporation Office, Dharuhera -  HSPCB",14-02-2024 22:00:00,28.206800,76.799700,OZONE,13,97,65
India,Haryana,Faridabad,"Sector 30, Faridabad - HSPCB",14-02-2024 22:00:00,28.4417,77.3217,NH3,9,9,9
India,Haryana,Faridabad,"Sector- 16A, Faridabad - HSPCB",14-02-2024 22:00:00,28.4088421,77.3099081,NO2,NA,NA,NA
India,Haryana,Fatehabad,"Huda Sector, Fatehabad - HSPCB",14-02-2024 22:00:00,29.503664,75.467934,SO2,NA,NA,NA
India,Haryana,Fatehabad,"Huda Sector, Fatehabad - HSPCB",14-02-2024 22:00:00,29.503664,75.467934,CO,6,15,9
India,Haryana,Fatehabad,"Huda Sector, Fatehabad - HSPCB",14-02-2024 22:00:00,29.503664,75.467934,OZONE,20,39,26
India,Haryana,Gurugram,"Sector-51, Gurugram - HSPCB",14-02-2024 22:00:00,28.4227,77.0667,NH3,6,14,9
India,Haryana,Gurugram,"Teri Gram, Gurugram - HSPCB",14-02-2024 22:00:00,28.4275,77.1465,NH3,5,54,35
India,Haryana,Gurugram,"Teri Gram, Gurugram - HSPCB",14-02-2024 22:00:00,28.4275,77.1465,CO,22,66,29
India,Haryana,Gurugram,"Vikas Sadan, Gurugram - HSPCB",14-02-2024 22:00:00,28.4501238,77.0263051,OZONE,7,68,43
India,Haryana,Hisar,"Urban Estate-II, Hisar - HSPCB",14-02-2024 22:00:00,29.140560,75.744941,SO2,2,73,35
India,Haryana,Hisar,"Urban Estate-II, Hisar - HSPCB",14-02-2024 22:00:00,29.140560,75.744941,CO,40,185,80
India,Haryana,Hisar,"Urban Estate-II, Hisar - HSPCB",14-02-2024 22:00:00,29.140560,75.744941,OZONE,41,186,136
India,Haryana,Karnal,"Sector-12, Karnal - HSPCB",14-02-2024 22:00:00,29.695300,77.002700,OZONE,28,34,32
India,Haryana,Kurukshetra,"Sector-7, Kurukshetra - HSPCB",14-02-2024 22:00:00,29.966942,76.875879,NO2,NA,NA,NA
India,Haryana,Kurukshetra,"Sector-7, Kurukshetra - HSPCB",14-02-2024 22:00:00,29.966942,76.875879,NH3,NA,NA,NA
India,Haryana,Mandikhera,"General Hospital, Mandikhera - HSPCB",14-02-2024 22:00:00,27.9002,76.9938,PM10,86,161,118
India,Haryana,Manesar,"Sector-2 IMT, Manesar - HSPCB",14-02-2024 22:00:00,28.360699,76.936090,SO2,1,37,14
India,Haryana,Narnaul,"Shastri Nagar, Narnaul - HSPCB",14-02-2024 22:00:00,28.060249,76.113115,NO2,16,58,35
India,Haryana,Palwal,"Shyam Nagar, Palwal - HSPCB",14-02-2024 22:00:00,28.1485564,77.3320667,PM2.5,91,269,195
India,Haryana,Palwal,"Shyam Nagar, Palwal - HSPCB",14-02-2024 22:00:00,28.1485564,77.3320667,NO2,23,24,24
India,Haryana,Palwal,"Shyam Nagar, Palwal - HSPCB",14-02-2024 22:00:00,28.1485564,77.3320667,NH3,8,9,9
India,Haryana,Palwal,"Shyam Nagar, Palwal - HSPCB",14-02-2024 22:00:00,28.1485564,77.3320667,SO2,9,27,19
India,Haryana,Palwal,"Shyam Nagar, Palwal - HSPCB",14-02-2024 22:00:00,28.1485564,77.3320667,CO,10,27,12
India,Haryana,Palwal,"Shyam Nagar, Palwal - HSPCB",14-02-2024 22:00:00,28.1485564,77.3320667,OZONE,2,27,17
India,Haryana,Rohtak,"MD University, Rohtak - HSPCB",14-02-2024 22:00:00,28.52123,76.37138,PM2.5,18,301,168
India,Haryana,Rohtak,"MD University, Rohtak - HSPCB",14-02-2024 22:00:00,28.52123,76.37138,NO2,44,57,51
India,Haryana,Rohtak,"MD University, Rohtak - HSPCB",14-02-2024 22:00:00,28.52123,76.37138,SO2,5,8,7
India,Haryana,Rohtak,"MD University, Rohtak - HSPCB",14-02-2024 22:00:00,28.52123,76.37138,CO,12,60,44
India,Haryana,Rohtak,"MD University, Rohtak - HSPCB",14-02-2024 22:00:00,28.52123,76.37138,OZONE,45,52,49
India,Haryana,Sonipat,"Murthal, Sonipat - HSPCB",14-02-2024 22:00:00,29.027200,77.062100,PM2.5,146,304,221
India,Haryana,Sonipat,"Murthal, Sonipat - HSPCB",14-02-2024 22:00:00,29.027200,77.062100,OZONE,17,36,29
India,Haryana,Yamuna Nagar,"Gobind Pura, Yamuna Nagar - HSPCB",14-02-2024 22:00:00,30.1480566,77.2893471,NH3,2,3,3
India,Haryana,Yamuna Nagar,"Gobind Pura, Yamuna Nagar - HSPCB",14-02-2024 22:00:00,30.1480566,77.2893471,CO,32,96,36
India,Himachal Pradesh,Baddi,"HIMUDA Complex Phase-1, Baddi - HPPCB",14-02-2024 22:00:00,30.943887,76.801991,NO2,9,59,25
India,Himachal Pradesh,Baddi,"HIMUDA Complex Phase-1, Baddi - HPPCB",14-02-2024 22:00:00,30.943887,76.801991,OZONE,24,118,90
India,Jharkhand,Dhanbad,"Kalakusuma, Dhanbad - DMC",14-02-2024 22:00:00,23.811548,86.481238,PM10,76,81,78
India,Jharkhand,Dhanbad,"Sardar Patel Nagar, Dhanbad - JSPCB",14-02-2024 22:00:00,23.80569,86.44268,OZONE,9,17,13
India,Karnataka,Belgaum,"Ramteerth Nagar, Belgaum - KSPCB",14-02-2024 22:00:00,15.888653,74.541751,PM2.5,23,99,58
India,Karnataka,Belgaum,"Ramteerth Nagar, Belgaum - KSPCB",14-02-2024 22:00:00,15.888653,74.541751,NH3,33,34,33
India,Karnataka,Bengaluru,"BTM Layout, Bengaluru - CPCB",14-02-2024 22:00:00,12.9135218,77.5950804,PM10,32,71,52
India,Karnataka,Bengaluru,"Bapuji Nagar, Bengaluru - KSPCB",14-02-2024 22:00:00,12.951913,77.539784,PM10,66,111,83
India,Karnataka,Bengaluru,"Bapuji Nagar, Bengaluru - KSPCB",14-02-2024 22:00:00,12.951913,77.539784,OZONE,10,11,11
India,Karnataka,Bengaluru,"City Railway Station, Bengaluru - KSPCB",14-02-2024 22:00:00,12.9756843,77.5660749,NO2,NA,NA,NA
India,Karnataka,Bengaluru,"Hebbal, Bengaluru - KSPCB",14-02-2024 22:00:00,13.029152,77.585901,PM10,50,108,77
India,Karnataka,Bengaluru,"Hebbal, Bengaluru - KSPCB",14-02-2024 22:00:00,13.029152,77.585901,SO2,12,20,16
India,Karnataka,Bengaluru,"Hebbal, Bengaluru - KSPCB",14-02-2024 22:00:00,13.029152,77.585901,CO,6,32,19
India,Karnataka,Bengaluru,"Jayanagar 5th Block, Bengaluru - KSPCB",14-02-2024 22:00:00,12.920984,77.584908,PM10,NA,NA,NA
India,Karnataka,Bengaluru,"Jayanagar 5th Block, Bengaluru - KSPCB",14-02-2024 22:00:00,12.920984,77.584908,NO2,NA,NA,NA
India,Karnataka,Bengaluru,"Jayanagar 5th Block, Bengaluru - KSPCB",14-02-2024 22:00:00,12.920984,77.584908,SO2,NA,NA,NA
India,Karnataka,Bengaluru,"Jigani, Bengaluru - KSPCB",14-02-2024 22:00:00,12.7816279,77.6299145,OZONE,22,59,44
India,Karnataka,Bengaluru,"Kasturi Nagar, Bengaluru - KSPCB",14-02-2024 22:00:00,13.003872,77.664217,NH3,4,4,4
India,Karnataka,Bengaluru,"Kasturi Nagar, Bengaluru - KSPCB",14-02-2024 22:00:00,13.003872,77.664217,CO,21,26,24
India,Karnataka,Bengaluru,"Peenya, Bengaluru - CPCB",14-02-2024 22:00:00,13.0270199,77.494094,NH3,3,3,3
India,Karnataka,Bengaluru,"Peenya, Bengaluru - CPCB",14-02-2024 22:00:00,13.0270199,77.494094,SO2,11,19,16
India,Karnataka,Bengaluru,"Shivapura_Peenya, Bengaluru - KSPCB",14-02-2024 22:00:00,13.0246342,77.5080115,PM10,44,101,72
India,Karnataka,Bengaluru,"Silk Board, Bengaluru - KSPCB",14-02-2024 22:00:00,12.917348,77.622813,PM2.5,25,62,46
India,Karnataka,Bengaluru,"Silk Board, Bengaluru - KSPCB",14-02-2024 22:00:00,12.917348,77.622813,CO,31,42,39
India,Karnataka,Bengaluru,"Silk Board, Bengaluru - KSPCB",14-02-2024 22:00:00,12.917348,77.622813,OZONE,29,31,30
India,Karnataka,Bidar,"Naubad, Bidar - KSPCB",14-02-2024 22:00:00,17.930306,77.482194,PM2.5,27,82,48
India,Karnataka,Chamarajanagar,"Urban, Chamarajanagar - KSPCB",14-02-2024 22:00:00,11.55358,76.55521,OZONE,18,45,30
India,Karnataka,Chikkaballapur,"Chikkaballapur Rural, Chikkaballapur - KSPCB",14-02-2024 22:00:00,13.428828,77.731418,PM2.5,32,78,56
India,Karnataka,Chikkamagaluru,"Kalyana Nagara, Chikkamagaluru - KSPCB",14-02-2024 22:00:00,13.328028,75.797056,PM10,20,102,51
India,Karnataka,Davanagere,"Devaraj Urs Badavane, Davanagere - KSPCB",14-02-2024 22:00:00,14.475800,75.905200,NO2,10,14,12
India,Karnataka,Davanagere,"Devaraj Urs Badavane, Davanagere - KSPCB",14-02-2024 22:00:00,14.475800,75.905200,SO2,2,5,4
India,Karnataka,Dharwad,"Kalabhavan, Dharwad - KSPCB",14-02-2024 22:00:00,15.459706,75.008381,PM2.5,47,85,66
India,Karnataka,Dharwad,"Kalabhavan, Dharwad - KSPCB",14-02-2024 22:00:00,15.459706,75.008381,SO2,2,10,5
India,Karnataka,Hassan,"B.Katihalli, Hassan - KSPCB",14-02-2024 22:00:00,13.008556,76.125258,NH3,1,2,2
India,Karnataka,Hassan,"B.Katihalli, Hassan - KSPCB",14-02-2024 22:00:00,13.008556,76.125258,OZONE,5,31,10
India,Karnataka,Haveri,"Ashwini Nagar, Haveri - KSPCB",14-02-2024 22:00:00,14.791800,75.389600,NO2,21,41,32
India,Karnataka,Hubballi,"Lingaraj Nagar, Hubballi - KSPCB",14-02-2024 22:00:00,15.3714823,75.1160168,NO2,7,16,15
India,Karnataka,Hubballi,"Lingaraj Nagar, Hubballi - KSPCB",14-02-2024 22:00:00,15.3714823,75.1160168,NH3,2,2,2
India,Karnataka,Kalaburagi,"Mahatma Basaveswar Colony, Kalaburgi - KSPCB",14-02-2024 22:00:00,17.336318,76.847397,SO2,4,18,8
India,Karnataka,Madikeri,"Stuart Hill, Madikeri - KSPCB",14-02-2024 22:00:00,12.415911,75.735050,PM2.5,19,58,37
India,Karnataka,Madikeri,"Stuart Hill, Madikeri - KSPCB",14-02-2024 22:00:00,12.415911,75.735050,OZONE,29,42,37
India,Karnataka,Raichur,"Haji Colony, Raichur - KSPCB",14-02-2024 22:00:00,16.208139,77.348417,PM2.5,NA,NA,NA
India,Karnataka,Raichur,"Haji Colony, Raichur - KSPCB",14-02-2024 22:00:00,16.208139,77.348417,SO2,NA,NA,NA
India,Karnataka,Ramanagara,"Vijay Nagar, Ramanagara - KSPCB",14-02-2024 22:00:00,12.733409,77.298051,NO2,2,19,5
India,Karnataka,Shivamogga,"Vinoba Nagara, Shivamogga - KSPCB",14-02-2024 22:00:00,13.940000,75.555917,PM10,54,71,64
India,Karnataka,Tumakuru,"Thimmalapura, Tumakuru - KSPCB",14-02-2024 22:00:00,13.377516,77.099072,PM2.5,15,26,19
India,Karnataka,Vijayapura,"Ibrahimpur, Vijayapura - KSPCB",14-02-2024 22:00:00,16.802639,75.722694,NH3,2,2,2
India,Karnataka,Yadgir,"Collector Office, Yadgir - KSPCB",14-02-2024 22:00:00,16.7602,77.1428,NH3,1,1,1
India,Karnataka,Yadgir,"Collector Office, Yadgir - KSPCB",14-02-2024 22:00:00,16.7602,77.1428,OZONE,18,19,18
India,Kerala,Eloor,"Udyogamandal, Eloor - Kerala PCB",14-02-2024 22:00:00,10.073232,76.302765,SO2,1,2,2
India,Kerala,Eloor,"Udyogamandal, Eloor - Kerala PCB",14-02-2024 22:00:00,10.073232,76.302765,OZONE,10,16,14
India,Kerala,Kannur,"Thavakkara, Kannur - Kerala PCB",14-02-2024 22:00:00,11.875000,75.373200,PM2.5,44,50,47
India,Kerala,Kannur,"Thavakkara, Kannur - Kerala PCB",14-02-2024 22:00:00,11.875000,75.373200,NH3,1,1,1
India,Kerala,Kannur,"Thavakkara, Kannur - Kerala PCB",14-02-2024 22:00:00,11.875000,75.373200,CO,30,34,32
India,Kerala,Kochi,"Vyttila, Kochi - Kerala PCB",14-02-2024 22:00:00,9.969447,76.321186,NH3,3,4,3
India,Kerala,Thiruvananthapuram,"Plammoodu, Thiruvananthapuram - Kerala PCB",14-02-2024 22:00:00,8.5149093,76.9435879,NO2,10,12,11
India,Kerala,Thrissur,"Corporation Ground, Thrissur - Kerala PCB",14-02-2024 22:00:00,10.532400,76.215900,PM10,54,64,59
India,Kerala,Thrissur,"Corporation Ground, Thrissur - Kerala PCB",14-02-2024 22:00:00,10.532400,76.215900,NH3,1,1,1
India,Madhya Pradesh,Bhopal,"Idgah Hills, Bhopal - MPPCB",14-02-2024 22:00:00,23.264759,77.381568,PM2.5,90,305,217
India,Madhya Pradesh,Bhopal,"Idgah Hills, Bhopal - MPPCB",14-02-2024 22:00:00,23.264759,77.381568,PM10,104,213,152
India,Madhya Pradesh,Bhopal,"Idgah Hills, Bhopal - MPPCB",14-02-2024 22:00:00,23.264759,77.381568,NO2,12,38,22
India,Madhya Pradesh,Bhopal,"Idgah Hills, Bhopal - MPPCB",14-02-2024 22:00:00,23.264759,77.381568,NH3,3,3,3
India,Madhya Pradesh,Bhopal,"Idgah Hills, Bhopal - MPPCB",14-02-2024 22:00:00,23.264759,77.381568,OZONE,34,118,95
India,Madhya Pradesh,Bhopal,"Paryavaran Parisar, Bhopal - MPPCB",14-02-2024 22:00:00,23.210494,77.425409,PM2.5,120,338,218
India,Madhya Pradesh,Bhopal,"T T Nagar, Bhopal - MPPCB",14-02-2024 22:00:00,23.233584,77.400574,PM10,119,186,145
India,Madhya Pradesh,Bhopal,"T T Nagar, Bhopal - MPPCB",14-02-2024 22:00:00,23.233584,77.400574,NH3,2,6,5
India,Madhya Pradesh,Bhopal,"T T Nagar, Bhopal - MPPCB",14-02-2024 22:00:00,23.233584,77.400574,CO,30,104,55
India,Madhya Pradesh,Dewas,"Bhopal Chauraha, Dewas - MPPCB",14-02-2024 22:00:00,22.9682591,76.064118,NO2,11,13,12
India,Madhya Pradesh,Gwalior,"City Center, Gwalior - MPPCB",14-02-2024 22:00:00,26.203442,78.193251,PM2.5,94,369,215
India,Madhya Pradesh,Gwalior,"City Center, Gwalior - MPPCB",14-02-2024 22:00:00,26.203442,78.193251,PM10,135,226,167
India,Madhya Pradesh,Gwalior,"Deen Dayal Nagar, Gwalior - MPPCB",14-02-2024 22:00:00,26.259242,78.216432,SO2,17,23,18
India,Madhya Pradesh,Gwalior,"Deen Dayal Nagar, Gwalior - MPPCB",14-02-2024 22:00:00,26.259242,78.216432,OZONE,33,210,164
India,Madhya Pradesh,Gwalior,"Maharaj Bada, Gwalior - MPPCB",14-02-2024 22:00:00,26.200388,78.147714,PM2.5,99,322,183
India,Madhya Pradesh,Gwalior,"Maharaj Bada, Gwalior - MPPCB",14-02-2024 22:00:00,26.200388,78.147714,CO,1,110,66
India,Madhya Pradesh,Indore,"Chhoti Gwaltoli, Indore - MPPCB",14-02-2024 22:00:00,22.4310,75.5213,NH3,3,6,5
India,Madhya Pradesh,Indore,"Chhoti Gwaltoli, Indore - MPPCB",14-02-2024 22:00:00,22.4310,75.5213,SO2,15,39,23
India,Madhya Pradesh,Indore,"Regional Park, Indore - IMC",14-02-2024 22:00:00,22.6780,75.8559,PM2.5,NA,NA,NA
