country,state,city,station,last_update,latitude,longitude,pollutant_id,pollutant_min,pollutant_max,pollutant_avg
India,Andhra_Pradesh,Amaravati,"Secretariat, Amaravati - APPCB",23-05-2024 09:00:00,16.5150833,80.5181667,NO2,4,11,7
India,Andhra_Pradesh,Amaravati,"Secretariat, Amaravati - APPCB",23-05-2024 09:00:00,16.5150833,80.5181667,SO2,10,14,12
India,Andhra_Pradesh,Kadapa,"Yerramukkapalli, Kadapa - APPCB",23-05-2024 09:00:00,14.465052,78.824187,PM10,NA,NA,NA
India,Andhra_Pradesh,Rajamahendravaram,"Anand Kala Kshetram, Rajamahendravaram - APPCB",23-05-2024 09:00:00,16.9872867,81.7363176,NO2,14,29,19
India,Andhra_Pradesh,Rajamahendravaram,"Anand Kala Kshetram, Rajamahendravaram - APPCB",23-05-2024 09:00:00,16.9872867,81.7363176,OZONE,17,45,22
India,Andhra_Pradesh,Tirupati,"Vaikuntapuram, Tirupati - APPCB",23-05-2024 09:00:00,13.615387,79.409230,CO,9,14,11
India,Andhra_Pradesh,Vijayawada,"HB Colony, Vijayawada - APPCB",23-05-2024 09:00:00,16.536107,80.594233,NO2,11,20,15
India,Andhra_Pradesh,Vijayawada,"HB Colony, Vijayawada - APPCB",23-05-2024 09:00:00,16.536107,80.594233,SO2,6,10,8
India,Andhra_Pradesh,Vijayawada,"HB Colony, Vijayawada - APPCB",23-05-2024 09:00:00,16.536107,80.594233,CO,34,36,36
India,Andhra_Pradesh,Vijayawada,"Rajiv Gandhi Park, Vijayawada - APPCB",23-05-2024 09:00:00,16.509717,80.612222,NO2,24,48,36
India,Andhra_Pradesh,Vijayawada,"Rajiv Nagar, Vijayawada - APPCB",23-05-2024 09:00:00,16.554731,80.649110,NO2,12,13,12
India,Arunachal_Pradesh,Naharlagun,"Naharlagun, Naharlagun - APSPCB",23-05-2024 09:00:00,27.103358,93.679645,PM2.5,8,61,35
India,Assam,Byrnihat,"Central Academy for SFS, Byrnihat - PCBA",23-05-2024 09:00:00,26.071318,91.87488,SO2,8,49,24
India,Assam,Byrnihat,"Central Academy for SFS, Byrnihat - PCBA",23-05-2024 09:00:00,26.071318,91.87488,CO,15,40,19
India,Assam,Guwahati,"IITG, Guwahati - PCBA",23-05-2024 09:00:00,26.2028636,91.70046436,NO2,1,12,4
India,Assam,Guwahati,"IITG, Guwahati - PCBA",23-05-2024 09:00:00,26.2028636,91.70046436,SO2,13,14,13
India,Assam,Guwahati,"LGBI Airport, Guwahati - PCBA",23-05-2024 09:00:00,26.10887,91.589544,NO2,NA,NA,NA
India,Assam,Guwahati,"LGBI Airport, Guwahati - PCBA",23-05-2024 09:00:00,26.10887,91.589544,SO2,NA,NA,NA
India,Assam,Guwahati,"Pan Bazaar, Guwahati - PCBA",23-05-2024 09:00:00,26.187500,91.744194,NO2,1,5,3
India,Assam,Guwahati,"Pan Bazaar, Guwahati - PCBA",23-05-2024 09:00:00,26.187500,91.744194,NH3,2,5,1
India,Assam,Nagaon,"Christianpatty, Nagaon - PCBA",23-05-2024 09:00:00,26.349082,92.68449,PM10,67,101,83
India,Assam,Nalbari,"Bata Chowk, Nalbari - PCBA",23-05-2024 09:00:00,26.446912,91.439057,SO2,6,12,11
India,Assam,Sivasagar,"Girls College, Sivasagar - PCBA",23-05-2024 09:00:00,26.987634,94.636574,NO2,8,28,13
India,Assam,Sivasagar,"Girls College, Sivasagar - PCBA",23-05-2024 09:00:00,26.987634,94.636574,OZONE,1,18,2
India,Bihar,Araria,"Kharahiya Basti, Araria - BSPCB",23-05-2024 09:00:00,26.146529,87.454184,PM2.5,NA,NA,NA
India,Bihar,Araria,"Kharahiya Basti, Araria - BSPCB",23-05-2024 09:00:00,26.146529,87.454184,PM10,NA,NA,NA
India,Bihar,Araria,"Kharahiya Basti, Araria - BSPCB",23-05-2024 09:00:00,26.146529,87.454184,OZONE,9,10,9
India,Bihar,Aurangabad,"Gurdeo Nagar, Aurangabad - BSPCB",23-05-2024 09:00:00,24.75746,84.366208,OZONE,34,121,45
India,Bihar,Bhagalpur,"DM Office_Kachari Chowk, Bhagalpur - BSPCB",23-05-2024 09:00:00,25.251013,86.989001,NH3,2,6,4
India,Bihar,Bhagalpur,"DM Office_Kachari Chowk, Bhagalpur - BSPCB",23-05-2024 09:00:00,25.251013,86.989001,SO2,41,59,50
India,Bihar,Bhagalpur,"DM Office_Kachari Chowk, Bhagalpur - BSPCB",23-05-2024 09:00:00,25.251013,86.989001,OZONE,42,61,47
India,Bihar,Bihar Sharif,"D M Colony, Bihar Sharif - BSPCB",23-05-2024 09:00:00,25.204762,85.514960,PM10,NA,NA,NA
India,Bihar,Bihar Sharif,"D M Colony, Bihar Sharif - BSPCB",23-05-2024 09:00:00,25.204762,85.514960,CO,48,60,58
India,Bihar,Buxar,"Charitra Van, Buxar - BSPCB (Formerly known as Central Jail)",23-05-2024 09:00:00,25.567520,83.966379,PM2.5,NA,NA,NA
India,Bihar,Buxar,"Charitra Van, Buxar - BSPCB (Formerly known as Central Jail)",23-05-2024 09:00:00,25.567520,83.966379,PM10,NA,NA,NA
India,Bihar,Buxar,"Charitra Van, Buxar - BSPCB (Formerly known as Central Jail)",23-05-2024 09:00:00,25.567520,83.966379,OZONE,5,171,53
India,Bihar,Gaya,"Kareemganj, Gaya - BSPCB",23-05-2024 09:00:00,24.792403,84.992416,NH3,1,6,3
India,Bihar,Gaya,"SFTI Kusdihra, Gaya - BSPCB",23-05-2024 09:00:00,24.762518,84.982348,PM10,45,108,61
India,Bihar,Gaya,"SFTI Kusdihra, Gaya - BSPCB",23-05-2024 09:00:00,24.762518,84.982348,NH3,3,6,4
India,Bihar,Gaya,"SFTI Kusdihra, Gaya - BSPCB",23-05-2024 09:00:00,24.762518,84.982348,SO2,7,12,8
India,Bihar,Hajipur,"Industrial Area, Hajipur - BSPCB",23-05-2024 09:00:00,25.697189,85.245900,NO2,24,45,32
India,Bihar,Hajipur,"Industrial Area, Hajipur - BSPCB",23-05-2024 09:00:00,25.697189,85.245900,NH3,11,18,15
India,Bihar,Hajipur,"Industrial Area, Hajipur - BSPCB",23-05-2024 09:00:00,25.697189,85.245900,CO,20,28,23
India,Bihar,Katihar,"Mirchaibari, Katihar - BSPCB",23-05-2024 09:00:00,25.560083,87.553265,NH3,1,10,2
India,Bihar,Katihar,"Mirchaibari, Katihar - BSPCB",23-05-2024 09:00:00,25.560083,87.553265,SO2,2,19,8
India,Bihar,Kishanganj,"SDM Office_Khagra, Kishanganj - BSPCB",23-05-2024 09:00:00,26.0881305,87.93840336,CO,7,8,7
India,Bihar,Kishanganj,"SDM Office_Khagra, Kishanganj - BSPCB",23-05-2024 09:00:00,26.0881305,87.93840336,OZONE,11,53,46
India,Bihar,Manguraha,"Forest Rest House, Manguraha - BSPCB",23-05-2024 09:00:00,27.308328,84.531742,SO2,2,2,2
India,Bihar,Manguraha,"Forest Rest House, Manguraha - BSPCB",23-05-2024 09:00:00,27.308328,84.531742,CO,22,32,30
India,Bihar,Manguraha,"Forest Rest House, Manguraha - BSPCB",23-05-2024 09:00:00,27.308328,84.531742,OZONE,4,59,6
India,Bihar,Motihari,"Gandak Colony, Motihari - BSPCB",23-05-2024 09:00:00,26.63086,84.90051,NO2,19,57,44
India,Bihar,Motihari,"Gandak Colony, Motihari - BSPCB",23-05-2024 09:00:00,26.63086,84.90051,CO,2,30,6
India,Bihar,Muzaffarpur,"Buddha Colony, Muzaffarpur - BSPCB",23-05-2024 09:00:00,26.11442,85.39813,NH3,5,10,8
India,Bihar,Muzaffarpur,"Buddha Colony, Muzaffarpur - BSPCB",23-05-2024 09:00:00,26.11442,85.39813,CO,10,60,12
India,Bihar,Muzaffarpur,"Muzaffarpur Collectorate, Muzaffarpur - BSPCB",23-05-2024 09:00:00,26.1209,85.3647,PM2.5,17,77,40
India,Bihar,Muzaffarpur,"Muzaffarpur Collectorate, Muzaffarpur - BSPCB",23-05-2024 09:00:00,26.1209,85.3647,CO,34,70,34
India,Bihar,Patna,"DRM Office Danapur, Patna - BSPCB",23-05-2024 09:00:00,25.586562,85.043586,NH3,2,3,3
India,Bihar,Patna,"Govt. High School Shikarpur, Patna - BSPCB",23-05-2024 09:00:00,25.592539,85.227158,NO2,NA,NA,NA
India,Bihar,Patna,"Govt. High School Shikarpur, Patna - BSPCB",23-05-2024 09:00:00,25.592539,85.227158,NH3,NA,NA,NA
India,Bihar,Patna,"Govt. High School Shikarpur, Patna - BSPCB",23-05-2024 09:00:00,25.592539,85.227158,SO2,NA,NA,NA
India,Bihar,Patna,"IGSC Planetarium Complex, Patna - BSPCB",23-05-2024 09:00:00,25.610369,85.132568,CO,10,14,12
India,Bihar,Patna,"Muradpur, Patna - BSPCB",23-05-2024 09:00:00,25.619651,85.147382,CO,10,62,37
India,Bihar,Patna,"Samanpura, Patna - BSPCB",23-05-2024 09:00:00,25.596727,85.085624,PM2.5,37,80,61
India,Bihar,Patna,"Samanpura, Patna - BSPCB",23-05-2024 09:00:00,25.596727,85.085624,SO2,3,23,5
India,Bihar,Purnia,"Mariam Nagar, Purnia - BSPCB",23-05-2024 09:00:00,25.366336,87.117468,PM2.5,NA,NA,NA
India,Bihar,Rajgir,"Dangi Tola, Rajgir - BSPCB",23-05-2024 09:00:00,25.03280,85.41948,NH3,NA,NA,NA
India,Bihar,Rajgir,"Dangi Tola, Rajgir - BSPCB",23-05-2024 09:00:00,25.03280,85.41948,SO2,NA,NA,NA
India,Bihar,Rajgir,"Dangi Tola, Rajgir - BSPCB",23-05-2024 09:00:00,25.03280,85.41948,OZONE,27,44,35
India,Bihar,Saharsa,"Police Line, Saharsa - BSPCB",23-05-2024 09:00:00,25.892357,86.590325,PM10,9,58,26
India,Bihar,Sasaram,"Dada Peer, Sasaram - BSPCB",23-05-2024 09:00:00,24.952822,84.002396,PM10,25,69,42
India,Bihar,Sasaram,"Dada Peer, Sasaram - BSPCB",23-05-2024 09:00:00,24.952822,84.002396,NH3,2,14,10
India,Bihar,Siwan,"Chitragupta Nagar, Siwan - BSPCB",23-05-2024 09:00:00,26.2271665,84.3570427,PM2.5,NA,NA,NA
India,Bihar,Siwan,"Chitragupta Nagar, Siwan - BSPCB",23-05-2024 09:00:00,26.2271665,84.3570427,NH3,1,2,1
India,Bihar,Siwan,"Chitragupta Nagar, Siwan - BSPCB",23-05-2024 09:00:00,26.2271665,84.3570427,OZONE,34,76,44
India,Chandigarh,Chandigarh,"Sector 22, Chandigarh - CPCC",23-05-2024 09:00:00,30.735567,76.775714,SO2,4,31,12
India,Chandigarh,Chandigarh,"Sector 22, Chandigarh - CPCC",23-05-2024 09:00:00,30.735567,76.775714,OZONE,37,243,106
India,Chandigarh,Chandigarh,"Sector-25, Chandigarh - CPCC",23-05-2024 09:00:00,30.751462,76.762879,PM2.5,96,195,135
India,Chandigarh,Chandigarh,"Sector-53, Chandigarh - CPCC",23-05-2024 09:00:00,30.719859,76.738637,PM2.5,63,173,94
India,Chhattisgarh,Bhilai,"32Bungalows, Bhilai - CECB",23-05-2024 09:00:00,21.194815,81.314770,PM2.5,14,53,43
India,Chhattisgarh,Bhilai,"32Bungalows, Bhilai - CECB",23-05-2024 09:00:00,21.194815,81.314770,PM10,24,119,69
India,Chhattisgarh,Bhilai,"32Bungalows, Bhilai - CECB",23-05-2024 09:00:00,21.194815,81.314770,OZONE,5,56,8
India,Chhattisgarh,Bhilai,"Civic Center, Bhilai - Bhilai Steel Plant",23-05-2024 09:00:00,21.185571,81.343175,PM2.5,10,76,33
India,Chhattisgarh,Bhilai,"Civic Center, Bhilai - Bhilai Steel Plant",23-05-2024 09:00:00,21.185571,81.343175,PM10,32,62,43
India,Chhattisgarh,Bhilai,"Civic Center, Bhilai - Bhilai Steel Plant",23-05-2024 09:00:00,21.185571,81.343175,NH3,3,6,4
India,Chhattisgarh,Bhilai,"Hathkhoj, Bhilai - CECB",23-05-2024 09:00:00,21.224231,81.408350,NO2,NA,NA,NA
India,Chhattisgarh,Bhilai,"Hathkhoj, Bhilai - CECB",23-05-2024 09:00:00,21.224231,81.408350,SO2,NA,NA,NA
India,Chhattisgarh,Bilaspur,"Mangala, Bilaspur - NTPC",23-05-2024 09:00:00,22.08815,82.13737,PM2.5,36,69,49
India,Chhattisgarh,Bilaspur,"Mangala, Bilaspur - NTPC",23-05-2024 09:00:00,22.08815,82.13737,NO2,18,22,20
India,Chhattisgarh,Chhal,"Nawapara SECL Colony, Chhal - CECB",23-05-2024 09:00:00,22.118125,83.140608,CO,NA,NA,NA
India,Chhattisgarh,Korba,"Rampur, Korba - CECB",23-05-2024 09:00:00,22.368195,82.746431,SO2,1,12,9
India,Chhattisgarh,Korba,"Rampur, Korba - CECB",23-05-2024 09:00:00,22.368195,82.746431,CO,20,26,23
India,Chhattisgarh,Korba,"Urja Nagar, Korba - CECB",23-05-2024 09:00:00,22.348441,82.549611,PM2.5,NA,NA,NA
India,Chhattisgarh,Korba,"Urja Nagar, Korba - CECB",23-05-2024 09:00:00,22.348441,82.549611,NO2,36,74,57
India,Chhattisgarh,Kunjemura,"OP Jindal School, Kunjemura - CECB",23-05-2024 09:00:00,22.126650,83.483212,SO2,NA,NA,NA
India,Chhattisgarh,Raipur,"AIIMS, Raipur - CECB",23-05-2024 09:00:00,21.258815,81.578979,PM10,67,128,106
India,Chhattisgarh,Raipur,"Bhatagaon New ISBT, Raipur - CECB",23-05-2024 09:00:00,21.219665,81.630094,PM10,35,126,65
India,Chhattisgarh,Raipur,"Bhatagaon New ISBT, Raipur - CECB",23-05-2024 09:00:00,21.219665,81.630094,NH3,2,2,2
India,Chhattisgarh,Raipur,"Bhatagaon New ISBT, Raipur - CECB",23-05-2024 09:00:00,21.219665,81.630094,SO2,1,3,2
India,Chhattisgarh,Raipur,"Bhatagaon New ISBT, Raipur - CECB",23-05-2024 09:00:00,21.219665,81.630094,CO,18,46,33
India,Chhattisgarh,Raipur,"Krishak Nagar, Raipur - CECB",23-05-2024 09:00:00,21.237755,81.705301,NO2,NA,NA,NA
India,Chhattisgarh,Raipur,"Krishak Nagar, Raipur - CECB",23-05-2024 09:00:00,21.237755,81.705301,NH3,NA,NA,NA
India,Chhattisgarh,Raipur,"Siltara Phase-II, Raipur - CECB",23-05-2024 09:00:00,21.371751,81.664929,PM10,NA,NA,NA
India,Chhattisgarh,Raipur,"Siltara Phase-II, Raipur - CECB",23-05-2024 09:00:00,21.371751,81.664929,NH3,NA,NA,NA
India,Chhattisgarh,Raipur,"Siltara Phase-II, Raipur - CECB",23-05-2024 09:00:00,21.371751,81.664929,OZONE,NA,NA,NA
India,Delhi,Delhi,"Alipur, Delhi - DPCC",23-05-2024 09:00:00,28.815329,77.153010,OZONE,44,272,58
India,Delhi,Delhi,"Anand Vihar, Delhi - DPCC",23-05-2024 09:00:00,28.647622,77.3158090,NO2,15,81,34
India,Delhi,Delhi,"Bawana, Delhi - DPCC",23-05-2024 09:00:00,28.776200,77.051074,CO,45,72,48
India,Delhi,Delhi,"Bawana, Delhi - DPCC",23-05-2024 09:00:00,28.776200,77.051074,OZONE,20,176,35
India,Delhi,Delhi,"CRRI Mathura Road, Delhi - IMD",23-05-2024 09:00:00,28.5512005,77.2735737,PM10,74,179,140
India,Delhi,Delhi,"CRRI Mathura Road, Delhi - IMD",23-05-2024 09:00:00,28.5512005,77.2735737,CO,5,16,8
India,Delhi,Delhi,"Dr. Karni Singh Shooting Range, Delhi - DPCC",23-05-2024 09:00:00,28.498571,77.264840,PM10,78,191,147
India,Delhi,Delhi,"Dr. Karni Singh Shooting Range, Delhi - DPCC",23-05-2024 09:00:00,28.498571,77.264840,NH3,9,19,14
India,Delhi,Delhi,"Dwarka-Sector 8, Delhi - DPCC ",23-05-2024 09:00:00,28.5710274,77.0719006,PM2.5,50,147,95
India,Delhi,Delhi,"Dwarka-Sector 8, Delhi - DPCC ",23-05-2024 09:00:00,28.5710274,77.0719006,PM10,86,206,159
India,Delhi,Delhi,"Dwarka-Sector 8, Delhi - DPCC ",23-05-2024 09:00:00,28.5710274,77.0719006,NO2,13,66,31
India,Delhi,Delhi,"ITO, Delhi - CPCB",23-05-2024 09:00:00,28.628624,77.241060,PM10,66,125,99
India,Delhi,Delhi,"ITO, Delhi - CPCB",23-05-2024 09:00:00,28.628624,77.241060,OZONE,7,66,20
India,Delhi,Delhi,"Jawaharlal Nehru Stadium, Delhi - DPCC",23-05-2024 09:00:00,28.580280,77.233829,NH3,9,14,12
India,Delhi,Delhi,"Jawaharlal Nehru Stadium, Delhi - DPCC",23-05-2024 09:00:00,28.580280,77.233829,OZONE,37,169,52
India,Delhi,Delhi,"Lodhi Road, Delhi - IITM",23-05-2024 09:00:00,28.588333,77.221667,NO2,8,27,16
India,Delhi,Delhi,"Lodhi Road, Delhi - IMD",23-05-2024 09:00:00,28.5918245,77.2273074,OZONE,13,53,16
India,Delhi,Delhi,"Major Dhyan Chand National Stadium, Delhi - DPCC",23-05-2024 09:00:00,28.611281,77.237738,PM10,89,186,143
India,Delhi,Delhi,"Mundka, Delhi - DPCC",23-05-2024 09:00:00,28.684678,77.076574,PM10,108,213,166
India,Delhi,Delhi,"Mundka, Delhi - DPCC",23-05-2024 09:00:00,28.684678,77.076574,NH3,7,21,13
India,Delhi,Delhi,"Mundka, Delhi - DPCC",23-05-2024 09:00:00,28.684678,77.076574,SO2,6,19,9
India,Delhi,Delhi,"Mundka, Delhi - DPCC",23-05-2024 09:00:00,28.684678,77.076574,CO,44,68,48
India,Delhi,Delhi,"Najafgarh, Delhi - DPCC",23-05-2024 09:00:00,28.570173,76.933762,PM2.5,45,97,77
India,Delhi,Delhi,"Najafgarh, Delhi - DPCC",23-05-2024 09:00:00,28.570173,76.933762,NH3,8,13,10
India,Delhi,Delhi,"Narela, Delhi - DPCC",23-05-2024 09:00:00,28.822836,77.101981,NO2,19,60,37
India,Delhi,Delhi,"Nehru Nagar, Delhi - DPCC",23-05-2024 09:00:00,28.567890,77.250515,NO2,15,32,22
India,Delhi,Delhi,"Nehru Nagar, Delhi - DPCC",23-05-2024 09:00:00,28.567890,77.250515,SO2,2,9,7
India,Delhi,Delhi,"Okhla Phase-2, Delhi - DPCC",23-05-2024 09:00:00,28.530785,77.271255,CO,47,79,60
India,Delhi,Delhi,"Patparganj, Delhi - DPCC",23-05-2024 09:00:00,28.623763,77.287209,SO2,3,7,5
India,Delhi,Delhi,"Punjabi Bagh, Delhi - DPCC",23-05-2024 09:00:00,28.674045,77.131023,NH3,6,12,8
India,Delhi,Delhi,"R K Puram, Delhi - DPCC",23-05-2024 09:00:00,28.563262,77.186937,NO2,1,57,23
India,Delhi,Delhi,"Rohini, Delhi - DPCC",23-05-2024 09:00:00,28.732528,77.119920,CO,24,56,30
India,Delhi,Delhi,"Shadipur, Delhi - CPCB",23-05-2024 09:00:00,28.6514781,77.1473105,PM10,115,306,195
India,Delhi,Delhi,"Shadipur, Delhi - CPCB",23-05-2024 09:00:00,28.6514781,77.1473105,NO2,78,144,106
India,Delhi,Delhi,"Shadipur, Delhi - CPCB",23-05-2024 09:00:00,28.6514781,77.1473105,CO,48,109,81
India,Delhi,Delhi,"Sirifort, Delhi - CPCB",23-05-2024 09:00:00,28.5504249,77.2159377,PM10,81,171,138
India,Delhi,Delhi,"Sirifort, Delhi - CPCB",23-05-2024 09:00:00,28.5504249,77.2159377,SO2,22,25,23
India,Delhi,Delhi,"Sirifort, Delhi - CPCB",23-05-2024 09:00:00,28.5504249,77.2159377,CO,17,36,21
India,Delhi,Delhi,"Sonia Vihar, Delhi - DPCC",23-05-2024 09:00:00,28.710508,77.249485,PM2.5,58,167,100
India,Delhi,Delhi,"Sonia Vihar, Delhi - DPCC",23-05-2024 09:00:00,28.710508,77.249485,NO2,21,75,37
India,Delhi,Delhi,"Sonia Vihar, Delhi - DPCC",23-05-2024 09:00:00,28.710508,77.249485,NH3,8,17,12
India,Delhi,Delhi,"Sri Aurobindo Marg, Delhi - DPCC",23-05-2024 09:00:00,28.531346,77.190156,NO2,24,317,157
India,Delhi,Delhi,"Sri Aurobindo Marg, Delhi - DPCC",23-05-2024 09:00:00,28.531346,77.190156,SO2,7,31,16
India,Delhi,Delhi,"Vivek Vihar, Delhi - DPCC",23-05-2024 09:00:00,28.672342,77.315260,PM2.5,65,167,99
India,Delhi,Delhi,"Vivek Vihar, Delhi - DPCC",23-05-2024 09:00:00,28.672342,77.315260,PM10,102,221,159
India,Delhi,Delhi,"Vivek Vihar, Delhi - DPCC",23-05-2024 09:00:00,28.672342,77.315260,SO2,31,95,41
India,Delhi,Delhi,"Wazirpur, Delhi - DPCC",23-05-2024 09:00:00,28.699793,77.165453,NO2,28,48,34
India,Delhi,Delhi,"Wazirpur, Delhi - DPCC",23-05-2024 09:00:00,28.699793,77.165453,SO2,11,26,18
India,Gujarat,Ahmedabad,"SVPI Airport Hansol, Ahmedabad - IITM",23-05-2024 09:00:00,23.076793,72.627874,PM2.5,91,266,173
India,Gujarat,Ahmedabad,"Sardar Vallabhbhai Patel Stadium, Ahmedabad - IITM",23-05-2024 09:00:00,23.043070,72.562968,PM10,NA,NA,NA
India,Gujarat,Ankleshwar,"GIDC, Ankleshwar - GPCB",23-05-2024 09:00:00,21.613267,73.010555,PM10,74,117,96
India,Gujarat,Ankleshwar,"GIDC, Ankleshwar - GPCB",23-05-2024 09:00:00,21.613267,73.010555,NO2,17,51,28
India,Gujarat,Ankleshwar,"GIDC, Ankleshwar - GPCB",23-05-2024 09:00:00,21.613267,73.010555,CO,56,96,78
India,Gujarat,Vatva,"Phase-4 GIDC, Vatva - GPCB",23-05-2024 09:00:00,22.969611,72.643500,PM10,57,181,88
India,Gujarat,Vatva,"Phase-4 GIDC, Vatva - GPCB",23-05-2024 09:00:00,22.969611,72.643500,NH3,2,11,6
India,Haryana,Ambala,"Patti Mehar, Ambala - HSPCB",23-05-2024 09:00:00,30.379589,76.778328,NO2,10,21,15
India,Haryana,Ambala,"Patti Mehar, Ambala - HSPCB",23-05-2024 09:00:00,30.379589,76.778328,SO2,NA,NA,NA
India,Haryana,Bahadurgarh,"Arya Nagar, Bahadurgarh - HSPCB",23-05-2024 09:00:00,28.6701,76.9254,PM10,96,171,145
India,Haryana,Ballabgarh,"Nathu Colony, Ballabgarh - HSPCB",23-05-2024 09:00:00,28.3419248,77.319699,NH3,1,2,2
India,Haryana,Ballabgarh,"Nathu Colony, Ballabgarh - HSPCB",23-05-2024 09:00:00,28.3419248,77.319699,CO,12,50,22
India,Haryana,Bhiwani,"H.B. Colony, Bhiwani - HSPCB",23-05-2024 09:00:00,28.806223,76.141105,PM2.5,94,213,141
India,Haryana,Bhiwani,"H.B. Colony, Bhiwani - HSPCB",23-05-2024 09:00:00,28.806223,76.141105,NH3,3,6,6
India,Haryana,Charkhi Dadri,"Mini Secretariat, Charkhi Dadri - HSPCB",23-05-2024 09:00:00,28.593883,76.270653,PM2.5,29,208,117
India,Haryana,Charkhi Dadri,"Mini Secretariat, Charkhi Dadri - HSPCB",23-05-2024 09:00:00,28.593883,76.270653,NH3,6,8,7
India,Haryana,Dharuhera,"Municipal Corporation Office, Dharuhera -  HSPCB",23-05-2024 09:00:00,28.206800,76.799700,PM2.5,53,219,107
India,Haryana,Dharuhera,"Municipal Corporation Office, Dharuhera -  HSPCB",23-05-2024 09:00:00,28.206800,76.799700,SO2,NA,NA,NA
India,Haryana,Faridabad,"New Industrial Town, Faridabad - HSPCB",23-05-2024 09:00:00,28.39072,77.30059,PM2.5,85,382,266
India,Haryana,Faridabad,"Sector 11, Faridabad - HSPCB",23-05-2024 09:00:00,28.376058,77.315741,PM2.5,43,228,128
India,Haryana,Faridabad,"Sector 11, Faridabad - HSPCB",23-05-2024 09:00:00,28.376058,77.315741,PM10,53,310,143
India,Haryana,Faridabad,"Sector 30, Faridabad - HSPCB",23-05-2024 09:00:00,28.4417,77.3217,PM10,NA,NA,NA
India,Haryana,Faridabad,"Sector 30, Faridabad - HSPCB",23-05-2024 09:00:00,28.4417,77.3217,NO2,NA,NA,NA
India,Haryana,Faridabad,"Sector 30, Faridabad - HSPCB",23-05-2024 09:00:00,28.4417,77.3217,NH3,NA,NA,NA
India,Haryana,Faridabad,"Sector- 16A, Faridabad - HSPCB",23-05-2024 09:00:00,28.4088421,77.3099081,SO2,18,30,24
India,Haryana,Fatehabad,"Huda Sector, Fatehabad - HSPCB",23-05-2024 09:00:00,29.503664,75.467934,PM10,109,154,127
India,Haryana,Fatehabad,"Huda Sector, Fatehabad - HSPCB",23-05-2024 09:00:00,29.503664,75.467934,NH3,9,11,10
India,Haryana,Gurugram,"NISE Gwal Pahari, Gurugram - IMD",23-05-2024 09:00:00,28.422681,77.148944,NO2,18,29,23
India,Haryana,Gurugram,"NISE Gwal Pahari, Gurugram - IMD",23-05-2024 09:00:00,28.422681,77.148944,CO,86,107,103
India,Haryana,Gurugram,"Sector-51, Gurugram - HSPCB",23-05-2024 09:00:00,28.4227,77.0667,SO2,2,9,3
India,Haryana,Gurugram,"Sector-51, Gurugram - HSPCB",23-05-2024 09:00:00,28.4227,77.0667,OZONE,23,54,25
India,Haryana,Gurugram,"Teri Gram, Gurugram - HSPCB",23-05-2024 09:00:00,28.4275,77.1465,OZONE,29,76,62
India,Haryana,Gurugram,"Vikas Sadan, Gurugram - HSPCB",23-05-2024 09:00:00,28.4501238,77.0263051,CO,54,149,98
India,Haryana,Hisar,"Urban Estate-II, Hisar - HSPCB",23-05-2024 09:00:00,29.140560,75.744941,NO2,23,29,25
India,Haryana,Hisar,"Urban Estate-II, Hisar - HSPCB",23-05-2024 09:00:00,29.140560,75.744941,SO2,4,57,37
India,Haryana,Hisar,"Urban Estate-II, Hisar - HSPCB",23-05-2024 09:00:00,29.140560,75.744941,OZONE,13,197,26
India,Haryana,Kaithal,"Rishi Nagar, Kaithal - HSPCB",23-05-2024 09:00:00,29.8006,76.4155,SO2,1,15,6
India,Haryana,Karnal,"Sector-12, Karnal - HSPCB",23-05-2024 09:00:00,29.695300,77.002700,PM10,65,116,97
India,Haryana,Karnal,"Sector-12, Karnal - HSPCB",23-05-2024 09:00:00,29.695300,77.002700,SO2,12,13,13
India,Haryana,Kurukshetra,"Sector-7, Kurukshetra - HSPCB",23-05-2024 09:00:00,29.966942,76.875879,PM2.5,52,111,86
India,Haryana,Kurukshetra,"Sector-7, Kurukshetra - HSPCB",23-05-2024 09:00:00,29.966942,76.875879,NO2,17,22,19
India,Haryana,Mandikhera,"General Hospital, Mandikhera - HSPCB",23-05-2024 09:00:00,27.9002,76.9938,PM2.5,NA,NA,NA
India,Haryana,Mandikhera,"General Hospital, Mandikhera - HSPCB",23-05-2024 09:00:00,27.9002,76.9938,PM10,NA,NA,NA
India,Haryana,Mandikhera,"General Hospital, Mandikhera - HSPCB",23-05-2024 09:00:00,27.9002,76.9938,OZONE,NA,NA,NA
India,Haryana,Narnaul,"Shastri Nagar, Narnaul - HSPCB",23-05-2024 09:00:00,28.060249,76.113115,PM2.5,65,128,88
India,Haryana,Narnaul,"Shastri Nagar, Narnaul - HSPCB",23-05-2024 09:00:00,28.060249,76.113115,NH3,5,27,15
India,Haryana,Narnaul,"Shastri Nagar, Narnaul - HSPCB",23-05-2024 09:00:00,28.060249,76.113115,OZONE,34,61,51
India,Haryana,Palwal,"Shyam Nagar, Palwal - HSPCB",23-05-2024 09:00:00,28.1485564,77.3320667,NO2,24,25,24
India,Haryana,Palwal,"Shyam Nagar, Palwal - HSPCB",23-05-2024 09:00:00,28.1485564,77.3320667,CO,22,32,27
India,Haryana,Panchkula,"Sector-6, Panchkula - HSPCB ",23-05-2024 09:00:00,30.7057778,76.8531805555555,OZONE,30,63,46
India,Haryana,Panipat,"Sector-18, Panipat - HSPCB",23-05-2024 09:00:00,29.432304,76.972765,PM2.5,96,165,157
India,Haryana,Rohtak,"MD University, Rohtak - HSPCB",23-05-2024 09:00:00,28.52123,76.37138,NO2,44,55,51
India,Haryana,Sirsa,"F-Block, Sirsa - HSPCB",23-05-2024 09:00:00,29.536400,75.015800,PM2.5,79,229,146
India,Haryana,Sirsa,"F-Block, Sirsa - HSPCB",23-05-2024 09:00:00,29.536400,75.015800,NH3,11,13,12
India,Haryana,Sonipat,"Murthal, Sonipat - HSPCB",23-05-2024 09:00:00,29.027200,77.062100,PM2.5,60,170,110
India,Haryana,Yamuna Nagar,"Gobind Pura, Yamuna Nagar - HSPCB",23-05-2024 09:00:00,30.1480566,77.2893471,PM2.5,67,116,93
India,Haryana,Yamuna Nagar,"Gobind Pura, Yamuna Nagar - HSPCB",23-05-2024 09:00:00,30.1480566,77.2893471,PM10,89,129,115
India,Haryana,Yamuna Nagar,"Gobind Pura, Yamuna Nagar - HSPCB",23-05-2024 09:00:00,30.1480566,77.2893471,NH3,3,6,4
India,Jammu_and_Kashmir,Srinagar,"Rajbagh, Srinagar - JKSPCB",23-05-2024 09:00:00,34.066206,74.819820,OZONE,12,14,12
India,Jharkhand,Dhanbad,"Kalakusuma, Dhanbad - DMC",23-05-2024 09:00:00,23.811548,86.481238,SO2,NA,NA,NA
India,Jharkhand,Jorapokhar,"Tata Stadium, Jorapokhar - JSPCB",23-05-2024 09:00:00,23.707909,86.414670,NH3,NA,NA,NA
India,Jharkhand,Jorapokhar,"Tata Stadium, Jorapokhar - JSPCB",23-05-2024 09:00:00,23.707909,86.414670,OZONE,2,7,2
India,Karnataka,Bagalkot,"Vidayagiri, Bagalkot - KSPCB",23-05-2024 09:00:00,16.172806,75.659694,PM10,41,46,42
India,Karnataka,Bagalkot,"Vidayagiri, Bagalkot - KSPCB",23-05-2024 09:00:00,16.172806,75.659694,SO2,NA,NA,NA
India,Karnataka,Belgaum,"Ramteerth Nagar, Belgaum - KSPCB",23-05-2024 09:00:00,15.888653,74.541751,PM2.5,16,31,22
India,Karnataka,Belgaum,"Ramteerth Nagar, Belgaum - KSPCB",23-05-2024 09:00:00,15.888653,74.541751,NO2,15,72,46
India,Karnataka,Bengaluru,"Bapuji Nagar, Bengaluru - KSPCB",23-05-2024 09:00:00,12.951913,77.539784,PM2.5,15,90,49
India,Karnataka,Bengaluru,"Bapuji Nagar, Bengaluru - KSPCB",23-05-2024 09:00:00,12.951913,77.539784,OZONE,23,26,25
India,Karnataka,Bengaluru,"Hebbal, Bengaluru - KSPCB",23-05-2024 09:00:00,13.029152,77.585901,NH3,1,1,1
India,Karnataka,Bengaluru,"Hombegowda Nagar, Bengaluru - KSPCB",23-05-2024 09:00:00,12.938539,77.590100,CO,14,44,19
India,Karnataka,Bengaluru,"Hombegowda Nagar, Bengaluru - KSPCB",23-05-2024 09:00:00,12.938539,77.590100,OZONE,4,24,11
India,Karnataka,Bengaluru,"Kasturi Nagar, Bengaluru - KSPCB",23-05-2024 09:00:00,13.003872,77.664217,PM10,52,52,52
India,Karnataka,Bengaluru,"Kasturi Nagar, Bengaluru - KSPCB",23-05-2024 09:00:00,13.003872,77.664217,SO2,10,10,10
India,Karnataka,Bengaluru,"RVCE-Mailasandra, Bengaluru - KSPCB",23-05-2024 09:00:00,12.921418,77.502466,PM10,NA,NA,NA
India,Karnataka,Bengaluru,"RVCE-Mailasandra, Bengaluru - KSPCB",23-05-2024 09:00:00,12.921418,77.502466,NO2,16,17,17
India,Karnataka,Bengaluru,"RVCE-Mailasandra, Bengaluru - KSPCB",23-05-2024 09:00:00,12.921418,77.502466,OZONE,39,39,39
India,Karnataka,Bengaluru,"Sanegurava Halli, Bengaluru - KSPCB",23-05-2024 09:00:00,12.990328,77.5431385,NO2,22,36,27
India,Karnataka,Bengaluru,"Shivapura_Peenya, Bengaluru - KSPCB",23-05-2024 09:00:00,13.0246342,77.5080115,NO2,15,16,15
India,Karnataka,Bengaluru,"Shivapura_Peenya, Bengaluru - KSPCB",23-05-2024 09:00:00,13.0246342,77.5080115,CO,19,61,24
India,Karnataka,Bengaluru,"Silk Board, Bengaluru - KSPCB",23-05-2024 09:00:00,12.917348,77.622813,NH3,NA,NA,NA
India,Karnataka,Bengaluru,"Silk Board, Bengaluru - KSPCB",23-05-2024 09:00:00,12.917348,77.622813,CO,8,13,11
India,Karnataka,Bidar,"Naubad, Bidar - KSPCB",23-05-2024 09:00:00,17.930306,77.482194,NO2,7,8,8
India,Karnataka,Bidar,"Naubad, Bidar - KSPCB",23-05-2024 09:00:00,17.930306,77.482194,NH3,3,3,3
India,Karnataka,Chamarajanagar,"Urban, Chamarajanagar - KSPCB",23-05-2024 09:00:00,11.55358,76.55521,NH3,1,2,2
India,Karnataka,Chamarajanagar,"Urban, Chamarajanagar - KSPCB",23-05-2024 09:00:00,11.55358,76.55521,OZONE,15,39,15
India,Karnataka,Chikkaballapur,"Chikkaballapur Rural, Chikkaballapur - KSPCB",23-05-2024 09:00:00,13.428828,77.731418,NO2,5,12,7
India,Karnataka,Chikkamagaluru,"Kalyana Nagara, Chikkamagaluru - KSPCB",23-05-2024 09:00:00,13.328028,75.797056,OZONE,16,65,19
India,Karnataka,Davanagere,"Devaraj Urs Badavane, Davanagere - KSPCB",23-05-2024 09:00:00,14.475800,75.905200,NH3,1,2,1
India,Karnataka,Davanagere,"Devaraj Urs Badavane, Davanagere - KSPCB",23-05-2024 09:00:00,14.475800,75.905200,CO,12,28,22
India,Karnataka,Davanagere,"Devaraj Urs Badavane, Davanagere - KSPCB",23-05-2024 09:00:00,14.475800,75.905200,OZONE,17,24,19
India,Karnataka,Dharwad,"Kalabhavan, Dharwad - KSPCB",23-05-2024 09:00:00,15.459706,75.008381,PM10,NA,NA,NA
India,Karnataka,Dharwad,"Kalabhavan, Dharwad - KSPCB",23-05-2024 09:00:00,15.459706,75.008381,NO2,NA,NA,NA
India,Karnataka,Dharwad,"Kalabhavan, Dharwad - KSPCB",23-05-2024 09:00:00,15.459706,75.008381,SO2,1,105,9
India,Karnataka,Dharwad,"Kalabhavan, Dharwad - KSPCB",23-05-2024 09:00:00,15.459706,75.008381,OZONE,2,44,16
India,Karnataka,Gadag,"Panchal Nagar, Gadag - KSPCB",23-05-2024 09:00:00,15.411456,75.638133,SO2,11,17,13
India,Karnataka,Kalaburagi,"Lal Bahadur Shastri Nagar, Kalaburagi - KSPCB",23-05-2024 09:00:00,17.321993,76.822628,NO2,11,12,12
India,Karnataka,Kalaburagi,"Mahatma Basaveswar Colony, Kalaburgi - KSPCB",23-05-2024 09:00:00,17.336318,76.847397,NH3,3,4,3
India,Karnataka,Kalaburagi,"Mahatma Basaveswar Colony, Kalaburgi - KSPCB",23-05-2024 09:00:00,17.336318,76.847397,SO2,2,8,4
India,Karnataka,Karwar,"KHB Colony, Karwar - KSPCB",23-05-2024 09:00:00,14.816666,74.141003,PM10,NA,NA,NA
India,Karnataka,Kolar,"Tamaka Ind. Area, Kolar - KSPCB",23-05-2024 09:00:00,13.1276288,78.1570122,PM10,20,76,37
India,Karnataka,Madikeri,"Stuart Hill, Madikeri - KSPCB",23-05-2024 09:00:00,12.415911,75.735050,PM10,14,41,25
India,Karnataka,Madikeri,"Stuart Hill, Madikeri - KSPCB",23-05-2024 09:00:00,12.415911,75.735050,SO2,4,4,4
India,Karnataka,Madikeri,"Stuart Hill, Madikeri - KSPCB",23-05-2024 09:00:00,12.415911,75.735050,CO,2,84,23
India,Karnataka,Mangalore,"Kadri, Mangalore - KSPCB",23-05-2024 09:00:00,12.889250,74.853000,PM2.5,15,44,31
India,Karnataka,Mangalore,"Kadri, Mangalore - KSPCB",23-05-2024 09:00:00,12.889250,74.853000,SO2,24,26,26
India,Karnataka,Mangalore,"Kadri, Mangalore - KSPCB",23-05-2024 09:00:00,12.889250,74.853000,CO,36,44,37
India,Karnataka,Mysuru,"Hebbal 1st Stage, Mysuru - KSPCB",23-05-2024 09:00:00,12.21041,76.37376,PM2.5,7,41,20
India,Karnataka,Mysuru,"Hebbal 1st Stage, Mysuru - KSPCB",23-05-2024 09:00:00,12.21041,76.37376,SO2,1,4,2
India,Karnataka,Mysuru,"Hebbal 1st Stage, Mysuru - KSPCB",23-05-2024 09:00:00,12.21041,76.37376,CO,3,83,18
India,Karnataka,Ramanagara,"Vijay Nagar, Ramanagara - KSPCB",23-05-2024 09:00:00,12.733409,77.298051,PM10,12,36,23
India,Karnataka,Ramanagara,"Vijay Nagar, Ramanagara - KSPCB",23-05-2024 09:00:00,12.733409,77.298051,SO2,33,45,38
India,Karnataka,Shivamogga,"Vinoba Nagara, Shivamogga - KSPCB",23-05-2024 09:00:00,13.940000,75.555917,NH3,2,21,5
India,Karnataka,Tumakuru,"Thimmalapura, Tumakuru - KSPCB",23-05-2024 09:00:00,13.377516,77.099072,PM10,28,284,123
India,Karnataka,Tumakuru,"Thimmalapura, Tumakuru - KSPCB",23-05-2024 09:00:00,13.377516,77.099072,SO2,7,11,9
India,Karnataka,Tumakuru,"Thimmalapura, Tumakuru - KSPCB",23-05-2024 09:00:00,13.377516,77.099072,OZONE,6,28,15
India,Karnataka,Udupi,"Brahmagiri, Udupi - KSPCB",23-05-2024 09:00:00,13.34194444,74.74694444,SO2,13,17,16
India,Karnataka,Vijayapura,"Ibrahimpur, Vijayapura - KSPCB",23-05-2024 09:00:00,16.802639,75.722694,NH3,2,2,2
India,Karnataka,Yadgir,"Collector Office, Yadgir - KSPCB",23-05-2024 09:00:00,16.7602,77.1428,NO2,5,27,11
India,Kerala,Kollam,"Polayathode, Kollam - Kerala PCB",23-05-2024 09:00:00,8.8787,76.6073,PM2.5,2,44,23
India,Kerala,Thiruvananthapuram,"Kariavattom, Thiruvananthapuram - Kerala PCB",23-05-2024 09:00:00,8.563700,76.886500,OZONE,28,32,30
India,Kerala,Thrissur,"Corporation Ground, Thrissur - Kerala PCB",23-05-2024 09:00:00,10.532400,76.215900,PM10,60,67,64
India,Madhya Pradesh,Bhopal,"Idgah Hills, Bhopal - MPPCB",23-05-2024 09:00:00,23.264759,77.381568,NH3,4,5,4
India,Madhya Pradesh,Bhopal,"Paryavaran Parisar, Bhopal - MPPCB",23-05-2024 09:00:00,23.210494,77.425409,PM2.5,35,78,48
India,Madhya Pradesh,Dewas,"Bhopal Chauraha, Dewas - MPPCB",23-05-2024 09:00:00,22.9682591,76.064118,OZONE,14,50,21
India,Madhya Pradesh,Gwalior,"City Center, Gwalior - MPPCB",23-05-2024 09:00:00,26.203442,78.193251,CO,14,106,51
India,Madhya Pradesh,Gwalior,"Maharaj Bada, Gwalior - MPPCB",23-05-2024 09:00:00,26.200388,78.147714,PM10,NA,NA,NA
India,Madhya Pradesh,Gwalior,"Maharaj Bada, Gwalior - MPPCB",23-05-2024 09:00:00,26.200388,78.147714,SO2,NA,NA,NA
India,Madhya Pradesh,Gwalior,"Phool Bagh, Gwalior - Mondelez Ind. Food",23-05-2024 09:00:00,26.210536,78.171,NO2,4,5,4
India,Madhya Pradesh,Gwalior,"Phool Bagh, Gwalior - Mondelez Ind. Food",23-05-2024 09:00:00,26.210536,78.171,SO2,25,30,28
India,Madhya Pradesh,Indore,"Maguda Nagar, Indore - IMC",23-05-2024 09:00:00,22.7524,75.8872,OZONE,36,46,36
India,Madhya Pradesh,Indore,"Regional Park, Indore - IMC",23-05-2024 09:00:00,22.6780,75.8559,NH3,1,3,1
India,Madhya Pradesh,Indore,"Residency Area, Indore - IMC",23-05-2024 09:00:00,22.7084,75.8815,PM10,45,120,67
India,Madhya Pradesh,Jabalpur,"Govindh Bhavan Colony, Jabalpur - JMC",23-05-2024 09:00:00,23.163174,79.973061,PM10,46,115,65
India,Madhya Pradesh,Jabalpur,"Gupteshwar, Jabalpur - JMC",23-05-2024 09:00:00,23.142888,79.916147,OZONE,41,187,55
India,Madhya Pradesh,Jabalpur,"Marhatal, Jabalpur - MPPCB",23-05-2024 09:00:00,23.168606,79.932247,PM2.5,45,64,52
India,Madhya Pradesh,Jabalpur,"Marhatal, Jabalpur - MPPCB",23-05-2024 09:00:00,23.168606,79.932247,PM10,46,161,78
India,Madhya Pradesh,Jabalpur,"Marhatal, Jabalpur - MPPCB",23-05-2024 09:00:00,23.168606,79.932247,NH3,3,5,4
India,Madhya Pradesh,Jabalpur,"Suhagi, Jabalpur - JMC",23-05-2024 09:00:00,23.218135,79.957770,NH3,2,2,2
India,Madhya Pradesh,Katni,"Gole Bazar, Katni - MPPCB",23-05-2024 09:00:00,23.50016,80.23284,PM2.5,32,90,57
India,Madhya Pradesh,Katni,"Gole Bazar, Katni - MPPCB",23-05-2024 09:00:00,23.50016,80.23284,PM10,62,170,110
India,Madhya Pradesh,Katni,"Gole Bazar, Katni - MPPCB",23-05-2024 09:00:00,23.50016,80.23284,NO2,26,116,64
India,Madhya Pradesh,Mandideep,"Sector-D Industrial Area, Mandideep - MPPCB",23-05-2024 09:00:00,23.108440,77.511428,OZONE,NA,NA,NA
India,Madhya Pradesh,Pithampur,"Sector-2 Industrial Area, Pithampur - MPPCB",23-05-2024 09:00:00,22.624758,75.675238,PM2.5,16,86,46
India,Madhya Pradesh,Pithampur,"Sector-2 Industrial Area, Pithampur - MPPCB",23-05-2024 09:00:00,22.624758,75.675238,PM10,90,252,123
India,Madhya Pradesh,Pithampur,"Sector-2 Industrial Area, Pithampur - MPPCB",23-05-2024 09:00:00,22.624758,75.675238,NH3,1,2,2
India,Madhya Pradesh,Ratlam,"Shasthri Nagar, Ratlam - IPCA Lab",23-05-2024 09:00:00,23.331731,75.045981,SO2,28,30,30
India,Madhya Pradesh,Satna,"Bandhavgar Colony, Satna - Birla Cement",23-05-2024 09:00:00,24.58434363,80.8549414,CO,44,80,63
India,Madhya Pradesh,Singrauli,"Suryakiran Bhawan NCL, Singrauli - MPPCB",23-05-2024 09:00:00,24.108970,82.645580,PM10,71,176,119
India,Madhya Pradesh,Ujjain,"Mahakaleshwar Temple, Ujjain - MPPCB",23-05-2024 09:00:00,23.182719 ,75.768218 ,PM10,90,169,114
India,Madhya Pradesh,Ujjain,"Mahakaleshwar Temple, Ujjain - MPPCB",23-05-2024 09:00:00,23.182719 ,75.768218 ,OZONE,101,149,106
India,Maharashtra,Ahmednagar,"Tarakpur, Ahmednagar - MPCB",23-05-2024 09:00:00,19.10122,74.73339,PM10,13,160,94
India,Maharashtra,Ahmednagar,"Tarakpur, Ahmednagar - MPCB",23-05-2024 09:00:00,19.10122,74.73339,NH3,1,7,3
India,Maharashtra,Akola,"Ramdaspeth, Akola - MPCB",23-05-2024 09:00:00,20.719516,77.000253,CO,24,56,28
India,Maharashtra,Amravati,"Shivneri Colony, Amravati - MPCB",23-05-2024 09:00:00,20.9402359,77.7895248,NH3,1,4,3
India,Maharashtra,Amravati,"Shri Shivaji Science College, Amaravati - MPCB",23-05-2024 09:00:00,20.939198,77.765701,NH3,2,3,2
India,Maharashtra,Amravati,"Shri Shivaji Science College, Amaravati - MPCB",23-05-2024 09:00:00,20.939198,77.765701,CO,12,66,16
India,Maharashtra,Aurangabad,"MIDC Chilkalthana, Aurangabad - MPCB",23-05-2024 09:00:00,19.875620,75.387310,NH3,5,6,5
India,Maharashtra,Aurangabad,"Rachnakar Colony, Aurangabad - MPCB",23-05-2024 09:00:00,19.863756,75.321188,NH3,1,2,1
India,Maharashtra,Badlapur,"Katrap, Badlapur - MPCB",23-05-2024 09:00:00,19.16485,73.23409,PM2.5,44,72,54
India,Maharashtra,Badlapur,"Katrap, Badlapur - MPCB",23-05-2024 09:00:00,19.16485,73.23409,SO2,7,24,12
India,Maharashtra,Belapur,"CBD Belapur, Belapur - MPCB",23-05-2024 09:00:00,19.0243902,73.0406721,NO2,NA,NA,NA
India,Maharashtra,Belapur,"CBD Belapur, Belapur - MPCB",23-05-2024 09:00:00,19.0243902,73.0406721,SO2,NA,NA,NA
India,Maharashtra,Bhiwandi,"Gokul Nagar, Bhiwandi - MPCB",23-05-2024 09:00:00,19.309073,73.057223,CO,18,93,47
India,Maharashtra,Bhiwandi,"Gokul Nagar, Bhiwandi - MPCB",23-05-2024 09:00:00,19.309073,73.057223,OZONE,26,84,30
India,Maharashtra,Boisar,"Khaira, Boisar - MPCB",23-05-2024 09:00:00,19.786089,72.757971,NO2,NA,NA,NA
India,Maharashtra,Boisar,"Khaira, Boisar - MPCB",23-05-2024 09:00:00,19.786089,72.757971,NH3,NA,NA,NA
India,Maharashtra,Chandrapur,"Chauhan Colony, Chandrapur - MPCB",23-05-2024 09:00:00,19.962900,79.298714,PM10,23,270,55
India,Maharashtra,Chandrapur,"Chauhan Colony, Chandrapur - MPCB",23-05-2024 09:00:00,19.962900,79.298714,NH3,2,7,3
India,Maharashtra,Chandrapur,"MIDC Khutala, Chandrapur - MPCB",23-05-2024 09:00:00,19.9775302,79.2337086,SO2,NA,NA,NA
India,Maharashtra,Jalgaon,"Prabhat Colony, Jalgaon - MPCB",23-05-2024 09:00:00,21.001264,75.565602,SO2,1,7,5
India,Maharashtra,Jalgaon,"Prabhat Colony, Jalgaon - MPCB",23-05-2024 09:00:00,21.001264,75.565602,OZONE,12,138,36
India,Maharashtra,Jalna,"Old MIDC, Jalna - MPCB",23-05-2024 09:00:00,19.854616,75.905894,CO,14,44,28
India,Maharashtra,Jalna,"Old MIDC, Jalna - MPCB",23-05-2024 09:00:00,19.854616,75.905894,OZONE,12,185,33
India,Maharashtra,Kalyan,"Khadakpada, Kalyan - MPCB",23-05-2024 09:00:00,19.25292,73.142019,PM2.5,21,39,30
India,Maharashtra,Kalyan,"Khadakpada, Kalyan - MPCB",23-05-2024 09:00:00,19.25292,73.142019,PM10,86,122,105
India,Maharashtra,Kolhapur,"Shivaji University, Kolhapur - MPCB",23-05-2024 09:00:00,16.6870449,74.2505872,PM2.5,NA,NA,NA
India,Maharashtra,Kolhapur,"Sinchan Bhavan, Kolhapur - MPCB",23-05-2024 09:00:00,16.7143745,74.2426398,SO2,NA,NA,NA
India,Maharashtra,Kolhapur,"Sinchan Bhavan, Kolhapur - MPCB",23-05-2024 09:00:00,16.7143745,74.2426398,CO,NA,NA,NA
India,Maharashtra,Latur,"Sawe Wadi, Latur - MPCB",23-05-2024 09:00:00,18.39963,76.57452,NH3,NA,NA,NA
India,Maharashtra,Latur,"Sawe Wadi, Latur - MPCB",23-05-2024 09:00:00,18.39963,76.57452,OZONE,22,95,44
India,Maharashtra,Mahad,"Kamble Tarf Birwadi, Mahad - MPCB",23-05-2024 09:00:00,18.1023399,73.4783687,OZONE,3,15,8
India,Maharashtra,Malegaon,"Mahesh Nagar, Malegaon - MPCB",23-05-2024 09:00:00,20.555712,74.529236,PM2.5,107,209,162
India,Maharashtra,Malegaon,"Mahesh Nagar, Malegaon - MPCB",23-05-2024 09:00:00,20.555712,74.529236,PM10,99,142,123
India,Maharashtra,Malegaon,"Mahesh Nagar, Malegaon - MPCB",23-05-2024 09:00:00,20.555712,74.529236,OZONE,15,124,31
India,Maharashtra,Mira-Bhayandar,"Bhayandar West, Mira-Bhayandar - MPCB",23-05-2024 09:00:00,19.296481,72.840923,CO,NA,NA,NA
India,Maharashtra,Mira-Bhayandar,"Bhayandar West, Mira-Bhayandar - MPCB",23-05-2024 09:00:00,19.296481,72.840923,OZONE,NA,NA,NA
India,Maharashtra,Mumbai,"Bandra Kurla Complex, Mumbai - MPCB",23-05-2024 09:00:00,19.065931,72.862131,PM2.5,NA,NA,NA
India,Maharashtra,Mumbai,"Bandra Kurla Complex, Mumbai - MPCB",23-05-2024 09:00:00,19.065931,72.862131,NH3,NA,NA,NA
India,Maharashtra,Mumbai,"Borivali East, Mumbai - IITM",23-05-2024 09:00:00,19.23241,72.86895,CO,NA,NA,NA
India,Maharashtra,Mumbai,"Borivali East, Mumbai - MPCB",23-05-2024 09:00:00,19.2243333,72.8658113,PM2.5,2,23,12
India,Maharashtra,Mumbai,"Byculla, Mumbai - BMC",23-05-2024 09:00:00,18.9767,72.8380,NH3,1,1,1
India,Maharashtra,Mumbai,"Chakala-Andheri East, Mumbai - IITM",23-05-2024 09:00:00,19.11074,72.86084,SO2,NA,NA,NA
India,Maharashtra,Mumbai,"Chakala-Andheri East, Mumbai - IITM",23-05-2024 09:00:00,19.11074,72.86084,OZONE,NA,NA,NA
India,Maharashtra,Mumbai,"Chembur, Mumbai - MPCB",23-05-2024 09:00:00,19.0364585,72.8954371,CO,NA,NA,NA
India,Maharashtra,Mumbai,"Chhatrapati Shivaji Intl. Airport (T2), Mumbai - MPCB",23-05-2024 09:00:00,19.10078,72.87462,PM2.5,33,48,41
India,Maharashtra,Mumbai,"Chhatrapati Shivaji Intl. Airport (T2), Mumbai - MPCB",23-05-2024 09:00:00,19.10078,72.87462,SO2,17,22,20
India,Maharashtra,Mumbai,"Colaba, Mumbai - MPCB",23-05-2024 09:00:00,18.910000,72.820000,PM2.5,21,48,31
India,Maharashtra,Mumbai,"Deonar, Mumbai - IITM",23-05-2024 09:00:00,19.04946,72.9230,PM10,NA,NA,NA
India,Maharashtra,Mumbai,"Ghatkopar, Mumbai - BMC",23-05-2024 09:00:00,19.083694,72.920967,PM10,30,68,48
India,Maharashtra,Mumbai,"Ghatkopar, Mumbai - BMC",23-05-2024 09:00:00,19.083694,72.920967,NH3,1,5,3
India,Maharashtra,Mumbai,"Kandivali East, Mumbai - MPCB",23-05-2024 09:00:00,19.205800,72.868200,PM2.5,NA,NA,NA
India,Maharashtra,Mumbai,"Kandivali East, Mumbai - MPCB",23-05-2024 09:00:00,19.205800,72.868200,PM10,102,308,181
India,Maharashtra,Mumbai,"Kandivali East, Mumbai - MPCB",23-05-2024 09:00:00,19.205800,72.868200,SO2,7,8,8
India,Maharashtra,Mumbai,"Kandivali West, Mumbai - BMC",23-05-2024 09:00:00,19.215859,72.831718,PM10,22,34,28
India,Maharashtra,Mumbai,"Kandivali West, Mumbai - BMC",23-05-2024 09:00:00,19.215859,72.831718,NO2,5,20,9
India,Maharashtra,Mumbai,"Kandivali West, Mumbai - BMC",23-05-2024 09:00:00,19.215859,72.831718,NH3,2,3,2
India,Maharashtra,Mumbai,"Kherwadi_Bandra East, Mumbai - MPCB",23-05-2024 09:00:00,19.0632143,72.8456324,PM2.5,13,33,22
India,Maharashtra,Mumbai,"Kherwadi_Bandra East, Mumbai - MPCB",23-05-2024 09:00:00,19.0632143,72.8456324,SO2,1,6,3
India,Maharashtra,Mumbai,"Khindipada-Bhandup West, Mumbai - IITM",23-05-2024 09:00:00,19.1653323,72.922099,NH3,4,54,19
India,Maharashtra,Mumbai,"Khindipada-Bhandup West, Mumbai - IITM",23-05-2024 09:00:00,19.1653323,72.922099,CO,NA,NA,NA
India,Maharashtra,Mumbai,"Kurla, Mumbai - MPCB",23-05-2024 09:00:00,19.0863,72.8888,SO2,32,32,32
India,Maharashtra,Mumbai,"Mindspace-Malad West, Mumbai - MPCB",23-05-2024 09:00:00,19.1878657,72.8304069,PM10,NA,NA,NA
India,Maharashtra,Mumbai,"Powai, Mumbai - MPCB",23-05-2024 09:00:00,19.137500,72.915056,SO2,41,50,46
India,Maharashtra,Mumbai,"Sewri, Mumbai - BMC",23-05-2024 09:00:00,19.000084,72.856730,PM10,NA,NA,NA
India,Maharashtra,Mumbai,"Sewri, Mumbai - BMC",23-05-2024 09:00:00,19.000084,72.856730,NH3,1,3,2
India,Maharashtra,Mumbai,"Sewri, Mumbai - BMC",23-05-2024 09:00:00,19.000084,72.856730,CO,6,114,8
India,Maharashtra,Mumbai,"Sewri, Mumbai - BMC",23-05-2024 09:00:00,19.000084,72.856730,OZONE,6,40,15
India,Maharashtra,Mumbai,"Siddharth Nagar-Worli, Mumbai - IITM",23-05-2024 09:00:00,19.000083,72.813993,PM2.5,51,90,71
India,Maharashtra,Mumbai,"Vasai West, Mumbai - MPCB",23-05-2024 09:00:00,19.383200,72.820400,PM2.5,29,66,46
India,Maharashtra,Mumbai,"Vile Parle West, Mumbai - MPCB",23-05-2024 09:00:00,19.10861,72.83622,PM2.5,NA,NA,NA
India,Maharashtra,Mumbai,"Worli, Mumbai - MPCB",23-05-2024 09:00:00,18.9936162,72.8128113,PM10,64,118,86
India,Maharashtra,Mumbai,"Worli, Mumbai - MPCB",23-05-2024 09:00:00,18.9936162,72.8128113,SO2,11,12,12
India,Maharashtra,Nagpur,"Ambazari, Nagpur - MPCB",23-05-2024 09:00:00,21.121801,79.04952,SO2,8,40,19
India,Maharashtra,Nagpur,"Mahal, Nagpur - MPCB",23-05-2024 09:00:00,21.14472,79.107595,PM10,45,122,74
India,Maharashtra,Nagpur,"Mahal, Nagpur - MPCB",23-05-2024 09:00:00,21.14472,79.107595,OZONE,31,115,56
India,Maharashtra,Nanded,"Sneh Nagar, Nanded - MPCB",23-05-2024 09:00:00,19.173852,77.296291,PM10,48,93,72
India,Maharashtra,Nashik,"Gangapur Road, Nashik - MPCB",23-05-2024 09:00:00,20.0073285,73.7762427,CO,8,75,50
India,Maharashtra,Nashik,"Hirawadi, Nashik - MPCB",23-05-2024 09:00:00,20.021503,73.813844,CO,17,50,39
India,Maharashtra,Nashik,"MIDC Ambad, Nashik - MPCB",23-05-2024 09:00:00,19.950220,73.731480,PM10,42,280,102
India,Maharashtra,Nashik,"MIDC Ambad, Nashik - MPCB",23-05-2024 09:00:00,19.950220,73.731480,NH3,5,6,6
India,Maharashtra,Nashik,"Pandav Nagari, Nashik - MPCB",23-05-2024 09:00:00,19.9591346,73.7788008,NH3,4,4,4
India,Maharashtra,Nashik,"Pandav Nagari, Nashik - MPCB",23-05-2024 09:00:00,19.9591346,73.7788008,SO2,3,25,15
India,Maharashtra,Navi Mumbai,"Mahape, Navi Mumbai - MPCB",23-05-2024 09:00:00,19.1135051,73.008978,NH3,2,3,2
India,Maharashtra,Navi Mumbai,"Mahape, Navi Mumbai - MPCB",23-05-2024 09:00:00,19.1135051,73.008978,SO2,23,23,23
India,Maharashtra,Navi Mumbai,"Nerul, Navi Mumbai - MPCB",23-05-2024 09:00:00,19.008751,73.016620,CO,12,26,14
India,Maharashtra,Navi Mumbai,"Sanpada, Navi Mumbai - MPCB",23-05-2024 09:00:00,19.0575752,73.0151367,PM10,NA,NA,NA
India,Maharashtra,Navi Mumbai,"Sector-19A Nerul, Navi Mumbai - IITM",23-05-2024 09:00:00,19.044,73.0325,SO2,1,9,4
India,Maharashtra,Navi Mumbai,"Sector-19A Nerul, Navi Mumbai - IITM",23-05-2024 09:00:00,19.044,73.0325,CO,7,70,17
India,Maharashtra,Navi Mumbai,"Sector-2E Kalamboli, Navi Mumbai - MPCB",23-05-2024 09:00:00,19.02579,73.10297,SO2,1,12,4
India,Maharashtra,Navi Mumbai,"Sector-2E Kalamboli, Navi Mumbai - MPCB",23-05-2024 09:00:00,19.02579,73.10297,CO,2,18,2
India,Maharashtra,Navi Mumbai,"Tondare-Taloja, Navi Mumbai - MPCB",23-05-2024 09:00:00,19.0630,73.1209,NO2,NA,NA,NA
India,Maharashtra,Navi Mumbai,"Tondare-Taloja, Navi Mumbai - MPCB",23-05-2024 09:00:00,19.0630,73.1209,NH3,NA,NA,NA
India,Maharashtra,Parbhani,"Masoom Colony, Parbhani - MPCB",23-05-2024 09:00:00,19.265594,76.761463,PM2.5,33,94,69
India,Maharashtra,Pimpri-Chinchwad,"Park Street Wakad, Pimpri Chinchwad - MPCB",23-05-2024 09:00:00,18.59051,73.77946,PM10,NA,NA,NA
India,Maharashtra,Pimpri-Chinchwad,"Park Street Wakad, Pimpri Chinchwad - MPCB",23-05-2024 09:00:00,18.59051,73.77946,CO,NA,NA,NA
India,Maharashtra,Pimpri-Chinchwad,"Thergaon, Pimpri Chinchwad - MPCB",23-05-2024 09:00:00,18.616318,73.765797,PM2.5,49,83,67
India,Maharashtra,Pune,"Hadapsar, Pune - IITM",23-05-2024 09:00:00,18.501793,73.927532,PM10,34,124,74
India,Maharashtra,Pune,"Karve Road, Pune - MPCB",23-05-2024 09:00:00,18.5011743,73.8165527,NO2,1,14,7
India,Maharashtra,Pune,"Karve Road, Pune - MPCB",23-05-2024 09:00:00,18.5011743,73.8165527,OZONE,4,73,27
India,Maharashtra,Pune,"Revenue Colony-Shivajinagar, Pune - IITM",23-05-2024 09:00:00,18.530085,73.849598,PM10,NA,NA,NA
India,Maharashtra,Pune,"Revenue Colony-Shivajinagar, Pune - IITM",23-05-2024 09:00:00,18.530085,73.849598,CO,NA,NA,NA
India,Maharashtra,Pune,"Transport Nagar-Nigdi, Pune - IITM",23-05-2024 09:00:00,18.664282,73.763966,PM10,NA,NA,NA
India,Maharashtra,Pune,"Transport Nagar-Nigdi, Pune - IITM",23-05-2024 09:00:00,18.664282,73.763966,CO,NA,NA,NA
India,Maharashtra,Solapur,"Dnyaneshwar Nagar, Solapur - MPCB",23-05-2024 09:00:00,17.6336264,75.9132495,SO2,NA,NA,NA
India,Maharashtra,Solapur,"Ratandeep Housing Society, Solapur - MPCB",23-05-2024 09:00:00,17.65439,75.90649,SO2,NA,NA,NA
India,Maharashtra,Thane,"Upvan Fort, Thane - MPCB",23-05-2024 09:00:00,19.222279,72.957979,SO2,1,7,4
India,Maharashtra,Ulhasnagar,"Sidhi Vinayak Nagar, Ulhasnagar - MPCB",23-05-2024 09:00:00,19.235581,73.159121,NH3,1,6,4
India,Maharashtra,Ulhasnagar,"Sidhi Vinayak Nagar, Ulhasnagar - MPCB",23-05-2024 09:00:00,19.235581,73.159121,OZONE,2,144,7
India,Maharashtra,Virar,"Bolinj, Virar - MPCB",23-05-2024 09:00:00,19.4458210,72.7988231,NO2,NA,NA,NA
India,Maharashtra,Virar,"Bolinj, Virar - MPCB",23-05-2024 09:00:00,19.4458210,72.7988231,OZONE,NA,NA,NA
India,Manipur,Imphal,"DM College of Science, Imphal - Manipur PCB",23-05-2024 09:00:00,24.8207389,93.9423085,PM10,9,43,22
India,Manipur,Imphal,"DM College of Science, Imphal - Manipur PCB",23-05-2024 09:00:00,24.8207389,93.9423085,CO,6,7,6
India,Manipur,Imphal,"Manipur University, Imphal - Manipur PCB",23-05-2024 09:00:00,24.7524239,93.9286218,NH3,1,2,1
India,Meghalaya,Shillong,"Lumpyngngad, Shillong - Meghalaya PCB",23-05-2024 09:00:00,25.5586,91.8985,PM2.5,NA,NA,NA
India,Meghalaya,Shillong,"Lumpyngngad, Shillong - Meghalaya PCB",23-05-2024 09:00:00,25.5586,91.8985,SO2,37,37,37
India,Meghalaya,Shillong,"Lumpyngngad, Shillong - Meghalaya PCB",23-05-2024 09:00:00,25.5586,91.8985,CO,7,17,8
India,Mizoram,Aizawl,"Sikulpuikawn, Aizawl - Mizoram PCB",23-05-2024 09:00:00,23.7176342,92.7192841,PM10,14,62,34
India,Mizoram,Aizawl,"Sikulpuikawn, Aizawl - Mizoram PCB",23-05-2024 09:00:00,23.7176342,92.7192841,NO2,1,6,1
India,Nagaland,Kohima,"PWD Juction, Kohima - NPCB",23-05-2024 09:00:00,25.6635413,94.0989878,NH3,1,1,1
India,Odisha,Angul,"Hakimapada, Angul - OSPCB",23-05-2024 09:00:00,20.832874,85.104082,PM2.5,2,67,20
India,Odisha,Angul,"Hakimapada, Angul - OSPCB",23-05-2024 09:00:00,20.832874,85.104082,SO2,6,101,19
India,Odisha,Angul,"Hakimapada, Angul - OSPCB",23-05-2024 09:00:00,20.832874,85.104082,CO,26,58,43
India,Odisha,Balasore,"Kalidaspur, Balasore - OSPCB",23-05-2024 09:00:00,21.51161,86.89088,PM2.5,NA,NA,NA
India,Odisha,Balasore,"Kalidaspur, Balasore - OSPCB",23-05-2024 09:00:00,21.51161,86.89088,NO2,NA,NA,NA
India,Odisha,Balasore,"Kalidaspur, Balasore - OSPCB",23-05-2024 09:00:00,21.51161,86.89088,CO,43,123,73
India,Odisha,Balasore,"Kalidaspur, Balasore - OSPCB",23-05-2024 09:00:00,21.51161,86.89088,OZONE,2,17,5
India,Odisha,Barbil,"Forest Office, Barbil - OSPCB",23-05-2024 09:00:00,22.1166054,85.3945546,PM2.5,10,70,33
India,Odisha,Barbil,"Forest Office, Barbil - OSPCB",23-05-2024 09:00:00,22.1166054,85.3945546,SO2,4,16,9
India,Odisha,Baripada,"Meher Colony, Baripada - OSPCB",23-05-2024 09:00:00,21.941841,86.728318,PM2.5,12,21,14
India,Odisha,Baripada,"Meher Colony, Baripada - OSPCB",23-05-2024 09:00:00,21.941841,86.728318,PM10,28,46,36
India,Odisha,Baripada,"Meher Colony, Baripada - OSPCB",23-05-2024 09:00:00,21.941841,86.728318,NH3,1,3,2
India,Odisha,Baripada,"Meher Colony, Baripada - OSPCB",23-05-2024 09:00:00,21.941841,86.728318,OZONE,1,76,14
India,Odisha,Bhubaneswar,"Lingraj Mandir, Bhubaneswar - OSPCB",23-05-2024 09:00:00,20.240790,85.836784,NH3,1,2,2
India,Odisha,Bhubaneswar,"Lingraj Mandir, Bhubaneswar - OSPCB",23-05-2024 09:00:00,20.240790,85.836784,OZONE,4,30,11
India,Odisha,Bhubaneswar,"Patia, Bhubaneswar - OSPCB",23-05-2024 09:00:00,20.34652,85.81630,PM2.5,NA,NA,NA
India,Odisha,Bileipada,"Tata Township, Bileipada - OSPCB",23-05-2024 09:00:00,22.06156703,85.47409613,CO,10,17,11
India,Odisha,Brajrajnagar,"GM Office, Brajrajnagar - OSPCB",23-05-2024 09:00:00,21.8004996,83.8396977,NO2,15,19,16
India,Odisha,Byasanagar,"Ferro Chrome Colony, Byasanagar - OSPCB",23-05-2024 09:00:00,20.94185,86.11510,PM2.5,NA,NA,NA
India,Odisha,Byasanagar,"Ferro Chrome Colony, Byasanagar - OSPCB",23-05-2024 09:00:00,20.94185,86.11510,NO2,5,16,10
India,Odisha,Cuttack,"CDA Area, Cuttack - OSPCB",23-05-2024 09:00:00,20.48891     ,85.84768     ,PM10,NA,NA,NA
India,Odisha,Keonjhar,"Jagamohanpur, Keonjhar - OSPCB",23-05-2024 09:00:00,21.643900,85.599355,NO2,6,9,7
India,Odisha,Nayagarh,"Dabuna, Nayagarh - OSPCB",23-05-2024 09:00:00,21.847279,85.416905,PM2.5,14,52,30
India,Odisha,Rairangpur,"Divisional Forest Office, Rairangpur - OSPCB",23-05-2024 09:00:00,22.265816,86.174829,OZONE,1,18,2
India,Odisha,Rourkela,"Fertilizer Township, Rourkela - OSPCB",23-05-2024 09:00:00,22.18972222,84.86277778,SO2,11,14,13
India,Odisha,Rourkela,"Raghunathpali, Rourkela - OSPCB",23-05-2024 09:00:00,22.220833,84.809444,PM2.5,29,141,69
India,Odisha,Rourkela,"Sector-2, Rourkela - OSPCB",23-05-2024 09:00:00,22.24500000,84.88111111,PM10,NA,NA,NA
India,Odisha,Rourkela,"Sector-2, Rourkela - OSPCB",23-05-2024 09:00:00,22.24500000,84.88111111,CO,NA,NA,NA
India,Odisha,Suakati,"OMC Colony, Suakati - OSPCB",23-05-2024 09:00:00,21.606865,85.510538,PM10,25,66,43
India,Odisha,Suakati,"OMC Colony, Suakati - OSPCB",23-05-2024 09:00:00,21.606865,85.510538,NH3,5,5,5
India,Odisha,Suakati,"OMC Colony, Suakati - OSPCB",23-05-2024 09:00:00,21.606865,85.510538,CO,22,28,24
India,Odisha,Talcher,"Talcher Coalfields,Talcher - OSPCB",23-05-2024 09:00:00,20.9360711,85.1707021,PM10,8,60,36
India,Odisha,Talcher,"Talcher Coalfields,Talcher - OSPCB",23-05-2024 09:00:00,20.9360711,85.1707021,NO2,16,19,18
India,Odisha,Tensa,"Barsua Iron Ore Mines, Tensa - OSPCB",23-05-2024 09:00:00,21.869985,85.167016,PM10,25,79,53
India,Odisha,Tensa,"Barsua Iron Ore Mines, Tensa - OSPCB",23-05-2024 09:00:00,21.869985,85.167016,NO2,1,88,12
India,Punjab,Amritsar,"Golden Temple, Amritsar - PPCB",23-05-2024 09:00:00,31.620000,74.876512,NO2,1,59,15
India,Punjab,Amritsar,"Golden Temple, Amritsar - PPCB",23-05-2024 09:00:00,31.620000,74.876512,CO,8,158,23
India,Punjab,Bathinda,"Hardev Nagar, Bathinda - PPCB",23-05-2024 09:00:00,30.233011,74.907758,SO2,1,51,23
India,Punjab,Jalandhar,"Civil Line, Jalandhar - PPCB",23-05-2024 09:00:00,31.321907,75.578914,SO2,9,19,11
India,Punjab,Ludhiana,"Punjab Agricultural University, Ludhiana - PPCB",23-05-2024 09:00:00,30.9028,75.8086,PM10,90,160,125
India,Punjab,Ludhiana,"Punjab Agricultural University, Ludhiana - PPCB",23-05-2024 09:00:00,30.9028,75.8086,NO2,25,30,29
India,Punjab,Ludhiana,"Punjab Agricultural University, Ludhiana - PPCB",23-05-2024 09:00:00,30.9028,75.8086,NH3,5,6,6
India,Punjab,Mandi Gobindgarh,"RIMT University, Mandi Gobindgarh - PPCB",23-05-2024 09:00:00,30.649961,76.331442,PM10,80,224,141
India,Punjab,Mandi Gobindgarh,"RIMT University, Mandi Gobindgarh - PPCB",23-05-2024 09:00:00,30.649961,76.331442,NH3,6,6,6
India,Punjab,Rupnagar,"Ratanpura, Rupnagar - Ambuja Cements",23-05-2024 09:00:00,31.0325454,76.5623046,PM2.5,NA,NA,NA
India,Rajasthan,Ajmer,"Civil Lines,  Ajmer - RSPCB",23-05-2024 09:00:00,26.470859,74.646594,SO2,6,68,24
India,Rajasthan,Alwar,"Moti Doongri, Alwar - RSPCB",23-05-2024 09:00:00,27.554793,76.611536,PM10,68,122,90
India,Rajasthan,Alwar,"Moti Doongri, Alwar - RSPCB",23-05-2024 09:00:00,27.554793,76.611536,NO2,25,48,33
India,Rajasthan,Barmer,"Railway Colony, Barmer - RSPCB",23-05-2024 09:00:00,25.747299,71.393989,SO2,1,8,4
India,Rajasthan,Bharatpur,"Krishna Nagar, Bharatpur - RSPCB",23-05-2024 09:00:00,27.215415,77.50873,NH3,1,4,2
India,Rajasthan,Bharatpur,"Krishna Nagar, Bharatpur - RSPCB",23-05-2024 09:00:00,27.215415,77.50873,CO,28,60,45
India,Rajasthan,Bharatpur,"Krishna Nagar, Bharatpur - RSPCB",23-05-2024 09:00:00,27.215415,77.50873,OZONE,1,152,125
India,Rajasthan,Bhilwara,"Pratap Nagar, Bhilwara - RSPCB",23-05-2024 09:00:00,25.339605,74.618883,PM2.5,32,116,58
India,Rajasthan,Bhiwadi,"Vasundhara Nagar_UIT, Bhiwadi - RSPCB",23-05-2024 09:00:00,28.207266,76.829265,PM10,126,432,208
India,Rajasthan,Bhiwadi,"Vasundhara Nagar_UIT, Bhiwadi - RSPCB",23-05-2024 09:00:00,28.207266,76.829265,NO2,15,56,31
India,Rajasthan,Bikaner,"MM Ground, Bikaner - RSPCB",23-05-2024 09:00:00,28.018792,73.292658,CO,17,64,27
India,Rajasthan,Bundi,"New Colony, Bundi - RSPCB",23-05-2024 09:00:00,25.435774,75.644272,NO2,5,116,28
India,Rajasthan,Chittorgarh,"Shastri Nagar, Chittorgarh - RSPCB",23-05-2024 09:00:00,24.892047,74.623527,PM10,88,222,125
India,Rajasthan,Chittorgarh,"Shastri Nagar, Chittorgarh - RSPCB",23-05-2024 09:00:00,24.892047,74.623527,NO2,5,10,7
India,Rajasthan,Chittorgarh,"Shastri Nagar, Chittorgarh - RSPCB",23-05-2024 09:00:00,24.892047,74.623527,SO2,1,109,15
India,Rajasthan,Churu,"Subash Chowk, Churu - RSPCB",23-05-2024 09:00:00,28.296139,74.961696,NO2,2,26,12
India,Rajasthan,Dausa,"Khatikan Mohalla, Dausa - RSPCB",23-05-2024 09:00:00,26.895552,76.334753,PM2.5,29,268,73
India,Rajasthan,Dholpur,"Raja Ganj, Dholpur - RSPCB",23-05-2024 09:00:00,26.699557,77.898881,NH3,8,20,12
India,Rajasthan,Dholpur,"Raja Ganj, Dholpur - RSPCB",23-05-2024 09:00:00,26.699557,77.898881,SO2,2,17,8
India,Rajasthan,Dholpur,"Raja Ganj, Dholpur - RSPCB",23-05-2024 09:00:00,26.699557,77.898881,OZONE,8,161,67
India,Rajasthan,Hanumangarh,"Housing Board, Hanumangarh - RSPCB",23-05-2024 09:00:00,29.610750,74.283608,PM2.5,62,210,122
India,Rajasthan,Hanumangarh,"Housing Board, Hanumangarh - RSPCB",23-05-2024 09:00:00,29.610750,74.283608,CO,15,97,63
India,Rajasthan,Jaipur,"Mansarovar Sector-12, Jaipur - RSPCB",23-05-2024 09:00:00,26.843698,75.766894,OZONE,20,156,67
India,Rajasthan,Jaipur,"RIICO Sitapura, Jaipur - RSPCB",23-05-2024 09:00:00,26.786682,75.827928,NH3,2,5,4
India,Rajasthan,Jaipur,"Sector-2 Murlipura, Jaipur - RSPCB",23-05-2024 09:00:00,26.960669,75.771817,CO,30,115,37
India,Rajasthan,Jaipur,"Shastri Nagar, Jaipur - RSPCB",23-05-2024 09:00:00,26.9502929,75.730943,CO,13,70,32
India,Rajasthan,Jaisalmer,"Sadar Bazar, Jaisalmer - RSPCB",23-05-2024 09:00:00,26.912329,70.909168,PM2.5,21,147,55
India,Rajasthan,Jalore,"Mudtra Sili, Jalore - RSPCB",23-05-2024 09:00:00,25.344694,72.626208,PM2.5,39,61,50
India,Rajasthan,Jhalawar,"Rajlaxmi Nagar, Jhalawar - RSPCB",23-05-2024 09:00:00,24.588397,76.172782,PM2.5,33,158,67
India,Rajasthan,Jhalawar,"Rajlaxmi Nagar, Jhalawar - RSPCB",23-05-2024 09:00:00,24.588397,76.172782,PM10,78,204,131
India,Rajasthan,Jhalawar,"Rajlaxmi Nagar, Jhalawar - RSPCB",23-05-2024 09:00:00,24.588397,76.172782,NO2,24,69,37
India,Rajasthan,Jhalawar,"Rajlaxmi Nagar, Jhalawar - RSPCB",23-05-2024 09:00:00,24.588397,76.172782,SO2,2,26,7
India,Rajasthan,Jhunjhunu,"Indra Nagar, Jhunjhunu - RSPCB",23-05-2024 09:00:00,28.108988,75.386577,SO2,3,9,5
India,Rajasthan,Jodhpur,"Collectorate, Jodhpur - RSPCB",23-05-2024 09:00:00,26.268249,73.0193853,NO2,24,26,25
India,Rajasthan,Jodhpur,"Collectorate, Jodhpur - RSPCB",23-05-2024 09:00:00,26.268249,73.0193853,CO,1,101,37
India,Rajasthan,Jodhpur,"Collectorate, Jodhpur - RSPCB",23-05-2024 09:00:00,26.268249,73.0193853,OZONE,1,115,39
India,Rajasthan,Jodhpur,"Digari Kalan, Jodhpur - RSPCB",23-05-2024 09:00:00,26.295810,73.082283,NO2,7,112,32
India,Rajasthan,Jodhpur,"Jhalamand, Jodhpur - RSPCB",23-05-2024 09:00:00,26.215415,73.070156,PM2.5,7,263,60
India,Rajasthan,Jodhpur,"Mandor, Jodhpur - RSPCB",23-05-2024 09:00:00,26.358805,73.047444,NO2,15,96,29
India,Rajasthan,Jodhpur,"Mandor, Jodhpur - RSPCB",23-05-2024 09:00:00,26.358805,73.047444,NH3,3,12,7
India,Rajasthan,Karauli,"Satyawati Vihar, Karauli - RSPCB",23-05-2024 09:00:00,26.506177,77.025989,OZONE,40,200,70
India,Rajasthan,Kota,"Dhanmandi, Kota - RSPCB",23-05-2024 09:00:00,25.164090,75.858137,PM2.5,23,320,103
India,Rajasthan,Kota,"Dhanmandi, Kota - RSPCB",23-05-2024 09:00:00,25.164090,75.858137,SO2,6,94,18
India,Rajasthan,Kota,"Dhanmandi, Kota - RSPCB",23-05-2024 09:00:00,25.164090,75.858137,CO,16,147,33
India,Rajasthan,Kota,"Nayapura, Kota - RSPCB",23-05-2024 09:00:00,25.196024,75.855668,PM10,73,199,131
India,Rajasthan,Kota,"Nayapura, Kota - RSPCB",23-05-2024 09:00:00,25.196024,75.855668,NH3,2,17,5
India,Rajasthan,Kota,"Nayapura, Kota - RSPCB",23-05-2024 09:00:00,25.196024,75.855668,OZONE,6,138,39
India,Rajasthan,Kota,"Shrinath Puram, Kota - RSPCB",23-05-2024 09:00:00,25.14389,75.821256,OZONE,4,77,31
India,Rajasthan,Nagaur,"Karni Colony, Nagaur - RSPCB",23-05-2024 09:00:00,27.213494,73.734444,NO2,9,39,15
India,Rajasthan,Pali,"Indira Colony Vistar, Pali - RSPCB",23-05-2024 09:00:00,25.771061, 73.340227,PM2.5,44,254,108
India,Rajasthan,Pali,"Indira Colony Vistar, Pali - RSPCB",23-05-2024 09:00:00,25.771061, 73.340227,PM10,87,170,129
India,Rajasthan,Pali,"Indira Colony Vistar, Pali - RSPCB",23-05-2024 09:00:00,25.771061, 73.340227,NO2,19,45,24
India,Rajasthan,Pali,"Indira Colony Vistar, Pali - RSPCB",23-05-2024 09:00:00,25.771061, 73.340227,NH3,2,13,6
India,Rajasthan,Pali,"Indira Colony Vistar, Pali - RSPCB",23-05-2024 09:00:00,25.771061, 73.340227,OZONE,19,91,36
India,Rajasthan,Rajsamand,"Dhoinda, Rajsamand - RSPCB",23-05-2024 09:00:00,25.036360,73.883502,NO2,1,27,8
India,Rajasthan,Sikar,"Radhakishan Pura, Sikar - RSPCB",23-05-2024 09:00:00,27.608912,75.153302,PM2.5,15,237,57
India,Rajasthan,Sirohi,"Vedhaynath Colony, Sirohi - RSPCB",23-05-2024 09:00:00,24.885261,72.857549,PM2.5,17,109,36
India,Rajasthan,Sirohi,"Vedhaynath Colony, Sirohi - RSPCB",23-05-2024 09:00:00,24.885261,72.857549,OZONE,19,120,35
India,Rajasthan,Sri Ganganagar,"Old City, Sri Ganganagar - RSPCB",23-05-2024 09:00:00,29.931624,73.864511,CO,18,107,45
India,Sikkim,Gangtok,"Zero Point GICI, Gangtok - SSPCB",23-05-2024 09:00:00,27.338530,88.614099,NO2,1,12,3
India,Sikkim,Gangtok,"Zero Point GICI, Gangtok - SSPCB",23-05-2024 09:00:00,27.338530,88.614099,NH3,1,1,1
India,TamilNadu,Ariyalur,"Keelapalur, Ariyalur - TNPCB",23-05-2024 09:00:00,11.06825,79.07033,NO2,5,11,7
India,TamilNadu,Ariyalur,"Keelapalur, Ariyalur - TNPCB",23-05-2024 09:00:00,11.06825,79.07033,SO2,3,103,32
India,TamilNadu,Chennai,"Alandur Bus Depot, Chennai - CPCB",23-05-2024 09:00:00,12.9099161,80.1076538,PM2.5,23,23,23
India,TamilNadu,Chennai,"Alandur Bus Depot, Chennai - CPCB",23-05-2024 09:00:00,12.9099161,80.1076538,NH3,5,14,7
India,TamilNadu,Chennai,"Arumbakkam, Chennai - TNPCB",23-05-2024 09:00:00,13.0664,80.2112 ,PM10,3,56,25
India,TamilNadu,Chennai,"Arumbakkam, Chennai - TNPCB",23-05-2024 09:00:00,13.0664,80.2112 ,SO2,2,34,11
India,TamilNadu,Chennai,"Manali, Chennai - CPCB",23-05-2024 09:00:00,13.164544,80.26285,NH3,4,5,4
India,TamilNadu,Chennai,"Manali, Chennai - CPCB",23-05-2024 09:00:00,13.164544,80.26285,SO2,2,32,8
India,TamilNadu,Chennai,"Perungudi, Chennai - TNPCB",23-05-2024 09:00:00,12.9533,80.2357,SO2,1,6,4
India,TamilNadu,Chennai,"Perungudi, Chennai - TNPCB",23-05-2024 09:00:00,12.9533,80.2357,OZONE,3,6,5
India,TamilNadu,Chennai,"Royapuram, Chennai - TNPCB",23-05-2024 09:00:00,13.1036,80.2909,PM10,4,97,31
India,TamilNadu,Chennai,"Royapuram, Chennai - TNPCB",23-05-2024 09:00:00,13.1036,80.2909,CO,20,50,39
India,TamilNadu,Chennai,"Velachery Res. Area, Chennai - CPCB",23-05-2024 09:00:00,13.0052189,80.2398125,NO2,14,27,19
India,TamilNadu,Cuddalore,"Kudikadu, Cuddalore - TNPCB",23-05-2024 09:00:00,11.6829898,79.7532099,NH3,NA,NA,NA
India,TamilNadu,Ooty,"Bombay Castel, Ooty - TNPCB",23-05-2024 09:00:00,11.4068288,76.7138973,PM2.5,2,43,16
India,TamilNadu,Ooty,"Bombay Castel, Ooty - TNPCB",23-05-2024 09:00:00,11.4068288,76.7138973,PM10,1,37,15
India,TamilNadu,Ramanathapuram,"Chalai Bazaar, Ramanathapuram - TNPCB",23-05-2024 09:00:00,9.36399,78.831977,SO2,8,11,10
India,TamilNadu,Salem,"Sona College of Technology, Salem - TNPCB",23-05-2024 09:00:00,11.679111,78.125052,NH3,1,1,1
India,TamilNadu,Salem,"Sona College of Technology, Salem - TNPCB",23-05-2024 09:00:00,11.679111,78.125052,SO2,91,100,94
India,TamilNadu,Thoothukudi,"Meelavittan, Thoothukudi - TNPCB",23-05-2024 09:00:00,8.816428 ,78.099039,OZONE,1,16,2
India,Telangana,Hyderabad,"Bollaram Industrial Area, Hyderabad - TSPCB",23-05-2024 09:00:00,17.540891,78.358528,PM10,NA,NA,NA
India,Telangana,Hyderabad,"Bollaram Industrial Area, Hyderabad - TSPCB",23-05-2024 09:00:00,17.540891,78.358528,SO2,NA,NA,NA
India,Telangana,Hyderabad,"Bollaram Industrial Area, Hyderabad - TSPCB",23-05-2024 09:00:00,17.540891,78.358528,CO,34,102,82
India,Telangana,Hyderabad,"Central University, Hyderabad - TSPCB",23-05-2024 09:00:00,17.460103,78.334361,NH3,3,6,4
India,Telangana,Hyderabad,"ECIL Kapra, Hyderabad - TSPCB",23-05-2024 09:00:00,17.470431,78.566959,PM2.5,44,82,53
India,Telangana,Hyderabad,"ECIL Kapra, Hyderabad - TSPCB",23-05-2024 09:00:00,17.470431,78.566959,SO2,15,21,20
India,Telangana,Hyderabad,"Kompally Municipal Office, Hyderabad - TSPCB",23-05-2024 09:00:00,17.544899,78.486949,PM2.5,NA,NA,NA
India,Telangana,Hyderabad,"Kompally Municipal Office, Hyderabad - TSPCB",23-05-2024 09:00:00,17.544899,78.486949,PM10,NA,NA,NA
India,Telangana,Hyderabad,"Kompally Municipal Office, Hyderabad - TSPCB",23-05-2024 09:00:00,17.544899,78.486949,OZONE,28,48,28
India,Telangana,Hyderabad,"Ramachandrapuram, Hyderabad - TSPCB",23-05-2024 09:00:00,17.528544,78.286195,NH3,NA,NA,NA
India,Telangana,Hyderabad,"Sanathnagar, Hyderabad - TSPCB",23-05-2024 09:00:00,17.4559458,78.4332152,NO2,19,31,30
India,Telangana,Hyderabad,"Somajiguda, Hyderabad - TSPCB",23-05-2024 09:00:00,17.417094,78.457437,OZONE,NA,NA,NA
India,Telangana,Hyderabad,"Zoo Park, Hyderabad - TSPCB",23-05-2024 09:00:00,17.349694,78.451437,NO2,17,39,26
India,Telangana,Hyderabad,"Zoo Park, Hyderabad - TSPCB",23-05-2024 09:00:00,17.349694,78.451437,OZONE,16,45,17
India,Tripura,Agartala,"Bardowali, Agartala - Tripura SPCB",23-05-2024 09:00:00,23.8175497,91.2726974,PM2.5,40,113,72
India,Tripura,Agartala,"Bardowali, Agartala - Tripura SPCB",23-05-2024 09:00:00,23.8175497,91.2726974,NH3,1,3,2
India,Uttar_Pradesh,Agra,"Manoharpur, Agra - UPPCB",23-05-2024 09:00:00,27.23711,78.01936,PM10,30,52,40
India,Uttar_Pradesh,Agra,"Manoharpur, Agra - UPPCB",23-05-2024 09:00:00,27.23711,78.01936,NH3,2,3,3
India,Uttar_Pradesh,Agra,"Manoharpur, Agra - UPPCB",23-05-2024 09:00:00,27.23711,78.01936,SO2,13,19,16
India,Uttar_Pradesh,Agra,"Manoharpur, Agra - UPPCB",23-05-2024 09:00:00,27.23711,78.01936,CO,10,13,10
India,Uttar_Pradesh,Agra,"Sector-3B Avas Vikas Colony, Agra - UPPCB",23-05-2024 09:00:00,27.19412,77.96237,NO2,47,48,48
India,Uttar_Pradesh,Agra,"Shastripuram, Agra - UPPCB",23-05-2024 09:00:00,27.19862,77.92066,SO2,14,15,14
India,Uttar_Pradesh,Agra,"Shastripuram, Agra - UPPCB",23-05-2024 09:00:00,27.19862,77.92066,OZONE,5,23,7
India,Uttar_Pradesh,Baghpat,"Sardar Patel Inter College, Baghpat - UPPCB",23-05-2024 09:00:00,28.964949,77.278761,PM2.5,29,74,56
India,Uttar_Pradesh,Bareilly,"Civil Lines, Bareilly - UPPCB",23-05-2024 09:00:00,28.359581,79.414455,NO2,2,3,2
India,Uttar_Pradesh,Bareilly,"Rajendra Nagar, Bareilly - UPPCB",23-05-2024 09:00:00,28.38910936,79.42963708,PM10,25,51,33
India,Uttar_Pradesh,Bareilly,"Rajendra Nagar, Bareilly - UPPCB",23-05-2024 09:00:00,28.38910936,79.42963708,OZONE,NA,NA,NA
India,Uttar_Pradesh,Bulandshahr,"Yamunapuram, Bulandshahr - UPPCB",23-05-2024 09:00:00,28.406963,77.849831,OZONE,18,53,21
India,Uttar_Pradesh,Firozabad,"Nagla Bhau, Firozabad - UPPCB",23-05-2024 09:00:00,27.168897,78.376960,CO,14,28,25
India,Uttar_Pradesh,Firozabad,"Nagla Bhau, Firozabad - UPPCB",23-05-2024 09:00:00,27.168897,78.376960,OZONE,17,25,18
India,Uttar_Pradesh,Firozabad,"Vibhab Nagar, Firozabad - UPPCB",23-05-2024 09:00:00,27.1594,78.3953,NO2,13,14,14
India,Uttar_Pradesh,Firozabad,"Vibhab Nagar, Firozabad - UPPCB",23-05-2024 09:00:00,27.1594,78.3953,SO2,1,15,5
India,Uttar_Pradesh,Firozabad,"Vibhab Nagar, Firozabad - UPPCB",23-05-2024 09:00:00,27.1594,78.3953,CO,14,28,21
India,Uttar_Pradesh,Ghaziabad,"Indirapuram, Ghaziabad - UPPCB",23-05-2024 09:00:00,28.646233,77.358075,NO2,32,51,40
India,Uttar_Pradesh,Ghaziabad,"Loni, Ghaziabad - UPPCB",23-05-2024 09:00:00,28.757294,77.278792,PM2.5,49,84,64
India,Uttar_Pradesh,Ghaziabad,"Loni, Ghaziabad - UPPCB",23-05-2024 09:00:00,28.757294,77.278792,SO2,10,39,24
India,Uttar_Pradesh,Ghaziabad,"Sanjay Nagar, Ghaziabad - UPPCB",23-05-2024 09:00:00,28.685382,77.453839,PM10,99,171,123
India,Uttar_Pradesh,Ghaziabad,"Sanjay Nagar, Ghaziabad - UPPCB",23-05-2024 09:00:00,28.685382,77.453839,NO2,16,76,32
India,Uttar_Pradesh,Ghaziabad,"Sanjay Nagar, Ghaziabad - UPPCB",23-05-2024 09:00:00,28.685382,77.453839,NH3,10,22,15
India,Uttar_Pradesh,Ghaziabad,"Sanjay Nagar, Ghaziabad - UPPCB",23-05-2024 09:00:00,28.685382,77.453839,SO2,20,80,45
India,Uttar_Pradesh,Ghaziabad,"Vasundhara, Ghaziabad - UPPCB",23-05-2024 09:00:00,28.6603346,77.3572563,PM2.5,29,70,48
India,Uttar_Pradesh,Ghaziabad,"Vasundhara, Ghaziabad - UPPCB",23-05-2024 09:00:00,28.6603346,77.3572563,NH3,6,10,8
India,Uttar_Pradesh,Gorakhpur,"Madan Mohan Malaviya University of Technology, Gorakhpur - UPPCB",23-05-2024 09:00:00,26.730136,83.433859,PM10,48,95,71
India,Uttar_Pradesh,Greater Noida,"Knowledge Park - III, Greater Noida - UPPCB",23-05-2024 09:00:00,28.47272,77.482000,NH3,1,7,2
India,Uttar_Pradesh,Hapur,"Anand Vihar, Hapur - UPPCB",23-05-2024 09:00:00,28.725645,77.749675,CO,26,32,28
India,Uttar_Pradesh,Jhansi,"Shivaji Nagar, Jhansi - UPPCB",23-05-2024 09:00:00,25.4547,78.6039,PM2.5,5,91,49
India,Uttar_Pradesh,Jhansi,"Shivaji Nagar, Jhansi - UPPCB",23-05-2024 09:00:00,25.4547,78.6039,NO2,3,23,8
India,Uttar_Pradesh,Kanpur,"NSI Kalyanpur, Kanpur - UPPCB",23-05-2024 09:00:00,26.509954,80.249612,OZONE,14,47,40
India,Uttar_Pradesh,Kanpur,"Nehru Nagar, Kanpur - UPPCB",23-05-2024 09:00:00,26.4703136,80.3229863,CO,53,105,65
India,Uttar_Pradesh,Khurja,"Kalindi Kunj, Khurja - UPPCB",23-05-2024 09:00:00,28.2348927,77.8683002,PM2.5,NA,NA,NA
India,Uttar_Pradesh,Khurja,"Kalindi Kunj, Khurja - UPPCB",23-05-2024 09:00:00,28.2348927,77.8683002,OZONE,25,122,72
India,Uttar_Pradesh,Lucknow,"B R Ambedkar University, Lucknow - UPPCB",23-05-2024 09:00:00,26.766433,80.927299,SO2,34,40,36
India,Uttar_Pradesh,Lucknow,"Gomti Nagar, Lucknow - UPPCB",23-05-2024 09:00:00,26.868120,81.005119,PM10,27,110,56
India,Uttar_Pradesh,Lucknow,"Gomti Nagar, Lucknow - UPPCB",23-05-2024 09:00:00,26.868120,81.005119,CO,39,44,40
India,Uttar_Pradesh,Lucknow,"Kendriya Vidyalaya, Lucknow - CPCB",23-05-2024 09:00:00,26.906111,80.948222,SO2,3,11,6
India,Uttar_Pradesh,Lucknow,"Kukrail Picnic Spot-1, Lucknow - UPPCB",23-05-2024 09:00:00,26.90723,80.98579,PM2.5,39,69,51
India,Uttar_Pradesh,Lucknow,"Kukrail Picnic Spot-1, Lucknow - UPPCB",23-05-2024 09:00:00,26.90723,80.98579,NO2,13,13,13
India,Uttar_Pradesh,Lucknow,"Lalbagh, Lucknow - CPCB",23-05-2024 09:00:00,26.8458805,80.9365541,PM2.5,26,92,61
India,Uttar_Pradesh,Lucknow,"Lalbagh, Lucknow - CPCB",23-05-2024 09:00:00,26.8458805,80.9365541,NO2,14,15,15
India,Uttar_Pradesh,Lucknow,"Talkatora District Industries Center, Lucknow - CPCB",23-05-2024 09:00:00,26.83399722,80.8917361,PM2.5,75,270,179
India,Uttar_Pradesh,Meerut,"Ganga Nagar, Meerut - UPPCB",23-05-2024 09:00:00,28.999264,77.7590354,NO2,18,33,22
India,Uttar_Pradesh,Meerut,"Ganga Nagar, Meerut - UPPCB",23-05-2024 09:00:00,28.999264,77.7590354,NH3,4,12,6
India,Uttar_Pradesh,Meerut,"Jai Bhim Nagar, Meerut - UPPCB",23-05-2024 09:00:00,28.9535882,77.7622941,PM10,110,189,143
India,Uttar_Pradesh,Meerut,"Jai Bhim Nagar, Meerut - UPPCB",23-05-2024 09:00:00,28.9535882,77.7622941,SO2,5,12,9
India,Uttar_Pradesh,Meerut,"Jai Bhim Nagar, Meerut - UPPCB",23-05-2024 09:00:00,28.9535882,77.7622941,CO,3,42,38
India,Uttar_Pradesh,Meerut,"Jai Bhim Nagar, Meerut - UPPCB",23-05-2024 09:00:00,28.9535882,77.7622941,OZONE,27,119,32
India,Uttar_Pradesh,Meerut,"Pallavpuram Phase 2, Meerut - UPPCB",23-05-2024 09:00:00,29.063510,77.709723,NO2,11,50,20
India,Uttar_Pradesh,Moradabad,"Buddhi Vihar, Moradabad - UPPCB",23-05-2024 09:00:00,28.83526,78.74460,NO2,20,21,21
India,Uttar_Pradesh,Moradabad,"Buddhi Vihar, Moradabad - UPPCB",23-05-2024 09:00:00,28.83526,78.74460,SO2,NA,NA,NA
India,Uttar_Pradesh,Moradabad,"Eco Herbal Park, Moradabad - UPPCB",23-05-2024 09:00:00,28.840739,78.697531,SO2,8,25,13
India,Uttar_Pradesh,Moradabad,"Eco Herbal Park, Moradabad - UPPCB",23-05-2024 09:00:00,28.840739,78.697531,OZONE,21,196,87
India,Uttar_Pradesh,Moradabad,"Employment Office, Moradabad - UPPCB",23-05-2024 09:00:00,28.88528,78.73880,PM2.5,34,54,42
India,Uttar_Pradesh,Moradabad,"Employment Office, Moradabad - UPPCB",23-05-2024 09:00:00,28.88528,78.73880,OZONE,14,59,23
India,Uttar_Pradesh,Moradabad,"Jigar Colony, Moradabad - UPPCB",23-05-2024 09:00:00,28.856664,78.772638,PM2.5,30,54,42
India,Uttar_Pradesh,Moradabad,"Jigar Colony, Moradabad - UPPCB",23-05-2024 09:00:00,28.856664,78.772638,NH3,5,5,5
India,Uttar_Pradesh,Moradabad,"Jigar Colony, Moradabad - UPPCB",23-05-2024 09:00:00,28.856664,78.772638,CO,26,36,32
India,Uttar_Pradesh,Moradabad,"Jigar Colony, Moradabad - UPPCB",23-05-2024 09:00:00,28.856664,78.772638,OZONE,17,33,18
India,Uttar_Pradesh,Moradabad,"Kashiram Nagar, Moradabad - UPPCB",23-05-2024 09:00:00,28.849399,78.742362,PM10,49,119,79
India,Uttar_Pradesh,Moradabad,"Transport Nagar, Moradabad - UPPCB",23-05-2024 09:00:00,28.802625,78.753728,PM10,38,118,77
India,Uttar_Pradesh,Noida,"Sector - 125, Noida - UPPCB",23-05-2024 09:00:00,28.5447608,77.3231257,NO2,NA,NA,NA
India,Uttar_Pradesh,Noida,"Sector - 125, Noida - UPPCB",23-05-2024 09:00:00,28.5447608,77.3231257,SO2,NA,NA,NA
India,Uttar_Pradesh,Noida,"Sector - 62, Noida - IMD",23-05-2024 09:00:00,28.6245479,77.3577104,CO,20,28,24
India,Uttar_Pradesh,Noida,"Sector-116, Noida - UPPCB",23-05-2024 09:00:00,28.569230,77.393848,NO2,13,26,18
India,Uttar_Pradesh,Prayagraj,"Jhunsi, Prayagraj - UPPCB",23-05-2024 09:00:00,25.425602,81.917152,PM10,44,121,70
India,Uttar_Pradesh,Prayagraj,"Jhunsi, Prayagraj - UPPCB",23-05-2024 09:00:00,25.425602,81.917152,NH3,5,5,5
India,Uttar_Pradesh,Prayagraj,"Motilal Nehru NIT, Prayagraj - UPPCB",23-05-2024 09:00:00,25.494,81.863,NH3,6,7,7
India,Uttar_Pradesh,Prayagraj,"Nagar Nigam, Prayagraj - UPPCB",23-05-2024 09:00:00,25.44919916 ,81.82735986 ,PM2.5,24,47,36
India,Uttar_Pradesh,Prayagraj,"Nagar Nigam, Prayagraj - UPPCB",23-05-2024 09:00:00,25.44919916 ,81.82735986 ,SO2,20,125,59
India,Uttar_Pradesh,Varanasi,"Ardhali Bazar, Varanasi - UPPCB",23-05-2024 09:00:00,25.3505986,82.9083074,PM2.5,12,51,23
India,Uttar_Pradesh,Varanasi,"Bhelupur, Varanasi - UPPCB",23-05-2024 09:00:00,25.301778,82.996789,NH3,1,1,1
India,Uttar_Pradesh,Varanasi,"IESD Banaras Hindu University, Varanasi - UPPCB",23-05-2024 09:00:00,25.262326,82.995408,PM10,11,36,18
India,Uttar_Pradesh,Varanasi,"IESD Banaras Hindu University, Varanasi - UPPCB",23-05-2024 09:00:00,25.262326,82.995408,NO2,2,2,2
India,Uttar_Pradesh,Varanasi,"IESD Banaras Hindu University, Varanasi - UPPCB",23-05-2024 09:00:00,25.262326,82.995408,SO2,19,21,19
India,Uttar_Pradesh,Varanasi,"Maldahiya, Varanasi - UPPCB",23-05-2024 09:00:00,25.32393,82.99687,OZONE,3,21,6
India,Uttar_Pradesh,Vrindavan,"Omex Eternity, Vrindavan - UPPCB",23-05-2024 09:00:00,27.5714090,77.6557570,PM2.5,24,45,32
India,Uttarakhand,Dehradun,"Doon University, Dehradun - UKPCB",23-05-2024 09:00:00,30.269444,78.044167,PM2.5,60,108,75
India,Uttarakhand,Dehradun,"Doon University, Dehradun - UKPCB",23-05-2024 09:00:00,30.269444,78.044167,NO2,1,4,2
India,Uttarakhand,Dehradun,"Doon University, Dehradun - UKPCB",23-05-2024 09:00:00,30.269444,78.044167,OZONE,28,80,40
India,Uttarakhand,Rishikesh,"Shivaji Nagar, Rishikesh - UKPCB",23-05-2024 09:00:00,30.075911,78.2859547,PM10,54,112,82
India,Uttarakhand,Rishikesh,"Shivaji Nagar, Rishikesh - UKPCB",23-05-2024 09:00:00,30.075911,78.2859547,SO2,1,4,2
India,West_Bengal,Asansol,"Asansol Court Area, Asansol - WBPCB",23-05-2024 09:00:00,23.685297,86.945968,PM10,43,125,79
India,West_Bengal,Asansol,"Asansol Court Area, Asansol - WBPCB",23-05-2024 09:00:00,23.685297,86.945968,SO2,12,14,13
India,West_Bengal,Barrackpore,"SVSPA Campus, Barrackpore - WBPCB",23-05-2024 09:00:00,22.7605581,88.3617589,PM10,21,102,54
India,West_Bengal,Durgapur,"PCBL Residential Complex, Durgapur - WBPCB",23-05-2024 09:00:00,23.5087640,87.3544400,NO2,11,82,36
India,West_Bengal,Durgapur,"Sidhu Kanhu Indoor Stadium, Durgapur - WBPCB",23-05-2024 09:00:00,23.5404352,87.2892225,NH3,4,5,5
India,West_Bengal,Haldia,"Priyambada Housing Estate, Haldia - WBPCB",23-05-2024 09:00:00,22.06047,88.109737,CO,12,52,36
India,West_Bengal,Haldia,"Priyambada Housing Estate, Haldia - WBPCB",23-05-2024 09:00:00,22.06047,88.109737,OZONE,21,31,25
India,West_Bengal,Howrah,"Belur Math, Howrah - WBPCB",23-05-2024 09:00:00,22.629801,88.352017,OZONE,12,38,16
India,West_Bengal,Howrah,"Ghusuri, Howrah - WBPCB",23-05-2024 09:00:00,22.611968,88.347422,NO2,15,27,23
India,West_Bengal,Howrah,"Ghusuri, Howrah - WBPCB",23-05-2024 09:00:00,22.611968,88.347422,OZONE,12,28,19
India,West_Bengal,Howrah,"Padmapukur, Howrah - WBPCB",23-05-2024 09:00:00,22.5687319,88.2797276,CO,5,58,29
India,West_Bengal,Kolkata,"Ballygunge, Kolkata - WBPCB",23-05-2024 09:00:00,22.5367507,88.3638022,SO2,2,9,6
India,West_Bengal,Kolkata,"Bidhannagar, Kolkata - WBPCB",23-05-2024 09:00:00,22.58157048,88.41002457,CO,19,53,24
India,West_Bengal,Kolkata,"Fort William, Kolkata - WBPCB",23-05-2024 09:00:00,22.556640,88.342674,SO2,7,9,7
India,West_Bengal,Kolkata,"Fort William, Kolkata - WBPCB",23-05-2024 09:00:00,22.556640,88.342674,OZONE,14,21,16
India,West_Bengal,Kolkata,"Jadavpur, Kolkata - WBPCB",23-05-2024 09:00:00,22.49929,88.36917,PM2.5,11,47,28
India,West_Bengal,Kolkata,"Jadavpur, Kolkata - WBPCB",23-05-2024 09:00:00,22.49929,88.36917,PM10,10,59,34
India,West_Bengal,Kolkata,"Rabindra Bharati University, Kolkata - WBPCB",23-05-2024 09:00:00,22.627847,88.380669,PM10,21,59,33
India,West_Bengal,Kolkata,"Rabindra Bharati University, Kolkata - WBPCB",23-05-2024 09:00:00,22.627847,88.380669,NH3,3,5,4
India,West_Bengal,Kolkata,"Rabindra Bharati University, Kolkata - WBPCB",23-05-2024 09:00:00,22.627847,88.380669,CO,20,68,23
India,West_Bengal,Kolkata,"Rabindra Sarobar, Kolkata - WBPCB",23-05-2024 09:00:00,22.51106,88.35142,NH3,7,8,7
India,West_Bengal,Kolkata,"Victoria, Kolkata - WBPCB",23-05-2024 09:00:00,22.5448082,88.3403691,PM2.5,18,59,36
India,West_Bengal,Kolkata,"Victoria, Kolkata - WBPCB",23-05-2024 09:00:00,22.5448082,88.3403691,PM10,22,80,45
India,West_Bengal,Siliguri,"Ward-32 Bapupara, Siliguri - WBPCB",23-05-2024 09:00:00,26.6879226,88.4152495,CO,8,56,18
India,West_Bengal,Siliguri,"Ward-32 Bapupara, Siliguri - WBPCB",23-05-2024 09:00:00,26.6879226,88.4152495,OZONE,13,39,17
India,Andhra_Pradesh,Amaravati,"Secretariat, Amaravati - APPCB",23-05-2024 09:00:00,16.5150833,80.5181667,PM10,10,31,17
India,Andhra_Pradesh,Amaravati,"Secretariat, Amaravati - APPCB",23-05-2024 09:00:00,16.5150833,80.5181667,OZONE,1,33,4
India,Andhra_Pradesh,Anantapur,"Gulzarpet, Anantapur - APPCB",23-05-2024 09:00:00,14.675886,77.593027,NH3,NA,NA,NA
India,Andhra_Pradesh,Anantapur,"Gulzarpet, Anantapur - APPCB",23-05-2024 09:00:00,14.675886,77.593027,SO2,NA,NA,NA
India,Andhra_Pradesh,Kadapa,"Yerramukkapalli, Kadapa - APPCB",23-05-2024 09:00:00,14.465052,78.824187,NH3,3,3,3
India,Andhra_Pradesh,Kadapa,"Yerramukkapalli, Kadapa - APPCB",23-05-2024 09:00:00,14.465052,78.824187,OZONE,10,10,10
India,Andhra_Pradesh,Rajamahendravaram,"Anand Kala Kshetram, Rajamahendravaram - APPCB",23-05-2024 09:00:00,16.9872867,81.7363176,PM2.5,5,42,18
India,Andhra_Pradesh,Tirupati,"Tirumala, Tirupati - APPCB",23-05-2024 09:00:00,13.67,79.35,PM10,12,45,29
India,Andhra_Pradesh,Tirupati,"Vaikuntapuram, Tirupati - APPCB",23-05-2024 09:00:00,13.615387,79.409230,PM10,13,16,14
India,Andhra_Pradesh,Tirupati,"Vaikuntapuram, Tirupati - APPCB",23-05-2024 09:00:00,13.615387,79.409230,NO2,11,19,15
India,Andhra_Pradesh,Vijayawada,"HB Colony, Vijayawada - APPCB",23-05-2024 09:00:00,16.536107,80.594233,PM10,62,87,67
India,Andhra_Pradesh,Vijayawada,"Kanuru, Vijayawada - APPCB",23-05-2024 09:00:00,16.486692,80.699436,NH3,1,1,1
India,Andhra_Pradesh,Vijayawada,"Kanuru, Vijayawada - APPCB",23-05-2024 09:00:00,16.486692,80.699436,OZONE,29,33,33
India,Andhra_Pradesh,Vijayawada,"Rajiv Gandhi Park, Vijayawada - APPCB",23-05-2024 09:00:00,16.509717,80.612222,PM10,35,57,45
India,Andhra_Pradesh,Visakhapatnam,"GVM Corporation, Visakhapatnam - APPCB",23-05-2024 09:00:00,17.72,83.3,PM2.5,2,27,10
India,Andhra_Pradesh,Visakhapatnam,"GVM Corporation, Visakhapatnam - APPCB",23-05-2024 09:00:00,17.72,83.3,CO,6,32,12
India,Arunachal_Pradesh,Naharlagun,"Naharlagun, Naharlagun - APSPCB",23-05-2024 09:00:00,27.103358,93.679645,OZONE,2,3,2
India,Assam,Guwahati,"IITG, Guwahati - PCBA",23-05-2024 09:00:00,26.2028636,91.70046436,OZONE,2,61,4
India,Assam,Guwahati,"LGBI Airport, Guwahati - PCBA",23-05-2024 09:00:00,26.10887,91.589544,CO,40,106,50
India,Assam,Guwahati,"Pan Bazaar, Guwahati - PCBA",23-05-2024 09:00:00,26.187500,91.744194,PM2.5,25,68,45
India,Assam,Guwahati,"Pan Bazaar, Guwahati - PCBA",23-05-2024 09:00:00,26.187500,91.744194,SO2,41,80,52
India,Assam,Guwahati,"Pan Bazaar, Guwahati - PCBA",23-05-2024 09:00:00,26.187500,91.744194,CO,18,62,36
India,Assam,Guwahati,"Railway Colony, Guwahati - PCBA",23-05-2024 09:00:00,26.181742,91.78063,PM2.5,34,324,151
India,Assam,Guwahati,"Railway Colony, Guwahati - PCBA",23-05-2024 09:00:00,26.181742,91.78063,CO,28,68,34
India,Assam,Nagaon,"Christianpatty, Nagaon - PCBA",23-05-2024 09:00:00,26.349082,92.68449,NO2,3,33,17
India,Assam,Nagaon,"Christianpatty, Nagaon - PCBA",23-05-2024 09:00:00,26.349082,92.68449,NH3,2,4,2
India,Assam,Silchar,"Tarapur, Silchar - PCBA",23-05-2024 09:00:00,24.82827,92.79525,CO,28,40,30
India,Bihar,Araria,"Kharahiya Basti, Araria - BSPCB",23-05-2024 09:00:00,26.146529,87.454184,NH3,NA,NA,NA
India,Bihar,Araria,"Kharahiya Basti, Araria - BSPCB",23-05-2024 09:00:00,26.146529,87.454184,SO2,NA,NA,NA
India,Bihar,Araria,"Kharahiya Basti, Araria - BSPCB",23-05-2024 09:00:00,26.146529,87.454184,CO,26,28,27
India,Bihar,Arrah,"New DM Office, Arrah - BSPCB",23-05-2024 09:00:00,25.5626095,84.663264,CO,10,30,19
India,Bihar,Aurangabad,"Gurdeo Nagar, Aurangabad - BSPCB",23-05-2024 09:00:00,24.75746,84.366208,NO2,3,8,5
India,Bihar,Bettiah,"Kamalnath Nagar, Bettiah - BSPCB",23-05-2024 09:00:00,26.80365,84.51954,SO2,NA,NA,NA
India,Bihar,Bhagalpur,"DM Office_Kachari Chowk, Bhagalpur - BSPCB",23-05-2024 09:00:00,25.251013,86.989001,NO2,43,73,58
India,Bihar,Bhagalpur,"Mayaganj, Bhagalpur - BSPCB",23-05-2024 09:00:00,25.265194,87.012947,PM10,32,117,78
India,Bihar,Bhagalpur,"Mayaganj, Bhagalpur - BSPCB",23-05-2024 09:00:00,25.265194,87.012947,NH3,7,9,8
India,Bihar,Bhagalpur,"Mayaganj, Bhagalpur - BSPCB",23-05-2024 09:00:00,25.265194,87.012947,SO2,11,12,12
India,Bihar,Bhagalpur,"Mayaganj, Bhagalpur - BSPCB",23-05-2024 09:00:00,25.265194,87.012947,CO,20,31,23
India,Bihar,Bihar Sharif,"D M Colony, Bihar Sharif - BSPCB",23-05-2024 09:00:00,25.204762,85.514960,PM2.5,NA,NA,NA
India,Bihar,Buxar,"Charitra Van, Buxar - BSPCB (Formerly known as Central Jail)",23-05-2024 09:00:00,25.567520,83.966379,CO,48,72,56
India,Bihar,Gaya,"Collectorate, Gaya - BSPCB",23-05-2024 09:00:00,24.7955,84.9994,SO2,3,15,9
India,Bihar,Gaya,"Collectorate, Gaya - BSPCB",23-05-2024 09:00:00,24.7955,84.9994,CO,4,121,114
India,Bihar,Gaya,"Kareemganj, Gaya - BSPCB",23-05-2024 09:00:00,24.792403,84.992416,PM10,11,52,30
India,Bihar,Gaya,"Kareemganj, Gaya - BSPCB",23-05-2024 09:00:00,24.792403,84.992416,CO,22,23,22
India,Bihar,Gaya,"Kareemganj, Gaya - BSPCB",23-05-2024 09:00:00,24.792403,84.992416,OZONE,7,26,17
India,Bihar,Hajipur,"Industrial Area, Hajipur - BSPCB",23-05-2024 09:00:00,25.697189,85.245900,PM2.5,42,194,90
India,Bihar,Hajipur,"Industrial Area, Hajipur - BSPCB",23-05-2024 09:00:00,25.697189,85.245900,OZONE,57,127,66
India,Bihar,Katihar,"Mirchaibari, Katihar - BSPCB",23-05-2024 09:00:00,25.560083,87.553265,PM2.5,13,50,29
India,Bihar,Katihar,"Mirchaibari, Katihar - BSPCB",23-05-2024 09:00:00,25.560083,87.553265,CO,2,54,17
India,Bihar,Kishanganj,"SDM Office_Khagra, Kishanganj - BSPCB",23-05-2024 09:00:00,26.0881305,87.93840336,PM10,NA,NA,NA
India,Bihar,Kishanganj,"SDM Office_Khagra, Kishanganj - BSPCB",23-05-2024 09:00:00,26.0881305,87.93840336,NO2,26,29,27
India,Bihar,Motihari,"Gandak Colony, Motihari - BSPCB",23-05-2024 09:00:00,26.63086,84.90051,NH3,3,10,7
India,Bihar,Munger,"Town Hall, Munger - BSPCB",23-05-2024 09:00:00,25.376776,86.471523,PM2.5,27,100,62
India,Bihar,Muzaffarpur,"Buddha Colony, Muzaffarpur - BSPCB",23-05-2024 09:00:00,26.11442,85.39813,PM10,24,84,61
India,Bihar,Muzaffarpur,"Muzaffarpur Collectorate, Muzaffarpur - BSPCB",23-05-2024 09:00:00,26.1209,85.3647,NO2,33,43,35
India,Bihar,Muzaffarpur,"Muzaffarpur Collectorate, Muzaffarpur - BSPCB",23-05-2024 09:00:00,26.1209,85.3647,OZONE,54,76,76
India,Bihar,Patna,"Govt. High School Shikarpur, Patna - BSPCB",23-05-2024 09:00:00,25.592539,85.227158,OZONE,NA,NA,NA
India,Bihar,Patna,"IGSC Planetarium Complex, Patna - BSPCB",23-05-2024 09:00:00,25.610369,85.132568,NO2,8,9,8
India,Bihar,Patna,"IGSC Planetarium Complex, Patna - BSPCB",23-05-2024 09:00:00,25.610369,85.132568,SO2,4,6,5
India,Bihar,Patna,"Muradpur, Patna - BSPCB",23-05-2024 09:00:00,25.619651,85.147382,PM2.5,46,315,144
India,Bihar,Patna,"Muradpur, Patna - BSPCB",23-05-2024 09:00:00,25.619651,85.147382,PM10,60,254,147
India,Bihar,Patna,"Muradpur, Patna - BSPCB",23-05-2024 09:00:00,25.619651,85.147382,NO2,9,204,39
India,Bihar,Patna,"Samanpura, Patna - BSPCB",23-05-2024 09:00:00,25.596727,85.085624,CO,32,48,36
India,Bihar,Rajgir,"Dangi Tola, Rajgir - BSPCB",23-05-2024 09:00:00,25.03280,85.41948,PM10,NA,NA,NA
India,Bihar,Saharsa,"Police Line, Saharsa - BSPCB",23-05-2024 09:00:00,25.892357,86.590325,SO2,16,17,16
India,Bihar,Samastipur,"DM Office_Kasipur, Samastipur - BSPCB",23-05-2024 09:00:00,25.859655,85.77944,NO2,4,5,4
India,Bihar,Samastipur,"DM Office_Kasipur, Samastipur - BSPCB",23-05-2024 09:00:00,25.859655,85.77944,OZONE,2,7,3
India,Bihar,Sasaram,"Dada Peer, Sasaram - BSPCB",23-05-2024 09:00:00,24.952822,84.002396,CO,44,108,58
India,Bihar,Siwan,"Chitragupta Nagar, Siwan - BSPCB",23-05-2024 09:00:00,26.2271665,84.3570427,NO2,6,21,13
India,Chandigarh,Chandigarh,"Sector 22, Chandigarh - CPCC",23-05-2024 09:00:00,30.735567,76.775714,NO2,10,61,28
India,Chandigarh,Chandigarh,"Sector-53, Chandigarh - CPCC",23-05-2024 09:00:00,30.719859,76.738637,NH3,NA,NA,NA
India,Chandigarh,Chandigarh,"Sector-53, Chandigarh - CPCC",23-05-2024 09:00:00,30.719859,76.738637,CO,38,75,42
India,Chandigarh,Chandigarh,"Sector-53, Chandigarh - CPCC",23-05-2024 09:00:00,30.719859,76.738637,OZONE,29,78,38
India,Chhattisgarh,Bhilai,"32Bungalows, Bhilai - CECB",23-05-2024 09:00:00,21.194815,81.314770,NH3,6,7,6
India,Chhattisgarh,Bhilai,"32Bungalows, Bhilai - CECB",23-05-2024 09:00:00,21.194815,81.314770,SO2,5,12,8
India,Chhattisgarh,Bhilai,"Civic Center, Bhilai - Bhilai Steel Plant",23-05-2024 09:00:00,21.185571,81.343175,NO2,9,18,13
India,Chhattisgarh,Bhilai,"Civic Center, Bhilai - Bhilai Steel Plant",23-05-2024 09:00:00,21.185571,81.343175,OZONE,7,77,12
India,Chhattisgarh,Bhilai,"Hathkhoj, Bhilai - CECB",23-05-2024 09:00:00,21.224231,81.408350,PM2.5,NA,NA,NA
India,Chhattisgarh,Bhilai,"Hathkhoj, Bhilai - CECB",23-05-2024 09:00:00,21.224231,81.408350,PM10,NA,NA,NA
India,Chhattisgarh,Bhilai,"Hathkhoj, Bhilai - CECB",23-05-2024 09:00:00,21.224231,81.408350,NH3,NA,NA,NA
India,Chhattisgarh,Bhilai,"Hathkhoj, Bhilai - CECB",23-05-2024 09:00:00,21.224231,81.408350,CO,NA,NA,NA
India,Chhattisgarh,Bilaspur,"Mangala, Bilaspur - NTPC",23-05-2024 09:00:00,22.08815,82.13737,PM10,32,91,52
India,Chhattisgarh,Bilaspur,"Mangala, Bilaspur - NTPC",23-05-2024 09:00:00,22.08815,82.13737,CO,38,44,41
India,Chhattisgarh,Chhal,"Nawapara SECL Colony, Chhal - CECB",23-05-2024 09:00:00,22.118125,83.140608,PM2.5,NA,NA,NA
India,Chhattisgarh,Korba,"Rampur, Korba - CECB",23-05-2024 09:00:00,22.368195,82.746431,OZONE,8,14,8
India,Chhattisgarh,Korba,"Urja Nagar, Korba - CECB",23-05-2024 09:00:00,22.348441,82.549611,PM10,NA,NA,NA
India,Chhattisgarh,Korba,"Urja Nagar, Korba - CECB",23-05-2024 09:00:00,22.348441,82.549611,NH3,1,16,7
India,Chhattisgarh,Korba,"Urja Nagar, Korba - CECB",23-05-2024 09:00:00,22.348441,82.549611,SO2,3,11,8
India,Chhattisgarh,Korba,"Urja Nagar, Korba - CECB",23-05-2024 09:00:00,22.348441,82.549611,OZONE,NA,NA,NA
India,Chhattisgarh,Raipur,"Siltara Phase-II, Raipur - CECB",23-05-2024 09:00:00,21.371751,81.664929,SO2,NA,NA,NA
India,Delhi,Delhi,"Alipur, Delhi - DPCC",23-05-2024 09:00:00,28.815329,77.153010,SO2,17,35,23
India,Delhi,Delhi,"Ashok Vihar, Delhi - DPCC",23-05-2024 09:00:00,28.695381,77.181665,PM2.5,47,127,91
India,Delhi,Delhi,"Aya Nagar, Delhi - IMD",23-05-2024 09:00:00,28.4706914,77.1099364,PM10,76,321,141
India,Delhi,Delhi,"Aya Nagar, Delhi - IMD",23-05-2024 09:00:00,28.4706914,77.1099364,NO2,10,19,14
India,Delhi,Delhi,"Bawana, Delhi - DPCC",23-05-2024 09:00:00,28.776200,77.051074,PM10,99,334,191
India,Delhi,Delhi,"DTU, Delhi - CPCB",23-05-2024 09:00:00,28.7500499,77.1112615,PM2.5,70,285,181
India,Delhi,Delhi,"DTU, Delhi - CPCB",23-05-2024 09:00:00,28.7500499,77.1112615,NO2,38,44,42
India,Delhi,Delhi,"Dr. Karni Singh Shooting Range, Delhi - DPCC",23-05-2024 09:00:00,28.498571,77.264840,NO2,18,30,23
India,Delhi,Delhi,"Dr. Karni Singh Shooting Range, Delhi - DPCC",23-05-2024 09:00:00,28.498571,77.264840,OZONE,75,265,101
India,Delhi,Delhi,"Dwarka-Sector 8, Delhi - DPCC ",23-05-2024 09:00:00,28.5710274,77.0719006,SO2,1,8,6
India,Delhi,Delhi,"IHBAS, Dilshad Garden, Delhi - CPCB",23-05-2024 09:00:00,28.6811736,77.3025234,NH3,NA,NA,NA
India,Delhi,Delhi,"ITO, Delhi - CPCB",23-05-2024 09:00:00,28.628624,77.241060,SO2,1,19,9
India,Delhi,Delhi,"Jahangirpuri, Delhi - DPCC",23-05-2024 09:00:00,28.732820,77.170633,CO,43,96,57
India,Delhi,Delhi,"Jahangirpuri, Delhi - DPCC",23-05-2024 09:00:00,28.732820,77.170633,OZONE,32,111,42
India,Delhi,Delhi,"Jawaharlal Nehru Stadium, Delhi - DPCC",23-05-2024 09:00:00,28.580280,77.233829,SO2,9,21,14
India,Delhi,Delhi,"Lodhi Road, Delhi - IITM",23-05-2024 09:00:00,28.588333,77.221667,PM2.5,46,244,112
India,Delhi,Delhi,"Lodhi Road, Delhi - IITM",23-05-2024 09:00:00,28.588333,77.221667,PM10,50,92,71
India,Delhi,Delhi,"Lodhi Road, Delhi - IMD",23-05-2024 09:00:00,28.5918245,77.2273074,PM10,75,161,126
India,Delhi,Delhi,"Najafgarh, Delhi - DPCC",23-05-2024 09:00:00,28.570173,76.933762,NO2,9,15,12
India,Delhi,Delhi,"Najafgarh, Delhi - DPCC",23-05-2024 09:00:00,28.570173,76.933762,SO2,7,21,16
India,Delhi,Delhi,"Narela, Delhi - DPCC",23-05-2024 09:00:00,28.822836,77.101981,PM10,113,260,179
India,Delhi,Delhi,"Narela, Delhi - DPCC",23-05-2024 09:00:00,28.822836,77.101981,NH3,4,11,7
India,Delhi,Delhi,"Nehru Nagar, Delhi - DPCC",23-05-2024 09:00:00,28.567890,77.250515,CO,36,74,55
India,Delhi,Delhi,"New Moti Bagh, Delhi - MHUA",23-05-2024 09:00:00,28.57834,77.18400,NO2,7,14,9
India,Delhi,Delhi,"North Campus, DU, Delhi - IMD",23-05-2024 09:00:00,28.6573814,77.1585447,CO,15,64,36
India,Delhi,Delhi,"Okhla Phase-2, Delhi - DPCC",23-05-2024 09:00:00,28.530785,77.271255,PM10,92,197,153
India,Delhi,Delhi,"Okhla Phase-2, Delhi - DPCC",23-05-2024 09:00:00,28.530785,77.271255,SO2,7,14,10
India,Delhi,Delhi,"Patparganj, Delhi - DPCC",23-05-2024 09:00:00,28.623763,77.287209,PM10,109,403,192
India,Delhi,Delhi,"Punjabi Bagh, Delhi - DPCC",23-05-2024 09:00:00,28.674045,77.131023,OZONE,35,125,49
India,Delhi,Delhi,"Pusa, Delhi - DPCC",23-05-2024 09:00:00,28.639652,77.146275,NO2,31,47,38
India,Delhi,Delhi,"Rohini, Delhi - DPCC",23-05-2024 09:00:00,28.732528,77.119920,NO2,21,83,42
India,Delhi,Delhi,"Rohini, Delhi - DPCC",23-05-2024 09:00:00,28.732528,77.119920,NH3,16,33,24
India,Delhi,Delhi,"Shadipur, Delhi - CPCB",23-05-2024 09:00:00,28.6514781,77.1473105,PM2.5,57,224,106
India,Delhi,Delhi,"Sirifort, Delhi - CPCB",23-05-2024 09:00:00,28.5504249,77.2159377,PM2.5,60,184,109
India,Delhi,Delhi,"Sirifort, Delhi - CPCB",23-05-2024 09:00:00,28.5504249,77.2159377,NH3,17,20,17
India,Delhi,Delhi,"Sonia Vihar, Delhi - DPCC",23-05-2024 09:00:00,28.710508,77.249485,SO2,12,28,17
India,Delhi,Delhi,"Sri Aurobindo Marg, Delhi - DPCC",23-05-2024 09:00:00,28.531346,77.190156,NH3,NA,NA,NA
India,Delhi,Delhi,"Vivek Vihar, Delhi - DPCC",23-05-2024 09:00:00,28.672342,77.315260,NH3,9,16,15
India,Delhi,Delhi,"Wazirpur, Delhi - DPCC",23-05-2024 09:00:00,28.699793,77.165453,CO,90,107,95
India,Delhi,Delhi,"Wazirpur, Delhi - DPCC",23-05-2024 09:00:00,28.699793,77.165453,OZONE,8,139,23
India,Gujarat,Ahmedabad,"Chandkheda, Ahmedabad - IITM",23-05-2024 09:00:00,23.107969,72.574648,OZONE,NA,NA,NA
India,Gujarat,Ahmedabad,"Gyaspur, Ahmedabad - IITM",23-05-2024 09:00:00,22.977134,72.553024,PM2.5,NA,NA,NA
India,Gujarat,Ahmedabad,"Gyaspur, Ahmedabad - IITM",23-05-2024 09:00:00,22.977134,72.553024,NO2,NA,NA,NA
India,Gujarat,Ahmedabad,"Gyaspur, Ahmedabad - IITM",23-05-2024 09:00:00,22.977134,72.553024,NH3,NA,NA,NA
India,Gujarat,Ahmedabad,"Maninagar, Ahmedabad - GPCB",23-05-2024 09:00:00,23.002657,72.591912,PM10,55,349,106
India,Gujarat,Ahmedabad,"Maninagar, Ahmedabad - GPCB",23-05-2024 09:00:00,23.002657,72.591912,OZONE,7,168,31
India,Gujarat,Ahmedabad,"Raikhad, Ahmedabad - IITM",23-05-2024 09:00:00,23.020509,72.579261,NO2,NA,NA,NA
India,Gujarat,Ahmedabad,"Raikhad, Ahmedabad - IITM",23-05-2024 09:00:00,23.020509,72.579261,SO2,NA,NA,NA
India,Gujarat,Ahmedabad,"Raikhad, Ahmedabad - IITM",23-05-2024 09:00:00,23.020509,72.579261,OZONE,NA,NA,NA
India,Gujarat,Ankleshwar,"GIDC, Ankleshwar - GPCB",23-05-2024 09:00:00,21.613267,73.010555,PM2.5,50,81,63
India,Gujarat,Gandhinagar,"Sector-10, Gandhinagar - GPCB",23-05-2024 09:00:00,23.221714,72.654328,NO2,NA,NA,NA
India,Gujarat,Gandhinagar,"Sector-10, Gandhinagar - GPCB",23-05-2024 09:00:00,23.221714,72.654328,NH3,NA,NA,NA
India,Gujarat,Surat,"Science Center, Surat - SMC",23-05-2024 09:00:00,21.170046,72.795405,PM10,NA,NA,NA
India,Gujarat,Surat,"Science Center, Surat - SMC",23-05-2024 09:00:00,21.170046,72.795405,NO2,15,29,23
India,Haryana,Bahadurgarh,"Arya Nagar, Bahadurgarh - HSPCB",23-05-2024 09:00:00,28.6701,76.9254,PM2.5,54,254,117
India,Haryana,Bhiwani,"H.B. Colony, Bhiwani - HSPCB",23-05-2024 09:00:00,28.806223,76.141105,SO2,2,50,10
India,Haryana,Charkhi Dadri,"Mini Secretariat, Charkhi Dadri - HSPCB",23-05-2024 09:00:00,28.593883,76.270653,SO2,10,37,22
India,Haryana,Dharuhera,"Municipal Corporation Office, Dharuhera -  HSPCB",23-05-2024 09:00:00,28.206800,76.799700,PM10,101,467,146
India,Haryana,Faridabad,"New Industrial Town, Faridabad - HSPCB",23-05-2024 09:00:00,28.39072,77.30059,PM10,85,336,181
India,Haryana,Faridabad,"New Industrial Town, Faridabad - HSPCB",23-05-2024 09:00:00,28.39072,77.30059,NH3,1,3,2
India,Haryana,Faridabad,"New Industrial Town, Faridabad - HSPCB",23-05-2024 09:00:00,28.39072,77.30059,OZONE,26,107,34
India,Haryana,Faridabad,"Sector 11, Faridabad - HSPCB",23-05-2024 09:00:00,28.376058,77.315741,OZONE,9,26,12
India,Haryana,Faridabad,"Sector 30, Faridabad - HSPCB",23-05-2024 09:00:00,28.4417,77.3217,PM2.5,NA,NA,NA
India,Haryana,Fatehabad,"Huda Sector, Fatehabad - HSPCB",23-05-2024 09:00:00,29.503664,75.467934,PM2.5,29,338,94
India,Haryana,Fatehabad,"Huda Sector, Fatehabad - HSPCB",23-05-2024 09:00:00,29.503664,75.467934,NO2,29,31,30
India,Haryana,Gurugram,"NISE Gwal Pahari, Gurugram - IMD",23-05-2024 09:00:00,28.422681,77.148944,OZONE,40,106,50
India,Haryana,Gurugram,"Sector-51, Gurugram - HSPCB",23-05-2024 09:00:00,28.4227,77.0667,NH3,1,14,6
India,Haryana,Gurugram,"Teri Gram, Gurugram - HSPCB",23-05-2024 09:00:00,28.4275,77.1465,PM10,170,308,228
India,Haryana,Gurugram,"Teri Gram, Gurugram - HSPCB",23-05-2024 09:00:00,28.4275,77.1465,NH3,17,29,21
India,Haryana,Gurugram,"Teri Gram, Gurugram - HSPCB",23-05-2024 09:00:00,28.4275,77.1465,SO2,4,7,6
India,Haryana,Gurugram,"Vikas Sadan, Gurugram - HSPCB",23-05-2024 09:00:00,28.4501238,77.0263051,SO2,8,67,26
India,Haryana,Hisar,"Urban Estate-II, Hisar - HSPCB",23-05-2024 09:00:00,29.140560,75.744941,NH3,8,11,10
India,Haryana,Jind,"Police Lines, Jind - HSPCB",23-05-2024 09:00:00,29.307814,76.337619,NO2,1,249,31
India,Haryana,Jind,"Police Lines, Jind - HSPCB",23-05-2024 09:00:00,29.307814,76.337619,CO,4,127,27
India,Haryana,Jind,"Police Lines, Jind - HSPCB",23-05-2024 09:00:00,29.307814,76.337619,OZONE,33,125,40
India,Haryana,Kaithal,"Rishi Nagar, Kaithal - HSPCB",23-05-2024 09:00:00,29.8006,76.4155,PM2.5,53,95,80
India,Haryana,Kaithal,"Rishi Nagar, Kaithal - HSPCB",23-05-2024 09:00:00,29.8006,76.4155,NO2,24,26,25
India,Haryana,Kaithal,"Rishi Nagar, Kaithal - HSPCB",23-05-2024 09:00:00,29.8006,76.4155,NH3,8,8,8
India,Haryana,Kaithal,"Rishi Nagar, Kaithal - HSPCB",23-05-2024 09:00:00,29.8006,76.4155,CO,28,52,31
India,Haryana,Karnal,"Sector-12, Karnal - HSPCB",23-05-2024 09:00:00,29.695300,77.002700,PM2.5,63,113,88
India,Haryana,Karnal,"Sector-12, Karnal - HSPCB",23-05-2024 09:00:00,29.695300,77.002700,NH3,10,13,11
India,Haryana,Manesar,"Sector-2 IMT, Manesar - HSPCB",23-05-2024 09:00:00,28.360699,76.936090,PM2.5,41,114,78
India,Haryana,Manesar,"Sector-2 IMT, Manesar - HSPCB",23-05-2024 09:00:00,28.360699,76.936090,NH3,2,4,3
India,Haryana,Manesar,"Sector-2 IMT, Manesar - HSPCB",23-05-2024 09:00:00,28.360699,76.936090,OZONE,30,86,37
India,Haryana,Narnaul,"Shastri Nagar, Narnaul - HSPCB",23-05-2024 09:00:00,28.060249,76.113115,NO2,15,84,48
India,Haryana,Narnaul,"Shastri Nagar, Narnaul - HSPCB",23-05-2024 09:00:00,28.060249,76.113115,CO,18,52,31
India,Haryana,Palwal,"Shyam Nagar, Palwal - HSPCB",23-05-2024 09:00:00,28.1485564,77.3320667,SO2,1,23,10
India,Haryana,Palwal,"Shyam Nagar, Palwal - HSPCB",23-05-2024 09:00:00,28.1485564,77.3320667,OZONE,10,49,20
India,Haryana,Panchkula,"Sector-6, Panchkula - HSPCB ",23-05-2024 09:00:00,30.7057778,76.8531805555555,NO2,9,12,10
India,Haryana,Panipat,"Sector-18, Panipat - HSPCB",23-05-2024 09:00:00,29.432304,76.972765,SO2,18,19,19
India,Haryana,Rohtak,"MD University, Rohtak - HSPCB",23-05-2024 09:00:00,28.52123,76.37138,PM2.5,50,264,130
India,Haryana,Sonipat,"Murthal, Sonipat - HSPCB",23-05-2024 09:00:00,29.027200,77.062100,PM10,78,149,118
India,Haryana,Sonipat,"Murthal, Sonipat - HSPCB",23-05-2024 09:00:00,29.027200,77.062100,OZONE,16,36,20
India,Haryana,Yamuna Nagar,"Gobind Pura, Yamuna Nagar - HSPCB",23-05-2024 09:00:00,30.1480566,77.2893471,OZONE,42,63,45
India,Jammu_and_Kashmir,Srinagar,"Rajbagh, Srinagar - JKSPCB",23-05-2024 09:00:00,34.066206,74.819820,PM10,NA,NA,NA
India,Jharkhand,Dhanbad,"Sardar Patel Nagar, Dhanbad - JSPCB",23-05-2024 09:00:00,23.80569,86.44268,NO2,NA,NA,NA
India,Jharkhand,Dhanbad,"Sardar Patel Nagar, Dhanbad - JSPCB",23-05-2024 09:00:00,23.80569,86.44268,OZONE,59,70,62
India,Jharkhand,Jorapokhar,"Tata Stadium, Jorapokhar - JSPCB",23-05-2024 09:00:00,23.707909,86.414670,PM10,NA,NA,NA
India,Karnataka,Belgaum,"Ramteerth Nagar, Belgaum - KSPCB",23-05-2024 09:00:00,15.888653,74.541751,SO2,9,9,9
India,Karnataka,Bengaluru,"Bapuji Nagar, Bengaluru - KSPCB",23-05-2024 09:00:00,12.951913,77.539784,SO2,6,9,7
India,Karnataka,Bengaluru,"Bapuji Nagar, Bengaluru - KSPCB",23-05-2024 09:00:00,12.951913,77.539784,CO,16,108,23
India,Karnataka,Bengaluru,"Hebbal, Bengaluru - KSPCB",23-05-2024 09:00:00,13.029152,77.585901,CO,6,32,14
India,Karnataka,Bengaluru,"Hebbal, Bengaluru - KSPCB",23-05-2024 09:00:00,13.029152,77.585901,OZONE,7,45,7
India,Karnataka,Bengaluru,"Hombegowda Nagar, Bengaluru - KSPCB",23-05-2024 09:00:00,12.938539,77.590100,PM10,17,63,29
India,Karnataka,Bengaluru,"Hombegowda Nagar, Bengaluru - KSPCB",23-05-2024 09:00:00,12.938539,77.590100,NH3,1,3,2
India,Karnataka,Bengaluru,"Hombegowda Nagar, Bengaluru - KSPCB",23-05-2024 09:00:00,12.938539,77.590100,SO2,3,6,4
India,Karnataka,Bengaluru,"Jayanagar 5th Block, Bengaluru - KSPCB",23-05-2024 09:00:00,12.920984,77.584908,PM10,16,86,48
India,Karnataka,Bengaluru,"Jayanagar 5th Block, Bengaluru - KSPCB",23-05-2024 09:00:00,12.920984,77.584908,NO2,15,36,20
India,Karnataka,Bengaluru,"Jayanagar 5th Block, Bengaluru - KSPCB",23-05-2024 09:00:00,12.920984,77.584908,SO2,15,25,19
India,Karnataka,Bengaluru,"Jayanagar 5th Block, Bengaluru - KSPCB",23-05-2024 09:00:00,12.920984,77.584908,CO,20,23,22
India,Karnataka,Bengaluru,"Peenya, Bengaluru - CPCB",23-05-2024 09:00:00,13.0270199,77.494094,PM10,42,52,47
India,Karnataka,Bengaluru,"Peenya, Bengaluru - CPCB",23-05-2024 09:00:00,13.0270199,77.494094,NO2,18,27,22
India,Karnataka,Bengaluru,"Sanegurava Halli, Bengaluru - KSPCB",23-05-2024 09:00:00,12.990328,77.5431385,SO2,2,3,3
India,Karnataka,Bengaluru,"Shivapura_Peenya, Bengaluru - KSPCB",23-05-2024 09:00:00,13.0246342,77.5080115,OZONE,53,55,55
India,Karnataka,Bengaluru,"Silk Board, Bengaluru - KSPCB",23-05-2024 09:00:00,12.917348,77.622813,PM2.5,12,44,24
India,Karnataka,Chamarajanagar,"Urban, Chamarajanagar - KSPCB",23-05-2024 09:00:00,11.55358,76.55521,PM10,35,55,43
India,Karnataka,Chamarajanagar,"Urban, Chamarajanagar - KSPCB",23-05-2024 09:00:00,11.55358,76.55521,SO2,2,8,4
India,Karnataka,Chamarajanagar,"Urban, Chamarajanagar - KSPCB",23-05-2024 09:00:00,11.55358,76.55521,CO,NA,NA,NA
India,Karnataka,Chikkaballapur,"Chikkaballapur Rural, Chikkaballapur - KSPCB",23-05-2024 09:00:00,13.428828,77.731418,NH3,1,1,1
India,Karnataka,Chikkaballapur,"Chikkaballapur Rural, Chikkaballapur - KSPCB",23-05-2024 09:00:00,13.428828,77.731418,SO2,7,14,10
India,Karnataka,Davanagere,"Devaraj Urs Badavane, Davanagere - KSPCB",23-05-2024 09:00:00,14.475800,75.905200,SO2,1,8,5
India,Karnataka,Gadag,"Panchal Nagar, Gadag - KSPCB",23-05-2024 09:00:00,15.411456,75.638133,NO2,2,26,13
India,Karnataka,Hassan,"B.Katihalli, Hassan - KSPCB",23-05-2024 09:00:00,13.008556,76.125258,PM2.5,NA,NA,NA
India,Karnataka,Hassan,"B.Katihalli, Hassan - KSPCB",23-05-2024 09:00:00,13.008556,76.125258,NO2,NA,NA,NA
India,Karnataka,Hassan,"B.Katihalli, Hassan - KSPCB",23-05-2024 09:00:00,13.008556,76.125258,CO,1,24,2
India,Karnataka,Haveri,"Ashwini Nagar, Haveri - KSPCB",23-05-2024 09:00:00,14.791800,75.389600,PM2.5,NA,NA,NA
India,Karnataka,Haveri,"Ashwini Nagar, Haveri - KSPCB",23-05-2024 09:00:00,14.791800,75.389600,NH3,NA,NA,NA
India,Karnataka,Hubballi,"Lingaraj Nagar, Hubballi - KSPCB",23-05-2024 09:00:00,15.3714823,75.1160168,SO2,1,15,4
India,Karnataka,Hubballi,"Lingaraj Nagar, Hubballi - KSPCB",23-05-2024 09:00:00,15.3714823,75.1160168,CO,8,35,29
India,Karnataka,Kalaburagi,"Lal Bahadur Shastri Nagar, Kalaburagi - KSPCB",23-05-2024 09:00:00,17.321993,76.822628,PM10,NA,NA,NA
India,Karnataka,Kalaburagi,"Lal Bahadur Shastri Nagar, Kalaburagi - KSPCB",23-05-2024 09:00:00,17.321993,76.822628,NH3,2,2,2
India,Karnataka,Kolar,"Tamaka Ind. Area, Kolar - KSPCB",23-05-2024 09:00:00,13.1276288,78.1570122,CO,4,13,5
India,Karnataka,Koppal,"Diwator Nagar, Koppal - KSPCB",23-05-2024 09:00:00,15.347630,76.181767,PM10,15,62,30
India,Karnataka,Koppal,"Diwator Nagar, Koppal - KSPCB",23-05-2024 09:00:00,15.347630,76.181767,NO2,32,68,50
India,Karnataka,Madikeri,"Stuart Hill, Madikeri - KSPCB",23-05-2024 09:00:00,12.415911,75.735050,NO2,2,13,5
India,Karnataka,Madikeri,"Stuart Hill, Madikeri - KSPCB",23-05-2024 09:00:00,12.415911,75.735050,NH3,1,2,1
India,Karnataka,Madikeri,"Stuart Hill, Madikeri - KSPCB",23-05-2024 09:00:00,12.415911,75.735050,OZONE,16,30,24
India,Karnataka,Mangalore,"Kadri, Mangalore - KSPCB",23-05-2024 09:00:00,12.889250,74.853000,PM10,44,102,67
India,Karnataka,Mangalore,"Kadri, Mangalore - KSPCB",23-05-2024 09:00:00,12.889250,74.853000,NH3,1,2,2
India,Karnataka,Shivamogga,"Vinoba Nagara, Shivamogga - KSPCB",23-05-2024 09:00:00,13.940000,75.555917,PM10,40,60,45
