country,state,city,station,last_update,latitude,longitude,pollutant_id,pollutant_min,pollutant_max,pollutant_avg
India,Andhra_Pradesh,Amaravati,"Secretariat, Amaravati - APPCB",30-01-2024 17:00:00,16.5150833,80.5181667,PM10,63,127,99
India,Andhra_Pradesh,Anantapur,"Gulzarpet, Anantapur - APPCB",30-01-2024 17:00:00,14.675886,77.593027,NO2,NA,NA,NA
India,Andhra_Pradesh,Anantapur,"Gulzarpet, Anantapur - APPCB",30-01-2024 17:00:00,14.675886,77.593027,SO2,1,12,5
India,Andhra_Pradesh,Chittoor,"Gangineni Cheruvu, Chittoor - APPCB",30-01-2024 17:00:00,13.204880,79.097889,PM10,30,98,54
India,Andhra_Pradesh,Chittoor,"Gangineni Cheruvu, Chittoor - APPCB",30-01-2024 17:00:00,13.204880,79.097889,NH3,1,3,2
India,Andhra_Pradesh,Kadapa,"Yerramukkapalli, Kadapa - APPCB",30-01-2024 17:00:00,14.465052,78.824187,SO2,1,2,2
India,Andhra_Pradesh,Tirupati,"Vaikuntapuram, Tirupati - APPCB",30-01-2024 17:00:00,13.615387,79.409230,PM2.5,20,37,28
India,Andhra_Pradesh,Tirupati,"Vaikuntapuram, Tirupati - APPCB",30-01-2024 17:00:00,13.615387,79.409230,NO2,16,28,20
India,Andhra_Pradesh,Tirupati,"Vaikuntapuram, Tirupati - APPCB",30-01-2024 17:00:00,13.615387,79.409230,SO2,4,5,5
India,Andhra_Pradesh,Vijayawada,"HB Colony, Vijayawada - APPCB",30-01-2024 17:00:00,16.536107,80.594233,PM2.5,NA,NA,NA
India,Andhra_Pradesh,Vijayawada,"HB Colony, Vijayawada - APPCB",30-01-2024 17:00:00,16.536107,80.594233,NH3,NA,NA,NA
India,Andhra_Pradesh,Vijayawada,"Rajiv Gandhi Park, Vijayawada - APPCB",30-01-2024 17:00:00,16.509717,80.612222,NO2,NA,NA,NA
India,Andhra_Pradesh,Visakhapatnam,"GVM Corporation, Visakhapatnam - APPCB",30-01-2024 17:00:00,17.72,83.3,PM2.5,57,305,150
India,Andhra_Pradesh,Visakhapatnam,"GVM Corporation, Visakhapatnam - APPCB",30-01-2024 17:00:00,17.72,83.3,PM10,69,366,158
India,Arunachal_Pradesh,Naharlagun,"Naharlagun, Naharlagun - APSPCB",30-01-2024 17:00:00,27.103358,93.679645,PM2.5,NA,NA,NA
India,Arunachal_Pradesh,Naharlagun,"Naharlagun, Naharlagun - APSPCB",30-01-2024 17:00:00,27.103358,93.679645,NO2,NA,NA,NA
India,Assam,Guwahati,"LGBI Airport, Guwahati - PCBA",30-01-2024 17:00:00,26.10887,91.589544,PM2.5,87,338,177
India,Assam,Guwahati,"LGBI Airport, Guwahati - PCBA",30-01-2024 17:00:00,26.10887,91.589544,PM10,78,391,167
India,Assam,Guwahati,"Pan Bazaar, Guwahati - PCBA",30-01-2024 17:00:00,26.187500,91.744194,PM2.5,64,330,254
India,Assam,Guwahati,"Pan Bazaar, Guwahati - PCBA",30-01-2024 17:00:00,26.187500,91.744194,SO2,57,99,70
India,Assam,Guwahati,"Railway Colony, Guwahati - PCBA",30-01-2024 17:00:00,26.181742,91.78063,SO2,19,28,23
India,Assam,Guwahati,"Railway Colony, Guwahati - PCBA",30-01-2024 17:00:00,26.181742,91.78063,CO,28,114,40
India,Assam,Nagaon,"Christianpatty, Nagaon - PCBA",30-01-2024 17:00:00,26.349082,92.68449,PM2.5,15,305,102
India,Assam,Nagaon,"Christianpatty, Nagaon - PCBA",30-01-2024 17:00:00,26.349082,92.68449,NO2,14,30,22
India,Assam,Nagaon,"Christianpatty, Nagaon - PCBA",30-01-2024 17:00:00,26.349082,92.68449,SO2,NA,NA,NA
India,Assam,Nalbari,"Bata Chowk, Nalbari - PCBA",30-01-2024 17:00:00,26.446912,91.439057,NH3,1,6,2
India,Assam,Nalbari,"Bata Chowk, Nalbari - PCBA",30-01-2024 17:00:00,26.446912,91.439057,CO,2,115,22
India,Assam,Silchar,"Tarapur, Silchar - PCBA",30-01-2024 17:00:00,24.82827,92.79525,NH3,1,1,1
India,Assam,Silchar,"Tarapur, Silchar - PCBA",30-01-2024 17:00:00,24.82827,92.79525,CO,28,38,31
India,Assam,Sivasagar,"Girls College, Sivasagar - PCBA",30-01-2024 17:00:00,26.987634,94.636574,NH3,3,3,3
India,Assam,Sivasagar,"Girls College, Sivasagar - PCBA",30-01-2024 17:00:00,26.987634,94.636574,SO2,4,6,5
India,Assam,Sivasagar,"Girls College, Sivasagar - PCBA",30-01-2024 17:00:00,26.987634,94.636574,OZONE,1,6,3
India,Bihar,Araria,"Kharahiya Basti, Araria - BSPCB",30-01-2024 17:00:00,26.146529,87.454184,PM10,NA,NA,NA
India,Bihar,Arrah,"New DM Office, Arrah - BSPCB",30-01-2024 17:00:00,25.5626095,84.663264,NO2,22,84,38
India,Bihar,Arrah,"New DM Office, Arrah - BSPCB",30-01-2024 17:00:00,25.5626095,84.663264,NH3,6,11,8
India,Bihar,Arrah,"New DM Office, Arrah - BSPCB",30-01-2024 17:00:00,25.5626095,84.663264,OZONE,13,31,19
India,Bihar,Bhagalpur,"DM Office_Kachari Chowk, Bhagalpur - BSPCB",30-01-2024 17:00:00,25.251013,86.989001,OZONE,25,48,33
India,Bihar,Bhagalpur,"Mayaganj, Bhagalpur - BSPCB",30-01-2024 17:00:00,25.265194,87.012947,NO2,2,18,9
India,Bihar,Bhagalpur,"Mayaganj, Bhagalpur - BSPCB",30-01-2024 17:00:00,25.265194,87.012947,CO,8,11,8
India,Bihar,Bihar Sharif,"D M Colony, Bihar Sharif - BSPCB",30-01-2024 17:00:00,25.204762,85.514960,CO,8,69,23
India,Bihar,Bihar Sharif,"D M Colony, Bihar Sharif - BSPCB",30-01-2024 17:00:00,25.204762,85.514960,OZONE,5,61,35
India,Bihar,Chhapra,"Darshan Nagar, Chhapra - BSPCB",30-01-2024 17:00:00,25.7808257,84.7446768,NO2,15,36,24
India,Bihar,Chhapra,"Darshan Nagar, Chhapra - BSPCB",30-01-2024 17:00:00,25.7808257,84.7446768,SO2,NA,NA,NA
India,Bihar,Gaya,"Collectorate, Gaya - BSPCB",30-01-2024 17:00:00,24.7955,84.9994,SO2,17,32,24
India,Bihar,Gaya,"Collectorate, Gaya - BSPCB",30-01-2024 17:00:00,24.7955,84.9994,CO,32,42,36
India,Bihar,Gaya,"Collectorate, Gaya - BSPCB",30-01-2024 17:00:00,24.7955,84.9994,OZONE,52,82,67
India,Bihar,Gaya,"Kareemganj, Gaya - BSPCB",30-01-2024 17:00:00,24.792403,84.992416,CO,1,103,48
India,Bihar,Gaya,"SFTI Kusdihra, Gaya - BSPCB",30-01-2024 17:00:00,24.762518,84.982348,OZONE,15,80,66
India,Bihar,Hajipur,"Industrial Area, Hajipur - BSPCB",30-01-2024 17:00:00,25.697189,85.245900,PM10,14,285,220
India,Bihar,Hajipur,"Industrial Area, Hajipur - BSPCB",30-01-2024 17:00:00,25.697189,85.245900,NO2,30,67,45
India,Bihar,Hajipur,"Industrial Area, Hajipur - BSPCB",30-01-2024 17:00:00,25.697189,85.245900,SO2,5,7,6
India,Bihar,Kishanganj,"SDM Office_Khagra, Kishanganj - BSPCB",30-01-2024 17:00:00,26.0881305,87.93840336,NH3,11,21,14
India,Bihar,Motihari,"Gandak Colony, Motihari - BSPCB",30-01-2024 17:00:00,26.63086,84.90051,NO2,57,133,93
India,Bihar,Motihari,"Gandak Colony, Motihari - BSPCB",30-01-2024 17:00:00,26.63086,84.90051,SO2,2,11,5
India,Bihar,Motihari,"Gandak Colony, Motihari - BSPCB",30-01-2024 17:00:00,26.63086,84.90051,OZONE,15,111,78
India,Bihar,Munger,"Town Hall, Munger - BSPCB",30-01-2024 17:00:00,25.376776,86.471523,SO2,29,46,39
India,Bihar,Munger,"Town Hall, Munger - BSPCB",30-01-2024 17:00:00,25.376776,86.471523,CO,55,123,89
India,Bihar,Munger,"Town Hall, Munger - BSPCB",30-01-2024 17:00:00,25.376776,86.471523,OZONE,9,13,11
India,Bihar,Muzaffarpur,"MIT-Daudpur Kothi, Muzaffarpur - BSPCB",30-01-2024 17:00:00,26.1403345,85.3650192,PM2.5,88,345,230
India,Bihar,Muzaffarpur,"Muzaffarpur Collectorate, Muzaffarpur - BSPCB",30-01-2024 17:00:00,26.1209,85.3647,SO2,4,9,7
India,Bihar,Muzaffarpur,"Muzaffarpur Collectorate, Muzaffarpur - BSPCB",30-01-2024 17:00:00,26.1209,85.3647,OZONE,21,83,52
India,Bihar,Patna,"DRM Office Danapur, Patna - BSPCB",30-01-2024 17:00:00,25.586562,85.043586,NH3,4,5,4
India,Bihar,Patna,"Govt. High School Shikarpur, Patna - BSPCB",30-01-2024 17:00:00,25.592539,85.227158,PM10,183,300,235
India,Bihar,Patna,"Govt. High School Shikarpur, Patna - BSPCB",30-01-2024 17:00:00,25.592539,85.227158,CO,26,117,56
India,Bihar,Patna,"IGSC Planetarium Complex, Patna - BSPCB",30-01-2024 17:00:00,25.610369,85.132568,CO,16,23,18
India,Bihar,Patna,"Samanpura, Patna - BSPCB",30-01-2024 17:00:00,25.596727,85.085624,SO2,16,18,16
India,Bihar,Purnia,"Mariam Nagar, Purnia - BSPCB",30-01-2024 17:00:00,25.366336,87.117468,PM2.5,167,476,338
India,Bihar,Rajgir,"Dangi Tola, Rajgir - BSPCB",30-01-2024 17:00:00,25.03280,85.41948,SO2,4,5,4
India,Bihar,Saharsa,"Police Line, Saharsa - BSPCB",30-01-2024 17:00:00,25.892357,86.590325,NO2,5,9,7
India,Bihar,Saharsa,"Police Line, Saharsa - BSPCB",30-01-2024 17:00:00,25.892357,86.590325,CO,6,29,17
India,Bihar,Samastipur,"DM Office_Kasipur, Samastipur - BSPCB",30-01-2024 17:00:00,25.859655,85.77944,NO2,1,12,5
India,Bihar,Sasaram,"Dada Peer, Sasaram - BSPCB",30-01-2024 17:00:00,24.952822,84.002396,NH3,5,8,7
India,Bihar,Sasaram,"Dada Peer, Sasaram - BSPCB",30-01-2024 17:00:00,24.952822,84.002396,OZONE,3,5,4
India,Bihar,Siwan,"Chitragupta Nagar, Siwan - BSPCB",30-01-2024 17:00:00,26.2271665,84.3570427,CO,78,192,107
India,Bihar,Siwan,"Chitragupta Nagar, Siwan - BSPCB",30-01-2024 17:00:00,26.2271665,84.3570427,OZONE,2,99,48
India,Chandigarh,Chandigarh,"Sector 22, Chandigarh - CPCC",30-01-2024 17:00:00,30.735567,76.775714,NH3,6,12,9
India,Chandigarh,Chandigarh,"Sector-25, Chandigarh - CPCC",30-01-2024 17:00:00,30.751462,76.762879,PM10,152,243,177
India,Chandigarh,Chandigarh,"Sector-25, Chandigarh - CPCC",30-01-2024 17:00:00,30.751462,76.762879,CO,35,84,61
India,Chhattisgarh,Bhilai,"32Bungalows, Bhilai - CECB",30-01-2024 17:00:00,21.194815,81.314770,PM2.5,32,81,59
India,Chhattisgarh,Bhilai,"Civic Center, Bhilai - Bhilai Steel Plant",30-01-2024 17:00:00,21.185571,81.343175,SO2,NA,NA,NA
India,Chhattisgarh,Bhilai,"Civic Center, Bhilai - Bhilai Steel Plant",30-01-2024 17:00:00,21.185571,81.343175,CO,33,48,41
India,Chhattisgarh,Bhilai,"Hathkhoj, Bhilai - CECB",30-01-2024 17:00:00,21.224231,81.408350,SO2,21,88,38
India,Chhattisgarh,Bilaspur,"Mangala, Bilaspur - NTPC",30-01-2024 17:00:00,22.08815,82.13737,SO2,5,32,14
India,Chhattisgarh,Chhal,"Nawapara SECL Colony, Chhal - CECB",30-01-2024 17:00:00,22.118125,83.140608,PM2.5,74,132,99
India,Chhattisgarh,Korba,"Rampur, Korba - CECB",30-01-2024 17:00:00,22.368195,82.746431,PM10,31,72,45
India,Chhattisgarh,Korba,"Urja Nagar, Korba - CECB",30-01-2024 17:00:00,22.348441,82.549611,NO2,NA,NA,NA
India,Chhattisgarh,Milupara,"Govt. Higher Secondary School, Milupara - CECB",30-01-2024 17:00:00,22.1910172,83.5197009,PM10,51,141,77
India,Chhattisgarh,Milupara,"Govt. Higher Secondary School, Milupara - CECB",30-01-2024 17:00:00,22.1910172,83.5197009,NH3,1,2,2
India,Chhattisgarh,Milupara,"Govt. Higher Secondary School, Milupara - CECB",30-01-2024 17:00:00,22.1910172,83.5197009,CO,32,66,44
India,Chhattisgarh,Milupara,"Govt. Higher Secondary School, Milupara - CECB",30-01-2024 17:00:00,22.1910172,83.5197009,OZONE,5,78,51
India,Chhattisgarh,Raipur,"AIIMS, Raipur - CECB",30-01-2024 17:00:00,21.258815,81.578979,PM10,52,116,76
India,Chhattisgarh,Raipur,"AIIMS, Raipur - CECB",30-01-2024 17:00:00,21.258815,81.578979,SO2,7,10,8
India,Chhattisgarh,Raipur,"AIIMS, Raipur - CECB",30-01-2024 17:00:00,21.258815,81.578979,OZONE,1,6,4
India,Chhattisgarh,Raipur,"Bhatagaon New ISBT, Raipur - CECB",30-01-2024 17:00:00,21.219665,81.630094,PM2.5,43,101,73
India,Chhattisgarh,Raipur,"Bhatagaon New ISBT, Raipur - CECB",30-01-2024 17:00:00,21.219665,81.630094,CO,34,103,49
India,Chhattisgarh,Raipur,"Krishak Nagar, Raipur - CECB",30-01-2024 17:00:00,21.237755,81.705301,NO2,22,36,30
India,Chhattisgarh,Raipur,"Krishak Nagar, Raipur - CECB",30-01-2024 17:00:00,21.237755,81.705301,NH3,1,1,1
India,Chhattisgarh,Raipur,"Siltara Phase-II, Raipur - CECB",30-01-2024 17:00:00,21.371751,81.664929,NO2,2,55,22
India,Chhattisgarh,Tumidih,"OP Jindal Industrial Park, Tumidih - CECB",30-01-2024 17:00:00,22.06631475,83.33820077,PM2.5,70,316,132
India,Delhi,Delhi,"Alipur, Delhi - DPCC",30-01-2024 17:00:00,28.815329,77.153010,NO2,26,78,42
India,Delhi,Delhi,"Alipur, Delhi - DPCC",30-01-2024 17:00:00,28.815329,77.153010,SO2,7,14,10
India,Delhi,Delhi,"Alipur, Delhi - DPCC",30-01-2024 17:00:00,28.815329,77.153010,CO,62,94,73
India,Delhi,Delhi,"Anand Vihar, Delhi - DPCC",30-01-2024 17:00:00,28.647622,77.3158090,PM2.5,355,485,419
India,Delhi,Delhi,"Ashok Vihar, Delhi - DPCC",30-01-2024 17:00:00,28.695381,77.181665,PM10,192,491,342
India,Delhi,Delhi,"Ashok Vihar, Delhi - DPCC",30-01-2024 17:00:00,28.695381,77.181665,NH3,11,13,12
India,Delhi,Delhi,"Aya Nagar, Delhi - IMD",30-01-2024 17:00:00,28.4706914,77.1099364,NO2,24,50,33
India,Delhi,Delhi,"Bawana, Delhi - DPCC",30-01-2024 17:00:00,28.776200,77.051074,PM10,114,422,250
India,Delhi,Delhi,"Bawana, Delhi - DPCC",30-01-2024 17:00:00,28.776200,77.051074,NO2,19,69,37
India,Delhi,Delhi,"Bawana, Delhi - DPCC",30-01-2024 17:00:00,28.776200,77.051074,SO2,5,12,8
India,Delhi,Delhi,"Bawana, Delhi - DPCC",30-01-2024 17:00:00,28.776200,77.051074,OZONE,3,33,7
India,Delhi,Delhi,"Burari Crossing, Delhi - IMD",30-01-2024 17:00:00,28.7256504,77.2011573,PM2.5,220,498,352
India,Delhi,Delhi,"Burari Crossing, Delhi - IMD",30-01-2024 17:00:00,28.7256504,77.2011573,NO2,4,46,11
India,Delhi,Delhi,"CRRI Mathura Road, Delhi - IMD",30-01-2024 17:00:00,28.5512005,77.2735737,PM2.5,256,422,349
India,Delhi,Delhi,"Dr. Karni Singh Shooting Range, Delhi - DPCC",30-01-2024 17:00:00,28.498571,77.264840,CO,81,122,104
India,Delhi,Delhi,"Dwarka-Sector 8, Delhi - DPCC ",30-01-2024 17:00:00,28.5710274,77.0719006,PM2.5,294,432,373
India,Delhi,Delhi,"IHBAS, Dilshad Garden, Delhi - CPCB",30-01-2024 17:00:00,28.6811736,77.3025234,SO2,2,60,15
India,Delhi,Delhi,"IHBAS, Dilshad Garden, Delhi - CPCB",30-01-2024 17:00:00,28.6811736,77.3025234,CO,36,110,67
India,Delhi,Delhi,"ITO, Delhi - CPCB",30-01-2024 17:00:00,28.628624,77.241060,PM2.5,263,451,376
India,Delhi,Delhi,"ITO, Delhi - CPCB",30-01-2024 17:00:00,28.628624,77.241060,OZONE,22,37,30
India,Delhi,Delhi,"Jahangirpuri, Delhi - DPCC",30-01-2024 17:00:00,28.732820,77.170633,NO2,54,115,72
India,Delhi,Delhi,"Jahangirpuri, Delhi - DPCC",30-01-2024 17:00:00,28.732820,77.170633,NH3,13,24,18
India,Delhi,Delhi,"Lodhi Road, Delhi - IMD",30-01-2024 17:00:00,28.5918245,77.2273074,NO2,7,11,8
India,Delhi,Delhi,"Major Dhyan Chand National Stadium, Delhi - DPCC",30-01-2024 17:00:00,28.611281,77.237738,NH3,7,17,14
India,Delhi,Delhi,"Major Dhyan Chand National Stadium, Delhi - DPCC",30-01-2024 17:00:00,28.611281,77.237738,CO,20,125,53
India,Delhi,Delhi,"Mandir Marg, Delhi - DPCC",30-01-2024 17:00:00,28.636429,77.201067,NO2,92,141,118
India,Delhi,Delhi,"Mundka, Delhi - DPCC",30-01-2024 17:00:00,28.684678,77.076574,PM2.5,302,431,363
India,Delhi,Delhi,"NSIT Dwarka, Delhi - CPCB",30-01-2024 17:00:00,28.60909,77.0325413,NO2,24,50,36
India,Delhi,Delhi,"NSIT Dwarka, Delhi - CPCB",30-01-2024 17:00:00,28.60909,77.0325413,NH3,9,13,11
India,Delhi,Delhi,"NSIT Dwarka, Delhi - CPCB",30-01-2024 17:00:00,28.60909,77.0325413,SO2,2,20,14
India,Delhi,Delhi,"NSIT Dwarka, Delhi - CPCB",30-01-2024 17:00:00,28.60909,77.0325413,CO,33,104,76
India,Delhi,Delhi,"Najafgarh, Delhi - DPCC",30-01-2024 17:00:00,28.570173,76.933762,PM2.5,147,378,272
India,Delhi,Delhi,"Najafgarh, Delhi - DPCC",30-01-2024 17:00:00,28.570173,76.933762,PM10,85,212,140
India,Delhi,Delhi,"Narela, Delhi - DPCC",30-01-2024 17:00:00,28.822836,77.101981,NO2,18,74,39
India,Delhi,Delhi,"Narela, Delhi - DPCC",30-01-2024 17:00:00,28.822836,77.101981,NH3,7,13,10
India,Delhi,Delhi,"Narela, Delhi - DPCC",30-01-2024 17:00:00,28.822836,77.101981,SO2,3,10,6
India,Delhi,Delhi,"Narela, Delhi - DPCC",30-01-2024 17:00:00,28.822836,77.101981,CO,84,104,98
India,Delhi,Delhi,"Nehru Nagar, Delhi - DPCC",30-01-2024 17:00:00,28.567890,77.250515,PM10,248,500,379
India,Delhi,Delhi,"New Moti Bagh, Delhi - MHUA",30-01-2024 17:00:00,28.57834,77.18400,PM2.5,281,484,371
India,Delhi,Delhi,"New Moti Bagh, Delhi - MHUA",30-01-2024 17:00:00,28.57834,77.18400,NO2,1,10,5
India,Delhi,Delhi,"North Campus, DU, Delhi - IMD",30-01-2024 17:00:00,28.6573814,77.1585447,PM2.5,NA,NA,NA
India,Delhi,Delhi,"North Campus, DU, Delhi - IMD",30-01-2024 17:00:00,28.6573814,77.1585447,CO,45,72,50
India,Delhi,Delhi,"Okhla Phase-2, Delhi - DPCC",30-01-2024 17:00:00,28.530785,77.271255,PM2.5,338,496,398
India,Delhi,Delhi,"Okhla Phase-2, Delhi - DPCC",30-01-2024 17:00:00,28.530785,77.271255,SO2,5,16,10
India,Delhi,Delhi,"Punjabi Bagh, Delhi - DPCC",30-01-2024 17:00:00,28.674045,77.131023,OZONE,10,28,16
India,Delhi,Delhi,"Rohini, Delhi - DPCC",30-01-2024 17:00:00,28.732528,77.119920,CO,54,103,81
India,Delhi,Delhi,"Rohini, Delhi - DPCC",30-01-2024 17:00:00,28.732528,77.119920,OZONE,2,51,11
India,Delhi,Delhi,"Shadipur, Delhi - CPCB",30-01-2024 17:00:00,28.6514781,77.1473105,NH3,14,24,17
India,Delhi,Delhi,"Shadipur, Delhi - CPCB",30-01-2024 17:00:00,28.6514781,77.1473105,SO2,9,19,14
India,Delhi,Delhi,"Shadipur, Delhi - CPCB",30-01-2024 17:00:00,28.6514781,77.1473105,CO,44,108,71
India,Delhi,Delhi,"Sonia Vihar, Delhi - DPCC",30-01-2024 17:00:00,28.710508,77.249485,CO,74,112,85
India,Delhi,Delhi,"Sonia Vihar, Delhi - DPCC",30-01-2024 17:00:00,28.710508,77.249485,OZONE,3,64,12
India,Delhi,Delhi,"Sri Aurobindo Marg, Delhi - DPCC",30-01-2024 17:00:00,28.531346,77.190156,NO2,23,144,64
India,Delhi,Delhi,"Sri Aurobindo Marg, Delhi - DPCC",30-01-2024 17:00:00,28.531346,77.190156,CO,62,99,77
India,Delhi,Delhi,"Sri Aurobindo Marg, Delhi - DPCC",30-01-2024 17:00:00,28.531346,77.190156,OZONE,1,21,9
India,Delhi,Delhi,"Wazirpur, Delhi - DPCC",30-01-2024 17:00:00,28.699793,77.165453,SO2,14,47,27
India,Gujarat,Ahmedabad,"Chandkheda, Ahmedabad - IITM",30-01-2024 17:00:00,23.107969,72.574648,PM10,76,144,104
India,Gujarat,Ahmedabad,"Chandkheda, Ahmedabad - IITM",30-01-2024 17:00:00,23.107969,72.574648,NH3,3,5,4
India,Gujarat,Ahmedabad,"Gyaspur, Ahmedabad - IITM",30-01-2024 17:00:00,22.977134,72.553024,PM2.5,52,467,133
India,Gujarat,Ahmedabad,"Maninagar, Ahmedabad - GPCB",30-01-2024 17:00:00,23.002657,72.591912,PM10,NA,NA,NA
India,Gujarat,Ahmedabad,"Maninagar, Ahmedabad - GPCB",30-01-2024 17:00:00,23.002657,72.591912,CO,18,40,25
India,Gujarat,Ahmedabad,"Raikhad, Ahmedabad - IITM",30-01-2024 17:00:00,23.020509,72.579261,PM10,NA,NA,NA
India,Gujarat,Ahmedabad,"Raikhad, Ahmedabad - IITM",30-01-2024 17:00:00,23.020509,72.579261,NH3,3,3,3
India,Gujarat,Ahmedabad,"Rakhial, Ahmedabad - IITM",30-01-2024 17:00:00,23.016834,72.625775,PM2.5,67,150,91
India,Gujarat,Ahmedabad,"Rakhial, Ahmedabad - IITM",30-01-2024 17:00:00,23.016834,72.625775,PM10,80,134,103
India,Gujarat,Ahmedabad,"Rakhial, Ahmedabad - IITM",30-01-2024 17:00:00,23.016834,72.625775,NO2,8,32,16
India,Gujarat,Ahmedabad,"Rakhial, Ahmedabad - IITM",30-01-2024 17:00:00,23.016834,72.625775,OZONE,1,50,34
India,Gujarat,Ahmedabad,"SAC ISRO Bopal, Ahmedabad - IITM",30-01-2024 17:00:00,23.041137,72.456691,PM2.5,52,338,164
India,Gujarat,Ahmedabad,"SAC ISRO Bopal, Ahmedabad - IITM",30-01-2024 17:00:00,23.041137,72.456691,PM10,50,194,110
India,Gujarat,Ahmedabad,"SAC ISRO Bopal, Ahmedabad - IITM",30-01-2024 17:00:00,23.041137,72.456691,CO,40,63,47
India,Gujarat,Ahmedabad,"SAC ISRO Bopal, Ahmedabad - IITM",30-01-2024 17:00:00,23.041137,72.456691,OZONE,13,20,18
India,Gujarat,Ahmedabad,"SVPI Airport Hansol, Ahmedabad - IITM",30-01-2024 17:00:00,23.076793,72.627874,PM2.5,69,219,132
India,Gujarat,Ahmedabad,"Sardar Vallabhbhai Patel Stadium, Ahmedabad - IITM",30-01-2024 17:00:00,23.043070,72.562968,NH3,3,3,3
India,Gujarat,Ankleshwar,"GIDC, Ankleshwar - GPCB",30-01-2024 17:00:00,21.613267,73.010555,SO2,20,53,37
India,Gujarat,Ankleshwar,"GIDC, Ankleshwar - GPCB",30-01-2024 17:00:00,21.613267,73.010555,OZONE,20,30,27
India,Gujarat,Gandhinagar,"GIFT City, Gandhinagar - IITM",30-01-2024 17:00:00,23.163798,72.677768,NH3,2,3,2
India,Gujarat,Gandhinagar,"GIFT City, Gandhinagar - IITM",30-01-2024 17:00:00,23.163798,72.677768,OZONE,2,25,18
India,Gujarat,Gandhinagar,"IIPHG Lekawada, Gandhinagar - IITM",30-01-2024 17:00:00,23.243639,72.68994,PM2.5,68,218,145
India,Gujarat,Gandhinagar,"IIPHG Lekawada, Gandhinagar - IITM",30-01-2024 17:00:00,23.243639,72.68994,PM10,71,141,101
India,Gujarat,Gandhinagar,"IIPHG Lekawada, Gandhinagar - IITM",30-01-2024 17:00:00,23.243639,72.68994,SO2,11,16,14
India,Gujarat,Gandhinagar,"Sector-10, Gandhinagar - GPCB",30-01-2024 17:00:00,23.221714,72.654328,SO2,13,15,14
India,Gujarat,Vapi,"Phase-1 GIDC, Vapi - GPCB",30-01-2024 17:00:00,20.362421,72.918013,PM2.5,80,372,239
India,Gujarat,Vapi,"Phase-1 GIDC, Vapi - GPCB",30-01-2024 17:00:00,20.362421,72.918013,OZONE,1,4,3
India,Gujarat,Vatva,"Phase-4 GIDC, Vatva - GPCB",30-01-2024 17:00:00,22.969611,72.643500,NO2,30,136,82
India,Haryana,Ambala,"Patti Mehar, Ambala - HSPCB",30-01-2024 17:00:00,30.379589,76.778328,PM2.5,59,180,111
India,Haryana,Ambala,"Patti Mehar, Ambala - HSPCB",30-01-2024 17:00:00,30.379589,76.778328,PM10,63,172,96
India,Haryana,Ambala,"Patti Mehar, Ambala - HSPCB",30-01-2024 17:00:00,30.379589,76.778328,SO2,1,13,6
India,Haryana,Ambala,"Patti Mehar, Ambala - HSPCB",30-01-2024 17:00:00,30.379589,76.778328,OZONE,27,42,36
India,Haryana,Ballabgarh,"Nathu Colony, Ballabgarh - HSPCB",30-01-2024 17:00:00,28.3419248,77.319699,PM2.5,212,400,326
India,Haryana,Ballabgarh,"Nathu Colony, Ballabgarh - HSPCB",30-01-2024 17:00:00,28.3419248,77.319699,NO2,11,13,13
India,Haryana,Ballabgarh,"Nathu Colony, Ballabgarh - HSPCB",30-01-2024 17:00:00,28.3419248,77.319699,SO2,5,24,13
India,Haryana,Bhiwani,"H.B. Colony, Bhiwani - HSPCB",30-01-2024 17:00:00,28.806223,76.141105,PM10,69,140,98
India,Haryana,Dharuhera,"Municipal Corporation Office, Dharuhera -  HSPCB",30-01-2024 17:00:00,28.206800,76.799700,NH3,9,26,18
India,Haryana,Faridabad,"New Industrial Town, Faridabad - HSPCB",30-01-2024 17:00:00,28.39072,77.30059,NH3,4,9,7
India,Haryana,Faridabad,"New Industrial Town, Faridabad - HSPCB",30-01-2024 17:00:00,28.39072,77.30059,OZONE,37,97,72
India,Haryana,Faridabad,"Sector 11, Faridabad - HSPCB",30-01-2024 17:00:00,28.376058,77.315741,NH3,6,6,6
India,Haryana,Faridabad,"Sector 30, Faridabad - HSPCB",30-01-2024 17:00:00,28.4417,77.3217,PM10,198,203,200
India,Haryana,Faridabad,"Sector 30, Faridabad - HSPCB",30-01-2024 17:00:00,28.4417,77.3217,NH3,9,9,9
India,Haryana,Faridabad,"Sector- 16A, Faridabad - HSPCB",30-01-2024 17:00:00,28.4088421,77.3099081,SO2,14,26,19
India,Haryana,Fatehabad,"Huda Sector, Fatehabad - HSPCB",30-01-2024 17:00:00,29.503664,75.467934,PM2.5,NA,NA,NA
India,Haryana,Gurugram,"Sector-51, Gurugram - HSPCB",30-01-2024 17:00:00,28.4227,77.0667,PM2.5,71,404,294
India,Haryana,Gurugram,"Teri Gram, Gurugram - HSPCB",30-01-2024 17:00:00,28.4275,77.1465,OZONE,10,36,20
India,Haryana,Gurugram,"Vikas Sadan, Gurugram - HSPCB",30-01-2024 17:00:00,28.4501238,77.0263051,OZONE,8,69,48
India,Haryana,Hisar,"Urban Estate-II, Hisar - HSPCB",30-01-2024 17:00:00,29.140560,75.744941,NO2,8,10,9
India,Haryana,Hisar,"Urban Estate-II, Hisar - HSPCB",30-01-2024 17:00:00,29.140560,75.744941,CO,40,98,72
India,Haryana,Hisar,"Urban Estate-II, Hisar - HSPCB",30-01-2024 17:00:00,29.140560,75.744941,OZONE,32,53,37
India,Haryana,Jind,"Police Lines, Jind - HSPCB",30-01-2024 17:00:00,29.307814,76.337619,SO2,2,10,5
India,Haryana,Kaithal,"Rishi Nagar, Kaithal - HSPCB",30-01-2024 17:00:00,29.8006,76.4155,SO2,8,121,39
India,Haryana,Karnal,"Sector-12, Karnal - HSPCB",30-01-2024 17:00:00,29.695300,77.002700,PM2.5,74,149,101
India,Haryana,Kurukshetra,"Sector-7, Kurukshetra - HSPCB",30-01-2024 17:00:00,29.966942,76.875879,NH3,4,5,5
India,Haryana,Kurukshetra,"Sector-7, Kurukshetra - HSPCB",30-01-2024 17:00:00,29.966942,76.875879,CO,36,84,41
India,Haryana,Manesar,"Sector-2 IMT, Manesar - HSPCB",30-01-2024 17:00:00,28.360699,76.936090,CO,41,62,45
India,Haryana,Narnaul,"Shastri Nagar, Narnaul - HSPCB",30-01-2024 17:00:00,28.060249,76.113115,PM2.5,49,272,125
India,Haryana,Panchkula,"Sector-6, Panchkula - HSPCB ",30-01-2024 17:00:00,30.7057778,76.8531805555555,SO2,11,12,12
India,Haryana,Panipat,"Sector-18, Panipat - HSPCB",30-01-2024 17:00:00,29.497973,76.993331,PM10,103,110,106
India,Haryana,Panipat,"Sector-18, Panipat - HSPCB",30-01-2024 17:00:00,29.497973,76.993331,CO,23,27,25
India,Haryana,Panipat,"Sector-18, Panipat - HSPCB",30-01-2024 17:00:00,29.497973,76.993331,OZONE,30,34,32
India,Haryana,Rohtak,"MD University, Rohtak - HSPCB",30-01-2024 17:00:00,28.52123,76.37138,SO2,5,8,7
India,Haryana,Sirsa,"F-Block, Sirsa - HSPCB",30-01-2024 17:00:00,29.536400,75.015800,NH3,12,13,13
India,Himachal Pradesh,Baddi,"HIMUDA Complex Phase-1, Baddi - HPPCB",30-01-2024 17:00:00,30.943887,76.801991,PM2.5,123,360,284
India,Jharkhand,Dhanbad,"Kalakusuma, Dhanbad - DMC",30-01-2024 17:00:00,23.811548,86.481238,PM2.5,NA,NA,NA
India,Jharkhand,Dhanbad,"Sardar Patel Nagar, Dhanbad - JSPCB",30-01-2024 17:00:00,23.80569,86.44268,CO,100,186,115
India,Jharkhand,Dhanbad,"Sardar Patel Nagar, Dhanbad - JSPCB",30-01-2024 17:00:00,23.80569,86.44268,OZONE,9,29,19
India,Jharkhand,Pathardih,"Mohalbani Ghat, Pathardih - DMC",30-01-2024 17:00:00,23.669880,86.411725,PM10,NA,NA,NA
India,Jharkhand,Pathardih,"Mohalbani Ghat, Pathardih - DMC",30-01-2024 17:00:00,23.669880,86.411725,SO2,NA,NA,NA
India,Karnataka,Bagalkot,"Vidayagiri, Bagalkot - KSPCB",30-01-2024 17:00:00,16.172806,75.659694,OZONE,34,50,46
India,Karnataka,Belgaum,"Ramteerth Nagar, Belgaum - KSPCB",30-01-2024 17:00:00,15.888653,74.541751,PM2.5,32,112,64
India,Karnataka,Belgaum,"Ramteerth Nagar, Belgaum - KSPCB",30-01-2024 17:00:00,15.888653,74.541751,PM10,51,104,69
India,Karnataka,Belgaum,"Ramteerth Nagar, Belgaum - KSPCB",30-01-2024 17:00:00,15.888653,74.541751,CO,44,57,48
India,Karnataka,Bengaluru,"BTM Layout, Bengaluru - CPCB",30-01-2024 17:00:00,12.9135218,77.5950804,SO2,5,12,11
India,Karnataka,Bengaluru,"Bapuji Nagar, Bengaluru - KSPCB",30-01-2024 17:00:00,12.951913,77.539784,PM10,70,133,103
India,Karnataka,Bengaluru,"Bapuji Nagar, Bengaluru - KSPCB",30-01-2024 17:00:00,12.951913,77.539784,NH3,1,1,1
India,Karnataka,Bengaluru,"Bapuji Nagar, Bengaluru - KSPCB",30-01-2024 17:00:00,12.951913,77.539784,CO,33,44,39
India,Karnataka,Bengaluru,"City Railway Station, Bengaluru - KSPCB",30-01-2024 17:00:00,12.9756843,77.5660749,PM10,63,91,71
India,Karnataka,Bengaluru,"Hebbal, Bengaluru - KSPCB",30-01-2024 17:00:00,13.029152,77.585901,PM10,59,117,95
India,Karnataka,Bengaluru,"Hebbal, Bengaluru - KSPCB",30-01-2024 17:00:00,13.029152,77.585901,SO2,NA,NA,NA
India,Karnataka,Bengaluru,"Hombegowda Nagar, Bengaluru - KSPCB",30-01-2024 17:00:00,12.938539,77.590100,PM10,64,115,86
India,Karnataka,Bengaluru,"Hombegowda Nagar, Bengaluru - KSPCB",30-01-2024 17:00:00,12.938539,77.590100,CO,16,24,20
India,Karnataka,Bengaluru,"Jayanagar 5th Block, Bengaluru - KSPCB",30-01-2024 17:00:00,12.920984,77.584908,SO2,16,28,22
India,Karnataka,Bengaluru,"Jigani, Bengaluru - KSPCB",30-01-2024 17:00:00,12.7816279,77.6299145,PM2.5,32,121,64
India,Karnataka,Bengaluru,"Jigani, Bengaluru - KSPCB",30-01-2024 17:00:00,12.7816279,77.6299145,CO,54,86,61
India,Karnataka,Bengaluru,"Peenya, Bengaluru - CPCB",30-01-2024 17:00:00,13.0270199,77.494094,NH3,NA,NA,NA
India,Karnataka,Bengaluru,"RVCE-Mailasandra, Bengaluru - KSPCB",30-01-2024 17:00:00,12.921418,77.502466,PM2.5,68,95,80
India,Karnataka,Bengaluru,"RVCE-Mailasandra, Bengaluru - KSPCB",30-01-2024 17:00:00,12.921418,77.502466,SO2,4,5,4
India,Karnataka,Bengaluru,"RVCE-Mailasandra, Bengaluru - KSPCB",30-01-2024 17:00:00,12.921418,77.502466,CO,45,77,59
India,Karnataka,Bengaluru,"Sanegurava Halli, Bengaluru - KSPCB",30-01-2024 17:00:00,12.990328,77.5431385,SO2,2,3,3
India,Karnataka,Bengaluru,"Silk Board, Bengaluru - KSPCB",30-01-2024 17:00:00,12.917348,77.622813,OZONE,29,31,30
India,Karnataka,Bidar,"Naubad, Bidar - KSPCB",30-01-2024 17:00:00,17.930306,77.482194,NH3,3,3,3
India,Karnataka,Chamarajanagar,"Urban, Chamarajanagar - KSPCB",30-01-2024 17:00:00,11.55358,76.55521,CO,18,120,45
India,Karnataka,Chikkaballapur,"Chikkaballapur Rural, Chikkaballapur - KSPCB",30-01-2024 17:00:00,13.428828,77.731418,PM2.5,55,144,87
India,Karnataka,Chikkamagaluru,"Kalyana Nagara, Chikkamagaluru - KSPCB",30-01-2024 17:00:00,13.328028,75.797056,NO2,18,27,21
India,Karnataka,Chikkamagaluru,"Kalyana Nagara, Chikkamagaluru - KSPCB",30-01-2024 17:00:00,13.328028,75.797056,NH3,3,5,4
India,Karnataka,Chikkamagaluru,"Kalyana Nagara, Chikkamagaluru - KSPCB",30-01-2024 17:00:00,13.328028,75.797056,OZONE,22,72,59
India,Karnataka,Davanagere,"Devaraj Urs Badavane, Davanagere - KSPCB",30-01-2024 17:00:00,14.475800,75.905200,NH3,1,1,1
India,Karnataka,Davanagere,"Devaraj Urs Badavane, Davanagere - KSPCB",30-01-2024 17:00:00,14.475800,75.905200,SO2,3,6,5
India,Karnataka,Davanagere,"Devaraj Urs Badavane, Davanagere - KSPCB",30-01-2024 17:00:00,14.475800,75.905200,OZONE,22,31,25
India,Karnataka,Dharwad,"Kalabhavan, Dharwad - KSPCB",30-01-2024 17:00:00,15.459706,75.008381,PM2.5,50,77,61
India,Karnataka,Dharwad,"Kalabhavan, Dharwad - KSPCB",30-01-2024 17:00:00,15.459706,75.008381,PM10,76,131,106
India,Karnataka,Dharwad,"Kalabhavan, Dharwad - KSPCB",30-01-2024 17:00:00,15.459706,75.008381,NH3,3,3,3
India,Karnataka,Gadag,"Panchal Nagar, Gadag - KSPCB",30-01-2024 17:00:00,15.411456,75.638133,OZONE,44,70,61
India,Karnataka,Hassan,"B.Katihalli, Hassan - KSPCB",30-01-2024 17:00:00,13.008556,76.125258,PM10,49,116,73
India,Karnataka,Hassan,"B.Katihalli, Hassan - KSPCB",30-01-2024 17:00:00,13.008556,76.125258,NH3,3,4,3
India,Karnataka,Haveri,"Ashwini Nagar, Haveri - KSPCB",30-01-2024 17:00:00,14.791800,75.389600,PM10,54,122,94
India,Karnataka,Haveri,"Ashwini Nagar, Haveri - KSPCB",30-01-2024 17:00:00,14.791800,75.389600,NH3,2,4,3
India,Karnataka,Hubballi,"Deshpande Nagar, Hubballi - KSPCB",30-01-2024 17:00:00,15.351773,75.140726,NH3,6,7,6
India,Karnataka,Hubballi,"Lingaraj Nagar, Hubballi - KSPCB",30-01-2024 17:00:00,15.3714823,75.1160168,NO2,16,16,16
India,Karnataka,Hubballi,"Lingaraj Nagar, Hubballi - KSPCB",30-01-2024 17:00:00,15.3714823,75.1160168,SO2,1,23,4
India,Karnataka,Kalaburagi,"Lal Bahadur Shastri Nagar, Kalaburagi - KSPCB",30-01-2024 17:00:00,17.321993,76.822628,NH3,2,2,2
India,Karnataka,Kalaburagi,"Mahatma Basaveswar Colony, Kalaburgi - KSPCB",30-01-2024 17:00:00,17.336318,76.847397,PM10,28,89,50
India,Karnataka,Kalaburagi,"Mahatma Basaveswar Colony, Kalaburgi - KSPCB",30-01-2024 17:00:00,17.336318,76.847397,NO2,16,21,18
India,Karnataka,Kalaburagi,"Mahatma Basaveswar Colony, Kalaburgi - KSPCB",30-01-2024 17:00:00,17.336318,76.847397,CO,40,122,44
India,Karnataka,Kalaburagi,"Mahatma Basaveswar Colony, Kalaburgi - KSPCB",30-01-2024 17:00:00,17.336318,76.847397,OZONE,1,33,24
India,Karnataka,Karwar,"KHB Colony, Karwar - KSPCB",30-01-2024 17:00:00,14.816666,74.141003,PM2.5,62,210,92
India,Karnataka,Karwar,"KHB Colony, Karwar - KSPCB",30-01-2024 17:00:00,14.816666,74.141003,CO,1,105,2
India,Karnataka,Kolar,"Tamaka Ind. Area, Kolar - KSPCB",30-01-2024 17:00:00,13.1276288,78.1570122,PM10,51,127,82
India,Karnataka,Kolar,"Tamaka Ind. Area, Kolar - KSPCB",30-01-2024 17:00:00,13.1276288,78.1570122,NH3,5,9,7
India,Karnataka,Koppal,"Diwator Nagar, Koppal - KSPCB",30-01-2024 17:00:00,15.347630,76.181767,PM2.5,30,99,53
India,Karnataka,Koppal,"Diwator Nagar, Koppal - KSPCB",30-01-2024 17:00:00,15.347630,76.181767,OZONE,26,78,60
India,Karnataka,Mangalore,"Kadri, Mangalore - KSPCB",30-01-2024 17:00:00,12.889250,74.853000,NH3,2,3,3
India,Karnataka,Mangalore,"Kadri, Mangalore - KSPCB",30-01-2024 17:00:00,12.889250,74.853000,SO2,17,20,19
India,Karnataka,Mysuru,"Hebbal 1st Stage, Mysuru - KSPCB",30-01-2024 17:00:00,12.21041,76.37376,PM2.5,36,73,53
India,Karnataka,Mysuru,"Hebbal 1st Stage, Mysuru - KSPCB",30-01-2024 17:00:00,12.21041,76.37376,PM10,51,88,70
India,Karnataka,Ramanagara,"Vijay Nagar, Ramanagara - KSPCB",30-01-2024 17:00:00,12.733409,77.298051,CO,4,121,13
India,Karnataka,Shivamogga,"Vinoba Nagara, Shivamogga - KSPCB",30-01-2024 17:00:00,13.940000,75.555917,PM10,49,84,63
India,Karnataka,Shivamogga,"Vinoba Nagara, Shivamogga - KSPCB",30-01-2024 17:00:00,13.940000,75.555917,CO,12,40,28
India,Karnataka,Yadgir,"Collector Office, Yadgir - KSPCB",30-01-2024 17:00:00,16.7602,77.1428,PM2.5,NA,NA,NA
India,Kerala,Eloor,"Udyogamandal, Eloor - Kerala PCB",30-01-2024 17:00:00,10.073232,76.302765,PM10,41,49,45
India,Kerala,Eloor,"Udyogamandal, Eloor - Kerala PCB",30-01-2024 17:00:00,10.073232,76.302765,NH3,1,1,1
India,Kerala,Eloor,"Udyogamandal, Eloor - Kerala PCB",30-01-2024 17:00:00,10.073232,76.302765,OZONE,3,10,7
India,Kerala,Kannur,"Thavakkara, Kannur - Kerala PCB",30-01-2024 17:00:00,11.875000,75.373200,NO2,6,7,6
India,Kerala,Kannur,"Thavakkara, Kannur - Kerala PCB",30-01-2024 17:00:00,11.875000,75.373200,SO2,5,6,5
India,Kerala,Kochi,"Vyttila, Kochi - Kerala PCB",30-01-2024 17:00:00,9.969447,76.321186,NO2,NA,NA,NA
India,Kerala,Kollam,"Polayathode, Kollam - Kerala PCB",30-01-2024 17:00:00,8.8787,76.6073,PM2.5,90,216,144
India,Kerala,Kollam,"Polayathode, Kollam - Kerala PCB",30-01-2024 17:00:00,8.8787,76.6073,SO2,1,15,4
India,Kerala,Kollam,"Polayathode, Kollam - Kerala PCB",30-01-2024 17:00:00,8.8787,76.6073,CO,10,44,18
India,Kerala,Thrissur,"Corporation Ground, Thrissur - Kerala PCB",30-01-2024 17:00:00,10.532400,76.215900,NO2,9,11,10
India,Madhya Pradesh,Bhopal,"Paryavaran Parisar, Bhopal - MPPCB",30-01-2024 17:00:00,23.210494,77.425409,PM2.5,48,347,146
India,Madhya Pradesh,Bhopal,"T T Nagar, Bhopal - MPPCB",30-01-2024 17:00:00,23.233584,77.400574,NO2,44,82,56
India,Madhya Pradesh,Dewas,"Bhopal Chauraha, Dewas - MPPCB",30-01-2024 17:00:00,22.9682591,76.064118,PM10,52,146,107
India,Madhya Pradesh,Dewas,"Bhopal Chauraha, Dewas - MPPCB",30-01-2024 17:00:00,22.9682591,76.064118,CO,17,42,24
India,Madhya Pradesh,Gwalior,"City Center, Gwalior - MPPCB",30-01-2024 17:00:00,26.203442,78.193251,NO2,20,85,36
India,Madhya Pradesh,Gwalior,"City Center, Gwalior - MPPCB",30-01-2024 17:00:00,26.203442,78.193251,NH3,7,10,9
India,Madhya Pradesh,Gwalior,"Deen Dayal Nagar, Gwalior - MPPCB",30-01-2024 17:00:00,26.259242,78.216432,NH3,7,15,11
India,Madhya Pradesh,Gwalior,"Maharaj Bada, Gwalior - MPPCB",30-01-2024 17:00:00,26.200388,78.147714,PM10,119,427,264
India,Madhya Pradesh,Gwalior,"Maharaj Bada, Gwalior - MPPCB",30-01-2024 17:00:00,26.200388,78.147714,NO2,21,123,61
India,Madhya Pradesh,Gwalior,"Maharaj Bada, Gwalior - MPPCB",30-01-2024 17:00:00,26.200388,78.147714,NH3,7,17,10
India,Madhya Pradesh,Indore,"Chhoti Gwaltoli, Indore - MPPCB",30-01-2024 17:00:00,22.4310,75.5213,PM2.5,43,312,152
India,Madhya Pradesh,Indore,"Chhoti Gwaltoli, Indore - MPPCB",30-01-2024 17:00:00,22.4310,75.5213,PM10,62,235,127
India,Madhya Pradesh,Indore,"Maguda Nagar, Indore - IMC",30-01-2024 17:00:00,22.7524,75.8872,PM2.5,39,255,107
India,Madhya Pradesh,Indore,"Maguda Nagar, Indore - IMC",30-01-2024 17:00:00,22.7524,75.8872,PM10,37,136,78
India,Madhya Pradesh,Indore,"Regional Park, Indore - IMC",30-01-2024 17:00:00,22.6780,75.8559,SO2,40,44,42
India,Madhya Pradesh,Indore,"Regional Park, Indore - IMC",30-01-2024 17:00:00,22.6780,75.8559,OZONE,4,12,9
India,Madhya Pradesh,Indore,"Residency Area, Indore - IMC",30-01-2024 17:00:00,22.7084,75.8815,PM10,31,146,73
India,Madhya Pradesh,Indore,"Residency Area, Indore - IMC",30-01-2024 17:00:00,22.7084,75.8815,SO2,23,26,24
India,Madhya Pradesh,Indore,"Residency Area, Indore - IMC",30-01-2024 17:00:00,22.7084,75.8815,CO,4,16,8
India,Madhya Pradesh,Jabalpur,"Govindh Bhavan Colony, Jabalpur - JMC",30-01-2024 17:00:00,23.163174,79.973061,PM10,52,101,80
India,Madhya Pradesh,Jabalpur,"Gupteshwar, Jabalpur - JMC",30-01-2024 17:00:00,23.142888,79.916147,NO2,9,67,29
India,Madhya Pradesh,Jabalpur,"Suhagi, Jabalpur - JMC",30-01-2024 17:00:00,23.218135,79.957770,NH3,3,4,4
India,Madhya Pradesh,Katni,"Gole Bazar, Katni - MPPCB",30-01-2024 17:00:00,23.50016,80.23284,PM2.5,49,131,78
India,Madhya Pradesh,Katni,"Gole Bazar, Katni - MPPCB",30-01-2024 17:00:00,23.50016,80.23284,CO,34,98,53
India,Madhya Pradesh,Maihar,"Sahilara, Maihar - KJS Cements",30-01-2024 17:00:00,24.2613009,80.7231783,CO,27,51,34
India,Madhya Pradesh,Mandideep,"Sector-D Industrial Area, Mandideep - MPPCB",30-01-2024 17:00:00,23.108440,77.511428,NO2,48,130,96
India,Madhya Pradesh,Mandideep,"Sector-D Industrial Area, Mandideep - MPPCB",30-01-2024 17:00:00,23.108440,77.511428,CO,20,107,34
India,Madhya Pradesh,Pithampur,"Sector-2 Industrial Area, Pithampur - MPPCB",30-01-2024 17:00:00,22.624758,75.675238,CO,36,88,41
India,Madhya Pradesh,Sagar,"Civil Lines, Sagar - MPPCB",30-01-2024 17:00:00,23.838586,78.759431,PM10,62,191,134
India,Madhya Pradesh,Sagar,"Civil Lines, Sagar - MPPCB",30-01-2024 17:00:00,23.838586,78.759431,NO2,12,21,15
India,Madhya Pradesh,Sagar,"Civil Lines, Sagar - MPPCB",30-01-2024 17:00:00,23.838586,78.759431,OZONE,39,50,45
India,Madhya Pradesh,Sagar,"Deen Dayal Nagar, Sagar - MPPCB",30-01-2024 17:00:00,23.8640158,78.80289321,PM10,40,107,74
India,Madhya Pradesh,Sagar,"Deen Dayal Nagar, Sagar - MPPCB",30-01-2024 17:00:00,23.8640158,78.80289321,NO2,23,24,24
India,Madhya Pradesh,Satna,"Bandhavgar Colony, Satna - Birla Cement",30-01-2024 17:00:00,24.58434363,80.8549414,PM2.5,12,43,18
India,Madhya Pradesh,Satna,"Bandhavgar Colony, Satna - Birla Cement",30-01-2024 17:00:00,24.58434363,80.8549414,CO,20,54,29
India,Madhya Pradesh,Singrauli,"Suryakiran Bhawan NCL, Singrauli - MPPCB",30-01-2024 17:00:00,24.108970,82.645580,NO2,4,18,11
India,Madhya Pradesh,Singrauli,"Suryakiran Bhawan NCL, Singrauli - MPPCB",30-01-2024 17:00:00,24.108970,82.645580,CO,41,109,63
India,Madhya Pradesh,Ujjain,"Mahakaleshwar Temple, Ujjain - MPPCB",30-01-2024 17:00:00,23.182719 ,75.768218 ,NO2,8,77,31
India,Maharashtra,Ahmednagar,"Tarakpur, Ahmednagar - MPCB",30-01-2024 17:00:00,19.10122,74.73339,PM10,56,293,129
India,Maharashtra,Ahmednagar,"Tarakpur, Ahmednagar - MPCB",30-01-2024 17:00:00,19.10122,74.73339,NO2,20,157,78
India,Maharashtra,Ahmednagar,"Tarakpur, Ahmednagar - MPCB",30-01-2024 17:00:00,19.10122,74.73339,NH3,2,4,3
India,Maharashtra,Akola,"Ramdaspeth, Akola - MPCB",30-01-2024 17:00:00,20.719516,77.000253,NH3,4,11,7
India,Maharashtra,Amravati,"Shivneri Colony, Amravati - MPCB",30-01-2024 17:00:00,20.9402359,77.7895248,NO2,24,102,55
India,Maharashtra,Amravati,"Shri Shivaji Science College, Amaravati - MPCB",30-01-2024 17:00:00,20.939198,77.765701,PM2.5,79,232,145
India,Maharashtra,Amravati,"Shri Shivaji Science College, Amaravati - MPCB",30-01-2024 17:00:00,20.939198,77.765701,CO,40,122,44
India,Maharashtra,Aurangabad,"MIDC Chilkalthana, Aurangabad - MPCB",30-01-2024 17:00:00,19.875620,75.387310,PM2.5,100,308,202
India,Maharashtra,Aurangabad,"MIDC Chilkalthana, Aurangabad - MPCB",30-01-2024 17:00:00,19.875620,75.387310,NH3,3,4,4
India,Maharashtra,Aurangabad,"MIDC Chilkalthana, Aurangabad - MPCB",30-01-2024 17:00:00,19.875620,75.387310,SO2,8,25,14
India,Maharashtra,Aurangabad,"More Chowk Waluj, Aurangabad - MPCB",30-01-2024 17:00:00,19.8389439,75.244448,PM10,65,161,108
India,Maharashtra,Aurangabad,"Rachnakar Colony, Aurangabad - MPCB",30-01-2024 17:00:00,19.863756,75.321188,NO2,21,131,65
India,Maharashtra,Bhiwandi,"Gokul Nagar, Bhiwandi - MPCB",30-01-2024 17:00:00,19.309073,73.057223,PM10,72,201,126
India,Maharashtra,Boisar,"Khaira, Boisar - MPCB",30-01-2024 17:00:00,19.786089,72.757971,PM2.5,NA,NA,NA
India,Maharashtra,Boisar,"Khaira, Boisar - MPCB",30-01-2024 17:00:00,19.786089,72.757971,NH3,NA,NA,NA
India,Maharashtra,Boisar,"Khaira, Boisar - MPCB",30-01-2024 17:00:00,19.786089,72.757971,CO,NA,NA,NA
India,Maharashtra,Chandrapur,"Chauhan Colony, Chandrapur - MPCB",30-01-2024 17:00:00,19.962900,79.298714,CO,24,28,25
India,Maharashtra,Dhule,"Deopur, Dhule - MPCB",30-01-2024 17:00:00,20.918946,74.776388,PM10,68,220,104
India,Maharashtra,Dhule,"Deopur, Dhule - MPCB",30-01-2024 17:00:00,20.918946,74.776388,SO2,2,29,11
India,Maharashtra,Jalgaon,"Prabhat Colony, Jalgaon - MPCB",30-01-2024 17:00:00,21.001264,75.565602,SO2,1,62,14
India,Maharashtra,Jalgaon,"Prabhat Colony, Jalgaon - MPCB",30-01-2024 17:00:00,21.001264,75.565602,OZONE,2,77,58
India,Maharashtra,Jalna,"Old MIDC, Jalna - MPCB",30-01-2024 17:00:00,19.854616,75.905894,PM10,110,211,155
India,Maharashtra,Jalna,"Old MIDC, Jalna - MPCB",30-01-2024 17:00:00,19.854616,75.905894,CO,34,50,37
India,Maharashtra,Kalyan,"Khadakpada, Kalyan - MPCB",30-01-2024 17:00:00,19.25292,73.142019,PM2.5,34,101,60
India,Maharashtra,Kalyan,"Khadakpada, Kalyan - MPCB",30-01-2024 17:00:00,19.25292,73.142019,CO,12,50,14
India,Maharashtra,Kolhapur,"Shivaji University, Kolhapur - MPCB",30-01-2024 17:00:00,16.6870449,74.2505872,PM10,107,260,148
India,Maharashtra,Kolhapur,"Shivaji University, Kolhapur - MPCB",30-01-2024 17:00:00,16.6870449,74.2505872,CO,70,119,82
India,Maharashtra,Kolhapur,"Sinchan Bhavan, Kolhapur - MPCB",30-01-2024 17:00:00,16.7143745,74.2426398,NO2,21,121,59
India,Maharashtra,Kolhapur,"Sinchan Bhavan, Kolhapur - MPCB",30-01-2024 17:00:00,16.7143745,74.2426398,NH3,7,8,7
India,Maharashtra,Kolhapur,"Sinchan Bhavan, Kolhapur - MPCB",30-01-2024 17:00:00,16.7143745,74.2426398,SO2,NA,NA,NA
India,Maharashtra,Latur,"Sawe Wadi, Latur - MPCB",30-01-2024 17:00:00,18.39963,76.57452,NH3,8,8,8
India,Maharashtra,Latur,"Sawe Wadi, Latur - MPCB",30-01-2024 17:00:00,18.39963,76.57452,CO,18,140,29
India,Maharashtra,Mira-Bhayandar,"Bhayandar West, Mira-Bhayandar - MPCB",30-01-2024 17:00:00,19.296481,72.840923,PM10,105,182,139
India,Maharashtra,Mira-Bhayandar,"Bhayandar West, Mira-Bhayandar - MPCB",30-01-2024 17:00:00,19.296481,72.840923,NH3,5,12,6
India,Maharashtra,Mumbai,"Bandra Kurla Complex, Mumbai - MPCB",30-01-2024 17:00:00,19.065931,72.862131,NH3,12,41,22
India,Maharashtra,Mumbai,"Borivali East, Mumbai - IITM",30-01-2024 17:00:00,19.23241,72.86895,NO2,37,136,69
India,Maharashtra,Mumbai,"Borivali East, Mumbai - IITM",30-01-2024 17:00:00,19.23241,72.86895,OZONE,3,63,38
India,Maharashtra,Mumbai,"Byculla, Mumbai - BMC",30-01-2024 17:00:00,18.9767,72.8380,PM2.5,73,197,108
India,Maharashtra,Mumbai,"Byculla, Mumbai - BMC",30-01-2024 17:00:00,18.9767,72.8380,NH3,1,7,4
India,Maharashtra,Mumbai,"Chakala-Andheri East, Mumbai - IITM",30-01-2024 17:00:00,19.11074,72.86084,NH3,NA,NA,NA
India,Maharashtra,Mumbai,"Chembur, Mumbai - MPCB",30-01-2024 17:00:00,19.0364585,72.8954371,PM2.5,72,159,105
India,Maharashtra,Mumbai,"Chembur, Mumbai - MPCB",30-01-2024 17:00:00,19.0364585,72.8954371,PM10,114,150,129
India,Maharashtra,Mumbai,"Chembur, Mumbai - MPCB",30-01-2024 17:00:00,19.0364585,72.8954371,SO2,2,14,6
India,Maharashtra,Mumbai,"Chhatrapati Shivaji Intl. Airport (T2), Mumbai - MPCB",30-01-2024 17:00:00,19.10078,72.87462,NH3,NA,NA,NA
India,Maharashtra,Mumbai,"Colaba, Mumbai - MPCB",30-01-2024 17:00:00,18.910000,72.820000,PM2.5,44,84,65
India,Maharashtra,Mumbai,"Colaba, Mumbai - MPCB",30-01-2024 17:00:00,18.910000,72.820000,OZONE,10,14,12
India,Maharashtra,Mumbai,"Kandivali East, Mumbai - MPCB",30-01-2024 17:00:00,19.205800,72.868200,CO,78,111,94
India,Maharashtra,Mumbai,"Kherwadi_Bandra East, Mumbai - MPCB",30-01-2024 17:00:00,19.0632143,72.8456324,PM10,75,126,96
India,Maharashtra,Mumbai,"Khindipada-Bhandup West, Mumbai - IITM",30-01-2024 17:00:00,19.1653323,72.922099,PM10,66,158,110
India,Maharashtra,Mumbai,"Kurla, Mumbai - MPCB",30-01-2024 17:00:00,19.0863,72.8888,NO2,14,44,29
India,Maharashtra,Mumbai,"Malad West, Mumbai - IITM",30-01-2024 17:00:00,19.19709,72.82204,NO2,NA,NA,NA
India,Maharashtra,Mumbai,"Malad West, Mumbai - IITM",30-01-2024 17:00:00,19.19709,72.82204,OZONE,NA,NA,NA
India,Maharashtra,Mumbai,"Mindspace-Malad West, Mumbai - MPCB",30-01-2024 17:00:00,19.1878657,72.8304069,NO2,7,63,24
India,Maharashtra,Mumbai,"Navy Nagar-Colaba, Mumbai - IITM",30-01-2024 17:00:00,18.897756,72.813320,SO2,7,87,29
India,Maharashtra,Mumbai,"Navy Nagar-Colaba, Mumbai - IITM",30-01-2024 17:00:00,18.897756,72.813320,CO,14,45,32
India,Maharashtra,Mumbai,"Powai, Mumbai - MPCB",30-01-2024 17:00:00,19.137500,72.915056,PM2.5,37,105,57
India,Maharashtra,Mumbai,"Powai, Mumbai - MPCB",30-01-2024 17:00:00,19.137500,72.915056,NH3,1,1,1
India,Maharashtra,Mumbai,"Sewri, Mumbai - BMC",30-01-2024 17:00:00,19.000084,72.856730,PM10,110,165,130
India,Maharashtra,Mumbai,"Shivaji Nagar, Mumbai - BMC",30-01-2024 17:00:00,19.060498,72.923356,PM10,NA,NA,NA
India,Maharashtra,Mumbai,"Shivaji Nagar, Mumbai - BMC",30-01-2024 17:00:00,19.060498,72.923356,CO,NA,NA,NA
India,Maharashtra,Mumbai,"Siddharth Nagar-Worli, Mumbai - IITM",30-01-2024 17:00:00,19.000083,72.813993,PM10,NA,NA,NA
India,Maharashtra,Mumbai,"Sion, Mumbai - MPCB",30-01-2024 17:00:00,19.047000,72.874600,NH3,1,2,1
India,Maharashtra,Mumbai,"Sion, Mumbai - MPCB",30-01-2024 17:00:00,19.047000,72.874600,OZONE,11,18,14
India,Maharashtra,Mumbai,"Vasai West, Mumbai - MPCB",30-01-2024 17:00:00,19.383200,72.820400,PM2.5,18,75,40
India,Maharashtra,Mumbai,"Vile Parle West, Mumbai - MPCB",30-01-2024 17:00:00,19.10861,72.83622,PM2.5,51,82,68
India,Maharashtra,Mumbai,"Worli, Mumbai - MPCB",30-01-2024 17:00:00,18.9936162,72.8128113,PM10,66,143,102
India,Maharashtra,Mumbai,"Worli, Mumbai - MPCB",30-01-2024 17:00:00,18.9936162,72.8128113,NO2,19,20,19
India,Maharashtra,Nagpur,"Ambazari, Nagpur - MPCB",30-01-2024 17:00:00,21.121801,79.04952,PM2.5,163,310,226
India,Maharashtra,Nagpur,"Opp GPO Civil Lines, Nagpur - MPCB",30-01-2024 17:00:00,21.152875,79.0517531,PM2.5,117,283,179
India,Maharashtra,Nagpur,"Opp GPO Civil Lines, Nagpur - MPCB",30-01-2024 17:00:00,21.152875,79.0517531,PM10,106,174,134
India,Maharashtra,Nagpur,"Ram Nagar, Nagpur - MPCB",30-01-2024 17:00:00,21.143383,79.048912,PM2.5,114,189,156
India,Maharashtra,Nagpur,"Ram Nagar, Nagpur - MPCB",30-01-2024 17:00:00,21.143383,79.048912,NH3,5,6,6
India,Maharashtra,Nanded,"Sneh Nagar, Nanded - MPCB",30-01-2024 17:00:00,19.173852,77.296291,NO2,33,122,69
India,Maharashtra,Nashik,"Gangapur Road, Nashik - MPCB",30-01-2024 17:00:00,20.0073285,73.7762427,PM10,90,161,115
India,Maharashtra,Nashik,"Gangapur Road, Nashik - MPCB",30-01-2024 17:00:00,20.0073285,73.7762427,CO,18,18,18
India,Maharashtra,Nashik,"Hirawadi, Nashik - MPCB",30-01-2024 17:00:00,20.021503,73.813844,NO2,3,82,37
India,Maharashtra,Nashik,"Hirawadi, Nashik - MPCB",30-01-2024 17:00:00,20.021503,73.813844,NH3,1,2,1
India,Maharashtra,Navi Mumbai,"Mahape, Navi Mumbai - MPCB",30-01-2024 17:00:00,19.1135051,73.008978,PM2.5,33,93,52
India,Maharashtra,Navi Mumbai,"Nerul, Navi Mumbai - MPCB",30-01-2024 17:00:00,19.008751,73.016620,NH3,3,6,5
India,Maharashtra,Navi Mumbai,"Sanpada, Navi Mumbai - MPCB",30-01-2024 17:00:00,19.0575752,73.0151367,SO2,14,77,36
India,Maharashtra,Navi Mumbai,"Sanpada, Navi Mumbai - MPCB",30-01-2024 17:00:00,19.0575752,73.0151367,CO,10,70,18
India,Maharashtra,Navi Mumbai,"Sector-19A Nerul, Navi Mumbai - IITM",30-01-2024 17:00:00,19.044,73.0325,NH3,7,56,24
India,Maharashtra,Navi Mumbai,"Sector-19A Nerul, Navi Mumbai - IITM",30-01-2024 17:00:00,19.044,73.0325,SO2,16,66,31
India,Maharashtra,Navi Mumbai,"Tondare-Taloja, Navi Mumbai - MPCB",30-01-2024 17:00:00,19.0630,73.1209,OZONE,6,175,166
India,Maharashtra,Pimpri-Chinchwad,"Park Street Wakad, Pimpri Chinchwad - MPCB",30-01-2024 17:00:00,18.59051,73.77946,NO2,72,145,98
India,Maharashtra,Pimpri-Chinchwad,"Park Street Wakad, Pimpri Chinchwad - MPCB",30-01-2024 17:00:00,18.59051,73.77946,OZONE,1,203,113
India,Maharashtra,Pune,"Bhosari, Pune - IITM",30-01-2024 17:00:00,18.640051,73.848956,OZONE,1,26,18
India,Maharashtra,Pune,"Karve Road, Pune - MPCB",30-01-2024 17:00:00,18.5011743,73.8165527,NO2,2,2,2
India,Maharashtra,Pune,"Karve Road, Pune - MPCB",30-01-2024 17:00:00,18.5011743,73.8165527,CO,62,70,70
India,Maharashtra,Pune,"Katraj Dairy, Pune - MPCB",30-01-2024 17:00:00,18.454450,73.854155,NO2,36,58,48
India,Maharashtra,Pune,"Katraj Dairy, Pune - MPCB",30-01-2024 17:00:00,18.454450,73.854155,NH3,2,7,5
India,Maharashtra,Pune,"Mhada Colony, Pune - IITM",30-01-2024 17:00:00,18.573040,73.927715,CO,28,97,42
India,Maharashtra,Pune,"Revenue Colony-Shivajinagar, Pune - IITM",30-01-2024 17:00:00,18.530085,73.849598,NO2,NA,NA,NA
India,Maharashtra,Pune,"Savitribai Phule Pune University, Pune - MPCB",30-01-2024 17:00:00,18.547056,73.826908,NH3,3,10,6
India,Maharashtra,Pune,"Savitribai Phule Pune University, Pune - MPCB",30-01-2024 17:00:00,18.547056,73.826908,CO,15,56,23
India,Maharashtra,Pune,"Transport Nagar-Nigdi, Pune - IITM",30-01-2024 17:00:00,18.664282,73.763966,PM2.5,36,128,79
India,Maharashtra,Pune,"Transport Nagar-Nigdi, Pune - IITM",30-01-2024 17:00:00,18.664282,73.763966,NO2,12,47,30
India,Maharashtra,Sangli,"Vijay Nagar, Sangli - MPCB",30-01-2024 17:00:00, 16.5038,74.3623,SO2,4,20,10
India,Maharashtra,Sangli,"Vijay Nagar, Sangli - MPCB",30-01-2024 17:00:00, 16.5038,74.3623,OZONE,1,80,58
India,Maharashtra,Solapur,"Dnyaneshwar Nagar, Solapur - MPCB",30-01-2024 17:00:00,17.6336264,75.9132495,NH3,14,82,26
India,Maharashtra,Solapur,"Dnyaneshwar Nagar, Solapur - MPCB",30-01-2024 17:00:00,17.6336264,75.9132495,CO,14,109,18
India,Maharashtra,Solapur,"Ratandeep Housing Society, Solapur - MPCB",30-01-2024 17:00:00,17.65439,75.90649,CO,14,161,19
India,Maharashtra,Thane,"Kasarvadavali, Thane - MPCB",30-01-2024 17:00:00,19.26777,72.97182,PM2.5,96,317,187
India,Maharashtra,Thane,"Kasarvadavali, Thane - MPCB",30-01-2024 17:00:00,19.26777,72.97182,PM10,123,203,149
India,Maharashtra,Ulhasnagar,"Sidhi Vinayak Nagar, Ulhasnagar - MPCB",30-01-2024 17:00:00,19.235581,73.159121,NO2,12,74,27
India,Maharashtra,Ulhasnagar,"Sidhi Vinayak Nagar, Ulhasnagar - MPCB",30-01-2024 17:00:00,19.235581,73.159121,OZONE,8,137,96
India,Maharashtra,Virar,"Bolinj, Virar - MPCB",30-01-2024 17:00:00,19.4458210,72.7988231,PM10,123,175,140
India,Manipur,Imphal,"DM College of Science, Imphal - Manipur PCB",30-01-2024 17:00:00,24.8207389,93.9423085,PM2.5,NA,NA,NA
India,Manipur,Imphal,"Manipur University, Imphal - Manipur PCB",30-01-2024 17:00:00,24.7524239,93.9286218,PM2.5,33,331,122
India,Meghalaya,Shillong,"Lumpyngngad, Shillong - Meghalaya PCB",30-01-2024 17:00:00,25.5586,91.8985,NH3,1,1,1
India,Mizoram,Aizawl,"Sikulpuikawn, Aizawl - Mizoram PCB",30-01-2024 17:00:00,23.7176342,92.7192841,NO2,1,5,1
India,Odisha,Angul,"Hakimapada, Angul - OSPCB",30-01-2024 17:00:00,20.832874,85.104082,NO2,23,71,42
India,Odisha,Balasore,"Kalidaspur, Balasore - OSPCB",30-01-2024 17:00:00,21.51161,86.89088,NH3,3,10,5
India,Odisha,Balasore,"Kalidaspur, Balasore - OSPCB",30-01-2024 17:00:00,21.51161,86.89088,SO2,18,43,30
India,Odisha,Barbil,"Forest Office, Barbil - OSPCB",30-01-2024 17:00:00,22.1166054,85.3945546,PM2.5,95,315,230
India,Odisha,Baripada,"Meher Colony, Baripada - OSPCB",30-01-2024 17:00:00,21.941841,86.728318,NO2,2,3,3
India,Odisha,Baripada,"Meher Colony, Baripada - OSPCB",30-01-2024 17:00:00,21.941841,86.728318,CO,37,50,40
India,Odisha,Bhubaneswar,"Lingraj Mandir, Bhubaneswar - OSPCB",30-01-2024 17:00:00,20.240790,85.836784,CO,22,96,48
India,Odisha,Bhubaneswar,"Patia, Bhubaneswar - OSPCB",30-01-2024 17:00:00,20.34652,85.81630,OZONE,14,130,99
India,Odisha,Bileipada,"Tata Township, Bileipada - OSPCB",30-01-2024 17:00:00,22.06156703,85.47409613,SO2,43,83,54
India,Odisha,Bileipada,"Tata Township, Bileipada - OSPCB",30-01-2024 17:00:00,22.06156703,85.47409613,OZONE,18,28,25
India,Odisha,Brajrajnagar,"GM Office, Brajrajnagar - OSPCB",30-01-2024 17:00:00,21.8004996,83.8396977,NO2,18,89,39
India,Odisha,Brajrajnagar,"GM Office, Brajrajnagar - OSPCB",30-01-2024 17:00:00,21.8004996,83.8396977,CO,57,116,80
India,Odisha,Cuttack,"CDA Area, Cuttack - OSPCB",30-01-2024 17:00:00,20.48891     ,85.84768     ,SO2,3,18,6
India,Odisha,Keonjhar,"Jagamohanpur, Keonjhar - OSPCB",30-01-2024 17:00:00,21.643900,85.599355,PM2.5,96,267,167
India,Odisha,Keonjhar,"Jagamohanpur, Keonjhar - OSPCB",30-01-2024 17:00:00,21.643900,85.599355,CO,12,34,17
India,Odisha,Nayagarh,"Dabuna, Nayagarh - OSPCB",30-01-2024 17:00:00,21.847279,85.416905,PM2.5,141,308,220
India,Odisha,Rairangpur,"Divisional Forest Office, Rairangpur - OSPCB",30-01-2024 17:00:00,22.265816,86.174829,PM2.5,106,241,158
India,Odisha,Rairangpur,"Divisional Forest Office, Rairangpur - OSPCB",30-01-2024 17:00:00,22.265816,86.174829,CO,22,52,27
India,Odisha,Rairangpur,"Divisional Forest Office, Rairangpur - OSPCB",30-01-2024 17:00:00,22.265816,86.174829,OZONE,7,94,64
India,Odisha,Rourkela,"Fertilizer Township, Rourkela - OSPCB",30-01-2024 17:00:00,22.18972222,84.86277778,PM2.5,140,342,244
India,Odisha,Rourkela,"Raghunathpali, Rourkela - OSPCB",30-01-2024 17:00:00,22.220833,84.809444,NO2,29,145,69
India,Odisha,Suakati,"OMC Colony, Suakati - OSPCB",30-01-2024 17:00:00,21.606865,85.510538,PM2.5,145,202,178
India,Odisha,Tensa,"Barsua Iron Ore Mines, Tensa - OSPCB",30-01-2024 17:00:00,21.869985,85.167016,NO2,NA,NA,NA
India,Odisha,Tensa,"Barsua Iron Ore Mines, Tensa - OSPCB",30-01-2024 17:00:00,21.869985,85.167016,NH3,NA,NA,NA
India,Puducherry,Puducherry,"Jawahar Nagar, Puducherry - PPCC",30-01-2024 17:00:00,11.9309,79.8027,NO2,8,63,25
India,Puducherry,Puducherry,"Jawahar Nagar, Puducherry - PPCC",30-01-2024 17:00:00,11.9309,79.8027,SO2,3,12,7
India,Punjab,Amritsar,"Golden Temple, Amritsar - PPCB",30-01-2024 17:00:00,31.620000,74.876512,PM10,66,176,126
India,Punjab,Bathinda,"Hardev Nagar, Bathinda - PPCB",30-01-2024 17:00:00,30.233011,74.907758,SO2,12,56,29
India,Punjab,Jalandhar,"Civil Line, Jalandhar - PPCB",30-01-2024 17:00:00,31.321907,75.578914,SO2,4,15,9
India,Punjab,Khanna,"Kalal Majra, Khanna - PPCB",30-01-2024 17:00:00,30.736056 ,76.209694,PM2.5,38,142,80
India,Punjab,Mandi Gobindgarh,"RIMT University, Mandi Gobindgarh - PPCB",30-01-2024 17:00:00,30.649961,76.331442,SO2,10,81,31
India,Punjab,Patiala,"Model Town, Patiala - PPCB",30-01-2024 17:00:00,30.349388,76.366642,SO2,1,33,16
India,Rajasthan,Ajmer,"Civil Lines,  Ajmer - RSPCB",30-01-2024 17:00:00,26.470859,74.646594,PM2.5,22,207,105
India,Rajasthan,Alwar,"Moti Doongri, Alwar - RSPCB",30-01-2024 17:00:00,27.554793,76.611536,PM2.5,77,270,159
India,Rajasthan,Alwar,"Moti Doongri, Alwar - RSPCB",30-01-2024 17:00:00,27.554793,76.611536,PM10,59,167,120
India,Rajasthan,Alwar,"Moti Doongri, Alwar - RSPCB",30-01-2024 17:00:00,27.554793,76.611536,NH3,6,22,10
India,Rajasthan,Banswara,"Rati Talai, Banswara - RSPCB",30-01-2024 17:00:00,23.555190,74.440010,NH3,3,8,7
India,Rajasthan,Banswara,"Rati Talai, Banswara - RSPCB",30-01-2024 17:00:00,23.555190,74.440010,SO2,5,26,12
India,Rajasthan,Banswara,"Rati Talai, Banswara - RSPCB",30-01-2024 17:00:00,23.555190,74.440010,CO,24,108,35
India,Rajasthan,Baran,"Bamboliya, Baran - RSPCB",30-01-2024 17:00:00,25.106006,76.469948,SO2,6,11,8
India,Rajasthan,Baran,"Bamboliya, Baran - RSPCB",30-01-2024 17:00:00,25.106006,76.469948,OZONE,4,116,81
India,Rajasthan,Barmer,"Railway Colony, Barmer - RSPCB",30-01-2024 17:00:00,25.747299,71.393989,PM10,61,371,128
India,Rajasthan,Barmer,"Railway Colony, Barmer - RSPCB",30-01-2024 17:00:00,25.747299,71.393989,NO2,14,85,36
India,Rajasthan,Barmer,"Railway Colony, Barmer - RSPCB",30-01-2024 17:00:00,25.747299,71.393989,SO2,6,16,11
India,Rajasthan,Barmer,"Railway Colony, Barmer - RSPCB",30-01-2024 17:00:00,25.747299,71.393989,OZONE,1,94,73
India,Rajasthan,Bharatpur,"Krishna Nagar, Bharatpur - RSPCB",30-01-2024 17:00:00,27.215415,77.50873,NO2,62,107,79
India,Rajasthan,Bharatpur,"Krishna Nagar, Bharatpur - RSPCB",30-01-2024 17:00:00,27.215415,77.50873,SO2,1,24,6
India,Rajasthan,Bharatpur,"Krishna Nagar, Bharatpur - RSPCB",30-01-2024 17:00:00,27.215415,77.50873,OZONE,6,130,46
India,Rajasthan,Bhilwara,"Pratap Nagar, Bhilwara - RSPCB",30-01-2024 17:00:00,25.339605,74.618883,NH3,NA,NA,NA
India,Rajasthan,Bhiwadi,"RIICO Ind. Area III, Bhiwadi - RSPCB",30-01-2024 17:00:00,28.194909,76.862296,PM2.5,96,363,273
India,Rajasthan,Bhiwadi,"RIICO Ind. Area III, Bhiwadi - RSPCB",30-01-2024 17:00:00,28.194909,76.862296,PM10,95,272,173
India,Rajasthan,Bhiwadi,"RIICO Ind. Area III, Bhiwadi - RSPCB",30-01-2024 17:00:00,28.194909,76.862296,NO2,22,34,27
India,Rajasthan,Bikaner,"MM Ground, Bikaner - RSPCB",30-01-2024 17:00:00,28.018792,73.292658,PM10,141,425,285
India,Rajasthan,Bikaner,"MM Ground, Bikaner - RSPCB",30-01-2024 17:00:00,28.018792,73.292658,NO2,26,114,58
India,Rajasthan,Bundi,"New Colony, Bundi - RSPCB",30-01-2024 17:00:00,25.435774,75.644272,CO,36,112,55
India,Rajasthan,Churu,"Subash Chowk, Churu - RSPCB",30-01-2024 17:00:00,28.296139,74.961696,PM2.5,77,376,269
India,Rajasthan,Churu,"Subash Chowk, Churu - RSPCB",30-01-2024 17:00:00,28.296139,74.961696,NH3,14,33,18
India,Rajasthan,Churu,"Subash Chowk, Churu - RSPCB",30-01-2024 17:00:00,28.296139,74.961696,CO,35,113,72
India,Rajasthan,Dholpur,"Raja Ganj, Dholpur - RSPCB",30-01-2024 17:00:00,26.699557,77.898881,PM2.5,297,420,367
India,Rajasthan,Dungarpur,"Bhoiwada, Dungarpur - RSPCB",30-01-2024 17:00:00,23.837789,73.714926,PM10,68,183,116
India,Rajasthan,Hanumangarh,"Housing Board, Hanumangarh - RSPCB",30-01-2024 17:00:00,29.610750,74.283608,PM10,127,421,220
India,Rajasthan,Hanumangarh,"Housing Board, Hanumangarh - RSPCB",30-01-2024 17:00:00,29.610750,74.283608,CO,34,105,61
India,Rajasthan,Jaipur,"Adarsh Nagar, Jaipur - RSPCB",30-01-2024 17:00:00,26.902909,75.836858,NH3,3,13,6
India,Rajasthan,Jaipur,"Mansarovar Sector-12, Jaipur - RSPCB",30-01-2024 17:00:00,26.843698,75.766894,CO,30,112,62
India,Rajasthan,Jaipur,"Police Commissionerate, Jaipur - RSPCB",30-01-2024 17:00:00,26.9164092,75.7994901,PM2.5,NA,NA,NA
India,Rajasthan,Jaipur,"Police Commissionerate, Jaipur - RSPCB",30-01-2024 17:00:00,26.9164092,75.7994901,NH3,15,19,17
India,Rajasthan,Jaipur,"RIICO Sitapura, Jaipur - RSPCB",30-01-2024 17:00:00,26.786682,75.827928,PM2.5,83,393,293
India,Rajasthan,Jaipur,"RIICO Sitapura, Jaipur - RSPCB",30-01-2024 17:00:00,26.786682,75.827928,NH3,3,9,5
India,Rajasthan,Jaipur,"Sector-2 Murlipura, Jaipur - RSPCB",30-01-2024 17:00:00,26.960669,75.771817,PM2.5,63,416,276
India,Rajasthan,Jaipur,"Sector-2 Murlipura, Jaipur - RSPCB",30-01-2024 17:00:00,26.960669,75.771817,SO2,8,36,15
India,Rajasthan,Jaipur,"Shastri Nagar, Jaipur - RSPCB",30-01-2024 17:00:00,26.9502929,75.730943,CO,30,110,67
India,Rajasthan,Jaisalmer,"Sadar Bazar, Jaisalmer - RSPCB",30-01-2024 17:00:00,26.912329,70.909168,SO2,6,44,11
India,Rajasthan,Jaisalmer,"Sadar Bazar, Jaisalmer - RSPCB",30-01-2024 17:00:00,26.912329,70.909168,OZONE,60,104,71
India,Rajasthan,Jhalawar,"Rajlaxmi Nagar, Jhalawar - RSPCB",30-01-2024 17:00:00,24.588397,76.172782,SO2,5,12,7
India,Rajasthan,Jhunjhunu,"Indra Nagar, Jhunjhunu - RSPCB",30-01-2024 17:00:00,28.108988,75.386577,CO,34,110,76
India,Rajasthan,Jodhpur,"Jhalamand, Jodhpur - RSPCB",30-01-2024 17:00:00,26.215415,73.070156,PM2.5,40,156,86
India,Rajasthan,Jodhpur,"Jhalamand, Jodhpur - RSPCB",30-01-2024 17:00:00,26.215415,73.070156,CO,23,83,35
India,Rajasthan,Karauli,"Satyawati Vihar, Karauli - RSPCB",30-01-2024 17:00:00,26.506177,77.025989,PM2.5,227,428,352
India,Rajasthan,Karauli,"Satyawati Vihar, Karauli - RSPCB",30-01-2024 17:00:00,26.506177,77.025989,CO,24,94,47
India,Rajasthan,Kota,"Dhanmandi, Kota - RSPCB",30-01-2024 17:00:00,25.164090,75.858137,NH3,5,22,7
India,Rajasthan,Kota,"Dhanmandi, Kota - RSPCB",30-01-2024 17:00:00,25.164090,75.858137,OZONE,13,99,58
India,Rajasthan,Kota,"Nayapura, Kota - RSPCB",30-01-2024 17:00:00,25.196024,75.855668,SO2,5,46,12
India,Rajasthan,Nagaur,"Karni Colony, Nagaur - RSPCB",30-01-2024 17:00:00,27.213494,73.734444,OZONE,37,61,51
India,Rajasthan,Pali,"Indira Colony Vistar, Pali - RSPCB",30-01-2024 17:00:00,25.771061, 73.340227,OZONE,8,59,40
India,Rajasthan,Sawai Madhopur,"Sahu Nagar, Sawai Madhopur - RSPCB",30-01-2024 17:00:00,26.031443,76.359327,PM10,106,393,202
India,Rajasthan,Sikar,"Radhakishan Pura, Sikar - RSPCB",30-01-2024 17:00:00,27.608912,75.153302,PM2.5,64,400,220
India,Rajasthan,Sikar,"Radhakishan Pura, Sikar - RSPCB",30-01-2024 17:00:00,27.608912,75.153302,PM10,106,300,152
India,Rajasthan,Sirohi,"Vedhaynath Colony, Sirohi - RSPCB",30-01-2024 17:00:00,24.885261,72.857549,NO2,11,98,49
India,Rajasthan,Sirohi,"Vedhaynath Colony, Sirohi - RSPCB",30-01-2024 17:00:00,24.885261,72.857549,SO2,1,18,5
India,Rajasthan,Sirohi,"Vedhaynath Colony, Sirohi - RSPCB",30-01-2024 17:00:00,24.885261,72.857549,OZONE,1,123,77
India,Rajasthan,Sri Ganganagar,"Old City, Sri Ganganagar - RSPCB",30-01-2024 17:00:00,29.931624,73.864511,PM10,159,500,356
India,Rajasthan,Sri Ganganagar,"Old City, Sri Ganganagar - RSPCB",30-01-2024 17:00:00,29.931624,73.864511,CO,109,177,129
India,Rajasthan,Sri Ganganagar,"Old City, Sri Ganganagar - RSPCB",30-01-2024 17:00:00,29.931624,73.864511,OZONE,1,29,12
India,Rajasthan,Tonk,"Shastri Nagar, Tonk - RSPCB",30-01-2024 17:00:00,26.159933,75.780517,PM2.5,NA,NA,NA
India,Rajasthan,Tonk,"Shastri Nagar, Tonk - RSPCB",30-01-2024 17:00:00,26.159933,75.780517,OZONE,5,73,49
India,Rajasthan,Udaipur,"Ashok Nagar, Udaipur - RSPCB",30-01-2024 17:00:00,24.5886166,73.6321397,NH3,7,18,10
India,Rajasthan,Udaipur,"Ashok Nagar, Udaipur - RSPCB",30-01-2024 17:00:00,24.5886166,73.6321397,CO,36,134,66
India,Sikkim,Gangtok,"Zero Point GICI, Gangtok - SSPCB",30-01-2024 17:00:00,27.338530,88.614099,NH3,1,1,1
India,Sikkim,Gangtok,"Zero Point GICI, Gangtok - SSPCB",30-01-2024 17:00:00,27.338530,88.614099,CO,20,34,27
India,Sikkim,Gangtok,"Zero Point GICI, Gangtok - SSPCB",30-01-2024 17:00:00,27.338530,88.614099,OZONE,15,59,31
India,TamilNadu,Chengalpattu,"Crescent University, Chengalpattu - TNPCB",30-01-2024 17:00:00,12.8777316,80.0834807,OZONE,6,6,6
India,TamilNadu,Chennai,"Alandur Bus Depot, Chennai - CPCB",30-01-2024 17:00:00,12.9099161,80.1076538,PM10,179,291,233
India,TamilNadu,Chennai,"Arumbakkam, Chennai - TNPCB",30-01-2024 17:00:00,13.0664,80.2112 ,NO2,NA,NA,NA
India,TamilNadu,Chennai,"Gandhi Nagar_Ennore, Chennai - TNPCB",30-01-2024 17:00:00,13.218341,80.32027,NO2,20,40,26
India,TamilNadu,Chennai,"Kodungaiyur, Chennai - TNPCB",30-01-2024 17:00:00,13.1278,80.2642,PM10,66,214,117
India,TamilNadu,Chennai,"Kodungaiyur, Chennai - TNPCB",30-01-2024 17:00:00,13.1278,80.2642,NO2,10,31,18
India,TamilNadu,Chennai,"Manali, Chennai - CPCB",30-01-2024 17:00:00,13.164544,80.26285,SO2,1,8,4
India,TamilNadu,Chennai,"Manali, Chennai - CPCB",30-01-2024 17:00:00,13.164544,80.26285,OZONE,9,30,23
India,TamilNadu,Chennai,"Perungudi, Chennai - TNPCB",30-01-2024 17:00:00,12.9533,80.2357,PM2.5,48,189,87
India,TamilNadu,Chennai,"Royapuram, Chennai - TNPCB",30-01-2024 17:00:00,13.1036,80.2909,NO2,10,55,21
India,TamilNadu,Coimbatore,"PSG College of Arts and Science, Coimbatore - TNPCB",30-01-2024 17:00:00,11.0328,77.0349,NH3,1,1,1
India,TamilNadu,Coimbatore,"PSG College of Arts and Science, Coimbatore - TNPCB",30-01-2024 17:00:00,11.0328,77.0349,OZONE,4,5,4
India,TamilNadu,Kanchipuram,"Kilambi, Kanchipuram - TNPCB",30-01-2024 17:00:00,12.864618,79.659968,SO2,NA,NA,NA
India,TamilNadu,Ooty,"Bombay Castel, Ooty - TNPCB",30-01-2024 17:00:00,11.4068288,76.7138973,SO2,13,14,13
India,TamilNadu,Ooty,"Bombay Castel, Ooty - TNPCB",30-01-2024 17:00:00,11.4068288,76.7138973,CO,17,20,19
India,TamilNadu,Ooty,"Bombay Castel, Ooty - TNPCB",30-01-2024 17:00:00,11.4068288,76.7138973,OZONE,5,6,5
India,TamilNadu,Ramanathapuram,"Chalai Bazaar, Ramanathapuram - TNPCB",30-01-2024 17:00:00,9.36399,78.831977,PM2.5,32,74,55
India,TamilNadu,Ramanathapuram,"Chalai Bazaar, Ramanathapuram - TNPCB",30-01-2024 17:00:00,9.36399,78.831977,PM10,32,102,68
India,TamilNadu,Ramanathapuram,"Chalai Bazaar, Ramanathapuram - TNPCB",30-01-2024 17:00:00,9.36399,78.831977,NH3,1,1,1
India,TamilNadu,Ramanathapuram,"Chalai Bazaar, Ramanathapuram - TNPCB",30-01-2024 17:00:00,9.36399,78.831977,SO2,5,8,6
India,TamilNadu,Salem,"Sona College of Technology, Salem - TNPCB",30-01-2024 17:00:00,11.679111,78.125052,PM2.5,50,148,78
India,TamilNadu,Salem,"Sona College of Technology, Salem - TNPCB",30-01-2024 17:00:00,11.679111,78.125052,NO2,7,11,9
India,TamilNadu,Vellore,"Vasanthapuram, Vellore - TNPCB",30-01-2024 17:00:00,12.909494,79.131861,PM2.5,57,109,75
India,TamilNadu,Vellore,"Vasanthapuram, Vellore - TNPCB",30-01-2024 17:00:00,12.909494,79.131861,NH3,1,1,1
India,Telangana,Hyderabad,"Central University, Hyderabad - TSPCB",30-01-2024 17:00:00,17.460103,78.334361,NO2,14,40,25
India,Telangana,Hyderabad,"Central University, Hyderabad - TSPCB",30-01-2024 17:00:00,17.460103,78.334361,SO2,4,11,7
India,Telangana,Hyderabad,"Central University, Hyderabad - TSPCB",30-01-2024 17:00:00,17.460103,78.334361,OZONE,4,4,4
India,Telangana,Hyderabad,"ICRISAT Patancheru, Hyderabad - TSPCB",30-01-2024 17:00:00,17.518400,78.278777,SO2,10,24,15
India,Telangana,Hyderabad,"ICRISAT Patancheru, Hyderabad - TSPCB",30-01-2024 17:00:00,17.518400,78.278777,OZONE,24,211,211
India,Telangana,Hyderabad,"IITH Kandi, Hyderabad - TSPCB",30-01-2024 17:00:00,17.585705,78.126199,PM2.5,15,40,25
India,Telangana,Hyderabad,"IITH Kandi, Hyderabad - TSPCB",30-01-2024 17:00:00,17.585705,78.126199,PM10,61,88,70
India,Telangana,Hyderabad,"IITH Kandi, Hyderabad - TSPCB",30-01-2024 17:00:00,17.585705,78.126199,OZONE,7,40,26
India,Telangana,Hyderabad,"Kokapet, Hyderabad - TSPCB",30-01-2024 17:00:00,17.393559,78.339194,OZONE,2,10,4
India,Telangana,Hyderabad,"Kompally Municipal Office, Hyderabad - TSPCB",30-01-2024 17:00:00,17.544899,78.486949,PM2.5,37,155,86
India,Telangana,Hyderabad,"Kompally Municipal Office, Hyderabad - TSPCB",30-01-2024 17:00:00,17.544899,78.486949,CO,9,44,17
India,Telangana,Hyderabad,"Kompally Municipal Office, Hyderabad - TSPCB",30-01-2024 17:00:00,17.544899,78.486949,OZONE,9,70,57
India,Telangana,Hyderabad,"Nacharam_TSIIC IALA, Hyderabad - TSPCB",30-01-2024 17:00:00,17.429398,78.569354,PM2.5,NA,NA,NA
India,Telangana,Hyderabad,"Nacharam_TSIIC IALA, Hyderabad - TSPCB",30-01-2024 17:00:00,17.429398,78.569354,NO2,NA,NA,NA
India,Telangana,Hyderabad,"Nacharam_TSIIC IALA, Hyderabad - TSPCB",30-01-2024 17:00:00,17.429398,78.569354,OZONE,28,54,41
India,Telangana,Hyderabad,"New Malakpet, Hyderabad - TSPCB",30-01-2024 17:00:00,17.37206,78.50864,PM2.5,20,78,37
India,Telangana,Hyderabad,"New Malakpet, Hyderabad - TSPCB",30-01-2024 17:00:00,17.37206,78.50864,NO2,22,29,25
India,Telangana,Hyderabad,"New Malakpet, Hyderabad - TSPCB",30-01-2024 17:00:00,17.37206,78.50864,OZONE,3,33,24
India,Telangana,Hyderabad,"Ramachandrapuram, Hyderabad - TSPCB",30-01-2024 17:00:00,17.528544,78.286195,NH3,2,3,2
India,Telangana,Hyderabad,"Somajiguda, Hyderabad - TSPCB",30-01-2024 17:00:00,17.417094,78.457437,NO2,6,31,25
India,Telangana,Hyderabad,"Zoo Park, Hyderabad - TSPCB",30-01-2024 17:00:00,17.349694,78.451437,NH3,1,1,1
India,Telangana,Hyderabad,"Zoo Park, Hyderabad - TSPCB",30-01-2024 17:00:00,17.349694,78.451437,OZONE,17,41,29
India,Tripura,Agartala,"Bardowali, Agartala - Tripura SPCB",30-01-2024 17:00:00,23.8175497,91.2726974,PM2.5,204,361,291
India,Uttar_Pradesh,Agra,"Manoharpur, Agra - UPPCB",30-01-2024 17:00:00,27.23711,78.01936,PM2.5,46,194,87
India,Uttar_Pradesh,Agra,"Manoharpur, Agra - UPPCB",30-01-2024 17:00:00,27.23711,78.01936,SO2,22,24,23
India,Uttar_Pradesh,Agra,"Rohta, Agra - UPPCB",30-01-2024 17:00:00,27.106972,78.000111,SO2,13,36,24
India,Uttar_Pradesh,Agra,"Sanjay Palace, Agra - UPPCB",30-01-2024 17:00:00,27.19865833,78.00598056,CO,56,164,81
India,Uttar_Pradesh,Agra,"Sanjay Palace, Agra - UPPCB",30-01-2024 17:00:00,27.19865833,78.00598056,OZONE,36,81,60
India,Uttar_Pradesh,Agra,"Sector-3B Avas Vikas Colony, Agra - UPPCB",30-01-2024 17:00:00,27.19412,77.96237,PM10,100,284,156
India,Uttar_Pradesh,Agra,"Shahjahan Garden, Agra - UPPCB",30-01-2024 17:00:00,27.169338,78.03582,PM2.5,79,313,177
India,Uttar_Pradesh,Agra,"Shahjahan Garden, Agra - UPPCB",30-01-2024 17:00:00,27.169338,78.03582,OZONE,1,17,15
India,Uttar_Pradesh,Agra,"Shastripuram, Agra - UPPCB",30-01-2024 17:00:00,27.19862,77.92066,NH3,2,3,3
India,Uttar_Pradesh,Baghpat,"Sardar Patel Inter College, Baghpat - UPPCB",30-01-2024 17:00:00,28.964949,77.278761,NO2,38,71,52
India,Uttar_Pradesh,Bareilly,"Civil Lines, Bareilly - UPPCB",30-01-2024 17:00:00,28.359581,79.414455,NO2,NA,NA,NA
India,Uttar_Pradesh,Bulandshahr,"Yamunapuram, Bulandshahr - UPPCB",30-01-2024 17:00:00,28.406963,77.849831,PM2.5,121,363,269
India,Uttar_Pradesh,Bulandshahr,"Yamunapuram, Bulandshahr - UPPCB",30-01-2024 17:00:00,28.406963,77.849831,PM10,112,306,186
India,Uttar_Pradesh,Bulandshahr,"Yamunapuram, Bulandshahr - UPPCB",30-01-2024 17:00:00,28.406963,77.849831,NO2,18,191,51
India,Uttar_Pradesh,Bulandshahr,"Yamunapuram, Bulandshahr - UPPCB",30-01-2024 17:00:00,28.406963,77.849831,NH3,8,22,14
India,Uttar_Pradesh,Bulandshahr,"Yamunapuram, Bulandshahr - UPPCB",30-01-2024 17:00:00,28.406963,77.849831,OZONE,1,38,15
India,Uttar_Pradesh,Firozabad,"Nagla Bhau, Firozabad - UPPCB",30-01-2024 17:00:00,27.168897,78.376960,NO2,17,17,17
India,Uttar_Pradesh,Ghaziabad,"Indirapuram, Ghaziabad - UPPCB",30-01-2024 17:00:00,28.646233,77.358075,SO2,14,17,16
India,Uttar_Pradesh,Ghaziabad,"Loni, Ghaziabad - UPPCB",30-01-2024 17:00:00,28.757294,77.278792,SO2,5,20,10
India,Uttar_Pradesh,Ghaziabad,"Loni, Ghaziabad - UPPCB",30-01-2024 17:00:00,28.757294,77.278792,OZONE,4,79,11
India,Uttar_Pradesh,Ghaziabad,"Sanjay Nagar, Ghaziabad - UPPCB",30-01-2024 17:00:00,28.685382,77.453839,PM10,104,457,242
India,Uttar_Pradesh,Ghaziabad,"Sanjay Nagar, Ghaziabad - UPPCB",30-01-2024 17:00:00,28.685382,77.453839,OZONE,1,35,13
India,Uttar_Pradesh,Ghaziabad,"Vasundhara, Ghaziabad - UPPCB",30-01-2024 17:00:00,28.6603346,77.3572563,CO,4,141,74
India,Uttar_Pradesh,Gorakhpur,"Madan Mohan Malaviya University of Technology, Gorakhpur - UPPCB",30-01-2024 17:00:00,26.730136,83.433859,CO,52,113,87
India,Uttar_Pradesh,Greater Noida,"Knowledge Park - III, Greater Noida - UPPCB",30-01-2024 17:00:00,28.47272,77.482000,SO2,NA,NA,NA
India,Uttar_Pradesh,Greater Noida,"Knowledge Park - V, Greater Noida - UPPCB",30-01-2024 17:00:00,28.557054,77.453663,NH3,5,8,6
India,Uttar_Pradesh,Greater Noida,"Knowledge Park - V, Greater Noida - UPPCB",30-01-2024 17:00:00,28.557054,77.453663,SO2,9,19,13
India,Uttar_Pradesh,Hapur,"Anand Vihar, Hapur - UPPCB",30-01-2024 17:00:00,28.725645,77.749675,PM2.5,94,395,229
India,Uttar_Pradesh,Hapur,"Anand Vihar, Hapur - UPPCB",30-01-2024 17:00:00,28.725645,77.749675,NO2,17,123,46
India,Uttar_Pradesh,Jhansi,"Shivaji Nagar, Jhansi - UPPCB",30-01-2024 17:00:00,25.4547,78.6039,PM2.5,98,222,150
India,Uttar_Pradesh,Jhansi,"Shivaji Nagar, Jhansi - UPPCB",30-01-2024 17:00:00,25.4547,78.6039,NH3,6,6,6
India,Uttar_Pradesh,Kanpur,"FTI Kidwai Nagar, Kanpur - UPPCB",30-01-2024 17:00:00,26.428282,80.327067,NH3,6,7,7
India,Uttar_Pradesh,Kanpur,"FTI Kidwai Nagar, Kanpur - UPPCB",30-01-2024 17:00:00,26.428282,80.327067,OZONE,3,34,16
India,Uttar_Pradesh,Kanpur,"NSI Kalyanpur, Kanpur - UPPCB",30-01-2024 17:00:00,26.509954,80.249612,PM2.5,82,243,132
India,Uttar_Pradesh,Kanpur,"NSI Kalyanpur, Kanpur - UPPCB",30-01-2024 17:00:00,26.509954,80.249612,CO,48,80,59
India,Uttar_Pradesh,Lucknow,"Gomti Nagar, Lucknow - UPPCB",30-01-2024 17:00:00,26.868120,81.005119,NO2,7,9,8
India,Uttar_Pradesh,Lucknow,"Gomti Nagar, Lucknow - UPPCB",30-01-2024 17:00:00,26.868120,81.005119,SO2,3,26,12
India,Uttar_Pradesh,Lucknow,"Kukrail Picnic Spot-1, Lucknow - UPPCB",30-01-2024 17:00:00,26.90723,80.98579,PM2.5,53,310,192
India,Uttar_Pradesh,Lucknow,"Kukrail Picnic Spot-1, Lucknow - UPPCB",30-01-2024 17:00:00,26.90723,80.98579,OZONE,3,62,40
India,Uttar_Pradesh,Lucknow,"Lalbagh, Lucknow - CPCB",30-01-2024 17:00:00,26.8458805,80.9365541,PM2.5,125,448,350
India,Uttar_Pradesh,Lucknow,"Lalbagh, Lucknow - CPCB",30-01-2024 17:00:00,26.8458805,80.9365541,PM10,177,485,334
India,Uttar_Pradesh,Lucknow,"Talkatora District Industries Center, Lucknow - CPCB",30-01-2024 17:00:00,26.83399722,80.8917361,PM2.5,124,412,301
India,Uttar_Pradesh,Lucknow,"Talkatora District Industries Center, Lucknow - CPCB",30-01-2024 17:00:00,26.83399722,80.8917361,PM10,134,445,267
India,Uttar_Pradesh,Meerut,"Ganga Nagar, Meerut - UPPCB",30-01-2024 17:00:00,28.999264,77.7590354,PM10,83,366,165
India,Uttar_Pradesh,Meerut,"Ganga Nagar, Meerut - UPPCB",30-01-2024 17:00:00,28.999264,77.7590354,NO2,30,84,43
India,Uttar_Pradesh,Meerut,"Jai Bhim Nagar, Meerut - UPPCB",30-01-2024 17:00:00,28.9535882,77.7622941,CO,38,119,64
India,Uttar_Pradesh,Meerut,"Pallavpuram Phase 2, Meerut - UPPCB",30-01-2024 17:00:00,29.063510,77.709723,PM10,84,306,167
India,Uttar_Pradesh,Meerut,"Pallavpuram Phase 2, Meerut - UPPCB",30-01-2024 17:00:00,29.063510,77.709723,NO2,19,147,60
India,Uttar_Pradesh,Meerut,"Pallavpuram Phase 2, Meerut - UPPCB",30-01-2024 17:00:00,29.063510,77.709723,OZONE,6,60,21
India,Uttar_Pradesh,Moradabad,"Eco Herbal Park, Moradabad - UPPCB",30-01-2024 17:00:00,28.840739,78.697531,PM2.5,96,321,257
India,Uttar_Pradesh,Moradabad,"Eco Herbal Park, Moradabad - UPPCB",30-01-2024 17:00:00,28.840739,78.697531,PM10,100,177,136
India,Uttar_Pradesh,Moradabad,"Eco Herbal Park, Moradabad - UPPCB",30-01-2024 17:00:00,28.840739,78.697531,NO2,16,72,35
India,Uttar_Pradesh,Moradabad,"Employment Office, Moradabad - UPPCB",30-01-2024 17:00:00,28.88528,78.73880,PM10,115,424,233
India,Uttar_Pradesh,Moradabad,"Employment Office, Moradabad - UPPCB",30-01-2024 17:00:00,28.88528,78.73880,NO2,20,26,24
India,Uttar_Pradesh,Moradabad,"Jigar Colony, Moradabad - UPPCB",30-01-2024 17:00:00,28.856664,78.772638,NH3,5,12,5
India,Uttar_Pradesh,Moradabad,"Jigar Colony, Moradabad - UPPCB",30-01-2024 17:00:00,28.856664,78.772638,CO,29,98,77
India,Uttar_Pradesh,Moradabad,"Kashiram Nagar, Moradabad - UPPCB",30-01-2024 17:00:00,28.849399,78.742362,PM10,100,500,213
India,Uttar_Pradesh,Moradabad,"Kashiram Nagar, Moradabad - UPPCB",30-01-2024 17:00:00,28.849399,78.742362,CO,28,119,65
India,Uttar_Pradesh,Moradabad,"Transport Nagar, Moradabad - UPPCB",30-01-2024 17:00:00,28.802625,78.753728,NO2,19,63,36
India,Uttar_Pradesh,Muzaffarnagar,"New Mandi, Muzaffarnagar - UPPCB",30-01-2024 17:00:00,29.4723508,77.7194031,NO2,17,102,38
India,Uttar_Pradesh,Muzaffarnagar,"New Mandi, Muzaffarnagar - UPPCB",30-01-2024 17:00:00,29.4723508,77.7194031,OZONE,6,102,32
India,Uttar_Pradesh,Noida,"Sector - 125, Noida - UPPCB",30-01-2024 17:00:00,28.5447608,77.3231257,PM2.5,198,447,334
India,Uttar_Pradesh,Noida,"Sector - 125, Noida - UPPCB",30-01-2024 17:00:00,28.5447608,77.3231257,NH3,5,19,13
India,Uttar_Pradesh,Noida,"Sector - 125, Noida - UPPCB",30-01-2024 17:00:00,28.5447608,77.3231257,SO2,19,30,25
India,Uttar_Pradesh,Noida,"Sector - 125, Noida - UPPCB",30-01-2024 17:00:00,28.5447608,77.3231257,CO,52,126,82
India,Uttar_Pradesh,Noida,"Sector-1, Noida - UPPCB",30-01-2024 17:00:00,28.5898,77.3101,CO,40,109,68
India,Uttar_Pradesh,Prayagraj,"Jhunsi, Prayagraj - UPPCB",30-01-2024 17:00:00,25.425602,81.917152,PM2.5,44,120,82
India,Uttar_Pradesh,Prayagraj,"Jhunsi, Prayagraj - UPPCB",30-01-2024 17:00:00,25.425602,81.917152,OZONE,1,17,10
India,Uttar_Pradesh,Varanasi,"Ardhali Bazar, Varanasi - UPPCB",30-01-2024 17:00:00,25.3505986,82.9083074,PM2.5,38,83,66
India,Uttar_Pradesh,Varanasi,"Ardhali Bazar, Varanasi - UPPCB",30-01-2024 17:00:00,25.3505986,82.9083074,NO2,23,35,28
India,Uttar_Pradesh,Varanasi,"IESD Banaras Hindu University, Varanasi - UPPCB",30-01-2024 17:00:00,25.262326,82.995408,NO2,2,3,2
India,Uttar_Pradesh,Varanasi,"IESD Banaras Hindu University, Varanasi - UPPCB",30-01-2024 17:00:00,25.262326,82.995408,CO,36,47,44
India,Uttar_Pradesh,Vrindavan,"Omex Eternity, Vrindavan - UPPCB",30-01-2024 17:00:00,27.5714090,77.6557570,PM2.5,41,123,71
India,Uttar_Pradesh,Vrindavan,"Omex Eternity, Vrindavan - UPPCB",30-01-2024 17:00:00,27.5714090,77.6557570,PM10,50,124,84
India,Uttar_Pradesh,Vrindavan,"Omex Eternity, Vrindavan - UPPCB",30-01-2024 17:00:00,27.5714090,77.6557570,CO,47,106,80
India,Uttarakhand,Dehradun,"Doon University, Dehradun - UKPCB",30-01-2024 17:00:00,30.269444,78.044167,PM10,110,178,144
India,Uttarakhand,Dehradun,"Doon University, Dehradun - UKPCB",30-01-2024 17:00:00,30.269444,78.044167,NO2,2,12,5
India,Uttarakhand,Dehradun,"Doon University, Dehradun - UKPCB",30-01-2024 17:00:00,30.269444,78.044167,CO,40,72,47
India,Uttarakhand,Kashipur,"Govt. Girls Inter College, Kashipur - UKPCB",30-01-2024 17:00:00,29.2124114,78.9611753,NH3,NA,NA,NA
India,Uttarakhand,Kashipur,"Govt. Girls Inter College, Kashipur - UKPCB",30-01-2024 17:00:00,29.2124114,78.9611753,SO2,NA,NA,NA
India,Uttarakhand,Rishikesh,"Shivaji Nagar, Rishikesh - UKPCB",30-01-2024 17:00:00,30.075911,78.2859547,NH3,3,4,4
India,Uttarakhand,Rishikesh,"Shivaji Nagar, Rishikesh - UKPCB",30-01-2024 17:00:00,30.075911,78.2859547,SO2,3,6,5
India,West_Bengal,Asansol,"Asansol Court Area, Asansol - WBPCB",30-01-2024 17:00:00,23.685297,86.945968,PM2.5,250,368,327
India,West_Bengal,Asansol,"Asansol Court Area, Asansol - WBPCB",30-01-2024 17:00:00,23.685297,86.945968,CO,2,70,25
India,West_Bengal,Barrackpore,"SVSPA Campus, Barrackpore - WBPCB",30-01-2024 17:00:00,22.7605581,88.3617589,PM10,129,405,248
India,West_Bengal,Barrackpore,"SVSPA Campus, Barrackpore - WBPCB",30-01-2024 17:00:00,22.7605581,88.3617589,OZONE,8,70,53
India,West_Bengal,Durgapur,"Sidhu Kanhu Indoor Stadium, Durgapur - WBPCB",30-01-2024 17:00:00,23.5404352,87.2892225,NH3,3,4,4
India,West_Bengal,Durgapur,"Sidhu Kanhu Indoor Stadium, Durgapur - WBPCB",30-01-2024 17:00:00,23.5404352,87.2892225,CO,46,88,67
India,West_Bengal,Howrah,"Belur Math, Howrah - WBPCB",30-01-2024 17:00:00,22.629801,88.352017,PM10,115,232,168
India,West_Bengal,Howrah,"Padmapukur, Howrah - WBPCB",30-01-2024 17:00:00,22.5687319,88.2797276,PM2.5,81,262,177
India,West_Bengal,Howrah,"Padmapukur, Howrah - WBPCB",30-01-2024 17:00:00,22.5687319,88.2797276,NH3,11,37,18
India,West_Bengal,Howrah,"Padmapukur, Howrah - WBPCB",30-01-2024 17:00:00,22.5687319,88.2797276,OZONE,2,48,42
India,West_Bengal,Kolkata,"Ballygunge, Kolkata - WBPCB",30-01-2024 17:00:00,22.5367507,88.3638022,NH3,9,14,10
India,West_Bengal,Kolkata,"Fort William, Kolkata - WBPCB",30-01-2024 17:00:00,22.556640,88.342674,NH3,8,12,9
India,West_Bengal,Kolkata,"Fort William, Kolkata - WBPCB",30-01-2024 17:00:00,22.556640,88.342674,CO,14,62,17
India,West_Bengal,Kolkata,"Fort William, Kolkata - WBPCB",30-01-2024 17:00:00,22.556640,88.342674,OZONE,12,84,63
India,West_Bengal,Kolkata,"Jadavpur, Kolkata - WBPCB",30-01-2024 17:00:00,22.49929,88.36917,NO2,5,28,9
India,West_Bengal,Kolkata,"Jadavpur, Kolkata - WBPCB",30-01-2024 17:00:00,22.49929,88.36917,CO,2,40,6
India,West_Bengal,Kolkata,"Rabindra Bharati University, Kolkata - WBPCB",30-01-2024 17:00:00,22.627847,88.380669,PM2.5,81,301,188
India,West_Bengal,Kolkata,"Rabindra Bharati University, Kolkata - WBPCB",30-01-2024 17:00:00,22.627847,88.380669,PM10,103,170,130
India,West_Bengal,Kolkata,"Rabindra Bharati University, Kolkata - WBPCB",30-01-2024 17:00:00,22.627847,88.380669,SO2,5,40,16
India,West_Bengal,Kolkata,"Rabindra Sarobar, Kolkata - WBPCB",30-01-2024 17:00:00,22.51106,88.35142,PM10,65,120,99
India,West_Bengal,Kolkata,"Rabindra Sarobar, Kolkata - WBPCB",30-01-2024 17:00:00,22.51106,88.35142,SO2,9,94,29
India,West_Bengal,Kolkata,"Victoria, Kolkata - WBPCB",30-01-2024 17:00:00,22.5448082,88.3403691,NH3,1,5,2
India,West_Bengal,Kolkata,"Victoria, Kolkata - WBPCB",30-01-2024 17:00:00,22.5448082,88.3403691,CO,34,96,41
India,West_Bengal,Siliguri,"Ward-32 Bapupara, Siliguri - WBPCB",30-01-2024 17:00:00,26.6879226,88.4152495,SO2,11,21,14
India,West_Bengal,Siliguri,"Ward-32 Bapupara, Siliguri - WBPCB",30-01-2024 17:00:00,26.6879226,88.4152495,OZONE,8,91,65
India,Andhra_Pradesh,Amaravati,"Secretariat, Amaravati - APPCB",30-01-2024 17:00:00,16.5150833,80.5181667,NH3,2,4,4
India,Andhra_Pradesh,Chittoor,"Gangineni Cheruvu, Chittoor - APPCB",30-01-2024 17:00:00,13.204880,79.097889,PM2.5,31,114,58
India,Andhra_Pradesh,Tirupati,"Tirumala, Tirupati - APPCB",30-01-2024 17:00:00,13.67,79.35,NO2,52,80,65
India,Andhra_Pradesh,Tirupati,"Tirumala, Tirupati - APPCB",30-01-2024 17:00:00,13.67,79.35,CO,38,54,45
India,Andhra_Pradesh,Vijayawada,"HB Colony, Vijayawada - APPCB",30-01-2024 17:00:00,16.536107,80.594233,NO2,NA,NA,NA
India,Andhra_Pradesh,Vijayawada,"Rajiv Gandhi Park, Vijayawada - APPCB",30-01-2024 17:00:00,16.509717,80.612222,PM10,NA,NA,NA
India,Andhra_Pradesh,Vijayawada,"Rajiv Gandhi Park, Vijayawada - APPCB",30-01-2024 17:00:00,16.509717,80.612222,SO2,NA,NA,NA
India,Andhra_Pradesh,Visakhapatnam,"GVM Corporation, Visakhapatnam - APPCB",30-01-2024 17:00:00,17.72,83.3,NO2,16,101,44
India,Andhra_Pradesh,Visakhapatnam,"GVM Corporation, Visakhapatnam - APPCB",30-01-2024 17:00:00,17.72,83.3,NH3,2,8,5
India,Andhra_Pradesh,Visakhapatnam,"GVM Corporation, Visakhapatnam - APPCB",30-01-2024 17:00:00,17.72,83.3,SO2,9,20,13
India,Assam,Byrnihat,"Central Academy for SFS, Byrnihat - PCBA",30-01-2024 17:00:00,26.071318,91.87488,NH3,1,5,4
India,Assam,Byrnihat,"Central Academy for SFS, Byrnihat - PCBA",30-01-2024 17:00:00,26.071318,91.87488,SO2,8,16,11
India,Assam,Guwahati,"IITG, Guwahati - PCBA",30-01-2024 17:00:00,26.2028636,91.70046436,NO2,2,21,9
India,Assam,Guwahati,"LGBI Airport, Guwahati - PCBA",30-01-2024 17:00:00,26.10887,91.589544,SO2,11,13,12
India,Assam,Guwahati,"LGBI Airport, Guwahati - PCBA",30-01-2024 17:00:00,26.10887,91.589544,CO,58,70,65
India,Assam,Guwahati,"Railway Colony, Guwahati - PCBA",30-01-2024 17:00:00,26.181742,91.78063,OZONE,7,41,23
India,Assam,Nalbari,"Bata Chowk, Nalbari - PCBA",30-01-2024 17:00:00,26.446912,91.439057,NO2,18,62,40
India,Assam,Silchar,"Tarapur, Silchar - PCBA",30-01-2024 17:00:00,24.82827,92.79525,PM2.5,33,62,41
India,Assam,Silchar,"Tarapur, Silchar - PCBA",30-01-2024 17:00:00,24.82827,92.79525,PM10,50,55,51
India,Assam,Sivasagar,"Girls College, Sivasagar - PCBA",30-01-2024 17:00:00,26.987634,94.636574,NO2,18,33,25
India,Bihar,Araria,"Kharahiya Basti, Araria - BSPCB",30-01-2024 17:00:00,26.146529,87.454184,NO2,6,22,9
India,Bihar,Araria,"Kharahiya Basti, Araria - BSPCB",30-01-2024 17:00:00,26.146529,87.454184,OZONE,9,90,44
India,Bihar,Aurangabad,"Gurdeo Nagar, Aurangabad - BSPCB",30-01-2024 17:00:00,24.75746,84.366208,PM2.5,305,429,350
India,Bihar,Aurangabad,"Gurdeo Nagar, Aurangabad - BSPCB",30-01-2024 17:00:00,24.75746,84.366208,CO,64,90,82
India,Bihar,Bhagalpur,"Mayaganj, Bhagalpur - BSPCB",30-01-2024 17:00:00,25.265194,87.012947,PM10,163,423,299
India,Bihar,Bhagalpur,"Mayaganj, Bhagalpur - BSPCB",30-01-2024 17:00:00,25.265194,87.012947,SO2,3,14,11
India,Bihar,Chhapra,"Darshan Nagar, Chhapra - BSPCB",30-01-2024 17:00:00,25.7808257,84.7446768,OZONE,1,3,2
India,Bihar,Gaya,"Collectorate, Gaya - BSPCB",30-01-2024 17:00:00,24.7955,84.9994,PM2.5,27,411,293
India,Bihar,Gaya,"Kareemganj, Gaya - BSPCB",30-01-2024 17:00:00,24.792403,84.992416,NO2,30,31,30
India,Bihar,Gaya,"Kareemganj, Gaya - BSPCB",30-01-2024 17:00:00,24.792403,84.992416,SO2,6,10,8
India,Bihar,Gaya,"SFTI Kusdihra, Gaya - BSPCB",30-01-2024 17:00:00,24.762518,84.982348,CO,46,95,54
India,Bihar,Katihar,"Mirchaibari, Katihar - BSPCB",30-01-2024 17:00:00,25.560083,87.553265,NO2,22,76,32
India,Bihar,Katihar,"Mirchaibari, Katihar - BSPCB",30-01-2024 17:00:00,25.560083,87.553265,NH3,2,6,4
India,Bihar,Kishanganj,"SDM Office_Khagra, Kishanganj - BSPCB",30-01-2024 17:00:00,26.0881305,87.93840336,CO,4,50,7
India,Bihar,Manguraha,"Forest Rest House, Manguraha - BSPCB",30-01-2024 17:00:00,27.308328,84.531742,PM2.5,67,220,108
India,Bihar,Manguraha,"Forest Rest House, Manguraha - BSPCB",30-01-2024 17:00:00,27.308328,84.531742,PM10,87,250,123
India,Bihar,Manguraha,"Forest Rest House, Manguraha - BSPCB",30-01-2024 17:00:00,27.308328,84.531742,NO2,3,12,6
India,Bihar,Motihari,"Gandak Colony, Motihari - BSPCB",30-01-2024 17:00:00,26.63086,84.90051,PM2.5,123,382,264
India,Bihar,Munger,"Town Hall, Munger - BSPCB",30-01-2024 17:00:00,25.376776,86.471523,PM10,124,234,162
India,Bihar,Muzaffarpur,"Buddha Colony, Muzaffarpur - BSPCB",30-01-2024 17:00:00,26.11442,85.39813,PM2.5,211,500,372
India,Bihar,Muzaffarpur,"Buddha Colony, Muzaffarpur - BSPCB",30-01-2024 17:00:00,26.11442,85.39813,NO2,32,113,56
India,Bihar,Muzaffarpur,"Buddha Colony, Muzaffarpur - BSPCB",30-01-2024 17:00:00,26.11442,85.39813,CO,19,184,66
India,Bihar,Muzaffarpur,"Muzaffarpur Collectorate, Muzaffarpur - BSPCB",30-01-2024 17:00:00,26.1209,85.3647,CO,13,76,37
India,Bihar,Patna,"DRM Office Danapur, Patna - BSPCB",30-01-2024 17:00:00,25.586562,85.043586,NO2,1,74,34
India,Bihar,Patna,"Rajbansi Nagar, Patna - BSPCB",30-01-2024 17:00:00,25.599486,85.113666,PM10,243,487,358
India,Bihar,Patna,"Rajbansi Nagar, Patna - BSPCB",30-01-2024 17:00:00,25.599486,85.113666,NO2,72,130,86
India,Bihar,Patna,"Samanpura, Patna - BSPCB",30-01-2024 17:00:00,25.596727,85.085624,NH3,3,3,3
India,Bihar,Rajgir,"Dangi Tola, Rajgir - BSPCB",30-01-2024 17:00:00,25.03280,85.41948,PM2.5,260,497,358
India,Bihar,Saharsa,"Police Line, Saharsa - BSPCB",30-01-2024 17:00:00,25.892357,86.590325,PM10,NA,NA,NA
India,Bihar,Saharsa,"Police Line, Saharsa - BSPCB",30-01-2024 17:00:00,25.892357,86.590325,OZONE,10,85,62
India,Bihar,Samastipur,"DM Office_Kasipur, Samastipur - BSPCB",30-01-2024 17:00:00,25.859655,85.77944,OZONE,9,22,12
India,Bihar,Sasaram,"Dada Peer, Sasaram - BSPCB",30-01-2024 17:00:00,24.952822,84.002396,NO2,5,17,9
India,Bihar,Siwan,"Chitragupta Nagar, Siwan - BSPCB",30-01-2024 17:00:00,26.2271665,84.3570427,PM10,91,257,165
India,Bihar,Siwan,"Chitragupta Nagar, Siwan - BSPCB",30-01-2024 17:00:00,26.2271665,84.3570427,NO2,19,192,59
India,Chandigarh,Chandigarh,"Sector 22, Chandigarh - CPCC",30-01-2024 17:00:00,30.735567,76.775714,OZONE,1,130,60
India,Chandigarh,Chandigarh,"Sector-25, Chandigarh - CPCC",30-01-2024 17:00:00,30.751462,76.762879,SO2,6,36,12
India,Chandigarh,Chandigarh,"Sector-53, Chandigarh - CPCC",30-01-2024 17:00:00,30.719859,76.738637,NO2,33,100,63
India,Chandigarh,Chandigarh,"Sector-53, Chandigarh - CPCC",30-01-2024 17:00:00,30.719859,76.738637,SO2,NA,NA,NA
India,Chhattisgarh,Bhilai,"32Bungalows, Bhilai - CECB",30-01-2024 17:00:00,21.194815,81.314770,PM10,48,94,74
India,Chhattisgarh,Bhilai,"Hathkhoj, Bhilai - CECB",30-01-2024 17:00:00,21.224231,81.408350,PM10,63,168,123
India,Chhattisgarh,Bhilai,"Hathkhoj, Bhilai - CECB",30-01-2024 17:00:00,21.224231,81.408350,NO2,21,71,41
India,Chhattisgarh,Bhilai,"Hathkhoj, Bhilai - CECB",30-01-2024 17:00:00,21.224231,81.408350,CO,18,110,28
India,Chhattisgarh,Bhilai,"Hathkhoj, Bhilai - CECB",30-01-2024 17:00:00,21.224231,81.408350,OZONE,6,21,19
India,Chhattisgarh,Bilaspur,"Mangala, Bilaspur - NTPC",30-01-2024 17:00:00,22.08815,82.13737,PM2.5,11,188,57
India,Chhattisgarh,Bilaspur,"Mangala, Bilaspur - NTPC",30-01-2024 17:00:00,22.08815,82.13737,CO,25,37,29
India,Chhattisgarh,Chhal,"Nawapara SECL Colony, Chhal - CECB",30-01-2024 17:00:00,22.118125,83.140608,PM10,57,123,103
India,Chhattisgarh,Chhal,"Nawapara SECL Colony, Chhal - CECB",30-01-2024 17:00:00,22.118125,83.140608,NO2,13,43,23
India,Chhattisgarh,Korba,"Rampur, Korba - CECB",30-01-2024 17:00:00,22.368195,82.746431,PM2.5,23,78,41
India,Chhattisgarh,Korba,"Rampur, Korba - CECB",30-01-2024 17:00:00,22.368195,82.746431,NO2,31,62,50
India,Chhattisgarh,Korba,"Rampur, Korba - CECB",30-01-2024 17:00:00,22.368195,82.746431,OZONE,2,41,15
India,Chhattisgarh,Kunjemura,"OP Jindal School, Kunjemura - CECB",30-01-2024 17:00:00,22.126650,83.483212,PM10,74,500,267
India,Chhattisgarh,Kunjemura,"OP Jindal School, Kunjemura - CECB",30-01-2024 17:00:00,22.126650,83.483212,NO2,44,142,75
India,Chhattisgarh,Kunjemura,"OP Jindal School, Kunjemura - CECB",30-01-2024 17:00:00,22.126650,83.483212,SO2,1,92,37
India,Chhattisgarh,Kunjemura,"OP Jindal School, Kunjemura - CECB",30-01-2024 17:00:00,22.126650,83.483212,CO,30,102,57
India,Chhattisgarh,Raipur,"AIIMS, Raipur - CECB",30-01-2024 17:00:00,21.258815,81.578979,NO2,53,72,62
India,Chhattisgarh,Raipur,"Bhatagaon New ISBT, Raipur - CECB",30-01-2024 17:00:00,21.219665,81.630094,SO2,NA,NA,NA
India,Chhattisgarh,Raipur,"Krishak Nagar, Raipur - CECB",30-01-2024 17:00:00,21.237755,81.705301,SO2,6,15,9
India,Chhattisgarh,Raipur,"Krishak Nagar, Raipur - CECB",30-01-2024 17:00:00,21.237755,81.705301,OZONE,3,17,9
India,Chhattisgarh,Raipur,"Siltara Phase-II, Raipur - CECB",30-01-2024 17:00:00,21.371751,81.664929,PM2.5,34,162,84
India,Chhattisgarh,Tumidih,"OP Jindal Industrial Park, Tumidih - CECB",30-01-2024 17:00:00,22.06631475,83.33820077,SO2,5,18,8
India,Chhattisgarh,Tumidih,"OP Jindal Industrial Park, Tumidih - CECB",30-01-2024 17:00:00,22.06631475,83.33820077,CO,32,103,52
India,Delhi,Delhi,"Anand Vihar, Delhi - DPCC",30-01-2024 17:00:00,28.647622,77.3158090,NH3,8,18,13
India,Delhi,Delhi,"Ashok Vihar, Delhi - DPCC",30-01-2024 17:00:00,28.695381,77.181665,SO2,17,25,20
India,Delhi,Delhi,"Ashok Vihar, Delhi - DPCC",30-01-2024 17:00:00,28.695381,77.181665,CO,62,108,94
India,Delhi,Delhi,"Ashok Vihar, Delhi - DPCC",30-01-2024 17:00:00,28.695381,77.181665,OZONE,4,13,6
India,Delhi,Delhi,"Aya Nagar, Delhi - IMD",30-01-2024 17:00:00,28.4706914,77.1099364,OZONE,6,17,6
India,Delhi,Delhi,"DTU, Delhi - CPCB",30-01-2024 17:00:00,28.7500499,77.1112615,NH3,15,20,18
India,Delhi,Delhi,"Dr. Karni Singh Shooting Range, Delhi - DPCC",30-01-2024 17:00:00,28.498571,77.264840,NO2,61,140,97
India,Delhi,Delhi,"Dwarka-Sector 8, Delhi - DPCC ",30-01-2024 17:00:00,28.5710274,77.0719006,SO2,5,10,8
India,Delhi,Delhi,"IHBAS, Dilshad Garden, Delhi - CPCB",30-01-2024 17:00:00,28.6811736,77.3025234,PM10,126,351,222
India,Delhi,Delhi,"IHBAS, Dilshad Garden, Delhi - CPCB",30-01-2024 17:00:00,28.6811736,77.3025234,NO2,9,40,25
India,Delhi,Delhi,"ITO, Delhi - CPCB",30-01-2024 17:00:00,28.628624,77.241060,SO2,4,42,23
India,Delhi,Delhi,"Jahangirpuri, Delhi - DPCC",30-01-2024 17:00:00,28.732820,77.170633,PM10,220,500,382
India,Delhi,Delhi,"Jahangirpuri, Delhi - DPCC",30-01-2024 17:00:00,28.732820,77.170633,CO,72,116,102
India,Delhi,Delhi,"Jawaharlal Nehru Stadium, Delhi - DPCC",30-01-2024 17:00:00,28.580280,77.233829,NO2,50,176,105
India,Delhi,Delhi,"Jawaharlal Nehru Stadium, Delhi - DPCC",30-01-2024 17:00:00,28.580280,77.233829,SO2,1,33,12
India,Delhi,Delhi,"Jawaharlal Nehru Stadium, Delhi - DPCC",30-01-2024 17:00:00,28.580280,77.233829,OZONE,1,41,18
India,Delhi,Delhi,"Lodhi Road, Delhi - IITM",30-01-2024 17:00:00,28.588333,77.221667,NO2,NA,NA,NA
India,Delhi,Delhi,"Lodhi Road, Delhi - IITM",30-01-2024 17:00:00,28.588333,77.221667,OZONE,15,15,15
India,Delhi,Delhi,"Lodhi Road, Delhi - IMD",30-01-2024 17:00:00,28.5918245,77.2273074,PM2.5,147,438,308
India,Delhi,Delhi,"Lodhi Road, Delhi - IMD",30-01-2024 17:00:00,28.5918245,77.2273074,PM10,148,418,270
India,Delhi,Delhi,"Lodhi Road, Delhi - IMD",30-01-2024 17:00:00,28.5918245,77.2273074,CO,101,111,105
India,Delhi,Delhi,"Major Dhyan Chand National Stadium, Delhi - DPCC",30-01-2024 17:00:00,28.611281,77.237738,OZONE,2,25,6
India,Delhi,Delhi,"Mandir Marg, Delhi - DPCC",30-01-2024 17:00:00,28.636429,77.201067,PM2.5,319,456,387
India,Delhi,Delhi,"Mundka, Delhi - DPCC",30-01-2024 17:00:00,28.684678,77.076574,SO2,3,16,6
India,Delhi,Delhi,"Mundka, Delhi - DPCC",30-01-2024 17:00:00,28.684678,77.076574,CO,68,91,74
India,Delhi,Delhi,"Mundka, Delhi - DPCC",30-01-2024 17:00:00,28.684678,77.076574,OZONE,3,8,5
India,Delhi,Delhi,"NSIT Dwarka, Delhi - CPCB",30-01-2024 17:00:00,28.60909,77.0325413,OZONE,16,39,21
India,Delhi,Delhi,"Najafgarh, Delhi - DPCC",30-01-2024 17:00:00,28.570173,76.933762,NH3,4,28,8
India,Delhi,Delhi,"Najafgarh, Delhi - DPCC",30-01-2024 17:00:00,28.570173,76.933762,CO,20,71,46
India,Delhi,Delhi,"Najafgarh, Delhi - DPCC",30-01-2024 17:00:00,28.570173,76.933762,OZONE,2,63,35
India,Delhi,Delhi,"Narela, Delhi - DPCC",30-01-2024 17:00:00,28.822836,77.101981,PM2.5,215,422,334
India,Delhi,Delhi,"Narela, Delhi - DPCC",30-01-2024 17:00:00,28.822836,77.101981,PM10,127,408,239
India,Delhi,Delhi,"Nehru Nagar, Delhi - DPCC",30-01-2024 17:00:00,28.567890,77.250515,NH3,11,18,15
India,Delhi,Delhi,"New Moti Bagh, Delhi - MHUA",30-01-2024 17:00:00,28.57834,77.18400,CO,71,108,89
India,Delhi,Delhi,"Okhla Phase-2, Delhi - DPCC",30-01-2024 17:00:00,28.530785,77.271255,PM10,252,486,366
India,Delhi,Delhi,"Okhla Phase-2, Delhi - DPCC",30-01-2024 17:00:00,28.530785,77.271255,NH3,15,23,18
India,Delhi,Delhi,"Punjabi Bagh, Delhi - DPCC",30-01-2024 17:00:00,28.674045,77.131023,NH3,7,9,8
India,Delhi,Delhi,"Pusa, Delhi - DPCC",30-01-2024 17:00:00,28.639652,77.146275,PM10,226,500,387
India,Delhi,Delhi,"Pusa, Delhi - IMD",30-01-2024 17:00:00,28.636110,77.173332,NO2,35,80,47
India,Delhi,Delhi,"Rohini, Delhi - DPCC",30-01-2024 17:00:00,28.732528,77.119920,NH3,11,16,13
India,Delhi,Delhi,"Rohini, Delhi - DPCC",30-01-2024 17:00:00,28.732528,77.119920,SO2,7,21,12
India,Delhi,Delhi,"Shadipur, Delhi - CPCB",30-01-2024 17:00:00,28.6514781,77.1473105,PM2.5,204,475,370
India,Delhi,Delhi,"Shadipur, Delhi - CPCB",30-01-2024 17:00:00,28.6514781,77.1473105,NO2,41,82,56
India,Delhi,Delhi,"Sirifort, Delhi - CPCB",30-01-2024 17:00:00,28.5504249,77.2159377,PM10,193,436,329
India,Delhi,Delhi,"Sri Aurobindo Marg, Delhi - DPCC",30-01-2024 17:00:00,28.531346,77.190156,PM2.5,230,496,353
India,Delhi,Delhi,"Sri Aurobindo Marg, Delhi - DPCC",30-01-2024 17:00:00,28.531346,77.190156,SO2,9,21,13
India,Delhi,Delhi,"Vivek Vihar, Delhi - DPCC",30-01-2024 17:00:00,28.672342,77.315260,NO2,51,132,79
India,Delhi,Delhi,"Wazirpur, Delhi - DPCC",30-01-2024 17:00:00,28.699793,77.165453,PM2.5,322,471,396
India,Delhi,Delhi,"Wazirpur, Delhi - DPCC",30-01-2024 17:00:00,28.699793,77.165453,OZONE,1,27,10
India,Gujarat,Ahmedabad,"Chandkheda, Ahmedabad - IITM",30-01-2024 17:00:00,23.107969,72.574648,SO2,9,35,14
India,Gujarat,Ahmedabad,"Chandkheda, Ahmedabad - IITM",30-01-2024 17:00:00,23.107969,72.574648,OZONE,13,22,16
India,Gujarat,Ahmedabad,"Gyaspur, Ahmedabad - IITM",30-01-2024 17:00:00,22.977134,72.553024,NO2,12,20,19
India,Gujarat,Ahmedabad,"Gyaspur, Ahmedabad - IITM",30-01-2024 17:00:00,22.977134,72.553024,NH3,3,4,4
India,Gujarat,Ahmedabad,"Gyaspur, Ahmedabad - IITM",30-01-2024 17:00:00,22.977134,72.553024,CO,18,26,24
India,Gujarat,Ahmedabad,"Gyaspur, Ahmedabad - IITM",30-01-2024 17:00:00,22.977134,72.553024,OZONE,12,15,13
India,Gujarat,Ahmedabad,"Maninagar, Ahmedabad - GPCB",30-01-2024 17:00:00,23.002657,72.591912,NO2,19,87,48
India,Gujarat,Ahmedabad,"Raikhad, Ahmedabad - IITM",30-01-2024 17:00:00,23.020509,72.579261,PM2.5,NA,NA,NA
India,Gujarat,Ahmedabad,"Raikhad, Ahmedabad - IITM",30-01-2024 17:00:00,23.020509,72.579261,OZONE,17,23,21
India,Gujarat,Ahmedabad,"Rakhial, Ahmedabad - IITM",30-01-2024 17:00:00,23.016834,72.625775,CO,14,64,44
India,Gujarat,Ahmedabad,"Sardar Vallabhbhai Patel Stadium, Ahmedabad - IITM",30-01-2024 17:00:00,23.043070,72.562968,PM10,81,192,126
India,Gujarat,Ahmedabad,"Sardar Vallabhbhai Patel Stadium, Ahmedabad - IITM",30-01-2024 17:00:00,23.043070,72.562968,SO2,14,17,16
India,Gujarat,Ahmedabad,"Sardar Vallabhbhai Patel Stadium, Ahmedabad - IITM",30-01-2024 17:00:00,23.043070,72.562968,CO,23,61,39
India,Gujarat,Ankleshwar,"GIDC, Ankleshwar - GPCB",30-01-2024 17:00:00,21.613267,73.010555,PM2.5,60,238,132
India,Gujarat,Ankleshwar,"GIDC, Ankleshwar - GPCB",30-01-2024 17:00:00,21.613267,73.010555,NO2,33,34,34
India,Gujarat,Ankleshwar,"GIDC, Ankleshwar - GPCB",30-01-2024 17:00:00,21.613267,73.010555,NH3,6,6,6
India,Gujarat,Ankleshwar,"GIDC, Ankleshwar - GPCB",30-01-2024 17:00:00,21.613267,73.010555,CO,28,112,62
India,Gujarat,Gandhinagar,"IIPHG Lekawada, Gandhinagar - IITM",30-01-2024 17:00:00,23.243639,72.68994,NO2,13,14,13
India,Gujarat,Gandhinagar,"Sector-10, Gandhinagar - GPCB",30-01-2024 17:00:00,23.221714,72.654328,OZONE,1,43,31
India,Gujarat,Surat,"Science Center, Surat - SMC",30-01-2024 17:00:00,21.170046,72.795405,SO2,16,28,20
India,Gujarat,Vapi,"Phase-1 GIDC, Vapi - GPCB",30-01-2024 17:00:00,20.362421,72.918013,SO2,34,46,41
India,Gujarat,Vapi,"Phase-1 GIDC, Vapi - GPCB",30-01-2024 17:00:00,20.362421,72.918013,CO,1,188,152
India,Gujarat,Vatva,"Phase-4 GIDC, Vatva - GPCB",30-01-2024 17:00:00,22.969611,72.643500,PM2.5,55,135,91
India,Haryana,Bahadurgarh,"Arya Nagar, Bahadurgarh - HSPCB",30-01-2024 17:00:00,28.6701,76.9254,PM10,76,232,162
India,Haryana,Bahadurgarh,"Arya Nagar, Bahadurgarh - HSPCB",30-01-2024 17:00:00,28.6701,76.9254,SO2,10,19,12
India,Haryana,Ballabgarh,"Nathu Colony, Ballabgarh - HSPCB",30-01-2024 17:00:00,28.3419248,77.319699,PM10,133,365,221
India,Haryana,Ballabgarh,"Nathu Colony, Ballabgarh - HSPCB",30-01-2024 17:00:00,28.3419248,77.319699,NH3,1,2,2
India,Haryana,Bhiwani,"H.B. Colony, Bhiwani - HSPCB",30-01-2024 17:00:00,28.806223,76.141105,OZONE,7,11,10
India,Haryana,Dharuhera,"Municipal Corporation Office, Dharuhera -  HSPCB",30-01-2024 17:00:00,28.206800,76.799700,PM2.5,40,153,79
India,Haryana,Faridabad,"New Industrial Town, Faridabad - HSPCB",30-01-2024 17:00:00,28.39072,77.30059,PM2.5,266,500,376
India,Haryana,Faridabad,"New Industrial Town, Faridabad - HSPCB",30-01-2024 17:00:00,28.39072,77.30059,SO2,NA,NA,NA
India,Haryana,Faridabad,"Sector 11, Faridabad - HSPCB",30-01-2024 17:00:00,28.376058,77.315741,CO,51,96,62
India,Haryana,Faridabad,"Sector 30, Faridabad - HSPCB",30-01-2024 17:00:00,28.4417,77.3217,SO2,12,13,12
India,Haryana,Faridabad,"Sector- 16A, Faridabad - HSPCB",30-01-2024 17:00:00,28.4088421,77.3099081,PM2.5,303,452,369
India,Haryana,Faridabad,"Sector- 16A, Faridabad - HSPCB",30-01-2024 17:00:00,28.4088421,77.3099081,NO2,29,103,61
India,Haryana,Fatehabad,"Huda Sector, Fatehabad - HSPCB",30-01-2024 17:00:00,29.503664,75.467934,CO,6,12,9
India,Haryana,Gurugram,"NISE Gwal Pahari, Gurugram - IMD",30-01-2024 17:00:00,28.422681,77.148944,PM10,16,303,171
India,Haryana,Gurugram,"NISE Gwal Pahari, Gurugram - IMD",30-01-2024 17:00:00,28.422681,77.148944,OZONE,1,61,28
India,Haryana,Gurugram,"Sector-51, Gurugram - HSPCB",30-01-2024 17:00:00,28.4227,77.0667,CO,76,100,86
India,Haryana,Gurugram,"Teri Gram, Gurugram - HSPCB",30-01-2024 17:00:00,28.4275,77.1465,CO,48,76,57
India,Haryana,Gurugram,"Vikas Sadan, Gurugram - HSPCB",30-01-2024 17:00:00,28.4501238,77.0263051,PM2.5,34,247,141
India,Haryana,Gurugram,"Vikas Sadan, Gurugram - HSPCB",30-01-2024 17:00:00,28.4501238,77.0263051,NO2,5,25,14
India,Haryana,Gurugram,"Vikas Sadan, Gurugram - HSPCB",30-01-2024 17:00:00,28.4501238,77.0263051,SO2,22,32,26
India,Haryana,Hisar,"Urban Estate-II, Hisar - HSPCB",30-01-2024 17:00:00,29.140560,75.744941,PM2.5,46,293,161
India,Haryana,Hisar,"Urban Estate-II, Hisar - HSPCB",30-01-2024 17:00:00,29.140560,75.744941,SO2,10,72,40
India,Haryana,Jind,"Police Lines, Jind - HSPCB",30-01-2024 17:00:00,29.307814,76.337619,OZONE,4,13,9
India,Haryana,Kaithal,"Rishi Nagar, Kaithal - HSPCB",30-01-2024 17:00:00,29.8006,76.4155,PM10,77,177,124
India,Haryana,Kaithal,"Rishi Nagar, Kaithal - HSPCB",30-01-2024 17:00:00,29.8006,76.4155,NH3,8,8,8
India,Haryana,Mandikhera,"General Hospital, Mandikhera - HSPCB",30-01-2024 17:00:00,27.9002,76.9938,CO,60,104,73
India,Haryana,Mandikhera,"General Hospital, Mandikhera - HSPCB",30-01-2024 17:00:00,27.9002,76.9938,OZONE,20,30,27
India,Haryana,Manesar,"Sector-2 IMT, Manesar - HSPCB",30-01-2024 17:00:00,28.360699,76.936090,NH3,4,10,7
India,Haryana,Palwal,"Shyam Nagar, Palwal - HSPCB",30-01-2024 17:00:00,28.1485564,77.3320667,PM2.5,NA,NA,NA
India,Haryana,Palwal,"Shyam Nagar, Palwal - HSPCB",30-01-2024 17:00:00,28.1485564,77.3320667,NO2,NA,NA,NA
India,Haryana,Palwal,"Shyam Nagar, Palwal - HSPCB",30-01-2024 17:00:00,28.1485564,77.3320667,NH3,NA,NA,NA
India,Haryana,Palwal,"Shyam Nagar, Palwal - HSPCB",30-01-2024 17:00:00,28.1485564,77.3320667,OZONE,5,40,23
India,Haryana,Panchkula,"Sector-6, Panchkula - HSPCB ",30-01-2024 17:00:00,30.7057778,76.8531805555555,NO2,29,31,30
India,Haryana,Panchkula,"Sector-6, Panchkula - HSPCB ",30-01-2024 17:00:00,30.7057778,76.8531805555555,OZONE,36,66,50
India,Haryana,Panipat,"Sector-18, Panipat - HSPCB",30-01-2024 17:00:00,29.497973,76.993331,PM2.5,122,125,123
India,Haryana,Rohtak,"MD University, Rohtak - HSPCB",30-01-2024 17:00:00,28.52123,76.37138,PM2.5,54,338,154
India,Haryana,Rohtak,"MD University, Rohtak - HSPCB",30-01-2024 17:00:00,28.52123,76.37138,NO2,47,55,51
India,Haryana,Rohtak,"MD University, Rohtak - HSPCB",30-01-2024 17:00:00,28.52123,76.37138,OZONE,46,53,48
India,Haryana,Sonipat,"Murthal, Sonipat - HSPCB",30-01-2024 17:00:00,29.027200,77.062100,PM2.5,76,316,209
India,Haryana,Sonipat,"Murthal, Sonipat - HSPCB",30-01-2024 17:00:00,29.027200,77.062100,NH3,7,10,9
India,Haryana,Yamuna Nagar,"Gobind Pura, Yamuna Nagar - HSPCB",30-01-2024 17:00:00,30.1480566,77.2893471,NH3,1,6,4
India,Himachal Pradesh,Baddi,"HIMUDA Complex Phase-1, Baddi - HPPCB",30-01-2024 17:00:00,30.943887,76.801991,NH3,6,8,7
India,Himachal Pradesh,Baddi,"HIMUDA Complex Phase-1, Baddi - HPPCB",30-01-2024 17:00:00,30.943887,76.801991,OZONE,9,103,70
India,Jammu_and_Kashmir,Srinagar,"Rajbagh, Srinagar - JKSPCB",30-01-2024 17:00:00,34.066206,74.819820,PM2.5,NA,NA,NA
India,Jharkhand,Dhanbad,"Kalakusuma, Dhanbad - DMC",30-01-2024 17:00:00,23.811548,86.481238,PM10,NA,NA,NA
India,Jharkhand,Dhanbad,"Sardar Patel Nagar, Dhanbad - JSPCB",30-01-2024 17:00:00,23.80569,86.44268,SO2,NA,NA,NA
India,Karnataka,Belgaum,"Ramteerth Nagar, Belgaum - KSPCB",30-01-2024 17:00:00,15.888653,74.541751,OZONE,19,20,20
India,Karnataka,Bengaluru,"BTM Layout, Bengaluru - CPCB",30-01-2024 17:00:00,12.9135218,77.5950804,NH3,2,5,4
India,Karnataka,Bengaluru,"BTM Layout, Bengaluru - CPCB",30-01-2024 17:00:00,12.9135218,77.5950804,OZONE,15,57,26
India,Karnataka,Bengaluru,"Bapuji Nagar, Bengaluru - KSPCB",30-01-2024 17:00:00,12.951913,77.539784,PM2.5,72,270,122
