country,state,city,station,last_update,latitude,longitude,pollutant_id,pollutant_min,pollutant_max,pollutant_avg
India,Andhra_Pradesh,Amaravati,"Secretariat, Amaravati - APPCB",13-05-2024 00:00:00,16.5150833,80.5181667,PM10,11,51,25
India,Andhra_Pradesh,Amaravati,"Secretariat, Amaravati - APPCB",13-05-2024 00:00:00,16.5150833,80.5181667,OZONE,2,35,18
India,Andhra_Pradesh,Anantapur,"Gulzarpet, Anantapur - APPCB",13-05-2024 00:00:00,14.675886,77.593027,CO,24,46,28
India,Andhra_Pradesh,Anantapur,"Gulzarpet, Anantapur - APPCB",13-05-2024 00:00:00,14.675886,77.593027,OZONE,10,57,39
India,Andhra_Pradesh,Chittoor,"Gangineni Cheruvu, Chittoor - APPCB",13-05-2024 00:00:00,13.204880,79.097889,PM2.5,NA,NA,NA
India,Andhra_Pradesh,Chittoor,"Gangineni Cheruvu, Chittoor - APPCB",13-05-2024 00:00:00,13.204880,79.097889,OZONE,27,72,52
India,Andhra_Pradesh,Kadapa,"Yerramukkapalli, Kadapa - APPCB",13-05-2024 00:00:00,14.465052,78.824187,PM10,NA,NA,NA
India,Andhra_Pradesh,Kadapa,"Yerramukkapalli, Kadapa - APPCB",13-05-2024 00:00:00,14.465052,78.824187,NO2,12,13,12
India,Andhra_Pradesh,Kadapa,"Yerramukkapalli, Kadapa - APPCB",13-05-2024 00:00:00,14.465052,78.824187,OZONE,6,64,42
India,Andhra_Pradesh,Rajamahendravaram,"Anand Kala Kshetram, Rajamahendravaram - APPCB",13-05-2024 00:00:00,16.9872867,81.7363176,SO2,12,13,12
India,Andhra_Pradesh,Rajamahendravaram,"Anand Kala Kshetram, Rajamahendravaram - APPCB",13-05-2024 00:00:00,16.9872867,81.7363176,CO,22,38,31
India,Andhra_Pradesh,Tirupati,"Tirumala, Tirupati - APPCB",13-05-2024 00:00:00,13.67,79.35,PM10,8,53,30
India,Andhra_Pradesh,Tirupati,"Vaikuntapuram, Tirupati - APPCB",13-05-2024 00:00:00,13.615387,79.409230,PM2.5,NA,NA,NA
India,Andhra_Pradesh,Tirupati,"Vaikuntapuram, Tirupati - APPCB",13-05-2024 00:00:00,13.615387,79.409230,CO,8,14,12
India,Andhra_Pradesh,Vijayawada,"Rajiv Nagar, Vijayawada - APPCB",13-05-2024 00:00:00,16.554731,80.649110,PM10,NA,NA,NA
India,Andhra_Pradesh,Vijayawada,"Rajiv Nagar, Vijayawada - APPCB",13-05-2024 00:00:00,16.554731,80.649110,OZONE,NA,NA,NA
India,Andhra_Pradesh,Visakhapatnam,"GVM Corporation, Visakhapatnam - APPCB",13-05-2024 00:00:00,17.72,83.3,OZONE,2,133,28
India,Assam,Byrnihat,"Central Academy for SFS, Byrnihat - PCBA",13-05-2024 00:00:00,26.071318,91.87488,PM10,NA,NA,NA
India,Assam,Guwahati,"IITG, Guwahati - PCBA",13-05-2024 00:00:00,26.2028636,91.70046436,NO2,1,5,1
India,Assam,Guwahati,"LGBI Airport, Guwahati - PCBA",13-05-2024 00:00:00,26.10887,91.589544,PM2.5,15,309,73
India,Assam,Nagaon,"Christianpatty, Nagaon - PCBA",13-05-2024 00:00:00,26.349082,92.68449,NH3,1,7,3
India,Assam,Nagaon,"Christianpatty, Nagaon - PCBA",13-05-2024 00:00:00,26.349082,92.68449,CO,32,78,54
India,Assam,Nalbari,"Bata Chowk, Nalbari - PCBA",13-05-2024 00:00:00,26.446912,91.439057,PM10,47,205,91
India,Assam,Nalbari,"Bata Chowk, Nalbari - PCBA",13-05-2024 00:00:00,26.446912,91.439057,OZONE,10,16,13
India,Assam,Silchar,"Tarapur, Silchar - PCBA",13-05-2024 00:00:00,24.82827,92.79525,OZONE,NA,NA,NA
India,Assam,Sivasagar,"Girls College, Sivasagar - PCBA",13-05-2024 00:00:00,26.987634,94.636574,PM10,40,77,53
India,Assam,Sivasagar,"Girls College, Sivasagar - PCBA",13-05-2024 00:00:00,26.987634,94.636574,CO,22,32,27
India,Assam,Sivasagar,"Girls College, Sivasagar - PCBA",13-05-2024 00:00:00,26.987634,94.636574,OZONE,1,10,5
India,Bihar,Araria,"Kharahiya Basti, Araria - BSPCB",13-05-2024 00:00:00,26.146529,87.454184,CO,12,29,20
India,Bihar,Aurangabad,"Gurdeo Nagar, Aurangabad - BSPCB",13-05-2024 00:00:00,24.75746,84.366208,SO2,19,23,21
India,Bihar,Aurangabad,"Gurdeo Nagar, Aurangabad - BSPCB",13-05-2024 00:00:00,24.75746,84.366208,OZONE,40,151,89
India,Bihar,Bettiah,"Kamalnath Nagar, Bettiah - BSPCB",13-05-2024 00:00:00,26.80365,84.51954,OZONE,2,12,5
India,Bihar,Bhagalpur,"DM Office_Kachari Chowk, Bhagalpur - BSPCB",13-05-2024 00:00:00,25.251013,86.989001,PM2.5,NA,NA,NA
India,Bihar,Bhagalpur,"DM Office_Kachari Chowk, Bhagalpur - BSPCB",13-05-2024 00:00:00,25.251013,86.989001,NH3,NA,NA,NA
India,Bihar,Bhagalpur,"DM Office_Kachari Chowk, Bhagalpur - BSPCB",13-05-2024 00:00:00,25.251013,86.989001,SO2,NA,NA,NA
India,Bihar,Bhagalpur,"DM Office_Kachari Chowk, Bhagalpur - BSPCB",13-05-2024 00:00:00,25.251013,86.989001,CO,38,60,43
India,Bihar,Bhagalpur,"DM Office_Kachari Chowk, Bhagalpur - BSPCB",13-05-2024 00:00:00,25.251013,86.989001,OZONE,46,59,48
India,Bihar,Bhagalpur,"Mayaganj, Bhagalpur - BSPCB",13-05-2024 00:00:00,25.265194,87.012947,CO,8,9,9
India,Bihar,Bihar Sharif,"D M Colony, Bihar Sharif - BSPCB",13-05-2024 00:00:00,25.204762,85.514960,PM10,18,99,54
India,Bihar,Bihar Sharif,"D M Colony, Bihar Sharif - BSPCB",13-05-2024 00:00:00,25.204762,85.514960,SO2,8,15,11
India,Bihar,Bihar Sharif,"D M Colony, Bihar Sharif - BSPCB",13-05-2024 00:00:00,25.204762,85.514960,OZONE,26,68,48
India,Bihar,Buxar,"Charitra Van, Buxar - BSPCB (Formerly known as Central Jail)",13-05-2024 00:00:00,25.567520,83.966379,CO,42,80,71
India,Bihar,Chhapra,"Darshan Nagar, Chhapra - BSPCB",13-05-2024 00:00:00,25.7808257,84.7446768,NO2,15,25,19
India,Bihar,Gaya,"Kareemganj, Gaya - BSPCB",13-05-2024 00:00:00,24.792403,84.992416,NO2,30,31,31
India,Bihar,Gaya,"SFTI Kusdihra, Gaya - BSPCB",13-05-2024 00:00:00,24.762518,84.982348,NH3,4,8,4
India,Bihar,Hajipur,"Industrial Area, Hajipur - BSPCB",13-05-2024 00:00:00,25.697189,85.245900,CO,26,47,29
India,Bihar,Katihar,"Mirchaibari, Katihar - BSPCB",13-05-2024 00:00:00,25.560083,87.553265,SO2,20,23,22
India,Bihar,Kishanganj,"SDM Office_Khagra, Kishanganj - BSPCB",13-05-2024 00:00:00,26.0881305,87.93840336,OZONE,49,64,50
India,Bihar,Motihari,"Gandak Colony, Motihari - BSPCB",13-05-2024 00:00:00,26.63086,84.90051,SO2,11,23,17
India,Bihar,Munger,"Town Hall, Munger - BSPCB",13-05-2024 00:00:00,25.376776,86.471523,NO2,5,6,5
India,Bihar,Munger,"Town Hall, Munger - BSPCB",13-05-2024 00:00:00,25.376776,86.471523,NH3,2,3,3
India,Bihar,Munger,"Town Hall, Munger - BSPCB",13-05-2024 00:00:00,25.376776,86.471523,SO2,17,35,27
India,Bihar,Muzaffarpur,"Buddha Colony, Muzaffarpur - BSPCB",13-05-2024 00:00:00,26.11442,85.39813,NO2,7,15,10
India,Bihar,Muzaffarpur,"Buddha Colony, Muzaffarpur - BSPCB",13-05-2024 00:00:00,26.11442,85.39813,SO2,4,6,5
India,Bihar,Muzaffarpur,"Muzaffarpur Collectorate, Muzaffarpur - BSPCB",13-05-2024 00:00:00,26.1209,85.3647,CO,28,37,34
India,Bihar,Patna,"DRM Office Danapur, Patna - BSPCB",13-05-2024 00:00:00,25.586562,85.043586,NH3,2,3,3
India,Bihar,Patna,"Rajbansi Nagar, Patna - BSPCB",13-05-2024 00:00:00,25.599486,85.113666,NO2,7,15,10
India,Bihar,Patna,"Rajbansi Nagar, Patna - BSPCB",13-05-2024 00:00:00,25.599486,85.113666,OZONE,34,87,63
India,Bihar,Patna,"Samanpura, Patna - BSPCB",13-05-2024 00:00:00,25.596727,85.085624,PM10,95,158,118
India,Bihar,Patna,"Samanpura, Patna - BSPCB",13-05-2024 00:00:00,25.596727,85.085624,SO2,6,10,7
India,Bihar,Patna,"Samanpura, Patna - BSPCB",13-05-2024 00:00:00,25.596727,85.085624,CO,44,62,47
India,Bihar,Purnia,"Mariam Nagar, Purnia - BSPCB",13-05-2024 00:00:00,25.366336,87.117468,PM2.5,12,67,52
India,Bihar,Purnia,"Mariam Nagar, Purnia - BSPCB",13-05-2024 00:00:00,25.366336,87.117468,NO2,5,6,6
India,Bihar,Saharsa,"Police Line, Saharsa - BSPCB",13-05-2024 00:00:00,25.892357,86.590325,NO2,7,7,7
India,Bihar,Saharsa,"Police Line, Saharsa - BSPCB",13-05-2024 00:00:00,25.892357,86.590325,CO,54,55,54
India,Bihar,Samastipur,"DM Office_Kasipur, Samastipur - BSPCB",13-05-2024 00:00:00,25.859655,85.77944,PM2.5,30,193,67
India,Bihar,Samastipur,"DM Office_Kasipur, Samastipur - BSPCB",13-05-2024 00:00:00,25.859655,85.77944,CO,14,112,62
India,Bihar,Sasaram,"Dada Peer, Sasaram - BSPCB",13-05-2024 00:00:00,24.952822,84.002396,PM2.5,4,41,17
India,Bihar,Sasaram,"Dada Peer, Sasaram - BSPCB",13-05-2024 00:00:00,24.952822,84.002396,PM10,11,109,46
India,Bihar,Sasaram,"Dada Peer, Sasaram - BSPCB",13-05-2024 00:00:00,24.952822,84.002396,NH3,4,29,17
India,Bihar,Siwan,"Chitragupta Nagar, Siwan - BSPCB",13-05-2024 00:00:00,26.2271665,84.3570427,NO2,10,16,13
India,Chandigarh,Chandigarh,"Sector 22, Chandigarh - CPCC",13-05-2024 00:00:00,30.735567,76.775714,PM10,79,125,103
India,Chandigarh,Chandigarh,"Sector-25, Chandigarh - CPCC",13-05-2024 00:00:00,30.751462,76.762879,SO2,9,42,13
India,Chandigarh,Chandigarh,"Sector-53, Chandigarh - CPCC",13-05-2024 00:00:00,30.719859,76.738637,PM10,99,165,122
India,Chandigarh,Chandigarh,"Sector-53, Chandigarh - CPCC",13-05-2024 00:00:00,30.719859,76.738637,NO2,12,84,34
India,Chhattisgarh,Bhilai,"32Bungalows, Bhilai - CECB",13-05-2024 00:00:00,21.194815,81.314770,PM10,44,94,71
India,Chhattisgarh,Bhilai,"32Bungalows, Bhilai - CECB",13-05-2024 00:00:00,21.194815,81.314770,NH3,6,6,6
India,Chhattisgarh,Bhilai,"Civic Center, Bhilai - Bhilai Steel Plant",13-05-2024 00:00:00,21.185571,81.343175,CO,21,108,46
India,Chhattisgarh,Bhilai,"Hathkhoj, Bhilai - CECB",13-05-2024 00:00:00,21.224231,81.408350,CO,10,35,19
India,Chhattisgarh,Bilaspur,"Mangala, Bilaspur - NTPC",13-05-2024 00:00:00,22.08815,82.13737,PM2.5,36,61,49
India,Chhattisgarh,Bilaspur,"Mangala, Bilaspur - NTPC",13-05-2024 00:00:00,22.08815,82.13737,PM10,39,67,50
India,Chhattisgarh,Bilaspur,"Mangala, Bilaspur - NTPC",13-05-2024 00:00:00,22.08815,82.13737,CO,42,48,46
India,Chhattisgarh,Korba,"Rampur, Korba - CECB",13-05-2024 00:00:00,22.368195,82.746431,PM2.5,25,60,42
India,Chhattisgarh,Kunjemura,"OP Jindal School, Kunjemura - CECB",13-05-2024 00:00:00,22.126650,83.483212,OZONE,8,63,36
India,Chhattisgarh,Milupara,"Govt. Higher Secondary School, Milupara - CECB",13-05-2024 00:00:00,22.1910172,83.5197009,CO,5,28,18
India,Chhattisgarh,Raipur,"Bhatagaon New ISBT, Raipur - CECB",13-05-2024 00:00:00,21.219665,81.630094,PM2.5,14,37,25
India,Chhattisgarh,Raipur,"Bhatagaon New ISBT, Raipur - CECB",13-05-2024 00:00:00,21.219665,81.630094,NO2,2,6,4
India,Chhattisgarh,Raipur,"Bhatagaon New ISBT, Raipur - CECB",13-05-2024 00:00:00,21.219665,81.630094,OZONE,4,10,6
India,Delhi,Delhi,"Anand Vihar, Delhi - DPCC",13-05-2024 00:00:00,28.647622,77.3158090,SO2,12,52,28
India,Delhi,Delhi,"Ashok Vihar, Delhi - DPCC",13-05-2024 00:00:00,28.695381,77.181665,SO2,27,49,34
India,Delhi,Delhi,"Ashok Vihar, Delhi - DPCC",13-05-2024 00:00:00,28.695381,77.181665,OZONE,13,242,149
India,Delhi,Delhi,"Bawana, Delhi - DPCC",13-05-2024 00:00:00,28.776200,77.051074,PM2.5,97,499,229
India,Delhi,Delhi,"Bawana, Delhi - DPCC",13-05-2024 00:00:00,28.776200,77.051074,NH3,5,12,8
India,Delhi,Delhi,"Burari Crossing, Delhi - IMD",13-05-2024 00:00:00,28.7256504,77.2011573,CO,42,76,54
India,Delhi,Delhi,"CRRI Mathura Road, Delhi - IMD",13-05-2024 00:00:00,28.5512005,77.2735737,PM10,131,248,169
India,Delhi,Delhi,"Chandni Chowk, Delhi - IITM",13-05-2024 00:00:00,28.656756,77.227234,SO2,NA,NA,NA
India,Delhi,Delhi,"Chandni Chowk, Delhi - IITM",13-05-2024 00:00:00,28.656756,77.227234,CO,32,102,78
India,Delhi,Delhi,"DTU, Delhi - CPCB",13-05-2024 00:00:00,28.7500499,77.1112615,OZONE,38,250,145
India,Delhi,Delhi,"Dr. Karni Singh Shooting Range, Delhi - DPCC",13-05-2024 00:00:00,28.498571,77.264840,SO2,25,36,31
India,Delhi,Delhi,"Dwarka-Sector 8, Delhi - DPCC ",13-05-2024 00:00:00,28.5710274,77.0719006,OZONE,7,111,75
India,Delhi,Delhi,"IGI Airport (T3), Delhi - IMD",13-05-2024 00:00:00,28.5627763,77.1180053,PM2.5,60,255,117
India,Delhi,Delhi,"IHBAS, Dilshad Garden, Delhi - CPCB",13-05-2024 00:00:00,28.6811736,77.3025234,NO2,29,41,36
India,Delhi,Delhi,"ITO, Delhi - CPCB",13-05-2024 00:00:00,28.628624,77.241060,SO2,9,39,19
India,Delhi,Delhi,"Jahangirpuri, Delhi - DPCC",13-05-2024 00:00:00,28.732820,77.170633,CO,56,102,82
India,Delhi,Delhi,"Jawaharlal Nehru Stadium, Delhi - DPCC",13-05-2024 00:00:00,28.580280,77.233829,CO,32,108,65
India,Delhi,Delhi,"Lodhi Road, Delhi - IITM",13-05-2024 00:00:00,28.588333,77.221667,NO2,NA,NA,NA
India,Delhi,Delhi,"Lodhi Road, Delhi - IMD",13-05-2024 00:00:00,28.5918245,77.2273074,PM10,105,167,135
India,Delhi,Delhi,"Major Dhyan Chand National Stadium, Delhi - DPCC",13-05-2024 00:00:00,28.611281,77.237738,PM2.5,93,321,165
India,Delhi,Delhi,"Major Dhyan Chand National Stadium, Delhi - DPCC",13-05-2024 00:00:00,28.611281,77.237738,PM10,126,223,157
India,Delhi,Delhi,"Major Dhyan Chand National Stadium, Delhi - DPCC",13-05-2024 00:00:00,28.611281,77.237738,NH3,8,10,9
India,Delhi,Delhi,"NSIT Dwarka, Delhi - CPCB",13-05-2024 00:00:00,28.60909,77.0325413,SO2,12,31,22
India,Delhi,Delhi,"NSIT Dwarka, Delhi - CPCB",13-05-2024 00:00:00,28.60909,77.0325413,CO,22,77,46
India,Delhi,Delhi,"Najafgarh, Delhi - DPCC",13-05-2024 00:00:00,28.570173,76.933762,PM2.5,62,262,121
India,Delhi,Delhi,"Narela, Delhi - DPCC",13-05-2024 00:00:00,28.822836,77.101981,CO,35,136,60
India,Delhi,Delhi,"Narela, Delhi - DPCC",13-05-2024 00:00:00,28.822836,77.101981,OZONE,15,274,147
India,Delhi,Delhi,"Nehru Nagar, Delhi - DPCC",13-05-2024 00:00:00,28.567890,77.250515,NO2,3,44,15
India,Delhi,Delhi,"Nehru Nagar, Delhi - DPCC",13-05-2024 00:00:00,28.567890,77.250515,CO,49,68,58
India,Delhi,Delhi,"Okhla Phase-2, Delhi - DPCC",13-05-2024 00:00:00,28.530785,77.271255,NH3,7,13,10
India,Delhi,Delhi,"Okhla Phase-2, Delhi - DPCC",13-05-2024 00:00:00,28.530785,77.271255,SO2,6,16,12
India,Delhi,Delhi,"Okhla Phase-2, Delhi - DPCC",13-05-2024 00:00:00,28.530785,77.271255,CO,42,116,88
India,Delhi,Delhi,"Pusa, Delhi - DPCC",13-05-2024 00:00:00,28.639652,77.146275,PM10,124,217,162
India,Delhi,Delhi,"Pusa, Delhi - IMD",13-05-2024 00:00:00,28.636110,77.173332,CO,44,77,52
India,Delhi,Delhi,"Rohini, Delhi - DPCC",13-05-2024 00:00:00,28.732528,77.119920,NH3,9,23,15
India,Delhi,Delhi,"Rohini, Delhi - DPCC",13-05-2024 00:00:00,28.732528,77.119920,SO2,18,79,34
India,Delhi,Delhi,"Shadipur, Delhi - CPCB",13-05-2024 00:00:00,28.6514781,77.1473105,PM2.5,61,420,185
India,Delhi,Delhi,"Shadipur, Delhi - CPCB",13-05-2024 00:00:00,28.6514781,77.1473105,PM10,119,500,234
India,Delhi,Delhi,"Shadipur, Delhi - CPCB",13-05-2024 00:00:00,28.6514781,77.1473105,CO,38,89,66
India,Delhi,Delhi,"Shadipur, Delhi - CPCB",13-05-2024 00:00:00,28.6514781,77.1473105,OZONE,13,112,34
India,Delhi,Delhi,"Sirifort, Delhi - CPCB",13-05-2024 00:00:00,28.5504249,77.2159377,PM10,125,251,156
India,Delhi,Delhi,"Sri Aurobindo Marg, Delhi - DPCC",13-05-2024 00:00:00,28.531346,77.190156,NH3,8,11,9
India,Delhi,Delhi,"Sri Aurobindo Marg, Delhi - DPCC",13-05-2024 00:00:00,28.531346,77.190156,CO,6,90,43
India,Gujarat,Ahmedabad,"Chandkheda, Ahmedabad - IITM",13-05-2024 00:00:00,23.107969,72.574648,SO2,2,18,7
India,Gujarat,Ahmedabad,"Gyaspur, Ahmedabad - IITM",13-05-2024 00:00:00,22.977134,72.553024,PM10,49,185,78
India,Gujarat,Ahmedabad,"Gyaspur, Ahmedabad - IITM",13-05-2024 00:00:00,22.977134,72.553024,NH3,6,7,7
India,Gujarat,Ahmedabad,"Maninagar, Ahmedabad - GPCB",13-05-2024 00:00:00,23.002657,72.591912,PM2.5,14,103,54
India,Gujarat,Ahmedabad,"Raikhad, Ahmedabad - IITM",13-05-2024 00:00:00,23.020509,72.579261,PM10,NA,NA,NA
India,Gujarat,Ahmedabad,"Rakhial, Ahmedabad - IITM",13-05-2024 00:00:00,23.016834,72.625775,PM2.5,22,352,115
India,Gujarat,Ahmedabad,"Rakhial, Ahmedabad - IITM",13-05-2024 00:00:00,23.016834,72.625775,CO,30,114,87
India,Gujarat,Ahmedabad,"SVPI Airport Hansol, Ahmedabad - IITM",13-05-2024 00:00:00,23.076793,72.627874,PM10,88,145,111
India,Gujarat,Ahmedabad,"SVPI Airport Hansol, Ahmedabad - IITM",13-05-2024 00:00:00,23.076793,72.627874,NH3,5,5,5
India,Gujarat,Ahmedabad,"SVPI Airport Hansol, Ahmedabad - IITM",13-05-2024 00:00:00,23.076793,72.627874,OZONE,13,88,46
India,Gujarat,Ahmedabad,"Sardar Vallabhbhai Patel Stadium, Ahmedabad - IITM",13-05-2024 00:00:00,23.043070,72.562968,SO2,11,25,18
India,Gujarat,Ahmedabad,"Sardar Vallabhbhai Patel Stadium, Ahmedabad - IITM",13-05-2024 00:00:00,23.043070,72.562968,CO,43,73,53
India,Gujarat,Nandesari,"GIDC, Nandesari - Nandesari Ind. Association",13-05-2024 00:00:00,22.410802,73.097923,PM10,77,180,125
India,Gujarat,Surat,"Science Center, Surat - SMC",13-05-2024 00:00:00,21.170046,72.795405,PM10,7,29,14
India,Gujarat,Vatva,"Phase-4 GIDC, Vatva - GPCB",13-05-2024 00:00:00,22.969611,72.643500,SO2,1,21,7
India,Gujarat,Vatva,"Phase-4 GIDC, Vatva - GPCB",13-05-2024 00:00:00,22.969611,72.643500,CO,34,36,36
India,Haryana,Ambala,"Patti Mehar, Ambala - HSPCB",13-05-2024 00:00:00,30.379589,76.778328,CO,30,60,39
India,Haryana,Ambala,"Patti Mehar, Ambala - HSPCB",13-05-2024 00:00:00,30.379589,76.778328,OZONE,32,51,41
India,Haryana,Ballabgarh,"Nathu Colony, Ballabgarh - HSPCB",13-05-2024 00:00:00,28.3419248,77.319699,NH3,1,2,2
India,Haryana,Bhiwani,"H.B. Colony, Bhiwani - HSPCB",13-05-2024 00:00:00,28.806223,76.141105,OZONE,12,19,15
India,Haryana,Charkhi Dadri,"Mini Secretariat, Charkhi Dadri - HSPCB",13-05-2024 00:00:00,28.593883,76.270653,CO,28,76,59
India,Haryana,Faridabad,"Sector 11, Faridabad - HSPCB",13-05-2024 00:00:00,28.376058,77.315741,NO2,30,33,31
India,Haryana,Fatehabad,"Huda Sector, Fatehabad - HSPCB",13-05-2024 00:00:00,29.503664,75.467934,OZONE,23,46,32
India,Haryana,Gurugram,"Sector-51, Gurugram - HSPCB",13-05-2024 00:00:00,28.4227,77.0667,PM2.5,88,236,151
India,Haryana,Gurugram,"Vikas Sadan, Gurugram - HSPCB",13-05-2024 00:00:00,28.4501238,77.0263051,NO2,5,22,14
India,Haryana,Gurugram,"Vikas Sadan, Gurugram - HSPCB",13-05-2024 00:00:00,28.4501238,77.0263051,SO2,NA,NA,NA
India,Haryana,Hisar,"Urban Estate-II, Hisar - HSPCB",13-05-2024 00:00:00,29.140560,75.744941,NO2,22,27,24
India,Haryana,Hisar,"Urban Estate-II, Hisar - HSPCB",13-05-2024 00:00:00,29.140560,75.744941,OZONE,44,181,131
India,Haryana,Kaithal,"Rishi Nagar, Kaithal - HSPCB",13-05-2024 00:00:00,29.8006,76.4155,PM10,93,183,141
India,Haryana,Kaithal,"Rishi Nagar, Kaithal - HSPCB",13-05-2024 00:00:00,29.8006,76.4155,NH3,8,8,8
India,Haryana,Kurukshetra,"Sector-7, Kurukshetra - HSPCB",13-05-2024 00:00:00,29.966942,76.875879,OZONE,11,85,59
India,Haryana,Mandikhera,"General Hospital, Mandikhera - HSPCB",13-05-2024 00:00:00,27.9002,76.9938,SO2,30,38,34
India,Haryana,Manesar,"Sector-2 IMT, Manesar - HSPCB",13-05-2024 00:00:00,28.360699,76.936090,PM10,76,132,102
India,Haryana,Narnaul,"Shastri Nagar, Narnaul - HSPCB",13-05-2024 00:00:00,28.060249,76.113115,SO2,NA,NA,NA
India,Haryana,Palwal,"Shyam Nagar, Palwal - HSPCB",13-05-2024 00:00:00,28.1485564,77.3320667,PM2.5,48,77,65
India,Haryana,Palwal,"Shyam Nagar, Palwal - HSPCB",13-05-2024 00:00:00,28.1485564,77.3320667,SO2,3,17,10
India,Haryana,Panipat,"Sector-18, Panipat - HSPCB",13-05-2024 00:00:00,29.497973,76.993331,NH3,2,3,3
India,Haryana,Panipat,"Sector-18, Panipat - HSPCB",13-05-2024 00:00:00,29.497973,76.993331,CO,24,26,25
India,Haryana,Rohtak,"MD University, Rohtak - HSPCB",13-05-2024 00:00:00,28.52123,76.37138,CO,5,100,64
India,Haryana,Sirsa,"F-Block, Sirsa - HSPCB",13-05-2024 00:00:00,29.536400,75.015800,PM10,45,81,64
India,Haryana,Sirsa,"F-Block, Sirsa - HSPCB",13-05-2024 00:00:00,29.536400,75.015800,CO,58,78,68
India,Haryana,Sonipat,"Murthal, Sonipat - HSPCB",13-05-2024 00:00:00,29.027200,77.062100,NH3,7,10,9
India,Haryana,Yamuna Nagar,"Gobind Pura, Yamuna Nagar - HSPCB",13-05-2024 00:00:00,30.1480566,77.2893471,PM10,90,120,101
India,Haryana,Yamuna Nagar,"Gobind Pura, Yamuna Nagar - HSPCB",13-05-2024 00:00:00,30.1480566,77.2893471,CO,31,64,46
India,Himachal Pradesh,Baddi,"HIMUDA Complex Phase-1, Baddi - HPPCB",13-05-2024 00:00:00,30.943887,76.801991,PM10,67,214,118
India,Himachal Pradesh,Baddi,"HIMUDA Complex Phase-1, Baddi - HPPCB",13-05-2024 00:00:00,30.943887,76.801991,NH3,3,5,4
India,Himachal Pradesh,Baddi,"HIMUDA Complex Phase-1, Baddi - HPPCB",13-05-2024 00:00:00,30.943887,76.801991,OZONE,46,231,114
India,Jammu_and_Kashmir,Srinagar,"Rajbagh, Srinagar - JKSPCB",13-05-2024 00:00:00,34.066206,74.819820,PM2.5,16,54,25
India,Jammu_and_Kashmir,Srinagar,"Rajbagh, Srinagar - JKSPCB",13-05-2024 00:00:00,34.066206,74.819820,CO,19,26,23
India,Jharkhand,Dhanbad,"Kalakusuma, Dhanbad - DMC",13-05-2024 00:00:00,23.811548,86.481238,OZONE,68,69,69
India,Jharkhand,Dhanbad,"Sardar Patel Nagar, Dhanbad - JSPCB",13-05-2024 00:00:00,23.80569,86.44268,NO2,NA,NA,NA
India,Jharkhand,Dhanbad,"Sardar Patel Nagar, Dhanbad - JSPCB",13-05-2024 00:00:00,23.80569,86.44268,CO,106,196,193
India,Jharkhand,Dhanbad,"Sardar Patel Nagar, Dhanbad - JSPCB",13-05-2024 00:00:00,23.80569,86.44268,OZONE,27,82,62
India,Karnataka,Belgaum,"Ramteerth Nagar, Belgaum - KSPCB",13-05-2024 00:00:00,15.888653,74.541751,PM2.5,12,23,18
India,Karnataka,Belgaum,"Ramteerth Nagar, Belgaum - KSPCB",13-05-2024 00:00:00,15.888653,74.541751,NO2,2,90,24
India,Karnataka,Bengaluru,"Hebbal, Bengaluru - KSPCB",13-05-2024 00:00:00,13.029152,77.585901,PM2.5,38,80,58
India,Karnataka,Bengaluru,"Hebbal, Bengaluru - KSPCB",13-05-2024 00:00:00,13.029152,77.585901,PM10,34,78,58
India,Karnataka,Bengaluru,"Hebbal, Bengaluru - KSPCB",13-05-2024 00:00:00,13.029152,77.585901,NH3,1,1,1
India,Karnataka,Bengaluru,"Hombegowda Nagar, Bengaluru - KSPCB",13-05-2024 00:00:00,12.938539,77.590100,PM10,32,89,51
India,Karnataka,Bengaluru,"Jayanagar 5th Block, Bengaluru - KSPCB",13-05-2024 00:00:00,12.920984,77.584908,NH3,2,3,2
India,Karnataka,Bengaluru,"Peenya, Bengaluru - CPCB",13-05-2024 00:00:00,13.0270199,77.494094,NH3,3,4,4
India,Karnataka,Bengaluru,"RVCE-Mailasandra, Bengaluru - KSPCB",13-05-2024 00:00:00,12.921418,77.502466,NO2,17,17,17
India,Karnataka,Bengaluru,"RVCE-Mailasandra, Bengaluru - KSPCB",13-05-2024 00:00:00,12.921418,77.502466,SO2,7,8,8
India,Karnataka,Bengaluru,"Sanegurava Halli, Bengaluru - KSPCB",13-05-2024 00:00:00,12.990328,77.5431385,NO2,NA,NA,NA
India,Karnataka,Bengaluru,"Shivapura_Peenya, Bengaluru - KSPCB",13-05-2024 00:00:00,13.0246342,77.5080115,SO2,3,7,5
India,Karnataka,Bengaluru,"Silk Board, Bengaluru - KSPCB",13-05-2024 00:00:00,12.917348,77.622813,PM10,45,141,88
India,Karnataka,Bidar,"Naubad, Bidar - KSPCB",13-05-2024 00:00:00,17.930306,77.482194,NO2,7,8,8
India,Karnataka,Bidar,"Naubad, Bidar - KSPCB",13-05-2024 00:00:00,17.930306,77.482194,SO2,13,21,18
India,Karnataka,Chamarajanagar,"Urban, Chamarajanagar - KSPCB",13-05-2024 00:00:00,11.55358,76.55521,PM10,35,49,45
India,Karnataka,Chamarajanagar,"Urban, Chamarajanagar - KSPCB",13-05-2024 00:00:00,11.55358,76.55521,NO2,22,30,27
India,Karnataka,Chikkaballapur,"Chikkaballapur Rural, Chikkaballapur - KSPCB",13-05-2024 00:00:00,13.428828,77.731418,PM2.5,23,63,51
India,Karnataka,Chikkaballapur,"Chikkaballapur Rural, Chikkaballapur - KSPCB",13-05-2024 00:00:00,13.428828,77.731418,SO2,21,24,23
India,Karnataka,Davanagere,"Devaraj Urs Badavane, Davanagere - KSPCB",13-05-2024 00:00:00,14.475800,75.905200,PM2.5,19,53,37
India,Karnataka,Davanagere,"Devaraj Urs Badavane, Davanagere - KSPCB",13-05-2024 00:00:00,14.475800,75.905200,PM10,18,68,42
India,Karnataka,Davanagere,"Devaraj Urs Badavane, Davanagere - KSPCB",13-05-2024 00:00:00,14.475800,75.905200,CO,12,24,21
India,Karnataka,Dharwad,"Kalabhavan, Dharwad - KSPCB",13-05-2024 00:00:00,15.459706,75.008381,NH3,NA,NA,NA
India,Karnataka,Hassan,"B.Katihalli, Hassan - KSPCB",13-05-2024 00:00:00,13.008556,76.125258,PM10,40,111,73
India,Karnataka,Haveri,"Ashwini Nagar, Haveri - KSPCB",13-05-2024 00:00:00,14.791800,75.389600,PM2.5,17,51,38
India,Karnataka,Haveri,"Ashwini Nagar, Haveri - KSPCB",13-05-2024 00:00:00,14.791800,75.389600,PM10,NA,NA,NA
India,Karnataka,Haveri,"Ashwini Nagar, Haveri - KSPCB",13-05-2024 00:00:00,14.791800,75.389600,SO2,14,14,14
India,Karnataka,Haveri,"Ashwini Nagar, Haveri - KSPCB",13-05-2024 00:00:00,14.791800,75.389600,CO,38,39,38
India,Karnataka,Haveri,"Ashwini Nagar, Haveri - KSPCB",13-05-2024 00:00:00,14.791800,75.389600,OZONE,24,72,63
India,Karnataka,Hubballi,"Lingaraj Nagar, Hubballi - KSPCB",13-05-2024 00:00:00,15.3714823,75.1160168,OZONE,16,84,65
India,Karnataka,Kalaburagi,"Lal Bahadur Shastri Nagar, Kalaburagi - KSPCB",13-05-2024 00:00:00,17.321993,76.822628,SO2,NA,NA,NA
India,Karnataka,Kalaburagi,"Mahatma Basaveswar Colony, Kalaburgi - KSPCB",13-05-2024 00:00:00,17.336318,76.847397,NO2,11,16,14
India,Karnataka,Koppal,"Diwator Nagar, Koppal - KSPCB",13-05-2024 00:00:00,15.347630,76.181767,SO2,27,42,29
India,Karnataka,Koppal,"Diwator Nagar, Koppal - KSPCB",13-05-2024 00:00:00,15.347630,76.181767,CO,53,55,54
India,Karnataka,Madikeri,"Stuart Hill, Madikeri - KSPCB",13-05-2024 00:00:00,12.415911,75.735050,SO2,4,4,4
India,Karnataka,Mangalore,"Kadri, Mangalore - KSPCB",13-05-2024 00:00:00,12.889250,74.853000,OZONE,31,33,32
India,Karnataka,Mysuru,"Hebbal 1st Stage, Mysuru - KSPCB",13-05-2024 00:00:00,12.21041,76.37376,SO2,1,3,2
India,Karnataka,Raichur,"Haji Colony, Raichur - KSPCB",13-05-2024 00:00:00,16.208139,77.348417,CO,98,103,101
India,Karnataka,Raichur,"Haji Colony, Raichur - KSPCB",13-05-2024 00:00:00,16.208139,77.348417,OZONE,2,15,6
India,Karnataka,Shivamogga,"Vinoba Nagara, Shivamogga - KSPCB",13-05-2024 00:00:00,13.940000,75.555917,SO2,3,11,8
India,Karnataka,Shivamogga,"Vinoba Nagara, Shivamogga - KSPCB",13-05-2024 00:00:00,13.940000,75.555917,OZONE,22,99,64
India,Karnataka,Udupi,"Brahmagiri, Udupi - KSPCB",13-05-2024 00:00:00,13.34194444,74.74694444,NO2,28,30,29
India,Karnataka,Vijayapura,"Ibrahimpur, Vijayapura - KSPCB",13-05-2024 00:00:00,16.802639,75.722694,NO2,17,19,19
India,Karnataka,Vijayapura,"Ibrahimpur, Vijayapura - KSPCB",13-05-2024 00:00:00,16.802639,75.722694,NH3,2,2,2
India,Karnataka,Yadgir,"Collector Office, Yadgir - KSPCB",13-05-2024 00:00:00,16.7602,77.1428,PM2.5,30,57,38
India,Karnataka,Yadgir,"Collector Office, Yadgir - KSPCB",13-05-2024 00:00:00,16.7602,77.1428,PM10,36,68,46
India,Karnataka,Yadgir,"Collector Office, Yadgir - KSPCB",13-05-2024 00:00:00,16.7602,77.1428,SO2,2,58,27
India,Kerala,Kannur,"Thavakkara, Kannur - Kerala PCB",13-05-2024 00:00:00,11.875000,75.373200,NH3,1,1,1
India,Kerala,Kannur,"Thavakkara, Kannur - Kerala PCB",13-05-2024 00:00:00,11.875000,75.373200,SO2,1,2,1
India,Kerala,Kollam,"Polayathode, Kollam - Kerala PCB",13-05-2024 00:00:00,8.8787,76.6073,PM10,47,77,59
India,Kerala,Kollam,"Polayathode, Kollam - Kerala PCB",13-05-2024 00:00:00,8.8787,76.6073,NO2,8,9,8
India,Kerala,Thiruvananthapuram,"Kariavattom, Thiruvananthapuram - Kerala PCB",13-05-2024 00:00:00,8.563700,76.886500,SO2,6,7,6
India,Kerala,Thrissur,"Corporation Ground, Thrissur - Kerala PCB",13-05-2024 00:00:00,10.532400,76.215900,OZONE,27,32,30
India,Madhya Pradesh,Bhopal,"Idgah Hills, Bhopal - MPPCB",13-05-2024 00:00:00,23.264759,77.381568,PM10,68,130,92
India,Madhya Pradesh,Bhopal,"Paryavaran Parisar, Bhopal - MPPCB",13-05-2024 00:00:00,23.210494,77.425409,PM2.5,32,207,65
India,Madhya Pradesh,Dewas,"Bhopal Chauraha, Dewas - MPPCB",13-05-2024 00:00:00,22.9682591,76.064118,PM10,23,72,40
India,Madhya Pradesh,Gwalior,"City Center, Gwalior - MPPCB",13-05-2024 00:00:00,26.203442,78.193251,OZONE,1,57,27
India,Madhya Pradesh,Gwalior,"Maharaj Bada, Gwalior - MPPCB",13-05-2024 00:00:00,26.200388,78.147714,PM2.5,17,87,50
India,Madhya Pradesh,Gwalior,"Maharaj Bada, Gwalior - MPPCB",13-05-2024 00:00:00,26.200388,78.147714,PM10,56,154,107
India,Madhya Pradesh,Gwalior,"Maharaj Bada, Gwalior - MPPCB",13-05-2024 00:00:00,26.200388,78.147714,NH3,2,29,8
India,Madhya Pradesh,Gwalior,"Phool Bagh, Gwalior - Mondelez Ind. Food",13-05-2024 00:00:00,26.210536,78.171,PM10,23,167,117
India,Madhya Pradesh,Gwalior,"Phool Bagh, Gwalior - Mondelez Ind. Food",13-05-2024 00:00:00,26.210536,78.171,CO,64,102,84
India,Madhya Pradesh,Indore,"Chhoti Gwaltoli, Indore - MPPCB",13-05-2024 00:00:00,22.4310,75.5213,NO2,46,104,65
India,Madhya Pradesh,Indore,"Chhoti Gwaltoli, Indore - MPPCB",13-05-2024 00:00:00,22.4310,75.5213,SO2,12,48,16
India,Madhya Pradesh,Indore,"Maguda Nagar, Indore - IMC",13-05-2024 00:00:00,22.7524,75.8872,PM10,22,48,33
India,Madhya Pradesh,Indore,"Residency Area, Indore - IMC",13-05-2024 00:00:00,22.7084,75.8815,OZONE,10,24,17
India,Madhya Pradesh,Jabalpur,"Govindh Bhavan Colony, Jabalpur - JMC",13-05-2024 00:00:00,23.163174,79.973061,PM2.5,32,87,58
India,Madhya Pradesh,Jabalpur,"Govindh Bhavan Colony, Jabalpur - JMC",13-05-2024 00:00:00,23.163174,79.973061,PM10,57,107,77
India,Madhya Pradesh,Jabalpur,"Govindh Bhavan Colony, Jabalpur - JMC",13-05-2024 00:00:00,23.163174,79.973061,NH3,15,24,20
India,Madhya Pradesh,Jabalpur,"Govindh Bhavan Colony, Jabalpur - JMC",13-05-2024 00:00:00,23.163174,79.973061,SO2,21,41,25
India,Madhya Pradesh,Jabalpur,"Gupteshwar, Jabalpur - JMC",13-05-2024 00:00:00,23.142888,79.916147,PM2.5,35,212,90
India,Madhya Pradesh,Jabalpur,"Gupteshwar, Jabalpur - JMC",13-05-2024 00:00:00,23.142888,79.916147,NO2,1,38,12
India,Madhya Pradesh,Katni,"Gole Bazar, Katni - MPPCB",13-05-2024 00:00:00,23.50016,80.23284,PM10,68,191,108
India,Madhya Pradesh,Katni,"Gole Bazar, Katni - MPPCB",13-05-2024 00:00:00,23.50016,80.23284,NH3,3,8,6
India,Madhya Pradesh,Katni,"Gole Bazar, Katni - MPPCB",13-05-2024 00:00:00,23.50016,80.23284,CO,22,58,27
India,Madhya Pradesh,Mandideep,"Sector-D Industrial Area, Mandideep - MPPCB",13-05-2024 00:00:00,23.108440,77.511428,PM2.5,71,313,125
India,Madhya Pradesh,Mandideep,"Sector-D Industrial Area, Mandideep - MPPCB",13-05-2024 00:00:00,23.108440,77.511428,SO2,5,116,30
India,Madhya Pradesh,Mandideep,"Sector-D Industrial Area, Mandideep - MPPCB",13-05-2024 00:00:00,23.108440,77.511428,CO,17,117,28
India,Madhya Pradesh,Singrauli,"Suryakiran Bhawan NCL, Singrauli - MPPCB",13-05-2024 00:00:00,24.108970,82.645580,PM2.5,44,238,97
India,Madhya Pradesh,Singrauli,"Suryakiran Bhawan NCL, Singrauli - MPPCB",13-05-2024 00:00:00,24.108970,82.645580,OZONE,11,89,30
India,Maharashtra,Ahmednagar,"Tarakpur, Ahmednagar - MPCB",13-05-2024 00:00:00,19.10122,74.73339,PM10,45,164,94
India,Maharashtra,Akola,"Ramdaspeth, Akola - MPCB",13-05-2024 00:00:00,20.719516,77.000253,PM2.5,35,64,44
India,Maharashtra,Amravati,"Shivneri Colony, Amravati - MPCB",13-05-2024 00:00:00,20.9402359,77.7895248,PM2.5,47,92,67
India,Maharashtra,Amravati,"Shri Shivaji Science College, Amaravati - MPCB",13-05-2024 00:00:00,20.939198,77.765701,NO2,5,77,20
India,Maharashtra,Aurangabad,"MIDC Chilkalthana, Aurangabad - MPCB",13-05-2024 00:00:00,19.875620,75.387310,NH3,NA,NA,NA
India,Maharashtra,Aurangabad,"MIDC Chilkalthana, Aurangabad - MPCB",13-05-2024 00:00:00,19.875620,75.387310,OZONE,1,27,15
India,Maharashtra,Aurangabad,"More Chowk Waluj, Aurangabad - MPCB",13-05-2024 00:00:00,19.8389439,75.244448,NH3,9,10,9
India,Maharashtra,Aurangabad,"More Chowk Waluj, Aurangabad - MPCB",13-05-2024 00:00:00,19.8389439,75.244448,CO,8,71,40
India,Maharashtra,Aurangabad,"More Chowk Waluj, Aurangabad - MPCB",13-05-2024 00:00:00,19.8389439,75.244448,OZONE,23,99,47
India,Maharashtra,Aurangabad,"Rachnakar Colony, Aurangabad - MPCB",13-05-2024 00:00:00,19.863756,75.321188,PM2.5,57,242,136
India,Maharashtra,Aurangabad,"Rachnakar Colony, Aurangabad - MPCB",13-05-2024 00:00:00,19.863756,75.321188,PM10,56,282,139
India,Maharashtra,Aurangabad,"Rachnakar Colony, Aurangabad - MPCB",13-05-2024 00:00:00,19.863756,75.321188,NH3,1,2,1
India,Maharashtra,Aurangabad,"Rachnakar Colony, Aurangabad - MPCB",13-05-2024 00:00:00,19.863756,75.321188,CO,12,98,45
India,Maharashtra,Belapur,"CBD Belapur, Belapur - MPCB",13-05-2024 00:00:00,19.0243902,73.0406721,PM10,53,120,82
India,Maharashtra,Belapur,"CBD Belapur, Belapur - MPCB",13-05-2024 00:00:00,19.0243902,73.0406721,SO2,1,12,2
India,Maharashtra,Bhiwandi,"Gokul Nagar, Bhiwandi - MPCB",13-05-2024 00:00:00,19.309073,73.057223,PM2.5,49,91,70
India,Maharashtra,Boisar,"Khaira, Boisar - MPCB",13-05-2024 00:00:00,19.786089,72.757971,NH3,5,9,7
India,Maharashtra,Chandrapur,"Chauhan Colony, Chandrapur - MPCB",13-05-2024 00:00:00,19.962900,79.298714,PM10,46,86,62
India,Maharashtra,Chandrapur,"Chauhan Colony, Chandrapur - MPCB",13-05-2024 00:00:00,19.962900,79.298714,CO,24,27,25
India,Maharashtra,Chandrapur,"Chauhan Colony, Chandrapur - MPCB",13-05-2024 00:00:00,19.962900,79.298714,OZONE,11,11,11
India,Maharashtra,Dhule,"Deopur, Dhule - MPCB",13-05-2024 00:00:00,20.918946,74.776388,PM2.5,58,213,114
India,Maharashtra,Dhule,"Deopur, Dhule - MPCB",13-05-2024 00:00:00,20.918946,74.776388,PM10,92,136,111
India,Maharashtra,Jalna,"Old MIDC, Jalna - MPCB",13-05-2024 00:00:00,19.854616,75.905894,NH3,3,5,4
India,Maharashtra,Kalyan,"Khadakpada, Kalyan - MPCB",13-05-2024 00:00:00,19.25292,73.142019,PM10,48,127,96
India,Maharashtra,Kolhapur,"Sinchan Bhavan, Kolhapur - MPCB",13-05-2024 00:00:00,16.7143745,74.2426398,PM2.5,NA,NA,NA
India,Maharashtra,Latur,"Sawe Wadi, Latur - MPCB",13-05-2024 00:00:00,18.39963,76.57452,PM10,35,80,54
India,Maharashtra,Latur,"Sawe Wadi, Latur - MPCB",13-05-2024 00:00:00,18.39963,76.57452,CO,11,112,28
India,Maharashtra,Mahad,"Kamble Tarf Birwadi, Mahad - MPCB",13-05-2024 00:00:00,18.1023399,73.4783687,NH3,5,5,5
India,Maharashtra,Mira-Bhayandar,"Bhayandar West, Mira-Bhayandar - MPCB",13-05-2024 00:00:00,19.296481,72.840923,NO2,4,16,8
India,Maharashtra,Mumbai,"Bandra Kurla Complex, Mumbai - MPCB",13-05-2024 00:00:00,19.065931,72.862131,SO2,3,4,2
India,Maharashtra,Mumbai,"Borivali East, Mumbai - MPCB",13-05-2024 00:00:00,19.2243333,72.8658113,NO2,5,14,9
India,Maharashtra,Mumbai,"Borivali East, Mumbai - MPCB",13-05-2024 00:00:00,19.2243333,72.8658113,CO,34,37,36
India,Maharashtra,Mumbai,"Chakala-Andheri East, Mumbai - IITM",13-05-2024 00:00:00,19.11074,72.86084,PM10,45,500,188
India,Maharashtra,Mumbai,"Chakala-Andheri East, Mumbai - IITM",13-05-2024 00:00:00,19.11074,72.86084,NO2,23,37,30
India,Maharashtra,Mumbai,"Chakala-Andheri East, Mumbai - IITM",13-05-2024 00:00:00,19.11074,72.86084,CO,15,28,23
India,Maharashtra,Mumbai,"Chhatrapati Shivaji Intl. Airport (T2), Mumbai - MPCB",13-05-2024 00:00:00,19.10078,72.87462,PM10,48,117,74
India,Maharashtra,Mumbai,"Chhatrapati Shivaji Intl. Airport (T2), Mumbai - MPCB",13-05-2024 00:00:00,19.10078,72.87462,SO2,16,24,19
India,Maharashtra,Mumbai,"Colaba, Mumbai - MPCB",13-05-2024 00:00:00,18.910000,72.820000,PM2.5,25,56,31
India,Maharashtra,Mumbai,"Deonar, Mumbai - IITM",13-05-2024 00:00:00,19.04946,72.9230,OZONE,1,47,11
India,Maharashtra,Mumbai,"Ghatkopar, Mumbai - BMC",13-05-2024 00:00:00,19.083694,72.920967,OZONE,1,42,7
India,Maharashtra,Mumbai,"Kandivali West, Mumbai - BMC",13-05-2024 00:00:00,19.215859,72.831718,PM10,22,37,31
India,Maharashtra,Mumbai,"Kandivali West, Mumbai - BMC",13-05-2024 00:00:00,19.215859,72.831718,NO2,3,32,9
India,Maharashtra,Mumbai,"Kherwadi_Bandra East, Mumbai - MPCB",13-05-2024 00:00:00,19.0632143,72.8456324,PM2.5,16,63,33
India,Maharashtra,Mumbai,"Kherwadi_Bandra East, Mumbai - MPCB",13-05-2024 00:00:00,19.0632143,72.8456324,PM10,33,78,61
India,Maharashtra,Mumbai,"Kherwadi_Bandra East, Mumbai - MPCB",13-05-2024 00:00:00,19.0632143,72.8456324,SO2,1,4,2
India,Maharashtra,Mumbai,"Khindipada-Bhandup West, Mumbai - IITM",13-05-2024 00:00:00,19.1653323,72.922099,PM2.5,18,63,44
India,Maharashtra,Mumbai,"Khindipada-Bhandup West, Mumbai - IITM",13-05-2024 00:00:00,19.1653323,72.922099,PM10,18,75,51
India,Maharashtra,Mumbai,"Khindipada-Bhandup West, Mumbai - IITM",13-05-2024 00:00:00,19.1653323,72.922099,SO2,1,11,5
India,Maharashtra,Mumbai,"Kurla, Mumbai - MPCB",13-05-2024 00:00:00,19.0863,72.8888,PM10,37,403,113
India,Maharashtra,Mumbai,"Kurla, Mumbai - MPCB",13-05-2024 00:00:00,19.0863,72.8888,OZONE,28,33,28
India,Maharashtra,Mumbai,"Mindspace-Malad West, Mumbai - MPCB",13-05-2024 00:00:00,19.1878657,72.8304069,PM2.5,24,66,40
India,Maharashtra,Mumbai,"Mindspace-Malad West, Mumbai - MPCB",13-05-2024 00:00:00,19.1878657,72.8304069,NH3,7,7,7
India,Maharashtra,Mumbai,"Mindspace-Malad West, Mumbai - MPCB",13-05-2024 00:00:00,19.1878657,72.8304069,CO,16,30,24
India,Maharashtra,Mumbai,"Mulund West, Mumbai - MPCB",13-05-2024 00:00:00,19.1750,72.9419,PM2.5,19,81,42
India,Maharashtra,Mumbai,"Mulund West, Mumbai - MPCB",13-05-2024 00:00:00,19.1750,72.9419,PM10,37,117,71
India,Maharashtra,Mumbai,"Navy Nagar-Colaba, Mumbai - IITM",13-05-2024 00:00:00,18.897756,72.813320,OZONE,29,54,44
India,Maharashtra,Mumbai,"Powai, Mumbai - MPCB",13-05-2024 00:00:00,19.137500,72.915056,PM2.5,11,45,24
India,Maharashtra,Mumbai,"Powai, Mumbai - MPCB",13-05-2024 00:00:00,19.137500,72.915056,OZONE,22,64,32
India,Maharashtra,Mumbai,"Sewri, Mumbai - BMC",13-05-2024 00:00:00,19.000084,72.856730,NH3,4,6,4
India,Maharashtra,Mumbai,"Sewri, Mumbai - BMC",13-05-2024 00:00:00,19.000084,72.856730,SO2,1,3,1
India,Maharashtra,Mumbai,"Sewri, Mumbai - BMC",13-05-2024 00:00:00,19.000084,72.856730,CO,8,18,14
India,Maharashtra,Mumbai,"Sion, Mumbai - MPCB",13-05-2024 00:00:00,19.047000,72.874600,PM10,45,105,74
India,Maharashtra,Mumbai,"Vasai West, Mumbai - MPCB",13-05-2024 00:00:00,19.383200,72.820400,PM10,59,172,115
India,Maharashtra,Mumbai,"Vasai West, Mumbai - MPCB",13-05-2024 00:00:00,19.383200,72.820400,OZONE,13,40,24
India,Maharashtra,Mumbai,"Vile Parle West, Mumbai - MPCB",13-05-2024 00:00:00,19.10861,72.83622,NO2,6,7,7
India,Maharashtra,Mumbai,"Vile Parle West, Mumbai - MPCB",13-05-2024 00:00:00,19.10861,72.83622,SO2,13,15,14
India,Maharashtra,Nagpur,"Ambazari, Nagpur - MPCB",13-05-2024 00:00:00,21.121801,79.04952,PM2.5,65,155,103
India,Maharashtra,Nagpur,"Ambazari, Nagpur - MPCB",13-05-2024 00:00:00,21.121801,79.04952,SO2,8,22,15
India,Maharashtra,Nagpur,"Ambazari, Nagpur - MPCB",13-05-2024 00:00:00,21.121801,79.04952,CO,4,66,28
India,Maharashtra,Nagpur,"Ambazari, Nagpur - MPCB",13-05-2024 00:00:00,21.121801,79.04952,OZONE,5,132,59
India,Maharashtra,Nagpur,"Mahal, Nagpur - MPCB",13-05-2024 00:00:00,21.14472,79.107595,PM10,76,212,116
India,Maharashtra,Nagpur,"Mahal, Nagpur - MPCB",13-05-2024 00:00:00,21.14472,79.107595,NH3,3,17,7
India,Maharashtra,Nagpur,"Mahal, Nagpur - MPCB",13-05-2024 00:00:00,21.14472,79.107595,SO2,22,110,57
India,Maharashtra,Nagpur,"Opp GPO Civil Lines, Nagpur - MPCB",13-05-2024 00:00:00,21.152875,79.0517531,NO2,18,100,39
India,Maharashtra,Nagpur,"Opp GPO Civil Lines, Nagpur - MPCB",13-05-2024 00:00:00,21.152875,79.0517531,SO2,1,24,10
India,Maharashtra,Nanded,"Sneh Nagar, Nanded - MPCB",13-05-2024 00:00:00,19.173852,77.296291,PM2.5,4,108,57
India,Maharashtra,Nanded,"Sneh Nagar, Nanded - MPCB",13-05-2024 00:00:00,19.173852,77.296291,PM10,8,115,64
India,Maharashtra,Nanded,"Sneh Nagar, Nanded - MPCB",13-05-2024 00:00:00,19.173852,77.296291,NO2,4,19,7
India,Maharashtra,Nashik,"MIDC Ambad, Nashik - MPCB",13-05-2024 00:00:00,19.950220,73.731480,PM2.5,36,154,71
India,Maharashtra,Nashik,"MIDC Ambad, Nashik - MPCB",13-05-2024 00:00:00,19.950220,73.731480,NH3,5,7,6
India,Maharashtra,Nashik,"Pandav Nagari, Nashik - MPCB",13-05-2024 00:00:00,19.9591346,73.7788008,PM2.5,52,97,68
India,Maharashtra,Navi Mumbai,"Kopripada-Vashi, Navi Mumbai - MPCB",13-05-2024 00:00:00,19.090337,73.014232,NH3,4,8,5
India,Maharashtra,Navi Mumbai,"Nerul, Navi Mumbai - MPCB",13-05-2024 00:00:00,19.008751,73.016620,NO2,33,49,38
India,Maharashtra,Navi Mumbai,"Nerul, Navi Mumbai - MPCB",13-05-2024 00:00:00,19.008751,73.016620,OZONE,31,46,35
India,Maharashtra,Navi Mumbai,"Sanpada, Navi Mumbai - MPCB",13-05-2024 00:00:00,19.0575752,73.0151367,NH3,1,9,2
India,Maharashtra,Navi Mumbai,"Sector-19A Nerul, Navi Mumbai - IITM",13-05-2024 00:00:00,19.044,73.0325,PM2.5,26,72,48
India,Maharashtra,Navi Mumbai,"Sector-19A Nerul, Navi Mumbai - IITM",13-05-2024 00:00:00,19.044,73.0325,NH3,2,3,2
India,Maharashtra,Parbhani,"Masoom Colony, Parbhani - MPCB",13-05-2024 00:00:00,19.265594,76.761463,NO2,15,33,23
India,Maharashtra,Parbhani,"Masoom Colony, Parbhani - MPCB",13-05-2024 00:00:00,19.265594,76.761463,NH3,4,10,6
India,Maharashtra,Pimpri-Chinchwad,"Park Street Wakad, Pimpri Chinchwad - MPCB",13-05-2024 00:00:00,18.59051,73.77946,OZONE,1,35,15
India,Maharashtra,Pimpri-Chinchwad,"Thergaon, Pimpri Chinchwad - MPCB",13-05-2024 00:00:00,18.616318,73.765797,CO,20,105,70
India,Maharashtra,Pune,"Alandi, Pune - IITM",13-05-2024 00:00:00,18.675076,73.892743,PM10,28,113,47
India,Maharashtra,Pune,"Karve Road, Pune - MPCB",13-05-2024 00:00:00,18.5011743,73.8165527,PM2.5,2,180,48
India,Maharashtra,Pune,"Katraj Dairy, Pune - MPCB",13-05-2024 00:00:00,18.454450,73.854155,PM2.5,29,78,43
India,Maharashtra,Pune,"Katraj Dairy, Pune - MPCB",13-05-2024 00:00:00,18.454450,73.854155,CO,26,102,61
India,Maharashtra,Pune,"Katraj Dairy, Pune - MPCB",13-05-2024 00:00:00,18.454450,73.854155,OZONE,25,60,43
India,Maharashtra,Pune,"Mhada Colony, Pune - IITM",13-05-2024 00:00:00,18.573040,73.927715,PM2.5,11,72,31
India,Maharashtra,Pune,"Mhada Colony, Pune - IITM",13-05-2024 00:00:00,18.573040,73.927715,PM10,27,126,52
India,Maharashtra,Pune,"Revenue Colony-Shivajinagar, Pune - IITM",13-05-2024 00:00:00,18.530085,73.849598,OZONE,NA,NA,NA
India,Maharashtra,Solapur,"Dnyaneshwar Nagar, Solapur - MPCB",13-05-2024 00:00:00,17.6336264,75.9132495,NO2,12,34,20
India,Maharashtra,Solapur,"Dnyaneshwar Nagar, Solapur - MPCB",13-05-2024 00:00:00,17.6336264,75.9132495,NH3,NA,NA,NA
India,Maharashtra,Solapur,"Ratandeep Housing Society, Solapur - MPCB",13-05-2024 00:00:00,17.65439,75.90649,PM10,29,62,43
India,Maharashtra,Solapur,"Ratandeep Housing Society, Solapur - MPCB",13-05-2024 00:00:00,17.65439,75.90649,NO2,13,59,30
India,Maharashtra,Solapur,"Solapur, Solapur - MPCB",13-05-2024 00:00:00,17.6599188,75.9063906,PM10,77,130,102
India,Maharashtra,Solapur,"Solapur, Solapur - MPCB",13-05-2024 00:00:00,17.6599188,75.9063906,NO2,54,55,55
India,Maharashtra,Thane,"Kasarvadavali, Thane - MPCB",13-05-2024 00:00:00,19.26777,72.97182,SO2,1,2,1
India,Maharashtra,Thane,"Pimpleshwar Mandir, Thane - MPCB",13-05-2024 00:00:00,19.192056,72.9585188,PM10,42,101,79
India,Maharashtra,Thane,"Pimpleshwar Mandir, Thane - MPCB",13-05-2024 00:00:00,19.192056,72.9585188,SO2,1,6,2
India,Maharashtra,Thane,"Pimpleshwar Mandir, Thane - MPCB",13-05-2024 00:00:00,19.192056,72.9585188,CO,4,59,40
India,Maharashtra,Thane,"Upvan Fort, Thane - MPCB",13-05-2024 00:00:00,19.222279,72.957979,NO2,NA,NA,NA
India,Maharashtra,Virar,"Bolinj, Virar - MPCB",13-05-2024 00:00:00,19.4458210,72.7988231,NO2,4,14,7
India,Meghalaya,Shillong,"Lumpyngngad, Shillong - Meghalaya PCB",13-05-2024 00:00:00,25.5586,91.8985,PM10,NA,NA,NA
India,Meghalaya,Shillong,"Lumpyngngad, Shillong - Meghalaya PCB",13-05-2024 00:00:00,25.5586,91.8985,NO2,1,1,1
India,Mizoram,Aizawl,"Sikulpuikawn, Aizawl - Mizoram PCB",13-05-2024 00:00:00,23.7176342,92.7192841,NO2,NA,NA,NA
India,Mizoram,Aizawl,"Sikulpuikawn, Aizawl - Mizoram PCB",13-05-2024 00:00:00,23.7176342,92.7192841,OZONE,8,57,27
India,Odisha,Angul,"Hakimapada, Angul - OSPCB",13-05-2024 00:00:00,20.832874,85.104082,PM2.5,17,260,55
India,Odisha,Balasore,"Kalidaspur, Balasore - OSPCB",13-05-2024 00:00:00,21.51161,86.89088,SO2,14,21,16
India,Odisha,Balasore,"Kalidaspur, Balasore - OSPCB",13-05-2024 00:00:00,21.51161,86.89088,CO,27,102,81
India,Odisha,Barbil,"Forest Office, Barbil - OSPCB",13-05-2024 00:00:00,22.1166054,85.3945546,NO2,NA,NA,NA
India,Odisha,Barbil,"Forest Office, Barbil - OSPCB",13-05-2024 00:00:00,22.1166054,85.3945546,CO,23,58,28
India,Odisha,Baripada,"Meher Colony, Baripada - OSPCB",13-05-2024 00:00:00,21.941841,86.728318,NH3,3,4,3
India,Odisha,Bhubaneswar,"Patia, Bhubaneswar - OSPCB",13-05-2024 00:00:00,20.34652,85.81630,CO,22,22,22
India,Odisha,Bhubaneswar,"Patia, Bhubaneswar - OSPCB",13-05-2024 00:00:00,20.34652,85.81630,OZONE,4,118,84
India,Odisha,Bileipada,"Tata Township, Bileipada - OSPCB",13-05-2024 00:00:00,22.06156703,85.47409613,PM10,78,132,101
India,Odisha,Brajrajnagar,"GM Office, Brajrajnagar - OSPCB",13-05-2024 00:00:00,21.8004996,83.8396977,SO2,30,31,31
India,Odisha,Byasanagar,"Ferro Chrome Colony, Byasanagar - OSPCB",13-05-2024 00:00:00,20.94185,86.11510,CO,52,122,111
India,Odisha,Keonjhar,"Jagamohanpur, Keonjhar - OSPCB",13-05-2024 00:00:00,21.643900,85.599355,NO2,4,23,9
India,Odisha,Keonjhar,"Jagamohanpur, Keonjhar - OSPCB",13-05-2024 00:00:00,21.643900,85.599355,OZONE,14,14,14
India,Odisha,Rairangpur,"Divisional Forest Office, Rairangpur - OSPCB",13-05-2024 00:00:00,22.265816,86.174829,PM2.5,15,81,52
India,Odisha,Suakati,"OMC Colony, Suakati - OSPCB",13-05-2024 00:00:00,21.606865,85.510538,CO,22,27,26
India,Odisha,Talcher,"Talcher Coalfields,Talcher - OSPCB",13-05-2024 00:00:00,20.9360711,85.1707021,OZONE,NA,NA,NA
India,Odisha,Tensa,"Barsua Iron Ore Mines, Tensa - OSPCB",13-05-2024 00:00:00,21.869985,85.167016,PM2.5,NA,NA,NA
India,Odisha,Tensa,"Barsua Iron Ore Mines, Tensa - OSPCB",13-05-2024 00:00:00,21.869985,85.167016,CO,14,20,17
India,Puducherry,Puducherry,"Jawahar Nagar, Puducherry - PPCC",13-05-2024 00:00:00,11.9309,79.8027,PM10,2,30,15
India,Puducherry,Puducherry,"Jawahar Nagar, Puducherry - PPCC",13-05-2024 00:00:00,11.9309,79.8027,CO,14,36,19
India,Puducherry,Puducherry,"Jawahar Nagar, Puducherry - PPCC",13-05-2024 00:00:00,11.9309,79.8027,OZONE,15,47,33
India,Punjab,Amritsar,"Golden Temple, Amritsar - PPCB",13-05-2024 00:00:00,31.620000,74.876512,SO2,6,13,10
India,Punjab,Bathinda,"Hardev Nagar, Bathinda - PPCB",13-05-2024 00:00:00,30.233011,74.907758,PM2.5,28,91,55
India,Punjab,Bathinda,"Hardev Nagar, Bathinda - PPCB",13-05-2024 00:00:00,30.233011,74.907758,CO,4,111,11
India,Punjab,Jalandhar,"Civil Line, Jalandhar - PPCB",13-05-2024 00:00:00,31.321907,75.578914,PM10,42,113,81
India,Punjab,Jalandhar,"Civil Line, Jalandhar - PPCB",13-05-2024 00:00:00,31.321907,75.578914,NH3,2,2,2
India,Punjab,Jalandhar,"Civil Line, Jalandhar - PPCB",13-05-2024 00:00:00,31.321907,75.578914,CO,10,67,29
India,Punjab,Jalandhar,"Civil Line, Jalandhar - PPCB",13-05-2024 00:00:00,31.321907,75.578914,OZONE,1,61,20
India,Punjab,Khanna,"Kalal Majra, Khanna - PPCB",13-05-2024 00:00:00,30.736056 ,76.209694,OZONE,42,47,45
India,Punjab,Ludhiana,"Punjab Agricultural University, Ludhiana - PPCB",13-05-2024 00:00:00,30.9028,75.8086,PM10,69,139,108
India,Punjab,Mandi Gobindgarh,"RIMT University, Mandi Gobindgarh - PPCB",13-05-2024 00:00:00,30.649961,76.331442,PM2.5,41,278,134
India,Punjab,Mandi Gobindgarh,"RIMT University, Mandi Gobindgarh - PPCB",13-05-2024 00:00:00,30.649961,76.331442,SO2,13,21,16
India,Punjab,Rupnagar,"Ratanpura, Rupnagar - Ambuja Cements",13-05-2024 00:00:00,31.0325454,76.5623046,PM10,116,195,167
India,Rajasthan,Ajmer,"Civil Lines,  Ajmer - RSPCB",13-05-2024 00:00:00,26.470859,74.646594,PM10,28,108,57
India,Rajasthan,Ajmer,"Civil Lines,  Ajmer - RSPCB",13-05-2024 00:00:00,26.470859,74.646594,NO2,12,15,13
India,Rajasthan,Alwar,"Moti Doongri, Alwar - RSPCB",13-05-2024 00:00:00,27.554793,76.611536,PM2.5,48,93,66
India,Rajasthan,Alwar,"Moti Doongri, Alwar - RSPCB",13-05-2024 00:00:00,27.554793,76.611536,PM10,52,160,85
India,Rajasthan,Banswara,"Rati Talai, Banswara - RSPCB",13-05-2024 00:00:00,23.555190,74.440010,NH3,2,6,4
India,Rajasthan,Banswara,"Rati Talai, Banswara - RSPCB",13-05-2024 00:00:00,23.555190,74.440010,CO,30,80,49
India,Rajasthan,Baran,"Bamboliya, Baran - RSPCB",13-05-2024 00:00:00,25.106006,76.469948,CO,1,39,29
India,Rajasthan,Barmer,"Railway Colony, Barmer - RSPCB",13-05-2024 00:00:00,25.747299,71.393989,PM10,60,125,88
India,Rajasthan,Bhilwara,"Pratap Nagar, Bhilwara - RSPCB",13-05-2024 00:00:00,25.339605,74.618883,NO2,9,72,22
India,Rajasthan,Bhiwadi,"RIICO Ind. Area III, Bhiwadi - RSPCB",13-05-2024 00:00:00,28.194909,76.862296,CO,4,154,154
India,Rajasthan,Bhiwadi,"Vasundhara Nagar_UIT, Bhiwadi - RSPCB",13-05-2024 00:00:00,28.207266,76.829265,NH3,10,23,16
India,Rajasthan,Bikaner,"MM Ground, Bikaner - RSPCB",13-05-2024 00:00:00,28.018792,73.292658,PM2.5,7,93,35
India,Rajasthan,Bikaner,"MM Ground, Bikaner - RSPCB",13-05-2024 00:00:00,28.018792,73.292658,PM10,37,193,102
India,Rajasthan,Bikaner,"MM Ground, Bikaner - RSPCB",13-05-2024 00:00:00,28.018792,73.292658,NH3,11,14,12
India,Rajasthan,Bikaner,"MM Ground, Bikaner - RSPCB",13-05-2024 00:00:00,28.018792,73.292658,SO2,4,8,6
India,Rajasthan,Bundi,"New Colony, Bundi - RSPCB",13-05-2024 00:00:00,25.435774,75.644272,PM2.5,3,46,24
India,Rajasthan,Chittorgarh,"Shastri Nagar, Chittorgarh - RSPCB",13-05-2024 00:00:00,24.892047,74.623527,PM2.5,33,140,74
India,Rajasthan,Chittorgarh,"Shastri Nagar, Chittorgarh - RSPCB",13-05-2024 00:00:00,24.892047,74.623527,OZONE,2,113,59
India,Rajasthan,Dausa,"Khatikan Mohalla, Dausa - RSPCB",13-05-2024 00:00:00,26.895552,76.334753,PM2.5,NA,NA,NA
India,Rajasthan,Dausa,"Khatikan Mohalla, Dausa - RSPCB",13-05-2024 00:00:00,26.895552,76.334753,NH3,NA,NA,NA
India,Rajasthan,Dausa,"Khatikan Mohalla, Dausa - RSPCB",13-05-2024 00:00:00,26.895552,76.334753,SO2,NA,NA,NA
India,Rajasthan,Dholpur,"Raja Ganj, Dholpur - RSPCB",13-05-2024 00:00:00,26.699557,77.898881,PM2.5,22,147,68
India,Rajasthan,Dholpur,"Raja Ganj, Dholpur - RSPCB",13-05-2024 00:00:00,26.699557,77.898881,SO2,6,7,7
India,Rajasthan,Dungarpur,"Bhoiwada, Dungarpur - RSPCB",13-05-2024 00:00:00,23.837789,73.714926,PM2.5,22,78,36
India,Rajasthan,Dungarpur,"Bhoiwada, Dungarpur - RSPCB",13-05-2024 00:00:00,23.837789,73.714926,PM10,17,269,70
India,Rajasthan,Dungarpur,"Bhoiwada, Dungarpur - RSPCB",13-05-2024 00:00:00,23.837789,73.714926,NO2,13,18,15
India,Rajasthan,Hanumangarh,"Housing Board, Hanumangarh - RSPCB",13-05-2024 00:00:00,29.610750,74.283608,NO2,9,29,16
India,Rajasthan,Jaipur,"Mansarovar Sector-12, Jaipur - RSPCB",13-05-2024 00:00:00,26.843698,75.766894,PM2.5,2,80,25
India,Rajasthan,Jaipur,"Sector-2 Murlipura, Jaipur - RSPCB",13-05-2024 00:00:00,26.960669,75.771817,NO2,16,97,47
India,Rajasthan,Jaipur,"Sector-2 Murlipura, Jaipur - RSPCB",13-05-2024 00:00:00,26.960669,75.771817,SO2,6,73,19
India,Rajasthan,Jaipur,"Shastri Nagar, Jaipur - RSPCB",13-05-2024 00:00:00,26.9502929,75.730943,NH3,1,3,2
India,Rajasthan,Jaipur,"Shastri Nagar, Jaipur - RSPCB",13-05-2024 00:00:00,26.9502929,75.730943,SO2,2,62,21
India,Rajasthan,Jalore,"Mudtra Sili, Jalore - RSPCB",13-05-2024 00:00:00,25.344694,72.626208,PM2.5,29,53,43
India,Rajasthan,Jhalawar,"Rajlaxmi Nagar, Jhalawar - RSPCB",13-05-2024 00:00:00,24.588397,76.172782,NO2,18,50,24
India,Rajasthan,Jhalawar,"Rajlaxmi Nagar, Jhalawar - RSPCB",13-05-2024 00:00:00,24.588397,76.172782,SO2,3,14,5
India,Rajasthan,Jodhpur,"Collectorate, Jodhpur - RSPCB",13-05-2024 00:00:00,26.268249,73.0193853,PM2.5,19,134,61
India,Rajasthan,Jodhpur,"Collectorate, Jodhpur - RSPCB",13-05-2024 00:00:00,26.268249,73.0193853,SO2,5,17,11
India,Rajasthan,Jodhpur,"Digari Kalan, Jodhpur - RSPCB",13-05-2024 00:00:00,26.295810,73.082283,PM10,15,117,49
India,Rajasthan,Jodhpur,"Digari Kalan, Jodhpur - RSPCB",13-05-2024 00:00:00,26.295810,73.082283,SO2,5,7,6
India,Rajasthan,Jodhpur,"Mandor, Jodhpur - RSPCB",13-05-2024 00:00:00,26.358805,73.047444,PM2.5,5,28,15
India,Rajasthan,Jodhpur,"Mandor, Jodhpur - RSPCB",13-05-2024 00:00:00,26.358805,73.047444,CO,10,30,22
India,Rajasthan,Jodhpur,"Mandor, Jodhpur - RSPCB",13-05-2024 00:00:00,26.358805,73.047444,OZONE,50,92,62
India,Rajasthan,Jodhpur,"Samrat Ashok Udhyan, Jodhpur - RSPCB",13-05-2024 00:00:00,26.253384,72.976571,NH3,3,5,4
India,Rajasthan,Jodhpur,"Samrat Ashok Udhyan, Jodhpur - RSPCB",13-05-2024 00:00:00,26.253384,72.976571,CO,2,24,12
India,Rajasthan,Karauli,"Satyawati Vihar, Karauli - RSPCB",13-05-2024 00:00:00,26.506177,77.025989,CO,8,8,8
India,Rajasthan,Karauli,"Satyawati Vihar, Karauli - RSPCB",13-05-2024 00:00:00,26.506177,77.025989,OZONE,30,149,89
India,Rajasthan,Kota,"Dhanmandi, Kota - RSPCB",13-05-2024 00:00:00,25.164090,75.858137,SO2,3,69,15
India,Rajasthan,Kota,"Dhanmandi, Kota - RSPCB",13-05-2024 00:00:00,25.164090,75.858137,CO,12,65,51
India,Rajasthan,Kota,"Shrinath Puram, Kota - RSPCB",13-05-2024 00:00:00,25.14389,75.821256,CO,8,56,24
India,Rajasthan,Kota,"Shrinath Puram, Kota - RSPCB",13-05-2024 00:00:00,25.14389,75.821256,OZONE,34,78,53
India,Rajasthan,Nagaur,"Karni Colony, Nagaur - RSPCB",13-05-2024 00:00:00,27.213494,73.734444,NO2,13,76,27
India,Rajasthan,Pratapgarh,"Pragati Nagar, Pratapgarh - RSPCB",13-05-2024 00:00:00,24.041198,74.780702,PM2.5,2,33,18
India,Rajasthan,Pratapgarh,"Pragati Nagar, Pratapgarh - RSPCB",13-05-2024 00:00:00,24.041198,74.780702,SO2,2,10,5
India,Rajasthan,Rajsamand,"Dhoinda, Rajsamand - RSPCB",13-05-2024 00:00:00,25.036360,73.883502,PM10,NA,NA,NA
India,Rajasthan,Rajsamand,"Dhoinda, Rajsamand - RSPCB",13-05-2024 00:00:00,25.036360,73.883502,NH3,NA,NA,NA
India,Rajasthan,Sawai Madhopur,"Sahu Nagar, Sawai Madhopur - RSPCB",13-05-2024 00:00:00,26.031443,76.359327,SO2,1,6,2
India,Rajasthan,Sawai Madhopur,"Sahu Nagar, Sawai Madhopur - RSPCB",13-05-2024 00:00:00,26.031443,76.359327,CO,6,97,59
India,Rajasthan,Sikar,"Radhakishan Pura, Sikar - RSPCB",13-05-2024 00:00:00,27.608912,75.153302,CO,16,37,25
India,Rajasthan,Sirohi,"Vedhaynath Colony, Sirohi - RSPCB",13-05-2024 00:00:00,24.885261,72.857549,NH3,2,4,3
India,Rajasthan,Sirohi,"Vedhaynath Colony, Sirohi - RSPCB",13-05-2024 00:00:00,24.885261,72.857549,SO2,3,14,9
India,Rajasthan,Sri Ganganagar,"Old City, Sri Ganganagar - RSPCB",13-05-2024 00:00:00,29.931624,73.864511,PM2.5,61,329,155
India,Rajasthan,Tonk,"Shastri Nagar, Tonk - RSPCB",13-05-2024 00:00:00,26.159933,75.780517,PM2.5,NA,NA,NA
India,Rajasthan,Tonk,"Shastri Nagar, Tonk - RSPCB",13-05-2024 00:00:00,26.159933,75.780517,PM10,NA,NA,NA
India,Rajasthan,Tonk,"Shastri Nagar, Tonk - RSPCB",13-05-2024 00:00:00,26.159933,75.780517,OZONE,65,108,104
India,Rajasthan,Udaipur,"Ashok Nagar, Udaipur - RSPCB",13-05-2024 00:00:00,24.5886166,73.6321397,CO,2,84,38
India,Sikkim,Gangtok,"Zero Point GICI, Gangtok - SSPCB",13-05-2024 00:00:00,27.338530,88.614099,PM10,6,25,12
India,TamilNadu,Chennai,"Kodungaiyur, Chennai - TNPCB",13-05-2024 00:00:00,13.1278,80.2642,NH3,NA,NA,NA
India,TamilNadu,Chennai,"Manali, Chennai - CPCB",13-05-2024 00:00:00,13.164544,80.26285,SO2,4,14,7
India,TamilNadu,Coimbatore,"PSG College of Arts and Science, Coimbatore - TNPCB",13-05-2024 00:00:00,11.0328,77.0349,SO2,NA,NA,NA
India,TamilNadu,Cuddalore,"Kudikadu, Cuddalore - TNPCB",13-05-2024 00:00:00,11.6829898,79.7532099,SO2,NA,NA,NA
India,TamilNadu,Ooty,"Bombay Castel, Ooty - TNPCB",13-05-2024 00:00:00,11.4068288,76.7138973,NO2,12,77,31
India,TamilNadu,Ooty,"Bombay Castel, Ooty - TNPCB",13-05-2024 00:00:00,11.4068288,76.7138973,CO,22,23,22
India,TamilNadu,Palkalaiperur,"Bharathidasan University, Palkalaiperur - TNPCB",13-05-2024 00:00:00,10.681158,78.741746,PM2.5,8,22,14
India,TamilNadu,Palkalaiperur,"Bharathidasan University, Palkalaiperur - TNPCB",13-05-2024 00:00:00,10.681158,78.741746,PM10,8,26,16
India,TamilNadu,Palkalaiperur,"Bharathidasan University, Palkalaiperur - TNPCB",13-05-2024 00:00:00,10.681158,78.741746,CO,1,8,4
India,TamilNadu,Ramanathapuram,"Chalai Bazaar, Ramanathapuram - TNPCB",13-05-2024 00:00:00,9.36399,78.831977,SO2,6,16,9
India,TamilNadu,Thoothukudi,"Meelavittan, Thoothukudi - TNPCB",13-05-2024 00:00:00,8.816428 ,78.099039,SO2,5,16,11
India,TamilNadu,Tirupur,"Kumaran College, Tirupur - TNPCB",13-05-2024 00:00:00,11.0973603,77.3228673,PM2.5,9,38,18
India,TamilNadu,Tirupur,"Kumaran College, Tirupur - TNPCB",13-05-2024 00:00:00,11.0973603,77.3228673,PM10,30,94,48
India,TamilNadu,Tirupur,"Kumaran College, Tirupur - TNPCB",13-05-2024 00:00:00,11.0973603,77.3228673,CO,26,50,39
India,TamilNadu,Vellore,"Vasanthapuram, Vellore - TNPCB",13-05-2024 00:00:00,12.909494,79.131861,NO2,NA,NA,NA
India,Telangana,Hyderabad,"Bollaram Industrial Area, Hyderabad - TSPCB",13-05-2024 00:00:00,17.540891,78.358528,OZONE,30,36,34
India,Telangana,Hyderabad,"Central University, Hyderabad - TSPCB",13-05-2024 00:00:00,17.460103,78.334361,PM2.5,15,60,29
India,Telangana,Hyderabad,"Central University, Hyderabad - TSPCB",13-05-2024 00:00:00,17.460103,78.334361,OZONE,3,4,4
India,Telangana,Hyderabad,"ECIL Kapra, Hyderabad - TSPCB",13-05-2024 00:00:00,17.470431,78.566959,PM10,62,84,68
India,Telangana,Hyderabad,"ECIL Kapra, Hyderabad - TSPCB",13-05-2024 00:00:00,17.470431,78.566959,NO2,10,11,11
India,Telangana,Hyderabad,"ECIL Kapra, Hyderabad - TSPCB",13-05-2024 00:00:00,17.470431,78.566959,CO,12,28,20
India,Telangana,Hyderabad,"ICRISAT Patancheru, Hyderabad - TSPCB",13-05-2024 00:00:00,17.518400,78.278777,NO2,16,17,16
India,Telangana,Hyderabad,"Kompally Municipal Office, Hyderabad - TSPCB",13-05-2024 00:00:00,17.544899,78.486949,SO2,NA,NA,NA
India,Telangana,Hyderabad,"New Malakpet, Hyderabad - TSPCB",13-05-2024 00:00:00,17.37206,78.50864,CO,8,74,40
India,Telangana,Hyderabad,"New Malakpet, Hyderabad - TSPCB",13-05-2024 00:00:00,17.37206,78.50864,OZONE,17,48,30
India,Telangana,Hyderabad,"Ramachandrapuram, Hyderabad - TSPCB",13-05-2024 00:00:00,17.528544,78.286195,SO2,10,12,11
India,Telangana,Hyderabad,"Sanathnagar, Hyderabad - TSPCB",13-05-2024 00:00:00,17.4559458,78.4332152,SO2,14,52,32
India,Telangana,Hyderabad,"Sanathnagar, Hyderabad - TSPCB",13-05-2024 00:00:00,17.4559458,78.4332152,OZONE,14,62,24
India,Telangana,Hyderabad,"Zoo Park, Hyderabad - TSPCB",13-05-2024 00:00:00,17.349694,78.451437,NO2,21,38,27
India,Tripura,Agartala,"Bardowali, Agartala - Tripura SPCB",13-05-2024 00:00:00,23.8175497,91.2726974,CO,12,47,32
India,Uttar_Pradesh,Agra,"Manoharpur, Agra - UPPCB",13-05-2024 00:00:00,27.23711,78.01936,PM2.5,39,80,52
India,Uttar_Pradesh,Agra,"Manoharpur, Agra - UPPCB",13-05-2024 00:00:00,27.23711,78.01936,NO2,35,35,35
India,Uttar_Pradesh,Agra,"Manoharpur, Agra - UPPCB",13-05-2024 00:00:00,27.23711,78.01936,NH3,2,2,2
India,Uttar_Pradesh,Agra,"Manoharpur, Agra - UPPCB",13-05-2024 00:00:00,27.23711,78.01936,SO2,13,18,15
India,Uttar_Pradesh,Agra,"Rohta, Agra - UPPCB",13-05-2024 00:00:00,27.106972,78.000111,CO,6,20,13
India,Uttar_Pradesh,Agra,"Sanjay Palace, Agra - UPPCB",13-05-2024 00:00:00,27.19865833,78.00598056,OZONE,32,166,40
India,Uttar_Pradesh,Agra,"Sector-3B Avas Vikas Colony, Agra - UPPCB",13-05-2024 00:00:00,27.19412,77.96237,NH3,4,21,10
India,Uttar_Pradesh,Agra,"Shahjahan Garden, Agra - UPPCB",13-05-2024 00:00:00,27.169338,78.03582,PM10,NA,NA,NA
India,Uttar_Pradesh,Agra,"Shahjahan Garden, Agra - UPPCB",13-05-2024 00:00:00,27.169338,78.03582,NO2,NA,NA,NA
India,Uttar_Pradesh,Agra,"Shastripuram, Agra - UPPCB",13-05-2024 00:00:00,27.19862,77.92066,SO2,13,15,14
India,Uttar_Pradesh,Agra,"Shastripuram, Agra - UPPCB",13-05-2024 00:00:00,27.19862,77.92066,CO,10,22,15
India,Uttar_Pradesh,Bareilly,"Civil Lines, Bareilly - UPPCB",13-05-2024 00:00:00,28.359581,79.414455,NO2,2,3,2
India,Uttar_Pradesh,Bareilly,"Rajendra Nagar, Bareilly - UPPCB",13-05-2024 00:00:00,28.38910936,79.42963708,PM10,33,65,43
India,Uttar_Pradesh,Bareilly,"Rajendra Nagar, Bareilly - UPPCB",13-05-2024 00:00:00,28.38910936,79.42963708,NO2,2,3,2
India,Uttar_Pradesh,Bulandshahr,"Yamunapuram, Bulandshahr - UPPCB",13-05-2024 00:00:00,28.406963,77.849831,CO,32,70,55
India,Uttar_Pradesh,Firozabad,"Nagla Bhau, Firozabad - UPPCB",13-05-2024 00:00:00,27.168897,78.376960,CO,23,32,28
India,Uttar_Pradesh,Ghaziabad,"Indirapuram, Ghaziabad - UPPCB",13-05-2024 00:00:00,28.646233,77.358075,NH3,6,10,7
India,Uttar_Pradesh,Ghaziabad,"Loni, Ghaziabad - UPPCB",13-05-2024 00:00:00,28.757294,77.278792,PM10,83,266,157
India,Uttar_Pradesh,Ghaziabad,"Sanjay Nagar, Ghaziabad - UPPCB",13-05-2024 00:00:00,28.685382,77.453839,PM10,99,262,161
India,Uttar_Pradesh,Ghaziabad,"Sanjay Nagar, Ghaziabad - UPPCB",13-05-2024 00:00:00,28.685382,77.453839,NH3,8,18,12
India,Uttar_Pradesh,Gorakhpur,"Madan Mohan Malaviya University of Technology, Gorakhpur - UPPCB",13-05-2024 00:00:00,26.730136,83.433859,PM10,NA,NA,NA
India,Uttar_Pradesh,Gorakhpur,"Madan Mohan Malaviya University of Technology, Gorakhpur - UPPCB",13-05-2024 00:00:00,26.730136,83.433859,NO2,NA,NA,NA
India,Uttar_Pradesh,Gorakhpur,"Madan Mohan Malaviya University of Technology, Gorakhpur - UPPCB",13-05-2024 00:00:00,26.730136,83.433859,CO,NA,NA,NA
India,Uttar_Pradesh,Greater Noida,"Knowledge Park - III, Greater Noida - UPPCB",13-05-2024 00:00:00,28.47272,77.482000,NH3,1,7,3
India,Uttar_Pradesh,Greater Noida,"Knowledge Park - III, Greater Noida - UPPCB",13-05-2024 00:00:00,28.47272,77.482000,SO2,10,42,24
India,Uttar_Pradesh,Greater Noida,"Knowledge Park - III, Greater Noida - UPPCB",13-05-2024 00:00:00,28.47272,77.482000,CO,37,101,67
India,Uttar_Pradesh,Greater Noida,"Knowledge Park - V, Greater Noida - UPPCB",13-05-2024 00:00:00,28.557054,77.453663,PM2.5,94,348,212
India,Uttar_Pradesh,Greater Noida,"Knowledge Park - V, Greater Noida - UPPCB",13-05-2024 00:00:00,28.557054,77.453663,SO2,2,17,10
India,Uttar_Pradesh,Jhansi,"Shivaji Nagar, Jhansi - UPPCB",13-05-2024 00:00:00,25.4547,78.6039,PM2.5,NA,NA,NA
India,Uttar_Pradesh,Jhansi,"Shivaji Nagar, Jhansi - UPPCB",13-05-2024 00:00:00,25.4547,78.6039,PM10,NA,NA,NA
India,Uttar_Pradesh,Jhansi,"Shivaji Nagar, Jhansi - UPPCB",13-05-2024 00:00:00,25.4547,78.6039,SO2,16,21,18
India,Uttar_Pradesh,Kanpur,"FTI Kidwai Nagar, Kanpur - UPPCB",13-05-2024 00:00:00,26.428282,80.327067,NH3,2,4,3
India,Uttar_Pradesh,Kanpur,"Nehru Nagar, Kanpur - UPPCB",13-05-2024 00:00:00,26.4703136,80.3229863,PM10,48,135,83
India,Uttar_Pradesh,Kanpur,"Nehru Nagar, Kanpur - UPPCB",13-05-2024 00:00:00,26.4703136,80.3229863,CO,58,84,73
India,Uttar_Pradesh,Khurja,"Kalindi Kunj, Khurja - UPPCB",13-05-2024 00:00:00,28.2348927,77.8683002,CO,30,48,42
India,Uttar_Pradesh,Lucknow,"B R Ambedkar University, Lucknow - UPPCB",13-05-2024 00:00:00,26.766433,80.927299,SO2,32,36,34
India,Uttar_Pradesh,Lucknow,"B R Ambedkar University, Lucknow - UPPCB",13-05-2024 00:00:00,26.766433,80.927299,OZONE,4,77,59
India,Uttar_Pradesh,Lucknow,"Gomti Nagar, Lucknow - UPPCB",13-05-2024 00:00:00,26.868120,81.005119,PM10,28,96,50
India,Uttar_Pradesh,Lucknow,"Kukrail Picnic Spot-1, Lucknow - UPPCB",13-05-2024 00:00:00,26.90723,80.98579,SO2,29,32,31
India,Uttar_Pradesh,Lucknow,"Lalbagh, Lucknow - CPCB",13-05-2024 00:00:00,26.8458805,80.9365541,NH3,18,20,19
India,Uttar_Pradesh,Lucknow,"Lalbagh, Lucknow - CPCB",13-05-2024 00:00:00,26.8458805,80.9365541,OZONE,21,70,52
India,Uttar_Pradesh,Meerut,"Ganga Nagar, Meerut - UPPCB",13-05-2024 00:00:00,28.999264,77.7590354,NO2,19,86,41
India,Uttar_Pradesh,Meerut,"Ganga Nagar, Meerut - UPPCB",13-05-2024 00:00:00,28.999264,77.7590354,SO2,6,49,22
India,Uttar_Pradesh,Meerut,"Ganga Nagar, Meerut - UPPCB",13-05-2024 00:00:00,28.999264,77.7590354,CO,28,74,50
India,Uttar_Pradesh,Meerut,"Jai Bhim Nagar, Meerut - UPPCB",13-05-2024 00:00:00,28.9535882,77.7622941,NH3,7,11,9
India,Uttar_Pradesh,Meerut,"Jai Bhim Nagar, Meerut - UPPCB",13-05-2024 00:00:00,28.9535882,77.7622941,CO,28,74,48
India,Uttar_Pradesh,Meerut,"Jai Bhim Nagar, Meerut - UPPCB",13-05-2024 00:00:00,28.9535882,77.7622941,OZONE,19,188,111
India,Uttar_Pradesh,Moradabad,"Buddhi Vihar, Moradabad - UPPCB",13-05-2024 00:00:00,28.83526,78.74460,PM10,52,135,91
India,Uttar_Pradesh,Moradabad,"Eco Herbal Park, Moradabad - UPPCB",13-05-2024 00:00:00,28.840739,78.697531,OZONE,8,154,90
India,Uttar_Pradesh,Moradabad,"Jigar Colony, Moradabad - UPPCB",13-05-2024 00:00:00,28.856664,78.772638,PM10,62,126,92
India,Uttar_Pradesh,Moradabad,"Kashiram Nagar, Moradabad - UPPCB",13-05-2024 00:00:00,28.849399,78.742362,PM2.5,42,152,80
India,Uttar_Pradesh,Moradabad,"Kashiram Nagar, Moradabad - UPPCB",13-05-2024 00:00:00,28.849399,78.742362,OZONE,10,66,11
India,Uttar_Pradesh,Moradabad,"Transport Nagar, Moradabad - UPPCB",13-05-2024 00:00:00,28.802625,78.753728,NH3,5,5,5
India,Uttar_Pradesh,Moradabad,"Transport Nagar, Moradabad - UPPCB",13-05-2024 00:00:00,28.802625,78.753728,CO,40,44,41
India,Uttar_Pradesh,Muzaffarnagar,"New Mandi, Muzaffarnagar - UPPCB",13-05-2024 00:00:00,29.4723508,77.7194031,OZONE,21,98,73
India,Uttar_Pradesh,Noida,"Sector - 125, Noida - UPPCB",13-05-2024 00:00:00,28.5447608,77.3231257,NH3,NA,NA,NA
India,Uttar_Pradesh,Noida,"Sector - 125, Noida - UPPCB",13-05-2024 00:00:00,28.5447608,77.3231257,SO2,NA,NA,NA
India,Uttar_Pradesh,Noida,"Sector - 62, Noida - IMD",13-05-2024 00:00:00,28.6245479,77.3577104,OZONE,2,30,14
India,Uttar_Pradesh,Noida,"Sector-1, Noida - UPPCB",13-05-2024 00:00:00,28.5898,77.3101,PM2.5,70,274,143
India,Uttar_Pradesh,Noida,"Sector-1, Noida - UPPCB",13-05-2024 00:00:00,28.5898,77.3101,NO2,20,124,63
India,Uttar_Pradesh,Noida,"Sector-116, Noida - UPPCB",13-05-2024 00:00:00,28.569230,77.393848,NH3,8,11,10
India,Uttar_Pradesh,Prayagraj,"Jhunsi, Prayagraj - UPPCB",13-05-2024 00:00:00,25.425602,81.917152,OZONE,6,61,44
India,Uttar_Pradesh,Prayagraj,"Motilal Nehru NIT, Prayagraj - UPPCB",13-05-2024 00:00:00,25.494,81.863,NO2,12,12,12
India,Uttar_Pradesh,Prayagraj,"Motilal Nehru NIT, Prayagraj - UPPCB",13-05-2024 00:00:00,25.494,81.863,OZONE,3,69,55
India,Uttar_Pradesh,Prayagraj,"Nagar Nigam, Prayagraj - UPPCB",13-05-2024 00:00:00,25.44919916 ,81.82735986 ,PM10,31,89,45
India,Uttar_Pradesh,Varanasi,"Ardhali Bazar, Varanasi - UPPCB",13-05-2024 00:00:00,25.3505986,82.9083074,CO,10,22,19
India,Uttar_Pradesh,Varanasi,"Bhelupur, Varanasi - UPPCB",13-05-2024 00:00:00,25.301778,82.996789,SO2,29,29,29
India,Uttar_Pradesh,Varanasi,"IESD Banaras Hindu University, Varanasi - UPPCB",13-05-2024 00:00:00,25.262326,82.995408,NH3,1,4,2
India,Uttar_Pradesh,Varanasi,"Maldahiya, Varanasi - UPPCB",13-05-2024 00:00:00,25.32393,82.99687,NO2,1,2,2
India,Uttar_Pradesh,Varanasi,"Maldahiya, Varanasi - UPPCB",13-05-2024 00:00:00,25.32393,82.99687,NH3,1,1,1
India,Uttarakhand,Dehradun,"Doon University, Dehradun - UKPCB",13-05-2024 00:00:00,30.269444,78.044167,PM2.5,50,107,72
India,Uttarakhand,Kashipur,"Govt. Girls Inter College, Kashipur - UKPCB",13-05-2024 00:00:00,29.2124114,78.9611753,SO2,7,10,8
India,Uttarakhand,Kashipur,"Govt. Girls Inter College, Kashipur - UKPCB",13-05-2024 00:00:00,29.2124114,78.9611753,OZONE,17,145,92
India,Uttarakhand,Rishikesh,"Shivaji Nagar, Rishikesh - UKPCB",13-05-2024 00:00:00,30.075911,78.2859547,PM10,40,101,73
India,West_Bengal,Asansol,"Asansol Court Area, Asansol - WBPCB",13-05-2024 00:00:00,23.685297,86.945968,PM2.5,41,132,80
India,West_Bengal,Asansol,"Asansol Court Area, Asansol - WBPCB",13-05-2024 00:00:00,23.685297,86.945968,NH3,10,15,11
India,West_Bengal,Asansol,"Asansol Court Area, Asansol - WBPCB",13-05-2024 00:00:00,23.685297,86.945968,CO,16,40,21
India,West_Bengal,Durgapur,"PCBL Residential Complex, Durgapur - WBPCB",13-05-2024 00:00:00,23.5087640,87.3544400,SO2,7,8,7
India,West_Bengal,Durgapur,"Sidhu Kanhu Indoor Stadium, Durgapur - WBPCB",13-05-2024 00:00:00,23.5404352,87.2892225,PM10,36,116,70
India,West_Bengal,Haldia,"Priyambada Housing Estate, Haldia - WBPCB",13-05-2024 00:00:00,22.06047,88.109737,CO,18,32,21
India,West_Bengal,Howrah,"Belur Math, Howrah - WBPCB",13-05-2024 00:00:00,22.629801,88.352017,SO2,7,8,8
India,West_Bengal,Howrah,"Ghusuri, Howrah - WBPCB",13-05-2024 00:00:00,22.611968,88.347422,CO,16,34,22
India,West_Bengal,Howrah,"Padmapukur, Howrah - WBPCB",13-05-2024 00:00:00,22.5687319,88.2797276,SO2,7,20,12
India,West_Bengal,Kolkata,"Ballygunge, Kolkata - WBPCB",13-05-2024 00:00:00,22.5367507,88.3638022,PM2.5,32,50,39
India,West_Bengal,Kolkata,"Ballygunge, Kolkata - WBPCB",13-05-2024 00:00:00,22.5367507,88.3638022,CO,14,30,20
India,West_Bengal,Kolkata,"Bidhannagar, Kolkata - WBPCB",13-05-2024 00:00:00,22.58157048,88.41002457,SO2,8,13,12
India,West_Bengal,Kolkata,"Fort William, Kolkata - WBPCB",13-05-2024 00:00:00,22.556640,88.342674,PM10,42,73,56
India,West_Bengal,Kolkata,"Fort William, Kolkata - WBPCB",13-05-2024 00:00:00,22.556640,88.342674,NO2,14,85,38
India,West_Bengal,Kolkata,"Jadavpur, Kolkata - WBPCB",13-05-2024 00:00:00,22.49929,88.36917,OZONE,14,84,52
India,West_Bengal,Kolkata,"Rabindra Bharati University, Kolkata - WBPCB",13-05-2024 00:00:00,22.627847,88.380669,SO2,10,13,11
India,West_Bengal,Kolkata,"Rabindra Sarobar, Kolkata - WBPCB",13-05-2024 00:00:00,22.51106,88.35142,NO2,12,44,24
India,West_Bengal,Kolkata,"Victoria, Kolkata - WBPCB",13-05-2024 00:00:00,22.5448082,88.3403691,PM10,34,67,51
India,West_Bengal,Kolkata,"Victoria, Kolkata - WBPCB",13-05-2024 00:00:00,22.5448082,88.3403691,CO,10,27,17
India,West_Bengal,Siliguri,"Ward-32 Bapupara, Siliguri - WBPCB",13-05-2024 00:00:00,26.6879226,88.4152495,PM2.5,25,67,38
India,Andhra_Pradesh,Amaravati,"Secretariat, Amaravati - APPCB",13-05-2024 00:00:00,16.5150833,80.5181667,NO2,5,22,11
India,Andhra_Pradesh,Anantapur,"Gulzarpet, Anantapur - APPCB",13-05-2024 00:00:00,14.675886,77.593027,NO2,12,13,12
India,Andhra_Pradesh,Anantapur,"Gulzarpet, Anantapur - APPCB",13-05-2024 00:00:00,14.675886,77.593027,NH3,4,4,4
India,Andhra_Pradesh,Chittoor,"Gangineni Cheruvu, Chittoor - APPCB",13-05-2024 00:00:00,13.204880,79.097889,PM10,NA,NA,NA
India,Andhra_Pradesh,Chittoor,"Gangineni Cheruvu, Chittoor - APPCB",13-05-2024 00:00:00,13.204880,79.097889,NH3,NA,NA,NA
India,Andhra_Pradesh,Kadapa,"Yerramukkapalli, Kadapa - APPCB",13-05-2024 00:00:00,14.465052,78.824187,NH3,3,3,3
India,Andhra_Pradesh,Kadapa,"Yerramukkapalli, Kadapa - APPCB",13-05-2024 00:00:00,14.465052,78.824187,CO,2,13,4
India,Andhra_Pradesh,Rajamahendravaram,"Anand Kala Kshetram, Rajamahendravaram - APPCB",13-05-2024 00:00:00,16.9872867,81.7363176,PM10,20,98,38
India,Andhra_Pradesh,Tirupati,"Tirumala, Tirupati - APPCB",13-05-2024 00:00:00,13.67,79.35,PM2.5,7,54,30
India,Andhra_Pradesh,Tirupati,"Tirumala, Tirupati - APPCB",13-05-2024 00:00:00,13.67,79.35,SO2,1,26,10
India,Andhra_Pradesh,Tirupati,"Vaikuntapuram, Tirupati - APPCB",13-05-2024 00:00:00,13.615387,79.409230,NH3,NA,NA,NA
India,Andhra_Pradesh,Vijayawada,"Rajiv Nagar, Vijayawada - APPCB",13-05-2024 00:00:00,16.554731,80.649110,NO2,NA,NA,NA
India,Arunachal_Pradesh,Naharlagun,"Naharlagun, Naharlagun - APSPCB",13-05-2024 00:00:00,27.103358,93.679645,NO2,3,3,3
India,Arunachal_Pradesh,Naharlagun,"Naharlagun, Naharlagun - APSPCB",13-05-2024 00:00:00,27.103358,93.679645,SO2,4,4,4
India,Assam,Byrnihat,"Central Academy for SFS, Byrnihat - PCBA",13-05-2024 00:00:00,26.071318,91.87488,SO2,NA,NA,NA
India,Assam,Byrnihat,"Central Academy for SFS, Byrnihat - PCBA",13-05-2024 00:00:00,26.071318,91.87488,CO,NA,NA,NA
India,Assam,Guwahati,"IITG, Guwahati - PCBA",13-05-2024 00:00:00,26.2028636,91.70046436,NH3,5,5,5
India,Assam,Guwahati,"LGBI Airport, Guwahati - PCBA",13-05-2024 00:00:00,26.10887,91.589544,PM10,38,226,94
India,Assam,Guwahati,"LGBI Airport, Guwahati - PCBA",13-05-2024 00:00:00,26.10887,91.589544,NH3,1,6,3
India,Assam,Guwahati,"Pan Bazaar, Guwahati - PCBA",13-05-2024 00:00:00,26.187500,91.744194,CO,18,80,48
India,Assam,Guwahati,"Railway Colony, Guwahati - PCBA",13-05-2024 00:00:00,26.181742,91.78063,NO2,3,4,3
India,Assam,Nagaon,"Christianpatty, Nagaon - PCBA",13-05-2024 00:00:00,26.349082,92.68449,PM2.5,62,120,81
India,Assam,Nalbari,"Bata Chowk, Nalbari - PCBA",13-05-2024 00:00:00,26.446912,91.439057,PM2.5,27,157,58
India,Assam,Nalbari,"Bata Chowk, Nalbari - PCBA",13-05-2024 00:00:00,26.446912,91.439057,CO,79,102,84
India,Assam,Silchar,"Tarapur, Silchar - PCBA",13-05-2024 00:00:00,24.82827,92.79525,CO,24,31,30
India,Assam,Sivasagar,"Girls College, Sivasagar - PCBA",13-05-2024 00:00:00,26.987634,94.636574,SO2,8,9,9
India,Bihar,Araria,"Kharahiya Basti, Araria - BSPCB",13-05-2024 00:00:00,26.146529,87.454184,PM2.5,NA,NA,NA
India,Bihar,Araria,"Kharahiya Basti, Araria - BSPCB",13-05-2024 00:00:00,26.146529,87.454184,SO2,7,17,14
India,Bihar,Araria,"Kharahiya Basti, Araria - BSPCB",13-05-2024 00:00:00,26.146529,87.454184,OZONE,5,10,7
India,Bihar,Arrah,"New DM Office, Arrah - BSPCB",13-05-2024 00:00:00,25.5626095,84.663264,PM2.5,NA,NA,NA
India,Bihar,Arrah,"New DM Office, Arrah - BSPCB",13-05-2024 00:00:00,25.5626095,84.663264,PM10,NA,NA,NA
India,Bihar,Aurangabad,"Gurdeo Nagar, Aurangabad - BSPCB",13-05-2024 00:00:00,24.75746,84.366208,PM2.5,NA,NA,NA
India,Bihar,Aurangabad,"Gurdeo Nagar, Aurangabad - BSPCB",13-05-2024 00:00:00,24.75746,84.366208,CO,5,32,17
India,Bihar,Bihar Sharif,"D M Colony, Bihar Sharif - BSPCB",13-05-2024 00:00:00,25.204762,85.514960,PM2.5,13,68,37
India,Bihar,Bihar Sharif,"D M Colony, Bihar Sharif - BSPCB",13-05-2024 00:00:00,25.204762,85.514960,CO,52,60,58
India,Bihar,Buxar,"Charitra Van, Buxar - BSPCB (Formerly known as Central Jail)",13-05-2024 00:00:00,25.567520,83.966379,NO2,1,1,1
India,Bihar,Buxar,"Charitra Van, Buxar - BSPCB (Formerly known as Central Jail)",13-05-2024 00:00:00,25.567520,83.966379,SO2,6,11,9
India,Bihar,Chhapra,"Darshan Nagar, Chhapra - BSPCB",13-05-2024 00:00:00,25.7808257,84.7446768,OZONE,1,16,2
India,Bihar,Gaya,"Kareemganj, Gaya - BSPCB",13-05-2024 00:00:00,24.792403,84.992416,CO,8,22,12
India,Bihar,Gaya,"SFTI Kusdihra, Gaya - BSPCB",13-05-2024 00:00:00,24.762518,84.982348,NO2,NA,NA,NA
India,Bihar,Gaya,"SFTI Kusdihra, Gaya - BSPCB",13-05-2024 00:00:00,24.762518,84.982348,SO2,5,7,6
India,Bihar,Gaya,"SFTI Kusdihra, Gaya - BSPCB",13-05-2024 00:00:00,24.762518,84.982348,CO,8,36,32
India,Bihar,Gaya,"SFTI Kusdihra, Gaya - BSPCB",13-05-2024 00:00:00,24.762518,84.982348,OZONE,32,125,47
India,Bihar,Hajipur,"Industrial Area, Hajipur - BSPCB",13-05-2024 00:00:00,25.697189,85.245900,PM10,71,146,108
India,Bihar,Hajipur,"Industrial Area, Hajipur - BSPCB",13-05-2024 00:00:00,25.697189,85.245900,NO2,8,12,9
India,Bihar,Katihar,"Mirchaibari, Katihar - BSPCB",13-05-2024 00:00:00,25.560083,87.553265,OZONE,11,15,12
India,Bihar,Motihari,"Gandak Colony, Motihari - BSPCB",13-05-2024 00:00:00,26.63086,84.90051,NH3,4,11,7
India,Bihar,Munger,"Town Hall, Munger - BSPCB",13-05-2024 00:00:00,25.376776,86.471523,PM2.5,17,127,55
India,Bihar,Munger,"Town Hall, Munger - BSPCB",13-05-2024 00:00:00,25.376776,86.471523,CO,44,90,69
India,Bihar,Munger,"Town Hall, Munger - BSPCB",13-05-2024 00:00:00,25.376776,86.471523,OZONE,27,36,29
India,Bihar,Muzaffarpur,"Buddha Colony, Muzaffarpur - BSPCB",13-05-2024 00:00:00,26.11442,85.39813,NH3,12,17,14
India,Bihar,Muzaffarpur,"MIT-Daudpur Kothi, Muzaffarpur - BSPCB",13-05-2024 00:00:00,26.1403345,85.3650192,SO2,NA,NA,NA
India,Bihar,Muzaffarpur,"MIT-Daudpur Kothi, Muzaffarpur - BSPCB",13-05-2024 00:00:00,26.1403345,85.3650192,OZONE,NA,NA,NA
India,Bihar,Muzaffarpur,"Muzaffarpur Collectorate, Muzaffarpur - BSPCB",13-05-2024 00:00:00,26.1209,85.3647,SO2,5,7,7
India,Bihar,Patna,"DRM Office Danapur, Patna - BSPCB",13-05-2024 00:00:00,25.586562,85.043586,PM2.5,48,131,83
India,Bihar,Patna,"DRM Office Danapur, Patna - BSPCB",13-05-2024 00:00:00,25.586562,85.043586,SO2,5,11,8
India,Bihar,Patna,"Govt. High School Shikarpur, Patna - BSPCB",13-05-2024 00:00:00,25.592539,85.227158,PM2.5,39,147,77
India,Bihar,Patna,"Muradpur, Patna - BSPCB",13-05-2024 00:00:00,25.619651,85.147382,PM2.5,58,307,155
India,Bihar,Patna,"Muradpur, Patna - BSPCB",13-05-2024 00:00:00,25.619651,85.147382,NH3,3,6,5
India,Bihar,Patna,"Rajbansi Nagar, Patna - BSPCB",13-05-2024 00:00:00,25.599486,85.113666,PM10,76,133,107
India,Bihar,Patna,"Samanpura, Patna - BSPCB",13-05-2024 00:00:00,25.596727,85.085624,NH3,10,11,10
India,Bihar,Patna,"Samanpura, Patna - BSPCB",13-05-2024 00:00:00,25.596727,85.085624,OZONE,30,91,66
India,Bihar,Purnia,"Mariam Nagar, Purnia - BSPCB",13-05-2024 00:00:00,25.366336,87.117468,PM10,17,92,71
India,Bihar,Rajgir,"Dangi Tola, Rajgir - BSPCB",13-05-2024 00:00:00,25.03280,85.41948,CO,28,44,33
India,Bihar,Sasaram,"Dada Peer, Sasaram - BSPCB",13-05-2024 00:00:00,24.952822,84.002396,CO,81,88,86
India,Bihar,Sasaram,"Dada Peer, Sasaram - BSPCB",13-05-2024 00:00:00,24.952822,84.002396,OZONE,3,90,40
India,Bihar,Siwan,"Chitragupta Nagar, Siwan - BSPCB",13-05-2024 00:00:00,26.2271665,84.3570427,PM10,NA,NA,NA
India,Chandigarh,Chandigarh,"Sector 22, Chandigarh - CPCC",13-05-2024 00:00:00,30.735567,76.775714,NO2,13,86,36
India,Chandigarh,Chandigarh,"Sector-53, Chandigarh - CPCC",13-05-2024 00:00:00,30.719859,76.738637,SO2,15,57,24
India,Chandigarh,Chandigarh,"Sector-53, Chandigarh - CPCC",13-05-2024 00:00:00,30.719859,76.738637,CO,39,79,48
India,Chhattisgarh,Bhilai,"32Bungalows, Bhilai - CECB",13-05-2024 00:00:00,21.194815,81.314770,PM2.5,30,60,47
India,Chhattisgarh,Bhilai,"32Bungalows, Bhilai - CECB",13-05-2024 00:00:00,21.194815,81.314770,OZONE,5,59,14
India,Chhattisgarh,Bhilai,"Civic Center, Bhilai - Bhilai Steel Plant",13-05-2024 00:00:00,21.185571,81.343175,PM2.5,21,43,32
India,Chhattisgarh,Bhilai,"Civic Center, Bhilai - Bhilai Steel Plant",13-05-2024 00:00:00,21.185571,81.343175,PM10,36,70,52
India,Chhattisgarh,Bhilai,"Civic Center, Bhilai - Bhilai Steel Plant",13-05-2024 00:00:00,21.185571,81.343175,NO2,11,22,14
India,Chhattisgarh,Bhilai,"Hathkhoj, Bhilai - CECB",13-05-2024 00:00:00,21.224231,81.408350,NO2,9,28,16
India,Chhattisgarh,Bhilai,"Hathkhoj, Bhilai - CECB",13-05-2024 00:00:00,21.224231,81.408350,OZONE,22,39,31
India,Chhattisgarh,Bilaspur,"Mangala, Bilaspur - NTPC",13-05-2024 00:00:00,22.08815,82.13737,SO2,9,14,12
India,Chhattisgarh,Korba,"Rampur, Korba - CECB",13-05-2024 00:00:00,22.368195,82.746431,PM10,29,229,74
India,Chhattisgarh,Korba,"Rampur, Korba - CECB",13-05-2024 00:00:00,22.368195,82.746431,SO2,1,9,3
India,Chhattisgarh,Korba,"Rampur, Korba - CECB",13-05-2024 00:00:00,22.368195,82.746431,CO,16,28,19
India,Chhattisgarh,Korba,"Urja Nagar, Korba - CECB",13-05-2024 00:00:00,22.348441,82.549611,NO2,65,77,70
India,Chhattisgarh,Korba,"Urja Nagar, Korba - CECB",13-05-2024 00:00:00,22.348441,82.549611,CO,23,52,25
India,Chhattisgarh,Kunjemura,"OP Jindal School, Kunjemura - CECB",13-05-2024 00:00:00,22.126650,83.483212,NO2,19,162,56
India,Chhattisgarh,Kunjemura,"OP Jindal School, Kunjemura - CECB",13-05-2024 00:00:00,22.126650,83.483212,CO,22,72,32
India,Chhattisgarh,Raipur,"AIIMS, Raipur - CECB",13-05-2024 00:00:00,21.258815,81.578979,PM2.5,NA,NA,NA
India,Chhattisgarh,Raipur,"AIIMS, Raipur - CECB",13-05-2024 00:00:00,21.258815,81.578979,PM10,NA,NA,NA
India,Chhattisgarh,Raipur,"Bhatagaon New ISBT, Raipur - CECB",13-05-2024 00:00:00,21.219665,81.630094,SO2,1,3,2
India,Chhattisgarh,Raipur,"Bhatagaon New ISBT, Raipur - CECB",13-05-2024 00:00:00,21.219665,81.630094,CO,19,39,24
India,Chhattisgarh,Raipur,"Krishak Nagar, Raipur - CECB",13-05-2024 00:00:00,21.237755,81.705301,PM2.5,22,51,31
India,Chhattisgarh,Raipur,"Siltara Phase-II, Raipur - CECB",13-05-2024 00:00:00,21.371751,81.664929,PM2.5,31,59,43
India,Chhattisgarh,Raipur,"Siltara Phase-II, Raipur - CECB",13-05-2024 00:00:00,21.371751,81.664929,NH3,3,3,3
India,Delhi,Delhi,"Alipur, Delhi - DPCC",13-05-2024 00:00:00,28.815329,77.153010,PM10,NA,NA,NA
India,Delhi,Delhi,"Alipur, Delhi - DPCC",13-05-2024 00:00:00,28.815329,77.153010,NO2,NA,NA,NA
India,Delhi,Delhi,"Anand Vihar, Delhi - DPCC",13-05-2024 00:00:00,28.647622,77.3158090,NH3,4,13,7
India,Delhi,Delhi,"Ashok Vihar, Delhi - DPCC",13-05-2024 00:00:00,28.695381,77.181665,PM2.5,73,314,151
India,Delhi,Delhi,"Ashok Vihar, Delhi - DPCC",13-05-2024 00:00:00,28.695381,77.181665,PM10,137,318,182
India,Delhi,Delhi,"Aya Nagar, Delhi - IMD",13-05-2024 00:00:00,28.4706914,77.1099364,PM2.5,NA,NA,NA
India,Delhi,Delhi,"Aya Nagar, Delhi - IMD",13-05-2024 00:00:00,28.4706914,77.1099364,PM10,NA,NA,NA
India,Delhi,Delhi,"Aya Nagar, Delhi - IMD",13-05-2024 00:00:00,28.4706914,77.1099364,NO2,NA,NA,NA
India,Delhi,Delhi,"Aya Nagar, Delhi - IMD",13-05-2024 00:00:00,28.4706914,77.1099364,OZONE,2,76,70
India,Delhi,Delhi,"DTU, Delhi - CPCB",13-05-2024 00:00:00,28.7500499,77.1112615,PM10,109,379,167
India,Delhi,Delhi,"DTU, Delhi - CPCB",13-05-2024 00:00:00,28.7500499,77.1112615,CO,14,62,32
India,Delhi,Delhi,"Dr. Karni Singh Shooting Range, Delhi - DPCC",13-05-2024 00:00:00,28.498571,77.264840,NH3,6,9,8
India,Delhi,Delhi,"Dr. Karni Singh Shooting Range, Delhi - DPCC",13-05-2024 00:00:00,28.498571,77.264840,OZONE,10,231,71
India,Delhi,Delhi,"Dwarka-Sector 8, Delhi - DPCC ",13-05-2024 00:00:00,28.5710274,77.0719006,PM2.5,77,260,144
India,Delhi,Delhi,"Dwarka-Sector 8, Delhi - DPCC ",13-05-2024 00:00:00,28.5710274,77.0719006,SO2,1,11,7
India,Delhi,Delhi,"Dwarka-Sector 8, Delhi - DPCC ",13-05-2024 00:00:00,28.5710274,77.0719006,CO,56,109,85
India,Delhi,Delhi,"IGI Airport (T3), Delhi - IMD",13-05-2024 00:00:00,28.5627763,77.1180053,CO,36,82,49
India,Delhi,Delhi,"IHBAS, Dilshad Garden, Delhi - CPCB",13-05-2024 00:00:00,28.6811736,77.3025234,PM10,98,153,124
India,Delhi,Delhi,"IHBAS, Dilshad Garden, Delhi - CPCB",13-05-2024 00:00:00,28.6811736,77.3025234,CO,9,58,30
India,Delhi,Delhi,"ITO, Delhi - CPCB",13-05-2024 00:00:00,28.628624,77.241060,PM10,91,169,111
India,Delhi,Delhi,"ITO, Delhi - CPCB",13-05-2024 00:00:00,28.628624,77.241060,CO,28,112,74
India,Delhi,Delhi,"ITO, Delhi - CPCB",13-05-2024 00:00:00,28.628624,77.241060,OZONE,11,146,64
India,Delhi,Delhi,"Jawaharlal Nehru Stadium, Delhi - DPCC",13-05-2024 00:00:00,28.580280,77.233829,NO2,5,38,16
India,Delhi,Delhi,"Lodhi Road, Delhi - IITM",13-05-2024 00:00:00,28.588333,77.221667,PM2.5,NA,NA,NA
India,Delhi,Delhi,"Lodhi Road, Delhi - IMD",13-05-2024 00:00:00,28.5918245,77.2273074,OZONE,5,69,34
India,Delhi,Delhi,"Mundka, Delhi - DPCC",13-05-2024 00:00:00,28.684678,77.076574,NO2,35,135,70
India,Delhi,Delhi,"Mundka, Delhi - DPCC",13-05-2024 00:00:00,28.684678,77.076574,NH3,6,9,7
India,Delhi,Delhi,"NSIT Dwarka, Delhi - CPCB",13-05-2024 00:00:00,28.60909,77.0325413,NH3,14,17,15
India,Delhi,Delhi,"Najafgarh, Delhi - DPCC",13-05-2024 00:00:00,28.570173,76.933762,NO2,16,98,41
India,Delhi,Delhi,"Narela, Delhi - DPCC",13-05-2024 00:00:00,28.822836,77.101981,PM10,135,438,229
India,Delhi,Delhi,"Narela, Delhi - DPCC",13-05-2024 00:00:00,28.822836,77.101981,NO2,9,80,32
India,Delhi,Delhi,"Nehru Nagar, Delhi - DPCC",13-05-2024 00:00:00,28.567890,77.250515,NH3,2,3,2
India,Delhi,Delhi,"Nehru Nagar, Delhi - DPCC",13-05-2024 00:00:00,28.567890,77.250515,SO2,5,9,7
India,Delhi,Delhi,"Patparganj, Delhi - DPCC",13-05-2024 00:00:00,28.623763,77.287209,NH3,NA,NA,NA
India,Delhi,Delhi,"Punjabi Bagh, Delhi - DPCC",13-05-2024 00:00:00,28.674045,77.131023,NO2,29,96,48
India,Delhi,Delhi,"Punjabi Bagh, Delhi - DPCC",13-05-2024 00:00:00,28.674045,77.131023,SO2,6,27,16
India,Delhi,Delhi,"Pusa, Delhi - DPCC",13-05-2024 00:00:00,28.639652,77.146275,PM2.5,67,290,127
India,Delhi,Delhi,"Pusa, Delhi - DPCC",13-05-2024 00:00:00,28.639652,77.146275,NO2,51,154,92
India,Delhi,Delhi,"Pusa, Delhi - DPCC",13-05-2024 00:00:00,28.639652,77.146275,CO,21,104,49
India,Delhi,Delhi,"Pusa, Delhi - IMD",13-05-2024 00:00:00,28.636110,77.173332,OZONE,4,64,54
India,Delhi,Delhi,"R K Puram, Delhi - DPCC",13-05-2024 00:00:00,28.563262,77.186937,PM10,130,438,182
India,Delhi,Delhi,"R K Puram, Delhi - DPCC",13-05-2024 00:00:00,28.563262,77.186937,SO2,16,32,23
India,Delhi,Delhi,"Rohini, Delhi - DPCC",13-05-2024 00:00:00,28.732528,77.119920,PM2.5,87,398,177
India,Delhi,Delhi,"Rohini, Delhi - DPCC",13-05-2024 00:00:00,28.732528,77.119920,PM10,126,361,192
India,Delhi,Delhi,"Rohini, Delhi - DPCC",13-05-2024 00:00:00,28.732528,77.119920,NO2,14,108,43
India,Delhi,Delhi,"Sirifort, Delhi - CPCB",13-05-2024 00:00:00,28.5504249,77.2159377,PM2.5,85,324,163
India,Delhi,Delhi,"Sirifort, Delhi - CPCB",13-05-2024 00:00:00,28.5504249,77.2159377,NO2,48,53,52
India,Delhi,Delhi,"Sirifort, Delhi - CPCB",13-05-2024 00:00:00,28.5504249,77.2159377,SO2,NA,NA,NA
India,Delhi,Delhi,"Sonia Vihar, Delhi - DPCC",13-05-2024 00:00:00,28.710508,77.249485,OZONE,5,189,118
India,Delhi,Delhi,"Sri Aurobindo Marg, Delhi - DPCC",13-05-2024 00:00:00,28.531346,77.190156,NO2,19,124,53
India,Delhi,Delhi,"Sri Aurobindo Marg, Delhi - DPCC",13-05-2024 00:00:00,28.531346,77.190156,OZONE,9,116,58
India,Delhi,Delhi,"Vivek Vihar, Delhi - DPCC",13-05-2024 00:00:00,28.672342,77.315260,SO2,34,68,42
India,Delhi,Delhi,"Vivek Vihar, Delhi - DPCC",13-05-2024 00:00:00,28.672342,77.315260,CO,19,100,59
India,Delhi,Delhi,"Wazirpur, Delhi - DPCC",13-05-2024 00:00:00,28.699793,77.165453,NH3,1,7,4
India,Delhi,Delhi,"Wazirpur, Delhi - DPCC",13-05-2024 00:00:00,28.699793,77.165453,OZONE,7,268,164
India,Gujarat,Ahmedabad,"Chandkheda, Ahmedabad - IITM",13-05-2024 00:00:00,23.107969,72.574648,PM2.5,46,278,87
India,Gujarat,Ahmedabad,"Chandkheda, Ahmedabad - IITM",13-05-2024 00:00:00,23.107969,72.574648,NH3,1,1,1
India,Gujarat,Ahmedabad,"Chandkheda, Ahmedabad - IITM",13-05-2024 00:00:00,23.107969,72.574648,OZONE,37,55,54
India,Gujarat,Ahmedabad,"Gyaspur, Ahmedabad - IITM",13-05-2024 00:00:00,22.977134,72.553024,NO2,42,52,47
India,Gujarat,Ahmedabad,"Gyaspur, Ahmedabad - IITM",13-05-2024 00:00:00,22.977134,72.553024,SO2,6,61,38
India,Gujarat,Ahmedabad,"Gyaspur, Ahmedabad - IITM",13-05-2024 00:00:00,22.977134,72.553024,OZONE,13,169,72
India,Gujarat,Ahmedabad,"Maninagar, Ahmedabad - GPCB",13-05-2024 00:00:00,23.002657,72.591912,NO2,34,68,43
India,Gujarat,Ahmedabad,"Maninagar, Ahmedabad - GPCB",13-05-2024 00:00:00,23.002657,72.591912,CO,74,105,98
India,Gujarat,Ahmedabad,"Maninagar, Ahmedabad - GPCB",13-05-2024 00:00:00,23.002657,72.591912,OZONE,18,247,95
India,Gujarat,Ahmedabad,"Raikhad, Ahmedabad - IITM",13-05-2024 00:00:00,23.020509,72.579261,CO,15,51,46
India,Gujarat,Ahmedabad,"Rakhial, Ahmedabad - IITM",13-05-2024 00:00:00,23.016834,72.625775,OZONE,11,167,57
India,Gujarat,Ahmedabad,"SVPI Airport Hansol, Ahmedabad - IITM",13-05-2024 00:00:00,23.076793,72.627874,SO2,4,11,6
India,Gujarat,Ahmedabad,"Sardar Vallabhbhai Patel Stadium, Ahmedabad - IITM",13-05-2024 00:00:00,23.043070,72.562968,PM2.5,51,146,83
India,Gujarat,Ahmedabad,"Sardar Vallabhbhai Patel Stadium, Ahmedabad - IITM",13-05-2024 00:00:00,23.043070,72.562968,NH3,6,6,6
India,Gujarat,Gandhinagar,"Sector-10, Gandhinagar - GPCB",13-05-2024 00:00:00,23.221714,72.654328,PM2.5,27,64,42
India,Gujarat,Gandhinagar,"Sector-10, Gandhinagar - GPCB",13-05-2024 00:00:00,23.221714,72.654328,NO2,20,23,21
India,Gujarat,Gandhinagar,"Sector-10, Gandhinagar - GPCB",13-05-2024 00:00:00,23.221714,72.654328,OZONE,20,79,45
India,Gujarat,Nandesari,"GIDC, Nandesari - Nandesari Ind. Association",13-05-2024 00:00:00,22.410802,73.097923,PM2.5,55,286,137
India,Gujarat,Surat,"Science Center, Surat - SMC",13-05-2024 00:00:00,21.170046,72.795405,PM2.5,1,16,7
India,Gujarat,Surat,"Science Center, Surat - SMC",13-05-2024 00:00:00,21.170046,72.795405,SO2,1,2,1
India,Gujarat,Vatva,"Phase-4 GIDC, Vatva - GPCB",13-05-2024 00:00:00,22.969611,72.643500,PM2.5,12,48,24
India,Gujarat,Vatva,"Phase-4 GIDC, Vatva - GPCB",13-05-2024 00:00:00,22.969611,72.643500,PM10,56,107,77
India,Gujarat,Vatva,"Phase-4 GIDC, Vatva - GPCB",13-05-2024 00:00:00,22.969611,72.643500,NO2,14,83,32
India,Gujarat,Vatva,"Phase-4 GIDC, Vatva - GPCB",13-05-2024 00:00:00,22.969611,72.643500,NH3,6,10,8
India,Haryana,Bahadurgarh,"Arya Nagar, Bahadurgarh - HSPCB",13-05-2024 00:00:00,28.6701,76.9254,NO2,20,26,23
India,Haryana,Ballabgarh,"Nathu Colony, Ballabgarh - HSPCB",13-05-2024 00:00:00,28.3419248,77.319699,PM2.5,81,205,145
India,Haryana,Ballabgarh,"Nathu Colony, Ballabgarh - HSPCB",13-05-2024 00:00:00,28.3419248,77.319699,OZONE,13,46,33
India,Haryana,Charkhi Dadri,"Mini Secretariat, Charkhi Dadri - HSPCB",13-05-2024 00:00:00,28.593883,76.270653,NH3,6,8,7
India,Haryana,Dharuhera,"Municipal Corporation Office, Dharuhera -  HSPCB",13-05-2024 00:00:00,28.206800,76.799700,PM2.5,95,308,202
India,Haryana,Dharuhera,"Municipal Corporation Office, Dharuhera -  HSPCB",13-05-2024 00:00:00,28.206800,76.799700,OZONE,20,78,55
India,Haryana,Faridabad,"Sector 11, Faridabad - HSPCB",13-05-2024 00:00:00,28.376058,77.315741,PM2.5,134,365,264
India,Haryana,Faridabad,"Sector- 16A, Faridabad - HSPCB",13-05-2024 00:00:00,28.4088421,77.3099081,CO,2,48,47
India,Haryana,Fatehabad,"Huda Sector, Fatehabad - HSPCB",13-05-2024 00:00:00,29.503664,75.467934,PM10,72,245,97
India,Haryana,Fatehabad,"Huda Sector, Fatehabad - HSPCB",13-05-2024 00:00:00,29.503664,75.467934,NO2,29,39,31
India,Haryana,Gurugram,"Sector-51, Gurugram - HSPCB",13-05-2024 00:00:00,28.4227,77.0667,NO2,13,29,23
India,Haryana,Gurugram,"Sector-51, Gurugram - HSPCB",13-05-2024 00:00:00,28.4227,77.0667,OZONE,27,67,56
India,Haryana,Gurugram,"Teri Gram, Gurugram - HSPCB",13-05-2024 00:00:00,28.4275,77.1465,NH3,23,42,29
India,Haryana,Gurugram,"Teri Gram, Gurugram - HSPCB",13-05-2024 00:00:00,28.4275,77.1465,CO,11,44,36
India,Haryana,Hisar,"Urban Estate-II, Hisar - HSPCB",13-05-2024 00:00:00,29.140560,75.744941,PM10,70,117,95
India,Haryana,Hisar,"Urban Estate-II, Hisar - HSPCB",13-05-2024 00:00:00,29.140560,75.744941,NH3,9,11,10
India,Haryana,Hisar,"Urban Estate-II, Hisar - HSPCB",13-05-2024 00:00:00,29.140560,75.744941,SO2,4,29,14
India,Haryana,Jind,"Police Lines, Jind - HSPCB",13-05-2024 00:00:00,29.307814,76.337619,SO2,5,39,13
India,Haryana,Kaithal,"Rishi Nagar, Kaithal - HSPCB",13-05-2024 00:00:00,29.8006,76.4155,NO2,23,26,25
India,Haryana,Kaithal,"Rishi Nagar, Kaithal - HSPCB",13-05-2024 00:00:00,29.8006,76.4155,CO,10,40,15
India,Haryana,Karnal,"Sector-12, Karnal - HSPCB",13-05-2024 00:00:00,29.695300,77.002700,NH3,10,13,11
India,Haryana,Kurukshetra,"Sector-7, Kurukshetra - HSPCB",13-05-2024 00:00:00,29.966942,76.875879,NO2,9,9,9
India,Haryana,Kurukshetra,"Sector-7, Kurukshetra - HSPCB",13-05-2024 00:00:00,29.966942,76.875879,SO2,2,3,2
India,Haryana,Kurukshetra,"Sector-7, Kurukshetra - HSPCB",13-05-2024 00:00:00,29.966942,76.875879,CO,1,38,21
India,Haryana,Mandikhera,"General Hospital, Mandikhera - HSPCB",13-05-2024 00:00:00,27.9002,76.9938,PM10,63,209,110
India,Haryana,Manesar,"Sector-2 IMT, Manesar - HSPCB",13-05-2024 00:00:00,28.360699,76.936090,CO,6,32,19
India,Haryana,Manesar,"Sector-2 IMT, Manesar - HSPCB",13-05-2024 00:00:00,28.360699,76.936090,OZONE,7,140,88
India,Haryana,Narnaul,"Shastri Nagar, Narnaul - HSPCB",13-05-2024 00:00:00,28.060249,76.113115,PM10,NA,NA,NA
India,Haryana,Narnaul,"Shastri Nagar, Narnaul - HSPCB",13-05-2024 00:00:00,28.060249,76.113115,CO,20,36,27
India,Haryana,Palwal,"Shyam Nagar, Palwal - HSPCB",13-05-2024 00:00:00,28.1485564,77.3320667,NO2,23,24,24
India,Haryana,Palwal,"Shyam Nagar, Palwal - HSPCB",13-05-2024 00:00:00,28.1485564,77.3320667,NH3,8,9,9
India,Haryana,Palwal,"Shyam Nagar, Palwal - HSPCB",13-05-2024 00:00:00,28.1485564,77.3320667,CO,20,38,29
India,Haryana,Rohtak,"MD University, Rohtak - HSPCB",13-05-2024 00:00:00,28.52123,76.37138,PM2.5,1,174,88
India,Haryana,Sirsa,"F-Block, Sirsa - HSPCB",13-05-2024 00:00:00,29.536400,75.015800,PM2.5,38,93,66
India,Haryana,Sirsa,"F-Block, Sirsa - HSPCB",13-05-2024 00:00:00,29.536400,75.015800,SO2,6,16,12
India,Haryana,Sirsa,"F-Block, Sirsa - HSPCB",13-05-2024 00:00:00,29.536400,75.015800,OZONE,51,89,78
India,Haryana,Sonipat,"Murthal, Sonipat - HSPCB",13-05-2024 00:00:00,29.027200,77.062100,PM2.5,33,34,34
India,Haryana,Sonipat,"Murthal, Sonipat - HSPCB",13-05-2024 00:00:00,29.027200,77.062100,PM10,86,88,87
India,Haryana,Sonipat,"Murthal, Sonipat - HSPCB",13-05-2024 00:00:00,29.027200,77.062100,OZONE,16,36,25
India,Haryana,Yamuna Nagar,"Gobind Pura, Yamuna Nagar - HSPCB",13-05-2024 00:00:00,30.1480566,77.2893471,NH3,1,6,4
India,Haryana,Yamuna Nagar,"Gobind Pura, Yamuna Nagar - HSPCB",13-05-2024 00:00:00,30.1480566,77.2893471,OZONE,45,74,60
India,Himachal Pradesh,Baddi,"HIMUDA Complex Phase-1, Baddi - HPPCB",13-05-2024 00:00:00,30.943887,76.801991,NO2,8,47,19
India,Himachal Pradesh,Baddi,"HIMUDA Complex Phase-1, Baddi - HPPCB",13-05-2024 00:00:00,30.943887,76.801991,CO,24,40,33
India,Jammu_and_Kashmir,Srinagar,"Rajbagh, Srinagar - JKSPCB",13-05-2024 00:00:00,34.066206,74.819820,OZONE,12,19,16
India,Jharkhand,Dhanbad,"Sardar Patel Nagar, Dhanbad - JSPCB",13-05-2024 00:00:00,23.80569,86.44268,PM2.5,1,296,63
India,Jharkhand,Dhanbad,"Sardar Patel Nagar, Dhanbad - JSPCB",13-05-2024 00:00:00,23.80569,86.44268,PM10,52,116,79
India,Jharkhand,Dhanbad,"Sardar Patel Nagar, Dhanbad - JSPCB",13-05-2024 00:00:00,23.80569,86.44268,SO2,NA,NA,NA
India,Karnataka,Bagalkot,"Vidayagiri, Bagalkot - KSPCB",13-05-2024 00:00:00,16.172806,75.659694,PM10,45,46,46
India,Karnataka,Bagalkot,"Vidayagiri, Bagalkot - KSPCB",13-05-2024 00:00:00,16.172806,75.659694,NH3,1,2,1
India,Karnataka,Bagalkot,"Vidayagiri, Bagalkot - KSPCB",13-05-2024 00:00:00,16.172806,75.659694,CO,20,62,39
India,Karnataka,Bengaluru,"Bapuji Nagar, Bengaluru - KSPCB",13-05-2024 00:00:00,12.951913,77.539784,NH3,1,1,1
India,Karnataka,Bengaluru,"Bapuji Nagar, Bengaluru - KSPCB",13-05-2024 00:00:00,12.951913,77.539784,SO2,4,8,6
India,Karnataka,Bengaluru,"Bapuji Nagar, Bengaluru - KSPCB",13-05-2024 00:00:00,12.951913,77.539784,OZONE,23,30,27
India,Karnataka,Bengaluru,"Hebbal, Bengaluru - KSPCB",13-05-2024 00:00:00,13.029152,77.585901,SO2,20,26,23
India,Karnataka,Bengaluru,"Hombegowda Nagar, Bengaluru - KSPCB",13-05-2024 00:00:00,12.938539,77.590100,NO2,11,42,20
India,Karnataka,Bengaluru,"Hombegowda Nagar, Bengaluru - KSPCB",13-05-2024 00:00:00,12.938539,77.590100,NH3,2,2,2
India,Karnataka,Bengaluru,"Hombegowda Nagar, Bengaluru - KSPCB",13-05-2024 00:00:00,12.938539,77.590100,SO2,2,5,4
India,Karnataka,Bengaluru,"Jayanagar 5th Block, Bengaluru - KSPCB",13-05-2024 00:00:00,12.920984,77.584908,NO2,12,26,16
India,Karnataka,Bengaluru,"Peenya, Bengaluru - CPCB",13-05-2024 00:00:00,13.0270199,77.494094,PM10,42,80,55
India,Karnataka,Bengaluru,"Sanegurava Halli, Bengaluru - KSPCB",13-05-2024 00:00:00,12.990328,77.5431385,SO2,NA,NA,NA
India,Karnataka,Bengaluru,"Shivapura_Peenya, Bengaluru - KSPCB",13-05-2024 00:00:00,13.0246342,77.5080115,CO,24,50,33
India,Karnataka,Bidar,"Naubad, Bidar - KSPCB",13-05-2024 00:00:00,17.930306,77.482194,OZONE,18,46,29
India,Karnataka,Chamarajanagar,"Urban, Chamarajanagar - KSPCB",13-05-2024 00:00:00,11.55358,76.55521,OZONE,14,36,24
India,Karnataka,Chikkaballapur,"Chikkaballapur Rural, Chikkaballapur - KSPCB",13-05-2024 00:00:00,13.428828,77.731418,CO,14,24,19
India,Karnataka,Chikkamagaluru,"Kalyana Nagara, Chikkamagaluru - KSPCB",13-05-2024 00:00:00,13.328028,75.797056,PM2.5,NA,NA,NA
India,Karnataka,Chikkamagaluru,"Kalyana Nagara, Chikkamagaluru - KSPCB",13-05-2024 00:00:00,13.328028,75.797056,NO2,NA,NA,NA
India,Karnataka,Chikkamagaluru,"Kalyana Nagara, Chikkamagaluru - KSPCB",13-05-2024 00:00:00,13.328028,75.797056,CO,11,101,22
India,Karnataka,Davanagere,"Devaraj Urs Badavane, Davanagere - KSPCB",13-05-2024 00:00:00,14.475800,75.905200,NH3,1,2,1
India,Karnataka,Dharwad,"Kalabhavan, Dharwad - KSPCB",13-05-2024 00:00:00,15.459706,75.008381,PM10,NA,NA,NA
India,Karnataka,Dharwad,"Kalabhavan, Dharwad - KSPCB",13-05-2024 00:00:00,15.459706,75.008381,SO2,NA,NA,NA
India,Karnataka,Gadag,"Panchal Nagar, Gadag - KSPCB",13-05-2024 00:00:00,15.411456,75.638133,PM2.5,3,27,12
India,Karnataka,Gadag,"Panchal Nagar, Gadag - KSPCB",13-05-2024 00:00:00,15.411456,75.638133,NH3,1,4,2
India,Karnataka,Gadag,"Panchal Nagar, Gadag - KSPCB",13-05-2024 00:00:00,15.411456,75.638133,SO2,3,19,13
India,Karnataka,Hassan,"B.Katihalli, Hassan - KSPCB",13-05-2024 00:00:00,13.008556,76.125258,SO2,2,45,20
India,Karnataka,Hubballi,"Lingaraj Nagar, Hubballi - KSPCB",13-05-2024 00:00:00,15.3714823,75.1160168,NH3,2,2,2
India,Karnataka,Kalaburagi,"Lal Bahadur Shastri Nagar, Kalaburagi - KSPCB",13-05-2024 00:00:00,17.321993,76.822628,NH3,NA,NA,NA
India,Karnataka,Kalaburagi,"Mahatma Basaveswar Colony, Kalaburgi - KSPCB",13-05-2024 00:00:00,17.336318,76.847397,SO2,1,38,5
India,Karnataka,Karwar,"KHB Colony, Karwar - KSPCB",13-05-2024 00:00:00,14.816666,74.141003,NH3,1,5,2
India,Karnataka,Karwar,"KHB Colony, Karwar - KSPCB",13-05-2024 00:00:00,14.816666,74.141003,OZONE,21,22,21
India,Karnataka,Kolar,"Tamaka Ind. Area, Kolar - KSPCB",13-05-2024 00:00:00,13.1276288,78.1570122,SO2,NA,NA,NA
India,Karnataka,Madikeri,"Stuart Hill, Madikeri - KSPCB",13-05-2024 00:00:00,12.415911,75.735050,PM2.5,14,42,31
India,Karnataka,Madikeri,"Stuart Hill, Madikeri - KSPCB",13-05-2024 00:00:00,12.415911,75.735050,NO2,3,22,8
India,Karnataka,Mysuru,"Hebbal 1st Stage, Mysuru - KSPCB",13-05-2024 00:00:00,12.21041,76.37376,NO2,9,35,20
India,Karnataka,Ramanagara,"Vijay Nagar, Ramanagara - KSPCB",13-05-2024 00:00:00,12.733409,77.298051,PM2.5,21,63,41
India,Karnataka,Shivamogga,"Vinoba Nagara, Shivamogga - KSPCB",13-05-2024 00:00:00,13.940000,75.555917,NO2,10,16,13
India,Karnataka,Shivamogga,"Vinoba Nagara, Shivamogga - KSPCB",13-05-2024 00:00:00,13.940000,75.555917,NH3,2,4,3
India,Karnataka,Shivamogga,"Vinoba Nagara, Shivamogga - KSPCB",13-05-2024 00:00:00,13.940000,75.555917,CO,14,48,37
India,Karnataka,Udupi,"Brahmagiri, Udupi - KSPCB",13-05-2024 00:00:00,13.34194444,74.74694444,NH3,1,1,1
India,Karnataka,Vijayapura,"Ibrahimpur, Vijayapura - KSPCB",13-05-2024 00:00:00,16.802639,75.722694,CO,90,90,90
India,Kerala,Eloor,"Udyogamandal, Eloor - Kerala PCB",13-05-2024 00:00:00,10.073232,76.302765,PM10,31,46,37
India,Kerala,Eloor,"Udyogamandal, Eloor - Kerala PCB",13-05-2024 00:00:00,10.073232,76.302765,NO2,4,4,4
India,Kerala,Kannur,"Thavakkara, Kannur - Kerala PCB",13-05-2024 00:00:00,11.875000,75.373200,PM2.5,63,74,69
India,Kerala,Kannur,"Thavakkara, Kannur - Kerala PCB",13-05-2024 00:00:00,11.875000,75.373200,PM10,65,77,71
India,Kerala,Thrissur,"Corporation Ground, Thrissur - Kerala PCB",13-05-2024 00:00:00,10.532400,76.215900,NH3,NA,NA,NA
India,Madhya Pradesh,Bhopal,"Idgah Hills, Bhopal - MPPCB",13-05-2024 00:00:00,23.264759,77.381568,CO,12,51,26
India,Madhya Pradesh,Bhopal,"Paryavaran Parisar, Bhopal - MPPCB",13-05-2024 00:00:00,23.210494,77.425409,OZONE,4,124,83
India,Madhya Pradesh,Bhopal,"T T Nagar, Bhopal - MPPCB",13-05-2024 00:00:00,23.233584,77.400574,CO,16,78,47
India,Madhya Pradesh,Dewas,"Bhopal Chauraha, Dewas - MPPCB",13-05-2024 00:00:00,22.9682591,76.064118,NO2,13,15,14
India,Madhya Pradesh,Dewas,"Bhopal Chauraha, Dewas - MPPCB",13-05-2024 00:00:00,22.9682591,76.064118,CO,14,72,31
India,Madhya Pradesh,Gwalior,"City Center, Gwalior - MPPCB",13-05-2024 00:00:00,26.203442,78.193251,PM10,67,176,106
India,Madhya Pradesh,Gwalior,"Deen Dayal Nagar, Gwalior - MPPCB",13-05-2024 00:00:00,26.259242,78.216432,SO2,NA,NA,NA
India,Madhya Pradesh,Gwalior,"Deen Dayal Nagar, Gwalior - MPPCB",13-05-2024 00:00:00,26.259242,78.216432,CO,NA,NA,NA
India,Madhya Pradesh,Gwalior,"Deen Dayal Nagar, Gwalior - MPPCB",13-05-2024 00:00:00,26.259242,78.216432,OZONE,NA,NA,NA
India,Madhya Pradesh,Gwalior,"Maharaj Bada, Gwalior - MPPCB",13-05-2024 00:00:00,26.200388,78.147714,NO2,15,162,45
India,Madhya Pradesh,Gwalior,"Maharaj Bada, Gwalior - MPPCB",13-05-2024 00:00:00,26.200388,78.147714,SO2,NA,NA,NA
India,Madhya Pradesh,Gwalior,"Phool Bagh, Gwalior - Mondelez Ind. Food",13-05-2024 00:00:00,26.210536,78.171,PM2.5,25,310,187
India,Madhya Pradesh,Indore,"Maguda Nagar, Indore - IMC",13-05-2024 00:00:00,22.7524,75.8872,PM2.5,NA,NA,NA
India,Madhya Pradesh,Indore,"Maguda Nagar, Indore - IMC",13-05-2024 00:00:00,22.7524,75.8872,NH3,1,2,2
India,Madhya Pradesh,Indore,"Maguda Nagar, Indore - IMC",13-05-2024 00:00:00,22.7524,75.8872,CO,26,32,27
India,Madhya Pradesh,Indore,"Maguda Nagar, Indore - IMC",13-05-2024 00:00:00,22.7524,75.8872,OZONE,33,43,39
India,Madhya Pradesh,Indore,"Regional Park, Indore - IMC",13-05-2024 00:00:00,22.6780,75.8559,NH3,1,3,2
India,Madhya Pradesh,Indore,"Residency Area, Indore - IMC",13-05-2024 00:00:00,22.7084,75.8815,CO,12,16,13
India,Madhya Pradesh,Jabalpur,"Govindh Bhavan Colony, Jabalpur - JMC",13-05-2024 00:00:00,23.163174,79.973061,NO2,9,26,17
India,Madhya Pradesh,Jabalpur,"Govindh Bhavan Colony, Jabalpur - JMC",13-05-2024 00:00:00,23.163174,79.973061,OZONE,40,302,94
India,Madhya Pradesh,Jabalpur,"Gupteshwar, Jabalpur - JMC",13-05-2024 00:00:00,23.142888,79.916147,NH3,6,7,7
India,Madhya Pradesh,Jabalpur,"Marhatal, Jabalpur - MPPCB",13-05-2024 00:00:00,23.168606,79.932247,NO2,13,53,28
India,Madhya Pradesh,Jabalpur,"Marhatal, Jabalpur - MPPCB",13-05-2024 00:00:00,23.168606,79.932247,NH3,3,6,4
India,Madhya Pradesh,Jabalpur,"Suhagi, Jabalpur - JMC",13-05-2024 00:00:00,23.218135,79.957770,NH3,3,4,4
India,Madhya Pradesh,Jabalpur,"Suhagi, Jabalpur - JMC",13-05-2024 00:00:00,23.218135,79.957770,OZONE,9,158,107
India,Madhya Pradesh,Katni,"Gole Bazar, Katni - MPPCB",13-05-2024 00:00:00,23.50016,80.23284,NO2,29,121,61
India,Madhya Pradesh,Pithampur,"Sector-2 Industrial Area, Pithampur - MPPCB",13-05-2024 00:00:00,22.624758,75.675238,OZONE,30,93,61
India,Madhya Pradesh,Ratlam,"Shasthri Nagar, Ratlam - IPCA Lab",13-05-2024 00:00:00,23.331731,75.045981,PM2.5,4,72,41
India,Madhya Pradesh,Sagar,"Civil Lines, Sagar - MPPCB",13-05-2024 00:00:00,23.838586,78.759431,NO2,8,25,14
India,Madhya Pradesh,Sagar,"Civil Lines, Sagar - MPPCB",13-05-2024 00:00:00,23.838586,78.759431,CO,13,65,20
India,Madhya Pradesh,Satna,"Bandhavgar Colony, Satna - Birla Cement",13-05-2024 00:00:00,24.58434363,80.8549414,PM2.5,NA,NA,NA
India,Madhya Pradesh,Satna,"Bandhavgar Colony, Satna - Birla Cement",13-05-2024 00:00:00,24.58434363,80.8549414,PM10,NA,NA,NA
India,Madhya Pradesh,Ujjain,"Mahakaleshwar Temple, Ujjain - MPPCB",13-05-2024 00:00:00,23.182719 ,75.768218 ,SO2,NA,NA,NA
India,Madhya Pradesh,Ujjain,"Mahakaleshwar Temple, Ujjain - MPPCB",13-05-2024 00:00:00,23.182719 ,75.768218 ,CO,6,28,19
India,Maharashtra,Amravati,"Shivneri Colony, Amravati - MPCB",13-05-2024 00:00:00,20.9402359,77.7895248,OZONE,2,89,51
