country,state,city,station,last_update,latitude,longitude,pollutant_id,pollutant_min,pollutant_max,pollutant_avg
India,Andhra_Pradesh,Amaravati,"Secretariat, Amaravati - APPCB",27-03-2024 19:00:00,16.5150833,80.5181667,NO2,5,10,7
India,Andhra_Pradesh,Chittoor,"Gangineni Cheruvu, Chittoor - APPCB",27-03-2024 19:00:00,13.204880,79.097889,PM2.5,24,134,65
India,Andhra_Pradesh,Kadapa,"Yerramukkapalli, Kadapa - APPCB",27-03-2024 19:00:00,14.465052,78.824187,CO,11,22,16
India,Andhra_Pradesh,Tirupati,"Tirumala, Tirupati - APPCB",27-03-2024 19:00:00,13.67,79.35,SO2,2,15,7
India,Andhra_Pradesh,Tirupati,"Tirumala, Tirupati - APPCB",27-03-2024 19:00:00,13.67,79.35,CO,16,38,27
India,Andhra_Pradesh,Tirupati,"Vaikuntapuram, Tirupati - APPCB",27-03-2024 19:00:00,13.615387,79.409230,NH3,2,4,3
India,Andhra_Pradesh,Tirupati,"Vaikuntapuram, Tirupati - APPCB",27-03-2024 19:00:00,13.615387,79.409230,CO,9,14,12
India,Andhra_Pradesh,Vijayawada,"HB Colony, Vijayawada - APPCB",27-03-2024 19:00:00,16.536107,80.594233,SO2,3,5,4
India,Andhra_Pradesh,Vijayawada,"HB Colony, Vijayawada - APPCB",27-03-2024 19:00:00,16.536107,80.594233,OZONE,6,25,21
India,Andhra_Pradesh,Vijayawada,"Rajiv Gandhi Park, Vijayawada - APPCB",27-03-2024 19:00:00,16.509717,80.612222,PM10,39,63,49
India,Andhra_Pradesh,Visakhapatnam,"GVM Corporation, Visakhapatnam - APPCB",27-03-2024 19:00:00,17.72,83.3,SO2,9,15,12
India,Arunachal_Pradesh,Naharlagun,"Naharlagun, Naharlagun - APSPCB",27-03-2024 19:00:00,27.103358,93.679645,NO2,3,3,3
India,Arunachal_Pradesh,Naharlagun,"Naharlagun, Naharlagun - APSPCB",27-03-2024 19:00:00,27.103358,93.679645,OZONE,2,2,2
India,Assam,Byrnihat,"Central Academy for SFS, Byrnihat - PCBA",27-03-2024 19:00:00,26.071318,91.87488,PM2.5,25,227,80
India,Assam,Byrnihat,"Central Academy for SFS, Byrnihat - PCBA",27-03-2024 19:00:00,26.071318,91.87488,PM10,22,131,60
India,Assam,Byrnihat,"Central Academy for SFS, Byrnihat - PCBA",27-03-2024 19:00:00,26.071318,91.87488,NH3,2,8,5
India,Assam,Guwahati,"IITG, Guwahati - PCBA",27-03-2024 19:00:00,26.2028636,91.70046436,PM10,15,52,33
India,Assam,Guwahati,"IITG, Guwahati - PCBA",27-03-2024 19:00:00,26.2028636,91.70046436,SO2,12,12,12
India,Assam,Guwahati,"Pan Bazaar, Guwahati - PCBA",27-03-2024 19:00:00,26.187500,91.744194,SO2,NA,NA,NA
India,Assam,Guwahati,"Railway Colony, Guwahati - PCBA",27-03-2024 19:00:00,26.181742,91.78063,NO2,3,4,3
India,Assam,Nagaon,"Christianpatty, Nagaon - PCBA",27-03-2024 19:00:00,26.349082,92.68449,PM10,44,86,54
India,Assam,Nalbari,"Bata Chowk, Nalbari - PCBA",27-03-2024 19:00:00,26.446912,91.439057,OZONE,36,71,59
India,Assam,Silchar,"Tarapur, Silchar - PCBA",27-03-2024 19:00:00,24.82827,92.79525,NO2,13,18,17
India,Bihar,Araria,"Kharahiya Basti, Araria - BSPCB",27-03-2024 19:00:00,26.146529,87.454184,PM2.5,13,37,20
India,Bihar,Bettiah,"Kamalnath Nagar, Bettiah - BSPCB",27-03-2024 19:00:00,26.80365,84.51954,PM10,45,205,91
India,Bihar,Bettiah,"Kamalnath Nagar, Bettiah - BSPCB",27-03-2024 19:00:00,26.80365,84.51954,NO2,8,8,8
India,Bihar,Bhagalpur,"DM Office_Kachari Chowk, Bhagalpur - BSPCB",27-03-2024 19:00:00,25.251013,86.989001,CO,32,75,41
India,Bihar,Bhagalpur,"Mayaganj, Bhagalpur - BSPCB",27-03-2024 19:00:00,25.265194,87.012947,NH3,6,8,7
India,Bihar,Bihar Sharif,"D M Colony, Bihar Sharif - BSPCB",27-03-2024 19:00:00,25.204762,85.514960,PM10,36,125,66
India,Bihar,Chhapra,"Darshan Nagar, Chhapra - BSPCB",27-03-2024 19:00:00,25.7808257,84.7446768,NO2,14,26,20
India,Bihar,Chhapra,"Darshan Nagar, Chhapra - BSPCB",27-03-2024 19:00:00,25.7808257,84.7446768,NH3,5,18,12
India,Bihar,Chhapra,"Darshan Nagar, Chhapra - BSPCB",27-03-2024 19:00:00,25.7808257,84.7446768,OZONE,1,11,6
India,Bihar,Gaya,"Collectorate, Gaya - BSPCB",27-03-2024 19:00:00,24.7955,84.9994,PM2.5,32,167,70
India,Bihar,Gaya,"Collectorate, Gaya - BSPCB",27-03-2024 19:00:00,24.7955,84.9994,OZONE,49,81,65
India,Bihar,Gaya,"Kareemganj, Gaya - BSPCB",27-03-2024 19:00:00,24.792403,84.992416,NH3,1,5,3
India,Bihar,Gaya,"SFTI Kusdihra, Gaya - BSPCB",27-03-2024 19:00:00,24.762518,84.982348,PM2.5,20,84,51
India,Bihar,Gaya,"SFTI Kusdihra, Gaya - BSPCB",27-03-2024 19:00:00,24.762518,84.982348,NO2,10,44,27
India,Bihar,Gaya,"SFTI Kusdihra, Gaya - BSPCB",27-03-2024 19:00:00,24.762518,84.982348,NH3,2,7,4
India,Bihar,Motihari,"Gandak Colony, Motihari - BSPCB",27-03-2024 19:00:00,26.63086,84.90051,NH3,7,11,9
India,Bihar,Motihari,"Gandak Colony, Motihari - BSPCB",27-03-2024 19:00:00,26.63086,84.90051,CO,2,53,16
India,Bihar,Muzaffarpur,"Buddha Colony, Muzaffarpur - BSPCB",27-03-2024 19:00:00,26.11442,85.39813,PM2.5,49,139,75
India,Bihar,Muzaffarpur,"Buddha Colony, Muzaffarpur - BSPCB",27-03-2024 19:00:00,26.11442,85.39813,NH3,14,27,18
India,Bihar,Muzaffarpur,"Buddha Colony, Muzaffarpur - BSPCB",27-03-2024 19:00:00,26.11442,85.39813,SO2,7,22,11
India,Bihar,Muzaffarpur,"MIT-Daudpur Kothi, Muzaffarpur - BSPCB",27-03-2024 19:00:00,26.1403345,85.3650192,NO2,5,10,7
India,Bihar,Muzaffarpur,"Muzaffarpur Collectorate, Muzaffarpur - BSPCB",27-03-2024 19:00:00,26.1209,85.3647,SO2,4,13,8
India,Bihar,Patna,"DRM Office Danapur, Patna - BSPCB",27-03-2024 19:00:00,25.586562,85.043586,PM10,81,125,93
India,Bihar,Patna,"DRM Office Danapur, Patna - BSPCB",27-03-2024 19:00:00,25.586562,85.043586,NH3,2,3,3
India,Bihar,Patna,"Govt. High School Shikarpur, Patna - BSPCB",27-03-2024 19:00:00,25.592539,85.227158,PM10,88,162,115
India,Bihar,Patna,"Govt. High School Shikarpur, Patna - BSPCB",27-03-2024 19:00:00,25.592539,85.227158,NH3,5,6,5
India,Bihar,Patna,"Samanpura, Patna - BSPCB",27-03-2024 19:00:00,25.596727,85.085624,PM2.5,51,314,140
India,Bihar,Patna,"Samanpura, Patna - BSPCB",27-03-2024 19:00:00,25.596727,85.085624,PM10,109,430,142
India,Bihar,Patna,"Samanpura, Patna - BSPCB",27-03-2024 19:00:00,25.596727,85.085624,NO2,23,56,33
India,Bihar,Patna,"Samanpura, Patna - BSPCB",27-03-2024 19:00:00,25.596727,85.085624,OZONE,34,53,46
India,Bihar,Purnia,"Mariam Nagar, Purnia - BSPCB",27-03-2024 19:00:00,25.366336,87.117468,NO2,5,7,6
India,Bihar,Purnia,"Mariam Nagar, Purnia - BSPCB",27-03-2024 19:00:00,25.366336,87.117468,NH3,2,2,2
India,Bihar,Rajgir,"Dangi Tola, Rajgir - BSPCB",27-03-2024 19:00:00,25.03280,85.41948,NH3,1,4,1
India,Bihar,Rajgir,"Dangi Tola, Rajgir - BSPCB",27-03-2024 19:00:00,25.03280,85.41948,SO2,4,4,4
India,Bihar,Saharsa,"Police Line, Saharsa - BSPCB",27-03-2024 19:00:00,25.892357,86.590325,OZONE,8,86,37
India,Bihar,Samastipur,"DM Office_Kasipur, Samastipur - BSPCB",27-03-2024 19:00:00,25.859655,85.77944,PM2.5,22,85,48
India,Bihar,Samastipur,"DM Office_Kasipur, Samastipur - BSPCB",27-03-2024 19:00:00,25.859655,85.77944,PM10,19,119,56
India,Bihar,Samastipur,"DM Office_Kasipur, Samastipur - BSPCB",27-03-2024 19:00:00,25.859655,85.77944,NH3,1,4,3
India,Bihar,Sasaram,"Dada Peer, Sasaram - BSPCB",27-03-2024 19:00:00,24.952822,84.002396,NO2,7,25,16
India,Bihar,Siwan,"Chitragupta Nagar, Siwan - BSPCB",27-03-2024 19:00:00,26.2271665,84.3570427,PM2.5,42,233,120
India,Bihar,Siwan,"Chitragupta Nagar, Siwan - BSPCB",27-03-2024 19:00:00,26.2271665,84.3570427,NO2,7,50,18
India,Chandigarh,Chandigarh,"Sector 22, Chandigarh - CPCC",27-03-2024 19:00:00,30.735567,76.775714,NH3,8,12,10
India,Chandigarh,Chandigarh,"Sector 22, Chandigarh - CPCC",27-03-2024 19:00:00,30.735567,76.775714,SO2,9,22,16
India,Chandigarh,Chandigarh,"Sector-25, Chandigarh - CPCC",27-03-2024 19:00:00,30.751462,76.762879,PM10,122,147,134
India,Chandigarh,Chandigarh,"Sector-53, Chandigarh - CPCC",27-03-2024 19:00:00,30.719859,76.738637,OZONE,21,56,45
India,Chhattisgarh,Bhilai,"32Bungalows, Bhilai - CECB",27-03-2024 19:00:00,21.194815,81.314770,OZONE,4,46,25
India,Chhattisgarh,Bhilai,"Civic Center, Bhilai - Bhilai Steel Plant",27-03-2024 19:00:00,21.185571,81.343175,PM10,41,112,70
India,Chhattisgarh,Bhilai,"Hathkhoj, Bhilai - CECB",27-03-2024 19:00:00,21.224231,81.408350,NH3,7,8,8
India,Chhattisgarh,Bilaspur,"Mangala, Bilaspur - NTPC",27-03-2024 19:00:00,22.08815,82.13737,PM2.5,42,82,57
India,Chhattisgarh,Chhal,"Nawapara SECL Colony, Chhal - CECB",27-03-2024 19:00:00,22.118125,83.140608,NO2,22,72,33
India,Chhattisgarh,Korba,"Rampur, Korba - CECB",27-03-2024 19:00:00,22.368195,82.746431,SO2,7,17,9
India,Chhattisgarh,Korba,"Urja Nagar, Korba - CECB",27-03-2024 19:00:00,22.348441,82.549611,OZONE,1,83,35
India,Chhattisgarh,Kunjemura,"OP Jindal School, Kunjemura - CECB",27-03-2024 19:00:00,22.126650,83.483212,SO2,2,30,11
India,Chhattisgarh,Kunjemura,"OP Jindal School, Kunjemura - CECB",27-03-2024 19:00:00,22.126650,83.483212,OZONE,4,105,84
India,Chhattisgarh,Milupara,"Govt. Higher Secondary School, Milupara - CECB",27-03-2024 19:00:00,22.1910172,83.5197009,PM2.5,40,64,50
India,Chhattisgarh,Raipur,"AIIMS, Raipur - CECB",27-03-2024 19:00:00,21.258815,81.578979,PM2.5,35,96,57
India,Chhattisgarh,Raipur,"Bhatagaon New ISBT, Raipur - CECB",27-03-2024 19:00:00,21.219665,81.630094,PM10,39,117,75
India,Chhattisgarh,Tumidih,"OP Jindal Industrial Park, Tumidih - CECB",27-03-2024 19:00:00,22.06631475,83.33820077,PM2.5,35,138,71
India,Chhattisgarh,Tumidih,"OP Jindal Industrial Park, Tumidih - CECB",27-03-2024 19:00:00,22.06631475,83.33820077,PM10,54,230,102
India,Delhi,Delhi,"Anand Vihar, Delhi - DPCC",27-03-2024 19:00:00,28.647622,77.3158090,PM10,NA,NA,NA
India,Delhi,Delhi,"Anand Vihar, Delhi - DPCC",27-03-2024 19:00:00,28.647622,77.3158090,NH3,NA,NA,NA
India,Delhi,Delhi,"Ashok Vihar, Delhi - DPCC",27-03-2024 19:00:00,28.695381,77.181665,PM2.5,32,307,116
India,Delhi,Delhi,"Aya Nagar, Delhi - IMD",27-03-2024 19:00:00,28.4706914,77.1099364,PM10,92,177,138
India,Delhi,Delhi,"Burari Crossing, Delhi - IMD",27-03-2024 19:00:00,28.7256504,77.2011573,PM2.5,38,266,107
India,Delhi,Delhi,"Burari Crossing, Delhi - IMD",27-03-2024 19:00:00,28.7256504,77.2011573,NO2,2,9,7
India,Delhi,Delhi,"Burari Crossing, Delhi - IMD",27-03-2024 19:00:00,28.7256504,77.2011573,OZONE,23,49,41
India,Delhi,Delhi,"CRRI Mathura Road, Delhi - IMD",27-03-2024 19:00:00,28.5512005,77.2735737,PM10,70,136,108
India,Delhi,Delhi,"CRRI Mathura Road, Delhi - IMD",27-03-2024 19:00:00,28.5512005,77.2735737,CO,34,106,46
India,Delhi,Delhi,"CRRI Mathura Road, Delhi - IMD",27-03-2024 19:00:00,28.5512005,77.2735737,OZONE,2,73,35
India,Delhi,Delhi,"Chandni Chowk, Delhi - IITM",27-03-2024 19:00:00,28.656756,77.227234,PM2.5,NA,NA,NA
India,Delhi,Delhi,"DTU, Delhi - CPCB",27-03-2024 19:00:00,28.7500499,77.1112615,PM2.5,49,316,174
India,Delhi,Delhi,"Dr. Karni Singh Shooting Range, Delhi - DPCC",27-03-2024 19:00:00,28.498571,77.264840,NO2,30,142,86
India,Delhi,Delhi,"Dr. Karni Singh Shooting Range, Delhi - DPCC",27-03-2024 19:00:00,28.498571,77.264840,CO,26,101,36
India,Delhi,Delhi,"Dwarka-Sector 8, Delhi - DPCC ",27-03-2024 19:00:00,28.5710274,77.0719006,PM2.5,55,328,186
India,Delhi,Delhi,"IGI Airport (T3), Delhi - IMD",27-03-2024 19:00:00,28.5627763,77.1180053,NO2,8,67,38
India,Delhi,Delhi,"IHBAS, Dilshad Garden, Delhi - CPCB",27-03-2024 19:00:00,28.6811736,77.3025234,PM2.5,62,304,194
India,Delhi,Delhi,"IHBAS, Dilshad Garden, Delhi - CPCB",27-03-2024 19:00:00,28.6811736,77.3025234,NO2,12,92,27
India,Delhi,Delhi,"IHBAS, Dilshad Garden, Delhi - CPCB",27-03-2024 19:00:00,28.6811736,77.3025234,CO,27,103,68
India,Delhi,Delhi,"ITO, Delhi - CPCB",27-03-2024 19:00:00,28.628624,77.241060,SO2,5,30,19
India,Delhi,Delhi,"ITO, Delhi - CPCB",27-03-2024 19:00:00,28.628624,77.241060,OZONE,17,94,52
India,Delhi,Delhi,"Jahangirpuri, Delhi - DPCC",27-03-2024 19:00:00,28.732820,77.170633,NO2,30,125,80
India,Delhi,Delhi,"Jawaharlal Nehru Stadium, Delhi - DPCC",27-03-2024 19:00:00,28.580280,77.233829,CO,30,115,39
India,Delhi,Delhi,"Lodhi Road, Delhi - IITM",27-03-2024 19:00:00,28.588333,77.221667,NO2,65,123,94
India,Delhi,Delhi,"Lodhi Road, Delhi - IITM",27-03-2024 19:00:00,28.588333,77.221667,NH3,8,13,10
India,Delhi,Delhi,"Lodhi Road, Delhi - IITM",27-03-2024 19:00:00,28.588333,77.221667,CO,58,67,60
India,Delhi,Delhi,"Lodhi Road, Delhi - IITM",27-03-2024 19:00:00,28.588333,77.221667,OZONE,15,23,21
India,Delhi,Delhi,"Lodhi Road, Delhi - IMD",27-03-2024 19:00:00,28.5918245,77.2273074,PM10,74,155,115
India,Delhi,Delhi,"Mundka, Delhi - DPCC",27-03-2024 19:00:00,28.684678,77.076574,NH3,4,7,5
India,Delhi,Delhi,"Mundka, Delhi - DPCC",27-03-2024 19:00:00,28.684678,77.076574,CO,28,78,35
India,Delhi,Delhi,"NSIT Dwarka, Delhi - CPCB",27-03-2024 19:00:00,28.60909,77.0325413,PM2.5,92,353,261
India,Delhi,Delhi,"NSIT Dwarka, Delhi - CPCB",27-03-2024 19:00:00,28.60909,77.0325413,CO,27,84,39
India,Delhi,Delhi,"Najafgarh, Delhi - DPCC",27-03-2024 19:00:00,28.570173,76.933762,PM2.5,23,378,132
India,Delhi,Delhi,"Najafgarh, Delhi - DPCC",27-03-2024 19:00:00,28.570173,76.933762,CO,18,99,22
India,Delhi,Delhi,"Najafgarh, Delhi - DPCC",27-03-2024 19:00:00,28.570173,76.933762,OZONE,7,110,98
India,Delhi,Delhi,"Nehru Nagar, Delhi - DPCC",27-03-2024 19:00:00,28.567890,77.250515,PM2.5,35,258,113
India,Delhi,Delhi,"Nehru Nagar, Delhi - DPCC",27-03-2024 19:00:00,28.567890,77.250515,NH3,6,15,11
India,Delhi,Delhi,"New Moti Bagh, Delhi - MHUA",27-03-2024 19:00:00,28.57834,77.18400,PM2.5,37,321,143
India,Delhi,Delhi,"Okhla Phase-2, Delhi - DPCC",27-03-2024 19:00:00,28.530785,77.271255,SO2,3,21,11
India,Delhi,Delhi,"Okhla Phase-2, Delhi - DPCC",27-03-2024 19:00:00,28.530785,77.271255,CO,53,123,60
India,Delhi,Delhi,"Patparganj, Delhi - DPCC",27-03-2024 19:00:00,28.623763,77.287209,SO2,17,19,18
India,Delhi,Delhi,"Pusa, Delhi - DPCC",27-03-2024 19:00:00,28.639652,77.146275,PM2.5,32,270,110
India,Delhi,Delhi,"Pusa, Delhi - DPCC",27-03-2024 19:00:00,28.639652,77.146275,SO2,9,37,21
India,Delhi,Delhi,"Pusa, Delhi - IMD",27-03-2024 19:00:00,28.636110,77.173332,PM2.5,54,332,204
India,Delhi,Delhi,"Rohini, Delhi - DPCC",27-03-2024 19:00:00,28.732528,77.119920,NH3,7,10,9
India,Delhi,Delhi,"Rohini, Delhi - DPCC",27-03-2024 19:00:00,28.732528,77.119920,SO2,9,32,17
India,Delhi,Delhi,"Shadipur, Delhi - CPCB",27-03-2024 19:00:00,28.6514781,77.1473105,NO2,34,48,41
India,Delhi,Delhi,"Shadipur, Delhi - CPCB",27-03-2024 19:00:00,28.6514781,77.1473105,NH3,3,12,8
India,Delhi,Delhi,"Shadipur, Delhi - CPCB",27-03-2024 19:00:00,28.6514781,77.1473105,SO2,2,29,16
India,Delhi,Delhi,"Sirifort, Delhi - CPCB",27-03-2024 19:00:00,28.5504249,77.2159377,NO2,77,96,84
India,Delhi,Delhi,"Sirifort, Delhi - CPCB",27-03-2024 19:00:00,28.5504249,77.2159377,CO,17,102,32
India,Delhi,Delhi,"Sirifort, Delhi - CPCB",27-03-2024 19:00:00,28.5504249,77.2159377,OZONE,2,27,15
India,Delhi,Delhi,"Sonia Vihar, Delhi - DPCC",27-03-2024 19:00:00,28.710508,77.249485,PM10,74,192,147
India,Delhi,Delhi,"Sonia Vihar, Delhi - DPCC",27-03-2024 19:00:00,28.710508,77.249485,SO2,11,29,17
India,Delhi,Delhi,"Vivek Vihar, Delhi - DPCC",27-03-2024 19:00:00,28.672342,77.315260,NO2,37,111,69
India,Delhi,Delhi,"Wazirpur, Delhi - DPCC",27-03-2024 19:00:00,28.699793,77.165453,PM10,101,244,162
India,Gujarat,Ahmedabad,"Chandkheda, Ahmedabad - IITM",27-03-2024 19:00:00,23.107969,72.574648,NH3,1,19,3
India,Gujarat,Ahmedabad,"Chandkheda, Ahmedabad - IITM",27-03-2024 19:00:00,23.107969,72.574648,SO2,1,28,11
India,Gujarat,Ahmedabad,"Gyaspur, Ahmedabad - IITM",27-03-2024 19:00:00,22.977134,72.553024,OZONE,7,37,27
India,Gujarat,Ahmedabad,"Maninagar, Ahmedabad - GPCB",27-03-2024 19:00:00,23.002657,72.591912,CO,31,103,60
India,Gujarat,Ahmedabad,"Raikhad, Ahmedabad - IITM",27-03-2024 19:00:00,23.020509,72.579261,SO2,5,19,10
India,Gujarat,Ahmedabad,"Rakhial, Ahmedabad - IITM",27-03-2024 19:00:00,23.016834,72.625775,NO2,18,149,44
India,Gujarat,Ahmedabad,"SAC ISRO Satellite, Ahmedabad - IITM",27-03-2024 19:00:00,23.023389,72.515201,PM10,106,107,107
India,Gujarat,Ahmedabad,"SAC ISRO Satellite, Ahmedabad - IITM",27-03-2024 19:00:00,23.023389,72.515201,OZONE,10,24,22
India,Gujarat,Ahmedabad,"SVPI Airport Hansol, Ahmedabad - IITM",27-03-2024 19:00:00,23.076793,72.627874,NH3,NA,NA,NA
India,Gujarat,Ahmedabad,"SVPI Airport Hansol, Ahmedabad - IITM",27-03-2024 19:00:00,23.076793,72.627874,SO2,NA,NA,NA
India,Gujarat,Ahmedabad,"SVPI Airport Hansol, Ahmedabad - IITM",27-03-2024 19:00:00,23.076793,72.627874,CO,32,36,34
India,Gujarat,Ankleshwar,"GIDC, Ankleshwar - GPCB",27-03-2024 19:00:00,21.613267,73.010555,PM10,54,82,68
India,Gujarat,Ankleshwar,"GIDC, Ankleshwar - GPCB",27-03-2024 19:00:00,21.613267,73.010555,NH3,6,7,7
India,Gujarat,Ankleshwar,"GIDC, Ankleshwar - GPCB",27-03-2024 19:00:00,21.613267,73.010555,CO,18,102,41
India,Gujarat,Gandhinagar,"IIPHG Lekawada, Gandhinagar - IITM",27-03-2024 19:00:00,23.243639,72.68994,NO2,37,50,42
India,Gujarat,Gandhinagar,"IIPHG Lekawada, Gandhinagar - IITM",27-03-2024 19:00:00,23.243639,72.68994,NH3,6,7,7
India,Gujarat,Gandhinagar,"Sector-10, Gandhinagar - GPCB",27-03-2024 19:00:00,23.221714,72.654328,SO2,4,7,6
India,Gujarat,Gandhinagar,"Sector-10, Gandhinagar - GPCB",27-03-2024 19:00:00,23.221714,72.654328,OZONE,2,127,12
India,Gujarat,Nandesari,"GIDC, Nandesari - Nandesari Ind. Association",27-03-2024 19:00:00,22.410802,73.097923,NO2,5,98,25
India,Gujarat,Vapi,"Phase-1 GIDC, Vapi - GPCB",27-03-2024 19:00:00,20.362421,72.918013,PM2.5,27,126,65
India,Gujarat,Vatva,"Phase-4 GIDC, Vatva - GPCB",27-03-2024 19:00:00,22.969611,72.643500,PM2.5,56,235,110
India,Gujarat,Vatva,"Phase-4 GIDC, Vatva - GPCB",27-03-2024 19:00:00,22.969611,72.643500,NO2,35,132,76
India,Gujarat,Vatva,"Phase-4 GIDC, Vatva - GPCB",27-03-2024 19:00:00,22.969611,72.643500,NH3,6,13,9
India,Haryana,Ambala,"Patti Mehar, Ambala - HSPCB",27-03-2024 19:00:00,30.379589,76.778328,NH3,5,12,9
India,Haryana,Ambala,"Patti Mehar, Ambala - HSPCB",27-03-2024 19:00:00,30.379589,76.778328,OZONE,23,35,29
India,Haryana,Bahadurgarh,"Arya Nagar, Bahadurgarh - HSPCB",27-03-2024 19:00:00,28.6701,76.9254,NH3,11,12,12
India,Haryana,Bahadurgarh,"Arya Nagar, Bahadurgarh - HSPCB",27-03-2024 19:00:00,28.6701,76.9254,SO2,19,67,40
India,Haryana,Ballabgarh,"Nathu Colony, Ballabgarh - HSPCB",27-03-2024 19:00:00,28.3419248,77.319699,OZONE,6,81,46
India,Haryana,Bhiwani,"H.B. Colony, Bhiwani - HSPCB",27-03-2024 19:00:00,28.806223,76.141105,PM10,59,135,81
India,Haryana,Bhiwani,"H.B. Colony, Bhiwani - HSPCB",27-03-2024 19:00:00,28.806223,76.141105,NO2,3,17,9
India,Haryana,Bhiwani,"H.B. Colony, Bhiwani - HSPCB",27-03-2024 19:00:00,28.806223,76.141105,SO2,1,85,15
India,Haryana,Charkhi Dadri,"Mini Secretariat, Charkhi Dadri - HSPCB",27-03-2024 19:00:00,28.593883,76.270653,SO2,4,69,25
India,Haryana,Dharuhera,"Municipal Corporation Office, Dharuhera -  HSPCB",27-03-2024 19:00:00,28.206800,76.799700,PM2.5,29,241,110
India,Haryana,Faridabad,"New Industrial Town, Faridabad - HSPCB",27-03-2024 19:00:00,28.39072,77.30059,CO,5,46,14
India,Haryana,Faridabad,"Sector 30, Faridabad - HSPCB",27-03-2024 19:00:00,28.4417,77.3217,NO2,29,33,31
India,Haryana,Faridabad,"Sector 30, Faridabad - HSPCB",27-03-2024 19:00:00,28.4417,77.3217,CO,16,110,28
India,Haryana,Faridabad,"Sector- 16A, Faridabad - HSPCB",27-03-2024 19:00:00,28.4088421,77.3099081,NO2,24,76,46
India,Haryana,Faridabad,"Sector- 16A, Faridabad - HSPCB",27-03-2024 19:00:00,28.4088421,77.3099081,OZONE,14,14,14
India,Haryana,Fatehabad,"Huda Sector, Fatehabad - HSPCB",27-03-2024 19:00:00,29.503664,75.467934,NH3,12,18,14
India,Haryana,Gurugram,"Sector-51, Gurugram - HSPCB",27-03-2024 19:00:00,28.4227,77.0667,PM10,99,457,226
India,Haryana,Gurugram,"Sector-51, Gurugram - HSPCB",27-03-2024 19:00:00,28.4227,77.0667,CO,28,104,45
India,Haryana,Gurugram,"Teri Gram, Gurugram - HSPCB",27-03-2024 19:00:00,28.4275,77.1465,PM2.5,40,277,150
India,Haryana,Gurugram,"Vikas Sadan, Gurugram - HSPCB",27-03-2024 19:00:00,28.4501238,77.0263051,NO2,5,25,14
India,Haryana,Gurugram,"Vikas Sadan, Gurugram - HSPCB",27-03-2024 19:00:00,28.4501238,77.0263051,SO2,29,53,40
India,Haryana,Hisar,"Urban Estate-II, Hisar - HSPCB",27-03-2024 19:00:00,29.140560,75.744941,NH3,8,10,9
India,Haryana,Jind,"Police Lines, Jind - HSPCB",27-03-2024 19:00:00,29.307814,76.337619,NH3,1,5,3
India,Haryana,Jind,"Police Lines, Jind - HSPCB",27-03-2024 19:00:00,29.307814,76.337619,OZONE,14,25,23
India,Haryana,Kaithal,"Rishi Nagar, Kaithal - HSPCB",27-03-2024 19:00:00,29.8006,76.4155,PM2.5,41,93,62
India,Haryana,Kaithal,"Rishi Nagar, Kaithal - HSPCB",27-03-2024 19:00:00,29.8006,76.4155,PM10,61,110,86
India,Haryana,Kaithal,"Rishi Nagar, Kaithal - HSPCB",27-03-2024 19:00:00,29.8006,76.4155,SO2,1,41,18
India,Haryana,Karnal,"Sector-12, Karnal - HSPCB",27-03-2024 19:00:00,29.695300,77.002700,NO2,7,12,10
India,Haryana,Kurukshetra,"Sector-7, Kurukshetra - HSPCB",27-03-2024 19:00:00,29.966942,76.875879,CO,7,32,14
India,Haryana,Manesar,"Sector-2 IMT, Manesar - HSPCB",27-03-2024 19:00:00,28.360699,76.936090,NO2,20,26,23
India,Haryana,Narnaul,"Shastri Nagar, Narnaul - HSPCB",27-03-2024 19:00:00,28.060249,76.113115,PM10,34,100,54
India,Haryana,Narnaul,"Shastri Nagar, Narnaul - HSPCB",27-03-2024 19:00:00,28.060249,76.113115,NO2,12,75,35
India,Haryana,Narnaul,"Shastri Nagar, Narnaul - HSPCB",27-03-2024 19:00:00,28.060249,76.113115,NH3,4,24,11
India,Haryana,Narnaul,"Shastri Nagar, Narnaul - HSPCB",27-03-2024 19:00:00,28.060249,76.113115,CO,8,34,10
India,Haryana,Narnaul,"Shastri Nagar, Narnaul - HSPCB",27-03-2024 19:00:00,28.060249,76.113115,OZONE,38,56,50
India,Haryana,Palwal,"Shyam Nagar, Palwal - HSPCB",27-03-2024 19:00:00,28.1485564,77.3320667,NH3,9,9,9
India,Haryana,Palwal,"Shyam Nagar, Palwal - HSPCB",27-03-2024 19:00:00,28.1485564,77.3320667,CO,18,36,25
India,Haryana,Panchkula,"Sector-6, Panchkula - HSPCB ",27-03-2024 19:00:00,30.7057778,76.8531805555555,PM2.5,NA,NA,NA
India,Haryana,Panipat,"Sector-18, Panipat - HSPCB",27-03-2024 19:00:00,29.497973,76.993331,PM2.5,88,93,92
India,Haryana,Panipat,"Sector-18, Panipat - HSPCB",27-03-2024 19:00:00,29.497973,76.993331,NH3,2,3,3
India,Haryana,Panipat,"Sector-18, Panipat - HSPCB",27-03-2024 19:00:00,29.497973,76.993331,OZONE,30,30,30
India,Haryana,Rohtak,"MD University, Rohtak - HSPCB",27-03-2024 19:00:00,28.52123,76.37138,CO,25,52,38
India,Haryana,Sonipat,"Murthal, Sonipat - HSPCB",27-03-2024 19:00:00,29.027200,77.062100,PM2.5,7,45,25
India,Haryana,Sonipat,"Murthal, Sonipat - HSPCB",27-03-2024 19:00:00,29.027200,77.062100,CO,10,30,18
India,Haryana,Sonipat,"Murthal, Sonipat - HSPCB",27-03-2024 19:00:00,29.027200,77.062100,OZONE,17,35,35
India,Himachal Pradesh,Baddi,"HIMUDA Complex Phase-1, Baddi - HPPCB",27-03-2024 19:00:00,30.943887,76.801991,NH3,4,7,6
India,Jharkhand,Dhanbad,"Kalakusuma, Dhanbad - DMC",27-03-2024 19:00:00,23.811548,86.481238,OZONE,35,88,59
India,Jharkhand,Dhanbad,"Sardar Patel Nagar, Dhanbad - JSPCB",27-03-2024 19:00:00,23.80569,86.44268,PM10,NA,NA,NA
India,Jharkhand,Dhanbad,"Sardar Patel Nagar, Dhanbad - JSPCB",27-03-2024 19:00:00,23.80569,86.44268,SO2,NA,NA,NA
India,Karnataka,Bagalkot,"Vidayagiri, Bagalkot - KSPCB",27-03-2024 19:00:00,16.172806,75.659694,NO2,9,11,9
India,Karnataka,Bagalkot,"Vidayagiri, Bagalkot - KSPCB",27-03-2024 19:00:00,16.172806,75.659694,NH3,1,2,1
India,Karnataka,Bengaluru,"Hebbal, Bengaluru - KSPCB",27-03-2024 19:00:00,13.029152,77.585901,PM2.5,NA,NA,NA
India,Karnataka,Bengaluru,"Hombegowda Nagar, Bengaluru - KSPCB",27-03-2024 19:00:00,12.938539,77.590100,PM2.5,33,75,53
India,Karnataka,Bengaluru,"Hombegowda Nagar, Bengaluru - KSPCB",27-03-2024 19:00:00,12.938539,77.590100,NH3,1,2,1
India,Karnataka,Bengaluru,"Hombegowda Nagar, Bengaluru - KSPCB",27-03-2024 19:00:00,12.938539,77.590100,OZONE,4,5,4
India,Karnataka,Bengaluru,"Jayanagar 5th Block, Bengaluru - KSPCB",27-03-2024 19:00:00,12.920984,77.584908,NO2,6,12,10
India,Karnataka,Bengaluru,"Jigani, Bengaluru - KSPCB",27-03-2024 19:00:00,12.7816279,77.6299145,PM10,65,116,96
India,Karnataka,Bengaluru,"Jigani, Bengaluru - KSPCB",27-03-2024 19:00:00,12.7816279,77.6299145,SO2,16,16,16
India,Karnataka,Bengaluru,"Kasturi Nagar, Bengaluru - KSPCB",27-03-2024 19:00:00,13.003872,77.664217,PM10,107,151,131
India,Karnataka,Bengaluru,"Kasturi Nagar, Bengaluru - KSPCB",27-03-2024 19:00:00,13.003872,77.664217,OZONE,14,93,85
India,Karnataka,Bengaluru,"Peenya, Bengaluru - CPCB",27-03-2024 19:00:00,13.0270199,77.494094,PM10,36,77,56
India,Karnataka,Bengaluru,"Peenya, Bengaluru - CPCB",27-03-2024 19:00:00,13.0270199,77.494094,NO2,8,25,14
India,Karnataka,Bengaluru,"RVCE-Mailasandra, Bengaluru - KSPCB",27-03-2024 19:00:00,12.921418,77.502466,OZONE,10,10,10
India,Karnataka,Bengaluru,"Shivapura_Peenya, Bengaluru - KSPCB",27-03-2024 19:00:00,13.0246342,77.5080115,SO2,2,26,11
India,Karnataka,Bidar,"Naubad, Bidar - KSPCB",27-03-2024 19:00:00,17.930306,77.482194,PM2.5,44,99,64
India,Karnataka,Chamarajanagar,"Urban, Chamarajanagar - KSPCB",27-03-2024 19:00:00,11.55358,76.55521,CO,19,32,26
India,Karnataka,Chikkaballapur,"Chikkaballapur Rural, Chikkaballapur - KSPCB",27-03-2024 19:00:00,13.428828,77.731418,SO2,10,15,12
India,Karnataka,Dharwad,"Kalabhavan, Dharwad - KSPCB",27-03-2024 19:00:00,15.459706,75.008381,NH3,2,3,3
India,Karnataka,Gadag,"Panchal Nagar, Gadag - KSPCB",27-03-2024 19:00:00,15.411456,75.638133,PM2.5,28,79,40
India,Karnataka,Gadag,"Panchal Nagar, Gadag - KSPCB",27-03-2024 19:00:00,15.411456,75.638133,PM10,40,60,48
India,Karnataka,Gadag,"Panchal Nagar, Gadag - KSPCB",27-03-2024 19:00:00,15.411456,75.638133,SO2,NA,NA,NA
India,Karnataka,Hassan,"B.Katihalli, Hassan - KSPCB",27-03-2024 19:00:00,13.008556,76.125258,PM2.5,67,90,73
India,Karnataka,Hassan,"B.Katihalli, Hassan - KSPCB",27-03-2024 19:00:00,13.008556,76.125258,PM10,79,105,86
India,Karnataka,Haveri,"Ashwini Nagar, Haveri - KSPCB",27-03-2024 19:00:00,14.791800,75.389600,PM2.5,32,75,51
India,Karnataka,Haveri,"Ashwini Nagar, Haveri - KSPCB",27-03-2024 19:00:00,14.791800,75.389600,PM10,50,106,73
India,Karnataka,Kalaburagi,"Lal Bahadur Shastri Nagar, Kalaburagi - KSPCB",27-03-2024 19:00:00,17.321993,76.822628,PM2.5,24,90,54
India,Karnataka,Kalaburagi,"Lal Bahadur Shastri Nagar, Kalaburagi - KSPCB",27-03-2024 19:00:00,17.321993,76.822628,NH3,2,2,2
India,Karnataka,Kalaburagi,"Lal Bahadur Shastri Nagar, Kalaburagi - KSPCB",27-03-2024 19:00:00,17.321993,76.822628,OZONE,18,98,82
India,Karnataka,Kalaburagi,"Mahatma Basaveswar Colony, Kalaburgi - KSPCB",27-03-2024 19:00:00,17.336318,76.847397,PM2.5,16,69,39
India,Karnataka,Kalaburagi,"Mahatma Basaveswar Colony, Kalaburgi - KSPCB",27-03-2024 19:00:00,17.336318,76.847397,OZONE,6,20,16
India,Karnataka,Karwar,"KHB Colony, Karwar - KSPCB",27-03-2024 19:00:00,14.816666,74.141003,OZONE,20,22,21
India,Karnataka,Kolar,"Tamaka Ind. Area, Kolar - KSPCB",27-03-2024 19:00:00,13.1276288,78.1570122,PM10,17,67,56
India,Karnataka,Kolar,"Tamaka Ind. Area, Kolar - KSPCB",27-03-2024 19:00:00,13.1276288,78.1570122,SO2,13,21,17
India,Karnataka,Mangalore,"Kadri, Mangalore - KSPCB",27-03-2024 19:00:00,12.889250,74.853000,PM10,37,63,50
India,Karnataka,Mangalore,"Kadri, Mangalore - KSPCB",27-03-2024 19:00:00,12.889250,74.853000,SO2,20,23,22
India,Karnataka,Mangalore,"Kadri, Mangalore - KSPCB",27-03-2024 19:00:00,12.889250,74.853000,CO,39,48,42
India,Karnataka,Mysuru,"Hebbal 1st Stage, Mysuru - KSPCB",27-03-2024 19:00:00,12.21041,76.37376,PM2.5,19,57,35
India,Karnataka,Raichur,"Haji Colony, Raichur - KSPCB",27-03-2024 19:00:00,16.208139,77.348417,CO,93,119,105
India,Karnataka,Ramanagara,"Vijay Nagar, Ramanagara - KSPCB",27-03-2024 19:00:00,12.733409,77.298051,NH3,1,1,1
India,Karnataka,Ramanagara,"Vijay Nagar, Ramanagara - KSPCB",27-03-2024 19:00:00,12.733409,77.298051,CO,3,30,12
India,Karnataka,Shivamogga,"Vinoba Nagara, Shivamogga - KSPCB",27-03-2024 19:00:00,13.940000,75.555917,NH3,2,4,3
India,Karnataka,Shivamogga,"Vinoba Nagara, Shivamogga - KSPCB",27-03-2024 19:00:00,13.940000,75.555917,OZONE,10,69,49
India,Karnataka,Tumakuru,"Thimmalapura, Tumakuru - KSPCB",27-03-2024 19:00:00,13.377516,77.099072,PM10,NA,NA,NA
India,Karnataka,Udupi,"Brahmagiri, Udupi - KSPCB",27-03-2024 19:00:00,13.34194444,74.74694444,SO2,12,18,15
India,Karnataka,Yadgir,"Collector Office, Yadgir - KSPCB",27-03-2024 19:00:00,16.7602,77.1428,PM10,56,138,78
India,Kerala,Eloor,"Udyogamandal, Eloor - Kerala PCB",27-03-2024 19:00:00,10.073232,76.302765,NO2,4,4,4
India,Kerala,Kollam,"Polayathode, Kollam - Kerala PCB",27-03-2024 19:00:00,8.8787,76.6073,SO2,1,6,2
India,Kerala,Thiruvananthapuram,"Kariavattom, Thiruvananthapuram - Kerala PCB",27-03-2024 19:00:00,8.563700,76.886500,PM2.5,76,90,82
India,Kerala,Thrissur,"Corporation Ground, Thrissur - Kerala PCB",27-03-2024 19:00:00,10.532400,76.215900,PM2.5,45,52,48
India,Kerala,Thrissur,"Corporation Ground, Thrissur - Kerala PCB",27-03-2024 19:00:00,10.532400,76.215900,PM10,61,70,65
India,Kerala,Thrissur,"Corporation Ground, Thrissur - Kerala PCB",27-03-2024 19:00:00,10.532400,76.215900,SO2,1,28,10
India,Madhya Pradesh,Bhopal,"Idgah Hills, Bhopal - MPPCB",27-03-2024 19:00:00,23.264759,77.381568,NH3,5,7,6
India,Madhya Pradesh,Bhopal,"Idgah Hills, Bhopal - MPPCB",27-03-2024 19:00:00,23.264759,77.381568,SO2,17,21,20
India,Madhya Pradesh,Bhopal,"Idgah Hills, Bhopal - MPPCB",27-03-2024 19:00:00,23.264759,77.381568,CO,20,60,36
India,Madhya Pradesh,Bhopal,"Idgah Hills, Bhopal - MPPCB",27-03-2024 19:00:00,23.264759,77.381568,OZONE,33,116,100
India,Madhya Pradesh,Bhopal,"Paryavaran Parisar, Bhopal - MPPCB",27-03-2024 19:00:00,23.210494,77.425409,PM2.5,25,190,69
India,Madhya Pradesh,Bhopal,"Paryavaran Parisar, Bhopal - MPPCB",27-03-2024 19:00:00,23.210494,77.425409,NO2,12,128,49
India,Madhya Pradesh,Bhopal,"T T Nagar, Bhopal - MPPCB",27-03-2024 19:00:00,23.233584,77.400574,OZONE,1,105,91
India,Madhya Pradesh,Dewas,"Bhopal Chauraha, Dewas - MPPCB",27-03-2024 19:00:00,22.9682591,76.064118,NO2,12,14,13
India,Madhya Pradesh,Dewas,"Bhopal Chauraha, Dewas - MPPCB",27-03-2024 19:00:00,22.9682591,76.064118,NH3,3,3,3
India,Madhya Pradesh,Dewas,"Bhopal Chauraha, Dewas - MPPCB",27-03-2024 19:00:00,22.9682591,76.064118,SO2,38,56,44
India,Madhya Pradesh,Gwalior,"City Center, Gwalior - MPPCB",27-03-2024 19:00:00,26.203442,78.193251,NO2,9,87,30
India,Madhya Pradesh,Gwalior,"City Center, Gwalior - MPPCB",27-03-2024 19:00:00,26.203442,78.193251,NH3,5,13,9
India,Madhya Pradesh,Gwalior,"Deen Dayal Nagar, Gwalior - MPPCB",27-03-2024 19:00:00,26.259242,78.216432,NH3,8,19,10
India,Madhya Pradesh,Gwalior,"Deen Dayal Nagar, Gwalior - MPPCB",27-03-2024 19:00:00,26.259242,78.216432,SO2,14,25,17
India,Madhya Pradesh,Gwalior,"Maharaj Bada, Gwalior - MPPCB",27-03-2024 19:00:00,26.200388,78.147714,PM10,NA,NA,NA
India,Madhya Pradesh,Gwalior,"Maharaj Bada, Gwalior - MPPCB",27-03-2024 19:00:00,26.200388,78.147714,NH3,NA,NA,NA
India,Madhya Pradesh,Gwalior,"Maharaj Bada, Gwalior - MPPCB",27-03-2024 19:00:00,26.200388,78.147714,CO,42,104,70
India,Madhya Pradesh,Indore,"Chhoti Gwaltoli, Indore - MPPCB",27-03-2024 19:00:00,22.4310,75.5213,SO2,10,28,16
India,Madhya Pradesh,Jabalpur,"Govindh Bhavan Colony, Jabalpur - JMC",27-03-2024 19:00:00,23.163174,79.973061,PM2.5,25,78,46
India,Madhya Pradesh,Jabalpur,"Govindh Bhavan Colony, Jabalpur - JMC",27-03-2024 19:00:00,23.163174,79.973061,NH3,7,12,10
India,Madhya Pradesh,Jabalpur,"Marhatal, Jabalpur - MPPCB",27-03-2024 19:00:00,23.168606,79.932247,NO2,10,104,31
India,Madhya Pradesh,Jabalpur,"Marhatal, Jabalpur - MPPCB",27-03-2024 19:00:00,23.168606,79.932247,SO2,8,20,12
India,Madhya Pradesh,Jabalpur,"Suhagi, Jabalpur - JMC",27-03-2024 19:00:00,23.218135,79.957770,CO,36,124,56
India,Madhya Pradesh,Mandideep,"Sector-D Industrial Area, Mandideep - MPPCB",27-03-2024 19:00:00,23.108440,77.511428,NH3,3,5,4
India,Madhya Pradesh,Mandideep,"Sector-D Industrial Area, Mandideep - MPPCB",27-03-2024 19:00:00,23.108440,77.511428,SO2,18,121,56
India,Madhya Pradesh,Pithampur,"Sector-2 Industrial Area, Pithampur - MPPCB",27-03-2024 19:00:00,22.624758,75.675238,PM10,87,181,126
India,Madhya Pradesh,Ratlam,"Shasthri Nagar, Ratlam - IPCA Lab",27-03-2024 19:00:00,23.331731,75.045981,PM2.5,43,219,89
India,Madhya Pradesh,Ratlam,"Shasthri Nagar, Ratlam - IPCA Lab",27-03-2024 19:00:00,23.331731,75.045981,SO2,37,45,39
India,Madhya Pradesh,Sagar,"Civil Lines, Sagar - MPPCB",27-03-2024 19:00:00,23.838586,78.759431,NO2,5,38,13
India,Madhya Pradesh,Sagar,"Civil Lines, Sagar - MPPCB",27-03-2024 19:00:00,23.838586,78.759431,NH3,2,3,3
India,Madhya Pradesh,Satna,"Bandhavgar Colony, Satna - Birla Cement",27-03-2024 19:00:00,24.58434363,80.8549414,PM2.5,2,33,16
India,Madhya Pradesh,Satna,"Bandhavgar Colony, Satna - Birla Cement",27-03-2024 19:00:00,24.58434363,80.8549414,NO2,26,66,42
India,Madhya Pradesh,Satna,"Bandhavgar Colony, Satna - Birla Cement",27-03-2024 19:00:00,24.58434363,80.8549414,CO,21,108,33
India,Madhya Pradesh,Singrauli,"Suryakiran Bhawan NCL, Singrauli - MPPCB",27-03-2024 19:00:00,24.108970,82.645580,SO2,30,49,37
India,Madhya Pradesh,Singrauli,"Suryakiran Bhawan NCL, Singrauli - MPPCB",27-03-2024 19:00:00,24.108970,82.645580,OZONE,10,62,57
India,Madhya Pradesh,Ujjain,"Mahakaleshwar Temple, Ujjain - MPPCB",27-03-2024 19:00:00,23.182719 ,75.768218 ,PM2.5,48,243,95
India,Madhya Pradesh,Ujjain,"Mahakaleshwar Temple, Ujjain - MPPCB",27-03-2024 19:00:00,23.182719 ,75.768218 ,CO,3,129,33
India,Madhya Pradesh,Ujjain,"Mahakaleshwar Temple, Ujjain - MPPCB",27-03-2024 19:00:00,23.182719 ,75.768218 ,OZONE,121,144,133
India,Maharashtra,Ahmednagar,"Tarakpur, Ahmednagar - MPCB",27-03-2024 19:00:00,19.10122,74.73339,OZONE,30,217,155
India,Maharashtra,Akola,"Ramdaspeth, Akola - MPCB",27-03-2024 19:00:00,20.719516,77.000253,SO2,8,26,15
India,Maharashtra,Amravati,"Shivneri Colony, Amravati - MPCB",27-03-2024 19:00:00,20.9402359,77.7895248,OZONE,4,146,119
India,Maharashtra,Amravati,"Shri Shivaji Science College, Amaravati - MPCB",27-03-2024 19:00:00,20.939198,77.765701,SO2,2,24,9
India,Maharashtra,Aurangabad,"MIDC Chilkalthana, Aurangabad - MPCB",27-03-2024 19:00:00,19.875620,75.387310,PM10,104,193,128
India,Maharashtra,Aurangabad,"MIDC Chilkalthana, Aurangabad - MPCB",27-03-2024 19:00:00,19.875620,75.387310,NO2,7,98,41
India,Maharashtra,Aurangabad,"MIDC Chilkalthana, Aurangabad - MPCB",27-03-2024 19:00:00,19.875620,75.387310,CO,109,123,110
India,Maharashtra,Aurangabad,"More Chowk Waluj, Aurangabad - MPCB",27-03-2024 19:00:00,19.8389439,75.244448,PM10,77,133,94
India,Maharashtra,Aurangabad,"More Chowk Waluj, Aurangabad - MPCB",27-03-2024 19:00:00,19.8389439,75.244448,NH3,8,12,10
India,Maharashtra,Aurangabad,"Rachnakar Colony, Aurangabad - MPCB",27-03-2024 19:00:00,19.863756,75.321188,NH3,1,2,1
India,Maharashtra,Aurangabad,"Rachnakar Colony, Aurangabad - MPCB",27-03-2024 19:00:00,19.863756,75.321188,SO2,16,62,29
India,Maharashtra,Aurangabad,"Rachnakar Colony, Aurangabad - MPCB",27-03-2024 19:00:00,19.863756,75.321188,CO,16,118,31
India,Maharashtra,Belapur,"CBD Belapur, Belapur - MPCB",27-03-2024 19:00:00,19.0243902,73.0406721,NO2,18,43,25
India,Maharashtra,Bhiwandi,"Gokul Nagar, Bhiwandi - MPCB",27-03-2024 19:00:00,19.309073,73.057223,NH3,NA,NA,NA
India,Maharashtra,Chandrapur,"Chauhan Colony, Chandrapur - MPCB",27-03-2024 19:00:00,19.962900,79.298714,PM2.5,NA,NA,NA
India,Maharashtra,Chandrapur,"Chauhan Colony, Chandrapur - MPCB",27-03-2024 19:00:00,19.962900,79.298714,PM10,NA,NA,NA
India,Maharashtra,Chandrapur,"Chauhan Colony, Chandrapur - MPCB",27-03-2024 19:00:00,19.962900,79.298714,NH3,1,4,3
India,Maharashtra,Chandrapur,"MIDC Khutala, Chandrapur - MPCB",27-03-2024 19:00:00,19.9775302,79.2337086,NO2,12,40,25
India,Maharashtra,Dhule,"Deopur, Dhule - MPCB",27-03-2024 19:00:00,20.918946,74.776388,PM2.5,72,165,122
India,Maharashtra,Dhule,"Deopur, Dhule - MPCB",27-03-2024 19:00:00,20.918946,74.776388,NO2,2,12,7
India,Maharashtra,Dhule,"Deopur, Dhule - MPCB",27-03-2024 19:00:00,20.918946,74.776388,SO2,9,14,12
India,Maharashtra,Dhule,"Deopur, Dhule - MPCB",27-03-2024 19:00:00,20.918946,74.776388,OZONE,22,143,110
India,Maharashtra,Jalgaon,"Prabhat Colony, Jalgaon - MPCB",27-03-2024 19:00:00,21.001264,75.565602,SO2,6,42,16
India,Maharashtra,Jalna,"Old MIDC, Jalna - MPCB",27-03-2024 19:00:00,19.854616,75.905894,PM10,NA,NA,NA
India,Maharashtra,Jalna,"Old MIDC, Jalna - MPCB",27-03-2024 19:00:00,19.854616,75.905894,SO2,NA,NA,NA
India,Maharashtra,Kalyan,"Khadakpada, Kalyan - MPCB",27-03-2024 19:00:00,19.25292,73.142019,PM2.5,30,84,47
India,Maharashtra,Kalyan,"Khadakpada, Kalyan - MPCB",27-03-2024 19:00:00,19.25292,73.142019,SO2,29,38,34
India,Maharashtra,Kolhapur,"Shivaji University, Kolhapur - MPCB",27-03-2024 19:00:00,16.6870449,74.2505872,PM10,32,161,91
India,Maharashtra,Kolhapur,"Sinchan Bhavan, Kolhapur - MPCB",27-03-2024 19:00:00,16.7143745,74.2426398,PM2.5,8,74,38
India,Maharashtra,Kolhapur,"Sinchan Bhavan, Kolhapur - MPCB",27-03-2024 19:00:00,16.7143745,74.2426398,NH3,7,8,8
India,Maharashtra,Kolhapur,"Sinchan Bhavan, Kolhapur - MPCB",27-03-2024 19:00:00,16.7143745,74.2426398,SO2,1,18,6
India,Maharashtra,Kolhapur,"Sinchan Bhavan, Kolhapur - MPCB",27-03-2024 19:00:00,16.7143745,74.2426398,OZONE,25,214,142
India,Maharashtra,Latur,"Sawe Wadi, Latur - MPCB",27-03-2024 19:00:00,18.39963,76.57452,PM10,76,156,108
India,Maharashtra,Latur,"Sawe Wadi, Latur - MPCB",27-03-2024 19:00:00,18.39963,76.57452,NH3,11,17,12
India,Maharashtra,Mahad,"Kamble Tarf Birwadi, Mahad - MPCB",27-03-2024 19:00:00,18.1023399,73.4783687,NH3,10,10,10
India,Maharashtra,Mahad,"Kamble Tarf Birwadi, Mahad - MPCB",27-03-2024 19:00:00,18.1023399,73.4783687,CO,14,73,45
India,Maharashtra,Mira-Bhayandar,"Bhayandar West, Mira-Bhayandar - MPCB",27-03-2024 19:00:00,19.296481,72.840923,PM2.5,31,79,58
India,Maharashtra,Mira-Bhayandar,"Bhayandar West, Mira-Bhayandar - MPCB",27-03-2024 19:00:00,19.296481,72.840923,PM10,56,104,75
India,Maharashtra,Mira-Bhayandar,"Bhayandar West, Mira-Bhayandar - MPCB",27-03-2024 19:00:00,19.296481,72.840923,CO,10,30,10
India,Maharashtra,Mira-Bhayandar,"Bhayandar West, Mira-Bhayandar - MPCB",27-03-2024 19:00:00,19.296481,72.840923,OZONE,2,62,37
India,Maharashtra,Mumbai,"Bandra Kurla Complex, Mumbai - MPCB",27-03-2024 19:00:00,19.065931,72.862131,PM2.5,38,73,62
India,Maharashtra,Mumbai,"Bandra Kurla Complex, Mumbai - MPCB",27-03-2024 19:00:00,19.065931,72.862131,SO2,NA,NA,NA
India,Maharashtra,Mumbai,"Borivali East, Mumbai - IITM",27-03-2024 19:00:00,19.23241,72.86895,NO2,39,82,51
India,Maharashtra,Mumbai,"Borivali East, Mumbai - MPCB",27-03-2024 19:00:00,19.2243333,72.8658113,CO,2,63,39
India,Maharashtra,Mumbai,"Borivali East, Mumbai - MPCB",27-03-2024 19:00:00,19.2243333,72.8658113,OZONE,15,15,15
India,Maharashtra,Mumbai,"Byculla, Mumbai - BMC",27-03-2024 19:00:00,18.9767,72.8380,NO2,9,25,17
India,Maharashtra,Mumbai,"Byculla, Mumbai - BMC",27-03-2024 19:00:00,18.9767,72.8380,SO2,1,17,3
India,Maharashtra,Mumbai,"Chakala-Andheri East, Mumbai - IITM",27-03-2024 19:00:00,19.11074,72.86084,PM10,55,239,98
India,Maharashtra,Mumbai,"Chakala-Andheri East, Mumbai - IITM",27-03-2024 19:00:00,19.11074,72.86084,NH3,7,16,10
India,Maharashtra,Mumbai,"Chakala-Andheri East, Mumbai - IITM",27-03-2024 19:00:00,19.11074,72.86084,SO2,20,67,37
India,Maharashtra,Mumbai,"Chhatrapati Shivaji Intl. Airport (T2), Mumbai - MPCB",27-03-2024 19:00:00,19.10078,72.87462,PM2.5,14,72,26
India,Maharashtra,Mumbai,"Chhatrapati Shivaji Intl. Airport (T2), Mumbai - MPCB",27-03-2024 19:00:00,19.10078,72.87462,OZONE,4,7,5
India,Maharashtra,Mumbai,"Colaba, Mumbai - MPCB",27-03-2024 19:00:00,18.910000,72.820000,PM2.5,11,53,22
India,Maharashtra,Mumbai,"Colaba, Mumbai - MPCB",27-03-2024 19:00:00,18.910000,72.820000,NO2,19,26,21
India,Maharashtra,Mumbai,"Colaba, Mumbai - MPCB",27-03-2024 19:00:00,18.910000,72.820000,NH3,1,1,1
India,Maharashtra,Mumbai,"Colaba, Mumbai - MPCB",27-03-2024 19:00:00,18.910000,72.820000,SO2,NA,NA,NA
India,Maharashtra,Mumbai,"Colaba, Mumbai - MPCB",27-03-2024 19:00:00,18.910000,72.820000,OZONE,6,12,11
India,Maharashtra,Mumbai,"Ghatkopar, Mumbai - BMC",27-03-2024 19:00:00,19.083694,72.920967,CO,1,26,5
India,Maharashtra,Mumbai,"Kandivali West, Mumbai - BMC",27-03-2024 19:00:00,19.215859,72.831718,PM10,32,58,40
India,Maharashtra,Mumbai,"Kandivali West, Mumbai - BMC",27-03-2024 19:00:00,19.215859,72.831718,OZONE,1,12,10
India,Maharashtra,Mumbai,"Kherwadi_Bandra East, Mumbai - MPCB",27-03-2024 19:00:00,19.0632143,72.8456324,PM10,62,127,88
India,Maharashtra,Mumbai,"Kherwadi_Bandra East, Mumbai - MPCB",27-03-2024 19:00:00,19.0632143,72.8456324,NO2,6,63,24
India,Maharashtra,Mumbai,"Kherwadi_Bandra East, Mumbai - MPCB",27-03-2024 19:00:00,19.0632143,72.8456324,SO2,2,4,3
India,Maharashtra,Mumbai,"Khindipada-Bhandup West, Mumbai - IITM",27-03-2024 19:00:00,19.1653323,72.922099,NH3,4,7,5
India,Maharashtra,Mumbai,"Kurla, Mumbai - MPCB",27-03-2024 19:00:00,19.0863,72.8888,NH3,2,7,4
India,Maharashtra,Mumbai,"Mindspace-Malad West, Mumbai - MPCB",27-03-2024 19:00:00,19.1878657,72.8304069,OZONE,4,35,27
India,Maharashtra,Mumbai,"Mulund West, Mumbai - MPCB",27-03-2024 19:00:00,19.1750,72.9419,CO,35,36,36
India,Maharashtra,Mumbai,"Mulund West, Mumbai - MPCB",27-03-2024 19:00:00,19.1750,72.9419,OZONE,7,7,7
India,Maharashtra,Mumbai,"Navy Nagar-Colaba, Mumbai - IITM",27-03-2024 19:00:00,18.897756,72.813320,NO2,12,52,25
India,Maharashtra,Mumbai,"Powai, Mumbai - MPCB",27-03-2024 19:00:00,19.137500,72.915056,PM10,55,140,87
India,Maharashtra,Mumbai,"Sewri, Mumbai - BMC",27-03-2024 19:00:00,19.000084,72.856730,PM10,34,80,61
India,Maharashtra,Mumbai,"Sewri, Mumbai - BMC",27-03-2024 19:00:00,19.000084,72.856730,NO2,29,78,44
India,Maharashtra,Mumbai,"Sewri, Mumbai - BMC",27-03-2024 19:00:00,19.000084,72.856730,CO,16,52,19
India,Maharashtra,Mumbai,"Sewri, Mumbai - BMC",27-03-2024 19:00:00,19.000084,72.856730,OZONE,6,25,19
India,Maharashtra,Mumbai,"Shivaji Nagar, Mumbai - BMC",27-03-2024 19:00:00,19.060498,72.923356,NH3,6,12,9
India,Maharashtra,Mumbai,"Shivaji Nagar, Mumbai - BMC",27-03-2024 19:00:00,19.060498,72.923356,SO2,1,20,6
India,Maharashtra,Mumbai,"Shivaji Nagar, Mumbai - BMC",27-03-2024 19:00:00,19.060498,72.923356,OZONE,1,30,22
India,Maharashtra,Mumbai,"Sion, Mumbai - MPCB",27-03-2024 19:00:00,19.047000,72.874600,PM2.5,38,90,55
India,Maharashtra,Mumbai,"Sion, Mumbai - MPCB",27-03-2024 19:00:00,19.047000,72.874600,NH3,1,1,1
India,Maharashtra,Mumbai,"Vile Parle West, Mumbai - MPCB",27-03-2024 19:00:00,19.10861,72.83622,NH3,4,11,10
India,Maharashtra,Mumbai,"Worli, Mumbai - MPCB",27-03-2024 19:00:00,18.9936162,72.8128113,SO2,10,12,11
India,Maharashtra,Mumbai,"Worli, Mumbai - MPCB",27-03-2024 19:00:00,18.9936162,72.8128113,CO,26,28,27
India,Maharashtra,Mumbai,"Worli, Mumbai - MPCB",27-03-2024 19:00:00,18.9936162,72.8128113,OZONE,7,12,10
India,Maharashtra,Nagpur,"Ambazari, Nagpur - MPCB",27-03-2024 19:00:00,21.121801,79.04952,OZONE,4,94,77
India,Maharashtra,Nagpur,"Mahal, Nagpur - MPCB",27-03-2024 19:00:00,21.14472,79.107595,NH3,NA,NA,NA
India,Maharashtra,Nagpur,"Mahal, Nagpur - MPCB",27-03-2024 19:00:00,21.14472,79.107595,SO2,NA,NA,NA
India,Maharashtra,Nagpur,"Opp GPO Civil Lines, Nagpur - MPCB",27-03-2024 19:00:00,21.152875,79.0517531,PM2.5,62,253,157
India,Maharashtra,Nagpur,"Ram Nagar, Nagpur - MPCB",27-03-2024 19:00:00,21.143383,79.048912,PM2.5,67,199,136
India,Maharashtra,Nagpur,"Ram Nagar, Nagpur - MPCB",27-03-2024 19:00:00,21.143383,79.048912,NO2,4,145,39
India,Maharashtra,Nanded,"Sneh Nagar, Nanded - MPCB",27-03-2024 19:00:00,19.173852,77.296291,PM2.5,64,260,155
India,Maharashtra,Nanded,"Sneh Nagar, Nanded - MPCB",27-03-2024 19:00:00,19.173852,77.296291,NH3,1,2,1
India,Maharashtra,Nashik,"Gangapur Road, Nashik - MPCB",27-03-2024 19:00:00,20.0073285,73.7762427,CO,22,24,23
India,Maharashtra,Nashik,"Hirawadi, Nashik - MPCB",27-03-2024 19:00:00,20.021503,73.813844,SO2,4,16,9
India,Maharashtra,Nashik,"Pandav Nagari, Nashik - MPCB",27-03-2024 19:00:00,19.9591346,73.7788008,PM2.5,59,97,77
India,Maharashtra,Nashik,"Pandav Nagari, Nashik - MPCB",27-03-2024 19:00:00,19.9591346,73.7788008,NH3,4,6,5
India,Maharashtra,Navi Mumbai,"Kopripada-Vashi, Navi Mumbai - MPCB",27-03-2024 19:00:00,19.090337,73.014232,OZONE,8,83,47
India,Maharashtra,Navi Mumbai,"Nerul, Navi Mumbai - MPCB",27-03-2024 19:00:00,19.008751,73.016620,PM2.5,40,115,69
India,Maharashtra,Navi Mumbai,"Nerul, Navi Mumbai - MPCB",27-03-2024 19:00:00,19.008751,73.016620,NH3,2,3,3
India,Maharashtra,Navi Mumbai,"Sanpada, Navi Mumbai - MPCB",27-03-2024 19:00:00,19.0575752,73.0151367,NH3,9,29,14
India,Maharashtra,Navi Mumbai,"Sector-19A Nerul, Navi Mumbai - IITM",27-03-2024 19:00:00,19.044,73.0325,NH3,9,13,11
India,Maharashtra,Navi Mumbai,"Sector-2E Kalamboli, Navi Mumbai - MPCB",27-03-2024 19:00:00,19.02579,73.10297,PM10,59,83,74
India,Maharashtra,Navi Mumbai,"Sector-2E Kalamboli, Navi Mumbai - MPCB",27-03-2024 19:00:00,19.02579,73.10297,NH3,3,7,5
India,Maharashtra,Navi Mumbai,"Sector-2E Kalamboli, Navi Mumbai - MPCB",27-03-2024 19:00:00,19.02579,73.10297,OZONE,2,58,37
India,Maharashtra,Parbhani,"Masoom Colony, Parbhani - MPCB",27-03-2024 19:00:00,19.265594,76.761463,PM2.5,23,323,183
India,Maharashtra,Pimpri-Chinchwad,"Thergaon, Pimpri Chinchwad - MPCB",27-03-2024 19:00:00,18.616318,73.765797,PM2.5,77,198,128
India,Maharashtra,Pimpri-Chinchwad,"Thergaon, Pimpri Chinchwad - MPCB",27-03-2024 19:00:00,18.616318,73.765797,PM10,73,128,101
India,Maharashtra,Pune,"Bhosari, Pune - IITM",27-03-2024 19:00:00,18.640051,73.848956,PM2.5,27,74,53
India,Maharashtra,Pune,"Bhosari, Pune - IITM",27-03-2024 19:00:00,18.640051,73.848956,PM10,74,119,93
India,Maharashtra,Pune,"Bhosari, Pune - IITM",27-03-2024 19:00:00,18.640051,73.848956,OZONE,13,150,106
India,Maharashtra,Pune,"Karve Road, Pune - MPCB",27-03-2024 19:00:00,18.5011743,73.8165527,NO2,2,2,2
India,Maharashtra,Pune,"Karve Road, Pune - MPCB",27-03-2024 19:00:00,18.5011743,73.8165527,CO,57,62,62
India,Maharashtra,Pune,"Katraj Dairy, Pune - MPCB",27-03-2024 19:00:00,18.454450,73.854155,NH3,2,5,3
India,Maharashtra,Pune,"Mhada Colony, Pune - IITM",27-03-2024 19:00:00,18.573040,73.927715,CO,30,76,47
India,Maharashtra,Pune,"Revenue Colony-Shivajinagar, Pune - IITM",27-03-2024 19:00:00,18.530085,73.849598,PM2.5,49,84,70
India,Maharashtra,Pune,"Revenue Colony-Shivajinagar, Pune - IITM",27-03-2024 19:00:00,18.530085,73.849598,PM10,53,99,79
India,Maharashtra,Pune,"Revenue Colony-Shivajinagar, Pune - IITM",27-03-2024 19:00:00,18.530085,73.849598,NH3,10,20,14
India,Maharashtra,Pune,"Revenue Colony-Shivajinagar, Pune - IITM",27-03-2024 19:00:00,18.530085,73.849598,OZONE,1,62,46
India,Maharashtra,Pune,"Savitribai Phule Pune University, Pune - MPCB",27-03-2024 19:00:00,18.547056,73.826908,NH3,1,2,2
India,Maharashtra,Pune,"Savitribai Phule Pune University, Pune - MPCB",27-03-2024 19:00:00,18.547056,73.826908,OZONE,13,303,230
India,Maharashtra,Pune,"Transport Nagar-Nigdi, Pune - IITM",27-03-2024 19:00:00,18.664282,73.763966,PM10,51,105,81
India,Maharashtra,Pune,"Transport Nagar-Nigdi, Pune - IITM",27-03-2024 19:00:00,18.664282,73.763966,CO,46,62,55
India,Maharashtra,Sangli,"Vijay Nagar, Sangli - MPCB",27-03-2024 19:00:00, 16.5038,74.3623,NH3,2,3,2
India,Maharashtra,Sangli,"Vijay Nagar, Sangli - MPCB",27-03-2024 19:00:00, 16.5038,74.3623,OZONE,5,75,68
India,Maharashtra,Solapur,"Dnyaneshwar Nagar, Solapur - MPCB",27-03-2024 19:00:00,17.6336264,75.9132495,PM10,80,126,102
India,Maharashtra,Solapur,"Dnyaneshwar Nagar, Solapur - MPCB",27-03-2024 19:00:00,17.6336264,75.9132495,CO,14,26,15
India,Maharashtra,Solapur,"Ratandeep Housing Society, Solapur - MPCB",27-03-2024 19:00:00,17.65439,75.90649,NO2,9,50,24
India,Maharashtra,Thane,"Upvan Fort, Thane - MPCB",27-03-2024 19:00:00,19.222279,72.957979,PM2.5,42,104,66
India,Maharashtra,Thane,"Upvan Fort, Thane - MPCB",27-03-2024 19:00:00,19.222279,72.957979,SO2,5,29,11
India,Maharashtra,Thane,"Upvan Fort, Thane - MPCB",27-03-2024 19:00:00,19.222279,72.957979,CO,12,49,17
India,Maharashtra,Ulhasnagar,"Sidhi Vinayak Nagar, Ulhasnagar - MPCB",27-03-2024 19:00:00,19.235581,73.159121,SO2,1,30,7
India,Maharashtra,Virar,"Bolinj, Virar - MPCB",27-03-2024 19:00:00,19.4458210,72.7988231,PM10,62,159,102
India,Maharashtra,Virar,"Bolinj, Virar - MPCB",27-03-2024 19:00:00,19.4458210,72.7988231,NO2,7,58,27
India,Manipur,Imphal,"DM College of Science, Imphal - Manipur PCB",27-03-2024 19:00:00,24.8207389,93.9423085,PM2.5,8,34,19
India,Manipur,Imphal,"Manipur University, Imphal - Manipur PCB",27-03-2024 19:00:00,24.7524239,93.9286218,SO2,79,83,81
India,Nagaland,Kohima,"PWD Juction, Kohima - NPCB",27-03-2024 19:00:00,25.6635413,94.0989878,PM10,24,106,57
India,Nagaland,Kohima,"PWD Juction, Kohima - NPCB",27-03-2024 19:00:00,25.6635413,94.0989878,CO,8,22,16
India,Odisha,Angul,"Hakimapada, Angul - OSPCB",27-03-2024 19:00:00,20.832874,85.104082,PM2.5,47,335,145
India,Odisha,Angul,"Hakimapada, Angul - OSPCB",27-03-2024 19:00:00,20.832874,85.104082,NH3,NA,NA,NA
India,Odisha,Balasore,"Kalidaspur, Balasore - OSPCB",27-03-2024 19:00:00,21.51161,86.89088,NO2,8,29,14
India,Odisha,Balasore,"Kalidaspur, Balasore - OSPCB",27-03-2024 19:00:00,21.51161,86.89088,SO2,14,31,19
India,Odisha,Barbil,"Forest Office, Barbil - OSPCB",27-03-2024 19:00:00,22.1166054,85.3945546,NH3,4,5,4
India,Odisha,Baripada,"Meher Colony, Baripada - OSPCB",27-03-2024 19:00:00,21.941841,86.728318,NO2,1,2,1
India,Odisha,Bhubaneswar,"Lingraj Mandir, Bhubaneswar - OSPCB",27-03-2024 19:00:00,20.240790,85.836784,PM2.5,3,93,47
India,Odisha,Bhubaneswar,"Lingraj Mandir, Bhubaneswar - OSPCB",27-03-2024 19:00:00,20.240790,85.836784,NH3,3,7,4
India,Odisha,Bhubaneswar,"Lingraj Mandir, Bhubaneswar - OSPCB",27-03-2024 19:00:00,20.240790,85.836784,CO,50,67,56
India,Odisha,Bhubaneswar,"Patia, Bhubaneswar - OSPCB",27-03-2024 19:00:00,20.34652,85.81630,PM10,25,161,74
India,Odisha,Bileipada,"Tata Township, Bileipada - OSPCB",27-03-2024 19:00:00,22.06156703,85.47409613,SO2,NA,NA,NA
India,Odisha,Bileipada,"Tata Township, Bileipada - OSPCB",27-03-2024 19:00:00,22.06156703,85.47409613,CO,24,92,30
India,Odisha,Brajrajnagar,"GM Office, Brajrajnagar - OSPCB",27-03-2024 19:00:00,21.8004996,83.8396977,NH3,1,1,1
India,Odisha,Cuttack,"CDA Area, Cuttack - OSPCB",27-03-2024 19:00:00,20.48891     ,85.84768     ,PM10,31,73,52
India,Odisha,Keonjhar,"Jagamohanpur, Keonjhar - OSPCB",27-03-2024 19:00:00,21.643900,85.599355,SO2,4,12,5
India,Odisha,Rairangpur,"Divisional Forest Office, Rairangpur - OSPCB",27-03-2024 19:00:00,22.265816,86.174829,PM10,75,115,97
India,Odisha,Suakati,"OMC Colony, Suakati - OSPCB",27-03-2024 19:00:00,21.606865,85.510538,PM2.5,101,201,140
India,Odisha,Talcher,"Talcher Coalfields,Talcher - OSPCB",27-03-2024 19:00:00,20.9360711,85.1707021,CO,8,56,40
India,Odisha,Tensa,"Barsua Iron Ore Mines, Tensa - OSPCB",27-03-2024 19:00:00,21.869985,85.167016,PM2.5,NA,NA,NA
India,Odisha,Tensa,"Barsua Iron Ore Mines, Tensa - OSPCB",27-03-2024 19:00:00,21.869985,85.167016,PM10,90,122,106
India,Odisha,Tensa,"Barsua Iron Ore Mines, Tensa - OSPCB",27-03-2024 19:00:00,21.869985,85.167016,NH3,NA,NA,NA
India,Odisha,Tensa,"Barsua Iron Ore Mines, Tensa - OSPCB",27-03-2024 19:00:00,21.869985,85.167016,SO2,NA,NA,NA
India,Puducherry,Puducherry,"Jawahar Nagar, Puducherry - PPCC",27-03-2024 19:00:00,11.9309,79.8027,PM10,13,134,43
India,Puducherry,Puducherry,"Jawahar Nagar, Puducherry - PPCC",27-03-2024 19:00:00,11.9309,79.8027,NO2,2,23,9
India,Punjab,Amritsar,"Golden Temple, Amritsar - PPCB",27-03-2024 19:00:00,31.620000,74.876512,SO2,6,79,25
India,Punjab,Amritsar,"Golden Temple, Amritsar - PPCB",27-03-2024 19:00:00,31.620000,74.876512,CO,2,126,60
India,Punjab,Jalandhar,"Civil Line, Jalandhar - PPCB",27-03-2024 19:00:00,31.321907,75.578914,SO2,9,13,11
India,Punjab,Jalandhar,"Civil Line, Jalandhar - PPCB",27-03-2024 19:00:00,31.321907,75.578914,CO,26,64,39
India,Punjab,Khanna,"Kalal Majra, Khanna - PPCB",27-03-2024 19:00:00,30.736056 ,76.209694,NO2,24,28,24
India,Punjab,Khanna,"Kalal Majra, Khanna - PPCB",27-03-2024 19:00:00,30.736056 ,76.209694,CO,19,24,22
India,Punjab,Ludhiana,"Punjab Agricultural University, Ludhiana - PPCB",27-03-2024 19:00:00,30.9028,75.8086,PM2.5,57,159,100
India,Punjab,Ludhiana,"Punjab Agricultural University, Ludhiana - PPCB",27-03-2024 19:00:00,30.9028,75.8086,PM10,75,131,110
India,Punjab,Patiala,"Model Town, Patiala - PPCB",27-03-2024 19:00:00,30.349388,76.366642,NH3,6,7,6
India,Punjab,Patiala,"Model Town, Patiala - PPCB",27-03-2024 19:00:00,30.349388,76.366642,OZONE,26,86,74
India,Rajasthan,Ajmer,"Civil Lines,  Ajmer - RSPCB",27-03-2024 19:00:00,26.470859,74.646594,PM10,81,226,121
India,Rajasthan,Alwar,"Moti Doongri, Alwar - RSPCB",27-03-2024 19:00:00,27.554793,76.611536,PM10,85,133,108
India,Rajasthan,Banswara,"Rati Talai, Banswara - RSPCB",27-03-2024 19:00:00,23.555190,74.440010,CO,15,154,40
India,Rajasthan,Baran,"Bamboliya, Baran - RSPCB",27-03-2024 19:00:00,25.106006,76.469948,PM2.5,37,308,92
India,Rajasthan,Baran,"Bamboliya, Baran - RSPCB",27-03-2024 19:00:00,25.106006,76.469948,PM10,58,201,102
India,Rajasthan,Baran,"Bamboliya, Baran - RSPCB",27-03-2024 19:00:00,25.106006,76.469948,NO2,7,112,31
India,Rajasthan,Baran,"Bamboliya, Baran - RSPCB",27-03-2024 19:00:00,25.106006,76.469948,SO2,9,34,16
India,Rajasthan,Baran,"Bamboliya, Baran - RSPCB",27-03-2024 19:00:00,25.106006,76.469948,CO,10,92,19
India,Rajasthan,Barmer,"Railway Colony, Barmer - RSPCB",27-03-2024 19:00:00,25.747299,71.393989,PM10,54,138,81
India,Rajasthan,Barmer,"Railway Colony, Barmer - RSPCB",27-03-2024 19:00:00,25.747299,71.393989,OZONE,32,70,63
India,Rajasthan,Bharatpur,"Krishna Nagar, Bharatpur - RSPCB",27-03-2024 19:00:00,27.215415,77.50873,NH3,6,17,9
India,Rajasthan,Bharatpur,"Krishna Nagar, Bharatpur - RSPCB",27-03-2024 19:00:00,27.215415,77.50873,SO2,4,16,11
India,Rajasthan,Bhilwara,"Pratap Nagar, Bhilwara - RSPCB",27-03-2024 19:00:00,25.339605,74.618883,PM10,NA,NA,NA
India,Rajasthan,Bhilwara,"Pratap Nagar, Bhilwara - RSPCB",27-03-2024 19:00:00,25.339605,74.618883,CO,18,36,22
India,Rajasthan,Bhilwara,"Pratap Nagar, Bhilwara - RSPCB",27-03-2024 19:00:00,25.339605,74.618883,OZONE,59,80,71
India,Rajasthan,Bhiwadi,"RIICO Ind. Area III, Bhiwadi - RSPCB",27-03-2024 19:00:00,28.194909,76.862296,NO2,NA,NA,NA
India,Rajasthan,Bhiwadi,"RIICO Ind. Area III, Bhiwadi - RSPCB",27-03-2024 19:00:00,28.194909,76.862296,SO2,NA,NA,NA
India,Rajasthan,Bhiwadi,"Vasundhara Nagar_UIT, Bhiwadi - RSPCB",27-03-2024 19:00:00,28.207266,76.829265,NO2,22,103,59
India,Rajasthan,Bundi,"New Colony, Bundi - RSPCB",27-03-2024 19:00:00,25.435774,75.644272,CO,10,106,20
India,Rajasthan,Bundi,"New Colony, Bundi - RSPCB",27-03-2024 19:00:00,25.435774,75.644272,OZONE,6,133,116
India,Rajasthan,Chittorgarh,"Shastri Nagar, Chittorgarh - RSPCB",27-03-2024 19:00:00,24.892047,74.623527,PM2.5,3,187,63
India,Rajasthan,Churu,"Subash Chowk, Churu - RSPCB",27-03-2024 19:00:00,28.296139,74.961696,PM2.5,27,75,42
India,Rajasthan,Churu,"Subash Chowk, Churu - RSPCB",27-03-2024 19:00:00,28.296139,74.961696,PM10,62,170,96
India,Rajasthan,Dausa,"Khatikan Mohalla, Dausa - RSPCB",27-03-2024 19:00:00,26.895552,76.334753,PM2.5,26,100,53
India,Rajasthan,Dholpur,"Raja Ganj, Dholpur - RSPCB",27-03-2024 19:00:00,26.699557,77.898881,SO2,4,6,5
India,Rajasthan,Dungarpur,"Bhoiwada, Dungarpur - RSPCB",27-03-2024 19:00:00,23.837789,73.714926,PM2.5,43,97,61
India,Rajasthan,Hanumangarh,"Housing Board, Hanumangarh - RSPCB",27-03-2024 19:00:00,29.610750,74.283608,PM10,85,152,119
India,Rajasthan,Jaipur,"Adarsh Nagar, Jaipur - RSPCB",27-03-2024 19:00:00,26.902909,75.836858,PM2.5,46,149,79
India,Rajasthan,Jaipur,"Adarsh Nagar, Jaipur - RSPCB",27-03-2024 19:00:00,26.902909,75.836858,OZONE,7,53,47
India,Rajasthan,Jaipur,"Mansarovar Sector-12, Jaipur - RSPCB",27-03-2024 19:00:00,26.843698,75.766894,PM10,83,406,147
India,Rajasthan,Jaipur,"Mansarovar Sector-12, Jaipur - RSPCB",27-03-2024 19:00:00,26.843698,75.766894,SO2,3,11,7
India,Rajasthan,Jaipur,"Police Commissionerate, Jaipur - RSPCB",27-03-2024 19:00:00,26.9164092,75.7994901,NH3,8,12,9
India,Rajasthan,Jaipur,"RIICO Sitapura, Jaipur - RSPCB",27-03-2024 19:00:00,26.786682,75.827928,NO2,13,135,54
India,Rajasthan,Jaipur,"Shastri Nagar, Jaipur - RSPCB",27-03-2024 19:00:00,26.9502929,75.730943,SO2,5,96,38
India,Rajasthan,Jaisalmer,"Sadar Bazar, Jaisalmer - RSPCB",27-03-2024 19:00:00,26.912329,70.909168,PM10,79,169,113
India,Rajasthan,Jaisalmer,"Sadar Bazar, Jaisalmer - RSPCB",27-03-2024 19:00:00,26.912329,70.909168,NO2,15,50,31
India,Rajasthan,Jaisalmer,"Sadar Bazar, Jaisalmer - RSPCB",27-03-2024 19:00:00,26.912329,70.909168,OZONE,19,69,63
India,Rajasthan,Jhalawar,"Rajlaxmi Nagar, Jhalawar - RSPCB",27-03-2024 19:00:00,24.588397,76.172782,PM10,78,149,105
India,Rajasthan,Jhalawar,"Rajlaxmi Nagar, Jhalawar - RSPCB",27-03-2024 19:00:00,24.588397,76.172782,SO2,1,25,8
India,Rajasthan,Jodhpur,"Digari Kalan, Jodhpur - RSPCB",27-03-2024 19:00:00,26.295810,73.082283,PM10,90,416,157
India,Rajasthan,Jodhpur,"Jhalamand, Jodhpur - RSPCB",27-03-2024 19:00:00,26.215415,73.070156,PM2.5,18,228,59
India,Rajasthan,Jodhpur,"Jhalamand, Jodhpur - RSPCB",27-03-2024 19:00:00,26.215415,73.070156,PM10,67,456,178
India,Rajasthan,Jodhpur,"Jhalamand, Jodhpur - RSPCB",27-03-2024 19:00:00,26.215415,73.070156,NO2,33,48,39
India,Rajasthan,Jodhpur,"Mandor, Jodhpur - RSPCB",27-03-2024 19:00:00,26.358805,73.047444,NO2,18,109,54
India,Rajasthan,Jodhpur,"Samrat Ashok Udhyan, Jodhpur - RSPCB",27-03-2024 19:00:00,26.253384,72.976571,PM10,90,301,153
India,Rajasthan,Karauli,"Satyawati Vihar, Karauli - RSPCB",27-03-2024 19:00:00,26.506177,77.025989,OZONE,5,58,43
India,Rajasthan,Kota,"Dhanmandi, Kota - RSPCB",27-03-2024 19:00:00,25.164090,75.858137,OZONE,4,124,88
India,Rajasthan,Kota,"Nayapura, Kota - RSPCB",27-03-2024 19:00:00,25.196024,75.855668,PM2.5,29,174,79
India,Rajasthan,Kota,"Nayapura, Kota - RSPCB",27-03-2024 19:00:00,25.196024,75.855668,PM10,92,224,140
India,Rajasthan,Kota,"Nayapura, Kota - RSPCB",27-03-2024 19:00:00,25.196024,75.855668,NO2,19,99,61
India,Rajasthan,Kota,"Nayapura, Kota - RSPCB",27-03-2024 19:00:00,25.196024,75.855668,SO2,5,18,9
India,Rajasthan,Kota,"Nayapura, Kota - RSPCB",27-03-2024 19:00:00,25.196024,75.855668,CO,20,100,30
India,Rajasthan,Kota,"Shrinath Puram, Kota - RSPCB",27-03-2024 19:00:00,25.14389,75.821256,PM2.5,61,205,117
India,Rajasthan,Kota,"Shrinath Puram, Kota - RSPCB",27-03-2024 19:00:00,25.14389,75.821256,NH3,4,6,5
India,Rajasthan,Kota,"Shrinath Puram, Kota - RSPCB",27-03-2024 19:00:00,25.14389,75.821256,SO2,7,16,10
India,Rajasthan,Pali,"Indira Colony Vistar, Pali - RSPCB",27-03-2024 19:00:00,25.771061, 73.340227,PM2.5,67,288,129
India,Rajasthan,Pali,"Indira Colony Vistar, Pali - RSPCB",27-03-2024 19:00:00,25.771061, 73.340227,NO2,13,41,26
India,Rajasthan,Pali,"Indira Colony Vistar, Pali - RSPCB",27-03-2024 19:00:00,25.771061, 73.340227,SO2,8,11,9
India,Rajasthan,Pratapgarh,"Pragati Nagar, Pratapgarh - RSPCB",27-03-2024 19:00:00,24.041198,74.780702,SO2,6,20,10
India,Rajasthan,Rajsamand,"Dhoinda, Rajsamand - RSPCB",27-03-2024 19:00:00,25.036360,73.883502,NH3,5,7,6
India,Rajasthan,Rajsamand,"Dhoinda, Rajsamand - RSPCB",27-03-2024 19:00:00,25.036360,73.883502,CO,50,100,58
India,Rajasthan,Sawai Madhopur,"Sahu Nagar, Sawai Madhopur - RSPCB",27-03-2024 19:00:00,26.031443,76.359327,OZONE,9,126,109
India,Rajasthan,Sikar,"Radhakishan Pura, Sikar - RSPCB",27-03-2024 19:00:00,27.608912,75.153302,PM10,NA,NA,NA
India,Rajasthan,Sikar,"Radhakishan Pura, Sikar - RSPCB",27-03-2024 19:00:00,27.608912,75.153302,CO,18,81,31
India,Rajasthan,Sirohi,"Vedhaynath Colony, Sirohi - RSPCB",27-03-2024 19:00:00,24.885261,72.857549,SO2,4,10,8
India,Rajasthan,Sri Ganganagar,"Old City, Sri Ganganagar - RSPCB",27-03-2024 19:00:00,29.931624,73.864511,NH3,5,16,11
India,Sikkim,Gangtok,"Zero Point GICI, Gangtok - SSPCB",27-03-2024 19:00:00,27.338530,88.614099,SO2,NA,NA,NA
India,TamilNadu,Ariyalur,"Keelapalur, Ariyalur - TNPCB",27-03-2024 19:00:00,11.06825,79.07033,PM10,27,52,36
India,TamilNadu,Ariyalur,"Keelapalur, Ariyalur - TNPCB",27-03-2024 19:00:00,11.06825,79.07033,SO2,29,37,35
India,TamilNadu,Chengalpattu,"Crescent University, Chengalpattu - TNPCB",27-03-2024 19:00:00,12.8777316,80.0834807,PM10,NA,NA,NA
India,TamilNadu,Chennai,"Alandur Bus Depot, Chennai - CPCB",27-03-2024 19:00:00,12.9099161,80.1076538,PM2.5,46,65,53
India,TamilNadu,Chennai,"Alandur Bus Depot, Chennai - CPCB",27-03-2024 19:00:00,12.9099161,80.1076538,NH3,1,13,4
India,TamilNadu,Chennai,"Alandur Bus Depot, Chennai - CPCB",27-03-2024 19:00:00,12.9099161,80.1076538,CO,64,105,74
India,TamilNadu,Chennai,"Alandur Bus Depot, Chennai - CPCB",27-03-2024 19:00:00,12.9099161,80.1076538,OZONE,4,11,8
India,TamilNadu,Chennai,"Arumbakkam, Chennai - TNPCB",27-03-2024 19:00:00,13.0664,80.2112 ,PM10,NA,NA,NA
India,TamilNadu,Chennai,"Arumbakkam, Chennai - TNPCB",27-03-2024 19:00:00,13.0664,80.2112 ,SO2,NA,NA,NA
India,TamilNadu,Chennai,"Kodungaiyur, Chennai - TNPCB",27-03-2024 19:00:00,13.1278,80.2642,CO,6,45,29
India,TamilNadu,Chennai,"Manali, Chennai - CPCB",27-03-2024 19:00:00,13.164544,80.26285,PM10,29,85,47
India,TamilNadu,Chennai,"Perungudi, Chennai - TNPCB",27-03-2024 19:00:00,12.9533,80.2357,NO2,3,13,6
India,TamilNadu,Chennai,"Royapuram, Chennai - TNPCB",27-03-2024 19:00:00,13.1036,80.2909,NO2,9,32,18
India,TamilNadu,Chennai,"Velachery Res. Area, Chennai - CPCB",27-03-2024 19:00:00,13.0052189,80.2398125,PM2.5,38,68,49
India,TamilNadu,Chennai,"Velachery Res. Area, Chennai - CPCB",27-03-2024 19:00:00,13.0052189,80.2398125,CO,10,105,64
India,TamilNadu,Cuddalore,"Semmandalam, Cuddalore - TNPCB",27-03-2024 19:00:00,11.7637683,79.7499835,PM2.5,12,70,27
India,TamilNadu,Kanchipuram,"Kilambi, Kanchipuram - TNPCB",27-03-2024 19:00:00,12.864618,79.659968,SO2,NA,NA,NA
India,TamilNadu,Palkalaiperur,"Bharathidasan University, Palkalaiperur - TNPCB",27-03-2024 19:00:00,10.681158,78.741746,PM10,12,53,31
India,TamilNadu,Palkalaiperur,"Bharathidasan University, Palkalaiperur - TNPCB",27-03-2024 19:00:00,10.681158,78.741746,SO2,27,29,28
India,TamilNadu,Ramanathapuram,"Chalai Bazaar, Ramanathapuram - TNPCB",27-03-2024 19:00:00,9.36399,78.831977,SO2,6,9,8
India,TamilNadu,Ramanathapuram,"Chalai Bazaar, Ramanathapuram - TNPCB",27-03-2024 19:00:00,9.36399,78.831977,CO,2,10,5
India,TamilNadu,Salem,"Sona College of Technology, Salem - TNPCB",27-03-2024 19:00:00,11.679111,78.125052,PM2.5,NA,NA,NA
India,TamilNadu,Salem,"Sona College of Technology, Salem - TNPCB",27-03-2024 19:00:00,11.679111,78.125052,PM10,NA,NA,NA
India,TamilNadu,Salem,"Sona College of Technology, Salem - TNPCB",27-03-2024 19:00:00,11.679111,78.125052,NO2,NA,NA,NA
India,TamilNadu,Salem,"Sona College of Technology, Salem - TNPCB",27-03-2024 19:00:00,11.679111,78.125052,SO2,NA,NA,NA
India,TamilNadu,Thoothukudi,"Meelavittan, Thoothukudi - TNPCB",27-03-2024 19:00:00,8.816428 ,78.099039,SO2,3,20,13
India,TamilNadu,Thoothukudi,"Meelavittan, Thoothukudi - TNPCB",27-03-2024 19:00:00,8.816428 ,78.099039,OZONE,2,12,7
India,TamilNadu,Virudhunagar,"Collectorate Office, Virudhunagar - TNPCB",27-03-2024 19:00:00,9.559382,77.948828,SO2,NA,NA,NA
India,Telangana,Hyderabad,"Central University, Hyderabad - TSPCB",27-03-2024 19:00:00,17.460103,78.334361,NH3,3,7,4
India,Telangana,Hyderabad,"Kompally Municipal Office, Hyderabad - TSPCB",27-03-2024 19:00:00,17.544899,78.486949,CO,12,46,20
India,Telangana,Hyderabad,"Nacharam_TSIIC IALA, Hyderabad - TSPCB",27-03-2024 19:00:00,17.429398,78.569354,PM10,63,80,71
India,Telangana,Hyderabad,"Nacharam_TSIIC IALA, Hyderabad - TSPCB",27-03-2024 19:00:00,17.429398,78.569354,NO2,11,13,12
India,Telangana,Hyderabad,"New Malakpet, Hyderabad - TSPCB",27-03-2024 19:00:00,17.37206,78.50864,SO2,8,20,15
India,Telangana,Hyderabad,"Ramachandrapuram, Hyderabad - TSPCB",27-03-2024 19:00:00,17.528544,78.286195,PM2.5,NA,NA,NA
India,Telangana,Hyderabad,"Ramachandrapuram, Hyderabad - TSPCB",27-03-2024 19:00:00,17.528544,78.286195,CO,22,35,24
India,Telangana,Hyderabad,"Ramachandrapuram, Hyderabad - TSPCB",27-03-2024 19:00:00,17.528544,78.286195,OZONE,18,73,52
India,Telangana,Hyderabad,"Zoo Park, Hyderabad - TSPCB",27-03-2024 19:00:00,17.349694,78.451437,PM10,70,156,131
India,Tripura,Agartala,"Bardowali, Agartala - Tripura SPCB",27-03-2024 19:00:00,23.8175497,91.2726974,NO2,5,13,9
India,Uttar_Pradesh,Agra,"Rohta, Agra - UPPCB",27-03-2024 19:00:00,27.106972,78.000111,NO2,2,2,2
India,Uttar_Pradesh,Agra,"Rohta, Agra - UPPCB",27-03-2024 19:00:00,27.106972,78.000111,SO2,5,13,8
India,Uttar_Pradesh,Agra,"Rohta, Agra - UPPCB",27-03-2024 19:00:00,27.106972,78.000111,OZONE,15,18,15
India,Uttar_Pradesh,Agra,"Sanjay Palace, Agra - UPPCB",27-03-2024 19:00:00,27.19865833,78.00598056,PM10,14,77,53
India,Uttar_Pradesh,Agra,"Sector-3B Avas Vikas Colony, Agra - UPPCB",27-03-2024 19:00:00,27.19412,77.96237,PM2.5,5,56,33
India,Uttar_Pradesh,Agra,"Sector-3B Avas Vikas Colony, Agra - UPPCB",27-03-2024 19:00:00,27.19412,77.96237,NO2,NA,NA,NA
India,Uttar_Pradesh,Agra,"Sector-3B Avas Vikas Colony, Agra - UPPCB",27-03-2024 19:00:00,27.19412,77.96237,CO,5,40,12
India,Uttar_Pradesh,Agra,"Shahjahan Garden, Agra - UPPCB",27-03-2024 19:00:00,27.169338,78.03582,PM2.5,NA,NA,NA
India,Uttar_Pradesh,Agra,"Shahjahan Garden, Agra - UPPCB",27-03-2024 19:00:00,27.169338,78.03582,NH3,NA,NA,NA
India,Uttar_Pradesh,Agra,"Shahjahan Garden, Agra - UPPCB",27-03-2024 19:00:00,27.169338,78.03582,CO,13,30,16
India,Uttar_Pradesh,Agra,"Shastripuram, Agra - UPPCB",27-03-2024 19:00:00,27.19862,77.92066,PM10,18,159,103
India,Uttar_Pradesh,Bareilly,"Civil Lines, Bareilly - UPPCB",27-03-2024 19:00:00,28.359581,79.414455,PM2.5,NA,NA,NA
India,Uttar_Pradesh,Bareilly,"Civil Lines, Bareilly - UPPCB",27-03-2024 19:00:00,28.359581,79.414455,NO2,NA,NA,NA
India,Uttar_Pradesh,Bareilly,"Rajendra Nagar, Bareilly - UPPCB",27-03-2024 19:00:00,28.38910936,79.42963708,PM2.5,21,53,37
India,Uttar_Pradesh,Bareilly,"Rajendra Nagar, Bareilly - UPPCB",27-03-2024 19:00:00,28.38910936,79.42963708,PM10,47,96,71
India,Uttar_Pradesh,Bulandshahr,"Yamunapuram, Bulandshahr - UPPCB",27-03-2024 19:00:00,28.406963,77.849831,PM2.5,34,190,78
India,Uttar_Pradesh,Bulandshahr,"Yamunapuram, Bulandshahr - UPPCB",27-03-2024 19:00:00,28.406963,77.849831,NO2,17,92,49
India,Uttar_Pradesh,Bulandshahr,"Yamunapuram, Bulandshahr - UPPCB",27-03-2024 19:00:00,28.406963,77.849831,CO,26,62,32
India,Uttar_Pradesh,Firozabad,"Nagla Bhau, Firozabad - UPPCB",27-03-2024 19:00:00,27.168897,78.376960,SO2,15,28,20
India,Uttar_Pradesh,Firozabad,"Vibhab Nagar, Firozabad - UPPCB",27-03-2024 19:00:00,27.1594,78.3953,NH3,2,2,2
India,Uttar_Pradesh,Firozabad,"Vibhab Nagar, Firozabad - UPPCB",27-03-2024 19:00:00,27.1594,78.3953,CO,17,34,22
India,Uttar_Pradesh,Ghaziabad,"Indirapuram, Ghaziabad - UPPCB",27-03-2024 19:00:00,28.646233,77.358075,CO,4,92,21
India,Uttar_Pradesh,Ghaziabad,"Loni, Ghaziabad - UPPCB",27-03-2024 19:00:00,28.757294,77.278792,NH3,2,7,4
India,Uttar_Pradesh,Ghaziabad,"Sanjay Nagar, Ghaziabad - UPPCB",27-03-2024 19:00:00,28.685382,77.453839,SO2,18,74,30
India,Uttar_Pradesh,Ghaziabad,"Vasundhara, Ghaziabad - UPPCB",27-03-2024 19:00:00,28.6603346,77.3572563,PM10,82,162,119
India,Uttar_Pradesh,Ghaziabad,"Vasundhara, Ghaziabad - UPPCB",27-03-2024 19:00:00,28.6603346,77.3572563,CO,10,120,44
India,Uttar_Pradesh,Gorakhpur,"Madan Mohan Malaviya University of Technology, Gorakhpur - UPPCB",27-03-2024 19:00:00,26.730136,83.433859,PM2.5,38,154,64
India,Uttar_Pradesh,Gorakhpur,"Madan Mohan Malaviya University of Technology, Gorakhpur - UPPCB",27-03-2024 19:00:00,26.730136,83.433859,NO2,2,2,2
India,Uttar_Pradesh,Gorakhpur,"Madan Mohan Malaviya University of Technology, Gorakhpur - UPPCB",27-03-2024 19:00:00,26.730136,83.433859,OZONE,5,50,43
India,Uttar_Pradesh,Greater Noida,"Knowledge Park - III, Greater Noida - UPPCB",27-03-2024 19:00:00,28.47272,77.482000,NO2,36,114,63
India,Uttar_Pradesh,Greater Noida,"Knowledge Park - V, Greater Noida - UPPCB",27-03-2024 19:00:00,28.557054,77.453663,PM10,112,339,194
India,Uttar_Pradesh,Greater Noida,"Knowledge Park - V, Greater Noida - UPPCB",27-03-2024 19:00:00,28.557054,77.453663,NO2,46,60,54
India,Uttar_Pradesh,Greater Noida,"Knowledge Park - V, Greater Noida - UPPCB",27-03-2024 19:00:00,28.557054,77.453663,NH3,4,6,5
India,Uttar_Pradesh,Hapur,"Anand Vihar, Hapur - UPPCB",27-03-2024 19:00:00,28.725645,77.749675,NO2,NA,NA,NA
India,Uttar_Pradesh,Hapur,"Anand Vihar, Hapur - UPPCB",27-03-2024 19:00:00,28.725645,77.749675,NH3,NA,NA,NA
India,Uttar_Pradesh,Jhansi,"Shivaji Nagar, Jhansi - UPPCB",27-03-2024 19:00:00,25.4547,78.6039,PM2.5,12,55,31
India,Uttar_Pradesh,Kanpur,"FTI Kidwai Nagar, Kanpur - UPPCB",27-03-2024 19:00:00,26.428282,80.327067,PM10,69,375,121
India,Uttar_Pradesh,Kanpur,"FTI Kidwai Nagar, Kanpur - UPPCB",27-03-2024 19:00:00,26.428282,80.327067,NH3,3,4,3
India,Uttar_Pradesh,Kanpur,"Nehru Nagar, Kanpur - UPPCB",27-03-2024 19:00:00,26.4703136,80.3229863,PM10,21,100,55
India,Uttar_Pradesh,Kanpur,"Nehru Nagar, Kanpur - UPPCB",27-03-2024 19:00:00,26.4703136,80.3229863,OZONE,1,12,2
India,Uttar_Pradesh,Khurja,"Kalindi Kunj, Khurja - UPPCB",27-03-2024 19:00:00,28.2348927,77.8683002,NO2,3,4,3
India,Uttar_Pradesh,Lucknow,"B R Ambedkar University, Lucknow - UPPCB",27-03-2024 19:00:00,26.766433,80.927299,PM10,83,145,110
India,Uttar_Pradesh,Lucknow,"Gomti Nagar, Lucknow - UPPCB",27-03-2024 19:00:00,26.868120,81.005119,OZONE,51,76,58
India,Uttar_Pradesh,Lucknow,"Kendriya Vidyalaya, Lucknow - CPCB",27-03-2024 19:00:00,26.906111,80.948222,PM10,87,141,111
India,Uttar_Pradesh,Lucknow,"Kendriya Vidyalaya, Lucknow - CPCB",27-03-2024 19:00:00,26.906111,80.948222,CO,4,102,31
India,Uttar_Pradesh,Lucknow,"Kendriya Vidyalaya, Lucknow - CPCB",27-03-2024 19:00:00,26.906111,80.948222,OZONE,5,75,60
India,Uttar_Pradesh,Lucknow,"Kukrail Picnic Spot-1, Lucknow - UPPCB",27-03-2024 19:00:00,26.90723,80.98579,PM2.5,47,263,104
India,Uttar_Pradesh,Lucknow,"Lalbagh, Lucknow - CPCB",27-03-2024 19:00:00,26.8458805,80.9365541,NH3,11,15,13
India,Uttar_Pradesh,Lucknow,"Talkatora District Industries Center, Lucknow - CPCB",27-03-2024 19:00:00,26.83399722,80.8917361,PM10,74,300,142
India,Uttar_Pradesh,Lucknow,"Talkatora District Industries Center, Lucknow - CPCB",27-03-2024 19:00:00,26.83399722,80.8917361,CO,1,82,26
India,Uttar_Pradesh,Lucknow,"Talkatora District Industries Center, Lucknow - CPCB",27-03-2024 19:00:00,26.83399722,80.8917361,OZONE,2,80,50
India,Uttar_Pradesh,Meerut,"Ganga Nagar, Meerut - UPPCB",27-03-2024 19:00:00,28.999264,77.7590354,SO2,12,28,20
India,Uttar_Pradesh,Meerut,"Ganga Nagar, Meerut - UPPCB",27-03-2024 19:00:00,28.999264,77.7590354,CO,30,64,35
India,Uttar_Pradesh,Meerut,"Jai Bhim Nagar, Meerut - UPPCB",27-03-2024 19:00:00,28.9535882,77.7622941,PM2.5,28,92,59
India,Uttar_Pradesh,Meerut,"Jai Bhim Nagar, Meerut - UPPCB",27-03-2024 19:00:00,28.9535882,77.7622941,NO2,13,52,29
India,Uttar_Pradesh,Meerut,"Jai Bhim Nagar, Meerut - UPPCB",27-03-2024 19:00:00,28.9535882,77.7622941,SO2,14,25,18
India,Uttar_Pradesh,Meerut,"Pallavpuram Phase 2, Meerut - UPPCB",27-03-2024 19:00:00,29.063510,77.709723,PM10,80,135,110
India,Uttar_Pradesh,Meerut,"Pallavpuram Phase 2, Meerut - UPPCB",27-03-2024 19:00:00,29.063510,77.709723,CO,49,70,56
India,Uttar_Pradesh,Moradabad,"Jigar Colony, Moradabad - UPPCB",27-03-2024 19:00:00,28.856664,78.772638,SO2,1,12,4
India,Uttar_Pradesh,Moradabad,"Jigar Colony, Moradabad - UPPCB",27-03-2024 19:00:00,28.856664,78.772638,CO,14,48,35
India,Uttar_Pradesh,Moradabad,"Transport Nagar, Moradabad - UPPCB",27-03-2024 19:00:00,28.802625,78.753728,PM10,68,131,97
India,Uttar_Pradesh,Moradabad,"Transport Nagar, Moradabad - UPPCB",27-03-2024 19:00:00,28.802625,78.753728,NO2,13,27,20
India,Uttar_Pradesh,Noida,"Sector - 125, Noida - UPPCB",27-03-2024 19:00:00,28.5447608,77.3231257,PM2.5,32,138,81
India,Uttar_Pradesh,Noida,"Sector - 125, Noida - UPPCB",27-03-2024 19:00:00,28.5447608,77.3231257,OZONE,6,134,84
India,Uttar_Pradesh,Noida,"Sector - 62, Noida - IMD",27-03-2024 19:00:00,28.6245479,77.3577104,CO,57,98,65
India,Uttar_Pradesh,Noida,"Sector-1, Noida - UPPCB",27-03-2024 19:00:00,28.5898,77.3101,PM2.5,27,225,121
India,Uttar_Pradesh,Noida,"Sector-1, Noida - UPPCB",27-03-2024 19:00:00,28.5898,77.3101,NH3,1,5,3
India,Uttar_Pradesh,Noida,"Sector-116, Noida - UPPCB",27-03-2024 19:00:00,28.569230,77.393848,NO2,24,120,61
India,Uttar_Pradesh,Prayagraj,"Motilal Nehru NIT, Prayagraj - UPPCB",27-03-2024 19:00:00,25.494,81.863,CO,9,54,15
India,Uttar_Pradesh,Prayagraj,"Nagar Nigam, Prayagraj - UPPCB",27-03-2024 19:00:00,25.44919916 ,81.82735986 ,PM10,23,161,93
India,Uttar_Pradesh,Prayagraj,"Nagar Nigam, Prayagraj - UPPCB",27-03-2024 19:00:00,25.44919916 ,81.82735986 ,NO2,5,5,5
India,Uttar_Pradesh,Varanasi,"Ardhali Bazar, Varanasi - UPPCB",27-03-2024 19:00:00,25.3505986,82.9083074,CO,1,18,10
India,Uttar_Pradesh,Varanasi,"Bhelupur, Varanasi - UPPCB",27-03-2024 19:00:00,25.301778,82.996789,PM2.5,4,21,12
India,Uttar_Pradesh,Varanasi,"IESD Banaras Hindu University, Varanasi - UPPCB",27-03-2024 19:00:00,25.262326,82.995408,PM2.5,NA,NA,NA
India,Uttar_Pradesh,Varanasi,"IESD Banaras Hindu University, Varanasi - UPPCB",27-03-2024 19:00:00,25.262326,82.995408,NH3,1,3,2
India,Uttar_Pradesh,Varanasi,"Maldahiya, Varanasi - UPPCB",27-03-2024 19:00:00,25.32393,82.99687,CO,12,123,22
India,Uttar_Pradesh,Vrindavan,"Omex Eternity, Vrindavan - UPPCB",27-03-2024 19:00:00,27.5714090,77.6557570,CO,28,76,41
India,Uttarakhand,Dehradun,"Doon University, Dehradun - UKPCB",27-03-2024 19:00:00,30.269444,78.044167,NO2,1,5,2
India,Uttarakhand,Dehradun,"Doon University, Dehradun - UKPCB",27-03-2024 19:00:00,30.269444,78.044167,CO,40,57,44
India,Uttarakhand,Kashipur,"Govt. Girls Inter College, Kashipur - UKPCB",27-03-2024 19:00:00,29.2124114,78.9611753,PM10,69,108,91
India,Uttarakhand,Rishikesh,"Shivaji Nagar, Rishikesh - UKPCB",27-03-2024 19:00:00,30.075911,78.2859547,OZONE,16,115,92
India,West_Bengal,Asansol,"Asansol Court Area, Asansol - WBPCB",27-03-2024 19:00:00,23.685297,86.945968,PM10,106,128,115
India,West_Bengal,Durgapur,"Sidhu Kanhu Indoor Stadium, Durgapur - WBPCB",27-03-2024 19:00:00,23.5404352,87.2892225,NO2,16,42,22
India,West_Bengal,Durgapur,"Sidhu Kanhu Indoor Stadium, Durgapur - WBPCB",27-03-2024 19:00:00,23.5404352,87.2892225,CO,24,78,37
India,West_Bengal,Haldia,"Priyambada Housing Estate, Haldia - WBPCB",27-03-2024 19:00:00,22.06047,88.109737,NO2,10,18,13
India,West_Bengal,Haldia,"Priyambada Housing Estate, Haldia - WBPCB",27-03-2024 19:00:00,22.06047,88.109737,SO2,9,20,13
India,West_Bengal,Haldia,"Priyambada Housing Estate, Haldia - WBPCB",27-03-2024 19:00:00,22.06047,88.109737,CO,16,32,18
India,West_Bengal,Howrah,"Belur Math, Howrah - WBPCB",27-03-2024 19:00:00,22.629801,88.352017,NO2,8,20,12
India,West_Bengal,Howrah,"Belur Math, Howrah - WBPCB",27-03-2024 19:00:00,22.629801,88.352017,CO,4,18,14
India,West_Bengal,Howrah,"Ghusuri, Howrah - WBPCB",27-03-2024 19:00:00,22.611968,88.347422,PM10,54,149,79
India,West_Bengal,Howrah,"Ghusuri, Howrah - WBPCB",27-03-2024 19:00:00,22.611968,88.347422,NH3,3,3,3
India,West_Bengal,Howrah,"Ghusuri, Howrah - WBPCB",27-03-2024 19:00:00,22.611968,88.347422,OZONE,14,28,23
India,West_Bengal,Howrah,"Padmapukur, Howrah - WBPCB",27-03-2024 19:00:00,22.5687319,88.2797276,CO,6,48,33
India,West_Bengal,Kolkata,"Ballygunge, Kolkata - WBPCB",27-03-2024 19:00:00,22.5367507,88.3638022,PM2.5,30,79,50
India,West_Bengal,Kolkata,"Ballygunge, Kolkata - WBPCB",27-03-2024 19:00:00,22.5367507,88.3638022,SO2,1,24,7
India,West_Bengal,Kolkata,"Bidhannagar, Kolkata - WBPCB",27-03-2024 19:00:00,22.58157048,88.41002457,PM10,43,99,64
India,West_Bengal,Kolkata,"Fort William, Kolkata - WBPCB",27-03-2024 19:00:00,22.556640,88.342674,OZONE,26,51,44
India,West_Bengal,Kolkata,"Jadavpur, Kolkata - WBPCB",27-03-2024 19:00:00,22.49929,88.36917,PM10,37,73,51
India,West_Bengal,Kolkata,"Jadavpur, Kolkata - WBPCB",27-03-2024 19:00:00,22.49929,88.36917,SO2,4,10,6
India,West_Bengal,Kolkata,"Victoria, Kolkata - WBPCB",27-03-2024 19:00:00,22.5448082,88.3403691,PM2.5,28,126,50
India,West_Bengal,Kolkata,"Victoria, Kolkata - WBPCB",27-03-2024 19:00:00,22.5448082,88.3403691,CO,13,32,26
India,West_Bengal,Siliguri,"Ward-32 Bapupara, Siliguri - WBPCB",27-03-2024 19:00:00,26.6879226,88.4152495,PM2.5,21,38,29
India,Andhra_Pradesh,Amaravati,"Secretariat, Amaravati - APPCB",27-03-2024 19:00:00,16.5150833,80.5181667,OZONE,6,35,30
India,Andhra_Pradesh,Anantapur,"Gulzarpet, Anantapur - APPCB",27-03-2024 19:00:00,14.675886,77.593027,PM2.5,17,79,42
India,Andhra_Pradesh,Anantapur,"Gulzarpet, Anantapur - APPCB",27-03-2024 19:00:00,14.675886,77.593027,OZONE,7,61,52
India,Andhra_Pradesh,Kadapa,"Yerramukkapalli, Kadapa - APPCB",27-03-2024 19:00:00,14.465052,78.824187,NO2,8,8,8
India,Andhra_Pradesh,Rajamahendravaram,"Anand Kala Kshetram, Rajamahendravaram - APPCB",27-03-2024 19:00:00,16.9872867,81.7363176,PM2.5,15,62,37
India,Andhra_Pradesh,Tirupati,"Tirumala, Tirupati - APPCB",27-03-2024 19:00:00,13.67,79.35,PM2.5,20,64,36
India,Andhra_Pradesh,Tirupati,"Tirumala, Tirupati - APPCB",27-03-2024 19:00:00,13.67,79.35,NO2,16,44,25
India,Andhra_Pradesh,Tirupati,"Vaikuntapuram, Tirupati - APPCB",27-03-2024 19:00:00,13.615387,79.409230,PM10,13,84,42
India,Andhra_Pradesh,Vijayawada,"Rajiv Gandhi Park, Vijayawada - APPCB",27-03-2024 19:00:00,16.509717,80.612222,PM2.5,41,61,49
India,Andhra_Pradesh,Vijayawada,"Rajiv Gandhi Park, Vijayawada - APPCB",27-03-2024 19:00:00,16.509717,80.612222,NO2,3,54,34
India,Andhra_Pradesh,Vijayawada,"Rajiv Nagar, Vijayawada - APPCB",27-03-2024 19:00:00,16.554731,80.649110,CO,37,37,37
India,Andhra_Pradesh,Visakhapatnam,"GVM Corporation, Visakhapatnam - APPCB",27-03-2024 19:00:00,17.72,83.3,NO2,34,56,43
India,Andhra_Pradesh,Visakhapatnam,"GVM Corporation, Visakhapatnam - APPCB",27-03-2024 19:00:00,17.72,83.3,OZONE,4,61,29
India,Assam,Byrnihat,"Central Academy for SFS, Byrnihat - PCBA",27-03-2024 19:00:00,26.071318,91.87488,SO2,6,18,12
India,Assam,Guwahati,"LGBI Airport, Guwahati - PCBA",27-03-2024 19:00:00,26.10887,91.589544,NO2,13,38,21
India,Assam,Guwahati,"LGBI Airport, Guwahati - PCBA",27-03-2024 19:00:00,26.10887,91.589544,CO,14,94,58
India,Assam,Guwahati,"Pan Bazaar, Guwahati - PCBA",27-03-2024 19:00:00,26.187500,91.744194,NO2,NA,NA,NA
India,Assam,Nagaon,"Christianpatty, Nagaon - PCBA",27-03-2024 19:00:00,26.349082,92.68449,PM2.5,52,98,63
India,Assam,Nagaon,"Christianpatty, Nagaon - PCBA",27-03-2024 19:00:00,26.349082,92.68449,NO2,10,47,18
India,Assam,Nagaon,"Christianpatty, Nagaon - PCBA",27-03-2024 19:00:00,26.349082,92.68449,SO2,4,89,20
India,Assam,Nagaon,"Christianpatty, Nagaon - PCBA",27-03-2024 19:00:00,26.349082,92.68449,CO,26,70,43
India,Assam,Nalbari,"Bata Chowk, Nalbari - PCBA",27-03-2024 19:00:00,26.446912,91.439057,PM2.5,17,72,36
India,Assam,Silchar,"Tarapur, Silchar - PCBA",27-03-2024 19:00:00,24.82827,92.79525,PM2.5,17,29,24
India,Assam,Silchar,"Tarapur, Silchar - PCBA",27-03-2024 19:00:00,24.82827,92.79525,SO2,4,19,11
India,Assam,Silchar,"Tarapur, Silchar - PCBA",27-03-2024 19:00:00,24.82827,92.79525,OZONE,3,13,4
India,Assam,Sivasagar,"Girls College, Sivasagar - PCBA",27-03-2024 19:00:00,26.987634,94.636574,CO,4,9,6
India,Bihar,Araria,"Kharahiya Basti, Araria - BSPCB",27-03-2024 19:00:00,26.146529,87.454184,NH3,6,7,7
India,Bihar,Araria,"Kharahiya Basti, Araria - BSPCB",27-03-2024 19:00:00,26.146529,87.454184,CO,20,29,27
India,Bihar,Arrah,"New DM Office, Arrah - BSPCB",27-03-2024 19:00:00,25.5626095,84.663264,SO2,15,22,19
India,Bihar,Arrah,"New DM Office, Arrah - BSPCB",27-03-2024 19:00:00,25.5626095,84.663264,CO,2,16,7
India,Bihar,Aurangabad,"Gurdeo Nagar, Aurangabad - BSPCB",27-03-2024 19:00:00,24.75746,84.366208,PM10,34,88,56
India,Bihar,Aurangabad,"Gurdeo Nagar, Aurangabad - BSPCB",27-03-2024 19:00:00,24.75746,84.366208,NO2,3,5,5
India,Bihar,Aurangabad,"Gurdeo Nagar, Aurangabad - BSPCB",27-03-2024 19:00:00,24.75746,84.366208,CO,40,70,64
India,Bihar,Bhagalpur,"DM Office_Kachari Chowk, Bhagalpur - BSPCB",27-03-2024 19:00:00,25.251013,86.989001,PM2.5,NA,NA,NA
India,Bihar,Bhagalpur,"Mayaganj, Bhagalpur - BSPCB",27-03-2024 19:00:00,25.265194,87.012947,SO2,11,12,12
India,Bihar,Bhagalpur,"Mayaganj, Bhagalpur - BSPCB",27-03-2024 19:00:00,25.265194,87.012947,CO,8,10,9
India,Bihar,Bhagalpur,"Mayaganj, Bhagalpur - BSPCB",27-03-2024 19:00:00,25.265194,87.012947,OZONE,11,20,15
India,Bihar,Bihar Sharif,"D M Colony, Bihar Sharif - BSPCB",27-03-2024 19:00:00,25.204762,85.514960,NH3,2,2,2
India,Bihar,Bihar Sharif,"D M Colony, Bihar Sharif - BSPCB",27-03-2024 19:00:00,25.204762,85.514960,OZONE,2,2,2
India,Bihar,Buxar,"Charitra Van, Buxar - BSPCB (Formerly known as Central Jail)",27-03-2024 19:00:00,25.567520,83.966379,PM10,NA,NA,NA
India,Bihar,Buxar,"Charitra Van, Buxar - BSPCB (Formerly known as Central Jail)",27-03-2024 19:00:00,25.567520,83.966379,NH3,1,2,1
India,Bihar,Chhapra,"Darshan Nagar, Chhapra - BSPCB",27-03-2024 19:00:00,25.7808257,84.7446768,CO,28,54,42
India,Bihar,Gaya,"Kareemganj, Gaya - BSPCB",27-03-2024 19:00:00,24.792403,84.992416,CO,4,86,35
India,Bihar,Gaya,"SFTI Kusdihra, Gaya - BSPCB",27-03-2024 19:00:00,24.762518,84.982348,SO2,6,9,8
India,Bihar,Hajipur,"Industrial Area, Hajipur - BSPCB",27-03-2024 19:00:00,25.697189,85.245900,PM10,56,141,86
India,Bihar,Hajipur,"Industrial Area, Hajipur - BSPCB",27-03-2024 19:00:00,25.697189,85.245900,CO,28,46,30
India,Bihar,Katihar,"Mirchaibari, Katihar - BSPCB",27-03-2024 19:00:00,25.560083,87.553265,PM2.5,18,47,25
India,Bihar,Katihar,"Mirchaibari, Katihar - BSPCB",27-03-2024 19:00:00,25.560083,87.553265,OZONE,11,14,13
India,Bihar,Kishanganj,"SDM Office_Khagra, Kishanganj - BSPCB",27-03-2024 19:00:00,26.0881305,87.93840336,PM2.5,NA,NA,NA
India,Bihar,Manguraha,"Forest Rest House, Manguraha - BSPCB",27-03-2024 19:00:00,27.308328,84.531742,PM2.5,20,203,61
India,Bihar,Manguraha,"Forest Rest House, Manguraha - BSPCB",27-03-2024 19:00:00,27.308328,84.531742,NH3,2,5,3
India,Bihar,Manguraha,"Forest Rest House, Manguraha - BSPCB",27-03-2024 19:00:00,27.308328,84.531742,CO,24,78,45
India,Bihar,Motihari,"Gandak Colony, Motihari - BSPCB",27-03-2024 19:00:00,26.63086,84.90051,PM2.5,13,143,41
India,Bihar,Motihari,"Gandak Colony, Motihari - BSPCB",27-03-2024 19:00:00,26.63086,84.90051,SO2,1,11,5
India,Bihar,Motihari,"Gandak Colony, Motihari - BSPCB",27-03-2024 19:00:00,26.63086,84.90051,OZONE,20,40,29
India,Bihar,Munger,"Town Hall, Munger - BSPCB",27-03-2024 19:00:00,25.376776,86.471523,PM10,36,108,79
India,Bihar,Muzaffarpur,"MIT-Daudpur Kothi, Muzaffarpur - BSPCB",27-03-2024 19:00:00,26.1403345,85.3650192,PM2.5,40,147,64
India,Bihar,Muzaffarpur,"MIT-Daudpur Kothi, Muzaffarpur - BSPCB",27-03-2024 19:00:00,26.1403345,85.3650192,PM10,59,156,91
India,Bihar,Muzaffarpur,"MIT-Daudpur Kothi, Muzaffarpur - BSPCB",27-03-2024 19:00:00,26.1403345,85.3650192,OZONE,18,69,51
India,Bihar,Muzaffarpur,"Muzaffarpur Collectorate, Muzaffarpur - BSPCB",27-03-2024 19:00:00,26.1209,85.3647,NO2,7,11,9
India,Bihar,Patna,"DRM Office Danapur, Patna - BSPCB",27-03-2024 19:00:00,25.586562,85.043586,PM2.5,35,92,63
India,Bihar,Patna,"DRM Office Danapur, Patna - BSPCB",27-03-2024 19:00:00,25.586562,85.043586,SO2,6,8,7
India,Bihar,Patna,"Muradpur, Patna - BSPCB",27-03-2024 19:00:00,25.619651,85.147382,PM2.5,82,321,150
India,Bihar,Patna,"Muradpur, Patna - BSPCB",27-03-2024 19:00:00,25.619651,85.147382,OZONE,3,28,21
India,Bihar,Patna,"Rajbansi Nagar, Patna - BSPCB",27-03-2024 19:00:00,25.599486,85.113666,NO2,11,34,16
India,Bihar,Patna,"Rajbansi Nagar, Patna - BSPCB",27-03-2024 19:00:00,25.599486,85.113666,SO2,2,15,5
India,Bihar,Patna,"Rajbansi Nagar, Patna - BSPCB",27-03-2024 19:00:00,25.599486,85.113666,OZONE,5,87,68
India,Bihar,Patna,"Samanpura, Patna - BSPCB",27-03-2024 19:00:00,25.596727,85.085624,SO2,6,7,7
India,Bihar,Purnia,"Mariam Nagar, Purnia - BSPCB",27-03-2024 19:00:00,25.366336,87.117468,PM2.5,15,90,33
India,Bihar,Purnia,"Mariam Nagar, Purnia - BSPCB",27-03-2024 19:00:00,25.366336,87.117468,PM10,28,133,72
India,Bihar,Purnia,"Mariam Nagar, Purnia - BSPCB",27-03-2024 19:00:00,25.366336,87.117468,OZONE,3,18,12
India,Bihar,Rajgir,"Dangi Tola, Rajgir - BSPCB",27-03-2024 19:00:00,25.03280,85.41948,NO2,1,1,1
India,Bihar,Saharsa,"Police Line, Saharsa - BSPCB",27-03-2024 19:00:00,25.892357,86.590325,PM10,29,119,54
India,Bihar,Sasaram,"Dada Peer, Sasaram - BSPCB",27-03-2024 19:00:00,24.952822,84.002396,PM10,28,82,51
India,Bihar,Siwan,"Chitragupta Nagar, Siwan - BSPCB",27-03-2024 19:00:00,26.2271665,84.3570427,CO,11,112,52
India,Chandigarh,Chandigarh,"Sector 22, Chandigarh - CPCC",27-03-2024 19:00:00,30.735567,76.775714,CO,28,60,39
India,Chandigarh,Chandigarh,"Sector-25, Chandigarh - CPCC",27-03-2024 19:00:00,30.751462,76.762879,NH3,13,18,15
India,Chandigarh,Chandigarh,"Sector-25, Chandigarh - CPCC",27-03-2024 19:00:00,30.751462,76.762879,CO,13,36,22
India,Chandigarh,Chandigarh,"Sector-53, Chandigarh - CPCC",27-03-2024 19:00:00,30.719859,76.738637,NO2,9,35,22
India,Chhattisgarh,Bhilai,"32Bungalows, Bhilai - CECB",27-03-2024 19:00:00,21.194815,81.314770,PM10,41,104,71
India,Chhattisgarh,Bhilai,"32Bungalows, Bhilai - CECB",27-03-2024 19:00:00,21.194815,81.314770,NO2,16,39,33
India,Chhattisgarh,Bhilai,"32Bungalows, Bhilai - CECB",27-03-2024 19:00:00,21.194815,81.314770,NH3,6,6,6
India,Chhattisgarh,Bhilai,"Civic Center, Bhilai - Bhilai Steel Plant",27-03-2024 19:00:00,21.185571,81.343175,PM2.5,35,85,58
India,Chhattisgarh,Bilaspur,"Mangala, Bilaspur - NTPC",27-03-2024 19:00:00,22.08815,82.13737,NO2,16,20,18
India,Chhattisgarh,Chhal,"Nawapara SECL Colony, Chhal - CECB",27-03-2024 19:00:00,22.118125,83.140608,NH3,2,2,2
India,Chhattisgarh,Korba,"Rampur, Korba - CECB",27-03-2024 19:00:00,22.368195,82.746431,PM10,23,128,74
India,Chhattisgarh,Korba,"Rampur, Korba - CECB",27-03-2024 19:00:00,22.368195,82.746431,NO2,26,34,30
India,Chhattisgarh,Milupara,"Govt. Higher Secondary School, Milupara - CECB",27-03-2024 19:00:00,22.1910172,83.5197009,NO2,17,48,31
India,Chhattisgarh,Milupara,"Govt. Higher Secondary School, Milupara - CECB",27-03-2024 19:00:00,22.1910172,83.5197009,NH3,1,2,1
India,Chhattisgarh,Raipur,"AIIMS, Raipur - CECB",27-03-2024 19:00:00,21.258815,81.578979,NH3,5,6,5
India,Chhattisgarh,Raipur,"AIIMS, Raipur - CECB",27-03-2024 19:00:00,21.258815,81.578979,CO,26,52,37
India,Chhattisgarh,Raipur,"Bhatagaon New ISBT, Raipur - CECB",27-03-2024 19:00:00,21.219665,81.630094,NO2,57,83,69
India,Chhattisgarh,Raipur,"Bhatagaon New ISBT, Raipur - CECB",27-03-2024 19:00:00,21.219665,81.630094,NH3,2,3,2
India,Chhattisgarh,Raipur,"Siltara Phase-II, Raipur - CECB",27-03-2024 19:00:00,21.371751,81.664929,PM10,54,173,97
India,Chhattisgarh,Raipur,"Siltara Phase-II, Raipur - CECB",27-03-2024 19:00:00,21.371751,81.664929,NH3,3,3,3
India,Chhattisgarh,Tumidih,"OP Jindal Industrial Park, Tumidih - CECB",27-03-2024 19:00:00,22.06631475,83.33820077,CO,26,52,32
India,Delhi,Delhi,"Alipur, Delhi - DPCC",27-03-2024 19:00:00,28.815329,77.153010,PM10,67,222,134
India,Delhi,Delhi,"Alipur, Delhi - DPCC",27-03-2024 19:00:00,28.815329,77.153010,NH3,5,10,6
India,Delhi,Delhi,"Anand Vihar, Delhi - DPCC",27-03-2024 19:00:00,28.647622,77.3158090,OZONE,6,15,10
India,Delhi,Delhi,"Ashok Vihar, Delhi - DPCC",27-03-2024 19:00:00,28.695381,77.181665,SO2,20,47,29
India,Delhi,Delhi,"Ashok Vihar, Delhi - DPCC",27-03-2024 19:00:00,28.695381,77.181665,OZONE,2,4,3
India,Delhi,Delhi,"Aya Nagar, Delhi - IMD",27-03-2024 19:00:00,28.4706914,77.1099364,PM2.5,76,238,149
India,Delhi,Delhi,"Aya Nagar, Delhi - IMD",27-03-2024 19:00:00,28.4706914,77.1099364,OZONE,2,26,20
India,Delhi,Delhi,"Bawana, Delhi - DPCC",27-03-2024 19:00:00,28.776200,77.051074,NO2,14,65,35
India,Delhi,Delhi,"Bawana, Delhi - DPCC",27-03-2024 19:00:00,28.776200,77.051074,CO,34,78,45
India,Delhi,Delhi,"Chandni Chowk, Delhi - IITM",27-03-2024 19:00:00,28.656756,77.227234,NO2,NA,NA,NA
India,Delhi,Delhi,"Chandni Chowk, Delhi - IITM",27-03-2024 19:00:00,28.656756,77.227234,SO2,NA,NA,NA
India,Delhi,Delhi,"Chandni Chowk, Delhi - IITM",27-03-2024 19:00:00,28.656756,77.227234,CO,80,124,94
India,Delhi,Delhi,"DTU, Delhi - CPCB",27-03-2024 19:00:00,28.7500499,77.1112615,PM10,61,334,161
India,Delhi,Delhi,"DTU, Delhi - CPCB",27-03-2024 19:00:00,28.7500499,77.1112615,SO2,29,32,29
India,Delhi,Delhi,"Dr. Karni Singh Shooting Range, Delhi - DPCC",27-03-2024 19:00:00,28.498571,77.264840,SO2,18,34,22
India,Delhi,Delhi,"Dr. Karni Singh Shooting Range, Delhi - DPCC",27-03-2024 19:00:00,28.498571,77.264840,OZONE,1,210,169
India,Delhi,Delhi,"Dwarka-Sector 8, Delhi - DPCC ",27-03-2024 19:00:00,28.5710274,77.0719006,SO2,3,18,10
India,Delhi,Delhi,"ITO, Delhi - CPCB",27-03-2024 19:00:00,28.628624,77.241060,PM10,19,186,125
India,Delhi,Delhi,"ITO, Delhi - CPCB",27-03-2024 19:00:00,28.628624,77.241060,NH3,3,10,6
India,Delhi,Delhi,"ITO, Delhi - CPCB",27-03-2024 19:00:00,28.628624,77.241060,CO,18,110,37
India,Delhi,Delhi,"Jahangirpuri, Delhi - DPCC",27-03-2024 19:00:00,28.732820,77.170633,NH3,2,13,8
India,Delhi,Delhi,"Jahangirpuri, Delhi - DPCC",27-03-2024 19:00:00,28.732820,77.170633,OZONE,1,38,24
India,Delhi,Delhi,"Jawaharlal Nehru Stadium, Delhi - DPCC",27-03-2024 19:00:00,28.580280,77.233829,NO2,33,147,88
India,Delhi,Delhi,"Jawaharlal Nehru Stadium, Delhi - DPCC",27-03-2024 19:00:00,28.580280,77.233829,NH3,5,8,7
India,Delhi,Delhi,"Jawaharlal Nehru Stadium, Delhi - DPCC",27-03-2024 19:00:00,28.580280,77.233829,OZONE,1,253,156
India,Delhi,Delhi,"Major Dhyan Chand National Stadium, Delhi - DPCC",27-03-2024 19:00:00,28.611281,77.237738,PM10,82,152,122
India,Delhi,Delhi,"Major Dhyan Chand National Stadium, Delhi - DPCC",27-03-2024 19:00:00,28.611281,77.237738,CO,30,109,40
India,Delhi,Delhi,"Mandir Marg, Delhi - DPCC",27-03-2024 19:00:00,28.636429,77.201067,PM10,65,143,100
India,Delhi,Delhi,"Mundka, Delhi - DPCC",27-03-2024 19:00:00,28.684678,77.076574,PM2.5,45,411,222
India,Delhi,Delhi,"Mundka, Delhi - DPCC",27-03-2024 19:00:00,28.684678,77.076574,PM10,112,500,252
India,Delhi,Delhi,"Najafgarh, Delhi - DPCC",27-03-2024 19:00:00,28.570173,76.933762,SO2,8,18,14
India,Delhi,Delhi,"Narela, Delhi - DPCC",27-03-2024 19:00:00,28.822836,77.101981,NO2,12,108,51
India,Delhi,Delhi,"Narela, Delhi - DPCC",27-03-2024 19:00:00,28.822836,77.101981,CO,46,92,57
India,Delhi,Delhi,"Narela, Delhi - DPCC",27-03-2024 19:00:00,28.822836,77.101981,OZONE,7,70,52
India,Delhi,Delhi,"Nehru Nagar, Delhi - DPCC",27-03-2024 19:00:00,28.567890,77.250515,PM10,100,182,137
India,Delhi,Delhi,"Nehru Nagar, Delhi - DPCC",27-03-2024 19:00:00,28.567890,77.250515,NO2,8,40,17
India,Delhi,Delhi,"Patparganj, Delhi - DPCC",27-03-2024 19:00:00,28.623763,77.287209,PM10,103,424,178
India,Delhi,Delhi,"Patparganj, Delhi - DPCC",27-03-2024 19:00:00,28.623763,77.287209,NO2,29,66,44
India,Delhi,Delhi,"Punjabi Bagh, Delhi - DPCC",27-03-2024 19:00:00,28.674045,77.131023,CO,12,105,20
India,Delhi,Delhi,"Pusa, Delhi - DPCC",27-03-2024 19:00:00,28.639652,77.146275,OZONE,10,86,56
India,Delhi,Delhi,"Pusa, Delhi - IMD",27-03-2024 19:00:00,28.636110,77.173332,CO,58,102,71
India,Delhi,Delhi,"R K Puram, Delhi - DPCC",27-03-2024 19:00:00,28.563262,77.186937,NH3,1,2,2
India,Delhi,Delhi,"R K Puram, Delhi - DPCC",27-03-2024 19:00:00,28.563262,77.186937,SO2,8,34,21
India,Delhi,Delhi,"Rohini, Delhi - DPCC",27-03-2024 19:00:00,28.732528,77.119920,PM2.5,27,364,144
India,Delhi,Delhi,"Shadipur, Delhi - CPCB",27-03-2024 19:00:00,28.6514781,77.1473105,PM10,124,500,247
India,Delhi,Delhi,"Shadipur, Delhi - CPCB",27-03-2024 19:00:00,28.6514781,77.1473105,OZONE,12,59,27
India,Delhi,Delhi,"Sirifort, Delhi - CPCB",27-03-2024 19:00:00,28.5504249,77.2159377,PM10,8,355,151
India,Delhi,Delhi,"Sonia Vihar, Delhi - DPCC",27-03-2024 19:00:00,28.710508,77.249485,NO2,20,75,50
India,Delhi,Delhi,"Sri Aurobindo Marg, Delhi - DPCC",27-03-2024 19:00:00,28.531346,77.190156,PM2.5,37,273,103
India,Delhi,Delhi,"Sri Aurobindo Marg, Delhi - DPCC",27-03-2024 19:00:00,28.531346,77.190156,CO,4,84,17
India,Delhi,Delhi,"Vivek Vihar, Delhi - DPCC",27-03-2024 19:00:00,28.672342,77.315260,SO2,31,85,43
India,Delhi,Delhi,"Wazirpur, Delhi - DPCC",27-03-2024 19:00:00,28.699793,77.165453,NO2,56,204,120
India,Delhi,Delhi,"Wazirpur, Delhi - DPCC",27-03-2024 19:00:00,28.699793,77.165453,SO2,8,74,35
India,Delhi,Delhi,"Wazirpur, Delhi - DPCC",27-03-2024 19:00:00,28.699793,77.165453,OZONE,4,86,51
India,Gujarat,Ahmedabad,"Maninagar, Ahmedabad - GPCB",27-03-2024 19:00:00,23.002657,72.591912,PM10,75,324,138
India,Gujarat,Ahmedabad,"Maninagar, Ahmedabad - GPCB",27-03-2024 19:00:00,23.002657,72.591912,NO2,26,104,50
India,Gujarat,Ahmedabad,"Maninagar, Ahmedabad - GPCB",27-03-2024 19:00:00,23.002657,72.591912,OZONE,9,142,90
India,Gujarat,Ahmedabad,"Raikhad, Ahmedabad - IITM",27-03-2024 19:00:00,23.020509,72.579261,NH3,1,6,4
India,Gujarat,Ahmedabad,"Raikhad, Ahmedabad - IITM",27-03-2024 19:00:00,23.020509,72.579261,OZONE,6,53,37
India,Gujarat,Ahmedabad,"Rakhial, Ahmedabad - IITM",27-03-2024 19:00:00,23.016834,72.625775,CO,2,83,10
India,Gujarat,Ahmedabad,"SVPI Airport Hansol, Ahmedabad - IITM",27-03-2024 19:00:00,23.076793,72.627874,PM10,NA,NA,NA
India,Gujarat,Ahmedabad,"SVPI Airport Hansol, Ahmedabad - IITM",27-03-2024 19:00:00,23.076793,72.627874,NO2,NA,NA,NA
India,Gujarat,Ahmedabad,"SVPI Airport Hansol, Ahmedabad - IITM",27-03-2024 19:00:00,23.076793,72.627874,OZONE,29,52,43
India,Gujarat,Ahmedabad,"Sardar Vallabhbhai Patel Stadium, Ahmedabad - IITM",27-03-2024 19:00:00,23.043070,72.562968,NO2,7,35,30
India,Gujarat,Ankleshwar,"GIDC, Ankleshwar - GPCB",27-03-2024 19:00:00,21.613267,73.010555,PM2.5,45,74,64
India,Gujarat,Ankleshwar,"GIDC, Ankleshwar - GPCB",27-03-2024 19:00:00,21.613267,73.010555,NO2,35,37,36
India,Gujarat,Gandhinagar,"GIFT City, Gandhinagar - IITM",27-03-2024 19:00:00,23.163798,72.677768,PM2.5,44,138,81
India,Gujarat,Gandhinagar,"GIFT City, Gandhinagar - IITM",27-03-2024 19:00:00,23.163798,72.677768,PM10,59,138,97
India,Gujarat,Gandhinagar,"GIFT City, Gandhinagar - IITM",27-03-2024 19:00:00,23.163798,72.677768,SO2,8,23,11
India,Gujarat,Nandesari,"GIDC, Nandesari - Nandesari Ind. Association",27-03-2024 19:00:00,22.410802,73.097923,PM2.5,81,409,260
India,Gujarat,Surat,"Science Center, Surat - SMC",27-03-2024 19:00:00,21.170046,72.795405,CO,33,66,49
India,Gujarat,Vapi,"Phase-1 GIDC, Vapi - GPCB",27-03-2024 19:00:00,20.362421,72.918013,OZONE,NA,NA,NA
India,Gujarat,Vatva,"Phase-4 GIDC, Vatva - GPCB",27-03-2024 19:00:00,22.969611,72.643500,SO2,14,63,28
India,Gujarat,Vatva,"Phase-4 GIDC, Vatva - GPCB",27-03-2024 19:00:00,22.969611,72.643500,OZONE,7,74,45
India,Haryana,Ambala,"Patti Mehar, Ambala - HSPCB",27-03-2024 19:00:00,30.379589,76.778328,SO2,5,105,31
India,Haryana,Bahadurgarh,"Arya Nagar, Bahadurgarh - HSPCB",27-03-2024 19:00:00,28.6701,76.9254,PM10,81,210,147
India,Haryana,Ballabgarh,"Nathu Colony, Ballabgarh - HSPCB",27-03-2024 19:00:00,28.3419248,77.319699,PM10,91,234,160
India,Haryana,Bhiwani,"H.B. Colony, Bhiwani - HSPCB",27-03-2024 19:00:00,28.806223,76.141105,OZONE,14,86,28
India,Haryana,Dharuhera,"Municipal Corporation Office, Dharuhera -  HSPCB",27-03-2024 19:00:00,28.206800,76.799700,NH3,9,26,19
India,Haryana,Faridabad,"Sector 11, Faridabad - HSPCB",27-03-2024 19:00:00,28.376058,77.315741,PM2.5,211,252,235
India,Haryana,Faridabad,"Sector 11, Faridabad - HSPCB",27-03-2024 19:00:00,28.376058,77.315741,NH3,6,6,6
India,Haryana,Gurugram,"Teri Gram, Gurugram - HSPCB",27-03-2024 19:00:00,28.4275,77.1465,NO2,27,48,38
India,Haryana,Gurugram,"Teri Gram, Gurugram - HSPCB",27-03-2024 19:00:00,28.4275,77.1465,OZONE,13,18,15
India,Haryana,Hisar,"Urban Estate-II, Hisar - HSPCB",27-03-2024 19:00:00,29.140560,75.744941,SO2,13,64,34
India,Haryana,Hisar,"Urban Estate-II, Hisar - HSPCB",27-03-2024 19:00:00,29.140560,75.744941,CO,40,102,60
India,Haryana,Hisar,"Urban Estate-II, Hisar - HSPCB",27-03-2024 19:00:00,29.140560,75.744941,OZONE,42,98,82
India,Haryana,Jind,"Police Lines, Jind - HSPCB",27-03-2024 19:00:00,29.307814,76.337619,PM2.5,28,82,56
India,Haryana,Jind,"Police Lines, Jind - HSPCB",27-03-2024 19:00:00,29.307814,76.337619,PM10,45,93,76
India,Haryana,Kaithal,"Rishi Nagar, Kaithal - HSPCB",27-03-2024 19:00:00,29.8006,76.4155,OZONE,13,28,21
India,Haryana,Karnal,"Sector-12, Karnal - HSPCB",27-03-2024 19:00:00,29.695300,77.002700,PM10,44,74,59
India,Haryana,Kurukshetra,"Sector-7, Kurukshetra - HSPCB",27-03-2024 19:00:00,29.966942,76.875879,PM10,61,100,84
India,Haryana,Kurukshetra,"Sector-7, Kurukshetra - HSPCB",27-03-2024 19:00:00,29.966942,76.875879,SO2,3,132,39
India,Haryana,Mandikhera,"General Hospital, Mandikhera - HSPCB",27-03-2024 19:00:00,27.9002,76.9938,PM2.5,18,81,35
India,Haryana,Mandikhera,"General Hospital, Mandikhera - HSPCB",27-03-2024 19:00:00,27.9002,76.9938,PM10,68,134,106
India,Haryana,Mandikhera,"General Hospital, Mandikhera - HSPCB",27-03-2024 19:00:00,27.9002,76.9938,SO2,29,36,33
India,Haryana,Palwal,"Shyam Nagar, Palwal - HSPCB",27-03-2024 19:00:00,28.1485564,77.3320667,PM10,60,170,97
India,Haryana,Palwal,"Shyam Nagar, Palwal - HSPCB",27-03-2024 19:00:00,28.1485564,77.3320667,NO2,23,24,24
India,Haryana,Palwal,"Shyam Nagar, Palwal - HSPCB",27-03-2024 19:00:00,28.1485564,77.3320667,SO2,10,24,16
India,Haryana,Panipat,"Sector-18, Panipat - HSPCB",27-03-2024 19:00:00,29.497973,76.993331,PM10,63,66,65
India,Haryana,Rohtak,"MD University, Rohtak - HSPCB",27-03-2024 19:00:00,28.52123,76.37138,SO2,5,8,7
India,Haryana,Sirsa,"F-Block, Sirsa - HSPCB",27-03-2024 19:00:00,29.536400,75.015800,PM10,35,104,80
India,Haryana,Sirsa,"F-Block, Sirsa - HSPCB",27-03-2024 19:00:00,29.536400,75.015800,NO2,10,18,11
India,Haryana,Sirsa,"F-Block, Sirsa - HSPCB",27-03-2024 19:00:00,29.536400,75.015800,SO2,1,74,16
India,Haryana,Sirsa,"F-Block, Sirsa - HSPCB",27-03-2024 19:00:00,29.536400,75.015800,OZONE,32,94,60
India,Haryana,Sonipat,"Murthal, Sonipat - HSPCB",27-03-2024 19:00:00,29.027200,77.062100,PM10,9,58,32
India,Haryana,Sonipat,"Murthal, Sonipat - HSPCB",27-03-2024 19:00:00,29.027200,77.062100,NH3,6,10,9
India,Haryana,Sonipat,"Murthal, Sonipat - HSPCB",27-03-2024 19:00:00,29.027200,77.062100,SO2,12,29,20
India,Himachal Pradesh,Baddi,"HIMUDA Complex Phase-1, Baddi - HPPCB",27-03-2024 19:00:00,30.943887,76.801991,PM2.5,18,213,96
India,Himachal Pradesh,Baddi,"HIMUDA Complex Phase-1, Baddi - HPPCB",27-03-2024 19:00:00,30.943887,76.801991,CO,24,58,46
India,Jharkhand,Dhanbad,"Kalakusuma, Dhanbad - DMC",27-03-2024 19:00:00,23.811548,86.481238,SO2,13,35,17
India,Karnataka,Bagalkot,"Vidayagiri, Bagalkot - KSPCB",27-03-2024 19:00:00,16.172806,75.659694,CO,22,50,40
India,Karnataka,Bagalkot,"Vidayagiri, Bagalkot - KSPCB",27-03-2024 19:00:00,16.172806,75.659694,OZONE,25,44,38
India,Karnataka,Bengaluru,"BTM Layout, Bengaluru - CPCB",27-03-2024 19:00:00,12.9135218,77.5950804,PM2.5,29,61,48
India,Karnataka,Bengaluru,"BTM Layout, Bengaluru - CPCB",27-03-2024 19:00:00,12.9135218,77.5950804,OZONE,21,120,81
India,Karnataka,Bengaluru,"Jayanagar 5th Block, Bengaluru - KSPCB",27-03-2024 19:00:00,12.920984,77.584908,SO2,16,29,20
India,Karnataka,Bengaluru,"Jayanagar 5th Block, Bengaluru - KSPCB",27-03-2024 19:00:00,12.920984,77.584908,OZONE,27,28,27
India,Karnataka,Bengaluru,"Jigani, Bengaluru - KSPCB",27-03-2024 19:00:00,12.7816279,77.6299145,NH3,4,4,4
India,Karnataka,Bengaluru,"Jigani, Bengaluru - KSPCB",27-03-2024 19:00:00,12.7816279,77.6299145,OZONE,7,71,66
India,Karnataka,Bengaluru,"Kasturi Nagar, Bengaluru - KSPCB",27-03-2024 19:00:00,13.003872,77.664217,PM2.5,77,130,101
India,Karnataka,Bengaluru,"Kasturi Nagar, Bengaluru - KSPCB",27-03-2024 19:00:00,13.003872,77.664217,CO,22,24,23
India,Karnataka,Bengaluru,"Peenya, Bengaluru - CPCB",27-03-2024 19:00:00,13.0270199,77.494094,NH3,2,4,3
India,Karnataka,Bengaluru,"Peenya, Bengaluru - CPCB",27-03-2024 19:00:00,13.0270199,77.494094,SO2,3,8,6
India,Karnataka,Bengaluru,"RVCE-Mailasandra, Bengaluru - KSPCB",27-03-2024 19:00:00,12.921418,77.502466,PM2.5,23,500,104
India,Karnataka,Bengaluru,"Sanegurava Halli, Bengaluru - KSPCB",27-03-2024 19:00:00,12.990328,77.5431385,SO2,2,3,3
India,Karnataka,Bengaluru,"Shivapura_Peenya, Bengaluru - KSPCB",27-03-2024 19:00:00,13.0246342,77.5080115,PM10,53,130,77
India,Karnataka,Bengaluru,"Shivapura_Peenya, Bengaluru - KSPCB",27-03-2024 19:00:00,13.0246342,77.5080115,NH3,4,4,4
India,Karnataka,Bengaluru,"Silk Board, Bengaluru - KSPCB",27-03-2024 19:00:00,12.917348,77.622813,NO2,18,26,22
India,Karnataka,Bengaluru,"Silk Board, Bengaluru - KSPCB",27-03-2024 19:00:00,12.917348,77.622813,SO2,5,11,9
India,Karnataka,Bidar,"Naubad, Bidar - KSPCB",27-03-2024 19:00:00,17.930306,77.482194,PM10,NA,NA,NA
India,Karnataka,Bidar,"Naubad, Bidar - KSPCB",27-03-2024 19:00:00,17.930306,77.482194,SO2,14,21,17
India,Karnataka,Chamarajanagar,"Urban, Chamarajanagar - KSPCB",27-03-2024 19:00:00,11.55358,76.55521,NO2,24,50,31
India,Karnataka,Chikkaballapur,"Chikkaballapur Rural, Chikkaballapur - KSPCB",27-03-2024 19:00:00,13.428828,77.731418,CO,12,18,15
