country,state,city,station,last_update,latitude,longitude,pollutant_id,pollutant_min,pollutant_max,pollutant_avg
India,Andhra_Pradesh,Amaravati,"Secretariat, Amaravati - APPCB",03-06-2024 14:00:00,16.5150833,80.5181667,NH3,3,4,4
India,Andhra_Pradesh,Anantapur,"Gulzarpet, Anantapur - APPCB",03-06-2024 14:00:00,14.675886,77.593027,PM2.5,NA,NA,NA
India,Andhra_Pradesh,Rajamahendravaram,"Anand Kala Kshetram, Rajamahendravaram - APPCB",03-06-2024 14:00:00,16.9872867,81.7363176,CO,8,36,28
India,Andhra_Pradesh,Rajamahendravaram,"Anand Kala Kshetram, Rajamahendravaram - APPCB",03-06-2024 14:00:00,16.9872867,81.7363176,OZONE,10,174,174
India,Andhra_Pradesh,Tirupati,"Tirumala, Tirupati - APPCB",03-06-2024 14:00:00,13.67,79.35,CO,40,61,47
India,Andhra_Pradesh,Vijayawada,"HB Colony, Vijayawada - APPCB",03-06-2024 14:00:00,16.536107,80.594233,CO,33,36,35
India,Andhra_Pradesh,Vijayawada,"Kanuru, Vijayawada - APPCB",03-06-2024 14:00:00,16.486692,80.699436,NH3,3,4,4
India,Andhra_Pradesh,Vijayawada,"Rajiv Nagar, Vijayawada - APPCB",03-06-2024 14:00:00,16.554731,80.649110,PM2.5,47,47,47
India,Andhra_Pradesh,Vijayawada,"Rajiv Nagar, Vijayawada - APPCB",03-06-2024 14:00:00,16.554731,80.649110,NH3,2,2,2
India,Andhra_Pradesh,Vijayawada,"Rajiv Nagar, Vijayawada - APPCB",03-06-2024 14:00:00,16.554731,80.649110,CO,38,38,38
India,Andhra_Pradesh,Visakhapatnam,"GVM Corporation, Visakhapatnam - APPCB",03-06-2024 14:00:00,17.72,83.3,NO2,NA,NA,NA
India,Andhra_Pradesh,Visakhapatnam,"GVM Corporation, Visakhapatnam - APPCB",03-06-2024 14:00:00,17.72,83.3,NH3,NA,NA,NA
India,Arunachal_Pradesh,Naharlagun,"Naharlagun, Naharlagun - APSPCB",03-06-2024 14:00:00,27.103358,93.679645,PM10,NA,NA,NA
India,Arunachal_Pradesh,Naharlagun,"Naharlagun, Naharlagun - APSPCB",03-06-2024 14:00:00,27.103358,93.679645,NO2,NA,NA,NA
India,Arunachal_Pradesh,Naharlagun,"Naharlagun, Naharlagun - APSPCB",03-06-2024 14:00:00,27.103358,93.679645,CO,17,17,17
India,Assam,Guwahati,"IITG, Guwahati - PCBA",03-06-2024 14:00:00,26.2028636,91.70046436,PM2.5,3,38,22
India,Assam,Guwahati,"LGBI Airport, Guwahati - PCBA",03-06-2024 14:00:00,26.10887,91.589544,NH3,NA,NA,NA
India,Assam,Guwahati,"LGBI Airport, Guwahati - PCBA",03-06-2024 14:00:00,26.10887,91.589544,OZONE,25,29,27
India,Assam,Guwahati,"Pan Bazaar, Guwahati - PCBA",03-06-2024 14:00:00,26.187500,91.744194,SO2,29,45,37
India,Assam,Guwahati,"Pan Bazaar, Guwahati - PCBA",03-06-2024 14:00:00,26.187500,91.744194,CO,16,28,24
India,Assam,Guwahati,"Railway Colony, Guwahati - PCBA",03-06-2024 14:00:00,26.181742,91.78063,SO2,7,13,11
India,Assam,Guwahati,"Railway Colony, Guwahati - PCBA",03-06-2024 14:00:00,26.181742,91.78063,OZONE,1,12,6
India,Assam,Nagaon,"Christianpatty, Nagaon - PCBA",03-06-2024 14:00:00,26.349082,92.68449,NH3,2,12,4
India,Assam,Silchar,"Tarapur, Silchar - PCBA",03-06-2024 14:00:00,24.82827,92.79525,PM10,43,46,44
India,Assam,Silchar,"Tarapur, Silchar - PCBA",03-06-2024 14:00:00,24.82827,92.79525,SO2,NA,NA,NA
India,Assam,Silchar,"Tarapur, Silchar - PCBA",03-06-2024 14:00:00,24.82827,92.79525,OZONE,1,14,4
India,Assam,Sivasagar,"Girls College, Sivasagar - PCBA",03-06-2024 14:00:00,26.987634,94.636574,NH3,1,3,2
India,Assam,Sivasagar,"Girls College, Sivasagar - PCBA",03-06-2024 14:00:00,26.987634,94.636574,CO,4,9,8
India,Bihar,Arrah,"New DM Office, Arrah - BSPCB",03-06-2024 14:00:00,25.5626095,84.663264,NH3,3,7,5
India,Bihar,Arrah,"New DM Office, Arrah - BSPCB",03-06-2024 14:00:00,25.5626095,84.663264,CO,14,26,20
India,Bihar,Arrah,"New DM Office, Arrah - BSPCB",03-06-2024 14:00:00,25.5626095,84.663264,OZONE,9,47,19
India,Bihar,Aurangabad,"Gurdeo Nagar, Aurangabad - BSPCB",03-06-2024 14:00:00,24.75746,84.366208,PM10,NA,NA,NA
India,Bihar,Bettiah,"Kamalnath Nagar, Bettiah - BSPCB",03-06-2024 14:00:00,26.80365,84.51954,OZONE,1,18,12
India,Bihar,Bhagalpur,"DM Office_Kachari Chowk, Bhagalpur - BSPCB",03-06-2024 14:00:00,25.251013,86.989001,CO,28,82,61
India,Bihar,Bhagalpur,"Mayaganj, Bhagalpur - BSPCB",03-06-2024 14:00:00,25.265194,87.012947,OZONE,7,41,20
India,Bihar,Buxar,"Charitra Van, Buxar - BSPCB (Formerly known as Central Jail)",03-06-2024 14:00:00,25.567520,83.966379,PM10,NA,NA,NA
India,Bihar,Buxar,"Charitra Van, Buxar - BSPCB (Formerly known as Central Jail)",03-06-2024 14:00:00,25.567520,83.966379,NO2,NA,NA,NA
India,Bihar,Buxar,"Charitra Van, Buxar - BSPCB (Formerly known as Central Jail)",03-06-2024 14:00:00,25.567520,83.966379,OZONE,NA,NA,NA
India,Bihar,Chhapra,"Darshan Nagar, Chhapra - BSPCB",03-06-2024 14:00:00,25.7808257,84.7446768,SO2,13,21,17
India,Bihar,Chhapra,"Darshan Nagar, Chhapra - BSPCB",03-06-2024 14:00:00,25.7808257,84.7446768,CO,23,40,30
India,Bihar,Gaya,"Kareemganj, Gaya - BSPCB",03-06-2024 14:00:00,24.792403,84.992416,NH3,1,11,4
India,Bihar,Gaya,"Kareemganj, Gaya - BSPCB",03-06-2024 14:00:00,24.792403,84.992416,OZONE,14,48,24
India,Bihar,Gaya,"SFTI Kusdihra, Gaya - BSPCB",03-06-2024 14:00:00,24.762518,84.982348,PM2.5,31,144,85
India,Bihar,Gaya,"SFTI Kusdihra, Gaya - BSPCB",03-06-2024 14:00:00,24.762518,84.982348,NO2,NA,NA,NA
India,Bihar,Hajipur,"Industrial Area, Hajipur - BSPCB",03-06-2024 14:00:00,25.697189,85.245900,SO2,5,7,6
India,Bihar,Katihar,"Mirchaibari, Katihar - BSPCB",03-06-2024 14:00:00,25.560083,87.553265,PM2.5,32,85,49
India,Bihar,Kishanganj,"SDM Office_Khagra, Kishanganj - BSPCB",03-06-2024 14:00:00,26.0881305,87.93840336,SO2,6,10,6
India,Bihar,Kishanganj,"SDM Office_Khagra, Kishanganj - BSPCB",03-06-2024 14:00:00,26.0881305,87.93840336,CO,5,10,6
India,Bihar,Manguraha,"Forest Rest House, Manguraha - BSPCB",03-06-2024 14:00:00,27.308328,84.531742,NO2,14,31,20
India,Bihar,Manguraha,"Forest Rest House, Manguraha - BSPCB",03-06-2024 14:00:00,27.308328,84.531742,OZONE,1,88,24
India,Bihar,Motihari,"Gandak Colony, Motihari - BSPCB",03-06-2024 14:00:00,26.63086,84.90051,CO,8,40,14
India,Bihar,Munger,"Town Hall, Munger - BSPCB",03-06-2024 14:00:00,25.376776,86.471523,PM10,48,109,81
India,Bihar,Munger,"Town Hall, Munger - BSPCB",03-06-2024 14:00:00,25.376776,86.471523,SO2,24,36,31
India,Bihar,Muzaffarpur,"MIT-Daudpur Kothi, Muzaffarpur - BSPCB",03-06-2024 14:00:00,26.1403345,85.3650192,PM10,45,129,70
India,Bihar,Patna,"DRM Office Danapur, Patna - BSPCB",03-06-2024 14:00:00,25.586562,85.043586,NO2,13,20,16
India,Bihar,Patna,"DRM Office Danapur, Patna - BSPCB",03-06-2024 14:00:00,25.586562,85.043586,NH3,2,3,3
India,Bihar,Patna,"DRM Office Danapur, Patna - BSPCB",03-06-2024 14:00:00,25.586562,85.043586,SO2,1,5,2
India,Bihar,Patna,"DRM Office Danapur, Patna - BSPCB",03-06-2024 14:00:00,25.586562,85.043586,CO,22,38,33
India,Bihar,Patna,"Govt. High School Shikarpur, Patna - BSPCB",03-06-2024 14:00:00,25.592539,85.227158,PM2.5,28,77,50
India,Bihar,Patna,"Govt. High School Shikarpur, Patna - BSPCB",03-06-2024 14:00:00,25.592539,85.227158,NO2,34,36,35
India,Bihar,Patna,"Govt. High School Shikarpur, Patna - BSPCB",03-06-2024 14:00:00,25.592539,85.227158,SO2,7,12,10
India,Bihar,Patna,"Muradpur, Patna - BSPCB",03-06-2024 14:00:00,25.619651,85.147382,PM2.5,80,420,160
India,Bihar,Patna,"Muradpur, Patna - BSPCB",03-06-2024 14:00:00,25.619651,85.147382,NH3,12,15,14
India,Bihar,Patna,"Samanpura, Patna - BSPCB",03-06-2024 14:00:00,25.596727,85.085624,NH3,8,19,11
India,Bihar,Patna,"Samanpura, Patna - BSPCB",03-06-2024 14:00:00,25.596727,85.085624,SO2,4,10,5
India,Bihar,Rajgir,"Dangi Tola, Rajgir - BSPCB",03-06-2024 14:00:00,25.03280,85.41948,PM2.5,35,63,47
India,Bihar,Saharsa,"Police Line, Saharsa - BSPCB",03-06-2024 14:00:00,25.892357,86.590325,OZONE,23,82,49
India,Bihar,Samastipur,"DM Office_Kasipur, Samastipur - BSPCB",03-06-2024 14:00:00,25.859655,85.77944,PM10,NA,NA,NA
India,Bihar,Siwan,"Chitragupta Nagar, Siwan - BSPCB",03-06-2024 14:00:00,26.2271665,84.3570427,PM2.5,NA,NA,NA
India,Bihar,Siwan,"Chitragupta Nagar, Siwan - BSPCB",03-06-2024 14:00:00,26.2271665,84.3570427,NH3,1,2,1
India,Bihar,Siwan,"Chitragupta Nagar, Siwan - BSPCB",03-06-2024 14:00:00,26.2271665,84.3570427,OZONE,18,75,42
India,Chandigarh,Chandigarh,"Sector-25, Chandigarh - CPCC",03-06-2024 14:00:00,30.751462,76.762879,OZONE,5,128,34
India,Chhattisgarh,Bhilai,"32Bungalows, Bhilai - CECB",03-06-2024 14:00:00,21.194815,81.314770,PM2.5,28,75,53
India,Chhattisgarh,Bhilai,"32Bungalows, Bhilai - CECB",03-06-2024 14:00:00,21.194815,81.314770,NO2,11,21,16
India,Chhattisgarh,Bhilai,"32Bungalows, Bhilai - CECB",03-06-2024 14:00:00,21.194815,81.314770,NH3,6,7,7
India,Chhattisgarh,Bhilai,"Hathkhoj, Bhilai - CECB",03-06-2024 14:00:00,21.224231,81.408350,NO2,6,15,9
India,Chhattisgarh,Bhilai,"Hathkhoj, Bhilai - CECB",03-06-2024 14:00:00,21.224231,81.408350,CO,10,32,17
India,Chhattisgarh,Bilaspur,"Mangala, Bilaspur - NTPC",03-06-2024 14:00:00,22.08815,82.13737,PM10,30,127,58
India,Chhattisgarh,Bilaspur,"Mangala, Bilaspur - NTPC",03-06-2024 14:00:00,22.08815,82.13737,NO2,12,16,14
India,Chhattisgarh,Chhal,"Nawapara SECL Colony, Chhal - CECB",03-06-2024 14:00:00,22.118125,83.140608,PM2.5,NA,NA,NA
India,Chhattisgarh,Korba,"Rampur, Korba - CECB",03-06-2024 14:00:00,22.368195,82.746431,PM2.5,NA,NA,NA
India,Chhattisgarh,Korba,"Urja Nagar, Korba - CECB",03-06-2024 14:00:00,22.348441,82.549611,PM10,NA,NA,NA
India,Chhattisgarh,Korba,"Urja Nagar, Korba - CECB",03-06-2024 14:00:00,22.348441,82.549611,SO2,7,12,9
India,Chhattisgarh,Kunjemura,"OP Jindal School, Kunjemura - CECB",03-06-2024 14:00:00,22.126650,83.483212,NO2,20,55,34
India,Chhattisgarh,Kunjemura,"OP Jindal School, Kunjemura - CECB",03-06-2024 14:00:00,22.126650,83.483212,NH3,2,3,2
India,Chhattisgarh,Milupara,"Govt. Higher Secondary School, Milupara - CECB",03-06-2024 14:00:00,22.1910172,83.5197009,OZONE,NA,NA,NA
India,Chhattisgarh,Raipur,"Bhatagaon New ISBT, Raipur - CECB",03-06-2024 14:00:00,21.219665,81.630094,NH3,2,2,2
India,Chhattisgarh,Raipur,"Bhatagaon New ISBT, Raipur - CECB",03-06-2024 14:00:00,21.219665,81.630094,SO2,1,4,2
India,Chhattisgarh,Raipur,"Krishak Nagar, Raipur - CECB",03-06-2024 14:00:00,21.237755,81.705301,CO,12,22,14
India,Chhattisgarh,Raipur,"Siltara Phase-II, Raipur - CECB",03-06-2024 14:00:00,21.371751,81.664929,SO2,1,15,5
India,Chhattisgarh,Raipur,"Siltara Phase-II, Raipur - CECB",03-06-2024 14:00:00,21.371751,81.664929,CO,6,26,9
India,Delhi,Delhi,"Alipur, Delhi - DPCC",03-06-2024 14:00:00,28.815329,77.153010,PM10,108,210,142
India,Delhi,Delhi,"Alipur, Delhi - DPCC",03-06-2024 14:00:00,28.815329,77.153010,NO2,4,19,11
India,Delhi,Delhi,"Alipur, Delhi - DPCC",03-06-2024 14:00:00,28.815329,77.153010,SO2,12,37,20
India,Delhi,Delhi,"Anand Vihar, Delhi - DPCC",03-06-2024 14:00:00,28.647622,77.3158090,NO2,NA,NA,NA
India,Delhi,Delhi,"Ashok Vihar, Delhi - DPCC",03-06-2024 14:00:00,28.695381,77.181665,PM2.5,50,207,95
India,Delhi,Delhi,"Ashok Vihar, Delhi - DPCC",03-06-2024 14:00:00,28.695381,77.181665,PM10,79,194,128
India,Delhi,Delhi,"Ashok Vihar, Delhi - DPCC",03-06-2024 14:00:00,28.695381,77.181665,SO2,14,38,26
India,Delhi,Delhi,"Ashok Vihar, Delhi - DPCC",03-06-2024 14:00:00,28.695381,77.181665,CO,18,72,30
India,Delhi,Delhi,"Ashok Vihar, Delhi - DPCC",03-06-2024 14:00:00,28.695381,77.181665,OZONE,41,143,79
India,Delhi,Delhi,"Aya Nagar, Delhi - IMD",03-06-2024 14:00:00,28.4706914,77.1099364,PM2.5,20,167,55
India,Delhi,Delhi,"Aya Nagar, Delhi - IMD",03-06-2024 14:00:00,28.4706914,77.1099364,CO,98,104,103
India,Delhi,Delhi,"Bawana, Delhi - DPCC",03-06-2024 14:00:00,28.776200,77.051074,PM2.5,52,325,138
India,Delhi,Delhi,"Bawana, Delhi - DPCC",03-06-2024 14:00:00,28.776200,77.051074,NO2,7,56,18
India,Delhi,Delhi,"Burari Crossing, Delhi - IMD",03-06-2024 14:00:00,28.7256504,77.2011573,PM10,114,232,152
India,Delhi,Delhi,"Burari Crossing, Delhi - IMD",03-06-2024 14:00:00,28.7256504,77.2011573,OZONE,26,83,50
India,Delhi,Delhi,"DTU, Delhi - CPCB",03-06-2024 14:00:00,28.7500499,77.1112615,NO2,34,37,35
India,Delhi,Delhi,"DTU, Delhi - CPCB",03-06-2024 14:00:00,28.7500499,77.1112615,CO,28,47,39
India,Delhi,Delhi,"Dr. Karni Singh Shooting Range, Delhi - DPCC",03-06-2024 14:00:00,28.498571,77.264840,PM10,91,177,130
India,Delhi,Delhi,"Dr. Karni Singh Shooting Range, Delhi - DPCC",03-06-2024 14:00:00,28.498571,77.264840,CO,18,52,28
India,Delhi,Delhi,"Dwarka-Sector 8, Delhi - DPCC ",03-06-2024 14:00:00,28.5710274,77.0719006,NH3,6,10,8
India,Delhi,Delhi,"IGI Airport (T3), Delhi - IMD",03-06-2024 14:00:00,28.5627763,77.1180053,PM2.5,39,124,58
India,Delhi,Delhi,"IHBAS, Dilshad Garden, Delhi - CPCB",03-06-2024 14:00:00,28.6811736,77.3025234,PM2.5,84,247,127
India,Delhi,Delhi,"IHBAS, Dilshad Garden, Delhi - CPCB",03-06-2024 14:00:00,28.6811736,77.3025234,NO2,13,40,29
India,Delhi,Delhi,"ITO, Delhi - CPCB",03-06-2024 14:00:00,28.628624,77.241060,PM2.5,56,205,109
India,Delhi,Delhi,"ITO, Delhi - CPCB",03-06-2024 14:00:00,28.628624,77.241060,SO2,1,25,8
India,Delhi,Delhi,"ITO, Delhi - CPCB",03-06-2024 14:00:00,28.628624,77.241060,CO,24,62,36
India,Delhi,Delhi,"Jahangirpuri, Delhi - DPCC",03-06-2024 14:00:00,28.732820,77.170633,SO2,NA,NA,NA
India,Delhi,Delhi,"Lodhi Road, Delhi - IITM",03-06-2024 14:00:00,28.588333,77.221667,PM10,23,325,76
India,Delhi,Delhi,"Lodhi Road, Delhi - IMD",03-06-2024 14:00:00,28.5918245,77.2273074,NO2,3,11,6
India,Delhi,Delhi,"Mandir Marg, Delhi - DPCC",03-06-2024 14:00:00,28.636429,77.201067,CO,28,48,34
India,Delhi,Delhi,"Mundka, Delhi - DPCC",03-06-2024 14:00:00,28.684678,77.076574,PM2.5,45,325,109
India,Delhi,Delhi,"Mundka, Delhi - DPCC",03-06-2024 14:00:00,28.684678,77.076574,NO2,37,92,61
India,Delhi,Delhi,"Mundka, Delhi - DPCC",03-06-2024 14:00:00,28.684678,77.076574,OZONE,1,106,42
India,Delhi,Delhi,"Najafgarh, Delhi - DPCC",03-06-2024 14:00:00,28.570173,76.933762,PM10,83,164,116
India,Delhi,Delhi,"Najafgarh, Delhi - DPCC",03-06-2024 14:00:00,28.570173,76.933762,NO2,5,25,11
India,Delhi,Delhi,"Nehru Nagar, Delhi - DPCC",03-06-2024 14:00:00,28.567890,77.250515,PM2.5,30,217,67
India,Delhi,Delhi,"Nehru Nagar, Delhi - DPCC",03-06-2024 14:00:00,28.567890,77.250515,CO,50,85,60
India,Delhi,Delhi,"North Campus, DU, Delhi - IMD",03-06-2024 14:00:00,28.6573814,77.1585447,OZONE,21,55,45
India,Delhi,Delhi,"Okhla Phase-2, Delhi - DPCC",03-06-2024 14:00:00,28.530785,77.271255,SO2,7,13,9
India,Delhi,Delhi,"Patparganj, Delhi - DPCC",03-06-2024 14:00:00,28.623763,77.287209,CO,25,72,36
India,Delhi,Delhi,"Punjabi Bagh, Delhi - DPCC",03-06-2024 14:00:00,28.674045,77.131023,NH3,5,6,6
India,Delhi,Delhi,"Punjabi Bagh, Delhi - DPCC",03-06-2024 14:00:00,28.674045,77.131023,SO2,6,53,31
India,Delhi,Delhi,"Punjabi Bagh, Delhi - DPCC",03-06-2024 14:00:00,28.674045,77.131023,CO,36,55,41
India,Delhi,Delhi,"Punjabi Bagh, Delhi - DPCC",03-06-2024 14:00:00,28.674045,77.131023,OZONE,13,175,61
India,Delhi,Delhi,"Pusa, Delhi - DPCC",03-06-2024 14:00:00,28.639652,77.146275,PM10,96,315,161
India,Delhi,Delhi,"Pusa, Delhi - DPCC",03-06-2024 14:00:00,28.639652,77.146275,SO2,5,31,13
India,Delhi,Delhi,"R K Puram, Delhi - DPCC",03-06-2024 14:00:00,28.563262,77.186937,PM2.5,47,140,82
India,Delhi,Delhi,"Shadipur, Delhi - CPCB",03-06-2024 14:00:00,28.6514781,77.1473105,CO,20,73,50
India,Delhi,Delhi,"Sirifort, Delhi - CPCB",03-06-2024 14:00:00,28.5504249,77.2159377,PM10,93,414,144
India,Delhi,Delhi,"Sirifort, Delhi - CPCB",03-06-2024 14:00:00,28.5504249,77.2159377,OZONE,10,58,23
India,Delhi,Delhi,"Sonia Vihar, Delhi - DPCC",03-06-2024 14:00:00,28.710508,77.249485,SO2,12,25,19
India,Delhi,Delhi,"Sri Aurobindo Marg, Delhi - DPCC",03-06-2024 14:00:00,28.531346,77.190156,PM2.5,42,92,56
India,Delhi,Delhi,"Vivek Vihar, Delhi - DPCC",03-06-2024 14:00:00,28.672342,77.315260,NO2,6,69,26
India,Delhi,Delhi,"Vivek Vihar, Delhi - DPCC",03-06-2024 14:00:00,28.672342,77.315260,SO2,11,34,20
India,Delhi,Delhi,"Wazirpur, Delhi - DPCC",03-06-2024 14:00:00,28.699793,77.165453,NH3,12,15,14
India,Delhi,Delhi,"Wazirpur, Delhi - DPCC",03-06-2024 14:00:00,28.699793,77.165453,SO2,11,30,21
India,Gujarat,Ahmedabad,"Chandkheda, Ahmedabad - IITM",03-06-2024 14:00:00,23.107969,72.574648,NH3,1,3,1
India,Gujarat,Ahmedabad,"Chandkheda, Ahmedabad - IITM",03-06-2024 14:00:00,23.107969,72.574648,CO,26,28,27
India,Gujarat,Ahmedabad,"Maninagar, Ahmedabad - GPCB",03-06-2024 14:00:00,23.002657,72.591912,OZONE,12,108,23
India,Gujarat,Ahmedabad,"Raikhad, Ahmedabad - IITM",03-06-2024 14:00:00,23.020509,72.579261,SO2,18,22,20
India,Gujarat,Ahmedabad,"SVPI Airport Hansol, Ahmedabad - IITM",03-06-2024 14:00:00,23.076793,72.627874,PM2.5,29,73,51
India,Gujarat,Ahmedabad,"SVPI Airport Hansol, Ahmedabad - IITM",03-06-2024 14:00:00,23.076793,72.627874,CO,8,18,10
India,Gujarat,Ahmedabad,"Sardar Vallabhbhai Patel Stadium, Ahmedabad - IITM",03-06-2024 14:00:00,23.043070,72.562968,NO2,NA,NA,NA
India,Gujarat,Ankleshwar,"GIDC, Ankleshwar - GPCB",03-06-2024 14:00:00,21.613267,73.010555,NH3,3,6,6
India,Gujarat,Gandhinagar,"Sector-10, Gandhinagar - GPCB",03-06-2024 14:00:00,23.221714,72.654328,PM10,38,97,66
India,Gujarat,Gandhinagar,"Sector-10, Gandhinagar - GPCB",03-06-2024 14:00:00,23.221714,72.654328,NO2,13,23,18
India,Gujarat,Gandhinagar,"Sector-10, Gandhinagar - GPCB",03-06-2024 14:00:00,23.221714,72.654328,SO2,3,4,4
India,Gujarat,Surat,"Science Center, Surat - SMC",03-06-2024 14:00:00,21.170046,72.795405,PM10,NA,NA,NA
India,Gujarat,Surat,"Science Center, Surat - SMC",03-06-2024 14:00:00,21.170046,72.795405,SO2,10,12,11
India,Gujarat,Vapi,"Phase-1 GIDC, Vapi - GPCB",03-06-2024 14:00:00,20.362421,72.918013,NO2,NA,NA,NA
India,Haryana,Ambala,"Patti Mehar, Ambala - HSPCB",03-06-2024 14:00:00,30.379589,76.778328,OZONE,38,55,45
India,Haryana,Bahadurgarh,"Arya Nagar, Bahadurgarh - HSPCB",03-06-2024 14:00:00,28.6701,76.9254,NO2,20,26,23
India,Haryana,Bahadurgarh,"Arya Nagar, Bahadurgarh - HSPCB",03-06-2024 14:00:00,28.6701,76.9254,NH3,8,9,9
India,Haryana,Ballabgarh,"Nathu Colony, Ballabgarh - HSPCB",03-06-2024 14:00:00,28.3419248,77.319699,PM2.5,37,308,82
India,Haryana,Ballabgarh,"Nathu Colony, Ballabgarh - HSPCB",03-06-2024 14:00:00,28.3419248,77.319699,OZONE,10,56,30
India,Haryana,Bhiwani,"H.B. Colony, Bhiwani - HSPCB",03-06-2024 14:00:00,28.806223,76.141105,PM10,53,115,86
India,Haryana,Charkhi Dadri,"Mini Secretariat, Charkhi Dadri - HSPCB",03-06-2024 14:00:00,28.593883,76.270653,NH3,6,8,7
India,Haryana,Faridabad,"New Industrial Town, Faridabad - HSPCB",03-06-2024 14:00:00,28.39072,77.30059,NO2,NA,NA,NA
India,Haryana,Faridabad,"New Industrial Town, Faridabad - HSPCB",03-06-2024 14:00:00,28.39072,77.30059,CO,3,34,10
India,Haryana,Faridabad,"New Industrial Town, Faridabad - HSPCB",03-06-2024 14:00:00,28.39072,77.30059,OZONE,27,149,93
India,Haryana,Faridabad,"Sector 11, Faridabad - HSPCB",03-06-2024 14:00:00,28.376058,77.315741,OZONE,6,29,16
India,Haryana,Faridabad,"Sector 30, Faridabad - HSPCB",03-06-2024 14:00:00,28.4417,77.3217,NH3,4,4,4
India,Haryana,Faridabad,"Sector- 16A, Faridabad - HSPCB",03-06-2024 14:00:00,28.4088421,77.3099081,PM2.5,NA,NA,NA
India,Haryana,Fatehabad,"Huda Sector, Fatehabad - HSPCB",03-06-2024 14:00:00,29.503664,75.467934,SO2,1,18,8
India,Haryana,Gurugram,"NISE Gwal Pahari, Gurugram - IMD",03-06-2024 14:00:00,28.422681,77.148944,PM2.5,17,212,64
India,Haryana,Gurugram,"Sector-51, Gurugram - HSPCB",03-06-2024 14:00:00,28.4227,77.0667,NH3,6,14,9
India,Haryana,Gurugram,"Teri Gram, Gurugram - HSPCB",03-06-2024 14:00:00,28.4275,77.1465,CO,4,38,18
India,Haryana,Gurugram,"Vikas Sadan, Gurugram - HSPCB",03-06-2024 14:00:00,28.4501238,77.0263051,PM2.5,76,500,243
India,Haryana,Gurugram,"Vikas Sadan, Gurugram - HSPCB",03-06-2024 14:00:00,28.4501238,77.0263051,NO2,5,25,14
India,Haryana,Jind,"Police Lines, Jind - HSPCB",03-06-2024 14:00:00,29.307814,76.337619,NH3,35,48,4
India,Haryana,Jind,"Police Lines, Jind - HSPCB",03-06-2024 14:00:00,29.307814,76.337619,SO2,3,65,12
India,Haryana,Karnal,"Sector-12, Karnal - HSPCB",03-06-2024 14:00:00,29.695300,77.002700,OZONE,29,32,30
India,Haryana,Manesar,"Sector-2 IMT, Manesar - HSPCB",03-06-2024 14:00:00,28.360699,76.936090,PM10,34,85,59
India,Haryana,Manesar,"Sector-2 IMT, Manesar - HSPCB",03-06-2024 14:00:00,28.360699,76.936090,NO2,16,26,21
India,Haryana,Manesar,"Sector-2 IMT, Manesar - HSPCB",03-06-2024 14:00:00,28.360699,76.936090,SO2,1,113,28
India,Haryana,Narnaul,"Shastri Nagar, Narnaul - HSPCB",03-06-2024 14:00:00,28.060249,76.113115,NO2,16,86,40
India,Haryana,Narnaul,"Shastri Nagar, Narnaul - HSPCB",03-06-2024 14:00:00,28.060249,76.113115,SO2,10,50,24
India,Haryana,Palwal,"Shyam Nagar, Palwal - HSPCB",03-06-2024 14:00:00,28.1485564,77.3320667,PM10,48,100,69
India,Haryana,Panchkula,"Sector-6, Panchkula - HSPCB ",03-06-2024 14:00:00,30.7057778,76.8531805555555,NO2,9,11,10
India,Haryana,Panchkula,"Sector-6, Panchkula - HSPCB ",03-06-2024 14:00:00,30.7057778,76.8531805555555,SO2,2,16,4
India,Haryana,Panipat,"Sector-18, Panipat - HSPCB",03-06-2024 14:00:00,29.432304,76.972765,OZONE,30,31,30
India,Haryana,Sirsa,"F-Block, Sirsa - HSPCB",03-06-2024 14:00:00,29.536400,75.015800,NO2,9,10,10
India,Haryana,Sirsa,"F-Block, Sirsa - HSPCB",03-06-2024 14:00:00,29.536400,75.015800,NH3,12,13,13
India,Haryana,Sirsa,"F-Block, Sirsa - HSPCB",03-06-2024 14:00:00,29.536400,75.015800,SO2,9,17,13
India,Haryana,Sonipat,"Murthal, Sonipat - HSPCB",03-06-2024 14:00:00,29.027200,77.062100,PM2.5,NA,NA,NA
India,Haryana,Yamuna Nagar,"Gobind Pura, Yamuna Nagar - HSPCB",03-06-2024 14:00:00,30.1480566,77.2893471,CO,4,64,41
India,Himachal Pradesh,Baddi,"HIMUDA Complex Phase-1, Baddi - HPPCB",03-06-2024 14:00:00,30.943887,76.801991,PM2.5,72,332,174
India,Himachal Pradesh,Baddi,"HIMUDA Complex Phase-1, Baddi - HPPCB",03-06-2024 14:00:00,30.943887,76.801991,OZONE,63,269,206
India,Jammu_and_Kashmir,Srinagar,"Rajbagh, Srinagar - JKSPCB",03-06-2024 14:00:00,34.066206,74.819820,CO,20,27,26
India,Jharkhand,Pathardih,"Mohalbani Ghat, Pathardih - DMC",03-06-2024 14:00:00,23.669880,86.411725,PM10,NA,NA,NA
India,Karnataka,Bagalkot,"Vidayagiri, Bagalkot - KSPCB",03-06-2024 14:00:00,16.172806,75.659694,PM2.5,NA,NA,NA
India,Karnataka,Bagalkot,"Vidayagiri, Bagalkot - KSPCB",03-06-2024 14:00:00,16.172806,75.659694,NH3,NA,NA,NA
India,Karnataka,Belgaum,"Ramteerth Nagar, Belgaum - KSPCB",03-06-2024 14:00:00,15.888653,74.541751,PM10,23,41,32
India,Karnataka,Belgaum,"Ramteerth Nagar, Belgaum - KSPCB",03-06-2024 14:00:00,15.888653,74.541751,CO,42,58,52
India,Karnataka,Bengaluru,"Bapuji Nagar, Bengaluru - KSPCB",03-06-2024 14:00:00,12.951913,77.539784,OZONE,22,30,26
India,Karnataka,Bengaluru,"Hebbal, Bengaluru - KSPCB",03-06-2024 14:00:00,13.029152,77.585901,PM10,7,36,20
India,Karnataka,Bengaluru,"Hebbal, Bengaluru - KSPCB",03-06-2024 14:00:00,13.029152,77.585901,CO,10,22,17
India,Karnataka,Bengaluru,"Hombegowda Nagar, Bengaluru - KSPCB",03-06-2024 14:00:00,12.938539,77.590100,SO2,2,4,3
India,Karnataka,Bengaluru,"Jigani, Bengaluru - KSPCB",03-06-2024 14:00:00,12.7816279,77.6299145,NO2,32,34,33
India,Karnataka,Bengaluru,"Jigani, Bengaluru - KSPCB",03-06-2024 14:00:00,12.7816279,77.6299145,NH3,4,5,5
India,Karnataka,Bengaluru,"Kasturi Nagar, Bengaluru - KSPCB",03-06-2024 14:00:00,13.003872,77.664217,PM2.5,7,500,46
India,Karnataka,Bengaluru,"Kasturi Nagar, Bengaluru - KSPCB",03-06-2024 14:00:00,13.003872,77.664217,CO,24,25,25
India,Karnataka,Bengaluru,"RVCE-Mailasandra, Bengaluru - KSPCB",03-06-2024 14:00:00,12.921418,77.502466,SO2,7,11,8
India,Karnataka,Bengaluru,"RVCE-Mailasandra, Bengaluru - KSPCB",03-06-2024 14:00:00,12.921418,77.502466,CO,31,50,41
India,Karnataka,Bengaluru,"Sanegurava Halli, Bengaluru - KSPCB",03-06-2024 14:00:00,12.990328,77.5431385,SO2,2,3,3
India,Karnataka,Bengaluru,"Shivapura_Peenya, Bengaluru - KSPCB",03-06-2024 14:00:00,13.0246342,77.5080115,CO,18,30,24
India,Karnataka,Bengaluru,"Silk Board, Bengaluru - KSPCB",03-06-2024 14:00:00,12.917348,77.622813,NH3,NA,NA,NA
India,Karnataka,Bengaluru,"Silk Board, Bengaluru - KSPCB",03-06-2024 14:00:00,12.917348,77.622813,SO2,NA,NA,NA
India,Karnataka,Bidar,"Naubad, Bidar - KSPCB",03-06-2024 14:00:00,17.930306,77.482194,PM2.5,NA,NA,NA
India,Karnataka,Chamarajanagar,"Urban, Chamarajanagar - KSPCB",03-06-2024 14:00:00,11.55358,76.55521,PM2.5,20,45,30
India,Karnataka,Chamarajanagar,"Urban, Chamarajanagar - KSPCB",03-06-2024 14:00:00,11.55358,76.55521,NH3,1,2,2
India,Karnataka,Chamarajanagar,"Urban, Chamarajanagar - KSPCB",03-06-2024 14:00:00,11.55358,76.55521,OZONE,14,35,23
India,Karnataka,Chikkaballapur,"Chikkaballapur Rural, Chikkaballapur - KSPCB",03-06-2024 14:00:00,13.428828,77.731418,PM10,8,41,21
India,Karnataka,Chikkaballapur,"Chikkaballapur Rural, Chikkaballapur - KSPCB",03-06-2024 14:00:00,13.428828,77.731418,SO2,20,25,22
India,Karnataka,Chikkamagaluru,"Kalyana Nagara, Chikkamagaluru - KSPCB",03-06-2024 14:00:00,13.328028,75.797056,NO2,14,30,19
India,Karnataka,Davanagere,"Devaraj Urs Badavane, Davanagere - KSPCB",03-06-2024 14:00:00,14.475800,75.905200,SO2,4,113,10
India,Karnataka,Dharwad,"Kalabhavan, Dharwad - KSPCB",03-06-2024 14:00:00,15.459706,75.008381,NO2,2,10,6
India,Karnataka,Hassan,"B.Katihalli, Hassan - KSPCB",03-06-2024 14:00:00,13.008556,76.125258,PM10,NA,NA,NA
India,Karnataka,Hassan,"B.Katihalli, Hassan - KSPCB",03-06-2024 14:00:00,13.008556,76.125258,SO2,NA,NA,NA
India,Karnataka,Haveri,"Ashwini Nagar, Haveri - KSPCB",03-06-2024 14:00:00,14.791800,75.389600,PM10,NA,NA,NA
India,Karnataka,Haveri,"Ashwini Nagar, Haveri - KSPCB",03-06-2024 14:00:00,14.791800,75.389600,NO2,NA,NA,NA
India,Karnataka,Haveri,"Ashwini Nagar, Haveri - KSPCB",03-06-2024 14:00:00,14.791800,75.389600,CO,37,38,38
India,Karnataka,Kalaburagi,"Mahatma Basaveswar Colony, Kalaburgi - KSPCB",03-06-2024 14:00:00,17.336318,76.847397,CO,16,46,19
India,Karnataka,Karwar,"KHB Colony, Karwar - KSPCB",03-06-2024 14:00:00,14.816666,74.141003,PM2.5,10,73,24
India,Karnataka,Karwar,"KHB Colony, Karwar - KSPCB",03-06-2024 14:00:00,14.816666,74.141003,PM10,14,85,30
India,Karnataka,Karwar,"KHB Colony, Karwar - KSPCB",03-06-2024 14:00:00,14.816666,74.141003,NH3,1,6,2
India,Karnataka,Karwar,"KHB Colony, Karwar - KSPCB",03-06-2024 14:00:00,14.816666,74.141003,SO2,22,24,23
India,Karnataka,Kolar,"Tamaka Ind. Area, Kolar - KSPCB",03-06-2024 14:00:00,13.1276288,78.1570122,SO2,10,10,10
India,Karnataka,Kolar,"Tamaka Ind. Area, Kolar - KSPCB",03-06-2024 14:00:00,13.1276288,78.1570122,OZONE,23,49,37
India,Karnataka,Koppal,"Diwator Nagar, Koppal - KSPCB",03-06-2024 14:00:00,15.347630,76.181767,SO2,23,42,25
India,Karnataka,Koppal,"Diwator Nagar, Koppal - KSPCB",03-06-2024 14:00:00,15.347630,76.181767,OZONE,12,25,18
India,Karnataka,Mangalore,"Kadri, Mangalore - KSPCB",03-06-2024 14:00:00,12.889250,74.853000,SO2,29,31,30
India,Karnataka,Mangalore,"Kadri, Mangalore - KSPCB",03-06-2024 14:00:00,12.889250,74.853000,CO,35,44,39
India,Karnataka,Mangalore,"Kadri, Mangalore - KSPCB",03-06-2024 14:00:00,12.889250,74.853000,OZONE,31,32,32
India,Karnataka,Mysuru,"Hebbal 1st Stage, Mysuru - KSPCB",03-06-2024 14:00:00,12.21041,76.37376,NH3,1,2,2
India,Karnataka,Mysuru,"Hebbal 1st Stage, Mysuru - KSPCB",03-06-2024 14:00:00,12.21041,76.37376,OZONE,7,68,26
India,Karnataka,Raichur,"Haji Colony, Raichur - KSPCB",03-06-2024 14:00:00,16.208139,77.348417,PM2.5,NA,NA,NA
India,Karnataka,Ramanagara,"Vijay Nagar, Ramanagara - KSPCB",03-06-2024 14:00:00,12.733409,77.298051,SO2,NA,NA,NA
India,Karnataka,Ramanagara,"Vijay Nagar, Ramanagara - KSPCB",03-06-2024 14:00:00,12.733409,77.298051,CO,8,117,59
India,Karnataka,Shivamogga,"Vinoba Nagara, Shivamogga - KSPCB",03-06-2024 14:00:00,13.940000,75.555917,PM2.5,27,53,41
India,Karnataka,Shivamogga,"Vinoba Nagara, Shivamogga - KSPCB",03-06-2024 14:00:00,13.940000,75.555917,PM10,40,71,58
India,Karnataka,Shivamogga,"Vinoba Nagara, Shivamogga - KSPCB",03-06-2024 14:00:00,13.940000,75.555917,CO,6,42,22
India,Karnataka,Tumakuru,"Thimmalapura, Tumakuru - KSPCB",03-06-2024 14:00:00,13.377516,77.099072,OZONE,12,40,21
India,Karnataka,Udupi,"Brahmagiri, Udupi - KSPCB",03-06-2024 14:00:00,13.34194444,74.74694444,CO,49,57,54
India,Karnataka,Udupi,"Brahmagiri, Udupi - KSPCB",03-06-2024 14:00:00,13.34194444,74.74694444,OZONE,23,23,23
India,Karnataka,Vijayapura,"Ibrahimpur, Vijayapura - KSPCB",03-06-2024 14:00:00,16.802639,75.722694,NH3,NA,NA,NA
India,Karnataka,Yadgir,"Collector Office, Yadgir - KSPCB",03-06-2024 14:00:00,16.7602,77.1428,PM10,NA,NA,NA
India,Kerala,Kollam,"Polayathode, Kollam - Kerala PCB",03-06-2024 14:00:00,8.8787,76.6073,PM2.5,43,96,67
India,Kerala,Kollam,"Polayathode, Kollam - Kerala PCB",03-06-2024 14:00:00,8.8787,76.6073,NO2,8,9,8
India,Kerala,Kollam,"Polayathode, Kollam - Kerala PCB",03-06-2024 14:00:00,8.8787,76.6073,OZONE,30,35,32
India,Kerala,Thiruvananthapuram,"Kariavattom, Thiruvananthapuram - Kerala PCB",03-06-2024 14:00:00,8.563700,76.886500,OZONE,36,36,36
India,Kerala,Thrissur,"Corporation Ground, Thrissur - Kerala PCB",03-06-2024 14:00:00,10.532400,76.215900,PM2.5,41,50,47
India,Kerala,Thrissur,"Corporation Ground, Thrissur - Kerala PCB",03-06-2024 14:00:00,10.532400,76.215900,OZONE,25,31,30
India,Madhya Pradesh,Bhopal,"Paryavaran Parisar, Bhopal - MPPCB",03-06-2024 14:00:00,23.210494,77.425409,PM10,61,163,107
India,Madhya Pradesh,Bhopal,"T T Nagar, Bhopal - MPPCB",03-06-2024 14:00:00,23.233584,77.400574,PM2.5,30,238,85
India,Madhya Pradesh,Dewas,"Bhopal Chauraha, Dewas - MPPCB",03-06-2024 14:00:00,22.9682591,76.064118,PM10,32,69,44
India,Madhya Pradesh,Dewas,"Bhopal Chauraha, Dewas - MPPCB",03-06-2024 14:00:00,22.9682591,76.064118,OZONE,12,31,21
India,Madhya Pradesh,Gwalior,"City Center, Gwalior - MPPCB",03-06-2024 14:00:00,26.203442,78.193251,PM10,30,117,66
India,Madhya Pradesh,Gwalior,"City Center, Gwalior - MPPCB",03-06-2024 14:00:00,26.203442,78.193251,NH3,2,3,2
India,Madhya Pradesh,Gwalior,"Deen Dayal Nagar, Gwalior - MPPCB",03-06-2024 14:00:00,26.259242,78.216432,CO,46,65,57
India,Madhya Pradesh,Gwalior,"Maharaj Bada, Gwalior - MPPCB",03-06-2024 14:00:00,26.200388,78.147714,OZONE,54,154,96
India,Madhya Pradesh,Indore,"Chhoti Gwaltoli, Indore - MPPCB",03-06-2024 14:00:00,22.4310,75.5213,CO,8,48,42
India,Madhya Pradesh,Indore,"Chhoti Gwaltoli, Indore - MPPCB",03-06-2024 14:00:00,22.4310,75.5213,OZONE,31,77,70
India,Madhya Pradesh,Indore,"Maguda Nagar, Indore - IMC",03-06-2024 14:00:00,22.7524,75.8872,PM10,31,51,39
India,Madhya Pradesh,Indore,"Residency Area, Indore - IMC",03-06-2024 14:00:00,22.7084,75.8815,PM2.5,29,50,39
India,Madhya Pradesh,Indore,"Residency Area, Indore - IMC",03-06-2024 14:00:00,22.7084,75.8815,NO2,24,84,54
India,Madhya Pradesh,Indore,"Residency Area, Indore - IMC",03-06-2024 14:00:00,22.7084,75.8815,NH3,NA,NA,NA
India,Madhya Pradesh,Jabalpur,"Govindh Bhavan Colony, Jabalpur - JMC",03-06-2024 14:00:00,23.163174,79.973061,NH3,3,3,3
India,Madhya Pradesh,Jabalpur,"Govindh Bhavan Colony, Jabalpur - JMC",03-06-2024 14:00:00,23.163174,79.973061,SO2,13,61,29
India,Madhya Pradesh,Jabalpur,"Marhatal, Jabalpur - MPPCB",03-06-2024 14:00:00,23.168606,79.932247,CO,44,96,53
India,Madhya Pradesh,Jabalpur,"Suhagi, Jabalpur - JMC",03-06-2024 14:00:00,23.218135,79.957770,NH3,2,2,2
India,Madhya Pradesh,Jabalpur,"Suhagi, Jabalpur - JMC",03-06-2024 14:00:00,23.218135,79.957770,SO2,14,18,16
India,Madhya Pradesh,Katni,"Gole Bazar, Katni - MPPCB",03-06-2024 14:00:00,23.50016,80.23284,PM10,57,118,87
India,Madhya Pradesh,Katni,"Gole Bazar, Katni - MPPCB",03-06-2024 14:00:00,23.50016,80.23284,NO2,24,33,29
India,Madhya Pradesh,Katni,"Gole Bazar, Katni - MPPCB",03-06-2024 14:00:00,23.50016,80.23284,CO,24,41,35
India,Madhya Pradesh,Maihar,"Sahilara, Maihar - KJS Cements",03-06-2024 14:00:00,24.2613009,80.7231783,PM2.5,NA,NA,NA
India,Madhya Pradesh,Maihar,"Sahilara, Maihar - KJS Cements",03-06-2024 14:00:00,24.2613009,80.7231783,SO2,13,15,13
India,Madhya Pradesh,Ratlam,"Shasthri Nagar, Ratlam - IPCA Lab",03-06-2024 14:00:00,23.331731,75.045981,SO2,28,30,29
India,Madhya Pradesh,Sagar,"Civil Lines, Sagar - MPPCB",03-06-2024 14:00:00,23.838586,78.759431,NH3,6,9,7
India,Madhya Pradesh,Singrauli,"Suryakiran Bhawan NCL, Singrauli - MPPCB",03-06-2024 14:00:00,24.108970,82.645580,NH3,3,5,4
India,Madhya Pradesh,Ujjain,"Mahakaleshwar Temple, Ujjain - MPPCB",03-06-2024 14:00:00,23.182719 ,75.768218 ,NO2,14,32,19
India,Maharashtra,Akola,"Ramdaspeth, Akola - MPCB",03-06-2024 14:00:00,20.719516,77.000253,PM2.5,17,143,57
India,Maharashtra,Akola,"Ramdaspeth, Akola - MPCB",03-06-2024 14:00:00,20.719516,77.000253,NH3,2,10,5
India,Maharashtra,Akola,"Ramdaspeth, Akola - MPCB",03-06-2024 14:00:00,20.719516,77.000253,CO,30,124,37
India,Maharashtra,Amravati,"Shri Shivaji Science College, Amaravati - MPCB",03-06-2024 14:00:00,20.939198,77.765701,NO2,4,27,11
India,Maharashtra,Amravati,"Shri Shivaji Science College, Amaravati - MPCB",03-06-2024 14:00:00,20.939198,77.765701,SO2,4,9,6
India,Maharashtra,Amravati,"Shri Shivaji Science College, Amaravati - MPCB",03-06-2024 14:00:00,20.939198,77.765701,OZONE,21,68,40
India,Maharashtra,Aurangabad,"MIDC Chilkalthana, Aurangabad - MPCB",03-06-2024 14:00:00,19.875620,75.387310,CO,20,83,44
India,Maharashtra,Badlapur,"Katrap, Badlapur - MPCB",03-06-2024 14:00:00,19.16485,73.23409,PM10,73,154,90
India,Maharashtra,Badlapur,"Katrap, Badlapur - MPCB",03-06-2024 14:00:00,19.16485,73.23409,NO2,14,28,22
India,Maharashtra,Badlapur,"Katrap, Badlapur - MPCB",03-06-2024 14:00:00,19.16485,73.23409,SO2,7,28,13
India,Maharashtra,Belapur,"CBD Belapur, Belapur - MPCB",03-06-2024 14:00:00,19.0243902,73.0406721,NH3,1,2,1
India,Maharashtra,Bhiwandi,"Gokul Nagar, Bhiwandi - MPCB",03-06-2024 14:00:00,19.309073,73.057223,CO,12,29,19
India,Maharashtra,Boisar,"Khaira, Boisar - MPCB",03-06-2024 14:00:00,19.786089,72.757971,SO2,5,13,9
India,Maharashtra,Chandrapur,"Chauhan Colony, Chandrapur - MPCB",03-06-2024 14:00:00,19.962900,79.298714,PM10,33,100,63
India,Maharashtra,Chandrapur,"Chauhan Colony, Chandrapur - MPCB",03-06-2024 14:00:00,19.962900,79.298714,NH3,2,10,5
India,Maharashtra,Chandrapur,"Chauhan Colony, Chandrapur - MPCB",03-06-2024 14:00:00,19.962900,79.298714,OZONE,78,134,105
India,Maharashtra,Chandrapur,"MIDC Khutala, Chandrapur - MPCB",03-06-2024 14:00:00,19.9775302,79.2337086,NO2,6,34,15
India,Maharashtra,Chandrapur,"MIDC Khutala, Chandrapur - MPCB",03-06-2024 14:00:00,19.9775302,79.2337086,SO2,5,98,28
India,Maharashtra,Chandrapur,"MIDC Khutala, Chandrapur - MPCB",03-06-2024 14:00:00,19.9775302,79.2337086,OZONE,9,64,41
India,Maharashtra,Dhule,"Deopur, Dhule - MPCB",03-06-2024 14:00:00,20.918946,74.776388,SO2,3,29,12
India,Maharashtra,Jalgaon,"Prabhat Colony, Jalgaon - MPCB",03-06-2024 14:00:00,21.001264,75.565602,PM2.5,38,122,71
India,Maharashtra,Jalgaon,"Prabhat Colony, Jalgaon - MPCB",03-06-2024 14:00:00,21.001264,75.565602,PM10,74,174,111
India,Maharashtra,Jalgaon,"Prabhat Colony, Jalgaon - MPCB",03-06-2024 14:00:00,21.001264,75.565602,NO2,11,57,20
India,Maharashtra,Jalgaon,"Prabhat Colony, Jalgaon - MPCB",03-06-2024 14:00:00,21.001264,75.565602,NH3,6,9,8
India,Maharashtra,Jalgaon,"Prabhat Colony, Jalgaon - MPCB",03-06-2024 14:00:00,21.001264,75.565602,SO2,4,17,10
India,Maharashtra,Jalna,"Old MIDC, Jalna - MPCB",03-06-2024 14:00:00,19.854616,75.905894,PM2.5,25,47,38
India,Maharashtra,Jalna,"Old MIDC, Jalna - MPCB",03-06-2024 14:00:00,19.854616,75.905894,PM10,40,90,69
India,Maharashtra,Jalna,"Old MIDC, Jalna - MPCB",03-06-2024 14:00:00,19.854616,75.905894,NO2,23,28,25
India,Maharashtra,Kolhapur,"Shivaji University, Kolhapur - MPCB",03-06-2024 14:00:00,16.6870449,74.2505872,PM10,47,82,68
India,Maharashtra,Kolhapur,"Shivaji University, Kolhapur - MPCB",03-06-2024 14:00:00,16.6870449,74.2505872,SO2,1,10,4
India,Maharashtra,Kolhapur,"Sinchan Bhavan, Kolhapur - MPCB",03-06-2024 14:00:00,16.7143745,74.2426398,PM2.5,21,30,26
India,Maharashtra,Kolhapur,"Sinchan Bhavan, Kolhapur - MPCB",03-06-2024 14:00:00,16.7143745,74.2426398,SO2,1,5,2
India,Maharashtra,Mahad,"Kamble Tarf Birwadi, Mahad - MPCB",03-06-2024 14:00:00,18.1023399,73.4783687,PM2.5,NA,NA,NA
India,Maharashtra,Malegaon,"Mahesh Nagar, Malegaon - MPCB",03-06-2024 14:00:00,20.555712,74.529236,PM10,82,126,102
India,Maharashtra,Malegaon,"Mahesh Nagar, Malegaon - MPCB",03-06-2024 14:00:00,20.555712,74.529236,SO2,5,13,9
India,Maharashtra,Mira-Bhayandar,"Bhayandar West, Mira-Bhayandar - MPCB",03-06-2024 14:00:00,19.296481,72.840923,PM2.5,16,47,34
India,Maharashtra,Mira-Bhayandar,"Bhayandar West, Mira-Bhayandar - MPCB",03-06-2024 14:00:00,19.296481,72.840923,NO2,16,29,19
India,Maharashtra,Mira-Bhayandar,"Bhayandar West, Mira-Bhayandar - MPCB",03-06-2024 14:00:00,19.296481,72.840923,NH3,4,5,4
India,Maharashtra,Mira-Bhayandar,"Bhayandar West, Mira-Bhayandar - MPCB",03-06-2024 14:00:00,19.296481,72.840923,CO,16,29,19
India,Maharashtra,Mumbai,"Bandra Kurla Complex, Mumbai - MPCB",03-06-2024 14:00:00,19.065931,72.862131,PM2.5,50,71,61
India,Maharashtra,Mumbai,"Bandra Kurla Complex, Mumbai - MPCB",03-06-2024 14:00:00,19.065931,72.862131,PM10,59,92,73
India,Maharashtra,Mumbai,"Bandra Kurla Complex, Mumbai - MPCB",03-06-2024 14:00:00,19.065931,72.862131,SO2,1,5,4
India,Maharashtra,Mumbai,"Borivali East, Mumbai - MPCB",03-06-2024 14:00:00,19.2243333,72.8658113,NH3,1,2,1
India,Maharashtra,Mumbai,"Byculla, Mumbai - BMC",03-06-2024 14:00:00,18.9767,72.8380,CO,8,18,10
India,Maharashtra,Mumbai,"Chakala-Andheri East, Mumbai - IITM",03-06-2024 14:00:00,19.11074,72.86084,NO2,24,36,30
India,Maharashtra,Mumbai,"Chembur, Mumbai - MPCB",03-06-2024 14:00:00,19.0364585,72.8954371,NH3,5,6,6
India,Maharashtra,Mumbai,"Chembur, Mumbai - MPCB",03-06-2024 14:00:00,19.0364585,72.8954371,SO2,NA,NA,NA
India,Maharashtra,Mumbai,"Chembur, Mumbai - MPCB",03-06-2024 14:00:00,19.0364585,72.8954371,OZONE,12,45,28
India,Maharashtra,Mumbai,"Chhatrapati Shivaji Intl. Airport (T2), Mumbai - MPCB",03-06-2024 14:00:00,19.10078,72.87462,PM10,42,106,66
India,Maharashtra,Mumbai,"Chhatrapati Shivaji Intl. Airport (T2), Mumbai - MPCB",03-06-2024 14:00:00,19.10078,72.87462,OZONE,13,14,13
India,Maharashtra,Mumbai,"Colaba, Mumbai - MPCB",03-06-2024 14:00:00,18.910000,72.820000,NH3,1,1,1
India,Maharashtra,Mumbai,"Deonar, Mumbai - IITM",03-06-2024 14:00:00,19.04946,72.9230,PM10,56,101,79
India,Maharashtra,Mumbai,"Ghatkopar, Mumbai - BMC",03-06-2024 14:00:00,19.083694,72.920967,PM10,19,44,32
India,Maharashtra,Mumbai,"Ghatkopar, Mumbai - BMC",03-06-2024 14:00:00,19.083694,72.920967,NO2,2,63,27
India,Maharashtra,Mumbai,"Ghatkopar, Mumbai - BMC",03-06-2024 14:00:00,19.083694,72.920967,SO2,1,2,1
India,Maharashtra,Mumbai,"Kandivali East, Mumbai - MPCB",03-06-2024 14:00:00,19.205800,72.868200,NO2,14,81,26
India,Maharashtra,Mumbai,"Kandivali East, Mumbai - MPCB",03-06-2024 14:00:00,19.205800,72.868200,SO2,7,8,8
India,Maharashtra,Mumbai,"Kandivali East, Mumbai - MPCB",03-06-2024 14:00:00,19.205800,72.868200,CO,30,34,32
India,Maharashtra,Mumbai,"Kandivali East, Mumbai - MPCB",03-06-2024 14:00:00,19.205800,72.868200,OZONE,21,31,29
India,Maharashtra,Mumbai,"Kandivali West, Mumbai - BMC",03-06-2024 14:00:00,19.215859,72.831718,CO,8,24,13
India,Maharashtra,Mumbai,"Kherwadi_Bandra East, Mumbai - MPCB",03-06-2024 14:00:00,19.0632143,72.8456324,PM2.5,29,48,39
India,Maharashtra,Mumbai,"Kherwadi_Bandra East, Mumbai - MPCB",03-06-2024 14:00:00,19.0632143,72.8456324,PM10,41,84,56
India,Maharashtra,Mumbai,"Khindipada-Bhandup West, Mumbai - IITM",03-06-2024 14:00:00,19.1653323,72.922099,NO2,4,9,5
India,Maharashtra,Mumbai,"Khindipada-Bhandup West, Mumbai - IITM",03-06-2024 14:00:00,19.1653323,72.922099,NH3,8,10,9
India,Maharashtra,Mumbai,"Mulund West, Mumbai - MPCB",03-06-2024 14:00:00,19.1750,72.9419,PM2.5,23,56,36
India,Maharashtra,Mumbai,"Mulund West, Mumbai - MPCB",03-06-2024 14:00:00,19.1750,72.9419,CO,36,36,36
India,Maharashtra,Mumbai,"Navy Nagar-Colaba, Mumbai - IITM",03-06-2024 14:00:00,18.897756,72.813320,CO,32,41,38
India,Maharashtra,Mumbai,"Navy Nagar-Colaba, Mumbai - IITM",03-06-2024 14:00:00,18.897756,72.813320,OZONE,37,65,43
India,Maharashtra,Mumbai,"Sewri, Mumbai - BMC",03-06-2024 14:00:00,19.000084,72.856730,NO2,NA,NA,NA
India,Maharashtra,Mumbai,"Siddharth Nagar-Worli, Mumbai - IITM",03-06-2024 14:00:00,19.000083,72.813993,PM2.5,40,65,59
India,Maharashtra,Mumbai,"Sion, Mumbai - MPCB",03-06-2024 14:00:00,19.047000,72.874600,PM10,48,110,71
India,Maharashtra,Mumbai,"Vasai West, Mumbai - MPCB",03-06-2024 14:00:00,19.383200,72.820400,NH3,4,4,4
India,Maharashtra,Mumbai,"Vile Parle West, Mumbai - MPCB",03-06-2024 14:00:00,19.10861,72.83622,PM10,54,136,98
India,Maharashtra,Mumbai,"Vile Parle West, Mumbai - MPCB",03-06-2024 14:00:00,19.10861,72.83622,NO2,6,8,7
India,Maharashtra,Nagpur,"Ambazari, Nagpur - MPCB",03-06-2024 14:00:00,21.121801,79.04952,PM2.5,33,98,58
India,Maharashtra,Nagpur,"Ambazari, Nagpur - MPCB",03-06-2024 14:00:00,21.121801,79.04952,NH3,2,9,4
India,Maharashtra,Nagpur,"Mahal, Nagpur - MPCB",03-06-2024 14:00:00,21.14472,79.107595,NO2,12,88,33
India,Maharashtra,Nagpur,"Mahal, Nagpur - MPCB",03-06-2024 14:00:00,21.14472,79.107595,SO2,5,52,18
India,Maharashtra,Nagpur,"Mahal, Nagpur - MPCB",03-06-2024 14:00:00,21.14472,79.107595,OZONE,13,170,82
India,Maharashtra,Nagpur,"Opp GPO Civil Lines, Nagpur - MPCB",03-06-2024 14:00:00,21.152875,79.0517531,SO2,3,71,20
India,Maharashtra,Nagpur,"Opp GPO Civil Lines, Nagpur - MPCB",03-06-2024 14:00:00,21.152875,79.0517531,CO,12,96,26
India,Maharashtra,Nashik,"MIDC Ambad, Nashik - MPCB",03-06-2024 14:00:00,19.950220,73.731480,SO2,16,33,22
India,Maharashtra,Nashik,"Pandav Nagari, Nashik - MPCB",03-06-2024 14:00:00,19.9591346,73.7788008,OZONE,21,62,33
India,Maharashtra,Navi Mumbai,"Kopripada-Vashi, Navi Mumbai - MPCB",03-06-2024 14:00:00,19.090337,73.014232,PM10,109,110,109
India,Maharashtra,Navi Mumbai,"Mahape, Navi Mumbai - MPCB",03-06-2024 14:00:00,19.1135051,73.008978,PM2.5,16,93,31
India,Maharashtra,Navi Mumbai,"Mahape, Navi Mumbai - MPCB",03-06-2024 14:00:00,19.1135051,73.008978,OZONE,6,26,12
India,Maharashtra,Navi Mumbai,"Nerul, Navi Mumbai - MPCB",03-06-2024 14:00:00,19.008751,73.016620,PM10,58,118,84
India,Maharashtra,Navi Mumbai,"Sector-19A Nerul, Navi Mumbai - IITM",03-06-2024 14:00:00,19.044,73.0325,PM10,NA,NA,NA
India,Maharashtra,Navi Mumbai,"Sector-19A Nerul, Navi Mumbai - IITM",03-06-2024 14:00:00,19.044,73.0325,NO2,9,34,21
India,Maharashtra,Navi Mumbai,"Sector-2E Kalamboli, Navi Mumbai - MPCB",03-06-2024 14:00:00,19.02579,73.10297,SO2,4,13,6
India,Maharashtra,Navi Mumbai,"Tondare-Taloja, Navi Mumbai - MPCB",03-06-2024 14:00:00,19.0630,73.1209,NH3,2,4,4
India,Maharashtra,Navi Mumbai,"Tondare-Taloja, Navi Mumbai - MPCB",03-06-2024 14:00:00,19.0630,73.1209,CO,1,21,10
India,Maharashtra,Parbhani,"Masoom Colony, Parbhani - MPCB",03-06-2024 14:00:00,19.265594,76.761463,NH3,3,7,5
India,Maharashtra,Pimpri-Chinchwad,"Gavalinagar, Pimpri Chinchwad - MPCB",03-06-2024 14:00:00,18.63673,73.82487,PM10,45,63,54
India,Maharashtra,Pimpri-Chinchwad,"Gavalinagar, Pimpri Chinchwad - MPCB",03-06-2024 14:00:00,18.63673,73.82487,CO,6,33,21
India,Maharashtra,Pune,"Alandi, Pune - IITM",03-06-2024 14:00:00,18.675076,73.892743,NO2,9,31,21
India,Maharashtra,Pune,"Alandi, Pune - IITM",03-06-2024 14:00:00,18.675076,73.892743,CO,41,58,50
India,Maharashtra,Pune,"Bhosari, Pune - IITM",03-06-2024 14:00:00,18.640051,73.848956,PM2.5,19,37,26
India,Maharashtra,Pune,"Mhada Colony, Pune - IITM",03-06-2024 14:00:00,18.573040,73.927715,PM2.5,6,56,38
India,Maharashtra,Pune,"Savitribai Phule Pune University, Pune - MPCB",03-06-2024 14:00:00,18.547056,73.826908,PM2.5,NA,NA,NA
India,Maharashtra,Pune,"Savitribai Phule Pune University, Pune - MPCB",03-06-2024 14:00:00,18.547056,73.826908,PM10,NA,NA,NA
India,Maharashtra,Pune,"Savitribai Phule Pune University, Pune - MPCB",03-06-2024 14:00:00,18.547056,73.826908,OZONE,NA,NA,NA
India,Maharashtra,Solapur,"Dnyaneshwar Nagar, Solapur - MPCB",03-06-2024 14:00:00,17.6336264,75.9132495,NO2,4,29,11
India,Maharashtra,Solapur,"Ratandeep Housing Society, Solapur - MPCB",03-06-2024 14:00:00,17.65439,75.90649,NO2,1,54,14
India,Maharashtra,Solapur,"Ratandeep Housing Society, Solapur - MPCB",03-06-2024 14:00:00,17.65439,75.90649,NH3,4,12,7
India,Maharashtra,Solapur,"Ratandeep Housing Society, Solapur - MPCB",03-06-2024 14:00:00,17.65439,75.90649,SO2,2,4,3
India,Maharashtra,Solapur,"Ratandeep Housing Society, Solapur - MPCB",03-06-2024 14:00:00,17.65439,75.90649,CO,12,50,17
India,Maharashtra,Thane,"Pimpleshwar Mandir, Thane - MPCB",03-06-2024 14:00:00,19.192056,72.9585188,PM10,70,105,87
India,Maharashtra,Thane,"Pimpleshwar Mandir, Thane - MPCB",03-06-2024 14:00:00,19.192056,72.9585188,SO2,1,3,1
India,Maharashtra,Thane,"Upvan Fort, Thane - MPCB",03-06-2024 14:00:00,19.222279,72.957979,PM10,43,77,61
India,Maharashtra,Ulhasnagar,"Sidhi Vinayak Nagar, Ulhasnagar - MPCB",03-06-2024 14:00:00,19.235581,73.159121,NO2,12,32,22
India,Manipur,Imphal,"Manipur University, Imphal - Manipur PCB",03-06-2024 14:00:00,24.7524239,93.9286218,PM2.5,26,54,37
India,Meghalaya,Shillong,"Lumpyngngad, Shillong - Meghalaya PCB",03-06-2024 14:00:00,25.5586,91.8985,CO,4,16,9
India,Mizoram,Aizawl,"Sikulpuikawn, Aizawl - Mizoram PCB",03-06-2024 14:00:00,23.7176342,92.7192841,OZONE,2,7,2
India,Nagaland,Kohima,"PWD Juction, Kohima - NPCB",03-06-2024 14:00:00,25.6635413,94.0989878,PM10,20,92,60
India,Nagaland,Kohima,"PWD Juction, Kohima - NPCB",03-06-2024 14:00:00,25.6635413,94.0989878,NH3,NA,NA,NA
India,Nagaland,Kohima,"PWD Juction, Kohima - NPCB",03-06-2024 14:00:00,25.6635413,94.0989878,CO,4,16,13
India,Odisha,Angul,"Hakimapada, Angul - OSPCB",03-06-2024 14:00:00,20.832874,85.104082,NH3,1,1,1
India,Odisha,Balasore,"Kalidaspur, Balasore - OSPCB",03-06-2024 14:00:00,21.51161,86.89088,NO2,2,4,3
India,Odisha,Bhubaneswar,"Lingraj Mandir, Bhubaneswar - OSPCB",03-06-2024 14:00:00,20.240790,85.836784,NH3,1,1,1
India,Odisha,Brajrajnagar,"GM Office, Brajrajnagar - OSPCB",03-06-2024 14:00:00,21.8004996,83.8396977,NH3,NA,NA,NA
India,Odisha,Brajrajnagar,"GM Office, Brajrajnagar - OSPCB",03-06-2024 14:00:00,21.8004996,83.8396977,SO2,NA,NA,NA
India,Odisha,Brajrajnagar,"GM Office, Brajrajnagar - OSPCB",03-06-2024 14:00:00,21.8004996,83.8396977,CO,55,104,76
India,Odisha,Byasanagar,"Ferro Chrome Colony, Byasanagar - OSPCB",03-06-2024 14:00:00,20.94185,86.11510,SO2,3,82,19
India,Odisha,Byasanagar,"Ferro Chrome Colony, Byasanagar - OSPCB",03-06-2024 14:00:00,20.94185,86.11510,CO,74,100,88
India,Odisha,Cuttack,"CDA Area, Cuttack - OSPCB",03-06-2024 14:00:00,20.48891     ,85.84768     ,PM10,13,121,47
India,Odisha,Cuttack,"CDA Area, Cuttack - OSPCB",03-06-2024 14:00:00,20.48891     ,85.84768     ,NH3,1,6,1
India,Odisha,Cuttack,"CDA Area, Cuttack - OSPCB",03-06-2024 14:00:00,20.48891     ,85.84768     ,OZONE,27,71,55
India,Odisha,Keonjhar,"Jagamohanpur, Keonjhar - OSPCB",03-06-2024 14:00:00,21.643900,85.599355,PM2.5,8,68,18
India,Odisha,Keonjhar,"Jagamohanpur, Keonjhar - OSPCB",03-06-2024 14:00:00,21.643900,85.599355,NH3,3,4,3
India,Odisha,Nayagarh,"Dabuna, Nayagarh - OSPCB",03-06-2024 14:00:00,21.847279,85.416905,SO2,1,5,2
India,Odisha,Rourkela,"Raghunathpali, Rourkela - OSPCB",03-06-2024 14:00:00,22.220833,84.809444,NH3,1,4,3
India,Odisha,Talcher,"Talcher Coalfields,Talcher - OSPCB",03-06-2024 14:00:00,20.9360711,85.1707021,PM2.5,9,104,51
India,Odisha,Talcher,"Talcher Coalfields,Talcher - OSPCB",03-06-2024 14:00:00,20.9360711,85.1707021,PM10,22,78,56
India,Odisha,Talcher,"Talcher Coalfields,Talcher - OSPCB",03-06-2024 14:00:00,20.9360711,85.1707021,OZONE,23,39,28
India,Odisha,Tensa,"Barsua Iron Ore Mines, Tensa - OSPCB",03-06-2024 14:00:00,21.869985,85.167016,PM10,31,111,63
India,Puducherry,Puducherry,"Jawahar Nagar, Puducherry - PPCC",03-06-2024 14:00:00,11.9309,79.8027,CO,36,42,39
India,Punjab,Amritsar,"Golden Temple, Amritsar - PPCB",03-06-2024 14:00:00,31.620000,74.876512,OZONE,39,56,50
India,Punjab,Bathinda,"Hardev Nagar, Bathinda - PPCB",03-06-2024 14:00:00,30.233011,74.907758,CO,1,118,32
India,Punjab,Jalandhar,"Civil Line, Jalandhar - PPCB",03-06-2024 14:00:00,31.321907,75.578914,PM2.5,95,227,162
India,Punjab,Khanna,"Kalal Majra, Khanna - PPCB",03-06-2024 14:00:00,30.736056 ,76.209694,NH3,12,13,12
India,Punjab,Ludhiana,"Punjab Agricultural University, Ludhiana - PPCB",03-06-2024 14:00:00,30.9028,75.8086,NH3,5,6,6
India,Punjab,Mandi Gobindgarh,"RIMT University, Mandi Gobindgarh - PPCB",03-06-2024 14:00:00,30.649961,76.331442,PM2.5,216,453,355
India,Punjab,Mandi Gobindgarh,"RIMT University, Mandi Gobindgarh - PPCB",03-06-2024 14:00:00,30.649961,76.331442,PM10,158,461,309
India,Punjab,Mandi Gobindgarh,"RIMT University, Mandi Gobindgarh - PPCB",03-06-2024 14:00:00,30.649961,76.331442,NO2,23,28,25
India,Punjab,Mandi Gobindgarh,"RIMT University, Mandi Gobindgarh - PPCB",03-06-2024 14:00:00,30.649961,76.331442,CO,46,66,52
India,Punjab,Patiala,"Model Town, Patiala - PPCB",03-06-2024 14:00:00,30.349388,76.366642,PM2.5,93,201,142
India,Punjab,Rupnagar,"Ratanpura, Rupnagar - Ambuja Cements",03-06-2024 14:00:00,31.0325454,76.5623046,PM10,111,350,193
India,Rajasthan,Ajmer,"Civil Lines,  Ajmer - RSPCB",03-06-2024 14:00:00,26.470859,74.646594,NO2,23,24,23
India,Rajasthan,Ajmer,"Civil Lines,  Ajmer - RSPCB",03-06-2024 14:00:00,26.470859,74.646594,SO2,7,44,16
India,Rajasthan,Alwar,"Moti Doongri, Alwar - RSPCB",03-06-2024 14:00:00,27.554793,76.611536,PM10,44,101,70
India,Rajasthan,Alwar,"Moti Doongri, Alwar - RSPCB",03-06-2024 14:00:00,27.554793,76.611536,NH3,1,6,4
India,Rajasthan,Alwar,"Moti Doongri, Alwar - RSPCB",03-06-2024 14:00:00,27.554793,76.611536,SO2,21,76,36
India,Rajasthan,Alwar,"Moti Doongri, Alwar - RSPCB",03-06-2024 14:00:00,27.554793,76.611536,CO,33,40,36
India,Rajasthan,Alwar,"Moti Doongri, Alwar - RSPCB",03-06-2024 14:00:00,27.554793,76.611536,OZONE,13,87,39
India,Rajasthan,Banswara,"Rati Talai, Banswara - RSPCB",03-06-2024 14:00:00,23.555190,74.440010,NO2,8,20,14
India,Rajasthan,Baran,"Bamboliya, Baran - RSPCB",03-06-2024 14:00:00,25.106006,76.469948,SO2,1,6,3
India,Rajasthan,Baran,"Bamboliya, Baran - RSPCB",03-06-2024 14:00:00,25.106006,76.469948,OZONE,60,108,76
India,Rajasthan,Bharatpur,"Krishna Nagar, Bharatpur - RSPCB",03-06-2024 14:00:00,27.215415,77.50873,PM2.5,20,71,45
India,Rajasthan,Bhilwara,"Pratap Nagar, Bhilwara - RSPCB",03-06-2024 14:00:00,25.339605,74.618883,PM2.5,20,69,44
India,Rajasthan,Bhilwara,"Pratap Nagar, Bhilwara - RSPCB",03-06-2024 14:00:00,25.339605,74.618883,PM10,24,79,50
India,Rajasthan,Bhilwara,"Pratap Nagar, Bhilwara - RSPCB",03-06-2024 14:00:00,25.339605,74.618883,NH3,1,2,1
India,Rajasthan,Bhilwara,"Pratap Nagar, Bhilwara - RSPCB",03-06-2024 14:00:00,25.339605,74.618883,SO2,9,50,21
India,Rajasthan,Bhilwara,"Pratap Nagar, Bhilwara - RSPCB",03-06-2024 14:00:00,25.339605,74.618883,CO,22,32,26
India,Rajasthan,Bhiwadi,"RIICO Ind. Area III, Bhiwadi - RSPCB",03-06-2024 14:00:00,28.194909,76.862296,NO2,24,33,28
India,Rajasthan,Bhiwadi,"RIICO Ind. Area III, Bhiwadi - RSPCB",03-06-2024 14:00:00,28.194909,76.862296,NH3,5,12,8
India,Rajasthan,Bhiwadi,"RIICO Ind. Area III, Bhiwadi - RSPCB",03-06-2024 14:00:00,28.194909,76.862296,SO2,11,38,26
India,Rajasthan,Bhiwadi,"RIICO Ind. Area III, Bhiwadi - RSPCB",03-06-2024 14:00:00,28.194909,76.862296,OZONE,10,87,51
India,Rajasthan,Bikaner,"MM Ground, Bikaner - RSPCB",03-06-2024 14:00:00,28.018792,73.292658,NO2,11,56,31
India,Rajasthan,Bundi,"New Colony, Bundi - RSPCB",03-06-2024 14:00:00,25.435774,75.644272,NO2,5,29,10
India,Rajasthan,Chittorgarh,"Shastri Nagar, Chittorgarh - RSPCB",03-06-2024 14:00:00,24.892047,74.623527,NO2,14,14,14
India,Rajasthan,Chittorgarh,"Shastri Nagar, Chittorgarh - RSPCB",03-06-2024 14:00:00,24.892047,74.623527,SO2,5,27,11
India,Rajasthan,Chittorgarh,"Shastri Nagar, Chittorgarh - RSPCB",03-06-2024 14:00:00,24.892047,74.623527,CO,7,22,11
India,Rajasthan,Churu,"Subash Chowk, Churu - RSPCB",03-06-2024 14:00:00,28.296139,74.961696,PM10,36,500,148
India,Rajasthan,Churu,"Subash Chowk, Churu - RSPCB",03-06-2024 14:00:00,28.296139,74.961696,NH3,6,12,8
India,Rajasthan,Churu,"Subash Chowk, Churu - RSPCB",03-06-2024 14:00:00,28.296139,74.961696,OZONE,46,115,75
India,Rajasthan,Dausa,"Khatikan Mohalla, Dausa - RSPCB",03-06-2024 14:00:00,26.895552,76.334753,NO2,NA,NA,NA
India,Rajasthan,Dausa,"Khatikan Mohalla, Dausa - RSPCB",03-06-2024 14:00:00,26.895552,76.334753,CO,35,76,59
India,Rajasthan,Dausa,"Khatikan Mohalla, Dausa - RSPCB",03-06-2024 14:00:00,26.895552,76.334753,OZONE,20,164,70
India,Rajasthan,Dholpur,"Raja Ganj, Dholpur - RSPCB",03-06-2024 14:00:00,26.699557,77.898881,OZONE,23,189,92
India,Rajasthan,Dungarpur,"Bhoiwada, Dungarpur - RSPCB",03-06-2024 14:00:00,23.837789,73.714926,PM2.5,38,70,50
India,Rajasthan,Dungarpur,"Bhoiwada, Dungarpur - RSPCB",03-06-2024 14:00:00,23.837789,73.714926,NH3,1,3,2
India,Rajasthan,Hanumangarh,"Housing Board, Hanumangarh - RSPCB",03-06-2024 14:00:00,29.610750,74.283608,SO2,6,19,13
India,Rajasthan,Jaipur,"Adarsh Nagar, Jaipur - RSPCB",03-06-2024 14:00:00,26.902909,75.836858,PM2.5,52,109,78
India,Rajasthan,Jaipur,"Adarsh Nagar, Jaipur - RSPCB",03-06-2024 14:00:00,26.902909,75.836858,PM10,60,136,89
India,Rajasthan,Jaipur,"Adarsh Nagar, Jaipur - RSPCB",03-06-2024 14:00:00,26.902909,75.836858,NO2,20,80,44
India,Rajasthan,Jaipur,"Adarsh Nagar, Jaipur - RSPCB",03-06-2024 14:00:00,26.902909,75.836858,CO,1,44,15
India,Rajasthan,Jaipur,"Shastri Nagar, Jaipur - RSPCB",03-06-2024 14:00:00,26.9502929,75.730943,SO2,6,46,22
India,Rajasthan,Jaisalmer,"Sadar Bazar, Jaisalmer - RSPCB",03-06-2024 14:00:00,26.912329,70.909168,PM2.5,39,96,68
India,Rajasthan,Jaisalmer,"Sadar Bazar, Jaisalmer - RSPCB",03-06-2024 14:00:00,26.912329,70.909168,NO2,8,27,15
India,Rajasthan,Jalore,"Mudtra Sili, Jalore - RSPCB",03-06-2024 14:00:00,25.344694,72.626208,SO2,3,10,7
India,Rajasthan,Jhalawar,"Rajlaxmi Nagar, Jhalawar - RSPCB",03-06-2024 14:00:00,24.588397,76.172782,OZONE,42,113,63
India,Rajasthan,Jhunjhunu,"Indra Nagar, Jhunjhunu - RSPCB",03-06-2024 14:00:00,28.108988,75.386577,PM2.5,26,192,55
India,Rajasthan,Jhunjhunu,"Indra Nagar, Jhunjhunu - RSPCB",03-06-2024 14:00:00,28.108988,75.386577,OZONE,28,121,74
India,Rajasthan,Jodhpur,"Mandor, Jodhpur - RSPCB",03-06-2024 14:00:00,26.358805,73.047444,CO,11,21,14
India,Rajasthan,Jodhpur,"Samrat Ashok Udhyan, Jodhpur - RSPCB",03-06-2024 14:00:00,26.253384,72.976571,SO2,3,5,4
India,Rajasthan,Kota,"Dhanmandi, Kota - RSPCB",03-06-2024 14:00:00,25.164090,75.858137,SO2,1,38,11
India,Rajasthan,Kota,"Nayapura, Kota - RSPCB",03-06-2024 14:00:00,25.196024,75.855668,NH3,2,4,2
India,Rajasthan,Kota,"Shrinath Puram, Kota - RSPCB",03-06-2024 14:00:00,25.14389,75.821256,PM2.5,15,167,78
India,Rajasthan,Pali,"Indira Colony Vistar, Pali - RSPCB",03-06-2024 14:00:00,25.771061, 73.340227,NH3,6,11,8
India,Rajasthan,Pali,"Indira Colony Vistar, Pali - RSPCB",03-06-2024 14:00:00,25.771061, 73.340227,SO2,6,10,8
India,Rajasthan,Pali,"Indira Colony Vistar, Pali - RSPCB",03-06-2024 14:00:00,25.771061, 73.340227,CO,4,64,43
India,Rajasthan,Pratapgarh,"Pragati Nagar, Pratapgarh - RSPCB",03-06-2024 14:00:00,24.041198,74.780702,CO,8,20,14
India,Rajasthan,Pratapgarh,"Pragati Nagar, Pratapgarh - RSPCB",03-06-2024 14:00:00,24.041198,74.780702,OZONE,38,96,62
India,Rajasthan,Rajsamand,"Dhoinda, Rajsamand - RSPCB",03-06-2024 14:00:00,25.036360,73.883502,SO2,1,8,4
India,Rajasthan,Sri Ganganagar,"Old City, Sri Ganganagar - RSPCB",03-06-2024 14:00:00,29.931624,73.864511,CO,6,120,60
India,Rajasthan,Tonk,"Shastri Nagar, Tonk - RSPCB",03-06-2024 14:00:00,26.159933,75.780517,NH3,1,9,4
India,Rajasthan,Tonk,"Shastri Nagar, Tonk - RSPCB",03-06-2024 14:00:00,26.159933,75.780517,CO,2,80,60
India,Rajasthan,Tonk,"Shastri Nagar, Tonk - RSPCB",03-06-2024 14:00:00,26.159933,75.780517,OZONE,14,82,62
India,TamilNadu,Chennai,"Alandur Bus Depot, Chennai - CPCB",03-06-2024 14:00:00,12.9099161,80.1076538,PM10,23,119,35
India,TamilNadu,Chennai,"Alandur Bus Depot, Chennai - CPCB",03-06-2024 14:00:00,12.9099161,80.1076538,NO2,7,15,10
India,TamilNadu,Chennai,"Alandur Bus Depot, Chennai - CPCB",03-06-2024 14:00:00,12.9099161,80.1076538,NH3,7,10,8
India,TamilNadu,Chennai,"Arumbakkam, Chennai - TNPCB",03-06-2024 14:00:00,13.0664,80.2112 ,PM10,17,100,52
India,TamilNadu,Chennai,"Kodungaiyur, Chennai - TNPCB",03-06-2024 14:00:00,13.1278,80.2642,NO2,NA,NA,NA
India,TamilNadu,Chennai,"Perungudi, Chennai - TNPCB",03-06-2024 14:00:00,12.9533,80.2357,NO2,2,13,6
India,TamilNadu,Chennai,"Royapuram, Chennai - TNPCB",03-06-2024 14:00:00,13.1036,80.2909,OZONE,7,11,8
India,TamilNadu,Ooty,"Bombay Castel, Ooty - TNPCB",03-06-2024 14:00:00,11.4068288,76.7138973,NO2,NA,NA,NA
India,TamilNadu,Ooty,"Bombay Castel, Ooty - TNPCB",03-06-2024 14:00:00,11.4068288,76.7138973,CO,22,24,24
India,TamilNadu,Ramanathapuram,"Chalai Bazaar, Ramanathapuram - TNPCB",03-06-2024 14:00:00,9.36399,78.831977,SO2,NA,NA,NA
India,TamilNadu,Ramanathapuram,"Chalai Bazaar, Ramanathapuram - TNPCB",03-06-2024 14:00:00,9.36399,78.831977,OZONE,13,14,14
India,TamilNadu,Salem,"Sona College of Technology, Salem - TNPCB",03-06-2024 14:00:00,11.679111,78.125052,PM10,NA,NA,NA
India,TamilNadu,Salem,"Sona College of Technology, Salem - TNPCB",03-06-2024 14:00:00,11.679111,78.125052,NO2,NA,NA,NA
India,TamilNadu,Salem,"Sona College of Technology, Salem - TNPCB",03-06-2024 14:00:00,11.679111,78.125052,SO2,NA,NA,NA
India,TamilNadu,Thoothukudi,"Meelavittan, Thoothukudi - TNPCB",03-06-2024 14:00:00,8.816428 ,78.099039,CO,7,174,72
India,TamilNadu,Tirupur,"Kumaran College, Tirupur - TNPCB",03-06-2024 14:00:00,11.0973603,77.3228673,SO2,16,60,19
India,TamilNadu,Tirupur,"Kumaran College, Tirupur - TNPCB",03-06-2024 14:00:00,11.0973603,77.3228673,OZONE,6,7,6
India,Telangana,Hyderabad,"Central University, Hyderabad - TSPCB",03-06-2024 14:00:00,17.460103,78.334361,PM2.5,10,48,29
India,Telangana,Hyderabad,"ICRISAT Patancheru, Hyderabad - TSPCB",03-06-2024 14:00:00,17.518400,78.278777,CO,8,100,18
India,Telangana,Hyderabad,"Kokapet, Hyderabad - TSPCB",03-06-2024 14:00:00,17.393559,78.339194,PM2.5,59,134,84
India,Telangana,Hyderabad,"Kompally Municipal Office, Hyderabad - TSPCB",03-06-2024 14:00:00,17.544899,78.486949,OZONE,24,24,24
India,Telangana,Hyderabad,"Nacharam_TSIIC IALA, Hyderabad - TSPCB",03-06-2024 14:00:00,17.429398,78.569354,NO2,12,17,16
India,Telangana,Hyderabad,"Nacharam_TSIIC IALA, Hyderabad - TSPCB",03-06-2024 14:00:00,17.429398,78.569354,CO,20,37,27
India,Telangana,Hyderabad,"Nacharam_TSIIC IALA, Hyderabad - TSPCB",03-06-2024 14:00:00,17.429398,78.569354,OZONE,12,60,22
India,Telangana,Hyderabad,"New Malakpet, Hyderabad - TSPCB",03-06-2024 14:00:00,17.37206,78.50864,PM10,72,89,81
India,Telangana,Hyderabad,"Ramachandrapuram, Hyderabad - TSPCB",03-06-2024 14:00:00,17.528544,78.286195,PM2.5,NA,NA,NA
India,Telangana,Hyderabad,"Ramachandrapuram, Hyderabad - TSPCB",03-06-2024 14:00:00,17.528544,78.286195,PM10,NA,NA,NA
India,Telangana,Hyderabad,"Ramachandrapuram, Hyderabad - TSPCB",03-06-2024 14:00:00,17.528544,78.286195,NO2,NA,NA,NA
India,Telangana,Hyderabad,"Ramachandrapuram, Hyderabad - TSPCB",03-06-2024 14:00:00,17.528544,78.286195,SO2,NA,NA,NA
India,Telangana,Hyderabad,"Ramachandrapuram, Hyderabad - TSPCB",03-06-2024 14:00:00,17.528544,78.286195,OZONE,28,50,32
India,Telangana,Hyderabad,"Sanathnagar, Hyderabad - TSPCB",03-06-2024 14:00:00,17.4559458,78.4332152,SO2,2,22,7
India,Telangana,Hyderabad,"Sanathnagar, Hyderabad - TSPCB",03-06-2024 14:00:00,17.4559458,78.4332152,OZONE,13,18,16
India,Telangana,Hyderabad,"Zoo Park, Hyderabad - TSPCB",03-06-2024 14:00:00,17.349694,78.451437,NH3,1,1,1
India,Telangana,Hyderabad,"Zoo Park, Hyderabad - TSPCB",03-06-2024 14:00:00,17.349694,78.451437,SO2,2,19,4
India,Tripura,Agartala,"Bardowali, Agartala - Tripura SPCB",03-06-2024 14:00:00,23.8175497,91.2726974,SO2,35,37,36
India,Tripura,Agartala,"Bardowali, Agartala - Tripura SPCB",03-06-2024 14:00:00,23.8175497,91.2726974,CO,2,23,10
India,Uttar_Pradesh,Agra,"Manoharpur, Agra - UPPCB",03-06-2024 14:00:00,27.23711,78.01936,PM2.5,20,79,41
India,Uttar_Pradesh,Agra,"Manoharpur, Agra - UPPCB",03-06-2024 14:00:00,27.23711,78.01936,CO,6,14,10
India,Uttar_Pradesh,Agra,"Rohta, Agra - UPPCB",03-06-2024 14:00:00,27.106972,78.000111,PM2.5,8,49,30
India,Uttar_Pradesh,Agra,"Rohta, Agra - UPPCB",03-06-2024 14:00:00,27.106972,78.000111,SO2,2,10,5
India,Uttar_Pradesh,Agra,"Rohta, Agra - UPPCB",03-06-2024 14:00:00,27.106972,78.000111,OZONE,18,20,18
India,Uttar_Pradesh,Agra,"Sanjay Palace, Agra - UPPCB",03-06-2024 14:00:00,27.19865833,78.00598056,PM2.5,8,71,29
India,Uttar_Pradesh,Agra,"Sanjay Palace, Agra - UPPCB",03-06-2024 14:00:00,27.19865833,78.00598056,SO2,2,12,7
India,Uttar_Pradesh,Agra,"Sanjay Palace, Agra - UPPCB",03-06-2024 14:00:00,27.19865833,78.00598056,CO,1,94,16
India,Uttar_Pradesh,Agra,"Shahjahan Garden, Agra - UPPCB",03-06-2024 14:00:00,27.169338,78.03582,NO2,18,19,19
India,Uttar_Pradesh,Agra,"Shahjahan Garden, Agra - UPPCB",03-06-2024 14:00:00,27.169338,78.03582,NH3,8,11,9
India,Uttar_Pradesh,Agra,"Shahjahan Garden, Agra - UPPCB",03-06-2024 14:00:00,27.169338,78.03582,SO2,31,42,36
India,Uttar_Pradesh,Agra,"Shastripuram, Agra - UPPCB",03-06-2024 14:00:00,27.19862,77.92066,NO2,33,49,36
India,Uttar_Pradesh,Agra,"Shastripuram, Agra - UPPCB",03-06-2024 14:00:00,27.19862,77.92066,NH3,3,5,4
India,Uttar_Pradesh,Baghpat,"Sardar Patel Inter College, Baghpat - UPPCB",03-06-2024 14:00:00,28.964949,77.278761,CO,44,93,52
India,Uttar_Pradesh,Bareilly,"Rajendra Nagar, Bareilly - UPPCB",03-06-2024 14:00:00,28.38910936,79.42963708,PM2.5,24,37,29
India,Uttar_Pradesh,Bareilly,"Rajendra Nagar, Bareilly - UPPCB",03-06-2024 14:00:00,28.38910936,79.42963708,NH3,1,7,1
India,Uttar_Pradesh,Bulandshahr,"Yamunapuram, Bulandshahr - UPPCB",03-06-2024 14:00:00,28.406963,77.849831,NO2,13,57,30
India,Uttar_Pradesh,Firozabad,"Nagla Bhau, Firozabad - UPPCB",03-06-2024 14:00:00,27.168897,78.376960,PM2.5,13,162,43
India,Uttar_Pradesh,Firozabad,"Vibhab Nagar, Firozabad - UPPCB",03-06-2024 14:00:00,27.1594,78.3953,PM10,32,153,74
India,Uttar_Pradesh,Firozabad,"Vibhab Nagar, Firozabad - UPPCB",03-06-2024 14:00:00,27.1594,78.3953,NO2,11,14,14
India,Uttar_Pradesh,Firozabad,"Vibhab Nagar, Firozabad - UPPCB",03-06-2024 14:00:00,27.1594,78.3953,CO,12,30,20
India,Uttar_Pradesh,Ghaziabad,"Indirapuram, Ghaziabad - UPPCB",03-06-2024 14:00:00,28.646233,77.358075,NH3,11,19,13
India,Uttar_Pradesh,Ghaziabad,"Indirapuram, Ghaziabad - UPPCB",03-06-2024 14:00:00,28.646233,77.358075,SO2,8,28,15
India,Uttar_Pradesh,Ghaziabad,"Indirapuram, Ghaziabad - UPPCB",03-06-2024 14:00:00,28.646233,77.358075,CO,32,70,45
India,Uttar_Pradesh,Ghaziabad,"Indirapuram, Ghaziabad - UPPCB",03-06-2024 14:00:00,28.646233,77.358075,OZONE,15,112,63
India,Uttar_Pradesh,Ghaziabad,"Loni, Ghaziabad - UPPCB",03-06-2024 14:00:00,28.757294,77.278792,PM10,88,252,133
India,Uttar_Pradesh,Ghaziabad,"Vasundhara, Ghaziabad - UPPCB",03-06-2024 14:00:00,28.6603346,77.3572563,CO,6,80,40
India,Uttar_Pradesh,Gorakhpur,"Madan Mohan Malaviya University of Technology, Gorakhpur - UPPCB",03-06-2024 14:00:00,26.730136,83.433859,NH3,1,1,1
India,Uttar_Pradesh,Greater Noida,"Knowledge Park - III, Greater Noida - UPPCB",03-06-2024 14:00:00,28.47272,77.482000,SO2,5,36,15
India,Uttar_Pradesh,Greater Noida,"Knowledge Park - V, Greater Noida - UPPCB",03-06-2024 14:00:00,28.557054,77.453663,PM2.5,32,357,209
India,Uttar_Pradesh,Hapur,"Anand Vihar, Hapur - UPPCB",03-06-2024 14:00:00,28.725645,77.749675,OZONE,1,33,16
India,Uttar_Pradesh,Kanpur,"Nehru Nagar, Kanpur - UPPCB",03-06-2024 14:00:00,26.4703136,80.3229863,PM2.5,23,97,60
India,Uttar_Pradesh,Kanpur,"Nehru Nagar, Kanpur - UPPCB",03-06-2024 14:00:00,26.4703136,80.3229863,NO2,39,53,45
India,Uttar_Pradesh,Kanpur,"Nehru Nagar, Kanpur - UPPCB",03-06-2024 14:00:00,26.4703136,80.3229863,CO,66,89,79
India,Uttar_Pradesh,Kanpur,"Nehru Nagar, Kanpur - UPPCB",03-06-2024 14:00:00,26.4703136,80.3229863,OZONE,136,268,172
India,Uttar_Pradesh,Lucknow,"Gomti Nagar, Lucknow - UPPCB",03-06-2024 14:00:00,26.868120,81.005119,OZONE,41,54,47
India,Uttar_Pradesh,Lucknow,"Kendriya Vidyalaya, Lucknow - CPCB",03-06-2024 14:00:00,26.906111,80.948222,NH3,3,17,12
India,Uttar_Pradesh,Lucknow,"Kukrail Picnic Spot-1, Lucknow - UPPCB",03-06-2024 14:00:00,26.90723,80.98579,PM10,79,119,97
India,Uttar_Pradesh,Lucknow,"Kukrail Picnic Spot-1, Lucknow - UPPCB",03-06-2024 14:00:00,26.90723,80.98579,CO,20,30,25
India,Uttar_Pradesh,Lucknow,"Lalbagh, Lucknow - CPCB",03-06-2024 14:00:00,26.8458805,80.9365541,PM10,115,169,151
India,Uttar_Pradesh,Lucknow,"Lalbagh, Lucknow - CPCB",03-06-2024 14:00:00,26.8458805,80.9365541,OZONE,24,160,58
India,Uttar_Pradesh,Meerut,"Ganga Nagar, Meerut - UPPCB",03-06-2024 14:00:00,28.999264,77.7590354,PM2.5,32,82,50
India,Uttar_Pradesh,Meerut,"Ganga Nagar, Meerut - UPPCB",03-06-2024 14:00:00,28.999264,77.7590354,NH3,7,21,11
India,Uttar_Pradesh,Meerut,"Ganga Nagar, Meerut - UPPCB",03-06-2024 14:00:00,28.999264,77.7590354,CO,1,172,44
India,Uttar_Pradesh,Meerut,"Jai Bhim Nagar, Meerut - UPPCB",03-06-2024 14:00:00,28.9535882,77.7622941,SO2,8,12,10
India,Uttar_Pradesh,Meerut,"Jai Bhim Nagar, Meerut - UPPCB",03-06-2024 14:00:00,28.9535882,77.7622941,OZONE,16,120,49
India,Uttar_Pradesh,Meerut,"Pallavpuram Phase 2, Meerut - UPPCB",03-06-2024 14:00:00,29.063510,77.709723,PM2.5,35,84,57
India,Uttar_Pradesh,Meerut,"Pallavpuram Phase 2, Meerut - UPPCB",03-06-2024 14:00:00,29.063510,77.709723,PM10,107,196,144
India,Uttar_Pradesh,Meerut,"Pallavpuram Phase 2, Meerut - UPPCB",03-06-2024 14:00:00,29.063510,77.709723,CO,20,88,30
India,Uttar_Pradesh,Meerut,"Pallavpuram Phase 2, Meerut - UPPCB",03-06-2024 14:00:00,29.063510,77.709723,OZONE,11,111,41
India,Uttar_Pradesh,Moradabad,"Buddhi Vihar, Moradabad - UPPCB",03-06-2024 14:00:00,28.83526,78.74460,SO2,8,10,9
India,Uttar_Pradesh,Moradabad,"Eco Herbal Park, Moradabad - UPPCB",03-06-2024 14:00:00,28.840739,78.697531,PM2.5,32,98,70
India,Uttar_Pradesh,Moradabad,"Eco Herbal Park, Moradabad - UPPCB",03-06-2024 14:00:00,28.840739,78.697531,CO,20,72,32
India,Uttar_Pradesh,Moradabad,"Employment Office, Moradabad - UPPCB",03-06-2024 14:00:00,28.88528,78.73880,SO2,19,31,22
India,Uttar_Pradesh,Moradabad,"Employment Office, Moradabad - UPPCB",03-06-2024 14:00:00,28.88528,78.73880,OZONE,12,86,32
India,Uttar_Pradesh,Moradabad,"Jigar Colony, Moradabad - UPPCB",03-06-2024 14:00:00,28.856664,78.772638,SO2,19,24,20
India,Uttar_Pradesh,Moradabad,"Kashiram Nagar, Moradabad - UPPCB",03-06-2024 14:00:00,28.849399,78.742362,PM2.5,38,162,92
India,Uttar_Pradesh,Moradabad,"Transport Nagar, Moradabad - UPPCB",03-06-2024 14:00:00,28.802625,78.753728,PM10,NA,NA,NA
India,Uttar_Pradesh,Moradabad,"Transport Nagar, Moradabad - UPPCB",03-06-2024 14:00:00,28.802625,78.753728,SO2,48,73,64
India,Uttar_Pradesh,Muzaffarnagar,"New Mandi, Muzaffarnagar - UPPCB",03-06-2024 14:00:00,29.4723508,77.7194031,OZONE,8,97,45
India,Uttar_Pradesh,Noida,"Sector - 125, Noida - UPPCB",03-06-2024 14:00:00,28.5447608,77.3231257,PM2.5,49,153,72
India,Uttar_Pradesh,Noida,"Sector - 125, Noida - UPPCB",03-06-2024 14:00:00,28.5447608,77.3231257,CO,24,48,41
India,Uttar_Pradesh,Noida,"Sector - 125, Noida - UPPCB",03-06-2024 14:00:00,28.5447608,77.3231257,OZONE,10,133,60
India,Uttar_Pradesh,Noida,"Sector-116, Noida - UPPCB",03-06-2024 14:00:00,28.569230,77.393848,PM2.5,46,107,65
India,Uttar_Pradesh,Noida,"Sector-116, Noida - UPPCB",03-06-2024 14:00:00,28.569230,77.393848,NO2,27,79,45
India,Uttar_Pradesh,Prayagraj,"Jhunsi, Prayagraj - UPPCB",03-06-2024 14:00:00,25.425602,81.917152,NO2,6,6,6
India,Uttar_Pradesh,Prayagraj,"Jhunsi, Prayagraj - UPPCB",03-06-2024 14:00:00,25.425602,81.917152,SO2,30,31,30
India,Uttar_Pradesh,Prayagraj,"Motilal Nehru NIT, Prayagraj - UPPCB",03-06-2024 14:00:00,25.494,81.863,PM2.5,17,61,33
India,Uttar_Pradesh,Prayagraj,"Motilal Nehru NIT, Prayagraj - UPPCB",03-06-2024 14:00:00,25.494,81.863,PM10,16,102,58
India,Uttar_Pradesh,Varanasi,"Ardhali Bazar, Varanasi - UPPCB",03-06-2024 14:00:00,25.3505986,82.9083074,PM10,25,64,41
India,Uttar_Pradesh,Varanasi,"Ardhali Bazar, Varanasi - UPPCB",03-06-2024 14:00:00,25.3505986,82.9083074,SO2,12,25,17
India,Uttar_Pradesh,Varanasi,"Bhelupur, Varanasi - UPPCB",03-06-2024 14:00:00,25.301778,82.996789,NH3,1,1,1
India,Uttar_Pradesh,Varanasi,"IESD Banaras Hindu University, Varanasi - UPPCB",03-06-2024 14:00:00,25.262326,82.995408,NH3,1,2,1
India,Uttar_Pradesh,Varanasi,"Maldahiya, Varanasi - UPPCB",03-06-2024 14:00:00,25.32393,82.99687,PM10,17,79,32
India,Uttar_Pradesh,Varanasi,"Maldahiya, Varanasi - UPPCB",03-06-2024 14:00:00,25.32393,82.99687,NH3,1,1,1
India,Uttar_Pradesh,Vrindavan,"Omex Eternity, Vrindavan - UPPCB",03-06-2024 14:00:00,27.5714090,77.6557570,PM2.5,18,57,31
India,Uttar_Pradesh,Vrindavan,"Omex Eternity, Vrindavan - UPPCB",03-06-2024 14:00:00,27.5714090,77.6557570,PM10,26,193,97
India,Uttar_Pradesh,Vrindavan,"Omex Eternity, Vrindavan - UPPCB",03-06-2024 14:00:00,27.5714090,77.6557570,NH3,1,1,1
India,Uttar_Pradesh,Vrindavan,"Omex Eternity, Vrindavan - UPPCB",03-06-2024 14:00:00,27.5714090,77.6557570,SO2,42,49,45
India,Uttarakhand,Kashipur,"Govt. Girls Inter College, Kashipur - UKPCB",03-06-2024 14:00:00,29.2124114,78.9611753,PM2.5,47,120,77
India,Uttarakhand,Rishikesh,"Shivaji Nagar, Rishikesh - UKPCB",03-06-2024 14:00:00,30.075911,78.2859547,PM2.5,46,102,78
India,Uttarakhand,Rishikesh,"Shivaji Nagar, Rishikesh - UKPCB",03-06-2024 14:00:00,30.075911,78.2859547,CO,10,61,31
India,West_Bengal,Asansol,"Asansol Court Area, Asansol - WBPCB",03-06-2024 14:00:00,23.685297,86.945968,PM10,57,118,89
India,West_Bengal,Asansol,"Asansol Court Area, Asansol - WBPCB",03-06-2024 14:00:00,23.685297,86.945968,NO2,14,380,147
India,West_Bengal,Asansol,"Asansol Court Area, Asansol - WBPCB",03-06-2024 14:00:00,23.685297,86.945968,CO,10,62,38
India,West_Bengal,Durgapur,"PCBL Residential Complex, Durgapur - WBPCB",03-06-2024 14:00:00,23.5087640,87.3544400,NH3,1,1,1
India,West_Bengal,Durgapur,"PCBL Residential Complex, Durgapur - WBPCB",03-06-2024 14:00:00,23.5087640,87.3544400,OZONE,13,84,50
India,West_Bengal,Durgapur,"Sidhu Kanhu Indoor Stadium, Durgapur - WBPCB",03-06-2024 14:00:00,23.5404352,87.2892225,NO2,17,32,22
India,West_Bengal,Durgapur,"Sidhu Kanhu Indoor Stadium, Durgapur - WBPCB",03-06-2024 14:00:00,23.5404352,87.2892225,CO,18,82,30
India,West_Bengal,Haldia,"Priyambada Housing Estate, Haldia - WBPCB",03-06-2024 14:00:00,22.06047,88.109737,NH3,4,5,4
India,West_Bengal,Haldia,"Priyambada Housing Estate, Haldia - WBPCB",03-06-2024 14:00:00,22.06047,88.109737,CO,26,32,30
India,West_Bengal,Howrah,"Belur Math, Howrah - WBPCB",03-06-2024 14:00:00,22.629801,88.352017,CO,2,12,7
India,West_Bengal,Howrah,"Padmapukur, Howrah - WBPCB",03-06-2024 14:00:00,22.5687319,88.2797276,PM10,50,86,67
India,West_Bengal,Howrah,"Padmapukur, Howrah - WBPCB",03-06-2024 14:00:00,22.5687319,88.2797276,OZONE,21,45,38
India,West_Bengal,Kolkata,"Ballygunge, Kolkata - WBPCB",03-06-2024 14:00:00,22.5367507,88.3638022,NH3,9,11,10
India,West_Bengal,Kolkata,"Ballygunge, Kolkata - WBPCB",03-06-2024 14:00:00,22.5367507,88.3638022,OZONE,27,95,57
India,West_Bengal,Kolkata,"Fort William, Kolkata - WBPCB",03-06-2024 14:00:00,22.556640,88.342674,SO2,4,12,6
India,West_Bengal,Kolkata,"Jadavpur, Kolkata - WBPCB",03-06-2024 14:00:00,22.49929,88.36917,PM10,36,61,48
India,West_Bengal,Kolkata,"Jadavpur, Kolkata - WBPCB",03-06-2024 14:00:00,22.49929,88.36917,NO2,12,13,12
India,West_Bengal,Kolkata,"Jadavpur, Kolkata - WBPCB",03-06-2024 14:00:00,22.49929,88.36917,OZONE,16,77,49
India,West_Bengal,Kolkata,"Rabindra Bharati University, Kolkata - WBPCB",03-06-2024 14:00:00,22.627847,88.380669,NO2,48,51,50
India,West_Bengal,Kolkata,"Victoria, Kolkata - WBPCB",03-06-2024 14:00:00,22.5448082,88.3403691,NO2,23,30,26
India,Andhra_Pradesh,Amaravati,"Secretariat, Amaravati - APPCB",03-06-2024 14:00:00,16.5150833,80.5181667,CO,14,125,32
India,Andhra_Pradesh,Anantapur,"Gulzarpet, Anantapur - APPCB",03-06-2024 14:00:00,14.675886,77.593027,SO2,3,11,7
India,Andhra_Pradesh,Kadapa,"Yerramukkapalli, Kadapa - APPCB",03-06-2024 14:00:00,14.465052,78.824187,PM10,29,63,34
India,Andhra_Pradesh,Kadapa,"Yerramukkapalli, Kadapa - APPCB",03-06-2024 14:00:00,14.465052,78.824187,SO2,2,3,2
India,Andhra_Pradesh,Kadapa,"Yerramukkapalli, Kadapa - APPCB",03-06-2024 14:00:00,14.465052,78.824187,CO,5,28,20
India,Andhra_Pradesh,Rajamahendravaram,"Anand Kala Kshetram, Rajamahendravaram - APPCB",03-06-2024 14:00:00,16.9872867,81.7363176,NH3,6,16,8
India,Andhra_Pradesh,Tirupati,"Tirumala, Tirupati - APPCB",03-06-2024 14:00:00,13.67,79.35,PM2.5,18,91,48
India,Andhra_Pradesh,Tirupati,"Tirumala, Tirupati - APPCB",03-06-2024 14:00:00,13.67,79.35,PM10,26,92,47
India,Andhra_Pradesh,Tirupati,"Vaikuntapuram, Tirupati - APPCB",03-06-2024 14:00:00,13.615387,79.409230,PM2.5,3,133,32
India,Andhra_Pradesh,Tirupati,"Vaikuntapuram, Tirupati - APPCB",03-06-2024 14:00:00,13.615387,79.409230,PM10,2,81,21
India,Andhra_Pradesh,Tirupati,"Vaikuntapuram, Tirupati - APPCB",03-06-2024 14:00:00,13.615387,79.409230,NH3,2,3,3
India,Andhra_Pradesh,Tirupati,"Vaikuntapuram, Tirupati - APPCB",03-06-2024 14:00:00,13.615387,79.409230,CO,9,15,13
India,Andhra_Pradesh,Vijayawada,"HB Colony, Vijayawada - APPCB",03-06-2024 14:00:00,16.536107,80.594233,NO2,13,29,18
India,Andhra_Pradesh,Vijayawada,"HB Colony, Vijayawada - APPCB",03-06-2024 14:00:00,16.536107,80.594233,OZONE,15,43,24
India,Andhra_Pradesh,Vijayawada,"Kanuru, Vijayawada - APPCB",03-06-2024 14:00:00,16.486692,80.699436,NO2,14,20,15
India,Andhra_Pradesh,Vijayawada,"Kanuru, Vijayawada - APPCB",03-06-2024 14:00:00,16.486692,80.699436,SO2,7,9,9
India,Andhra_Pradesh,Vijayawada,"Rajiv Gandhi Park, Vijayawada - APPCB",03-06-2024 14:00:00,16.509717,80.612222,PM2.5,42,75,58
India,Andhra_Pradesh,Vijayawada,"Rajiv Gandhi Park, Vijayawada - APPCB",03-06-2024 14:00:00,16.509717,80.612222,PM10,44,79,61
India,Andhra_Pradesh,Vijayawada,"Rajiv Gandhi Park, Vijayawada - APPCB",03-06-2024 14:00:00,16.509717,80.612222,SO2,5,7,6
India,Andhra_Pradesh,Vijayawada,"Rajiv Gandhi Park, Vijayawada - APPCB",03-06-2024 14:00:00,16.509717,80.612222,CO,35,37,36
India,Andhra_Pradesh,Vijayawada,"Rajiv Nagar, Vijayawada - APPCB",03-06-2024 14:00:00,16.554731,80.649110,SO2,14,27,17
India,Arunachal_Pradesh,Naharlagun,"Naharlagun, Naharlagun - APSPCB",03-06-2024 14:00:00,27.103358,93.679645,SO2,NA,NA,NA
India,Assam,Byrnihat,"Central Academy for SFS, Byrnihat - PCBA",03-06-2024 14:00:00,26.071318,91.87488,OZONE,23,132,38
India,Assam,Guwahati,"IITG, Guwahati - PCBA",03-06-2024 14:00:00,26.2028636,91.70046436,NO2,NA,NA,NA
India,Assam,Guwahati,"LGBI Airport, Guwahati - PCBA",03-06-2024 14:00:00,26.10887,91.589544,PM10,NA,NA,NA
India,Assam,Guwahati,"LGBI Airport, Guwahati - PCBA",03-06-2024 14:00:00,26.10887,91.589544,SO2,NA,NA,NA
India,Assam,Guwahati,"Pan Bazaar, Guwahati - PCBA",03-06-2024 14:00:00,26.187500,91.744194,OZONE,16,18,17
India,Assam,Guwahati,"Railway Colony, Guwahati - PCBA",03-06-2024 14:00:00,26.181742,91.78063,NO2,3,4,3
India,Assam,Nagaon,"Christianpatty, Nagaon - PCBA",03-06-2024 14:00:00,26.349082,92.68449,PM10,38,190,114
India,Assam,Nagaon,"Christianpatty, Nagaon - PCBA",03-06-2024 14:00:00,26.349082,92.68449,SO2,1,25,12
India,Assam,Nagaon,"Christianpatty, Nagaon - PCBA",03-06-2024 14:00:00,26.349082,92.68449,OZONE,3,76,40
India,Assam,Nalbari,"Bata Chowk, Nalbari - PCBA",03-06-2024 14:00:00,26.446912,91.439057,NH3,1,2,1
India,Assam,Nalbari,"Bata Chowk, Nalbari - PCBA",03-06-2024 14:00:00,26.446912,91.439057,CO,22,44,42
India,Assam,Nalbari,"Bata Chowk, Nalbari - PCBA",03-06-2024 14:00:00,26.446912,91.439057,OZONE,16,85,38
India,Bihar,Araria,"Kharahiya Basti, Araria - BSPCB",03-06-2024 14:00:00,26.146529,87.454184,PM10,26,73,47
India,Bihar,Araria,"Kharahiya Basti, Araria - BSPCB",03-06-2024 14:00:00,26.146529,87.454184,SO2,8,18,14
India,Bihar,Araria,"Kharahiya Basti, Araria - BSPCB",03-06-2024 14:00:00,26.146529,87.454184,OZONE,1,11,8
India,Bihar,Arrah,"New DM Office, Arrah - BSPCB",03-06-2024 14:00:00,25.5626095,84.663264,PM10,22,85,54
India,Bihar,Arrah,"New DM Office, Arrah - BSPCB",03-06-2024 14:00:00,25.5626095,84.663264,SO2,2,33,14
India,Bihar,Aurangabad,"Gurdeo Nagar, Aurangabad - BSPCB",03-06-2024 14:00:00,24.75746,84.366208,PM2.5,NA,NA,NA
India,Bihar,Aurangabad,"Gurdeo Nagar, Aurangabad - BSPCB",03-06-2024 14:00:00,24.75746,84.366208,NH3,2,21,12
India,Bihar,Aurangabad,"Gurdeo Nagar, Aurangabad - BSPCB",03-06-2024 14:00:00,24.75746,84.366208,CO,10,29,23
India,Bihar,Bettiah,"Kamalnath Nagar, Bettiah - BSPCB",03-06-2024 14:00:00,26.80365,84.51954,SO2,8,20,16
India,Bihar,Bettiah,"Kamalnath Nagar, Bettiah - BSPCB",03-06-2024 14:00:00,26.80365,84.51954,CO,56,72,67
India,Bihar,Bhagalpur,"DM Office_Kachari Chowk, Bhagalpur - BSPCB",03-06-2024 14:00:00,25.251013,86.989001,SO2,NA,NA,NA
India,Bihar,Bihar Sharif,"D M Colony, Bihar Sharif - BSPCB",03-06-2024 14:00:00,25.204762,85.514960,CO,102,108,103
India,Bihar,Chhapra,"Darshan Nagar, Chhapra - BSPCB",03-06-2024 14:00:00,25.7808257,84.7446768,NO2,11,19,15
India,Bihar,Chhapra,"Darshan Nagar, Chhapra - BSPCB",03-06-2024 14:00:00,25.7808257,84.7446768,NH3,5,8,6
India,Bihar,Gaya,"SFTI Kusdihra, Gaya - BSPCB",03-06-2024 14:00:00,24.762518,84.982348,PM10,51,101,83
India,Bihar,Gaya,"SFTI Kusdihra, Gaya - BSPCB",03-06-2024 14:00:00,24.762518,84.982348,NH3,1,5,3
India,Bihar,Gaya,"SFTI Kusdihra, Gaya - BSPCB",03-06-2024 14:00:00,24.762518,84.982348,SO2,6,11,9
India,Bihar,Hajipur,"Industrial Area, Hajipur - BSPCB",03-06-2024 14:00:00,25.697189,85.245900,OZONE,2,17,9
India,Bihar,Kishanganj,"SDM Office_Khagra, Kishanganj - BSPCB",03-06-2024 14:00:00,26.0881305,87.93840336,NH3,8,9,9
India,Bihar,Kishanganj,"SDM Office_Khagra, Kishanganj - BSPCB",03-06-2024 14:00:00,26.0881305,87.93840336,OZONE,51,76,57
India,Bihar,Motihari,"Gandak Colony, Motihari - BSPCB",03-06-2024 14:00:00,26.63086,84.90051,PM2.5,23,83,51
India,Bihar,Motihari,"Gandak Colony, Motihari - BSPCB",03-06-2024 14:00:00,26.63086,84.90051,NO2,21,39,31
India,Bihar,Motihari,"Gandak Colony, Motihari - BSPCB",03-06-2024 14:00:00,26.63086,84.90051,SO2,8,19,11
India,Bihar,Munger,"Town Hall, Munger - BSPCB",03-06-2024 14:00:00,25.376776,86.471523,PM2.5,55,167,102
India,Bihar,Munger,"Town Hall, Munger - BSPCB",03-06-2024 14:00:00,25.376776,86.471523,NH3,2,3,3
India,Bihar,Munger,"Town Hall, Munger - BSPCB",03-06-2024 14:00:00,25.376776,86.471523,CO,42,64,47
India,Bihar,Muzaffarpur,"Buddha Colony, Muzaffarpur - BSPCB",03-06-2024 14:00:00,26.11442,85.39813,PM2.5,50,109,71
India,Bihar,Muzaffarpur,"Buddha Colony, Muzaffarpur - BSPCB",03-06-2024 14:00:00,26.11442,85.39813,CO,14,38,23
India,Bihar,Muzaffarpur,"Buddha Colony, Muzaffarpur - BSPCB",03-06-2024 14:00:00,26.11442,85.39813,OZONE,47,209,168
India,Bihar,Muzaffarpur,"MIT-Daudpur Kothi, Muzaffarpur - BSPCB",03-06-2024 14:00:00,26.1403345,85.3650192,NH3,1,1,1
India,Bihar,Muzaffarpur,"Muzaffarpur Collectorate, Muzaffarpur - BSPCB",03-06-2024 14:00:00,26.1209,85.3647,NO2,27,54,39
India,Bihar,Muzaffarpur,"Muzaffarpur Collectorate, Muzaffarpur - BSPCB",03-06-2024 14:00:00,26.1209,85.3647,CO,16,51,26
India,Bihar,Patna,"DRM Office Danapur, Patna - BSPCB",03-06-2024 14:00:00,25.586562,85.043586,PM2.5,36,159,71
India,Bihar,Patna,"DRM Office Danapur, Patna - BSPCB",03-06-2024 14:00:00,25.586562,85.043586,OZONE,15,60,37
India,Bihar,Patna,"Govt. High School Shikarpur, Patna - BSPCB",03-06-2024 14:00:00,25.592539,85.227158,CO,32,52,42
India,Bihar,Patna,"IGSC Planetarium Complex, Patna - BSPCB",03-06-2024 14:00:00,25.610369,85.132568,PM2.5,55,170,99
India,Bihar,Patna,"IGSC Planetarium Complex, Patna - BSPCB",03-06-2024 14:00:00,25.610369,85.132568,SO2,4,6,5
India,Bihar,Patna,"Muradpur, Patna - BSPCB",03-06-2024 14:00:00,25.619651,85.147382,NO2,13,47,27
India,Bihar,Patna,"Rajbansi Nagar, Patna - BSPCB",03-06-2024 14:00:00,25.599486,85.113666,PM2.5,72,152,95
India,Bihar,Patna,"Rajbansi Nagar, Patna - BSPCB",03-06-2024 14:00:00,25.599486,85.113666,SO2,2,15,8
India,Bihar,Patna,"Samanpura, Patna - BSPCB",03-06-2024 14:00:00,25.596727,85.085624,PM2.5,66,139,90
India,Bihar,Patna,"Samanpura, Patna - BSPCB",03-06-2024 14:00:00,25.596727,85.085624,OZONE,33,156,156
India,Bihar,Rajgir,"Dangi Tola, Rajgir - BSPCB",03-06-2024 14:00:00,25.03280,85.41948,OZONE,30,59,38
India,Bihar,Saharsa,"Police Line, Saharsa - BSPCB",03-06-2024 14:00:00,25.892357,86.590325,PM2.5,NA,NA,NA
India,Bihar,Saharsa,"Police Line, Saharsa - BSPCB",03-06-2024 14:00:00,25.892357,86.590325,PM10,36,101,66
India,Bihar,Sasaram,"Dada Peer, Sasaram - BSPCB",03-06-2024 14:00:00,24.952822,84.002396,PM2.5,8,44,20
India,Bihar,Sasaram,"Dada Peer, Sasaram - BSPCB",03-06-2024 14:00:00,24.952822,84.002396,PM10,22,113,52
India,Bihar,Sasaram,"Dada Peer, Sasaram - BSPCB",03-06-2024 14:00:00,24.952822,84.002396,NH3,7,16,11
India,Chandigarh,Chandigarh,"Sector-25, Chandigarh - CPCC",03-06-2024 14:00:00,30.751462,76.762879,PM2.5,181,313,263
India,Chandigarh,Chandigarh,"Sector-25, Chandigarh - CPCC",03-06-2024 14:00:00,30.751462,76.762879,NO2,3,25,14
India,Chandigarh,Chandigarh,"Sector-25, Chandigarh - CPCC",03-06-2024 14:00:00,30.751462,76.762879,NH3,8,21,14
India,Chandigarh,Chandigarh,"Sector-53, Chandigarh - CPCC",03-06-2024 14:00:00,30.719859,76.738637,PM2.5,83,290,159
India,Chandigarh,Chandigarh,"Sector-53, Chandigarh - CPCC",03-06-2024 14:00:00,30.719859,76.738637,PM10,150,300,189
India,Chhattisgarh,Bhilai,"32Bungalows, Bhilai - CECB",03-06-2024 14:00:00,21.194815,81.314770,SO2,7,14,10
India,Chhattisgarh,Bhilai,"Civic Center, Bhilai - Bhilai Steel Plant",03-06-2024 14:00:00,21.185571,81.343175,PM2.5,20,44,33
India,Chhattisgarh,Bhilai,"Civic Center, Bhilai - Bhilai Steel Plant",03-06-2024 14:00:00,21.185571,81.343175,SO2,9,11,10
India,Chhattisgarh,Bhilai,"Civic Center, Bhilai - Bhilai Steel Plant",03-06-2024 14:00:00,21.185571,81.343175,OZONE,27,59,46
India,Chhattisgarh,Bhilai,"Hathkhoj, Bhilai - CECB",03-06-2024 14:00:00,21.224231,81.408350,PM10,30,104,63
India,Chhattisgarh,Bilaspur,"Mangala, Bilaspur - NTPC",03-06-2024 14:00:00,22.08815,82.13737,PM2.5,27,68,44
India,Chhattisgarh,Chhal,"Nawapara SECL Colony, Chhal - CECB",03-06-2024 14:00:00,22.118125,83.140608,NH3,2,2,2
India,Chhattisgarh,Chhal,"Nawapara SECL Colony, Chhal - CECB",03-06-2024 14:00:00,22.118125,83.140608,OZONE,10,128,66
India,Chhattisgarh,Milupara,"Govt. Higher Secondary School, Milupara - CECB",03-06-2024 14:00:00,22.1910172,83.5197009,PM10,NA,NA,NA
India,Chhattisgarh,Milupara,"Govt. Higher Secondary School, Milupara - CECB",03-06-2024 14:00:00,22.1910172,83.5197009,NH3,NA,NA,NA
India,Chhattisgarh,Milupara,"Govt. Higher Secondary School, Milupara - CECB",03-06-2024 14:00:00,22.1910172,83.5197009,CO,NA,NA,NA
India,Chhattisgarh,Raipur,"Bhatagaon New ISBT, Raipur - CECB",03-06-2024 14:00:00,21.219665,81.630094,PM2.5,14,48,28
India,Chhattisgarh,Raipur,"Krishak Nagar, Raipur - CECB",03-06-2024 14:00:00,21.237755,81.705301,PM10,16,122,42
India,Chhattisgarh,Raipur,"Krishak Nagar, Raipur - CECB",03-06-2024 14:00:00,21.237755,81.705301,NH3,1,1,1
India,Chhattisgarh,Tumidih,"OP Jindal Industrial Park, Tumidih - CECB",03-06-2024 14:00:00,22.06631475,83.33820077,PM2.5,NA,NA,NA
India,Chhattisgarh,Tumidih,"OP Jindal Industrial Park, Tumidih - CECB",03-06-2024 14:00:00,22.06631475,83.33820077,OZONE,33,84,62
India,Delhi,Delhi,"Alipur, Delhi - DPCC",03-06-2024 14:00:00,28.815329,77.153010,PM2.5,23,107,59
India,Delhi,Delhi,"Alipur, Delhi - DPCC",03-06-2024 14:00:00,28.815329,77.153010,OZONE,40,237,213
India,Delhi,Delhi,"Anand Vihar, Delhi - DPCC",03-06-2024 14:00:00,28.647622,77.3158090,OZONE,25,56,40
India,Delhi,Delhi,"Bawana, Delhi - DPCC",03-06-2024 14:00:00,28.776200,77.051074,PM10,109,245,163
India,Delhi,Delhi,"Bawana, Delhi - DPCC",03-06-2024 14:00:00,28.776200,77.051074,SO2,13,113,34
India,Delhi,Delhi,"Chandni Chowk, Delhi - IITM",03-06-2024 14:00:00,28.656756,77.227234,PM2.5,NA,NA,NA
India,Delhi,Delhi,"Chandni Chowk, Delhi - IITM",03-06-2024 14:00:00,28.656756,77.227234,PM10,NA,NA,NA
India,Delhi,Delhi,"Dr. Karni Singh Shooting Range, Delhi - DPCC",03-06-2024 14:00:00,28.498571,77.264840,SO2,14,21,17
India,Delhi,Delhi,"Dwarka-Sector 8, Delhi - DPCC ",03-06-2024 14:00:00,28.5710274,77.0719006,PM2.5,47,213,73
India,Delhi,Delhi,"Dwarka-Sector 8, Delhi - DPCC ",03-06-2024 14:00:00,28.5710274,77.0719006,PM10,111,259,153
India,Delhi,Delhi,"IHBAS, Dilshad Garden, Delhi - CPCB",03-06-2024 14:00:00,28.6811736,77.3025234,CO,8,40,20
India,Delhi,Delhi,"Jahangirpuri, Delhi - DPCC",03-06-2024 14:00:00,28.732820,77.170633,PM2.5,NA,NA,NA
India,Delhi,Delhi,"Jahangirpuri, Delhi - DPCC",03-06-2024 14:00:00,28.732820,77.170633,PM10,NA,NA,NA
India,Delhi,Delhi,"Jawaharlal Nehru Stadium, Delhi - DPCC",03-06-2024 14:00:00,28.580280,77.233829,PM2.5,20,57,39
India,Delhi,Delhi,"Jawaharlal Nehru Stadium, Delhi - DPCC",03-06-2024 14:00:00,28.580280,77.233829,PM10,75,175,121
India,Delhi,Delhi,"Jawaharlal Nehru Stadium, Delhi - DPCC",03-06-2024 14:00:00,28.580280,77.233829,SO2,13,22,17
India,Delhi,Delhi,"Lodhi Road, Delhi - IITM",03-06-2024 14:00:00,28.588333,77.221667,SO2,14,31,20
India,Delhi,Delhi,"Lodhi Road, Delhi - IMD",03-06-2024 14:00:00,28.5918245,77.2273074,PM2.5,23,275,68
India,Delhi,Delhi,"Major Dhyan Chand National Stadium, Delhi - DPCC",03-06-2024 14:00:00,28.611281,77.237738,PM10,70,173,114
India,Delhi,Delhi,"Major Dhyan Chand National Stadium, Delhi - DPCC",03-06-2024 14:00:00,28.611281,77.237738,NH3,6,9,7
India,Delhi,Delhi,"Major Dhyan Chand National Stadium, Delhi - DPCC",03-06-2024 14:00:00,28.611281,77.237738,SO2,8,26,14
India,Delhi,Delhi,"Mandir Marg, Delhi - DPCC",03-06-2024 14:00:00,28.636429,77.201067,PM10,17,155,107
India,Delhi,Delhi,"Mundka, Delhi - DPCC",03-06-2024 14:00:00,28.684678,77.076574,NH3,7,14,9
India,Delhi,Delhi,"NSIT Dwarka, Delhi - CPCB",03-06-2024 14:00:00,28.60909,77.0325413,CO,35,60,47
India,Delhi,Delhi,"Najafgarh, Delhi - DPCC",03-06-2024 14:00:00,28.570173,76.933762,SO2,13,26,18
India,Delhi,Delhi,"Narela, Delhi - DPCC",03-06-2024 14:00:00,28.822836,77.101981,PM10,111,294,151
India,Delhi,Delhi,"Narela, Delhi - DPCC",03-06-2024 14:00:00,28.822836,77.101981,CO,28,57,39
India,Delhi,Delhi,"North Campus, DU, Delhi - IMD",03-06-2024 14:00:00,28.6573814,77.1585447,CO,48,107,65
India,Delhi,Delhi,"Okhla Phase-2, Delhi - DPCC",03-06-2024 14:00:00,28.530785,77.271255,PM10,94,204,137
India,Delhi,Delhi,"Patparganj, Delhi - DPCC",03-06-2024 14:00:00,28.623763,77.287209,PM10,NA,NA,NA
India,Delhi,Delhi,"Patparganj, Delhi - DPCC",03-06-2024 14:00:00,28.623763,77.287209,NO2,NA,NA,NA
India,Delhi,Delhi,"Punjabi Bagh, Delhi - DPCC",03-06-2024 14:00:00,28.674045,77.131023,PM2.5,13,203,99
India,Delhi,Delhi,"R K Puram, Delhi - DPCC",03-06-2024 14:00:00,28.563262,77.186937,PM10,89,193,129
India,Delhi,Delhi,"R K Puram, Delhi - DPCC",03-06-2024 14:00:00,28.563262,77.186937,SO2,4,40,19
India,Delhi,Delhi,"R K Puram, Delhi - DPCC",03-06-2024 14:00:00,28.563262,77.186937,OZONE,32,167,167
India,Delhi,Delhi,"Rohini, Delhi - DPCC",03-06-2024 14:00:00,28.732528,77.119920,SO2,16,45,28
India,Delhi,Delhi,"Shadipur, Delhi - CPCB",03-06-2024 14:00:00,28.6514781,77.1473105,OZONE,11,62,29
India,Delhi,Delhi,"Sirifort, Delhi - CPCB",03-06-2024 14:00:00,28.5504249,77.2159377,PM2.5,55,167,73
India,Delhi,Delhi,"Sirifort, Delhi - CPCB",03-06-2024 14:00:00,28.5504249,77.2159377,NO2,35,59,47
India,Delhi,Delhi,"Sirifort, Delhi - CPCB",03-06-2024 14:00:00,28.5504249,77.2159377,CO,8,25,16
India,Delhi,Delhi,"Sonia Vihar, Delhi - DPCC",03-06-2024 14:00:00,28.710508,77.249485,OZONE,27,154,71
India,Delhi,Delhi,"Sri Aurobindo Marg, Delhi - DPCC",03-06-2024 14:00:00,28.531346,77.190156,PM10,95,199,134
India,Delhi,Delhi,"Sri Aurobindo Marg, Delhi - DPCC",03-06-2024 14:00:00,28.531346,77.190156,CO,37,54,44
India,Delhi,Delhi,"Wazirpur, Delhi - DPCC",03-06-2024 14:00:00,28.699793,77.165453,PM10,97,254,139
India,Gujarat,Ahmedabad,"Gyaspur, Ahmedabad - IITM",03-06-2024 14:00:00,22.977134,72.553024,PM2.5,79,328,166
India,Gujarat,Ahmedabad,"Gyaspur, Ahmedabad - IITM",03-06-2024 14:00:00,22.977134,72.553024,NO2,41,52,46
India,Gujarat,Ahmedabad,"Maninagar, Ahmedabad - GPCB",03-06-2024 14:00:00,23.002657,72.591912,PM2.5,24,59,42
India,Gujarat,Ahmedabad,"Maninagar, Ahmedabad - GPCB",03-06-2024 14:00:00,23.002657,72.591912,CO,60,102,82
India,Gujarat,Ahmedabad,"Raikhad, Ahmedabad - IITM",03-06-2024 14:00:00,23.020509,72.579261,PM10,108,248,169
India,Gujarat,Ahmedabad,"Raikhad, Ahmedabad - IITM",03-06-2024 14:00:00,23.020509,72.579261,NO2,60,61,60
India,Gujarat,Ahmedabad,"Raikhad, Ahmedabad - IITM",03-06-2024 14:00:00,23.020509,72.579261,OZONE,14,87,43
India,Gujarat,Ahmedabad,"SVPI Airport Hansol, Ahmedabad - IITM",03-06-2024 14:00:00,23.076793,72.627874,NH3,5,6,5
India,Gujarat,Ahmedabad,"Sardar Vallabhbhai Patel Stadium, Ahmedabad - IITM",03-06-2024 14:00:00,23.043070,72.562968,SO2,NA,NA,NA
India,Gujarat,Ahmedabad,"Sardar Vallabhbhai Patel Stadium, Ahmedabad - IITM",03-06-2024 14:00:00,23.043070,72.562968,CO,47,51,49
India,Gujarat,Ankleshwar,"GIDC, Ankleshwar - GPCB",03-06-2024 14:00:00,21.613267,73.010555,CO,22,115,64
India,Gujarat,Ankleshwar,"GIDC, Ankleshwar - GPCB",03-06-2024 14:00:00,21.613267,73.010555,OZONE,22,30,26
India,Gujarat,Vapi,"Phase-1 GIDC, Vapi - GPCB",03-06-2024 14:00:00,20.362421,72.918013,PM10,NA,NA,NA
India,Haryana,Ambala,"Patti Mehar, Ambala - HSPCB",03-06-2024 14:00:00,30.379589,76.778328,PM2.5,67,138,102
India,Haryana,Bahadurgarh,"Arya Nagar, Bahadurgarh - HSPCB",03-06-2024 14:00:00,28.6701,76.9254,PM2.5,65,170,94
India,Haryana,Ballabgarh,"Nathu Colony, Ballabgarh - HSPCB",03-06-2024 14:00:00,28.3419248,77.319699,PM10,80,161,122
India,Haryana,Bhiwani,"H.B. Colony, Bhiwani - HSPCB",03-06-2024 14:00:00,28.806223,76.141105,PM2.5,64,159,100
India,Haryana,Bhiwani,"H.B. Colony, Bhiwani - HSPCB",03-06-2024 14:00:00,28.806223,76.141105,NH3,4,6,6
India,Haryana,Bhiwani,"H.B. Colony, Bhiwani - HSPCB",03-06-2024 14:00:00,28.806223,76.141105,OZONE,10,15,12
India,Haryana,Charkhi Dadri,"Mini Secretariat, Charkhi Dadri - HSPCB",03-06-2024 14:00:00,28.593883,76.270653,PM10,66,102,79
India,Haryana,Dharuhera,"Municipal Corporation Office, Dharuhera -  HSPCB",03-06-2024 14:00:00,28.206800,76.799700,PM2.5,14,163,97
India,Haryana,Faridabad,"New Industrial Town, Faridabad - HSPCB",03-06-2024 14:00:00,28.39072,77.30059,PM2.5,97,311,163
India,Haryana,Faridabad,"Sector 11, Faridabad - HSPCB",03-06-2024 14:00:00,28.376058,77.315741,PM10,106,222,135
India,Haryana,Faridabad,"Sector 11, Faridabad - HSPCB",03-06-2024 14:00:00,28.376058,77.315741,CO,30,46,35
India,Haryana,Faridabad,"Sector 30, Faridabad - HSPCB",03-06-2024 14:00:00,28.4417,77.3217,PM2.5,202,251,232
India,Haryana,Faridabad,"Sector 30, Faridabad - HSPCB",03-06-2024 14:00:00,28.4417,77.3217,SO2,5,6,5
India,Haryana,Fatehabad,"Huda Sector, Fatehabad - HSPCB",03-06-2024 14:00:00,29.503664,75.467934,PM2.5,37,258,83
India,Haryana,Fatehabad,"Huda Sector, Fatehabad - HSPCB",03-06-2024 14:00:00,29.503664,75.467934,NO2,29,31,30
India,Haryana,Fatehabad,"Huda Sector, Fatehabad - HSPCB",03-06-2024 14:00:00,29.503664,75.467934,NH3,9,11,10
India,Haryana,Fatehabad,"Huda Sector, Fatehabad - HSPCB",03-06-2024 14:00:00,29.503664,75.467934,CO,6,18,10
India,Haryana,Gurugram,"Teri Gram, Gurugram - HSPCB",03-06-2024 14:00:00,28.4275,77.1465,NH3,NA,NA,NA
India,Haryana,Gurugram,"Teri Gram, Gurugram - HSPCB",03-06-2024 14:00:00,28.4275,77.1465,SO2,4,12,6
India,Haryana,Hisar,"Urban Estate-II, Hisar - HSPCB",03-06-2024 14:00:00,29.140560,75.744941,PM2.5,87,272,173
India,Haryana,Hisar,"Urban Estate-II, Hisar - HSPCB",03-06-2024 14:00:00,29.140560,75.744941,CO,25,39,28
India,Haryana,Jind,"Police Lines, Jind - HSPCB",03-06-2024 14:00:00,29.307814,76.337619,NO2,1,106,6
India,Haryana,Kaithal,"Rishi Nagar, Kaithal - HSPCB",03-06-2024 14:00:00,29.8006,76.4155,CO,3,52,19
India,Haryana,Karnal,"Sector-12, Karnal - HSPCB",03-06-2024 14:00:00,29.695300,77.002700,PM10,110,173,142
India,Haryana,Karnal,"Sector-12, Karnal - HSPCB",03-06-2024 14:00:00,29.695300,77.002700,NH3,10,13,11
India,Haryana,Kurukshetra,"Sector-7, Kurukshetra - HSPCB",03-06-2024 14:00:00,29.966942,76.875879,CO,6,25,18
India,Haryana,Mandikhera,"General Hospital, Mandikhera - HSPCB",03-06-2024 14:00:00,27.9002,76.9938,PM10,50,102,73
India,Haryana,Manesar,"Sector-2 IMT, Manesar - HSPCB",03-06-2024 14:00:00,28.360699,76.936090,NH3,2,5,4
India,Haryana,Narnaul,"Shastri Nagar, Narnaul - HSPCB",03-06-2024 14:00:00,28.060249,76.113115,PM2.5,27,61,44
India,Haryana,Palwal,"Shyam Nagar, Palwal - HSPCB",03-06-2024 14:00:00,28.1485564,77.3320667,CO,18,32,26
India,Haryana,Palwal,"Shyam Nagar, Palwal - HSPCB",03-06-2024 14:00:00,28.1485564,77.3320667,OZONE,12,61,41
India,Haryana,Panchkula,"Sector-6, Panchkula - HSPCB ",03-06-2024 14:00:00,30.7057778,76.8531805555555,OZONE,31,68,42
India,Haryana,Panipat,"Sector-18, Panipat - HSPCB",03-06-2024 14:00:00,29.432304,76.972765,NH3,2,3,2
India,Haryana,Sirsa,"F-Block, Sirsa - HSPCB",03-06-2024 14:00:00,29.536400,75.015800,PM2.5,45,187,89
India,Haryana,Sirsa,"F-Block, Sirsa - HSPCB",03-06-2024 14:00:00,29.536400,75.015800,PM10,68,162,121
India,Haryana,Sonipat,"Murthal, Sonipat - HSPCB",03-06-2024 14:00:00,29.027200,77.062100,PM10,NA,NA,NA
India,Haryana,Sonipat,"Murthal, Sonipat - HSPCB",03-06-2024 14:00:00,29.027200,77.062100,NH3,7,10,9
India,Haryana,Sonipat,"Murthal, Sonipat - HSPCB",03-06-2024 14:00:00,29.027200,77.062100,SO2,12,29,20
India,Haryana,Sonipat,"Murthal, Sonipat - HSPCB",03-06-2024 14:00:00,29.027200,77.062100,OZONE,17,36,27
India,Haryana,Yamuna Nagar,"Gobind Pura, Yamuna Nagar - HSPCB",03-06-2024 14:00:00,30.1480566,77.2893471,PM2.5,NA,NA,NA
India,Jammu_and_Kashmir,Srinagar,"Rajbagh, Srinagar - JKSPCB",03-06-2024 14:00:00,34.066206,74.819820,PM10,NA,NA,NA
India,Jammu_and_Kashmir,Srinagar,"Rajbagh, Srinagar - JKSPCB",03-06-2024 14:00:00,34.066206,74.819820,OZONE,12,12,12
India,Jharkhand,Dhanbad,"Sardar Patel Nagar, Dhanbad - JSPCB",03-06-2024 14:00:00,23.80569,86.44268,CO,142,176,150
India,Jharkhand,Dhanbad,"Sardar Patel Nagar, Dhanbad - JSPCB",03-06-2024 14:00:00,23.80569,86.44268,OZONE,43,54,49
India,Jharkhand,Pathardih,"Mohalbani Ghat, Pathardih - DMC",03-06-2024 14:00:00,23.669880,86.411725,PM2.5,NA,NA,NA
India,Jharkhand,Pathardih,"Mohalbani Ghat, Pathardih - DMC",03-06-2024 14:00:00,23.669880,86.411725,CO,105,141,123
India,Jharkhand,Pathardih,"Mohalbani Ghat, Pathardih - DMC",03-06-2024 14:00:00,23.669880,86.411725,OZONE,44,51,48
India,Karnataka,Bagalkot,"Vidayagiri, Bagalkot - KSPCB",03-06-2024 14:00:00,16.172806,75.659694,PM10,NA,NA,NA
India,Karnataka,Bagalkot,"Vidayagiri, Bagalkot - KSPCB",03-06-2024 14:00:00,16.172806,75.659694,NO2,NA,NA,NA
India,Karnataka,Bagalkot,"Vidayagiri, Bagalkot - KSPCB",03-06-2024 14:00:00,16.172806,75.659694,CO,NA,NA,NA
India,Karnataka,Belgaum,"Ramteerth Nagar, Belgaum - KSPCB",03-06-2024 14:00:00,15.888653,74.541751,NH3,7,12,9
India,Karnataka,Bengaluru,"Bapuji Nagar, Bengaluru - KSPCB",03-06-2024 14:00:00,12.951913,77.539784,PM10,10,152,43
India,Karnataka,Bengaluru,"Bapuji Nagar, Bengaluru - KSPCB",03-06-2024 14:00:00,12.951913,77.539784,SO2,4,8,6
India,Karnataka,Bengaluru,"Bapuji Nagar, Bengaluru - KSPCB",03-06-2024 14:00:00,12.951913,77.539784,CO,10,66,45
India,Karnataka,Bengaluru,"Hebbal, Bengaluru - KSPCB",03-06-2024 14:00:00,13.029152,77.585901,PM2.5,2,30,14
India,Karnataka,Bengaluru,"Hebbal, Bengaluru - KSPCB",03-06-2024 14:00:00,13.029152,77.585901,NO2,4,5,5
India,Karnataka,Bengaluru,"Hombegowda Nagar, Bengaluru - KSPCB",03-06-2024 14:00:00,12.938539,77.590100,NH3,1,2,1
India,Karnataka,Bengaluru,"Jigani, Bengaluru - KSPCB",03-06-2024 14:00:00,12.7816279,77.6299145,PM10,NA,NA,NA
India,Karnataka,Bengaluru,"Kasturi Nagar, Bengaluru - KSPCB",03-06-2024 14:00:00,13.003872,77.664217,SO2,10,10,10
India,Karnataka,Bengaluru,"Kasturi Nagar, Bengaluru - KSPCB",03-06-2024 14:00:00,13.003872,77.664217,OZONE,7,63,29
India,Karnataka,Bengaluru,"Peenya, Bengaluru - CPCB",03-06-2024 14:00:00,13.0270199,77.494094,CO,76,88,81
India,Karnataka,Bengaluru,"RVCE-Mailasandra, Bengaluru - KSPCB",03-06-2024 14:00:00,12.921418,77.502466,PM2.5,6,69,32
India,Karnataka,Bengaluru,"Sanegurava Halli, Bengaluru - KSPCB",03-06-2024 14:00:00,12.990328,77.5431385,PM10,34,54,38
India,Karnataka,Bengaluru,"Shivapura_Peenya, Bengaluru - KSPCB",03-06-2024 14:00:00,13.0246342,77.5080115,NO2,15,16,15
India,Karnataka,Bengaluru,"Silk Board, Bengaluru - KSPCB",03-06-2024 14:00:00,12.917348,77.622813,NO2,NA,NA,NA
India,Karnataka,Bidar,"Naubad, Bidar - KSPCB",03-06-2024 14:00:00,17.930306,77.482194,SO2,NA,NA,NA
India,Karnataka,Bidar,"Naubad, Bidar - KSPCB",03-06-2024 14:00:00,17.930306,77.482194,CO,74,82,77
India,Karnataka,Bidar,"Naubad, Bidar - KSPCB",03-06-2024 14:00:00,17.930306,77.482194,OZONE,22,24,23
India,Karnataka,Chamarajanagar,"Urban, Chamarajanagar - KSPCB",03-06-2024 14:00:00,11.55358,76.55521,NO2,23,35,29
India,Karnataka,Chikkaballapur,"Chikkaballapur Rural, Chikkaballapur - KSPCB",03-06-2024 14:00:00,13.428828,77.731418,PM2.5,10,35,22
India,Karnataka,Chikkaballapur,"Chikkaballapur Rural, Chikkaballapur - KSPCB",03-06-2024 14:00:00,13.428828,77.731418,NO2,4,9,6
India,Karnataka,Chikkaballapur,"Chikkaballapur Rural, Chikkaballapur - KSPCB",03-06-2024 14:00:00,13.428828,77.731418,OZONE,24,25,25
India,Karnataka,Chikkamagaluru,"Kalyana Nagara, Chikkamagaluru - KSPCB",03-06-2024 14:00:00,13.328028,75.797056,NH3,2,4,3
India,Karnataka,Chikkamagaluru,"Kalyana Nagara, Chikkamagaluru - KSPCB",03-06-2024 14:00:00,13.328028,75.797056,OZONE,12,33,20
India,Karnataka,Davanagere,"Devaraj Urs Badavane, Davanagere - KSPCB",03-06-2024 14:00:00,14.475800,75.905200,PM2.5,1,48,26
India,Karnataka,Dharwad,"Kalabhavan, Dharwad - KSPCB",03-06-2024 14:00:00,15.459706,75.008381,PM2.5,28,64,45
India,Karnataka,Gadag,"Panchal Nagar, Gadag - KSPCB",03-06-2024 14:00:00,15.411456,75.638133,PM10,NA,NA,NA
India,Karnataka,Gadag,"Panchal Nagar, Gadag - KSPCB",03-06-2024 14:00:00,15.411456,75.638133,SO2,9,22,14
India,Karnataka,Gadag,"Panchal Nagar, Gadag - KSPCB",03-06-2024 14:00:00,15.411456,75.638133,OZONE,3,12,7
India,Karnataka,Hassan,"B.Katihalli, Hassan - KSPCB",03-06-2024 14:00:00,13.008556,76.125258,NH3,NA,NA,NA
India,Karnataka,Hassan,"B.Katihalli, Hassan - KSPCB",03-06-2024 14:00:00,13.008556,76.125258,OZONE,1,10,6
India,Karnataka,Haveri,"Ashwini Nagar, Haveri - KSPCB",03-06-2024 14:00:00,14.791800,75.389600,SO2,14,14,14
India,Karnataka,Haveri,"Ashwini Nagar, Haveri - KSPCB",03-06-2024 14:00:00,14.791800,75.389600,OZONE,32,42,36
India,Karnataka,Hubballi,"Lingaraj Nagar, Hubballi - KSPCB",03-06-2024 14:00:00,15.3714823,75.1160168,NH3,2,4,3
India,Karnataka,Hubballi,"Lingaraj Nagar, Hubballi - KSPCB",03-06-2024 14:00:00,15.3714823,75.1160168,CO,2,124,16
India,Karnataka,Kalaburagi,"Mahatma Basaveswar Colony, Kalaburgi - KSPCB",03-06-2024 14:00:00,17.336318,76.847397,PM10,16,67,38
India,Karnataka,Kalaburagi,"Mahatma Basaveswar Colony, Kalaburgi - KSPCB",03-06-2024 14:00:00,17.336318,76.847397,NH3,3,4,3
India,Karnataka,Kalaburagi,"Mahatma Basaveswar Colony, Kalaburgi - KSPCB",03-06-2024 14:00:00,17.336318,76.847397,SO2,1,13,7
India,Karnataka,Karwar,"KHB Colony, Karwar - KSPCB",03-06-2024 14:00:00,14.816666,74.141003,CO,9,10,10
India,Karnataka,Madikeri,"Stuart Hill, Madikeri - KSPCB",03-06-2024 14:00:00,12.415911,75.735050,OZONE,11,24,14
India,Karnataka,Mysuru,"Hebbal 1st Stage, Mysuru - KSPCB",03-06-2024 14:00:00,12.21041,76.37376,NO2,8,37,21
India,Karnataka,Mysuru,"Hebbal 1st Stage, Mysuru - KSPCB",03-06-2024 14:00:00,12.21041,76.37376,SO2,1,4,3
India,Karnataka,Raichur,"Haji Colony, Raichur - KSPCB",03-06-2024 14:00:00,16.208139,77.348417,NO2,NA,NA,NA
India,Karnataka,Raichur,"Haji Colony, Raichur - KSPCB",03-06-2024 14:00:00,16.208139,77.348417,CO,76,101,94
India,Karnataka,Raichur,"Haji Colony, Raichur - KSPCB",03-06-2024 14:00:00,16.208139,77.348417,OZONE,2,5,5
India,Karnataka,Shivamogga,"Vinoba Nagara, Shivamogga - KSPCB",03-06-2024 14:00:00,13.940000,75.555917,NO2,18,62,29
India,Karnataka,Tumakuru,"Thimmalapura, Tumakuru - KSPCB",03-06-2024 14:00:00,13.377516,77.099072,PM2.5,17,38,28
India,Karnataka,Udupi,"Brahmagiri, Udupi - KSPCB",03-06-2024 14:00:00,13.34194444,74.74694444,PM2.5,4,42,20
India,Karnataka,Udupi,"Brahmagiri, Udupi - KSPCB",03-06-2024 14:00:00,13.34194444,74.74694444,PM10,6,67,32
India,Karnataka,Vijayapura,"Ibrahimpur, Vijayapura - KSPCB",03-06-2024 14:00:00,16.802639,75.722694,PM10,NA,NA,NA
India,Karnataka,Vijayapura,"Ibrahimpur, Vijayapura - KSPCB",03-06-2024 14:00:00,16.802639,75.722694,NO2,NA,NA,NA
India,Karnataka,Yadgir,"Collector Office, Yadgir - KSPCB",03-06-2024 14:00:00,16.7602,77.1428,NO2,NA,NA,NA
India,Karnataka,Yadgir,"Collector Office, Yadgir - KSPCB",03-06-2024 14:00:00,16.7602,77.1428,SO2,NA,NA,NA
