country,state,city,station,last_update,latitude,longitude,pollutant_id,pollutant_min,pollutant_max,pollutant_avg
India,Andhra_Pradesh,Chittoor,"Gangineni Cheruvu, Chittoor - APPCB",20-05-2024 23:00:00,13.204880,79.097889,NO2,1,14,6
India,Andhra_Pradesh,Chittoor,"Gangineni Cheruvu, Chittoor - APPCB",20-05-2024 23:00:00,13.204880,79.097889,NH3,1,2,1
India,Andhra_Pradesh,Kadapa,"Yerramukkapalli, Kadapa - APPCB",20-05-2024 23:00:00,14.465052,78.824187,PM2.5,NA,NA,NA
India,Andhra_Pradesh,Kadapa,"Yerramukkapalli, Kadapa - APPCB",20-05-2024 23:00:00,14.465052,78.824187,PM10,NA,NA,NA
India,Andhra_Pradesh,Kadapa,"Yerramukkapalli, Kadapa - APPCB",20-05-2024 23:00:00,14.465052,78.824187,CO,NA,NA,NA
India,Andhra_Pradesh,Kadapa,"Yerramukkapalli, Kadapa - APPCB",20-05-2024 23:00:00,14.465052,78.824187,OZONE,NA,NA,NA
India,Andhra_Pradesh,Rajamahendravaram,"Anand Kala Kshetram, Rajamahendravaram - APPCB",20-05-2024 23:00:00,16.9872867,81.7363176,NH3,2,4,3
India,Andhra_Pradesh,Tirupati,"Tirumala, Tirupati - APPCB",20-05-2024 23:00:00,13.67,79.35,PM2.5,6,64,26
India,Andhra_Pradesh,Tirupati,"Vaikuntapuram, Tirupati - APPCB",20-05-2024 23:00:00,13.615387,79.409230,PM2.5,NA,NA,NA
India,Andhra_Pradesh,Tirupati,"Vaikuntapuram, Tirupati - APPCB",20-05-2024 23:00:00,13.615387,79.409230,NH3,NA,NA,NA
India,Andhra_Pradesh,Tirupati,"Vaikuntapuram, Tirupati - APPCB",20-05-2024 23:00:00,13.615387,79.409230,CO,10,14,12
India,Andhra_Pradesh,Vijayawada,"Kanuru, Vijayawada - APPCB",20-05-2024 23:00:00,16.486692,80.699436,NO2,21,22,21
India,Andhra_Pradesh,Vijayawada,"Kanuru, Vijayawada - APPCB",20-05-2024 23:00:00,16.486692,80.699436,SO2,4,5,5
India,Andhra_Pradesh,Vijayawada,"Kanuru, Vijayawada - APPCB",20-05-2024 23:00:00,16.486692,80.699436,CO,40,40,40
India,Andhra_Pradesh,Vijayawada,"Rajiv Gandhi Park, Vijayawada - APPCB",20-05-2024 23:00:00,16.509717,80.612222,PM2.5,32,73,48
India,Andhra_Pradesh,Vijayawada,"Rajiv Gandhi Park, Vijayawada - APPCB",20-05-2024 23:00:00,16.509717,80.612222,SO2,5,9,6
India,Andhra_Pradesh,Vijayawada,"Rajiv Nagar, Vijayawada - APPCB",20-05-2024 23:00:00,16.554731,80.649110,NO2,12,13,12
India,Andhra_Pradesh,Visakhapatnam,"GVM Corporation, Visakhapatnam - APPCB",20-05-2024 23:00:00,17.72,83.3,PM10,25,96,56
India,Andhra_Pradesh,Visakhapatnam,"GVM Corporation, Visakhapatnam - APPCB",20-05-2024 23:00:00,17.72,83.3,CO,1,34,21
India,Arunachal_Pradesh,Naharlagun,"Naharlagun, Naharlagun - APSPCB",20-05-2024 23:00:00,27.103358,93.679645,PM2.5,15,89,40
India,Assam,Byrnihat,"Central Academy for SFS, Byrnihat - PCBA",20-05-2024 23:00:00,26.071318,91.87488,PM10,46,199,97
India,Assam,Byrnihat,"Central Academy for SFS, Byrnihat - PCBA",20-05-2024 23:00:00,26.071318,91.87488,NO2,19,39,28
India,Assam,Guwahati,"IITG, Guwahati - PCBA",20-05-2024 23:00:00,26.2028636,91.70046436,NO2,1,4,1
India,Assam,Guwahati,"IITG, Guwahati - PCBA",20-05-2024 23:00:00,26.2028636,91.70046436,SO2,13,13,13
India,Assam,Guwahati,"LGBI Airport, Guwahati - PCBA",20-05-2024 23:00:00,26.10887,91.589544,SO2,9,13,12
India,Assam,Guwahati,"Pan Bazaar, Guwahati - PCBA",20-05-2024 23:00:00,26.187500,91.744194,NO2,NA,NA,NA
India,Assam,Guwahati,"Railway Colony, Guwahati - PCBA",20-05-2024 23:00:00,26.181742,91.78063,PM2.5,NA,NA,NA
India,Assam,Guwahati,"Railway Colony, Guwahati - PCBA",20-05-2024 23:00:00,26.181742,91.78063,NO2,NA,NA,NA
India,Assam,Nagaon,"Christianpatty, Nagaon - PCBA",20-05-2024 23:00:00,26.349082,92.68449,CO,18,72,42
India,Assam,Nalbari,"Bata Chowk, Nalbari - PCBA",20-05-2024 23:00:00,26.446912,91.439057,OZONE,4,14,8
India,Assam,Silchar,"Tarapur, Silchar - PCBA",20-05-2024 23:00:00,24.82827,92.79525,CO,22,42,36
India,Bihar,Arrah,"New DM Office, Arrah - BSPCB",20-05-2024 23:00:00,25.5626095,84.663264,NH3,7,11,8
India,Bihar,Arrah,"New DM Office, Arrah - BSPCB",20-05-2024 23:00:00,25.5626095,84.663264,CO,12,25,19
India,Bihar,Bettiah,"Kamalnath Nagar, Bettiah - BSPCB",20-05-2024 23:00:00,26.80365,84.51954,PM2.5,20,88,48
India,Bihar,Bettiah,"Kamalnath Nagar, Bettiah - BSPCB",20-05-2024 23:00:00,26.80365,84.51954,SO2,11,22,16
India,Bihar,Bhagalpur,"DM Office_Kachari Chowk, Bhagalpur - BSPCB",20-05-2024 23:00:00,25.251013,86.989001,PM10,58,111,87
India,Bihar,Bhagalpur,"DM Office_Kachari Chowk, Bhagalpur - BSPCB",20-05-2024 23:00:00,25.251013,86.989001,CO,36,68,54
India,Bihar,Bihar Sharif,"D M Colony, Bihar Sharif - BSPCB",20-05-2024 23:00:00,25.204762,85.514960,PM2.5,20,203,71
India,Bihar,Bihar Sharif,"D M Colony, Bihar Sharif - BSPCB",20-05-2024 23:00:00,25.204762,85.514960,PM10,29,181,94
India,Bihar,Bihar Sharif,"D M Colony, Bihar Sharif - BSPCB",20-05-2024 23:00:00,25.204762,85.514960,SO2,1,15,10
India,Bihar,Bihar Sharif,"D M Colony, Bihar Sharif - BSPCB",20-05-2024 23:00:00,25.204762,85.514960,OZONE,20,60,43
India,Bihar,Buxar,"Charitra Van, Buxar - BSPCB (Formerly known as Central Jail)",20-05-2024 23:00:00,25.567520,83.966379,SO2,7,10,9
India,Bihar,Buxar,"Charitra Van, Buxar - BSPCB (Formerly known as Central Jail)",20-05-2024 23:00:00,25.567520,83.966379,OZONE,5,226,138
India,Bihar,Gaya,"Collectorate, Gaya - BSPCB",20-05-2024 23:00:00,24.7955,84.9994,NO2,2,4,3
India,Bihar,Gaya,"Collectorate, Gaya - BSPCB",20-05-2024 23:00:00,24.7955,84.9994,SO2,7,24,14
India,Bihar,Gaya,"SFTI Kusdihra, Gaya - BSPCB",20-05-2024 23:00:00,24.762518,84.982348,PM10,46,92,67
India,Bihar,Gaya,"SFTI Kusdihra, Gaya - BSPCB",20-05-2024 23:00:00,24.762518,84.982348,OZONE,8,82,52
India,Bihar,Katihar,"Mirchaibari, Katihar - BSPCB",20-05-2024 23:00:00,25.560083,87.553265,PM2.5,10,48,23
India,Bihar,Katihar,"Mirchaibari, Katihar - BSPCB",20-05-2024 23:00:00,25.560083,87.553265,PM10,16,112,48
India,Bihar,Katihar,"Mirchaibari, Katihar - BSPCB",20-05-2024 23:00:00,25.560083,87.553265,CO,22,32,24
India,Bihar,Kishanganj,"SDM Office_Khagra, Kishanganj - BSPCB",20-05-2024 23:00:00,26.0881305,87.93840336,PM2.5,NA,NA,NA
India,Bihar,Kishanganj,"SDM Office_Khagra, Kishanganj - BSPCB",20-05-2024 23:00:00,26.0881305,87.93840336,OZONE,18,51,27
India,Bihar,Motihari,"Gandak Colony, Motihari - BSPCB",20-05-2024 23:00:00,26.63086,84.90051,PM10,36,92,58
India,Bihar,Munger,"Town Hall, Munger - BSPCB",20-05-2024 23:00:00,25.376776,86.471523,PM2.5,NA,NA,NA
India,Bihar,Munger,"Town Hall, Munger - BSPCB",20-05-2024 23:00:00,25.376776,86.471523,SO2,9,32,21
India,Bihar,Muzaffarpur,"Buddha Colony, Muzaffarpur - BSPCB",20-05-2024 23:00:00,26.11442,85.39813,PM2.5,48,108,74
India,Bihar,Muzaffarpur,"Buddha Colony, Muzaffarpur - BSPCB",20-05-2024 23:00:00,26.11442,85.39813,CO,16,38,26
India,Bihar,Muzaffarpur,"MIT-Daudpur Kothi, Muzaffarpur - BSPCB",20-05-2024 23:00:00,26.1403345,85.3650192,NO2,3,5,4
India,Bihar,Muzaffarpur,"Muzaffarpur Collectorate, Muzaffarpur - BSPCB",20-05-2024 23:00:00,26.1209,85.3647,CO,22,50,40
India,Bihar,Patna,"DRM Office Danapur, Patna - BSPCB",20-05-2024 23:00:00,25.586562,85.043586,NO2,10,19,13
India,Bihar,Patna,"IGSC Planetarium Complex, Patna - BSPCB",20-05-2024 23:00:00,25.610369,85.132568,OZONE,43,45,44
India,Bihar,Patna,"Muradpur, Patna - BSPCB",20-05-2024 23:00:00,25.619651,85.147382,NO2,12,57,29
India,Bihar,Patna,"Samanpura, Patna - BSPCB",20-05-2024 23:00:00,25.596727,85.085624,PM2.5,55,193,97
India,Bihar,Rajgir,"Dangi Tola, Rajgir - BSPCB",20-05-2024 23:00:00,25.03280,85.41948,PM10,13,50,31
India,Bihar,Saharsa,"Police Line, Saharsa - BSPCB",20-05-2024 23:00:00,25.892357,86.590325,NO2,6,7,7
India,Bihar,Samastipur,"DM Office_Kasipur, Samastipur - BSPCB",20-05-2024 23:00:00,25.859655,85.77944,PM10,NA,NA,NA
India,Bihar,Samastipur,"DM Office_Kasipur, Samastipur - BSPCB",20-05-2024 23:00:00,25.859655,85.77944,CO,52,106,77
India,Bihar,Siwan,"Chitragupta Nagar, Siwan - BSPCB",20-05-2024 23:00:00,26.2271665,84.3570427,PM10,NA,NA,NA
India,Bihar,Siwan,"Chitragupta Nagar, Siwan - BSPCB",20-05-2024 23:00:00,26.2271665,84.3570427,NH3,NA,NA,NA
India,Chandigarh,Chandigarh,"Sector 22, Chandigarh - CPCC",20-05-2024 23:00:00,30.735567,76.775714,SO2,7,36,14
India,Chandigarh,Chandigarh,"Sector 22, Chandigarh - CPCC",20-05-2024 23:00:00,30.735567,76.775714,CO,30,92,47
India,Chandigarh,Chandigarh,"Sector-25, Chandigarh - CPCC",20-05-2024 23:00:00,30.751462,76.762879,PM10,125,157,139
India,Chandigarh,Chandigarh,"Sector-25, Chandigarh - CPCC",20-05-2024 23:00:00,30.751462,76.762879,SO2,7,17,11
India,Chandigarh,Chandigarh,"Sector-53, Chandigarh - CPCC",20-05-2024 23:00:00,30.719859,76.738637,SO2,7,38,14
India,Chhattisgarh,Bhilai,"Civic Center, Bhilai - Bhilai Steel Plant",20-05-2024 23:00:00,21.185571,81.343175,PM10,18,80,35
India,Chhattisgarh,Bhilai,"Civic Center, Bhilai - Bhilai Steel Plant",20-05-2024 23:00:00,21.185571,81.343175,CO,19,58,45
India,Chhattisgarh,Bilaspur,"Mangala, Bilaspur - NTPC",20-05-2024 23:00:00,22.08815,82.13737,NO2,13,18,15
India,Chhattisgarh,Chhal,"Nawapara SECL Colony, Chhal - CECB",20-05-2024 23:00:00,22.118125,83.140608,PM10,35,70,49
India,Chhattisgarh,Chhal,"Nawapara SECL Colony, Chhal - CECB",20-05-2024 23:00:00,22.118125,83.140608,SO2,27,61,41
India,Chhattisgarh,Korba,"Rampur, Korba - CECB",20-05-2024 23:00:00,22.368195,82.746431,SO2,3,51,14
India,Chhattisgarh,Korba,"Urja Nagar, Korba - CECB",20-05-2024 23:00:00,22.348441,82.549611,PM10,NA,NA,NA
India,Chhattisgarh,Kunjemura,"OP Jindal School, Kunjemura - CECB",20-05-2024 23:00:00,22.126650,83.483212,PM2.5,19,80,48
India,Chhattisgarh,Milupara,"Govt. Higher Secondary School, Milupara - CECB",20-05-2024 23:00:00,22.1910172,83.5197009,PM2.5,NA,NA,NA
India,Chhattisgarh,Milupara,"Govt. Higher Secondary School, Milupara - CECB",20-05-2024 23:00:00,22.1910172,83.5197009,NH3,NA,NA,NA
India,Chhattisgarh,Raipur,"AIIMS, Raipur - CECB",20-05-2024 23:00:00,21.258815,81.578979,CO,NA,NA,NA
India,Chhattisgarh,Raipur,"Bhatagaon New ISBT, Raipur - CECB",20-05-2024 23:00:00,21.219665,81.630094,PM2.5,16,42,23
India,Chhattisgarh,Raipur,"Bhatagaon New ISBT, Raipur - CECB",20-05-2024 23:00:00,21.219665,81.630094,NH3,2,2,2
India,Chhattisgarh,Raipur,"Krishak Nagar, Raipur - CECB",20-05-2024 23:00:00,21.237755,81.705301,NO2,16,16,16
India,Chhattisgarh,Raipur,"Krishak Nagar, Raipur - CECB",20-05-2024 23:00:00,21.237755,81.705301,OZONE,8,43,30
India,Chhattisgarh,Raipur,"Siltara Phase-II, Raipur - CECB",20-05-2024 23:00:00,21.371751,81.664929,NO2,22,68,32
India,Chhattisgarh,Tumidih,"OP Jindal Industrial Park, Tumidih - CECB",20-05-2024 23:00:00,22.06631475,83.33820077,NH3,NA,NA,NA
India,Chhattisgarh,Tumidih,"OP Jindal Industrial Park, Tumidih - CECB",20-05-2024 23:00:00,22.06631475,83.33820077,CO,18,38,24
India,Delhi,Delhi,"Alipur, Delhi - DPCC",20-05-2024 23:00:00,28.815329,77.153010,PM2.5,38,332,128
India,Delhi,Delhi,"Alipur, Delhi - DPCC",20-05-2024 23:00:00,28.815329,77.153010,SO2,11,39,23
India,Delhi,Delhi,"Alipur, Delhi - DPCC",20-05-2024 23:00:00,28.815329,77.153010,CO,38,72,49
India,Delhi,Delhi,"Anand Vihar, Delhi - DPCC",20-05-2024 23:00:00,28.647622,77.3158090,PM2.5,113,383,264
India,Delhi,Delhi,"Anand Vihar, Delhi - DPCC",20-05-2024 23:00:00,28.647622,77.3158090,OZONE,8,153,45
India,Delhi,Delhi,"Ashok Vihar, Delhi - DPCC",20-05-2024 23:00:00,28.695381,77.181665,PM2.5,47,342,136
India,Delhi,Delhi,"Ashok Vihar, Delhi - DPCC",20-05-2024 23:00:00,28.695381,77.181665,PM10,142,432,240
India,Delhi,Delhi,"Ashok Vihar, Delhi - DPCC",20-05-2024 23:00:00,28.695381,77.181665,NH3,7,20,15
India,Delhi,Delhi,"Aya Nagar, Delhi - IMD",20-05-2024 23:00:00,28.4706914,77.1099364,CO,33,75,53
India,Delhi,Delhi,"Bawana, Delhi - DPCC",20-05-2024 23:00:00,28.776200,77.051074,NH3,4,8,6
India,Delhi,Delhi,"Bawana, Delhi - DPCC",20-05-2024 23:00:00,28.776200,77.051074,SO2,14,103,42
India,Delhi,Delhi,"CRRI Mathura Road, Delhi - IMD",20-05-2024 23:00:00,28.5512005,77.2735737,PM2.5,52,334,201
India,Delhi,Delhi,"Chandni Chowk, Delhi - IITM",20-05-2024 23:00:00,28.656756,77.227234,NH3,21,25,22
India,Delhi,Delhi,"Chandni Chowk, Delhi - IITM",20-05-2024 23:00:00,28.656756,77.227234,OZONE,10,14,11
India,Delhi,Delhi,"Dr. Karni Singh Shooting Range, Delhi - DPCC",20-05-2024 23:00:00,28.498571,77.264840,OZONE,2,259,128
India,Delhi,Delhi,"Dwarka-Sector 8, Delhi - DPCC ",20-05-2024 23:00:00,28.5710274,77.0719006,PM10,157,499,261
India,Delhi,Delhi,"Dwarka-Sector 8, Delhi - DPCC ",20-05-2024 23:00:00,28.5710274,77.0719006,NO2,25,140,61
India,Delhi,Delhi,"Dwarka-Sector 8, Delhi - DPCC ",20-05-2024 23:00:00,28.5710274,77.0719006,SO2,1,34,17
India,Delhi,Delhi,"IHBAS, Dilshad Garden, Delhi - CPCB",20-05-2024 23:00:00,28.6811736,77.3025234,SO2,4,37,27
India,Delhi,Delhi,"Jahangirpuri, Delhi - DPCC",20-05-2024 23:00:00,28.732820,77.170633,CO,32,105,67
India,Delhi,Delhi,"Jawaharlal Nehru Stadium, Delhi - DPCC",20-05-2024 23:00:00,28.580280,77.233829,PM2.5,23,280,80
India,Delhi,Delhi,"Lodhi Road, Delhi - IITM",20-05-2024 23:00:00,28.588333,77.221667,NO2,7,124,52
India,Delhi,Delhi,"Lodhi Road, Delhi - IMD",20-05-2024 23:00:00,28.5918245,77.2273074,PM10,119,448,188
India,Delhi,Delhi,"Major Dhyan Chand National Stadium, Delhi - DPCC",20-05-2024 23:00:00,28.611281,77.237738,PM10,105,406,184
India,Delhi,Delhi,"Major Dhyan Chand National Stadium, Delhi - DPCC",20-05-2024 23:00:00,28.611281,77.237738,SO2,11,36,19
India,Delhi,Delhi,"Mandir Marg, Delhi - DPCC",20-05-2024 23:00:00,28.636429,77.201067,PM2.5,NA,NA,NA
India,Delhi,Delhi,"Mandir Marg, Delhi - DPCC",20-05-2024 23:00:00,28.636429,77.201067,OZONE,NA,NA,NA
India,Delhi,Delhi,"Mundka, Delhi - DPCC",20-05-2024 23:00:00,28.684678,77.076574,NO2,39,126,68
India,Delhi,Delhi,"NSIT Dwarka, Delhi - CPCB",20-05-2024 23:00:00,28.60909,77.0325413,PM2.5,312,356,331
India,Delhi,Delhi,"NSIT Dwarka, Delhi - CPCB",20-05-2024 23:00:00,28.60909,77.0325413,NO2,26,55,36
India,Delhi,Delhi,"Narela, Delhi - DPCC",20-05-2024 23:00:00,28.822836,77.101981,PM2.5,57,342,207
India,Delhi,Delhi,"Narela, Delhi - DPCC",20-05-2024 23:00:00,28.822836,77.101981,CO,26,102,54
India,Delhi,Delhi,"Nehru Nagar, Delhi - DPCC",20-05-2024 23:00:00,28.567890,77.250515,PM2.5,48,351,139
India,Delhi,Delhi,"Nehru Nagar, Delhi - DPCC",20-05-2024 23:00:00,28.567890,77.250515,PM10,124,403,194
India,Delhi,Delhi,"Nehru Nagar, Delhi - DPCC",20-05-2024 23:00:00,28.567890,77.250515,NO2,8,81,38
India,Delhi,Delhi,"New Moti Bagh, Delhi - MHUA",20-05-2024 23:00:00,28.57834,77.18400,PM2.5,46,348,152
India,Delhi,Delhi,"New Moti Bagh, Delhi - MHUA",20-05-2024 23:00:00,28.57834,77.18400,NO2,6,37,18
India,Delhi,Delhi,"North Campus, DU, Delhi - IMD",20-05-2024 23:00:00,28.6573814,77.1585447,PM10,135,403,199
India,Delhi,Delhi,"North Campus, DU, Delhi - IMD",20-05-2024 23:00:00,28.6573814,77.1585447,NO2,12,72,32
India,Delhi,Delhi,"North Campus, DU, Delhi - IMD",20-05-2024 23:00:00,28.6573814,77.1585447,OZONE,3,57,32
India,Delhi,Delhi,"Okhla Phase-2, Delhi - DPCC",20-05-2024 23:00:00,28.530785,77.271255,PM10,151,413,228
India,Delhi,Delhi,"Okhla Phase-2, Delhi - DPCC",20-05-2024 23:00:00,28.530785,77.271255,NO2,34,152,93
India,Delhi,Delhi,"Patparganj, Delhi - DPCC",20-05-2024 23:00:00,28.623763,77.287209,NO2,6,41,23
India,Delhi,Delhi,"Punjabi Bagh, Delhi - DPCC",20-05-2024 23:00:00,28.674045,77.131023,PM2.5,27,388,178
India,Delhi,Delhi,"Punjabi Bagh, Delhi - DPCC",20-05-2024 23:00:00,28.674045,77.131023,NH3,5,6,5
India,Delhi,Delhi,"Punjabi Bagh, Delhi - DPCC",20-05-2024 23:00:00,28.674045,77.131023,OZONE,4,52,30
India,Delhi,Delhi,"Pusa, Delhi - DPCC",20-05-2024 23:00:00,28.639652,77.146275,SO2,9,70,23
India,Delhi,Delhi,"R K Puram, Delhi - DPCC",20-05-2024 23:00:00,28.563262,77.186937,PM10,137,411,255
India,Delhi,Delhi,"Rohini, Delhi - DPCC",20-05-2024 23:00:00,28.732528,77.119920,NH3,9,30,13
India,Delhi,Delhi,"Shadipur, Delhi - CPCB",20-05-2024 23:00:00,28.6514781,77.1473105,NH3,6,10,8
India,Delhi,Delhi,"Sirifort, Delhi - CPCB",20-05-2024 23:00:00,28.5504249,77.2159377,SO2,26,45,34
India,Delhi,Delhi,"Sirifort, Delhi - CPCB",20-05-2024 23:00:00,28.5504249,77.2159377,OZONE,3,94,31
India,Delhi,Delhi,"Sonia Vihar, Delhi - DPCC",20-05-2024 23:00:00,28.710508,77.249485,OZONE,6,139,70
India,Delhi,Delhi,"Sri Aurobindo Marg, Delhi - DPCC",20-05-2024 23:00:00,28.531346,77.190156,NO2,6,64,32
India,Delhi,Delhi,"Wazirpur, Delhi - DPCC",20-05-2024 23:00:00,28.699793,77.165453,PM2.5,55,359,168
India,Gujarat,Ahmedabad,"Gyaspur, Ahmedabad - IITM",20-05-2024 23:00:00,22.977134,72.553024,CO,28,46,36
India,Gujarat,Ahmedabad,"Gyaspur, Ahmedabad - IITM",20-05-2024 23:00:00,22.977134,72.553024,OZONE,NA,NA,NA
India,Gujarat,Ahmedabad,"Rakhial, Ahmedabad - IITM",20-05-2024 23:00:00,23.016834,72.625775,NH3,NA,NA,NA
India,Gujarat,Ahmedabad,"Rakhial, Ahmedabad - IITM",20-05-2024 23:00:00,23.016834,72.625775,CO,33,117,104
India,Gujarat,Ahmedabad,"SVPI Airport Hansol, Ahmedabad - IITM",20-05-2024 23:00:00,23.076793,72.627874,OZONE,14,51,38
India,Gujarat,Ahmedabad,"Sardar Vallabhbhai Patel Stadium, Ahmedabad - IITM",20-05-2024 23:00:00,23.043070,72.562968,SO2,11,27,18
India,Gujarat,Gandhinagar,"Sector-10, Gandhinagar - GPCB",20-05-2024 23:00:00,23.221714,72.654328,NH3,3,3,3
India,Gujarat,Surat,"Science Center, Surat - SMC",20-05-2024 23:00:00,21.170046,72.795405,PM2.5,NA,NA,NA
India,Gujarat,Surat,"Science Center, Surat - SMC",20-05-2024 23:00:00,21.170046,72.795405,CO,16,36,28
India,Gujarat,Vapi,"Phase-1 GIDC, Vapi - GPCB",20-05-2024 23:00:00,20.362421,72.918013,NO2,6,7,6
India,Gujarat,Vapi,"Phase-1 GIDC, Vapi - GPCB",20-05-2024 23:00:00,20.362421,72.918013,SO2,44,46,45
India,Gujarat,Vatva,"Phase-4 GIDC, Vatva - GPCB",20-05-2024 23:00:00,22.969611,72.643500,PM10,41,82,58
India,Gujarat,Vatva,"Phase-4 GIDC, Vatva - GPCB",20-05-2024 23:00:00,22.969611,72.643500,NO2,18,50,30
India,Gujarat,Vatva,"Phase-4 GIDC, Vatva - GPCB",20-05-2024 23:00:00,22.969611,72.643500,SO2,3,8,5
India,Haryana,Ambala,"Patti Mehar, Ambala - HSPCB",20-05-2024 23:00:00,30.379589,76.778328,PM10,40,261,108
India,Haryana,Ambala,"Patti Mehar, Ambala - HSPCB",20-05-2024 23:00:00,30.379589,76.778328,CO,30,62,40
India,Haryana,Bahadurgarh,"Arya Nagar, Bahadurgarh - HSPCB",20-05-2024 23:00:00,28.6701,76.9254,NO2,NA,NA,NA
India,Haryana,Bahadurgarh,"Arya Nagar, Bahadurgarh - HSPCB",20-05-2024 23:00:00,28.6701,76.9254,CO,82,102,95
India,Haryana,Ballabgarh,"Nathu Colony, Ballabgarh - HSPCB",20-05-2024 23:00:00,28.3419248,77.319699,PM2.5,96,310,212
India,Haryana,Ballabgarh,"Nathu Colony, Ballabgarh - HSPCB",20-05-2024 23:00:00,28.3419248,77.319699,SO2,12,102,28
India,Haryana,Dharuhera,"Municipal Corporation Office, Dharuhera -  HSPCB",20-05-2024 23:00:00,28.206800,76.799700,SO2,NA,NA,NA
India,Haryana,Faridabad,"New Industrial Town, Faridabad - HSPCB",20-05-2024 23:00:00,28.39072,77.30059,CO,6,112,42
India,Haryana,Faridabad,"Sector 11, Faridabad - HSPCB",20-05-2024 23:00:00,28.376058,77.315741,PM2.5,126,304,217
India,Haryana,Faridabad,"Sector 30, Faridabad - HSPCB",20-05-2024 23:00:00,28.4417,77.3217,PM2.5,NA,NA,NA
India,Haryana,Faridabad,"Sector 30, Faridabad - HSPCB",20-05-2024 23:00:00,28.4417,77.3217,NO2,NA,NA,NA
India,Haryana,Faridabad,"Sector 30, Faridabad - HSPCB",20-05-2024 23:00:00,28.4417,77.3217,NH3,NA,NA,NA
India,Haryana,Faridabad,"Sector 30, Faridabad - HSPCB",20-05-2024 23:00:00,28.4417,77.3217,SO2,NA,NA,NA
India,Haryana,Faridabad,"Sector 30, Faridabad - HSPCB",20-05-2024 23:00:00,28.4417,77.3217,OZONE,57,61,59
India,Haryana,Faridabad,"Sector- 16A, Faridabad - HSPCB",20-05-2024 23:00:00,28.4088421,77.3099081,NO2,6,27,14
India,Haryana,Fatehabad,"Huda Sector, Fatehabad - HSPCB",20-05-2024 23:00:00,29.503664,75.467934,OZONE,42,72,53
India,Haryana,Gurugram,"NISE Gwal Pahari, Gurugram - IMD",20-05-2024 23:00:00,28.422681,77.148944,PM2.5,NA,NA,NA
India,Haryana,Gurugram,"NISE Gwal Pahari, Gurugram - IMD",20-05-2024 23:00:00,28.422681,77.148944,CO,64,76,68
India,Haryana,Gurugram,"Teri Gram, Gurugram - HSPCB",20-05-2024 23:00:00,28.4275,77.1465,OZONE,30,78,52
India,Haryana,Gurugram,"Vikas Sadan, Gurugram - HSPCB",20-05-2024 23:00:00,28.4501238,77.0263051,CO,54,148,113
India,Haryana,Gurugram,"Vikas Sadan, Gurugram - HSPCB",20-05-2024 23:00:00,28.4501238,77.0263051,OZONE,8,69,35
India,Haryana,Jind,"Police Lines, Jind - HSPCB",20-05-2024 23:00:00,29.307814,76.337619,PM10,90,149,124
India,Haryana,Jind,"Police Lines, Jind - HSPCB",20-05-2024 23:00:00,29.307814,76.337619,NO2,NA,NA,NA
India,Haryana,Kaithal,"Rishi Nagar, Kaithal - HSPCB",20-05-2024 23:00:00,29.8006,76.4155,PM10,143,198,164
India,Haryana,Kaithal,"Rishi Nagar, Kaithal - HSPCB",20-05-2024 23:00:00,29.8006,76.4155,NH3,8,8,8
India,Haryana,Kurukshetra,"Sector-7, Kurukshetra - HSPCB",20-05-2024 23:00:00,29.966942,76.875879,PM10,114,184,144
India,Haryana,Kurukshetra,"Sector-7, Kurukshetra - HSPCB",20-05-2024 23:00:00,29.966942,76.875879,SO2,2,3,2
India,Haryana,Kurukshetra,"Sector-7, Kurukshetra - HSPCB",20-05-2024 23:00:00,29.966942,76.875879,OZONE,58,110,87
India,Haryana,Mandikhera,"General Hospital, Mandikhera - HSPCB",20-05-2024 23:00:00,27.9002,76.9938,SO2,NA,NA,NA
India,Haryana,Manesar,"Sector-2 IMT, Manesar - HSPCB",20-05-2024 23:00:00,28.360699,76.936090,PM10,54,122,84
India,Haryana,Manesar,"Sector-2 IMT, Manesar - HSPCB",20-05-2024 23:00:00,28.360699,76.936090,OZONE,2,85,41
India,Haryana,Palwal,"Shyam Nagar, Palwal - HSPCB",20-05-2024 23:00:00,28.1485564,77.3320667,PM2.5,40,112,64
India,Haryana,Palwal,"Shyam Nagar, Palwal - HSPCB",20-05-2024 23:00:00,28.1485564,77.3320667,NO2,23,24,24
India,Haryana,Palwal,"Shyam Nagar, Palwal - HSPCB",20-05-2024 23:00:00,28.1485564,77.3320667,SO2,2,19,10
India,Haryana,Panchkula,"Sector-6, Panchkula - HSPCB ",20-05-2024 23:00:00,30.7057778,76.8531805555555,NO2,9,11,10
India,Haryana,Panchkula,"Sector-6, Panchkula - HSPCB ",20-05-2024 23:00:00,30.7057778,76.8531805555555,SO2,2,15,4
India,Haryana,Panipat,"Sector-18, Panipat - HSPCB",20-05-2024 23:00:00,29.432304,76.972765,CO,24,26,25
India,Haryana,Sonipat,"Murthal, Sonipat - HSPCB",20-05-2024 23:00:00,29.027200,77.062100,NH3,NA,NA,NA
India,Haryana,Yamuna Nagar,"Gobind Pura, Yamuna Nagar - HSPCB",20-05-2024 23:00:00,30.1480566,77.2893471,NH3,1,6,4
India,Haryana,Yamuna Nagar,"Gobind Pura, Yamuna Nagar - HSPCB",20-05-2024 23:00:00,30.1480566,77.2893471,SO2,2,107,15
India,Himachal Pradesh,Baddi,"HIMUDA Complex Phase-1, Baddi - HPPCB",20-05-2024 23:00:00,30.943887,76.801991,PM2.5,42,390,129
India,Himachal Pradesh,Baddi,"HIMUDA Complex Phase-1, Baddi - HPPCB",20-05-2024 23:00:00,30.943887,76.801991,NO2,9,53,22
India,Himachal Pradesh,Baddi,"HIMUDA Complex Phase-1, Baddi - HPPCB",20-05-2024 23:00:00,30.943887,76.801991,NH3,5,6,6
India,Himachal Pradesh,Baddi,"HIMUDA Complex Phase-1, Baddi - HPPCB",20-05-2024 23:00:00,30.943887,76.801991,SO2,9,101,33
India,Jammu_and_Kashmir,Srinagar,"Rajbagh, Srinagar - JKSPCB",20-05-2024 23:00:00,34.066206,74.819820,PM10,NA,NA,NA
India,Jharkhand,Dhanbad,"Sardar Patel Nagar, Dhanbad - JSPCB",20-05-2024 23:00:00,23.80569,86.44268,CO,NA,NA,NA
India,Karnataka,Bagalkot,"Vidayagiri, Bagalkot - KSPCB",20-05-2024 23:00:00,16.172806,75.659694,CO,14,50,34
India,Karnataka,Bengaluru,"Bapuji Nagar, Bengaluru - KSPCB",20-05-2024 23:00:00,12.951913,77.539784,SO2,5,9,7
India,Karnataka,Bengaluru,"Hebbal, Bengaluru - KSPCB",20-05-2024 23:00:00,13.029152,77.585901,PM2.5,4,55,34
India,Karnataka,Bengaluru,"Hebbal, Bengaluru - KSPCB",20-05-2024 23:00:00,13.029152,77.585901,NO2,4,5,5
India,Karnataka,Bengaluru,"Hebbal, Bengaluru - KSPCB",20-05-2024 23:00:00,13.029152,77.585901,NH3,1,1,1
India,Karnataka,Bengaluru,"Peenya, Bengaluru - CPCB",20-05-2024 23:00:00,13.0270199,77.494094,PM2.5,NA,NA,NA
India,Karnataka,Bengaluru,"Peenya, Bengaluru - CPCB",20-05-2024 23:00:00,13.0270199,77.494094,PM10,NA,NA,NA
India,Karnataka,Bengaluru,"Peenya, Bengaluru - CPCB",20-05-2024 23:00:00,13.0270199,77.494094,SO2,NA,NA,NA
India,Karnataka,Bengaluru,"RVCE-Mailasandra, Bengaluru - KSPCB",20-05-2024 23:00:00,12.921418,77.502466,PM10,14,75,40
India,Karnataka,Bengaluru,"Sanegurava Halli, Bengaluru - KSPCB",20-05-2024 23:00:00,12.990328,77.5431385,SO2,1,4,3
India,Karnataka,Bengaluru,"Shivapura_Peenya, Bengaluru - KSPCB",20-05-2024 23:00:00,13.0246342,77.5080115,PM10,39,95,65
India,Karnataka,Bengaluru,"Shivapura_Peenya, Bengaluru - KSPCB",20-05-2024 23:00:00,13.0246342,77.5080115,NH3,4,4,4
India,Karnataka,Bengaluru,"Silk Board, Bengaluru - KSPCB",20-05-2024 23:00:00,12.917348,77.622813,PM10,24,149,66
India,Karnataka,Bengaluru,"Silk Board, Bengaluru - KSPCB",20-05-2024 23:00:00,12.917348,77.622813,NH3,1,1,1
India,Karnataka,Chamarajanagar,"Urban, Chamarajanagar - KSPCB",20-05-2024 23:00:00,11.55358,76.55521,PM2.5,16,42,28
India,Karnataka,Chamarajanagar,"Urban, Chamarajanagar - KSPCB",20-05-2024 23:00:00,11.55358,76.55521,PM10,35,52,42
India,Karnataka,Chamarajanagar,"Urban, Chamarajanagar - KSPCB",20-05-2024 23:00:00,11.55358,76.55521,NO2,22,36,28
India,Karnataka,Chikkamagaluru,"Kalyana Nagara, Chikkamagaluru - KSPCB",20-05-2024 23:00:00,13.328028,75.797056,PM10,25,353,58
India,Karnataka,Chikkamagaluru,"Kalyana Nagara, Chikkamagaluru - KSPCB",20-05-2024 23:00:00,13.328028,75.797056,CO,11,70,24
India,Karnataka,Dharwad,"Kalabhavan, Dharwad - KSPCB",20-05-2024 23:00:00,15.459706,75.008381,SO2,2,4,3
India,Karnataka,Hassan,"B.Katihalli, Hassan - KSPCB",20-05-2024 23:00:00,13.008556,76.125258,NH3,NA,NA,NA
India,Karnataka,Hassan,"B.Katihalli, Hassan - KSPCB",20-05-2024 23:00:00,13.008556,76.125258,OZONE,2,2,2
India,Karnataka,Haveri,"Ashwini Nagar, Haveri - KSPCB",20-05-2024 23:00:00,14.791800,75.389600,NO2,21,55,33
India,Karnataka,Hubballi,"Deshpande Nagar, Hubballi - KSPCB",20-05-2024 23:00:00,15.351773,75.140726,NO2,25,27,26
India,Karnataka,Hubballi,"Lingaraj Nagar, Hubballi - KSPCB",20-05-2024 23:00:00,15.3714823,75.1160168,NH3,2,4,2
India,Karnataka,Hubballi,"Lingaraj Nagar, Hubballi - KSPCB",20-05-2024 23:00:00,15.3714823,75.1160168,SO2,1,5,2
India,Karnataka,Kalaburagi,"Lal Bahadur Shastri Nagar, Kalaburagi - KSPCB",20-05-2024 23:00:00,17.321993,76.822628,SO2,10,19,15
India,Karnataka,Karwar,"KHB Colony, Karwar - KSPCB",20-05-2024 23:00:00,14.816666,74.141003,OZONE,20,22,21
India,Karnataka,Kolar,"Tamaka Ind. Area, Kolar - KSPCB",20-05-2024 23:00:00,13.1276288,78.1570122,PM10,NA,NA,NA
India,Karnataka,Kolar,"Tamaka Ind. Area, Kolar - KSPCB",20-05-2024 23:00:00,13.1276288,78.1570122,CO,8,14,10
India,Karnataka,Koppal,"Diwator Nagar, Koppal - KSPCB",20-05-2024 23:00:00,15.347630,76.181767,PM10,5,46,15
India,Karnataka,Koppal,"Diwator Nagar, Koppal - KSPCB",20-05-2024 23:00:00,15.347630,76.181767,NH3,5,10,8
India,Karnataka,Madikeri,"Stuart Hill, Madikeri - KSPCB",20-05-2024 23:00:00,12.415911,75.735050,PM2.5,2,13,7
India,Karnataka,Mysuru,"Hebbal 1st Stage, Mysuru - KSPCB",20-05-2024 23:00:00,12.21041,76.37376,PM10,21,56,33
India,Karnataka,Raichur,"Haji Colony, Raichur - KSPCB",20-05-2024 23:00:00,16.208139,77.348417,PM2.5,2,25,13
India,Karnataka,Ramanagara,"Vijay Nagar, Ramanagara - KSPCB",20-05-2024 23:00:00,12.733409,77.298051,PM2.5,12,42,24
India,Karnataka,Shivamogga,"Vinoba Nagara, Shivamogga - KSPCB",20-05-2024 23:00:00,13.940000,75.555917,SO2,2,11,6
India,Karnataka,Shivamogga,"Vinoba Nagara, Shivamogga - KSPCB",20-05-2024 23:00:00,13.940000,75.555917,CO,14,48,20
India,Karnataka,Shivamogga,"Vinoba Nagara, Shivamogga - KSPCB",20-05-2024 23:00:00,13.940000,75.555917,OZONE,3,42,21
India,Karnataka,Tumakuru,"Thimmalapura, Tumakuru - KSPCB",20-05-2024 23:00:00,13.377516,77.099072,PM10,NA,NA,NA
India,Karnataka,Tumakuru,"Thimmalapura, Tumakuru - KSPCB",20-05-2024 23:00:00,13.377516,77.099072,OZONE,10,27,17
India,Karnataka,Udupi,"Brahmagiri, Udupi - KSPCB",20-05-2024 23:00:00,13.34194444,74.74694444,SO2,NA,NA,NA
India,Kerala,Kannur,"Thavakkara, Kannur - Kerala PCB",20-05-2024 23:00:00,11.875000,75.373200,PM2.5,NA,NA,NA
India,Kerala,Kollam,"Polayathode, Kollam - Kerala PCB",20-05-2024 23:00:00,8.8787,76.6073,CO,14,17,14
India,Kerala,Kollam,"Polayathode, Kollam - Kerala PCB",20-05-2024 23:00:00,8.8787,76.6073,OZONE,29,32,32
India,Kerala,Thiruvananthapuram,"Kariavattom, Thiruvananthapuram - Kerala PCB",20-05-2024 23:00:00,8.563700,76.886500,NO2,8,9,9
India,Kerala,Thiruvananthapuram,"Kariavattom, Thiruvananthapuram - Kerala PCB",20-05-2024 23:00:00,8.563700,76.886500,SO2,3,14,8
India,Kerala,Thiruvananthapuram,"Kariavattom, Thiruvananthapuram - Kerala PCB",20-05-2024 23:00:00,8.563700,76.886500,CO,14,18,16
India,Kerala,Thiruvananthapuram,"Kariavattom, Thiruvananthapuram - Kerala PCB",20-05-2024 23:00:00,8.563700,76.886500,OZONE,27,32,29
India,Kerala,Thrissur,"Corporation Ground, Thrissur - Kerala PCB",20-05-2024 23:00:00,10.532400,76.215900,SO2,1,9,2
India,Madhya Pradesh,Bhopal,"Idgah Hills, Bhopal - MPPCB",20-05-2024 23:00:00,23.264759,77.381568,NH3,NA,NA,NA
India,Madhya Pradesh,Bhopal,"Idgah Hills, Bhopal - MPPCB",20-05-2024 23:00:00,23.264759,77.381568,SO2,NA,NA,NA
India,Madhya Pradesh,Bhopal,"Paryavaran Parisar, Bhopal - MPPCB",20-05-2024 23:00:00,23.210494,77.425409,SO2,8,15,11
India,Madhya Pradesh,Bhopal,"Paryavaran Parisar, Bhopal - MPPCB",20-05-2024 23:00:00,23.210494,77.425409,OZONE,11,96,69
India,Madhya Pradesh,Bhopal,"T T Nagar, Bhopal - MPPCB",20-05-2024 23:00:00,23.233584,77.400574,PM2.5,29,69,43
India,Madhya Pradesh,Bhopal,"T T Nagar, Bhopal - MPPCB",20-05-2024 23:00:00,23.233584,77.400574,PM10,46,200,100
India,Madhya Pradesh,Bhopal,"T T Nagar, Bhopal - MPPCB",20-05-2024 23:00:00,23.233584,77.400574,OZONE,44,97,81
India,Madhya Pradesh,Gwalior,"City Center, Gwalior - MPPCB",20-05-2024 23:00:00,26.203442,78.193251,PM2.5,25,114,58
India,Madhya Pradesh,Gwalior,"Maharaj Bada, Gwalior - MPPCB",20-05-2024 23:00:00,26.200388,78.147714,NO2,10,78,31
India,Madhya Pradesh,Gwalior,"Maharaj Bada, Gwalior - MPPCB",20-05-2024 23:00:00,26.200388,78.147714,NH3,2,13,5
India,Madhya Pradesh,Indore,"Chhoti Gwaltoli, Indore - MPPCB",20-05-2024 23:00:00,22.4310,75.5213,PM2.5,42,180,73
India,Madhya Pradesh,Indore,"Maguda Nagar, Indore - IMC",20-05-2024 23:00:00,22.7524,75.8872,SO2,37,40,39
India,Madhya Pradesh,Indore,"Regional Park, Indore - IMC",20-05-2024 23:00:00,22.6780,75.8559,SO2,NA,NA,NA
India,Madhya Pradesh,Jabalpur,"Govindh Bhavan Colony, Jabalpur - JMC",20-05-2024 23:00:00,23.163174,79.973061,OZONE,111,199,150
India,Madhya Pradesh,Jabalpur,"Marhatal, Jabalpur - MPPCB",20-05-2024 23:00:00,23.168606,79.932247,SO2,7,23,16
India,Madhya Pradesh,Katni,"Gole Bazar, Katni - MPPCB",20-05-2024 23:00:00,23.50016,80.23284,PM2.5,30,52,38
India,Madhya Pradesh,Katni,"Gole Bazar, Katni - MPPCB",20-05-2024 23:00:00,23.50016,80.23284,PM10,42,127,74
India,Madhya Pradesh,Katni,"Gole Bazar, Katni - MPPCB",20-05-2024 23:00:00,23.50016,80.23284,CO,18,66,31
India,Madhya Pradesh,Maihar,"Sahilara, Maihar - KJS Cements",20-05-2024 23:00:00,24.2613009,80.7231783,SO2,12,13,13
India,Madhya Pradesh,Sagar,"Civil Lines, Sagar - MPPCB",20-05-2024 23:00:00,23.838586,78.759431,NH3,NA,NA,NA
India,Madhya Pradesh,Sagar,"Civil Lines, Sagar - MPPCB",20-05-2024 23:00:00,23.838586,78.759431,SO2,2,20,8
India,Madhya Pradesh,Sagar,"Civil Lines, Sagar - MPPCB",20-05-2024 23:00:00,23.838586,78.759431,OZONE,31,129,92
India,Madhya Pradesh,Satna,"Bandhavgar Colony, Satna - Birla Cement",20-05-2024 23:00:00,24.58434363,80.8549414,NO2,29,82,45
India,Madhya Pradesh,Satna,"Bandhavgar Colony, Satna - Birla Cement",20-05-2024 23:00:00,24.58434363,80.8549414,OZONE,12,41,27
India,Madhya Pradesh,Singrauli,"Suryakiran Bhawan NCL, Singrauli - MPPCB",20-05-2024 23:00:00,24.108970,82.645580,PM10,45,403,117
India,Madhya Pradesh,Ujjain,"Mahakaleshwar Temple, Ujjain - MPPCB",20-05-2024 23:00:00,23.182719 ,75.768218 ,SO2,5,11,8
India,Maharashtra,Ahmednagar,"Tarakpur, Ahmednagar - MPCB",20-05-2024 23:00:00,19.10122,74.73339,NO2,22,86,43
India,Maharashtra,Ahmednagar,"Tarakpur, Ahmednagar - MPCB",20-05-2024 23:00:00,19.10122,74.73339,OZONE,17,155,99
India,Maharashtra,Akola,"Ramdaspeth, Akola - MPCB",20-05-2024 23:00:00,20.719516,77.000253,OZONE,17,95,61
India,Maharashtra,Amravati,"Shivneri Colony, Amravati - MPCB",20-05-2024 23:00:00,20.9402359,77.7895248,SO2,1,6,3
India,Maharashtra,Amravati,"Shivneri Colony, Amravati - MPCB",20-05-2024 23:00:00,20.9402359,77.7895248,CO,6,36,18
India,Maharashtra,Amravati,"Shivneri Colony, Amravati - MPCB",20-05-2024 23:00:00,20.9402359,77.7895248,OZONE,23,98,80
India,Maharashtra,Amravati,"Shri Shivaji Science College, Amaravati - MPCB",20-05-2024 23:00:00,20.939198,77.765701,NO2,8,81,19
India,Maharashtra,Aurangabad,"MIDC Chilkalthana, Aurangabad - MPCB",20-05-2024 23:00:00,19.875620,75.387310,PM10,14,101,79
India,Maharashtra,Aurangabad,"MIDC Chilkalthana, Aurangabad - MPCB",20-05-2024 23:00:00,19.875620,75.387310,NH3,5,6,5
India,Maharashtra,Aurangabad,"MIDC Chilkalthana, Aurangabad - MPCB",20-05-2024 23:00:00,19.875620,75.387310,SO2,1,8,3
India,Maharashtra,Aurangabad,"MIDC Chilkalthana, Aurangabad - MPCB",20-05-2024 23:00:00,19.875620,75.387310,CO,24,48,33
India,Maharashtra,Aurangabad,"More Chowk Waluj, Aurangabad - MPCB",20-05-2024 23:00:00,19.8389439,75.244448,CO,17,90,48
India,Maharashtra,Aurangabad,"Rachnakar Colony, Aurangabad - MPCB",20-05-2024 23:00:00,19.863756,75.321188,PM2.5,78,129,107
India,Maharashtra,Badlapur,"Katrap, Badlapur - MPCB",20-05-2024 23:00:00,19.16485,73.23409,NO2,3,16,6
India,Maharashtra,Belapur,"CBD Belapur, Belapur - MPCB",20-05-2024 23:00:00,19.0243902,73.0406721,PM10,53,102,76
India,Maharashtra,Bhiwandi,"Gokul Nagar, Bhiwandi - MPCB",20-05-2024 23:00:00,19.309073,73.057223,NH3,3,4,4
India,Maharashtra,Bhiwandi,"Gokul Nagar, Bhiwandi - MPCB",20-05-2024 23:00:00,19.309073,73.057223,CO,18,49,21
India,Maharashtra,Bhiwandi,"Gokul Nagar, Bhiwandi - MPCB",20-05-2024 23:00:00,19.309073,73.057223,OZONE,38,222,71
India,Maharashtra,Boisar,"Khaira, Boisar - MPCB",20-05-2024 23:00:00,19.786089,72.757971,PM2.5,4,120,37
India,Maharashtra,Boisar,"Khaira, Boisar - MPCB",20-05-2024 23:00:00,19.786089,72.757971,CO,1,26,20
India,Maharashtra,Chandrapur,"Chauhan Colony, Chandrapur - MPCB",20-05-2024 23:00:00,19.962900,79.298714,CO,24,28,26
India,Maharashtra,Chandrapur,"MIDC Khutala, Chandrapur - MPCB",20-05-2024 23:00:00,19.9775302,79.2337086,SO2,8,76,20
India,Maharashtra,Jalgaon,"Prabhat Colony, Jalgaon - MPCB",20-05-2024 23:00:00,21.001264,75.565602,PM2.5,73,224,122
India,Maharashtra,Jalgaon,"Prabhat Colony, Jalgaon - MPCB",20-05-2024 23:00:00,21.001264,75.565602,CO,2,102,38
India,Maharashtra,Kolhapur,"Shivaji University, Kolhapur - MPCB",20-05-2024 23:00:00,16.6870449,74.2505872,OZONE,26,90,51
India,Maharashtra,Kolhapur,"Sinchan Bhavan, Kolhapur - MPCB",20-05-2024 23:00:00,16.7143745,74.2426398,CO,16,35,22
India,Maharashtra,Latur,"Sawe Wadi, Latur - MPCB",20-05-2024 23:00:00,18.39963,76.57452,NO2,12,36,17
India,Maharashtra,Mahad,"Kamble Tarf Birwadi, Mahad - MPCB",20-05-2024 23:00:00,18.1023399,73.4783687,PM2.5,NA,NA,NA
India,Maharashtra,Malegaon,"Mahesh Nagar, Malegaon - MPCB",20-05-2024 23:00:00,20.555712,74.529236,NO2,5,99,36
India,Maharashtra,Mumbai,"Bandra Kurla Complex, Mumbai - MPCB",20-05-2024 23:00:00,19.065931,72.862131,CO,30,45,34
India,Maharashtra,Mumbai,"Borivali East, Mumbai - IITM",20-05-2024 23:00:00,19.23241,72.86895,CO,6,54,26
India,Maharashtra,Mumbai,"Borivali East, Mumbai - MPCB",20-05-2024 23:00:00,19.2243333,72.8658113,PM2.5,3,27,13
India,Maharashtra,Mumbai,"Chakala-Andheri East, Mumbai - IITM",20-05-2024 23:00:00,19.11074,72.86084,PM10,23,83,46
India,Maharashtra,Mumbai,"Chembur, Mumbai - MPCB",20-05-2024 23:00:00,19.0364585,72.8954371,NH3,3,4,4
India,Maharashtra,Mumbai,"Chhatrapati Shivaji Intl. Airport (T2), Mumbai - MPCB",20-05-2024 23:00:00,19.10078,72.87462,NO2,NA,NA,NA
India,Maharashtra,Mumbai,"Deonar, Mumbai - IITM",20-05-2024 23:00:00,19.04946,72.9230,PM2.5,16,78,44
India,Maharashtra,Mumbai,"Ghatkopar, Mumbai - BMC",20-05-2024 23:00:00,19.083694,72.920967,NO2,1,14,10
India,Maharashtra,Mumbai,"Ghatkopar, Mumbai - BMC",20-05-2024 23:00:00,19.083694,72.920967,SO2,1,1,1
India,Maharashtra,Mumbai,"Ghatkopar, Mumbai - BMC",20-05-2024 23:00:00,19.083694,72.920967,CO,2,10,8
India,Maharashtra,Mumbai,"Kandivali East, Mumbai - MPCB",20-05-2024 23:00:00,19.205800,72.868200,SO2,8,10,9
India,Maharashtra,Mumbai,"Kandivali West, Mumbai - BMC",20-05-2024 23:00:00,19.215859,72.831718,NH3,2,3,2
India,Maharashtra,Mumbai,"Kherwadi_Bandra East, Mumbai - MPCB",20-05-2024 23:00:00,19.0632143,72.8456324,PM2.5,10,42,24
India,Maharashtra,Mumbai,"Khindipada-Bhandup West, Mumbai - IITM",20-05-2024 23:00:00,19.1653323,72.922099,PM10,24,71,46
India,Maharashtra,Mumbai,"Khindipada-Bhandup West, Mumbai - IITM",20-05-2024 23:00:00,19.1653323,72.922099,NH3,2,7,4
India,Maharashtra,Mumbai,"Khindipada-Bhandup West, Mumbai - IITM",20-05-2024 23:00:00,19.1653323,72.922099,SO2,2,9,6
India,Maharashtra,Mumbai,"Kurla, Mumbai - MPCB",20-05-2024 23:00:00,19.0863,72.8888,NO2,14,16,15
India,Maharashtra,Mumbai,"Mindspace-Malad West, Mumbai - MPCB",20-05-2024 23:00:00,19.1878657,72.8304069,PM10,21,64,45
India,Maharashtra,Mumbai,"Mindspace-Malad West, Mumbai - MPCB",20-05-2024 23:00:00,19.1878657,72.8304069,SO2,4,8,6
India,Maharashtra,Mumbai,"Mindspace-Malad West, Mumbai - MPCB",20-05-2024 23:00:00,19.1878657,72.8304069,OZONE,5,12,8
India,Maharashtra,Mumbai,"Mulund West, Mumbai - MPCB",20-05-2024 23:00:00,19.1750,72.9419,NO2,19,22,21
India,Maharashtra,Mumbai,"Mulund West, Mumbai - MPCB",20-05-2024 23:00:00,19.1750,72.9419,NH3,10,10,10
India,Maharashtra,Mumbai,"Powai, Mumbai - MPCB",20-05-2024 23:00:00,19.137500,72.915056,PM10,52,83,69
India,Maharashtra,Mumbai,"Powai, Mumbai - MPCB",20-05-2024 23:00:00,19.137500,72.915056,NO2,13,26,20
India,Maharashtra,Mumbai,"Powai, Mumbai - MPCB",20-05-2024 23:00:00,19.137500,72.915056,CO,32,38,35
India,Maharashtra,Mumbai,"Powai, Mumbai - MPCB",20-05-2024 23:00:00,19.137500,72.915056,OZONE,24,63,47
India,Maharashtra,Mumbai,"Siddharth Nagar-Worli, Mumbai - IITM",20-05-2024 23:00:00,19.000083,72.813993,PM2.5,47,78,60
India,Maharashtra,Mumbai,"Siddharth Nagar-Worli, Mumbai - IITM",20-05-2024 23:00:00,19.000083,72.813993,NO2,28,44,35
India,Maharashtra,Mumbai,"Siddharth Nagar-Worli, Mumbai - IITM",20-05-2024 23:00:00,19.000083,72.813993,NH3,8,10,9
India,Maharashtra,Mumbai,"Vasai West, Mumbai - MPCB",20-05-2024 23:00:00,19.383200,72.820400,PM10,51,122,81
India,Maharashtra,Mumbai,"Vasai West, Mumbai - MPCB",20-05-2024 23:00:00,19.383200,72.820400,SO2,18,74,21
India,Maharashtra,Mumbai,"Worli, Mumbai - MPCB",20-05-2024 23:00:00,18.9936162,72.8128113,PM2.5,17,46,26
India,Maharashtra,Nagpur,"Opp GPO Civil Lines, Nagpur - MPCB",20-05-2024 23:00:00,21.152875,79.0517531,CO,3,122,65
India,Maharashtra,Nanded,"Sneh Nagar, Nanded - MPCB",20-05-2024 23:00:00,19.173852,77.296291,SO2,2,5,4
India,Maharashtra,Nashik,"Hirawadi, Nashik - MPCB",20-05-2024 23:00:00,20.021503,73.813844,NH3,3,4,4
India,Maharashtra,Nashik,"Hirawadi, Nashik - MPCB",20-05-2024 23:00:00,20.021503,73.813844,SO2,3,21,13
India,Maharashtra,Nashik,"Hirawadi, Nashik - MPCB",20-05-2024 23:00:00,20.021503,73.813844,OZONE,12,85,64
India,Maharashtra,Nashik,"MIDC Ambad, Nashik - MPCB",20-05-2024 23:00:00,19.950220,73.731480,PM2.5,NA,NA,NA
India,Maharashtra,Nashik,"MIDC Ambad, Nashik - MPCB",20-05-2024 23:00:00,19.950220,73.731480,NH3,NA,NA,NA
India,Maharashtra,Nashik,"Pandav Nagari, Nashik - MPCB",20-05-2024 23:00:00,19.9591346,73.7788008,PM2.5,2,319,78
India,Maharashtra,Nashik,"Pandav Nagari, Nashik - MPCB",20-05-2024 23:00:00,19.9591346,73.7788008,SO2,15,25,19
India,Maharashtra,Nashik,"Pandav Nagari, Nashik - MPCB",20-05-2024 23:00:00,19.9591346,73.7788008,OZONE,35,97,71
India,Maharashtra,Navi Mumbai,"Kopripada-Vashi, Navi Mumbai - MPCB",20-05-2024 23:00:00,19.090337,73.014232,PM2.5,15,52,35
India,Maharashtra,Navi Mumbai,"Kopripada-Vashi, Navi Mumbai - MPCB",20-05-2024 23:00:00,19.090337,73.014232,PM10,NA,NA,NA
India,Maharashtra,Navi Mumbai,"Kopripada-Vashi, Navi Mumbai - MPCB",20-05-2024 23:00:00,19.090337,73.014232,SO2,NA,NA,NA
India,Maharashtra,Navi Mumbai,"Mahape, Navi Mumbai - MPCB",20-05-2024 23:00:00,19.1135051,73.008978,PM10,39,121,64
India,Maharashtra,Navi Mumbai,"Mahape, Navi Mumbai - MPCB",20-05-2024 23:00:00,19.1135051,73.008978,NO2,83,86,85
India,Maharashtra,Navi Mumbai,"Nerul, Navi Mumbai - MPCB",20-05-2024 23:00:00,19.008751,73.016620,OZONE,27,32,28
India,Maharashtra,Navi Mumbai,"Sanpada, Navi Mumbai - MPCB",20-05-2024 23:00:00,19.0575752,73.0151367,NO2,1,10,3
India,Maharashtra,Navi Mumbai,"Tondare-Taloja, Navi Mumbai - MPCB",20-05-2024 23:00:00,19.0630,73.1209,PM2.5,NA,NA,NA
India,Maharashtra,Navi Mumbai,"Tondare-Taloja, Navi Mumbai - MPCB",20-05-2024 23:00:00,19.0630,73.1209,CO,1,23,11
India,Maharashtra,Parbhani,"Masoom Colony, Parbhani - MPCB",20-05-2024 23:00:00,19.265594,76.761463,PM10,61,155,85
India,Maharashtra,Parbhani,"Masoom Colony, Parbhani - MPCB",20-05-2024 23:00:00,19.265594,76.761463,NO2,16,71,26
India,Maharashtra,Pimpri-Chinchwad,"Gavalinagar, Pimpri Chinchwad - MPCB",20-05-2024 23:00:00,18.63673,73.82487,PM2.5,44,77,64
India,Maharashtra,Pimpri-Chinchwad,"Park Street Wakad, Pimpri Chinchwad - MPCB",20-05-2024 23:00:00,18.59051,73.77946,NO2,17,65,38
India,Maharashtra,Pimpri-Chinchwad,"Park Street Wakad, Pimpri Chinchwad - MPCB",20-05-2024 23:00:00,18.59051,73.77946,NH3,2,7,5
India,Maharashtra,Pimpri-Chinchwad,"Thergaon, Pimpri Chinchwad - MPCB",20-05-2024 23:00:00,18.616318,73.765797,PM2.5,NA,NA,NA
India,Maharashtra,Pune,"Alandi, Pune - IITM",20-05-2024 23:00:00,18.675076,73.892743,PM10,21,127,68
India,Maharashtra,Pune,"Hadapsar, Pune - IITM",20-05-2024 23:00:00,18.501793,73.927532,PM10,NA,NA,NA
India,Maharashtra,Pune,"Karve Road, Pune - MPCB",20-05-2024 23:00:00,18.5011743,73.8165527,OZONE,17,71,45
India,Maharashtra,Pune,"Mhada Colony, Pune - IITM",20-05-2024 23:00:00,18.573040,73.927715,NO2,35,91,53
India,Maharashtra,Pune,"Mhada Colony, Pune - IITM",20-05-2024 23:00:00,18.573040,73.927715,OZONE,8,211,106
India,Maharashtra,Pune,"Revenue Colony-Shivajinagar, Pune - IITM",20-05-2024 23:00:00,18.530085,73.849598,PM2.5,50,153,76
India,Maharashtra,Pune,"Revenue Colony-Shivajinagar, Pune - IITM",20-05-2024 23:00:00,18.530085,73.849598,CO,20,85,47
India,Maharashtra,Pune,"Savitribai Phule Pune University, Pune - MPCB",20-05-2024 23:00:00,18.547056,73.826908,NO2,NA,NA,NA
India,Maharashtra,Pune,"Transport Nagar-Nigdi, Pune - IITM",20-05-2024 23:00:00,18.664282,73.763966,PM2.5,46,108,74
India,Maharashtra,Sangli,"Vijay Nagar, Sangli - MPCB",20-05-2024 23:00:00, 16.5038,74.3623,CO,16,44,25
India,Maharashtra,Solapur,"Dnyaneshwar Nagar, Solapur - MPCB",20-05-2024 23:00:00,17.6336264,75.9132495,PM2.5,15,65,40
India,Maharashtra,Solapur,"Dnyaneshwar Nagar, Solapur - MPCB",20-05-2024 23:00:00,17.6336264,75.9132495,SO2,1,1,1
India,Maharashtra,Solapur,"Dnyaneshwar Nagar, Solapur - MPCB",20-05-2024 23:00:00,17.6336264,75.9132495,OZONE,16,84,76
India,Maharashtra,Solapur,"Solapur, Solapur - MPCB",20-05-2024 23:00:00,17.6599188,75.9063906,SO2,103,108,104
India,Maharashtra,Thane,"Pimpleshwar Mandir, Thane - MPCB",20-05-2024 23:00:00,19.192056,72.9585188,PM10,59,102,79
India,Maharashtra,Thane,"Pimpleshwar Mandir, Thane - MPCB",20-05-2024 23:00:00,19.192056,72.9585188,NO2,1,18,7
India,Maharashtra,Thane,"Upvan Fort, Thane - MPCB",20-05-2024 23:00:00,19.222279,72.957979,PM2.5,NA,NA,NA
India,Maharashtra,Virar,"Bolinj, Virar - MPCB",20-05-2024 23:00:00,19.4458210,72.7988231,CO,10,44,19
India,Maharashtra,Virar,"Bolinj, Virar - MPCB",20-05-2024 23:00:00,19.4458210,72.7988231,OZONE,14,45,35
India,Manipur,Imphal,"DM College of Science, Imphal - Manipur PCB",20-05-2024 23:00:00,24.8207389,93.9423085,PM2.5,16,48,26
India,Manipur,Imphal,"Manipur University, Imphal - Manipur PCB",20-05-2024 23:00:00,24.7524239,93.9286218,PM2.5,31,83,56
India,Manipur,Imphal,"Manipur University, Imphal - Manipur PCB",20-05-2024 23:00:00,24.7524239,93.9286218,CO,10,17,13
India,Meghalaya,Shillong,"Lumpyngngad, Shillong - Meghalaya PCB",20-05-2024 23:00:00,25.5586,91.8985,PM10,NA,NA,NA
India,Meghalaya,Shillong,"Lumpyngngad, Shillong - Meghalaya PCB",20-05-2024 23:00:00,25.5586,91.8985,NO2,1,1,1
India,Mizoram,Aizawl,"Sikulpuikawn, Aizawl - Mizoram PCB",20-05-2024 23:00:00,23.7176342,92.7192841,PM2.5,9,47,23
India,Nagaland,Kohima,"PWD Juction, Kohima - NPCB",20-05-2024 23:00:00,25.6635413,94.0989878,NO2,3,12,4
India,Nagaland,Kohima,"PWD Juction, Kohima - NPCB",20-05-2024 23:00:00,25.6635413,94.0989878,OZONE,6,49,17
India,Odisha,Angul,"Hakimapada, Angul - OSPCB",20-05-2024 23:00:00,20.832874,85.104082,PM10,32,500,119
India,Odisha,Barbil,"Forest Office, Barbil - OSPCB",20-05-2024 23:00:00,22.1166054,85.3945546,PM2.5,12,80,39
India,Odisha,Barbil,"Forest Office, Barbil - OSPCB",20-05-2024 23:00:00,22.1166054,85.3945546,OZONE,43,160,121
India,Odisha,Baripada,"Meher Colony, Baripada - OSPCB",20-05-2024 23:00:00,21.941841,86.728318,OZONE,19,123,80
India,Odisha,Bhubaneswar,"Lingraj Mandir, Bhubaneswar - OSPCB",20-05-2024 23:00:00,20.240790,85.836784,NH3,1,2,2
India,Odisha,Bhubaneswar,"Lingraj Mandir, Bhubaneswar - OSPCB",20-05-2024 23:00:00,20.240790,85.836784,CO,31,82,56
India,Odisha,Bhubaneswar,"Lingraj Mandir, Bhubaneswar - OSPCB",20-05-2024 23:00:00,20.240790,85.836784,OZONE,6,53,22
India,Odisha,Brajrajnagar,"GM Office, Brajrajnagar - OSPCB",20-05-2024 23:00:00,21.8004996,83.8396977,PM2.5,10,70,33
India,Odisha,Brajrajnagar,"GM Office, Brajrajnagar - OSPCB",20-05-2024 23:00:00,21.8004996,83.8396977,PM10,14,97,46
India,Odisha,Byasanagar,"Ferro Chrome Colony, Byasanagar - OSPCB",20-05-2024 23:00:00,20.94185,86.11510,PM2.5,7,55,21
India,Odisha,Byasanagar,"Ferro Chrome Colony, Byasanagar - OSPCB",20-05-2024 23:00:00,20.94185,86.11510,NO2,5,16,10
India,Odisha,Byasanagar,"Ferro Chrome Colony, Byasanagar - OSPCB",20-05-2024 23:00:00,20.94185,86.11510,CO,65,94,81
India,Odisha,Keonjhar,"Jagamohanpur, Keonjhar - OSPCB",20-05-2024 23:00:00,21.643900,85.599355,PM10,41,74,56
India,Odisha,Keonjhar,"Jagamohanpur, Keonjhar - OSPCB",20-05-2024 23:00:00,21.643900,85.599355,NO2,9,13,11
India,Odisha,Nayagarh,"Dabuna, Nayagarh - OSPCB",20-05-2024 23:00:00,21.847279,85.416905,PM2.5,28,70,44
India,Odisha,Nayagarh,"Dabuna, Nayagarh - OSPCB",20-05-2024 23:00:00,21.847279,85.416905,NO2,7,8,7
India,Odisha,Nayagarh,"Dabuna, Nayagarh - OSPCB",20-05-2024 23:00:00,21.847279,85.416905,SO2,1,3,2
India,Odisha,Rourkela,"Raghunathpali, Rourkela - OSPCB",20-05-2024 23:00:00,22.220833,84.809444,PM10,50,100,69
India,Odisha,Rourkela,"Raghunathpali, Rourkela - OSPCB",20-05-2024 23:00:00,22.220833,84.809444,OZONE,12,133,99
India,Odisha,Rourkela,"Sector-2, Rourkela - OSPCB",20-05-2024 23:00:00,22.24500000,84.88111111,PM2.5,NA,NA,NA
India,Odisha,Suakati,"OMC Colony, Suakati - OSPCB",20-05-2024 23:00:00,21.606865,85.510538,PM2.5,32,55,43
India,Odisha,Suakati,"OMC Colony, Suakati - OSPCB",20-05-2024 23:00:00,21.606865,85.510538,PM10,45,102,62
India,Odisha,Suakati,"OMC Colony, Suakati - OSPCB",20-05-2024 23:00:00,21.606865,85.510538,OZONE,18,82,63
India,Odisha,Talcher,"Talcher Coalfields,Talcher - OSPCB",20-05-2024 23:00:00,20.9360711,85.1707021,SO2,22,96,38
India,Odisha,Talcher,"Talcher Coalfields,Talcher - OSPCB",20-05-2024 23:00:00,20.9360711,85.1707021,OZONE,19,27,24
India,Puducherry,Puducherry,"Jawahar Nagar, Puducherry - PPCC",20-05-2024 23:00:00,11.9309,79.8027,PM2.5,NA,NA,NA
India,Puducherry,Puducherry,"Jawahar Nagar, Puducherry - PPCC",20-05-2024 23:00:00,11.9309,79.8027,PM10,9,33,20
India,Punjab,Amritsar,"Golden Temple, Amritsar - PPCB",20-05-2024 23:00:00,31.620000,74.876512,PM2.5,58,177,104
India,Punjab,Amritsar,"Golden Temple, Amritsar - PPCB",20-05-2024 23:00:00,31.620000,74.876512,CO,6,177,105
India,Punjab,Khanna,"Kalal Majra, Khanna - PPCB",20-05-2024 23:00:00,30.736056 ,76.209694,NO2,NA,NA,NA
India,Punjab,Ludhiana,"Punjab Agricultural University, Ludhiana - PPCB",20-05-2024 23:00:00,30.9028,75.8086,PM10,78,179,135
India,Punjab,Ludhiana,"Punjab Agricultural University, Ludhiana - PPCB",20-05-2024 23:00:00,30.9028,75.8086,CO,21,102,50
India,Rajasthan,Ajmer,"Civil Lines,  Ajmer - RSPCB",20-05-2024 23:00:00,26.470859,74.646594,CO,5,105,67
India,Rajasthan,Ajmer,"Civil Lines,  Ajmer - RSPCB",20-05-2024 23:00:00,26.470859,74.646594,OZONE,6,98,82
India,Rajasthan,Banswara,"Rati Talai, Banswara - RSPCB",20-05-2024 23:00:00,23.555190,74.440010,PM10,45,197,142
India,Rajasthan,Banswara,"Rati Talai, Banswara - RSPCB",20-05-2024 23:00:00,23.555190,74.440010,OZONE,18,165,88
India,Rajasthan,Barmer,"Railway Colony, Barmer - RSPCB",20-05-2024 23:00:00,25.747299,71.393989,PM10,67,142,102
India,Rajasthan,Barmer,"Railway Colony, Barmer - RSPCB",20-05-2024 23:00:00,25.747299,71.393989,OZONE,44,97,81
India,Rajasthan,Bharatpur,"Krishna Nagar, Bharatpur - RSPCB",20-05-2024 23:00:00,27.215415,77.50873,PM10,90,271,156
India,Rajasthan,Bharatpur,"Krishna Nagar, Bharatpur - RSPCB",20-05-2024 23:00:00,27.215415,77.50873,SO2,1,10,4
India,Rajasthan,Bhilwara,"Pratap Nagar, Bhilwara - RSPCB",20-05-2024 23:00:00,25.339605,74.618883,NO2,13,83,27
India,Rajasthan,Bhiwadi,"Vasundhara Nagar_UIT, Bhiwadi - RSPCB",20-05-2024 23:00:00,28.207266,76.829265,NH3,7,18,14
India,Rajasthan,Bhiwadi,"Vasundhara Nagar_UIT, Bhiwadi - RSPCB",20-05-2024 23:00:00,28.207266,76.829265,OZONE,18,98,77
India,Rajasthan,Bikaner,"MM Ground, Bikaner - RSPCB",20-05-2024 23:00:00,28.018792,73.292658,CO,12,84,34
India,Rajasthan,Bundi,"New Colony, Bundi - RSPCB",20-05-2024 23:00:00,25.435774,75.644272,CO,14,110,37
India,Rajasthan,Chittorgarh,"Shastri Nagar, Chittorgarh - RSPCB",20-05-2024 23:00:00,24.892047,74.623527,CO,7,34,14
India,Rajasthan,Chittorgarh,"Shastri Nagar, Chittorgarh - RSPCB",20-05-2024 23:00:00,24.892047,74.623527,OZONE,19,128,91
India,Rajasthan,Churu,"Subash Chowk, Churu - RSPCB",20-05-2024 23:00:00,28.296139,74.961696,PM2.5,NA,NA,NA
India,Rajasthan,Churu,"Subash Chowk, Churu - RSPCB",20-05-2024 23:00:00,28.296139,74.961696,CO,14,38,23
India,Rajasthan,Dausa,"Khatikan Mohalla, Dausa - RSPCB",20-05-2024 23:00:00,26.895552,76.334753,CO,28,107,69
India,Rajasthan,Dausa,"Khatikan Mohalla, Dausa - RSPCB",20-05-2024 23:00:00,26.895552,76.334753,OZONE,22,326,118
India,Rajasthan,Dholpur,"Raja Ganj, Dholpur - RSPCB",20-05-2024 23:00:00,26.699557,77.898881,SO2,1,108,20
India,Rajasthan,Dholpur,"Raja Ganj, Dholpur - RSPCB",20-05-2024 23:00:00,26.699557,77.898881,CO,13,42,22
India,Rajasthan,Dungarpur,"Bhoiwada, Dungarpur - RSPCB",20-05-2024 23:00:00,23.837789,73.714926,NO2,11,25,17
India,Rajasthan,Dungarpur,"Bhoiwada, Dungarpur - RSPCB",20-05-2024 23:00:00,23.837789,73.714926,SO2,6,8,7
India,Rajasthan,Hanumangarh,"Housing Board, Hanumangarh - RSPCB",20-05-2024 23:00:00,29.610750,74.283608,PM2.5,30,342,84
India,Rajasthan,Jaipur,"Adarsh Nagar, Jaipur - RSPCB",20-05-2024 23:00:00,26.902909,75.836858,SO2,1,31,17
India,Rajasthan,Jaipur,"Mansarovar Sector-12, Jaipur - RSPCB",20-05-2024 23:00:00,26.843698,75.766894,NH3,2,6,5
India,Rajasthan,Jaipur,"Police Commissionerate, Jaipur - RSPCB",20-05-2024 23:00:00,26.9164092,75.7994901,OZONE,26,166,74
India,Rajasthan,Jaipur,"Sector-2 Murlipura, Jaipur - RSPCB",20-05-2024 23:00:00,26.960669,75.771817,PM2.5,67,278,117
India,Rajasthan,Jaipur,"Shastri Nagar, Jaipur - RSPCB",20-05-2024 23:00:00,26.9502929,75.730943,PM10,73,348,174
India,Rajasthan,Jaisalmer,"Sadar Bazar, Jaisalmer - RSPCB",20-05-2024 23:00:00,26.912329,70.909168,OZONE,2,102,61
India,Rajasthan,Jodhpur,"Collectorate, Jodhpur - RSPCB",20-05-2024 23:00:00,26.268249,73.0193853,OZONE,9,95,62
India,Rajasthan,Jodhpur,"Digari Kalan, Jodhpur - RSPCB",20-05-2024 23:00:00,26.295810,73.082283,PM2.5,25,63,37
India,Rajasthan,Jodhpur,"Digari Kalan, Jodhpur - RSPCB",20-05-2024 23:00:00,26.295810,73.082283,NO2,6,43,23
India,Rajasthan,Jodhpur,"Jhalamand, Jodhpur - RSPCB",20-05-2024 23:00:00,26.215415,73.070156,NH3,5,23,9
India,Rajasthan,Jodhpur,"Jhalamand, Jodhpur - RSPCB",20-05-2024 23:00:00,26.215415,73.070156,CO,5,31,18
India,Rajasthan,Jodhpur,"Mandor, Jodhpur - RSPCB",20-05-2024 23:00:00,26.358805,73.047444,PM10,62,107,78
India,Rajasthan,Jodhpur,"Mandor, Jodhpur - RSPCB",20-05-2024 23:00:00,26.358805,73.047444,SO2,2,4,3
India,Rajasthan,Jodhpur,"Samrat Ashok Udhyan, Jodhpur - RSPCB",20-05-2024 23:00:00,26.253384,72.976571,CO,12,34,18
India,Rajasthan,Karauli,"Satyawati Vihar, Karauli - RSPCB",20-05-2024 23:00:00,26.506177,77.025989,PM10,40,216,107
India,Rajasthan,Karauli,"Satyawati Vihar, Karauli - RSPCB",20-05-2024 23:00:00,26.506177,77.025989,SO2,3,25,17
India,Rajasthan,Kota,"Dhanmandi, Kota - RSPCB",20-05-2024 23:00:00,25.164090,75.858137,PM2.5,19,167,57
India,Rajasthan,Kota,"Dhanmandi, Kota - RSPCB",20-05-2024 23:00:00,25.164090,75.858137,SO2,4,13,7
India,Rajasthan,Kota,"Dhanmandi, Kota - RSPCB",20-05-2024 23:00:00,25.164090,75.858137,OZONE,1,149,67
India,Rajasthan,Pali,"Indira Colony Vistar, Pali - RSPCB",20-05-2024 23:00:00,25.771061, 73.340227,NO2,24,59,37
India,Rajasthan,Pali,"Indira Colony Vistar, Pali - RSPCB",20-05-2024 23:00:00,25.771061, 73.340227,SO2,4,12,7
India,Rajasthan,Sawai Madhopur,"Sahu Nagar, Sawai Madhopur - RSPCB",20-05-2024 23:00:00,26.031443,76.359327,SO2,1,44,4
India,Rajasthan,Sawai Madhopur,"Sahu Nagar, Sawai Madhopur - RSPCB",20-05-2024 23:00:00,26.031443,76.359327,CO,1,174,27
India,Rajasthan,Sikar,"Radhakishan Pura, Sikar - RSPCB",20-05-2024 23:00:00,27.608912,75.153302,PM2.5,23,77,43
India,Rajasthan,Sikar,"Radhakishan Pura, Sikar - RSPCB",20-05-2024 23:00:00,27.608912,75.153302,NO2,10,60,27
India,Rajasthan,Sirohi,"Vedhaynath Colony, Sirohi - RSPCB",20-05-2024 23:00:00,24.885261,72.857549,CO,5,32,10
India,Rajasthan,Tonk,"Shastri Nagar, Tonk - RSPCB",20-05-2024 23:00:00,26.159933,75.780517,NO2,7,74,27
India,Rajasthan,Tonk,"Shastri Nagar, Tonk - RSPCB",20-05-2024 23:00:00,26.159933,75.780517,OZONE,20,101,62
India,Rajasthan,Udaipur,"Ashok Nagar, Udaipur - RSPCB",20-05-2024 23:00:00,24.5886166,73.6321397,SO2,1,13,8
India,Sikkim,Gangtok,"Zero Point GICI, Gangtok - SSPCB",20-05-2024 23:00:00,27.338530,88.614099,NO2,1,6,2
India,TamilNadu,Ariyalur,"Keelapalur, Ariyalur - TNPCB",20-05-2024 23:00:00,11.06825,79.07033,PM2.5,9,38,22
India,TamilNadu,Chennai,"Manali, Chennai - CPCB",20-05-2024 23:00:00,13.164544,80.26285,PM10,1,110,26
India,TamilNadu,Chennai,"Manali, Chennai - CPCB",20-05-2024 23:00:00,13.164544,80.26285,CO,64,113,103
India,TamilNadu,Chennai,"Perungudi, Chennai - TNPCB",20-05-2024 23:00:00,12.9533,80.2357,NH3,3,5,4
India,TamilNadu,Chennai,"Velachery Res. Area, Chennai - CPCB",20-05-2024 23:00:00,13.0052189,80.2398125,PM2.5,7,62,29
India,TamilNadu,Chennai,"Velachery Res. Area, Chennai - CPCB",20-05-2024 23:00:00,13.0052189,80.2398125,NO2,NA,NA,NA
India,TamilNadu,Chennai,"Velachery Res. Area, Chennai - CPCB",20-05-2024 23:00:00,13.0052189,80.2398125,SO2,11,11,11
India,TamilNadu,Chennai,"Velachery Res. Area, Chennai - CPCB",20-05-2024 23:00:00,13.0052189,80.2398125,CO,118,120,119
India,TamilNadu,Coimbatore,"PSG College of Arts and Science, Coimbatore - TNPCB",20-05-2024 23:00:00,11.0328,77.0349,PM2.5,NA,NA,NA
India,TamilNadu,Coimbatore,"PSG College of Arts and Science, Coimbatore - TNPCB",20-05-2024 23:00:00,11.0328,77.0349,NO2,1,3,2
India,TamilNadu,Coimbatore,"PSG College of Arts and Science, Coimbatore - TNPCB",20-05-2024 23:00:00,11.0328,77.0349,OZONE,3,7,4
India,TamilNadu,Cuddalore,"Kudikadu, Cuddalore - TNPCB",20-05-2024 23:00:00,11.6829898,79.7532099,PM2.5,5,52,20
India,TamilNadu,Cuddalore,"Kudikadu, Cuddalore - TNPCB",20-05-2024 23:00:00,11.6829898,79.7532099,SO2,9,11,10
India,TamilNadu,Gummidipoondi,"Anthoni Pillai Nagar, Gummidipoondi - TNPCB",20-05-2024 23:00:00,13.4127,80.1081,SO2,1,97,18
India,TamilNadu,Ooty,"Bombay Castel, Ooty - TNPCB",20-05-2024 23:00:00,11.4068288,76.7138973,NO2,1,38,13
India,TamilNadu,Palkalaiperur,"Bharathidasan University, Palkalaiperur - TNPCB",20-05-2024 23:00:00,10.681158,78.741746,PM10,NA,NA,NA
India,TamilNadu,Ramanathapuram,"Chalai Bazaar, Ramanathapuram - TNPCB",20-05-2024 23:00:00,9.36399,78.831977,PM10,7,52,20
India,TamilNadu,Ramanathapuram,"Chalai Bazaar, Ramanathapuram - TNPCB",20-05-2024 23:00:00,9.36399,78.831977,NH3,1,1,1
India,TamilNadu,Salem,"Sona College of Technology, Salem - TNPCB",20-05-2024 23:00:00,11.679111,78.125052,NH3,1,1,1
India,TamilNadu,Vellore,"Vasanthapuram, Vellore - TNPCB",20-05-2024 23:00:00,12.909494,79.131861,PM2.5,12,52,36
India,TamilNadu,Vellore,"Vasanthapuram, Vellore - TNPCB",20-05-2024 23:00:00,12.909494,79.131861,PM10,18,49,36
India,Telangana,Hyderabad,"Bollaram Industrial Area, Hyderabad - TSPCB",20-05-2024 23:00:00,17.540891,78.358528,NH3,2,4,3
India,Telangana,Hyderabad,"Bollaram Industrial Area, Hyderabad - TSPCB",20-05-2024 23:00:00,17.540891,78.358528,CO,1,114,65
India,Telangana,Hyderabad,"Bollaram Industrial Area, Hyderabad - TSPCB",20-05-2024 23:00:00,17.540891,78.358528,OZONE,31,35,34
India,Telangana,Hyderabad,"Central University, Hyderabad - TSPCB",20-05-2024 23:00:00,17.460103,78.334361,PM2.5,2,27,11
India,Telangana,Hyderabad,"Central University, Hyderabad - TSPCB",20-05-2024 23:00:00,17.460103,78.334361,PM10,12,62,30
India,Telangana,Hyderabad,"Central University, Hyderabad - TSPCB",20-05-2024 23:00:00,17.460103,78.334361,NO2,13,37,23
India,Telangana,Hyderabad,"Central University, Hyderabad - TSPCB",20-05-2024 23:00:00,17.460103,78.334361,SO2,4,10,6
India,Telangana,Hyderabad,"Central University, Hyderabad - TSPCB",20-05-2024 23:00:00,17.460103,78.334361,CO,4,32,23
India,Telangana,Hyderabad,"ECIL Kapra, Hyderabad - TSPCB",20-05-2024 23:00:00,17.470431,78.566959,OZONE,27,48,35
India,Telangana,Hyderabad,"ICRISAT Patancheru, Hyderabad - TSPCB",20-05-2024 23:00:00,17.518400,78.278777,CO,18,50,25
India,Telangana,Hyderabad,"IITH Kandi, Hyderabad - TSPCB",20-05-2024 23:00:00,17.585705,78.126199,NO2,NA,NA,NA
India,Telangana,Hyderabad,"IITH Kandi, Hyderabad - TSPCB",20-05-2024 23:00:00,17.585705,78.126199,CO,4,16,16
India,Telangana,Hyderabad,"Kokapet, Hyderabad - TSPCB",20-05-2024 23:00:00,17.393559,78.339194,SO2,NA,NA,NA
India,Telangana,Hyderabad,"Nacharam_TSIIC IALA, Hyderabad - TSPCB",20-05-2024 23:00:00,17.429398,78.569354,CO,4,37,26
India,Telangana,Hyderabad,"New Malakpet, Hyderabad - TSPCB",20-05-2024 23:00:00,17.37206,78.50864,PM10,NA,NA,NA
India,Telangana,Hyderabad,"New Malakpet, Hyderabad - TSPCB",20-05-2024 23:00:00,17.37206,78.50864,SO2,NA,NA,NA
India,Telangana,Hyderabad,"Ramachandrapuram, Hyderabad - TSPCB",20-05-2024 23:00:00,17.528544,78.286195,PM10,NA,NA,NA
India,Telangana,Hyderabad,"Sanathnagar, Hyderabad - TSPCB",20-05-2024 23:00:00,17.4559458,78.4332152,CO,30,62,51
India,Telangana,Hyderabad,"Somajiguda, Hyderabad - TSPCB",20-05-2024 23:00:00,17.417094,78.457437,PM10,NA,NA,NA
India,Telangana,Hyderabad,"Somajiguda, Hyderabad - TSPCB",20-05-2024 23:00:00,17.417094,78.457437,NH3,NA,NA,NA
India,Telangana,Hyderabad,"Zoo Park, Hyderabad - TSPCB",20-05-2024 23:00:00,17.349694,78.451437,PM2.5,NA,NA,NA
India,Telangana,Hyderabad,"Zoo Park, Hyderabad - TSPCB",20-05-2024 23:00:00,17.349694,78.451437,CO,21,68,34
India,Telangana,Hyderabad,"Zoo Park, Hyderabad - TSPCB",20-05-2024 23:00:00,17.349694,78.451437,OZONE,8,36,20
India,Tripura,Agartala,"Bardowali, Agartala - Tripura SPCB",20-05-2024 23:00:00,23.8175497,91.2726974,CO,5,58,37
India,Uttar_Pradesh,Agra,"Manoharpur, Agra - UPPCB",20-05-2024 23:00:00,27.23711,78.01936,NO2,34,35,35
India,Uttar_Pradesh,Agra,"Manoharpur, Agra - UPPCB",20-05-2024 23:00:00,27.23711,78.01936,NH3,2,4,2
India,Uttar_Pradesh,Agra,"Manoharpur, Agra - UPPCB",20-05-2024 23:00:00,27.23711,78.01936,OZONE,3,45,24
India,Uttar_Pradesh,Agra,"Rohta, Agra - UPPCB",20-05-2024 23:00:00,27.106972,78.000111,PM2.5,20,71,35
India,Uttar_Pradesh,Agra,"Rohta, Agra - UPPCB",20-05-2024 23:00:00,27.106972,78.000111,NO2,11,11,11
India,Uttar_Pradesh,Agra,"Sanjay Palace, Agra - UPPCB",20-05-2024 23:00:00,27.19865833,78.00598056,PM2.5,NA,NA,NA
India,Uttar_Pradesh,Agra,"Sanjay Palace, Agra - UPPCB",20-05-2024 23:00:00,27.19865833,78.00598056,SO2,NA,NA,NA
India,Uttar_Pradesh,Agra,"Sector-3B Avas Vikas Colony, Agra - UPPCB",20-05-2024 23:00:00,27.19412,77.96237,CO,10,27,15
India,Uttar_Pradesh,Agra,"Shahjahan Garden, Agra - UPPCB",20-05-2024 23:00:00,27.169338,78.03582,PM10,46,174,108
India,Uttar_Pradesh,Agra,"Shahjahan Garden, Agra - UPPCB",20-05-2024 23:00:00,27.169338,78.03582,NO2,17,18,18
India,Uttar_Pradesh,Agra,"Shahjahan Garden, Agra - UPPCB",20-05-2024 23:00:00,27.169338,78.03582,OZONE,1,13,5
India,Uttar_Pradesh,Agra,"Shastripuram, Agra - UPPCB",20-05-2024 23:00:00,27.19862,77.92066,PM10,28,151,103
India,Uttar_Pradesh,Agra,"Shastripuram, Agra - UPPCB",20-05-2024 23:00:00,27.19862,77.92066,NH3,3,6,5
India,Uttar_Pradesh,Baghpat,"Sardar Patel Inter College, Baghpat - UPPCB",20-05-2024 23:00:00,28.964949,77.278761,PM2.5,56,170,80
India,Uttar_Pradesh,Baghpat,"Sardar Patel Inter College, Baghpat - UPPCB",20-05-2024 23:00:00,28.964949,77.278761,OZONE,12,97,68
India,Uttar_Pradesh,Bareilly,"Civil Lines, Bareilly - UPPCB",20-05-2024 23:00:00,28.359581,79.414455,PM2.5,8,26,19
India,Uttar_Pradesh,Bareilly,"Civil Lines, Bareilly - UPPCB",20-05-2024 23:00:00,28.359581,79.414455,NO2,2,3,2
India,Uttar_Pradesh,Bareilly,"Rajendra Nagar, Bareilly - UPPCB",20-05-2024 23:00:00,28.38910936,79.42963708,SO2,47,52,48
India,Uttar_Pradesh,Bulandshahr,"Yamunapuram, Bulandshahr - UPPCB",20-05-2024 23:00:00,28.406963,77.849831,SO2,5,104,33
India,Uttar_Pradesh,Bulandshahr,"Yamunapuram, Bulandshahr - UPPCB",20-05-2024 23:00:00,28.406963,77.849831,OZONE,11,165,74
India,Uttar_Pradesh,Firozabad,"Vibhab Nagar, Firozabad - UPPCB",20-05-2024 23:00:00,27.1594,78.3953,OZONE,1,118,55
India,Uttar_Pradesh,Ghaziabad,"Indirapuram, Ghaziabad - UPPCB",20-05-2024 23:00:00,28.646233,77.358075,PM2.5,53,234,136
India,Uttar_Pradesh,Ghaziabad,"Indirapuram, Ghaziabad - UPPCB",20-05-2024 23:00:00,28.646233,77.358075,NH3,9,14,11
India,Uttar_Pradesh,Ghaziabad,"Indirapuram, Ghaziabad - UPPCB",20-05-2024 23:00:00,28.646233,77.358075,OZONE,2,35,14
India,Uttar_Pradesh,Ghaziabad,"Loni, Ghaziabad - UPPCB",20-05-2024 23:00:00,28.757294,77.278792,PM2.5,45,313,120
India,Uttar_Pradesh,Ghaziabad,"Sanjay Nagar, Ghaziabad - UPPCB",20-05-2024 23:00:00,28.685382,77.453839,NO2,19,141,66
India,Uttar_Pradesh,Ghaziabad,"Sanjay Nagar, Ghaziabad - UPPCB",20-05-2024 23:00:00,28.685382,77.453839,NH3,9,19,12
India,Uttar_Pradesh,Ghaziabad,"Sanjay Nagar, Ghaziabad - UPPCB",20-05-2024 23:00:00,28.685382,77.453839,CO,2,92,42
India,Uttar_Pradesh,Gorakhpur,"Madan Mohan Malaviya University of Technology, Gorakhpur - UPPCB",20-05-2024 23:00:00,26.730136,83.433859,NO2,11,11,11
India,Uttar_Pradesh,Gorakhpur,"Madan Mohan Malaviya University of Technology, Gorakhpur - UPPCB",20-05-2024 23:00:00,26.730136,83.433859,CO,4,14,6
India,Uttar_Pradesh,Greater Noida,"Knowledge Park - III, Greater Noida - UPPCB",20-05-2024 23:00:00,28.47272,77.482000,OZONE,4,278,84
India,Uttar_Pradesh,Hapur,"Anand Vihar, Hapur - UPPCB",20-05-2024 23:00:00,28.725645,77.749675,PM2.5,31,91,67
India,Uttar_Pradesh,Jhansi,"Shivaji Nagar, Jhansi - UPPCB",20-05-2024 23:00:00,25.4547,78.6039,NH3,4,6,6
India,Uttar_Pradesh,Kanpur,"NSI Kalyanpur, Kanpur - UPPCB",20-05-2024 23:00:00,26.509954,80.249612,PM2.5,13,308,136
India,Uttar_Pradesh,Kanpur,"Nehru Nagar, Kanpur - UPPCB",20-05-2024 23:00:00,26.4703136,80.3229863,NO2,2,36,18
India,Uttar_Pradesh,Kanpur,"Nehru Nagar, Kanpur - UPPCB",20-05-2024 23:00:00,26.4703136,80.3229863,CO,4,60,23
India,Uttar_Pradesh,Lucknow,"B R Ambedkar University, Lucknow - UPPCB",20-05-2024 23:00:00,26.766433,80.927299,PM10,101,372,136
India,Uttar_Pradesh,Lucknow,"B R Ambedkar University, Lucknow - UPPCB",20-05-2024 23:00:00,26.766433,80.927299,SO2,35,44,41
India,Uttar_Pradesh,Lucknow,"Gomti Nagar, Lucknow - UPPCB",20-05-2024 23:00:00,26.868120,81.005119,PM2.5,68,420,119
India,Uttar_Pradesh,Lucknow,"Gomti Nagar, Lucknow - UPPCB",20-05-2024 23:00:00,26.868120,81.005119,PM10,79,418,122
India,Uttar_Pradesh,Lucknow,"Kendriya Vidyalaya, Lucknow - CPCB",20-05-2024 23:00:00,26.906111,80.948222,NO2,4,10,7
India,Uttar_Pradesh,Lucknow,"Kukrail Picnic Spot-1, Lucknow - UPPCB",20-05-2024 23:00:00,26.90723,80.98579,NH3,2,2,2
India,Uttar_Pradesh,Lucknow,"Lalbagh, Lucknow - CPCB",20-05-2024 23:00:00,26.8458805,80.9365541,CO,59,137,67
India,Uttar_Pradesh,Lucknow,"Talkatora District Industries Center, Lucknow - CPCB",20-05-2024 23:00:00,26.83399722,80.8917361,NO2,25,66,38
India,Uttar_Pradesh,Meerut,"Jai Bhim Nagar, Meerut - UPPCB",20-05-2024 23:00:00,28.9535882,77.7622941,NH3,7,22,11
India,Uttar_Pradesh,Meerut,"Pallavpuram Phase 2, Meerut - UPPCB",20-05-2024 23:00:00,29.063510,77.709723,SO2,23,45,34
India,Uttar_Pradesh,Moradabad,"Eco Herbal Park, Moradabad - UPPCB",20-05-2024 23:00:00,28.840739,78.697531,SO2,9,101,26
India,Uttar_Pradesh,Moradabad,"Eco Herbal Park, Moradabad - UPPCB",20-05-2024 23:00:00,28.840739,78.697531,CO,14,124,63
India,Uttar_Pradesh,Moradabad,"Employment Office, Moradabad - UPPCB",20-05-2024 23:00:00,28.88528,78.73880,PM10,61,179,118
India,Uttar_Pradesh,Moradabad,"Jigar Colony, Moradabad - UPPCB",20-05-2024 23:00:00,28.856664,78.772638,PM2.5,30,75,56
India,Uttar_Pradesh,Moradabad,"Jigar Colony, Moradabad - UPPCB",20-05-2024 23:00:00,28.856664,78.772638,NH3,5,14,6
India,Uttar_Pradesh,Moradabad,"Kashiram Nagar, Moradabad - UPPCB",20-05-2024 23:00:00,28.849399,78.742362,PM10,61,187,118
India,Uttar_Pradesh,Moradabad,"Transport Nagar, Moradabad - UPPCB",20-05-2024 23:00:00,28.802625,78.753728,PM10,55,148,96
India,Uttar_Pradesh,Moradabad,"Transport Nagar, Moradabad - UPPCB",20-05-2024 23:00:00,28.802625,78.753728,NO2,4,4,4
India,Uttar_Pradesh,Moradabad,"Transport Nagar, Moradabad - UPPCB",20-05-2024 23:00:00,28.802625,78.753728,NH3,5,5,5
India,Uttar_Pradesh,Moradabad,"Transport Nagar, Moradabad - UPPCB",20-05-2024 23:00:00,28.802625,78.753728,SO2,48,56,53
India,Uttar_Pradesh,Moradabad,"Transport Nagar, Moradabad - UPPCB",20-05-2024 23:00:00,28.802625,78.753728,CO,40,42,41
India,Uttar_Pradesh,Muzaffarnagar,"New Mandi, Muzaffarnagar - UPPCB",20-05-2024 23:00:00,29.4723508,77.7194031,PM2.5,86,336,197
India,Uttar_Pradesh,Muzaffarnagar,"New Mandi, Muzaffarnagar - UPPCB",20-05-2024 23:00:00,29.4723508,77.7194031,NO2,16,65,31
India,Uttar_Pradesh,Muzaffarnagar,"New Mandi, Muzaffarnagar - UPPCB",20-05-2024 23:00:00,29.4723508,77.7194031,NH3,10,13,12
India,Uttar_Pradesh,Noida,"Sector - 125, Noida - UPPCB",20-05-2024 23:00:00,28.5447608,77.3231257,PM2.5,47,417,233
India,Uttar_Pradesh,Noida,"Sector - 125, Noida - UPPCB",20-05-2024 23:00:00,28.5447608,77.3231257,CO,6,116,63
India,Uttar_Pradesh,Noida,"Sector - 62, Noida - IMD",20-05-2024 23:00:00,28.6245479,77.3577104,PM10,NA,NA,NA
India,Uttar_Pradesh,Noida,"Sector-116, Noida - UPPCB",20-05-2024 23:00:00,28.569230,77.393848,NH3,7,14,10
India,Uttar_Pradesh,Noida,"Sector-116, Noida - UPPCB",20-05-2024 23:00:00,28.569230,77.393848,OZONE,3,197,72
India,Uttar_Pradesh,Prayagraj,"Jhunsi, Prayagraj - UPPCB",20-05-2024 23:00:00,25.425602,81.917152,SO2,30,33,31
India,Uttar_Pradesh,Prayagraj,"Nagar Nigam, Prayagraj - UPPCB",20-05-2024 23:00:00,25.44919916 ,81.82735986 ,NO2,NA,NA,NA
India,Uttar_Pradesh,Varanasi,"Ardhali Bazar, Varanasi - UPPCB",20-05-2024 23:00:00,25.3505986,82.9083074,PM10,27,63,41
India,Uttar_Pradesh,Varanasi,"Ardhali Bazar, Varanasi - UPPCB",20-05-2024 23:00:00,25.3505986,82.9083074,NO2,15,26,20
India,Uttar_Pradesh,Varanasi,"Bhelupur, Varanasi - UPPCB",20-05-2024 23:00:00,25.301778,82.996789,PM10,NA,NA,NA
India,Uttar_Pradesh,Varanasi,"IESD Banaras Hindu University, Varanasi - UPPCB",20-05-2024 23:00:00,25.262326,82.995408,PM10,20,82,36
India,Uttar_Pradesh,Varanasi,"Maldahiya, Varanasi - UPPCB",20-05-2024 23:00:00,25.32393,82.99687,OZONE,4,22,17
India,Uttar_Pradesh,Vrindavan,"Omex Eternity, Vrindavan - UPPCB",20-05-2024 23:00:00,27.5714090,77.6557570,CO,22,60,31
India,Uttarakhand,Dehradun,"Doon University, Dehradun - UKPCB",20-05-2024 23:00:00,30.269444,78.044167,NO2,1,7,3
India,West_Bengal,Asansol,"Asansol Court Area, Asansol - WBPCB",20-05-2024 23:00:00,23.685297,86.945968,NH3,10,13,11
India,West_Bengal,Asansol,"Asansol Court Area, Asansol - WBPCB",20-05-2024 23:00:00,23.685297,86.945968,SO2,12,17,13
India,West_Bengal,Asansol,"Asansol Court Area, Asansol - WBPCB",20-05-2024 23:00:00,23.685297,86.945968,CO,12,44,20
India,West_Bengal,Barrackpore,"SVSPA Campus, Barrackpore - WBPCB",20-05-2024 23:00:00,22.7605581,88.3617589,PM2.5,2,43,19
India,West_Bengal,Barrackpore,"SVSPA Campus, Barrackpore - WBPCB",20-05-2024 23:00:00,22.7605581,88.3617589,SO2,7,9,8
India,West_Bengal,Barrackpore,"SVSPA Campus, Barrackpore - WBPCB",20-05-2024 23:00:00,22.7605581,88.3617589,CO,2,12,10
India,West_Bengal,Barrackpore,"SVSPA Campus, Barrackpore - WBPCB",20-05-2024 23:00:00,22.7605581,88.3617589,OZONE,1,40,19
India,West_Bengal,Durgapur,"PCBL Residential Complex, Durgapur - WBPCB",20-05-2024 23:00:00,23.5087640,87.3544400,SO2,6,8,7
India,West_Bengal,Durgapur,"Sidhu Kanhu Indoor Stadium, Durgapur - WBPCB",20-05-2024 23:00:00,23.5404352,87.2892225,PM2.5,43,104,63
India,West_Bengal,Durgapur,"Sidhu Kanhu Indoor Stadium, Durgapur - WBPCB",20-05-2024 23:00:00,23.5404352,87.2892225,SO2,17,39,26
India,West_Bengal,Haldia,"Priyambada Housing Estate, Haldia - WBPCB",20-05-2024 23:00:00,22.06047,88.109737,PM2.5,9,29,16
India,West_Bengal,Howrah,"Belur Math, Howrah - WBPCB",20-05-2024 23:00:00,22.629801,88.352017,PM2.5,6,29,14
India,West_Bengal,Howrah,"Belur Math, Howrah - WBPCB",20-05-2024 23:00:00,22.629801,88.352017,OZONE,13,42,23
India,West_Bengal,Howrah,"Ghusuri, Howrah - WBPCB",20-05-2024 23:00:00,22.611968,88.347422,CO,10,24,18
India,West_Bengal,Howrah,"Ghusuri, Howrah - WBPCB",20-05-2024 23:00:00,22.611968,88.347422,OZONE,12,23,15
India,West_Bengal,Howrah,"Padmapukur, Howrah - WBPCB",20-05-2024 23:00:00,22.5687319,88.2797276,PM2.5,24,72,36
India,West_Bengal,Howrah,"Padmapukur, Howrah - WBPCB",20-05-2024 23:00:00,22.5687319,88.2797276,OZONE,62,77,69
India,West_Bengal,Kolkata,"Ballygunge, Kolkata - WBPCB",20-05-2024 23:00:00,22.5367507,88.3638022,NH3,3,7,5
India,West_Bengal,Kolkata,"Bidhannagar, Kolkata - WBPCB",20-05-2024 23:00:00,22.58157048,88.41002457,PM2.5,5,22,12
India,West_Bengal,Kolkata,"Bidhannagar, Kolkata - WBPCB",20-05-2024 23:00:00,22.58157048,88.41002457,SO2,5,11,8
India,West_Bengal,Kolkata,"Fort William, Kolkata - WBPCB",20-05-2024 23:00:00,22.556640,88.342674,PM10,24,49,34
India,West_Bengal,Kolkata,"Fort William, Kolkata - WBPCB",20-05-2024 23:00:00,22.556640,88.342674,SO2,7,8,7
India,West_Bengal,Kolkata,"Jadavpur, Kolkata - WBPCB",20-05-2024 23:00:00,22.49929,88.36917,NH3,27,35,33
India,West_Bengal,Kolkata,"Rabindra Bharati University, Kolkata - WBPCB",20-05-2024 23:00:00,22.627847,88.380669,PM2.5,6,21,12
India,West_Bengal,Kolkata,"Rabindra Bharati University, Kolkata - WBPCB",20-05-2024 23:00:00,22.627847,88.380669,NO2,5,8,6
India,West_Bengal,Kolkata,"Rabindra Bharati University, Kolkata - WBPCB",20-05-2024 23:00:00,22.627847,88.380669,OZONE,7,18,13
India,West_Bengal,Kolkata,"Rabindra Sarobar, Kolkata - WBPCB",20-05-2024 23:00:00,22.51106,88.35142,PM2.5,9,27,15
India,West_Bengal,Kolkata,"Victoria, Kolkata - WBPCB",20-05-2024 23:00:00,22.5448082,88.3403691,NH3,6,6,6
India,West_Bengal,Siliguri,"Ward-32 Bapupara, Siliguri - WBPCB",20-05-2024 23:00:00,26.6879226,88.4152495,PM10,41,84,56
India,West_Bengal,Siliguri,"Ward-32 Bapupara, Siliguri - WBPCB",20-05-2024 23:00:00,26.6879226,88.4152495,CO,12,62,31
India,Andhra_Pradesh,Amaravati,"Secretariat, Amaravati - APPCB",20-05-2024 23:00:00,16.5150833,80.5181667,PM2.5,2,37,16
India,Andhra_Pradesh,Amaravati,"Secretariat, Amaravati - APPCB",20-05-2024 23:00:00,16.5150833,80.5181667,NH3,3,4,4
India,Andhra_Pradesh,Amaravati,"Secretariat, Amaravati - APPCB",20-05-2024 23:00:00,16.5150833,80.5181667,SO2,5,14,10
India,Andhra_Pradesh,Amaravati,"Secretariat, Amaravati - APPCB",20-05-2024 23:00:00,16.5150833,80.5181667,CO,7,111,41
India,Andhra_Pradesh,Anantapur,"Gulzarpet, Anantapur - APPCB",20-05-2024 23:00:00,14.675886,77.593027,PM10,34,59,42
India,Andhra_Pradesh,Anantapur,"Gulzarpet, Anantapur - APPCB",20-05-2024 23:00:00,14.675886,77.593027,NO2,12,13,12
India,Andhra_Pradesh,Kadapa,"Yerramukkapalli, Kadapa - APPCB",20-05-2024 23:00:00,14.465052,78.824187,NO2,NA,NA,NA
India,Andhra_Pradesh,Kadapa,"Yerramukkapalli, Kadapa - APPCB",20-05-2024 23:00:00,14.465052,78.824187,NH3,NA,NA,NA
India,Andhra_Pradesh,Rajamahendravaram,"Anand Kala Kshetram, Rajamahendravaram - APPCB",20-05-2024 23:00:00,16.9872867,81.7363176,PM10,7,57,24
India,Andhra_Pradesh,Rajamahendravaram,"Anand Kala Kshetram, Rajamahendravaram - APPCB",20-05-2024 23:00:00,16.9872867,81.7363176,SO2,11,13,12
India,Andhra_Pradesh,Rajamahendravaram,"Anand Kala Kshetram, Rajamahendravaram - APPCB",20-05-2024 23:00:00,16.9872867,81.7363176,CO,26,69,46
India,Andhra_Pradesh,Tirupati,"Tirumala, Tirupati - APPCB",20-05-2024 23:00:00,13.67,79.35,SO2,1,13,5
India,Andhra_Pradesh,Tirupati,"Tirumala, Tirupati - APPCB",20-05-2024 23:00:00,13.67,79.35,CO,34,52,49
India,Andhra_Pradesh,Tirupati,"Vaikuntapuram, Tirupati - APPCB",20-05-2024 23:00:00,13.615387,79.409230,NO2,NA,NA,NA
India,Andhra_Pradesh,Vijayawada,"Rajiv Gandhi Park, Vijayawada - APPCB",20-05-2024 23:00:00,16.509717,80.612222,PM10,34,77,51
India,Andhra_Pradesh,Vijayawada,"Rajiv Gandhi Park, Vijayawada - APPCB",20-05-2024 23:00:00,16.509717,80.612222,CO,36,44,41
India,Andhra_Pradesh,Vijayawada,"Rajiv Nagar, Vijayawada - APPCB",20-05-2024 23:00:00,16.554731,80.649110,SO2,12,17,14
India,Andhra_Pradesh,Vijayawada,"Rajiv Nagar, Vijayawada - APPCB",20-05-2024 23:00:00,16.554731,80.649110,CO,36,36,36
India,Andhra_Pradesh,Visakhapatnam,"GVM Corporation, Visakhapatnam - APPCB",20-05-2024 23:00:00,17.72,83.3,NO2,15,40,31
India,Andhra_Pradesh,Visakhapatnam,"GVM Corporation, Visakhapatnam - APPCB",20-05-2024 23:00:00,17.72,83.3,SO2,7,16,12
India,Andhra_Pradesh,Visakhapatnam,"GVM Corporation, Visakhapatnam - APPCB",20-05-2024 23:00:00,17.72,83.3,OZONE,8,180,23
India,Assam,Byrnihat,"Central Academy for SFS, Byrnihat - PCBA",20-05-2024 23:00:00,26.071318,91.87488,NH3,16,22,18
India,Assam,Guwahati,"IITG, Guwahati - PCBA",20-05-2024 23:00:00,26.2028636,91.70046436,CO,8,14,11
India,Assam,Guwahati,"Pan Bazaar, Guwahati - PCBA",20-05-2024 23:00:00,26.187500,91.744194,NH3,NA,NA,NA
India,Assam,Guwahati,"Pan Bazaar, Guwahati - PCBA",20-05-2024 23:00:00,26.187500,91.744194,SO2,NA,NA,NA
India,Assam,Guwahati,"Pan Bazaar, Guwahati - PCBA",20-05-2024 23:00:00,26.187500,91.744194,CO,NA,NA,NA
India,Assam,Guwahati,"Railway Colony, Guwahati - PCBA",20-05-2024 23:00:00,26.181742,91.78063,OZONE,1,43,18
India,Assam,Nalbari,"Bata Chowk, Nalbari - PCBA",20-05-2024 23:00:00,26.446912,91.439057,NH3,1,3,2
India,Assam,Silchar,"Tarapur, Silchar - PCBA",20-05-2024 23:00:00,24.82827,92.79525,PM2.5,26,47,36
India,Assam,Silchar,"Tarapur, Silchar - PCBA",20-05-2024 23:00:00,24.82827,92.79525,SO2,1,13,7
India,Assam,Sivasagar,"Girls College, Sivasagar - PCBA",20-05-2024 23:00:00,26.987634,94.636574,PM2.5,25,73,43
India,Assam,Sivasagar,"Girls College, Sivasagar - PCBA",20-05-2024 23:00:00,26.987634,94.636574,CO,6,28,9
India,Assam,Sivasagar,"Girls College, Sivasagar - PCBA",20-05-2024 23:00:00,26.987634,94.636574,OZONE,1,20,9
India,Bihar,Arrah,"New DM Office, Arrah - BSPCB",20-05-2024 23:00:00,25.5626095,84.663264,NO2,9,13,11
India,Bihar,Aurangabad,"Gurdeo Nagar, Aurangabad - BSPCB",20-05-2024 23:00:00,24.75746,84.366208,SO2,10,23,16
India,Bihar,Aurangabad,"Gurdeo Nagar, Aurangabad - BSPCB",20-05-2024 23:00:00,24.75746,84.366208,CO,9,34,28
India,Bihar,Aurangabad,"Gurdeo Nagar, Aurangabad - BSPCB",20-05-2024 23:00:00,24.75746,84.366208,OZONE,49,130,94
India,Bihar,Bettiah,"Kamalnath Nagar, Bettiah - BSPCB",20-05-2024 23:00:00,26.80365,84.51954,NH3,6,51,22
India,Bihar,Bhagalpur,"DM Office_Kachari Chowk, Bhagalpur - BSPCB",20-05-2024 23:00:00,25.251013,86.989001,PM2.5,27,123,56
India,Bihar,Bhagalpur,"DM Office_Kachari Chowk, Bhagalpur - BSPCB",20-05-2024 23:00:00,25.251013,86.989001,NH3,3,9,6
India,Bihar,Bhagalpur,"Mayaganj, Bhagalpur - BSPCB",20-05-2024 23:00:00,25.265194,87.012947,NO2,3,11,7
India,Bihar,Bhagalpur,"Mayaganj, Bhagalpur - BSPCB",20-05-2024 23:00:00,25.265194,87.012947,SO2,11,12,12
India,Bihar,Buxar,"Charitra Van, Buxar - BSPCB (Formerly known as Central Jail)",20-05-2024 23:00:00,25.567520,83.966379,PM10,NA,NA,NA
India,Bihar,Buxar,"Charitra Van, Buxar - BSPCB (Formerly known as Central Jail)",20-05-2024 23:00:00,25.567520,83.966379,NO2,1,1,1
India,Bihar,Gaya,"Kareemganj, Gaya - BSPCB",20-05-2024 23:00:00,24.792403,84.992416,PM2.5,3,62,26
India,Bihar,Gaya,"SFTI Kusdihra, Gaya - BSPCB",20-05-2024 23:00:00,24.762518,84.982348,SO2,8,10,9
India,Bihar,Hajipur,"Industrial Area, Hajipur - BSPCB",20-05-2024 23:00:00,25.697189,85.245900,OZONE,3,28,11
India,Bihar,Katihar,"Mirchaibari, Katihar - BSPCB",20-05-2024 23:00:00,25.560083,87.553265,SO2,8,11,10
India,Bihar,Kishanganj,"SDM Office_Khagra, Kishanganj - BSPCB",20-05-2024 23:00:00,26.0881305,87.93840336,PM10,NA,NA,NA
India,Bihar,Manguraha,"Forest Rest House, Manguraha - BSPCB",20-05-2024 23:00:00,27.308328,84.531742,PM10,NA,NA,NA
India,Bihar,Manguraha,"Forest Rest House, Manguraha - BSPCB",20-05-2024 23:00:00,27.308328,84.531742,NO2,NA,NA,NA
India,Bihar,Motihari,"Gandak Colony, Motihari - BSPCB",20-05-2024 23:00:00,26.63086,84.90051,SO2,10,13,11
India,Bihar,Munger,"Town Hall, Munger - BSPCB",20-05-2024 23:00:00,25.376776,86.471523,PM10,NA,NA,NA
India,Bihar,Muzaffarpur,"Buddha Colony, Muzaffarpur - BSPCB",20-05-2024 23:00:00,26.11442,85.39813,NO2,13,26,17
India,Bihar,Muzaffarpur,"Buddha Colony, Muzaffarpur - BSPCB",20-05-2024 23:00:00,26.11442,85.39813,OZONE,29,69,41
India,Bihar,Muzaffarpur,"MIT-Daudpur Kothi, Muzaffarpur - BSPCB",20-05-2024 23:00:00,26.1403345,85.3650192,PM2.5,40,110,70
India,Bihar,Muzaffarpur,"MIT-Daudpur Kothi, Muzaffarpur - BSPCB",20-05-2024 23:00:00,26.1403345,85.3650192,SO2,4,7,7
India,Bihar,Muzaffarpur,"MIT-Daudpur Kothi, Muzaffarpur - BSPCB",20-05-2024 23:00:00,26.1403345,85.3650192,OZONE,7,42,14
India,Bihar,Muzaffarpur,"Muzaffarpur Collectorate, Muzaffarpur - BSPCB",20-05-2024 23:00:00,26.1209,85.3647,OZONE,51,106,66
India,Bihar,Patna,"Govt. High School Shikarpur, Patna - BSPCB",20-05-2024 23:00:00,25.592539,85.227158,SO2,9,12,10
India,Bihar,Patna,"Govt. High School Shikarpur, Patna - BSPCB",20-05-2024 23:00:00,25.592539,85.227158,CO,34,45,40
India,Bihar,Patna,"IGSC Planetarium Complex, Patna - BSPCB",20-05-2024 23:00:00,25.610369,85.132568,PM2.5,62,192,102
India,Bihar,Patna,"IGSC Planetarium Complex, Patna - BSPCB",20-05-2024 23:00:00,25.610369,85.132568,NO2,9,10,10
India,Bihar,Patna,"Muradpur, Patna - BSPCB",20-05-2024 23:00:00,25.619651,85.147382,PM2.5,145,356,255
India,Bihar,Patna,"Muradpur, Patna - BSPCB",20-05-2024 23:00:00,25.619651,85.147382,SO2,5,10,7
India,Bihar,Patna,"Rajbansi Nagar, Patna - BSPCB",20-05-2024 23:00:00,25.599486,85.113666,PM2.5,85,223,156
India,Bihar,Patna,"Samanpura, Patna - BSPCB",20-05-2024 23:00:00,25.596727,85.085624,PM10,106,456,193
India,Bihar,Purnia,"Mariam Nagar, Purnia - BSPCB",20-05-2024 23:00:00,25.366336,87.117468,NH3,4,12,7
India,Bihar,Purnia,"Mariam Nagar, Purnia - BSPCB",20-05-2024 23:00:00,25.366336,87.117468,SO2,3,19,11
India,Bihar,Rajgir,"Dangi Tola, Rajgir - BSPCB",20-05-2024 23:00:00,25.03280,85.41948,SO2,3,5,4
India,Bihar,Saharsa,"Police Line, Saharsa - BSPCB",20-05-2024 23:00:00,25.892357,86.590325,SO2,16,17,16
India,Bihar,Samastipur,"DM Office_Kasipur, Samastipur - BSPCB",20-05-2024 23:00:00,25.859655,85.77944,PM2.5,NA,NA,NA
India,Bihar,Samastipur,"DM Office_Kasipur, Samastipur - BSPCB",20-05-2024 23:00:00,25.859655,85.77944,NO2,NA,NA,NA
India,Bihar,Sasaram,"Dada Peer, Sasaram - BSPCB",20-05-2024 23:00:00,24.952822,84.002396,PM10,2,25,15
India,Bihar,Sasaram,"Dada Peer, Sasaram - BSPCB",20-05-2024 23:00:00,24.952822,84.002396,NO2,23,279,70
India,Bihar,Siwan,"Chitragupta Nagar, Siwan - BSPCB",20-05-2024 23:00:00,26.2271665,84.3570427,PM2.5,NA,NA,NA
India,Chandigarh,Chandigarh,"Sector 22, Chandigarh - CPCC",20-05-2024 23:00:00,30.735567,76.775714,NO2,13,126,52
India,Chandigarh,Chandigarh,"Sector-53, Chandigarh - CPCC",20-05-2024 23:00:00,30.719859,76.738637,OZONE,8,83,54
India,Chhattisgarh,Bhilai,"Hathkhoj, Bhilai - CECB",20-05-2024 23:00:00,21.224231,81.408350,PM2.5,2,84,28
India,Chhattisgarh,Bhilai,"Hathkhoj, Bhilai - CECB",20-05-2024 23:00:00,21.224231,81.408350,PM10,34,156,75
India,Chhattisgarh,Bhilai,"Hathkhoj, Bhilai - CECB",20-05-2024 23:00:00,21.224231,81.408350,NH3,8,9,8
India,Chhattisgarh,Bilaspur,"Mangala, Bilaspur - NTPC",20-05-2024 23:00:00,22.08815,82.13737,PM10,21,119,41
India,Chhattisgarh,Korba,"Rampur, Korba - CECB",20-05-2024 23:00:00,22.368195,82.746431,NO2,26,41,37
India,Chhattisgarh,Korba,"Urja Nagar, Korba - CECB",20-05-2024 23:00:00,22.348441,82.549611,PM2.5,NA,NA,NA
India,Chhattisgarh,Kunjemura,"OP Jindal School, Kunjemura - CECB",20-05-2024 23:00:00,22.126650,83.483212,PM10,31,164,83
India,Chhattisgarh,Kunjemura,"OP Jindal School, Kunjemura - CECB",20-05-2024 23:00:00,22.126650,83.483212,NH3,2,4,3
India,Chhattisgarh,Raipur,"AIIMS, Raipur - CECB",20-05-2024 23:00:00,21.258815,81.578979,PM2.5,NA,NA,NA
India,Chhattisgarh,Raipur,"AIIMS, Raipur - CECB",20-05-2024 23:00:00,21.258815,81.578979,NO2,NA,NA,NA
India,Chhattisgarh,Raipur,"Bhatagaon New ISBT, Raipur - CECB",20-05-2024 23:00:00,21.219665,81.630094,SO2,1,3,2
India,Chhattisgarh,Raipur,"Bhatagaon New ISBT, Raipur - CECB",20-05-2024 23:00:00,21.219665,81.630094,CO,14,60,33
India,Chhattisgarh,Raipur,"Bhatagaon New ISBT, Raipur - CECB",20-05-2024 23:00:00,21.219665,81.630094,OZONE,3,6,5
India,Chhattisgarh,Raipur,"Krishak Nagar, Raipur - CECB",20-05-2024 23:00:00,21.237755,81.705301,SO2,11,30,17
India,Chhattisgarh,Raipur,"Siltara Phase-II, Raipur - CECB",20-05-2024 23:00:00,21.371751,81.664929,PM10,36,170,84
India,Chhattisgarh,Tumidih,"OP Jindal Industrial Park, Tumidih - CECB",20-05-2024 23:00:00,22.06631475,83.33820077,PM2.5,NA,NA,NA
India,Chhattisgarh,Tumidih,"OP Jindal Industrial Park, Tumidih - CECB",20-05-2024 23:00:00,22.06631475,83.33820077,PM10,NA,NA,NA
India,Delhi,Delhi,"Ashok Vihar, Delhi - DPCC",20-05-2024 23:00:00,28.695381,77.181665,SO2,18,53,33
India,Delhi,Delhi,"Aya Nagar, Delhi - IMD",20-05-2024 23:00:00,28.4706914,77.1099364,PM2.5,20,385,117
India,Delhi,Delhi,"Aya Nagar, Delhi - IMD",20-05-2024 23:00:00,28.4706914,77.1099364,PM10,80,323,168
India,Delhi,Delhi,"Bawana, Delhi - DPCC",20-05-2024 23:00:00,28.776200,77.051074,NO2,4,44,20
India,Delhi,Delhi,"Bawana, Delhi - DPCC",20-05-2024 23:00:00,28.776200,77.051074,CO,34,84,46
India,Delhi,Delhi,"Bawana, Delhi - DPCC",20-05-2024 23:00:00,28.776200,77.051074,OZONE,13,144,102
India,Delhi,Delhi,"Burari Crossing, Delhi - IMD",20-05-2024 23:00:00,28.7256504,77.2011573,OZONE,6,88,66
India,Delhi,Delhi,"DTU, Delhi - CPCB",20-05-2024 23:00:00,28.7500499,77.1112615,CO,6,68,20
India,Delhi,Delhi,"Dwarka-Sector 8, Delhi - DPCC ",20-05-2024 23:00:00,28.5710274,77.0719006,PM2.5,47,342,140
India,Delhi,Delhi,"IGI Airport (T3), Delhi - IMD",20-05-2024 23:00:00,28.5627763,77.1180053,NO2,20,63,37
India,Delhi,Delhi,"IHBAS, Dilshad Garden, Delhi - CPCB",20-05-2024 23:00:00,28.6811736,77.3025234,PM10,130,251,168
India,Delhi,Delhi,"ITO, Delhi - CPCB",20-05-2024 23:00:00,28.628624,77.241060,NO2,7,112,53
India,Delhi,Delhi,"ITO, Delhi - CPCB",20-05-2024 23:00:00,28.628624,77.241060,SO2,1,40,15
India,Delhi,Delhi,"Jahangirpuri, Delhi - DPCC",20-05-2024 23:00:00,28.732820,77.170633,PM10,164,491,298
India,Delhi,Delhi,"Jahangirpuri, Delhi - DPCC",20-05-2024 23:00:00,28.732820,77.170633,NH3,3,12,6
India,Delhi,Delhi,"Jawaharlal Nehru Stadium, Delhi - DPCC",20-05-2024 23:00:00,28.580280,77.233829,NH3,6,9,8
India,Delhi,Delhi,"Lodhi Road, Delhi - IMD",20-05-2024 23:00:00,28.5918245,77.2273074,NO2,8,37,20
India,Delhi,Delhi,"Lodhi Road, Delhi - IMD",20-05-2024 23:00:00,28.5918245,77.2273074,OZONE,3,59,32
India,Delhi,Delhi,"Major Dhyan Chand National Stadium, Delhi - DPCC",20-05-2024 23:00:00,28.611281,77.237738,CO,28,159,69
India,Delhi,Delhi,"Mandir Marg, Delhi - DPCC",20-05-2024 23:00:00,28.636429,77.201067,NH3,NA,NA,NA
India,Delhi,Delhi,"Mandir Marg, Delhi - DPCC",20-05-2024 23:00:00,28.636429,77.201067,CO,NA,NA,NA
India,Delhi,Delhi,"Mundka, Delhi - DPCC",20-05-2024 23:00:00,28.684678,77.076574,SO2,14,77,33
India,Delhi,Delhi,"Mundka, Delhi - DPCC",20-05-2024 23:00:00,28.684678,77.076574,OZONE,7,133,70
India,Delhi,Delhi,"Najafgarh, Delhi - DPCC",20-05-2024 23:00:00,28.570173,76.933762,OZONE,26,102,71
India,Delhi,Delhi,"Narela, Delhi - DPCC",20-05-2024 23:00:00,28.822836,77.101981,NH3,5,13,9
India,Delhi,Delhi,"Narela, Delhi - DPCC",20-05-2024 23:00:00,28.822836,77.101981,SO2,12,77,37
India,Delhi,Delhi,"Narela, Delhi - DPCC",20-05-2024 23:00:00,28.822836,77.101981,OZONE,6,163,97
India,Delhi,Delhi,"Nehru Nagar, Delhi - DPCC",20-05-2024 23:00:00,28.567890,77.250515,OZONE,2,227,131
India,Delhi,Delhi,"North Campus, DU, Delhi - IMD",20-05-2024 23:00:00,28.6573814,77.1585447,CO,18,112,59
India,Delhi,Delhi,"Patparganj, Delhi - DPCC",20-05-2024 23:00:00,28.623763,77.287209,PM10,162,442,259
India,Delhi,Delhi,"Patparganj, Delhi - DPCC",20-05-2024 23:00:00,28.623763,77.287209,SO2,4,9,6
India,Delhi,Delhi,"R K Puram, Delhi - DPCC",20-05-2024 23:00:00,28.563262,77.186937,SO2,16,52,32
India,Delhi,Delhi,"R K Puram, Delhi - DPCC",20-05-2024 23:00:00,28.563262,77.186937,OZONE,16,225,97
India,Delhi,Delhi,"Rohini, Delhi - DPCC",20-05-2024 23:00:00,28.732528,77.119920,NO2,10,148,49
India,Delhi,Delhi,"Rohini, Delhi - DPCC",20-05-2024 23:00:00,28.732528,77.119920,SO2,18,82,43
India,Delhi,Delhi,"Rohini, Delhi - DPCC",20-05-2024 23:00:00,28.732528,77.119920,CO,16,108,41
India,Delhi,Delhi,"Shadipur, Delhi - CPCB",20-05-2024 23:00:00,28.6514781,77.1473105,PM2.5,213,491,333
India,Delhi,Delhi,"Shadipur, Delhi - CPCB",20-05-2024 23:00:00,28.6514781,77.1473105,OZONE,12,94,26
India,Delhi,Delhi,"Sirifort, Delhi - CPCB",20-05-2024 23:00:00,28.5504249,77.2159377,PM2.5,60,342,151
India,Delhi,Delhi,"Sirifort, Delhi - CPCB",20-05-2024 23:00:00,28.5504249,77.2159377,PM10,130,419,225
India,Delhi,Delhi,"Sonia Vihar, Delhi - DPCC",20-05-2024 23:00:00,28.710508,77.249485,SO2,10,36,20
India,Delhi,Delhi,"Sri Aurobindo Marg, Delhi - DPCC",20-05-2024 23:00:00,28.531346,77.190156,SO2,14,58,26
India,Delhi,Delhi,"Vivek Vihar, Delhi - DPCC",20-05-2024 23:00:00,28.672342,77.315260,PM2.5,56,339,171
India,Delhi,Delhi,"Vivek Vihar, Delhi - DPCC",20-05-2024 23:00:00,28.672342,77.315260,PM10,NA,NA,NA
India,Delhi,Delhi,"Wazirpur, Delhi - DPCC",20-05-2024 23:00:00,28.699793,77.165453,NH3,7,16,13
India,Gujarat,Ahmedabad,"Chandkheda, Ahmedabad - IITM",20-05-2024 23:00:00,23.107969,72.574648,CO,1,66,35
India,Gujarat,Ahmedabad,"Chandkheda, Ahmedabad - IITM",20-05-2024 23:00:00,23.107969,72.574648,OZONE,32,60,50
India,Gujarat,Ahmedabad,"Gyaspur, Ahmedabad - IITM",20-05-2024 23:00:00,22.977134,72.553024,NH3,6,8,7
India,Gujarat,Ahmedabad,"Rakhial, Ahmedabad - IITM",20-05-2024 23:00:00,23.016834,72.625775,PM2.5,NA,NA,NA
India,Gujarat,Ahmedabad,"Sardar Vallabhbhai Patel Stadium, Ahmedabad - IITM",20-05-2024 23:00:00,23.043070,72.562968,OZONE,13,55,39
India,Gujarat,Ankleshwar,"GIDC, Ankleshwar - GPCB",20-05-2024 23:00:00,21.613267,73.010555,PM10,62,104,81
India,Gujarat,Ankleshwar,"GIDC, Ankleshwar - GPCB",20-05-2024 23:00:00,21.613267,73.010555,CO,6,64,41
India,Gujarat,Gandhinagar,"Sector-10, Gandhinagar - GPCB",20-05-2024 23:00:00,23.221714,72.654328,PM10,21,64,42
India,Gujarat,Surat,"Science Center, Surat - SMC",20-05-2024 23:00:00,21.170046,72.795405,NO2,26,33,29
India,Gujarat,Vapi,"Phase-1 GIDC, Vapi - GPCB",20-05-2024 23:00:00,20.362421,72.918013,PM10,28,72,49
India,Haryana,Bahadurgarh,"Arya Nagar, Bahadurgarh - HSPCB",20-05-2024 23:00:00,28.6701,76.9254,PM10,NA,NA,NA
India,Haryana,Ballabgarh,"Nathu Colony, Ballabgarh - HSPCB",20-05-2024 23:00:00,28.3419248,77.319699,PM10,138,357,206
India,Haryana,Bhiwani,"H.B. Colony, Bhiwani - HSPCB",20-05-2024 23:00:00,28.806223,76.141105,PM2.5,51,317,196
India,Haryana,Bhiwani,"H.B. Colony, Bhiwani - HSPCB",20-05-2024 23:00:00,28.806223,76.141105,NO2,1,11,8
India,Haryana,Bhiwani,"H.B. Colony, Bhiwani - HSPCB",20-05-2024 23:00:00,28.806223,76.141105,CO,1,119,36
India,Haryana,Charkhi Dadri,"Mini Secretariat, Charkhi Dadri - HSPCB",20-05-2024 23:00:00,28.593883,76.270653,PM10,46,109,72
India,Haryana,Charkhi Dadri,"Mini Secretariat, Charkhi Dadri - HSPCB",20-05-2024 23:00:00,28.593883,76.270653,NH3,6,8,7
India,Haryana,Dharuhera,"Municipal Corporation Office, Dharuhera -  HSPCB",20-05-2024 23:00:00,28.206800,76.799700,PM2.5,NA,NA,NA
India,Haryana,Dharuhera,"Municipal Corporation Office, Dharuhera -  HSPCB",20-05-2024 23:00:00,28.206800,76.799700,NO2,48,111,78
India,Haryana,Dharuhera,"Municipal Corporation Office, Dharuhera -  HSPCB",20-05-2024 23:00:00,28.206800,76.799700,OZONE,6,38,24
India,Haryana,Faridabad,"New Industrial Town, Faridabad - HSPCB",20-05-2024 23:00:00,28.39072,77.30059,PM10,182,453,271
India,Haryana,Faridabad,"New Industrial Town, Faridabad - HSPCB",20-05-2024 23:00:00,28.39072,77.30059,NO2,2,27,12
India,Haryana,Faridabad,"New Industrial Town, Faridabad - HSPCB",20-05-2024 23:00:00,28.39072,77.30059,NH3,1,5,2
India,Haryana,Faridabad,"Sector 11, Faridabad - HSPCB",20-05-2024 23:00:00,28.376058,77.315741,PM10,151,325,204
India,Haryana,Faridabad,"Sector 11, Faridabad - HSPCB",20-05-2024 23:00:00,28.376058,77.315741,NH3,6,6,6
India,Haryana,Faridabad,"Sector 11, Faridabad - HSPCB",20-05-2024 23:00:00,28.376058,77.315741,SO2,4,118,21
India,Haryana,Faridabad,"Sector 30, Faridabad - HSPCB",20-05-2024 23:00:00,28.4417,77.3217,CO,52,56,54
India,Haryana,Faridabad,"Sector- 16A, Faridabad - HSPCB",20-05-2024 23:00:00,28.4088421,77.3099081,CO,38,110,88
India,Haryana,Faridabad,"Sector- 16A, Faridabad - HSPCB",20-05-2024 23:00:00,28.4088421,77.3099081,OZONE,14,14,14
India,Haryana,Gurugram,"Sector-51, Gurugram - HSPCB",20-05-2024 23:00:00,28.4227,77.0667,PM2.5,3,428,213
India,Haryana,Gurugram,"Teri Gram, Gurugram - HSPCB",20-05-2024 23:00:00,28.4275,77.1465,CO,6,30,18
India,Haryana,Karnal,"Sector-12, Karnal - HSPCB",20-05-2024 23:00:00,29.695300,77.002700,PM10,86,142,117
India,Haryana,Karnal,"Sector-12, Karnal - HSPCB",20-05-2024 23:00:00,29.695300,77.002700,OZONE,28,45,31
India,Haryana,Kurukshetra,"Sector-7, Kurukshetra - HSPCB",20-05-2024 23:00:00,29.966942,76.875879,NH3,6,6,6
India,Haryana,Mandikhera,"General Hospital, Mandikhera - HSPCB",20-05-2024 23:00:00,27.9002,76.9938,NO2,NA,NA,NA
India,Haryana,Mandikhera,"General Hospital, Mandikhera - HSPCB",20-05-2024 23:00:00,27.9002,76.9938,NH3,NA,NA,NA
India,Haryana,Manesar,"Sector-2 IMT, Manesar - HSPCB",20-05-2024 23:00:00,28.360699,76.936090,PM2.5,54,168,92
India,Haryana,Manesar,"Sector-2 IMT, Manesar - HSPCB",20-05-2024 23:00:00,28.360699,76.936090,NO2,11,22,16
India,Haryana,Narnaul,"Shastri Nagar, Narnaul - HSPCB",20-05-2024 23:00:00,28.060249,76.113115,PM10,109,442,149
India,Haryana,Narnaul,"Shastri Nagar, Narnaul - HSPCB",20-05-2024 23:00:00,28.060249,76.113115,SO2,13,43,15
India,Haryana,Palwal,"Shyam Nagar, Palwal - HSPCB",20-05-2024 23:00:00,28.1485564,77.3320667,NH3,8,9,9
India,Haryana,Palwal,"Shyam Nagar, Palwal - HSPCB",20-05-2024 23:00:00,28.1485564,77.3320667,OZONE,5,60,19
India,Haryana,Panchkula,"Sector-6, Panchkula - HSPCB ",20-05-2024 23:00:00,30.7057778,76.8531805555555,PM2.5,93,303,186
India,Haryana,Panipat,"Sector-18, Panipat - HSPCB",20-05-2024 23:00:00,29.432304,76.972765,PM10,90,97,93
India,Haryana,Rohtak,"MD University, Rohtak - HSPCB",20-05-2024 23:00:00,28.52123,76.37138,PM2.5,66,500,177
India,Haryana,Rohtak,"MD University, Rohtak - HSPCB",20-05-2024 23:00:00,28.52123,76.37138,NO2,48,54,51
India,Haryana,Sirsa,"F-Block, Sirsa - HSPCB",20-05-2024 23:00:00,29.536400,75.015800,PM10,NA,NA,NA
India,Haryana,Sirsa,"F-Block, Sirsa - HSPCB",20-05-2024 23:00:00,29.536400,75.015800,SO2,NA,NA,NA
India,Haryana,Sirsa,"F-Block, Sirsa - HSPCB",20-05-2024 23:00:00,29.536400,75.015800,CO,25,60,52
India,Jharkhand,Jorapokhar,"Tata Stadium, Jorapokhar - JSPCB",20-05-2024 23:00:00,23.707909,86.414670,PM10,NA,NA,NA
India,Jharkhand,Jorapokhar,"Tata Stadium, Jorapokhar - JSPCB",20-05-2024 23:00:00,23.707909,86.414670,SO2,NA,NA,NA
India,Karnataka,Bagalkot,"Vidayagiri, Bagalkot - KSPCB",20-05-2024 23:00:00,16.172806,75.659694,NO2,9,10,9
India,Karnataka,Bagalkot,"Vidayagiri, Bagalkot - KSPCB",20-05-2024 23:00:00,16.172806,75.659694,NH3,1,2,1
India,Karnataka,Belgaum,"Ramteerth Nagar, Belgaum - KSPCB",20-05-2024 23:00:00,15.888653,74.541751,PM2.5,12,25,17
India,Karnataka,Belgaum,"Ramteerth Nagar, Belgaum - KSPCB",20-05-2024 23:00:00,15.888653,74.541751,NO2,21,58,39
India,Karnataka,Bengaluru,"Bapuji Nagar, Bengaluru - KSPCB",20-05-2024 23:00:00,12.951913,77.539784,PM2.5,11,82,36
India,Karnataka,Bengaluru,"Bapuji Nagar, Bengaluru - KSPCB",20-05-2024 23:00:00,12.951913,77.539784,PM10,16,115,54
India,Karnataka,Bengaluru,"Bapuji Nagar, Bengaluru - KSPCB",20-05-2024 23:00:00,12.951913,77.539784,OZONE,24,34,26
India,Karnataka,Bengaluru,"Hombegowda Nagar, Bengaluru - KSPCB",20-05-2024 23:00:00,12.938539,77.590100,SO2,2,4,3
India,Karnataka,Bengaluru,"Jayanagar 5th Block, Bengaluru - KSPCB",20-05-2024 23:00:00,12.920984,77.584908,OZONE,21,24,22
India,Karnataka,Bengaluru,"Kasturi Nagar, Bengaluru - KSPCB",20-05-2024 23:00:00,13.003872,77.664217,NO2,16,17,17
India,Karnataka,Bengaluru,"Kasturi Nagar, Bengaluru - KSPCB",20-05-2024 23:00:00,13.003872,77.664217,SO2,10,10,10
India,Karnataka,Bengaluru,"Peenya, Bengaluru - CPCB",20-05-2024 23:00:00,13.0270199,77.494094,NH3,NA,NA,NA
India,Karnataka,Bengaluru,"RVCE-Mailasandra, Bengaluru - KSPCB",20-05-2024 23:00:00,12.921418,77.502466,NO2,16,17,17
India,Karnataka,Bengaluru,"RVCE-Mailasandra, Bengaluru - KSPCB",20-05-2024 23:00:00,12.921418,77.502466,OZONE,39,39,39
India,Karnataka,Bengaluru,"Sanegurava Halli, Bengaluru - KSPCB",20-05-2024 23:00:00,12.990328,77.5431385,CO,4,34,16
India,Karnataka,Bengaluru,"Silk Board, Bengaluru - KSPCB",20-05-2024 23:00:00,12.917348,77.622813,CO,10,15,11
India,Karnataka,Bidar,"Naubad, Bidar - KSPCB",20-05-2024 23:00:00,17.930306,77.482194,PM2.5,17,47,32
India,Karnataka,Chamarajanagar,"Urban, Chamarajanagar - KSPCB",20-05-2024 23:00:00,11.55358,76.55521,SO2,2,8,5
India,Karnataka,Chikkamagaluru,"Kalyana Nagara, Chikkamagaluru - KSPCB",20-05-2024 23:00:00,13.328028,75.797056,OZONE,15,49,30
India,Karnataka,Davanagere,"Devaraj Urs Badavane, Davanagere - KSPCB",20-05-2024 23:00:00,14.475800,75.905200,PM10,10,46,27
India,Karnataka,Davanagere,"Devaraj Urs Badavane, Davanagere - KSPCB",20-05-2024 23:00:00,14.475800,75.905200,NO2,5,16,13
India,Karnataka,Davanagere,"Devaraj Urs Badavane, Davanagere - KSPCB",20-05-2024 23:00:00,14.475800,75.905200,SO2,3,7,5
India,Karnataka,Davanagere,"Devaraj Urs Badavane, Davanagere - KSPCB",20-05-2024 23:00:00,14.475800,75.905200,OZONE,18,24,20
India,Karnataka,Dharwad,"Kalabhavan, Dharwad - KSPCB",20-05-2024 23:00:00,15.459706,75.008381,PM2.5,18,54,34
India,Karnataka,Dharwad,"Kalabhavan, Dharwad - KSPCB",20-05-2024 23:00:00,15.459706,75.008381,NH3,3,3,3
India,Karnataka,Gadag,"Panchal Nagar, Gadag - KSPCB",20-05-2024 23:00:00,15.411456,75.638133,PM10,25,37,29
India,Karnataka,Gadag,"Panchal Nagar, Gadag - KSPCB",20-05-2024 23:00:00,15.411456,75.638133,SO2,9,18,13
India,Karnataka,Gadag,"Panchal Nagar, Gadag - KSPCB",20-05-2024 23:00:00,15.411456,75.638133,OZONE,34,259,127
India,Karnataka,Hassan,"B.Katihalli, Hassan - KSPCB",20-05-2024 23:00:00,13.008556,76.125258,NO2,NA,NA,NA
India,Karnataka,Hubballi,"Deshpande Nagar, Hubballi - KSPCB",20-05-2024 23:00:00,15.351773,75.140726,NH3,4,5,5
India,Karnataka,Kalaburagi,"Mahatma Basaveswar Colony, Kalaburgi - KSPCB",20-05-2024 23:00:00,17.336318,76.847397,CO,28,46,31
India,Karnataka,Karwar,"KHB Colony, Karwar - KSPCB",20-05-2024 23:00:00,14.816666,74.141003,CO,9,10,9
India,Karnataka,Kolar,"Tamaka Ind. Area, Kolar - KSPCB",20-05-2024 23:00:00,13.1276288,78.1570122,NH3,NA,NA,NA
India,Karnataka,Kolar,"Tamaka Ind. Area, Kolar - KSPCB",20-05-2024 23:00:00,13.1276288,78.1570122,OZONE,18,34,24
India,Karnataka,Koppal,"Diwator Nagar, Koppal - KSPCB",20-05-2024 23:00:00,15.347630,76.181767,SO2,27,29,27
India,Karnataka,Madikeri,"Stuart Hill, Madikeri - KSPCB",20-05-2024 23:00:00,12.415911,75.735050,PM10,3,23,15
India,Karnataka,Madikeri,"Stuart Hill, Madikeri - KSPCB",20-05-2024 23:00:00,12.415911,75.735050,NH3,NA,NA,NA
India,Karnataka,Madikeri,"Stuart Hill, Madikeri - KSPCB",20-05-2024 23:00:00,12.415911,75.735050,CO,4,86,44
India,Karnataka,Mysuru,"Hebbal 1st Stage, Mysuru - KSPCB",20-05-2024 23:00:00,12.21041,76.37376,NO2,11,35,21
India,Karnataka,Mysuru,"Hebbal 1st Stage, Mysuru - KSPCB",20-05-2024 23:00:00,12.21041,76.37376,NH3,1,2,2
India,Karnataka,Raichur,"Haji Colony, Raichur - KSPCB",20-05-2024 23:00:00,16.208139,77.348417,PM10,NA,NA,NA
India,Karnataka,Raichur,"Haji Colony, Raichur - KSPCB",20-05-2024 23:00:00,16.208139,77.348417,NO2,13,28,20
India,Karnataka,Raichur,"Haji Colony, Raichur - KSPCB",20-05-2024 23:00:00,16.208139,77.348417,SO2,73,87,77
India,Karnataka,Ramanagara,"Vijay Nagar, Ramanagara - KSPCB",20-05-2024 23:00:00,12.733409,77.298051,PM10,11,32,25
India,Karnataka,Ramanagara,"Vijay Nagar, Ramanagara - KSPCB",20-05-2024 23:00:00,12.733409,77.298051,OZONE,28,30,29
India,Karnataka,Shivamogga,"Vinoba Nagara, Shivamogga - KSPCB",20-05-2024 23:00:00,13.940000,75.555917,PM2.5,26,50,39
India,Karnataka,Shivamogga,"Vinoba Nagara, Shivamogga - KSPCB",20-05-2024 23:00:00,13.940000,75.555917,NH3,2,15,4
India,Karnataka,Tumakuru,"Thimmalapura, Tumakuru - KSPCB",20-05-2024 23:00:00,13.377516,77.099072,NO2,NA,NA,NA
India,Karnataka,Udupi,"Brahmagiri, Udupi - KSPCB",20-05-2024 23:00:00,13.34194444,74.74694444,CO,49,56,50
India,Karnataka,Yadgir,"Collector Office, Yadgir - KSPCB",20-05-2024 23:00:00,16.7602,77.1428,PM2.5,9,43,24
India,Karnataka,Yadgir,"Collector Office, Yadgir - KSPCB",20-05-2024 23:00:00,16.7602,77.1428,PM10,19,50,34
India,Karnataka,Yadgir,"Collector Office, Yadgir - KSPCB",20-05-2024 23:00:00,16.7602,77.1428,SO2,1,33,12
India,Kerala,Kannur,"Thavakkara, Kannur - Kerala PCB",20-05-2024 23:00:00,11.875000,75.373200,NH3,NA,NA,NA
India,Kerala,Kannur,"Thavakkara, Kannur - Kerala PCB",20-05-2024 23:00:00,11.875000,75.373200,SO2,NA,NA,NA
India,Kerala,Kannur,"Thavakkara, Kannur - Kerala PCB",20-05-2024 23:00:00,11.875000,75.373200,OZONE,NA,NA,NA
India,Kerala,Thiruvananthapuram,"Kariavattom, Thiruvananthapuram - Kerala PCB",20-05-2024 23:00:00,8.563700,76.886500,NH3,1,1,1
India,Madhya Pradesh,Bhopal,"Idgah Hills, Bhopal - MPPCB",20-05-2024 23:00:00,23.264759,77.381568,NO2,NA,NA,NA
India,Madhya Pradesh,Bhopal,"Paryavaran Parisar, Bhopal - MPPCB",20-05-2024 23:00:00,23.210494,77.425409,NO2,12,145,31
India,Madhya Pradesh,Dewas,"Bhopal Chauraha, Dewas - MPPCB",20-05-2024 23:00:00,22.9682591,76.064118,NO2,12,14,13
India,Madhya Pradesh,Dewas,"Bhopal Chauraha, Dewas - MPPCB",20-05-2024 23:00:00,22.9682591,76.064118,SO2,16,34,26
India,Madhya Pradesh,Gwalior,"City Center, Gwalior - MPPCB",20-05-2024 23:00:00,26.203442,78.193251,PM10,71,158,105
India,Madhya Pradesh,Gwalior,"City Center, Gwalior - MPPCB",20-05-2024 23:00:00,26.203442,78.193251,NH3,2,6,4
India,Madhya Pradesh,Gwalior,"City Center, Gwalior - MPPCB",20-05-2024 23:00:00,26.203442,78.193251,SO2,2,42,27
India,Madhya Pradesh,Gwalior,"Deen Dayal Nagar, Gwalior - MPPCB",20-05-2024 23:00:00,26.259242,78.216432,CO,2,54,27
India,Madhya Pradesh,Gwalior,"Maharaj Bada, Gwalior - MPPCB",20-05-2024 23:00:00,26.200388,78.147714,PM10,60,223,113
India,Madhya Pradesh,Gwalior,"Phool Bagh, Gwalior - Mondelez Ind. Food",20-05-2024 23:00:00,26.210536,78.171,NO2,4,5,4
India,Madhya Pradesh,Indore,"Maguda Nagar, Indore - IMC",20-05-2024 23:00:00,22.7524,75.8872,PM2.5,59,245,95
India,Madhya Pradesh,Indore,"Maguda Nagar, Indore - IMC",20-05-2024 23:00:00,22.7524,75.8872,PM10,39,109,60
India,Madhya Pradesh,Indore,"Maguda Nagar, Indore - IMC",20-05-2024 23:00:00,22.7524,75.8872,NH3,1,2,1
India,Madhya Pradesh,Indore,"Regional Park, Indore - IMC",20-05-2024 23:00:00,22.6780,75.8559,PM2.5,NA,NA,NA
India,Madhya Pradesh,Indore,"Regional Park, Indore - IMC",20-05-2024 23:00:00,22.6780,75.8559,PM10,NA,NA,NA
India,Madhya Pradesh,Indore,"Regional Park, Indore - IMC",20-05-2024 23:00:00,22.6780,75.8559,NH3,NA,NA,NA
India,Madhya Pradesh,Indore,"Residency Area, Indore - IMC",20-05-2024 23:00:00,22.7084,75.8815,PM2.5,41,89,56
India,Madhya Pradesh,Indore,"Residency Area, Indore - IMC",20-05-2024 23:00:00,22.7084,75.8815,PM10,47,103,67
India,Madhya Pradesh,Jabalpur,"Govindh Bhavan Colony, Jabalpur - JMC",20-05-2024 23:00:00,23.163174,79.973061,NO2,NA,NA,NA
