country,state,city,station,last_update,latitude,longitude,pollutant_id,pollutant_min,pollutant_max,pollutant_avg
India,Andhra_Pradesh,Amaravati,"Secretariat, Amaravati - APPCB",01-05-2024 17:00:00,16.5150833,80.5181667,PM10,19,57,37
India,Andhra_Pradesh,Anantapur,"Gulzarpet, Anantapur - APPCB",01-05-2024 17:00:00,14.675886,77.593027,PM2.5,24,67,40
India,Andhra_Pradesh,Chittoor,"Gangineni Cheruvu, Chittoor - APPCB",01-05-2024 17:00:00,13.204880,79.097889,OZONE,25,25,25
India,Andhra_Pradesh,Kadapa,"Yerramukkapalli, Kadapa - APPCB",01-05-2024 17:00:00,14.465052,78.824187,CO,14,38,31
India,Andhra_Pradesh,Tirupati,"Tirumala, Tirupati - APPCB",01-05-2024 17:00:00,13.67,79.35,PM2.5,15,72,43
India,Andhra_Pradesh,Tirupati,"Tirumala, Tirupati - APPCB",01-05-2024 17:00:00,13.67,79.35,CO,34,56,46
India,Andhra_Pradesh,Tirupati,"Vaikuntapuram, Tirupati - APPCB",01-05-2024 17:00:00,13.615387,79.409230,CO,9,16,12
India,Andhra_Pradesh,Vijayawada,"HB Colony, Vijayawada - APPCB",01-05-2024 17:00:00,16.536107,80.594233,PM10,38,67,56
India,Andhra_Pradesh,Vijayawada,"HB Colony, Vijayawada - APPCB",01-05-2024 17:00:00,16.536107,80.594233,NO2,2,9,5
India,Andhra_Pradesh,Vijayawada,"Kanuru, Vijayawada - APPCB",01-05-2024 17:00:00,16.486692,80.699436,SO2,2,9,6
India,Andhra_Pradesh,Vijayawada,"Kanuru, Vijayawada - APPCB",01-05-2024 17:00:00,16.486692,80.699436,OZONE,28,28,28
India,Andhra_Pradesh,Vijayawada,"Rajiv Nagar, Vijayawada - APPCB",01-05-2024 17:00:00,16.554731,80.649110,SO2,7,21,15
India,Andhra_Pradesh,Vijayawada,"Rajiv Nagar, Vijayawada - APPCB",01-05-2024 17:00:00,16.554731,80.649110,CO,40,40,40
India,Andhra_Pradesh,Visakhapatnam,"GVM Corporation, Visakhapatnam - APPCB",01-05-2024 17:00:00,17.72,83.3,CO,2,68,13
India,Arunachal_Pradesh,Naharlagun,"Naharlagun, Naharlagun - APSPCB",01-05-2024 17:00:00,27.103358,93.679645,PM10,24,81,51
India,Arunachal_Pradesh,Naharlagun,"Naharlagun, Naharlagun - APSPCB",01-05-2024 17:00:00,27.103358,93.679645,OZONE,2,2,2
India,Assam,Guwahati,"IITG, Guwahati - PCBA",01-05-2024 17:00:00,26.2028636,91.70046436,CO,9,10,10
India,Assam,Guwahati,"LGBI Airport, Guwahati - PCBA",01-05-2024 17:00:00,26.10887,91.589544,PM10,57,290,129
India,Assam,Guwahati,"LGBI Airport, Guwahati - PCBA",01-05-2024 17:00:00,26.10887,91.589544,SO2,9,11,10
India,Assam,Guwahati,"Pan Bazaar, Guwahati - PCBA",01-05-2024 17:00:00,26.187500,91.744194,NO2,NA,NA,NA
India,Assam,Guwahati,"Pan Bazaar, Guwahati - PCBA",01-05-2024 17:00:00,26.187500,91.744194,SO2,37,62,45
India,Assam,Guwahati,"Railway Colony, Guwahati - PCBA",01-05-2024 17:00:00,26.181742,91.78063,PM2.5,38,313,118
India,Assam,Guwahati,"Railway Colony, Guwahati - PCBA",01-05-2024 17:00:00,26.181742,91.78063,SO2,10,18,13
India,Assam,Guwahati,"Railway Colony, Guwahati - PCBA",01-05-2024 17:00:00,26.181742,91.78063,OZONE,4,29,13
India,Assam,Nagaon,"Christianpatty, Nagaon - PCBA",01-05-2024 17:00:00,26.349082,92.68449,NO2,1,8,3
India,Assam,Nagaon,"Christianpatty, Nagaon - PCBA",01-05-2024 17:00:00,26.349082,92.68449,CO,44,55,53
India,Assam,Nalbari,"Bata Chowk, Nalbari - PCBA",01-05-2024 17:00:00,26.446912,91.439057,NO2,5,16,9
India,Assam,Silchar,"Tarapur, Silchar - PCBA",01-05-2024 17:00:00,24.82827,92.79525,OZONE,1,7,3
India,Assam,Sivasagar,"Girls College, Sivasagar - PCBA",01-05-2024 17:00:00,26.987634,94.636574,CO,12,18,18
India,Bihar,Araria,"Kharahiya Basti, Araria - BSPCB",01-05-2024 17:00:00,26.146529,87.454184,CO,16,30,24
India,Bihar,Arrah,"New DM Office, Arrah - BSPCB",01-05-2024 17:00:00,25.5626095,84.663264,OZONE,11,31,16
India,Bihar,Aurangabad,"Gurdeo Nagar, Aurangabad - BSPCB",01-05-2024 17:00:00,24.75746,84.366208,PM10,48,97,79
India,Bihar,Aurangabad,"Gurdeo Nagar, Aurangabad - BSPCB",01-05-2024 17:00:00,24.75746,84.366208,NH3,2,22,11
India,Bihar,Aurangabad,"Gurdeo Nagar, Aurangabad - BSPCB",01-05-2024 17:00:00,24.75746,84.366208,SO2,NA,NA,NA
India,Bihar,Bihar Sharif,"D M Colony, Bihar Sharif - BSPCB",01-05-2024 17:00:00,25.204762,85.514960,PM10,59,101,78
India,Bihar,Buxar,"Charitra Van, Buxar - BSPCB (Formerly known as Central Jail)",01-05-2024 17:00:00,25.567520,83.966379,CO,40,101,58
India,Bihar,Chhapra,"Darshan Nagar, Chhapra - BSPCB",01-05-2024 17:00:00,25.7808257,84.7446768,NO2,22,33,27
India,Bihar,Chhapra,"Darshan Nagar, Chhapra - BSPCB",01-05-2024 17:00:00,25.7808257,84.7446768,SO2,5,103,14
India,Bihar,Gaya,"Collectorate, Gaya - BSPCB",01-05-2024 17:00:00,24.7955,84.9994,SO2,9,20,15
India,Bihar,Gaya,"Collectorate, Gaya - BSPCB",01-05-2024 17:00:00,24.7955,84.9994,CO,12,50,16
India,Bihar,Gaya,"SFTI Kusdihra, Gaya - BSPCB",01-05-2024 17:00:00,24.762518,84.982348,NH3,3,5,4
India,Bihar,Katihar,"Mirchaibari, Katihar - BSPCB",01-05-2024 17:00:00,25.560083,87.553265,PM2.5,20,67,37
India,Bihar,Katihar,"Mirchaibari, Katihar - BSPCB",01-05-2024 17:00:00,25.560083,87.553265,CO,44,66,53
India,Bihar,Kishanganj,"SDM Office_Khagra, Kishanganj - BSPCB",01-05-2024 17:00:00,26.0881305,87.93840336,PM2.5,58,250,117
India,Bihar,Kishanganj,"SDM Office_Khagra, Kishanganj - BSPCB",01-05-2024 17:00:00,26.0881305,87.93840336,CO,2,8,3
India,Bihar,Manguraha,"Forest Rest House, Manguraha - BSPCB",01-05-2024 17:00:00,27.308328,84.531742,NO2,7,24,18
India,Bihar,Manguraha,"Forest Rest House, Manguraha - BSPCB",01-05-2024 17:00:00,27.308328,84.531742,NH3,2,3,2
India,Bihar,Manguraha,"Forest Rest House, Manguraha - BSPCB",01-05-2024 17:00:00,27.308328,84.531742,OZONE,2,121,63
India,Bihar,Motihari,"Gandak Colony, Motihari - BSPCB",01-05-2024 17:00:00,26.63086,84.90051,CO,4,38,32
India,Bihar,Muzaffarpur,"Buddha Colony, Muzaffarpur - BSPCB",01-05-2024 17:00:00,26.11442,85.39813,NH3,18,21,20
India,Bihar,Muzaffarpur,"MIT-Daudpur Kothi, Muzaffarpur - BSPCB",01-05-2024 17:00:00,26.1403345,85.3650192,NO2,4,6,5
India,Bihar,Muzaffarpur,"MIT-Daudpur Kothi, Muzaffarpur - BSPCB",01-05-2024 17:00:00,26.1403345,85.3650192,SO2,4,4,4
India,Bihar,Muzaffarpur,"MIT-Daudpur Kothi, Muzaffarpur - BSPCB",01-05-2024 17:00:00,26.1403345,85.3650192,CO,18,119,114
India,Bihar,Muzaffarpur,"Muzaffarpur Collectorate, Muzaffarpur - BSPCB",01-05-2024 17:00:00,26.1209,85.3647,PM2.5,42,98,68
India,Bihar,Muzaffarpur,"Muzaffarpur Collectorate, Muzaffarpur - BSPCB",01-05-2024 17:00:00,26.1209,85.3647,NO2,2,40,21
India,Bihar,Patna,"DRM Office Danapur, Patna - BSPCB",01-05-2024 17:00:00,25.586562,85.043586,PM2.5,161,325,267
India,Bihar,Patna,"DRM Office Danapur, Patna - BSPCB",01-05-2024 17:00:00,25.586562,85.043586,NO2,11,53,26
India,Bihar,Patna,"Govt. High School Shikarpur, Patna - BSPCB",01-05-2024 17:00:00,25.592539,85.227158,CO,28,64,31
India,Bihar,Patna,"Muradpur, Patna - BSPCB",01-05-2024 17:00:00,25.619651,85.147382,CO,15,65,26
India,Bihar,Patna,"Rajbansi Nagar, Patna - BSPCB",01-05-2024 17:00:00,25.599486,85.113666,OZONE,32,137,120
India,Bihar,Patna,"Samanpura, Patna - BSPCB",01-05-2024 17:00:00,25.596727,85.085624,OZONE,10,126,113
India,Bihar,Purnia,"Mariam Nagar, Purnia - BSPCB",01-05-2024 17:00:00,25.366336,87.117468,SO2,5,13,8
India,Bihar,Rajgir,"Dangi Tola, Rajgir - BSPCB",01-05-2024 17:00:00,25.03280,85.41948,NH3,1,8,4
India,Bihar,Rajgir,"Dangi Tola, Rajgir - BSPCB",01-05-2024 17:00:00,25.03280,85.41948,SO2,2,6,4
India,Bihar,Samastipur,"DM Office_Kasipur, Samastipur - BSPCB",01-05-2024 17:00:00,25.859655,85.77944,OZONE,14,59,54
India,Bihar,Sasaram,"Dada Peer, Sasaram - BSPCB",01-05-2024 17:00:00,24.952822,84.002396,OZONE,29,99,92
India,Bihar,Siwan,"Chitragupta Nagar, Siwan - BSPCB",01-05-2024 17:00:00,26.2271665,84.3570427,PM2.5,NA,NA,NA
India,Bihar,Siwan,"Chitragupta Nagar, Siwan - BSPCB",01-05-2024 17:00:00,26.2271665,84.3570427,PM10,NA,NA,NA
India,Bihar,Siwan,"Chitragupta Nagar, Siwan - BSPCB",01-05-2024 17:00:00,26.2271665,84.3570427,SO2,1,33,26
India,Bihar,Siwan,"Chitragupta Nagar, Siwan - BSPCB",01-05-2024 17:00:00,26.2271665,84.3570427,CO,79,128,91
India,Chandigarh,Chandigarh,"Sector-25, Chandigarh - CPCC",01-05-2024 17:00:00,30.751462,76.762879,PM10,60,131,90
India,Chandigarh,Chandigarh,"Sector-25, Chandigarh - CPCC",01-05-2024 17:00:00,30.751462,76.762879,OZONE,6,40,32
India,Chhattisgarh,Bhilai,"32Bungalows, Bhilai - CECB",01-05-2024 17:00:00,21.194815,81.314770,PM2.5,43,83,67
India,Chhattisgarh,Bhilai,"32Bungalows, Bhilai - CECB",01-05-2024 17:00:00,21.194815,81.314770,NO2,17,27,23
India,Chhattisgarh,Bhilai,"32Bungalows, Bhilai - CECB",01-05-2024 17:00:00,21.194815,81.314770,NH3,6,6,6
India,Chhattisgarh,Bhilai,"Civic Center, Bhilai - Bhilai Steel Plant",01-05-2024 17:00:00,21.185571,81.343175,NO2,12,17,14
India,Chhattisgarh,Bilaspur,"Mangala, Bilaspur - NTPC",01-05-2024 17:00:00,22.08815,82.13737,SO2,9,22,15
India,Chhattisgarh,Chhal,"Nawapara SECL Colony, Chhal - CECB",01-05-2024 17:00:00,22.118125,83.140608,PM2.5,78,122,93
India,Chhattisgarh,Chhal,"Nawapara SECL Colony, Chhal - CECB",01-05-2024 17:00:00,22.118125,83.140608,CO,23,70,29
India,Chhattisgarh,Raipur,"AIIMS, Raipur - CECB",01-05-2024 17:00:00,21.258815,81.578979,NH3,6,6,6
India,Chhattisgarh,Raipur,"AIIMS, Raipur - CECB",01-05-2024 17:00:00,21.258815,81.578979,SO2,6,26,12
India,Chhattisgarh,Raipur,"Bhatagaon New ISBT, Raipur - CECB",01-05-2024 17:00:00,21.219665,81.630094,PM10,42,79,59
India,Chhattisgarh,Raipur,"Bhatagaon New ISBT, Raipur - CECB",01-05-2024 17:00:00,21.219665,81.630094,SO2,1,3,2
India,Chhattisgarh,Raipur,"Krishak Nagar, Raipur - CECB",01-05-2024 17:00:00,21.237755,81.705301,PM10,33,70,58
India,Chhattisgarh,Raipur,"Krishak Nagar, Raipur - CECB",01-05-2024 17:00:00,21.237755,81.705301,SO2,12,45,20
India,Chhattisgarh,Raipur,"Krishak Nagar, Raipur - CECB",01-05-2024 17:00:00,21.237755,81.705301,OZONE,1,27,14
India,Chhattisgarh,Raipur,"Siltara Phase-II, Raipur - CECB",01-05-2024 17:00:00,21.371751,81.664929,NH3,3,3,3
India,Chhattisgarh,Tumidih,"OP Jindal Industrial Park, Tumidih - CECB",01-05-2024 17:00:00,22.06631475,83.33820077,NO2,11,83,29
India,Chhattisgarh,Tumidih,"OP Jindal Industrial Park, Tumidih - CECB",01-05-2024 17:00:00,22.06631475,83.33820077,CO,14,70,27
India,Chhattisgarh,Tumidih,"OP Jindal Industrial Park, Tumidih - CECB",01-05-2024 17:00:00,22.06631475,83.33820077,OZONE,20,84,60
India,Delhi,Delhi,"Alipur, Delhi - DPCC",01-05-2024 17:00:00,28.815329,77.153010,NH3,3,8,5
India,Delhi,Delhi,"Alipur, Delhi - DPCC",01-05-2024 17:00:00,28.815329,77.153010,CO,36,100,37
India,Delhi,Delhi,"Anand Vihar, Delhi - DPCC",01-05-2024 17:00:00,28.647622,77.3158090,NO2,43,146,82
India,Delhi,Delhi,"Anand Vihar, Delhi - DPCC",01-05-2024 17:00:00,28.647622,77.3158090,SO2,17,70,40
India,Delhi,Delhi,"Anand Vihar, Delhi - DPCC",01-05-2024 17:00:00,28.647622,77.3158090,CO,10,103,25
India,Delhi,Delhi,"Anand Vihar, Delhi - DPCC",01-05-2024 17:00:00,28.647622,77.3158090,OZONE,5,90,71
India,Delhi,Delhi,"Ashok Vihar, Delhi - DPCC",01-05-2024 17:00:00,28.695381,77.181665,OZONE,2,31,25
India,Delhi,Delhi,"Aya Nagar, Delhi - IMD",01-05-2024 17:00:00,28.4706914,77.1099364,PM10,119,326,184
India,Delhi,Delhi,"Aya Nagar, Delhi - IMD",01-05-2024 17:00:00,28.4706914,77.1099364,NO2,22,34,28
India,Delhi,Delhi,"Aya Nagar, Delhi - IMD",01-05-2024 17:00:00,28.4706914,77.1099364,CO,28,80,56
India,Delhi,Delhi,"Bawana, Delhi - DPCC",01-05-2024 17:00:00,28.776200,77.051074,NO2,12,112,42
India,Delhi,Delhi,"Burari Crossing, Delhi - IMD",01-05-2024 17:00:00,28.7256504,77.2011573,PM10,146,407,239
India,Delhi,Delhi,"Chandni Chowk, Delhi - IITM",01-05-2024 17:00:00,28.656756,77.227234,PM10,NA,NA,NA
India,Delhi,Delhi,"DTU, Delhi - CPCB",01-05-2024 17:00:00,28.7500499,77.1112615,PM2.5,58,321,162
India,Delhi,Delhi,"DTU, Delhi - CPCB",01-05-2024 17:00:00,28.7500499,77.1112615,OZONE,31,237,176
India,Delhi,Delhi,"Dr. Karni Singh Shooting Range, Delhi - DPCC",01-05-2024 17:00:00,28.498571,77.264840,PM2.5,31,299,114
India,Delhi,Delhi,"Dwarka-Sector 8, Delhi - DPCC ",01-05-2024 17:00:00,28.5710274,77.0719006,CO,36,128,42
India,Delhi,Delhi,"IGI Airport (T3), Delhi - IMD",01-05-2024 17:00:00,28.5627763,77.1180053,CO,21,100,28
India,Delhi,Delhi,"IHBAS, Dilshad Garden, Delhi - CPCB",01-05-2024 17:00:00,28.6811736,77.3025234,PM2.5,78,235,119
India,Delhi,Delhi,"Jahangirpuri, Delhi - DPCC",01-05-2024 17:00:00,28.732820,77.170633,PM10,159,420,260
India,Delhi,Delhi,"Jawaharlal Nehru Stadium, Delhi - DPCC",01-05-2024 17:00:00,28.580280,77.233829,PM2.5,18,209,61
India,Delhi,Delhi,"Jawaharlal Nehru Stadium, Delhi - DPCC",01-05-2024 17:00:00,28.580280,77.233829,OZONE,1,181,167
India,Delhi,Delhi,"Lodhi Road, Delhi - IITM",01-05-2024 17:00:00,28.588333,77.221667,CO,60,66,62
India,Delhi,Delhi,"Lodhi Road, Delhi - IMD",01-05-2024 17:00:00,28.5918245,77.2273074,CO,8,24,16
India,Delhi,Delhi,"Lodhi Road, Delhi - IMD",01-05-2024 17:00:00,28.5918245,77.2273074,OZONE,5,62,49
India,Delhi,Delhi,"Mandir Marg, Delhi - DPCC",01-05-2024 17:00:00,28.636429,77.201067,PM2.5,34,192,79
India,Delhi,Delhi,"Mandir Marg, Delhi - DPCC",01-05-2024 17:00:00,28.636429,77.201067,NO2,87,112,102
India,Delhi,Delhi,"Mundka, Delhi - DPCC",01-05-2024 17:00:00,28.684678,77.076574,CO,32,90,35
India,Delhi,Delhi,"NSIT Dwarka, Delhi - CPCB",01-05-2024 17:00:00,28.60909,77.0325413,CO,26,50,34
India,Delhi,Delhi,"NSIT Dwarka, Delhi - CPCB",01-05-2024 17:00:00,28.60909,77.0325413,OZONE,12,83,70
India,Delhi,Delhi,"Najafgarh, Delhi - DPCC",01-05-2024 17:00:00,28.570173,76.933762,PM10,96,422,196
India,Delhi,Delhi,"Najafgarh, Delhi - DPCC",01-05-2024 17:00:00,28.570173,76.933762,NO2,22,126,54
India,Delhi,Delhi,"Narela, Delhi - DPCC",01-05-2024 17:00:00,28.822836,77.101981,PM2.5,32,329,152
India,Delhi,Delhi,"New Moti Bagh, Delhi - MHUA",01-05-2024 17:00:00,28.57834,77.18400,PM2.5,29,334,120
India,Delhi,Delhi,"New Moti Bagh, Delhi - MHUA",01-05-2024 17:00:00,28.57834,77.18400,NO2,5,41,12
India,Delhi,Delhi,"Okhla Phase-2, Delhi - DPCC",01-05-2024 17:00:00,28.530785,77.271255,NH3,5,8,6
India,Delhi,Delhi,"Punjabi Bagh, Delhi - DPCC",01-05-2024 17:00:00,28.674045,77.131023,PM2.5,55,312,170
India,Delhi,Delhi,"Pusa, Delhi - DPCC",01-05-2024 17:00:00,28.639652,77.146275,PM10,163,341,228
India,Delhi,Delhi,"Pusa, Delhi - DPCC",01-05-2024 17:00:00,28.639652,77.146275,OZONE,10,83,70
India,Delhi,Delhi,"Pusa, Delhi - IMD",01-05-2024 17:00:00,28.636110,77.173332,CO,28,74,34
India,Delhi,Delhi,"R K Puram, Delhi - DPCC",01-05-2024 17:00:00,28.563262,77.186937,PM2.5,42,307,144
India,Delhi,Delhi,"R K Puram, Delhi - DPCC",01-05-2024 17:00:00,28.563262,77.186937,PM10,134,352,214
India,Delhi,Delhi,"R K Puram, Delhi - DPCC",01-05-2024 17:00:00,28.563262,77.186937,NH3,1,3,2
India,Delhi,Delhi,"Rohini, Delhi - DPCC",01-05-2024 17:00:00,28.732528,77.119920,PM2.5,26,331,142
India,Delhi,Delhi,"Rohini, Delhi - DPCC",01-05-2024 17:00:00,28.732528,77.119920,NH3,6,10,8
India,Delhi,Delhi,"Rohini, Delhi - DPCC",01-05-2024 17:00:00,28.732528,77.119920,CO,16,119,20
India,Delhi,Delhi,"Sirifort, Delhi - CPCB",01-05-2024 17:00:00,28.5504249,77.2159377,CO,6,134,21
India,Delhi,Delhi,"Sonia Vihar, Delhi - DPCC",01-05-2024 17:00:00,28.710508,77.249485,PM10,114,265,177
India,Delhi,Delhi,"Sri Aurobindo Marg, Delhi - DPCC",01-05-2024 17:00:00,28.531346,77.190156,PM2.5,32,302,93
India,Delhi,Delhi,"Sri Aurobindo Marg, Delhi - DPCC",01-05-2024 17:00:00,28.531346,77.190156,PM10,116,249,159
India,Delhi,Delhi,"Vivek Vihar, Delhi - DPCC",01-05-2024 17:00:00,28.672342,77.315260,NO2,20,126,51
India,Delhi,Delhi,"Vivek Vihar, Delhi - DPCC",01-05-2024 17:00:00,28.672342,77.315260,OZONE,6,135,79
India,Delhi,Delhi,"Wazirpur, Delhi - DPCC",01-05-2024 17:00:00,28.699793,77.165453,PM2.5,30,305,134
India,Delhi,Delhi,"Wazirpur, Delhi - DPCC",01-05-2024 17:00:00,28.699793,77.165453,NH3,11,14,13
India,Delhi,Delhi,"Wazirpur, Delhi - DPCC",01-05-2024 17:00:00,28.699793,77.165453,SO2,5,28,16
India,Gujarat,Ahmedabad,"Raikhad, Ahmedabad - IITM",01-05-2024 17:00:00,23.020509,72.579261,PM2.5,119,334,275
India,Gujarat,Ahmedabad,"Raikhad, Ahmedabad - IITM",01-05-2024 17:00:00,23.020509,72.579261,NH3,3,6,5
India,Gujarat,Ahmedabad,"Rakhial, Ahmedabad - IITM",01-05-2024 17:00:00,23.016834,72.625775,PM2.5,95,177,137
India,Gujarat,Ahmedabad,"Rakhial, Ahmedabad - IITM",01-05-2024 17:00:00,23.016834,72.625775,PM10,113,152,132
India,Gujarat,Ahmedabad,"SAC ISRO Satellite, Ahmedabad - IITM",01-05-2024 17:00:00,23.023389,72.515201,CO,40,42,41
India,Gujarat,Ankleshwar,"GIDC, Ankleshwar - GPCB",01-05-2024 17:00:00,21.613267,73.010555,PM10,72,121,92
India,Gujarat,Ankleshwar,"GIDC, Ankleshwar - GPCB",01-05-2024 17:00:00,21.613267,73.010555,CO,20,101,39
India,Gujarat,Ankleshwar,"GIDC, Ankleshwar - GPCB",01-05-2024 17:00:00,21.613267,73.010555,OZONE,20,34,31
India,Gujarat,Gandhinagar,"Sector-10, Gandhinagar - GPCB",01-05-2024 17:00:00,23.221714,72.654328,NO2,17,250,45
India,Gujarat,Gandhinagar,"Sector-10, Gandhinagar - GPCB",01-05-2024 17:00:00,23.221714,72.654328,CO,31,86,36
India,Gujarat,Nandesari,"GIDC, Nandesari - Nandesari Ind. Association",01-05-2024 17:00:00,22.410802,73.097923,PM10,86,366,157
India,Gujarat,Surat,"Science Center, Surat - SMC",01-05-2024 17:00:00,21.170046,72.795405,NO2,39,57,48
India,Gujarat,Vapi,"Phase-1 GIDC, Vapi - GPCB",01-05-2024 17:00:00,20.362421,72.918013,OZONE,1,3,2
India,Haryana,Ballabgarh,"Nathu Colony, Ballabgarh - HSPCB",01-05-2024 17:00:00,28.3419248,77.319699,PM2.5,63,340,214
India,Haryana,Ballabgarh,"Nathu Colony, Ballabgarh - HSPCB",01-05-2024 17:00:00,28.3419248,77.319699,PM10,144,400,219
India,Haryana,Ballabgarh,"Nathu Colony, Ballabgarh - HSPCB",01-05-2024 17:00:00,28.3419248,77.319699,NH3,1,2,2
India,Haryana,Ballabgarh,"Nathu Colony, Ballabgarh - HSPCB",01-05-2024 17:00:00,28.3419248,77.319699,SO2,3,39,16
India,Haryana,Bhiwani,"H.B. Colony, Bhiwani - HSPCB",01-05-2024 17:00:00,28.806223,76.141105,PM10,68,177,113
India,Haryana,Bhiwani,"H.B. Colony, Bhiwani - HSPCB",01-05-2024 17:00:00,28.806223,76.141105,NO2,5,12,9
India,Haryana,Charkhi Dadri,"Mini Secretariat, Charkhi Dadri - HSPCB",01-05-2024 17:00:00,28.593883,76.270653,NH3,6,8,7
India,Haryana,Charkhi Dadri,"Mini Secretariat, Charkhi Dadri - HSPCB",01-05-2024 17:00:00,28.593883,76.270653,SO2,20,60,36
India,Haryana,Charkhi Dadri,"Mini Secretariat, Charkhi Dadri - HSPCB",01-05-2024 17:00:00,28.593883,76.270653,CO,25,100,30
India,Haryana,Faridabad,"New Industrial Town, Faridabad - HSPCB",01-05-2024 17:00:00,28.39072,77.30059,NO2,4,15,12
India,Haryana,Faridabad,"New Industrial Town, Faridabad - HSPCB",01-05-2024 17:00:00,28.39072,77.30059,CO,6,39,9
India,Haryana,Faridabad,"Sector 11, Faridabad - HSPCB",01-05-2024 17:00:00,28.376058,77.315741,OZONE,4,16,13
India,Haryana,Faridabad,"Sector- 16A, Faridabad - HSPCB",01-05-2024 17:00:00,28.4088421,77.3099081,CO,1,53,11
India,Haryana,Gurugram,"Sector-51, Gurugram - HSPCB",01-05-2024 17:00:00,28.4227,77.0667,PM2.5,153,479,339
India,Haryana,Gurugram,"Teri Gram, Gurugram - HSPCB",01-05-2024 17:00:00,28.4275,77.1465,PM10,143,291,177
India,Haryana,Gurugram,"Vikas Sadan, Gurugram - HSPCB",01-05-2024 17:00:00,28.4501238,77.0263051,PM2.5,142,437,310
India,Haryana,Gurugram,"Vikas Sadan, Gurugram - HSPCB",01-05-2024 17:00:00,28.4501238,77.0263051,SO2,23,45,35
India,Haryana,Gurugram,"Vikas Sadan, Gurugram - HSPCB",01-05-2024 17:00:00,28.4501238,77.0263051,OZONE,8,69,48
India,Haryana,Hisar,"Urban Estate-II, Hisar - HSPCB",01-05-2024 17:00:00,29.140560,75.744941,NH3,7,21,10
India,Haryana,Hisar,"Urban Estate-II, Hisar - HSPCB",01-05-2024 17:00:00,29.140560,75.744941,CO,20,102,25
India,Haryana,Jind,"Police Lines, Jind - HSPCB",01-05-2024 17:00:00,29.307814,76.337619,PM10,72,177,105
India,Haryana,Jind,"Police Lines, Jind - HSPCB",01-05-2024 17:00:00,29.307814,76.337619,SO2,3,31,10
India,Haryana,Kaithal,"Rishi Nagar, Kaithal - HSPCB",01-05-2024 17:00:00,29.8006,76.4155,PM10,118,286,165
India,Haryana,Karnal,"Sector-12, Karnal - HSPCB",01-05-2024 17:00:00,29.695300,77.002700,PM2.5,NA,NA,NA
India,Haryana,Karnal,"Sector-12, Karnal - HSPCB",01-05-2024 17:00:00,29.695300,77.002700,PM10,62,122,93
India,Haryana,Karnal,"Sector-12, Karnal - HSPCB",01-05-2024 17:00:00,29.695300,77.002700,CO,16,38,23
India,Haryana,Kurukshetra,"Sector-7, Kurukshetra - HSPCB",01-05-2024 17:00:00,29.966942,76.875879,PM10,66,147,99
India,Haryana,Kurukshetra,"Sector-7, Kurukshetra - HSPCB",01-05-2024 17:00:00,29.966942,76.875879,NO2,10,10,10
India,Haryana,Kurukshetra,"Sector-7, Kurukshetra - HSPCB",01-05-2024 17:00:00,29.966942,76.875879,NH3,5,5,5
India,Haryana,Kurukshetra,"Sector-7, Kurukshetra - HSPCB",01-05-2024 17:00:00,29.966942,76.875879,OZONE,26,75,61
India,Haryana,Mandikhera,"General Hospital, Mandikhera - HSPCB",01-05-2024 17:00:00,27.9002,76.9938,NO2,20,24,22
India,Haryana,Narnaul,"Shastri Nagar, Narnaul - HSPCB",01-05-2024 17:00:00,28.060249,76.113115,NO2,15,84,47
India,Haryana,Narnaul,"Shastri Nagar, Narnaul - HSPCB",01-05-2024 17:00:00,28.060249,76.113115,NH3,5,27,15
India,Haryana,Narnaul,"Shastri Nagar, Narnaul - HSPCB",01-05-2024 17:00:00,28.060249,76.113115,CO,10,34,18
India,Haryana,Palwal,"Shyam Nagar, Palwal - HSPCB",01-05-2024 17:00:00,28.1485564,77.3320667,NH3,9,9,9
India,Haryana,Panipat,"Sector-18, Panipat - HSPCB",01-05-2024 17:00:00,29.497973,76.993331,SO2,18,19,19
India,Haryana,Rohtak,"MD University, Rohtak - HSPCB",01-05-2024 17:00:00,28.52123,76.37138,CO,2,104,56
India,Haryana,Sirsa,"F-Block, Sirsa - HSPCB",01-05-2024 17:00:00,29.536400,75.015800,PM10,60,500,130
India,Haryana,Sirsa,"F-Block, Sirsa - HSPCB",01-05-2024 17:00:00,29.536400,75.015800,SO2,3,12,7
India,Haryana,Sonipat,"Murthal, Sonipat - HSPCB",01-05-2024 17:00:00,29.027200,77.062100,NH3,7,10,9
India,Haryana,Sonipat,"Murthal, Sonipat - HSPCB",01-05-2024 17:00:00,29.027200,77.062100,OZONE,17,36,32
India,Haryana,Yamuna Nagar,"Gobind Pura, Yamuna Nagar - HSPCB",01-05-2024 17:00:00,30.1480566,77.2893471,PM2.5,58,113,83
India,Haryana,Yamuna Nagar,"Gobind Pura, Yamuna Nagar - HSPCB",01-05-2024 17:00:00,30.1480566,77.2893471,CO,34,55,37
India,Himachal Pradesh,Baddi,"HIMUDA Complex Phase-1, Baddi - HPPCB",01-05-2024 17:00:00,30.943887,76.801991,PM10,86,175,123
India,Himachal Pradesh,Baddi,"HIMUDA Complex Phase-1, Baddi - HPPCB",01-05-2024 17:00:00,30.943887,76.801991,NH3,2,4,3
India,Jharkhand,Dhanbad,"Kalakusuma, Dhanbad - DMC",01-05-2024 17:00:00,23.811548,86.481238,PM10,12,425,121
India,Karnataka,Belgaum,"Ramteerth Nagar, Belgaum - KSPCB",01-05-2024 17:00:00,15.888653,74.541751,PM2.5,17,32,25
India,Karnataka,Bengaluru,"BTM Layout, Bengaluru - CPCB",01-05-2024 17:00:00,12.9135218,77.5950804,CO,22,31,28
India,Karnataka,Bengaluru,"Bapuji Nagar, Bengaluru - KSPCB",01-05-2024 17:00:00,12.951913,77.539784,PM2.5,60,128,83
India,Karnataka,Bengaluru,"Bapuji Nagar, Bengaluru - KSPCB",01-05-2024 17:00:00,12.951913,77.539784,CO,13,48,26
India,Karnataka,Bengaluru,"Hebbal, Bengaluru - KSPCB",01-05-2024 17:00:00,13.029152,77.585901,SO2,10,20,15
India,Karnataka,Bengaluru,"Jayanagar 5th Block, Bengaluru - KSPCB",01-05-2024 17:00:00,12.920984,77.584908,PM10,63,154,103
India,Karnataka,Bengaluru,"Kasturi Nagar, Bengaluru - KSPCB",01-05-2024 17:00:00,13.003872,77.664217,NO2,16,17,17
India,Karnataka,Bengaluru,"Peenya, Bengaluru - CPCB",01-05-2024 17:00:00,13.0270199,77.494094,OZONE,9,56,31
India,Karnataka,Bengaluru,"RVCE-Mailasandra, Bengaluru - KSPCB",01-05-2024 17:00:00,12.921418,77.502466,PM10,37,109,82
India,Karnataka,Bengaluru,"RVCE-Mailasandra, Bengaluru - KSPCB",01-05-2024 17:00:00,12.921418,77.502466,NO2,16,17,17
India,Karnataka,Bengaluru,"RVCE-Mailasandra, Bengaluru - KSPCB",01-05-2024 17:00:00,12.921418,77.502466,OZONE,39,39,39
India,Karnataka,Bengaluru,"Shivapura_Peenya, Bengaluru - KSPCB",01-05-2024 17:00:00,13.0246342,77.5080115,NO2,15,16,15
India,Karnataka,Bengaluru,"Shivapura_Peenya, Bengaluru - KSPCB",01-05-2024 17:00:00,13.0246342,77.5080115,CO,16,48,24
India,Karnataka,Bengaluru,"Silk Board, Bengaluru - KSPCB",01-05-2024 17:00:00,12.917348,77.622813,NO2,9,19,14
India,Karnataka,Chamarajanagar,"Urban, Chamarajanagar - KSPCB",01-05-2024 17:00:00,11.55358,76.55521,SO2,4,11,8
India,Karnataka,Chamarajanagar,"Urban, Chamarajanagar - KSPCB",01-05-2024 17:00:00,11.55358,76.55521,CO,16,120,23
India,Karnataka,Chamarajanagar,"Urban, Chamarajanagar - KSPCB",01-05-2024 17:00:00,11.55358,76.55521,OZONE,28,42,30
India,Karnataka,Chikkaballapur,"Chikkaballapur Rural, Chikkaballapur - KSPCB",01-05-2024 17:00:00,13.428828,77.731418,PM10,51,91,67
India,Karnataka,Davanagere,"Devaraj Urs Badavane, Davanagere - KSPCB",01-05-2024 17:00:00,14.475800,75.905200,NH3,NA,NA,NA
India,Karnataka,Dharwad,"Kalabhavan, Dharwad - KSPCB",01-05-2024 17:00:00,15.459706,75.008381,PM2.5,61,167,89
India,Karnataka,Dharwad,"Kalabhavan, Dharwad - KSPCB",01-05-2024 17:00:00,15.459706,75.008381,NO2,2,18,10
India,Karnataka,Gadag,"Panchal Nagar, Gadag - KSPCB",01-05-2024 17:00:00,15.411456,75.638133,NO2,3,21,13
India,Karnataka,Gadag,"Panchal Nagar, Gadag - KSPCB",01-05-2024 17:00:00,15.411456,75.638133,SO2,9,17,14
India,Karnataka,Haveri,"Ashwini Nagar, Haveri - KSPCB",01-05-2024 17:00:00,14.791800,75.389600,PM10,68,69,69
India,Karnataka,Haveri,"Ashwini Nagar, Haveri - KSPCB",01-05-2024 17:00:00,14.791800,75.389600,NH3,2,4,3
India,Karnataka,Haveri,"Ashwini Nagar, Haveri - KSPCB",01-05-2024 17:00:00,14.791800,75.389600,OZONE,18,20,19
India,Karnataka,Hubballi,"Deshpande Nagar, Hubballi - KSPCB",01-05-2024 17:00:00,15.351773,75.140726,OZONE,3,11,8
India,Karnataka,Hubballi,"Lingaraj Nagar, Hubballi - KSPCB",01-05-2024 17:00:00,15.3714823,75.1160168,PM2.5,37,61,49
India,Karnataka,Hubballi,"Lingaraj Nagar, Hubballi - KSPCB",01-05-2024 17:00:00,15.3714823,75.1160168,PM10,46,82,67
India,Karnataka,Hubballi,"Lingaraj Nagar, Hubballi - KSPCB",01-05-2024 17:00:00,15.3714823,75.1160168,CO,1,28,15
India,Karnataka,Kalaburagi,"Lal Bahadur Shastri Nagar, Kalaburagi - KSPCB",01-05-2024 17:00:00,17.321993,76.822628,NH3,1,2,2
India,Karnataka,Kalaburagi,"Lal Bahadur Shastri Nagar, Kalaburagi - KSPCB",01-05-2024 17:00:00,17.321993,76.822628,CO,44,80,45
India,Karnataka,Kalaburagi,"Mahatma Basaveswar Colony, Kalaburgi - KSPCB",01-05-2024 17:00:00,17.336318,76.847397,SO2,4,10,6
India,Karnataka,Kalaburagi,"Mahatma Basaveswar Colony, Kalaburgi - KSPCB",01-05-2024 17:00:00,17.336318,76.847397,CO,32,114,34
India,Karnataka,Karwar,"KHB Colony, Karwar - KSPCB",01-05-2024 17:00:00,14.816666,74.141003,SO2,21,22,22
India,Karnataka,Karwar,"KHB Colony, Karwar - KSPCB",01-05-2024 17:00:00,14.816666,74.141003,OZONE,21,22,21
India,Karnataka,Kolar,"Tamaka Ind. Area, Kolar - KSPCB",01-05-2024 17:00:00,13.1276288,78.1570122,PM2.5,25,111,47
India,Karnataka,Kolar,"Tamaka Ind. Area, Kolar - KSPCB",01-05-2024 17:00:00,13.1276288,78.1570122,NO2,20,28,23
India,Karnataka,Kolar,"Tamaka Ind. Area, Kolar - KSPCB",01-05-2024 17:00:00,13.1276288,78.1570122,SO2,9,16,10
India,Karnataka,Koppal,"Diwator Nagar, Koppal - KSPCB",01-05-2024 17:00:00,15.347630,76.181767,PM10,29,90,39
India,Karnataka,Madikeri,"Stuart Hill, Madikeri - KSPCB",01-05-2024 17:00:00,12.415911,75.735050,CO,8,58,28
India,Karnataka,Mangalore,"Kadri, Mangalore - KSPCB",01-05-2024 17:00:00,12.889250,74.853000,SO2,15,17,16
India,Karnataka,Mangalore,"Kadri, Mangalore - KSPCB",01-05-2024 17:00:00,12.889250,74.853000,OZONE,30,32,31
India,Karnataka,Mysuru,"Hebbal 1st Stage, Mysuru - KSPCB",01-05-2024 17:00:00,12.21041,76.37376,NH3,1,2,2
India,Karnataka,Shivamogga,"Vinoba Nagara, Shivamogga - KSPCB",01-05-2024 17:00:00,13.940000,75.555917,SO2,3,10,5
India,Karnataka,Shivamogga,"Vinoba Nagara, Shivamogga - KSPCB",01-05-2024 17:00:00,13.940000,75.555917,CO,6,50,19
India,Karnataka,Vijayapura,"Ibrahimpur, Vijayapura - KSPCB",01-05-2024 17:00:00,16.802639,75.722694,PM10,41,43,42
India,Karnataka,Vijayapura,"Ibrahimpur, Vijayapura - KSPCB",01-05-2024 17:00:00,16.802639,75.722694,NO2,17,19,19
India,Karnataka,Yadgir,"Collector Office, Yadgir - KSPCB",01-05-2024 17:00:00,16.7602,77.1428,SO2,1,57,18
India,Kerala,Eloor,"Udyogamandal, Eloor - Kerala PCB",01-05-2024 17:00:00,10.073232,76.302765,PM2.5,27,49,36
India,Kerala,Kollam,"Polayathode, Kollam - Kerala PCB",01-05-2024 17:00:00,8.8787,76.6073,NO2,NA,NA,NA
India,Kerala,Kollam,"Polayathode, Kollam - Kerala PCB",01-05-2024 17:00:00,8.8787,76.6073,NH3,NA,NA,NA
India,Kerala,Kollam,"Polayathode, Kollam - Kerala PCB",01-05-2024 17:00:00,8.8787,76.6073,SO2,NA,NA,NA
India,Kerala,Thiruvananthapuram,"Kariavattom, Thiruvananthapuram - Kerala PCB",01-05-2024 17:00:00,8.563700,76.886500,NH3,1,1,1
India,Kerala,Thiruvananthapuram,"Kariavattom, Thiruvananthapuram - Kerala PCB",01-05-2024 17:00:00,8.563700,76.886500,SO2,1,12,7
India,Kerala,Thiruvananthapuram,"Plammoodu, Thiruvananthapuram - Kerala PCB",01-05-2024 17:00:00,8.5149093,76.9435879,NO2,7,10,8
India,Kerala,Thrissur,"Corporation Ground, Thrissur - Kerala PCB",01-05-2024 17:00:00,10.532400,76.215900,PM10,61,68,65
India,Madhya Pradesh,Bhopal,"Idgah Hills, Bhopal - MPPCB",01-05-2024 17:00:00,23.264759,77.381568,CO,25,76,29
India,Madhya Pradesh,Bhopal,"Paryavaran Parisar, Bhopal - MPPCB",01-05-2024 17:00:00,23.210494,77.425409,SO2,NA,NA,NA
India,Madhya Pradesh,Bhopal,"Paryavaran Parisar, Bhopal - MPPCB",01-05-2024 17:00:00,23.210494,77.425409,OZONE,85,97,92
India,Madhya Pradesh,Bhopal,"T T Nagar, Bhopal - MPPCB",01-05-2024 17:00:00,23.233584,77.400574,PM10,103,158,133
India,Madhya Pradesh,Dewas,"Bhopal Chauraha, Dewas - MPPCB",01-05-2024 17:00:00,22.9682591,76.064118,OZONE,18,52,45
India,Madhya Pradesh,Gwalior,"City Center, Gwalior - MPPCB",01-05-2024 17:00:00,26.203442,78.193251,PM2.5,33,88,55
India,Madhya Pradesh,Gwalior,"Deen Dayal Nagar, Gwalior - MPPCB",01-05-2024 17:00:00,26.259242,78.216432,PM10,104,244,166
India,Madhya Pradesh,Gwalior,"Maharaj Bada, Gwalior - MPPCB",01-05-2024 17:00:00,26.200388,78.147714,NO2,NA,NA,NA
India,Madhya Pradesh,Gwalior,"Phool Bagh, Gwalior - Mondelez Ind. Food",01-05-2024 17:00:00,26.210536,78.171,PM10,45,128,81
India,Madhya Pradesh,Gwalior,"Phool Bagh, Gwalior - Mondelez Ind. Food",01-05-2024 17:00:00,26.210536,78.171,NO2,4,5,4
India,Madhya Pradesh,Indore,"Chhoti Gwaltoli, Indore - MPPCB",01-05-2024 17:00:00,22.4310,75.5213,SO2,11,38,22
India,Madhya Pradesh,Indore,"Maguda Nagar, Indore - IMC",01-05-2024 17:00:00,22.7524,75.8872,OZONE,49,51,50
India,Madhya Pradesh,Jabalpur,"Govindh Bhavan Colony, Jabalpur - JMC",01-05-2024 17:00:00,23.163174,79.973061,PM10,49,90,71
India,Madhya Pradesh,Jabalpur,"Gupteshwar, Jabalpur - JMC",01-05-2024 17:00:00,23.142888,79.916147,SO2,8,29,14
India,Madhya Pradesh,Jabalpur,"Marhatal, Jabalpur - MPPCB",01-05-2024 17:00:00,23.168606,79.932247,NO2,14,102,44
India,Madhya Pradesh,Jabalpur,"Marhatal, Jabalpur - MPPCB",01-05-2024 17:00:00,23.168606,79.932247,OZONE,19,88,81
India,Madhya Pradesh,Katni,"Gole Bazar, Katni - MPPCB",01-05-2024 17:00:00,23.50016,80.23284,PM2.5,25,154,68
India,Madhya Pradesh,Katni,"Gole Bazar, Katni - MPPCB",01-05-2024 17:00:00,23.50016,80.23284,PM10,92,300,161
India,Madhya Pradesh,Pithampur,"Sector-2 Industrial Area, Pithampur - MPPCB",01-05-2024 17:00:00,22.624758,75.675238,PM2.5,10,109,45
India,Madhya Pradesh,Pithampur,"Sector-2 Industrial Area, Pithampur - MPPCB",01-05-2024 17:00:00,22.624758,75.675238,PM10,111,196,143
India,Madhya Pradesh,Pithampur,"Sector-2 Industrial Area, Pithampur - MPPCB",01-05-2024 17:00:00,22.624758,75.675238,NO2,5,21,11
India,Madhya Pradesh,Ratlam,"Shasthri Nagar, Ratlam - IPCA Lab",01-05-2024 17:00:00,23.331731,75.045981,PM2.5,18,79,50
India,Madhya Pradesh,Ratlam,"Shasthri Nagar, Ratlam - IPCA Lab",01-05-2024 17:00:00,23.331731,75.045981,PM10,118,267,155
India,Madhya Pradesh,Sagar,"Civil Lines, Sagar - MPPCB",01-05-2024 17:00:00,23.838586,78.759431,PM2.5,30,108,65
India,Madhya Pradesh,Singrauli,"Suryakiran Bhawan NCL, Singrauli - MPPCB",01-05-2024 17:00:00,24.108970,82.645580,SO2,39,119,55
India,Madhya Pradesh,Ujjain,"Mahakaleshwar Temple, Ujjain - MPPCB",01-05-2024 17:00:00,23.182719 ,75.768218 ,CO,9,43,22
India,Maharashtra,Ahmednagar,"Tarakpur, Ahmednagar - MPCB",01-05-2024 17:00:00,19.10122,74.73339,PM2.5,18,54,39
India,Maharashtra,Ahmednagar,"Tarakpur, Ahmednagar - MPCB",01-05-2024 17:00:00,19.10122,74.73339,OZONE,17,119,95
India,Maharashtra,Akola,"Ramdaspeth, Akola - MPCB",01-05-2024 17:00:00,20.719516,77.000253,CO,14,57,16
India,Maharashtra,Amravati,"Shivneri Colony, Amravati - MPCB",01-05-2024 17:00:00,20.9402359,77.7895248,PM10,92,126,110
India,Maharashtra,Amravati,"Shivneri Colony, Amravati - MPCB",01-05-2024 17:00:00,20.9402359,77.7895248,CO,11,58,16
India,Maharashtra,Amravati,"Shri Shivaji Science College, Amaravati - MPCB",01-05-2024 17:00:00,20.939198,77.765701,PM2.5,40,96,64
India,Maharashtra,Amravati,"Shri Shivaji Science College, Amaravati - MPCB",01-05-2024 17:00:00,20.939198,77.765701,NO2,3,141,39
India,Maharashtra,Aurangabad,"MIDC Chilkalthana, Aurangabad - MPCB",01-05-2024 17:00:00,19.875620,75.387310,PM2.5,NA,NA,NA
India,Maharashtra,Aurangabad,"MIDC Chilkalthana, Aurangabad - MPCB",01-05-2024 17:00:00,19.875620,75.387310,PM10,NA,NA,NA
India,Maharashtra,Aurangabad,"MIDC Chilkalthana, Aurangabad - MPCB",01-05-2024 17:00:00,19.875620,75.387310,NH3,NA,NA,NA
India,Maharashtra,Aurangabad,"Rachnakar Colony, Aurangabad - MPCB",01-05-2024 17:00:00,19.863756,75.321188,NO2,8,76,29
India,Maharashtra,Aurangabad,"Rachnakar Colony, Aurangabad - MPCB",01-05-2024 17:00:00,19.863756,75.321188,NH3,1,1,1
India,Maharashtra,Belapur,"CBD Belapur, Belapur - MPCB",01-05-2024 17:00:00,19.0243902,73.0406721,SO2,3,9,4
India,Maharashtra,Bhiwandi,"Gokul Nagar, Bhiwandi - MPCB",01-05-2024 17:00:00,19.309073,73.057223,PM2.5,31,104,58
India,Maharashtra,Bhiwandi,"Gokul Nagar, Bhiwandi - MPCB",01-05-2024 17:00:00,19.309073,73.057223,PM10,84,126,102
India,Maharashtra,Bhiwandi,"Gokul Nagar, Bhiwandi - MPCB",01-05-2024 17:00:00,19.309073,73.057223,SO2,21,26,23
India,Maharashtra,Bhiwandi,"Gokul Nagar, Bhiwandi - MPCB",01-05-2024 17:00:00,19.309073,73.057223,CO,10,86,12
India,Maharashtra,Chandrapur,"Chauhan Colony, Chandrapur - MPCB",01-05-2024 17:00:00,19.962900,79.298714,NO2,16,69,36
India,Maharashtra,Chandrapur,"Chauhan Colony, Chandrapur - MPCB",01-05-2024 17:00:00,19.962900,79.298714,NH3,1,1,1
India,Maharashtra,Dhule,"Deopur, Dhule - MPCB",01-05-2024 17:00:00,20.918946,74.776388,SO2,14,29,20
India,Maharashtra,Jalna,"Old MIDC, Jalna - MPCB",01-05-2024 17:00:00,19.854616,75.905894,CO,18,50,22
India,Maharashtra,Jalna,"Old MIDC, Jalna - MPCB",01-05-2024 17:00:00,19.854616,75.905894,OZONE,14,96,53
India,Maharashtra,Kalyan,"Khadakpada, Kalyan - MPCB",01-05-2024 17:00:00,19.25292,73.142019,PM10,88,177,133
India,Maharashtra,Kalyan,"Khadakpada, Kalyan - MPCB",01-05-2024 17:00:00,19.25292,73.142019,NH3,1,1,1
India,Maharashtra,Kalyan,"Khadakpada, Kalyan - MPCB",01-05-2024 17:00:00,19.25292,73.142019,SO2,25,37,30
India,Maharashtra,Kolhapur,"Shivaji University, Kolhapur - MPCB",01-05-2024 17:00:00,16.6870449,74.2505872,NH3,3,6,4
India,Maharashtra,Kolhapur,"Shivaji University, Kolhapur - MPCB",01-05-2024 17:00:00,16.6870449,74.2505872,CO,43,71,53
India,Maharashtra,Kolhapur,"Sinchan Bhavan, Kolhapur - MPCB",01-05-2024 17:00:00,16.7143745,74.2426398,PM2.5,NA,NA,NA
India,Maharashtra,Kolhapur,"Sinchan Bhavan, Kolhapur - MPCB",01-05-2024 17:00:00,16.7143745,74.2426398,PM10,NA,NA,NA
India,Maharashtra,Kolhapur,"Sinchan Bhavan, Kolhapur - MPCB",01-05-2024 17:00:00,16.7143745,74.2426398,NH3,7,8,7
India,Maharashtra,Kolhapur,"Sinchan Bhavan, Kolhapur - MPCB",01-05-2024 17:00:00,16.7143745,74.2426398,SO2,1,4,1
India,Maharashtra,Kolhapur,"Sinchan Bhavan, Kolhapur - MPCB",01-05-2024 17:00:00,16.7143745,74.2426398,OZONE,57,206,87
India,Maharashtra,Latur,"Sawe Wadi, Latur - MPCB",01-05-2024 17:00:00,18.39963,76.57452,SO2,5,16,10
India,Maharashtra,Latur,"Sawe Wadi, Latur - MPCB",01-05-2024 17:00:00,18.39963,76.57452,CO,2,41,9
India,Maharashtra,Malegaon,"Mahesh Nagar, Malegaon - MPCB",01-05-2024 17:00:00,20.555712,74.529236,NO2,11,86,30
India,Maharashtra,Malegaon,"Mahesh Nagar, Malegaon - MPCB",01-05-2024 17:00:00,20.555712,74.529236,CO,8,30,14
India,Maharashtra,Malegaon,"Mahesh Nagar, Malegaon - MPCB",01-05-2024 17:00:00,20.555712,74.529236,OZONE,19,98,86
India,Maharashtra,Mira-Bhayandar,"Bhayandar West, Mira-Bhayandar - MPCB",01-05-2024 17:00:00,19.296481,72.840923,NO2,4,26,10
India,Maharashtra,Mira-Bhayandar,"Bhayandar West, Mira-Bhayandar - MPCB",01-05-2024 17:00:00,19.296481,72.840923,OZONE,8,118,72
India,Maharashtra,Mumbai,"Bandra Kurla Complex, Mumbai - MPCB",01-05-2024 17:00:00,19.065931,72.862131,CO,12,40,32
India,Maharashtra,Mumbai,"Byculla, Mumbai - BMC",01-05-2024 17:00:00,18.9767,72.8380,NH3,2,3,3
India,Maharashtra,Mumbai,"Byculla, Mumbai - BMC",01-05-2024 17:00:00,18.9767,72.8380,OZONE,44,113,66
India,Maharashtra,Mumbai,"Chembur, Mumbai - MPCB",01-05-2024 17:00:00,19.0364585,72.8954371,NO2,21,124,37
India,Maharashtra,Mumbai,"Chembur, Mumbai - MPCB",01-05-2024 17:00:00,19.0364585,72.8954371,NH3,3,5,3
India,Maharashtra,Mumbai,"Chembur, Mumbai - MPCB",01-05-2024 17:00:00,19.0364585,72.8954371,CO,26,71,30
India,Maharashtra,Mumbai,"Chhatrapati Shivaji Intl. Airport (T2), Mumbai - MPCB",01-05-2024 17:00:00,19.10078,72.87462,CO,34,81,38
India,Maharashtra,Mumbai,"Chhatrapati Shivaji Intl. Airport (T2), Mumbai - MPCB",01-05-2024 17:00:00,19.10078,72.87462,OZONE,4,10,6
India,Maharashtra,Mumbai,"Deonar, Mumbai - IITM",01-05-2024 17:00:00,19.04946,72.9230,PM10,76,191,133
India,Maharashtra,Mumbai,"Ghatkopar, Mumbai - BMC",01-05-2024 17:00:00,19.083694,72.920967,SO2,1,2,1
India,Maharashtra,Mumbai,"Kandivali East, Mumbai - MPCB",01-05-2024 17:00:00,19.205800,72.868200,PM2.5,8,87,32
India,Maharashtra,Mumbai,"Kandivali East, Mumbai - MPCB",01-05-2024 17:00:00,19.205800,72.868200,CO,28,34,29
India,Maharashtra,Mumbai,"Kandivali West, Mumbai - BMC",01-05-2024 17:00:00,19.215859,72.831718,NO2,6,21,11
India,Maharashtra,Mumbai,"Kherwadi_Bandra East, Mumbai - MPCB",01-05-2024 17:00:00,19.0632143,72.8456324,CO,6,18,8
India,Maharashtra,Mumbai,"Kherwadi_Bandra East, Mumbai - MPCB",01-05-2024 17:00:00,19.0632143,72.8456324,OZONE,51,125,77
India,Maharashtra,Mumbai,"Kurla, Mumbai - MPCB",01-05-2024 17:00:00,19.0863,72.8888,PM2.5,19,67,40
India,Maharashtra,Mumbai,"Kurla, Mumbai - MPCB",01-05-2024 17:00:00,19.0863,72.8888,PM10,46,141,93
India,Maharashtra,Mumbai,"Kurla, Mumbai - MPCB",01-05-2024 17:00:00,19.0863,72.8888,CO,2,26,3
India,Maharashtra,Mumbai,"Mazgaon, Mumbai - IITM",01-05-2024 17:00:00,18.96702,72.84214,PM10,69,141,101
India,Maharashtra,Mumbai,"Mindspace-Malad West, Mumbai - MPCB",01-05-2024 17:00:00,19.1878657,72.8304069,OZONE,27,147,72
India,Maharashtra,Mumbai,"Mulund West, Mumbai - MPCB",01-05-2024 17:00:00,19.1750,72.9419,NH3,11,11,11
India,Maharashtra,Mumbai,"Mulund West, Mumbai - MPCB",01-05-2024 17:00:00,19.1750,72.9419,OZONE,NA,NA,NA
India,Maharashtra,Mumbai,"Navy Nagar-Colaba, Mumbai - IITM",01-05-2024 17:00:00,18.897756,72.813320,CO,12,39,22
India,Maharashtra,Mumbai,"Powai, Mumbai - MPCB",01-05-2024 17:00:00,19.137500,72.915056,CO,34,39,36
India,Maharashtra,Mumbai,"Sewri, Mumbai - BMC",01-05-2024 17:00:00,19.000084,72.856730,CO,8,33,11
India,Maharashtra,Mumbai,"Shivaji Nagar, Mumbai - BMC",01-05-2024 17:00:00,19.060498,72.923356,PM2.5,28,82,46
India,Maharashtra,Mumbai,"Siddharth Nagar-Worli, Mumbai - IITM",01-05-2024 17:00:00,19.000083,72.813993,NH3,3,7,5
India,Maharashtra,Mumbai,"Sion, Mumbai - MPCB",01-05-2024 17:00:00,19.047000,72.874600,OZONE,55,65,59
India,Maharashtra,Mumbai,"Vasai West, Mumbai - MPCB",01-05-2024 17:00:00,19.383200,72.820400,NO2,NA,NA,NA
India,Maharashtra,Mumbai,"Vile Parle West, Mumbai - MPCB",01-05-2024 17:00:00,19.10861,72.83622,NH3,NA,NA,NA
India,Maharashtra,Mumbai,"Vile Parle West, Mumbai - MPCB",01-05-2024 17:00:00,19.10861,72.83622,SO2,NA,NA,NA
India,Maharashtra,Mumbai,"Vile Parle West, Mumbai - MPCB",01-05-2024 17:00:00,19.10861,72.83622,CO,NA,NA,NA
India,Maharashtra,Mumbai,"Worli, Mumbai - MPCB",01-05-2024 17:00:00,18.9936162,72.8128113,PM2.5,NA,NA,NA
India,Maharashtra,Nagpur,"Ambazari, Nagpur - MPCB",01-05-2024 17:00:00,21.121801,79.04952,NH3,2,19,4
India,Maharashtra,Nagpur,"Ambazari, Nagpur - MPCB",01-05-2024 17:00:00,21.121801,79.04952,CO,7,157,10
India,Maharashtra,Nagpur,"Opp GPO Civil Lines, Nagpur - MPCB",01-05-2024 17:00:00,21.152875,79.0517531,PM2.5,23,101,61
India,Maharashtra,Nanded,"Sneh Nagar, Nanded - MPCB",01-05-2024 17:00:00,19.173852,77.296291,NH3,1,2,1
India,Maharashtra,Nanded,"Sneh Nagar, Nanded - MPCB",01-05-2024 17:00:00,19.173852,77.296291,SO2,10,15,12
India,Maharashtra,Nashik,"Gangapur Road, Nashik - MPCB",01-05-2024 17:00:00,20.0073285,73.7762427,SO2,6,16,11
India,Maharashtra,Nashik,"MIDC Ambad, Nashik - MPCB",01-05-2024 17:00:00,19.950220,73.731480,CO,10,28,13
India,Maharashtra,Nashik,"Pandav Nagari, Nashik - MPCB",01-05-2024 17:00:00,19.9591346,73.7788008,NO2,4,42,12
India,Maharashtra,Navi Mumbai,"Kopripada-Vashi, Navi Mumbai - MPCB",01-05-2024 17:00:00,19.090337,73.014232,PM2.5,16,166,55
India,Maharashtra,Navi Mumbai,"Kopripada-Vashi, Navi Mumbai - MPCB",01-05-2024 17:00:00,19.090337,73.014232,NH3,4,18,6
India,Maharashtra,Navi Mumbai,"Nerul, Navi Mumbai - MPCB",01-05-2024 17:00:00,19.008751,73.016620,PM2.5,32,110,58
India,Maharashtra,Navi Mumbai,"Nerul, Navi Mumbai - MPCB",01-05-2024 17:00:00,19.008751,73.016620,PM10,78,203,131
India,Maharashtra,Navi Mumbai,"Nerul, Navi Mumbai - MPCB",01-05-2024 17:00:00,19.008751,73.016620,CO,18,46,20
India,Maharashtra,Navi Mumbai,"Nerul, Navi Mumbai - MPCB",01-05-2024 17:00:00,19.008751,73.016620,OZONE,24,63,27
India,Maharashtra,Navi Mumbai,"Sanpada, Navi Mumbai - MPCB",01-05-2024 17:00:00,19.0575752,73.0151367,NH3,1,10,3
India,Maharashtra,Navi Mumbai,"Sanpada, Navi Mumbai - MPCB",01-05-2024 17:00:00,19.0575752,73.0151367,SO2,1,9,3
India,Maharashtra,Navi Mumbai,"Sector-2E Kalamboli, Navi Mumbai - MPCB",01-05-2024 17:00:00,19.02579,73.10297,PM2.5,62,163,103
India,Maharashtra,Navi Mumbai,"Sector-2E Kalamboli, Navi Mumbai - MPCB",01-05-2024 17:00:00,19.02579,73.10297,NH3,1,5,3
India,Maharashtra,Navi Mumbai,"Tondare-Taloja, Navi Mumbai - MPCB",01-05-2024 17:00:00,19.0630,73.1209,PM2.5,45,85,70
India,Maharashtra,Navi Mumbai,"Tondare-Taloja, Navi Mumbai - MPCB",01-05-2024 17:00:00,19.0630,73.1209,NO2,18,73,45
India,Maharashtra,Parbhani,"Masoom Colony, Parbhani - MPCB",01-05-2024 17:00:00,19.265594,76.761463,PM10,71,120,107
India,Maharashtra,Parbhani,"Masoom Colony, Parbhani - MPCB",01-05-2024 17:00:00,19.265594,76.761463,SO2,3,13,7
India,Maharashtra,Pimpri-Chinchwad,"Thergaon, Pimpri Chinchwad - MPCB",01-05-2024 17:00:00,18.616318,73.765797,CO,14,37,25
India,Maharashtra,Pimpri-Chinchwad,"Thergaon, Pimpri Chinchwad - MPCB",01-05-2024 17:00:00,18.616318,73.765797,OZONE,40,208,137
India,Maharashtra,Pune,"Alandi, Pune - IITM",01-05-2024 17:00:00,18.675076,73.892743,PM2.5,5,29,13
India,Maharashtra,Pune,"Mhada Colony, Pune - IITM",01-05-2024 17:00:00,18.573040,73.927715,PM10,82,142,105
India,Maharashtra,Pune,"Revenue Colony-Shivajinagar, Pune - IITM",01-05-2024 17:00:00,18.530085,73.849598,PM2.5,42,152,75
India,Maharashtra,Pune,"Revenue Colony-Shivajinagar, Pune - IITM",01-05-2024 17:00:00,18.530085,73.849598,NO2,72,114,95
India,Maharashtra,Pune,"Savitribai Phule Pune University, Pune - MPCB",01-05-2024 17:00:00,18.547056,73.826908,SO2,2,21,9
India,Maharashtra,Pune,"Transport Nagar-Nigdi, Pune - IITM",01-05-2024 17:00:00,18.664282,73.763966,PM10,88,88,88
India,Maharashtra,Sangli,"Vijay Nagar, Sangli - MPCB",01-05-2024 17:00:00, 16.5038,74.3623,NH3,2,3,2
India,Maharashtra,Sangli,"Vijay Nagar, Sangli - MPCB",01-05-2024 17:00:00, 16.5038,74.3623,OZONE,34,112,88
India,Maharashtra,Solapur,"Dnyaneshwar Nagar, Solapur - MPCB",01-05-2024 17:00:00,17.6336264,75.9132495,NO2,12,69,27
India,Maharashtra,Solapur,"Dnyaneshwar Nagar, Solapur - MPCB",01-05-2024 17:00:00,17.6336264,75.9132495,CO,10,66,44
India,Maharashtra,Solapur,"Solapur, Solapur - MPCB",01-05-2024 17:00:00,17.6599188,75.9063906,PM2.5,61,61,61
India,Maharashtra,Solapur,"Solapur, Solapur - MPCB",01-05-2024 17:00:00,17.6599188,75.9063906,NO2,54,55,54
India,Maharashtra,Thane,"Upvan Fort, Thane - MPCB",01-05-2024 17:00:00,19.222279,72.957979,NH3,3,8,5
India,Maharashtra,Thane,"Upvan Fort, Thane - MPCB",01-05-2024 17:00:00,19.222279,72.957979,CO,5,16,5
India,Maharashtra,Ulhasnagar,"Sidhi Vinayak Nagar, Ulhasnagar - MPCB",01-05-2024 17:00:00,19.235581,73.159121,NH3,1,4,2
India,Maharashtra,Virar,"Bolinj, Virar - MPCB",01-05-2024 17:00:00,19.4458210,72.7988231,OZONE,2,165,78
India,Manipur,Imphal,"DM College of Science, Imphal - Manipur PCB",01-05-2024 17:00:00,24.8207389,93.9423085,NO2,7,8,7
India,Manipur,Imphal,"DM College of Science, Imphal - Manipur PCB",01-05-2024 17:00:00,24.8207389,93.9423085,SO2,99,102,100
India,Manipur,Imphal,"Manipur University, Imphal - Manipur PCB",01-05-2024 17:00:00,24.7524239,93.9286218,SO2,93,101,96
India,Meghalaya,Shillong,"Lumpyngngad, Shillong - Meghalaya PCB",01-05-2024 17:00:00,25.5586,91.8985,CO,8,10,9
India,Mizoram,Aizawl,"Sikulpuikawn, Aizawl - Mizoram PCB",01-05-2024 17:00:00,23.7176342,92.7192841,OZONE,1,81,15
India,Odisha,Angul,"Hakimapada, Angul - OSPCB",01-05-2024 17:00:00,20.832874,85.104082,PM2.5,72,321,162
India,Odisha,Bhubaneswar,"Lingraj Mandir, Bhubaneswar - OSPCB",01-05-2024 17:00:00,20.240790,85.836784,NO2,4,20,10
India,Odisha,Bhubaneswar,"Lingraj Mandir, Bhubaneswar - OSPCB",01-05-2024 17:00:00,20.240790,85.836784,CO,43,68,58
India,Odisha,Bhubaneswar,"Patia, Bhubaneswar - OSPCB",01-05-2024 17:00:00,20.34652,85.81630,PM10,NA,NA,NA
India,Odisha,Bileipada,"Tata Township, Bileipada - OSPCB",01-05-2024 17:00:00,22.06156703,85.47409613,NH3,11,12,11
India,Odisha,Byasanagar,"Ferro Chrome Colony, Byasanagar - OSPCB",01-05-2024 17:00:00,20.94185,86.11510,PM10,67,421,137
India,Odisha,Byasanagar,"Ferro Chrome Colony, Byasanagar - OSPCB",01-05-2024 17:00:00,20.94185,86.11510,SO2,8,50,18
India,Odisha,Cuttack,"CDA Area, Cuttack - OSPCB",01-05-2024 17:00:00,20.48891     ,85.84768     ,CO,14,31,27
India,Odisha,Keonjhar,"Jagamohanpur, Keonjhar - OSPCB",01-05-2024 17:00:00,21.643900,85.599355,PM2.5,69,112,96
India,Odisha,Keonjhar,"Jagamohanpur, Keonjhar - OSPCB",01-05-2024 17:00:00,21.643900,85.599355,NH3,4,5,4
India,Odisha,Keonjhar,"Jagamohanpur, Keonjhar - OSPCB",01-05-2024 17:00:00,21.643900,85.599355,SO2,7,8,7
India,Odisha,Nayagarh,"Dabuna, Nayagarh - OSPCB",01-05-2024 17:00:00,21.847279,85.416905,PM10,103,143,117
India,Odisha,Nayagarh,"Dabuna, Nayagarh - OSPCB",01-05-2024 17:00:00,21.847279,85.416905,CO,14,34,19
India,Odisha,Rairangpur,"Divisional Forest Office, Rairangpur - OSPCB",01-05-2024 17:00:00,22.265816,86.174829,NH3,3,3,3
India,Odisha,Rairangpur,"Divisional Forest Office, Rairangpur - OSPCB",01-05-2024 17:00:00,22.265816,86.174829,SO2,13,17,14
India,Odisha,Rourkela,"Fertilizer Township, Rourkela - OSPCB",01-05-2024 17:00:00,22.18972222,84.86277778,SO2,NA,NA,NA
India,Odisha,Rourkela,"Raghunathpali, Rourkela - OSPCB",01-05-2024 17:00:00,22.220833,84.809444,NO2,20,115,62
India,Odisha,Rourkela,"Raghunathpali, Rourkela - OSPCB",01-05-2024 17:00:00,22.220833,84.809444,NH3,1,3,2
India,Odisha,Rourkela,"Raghunathpali, Rourkela - OSPCB",01-05-2024 17:00:00,22.220833,84.809444,CO,24,86,49
India,Odisha,Talcher,"Talcher Coalfields,Talcher - OSPCB",01-05-2024 17:00:00,20.9360711,85.1707021,NO2,18,22,20
India,Odisha,Talcher,"Talcher Coalfields,Talcher - OSPCB",01-05-2024 17:00:00,20.9360711,85.1707021,NH3,3,3,3
India,Odisha,Tensa,"Barsua Iron Ore Mines, Tensa - OSPCB",01-05-2024 17:00:00,21.869985,85.167016,PM10,108,125,116
India,Punjab,Amritsar,"Golden Temple, Amritsar - PPCB",01-05-2024 17:00:00,31.620000,74.876512,PM2.5,7,69,35
India,Punjab,Amritsar,"Golden Temple, Amritsar - PPCB",01-05-2024 17:00:00,31.620000,74.876512,NO2,1,67,21
India,Punjab,Amritsar,"Golden Temple, Amritsar - PPCB",01-05-2024 17:00:00,31.620000,74.876512,SO2,6,51,19
India,Punjab,Amritsar,"Golden Temple, Amritsar - PPCB",01-05-2024 17:00:00,31.620000,74.876512,CO,5,106,27
India,Punjab,Jalandhar,"Civil Line, Jalandhar - PPCB",01-05-2024 17:00:00,31.321907,75.578914,PM2.5,35,66,49
India,Punjab,Khanna,"Kalal Majra, Khanna - PPCB",01-05-2024 17:00:00,30.736056 ,76.209694,NO2,37,41,39
India,Punjab,Ludhiana,"Punjab Agricultural University, Ludhiana - PPCB",01-05-2024 17:00:00,30.9028,75.8086,OZONE,15,56,45
India,Punjab,Mandi Gobindgarh,"RIMT University, Mandi Gobindgarh - PPCB",01-05-2024 17:00:00,30.649961,76.331442,SO2,4,51,19
India,Punjab,Patiala,"Model Town, Patiala - PPCB",01-05-2024 17:00:00,30.349388,76.366642,PM10,69,140,94
India,Punjab,Patiala,"Model Town, Patiala - PPCB",01-05-2024 17:00:00,30.349388,76.366642,NO2,22,28,24
India,Punjab,Rupnagar,"Ratanpura, Rupnagar - Ambuja Cements",01-05-2024 17:00:00,31.0325454,76.5623046,SO2,10,13,12
India,Punjab,Rupnagar,"Ratanpura, Rupnagar - Ambuja Cements",01-05-2024 17:00:00,31.0325454,76.5623046,CO,17,54,25
India,Rajasthan,Ajmer,"Civil Lines,  Ajmer - RSPCB",01-05-2024 17:00:00,26.470859,74.646594,PM10,28,172,123
India,Rajasthan,Ajmer,"Civil Lines,  Ajmer - RSPCB",01-05-2024 17:00:00,26.470859,74.646594,CO,10,102,26
India,Rajasthan,Alwar,"Moti Doongri, Alwar - RSPCB",01-05-2024 17:00:00,27.554793,76.611536,NH3,3,8,5
India,Rajasthan,Alwar,"Moti Doongri, Alwar - RSPCB",01-05-2024 17:00:00,27.554793,76.611536,CO,25,64,40
India,Rajasthan,Banswara,"Rati Talai, Banswara - RSPCB",01-05-2024 17:00:00,23.555190,74.440010,PM10,102,162,131
India,Rajasthan,Barmer,"Railway Colony, Barmer - RSPCB",01-05-2024 17:00:00,25.747299,71.393989,PM10,103,159,125
India,Rajasthan,Barmer,"Railway Colony, Barmer - RSPCB",01-05-2024 17:00:00,25.747299,71.393989,SO2,4,18,7
India,Rajasthan,Barmer,"Railway Colony, Barmer - RSPCB",01-05-2024 17:00:00,25.747299,71.393989,OZONE,74,132,118
India,Rajasthan,Bharatpur,"Krishna Nagar, Bharatpur - RSPCB",01-05-2024 17:00:00,27.215415,77.50873,SO2,2,13,7
India,Rajasthan,Bhilwara,"Pratap Nagar, Bhilwara - RSPCB",01-05-2024 17:00:00,25.339605,74.618883,SO2,8,59,19
India,Rajasthan,Bhiwadi,"RIICO Ind. Area III, Bhiwadi - RSPCB",01-05-2024 17:00:00,28.194909,76.862296,PM10,112,419,236
India,Rajasthan,Bhiwadi,"RIICO Ind. Area III, Bhiwadi - RSPCB",01-05-2024 17:00:00,28.194909,76.862296,OZONE,4,64,46
India,Rajasthan,Bhiwadi,"Vasundhara Nagar_UIT, Bhiwadi - RSPCB",01-05-2024 17:00:00,28.207266,76.829265,NH3,6,20,11
India,Rajasthan,Bhiwadi,"Vasundhara Nagar_UIT, Bhiwadi - RSPCB",01-05-2024 17:00:00,28.207266,76.829265,CO,7,52,11
India,Rajasthan,Bundi,"New Colony, Bundi - RSPCB",01-05-2024 17:00:00,25.435774,75.644272,NO2,5,115,21
India,Rajasthan,Bundi,"New Colony, Bundi - RSPCB",01-05-2024 17:00:00,25.435774,75.644272,CO,11,96,16
India,Rajasthan,Chittorgarh,"Shastri Nagar, Chittorgarh - RSPCB",01-05-2024 17:00:00,24.892047,74.623527,NO2,NA,NA,NA
India,Rajasthan,Chittorgarh,"Shastri Nagar, Chittorgarh - RSPCB",01-05-2024 17:00:00,24.892047,74.623527,SO2,NA,NA,NA
India,Rajasthan,Dungarpur,"Bhoiwada, Dungarpur - RSPCB",01-05-2024 17:00:00,23.837789,73.714926,PM10,25,92,52
India,Rajasthan,Hanumangarh,"Housing Board, Hanumangarh - RSPCB",01-05-2024 17:00:00,29.610750,74.283608,PM10,77,271,175
India,Rajasthan,Hanumangarh,"Housing Board, Hanumangarh - RSPCB",01-05-2024 17:00:00,29.610750,74.283608,NO2,9,61,22
India,Rajasthan,Hanumangarh,"Housing Board, Hanumangarh - RSPCB",01-05-2024 17:00:00,29.610750,74.283608,CO,2,85,31
India,Rajasthan,Hanumangarh,"Housing Board, Hanumangarh - RSPCB",01-05-2024 17:00:00,29.610750,74.283608,OZONE,16,58,35
India,Rajasthan,Jaipur,"Adarsh Nagar, Jaipur - RSPCB",01-05-2024 17:00:00,26.902909,75.836858,PM2.5,44,183,108
India,Rajasthan,Jaipur,"Adarsh Nagar, Jaipur - RSPCB",01-05-2024 17:00:00,26.902909,75.836858,OZONE,6,91,56
India,Rajasthan,Jaipur,"Police Commissionerate, Jaipur - RSPCB",01-05-2024 17:00:00,26.9164092,75.7994901,NH3,2,6,3
India,Rajasthan,Jaipur,"RIICO Sitapura, Jaipur - RSPCB",01-05-2024 17:00:00,26.786682,75.827928,OZONE,21,49,32
India,Rajasthan,Jaipur,"Sector-2 Murlipura, Jaipur - RSPCB",01-05-2024 17:00:00,26.960669,75.771817,PM10,141,401,216
India,Rajasthan,Jaipur,"Shastri Nagar, Jaipur - RSPCB",01-05-2024 17:00:00,26.9502929,75.730943,PM10,113,262,186
India,Rajasthan,Jaisalmer,"Sadar Bazar, Jaisalmer - RSPCB",01-05-2024 17:00:00,26.912329,70.909168,CO,10,19,13
India,Rajasthan,Jalore,"Mudtra Sili, Jalore - RSPCB",01-05-2024 17:00:00,25.344694,72.626208,SO2,6,10,7
India,Rajasthan,Jhunjhunu,"Indra Nagar, Jhunjhunu - RSPCB",01-05-2024 17:00:00,28.108988,75.386577,NH3,20,37,31
India,Rajasthan,Jodhpur,"Collectorate, Jodhpur - RSPCB",01-05-2024 17:00:00,26.268249,73.0193853,PM2.5,48,375,190
India,Rajasthan,Jodhpur,"Collectorate, Jodhpur - RSPCB",01-05-2024 17:00:00,26.268249,73.0193853,NO2,5,44,17
India,Rajasthan,Jodhpur,"Digari Kalan, Jodhpur - RSPCB",01-05-2024 17:00:00,26.295810,73.082283,OZONE,13,126,110
India,Rajasthan,Jodhpur,"Jhalamand, Jodhpur - RSPCB",01-05-2024 17:00:00,26.215415,73.070156,PM2.5,37,316,92
India,Rajasthan,Jodhpur,"Jhalamand, Jodhpur - RSPCB",01-05-2024 17:00:00,26.215415,73.070156,CO,6,83,12
India,Rajasthan,Jodhpur,"Mandor, Jodhpur - RSPCB",01-05-2024 17:00:00,26.358805,73.047444,NO2,12,48,29
India,Rajasthan,Jodhpur,"Mandor, Jodhpur - RSPCB",01-05-2024 17:00:00,26.358805,73.047444,NH3,3,7,4
India,Rajasthan,Jodhpur,"Samrat Ashok Udhyan, Jodhpur - RSPCB",01-05-2024 17:00:00,26.253384,72.976571,PM10,106,251,151
India,Rajasthan,Jodhpur,"Samrat Ashok Udhyan, Jodhpur - RSPCB",01-05-2024 17:00:00,26.253384,72.976571,SO2,4,18,8
India,Rajasthan,Karauli,"Satyawati Vihar, Karauli - RSPCB",01-05-2024 17:00:00,26.506177,77.025989,PM2.5,28,117,57
India,Rajasthan,Kota,"Dhanmandi, Kota - RSPCB",01-05-2024 17:00:00,25.164090,75.858137,SO2,4,29,9
India,Rajasthan,Kota,"Dhanmandi, Kota - RSPCB",01-05-2024 17:00:00,25.164090,75.858137,OZONE,1,132,112
India,Rajasthan,Kota,"Nayapura, Kota - RSPCB",01-05-2024 17:00:00,25.196024,75.855668,PM2.5,25,318,105
India,Rajasthan,Kota,"Nayapura, Kota - RSPCB",01-05-2024 17:00:00,25.196024,75.855668,NH3,7,31,12
India,Rajasthan,Kota,"Nayapura, Kota - RSPCB",01-05-2024 17:00:00,25.196024,75.855668,SO2,2,14,9
India,Rajasthan,Kota,"Nayapura, Kota - RSPCB",01-05-2024 17:00:00,25.196024,75.855668,CO,12,113,19
India,Rajasthan,Kota,"Shrinath Puram, Kota - RSPCB",01-05-2024 17:00:00,25.14389,75.821256,NH3,4,15,7
India,Rajasthan,Nagaur,"Karni Colony, Nagaur - RSPCB",01-05-2024 17:00:00,27.213494,73.734444,CO,9,22,15
India,Rajasthan,Pali,"Indira Colony Vistar, Pali - RSPCB",01-05-2024 17:00:00,25.771061, 73.340227,PM10,122,236,159
India,Rajasthan,Pali,"Indira Colony Vistar, Pali - RSPCB",01-05-2024 17:00:00,25.771061, 73.340227,NH3,6,17,12
India,Rajasthan,Pali,"Indira Colony Vistar, Pali - RSPCB",01-05-2024 17:00:00,25.771061, 73.340227,CO,20,81,40
India,Rajasthan,Pratapgarh,"Pragati Nagar, Pratapgarh - RSPCB",01-05-2024 17:00:00,24.041198,74.780702,PM2.5,22,86,45
India,Rajasthan,Rajsamand,"Dhoinda, Rajsamand - RSPCB",01-05-2024 17:00:00,25.036360,73.883502,PM10,57,135,86
India,Rajasthan,Rajsamand,"Dhoinda, Rajsamand - RSPCB",01-05-2024 17:00:00,25.036360,73.883502,SO2,11,56,25
India,Rajasthan,Sawai Madhopur,"Sahu Nagar, Sawai Madhopur - RSPCB",01-05-2024 17:00:00,26.031443,76.359327,PM10,101,350,159
India,Rajasthan,Sawai Madhopur,"Sahu Nagar, Sawai Madhopur - RSPCB",01-05-2024 17:00:00,26.031443,76.359327,NH3,1,14,7
India,Rajasthan,Sawai Madhopur,"Sahu Nagar, Sawai Madhopur - RSPCB",01-05-2024 17:00:00,26.031443,76.359327,SO2,1,5,2
India,Rajasthan,Sikar,"Radhakishan Pura, Sikar - RSPCB",01-05-2024 17:00:00,27.608912,75.153302,PM10,129,500,269
India,Rajasthan,Sirohi,"Vedhaynath Colony, Sirohi - RSPCB",01-05-2024 17:00:00,24.885261,72.857549,OZONE,26,127,117
India,Rajasthan,Sri Ganganagar,"Old City, Sri Ganganagar - RSPCB",01-05-2024 17:00:00,29.931624,73.864511,NH3,12,40,23
India,Rajasthan,Tonk,"Shastri Nagar, Tonk - RSPCB",01-05-2024 17:00:00,26.159933,75.780517,OZONE,32,128,112
India,Rajasthan,Udaipur,"Ashok Nagar, Udaipur - RSPCB",01-05-2024 17:00:00,24.5886166,73.6321397,NO2,30,54,45
India,Rajasthan,Udaipur,"Ashok Nagar, Udaipur - RSPCB",01-05-2024 17:00:00,24.5886166,73.6321397,CO,14,73,45
India,Sikkim,Gangtok,"Zero Point GICI, Gangtok - SSPCB",01-05-2024 17:00:00,27.338530,88.614099,PM2.5,29,39,32
India,TamilNadu,Ariyalur,"Keelapalur, Ariyalur - TNPCB",01-05-2024 17:00:00,11.06825,79.07033,PM10,13,62,28
India,TamilNadu,Ariyalur,"Keelapalur, Ariyalur - TNPCB",01-05-2024 17:00:00,11.06825,79.07033,NH3,2,3,2
India,TamilNadu,Ariyalur,"Keelapalur, Ariyalur - TNPCB",01-05-2024 17:00:00,11.06825,79.07033,SO2,28,30,29
India,TamilNadu,Chennai,"Alandur Bus Depot, Chennai - CPCB",01-05-2024 17:00:00,12.9099161,80.1076538,PM10,NA,NA,NA
India,TamilNadu,Chennai,"Manali, Chennai - CPCB",01-05-2024 17:00:00,13.164544,80.26285,PM2.5,18,318,83
India,TamilNadu,Chennai,"Manali, Chennai - CPCB",01-05-2024 17:00:00,13.164544,80.26285,OZONE,14,22,17
India,TamilNadu,Chennai,"Perungudi, Chennai - TNPCB",01-05-2024 17:00:00,12.9533,80.2357,NH3,2,3,2
India,TamilNadu,Cuddalore,"Kudikadu, Cuddalore - TNPCB",01-05-2024 17:00:00,11.6829898,79.7532099,PM2.5,18,101,42
India,TamilNadu,Ooty,"Bombay Castel, Ooty - TNPCB",01-05-2024 17:00:00,11.4068288,76.7138973,CO,22,22,22
India,TamilNadu,Ramanathapuram,"Chalai Bazaar, Ramanathapuram - TNPCB",01-05-2024 17:00:00,9.36399,78.831977,OZONE,13,14,13
India,TamilNadu,Salem,"Sona College of Technology, Salem - TNPCB",01-05-2024 17:00:00,11.679111,78.125052,PM2.5,NA,NA,NA
India,TamilNadu,Salem,"Sona College of Technology, Salem - TNPCB",01-05-2024 17:00:00,11.679111,78.125052,SO2,NA,NA,NA
India,TamilNadu,Salem,"Sona College of Technology, Salem - TNPCB",01-05-2024 17:00:00,11.679111,78.125052,CO,NA,NA,NA
India,TamilNadu,Thoothukudi,"Meelavittan, Thoothukudi - TNPCB",01-05-2024 17:00:00,8.816428 ,78.099039,CO,10,154,48
India,TamilNadu,Tirupur,"Kumaran College, Tirupur - TNPCB",01-05-2024 17:00:00,11.0973603,77.3228673,PM10,NA,NA,NA
India,TamilNadu,Vellore,"Vasanthapuram, Vellore - TNPCB",01-05-2024 17:00:00,12.909494,79.131861,NH3,1,1,1
India,TamilNadu,Vellore,"Vasanthapuram, Vellore - TNPCB",01-05-2024 17:00:00,12.909494,79.131861,CO,NA,NA,NA
India,TamilNadu,Virudhunagar,"Collectorate Office, Virudhunagar - TNPCB",01-05-2024 17:00:00,9.559382,77.948828,CO,NA,NA,NA
India,Telangana,Hyderabad,"Bollaram Industrial Area, Hyderabad - TSPCB",01-05-2024 17:00:00,17.540891,78.358528,PM2.5,44,89,65
India,Telangana,Hyderabad,"Central University, Hyderabad - TSPCB",01-05-2024 17:00:00,17.460103,78.334361,PM2.5,27,56,39
India,Telangana,Hyderabad,"Central University, Hyderabad - TSPCB",01-05-2024 17:00:00,17.460103,78.334361,SO2,7,10,8
India,Telangana,Hyderabad,"ECIL Kapra, Hyderabad - TSPCB",01-05-2024 17:00:00,17.470431,78.566959,CO,8,25,20
India,Telangana,Hyderabad,"IITH Kandi, Hyderabad - TSPCB",01-05-2024 17:00:00,17.585705,78.126199,PM10,55,95,75
India,Telangana,Hyderabad,"Kokapet, Hyderabad - TSPCB",01-05-2024 17:00:00,17.393559,78.339194,OZONE,5,37,10
India,Telangana,Hyderabad,"Kompally Municipal Office, Hyderabad - TSPCB",01-05-2024 17:00:00,17.544899,78.486949,NH3,5,6,6
India,Telangana,Hyderabad,"Ramachandrapuram, Hyderabad - TSPCB",01-05-2024 17:00:00,17.528544,78.286195,PM2.5,43,45,45
India,Telangana,Hyderabad,"Ramachandrapuram, Hyderabad - TSPCB",01-05-2024 17:00:00,17.528544,78.286195,CO,15,68,19
India,Telangana,Hyderabad,"Somajiguda, Hyderabad - TSPCB",01-05-2024 17:00:00,17.417094,78.457437,PM10,71,101,84
India,Telangana,Hyderabad,"Somajiguda, Hyderabad - TSPCB",01-05-2024 17:00:00,17.417094,78.457437,NH3,6,8,7
India,Telangana,Hyderabad,"Somajiguda, Hyderabad - TSPCB",01-05-2024 17:00:00,17.417094,78.457437,CO,20,86,37
India,Telangana,Hyderabad,"Zoo Park, Hyderabad - TSPCB",01-05-2024 17:00:00,17.349694,78.451437,NO2,16,44,26
India,Telangana,Hyderabad,"Zoo Park, Hyderabad - TSPCB",01-05-2024 17:00:00,17.349694,78.451437,CO,13,81,46
India,Tripura,Agartala,"Bardowali, Agartala - Tripura SPCB",01-05-2024 17:00:00,23.8175497,91.2726974,CO,10,18,15
India,Uttar_Pradesh,Agra,"Manoharpur, Agra - UPPCB",01-05-2024 17:00:00,27.23711,78.01936,PM10,17,72,43
India,Uttar_Pradesh,Agra,"Manoharpur, Agra - UPPCB",01-05-2024 17:00:00,27.23711,78.01936,SO2,3,18,9
India,Uttar_Pradesh,Agra,"Sanjay Palace, Agra - UPPCB",01-05-2024 17:00:00,27.19865833,78.00598056,OZONE,2,23,19
India,Uttar_Pradesh,Agra,"Shahjahan Garden, Agra - UPPCB",01-05-2024 17:00:00,27.169338,78.03582,NH3,1,3,1
India,Uttar_Pradesh,Agra,"Shahjahan Garden, Agra - UPPCB",01-05-2024 17:00:00,27.169338,78.03582,CO,10,75,16
India,Uttar_Pradesh,Agra,"Shahjahan Garden, Agra - UPPCB",01-05-2024 17:00:00,27.169338,78.03582,OZONE,1,25,17
India,Uttar_Pradesh,Agra,"Shastripuram, Agra - UPPCB",01-05-2024 17:00:00,27.19862,77.92066,NO2,38,104,44
India,Uttar_Pradesh,Agra,"Shastripuram, Agra - UPPCB",01-05-2024 17:00:00,27.19862,77.92066,CO,9,20,11
India,Uttar_Pradesh,Agra,"Shastripuram, Agra - UPPCB",01-05-2024 17:00:00,27.19862,77.92066,OZONE,1,18,13
India,Uttar_Pradesh,Baghpat,"Sardar Patel Inter College, Baghpat - UPPCB",01-05-2024 17:00:00,28.964949,77.278761,PM2.5,33,254,115
India,Uttar_Pradesh,Baghpat,"Sardar Patel Inter College, Baghpat - UPPCB",01-05-2024 17:00:00,28.964949,77.278761,PM10,114,359,193
India,Uttar_Pradesh,Baghpat,"Sardar Patel Inter College, Baghpat - UPPCB",01-05-2024 17:00:00,28.964949,77.278761,OZONE,15,99,77
India,Uttar_Pradesh,Bareilly,"Rajendra Nagar, Bareilly - UPPCB",01-05-2024 17:00:00,28.38910936,79.42963708,NH3,1,1,1
India,Uttar_Pradesh,Bulandshahr,"Yamunapuram, Bulandshahr - UPPCB",01-05-2024 17:00:00,28.406963,77.849831,CO,18,70,24
India,Uttar_Pradesh,Firozabad,"Nagla Bhau, Firozabad - UPPCB",01-05-2024 17:00:00,27.168897,78.376960,CO,12,30,29
India,Uttar_Pradesh,Firozabad,"Nagla Bhau, Firozabad - UPPCB",01-05-2024 17:00:00,27.168897,78.376960,OZONE,16,18,18
India,Uttar_Pradesh,Firozabad,"Vibhab Nagar, Firozabad - UPPCB",01-05-2024 17:00:00,27.1594,78.3953,PM2.5,50,202,100
India,Uttar_Pradesh,Firozabad,"Vibhab Nagar, Firozabad - UPPCB",01-05-2024 17:00:00,27.1594,78.3953,SO2,1,7,4
India,Uttar_Pradesh,Ghaziabad,"Indirapuram, Ghaziabad - UPPCB",01-05-2024 17:00:00,28.646233,77.358075,CO,20,93,28
India,Uttar_Pradesh,Ghaziabad,"Loni, Ghaziabad - UPPCB",01-05-2024 17:00:00,28.757294,77.278792,NO2,12,93,48
India,Uttar_Pradesh,Ghaziabad,"Loni, Ghaziabad - UPPCB",01-05-2024 17:00:00,28.757294,77.278792,NH3,2,8,4
India,Uttar_Pradesh,Ghaziabad,"Loni, Ghaziabad - UPPCB",01-05-2024 17:00:00,28.757294,77.278792,CO,10,108,27
India,Uttar_Pradesh,Ghaziabad,"Sanjay Nagar, Ghaziabad - UPPCB",01-05-2024 17:00:00,28.685382,77.453839,PM10,132,242,172
India,Uttar_Pradesh,Ghaziabad,"Sanjay Nagar, Ghaziabad - UPPCB",01-05-2024 17:00:00,28.685382,77.453839,NO2,23,97,46
India,Uttar_Pradesh,Ghaziabad,"Vasundhara, Ghaziabad - UPPCB",01-05-2024 17:00:00,28.6603346,77.3572563,PM2.5,17,137,56
India,Uttar_Pradesh,Ghaziabad,"Vasundhara, Ghaziabad - UPPCB",01-05-2024 17:00:00,28.6603346,77.3572563,PM10,88,177,138
India,Uttar_Pradesh,Ghaziabad,"Vasundhara, Ghaziabad - UPPCB",01-05-2024 17:00:00,28.6603346,77.3572563,NH3,3,7,5
India,Uttar_Pradesh,Ghaziabad,"Vasundhara, Ghaziabad - UPPCB",01-05-2024 17:00:00,28.6603346,77.3572563,SO2,6,115,42
India,Uttar_Pradesh,Ghaziabad,"Vasundhara, Ghaziabad - UPPCB",01-05-2024 17:00:00,28.6603346,77.3572563,OZONE,3,271,122
India,Uttar_Pradesh,Gorakhpur,"Madan Mohan Malaviya University of Technology, Gorakhpur - UPPCB",01-05-2024 17:00:00,26.730136,83.433859,CO,5,16,11
India,Uttar_Pradesh,Greater Noida,"Knowledge Park - III, Greater Noida - UPPCB",01-05-2024 17:00:00,28.47272,77.482000,SO2,3,38,18
India,Uttar_Pradesh,Greater Noida,"Knowledge Park - V, Greater Noida - UPPCB",01-05-2024 17:00:00,28.557054,77.453663,PM2.5,45,282,107
India,Uttar_Pradesh,Hapur,"Anand Vihar, Hapur - UPPCB",01-05-2024 17:00:00,28.725645,77.749675,NO2,3,48,14
India,Uttar_Pradesh,Hapur,"Anand Vihar, Hapur - UPPCB",01-05-2024 17:00:00,28.725645,77.749675,OZONE,16,57,44
India,Uttar_Pradesh,Jhansi,"Shivaji Nagar, Jhansi - UPPCB",01-05-2024 17:00:00,25.4547,78.6039,OZONE,8,53,44
India,Uttar_Pradesh,Kanpur,"FTI Kidwai Nagar, Kanpur - UPPCB",01-05-2024 17:00:00,26.428282,80.327067,CO,28,38,31
India,Uttar_Pradesh,Kanpur,"NSI Kalyanpur, Kanpur - UPPCB",01-05-2024 17:00:00,26.509954,80.249612,PM2.5,41,126,75
India,Uttar_Pradesh,Kanpur,"NSI Kalyanpur, Kanpur - UPPCB",01-05-2024 17:00:00,26.509954,80.249612,SO2,19,23,20
India,Uttar_Pradesh,Kanpur,"Nehru Nagar, Kanpur - UPPCB",01-05-2024 17:00:00,26.4703136,80.3229863,PM2.5,12,94,66
India,Uttar_Pradesh,Khurja,"Kalindi Kunj, Khurja - UPPCB",01-05-2024 17:00:00,28.2348927,77.8683002,PM2.5,40,204,89
India,Uttar_Pradesh,Lucknow,"B R Ambedkar University, Lucknow - UPPCB",01-05-2024 17:00:00,26.766433,80.927299,CO,20,31,24
India,Uttar_Pradesh,Lucknow,"Gomti Nagar, Lucknow - UPPCB",01-05-2024 17:00:00,26.868120,81.005119,PM10,70,134,112
India,Uttar_Pradesh,Lucknow,"Kendriya Vidyalaya, Lucknow - CPCB",01-05-2024 17:00:00,26.906111,80.948222,PM10,114,158,140
India,Uttar_Pradesh,Lucknow,"Kendriya Vidyalaya, Lucknow - CPCB",01-05-2024 17:00:00,26.906111,80.948222,NH3,3,20,14
India,Uttar_Pradesh,Lucknow,"Kendriya Vidyalaya, Lucknow - CPCB",01-05-2024 17:00:00,26.906111,80.948222,OZONE,52,129,106
India,Uttar_Pradesh,Lucknow,"Kukrail Picnic Spot-1, Lucknow - UPPCB",01-05-2024 17:00:00,26.90723,80.98579,OZONE,10,46,35
India,Uttar_Pradesh,Lucknow,"Lalbagh, Lucknow - CPCB",01-05-2024 17:00:00,26.8458805,80.9365541,OZONE,33,57,54
India,Uttar_Pradesh,Lucknow,"Talkatora District Industries Center, Lucknow - CPCB",01-05-2024 17:00:00,26.83399722,80.8917361,PM2.5,243,314,286
India,Uttar_Pradesh,Lucknow,"Talkatora District Industries Center, Lucknow - CPCB",01-05-2024 17:00:00,26.83399722,80.8917361,PM10,118,495,176
India,Uttar_Pradesh,Lucknow,"Talkatora District Industries Center, Lucknow - CPCB",01-05-2024 17:00:00,26.83399722,80.8917361,CO,2,38,23
India,Uttar_Pradesh,Meerut,"Ganga Nagar, Meerut - UPPCB",01-05-2024 17:00:00,28.999264,77.7590354,PM10,107,224,153
India,Uttar_Pradesh,Meerut,"Jai Bhim Nagar, Meerut - UPPCB",01-05-2024 17:00:00,28.9535882,77.7622941,NO2,9,42,28
India,Uttar_Pradesh,Meerut,"Jai Bhim Nagar, Meerut - UPPCB",01-05-2024 17:00:00,28.9535882,77.7622941,NH3,2,7,5
India,Uttar_Pradesh,Meerut,"Jai Bhim Nagar, Meerut - UPPCB",01-05-2024 17:00:00,28.9535882,77.7622941,OZONE,40,100,82
India,Uttar_Pradesh,Meerut,"Pallavpuram Phase 2, Meerut - UPPCB",01-05-2024 17:00:00,29.063510,77.709723,PM2.5,23,113,60
India,Uttar_Pradesh,Meerut,"Pallavpuram Phase 2, Meerut - UPPCB",01-05-2024 17:00:00,29.063510,77.709723,OZONE,18,76,63
India,Uttar_Pradesh,Moradabad,"Buddhi Vihar, Moradabad - UPPCB",01-05-2024 17:00:00,28.83526,78.74460,PM2.5,22,271,64
India,Uttar_Pradesh,Moradabad,"Buddhi Vihar, Moradabad - UPPCB",01-05-2024 17:00:00,28.83526,78.74460,SO2,16,18,17
India,Uttar_Pradesh,Moradabad,"Buddhi Vihar, Moradabad - UPPCB",01-05-2024 17:00:00,28.83526,78.74460,OZONE,21,47,40
India,Uttar_Pradesh,Moradabad,"Employment Office, Moradabad - UPPCB",01-05-2024 17:00:00,28.88528,78.73880,PM10,95,155,119
India,Uttar_Pradesh,Moradabad,"Employment Office, Moradabad - UPPCB",01-05-2024 17:00:00,28.88528,78.73880,SO2,30,44,34
India,Uttar_Pradesh,Moradabad,"Employment Office, Moradabad - UPPCB",01-05-2024 17:00:00,28.88528,78.73880,OZONE,10,109,42
India,Uttar_Pradesh,Moradabad,"Jigar Colony, Moradabad - UPPCB",01-05-2024 17:00:00,28.856664,78.772638,NH3,6,6,6
India,Uttar_Pradesh,Moradabad,"Transport Nagar, Moradabad - UPPCB",01-05-2024 17:00:00,28.802625,78.753728,NH3,5,5,5
India,Uttar_Pradesh,Muzaffarnagar,"New Mandi, Muzaffarnagar - UPPCB",01-05-2024 17:00:00,29.4723508,77.7194031,NO2,17,42,25
India,Uttar_Pradesh,Muzaffarnagar,"New Mandi, Muzaffarnagar - UPPCB",01-05-2024 17:00:00,29.4723508,77.7194031,OZONE,37,93,73
India,Uttar_Pradesh,Noida,"Sector - 125, Noida - UPPCB",01-05-2024 17:00:00,28.5447608,77.3231257,PM10,90,328,151
India,Uttar_Pradesh,Noida,"Sector - 125, Noida - UPPCB",01-05-2024 17:00:00,28.5447608,77.3231257,NH3,2,14,10
India,Uttar_Pradesh,Noida,"Sector - 62, Noida - IMD",01-05-2024 17:00:00,28.6245479,77.3577104,PM2.5,32,234,100
India,Uttar_Pradesh,Noida,"Sector - 62, Noida - IMD",01-05-2024 17:00:00,28.6245479,77.3577104,NO2,8,34,15
India,Uttar_Pradesh,Noida,"Sector - 62, Noida - IMD",01-05-2024 17:00:00,28.6245479,77.3577104,OZONE,8,43,31
India,Uttar_Pradesh,Noida,"Sector-1, Noida - UPPCB",01-05-2024 17:00:00,28.5898,77.3101,NO2,30,146,72
India,Uttar_Pradesh,Noida,"Sector-1, Noida - UPPCB",01-05-2024 17:00:00,28.5898,77.3101,CO,3,101,25
India,Uttar_Pradesh,Noida,"Sector-1, Noida - UPPCB",01-05-2024 17:00:00,28.5898,77.3101,OZONE,2,140,112
India,Uttar_Pradesh,Noida,"Sector-116, Noida - UPPCB",01-05-2024 17:00:00,28.569230,77.393848,PM10,123,276,177
India,Uttar_Pradesh,Noida,"Sector-116, Noida - UPPCB",01-05-2024 17:00:00,28.569230,77.393848,CO,11,102,30
India,Uttar_Pradesh,Prayagraj,"Jhunsi, Prayagraj - UPPCB",01-05-2024 17:00:00,25.425602,81.917152,NH3,5,5,5
India,Uttar_Pradesh,Prayagraj,"Motilal Nehru NIT, Prayagraj - UPPCB",01-05-2024 17:00:00,25.494,81.863,SO2,26,60,34
India,Uttar_Pradesh,Prayagraj,"Motilal Nehru NIT, Prayagraj - UPPCB",01-05-2024 17:00:00,25.494,81.863,CO,8,21,11
India,Uttar_Pradesh,Prayagraj,"Nagar Nigam, Prayagraj - UPPCB",01-05-2024 17:00:00,25.44919916 ,81.82735986 ,PM2.5,38,73,48
India,Uttar_Pradesh,Prayagraj,"Nagar Nigam, Prayagraj - UPPCB",01-05-2024 17:00:00,25.44919916 ,81.82735986 ,PM10,46,500,165
India,Uttar_Pradesh,Varanasi,"IESD Banaras Hindu University, Varanasi - UPPCB",01-05-2024 17:00:00,25.262326,82.995408,PM2.5,NA,NA,NA
India,Uttar_Pradesh,Varanasi,"IESD Banaras Hindu University, Varanasi - UPPCB",01-05-2024 17:00:00,25.262326,82.995408,NO2,2,2,2
India,Uttar_Pradesh,Varanasi,"IESD Banaras Hindu University, Varanasi - UPPCB",01-05-2024 17:00:00,25.262326,82.995408,SO2,17,17,17
India,Uttar_Pradesh,Varanasi,"Maldahiya, Varanasi - UPPCB",01-05-2024 17:00:00,25.32393,82.99687,CO,1,20,8
India,Uttar_Pradesh,Vrindavan,"Omex Eternity, Vrindavan - UPPCB",01-05-2024 17:00:00,27.5714090,77.6557570,PM10,30,344,137
India,Uttar_Pradesh,Vrindavan,"Omex Eternity, Vrindavan - UPPCB",01-05-2024 17:00:00,27.5714090,77.6557570,SO2,39,53,46
India,Uttar_Pradesh,Vrindavan,"Omex Eternity, Vrindavan - UPPCB",01-05-2024 17:00:00,27.5714090,77.6557570,CO,22,51,33
India,Uttarakhand,Dehradun,"Doon University, Dehradun - UKPCB",01-05-2024 17:00:00,30.269444,78.044167,PM10,67,157,113
India,Uttarakhand,Kashipur,"Govt. Girls Inter College, Kashipur - UKPCB",01-05-2024 17:00:00,29.2124114,78.9611753,NH3,5,10,7
India,Uttarakhand,Rishikesh,"Shivaji Nagar, Rishikesh - UKPCB",01-05-2024 17:00:00,30.075911,78.2859547,PM10,78,123,103
India,Uttarakhand,Rishikesh,"Shivaji Nagar, Rishikesh - UKPCB",01-05-2024 17:00:00,30.075911,78.2859547,CO,13,49,22
India,West_Bengal,Asansol,"Asansol Court Area, Asansol - WBPCB",01-05-2024 17:00:00,23.685297,86.945968,PM10,120,206,162
India,West_Bengal,Asansol,"Asansol Court Area, Asansol - WBPCB",01-05-2024 17:00:00,23.685297,86.945968,SO2,7,30,14
India,West_Bengal,Asansol,"Asansol Court Area, Asansol - WBPCB",01-05-2024 17:00:00,23.685297,86.945968,OZONE,25,60,52
India,West_Bengal,Durgapur,"Sidhu Kanhu Indoor Stadium, Durgapur - WBPCB",01-05-2024 17:00:00,23.5404352,87.2892225,OZONE,1,126,93
India,West_Bengal,Haldia,"Priyambada Housing Estate, Haldia - WBPCB",01-05-2024 17:00:00,22.06047,88.109737,PM2.5,18,67,39
India,West_Bengal,Haldia,"Priyambada Housing Estate, Haldia - WBPCB",01-05-2024 17:00:00,22.06047,88.109737,OZONE,19,32,26
India,West_Bengal,Howrah,"Belur Math, Howrah - WBPCB",01-05-2024 17:00:00,22.629801,88.352017,CO,3,23,6
India,West_Bengal,Howrah,"Ghusuri, Howrah - WBPCB",01-05-2024 17:00:00,22.611968,88.347422,NH3,3,3,3
India,West_Bengal,Howrah,"Padmapukur, Howrah - WBPCB",01-05-2024 17:00:00,22.5687319,88.2797276,PM2.5,47,115,78
India,West_Bengal,Howrah,"Padmapukur, Howrah - WBPCB",01-05-2024 17:00:00,22.5687319,88.2797276,OZONE,8,75,58
India,West_Bengal,Kolkata,"Ballygunge, Kolkata - WBPCB",01-05-2024 17:00:00,22.5367507,88.3638022,SO2,11,40,19
India,West_Bengal,Kolkata,"Bidhannagar, Kolkata - WBPCB",01-05-2024 17:00:00,22.58157048,88.41002457,PM10,59,141,102
India,West_Bengal,Kolkata,"Bidhannagar, Kolkata - WBPCB",01-05-2024 17:00:00,22.58157048,88.41002457,CO,27,44,30
India,West_Bengal,Kolkata,"Fort William, Kolkata - WBPCB",01-05-2024 17:00:00,22.556640,88.342674,PM10,72,135,108
India,West_Bengal,Kolkata,"Rabindra Sarobar, Kolkata - WBPCB",01-05-2024 17:00:00,22.51106,88.35142,NH3,7,11,10
India,West_Bengal,Kolkata,"Victoria, Kolkata - WBPCB",01-05-2024 17:00:00,22.5448082,88.3403691,NO2,12,62,22
India,West_Bengal,Kolkata,"Victoria, Kolkata - WBPCB",01-05-2024 17:00:00,22.5448082,88.3403691,SO2,11,33,18
India,West_Bengal,Kolkata,"Victoria, Kolkata - WBPCB",01-05-2024 17:00:00,22.5448082,88.3403691,CO,38,62,56
India,West_Bengal,Kolkata,"Victoria, Kolkata - WBPCB",01-05-2024 17:00:00,22.5448082,88.3403691,OZONE,12,132,93
India,West_Bengal,Siliguri,"Ward-32 Bapupara, Siliguri - WBPCB",01-05-2024 17:00:00,26.6879226,88.4152495,NH3,6,11,9
India,West_Bengal,Siliguri,"Ward-32 Bapupara, Siliguri - WBPCB",01-05-2024 17:00:00,26.6879226,88.4152495,SO2,6,8,7
India,West_Bengal,Siliguri,"Ward-32 Bapupara, Siliguri - WBPCB",01-05-2024 17:00:00,26.6879226,88.4152495,CO,15,56,23
India,Andhra_Pradesh,Amaravati,"Secretariat, Amaravati - APPCB",01-05-2024 17:00:00,16.5150833,80.5181667,NO2,5,12,8
India,Andhra_Pradesh,Anantapur,"Gulzarpet, Anantapur - APPCB",01-05-2024 17:00:00,14.675886,77.593027,SO2,NA,NA,NA
India,Andhra_Pradesh,Anantapur,"Gulzarpet, Anantapur - APPCB",01-05-2024 17:00:00,14.675886,77.593027,OZONE,1,69,38
India,Andhra_Pradesh,Chittoor,"Gangineni Cheruvu, Chittoor - APPCB",01-05-2024 17:00:00,13.204880,79.097889,PM2.5,19,120,64
India,Andhra_Pradesh,Chittoor,"Gangineni Cheruvu, Chittoor - APPCB",01-05-2024 17:00:00,13.204880,79.097889,SO2,5,61,14
India,Andhra_Pradesh,Kadapa,"Yerramukkapalli, Kadapa - APPCB",01-05-2024 17:00:00,14.465052,78.824187,PM10,19,140,54
India,Andhra_Pradesh,Kadapa,"Yerramukkapalli, Kadapa - APPCB",01-05-2024 17:00:00,14.465052,78.824187,OZONE,21,82,64
India,Andhra_Pradesh,Rajamahendravaram,"Anand Kala Kshetram, Rajamahendravaram - APPCB",01-05-2024 17:00:00,16.9872867,81.7363176,PM10,NA,NA,NA
India,Andhra_Pradesh,Rajamahendravaram,"Anand Kala Kshetram, Rajamahendravaram - APPCB",01-05-2024 17:00:00,16.9872867,81.7363176,NO2,NA,NA,NA
India,Andhra_Pradesh,Tirupati,"Vaikuntapuram, Tirupati - APPCB",01-05-2024 17:00:00,13.615387,79.409230,SO2,NA,NA,NA
India,Andhra_Pradesh,Vijayawada,"Kanuru, Vijayawada - APPCB",01-05-2024 17:00:00,16.486692,80.699436,PM2.5,39,99,53
India,Andhra_Pradesh,Vijayawada,"Rajiv Gandhi Park, Vijayawada - APPCB",01-05-2024 17:00:00,16.509717,80.612222,PM2.5,36,97,60
India,Andhra_Pradesh,Vijayawada,"Rajiv Gandhi Park, Vijayawada - APPCB",01-05-2024 17:00:00,16.509717,80.612222,SO2,6,33,11
India,Andhra_Pradesh,Vijayawada,"Rajiv Gandhi Park, Vijayawada - APPCB",01-05-2024 17:00:00,16.509717,80.612222,CO,36,40,39
India,Andhra_Pradesh,Vijayawada,"Rajiv Gandhi Park, Vijayawada - APPCB",01-05-2024 17:00:00,16.509717,80.612222,OZONE,1,103,66
India,Andhra_Pradesh,Vijayawada,"Rajiv Nagar, Vijayawada - APPCB",01-05-2024 17:00:00,16.554731,80.649110,PM2.5,42,46,44
India,Arunachal_Pradesh,Naharlagun,"Naharlagun, Naharlagun - APSPCB",01-05-2024 17:00:00,27.103358,93.679645,NO2,3,3,3
India,Arunachal_Pradesh,Naharlagun,"Naharlagun, Naharlagun - APSPCB",01-05-2024 17:00:00,27.103358,93.679645,CO,12,20,15
India,Assam,Byrnihat,"Central Academy for SFS, Byrnihat - PCBA",01-05-2024 17:00:00,26.071318,91.87488,PM10,41,131,89
India,Assam,Byrnihat,"Central Academy for SFS, Byrnihat - PCBA",01-05-2024 17:00:00,26.071318,91.87488,NO2,44,96,66
India,Assam,Byrnihat,"Central Academy for SFS, Byrnihat - PCBA",01-05-2024 17:00:00,26.071318,91.87488,SO2,5,13,10
India,Assam,Byrnihat,"Central Academy for SFS, Byrnihat - PCBA",01-05-2024 17:00:00,26.071318,91.87488,CO,32,71,59
India,Assam,Guwahati,"IITG, Guwahati - PCBA",01-05-2024 17:00:00,26.2028636,91.70046436,PM10,44,220,102
India,Assam,Guwahati,"IITG, Guwahati - PCBA",01-05-2024 17:00:00,26.2028636,91.70046436,OZONE,22,44,26
India,Assam,Guwahati,"LGBI Airport, Guwahati - PCBA",01-05-2024 17:00:00,26.10887,91.589544,PM2.5,25,283,75
India,Assam,Guwahati,"LGBI Airport, Guwahati - PCBA",01-05-2024 17:00:00,26.10887,91.589544,NH3,2,6,4
India,Assam,Guwahati,"LGBI Airport, Guwahati - PCBA",01-05-2024 17:00:00,26.10887,91.589544,OZONE,4,36,12
India,Assam,Guwahati,"Pan Bazaar, Guwahati - PCBA",01-05-2024 17:00:00,26.187500,91.744194,PM2.5,20,47,34
India,Assam,Nagaon,"Christianpatty, Nagaon - PCBA",01-05-2024 17:00:00,26.349082,92.68449,PM2.5,62,92,74
India,Assam,Nagaon,"Christianpatty, Nagaon - PCBA",01-05-2024 17:00:00,26.349082,92.68449,PM10,68,95,79
India,Assam,Nagaon,"Christianpatty, Nagaon - PCBA",01-05-2024 17:00:00,26.349082,92.68449,NH3,3,4,4
India,Assam,Nagaon,"Christianpatty, Nagaon - PCBA",01-05-2024 17:00:00,26.349082,92.68449,OZONE,47,96,68
India,Assam,Silchar,"Tarapur, Silchar - PCBA",01-05-2024 17:00:00,24.82827,92.79525,NH3,1,1,1
India,Assam,Silchar,"Tarapur, Silchar - PCBA",01-05-2024 17:00:00,24.82827,92.79525,CO,28,44,29
India,Assam,Sivasagar,"Girls College, Sivasagar - PCBA",01-05-2024 17:00:00,26.987634,94.636574,PM10,45,65,52
India,Bihar,Araria,"Kharahiya Basti, Araria - BSPCB",01-05-2024 17:00:00,26.146529,87.454184,NO2,4,23,8
India,Bihar,Araria,"Kharahiya Basti, Araria - BSPCB",01-05-2024 17:00:00,26.146529,87.454184,NH3,6,7,7
India,Bihar,Arrah,"New DM Office, Arrah - BSPCB",01-05-2024 17:00:00,25.5626095,84.663264,NO2,1,7,3
India,Bihar,Arrah,"New DM Office, Arrah - BSPCB",01-05-2024 17:00:00,25.5626095,84.663264,NH3,2,5,3
India,Bihar,Arrah,"New DM Office, Arrah - BSPCB",01-05-2024 17:00:00,25.5626095,84.663264,SO2,5,49,18
India,Bihar,Arrah,"New DM Office, Arrah - BSPCB",01-05-2024 17:00:00,25.5626095,84.663264,CO,3,16,8
India,Bihar,Bettiah,"Kamalnath Nagar, Bettiah - BSPCB",01-05-2024 17:00:00,26.80365,84.51954,PM10,103,181,135
India,Bihar,Bhagalpur,"DM Office_Kachari Chowk, Bhagalpur - BSPCB",01-05-2024 17:00:00,25.251013,86.989001,NH3,3,4,4
India,Bihar,Bhagalpur,"DM Office_Kachari Chowk, Bhagalpur - BSPCB",01-05-2024 17:00:00,25.251013,86.989001,SO2,16,17,16
India,Bihar,Bhagalpur,"DM Office_Kachari Chowk, Bhagalpur - BSPCB",01-05-2024 17:00:00,25.251013,86.989001,OZONE,46,50,47
India,Bihar,Bhagalpur,"Mayaganj, Bhagalpur - BSPCB",01-05-2024 17:00:00,25.265194,87.012947,PM2.5,63,103,80
India,Bihar,Bhagalpur,"Mayaganj, Bhagalpur - BSPCB",01-05-2024 17:00:00,25.265194,87.012947,NO2,4,10,7
India,Bihar,Bhagalpur,"Mayaganj, Bhagalpur - BSPCB",01-05-2024 17:00:00,25.265194,87.012947,OZONE,32,162,130
India,Bihar,Bihar Sharif,"D M Colony, Bihar Sharif - BSPCB",01-05-2024 17:00:00,25.204762,85.514960,NO2,8,10,9
India,Bihar,Bihar Sharif,"D M Colony, Bihar Sharif - BSPCB",01-05-2024 17:00:00,25.204762,85.514960,NH3,2,2,2
India,Bihar,Chhapra,"Darshan Nagar, Chhapra - BSPCB",01-05-2024 17:00:00,25.7808257,84.7446768,NH3,7,14,10
India,Bihar,Gaya,"Collectorate, Gaya - BSPCB",01-05-2024 17:00:00,24.7955,84.9994,PM2.5,27,133,83
India,Bihar,Gaya,"Collectorate, Gaya - BSPCB",01-05-2024 17:00:00,24.7955,84.9994,NO2,1,4,3
India,Bihar,Gaya,"Kareemganj, Gaya - BSPCB",01-05-2024 17:00:00,24.792403,84.992416,PM10,66,114,88
India,Bihar,Gaya,"Kareemganj, Gaya - BSPCB",01-05-2024 17:00:00,24.792403,84.992416,NO2,30,31,30
India,Bihar,Gaya,"Kareemganj, Gaya - BSPCB",01-05-2024 17:00:00,24.792403,84.992416,NH3,1,5,4
India,Bihar,Gaya,"Kareemganj, Gaya - BSPCB",01-05-2024 17:00:00,24.792403,84.992416,CO,14,22,16
India,Bihar,Gaya,"Kareemganj, Gaya - BSPCB",01-05-2024 17:00:00,24.792403,84.992416,OZONE,2,13,4
India,Bihar,Gaya,"SFTI Kusdihra, Gaya - BSPCB",01-05-2024 17:00:00,24.762518,84.982348,PM2.5,22,169,88
India,Bihar,Gaya,"SFTI Kusdihra, Gaya - BSPCB",01-05-2024 17:00:00,24.762518,84.982348,PM10,72,117,103
India,Bihar,Gaya,"SFTI Kusdihra, Gaya - BSPCB",01-05-2024 17:00:00,24.762518,84.982348,NO2,16,122,44
India,Bihar,Hajipur,"Industrial Area, Hajipur - BSPCB",01-05-2024 17:00:00,25.697189,85.245900,PM10,168,334,234
India,Bihar,Kishanganj,"SDM Office_Khagra, Kishanganj - BSPCB",01-05-2024 17:00:00,26.0881305,87.93840336,NH3,9,10,10
India,Bihar,Manguraha,"Forest Rest House, Manguraha - BSPCB",01-05-2024 17:00:00,27.308328,84.531742,PM2.5,NA,NA,NA
India,Bihar,Motihari,"Gandak Colony, Motihari - BSPCB",01-05-2024 17:00:00,26.63086,84.90051,PM2.5,25,153,72
India,Bihar,Motihari,"Gandak Colony, Motihari - BSPCB",01-05-2024 17:00:00,26.63086,84.90051,OZONE,4,190,190
India,Bihar,Munger,"Town Hall, Munger - BSPCB",01-05-2024 17:00:00,25.376776,86.471523,PM2.5,75,280,144
India,Bihar,Muzaffarpur,"Buddha Colony, Muzaffarpur - BSPCB",01-05-2024 17:00:00,26.11442,85.39813,CO,12,36,19
India,Bihar,Patna,"DRM Office Danapur, Patna - BSPCB",01-05-2024 17:00:00,25.586562,85.043586,OZONE,36,58,56
India,Bihar,Patna,"Govt. High School Shikarpur, Patna - BSPCB",01-05-2024 17:00:00,25.592539,85.227158,NH3,5,6,5
India,Bihar,Patna,"IGSC Planetarium Complex, Patna - BSPCB",01-05-2024 17:00:00,25.610369,85.132568,PM2.5,75,186,115
India,Bihar,Patna,"IGSC Planetarium Complex, Patna - BSPCB",01-05-2024 17:00:00,25.610369,85.132568,SO2,5,6,5
India,Bihar,Patna,"IGSC Planetarium Complex, Patna - BSPCB",01-05-2024 17:00:00,25.610369,85.132568,OZONE,31,43,40
India,Bihar,Patna,"Muradpur, Patna - BSPCB",01-05-2024 17:00:00,25.619651,85.147382,PM10,218,330,264
India,Bihar,Patna,"Rajbansi Nagar, Patna - BSPCB",01-05-2024 17:00:00,25.599486,85.113666,PM2.5,92,326,238
India,Bihar,Patna,"Rajbansi Nagar, Patna - BSPCB",01-05-2024 17:00:00,25.599486,85.113666,NH3,7,11,8
India,Bihar,Patna,"Samanpura, Patna - BSPCB",01-05-2024 17:00:00,25.596727,85.085624,PM2.5,74,357,202
India,Bihar,Patna,"Samanpura, Patna - BSPCB",01-05-2024 17:00:00,25.596727,85.085624,NH3,9,17,12
India,Bihar,Rajgir,"Dangi Tola, Rajgir - BSPCB",01-05-2024 17:00:00,25.03280,85.41948,NO2,17,26,19
India,Bihar,Saharsa,"Police Line, Saharsa - BSPCB",01-05-2024 17:00:00,25.892357,86.590325,PM2.5,NA,NA,NA
India,Bihar,Samastipur,"DM Office_Kasipur, Samastipur - BSPCB",01-05-2024 17:00:00,25.859655,85.77944,NH3,3,4,3
India,Bihar,Sasaram,"Dada Peer, Sasaram - BSPCB",01-05-2024 17:00:00,24.952822,84.002396,PM2.5,28,59,41
India,Bihar,Sasaram,"Dada Peer, Sasaram - BSPCB",01-05-2024 17:00:00,24.952822,84.002396,NH3,5,19,12
India,Bihar,Sasaram,"Dada Peer, Sasaram - BSPCB",01-05-2024 17:00:00,24.952822,84.002396,SO2,8,24,22
India,Bihar,Sasaram,"Dada Peer, Sasaram - BSPCB",01-05-2024 17:00:00,24.952822,84.002396,CO,32,89,87
India,Chandigarh,Chandigarh,"Sector 22, Chandigarh - CPCC",01-05-2024 17:00:00,30.735567,76.775714,PM10,58,146,96
India,Chandigarh,Chandigarh,"Sector 22, Chandigarh - CPCC",01-05-2024 17:00:00,30.735567,76.775714,NO2,12,95,26
India,Chandigarh,Chandigarh,"Sector 22, Chandigarh - CPCC",01-05-2024 17:00:00,30.735567,76.775714,CO,25,53,32
India,Chandigarh,Chandigarh,"Sector 22, Chandigarh - CPCC",01-05-2024 17:00:00,30.735567,76.775714,OZONE,32,177,167
India,Chandigarh,Chandigarh,"Sector-25, Chandigarh - CPCC",01-05-2024 17:00:00,30.751462,76.762879,CO,8,30,11
India,Chhattisgarh,Bhilai,"32Bungalows, Bhilai - CECB",01-05-2024 17:00:00,21.194815,81.314770,SO2,16,26,19
India,Chhattisgarh,Bhilai,"Civic Center, Bhilai - Bhilai Steel Plant",01-05-2024 17:00:00,21.185571,81.343175,OZONE,12,75,63
India,Chhattisgarh,Bhilai,"Hathkhoj, Bhilai - CECB",01-05-2024 17:00:00,21.224231,81.408350,PM2.5,41,154,98
India,Chhattisgarh,Bhilai,"Hathkhoj, Bhilai - CECB",01-05-2024 17:00:00,21.224231,81.408350,PM10,79,167,121
India,Chhattisgarh,Korba,"Rampur, Korba - CECB",01-05-2024 17:00:00,22.368195,82.746431,PM2.5,22,83,51
India,Chhattisgarh,Korba,"Rampur, Korba - CECB",01-05-2024 17:00:00,22.368195,82.746431,SO2,2,25,9
India,Chhattisgarh,Korba,"Rampur, Korba - CECB",01-05-2024 17:00:00,22.368195,82.746431,CO,15,46,26
India,Chhattisgarh,Korba,"Urja Nagar, Korba - CECB",01-05-2024 17:00:00,22.348441,82.549611,SO2,1,3,2
India,Chhattisgarh,Korba,"Urja Nagar, Korba - CECB",01-05-2024 17:00:00,22.348441,82.549611,OZONE,1,3,2
India,Chhattisgarh,Kunjemura,"OP Jindal School, Kunjemura - CECB",01-05-2024 17:00:00,22.126650,83.483212,NO2,9,120,55
India,Chhattisgarh,Kunjemura,"OP Jindal School, Kunjemura - CECB",01-05-2024 17:00:00,22.126650,83.483212,OZONE,4,88,63
India,Chhattisgarh,Raipur,"Bhatagaon New ISBT, Raipur - CECB",01-05-2024 17:00:00,21.219665,81.630094,PM2.5,2,80,53
India,Chhattisgarh,Raipur,"Bhatagaon New ISBT, Raipur - CECB",01-05-2024 17:00:00,21.219665,81.630094,NO2,27,46,36
India,Chhattisgarh,Raipur,"Bhatagaon New ISBT, Raipur - CECB",01-05-2024 17:00:00,21.219665,81.630094,CO,17,70,22
India,Chhattisgarh,Raipur,"Krishak Nagar, Raipur - CECB",01-05-2024 17:00:00,21.237755,81.705301,NO2,16,17,16
India,Chhattisgarh,Raipur,"Siltara Phase-II, Raipur - CECB",01-05-2024 17:00:00,21.371751,81.664929,PM10,95,153,132
India,Chhattisgarh,Raipur,"Siltara Phase-II, Raipur - CECB",01-05-2024 17:00:00,21.371751,81.664929,OZONE,3,31,17
India,Chhattisgarh,Tumidih,"OP Jindal Industrial Park, Tumidih - CECB",01-05-2024 17:00:00,22.06631475,83.33820077,PM2.5,32,207,73
India,Delhi,Delhi,"Anand Vihar, Delhi - DPCC",01-05-2024 17:00:00,28.647622,77.3158090,PM2.5,32,371,154
India,Delhi,Delhi,"Anand Vihar, Delhi - DPCC",01-05-2024 17:00:00,28.647622,77.3158090,NH3,3,7,5
India,Delhi,Delhi,"Ashok Vihar, Delhi - DPCC",01-05-2024 17:00:00,28.695381,77.181665,PM2.5,31,285,110
India,Delhi,Delhi,"Ashok Vihar, Delhi - DPCC",01-05-2024 17:00:00,28.695381,77.181665,SO2,18,57,36
India,Delhi,Delhi,"Aya Nagar, Delhi - IMD",01-05-2024 17:00:00,28.4706914,77.1099364,OZONE,9,53,48
India,Delhi,Delhi,"Bawana, Delhi - DPCC",01-05-2024 17:00:00,28.776200,77.051074,NH3,3,6,5
India,Delhi,Delhi,"Bawana, Delhi - DPCC",01-05-2024 17:00:00,28.776200,77.051074,OZONE,3,156,105
India,Delhi,Delhi,"Chandni Chowk, Delhi - IITM",01-05-2024 17:00:00,28.656756,77.227234,CO,26,88,53
India,Delhi,Delhi,"Chandni Chowk, Delhi - IITM",01-05-2024 17:00:00,28.656756,77.227234,OZONE,5,11,10
India,Delhi,Delhi,"DTU, Delhi - CPCB",01-05-2024 17:00:00,28.7500499,77.1112615,PM10,115,365,192
India,Delhi,Delhi,"DTU, Delhi - CPCB",01-05-2024 17:00:00,28.7500499,77.1112615,SO2,34,42,37
India,Delhi,Delhi,"Dr. Karni Singh Shooting Range, Delhi - DPCC",01-05-2024 17:00:00,28.498571,77.264840,CO,20,108,24
India,Delhi,Delhi,"Dwarka-Sector 8, Delhi - DPCC ",01-05-2024 17:00:00,28.5710274,77.0719006,PM10,151,500,252
India,Delhi,Delhi,"IGI Airport (T3), Delhi - IMD",01-05-2024 17:00:00,28.5627763,77.1180053,PM10,99,264,159
India,Delhi,Delhi,"IHBAS, Dilshad Garden, Delhi - CPCB",01-05-2024 17:00:00,28.6811736,77.3025234,SO2,3,22,12
India,Delhi,Delhi,"ITO, Delhi - CPCB",01-05-2024 17:00:00,28.628624,77.241060,OZONE,12,71,65
India,Delhi,Delhi,"Jawaharlal Nehru Stadium, Delhi - DPCC",01-05-2024 17:00:00,28.580280,77.233829,NH3,5,10,7
India,Delhi,Delhi,"Jawaharlal Nehru Stadium, Delhi - DPCC",01-05-2024 17:00:00,28.580280,77.233829,CO,21,109,28
India,Delhi,Delhi,"Lodhi Road, Delhi - IMD",01-05-2024 17:00:00,28.5918245,77.2273074,PM10,91,174,128
India,Delhi,Delhi,"Major Dhyan Chand National Stadium, Delhi - DPCC",01-05-2024 17:00:00,28.611281,77.237738,PM2.5,26,255,95
India,Delhi,Delhi,"Major Dhyan Chand National Stadium, Delhi - DPCC",01-05-2024 17:00:00,28.611281,77.237738,NO2,NA,NA,NA
India,Delhi,Delhi,"Mundka, Delhi - DPCC",01-05-2024 17:00:00,28.684678,77.076574,NH3,2,5,4
India,Delhi,Delhi,"NSIT Dwarka, Delhi - CPCB",01-05-2024 17:00:00,28.60909,77.0325413,PM10,20,410,222
India,Delhi,Delhi,"NSIT Dwarka, Delhi - CPCB",01-05-2024 17:00:00,28.60909,77.0325413,NH3,11,16,13
India,Delhi,Delhi,"Najafgarh, Delhi - DPCC",01-05-2024 17:00:00,28.570173,76.933762,CO,24,66,27
India,Delhi,Delhi,"Narela, Delhi - DPCC",01-05-2024 17:00:00,28.822836,77.101981,OZONE,7,162,125
India,Delhi,Delhi,"Nehru Nagar, Delhi - DPCC",01-05-2024 17:00:00,28.567890,77.250515,PM2.5,35,306,117
India,Delhi,Delhi,"Nehru Nagar, Delhi - DPCC",01-05-2024 17:00:00,28.567890,77.250515,PM10,115,229,176
India,Delhi,Delhi,"Nehru Nagar, Delhi - DPCC",01-05-2024 17:00:00,28.567890,77.250515,SO2,4,11,6
India,Delhi,Delhi,"North Campus, DU, Delhi - IMD",01-05-2024 17:00:00,28.6573814,77.1585447,NO2,10,57,25
India,Delhi,Delhi,"Okhla Phase-2, Delhi - DPCC",01-05-2024 17:00:00,28.530785,77.271255,NO2,33,143,78
India,Delhi,Delhi,"Patparganj, Delhi - DPCC",01-05-2024 17:00:00,28.623763,77.287209,PM10,163,309,223
India,Delhi,Delhi,"Patparganj, Delhi - DPCC",01-05-2024 17:00:00,28.623763,77.287209,NO2,23,105,50
India,Delhi,Delhi,"Patparganj, Delhi - DPCC",01-05-2024 17:00:00,28.623763,77.287209,OZONE,4,106,86
India,Delhi,Delhi,"Punjabi Bagh, Delhi - DPCC",01-05-2024 17:00:00,28.674045,77.131023,CO,15,76,22
India,Delhi,Delhi,"Punjabi Bagh, Delhi - DPCC",01-05-2024 17:00:00,28.674045,77.131023,OZONE,3,30,23
India,Delhi,Delhi,"Pusa, Delhi - IMD",01-05-2024 17:00:00,28.636110,77.173332,PM10,125,264,185
India,Delhi,Delhi,"R K Puram, Delhi - DPCC",01-05-2024 17:00:00,28.563262,77.186937,SO2,3,51,25
India,Delhi,Delhi,"R K Puram, Delhi - DPCC",01-05-2024 17:00:00,28.563262,77.186937,CO,12,110,42
India,Delhi,Delhi,"Rohini, Delhi - DPCC",01-05-2024 17:00:00,28.732528,77.119920,NO2,9,116,45
India,Delhi,Delhi,"Rohini, Delhi - DPCC",01-05-2024 17:00:00,28.732528,77.119920,SO2,2,34,15
India,Delhi,Delhi,"Sirifort, Delhi - CPCB",01-05-2024 17:00:00,28.5504249,77.2159377,NO2,60,79,68
India,Delhi,Delhi,"Sonia Vihar, Delhi - DPCC",01-05-2024 17:00:00,28.710508,77.249485,NH3,4,6,4
India,Delhi,Delhi,"Sri Aurobindo Marg, Delhi - DPCC",01-05-2024 17:00:00,28.531346,77.190156,SO2,11,33,18
India,Delhi,Delhi,"Wazirpur, Delhi - DPCC",01-05-2024 17:00:00,28.699793,77.165453,CO,20,116,30
India,Gujarat,Ahmedabad,"Chandkheda, Ahmedabad - IITM",01-05-2024 17:00:00,23.107969,72.574648,PM10,94,224,130
India,Gujarat,Ahmedabad,"Chandkheda, Ahmedabad - IITM",01-05-2024 17:00:00,23.107969,72.574648,NO2,24,28,27
India,Gujarat,Ahmedabad,"Gyaspur, Ahmedabad - IITM",01-05-2024 17:00:00,22.977134,72.553024,NO2,15,23,19
India,Gujarat,Ahmedabad,"Gyaspur, Ahmedabad - IITM",01-05-2024 17:00:00,22.977134,72.553024,NH3,3,17,9
India,Gujarat,Ahmedabad,"Gyaspur, Ahmedabad - IITM",01-05-2024 17:00:00,22.977134,72.553024,CO,14,52,22
India,Gujarat,Ahmedabad,"Gyaspur, Ahmedabad - IITM",01-05-2024 17:00:00,22.977134,72.553024,OZONE,7,79,57
India,Gujarat,Ahmedabad,"Maninagar, Ahmedabad - GPCB",01-05-2024 17:00:00,23.002657,72.591912,PM2.5,18,107,48
India,Gujarat,Ahmedabad,"Maninagar, Ahmedabad - GPCB",01-05-2024 17:00:00,23.002657,72.591912,SO2,7,109,54
India,Gujarat,Ahmedabad,"Raikhad, Ahmedabad - IITM",01-05-2024 17:00:00,23.020509,72.579261,SO2,4,16,7
India,Gujarat,Ahmedabad,"Raikhad, Ahmedabad - IITM",01-05-2024 17:00:00,23.020509,72.579261,CO,16,36,26
India,Gujarat,Ahmedabad,"Rakhial, Ahmedabad - IITM",01-05-2024 17:00:00,23.016834,72.625775,NO2,93,127,104
India,Gujarat,Ahmedabad,"SAC ISRO Satellite, Ahmedabad - IITM",01-05-2024 17:00:00,23.023389,72.515201,OZONE,4,22,18
India,Gujarat,Ahmedabad,"Sardar Vallabhbhai Patel Stadium, Ahmedabad - IITM",01-05-2024 17:00:00,23.043070,72.562968,PM2.5,75,149,117
India,Gujarat,Ahmedabad,"Sardar Vallabhbhai Patel Stadium, Ahmedabad - IITM",01-05-2024 17:00:00,23.043070,72.562968,NO2,3,7,6
India,Gujarat,Ahmedabad,"Sardar Vallabhbhai Patel Stadium, Ahmedabad - IITM",01-05-2024 17:00:00,23.043070,72.562968,NH3,1,2,1
India,Gujarat,Ankleshwar,"GIDC, Ankleshwar - GPCB",01-05-2024 17:00:00,21.613267,73.010555,NH3,7,7,7
India,Gujarat,Gandhinagar,"Sector-10, Gandhinagar - GPCB",01-05-2024 17:00:00,23.221714,72.654328,SO2,5,9,7
India,Gujarat,Surat,"Science Center, Surat - SMC",01-05-2024 17:00:00,21.170046,72.795405,SO2,1,5,3
India,Gujarat,Vapi,"Phase-1 GIDC, Vapi - GPCB",01-05-2024 17:00:00,20.362421,72.918013,NH3,2,2,2
India,Gujarat,Vapi,"Phase-1 GIDC, Vapi - GPCB",01-05-2024 17:00:00,20.362421,72.918013,SO2,53,54,54
India,Haryana,Bhiwani,"H.B. Colony, Bhiwani - HSPCB",01-05-2024 17:00:00,28.806223,76.141105,PM2.5,71,213,113
India,Haryana,Charkhi Dadri,"Mini Secretariat, Charkhi Dadri - HSPCB",01-05-2024 17:00:00,28.593883,76.270653,PM2.5,98,325,230
India,Haryana,Dharuhera,"Municipal Corporation Office, Dharuhera -  HSPCB",01-05-2024 17:00:00,28.206800,76.799700,PM2.5,61,264,128
India,Haryana,Dharuhera,"Municipal Corporation Office, Dharuhera -  HSPCB",01-05-2024 17:00:00,28.206800,76.799700,PM10,150,472,239
India,Haryana,Faridabad,"New Industrial Town, Faridabad - HSPCB",01-05-2024 17:00:00,28.39072,77.30059,SO2,3,6,4
India,Haryana,Faridabad,"New Industrial Town, Faridabad - HSPCB",01-05-2024 17:00:00,28.39072,77.30059,OZONE,5,245,187
India,Haryana,Faridabad,"Sector 11, Faridabad - HSPCB",01-05-2024 17:00:00,28.376058,77.315741,PM2.5,NA,NA,NA
India,Haryana,Faridabad,"Sector 11, Faridabad - HSPCB",01-05-2024 17:00:00,28.376058,77.315741,SO2,NA,NA,NA
India,Haryana,Faridabad,"Sector 30, Faridabad - HSPCB",01-05-2024 17:00:00,28.4417,77.3217,NO2,30,33,31
India,Haryana,Faridabad,"Sector 30, Faridabad - HSPCB",01-05-2024 17:00:00,28.4417,77.3217,OZONE,10,10,10
India,Haryana,Faridabad,"Sector- 16A, Faridabad - HSPCB",01-05-2024 17:00:00,28.4088421,77.3099081,NO2,2,16,8
India,Haryana,Fatehabad,"Huda Sector, Fatehabad - HSPCB",01-05-2024 17:00:00,29.503664,75.467934,PM2.5,NA,NA,NA
India,Haryana,Fatehabad,"Huda Sector, Fatehabad - HSPCB",01-05-2024 17:00:00,29.503664,75.467934,PM10,92,430,150
India,Haryana,Fatehabad,"Huda Sector, Fatehabad - HSPCB",01-05-2024 17:00:00,29.503664,75.467934,NO2,29,31,30
India,Haryana,Fatehabad,"Huda Sector, Fatehabad - HSPCB",01-05-2024 17:00:00,29.503664,75.467934,SO2,10,11,11
India,Haryana,Fatehabad,"Huda Sector, Fatehabad - HSPCB",01-05-2024 17:00:00,29.503664,75.467934,CO,5,20,6
India,Haryana,Gurugram,"Sector-51, Gurugram - HSPCB",01-05-2024 17:00:00,28.4227,77.0667,PM10,105,440,225
India,Haryana,Gurugram,"Sector-51, Gurugram - HSPCB",01-05-2024 17:00:00,28.4227,77.0667,CO,30,101,40
India,Haryana,Gurugram,"Teri Gram, Gurugram - HSPCB",01-05-2024 17:00:00,28.4275,77.1465,OZONE,5,254,48
India,Haryana,Hisar,"Urban Estate-II, Hisar - HSPCB",01-05-2024 17:00:00,29.140560,75.744941,PM2.5,37,133,71
India,Haryana,Kaithal,"Rishi Nagar, Kaithal - HSPCB",01-05-2024 17:00:00,29.8006,76.4155,NO2,24,26,25
India,Haryana,Kurukshetra,"Sector-7, Kurukshetra - HSPCB",01-05-2024 17:00:00,29.966942,76.875879,SO2,2,3,2
India,Haryana,Kurukshetra,"Sector-7, Kurukshetra - HSPCB",01-05-2024 17:00:00,29.966942,76.875879,CO,2,23,5
India,Haryana,Mandikhera,"General Hospital, Mandikhera - HSPCB",01-05-2024 17:00:00,27.9002,76.9938,PM10,4,71,27
India,Haryana,Manesar,"Sector-2 IMT, Manesar - HSPCB",01-05-2024 17:00:00,28.360699,76.936090,PM10,79,160,113
India,Haryana,Manesar,"Sector-2 IMT, Manesar - HSPCB",01-05-2024 17:00:00,28.360699,76.936090,SO2,6,37,12
India,Haryana,Narnaul,"Shastri Nagar, Narnaul - HSPCB",01-05-2024 17:00:00,28.060249,76.113115,SO2,12,41,17
India,Haryana,Palwal,"Shyam Nagar, Palwal - HSPCB",01-05-2024 17:00:00,28.1485564,77.3320667,SO2,1,16,9
India,Haryana,Panipat,"Sector-18, Panipat - HSPCB",01-05-2024 17:00:00,29.497973,76.993331,NO2,31,32,31
India,Haryana,Rohtak,"MD University, Rohtak - HSPCB",01-05-2024 17:00:00,28.52123,76.37138,NO2,47,55,51
India,Haryana,Rohtak,"MD University, Rohtak - HSPCB",01-05-2024 17:00:00,28.52123,76.37138,OZONE,44,55,50
India,Haryana,Sonipat,"Murthal, Sonipat - HSPCB",01-05-2024 17:00:00,29.027200,77.062100,PM2.5,25,26,26
India,Himachal Pradesh,Baddi,"HIMUDA Complex Phase-1, Baddi - HPPCB",01-05-2024 17:00:00,30.943887,76.801991,NO2,6,33,18
India,Himachal Pradesh,Baddi,"HIMUDA Complex Phase-1, Baddi - HPPCB",01-05-2024 17:00:00,30.943887,76.801991,SO2,8,81,29
India,Himachal Pradesh,Baddi,"HIMUDA Complex Phase-1, Baddi - HPPCB",01-05-2024 17:00:00,30.943887,76.801991,OZONE,4,162,153
India,Jharkhand,Dhanbad,"Sardar Patel Nagar, Dhanbad - JSPCB",01-05-2024 17:00:00,23.80569,86.44268,NO2,NA,NA,NA
India,Jharkhand,Dhanbad,"Sardar Patel Nagar, Dhanbad - JSPCB",01-05-2024 17:00:00,23.80569,86.44268,OZONE,12,37,23
India,Karnataka,Bagalkot,"Vidayagiri, Bagalkot - KSPCB",01-05-2024 17:00:00,16.172806,75.659694,PM10,49,50,50
India,Karnataka,Belgaum,"Ramteerth Nagar, Belgaum - KSPCB",01-05-2024 17:00:00,15.888653,74.541751,OZONE,19,20,19
India,Karnataka,Bengaluru,"BTM Layout, Bengaluru - CPCB",01-05-2024 17:00:00,12.9135218,77.5950804,PM2.5,33,35,34
India,Karnataka,Bengaluru,"Hebbal, Bengaluru - KSPCB",01-05-2024 17:00:00,13.029152,77.585901,CO,6,28,15
India,Karnataka,Bengaluru,"Hombegowda Nagar, Bengaluru - KSPCB",01-05-2024 17:00:00,12.938539,77.590100,NH3,1,2,1
India,Karnataka,Bengaluru,"RVCE-Mailasandra, Bengaluru - KSPCB",01-05-2024 17:00:00,12.921418,77.502466,PM2.5,30,95,64
India,Karnataka,Bengaluru,"Sanegurava Halli, Bengaluru - KSPCB",01-05-2024 17:00:00,12.990328,77.5431385,NO2,21,44,26
India,Karnataka,Bengaluru,"Shivapura_Peenya, Bengaluru - KSPCB",01-05-2024 17:00:00,13.0246342,77.5080115,PM2.5,2,123,40
India,Karnataka,Bengaluru,"Shivapura_Peenya, Bengaluru - KSPCB",01-05-2024 17:00:00,13.0246342,77.5080115,NH3,4,4,4
India,Karnataka,Bengaluru,"Silk Board, Bengaluru - KSPCB",01-05-2024 17:00:00,12.917348,77.622813,PM10,70,116,96
India,Karnataka,Bengaluru,"Silk Board, Bengaluru - KSPCB",01-05-2024 17:00:00,12.917348,77.622813,NH3,NA,NA,NA
India,Karnataka,Bidar,"Naubad, Bidar - KSPCB",01-05-2024 17:00:00,17.930306,77.482194,PM2.5,30,108,69
India,Karnataka,Chikkamagaluru,"Kalyana Nagara, Chikkamagaluru - KSPCB",01-05-2024 17:00:00,13.328028,75.797056,NO2,19,31,24
India,Karnataka,Chikkamagaluru,"Kalyana Nagara, Chikkamagaluru - KSPCB",01-05-2024 17:00:00,13.328028,75.797056,NH3,3,4,3
India,Karnataka,Chikkamagaluru,"Kalyana Nagara, Chikkamagaluru - KSPCB",01-05-2024 17:00:00,13.328028,75.797056,SO2,1,8,3
India,Karnataka,Chikkamagaluru,"Kalyana Nagara, Chikkamagaluru - KSPCB",01-05-2024 17:00:00,13.328028,75.797056,CO,11,101,11
India,Karnataka,Davanagere,"Devaraj Urs Badavane, Davanagere - KSPCB",01-05-2024 17:00:00,14.475800,75.905200,OZONE,20,21,21
India,Karnataka,Gadag,"Panchal Nagar, Gadag - KSPCB",01-05-2024 17:00:00,15.411456,75.638133,NH3,1,3,2
India,Karnataka,Hassan,"B.Katihalli, Hassan - KSPCB",01-05-2024 17:00:00,13.008556,76.125258,PM2.5,NA,NA,NA
India,Karnataka,Hassan,"B.Katihalli, Hassan - KSPCB",01-05-2024 17:00:00,13.008556,76.125258,NO2,NA,NA,NA
India,Karnataka,Haveri,"Ashwini Nagar, Haveri - KSPCB",01-05-2024 17:00:00,14.791800,75.389600,SO2,14,14,14
India,Karnataka,Hubballi,"Deshpande Nagar, Hubballi - KSPCB",01-05-2024 17:00:00,15.351773,75.140726,PM2.5,34,86,57
India,Karnataka,Hubballi,"Deshpande Nagar, Hubballi - KSPCB",01-05-2024 17:00:00,15.351773,75.140726,NO2,26,27,27
India,Karnataka,Hubballi,"Deshpande Nagar, Hubballi - KSPCB",01-05-2024 17:00:00,15.351773,75.140726,SO2,7,61,15
India,Karnataka,Kalaburagi,"Lal Bahadur Shastri Nagar, Kalaburagi - KSPCB",01-05-2024 17:00:00,17.321993,76.822628,OZONE,8,77,58
India,Karnataka,Kalaburagi,"Mahatma Basaveswar Colony, Kalaburgi - KSPCB",01-05-2024 17:00:00,17.336318,76.847397,OZONE,1,35,32
India,Karnataka,Karwar,"KHB Colony, Karwar - KSPCB",01-05-2024 17:00:00,14.816666,74.141003,NO2,NA,NA,NA
India,Karnataka,Karwar,"KHB Colony, Karwar - KSPCB",01-05-2024 17:00:00,14.816666,74.141003,NH3,NA,NA,NA
India,Karnataka,Karwar,"KHB Colony, Karwar - KSPCB",01-05-2024 17:00:00,14.816666,74.141003,CO,8,9,9
India,Karnataka,Kolar,"Tamaka Ind. Area, Kolar - KSPCB",01-05-2024 17:00:00,13.1276288,78.1570122,PM10,41,147,74
India,Karnataka,Koppal,"Diwator Nagar, Koppal - KSPCB",01-05-2024 17:00:00,15.347630,76.181767,NO2,30,75,46
India,Karnataka,Koppal,"Diwator Nagar, Koppal - KSPCB",01-05-2024 17:00:00,15.347630,76.181767,CO,100,100,100
India,Karnataka,Madikeri,"Stuart Hill, Madikeri - KSPCB",01-05-2024 17:00:00,12.415911,75.735050,NH3,1,1,1
India,Karnataka,Madikeri,"Stuart Hill, Madikeri - KSPCB",01-05-2024 17:00:00,12.415911,75.735050,OZONE,22,35,32
India,Karnataka,Mangalore,"Kadri, Mangalore - KSPCB",01-05-2024 17:00:00,12.889250,74.853000,CO,33,37,35
India,Karnataka,Mysuru,"Hebbal 1st Stage, Mysuru - KSPCB",01-05-2024 17:00:00,12.21041,76.37376,SO2,2,4,2
India,Karnataka,Ramanagara,"Vijay Nagar, Ramanagara - KSPCB",01-05-2024 17:00:00,12.733409,77.298051,NO2,2,5,3
India,Karnataka,Ramanagara,"Vijay Nagar, Ramanagara - KSPCB",01-05-2024 17:00:00,12.733409,77.298051,SO2,7,31,21
India,Karnataka,Ramanagara,"Vijay Nagar, Ramanagara - KSPCB",01-05-2024 17:00:00,12.733409,77.298051,CO,1,35,26
