country,state,city,station,last_update,latitude,longitude,pollutant_id,pollutant_min,pollutant_max,pollutant_avg
India,Andhra_Pradesh,Amaravati,"Secretariat, Amaravati - APPCB",14-02-2024 08:00:00,16.5150833,80.5181667,CO,16,58,41
India,Andhra_Pradesh,Anantapur,"Gulzarpet, Anantapur - APPCB",14-02-2024 08:00:00,14.675886,77.593027,NO2,8,39,22
India,Andhra_Pradesh,Anantapur,"Gulzarpet, Anantapur - APPCB",14-02-2024 08:00:00,14.675886,77.593027,NH3,2,3,3
India,Andhra_Pradesh,Anantapur,"Gulzarpet, Anantapur - APPCB",14-02-2024 08:00:00,14.675886,77.593027,CO,17,36,27
India,Andhra_Pradesh,Kadapa,"Yerramukkapalli, Kadapa - APPCB",14-02-2024 08:00:00,14.465052,78.824187,OZONE,20,43,27
India,Andhra_Pradesh,Rajamahendravaram,"Anand Kala Kshetram, Rajamahendravaram - APPCB",14-02-2024 08:00:00,16.9872867,81.7363176,PM2.5,62,142,87
India,Andhra_Pradesh,Rajamahendravaram,"Anand Kala Kshetram, Rajamahendravaram - APPCB",14-02-2024 08:00:00,16.9872867,81.7363176,NO2,15,50,29
India,Andhra_Pradesh,Tirupati,"Tirumala, Tirupati - APPCB",14-02-2024 08:00:00,13.67,79.35,OZONE,11,35,17
India,Andhra_Pradesh,Vijayawada,"HB Colony, Vijayawada - APPCB",14-02-2024 08:00:00,16.536107,80.594233,CO,24,29,28
India,Andhra_Pradesh,Vijayawada,"Kanuru, Vijayawada - APPCB",14-02-2024 08:00:00,16.486692,80.699436,OZONE,25,25,25
India,Andhra_Pradesh,Vijayawada,"Rajiv Gandhi Park, Vijayawada - APPCB",14-02-2024 08:00:00,16.509717,80.612222,SO2,6,13,8
India,Andhra_Pradesh,Vijayawada,"Rajiv Gandhi Park, Vijayawada - APPCB",14-02-2024 08:00:00,16.509717,80.612222,CO,30,34,34
India,Andhra_Pradesh,Vijayawada,"Rajiv Gandhi Park, Vijayawada - APPCB",14-02-2024 08:00:00,16.509717,80.612222,OZONE,17,77,28
India,Andhra_Pradesh,Vijayawada,"Rajiv Nagar, Vijayawada - APPCB",14-02-2024 08:00:00,16.554731,80.649110,CO,20,41,31
India,Andhra_Pradesh,Vijayawada,"Rajiv Nagar, Vijayawada - APPCB",14-02-2024 08:00:00,16.554731,80.649110,OZONE,15,51,17
India,Arunachal_Pradesh,Naharlagun,"Naharlagun, Naharlagun - APSPCB",14-02-2024 08:00:00,27.103358,93.679645,NO2,2,2,2
India,Arunachal_Pradesh,Naharlagun,"Naharlagun, Naharlagun - APSPCB",14-02-2024 08:00:00,27.103358,93.679645,CO,12,56,22
India,Assam,Byrnihat,"Central Academy for SFS, Byrnihat - PCBA",14-02-2024 08:00:00,26.071318,91.87488,PM10,79,500,265
India,Assam,Guwahati,"IITG, Guwahati - PCBA",14-02-2024 08:00:00,26.2028636,91.70046436,NH3,5,5,5
India,Assam,Guwahati,"LGBI Airport, Guwahati - PCBA",14-02-2024 08:00:00,26.10887,91.589544,NO2,NA,NA,NA
India,Assam,Guwahati,"LGBI Airport, Guwahati - PCBA",14-02-2024 08:00:00,26.10887,91.589544,CO,NA,NA,NA
India,Assam,Guwahati,"Pan Bazaar, Guwahati - PCBA",14-02-2024 08:00:00,26.187500,91.744194,SO2,66,97,75
India,Assam,Guwahati,"Railway Colony, Guwahati - PCBA",14-02-2024 08:00:00,26.181742,91.78063,PM10,84,412,215
India,Assam,Guwahati,"Railway Colony, Guwahati - PCBA",14-02-2024 08:00:00,26.181742,91.78063,NO2,3,4,3
India,Assam,Guwahati,"Railway Colony, Guwahati - PCBA",14-02-2024 08:00:00,26.181742,91.78063,OZONE,5,44,25
India,Assam,Nagaon,"Christianpatty, Nagaon - PCBA",14-02-2024 08:00:00,26.349082,92.68449,NO2,13,25,20
India,Assam,Nalbari,"Bata Chowk, Nalbari - PCBA",14-02-2024 08:00:00,26.446912,91.439057,PM2.5,130,435,301
India,Assam,Nalbari,"Bata Chowk, Nalbari - PCBA",14-02-2024 08:00:00,26.446912,91.439057,NH3,1,4,2
India,Assam,Nalbari,"Bata Chowk, Nalbari - PCBA",14-02-2024 08:00:00,26.446912,91.439057,SO2,5,9,7
India,Assam,Silchar,"Tarapur, Silchar - PCBA",14-02-2024 08:00:00,24.82827,92.79525,NO2,22,44,34
India,Assam,Silchar,"Tarapur, Silchar - PCBA",14-02-2024 08:00:00,24.82827,92.79525,NH3,1,1,1
India,Assam,Sivasagar,"Girls College, Sivasagar - PCBA",14-02-2024 08:00:00,26.987634,94.636574,OZONE,NA,NA,NA
India,Bihar,Araria,"Kharahiya Basti, Araria - BSPCB",14-02-2024 08:00:00,26.146529,87.454184,PM10,131,480,319
India,Bihar,Araria,"Kharahiya Basti, Araria - BSPCB",14-02-2024 08:00:00,26.146529,87.454184,SO2,13,17,15
India,Bihar,Araria,"Kharahiya Basti, Araria - BSPCB",14-02-2024 08:00:00,26.146529,87.454184,CO,22,30,28
India,Bihar,Arrah,"New DM Office, Arrah - BSPCB",14-02-2024 08:00:00,25.5626095,84.663264,PM2.5,NA,NA,NA
India,Bihar,Bettiah,"Kamalnath Nagar, Bettiah - BSPCB",14-02-2024 08:00:00,26.80365,84.51954,PM2.5,38,140,74
India,Bihar,Bettiah,"Kamalnath Nagar, Bettiah - BSPCB",14-02-2024 08:00:00,26.80365,84.51954,PM10,58,153,102
India,Bihar,Bhagalpur,"DM Office_Kachari Chowk, Bhagalpur - BSPCB",14-02-2024 08:00:00,25.251013,86.989001,PM2.5,312,385,346
India,Bihar,Bhagalpur,"Mayaganj, Bhagalpur - BSPCB",14-02-2024 08:00:00,25.265194,87.012947,NO2,4,21,10
India,Bihar,Bhagalpur,"Mayaganj, Bhagalpur - BSPCB",14-02-2024 08:00:00,25.265194,87.012947,CO,8,10,9
India,Bihar,Buxar,"Charitra Van, Buxar - BSPCB (Formerly known as Central Jail)",14-02-2024 08:00:00,25.567520,83.966379,NO2,1,78,9
India,Bihar,Buxar,"Charitra Van, Buxar - BSPCB (Formerly known as Central Jail)",14-02-2024 08:00:00,25.567520,83.966379,NH3,1,39,5
India,Bihar,Chhapra,"Darshan Nagar, Chhapra - BSPCB",14-02-2024 08:00:00,25.7808257,84.7446768,NH3,10,20,14
India,Bihar,Chhapra,"Darshan Nagar, Chhapra - BSPCB",14-02-2024 08:00:00,25.7808257,84.7446768,OZONE,1,12,1
India,Bihar,Gaya,"Collectorate, Gaya - BSPCB",14-02-2024 08:00:00,24.7955,84.9994,CO,2,34,26
India,Bihar,Gaya,"Kareemganj, Gaya - BSPCB",14-02-2024 08:00:00,24.792403,84.992416,NO2,27,31,30
India,Bihar,Hajipur,"Industrial Area, Hajipur - BSPCB",14-02-2024 08:00:00,25.697189,85.245900,OZONE,2,32,5
India,Bihar,Katihar,"Mirchaibari, Katihar - BSPCB",14-02-2024 08:00:00,25.560083,87.553265,NH3,3,5,4
India,Bihar,Katihar,"Mirchaibari, Katihar - BSPCB",14-02-2024 08:00:00,25.560083,87.553265,SO2,13,19,17
India,Bihar,Kishanganj,"SDM Office_Khagra, Kishanganj - BSPCB",14-02-2024 08:00:00,26.0881305,87.93840336,NO2,33,45,39
India,Bihar,Kishanganj,"SDM Office_Khagra, Kishanganj - BSPCB",14-02-2024 08:00:00,26.0881305,87.93840336,NH3,12,18,16
India,Bihar,Kishanganj,"SDM Office_Khagra, Kishanganj - BSPCB",14-02-2024 08:00:00,26.0881305,87.93840336,SO2,12,47,28
India,Bihar,Manguraha,"Forest Rest House, Manguraha - BSPCB",14-02-2024 08:00:00,27.308328,84.531742,SO2,3,4,3
India,Bihar,Manguraha,"Forest Rest House, Manguraha - BSPCB",14-02-2024 08:00:00,27.308328,84.531742,CO,3,92,33
India,Bihar,Motihari,"Gandak Colony, Motihari - BSPCB",14-02-2024 08:00:00,26.63086,84.90051,SO2,1,90,11
India,Bihar,Motihari,"Gandak Colony, Motihari - BSPCB",14-02-2024 08:00:00,26.63086,84.90051,CO,40,83,71
India,Bihar,Munger,"Town Hall, Munger - BSPCB",14-02-2024 08:00:00,25.376776,86.471523,NO2,8,9,9
India,Bihar,Munger,"Town Hall, Munger - BSPCB",14-02-2024 08:00:00,25.376776,86.471523,OZONE,7,14,10
India,Bihar,Muzaffarpur,"Buddha Colony, Muzaffarpur - BSPCB",14-02-2024 08:00:00,26.11442,85.39813,NH3,8,16,12
India,Bihar,Muzaffarpur,"MIT-Daudpur Kothi, Muzaffarpur - BSPCB",14-02-2024 08:00:00,26.1403345,85.3650192,PM2.5,87,331,224
India,Bihar,Patna,"DRM Office Danapur, Patna - BSPCB",14-02-2024 08:00:00,25.586562,85.043586,NH3,3,4,3
India,Bihar,Patna,"Govt. High School Shikarpur, Patna - BSPCB",14-02-2024 08:00:00,25.592539,85.227158,PM10,57,206,143
India,Bihar,Patna,"IGSC Planetarium Complex, Patna - BSPCB",14-02-2024 08:00:00,25.610369,85.132568,PM2.5,54,319,176
India,Bihar,Patna,"IGSC Planetarium Complex, Patna - BSPCB",14-02-2024 08:00:00,25.610369,85.132568,SO2,7,8,7
India,Bihar,Patna,"Muradpur, Patna - BSPCB",14-02-2024 08:00:00,25.619651,85.147382,PM10,70,412,234
India,Bihar,Patna,"Rajbansi Nagar, Patna - BSPCB",14-02-2024 08:00:00,25.599486,85.113666,SO2,13,29,21
India,Bihar,Patna,"Samanpura, Patna - BSPCB",14-02-2024 08:00:00,25.596727,85.085624,PM10,135,408,262
India,Bihar,Purnia,"Mariam Nagar, Purnia - BSPCB",14-02-2024 08:00:00,25.366336,87.117468,PM10,138,282,204
India,Bihar,Rajgir,"Dangi Tola, Rajgir - BSPCB",14-02-2024 08:00:00,25.03280,85.41948,SO2,NA,NA,NA
India,Bihar,Saharsa,"Police Line, Saharsa - BSPCB",14-02-2024 08:00:00,25.892357,86.590325,SO2,NA,NA,NA
India,Bihar,Sasaram,"Dada Peer, Sasaram - BSPCB",14-02-2024 08:00:00,24.952822,84.002396,NO2,1,12,6
India,Bihar,Sasaram,"Dada Peer, Sasaram - BSPCB",14-02-2024 08:00:00,24.952822,84.002396,CO,32,84,45
India,Bihar,Siwan,"Chitragupta Nagar, Siwan - BSPCB",14-02-2024 08:00:00,26.2271665,84.3570427,OZONE,8,46,13
India,Chandigarh,Chandigarh,"Sector 22, Chandigarh - CPCC",14-02-2024 08:00:00,30.735567,76.775714,NO2,30,129,61
India,Chandigarh,Chandigarh,"Sector-53, Chandigarh - CPCC",14-02-2024 08:00:00,30.719859,76.738637,PM10,NA,NA,NA
India,Chandigarh,Chandigarh,"Sector-53, Chandigarh - CPCC",14-02-2024 08:00:00,30.719859,76.738637,NO2,NA,NA,NA
India,Chhattisgarh,Bhilai,"32Bungalows, Bhilai - CECB",14-02-2024 08:00:00,21.194815,81.314770,PM10,39,73,57
India,Chhattisgarh,Bhilai,"32Bungalows, Bhilai - CECB",14-02-2024 08:00:00,21.194815,81.314770,CO,23,78,59
India,Chhattisgarh,Bhilai,"Civic Center, Bhilai - Bhilai Steel Plant",14-02-2024 08:00:00,21.185571,81.343175,PM2.5,18,76,30
India,Chhattisgarh,Bhilai,"Civic Center, Bhilai - Bhilai Steel Plant",14-02-2024 08:00:00,21.185571,81.343175,CO,30,56,36
India,Chhattisgarh,Bhilai,"Hathkhoj, Bhilai - CECB",14-02-2024 08:00:00,21.224231,81.408350,PM10,81,131,106
India,Chhattisgarh,Bilaspur,"Mangala, Bilaspur - NTPC",14-02-2024 08:00:00,22.08815,82.13737,PM10,47,104,71
India,Chhattisgarh,Bilaspur,"Mangala, Bilaspur - NTPC",14-02-2024 08:00:00,22.08815,82.13737,CO,31,52,36
India,Chhattisgarh,Chhal,"Nawapara SECL Colony, Chhal - CECB",14-02-2024 08:00:00,22.118125,83.140608,PM2.5,34,166,102
India,Chhattisgarh,Chhal,"Nawapara SECL Colony, Chhal - CECB",14-02-2024 08:00:00,22.118125,83.140608,SO2,11,16,14
India,Chhattisgarh,Korba,"Rampur, Korba - CECB",14-02-2024 08:00:00,22.368195,82.746431,PM10,30,58,45
India,Chhattisgarh,Korba,"Rampur, Korba - CECB",14-02-2024 08:00:00,22.368195,82.746431,SO2,7,26,12
India,Chhattisgarh,Korba,"Rampur, Korba - CECB",14-02-2024 08:00:00,22.368195,82.746431,CO,24,38,35
India,Chhattisgarh,Kunjemura,"OP Jindal School, Kunjemura - CECB",14-02-2024 08:00:00,22.126650,83.483212,NH3,1,5,2
India,Chhattisgarh,Milupara,"Govt. Higher Secondary School, Milupara - CECB",14-02-2024 08:00:00,22.1910172,83.5197009,SO2,NA,NA,NA
India,Chhattisgarh,Milupara,"Govt. Higher Secondary School, Milupara - CECB",14-02-2024 08:00:00,22.1910172,83.5197009,OZONE,NA,NA,NA
India,Chhattisgarh,Raipur,"AIIMS, Raipur - CECB",14-02-2024 08:00:00,21.258815,81.578979,NO2,38,63,51
India,Chhattisgarh,Raipur,"AIIMS, Raipur - CECB",14-02-2024 08:00:00,21.258815,81.578979,SO2,6,27,10
India,Chhattisgarh,Raipur,"Bhatagaon New ISBT, Raipur - CECB",14-02-2024 08:00:00,21.219665,81.630094,OZONE,NA,NA,NA
India,Chhattisgarh,Raipur,"Krishak Nagar, Raipur - CECB",14-02-2024 08:00:00,21.237755,81.705301,SO2,8,13,10
India,Chhattisgarh,Raipur,"Siltara Phase-II, Raipur - CECB",14-02-2024 08:00:00,21.371751,81.664929,NO2,57,70,62
India,Chhattisgarh,Tumidih,"OP Jindal Industrial Park, Tumidih - CECB",14-02-2024 08:00:00,22.06631475,83.33820077,PM2.5,36,56,45
India,Chhattisgarh,Tumidih,"OP Jindal Industrial Park, Tumidih - CECB",14-02-2024 08:00:00,22.06631475,83.33820077,PM10,34,162,72
India,Delhi,Delhi,"Anand Vihar, Delhi - DPCC",14-02-2024 08:00:00,28.647622,77.3158090,NH3,7,23,13
India,Delhi,Delhi,"Ashok Vihar, Delhi - DPCC",14-02-2024 08:00:00,28.695381,77.181665,SO2,19,31,24
India,Delhi,Delhi,"Aya Nagar, Delhi - IMD",14-02-2024 08:00:00,28.4706914,77.1099364,PM2.5,142,399,325
India,Delhi,Delhi,"Aya Nagar, Delhi - IMD",14-02-2024 08:00:00,28.4706914,77.1099364,OZONE,NA,NA,NA
India,Delhi,Delhi,"Bawana, Delhi - DPCC",14-02-2024 08:00:00,28.776200,77.051074,NO2,22,100,57
India,Delhi,Delhi,"Burari Crossing, Delhi - IMD",14-02-2024 08:00:00,28.7256504,77.2011573,PM10,NA,NA,NA
India,Delhi,Delhi,"DTU, Delhi - CPCB",14-02-2024 08:00:00,28.7500499,77.1112615,OZONE,26,29,26
India,Delhi,Delhi,"Dwarka-Sector 8, Delhi - DPCC ",14-02-2024 08:00:00,28.5710274,77.0719006,PM10,227,500,368
India,Delhi,Delhi,"Dwarka-Sector 8, Delhi - DPCC ",14-02-2024 08:00:00,28.5710274,77.0719006,NH3,7,10,8
India,Delhi,Delhi,"Dwarka-Sector 8, Delhi - DPCC ",14-02-2024 08:00:00,28.5710274,77.0719006,SO2,4,13,9
India,Delhi,Delhi,"IGI Airport (T3), Delhi - IMD",14-02-2024 08:00:00,28.5627763,77.1180053,CO,24,110,75
India,Delhi,Delhi,"IHBAS, Dilshad Garden, Delhi - CPCB",14-02-2024 08:00:00,28.6811736,77.3025234,PM10,151,425,221
India,Delhi,Delhi,"IHBAS, Dilshad Garden, Delhi - CPCB",14-02-2024 08:00:00,28.6811736,77.3025234,NH3,9,16,13
India,Delhi,Delhi,"ITO, Delhi - CPCB",14-02-2024 08:00:00,28.628624,77.241060,PM10,104,212,154
India,Delhi,Delhi,"ITO, Delhi - CPCB",14-02-2024 08:00:00,28.628624,77.241060,CO,44,145,92
India,Delhi,Delhi,"Jahangirpuri, Delhi - DPCC",14-02-2024 08:00:00,28.732820,77.170633,CO,60,130,89
India,Delhi,Delhi,"Lodhi Road, Delhi - IMD",14-02-2024 08:00:00,28.5918245,77.2273074,PM10,124,424,226
India,Delhi,Delhi,"Lodhi Road, Delhi - IMD",14-02-2024 08:00:00,28.5918245,77.2273074,OZONE,14,90,14
India,Delhi,Delhi,"Mandir Marg, Delhi - DPCC",14-02-2024 08:00:00,28.636429,77.201067,PM2.5,295,421,376
India,Delhi,Delhi,"Mandir Marg, Delhi - DPCC",14-02-2024 08:00:00,28.636429,77.201067,NO2,98,166,125
India,Delhi,Delhi,"Mandir Marg, Delhi - DPCC",14-02-2024 08:00:00,28.636429,77.201067,SO2,8,11,9
India,Delhi,Delhi,"Mandir Marg, Delhi - DPCC",14-02-2024 08:00:00,28.636429,77.201067,CO,3,112,61
India,Delhi,Delhi,"Mundka, Delhi - DPCC",14-02-2024 08:00:00,28.684678,77.076574,SO2,1,26,9
India,Delhi,Delhi,"Najafgarh, Delhi - DPCC",14-02-2024 08:00:00,28.570173,76.933762,NH3,1,5,1
India,Delhi,Delhi,"Najafgarh, Delhi - DPCC",14-02-2024 08:00:00,28.570173,76.933762,CO,26,68,38
India,Delhi,Delhi,"Narela, Delhi - DPCC",14-02-2024 08:00:00,28.822836,77.101981,SO2,3,37,11
India,Delhi,Delhi,"Okhla Phase-2, Delhi - DPCC",14-02-2024 08:00:00,28.530785,77.271255,NH3,15,22,18
India,Delhi,Delhi,"Okhla Phase-2, Delhi - DPCC",14-02-2024 08:00:00,28.530785,77.271255,CO,76,132,99
India,Delhi,Delhi,"Punjabi Bagh, Delhi - DPCC",14-02-2024 08:00:00,28.674045,77.131023,PM10,180,419,319
India,Delhi,Delhi,"Pusa, Delhi - DPCC",14-02-2024 08:00:00,28.639652,77.146275,NH3,9,33,16
India,Delhi,Delhi,"Pusa, Delhi - DPCC",14-02-2024 08:00:00,28.639652,77.146275,SO2,9,26,15
India,Delhi,Delhi,"R K Puram, Delhi - DPCC",14-02-2024 08:00:00,28.563262,77.186937,PM2.5,267,469,392
India,Delhi,Delhi,"Rohini, Delhi - DPCC",14-02-2024 08:00:00,28.732528,77.119920,PM2.5,315,442,397
India,Delhi,Delhi,"Rohini, Delhi - DPCC",14-02-2024 08:00:00,28.732528,77.119920,NO2,42,103,68
India,Delhi,Delhi,"Rohini, Delhi - DPCC",14-02-2024 08:00:00,28.732528,77.119920,CO,38,112,89
India,Delhi,Delhi,"Rohini, Delhi - DPCC",14-02-2024 08:00:00,28.732528,77.119920,OZONE,2,101,3
India,Delhi,Delhi,"Shadipur, Delhi - CPCB",14-02-2024 08:00:00,28.6514781,77.1473105,SO2,24,92,53
India,Delhi,Delhi,"Sonia Vihar, Delhi - DPCC",14-02-2024 08:00:00,28.710508,77.249485,PM10,239,488,372
India,Delhi,Delhi,"Sonia Vihar, Delhi - DPCC",14-02-2024 08:00:00,28.710508,77.249485,OZONE,4,220,5
India,Delhi,Delhi,"Sri Aurobindo Marg, Delhi - DPCC",14-02-2024 08:00:00,28.531346,77.190156,PM10,152,364,250
India,Delhi,Delhi,"Vivek Vihar, Delhi - DPCC",14-02-2024 08:00:00,28.672342,77.315260,PM2.5,339,500,415
India,Delhi,Delhi,"Wazirpur, Delhi - DPCC",14-02-2024 08:00:00,28.699793,77.165453,NH3,5,9,7
India,Delhi,Delhi,"Wazirpur, Delhi - DPCC",14-02-2024 08:00:00,28.699793,77.165453,SO2,1,59,30
India,Delhi,Delhi,"Wazirpur, Delhi - DPCC",14-02-2024 08:00:00,28.699793,77.165453,CO,10,130,29
India,Gujarat,Ahmedabad,"Chandkheda, Ahmedabad - IITM",14-02-2024 08:00:00,23.107969,72.574648,PM2.5,21,325,88
India,Gujarat,Ahmedabad,"Gyaspur, Ahmedabad - IITM",14-02-2024 08:00:00,22.977134,72.553024,OZONE,20,31,20
India,Gujarat,Ahmedabad,"Maninagar, Ahmedabad - GPCB",14-02-2024 08:00:00,23.002657,72.591912,PM10,61,107,80
India,Gujarat,Ahmedabad,"Rakhial, Ahmedabad - IITM",14-02-2024 08:00:00,23.016834,72.625775,PM2.5,65,293,140
India,Gujarat,Ahmedabad,"Rakhial, Ahmedabad - IITM",14-02-2024 08:00:00,23.016834,72.625775,NH3,3,9,6
India,Gujarat,Ahmedabad,"Rakhial, Ahmedabad - IITM",14-02-2024 08:00:00,23.016834,72.625775,SO2,4,24,10
India,Gujarat,Ahmedabad,"SAC ISRO Bopal, Ahmedabad - IITM",14-02-2024 08:00:00,23.041137,72.456691,PM10,55,134,87
India,Gujarat,Ahmedabad,"SVPI Airport Hansol, Ahmedabad - IITM",14-02-2024 08:00:00,23.076793,72.627874,PM2.5,39,122,73
India,Gujarat,Ahmedabad,"Sardar Vallabhbhai Patel Stadium, Ahmedabad - IITM",14-02-2024 08:00:00,23.043070,72.562968,NO2,12,14,13
India,Gujarat,Ahmedabad,"Sardar Vallabhbhai Patel Stadium, Ahmedabad - IITM",14-02-2024 08:00:00,23.043070,72.562968,SO2,6,10,8
India,Gujarat,Ahmedabad,"Sardar Vallabhbhai Patel Stadium, Ahmedabad - IITM",14-02-2024 08:00:00,23.043070,72.562968,CO,16,41,19
India,Gujarat,Ankleshwar,"GIDC, Ankleshwar - GPCB",14-02-2024 08:00:00,21.613267,73.010555,CO,6,84,65
India,Gujarat,Gandhinagar,"GIFT City, Gandhinagar - IITM",14-02-2024 08:00:00,23.163798,72.677768,PM10,73,141,98
India,Gujarat,Gandhinagar,"GIFT City, Gandhinagar - IITM",14-02-2024 08:00:00,23.163798,72.677768,NO2,50,50,50
India,Gujarat,Gandhinagar,"GIFT City, Gandhinagar - IITM",14-02-2024 08:00:00,23.163798,72.677768,NH3,8,8,8
India,Gujarat,Gandhinagar,"GIFT City, Gandhinagar - IITM",14-02-2024 08:00:00,23.163798,72.677768,SO2,5,6,5
India,Gujarat,Gandhinagar,"IIPHG Lekawada, Gandhinagar - IITM",14-02-2024 08:00:00,23.243639,72.68994,PM10,88,136,104
India,Gujarat,Gandhinagar,"Sector-10, Gandhinagar - GPCB",14-02-2024 08:00:00,23.221714,72.654328,SO2,5,22,7
India,Gujarat,Gandhinagar,"Sector-10, Gandhinagar - GPCB",14-02-2024 08:00:00,23.221714,72.654328,CO,16,101,26
India,Gujarat,Vapi,"Phase-1 GIDC, Vapi - GPCB",14-02-2024 08:00:00,20.362421,72.918013,NH3,15,19,17
India,Gujarat,Vapi,"Phase-1 GIDC, Vapi - GPCB",14-02-2024 08:00:00,20.362421,72.918013,SO2,45,46,45
India,Gujarat,Vapi,"Phase-1 GIDC, Vapi - GPCB",14-02-2024 08:00:00,20.362421,72.918013,CO,102,161,85
India,Gujarat,Vatva,"Phase-4 GIDC, Vatva - GPCB",14-02-2024 08:00:00,22.969611,72.643500,PM10,48,103,72
India,Gujarat,Vatva,"Phase-4 GIDC, Vatva - GPCB",14-02-2024 08:00:00,22.969611,72.643500,OZONE,5,91,25
India,Haryana,Ambala,"Patti Mehar, Ambala - HSPCB",14-02-2024 08:00:00,30.379589,76.778328,PM10,81,169,117
India,Haryana,Ambala,"Patti Mehar, Ambala - HSPCB",14-02-2024 08:00:00,30.379589,76.778328,CO,30,60,48
India,Haryana,Ambala,"Patti Mehar, Ambala - HSPCB",14-02-2024 08:00:00,30.379589,76.778328,OZONE,18,41,23
India,Haryana,Bahadurgarh,"Arya Nagar, Bahadurgarh - HSPCB",14-02-2024 08:00:00,28.6701,76.9254,NO2,29,40,36
India,Haryana,Bahadurgarh,"Arya Nagar, Bahadurgarh - HSPCB",14-02-2024 08:00:00,28.6701,76.9254,OZONE,37,48,42
India,Haryana,Ballabgarh,"Nathu Colony, Ballabgarh - HSPCB",14-02-2024 08:00:00,28.3419248,77.319699,NH3,1,2,2
India,Haryana,Ballabgarh,"Nathu Colony, Ballabgarh - HSPCB",14-02-2024 08:00:00,28.3419248,77.319699,OZONE,3,25,8
India,Haryana,Bhiwani,"H.B. Colony, Bhiwani - HSPCB",14-02-2024 08:00:00,28.806223,76.141105,PM2.5,177,307,240
India,Haryana,Bhiwani,"H.B. Colony, Bhiwani - HSPCB",14-02-2024 08:00:00,28.806223,76.141105,NH3,5,6,6
India,Haryana,Charkhi Dadri,"Mini Secretariat, Charkhi Dadri - HSPCB",14-02-2024 08:00:00,28.593883,76.270653,PM10,120,270,168
India,Haryana,Charkhi Dadri,"Mini Secretariat, Charkhi Dadri - HSPCB",14-02-2024 08:00:00,28.593883,76.270653,NO2,10,21,13
India,Haryana,Charkhi Dadri,"Mini Secretariat, Charkhi Dadri - HSPCB",14-02-2024 08:00:00,28.593883,76.270653,OZONE,13,16,15
India,Haryana,Dharuhera,"Municipal Corporation Office, Dharuhera -  HSPCB",14-02-2024 08:00:00,28.206800,76.799700,NO2,45,110,72
India,Haryana,Dharuhera,"Municipal Corporation Office, Dharuhera -  HSPCB",14-02-2024 08:00:00,28.206800,76.799700,NH3,9,25,19
India,Haryana,Faridabad,"New Industrial Town, Faridabad - HSPCB",14-02-2024 08:00:00,28.39072,77.30059,OZONE,35,165,49
India,Haryana,Faridabad,"Sector 30, Faridabad - HSPCB",14-02-2024 08:00:00,28.4417,77.3217,PM2.5,145,193,170
India,Haryana,Faridabad,"Sector 30, Faridabad - HSPCB",14-02-2024 08:00:00,28.4417,77.3217,NH3,9,9,9
India,Haryana,Fatehabad,"Huda Sector, Fatehabad - HSPCB",14-02-2024 08:00:00,29.503664,75.467934,PM2.5,NA,NA,NA
India,Haryana,Fatehabad,"Huda Sector, Fatehabad - HSPCB",14-02-2024 08:00:00,29.503664,75.467934,NH3,NA,NA,NA
India,Haryana,Fatehabad,"Huda Sector, Fatehabad - HSPCB",14-02-2024 08:00:00,29.503664,75.467934,CO,NA,NA,NA
India,Haryana,Gurugram,"Sector-51, Gurugram - HSPCB",14-02-2024 08:00:00,28.4227,77.0667,PM2.5,316,485,384
India,Haryana,Gurugram,"Sector-51, Gurugram - HSPCB",14-02-2024 08:00:00,28.4227,77.0667,PM10,165,453,274
India,Haryana,Gurugram,"Sector-51, Gurugram - HSPCB",14-02-2024 08:00:00,28.4227,77.0667,OZONE,27,67,37
India,Haryana,Gurugram,"Vikas Sadan, Gurugram - HSPCB",14-02-2024 08:00:00,28.4501238,77.0263051,SO2,18,35,28
India,Haryana,Gurugram,"Vikas Sadan, Gurugram - HSPCB",14-02-2024 08:00:00,28.4501238,77.0263051,OZONE,7,69,10
India,Haryana,Jind,"Police Lines, Jind - HSPCB",14-02-2024 08:00:00,29.307814,76.337619,NH3,2,5,4
India,Haryana,Jind,"Police Lines, Jind - HSPCB",14-02-2024 08:00:00,29.307814,76.337619,OZONE,2,22,12
India,Haryana,Karnal,"Sector-12, Karnal - HSPCB",14-02-2024 08:00:00,29.695300,77.002700,NH3,10,13,11
India,Haryana,Karnal,"Sector-12, Karnal - HSPCB",14-02-2024 08:00:00,29.695300,77.002700,SO2,12,13,13
India,Haryana,Karnal,"Sector-12, Karnal - HSPCB",14-02-2024 08:00:00,29.695300,77.002700,CO,27,98,50
India,Haryana,Mandikhera,"General Hospital, Mandikhera - HSPCB",14-02-2024 08:00:00,27.9002,76.9938,SO2,31,38,34
India,Haryana,Manesar,"Sector-2 IMT, Manesar - HSPCB",14-02-2024 08:00:00,28.360699,76.936090,NH3,7,16,8
India,Haryana,Manesar,"Sector-2 IMT, Manesar - HSPCB",14-02-2024 08:00:00,28.360699,76.936090,OZONE,5,52,6
India,Haryana,Narnaul,"Shastri Nagar, Narnaul - HSPCB",14-02-2024 08:00:00,28.060249,76.113115,NO2,16,58,35
India,Haryana,Narnaul,"Shastri Nagar, Narnaul - HSPCB",14-02-2024 08:00:00,28.060249,76.113115,OZONE,40,79,77
India,Haryana,Palwal,"Shyam Nagar, Palwal - HSPCB",14-02-2024 08:00:00,28.1485564,77.3320667,NO2,5,24,20
India,Haryana,Palwal,"Shyam Nagar, Palwal - HSPCB",14-02-2024 08:00:00,28.1485564,77.3320667,CO,14,34,22
India,Haryana,Rohtak,"MD University, Rohtak - HSPCB",14-02-2024 08:00:00,28.52123,76.37138,NO2,43,57,52
India,Haryana,Rohtak,"MD University, Rohtak - HSPCB",14-02-2024 08:00:00,28.52123,76.37138,OZONE,45,53,48
India,Haryana,Sirsa,"F-Block, Sirsa - HSPCB",14-02-2024 08:00:00,29.536400,75.015800,NO2,10,10,10
India,Haryana,Sirsa,"F-Block, Sirsa - HSPCB",14-02-2024 08:00:00,29.536400,75.015800,NH3,12,13,13
India,Haryana,Sirsa,"F-Block, Sirsa - HSPCB",14-02-2024 08:00:00,29.536400,75.015800,CO,68,92,81
India,Haryana,Sonipat,"Murthal, Sonipat - HSPCB",14-02-2024 08:00:00,29.027200,77.062100,PM10,109,178,146
India,Haryana,Yamuna Nagar,"Gobind Pura, Yamuna Nagar - HSPCB",14-02-2024 08:00:00,30.1480566,77.2893471,PM10,NA,NA,NA
India,Himachal Pradesh,Baddi,"HIMUDA Complex Phase-1, Baddi - HPPCB",14-02-2024 08:00:00,30.943887,76.801991,PM2.5,NA,NA,NA
India,Himachal Pradesh,Baddi,"HIMUDA Complex Phase-1, Baddi - HPPCB",14-02-2024 08:00:00,30.943887,76.801991,OZONE,24,160,56
India,Jharkhand,Dhanbad,"Sardar Patel Nagar, Dhanbad - JSPCB",14-02-2024 08:00:00,23.80569,86.44268,OZONE,NA,NA,NA
India,Jharkhand,Pathardih,"Mohalbani Ghat, Pathardih - DMC",14-02-2024 08:00:00,23.669880,86.411725,CO,NA,NA,NA
India,Karnataka,Bagalkot,"Vidayagiri, Bagalkot - KSPCB",14-02-2024 08:00:00,16.172806,75.659694,NO2,9,10,9
India,Karnataka,Bagalkot,"Vidayagiri, Bagalkot - KSPCB",14-02-2024 08:00:00,16.172806,75.659694,CO,19,56,38
India,Karnataka,Belgaum,"Ramteerth Nagar, Belgaum - KSPCB",14-02-2024 08:00:00,15.888653,74.541751,PM2.5,24,99,57
India,Karnataka,Bengaluru,"BTM Layout, Bengaluru - CPCB",14-02-2024 08:00:00,12.9135218,77.5950804,PM2.5,26,51,36
India,Karnataka,Bengaluru,"BTM Layout, Bengaluru - CPCB",14-02-2024 08:00:00,12.9135218,77.5950804,CO,36,38,37
India,Karnataka,Bengaluru,"BTM Layout, Bengaluru - CPCB",14-02-2024 08:00:00,12.9135218,77.5950804,OZONE,7,25,16
India,Karnataka,Bengaluru,"Bapuji Nagar, Bengaluru - KSPCB",14-02-2024 08:00:00,12.951913,77.539784,SO2,5,7,6
India,Karnataka,Bengaluru,"Bapuji Nagar, Bengaluru - KSPCB",14-02-2024 08:00:00,12.951913,77.539784,OZONE,9,11,11
India,Karnataka,Bengaluru,"Hebbal, Bengaluru - KSPCB",14-02-2024 08:00:00,13.029152,77.585901,CO,6,36,9
India,Karnataka,Bengaluru,"Hombegowda Nagar, Bengaluru - KSPCB",14-02-2024 08:00:00,12.938539,77.590100,NH3,1,2,2
India,Karnataka,Bengaluru,"Hombegowda Nagar, Bengaluru - KSPCB",14-02-2024 08:00:00,12.938539,77.590100,SO2,2,5,3
India,Karnataka,Bengaluru,"Hombegowda Nagar, Bengaluru - KSPCB",14-02-2024 08:00:00,12.938539,77.590100,CO,16,20,17
India,Karnataka,Bengaluru,"Jigani, Bengaluru - KSPCB",14-02-2024 08:00:00,12.7816279,77.6299145,NH3,4,4,4
India,Karnataka,Bengaluru,"Kasturi Nagar, Bengaluru - KSPCB",14-02-2024 08:00:00,13.003872,77.664217,NO2,16,17,17
India,Karnataka,Bengaluru,"Sanegurava Halli, Bengaluru - KSPCB",14-02-2024 08:00:00,12.990328,77.5431385,PM10,27,67,36
India,Karnataka,Bengaluru,"Sanegurava Halli, Bengaluru - KSPCB",14-02-2024 08:00:00,12.990328,77.5431385,SO2,1,3,2
India,Karnataka,Bengaluru,"Sanegurava Halli, Bengaluru - KSPCB",14-02-2024 08:00:00,12.990328,77.5431385,CO,8,26,14
India,Karnataka,Bengaluru,"Silk Board, Bengaluru - KSPCB",14-02-2024 08:00:00,12.917348,77.622813,NO2,22,28,24
India,Karnataka,Bengaluru,"Silk Board, Bengaluru - KSPCB",14-02-2024 08:00:00,12.917348,77.622813,CO,31,42,34
India,Karnataka,Chikkaballapur,"Chikkaballapur Rural, Chikkaballapur - KSPCB",14-02-2024 08:00:00,13.428828,77.731418,NO2,2,4,3
India,Karnataka,Chikkaballapur,"Chikkaballapur Rural, Chikkaballapur - KSPCB",14-02-2024 08:00:00,13.428828,77.731418,SO2,17,25,20
India,Karnataka,Chikkaballapur,"Chikkaballapur Rural, Chikkaballapur - KSPCB",14-02-2024 08:00:00,13.428828,77.731418,CO,12,13,12
India,Karnataka,Gadag,"Panchal Nagar, Gadag - KSPCB",14-02-2024 08:00:00,15.411456,75.638133,CO,38,48,43
India,Karnataka,Haveri,"Ashwini Nagar, Haveri - KSPCB",14-02-2024 08:00:00,14.791800,75.389600,NO2,22,41,31
India,Karnataka,Hubballi,"Lingaraj Nagar, Hubballi - KSPCB",14-02-2024 08:00:00,15.3714823,75.1160168,NO2,16,16,16
India,Karnataka,Kalaburagi,"Lal Bahadur Shastri Nagar, Kalaburagi - KSPCB",14-02-2024 08:00:00,17.321993,76.822628,PM2.5,NA,NA,NA
India,Karnataka,Kalaburagi,"Mahatma Basaveswar Colony, Kalaburgi - KSPCB",14-02-2024 08:00:00,17.336318,76.847397,SO2,4,10,5
India,Karnataka,Karwar,"KHB Colony, Karwar - KSPCB",14-02-2024 08:00:00,14.816666,74.141003,PM2.5,67,263,101
India,Karnataka,Kolar,"Tamaka Ind. Area, Kolar - KSPCB",14-02-2024 08:00:00,13.1276288,78.1570122,NH3,5,9,8
India,Karnataka,Kolar,"Tamaka Ind. Area, Kolar - KSPCB",14-02-2024 08:00:00,13.1276288,78.1570122,CO,8,16,10
India,Karnataka,Madikeri,"Stuart Hill, Madikeri - KSPCB",14-02-2024 08:00:00,12.415911,75.735050,NO2,6,10,7
India,Karnataka,Mysuru,"Hebbal 1st Stage, Mysuru - KSPCB",14-02-2024 08:00:00,12.21041,76.37376,PM2.5,22,46,31
India,Karnataka,Mysuru,"Hebbal 1st Stage, Mysuru - KSPCB",14-02-2024 08:00:00,12.21041,76.37376,NO2,5,50,22
India,Karnataka,Raichur,"Haji Colony, Raichur - KSPCB",14-02-2024 08:00:00,16.208139,77.348417,PM10,NA,NA,NA
India,Karnataka,Ramanagara,"Vijay Nagar, Ramanagara - KSPCB",14-02-2024 08:00:00,12.733409,77.298051,OZONE,28,30,29
India,Karnataka,Shivamogga,"Vinoba Nagara, Shivamogga - KSPCB",14-02-2024 08:00:00,13.940000,75.555917,PM2.5,34,51,41
India,Karnataka,Shivamogga,"Vinoba Nagara, Shivamogga - KSPCB",14-02-2024 08:00:00,13.940000,75.555917,NO2,10,16,13
India,Karnataka,Shivamogga,"Vinoba Nagara, Shivamogga - KSPCB",14-02-2024 08:00:00,13.940000,75.555917,NH3,2,4,3
India,Karnataka,Shivamogga,"Vinoba Nagara, Shivamogga - KSPCB",14-02-2024 08:00:00,13.940000,75.555917,CO,13,44,23
India,Karnataka,Tumakuru,"Thimmalapura, Tumakuru - KSPCB",14-02-2024 08:00:00,13.377516,77.099072,NO2,NA,NA,NA
India,Karnataka,Vijayapura,"Ibrahimpur, Vijayapura - KSPCB",14-02-2024 08:00:00,16.802639,75.722694,NO2,17,19,19
India,Karnataka,Vijayapura,"Ibrahimpur, Vijayapura - KSPCB",14-02-2024 08:00:00,16.802639,75.722694,OZONE,13,15,15
India,Karnataka,Yadgir,"Collector Office, Yadgir - KSPCB",14-02-2024 08:00:00,16.7602,77.1428,OZONE,18,19,19
India,Kerala,Eloor,"Udyogamandal, Eloor - Kerala PCB",14-02-2024 08:00:00,10.073232,76.302765,NO2,4,4,4
India,Kerala,Kannur,"Thavakkara, Kannur - Kerala PCB",14-02-2024 08:00:00,11.875000,75.373200,NO2,6,7,6
India,Kerala,Kannur,"Thavakkara, Kannur - Kerala PCB",14-02-2024 08:00:00,11.875000,75.373200,OZONE,31,36,31
India,Kerala,Kochi,"Vyttila, Kochi - Kerala PCB",14-02-2024 08:00:00,9.969447,76.321186,PM10,48,127,80
India,Kerala,Kochi,"Vyttila, Kochi - Kerala PCB",14-02-2024 08:00:00,9.969447,76.321186,NH3,2,3,3
India,Kerala,Kochi,"Vyttila, Kochi - Kerala PCB",14-02-2024 08:00:00,9.969447,76.321186,SO2,5,26,10
India,Kerala,Kollam,"Polayathode, Kollam - Kerala PCB",14-02-2024 08:00:00,8.8787,76.6073,SO2,1,9,3
India,Kerala,Kollam,"Polayathode, Kollam - Kerala PCB",14-02-2024 08:00:00,8.8787,76.6073,OZONE,31,39,32
India,Kerala,Thiruvananthapuram,"Plammoodu, Thiruvananthapuram - Kerala PCB",14-02-2024 08:00:00,8.5149093,76.9435879,NO2,10,12,11
India,Kerala,Thrissur,"Corporation Ground, Thrissur - Kerala PCB",14-02-2024 08:00:00,10.532400,76.215900,PM10,53,63,58
India,Madhya Pradesh,Bhopal,"Idgah Hills, Bhopal - MPPCB",14-02-2024 08:00:00,23.264759,77.381568,PM2.5,83,309,224
India,Madhya Pradesh,Bhopal,"Paryavaran Parisar, Bhopal - MPPCB",14-02-2024 08:00:00,23.210494,77.425409,SO2,23,27,25
India,Madhya Pradesh,Bhopal,"Paryavaran Parisar, Bhopal - MPPCB",14-02-2024 08:00:00,23.210494,77.425409,CO,5,119,18
India,Madhya Pradesh,Bhopal,"Paryavaran Parisar, Bhopal - MPPCB",14-02-2024 08:00:00,23.210494,77.425409,OZONE,3,93,36
India,Madhya Pradesh,Bhopal,"T T Nagar, Bhopal - MPPCB",14-02-2024 08:00:00,23.233584,77.400574,SO2,15,58,32
India,Madhya Pradesh,Dewas,"Bhopal Chauraha, Dewas - MPPCB",14-02-2024 08:00:00,22.9682591,76.064118,PM2.5,102,287,181
India,Madhya Pradesh,Dewas,"Bhopal Chauraha, Dewas - MPPCB",14-02-2024 08:00:00,22.9682591,76.064118,OZONE,19,49,30
India,Madhya Pradesh,Gwalior,"Deen Dayal Nagar, Gwalior - MPPCB",14-02-2024 08:00:00,26.259242,78.216432,NH3,6,14,10
India,Madhya Pradesh,Gwalior,"Maharaj Bada, Gwalior - MPPCB",14-02-2024 08:00:00,26.200388,78.147714,PM2.5,80,318,189
India,Madhya Pradesh,Indore,"Chhoti Gwaltoli, Indore - MPPCB",14-02-2024 08:00:00,22.4310,75.5213,CO,57,110,72
India,Madhya Pradesh,Indore,"Maguda Nagar, Indore - IMC",14-02-2024 08:00:00,22.7524,75.8872,NO2,4,5,5
India,Madhya Pradesh,Indore,"Regional Park, Indore - IMC",14-02-2024 08:00:00,22.6780,75.8559,PM2.5,NA,NA,NA
India,Madhya Pradesh,Indore,"Regional Park, Indore - IMC",14-02-2024 08:00:00,22.6780,75.8559,NO2,8,15,11
India,Madhya Pradesh,Indore,"Residency Area, Indore - IMC",14-02-2024 08:00:00,22.7084,75.8815,NO2,40,62,48
India,Madhya Pradesh,Jabalpur,"Gupteshwar, Jabalpur - JMC",14-02-2024 08:00:00,23.142888,79.916147,SO2,7,38,16
India,Madhya Pradesh,Jabalpur,"Marhatal, Jabalpur - MPPCB",14-02-2024 08:00:00,23.168606,79.932247,NH3,6,9,7
India,Madhya Pradesh,Jabalpur,"Marhatal, Jabalpur - MPPCB",14-02-2024 08:00:00,23.168606,79.932247,OZONE,10,45,15
India,Madhya Pradesh,Katni,"Gole Bazar, Katni - MPPCB",14-02-2024 08:00:00,23.50016,80.23284,NO2,11,98,62
India,Madhya Pradesh,Maihar,"Sahilara, Maihar - KJS Cements",14-02-2024 08:00:00,24.2613009,80.7231783,PM10,27,69,45
India,Madhya Pradesh,Ratlam,"Shasthri Nagar, Ratlam - IPCA Lab",14-02-2024 08:00:00,23.331731,75.045981,PM10,128,260,163
India,Madhya Pradesh,Sagar,"Civil Lines, Sagar - MPPCB",14-02-2024 08:00:00,23.838586,78.759431,NH3,5,8,6
India,Madhya Pradesh,Sagar,"Deen Dayal Nagar, Sagar - MPPCB",14-02-2024 08:00:00,23.8640158,78.80289321,NO2,22,24,24
India,Madhya Pradesh,Singrauli,"Suryakiran Bhawan NCL, Singrauli - MPPCB",14-02-2024 08:00:00,24.108970,82.645580,NH3,4,5,4
India,Maharashtra,Amravati,"Shivneri Colony, Amravati - MPCB",14-02-2024 08:00:00,20.9402359,77.7895248,PM10,92,155,118
India,Maharashtra,Amravati,"Shivneri Colony, Amravati - MPCB",14-02-2024 08:00:00,20.9402359,77.7895248,SO2,1,7,3
India,Maharashtra,Amravati,"Shri Shivaji Science College, Amaravati - MPCB",14-02-2024 08:00:00,20.939198,77.765701,PM2.5,65,242,124
India,Maharashtra,Amravati,"Shri Shivaji Science College, Amaravati - MPCB",14-02-2024 08:00:00,20.939198,77.765701,PM10,98,349,158
India,Maharashtra,Amravati,"Shri Shivaji Science College, Amaravati - MPCB",14-02-2024 08:00:00,20.939198,77.765701,NO2,11,110,50
India,Maharashtra,Amravati,"Shri Shivaji Science College, Amaravati - MPCB",14-02-2024 08:00:00,20.939198,77.765701,NH3,5,15,9
India,Maharashtra,Aurangabad,"Rachnakar Colony, Aurangabad - MPCB",14-02-2024 08:00:00,19.863756,75.321188,CO,6,148,32
India,Maharashtra,Belapur,"CBD Belapur, Belapur - MPCB",14-02-2024 08:00:00,19.0243902,73.0406721,CO,18,66,39
India,Maharashtra,Belapur,"CBD Belapur, Belapur - MPCB",14-02-2024 08:00:00,19.0243902,73.0406721,OZONE,1,90,7
India,Maharashtra,Bhiwandi,"Gokul Nagar, Bhiwandi - MPCB",14-02-2024 08:00:00,19.309073,73.057223,NO2,NA,NA,NA
India,Maharashtra,Bhiwandi,"Gokul Nagar, Bhiwandi - MPCB",14-02-2024 08:00:00,19.309073,73.057223,NH3,NA,NA,NA
India,Maharashtra,Bhiwandi,"Gokul Nagar, Bhiwandi - MPCB",14-02-2024 08:00:00,19.309073,73.057223,SO2,NA,NA,NA
India,Maharashtra,Boisar,"Khaira, Boisar - MPCB",14-02-2024 08:00:00,19.786089,72.757971,PM2.5,NA,NA,NA
India,Maharashtra,Boisar,"Khaira, Boisar - MPCB",14-02-2024 08:00:00,19.786089,72.757971,PM10,NA,NA,NA
India,Maharashtra,Boisar,"Khaira, Boisar - MPCB",14-02-2024 08:00:00,19.786089,72.757971,SO2,NA,NA,NA
India,Maharashtra,Chandrapur,"MIDC Khutala, Chandrapur - MPCB",14-02-2024 08:00:00,19.9775302,79.2337086,NH3,NA,NA,NA
India,Maharashtra,Jalna,"Old MIDC, Jalna - MPCB",14-02-2024 08:00:00,19.854616,75.905894,SO2,6,9,8
India,Maharashtra,Kalyan,"Khadakpada, Kalyan - MPCB",14-02-2024 08:00:00,19.25292,73.142019,CO,8,28,15
India,Maharashtra,Kolhapur,"Shivaji University, Kolhapur - MPCB",14-02-2024 08:00:00,16.6870449,74.2505872,SO2,1,23,7
India,Maharashtra,Kolhapur,"Shivaji University, Kolhapur - MPCB",14-02-2024 08:00:00,16.6870449,74.2505872,CO,88,112,101
India,Maharashtra,Kolhapur,"Sinchan Bhavan, Kolhapur - MPCB",14-02-2024 08:00:00,16.7143745,74.2426398,PM2.5,91,339,186
India,Maharashtra,Kolhapur,"Sinchan Bhavan, Kolhapur - MPCB",14-02-2024 08:00:00,16.7143745,74.2426398,CO,8,81,33
India,Maharashtra,Latur,"Sawe Wadi, Latur - MPCB",14-02-2024 08:00:00,18.39963,76.57452,PM10,75,137,95
India,Maharashtra,Mahad,"Kamble Tarf Birwadi, Mahad - MPCB",14-02-2024 08:00:00,18.1023399,73.4783687,OZONE,12,60,19
India,Maharashtra,Malegaon,"Mahesh Nagar, Malegaon - MPCB",14-02-2024 08:00:00,20.555712,74.529236,OZONE,20,62,36
India,Maharashtra,Mira-Bhayandar,"Bhayandar West, Mira-Bhayandar - MPCB",14-02-2024 08:00:00,19.296481,72.840923,OZONE,3,65,16
India,Maharashtra,Mumbai,"Bandra Kurla Complex, Mumbai - MPCB",14-02-2024 08:00:00,19.065931,72.862131,PM2.5,78,155,114
India,Maharashtra,Mumbai,"Byculla, Mumbai - BMC",14-02-2024 08:00:00,18.9767,72.8380,PM10,67,116,90
India,Maharashtra,Mumbai,"Byculla, Mumbai - BMC",14-02-2024 08:00:00,18.9767,72.8380,NO2,29,97,54
India,Maharashtra,Mumbai,"Chakala-Andheri East, Mumbai - IITM",14-02-2024 08:00:00,19.11074,72.86084,PM10,81,118,103
India,Maharashtra,Mumbai,"Chakala-Andheri East, Mumbai - IITM",14-02-2024 08:00:00,19.11074,72.86084,NO2,NA,NA,NA
India,Maharashtra,Mumbai,"Chakala-Andheri East, Mumbai - IITM",14-02-2024 08:00:00,19.11074,72.86084,NH3,NA,NA,NA
India,Maharashtra,Mumbai,"Chhatrapati Shivaji Intl. Airport (T2), Mumbai - MPCB",14-02-2024 08:00:00,19.10078,72.87462,PM10,83,125,101
India,Maharashtra,Mumbai,"Chhatrapati Shivaji Intl. Airport (T2), Mumbai - MPCB",14-02-2024 08:00:00,19.10078,72.87462,NH3,4,8,6
India,Maharashtra,Mumbai,"Chhatrapati Shivaji Intl. Airport (T2), Mumbai - MPCB",14-02-2024 08:00:00,19.10078,72.87462,CO,57,98,81
India,Maharashtra,Mumbai,"Ghatkopar, Mumbai - BMC",14-02-2024 08:00:00,19.083694,72.920967,PM10,97,143,114
India,Maharashtra,Mumbai,"Kandivali East, Mumbai - MPCB",14-02-2024 08:00:00,19.205800,72.868200,NO2,37,137,80
India,Maharashtra,Mumbai,"Kandivali East, Mumbai - MPCB",14-02-2024 08:00:00,19.205800,72.868200,NH3,4,10,6
India,Maharashtra,Mumbai,"Kandivali East, Mumbai - MPCB",14-02-2024 08:00:00,19.205800,72.868200,OZONE,29,31,30
India,Maharashtra,Mumbai,"Kandivali West, Mumbai - BMC",14-02-2024 08:00:00,19.215859,72.831718,NO2,19,64,34
India,Maharashtra,Mumbai,"Kandivali West, Mumbai - BMC",14-02-2024 08:00:00,19.215859,72.831718,CO,18,36,27
India,Maharashtra,Mumbai,"Kherwadi_Bandra East, Mumbai - MPCB",14-02-2024 08:00:00,19.0632143,72.8456324,NO2,21,115,74
India,Maharashtra,Mumbai,"Kherwadi_Bandra East, Mumbai - MPCB",14-02-2024 08:00:00,19.0632143,72.8456324,OZONE,1,49,2
India,Maharashtra,Mumbai,"Kurla, Mumbai - MPCB",14-02-2024 08:00:00,19.0863,72.8888,PM10,59,141,88
India,Maharashtra,Mumbai,"Kurla, Mumbai - MPCB",14-02-2024 08:00:00,19.0863,72.8888,SO2,32,32,32
India,Maharashtra,Mumbai,"Malad West, Mumbai - IITM",14-02-2024 08:00:00,19.19709,72.82204,PM2.5,109,262,179
India,Maharashtra,Mumbai,"Mazgaon, Mumbai - IITM",14-02-2024 08:00:00,18.96702,72.84214,NO2,80,183,127
India,Maharashtra,Mumbai,"Mazgaon, Mumbai - IITM",14-02-2024 08:00:00,18.96702,72.84214,CO,6,108,42
India,Maharashtra,Mumbai,"Mindspace-Malad West, Mumbai - MPCB",14-02-2024 08:00:00,19.1878657,72.8304069,PM10,99,121,112
India,Maharashtra,Mumbai,"Mindspace-Malad West, Mumbai - MPCB",14-02-2024 08:00:00,19.1878657,72.8304069,NH3,2,4,3
India,Maharashtra,Mumbai,"Mulund West, Mumbai - MPCB",14-02-2024 08:00:00,19.1750,72.9419,NO2,23,26,24
India,Maharashtra,Mumbai,"Mulund West, Mumbai - MPCB",14-02-2024 08:00:00,19.1750,72.9419,CO,30,31,31
India,Maharashtra,Mumbai,"Sewri, Mumbai - BMC",14-02-2024 08:00:00,19.000084,72.856730,CO,14,65,32
India,Maharashtra,Mumbai,"Shivaji Nagar, Mumbai - BMC",14-02-2024 08:00:00,19.060498,72.923356,NO2,45,169,97
India,Maharashtra,Mumbai,"Shivaji Nagar, Mumbai - BMC",14-02-2024 08:00:00,19.060498,72.923356,SO2,10,30,18
India,Maharashtra,Mumbai,"Sion, Mumbai - MPCB",14-02-2024 08:00:00,19.047000,72.874600,PM2.5,56,128,71
India,Maharashtra,Mumbai,"Vasai West, Mumbai - MPCB",14-02-2024 08:00:00,19.383200,72.820400,CO,24,123,42
India,Maharashtra,Mumbai,"Vile Parle West, Mumbai - MPCB",14-02-2024 08:00:00,19.10861,72.83622,NH3,6,10,9
India,Maharashtra,Mumbai,"Vile Parle West, Mumbai - MPCB",14-02-2024 08:00:00,19.10861,72.83622,OZONE,5,6,5
India,Maharashtra,Mumbai,"Worli, Mumbai - MPCB",14-02-2024 08:00:00,18.9936162,72.8128113,PM2.5,33,50,41
India,Maharashtra,Mumbai,"Worli, Mumbai - MPCB",14-02-2024 08:00:00,18.9936162,72.8128113,SO2,10,11,10
India,Maharashtra,Nagpur,"Ambazari, Nagpur - MPCB",14-02-2024 08:00:00,21.121801,79.04952,SO2,10,43,24
India,Maharashtra,Nagpur,"Mahal, Nagpur - MPCB",14-02-2024 08:00:00,21.14472,79.107595,PM10,57,179,95
India,Maharashtra,Nagpur,"Opp GPO Civil Lines, Nagpur - MPCB",14-02-2024 08:00:00,21.152875,79.0517531,PM10,47,148,96
India,Maharashtra,Nagpur,"Opp GPO Civil Lines, Nagpur - MPCB",14-02-2024 08:00:00,21.152875,79.0517531,OZONE,2,23,3
India,Maharashtra,Nagpur,"Ram Nagar, Nagpur - MPCB",14-02-2024 08:00:00,21.143383,79.048912,OZONE,4,61,19
India,Maharashtra,Nanded,"Sneh Nagar, Nanded - MPCB",14-02-2024 08:00:00,19.173852,77.296291,NH3,2,2,2
India,Maharashtra,Nashik,"Gangapur Road, Nashik - MPCB",14-02-2024 08:00:00,20.0073285,73.7762427,PM2.5,21,305,99
India,Maharashtra,Nashik,"Gangapur Road, Nashik - MPCB",14-02-2024 08:00:00,20.0073285,73.7762427,SO2,1,66,6
India,Maharashtra,Nashik,"Gangapur Road, Nashik - MPCB",14-02-2024 08:00:00,20.0073285,73.7762427,OZONE,2,76,40
India,Maharashtra,Nashik,"Hirawadi, Nashik - MPCB",14-02-2024 08:00:00,20.021503,73.813844,NH3,1,2,1
India,Maharashtra,Nashik,"Hirawadi, Nashik - MPCB",14-02-2024 08:00:00,20.021503,73.813844,CO,11,51,30
India,Maharashtra,Nashik,"Hirawadi, Nashik - MPCB",14-02-2024 08:00:00,20.021503,73.813844,OZONE,16,139,78
India,Maharashtra,Nashik,"MIDC Ambad, Nashik - MPCB",14-02-2024 08:00:00,19.950220,73.731480,PM10,75,106,94
India,Maharashtra,Nashik,"Pandav Nagari, Nashik - MPCB",14-02-2024 08:00:00,19.9591346,73.7788008,PM10,89,124,106
India,Maharashtra,Nashik,"Pandav Nagari, Nashik - MPCB",14-02-2024 08:00:00,19.9591346,73.7788008,NO2,26,72,39
India,Maharashtra,Nashik,"Pandav Nagari, Nashik - MPCB",14-02-2024 08:00:00,19.9591346,73.7788008,OZONE,26,82,68
India,Maharashtra,Navi Mumbai,"Kopripada-Vashi, Navi Mumbai - MPCB",14-02-2024 08:00:00,19.090337,73.014232,CO,10,76,29
India,Maharashtra,Navi Mumbai,"Nerul, Navi Mumbai - MPCB",14-02-2024 08:00:00,19.008751,73.016620,PM10,83,203,132
India,Maharashtra,Navi Mumbai,"Nerul, Navi Mumbai - MPCB",14-02-2024 08:00:00,19.008751,73.016620,NH3,3,6,4
India,Maharashtra,Navi Mumbai,"Sanpada, Navi Mumbai - MPCB",14-02-2024 08:00:00,19.0575752,73.0151367,OZONE,1,115,37
India,Maharashtra,Navi Mumbai,"Sector-19A Nerul, Navi Mumbai - IITM",14-02-2024 08:00:00,19.044,73.0325,PM2.5,90,347,218
India,Maharashtra,Navi Mumbai,"Sector-2E Kalamboli, Navi Mumbai - MPCB",14-02-2024 08:00:00,19.02579,73.10297,NO2,31,108,67
India,Maharashtra,Pimpri-Chinchwad,"Gavalinagar, Pimpri Chinchwad - MPCB",14-02-2024 08:00:00,18.63673,73.82487,PM2.5,30,230,128
India,Maharashtra,Pimpri-Chinchwad,"Gavalinagar, Pimpri Chinchwad - MPCB",14-02-2024 08:00:00,18.63673,73.82487,PM10,51,162,114
India,Maharashtra,Pimpri-Chinchwad,"Gavalinagar, Pimpri Chinchwad - MPCB",14-02-2024 08:00:00,18.63673,73.82487,CO,16,62,50
India,Maharashtra,Pimpri-Chinchwad,"Park Street Wakad, Pimpri Chinchwad - MPCB",14-02-2024 08:00:00,18.59051,73.77946,NO2,68,189,119
India,Maharashtra,Pimpri-Chinchwad,"Park Street Wakad, Pimpri Chinchwad - MPCB",14-02-2024 08:00:00,18.59051,73.77946,CO,10,103,62
India,Maharashtra,Pimpri-Chinchwad,"Park Street Wakad, Pimpri Chinchwad - MPCB",14-02-2024 08:00:00,18.59051,73.77946,OZONE,1,172,21
India,Maharashtra,Pimpri-Chinchwad,"Thergaon, Pimpri Chinchwad - MPCB",14-02-2024 08:00:00,18.616318,73.765797,NH3,5,16,8
India,Maharashtra,Pune,"Alandi, Pune - IITM",14-02-2024 08:00:00,18.675076,73.892743,PM10,65,111,94
India,Maharashtra,Pune,"Karve Road, Pune - MPCB",14-02-2024 08:00:00,18.5011743,73.8165527,SO2,8,72,24
India,Maharashtra,Pune,"Katraj Dairy, Pune - MPCB",14-02-2024 08:00:00,18.454450,73.854155,OZONE,9,31,13
India,Maharashtra,Pune,"Savitribai Phule Pune University, Pune - MPCB",14-02-2024 08:00:00,18.547056,73.826908,PM10,56,157,111
India,Maharashtra,Pune,"Savitribai Phule Pune University, Pune - MPCB",14-02-2024 08:00:00,18.547056,73.826908,NH3,1,17,9
India,Maharashtra,Pune,"Savitribai Phule Pune University, Pune - MPCB",14-02-2024 08:00:00,18.547056,73.826908,SO2,1,69,12
India,Maharashtra,Pune,"Savitribai Phule Pune University, Pune - MPCB",14-02-2024 08:00:00,18.547056,73.826908,CO,17,100,72
India,Maharashtra,Pune,"Transport Nagar-Nigdi, Pune - IITM",14-02-2024 08:00:00,18.664282,73.763966,NO2,16,92,25
India,Maharashtra,Solapur,"Dnyaneshwar Nagar, Solapur - MPCB",14-02-2024 08:00:00,17.6336264,75.9132495,NH3,11,25,15
India,Maharashtra,Solapur,"Dnyaneshwar Nagar, Solapur - MPCB",14-02-2024 08:00:00,17.6336264,75.9132495,SO2,5,21,10
India,Maharashtra,Solapur,"Ratandeep Housing Society, Solapur - MPCB",14-02-2024 08:00:00,17.65439,75.90649,PM2.5,53,73,62
India,Maharashtra,Solapur,"Ratandeep Housing Society, Solapur - MPCB",14-02-2024 08:00:00,17.65439,75.90649,PM10,57,88,73
India,Maharashtra,Solapur,"Ratandeep Housing Society, Solapur - MPCB",14-02-2024 08:00:00,17.65439,75.90649,SO2,7,34,17
India,Maharashtra,Solapur,"Solapur, Solapur - MPCB",14-02-2024 08:00:00,17.6599188,75.9063906,OZONE,36,72,57
India,Maharashtra,Thane,"Kasarvadavali, Thane - MPCB",14-02-2024 08:00:00,19.26777,72.97182,NH3,4,14,8
India,Maharashtra,Ulhasnagar,"Sidhi Vinayak Nagar, Ulhasnagar - MPCB",14-02-2024 08:00:00,19.235581,73.159121,SO2,5,110,30
India,Manipur,Imphal,"DM College of Science, Imphal - Manipur PCB",14-02-2024 08:00:00,24.8207389,93.9423085,SO2,82,86,84
India,Manipur,Imphal,"Manipur University, Imphal - Manipur PCB",14-02-2024 08:00:00,24.7524239,93.9286218,CO,10,40,26
India,Mizoram,Aizawl,"Sikulpuikawn, Aizawl - Mizoram PCB",14-02-2024 08:00:00,23.7176342,92.7192841,NO2,1,3,1
India,Mizoram,Aizawl,"Sikulpuikawn, Aizawl - Mizoram PCB",14-02-2024 08:00:00,23.7176342,92.7192841,OZONE,15,52,27
India,Odisha,Angul,"Hakimapada, Angul - OSPCB",14-02-2024 08:00:00,20.832874,85.104082,PM10,72,239,123
India,Odisha,Angul,"Hakimapada, Angul - OSPCB",14-02-2024 08:00:00,20.832874,85.104082,SO2,13,112,45
India,Odisha,Balasore,"Kalidaspur, Balasore - OSPCB",14-02-2024 08:00:00,21.51161,86.89088,NH3,5,11,7
India,Odisha,Balasore,"Kalidaspur, Balasore - OSPCB",14-02-2024 08:00:00,21.51161,86.89088,SO2,18,41,24
India,Odisha,Balasore,"Kalidaspur, Balasore - OSPCB",14-02-2024 08:00:00,21.51161,86.89088,CO,58,120,97
India,Odisha,Balasore,"Kalidaspur, Balasore - OSPCB",14-02-2024 08:00:00,21.51161,86.89088,OZONE,5,100,16
India,Odisha,Baripada,"Meher Colony, Baripada - OSPCB",14-02-2024 08:00:00,21.941841,86.728318,CO,38,74,52
India,Odisha,Bhubaneswar,"Lingraj Mandir, Bhubaneswar - OSPCB",14-02-2024 08:00:00,20.240790,85.836784,PM2.5,80,273,160
India,Odisha,Bhubaneswar,"Patia, Bhubaneswar - OSPCB",14-02-2024 08:00:00,20.34652,85.81630,PM10,88,153,117
India,Odisha,Brajrajnagar,"GM Office, Brajrajnagar - OSPCB",14-02-2024 08:00:00,21.8004996,83.8396977,PM2.5,22,93,58
India,Odisha,Brajrajnagar,"GM Office, Brajrajnagar - OSPCB",14-02-2024 08:00:00,21.8004996,83.8396977,NO2,18,22,20
India,Odisha,Brajrajnagar,"GM Office, Brajrajnagar - OSPCB",14-02-2024 08:00:00,21.8004996,83.8396977,NH3,1,2,2
India,Odisha,Byasanagar,"Ferro Chrome Colony, Byasanagar - OSPCB",14-02-2024 08:00:00,20.94185,86.11510,SO2,3,20,10
India,Odisha,Cuttack,"CDA Area, Cuttack - OSPCB",14-02-2024 08:00:00,20.48891     ,85.84768     ,NO2,14,45,25
India,Odisha,Cuttack,"CDA Area, Cuttack - OSPCB",14-02-2024 08:00:00,20.48891     ,85.84768     ,NH3,3,5,4
India,Odisha,Keonjhar,"Jagamohanpur, Keonjhar - OSPCB",14-02-2024 08:00:00,21.643900,85.599355,PM2.5,64,179,119
India,Odisha,Keonjhar,"Jagamohanpur, Keonjhar - OSPCB",14-02-2024 08:00:00,21.643900,85.599355,PM10,68,137,104
India,Odisha,Nayagarh,"Dabuna, Nayagarh - OSPCB",14-02-2024 08:00:00,21.847279,85.416905,NH3,1,6,4
India,Odisha,Rourkela,"Raghunathpali, Rourkela - OSPCB",14-02-2024 08:00:00,22.220833,84.809444,NO2,19,87,49
India,Odisha,Rourkela,"Raghunathpali, Rourkela - OSPCB",14-02-2024 08:00:00,22.220833,84.809444,CO,16,48,34
India,Odisha,Rourkela,"Sector-2, Rourkela - OSPCB",14-02-2024 08:00:00,22.24500000,84.88111111,PM2.5,55,243,113
India,Odisha,Rourkela,"Sector-2, Rourkela - OSPCB",14-02-2024 08:00:00,22.24500000,84.88111111,PM10,88,121,101
India,Odisha,Suakati,"OMC Colony, Suakati - OSPCB",14-02-2024 08:00:00,21.606865,85.510538,NH3,NA,NA,NA
India,Odisha,Talcher,"Talcher Coalfields,Talcher - OSPCB",14-02-2024 08:00:00,20.9360711,85.1707021,PM10,51,158,97
India,Odisha,Talcher,"Talcher Coalfields,Talcher - OSPCB",14-02-2024 08:00:00,20.9360711,85.1707021,OZONE,1,13,2
India,Punjab,Bathinda,"Hardev Nagar, Bathinda - PPCB",14-02-2024 08:00:00,30.233011,74.907758,PM2.5,70,201,136
India,Punjab,Ludhiana,"Punjab Agricultural University, Ludhiana - PPCB",14-02-2024 08:00:00,30.9028,75.8086,NO2,21,38,24
India,Punjab,Rupnagar,"Ratanpura, Rupnagar - Ambuja Cements",14-02-2024 08:00:00,31.0325454,76.5623046,PM2.5,41,160,95
India,Punjab,Rupnagar,"Ratanpura, Rupnagar - Ambuja Cements",14-02-2024 08:00:00,31.0325454,76.5623046,PM10,42,209,119
India,Punjab,Rupnagar,"Ratanpura, Rupnagar - Ambuja Cements",14-02-2024 08:00:00,31.0325454,76.5623046,CO,44,85,50
India,Rajasthan,Alwar,"Moti Doongri, Alwar - RSPCB",14-02-2024 08:00:00,27.554793,76.611536,PM2.5,82,272,124
India,Rajasthan,Baran,"Bamboliya, Baran - RSPCB",14-02-2024 08:00:00,25.106006,76.469948,PM2.5,NA,NA,NA
India,Rajasthan,Jaipur,"Shastri Nagar, Jaipur - RSPCB",14-02-2024 08:00:00,26.9502929,75.730943,PM10,122,168,139
India,Rajasthan,Jaipur,"Shastri Nagar, Jaipur - RSPCB",14-02-2024 08:00:00,26.9502929,75.730943,OZONE,59,245,140
India,Rajasthan,Jodhpur,"Collectorate, Jodhpur - RSPCB",14-02-2024 08:00:00,26.268249,73.0193853,NO2,34,62,44
India,Rajasthan,Jodhpur,"Collectorate, Jodhpur - RSPCB",14-02-2024 08:00:00,26.268249,73.0193853,OZONE,55,142,87
India,Rajasthan,Pali,"Indira Colony Vistar, Pali - RSPCB",14-02-2024 08:00:00,25.771061, 73.340227,PM10,77,139,108
India,Rajasthan,Pali,"Indira Colony Vistar, Pali - RSPCB",14-02-2024 08:00:00,25.771061, 73.340227,NH3,6,18,14
India,Rajasthan,Pali,"Indira Colony Vistar, Pali - RSPCB",14-02-2024 08:00:00,25.771061, 73.340227,CO,27,103,54
India,Rajasthan,Rajsamand,"Dhoinda, Rajsamand - RSPCB",14-02-2024 08:00:00,25.036360,73.883502,PM2.5,NA,NA,NA
India,TamilNadu,Ariyalur,"Keelapalur, Ariyalur - TNPCB",14-02-2024 08:00:00,11.06825,79.07033,PM10,21,47,34
India,TamilNadu,Ariyalur,"Keelapalur, Ariyalur - TNPCB",14-02-2024 08:00:00,11.06825,79.07033,NO2,9,31,14
India,TamilNadu,Chennai,"Arumbakkam, Chennai - TNPCB",14-02-2024 08:00:00,13.0664,80.2112 ,PM10,30,121,69
India,TamilNadu,Chennai,"Arumbakkam, Chennai - TNPCB",14-02-2024 08:00:00,13.0664,80.2112 ,NO2,10,38,20
India,TamilNadu,Chennai,"Manali, Chennai - CPCB",14-02-2024 08:00:00,13.164544,80.26285,NO2,6,16,11
India,TamilNadu,Chennai,"Manali, Chennai - CPCB",14-02-2024 08:00:00,13.164544,80.26285,OZONE,11,21,16
India,TamilNadu,Chennai,"Perungudi, Chennai - TNPCB",14-02-2024 08:00:00,12.9533,80.2357,NH3,2,3,2
India,TamilNadu,Chennai,"Royapuram, Chennai - TNPCB",14-02-2024 08:00:00,13.1036,80.2909,NO2,8,36,17
India,TamilNadu,Chennai,"Royapuram, Chennai - TNPCB",14-02-2024 08:00:00,13.1036,80.2909,SO2,1,10,4
India,TamilNadu,Chennai,"Velachery Res. Area, Chennai - CPCB",14-02-2024 08:00:00,13.0052189,80.2398125,OZONE,8,25,16
India,TamilNadu,Coimbatore,"PSG College of Arts and Science, Coimbatore - TNPCB",14-02-2024 08:00:00,11.0328,77.0349,SO2,14,22,17
India,TamilNadu,Coimbatore,"PSG College of Arts and Science, Coimbatore - TNPCB",14-02-2024 08:00:00,11.0328,77.0349,OZONE,3,5,4
India,TamilNadu,Cuddalore,"Kudikadu, Cuddalore - TNPCB",14-02-2024 08:00:00,11.6829898,79.7532099,SO2,14,18,15
India,TamilNadu,Cuddalore,"Semmandalam, Cuddalore - TNPCB",14-02-2024 08:00:00,11.7637683,79.7499835,PM2.5,18,75,37
India,TamilNadu,Gummidipoondi,"Anthoni Pillai Nagar, Gummidipoondi - TNPCB",14-02-2024 08:00:00,13.4127,80.1081,NH3,1,2,2
India,TamilNadu,Kanchipuram,"Kilambi, Kanchipuram - TNPCB",14-02-2024 08:00:00,12.864618,79.659968,PM2.5,NA,NA,NA
India,TamilNadu,Kanchipuram,"Kilambi, Kanchipuram - TNPCB",14-02-2024 08:00:00,12.864618,79.659968,CO,NA,NA,NA
India,TamilNadu,Ooty,"Bombay Castel, Ooty - TNPCB",14-02-2024 08:00:00,11.4068288,76.7138973,NO2,NA,NA,NA
India,TamilNadu,Palkalaiperur,"Bharathidasan University, Palkalaiperur - TNPCB",14-02-2024 08:00:00,10.681158,78.741746,SO2,NA,NA,NA
India,TamilNadu,Salem,"Sona College of Technology, Salem - TNPCB",14-02-2024 08:00:00,11.679111,78.125052,PM10,37,89,51
India,TamilNadu,Salem,"Sona College of Technology, Salem - TNPCB",14-02-2024 08:00:00,11.679111,78.125052,SO2,21,22,22
India,TamilNadu,Thoothukudi,"Meelavittan, Thoothukudi - TNPCB",14-02-2024 08:00:00,8.816428 ,78.099039,SO2,8,17,13
India,TamilNadu,Thoothukudi,"Meelavittan, Thoothukudi - TNPCB",14-02-2024 08:00:00,8.816428 ,78.099039,CO,6,97,24
India,TamilNadu,Tirupur,"Kumaran College, Tirupur - TNPCB",14-02-2024 08:00:00,11.0973603,77.3228673,OZONE,NA,NA,NA
India,TamilNadu,Virudhunagar,"Collectorate Office, Virudhunagar - TNPCB",14-02-2024 08:00:00,9.559382,77.948828,PM2.5,18,42,30
India,TamilNadu,Virudhunagar,"Collectorate Office, Virudhunagar - TNPCB",14-02-2024 08:00:00,9.559382,77.948828,OZONE,3,3,3
India,Telangana,Hyderabad,"Bollaram Industrial Area, Hyderabad - TSPCB",14-02-2024 08:00:00,17.540891,78.358528,NH3,2,3,3
India,Telangana,Hyderabad,"Bollaram Industrial Area, Hyderabad - TSPCB",14-02-2024 08:00:00,17.540891,78.358528,CO,16,39,25
India,Telangana,Hyderabad,"Central University, Hyderabad - TSPCB",14-02-2024 08:00:00,17.460103,78.334361,PM10,28,72,43
India,Telangana,Hyderabad,"Central University, Hyderabad - TSPCB",14-02-2024 08:00:00,17.460103,78.334361,SO2,4,11,6
India,Telangana,Hyderabad,"Central University, Hyderabad - TSPCB",14-02-2024 08:00:00,17.460103,78.334361,CO,8,57,41
India,Telangana,Hyderabad,"ICRISAT Patancheru, Hyderabad - TSPCB",14-02-2024 08:00:00,17.518400,78.278777,SO2,9,18,13
India,Telangana,Hyderabad,"ICRISAT Patancheru, Hyderabad - TSPCB",14-02-2024 08:00:00,17.518400,78.278777,OZONE,31,86,42
India,Telangana,Hyderabad,"IITH Kandi, Hyderabad - TSPCB",14-02-2024 08:00:00,17.585705,78.126199,CO,6,35,31
India,Telangana,Hyderabad,"Kokapet, Hyderabad - TSPCB",14-02-2024 08:00:00,17.393559,78.339194,PM10,68,292,88
India,Telangana,Hyderabad,"Kokapet, Hyderabad - TSPCB",14-02-2024 08:00:00,17.393559,78.339194,CO,12,12,12
India,Telangana,Hyderabad,"Kompally Municipal Office, Hyderabad - TSPCB",14-02-2024 08:00:00,17.544899,78.486949,NH3,7,7,7
India,Telangana,Hyderabad,"Kompally Municipal Office, Hyderabad - TSPCB",14-02-2024 08:00:00,17.544899,78.486949,SO2,10,11,11
India,Telangana,Hyderabad,"Nacharam_TSIIC IALA, Hyderabad - TSPCB",14-02-2024 08:00:00,17.429398,78.569354,PM2.5,56,62,59
India,Telangana,Hyderabad,"Nacharam_TSIIC IALA, Hyderabad - TSPCB",14-02-2024 08:00:00,17.429398,78.569354,NO2,10,11,11
India,Telangana,Hyderabad,"Nacharam_TSIIC IALA, Hyderabad - TSPCB",14-02-2024 08:00:00,17.429398,78.569354,OZONE,19,36,19
India,Telangana,Hyderabad,"Ramachandrapuram, Hyderabad - TSPCB",14-02-2024 08:00:00,17.528544,78.286195,PM2.5,31,38,37
India,Telangana,Hyderabad,"Ramachandrapuram, Hyderabad - TSPCB",14-02-2024 08:00:00,17.528544,78.286195,PM10,66,82,69
India,Telangana,Hyderabad,"Ramachandrapuram, Hyderabad - TSPCB",14-02-2024 08:00:00,17.528544,78.286195,CO,13,20,16
India,Telangana,Hyderabad,"Sanathnagar, Hyderabad - TSPCB",14-02-2024 08:00:00,17.4559458,78.4332152,SO2,3,30,7
India,Telangana,Hyderabad,"Somajiguda, Hyderabad - TSPCB",14-02-2024 08:00:00,17.417094,78.457437,NH3,5,6,5
India,Telangana,Hyderabad,"Somajiguda, Hyderabad - TSPCB",14-02-2024 08:00:00,17.417094,78.457437,CO,6,36,8
India,Telangana,Hyderabad,"Somajiguda, Hyderabad - TSPCB",14-02-2024 08:00:00,17.417094,78.457437,OZONE,4,24,8
India,Tripura,Agartala,"Bardowali, Agartala - Tripura SPCB",14-02-2024 08:00:00,23.8175497,91.2726974,PM2.5,84,346,245
India,Tripura,Agartala,"Bardowali, Agartala - Tripura SPCB",14-02-2024 08:00:00,23.8175497,91.2726974,PM10,108,328,210
India,Tripura,Agartala,"Bardowali, Agartala - Tripura SPCB",14-02-2024 08:00:00,23.8175497,91.2726974,NO2,6,25,15
India,Uttar_Pradesh,Agra,"Manoharpur, Agra - UPPCB",14-02-2024 08:00:00,27.23711,78.01936,PM2.5,34,77,58
India,Uttar_Pradesh,Agra,"Manoharpur, Agra - UPPCB",14-02-2024 08:00:00,27.23711,78.01936,PM10,48,107,82
India,Uttar_Pradesh,Agra,"Manoharpur, Agra - UPPCB",14-02-2024 08:00:00,27.23711,78.01936,CO,10,18,17
India,Uttar_Pradesh,Agra,"Manoharpur, Agra - UPPCB",14-02-2024 08:00:00,27.23711,78.01936,OZONE,3,29,4
India,Uttar_Pradesh,Agra,"Rohta, Agra - UPPCB",14-02-2024 08:00:00,27.106972,78.000111,NH3,1,2,2
India,Uttar_Pradesh,Agra,"Sanjay Palace, Agra - UPPCB",14-02-2024 08:00:00,27.19865833,78.00598056,PM2.5,44,142,71
India,Uttar_Pradesh,Agra,"Sanjay Palace, Agra - UPPCB",14-02-2024 08:00:00,27.19865833,78.00598056,PM10,47,92,67
India,Uttar_Pradesh,Agra,"Sanjay Palace, Agra - UPPCB",14-02-2024 08:00:00,27.19865833,78.00598056,SO2,5,13,9
India,Uttar_Pradesh,Agra,"Shahjahan Garden, Agra - UPPCB",14-02-2024 08:00:00,27.169338,78.03582,CO,6,33,24
India,Uttar_Pradesh,Agra,"Shahjahan Garden, Agra - UPPCB",14-02-2024 08:00:00,27.169338,78.03582,OZONE,8,306,13
India,Uttar_Pradesh,Agra,"Shastripuram, Agra - UPPCB",14-02-2024 08:00:00,27.19862,77.92066,NH3,1,2,1
India,Uttar_Pradesh,Agra,"Shastripuram, Agra - UPPCB",14-02-2024 08:00:00,27.19862,77.92066,CO,14,24,19
India,Uttar_Pradesh,Agra,"Shastripuram, Agra - UPPCB",14-02-2024 08:00:00,27.19862,77.92066,OZONE,5,17,6
India,Uttar_Pradesh,Bareilly,"Civil Lines, Bareilly - UPPCB",14-02-2024 08:00:00,28.359581,79.414455,NO2,24,47,32
India,Uttar_Pradesh,Bareilly,"Civil Lines, Bareilly - UPPCB",14-02-2024 08:00:00,28.359581,79.414455,CO,16,92,65
India,Uttar_Pradesh,Bulandshahr,"Yamunapuram, Bulandshahr - UPPCB",14-02-2024 08:00:00,28.406963,77.849831,PM2.5,92,500,277
India,Uttar_Pradesh,Bulandshahr,"Yamunapuram, Bulandshahr - UPPCB",14-02-2024 08:00:00,28.406963,77.849831,NO2,9,113,60
India,Uttar_Pradesh,Bulandshahr,"Yamunapuram, Bulandshahr - UPPCB",14-02-2024 08:00:00,28.406963,77.849831,SO2,24,66,41
India,Uttar_Pradesh,Firozabad,"Nagla Bhau, Firozabad - UPPCB",14-02-2024 08:00:00,27.168897,78.376960,OZONE,19,25,21
India,Uttar_Pradesh,Firozabad,"Vibhab Nagar, Firozabad - UPPCB",14-02-2024 08:00:00,27.1594,78.3953,PM2.5,NA,NA,NA
India,Uttar_Pradesh,Firozabad,"Vibhab Nagar, Firozabad - UPPCB",14-02-2024 08:00:00,27.1594,78.3953,NH3,2,2,2
India,Uttar_Pradesh,Ghaziabad,"Indirapuram, Ghaziabad - UPPCB",14-02-2024 08:00:00,28.646233,77.358075,OZONE,4,34,5
India,Uttar_Pradesh,Ghaziabad,"Loni, Ghaziabad - UPPCB",14-02-2024 08:00:00,28.757294,77.278792,PM2.5,266,415,345
India,Uttar_Pradesh,Ghaziabad,"Loni, Ghaziabad - UPPCB",14-02-2024 08:00:00,28.757294,77.278792,SO2,9,23,15
India,Uttar_Pradesh,Ghaziabad,"Vasundhara, Ghaziabad - UPPCB",14-02-2024 08:00:00,28.6603346,77.3572563,SO2,1,117,26
India,Uttar_Pradesh,Ghaziabad,"Vasundhara, Ghaziabad - UPPCB",14-02-2024 08:00:00,28.6603346,77.3572563,OZONE,10,55,12
India,Uttar_Pradesh,Gorakhpur,"Madan Mohan Malaviya University of Technology, Gorakhpur - UPPCB",14-02-2024 08:00:00,26.730136,83.433859,NO2,2,2,2
India,Uttar_Pradesh,Gorakhpur,"Madan Mohan Malaviya University of Technology, Gorakhpur - UPPCB",14-02-2024 08:00:00,26.730136,83.433859,CO,20,36,27
India,Uttar_Pradesh,Greater Noida,"Knowledge Park - V, Greater Noida - UPPCB",14-02-2024 08:00:00,28.557054,77.453663,NO2,20,47,34
India,Uttar_Pradesh,Hapur,"Anand Vihar, Hapur - UPPCB",14-02-2024 08:00:00,28.725645,77.749675,PM2.5,236,442,372
India,Uttar_Pradesh,Jhansi,"Shivaji Nagar, Jhansi - UPPCB",14-02-2024 08:00:00,25.4547,78.6039,CO,20,26,21
India,Uttar_Pradesh,Kanpur,"FTI Kidwai Nagar, Kanpur - UPPCB",14-02-2024 08:00:00,26.428282,80.327067,OZONE,3,7,3
India,Uttar_Pradesh,Kanpur,"NSI Kalyanpur, Kanpur - UPPCB",14-02-2024 08:00:00,26.509954,80.249612,PM10,83,131,110
India,Uttar_Pradesh,Khurja,"Kalindi Kunj, Khurja - UPPCB",14-02-2024 08:00:00,28.2348927,77.8683002,PM2.5,39,296,140
India,Uttar_Pradesh,Khurja,"Kalindi Kunj, Khurja - UPPCB",14-02-2024 08:00:00,28.2348927,77.8683002,NO2,19,67,34
India,Uttar_Pradesh,Lucknow,"Gomti Nagar, Lucknow - UPPCB",14-02-2024 08:00:00,26.868120,81.005119,PM2.5,13,68,43
India,Uttar_Pradesh,Lucknow,"Kendriya Vidyalaya, Lucknow - CPCB",14-02-2024 08:00:00,26.906111,80.948222,PM2.5,57,202,125
India,Uttar_Pradesh,Lucknow,"Kendriya Vidyalaya, Lucknow - CPCB",14-02-2024 08:00:00,26.906111,80.948222,NO2,22,104,50
India,Uttar_Pradesh,Lucknow,"Kendriya Vidyalaya, Lucknow - CPCB",14-02-2024 08:00:00,26.906111,80.948222,NH3,3,21,14
India,Uttar_Pradesh,Lucknow,"Kendriya Vidyalaya, Lucknow - CPCB",14-02-2024 08:00:00,26.906111,80.948222,CO,28,76,42
India,Uttar_Pradesh,Lucknow,"Lalbagh, Lucknow - CPCB",14-02-2024 08:00:00,26.8458805,80.9365541,SO2,1,28,10
India,Uttar_Pradesh,Meerut,"Ganga Nagar, Meerut - UPPCB",14-02-2024 08:00:00,28.999264,77.7590354,NH3,17,26,20
India,Uttar_Pradesh,Meerut,"Ganga Nagar, Meerut - UPPCB",14-02-2024 08:00:00,28.999264,77.7590354,SO2,21,78,41
India,Uttar_Pradesh,Meerut,"Ganga Nagar, Meerut - UPPCB",14-02-2024 08:00:00,28.999264,77.7590354,CO,11,95,34
India,Uttar_Pradesh,Meerut,"Pallavpuram Phase 2, Meerut - UPPCB",14-02-2024 08:00:00,29.063510,77.709723,SO2,2,33,20
India,Uttar_Pradesh,Moradabad,"Eco Herbal Park, Moradabad - UPPCB",14-02-2024 08:00:00,28.840739,78.697531,PM2.5,65,292,167
India,Uttar_Pradesh,Moradabad,"Eco Herbal Park, Moradabad - UPPCB",14-02-2024 08:00:00,28.840739,78.697531,PM10,64,154,109
India,Uttar_Pradesh,Moradabad,"Employment Office, Moradabad - UPPCB",14-02-2024 08:00:00,28.88528,78.73880,PM2.5,56,194,105
India,Uttar_Pradesh,Moradabad,"Employment Office, Moradabad - UPPCB",14-02-2024 08:00:00,28.88528,78.73880,NO2,20,20,20
India,Uttar_Pradesh,Moradabad,"Employment Office, Moradabad - UPPCB",14-02-2024 08:00:00,28.88528,78.73880,CO,35,75,69
India,Uttar_Pradesh,Moradabad,"Jigar Colony, Moradabad - UPPCB",14-02-2024 08:00:00,28.856664,78.772638,NO2,22,27,24
India,Uttar_Pradesh,Moradabad,"Jigar Colony, Moradabad - UPPCB",14-02-2024 08:00:00,28.856664,78.772638,NH3,5,6,5
India,Uttar_Pradesh,Moradabad,"Transport Nagar, Moradabad - UPPCB",14-02-2024 08:00:00,28.802625,78.753728,PM2.5,41,372,153
India,Uttar_Pradesh,Moradabad,"Transport Nagar, Moradabad - UPPCB",14-02-2024 08:00:00,28.802625,78.753728,NO2,22,51,39
India,Uttar_Pradesh,Muzaffarnagar,"New Mandi, Muzaffarnagar - UPPCB",14-02-2024 08:00:00,29.4723508,77.7194031,NH3,2,8,5
India,Uttar_Pradesh,Muzaffarnagar,"New Mandi, Muzaffarnagar - UPPCB",14-02-2024 08:00:00,29.4723508,77.7194031,OZONE,6,104,16
India,Uttar_Pradesh,Noida,"Sector - 125, Noida - UPPCB",14-02-2024 08:00:00,28.5447608,77.3231257,PM10,142,484,276
India,Uttar_Pradesh,Noida,"Sector - 62, Noida - IMD",14-02-2024 08:00:00,28.6245479,77.3577104,NO2,16,29,23
India,Uttar_Pradesh,Noida,"Sector-1, Noida - UPPCB",14-02-2024 08:00:00,28.5898,77.3101,PM10,178,443,350
India,Uttar_Pradesh,Noida,"Sector-1, Noida - UPPCB",14-02-2024 08:00:00,28.5898,77.3101,SO2,4,48,17
India,Uttar_Pradesh,Prayagraj,"Jhunsi, Prayagraj - UPPCB",14-02-2024 08:00:00,25.425602,81.917152,PM2.5,34,59,49
India,Uttar_Pradesh,Prayagraj,"Motilal Nehru NIT, Prayagraj - UPPCB",14-02-2024 08:00:00,25.494,81.863,PM10,NA,NA,NA
India,Uttar_Pradesh,Prayagraj,"Motilal Nehru NIT, Prayagraj - UPPCB",14-02-2024 08:00:00,25.494,81.863,CO,24,38,36
India,Uttar_Pradesh,Prayagraj,"Nagar Nigam, Prayagraj - UPPCB",14-02-2024 08:00:00,25.44919916 ,81.82735986 ,SO2,35,63,49
India,Uttar_Pradesh,Prayagraj,"Nagar Nigam, Prayagraj - UPPCB",14-02-2024 08:00:00,25.44919916 ,81.82735986 ,CO,23,40,31
India,Uttar_Pradesh,Varanasi,"Ardhali Bazar, Varanasi - UPPCB",14-02-2024 08:00:00,25.3505986,82.9083074,PM2.5,15,52,39
India,Uttar_Pradesh,Varanasi,"Bhelupur, Varanasi - UPPCB",14-02-2024 08:00:00,25.301778,82.996789,PM10,15,41,32
India,Uttar_Pradesh,Varanasi,"Bhelupur, Varanasi - UPPCB",14-02-2024 08:00:00,25.301778,82.996789,NO2,8,8,8
India,Uttar_Pradesh,Varanasi,"Bhelupur, Varanasi - UPPCB",14-02-2024 08:00:00,25.301778,82.996789,NH3,1,2,1
India,Uttar_Pradesh,Varanasi,"IESD Banaras Hindu University, Varanasi - UPPCB",14-02-2024 08:00:00,25.262326,82.995408,SO2,15,15,15
India,Uttar_Pradesh,Varanasi,"IESD Banaras Hindu University, Varanasi - UPPCB",14-02-2024 08:00:00,25.262326,82.995408,CO,22,30,26
India,Uttar_Pradesh,Varanasi,"Maldahiya, Varanasi - UPPCB",14-02-2024 08:00:00,25.32393,82.99687,NO2,NA,NA,NA
India,Uttar_Pradesh,Varanasi,"Maldahiya, Varanasi - UPPCB",14-02-2024 08:00:00,25.32393,82.99687,OZONE,9,9,9
India,Uttar_Pradesh,Vrindavan,"Omex Eternity, Vrindavan - UPPCB",14-02-2024 08:00:00,27.5714090,77.6557570,CO,44,90,68
India,Uttarakhand,Dehradun,"Doon University, Dehradun - UKPCB",14-02-2024 08:00:00,30.269444,78.044167,SO2,1,2,1
India,Uttarakhand,Kashipur,"Govt. Girls Inter College, Kashipur - UKPCB",14-02-2024 08:00:00,29.2124114,78.9611753,PM2.5,66,229,121
India,Uttarakhand,Kashipur,"Govt. Girls Inter College, Kashipur - UKPCB",14-02-2024 08:00:00,29.2124114,78.9611753,SO2,6,9,8
India,Uttarakhand,Rishikesh,"Shivaji Nagar, Rishikesh - UKPCB",14-02-2024 08:00:00,30.075911,78.2859547,NO2,5,19,9
India,Uttarakhand,Rishikesh,"Shivaji Nagar, Rishikesh - UKPCB",14-02-2024 08:00:00,30.075911,78.2859547,CO,18,40,23
India,West_Bengal,Haldia,"Priyambada Housing Estate, Haldia - WBPCB",14-02-2024 08:00:00,22.06047,88.109737,NO2,17,82,36
India,West_Bengal,Howrah,"Belur Math, Howrah - WBPCB",14-02-2024 08:00:00,22.629801,88.352017,PM10,134,229,165
India,West_Bengal,Howrah,"Padmapukur, Howrah - WBPCB",14-02-2024 08:00:00,22.5687319,88.2797276,PM2.5,100,271,158
India,West_Bengal,Howrah,"Padmapukur, Howrah - WBPCB",14-02-2024 08:00:00,22.5687319,88.2797276,PM10,143,179,163
India,West_Bengal,Howrah,"Padmapukur, Howrah - WBPCB",14-02-2024 08:00:00,22.5687319,88.2797276,NO2,26,80,49
India,West_Bengal,Howrah,"Padmapukur, Howrah - WBPCB",14-02-2024 08:00:00,22.5687319,88.2797276,SO2,7,37,20
India,West_Bengal,Howrah,"Padmapukur, Howrah - WBPCB",14-02-2024 08:00:00,22.5687319,88.2797276,OZONE,4,73,5
India,West_Bengal,Kolkata,"Bidhannagar, Kolkata - WBPCB",14-02-2024 08:00:00,22.58157048,88.41002457,PM10,139,224,181
India,West_Bengal,Kolkata,"Bidhannagar, Kolkata - WBPCB",14-02-2024 08:00:00,22.58157048,88.41002457,SO2,8,34,17
India,West_Bengal,Kolkata,"Jadavpur, Kolkata - WBPCB",14-02-2024 08:00:00,22.49929,88.36917,SO2,5,11,7
India,West_Bengal,Kolkata,"Jadavpur, Kolkata - WBPCB",14-02-2024 08:00:00,22.49929,88.36917,CO,25,82,79
India,West_Bengal,Kolkata,"Jadavpur, Kolkata - WBPCB",14-02-2024 08:00:00,22.49929,88.36917,OZONE,7,73,10
India,Andhra_Pradesh,Amaravati,"Secretariat, Amaravati - APPCB",14-02-2024 08:00:00,16.5150833,80.5181667,NO2,6,20,12
India,Andhra_Pradesh,Amaravati,"Secretariat, Amaravati - APPCB",14-02-2024 08:00:00,16.5150833,80.5181667,NH3,3,5,4
India,Andhra_Pradesh,Rajamahendravaram,"Anand Kala Kshetram, Rajamahendravaram - APPCB",14-02-2024 08:00:00,16.9872867,81.7363176,SO2,11,13,12
India,Andhra_Pradesh,Tirupati,"Tirumala, Tirupati - APPCB",14-02-2024 08:00:00,13.67,79.35,SO2,1,8,5
India,Andhra_Pradesh,Vijayawada,"Kanuru, Vijayawada - APPCB",14-02-2024 08:00:00,16.486692,80.699436,PM10,58,95,77
India,Andhra_Pradesh,Vijayawada,"Kanuru, Vijayawada - APPCB",14-02-2024 08:00:00,16.486692,80.699436,NO2,14,18,16
India,Andhra_Pradesh,Vijayawada,"Kanuru, Vijayawada - APPCB",14-02-2024 08:00:00,16.486692,80.699436,SO2,6,10,8
India,Andhra_Pradesh,Vijayawada,"Rajiv Gandhi Park, Vijayawada - APPCB",14-02-2024 08:00:00,16.509717,80.612222,PM2.5,47,78,62
India,Andhra_Pradesh,Vijayawada,"Rajiv Gandhi Park, Vijayawada - APPCB",14-02-2024 08:00:00,16.509717,80.612222,PM10,46,77,61
India,Andhra_Pradesh,Vijayawada,"Rajiv Gandhi Park, Vijayawada - APPCB",14-02-2024 08:00:00,16.509717,80.612222,NH3,4,7,6
India,Andhra_Pradesh,Vijayawada,"Rajiv Nagar, Vijayawada - APPCB",14-02-2024 08:00:00,16.554731,80.649110,PM10,62,116,88
India,Andhra_Pradesh,Vijayawada,"Rajiv Nagar, Vijayawada - APPCB",14-02-2024 08:00:00,16.554731,80.649110,NO2,6,14,10
India,Andhra_Pradesh,Vijayawada,"Rajiv Nagar, Vijayawada - APPCB",14-02-2024 08:00:00,16.554731,80.649110,SO2,8,21,15
India,Andhra_Pradesh,Visakhapatnam,"GVM Corporation, Visakhapatnam - APPCB",14-02-2024 08:00:00,17.72,83.3,OZONE,8,56,9
India,Arunachal_Pradesh,Naharlagun,"Naharlagun, Naharlagun - APSPCB",14-02-2024 08:00:00,27.103358,93.679645,PM10,42,500,111
India,Assam,Byrnihat,"Central Academy for SFS, Byrnihat - PCBA",14-02-2024 08:00:00,26.071318,91.87488,PM2.5,70,459,288
India,Assam,Byrnihat,"Central Academy for SFS, Byrnihat - PCBA",14-02-2024 08:00:00,26.071318,91.87488,OZONE,12,17,12
India,Assam,Guwahati,"IITG, Guwahati - PCBA",14-02-2024 08:00:00,26.2028636,91.70046436,PM2.5,121,337,253
India,Assam,Guwahati,"IITG, Guwahati - PCBA",14-02-2024 08:00:00,26.2028636,91.70046436,SO2,12,15,12
India,Assam,Guwahati,"Railway Colony, Guwahati - PCBA",14-02-2024 08:00:00,26.181742,91.78063,CO,28,132,81
India,Assam,Nagaon,"Christianpatty, Nagaon - PCBA",14-02-2024 08:00:00,26.349082,92.68449,NH3,1,7,4
India,Assam,Nagaon,"Christianpatty, Nagaon - PCBA",14-02-2024 08:00:00,26.349082,92.68449,CO,2,128,28
India,Assam,Sivasagar,"Girls College, Sivasagar - PCBA",14-02-2024 08:00:00,26.987634,94.636574,PM2.5,25,42,32
India,Assam,Sivasagar,"Girls College, Sivasagar - PCBA",14-02-2024 08:00:00,26.987634,94.636574,NH3,2,2,2
India,Assam,Sivasagar,"Girls College, Sivasagar - PCBA",14-02-2024 08:00:00,26.987634,94.636574,SO2,4,4,4
India,Bihar,Araria,"Kharahiya Basti, Araria - BSPCB",14-02-2024 08:00:00,26.146529,87.454184,PM2.5,66,488,310
India,Bihar,Arrah,"New DM Office, Arrah - BSPCB",14-02-2024 08:00:00,25.5626095,84.663264,NO2,NA,NA,NA
India,Bihar,Arrah,"New DM Office, Arrah - BSPCB",14-02-2024 08:00:00,25.5626095,84.663264,NH3,NA,NA,NA
India,Bihar,Arrah,"New DM Office, Arrah - BSPCB",14-02-2024 08:00:00,25.5626095,84.663264,OZONE,6,37,17
India,Bihar,Aurangabad,"Gurdeo Nagar, Aurangabad - BSPCB",14-02-2024 08:00:00,24.75746,84.366208,CO,NA,NA,NA
India,Bihar,Bettiah,"Kamalnath Nagar, Bettiah - BSPCB",14-02-2024 08:00:00,26.80365,84.51954,NO2,12,19,15
India,Bihar,Bettiah,"Kamalnath Nagar, Bettiah - BSPCB",14-02-2024 08:00:00,26.80365,84.51954,NH3,3,3,3
India,Bihar,Bettiah,"Kamalnath Nagar, Bettiah - BSPCB",14-02-2024 08:00:00,26.80365,84.51954,SO2,8,21,16
India,Bihar,Bhagalpur,"DM Office_Kachari Chowk, Bhagalpur - BSPCB",14-02-2024 08:00:00,25.251013,86.989001,NH3,4,7,5
India,Bihar,Bhagalpur,"Mayaganj, Bhagalpur - BSPCB",14-02-2024 08:00:00,25.265194,87.012947,SO2,11,13,12
India,Bihar,Bhagalpur,"Mayaganj, Bhagalpur - BSPCB",14-02-2024 08:00:00,25.265194,87.012947,OZONE,12,32,20
India,Bihar,Gaya,"Collectorate, Gaya - BSPCB",14-02-2024 08:00:00,24.7955,84.9994,SO2,4,24,9
India,Bihar,Gaya,"Collectorate, Gaya - BSPCB",14-02-2024 08:00:00,24.7955,84.9994,OZONE,41,76,68
India,Bihar,Gaya,"Kareemganj, Gaya - BSPCB",14-02-2024 08:00:00,24.792403,84.992416,NH3,2,6,3
India,Bihar,Gaya,"Kareemganj, Gaya - BSPCB",14-02-2024 08:00:00,24.792403,84.992416,SO2,NA,NA,NA
India,Bihar,Gaya,"SFTI Kusdihra, Gaya - BSPCB",14-02-2024 08:00:00,24.762518,84.982348,PM2.5,24,121,56
India,Bihar,Gaya,"SFTI Kusdihra, Gaya - BSPCB",14-02-2024 08:00:00,24.762518,84.982348,SO2,7,9,8
India,Bihar,Gaya,"SFTI Kusdihra, Gaya - BSPCB",14-02-2024 08:00:00,24.762518,84.982348,OZONE,1,6,3
India,Bihar,Hajipur,"Industrial Area, Hajipur - BSPCB",14-02-2024 08:00:00,25.697189,85.245900,PM10,88,263,161
India,Bihar,Hajipur,"Industrial Area, Hajipur - BSPCB",14-02-2024 08:00:00,25.697189,85.245900,NO2,30,52,43
India,Bihar,Hajipur,"Industrial Area, Hajipur - BSPCB",14-02-2024 08:00:00,25.697189,85.245900,NH3,10,16,13
India,Bihar,Hajipur,"Industrial Area, Hajipur - BSPCB",14-02-2024 08:00:00,25.697189,85.245900,SO2,7,9,8
India,Bihar,Katihar,"Mirchaibari, Katihar - BSPCB",14-02-2024 08:00:00,25.560083,87.553265,CO,NA,NA,NA
India,Bihar,Katihar,"Mirchaibari, Katihar - BSPCB",14-02-2024 08:00:00,25.560083,87.553265,OZONE,15,21,20
India,Bihar,Kishanganj,"SDM Office_Khagra, Kishanganj - BSPCB",14-02-2024 08:00:00,26.0881305,87.93840336,PM10,93,409,217
India,Bihar,Manguraha,"Forest Rest House, Manguraha - BSPCB",14-02-2024 08:00:00,27.308328,84.531742,NO2,4,14,8
India,Bihar,Manguraha,"Forest Rest House, Manguraha - BSPCB",14-02-2024 08:00:00,27.308328,84.531742,NH3,1,3,2
India,Bihar,Manguraha,"Forest Rest House, Manguraha - BSPCB",14-02-2024 08:00:00,27.308328,84.531742,OZONE,39,100,41
India,Bihar,Motihari,"Gandak Colony, Motihari - BSPCB",14-02-2024 08:00:00,26.63086,84.90051,NO2,44,82,60
India,Bihar,Motihari,"Gandak Colony, Motihari - BSPCB",14-02-2024 08:00:00,26.63086,84.90051,OZONE,31,97,46
India,Bihar,Munger,"Town Hall, Munger - BSPCB",14-02-2024 08:00:00,25.376776,86.471523,NH3,1,2,2
India,Bihar,Muzaffarpur,"Buddha Colony, Muzaffarpur - BSPCB",14-02-2024 08:00:00,26.11442,85.39813,PM2.5,226,383,333
India,Bihar,Muzaffarpur,"Muzaffarpur Collectorate, Muzaffarpur - BSPCB",14-02-2024 08:00:00,26.1209,85.3647,OZONE,5,67,14
India,Bihar,Patna,"Govt. High School Shikarpur, Patna - BSPCB",14-02-2024 08:00:00,25.592539,85.227158,OZONE,6,47,8
India,Bihar,Patna,"Muradpur, Patna - BSPCB",14-02-2024 08:00:00,25.619651,85.147382,NH3,2,6,4
India,Bihar,Patna,"Muradpur, Patna - BSPCB",14-02-2024 08:00:00,25.619651,85.147382,OZONE,21,69,26
India,Bihar,Patna,"Rajbansi Nagar, Patna - BSPCB",14-02-2024 08:00:00,25.599486,85.113666,PM2.5,83,309,222
India,Bihar,Patna,"Rajbansi Nagar, Patna - BSPCB",14-02-2024 08:00:00,25.599486,85.113666,PM10,56,257,177
India,Bihar,Patna,"Rajbansi Nagar, Patna - BSPCB",14-02-2024 08:00:00,25.599486,85.113666,NO2,27,61,39
India,Bihar,Patna,"Samanpura, Patna - BSPCB",14-02-2024 08:00:00,25.596727,85.085624,NO2,29,57,39
India,Bihar,Patna,"Samanpura, Patna - BSPCB",14-02-2024 08:00:00,25.596727,85.085624,NH3,4,7,5
India,Bihar,Patna,"Samanpura, Patna - BSPCB",14-02-2024 08:00:00,25.596727,85.085624,SO2,16,18,16
India,Bihar,Patna,"Samanpura, Patna - BSPCB",14-02-2024 08:00:00,25.596727,85.085624,CO,62,119,82
India,Bihar,Purnia,"Mariam Nagar, Purnia - BSPCB",14-02-2024 08:00:00,25.366336,87.117468,PM2.5,97,341,250
India,Bihar,Rajgir,"Dangi Tola, Rajgir - BSPCB",14-02-2024 08:00:00,25.03280,85.41948,NO2,NA,NA,NA
India,Bihar,Saharsa,"Police Line, Saharsa - BSPCB",14-02-2024 08:00:00,25.892357,86.590325,NH3,NA,NA,NA
India,Bihar,Saharsa,"Police Line, Saharsa - BSPCB",14-02-2024 08:00:00,25.892357,86.590325,OZONE,NA,NA,NA
India,Bihar,Samastipur,"DM Office_Kasipur, Samastipur - BSPCB",14-02-2024 08:00:00,25.859655,85.77944,NO2,2,10,5
India,Bihar,Siwan,"Chitragupta Nagar, Siwan - BSPCB",14-02-2024 08:00:00,26.2271665,84.3570427,SO2,25,35,30
India,Bihar,Siwan,"Chitragupta Nagar, Siwan - BSPCB",14-02-2024 08:00:00,26.2271665,84.3570427,CO,107,158,117
India,Chandigarh,Chandigarh,"Sector-53, Chandigarh - CPCC",14-02-2024 08:00:00,30.719859,76.738637,CO,NA,NA,NA
India,Chhattisgarh,Bhilai,"32Bungalows, Bhilai - CECB",14-02-2024 08:00:00,21.194815,81.314770,NH3,6,6,6
India,Chhattisgarh,Bhilai,"Civic Center, Bhilai - Bhilai Steel Plant",14-02-2024 08:00:00,21.185571,81.343175,SO2,5,16,10
India,Chhattisgarh,Bhilai,"Hathkhoj, Bhilai - CECB",14-02-2024 08:00:00,21.224231,81.408350,SO2,10,15,12
India,Chhattisgarh,Bhilai,"Hathkhoj, Bhilai - CECB",14-02-2024 08:00:00,21.224231,81.408350,CO,12,54,30
India,Chhattisgarh,Bhilai,"Hathkhoj, Bhilai - CECB",14-02-2024 08:00:00,21.224231,81.408350,OZONE,7,27,8
India,Chhattisgarh,Chhal,"Nawapara SECL Colony, Chhal - CECB",14-02-2024 08:00:00,22.118125,83.140608,PM10,41,142,100
India,Chhattisgarh,Korba,"Rampur, Korba - CECB",14-02-2024 08:00:00,22.368195,82.746431,NH3,2,4,3
India,Chhattisgarh,Korba,"Urja Nagar, Korba - CECB",14-02-2024 08:00:00,22.348441,82.549611,OZONE,NA,NA,NA
India,Chhattisgarh,Kunjemura,"OP Jindal School, Kunjemura - CECB",14-02-2024 08:00:00,22.126650,83.483212,PM10,21,445,149
India,Chhattisgarh,Kunjemura,"OP Jindal School, Kunjemura - CECB",14-02-2024 08:00:00,22.126650,83.483212,OZONE,4,61,4
India,Chhattisgarh,Milupara,"Govt. Higher Secondary School, Milupara - CECB",14-02-2024 08:00:00,22.1910172,83.5197009,CO,NA,NA,NA
India,Chhattisgarh,Raipur,"Bhatagaon New ISBT, Raipur - CECB",14-02-2024 08:00:00,21.219665,81.630094,NO2,NA,NA,NA
India,Chhattisgarh,Raipur,"Siltara Phase-II, Raipur - CECB",14-02-2024 08:00:00,21.371751,81.664929,CO,52,92,63
India,Chhattisgarh,Raipur,"Siltara Phase-II, Raipur - CECB",14-02-2024 08:00:00,21.371751,81.664929,OZONE,3,14,3
India,Chhattisgarh,Tumidih,"OP Jindal Industrial Park, Tumidih - CECB",14-02-2024 08:00:00,22.06631475,83.33820077,SO2,5,10,7
India,Delhi,Delhi,"Alipur, Delhi - DPCC",14-02-2024 08:00:00,28.815329,77.153010,NH3,13,17,15
India,Delhi,Delhi,"Ashok Vihar, Delhi - DPCC",14-02-2024 08:00:00,28.695381,77.181665,PM10,230,437,346
India,Delhi,Delhi,"Ashok Vihar, Delhi - DPCC",14-02-2024 08:00:00,28.695381,77.181665,NH3,10,13,12
India,Delhi,Delhi,"Bawana, Delhi - DPCC",14-02-2024 08:00:00,28.776200,77.051074,NH3,8,13,10
India,Delhi,Delhi,"Burari Crossing, Delhi - IMD",14-02-2024 08:00:00,28.7256504,77.2011573,NO2,NA,NA,NA
India,Delhi,Delhi,"Burari Crossing, Delhi - IMD",14-02-2024 08:00:00,28.7256504,77.2011573,CO,NA,NA,NA
India,Delhi,Delhi,"CRRI Mathura Road, Delhi - IMD",14-02-2024 08:00:00,28.5512005,77.2735737,NO2,26,58,44
India,Delhi,Delhi,"DTU, Delhi - CPCB",14-02-2024 08:00:00,28.7500499,77.1112615,CO,35,70,59
India,Delhi,Delhi,"Dr. Karni Singh Shooting Range, Delhi - DPCC",14-02-2024 08:00:00,28.498571,77.264840,NH3,8,11,10
India,Delhi,Delhi,"Dwarka-Sector 8, Delhi - DPCC ",14-02-2024 08:00:00,28.5710274,77.0719006,CO,22,134,91
India,Delhi,Delhi,"ITO, Delhi - CPCB",14-02-2024 08:00:00,28.628624,77.241060,SO2,2,28,18
India,Delhi,Delhi,"Jahangirpuri, Delhi - DPCC",14-02-2024 08:00:00,28.732820,77.170633,NO2,2,45,22
India,Delhi,Delhi,"Jawaharlal Nehru Stadium, Delhi - DPCC",14-02-2024 08:00:00,28.580280,77.233829,SO2,2,47,17
India,Delhi,Delhi,"Lodhi Road, Delhi - IITM",14-02-2024 08:00:00,28.588333,77.221667,PM2.5,81,318,187
India,Delhi,Delhi,"Mandir Marg, Delhi - DPCC",14-02-2024 08:00:00,28.636429,77.201067,PM10,166,413,276
India,Delhi,Delhi,"Mandir Marg, Delhi - DPCC",14-02-2024 08:00:00,28.636429,77.201067,NH3,17,20,19
India,Delhi,Delhi,"Mundka, Delhi - DPCC",14-02-2024 08:00:00,28.684678,77.076574,PM2.5,321,462,406
India,Delhi,Delhi,"Mundka, Delhi - DPCC",14-02-2024 08:00:00,28.684678,77.076574,NO2,32,120,84
India,Delhi,Delhi,"Mundka, Delhi - DPCC",14-02-2024 08:00:00,28.684678,77.076574,OZONE,1,9,1
India,Delhi,Delhi,"NSIT Dwarka, Delhi - CPCB",14-02-2024 08:00:00,28.60909,77.0325413,NH3,9,12,11
India,Delhi,Delhi,"Najafgarh, Delhi - DPCC",14-02-2024 08:00:00,28.570173,76.933762,NO2,3,85,30
India,Delhi,Delhi,"Najafgarh, Delhi - DPCC",14-02-2024 08:00:00,28.570173,76.933762,SO2,6,14,11
India,Delhi,Delhi,"Narela, Delhi - DPCC",14-02-2024 08:00:00,28.822836,77.101981,OZONE,3,173,22
India,Delhi,Delhi,"Nehru Nagar, Delhi - DPCC",14-02-2024 08:00:00,28.567890,77.250515,OZONE,2,150,3
India,Delhi,Delhi,"North Campus, DU, Delhi - IMD",14-02-2024 08:00:00,28.6573814,77.1585447,PM10,NA,NA,NA
India,Delhi,Delhi,"Patparganj, Delhi - DPCC",14-02-2024 08:00:00,28.623763,77.287209,PM10,203,466,367
India,Delhi,Delhi,"Patparganj, Delhi - DPCC",14-02-2024 08:00:00,28.623763,77.287209,NO2,49,94,67
India,Delhi,Delhi,"Patparganj, Delhi - DPCC",14-02-2024 08:00:00,28.623763,77.287209,NH3,8,14,11
India,Delhi,Delhi,"Punjabi Bagh, Delhi - DPCC",14-02-2024 08:00:00,28.674045,77.131023,PM2.5,316,463,391
India,Delhi,Delhi,"Punjabi Bagh, Delhi - DPCC",14-02-2024 08:00:00,28.674045,77.131023,NO2,25,100,61
India,Delhi,Delhi,"Punjabi Bagh, Delhi - DPCC",14-02-2024 08:00:00,28.674045,77.131023,SO2,11,35,25
India,Delhi,Delhi,"R K Puram, Delhi - DPCC",14-02-2024 08:00:00,28.563262,77.186937,SO2,8,47,22
India,Delhi,Delhi,"R K Puram, Delhi - DPCC",14-02-2024 08:00:00,28.563262,77.186937,CO,38,138,104
India,Delhi,Delhi,"R K Puram, Delhi - DPCC",14-02-2024 08:00:00,28.563262,77.186937,OZONE,9,119,11
India,Delhi,Delhi,"Shadipur, Delhi - CPCB",14-02-2024 08:00:00,28.6514781,77.1473105,PM2.5,319,407,352
India,Delhi,Delhi,"Shadipur, Delhi - CPCB",14-02-2024 08:00:00,28.6514781,77.1473105,CO,17,78,31
India,Delhi,Delhi,"Shadipur, Delhi - CPCB",14-02-2024 08:00:00,28.6514781,77.1473105,OZONE,12,27,17
India,Delhi,Delhi,"Sirifort, Delhi - CPCB",14-02-2024 08:00:00,28.5504249,77.2159377,SO2,34,45,40
India,Delhi,Delhi,"Sonia Vihar, Delhi - DPCC",14-02-2024 08:00:00,28.710508,77.249485,CO,52,136,82
India,Delhi,Delhi,"Vivek Vihar, Delhi - DPCC",14-02-2024 08:00:00,28.672342,77.315260,NH3,5,10,8
India,Gujarat,Ahmedabad,"Chandkheda, Ahmedabad - IITM",14-02-2024 08:00:00,23.107969,72.574648,NO2,73,110,89
India,Gujarat,Ahmedabad,"Chandkheda, Ahmedabad - IITM",14-02-2024 08:00:00,23.107969,72.574648,CO,2,53,33
India,Gujarat,Ahmedabad,"Gyaspur, Ahmedabad - IITM",14-02-2024 08:00:00,22.977134,72.553024,PM10,59,206,121
India,Gujarat,Ahmedabad,"Gyaspur, Ahmedabad - IITM",14-02-2024 08:00:00,22.977134,72.553024,NO2,21,26,23
India,Gujarat,Ahmedabad,"Raikhad, Ahmedabad - IITM",14-02-2024 08:00:00,23.020509,72.579261,PM10,108,147,125
India,Gujarat,Ahmedabad,"Raikhad, Ahmedabad - IITM",14-02-2024 08:00:00,23.020509,72.579261,SO2,2,12,5
India,Gujarat,Ahmedabad,"Raikhad, Ahmedabad - IITM",14-02-2024 08:00:00,23.020509,72.579261,OZONE,1,32,8
India,Gujarat,Ahmedabad,"Rakhial, Ahmedabad - IITM",14-02-2024 08:00:00,23.016834,72.625775,PM10,79,182,129
India,Gujarat,Ahmedabad,"Rakhial, Ahmedabad - IITM",14-02-2024 08:00:00,23.016834,72.625775,CO,28,49,42
India,Gujarat,Ankleshwar,"GIDC, Ankleshwar - GPCB",14-02-2024 08:00:00,21.613267,73.010555,PM10,63,191,109
India,Gujarat,Ankleshwar,"GIDC, Ankleshwar - GPCB",14-02-2024 08:00:00,21.613267,73.010555,OZONE,20,40,25
India,Gujarat,Gandhinagar,"GIFT City, Gandhinagar - IITM",14-02-2024 08:00:00,23.163798,72.677768,PM2.5,63,192,91
India,Gujarat,Gandhinagar,"IIPHG Lekawada, Gandhinagar - IITM",14-02-2024 08:00:00,23.243639,72.68994,OZONE,11,68,37
India,Gujarat,Gandhinagar,"Sector-10, Gandhinagar - GPCB",14-02-2024 08:00:00,23.221714,72.654328,PM10,30,126,78
India,Gujarat,Surat,"Science Center, Surat - SMC",14-02-2024 08:00:00,21.170046,72.795405,SO2,18,24,21
India,Gujarat,Surat,"Science Center, Surat - SMC",14-02-2024 08:00:00,21.170046,72.795405,CO,58,86,67
India,Gujarat,Vapi,"Phase-1 GIDC, Vapi - GPCB",14-02-2024 08:00:00,20.362421,72.918013,PM2.5,77,369,251
India,Gujarat,Vapi,"Phase-1 GIDC, Vapi - GPCB",14-02-2024 08:00:00,20.362421,72.918013,OZONE,48,65,57
India,Gujarat,Vatva,"Phase-4 GIDC, Vatva - GPCB",14-02-2024 08:00:00,22.969611,72.643500,SO2,17,17,17
India,Gujarat,Vatva,"Phase-4 GIDC, Vatva - GPCB",14-02-2024 08:00:00,22.969611,72.643500,CO,48,50,49
India,Haryana,Ambala,"Patti Mehar, Ambala - HSPCB",14-02-2024 08:00:00,30.379589,76.778328,NH3,8,8,8
India,Haryana,Ballabgarh,"Nathu Colony, Ballabgarh - HSPCB",14-02-2024 08:00:00,28.3419248,77.319699,PM10,195,500,288
India,Haryana,Ballabgarh,"Nathu Colony, Ballabgarh - HSPCB",14-02-2024 08:00:00,28.3419248,77.319699,SO2,4,25,16
India,Haryana,Bhiwani,"H.B. Colony, Bhiwani - HSPCB",14-02-2024 08:00:00,28.806223,76.141105,PM10,119,166,139
India,Haryana,Bhiwani,"H.B. Colony, Bhiwani - HSPCB",14-02-2024 08:00:00,28.806223,76.141105,SO2,5,13,10
India,Haryana,Bhiwani,"H.B. Colony, Bhiwani - HSPCB",14-02-2024 08:00:00,28.806223,76.141105,CO,37,80,48
India,Haryana,Faridabad,"Sector 11, Faridabad - HSPCB",14-02-2024 08:00:00,28.376058,77.315741,PM2.5,122,305,229
India,Haryana,Faridabad,"Sector 11, Faridabad - HSPCB",14-02-2024 08:00:00,28.376058,77.315741,PM10,113,419,221
India,Haryana,Faridabad,"Sector 11, Faridabad - HSPCB",14-02-2024 08:00:00,28.376058,77.315741,NO2,30,32,31
India,Haryana,Faridabad,"Sector 11, Faridabad - HSPCB",14-02-2024 08:00:00,28.376058,77.315741,NH3,6,6,6
India,Haryana,Faridabad,"Sector 11, Faridabad - HSPCB",14-02-2024 08:00:00,28.376058,77.315741,SO2,10,22,15
India,Haryana,Faridabad,"Sector 11, Faridabad - HSPCB",14-02-2024 08:00:00,28.376058,77.315741,CO,46,100,69
India,Haryana,Faridabad,"Sector 30, Faridabad - HSPCB",14-02-2024 08:00:00,28.4417,77.3217,PM10,118,134,126
India,Haryana,Faridabad,"Sector 30, Faridabad - HSPCB",14-02-2024 08:00:00,28.4417,77.3217,OZONE,8,42,8
India,Haryana,Faridabad,"Sector- 16A, Faridabad - HSPCB",14-02-2024 08:00:00,28.4088421,77.3099081,CO,8,109,59
India,Haryana,Fatehabad,"Huda Sector, Fatehabad - HSPCB",14-02-2024 08:00:00,29.503664,75.467934,PM10,NA,NA,NA
India,Haryana,Gurugram,"Sector-51, Gurugram - HSPCB",14-02-2024 08:00:00,28.4227,77.0667,SO2,1,4,4
India,Haryana,Gurugram,"Vikas Sadan, Gurugram - HSPCB",14-02-2024 08:00:00,28.4501238,77.0263051,CO,53,138,108
India,Haryana,Hisar,"Urban Estate-II, Hisar - HSPCB",14-02-2024 08:00:00,29.140560,75.744941,PM10,74,406,149
India,Haryana,Jind,"Police Lines, Jind - HSPCB",14-02-2024 08:00:00,29.307814,76.337619,NO2,5,15,11
India,Haryana,Jind,"Police Lines, Jind - HSPCB",14-02-2024 08:00:00,29.307814,76.337619,CO,1,103,23
India,Haryana,Karnal,"Sector-12, Karnal - HSPCB",14-02-2024 08:00:00,29.695300,77.002700,PM10,94,129,113
India,Haryana,Karnal,"Sector-12, Karnal - HSPCB",14-02-2024 08:00:00,29.695300,77.002700,OZONE,28,33,29
India,Haryana,Kurukshetra,"Sector-7, Kurukshetra - HSPCB",14-02-2024 08:00:00,29.966942,76.875879,PM2.5,NA,NA,NA
India,Haryana,Kurukshetra,"Sector-7, Kurukshetra - HSPCB",14-02-2024 08:00:00,29.966942,76.875879,NO2,NA,NA,NA
India,Haryana,Kurukshetra,"Sector-7, Kurukshetra - HSPCB",14-02-2024 08:00:00,29.966942,76.875879,SO2,NA,NA,NA
India,Haryana,Manesar,"Sector-2 IMT, Manesar - HSPCB",14-02-2024 08:00:00,28.360699,76.936090,SO2,12,58,33
India,Haryana,Narnaul,"Shastri Nagar, Narnaul - HSPCB",14-02-2024 08:00:00,28.060249,76.113115,PM10,89,167,133
India,Haryana,Palwal,"Shyam Nagar, Palwal - HSPCB",14-02-2024 08:00:00,28.1485564,77.3320667,PM2.5,78,309,220
India,Haryana,Palwal,"Shyam Nagar, Palwal - HSPCB",14-02-2024 08:00:00,28.1485564,77.3320667,PM10,136,426,208
India,Haryana,Palwal,"Shyam Nagar, Palwal - HSPCB",14-02-2024 08:00:00,28.1485564,77.3320667,OZONE,2,65,5
India,Haryana,Sirsa,"F-Block, Sirsa - HSPCB",14-02-2024 08:00:00,29.536400,75.015800,PM2.5,83,176,119
India,Haryana,Sonipat,"Murthal, Sonipat - HSPCB",14-02-2024 08:00:00,29.027200,77.062100,OZONE,17,36,19
India,Haryana,Yamuna Nagar,"Gobind Pura, Yamuna Nagar - HSPCB",14-02-2024 08:00:00,30.1480566,77.2893471,OZONE,5,24,6
India,Jharkhand,Dhanbad,"Kalakusuma, Dhanbad - DMC",14-02-2024 08:00:00,23.811548,86.481238,PM10,76,81,78
India,Jharkhand,Dhanbad,"Sardar Patel Nagar, Dhanbad - JSPCB",14-02-2024 08:00:00,23.80569,86.44268,PM2.5,NA,NA,NA
India,Jharkhand,Pathardih,"Mohalbani Ghat, Pathardih - DMC",14-02-2024 08:00:00,23.669880,86.411725,OZONE,NA,NA,NA
India,Karnataka,Bagalkot,"Vidayagiri, Bagalkot - KSPCB",14-02-2024 08:00:00,16.172806,75.659694,PM10,42,47,43
India,Karnataka,Bagalkot,"Vidayagiri, Bagalkot - KSPCB",14-02-2024 08:00:00,16.172806,75.659694,SO2,9,10,9
India,Karnataka,Belgaum,"Ramteerth Nagar, Belgaum - KSPCB",14-02-2024 08:00:00,15.888653,74.541751,NO2,26,31,28
India,Karnataka,Belgaum,"Ramteerth Nagar, Belgaum - KSPCB",14-02-2024 08:00:00,15.888653,74.541751,SO2,8,9,8
India,Karnataka,Bengaluru,"BTM Layout, Bengaluru - CPCB",14-02-2024 08:00:00,12.9135218,77.5950804,SO2,13,13,13
India,Karnataka,Bengaluru,"Bapuji Nagar, Bengaluru - KSPCB",14-02-2024 08:00:00,12.951913,77.539784,NO2,9,12,11
India,Karnataka,Bengaluru,"Bapuji Nagar, Bengaluru - KSPCB",14-02-2024 08:00:00,12.951913,77.539784,NH3,1,1,1
India,Karnataka,Bengaluru,"Hombegowda Nagar, Bengaluru - KSPCB",14-02-2024 08:00:00,12.938539,77.590100,PM10,36,79,58
India,Karnataka,Bengaluru,"Hombegowda Nagar, Bengaluru - KSPCB",14-02-2024 08:00:00,12.938539,77.590100,OZONE,4,5,4
India,Karnataka,Bengaluru,"Jayanagar 5th Block, Bengaluru - KSPCB",14-02-2024 08:00:00,12.920984,77.584908,CO,2,38,15
India,Karnataka,Bengaluru,"Kasturi Nagar, Bengaluru - KSPCB",14-02-2024 08:00:00,13.003872,77.664217,SO2,10,10,10
India,Karnataka,Bengaluru,"Peenya, Bengaluru - CPCB",14-02-2024 08:00:00,13.0270199,77.494094,PM2.5,1,108,61
India,Karnataka,Bengaluru,"Shivapura_Peenya, Bengaluru - KSPCB",14-02-2024 08:00:00,13.0246342,77.5080115,PM10,54,78,69
India,Karnataka,Bengaluru,"Shivapura_Peenya, Bengaluru - KSPCB",14-02-2024 08:00:00,13.0246342,77.5080115,CO,24,50,31
India,Karnataka,Bengaluru,"Silk Board, Bengaluru - KSPCB",14-02-2024 08:00:00,12.917348,77.622813,SO2,1,18,7
India,Karnataka,Bidar,"Naubad, Bidar - KSPCB",14-02-2024 08:00:00,17.930306,77.482194,OZONE,17,35,21
India,Karnataka,Chamarajanagar,"Urban, Chamarajanagar - KSPCB",14-02-2024 08:00:00,11.55358,76.55521,NH3,2,5,2
India,Karnataka,Chamarajanagar,"Urban, Chamarajanagar - KSPCB",14-02-2024 08:00:00,11.55358,76.55521,SO2,4,9,5
India,Karnataka,Chikkaballapur,"Chikkaballapur Rural, Chikkaballapur - KSPCB",14-02-2024 08:00:00,13.428828,77.731418,PM2.5,20,78,51
India,Karnataka,Chikkaballapur,"Chikkaballapur Rural, Chikkaballapur - KSPCB",14-02-2024 08:00:00,13.428828,77.731418,PM10,37,72,55
India,Karnataka,Chikkaballapur,"Chikkaballapur Rural, Chikkaballapur - KSPCB",14-02-2024 08:00:00,13.428828,77.731418,OZONE,24,26,25
India,Karnataka,Chikkamagaluru,"Kalyana Nagara, Chikkamagaluru - KSPCB",14-02-2024 08:00:00,13.328028,75.797056,PM10,16,86,51
India,Karnataka,Chikkamagaluru,"Kalyana Nagara, Chikkamagaluru - KSPCB",14-02-2024 08:00:00,13.328028,75.797056,OZONE,25,77,29
India,Karnataka,Davanagere,"Devaraj Urs Badavane, Davanagere - KSPCB",14-02-2024 08:00:00,14.475800,75.905200,NO2,7,13,11
India,Karnataka,Davanagere,"Devaraj Urs Badavane, Davanagere - KSPCB",14-02-2024 08:00:00,14.475800,75.905200,SO2,1,8,3
India,Karnataka,Dharwad,"Kalabhavan, Dharwad - KSPCB",14-02-2024 08:00:00,15.459706,75.008381,PM2.5,47,91,70
India,Karnataka,Dharwad,"Kalabhavan, Dharwad - KSPCB",14-02-2024 08:00:00,15.459706,75.008381,CO,36,154,76
India,Karnataka,Dharwad,"Kalabhavan, Dharwad - KSPCB",14-02-2024 08:00:00,15.459706,75.008381,OZONE,2,56,7
India,Karnataka,Hassan,"B.Katihalli, Hassan - KSPCB",14-02-2024 08:00:00,13.008556,76.125258,PM2.5,12,85,61
India,Karnataka,Hassan,"B.Katihalli, Hassan - KSPCB",14-02-2024 08:00:00,13.008556,76.125258,PM10,17,105,77
India,Karnataka,Hassan,"B.Katihalli, Hassan - KSPCB",14-02-2024 08:00:00,13.008556,76.125258,NH3,1,3,2
India,Karnataka,Hassan,"B.Katihalli, Hassan - KSPCB",14-02-2024 08:00:00,13.008556,76.125258,OZONE,5,31,21
India,Karnataka,Haveri,"Ashwini Nagar, Haveri - KSPCB",14-02-2024 08:00:00,14.791800,75.389600,CO,32,35,34
India,Karnataka,Haveri,"Ashwini Nagar, Haveri - KSPCB",14-02-2024 08:00:00,14.791800,75.389600,OZONE,16,32,19
India,Karnataka,Hubballi,"Lingaraj Nagar, Hubballi - KSPCB",14-02-2024 08:00:00,15.3714823,75.1160168,SO2,1,15,3
India,Karnataka,Kalaburagi,"Lal Bahadur Shastri Nagar, Kalaburagi - KSPCB",14-02-2024 08:00:00,17.321993,76.822628,PM10,NA,NA,NA
India,Karnataka,Kalaburagi,"Lal Bahadur Shastri Nagar, Kalaburagi - KSPCB",14-02-2024 08:00:00,17.321993,76.822628,SO2,14,15,14
India,Karnataka,Kalaburagi,"Mahatma Basaveswar Colony, Kalaburgi - KSPCB",14-02-2024 08:00:00,17.336318,76.847397,PM2.5,24,56,33
India,Karnataka,Kalaburagi,"Mahatma Basaveswar Colony, Kalaburgi - KSPCB",14-02-2024 08:00:00,17.336318,76.847397,NH3,2,4,3
India,Karnataka,Kalaburagi,"Mahatma Basaveswar Colony, Kalaburgi - KSPCB",14-02-2024 08:00:00,17.336318,76.847397,OZONE,5,25,11
India,Karnataka,Karwar,"KHB Colony, Karwar - KSPCB",14-02-2024 08:00:00,14.816666,74.141003,PM10,77,170,101
India,Karnataka,Kolar,"Tamaka Ind. Area, Kolar - KSPCB",14-02-2024 08:00:00,13.1276288,78.1570122,PM10,58,159,90
India,Karnataka,Kolar,"Tamaka Ind. Area, Kolar - KSPCB",14-02-2024 08:00:00,13.1276288,78.1570122,OZONE,10,13,12
India,Karnataka,Koppal,"Diwator Nagar, Koppal - KSPCB",14-02-2024 08:00:00,15.347630,76.181767,PM10,26,99,51
India,Karnataka,Koppal,"Diwator Nagar, Koppal - KSPCB",14-02-2024 08:00:00,15.347630,76.181767,OZONE,1,46,3
India,Karnataka,Madikeri,"Stuart Hill, Madikeri - KSPCB",14-02-2024 08:00:00,12.415911,75.735050,PM10,18,58,39
India,Karnataka,Madikeri,"Stuart Hill, Madikeri - KSPCB",14-02-2024 08:00:00,12.415911,75.735050,OZONE,29,42,34
India,Karnataka,Mangalore,"Kadri, Mangalore - KSPCB",14-02-2024 08:00:00,12.889250,74.853000,PM2.5,22,74,54
India,Karnataka,Mysuru,"Hebbal 1st Stage, Mysuru - KSPCB",14-02-2024 08:00:00,12.21041,76.37376,NH3,1,4,2
India,Karnataka,Mysuru,"Hebbal 1st Stage, Mysuru - KSPCB",14-02-2024 08:00:00,12.21041,76.37376,SO2,2,10,4
India,Karnataka,Raichur,"Haji Colony, Raichur - KSPCB",14-02-2024 08:00:00,16.208139,77.348417,PM2.5,NA,NA,NA
India,Karnataka,Raichur,"Haji Colony, Raichur - KSPCB",14-02-2024 08:00:00,16.208139,77.348417,NO2,NA,NA,NA
India,Karnataka,Raichur,"Haji Colony, Raichur - KSPCB",14-02-2024 08:00:00,16.208139,77.348417,NH3,NA,NA,NA
India,Karnataka,Raichur,"Haji Colony, Raichur - KSPCB",14-02-2024 08:00:00,16.208139,77.348417,SO2,NA,NA,NA
India,Karnataka,Raichur,"Haji Colony, Raichur - KSPCB",14-02-2024 08:00:00,16.208139,77.348417,OZONE,NA,NA,NA
India,Karnataka,Tumakuru,"Thimmalapura, Tumakuru - KSPCB",14-02-2024 08:00:00,13.377516,77.099072,PM10,14,36,23
India,Karnataka,Udupi,"Brahmagiri, Udupi - KSPCB",14-02-2024 08:00:00,13.34194444,74.74694444,CO,42,49,45
India,Karnataka,Udupi,"Brahmagiri, Udupi - KSPCB",14-02-2024 08:00:00,13.34194444,74.74694444,OZONE,23,23,23
India,Karnataka,Vijayapura,"Ibrahimpur, Vijayapura - KSPCB",14-02-2024 08:00:00,16.802639,75.722694,PM2.5,26,31,30
India,Karnataka,Vijayapura,"Ibrahimpur, Vijayapura - KSPCB",14-02-2024 08:00:00,16.802639,75.722694,PM10,38,39,39
India,Karnataka,Vijayapura,"Ibrahimpur, Vijayapura - KSPCB",14-02-2024 08:00:00,16.802639,75.722694,NH3,2,2,2
India,Karnataka,Yadgir,"Collector Office, Yadgir - KSPCB",14-02-2024 08:00:00,16.7602,77.1428,PM10,33,92,54
India,Karnataka,Yadgir,"Collector Office, Yadgir - KSPCB",14-02-2024 08:00:00,16.7602,77.1428,NO2,5,8,6
India,Kerala,Kannur,"Thavakkara, Kannur - Kerala PCB",14-02-2024 08:00:00,11.875000,75.373200,NH3,1,1,1
India,Kerala,Kochi,"Vyttila, Kochi - Kerala PCB",14-02-2024 08:00:00,9.969447,76.321186,NO2,2,14,5
India,Kerala,Thiruvananthapuram,"Kariavattom, Thiruvananthapuram - Kerala PCB",14-02-2024 08:00:00,8.563700,76.886500,NH3,1,1,1
India,Kerala,Thiruvananthapuram,"Kariavattom, Thiruvananthapuram - Kerala PCB",14-02-2024 08:00:00,8.563700,76.886500,CO,18,41,23
India,Kerala,Thiruvananthapuram,"Kariavattom, Thiruvananthapuram - Kerala PCB",14-02-2024 08:00:00,8.563700,76.886500,OZONE,27,30,28
India,Kerala,Thiruvananthapuram,"Plammoodu, Thiruvananthapuram - Kerala PCB",14-02-2024 08:00:00,8.5149093,76.9435879,PM2.5,11,59,31
India,Kerala,Thrissur,"Corporation Ground, Thrissur - Kerala PCB",14-02-2024 08:00:00,10.532400,76.215900,SO2,2,27,14
India,Madhya Pradesh,Bhopal,"Idgah Hills, Bhopal - MPPCB",14-02-2024 08:00:00,23.264759,77.381568,NH3,3,3,3
India,Madhya Pradesh,Bhopal,"Idgah Hills, Bhopal - MPPCB",14-02-2024 08:00:00,23.264759,77.381568,SO2,7,25,14
India,Madhya Pradesh,Bhopal,"T T Nagar, Bhopal - MPPCB",14-02-2024 08:00:00,23.233584,77.400574,PM2.5,125,303,245
India,Madhya Pradesh,Dewas,"Bhopal Chauraha, Dewas - MPPCB",14-02-2024 08:00:00,22.9682591,76.064118,SO2,11,69,31
India,Madhya Pradesh,Gwalior,"City Center, Gwalior - MPPCB",14-02-2024 08:00:00,26.203442,78.193251,NO2,25,82,45
India,Madhya Pradesh,Gwalior,"City Center, Gwalior - MPPCB",14-02-2024 08:00:00,26.203442,78.193251,NH3,6,9,8
India,Madhya Pradesh,Gwalior,"Deen Dayal Nagar, Gwalior - MPPCB",14-02-2024 08:00:00,26.259242,78.216432,PM2.5,111,355,249
India,Madhya Pradesh,Gwalior,"Deen Dayal Nagar, Gwalior - MPPCB",14-02-2024 08:00:00,26.259242,78.216432,NO2,39,83,53
India,Madhya Pradesh,Gwalior,"Maharaj Bada, Gwalior - MPPCB",14-02-2024 08:00:00,26.200388,78.147714,NH3,7,13,10
India,Madhya Pradesh,Gwalior,"Maharaj Bada, Gwalior - MPPCB",14-02-2024 08:00:00,26.200388,78.147714,OZONE,9,106,34
India,Madhya Pradesh,Gwalior,"Phool Bagh, Gwalior - Mondelez Ind. Food",14-02-2024 08:00:00,26.210536,78.171,CO,34,49,36
India,Madhya Pradesh,Indore,"Chhoti Gwaltoli, Indore - MPPCB",14-02-2024 08:00:00,22.4310,75.5213,PM2.5,87,327,238
India,Madhya Pradesh,Indore,"Chhoti Gwaltoli, Indore - MPPCB",14-02-2024 08:00:00,22.4310,75.5213,SO2,13,23,19
India,Madhya Pradesh,Indore,"Chhoti Gwaltoli, Indore - MPPCB",14-02-2024 08:00:00,22.4310,75.5213,OZONE,13,101,59
India,Madhya Pradesh,Indore,"Maguda Nagar, Indore - IMC",14-02-2024 08:00:00,22.7524,75.8872,PM2.5,2,174,97
India,Madhya Pradesh,Indore,"Regional Park, Indore - IMC",14-02-2024 08:00:00,22.6780,75.8559,OZONE,5,15,6
India,Madhya Pradesh,Indore,"Residency Area, Indore - IMC",14-02-2024 08:00:00,22.7084,75.8815,PM10,65,132,96
India,Madhya Pradesh,Jabalpur,"Govindh Bhavan Colony, Jabalpur - JMC",14-02-2024 08:00:00,23.163174,79.973061,PM2.5,35,92,57
India,Madhya Pradesh,Jabalpur,"Govindh Bhavan Colony, Jabalpur - JMC",14-02-2024 08:00:00,23.163174,79.973061,SO2,3,46,17
India,Madhya Pradesh,Jabalpur,"Gupteshwar, Jabalpur - JMC",14-02-2024 08:00:00,23.142888,79.916147,PM2.5,38,193,62
India,Madhya Pradesh,Jabalpur,"Gupteshwar, Jabalpur - JMC",14-02-2024 08:00:00,23.142888,79.916147,NO2,8,83,22
India,Madhya Pradesh,Jabalpur,"Marhatal, Jabalpur - MPPCB",14-02-2024 08:00:00,23.168606,79.932247,CO,32,61,37
India,Madhya Pradesh,Katni,"Gole Bazar, Katni - MPPCB",14-02-2024 08:00:00,23.50016,80.23284,PM10,77,277,123
India,Madhya Pradesh,Katni,"Gole Bazar, Katni - MPPCB",14-02-2024 08:00:00,23.50016,80.23284,SO2,11,52,20
India,Madhya Pradesh,Maihar,"Sahilara, Maihar - KJS Cements",14-02-2024 08:00:00,24.2613009,80.7231783,NO2,14,14,14
India,Madhya Pradesh,Maihar,"Sahilara, Maihar - KJS Cements",14-02-2024 08:00:00,24.2613009,80.7231783,SO2,13,16,14
India,Madhya Pradesh,Mandideep,"Sector-D Industrial Area, Mandideep - MPPCB",14-02-2024 08:00:00,23.108440,77.511428,SO2,32,137,93
India,Madhya Pradesh,Pithampur,"Sector-2 Industrial Area, Pithampur - MPPCB",14-02-2024 08:00:00,22.624758,75.675238,NH3,5,7,7
India,Madhya Pradesh,Sagar,"Civil Lines, Sagar - MPPCB",14-02-2024 08:00:00,23.838586,78.759431,PM2.5,183,333,276
India,Madhya Pradesh,Sagar,"Civil Lines, Sagar - MPPCB",14-02-2024 08:00:00,23.838586,78.759431,OZONE,40,48,44
India,Madhya Pradesh,Sagar,"Deen Dayal Nagar, Sagar - MPPCB",14-02-2024 08:00:00,23.8640158,78.80289321,PM10,59,174,95
India,Madhya Pradesh,Sagar,"Deen Dayal Nagar, Sagar - MPPCB",14-02-2024 08:00:00,23.8640158,78.80289321,SO2,4,15,9
India,Madhya Pradesh,Satna,"Bandhavgar Colony, Satna - Birla Cement",14-02-2024 08:00:00,24.58434363,80.8549414,PM2.5,9,15,13
India,Madhya Pradesh,Satna,"Bandhavgar Colony, Satna - Birla Cement",14-02-2024 08:00:00,24.58434363,80.8549414,PM10,19,36,27
India,Madhya Pradesh,Satna,"Bandhavgar Colony, Satna - Birla Cement",14-02-2024 08:00:00,24.58434363,80.8549414,NO2,4,14,8
India,Madhya Pradesh,Singrauli,"Suryakiran Bhawan NCL, Singrauli - MPPCB",14-02-2024 08:00:00,24.108970,82.645580,PM2.5,80,202,104
India,Madhya Pradesh,Singrauli,"Suryakiran Bhawan NCL, Singrauli - MPPCB",14-02-2024 08:00:00,24.108970,82.645580,CO,42,116,73
India,Madhya Pradesh,Ujjain,"Mahakaleshwar Temple, Ujjain - MPPCB",14-02-2024 08:00:00,23.182719 ,75.768218 ,PM2.5,76,276,189
India,Madhya Pradesh,Ujjain,"Mahakaleshwar Temple, Ujjain - MPPCB",14-02-2024 08:00:00,23.182719 ,75.768218 ,PM10,81,132,104
India,Maharashtra,Ahmednagar,"Tarakpur, Ahmednagar - MPCB",14-02-2024 08:00:00,19.10122,74.73339,PM10,69,251,124
India,Maharashtra,Ahmednagar,"Tarakpur, Ahmednagar - MPCB",14-02-2024 08:00:00,19.10122,74.73339,CO,8,154,12
India,Maharashtra,Akola,"Ramdaspeth, Akola - MPCB",14-02-2024 08:00:00,20.719516,77.000253,NO2,13,87,30
India,Maharashtra,Amravati,"Shivneri Colony, Amravati - MPCB",14-02-2024 08:00:00,20.9402359,77.7895248,NH3,1,2,1
India,Maharashtra,Amravati,"Shri Shivaji Science College, Amaravati - MPCB",14-02-2024 08:00:00,20.939198,77.765701,SO2,1,7,4
India,Maharashtra,Aurangabad,"MIDC Chilkalthana, Aurangabad - MPCB",14-02-2024 08:00:00,19.875620,75.387310,OZONE,8,31,10
India,Maharashtra,Aurangabad,"More Chowk Waluj, Aurangabad - MPCB",14-02-2024 08:00:00,19.8389439,75.244448,NH3,1,1,1
India,Maharashtra,Aurangabad,"Rachnakar Colony, Aurangabad - MPCB",14-02-2024 08:00:00,19.863756,75.321188,NO2,19,110,59
India,Maharashtra,Aurangabad,"Rachnakar Colony, Aurangabad - MPCB",14-02-2024 08:00:00,19.863756,75.321188,OZONE,12,91,13
India,Maharashtra,Badlapur,"Katrap, Badlapur - MPCB",14-02-2024 08:00:00,19.16485,73.23409,PM2.5,NA,NA,NA
India,Maharashtra,Badlapur,"Katrap, Badlapur - MPCB",14-02-2024 08:00:00,19.16485,73.23409,PM10,NA,NA,NA
India,Maharashtra,Badlapur,"Katrap, Badlapur - MPCB",14-02-2024 08:00:00,19.16485,73.23409,NO2,NA,NA,NA
India,Maharashtra,Badlapur,"Katrap, Badlapur - MPCB",14-02-2024 08:00:00,19.16485,73.23409,SO2,NA,NA,NA
India,Maharashtra,Chandrapur,"Chauhan Colony, Chandrapur - MPCB",14-02-2024 08:00:00,19.962900,79.298714,NO2,15,27,20
India,Maharashtra,Chandrapur,"MIDC Khutala, Chandrapur - MPCB",14-02-2024 08:00:00,19.9775302,79.2337086,PM10,NA,NA,NA
India,Maharashtra,Jalgaon,"Prabhat Colony, Jalgaon - MPCB",14-02-2024 08:00:00,21.001264,75.565602,PM2.5,71,179,132
India,Maharashtra,Jalgaon,"Prabhat Colony, Jalgaon - MPCB",14-02-2024 08:00:00,21.001264,75.565602,NH3,1,2,1
India,Maharashtra,Jalgaon,"Prabhat Colony, Jalgaon - MPCB",14-02-2024 08:00:00,21.001264,75.565602,CO,3,15,9
