country,state,city,station,last_update,latitude,longitude,pollutant_id,pollutant_min,pollutant_max,pollutant_avg
India,Andhra_Pradesh,Amaravati,"Secretariat, Amaravati - APPCB",04-04-2024 23:00:00,16.5150833,80.5181667,NH3,4,5,5
India,Andhra_Pradesh,Anantapur,"Gulzarpet, Anantapur - APPCB",04-04-2024 23:00:00,14.675886,77.593027,OZONE,7,57,36
India,Andhra_Pradesh,Chittoor,"Gangineni Cheruvu, Chittoor - APPCB",04-04-2024 23:00:00,13.204880,79.097889,OZONE,NA,NA,NA
India,Andhra_Pradesh,Rajamahendravaram,"Anand Kala Kshetram, Rajamahendravaram - APPCB",04-04-2024 23:00:00,16.9872867,81.7363176,PM10,14,37,25
India,Andhra_Pradesh,Rajamahendravaram,"Anand Kala Kshetram, Rajamahendravaram - APPCB",04-04-2024 23:00:00,16.9872867,81.7363176,NO2,5,18,10
India,Andhra_Pradesh,Rajamahendravaram,"Anand Kala Kshetram, Rajamahendravaram - APPCB",04-04-2024 23:00:00,16.9872867,81.7363176,NH3,2,5,3
India,Andhra_Pradesh,Tirupati,"Vaikuntapuram, Tirupati - APPCB",04-04-2024 23:00:00,13.615387,79.409230,PM2.5,14,249,59
India,Andhra_Pradesh,Tirupati,"Vaikuntapuram, Tirupati - APPCB",04-04-2024 23:00:00,13.615387,79.409230,NO2,14,54,23
India,Andhra_Pradesh,Vijayawada,"HB Colony, Vijayawada - APPCB",04-04-2024 23:00:00,16.536107,80.594233,CO,37,46,46
India,Andhra_Pradesh,Vijayawada,"HB Colony, Vijayawada - APPCB",04-04-2024 23:00:00,16.536107,80.594233,OZONE,2,28,16
India,Andhra_Pradesh,Vijayawada,"Kanuru, Vijayawada - APPCB",04-04-2024 23:00:00,16.486692,80.699436,PM2.5,45,71,53
India,Andhra_Pradesh,Vijayawada,"Kanuru, Vijayawada - APPCB",04-04-2024 23:00:00,16.486692,80.699436,PM10,50,81,59
India,Andhra_Pradesh,Vijayawada,"Rajiv Gandhi Park, Vijayawada - APPCB",04-04-2024 23:00:00,16.509717,80.612222,PM10,25,97,50
India,Andhra_Pradesh,Vijayawada,"Rajiv Nagar, Vijayawada - APPCB",04-04-2024 23:00:00,16.554731,80.649110,CO,44,44,44
India,Andhra_Pradesh,Visakhapatnam,"GVM Corporation, Visakhapatnam - APPCB",04-04-2024 23:00:00,17.72,83.3,NO2,34,47,39
India,Assam,Guwahati,"IITG, Guwahati - PCBA",04-04-2024 23:00:00,26.2028636,91.70046436,SO2,11,12,12
India,Assam,Guwahati,"LGBI Airport, Guwahati - PCBA",04-04-2024 23:00:00,26.10887,91.589544,PM2.5,37,318,121
India,Assam,Guwahati,"LGBI Airport, Guwahati - PCBA",04-04-2024 23:00:00,26.10887,91.589544,PM10,112,500,299
India,Assam,Guwahati,"Pan Bazaar, Guwahati - PCBA",04-04-2024 23:00:00,26.187500,91.744194,PM2.5,29,64,45
India,Assam,Guwahati,"Pan Bazaar, Guwahati - PCBA",04-04-2024 23:00:00,26.187500,91.744194,NH3,3,4,4
India,Assam,Nagaon,"Christianpatty, Nagaon - PCBA",04-04-2024 23:00:00,26.349082,92.68449,PM10,72,100,84
India,Assam,Nagaon,"Christianpatty, Nagaon - PCBA",04-04-2024 23:00:00,26.349082,92.68449,NO2,3,20,9
India,Assam,Nagaon,"Christianpatty, Nagaon - PCBA",04-04-2024 23:00:00,26.349082,92.68449,NH3,7,11,9
India,Assam,Nagaon,"Christianpatty, Nagaon - PCBA",04-04-2024 23:00:00,26.349082,92.68449,CO,44,62,55
India,Assam,Nagaon,"Christianpatty, Nagaon - PCBA",04-04-2024 23:00:00,26.349082,92.68449,OZONE,34,131,88
India,Assam,Nalbari,"Bata Chowk, Nalbari - PCBA",04-04-2024 23:00:00,26.446912,91.439057,PM10,68,157,121
India,Assam,Nalbari,"Bata Chowk, Nalbari - PCBA",04-04-2024 23:00:00,26.446912,91.439057,OZONE,47,118,90
India,Bihar,Araria,"Kharahiya Basti, Araria - BSPCB",04-04-2024 23:00:00,26.146529,87.454184,PM2.5,65,307,142
India,Bihar,Araria,"Kharahiya Basti, Araria - BSPCB",04-04-2024 23:00:00,26.146529,87.454184,PM10,108,315,167
India,Bihar,Arrah,"New DM Office, Arrah - BSPCB",04-04-2024 23:00:00,25.5626095,84.663264,NO2,7,21,14
India,Bihar,Aurangabad,"Gurdeo Nagar, Aurangabad - BSPCB",04-04-2024 23:00:00,24.75746,84.366208,OZONE,6,109,51
India,Bihar,Bettiah,"Kamalnath Nagar, Bettiah - BSPCB",04-04-2024 23:00:00,26.80365,84.51954,CO,62,64,63
India,Bihar,Bhagalpur,"DM Office_Kachari Chowk, Bhagalpur - BSPCB",04-04-2024 23:00:00,25.251013,86.989001,CO,35,99,78
India,Bihar,Bhagalpur,"Mayaganj, Bhagalpur - BSPCB",04-04-2024 23:00:00,25.265194,87.012947,PM10,NA,NA,NA
India,Bihar,Bihar Sharif,"D M Colony, Bihar Sharif - BSPCB",04-04-2024 23:00:00,25.204762,85.514960,NO2,8,10,9
India,Bihar,Bihar Sharif,"D M Colony, Bihar Sharif - BSPCB",04-04-2024 23:00:00,25.204762,85.514960,NH3,2,2,2
India,Bihar,Buxar,"Charitra Van, Buxar - BSPCB (Formerly known as Central Jail)",04-04-2024 23:00:00,25.567520,83.966379,SO2,18,30,20
India,Bihar,Buxar,"Charitra Van, Buxar - BSPCB (Formerly known as Central Jail)",04-04-2024 23:00:00,25.567520,83.966379,CO,28,117,78
India,Bihar,Chhapra,"Darshan Nagar, Chhapra - BSPCB",04-04-2024 23:00:00,25.7808257,84.7446768,NO2,21,29,26
India,Bihar,Chhapra,"Darshan Nagar, Chhapra - BSPCB",04-04-2024 23:00:00,25.7808257,84.7446768,OZONE,1,4,2
India,Bihar,Gaya,"Kareemganj, Gaya - BSPCB",04-04-2024 23:00:00,24.792403,84.992416,PM2.5,22,253,98
India,Bihar,Gaya,"Kareemganj, Gaya - BSPCB",04-04-2024 23:00:00,24.792403,84.992416,SO2,4,10,7
India,Bihar,Gaya,"Kareemganj, Gaya - BSPCB",04-04-2024 23:00:00,24.792403,84.992416,OZONE,1,42,15
India,Bihar,Gaya,"SFTI Kusdihra, Gaya - BSPCB",04-04-2024 23:00:00,24.762518,84.982348,CO,13,46,28
India,Bihar,Hajipur,"Industrial Area, Hajipur - BSPCB",04-04-2024 23:00:00,25.697189,85.245900,PM10,155,408,237
India,Bihar,Hajipur,"Industrial Area, Hajipur - BSPCB",04-04-2024 23:00:00,25.697189,85.245900,NO2,44,113,62
India,Bihar,Katihar,"Mirchaibari, Katihar - BSPCB",04-04-2024 23:00:00,25.560083,87.553265,PM10,NA,NA,NA
India,Bihar,Manguraha,"Forest Rest House, Manguraha - BSPCB",04-04-2024 23:00:00,27.308328,84.531742,NH3,1,3,2
India,Bihar,Manguraha,"Forest Rest House, Manguraha - BSPCB",04-04-2024 23:00:00,27.308328,84.531742,CO,27,92,34
India,Bihar,Motihari,"Gandak Colony, Motihari - BSPCB",04-04-2024 23:00:00,26.63086,84.90051,PM10,23,76,48
India,Bihar,Munger,"Town Hall, Munger - BSPCB",04-04-2024 23:00:00,25.376776,86.471523,NH3,1,2,2
India,Bihar,Munger,"Town Hall, Munger - BSPCB",04-04-2024 23:00:00,25.376776,86.471523,OZONE,27,77,38
India,Bihar,Muzaffarpur,"MIT-Daudpur Kothi, Muzaffarpur - BSPCB",04-04-2024 23:00:00,26.1403345,85.3650192,CO,17,122,50
India,Bihar,Muzaffarpur,"Muzaffarpur Collectorate, Muzaffarpur - BSPCB",04-04-2024 23:00:00,26.1209,85.3647,SO2,8,21,13
India,Bihar,Patna,"Govt. High School Shikarpur, Patna - BSPCB",04-04-2024 23:00:00,25.592539,85.227158,NH3,4,5,5
India,Bihar,Patna,"Govt. High School Shikarpur, Patna - BSPCB",04-04-2024 23:00:00,25.592539,85.227158,CO,22,65,49
India,Bihar,Patna,"IGSC Planetarium Complex, Patna - BSPCB",04-04-2024 23:00:00,25.610369,85.132568,PM2.5,37,311,167
India,Bihar,Patna,"IGSC Planetarium Complex, Patna - BSPCB",04-04-2024 23:00:00,25.610369,85.132568,CO,12,14,12
India,Bihar,Patna,"Muradpur, Patna - BSPCB",04-04-2024 23:00:00,25.619651,85.147382,PM2.5,154,366,304
India,Bihar,Patna,"Muradpur, Patna - BSPCB",04-04-2024 23:00:00,25.619651,85.147382,PM10,164,500,328
India,Bihar,Patna,"Rajbansi Nagar, Patna - BSPCB",04-04-2024 23:00:00,25.599486,85.113666,NO2,22,47,31
India,Bihar,Patna,"Samanpura, Patna - BSPCB",04-04-2024 23:00:00,25.596727,85.085624,PM2.5,49,424,187
India,Bihar,Purnia,"Mariam Nagar, Purnia - BSPCB",04-04-2024 23:00:00,25.366336,87.117468,NO2,5,6,6
India,Bihar,Purnia,"Mariam Nagar, Purnia - BSPCB",04-04-2024 23:00:00,25.366336,87.117468,NH3,2,2,2
India,Bihar,Rajgir,"Dangi Tola, Rajgir - BSPCB",04-04-2024 23:00:00,25.03280,85.41948,PM2.5,NA,NA,NA
India,Bihar,Rajgir,"Dangi Tola, Rajgir - BSPCB",04-04-2024 23:00:00,25.03280,85.41948,NO2,1,1,1
India,Bihar,Rajgir,"Dangi Tola, Rajgir - BSPCB",04-04-2024 23:00:00,25.03280,85.41948,NH3,1,16,3
India,Bihar,Samastipur,"DM Office_Kasipur, Samastipur - BSPCB",04-04-2024 23:00:00,25.859655,85.77944,PM2.5,45,314,121
India,Bihar,Samastipur,"DM Office_Kasipur, Samastipur - BSPCB",04-04-2024 23:00:00,25.859655,85.77944,SO2,8,16,12
India,Bihar,Siwan,"Chitragupta Nagar, Siwan - BSPCB",04-04-2024 23:00:00,26.2271665,84.3570427,PM10,63,129,88
India,Bihar,Siwan,"Chitragupta Nagar, Siwan - BSPCB",04-04-2024 23:00:00,26.2271665,84.3570427,SO2,23,34,32
India,Bihar,Siwan,"Chitragupta Nagar, Siwan - BSPCB",04-04-2024 23:00:00,26.2271665,84.3570427,OZONE,19,148,67
India,Chandigarh,Chandigarh,"Sector-25, Chandigarh - CPCC",04-04-2024 23:00:00,30.751462,76.762879,PM2.5,90,182,132
India,Chandigarh,Chandigarh,"Sector-25, Chandigarh - CPCC",04-04-2024 23:00:00,30.751462,76.762879,CO,13,38,19
India,Chandigarh,Chandigarh,"Sector-53, Chandigarh - CPCC",04-04-2024 23:00:00,30.719859,76.738637,PM10,64,185,108
India,Chandigarh,Chandigarh,"Sector-53, Chandigarh - CPCC",04-04-2024 23:00:00,30.719859,76.738637,SO2,13,40,20
India,Chandigarh,Chandigarh,"Sector-53, Chandigarh - CPCC",04-04-2024 23:00:00,30.719859,76.738637,OZONE,8,61,45
India,Chhattisgarh,Bhilai,"32Bungalows, Bhilai - CECB",04-04-2024 23:00:00,21.194815,81.314770,PM2.5,52,71,60
India,Chhattisgarh,Bhilai,"Civic Center, Bhilai - Bhilai Steel Plant",04-04-2024 23:00:00,21.185571,81.343175,OZONE,10,89,53
India,Chhattisgarh,Bhilai,"Hathkhoj, Bhilai - CECB",04-04-2024 23:00:00,21.224231,81.408350,PM2.5,NA,NA,NA
India,Chhattisgarh,Korba,"Rampur, Korba - CECB",04-04-2024 23:00:00,22.368195,82.746431,CO,20,56,31
India,Chhattisgarh,Milupara,"Govt. Higher Secondary School, Milupara - CECB",04-04-2024 23:00:00,22.1910172,83.5197009,PM2.5,79,227,170
India,Chhattisgarh,Milupara,"Govt. Higher Secondary School, Milupara - CECB",04-04-2024 23:00:00,22.1910172,83.5197009,OZONE,1,34,11
India,Chhattisgarh,Raipur,"AIIMS, Raipur - CECB",04-04-2024 23:00:00,21.258815,81.578979,NH3,5,6,6
India,Chhattisgarh,Raipur,"AIIMS, Raipur - CECB",04-04-2024 23:00:00,21.258815,81.578979,SO2,7,27,13
India,Chhattisgarh,Raipur,"Krishak Nagar, Raipur - CECB",04-04-2024 23:00:00,21.237755,81.705301,PM10,42,90,57
India,Chhattisgarh,Raipur,"Krishak Nagar, Raipur - CECB",04-04-2024 23:00:00,21.237755,81.705301,SO2,13,27,18
India,Chhattisgarh,Raipur,"Siltara Phase-II, Raipur - CECB",04-04-2024 23:00:00,21.371751,81.664929,PM10,42,176,111
India,Chhattisgarh,Raipur,"Siltara Phase-II, Raipur - CECB",04-04-2024 23:00:00,21.371751,81.664929,OZONE,3,51,34
India,Chhattisgarh,Tumidih,"OP Jindal Industrial Park, Tumidih - CECB",04-04-2024 23:00:00,22.06631475,83.33820077,PM10,NA,NA,NA
India,Chhattisgarh,Tumidih,"OP Jindal Industrial Park, Tumidih - CECB",04-04-2024 23:00:00,22.06631475,83.33820077,NH3,NA,NA,NA
India,Delhi,Delhi,"Alipur, Delhi - DPCC",04-04-2024 23:00:00,28.815329,77.153010,PM2.5,26,232,77
India,Delhi,Delhi,"Anand Vihar, Delhi - DPCC",04-04-2024 23:00:00,28.647622,77.3158090,PM10,61,432,244
India,Delhi,Delhi,"Anand Vihar, Delhi - DPCC",04-04-2024 23:00:00,28.647622,77.3158090,SO2,11,78,36
India,Delhi,Delhi,"Anand Vihar, Delhi - DPCC",04-04-2024 23:00:00,28.647622,77.3158090,CO,26,133,61
India,Delhi,Delhi,"Ashok Vihar, Delhi - DPCC",04-04-2024 23:00:00,28.695381,77.181665,PM2.5,36,282,91
India,Delhi,Delhi,"Aya Nagar, Delhi - IMD",04-04-2024 23:00:00,28.4706914,77.1099364,PM10,89,211,130
India,Delhi,Delhi,"Bawana, Delhi - DPCC",04-04-2024 23:00:00,28.776200,77.051074,PM2.5,46,392,154
India,Delhi,Delhi,"Bawana, Delhi - DPCC",04-04-2024 23:00:00,28.776200,77.051074,NH3,4,8,6
India,Delhi,Delhi,"CRRI Mathura Road, Delhi - IMD",04-04-2024 23:00:00,28.5512005,77.2735737,PM10,71,500,191
India,Delhi,Delhi,"CRRI Mathura Road, Delhi - IMD",04-04-2024 23:00:00,28.5512005,77.2735737,OZONE,1,90,34
India,Delhi,Delhi,"Dr. Karni Singh Shooting Range, Delhi - DPCC",04-04-2024 23:00:00,28.498571,77.264840,PM10,87,266,148
India,Delhi,Delhi,"Dwarka-Sector 8, Delhi - DPCC ",04-04-2024 23:00:00,28.5710274,77.0719006,NO2,11,94,46
India,Delhi,Delhi,"IGI Airport (T3), Delhi - IMD",04-04-2024 23:00:00,28.5627763,77.1180053,CO,15,96,39
India,Delhi,Delhi,"IGI Airport (T3), Delhi - IMD",04-04-2024 23:00:00,28.5627763,77.1180053,OZONE,1,52,22
India,Delhi,Delhi,"IHBAS, Dilshad Garden, Delhi - CPCB",04-04-2024 23:00:00,28.6811736,77.3025234,PM2.5,103,302,155
India,Delhi,Delhi,"IHBAS, Dilshad Garden, Delhi - CPCB",04-04-2024 23:00:00,28.6811736,77.3025234,SO2,3,42,23
India,Delhi,Delhi,"IHBAS, Dilshad Garden, Delhi - CPCB",04-04-2024 23:00:00,28.6811736,77.3025234,CO,10,102,48
India,Delhi,Delhi,"ITO, Delhi - CPCB",04-04-2024 23:00:00,28.628624,77.241060,NH3,1,8,4
India,Delhi,Delhi,"Jawaharlal Nehru Stadium, Delhi - DPCC",04-04-2024 23:00:00,28.580280,77.233829,CO,18,114,62
India,Delhi,Delhi,"Lodhi Road, Delhi - IITM",04-04-2024 23:00:00,28.588333,77.221667,PM2.5,190,458,322
India,Delhi,Delhi,"Lodhi Road, Delhi - IITM",04-04-2024 23:00:00,28.588333,77.221667,PM10,133,432,218
India,Delhi,Delhi,"Lodhi Road, Delhi - IMD",04-04-2024 23:00:00,28.5918245,77.2273074,PM2.5,35,197,82
India,Delhi,Delhi,"Mandir Marg, Delhi - DPCC",04-04-2024 23:00:00,28.636429,77.201067,OZONE,4,30,20
India,Delhi,Delhi,"Mundka, Delhi - DPCC",04-04-2024 23:00:00,28.684678,77.076574,PM2.5,28,393,159
India,Delhi,Delhi,"Mundka, Delhi - DPCC",04-04-2024 23:00:00,28.684678,77.076574,SO2,12,111,33
India,Delhi,Delhi,"Mundka, Delhi - DPCC",04-04-2024 23:00:00,28.684678,77.076574,OZONE,40,195,110
India,Delhi,Delhi,"NSIT Dwarka, Delhi - CPCB",04-04-2024 23:00:00,28.60909,77.0325413,SO2,11,51,26
India,Delhi,Delhi,"NSIT Dwarka, Delhi - CPCB",04-04-2024 23:00:00,28.60909,77.0325413,OZONE,3,79,46
India,Delhi,Delhi,"Narela, Delhi - DPCC",04-04-2024 23:00:00,28.822836,77.101981,PM2.5,20,346,115
India,Delhi,Delhi,"Narela, Delhi - DPCC",04-04-2024 23:00:00,28.822836,77.101981,NO2,6,91,42
India,Delhi,Delhi,"Narela, Delhi - DPCC",04-04-2024 23:00:00,28.822836,77.101981,CO,20,74,47
India,Delhi,Delhi,"Narela, Delhi - DPCC",04-04-2024 23:00:00,28.822836,77.101981,OZONE,7,137,69
India,Delhi,Delhi,"Nehru Nagar, Delhi - DPCC",04-04-2024 23:00:00,28.567890,77.250515,PM10,69,264,145
India,Delhi,Delhi,"Nehru Nagar, Delhi - DPCC",04-04-2024 23:00:00,28.567890,77.250515,NH3,8,10,9
India,Delhi,Delhi,"New Moti Bagh, Delhi - MHUA",04-04-2024 23:00:00,28.57834,77.18400,PM2.5,29,313,102
India,Delhi,Delhi,"North Campus, DU, Delhi - IMD",04-04-2024 23:00:00,28.6573814,77.1585447,PM2.5,NA,NA,NA
India,Delhi,Delhi,"North Campus, DU, Delhi - IMD",04-04-2024 23:00:00,28.6573814,77.1585447,NO2,NA,NA,NA
India,Delhi,Delhi,"North Campus, DU, Delhi - IMD",04-04-2024 23:00:00,28.6573814,77.1585447,OZONE,27,43,32
India,Delhi,Delhi,"Okhla Phase-2, Delhi - DPCC",04-04-2024 23:00:00,28.530785,77.271255,PM2.5,32,325,107
India,Delhi,Delhi,"Okhla Phase-2, Delhi - DPCC",04-04-2024 23:00:00,28.530785,77.271255,NH3,7,9,8
India,Delhi,Delhi,"Patparganj, Delhi - DPCC",04-04-2024 23:00:00,28.623763,77.287209,PM10,107,348,185
India,Delhi,Delhi,"Patparganj, Delhi - DPCC",04-04-2024 23:00:00,28.623763,77.287209,NO2,26,99,53
India,Delhi,Delhi,"Patparganj, Delhi - DPCC",04-04-2024 23:00:00,28.623763,77.287209,SO2,15,22,19
India,Delhi,Delhi,"Punjabi Bagh, Delhi - DPCC",04-04-2024 23:00:00,28.674045,77.131023,NH3,4,5,5
India,Delhi,Delhi,"Pusa, Delhi - DPCC",04-04-2024 23:00:00,28.639652,77.146275,CO,14,110,69
India,Delhi,Delhi,"Pusa, Delhi - IMD",04-04-2024 23:00:00,28.636110,77.173332,NO2,13,43,23
India,Delhi,Delhi,"R K Puram, Delhi - DPCC",04-04-2024 23:00:00,28.563262,77.186937,PM2.5,37,336,140
India,Delhi,Delhi,"R K Puram, Delhi - DPCC",04-04-2024 23:00:00,28.563262,77.186937,NO2,21,145,85
India,Delhi,Delhi,"Rohini, Delhi - DPCC",04-04-2024 23:00:00,28.732528,77.119920,NO2,9,120,51
India,Delhi,Delhi,"Shadipur, Delhi - CPCB",04-04-2024 23:00:00,28.6514781,77.1473105,PM2.5,68,447,215
India,Delhi,Delhi,"Shadipur, Delhi - CPCB",04-04-2024 23:00:00,28.6514781,77.1473105,NH3,2,7,5
India,Delhi,Delhi,"Shadipur, Delhi - CPCB",04-04-2024 23:00:00,28.6514781,77.1473105,SO2,11,30,19
India,Delhi,Delhi,"Sonia Vihar, Delhi - DPCC",04-04-2024 23:00:00,28.710508,77.249485,CO,45,110,71
India,Delhi,Delhi,"Sri Aurobindo Marg, Delhi - DPCC",04-04-2024 23:00:00,28.531346,77.190156,PM2.5,37,203,80
India,Delhi,Delhi,"Sri Aurobindo Marg, Delhi - DPCC",04-04-2024 23:00:00,28.531346,77.190156,NO2,15,110,64
India,Delhi,Delhi,"Sri Aurobindo Marg, Delhi - DPCC",04-04-2024 23:00:00,28.531346,77.190156,CO,2,103,24
India,Delhi,Delhi,"Vivek Vihar, Delhi - DPCC",04-04-2024 23:00:00,28.672342,77.315260,CO,10,101,48
India,Delhi,Delhi,"Vivek Vihar, Delhi - DPCC",04-04-2024 23:00:00,28.672342,77.315260,OZONE,1,98,48
India,Delhi,Delhi,"Wazirpur, Delhi - DPCC",04-04-2024 23:00:00,28.699793,77.165453,PM10,113,314,175
India,Gujarat,Ahmedabad,"Chandkheda, Ahmedabad - IITM",04-04-2024 23:00:00,23.107969,72.574648,PM10,69,135,95
India,Gujarat,Ahmedabad,"Chandkheda, Ahmedabad - IITM",04-04-2024 23:00:00,23.107969,72.574648,NO2,32,40,35
India,Gujarat,Ahmedabad,"Chandkheda, Ahmedabad - IITM",04-04-2024 23:00:00,23.107969,72.574648,SO2,6,16,9
India,Gujarat,Ahmedabad,"Raikhad, Ahmedabad - IITM",04-04-2024 23:00:00,23.020509,72.579261,NH3,2,6,3
India,Gujarat,Ahmedabad,"Rakhial, Ahmedabad - IITM",04-04-2024 23:00:00,23.016834,72.625775,PM2.5,56,135,86
India,Gujarat,Ahmedabad,"Rakhial, Ahmedabad - IITM",04-04-2024 23:00:00,23.016834,72.625775,NO2,14,58,27
India,Gujarat,Ahmedabad,"Rakhial, Ahmedabad - IITM",04-04-2024 23:00:00,23.016834,72.625775,CO,52,107,98
India,Gujarat,Ahmedabad,"SAC ISRO Satellite, Ahmedabad - IITM",04-04-2024 23:00:00,23.023389,72.515201,PM2.5,154,159,157
India,Gujarat,Ahmedabad,"Sardar Vallabhbhai Patel Stadium, Ahmedabad - IITM",04-04-2024 23:00:00,23.043070,72.562968,OZONE,3,14,8
India,Gujarat,Gandhinagar,"IIPHG Lekawada, Gandhinagar - IITM",04-04-2024 23:00:00,23.243639,72.68994,PM2.5,47,87,68
India,Gujarat,Gandhinagar,"IIPHG Lekawada, Gandhinagar - IITM",04-04-2024 23:00:00,23.243639,72.68994,PM10,59,112,84
India,Gujarat,Vapi,"Phase-1 GIDC, Vapi - GPCB",04-04-2024 23:00:00,20.362421,72.918013,PM10,55,116,82
India,Gujarat,Vapi,"Phase-1 GIDC, Vapi - GPCB",04-04-2024 23:00:00,20.362421,72.918013,NH3,2,2,2
India,Gujarat,Vapi,"Phase-1 GIDC, Vapi - GPCB",04-04-2024 23:00:00,20.362421,72.918013,SO2,51,52,51
India,Haryana,Ambala,"Patti Mehar, Ambala - HSPCB",04-04-2024 23:00:00,30.379589,76.778328,NO2,7,21,14
India,Haryana,Ambala,"Patti Mehar, Ambala - HSPCB",04-04-2024 23:00:00,30.379589,76.778328,CO,30,60,39
India,Haryana,Bahadurgarh,"Arya Nagar, Bahadurgarh - HSPCB",04-04-2024 23:00:00,28.6701,76.9254,PM2.5,10,69,42
India,Haryana,Bahadurgarh,"Arya Nagar, Bahadurgarh - HSPCB",04-04-2024 23:00:00,28.6701,76.9254,OZONE,40,51,43
India,Haryana,Ballabgarh,"Nathu Colony, Ballabgarh - HSPCB",04-04-2024 23:00:00,28.3419248,77.319699,NH3,1,2,2
India,Haryana,Ballabgarh,"Nathu Colony, Ballabgarh - HSPCB",04-04-2024 23:00:00,28.3419248,77.319699,SO2,6,36,18
India,Haryana,Bhiwani,"H.B. Colony, Bhiwani - HSPCB",04-04-2024 23:00:00,28.806223,76.141105,PM10,1,341,65
India,Haryana,Bhiwani,"H.B. Colony, Bhiwani - HSPCB",04-04-2024 23:00:00,28.806223,76.141105,NH3,6,6,6
India,Haryana,Charkhi Dadri,"Mini Secretariat, Charkhi Dadri - HSPCB",04-04-2024 23:00:00,28.593883,76.270653,PM10,62,154,95
India,Haryana,Charkhi Dadri,"Mini Secretariat, Charkhi Dadri - HSPCB",04-04-2024 23:00:00,28.593883,76.270653,OZONE,14,17,16
India,Haryana,Dharuhera,"Municipal Corporation Office, Dharuhera -  HSPCB",04-04-2024 23:00:00,28.206800,76.799700,CO,66,101,89
India,Haryana,Dharuhera,"Municipal Corporation Office, Dharuhera -  HSPCB",04-04-2024 23:00:00,28.206800,76.799700,OZONE,26,46,35
India,Haryana,Faridabad,"Sector 11, Faridabad - HSPCB",04-04-2024 23:00:00,28.376058,77.315741,PM10,74,392,247
India,Haryana,Faridabad,"Sector 30, Faridabad - HSPCB",04-04-2024 23:00:00,28.4417,77.3217,PM10,139,148,143
India,Haryana,Faridabad,"Sector 30, Faridabad - HSPCB",04-04-2024 23:00:00,28.4417,77.3217,NO2,30,33,32
India,Haryana,Faridabad,"Sector 30, Faridabad - HSPCB",04-04-2024 23:00:00,28.4417,77.3217,NH3,9,9,9
India,Haryana,Faridabad,"Sector 30, Faridabad - HSPCB",04-04-2024 23:00:00,28.4417,77.3217,OZONE,10,10,10
India,Haryana,Faridabad,"Sector- 16A, Faridabad - HSPCB",04-04-2024 23:00:00,28.4088421,77.3099081,SO2,3,25,18
India,Haryana,Fatehabad,"Huda Sector, Fatehabad - HSPCB",04-04-2024 23:00:00,29.503664,75.467934,NO2,23,42,37
India,Haryana,Gurugram,"Sector-51, Gurugram - HSPCB",04-04-2024 23:00:00,28.4227,77.0667,SO2,3,4,4
India,Haryana,Gurugram,"Teri Gram, Gurugram - HSPCB",04-04-2024 23:00:00,28.4275,77.1465,PM2.5,91,301,210
India,Haryana,Gurugram,"Teri Gram, Gurugram - HSPCB",04-04-2024 23:00:00,28.4275,77.1465,NH3,52,92,68
India,Haryana,Hisar,"Urban Estate-II, Hisar - HSPCB",04-04-2024 23:00:00,29.140560,75.744941,SO2,11,135,49
India,Haryana,Jind,"Police Lines, Jind - HSPCB",04-04-2024 23:00:00,29.307814,76.337619,NO2,4,15,11
India,Haryana,Jind,"Police Lines, Jind - HSPCB",04-04-2024 23:00:00,29.307814,76.337619,CO,2,76,28
India,Haryana,Kaithal,"Rishi Nagar, Kaithal - HSPCB",04-04-2024 23:00:00,29.8006,76.4155,PM2.5,37,70,57
India,Haryana,Kaithal,"Rishi Nagar, Kaithal - HSPCB",04-04-2024 23:00:00,29.8006,76.4155,CO,4,34,14
India,Haryana,Karnal,"Sector-12, Karnal - HSPCB",04-04-2024 23:00:00,29.695300,77.002700,PM2.5,27,63,42
India,Haryana,Karnal,"Sector-12, Karnal - HSPCB",04-04-2024 23:00:00,29.695300,77.002700,PM10,48,107,78
India,Haryana,Kurukshetra,"Sector-7, Kurukshetra - HSPCB",04-04-2024 23:00:00,29.966942,76.875879,PM10,51,102,81
India,Haryana,Manesar,"Sector-2 IMT, Manesar - HSPCB",04-04-2024 23:00:00,28.360699,76.936090,NH3,2,3,2
India,Haryana,Manesar,"Sector-2 IMT, Manesar - HSPCB",04-04-2024 23:00:00,28.360699,76.936090,CO,17,58,23
India,Haryana,Narnaul,"Shastri Nagar, Narnaul - HSPCB",04-04-2024 23:00:00,28.060249,76.113115,PM2.5,39,144,58
India,Haryana,Narnaul,"Shastri Nagar, Narnaul - HSPCB",04-04-2024 23:00:00,28.060249,76.113115,PM10,39,115,57
India,Haryana,Narnaul,"Shastri Nagar, Narnaul - HSPCB",04-04-2024 23:00:00,28.060249,76.113115,NO2,12,75,35
India,Haryana,Palwal,"Shyam Nagar, Palwal - HSPCB",04-04-2024 23:00:00,28.1485564,77.3320667,NH3,8,9,9
India,Haryana,Palwal,"Shyam Nagar, Palwal - HSPCB",04-04-2024 23:00:00,28.1485564,77.3320667,CO,14,38,29
India,Haryana,Panipat,"Sector-18, Panipat - HSPCB",04-04-2024 23:00:00,29.497973,76.993331,PM10,64,70,68
India,Haryana,Rohtak,"MD University, Rohtak - HSPCB",04-04-2024 23:00:00,28.52123,76.37138,OZONE,45,53,49
India,Haryana,Sirsa,"F-Block, Sirsa - HSPCB",04-04-2024 23:00:00,29.536400,75.015800,CO,32,40,37
India,Haryana,Sonipat,"Murthal, Sonipat - HSPCB",04-04-2024 23:00:00,29.027200,77.062100,PM2.5,35,71,51
India,Haryana,Sonipat,"Murthal, Sonipat - HSPCB",04-04-2024 23:00:00,29.027200,77.062100,NH3,7,10,9
India,Haryana,Sonipat,"Murthal, Sonipat - HSPCB",04-04-2024 23:00:00,29.027200,77.062100,SO2,13,29,20
India,Haryana,Sonipat,"Murthal, Sonipat - HSPCB",04-04-2024 23:00:00,29.027200,77.062100,CO,12,24,15
India,Haryana,Yamuna Nagar,"Gobind Pura, Yamuna Nagar - HSPCB",04-04-2024 23:00:00,30.1480566,77.2893471,PM10,65,139,97
India,Himachal Pradesh,Baddi,"HIMUDA Complex Phase-1, Baddi - HPPCB",04-04-2024 23:00:00,30.943887,76.801991,NO2,8,50,25
India,Himachal Pradesh,Baddi,"HIMUDA Complex Phase-1, Baddi - HPPCB",04-04-2024 23:00:00,30.943887,76.801991,NH3,2,6,4
India,Jharkhand,Dhanbad,"Kalakusuma, Dhanbad - DMC",04-04-2024 23:00:00,23.811548,86.481238,PM10,116,493,196
India,Jharkhand,Dhanbad,"Kalakusuma, Dhanbad - DMC",04-04-2024 23:00:00,23.811548,86.481238,SO2,9,24,16
India,Jharkhand,Pathardih,"Mohalbani Ghat, Pathardih - DMC",04-04-2024 23:00:00,23.669880,86.411725,NO2,NA,NA,NA
India,Karnataka,Bagalkot,"Vidayagiri, Bagalkot - KSPCB",04-04-2024 23:00:00,16.172806,75.659694,PM2.5,27,40,39
India,Karnataka,Bengaluru,"BTM Layout, Bengaluru - CPCB",04-04-2024 23:00:00,12.9135218,77.5950804,NH3,4,5,5
India,Karnataka,Bengaluru,"BTM Layout, Bengaluru - CPCB",04-04-2024 23:00:00,12.9135218,77.5950804,OZONE,18,100,41
India,Karnataka,Bengaluru,"Hebbal, Bengaluru - KSPCB",04-04-2024 23:00:00,13.029152,77.585901,PM2.5,NA,NA,NA
India,Karnataka,Bengaluru,"Hebbal, Bengaluru - KSPCB",04-04-2024 23:00:00,13.029152,77.585901,CO,10,23,14
India,Karnataka,Bengaluru,"Hombegowda Nagar, Bengaluru - KSPCB",04-04-2024 23:00:00,12.938539,77.590100,PM10,44,102,63
India,Karnataka,Bengaluru,"Hombegowda Nagar, Bengaluru - KSPCB",04-04-2024 23:00:00,12.938539,77.590100,NH3,1,2,1
India,Karnataka,Bengaluru,"Hombegowda Nagar, Bengaluru - KSPCB",04-04-2024 23:00:00,12.938539,77.590100,CO,11,15,12
India,Karnataka,Bengaluru,"Jigani, Bengaluru - KSPCB",04-04-2024 23:00:00,12.7816279,77.6299145,NO2,31,32,32
India,Karnataka,Bengaluru,"Jigani, Bengaluru - KSPCB",04-04-2024 23:00:00,12.7816279,77.6299145,CO,50,90,68
India,Karnataka,Bengaluru,"Kasturi Nagar, Bengaluru - KSPCB",04-04-2024 23:00:00,13.003872,77.664217,NH3,3,4,4
India,Karnataka,Bengaluru,"Kasturi Nagar, Bengaluru - KSPCB",04-04-2024 23:00:00,13.003872,77.664217,CO,22,26,24
India,Karnataka,Bengaluru,"RVCE-Mailasandra, Bengaluru - KSPCB",04-04-2024 23:00:00,12.921418,77.502466,SO2,5,12,9
India,Karnataka,Bengaluru,"Sanegurava Halli, Bengaluru - KSPCB",04-04-2024 23:00:00,12.990328,77.5431385,SO2,2,3,3
India,Karnataka,Bengaluru,"Silk Board, Bengaluru - KSPCB",04-04-2024 23:00:00,12.917348,77.622813,NO2,19,22,21
India,Karnataka,Chamarajanagar,"Urban, Chamarajanagar - KSPCB",04-04-2024 23:00:00,11.55358,76.55521,PM10,34,65,43
India,Karnataka,Chikkamagaluru,"Kalyana Nagara, Chikkamagaluru - KSPCB",04-04-2024 23:00:00,13.328028,75.797056,NH3,1,3,2
India,Karnataka,Chikkamagaluru,"Kalyana Nagara, Chikkamagaluru - KSPCB",04-04-2024 23:00:00,13.328028,75.797056,OZONE,22,74,52
India,Karnataka,Dharwad,"Kalabhavan, Dharwad - KSPCB",04-04-2024 23:00:00,15.459706,75.008381,OZONE,2,50,30
India,Karnataka,Gadag,"Panchal Nagar, Gadag - KSPCB",04-04-2024 23:00:00,15.411456,75.638133,SO2,10,19,15
India,Karnataka,Hassan,"B.Katihalli, Hassan - KSPCB",04-04-2024 23:00:00,13.008556,76.125258,NO2,3,22,11
India,Karnataka,Hassan,"B.Katihalli, Hassan - KSPCB",04-04-2024 23:00:00,13.008556,76.125258,SO2,1,18,7
India,Karnataka,Haveri,"Ashwini Nagar, Haveri - KSPCB",04-04-2024 23:00:00,14.791800,75.389600,CO,36,38,37
India,Karnataka,Hubballi,"Deshpande Nagar, Hubballi - KSPCB",04-04-2024 23:00:00,15.351773,75.140726,PM10,86,151,117
India,Karnataka,Hubballi,"Lingaraj Nagar, Hubballi - KSPCB",04-04-2024 23:00:00,15.3714823,75.1160168,CO,5,45,26
India,Karnataka,Kalaburagi,"Lal Bahadur Shastri Nagar, Kalaburagi - KSPCB",04-04-2024 23:00:00,17.321993,76.822628,SO2,12,16,14
India,Karnataka,Kalaburagi,"Lal Bahadur Shastri Nagar, Kalaburagi - KSPCB",04-04-2024 23:00:00,17.321993,76.822628,OZONE,19,96,79
India,Karnataka,Kalaburagi,"Mahatma Basaveswar Colony, Kalaburgi - KSPCB",04-04-2024 23:00:00,17.336318,76.847397,PM10,40,108,55
India,Karnataka,Kalaburagi,"Mahatma Basaveswar Colony, Kalaburgi - KSPCB",04-04-2024 23:00:00,17.336318,76.847397,NH3,2,4,3
India,Karnataka,Karwar,"KHB Colony, Karwar - KSPCB",04-04-2024 23:00:00,14.816666,74.141003,SO2,18,19,19
India,Karnataka,Kolar,"Tamaka Ind. Area, Kolar - KSPCB",04-04-2024 23:00:00,13.1276288,78.1570122,NO2,19,44,28
India,Karnataka,Koppal,"Diwator Nagar, Koppal - KSPCB",04-04-2024 23:00:00,15.347630,76.181767,PM2.5,30,78,49
India,Karnataka,Madikeri,"Stuart Hill, Madikeri - KSPCB",04-04-2024 23:00:00,12.415911,75.735050,NH3,1,2,1
India,Karnataka,Madikeri,"Stuart Hill, Madikeri - KSPCB",04-04-2024 23:00:00,12.415911,75.735050,CO,7,194,37
India,Karnataka,Mangalore,"Kadri, Mangalore - KSPCB",04-04-2024 23:00:00,12.889250,74.853000,PM2.5,55,86,69
India,Karnataka,Mangalore,"Kadri, Mangalore - KSPCB",04-04-2024 23:00:00,12.889250,74.853000,NO2,5,6,6
India,Karnataka,Mangalore,"Kadri, Mangalore - KSPCB",04-04-2024 23:00:00,12.889250,74.853000,SO2,NA,NA,NA
India,Karnataka,Raichur,"Haji Colony, Raichur - KSPCB",04-04-2024 23:00:00,16.208139,77.348417,NH3,1,3,2
India,Karnataka,Raichur,"Haji Colony, Raichur - KSPCB",04-04-2024 23:00:00,16.208139,77.348417,SO2,67,103,78
India,Karnataka,Ramanagara,"Vijay Nagar, Ramanagara - KSPCB",04-04-2024 23:00:00,12.733409,77.298051,NO2,2,12,5
India,Karnataka,Ramanagara,"Vijay Nagar, Ramanagara - KSPCB",04-04-2024 23:00:00,12.733409,77.298051,SO2,9,36,22
India,Karnataka,Shivamogga,"Vinoba Nagara, Shivamogga - KSPCB",04-04-2024 23:00:00,13.940000,75.555917,NH3,2,3,3
India,Karnataka,Tumakuru,"Thimmalapura, Tumakuru - KSPCB",04-04-2024 23:00:00,13.377516,77.099072,NO2,NA,NA,NA
India,Karnataka,Tumakuru,"Thimmalapura, Tumakuru - KSPCB",04-04-2024 23:00:00,13.377516,77.099072,CO,30,34,32
India,Karnataka,Udupi,"Brahmagiri, Udupi - KSPCB",04-04-2024 23:00:00,13.34194444,74.74694444,PM10,NA,NA,NA
India,Karnataka,Udupi,"Brahmagiri, Udupi - KSPCB",04-04-2024 23:00:00,13.34194444,74.74694444,NO2,NA,NA,NA
India,Karnataka,Udupi,"Brahmagiri, Udupi - KSPCB",04-04-2024 23:00:00,13.34194444,74.74694444,CO,NA,NA,NA
India,Karnataka,Vijayapura,"Ibrahimpur, Vijayapura - KSPCB",04-04-2024 23:00:00,16.802639,75.722694,PM2.5,26,31,30
India,Karnataka,Vijayapura,"Ibrahimpur, Vijayapura - KSPCB",04-04-2024 23:00:00,16.802639,75.722694,PM10,41,43,42
India,Karnataka,Vijayapura,"Ibrahimpur, Vijayapura - KSPCB",04-04-2024 23:00:00,16.802639,75.722694,NH3,2,2,2
India,Karnataka,Vijayapura,"Ibrahimpur, Vijayapura - KSPCB",04-04-2024 23:00:00,16.802639,75.722694,SO2,28,103,59
India,Karnataka,Yadgir,"Collector Office, Yadgir - KSPCB",04-04-2024 23:00:00,16.7602,77.1428,PM2.5,49,85,66
India,Karnataka,Yadgir,"Collector Office, Yadgir - KSPCB",04-04-2024 23:00:00,16.7602,77.1428,SO2,1,38,16
India,Karnataka,Yadgir,"Collector Office, Yadgir - KSPCB",04-04-2024 23:00:00,16.7602,77.1428,OZONE,18,20,19
India,Kerala,Eloor,"Udyogamandal, Eloor - Kerala PCB",04-04-2024 23:00:00,10.073232,76.302765,PM10,33,43,37
India,Kerala,Eloor,"Udyogamandal, Eloor - Kerala PCB",04-04-2024 23:00:00,10.073232,76.302765,SO2,1,13,3
India,Kerala,Kollam,"Polayathode, Kollam - Kerala PCB",04-04-2024 23:00:00,8.8787,76.6073,PM2.5,16,115,45
India,Kerala,Thiruvananthapuram,"Kariavattom, Thiruvananthapuram - Kerala PCB",04-04-2024 23:00:00,8.563700,76.886500,NO2,8,10,9
India,Kerala,Thiruvananthapuram,"Plammoodu, Thiruvananthapuram - Kerala PCB",04-04-2024 23:00:00,8.5149093,76.9435879,PM2.5,4,36,19
India,Kerala,Thiruvananthapuram,"Plammoodu, Thiruvananthapuram - Kerala PCB",04-04-2024 23:00:00,8.5149093,76.9435879,NO2,8,10,9
India,Kerala,Thrissur,"Corporation Ground, Thrissur - Kerala PCB",04-04-2024 23:00:00,10.532400,76.215900,PM10,60,70,64
India,Madhya Pradesh,Bhopal,"Idgah Hills, Bhopal - MPPCB",04-04-2024 23:00:00,23.264759,77.381568,SO2,18,21,19
India,Madhya Pradesh,Bhopal,"Paryavaran Parisar, Bhopal - MPPCB",04-04-2024 23:00:00,23.210494,77.425409,NO2,9,47,17
India,Madhya Pradesh,Bhopal,"Paryavaran Parisar, Bhopal - MPPCB",04-04-2024 23:00:00,23.210494,77.425409,NH3,7,11,8
India,Madhya Pradesh,Bhopal,"T T Nagar, Bhopal - MPPCB",04-04-2024 23:00:00,23.233584,77.400574,PM2.5,14,179,68
India,Madhya Pradesh,Bhopal,"T T Nagar, Bhopal - MPPCB",04-04-2024 23:00:00,23.233584,77.400574,PM10,70,151,108
India,Madhya Pradesh,Dewas,"Bhopal Chauraha, Dewas - MPPCB",04-04-2024 23:00:00,22.9682591,76.064118,PM2.5,45,323,135
India,Madhya Pradesh,Dewas,"Bhopal Chauraha, Dewas - MPPCB",04-04-2024 23:00:00,22.9682591,76.064118,NH3,3,3,3
India,Madhya Pradesh,Gwalior,"Deen Dayal Nagar, Gwalior - MPPCB",04-04-2024 23:00:00,26.259242,78.216432,NH3,6,10,8
India,Madhya Pradesh,Gwalior,"Maharaj Bada, Gwalior - MPPCB",04-04-2024 23:00:00,26.200388,78.147714,PM2.5,32,201,79
India,Madhya Pradesh,Gwalior,"Maharaj Bada, Gwalior - MPPCB",04-04-2024 23:00:00,26.200388,78.147714,NH3,3,16,7
India,Madhya Pradesh,Gwalior,"Maharaj Bada, Gwalior - MPPCB",04-04-2024 23:00:00,26.200388,78.147714,OZONE,26,179,88
India,Madhya Pradesh,Indore,"Maguda Nagar, Indore - IMC",04-04-2024 23:00:00,22.7524,75.8872,SO2,32,39,35
India,Madhya Pradesh,Indore,"Regional Park, Indore - IMC",04-04-2024 23:00:00,22.6780,75.8559,PM10,32,99,59
India,Madhya Pradesh,Indore,"Residency Area, Indore - IMC",04-04-2024 23:00:00,22.7084,75.8815,SO2,27,32,29
India,Madhya Pradesh,Indore,"Residency Area, Indore - IMC",04-04-2024 23:00:00,22.7084,75.8815,CO,12,18,15
India,Madhya Pradesh,Jabalpur,"Marhatal, Jabalpur - MPPCB",04-04-2024 23:00:00,23.168606,79.932247,PM10,95,223,148
India,Madhya Pradesh,Jabalpur,"Marhatal, Jabalpur - MPPCB",04-04-2024 23:00:00,23.168606,79.932247,CO,18,125,79
India,Madhya Pradesh,Jabalpur,"Suhagi, Jabalpur - JMC",04-04-2024 23:00:00,23.218135,79.957770,PM2.5,72,338,183
India,Madhya Pradesh,Jabalpur,"Suhagi, Jabalpur - JMC",04-04-2024 23:00:00,23.218135,79.957770,NO2,38,46,42
India,Madhya Pradesh,Katni,"Gole Bazar, Katni - MPPCB",04-04-2024 23:00:00,23.50016,80.23284,NH3,1,13,8
India,Madhya Pradesh,Katni,"Gole Bazar, Katni - MPPCB",04-04-2024 23:00:00,23.50016,80.23284,CO,30,101,43
India,Madhya Pradesh,Maihar,"Sahilara, Maihar - KJS Cements",04-04-2024 23:00:00,24.2613009,80.7231783,PM2.5,7,100,50
India,Madhya Pradesh,Mandideep,"Sector-D Industrial Area, Mandideep - MPPCB",04-04-2024 23:00:00,23.108440,77.511428,SO2,4,104,18
India,Madhya Pradesh,Mandideep,"Sector-D Industrial Area, Mandideep - MPPCB",04-04-2024 23:00:00,23.108440,77.511428,OZONE,8,43,28
India,Madhya Pradesh,Pithampur,"Sector-2 Industrial Area, Pithampur - MPPCB",04-04-2024 23:00:00,22.624758,75.675238,PM10,90,142,113
India,Madhya Pradesh,Sagar,"Civil Lines, Sagar - MPPCB",04-04-2024 23:00:00,23.838586,78.759431,NH3,3,7,5
India,Madhya Pradesh,Sagar,"Deen Dayal Nagar, Sagar - MPPCB",04-04-2024 23:00:00,23.8640158,78.80289321,PM10,18,74,50
India,Madhya Pradesh,Satna,"Bandhavgar Colony, Satna - Birla Cement",04-04-2024 23:00:00,24.58434363,80.8549414,CO,29,103,68
India,Madhya Pradesh,Ujjain,"Mahakaleshwar Temple, Ujjain - MPPCB",04-04-2024 23:00:00,23.182719 ,75.768218 ,PM2.5,18,98,44
India,Madhya Pradesh,Ujjain,"Mahakaleshwar Temple, Ujjain - MPPCB",04-04-2024 23:00:00,23.182719 ,75.768218 ,PM10,62,144,96
India,Maharashtra,Ahmednagar,"Tarakpur, Ahmednagar - MPCB",04-04-2024 23:00:00,19.10122,74.73339,NH3,NA,NA,NA
India,Maharashtra,Akola,"Ramdaspeth, Akola - MPCB",04-04-2024 23:00:00,20.719516,77.000253,PM2.5,31,110,70
India,Maharashtra,Akola,"Ramdaspeth, Akola - MPCB",04-04-2024 23:00:00,20.719516,77.000253,OZONE,18,112,68
India,Maharashtra,Amravati,"Shivneri Colony, Amravati - MPCB",04-04-2024 23:00:00,20.9402359,77.7895248,NO2,16,63,31
India,Maharashtra,Amravati,"Shivneri Colony, Amravati - MPCB",04-04-2024 23:00:00,20.9402359,77.7895248,SO2,22,23,22
India,Maharashtra,Amravati,"Shri Shivaji Science College, Amaravati - MPCB",04-04-2024 23:00:00,20.939198,77.765701,PM10,102,162,122
India,Maharashtra,Aurangabad,"MIDC Chilkalthana, Aurangabad - MPCB",04-04-2024 23:00:00,19.875620,75.387310,PM10,37,159,120
India,Maharashtra,Aurangabad,"MIDC Chilkalthana, Aurangabad - MPCB",04-04-2024 23:00:00,19.875620,75.387310,CO,16,72,32
India,Maharashtra,Aurangabad,"More Chowk Waluj, Aurangabad - MPCB",04-04-2024 23:00:00,19.8389439,75.244448,OZONE,28,92,48
India,Maharashtra,Boisar,"Khaira, Boisar - MPCB",04-04-2024 23:00:00,19.786089,72.757971,NH3,NA,NA,NA
India,Maharashtra,Chandrapur,"MIDC Khutala, Chandrapur - MPCB",04-04-2024 23:00:00,19.9775302,79.2337086,PM2.5,62,175,91
India,Maharashtra,Chandrapur,"MIDC Khutala, Chandrapur - MPCB",04-04-2024 23:00:00,19.9775302,79.2337086,PM10,61,123,88
India,Maharashtra,Chandrapur,"MIDC Khutala, Chandrapur - MPCB",04-04-2024 23:00:00,19.9775302,79.2337086,SO2,20,23,21
India,Maharashtra,Dhule,"Deopur, Dhule - MPCB",04-04-2024 23:00:00,20.918946,74.776388,CO,14,33,20
India,Maharashtra,Dhule,"Deopur, Dhule - MPCB",04-04-2024 23:00:00,20.918946,74.776388,OZONE,16,86,56
India,Maharashtra,Jalgaon,"Prabhat Colony, Jalgaon - MPCB",04-04-2024 23:00:00,21.001264,75.565602,NO2,11,110,32
India,Maharashtra,Jalgaon,"Prabhat Colony, Jalgaon - MPCB",04-04-2024 23:00:00,21.001264,75.565602,CO,14,36,29
India,Maharashtra,Jalgaon,"Prabhat Colony, Jalgaon - MPCB",04-04-2024 23:00:00,21.001264,75.565602,OZONE,12,112,69
India,Maharashtra,Jalna,"Old MIDC, Jalna - MPCB",04-04-2024 23:00:00,19.854616,75.905894,PM2.5,52,96,68
India,Maharashtra,Jalna,"Old MIDC, Jalna - MPCB",04-04-2024 23:00:00,19.854616,75.905894,CO,24,36,29
India,Maharashtra,Kolhapur,"Shivaji University, Kolhapur - MPCB",04-04-2024 23:00:00,16.6870449,74.2505872,PM2.5,79,320,157
India,Maharashtra,Kolhapur,"Shivaji University, Kolhapur - MPCB",04-04-2024 23:00:00,16.6870449,74.2505872,NH3,3,4,4
India,Maharashtra,Kolhapur,"Sinchan Bhavan, Kolhapur - MPCB",04-04-2024 23:00:00,16.7143745,74.2426398,OZONE,15,195,132
India,Maharashtra,Latur,"Sawe Wadi, Latur - MPCB",04-04-2024 23:00:00,18.39963,76.57452,NH3,9,15,13
India,Maharashtra,Mahad,"Kamble Tarf Birwadi, Mahad - MPCB",04-04-2024 23:00:00,18.1023399,73.4783687,PM2.5,50,127,75
India,Maharashtra,Mahad,"Kamble Tarf Birwadi, Mahad - MPCB",04-04-2024 23:00:00,18.1023399,73.4783687,CO,22,49,24
India,Maharashtra,Mahad,"Kamble Tarf Birwadi, Mahad - MPCB",04-04-2024 23:00:00,18.1023399,73.4783687,OZONE,5,68,38
India,Maharashtra,Malegaon,"Mahesh Nagar, Malegaon - MPCB",04-04-2024 23:00:00,20.555712,74.529236,PM2.5,68,187,119
India,Maharashtra,Malegaon,"Mahesh Nagar, Malegaon - MPCB",04-04-2024 23:00:00,20.555712,74.529236,PM10,66,129,105
India,Maharashtra,Malegaon,"Mahesh Nagar, Malegaon - MPCB",04-04-2024 23:00:00,20.555712,74.529236,NO2,16,78,40
India,Maharashtra,Malegaon,"Mahesh Nagar, Malegaon - MPCB",04-04-2024 23:00:00,20.555712,74.529236,SO2,5,17,11
India,Maharashtra,Mumbai,"Bandra Kurla Complex, Mumbai - MPCB",04-04-2024 23:00:00,19.065931,72.862131,PM2.5,40,72,56
India,Maharashtra,Mumbai,"Bandra Kurla Complex, Mumbai - MPCB",04-04-2024 23:00:00,19.065931,72.862131,SO2,1,2,1
India,Maharashtra,Mumbai,"Bandra Kurla Complex, Mumbai - MPCB",04-04-2024 23:00:00,19.065931,72.862131,OZONE,21,66,57
India,Maharashtra,Mumbai,"Borivali East, Mumbai - IITM",04-04-2024 23:00:00,19.23241,72.86895,NH3,1,1,1
India,Maharashtra,Mumbai,"Borivali East, Mumbai - MPCB",04-04-2024 23:00:00,19.2243333,72.8658113,PM2.5,12,48,31
India,Maharashtra,Mumbai,"Byculla, Mumbai - BMC",04-04-2024 23:00:00,18.9767,72.8380,SO2,1,5,4
India,Maharashtra,Mumbai,"Byculla, Mumbai - BMC",04-04-2024 23:00:00,18.9767,72.8380,CO,8,28,11
India,Maharashtra,Mumbai,"Byculla, Mumbai - BMC",04-04-2024 23:00:00,18.9767,72.8380,OZONE,11,62,50
India,Maharashtra,Mumbai,"Chakala-Andheri East, Mumbai - IITM",04-04-2024 23:00:00,19.11074,72.86084,OZONE,10,54,32
India,Maharashtra,Mumbai,"Chembur, Mumbai - MPCB",04-04-2024 23:00:00,19.0364585,72.8954371,NO2,26,74,40
India,Maharashtra,Mumbai,"Chembur, Mumbai - MPCB",04-04-2024 23:00:00,19.0364585,72.8954371,SO2,1,5,2
India,Maharashtra,Mumbai,"Chhatrapati Shivaji Intl. Airport (T2), Mumbai - MPCB",04-04-2024 23:00:00,19.10078,72.87462,PM10,70,125,106
India,Maharashtra,Mumbai,"Chhatrapati Shivaji Intl. Airport (T2), Mumbai - MPCB",04-04-2024 23:00:00,19.10078,72.87462,OZONE,4,13,7
India,Maharashtra,Mumbai,"Colaba, Mumbai - MPCB",04-04-2024 23:00:00,18.910000,72.820000,PM10,27,76,44
India,Maharashtra,Mumbai,"Ghatkopar, Mumbai - BMC",04-04-2024 23:00:00,19.083694,72.920967,NO2,2,37,25
India,Maharashtra,Mumbai,"Kherwadi_Bandra East, Mumbai - MPCB",04-04-2024 23:00:00,19.0632143,72.8456324,PM2.5,27,61,48
India,Maharashtra,Mumbai,"Kherwadi_Bandra East, Mumbai - MPCB",04-04-2024 23:00:00,19.0632143,72.8456324,NH3,3,20,8
India,Maharashtra,Mumbai,"Kherwadi_Bandra East, Mumbai - MPCB",04-04-2024 23:00:00,19.0632143,72.8456324,SO2,3,20,13
India,Maharashtra,Mumbai,"Kherwadi_Bandra East, Mumbai - MPCB",04-04-2024 23:00:00,19.0632143,72.8456324,OZONE,1,62,56
India,Maharashtra,Mumbai,"Khindipada-Bhandup West, Mumbai - IITM",04-04-2024 23:00:00,19.1653323,72.922099,PM10,30,90,65
India,Maharashtra,Mumbai,"Khindipada-Bhandup West, Mumbai - IITM",04-04-2024 23:00:00,19.1653323,72.922099,OZONE,4,36,20
India,Maharashtra,Mumbai,"Kurla, Mumbai - MPCB",04-04-2024 23:00:00,19.0863,72.8888,SO2,32,32,32
India,Maharashtra,Mumbai,"Mazgaon, Mumbai - IITM",04-04-2024 23:00:00,18.96702,72.84214,NH3,14,26,20
India,Maharashtra,Mumbai,"Mindspace-Malad West, Mumbai - MPCB",04-04-2024 23:00:00,19.1878657,72.8304069,PM2.5,33,81,50
India,Maharashtra,Mumbai,"Navy Nagar-Colaba, Mumbai - IITM",04-04-2024 23:00:00,18.897756,72.813320,PM2.5,38,74,49
India,Maharashtra,Mumbai,"Navy Nagar-Colaba, Mumbai - IITM",04-04-2024 23:00:00,18.897756,72.813320,PM10,49,107,83
India,Maharashtra,Mumbai,"Powai, Mumbai - MPCB",04-04-2024 23:00:00,19.137500,72.915056,NO2,16,38,24
India,Maharashtra,Mumbai,"Sewri, Mumbai - BMC",04-04-2024 23:00:00,19.000084,72.856730,NH3,3,9,5
India,Maharashtra,Mumbai,"Sewri, Mumbai - BMC",04-04-2024 23:00:00,19.000084,72.856730,SO2,3,16,6
India,Maharashtra,Mumbai,"Sewri, Mumbai - BMC",04-04-2024 23:00:00,19.000084,72.856730,CO,16,36,22
India,Maharashtra,Mumbai,"Sewri, Mumbai - BMC",04-04-2024 23:00:00,19.000084,72.856730,OZONE,2,49,42
India,Maharashtra,Mumbai,"Shivaji Nagar, Mumbai - BMC",04-04-2024 23:00:00,19.060498,72.923356,PM2.5,22,63,38
India,Maharashtra,Mumbai,"Siddharth Nagar-Worli, Mumbai - IITM",04-04-2024 23:00:00,19.000083,72.813993,NO2,18,58,31
India,Maharashtra,Mumbai,"Sion, Mumbai - MPCB",04-04-2024 23:00:00,19.047000,72.874600,PM10,73,143,108
India,Maharashtra,Mumbai,"Sion, Mumbai - MPCB",04-04-2024 23:00:00,19.047000,72.874600,NH3,1,1,1
India,Maharashtra,Mumbai,"Sion, Mumbai - MPCB",04-04-2024 23:00:00,19.047000,72.874600,CO,8,26,16
India,Maharashtra,Mumbai,"Vile Parle West, Mumbai - MPCB",04-04-2024 23:00:00,19.10861,72.83622,NH3,10,11,11
India,Maharashtra,Mumbai,"Vile Parle West, Mumbai - MPCB",04-04-2024 23:00:00,19.10861,72.83622,CO,42,48,45
India,Maharashtra,Mumbai,"Vile Parle West, Mumbai - MPCB",04-04-2024 23:00:00,19.10861,72.83622,OZONE,2,3,3
India,Maharashtra,Mumbai,"Worli, Mumbai - MPCB",04-04-2024 23:00:00,18.9936162,72.8128113,SO2,11,12,11
India,Maharashtra,Nagpur,"Ambazari, Nagpur - MPCB",04-04-2024 23:00:00,21.121801,79.04952,PM10,NA,NA,NA
India,Maharashtra,Nagpur,"Ambazari, Nagpur - MPCB",04-04-2024 23:00:00,21.121801,79.04952,NH3,NA,NA,NA
India,Maharashtra,Nagpur,"Ambazari, Nagpur - MPCB",04-04-2024 23:00:00,21.121801,79.04952,OZONE,4,112,56
India,Maharashtra,Nagpur,"Mahal, Nagpur - MPCB",04-04-2024 23:00:00,21.14472,79.107595,PM10,84,279,133
India,Maharashtra,Nagpur,"Mahal, Nagpur - MPCB",04-04-2024 23:00:00,21.14472,79.107595,OZONE,1,127,46
India,Maharashtra,Nagpur,"Opp GPO Civil Lines, Nagpur - MPCB",04-04-2024 23:00:00,21.152875,79.0517531,NH3,3,16,7
India,Maharashtra,Nagpur,"Ram Nagar, Nagpur - MPCB",04-04-2024 23:00:00,21.143383,79.048912,PM2.5,NA,NA,NA
India,Maharashtra,Nagpur,"Ram Nagar, Nagpur - MPCB",04-04-2024 23:00:00,21.143383,79.048912,SO2,NA,NA,NA
India,Maharashtra,Nashik,"Gangapur Road, Nashik - MPCB",04-04-2024 23:00:00,20.0073285,73.7762427,NH3,1,2,1
India,Maharashtra,Nashik,"Gangapur Road, Nashik - MPCB",04-04-2024 23:00:00,20.0073285,73.7762427,OZONE,14,79,62
India,Maharashtra,Nashik,"Hirawadi, Nashik - MPCB",04-04-2024 23:00:00,20.021503,73.813844,PM10,16,105,75
India,Maharashtra,Nashik,"Hirawadi, Nashik - MPCB",04-04-2024 23:00:00,20.021503,73.813844,NO2,2,52,15
India,Maharashtra,Nashik,"Hirawadi, Nashik - MPCB",04-04-2024 23:00:00,20.021503,73.813844,OZONE,32,79,69
India,Maharashtra,Nashik,"Pandav Nagari, Nashik - MPCB",04-04-2024 23:00:00,19.9591346,73.7788008,PM2.5,24,73,50
India,Maharashtra,Nashik,"Pandav Nagari, Nashik - MPCB",04-04-2024 23:00:00,19.9591346,73.7788008,CO,10,43,25
India,Maharashtra,Nashik,"Pandav Nagari, Nashik - MPCB",04-04-2024 23:00:00,19.9591346,73.7788008,OZONE,8,84,51
India,Maharashtra,Navi Mumbai,"Kopripada-Vashi, Navi Mumbai - MPCB",04-04-2024 23:00:00,19.090337,73.014232,SO2,5,5,5
India,Maharashtra,Navi Mumbai,"Mahape, Navi Mumbai - MPCB",04-04-2024 23:00:00,19.1135051,73.008978,SO2,26,27,27
India,Maharashtra,Navi Mumbai,"Nerul, Navi Mumbai - MPCB",04-04-2024 23:00:00,19.008751,73.016620,SO2,18,19,19
India,Maharashtra,Navi Mumbai,"Sanpada, Navi Mumbai - MPCB",04-04-2024 23:00:00,19.0575752,73.0151367,OZONE,3,135,49
India,Maharashtra,Navi Mumbai,"Sector-19A Nerul, Navi Mumbai - IITM",04-04-2024 23:00:00,19.044,73.0325,NH3,6,12,8
India,Maharashtra,Navi Mumbai,"Sector-19A Nerul, Navi Mumbai - IITM",04-04-2024 23:00:00,19.044,73.0325,SO2,7,24,15
India,Maharashtra,Navi Mumbai,"Sector-2E Kalamboli, Navi Mumbai - MPCB",04-04-2024 23:00:00,19.02579,73.10297,SO2,4,46,15
India,Maharashtra,Parbhani,"Masoom Colony, Parbhani - MPCB",04-04-2024 23:00:00,19.265594,76.761463,NO2,16,47,25
India,Maharashtra,Parbhani,"Masoom Colony, Parbhani - MPCB",04-04-2024 23:00:00,19.265594,76.761463,OZONE,35,122,90
India,Maharashtra,Pimpri-Chinchwad,"Gavalinagar, Pimpri Chinchwad - MPCB",04-04-2024 23:00:00,18.63673,73.82487,SO2,6,24,11
India,Maharashtra,Pimpri-Chinchwad,"Park Street Wakad, Pimpri Chinchwad - MPCB",04-04-2024 23:00:00,18.59051,73.77946,SO2,8,18,12
India,Maharashtra,Pimpri-Chinchwad,"Thergaon, Pimpri Chinchwad - MPCB",04-04-2024 23:00:00,18.616318,73.765797,NO2,24,101,63
India,Maharashtra,Pimpri-Chinchwad,"Thergaon, Pimpri Chinchwad - MPCB",04-04-2024 23:00:00,18.616318,73.765797,CO,12,52,29
India,Maharashtra,Pune,"Bhosari, Pune - IITM",04-04-2024 23:00:00,18.640051,73.848956,NO2,8,13,11
India,Maharashtra,Pune,"Bhosari, Pune - IITM",04-04-2024 23:00:00,18.640051,73.848956,CO,13,39,22
India,Maharashtra,Pune,"Karve Road, Pune - MPCB",04-04-2024 23:00:00,18.5011743,73.8165527,PM10,133,135,134
India,Maharashtra,Pune,"Karve Road, Pune - MPCB",04-04-2024 23:00:00,18.5011743,73.8165527,NO2,2,2,2
India,Maharashtra,Pune,"Karve Road, Pune - MPCB",04-04-2024 23:00:00,18.5011743,73.8165527,CO,74,76,76
India,Maharashtra,Pune,"Mhada Colony, Pune - IITM",04-04-2024 23:00:00,18.573040,73.927715,NO2,3,17,9
India,Maharashtra,Pune,"Savitribai Phule Pune University, Pune - MPCB",04-04-2024 23:00:00,18.547056,73.826908,PM10,62,135,99
India,Maharashtra,Pune,"Savitribai Phule Pune University, Pune - MPCB",04-04-2024 23:00:00,18.547056,73.826908,NO2,10,36,20
India,Maharashtra,Pune,"Savitribai Phule Pune University, Pune - MPCB",04-04-2024 23:00:00,18.547056,73.826908,NH3,1,2,2
India,Maharashtra,Pune,"Savitribai Phule Pune University, Pune - MPCB",04-04-2024 23:00:00,18.547056,73.826908,OZONE,3,301,101
India,Maharashtra,Pune,"Transport Nagar-Nigdi, Pune - IITM",04-04-2024 23:00:00,18.664282,73.763966,PM2.5,13,79,47
India,Maharashtra,Sangli,"Vijay Nagar, Sangli - MPCB",04-04-2024 23:00:00, 16.5038,74.3623,PM2.5,51,95,69
India,Maharashtra,Sangli,"Vijay Nagar, Sangli - MPCB",04-04-2024 23:00:00, 16.5038,74.3623,OZONE,8,80,62
India,Maharashtra,Solapur,"Dnyaneshwar Nagar, Solapur - MPCB",04-04-2024 23:00:00,17.6336264,75.9132495,NO2,12,44,23
India,Maharashtra,Solapur,"Ratandeep Housing Society, Solapur - MPCB",04-04-2024 23:00:00,17.65439,75.90649,SO2,5,13,10
India,Maharashtra,Solapur,"Ratandeep Housing Society, Solapur - MPCB",04-04-2024 23:00:00,17.65439,75.90649,CO,18,79,52
India,Maharashtra,Thane,"Kasarvadavali, Thane - MPCB",04-04-2024 23:00:00,19.26777,72.97182,NO2,31,90,48
India,Maharashtra,Thane,"Pimpleshwar Mandir, Thane - MPCB",04-04-2024 23:00:00,19.192056,72.9585188,PM10,93,138,115
India,Maharashtra,Ulhasnagar,"Sidhi Vinayak Nagar, Ulhasnagar - MPCB",04-04-2024 23:00:00,19.235581,73.159121,PM2.5,81,151,100
India,Maharashtra,Virar,"Bolinj, Virar - MPCB",04-04-2024 23:00:00,19.4458210,72.7988231,PM10,65,111,92
India,Manipur,Imphal,"DM College of Science, Imphal - Manipur PCB",04-04-2024 23:00:00,24.8207389,93.9423085,PM10,19,112,47
India,Manipur,Imphal,"DM College of Science, Imphal - Manipur PCB",04-04-2024 23:00:00,24.8207389,93.9423085,SO2,93,100,96
India,Manipur,Imphal,"DM College of Science, Imphal - Manipur PCB",04-04-2024 23:00:00,24.8207389,93.9423085,CO,6,6,6
India,Manipur,Imphal,"DM College of Science, Imphal - Manipur PCB",04-04-2024 23:00:00,24.8207389,93.9423085,OZONE,1,10,4
India,Manipur,Imphal,"Manipur University, Imphal - Manipur PCB",04-04-2024 23:00:00,24.7524239,93.9286218,PM2.5,56,129,67
India,Manipur,Imphal,"Manipur University, Imphal - Manipur PCB",04-04-2024 23:00:00,24.7524239,93.9286218,CO,11,23,14
India,Meghalaya,Shillong,"Lumpyngngad, Shillong - Meghalaya PCB",04-04-2024 23:00:00,25.5586,91.8985,CO,8,12,9
India,Mizoram,Aizawl,"Sikulpuikawn, Aizawl - Mizoram PCB",04-04-2024 23:00:00,23.7176342,92.7192841,NO2,1,2,1
India,Mizoram,Aizawl,"Sikulpuikawn, Aizawl - Mizoram PCB",04-04-2024 23:00:00,23.7176342,92.7192841,CO,12,16,16
India,Nagaland,Kohima,"PWD Juction, Kohima - NPCB",04-04-2024 23:00:00,25.6635413,94.0989878,NH3,1,1,1
India,Nagaland,Kohima,"PWD Juction, Kohima - NPCB",04-04-2024 23:00:00,25.6635413,94.0989878,CO,8,28,21
India,Nagaland,Kohima,"PWD Juction, Kohima - NPCB",04-04-2024 23:00:00,25.6635413,94.0989878,OZONE,10,27,24
India,Odisha,Balasore,"Kalidaspur, Balasore - OSPCB",04-04-2024 23:00:00,21.51161,86.89088,OZONE,8,58,24
India,Odisha,Baripada,"Meher Colony, Baripada - OSPCB",04-04-2024 23:00:00,21.941841,86.728318,CO,20,34,32
India,Odisha,Bhubaneswar,"Lingraj Mandir, Bhubaneswar - OSPCB",04-04-2024 23:00:00,20.240790,85.836784,PM10,27,115,62
India,Odisha,Brajrajnagar,"GM Office, Brajrajnagar - OSPCB",04-04-2024 23:00:00,21.8004996,83.8396977,PM2.5,NA,NA,NA
India,Odisha,Brajrajnagar,"GM Office, Brajrajnagar - OSPCB",04-04-2024 23:00:00,21.8004996,83.8396977,NO2,NA,NA,NA
India,Odisha,Brajrajnagar,"GM Office, Brajrajnagar - OSPCB",04-04-2024 23:00:00,21.8004996,83.8396977,SO2,NA,NA,NA
India,Odisha,Brajrajnagar,"GM Office, Brajrajnagar - OSPCB",04-04-2024 23:00:00,21.8004996,83.8396977,OZONE,19,20,19
India,Odisha,Byasanagar,"Ferro Chrome Colony, Byasanagar - OSPCB",04-04-2024 23:00:00,20.94185,86.11510,CO,73,102,97
India,Odisha,Cuttack,"CDA Area, Cuttack - OSPCB",04-04-2024 23:00:00,20.48891     ,85.84768     ,NH3,3,40,10
India,Odisha,Cuttack,"CDA Area, Cuttack - OSPCB",04-04-2024 23:00:00,20.48891     ,85.84768     ,OZONE,6,83,35
India,Odisha,Keonjhar,"Jagamohanpur, Keonjhar - OSPCB",04-04-2024 23:00:00,21.643900,85.599355,NO2,11,103,47
India,Odisha,Keonjhar,"Jagamohanpur, Keonjhar - OSPCB",04-04-2024 23:00:00,21.643900,85.599355,OZONE,1,31,10
India,Odisha,Rairangpur,"Divisional Forest Office, Rairangpur - OSPCB",04-04-2024 23:00:00,22.265816,86.174829,PM2.5,8,147,111
India,Odisha,Rairangpur,"Divisional Forest Office, Rairangpur - OSPCB",04-04-2024 23:00:00,22.265816,86.174829,NO2,7,8,7
India,Odisha,Rourkela,"Raghunathpali, Rourkela - OSPCB",04-04-2024 23:00:00,22.220833,84.809444,NO2,36,240,88
India,Odisha,Rourkela,"Raghunathpali, Rourkela - OSPCB",04-04-2024 23:00:00,22.220833,84.809444,SO2,2,44,13
India,Odisha,Rourkela,"Raghunathpali, Rourkela - OSPCB",04-04-2024 23:00:00,22.220833,84.809444,CO,38,94,62
India,Odisha,Rourkela,"Sector-2, Rourkela - OSPCB",04-04-2024 23:00:00,22.24500000,84.88111111,NO2,33,34,33
India,Odisha,Rourkela,"Sector-2, Rourkela - OSPCB",04-04-2024 23:00:00,22.24500000,84.88111111,CO,28,110,59
India,Odisha,Suakati,"OMC Colony, Suakati - OSPCB",04-04-2024 23:00:00,21.606865,85.510538,CO,18,26,18
India,Odisha,Talcher,"Talcher Coalfields,Talcher - OSPCB",04-04-2024 23:00:00,20.9360711,85.1707021,CO,8,74,50
India,Puducherry,Puducherry,"Jawahar Nagar, Puducherry - PPCC",04-04-2024 23:00:00,11.9309,79.8027,PM10,4,38,18
India,Puducherry,Puducherry,"Jawahar Nagar, Puducherry - PPCC",04-04-2024 23:00:00,11.9309,79.8027,NO2,1,12,5
India,Punjab,Amritsar,"Golden Temple, Amritsar - PPCB",04-04-2024 23:00:00,31.620000,74.876512,NO2,9,98,23
India,Punjab,Bathinda,"Hardev Nagar, Bathinda - PPCB",04-04-2024 23:00:00,30.233011,74.907758,PM2.5,18,93,59
India,Punjab,Jalandhar,"Civil Line, Jalandhar - PPCB",04-04-2024 23:00:00,31.321907,75.578914,PM2.5,12,79,47
India,Punjab,Jalandhar,"Civil Line, Jalandhar - PPCB",04-04-2024 23:00:00,31.321907,75.578914,PM10,49,110,83
India,Punjab,Khanna,"Kalal Majra, Khanna - PPCB",04-04-2024 23:00:00,30.736056 ,76.209694,PM2.5,35,94,65
India,Punjab,Ludhiana,"Punjab Agricultural University, Ludhiana - PPCB",04-04-2024 23:00:00,30.9028,75.8086,NH3,4,5,5
India,Punjab,Ludhiana,"Punjab Agricultural University, Ludhiana - PPCB",04-04-2024 23:00:00,30.9028,75.8086,OZONE,10,54,34
India,Punjab,Mandi Gobindgarh,"RIMT University, Mandi Gobindgarh - PPCB",04-04-2024 23:00:00,30.649961,76.331442,PM10,51,418,134
India,Punjab,Patiala,"Model Town, Patiala - PPCB",04-04-2024 23:00:00,30.349388,76.366642,PM10,73,151,105
India,Punjab,Patiala,"Model Town, Patiala - PPCB",04-04-2024 23:00:00,30.349388,76.366642,CO,17,38,25
India,Punjab,Patiala,"Model Town, Patiala - PPCB",04-04-2024 23:00:00,30.349388,76.366642,OZONE,9,59,44
India,Punjab,Rupnagar,"Ratanpura, Rupnagar - Ambuja Cements",04-04-2024 23:00:00,31.0325454,76.5623046,PM10,NA,NA,NA
India,Rajasthan,Ajmer,"Civil Lines,  Ajmer - RSPCB",04-04-2024 23:00:00,26.470859,74.646594,NH3,5,5,5
India,Rajasthan,Banswara,"Rati Talai, Banswara - RSPCB",04-04-2024 23:00:00,23.555190,74.440010,PM10,94,233,157
India,Rajasthan,Banswara,"Rati Talai, Banswara - RSPCB",04-04-2024 23:00:00,23.555190,74.440010,NH3,4,6,5
India,Rajasthan,Banswara,"Rati Talai, Banswara - RSPCB",04-04-2024 23:00:00,23.555190,74.440010,CO,6,35,23
India,Rajasthan,Barmer,"Railway Colony, Barmer - RSPCB",04-04-2024 23:00:00,25.747299,71.393989,SO2,7,11,9
India,Rajasthan,Bharatpur,"Krishna Nagar, Bharatpur - RSPCB",04-04-2024 23:00:00,27.215415,77.50873,SO2,7,15,10
India,Rajasthan,Bhilwara,"Pratap Nagar, Bhilwara - RSPCB",04-04-2024 23:00:00,25.339605,74.618883,PM10,41,113,71
India,Rajasthan,Bhiwadi,"RIICO Ind. Area III, Bhiwadi - RSPCB",04-04-2024 23:00:00,28.194909,76.862296,NO2,44,58,54
India,Rajasthan,Bhiwadi,"Vasundhara Nagar_UIT, Bhiwadi - RSPCB",04-04-2024 23:00:00,28.207266,76.829265,CO,11,70,21
India,Rajasthan,Bikaner,"MM Ground, Bikaner - RSPCB",04-04-2024 23:00:00,28.018792,73.292658,PM10,94,238,143
India,Rajasthan,Bundi,"New Colony, Bundi - RSPCB",04-04-2024 23:00:00,25.435774,75.644272,NH3,2,3,3
India,Rajasthan,Bundi,"New Colony, Bundi - RSPCB",04-04-2024 23:00:00,25.435774,75.644272,OZONE,4,82,47
India,Rajasthan,Chittorgarh,"Shastri Nagar, Chittorgarh - RSPCB",04-04-2024 23:00:00,24.892047,74.623527,SO2,NA,NA,NA
India,Rajasthan,Chittorgarh,"Shastri Nagar, Chittorgarh - RSPCB",04-04-2024 23:00:00,24.892047,74.623527,CO,8,21,11
India,Rajasthan,Churu,"Subash Chowk, Churu - RSPCB",04-04-2024 23:00:00,28.296139,74.961696,PM10,82,142,105
India,Rajasthan,Churu,"Subash Chowk, Churu - RSPCB",04-04-2024 23:00:00,28.296139,74.961696,SO2,6,18,11
India,Rajasthan,Dausa,"Khatikan Mohalla, Dausa - RSPCB",04-04-2024 23:00:00,26.895552,76.334753,NH3,5,8,6
India,Rajasthan,Dausa,"Khatikan Mohalla, Dausa - RSPCB",04-04-2024 23:00:00,26.895552,76.334753,CO,6,82,45
India,Rajasthan,Dholpur,"Raja Ganj, Dholpur - RSPCB",04-04-2024 23:00:00,26.699557,77.898881,SO2,5,83,11
India,Rajasthan,Dholpur,"Raja Ganj, Dholpur - RSPCB",04-04-2024 23:00:00,26.699557,77.898881,CO,12,106,47
India,Rajasthan,Dungarpur,"Bhoiwada, Dungarpur - RSPCB",04-04-2024 23:00:00,23.837789,73.714926,PM10,67,123,95
India,Rajasthan,Jaipur,"Mansarovar Sector-12, Jaipur - RSPCB",04-04-2024 23:00:00,26.843698,75.766894,NH3,3,37,14
India,Rajasthan,Jaipur,"Mansarovar Sector-12, Jaipur - RSPCB",04-04-2024 23:00:00,26.843698,75.766894,OZONE,7,157,76
India,Rajasthan,Jaipur,"RIICO Sitapura, Jaipur - RSPCB",04-04-2024 23:00:00,26.786682,75.827928,PM2.5,NA,NA,NA
India,Rajasthan,Jaipur,"RIICO Sitapura, Jaipur - RSPCB",04-04-2024 23:00:00,26.786682,75.827928,SO2,NA,NA,NA
India,Rajasthan,Jaipur,"Sector-2 Murlipura, Jaipur - RSPCB",04-04-2024 23:00:00,26.960669,75.771817,NH3,4,16,8
India,Rajasthan,Jaipur,"Sector-2 Murlipura, Jaipur - RSPCB",04-04-2024 23:00:00,26.960669,75.771817,CO,32,115,75
India,Rajasthan,Jaipur,"Shastri Nagar, Jaipur - RSPCB",04-04-2024 23:00:00,26.9502929,75.730943,PM10,106,172,130
India,Rajasthan,Jaipur,"Shastri Nagar, Jaipur - RSPCB",04-04-2024 23:00:00,26.9502929,75.730943,NH3,3,37,9
India,Rajasthan,Jaipur,"Shastri Nagar, Jaipur - RSPCB",04-04-2024 23:00:00,26.9502929,75.730943,CO,9,114,50
India,Rajasthan,Jaisalmer,"Sadar Bazar, Jaisalmer - RSPCB",04-04-2024 23:00:00,26.912329,70.909168,PM10,91,270,132
India,Rajasthan,Jalore,"Mudtra Sili, Jalore - RSPCB",04-04-2024 23:00:00,25.344694,72.626208,NO2,4,36,16
India,Rajasthan,Jalore,"Mudtra Sili, Jalore - RSPCB",04-04-2024 23:00:00,25.344694,72.626208,CO,10,32,24
India,Rajasthan,Jhalawar,"Rajlaxmi Nagar, Jhalawar - RSPCB",04-04-2024 23:00:00,24.588397,76.172782,SO2,3,12,5
India,Rajasthan,Jhunjhunu,"Indra Nagar, Jhunjhunu - RSPCB",04-04-2024 23:00:00,28.108988,75.386577,SO2,4,12,8
India,Rajasthan,Jhunjhunu,"Indra Nagar, Jhunjhunu - RSPCB",04-04-2024 23:00:00,28.108988,75.386577,CO,18,33,26
India,Rajasthan,Jodhpur,"Collectorate, Jodhpur - RSPCB",04-04-2024 23:00:00,26.268249,73.0193853,PM10,96,200,150
India,Rajasthan,Jodhpur,"Digari Kalan, Jodhpur - RSPCB",04-04-2024 23:00:00,26.295810,73.082283,NO2,10,73,30
India,Rajasthan,Jodhpur,"Jhalamand, Jodhpur - RSPCB",04-04-2024 23:00:00,26.215415,73.070156,OZONE,34,86,67
India,Rajasthan,Jodhpur,"Mandor, Jodhpur - RSPCB",04-04-2024 23:00:00,26.358805,73.047444,NO2,11,52,37
India,Rajasthan,Jodhpur,"Mandor, Jodhpur - RSPCB",04-04-2024 23:00:00,26.358805,73.047444,NH3,6,10,8
India,Rajasthan,Jodhpur,"Mandor, Jodhpur - RSPCB",04-04-2024 23:00:00,26.358805,73.047444,SO2,2,3,3
India,Rajasthan,Karauli,"Satyawati Vihar, Karauli - RSPCB",04-04-2024 23:00:00,26.506177,77.025989,PM2.5,36,149,77
India,Rajasthan,Karauli,"Satyawati Vihar, Karauli - RSPCB",04-04-2024 23:00:00,26.506177,77.025989,SO2,14,70,23
India,Rajasthan,Kota,"Dhanmandi, Kota - RSPCB",04-04-2024 23:00:00,25.164090,75.858137,PM10,70,193,109
India,Rajasthan,Kota,"Dhanmandi, Kota - RSPCB",04-04-2024 23:00:00,25.164090,75.858137,NH3,3,4,3
India,Rajasthan,Kota,"Dhanmandi, Kota - RSPCB",04-04-2024 23:00:00,25.164090,75.858137,SO2,6,70,11
India,Rajasthan,Kota,"Dhanmandi, Kota - RSPCB",04-04-2024 23:00:00,25.164090,75.858137,CO,17,84,37
India,Rajasthan,Kota,"Shrinath Puram, Kota - RSPCB",04-04-2024 23:00:00,25.14389,75.821256,OZONE,13,59,47
India,Rajasthan,Pali,"Indira Colony Vistar, Pali - RSPCB",04-04-2024 23:00:00,25.771061, 73.340227,PM10,100,189,128
India,Rajasthan,Sawai Madhopur,"Sahu Nagar, Sawai Madhopur - RSPCB",04-04-2024 23:00:00,26.031443,76.359327,NH3,1,13,5
India,Rajasthan,Sawai Madhopur,"Sahu Nagar, Sawai Madhopur - RSPCB",04-04-2024 23:00:00,26.031443,76.359327,OZONE,4,119,46
India,Rajasthan,Sikar,"Radhakishan Pura, Sikar - RSPCB",04-04-2024 23:00:00,27.608912,75.153302,NH3,5,8,6
India,Rajasthan,Sikar,"Radhakishan Pura, Sikar - RSPCB",04-04-2024 23:00:00,27.608912,75.153302,SO2,4,13,6
India,Rajasthan,Sirohi,"Vedhaynath Colony, Sirohi - RSPCB",04-04-2024 23:00:00,24.885261,72.857549,OZONE,39,91,79
India,Rajasthan,Tonk,"Shastri Nagar, Tonk - RSPCB",04-04-2024 23:00:00,26.159933,75.780517,CO,2,86,30
India,Sikkim,Gangtok,"Zero Point GICI, Gangtok - SSPCB",04-04-2024 23:00:00,27.338530,88.614099,PM10,57,82,70
India,TamilNadu,Chengalpattu,"Crescent University, Chengalpattu - TNPCB",04-04-2024 23:00:00,12.8777316,80.0834807,PM10,NA,NA,NA
India,TamilNadu,Chengalpattu,"Crescent University, Chengalpattu - TNPCB",04-04-2024 23:00:00,12.8777316,80.0834807,SO2,NA,NA,NA
India,TamilNadu,Chennai,"Alandur Bus Depot, Chennai - CPCB",04-04-2024 23:00:00,12.9099161,80.1076538,PM2.5,24,63,42
India,TamilNadu,Chennai,"Arumbakkam, Chennai - TNPCB",04-04-2024 23:00:00,13.0664,80.2112 ,NO2,NA,NA,NA
India,TamilNadu,Chennai,"Manali, Chennai - CPCB",04-04-2024 23:00:00,13.164544,80.26285,OZONE,14,22,16
India,TamilNadu,Chennai,"Perungudi, Chennai - TNPCB",04-04-2024 23:00:00,12.9533,80.2357,PM2.5,2,28,13
India,TamilNadu,Chennai,"Perungudi, Chennai - TNPCB",04-04-2024 23:00:00,12.9533,80.2357,PM10,13,84,40
India,TamilNadu,Chennai,"Perungudi, Chennai - TNPCB",04-04-2024 23:00:00,12.9533,80.2357,CO,8,101,15
India,TamilNadu,Chennai,"Velachery Res. Area, Chennai - CPCB",04-04-2024 23:00:00,13.0052189,80.2398125,PM10,19,51,29
India,TamilNadu,Chennai,"Velachery Res. Area, Chennai - CPCB",04-04-2024 23:00:00,13.0052189,80.2398125,NO2,8,20,14
India,TamilNadu,Chennai,"Velachery Res. Area, Chennai - CPCB",04-04-2024 23:00:00,13.0052189,80.2398125,SO2,10,11,11
India,TamilNadu,Coimbatore,"PSG College of Arts and Science, Coimbatore - TNPCB",04-04-2024 23:00:00,11.0328,77.0349,PM2.5,NA,NA,NA
India,TamilNadu,Coimbatore,"PSG College of Arts and Science, Coimbatore - TNPCB",04-04-2024 23:00:00,11.0328,77.0349,NO2,NA,NA,NA
India,TamilNadu,Coimbatore,"PSG College of Arts and Science, Coimbatore - TNPCB",04-04-2024 23:00:00,11.0328,77.0349,NH3,NA,NA,NA
India,TamilNadu,Cuddalore,"Kudikadu, Cuddalore - TNPCB",04-04-2024 23:00:00,11.6829898,79.7532099,NO2,NA,NA,NA
India,TamilNadu,Cuddalore,"Kudikadu, Cuddalore - TNPCB",04-04-2024 23:00:00,11.6829898,79.7532099,SO2,7,17,11
India,TamilNadu,Cuddalore,"Semmandalam, Cuddalore - TNPCB",04-04-2024 23:00:00,11.7637683,79.7499835,PM2.5,NA,NA,NA
India,TamilNadu,Cuddalore,"Semmandalam, Cuddalore - TNPCB",04-04-2024 23:00:00,11.7637683,79.7499835,NO2,2,7,5
India,TamilNadu,Kanchipuram,"Kilambi, Kanchipuram - TNPCB",04-04-2024 23:00:00,12.864618,79.659968,PM10,NA,NA,NA
India,TamilNadu,Kanchipuram,"Kilambi, Kanchipuram - TNPCB",04-04-2024 23:00:00,12.864618,79.659968,NH3,NA,NA,NA
India,TamilNadu,Ooty,"Bombay Castel, Ooty - TNPCB",04-04-2024 23:00:00,11.4068288,76.7138973,PM2.5,34,74,47
India,TamilNadu,Ooty,"Bombay Castel, Ooty - TNPCB",04-04-2024 23:00:00,11.4068288,76.7138973,PM10,34,81,48
India,TamilNadu,Salem,"Sona College of Technology, Salem - TNPCB",04-04-2024 23:00:00,11.679111,78.125052,NO2,NA,NA,NA
India,TamilNadu,Salem,"Sona College of Technology, Salem - TNPCB",04-04-2024 23:00:00,11.679111,78.125052,OZONE,3,3,3
India,TamilNadu,Tirupur,"Kumaran College, Tirupur - TNPCB",04-04-2024 23:00:00,11.0973603,77.3228673,PM2.5,18,134,36
India,TamilNadu,Tirupur,"Kumaran College, Tirupur - TNPCB",04-04-2024 23:00:00,11.0973603,77.3228673,SO2,21,25,23
India,TamilNadu,Vellore,"Vasanthapuram, Vellore - TNPCB",04-04-2024 23:00:00,12.909494,79.131861,NO2,3,18,10
India,TamilNadu,Virudhunagar,"Collectorate Office, Virudhunagar - TNPCB",04-04-2024 23:00:00,9.559382,77.948828,NH3,6,6,6
India,Telangana,Hyderabad,"Central University, Hyderabad - TSPCB",04-04-2024 23:00:00,17.460103,78.334361,OZONE,3,4,4
India,Telangana,Hyderabad,"ICRISAT Patancheru, Hyderabad - TSPCB",04-04-2024 23:00:00,17.518400,78.278777,OZONE,34,96,75
India,Telangana,Hyderabad,"IITH Kandi, Hyderabad - TSPCB",04-04-2024 23:00:00,17.585705,78.126199,PM2.5,NA,NA,NA
India,Telangana,Hyderabad,"IITH Kandi, Hyderabad - TSPCB",04-04-2024 23:00:00,17.585705,78.126199,PM10,NA,NA,NA
India,Telangana,Hyderabad,"IITH Kandi, Hyderabad - TSPCB",04-04-2024 23:00:00,17.585705,78.126199,CO,10,42,23
India,Telangana,Hyderabad,"Kokapet, Hyderabad - TSPCB",04-04-2024 23:00:00,17.393559,78.339194,PM2.5,NA,NA,NA
India,Telangana,Hyderabad,"Kokapet, Hyderabad - TSPCB",04-04-2024 23:00:00,17.393559,78.339194,OZONE,5,9,7
India,Telangana,Hyderabad,"Kompally Municipal Office, Hyderabad - TSPCB",04-04-2024 23:00:00,17.544899,78.486949,NO2,11,13,12
India,Telangana,Hyderabad,"Kompally Municipal Office, Hyderabad - TSPCB",04-04-2024 23:00:00,17.544899,78.486949,OZONE,10,92,66
India,Telangana,Hyderabad,"Nacharam_TSIIC IALA, Hyderabad - TSPCB",04-04-2024 23:00:00,17.429398,78.569354,OZONE,39,73,69
India,Telangana,Hyderabad,"New Malakpet, Hyderabad - TSPCB",04-04-2024 23:00:00,17.37206,78.50864,PM10,73,94,82
India,Telangana,Hyderabad,"Ramachandrapuram, Hyderabad - TSPCB",04-04-2024 23:00:00,17.528544,78.286195,PM10,71,84,79
India,Telangana,Hyderabad,"Ramachandrapuram, Hyderabad - TSPCB",04-04-2024 23:00:00,17.528544,78.286195,SO2,NA,NA,NA
India,Telangana,Hyderabad,"Ramachandrapuram, Hyderabad - TSPCB",04-04-2024 23:00:00,17.528544,78.286195,CO,25,100,36
India,Telangana,Hyderabad,"Sanathnagar, Hyderabad - TSPCB",04-04-2024 23:00:00,17.4559458,78.4332152,CO,37,56,46
India,Telangana,Hyderabad,"Somajiguda, Hyderabad - TSPCB",04-04-2024 23:00:00,17.417094,78.457437,OZONE,12,33,24
India,Telangana,Hyderabad,"Zoo Park, Hyderabad - TSPCB",04-04-2024 23:00:00,17.349694,78.451437,PM10,58,156,117
India,Telangana,Hyderabad,"Zoo Park, Hyderabad - TSPCB",04-04-2024 23:00:00,17.349694,78.451437,NH3,1,1,1
India,Telangana,Hyderabad,"Zoo Park, Hyderabad - TSPCB",04-04-2024 23:00:00,17.349694,78.451437,CO,30,82,60
India,Tripura,Agartala,"Bardowali, Agartala - Tripura SPCB",04-04-2024 23:00:00,23.8175497,91.2726974,PM2.5,53,118,91
India,Tripura,Agartala,"Bardowali, Agartala - Tripura SPCB",04-04-2024 23:00:00,23.8175497,91.2726974,NO2,4,11,8
India,Uttar_Pradesh,Agra,"Manoharpur, Agra - UPPCB",04-04-2024 23:00:00,27.23711,78.01936,PM2.5,24,139,57
India,Uttar_Pradesh,Agra,"Manoharpur, Agra - UPPCB",04-04-2024 23:00:00,27.23711,78.01936,NO2,25,26,25
India,Uttar_Pradesh,Agra,"Manoharpur, Agra - UPPCB",04-04-2024 23:00:00,27.23711,78.01936,NH3,2,3,3
India,Uttar_Pradesh,Agra,"Rohta, Agra - UPPCB",04-04-2024 23:00:00,27.106972,78.000111,CO,6,31,17
India,Uttar_Pradesh,Agra,"Sector-3B Avas Vikas Colony, Agra - UPPCB",04-04-2024 23:00:00,27.19412,77.96237,PM10,34,118,64
India,Uttar_Pradesh,Agra,"Sector-3B Avas Vikas Colony, Agra - UPPCB",04-04-2024 23:00:00,27.19412,77.96237,OZONE,2,8,4
India,Uttar_Pradesh,Agra,"Shahjahan Garden, Agra - UPPCB",04-04-2024 23:00:00,27.169338,78.03582,SO2,NA,NA,NA
India,Uttar_Pradesh,Bulandshahr,"Yamunapuram, Bulandshahr - UPPCB",04-04-2024 23:00:00,28.406963,77.849831,NO2,10,127,55
India,Uttar_Pradesh,Bulandshahr,"Yamunapuram, Bulandshahr - UPPCB",04-04-2024 23:00:00,28.406963,77.849831,SO2,11,92,31
India,Uttar_Pradesh,Ghaziabad,"Indirapuram, Ghaziabad - UPPCB",04-04-2024 23:00:00,28.646233,77.358075,NH3,14,27,17
India,Uttar_Pradesh,Ghaziabad,"Loni, Ghaziabad - UPPCB",04-04-2024 23:00:00,28.757294,77.278792,PM2.5,23,238,76
India,Uttar_Pradesh,Ghaziabad,"Loni, Ghaziabad - UPPCB",04-04-2024 23:00:00,28.757294,77.278792,SO2,7,34,17
India,Uttar_Pradesh,Ghaziabad,"Vasundhara, Ghaziabad - UPPCB",04-04-2024 23:00:00,28.6603346,77.3572563,NO2,1,175,73
India,Uttar_Pradesh,Gorakhpur,"Madan Mohan Malaviya University of Technology, Gorakhpur - UPPCB",04-04-2024 23:00:00,26.730136,83.433859,PM2.5,43,279,104
India,Uttar_Pradesh,Gorakhpur,"Madan Mohan Malaviya University of Technology, Gorakhpur - UPPCB",04-04-2024 23:00:00,26.730136,83.433859,NO2,2,2,2
India,Uttar_Pradesh,Gorakhpur,"Madan Mohan Malaviya University of Technology, Gorakhpur - UPPCB",04-04-2024 23:00:00,26.730136,83.433859,NH3,1,2,2
India,Uttar_Pradesh,Gorakhpur,"Madan Mohan Malaviya University of Technology, Gorakhpur - UPPCB",04-04-2024 23:00:00,26.730136,83.433859,OZONE,12,50,38
India,Uttar_Pradesh,Greater Noida,"Knowledge Park - V, Greater Noida - UPPCB",04-04-2024 23:00:00,28.557054,77.453663,PM2.5,45,313,134
India,Uttar_Pradesh,Hapur,"Anand Vihar, Hapur - UPPCB",04-04-2024 23:00:00,28.725645,77.749675,NH3,7,10,8
India,Uttar_Pradesh,Hapur,"Anand Vihar, Hapur - UPPCB",04-04-2024 23:00:00,28.725645,77.749675,CO,34,92,57
India,Uttar_Pradesh,Jhansi,"Shivaji Nagar, Jhansi - UPPCB",04-04-2024 23:00:00,25.4547,78.6039,PM2.5,18,415,56
India,Uttar_Pradesh,Jhansi,"Shivaji Nagar, Jhansi - UPPCB",04-04-2024 23:00:00,25.4547,78.6039,SO2,15,39,19
India,Uttar_Pradesh,Jhansi,"Shivaji Nagar, Jhansi - UPPCB",04-04-2024 23:00:00,25.4547,78.6039,OZONE,1,44,17
India,Uttar_Pradesh,Kanpur,"Nehru Nagar, Kanpur - UPPCB",04-04-2024 23:00:00,26.4703136,80.3229863,PM10,28,141,63
India,Uttar_Pradesh,Kanpur,"Nehru Nagar, Kanpur - UPPCB",04-04-2024 23:00:00,26.4703136,80.3229863,CO,16,121,62
India,Uttar_Pradesh,Lucknow,"B R Ambedkar University, Lucknow - UPPCB",04-04-2024 23:00:00,26.766433,80.927299,CO,22,53,26
India,Uttar_Pradesh,Lucknow,"Kendriya Vidyalaya, Lucknow - CPCB",04-04-2024 23:00:00,26.906111,80.948222,SO2,4,6,5
India,Uttar_Pradesh,Lucknow,"Kendriya Vidyalaya, Lucknow - CPCB",04-04-2024 23:00:00,26.906111,80.948222,OZONE,6,75,54
India,Uttar_Pradesh,Lucknow,"Lalbagh, Lucknow - CPCB",04-04-2024 23:00:00,26.8458805,80.9365541,NH3,21,25,22
India,Uttar_Pradesh,Lucknow,"Lalbagh, Lucknow - CPCB",04-04-2024 23:00:00,26.8458805,80.9365541,OZONE,13,63,37
India,Uttar_Pradesh,Lucknow,"Talkatora District Industries Center, Lucknow - CPCB",04-04-2024 23:00:00,26.83399722,80.8917361,PM2.5,28,134,60
India,Uttar_Pradesh,Meerut,"Jai Bhim Nagar, Meerut - UPPCB",04-04-2024 23:00:00,28.9535882,77.7622941,PM10,46,190,88
India,Uttar_Pradesh,Meerut,"Jai Bhim Nagar, Meerut - UPPCB",04-04-2024 23:00:00,28.9535882,77.7622941,NO2,5,86,23
India,Uttar_Pradesh,Meerut,"Pallavpuram Phase 2, Meerut - UPPCB",04-04-2024 23:00:00,29.063510,77.709723,NH3,8,12,10
India,Uttar_Pradesh,Moradabad,"Buddhi Vihar, Moradabad - UPPCB",04-04-2024 23:00:00,28.83526,78.74460,NH3,2,2,2
India,Uttar_Pradesh,Moradabad,"Eco Herbal Park, Moradabad - UPPCB",04-04-2024 23:00:00,28.840739,78.697531,SO2,9,37,24
India,Uttar_Pradesh,Moradabad,"Jigar Colony, Moradabad - UPPCB",04-04-2024 23:00:00,28.856664,78.772638,SO2,25,31,28
India,Uttar_Pradesh,Moradabad,"Kashiram Nagar, Moradabad - UPPCB",04-04-2024 23:00:00,28.849399,78.742362,OZONE,15,52,29
India,Uttar_Pradesh,Moradabad,"Transport Nagar, Moradabad - UPPCB",04-04-2024 23:00:00,28.802625,78.753728,NO2,6,29,19
India,Uttar_Pradesh,Moradabad,"Transport Nagar, Moradabad - UPPCB",04-04-2024 23:00:00,28.802625,78.753728,CO,39,42,40
India,Uttar_Pradesh,Muzaffarnagar,"New Mandi, Muzaffarnagar - UPPCB",04-04-2024 23:00:00,29.4723508,77.7194031,CO,22,71,42
India,Uttar_Pradesh,Noida,"Sector-1, Noida - UPPCB",04-04-2024 23:00:00,28.5898,77.3101,PM10,94,298,170
India,Uttar_Pradesh,Noida,"Sector-116, Noida - UPPCB",04-04-2024 23:00:00,28.569230,77.393848,OZONE,1,58,20
India,Uttar_Pradesh,Prayagraj,"Jhunsi, Prayagraj - UPPCB",04-04-2024 23:00:00,25.425602,81.917152,PM10,60,157,104
India,Uttar_Pradesh,Prayagraj,"Jhunsi, Prayagraj - UPPCB",04-04-2024 23:00:00,25.425602,81.917152,NH3,5,5,5
India,Uttar_Pradesh,Prayagraj,"Motilal Nehru NIT, Prayagraj - UPPCB",04-04-2024 23:00:00,25.494,81.863,NH3,6,8,6
India,Uttar_Pradesh,Prayagraj,"Motilal Nehru NIT, Prayagraj - UPPCB",04-04-2024 23:00:00,25.494,81.863,OZONE,5,34,24
India,Uttar_Pradesh,Varanasi,"Ardhali Bazar, Varanasi - UPPCB",04-04-2024 23:00:00,25.3505986,82.9083074,SO2,15,37,24
India,Uttar_Pradesh,Varanasi,"Ardhali Bazar, Varanasi - UPPCB",04-04-2024 23:00:00,25.3505986,82.9083074,OZONE,11,27,15
India,Uttar_Pradesh,Varanasi,"Bhelupur, Varanasi - UPPCB",04-04-2024 23:00:00,25.301778,82.996789,PM10,28,67,48
India,Uttar_Pradesh,Varanasi,"Bhelupur, Varanasi - UPPCB",04-04-2024 23:00:00,25.301778,82.996789,CO,15,104,54
India,Uttar_Pradesh,Varanasi,"IESD Banaras Hindu University, Varanasi - UPPCB",04-04-2024 23:00:00,25.262326,82.995408,CO,8,32,15
India,Uttar_Pradesh,Varanasi,"Maldahiya, Varanasi - UPPCB",04-04-2024 23:00:00,25.32393,82.99687,PM2.5,18,50,34
India,Uttar_Pradesh,Varanasi,"Maldahiya, Varanasi - UPPCB",04-04-2024 23:00:00,25.32393,82.99687,SO2,26,28,26
India,Uttar_Pradesh,Vrindavan,"Omex Eternity, Vrindavan - UPPCB",04-04-2024 23:00:00,27.5714090,77.6557570,PM2.5,13,101,50
India,Uttarakhand,Dehradun,"Doon University, Dehradun - UKPCB",04-04-2024 23:00:00,30.269444,78.044167,PM10,56,138,91
India,Uttarakhand,Kashipur,"Govt. Girls Inter College, Kashipur - UKPCB",04-04-2024 23:00:00,29.2124114,78.9611753,PM10,41,112,68
India,Uttarakhand,Kashipur,"Govt. Girls Inter College, Kashipur - UKPCB",04-04-2024 23:00:00,29.2124114,78.9611753,CO,19,67,44
India,Uttarakhand,Rishikesh,"Shivaji Nagar, Rishikesh - UKPCB",04-04-2024 23:00:00,30.075911,78.2859547,SO2,3,5,4
India,Uttarakhand,Rishikesh,"Shivaji Nagar, Rishikesh - UKPCB",04-04-2024 23:00:00,30.075911,78.2859547,OZONE,23,128,81
India,West_Bengal,Durgapur,"PCBL Residential Complex, Durgapur - WBPCB",04-04-2024 23:00:00,23.5087640,87.3544400,PM2.5,NA,NA,NA
India,West_Bengal,Durgapur,"PCBL Residential Complex, Durgapur - WBPCB",04-04-2024 23:00:00,23.5087640,87.3544400,NH3,2,4,3
India,West_Bengal,Durgapur,"Sidhu Kanhu Indoor Stadium, Durgapur - WBPCB",04-04-2024 23:00:00,23.5404352,87.2892225,PM10,134,455,184
India,West_Bengal,Durgapur,"Sidhu Kanhu Indoor Stadium, Durgapur - WBPCB",04-04-2024 23:00:00,23.5404352,87.2892225,NO2,15,46,27
India,West_Bengal,Haldia,"Priyambada Housing Estate, Haldia - WBPCB",04-04-2024 23:00:00,22.06047,88.109737,CO,16,25,19
India,West_Bengal,Haldia,"Priyambada Housing Estate, Haldia - WBPCB",04-04-2024 23:00:00,22.06047,88.109737,OZONE,18,29,25
India,West_Bengal,Howrah,"Belur Math, Howrah - WBPCB",04-04-2024 23:00:00,22.629801,88.352017,NO2,9,17,13
India,West_Bengal,Howrah,"Ghusuri, Howrah - WBPCB",04-04-2024 23:00:00,22.611968,88.347422,PM2.5,51,160,84
India,West_Bengal,Howrah,"Padmapukur, Howrah - WBPCB",04-04-2024 23:00:00,22.5687319,88.2797276,PM2.5,38,77,54
India,West_Bengal,Howrah,"Padmapukur, Howrah - WBPCB",04-04-2024 23:00:00,22.5687319,88.2797276,PM10,63,105,82
India,West_Bengal,Howrah,"Padmapukur, Howrah - WBPCB",04-04-2024 23:00:00,22.5687319,88.2797276,NO2,5,7,7
India,West_Bengal,Kolkata,"Ballygunge, Kolkata - WBPCB",04-04-2024 23:00:00,22.5367507,88.3638022,PM10,45,90,63
India,West_Bengal,Kolkata,"Ballygunge, Kolkata - WBPCB",04-04-2024 23:00:00,22.5367507,88.3638022,CO,2,23,20
India,West_Bengal,Kolkata,"Bidhannagar, Kolkata - WBPCB",04-04-2024 23:00:00,22.58157048,88.41002457,CO,15,24,20
India,West_Bengal,Kolkata,"Bidhannagar, Kolkata - WBPCB",04-04-2024 23:00:00,22.58157048,88.41002457,OZONE,22,87,43
India,West_Bengal,Kolkata,"Rabindra Bharati University, Kolkata - WBPCB",04-04-2024 23:00:00,22.627847,88.380669,PM2.5,41,109,64
India,West_Bengal,Kolkata,"Rabindra Sarobar, Kolkata - WBPCB",04-04-2024 23:00:00,22.51106,88.35142,NH3,3,5,4
India,West_Bengal,Kolkata,"Rabindra Sarobar, Kolkata - WBPCB",04-04-2024 23:00:00,22.51106,88.35142,CO,4,15,9
India,West_Bengal,Kolkata,"Rabindra Sarobar, Kolkata - WBPCB",04-04-2024 23:00:00,22.51106,88.35142,OZONE,5,108,38
India,West_Bengal,Kolkata,"Victoria, Kolkata - WBPCB",04-04-2024 23:00:00,22.5448082,88.3403691,NO2,7,9,8
India,West_Bengal,Kolkata,"Victoria, Kolkata - WBPCB",04-04-2024 23:00:00,22.5448082,88.3403691,OZONE,13,53,27
India,West_Bengal,Siliguri,"Ward-32 Bapupara, Siliguri - WBPCB",04-04-2024 23:00:00,26.6879226,88.4152495,PM10,84,143,110
India,West_Bengal,Siliguri,"Ward-32 Bapupara, Siliguri - WBPCB",04-04-2024 23:00:00,26.6879226,88.4152495,SO2,7,12,9
India,Andhra_Pradesh,Amaravati,"Secretariat, Amaravati - APPCB",04-04-2024 23:00:00,16.5150833,80.5181667,CO,2,35,25
India,Andhra_Pradesh,Anantapur,"Gulzarpet, Anantapur - APPCB",04-04-2024 23:00:00,14.675886,77.593027,CO,24,102,51
India,Andhra_Pradesh,Chittoor,"Gangineni Cheruvu, Chittoor - APPCB",04-04-2024 23:00:00,13.204880,79.097889,PM10,14,122,74
India,Andhra_Pradesh,Chittoor,"Gangineni Cheruvu, Chittoor - APPCB",04-04-2024 23:00:00,13.204880,79.097889,NO2,2,20,7
India,Andhra_Pradesh,Chittoor,"Gangineni Cheruvu, Chittoor - APPCB",04-04-2024 23:00:00,13.204880,79.097889,SO2,4,46,15
India,Andhra_Pradesh,Rajamahendravaram,"Anand Kala Kshetram, Rajamahendravaram - APPCB",04-04-2024 23:00:00,16.9872867,81.7363176,SO2,11,12,12
India,Andhra_Pradesh,Rajamahendravaram,"Anand Kala Kshetram, Rajamahendravaram - APPCB",04-04-2024 23:00:00,16.9872867,81.7363176,CO,18,34,27
India,Andhra_Pradesh,Rajamahendravaram,"Anand Kala Kshetram, Rajamahendravaram - APPCB",04-04-2024 23:00:00,16.9872867,81.7363176,OZONE,14,22,20
India,Andhra_Pradesh,Tirupati,"Tirumala, Tirupati - APPCB",04-04-2024 23:00:00,13.67,79.35,NO2,16,36,22
India,Andhra_Pradesh,Tirupati,"Tirumala, Tirupati - APPCB",04-04-2024 23:00:00,13.67,79.35,NH3,1,1,1
India,Andhra_Pradesh,Tirupati,"Tirumala, Tirupati - APPCB",04-04-2024 23:00:00,13.67,79.35,OZONE,14,65,59
India,Andhra_Pradesh,Tirupati,"Vaikuntapuram, Tirupati - APPCB",04-04-2024 23:00:00,13.615387,79.409230,SO2,4,5,5
India,Andhra_Pradesh,Tirupati,"Vaikuntapuram, Tirupati - APPCB",04-04-2024 23:00:00,13.615387,79.409230,OZONE,6,48,30
India,Andhra_Pradesh,Vijayawada,"HB Colony, Vijayawada - APPCB",04-04-2024 23:00:00,16.536107,80.594233,NH3,4,4,4
India,Andhra_Pradesh,Vijayawada,"HB Colony, Vijayawada - APPCB",04-04-2024 23:00:00,16.536107,80.594233,SO2,3,5,4
India,Andhra_Pradesh,Vijayawada,"Kanuru, Vijayawada - APPCB",04-04-2024 23:00:00,16.486692,80.699436,NH3,1,1,1
India,Andhra_Pradesh,Vijayawada,"Kanuru, Vijayawada - APPCB",04-04-2024 23:00:00,16.486692,80.699436,CO,42,78,54
India,Andhra_Pradesh,Vijayawada,"Rajiv Gandhi Park, Vijayawada - APPCB",04-04-2024 23:00:00,16.509717,80.612222,PM2.5,28,85,48
India,Andhra_Pradesh,Vijayawada,"Rajiv Gandhi Park, Vijayawada - APPCB",04-04-2024 23:00:00,16.509717,80.612222,CO,42,46,46
India,Andhra_Pradesh,Vijayawada,"Rajiv Nagar, Vijayawada - APPCB",04-04-2024 23:00:00,16.554731,80.649110,PM2.5,42,49,44
India,Andhra_Pradesh,Visakhapatnam,"GVM Corporation, Visakhapatnam - APPCB",04-04-2024 23:00:00,17.72,83.3,SO2,10,15,12
India,Andhra_Pradesh,Visakhapatnam,"GVM Corporation, Visakhapatnam - APPCB",04-04-2024 23:00:00,17.72,83.3,CO,14,80,36
India,Arunachal_Pradesh,Naharlagun,"Naharlagun, Naharlagun - APSPCB",04-04-2024 23:00:00,27.103358,93.679645,NO2,3,3,3
India,Arunachal_Pradesh,Naharlagun,"Naharlagun, Naharlagun - APSPCB",04-04-2024 23:00:00,27.103358,93.679645,SO2,4,4,4
India,Assam,Byrnihat,"Central Academy for SFS, Byrnihat - PCBA",04-04-2024 23:00:00,26.071318,91.87488,NO2,43,133,76
India,Assam,Byrnihat,"Central Academy for SFS, Byrnihat - PCBA",04-04-2024 23:00:00,26.071318,91.87488,CO,32,101,52
India,Assam,Guwahati,"IITG, Guwahati - PCBA",04-04-2024 23:00:00,26.2028636,91.70046436,PM2.5,45,178,93
India,Assam,Guwahati,"LGBI Airport, Guwahati - PCBA",04-04-2024 23:00:00,26.10887,91.589544,CO,34,64,48
India,Assam,Guwahati,"Pan Bazaar, Guwahati - PCBA",04-04-2024 23:00:00,26.187500,91.744194,PM10,50,500,248
India,Assam,Guwahati,"Pan Bazaar, Guwahati - PCBA",04-04-2024 23:00:00,26.187500,91.744194,CO,20,26,24
India,Assam,Guwahati,"Railway Colony, Guwahati - PCBA",04-04-2024 23:00:00,26.181742,91.78063,SO2,NA,NA,NA
India,Assam,Guwahati,"Railway Colony, Guwahati - PCBA",04-04-2024 23:00:00,26.181742,91.78063,OZONE,1,32,19
India,Assam,Silchar,"Tarapur, Silchar - PCBA",04-04-2024 23:00:00,24.82827,92.79525,PM10,26,87,50
India,Assam,Sivasagar,"Girls College, Sivasagar - PCBA",04-04-2024 23:00:00,26.987634,94.636574,NH3,1,1,1
India,Assam,Sivasagar,"Girls College, Sivasagar - PCBA",04-04-2024 23:00:00,26.987634,94.636574,CO,2,10,9
India,Bihar,Aurangabad,"Gurdeo Nagar, Aurangabad - BSPCB",04-04-2024 23:00:00,24.75746,84.366208,CO,16,88,64
India,Bihar,Bettiah,"Kamalnath Nagar, Bettiah - BSPCB",04-04-2024 23:00:00,26.80365,84.51954,PM2.5,NA,NA,NA
India,Bihar,Bhagalpur,"DM Office_Kachari Chowk, Bhagalpur - BSPCB",04-04-2024 23:00:00,25.251013,86.989001,NO2,33,101,75
India,Bihar,Bhagalpur,"DM Office_Kachari Chowk, Bhagalpur - BSPCB",04-04-2024 23:00:00,25.251013,86.989001,OZONE,41,49,43
India,Bihar,Bhagalpur,"Mayaganj, Bhagalpur - BSPCB",04-04-2024 23:00:00,25.265194,87.012947,NH3,NA,NA,NA
India,Bihar,Bihar Sharif,"D M Colony, Bihar Sharif - BSPCB",04-04-2024 23:00:00,25.204762,85.514960,PM2.5,45,167,82
India,Bihar,Bihar Sharif,"D M Colony, Bihar Sharif - BSPCB",04-04-2024 23:00:00,25.204762,85.514960,CO,2,58,42
India,Bihar,Buxar,"Charitra Van, Buxar - BSPCB (Formerly known as Central Jail)",04-04-2024 23:00:00,25.567520,83.966379,NO2,41,313,96
India,Bihar,Chhapra,"Darshan Nagar, Chhapra - BSPCB",04-04-2024 23:00:00,25.7808257,84.7446768,NH3,7,14,10
India,Bihar,Gaya,"Collectorate, Gaya - BSPCB",04-04-2024 23:00:00,24.7955,84.9994,PM2.5,36,338,138
India,Bihar,Gaya,"Collectorate, Gaya - BSPCB",04-04-2024 23:00:00,24.7955,84.9994,NO2,1,5,3
India,Bihar,Gaya,"Collectorate, Gaya - BSPCB",04-04-2024 23:00:00,24.7955,84.9994,OZONE,47,73,61
India,Bihar,Gaya,"Kareemganj, Gaya - BSPCB",04-04-2024 23:00:00,24.792403,84.992416,PM10,60,223,125
India,Bihar,Gaya,"SFTI Kusdihra, Gaya - BSPCB",04-04-2024 23:00:00,24.762518,84.982348,PM10,NA,NA,NA
India,Bihar,Gaya,"SFTI Kusdihra, Gaya - BSPCB",04-04-2024 23:00:00,24.762518,84.982348,OZONE,2,84,43
India,Bihar,Hajipur,"Industrial Area, Hajipur - BSPCB",04-04-2024 23:00:00,25.697189,85.245900,NH3,1,4,2
India,Bihar,Hajipur,"Industrial Area, Hajipur - BSPCB",04-04-2024 23:00:00,25.697189,85.245900,OZONE,1,78,27
India,Bihar,Katihar,"Mirchaibari, Katihar - BSPCB",04-04-2024 23:00:00,25.560083,87.553265,NH3,NA,NA,NA
India,Bihar,Kishanganj,"SDM Office_Khagra, Kishanganj - BSPCB",04-04-2024 23:00:00,26.0881305,87.93840336,SO2,38,116,62
India,Bihar,Kishanganj,"SDM Office_Khagra, Kishanganj - BSPCB",04-04-2024 23:00:00,26.0881305,87.93840336,CO,2,16,7
India,Bihar,Motihari,"Gandak Colony, Motihari - BSPCB",04-04-2024 23:00:00,26.63086,84.90051,SO2,3,15,8
India,Bihar,Motihari,"Gandak Colony, Motihari - BSPCB",04-04-2024 23:00:00,26.63086,84.90051,OZONE,29,112,82
India,Bihar,Muzaffarpur,"Buddha Colony, Muzaffarpur - BSPCB",04-04-2024 23:00:00,26.11442,85.39813,PM2.5,158,310,238
India,Bihar,Muzaffarpur,"Buddha Colony, Muzaffarpur - BSPCB",04-04-2024 23:00:00,26.11442,85.39813,PM10,137,222,173
India,Bihar,Muzaffarpur,"Buddha Colony, Muzaffarpur - BSPCB",04-04-2024 23:00:00,26.11442,85.39813,NH3,5,8,7
India,Bihar,Muzaffarpur,"Buddha Colony, Muzaffarpur - BSPCB",04-04-2024 23:00:00,26.11442,85.39813,OZONE,33,52,43
India,Bihar,Muzaffarpur,"MIT-Daudpur Kothi, Muzaffarpur - BSPCB",04-04-2024 23:00:00,26.1403345,85.3650192,NO2,5,10,7
India,Bihar,Muzaffarpur,"MIT-Daudpur Kothi, Muzaffarpur - BSPCB",04-04-2024 23:00:00,26.1403345,85.3650192,OZONE,11,70,38
India,Bihar,Patna,"Govt. High School Shikarpur, Patna - BSPCB",04-04-2024 23:00:00,25.592539,85.227158,NO2,18,28,21
India,Bihar,Patna,"Govt. High School Shikarpur, Patna - BSPCB",04-04-2024 23:00:00,25.592539,85.227158,SO2,8,20,12
India,Bihar,Patna,"IGSC Planetarium Complex, Patna - BSPCB",04-04-2024 23:00:00,25.610369,85.132568,NO2,11,11,11
India,Bihar,Patna,"IGSC Planetarium Complex, Patna - BSPCB",04-04-2024 23:00:00,25.610369,85.132568,SO2,5,6,5
India,Bihar,Patna,"Muradpur, Patna - BSPCB",04-04-2024 23:00:00,25.619651,85.147382,NO2,7,23,14
India,Bihar,Patna,"Muradpur, Patna - BSPCB",04-04-2024 23:00:00,25.619651,85.147382,NH3,2,5,3
India,Bihar,Patna,"Rajbansi Nagar, Patna - BSPCB",04-04-2024 23:00:00,25.599486,85.113666,PM10,116,414,190
India,Bihar,Patna,"Samanpura, Patna - BSPCB",04-04-2024 23:00:00,25.596727,85.085624,NH3,21,44,33
India,Bihar,Patna,"Samanpura, Patna - BSPCB",04-04-2024 23:00:00,25.596727,85.085624,SO2,6,15,8
India,Bihar,Purnia,"Mariam Nagar, Purnia - BSPCB",04-04-2024 23:00:00,25.366336,87.117468,PM2.5,32,237,102
India,Bihar,Purnia,"Mariam Nagar, Purnia - BSPCB",04-04-2024 23:00:00,25.366336,87.117468,PM10,117,262,171
India,Bihar,Purnia,"Mariam Nagar, Purnia - BSPCB",04-04-2024 23:00:00,25.366336,87.117468,OZONE,7,16,11
India,Bihar,Rajgir,"Dangi Tola, Rajgir - BSPCB",04-04-2024 23:00:00,25.03280,85.41948,PM10,NA,NA,NA
India,Bihar,Rajgir,"Dangi Tola, Rajgir - BSPCB",04-04-2024 23:00:00,25.03280,85.41948,CO,7,11,9
India,Bihar,Saharsa,"Police Line, Saharsa - BSPCB",04-04-2024 23:00:00,25.892357,86.590325,PM10,83,175,125
India,Bihar,Saharsa,"Police Line, Saharsa - BSPCB",04-04-2024 23:00:00,25.892357,86.590325,NO2,6,8,7
India,Bihar,Saharsa,"Police Line, Saharsa - BSPCB",04-04-2024 23:00:00,25.892357,86.590325,SO2,16,16,16
India,Bihar,Samastipur,"DM Office_Kasipur, Samastipur - BSPCB",04-04-2024 23:00:00,25.859655,85.77944,PM10,58,197,127
India,Bihar,Samastipur,"DM Office_Kasipur, Samastipur - BSPCB",04-04-2024 23:00:00,25.859655,85.77944,CO,18,35,24
India,Bihar,Sasaram,"Dada Peer, Sasaram - BSPCB",04-04-2024 23:00:00,24.952822,84.002396,NH3,7,13,9
India,Bihar,Sasaram,"Dada Peer, Sasaram - BSPCB",04-04-2024 23:00:00,24.952822,84.002396,SO2,22,23,22
India,Chandigarh,Chandigarh,"Sector 22, Chandigarh - CPCC",04-04-2024 23:00:00,30.735567,76.775714,SO2,8,59,24
India,Chandigarh,Chandigarh,"Sector-25, Chandigarh - CPCC",04-04-2024 23:00:00,30.751462,76.762879,SO2,9,20,12
India,Chandigarh,Chandigarh,"Sector-25, Chandigarh - CPCC",04-04-2024 23:00:00,30.751462,76.762879,OZONE,1,49,33
India,Chandigarh,Chandigarh,"Sector-53, Chandigarh - CPCC",04-04-2024 23:00:00,30.719859,76.738637,NO2,8,65,32
India,Chhattisgarh,Bhilai,"32Bungalows, Bhilai - CECB",04-04-2024 23:00:00,21.194815,81.314770,NH3,6,7,7
India,Chhattisgarh,Bhilai,"32Bungalows, Bhilai - CECB",04-04-2024 23:00:00,21.194815,81.314770,CO,24,52,32
India,Chhattisgarh,Bhilai,"Civic Center, Bhilai - Bhilai Steel Plant",04-04-2024 23:00:00,21.185571,81.343175,NO2,15,17,17
India,Chhattisgarh,Bhilai,"Hathkhoj, Bhilai - CECB",04-04-2024 23:00:00,21.224231,81.408350,NO2,NA,NA,NA
India,Chhattisgarh,Chhal,"Nawapara SECL Colony, Chhal - CECB",04-04-2024 23:00:00,22.118125,83.140608,PM10,NA,NA,NA
India,Chhattisgarh,Chhal,"Nawapara SECL Colony, Chhal - CECB",04-04-2024 23:00:00,22.118125,83.140608,NH3,NA,NA,NA
India,Chhattisgarh,Chhal,"Nawapara SECL Colony, Chhal - CECB",04-04-2024 23:00:00,22.118125,83.140608,SO2,12,19,16
India,Chhattisgarh,Korba,"Rampur, Korba - CECB",04-04-2024 23:00:00,22.368195,82.746431,PM2.5,44,92,71
India,Chhattisgarh,Korba,"Rampur, Korba - CECB",04-04-2024 23:00:00,22.368195,82.746431,NH3,2,5,4
India,Chhattisgarh,Korba,"Urja Nagar, Korba - CECB",04-04-2024 23:00:00,22.348441,82.549611,PM10,84,311,172
India,Chhattisgarh,Korba,"Urja Nagar, Korba - CECB",04-04-2024 23:00:00,22.348441,82.549611,NH3,4,19,10
India,Chhattisgarh,Korba,"Urja Nagar, Korba - CECB",04-04-2024 23:00:00,22.348441,82.549611,CO,23,114,40
India,Chhattisgarh,Kunjemura,"OP Jindal School, Kunjemura - CECB",04-04-2024 23:00:00,22.126650,83.483212,NO2,25,149,91
India,Chhattisgarh,Milupara,"Govt. Higher Secondary School, Milupara - CECB",04-04-2024 23:00:00,22.1910172,83.5197009,SO2,15,70,26
India,Chhattisgarh,Raipur,"AIIMS, Raipur - CECB",04-04-2024 23:00:00,21.258815,81.578979,CO,24,44,33
India,Chhattisgarh,Raipur,"Krishak Nagar, Raipur - CECB",04-04-2024 23:00:00,21.237755,81.705301,NH3,1,1,1
India,Chhattisgarh,Raipur,"Siltara Phase-II, Raipur - CECB",04-04-2024 23:00:00,21.371751,81.664929,NO2,44,78,55
India,Chhattisgarh,Raipur,"Siltara Phase-II, Raipur - CECB",04-04-2024 23:00:00,21.371751,81.664929,NH3,3,3,3
India,Chhattisgarh,Raipur,"Siltara Phase-II, Raipur - CECB",04-04-2024 23:00:00,21.371751,81.664929,SO2,13,82,38
India,Chhattisgarh,Tumidih,"OP Jindal Industrial Park, Tumidih - CECB",04-04-2024 23:00:00,22.06631475,83.33820077,CO,28,71,44
India,Delhi,Delhi,"Ashok Vihar, Delhi - DPCC",04-04-2024 23:00:00,28.695381,77.181665,PM10,78,305,167
India,Delhi,Delhi,"Ashok Vihar, Delhi - DPCC",04-04-2024 23:00:00,28.695381,77.181665,NO2,14,142,61
India,Delhi,Delhi,"Ashok Vihar, Delhi - DPCC",04-04-2024 23:00:00,28.695381,77.181665,NH3,1,10,6
India,Delhi,Delhi,"Ashok Vihar, Delhi - DPCC",04-04-2024 23:00:00,28.695381,77.181665,CO,7,104,43
India,Delhi,Delhi,"Aya Nagar, Delhi - IMD",04-04-2024 23:00:00,28.4706914,77.1099364,PM2.5,51,207,120
India,Delhi,Delhi,"Aya Nagar, Delhi - IMD",04-04-2024 23:00:00,28.4706914,77.1099364,NO2,58,65,61
India,Delhi,Delhi,"Bawana, Delhi - DPCC",04-04-2024 23:00:00,28.776200,77.051074,SO2,10,103,29
India,Delhi,Delhi,"Bawana, Delhi - DPCC",04-04-2024 23:00:00,28.776200,77.051074,CO,37,92,59
India,Delhi,Delhi,"Bawana, Delhi - DPCC",04-04-2024 23:00:00,28.776200,77.051074,OZONE,5,148,71
India,Delhi,Delhi,"Burari Crossing, Delhi - IMD",04-04-2024 23:00:00,28.7256504,77.2011573,PM2.5,25,335,158
India,Delhi,Delhi,"CRRI Mathura Road, Delhi - IMD",04-04-2024 23:00:00,28.5512005,77.2735737,PM2.5,61,434,155
India,Delhi,Delhi,"DTU, Delhi - CPCB",04-04-2024 23:00:00,28.7500499,77.1112615,PM2.5,64,302,137
India,Delhi,Delhi,"DTU, Delhi - CPCB",04-04-2024 23:00:00,28.7500499,77.1112615,PM10,90,315,155
India,Delhi,Delhi,"DTU, Delhi - CPCB",04-04-2024 23:00:00,28.7500499,77.1112615,SO2,32,34,33
India,Delhi,Delhi,"DTU, Delhi - CPCB",04-04-2024 23:00:00,28.7500499,77.1112615,OZONE,29,140,64
India,Delhi,Delhi,"Dr. Karni Singh Shooting Range, Delhi - DPCC",04-04-2024 23:00:00,28.498571,77.264840,PM2.5,40,308,108
India,Delhi,Delhi,"Jahangirpuri, Delhi - DPCC",04-04-2024 23:00:00,28.732820,77.170633,PM2.5,40,357,137
India,Delhi,Delhi,"Jahangirpuri, Delhi - DPCC",04-04-2024 23:00:00,28.732820,77.170633,PM10,104,445,201
India,Delhi,Delhi,"Jahangirpuri, Delhi - DPCC",04-04-2024 23:00:00,28.732820,77.170633,NH3,1,19,12
India,Delhi,Delhi,"Jahangirpuri, Delhi - DPCC",04-04-2024 23:00:00,28.732820,77.170633,SO2,22,96,40
India,Delhi,Delhi,"Jawaharlal Nehru Stadium, Delhi - DPCC",04-04-2024 23:00:00,28.580280,77.233829,OZONE,1,254,80
India,Delhi,Delhi,"Lodhi Road, Delhi - IITM",04-04-2024 23:00:00,28.588333,77.221667,SO2,21,45,29
India,Delhi,Delhi,"Lodhi Road, Delhi - IMD",04-04-2024 23:00:00,28.5918245,77.2273074,CO,14,36,16
India,Delhi,Delhi,"Lodhi Road, Delhi - IMD",04-04-2024 23:00:00,28.5918245,77.2273074,OZONE,9,42,24
India,Delhi,Delhi,"Major Dhyan Chand National Stadium, Delhi - DPCC",04-04-2024 23:00:00,28.611281,77.237738,PM2.5,38,277,99
India,Delhi,Delhi,"Major Dhyan Chand National Stadium, Delhi - DPCC",04-04-2024 23:00:00,28.611281,77.237738,PM10,61,217,133
India,Delhi,Delhi,"Mandir Marg, Delhi - DPCC",04-04-2024 23:00:00,28.636429,77.201067,CO,56,104,57
India,Delhi,Delhi,"Mundka, Delhi - DPCC",04-04-2024 23:00:00,28.684678,77.076574,NO2,18,117,59
India,Delhi,Delhi,"Najafgarh, Delhi - DPCC",04-04-2024 23:00:00,28.570173,76.933762,NO2,12,107,41
India,Delhi,Delhi,"Narela, Delhi - DPCC",04-04-2024 23:00:00,28.822836,77.101981,PM10,80,361,155
India,Delhi,Delhi,"Nehru Nagar, Delhi - DPCC",04-04-2024 23:00:00,28.567890,77.250515,OZONE,2,125,49
India,Delhi,Delhi,"North Campus, DU, Delhi - IMD",04-04-2024 23:00:00,28.6573814,77.1585447,PM10,NA,NA,NA
India,Delhi,Delhi,"North Campus, DU, Delhi - IMD",04-04-2024 23:00:00,28.6573814,77.1585447,CO,30,73,68
India,Delhi,Delhi,"Patparganj, Delhi - DPCC",04-04-2024 23:00:00,28.623763,77.287209,OZONE,5,147,62
India,Delhi,Delhi,"Punjabi Bagh, Delhi - DPCC",04-04-2024 23:00:00,28.674045,77.131023,PM10,64,242,138
India,Delhi,Delhi,"Punjabi Bagh, Delhi - DPCC",04-04-2024 23:00:00,28.674045,77.131023,NO2,42,83,64
India,Delhi,Delhi,"Pusa, Delhi - DPCC",04-04-2024 23:00:00,28.639652,77.146275,NO2,41,148,97
India,Delhi,Delhi,"Pusa, Delhi - DPCC",04-04-2024 23:00:00,28.639652,77.146275,OZONE,10,86,38
India,Delhi,Delhi,"R K Puram, Delhi - DPCC",04-04-2024 23:00:00,28.563262,77.186937,PM10,72,359,163
India,Delhi,Delhi,"R K Puram, Delhi - DPCC",04-04-2024 23:00:00,28.563262,77.186937,OZONE,5,228,78
India,Delhi,Delhi,"Rohini, Delhi - DPCC",04-04-2024 23:00:00,28.732528,77.119920,OZONE,3,134,58
India,Delhi,Delhi,"Shadipur, Delhi - CPCB",04-04-2024 23:00:00,28.6514781,77.1473105,PM10,94,500,226
India,Delhi,Delhi,"Shadipur, Delhi - CPCB",04-04-2024 23:00:00,28.6514781,77.1473105,OZONE,12,51,28
India,Delhi,Delhi,"Sirifort, Delhi - CPCB",04-04-2024 23:00:00,28.5504249,77.2159377,NO2,53,85,70
India,Delhi,Delhi,"Sirifort, Delhi - CPCB",04-04-2024 23:00:00,28.5504249,77.2159377,NH3,7,15,11
India,Delhi,Delhi,"Sonia Vihar, Delhi - DPCC",04-04-2024 23:00:00,28.710508,77.249485,PM2.5,31,305,101
India,Delhi,Delhi,"Sonia Vihar, Delhi - DPCC",04-04-2024 23:00:00,28.710508,77.249485,NO2,17,106,51
India,Delhi,Delhi,"Vivek Vihar, Delhi - DPCC",04-04-2024 23:00:00,28.672342,77.315260,PM2.5,37,437,143
India,Delhi,Delhi,"Vivek Vihar, Delhi - DPCC",04-04-2024 23:00:00,28.672342,77.315260,PM10,100,413,189
India,Delhi,Delhi,"Vivek Vihar, Delhi - DPCC",04-04-2024 23:00:00,28.672342,77.315260,NO2,27,129,70
India,Gujarat,Ahmedabad,"Chandkheda, Ahmedabad - IITM",04-04-2024 23:00:00,23.107969,72.574648,PM2.5,71,196,98
India,Gujarat,Ahmedabad,"Chandkheda, Ahmedabad - IITM",04-04-2024 23:00:00,23.107969,72.574648,NH3,3,4,4
India,Gujarat,Ahmedabad,"Gyaspur, Ahmedabad - IITM",04-04-2024 23:00:00,22.977134,72.553024,NH3,8,13,11
India,Gujarat,Ahmedabad,"Maninagar, Ahmedabad - GPCB",04-04-2024 23:00:00,23.002657,72.591912,PM2.5,42,266,93
India,Gujarat,Ahmedabad,"Maninagar, Ahmedabad - GPCB",04-04-2024 23:00:00,23.002657,72.591912,NO2,23,65,37
India,Gujarat,Ahmedabad,"Maninagar, Ahmedabad - GPCB",04-04-2024 23:00:00,23.002657,72.591912,OZONE,13,88,42
India,Gujarat,Ahmedabad,"Raikhad, Ahmedabad - IITM",04-04-2024 23:00:00,23.020509,72.579261,PM10,91,129,114
India,Gujarat,Ahmedabad,"Raikhad, Ahmedabad - IITM",04-04-2024 23:00:00,23.020509,72.579261,NO2,30,113,52
India,Gujarat,Ahmedabad,"Raikhad, Ahmedabad - IITM",04-04-2024 23:00:00,23.020509,72.579261,SO2,5,21,9
India,Gujarat,Ahmedabad,"SAC ISRO Satellite, Ahmedabad - IITM",04-04-2024 23:00:00,23.023389,72.515201,NO2,17,17,17
India,Gujarat,Ahmedabad,"SAC ISRO Satellite, Ahmedabad - IITM",04-04-2024 23:00:00,23.023389,72.515201,SO2,2,26,9
India,Gujarat,Ahmedabad,"SVPI Airport Hansol, Ahmedabad - IITM",04-04-2024 23:00:00,23.076793,72.627874,NO2,NA,NA,NA
India,Gujarat,Ahmedabad,"Sardar Vallabhbhai Patel Stadium, Ahmedabad - IITM",04-04-2024 23:00:00,23.043070,72.562968,CO,29,51,39
India,Gujarat,Ankleshwar,"GIDC, Ankleshwar - GPCB",04-04-2024 23:00:00,21.613267,73.010555,PM2.5,39,82,64
India,Gujarat,Ankleshwar,"GIDC, Ankleshwar - GPCB",04-04-2024 23:00:00,21.613267,73.010555,PM10,47,93,71
India,Gujarat,Ankleshwar,"GIDC, Ankleshwar - GPCB",04-04-2024 23:00:00,21.613267,73.010555,NO2,34,35,35
India,Gujarat,Ankleshwar,"GIDC, Ankleshwar - GPCB",04-04-2024 23:00:00,21.613267,73.010555,NH3,6,6,6
India,Gujarat,Ankleshwar,"GIDC, Ankleshwar - GPCB",04-04-2024 23:00:00,21.613267,73.010555,CO,9,112,75
India,Gujarat,Gandhinagar,"IIPHG Lekawada, Gandhinagar - IITM",04-04-2024 23:00:00,23.243639,72.68994,NO2,33,38,35
India,Gujarat,Gandhinagar,"IIPHG Lekawada, Gandhinagar - IITM",04-04-2024 23:00:00,23.243639,72.68994,OZONE,13,44,31
India,Gujarat,Gandhinagar,"Sector-10, Gandhinagar - GPCB",04-04-2024 23:00:00,23.221714,72.654328,PM2.5,24,58,40
India,Gujarat,Nandesari,"GIDC, Nandesari - Nandesari Ind. Association",04-04-2024 23:00:00,22.410802,73.097923,PM2.5,76,333,172
India,Gujarat,Surat,"Science Center, Surat - SMC",04-04-2024 23:00:00,21.170046,72.795405,NO2,33,52,42
India,Gujarat,Surat,"Science Center, Surat - SMC",04-04-2024 23:00:00,21.170046,72.795405,CO,24,57,35
India,Haryana,Ambala,"Patti Mehar, Ambala - HSPCB",04-04-2024 23:00:00,30.379589,76.778328,PM2.5,27,75,50
India,Haryana,Ambala,"Patti Mehar, Ambala - HSPCB",04-04-2024 23:00:00,30.379589,76.778328,OZONE,33,53,45
India,Haryana,Bahadurgarh,"Arya Nagar, Bahadurgarh - HSPCB",04-04-2024 23:00:00,28.6701,76.9254,NH3,11,13,11
India,Haryana,Bahadurgarh,"Arya Nagar, Bahadurgarh - HSPCB",04-04-2024 23:00:00,28.6701,76.9254,CO,42,60,48
India,Haryana,Ballabgarh,"Nathu Colony, Ballabgarh - HSPCB",04-04-2024 23:00:00,28.3419248,77.319699,NO2,12,13,12
India,Haryana,Ballabgarh,"Nathu Colony, Ballabgarh - HSPCB",04-04-2024 23:00:00,28.3419248,77.319699,CO,18,103,66
India,Haryana,Charkhi Dadri,"Mini Secretariat, Charkhi Dadri - HSPCB",04-04-2024 23:00:00,28.593883,76.270653,NO2,14,22,18
India,Haryana,Charkhi Dadri,"Mini Secretariat, Charkhi Dadri - HSPCB",04-04-2024 23:00:00,28.593883,76.270653,NH3,6,8,7
India,Haryana,Charkhi Dadri,"Mini Secretariat, Charkhi Dadri - HSPCB",04-04-2024 23:00:00,28.593883,76.270653,CO,28,97,57
India,Haryana,Dharuhera,"Municipal Corporation Office, Dharuhera -  HSPCB",04-04-2024 23:00:00,28.206800,76.799700,PM10,NA,NA,NA
India,Haryana,Faridabad,"New Industrial Town, Faridabad - HSPCB",04-04-2024 23:00:00,28.39072,77.30059,NO2,8,33,14
India,Haryana,Faridabad,"New Industrial Town, Faridabad - HSPCB",04-04-2024 23:00:00,28.39072,77.30059,OZONE,11,174,41
India,Haryana,Faridabad,"Sector 11, Faridabad - HSPCB",04-04-2024 23:00:00,28.376058,77.315741,PM2.5,27,334,240
India,Haryana,Faridabad,"Sector 11, Faridabad - HSPCB",04-04-2024 23:00:00,28.376058,77.315741,NO2,30,32,31
India,Haryana,Faridabad,"Sector 11, Faridabad - HSPCB",04-04-2024 23:00:00,28.376058,77.315741,SO2,2,131,13
India,Haryana,Faridabad,"Sector 30, Faridabad - HSPCB",04-04-2024 23:00:00,28.4417,77.3217,PM2.5,91,100,95
India,Haryana,Faridabad,"Sector- 16A, Faridabad - HSPCB",04-04-2024 23:00:00,28.4088421,77.3099081,PM2.5,18,302,145
India,Haryana,Faridabad,"Sector- 16A, Faridabad - HSPCB",04-04-2024 23:00:00,28.4088421,77.3099081,NO2,14,68,46
India,Haryana,Fatehabad,"Huda Sector, Fatehabad - HSPCB",04-04-2024 23:00:00,29.503664,75.467934,PM2.5,18,61,36
India,Haryana,Fatehabad,"Huda Sector, Fatehabad - HSPCB",04-04-2024 23:00:00,29.503664,75.467934,PM10,59,115,81
India,Haryana,Fatehabad,"Huda Sector, Fatehabad - HSPCB",04-04-2024 23:00:00,29.503664,75.467934,SO2,10,11,11
India,Haryana,Fatehabad,"Huda Sector, Fatehabad - HSPCB",04-04-2024 23:00:00,29.503664,75.467934,OZONE,78,107,92
India,Haryana,Gurugram,"Sector-51, Gurugram - HSPCB",04-04-2024 23:00:00,28.4227,77.0667,PM10,112,223,152
India,Haryana,Gurugram,"Sector-51, Gurugram - HSPCB",04-04-2024 23:00:00,28.4227,77.0667,NH3,6,14,9
India,Haryana,Gurugram,"Sector-51, Gurugram - HSPCB",04-04-2024 23:00:00,28.4227,77.0667,CO,30,88,43
India,Haryana,Gurugram,"Teri Gram, Gurugram - HSPCB",04-04-2024 23:00:00,28.4275,77.1465,PM10,136,425,234
India,Haryana,Gurugram,"Teri Gram, Gurugram - HSPCB",04-04-2024 23:00:00,28.4275,77.1465,NO2,32,55,40
India,Haryana,Gurugram,"Teri Gram, Gurugram - HSPCB",04-04-2024 23:00:00,28.4275,77.1465,CO,12,45,18
India,Haryana,Gurugram,"Vikas Sadan, Gurugram - HSPCB",04-04-2024 23:00:00,28.4501238,77.0263051,SO2,38,70,46
India,Haryana,Gurugram,"Vikas Sadan, Gurugram - HSPCB",04-04-2024 23:00:00,28.4501238,77.0263051,OZONE,7,69,35
India,Haryana,Hisar,"Urban Estate-II, Hisar - HSPCB",04-04-2024 23:00:00,29.140560,75.744941,PM2.5,33,62,49
India,Haryana,Hisar,"Urban Estate-II, Hisar - HSPCB",04-04-2024 23:00:00,29.140560,75.744941,PM10,58,157,88
India,Haryana,Hisar,"Urban Estate-II, Hisar - HSPCB",04-04-2024 23:00:00,29.140560,75.744941,OZONE,42,151,115
India,Haryana,Kaithal,"Rishi Nagar, Kaithal - HSPCB",04-04-2024 23:00:00,29.8006,76.4155,NO2,24,26,25
India,Haryana,Kaithal,"Rishi Nagar, Kaithal - HSPCB",04-04-2024 23:00:00,29.8006,76.4155,NH3,8,8,8
India,Haryana,Karnal,"Sector-12, Karnal - HSPCB",04-04-2024 23:00:00,29.695300,77.002700,NO2,7,12,10
India,Haryana,Karnal,"Sector-12, Karnal - HSPCB",04-04-2024 23:00:00,29.695300,77.002700,OZONE,26,33,31
India,Haryana,Kurukshetra,"Sector-7, Kurukshetra - HSPCB",04-04-2024 23:00:00,29.966942,76.875879,PM2.5,45,101,75
India,Haryana,Kurukshetra,"Sector-7, Kurukshetra - HSPCB",04-04-2024 23:00:00,29.966942,76.875879,NH3,3,5,5
India,Haryana,Mandikhera,"General Hospital, Mandikhera - HSPCB",04-04-2024 23:00:00,27.9002,76.9938,NH3,16,20,18
India,Haryana,Mandikhera,"General Hospital, Mandikhera - HSPCB",04-04-2024 23:00:00,27.9002,76.9938,SO2,32,39,34
India,Haryana,Palwal,"Shyam Nagar, Palwal - HSPCB",04-04-2024 23:00:00,28.1485564,77.3320667,SO2,10,25,18
India,Haryana,Panchkula,"Sector-6, Panchkula - HSPCB ",04-04-2024 23:00:00,30.7057778,76.8531805555555,PM2.5,NA,NA,NA
India,Haryana,Panchkula,"Sector-6, Panchkula - HSPCB ",04-04-2024 23:00:00,30.7057778,76.8531805555555,CO,8,28,18
India,Haryana,Panipat,"Sector-18, Panipat - HSPCB",04-04-2024 23:00:00,29.497973,76.993331,PM2.5,49,95,70
India,Haryana,Sirsa,"F-Block, Sirsa - HSPCB",04-04-2024 23:00:00,29.536400,75.015800,PM10,58,108,78
India,Haryana,Sirsa,"F-Block, Sirsa - HSPCB",04-04-2024 23:00:00,29.536400,75.015800,NH3,12,13,13
India,Haryana,Sirsa,"F-Block, Sirsa - HSPCB",04-04-2024 23:00:00,29.536400,75.015800,SO2,5,14,11
India,Haryana,Yamuna Nagar,"Gobind Pura, Yamuna Nagar - HSPCB",04-04-2024 23:00:00,30.1480566,77.2893471,NO2,11,29,18
India,Haryana,Yamuna Nagar,"Gobind Pura, Yamuna Nagar - HSPCB",04-04-2024 23:00:00,30.1480566,77.2893471,CO,34,80,48
India,Himachal Pradesh,Baddi,"HIMUDA Complex Phase-1, Baddi - HPPCB",04-04-2024 23:00:00,30.943887,76.801991,OZONE,42,143,103
India,Jharkhand,Dhanbad,"Sardar Patel Nagar, Dhanbad - JSPCB",04-04-2024 23:00:00,23.80569,86.44268,PM2.5,44,371,139
India,Jharkhand,Dhanbad,"Sardar Patel Nagar, Dhanbad - JSPCB",04-04-2024 23:00:00,23.80569,86.44268,SO2,1,17,9
India,Karnataka,Bagalkot,"Vidayagiri, Bagalkot - KSPCB",04-04-2024 23:00:00,16.172806,75.659694,NO2,9,10,9
India,Karnataka,Bagalkot,"Vidayagiri, Bagalkot - KSPCB",04-04-2024 23:00:00,16.172806,75.659694,NH3,1,2,1
India,Karnataka,Bagalkot,"Vidayagiri, Bagalkot - KSPCB",04-04-2024 23:00:00,16.172806,75.659694,CO,22,50,35
India,Karnataka,Bagalkot,"Vidayagiri, Bagalkot - KSPCB",04-04-2024 23:00:00,16.172806,75.659694,OZONE,15,51,49
India,Karnataka,Belgaum,"Ramteerth Nagar, Belgaum - KSPCB",04-04-2024 23:00:00,15.888653,74.541751,PM10,37,102,52
India,Karnataka,Belgaum,"Ramteerth Nagar, Belgaum - KSPCB",04-04-2024 23:00:00,15.888653,74.541751,NO2,21,31,27
