country,state,city,station,last_update,latitude,longitude,pollutant_id,pollutant_min,pollutant_max,pollutant_avg
India,Andhra_Pradesh,Amaravati,"Secretariat, Amaravati - APPCB",23-01-2024 01:00:00,16.5150833,80.5181667,PM2.5,22,49,36
India,Andhra_Pradesh,Amaravati,"Secretariat, Amaravati - APPCB",23-01-2024 01:00:00,16.5150833,80.5181667,PM10,33,62,44
India,Andhra_Pradesh,Anantapur,"Gulzarpet, Anantapur - APPCB",23-01-2024 01:00:00,14.675886,77.593027,OZONE,4,57,43
India,Andhra_Pradesh,Chittoor,"Gangineni Cheruvu, Chittoor - APPCB",23-01-2024 01:00:00,13.204880,79.097889,NO2,NA,NA,NA
India,Andhra_Pradesh,Kadapa,"Yerramukkapalli, Kadapa - APPCB",23-01-2024 01:00:00,14.465052,78.824187,PM10,26,54,35
India,Andhra_Pradesh,Kadapa,"Yerramukkapalli, Kadapa - APPCB",23-01-2024 01:00:00,14.465052,78.824187,SO2,1,2,1
India,Andhra_Pradesh,Rajamahendravaram,"Anand Kala Kshetram, Rajamahendravaram - APPCB",23-01-2024 01:00:00,16.9872867,81.7363176,NH3,NA,NA,NA
India,Andhra_Pradesh,Tirupati,"Tirumala, Tirupati - APPCB",23-01-2024 01:00:00,13.67,79.35,PM2.5,48,86,66
India,Andhra_Pradesh,Vijayawada,"HB Colony, Vijayawada - APPCB",23-01-2024 01:00:00,16.536107,80.594233,PM2.5,NA,NA,NA
India,Andhra_Pradesh,Vijayawada,"Rajiv Gandhi Park, Vijayawada - APPCB",23-01-2024 01:00:00,16.509717,80.612222,PM2.5,NA,NA,NA
India,Andhra_Pradesh,Vijayawada,"Rajiv Gandhi Park, Vijayawada - APPCB",23-01-2024 01:00:00,16.509717,80.612222,CO,NA,NA,NA
India,Andhra_Pradesh,Visakhapatnam,"GVM Corporation, Visakhapatnam - APPCB",23-01-2024 01:00:00,17.72,83.3,SO2,9,16,12
India,Arunachal_Pradesh,Naharlagun,"Naharlagun, Naharlagun - APSPCB",23-01-2024 01:00:00,27.103358,93.679645,CO,10,65,43
India,Arunachal_Pradesh,Naharlagun,"Naharlagun, Naharlagun - APSPCB",23-01-2024 01:00:00,27.103358,93.679645,OZONE,2,2,2
India,Assam,Byrnihat,"Central Academy for SFS, Byrnihat - PCBA",23-01-2024 01:00:00,26.071318,91.87488,PM2.5,233,411,322
India,Assam,Byrnihat,"Central Academy for SFS, Byrnihat - PCBA",23-01-2024 01:00:00,26.071318,91.87488,NO2,30,137,52
India,Assam,Byrnihat,"Central Academy for SFS, Byrnihat - PCBA",23-01-2024 01:00:00,26.071318,91.87488,NH3,1,3,2
India,Assam,Guwahati,"LGBI Airport, Guwahati - PCBA",23-01-2024 01:00:00,26.10887,91.589544,PM2.5,283,420,352
India,Assam,Guwahati,"LGBI Airport, Guwahati - PCBA",23-01-2024 01:00:00,26.10887,91.589544,NO2,7,67,21
India,Assam,Guwahati,"LGBI Airport, Guwahati - PCBA",23-01-2024 01:00:00,26.10887,91.589544,NH3,1,7,2
India,Assam,Guwahati,"Pan Bazaar, Guwahati - PCBA",23-01-2024 01:00:00,26.187500,91.744194,SO2,56,86,65
India,Assam,Guwahati,"Pan Bazaar, Guwahati - PCBA",23-01-2024 01:00:00,26.187500,91.744194,CO,52,109,93
India,Assam,Guwahati,"Railway Colony, Guwahati - PCBA",23-01-2024 01:00:00,26.181742,91.78063,CO,50,123,91
India,Assam,Nagaon,"Christianpatty, Nagaon - PCBA",23-01-2024 01:00:00,26.349082,92.68449,SO2,8,11,10
India,Assam,Nalbari,"Bata Chowk, Nalbari - PCBA",23-01-2024 01:00:00,26.446912,91.439057,PM10,149,410,212
India,Assam,Nalbari,"Bata Chowk, Nalbari - PCBA",23-01-2024 01:00:00,26.446912,91.439057,SO2,3,11,7
India,Assam,Silchar,"Tarapur, Silchar - PCBA",23-01-2024 01:00:00,24.82827,92.79525,CO,23,36,29
India,Assam,Silchar,"Tarapur, Silchar - PCBA",23-01-2024 01:00:00,24.82827,92.79525,OZONE,1,5,1
India,Bihar,Araria,"Kharahiya Basti, Araria - BSPCB",23-01-2024 01:00:00,26.146529,87.454184,PM10,108,495,216
India,Bihar,Araria,"Kharahiya Basti, Araria - BSPCB",23-01-2024 01:00:00,26.146529,87.454184,SO2,9,17,15
India,Bihar,Arrah,"New DM Office, Arrah - BSPCB",23-01-2024 01:00:00,25.5626095,84.663264,NH3,NA,NA,NA
India,Bihar,Arrah,"New DM Office, Arrah - BSPCB",23-01-2024 01:00:00,25.5626095,84.663264,CO,2,42,15
India,Bihar,Aurangabad,"Gurdeo Nagar, Aurangabad - BSPCB",23-01-2024 01:00:00,24.75746,84.366208,PM10,NA,NA,NA
India,Bihar,Bettiah,"Kamalnath Nagar, Bettiah - BSPCB",23-01-2024 01:00:00,26.80365,84.51954,NH3,3,3,3
India,Bihar,Bettiah,"Kamalnath Nagar, Bettiah - BSPCB",23-01-2024 01:00:00,26.80365,84.51954,SO2,11,28,19
India,Bihar,Bettiah,"Kamalnath Nagar, Bettiah - BSPCB",23-01-2024 01:00:00,26.80365,84.51954,CO,10,126,102
India,Bihar,Bhagalpur,"DM Office_Kachari Chowk, Bhagalpur - BSPCB",23-01-2024 01:00:00,25.251013,86.989001,PM2.5,297,418,336
India,Bihar,Bhagalpur,"DM Office_Kachari Chowk, Bhagalpur - BSPCB",23-01-2024 01:00:00,25.251013,86.989001,NH3,2,4,3
India,Bihar,Bhagalpur,"DM Office_Kachari Chowk, Bhagalpur - BSPCB",23-01-2024 01:00:00,25.251013,86.989001,CO,13,71,42
India,Bihar,Bhagalpur,"Mayaganj, Bhagalpur - BSPCB",23-01-2024 01:00:00,25.265194,87.012947,PM10,141,292,178
India,Bihar,Bhagalpur,"Mayaganj, Bhagalpur - BSPCB",23-01-2024 01:00:00,25.265194,87.012947,NH3,9,10,10
India,Bihar,Bhagalpur,"Mayaganj, Bhagalpur - BSPCB",23-01-2024 01:00:00,25.265194,87.012947,SO2,11,13,12
India,Bihar,Bhagalpur,"Mayaganj, Bhagalpur - BSPCB",23-01-2024 01:00:00,25.265194,87.012947,OZONE,8,70,39
India,Bihar,Bihar Sharif,"D M Colony, Bihar Sharif - BSPCB",23-01-2024 01:00:00,25.204762,85.514960,PM2.5,23,73,40
India,Bihar,Gaya,"Collectorate, Gaya - BSPCB",23-01-2024 01:00:00,24.7955,84.9994,CO,30,40,34
India,Bihar,Gaya,"Kareemganj, Gaya - BSPCB",23-01-2024 01:00:00,24.792403,84.992416,PM10,65,332,158
India,Bihar,Gaya,"Kareemganj, Gaya - BSPCB",23-01-2024 01:00:00,24.792403,84.992416,NH3,1,6,3
India,Bihar,Gaya,"SFTI Kusdihra, Gaya - BSPCB",23-01-2024 01:00:00,24.762518,84.982348,PM2.5,35,247,135
India,Bihar,Gaya,"SFTI Kusdihra, Gaya - BSPCB",23-01-2024 01:00:00,24.762518,84.982348,PM10,58,125,100
India,Bihar,Gaya,"SFTI Kusdihra, Gaya - BSPCB",23-01-2024 01:00:00,24.762518,84.982348,NO2,25,40,33
India,Bihar,Gaya,"SFTI Kusdihra, Gaya - BSPCB",23-01-2024 01:00:00,24.762518,84.982348,NH3,3,13,6
India,Bihar,Gaya,"SFTI Kusdihra, Gaya - BSPCB",23-01-2024 01:00:00,24.762518,84.982348,SO2,7,11,9
India,Bihar,Katihar,"Mirchaibari, Katihar - BSPCB",23-01-2024 01:00:00,25.560083,87.553265,PM10,117,378,171
India,Bihar,Katihar,"Mirchaibari, Katihar - BSPCB",23-01-2024 01:00:00,25.560083,87.553265,OZONE,23,30,25
India,Bihar,Kishanganj,"SDM Office_Khagra, Kishanganj - BSPCB",23-01-2024 01:00:00,26.0881305,87.93840336,PM2.5,7,113,46
India,Bihar,Kishanganj,"SDM Office_Khagra, Kishanganj - BSPCB",23-01-2024 01:00:00,26.0881305,87.93840336,NH3,10,11,10
India,Bihar,Kishanganj,"SDM Office_Khagra, Kishanganj - BSPCB",23-01-2024 01:00:00,26.0881305,87.93840336,SO2,9,14,12
India,Bihar,Manguraha,"Forest Rest House, Manguraha - BSPCB",23-01-2024 01:00:00,27.308328,84.531742,PM10,64,119,88
India,Bihar,Motihari,"Gandak Colony, Motihari - BSPCB",23-01-2024 01:00:00,26.63086,84.90051,PM10,55,157,94
India,Bihar,Motihari,"Gandak Colony, Motihari - BSPCB",23-01-2024 01:00:00,26.63086,84.90051,NO2,65,108,83
India,Bihar,Motihari,"Gandak Colony, Motihari - BSPCB",23-01-2024 01:00:00,26.63086,84.90051,CO,51,90,79
India,Bihar,Munger,"Town Hall, Munger - BSPCB",23-01-2024 01:00:00,25.376776,86.471523,PM2.5,57,280,109
India,Bihar,Munger,"Town Hall, Munger - BSPCB",23-01-2024 01:00:00,25.376776,86.471523,SO2,34,47,40
India,Bihar,Muzaffarpur,"Buddha Colony, Muzaffarpur - BSPCB",23-01-2024 01:00:00,26.11442,85.39813,NO2,19,83,38
India,Bihar,Muzaffarpur,"MIT-Daudpur Kothi, Muzaffarpur - BSPCB",23-01-2024 01:00:00,26.1403345,85.3650192,CO,69,130,122
India,Bihar,Muzaffarpur,"Muzaffarpur Collectorate, Muzaffarpur - BSPCB",23-01-2024 01:00:00,26.1209,85.3647,SO2,5,7,6
India,Bihar,Muzaffarpur,"Muzaffarpur Collectorate, Muzaffarpur - BSPCB",23-01-2024 01:00:00,26.1209,85.3647,CO,28,62,28
India,Bihar,Patna,"DRM Office Danapur, Patna - BSPCB",23-01-2024 01:00:00,25.586562,85.043586,PM10,NA,NA,NA
India,Bihar,Patna,"DRM Office Danapur, Patna - BSPCB",23-01-2024 01:00:00,25.586562,85.043586,NO2,14,71,32
India,Bihar,Patna,"DRM Office Danapur, Patna - BSPCB",23-01-2024 01:00:00,25.586562,85.043586,OZONE,1,48,7
India,Bihar,Patna,"Govt. High School Shikarpur, Patna - BSPCB",23-01-2024 01:00:00,25.592539,85.227158,CO,60,118,96
India,Bihar,Patna,"IGSC Planetarium Complex, Patna - BSPCB",23-01-2024 01:00:00,25.610369,85.132568,PM2.5,108,357,202
India,Bihar,Patna,"Muradpur, Patna - BSPCB",23-01-2024 01:00:00,25.619651,85.147382,SO2,2,9,5
India,Bihar,Purnia,"Mariam Nagar, Purnia - BSPCB",23-01-2024 01:00:00,25.366336,87.117468,PM10,90,280,154
India,Bihar,Purnia,"Mariam Nagar, Purnia - BSPCB",23-01-2024 01:00:00,25.366336,87.117468,NH3,1,1,1
India,Bihar,Purnia,"Mariam Nagar, Purnia - BSPCB",23-01-2024 01:00:00,25.366336,87.117468,CO,52,105,85
India,Bihar,Rajgir,"Dangi Tola, Rajgir - BSPCB",23-01-2024 01:00:00,25.03280,85.41948,NO2,10,84,31
India,Bihar,Rajgir,"Dangi Tola, Rajgir - BSPCB",23-01-2024 01:00:00,25.03280,85.41948,OZONE,22,26,23
India,Bihar,Saharsa,"Police Line, Saharsa - BSPCB",23-01-2024 01:00:00,25.892357,86.590325,NH3,NA,NA,NA
India,Bihar,Saharsa,"Police Line, Saharsa - BSPCB",23-01-2024 01:00:00,25.892357,86.590325,CO,14,80,46
India,Bihar,Samastipur,"DM Office_Kasipur, Samastipur - BSPCB",23-01-2024 01:00:00,25.859655,85.77944,NH3,2,5,5
India,Bihar,Samastipur,"DM Office_Kasipur, Samastipur - BSPCB",23-01-2024 01:00:00,25.859655,85.77944,SO2,4,13,10
India,Bihar,Samastipur,"DM Office_Kasipur, Samastipur - BSPCB",23-01-2024 01:00:00,25.859655,85.77944,CO,8,29,12
India,Bihar,Sasaram,"Dada Peer, Sasaram - BSPCB",23-01-2024 01:00:00,24.952822,84.002396,CO,24,76,41
India,Bihar,Siwan,"Chitragupta Nagar, Siwan - BSPCB",23-01-2024 01:00:00,26.2271665,84.3570427,NO2,16,52,27
India,Bihar,Siwan,"Chitragupta Nagar, Siwan - BSPCB",23-01-2024 01:00:00,26.2271665,84.3570427,NH3,2,6,3
India,Chandigarh,Chandigarh,"Sector 22, Chandigarh - CPCC",23-01-2024 01:00:00,30.735567,76.775714,PM10,177,385,277
India,Chandigarh,Chandigarh,"Sector-25, Chandigarh - CPCC",23-01-2024 01:00:00,30.751462,76.762879,PM2.5,292,333,318
India,Chandigarh,Chandigarh,"Sector-25, Chandigarh - CPCC",23-01-2024 01:00:00,30.751462,76.762879,PM10,181,284,226
India,Chandigarh,Chandigarh,"Sector-25, Chandigarh - CPCC",23-01-2024 01:00:00,30.751462,76.762879,OZONE,1,7,3
India,Chandigarh,Chandigarh,"Sector-53, Chandigarh - CPCC",23-01-2024 01:00:00,30.719859,76.738637,OZONE,12,29,18
India,Chhattisgarh,Bhilai,"32Bungalows, Bhilai - CECB",23-01-2024 01:00:00,21.194815,81.314770,SO2,9,11,10
India,Chhattisgarh,Bhilai,"32Bungalows, Bhilai - CECB",23-01-2024 01:00:00,21.194815,81.314770,OZONE,4,5,4
India,Chhattisgarh,Bhilai,"Civic Center, Bhilai - Bhilai Steel Plant",23-01-2024 01:00:00,21.185571,81.343175,NH3,2,3,2
India,Chhattisgarh,Bhilai,"Hathkhoj, Bhilai - CECB",23-01-2024 01:00:00,21.224231,81.408350,NH3,7,8,8
India,Chhattisgarh,Chhal,"Nawapara SECL Colony, Chhal - CECB",23-01-2024 01:00:00,22.118125,83.140608,NH3,2,2,2
India,Chhattisgarh,Korba,"Rampur, Korba - CECB",23-01-2024 01:00:00,22.368195,82.746431,OZONE,2,62,9
India,Chhattisgarh,Korba,"Urja Nagar, Korba - CECB",23-01-2024 01:00:00,22.348441,82.549611,PM2.5,12,67,34
India,Chhattisgarh,Korba,"Urja Nagar, Korba - CECB",23-01-2024 01:00:00,22.348441,82.549611,PM10,14,238,71
India,Chhattisgarh,Korba,"Urja Nagar, Korba - CECB",23-01-2024 01:00:00,22.348441,82.549611,NH3,2,10,5
India,Chhattisgarh,Kunjemura,"OP Jindal School, Kunjemura - CECB",23-01-2024 01:00:00,22.126650,83.483212,CO,24,59,39
India,Chhattisgarh,Milupara,"Govt. Higher Secondary School, Milupara - CECB",23-01-2024 01:00:00,22.1910172,83.5197009,PM2.5,21,49,32
India,Chhattisgarh,Milupara,"Govt. Higher Secondary School, Milupara - CECB",23-01-2024 01:00:00,22.1910172,83.5197009,SO2,7,15,10
India,Chhattisgarh,Milupara,"Govt. Higher Secondary School, Milupara - CECB",23-01-2024 01:00:00,22.1910172,83.5197009,OZONE,13,76,27
India,Chhattisgarh,Raipur,"Krishak Nagar, Raipur - CECB",23-01-2024 01:00:00,21.237755,81.705301,OZONE,3,4,4
India,Chhattisgarh,Tumidih,"OP Jindal Industrial Park, Tumidih - CECB",23-01-2024 01:00:00,22.06631475,83.33820077,CO,24,50,41
India,Delhi,Delhi,"Alipur, Delhi - DPCC",23-01-2024 01:00:00,28.815329,77.153010,PM2.5,242,422,350
India,Delhi,Delhi,"Alipur, Delhi - DPCC",23-01-2024 01:00:00,28.815329,77.153010,CO,46,107,87
India,Delhi,Delhi,"Anand Vihar, Delhi - DPCC",23-01-2024 01:00:00,28.647622,77.3158090,PM10,170,455,334
India,Delhi,Delhi,"Anand Vihar, Delhi - DPCC",23-01-2024 01:00:00,28.647622,77.3158090,SO2,5,23,16
India,Delhi,Delhi,"Anand Vihar, Delhi - DPCC",23-01-2024 01:00:00,28.647622,77.3158090,CO,42,104,75
India,Delhi,Delhi,"Ashok Vihar, Delhi - DPCC",23-01-2024 01:00:00,28.695381,77.181665,NO2,38,114,72
India,Delhi,Delhi,"Ashok Vihar, Delhi - DPCC",23-01-2024 01:00:00,28.695381,77.181665,NH3,6,11,8
India,Delhi,Delhi,"Bawana, Delhi - DPCC",23-01-2024 01:00:00,28.776200,77.051074,NO2,16,103,53
India,Delhi,Delhi,"CRRI Mathura Road, Delhi - IMD",23-01-2024 01:00:00,28.5512005,77.2735737,PM2.5,NA,NA,NA
India,Delhi,Delhi,"CRRI Mathura Road, Delhi - IMD",23-01-2024 01:00:00,28.5512005,77.2735737,NO2,NA,NA,NA
India,Delhi,Delhi,"DTU, Delhi - CPCB",23-01-2024 01:00:00,28.7500499,77.1112615,PM10,160,474,316
India,Delhi,Delhi,"Dr. Karni Singh Shooting Range, Delhi - DPCC",23-01-2024 01:00:00,28.498571,77.264840,PM2.5,321,412,368
India,Delhi,Delhi,"Dr. Karni Singh Shooting Range, Delhi - DPCC",23-01-2024 01:00:00,28.498571,77.264840,NO2,49,79,64
India,Delhi,Delhi,"Dwarka-Sector 8, Delhi - DPCC ",23-01-2024 01:00:00,28.5710274,77.0719006,PM2.5,320,421,373
India,Delhi,Delhi,"Dwarka-Sector 8, Delhi - DPCC ",23-01-2024 01:00:00,28.5710274,77.0719006,NO2,1,24,12
India,Delhi,Delhi,"Dwarka-Sector 8, Delhi - DPCC ",23-01-2024 01:00:00,28.5710274,77.0719006,SO2,4,10,7
India,Delhi,Delhi,"IGI Airport (T3), Delhi - IMD",23-01-2024 01:00:00,28.5627763,77.1180053,PM10,NA,NA,NA
India,Delhi,Delhi,"IHBAS, Dilshad Garden, Delhi - CPCB",23-01-2024 01:00:00,28.6811736,77.3025234,PM10,125,326,217
India,Delhi,Delhi,"Jahangirpuri, Delhi - DPCC",23-01-2024 01:00:00,28.732820,77.170633,PM2.5,302,500,395
India,Delhi,Delhi,"Jahangirpuri, Delhi - DPCC",23-01-2024 01:00:00,28.732820,77.170633,CO,14,105,82
India,Delhi,Delhi,"Jawaharlal Nehru Stadium, Delhi - DPCC",23-01-2024 01:00:00,28.580280,77.233829,PM10,161,411,273
India,Delhi,Delhi,"Major Dhyan Chand National Stadium, Delhi - DPCC",23-01-2024 01:00:00,28.611281,77.237738,NO2,51,111,69
India,Delhi,Delhi,"Major Dhyan Chand National Stadium, Delhi - DPCC",23-01-2024 01:00:00,28.611281,77.237738,CO,39,119,89
India,Delhi,Delhi,"Mandir Marg, Delhi - DPCC",23-01-2024 01:00:00,28.636429,77.201067,CO,2,100,75
India,Delhi,Delhi,"Mundka, Delhi - DPCC",23-01-2024 01:00:00,28.684678,77.076574,NH3,5,12,9
India,Delhi,Delhi,"NSIT Dwarka, Delhi - CPCB",23-01-2024 01:00:00,28.60909,77.0325413,PM10,219,403,303
India,Delhi,Delhi,"NSIT Dwarka, Delhi - CPCB",23-01-2024 01:00:00,28.60909,77.0325413,SO2,5,18,13
India,Delhi,Delhi,"NSIT Dwarka, Delhi - CPCB",23-01-2024 01:00:00,28.60909,77.0325413,CO,48,98,74
India,Delhi,Delhi,"NSIT Dwarka, Delhi - CPCB",23-01-2024 01:00:00,28.60909,77.0325413,OZONE,17,92,31
India,Delhi,Delhi,"Najafgarh, Delhi - DPCC",23-01-2024 01:00:00,28.570173,76.933762,NO2,17,56,36
India,Delhi,Delhi,"Nehru Nagar, Delhi - DPCC",23-01-2024 01:00:00,28.567890,77.250515,PM2.5,316,500,390
India,Delhi,Delhi,"Nehru Nagar, Delhi - DPCC",23-01-2024 01:00:00,28.567890,77.250515,NO2,32,71,46
India,Delhi,Delhi,"Nehru Nagar, Delhi - DPCC",23-01-2024 01:00:00,28.567890,77.250515,NH3,12,18,15
India,Delhi,Delhi,"North Campus, DU, Delhi - IMD",23-01-2024 01:00:00,28.6573814,77.1585447,NO2,NA,NA,NA
India,Delhi,Delhi,"North Campus, DU, Delhi - IMD",23-01-2024 01:00:00,28.6573814,77.1585447,OZONE,26,53,32
India,Delhi,Delhi,"Okhla Phase-2, Delhi - DPCC",23-01-2024 01:00:00,28.530785,77.271255,NH3,12,17,14
India,Delhi,Delhi,"Patparganj, Delhi - DPCC",23-01-2024 01:00:00,28.623763,77.287209,PM2.5,283,454,375
India,Delhi,Delhi,"Patparganj, Delhi - DPCC",23-01-2024 01:00:00,28.623763,77.287209,SO2,7,14,10
India,Delhi,Delhi,"Patparganj, Delhi - DPCC",23-01-2024 01:00:00,28.623763,77.287209,OZONE,1,7,4
India,Delhi,Delhi,"Pusa, Delhi - DPCC",23-01-2024 01:00:00,28.639652,77.146275,PM2.5,NA,NA,NA
India,Delhi,Delhi,"Pusa, Delhi - DPCC",23-01-2024 01:00:00,28.639652,77.146275,PM10,NA,NA,NA
India,Delhi,Delhi,"Pusa, Delhi - DPCC",23-01-2024 01:00:00,28.639652,77.146275,CO,46,102,71
India,Delhi,Delhi,"R K Puram, Delhi - DPCC",23-01-2024 01:00:00,28.563262,77.186937,SO2,14,26,20
India,Delhi,Delhi,"Rohini, Delhi - DPCC",23-01-2024 01:00:00,28.732528,77.119920,CO,30,117,90
India,Delhi,Delhi,"Shadipur, Delhi - CPCB",23-01-2024 01:00:00,28.6514781,77.1473105,SO2,6,14,10
India,Delhi,Delhi,"Sonia Vihar, Delhi - DPCC",23-01-2024 01:00:00,28.710508,77.249485,PM2.5,272,466,382
India,Delhi,Delhi,"Sonia Vihar, Delhi - DPCC",23-01-2024 01:00:00,28.710508,77.249485,CO,56,109,95
India,Delhi,Delhi,"Sri Aurobindo Marg, Delhi - DPCC",23-01-2024 01:00:00,28.531346,77.190156,PM2.5,312,414,367
India,Delhi,Delhi,"Sri Aurobindo Marg, Delhi - DPCC",23-01-2024 01:00:00,28.531346,77.190156,SO2,10,16,13
India,Delhi,Delhi,"Vivek Vihar, Delhi - DPCC",23-01-2024 01:00:00,28.672342,77.315260,NO2,37,90,61
India,Delhi,Delhi,"Vivek Vihar, Delhi - DPCC",23-01-2024 01:00:00,28.672342,77.315260,CO,24,106,79
India,Delhi,Delhi,"Wazirpur, Delhi - DPCC",23-01-2024 01:00:00,28.699793,77.165453,NO2,68,161,105
India,Delhi,Delhi,"Wazirpur, Delhi - DPCC",23-01-2024 01:00:00,28.699793,77.165453,SO2,10,91,36
India,Delhi,Delhi,"Wazirpur, Delhi - DPCC",23-01-2024 01:00:00,28.699793,77.165453,CO,20,104,77
India,Delhi,Delhi,"Wazirpur, Delhi - DPCC",23-01-2024 01:00:00,28.699793,77.165453,OZONE,3,92,25
India,Gujarat,Ahmedabad,"Gyaspur, Ahmedabad - IITM",23-01-2024 01:00:00,22.977134,72.553024,NO2,9,16,12
India,Gujarat,Ahmedabad,"Gyaspur, Ahmedabad - IITM",23-01-2024 01:00:00,22.977134,72.553024,CO,6,38,9
India,Gujarat,Ahmedabad,"Maninagar, Ahmedabad - GPCB",23-01-2024 01:00:00,23.002657,72.591912,PM10,65,500,181
India,Gujarat,Ahmedabad,"Raikhad, Ahmedabad - IITM",23-01-2024 01:00:00,23.020509,72.579261,NO2,15,17,16
India,Gujarat,Ahmedabad,"Raikhad, Ahmedabad - IITM",23-01-2024 01:00:00,23.020509,72.579261,OZONE,9,12,10
India,Gujarat,Ahmedabad,"Rakhial, Ahmedabad - IITM",23-01-2024 01:00:00,23.016834,72.625775,NO2,7,109,31
India,Gujarat,Ahmedabad,"SAC ISRO Bopal, Ahmedabad - IITM",23-01-2024 01:00:00,23.041137,72.456691,NH3,3,4,4
India,Gujarat,Ahmedabad,"SAC ISRO Bopal, Ahmedabad - IITM",23-01-2024 01:00:00,23.041137,72.456691,CO,17,40,19
India,Gujarat,Ahmedabad,"SVPI Airport Hansol, Ahmedabad - IITM",23-01-2024 01:00:00,23.076793,72.627874,NH3,3,3,3
India,Gujarat,Ahmedabad,"SVPI Airport Hansol, Ahmedabad - IITM",23-01-2024 01:00:00,23.076793,72.627874,CO,4,108,67
India,Gujarat,Ahmedabad,"Sardar Vallabhbhai Patel Stadium, Ahmedabad - IITM",23-01-2024 01:00:00,23.043070,72.562968,NH3,3,3,3
India,Gujarat,Ankleshwar,"GIDC, Ankleshwar - GPCB",23-01-2024 01:00:00,21.613267,73.010555,NH3,6,6,6
India,Gujarat,Ankleshwar,"GIDC, Ankleshwar - GPCB",23-01-2024 01:00:00,21.613267,73.010555,OZONE,20,29,25
India,Gujarat,Gandhinagar,"GIFT City, Gandhinagar - IITM",23-01-2024 01:00:00,23.163798,72.677768,NO2,9,11,10
India,Gujarat,Gandhinagar,"GIFT City, Gandhinagar - IITM",23-01-2024 01:00:00,23.163798,72.677768,NH3,2,3,3
India,Gujarat,Gandhinagar,"IIPHG Lekawada, Gandhinagar - IITM",23-01-2024 01:00:00,23.243639,72.68994,CO,38,80,61
India,Gujarat,Gandhinagar,"Sector-10, Gandhinagar - GPCB",23-01-2024 01:00:00,23.221714,72.654328,NO2,NA,NA,NA
India,Gujarat,Gandhinagar,"Sector-10, Gandhinagar - GPCB",23-01-2024 01:00:00,23.221714,72.654328,CO,19,20,20
India,Gujarat,Surat,"Science Center, Surat - SMC",23-01-2024 01:00:00,21.170046,72.795405,PM2.5,14,69,32
India,Gujarat,Vapi,"Phase-1 GIDC, Vapi - GPCB",23-01-2024 01:00:00,20.362421,72.918013,SO2,38,48,42
India,Gujarat,Vatva,"Phase-4 GIDC, Vatva - GPCB",23-01-2024 01:00:00,22.969611,72.643500,PM2.5,30,166,76
India,Gujarat,Vatva,"Phase-4 GIDC, Vatva - GPCB",23-01-2024 01:00:00,22.969611,72.643500,CO,38,40,40
India,Haryana,Ambala,"Patti Mehar, Ambala - HSPCB",23-01-2024 01:00:00,30.379589,76.778328,PM2.5,NA,NA,NA
India,Haryana,Ambala,"Patti Mehar, Ambala - HSPCB",23-01-2024 01:00:00,30.379589,76.778328,SO2,4,30,9
India,Haryana,Bahadurgarh,"Arya Nagar, Bahadurgarh - HSPCB",23-01-2024 01:00:00,28.6701,76.9254,PM10,123,239,171
India,Haryana,Ballabgarh,"Nathu Colony, Ballabgarh - HSPCB",23-01-2024 01:00:00,28.3419248,77.319699,NH3,1,2,2
India,Haryana,Bhiwani,"H.B. Colony, Bhiwani - HSPCB",23-01-2024 01:00:00,28.806223,76.141105,PM2.5,98,305,175
India,Haryana,Bhiwani,"H.B. Colony, Bhiwani - HSPCB",23-01-2024 01:00:00,28.806223,76.141105,NO2,7,10,9
India,Haryana,Bhiwani,"H.B. Colony, Bhiwani - HSPCB",23-01-2024 01:00:00,28.806223,76.141105,OZONE,16,21,19
India,Haryana,Charkhi Dadri,"Mini Secretariat, Charkhi Dadri - HSPCB",23-01-2024 01:00:00,28.593883,76.270653,NO2,9,14,11
India,Haryana,Dharuhera,"Municipal Corporation Office, Dharuhera -  HSPCB",23-01-2024 01:00:00,28.206800,76.799700,PM2.5,57,305,172
India,Haryana,Dharuhera,"Municipal Corporation Office, Dharuhera -  HSPCB",23-01-2024 01:00:00,28.206800,76.799700,SO2,9,16,14
India,Haryana,Faridabad,"New Industrial Town, Faridabad - HSPCB",23-01-2024 01:00:00,28.39072,77.30059,NH3,3,4,3
India,Haryana,Faridabad,"Sector 11, Faridabad - HSPCB",23-01-2024 01:00:00,28.376058,77.315741,NH3,NA,NA,NA
India,Haryana,Faridabad,"Sector 11, Faridabad - HSPCB",23-01-2024 01:00:00,28.376058,77.315741,SO2,NA,NA,NA
India,Haryana,Faridabad,"Sector 30, Faridabad - HSPCB",23-01-2024 01:00:00,28.4417,77.3217,NO2,30,32,31
India,Haryana,Faridabad,"Sector 30, Faridabad - HSPCB",23-01-2024 01:00:00,28.4417,77.3217,SO2,3,108,17
India,Haryana,Faridabad,"Sector 30, Faridabad - HSPCB",23-01-2024 01:00:00,28.4417,77.3217,CO,66,119,102
India,Haryana,Faridabad,"Sector- 16A, Faridabad - HSPCB",23-01-2024 01:00:00,28.4088421,77.3099081,NO2,1,44,25
India,Haryana,Fatehabad,"Huda Sector, Fatehabad - HSPCB",23-01-2024 01:00:00,29.503664,75.467934,PM2.5,136,246,202
India,Haryana,Fatehabad,"Huda Sector, Fatehabad - HSPCB",23-01-2024 01:00:00,29.503664,75.467934,OZONE,20,25,22
India,Haryana,Gurugram,"NISE Gwal Pahari, Gurugram - IMD",23-01-2024 01:00:00,28.422681,77.148944,PM10,NA,NA,NA
India,Haryana,Gurugram,"NISE Gwal Pahari, Gurugram - IMD",23-01-2024 01:00:00,28.422681,77.148944,CO,20,22,21
India,Haryana,Hisar,"Urban Estate-II, Hisar - HSPCB",23-01-2024 01:00:00,29.140560,75.744941,SO2,8,55,32
India,Haryana,Hisar,"Urban Estate-II, Hisar - HSPCB",23-01-2024 01:00:00,29.140560,75.744941,CO,40,61,54
India,Haryana,Kaithal,"Rishi Nagar, Kaithal - HSPCB",23-01-2024 01:00:00,29.8006,76.4155,PM10,128,178,148
India,Haryana,Kaithal,"Rishi Nagar, Kaithal - HSPCB",23-01-2024 01:00:00,29.8006,76.4155,SO2,11,30,18
India,Haryana,Kurukshetra,"Sector-7, Kurukshetra - HSPCB",23-01-2024 01:00:00,29.966942,76.875879,PM2.5,297,343,314
India,Haryana,Mandikhera,"General Hospital, Mandikhera - HSPCB",23-01-2024 01:00:00,27.9002,76.9938,OZONE,21,33,28
India,Haryana,Manesar,"Sector-2 IMT, Manesar - HSPCB",23-01-2024 01:00:00,28.360699,76.936090,PM10,68,190,150
India,Haryana,Manesar,"Sector-2 IMT, Manesar - HSPCB",23-01-2024 01:00:00,28.360699,76.936090,CO,16,46,32
India,Haryana,Narnaul,"Shastri Nagar, Narnaul - HSPCB",23-01-2024 01:00:00,28.060249,76.113115,NH3,5,16,11
India,Haryana,Palwal,"Shyam Nagar, Palwal - HSPCB",23-01-2024 01:00:00,28.1485564,77.3320667,PM2.5,23,67,39
India,Haryana,Palwal,"Shyam Nagar, Palwal - HSPCB",23-01-2024 01:00:00,28.1485564,77.3320667,NH3,2,3,3
India,Haryana,Palwal,"Shyam Nagar, Palwal - HSPCB",23-01-2024 01:00:00,28.1485564,77.3320667,SO2,6,24,16
India,Haryana,Panchkula,"Sector-6, Panchkula - HSPCB ",23-01-2024 01:00:00,30.7057778,76.8531805555555,NO2,28,31,30
India,Haryana,Panipat,"Sector-18, Panipat - HSPCB",23-01-2024 01:00:00,29.497973,76.993331,PM10,NA,NA,NA
India,Haryana,Panipat,"Sector-18, Panipat - HSPCB",23-01-2024 01:00:00,29.497973,76.993331,NH3,NA,NA,NA
India,Haryana,Panipat,"Sector-18, Panipat - HSPCB",23-01-2024 01:00:00,29.497973,76.993331,CO,23,27,25
India,Haryana,Panipat,"Sector-18, Panipat - HSPCB",23-01-2024 01:00:00,29.497973,76.993331,OZONE,30,34,32
India,Haryana,Rohtak,"MD University, Rohtak - HSPCB",23-01-2024 01:00:00,28.52123,76.37138,CO,12,64,32
India,Haryana,Sirsa,"F-Block, Sirsa - HSPCB",23-01-2024 01:00:00,29.536400,75.015800,OZONE,20,63,33
India,Haryana,Sonipat,"Murthal, Sonipat - HSPCB",23-01-2024 01:00:00,29.027200,77.062100,PM10,164,164,164
India,Haryana,Yamuna Nagar,"Gobind Pura, Yamuna Nagar - HSPCB",23-01-2024 01:00:00,30.1480566,77.2893471,PM10,120,225,157
India,Himachal Pradesh,Baddi,"HIMUDA Complex Phase-1, Baddi - HPPCB",23-01-2024 01:00:00,30.943887,76.801991,NO2,12,54,36
India,Himachal Pradesh,Baddi,"HIMUDA Complex Phase-1, Baddi - HPPCB",23-01-2024 01:00:00,30.943887,76.801991,NH3,5,8,6
India,Himachal Pradesh,Baddi,"HIMUDA Complex Phase-1, Baddi - HPPCB",23-01-2024 01:00:00,30.943887,76.801991,CO,15,103,91
India,Jharkhand,Dhanbad,"Kalakusuma, Dhanbad - DMC",23-01-2024 01:00:00,23.811548,86.481238,PM10,4,311,118
India,Jharkhand,Dhanbad,"Kalakusuma, Dhanbad - DMC",23-01-2024 01:00:00,23.811548,86.481238,OZONE,20,37,26
India,Jharkhand,Dhanbad,"Sardar Patel Nagar, Dhanbad - JSPCB",23-01-2024 01:00:00,23.80569,86.44268,PM2.5,NA,NA,NA
India,Jharkhand,Dhanbad,"Sardar Patel Nagar, Dhanbad - JSPCB",23-01-2024 01:00:00,23.80569,86.44268,SO2,NA,NA,NA
India,Jharkhand,Dhanbad,"Sardar Patel Nagar, Dhanbad - JSPCB",23-01-2024 01:00:00,23.80569,86.44268,OZONE,11,22,13
India,Jharkhand,Pathardih,"Mohalbani Ghat, Pathardih - DMC",23-01-2024 01:00:00,23.669880,86.411725,PM2.5,NA,NA,NA
India,Jharkhand,Pathardih,"Mohalbani Ghat, Pathardih - DMC",23-01-2024 01:00:00,23.669880,86.411725,NO2,NA,NA,NA
India,Jharkhand,Pathardih,"Mohalbani Ghat, Pathardih - DMC",23-01-2024 01:00:00,23.669880,86.411725,SO2,NA,NA,NA
India,Jharkhand,Pathardih,"Mohalbani Ghat, Pathardih - DMC",23-01-2024 01:00:00,23.669880,86.411725,CO,102,116,108
India,Karnataka,Bagalkot,"Vidayagiri, Bagalkot - KSPCB",23-01-2024 01:00:00,16.172806,75.659694,PM2.5,14,27,26
India,Karnataka,Bengaluru,"BTM Layout, Bengaluru - CPCB",23-01-2024 01:00:00,12.9135218,77.5950804,NH3,NA,NA,NA
India,Karnataka,Bengaluru,"Bapuji Nagar, Bengaluru - KSPCB",23-01-2024 01:00:00,12.951913,77.539784,NH3,1,1,1
India,Karnataka,Bengaluru,"City Railway Station, Bengaluru - KSPCB",23-01-2024 01:00:00,12.9756843,77.5660749,NO2,22,34,27
India,Karnataka,Bengaluru,"City Railway Station, Bengaluru - KSPCB",23-01-2024 01:00:00,12.9756843,77.5660749,CO,50,104,80
India,Karnataka,Bengaluru,"Hebbal, Bengaluru - KSPCB",23-01-2024 01:00:00,13.029152,77.585901,SO2,8,19,13
India,Karnataka,Bengaluru,"Hombegowda Nagar, Bengaluru - KSPCB",23-01-2024 01:00:00,12.938539,77.590100,PM2.5,29,79,52
India,Karnataka,Bengaluru,"Hombegowda Nagar, Bengaluru - KSPCB",23-01-2024 01:00:00,12.938539,77.590100,NH3,2,2,2
India,Karnataka,Bengaluru,"Hombegowda Nagar, Bengaluru - KSPCB",23-01-2024 01:00:00,12.938539,77.590100,CO,16,20,17
India,Karnataka,Bengaluru,"Jayanagar 5th Block, Bengaluru - KSPCB",23-01-2024 01:00:00,12.920984,77.584908,SO2,13,38,28
India,Karnataka,Bengaluru,"Jigani, Bengaluru - KSPCB",23-01-2024 01:00:00,12.7816279,77.6299145,PM2.5,23,126,61
India,Karnataka,Bengaluru,"Jigani, Bengaluru - KSPCB",23-01-2024 01:00:00,12.7816279,77.6299145,NO2,21,33,26
India,Karnataka,Bengaluru,"Jigani, Bengaluru - KSPCB",23-01-2024 01:00:00,12.7816279,77.6299145,CO,36,90,62
India,Karnataka,Bengaluru,"Kasturi Nagar, Bengaluru - KSPCB",23-01-2024 01:00:00,13.003872,77.664217,PM2.5,59,162,91
India,Karnataka,Bengaluru,"Kasturi Nagar, Bengaluru - KSPCB",23-01-2024 01:00:00,13.003872,77.664217,NO2,16,17,16
India,Karnataka,Bengaluru,"Kasturi Nagar, Bengaluru - KSPCB",23-01-2024 01:00:00,13.003872,77.664217,NH3,3,4,4
India,Karnataka,Bengaluru,"Peenya, Bengaluru - CPCB",23-01-2024 01:00:00,13.0270199,77.494094,PM2.5,32,32,32
India,Karnataka,Bengaluru,"RVCE-Mailasandra, Bengaluru - KSPCB",23-01-2024 01:00:00,12.921418,77.502466,NH3,4,4,4
India,Karnataka,Bengaluru,"Sanegurava Halli, Bengaluru - KSPCB",23-01-2024 01:00:00,12.990328,77.5431385,CO,6,40,20
India,Karnataka,Bengaluru,"Shivapura_Peenya, Bengaluru - KSPCB",23-01-2024 01:00:00,13.0246342,77.5080115,NH3,NA,NA,NA
India,Karnataka,Bengaluru,"Shivapura_Peenya, Bengaluru - KSPCB",23-01-2024 01:00:00,13.0246342,77.5080115,OZONE,NA,NA,NA
India,Karnataka,Bengaluru,"Silk Board, Bengaluru - KSPCB",23-01-2024 01:00:00,12.917348,77.622813,NO2,21,28,23
India,Karnataka,Bidar,"Naubad, Bidar - KSPCB",23-01-2024 01:00:00,17.930306,77.482194,NO2,7,8,8
India,Karnataka,Chamarajanagar,"Urban, Chamarajanagar - KSPCB",23-01-2024 01:00:00,11.55358,76.55521,NO2,24,36,30
India,Karnataka,Chamarajanagar,"Urban, Chamarajanagar - KSPCB",23-01-2024 01:00:00,11.55358,76.55521,SO2,2,8,4
India,Karnataka,Chamarajanagar,"Urban, Chamarajanagar - KSPCB",23-01-2024 01:00:00,11.55358,76.55521,OZONE,14,42,20
India,Karnataka,Chikkaballapur,"Chikkaballapur Rural, Chikkaballapur - KSPCB",23-01-2024 01:00:00,13.428828,77.731418,PM2.5,55,81,64
India,Karnataka,Chikkamagaluru,"Kalyana Nagara, Chikkamagaluru - KSPCB",23-01-2024 01:00:00,13.328028,75.797056,PM10,24,94,55
India,Karnataka,Chikkamagaluru,"Kalyana Nagara, Chikkamagaluru - KSPCB",23-01-2024 01:00:00,13.328028,75.797056,OZONE,17,89,59
India,Karnataka,Davanagere,"Devaraj Urs Badavane, Davanagere - KSPCB",23-01-2024 01:00:00,14.475800,75.905200,PM2.5,40,183,72
India,Karnataka,Gadag,"Panchal Nagar, Gadag - KSPCB",23-01-2024 01:00:00,15.411456,75.638133,PM2.5,17,48,33
India,Karnataka,Gadag,"Panchal Nagar, Gadag - KSPCB",23-01-2024 01:00:00,15.411456,75.638133,PM10,NA,NA,NA
India,Karnataka,Gadag,"Panchal Nagar, Gadag - KSPCB",23-01-2024 01:00:00,15.411456,75.638133,NO2,8,19,14
India,Karnataka,Haveri,"Ashwini Nagar, Haveri - KSPCB",23-01-2024 01:00:00,14.791800,75.389600,PM2.5,NA,NA,NA
India,Karnataka,Haveri,"Ashwini Nagar, Haveri - KSPCB",23-01-2024 01:00:00,14.791800,75.389600,CO,32,34,32
India,Karnataka,Hubballi,"Deshpande Nagar, Hubballi - KSPCB",23-01-2024 01:00:00,15.351773,75.140726,PM2.5,29,93,57
India,Karnataka,Hubballi,"Deshpande Nagar, Hubballi - KSPCB",23-01-2024 01:00:00,15.351773,75.140726,NO2,19,27,23
India,Karnataka,Hubballi,"Lingaraj Nagar, Hubballi - KSPCB",23-01-2024 01:00:00,15.3714823,75.1160168,PM10,48,83,67
India,Karnataka,Kalaburagi,"Lal Bahadur Shastri Nagar, Kalaburagi - KSPCB",23-01-2024 01:00:00,17.321993,76.822628,CO,35,57,44
India,Karnataka,Kalaburagi,"Mahatma Basaveswar Colony, Kalaburgi - KSPCB",23-01-2024 01:00:00,17.336318,76.847397,PM2.5,24,44,32
India,Karnataka,Koppal,"Diwator Nagar, Koppal - KSPCB",23-01-2024 01:00:00,15.347630,76.181767,NO2,NA,NA,NA
India,Karnataka,Mangalore,"Kadri, Mangalore - KSPCB",23-01-2024 01:00:00,12.889250,74.853000,NH3,2,3,3
India,Karnataka,Mangalore,"Kadri, Mangalore - KSPCB",23-01-2024 01:00:00,12.889250,74.853000,OZONE,30,32,31
India,Karnataka,Mysuru,"Hebbal 1st Stage, Mysuru - KSPCB",23-01-2024 01:00:00,12.21041,76.37376,CO,13,70,35
India,Karnataka,Mysuru,"Hebbal 1st Stage, Mysuru - KSPCB",23-01-2024 01:00:00,12.21041,76.37376,OZONE,9,85,39
India,Karnataka,Raichur,"Haji Colony, Raichur - KSPCB",23-01-2024 01:00:00,16.208139,77.348417,PM2.5,19,75,49
India,Karnataka,Raichur,"Haji Colony, Raichur - KSPCB",23-01-2024 01:00:00,16.208139,77.348417,NH3,NA,NA,NA
India,Karnataka,Ramanagara,"Vijay Nagar, Ramanagara - KSPCB",23-01-2024 01:00:00,12.733409,77.298051,PM10,37,50,43
India,Karnataka,Tumakuru,"Thimmalapura, Tumakuru - KSPCB",23-01-2024 01:00:00,13.377516,77.099072,SO2,8,14,10
India,Karnataka,Vijayapura,"Ibrahimpur, Vijayapura - KSPCB",23-01-2024 01:00:00,16.802639,75.722694,OZONE,13,16,15
India,Karnataka,Yadgir,"Collector Office, Yadgir - KSPCB",23-01-2024 01:00:00,16.7602,77.1428,NH3,1,1,1
India,Kerala,Eloor,"Udyogamandal, Eloor - Kerala PCB",23-01-2024 01:00:00,10.073232,76.302765,PM10,36,59,48
India,Kerala,Eloor,"Udyogamandal, Eloor - Kerala PCB",23-01-2024 01:00:00,10.073232,76.302765,SO2,1,15,3
India,Kerala,Kannur,"Thavakkara, Kannur - Kerala PCB",23-01-2024 01:00:00,11.875000,75.373200,PM2.5,43,51,48
India,Kerala,Kannur,"Thavakkara, Kannur - Kerala PCB",23-01-2024 01:00:00,11.875000,75.373200,SO2,5,6,5
India,Kerala,Kannur,"Thavakkara, Kannur - Kerala PCB",23-01-2024 01:00:00,11.875000,75.373200,CO,30,35,33
India,Kerala,Kochi,"Vyttila, Kochi - Kerala PCB",23-01-2024 01:00:00,9.969447,76.321186,NH3,2,3,3
India,Kerala,Kochi,"Vyttila, Kochi - Kerala PCB",23-01-2024 01:00:00,9.969447,76.321186,SO2,3,3,3
India,Kerala,Thiruvananthapuram,"Kariavattom, Thiruvananthapuram - Kerala PCB",23-01-2024 01:00:00,8.563700,76.886500,NH3,1,1,1
India,Kerala,Thiruvananthapuram,"Plammoodu, Thiruvananthapuram - Kerala PCB",23-01-2024 01:00:00,8.5149093,76.9435879,NH3,2,2,2
India,Kerala,Thrissur,"Corporation Ground, Thrissur - Kerala PCB",23-01-2024 01:00:00,10.532400,76.215900,NH3,1,1,1
India,Madhya Pradesh,Bhopal,"Idgah Hills, Bhopal - MPPCB",23-01-2024 01:00:00,23.264759,77.381568,NH3,2,5,4
India,Madhya Pradesh,Bhopal,"Paryavaran Parisar, Bhopal - MPPCB",23-01-2024 01:00:00,23.210494,77.425409,SO2,20,27,23
India,Madhya Pradesh,Damoh,"Shrivastav Colony, Damoh - MPPCB",23-01-2024 01:00:00,23.81748678,79.446246,PM2.5,NA,NA,NA
India,Madhya Pradesh,Dewas,"Bhopal Chauraha, Dewas - MPPCB",23-01-2024 01:00:00,22.9682591,76.064118,PM10,82,238,126
India,Madhya Pradesh,Dewas,"Bhopal Chauraha, Dewas - MPPCB",23-01-2024 01:00:00,22.9682591,76.064118,OZONE,23,85,31
India,Madhya Pradesh,Gwalior,"City Center, Gwalior - MPPCB",23-01-2024 01:00:00,26.203442,78.193251,OZONE,19,39,33
India,Madhya Pradesh,Gwalior,"Deen Dayal Nagar, Gwalior - MPPCB",23-01-2024 01:00:00,26.259242,78.216432,SO2,17,20,18
India,Madhya Pradesh,Gwalior,"Deen Dayal Nagar, Gwalior - MPPCB",23-01-2024 01:00:00,26.259242,78.216432,OZONE,8,58,53
India,Madhya Pradesh,Gwalior,"Phool Bagh, Gwalior - Mondelez Ind. Food",23-01-2024 01:00:00,26.210536,78.171,PM10,14,163,92
India,Madhya Pradesh,Indore,"Chhoti Gwaltoli, Indore - MPPCB",23-01-2024 01:00:00,22.4310,75.5213,CO,39,93,72
India,Madhya Pradesh,Indore,"Maguda Nagar, Indore - IMC",23-01-2024 01:00:00,22.7524,75.8872,PM2.5,56,347,107
India,Madhya Pradesh,Indore,"Residency Area, Indore - IMC",23-01-2024 01:00:00,22.7084,75.8815,NH3,NA,NA,NA
India,Madhya Pradesh,Jabalpur,"Govindh Bhavan Colony, Jabalpur - JMC",23-01-2024 01:00:00,23.163174,79.973061,PM2.5,37,137,70
India,Madhya Pradesh,Jabalpur,"Suhagi, Jabalpur - JMC",23-01-2024 01:00:00,23.218135,79.957770,PM10,61,197,120
India,Madhya Pradesh,Jabalpur,"Suhagi, Jabalpur - JMC",23-01-2024 01:00:00,23.218135,79.957770,NH3,3,4,4
India,Madhya Pradesh,Jabalpur,"Suhagi, Jabalpur - JMC",23-01-2024 01:00:00,23.218135,79.957770,CO,12,133,88
India,Madhya Pradesh,Katni,"Gole Bazar, Katni - MPPCB",23-01-2024 01:00:00,23.50016,80.23284,NO2,19,82,41
India,Madhya Pradesh,Katni,"Gole Bazar, Katni - MPPCB",23-01-2024 01:00:00,23.50016,80.23284,CO,24,94,56
India,Madhya Pradesh,Maihar,"Sahilara, Maihar - KJS Cements",23-01-2024 01:00:00,24.2613009,80.7231783,PM10,31,91,57
India,Madhya Pradesh,Pithampur,"Sector-2 Industrial Area, Pithampur - MPPCB",23-01-2024 01:00:00,22.624758,75.675238,PM2.5,82,308,190
India,Madhya Pradesh,Pithampur,"Sector-2 Industrial Area, Pithampur - MPPCB",23-01-2024 01:00:00,22.624758,75.675238,SO2,11,17,13
India,Madhya Pradesh,Ratlam,"Shasthri Nagar, Ratlam - IPCA Lab",23-01-2024 01:00:00,23.331731,75.045981,PM2.5,44,324,109
India,Madhya Pradesh,Ratlam,"Shasthri Nagar, Ratlam - IPCA Lab",23-01-2024 01:00:00,23.331731,75.045981,PM10,84,384,141
India,Madhya Pradesh,Sagar,"Civil Lines, Sagar - MPPCB",23-01-2024 01:00:00,23.838586,78.759431,PM10,37,141,86
India,Madhya Pradesh,Sagar,"Civil Lines, Sagar - MPPCB",23-01-2024 01:00:00,23.838586,78.759431,OZONE,39,48,43
India,Madhya Pradesh,Satna,"Bandhavgar Colony, Satna - Birla Cement",23-01-2024 01:00:00,24.58434363,80.8549414,PM2.5,1,31,9
India,Madhya Pradesh,Satna,"Bandhavgar Colony, Satna - Birla Cement",23-01-2024 01:00:00,24.58434363,80.8549414,NO2,5,15,8
India,Madhya Pradesh,Satna,"Bandhavgar Colony, Satna - Birla Cement",23-01-2024 01:00:00,24.58434363,80.8549414,SO2,3,19,8
India,Madhya Pradesh,Satna,"Bandhavgar Colony, Satna - Birla Cement",23-01-2024 01:00:00,24.58434363,80.8549414,CO,19,57,37
India,Madhya Pradesh,Singrauli,"Suryakiran Bhawan NCL, Singrauli - MPPCB",23-01-2024 01:00:00,24.108970,82.645580,NH3,1,2,2
India,Madhya Pradesh,Singrauli,"Suryakiran Bhawan NCL, Singrauli - MPPCB",23-01-2024 01:00:00,24.108970,82.645580,SO2,NA,NA,NA
India,Madhya Pradesh,Singrauli,"Suryakiran Bhawan NCL, Singrauli - MPPCB",23-01-2024 01:00:00,24.108970,82.645580,OZONE,18,20,19
India,Madhya Pradesh,Ujjain,"Mahakaleshwar Temple, Ujjain - MPPCB",23-01-2024 01:00:00,23.182719 ,75.768218 ,PM10,46,124,80
India,Madhya Pradesh,Ujjain,"Mahakaleshwar Temple, Ujjain - MPPCB",23-01-2024 01:00:00,23.182719 ,75.768218 ,NO2,7,80,26
India,Maharashtra,Akola,"Ramdaspeth, Akola - MPCB",23-01-2024 01:00:00,20.719516,77.000253,CO,26,103,55
India,Maharashtra,Akola,"Ramdaspeth, Akola - MPCB",23-01-2024 01:00:00,20.719516,77.000253,OZONE,8,82,36
India,Maharashtra,Amravati,"Shivneri Colony, Amravati - MPCB",23-01-2024 01:00:00,20.9402359,77.7895248,CO,21,44,32
India,Maharashtra,Amravati,"Shri Shivaji Science College, Amaravati - MPCB",23-01-2024 01:00:00,20.939198,77.765701,NO2,13,80,29
India,Maharashtra,Aurangabad,"Rachnakar Colony, Aurangabad - MPCB",23-01-2024 01:00:00,19.863756,75.321188,CO,22,70,46
India,Maharashtra,Badlapur,"Katrap, Badlapur - MPCB",23-01-2024 01:00:00,19.16485,73.23409,PM2.5,96,265,169
India,Maharashtra,Badlapur,"Katrap, Badlapur - MPCB",23-01-2024 01:00:00,19.16485,73.23409,SO2,16,47,23
India,Maharashtra,Badlapur,"Katrap, Badlapur - MPCB",23-01-2024 01:00:00,19.16485,73.23409,CO,26,98,48
India,Maharashtra,Belapur,"CBD Belapur, Belapur - MPCB",23-01-2024 01:00:00,19.0243902,73.0406721,PM2.5,74,244,128
India,Maharashtra,Belapur,"CBD Belapur, Belapur - MPCB",23-01-2024 01:00:00,19.0243902,73.0406721,CO,24,80,40
India,Maharashtra,Belapur,"CBD Belapur, Belapur - MPCB",23-01-2024 01:00:00,19.0243902,73.0406721,OZONE,2,165,60
India,Maharashtra,Bhiwandi,"Gokul Nagar, Bhiwandi - MPCB",23-01-2024 01:00:00,19.309073,73.057223,NH3,2,3,2
India,Maharashtra,Bhiwandi,"Gokul Nagar, Bhiwandi - MPCB",23-01-2024 01:00:00,19.309073,73.057223,SO2,5,25,12
India,Maharashtra,Bhiwandi,"Gokul Nagar, Bhiwandi - MPCB",23-01-2024 01:00:00,19.309073,73.057223,OZONE,10,79,40
India,Maharashtra,Chandrapur,"Chauhan Colony, Chandrapur - MPCB",23-01-2024 01:00:00,19.962900,79.298714,NH3,2,2,2
India,Maharashtra,Chandrapur,"Chauhan Colony, Chandrapur - MPCB",23-01-2024 01:00:00,19.962900,79.298714,SO2,6,48,15
India,Maharashtra,Chandrapur,"Chauhan Colony, Chandrapur - MPCB",23-01-2024 01:00:00,19.962900,79.298714,OZONE,2,21,18
India,Maharashtra,Chandrapur,"MIDC Khutala, Chandrapur - MPCB",23-01-2024 01:00:00,19.9775302,79.2337086,SO2,NA,NA,NA
India,Maharashtra,Dhule,"Deopur, Dhule - MPCB",23-01-2024 01:00:00,20.918946,74.776388,NH3,4,13,7
India,Maharashtra,Dhule,"Deopur, Dhule - MPCB",23-01-2024 01:00:00,20.918946,74.776388,OZONE,6,84,27
India,Maharashtra,Jalgaon,"Prabhat Colony, Jalgaon - MPCB",23-01-2024 01:00:00,21.001264,75.565602,PM2.5,75,500,176
India,Maharashtra,Kalyan,"Khadakpada, Kalyan - MPCB",23-01-2024 01:00:00,19.25292,73.142019,PM2.5,45,87,63
India,Maharashtra,Kalyan,"Khadakpada, Kalyan - MPCB",23-01-2024 01:00:00,19.25292,73.142019,SO2,16,41,26
India,Maharashtra,Kolhapur,"Shivaji University, Kolhapur - MPCB",23-01-2024 01:00:00,16.6870449,74.2505872,SO2,1,5,2
India,Maharashtra,Kolhapur,"Shivaji University, Kolhapur - MPCB",23-01-2024 01:00:00,16.6870449,74.2505872,CO,68,111,85
India,Maharashtra,Kolhapur,"Shivaji University, Kolhapur - MPCB",23-01-2024 01:00:00,16.6870449,74.2505872,OZONE,1,35,14
India,Maharashtra,Kolhapur,"Sinchan Bhavan, Kolhapur - MPCB",23-01-2024 01:00:00,16.7143745,74.2426398,OZONE,1,189,70
India,Maharashtra,Malegaon,"Mahesh Nagar, Malegaon - MPCB",23-01-2024 01:00:00,20.555712,74.529236,PM2.5,70,139,97
India,Maharashtra,Malegaon,"Mahesh Nagar, Malegaon - MPCB",23-01-2024 01:00:00,20.555712,74.529236,PM10,76,163,114
India,Maharashtra,Mira-Bhayandar,"Bhayandar West, Mira-Bhayandar - MPCB",23-01-2024 01:00:00,19.296481,72.840923,PM10,104,186,133
India,Maharashtra,Mumbai,"Bandra Kurla Complex, Mumbai - MPCB",23-01-2024 01:00:00,19.065931,72.862131,PM10,74,169,114
India,Maharashtra,Mumbai,"Bandra Kurla Complex, Mumbai - MPCB",23-01-2024 01:00:00,19.065931,72.862131,NH3,10,21,14
India,Maharashtra,Mumbai,"Borivali East, Mumbai - IITM",23-01-2024 01:00:00,19.23241,72.86895,PM10,73,141,101
India,Maharashtra,Mumbai,"Borivali East, Mumbai - IITM",23-01-2024 01:00:00,19.23241,72.86895,CO,1,78,3
India,Maharashtra,Mumbai,"Byculla, Mumbai - BMC",23-01-2024 01:00:00,18.9767,72.8380,NO2,21,85,49
India,Maharashtra,Mumbai,"Chakala-Andheri East, Mumbai - IITM",23-01-2024 01:00:00,19.11074,72.86084,NH3,2,7,4
India,Maharashtra,Mumbai,"Colaba, Mumbai - MPCB",23-01-2024 01:00:00,18.910000,72.820000,PM10,68,156,103
India,Maharashtra,Mumbai,"Colaba, Mumbai - MPCB",23-01-2024 01:00:00,18.910000,72.820000,NO2,18,42,26
India,Maharashtra,Mumbai,"Colaba, Mumbai - MPCB",23-01-2024 01:00:00,18.910000,72.820000,NH3,1,1,1
India,Maharashtra,Mumbai,"Colaba, Mumbai - MPCB",23-01-2024 01:00:00,18.910000,72.820000,CO,12,28,15
India,Maharashtra,Mumbai,"Colaba, Mumbai - MPCB",23-01-2024 01:00:00,18.910000,72.820000,OZONE,11,15,14
India,Maharashtra,Mumbai,"Deonar, Mumbai - IITM",23-01-2024 01:00:00,19.04946,72.9230,SO2,NA,NA,NA
India,Maharashtra,Mumbai,"Deonar, Mumbai - IITM",23-01-2024 01:00:00,19.04946,72.9230,CO,2,98,66
India,Maharashtra,Mumbai,"Deonar, Mumbai - IITM",23-01-2024 01:00:00,19.04946,72.9230,OZONE,16,79,38
India,Maharashtra,Mumbai,"Ghatkopar, Mumbai - BMC",23-01-2024 01:00:00,19.083694,72.920967,NH3,1,1,1
India,Maharashtra,Mumbai,"Kandivali East, Mumbai - MPCB",23-01-2024 01:00:00,19.205800,72.868200,CO,70,108,94
India,Maharashtra,Mumbai,"Kandivali West, Mumbai - BMC",23-01-2024 01:00:00,19.215859,72.831718,OZONE,1,66,37
India,Maharashtra,Mumbai,"Kherwadi_Bandra East, Mumbai - MPCB",23-01-2024 01:00:00,19.0632143,72.8456324,NO2,10,29,19
India,Maharashtra,Mumbai,"Kherwadi_Bandra East, Mumbai - MPCB",23-01-2024 01:00:00,19.0632143,72.8456324,OZONE,1,69,34
India,Maharashtra,Mumbai,"Khindipada-Bhandup West, Mumbai - IITM",23-01-2024 01:00:00,19.1653323,72.922099,CO,28,163,55
India,Maharashtra,Mumbai,"Malad West, Mumbai - IITM",23-01-2024 01:00:00,19.19709,72.82204,NH3,1,2,1
India,Maharashtra,Mumbai,"Mazgaon, Mumbai - IITM",23-01-2024 01:00:00,18.96702,72.84214,NH3,NA,NA,NA
India,Maharashtra,Mumbai,"Mazgaon, Mumbai - IITM",23-01-2024 01:00:00,18.96702,72.84214,CO,6,100,61
India,Maharashtra,Mumbai,"Mindspace-Malad West, Mumbai - MPCB",23-01-2024 01:00:00,19.1878657,72.8304069,SO2,3,21,10
India,Maharashtra,Mumbai,"Mulund West, Mumbai - MPCB",23-01-2024 01:00:00,19.1750,72.9419,PM2.5,43,96,61
India,Maharashtra,Mumbai,"Mulund West, Mumbai - MPCB",23-01-2024 01:00:00,19.1750,72.9419,SO2,14,15,15
India,Maharashtra,Mumbai,"Mulund West, Mumbai - MPCB",23-01-2024 01:00:00,19.1750,72.9419,CO,18,18,18
India,Maharashtra,Mumbai,"Navy Nagar-Colaba, Mumbai - IITM",23-01-2024 01:00:00,18.897756,72.813320,NO2,50,83,63
India,Maharashtra,Mumbai,"Navy Nagar-Colaba, Mumbai - IITM",23-01-2024 01:00:00,18.897756,72.813320,NH3,10,19,16
India,Maharashtra,Mumbai,"Navy Nagar-Colaba, Mumbai - IITM",23-01-2024 01:00:00,18.897756,72.813320,CO,10,115,24
India,Maharashtra,Mumbai,"Powai, Mumbai - MPCB",23-01-2024 01:00:00,19.137500,72.915056,SO2,17,18,17
India,Maharashtra,Mumbai,"Powai, Mumbai - MPCB",23-01-2024 01:00:00,19.137500,72.915056,CO,38,51,42
India,Maharashtra,Mumbai,"Sewri, Mumbai - BMC",23-01-2024 01:00:00,19.000084,72.856730,PM10,89,180,118
India,Maharashtra,Mumbai,"Sewri, Mumbai - BMC",23-01-2024 01:00:00,19.000084,72.856730,NO2,33,122,77
India,Maharashtra,Mumbai,"Shivaji Nagar, Mumbai - BMC",23-01-2024 01:00:00,19.060498,72.923356,PM2.5,75,301,133
India,Maharashtra,Mumbai,"Siddharth Nagar-Worli, Mumbai - IITM",23-01-2024 01:00:00,19.000083,72.813993,PM10,113,199,153
India,Maharashtra,Mumbai,"Sion, Mumbai - MPCB",23-01-2024 01:00:00,19.047000,72.874600,SO2,36,42,39
India,Maharashtra,Mumbai,"Sion, Mumbai - MPCB",23-01-2024 01:00:00,19.047000,72.874600,OZONE,11,18,13
India,Maharashtra,Mumbai,"Vasai West, Mumbai - MPCB",23-01-2024 01:00:00,19.383200,72.820400,NO2,NA,NA,NA
India,Maharashtra,Mumbai,"Vile Parle West, Mumbai - MPCB",23-01-2024 01:00:00,19.10861,72.83622,SO2,13,14,14
India,Maharashtra,Mumbai,"Worli, Mumbai - MPCB",23-01-2024 01:00:00,18.9936162,72.8128113,PM10,74,159,111
India,Maharashtra,Mumbai,"Worli, Mumbai - MPCB",23-01-2024 01:00:00,18.9936162,72.8128113,CO,34,36,34
India,Maharashtra,Nagpur,"Ambazari, Nagpur - MPCB",23-01-2024 01:00:00,21.121801,79.04952,NO2,16,81,34
India,Maharashtra,Nagpur,"Mahal, Nagpur - MPCB",23-01-2024 01:00:00,21.14472,79.107595,PM2.5,93,372,218
India,Maharashtra,Nashik,"Gangapur Road, Nashik - MPCB",23-01-2024 01:00:00,20.0073285,73.7762427,PM10,55,102,77
India,Maharashtra,Nashik,"Gangapur Road, Nashik - MPCB",23-01-2024 01:00:00,20.0073285,73.7762427,NO2,4,6,5
India,Maharashtra,Nashik,"Hirawadi, Nashik - MPCB",23-01-2024 01:00:00,20.021503,73.813844,NH3,1,2,1
India,Maharashtra,Nashik,"Hirawadi, Nashik - MPCB",23-01-2024 01:00:00,20.021503,73.813844,OZONE,18,113,55
India,Maharashtra,Nashik,"MIDC Ambad, Nashik - MPCB",23-01-2024 01:00:00,19.950220,73.731480,CO,36,64,42
India,Maharashtra,Nashik,"Pandav Nagari, Nashik - MPCB",23-01-2024 01:00:00,19.9591346,73.7788008,NO2,28,56,40
India,Maharashtra,Navi Mumbai,"Nerul, Navi Mumbai - MPCB",23-01-2024 01:00:00,19.008751,73.016620,NO2,23,42,34
India,Maharashtra,Navi Mumbai,"Nerul, Navi Mumbai - MPCB",23-01-2024 01:00:00,19.008751,73.016620,SO2,15,17,16
India,Maharashtra,Navi Mumbai,"Sanpada, Navi Mumbai - MPCB",23-01-2024 01:00:00,19.0575752,73.0151367,PM10,78,167,118
India,Maharashtra,Navi Mumbai,"Sanpada, Navi Mumbai - MPCB",23-01-2024 01:00:00,19.0575752,73.0151367,NO2,8,21,14
India,Maharashtra,Navi Mumbai,"Sanpada, Navi Mumbai - MPCB",23-01-2024 01:00:00,19.0575752,73.0151367,OZONE,5,178,62
India,Maharashtra,Navi Mumbai,"Tondare-Taloja, Navi Mumbai - MPCB",23-01-2024 01:00:00,19.0630,73.1209,CO,14,69,31
India,Maharashtra,Parbhani,"Masoom Colony, Parbhani - MPCB",23-01-2024 01:00:00,19.265594,76.761463,NO2,10,77,26
India,Maharashtra,Pimpri-Chinchwad,"Gavalinagar, Pimpri Chinchwad - MPCB",23-01-2024 01:00:00,18.63673,73.82487,PM2.5,53,224,134
India,Maharashtra,Pimpri-Chinchwad,"Gavalinagar, Pimpri Chinchwad - MPCB",23-01-2024 01:00:00,18.63673,73.82487,NH3,1,13,4
India,Maharashtra,Pimpri-Chinchwad,"Park Street Wakad, Pimpri Chinchwad - MPCB",23-01-2024 01:00:00,18.59051,73.77946,NH3,8,18,13
India,Maharashtra,Pimpri-Chinchwad,"Thergaon, Pimpri Chinchwad - MPCB",23-01-2024 01:00:00,18.616318,73.765797,SO2,4,10,6
India,Maharashtra,Pimpri-Chinchwad,"Thergaon, Pimpri Chinchwad - MPCB",23-01-2024 01:00:00,18.616318,73.765797,CO,24,54,30
India,Maharashtra,Pune,"Alandi, Pune - IITM",23-01-2024 01:00:00,18.675076,73.892743,PM2.5,41,192,95
India,Maharashtra,Pune,"Bhosari, Pune - IITM",23-01-2024 01:00:00,18.640051,73.848956,OZONE,3,33,20
India,Maharashtra,Pune,"Karve Road, Pune - MPCB",23-01-2024 01:00:00,18.5011743,73.8165527,PM10,110,130,123
India,Maharashtra,Pune,"Karve Road, Pune - MPCB",23-01-2024 01:00:00,18.5011743,73.8165527,NO2,2,2,2
India,Maharashtra,Pune,"Karve Road, Pune - MPCB",23-01-2024 01:00:00,18.5011743,73.8165527,OZONE,5,6,5
India,Maharashtra,Pune,"Katraj Dairy, Pune - MPCB",23-01-2024 01:00:00,18.454450,73.854155,SO2,4,13,8
India,Maharashtra,Pune,"Katraj Dairy, Pune - MPCB",23-01-2024 01:00:00,18.454450,73.854155,OZONE,1,36,23
India,Maharashtra,Pune,"Revenue Colony-Shivajinagar, Pune - IITM",23-01-2024 01:00:00,18.530085,73.849598,NH3,12,29,20
India,Maharashtra,Pune,"Savitribai Phule Pune University, Pune - MPCB",23-01-2024 01:00:00,18.547056,73.826908,SO2,1,7,4
India,Maharashtra,Pune,"Transport Nagar-Nigdi, Pune - IITM",23-01-2024 01:00:00,18.664282,73.763966,PM10,30,179,110
India,Maharashtra,Sangli,"Vijay Nagar, Sangli - MPCB",23-01-2024 01:00:00, 16.5038,74.3623,NO2,7,44,25
India,Maharashtra,Solapur,"Dnyaneshwar Nagar, Solapur - MPCB",23-01-2024 01:00:00,17.6336264,75.9132495,NO2,14,135,46
India,Maharashtra,Solapur,"Dnyaneshwar Nagar, Solapur - MPCB",23-01-2024 01:00:00,17.6336264,75.9132495,SO2,4,85,12
India,Maharashtra,Solapur,"Dnyaneshwar Nagar, Solapur - MPCB",23-01-2024 01:00:00,17.6336264,75.9132495,CO,14,100,48
India,Maharashtra,Solapur,"Ratandeep Housing Society, Solapur - MPCB",23-01-2024 01:00:00,17.65439,75.90649,PM10,66,257,120
India,Maharashtra,Solapur,"Ratandeep Housing Society, Solapur - MPCB",23-01-2024 01:00:00,17.65439,75.90649,NO2,21,130,50
India,Maharashtra,Solapur,"Solapur, Solapur - MPCB",23-01-2024 01:00:00,17.6599188,75.9063906,NO2,46,60,52
India,Maharashtra,Thane,"Kasarvadavali, Thane - MPCB",23-01-2024 01:00:00,19.26777,72.97182,PM10,139,217,170
India,Maharashtra,Thane,"Kasarvadavali, Thane - MPCB",23-01-2024 01:00:00,19.26777,72.97182,CO,18,56,32
India,Maharashtra,Thane,"Upvan Fort, Thane - MPCB",23-01-2024 01:00:00,19.222279,72.957979,OZONE,32,191,83
India,Maharashtra,Ulhasnagar,"Sidhi Vinayak Nagar, Ulhasnagar - MPCB",23-01-2024 01:00:00,19.235581,73.159121,PM10,104,424,181
India,Maharashtra,Virar,"Bolinj, Virar - MPCB",23-01-2024 01:00:00,19.4458210,72.7988231,PM2.5,84,181,111
India,Maharashtra,Virar,"Bolinj, Virar - MPCB",23-01-2024 01:00:00,19.4458210,72.7988231,NH3,1,10,5
India,Manipur,Imphal,"Manipur University, Imphal - Manipur PCB",23-01-2024 01:00:00,24.7524239,93.9286218,NO2,7,36,15
India,Meghalaya,Shillong,"JN Stadium, Shillong - Meghalaya PCB",23-01-2024 01:00:00,25.5803419,91.8942571,PM10,22,129,58
India,Mizoram,Aizawl,"Sikulpuikawn, Aizawl - Mizoram PCB",23-01-2024 01:00:00,23.7176342,92.7192841,PM10,27,104,63
India,Nagaland,Kohima,"PWD Juction, Kohima - NPCB",23-01-2024 01:00:00,25.6635413,94.0989878,NO2,3,4,4
India,Odisha,Balasore,"Kalidaspur, Balasore - OSPCB",23-01-2024 01:00:00,21.51161,86.89088,PM2.5,113,451,309
India,Odisha,Balasore,"Kalidaspur, Balasore - OSPCB",23-01-2024 01:00:00,21.51161,86.89088,PM10,109,457,210
India,Odisha,Balasore,"Kalidaspur, Balasore - OSPCB",23-01-2024 01:00:00,21.51161,86.89088,OZONE,5,86,26
India,Odisha,Barbil,"Forest Office, Barbil - OSPCB",23-01-2024 01:00:00,22.1166054,85.3945546,NH3,4,5,4
India,Odisha,Baripada,"Meher Colony, Baripada - OSPCB",23-01-2024 01:00:00,21.941841,86.728318,PM2.5,35,196,99
India,Odisha,Bhubaneswar,"Lingraj Mandir, Bhubaneswar - OSPCB",23-01-2024 01:00:00,20.240790,85.836784,PM2.5,223,493,328
India,Odisha,Bhubaneswar,"Lingraj Mandir, Bhubaneswar - OSPCB",23-01-2024 01:00:00,20.240790,85.836784,NO2,25,63,40
India,Odisha,Brajrajnagar,"GM Office, Brajrajnagar - OSPCB",23-01-2024 01:00:00,21.8004996,83.8396977,PM10,26,157,76
India,Odisha,Byasanagar,"Ferro Chrome Colony, Byasanagar - OSPCB",23-01-2024 01:00:00,20.94185,86.11510,NO2,18,65,31
India,Odisha,Keonjhar,"Jagamohanpur, Keonjhar - OSPCB",23-01-2024 01:00:00,21.643900,85.599355,PM2.5,55,270,117
India,Odisha,Nayagarh,"Dabuna, Nayagarh - OSPCB",23-01-2024 01:00:00,21.847279,85.416905,NO2,25,32,31
India,Odisha,Nayagarh,"Dabuna, Nayagarh - OSPCB",23-01-2024 01:00:00,21.847279,85.416905,NH3,2,5,4
India,Odisha,Rairangpur,"Divisional Forest Office, Rairangpur - OSPCB",23-01-2024 01:00:00,22.265816,86.174829,CO,19,45,30
India,Odisha,Rairangpur,"Divisional Forest Office, Rairangpur - OSPCB",23-01-2024 01:00:00,22.265816,86.174829,OZONE,4,71,37
India,Odisha,Rourkela,"Raghunathpali, Rourkela - OSPCB",23-01-2024 01:00:00,22.220833,84.809444,PM10,63,161,99
India,Odisha,Rourkela,"Raghunathpali, Rourkela - OSPCB",23-01-2024 01:00:00,22.220833,84.809444,NO2,29,152,60
India,Odisha,Rourkela,"Raghunathpali, Rourkela - OSPCB",23-01-2024 01:00:00,22.220833,84.809444,CO,20,90,52
India,Odisha,Rourkela,"Sector-2, Rourkela - OSPCB",23-01-2024 01:00:00,22.24500000,84.88111111,CO,15,64,34
India,Odisha,Suakati,"OMC Colony, Suakati - OSPCB",23-01-2024 01:00:00,21.606865,85.510538,NO2,NA,NA,NA
India,Odisha,Suakati,"OMC Colony, Suakati - OSPCB",23-01-2024 01:00:00,21.606865,85.510538,SO2,1,18,6
India,Odisha,Talcher,"Talcher Coalfields,Talcher - OSPCB",23-01-2024 01:00:00,20.9360711,85.1707021,NO2,42,48,46
India,Odisha,Tensa,"Barsua Iron Ore Mines, Tensa - OSPCB",23-01-2024 01:00:00,21.869985,85.167016,PM2.5,28,165,94
India,Odisha,Tensa,"Barsua Iron Ore Mines, Tensa - OSPCB",23-01-2024 01:00:00,21.869985,85.167016,SO2,13,21,15
India,Puducherry,Puducherry,"Jawahar Nagar, Puducherry - PPCC",23-01-2024 01:00:00,11.9309,79.8027,PM10,25,76,44
India,Punjab,Amritsar,"Golden Temple, Amritsar - PPCB",23-01-2024 01:00:00,31.620000,74.876512,SO2,19,22,21
India,Punjab,Bathinda,"Hardev Nagar, Bathinda - PPCB",23-01-2024 01:00:00,30.233011,74.907758,PM2.5,34,339,101
India,Punjab,Bathinda,"Hardev Nagar, Bathinda - PPCB",23-01-2024 01:00:00,30.233011,74.907758,NO2,32,33,33
India,Punjab,Jalandhar,"Civil Line, Jalandhar - PPCB",23-01-2024 01:00:00,31.321907,75.578914,PM2.5,86,165,117
India,Punjab,Jalandhar,"Civil Line, Jalandhar - PPCB",23-01-2024 01:00:00,31.321907,75.578914,NH3,4,4,4
India,Punjab,Khanna,"Kalal Majra, Khanna - PPCB",23-01-2024 01:00:00,30.736056 ,76.209694,PM10,52,158,110
India,Punjab,Khanna,"Kalal Majra, Khanna - PPCB",23-01-2024 01:00:00,30.736056 ,76.209694,CO,13,19,15
India,Punjab,Mandi Gobindgarh,"RIMT University, Mandi Gobindgarh - PPCB",23-01-2024 01:00:00,30.649961,76.331442,PM2.5,150,316,253
India,Punjab,Mandi Gobindgarh,"RIMT University, Mandi Gobindgarh - PPCB",23-01-2024 01:00:00,30.649961,76.331442,SO2,2,31,12
India,Punjab,Patiala,"Model Town, Patiala - PPCB",23-01-2024 01:00:00,30.349388,76.366642,PM10,129,164,143
India,Rajasthan,Ajmer,"Civil Lines,  Ajmer - RSPCB",23-01-2024 01:00:00,26.470859,74.646594,NO2,22,74,41
India,Rajasthan,Ajmer,"Civil Lines,  Ajmer - RSPCB",23-01-2024 01:00:00,26.470859,74.646594,OZONE,4,68,23
India,Rajasthan,Alwar,"Moti Doongri, Alwar - RSPCB",23-01-2024 01:00:00,27.554793,76.611536,PM2.5,58,194,126
India,Rajasthan,Alwar,"Moti Doongri, Alwar - RSPCB",23-01-2024 01:00:00,27.554793,76.611536,SO2,3,66,24
India,Rajasthan,Alwar,"Moti Doongri, Alwar - RSPCB",23-01-2024 01:00:00,27.554793,76.611536,OZONE,8,13,12
India,Rajasthan,Banswara,"Rati Talai, Banswara - RSPCB",23-01-2024 01:00:00,23.555190,74.440010,PM2.5,32,388,109
India,Rajasthan,Baran,"Bamboliya, Baran - RSPCB",23-01-2024 01:00:00,25.106006,76.469948,CO,2,20,4
India,Rajasthan,Barmer,"Railway Colony, Barmer - RSPCB",23-01-2024 01:00:00,25.747299,71.393989,NH3,5,9,7
India,Rajasthan,Bhiwadi,"RIICO Ind. Area III, Bhiwadi - RSPCB",23-01-2024 01:00:00,28.194909,76.862296,CO,1,109,68
India,Rajasthan,Bhiwadi,"RIICO Ind. Area III, Bhiwadi - RSPCB",23-01-2024 01:00:00,28.194909,76.862296,OZONE,5,8,7
India,Rajasthan,Bikaner,"MM Ground, Bikaner - RSPCB",23-01-2024 01:00:00,28.018792,73.292658,NH3,14,20,16
India,Rajasthan,Bundi,"New Colony, Bundi - RSPCB",23-01-2024 01:00:00,25.435774,75.644272,SO2,4,106,14
India,Rajasthan,Churu,"Subash Chowk, Churu - RSPCB",23-01-2024 01:00:00,28.296139,74.961696,PM2.5,79,302,161
India,Rajasthan,Churu,"Subash Chowk, Churu - RSPCB",23-01-2024 01:00:00,28.296139,74.961696,CO,64,96,73
India,Rajasthan,Dausa,"Khatikan Mohalla, Dausa - RSPCB",23-01-2024 01:00:00,26.895552,76.334753,PM10,157,320,218
India,Rajasthan,Dausa,"Khatikan Mohalla, Dausa - RSPCB",23-01-2024 01:00:00,26.895552,76.334753,NO2,19,58,31
India,Rajasthan,Dausa,"Khatikan Mohalla, Dausa - RSPCB",23-01-2024 01:00:00,26.895552,76.334753,SO2,4,72,8
India,Rajasthan,Dausa,"Khatikan Mohalla, Dausa - RSPCB",23-01-2024 01:00:00,26.895552,76.334753,OZONE,31,119,62
India,Rajasthan,Dungarpur,"Bhoiwada, Dungarpur - RSPCB",23-01-2024 01:00:00,23.837789,73.714926,NO2,19,79,43
India,Rajasthan,Dungarpur,"Bhoiwada, Dungarpur - RSPCB",23-01-2024 01:00:00,23.837789,73.714926,NH3,6,7,7
India,Rajasthan,Dungarpur,"Bhoiwada, Dungarpur - RSPCB",23-01-2024 01:00:00,23.837789,73.714926,CO,24,105,68
India,Rajasthan,Dungarpur,"Bhoiwada, Dungarpur - RSPCB",23-01-2024 01:00:00,23.837789,73.714926,OZONE,10,74,36
India,Rajasthan,Hanumangarh,"Housing Board, Hanumangarh - RSPCB",23-01-2024 01:00:00,29.610750,74.283608,NO2,17,82,37
India,Rajasthan,Jaipur,"Adarsh Nagar, Jaipur - RSPCB",23-01-2024 01:00:00,26.902909,75.836858,PM10,78,175,107
India,Rajasthan,Jaipur,"Adarsh Nagar, Jaipur - RSPCB",23-01-2024 01:00:00,26.902909,75.836858,CO,18,90,46
India,Rajasthan,Jaipur,"Adarsh Nagar, Jaipur - RSPCB",23-01-2024 01:00:00,26.902909,75.836858,OZONE,20,81,52
India,Rajasthan,Jaipur,"Mansarovar Sector-12, Jaipur - RSPCB",23-01-2024 01:00:00,26.843698,75.766894,CO,40,101,80
India,Rajasthan,Jaipur,"RIICO Sitapura, Jaipur - RSPCB",23-01-2024 01:00:00,26.786682,75.827928,OZONE,4,110,41
India,Rajasthan,Jaipur,"Sector-2 Murlipura, Jaipur - RSPCB",23-01-2024 01:00:00,26.960669,75.771817,NH3,1,10,4
India,Rajasthan,Jaipur,"Sector-2 Murlipura, Jaipur - RSPCB",23-01-2024 01:00:00,26.960669,75.771817,SO2,5,23,11
India,Rajasthan,Jaipur,"Sector-2 Murlipura, Jaipur - RSPCB",23-01-2024 01:00:00,26.960669,75.771817,OZONE,11,152,47
India,Rajasthan,Jaipur,"Shastri Nagar, Jaipur - RSPCB",23-01-2024 01:00:00,26.9502929,75.730943,NO2,26,133,65
India,Rajasthan,Jaipur,"Shastri Nagar, Jaipur - RSPCB",23-01-2024 01:00:00,26.9502929,75.730943,NH3,8,27,15
India,Rajasthan,Jaipur,"Shastri Nagar, Jaipur - RSPCB",23-01-2024 01:00:00,26.9502929,75.730943,CO,30,105,80
India,Rajasthan,Jaipur,"Shastri Nagar, Jaipur - RSPCB",23-01-2024 01:00:00,26.9502929,75.730943,OZONE,11,52,38
India,Rajasthan,Jaisalmer,"Sadar Bazar, Jaisalmer - RSPCB",23-01-2024 01:00:00,26.912329,70.909168,NO2,19,72,33
India,Rajasthan,Jaisalmer,"Sadar Bazar, Jaisalmer - RSPCB",23-01-2024 01:00:00,26.912329,70.909168,OZONE,6,105,58
India,Rajasthan,Jhalawar,"Rajlaxmi Nagar, Jhalawar - RSPCB",23-01-2024 01:00:00,24.588397,76.172782,PM10,41,401,128
India,Rajasthan,Jhalawar,"Rajlaxmi Nagar, Jhalawar - RSPCB",23-01-2024 01:00:00,24.588397,76.172782,CO,22,84,45
India,Rajasthan,Jhalawar,"Rajlaxmi Nagar, Jhalawar - RSPCB",23-01-2024 01:00:00,24.588397,76.172782,OZONE,5,84,52
India,Rajasthan,Jodhpur,"Collectorate, Jodhpur - RSPCB",23-01-2024 01:00:00,26.268249,73.0193853,PM2.5,18,500,216
India,Rajasthan,Jodhpur,"Collectorate, Jodhpur - RSPCB",23-01-2024 01:00:00,26.268249,73.0193853,OZONE,31,129,49
India,Rajasthan,Jodhpur,"Digari Kalan, Jodhpur - RSPCB",23-01-2024 01:00:00,26.295810,73.082283,NH3,4,12,6
India,Rajasthan,Jodhpur,"Jhalamand, Jodhpur - RSPCB",23-01-2024 01:00:00,26.215415,73.070156,PM10,56,465,188
India,Rajasthan,Jodhpur,"Jhalamand, Jodhpur - RSPCB",23-01-2024 01:00:00,26.215415,73.070156,NH3,5,16,9
India,Rajasthan,Jodhpur,"Jhalamand, Jodhpur - RSPCB",23-01-2024 01:00:00,26.215415,73.070156,SO2,4,19,8
India,Rajasthan,Jodhpur,"Mandor, Jodhpur - RSPCB",23-01-2024 01:00:00,26.358805,73.047444,PM2.5,21,339,140
India,Rajasthan,Jodhpur,"Samrat Ashok Udhyan, Jodhpur - RSPCB",23-01-2024 01:00:00,26.253384,72.976571,SO2,6,125,30
India,Rajasthan,Karauli,"Satyawati Vihar, Karauli - RSPCB",23-01-2024 01:00:00,26.506177,77.025989,SO2,10,19,15
India,Rajasthan,Kota,"Dhanmandi, Kota - RSPCB",23-01-2024 01:00:00,25.164090,75.858137,NO2,26,128,68
India,Rajasthan,Kota,"Nayapura, Kota - RSPCB",23-01-2024 01:00:00,25.196024,75.855668,CO,8,198,63
India,Rajasthan,Kota,"Nayapura, Kota - RSPCB",23-01-2024 01:00:00,25.196024,75.855668,OZONE,1,123,37
India,Rajasthan,Kota,"Shrinath Puram, Kota - RSPCB",23-01-2024 01:00:00,25.14389,75.821256,PM2.5,88,500,285
India,Rajasthan,Kota,"Shrinath Puram, Kota - RSPCB",23-01-2024 01:00:00,25.14389,75.821256,PM10,82,500,194
India,Rajasthan,Kota,"Shrinath Puram, Kota - RSPCB",23-01-2024 01:00:00,25.14389,75.821256,NO2,51,419,158
India,Rajasthan,Kota,"Shrinath Puram, Kota - RSPCB",23-01-2024 01:00:00,25.14389,75.821256,NH3,1,13,7
India,Rajasthan,Nagaur,"Karni Colony, Nagaur - RSPCB",23-01-2024 01:00:00,27.213494,73.734444,NH3,9,13,10
India,Rajasthan,Nagaur,"Karni Colony, Nagaur - RSPCB",23-01-2024 01:00:00,27.213494,73.734444,CO,28,91,42
India,Rajasthan,Pratapgarh,"Pragati Nagar, Pratapgarh - RSPCB",23-01-2024 01:00:00,24.041198,74.780702,NH3,4,8,6
India,Rajasthan,Pratapgarh,"Pragati Nagar, Pratapgarh - RSPCB",23-01-2024 01:00:00,24.041198,74.780702,SO2,1,8,2
India,Rajasthan,Rajsamand,"Dhoinda, Rajsamand - RSPCB",23-01-2024 01:00:00,25.036360,73.883502,OZONE,3,65,26
India,Rajasthan,Sawai Madhopur,"Sahu Nagar, Sawai Madhopur - RSPCB",23-01-2024 01:00:00,26.031443,76.359327,PM2.5,49,229,115
India,Rajasthan,Sawai Madhopur,"Sahu Nagar, Sawai Madhopur - RSPCB",23-01-2024 01:00:00,26.031443,76.359327,NO2,4,7,6
India,Rajasthan,Sirohi,"Vedhaynath Colony, Sirohi - RSPCB",23-01-2024 01:00:00,24.885261,72.857549,PM10,26,188,74
India,Rajasthan,Sri Ganganagar,"Old City, Sri Ganganagar - RSPCB",23-01-2024 01:00:00,29.931624,73.864511,SO2,3,11,6
India,Rajasthan,Tonk,"Shastri Nagar, Tonk - RSPCB",23-01-2024 01:00:00,26.159933,75.780517,PM2.5,93,405,185
India,Rajasthan,Udaipur,"Ashok Nagar, Udaipur - RSPCB",23-01-2024 01:00:00,24.5886166,73.6321397,SO2,16,88,29
India,Sikkim,Gangtok,"Zero Point GICI, Gangtok - SSPCB",23-01-2024 01:00:00,27.338530,88.614099,PM2.5,17,34,24
India,TamilNadu,Ariyalur,"Keelapalur, Ariyalur - TNPCB",23-01-2024 01:00:00,11.06825,79.07033,PM10,31,56,36
India,TamilNadu,Chengalpattu,"Crescent University, Chengalpattu - TNPCB",23-01-2024 01:00:00,12.8777316,80.0834807,PM10,NA,NA,NA
India,TamilNadu,Chennai,"Arumbakkam, Chennai - TNPCB",23-01-2024 01:00:00,13.0664,80.2112 ,NO2,7,49,19
India,TamilNadu,Chennai,"Arumbakkam, Chennai - TNPCB",23-01-2024 01:00:00,13.0664,80.2112 ,NH3,1,5,3
India,TamilNadu,Chennai,"Arumbakkam, Chennai - TNPCB",23-01-2024 01:00:00,13.0664,80.2112 ,SO2,1,26,6
India,TamilNadu,Chennai,"Gandhi Nagar_Ennore, Chennai - TNPCB",23-01-2024 01:00:00,13.218341,80.32027,NH3,NA,NA,NA
India,TamilNadu,Chennai,"Kodungaiyur, Chennai - TNPCB",23-01-2024 01:00:00,13.1278,80.2642,NO2,7,26,16
India,TamilNadu,Chennai,"Kodungaiyur, Chennai - TNPCB",23-01-2024 01:00:00,13.1278,80.2642,SO2,1,8,3
India,TamilNadu,Chennai,"Manali, Chennai - CPCB",23-01-2024 01:00:00,13.164544,80.26285,OZONE,8,14,11
India,TamilNadu,Chennai,"Perungudi, Chennai - TNPCB",23-01-2024 01:00:00,12.9533,80.2357,PM2.5,20,256,61
India,TamilNadu,Chennai,"Perungudi, Chennai - TNPCB",23-01-2024 01:00:00,12.9533,80.2357,CO,20,106,33
India,TamilNadu,Chennai,"Royapuram, Chennai - TNPCB",23-01-2024 01:00:00,13.1036,80.2909,PM2.5,22,132,44
India,TamilNadu,Chennai,"Royapuram, Chennai - TNPCB",23-01-2024 01:00:00,13.1036,80.2909,PM10,22,110,42
India,TamilNadu,Chennai,"Royapuram, Chennai - TNPCB",23-01-2024 01:00:00,13.1036,80.2909,NO2,13,34,22
India,TamilNadu,Chennai,"Royapuram, Chennai - TNPCB",23-01-2024 01:00:00,13.1036,80.2909,CO,14,62,26
India,TamilNadu,Chennai,"Velachery Res. Area, Chennai - CPCB",23-01-2024 01:00:00,13.0052189,80.2398125,SO2,11,11,11
India,TamilNadu,Chennai,"Velachery Res. Area, Chennai - CPCB",23-01-2024 01:00:00,13.0052189,80.2398125,CO,24,110,70
India,TamilNadu,Cuddalore,"Kudikadu, Cuddalore - TNPCB",23-01-2024 01:00:00,11.6829898,79.7532099,SO2,16,17,16
India,TamilNadu,Gummidipoondi,"Anthoni Pillai Nagar, Gummidipoondi - TNPCB",23-01-2024 01:00:00,13.4127,80.1081,NO2,11,14,12
India,TamilNadu,Kanchipuram,"Kilambi, Kanchipuram - TNPCB",23-01-2024 01:00:00,12.864618,79.659968,CO,NA,NA,NA
India,TamilNadu,Ooty,"Bombay Castel, Ooty - TNPCB",23-01-2024 01:00:00,11.4068288,76.7138973,NH3,NA,NA,NA
India,TamilNadu,Palkalaiperur,"Bharathidasan University, Palkalaiperur - TNPCB",23-01-2024 01:00:00,10.681158,78.741746,SO2,27,28,28
India,TamilNadu,Salem,"Sona College of Technology, Salem - TNPCB",23-01-2024 01:00:00,11.679111,78.125052,NH3,NA,NA,NA
India,TamilNadu,Thoothukudi,"Meelavittan, Thoothukudi - TNPCB",23-01-2024 01:00:00,8.816428 ,78.099039,PM10,27,63,42
India,TamilNadu,Thoothukudi,"Meelavittan, Thoothukudi - TNPCB",23-01-2024 01:00:00,8.816428 ,78.099039,OZONE,8,68,44
India,TamilNadu,Tirupur,"Kumaran College, Tirupur - TNPCB",23-01-2024 01:00:00,11.0973603,77.3228673,NO2,6,77,21
India,TamilNadu,Vellore,"Vasanthapuram, Vellore - TNPCB",23-01-2024 01:00:00,12.909494,79.131861,NO2,NA,NA,NA
India,TamilNadu,Virudhunagar,"Collectorate Office, Virudhunagar - TNPCB",23-01-2024 01:00:00,9.559382,77.948828,SO2,17,17,17
India,TamilNadu,Virudhunagar,"Collectorate Office, Virudhunagar - TNPCB",23-01-2024 01:00:00,9.559382,77.948828,CO,24,34,27
India,TamilNadu,Virudhunagar,"Collectorate Office, Virudhunagar - TNPCB",23-01-2024 01:00:00,9.559382,77.948828,OZONE,2,4,3
India,Telangana,Hyderabad,"Central University, Hyderabad - TSPCB",23-01-2024 01:00:00,17.460103,78.334361,NH3,2,5,4
India,Telangana,Hyderabad,"Central University, Hyderabad - TSPCB",23-01-2024 01:00:00,17.460103,78.334361,SO2,3,9,6
India,Telangana,Hyderabad,"Central University, Hyderabad - TSPCB",23-01-2024 01:00:00,17.460103,78.334361,OZONE,3,4,4
India,Telangana,Hyderabad,"ECIL Kapra, Hyderabad - TSPCB",23-01-2024 01:00:00,17.470431,78.566959,PM2.5,45,49,47
India,Telangana,Hyderabad,"ECIL Kapra, Hyderabad - TSPCB",23-01-2024 01:00:00,17.470431,78.566959,CO,8,36,11
India,Telangana,Hyderabad,"ECIL Kapra, Hyderabad - TSPCB",23-01-2024 01:00:00,17.470431,78.566959,OZONE,4,46,19
India,Telangana,Hyderabad,"ICRISAT Patancheru, Hyderabad - TSPCB",23-01-2024 01:00:00,17.518400,78.278777,PM2.5,32,82,49
India,Telangana,Hyderabad,"Kompally Municipal Office, Hyderabad - TSPCB",23-01-2024 01:00:00,17.544899,78.486949,PM2.5,30,92,55
India,Telangana,Hyderabad,"Kompally Municipal Office, Hyderabad - TSPCB",23-01-2024 01:00:00,17.544899,78.486949,PM10,40,78,56
India,Telangana,Hyderabad,"New Malakpet, Hyderabad - TSPCB",23-01-2024 01:00:00,17.37206,78.50864,OZONE,3,28,12
India,Telangana,Hyderabad,"Ramachandrapuram, Hyderabad - TSPCB",23-01-2024 01:00:00,17.528544,78.286195,PM10,63,88,78
India,Telangana,Hyderabad,"Ramachandrapuram, Hyderabad - TSPCB",23-01-2024 01:00:00,17.528544,78.286195,OZONE,18,44,25
India,Telangana,Hyderabad,"Sanathnagar, Hyderabad - TSPCB",23-01-2024 01:00:00,17.4559458,78.4332152,PM2.5,52,98,74
India,Telangana,Hyderabad,"Zoo Park, Hyderabad - TSPCB",23-01-2024 01:00:00,17.349694,78.451437,CO,18,62,47
India,Tripura,Agartala,"Bardowali, Agartala - Tripura SPCB",23-01-2024 01:00:00,23.8175497,91.2726974,CO,42,114,100
India,Uttar_Pradesh,Agra,"Rohta, Agra - UPPCB",23-01-2024 01:00:00,27.106972,78.000111,PM2.5,73,319,160
India,Uttar_Pradesh,Agra,"Rohta, Agra - UPPCB",23-01-2024 01:00:00,27.106972,78.000111,OZONE,17,20,17
India,Uttar_Pradesh,Agra,"Sanjay Palace, Agra - UPPCB",23-01-2024 01:00:00,27.19865833,78.00598056,CO,55,115,91
India,Uttar_Pradesh,Agra,"Sector-3B Avas Vikas Colony, Agra - UPPCB",23-01-2024 01:00:00,27.19412,77.96237,PM10,72,232,123
India,Uttar_Pradesh,Baghpat,"Sardar Patel Inter College, Baghpat - UPPCB",23-01-2024 01:00:00,28.964949,77.278761,PM2.5,176,338,257
India,Uttar_Pradesh,Baghpat,"Sardar Patel Inter College, Baghpat - UPPCB",23-01-2024 01:00:00,28.964949,77.278761,CO,45,98,84
India,Uttar_Pradesh,Bareilly,"Rajendra Nagar, Bareilly - UPPCB",23-01-2024 01:00:00,28.38910936,79.42963708,PM10,97,195,117
India,Uttar_Pradesh,Bareilly,"Rajendra Nagar, Bareilly - UPPCB",23-01-2024 01:00:00,28.38910936,79.42963708,OZONE,8,13,10
India,Uttar_Pradesh,Bulandshahr,"Yamunapuram, Bulandshahr - UPPCB",23-01-2024 01:00:00,28.406963,77.849831,PM10,110,269,165
India,Uttar_Pradesh,Bulandshahr,"Yamunapuram, Bulandshahr - UPPCB",23-01-2024 01:00:00,28.406963,77.849831,NO2,42,107,58
India,Uttar_Pradesh,Firozabad,"Nagla Bhau, Firozabad - UPPCB",23-01-2024 01:00:00,27.168897,78.376960,PM2.5,74,376,192
India,Uttar_Pradesh,Firozabad,"Nagla Bhau, Firozabad - UPPCB",23-01-2024 01:00:00,27.168897,78.376960,CO,18,54,30
India,Uttar_Pradesh,Firozabad,"Vibhab Nagar, Firozabad - UPPCB",23-01-2024 01:00:00,27.1594,78.3953,PM2.5,54,348,151
India,Uttar_Pradesh,Firozabad,"Vibhab Nagar, Firozabad - UPPCB",23-01-2024 01:00:00,27.1594,78.3953,NH3,2,2,2
India,Uttar_Pradesh,Firozabad,"Vibhab Nagar, Firozabad - UPPCB",23-01-2024 01:00:00,27.1594,78.3953,OZONE,19,22,20
India,Uttar_Pradesh,Ghaziabad,"Indirapuram, Ghaziabad - UPPCB",23-01-2024 01:00:00,28.646233,77.358075,PM10,142,466,287
India,Uttar_Pradesh,Ghaziabad,"Indirapuram, Ghaziabad - UPPCB",23-01-2024 01:00:00,28.646233,77.358075,NH3,5,7,6
India,Uttar_Pradesh,Ghaziabad,"Indirapuram, Ghaziabad - UPPCB",23-01-2024 01:00:00,28.646233,77.358075,OZONE,6,8,7
India,Uttar_Pradesh,Ghaziabad,"Loni, Ghaziabad - UPPCB",23-01-2024 01:00:00,28.757294,77.278792,NH3,2,16,6
India,Uttar_Pradesh,Ghaziabad,"Sanjay Nagar, Ghaziabad - UPPCB",23-01-2024 01:00:00,28.685382,77.453839,NH3,12,16,14
India,Uttar_Pradesh,Ghaziabad,"Vasundhara, Ghaziabad - UPPCB",23-01-2024 01:00:00,28.6603346,77.3572563,PM2.5,153,430,312
India,Uttar_Pradesh,Ghaziabad,"Vasundhara, Ghaziabad - UPPCB",23-01-2024 01:00:00,28.6603346,77.3572563,NH3,10,13,11
India,Uttar_Pradesh,Ghaziabad,"Vasundhara, Ghaziabad - UPPCB",23-01-2024 01:00:00,28.6603346,77.3572563,SO2,2,28,14
India,Uttar_Pradesh,Greater Noida,"Knowledge Park - III, Greater Noida - UPPCB",23-01-2024 01:00:00,28.47272,77.482000,NO2,18,65,38
India,Uttar_Pradesh,Greater Noida,"Knowledge Park - III, Greater Noida - UPPCB",23-01-2024 01:00:00,28.47272,77.482000,SO2,8,17,12
India,Uttar_Pradesh,Greater Noida,"Knowledge Park - V, Greater Noida - UPPCB",23-01-2024 01:00:00,28.557054,77.453663,NO2,15,38,23
India,Uttar_Pradesh,Hapur,"Anand Vihar, Hapur - UPPCB",23-01-2024 01:00:00,28.725645,77.749675,NH3,7,11,8
India,Uttar_Pradesh,Hapur,"Anand Vihar, Hapur - UPPCB",23-01-2024 01:00:00,28.725645,77.749675,OZONE,13,48,28
India,Uttar_Pradesh,Jhansi,"Shivaji Nagar, Jhansi - UPPCB",23-01-2024 01:00:00,25.4547,78.6039,CO,32,84,34
India,Uttar_Pradesh,Jhansi,"Shivaji Nagar, Jhansi - UPPCB",23-01-2024 01:00:00,25.4547,78.6039,OZONE,1,3,1
India,Uttar_Pradesh,Kanpur,"FTI Kidwai Nagar, Kanpur - UPPCB",23-01-2024 01:00:00,26.428282,80.327067,NO2,14,38,15
India,Uttar_Pradesh,Kanpur,"FTI Kidwai Nagar, Kanpur - UPPCB",23-01-2024 01:00:00,26.428282,80.327067,OZONE,3,13,4
India,Uttar_Pradesh,Khurja,"Kalindi Kunj, Khurja - UPPCB",23-01-2024 01:00:00,28.2348927,77.8683002,PM2.5,51,249,121
India,Uttar_Pradesh,Lucknow,"B R Ambedkar University, Lucknow - UPPCB",23-01-2024 01:00:00,26.766433,80.927299,PM10,89,439,164
India,Uttar_Pradesh,Lucknow,"Kendriya Vidyalaya, Lucknow - CPCB",23-01-2024 01:00:00,26.906111,80.948222,SO2,NA,NA,NA
India,Uttar_Pradesh,Lucknow,"Kukrail Picnic Spot-1, Lucknow - UPPCB",23-01-2024 01:00:00,26.90723,80.98579,OZONE,2,52,11
India,Uttar_Pradesh,Lucknow,"Lalbagh, Lucknow - CPCB",23-01-2024 01:00:00,26.8458805,80.9365541,PM10,169,500,241
India,Uttar_Pradesh,Lucknow,"Talkatora District Industries Center, Lucknow - CPCB",23-01-2024 01:00:00,26.83399722,80.8917361,OZONE,2,81,19
India,Uttar_Pradesh,Meerut,"Ganga Nagar, Meerut - UPPCB",23-01-2024 01:00:00,28.999264,77.7590354,NO2,NA,NA,NA
India,Uttar_Pradesh,Meerut,"Ganga Nagar, Meerut - UPPCB",23-01-2024 01:00:00,28.999264,77.7590354,NH3,NA,NA,NA
India,Uttar_Pradesh,Meerut,"Ganga Nagar, Meerut - UPPCB",23-01-2024 01:00:00,28.999264,77.7590354,SO2,NA,NA,NA
India,Uttar_Pradesh,Meerut,"Jai Bhim Nagar, Meerut - UPPCB",23-01-2024 01:00:00,28.9535882,77.7622941,NH3,7,10,9
India,Uttar_Pradesh,Meerut,"Jai Bhim Nagar, Meerut - UPPCB",23-01-2024 01:00:00,28.9535882,77.7622941,CO,49,96,76
India,Uttar_Pradesh,Meerut,"Pallavpuram Phase 2, Meerut - UPPCB",23-01-2024 01:00:00,29.063510,77.709723,PM2.5,140,343,213
India,Uttar_Pradesh,Moradabad,"Buddhi Vihar, Moradabad - UPPCB",23-01-2024 01:00:00,28.83526,78.74460,NO2,22,24,23
India,Uttar_Pradesh,Moradabad,"Employment Office, Moradabad - UPPCB",23-01-2024 01:00:00,28.88528,78.73880,NO2,23,26,24
India,Uttar_Pradesh,Moradabad,"Jigar Colony, Moradabad - UPPCB",23-01-2024 01:00:00,28.856664,78.772638,PM2.5,55,106,85
India,Uttar_Pradesh,Moradabad,"Jigar Colony, Moradabad - UPPCB",23-01-2024 01:00:00,28.856664,78.772638,NH3,5,5,5
India,Uttar_Pradesh,Moradabad,"Jigar Colony, Moradabad - UPPCB",23-01-2024 01:00:00,28.856664,78.772638,SO2,16,22,18
India,Uttar_Pradesh,Moradabad,"Jigar Colony, Moradabad - UPPCB",23-01-2024 01:00:00,28.856664,78.772638,CO,26,40,33
India,Uttar_Pradesh,Moradabad,"Kashiram Nagar, Moradabad - UPPCB",23-01-2024 01:00:00,28.849399,78.742362,PM2.5,69,278,120
India,Uttar_Pradesh,Moradabad,"Kashiram Nagar, Moradabad - UPPCB",23-01-2024 01:00:00,28.849399,78.742362,NO2,11,29,18
India,Uttar_Pradesh,Moradabad,"Kashiram Nagar, Moradabad - UPPCB",23-01-2024 01:00:00,28.849399,78.742362,NH3,4,4,4
India,Uttar_Pradesh,Moradabad,"Kashiram Nagar, Moradabad - UPPCB",23-01-2024 01:00:00,28.849399,78.742362,SO2,19,27,23
India,Uttar_Pradesh,Moradabad,"Transport Nagar, Moradabad - UPPCB",23-01-2024 01:00:00,28.802625,78.753728,NH3,6,6,6
India,Uttar_Pradesh,Noida,"Sector - 125, Noida - UPPCB",23-01-2024 01:00:00,28.5447608,77.3231257,CO,41,96,67
India,Uttar_Pradesh,Noida,"Sector - 62, Noida - IMD",23-01-2024 01:00:00,28.6245479,77.3577104,NO2,NA,NA,NA
India,Uttar_Pradesh,Noida,"Sector - 62, Noida - IMD",23-01-2024 01:00:00,28.6245479,77.3577104,OZONE,29,53,35
India,Uttar_Pradesh,Noida,"Sector-116, Noida - UPPCB",23-01-2024 01:00:00,28.569230,77.393848,NH3,6,12,8
India,Uttar_Pradesh,Prayagraj,"Jhunsi, Prayagraj - UPPCB",23-01-2024 01:00:00,25.425602,81.917152,PM2.5,44,233,86
India,Uttar_Pradesh,Prayagraj,"Motilal Nehru NIT, Prayagraj - UPPCB",23-01-2024 01:00:00,25.494,81.863,PM10,52,193,97
India,Uttar_Pradesh,Prayagraj,"Motilal Nehru NIT, Prayagraj - UPPCB",23-01-2024 01:00:00,25.494,81.863,NH3,6,7,7
India,Uttar_Pradesh,Prayagraj,"Motilal Nehru NIT, Prayagraj - UPPCB",23-01-2024 01:00:00,25.494,81.863,SO2,38,41,39
India,Uttar_Pradesh,Prayagraj,"Motilal Nehru NIT, Prayagraj - UPPCB",23-01-2024 01:00:00,25.494,81.863,CO,14,105,70
India,Uttar_Pradesh,Prayagraj,"Motilal Nehru NIT, Prayagraj - UPPCB",23-01-2024 01:00:00,25.494,81.863,OZONE,6,13,7
India,Uttar_Pradesh,Prayagraj,"Nagar Nigam, Prayagraj - UPPCB",23-01-2024 01:00:00,25.44919916 ,81.82735986 ,NO2,9,9,9
India,Uttar_Pradesh,Prayagraj,"Nagar Nigam, Prayagraj - UPPCB",23-01-2024 01:00:00,25.44919916 ,81.82735986 ,SO2,12,40,24
India,Uttar_Pradesh,Prayagraj,"Nagar Nigam, Prayagraj - UPPCB",23-01-2024 01:00:00,25.44919916 ,81.82735986 ,CO,16,108,75
India,Uttar_Pradesh,Prayagraj,"Nagar Nigam, Prayagraj - UPPCB",23-01-2024 01:00:00,25.44919916 ,81.82735986 ,OZONE,4,12,6
India,Uttar_Pradesh,Varanasi,"Ardhali Bazar, Varanasi - UPPCB",23-01-2024 01:00:00,25.3505986,82.9083074,PM10,48,161,90
India,Uttar_Pradesh,Varanasi,"Ardhali Bazar, Varanasi - UPPCB",23-01-2024 01:00:00,25.3505986,82.9083074,OZONE,18,36,27
India,Uttar_Pradesh,Varanasi,"Bhelupur, Varanasi - UPPCB",23-01-2024 01:00:00,25.301778,82.996789,PM10,46,117,84
India,Uttar_Pradesh,Varanasi,"Bhelupur, Varanasi - UPPCB",23-01-2024 01:00:00,25.301778,82.996789,OZONE,3,36,10
India,Uttar_Pradesh,Varanasi,"IESD Banaras Hindu University, Varanasi - UPPCB",23-01-2024 01:00:00,25.262326,82.995408,PM10,37,94,63
India,Uttar_Pradesh,Varanasi,"IESD Banaras Hindu University, Varanasi - UPPCB",23-01-2024 01:00:00,25.262326,82.995408,OZONE,1,1,1
India,Uttar_Pradesh,Vrindavan,"Omex Eternity, Vrindavan - UPPCB",23-01-2024 01:00:00,27.5714090,77.6557570,NH3,2,3,3
India,Uttarakhand,Dehradun,"Doon University, Dehradun - UKPCB",23-01-2024 01:00:00,30.269444,78.044167,SO2,1,1,1
India,Uttarakhand,Rishikesh,"Shivaji Nagar, Rishikesh - UKPCB",23-01-2024 01:00:00,30.075911,78.2859547,CO,46,57,51
India,West_Bengal,Asansol,"Asansol Court Area, Asansol - WBPCB",23-01-2024 01:00:00,23.685297,86.945968,PM2.5,241,394,303
India,West_Bengal,Asansol,"Asansol Court Area, Asansol - WBPCB",23-01-2024 01:00:00,23.685297,86.945968,NO2,27,97,45
India,West_Bengal,Barrackpore,"SVSPA Campus, Barrackpore - WBPCB",23-01-2024 01:00:00,22.7605581,88.3617589,PM10,116,379,188
India,West_Bengal,Durgapur,"Sidhu Kanhu Indoor Stadium, Durgapur - WBPCB",23-01-2024 01:00:00,23.5404352,87.2892225,PM10,120,211,155
India,West_Bengal,Durgapur,"Sidhu Kanhu Indoor Stadium, Durgapur - WBPCB",23-01-2024 01:00:00,23.5404352,87.2892225,CO,30,64,49
India,West_Bengal,Haldia,"Priyambada Housing Estate, Haldia - WBPCB",23-01-2024 01:00:00,22.06047,88.109737,NH3,4,5,4
India,West_Bengal,Howrah,"Belur Math, Howrah - WBPCB",23-01-2024 01:00:00,22.629801,88.352017,PM2.5,154,320,252
India,West_Bengal,Howrah,"Belur Math, Howrah - WBPCB",23-01-2024 01:00:00,22.629801,88.352017,NO2,15,47,34
India,West_Bengal,Howrah,"Belur Math, Howrah - WBPCB",23-01-2024 01:00:00,22.629801,88.352017,NH3,4,12,5
India,West_Bengal,Howrah,"Belur Math, Howrah - WBPCB",23-01-2024 01:00:00,22.629801,88.352017,CO,4,79,44
India,West_Bengal,Howrah,"Ghusuri, Howrah - WBPCB",23-01-2024 01:00:00,22.611968,88.347422,SO2,5,8,7
India,West_Bengal,Howrah,"Ghusuri, Howrah - WBPCB",23-01-2024 01:00:00,22.611968,88.347422,CO,14,84,52
India,West_Bengal,Kolkata,"Ballygunge, Kolkata - WBPCB",23-01-2024 01:00:00,22.5367507,88.3638022,NH3,5,20,11
India,West_Bengal,Kolkata,"Ballygunge, Kolkata - WBPCB",23-01-2024 01:00:00,22.5367507,88.3638022,OZONE,5,78,23
India,West_Bengal,Kolkata,"Jadavpur, Kolkata - WBPCB",23-01-2024 01:00:00,22.49929,88.36917,NO2,4,35,9
India,West_Bengal,Kolkata,"Jadavpur, Kolkata - WBPCB",23-01-2024 01:00:00,22.49929,88.36917,SO2,3,8,5
India,West_Bengal,Kolkata,"Rabindra Bharati University, Kolkata - WBPCB",23-01-2024 01:00:00,22.627847,88.380669,CO,28,66,46
India,West_Bengal,Kolkata,"Victoria, Kolkata - WBPCB",23-01-2024 01:00:00,22.5448082,88.3403691,PM2.5,236,341,302
India,West_Bengal,Kolkata,"Victoria, Kolkata - WBPCB",23-01-2024 01:00:00,22.5448082,88.3403691,PM10,139,204,168
India,West_Bengal,Kolkata,"Victoria, Kolkata - WBPCB",23-01-2024 01:00:00,22.5448082,88.3403691,NO2,1,15,6
India,West_Bengal,Kolkata,"Victoria, Kolkata - WBPCB",23-01-2024 01:00:00,22.5448082,88.3403691,NH3,1,2,1
India,West_Bengal,Kolkata,"Victoria, Kolkata - WBPCB",23-01-2024 01:00:00,22.5448082,88.3403691,CO,27,101,74
India,Andhra_Pradesh,Amaravati,"Secretariat, Amaravati - APPCB",23-01-2024 01:00:00,16.5150833,80.5181667,SO2,11,13,12
India,Andhra_Pradesh,Anantapur,"Gulzarpet, Anantapur - APPCB",23-01-2024 01:00:00,14.675886,77.593027,PM2.5,35,61,47
India,Andhra_Pradesh,Anantapur,"Gulzarpet, Anantapur - APPCB",23-01-2024 01:00:00,14.675886,77.593027,NO2,18,49,29
India,Andhra_Pradesh,Anantapur,"Gulzarpet, Anantapur - APPCB",23-01-2024 01:00:00,14.675886,77.593027,CO,26,57,34
India,Andhra_Pradesh,Chittoor,"Gangineni Cheruvu, Chittoor - APPCB",23-01-2024 01:00:00,13.204880,79.097889,NH3,NA,NA,NA
India,Andhra_Pradesh,Rajamahendravaram,"Anand Kala Kshetram, Rajamahendravaram - APPCB",23-01-2024 01:00:00,16.9872867,81.7363176,CO,2,75,15
India,Andhra_Pradesh,Tirupati,"Tirumala, Tirupati - APPCB",23-01-2024 01:00:00,13.67,79.35,PM10,48,93,63
India,Andhra_Pradesh,Tirupati,"Tirumala, Tirupati - APPCB",23-01-2024 01:00:00,13.67,79.35,CO,36,54,43
India,Andhra_Pradesh,Tirupati,"Vaikuntapuram, Tirupati - APPCB",23-01-2024 01:00:00,13.615387,79.409230,NH3,2,4,3
India,Andhra_Pradesh,Tirupati,"Vaikuntapuram, Tirupati - APPCB",23-01-2024 01:00:00,13.615387,79.409230,CO,8,16,12
India,Andhra_Pradesh,Tirupati,"Vaikuntapuram, Tirupati - APPCB",23-01-2024 01:00:00,13.615387,79.409230,OZONE,1,47,35
India,Andhra_Pradesh,Vijayawada,"HB Colony, Vijayawada - APPCB",23-01-2024 01:00:00,16.536107,80.594233,OZONE,NA,NA,NA
India,Andhra_Pradesh,Vijayawada,"Rajiv Gandhi Park, Vijayawada - APPCB",23-01-2024 01:00:00,16.509717,80.612222,SO2,NA,NA,NA
India,Andhra_Pradesh,Vijayawada,"Rajiv Gandhi Park, Vijayawada - APPCB",23-01-2024 01:00:00,16.509717,80.612222,OZONE,NA,NA,NA
India,Andhra_Pradesh,Visakhapatnam,"GVM Corporation, Visakhapatnam - APPCB",23-01-2024 01:00:00,17.72,83.3,NH3,2,6,4
India,Arunachal_Pradesh,Naharlagun,"Naharlagun, Naharlagun - APSPCB",23-01-2024 01:00:00,27.103358,93.679645,PM2.5,NA,NA,NA
India,Assam,Byrnihat,"Central Academy for SFS, Byrnihat - PCBA",23-01-2024 01:00:00,26.071318,91.87488,OZONE,5,8,6
India,Assam,Guwahati,"LGBI Airport, Guwahati - PCBA",23-01-2024 01:00:00,26.10887,91.589544,PM10,171,421,299
India,Assam,Guwahati,"LGBI Airport, Guwahati - PCBA",23-01-2024 01:00:00,26.10887,91.589544,SO2,13,16,14
India,Assam,Guwahati,"LGBI Airport, Guwahati - PCBA",23-01-2024 01:00:00,26.10887,91.589544,OZONE,1,58,15
India,Assam,Guwahati,"Pan Bazaar, Guwahati - PCBA",23-01-2024 01:00:00,26.187500,91.744194,NO2,1,13,5
India,Assam,Guwahati,"Railway Colony, Guwahati - PCBA",23-01-2024 01:00:00,26.181742,91.78063,NO2,3,3,3
India,Assam,Nagaon,"Christianpatty, Nagaon - PCBA",23-01-2024 01:00:00,26.349082,92.68449,PM10,103,500,232
India,Assam,Nalbari,"Bata Chowk, Nalbari - PCBA",23-01-2024 01:00:00,26.446912,91.439057,PM2.5,220,457,327
India,Assam,Nalbari,"Bata Chowk, Nalbari - PCBA",23-01-2024 01:00:00,26.446912,91.439057,NO2,9,38,24
India,Assam,Silchar,"Tarapur, Silchar - PCBA",23-01-2024 01:00:00,24.82827,92.79525,PM10,54,65,57
India,Assam,Silchar,"Tarapur, Silchar - PCBA",23-01-2024 01:00:00,24.82827,92.79525,NO2,27,38,33
India,Assam,Silchar,"Tarapur, Silchar - PCBA",23-01-2024 01:00:00,24.82827,92.79525,NH3,1,1,1
India,Assam,Sivasagar,"Girls College, Sivasagar - PCBA",23-01-2024 01:00:00,26.987634,94.636574,NH3,3,3,3
India,Bihar,Arrah,"New DM Office, Arrah - BSPCB",23-01-2024 01:00:00,25.5626095,84.663264,PM2.5,NA,NA,NA
India,Bihar,Bhagalpur,"DM Office_Kachari Chowk, Bhagalpur - BSPCB",23-01-2024 01:00:00,25.251013,86.989001,PM10,132,302,185
India,Bihar,Bhagalpur,"DM Office_Kachari Chowk, Bhagalpur - BSPCB",23-01-2024 01:00:00,25.251013,86.989001,NO2,19,62,40
India,Bihar,Bhagalpur,"Mayaganj, Bhagalpur - BSPCB",23-01-2024 01:00:00,25.265194,87.012947,CO,8,11,9
India,Bihar,Bihar Sharif,"D M Colony, Bihar Sharif - BSPCB",23-01-2024 01:00:00,25.204762,85.514960,NH3,2,2,2
India,Bihar,Bihar Sharif,"D M Colony, Bihar Sharif - BSPCB",23-01-2024 01:00:00,25.204762,85.514960,OZONE,3,32,15
India,Bihar,Chhapra,"Darshan Nagar, Chhapra - BSPCB",23-01-2024 01:00:00,25.7808257,84.7446768,NO2,15,31,23
India,Bihar,Chhapra,"Darshan Nagar, Chhapra - BSPCB",23-01-2024 01:00:00,25.7808257,84.7446768,SO2,8,40,23
India,Bihar,Chhapra,"Darshan Nagar, Chhapra - BSPCB",23-01-2024 01:00:00,25.7808257,84.7446768,OZONE,1,4,1
India,Bihar,Gaya,"Collectorate, Gaya - BSPCB",23-01-2024 01:00:00,24.7955,84.9994,PM2.5,163,446,291
India,Bihar,Gaya,"Kareemganj, Gaya - BSPCB",23-01-2024 01:00:00,24.792403,84.992416,SO2,8,14,11
India,Bihar,Hajipur,"Industrial Area, Hajipur - BSPCB",23-01-2024 01:00:00,25.697189,85.245900,NO2,23,71,45
India,Bihar,Hajipur,"Industrial Area, Hajipur - BSPCB",23-01-2024 01:00:00,25.697189,85.245900,NH3,2,15,10
India,Bihar,Katihar,"Mirchaibari, Katihar - BSPCB",23-01-2024 01:00:00,25.560083,87.553265,CO,32,39,32
India,Bihar,Manguraha,"Forest Rest House, Manguraha - BSPCB",23-01-2024 01:00:00,27.308328,84.531742,PM2.5,53,90,71
India,Bihar,Manguraha,"Forest Rest House, Manguraha - BSPCB",23-01-2024 01:00:00,27.308328,84.531742,NO2,6,13,10
India,Bihar,Manguraha,"Forest Rest House, Manguraha - BSPCB",23-01-2024 01:00:00,27.308328,84.531742,SO2,NA,NA,NA
India,Bihar,Manguraha,"Forest Rest House, Manguraha - BSPCB",23-01-2024 01:00:00,27.308328,84.531742,CO,2,18,5
India,Bihar,Motihari,"Gandak Colony, Motihari - BSPCB",23-01-2024 01:00:00,26.63086,84.90051,PM2.5,57,283,120
India,Bihar,Motihari,"Gandak Colony, Motihari - BSPCB",23-01-2024 01:00:00,26.63086,84.90051,SO2,1,2,1
India,Bihar,Munger,"Town Hall, Munger - BSPCB",23-01-2024 01:00:00,25.376776,86.471523,NH3,1,2,2
India,Bihar,Munger,"Town Hall, Munger - BSPCB",23-01-2024 01:00:00,25.376776,86.471523,CO,30,62,49
India,Bihar,Muzaffarpur,"Buddha Colony, Muzaffarpur - BSPCB",23-01-2024 01:00:00,26.11442,85.39813,NH3,15,21,18
India,Bihar,Muzaffarpur,"Buddha Colony, Muzaffarpur - BSPCB",23-01-2024 01:00:00,26.11442,85.39813,SO2,6,64,19
India,Bihar,Muzaffarpur,"MIT-Daudpur Kothi, Muzaffarpur - BSPCB",23-01-2024 01:00:00,26.1403345,85.3650192,PM2.5,50,500,249
India,Bihar,Muzaffarpur,"MIT-Daudpur Kothi, Muzaffarpur - BSPCB",23-01-2024 01:00:00,26.1403345,85.3650192,NH3,3,5,4
India,Bihar,Muzaffarpur,"Muzaffarpur Collectorate, Muzaffarpur - BSPCB",23-01-2024 01:00:00,26.1209,85.3647,PM2.5,83,365,207
India,Bihar,Patna,"DRM Office Danapur, Patna - BSPCB",23-01-2024 01:00:00,25.586562,85.043586,PM2.5,NA,NA,NA
India,Bihar,Patna,"DRM Office Danapur, Patna - BSPCB",23-01-2024 01:00:00,25.586562,85.043586,SO2,7,10,8
India,Bihar,Patna,"Govt. High School Shikarpur, Patna - BSPCB",23-01-2024 01:00:00,25.592539,85.227158,PM2.5,160,388,256
India,Bihar,Patna,"Govt. High School Shikarpur, Patna - BSPCB",23-01-2024 01:00:00,25.592539,85.227158,SO2,2,9,4
India,Bihar,Patna,"Muradpur, Patna - BSPCB",23-01-2024 01:00:00,25.619651,85.147382,PM10,321,500,395
India,Bihar,Patna,"Muradpur, Patna - BSPCB",23-01-2024 01:00:00,25.619651,85.147382,NO2,1,10,6
India,Bihar,Patna,"Muradpur, Patna - BSPCB",23-01-2024 01:00:00,25.619651,85.147382,NH3,1,2,1
India,Bihar,Patna,"Muradpur, Patna - BSPCB",23-01-2024 01:00:00,25.619651,85.147382,CO,42,126,98
India,Bihar,Patna,"Rajbansi Nagar, Patna - BSPCB",23-01-2024 01:00:00,25.599486,85.113666,PM2.5,164,378,280
India,Bihar,Patna,"Rajbansi Nagar, Patna - BSPCB",23-01-2024 01:00:00,25.599486,85.113666,PM10,121,448,270
India,Bihar,Patna,"Samanpura, Patna - BSPCB",23-01-2024 01:00:00,25.596727,85.085624,PM10,192,500,308
India,Bihar,Rajgir,"Dangi Tola, Rajgir - BSPCB",23-01-2024 01:00:00,25.03280,85.41948,PM10,114,407,194
India,Bihar,Rajgir,"Dangi Tola, Rajgir - BSPCB",23-01-2024 01:00:00,25.03280,85.41948,SO2,5,62,12
India,Bihar,Rajgir,"Dangi Tola, Rajgir - BSPCB",23-01-2024 01:00:00,25.03280,85.41948,CO,12,113,49
India,Bihar,Samastipur,"DM Office_Kasipur, Samastipur - BSPCB",23-01-2024 01:00:00,25.859655,85.77944,PM2.5,60,372,175
India,Bihar,Sasaram,"Dada Peer, Sasaram - BSPCB",23-01-2024 01:00:00,24.952822,84.002396,PM2.5,141,316,220
India,Bihar,Siwan,"Chitragupta Nagar, Siwan - BSPCB",23-01-2024 01:00:00,26.2271665,84.3570427,PM2.5,93,324,154
India,Bihar,Siwan,"Chitragupta Nagar, Siwan - BSPCB",23-01-2024 01:00:00,26.2271665,84.3570427,SO2,28,35,32
India,Bihar,Siwan,"Chitragupta Nagar, Siwan - BSPCB",23-01-2024 01:00:00,26.2271665,84.3570427,CO,80,172,137
India,Chandigarh,Chandigarh,"Sector-25, Chandigarh - CPCC",23-01-2024 01:00:00,30.751462,76.762879,NO2,17,33,24
India,Chandigarh,Chandigarh,"Sector-25, Chandigarh - CPCC",23-01-2024 01:00:00,30.751462,76.762879,NH3,10,22,14
India,Chandigarh,Chandigarh,"Sector-25, Chandigarh - CPCC",23-01-2024 01:00:00,30.751462,76.762879,CO,38,72,55
India,Chandigarh,Chandigarh,"Sector-53, Chandigarh - CPCC",23-01-2024 01:00:00,30.719859,76.738637,NH3,6,8,7
India,Chandigarh,Chandigarh,"Sector-53, Chandigarh - CPCC",23-01-2024 01:00:00,30.719859,76.738637,SO2,11,44,24
India,Chhattisgarh,Bhilai,"32Bungalows, Bhilai - CECB",23-01-2024 01:00:00,21.194815,81.314770,PM10,65,127,99
India,Chhattisgarh,Bhilai,"Civic Center, Bhilai - Bhilai Steel Plant",23-01-2024 01:00:00,21.185571,81.343175,PM2.5,34,158,72
India,Chhattisgarh,Bhilai,"Civic Center, Bhilai - Bhilai Steel Plant",23-01-2024 01:00:00,21.185571,81.343175,NO2,10,13,11
India,Chhattisgarh,Bhilai,"Civic Center, Bhilai - Bhilai Steel Plant",23-01-2024 01:00:00,21.185571,81.343175,OZONE,9,41,20
India,Chhattisgarh,Bhilai,"Hathkhoj, Bhilai - CECB",23-01-2024 01:00:00,21.224231,81.408350,SO2,43,121,82
India,Chhattisgarh,Bilaspur,"Mangala, Bilaspur - NTPC",23-01-2024 01:00:00,22.08815,82.13737,PM2.5,NA,NA,NA
India,Chhattisgarh,Bilaspur,"Mangala, Bilaspur - NTPC",23-01-2024 01:00:00,22.08815,82.13737,SO2,NA,NA,NA
India,Chhattisgarh,Korba,"Rampur, Korba - CECB",23-01-2024 01:00:00,22.368195,82.746431,CO,10,24,20
India,Chhattisgarh,Korba,"Urja Nagar, Korba - CECB",23-01-2024 01:00:00,22.348441,82.549611,CO,19,74,48
India,Chhattisgarh,Kunjemura,"OP Jindal School, Kunjemura - CECB",23-01-2024 01:00:00,22.126650,83.483212,PM2.5,24,77,44
India,Chhattisgarh,Kunjemura,"OP Jindal School, Kunjemura - CECB",23-01-2024 01:00:00,22.126650,83.483212,PM10,23,346,94
India,Chhattisgarh,Milupara,"Govt. Higher Secondary School, Milupara - CECB",23-01-2024 01:00:00,22.1910172,83.5197009,NH3,1,2,1
India,Chhattisgarh,Raipur,"AIIMS, Raipur - CECB",23-01-2024 01:00:00,21.258815,81.578979,NO2,43,68,51
India,Chhattisgarh,Raipur,"Bhatagaon New ISBT, Raipur - CECB",23-01-2024 01:00:00,21.219665,81.630094,PM10,51,167,77
India,Chhattisgarh,Raipur,"Bhatagaon New ISBT, Raipur - CECB",23-01-2024 01:00:00,21.219665,81.630094,NO2,56,82,67
India,Chhattisgarh,Raipur,"Krishak Nagar, Raipur - CECB",23-01-2024 01:00:00,21.237755,81.705301,PM2.5,42,84,62
India,Chhattisgarh,Tumidih,"OP Jindal Industrial Park, Tumidih - CECB",23-01-2024 01:00:00,22.06631475,83.33820077,SO2,NA,NA,NA
India,Chhattisgarh,Tumidih,"OP Jindal Industrial Park, Tumidih - CECB",23-01-2024 01:00:00,22.06631475,83.33820077,OZONE,6,72,30
India,Delhi,Delhi,"Alipur, Delhi - DPCC",23-01-2024 01:00:00,28.815329,77.153010,NO2,26,91,43
India,Delhi,Delhi,"Ashok Vihar, Delhi - DPCC",23-01-2024 01:00:00,28.695381,77.181665,PM2.5,263,500,354
India,Delhi,Delhi,"Aya Nagar, Delhi - IMD",23-01-2024 01:00:00,28.4706914,77.1099364,PM2.5,NA,NA,NA
India,Delhi,Delhi,"Aya Nagar, Delhi - IMD",23-01-2024 01:00:00,28.4706914,77.1099364,NO2,NA,NA,NA
India,Delhi,Delhi,"Bawana, Delhi - DPCC",23-01-2024 01:00:00,28.776200,77.051074,NH3,5,9,7
India,Delhi,Delhi,"Bawana, Delhi - DPCC",23-01-2024 01:00:00,28.776200,77.051074,OZONE,3,103,24
India,Delhi,Delhi,"Burari Crossing, Delhi - IMD",23-01-2024 01:00:00,28.7256504,77.2011573,PM2.5,NA,NA,NA
India,Delhi,Delhi,"Burari Crossing, Delhi - IMD",23-01-2024 01:00:00,28.7256504,77.2011573,PM10,NA,NA,NA
India,Delhi,Delhi,"Burari Crossing, Delhi - IMD",23-01-2024 01:00:00,28.7256504,77.2011573,NO2,NA,NA,NA
India,Delhi,Delhi,"CRRI Mathura Road, Delhi - IMD",23-01-2024 01:00:00,28.5512005,77.2735737,CO,40,68,51
India,Delhi,Delhi,"CRRI Mathura Road, Delhi - IMD",23-01-2024 01:00:00,28.5512005,77.2735737,OZONE,3,37,15
India,Delhi,Delhi,"DTU, Delhi - CPCB",23-01-2024 01:00:00,28.7500499,77.1112615,NO2,11,85,50
India,Delhi,Delhi,"DTU, Delhi - CPCB",23-01-2024 01:00:00,28.7500499,77.1112615,SO2,26,29,27
India,Delhi,Delhi,"DTU, Delhi - CPCB",23-01-2024 01:00:00,28.7500499,77.1112615,CO,25,96,65
India,Delhi,Delhi,"DTU, Delhi - CPCB",23-01-2024 01:00:00,28.7500499,77.1112615,OZONE,27,33,28
India,Delhi,Delhi,"Dr. Karni Singh Shooting Range, Delhi - DPCC",23-01-2024 01:00:00,28.498571,77.264840,OZONE,1,92,29
India,Delhi,Delhi,"Dwarka-Sector 8, Delhi - DPCC ",23-01-2024 01:00:00,28.5710274,77.0719006,OZONE,4,52,15
India,Delhi,Delhi,"IGI Airport (T3), Delhi - IMD",23-01-2024 01:00:00,28.5627763,77.1180053,NO2,NA,NA,NA
India,Delhi,Delhi,"IGI Airport (T3), Delhi - IMD",23-01-2024 01:00:00,28.5627763,77.1180053,CO,26,30,28
India,Delhi,Delhi,"Jahangirpuri, Delhi - DPCC",23-01-2024 01:00:00,28.732820,77.170633,SO2,13,37,20
India,Delhi,Delhi,"Jahangirpuri, Delhi - DPCC",23-01-2024 01:00:00,28.732820,77.170633,OZONE,8,46,17
India,Delhi,Delhi,"Jawaharlal Nehru Stadium, Delhi - DPCC",23-01-2024 01:00:00,28.580280,77.233829,NH3,9,13,11
India,Delhi,Delhi,"Jawaharlal Nehru Stadium, Delhi - DPCC",23-01-2024 01:00:00,28.580280,77.233829,OZONE,2,42,11
India,Delhi,Delhi,"Lodhi Road, Delhi - IITM",23-01-2024 01:00:00,28.588333,77.221667,PM2.5,NA,NA,NA
India,Delhi,Delhi,"Lodhi Road, Delhi - IITM",23-01-2024 01:00:00,28.588333,77.221667,NO2,NA,NA,NA
India,Delhi,Delhi,"Lodhi Road, Delhi - IITM",23-01-2024 01:00:00,28.588333,77.221667,SO2,NA,NA,NA
India,Delhi,Delhi,"Mandir Marg, Delhi - DPCC",23-01-2024 01:00:00,28.636429,77.201067,NO2,102,130,113
India,Delhi,Delhi,"Mandir Marg, Delhi - DPCC",23-01-2024 01:00:00,28.636429,77.201067,SO2,6,9,7
India,Delhi,Delhi,"Mundka, Delhi - DPCC",23-01-2024 01:00:00,28.684678,77.076574,PM10,162,475,317
India,Delhi,Delhi,"Mundka, Delhi - DPCC",23-01-2024 01:00:00,28.684678,77.076574,OZONE,1,14,8
India,Delhi,Delhi,"NSIT Dwarka, Delhi - CPCB",23-01-2024 01:00:00,28.60909,77.0325413,PM2.5,280,426,353
India,Delhi,Delhi,"Najafgarh, Delhi - DPCC",23-01-2024 01:00:00,28.570173,76.933762,SO2,5,13,9
India,Delhi,Delhi,"Najafgarh, Delhi - DPCC",23-01-2024 01:00:00,28.570173,76.933762,OZONE,3,134,39
India,Delhi,Delhi,"Narela, Delhi - DPCC",23-01-2024 01:00:00,28.822836,77.101981,SO2,3,32,10
India,Delhi,Delhi,"Narela, Delhi - DPCC",23-01-2024 01:00:00,28.822836,77.101981,CO,75,111,99
India,Delhi,Delhi,"Nehru Nagar, Delhi - DPCC",23-01-2024 01:00:00,28.567890,77.250515,PM10,180,462,319
India,Delhi,Delhi,"Nehru Nagar, Delhi - DPCC",23-01-2024 01:00:00,28.567890,77.250515,OZONE,2,81,17
India,Delhi,Delhi,"New Moti Bagh, Delhi - MHUA",23-01-2024 01:00:00,28.57834,77.18400,PM2.5,NA,NA,NA
India,Delhi,Delhi,"New Moti Bagh, Delhi - MHUA",23-01-2024 01:00:00,28.57834,77.18400,CO,52,84,70
India,Delhi,Delhi,"North Campus, DU, Delhi - IMD",23-01-2024 01:00:00,28.6573814,77.1585447,PM2.5,NA,NA,NA
India,Delhi,Delhi,"North Campus, DU, Delhi - IMD",23-01-2024 01:00:00,28.6573814,77.1585447,CO,40,78,56
India,Delhi,Delhi,"Okhla Phase-2, Delhi - DPCC",23-01-2024 01:00:00,28.530785,77.271255,PM10,194,446,315
India,Delhi,Delhi,"Okhla Phase-2, Delhi - DPCC",23-01-2024 01:00:00,28.530785,77.271255,OZONE,11,69,24
India,Delhi,Delhi,"Patparganj, Delhi - DPCC",23-01-2024 01:00:00,28.623763,77.287209,PM10,167,435,309
India,Delhi,Delhi,"Punjabi Bagh, Delhi - DPCC",23-01-2024 01:00:00,28.674045,77.131023,PM2.5,314,487,390
India,Delhi,Delhi,"Punjabi Bagh, Delhi - DPCC",23-01-2024 01:00:00,28.674045,77.131023,NO2,67,107,85
India,Delhi,Delhi,"R K Puram, Delhi - DPCC",23-01-2024 01:00:00,28.563262,77.186937,PM2.5,320,418,377
India,Delhi,Delhi,"R K Puram, Delhi - DPCC",23-01-2024 01:00:00,28.563262,77.186937,PM10,178,381,280
India,Delhi,Delhi,"Sirifort, Delhi - CPCB",23-01-2024 01:00:00,28.5504249,77.2159377,PM10,179,429,306
India,Delhi,Delhi,"Vivek Vihar, Delhi - DPCC",23-01-2024 01:00:00,28.672342,77.315260,PM10,164,478,333
India,Delhi,Delhi,"Vivek Vihar, Delhi - DPCC",23-01-2024 01:00:00,28.672342,77.315260,SO2,7,8,8
India,Delhi,Delhi,"Wazirpur, Delhi - DPCC",23-01-2024 01:00:00,28.699793,77.165453,PM2.5,319,500,402
India,Delhi,Delhi,"Wazirpur, Delhi - DPCC",23-01-2024 01:00:00,28.699793,77.165453,NH3,1,10,4
India,Gujarat,Ahmedabad,"Chandkheda, Ahmedabad - IITM",23-01-2024 01:00:00,23.107969,72.574648,NO2,18,22,20
India,Gujarat,Ahmedabad,"Chandkheda, Ahmedabad - IITM",23-01-2024 01:00:00,23.107969,72.574648,NH3,3,4,4
India,Gujarat,Ahmedabad,"Gyaspur, Ahmedabad - IITM",23-01-2024 01:00:00,22.977134,72.553024,PM2.5,59,401,175
India,Gujarat,Ahmedabad,"Maninagar, Ahmedabad - GPCB",23-01-2024 01:00:00,23.002657,72.591912,NO2,13,129,58
India,Gujarat,Ahmedabad,"Rakhial, Ahmedabad - IITM",23-01-2024 01:00:00,23.016834,72.625775,PM10,58,436,142
India,Gujarat,Ahmedabad,"Rakhial, Ahmedabad - IITM",23-01-2024 01:00:00,23.016834,72.625775,SO2,3,55,15
India,Gujarat,Ahmedabad,"SVPI Airport Hansol, Ahmedabad - IITM",23-01-2024 01:00:00,23.076793,72.627874,PM10,48,297,110
India,Gujarat,Ahmedabad,"SVPI Airport Hansol, Ahmedabad - IITM",23-01-2024 01:00:00,23.076793,72.627874,SO2,5,8,6
India,Gujarat,Ahmedabad,"SVPI Airport Hansol, Ahmedabad - IITM",23-01-2024 01:00:00,23.076793,72.627874,OZONE,5,22,9
India,Gujarat,Ahmedabad,"Sardar Vallabhbhai Patel Stadium, Ahmedabad - IITM",23-01-2024 01:00:00,23.043070,72.562968,NO2,11,14,13
India,Gujarat,Ahmedabad,"Sardar Vallabhbhai Patel Stadium, Ahmedabad - IITM",23-01-2024 01:00:00,23.043070,72.562968,SO2,7,9,8
India,Gujarat,Ahmedabad,"Sardar Vallabhbhai Patel Stadium, Ahmedabad - IITM",23-01-2024 01:00:00,23.043070,72.562968,CO,2,118,65
India,Gujarat,Ankleshwar,"GIDC, Ankleshwar - GPCB",23-01-2024 01:00:00,21.613267,73.010555,PM2.5,44,132,94
India,Gujarat,Ankleshwar,"GIDC, Ankleshwar - GPCB",23-01-2024 01:00:00,21.613267,73.010555,NO2,34,34,34
India,Gujarat,Gandhinagar,"GIFT City, Gandhinagar - IITM",23-01-2024 01:00:00,23.163798,72.677768,PM10,47,133,78
India,Gujarat,Gandhinagar,"IIPHG Lekawada, Gandhinagar - IITM",23-01-2024 01:00:00,23.243639,72.68994,PM10,54,151,100
India,Gujarat,Gandhinagar,"Sector-10, Gandhinagar - GPCB",23-01-2024 01:00:00,23.221714,72.654328,NH3,NA,NA,NA
India,Gujarat,Gandhinagar,"Sector-10, Gandhinagar - GPCB",23-01-2024 01:00:00,23.221714,72.654328,SO2,NA,NA,NA
India,Gujarat,Surat,"Science Center, Surat - SMC",23-01-2024 01:00:00,21.170046,72.795405,PM10,19,66,44
India,Gujarat,Surat,"Science Center, Surat - SMC",23-01-2024 01:00:00,21.170046,72.795405,CO,40,61,48
India,Gujarat,Vapi,"Phase-1 GIDC, Vapi - GPCB",23-01-2024 01:00:00,20.362421,72.918013,PM10,109,259,149
India,Gujarat,Vapi,"Phase-1 GIDC, Vapi - GPCB",23-01-2024 01:00:00,20.362421,72.918013,NH3,9,34,20
India,Gujarat,Vatva,"Phase-4 GIDC, Vatva - GPCB",23-01-2024 01:00:00,22.969611,72.643500,OZONE,7,24,15
India,Haryana,Ambala,"Patti Mehar, Ambala - HSPCB",23-01-2024 01:00:00,30.379589,76.778328,PM10,NA,NA,NA
India,Haryana,Ambala,"Patti Mehar, Ambala - HSPCB",23-01-2024 01:00:00,30.379589,76.778328,NO2,7,21,14
India,Haryana,Bahadurgarh,"Arya Nagar, Bahadurgarh - HSPCB",23-01-2024 01:00:00,28.6701,76.9254,NH3,11,12,11
India,Haryana,Ballabgarh,"Nathu Colony, Ballabgarh - HSPCB",23-01-2024 01:00:00,28.3419248,77.319699,PM10,166,200,179
India,Haryana,Ballabgarh,"Nathu Colony, Ballabgarh - HSPCB",23-01-2024 01:00:00,28.3419248,77.319699,SO2,2,17,9
India,Haryana,Dharuhera,"Municipal Corporation Office, Dharuhera -  HSPCB",23-01-2024 01:00:00,28.206800,76.799700,CO,32,59,55
India,Haryana,Faridabad,"New Industrial Town, Faridabad - HSPCB",23-01-2024 01:00:00,28.39072,77.30059,PM2.5,331,498,370
India,Haryana,Faridabad,"Sector 11, Faridabad - HSPCB",23-01-2024 01:00:00,28.376058,77.315741,PM10,NA,NA,NA
India,Haryana,Faridabad,"Sector 30, Faridabad - HSPCB",23-01-2024 01:00:00,28.4417,77.3217,PM2.5,145,207,183
India,Haryana,Faridabad,"Sector 30, Faridabad - HSPCB",23-01-2024 01:00:00,28.4417,77.3217,OZONE,3,22,7
India,Haryana,Fatehabad,"Huda Sector, Fatehabad - HSPCB",23-01-2024 01:00:00,29.503664,75.467934,CO,5,14,9
India,Haryana,Gurugram,"Sector-51, Gurugram - HSPCB",23-01-2024 01:00:00,28.4227,77.0667,PM10,202,358,266
India,Haryana,Gurugram,"Teri Gram, Gurugram - HSPCB",23-01-2024 01:00:00,28.4275,77.1465,NH3,35,48,41
India,Haryana,Gurugram,"Teri Gram, Gurugram - HSPCB",23-01-2024 01:00:00,28.4275,77.1465,SO2,3,5,5
India,Haryana,Gurugram,"Vikas Sadan, Gurugram - HSPCB",23-01-2024 01:00:00,28.4501238,77.0263051,PM2.5,91,313,197
India,Haryana,Hisar,"Urban Estate-II, Hisar - HSPCB",23-01-2024 01:00:00,29.140560,75.744941,NH3,3,4,3
India,Haryana,Jind,"Police Lines, Jind - HSPCB",23-01-2024 01:00:00,29.307814,76.337619,PM2.5,122,321,193
India,Haryana,Jind,"Police Lines, Jind - HSPCB",23-01-2024 01:00:00,29.307814,76.337619,SO2,4,15,7
India,Haryana,Jind,"Police Lines, Jind - HSPCB",23-01-2024 01:00:00,29.307814,76.337619,CO,1,70,20
India,Haryana,Kaithal,"Rishi Nagar, Kaithal - HSPCB",23-01-2024 01:00:00,29.8006,76.4155,NH3,8,8,8
India,Haryana,Kaithal,"Rishi Nagar, Kaithal - HSPCB",23-01-2024 01:00:00,29.8006,76.4155,CO,34,82,65
India,Haryana,Kaithal,"Rishi Nagar, Kaithal - HSPCB",23-01-2024 01:00:00,29.8006,76.4155,OZONE,1,34,9
India,Haryana,Karnal,"Sector-12, Karnal - HSPCB",23-01-2024 01:00:00,29.695300,77.002700,PM10,94,143,117
India,Haryana,Karnal,"Sector-12, Karnal - HSPCB",23-01-2024 01:00:00,29.695300,77.002700,OZONE,31,34,32
India,Haryana,Kurukshetra,"Sector-7, Kurukshetra - HSPCB",23-01-2024 01:00:00,29.966942,76.875879,NO2,10,10,10
India,Haryana,Kurukshetra,"Sector-7, Kurukshetra - HSPCB",23-01-2024 01:00:00,29.966942,76.875879,SO2,1,74,14
India,Haryana,Mandikhera,"General Hospital, Mandikhera - HSPCB",23-01-2024 01:00:00,27.9002,76.9938,PM2.5,11,34,20
India,Haryana,Mandikhera,"General Hospital, Mandikhera - HSPCB",23-01-2024 01:00:00,27.9002,76.9938,CO,44,68,57
India,Haryana,Narnaul,"Shastri Nagar, Narnaul - HSPCB",23-01-2024 01:00:00,28.060249,76.113115,PM2.5,37,92,62
India,Haryana,Narnaul,"Shastri Nagar, Narnaul - HSPCB",23-01-2024 01:00:00,28.060249,76.113115,OZONE,21,85,48
India,Haryana,Panipat,"Sector-18, Panipat - HSPCB",23-01-2024 01:00:00,29.497973,76.993331,PM2.5,NA,NA,NA
India,Haryana,Sirsa,"F-Block, Sirsa - HSPCB",23-01-2024 01:00:00,29.536400,75.015800,PM10,NA,NA,NA
