country,state,city,station,last_update,latitude,longitude,pollutant_id,pollutant_min,pollutant_max,pollutant_avg
India,Andhra_Pradesh,Amaravati,"Secretariat, Amaravati - APPCB",12-01-2024 12:00:00,16.5150833,80.5181667,PM10,109,176,136
India,Andhra_Pradesh,Amaravati,"Secretariat, Amaravati - APPCB",12-01-2024 12:00:00,16.5150833,80.5181667,NO2,15,36,25
India,Andhra_Pradesh,Chittoor,"Gangineni Cheruvu, Chittoor - APPCB",12-01-2024 12:00:00,13.204880,79.097889,PM10,31,87,50
India,Andhra_Pradesh,Chittoor,"Gangineni Cheruvu, Chittoor - APPCB",12-01-2024 12:00:00,13.204880,79.097889,NO2,4,34,15
India,Andhra_Pradesh,Kadapa,"Yerramukkapalli, Kadapa - APPCB",12-01-2024 12:00:00,14.465052,78.824187,NH3,NA,NA,NA
India,Andhra_Pradesh,Rajamahendravaram,"Anand Kala Kshetram, Rajamahendravaram - APPCB",12-01-2024 12:00:00,16.9872867,81.7363176,PM10,130,211,172
India,Andhra_Pradesh,Tirupati,"Tirumala, Tirupati - APPCB",12-01-2024 12:00:00,13.67,79.35,PM2.5,60,103,81
India,Andhra_Pradesh,Tirupati,"Tirumala, Tirupati - APPCB",12-01-2024 12:00:00,13.67,79.35,PM10,52,81,68
India,Andhra_Pradesh,Tirupati,"Tirumala, Tirupati - APPCB",12-01-2024 12:00:00,13.67,79.35,NH3,1,2,1
India,Andhra_Pradesh,Tirupati,"Tirumala, Tirupati - APPCB",12-01-2024 12:00:00,13.67,79.35,SO2,2,29,8
India,Andhra_Pradesh,Tirupati,"Tirumala, Tirupati - APPCB",12-01-2024 12:00:00,13.67,79.35,OZONE,29,54,44
India,Andhra_Pradesh,Tirupati,"Vaikuntapuram, Tirupati - APPCB",12-01-2024 12:00:00,13.615387,79.409230,PM10,13,49,23
India,Andhra_Pradesh,Tirupati,"Vaikuntapuram, Tirupati - APPCB",12-01-2024 12:00:00,13.615387,79.409230,SO2,5,5,5
India,Andhra_Pradesh,Tirupati,"Vaikuntapuram, Tirupati - APPCB",12-01-2024 12:00:00,13.615387,79.409230,OZONE,4,39,15
India,Andhra_Pradesh,Vijayawada,"Rajiv Gandhi Park, Vijayawada - APPCB",12-01-2024 12:00:00,16.509717,80.612222,PM10,NA,NA,NA
India,Andhra_Pradesh,Vijayawada,"Rajiv Gandhi Park, Vijayawada - APPCB",12-01-2024 12:00:00,16.509717,80.612222,NH3,NA,NA,NA
India,Andhra_Pradesh,Vijayawada,"Rajiv Gandhi Park, Vijayawada - APPCB",12-01-2024 12:00:00,16.509717,80.612222,CO,38,44,38
India,Andhra_Pradesh,Visakhapatnam,"GVM Corporation, Visakhapatnam - APPCB",12-01-2024 12:00:00,17.72,83.3,PM10,130,457,177
India,Andhra_Pradesh,Visakhapatnam,"GVM Corporation, Visakhapatnam - APPCB",12-01-2024 12:00:00,17.72,83.3,OZONE,9,49,15
India,Arunachal_Pradesh,Naharlagun,"Naharlagun, Naharlagun - APSPCB",12-01-2024 12:00:00,27.103358,93.679645,PM2.5,56,291,126
India,Assam,Byrnihat,"Central Academy for SFS, Byrnihat - PCBA",12-01-2024 12:00:00,26.071318,91.87488,PM2.5,173,382,276
India,Assam,Byrnihat,"Central Academy for SFS, Byrnihat - PCBA",12-01-2024 12:00:00,26.071318,91.87488,CO,22,121,104
India,Assam,Guwahati,"IITG, Guwahati - PCBA",12-01-2024 12:00:00,26.2028636,91.70046436,PM10,151,204,171
India,Assam,Guwahati,"IITG, Guwahati - PCBA",12-01-2024 12:00:00,26.2028636,91.70046436,SO2,12,16,13
India,Assam,Guwahati,"LGBI Airport, Guwahati - PCBA",12-01-2024 12:00:00,26.10887,91.589544,OZONE,2,70,28
India,Assam,Guwahati,"Pan Bazaar, Guwahati - PCBA",12-01-2024 12:00:00,26.187500,91.744194,OZONE,16,17,17
India,Assam,Guwahati,"Railway Colony, Guwahati - PCBA",12-01-2024 12:00:00,26.181742,91.78063,OZONE,6,41,24
India,Assam,Nagaon,"Christianpatty, Nagaon - PCBA",12-01-2024 12:00:00,26.349082,92.68449,NO2,13,25,19
India,Assam,Nagaon,"Christianpatty, Nagaon - PCBA",12-01-2024 12:00:00,26.349082,92.68449,NH3,3,4,4
India,Assam,Nagaon,"Christianpatty, Nagaon - PCBA",12-01-2024 12:00:00,26.349082,92.68449,CO,4,9,6
India,Assam,Nagaon,"Christianpatty, Nagaon - PCBA",12-01-2024 12:00:00,26.349082,92.68449,OZONE,4,51,27
India,Assam,Nalbari,"Bata Chowk, Nalbari - PCBA",12-01-2024 12:00:00,26.446912,91.439057,NH3,8,12,9
India,Assam,Silchar,"Tarapur, Silchar - PCBA",12-01-2024 12:00:00,24.82827,92.79525,PM2.5,31,42,35
India,Assam,Silchar,"Tarapur, Silchar - PCBA",12-01-2024 12:00:00,24.82827,92.79525,CO,14,26,21
India,Assam,Sivasagar,"Girls College, Sivasagar - PCBA",12-01-2024 12:00:00,26.987634,94.636574,NO2,10,37,25
India,Assam,Sivasagar,"Girls College, Sivasagar - PCBA",12-01-2024 12:00:00,26.987634,94.636574,OZONE,1,27,5
India,Bihar,Araria,"Kharahiya Basti, Araria - BSPCB",12-01-2024 12:00:00,26.146529,87.454184,NH3,6,7,6
India,Bihar,Araria,"Kharahiya Basti, Araria - BSPCB",12-01-2024 12:00:00,26.146529,87.454184,CO,36,57,47
India,Bihar,Arrah,"New DM Office, Arrah - BSPCB",12-01-2024 12:00:00,25.5626095,84.663264,PM2.5,167,342,289
India,Bihar,Arrah,"New DM Office, Arrah - BSPCB",12-01-2024 12:00:00,25.5626095,84.663264,SO2,17,20,18
India,Bihar,Bettiah,"Kamalnath Nagar, Bettiah - BSPCB",12-01-2024 12:00:00,26.80365,84.51954,SO2,14,20,18
India,Bihar,Bhagalpur,"Mayaganj, Bhagalpur - BSPCB",12-01-2024 12:00:00,25.265194,87.012947,PM2.5,314,500,372
India,Bihar,Bihar Sharif,"D M Colony, Bihar Sharif - BSPCB",12-01-2024 12:00:00,25.204762,85.514960,PM2.5,22,78,38
India,Bihar,Gaya,"Kareemganj, Gaya - BSPCB",12-01-2024 12:00:00,24.792403,84.992416,PM10,88,261,140
India,Bihar,Gaya,"SFTI Kusdihra, Gaya - BSPCB",12-01-2024 12:00:00,24.762518,84.982348,PM2.5,33,132,80
India,Bihar,Katihar,"Mirchaibari, Katihar - BSPCB",12-01-2024 12:00:00,25.560083,87.553265,PM2.5,80,310,207
India,Bihar,Kishanganj,"SDM Office_Khagra, Kishanganj - BSPCB",12-01-2024 12:00:00,26.0881305,87.93840336,PM2.5,23,160,54
India,Bihar,Kishanganj,"SDM Office_Khagra, Kishanganj - BSPCB",12-01-2024 12:00:00,26.0881305,87.93840336,CO,4,17,8
India,Bihar,Manguraha,"Forest Rest House, Manguraha - BSPCB",12-01-2024 12:00:00,27.308328,84.531742,NO2,36,56,50
India,Bihar,Manguraha,"Forest Rest House, Manguraha - BSPCB",12-01-2024 12:00:00,27.308328,84.531742,OZONE,19,44,29
India,Bihar,Munger,"Town Hall, Munger - BSPCB",12-01-2024 12:00:00,25.376776,86.471523,PM2.5,43,315,168
India,Bihar,Munger,"Town Hall, Munger - BSPCB",12-01-2024 12:00:00,25.376776,86.471523,NH3,1,2,2
India,Bihar,Munger,"Town Hall, Munger - BSPCB",12-01-2024 12:00:00,25.376776,86.471523,SO2,24,41,36
India,Bihar,Muzaffarpur,"Buddha Colony, Muzaffarpur - BSPCB",12-01-2024 12:00:00,26.11442,85.39813,NO2,39,80,52
India,Bihar,Muzaffarpur,"MIT-Daudpur Kothi, Muzaffarpur - BSPCB",12-01-2024 12:00:00,26.1403345,85.3650192,NO2,2,10,7
India,Bihar,Muzaffarpur,"MIT-Daudpur Kothi, Muzaffarpur - BSPCB",12-01-2024 12:00:00,26.1403345,85.3650192,OZONE,3,31,7
India,Bihar,Muzaffarpur,"Muzaffarpur Collectorate, Muzaffarpur - BSPCB",12-01-2024 12:00:00,26.1209,85.3647,SO2,6,8,6
India,Bihar,Patna,"DRM Office Danapur, Patna - BSPCB",12-01-2024 12:00:00,25.586562,85.043586,PM10,169,438,292
India,Bihar,Patna,"DRM Office Danapur, Patna - BSPCB",12-01-2024 12:00:00,25.586562,85.043586,NO2,17,84,36
India,Bihar,Patna,"DRM Office Danapur, Patna - BSPCB",12-01-2024 12:00:00,25.586562,85.043586,SO2,5,9,7
India,Bihar,Patna,"Govt. High School Shikarpur, Patna - BSPCB",12-01-2024 12:00:00,25.592539,85.227158,NH3,NA,NA,NA
India,Bihar,Patna,"Govt. High School Shikarpur, Patna - BSPCB",12-01-2024 12:00:00,25.592539,85.227158,SO2,NA,NA,NA
India,Bihar,Patna,"Samanpura, Patna - BSPCB",12-01-2024 12:00:00,25.596727,85.085624,PM10,199,467,291
India,Bihar,Purnia,"Mariam Nagar, Purnia - BSPCB",12-01-2024 12:00:00,25.366336,87.117468,PM2.5,85,322,210
India,Bihar,Purnia,"Mariam Nagar, Purnia - BSPCB",12-01-2024 12:00:00,25.366336,87.117468,NO2,12,14,13
India,Bihar,Purnia,"Mariam Nagar, Purnia - BSPCB",12-01-2024 12:00:00,25.366336,87.117468,SO2,16,20,19
India,Bihar,Rajgir,"Dangi Tola, Rajgir - BSPCB",12-01-2024 12:00:00,25.03280,85.41948,PM2.5,57,311,209
India,Bihar,Rajgir,"Dangi Tola, Rajgir - BSPCB",12-01-2024 12:00:00,25.03280,85.41948,NH3,1,9,2
India,Bihar,Saharsa,"Police Line, Saharsa - BSPCB",12-01-2024 12:00:00,25.892357,86.590325,NO2,5,9,7
India,Bihar,Samastipur,"DM Office_Kasipur, Samastipur - BSPCB",12-01-2024 12:00:00,25.859655,85.77944,NH3,4,4,4
India,Bihar,Sasaram,"Dada Peer, Sasaram - BSPCB",12-01-2024 12:00:00,24.952822,84.002396,PM10,30,118,73
India,Bihar,Sasaram,"Dada Peer, Sasaram - BSPCB",12-01-2024 12:00:00,24.952822,84.002396,CO,28,56,42
India,Bihar,Sasaram,"Dada Peer, Sasaram - BSPCB",12-01-2024 12:00:00,24.952822,84.002396,OZONE,4,5,4
India,Bihar,Siwan,"Chitragupta Nagar, Siwan - BSPCB",12-01-2024 12:00:00,26.2271665,84.3570427,PM2.5,87,297,164
India,Bihar,Siwan,"Chitragupta Nagar, Siwan - BSPCB",12-01-2024 12:00:00,26.2271665,84.3570427,SO2,12,36,34
India,Chandigarh,Chandigarh,"Sector-25, Chandigarh - CPCC",12-01-2024 12:00:00,30.751462,76.762879,NH3,9,14,10
India,Chandigarh,Chandigarh,"Sector-25, Chandigarh - CPCC",12-01-2024 12:00:00,30.751462,76.762879,SO2,5,30,9
India,Chandigarh,Chandigarh,"Sector-25, Chandigarh - CPCC",12-01-2024 12:00:00,30.751462,76.762879,CO,42,52,46
India,Chandigarh,Chandigarh,"Sector-53, Chandigarh - CPCC",12-01-2024 12:00:00,30.719859,76.738637,PM10,99,273,187
India,Chandigarh,Chandigarh,"Sector-53, Chandigarh - CPCC",12-01-2024 12:00:00,30.719859,76.738637,NO2,10,14,12
India,Chandigarh,Chandigarh,"Sector-53, Chandigarh - CPCC",12-01-2024 12:00:00,30.719859,76.738637,OZONE,9,35,17
India,Chhattisgarh,Bhilai,"32Bungalows, Bhilai - CECB",12-01-2024 12:00:00,21.194815,81.314770,NO2,17,31,23
India,Chhattisgarh,Bhilai,"Civic Center, Bhilai - Bhilai Steel Plant",12-01-2024 12:00:00,21.185571,81.343175,PM10,NA,NA,NA
India,Chhattisgarh,Bhilai,"Civic Center, Bhilai - Bhilai Steel Plant",12-01-2024 12:00:00,21.185571,81.343175,OZONE,7,47,10
India,Chhattisgarh,Bhilai,"Hathkhoj, Bhilai - CECB",12-01-2024 12:00:00,21.224231,81.408350,CO,14,64,33
India,Chhattisgarh,Bilaspur,"Mangala, Bilaspur - NTPC",12-01-2024 12:00:00,22.08815,82.13737,CO,34,41,37
India,Chhattisgarh,Chhal,"Nawapara SECL Colony, Chhal - CECB",12-01-2024 12:00:00,22.118125,83.140608,PM2.5,17,67,43
India,Chhattisgarh,Chhal,"Nawapara SECL Colony, Chhal - CECB",12-01-2024 12:00:00,22.118125,83.140608,PM10,35,74,52
India,Chhattisgarh,Chhal,"Nawapara SECL Colony, Chhal - CECB",12-01-2024 12:00:00,22.118125,83.140608,CO,36,92,49
India,Chhattisgarh,Chhal,"Nawapara SECL Colony, Chhal - CECB",12-01-2024 12:00:00,22.118125,83.140608,OZONE,7,61,20
India,Chhattisgarh,Korba,"Urja Nagar, Korba - CECB",12-01-2024 12:00:00,22.348441,82.549611,NH3,3,6,5
India,Chhattisgarh,Korba,"Urja Nagar, Korba - CECB",12-01-2024 12:00:00,22.348441,82.549611,CO,21,37,28
India,Chhattisgarh,Kunjemura,"OP Jindal School, Kunjemura - CECB",12-01-2024 12:00:00,22.126650,83.483212,PM10,35,358,137
India,Chhattisgarh,Raipur,"Bhatagaon New ISBT, Raipur - CECB",12-01-2024 12:00:00,21.219665,81.630094,PM10,49,129,88
India,Chhattisgarh,Raipur,"Bhatagaon New ISBT, Raipur - CECB",12-01-2024 12:00:00,21.219665,81.630094,OZONE,3,4,3
India,Chhattisgarh,Raipur,"Krishak Nagar, Raipur - CECB",12-01-2024 12:00:00,21.237755,81.705301,NH3,1,1,1
India,Chhattisgarh,Raipur,"Siltara Phase-II, Raipur - CECB",12-01-2024 12:00:00,21.371751,81.664929,PM2.5,33,63,46
India,Delhi,Delhi,"Alipur, Delhi - DPCC",12-01-2024 12:00:00,28.815329,77.153010,OZONE,4,75,11
India,Delhi,Delhi,"Anand Vihar, Delhi - DPCC",12-01-2024 12:00:00,28.647622,77.3158090,PM2.5,343,429,385
India,Delhi,Delhi,"Anand Vihar, Delhi - DPCC",12-01-2024 12:00:00,28.647622,77.3158090,SO2,4,27,16
India,Delhi,Delhi,"Ashok Vihar, Delhi - DPCC",12-01-2024 12:00:00,28.695381,77.181665,NH3,10,12,12
India,Delhi,Delhi,"Aya Nagar, Delhi - IMD",12-01-2024 12:00:00,28.4706914,77.1099364,PM2.5,NA,NA,NA
India,Delhi,Delhi,"Aya Nagar, Delhi - IMD",12-01-2024 12:00:00,28.4706914,77.1099364,CO,NA,NA,NA
India,Delhi,Delhi,"DTU, Delhi - CPCB",12-01-2024 12:00:00,28.7500499,77.1112615,NH3,13,19,15
India,Delhi,Delhi,"Dr. Karni Singh Shooting Range, Delhi - DPCC",12-01-2024 12:00:00,28.498571,77.264840,PM10,141,393,265
India,Delhi,Delhi,"Dwarka-Sector 8, Delhi - DPCC ",12-01-2024 12:00:00,28.5710274,77.0719006,PM10,122,409,234
India,Delhi,Delhi,"Dwarka-Sector 8, Delhi - DPCC ",12-01-2024 12:00:00,28.5710274,77.0719006,SO2,4,9,6
India,Delhi,Delhi,"Dwarka-Sector 8, Delhi - DPCC ",12-01-2024 12:00:00,28.5710274,77.0719006,OZONE,6,73,10
India,Delhi,Delhi,"IHBAS, Dilshad Garden, Delhi - CPCB",12-01-2024 12:00:00,28.6811736,77.3025234,NO2,14,42,27
India,Delhi,Delhi,"Jawaharlal Nehru Stadium, Delhi - DPCC",12-01-2024 12:00:00,28.580280,77.233829,NO2,57,123,81
India,Delhi,Delhi,"Lodhi Road, Delhi - IITM",12-01-2024 12:00:00,28.588333,77.221667,SO2,14,26,20
India,Delhi,Delhi,"Lodhi Road, Delhi - IMD",12-01-2024 12:00:00,28.5918245,77.2273074,CO,NA,NA,NA
India,Delhi,Delhi,"Major Dhyan Chand National Stadium, Delhi - DPCC",12-01-2024 12:00:00,28.611281,77.237738,NH3,11,16,13
India,Delhi,Delhi,"Mundka, Delhi - DPCC",12-01-2024 12:00:00,28.684678,77.076574,NO2,29,96,54
India,Delhi,Delhi,"Mundka, Delhi - DPCC",12-01-2024 12:00:00,28.684678,77.076574,SO2,11,15,13
India,Delhi,Delhi,"Najafgarh, Delhi - DPCC",12-01-2024 12:00:00,28.570173,76.933762,NO2,17,42,25
India,Delhi,Delhi,"Narela, Delhi - DPCC",12-01-2024 12:00:00,28.822836,77.101981,NO2,27,79,43
India,Delhi,Delhi,"Nehru Nagar, Delhi - DPCC",12-01-2024 12:00:00,28.567890,77.250515,PM2.5,325,491,389
India,Delhi,Delhi,"New Moti Bagh, Delhi - MHUA",12-01-2024 12:00:00,28.57834,77.18400,CO,49,110,58
India,Delhi,Delhi,"North Campus, DU, Delhi - IMD",12-01-2024 12:00:00,28.6573814,77.1585447,OZONE,NA,NA,NA
India,Delhi,Delhi,"Okhla Phase-2, Delhi - DPCC",12-01-2024 12:00:00,28.530785,77.271255,SO2,7,16,10
India,Delhi,Delhi,"Patparganj, Delhi - DPCC",12-01-2024 12:00:00,28.623763,77.287209,SO2,9,12,11
India,Delhi,Delhi,"Punjabi Bagh, Delhi - DPCC",12-01-2024 12:00:00,28.674045,77.131023,PM10,161,382,261
India,Delhi,Delhi,"Punjabi Bagh, Delhi - DPCC",12-01-2024 12:00:00,28.674045,77.131023,SO2,5,10,7
India,Delhi,Delhi,"Pusa, Delhi - IMD",12-01-2024 12:00:00,28.636110,77.173332,CO,NA,NA,NA
India,Delhi,Delhi,"R K Puram, Delhi - DPCC",12-01-2024 12:00:00,28.563262,77.186937,PM10,130,434,268
India,Delhi,Delhi,"R K Puram, Delhi - DPCC",12-01-2024 12:00:00,28.563262,77.186937,SO2,11,39,22
India,Delhi,Delhi,"Rohini, Delhi - DPCC",12-01-2024 12:00:00,28.732528,77.119920,PM2.5,310,449,367
India,Delhi,Delhi,"Rohini, Delhi - DPCC",12-01-2024 12:00:00,28.732528,77.119920,PM10,142,403,243
India,Delhi,Delhi,"Rohini, Delhi - DPCC",12-01-2024 12:00:00,28.732528,77.119920,CO,22,104,59
India,Delhi,Delhi,"Shadipur, Delhi - CPCB",12-01-2024 12:00:00,28.6514781,77.1473105,PM2.5,224,417,341
India,Delhi,Delhi,"Sirifort, Delhi - CPCB",12-01-2024 12:00:00,28.5504249,77.2159377,SO2,26,30,28
India,Delhi,Delhi,"Sonia Vihar, Delhi - DPCC",12-01-2024 12:00:00,28.710508,77.249485,PM2.5,292,409,367
India,Delhi,Delhi,"Sonia Vihar, Delhi - DPCC",12-01-2024 12:00:00,28.710508,77.249485,PM10,153,406,305
India,Delhi,Delhi,"Sonia Vihar, Delhi - DPCC",12-01-2024 12:00:00,28.710508,77.249485,SO2,3,6,4
India,Delhi,Delhi,"Sri Aurobindo Marg, Delhi - DPCC",12-01-2024 12:00:00,28.531346,77.190156,SO2,8,15,11
India,Delhi,Delhi,"Vivek Vihar, Delhi - DPCC",12-01-2024 12:00:00,28.672342,77.315260,NO2,54,102,76
India,Delhi,Delhi,"Wazirpur, Delhi - DPCC",12-01-2024 12:00:00,28.699793,77.165453,SO2,21,40,27
India,Gujarat,Ahmedabad,"Chandkheda, Ahmedabad - IITM",12-01-2024 12:00:00,23.107969,72.574648,PM2.5,54,166,93
India,Gujarat,Ahmedabad,"Chandkheda, Ahmedabad - IITM",12-01-2024 12:00:00,23.107969,72.574648,SO2,3,9,4
India,Gujarat,Ahmedabad,"Gyaspur, Ahmedabad - IITM",12-01-2024 12:00:00,22.977134,72.553024,NH3,3,4,3
India,Gujarat,Ahmedabad,"Maninagar, Ahmedabad - GPCB",12-01-2024 12:00:00,23.002657,72.591912,OZONE,5,92,32
India,Gujarat,Ahmedabad,"Raikhad, Ahmedabad - IITM",12-01-2024 12:00:00,23.020509,72.579261,OZONE,16,18,18
India,Gujarat,Ahmedabad,"SAC ISRO Bopal, Ahmedabad - IITM",12-01-2024 12:00:00,23.041137,72.456691,NH3,2,4,3
India,Gujarat,Ahmedabad,"SAC ISRO Satellite, Ahmedabad - IITM",12-01-2024 12:00:00,23.023389,72.515201,NO2,14,17,16
India,Gujarat,Ahmedabad,"SAC ISRO Satellite, Ahmedabad - IITM",12-01-2024 12:00:00,23.023389,72.515201,NH3,2,4,3
India,Gujarat,Ahmedabad,"SVPI Airport Hansol, Ahmedabad - IITM",12-01-2024 12:00:00,23.076793,72.627874,PM2.5,54,119,78
India,Gujarat,Ahmedabad,"SVPI Airport Hansol, Ahmedabad - IITM",12-01-2024 12:00:00,23.076793,72.627874,NO2,15,16,15
India,Gujarat,Ahmedabad,"Sardar Vallabhbhai Patel Stadium, Ahmedabad - IITM",12-01-2024 12:00:00,23.043070,72.562968,SO2,5,6,5
India,Gujarat,Ankleshwar,"GIDC, Ankleshwar - GPCB",12-01-2024 12:00:00,21.613267,73.010555,PM2.5,80,170,126
India,Gujarat,Ankleshwar,"GIDC, Ankleshwar - GPCB",12-01-2024 12:00:00,21.613267,73.010555,PM10,77,123,103
India,Gujarat,Gandhinagar,"IIPHG Lekawada, Gandhinagar - IITM",12-01-2024 12:00:00,23.243639,72.68994,OZONE,24,28,26
India,Gujarat,Vapi,"Phase-1 GIDC, Vapi - GPCB",12-01-2024 12:00:00,20.362421,72.918013,PM2.5,90,322,198
India,Gujarat,Vapi,"Phase-1 GIDC, Vapi - GPCB",12-01-2024 12:00:00,20.362421,72.918013,SO2,49,50,50
India,Gujarat,Vapi,"Phase-1 GIDC, Vapi - GPCB",12-01-2024 12:00:00,20.362421,72.918013,CO,1,134,15
India,Gujarat,Vatva,"Phase-4 GIDC, Vatva - GPCB",12-01-2024 12:00:00,22.969611,72.643500,PM10,54,126,81
India,Haryana,Bahadurgarh,"Arya Nagar, Bahadurgarh - HSPCB",12-01-2024 12:00:00,28.6701,76.9254,PM10,74,256,135
India,Haryana,Bahadurgarh,"Arya Nagar, Bahadurgarh - HSPCB",12-01-2024 12:00:00,28.6701,76.9254,NH3,10,13,11
India,Haryana,Ballabgarh,"Nathu Colony, Ballabgarh - HSPCB",12-01-2024 12:00:00,28.3419248,77.319699,PM10,183,269,221
India,Haryana,Ballabgarh,"Nathu Colony, Ballabgarh - HSPCB",12-01-2024 12:00:00,28.3419248,77.319699,NH3,1,2,2
India,Haryana,Dharuhera,"Municipal Corporation Office, Dharuhera -  HSPCB",12-01-2024 12:00:00,28.206800,76.799700,PM2.5,NA,NA,NA
India,Haryana,Dharuhera,"Municipal Corporation Office, Dharuhera -  HSPCB",12-01-2024 12:00:00,28.206800,76.799700,NH3,NA,NA,NA
India,Haryana,Faridabad,"New Industrial Town, Faridabad - HSPCB",12-01-2024 12:00:00,28.39072,77.30059,CO,35,57,39
India,Haryana,Faridabad,"Sector 11, Faridabad - HSPCB",12-01-2024 12:00:00,28.376058,77.315741,PM2.5,172,306,234
India,Haryana,Faridabad,"Sector- 16A, Faridabad - HSPCB",12-01-2024 12:00:00,28.4088421,77.3099081,SO2,11,26,24
India,Haryana,Fatehabad,"Huda Sector, Fatehabad - HSPCB",12-01-2024 12:00:00,29.503664,75.467934,SO2,2,16,8
India,Haryana,Gurugram,"Sector-51, Gurugram - HSPCB",12-01-2024 12:00:00,28.4227,77.0667,PM2.5,157,416,314
India,Haryana,Gurugram,"Sector-51, Gurugram - HSPCB",12-01-2024 12:00:00,28.4227,77.0667,NH3,7,17,11
India,Haryana,Gurugram,"Sector-51, Gurugram - HSPCB",12-01-2024 12:00:00,28.4227,77.0667,OZONE,27,67,46
India,Haryana,Gurugram,"Teri Gram, Gurugram - HSPCB",12-01-2024 12:00:00,28.4275,77.1465,CO,34,54,44
India,Haryana,Hisar,"Urban Estate-II, Hisar - HSPCB",12-01-2024 12:00:00,29.140560,75.744941,SO2,13,55,36
India,Haryana,Hisar,"Urban Estate-II, Hisar - HSPCB",12-01-2024 12:00:00,29.140560,75.744941,OZONE,11,85,13
India,Haryana,Jind,"Police Lines, Jind - HSPCB",12-01-2024 12:00:00,29.307814,76.337619,PM2.5,75,288,180
India,Haryana,Jind,"Police Lines, Jind - HSPCB",12-01-2024 12:00:00,29.307814,76.337619,PM10,83,172,131
India,Haryana,Jind,"Police Lines, Jind - HSPCB",12-01-2024 12:00:00,29.307814,76.337619,CO,3,139,38
India,Haryana,Jind,"Police Lines, Jind - HSPCB",12-01-2024 12:00:00,29.307814,76.337619,OZONE,1,21,5
India,Haryana,Kaithal,"Rishi Nagar, Kaithal - HSPCB",12-01-2024 12:00:00,29.8006,76.4155,NO2,24,26,25
India,Haryana,Karnal,"Sector-12, Karnal - HSPCB",12-01-2024 12:00:00,29.695300,77.002700,CO,56,88,62
India,Haryana,Kurukshetra,"Sector-7, Kurukshetra - HSPCB",12-01-2024 12:00:00,29.966942,76.875879,PM10,123,174,151
India,Haryana,Kurukshetra,"Sector-7, Kurukshetra - HSPCB",12-01-2024 12:00:00,29.966942,76.875879,NO2,10,10,10
India,Haryana,Manesar,"Sector-2 IMT, Manesar - HSPCB",12-01-2024 12:00:00,28.360699,76.936090,PM10,102,164,130
India,Haryana,Manesar,"Sector-2 IMT, Manesar - HSPCB",12-01-2024 12:00:00,28.360699,76.936090,OZONE,5,25,9
India,Haryana,Narnaul,"Shastri Nagar, Narnaul - HSPCB",12-01-2024 12:00:00,28.060249,76.113115,PM10,78,154,105
India,Haryana,Narnaul,"Shastri Nagar, Narnaul - HSPCB",12-01-2024 12:00:00,28.060249,76.113115,NO2,16,47,33
India,Haryana,Palwal,"Shyam Nagar, Palwal - HSPCB",12-01-2024 12:00:00,28.1485564,77.3320667,SO2,7,18,10
India,Haryana,Palwal,"Shyam Nagar, Palwal - HSPCB",12-01-2024 12:00:00,28.1485564,77.3320667,CO,10,28,17
India,Haryana,Panchkula,"Sector-6, Panchkula - HSPCB ",12-01-2024 12:00:00,30.7057778,76.8531805555555,NO2,28,30,29
India,Haryana,Panipat,"Sector-18, Panipat - HSPCB",12-01-2024 12:00:00,29.497973,76.993331,PM2.5,NA,NA,NA
India,Haryana,Panipat,"Sector-18, Panipat - HSPCB",12-01-2024 12:00:00,29.497973,76.993331,NO2,NA,NA,NA
India,Haryana,Rohtak,"MD University, Rohtak - HSPCB",12-01-2024 12:00:00,28.52123,76.37138,CO,28,34,31
India,Haryana,Rohtak,"MD University, Rohtak - HSPCB",12-01-2024 12:00:00,28.52123,76.37138,OZONE,47,54,50
India,Haryana,Sirsa,"F-Block, Sirsa - HSPCB",12-01-2024 12:00:00,29.536400,75.015800,PM10,64,236,116
India,Haryana,Sonipat,"Murthal, Sonipat - HSPCB",12-01-2024 12:00:00,29.027200,77.062100,PM10,108,177,149
India,Haryana,Sonipat,"Murthal, Sonipat - HSPCB",12-01-2024 12:00:00,29.027200,77.062100,OZONE,17,36,22
India,Haryana,Yamuna Nagar,"Gobind Pura, Yamuna Nagar - HSPCB",12-01-2024 12:00:00,30.1480566,77.2893471,NO2,11,29,18
India,Haryana,Yamuna Nagar,"Gobind Pura, Yamuna Nagar - HSPCB",12-01-2024 12:00:00,30.1480566,77.2893471,SO2,1,104,14
India,Haryana,Yamuna Nagar,"Gobind Pura, Yamuna Nagar - HSPCB",12-01-2024 12:00:00,30.1480566,77.2893471,CO,54,106,66
India,Himachal Pradesh,Baddi,"HIMUDA Complex Phase-1, Baddi - HPPCB",12-01-2024 12:00:00,30.943887,76.801991,SO2,17,108,51
India,Jharkhand,Dhanbad,"Kalakusuma, Dhanbad - DMC",12-01-2024 12:00:00,23.811548,86.481238,PM2.5,NA,NA,NA
India,Jharkhand,Dhanbad,"Kalakusuma, Dhanbad - DMC",12-01-2024 12:00:00,23.811548,86.481238,NO2,NA,NA,NA
India,Jharkhand,Pathardih,"Mohalbani Ghat, Pathardih - DMC",12-01-2024 12:00:00,23.669880,86.411725,NO2,107,260,161
India,Karnataka,Belgaum,"Ramteerth Nagar, Belgaum - KSPCB",12-01-2024 12:00:00,15.888653,74.541751,PM2.5,33,66,47
India,Karnataka,Belgaum,"Ramteerth Nagar, Belgaum - KSPCB",12-01-2024 12:00:00,15.888653,74.541751,PM10,38,110,63
India,Karnataka,Belgaum,"Ramteerth Nagar, Belgaum - KSPCB",12-01-2024 12:00:00,15.888653,74.541751,NH3,33,34,33
India,Karnataka,Bengaluru,"BTM Layout, Bengaluru - CPCB",12-01-2024 12:00:00,12.9135218,77.5950804,PM2.5,16,79,31
India,Karnataka,Bengaluru,"BTM Layout, Bengaluru - CPCB",12-01-2024 12:00:00,12.9135218,77.5950804,NH3,2,2,2
India,Karnataka,Bengaluru,"City Railway Station, Bengaluru - KSPCB",12-01-2024 12:00:00,12.9756843,77.5660749,PM10,NA,NA,NA
India,Karnataka,Bengaluru,"City Railway Station, Bengaluru - KSPCB",12-01-2024 12:00:00,12.9756843,77.5660749,SO2,NA,NA,NA
India,Karnataka,Bengaluru,"Hebbal, Bengaluru - KSPCB",12-01-2024 12:00:00,13.029152,77.585901,SO2,6,15,10
India,Karnataka,Bengaluru,"Hebbal, Bengaluru - KSPCB",12-01-2024 12:00:00,13.029152,77.585901,CO,7,33,19
India,Karnataka,Bengaluru,"Hombegowda Nagar, Bengaluru - KSPCB",12-01-2024 12:00:00,12.938539,77.590100,PM10,50,89,67
India,Karnataka,Bengaluru,"Hombegowda Nagar, Bengaluru - KSPCB",12-01-2024 12:00:00,12.938539,77.590100,CO,8,30,20
India,Karnataka,Bengaluru,"Jayanagar 5th Block, Bengaluru - KSPCB",12-01-2024 12:00:00,12.920984,77.584908,PM2.5,63,111,84
India,Karnataka,Bengaluru,"Jayanagar 5th Block, Bengaluru - KSPCB",12-01-2024 12:00:00,12.920984,77.584908,CO,2,43,12
India,Karnataka,Bengaluru,"Jigani, Bengaluru - KSPCB",12-01-2024 12:00:00,12.7816279,77.6299145,CO,50,72,58
India,Karnataka,Bengaluru,"Kasturi Nagar, Bengaluru - KSPCB",12-01-2024 12:00:00,13.003872,77.664217,NO2,16,17,17
India,Karnataka,Bengaluru,"Kasturi Nagar, Bengaluru - KSPCB",12-01-2024 12:00:00,13.003872,77.664217,NH3,3,4,4
India,Karnataka,Bengaluru,"Kasturi Nagar, Bengaluru - KSPCB",12-01-2024 12:00:00,13.003872,77.664217,SO2,10,10,10
India,Karnataka,Bengaluru,"Kasturi Nagar, Bengaluru - KSPCB",12-01-2024 12:00:00,13.003872,77.664217,CO,24,26,25
India,Karnataka,Bengaluru,"Peenya, Bengaluru - CPCB",12-01-2024 12:00:00,13.0270199,77.494094,OZONE,35,38,37
India,Karnataka,Bengaluru,"RVCE-Mailasandra, Bengaluru - KSPCB",12-01-2024 12:00:00,12.921418,77.502466,PM2.5,56,79,69
India,Karnataka,Bengaluru,"RVCE-Mailasandra, Bengaluru - KSPCB",12-01-2024 12:00:00,12.921418,77.502466,PM10,98,125,112
India,Karnataka,Bengaluru,"RVCE-Mailasandra, Bengaluru - KSPCB",12-01-2024 12:00:00,12.921418,77.502466,CO,42,56,49
India,Karnataka,Bengaluru,"Sanegurava Halli, Bengaluru - KSPCB",12-01-2024 12:00:00,12.990328,77.5431385,SO2,2,3,3
India,Karnataka,Bengaluru,"Shivapura_Peenya, Bengaluru - KSPCB",12-01-2024 12:00:00,13.0246342,77.5080115,PM10,60,87,73
India,Karnataka,Bengaluru,"Shivapura_Peenya, Bengaluru - KSPCB",12-01-2024 12:00:00,13.0246342,77.5080115,CO,24,53,38
India,Karnataka,Bengaluru,"Shivapura_Peenya, Bengaluru - KSPCB",12-01-2024 12:00:00,13.0246342,77.5080115,OZONE,29,116,60
India,Karnataka,Bengaluru,"Silk Board, Bengaluru - KSPCB",12-01-2024 12:00:00,12.917348,77.622813,CO,8,32,16
India,Karnataka,Bidar,"Naubad, Bidar - KSPCB",12-01-2024 12:00:00,17.930306,77.482194,PM2.5,71,297,148
India,Karnataka,Bidar,"Naubad, Bidar - KSPCB",12-01-2024 12:00:00,17.930306,77.482194,NH3,2,3,3
India,Karnataka,Chikkaballapur,"Chikkaballapur Rural, Chikkaballapur - KSPCB",12-01-2024 12:00:00,13.428828,77.731418,NO2,6,15,10
India,Karnataka,Chikkaballapur,"Chikkaballapur Rural, Chikkaballapur - KSPCB",12-01-2024 12:00:00,13.428828,77.731418,OZONE,24,25,25
India,Karnataka,Gadag,"Panchal Nagar, Gadag - KSPCB",12-01-2024 12:00:00,15.411456,75.638133,NH3,2,3,2
India,Karnataka,Hassan,"B.Katihalli, Hassan - KSPCB",12-01-2024 12:00:00,13.008556,76.125258,NH3,3,4,3
India,Karnataka,Haveri,"Ashwini Nagar, Haveri - KSPCB",12-01-2024 12:00:00,14.791800,75.389600,PM2.5,NA,NA,NA
India,Karnataka,Haveri,"Ashwini Nagar, Haveri - KSPCB",12-01-2024 12:00:00,14.791800,75.389600,CO,32,33,32
India,Karnataka,Hubballi,"Deshpande Nagar, Hubballi - KSPCB",12-01-2024 12:00:00,15.351773,75.140726,NO2,21,26,24
India,Karnataka,Hubballi,"Lingaraj Nagar, Hubballi - KSPCB",12-01-2024 12:00:00,15.3714823,75.1160168,PM10,60,122,81
India,Karnataka,Kalaburagi,"Lal Bahadur Shastri Nagar, Kalaburagi - KSPCB",12-01-2024 12:00:00,17.321993,76.822628,SO2,NA,NA,NA
India,Karnataka,Kalaburagi,"Lal Bahadur Shastri Nagar, Kalaburagi - KSPCB",12-01-2024 12:00:00,17.321993,76.822628,CO,34,54,41
India,Karnataka,Kalaburagi,"Lal Bahadur Shastri Nagar, Kalaburagi - KSPCB",12-01-2024 12:00:00,17.321993,76.822628,OZONE,2,63,38
India,Karnataka,Kalaburagi,"Mahatma Basaveswar Colony, Kalaburgi - KSPCB",12-01-2024 12:00:00,17.336318,76.847397,PM10,41,109,55
India,Karnataka,Kalaburagi,"Mahatma Basaveswar Colony, Kalaburgi - KSPCB",12-01-2024 12:00:00,17.336318,76.847397,SO2,5,14,7
India,Karnataka,Karwar,"KHB Colony, Karwar - KSPCB",12-01-2024 12:00:00,14.816666,74.141003,PM10,57,150,87
India,Karnataka,Karwar,"KHB Colony, Karwar - KSPCB",12-01-2024 12:00:00,14.816666,74.141003,OZONE,21,22,21
India,Karnataka,Madikeri,"Stuart Hill, Madikeri - KSPCB",12-01-2024 12:00:00,12.415911,75.735050,OZONE,30,44,36
India,Karnataka,Mangalore,"Kadri, Mangalore - KSPCB",12-01-2024 12:00:00,12.889250,74.853000,CO,24,34,26
India,Karnataka,Raichur,"Haji Colony, Raichur - KSPCB",12-01-2024 12:00:00,16.208139,77.348417,PM2.5,18,70,35
India,Karnataka,Ramanagara,"Vijay Nagar, Ramanagara - KSPCB",12-01-2024 12:00:00,12.733409,77.298051,CO,12,32,24
India,Karnataka,Shivamogga,"Vinoba Nagara, Shivamogga - KSPCB",12-01-2024 12:00:00,13.940000,75.555917,SO2,2,11,5
India,Karnataka,Shivamogga,"Vinoba Nagara, Shivamogga - KSPCB",12-01-2024 12:00:00,13.940000,75.555917,OZONE,2,54,23
India,Karnataka,Tumakuru,"Thimmalapura, Tumakuru - KSPCB",12-01-2024 12:00:00,13.377516,77.099072,SO2,8,11,9
India,Karnataka,Udupi,"Brahmagiri, Udupi - KSPCB",12-01-2024 12:00:00,13.34194444,74.74694444,NO2,NA,NA,NA
India,Karnataka,Udupi,"Brahmagiri, Udupi - KSPCB",12-01-2024 12:00:00,13.34194444,74.74694444,SO2,NA,NA,NA
India,Karnataka,Yadgir,"Collector Office, Yadgir - KSPCB",12-01-2024 12:00:00,16.7602,77.1428,PM10,NA,NA,NA
India,Karnataka,Yadgir,"Collector Office, Yadgir - KSPCB",12-01-2024 12:00:00,16.7602,77.1428,NH3,NA,NA,NA
India,Karnataka,Yadgir,"Collector Office, Yadgir - KSPCB",12-01-2024 12:00:00,16.7602,77.1428,SO2,NA,NA,NA
India,Kerala,Eloor,"Udyogamandal, Eloor - Kerala PCB",12-01-2024 12:00:00,10.073232,76.302765,PM2.5,NA,NA,NA
India,Kerala,Eloor,"Udyogamandal, Eloor - Kerala PCB",12-01-2024 12:00:00,10.073232,76.302765,CO,2,54,23
India,Kerala,Kannur,"Thavakkara, Kannur - Kerala PCB",12-01-2024 12:00:00,11.875000,75.373200,OZONE,31,35,33
India,Kerala,Kollam,"Polayathode, Kollam - Kerala PCB",12-01-2024 12:00:00,8.8787,76.6073,NH3,1,1,1
India,Kerala,Kollam,"Polayathode, Kollam - Kerala PCB",12-01-2024 12:00:00,8.8787,76.6073,OZONE,31,36,32
India,Kerala,Thiruvananthapuram,"Kariavattom, Thiruvananthapuram - Kerala PCB",12-01-2024 12:00:00,8.563700,76.886500,PM2.5,58,77,68
India,Kerala,Thiruvananthapuram,"Plammoodu, Thiruvananthapuram - Kerala PCB",12-01-2024 12:00:00,8.5149093,76.9435879,PM2.5,NA,NA,NA
India,Kerala,Thiruvananthapuram,"Plammoodu, Thiruvananthapuram - Kerala PCB",12-01-2024 12:00:00,8.5149093,76.9435879,NH3,2,2,2
India,Kerala,Thiruvananthapuram,"Plammoodu, Thiruvananthapuram - Kerala PCB",12-01-2024 12:00:00,8.5149093,76.9435879,CO,2,62,25
India,Madhya Pradesh,Bhopal,"Idgah Hills, Bhopal - MPPCB",12-01-2024 12:00:00,23.264759,77.381568,NO2,15,44,27
India,Madhya Pradesh,Bhopal,"Paryavaran Parisar, Bhopal - MPPCB",12-01-2024 12:00:00,23.210494,77.425409,SO2,NA,NA,NA
India,Madhya Pradesh,Bhopal,"T T Nagar, Bhopal - MPPCB",12-01-2024 12:00:00,23.233584,77.400574,CO,36,107,52
India,Madhya Pradesh,Dewas,"Bhopal Chauraha, Dewas - MPPCB",12-01-2024 12:00:00,22.9682591,76.064118,PM2.5,29,121,71
India,Madhya Pradesh,Dewas,"Bhopal Chauraha, Dewas - MPPCB",12-01-2024 12:00:00,22.9682591,76.064118,NO2,11,13,12
India,Madhya Pradesh,Gwalior,"City Center, Gwalior - MPPCB",12-01-2024 12:00:00,26.203442,78.193251,PM2.5,51,500,296
India,Madhya Pradesh,Gwalior,"City Center, Gwalior - MPPCB",12-01-2024 12:00:00,26.203442,78.193251,PM10,104,411,204
India,Madhya Pradesh,Gwalior,"City Center, Gwalior - MPPCB",12-01-2024 12:00:00,26.203442,78.193251,NH3,5,11,8
India,Madhya Pradesh,Gwalior,"Deen Dayal Nagar, Gwalior - MPPCB",12-01-2024 12:00:00,26.259242,78.216432,NO2,18,138,64
India,Madhya Pradesh,Gwalior,"Deen Dayal Nagar, Gwalior - MPPCB",12-01-2024 12:00:00,26.259242,78.216432,SO2,11,20,14
India,Madhya Pradesh,Gwalior,"Deen Dayal Nagar, Gwalior - MPPCB",12-01-2024 12:00:00,26.259242,78.216432,CO,46,150,84
India,Madhya Pradesh,Gwalior,"Maharaj Bada, Gwalior - MPPCB",12-01-2024 12:00:00,26.200388,78.147714,PM2.5,50,499,203
India,Madhya Pradesh,Gwalior,"Maharaj Bada, Gwalior - MPPCB",12-01-2024 12:00:00,26.200388,78.147714,PM10,120,500,230
India,Madhya Pradesh,Gwalior,"Phool Bagh, Gwalior - Mondelez Ind. Food",12-01-2024 12:00:00,26.210536,78.171,SO2,10,19,13
India,Madhya Pradesh,Indore,"Chhoti Gwaltoli, Indore - MPPCB",12-01-2024 12:00:00,22.4310,75.5213,NH3,4,6,5
India,Madhya Pradesh,Indore,"Maguda Nagar, Indore - IMC",12-01-2024 12:00:00,22.7524,75.8872,PM10,33,76,50
India,Madhya Pradesh,Indore,"Regional Park, Indore - IMC",12-01-2024 12:00:00,22.6780,75.8559,SO2,43,46,45
India,Madhya Pradesh,Indore,"Regional Park, Indore - IMC",12-01-2024 12:00:00,22.6780,75.8559,CO,19,28,21
India,Madhya Pradesh,Indore,"Regional Park, Indore - IMC",12-01-2024 12:00:00,22.6780,75.8559,OZONE,4,9,5
India,Madhya Pradesh,Indore,"Residency Area, Indore - IMC",12-01-2024 12:00:00,22.7084,75.8815,SO2,14,28,22
India,Madhya Pradesh,Indore,"Residency Area, Indore - IMC",12-01-2024 12:00:00,22.7084,75.8815,OZONE,10,17,13
India,Madhya Pradesh,Jabalpur,"Marhatal, Jabalpur - MPPCB",12-01-2024 12:00:00,23.168606,79.932247,PM2.5,56,370,164
India,Madhya Pradesh,Jabalpur,"Marhatal, Jabalpur - MPPCB",12-01-2024 12:00:00,23.168606,79.932247,NO2,33,118,62
India,Madhya Pradesh,Jabalpur,"Marhatal, Jabalpur - MPPCB",12-01-2024 12:00:00,23.168606,79.932247,CO,49,142,71
India,Madhya Pradesh,Jabalpur,"Marhatal, Jabalpur - MPPCB",12-01-2024 12:00:00,23.168606,79.932247,OZONE,1,63,17
India,Madhya Pradesh,Jabalpur,"Suhagi, Jabalpur - JMC",12-01-2024 12:00:00,23.218135,79.957770,PM10,66,289,118
India,Madhya Pradesh,Jabalpur,"Suhagi, Jabalpur - JMC",12-01-2024 12:00:00,23.218135,79.957770,NO2,54,58,57
India,Madhya Pradesh,Katni,"Gole Bazar, Katni - MPPCB",12-01-2024 12:00:00,23.50016,80.23284,PM2.5,49,152,81
India,Madhya Pradesh,Maihar,"Sahilara, Maihar - KJS Cements",12-01-2024 12:00:00,24.2613009,80.7231783,SO2,12,17,13
India,Madhya Pradesh,Maihar,"Sahilara, Maihar - KJS Cements",12-01-2024 12:00:00,24.2613009,80.7231783,CO,34,111,55
India,Madhya Pradesh,Mandideep,"Sector-D Industrial Area, Mandideep - MPPCB",12-01-2024 12:00:00,23.108440,77.511428,OZONE,8,35,13
India,Madhya Pradesh,Ratlam,"Shasthri Nagar, Ratlam - IPCA Lab",12-01-2024 12:00:00,23.331731,75.045981,PM10,49,164,107
India,Madhya Pradesh,Sagar,"Civil Lines, Sagar - MPPCB",12-01-2024 12:00:00,23.838586,78.759431,PM10,61,142,96
India,Madhya Pradesh,Sagar,"Civil Lines, Sagar - MPPCB",12-01-2024 12:00:00,23.838586,78.759431,CO,25,70,30
India,Madhya Pradesh,Sagar,"Civil Lines, Sagar - MPPCB",12-01-2024 12:00:00,23.838586,78.759431,OZONE,38,42,41
India,Madhya Pradesh,Ujjain,"Mahakaleshwar Temple, Ujjain - MPPCB",12-01-2024 12:00:00,23.182719 ,75.768218 ,PM10,56,140,101
India,Maharashtra,Ahmednagar,"Tarakpur, Ahmednagar - MPCB",12-01-2024 12:00:00,19.10122,74.73339,PM2.5,43,190,104
India,Maharashtra,Ahmednagar,"Tarakpur, Ahmednagar - MPCB",12-01-2024 12:00:00,19.10122,74.73339,PM10,59,409,165
India,Maharashtra,Ahmednagar,"Tarakpur, Ahmednagar - MPCB",12-01-2024 12:00:00,19.10122,74.73339,CO,17,109,41
India,Maharashtra,Akola,"Ramdaspeth, Akola - MPCB",12-01-2024 12:00:00,20.719516,77.000253,PM10,80,223,138
India,Maharashtra,Akola,"Ramdaspeth, Akola - MPCB",12-01-2024 12:00:00,20.719516,77.000253,OZONE,7,77,32
India,Maharashtra,Amravati,"Shivneri Colony, Amravati - MPCB",12-01-2024 12:00:00,20.9402359,77.7895248,NH3,1,3,2
India,Maharashtra,Amravati,"Shri Shivaji Science College, Amaravati - MPCB",12-01-2024 12:00:00,20.939198,77.765701,PM2.5,76,213,114
India,Maharashtra,Aurangabad,"More Chowk Waluj, Aurangabad - MPCB",12-01-2024 12:00:00,19.8389439,75.244448,NH3,1,1,1
India,Maharashtra,Aurangabad,"Rachnakar Colony, Aurangabad - MPCB",12-01-2024 12:00:00,19.863756,75.321188,NO2,18,99,52
India,Maharashtra,Badlapur,"Katrap, Badlapur - MPCB",12-01-2024 12:00:00,19.16485,73.23409,PM10,80,275,177
India,Maharashtra,Bhiwandi,"Gokul Nagar, Bhiwandi - MPCB",12-01-2024 12:00:00,19.309073,73.057223,PM2.5,78,311,201
India,Maharashtra,Bhiwandi,"Gokul Nagar, Bhiwandi - MPCB",12-01-2024 12:00:00,19.309073,73.057223,SO2,5,17,10
India,Maharashtra,Bhiwandi,"Gokul Nagar, Bhiwandi - MPCB",12-01-2024 12:00:00,19.309073,73.057223,OZONE,11,42,16
India,Maharashtra,Boisar,"Khaira, Boisar - MPCB",12-01-2024 12:00:00,19.786089,72.757971,NO2,1,153,42
India,Maharashtra,Boisar,"Khaira, Boisar - MPCB",12-01-2024 12:00:00,19.786089,72.757971,SO2,13,49,29
India,Maharashtra,Boisar,"Khaira, Boisar - MPCB",12-01-2024 12:00:00,19.786089,72.757971,CO,21,55,36
India,Maharashtra,Chandrapur,"MIDC Khutala, Chandrapur - MPCB",12-01-2024 12:00:00,19.9775302,79.2337086,PM2.5,NA,NA,NA
India,Maharashtra,Chandrapur,"MIDC Khutala, Chandrapur - MPCB",12-01-2024 12:00:00,19.9775302,79.2337086,NO2,NA,NA,NA
India,Maharashtra,Chandrapur,"MIDC Khutala, Chandrapur - MPCB",12-01-2024 12:00:00,19.9775302,79.2337086,NH3,NA,NA,NA
India,Maharashtra,Dhule,"Deopur, Dhule - MPCB",12-01-2024 12:00:00,20.918946,74.776388,PM2.5,103,290,152
India,Maharashtra,Dhule,"Deopur, Dhule - MPCB",12-01-2024 12:00:00,20.918946,74.776388,SO2,6,52,16
India,Maharashtra,Jalgaon,"Prabhat Colony, Jalgaon - MPCB",12-01-2024 12:00:00,21.001264,75.565602,NH3,6,10,8
India,Maharashtra,Jalgaon,"Prabhat Colony, Jalgaon - MPCB",12-01-2024 12:00:00,21.001264,75.565602,CO,10,30,19
India,Maharashtra,Jalna,"Old MIDC, Jalna - MPCB",12-01-2024 12:00:00,19.854616,75.905894,PM10,86,160,116
India,Maharashtra,Jalna,"Old MIDC, Jalna - MPCB",12-01-2024 12:00:00,19.854616,75.905894,NH3,6,8,7
India,Maharashtra,Jalna,"Old MIDC, Jalna - MPCB",12-01-2024 12:00:00,19.854616,75.905894,CO,32,46,39
India,Maharashtra,Kalyan,"Khadakpada, Kalyan - MPCB",12-01-2024 12:00:00,19.25292,73.142019,CO,9,78,17
India,Maharashtra,Kolhapur,"Shivaji University, Kolhapur - MPCB",12-01-2024 12:00:00,16.6870449,74.2505872,SO2,2,7,3
India,Maharashtra,Kolhapur,"Sinchan Bhavan, Kolhapur - MPCB",12-01-2024 12:00:00,16.7143745,74.2426398,NO2,25,88,48
India,Maharashtra,Kolhapur,"Sinchan Bhavan, Kolhapur - MPCB",12-01-2024 12:00:00,16.7143745,74.2426398,NH3,7,8,8
India,Maharashtra,Kolhapur,"Sinchan Bhavan, Kolhapur - MPCB",12-01-2024 12:00:00,16.7143745,74.2426398,SO2,1,9,2
India,Maharashtra,Kolhapur,"Sinchan Bhavan, Kolhapur - MPCB",12-01-2024 12:00:00,16.7143745,74.2426398,CO,36,106,54
India,Maharashtra,Kolhapur,"Sinchan Bhavan, Kolhapur - MPCB",12-01-2024 12:00:00,16.7143745,74.2426398,OZONE,1,87,17
India,Maharashtra,Latur,"Sawe Wadi, Latur - MPCB",12-01-2024 12:00:00,18.39963,76.57452,PM2.5,43,171,92
India,Maharashtra,Latur,"Sawe Wadi, Latur - MPCB",12-01-2024 12:00:00,18.39963,76.57452,NH3,8,8,8
India,Maharashtra,Mahad,"Kamble Tarf Birwadi, Mahad - MPCB",12-01-2024 12:00:00,18.1023399,73.4783687,OZONE,9,70,22
India,Maharashtra,Malegaon,"Mahesh Nagar, Malegaon - MPCB",12-01-2024 12:00:00,20.555712,74.529236,NO2,3,14,8
India,Maharashtra,Malegaon,"Mahesh Nagar, Malegaon - MPCB",12-01-2024 12:00:00,20.555712,74.529236,OZONE,8,80,31
India,Maharashtra,Mira-Bhayandar,"Bhayandar West, Mira-Bhayandar - MPCB",12-01-2024 12:00:00,19.296481,72.840923,PM10,109,146,128
India,Maharashtra,Mira-Bhayandar,"Bhayandar West, Mira-Bhayandar - MPCB",12-01-2024 12:00:00,19.296481,72.840923,NO2,12,65,33
India,Maharashtra,Mumbai,"Bandra Kurla Complex, Mumbai - MPCB",12-01-2024 12:00:00,19.065931,72.862131,NO2,20,58,39
India,Maharashtra,Mumbai,"Bandra Kurla Complex, Mumbai - MPCB",12-01-2024 12:00:00,19.065931,72.862131,SO2,1,13,4
India,Maharashtra,Mumbai,"Borivali East, Mumbai - IITM",12-01-2024 12:00:00,19.23241,72.86895,NH3,4,6,5
India,Maharashtra,Mumbai,"Borivali East, Mumbai - MPCB",12-01-2024 12:00:00,19.2243333,72.8658113,PM10,67,113,92
India,Maharashtra,Mumbai,"Borivali East, Mumbai - MPCB",12-01-2024 12:00:00,19.2243333,72.8658113,NH3,1,2,1
India,Maharashtra,Mumbai,"Borivali East, Mumbai - MPCB",12-01-2024 12:00:00,19.2243333,72.8658113,CO,4,173,28
India,Maharashtra,Mumbai,"Borivali East, Mumbai - MPCB",12-01-2024 12:00:00,19.2243333,72.8658113,OZONE,8,9,9
India,Maharashtra,Mumbai,"Byculla, Mumbai - BMC",12-01-2024 12:00:00,18.9767,72.8380,PM2.5,93,211,145
India,Maharashtra,Mumbai,"Chakala-Andheri East, Mumbai - IITM",12-01-2024 12:00:00,19.11074,72.86084,SO2,8,100,49
India,Maharashtra,Mumbai,"Chakala-Andheri East, Mumbai - IITM",12-01-2024 12:00:00,19.11074,72.86084,CO,12,121,64
India,Maharashtra,Mumbai,"Chhatrapati Shivaji Intl. Airport (T2), Mumbai - MPCB",12-01-2024 12:00:00,19.10078,72.87462,SO2,21,32,27
India,Maharashtra,Mumbai,"Chhatrapati Shivaji Intl. Airport (T2), Mumbai - MPCB",12-01-2024 12:00:00,19.10078,72.87462,OZONE,1,27,4
India,Maharashtra,Mumbai,"Colaba, Mumbai - MPCB",12-01-2024 12:00:00,18.910000,72.820000,PM2.5,68,130,97
India,Maharashtra,Mumbai,"Kandivali East, Mumbai - MPCB",12-01-2024 12:00:00,19.205800,72.868200,PM10,66,198,119
India,Maharashtra,Mumbai,"Kandivali East, Mumbai - MPCB",12-01-2024 12:00:00,19.205800,72.868200,NO2,31,111,67
India,Maharashtra,Mumbai,"Kandivali East, Mumbai - MPCB",12-01-2024 12:00:00,19.205800,72.868200,NH3,6,16,10
India,Maharashtra,Mumbai,"Kherwadi_Bandra East, Mumbai - MPCB",12-01-2024 12:00:00,19.0632143,72.8456324,NO2,22,96,58
India,Maharashtra,Mumbai,"Khindipada-Bhandup West, Mumbai - IITM",12-01-2024 12:00:00,19.1653323,72.922099,NO2,3,5,4
India,Maharashtra,Mumbai,"Kurla, Mumbai - MPCB",12-01-2024 12:00:00,19.0863,72.8888,NO2,17,40,28
India,Maharashtra,Mumbai,"Malad West, Mumbai - IITM",12-01-2024 12:00:00,19.19709,72.82204,NO2,NA,NA,NA
India,Maharashtra,Mumbai,"Malad West, Mumbai - IITM",12-01-2024 12:00:00,19.19709,72.82204,CO,7,104,37
India,Maharashtra,Mumbai,"Mazgaon, Mumbai - IITM",12-01-2024 12:00:00,18.96702,72.84214,PM10,130,165,150
India,Maharashtra,Mumbai,"Mindspace-Malad West, Mumbai - MPCB",12-01-2024 12:00:00,19.1878657,72.8304069,PM10,NA,NA,NA
India,Maharashtra,Mumbai,"Mindspace-Malad West, Mumbai - MPCB",12-01-2024 12:00:00,19.1878657,72.8304069,NO2,NA,NA,NA
India,Maharashtra,Mumbai,"Mulund West, Mumbai - MPCB",12-01-2024 12:00:00,19.1750,72.9419,PM2.5,59,105,75
India,Maharashtra,Mumbai,"Mulund West, Mumbai - MPCB",12-01-2024 12:00:00,19.1750,72.9419,OZONE,8,8,8
India,Maharashtra,Mumbai,"Navy Nagar-Colaba, Mumbai - IITM",12-01-2024 12:00:00,18.897756,72.813320,PM2.5,94,308,227
India,Maharashtra,Mumbai,"Powai, Mumbai - MPCB",12-01-2024 12:00:00,19.137500,72.915056,PM10,100,141,119
India,Maharashtra,Mumbai,"Powai, Mumbai - MPCB",12-01-2024 12:00:00,19.137500,72.915056,CO,38,50,47
India,Maharashtra,Mumbai,"Siddharth Nagar-Worli, Mumbai - IITM",12-01-2024 12:00:00,19.000083,72.813993,NO2,104,179,127
India,Maharashtra,Mumbai,"Vile Parle West, Mumbai - MPCB",12-01-2024 12:00:00,19.10861,72.83622,NH3,9,10,10
India,Maharashtra,Mumbai,"Vile Parle West, Mumbai - MPCB",12-01-2024 12:00:00,19.10861,72.83622,SO2,13,14,14
India,Maharashtra,Nagpur,"Opp GPO Civil Lines, Nagpur - MPCB",12-01-2024 12:00:00,21.152875,79.0517531,SO2,5,113,36
India,Maharashtra,Nagpur,"Opp GPO Civil Lines, Nagpur - MPCB",12-01-2024 12:00:00,21.152875,79.0517531,OZONE,3,74,24
India,Maharashtra,Nanded,"Sneh Nagar, Nanded - MPCB",12-01-2024 12:00:00,19.173852,77.296291,PM2.5,60,215,99
India,Maharashtra,Nanded,"Sneh Nagar, Nanded - MPCB",12-01-2024 12:00:00,19.173852,77.296291,SO2,1,7,4
India,Maharashtra,Nanded,"Sneh Nagar, Nanded - MPCB",12-01-2024 12:00:00,19.173852,77.296291,CO,36,44,40
India,Maharashtra,Nashik,"Gangapur Road, Nashik - MPCB",12-01-2024 12:00:00,20.0073285,73.7762427,PM10,57,151,90
India,Maharashtra,Nashik,"Gangapur Road, Nashik - MPCB",12-01-2024 12:00:00,20.0073285,73.7762427,NO2,1,7,4
India,Maharashtra,Nashik,"Hirawadi, Nashik - MPCB",12-01-2024 12:00:00,20.021503,73.813844,PM2.5,55,122,79
India,Maharashtra,Nashik,"Hirawadi, Nashik - MPCB",12-01-2024 12:00:00,20.021503,73.813844,NO2,30,111,56
India,Maharashtra,Nashik,"Hirawadi, Nashik - MPCB",12-01-2024 12:00:00,20.021503,73.813844,NH3,1,1,1
India,Maharashtra,Nashik,"MIDC Ambad, Nashik - MPCB",12-01-2024 12:00:00,19.950220,73.731480,PM2.5,75,309,162
India,Maharashtra,Nashik,"MIDC Ambad, Nashik - MPCB",12-01-2024 12:00:00,19.950220,73.731480,NO2,22,142,68
India,Maharashtra,Nashik,"Pandav Nagari, Nashik - MPCB",12-01-2024 12:00:00,19.9591346,73.7788008,NO2,NA,NA,NA
India,Maharashtra,Nashik,"Pandav Nagari, Nashik - MPCB",12-01-2024 12:00:00,19.9591346,73.7788008,SO2,NA,NA,NA
India,Maharashtra,Navi Mumbai,"Kopripada-Vashi, Navi Mumbai - MPCB",12-01-2024 12:00:00,19.090337,73.014232,PM10,46,174,104
India,Maharashtra,Navi Mumbai,"Kopripada-Vashi, Navi Mumbai - MPCB",12-01-2024 12:00:00,19.090337,73.014232,SO2,11,41,18
India,Maharashtra,Navi Mumbai,"Kopripada-Vashi, Navi Mumbai - MPCB",12-01-2024 12:00:00,19.090337,73.014232,OZONE,4,100,26
India,Maharashtra,Navi Mumbai,"Mahape, Navi Mumbai - MPCB",12-01-2024 12:00:00,19.1135051,73.008978,PM2.5,61,200,90
India,Maharashtra,Navi Mumbai,"Nerul, Navi Mumbai - MPCB",12-01-2024 12:00:00,19.008751,73.016620,PM10,88,142,117
India,Maharashtra,Navi Mumbai,"Nerul, Navi Mumbai - MPCB",12-01-2024 12:00:00,19.008751,73.016620,NO2,10,99,24
India,Maharashtra,Navi Mumbai,"Sanpada, Navi Mumbai - MPCB",12-01-2024 12:00:00,19.0575752,73.0151367,PM2.5,74,200,135
India,Maharashtra,Navi Mumbai,"Sanpada, Navi Mumbai - MPCB",12-01-2024 12:00:00,19.0575752,73.0151367,PM10,83,148,122
India,Maharashtra,Navi Mumbai,"Sector-19A Nerul, Navi Mumbai - IITM",12-01-2024 12:00:00,19.044,73.0325,PM10,112,232,183
India,Maharashtra,Navi Mumbai,"Sector-19A Nerul, Navi Mumbai - IITM",12-01-2024 12:00:00,19.044,73.0325,NH3,7,28,18
India,Maharashtra,Navi Mumbai,"Sector-19A Nerul, Navi Mumbai - IITM",12-01-2024 12:00:00,19.044,73.0325,OZONE,1,155,10
India,Maharashtra,Navi Mumbai,"Sector-2E Kalamboli, Navi Mumbai - MPCB",12-01-2024 12:00:00,19.02579,73.10297,OZONE,1,128,15
India,Maharashtra,Parbhani,"Masoom Colony, Parbhani - MPCB",12-01-2024 12:00:00,19.265594,76.761463,PM10,71,121,96
India,Maharashtra,Parbhani,"Masoom Colony, Parbhani - MPCB",12-01-2024 12:00:00,19.265594,76.761463,CO,28,100,58
India,Maharashtra,Parbhani,"Masoom Colony, Parbhani - MPCB",12-01-2024 12:00:00,19.265594,76.761463,OZONE,40,121,69
India,Maharashtra,Pimpri-Chinchwad,"Gavalinagar, Pimpri Chinchwad - MPCB",12-01-2024 12:00:00,18.63673,73.82487,PM10,21,208,129
India,Maharashtra,Pimpri-Chinchwad,"Gavalinagar, Pimpri Chinchwad - MPCB",12-01-2024 12:00:00,18.63673,73.82487,NH3,3,31,9
India,Maharashtra,Pimpri-Chinchwad,"Park Street Wakad, Pimpri Chinchwad - MPCB",12-01-2024 12:00:00,18.59051,73.77946,CO,18,128,80
India,Maharashtra,Pimpri-Chinchwad,"Park Street Wakad, Pimpri Chinchwad - MPCB",12-01-2024 12:00:00,18.59051,73.77946,OZONE,1,116,19
India,Maharashtra,Pune,"Alandi, Pune - IITM",12-01-2024 12:00:00,18.675076,73.892743,PM2.5,34,117,66
India,Maharashtra,Pune,"Alandi, Pune - IITM",12-01-2024 12:00:00,18.675076,73.892743,CO,28,92,44
India,Maharashtra,Pune,"Bhosari, Pune - IITM",12-01-2024 12:00:00,18.640051,73.848956,PM2.5,20,261,126
India,Maharashtra,Pune,"Bhosari, Pune - IITM",12-01-2024 12:00:00,18.640051,73.848956,OZONE,2,35,10
India,Maharashtra,Pune,"Karve Road, Pune - MPCB",12-01-2024 12:00:00,18.5011743,73.8165527,PM10,97,97,97
India,Maharashtra,Pune,"Katraj Dairy, Pune - MPCB",12-01-2024 12:00:00,18.454450,73.854155,NO2,29,49,38
India,Maharashtra,Pune,"Mhada Colony, Pune - IITM",12-01-2024 12:00:00,18.573040,73.927715,PM2.5,38,246,131
India,Maharashtra,Pune,"Mhada Colony, Pune - IITM",12-01-2024 12:00:00,18.573040,73.927715,PM10,34,127,92
India,Maharashtra,Pune,"Mhada Colony, Pune - IITM",12-01-2024 12:00:00,18.573040,73.927715,NO2,5,65,40
India,Maharashtra,Pune,"Revenue Colony-Shivajinagar, Pune - IITM",12-01-2024 12:00:00,18.530085,73.849598,PM10,81,232,153
India,Maharashtra,Pune,"Revenue Colony-Shivajinagar, Pune - IITM",12-01-2024 12:00:00,18.530085,73.849598,NO2,127,225,177
India,Maharashtra,Pune,"Revenue Colony-Shivajinagar, Pune - IITM",12-01-2024 12:00:00,18.530085,73.849598,CO,108,141,114
India,Maharashtra,Pune,"Savitribai Phule Pune University, Pune - MPCB",12-01-2024 12:00:00,18.547056,73.826908,PM2.5,58,291,168
India,Maharashtra,Pune,"Savitribai Phule Pune University, Pune - MPCB",12-01-2024 12:00:00,18.547056,73.826908,SO2,7,25,15
India,Maharashtra,Pune,"Transport Nagar-Nigdi, Pune - IITM",12-01-2024 12:00:00,18.664282,73.763966,PM2.5,44,181,97
India,Maharashtra,Pune,"Transport Nagar-Nigdi, Pune - IITM",12-01-2024 12:00:00,18.664282,73.763966,PM10,80,163,125
India,Maharashtra,Pune,"Transport Nagar-Nigdi, Pune - IITM",12-01-2024 12:00:00,18.664282,73.763966,OZONE,3,53,28
India,Maharashtra,Solapur,"Dnyaneshwar Nagar, Solapur - MPCB",12-01-2024 12:00:00,17.6336264,75.9132495,SO2,4,106,22
India,Maharashtra,Thane,"Kasarvadavali, Thane - MPCB",12-01-2024 12:00:00,19.26777,72.97182,NH3,3,13,5
India,Maharashtra,Thane,"Upvan Fort, Thane - MPCB",12-01-2024 12:00:00,19.222279,72.957979,NH3,8,10,9
India,Maharashtra,Thane,"Upvan Fort, Thane - MPCB",12-01-2024 12:00:00,19.222279,72.957979,CO,14,48,32
India,Maharashtra,Ulhasnagar,"Sidhi Vinayak Nagar, Ulhasnagar - MPCB",12-01-2024 12:00:00,19.235581,73.159121,NO2,NA,NA,NA
India,Maharashtra,Ulhasnagar,"Sidhi Vinayak Nagar, Ulhasnagar - MPCB",12-01-2024 12:00:00,19.235581,73.159121,SO2,NA,NA,NA
India,Maharashtra,Ulhasnagar,"Sidhi Vinayak Nagar, Ulhasnagar - MPCB",12-01-2024 12:00:00,19.235581,73.159121,CO,11,94,19
India,Maharashtra,Ulhasnagar,"Sidhi Vinayak Nagar, Ulhasnagar - MPCB",12-01-2024 12:00:00,19.235581,73.159121,OZONE,18,139,99
India,Maharashtra,Virar,"Bolinj, Virar - MPCB",12-01-2024 12:00:00,19.4458210,72.7988231,PM10,108,172,128
India,Manipur,Imphal,"DM College of Science, Imphal - Manipur PCB",12-01-2024 12:00:00,24.8207389,93.9423085,NH3,2,2,2
India,Manipur,Imphal,"DM College of Science, Imphal - Manipur PCB",12-01-2024 12:00:00,24.8207389,93.9423085,SO2,80,82,81
India,Manipur,Imphal,"Manipur University, Imphal - Manipur PCB",12-01-2024 12:00:00,24.7524239,93.9286218,OZONE,2,14,6
India,Meghalaya,Shillong,"JN Stadium, Shillong - Meghalaya PCB",12-01-2024 12:00:00,25.5803419,91.8942571,NH3,2,4,3
India,Meghalaya,Shillong,"JN Stadium, Shillong - Meghalaya PCB",12-01-2024 12:00:00,25.5803419,91.8942571,SO2,27,29,28
India,Meghalaya,Shillong,"JN Stadium, Shillong - Meghalaya PCB",12-01-2024 12:00:00,25.5803419,91.8942571,OZONE,1,33,14
India,Mizoram,Aizawl,"Sikulpuikawn, Aizawl - Mizoram PCB",12-01-2024 12:00:00,23.7176342,92.7192841,OZONE,3,6,4
India,Nagaland,Kohima,"PWD Juction, Kohima - NPCB",12-01-2024 12:00:00,25.6635413,94.0989878,NH3,NA,NA,NA
India,Nagaland,Kohima,"PWD Juction, Kohima - NPCB",12-01-2024 12:00:00,25.6635413,94.0989878,SO2,84,100,89
India,Odisha,Angul,"Hakimapada, Angul - OSPCB",12-01-2024 12:00:00,20.832874,85.104082,NO2,17,75,35
India,Odisha,Barbil,"Forest Office, Barbil - OSPCB",12-01-2024 12:00:00,22.1166054,85.3945546,NO2,8,35,16
India,Odisha,Barbil,"Forest Office, Barbil - OSPCB",12-01-2024 12:00:00,22.1166054,85.3945546,NH3,3,4,4
India,Odisha,Bhubaneswar,"Patia, Bhubaneswar - OSPCB",12-01-2024 12:00:00,20.34652,85.81630,NO2,19,43,27
India,Odisha,Bileipada,"Tata Township, Bileipada - OSPCB",12-01-2024 12:00:00,22.06156703,85.47409613,NO2,5,16,7
India,Odisha,Bileipada,"Tata Township, Bileipada - OSPCB",12-01-2024 12:00:00,22.06156703,85.47409613,NH3,11,11,11
India,Odisha,Brajrajnagar,"GM Office, Brajrajnagar - OSPCB",12-01-2024 12:00:00,21.8004996,83.8396977,SO2,13,24,18
India,Odisha,Byasanagar,"Ferro Chrome Colony, Byasanagar - OSPCB",12-01-2024 12:00:00,20.94185,86.11510,PM10,118,213,166
India,Odisha,Byasanagar,"Ferro Chrome Colony, Byasanagar - OSPCB",12-01-2024 12:00:00,20.94185,86.11510,NH3,2,4,3
India,Odisha,Byasanagar,"Ferro Chrome Colony, Byasanagar - OSPCB",12-01-2024 12:00:00,20.94185,86.11510,OZONE,24,165,57
India,Odisha,Cuttack,"CDA Area, Cuttack - OSPCB",12-01-2024 12:00:00,20.48891     ,85.84768     ,PM10,97,191,137
India,Odisha,Keonjhar,"Jagamohanpur, Keonjhar - OSPCB",12-01-2024 12:00:00,21.643900,85.599355,NO2,32,104,60
India,Odisha,Keonjhar,"Jagamohanpur, Keonjhar - OSPCB",12-01-2024 12:00:00,21.643900,85.599355,NH3,10,17,12
India,Odisha,Keonjhar,"Jagamohanpur, Keonjhar - OSPCB",12-01-2024 12:00:00,21.643900,85.599355,OZONE,1,29,7
India,Odisha,Nayagarh,"Dabuna, Nayagarh - OSPCB",12-01-2024 12:00:00,21.847279,85.416905,PM2.5,77,188,119
India,Odisha,Rairangpur,"Divisional Forest Office, Rairangpur - OSPCB",12-01-2024 12:00:00,22.265816,86.174829,NH3,3,3,3
India,Odisha,Rourkela,"Fertilizer Township, Rourkela - OSPCB",12-01-2024 12:00:00,22.18972222,84.86277778,CO,16,26,19
India,Odisha,Rourkela,"Raghunathpali, Rourkela - OSPCB",12-01-2024 12:00:00,22.220833,84.809444,PM2.5,81,264,153
India,Odisha,Rourkela,"Raghunathpali, Rourkela - OSPCB",12-01-2024 12:00:00,22.220833,84.809444,NO2,21,113,51
India,Odisha,Rourkela,"Raghunathpali, Rourkela - OSPCB",12-01-2024 12:00:00,22.220833,84.809444,SO2,1,4,2
India,Odisha,Rourkela,"Sector-2, Rourkela - OSPCB",12-01-2024 12:00:00,22.24500000,84.88111111,PM2.5,34,175,86
India,Odisha,Suakati,"OMC Colony, Suakati - OSPCB",12-01-2024 12:00:00,21.606865,85.510538,OZONE,3,145,67
India,Odisha,Talcher,"Talcher Coalfields,Talcher - OSPCB",12-01-2024 12:00:00,20.9360711,85.1707021,NH3,7,8,7
India,Punjab,Amritsar,"Golden Temple, Amritsar - PPCB",12-01-2024 12:00:00,31.620000,74.876512,PM10,103,214,147
India,Punjab,Jalandhar,"Civil Line, Jalandhar - PPCB",12-01-2024 12:00:00,31.321907,75.578914,PM2.5,52,320,133
India,Punjab,Jalandhar,"Civil Line, Jalandhar - PPCB",12-01-2024 12:00:00,31.321907,75.578914,NO2,30,32,31
India,Punjab,Jalandhar,"Civil Line, Jalandhar - PPCB",12-01-2024 12:00:00,31.321907,75.578914,NH3,9,9,9
India,Punjab,Jalandhar,"Civil Line, Jalandhar - PPCB",12-01-2024 12:00:00,31.321907,75.578914,OZONE,11,41,15
India,Punjab,Khanna,"Kalal Majra, Khanna - PPCB",12-01-2024 12:00:00,30.736056 ,76.209694,OZONE,16,28,20
India,Punjab,Ludhiana,"Punjab Agricultural University, Ludhiana - PPCB",12-01-2024 12:00:00,30.9028,75.8086,SO2,3,18,9
India,Punjab,Mandi Gobindgarh,"RIMT University, Mandi Gobindgarh - PPCB",12-01-2024 12:00:00,30.649961,76.331442,NH3,2,2,2
India,Punjab,Mandi Gobindgarh,"RIMT University, Mandi Gobindgarh - PPCB",12-01-2024 12:00:00,30.649961,76.331442,SO2,12,41,21
India,Punjab,Mandi Gobindgarh,"RIMT University, Mandi Gobindgarh - PPCB",12-01-2024 12:00:00,30.649961,76.331442,CO,15,56,30
India,Punjab,Patiala,"Model Town, Patiala - PPCB",12-01-2024 12:00:00,30.349388,76.366642,CO,50,64,53
India,Punjab,Patiala,"Model Town, Patiala - PPCB",12-01-2024 12:00:00,30.349388,76.366642,OZONE,23,40,27
India,Rajasthan,Ajmer,"Civil Lines,  Ajmer - RSPCB",12-01-2024 12:00:00,26.470859,74.646594,PM2.5,24,268,107
India,Rajasthan,Alwar,"Moti Doongri, Alwar - RSPCB",12-01-2024 12:00:00,27.554793,76.611536,PM2.5,45,306,120
India,Rajasthan,Banswara,"Rati Talai, Banswara - RSPCB",12-01-2024 12:00:00,23.555190,74.440010,PM10,56,258,122
India,Rajasthan,Banswara,"Rati Talai, Banswara - RSPCB",12-01-2024 12:00:00,23.555190,74.440010,SO2,2,25,10
India,Rajasthan,Banswara,"Rati Talai, Banswara - RSPCB",12-01-2024 12:00:00,23.555190,74.440010,CO,44,105,49
India,Rajasthan,Barmer,"Railway Colony, Barmer - RSPCB",12-01-2024 12:00:00,25.747299,71.393989,CO,8,132,21
India,Rajasthan,Bhilwara,"Pratap Nagar, Bhilwara - RSPCB",12-01-2024 12:00:00,25.339605,74.618883,NH3,2,7,4
India,Rajasthan,Bhilwara,"Pratap Nagar, Bhilwara - RSPCB",12-01-2024 12:00:00,25.339605,74.618883,CO,22,102,58
India,Rajasthan,Bhilwara,"Pratap Nagar, Bhilwara - RSPCB",12-01-2024 12:00:00,25.339605,74.618883,OZONE,3,144,30
India,Rajasthan,Bikaner,"MM Ground, Bikaner - RSPCB",12-01-2024 12:00:00,28.018792,73.292658,PM2.5,60,429,212
India,Rajasthan,Bikaner,"MM Ground, Bikaner - RSPCB",12-01-2024 12:00:00,28.018792,73.292658,NH3,15,25,19
India,Rajasthan,Bundi,"New Colony, Bundi - RSPCB",12-01-2024 12:00:00,25.435774,75.644272,CO,22,97,37
India,Rajasthan,Churu,"Subash Chowk, Churu - RSPCB",12-01-2024 12:00:00,28.296139,74.961696,PM2.5,62,405,194
India,Rajasthan,Churu,"Subash Chowk, Churu - RSPCB",12-01-2024 12:00:00,28.296139,74.961696,NO2,23,122,60
India,Rajasthan,Dausa,"Khatikan Mohalla, Dausa - RSPCB",12-01-2024 12:00:00,26.895552,76.334753,PM10,64,317,127
India,Rajasthan,Dausa,"Khatikan Mohalla, Dausa - RSPCB",12-01-2024 12:00:00,26.895552,76.334753,CO,34,138,103
India,Rajasthan,Dungarpur,"Bhoiwada, Dungarpur - RSPCB",12-01-2024 12:00:00,23.837789,73.714926,PM2.5,63,319,148
India,Rajasthan,Dungarpur,"Bhoiwada, Dungarpur - RSPCB",12-01-2024 12:00:00,23.837789,73.714926,NO2,23,58,35
India,Rajasthan,Hanumangarh,"Housing Board, Hanumangarh - RSPCB",12-01-2024 12:00:00,29.610750,74.283608,CO,36,144,83
India,Rajasthan,Jaipur,"Adarsh Nagar, Jaipur - RSPCB",12-01-2024 12:00:00,26.902909,75.836858,PM2.5,55,337,167
India,Rajasthan,Jaipur,"Adarsh Nagar, Jaipur - RSPCB",12-01-2024 12:00:00,26.902909,75.836858,PM10,76,263,129
India,Rajasthan,Jaipur,"Adarsh Nagar, Jaipur - RSPCB",12-01-2024 12:00:00,26.902909,75.836858,SO2,3,28,17
India,Rajasthan,Jaipur,"Mansarovar Sector-12, Jaipur - RSPCB",12-01-2024 12:00:00,26.843698,75.766894,PM10,106,500,241
India,Rajasthan,Jaipur,"Mansarovar Sector-12, Jaipur - RSPCB",12-01-2024 12:00:00,26.843698,75.766894,OZONE,1,84,18
India,Rajasthan,Jaipur,"RIICO Sitapura, Jaipur - RSPCB",12-01-2024 12:00:00,26.786682,75.827928,PM10,79,500,213
India,Rajasthan,Jaipur,"RIICO Sitapura, Jaipur - RSPCB",12-01-2024 12:00:00,26.786682,75.827928,SO2,7,21,10
India,Rajasthan,Jaipur,"Shastri Nagar, Jaipur - RSPCB",12-01-2024 12:00:00,26.9502929,75.730943,NO2,42,167,79
India,Rajasthan,Jaisalmer,"Sadar Bazar, Jaisalmer - RSPCB",12-01-2024 12:00:00,26.912329,70.909168,CO,2,122,19
India,Rajasthan,Jalore,"Mudtra Sili, Jalore - RSPCB",12-01-2024 12:00:00,25.344694,72.626208,NO2,19,125,65
India,Rajasthan,Jhalawar,"Rajlaxmi Nagar, Jhalawar - RSPCB",12-01-2024 12:00:00,24.588397,76.172782,PM10,47,183,103
India,Rajasthan,Jodhpur,"Collectorate, Jodhpur - RSPCB",12-01-2024 12:00:00,26.268249,73.0193853,PM2.5,NA,NA,NA
India,Rajasthan,Jodhpur,"Collectorate, Jodhpur - RSPCB",12-01-2024 12:00:00,26.268249,73.0193853,CO,25,93,73
India,Rajasthan,Jodhpur,"Digari Kalan, Jodhpur - RSPCB",12-01-2024 12:00:00,26.295810,73.082283,PM10,24,325,97
India,Rajasthan,Jodhpur,"Digari Kalan, Jodhpur - RSPCB",12-01-2024 12:00:00,26.295810,73.082283,NH3,4,9,6
India,Rajasthan,Jodhpur,"Mandor, Jodhpur - RSPCB",12-01-2024 12:00:00,26.358805,73.047444,PM2.5,15,88,54
India,Rajasthan,Jodhpur,"Mandor, Jodhpur - RSPCB",12-01-2024 12:00:00,26.358805,73.047444,PM10,26,96,61
India,Rajasthan,Kota,"Nayapura, Kota - RSPCB",12-01-2024 12:00:00,25.196024,75.855668,NH3,8,23,12
India,Rajasthan,Kota,"Nayapura, Kota - RSPCB",12-01-2024 12:00:00,25.196024,75.855668,CO,1,159,86
India,Rajasthan,Kota,"Nayapura, Kota - RSPCB",12-01-2024 12:00:00,25.196024,75.855668,OZONE,1,111,17
India,Rajasthan,Kota,"Shrinath Puram, Kota - RSPCB",12-01-2024 12:00:00,25.14389,75.821256,PM2.5,22,354,173
India,Rajasthan,Kota,"Shrinath Puram, Kota - RSPCB",12-01-2024 12:00:00,25.14389,75.821256,PM10,66,204,119
India,Rajasthan,Kota,"Shrinath Puram, Kota - RSPCB",12-01-2024 12:00:00,25.14389,75.821256,CO,13,42,23
India,Rajasthan,Nagaur,"Karni Colony, Nagaur - RSPCB",12-01-2024 12:00:00,27.213494,73.734444,PM2.5,NA,NA,NA
India,Rajasthan,Nagaur,"Karni Colony, Nagaur - RSPCB",12-01-2024 12:00:00,27.213494,73.734444,PM10,NA,NA,NA
India,Rajasthan,Pali,"Indira Colony Vistar, Pali - RSPCB",12-01-2024 12:00:00,25.771061, 73.340227,NH3,6,17,13
India,Rajasthan,Pali,"Indira Colony Vistar, Pali - RSPCB",12-01-2024 12:00:00,25.771061, 73.340227,SO2,7,15,12
India,Rajasthan,Pratapgarh,"Pragati Nagar, Pratapgarh - RSPCB",12-01-2024 12:00:00,24.041198,74.780702,PM10,65,161,107
India,Rajasthan,Pratapgarh,"Pragati Nagar, Pratapgarh - RSPCB",12-01-2024 12:00:00,24.041198,74.780702,CO,28,59,33
India,Rajasthan,Pratapgarh,"Pragati Nagar, Pratapgarh - RSPCB",12-01-2024 12:00:00,24.041198,74.780702,OZONE,25,97,43
India,Rajasthan,Rajsamand,"Dhoinda, Rajsamand - RSPCB",12-01-2024 12:00:00,25.036360,73.883502,OZONE,12,69,33
India,Rajasthan,Sawai Madhopur,"Sahu Nagar, Sawai Madhopur - RSPCB",12-01-2024 12:00:00,26.031443,76.359327,PM2.5,34,349,130
India,Rajasthan,Sawai Madhopur,"Sahu Nagar, Sawai Madhopur - RSPCB",12-01-2024 12:00:00,26.031443,76.359327,NH3,3,3,3
India,Rajasthan,Sirohi,"Vedhaynath Colony, Sirohi - RSPCB",12-01-2024 12:00:00,24.885261,72.857549,PM10,46,227,107
India,Rajasthan,Sri Ganganagar,"Old City, Sri Ganganagar - RSPCB",12-01-2024 12:00:00,29.931624,73.864511,PM2.5,147,500,318
India,Rajasthan,Sri Ganganagar,"Old City, Sri Ganganagar - RSPCB",12-01-2024 12:00:00,29.931624,73.864511,NO2,23,125,54
India,Rajasthan,Sri Ganganagar,"Old City, Sri Ganganagar - RSPCB",12-01-2024 12:00:00,29.931624,73.864511,OZONE,1,68,6
India,Rajasthan,Tonk,"Shastri Nagar, Tonk - RSPCB",12-01-2024 12:00:00,26.159933,75.780517,PM2.5,67,486,231
India,Rajasthan,Tonk,"Shastri Nagar, Tonk - RSPCB",12-01-2024 12:00:00,26.159933,75.780517,SO2,2,9,5
India,Rajasthan,Udaipur,"Ashok Nagar, Udaipur - RSPCB",12-01-2024 12:00:00,24.5886166,73.6321397,NO2,33,122,73
India,Rajasthan,Udaipur,"Ashok Nagar, Udaipur - RSPCB",12-01-2024 12:00:00,24.5886166,73.6321397,NH3,5,26,10
India,Rajasthan,Udaipur,"Ashok Nagar, Udaipur - RSPCB",12-01-2024 12:00:00,24.5886166,73.6321397,OZONE,15,23,20
India,TamilNadu,Ariyalur,"Keelapalur, Ariyalur - TNPCB",12-01-2024 12:00:00,11.06825,79.07033,NO2,NA,NA,NA
India,TamilNadu,Chengalpattu,"Crescent University, Chengalpattu - TNPCB",12-01-2024 12:00:00,12.8777316,80.0834807,PM10,NA,NA,NA
India,TamilNadu,Chennai,"Alandur Bus Depot, Chennai - CPCB",12-01-2024 12:00:00,12.9099161,80.1076538,SO2,26,32,29
India,TamilNadu,Chennai,"Alandur Bus Depot, Chennai - CPCB",12-01-2024 12:00:00,12.9099161,80.1076538,OZONE,16,35,19
India,TamilNadu,Chennai,"Arumbakkam, Chennai - TNPCB",12-01-2024 12:00:00,13.0664,80.2112 ,PM2.5,68,211,114
India,TamilNadu,Chennai,"Gandhi Nagar_Ennore, Chennai - TNPCB",12-01-2024 12:00:00,13.218341,80.32027,NO2,18,43,36
India,TamilNadu,Chennai,"Gandhi Nagar_Ennore, Chennai - TNPCB",12-01-2024 12:00:00,13.218341,80.32027,OZONE,2,4,2
India,TamilNadu,Chennai,"Kodungaiyur, Chennai - TNPCB",12-01-2024 12:00:00,13.1278,80.2642,OZONE,5,7,6
India,TamilNadu,Chennai,"Manali, Chennai - CPCB",12-01-2024 12:00:00,13.164544,80.26285,NH3,2,8,5
India,TamilNadu,Chennai,"Manali, Chennai - CPCB",12-01-2024 12:00:00,13.164544,80.26285,CO,2,100,53
India,TamilNadu,Chennai,"Perungudi, Chennai - TNPCB",12-01-2024 12:00:00,12.9533,80.2357,NO2,3,16,7
India,TamilNadu,Chennai,"Perungudi, Chennai - TNPCB",12-01-2024 12:00:00,12.9533,80.2357,SO2,1,5,3
India,TamilNadu,Chennai,"Perungudi, Chennai - TNPCB",12-01-2024 12:00:00,12.9533,80.2357,CO,26,37,32
India,TamilNadu,Chennai,"Royapuram, Chennai - TNPCB",12-01-2024 12:00:00,13.1036,80.2909,NH3,1,1,1
India,TamilNadu,Chennai,"Royapuram, Chennai - TNPCB",12-01-2024 12:00:00,13.1036,80.2909,CO,22,53,31
India,TamilNadu,Chennai,"Velachery Res. Area, Chennai - CPCB",12-01-2024 12:00:00,13.0052189,80.2398125,NO2,NA,NA,NA
India,TamilNadu,Cuddalore,"Kudikadu, Cuddalore - TNPCB",12-01-2024 12:00:00,11.6829898,79.7532099,PM10,65,143,104
India,TamilNadu,Cuddalore,"Semmandalam, Cuddalore - TNPCB",12-01-2024 12:00:00,11.7637683,79.7499835,PM2.5,53,153,88
India,TamilNadu,Cuddalore,"Semmandalam, Cuddalore - TNPCB",12-01-2024 12:00:00,11.7637683,79.7499835,NO2,14,352,50
India,TamilNadu,Cuddalore,"Semmandalam, Cuddalore - TNPCB",12-01-2024 12:00:00,11.7637683,79.7499835,OZONE,1,2,2
India,TamilNadu,Kanchipuram,"Kilambi, Kanchipuram - TNPCB",12-01-2024 12:00:00,12.864618,79.659968,PM2.5,NA,NA,NA
India,TamilNadu,Kanchipuram,"Kilambi, Kanchipuram - TNPCB",12-01-2024 12:00:00,12.864618,79.659968,NH3,NA,NA,NA
India,TamilNadu,Kanchipuram,"Kilambi, Kanchipuram - TNPCB",12-01-2024 12:00:00,12.864618,79.659968,CO,2,182,182
India,TamilNadu,Ooty,"Bombay Castel, Ooty - TNPCB",12-01-2024 12:00:00,11.4068288,76.7138973,PM10,8,83,30
India,TamilNadu,Ooty,"Bombay Castel, Ooty - TNPCB",12-01-2024 12:00:00,11.4068288,76.7138973,OZONE,5,5,5
India,TamilNadu,Palkalaiperur,"Bharathidasan University, Palkalaiperur - TNPCB",12-01-2024 12:00:00,10.681158,78.741746,PM10,NA,NA,NA
India,TamilNadu,Palkalaiperur,"Bharathidasan University, Palkalaiperur - TNPCB",12-01-2024 12:00:00,10.681158,78.741746,SO2,NA,NA,NA
India,TamilNadu,Ramanathapuram,"Chalai Bazaar, Ramanathapuram - TNPCB",12-01-2024 12:00:00,9.36399,78.831977,SO2,4,8,6
India,TamilNadu,Salem,"Sona College of Technology, Salem - TNPCB",12-01-2024 12:00:00,11.679111,78.125052,PM10,39,118,66
India,TamilNadu,Salem,"Sona College of Technology, Salem - TNPCB",12-01-2024 12:00:00,11.679111,78.125052,NH3,1,1,1
India,TamilNadu,Salem,"Sona College of Technology, Salem - TNPCB",12-01-2024 12:00:00,11.679111,78.125052,SO2,18,20,19
India,TamilNadu,Salem,"Sona College of Technology, Salem - TNPCB",12-01-2024 12:00:00,11.679111,78.125052,OZONE,3,3,3
India,TamilNadu,Thoothukudi,"Meelavittan, Thoothukudi - TNPCB",12-01-2024 12:00:00,8.816428 ,78.099039,SO2,8,24,14
India,TamilNadu,Tirupur,"Kumaran College, Tirupur - TNPCB",12-01-2024 12:00:00,11.0973603,77.3228673,CO,24,105,44
India,TamilNadu,Virudhunagar,"Collectorate Office, Virudhunagar - TNPCB",12-01-2024 12:00:00,9.559382,77.948828,NO2,13,51,26
India,Telangana,Hyderabad,"Bollaram Industrial Area, Hyderabad - TSPCB",12-01-2024 12:00:00,17.540891,78.358528,PM10,101,139,121
India,Telangana,Hyderabad,"ICRISAT Patancheru, Hyderabad - TSPCB",12-01-2024 12:00:00,17.518400,78.278777,PM10,86,151,106
India,Telangana,Hyderabad,"IITH Kandi, Hyderabad - TSPCB",12-01-2024 12:00:00,17.585705,78.126199,PM10,NA,NA,NA
India,Telangana,Hyderabad,"Kokapet, Hyderabad - TSPCB",12-01-2024 12:00:00,17.393559,78.339194,SO2,5,8,6
India,Telangana,Hyderabad,"Kokapet, Hyderabad - TSPCB",12-01-2024 12:00:00,17.393559,78.339194,OZONE,1,9,2
India,Telangana,Hyderabad,"Kompally Municipal Office, Hyderabad - TSPCB",12-01-2024 12:00:00,17.544899,78.486949,NH3,5,5,5
India,Telangana,Hyderabad,"Nacharam_TSIIC IALA, Hyderabad - TSPCB",12-01-2024 12:00:00,17.429398,78.569354,PM2.5,35,355,90
India,Telangana,Hyderabad,"Nacharam_TSIIC IALA, Hyderabad - TSPCB",12-01-2024 12:00:00,17.429398,78.569354,CO,20,37,28
India,Telangana,Hyderabad,"Ramachandrapuram, Hyderabad - TSPCB",12-01-2024 12:00:00,17.528544,78.286195,SO2,NA,NA,NA
India,Telangana,Hyderabad,"Sanathnagar, Hyderabad - TSPCB",12-01-2024 12:00:00,17.4559458,78.4332152,SO2,4,10,7
India,Telangana,Hyderabad,"Somajiguda, Hyderabad - TSPCB",12-01-2024 12:00:00,17.417094,78.457437,PM2.5,55,75,64
India,Telangana,Hyderabad,"Somajiguda, Hyderabad - TSPCB",12-01-2024 12:00:00,17.417094,78.457437,CO,16,62,35
India,Telangana,Hyderabad,"Somajiguda, Hyderabad - TSPCB",12-01-2024 12:00:00,17.417094,78.457437,OZONE,2,35,11
India,Telangana,Hyderabad,"Zoo Park, Hyderabad - TSPCB",12-01-2024 12:00:00,17.349694,78.451437,SO2,1,4,2
India,Tripura,Agartala,"Bardowali, Agartala - Tripura SPCB",12-01-2024 12:00:00,23.8175497,91.2726974,PM2.5,276,346,313
India,Tripura,Agartala,"Bardowali, Agartala - Tripura SPCB",12-01-2024 12:00:00,23.8175497,91.2726974,PM10,170,286,207
India,Tripura,Agartala,"Bardowali, Agartala - Tripura SPCB",12-01-2024 12:00:00,23.8175497,91.2726974,SO2,22,23,23
India,Tripura,Agartala,"Bardowali, Agartala - Tripura SPCB",12-01-2024 12:00:00,23.8175497,91.2726974,CO,35,67,42
India,Uttar_Pradesh,Agra,"Manoharpur, Agra - UPPCB",12-01-2024 12:00:00,27.23711,78.01936,NO2,19,20,19
India,Uttar_Pradesh,Agra,"Manoharpur, Agra - UPPCB",12-01-2024 12:00:00,27.23711,78.01936,NH3,1,1,1
India,Uttar_Pradesh,Agra,"Rohta, Agra - UPPCB",12-01-2024 12:00:00,27.106972,78.000111,NH3,2,2,2
India,Uttar_Pradesh,Agra,"Sanjay Palace, Agra - UPPCB",12-01-2024 12:00:00,27.19865833,78.00598056,CO,34,140,78
India,Uttar_Pradesh,Agra,"Sector-3B Avas Vikas Colony, Agra - UPPCB",12-01-2024 12:00:00,27.19412,77.96237,PM10,78,236,128
India,Uttar_Pradesh,Agra,"Shastripuram, Agra - UPPCB",12-01-2024 12:00:00,27.19862,77.92066,CO,4,21,14
India,Uttar_Pradesh,Baghpat,"Sardar Patel Inter College, Baghpat - UPPCB",12-01-2024 12:00:00,28.964949,77.278761,NO2,39,74,55
India,Uttar_Pradesh,Bareilly,"Civil Lines, Bareilly - UPPCB",12-01-2024 12:00:00,28.359581,79.414455,NO2,21,33,28
India,Uttar_Pradesh,Bareilly,"Civil Lines, Bareilly - UPPCB",12-01-2024 12:00:00,28.359581,79.414455,NH3,1,2,1
India,Uttar_Pradesh,Bareilly,"Civil Lines, Bareilly - UPPCB",12-01-2024 12:00:00,28.359581,79.414455,SO2,37,40,39
India,Uttar_Pradesh,Bulandshahr,"Yamunapuram, Bulandshahr - UPPCB",12-01-2024 12:00:00,28.406963,77.849831,SO2,4,34,12
India,Uttar_Pradesh,Firozabad,"Nagla Bhau, Firozabad - UPPCB",12-01-2024 12:00:00,27.168897,78.376960,CO,13,56,34
India,Uttar_Pradesh,Firozabad,"Nagla Bhau, Firozabad - UPPCB",12-01-2024 12:00:00,27.168897,78.376960,OZONE,23,74,42
India,Uttar_Pradesh,Firozabad,"Vibhab Nagar, Firozabad - UPPCB",12-01-2024 12:00:00,27.1594,78.3953,NO2,17,72,38
India,Uttar_Pradesh,Ghaziabad,"Indirapuram, Ghaziabad - UPPCB",12-01-2024 12:00:00,28.646233,77.358075,SO2,13,18,17
India,Uttar_Pradesh,Ghaziabad,"Sanjay Nagar, Ghaziabad - UPPCB",12-01-2024 12:00:00,28.685382,77.453839,PM2.5,213,388,325
India,Uttar_Pradesh,Ghaziabad,"Vasundhara, Ghaziabad - UPPCB",12-01-2024 12:00:00,28.6603346,77.3572563,PM2.5,259,364,319
India,Uttar_Pradesh,Ghaziabad,"Vasundhara, Ghaziabad - UPPCB",12-01-2024 12:00:00,28.6603346,77.3572563,NO2,45,111,77
India,Uttar_Pradesh,Gorakhpur,"Madan Mohan Malaviya University of Technology, Gorakhpur - UPPCB",12-01-2024 12:00:00,26.730136,83.433859,PM10,83,153,118
India,Uttar_Pradesh,Gorakhpur,"Madan Mohan Malaviya University of Technology, Gorakhpur - UPPCB",12-01-2024 12:00:00,26.730136,83.433859,SO2,38,41,39
India,Uttar_Pradesh,Greater Noida,"Knowledge Park - III, Greater Noida - UPPCB",12-01-2024 12:00:00,28.47272,77.482000,PM2.5,233,343,313
India,Uttar_Pradesh,Greater Noida,"Knowledge Park - V, Greater Noida - UPPCB",12-01-2024 12:00:00,28.557054,77.453663,NO2,12,58,34
India,Uttar_Pradesh,Greater Noida,"Knowledge Park - V, Greater Noida - UPPCB",12-01-2024 12:00:00,28.557054,77.453663,NH3,5,8,6
India,Uttar_Pradesh,Hapur,"Anand Vihar, Hapur - UPPCB",12-01-2024 12:00:00,28.725645,77.749675,PM2.5,108,338,252
India,Uttar_Pradesh,Jhansi,"Shivaji Nagar, Jhansi - UPPCB",12-01-2024 12:00:00,25.4547,78.6039,PM2.5,27,173,87
India,Uttar_Pradesh,Kanpur,"FTI Kidwai Nagar, Kanpur - UPPCB",12-01-2024 12:00:00,26.428282,80.327067,PM10,84,213,138
India,Uttar_Pradesh,Kanpur,"FTI Kidwai Nagar, Kanpur - UPPCB",12-01-2024 12:00:00,26.428282,80.327067,NO2,11,12,11
India,Uttar_Pradesh,Kanpur,"Nehru Nagar, Kanpur - UPPCB",12-01-2024 12:00:00,26.4703136,80.3229863,PM10,113,201,146
India,Uttar_Pradesh,Khurja,"Kalindi Kunj, Khurja - UPPCB",12-01-2024 12:00:00,28.2348927,77.8683002,PM10,37,183,101
India,Uttar_Pradesh,Lucknow,"B R Ambedkar University, Lucknow - UPPCB",12-01-2024 12:00:00,26.766433,80.927299,SO2,23,24,24
India,Uttar_Pradesh,Lucknow,"B R Ambedkar University, Lucknow - UPPCB",12-01-2024 12:00:00,26.766433,80.927299,CO,14,53,35
India,Uttar_Pradesh,Lucknow,"Gomti Nagar, Lucknow - UPPCB",12-01-2024 12:00:00,26.868120,81.005119,NO2,6,7,6
India,Uttar_Pradesh,Lucknow,"Kendriya Vidyalaya, Lucknow - CPCB",12-01-2024 12:00:00,26.906111,80.948222,SO2,3,16,7
India,Uttar_Pradesh,Lucknow,"Kendriya Vidyalaya, Lucknow - CPCB",12-01-2024 12:00:00,26.906111,80.948222,CO,44,96,56
India,Uttar_Pradesh,Lucknow,"Kukrail Picnic Spot-1, Lucknow - UPPCB",12-01-2024 12:00:00,26.90723,80.98579,SO2,26,27,27
India,Uttar_Pradesh,Lucknow,"Talkatora District Industries Center, Lucknow - CPCB",12-01-2024 12:00:00,26.83399722,80.8917361,PM2.5,201,402,317
India,Uttar_Pradesh,Lucknow,"Talkatora District Industries Center, Lucknow - CPCB",12-01-2024 12:00:00,26.83399722,80.8917361,PM10,103,401,217
India,Uttar_Pradesh,Meerut,"Ganga Nagar, Meerut - UPPCB",12-01-2024 12:00:00,28.999264,77.7590354,OZONE,1,5,4
India,Uttar_Pradesh,Meerut,"Jai Bhim Nagar, Meerut - UPPCB",12-01-2024 12:00:00,28.9535882,77.7622941,SO2,6,19,10
India,Uttar_Pradesh,Meerut,"Jai Bhim Nagar, Meerut - UPPCB",12-01-2024 12:00:00,28.9535882,77.7622941,CO,54,110,68
India,Uttar_Pradesh,Meerut,"Jai Bhim Nagar, Meerut - UPPCB",12-01-2024 12:00:00,28.9535882,77.7622941,OZONE,13,85,20
India,Uttar_Pradesh,Meerut,"Pallavpuram Phase 2, Meerut - UPPCB",12-01-2024 12:00:00,29.063510,77.709723,SO2,1,9,3
India,Uttar_Pradesh,Meerut,"Pallavpuram Phase 2, Meerut - UPPCB",12-01-2024 12:00:00,29.063510,77.709723,OZONE,12,23,14
India,Uttar_Pradesh,Moradabad,"Buddhi Vihar, Moradabad - UPPCB",12-01-2024 12:00:00,28.83526,78.74460,PM2.5,75,302,142
India,Uttar_Pradesh,Moradabad,"Eco Herbal Park, Moradabad - UPPCB",12-01-2024 12:00:00,28.840739,78.697531,SO2,2,14,9
India,Uttar_Pradesh,Moradabad,"Jigar Colony, Moradabad - UPPCB",12-01-2024 12:00:00,28.856664,78.772638,NH3,5,5,5
India,Uttar_Pradesh,Moradabad,"Jigar Colony, Moradabad - UPPCB",12-01-2024 12:00:00,28.856664,78.772638,SO2,22,31,24
India,Uttar_Pradesh,Moradabad,"Kashiram Nagar, Moradabad - UPPCB",12-01-2024 12:00:00,28.849399,78.742362,OZONE,10,19,13
India,Uttar_Pradesh,Moradabad,"Transport Nagar, Moradabad - UPPCB",12-01-2024 12:00:00,28.802625,78.753728,PM10,82,204,121
India,Uttar_Pradesh,Moradabad,"Transport Nagar, Moradabad - UPPCB",12-01-2024 12:00:00,28.802625,78.753728,CO,40,42,40
India,Uttar_Pradesh,Muzaffarnagar,"New Mandi, Muzaffarnagar - UPPCB",12-01-2024 12:00:00,29.4723508,77.7194031,PM2.5,292,370,332
India,Uttar_Pradesh,Muzaffarnagar,"New Mandi, Muzaffarnagar - UPPCB",12-01-2024 12:00:00,29.4723508,77.7194031,NO2,36,86,50
India,Uttar_Pradesh,Noida,"Sector - 125, Noida - UPPCB",12-01-2024 12:00:00,28.5447608,77.3231257,PM10,122,210,174
India,Uttar_Pradesh,Noida,"Sector-1, Noida - UPPCB",12-01-2024 12:00:00,28.5898,77.3101,NO2,51,106,80
India,Uttar_Pradesh,Noida,"Sector-1, Noida - UPPCB",12-01-2024 12:00:00,28.5898,77.3101,CO,17,105,24
India,Uttar_Pradesh,Noida,"Sector-116, Noida - UPPCB",12-01-2024 12:00:00,28.569230,77.393848,NO2,42,101,70
India,Uttar_Pradesh,Noida,"Sector-116, Noida - UPPCB",12-01-2024 12:00:00,28.569230,77.393848,SO2,22,36,28
India,Uttar_Pradesh,Noida,"Sector-116, Noida - UPPCB",12-01-2024 12:00:00,28.569230,77.393848,OZONE,5,70,8
India,Uttar_Pradesh,Prayagraj,"Jhunsi, Prayagraj - UPPCB",12-01-2024 12:00:00,25.425602,81.917152,PM2.5,40,113,72
India,Uttar_Pradesh,Prayagraj,"Jhunsi, Prayagraj - UPPCB",12-01-2024 12:00:00,25.425602,81.917152,OZONE,1,14,2
India,Uttar_Pradesh,Prayagraj,"Motilal Nehru NIT, Prayagraj - UPPCB",12-01-2024 12:00:00,25.494,81.863,PM10,NA,NA,NA
India,Uttar_Pradesh,Prayagraj,"Motilal Nehru NIT, Prayagraj - UPPCB",12-01-2024 12:00:00,25.494,81.863,NH3,4,7,6
India,Uttar_Pradesh,Prayagraj,"Nagar Nigam, Prayagraj - UPPCB",12-01-2024 12:00:00,25.44919916 ,81.82735986 ,PM10,70,288,127
India,Uttar_Pradesh,Varanasi,"Bhelupur, Varanasi - UPPCB",12-01-2024 12:00:00,25.301778,82.996789,CO,1,74,11
India,Uttar_Pradesh,Varanasi,"IESD Banaras Hindu University, Varanasi - UPPCB",12-01-2024 12:00:00,25.262326,82.995408,PM2.5,13,33,22
India,Uttarakhand,Dehradun,"Doon University, Dehradun - UKPCB",12-01-2024 12:00:00,30.269444,78.044167,NO2,3,8,5
India,Uttarakhand,Dehradun,"Doon University, Dehradun - UKPCB",12-01-2024 12:00:00,30.269444,78.044167,SO2,1,2,1
India,Uttarakhand,Kashipur,"Govt. Girls Inter College, Kashipur - UKPCB",12-01-2024 12:00:00,29.2124114,78.9611753,PM10,91,154,123
India,Uttarakhand,Kashipur,"Govt. Girls Inter College, Kashipur - UKPCB",12-01-2024 12:00:00,29.2124114,78.9611753,SO2,7,9,8
India,Uttarakhand,Rishikesh,"Shivaji Nagar, Rishikesh - UKPCB",12-01-2024 12:00:00,30.075911,78.2859547,PM2.5,135,216,163
India,Uttarakhand,Rishikesh,"Shivaji Nagar, Rishikesh - UKPCB",12-01-2024 12:00:00,30.075911,78.2859547,CO,48,64,57
India,Uttarakhand,Rishikesh,"Shivaji Nagar, Rishikesh - UKPCB",12-01-2024 12:00:00,30.075911,78.2859547,OZONE,6,33,9
India,West_Bengal,Barrackpore,"SVSPA Campus, Barrackpore - WBPCB",12-01-2024 12:00:00,22.7605581,88.3617589,NO2,17,47,28
India,West_Bengal,Barrackpore,"SVSPA Campus, Barrackpore - WBPCB",12-01-2024 12:00:00,22.7605581,88.3617589,NH3,2,4,3
India,West_Bengal,Durgapur,"Sidhu Kanhu Indoor Stadium, Durgapur - WBPCB",12-01-2024 12:00:00,23.5404352,87.2892225,PM2.5,80,266,147
India,West_Bengal,Durgapur,"Sidhu Kanhu Indoor Stadium, Durgapur - WBPCB",12-01-2024 12:00:00,23.5404352,87.2892225,NO2,21,33,27
India,West_Bengal,Haldia,"Priyambada Housing Estate, Haldia - WBPCB",12-01-2024 12:00:00,22.06047,88.109737,PM10,93,135,112
India,West_Bengal,Howrah,"Belur Math, Howrah - WBPCB",12-01-2024 12:00:00,22.629801,88.352017,SO2,8,14,12
India,West_Bengal,Howrah,"Padmapukur, Howrah - WBPCB",12-01-2024 12:00:00,22.5687319,88.2797276,NO2,27,68,44
India,West_Bengal,Howrah,"Padmapukur, Howrah - WBPCB",12-01-2024 12:00:00,22.5687319,88.2797276,CO,48,135,103
India,West_Bengal,Kolkata,"Ballygunge, Kolkata - WBPCB",12-01-2024 12:00:00,22.5367507,88.3638022,PM2.5,186,304,227
India,West_Bengal,Kolkata,"Ballygunge, Kolkata - WBPCB",12-01-2024 12:00:00,22.5367507,88.3638022,PM10,138,179,149
India,West_Bengal,Kolkata,"Bidhannagar, Kolkata - WBPCB",12-01-2024 12:00:00,22.58157048,88.41002457,PM2.5,154,210,186
India,West_Bengal,Kolkata,"Fort William, Kolkata - WBPCB",12-01-2024 12:00:00,22.556640,88.342674,CO,24,52,40
India,West_Bengal,Kolkata,"Jadavpur, Kolkata - WBPCB",12-01-2024 12:00:00,22.49929,88.36917,PM2.5,132,260,204
India,West_Bengal,Kolkata,"Jadavpur, Kolkata - WBPCB",12-01-2024 12:00:00,22.49929,88.36917,CO,23,34,28
India,West_Bengal,Kolkata,"Rabindra Bharati University, Kolkata - WBPCB",12-01-2024 12:00:00,22.627847,88.380669,NH3,7,8,8
India,West_Bengal,Kolkata,"Rabindra Bharati University, Kolkata - WBPCB",12-01-2024 12:00:00,22.627847,88.380669,SO2,1,16,7
India,West_Bengal,Kolkata,"Rabindra Sarobar, Kolkata - WBPCB",12-01-2024 12:00:00,22.51106,88.35142,NO2,50,157,83
India,West_Bengal,Kolkata,"Rabindra Sarobar, Kolkata - WBPCB",12-01-2024 12:00:00,22.51106,88.35142,SO2,8,37,21
India,West_Bengal,Kolkata,"Rabindra Sarobar, Kolkata - WBPCB",12-01-2024 12:00:00,22.51106,88.35142,CO,14,30,23
India,Andhra_Pradesh,Amaravati,"Secretariat, Amaravati - APPCB",12-01-2024 12:00:00,16.5150833,80.5181667,PM2.5,102,317,210
India,Andhra_Pradesh,Kadapa,"Yerramukkapalli, Kadapa - APPCB",12-01-2024 12:00:00,14.465052,78.824187,PM2.5,32,66,52
India,Andhra_Pradesh,Kadapa,"Yerramukkapalli, Kadapa - APPCB",12-01-2024 12:00:00,14.465052,78.824187,CO,20,33,30
India,Andhra_Pradesh,Rajamahendravaram,"Anand Kala Kshetram, Rajamahendravaram - APPCB",12-01-2024 12:00:00,16.9872867,81.7363176,PM2.5,210,344,297
India,Andhra_Pradesh,Rajamahendravaram,"Anand Kala Kshetram, Rajamahendravaram - APPCB",12-01-2024 12:00:00,16.9872867,81.7363176,OZONE,17,30,21
India,Andhra_Pradesh,Vijayawada,"HB Colony, Vijayawada - APPCB",12-01-2024 12:00:00,16.536107,80.594233,PM2.5,49,125,66
India,Andhra_Pradesh,Vijayawada,"HB Colony, Vijayawada - APPCB",12-01-2024 12:00:00,16.536107,80.594233,PM10,43,119,65
India,Andhra_Pradesh,Vijayawada,"HB Colony, Vijayawada - APPCB",12-01-2024 12:00:00,16.536107,80.594233,NH3,3,4,4
India,Andhra_Pradesh,Vijayawada,"HB Colony, Vijayawada - APPCB",12-01-2024 12:00:00,16.536107,80.594233,CO,24,30,24
India,Andhra_Pradesh,Vijayawada,"HB Colony, Vijayawada - APPCB",12-01-2024 12:00:00,16.536107,80.594233,OZONE,3,88,16
India,Andhra_Pradesh,Vijayawada,"Kanuru, Vijayawada - APPCB",12-01-2024 12:00:00,16.486692,80.699436,PM10,73,169,104
India,Andhra_Pradesh,Vijayawada,"Kanuru, Vijayawada - APPCB",12-01-2024 12:00:00,16.486692,80.699436,NO2,14,26,19
India,Andhra_Pradesh,Vijayawada,"Rajiv Gandhi Park, Vijayawada - APPCB",12-01-2024 12:00:00,16.509717,80.612222,SO2,NA,NA,NA
India,Assam,Byrnihat,"Central Academy for SFS, Byrnihat - PCBA",12-01-2024 12:00:00,26.071318,91.87488,SO2,14,19,16
India,Assam,Guwahati,"LGBI Airport, Guwahati - PCBA",12-01-2024 12:00:00,26.10887,91.589544,PM10,160,271,212
India,Assam,Guwahati,"Pan Bazaar, Guwahati - PCBA",12-01-2024 12:00:00,26.187500,91.744194,NO2,2,9,5
India,Assam,Guwahati,"Pan Bazaar, Guwahati - PCBA",12-01-2024 12:00:00,26.187500,91.744194,CO,44,83,48
India,Assam,Nagaon,"Christianpatty, Nagaon - PCBA",12-01-2024 12:00:00,26.349082,92.68449,PM2.5,120,337,236
India,Assam,Nagaon,"Christianpatty, Nagaon - PCBA",12-01-2024 12:00:00,26.349082,92.68449,SO2,NA,NA,NA
India,Assam,Nalbari,"Bata Chowk, Nalbari - PCBA",12-01-2024 12:00:00,26.446912,91.439057,CO,26,107,53
India,Assam,Nalbari,"Bata Chowk, Nalbari - PCBA",12-01-2024 12:00:00,26.446912,91.439057,OZONE,12,20,19
India,Assam,Silchar,"Tarapur, Silchar - PCBA",12-01-2024 12:00:00,24.82827,92.79525,NO2,22,42,32
India,Assam,Sivasagar,"Girls College, Sivasagar - PCBA",12-01-2024 12:00:00,26.987634,94.636574,SO2,2,5,4
India,Bihar,Arrah,"New DM Office, Arrah - BSPCB",12-01-2024 12:00:00,25.5626095,84.663264,NO2,14,42,28
India,Bihar,Arrah,"New DM Office, Arrah - BSPCB",12-01-2024 12:00:00,25.5626095,84.663264,OZONE,11,27,17
India,Bihar,Aurangabad,"Gurdeo Nagar, Aurangabad - BSPCB",12-01-2024 12:00:00,24.75746,84.366208,NO2,7,14,9
India,Bihar,Aurangabad,"Gurdeo Nagar, Aurangabad - BSPCB",12-01-2024 12:00:00,24.75746,84.366208,CO,12,85,67
India,Bihar,Bhagalpur,"Mayaganj, Bhagalpur - BSPCB",12-01-2024 12:00:00,25.265194,87.012947,SO2,9,14,12
India,Bihar,Bhagalpur,"Mayaganj, Bhagalpur - BSPCB",12-01-2024 12:00:00,25.265194,87.012947,OZONE,22,60,32
India,Bihar,Bihar Sharif,"D M Colony, Bihar Sharif - BSPCB",12-01-2024 12:00:00,25.204762,85.514960,NO2,8,10,9
India,Bihar,Bihar Sharif,"D M Colony, Bihar Sharif - BSPCB",12-01-2024 12:00:00,25.204762,85.514960,CO,2,70,35
India,Bihar,Chhapra,"Darshan Nagar, Chhapra - BSPCB",12-01-2024 12:00:00,25.7808257,84.7446768,NO2,NA,NA,NA
India,Bihar,Chhapra,"Darshan Nagar, Chhapra - BSPCB",12-01-2024 12:00:00,25.7808257,84.7446768,OZONE,1,2,1
India,Bihar,Gaya,"Collectorate, Gaya - BSPCB",12-01-2024 12:00:00,24.7955,84.9994,NO2,17,22,20
India,Bihar,Gaya,"Kareemganj, Gaya - BSPCB",12-01-2024 12:00:00,24.792403,84.992416,PM2.5,10,80,38
India,Bihar,Gaya,"Kareemganj, Gaya - BSPCB",12-01-2024 12:00:00,24.792403,84.992416,NO2,30,31,30
India,Bihar,Gaya,"SFTI Kusdihra, Gaya - BSPCB",12-01-2024 12:00:00,24.762518,84.982348,SO2,6,10,8
India,Bihar,Gaya,"SFTI Kusdihra, Gaya - BSPCB",12-01-2024 12:00:00,24.762518,84.982348,OZONE,6,56,20
India,Bihar,Kishanganj,"SDM Office_Khagra, Kishanganj - BSPCB",12-01-2024 12:00:00,26.0881305,87.93840336,PM10,170,370,218
India,Bihar,Kishanganj,"SDM Office_Khagra, Kishanganj - BSPCB",12-01-2024 12:00:00,26.0881305,87.93840336,NO2,28,34,30
India,Bihar,Kishanganj,"SDM Office_Khagra, Kishanganj - BSPCB",12-01-2024 12:00:00,26.0881305,87.93840336,NH3,10,11,11
India,Bihar,Kishanganj,"SDM Office_Khagra, Kishanganj - BSPCB",12-01-2024 12:00:00,26.0881305,87.93840336,SO2,21,25,23
India,Bihar,Manguraha,"Forest Rest House, Manguraha - BSPCB",12-01-2024 12:00:00,27.308328,84.531742,PM2.5,197,318,289
India,Bihar,Manguraha,"Forest Rest House, Manguraha - BSPCB",12-01-2024 12:00:00,27.308328,84.531742,SO2,1,4,1
India,Bihar,Munger,"Town Hall, Munger - BSPCB",12-01-2024 12:00:00,25.376776,86.471523,CO,2,52,30
India,Bihar,Muzaffarpur,"Buddha Colony, Muzaffarpur - BSPCB",12-01-2024 12:00:00,26.11442,85.39813,CO,35,124,61
India,Bihar,Muzaffarpur,"MIT-Daudpur Kothi, Muzaffarpur - BSPCB",12-01-2024 12:00:00,26.1403345,85.3650192,PM10,108,335,196
India,Bihar,Muzaffarpur,"MIT-Daudpur Kothi, Muzaffarpur - BSPCB",12-01-2024 12:00:00,26.1403345,85.3650192,NH3,7,23,16
India,Bihar,Muzaffarpur,"MIT-Daudpur Kothi, Muzaffarpur - BSPCB",12-01-2024 12:00:00,26.1403345,85.3650192,CO,64,129,122
India,Bihar,Muzaffarpur,"Muzaffarpur Collectorate, Muzaffarpur - BSPCB",12-01-2024 12:00:00,26.1209,85.3647,NO2,8,10,9
India,Bihar,Muzaffarpur,"Muzaffarpur Collectorate, Muzaffarpur - BSPCB",12-01-2024 12:00:00,26.1209,85.3647,OZONE,20,51,25
India,Bihar,Patna,"DRM Office Danapur, Patna - BSPCB",12-01-2024 12:00:00,25.586562,85.043586,PM2.5,282,368,330
India,Bihar,Patna,"DRM Office Danapur, Patna - BSPCB",12-01-2024 12:00:00,25.586562,85.043586,OZONE,1,51,3
India,Bihar,Patna,"Govt. High School Shikarpur, Patna - BSPCB",12-01-2024 12:00:00,25.592539,85.227158,PM2.5,NA,NA,NA
India,Bihar,Patna,"IGSC Planetarium Complex, Patna - BSPCB",12-01-2024 12:00:00,25.610369,85.132568,NO2,4,41,18
India,Bihar,Patna,"Muradpur, Patna - BSPCB",12-01-2024 12:00:00,25.619651,85.147382,CO,42,105,91
India,Bihar,Patna,"Rajbansi Nagar, Patna - BSPCB",12-01-2024 12:00:00,25.599486,85.113666,NH3,6,7,6
India,Bihar,Patna,"Rajbansi Nagar, Patna - BSPCB",12-01-2024 12:00:00,25.599486,85.113666,CO,18,60,35
India,Bihar,Patna,"Samanpura, Patna - BSPCB",12-01-2024 12:00:00,25.596727,85.085624,SO2,3,5,4
India,Bihar,Patna,"Samanpura, Patna - BSPCB",12-01-2024 12:00:00,25.596727,85.085624,CO,68,133,113
India,Bihar,Purnia,"Mariam Nagar, Purnia - BSPCB",12-01-2024 12:00:00,25.366336,87.117468,PM10,114,217,160
India,Bihar,Purnia,"Mariam Nagar, Purnia - BSPCB",12-01-2024 12:00:00,25.366336,87.117468,NH3,2,2,2
India,Bihar,Purnia,"Mariam Nagar, Purnia - BSPCB",12-01-2024 12:00:00,25.366336,87.117468,CO,42,89,61
India,Bihar,Rajgir,"Dangi Tola, Rajgir - BSPCB",12-01-2024 12:00:00,25.03280,85.41948,NO2,5,17,7
India,Bihar,Rajgir,"Dangi Tola, Rajgir - BSPCB",12-01-2024 12:00:00,25.03280,85.41948,CO,10,17,13
India,Bihar,Rajgir,"Dangi Tola, Rajgir - BSPCB",12-01-2024 12:00:00,25.03280,85.41948,OZONE,21,24,23
India,Bihar,Sasaram,"Dada Peer, Sasaram - BSPCB",12-01-2024 12:00:00,24.952822,84.002396,SO2,14,23,20
India,Chandigarh,Chandigarh,"Sector 22, Chandigarh - CPCC",12-01-2024 12:00:00,30.735567,76.775714,SO2,2,21,8
India,Chandigarh,Chandigarh,"Sector-25, Chandigarh - CPCC",12-01-2024 12:00:00,30.751462,76.762879,NO2,17,29,22
India,Chandigarh,Chandigarh,"Sector-53, Chandigarh - CPCC",12-01-2024 12:00:00,30.719859,76.738637,PM2.5,197,392,315
India,Chhattisgarh,Bhilai,"32Bungalows, Bhilai - CECB",12-01-2024 12:00:00,21.194815,81.314770,OZONE,4,7,4
India,Chhattisgarh,Bhilai,"Civic Center, Bhilai - Bhilai Steel Plant",12-01-2024 12:00:00,21.185571,81.343175,PM2.5,NA,NA,NA
India,Chhattisgarh,Bhilai,"Civic Center, Bhilai - Bhilai Steel Plant",12-01-2024 12:00:00,21.185571,81.343175,SO2,NA,NA,NA
India,Chhattisgarh,Bhilai,"Hathkhoj, Bhilai - CECB",12-01-2024 12:00:00,21.224231,81.408350,PM2.5,1,279,141
India,Chhattisgarh,Bhilai,"Hathkhoj, Bhilai - CECB",12-01-2024 12:00:00,21.224231,81.408350,SO2,14,122,31
India,Chhattisgarh,Chhal,"Nawapara SECL Colony, Chhal - CECB",12-01-2024 12:00:00,22.118125,83.140608,NO2,10,60,20
India,Chhattisgarh,Chhal,"Nawapara SECL Colony, Chhal - CECB",12-01-2024 12:00:00,22.118125,83.140608,NH3,2,2,2
India,Chhattisgarh,Korba,"Rampur, Korba - CECB",12-01-2024 12:00:00,22.368195,82.746431,PM2.5,22,112,52
India,Chhattisgarh,Korba,"Rampur, Korba - CECB",12-01-2024 12:00:00,22.368195,82.746431,NO2,29,47,34
India,Chhattisgarh,Korba,"Rampur, Korba - CECB",12-01-2024 12:00:00,22.368195,82.746431,OZONE,2,39,7
India,Chhattisgarh,Milupara,"Govt. Higher Secondary School, Milupara - CECB",12-01-2024 12:00:00,22.1910172,83.5197009,NH3,1,2,2
India,Chhattisgarh,Milupara,"Govt. Higher Secondary School, Milupara - CECB",12-01-2024 12:00:00,22.1910172,83.5197009,SO2,8,13,10
India,Chhattisgarh,Milupara,"Govt. Higher Secondary School, Milupara - CECB",12-01-2024 12:00:00,22.1910172,83.5197009,CO,16,52,21
India,Chhattisgarh,Raipur,"AIIMS, Raipur - CECB",12-01-2024 12:00:00,21.258815,81.578979,PM10,44,151,90
India,Chhattisgarh,Raipur,"AIIMS, Raipur - CECB",12-01-2024 12:00:00,21.258815,81.578979,NO2,49,64,57
India,Chhattisgarh,Raipur,"AIIMS, Raipur - CECB",12-01-2024 12:00:00,21.258815,81.578979,CO,34,70,45
India,Chhattisgarh,Raipur,"Bhatagaon New ISBT, Raipur - CECB",12-01-2024 12:00:00,21.219665,81.630094,PM2.5,13,80,53
India,Chhattisgarh,Raipur,"Krishak Nagar, Raipur - CECB",12-01-2024 12:00:00,21.237755,81.705301,PM2.5,41,70,59
India,Chhattisgarh,Raipur,"Krishak Nagar, Raipur - CECB",12-01-2024 12:00:00,21.237755,81.705301,SO2,8,14,10
India,Chhattisgarh,Raipur,"Krishak Nagar, Raipur - CECB",12-01-2024 12:00:00,21.237755,81.705301,OZONE,2,8,2
India,Chhattisgarh,Raipur,"Siltara Phase-II, Raipur - CECB",12-01-2024 12:00:00,21.371751,81.664929,NH3,7,13,9
India,Chhattisgarh,Raipur,"Siltara Phase-II, Raipur - CECB",12-01-2024 12:00:00,21.371751,81.664929,CO,4,54,29
India,Chhattisgarh,Tumidih,"OP Jindal Industrial Park, Tumidih - CECB",12-01-2024 12:00:00,22.06631475,83.33820077,NH3,2,3,2
India,Chhattisgarh,Tumidih,"OP Jindal Industrial Park, Tumidih - CECB",12-01-2024 12:00:00,22.06631475,83.33820077,SO2,5,10,6
India,Delhi,Delhi,"Anand Vihar, Delhi - DPCC",12-01-2024 12:00:00,28.647622,77.3158090,PM10,207,409,329
India,Delhi,Delhi,"Ashok Vihar, Delhi - DPCC",12-01-2024 12:00:00,28.695381,77.181665,CO,39,106,56
India,Delhi,Delhi,"Bawana, Delhi - DPCC",12-01-2024 12:00:00,28.776200,77.051074,PM10,125,439,237
India,Delhi,Delhi,"CRRI Mathura Road, Delhi - IMD",12-01-2024 12:00:00,28.5512005,77.2735737,PM2.5,NA,NA,NA
India,Delhi,Delhi,"Dr. Karni Singh Shooting Range, Delhi - DPCC",12-01-2024 12:00:00,28.498571,77.264840,PM2.5,303,422,363
India,Delhi,Delhi,"Dr. Karni Singh Shooting Range, Delhi - DPCC",12-01-2024 12:00:00,28.498571,77.264840,SO2,4,9,6
India,Delhi,Delhi,"IHBAS, Dilshad Garden, Delhi - CPCB",12-01-2024 12:00:00,28.6811736,77.3025234,PM10,141,230,197
India,Delhi,Delhi,"ITO, Delhi - CPCB",12-01-2024 12:00:00,28.628624,77.241060,PM2.5,162,365,304
India,Delhi,Delhi,"Jahangirpuri, Delhi - DPCC",12-01-2024 12:00:00,28.732820,77.170633,NO2,38,66,47
India,Delhi,Delhi,"Jahangirpuri, Delhi - DPCC",12-01-2024 12:00:00,28.732820,77.170633,SO2,7,12,9
India,Delhi,Delhi,"Jawaharlal Nehru Stadium, Delhi - DPCC",12-01-2024 12:00:00,28.580280,77.233829,PM2.5,262,415,341
India,Delhi,Delhi,"Jawaharlal Nehru Stadium, Delhi - DPCC",12-01-2024 12:00:00,28.580280,77.233829,CO,52,109,63
India,Delhi,Delhi,"Jawaharlal Nehru Stadium, Delhi - DPCC",12-01-2024 12:00:00,28.580280,77.233829,OZONE,5,60,11
India,Delhi,Delhi,"Lodhi Road, Delhi - IITM",12-01-2024 12:00:00,28.588333,77.221667,PM10,33,357,91
India,Delhi,Delhi,"Lodhi Road, Delhi - IITM",12-01-2024 12:00:00,28.588333,77.221667,OZONE,15,16,15
India,Delhi,Delhi,"Lodhi Road, Delhi - IMD",12-01-2024 12:00:00,28.5918245,77.2273074,NO2,NA,NA,NA
India,Delhi,Delhi,"Major Dhyan Chand National Stadium, Delhi - DPCC",12-01-2024 12:00:00,28.611281,77.237738,SO2,2,16,12
India,Delhi,Delhi,"Major Dhyan Chand National Stadium, Delhi - DPCC",12-01-2024 12:00:00,28.611281,77.237738,CO,38,119,47
India,Delhi,Delhi,"Mandir Marg, Delhi - DPCC",12-01-2024 12:00:00,28.636429,77.201067,PM2.5,313,404,352
India,Delhi,Delhi,"Mandir Marg, Delhi - DPCC",12-01-2024 12:00:00,28.636429,77.201067,SO2,3,17,10
India,Delhi,Delhi,"Mandir Marg, Delhi - DPCC",12-01-2024 12:00:00,28.636429,77.201067,OZONE,1,21,3
India,Delhi,Delhi,"Mundka, Delhi - DPCC",12-01-2024 12:00:00,28.684678,77.076574,PM10,147,477,255
India,Delhi,Delhi,"Mundka, Delhi - DPCC",12-01-2024 12:00:00,28.684678,77.076574,CO,54,106,63
India,Delhi,Delhi,"NSIT Dwarka, Delhi - CPCB",12-01-2024 12:00:00,28.60909,77.0325413,OZONE,14,69,20
India,Delhi,Delhi,"Najafgarh, Delhi - DPCC",12-01-2024 12:00:00,28.570173,76.933762,PM2.5,207,400,301
India,Delhi,Delhi,"Najafgarh, Delhi - DPCC",12-01-2024 12:00:00,28.570173,76.933762,NH3,6,9,7
India,Delhi,Delhi,"Najafgarh, Delhi - DPCC",12-01-2024 12:00:00,28.570173,76.933762,OZONE,1,85,21
India,Delhi,Delhi,"Narela, Delhi - DPCC",12-01-2024 12:00:00,28.822836,77.101981,SO2,3,6,5
India,Delhi,Delhi,"Narela, Delhi - DPCC",12-01-2024 12:00:00,28.822836,77.101981,CO,79,107,84
India,Delhi,Delhi,"Narela, Delhi - DPCC",12-01-2024 12:00:00,28.822836,77.101981,OZONE,6,97,14
India,Delhi,Delhi,"Nehru Nagar, Delhi - DPCC",12-01-2024 12:00:00,28.567890,77.250515,SO2,7,13,10
India,Delhi,Delhi,"Patparganj, Delhi - DPCC",12-01-2024 12:00:00,28.623763,77.287209,PM2.5,329,414,373
India,Delhi,Delhi,"Pusa, Delhi - DPCC",12-01-2024 12:00:00,28.639652,77.146275,PM10,186,487,333
India,Delhi,Delhi,"Pusa, Delhi - IMD",12-01-2024 12:00:00,28.636110,77.173332,OZONE,NA,NA,NA
India,Delhi,Delhi,"R K Puram, Delhi - DPCC",12-01-2024 12:00:00,28.563262,77.186937,CO,73,134,83
India,Delhi,Delhi,"Shadipur, Delhi - CPCB",12-01-2024 12:00:00,28.6514781,77.1473105,NO2,36,70,55
India,Delhi,Delhi,"Shadipur, Delhi - CPCB",12-01-2024 12:00:00,28.6514781,77.1473105,CO,7,105,50
India,Delhi,Delhi,"Sirifort, Delhi - CPCB",12-01-2024 12:00:00,28.5504249,77.2159377,PM2.5,305,416,362
India,Delhi,Delhi,"Sirifort, Delhi - CPCB",12-01-2024 12:00:00,28.5504249,77.2159377,NH3,6,9,7
India,Delhi,Delhi,"Sonia Vihar, Delhi - DPCC",12-01-2024 12:00:00,28.710508,77.249485,OZONE,3,91,8
India,Delhi,Delhi,"Sri Aurobindo Marg, Delhi - DPCC",12-01-2024 12:00:00,28.531346,77.190156,NO2,37,102,58
India,Delhi,Delhi,"Wazirpur, Delhi - DPCC",12-01-2024 12:00:00,28.699793,77.165453,NO2,126,252,174
India,Gujarat,Ahmedabad,"Chandkheda, Ahmedabad - IITM",12-01-2024 12:00:00,23.107969,72.574648,NO2,17,30,26
India,Gujarat,Ahmedabad,"Chandkheda, Ahmedabad - IITM",12-01-2024 12:00:00,23.107969,72.574648,OZONE,21,24,21
India,Gujarat,Ahmedabad,"Gyaspur, Ahmedabad - IITM",12-01-2024 12:00:00,22.977134,72.553024,OZONE,17,20,20
India,Gujarat,Ahmedabad,"Maninagar, Ahmedabad - GPCB",12-01-2024 12:00:00,23.002657,72.591912,PM2.5,65,183,111
India,Gujarat,Ahmedabad,"Raikhad, Ahmedabad - IITM",12-01-2024 12:00:00,23.020509,72.579261,PM2.5,93,136,96
India,Gujarat,Ahmedabad,"Rakhial, Ahmedabad - IITM",12-01-2024 12:00:00,23.016834,72.625775,PM10,97,202,141
India,Gujarat,Ahmedabad,"Rakhial, Ahmedabad - IITM",12-01-2024 12:00:00,23.016834,72.625775,NO2,7,72,25
India,Gujarat,Ahmedabad,"Rakhial, Ahmedabad - IITM",12-01-2024 12:00:00,23.016834,72.625775,NH3,1,8,5
India,Gujarat,Ahmedabad,"Rakhial, Ahmedabad - IITM",12-01-2024 12:00:00,23.016834,72.625775,CO,14,108,17
India,Gujarat,Ahmedabad,"Rakhial, Ahmedabad - IITM",12-01-2024 12:00:00,23.016834,72.625775,OZONE,1,40,9
India,Gujarat,Ahmedabad,"SAC ISRO Bopal, Ahmedabad - IITM",12-01-2024 12:00:00,23.041137,72.456691,PM2.5,85,328,212
India,Gujarat,Ahmedabad,"SAC ISRO Bopal, Ahmedabad - IITM",12-01-2024 12:00:00,23.041137,72.456691,CO,16,25,24
India,Gujarat,Ahmedabad,"SAC ISRO Bopal, Ahmedabad - IITM",12-01-2024 12:00:00,23.041137,72.456691,OZONE,17,24,24
India,Gujarat,Ahmedabad,"SAC ISRO Satellite, Ahmedabad - IITM",12-01-2024 12:00:00,23.023389,72.515201,PM10,77,86,79
India,Gujarat,Ahmedabad,"SAC ISRO Satellite, Ahmedabad - IITM",12-01-2024 12:00:00,23.023389,72.515201,CO,20,28,26
India,Gujarat,Ahmedabad,"SVPI Airport Hansol, Ahmedabad - IITM",12-01-2024 12:00:00,23.076793,72.627874,OZONE,5,19,7
India,Gujarat,Ahmedabad,"Sardar Vallabhbhai Patel Stadium, Ahmedabad - IITM",12-01-2024 12:00:00,23.043070,72.562968,OZONE,1,16,6
India,Gujarat,Ankleshwar,"GIDC, Ankleshwar - GPCB",12-01-2024 12:00:00,21.613267,73.010555,NO2,33,34,34
India,Gujarat,Ankleshwar,"GIDC, Ankleshwar - GPCB",12-01-2024 12:00:00,21.613267,73.010555,CO,52,86,65
India,Gujarat,Ankleshwar,"GIDC, Ankleshwar - GPCB",12-01-2024 12:00:00,21.613267,73.010555,OZONE,20,26,22
India,Gujarat,Gandhinagar,"GIFT City, Gandhinagar - IITM",12-01-2024 12:00:00,23.163798,72.677768,PM10,46,86,63
India,Gujarat,Gandhinagar,"GIFT City, Gandhinagar - IITM",12-01-2024 12:00:00,23.163798,72.677768,CO,18,30,27
India,Gujarat,Gandhinagar,"IIPHG Lekawada, Gandhinagar - IITM",12-01-2024 12:00:00,23.243639,72.68994,PM2.5,60,67,61
India,Gujarat,Gandhinagar,"IIPHG Lekawada, Gandhinagar - IITM",12-01-2024 12:00:00,23.243639,72.68994,NH3,3,3,3
India,Gujarat,Gandhinagar,"Sector-10, Gandhinagar - GPCB",12-01-2024 12:00:00,23.221714,72.654328,NO2,8,15,11
India,Gujarat,Surat,"Science Center, Surat - SMC",12-01-2024 12:00:00,21.170046,72.795405,PM2.5,52,136,84
India,Gujarat,Surat,"Science Center, Surat - SMC",12-01-2024 12:00:00,21.170046,72.795405,PM10,32,97,64
India,Gujarat,Surat,"Science Center, Surat - SMC",12-01-2024 12:00:00,21.170046,72.795405,NO2,5,20,11
India,Gujarat,Surat,"Science Center, Surat - SMC",12-01-2024 12:00:00,21.170046,72.795405,CO,54,80,63
India,Gujarat,Vapi,"Phase-1 GIDC, Vapi - GPCB",12-01-2024 12:00:00,20.362421,72.918013,NH3,6,6,6
India,Gujarat,Vatva,"Phase-4 GIDC, Vatva - GPCB",12-01-2024 12:00:00,22.969611,72.643500,PM2.5,40,167,85
India,Haryana,Ambala,"Patti Mehar, Ambala - HSPCB",12-01-2024 12:00:00,30.379589,76.778328,SO2,1,10,5
India,Haryana,Ballabgarh,"Nathu Colony, Ballabgarh - HSPCB",12-01-2024 12:00:00,28.3419248,77.319699,PM2.5,219,319,290
India,Haryana,Bhiwani,"H.B. Colony, Bhiwani - HSPCB",12-01-2024 12:00:00,28.806223,76.141105,PM10,80,162,119
India,Haryana,Bhiwani,"H.B. Colony, Bhiwani - HSPCB",12-01-2024 12:00:00,28.806223,76.141105,SO2,1,47,19
India,Haryana,Bhiwani,"H.B. Colony, Bhiwani - HSPCB",12-01-2024 12:00:00,28.806223,76.141105,CO,11,90,78
India,Haryana,Charkhi Dadri,"Mini Secretariat, Charkhi Dadri - HSPCB",12-01-2024 12:00:00,28.593883,76.270653,NO2,8,15,11
India,Haryana,Charkhi Dadri,"Mini Secretariat, Charkhi Dadri - HSPCB",12-01-2024 12:00:00,28.593883,76.270653,NH3,5,6,5
India,Haryana,Faridabad,"New Industrial Town, Faridabad - HSPCB",12-01-2024 12:00:00,28.39072,77.30059,SO2,6,9,8
India,Haryana,Faridabad,"New Industrial Town, Faridabad - HSPCB",12-01-2024 12:00:00,28.39072,77.30059,OZONE,24,221,61
India,Haryana,Faridabad,"Sector 11, Faridabad - HSPCB",12-01-2024 12:00:00,28.376058,77.315741,CO,50,66,54
India,Haryana,Faridabad,"Sector 30, Faridabad - HSPCB",12-01-2024 12:00:00,28.4417,77.3217,NH3,14,14,14
India,Haryana,Faridabad,"Sector- 16A, Faridabad - HSPCB",12-01-2024 12:00:00,28.4088421,77.3099081,PM2.5,312,400,350
India,Haryana,Faridabad,"Sector- 16A, Faridabad - HSPCB",12-01-2024 12:00:00,28.4088421,77.3099081,NO2,21,65,42
India,Haryana,Fatehabad,"Huda Sector, Fatehabad - HSPCB",12-01-2024 12:00:00,29.503664,75.467934,NO2,29,31,30
India,Haryana,Fatehabad,"Huda Sector, Fatehabad - HSPCB",12-01-2024 12:00:00,29.503664,75.467934,NH3,9,11,10
India,Haryana,Gurugram,"Teri Gram, Gurugram - HSPCB",12-01-2024 12:00:00,28.4275,77.1465,NH3,41,57,50
India,Haryana,Gurugram,"Teri Gram, Gurugram - HSPCB",12-01-2024 12:00:00,28.4275,77.1465,SO2,3,7,7
India,Haryana,Gurugram,"Vikas Sadan, Gurugram - HSPCB",12-01-2024 12:00:00,28.4501238,77.0263051,PM2.5,53,260,148
India,Haryana,Gurugram,"Vikas Sadan, Gurugram - HSPCB",12-01-2024 12:00:00,28.4501238,77.0263051,OZONE,8,68,23
India,Haryana,Kaithal,"Rishi Nagar, Kaithal - HSPCB",12-01-2024 12:00:00,29.8006,76.4155,PM10,112,239,176
India,Haryana,Kaithal,"Rishi Nagar, Kaithal - HSPCB",12-01-2024 12:00:00,29.8006,76.4155,SO2,1,73,12
India,Haryana,Karnal,"Sector-12, Karnal - HSPCB",12-01-2024 12:00:00,29.695300,77.002700,PM2.5,119,246,169
India,Haryana,Karnal,"Sector-12, Karnal - HSPCB",12-01-2024 12:00:00,29.695300,77.002700,PM10,102,158,130
India,Haryana,Karnal,"Sector-12, Karnal - HSPCB",12-01-2024 12:00:00,29.695300,77.002700,SO2,17,35,26
India,Haryana,Kurukshetra,"Sector-7, Kurukshetra - HSPCB",12-01-2024 12:00:00,29.966942,76.875879,PM2.5,123,316,250
India,Haryana,Kurukshetra,"Sector-7, Kurukshetra - HSPCB",12-01-2024 12:00:00,29.966942,76.875879,NH3,5,5,5
India,Haryana,Kurukshetra,"Sector-7, Kurukshetra - HSPCB",12-01-2024 12:00:00,29.966942,76.875879,OZONE,7,39,16
India,Haryana,Mandikhera,"General Hospital, Mandikhera - HSPCB",12-01-2024 12:00:00,27.9002,76.9938,PM2.5,8,42,19
India,Haryana,Mandikhera,"General Hospital, Mandikhera - HSPCB",12-01-2024 12:00:00,27.9002,76.9938,OZONE,24,32,28
India,Haryana,Manesar,"Sector-2 IMT, Manesar - HSPCB",12-01-2024 12:00:00,28.360699,76.936090,SO2,11,30,19
India,Haryana,Narnaul,"Shastri Nagar, Narnaul - HSPCB",12-01-2024 12:00:00,28.060249,76.113115,PM2.5,65,200,98
India,Haryana,Narnaul,"Shastri Nagar, Narnaul - HSPCB",12-01-2024 12:00:00,28.060249,76.113115,CO,6,25,11
India,Haryana,Narnaul,"Shastri Nagar, Narnaul - HSPCB",12-01-2024 12:00:00,28.060249,76.113115,OZONE,27,74,64
India,Haryana,Panchkula,"Sector-6, Panchkula - HSPCB ",12-01-2024 12:00:00,30.7057778,76.8531805555555,PM2.5,99,308,219
India,Haryana,Panchkula,"Sector-6, Panchkula - HSPCB ",12-01-2024 12:00:00,30.7057778,76.8531805555555,SO2,11,12,12
India,Haryana,Rohtak,"MD University, Rohtak - HSPCB",12-01-2024 12:00:00,28.52123,76.37138,SO2,1,41,12
India,Haryana,Sirsa,"F-Block, Sirsa - HSPCB",12-01-2024 12:00:00,29.536400,75.015800,NO2,9,14,10
India,Haryana,Sirsa,"F-Block, Sirsa - HSPCB",12-01-2024 12:00:00,29.536400,75.015800,NH3,12,19,13
India,Haryana,Sirsa,"F-Block, Sirsa - HSPCB",12-01-2024 12:00:00,29.536400,75.015800,CO,50,100,76
India,Haryana,Yamuna Nagar,"Gobind Pura, Yamuna Nagar - HSPCB",12-01-2024 12:00:00,30.1480566,77.2893471,NH3,1,6,4
India,Himachal Pradesh,Baddi,"HIMUDA Complex Phase-1, Baddi - HPPCB",12-01-2024 12:00:00,30.943887,76.801991,OZONE,8,33,11
India,Jharkhand,Dhanbad,"Kalakusuma, Dhanbad - DMC",12-01-2024 12:00:00,23.811548,86.481238,PM10,NA,NA,NA
India,Jharkhand,Dhanbad,"Sardar Patel Nagar, Dhanbad - JSPCB",12-01-2024 12:00:00,23.80569,86.44268,PM2.5,26,149,56
India,Jharkhand,Dhanbad,"Sardar Patel Nagar, Dhanbad - JSPCB",12-01-2024 12:00:00,23.80569,86.44268,NO2,117,269,170
India,Jharkhand,Pathardih,"Mohalbani Ghat, Pathardih - DMC",12-01-2024 12:00:00,23.669880,86.411725,PM10,62,150,90
India,Jharkhand,Pathardih,"Mohalbani Ghat, Pathardih - DMC",12-01-2024 12:00:00,23.669880,86.411725,CO,149,174,163
India,Karnataka,Belgaum,"Ramteerth Nagar, Belgaum - KSPCB",12-01-2024 12:00:00,15.888653,74.541751,CO,42,56,49
India,Karnataka,Bengaluru,"Bapuji Nagar, Bengaluru - KSPCB",12-01-2024 12:00:00,12.951913,77.539784,PM10,65,115,94
