country,state,city,station,last_update,latitude,longitude,pollutant_id,pollutant_min,pollutant_max,pollutant_avg
India,Andhra_Pradesh,Amaravati,"Secretariat, Amaravati - APPCB",06-04-2024 12:00:00,16.5150833,80.5181667,PM10,24,74,48
India,Andhra_Pradesh,Anantapur,"Gulzarpet, Anantapur - APPCB",06-04-2024 12:00:00,14.675886,77.593027,PM2.5,26,63,41
India,Andhra_Pradesh,Anantapur,"Gulzarpet, Anantapur - APPCB",06-04-2024 12:00:00,14.675886,77.593027,PM10,67,114,90
India,Andhra_Pradesh,Chittoor,"Gangineni Cheruvu, Chittoor - APPCB",06-04-2024 12:00:00,13.204880,79.097889,PM2.5,14,281,81
India,Andhra_Pradesh,Chittoor,"Gangineni Cheruvu, Chittoor - APPCB",06-04-2024 12:00:00,13.204880,79.097889,SO2,2,85,20
India,Andhra_Pradesh,Kadapa,"Yerramukkapalli, Kadapa - APPCB",06-04-2024 12:00:00,14.465052,78.824187,PM10,32,49,40
India,Andhra_Pradesh,Kadapa,"Yerramukkapalli, Kadapa - APPCB",06-04-2024 12:00:00,14.465052,78.824187,NO2,NA,NA,NA
India,Andhra_Pradesh,Rajamahendravaram,"Anand Kala Kshetram, Rajamahendravaram - APPCB",06-04-2024 12:00:00,16.9872867,81.7363176,PM10,10,51,28
India,Andhra_Pradesh,Tirupati,"Tirumala, Tirupati - APPCB",06-04-2024 12:00:00,13.67,79.35,NO2,18,36,25
India,Andhra_Pradesh,Tirupati,"Tirumala, Tirupati - APPCB",06-04-2024 12:00:00,13.67,79.35,CO,10,33,21
India,Andhra_Pradesh,Tirupati,"Vaikuntapuram, Tirupati - APPCB",06-04-2024 12:00:00,13.615387,79.409230,NO2,NA,NA,NA
India,Andhra_Pradesh,Vijayawada,"Kanuru, Vijayawada - APPCB",06-04-2024 12:00:00,16.486692,80.699436,PM2.5,NA,NA,NA
India,Andhra_Pradesh,Vijayawada,"Kanuru, Vijayawada - APPCB",06-04-2024 12:00:00,16.486692,80.699436,PM10,NA,NA,NA
India,Andhra_Pradesh,Vijayawada,"Kanuru, Vijayawada - APPCB",06-04-2024 12:00:00,16.486692,80.699436,NO2,NA,NA,NA
India,Andhra_Pradesh,Vijayawada,"Kanuru, Vijayawada - APPCB",06-04-2024 12:00:00,16.486692,80.699436,NH3,NA,NA,NA
India,Andhra_Pradesh,Vijayawada,"Rajiv Gandhi Park, Vijayawada - APPCB",06-04-2024 12:00:00,16.509717,80.612222,PM2.5,32,64,46
India,Andhra_Pradesh,Vijayawada,"Rajiv Nagar, Vijayawada - APPCB",06-04-2024 12:00:00,16.554731,80.649110,PM2.5,42,51,45
India,Andhra_Pradesh,Visakhapatnam,"GVM Corporation, Visakhapatnam - APPCB",06-04-2024 12:00:00,17.72,83.3,NO2,21,53,37
India,Andhra_Pradesh,Visakhapatnam,"GVM Corporation, Visakhapatnam - APPCB",06-04-2024 12:00:00,17.72,83.3,CO,10,100,36
India,Andhra_Pradesh,Visakhapatnam,"GVM Corporation, Visakhapatnam - APPCB",06-04-2024 12:00:00,17.72,83.3,OZONE,7,14,10
India,Assam,Byrnihat,"Central Academy for SFS, Byrnihat - PCBA",06-04-2024 12:00:00,26.071318,91.87488,SO2,7,15,12
India,Assam,Guwahati,"LGBI Airport, Guwahati - PCBA",06-04-2024 12:00:00,26.10887,91.589544,NH3,3,8,6
India,Assam,Guwahati,"LGBI Airport, Guwahati - PCBA",06-04-2024 12:00:00,26.10887,91.589544,OZONE,1,158,21
India,Assam,Guwahati,"Pan Bazaar, Guwahati - PCBA",06-04-2024 12:00:00,26.187500,91.744194,NO2,1,4,1
India,Assam,Guwahati,"Railway Colony, Guwahati - PCBA",06-04-2024 12:00:00,26.181742,91.78063,SO2,48,56,51
India,Assam,Nagaon,"Christianpatty, Nagaon - PCBA",06-04-2024 12:00:00,26.349082,92.68449,PM10,76,105,90
India,Assam,Nagaon,"Christianpatty, Nagaon - PCBA",06-04-2024 12:00:00,26.349082,92.68449,NO2,5,29,12
India,Assam,Nagaon,"Christianpatty, Nagaon - PCBA",06-04-2024 12:00:00,26.349082,92.68449,SO2,1,39,19
India,Assam,Nalbari,"Bata Chowk, Nalbari - PCBA",06-04-2024 12:00:00,26.446912,91.439057,PM10,68,205,113
India,Assam,Nalbari,"Bata Chowk, Nalbari - PCBA",06-04-2024 12:00:00,26.446912,91.439057,NO2,9,27,16
India,Assam,Nalbari,"Bata Chowk, Nalbari - PCBA",06-04-2024 12:00:00,26.446912,91.439057,CO,1,113,40
India,Assam,Nalbari,"Bata Chowk, Nalbari - PCBA",06-04-2024 12:00:00,26.446912,91.439057,OZONE,20,125,50
India,Assam,Sivasagar,"Girls College, Sivasagar - PCBA",06-04-2024 12:00:00,26.987634,94.636574,OZONE,1,20,3
India,Bihar,Araria,"Kharahiya Basti, Araria - BSPCB",06-04-2024 12:00:00,26.146529,87.454184,PM10,NA,NA,NA
India,Bihar,Araria,"Kharahiya Basti, Araria - BSPCB",06-04-2024 12:00:00,26.146529,87.454184,NO2,5,35,8
India,Bihar,Arrah,"New DM Office, Arrah - BSPCB",06-04-2024 12:00:00,25.5626095,84.663264,PM2.5,37,177,65
India,Bihar,Bettiah,"Kamalnath Nagar, Bettiah - BSPCB",06-04-2024 12:00:00,26.80365,84.51954,SO2,7,25,18
India,Bihar,Bhagalpur,"DM Office_Kachari Chowk, Bhagalpur - BSPCB",06-04-2024 12:00:00,25.251013,86.989001,SO2,15,21,18
India,Bihar,Bhagalpur,"Mayaganj, Bhagalpur - BSPCB",06-04-2024 12:00:00,25.265194,87.012947,PM2.5,70,331,140
India,Bihar,Bhagalpur,"Mayaganj, Bhagalpur - BSPCB",06-04-2024 12:00:00,25.265194,87.012947,NO2,3,12,7
India,Bihar,Bhagalpur,"Mayaganj, Bhagalpur - BSPCB",06-04-2024 12:00:00,25.265194,87.012947,SO2,11,12,12
India,Bihar,Bihar Sharif,"D M Colony, Bihar Sharif - BSPCB",06-04-2024 12:00:00,25.204762,85.514960,PM10,50,101,76
India,Bihar,Bihar Sharif,"D M Colony, Bihar Sharif - BSPCB",06-04-2024 12:00:00,25.204762,85.514960,SO2,1,11,7
India,Bihar,Chhapra,"Darshan Nagar, Chhapra - BSPCB",06-04-2024 12:00:00,25.7808257,84.7446768,PM10,NA,NA,NA
India,Bihar,Gaya,"Collectorate, Gaya - BSPCB",06-04-2024 12:00:00,24.7955,84.9994,PM2.5,46,221,92
India,Bihar,Gaya,"Collectorate, Gaya - BSPCB",06-04-2024 12:00:00,24.7955,84.9994,CO,18,99,24
India,Bihar,Hajipur,"Industrial Area, Hajipur - BSPCB",06-04-2024 12:00:00,25.697189,85.245900,PM2.5,40,96,64
India,Bihar,Katihar,"Mirchaibari, Katihar - BSPCB",06-04-2024 12:00:00,25.560083,87.553265,PM2.5,38,170,79
India,Bihar,Katihar,"Mirchaibari, Katihar - BSPCB",06-04-2024 12:00:00,25.560083,87.553265,NO2,25,43,31
India,Bihar,Katihar,"Mirchaibari, Katihar - BSPCB",06-04-2024 12:00:00,25.560083,87.553265,CO,44,55,50
India,Bihar,Katihar,"Mirchaibari, Katihar - BSPCB",06-04-2024 12:00:00,25.560083,87.553265,OZONE,10,17,12
India,Bihar,Kishanganj,"SDM Office_Khagra, Kishanganj - BSPCB",06-04-2024 12:00:00,26.0881305,87.93840336,PM10,132,422,203
India,Bihar,Manguraha,"Forest Rest House, Manguraha - BSPCB",06-04-2024 12:00:00,27.308328,84.531742,PM2.5,32,319,165
India,Bihar,Motihari,"Gandak Colony, Motihari - BSPCB",06-04-2024 12:00:00,26.63086,84.90051,OZONE,14,257,47
India,Bihar,Munger,"Town Hall, Munger - BSPCB",06-04-2024 12:00:00,25.376776,86.471523,PM2.5,NA,NA,NA
India,Bihar,Munger,"Town Hall, Munger - BSPCB",06-04-2024 12:00:00,25.376776,86.471523,PM10,NA,NA,NA
India,Bihar,Munger,"Town Hall, Munger - BSPCB",06-04-2024 12:00:00,25.376776,86.471523,OZONE,28,52,40
India,Bihar,Muzaffarpur,"MIT-Daudpur Kothi, Muzaffarpur - BSPCB",06-04-2024 12:00:00,26.1403345,85.3650192,NH3,3,4,4
India,Bihar,Muzaffarpur,"MIT-Daudpur Kothi, Muzaffarpur - BSPCB",06-04-2024 12:00:00,26.1403345,85.3650192,OZONE,NA,NA,NA
India,Bihar,Muzaffarpur,"Muzaffarpur Collectorate, Muzaffarpur - BSPCB",06-04-2024 12:00:00,26.1209,85.3647,SO2,5,15,8
India,Bihar,Patna,"DRM Office Danapur, Patna - BSPCB",06-04-2024 12:00:00,25.586562,85.043586,PM2.5,77,164,119
India,Bihar,Patna,"DRM Office Danapur, Patna - BSPCB",06-04-2024 12:00:00,25.586562,85.043586,PM10,118,180,148
India,Bihar,Patna,"DRM Office Danapur, Patna - BSPCB",06-04-2024 12:00:00,25.586562,85.043586,SO2,9,14,12
India,Bihar,Patna,"Govt. High School Shikarpur, Patna - BSPCB",06-04-2024 12:00:00,25.592539,85.227158,PM10,116,238,173
India,Bihar,Patna,"Govt. High School Shikarpur, Patna - BSPCB",06-04-2024 12:00:00,25.592539,85.227158,NO2,16,21,18
India,Bihar,Patna,"IGSC Planetarium Complex, Patna - BSPCB",06-04-2024 12:00:00,25.610369,85.132568,CO,12,14,12
India,Bihar,Patna,"Muradpur, Patna - BSPCB",06-04-2024 12:00:00,25.619651,85.147382,SO2,9,19,12
India,Bihar,Patna,"Muradpur, Patna - BSPCB",06-04-2024 12:00:00,25.619651,85.147382,CO,14,84,40
India,Bihar,Patna,"Rajbansi Nagar, Patna - BSPCB",06-04-2024 12:00:00,25.599486,85.113666,NO2,17,47,28
India,Bihar,Patna,"Samanpura, Patna - BSPCB",06-04-2024 12:00:00,25.596727,85.085624,NO2,13,73,33
India,Bihar,Rajgir,"Dangi Tola, Rajgir - BSPCB",06-04-2024 12:00:00,25.03280,85.41948,NO2,5,18,5
India,Bihar,Rajgir,"Dangi Tola, Rajgir - BSPCB",06-04-2024 12:00:00,25.03280,85.41948,NH3,NA,NA,NA
India,Bihar,Saharsa,"Police Line, Saharsa - BSPCB",06-04-2024 12:00:00,25.892357,86.590325,NO2,6,8,7
India,Bihar,Samastipur,"DM Office_Kasipur, Samastipur - BSPCB",06-04-2024 12:00:00,25.859655,85.77944,PM10,75,184,123
India,Bihar,Sasaram,"Dada Peer, Sasaram - BSPCB",06-04-2024 12:00:00,24.952822,84.002396,NO2,10,30,17
India,Bihar,Siwan,"Chitragupta Nagar, Siwan - BSPCB",06-04-2024 12:00:00,26.2271665,84.3570427,NO2,9,46,21
India,Bihar,Siwan,"Chitragupta Nagar, Siwan - BSPCB",06-04-2024 12:00:00,26.2271665,84.3570427,SO2,17,34,30
India,Chandigarh,Chandigarh,"Sector 22, Chandigarh - CPCC",06-04-2024 12:00:00,30.735567,76.775714,PM10,52,136,86
India,Chandigarh,Chandigarh,"Sector-25, Chandigarh - CPCC",06-04-2024 12:00:00,30.751462,76.762879,PM2.5,85,168,120
India,Chandigarh,Chandigarh,"Sector-53, Chandigarh - CPCC",06-04-2024 12:00:00,30.719859,76.738637,CO,20,94,46
India,Chhattisgarh,Bhilai,"Civic Center, Bhilai - Bhilai Steel Plant",06-04-2024 12:00:00,21.185571,81.343175,PM10,41,112,68
India,Chhattisgarh,Bhilai,"Civic Center, Bhilai - Bhilai Steel Plant",06-04-2024 12:00:00,21.185571,81.343175,NH3,5,5,5
India,Chhattisgarh,Bhilai,"Civic Center, Bhilai - Bhilai Steel Plant",06-04-2024 12:00:00,21.185571,81.343175,SO2,1,12,10
India,Chhattisgarh,Bhilai,"Civic Center, Bhilai - Bhilai Steel Plant",06-04-2024 12:00:00,21.185571,81.343175,CO,24,76,49
India,Chhattisgarh,Bhilai,"Hathkhoj, Bhilai - CECB",06-04-2024 12:00:00,21.224231,81.408350,SO2,NA,NA,NA
India,Chhattisgarh,Korba,"Rampur, Korba - CECB",06-04-2024 12:00:00,22.368195,82.746431,NH3,NA,NA,NA
India,Chhattisgarh,Korba,"Urja Nagar, Korba - CECB",06-04-2024 12:00:00,22.348441,82.549611,CO,22,63,57
India,Chhattisgarh,Korba,"Urja Nagar, Korba - CECB",06-04-2024 12:00:00,22.348441,82.549611,OZONE,NA,NA,NA
India,Chhattisgarh,Kunjemura,"OP Jindal School, Kunjemura - CECB",06-04-2024 12:00:00,22.126650,83.483212,PM2.5,57,192,123
India,Chhattisgarh,Milupara,"Govt. Higher Secondary School, Milupara - CECB",06-04-2024 12:00:00,22.1910172,83.5197009,PM10,55,122,97
India,Chhattisgarh,Milupara,"Govt. Higher Secondary School, Milupara - CECB",06-04-2024 12:00:00,22.1910172,83.5197009,OZONE,1,28,16
India,Chhattisgarh,Raipur,"AIIMS, Raipur - CECB",06-04-2024 12:00:00,21.258815,81.578979,NH3,5,6,6
India,Chhattisgarh,Raipur,"Bhatagaon New ISBT, Raipur - CECB",06-04-2024 12:00:00,21.219665,81.630094,NH3,2,3,2
India,Chhattisgarh,Raipur,"Bhatagaon New ISBT, Raipur - CECB",06-04-2024 12:00:00,21.219665,81.630094,CO,24,70,42
India,Chhattisgarh,Raipur,"Krishak Nagar, Raipur - CECB",06-04-2024 12:00:00,21.237755,81.705301,PM10,54,96,73
India,Chhattisgarh,Raipur,"Siltara Phase-II, Raipur - CECB",06-04-2024 12:00:00,21.371751,81.664929,CO,24,101,68
India,Chhattisgarh,Tumidih,"OP Jindal Industrial Park, Tumidih - CECB",06-04-2024 12:00:00,22.06631475,83.33820077,CO,14,94,88
India,Delhi,Delhi,"Anand Vihar, Delhi - DPCC",06-04-2024 12:00:00,28.647622,77.3158090,PM10,88,437,202
India,Delhi,Delhi,"Ashok Vihar, Delhi - DPCC",06-04-2024 12:00:00,28.695381,77.181665,PM2.5,34,305,139
India,Delhi,Delhi,"Ashok Vihar, Delhi - DPCC",06-04-2024 12:00:00,28.695381,77.181665,CO,12,64,28
India,Delhi,Delhi,"Aya Nagar, Delhi - IMD",06-04-2024 12:00:00,28.4706914,77.1099364,PM10,99,158,126
India,Delhi,Delhi,"Burari Crossing, Delhi - IMD",06-04-2024 12:00:00,28.7256504,77.2011573,NO2,13,31,21
India,Delhi,Delhi,"Burari Crossing, Delhi - IMD",06-04-2024 12:00:00,28.7256504,77.2011573,OZONE,17,65,32
India,Delhi,Delhi,"CRRI Mathura Road, Delhi - IMD",06-04-2024 12:00:00,28.5512005,77.2735737,NO2,10,29,20
India,Delhi,Delhi,"Chandni Chowk, Delhi - IITM",06-04-2024 12:00:00,28.656756,77.227234,PM2.5,NA,NA,NA
India,Delhi,Delhi,"Chandni Chowk, Delhi - IITM",06-04-2024 12:00:00,28.656756,77.227234,PM10,NA,NA,NA
India,Delhi,Delhi,"Chandni Chowk, Delhi - IITM",06-04-2024 12:00:00,28.656756,77.227234,NO2,NA,NA,NA
India,Delhi,Delhi,"DTU, Delhi - CPCB",06-04-2024 12:00:00,28.7500499,77.1112615,PM10,113,313,172
India,Delhi,Delhi,"DTU, Delhi - CPCB",06-04-2024 12:00:00,28.7500499,77.1112615,OZONE,30,90,38
India,Delhi,Delhi,"Dr. Karni Singh Shooting Range, Delhi - DPCC",06-04-2024 12:00:00,28.498571,77.264840,SO2,18,49,32
India,Delhi,Delhi,"Dwarka-Sector 8, Delhi - DPCC ",06-04-2024 12:00:00,28.5710274,77.0719006,NO2,12,57,31
India,Delhi,Delhi,"Dwarka-Sector 8, Delhi - DPCC ",06-04-2024 12:00:00,28.5710274,77.0719006,SO2,9,40,21
India,Delhi,Delhi,"IGI Airport (T3), Delhi - IMD",06-04-2024 12:00:00,28.5627763,77.1180053,PM10,81,160,117
India,Delhi,Delhi,"IGI Airport (T3), Delhi - IMD",06-04-2024 12:00:00,28.5627763,77.1180053,NO2,24,65,45
India,Delhi,Delhi,"IHBAS, Dilshad Garden, Delhi - CPCB",06-04-2024 12:00:00,28.6811736,77.3025234,NO2,24,59,42
India,Delhi,Delhi,"IHBAS, Dilshad Garden, Delhi - CPCB",06-04-2024 12:00:00,28.6811736,77.3025234,SO2,5,38,22
India,Delhi,Delhi,"ITO, Delhi - CPCB",06-04-2024 12:00:00,28.628624,77.241060,NH3,2,7,5
India,Delhi,Delhi,"ITO, Delhi - CPCB",06-04-2024 12:00:00,28.628624,77.241060,SO2,9,31,20
India,Delhi,Delhi,"Jahangirpuri, Delhi - DPCC",06-04-2024 12:00:00,28.732820,77.170633,NO2,15,113,68
India,Delhi,Delhi,"Jahangirpuri, Delhi - DPCC",06-04-2024 12:00:00,28.732820,77.170633,CO,35,101,59
India,Delhi,Delhi,"Jawaharlal Nehru Stadium, Delhi - DPCC",06-04-2024 12:00:00,28.580280,77.233829,PM2.5,23,274,95
India,Delhi,Delhi,"Lodhi Road, Delhi - IITM",06-04-2024 12:00:00,28.588333,77.221667,PM10,75,494,214
India,Delhi,Delhi,"Lodhi Road, Delhi - IITM",06-04-2024 12:00:00,28.588333,77.221667,NO2,63,111,87
India,Delhi,Delhi,"Lodhi Road, Delhi - IITM",06-04-2024 12:00:00,28.588333,77.221667,OZONE,15,21,16
India,Delhi,Delhi,"Lodhi Road, Delhi - IMD",06-04-2024 12:00:00,28.5918245,77.2273074,CO,9,18,18
India,Delhi,Delhi,"Major Dhyan Chand National Stadium, Delhi - DPCC",06-04-2024 12:00:00,28.611281,77.237738,CO,12,57,27
India,Delhi,Delhi,"NSIT Dwarka, Delhi - CPCB",06-04-2024 12:00:00,28.60909,77.0325413,PM2.5,157,330,256
India,Delhi,Delhi,"NSIT Dwarka, Delhi - CPCB",06-04-2024 12:00:00,28.60909,77.0325413,NH3,6,12,9
India,Delhi,Delhi,"Najafgarh, Delhi - DPCC",06-04-2024 12:00:00,28.570173,76.933762,PM10,86,417,151
India,Delhi,Delhi,"Narela, Delhi - DPCC",06-04-2024 12:00:00,28.822836,77.101981,NO2,10,74,34
India,Delhi,Delhi,"Narela, Delhi - DPCC",06-04-2024 12:00:00,28.822836,77.101981,NH3,5,8,7
India,Delhi,Delhi,"Narela, Delhi - DPCC",06-04-2024 12:00:00,28.822836,77.101981,SO2,9,99,38
India,Delhi,Delhi,"Narela, Delhi - DPCC",06-04-2024 12:00:00,28.822836,77.101981,OZONE,23,128,68
India,Delhi,Delhi,"North Campus, DU, Delhi - IMD",06-04-2024 12:00:00,28.6573814,77.1585447,PM2.5,NA,NA,NA
India,Delhi,Delhi,"Okhla Phase-2, Delhi - DPCC",06-04-2024 12:00:00,28.530785,77.271255,PM2.5,22,239,105
India,Delhi,Delhi,"Okhla Phase-2, Delhi - DPCC",06-04-2024 12:00:00,28.530785,77.271255,CO,34,139,123
India,Delhi,Delhi,"Patparganj, Delhi - DPCC",06-04-2024 12:00:00,28.623763,77.287209,PM10,113,429,185
India,Delhi,Delhi,"Patparganj, Delhi - DPCC",06-04-2024 12:00:00,28.623763,77.287209,SO2,8,18,11
India,Delhi,Delhi,"Punjabi Bagh, Delhi - DPCC",06-04-2024 12:00:00,28.674045,77.131023,PM2.5,48,322,158
India,Delhi,Delhi,"Punjabi Bagh, Delhi - DPCC",06-04-2024 12:00:00,28.674045,77.131023,SO2,18,29,23
India,Delhi,Delhi,"Pusa, Delhi - DPCC",06-04-2024 12:00:00,28.639652,77.146275,PM2.5,32,314,135
India,Delhi,Delhi,"Pusa, Delhi - DPCC",06-04-2024 12:00:00,28.639652,77.146275,PM10,123,301,186
India,Delhi,Delhi,"Pusa, Delhi - DPCC",06-04-2024 12:00:00,28.639652,77.146275,OZONE,11,66,37
India,Delhi,Delhi,"R K Puram, Delhi - DPCC",06-04-2024 12:00:00,28.563262,77.186937,PM10,120,218,154
India,Delhi,Delhi,"Rohini, Delhi - DPCC",06-04-2024 12:00:00,28.732528,77.119920,OZONE,4,112,45
India,Delhi,Delhi,"Sonia Vihar, Delhi - DPCC",06-04-2024 12:00:00,28.710508,77.249485,OZONE,12,68,37
India,Delhi,Delhi,"Sri Aurobindo Marg, Delhi - DPCC",06-04-2024 12:00:00,28.531346,77.190156,NH3,5,7,6
India,Delhi,Delhi,"Vivek Vihar, Delhi - DPCC",06-04-2024 12:00:00,28.672342,77.315260,PM2.5,32,312,123
India,Delhi,Delhi,"Vivek Vihar, Delhi - DPCC",06-04-2024 12:00:00,28.672342,77.315260,SO2,29,78,44
India,Delhi,Delhi,"Wazirpur, Delhi - DPCC",06-04-2024 12:00:00,28.699793,77.165453,PM10,118,286,189
India,Delhi,Delhi,"Wazirpur, Delhi - DPCC",06-04-2024 12:00:00,28.699793,77.165453,NO2,50,164,106
India,Gujarat,Ahmedabad,"Chandkheda, Ahmedabad - IITM",06-04-2024 12:00:00,23.107969,72.574648,PM10,62,127,91
India,Gujarat,Ahmedabad,"Gyaspur, Ahmedabad - IITM",06-04-2024 12:00:00,22.977134,72.553024,OZONE,9,17,13
India,Gujarat,Ahmedabad,"Maninagar, Ahmedabad - GPCB",06-04-2024 12:00:00,23.002657,72.591912,SO2,27,100,59
India,Gujarat,Ahmedabad,"Maninagar, Ahmedabad - GPCB",06-04-2024 12:00:00,23.002657,72.591912,CO,44,78,56
India,Gujarat,Ahmedabad,"Raikhad, Ahmedabad - IITM",06-04-2024 12:00:00,23.020509,72.579261,PM10,66,109,94
India,Gujarat,Ahmedabad,"Raikhad, Ahmedabad - IITM",06-04-2024 12:00:00,23.020509,72.579261,SO2,5,21,9
India,Gujarat,Ahmedabad,"Raikhad, Ahmedabad - IITM",06-04-2024 12:00:00,23.020509,72.579261,OZONE,14,33,23
India,Gujarat,Ahmedabad,"Rakhial, Ahmedabad - IITM",06-04-2024 12:00:00,23.016834,72.625775,OZONE,12,49,32
India,Gujarat,Ahmedabad,"SAC ISRO Satellite, Ahmedabad - IITM",06-04-2024 12:00:00,23.023389,72.515201,SO2,2,24,8
India,Gujarat,Ankleshwar,"GIDC, Ankleshwar - GPCB",06-04-2024 12:00:00,21.613267,73.010555,OZONE,20,34,25
India,Gujarat,Gandhinagar,"IIPHG Lekawada, Gandhinagar - IITM",06-04-2024 12:00:00,23.243639,72.68994,NO2,33,40,35
India,Gujarat,Gandhinagar,"IIPHG Lekawada, Gandhinagar - IITM",06-04-2024 12:00:00,23.243639,72.68994,NH3,6,7,7
India,Gujarat,Gandhinagar,"IIPHG Lekawada, Gandhinagar - IITM",06-04-2024 12:00:00,23.243639,72.68994,CO,18,27,20
India,Gujarat,Gandhinagar,"Sector-10, Gandhinagar - GPCB",06-04-2024 12:00:00,23.221714,72.654328,PM2.5,19,41,30
India,Gujarat,Gandhinagar,"Sector-10, Gandhinagar - GPCB",06-04-2024 12:00:00,23.221714,72.654328,PM10,28,61,44
India,Gujarat,Nandesari,"GIDC, Nandesari - Nandesari Ind. Association",06-04-2024 12:00:00,22.410802,73.097923,PM2.5,66,342,186
India,Gujarat,Nandesari,"GIDC, Nandesari - Nandesari Ind. Association",06-04-2024 12:00:00,22.410802,73.097923,SO2,8,15,11
India,Gujarat,Vapi,"Phase-1 GIDC, Vapi - GPCB",06-04-2024 12:00:00,20.362421,72.918013,NO2,6,7,7
India,Gujarat,Vapi,"Phase-1 GIDC, Vapi - GPCB",06-04-2024 12:00:00,20.362421,72.918013,NH3,2,2,2
India,Haryana,Ambala,"Patti Mehar, Ambala - HSPCB",06-04-2024 12:00:00,30.379589,76.778328,SO2,NA,NA,NA
India,Haryana,Ambala,"Patti Mehar, Ambala - HSPCB",06-04-2024 12:00:00,30.379589,76.778328,CO,30,60,53
India,Haryana,Ambala,"Patti Mehar, Ambala - HSPCB",06-04-2024 12:00:00,30.379589,76.778328,OZONE,33,50,41
India,Haryana,Bahadurgarh,"Arya Nagar, Bahadurgarh - HSPCB",06-04-2024 12:00:00,28.6701,76.9254,PM2.5,19,225,97
India,Haryana,Bahadurgarh,"Arya Nagar, Bahadurgarh - HSPCB",06-04-2024 12:00:00,28.6701,76.9254,CO,40,60,49
India,Haryana,Bhiwani,"H.B. Colony, Bhiwani - HSPCB",06-04-2024 12:00:00,28.806223,76.141105,PM2.5,23,141,69
India,Haryana,Bhiwani,"H.B. Colony, Bhiwani - HSPCB",06-04-2024 12:00:00,28.806223,76.141105,PM10,70,150,100
India,Haryana,Charkhi Dadri,"Mini Secretariat, Charkhi Dadri - HSPCB",06-04-2024 12:00:00,28.593883,76.270653,PM2.5,86,179,124
India,Haryana,Charkhi Dadri,"Mini Secretariat, Charkhi Dadri - HSPCB",06-04-2024 12:00:00,28.593883,76.270653,CO,24,50,38
India,Haryana,Dharuhera,"Municipal Corporation Office, Dharuhera -  HSPCB",06-04-2024 12:00:00,28.206800,76.799700,PM10,99,198,157
India,Haryana,Dharuhera,"Municipal Corporation Office, Dharuhera -  HSPCB",06-04-2024 12:00:00,28.206800,76.799700,NH3,9,26,19
India,Haryana,Dharuhera,"Municipal Corporation Office, Dharuhera -  HSPCB",06-04-2024 12:00:00,28.206800,76.799700,SO2,10,59,27
India,Haryana,Dharuhera,"Municipal Corporation Office, Dharuhera -  HSPCB",06-04-2024 12:00:00,28.206800,76.799700,OZONE,2,40,19
India,Haryana,Faridabad,"New Industrial Town, Faridabad - HSPCB",06-04-2024 12:00:00,28.39072,77.30059,PM2.5,214,327,283
India,Haryana,Faridabad,"New Industrial Town, Faridabad - HSPCB",06-04-2024 12:00:00,28.39072,77.30059,PM10,140,214,171
India,Haryana,Faridabad,"Sector 11, Faridabad - HSPCB",06-04-2024 12:00:00,28.376058,77.315741,NO2,30,32,31
India,Haryana,Faridabad,"Sector 11, Faridabad - HSPCB",06-04-2024 12:00:00,28.376058,77.315741,NH3,6,6,6
India,Haryana,Faridabad,"Sector- 16A, Faridabad - HSPCB",06-04-2024 12:00:00,28.4088421,77.3099081,NO2,16,47,31
India,Haryana,Fatehabad,"Huda Sector, Fatehabad - HSPCB",06-04-2024 12:00:00,29.503664,75.467934,SO2,NA,NA,NA
India,Haryana,Fatehabad,"Huda Sector, Fatehabad - HSPCB",06-04-2024 12:00:00,29.503664,75.467934,OZONE,NA,NA,NA
India,Haryana,Gurugram,"Teri Gram, Gurugram - HSPCB",06-04-2024 12:00:00,28.4275,77.1465,OZONE,35,51,51
India,Haryana,Gurugram,"Vikas Sadan, Gurugram - HSPCB",06-04-2024 12:00:00,28.4501238,77.0263051,SO2,25,73,42
India,Haryana,Gurugram,"Vikas Sadan, Gurugram - HSPCB",06-04-2024 12:00:00,28.4501238,77.0263051,OZONE,8,68,24
India,Haryana,Hisar,"Urban Estate-II, Hisar - HSPCB",06-04-2024 12:00:00,29.140560,75.744941,NO2,22,32,24
India,Haryana,Jind,"Police Lines, Jind - HSPCB",06-04-2024 12:00:00,29.307814,76.337619,CO,2,77,28
India,Haryana,Kaithal,"Rishi Nagar, Kaithal - HSPCB",06-04-2024 12:00:00,29.8006,76.4155,PM2.5,31,99,55
India,Haryana,Karnal,"Sector-12, Karnal - HSPCB",06-04-2024 12:00:00,29.695300,77.002700,PM2.5,21,43,30
India,Haryana,Karnal,"Sector-12, Karnal - HSPCB",06-04-2024 12:00:00,29.695300,77.002700,NO2,7,12,10
India,Haryana,Kurukshetra,"Sector-7, Kurukshetra - HSPCB",06-04-2024 12:00:00,29.966942,76.875879,PM2.5,47,116,77
India,Haryana,Kurukshetra,"Sector-7, Kurukshetra - HSPCB",06-04-2024 12:00:00,29.966942,76.875879,NO2,10,10,10
India,Haryana,Kurukshetra,"Sector-7, Kurukshetra - HSPCB",06-04-2024 12:00:00,29.966942,76.875879,NH3,5,5,5
India,Haryana,Mandikhera,"General Hospital, Mandikhera - HSPCB",06-04-2024 12:00:00,27.9002,76.9938,PM2.5,3,32,17
India,Haryana,Mandikhera,"General Hospital, Mandikhera - HSPCB",06-04-2024 12:00:00,27.9002,76.9938,OZONE,21,32,25
India,Haryana,Manesar,"Sector-2 IMT, Manesar - HSPCB",06-04-2024 12:00:00,28.360699,76.936090,PM10,46,89,67
India,Haryana,Manesar,"Sector-2 IMT, Manesar - HSPCB",06-04-2024 12:00:00,28.360699,76.936090,NH3,1,4,2
India,Haryana,Narnaul,"Shastri Nagar, Narnaul - HSPCB",06-04-2024 12:00:00,28.060249,76.113115,PM2.5,37,85,55
India,Haryana,Narnaul,"Shastri Nagar, Narnaul - HSPCB",06-04-2024 12:00:00,28.060249,76.113115,CO,12,28,22
India,Haryana,Palwal,"Shyam Nagar, Palwal - HSPCB",06-04-2024 12:00:00,28.1485564,77.3320667,PM2.5,50,88,68
India,Haryana,Palwal,"Shyam Nagar, Palwal - HSPCB",06-04-2024 12:00:00,28.1485564,77.3320667,OZONE,18,75,44
India,Haryana,Rohtak,"MD University, Rohtak - HSPCB",06-04-2024 12:00:00,28.52123,76.37138,CO,12,65,42
India,Haryana,Sirsa,"F-Block, Sirsa - HSPCB",06-04-2024 12:00:00,29.536400,75.015800,NO2,10,10,10
India,Haryana,Sonipat,"Murthal, Sonipat - HSPCB",06-04-2024 12:00:00,29.027200,77.062100,PM2.5,35,36,35
India,Haryana,Sonipat,"Murthal, Sonipat - HSPCB",06-04-2024 12:00:00,29.027200,77.062100,PM10,99,101,100
India,Haryana,Sonipat,"Murthal, Sonipat - HSPCB",06-04-2024 12:00:00,29.027200,77.062100,SO2,13,29,21
India,Haryana,Sonipat,"Murthal, Sonipat - HSPCB",06-04-2024 12:00:00,29.027200,77.062100,OZONE,17,36,20
India,Haryana,Yamuna Nagar,"Gobind Pura, Yamuna Nagar - HSPCB",06-04-2024 12:00:00,30.1480566,77.2893471,PM2.5,45,90,66
India,Haryana,Yamuna Nagar,"Gobind Pura, Yamuna Nagar - HSPCB",06-04-2024 12:00:00,30.1480566,77.2893471,CO,36,59,53
India,Himachal Pradesh,Baddi,"HIMUDA Complex Phase-1, Baddi - HPPCB",06-04-2024 12:00:00,30.943887,76.801991,PM10,81,339,139
India,Himachal Pradesh,Baddi,"HIMUDA Complex Phase-1, Baddi - HPPCB",06-04-2024 12:00:00,30.943887,76.801991,NH3,3,6,4
India,Jharkhand,Dhanbad,"Kalakusuma, Dhanbad - DMC",06-04-2024 12:00:00,23.811548,86.481238,SO2,NA,NA,NA
India,Jharkhand,Dhanbad,"Kalakusuma, Dhanbad - DMC",06-04-2024 12:00:00,23.811548,86.481238,OZONE,21,38,26
India,Jharkhand,Dhanbad,"Sardar Patel Nagar, Dhanbad - JSPCB",06-04-2024 12:00:00,23.80569,86.44268,OZONE,11,27,17
India,Karnataka,Belgaum,"Ramteerth Nagar, Belgaum - KSPCB",06-04-2024 12:00:00,15.888653,74.541751,OZONE,19,22,19
India,Karnataka,Bengaluru,"BTM Layout, Bengaluru - CPCB",06-04-2024 12:00:00,12.9135218,77.5950804,PM10,17,213,68
India,Karnataka,Bengaluru,"BTM Layout, Bengaluru - CPCB",06-04-2024 12:00:00,12.9135218,77.5950804,NO2,NA,NA,NA
India,Karnataka,Bengaluru,"Bapuji Nagar, Bengaluru - KSPCB",06-04-2024 12:00:00,12.951913,77.539784,NO2,8,15,11
India,Karnataka,Bengaluru,"Bapuji Nagar, Bengaluru - KSPCB",06-04-2024 12:00:00,12.951913,77.539784,SO2,4,10,7
India,Karnataka,Bengaluru,"Hebbal, Bengaluru - KSPCB",06-04-2024 12:00:00,13.029152,77.585901,PM2.5,NA,NA,NA
India,Karnataka,Bengaluru,"Jayanagar 5th Block, Bengaluru - KSPCB",06-04-2024 12:00:00,12.920984,77.584908,SO2,NA,NA,NA
India,Karnataka,Bengaluru,"Jigani, Bengaluru - KSPCB",06-04-2024 12:00:00,12.7816279,77.6299145,OZONE,7,72,37
India,Karnataka,Bengaluru,"Peenya, Bengaluru - CPCB",06-04-2024 12:00:00,13.0270199,77.494094,PM2.5,7,56,42
India,Karnataka,Bengaluru,"Peenya, Bengaluru - CPCB",06-04-2024 12:00:00,13.0270199,77.494094,SO2,8,19,12
India,Karnataka,Bengaluru,"Peenya, Bengaluru - CPCB",06-04-2024 12:00:00,13.0270199,77.494094,OZONE,23,102,46
India,Karnataka,Bengaluru,"RVCE-Mailasandra, Bengaluru - KSPCB",06-04-2024 12:00:00,12.921418,77.502466,PM10,78,204,114
India,Karnataka,Bengaluru,"Sanegurava Halli, Bengaluru - KSPCB",06-04-2024 12:00:00,12.990328,77.5431385,SO2,1,3,2
India,Karnataka,Bengaluru,"Shivapura_Peenya, Bengaluru - KSPCB",06-04-2024 12:00:00,13.0246342,77.5080115,SO2,4,24,15
India,Karnataka,Bengaluru,"Silk Board, Bengaluru - KSPCB",06-04-2024 12:00:00,12.917348,77.622813,NH3,4,6,5
India,Karnataka,Bengaluru,"Silk Board, Bengaluru - KSPCB",06-04-2024 12:00:00,12.917348,77.622813,CO,12,34,21
India,Karnataka,Bengaluru,"Silk Board, Bengaluru - KSPCB",06-04-2024 12:00:00,12.917348,77.622813,OZONE,19,41,20
India,Karnataka,Bidar,"Naubad, Bidar - KSPCB",06-04-2024 12:00:00,17.930306,77.482194,OZONE,22,52,34
India,Karnataka,Chamarajanagar,"Urban, Chamarajanagar - KSPCB",06-04-2024 12:00:00,11.55358,76.55521,PM2.5,20,42,28
India,Karnataka,Chikkaballapur,"Chikkaballapur Rural, Chikkaballapur - KSPCB",06-04-2024 12:00:00,13.428828,77.731418,CO,14,27,17
India,Karnataka,Chikkaballapur,"Chikkaballapur Rural, Chikkaballapur - KSPCB",06-04-2024 12:00:00,13.428828,77.731418,OZONE,24,26,26
India,Karnataka,Chikkamagaluru,"Kalyana Nagara, Chikkamagaluru - KSPCB",06-04-2024 12:00:00,13.328028,75.797056,OZONE,16,66,33
India,Karnataka,Davanagere,"Devaraj Urs Badavane, Davanagere - KSPCB",06-04-2024 12:00:00,14.475800,75.905200,PM10,57,122,83
India,Karnataka,Davanagere,"Devaraj Urs Badavane, Davanagere - KSPCB",06-04-2024 12:00:00,14.475800,75.905200,NO2,11,17,13
India,Karnataka,Davanagere,"Devaraj Urs Badavane, Davanagere - KSPCB",06-04-2024 12:00:00,14.475800,75.905200,SO2,4,10,5
India,Karnataka,Dharwad,"Kalabhavan, Dharwad - KSPCB",06-04-2024 12:00:00,15.459706,75.008381,NO2,5,32,16
India,Karnataka,Gadag,"Panchal Nagar, Gadag - KSPCB",06-04-2024 12:00:00,15.411456,75.638133,SO2,6,22,14
India,Karnataka,Hassan,"B.Katihalli, Hassan - KSPCB",06-04-2024 12:00:00,13.008556,76.125258,NO2,1,32,11
India,Karnataka,Hassan,"B.Katihalli, Hassan - KSPCB",06-04-2024 12:00:00,13.008556,76.125258,NH3,1,4,2
India,Karnataka,Haveri,"Ashwini Nagar, Haveri - KSPCB",06-04-2024 12:00:00,14.791800,75.389600,PM2.5,37,61,49
India,Karnataka,Haveri,"Ashwini Nagar, Haveri - KSPCB",06-04-2024 12:00:00,14.791800,75.389600,CO,36,38,37
India,Karnataka,Kolar,"Tamaka Ind. Area, Kolar - KSPCB",06-04-2024 12:00:00,13.1276288,78.1570122,NO2,19,115,50
India,Karnataka,Koppal,"Diwator Nagar, Koppal - KSPCB",06-04-2024 12:00:00,15.347630,76.181767,NO2,17,65,44
India,Karnataka,Madikeri,"Stuart Hill, Madikeri - KSPCB",06-04-2024 12:00:00,12.415911,75.735050,PM10,30,65,43
India,Karnataka,Madikeri,"Stuart Hill, Madikeri - KSPCB",06-04-2024 12:00:00,12.415911,75.735050,NO2,3,16,7
India,Karnataka,Madikeri,"Stuart Hill, Madikeri - KSPCB",06-04-2024 12:00:00,12.415911,75.735050,NH3,1,2,1
India,Karnataka,Mangalore,"Kadri, Mangalore - KSPCB",06-04-2024 12:00:00,12.889250,74.853000,SO2,23,63,28
India,Karnataka,Mangalore,"Kadri, Mangalore - KSPCB",06-04-2024 12:00:00,12.889250,74.853000,OZONE,28,49,30
India,Karnataka,Mysuru,"Hebbal 1st Stage, Mysuru - KSPCB",06-04-2024 12:00:00,12.21041,76.37376,NO2,2,49,28
India,Karnataka,Raichur,"Haji Colony, Raichur - KSPCB",06-04-2024 12:00:00,16.208139,77.348417,PM2.5,NA,NA,NA
India,Karnataka,Ramanagara,"Vijay Nagar, Ramanagara - KSPCB",06-04-2024 12:00:00,12.733409,77.298051,NO2,3,19,7
India,Karnataka,Shivamogga,"Vinoba Nagara, Shivamogga - KSPCB",06-04-2024 12:00:00,13.940000,75.555917,SO2,2,11,6
India,Karnataka,Tumakuru,"Thimmalapura, Tumakuru - KSPCB",06-04-2024 12:00:00,13.377516,77.099072,PM10,12,75,30
India,Karnataka,Vijayapura,"Ibrahimpur, Vijayapura - KSPCB",06-04-2024 12:00:00,16.802639,75.722694,PM2.5,26,31,30
India,Karnataka,Vijayapura,"Ibrahimpur, Vijayapura - KSPCB",06-04-2024 12:00:00,16.802639,75.722694,SO2,25,114,65
India,Karnataka,Vijayapura,"Ibrahimpur, Vijayapura - KSPCB",06-04-2024 12:00:00,16.802639,75.722694,OZONE,14,16,15
India,Karnataka,Yadgir,"Collector Office, Yadgir - KSPCB",06-04-2024 12:00:00,16.7602,77.1428,PM2.5,42,72,57
India,Karnataka,Yadgir,"Collector Office, Yadgir - KSPCB",06-04-2024 12:00:00,16.7602,77.1428,PM10,55,102,72
India,Kerala,Eloor,"Udyogamandal, Eloor - Kerala PCB",06-04-2024 12:00:00,10.073232,76.302765,SO2,1,12,2
India,Kerala,Eloor,"Udyogamandal, Eloor - Kerala PCB",06-04-2024 12:00:00,10.073232,76.302765,CO,11,102,40
India,Kerala,Thiruvananthapuram,"Kariavattom, Thiruvananthapuram - Kerala PCB",06-04-2024 12:00:00,8.563700,76.886500,PM10,93,102,98
India,Kerala,Thiruvananthapuram,"Kariavattom, Thiruvananthapuram - Kerala PCB",06-04-2024 12:00:00,8.563700,76.886500,OZONE,28,31,30
India,Kerala,Thrissur,"Corporation Ground, Thrissur - Kerala PCB",06-04-2024 12:00:00,10.532400,76.215900,OZONE,27,32,30
India,Madhya Pradesh,Bhopal,"Idgah Hills, Bhopal - MPPCB",06-04-2024 12:00:00,23.264759,77.381568,NH3,4,6,5
India,Madhya Pradesh,Bhopal,"Idgah Hills, Bhopal - MPPCB",06-04-2024 12:00:00,23.264759,77.381568,OZONE,7,86,49
India,Madhya Pradesh,Bhopal,"T T Nagar, Bhopal - MPPCB",06-04-2024 12:00:00,23.233584,77.400574,NO2,12,52,25
India,Madhya Pradesh,Bhopal,"T T Nagar, Bhopal - MPPCB",06-04-2024 12:00:00,23.233584,77.400574,NH3,4,8,7
India,Madhya Pradesh,Dewas,"Bhopal Chauraha, Dewas - MPPCB",06-04-2024 12:00:00,22.9682591,76.064118,PM10,102,185,125
India,Madhya Pradesh,Gwalior,"City Center, Gwalior - MPPCB",06-04-2024 12:00:00,26.203442,78.193251,PM2.5,35,112,68
India,Madhya Pradesh,Gwalior,"City Center, Gwalior - MPPCB",06-04-2024 12:00:00,26.203442,78.193251,CO,24,101,57
India,Madhya Pradesh,Gwalior,"Deen Dayal Nagar, Gwalior - MPPCB",06-04-2024 12:00:00,26.259242,78.216432,PM2.5,26,250,82
India,Madhya Pradesh,Gwalior,"Deen Dayal Nagar, Gwalior - MPPCB",06-04-2024 12:00:00,26.259242,78.216432,CO,50,94,68
India,Madhya Pradesh,Gwalior,"Maharaj Bada, Gwalior - MPPCB",06-04-2024 12:00:00,26.200388,78.147714,PM10,38,183,112
India,Madhya Pradesh,Gwalior,"Maharaj Bada, Gwalior - MPPCB",06-04-2024 12:00:00,26.200388,78.147714,NH3,3,13,5
India,Madhya Pradesh,Indore,"Maguda Nagar, Indore - IMC",06-04-2024 12:00:00,22.7524,75.8872,NO2,NA,NA,NA
India,Madhya Pradesh,Indore,"Regional Park, Indore - IMC",06-04-2024 12:00:00,22.6780,75.8559,CO,23,34,29
India,Madhya Pradesh,Indore,"Residency Area, Indore - IMC",06-04-2024 12:00:00,22.7084,75.8815,PM2.5,42,102,58
India,Madhya Pradesh,Indore,"Residency Area, Indore - IMC",06-04-2024 12:00:00,22.7084,75.8815,SO2,26,29,28
India,Madhya Pradesh,Jabalpur,"Govindh Bhavan Colony, Jabalpur - JMC",06-04-2024 12:00:00,23.163174,79.973061,NO2,10,46,29
India,Madhya Pradesh,Jabalpur,"Gupteshwar, Jabalpur - JMC",06-04-2024 12:00:00,23.142888,79.916147,PM2.5,32,213,87
India,Madhya Pradesh,Jabalpur,"Suhagi, Jabalpur - JMC",06-04-2024 12:00:00,23.218135,79.957770,NO2,40,46,43
India,Madhya Pradesh,Katni,"Gole Bazar, Katni - MPPCB",06-04-2024 12:00:00,23.50016,80.23284,CO,30,106,58
India,Madhya Pradesh,Mandideep,"Sector-D Industrial Area, Mandideep - MPPCB",06-04-2024 12:00:00,23.108440,77.511428,PM10,80,167,119
India,Madhya Pradesh,Mandideep,"Sector-D Industrial Area, Mandideep - MPPCB",06-04-2024 12:00:00,23.108440,77.511428,NO2,3,43,17
India,Madhya Pradesh,Mandideep,"Sector-D Industrial Area, Mandideep - MPPCB",06-04-2024 12:00:00,23.108440,77.511428,OZONE,18,49,27
India,Madhya Pradesh,Pithampur,"Sector-2 Industrial Area, Pithampur - MPPCB",06-04-2024 12:00:00,22.624758,75.675238,PM10,96,156,116
India,Madhya Pradesh,Pithampur,"Sector-2 Industrial Area, Pithampur - MPPCB",06-04-2024 12:00:00,22.624758,75.675238,OZONE,31,57,37
India,Madhya Pradesh,Satna,"Bandhavgar Colony, Satna - Birla Cement",06-04-2024 12:00:00,24.58434363,80.8549414,SO2,2,9,4
India,Madhya Pradesh,Singrauli,"Suryakiran Bhawan NCL, Singrauli - MPPCB",06-04-2024 12:00:00,24.108970,82.645580,NH3,3,6,5
India,Madhya Pradesh,Singrauli,"Suryakiran Bhawan NCL, Singrauli - MPPCB",06-04-2024 12:00:00,24.108970,82.645580,OZONE,9,82,26
India,Madhya Pradesh,Ujjain,"Mahakaleshwar Temple, Ujjain - MPPCB",06-04-2024 12:00:00,23.182719 ,75.768218 ,PM10,56,168,97
India,Madhya Pradesh,Ujjain,"Mahakaleshwar Temple, Ujjain - MPPCB",06-04-2024 12:00:00,23.182719 ,75.768218 ,CO,8,126,32
India,Maharashtra,Ahmednagar,"Tarakpur, Ahmednagar - MPCB",06-04-2024 12:00:00,19.10122,74.73339,PM2.5,26,253,110
India,Maharashtra,Ahmednagar,"Tarakpur, Ahmednagar - MPCB",06-04-2024 12:00:00,19.10122,74.73339,PM10,62,147,105
India,Maharashtra,Ahmednagar,"Tarakpur, Ahmednagar - MPCB",06-04-2024 12:00:00,19.10122,74.73339,SO2,3,19,11
India,Maharashtra,Akola,"Ramdaspeth, Akola - MPCB",06-04-2024 12:00:00,20.719516,77.000253,PM2.5,36,316,91
India,Maharashtra,Akola,"Ramdaspeth, Akola - MPCB",06-04-2024 12:00:00,20.719516,77.000253,NO2,9,78,22
India,Maharashtra,Amravati,"Shivneri Colony, Amravati - MPCB",06-04-2024 12:00:00,20.9402359,77.7895248,CO,15,60,21
India,Maharashtra,Amravati,"Shri Shivaji Science College, Amaravati - MPCB",06-04-2024 12:00:00,20.939198,77.765701,NO2,4,21,10
India,Maharashtra,Amravati,"Shri Shivaji Science College, Amaravati - MPCB",06-04-2024 12:00:00,20.939198,77.765701,CO,28,48,37
India,Maharashtra,Amravati,"Shri Shivaji Science College, Amaravati - MPCB",06-04-2024 12:00:00,20.939198,77.765701,OZONE,24,81,40
India,Maharashtra,Aurangabad,"MIDC Chilkalthana, Aurangabad - MPCB",06-04-2024 12:00:00,19.875620,75.387310,PM10,77,123,98
India,Maharashtra,Aurangabad,"More Chowk Waluj, Aurangabad - MPCB",06-04-2024 12:00:00,19.8389439,75.244448,NH3,9,10,9
India,Maharashtra,Aurangabad,"Rachnakar Colony, Aurangabad - MPCB",06-04-2024 12:00:00,19.863756,75.321188,PM10,24,103,76
India,Maharashtra,Aurangabad,"Rachnakar Colony, Aurangabad - MPCB",06-04-2024 12:00:00,19.863756,75.321188,SO2,14,56,32
India,Maharashtra,Badlapur,"Katrap, Badlapur - MPCB",06-04-2024 12:00:00,19.16485,73.23409,PM10,66,118,109
India,Maharashtra,Belapur,"CBD Belapur, Belapur - MPCB",06-04-2024 12:00:00,19.0243902,73.0406721,PM10,96,134,113
India,Maharashtra,Belapur,"CBD Belapur, Belapur - MPCB",06-04-2024 12:00:00,19.0243902,73.0406721,NH3,7,16,11
India,Maharashtra,Belapur,"CBD Belapur, Belapur - MPCB",06-04-2024 12:00:00,19.0243902,73.0406721,OZONE,13,107,43
India,Maharashtra,Bhiwandi,"Gokul Nagar, Bhiwandi - MPCB",06-04-2024 12:00:00,19.309073,73.057223,SO2,2,16,6
India,Maharashtra,Bhiwandi,"Gokul Nagar, Bhiwandi - MPCB",06-04-2024 12:00:00,19.309073,73.057223,CO,10,46,31
India,Maharashtra,Boisar,"Khaira, Boisar - MPCB",06-04-2024 12:00:00,19.786089,72.757971,PM2.5,25,290,100
India,Maharashtra,Boisar,"Khaira, Boisar - MPCB",06-04-2024 12:00:00,19.786089,72.757971,NH3,1,12,5
India,Maharashtra,Chandrapur,"Chauhan Colony, Chandrapur - MPCB",06-04-2024 12:00:00,19.962900,79.298714,PM10,51,136,97
India,Maharashtra,Chandrapur,"Chauhan Colony, Chandrapur - MPCB",06-04-2024 12:00:00,19.962900,79.298714,NO2,19,90,45
India,Maharashtra,Chandrapur,"MIDC Khutala, Chandrapur - MPCB",06-04-2024 12:00:00,19.9775302,79.2337086,PM2.5,70,296,186
India,Maharashtra,Chandrapur,"MIDC Khutala, Chandrapur - MPCB",06-04-2024 12:00:00,19.9775302,79.2337086,NH3,1,2,1
India,Maharashtra,Chandrapur,"MIDC Khutala, Chandrapur - MPCB",06-04-2024 12:00:00,19.9775302,79.2337086,SO2,18,23,21
India,Maharashtra,Dhule,"Deopur, Dhule - MPCB",06-04-2024 12:00:00,20.918946,74.776388,CO,7,31,22
India,Maharashtra,Jalgaon,"Prabhat Colony, Jalgaon - MPCB",06-04-2024 12:00:00,21.001264,75.565602,CO,12,36,16
India,Maharashtra,Jalna,"Old MIDC, Jalna - MPCB",06-04-2024 12:00:00,19.854616,75.905894,PM10,59,132,91
India,Maharashtra,Jalna,"Old MIDC, Jalna - MPCB",06-04-2024 12:00:00,19.854616,75.905894,NO2,1,26,17
India,Maharashtra,Jalna,"Old MIDC, Jalna - MPCB",06-04-2024 12:00:00,19.854616,75.905894,OZONE,10,153,23
India,Maharashtra,Kalyan,"Khadakpada, Kalyan - MPCB",06-04-2024 12:00:00,19.25292,73.142019,NH3,1,2,1
India,Maharashtra,Latur,"Sawe Wadi, Latur - MPCB",06-04-2024 12:00:00,18.39963,76.57452,SO2,3,53,12
India,Maharashtra,Mahad,"Kamble Tarf Birwadi, Mahad - MPCB",06-04-2024 12:00:00,18.1023399,73.4783687,SO2,11,124,27
India,Maharashtra,Mahad,"Kamble Tarf Birwadi, Mahad - MPCB",06-04-2024 12:00:00,18.1023399,73.4783687,CO,22,51,37
India,Maharashtra,Malegaon,"Mahesh Nagar, Malegaon - MPCB",06-04-2024 12:00:00,20.555712,74.529236,NO2,9,45,18
India,Maharashtra,Malegaon,"Mahesh Nagar, Malegaon - MPCB",06-04-2024 12:00:00,20.555712,74.529236,CO,5,48,16
India,Maharashtra,Mumbai,"Bandra Kurla Complex, Mumbai - MPCB",06-04-2024 12:00:00,19.065931,72.862131,PM10,74,157,115
India,Maharashtra,Mumbai,"Borivali East, Mumbai - IITM",06-04-2024 12:00:00,19.23241,72.86895,NH3,1,2,1
India,Maharashtra,Mumbai,"Borivali East, Mumbai - MPCB",06-04-2024 12:00:00,19.2243333,72.8658113,NO2,8,52,18
India,Maharashtra,Mumbai,"Byculla, Mumbai - BMC",06-04-2024 12:00:00,18.9767,72.8380,PM2.5,15,41,29
India,Maharashtra,Mumbai,"Chembur, Mumbai - MPCB",06-04-2024 12:00:00,19.0364585,72.8954371,PM2.5,50,96,74
India,Maharashtra,Mumbai,"Chhatrapati Shivaji Intl. Airport (T2), Mumbai - MPCB",06-04-2024 12:00:00,19.10078,72.87462,NO2,7,58,24
India,Maharashtra,Mumbai,"Chhatrapati Shivaji Intl. Airport (T2), Mumbai - MPCB",06-04-2024 12:00:00,19.10078,72.87462,CO,48,80,70
India,Maharashtra,Mumbai,"Colaba, Mumbai - MPCB",06-04-2024 12:00:00,18.910000,72.820000,PM2.5,42,114,66
India,Maharashtra,Mumbai,"Colaba, Mumbai - MPCB",06-04-2024 12:00:00,18.910000,72.820000,PM10,49,120,90
India,Maharashtra,Mumbai,"Ghatkopar, Mumbai - BMC",06-04-2024 12:00:00,19.083694,72.920967,PM2.5,25,67,42
India,Maharashtra,Mumbai,"Ghatkopar, Mumbai - BMC",06-04-2024 12:00:00,19.083694,72.920967,PM10,54,104,85
India,Maharashtra,Mumbai,"Ghatkopar, Mumbai - BMC",06-04-2024 12:00:00,19.083694,72.920967,NO2,13,36,25
India,Maharashtra,Mumbai,"Ghatkopar, Mumbai - BMC",06-04-2024 12:00:00,19.083694,72.920967,OZONE,1,36,8
India,Maharashtra,Mumbai,"Kandivali East, Mumbai - MPCB",06-04-2024 12:00:00,19.205800,72.868200,PM10,59,418,139
India,Maharashtra,Mumbai,"Kandivali East, Mumbai - MPCB",06-04-2024 12:00:00,19.205800,72.868200,NH3,4,20,6
India,Maharashtra,Mumbai,"Kandivali East, Mumbai - MPCB",06-04-2024 12:00:00,19.205800,72.868200,CO,24,30,27
India,Maharashtra,Mumbai,"Kandivali West, Mumbai - BMC",06-04-2024 12:00:00,19.215859,72.831718,PM2.5,28,77,54
India,Maharashtra,Mumbai,"Kandivali West, Mumbai - BMC",06-04-2024 12:00:00,19.215859,72.831718,NH3,1,2,2
India,Maharashtra,Mumbai,"Kherwadi_Bandra East, Mumbai - MPCB",06-04-2024 12:00:00,19.0632143,72.8456324,OZONE,4,135,41
India,Maharashtra,Mumbai,"Khindipada-Bhandup West, Mumbai - IITM",06-04-2024 12:00:00,19.1653323,72.922099,PM2.5,3,111,60
India,Maharashtra,Mumbai,"Khindipada-Bhandup West, Mumbai - IITM",06-04-2024 12:00:00,19.1653323,72.922099,NO2,NA,NA,NA
India,Maharashtra,Mumbai,"Kurla, Mumbai - MPCB",06-04-2024 12:00:00,19.0863,72.8888,CO,9,24,16
India,Maharashtra,Mumbai,"Mazgaon, Mumbai - IITM",06-04-2024 12:00:00,18.96702,72.84214,PM2.5,38,390,150
India,Maharashtra,Mumbai,"Mazgaon, Mumbai - IITM",06-04-2024 12:00:00,18.96702,72.84214,NH3,13,46,20
India,Maharashtra,Mumbai,"Mulund West, Mumbai - MPCB",06-04-2024 12:00:00,19.1750,72.9419,PM2.5,36,129,71
India,Maharashtra,Mumbai,"Mulund West, Mumbai - MPCB",06-04-2024 12:00:00,19.1750,72.9419,CO,36,36,36
India,Maharashtra,Mumbai,"Mulund West, Mumbai - MPCB",06-04-2024 12:00:00,19.1750,72.9419,OZONE,7,7,7
India,Maharashtra,Mumbai,"Navy Nagar-Colaba, Mumbai - IITM",06-04-2024 12:00:00,18.897756,72.813320,PM10,65,151,101
India,Maharashtra,Mumbai,"Navy Nagar-Colaba, Mumbai - IITM",06-04-2024 12:00:00,18.897756,72.813320,SO2,1,5,3
India,Maharashtra,Mumbai,"Sewri, Mumbai - BMC",06-04-2024 12:00:00,19.000084,72.856730,NO2,NA,NA,NA
India,Maharashtra,Mumbai,"Shivaji Nagar, Mumbai - BMC",06-04-2024 12:00:00,19.060498,72.923356,NO2,26,117,69
India,Maharashtra,Mumbai,"Shivaji Nagar, Mumbai - BMC",06-04-2024 12:00:00,19.060498,72.923356,OZONE,6,69,30
India,Maharashtra,Mumbai,"Sion, Mumbai - MPCB",06-04-2024 12:00:00,19.047000,72.874600,PM2.5,45,116,73
India,Maharashtra,Mumbai,"Sion, Mumbai - MPCB",06-04-2024 12:00:00,19.047000,72.874600,NO2,14,59,30
India,Maharashtra,Mumbai,"Vasai West, Mumbai - MPCB",06-04-2024 12:00:00,19.383200,72.820400,SO2,16,16,16
India,Maharashtra,Mumbai,"Vasai West, Mumbai - MPCB",06-04-2024 12:00:00,19.383200,72.820400,OZONE,29,65,41
India,Maharashtra,Mumbai,"Vile Parle West, Mumbai - MPCB",06-04-2024 12:00:00,19.10861,72.83622,PM10,75,171,113
India,Maharashtra,Mumbai,"Vile Parle West, Mumbai - MPCB",06-04-2024 12:00:00,19.10861,72.83622,OZONE,2,3,3
India,Maharashtra,Mumbai,"Worli, Mumbai - MPCB",06-04-2024 12:00:00,18.9936162,72.8128113,SO2,11,12,11
India,Maharashtra,Mumbai,"Worli, Mumbai - MPCB",06-04-2024 12:00:00,18.9936162,72.8128113,OZONE,7,12,8
India,Maharashtra,Nagpur,"Ambazari, Nagpur - MPCB",06-04-2024 12:00:00,21.121801,79.04952,SO2,12,42,21
India,Maharashtra,Nagpur,"Mahal, Nagpur - MPCB",06-04-2024 12:00:00,21.14472,79.107595,NH3,1,19,8
India,Maharashtra,Nagpur,"Mahal, Nagpur - MPCB",06-04-2024 12:00:00,21.14472,79.107595,SO2,11,76,30
India,Maharashtra,Nanded,"Sneh Nagar, Nanded - MPCB",06-04-2024 12:00:00,19.173852,77.296291,PM2.5,45,157,105
India,Maharashtra,Nanded,"Sneh Nagar, Nanded - MPCB",06-04-2024 12:00:00,19.173852,77.296291,CO,26,40,35
India,Maharashtra,Nashik,"Gangapur Road, Nashik - MPCB",06-04-2024 12:00:00,20.0073285,73.7762427,NO2,13,24,17
India,Maharashtra,Nashik,"Gangapur Road, Nashik - MPCB",06-04-2024 12:00:00,20.0073285,73.7762427,SO2,NA,NA,NA
India,Maharashtra,Nashik,"Gangapur Road, Nashik - MPCB",06-04-2024 12:00:00,20.0073285,73.7762427,OZONE,2,66,28
India,Maharashtra,Nashik,"Hirawadi, Nashik - MPCB",06-04-2024 12:00:00,20.021503,73.813844,PM2.5,32,58,43
India,Maharashtra,Nashik,"MIDC Ambad, Nashik - MPCB",06-04-2024 12:00:00,19.950220,73.731480,NO2,3,24,11
India,Maharashtra,Nashik,"MIDC Ambad, Nashik - MPCB",06-04-2024 12:00:00,19.950220,73.731480,OZONE,8,88,26
India,Maharashtra,Nashik,"Pandav Nagari, Nashik - MPCB",06-04-2024 12:00:00,19.9591346,73.7788008,NO2,5,30,14
India,Maharashtra,Nashik,"Pandav Nagari, Nashik - MPCB",06-04-2024 12:00:00,19.9591346,73.7788008,NH3,5,6,5
India,Maharashtra,Navi Mumbai,"Kopripada-Vashi, Navi Mumbai - MPCB",06-04-2024 12:00:00,19.090337,73.014232,NH3,4,21,8
India,Maharashtra,Navi Mumbai,"Mahape, Navi Mumbai - MPCB",06-04-2024 12:00:00,19.1135051,73.008978,PM10,74,432,165
India,Maharashtra,Navi Mumbai,"Mahape, Navi Mumbai - MPCB",06-04-2024 12:00:00,19.1135051,73.008978,SO2,26,27,27
India,Maharashtra,Navi Mumbai,"Nerul, Navi Mumbai - MPCB",06-04-2024 12:00:00,19.008751,73.016620,PM10,76,214,144
India,Maharashtra,Navi Mumbai,"Nerul, Navi Mumbai - MPCB",06-04-2024 12:00:00,19.008751,73.016620,NH3,2,4,3
India,Maharashtra,Navi Mumbai,"Nerul, Navi Mumbai - MPCB",06-04-2024 12:00:00,19.008751,73.016620,OZONE,31,38,36
India,Maharashtra,Navi Mumbai,"Sanpada, Navi Mumbai - MPCB",06-04-2024 12:00:00,19.0575752,73.0151367,PM2.5,42,91,68
India,Maharashtra,Navi Mumbai,"Sanpada, Navi Mumbai - MPCB",06-04-2024 12:00:00,19.0575752,73.0151367,NO2,10,44,22
India,Maharashtra,Navi Mumbai,"Sector-19A Nerul, Navi Mumbai - IITM",06-04-2024 12:00:00,19.044,73.0325,NO2,36,113,66
India,Maharashtra,Parbhani,"Masoom Colony, Parbhani - MPCB",06-04-2024 12:00:00,19.265594,76.761463,PM2.5,30,325,154
India,Maharashtra,Pimpri-Chinchwad,"Gavalinagar, Pimpri Chinchwad - MPCB",06-04-2024 12:00:00,18.63673,73.82487,PM2.5,63,136,84
India,Maharashtra,Pimpri-Chinchwad,"Gavalinagar, Pimpri Chinchwad - MPCB",06-04-2024 12:00:00,18.63673,73.82487,NH3,1,18,4
India,Maharashtra,Pimpri-Chinchwad,"Park Street Wakad, Pimpri Chinchwad - MPCB",06-04-2024 12:00:00,18.59051,73.77946,NH3,11,21,15
India,Maharashtra,Pimpri-Chinchwad,"Park Street Wakad, Pimpri Chinchwad - MPCB",06-04-2024 12:00:00,18.59051,73.77946,CO,1,72,51
India,Maharashtra,Pimpri-Chinchwad,"Thergaon, Pimpri Chinchwad - MPCB",06-04-2024 12:00:00,18.616318,73.765797,PM2.5,91,215,140
India,Maharashtra,Pimpri-Chinchwad,"Thergaon, Pimpri Chinchwad - MPCB",06-04-2024 12:00:00,18.616318,73.765797,NH3,3,18,7
India,Maharashtra,Pimpri-Chinchwad,"Thergaon, Pimpri Chinchwad - MPCB",06-04-2024 12:00:00,18.616318,73.765797,SO2,2,11,7
India,Maharashtra,Pune,"Bhosari, Pune - IITM",06-04-2024 12:00:00,18.640051,73.848956,NO2,8,13,10
India,Maharashtra,Pune,"Bhosari, Pune - IITM",06-04-2024 12:00:00,18.640051,73.848956,CO,14,38,27
India,Maharashtra,Pune,"Karve Road, Pune - MPCB",06-04-2024 12:00:00,18.5011743,73.8165527,NO2,2,2,2
India,Maharashtra,Pune,"Karve Road, Pune - MPCB",06-04-2024 12:00:00,18.5011743,73.8165527,SO2,25,25,25
India,Maharashtra,Pune,"Mhada Colony, Pune - IITM",06-04-2024 12:00:00,18.573040,73.927715,NO2,1,18,10
India,Maharashtra,Pune,"Revenue Colony-Shivajinagar, Pune - IITM",06-04-2024 12:00:00,18.530085,73.849598,PM10,15,87,32
India,Maharashtra,Pune,"Revenue Colony-Shivajinagar, Pune - IITM",06-04-2024 12:00:00,18.530085,73.849598,NO2,78,158,119
India,Maharashtra,Pune,"Revenue Colony-Shivajinagar, Pune - IITM",06-04-2024 12:00:00,18.530085,73.849598,SO2,68,113,91
India,Maharashtra,Pune,"Revenue Colony-Shivajinagar, Pune - IITM",06-04-2024 12:00:00,18.530085,73.849598,CO,104,118,112
India,Maharashtra,Pune,"Revenue Colony-Shivajinagar, Pune - IITM",06-04-2024 12:00:00,18.530085,73.849598,OZONE,1,54,11
India,Maharashtra,Sangli,"Vijay Nagar, Sangli - MPCB",06-04-2024 12:00:00, 16.5038,74.3623,CO,20,48,32
India,Maharashtra,Solapur,"Ratandeep Housing Society, Solapur - MPCB",06-04-2024 12:00:00,17.65439,75.90649,CO,16,60,24
India,Maharashtra,Thane,"Kasarvadavali, Thane - MPCB",06-04-2024 12:00:00,19.26777,72.97182,NH3,5,19,8
India,Maharashtra,Thane,"Kasarvadavali, Thane - MPCB",06-04-2024 12:00:00,19.26777,72.97182,SO2,3,25,9
India,Maharashtra,Thane,"Pimpleshwar Mandir, Thane - MPCB",06-04-2024 12:00:00,19.192056,72.9585188,PM10,102,146,122
India,Maharashtra,Thane,"Pimpleshwar Mandir, Thane - MPCB",06-04-2024 12:00:00,19.192056,72.9585188,NO2,27,46,37
India,Maharashtra,Thane,"Upvan Fort, Thane - MPCB",06-04-2024 12:00:00,19.222279,72.957979,CO,6,48,32
India,Maharashtra,Ulhasnagar,"Sidhi Vinayak Nagar, Ulhasnagar - MPCB",06-04-2024 12:00:00,19.235581,73.159121,SO2,2,35,13
India,Manipur,Imphal,"DM College of Science, Imphal - Manipur PCB",06-04-2024 12:00:00,24.8207389,93.9423085,PM2.5,27,53,38
India,Manipur,Imphal,"Manipur University, Imphal - Manipur PCB",06-04-2024 12:00:00,24.7524239,93.9286218,CO,12,26,16
India,Manipur,Imphal,"Manipur University, Imphal - Manipur PCB",06-04-2024 12:00:00,24.7524239,93.9286218,OZONE,3,54,26
India,Meghalaya,Shillong,"Lumpyngngad, Shillong - Meghalaya PCB",06-04-2024 12:00:00,25.5586,91.8985,CO,8,14,9
India,Mizoram,Aizawl,"Sikulpuikawn, Aizawl - Mizoram PCB",06-04-2024 12:00:00,23.7176342,92.7192841,SO2,2,2,2
India,Nagaland,Kohima,"PWD Juction, Kohima - NPCB",06-04-2024 12:00:00,25.6635413,94.0989878,PM2.5,86,231,132
India,Nagaland,Kohima,"PWD Juction, Kohima - NPCB",06-04-2024 12:00:00,25.6635413,94.0989878,NH3,1,1,1
India,Nagaland,Kohima,"PWD Juction, Kohima - NPCB",06-04-2024 12:00:00,25.6635413,94.0989878,CO,10,30,11
India,Odisha,Angul,"Hakimapada, Angul - OSPCB",06-04-2024 12:00:00,20.832874,85.104082,PM2.5,110,402,243
India,Odisha,Angul,"Hakimapada, Angul - OSPCB",06-04-2024 12:00:00,20.832874,85.104082,NO2,7,37,22
India,Odisha,Balasore,"Kalidaspur, Balasore - OSPCB",06-04-2024 12:00:00,21.51161,86.89088,PM2.5,10,107,46
India,Odisha,Balasore,"Kalidaspur, Balasore - OSPCB",06-04-2024 12:00:00,21.51161,86.89088,PM10,35,149,105
India,Odisha,Balasore,"Kalidaspur, Balasore - OSPCB",06-04-2024 12:00:00,21.51161,86.89088,NO2,9,36,17
India,Odisha,Baripada,"Meher Colony, Baripada - OSPCB",06-04-2024 12:00:00,21.941841,86.728318,SO2,5,7,6
India,Odisha,Bhubaneswar,"Lingraj Mandir, Bhubaneswar - OSPCB",06-04-2024 12:00:00,20.240790,85.836784,NH3,3,14,5
India,Odisha,Bhubaneswar,"Patia, Bhubaneswar - OSPCB",06-04-2024 12:00:00,20.34652,85.81630,SO2,2,71,12
India,Odisha,Bileipada,"Tata Township, Bileipada - OSPCB",06-04-2024 12:00:00,22.06156703,85.47409613,PM2.5,94,291,188
India,Odisha,Bileipada,"Tata Township, Bileipada - OSPCB",06-04-2024 12:00:00,22.06156703,85.47409613,PM10,145,387,244
India,Odisha,Brajrajnagar,"GM Office, Brajrajnagar - OSPCB",06-04-2024 12:00:00,21.8004996,83.8396977,PM2.5,54,173,101
India,Odisha,Brajrajnagar,"GM Office, Brajrajnagar - OSPCB",06-04-2024 12:00:00,21.8004996,83.8396977,OZONE,19,20,20
India,Odisha,Byasanagar,"Ferro Chrome Colony, Byasanagar - OSPCB",06-04-2024 12:00:00,20.94185,86.11510,PM2.5,83,332,184
India,Odisha,Cuttack,"CDA Area, Cuttack - OSPCB",06-04-2024 12:00:00,20.48891     ,85.84768     ,PM10,75,173,125
India,Odisha,Cuttack,"CDA Area, Cuttack - OSPCB",06-04-2024 12:00:00,20.48891     ,85.84768     ,NH3,2,4,3
India,Odisha,Cuttack,"CDA Area, Cuttack - OSPCB",06-04-2024 12:00:00,20.48891     ,85.84768     ,SO2,2,37,10
India,Odisha,Nayagarh,"Dabuna, Nayagarh - OSPCB",06-04-2024 12:00:00,21.847279,85.416905,CO,18,42,35
India,Odisha,Rairangpur,"Divisional Forest Office, Rairangpur - OSPCB",06-04-2024 12:00:00,22.265816,86.174829,PM2.5,81,171,118
India,Odisha,Rourkela,"Raghunathpali, Rourkela - OSPCB",06-04-2024 12:00:00,22.220833,84.809444,PM2.5,69,313,176
India,Odisha,Rourkela,"Raghunathpali, Rourkela - OSPCB",06-04-2024 12:00:00,22.220833,84.809444,NH3,1,4,2
India,Odisha,Rourkela,"Sector-2, Rourkela - OSPCB",06-04-2024 12:00:00,22.24500000,84.88111111,PM2.5,1,316,184
India,Odisha,Suakati,"OMC Colony, Suakati - OSPCB",06-04-2024 12:00:00,21.606865,85.510538,PM10,108,302,148
India,Odisha,Suakati,"OMC Colony, Suakati - OSPCB",06-04-2024 12:00:00,21.606865,85.510538,NO2,1,10,7
India,Odisha,Talcher,"Talcher Coalfields,Talcher - OSPCB",06-04-2024 12:00:00,20.9360711,85.1707021,SO2,NA,NA,NA
India,Odisha,Tensa,"Barsua Iron Ore Mines, Tensa - OSPCB",06-04-2024 12:00:00,21.869985,85.167016,PM2.5,16,272,126
India,Odisha,Tensa,"Barsua Iron Ore Mines, Tensa - OSPCB",06-04-2024 12:00:00,21.869985,85.167016,PM10,100,120,114
India,Puducherry,Puducherry,"Jawahar Nagar, Puducherry - PPCC",06-04-2024 12:00:00,11.9309,79.8027,PM2.5,3,45,17
India,Puducherry,Puducherry,"Jawahar Nagar, Puducherry - PPCC",06-04-2024 12:00:00,11.9309,79.8027,NO2,1,11,4
India,Puducherry,Puducherry,"Jawahar Nagar, Puducherry - PPCC",06-04-2024 12:00:00,11.9309,79.8027,NH3,1,7,4
India,Punjab,Amritsar,"Golden Temple, Amritsar - PPCB",06-04-2024 12:00:00,31.620000,74.876512,PM10,NA,NA,NA
India,Punjab,Bathinda,"Hardev Nagar, Bathinda - PPCB",06-04-2024 12:00:00,30.233011,74.907758,PM2.5,14,97,64
India,Punjab,Bathinda,"Hardev Nagar, Bathinda - PPCB",06-04-2024 12:00:00,30.233011,74.907758,NO2,25,28,26
India,Punjab,Bathinda,"Hardev Nagar, Bathinda - PPCB",06-04-2024 12:00:00,30.233011,74.907758,CO,2,48,22
India,Punjab,Jalandhar,"Civil Line, Jalandhar - PPCB",06-04-2024 12:00:00,31.321907,75.578914,SO2,8,13,10
India,Punjab,Khanna,"Kalal Majra, Khanna - PPCB",06-04-2024 12:00:00,30.736056 ,76.209694,SO2,10,72,25
India,Punjab,Ludhiana,"Punjab Agricultural University, Ludhiana - PPCB",06-04-2024 12:00:00,30.9028,75.8086,CO,2,98,57
India,Punjab,Mandi Gobindgarh,"RIMT University, Mandi Gobindgarh - PPCB",06-04-2024 12:00:00,30.649961,76.331442,NH3,NA,NA,NA
India,Punjab,Mandi Gobindgarh,"RIMT University, Mandi Gobindgarh - PPCB",06-04-2024 12:00:00,30.649961,76.331442,OZONE,NA,NA,NA
India,Punjab,Rupnagar,"Ratanpura, Rupnagar - Ambuja Cements",06-04-2024 12:00:00,31.0325454,76.5623046,SO2,6,13,10
India,Rajasthan,Ajmer,"Civil Lines,  Ajmer - RSPCB",06-04-2024 12:00:00,26.470859,74.646594,SO2,8,16,14
India,Rajasthan,Ajmer,"Civil Lines,  Ajmer - RSPCB",06-04-2024 12:00:00,26.470859,74.646594,OZONE,25,90,45
India,Rajasthan,Banswara,"Rati Talai, Banswara - RSPCB",06-04-2024 12:00:00,23.555190,74.440010,CO,6,42,11
India,Rajasthan,Baran,"Bamboliya, Baran - RSPCB",06-04-2024 12:00:00,25.106006,76.469948,NH3,3,7,4
India,Rajasthan,Barmer,"Railway Colony, Barmer - RSPCB",06-04-2024 12:00:00,25.747299,71.393989,PM2.5,13,56,31
India,Rajasthan,Barmer,"Railway Colony, Barmer - RSPCB",06-04-2024 12:00:00,25.747299,71.393989,NO2,11,41,17
India,Rajasthan,Bharatpur,"Krishna Nagar, Bharatpur - RSPCB",06-04-2024 12:00:00,27.215415,77.50873,OZONE,50,145,87
India,Rajasthan,Bhiwadi,"RIICO Ind. Area III, Bhiwadi - RSPCB",06-04-2024 12:00:00,28.194909,76.862296,PM2.5,68,217,146
India,Rajasthan,Bhiwadi,"RIICO Ind. Area III, Bhiwadi - RSPCB",06-04-2024 12:00:00,28.194909,76.862296,PM10,116,192,163
India,Rajasthan,Bhiwadi,"RIICO Ind. Area III, Bhiwadi - RSPCB",06-04-2024 12:00:00,28.194909,76.862296,NH3,13,20,17
India,Rajasthan,Bhiwadi,"RIICO Ind. Area III, Bhiwadi - RSPCB",06-04-2024 12:00:00,28.194909,76.862296,SO2,8,35,22
India,Rajasthan,Bikaner,"MM Ground, Bikaner - RSPCB",06-04-2024 12:00:00,28.018792,73.292658,SO2,6,17,11
India,Rajasthan,Bundi,"New Colony, Bundi - RSPCB",06-04-2024 12:00:00,25.435774,75.644272,PM2.5,17,68,39
India,Rajasthan,Bundi,"New Colony, Bundi - RSPCB",06-04-2024 12:00:00,25.435774,75.644272,PM10,64,214,120
India,Rajasthan,Bundi,"New Colony, Bundi - RSPCB",06-04-2024 12:00:00,25.435774,75.644272,NO2,6,58,18
India,Rajasthan,Chittorgarh,"Shastri Nagar, Chittorgarh - RSPCB",06-04-2024 12:00:00,24.892047,74.623527,CO,8,34,12
India,Rajasthan,Dausa,"Khatikan Mohalla, Dausa - RSPCB",06-04-2024 12:00:00,26.895552,76.334753,SO2,NA,NA,NA
India,Rajasthan,Dausa,"Khatikan Mohalla, Dausa - RSPCB",06-04-2024 12:00:00,26.895552,76.334753,CO,1,83,37
India,Rajasthan,Dholpur,"Raja Ganj, Dholpur - RSPCB",06-04-2024 12:00:00,26.699557,77.898881,PM2.5,40,137,74
India,Rajasthan,Dholpur,"Raja Ganj, Dholpur - RSPCB",06-04-2024 12:00:00,26.699557,77.898881,NH3,10,13,11
India,Rajasthan,Dholpur,"Raja Ganj, Dholpur - RSPCB",06-04-2024 12:00:00,26.699557,77.898881,CO,12,38,25
India,Rajasthan,Dungarpur,"Bhoiwada, Dungarpur - RSPCB",06-04-2024 12:00:00,23.837789,73.714926,PM10,50,116,82
India,Rajasthan,Jaipur,"Adarsh Nagar, Jaipur - RSPCB",06-04-2024 12:00:00,26.902909,75.836858,NO2,27,101,50
India,Rajasthan,Jaipur,"Mansarovar Sector-12, Jaipur - RSPCB",06-04-2024 12:00:00,26.843698,75.766894,NO2,12,70,29
India,Rajasthan,Jaipur,"Mansarovar Sector-12, Jaipur - RSPCB",06-04-2024 12:00:00,26.843698,75.766894,NH3,2,12,5
India,Rajasthan,Jaipur,"Mansarovar Sector-12, Jaipur - RSPCB",06-04-2024 12:00:00,26.843698,75.766894,OZONE,16,156,61
India,Rajasthan,Jaipur,"Police Commissionerate, Jaipur - RSPCB",06-04-2024 12:00:00,26.9164092,75.7994901,NH3,6,10,8
India,Rajasthan,Jaipur,"RIICO Sitapura, Jaipur - RSPCB",06-04-2024 12:00:00,26.786682,75.827928,PM10,27,232,109
India,Rajasthan,Jaipur,"RIICO Sitapura, Jaipur - RSPCB",06-04-2024 12:00:00,26.786682,75.827928,NH3,4,18,10
India,Rajasthan,Jaipur,"Sector-2 Murlipura, Jaipur - RSPCB",06-04-2024 12:00:00,26.960669,75.771817,CO,26,66,39
India,Rajasthan,Jaipur,"Sector-2 Murlipura, Jaipur - RSPCB",06-04-2024 12:00:00,26.960669,75.771817,OZONE,8,78,35
India,Rajasthan,Jaipur,"Shastri Nagar, Jaipur - RSPCB",06-04-2024 12:00:00,26.9502929,75.730943,NH3,1,12,4
India,Rajasthan,Jaipur,"Shastri Nagar, Jaipur - RSPCB",06-04-2024 12:00:00,26.9502929,75.730943,SO2,7,42,21
India,Rajasthan,Jaisalmer,"Sadar Bazar, Jaisalmer - RSPCB",06-04-2024 12:00:00,26.912329,70.909168,PM2.5,27,85,46
India,Rajasthan,Jaisalmer,"Sadar Bazar, Jaisalmer - RSPCB",06-04-2024 12:00:00,26.912329,70.909168,NO2,15,75,30
India,Rajasthan,Jhalawar,"Rajlaxmi Nagar, Jhalawar - RSPCB",06-04-2024 12:00:00,24.588397,76.172782,OZONE,4,79,43
India,Rajasthan,Jodhpur,"Collectorate, Jodhpur - RSPCB",06-04-2024 12:00:00,26.268249,73.0193853,OZONE,NA,NA,NA
India,Rajasthan,Jodhpur,"Jhalamand, Jodhpur - RSPCB",06-04-2024 12:00:00,26.215415,73.070156,PM10,67,242,118
India,Rajasthan,Jodhpur,"Jhalamand, Jodhpur - RSPCB",06-04-2024 12:00:00,26.215415,73.070156,OZONE,19,89,36
India,Rajasthan,Jodhpur,"Samrat Ashok Udhyan, Jodhpur - RSPCB",06-04-2024 12:00:00,26.253384,72.976571,NO2,4,80,25
India,Rajasthan,Jodhpur,"Samrat Ashok Udhyan, Jodhpur - RSPCB",06-04-2024 12:00:00,26.253384,72.976571,SO2,6,14,9
India,Rajasthan,Karauli,"Satyawati Vihar, Karauli - RSPCB",06-04-2024 12:00:00,26.506177,77.025989,CO,2,46,35
India,Rajasthan,Kota,"Dhanmandi, Kota - RSPCB",06-04-2024 12:00:00,25.164090,75.858137,OZONE,7,117,59
India,Rajasthan,Kota,"Shrinath Puram, Kota - RSPCB",06-04-2024 12:00:00,25.14389,75.821256,PM10,25,119,84
India,Rajasthan,Kota,"Shrinath Puram, Kota - RSPCB",06-04-2024 12:00:00,25.14389,75.821256,OZONE,36,64,58
India,Rajasthan,Nagaur,"Karni Colony, Nagaur - RSPCB",06-04-2024 12:00:00,27.213494,73.734444,PM2.5,12,96,41
India,Rajasthan,Nagaur,"Karni Colony, Nagaur - RSPCB",06-04-2024 12:00:00,27.213494,73.734444,NH3,4,9,7
India,Rajasthan,Nagaur,"Karni Colony, Nagaur - RSPCB",06-04-2024 12:00:00,27.213494,73.734444,SO2,3,8,6
India,Rajasthan,Pali,"Indira Colony Vistar, Pali - RSPCB",06-04-2024 12:00:00,25.771061, 73.340227,NH3,1,12,3
India,Rajasthan,Pali,"Indira Colony Vistar, Pali - RSPCB",06-04-2024 12:00:00,25.771061, 73.340227,SO2,3,12,9
India,Rajasthan,Pratapgarh,"Pragati Nagar, Pratapgarh - RSPCB",06-04-2024 12:00:00,24.041198,74.780702,PM10,62,148,94
India,Rajasthan,Pratapgarh,"Pragati Nagar, Pratapgarh - RSPCB",06-04-2024 12:00:00,24.041198,74.780702,CO,10,27,17
India,Rajasthan,Sawai Madhopur,"Sahu Nagar, Sawai Madhopur - RSPCB",06-04-2024 12:00:00,26.031443,76.359327,CO,8,63,36
India,Rajasthan,Sikar,"Radhakishan Pura, Sikar - RSPCB",06-04-2024 12:00:00,27.608912,75.153302,NO2,7,63,20
India,Rajasthan,Sirohi,"Vedhaynath Colony, Sirohi - RSPCB",06-04-2024 12:00:00,24.885261,72.857549,PM2.5,17,123,50
India,Rajasthan,Sirohi,"Vedhaynath Colony, Sirohi - RSPCB",06-04-2024 12:00:00,24.885261,72.857549,CO,8,36,18
India,Rajasthan,Sri Ganganagar,"Old City, Sri Ganganagar - RSPCB",06-04-2024 12:00:00,29.931624,73.864511,NH3,6,17,11
India,Rajasthan,Sri Ganganagar,"Old City, Sri Ganganagar - RSPCB",06-04-2024 12:00:00,29.931624,73.864511,CO,50,105,94
India,Rajasthan,Tonk,"Shastri Nagar, Tonk - RSPCB",06-04-2024 12:00:00,26.159933,75.780517,OZONE,10,89,36
India,Sikkim,Gangtok,"Zero Point GICI, Gangtok - SSPCB",06-04-2024 12:00:00,27.338530,88.614099,SO2,11,12,11
India,TamilNadu,Ariyalur,"Keelapalur, Ariyalur - TNPCB",06-04-2024 12:00:00,11.06825,79.07033,PM2.5,NA,NA,NA
India,TamilNadu,Ariyalur,"Keelapalur, Ariyalur - TNPCB",06-04-2024 12:00:00,11.06825,79.07033,SO2,24,25,24
India,TamilNadu,Chengalpattu,"Crescent University, Chengalpattu - TNPCB",06-04-2024 12:00:00,12.8777316,80.0834807,NH3,23,24,24
India,TamilNadu,Chengalpattu,"Crescent University, Chengalpattu - TNPCB",06-04-2024 12:00:00,12.8777316,80.0834807,SO2,20,21,20
India,TamilNadu,Chennai,"Alandur Bus Depot, Chennai - CPCB",06-04-2024 12:00:00,12.9099161,80.1076538,PM10,34,44,38
India,TamilNadu,Chennai,"Kodungaiyur, Chennai - TNPCB",06-04-2024 12:00:00,13.1278,80.2642,NO2,8,20,13
India,TamilNadu,Chennai,"Manali, Chennai - CPCB",06-04-2024 12:00:00,13.164544,80.26285,PM2.5,24,65,49
India,TamilNadu,Chennai,"Manali, Chennai - CPCB",06-04-2024 12:00:00,13.164544,80.26285,NO2,8,9,8
India,TamilNadu,Chennai,"Perungudi, Chennai - TNPCB",06-04-2024 12:00:00,12.9533,80.2357,SO2,1,8,3
India,TamilNadu,Cuddalore,"Semmandalam, Cuddalore - TNPCB",06-04-2024 12:00:00,11.7637683,79.7499835,NH3,1,3,2
India,TamilNadu,Gummidipoondi,"Anthoni Pillai Nagar, Gummidipoondi - TNPCB",06-04-2024 12:00:00,13.4127,80.1081,NH3,1,2,2
India,TamilNadu,Kanchipuram,"Kilambi, Kanchipuram - TNPCB",06-04-2024 12:00:00,12.864618,79.659968,PM2.5,NA,NA,NA
India,TamilNadu,Kanchipuram,"Kilambi, Kanchipuram - TNPCB",06-04-2024 12:00:00,12.864618,79.659968,NO2,NA,NA,NA
India,TamilNadu,Kanchipuram,"Kilambi, Kanchipuram - TNPCB",06-04-2024 12:00:00,12.864618,79.659968,OZONE,NA,NA,NA
India,TamilNadu,Ooty,"Bombay Castel, Ooty - TNPCB",06-04-2024 12:00:00,11.4068288,76.7138973,CO,17,22,21
India,TamilNadu,Palkalaiperur,"Bharathidasan University, Palkalaiperur - TNPCB",06-04-2024 12:00:00,10.681158,78.741746,PM10,14,35,25
India,TamilNadu,Ramanathapuram,"Chalai Bazaar, Ramanathapuram - TNPCB",06-04-2024 12:00:00,9.36399,78.831977,PM10,7,58,34
India,TamilNadu,Ramanathapuram,"Chalai Bazaar, Ramanathapuram - TNPCB",06-04-2024 12:00:00,9.36399,78.831977,NH3,1,1,1
India,TamilNadu,Salem,"Sona College of Technology, Salem - TNPCB",06-04-2024 12:00:00,11.679111,78.125052,PM10,NA,NA,NA
India,TamilNadu,Salem,"Sona College of Technology, Salem - TNPCB",06-04-2024 12:00:00,11.679111,78.125052,SO2,NA,NA,NA
India,TamilNadu,Salem,"Sona College of Technology, Salem - TNPCB",06-04-2024 12:00:00,11.679111,78.125052,OZONE,NA,NA,NA
India,TamilNadu,Thoothukudi,"Meelavittan, Thoothukudi - TNPCB",06-04-2024 12:00:00,8.816428 ,78.099039,PM10,46,123,70
India,TamilNadu,Tirupur,"Kumaran College, Tirupur - TNPCB",06-04-2024 12:00:00,11.0973603,77.3228673,SO2,NA,NA,NA
India,TamilNadu,Virudhunagar,"Collectorate Office, Virudhunagar - TNPCB",06-04-2024 12:00:00,9.559382,77.948828,PM2.5,NA,NA,NA
India,TamilNadu,Virudhunagar,"Collectorate Office, Virudhunagar - TNPCB",06-04-2024 12:00:00,9.559382,77.948828,PM10,NA,NA,NA
India,Telangana,Hyderabad,"Bollaram Industrial Area, Hyderabad - TSPCB",06-04-2024 12:00:00,17.540891,78.358528,NO2,17,83,38
India,Telangana,Hyderabad,"Bollaram Industrial Area, Hyderabad - TSPCB",06-04-2024 12:00:00,17.540891,78.358528,SO2,2,121,43
India,Telangana,Hyderabad,"Bollaram Industrial Area, Hyderabad - TSPCB",06-04-2024 12:00:00,17.540891,78.358528,CO,16,112,73
India,Telangana,Hyderabad,"ICRISAT Patancheru, Hyderabad - TSPCB",06-04-2024 12:00:00,17.518400,78.278777,OZONE,3,100,38
India,Telangana,Hyderabad,"Nacharam_TSIIC IALA, Hyderabad - TSPCB",06-04-2024 12:00:00,17.429398,78.569354,PM2.5,37,54,44
India,Telangana,Hyderabad,"New Malakpet, Hyderabad - TSPCB",06-04-2024 12:00:00,17.37206,78.50864,NH3,3,4,4
India,Telangana,Hyderabad,"New Malakpet, Hyderabad - TSPCB",06-04-2024 12:00:00,17.37206,78.50864,OZONE,3,72,22
India,Telangana,Hyderabad,"Ramachandrapuram, Hyderabad - TSPCB",06-04-2024 12:00:00,17.528544,78.286195,PM10,66,80,69
India,Telangana,Hyderabad,"Sanathnagar, Hyderabad - TSPCB",06-04-2024 12:00:00,17.4559458,78.4332152,NO2,29,29,29
India,Telangana,Hyderabad,"Sanathnagar, Hyderabad - TSPCB",06-04-2024 12:00:00,17.4559458,78.4332152,CO,36,80,62
India,Telangana,Hyderabad,"Zoo Park, Hyderabad - TSPCB",06-04-2024 12:00:00,17.349694,78.451437,OZONE,17,75,24
India,Uttar_Pradesh,Agra,"Sector-3B Avas Vikas Colony, Agra - UPPCB",06-04-2024 12:00:00,27.19412,77.96237,CO,10,18,13
India,Uttar_Pradesh,Agra,"Shahjahan Garden, Agra - UPPCB",06-04-2024 12:00:00,27.169338,78.03582,NO2,15,16,16
India,Uttar_Pradesh,Agra,"Shahjahan Garden, Agra - UPPCB",06-04-2024 12:00:00,27.169338,78.03582,NH3,6,10,8
India,Uttar_Pradesh,Agra,"Shahjahan Garden, Agra - UPPCB",06-04-2024 12:00:00,27.169338,78.03582,SO2,15,42,32
India,Uttar_Pradesh,Agra,"Shastripuram, Agra - UPPCB",06-04-2024 12:00:00,27.19862,77.92066,PM10,28,177,113
India,Uttar_Pradesh,Baghpat,"Sardar Patel Inter College, Baghpat - UPPCB",06-04-2024 12:00:00,28.964949,77.278761,PM2.5,25,82,54
India,Uttar_Pradesh,Baghpat,"Sardar Patel Inter College, Baghpat - UPPCB",06-04-2024 12:00:00,28.964949,77.278761,NO2,3,51,26
India,Uttar_Pradesh,Baghpat,"Sardar Patel Inter College, Baghpat - UPPCB",06-04-2024 12:00:00,28.964949,77.278761,SO2,12,111,54
India,Uttar_Pradesh,Bareilly,"Rajendra Nagar, Bareilly - UPPCB",06-04-2024 12:00:00,28.38910936,79.42963708,PM10,44,94,64
India,Uttar_Pradesh,Bulandshahr,"Yamunapuram, Bulandshahr - UPPCB",06-04-2024 12:00:00,28.406963,77.849831,NH3,9,17,11
India,Uttar_Pradesh,Firozabad,"Nagla Bhau, Firozabad - UPPCB",06-04-2024 12:00:00,27.168897,78.376960,NO2,17,17,17
India,Uttar_Pradesh,Firozabad,"Nagla Bhau, Firozabad - UPPCB",06-04-2024 12:00:00,27.168897,78.376960,SO2,15,27,18
India,Uttar_Pradesh,Firozabad,"Nagla Bhau, Firozabad - UPPCB",06-04-2024 12:00:00,27.168897,78.376960,OZONE,16,20,17
India,Uttar_Pradesh,Firozabad,"Vibhab Nagar, Firozabad - UPPCB",06-04-2024 12:00:00,27.1594,78.3953,OZONE,20,99,24
India,Uttar_Pradesh,Ghaziabad,"Indirapuram, Ghaziabad - UPPCB",06-04-2024 12:00:00,28.646233,77.358075,CO,22,59,34
India,Uttar_Pradesh,Ghaziabad,"Loni, Ghaziabad - UPPCB",06-04-2024 12:00:00,28.757294,77.278792,PM2.5,27,359,138
India,Uttar_Pradesh,Ghaziabad,"Loni, Ghaziabad - UPPCB",06-04-2024 12:00:00,28.757294,77.278792,NO2,24,82,47
India,Uttar_Pradesh,Ghaziabad,"Sanjay Nagar, Ghaziabad - UPPCB",06-04-2024 12:00:00,28.685382,77.453839,CO,2,68,38
India,Uttar_Pradesh,Gorakhpur,"Madan Mohan Malaviya University of Technology, Gorakhpur - UPPCB",06-04-2024 12:00:00,26.730136,83.433859,OZONE,14,53,33
India,Uttar_Pradesh,Greater Noida,"Knowledge Park - V, Greater Noida - UPPCB",06-04-2024 12:00:00,28.557054,77.453663,OZONE,20,207,207
India,Uttar_Pradesh,Hapur,"Anand Vihar, Hapur - UPPCB",06-04-2024 12:00:00,28.725645,77.749675,PM10,55,124,97
India,Uttar_Pradesh,Jhansi,"Shivaji Nagar, Jhansi - UPPCB",06-04-2024 12:00:00,25.4547,78.6039,SO2,13,15,14
India,Uttar_Pradesh,Kanpur,"FTI Kidwai Nagar, Kanpur - UPPCB",06-04-2024 12:00:00,26.428282,80.327067,PM2.5,47,167,76
India,Uttar_Pradesh,Kanpur,"FTI Kidwai Nagar, Kanpur - UPPCB",06-04-2024 12:00:00,26.428282,80.327067,SO2,23,23,23
India,Uttar_Pradesh,Kanpur,"FTI Kidwai Nagar, Kanpur - UPPCB",06-04-2024 12:00:00,26.428282,80.327067,CO,27,40,33
India,Uttar_Pradesh,Kanpur,"NSI Kalyanpur, Kanpur - UPPCB",06-04-2024 12:00:00,26.509954,80.249612,PM10,75,131,102
India,Uttar_Pradesh,Kanpur,"NSI Kalyanpur, Kanpur - UPPCB",06-04-2024 12:00:00,26.509954,80.249612,SO2,18,23,21
India,Uttar_Pradesh,Kanpur,"Nehru Nagar, Kanpur - UPPCB",06-04-2024 12:00:00,26.4703136,80.3229863,PM2.5,21,90,49
India,Uttar_Pradesh,Kanpur,"Nehru Nagar, Kanpur - UPPCB",06-04-2024 12:00:00,26.4703136,80.3229863,CO,34,68,55
India,Uttar_Pradesh,Kanpur,"Nehru Nagar, Kanpur - UPPCB",06-04-2024 12:00:00,26.4703136,80.3229863,OZONE,28,181,46
India,Uttar_Pradesh,Khurja,"Kalindi Kunj, Khurja - UPPCB",06-04-2024 12:00:00,28.2348927,77.8683002,SO2,55,78,59
India,Uttar_Pradesh,Lucknow,"Kendriya Vidyalaya, Lucknow - CPCB",06-04-2024 12:00:00,26.906111,80.948222,NO2,15,46,24
India,Uttar_Pradesh,Lucknow,"Lalbagh, Lucknow - CPCB",06-04-2024 12:00:00,26.8458805,80.9365541,PM2.5,42,180,88
India,Uttar_Pradesh,Lucknow,"Lalbagh, Lucknow - CPCB",06-04-2024 12:00:00,26.8458805,80.9365541,NO2,3,17,6
India,Uttar_Pradesh,Lucknow,"Talkatora District Industries Center, Lucknow - CPCB",06-04-2024 12:00:00,26.83399722,80.8917361,PM2.5,45,321,109
India,Uttar_Pradesh,Lucknow,"Talkatora District Industries Center, Lucknow - CPCB",06-04-2024 12:00:00,26.83399722,80.8917361,NO2,30,80,53
India,Uttar_Pradesh,Meerut,"Jai Bhim Nagar, Meerut - UPPCB",06-04-2024 12:00:00,28.9535882,77.7622941,PM2.5,8,73,39
India,Uttar_Pradesh,Meerut,"Jai Bhim Nagar, Meerut - UPPCB",06-04-2024 12:00:00,28.9535882,77.7622941,NO2,5,37,16
India,Uttar_Pradesh,Moradabad,"Buddhi Vihar, Moradabad - UPPCB",06-04-2024 12:00:00,28.83526,78.74460,PM10,76,153,105
India,Uttar_Pradesh,Moradabad,"Buddhi Vihar, Moradabad - UPPCB",06-04-2024 12:00:00,28.83526,78.74460,CO,17,34,31
India,Uttar_Pradesh,Moradabad,"Eco Herbal Park, Moradabad - UPPCB",06-04-2024 12:00:00,28.840739,78.697531,NO2,2,24,14
India,Uttar_Pradesh,Moradabad,"Eco Herbal Park, Moradabad - UPPCB",06-04-2024 12:00:00,28.840739,78.697531,NH3,5,35,9
India,Uttar_Pradesh,Moradabad,"Employment Office, Moradabad - UPPCB",06-04-2024 12:00:00,28.88528,78.73880,NH3,3,4,4
India,Uttar_Pradesh,Moradabad,"Jigar Colony, Moradabad - UPPCB",06-04-2024 12:00:00,28.856664,78.772638,NH3,4,4,4
India,Uttar_Pradesh,Moradabad,"Jigar Colony, Moradabad - UPPCB",06-04-2024 12:00:00,28.856664,78.772638,OZONE,21,42,23
India,Uttar_Pradesh,Moradabad,"Kashiram Nagar, Moradabad - UPPCB",06-04-2024 12:00:00,28.849399,78.742362,PM2.5,16,106,63
India,Uttar_Pradesh,Moradabad,"Transport Nagar, Moradabad - UPPCB",06-04-2024 12:00:00,28.802625,78.753728,SO2,47,59,51
India,Uttar_Pradesh,Moradabad,"Transport Nagar, Moradabad - UPPCB",06-04-2024 12:00:00,28.802625,78.753728,CO,40,42,41
India,Uttar_Pradesh,Noida,"Sector-116, Noida - UPPCB",06-04-2024 12:00:00,28.569230,77.393848,NO2,18,106,51
India,Uttar_Pradesh,Noida,"Sector-116, Noida - UPPCB",06-04-2024 12:00:00,28.569230,77.393848,NH3,5,9,7
India,Uttar_Pradesh,Noida,"Sector-116, Noida - UPPCB",06-04-2024 12:00:00,28.569230,77.393848,OZONE,4,38,16
India,Uttar_Pradesh,Prayagraj,"Jhunsi, Prayagraj - UPPCB",06-04-2024 12:00:00,25.425602,81.917152,PM10,57,147,90
India,Uttar_Pradesh,Prayagraj,"Jhunsi, Prayagraj - UPPCB",06-04-2024 12:00:00,25.425602,81.917152,CO,6,40,15
India,Uttar_Pradesh,Prayagraj,"Motilal Nehru NIT, Prayagraj - UPPCB",06-04-2024 12:00:00,25.494,81.863,CO,10,48,26
India,Uttar_Pradesh,Varanasi,"Ardhali Bazar, Varanasi - UPPCB",06-04-2024 12:00:00,25.3505986,82.9083074,CO,2,23,11
India,Uttar_Pradesh,Varanasi,"IESD Banaras Hindu University, Varanasi - UPPCB",06-04-2024 12:00:00,25.262326,82.995408,NO2,2,3,2
India,Uttar_Pradesh,Varanasi,"Maldahiya, Varanasi - UPPCB",06-04-2024 12:00:00,25.32393,82.99687,NH3,1,1,1
India,Uttar_Pradesh,Vrindavan,"Omex Eternity, Vrindavan - UPPCB",06-04-2024 12:00:00,27.5714090,77.6557570,NO2,2,3,3
India,Uttar_Pradesh,Vrindavan,"Omex Eternity, Vrindavan - UPPCB",06-04-2024 12:00:00,27.5714090,77.6557570,SO2,39,45,42
India,Uttar_Pradesh,Vrindavan,"Omex Eternity, Vrindavan - UPPCB",06-04-2024 12:00:00,27.5714090,77.6557570,CO,24,47,44
India,Uttarakhand,Dehradun,"Doon University, Dehradun - UKPCB",06-04-2024 12:00:00,30.269444,78.044167,PM2.5,17,244,63
India,Uttarakhand,Dehradun,"Doon University, Dehradun - UKPCB",06-04-2024 12:00:00,30.269444,78.044167,CO,33,64,43
India,Uttarakhand,Dehradun,"Doon University, Dehradun - UKPCB",06-04-2024 12:00:00,30.269444,78.044167,OZONE,44,112,66
India,Uttarakhand,Kashipur,"Govt. Girls Inter College, Kashipur - UKPCB",06-04-2024 12:00:00,29.2124114,78.9611753,OZONE,25,65,38
India,Uttarakhand,Rishikesh,"Shivaji Nagar, Rishikesh - UKPCB",06-04-2024 12:00:00,30.075911,78.2859547,NO2,6,34,15
India,West_Bengal,Durgapur,"PCBL Residential Complex, Durgapur - WBPCB",06-04-2024 12:00:00,23.5087640,87.3544400,PM2.5,99,409,263
India,West_Bengal,Durgapur,"Sidhu Kanhu Indoor Stadium, Durgapur - WBPCB",06-04-2024 12:00:00,23.5404352,87.2892225,NO2,17,80,38
India,West_Bengal,Howrah,"Belur Math, Howrah - WBPCB",06-04-2024 12:00:00,22.629801,88.352017,PM10,64,125,94
India,West_Bengal,Howrah,"Belur Math, Howrah - WBPCB",06-04-2024 12:00:00,22.629801,88.352017,SO2,3,9,7
India,West_Bengal,Howrah,"Belur Math, Howrah - WBPCB",06-04-2024 12:00:00,22.629801,88.352017,OZONE,13,79,28
India,West_Bengal,Howrah,"Padmapukur, Howrah - WBPCB",06-04-2024 12:00:00,22.5687319,88.2797276,PM2.5,NA,NA,NA
India,West_Bengal,Howrah,"Padmapukur, Howrah - WBPCB",06-04-2024 12:00:00,22.5687319,88.2797276,SO2,NA,NA,NA
India,West_Bengal,Kolkata,"Ballygunge, Kolkata - WBPCB",06-04-2024 12:00:00,22.5367507,88.3638022,OZONE,19,94,33
India,West_Bengal,Kolkata,"Bidhannagar, Kolkata - WBPCB",06-04-2024 12:00:00,22.58157048,88.41002457,NO2,12,33,19
India,West_Bengal,Kolkata,"Bidhannagar, Kolkata - WBPCB",06-04-2024 12:00:00,22.58157048,88.41002457,CO,18,44,21
India,West_Bengal,Kolkata,"Fort William, Kolkata - WBPCB",06-04-2024 12:00:00,22.556640,88.342674,PM2.5,58,147,88
India,West_Bengal,Kolkata,"Fort William, Kolkata - WBPCB",06-04-2024 12:00:00,22.556640,88.342674,CO,11,40,19
India,West_Bengal,Kolkata,"Jadavpur, Kolkata - WBPCB",06-04-2024 12:00:00,22.49929,88.36917,PM2.5,51,133,75
India,West_Bengal,Kolkata,"Jadavpur, Kolkata - WBPCB",06-04-2024 12:00:00,22.49929,88.36917,NO2,3,15,8
India,West_Bengal,Kolkata,"Jadavpur, Kolkata - WBPCB",06-04-2024 12:00:00,22.49929,88.36917,SO2,3,6,4
India,West_Bengal,Kolkata,"Jadavpur, Kolkata - WBPCB",06-04-2024 12:00:00,22.49929,88.36917,CO,22,57,38
India,West_Bengal,Kolkata,"Rabindra Bharati University, Kolkata - WBPCB",06-04-2024 12:00:00,22.627847,88.380669,NH3,4,8,7
India,West_Bengal,Kolkata,"Rabindra Bharati University, Kolkata - WBPCB",06-04-2024 12:00:00,22.627847,88.380669,CO,28,45,34
India,West_Bengal,Kolkata,"Rabindra Sarobar, Kolkata - WBPCB",06-04-2024 12:00:00,22.51106,88.35142,NO2,7,30,20
India,West_Bengal,Kolkata,"Victoria, Kolkata - WBPCB",06-04-2024 12:00:00,22.5448082,88.3403691,PM10,83,148,112
India,West_Bengal,Siliguri,"Ward-32 Bapupara, Siliguri - WBPCB",06-04-2024 12:00:00,26.6879226,88.4152495,CO,26,55,32
India,Andhra_Pradesh,Amaravati,"Secretariat, Amaravati - APPCB",06-04-2024 12:00:00,16.5150833,80.5181667,NO2,2,10,6
India,Andhra_Pradesh,Chittoor,"Gangineni Cheruvu, Chittoor - APPCB",06-04-2024 12:00:00,13.204880,79.097889,CO,3,16,9
India,Andhra_Pradesh,Kadapa,"Yerramukkapalli, Kadapa - APPCB",06-04-2024 12:00:00,14.465052,78.824187,SO2,1,2,2
India,Andhra_Pradesh,Kadapa,"Yerramukkapalli, Kadapa - APPCB",06-04-2024 12:00:00,14.465052,78.824187,OZONE,30,92,54
India,Andhra_Pradesh,Rajamahendravaram,"Anand Kala Kshetram, Rajamahendravaram - APPCB",06-04-2024 12:00:00,16.9872867,81.7363176,SO2,11,12,11
India,Andhra_Pradesh,Rajamahendravaram,"Anand Kala Kshetram, Rajamahendravaram - APPCB",06-04-2024 12:00:00,16.9872867,81.7363176,CO,22,33,29
India,Andhra_Pradesh,Tirupati,"Vaikuntapuram, Tirupati - APPCB",06-04-2024 12:00:00,13.615387,79.409230,PM2.5,NA,NA,NA
India,Andhra_Pradesh,Tirupati,"Vaikuntapuram, Tirupati - APPCB",06-04-2024 12:00:00,13.615387,79.409230,NH3,NA,NA,NA
India,Andhra_Pradesh,Tirupati,"Vaikuntapuram, Tirupati - APPCB",06-04-2024 12:00:00,13.615387,79.409230,CO,12,15,12
India,Andhra_Pradesh,Vijayawada,"HB Colony, Vijayawada - APPCB",06-04-2024 12:00:00,16.536107,80.594233,SO2,4,5,4
India,Andhra_Pradesh,Vijayawada,"HB Colony, Vijayawada - APPCB",06-04-2024 12:00:00,16.536107,80.594233,CO,37,38,38
India,Andhra_Pradesh,Vijayawada,"Kanuru, Vijayawada - APPCB",06-04-2024 12:00:00,16.486692,80.699436,CO,22,48,40
India,Andhra_Pradesh,Vijayawada,"Rajiv Gandhi Park, Vijayawada - APPCB",06-04-2024 12:00:00,16.509717,80.612222,PM10,31,72,49
India,Andhra_Pradesh,Vijayawada,"Rajiv Gandhi Park, Vijayawada - APPCB",06-04-2024 12:00:00,16.509717,80.612222,CO,38,44,43
India,Andhra_Pradesh,Vijayawada,"Rajiv Nagar, Vijayawada - APPCB",06-04-2024 12:00:00,16.554731,80.649110,OZONE,7,44,13
India,Andhra_Pradesh,Visakhapatnam,"GVM Corporation, Visakhapatnam - APPCB",06-04-2024 12:00:00,17.72,83.3,NH3,3,7,4
India,Assam,Byrnihat,"Central Academy for SFS, Byrnihat - PCBA",06-04-2024 12:00:00,26.071318,91.87488,NH3,2,8,6
India,Assam,Guwahati,"IITG, Guwahati - PCBA",06-04-2024 12:00:00,26.2028636,91.70046436,PM2.5,56,91,71
India,Assam,Guwahati,"IITG, Guwahati - PCBA",06-04-2024 12:00:00,26.2028636,91.70046436,NH3,5,5,5
India,Assam,Guwahati,"LGBI Airport, Guwahati - PCBA",06-04-2024 12:00:00,26.10887,91.589544,PM10,66,197,125
India,Assam,Guwahati,"Pan Bazaar, Guwahati - PCBA",06-04-2024 12:00:00,26.187500,91.744194,PM2.5,44,66,55
India,Assam,Guwahati,"Railway Colony, Guwahati - PCBA",06-04-2024 12:00:00,26.181742,91.78063,NO2,3,4,3
India,Assam,Guwahati,"Railway Colony, Guwahati - PCBA",06-04-2024 12:00:00,26.181742,91.78063,CO,18,48,21
India,Assam,Nagaon,"Christianpatty, Nagaon - PCBA",06-04-2024 12:00:00,26.349082,92.68449,NH3,1,6,4
India,Assam,Nalbari,"Bata Chowk, Nalbari - PCBA",06-04-2024 12:00:00,26.446912,91.439057,NH3,1,2,1
India,Assam,Nalbari,"Bata Chowk, Nalbari - PCBA",06-04-2024 12:00:00,26.446912,91.439057,SO2,1,2,1
India,Assam,Silchar,"Tarapur, Silchar - PCBA",06-04-2024 12:00:00,24.82827,92.79525,SO2,1,26,9
India,Assam,Silchar,"Tarapur, Silchar - PCBA",06-04-2024 12:00:00,24.82827,92.79525,OZONE,1,12,3
India,Assam,Sivasagar,"Girls College, Sivasagar - PCBA",06-04-2024 12:00:00,26.987634,94.636574,PM10,38,77,56
India,Bihar,Araria,"Kharahiya Basti, Araria - BSPCB",06-04-2024 12:00:00,26.146529,87.454184,PM2.5,NA,NA,NA
India,Bihar,Araria,"Kharahiya Basti, Araria - BSPCB",06-04-2024 12:00:00,26.146529,87.454184,SO2,9,17,14
India,Bihar,Araria,"Kharahiya Basti, Araria - BSPCB",06-04-2024 12:00:00,26.146529,87.454184,CO,14,30,23
India,Bihar,Aurangabad,"Gurdeo Nagar, Aurangabad - BSPCB",06-04-2024 12:00:00,24.75746,84.366208,PM10,80,129,98
India,Bihar,Aurangabad,"Gurdeo Nagar, Aurangabad - BSPCB",06-04-2024 12:00:00,24.75746,84.366208,NO2,4,5,5
India,Bihar,Bhagalpur,"Mayaganj, Bhagalpur - BSPCB",06-04-2024 12:00:00,25.265194,87.012947,CO,8,10,9
India,Bihar,Bihar Sharif,"D M Colony, Bihar Sharif - BSPCB",06-04-2024 12:00:00,25.204762,85.514960,NO2,8,11,9
India,Bihar,Bihar Sharif,"D M Colony, Bihar Sharif - BSPCB",06-04-2024 12:00:00,25.204762,85.514960,CO,45,60,56
India,Bihar,Buxar,"Charitra Van, Buxar - BSPCB (Formerly known as Central Jail)",06-04-2024 12:00:00,25.567520,83.966379,NO2,35,184,85
India,Bihar,Chhapra,"Darshan Nagar, Chhapra - BSPCB",06-04-2024 12:00:00,25.7808257,84.7446768,CO,42,82,54
India,Bihar,Gaya,"Kareemganj, Gaya - BSPCB",06-04-2024 12:00:00,24.792403,84.992416,PM10,66,153,105
India,Bihar,Gaya,"Kareemganj, Gaya - BSPCB",06-04-2024 12:00:00,24.792403,84.992416,NO2,30,31,30
India,Bihar,Gaya,"Kareemganj, Gaya - BSPCB",06-04-2024 12:00:00,24.792403,84.992416,SO2,6,10,8
India,Bihar,Gaya,"Kareemganj, Gaya - BSPCB",06-04-2024 12:00:00,24.792403,84.992416,CO,12,108,48
India,Bihar,Gaya,"SFTI Kusdihra, Gaya - BSPCB",06-04-2024 12:00:00,24.762518,84.982348,PM10,61,111,80
India,Bihar,Gaya,"SFTI Kusdihra, Gaya - BSPCB",06-04-2024 12:00:00,24.762518,84.982348,NO2,22,94,50
India,Bihar,Gaya,"SFTI Kusdihra, Gaya - BSPCB",06-04-2024 12:00:00,24.762518,84.982348,OZONE,4,80,12
India,Bihar,Hajipur,"Industrial Area, Hajipur - BSPCB",06-04-2024 12:00:00,25.697189,85.245900,NH3,4,8,5
India,Bihar,Hajipur,"Industrial Area, Hajipur - BSPCB",06-04-2024 12:00:00,25.697189,85.245900,OZONE,2,70,31
India,Bihar,Katihar,"Mirchaibari, Katihar - BSPCB",06-04-2024 12:00:00,25.560083,87.553265,PM10,113,321,186
India,Bihar,Katihar,"Mirchaibari, Katihar - BSPCB",06-04-2024 12:00:00,25.560083,87.553265,NH3,6,10,8
India,Bihar,Kishanganj,"SDM Office_Khagra, Kishanganj - BSPCB",06-04-2024 12:00:00,26.0881305,87.93840336,PM2.5,72,273,110
India,Bihar,Kishanganj,"SDM Office_Khagra, Kishanganj - BSPCB",06-04-2024 12:00:00,26.0881305,87.93840336,CO,2,12,5
India,Bihar,Kishanganj,"SDM Office_Khagra, Kishanganj - BSPCB",06-04-2024 12:00:00,26.0881305,87.93840336,OZONE,18,54,23
India,Bihar,Manguraha,"Forest Rest House, Manguraha - BSPCB",06-04-2024 12:00:00,27.308328,84.531742,NO2,16,25,19
India,Bihar,Manguraha,"Forest Rest House, Manguraha - BSPCB",06-04-2024 12:00:00,27.308328,84.531742,SO2,NA,NA,NA
India,Bihar,Munger,"Town Hall, Munger - BSPCB",06-04-2024 12:00:00,25.376776,86.471523,NH3,NA,NA,NA
India,Bihar,Munger,"Town Hall, Munger - BSPCB",06-04-2024 12:00:00,25.376776,86.471523,CO,2,12,7
India,Bihar,Muzaffarpur,"Buddha Colony, Muzaffarpur - BSPCB",06-04-2024 12:00:00,26.11442,85.39813,SO2,10,30,17
India,Bihar,Muzaffarpur,"Buddha Colony, Muzaffarpur - BSPCB",06-04-2024 12:00:00,26.11442,85.39813,CO,24,64,32
India,Bihar,Muzaffarpur,"Buddha Colony, Muzaffarpur - BSPCB",06-04-2024 12:00:00,26.11442,85.39813,OZONE,27,54,34
India,Bihar,Muzaffarpur,"MIT-Daudpur Kothi, Muzaffarpur - BSPCB",06-04-2024 12:00:00,26.1403345,85.3650192,SO2,10,16,13
India,Bihar,Muzaffarpur,"MIT-Daudpur Kothi, Muzaffarpur - BSPCB",06-04-2024 12:00:00,26.1403345,85.3650192,CO,17,100,31
India,Bihar,Muzaffarpur,"Muzaffarpur Collectorate, Muzaffarpur - BSPCB",06-04-2024 12:00:00,26.1209,85.3647,PM2.5,46,120,90
India,Bihar,Muzaffarpur,"Muzaffarpur Collectorate, Muzaffarpur - BSPCB",06-04-2024 12:00:00,26.1209,85.3647,OZONE,53,135,73
India,Bihar,Patna,"DRM Office Danapur, Patna - BSPCB",06-04-2024 12:00:00,25.586562,85.043586,NO2,12,96,46
India,Bihar,Patna,"DRM Office Danapur, Patna - BSPCB",06-04-2024 12:00:00,25.586562,85.043586,NH3,3,3,3
India,Bihar,Patna,"DRM Office Danapur, Patna - BSPCB",06-04-2024 12:00:00,25.586562,85.043586,OZONE,1,55,22
India,Bihar,Patna,"Govt. High School Shikarpur, Patna - BSPCB",06-04-2024 12:00:00,25.592539,85.227158,CO,29,83,48
India,Bihar,Patna,"Muradpur, Patna - BSPCB",06-04-2024 12:00:00,25.619651,85.147382,PM2.5,232,359,305
India,Bihar,Patna,"Rajbansi Nagar, Patna - BSPCB",06-04-2024 12:00:00,25.599486,85.113666,PM10,147,218,178
India,Bihar,Patna,"Rajbansi Nagar, Patna - BSPCB",06-04-2024 12:00:00,25.599486,85.113666,SO2,2,13,7
India,Bihar,Patna,"Rajbansi Nagar, Patna - BSPCB",06-04-2024 12:00:00,25.599486,85.113666,OZONE,3,84,43
India,Bihar,Purnia,"Mariam Nagar, Purnia - BSPCB",06-04-2024 12:00:00,25.366336,87.117468,NH3,2,2,2
India,Bihar,Rajgir,"Dangi Tola, Rajgir - BSPCB",06-04-2024 12:00:00,25.03280,85.41948,PM10,12,76,41
India,Bihar,Rajgir,"Dangi Tola, Rajgir - BSPCB",06-04-2024 12:00:00,25.03280,85.41948,CO,2,84,16
India,Bihar,Rajgir,"Dangi Tola, Rajgir - BSPCB",06-04-2024 12:00:00,25.03280,85.41948,OZONE,21,30,23
India,Bihar,Saharsa,"Police Line, Saharsa - BSPCB",06-04-2024 12:00:00,25.892357,86.590325,PM2.5,37,328,121
India,Bihar,Saharsa,"Police Line, Saharsa - BSPCB",06-04-2024 12:00:00,25.892357,86.590325,NH3,9,9,9
India,Bihar,Saharsa,"Police Line, Saharsa - BSPCB",06-04-2024 12:00:00,25.892357,86.590325,SO2,16,16,16
India,Bihar,Samastipur,"DM Office_Kasipur, Samastipur - BSPCB",06-04-2024 12:00:00,25.859655,85.77944,NO2,3,12,8
India,Bihar,Samastipur,"DM Office_Kasipur, Samastipur - BSPCB",06-04-2024 12:00:00,25.859655,85.77944,NH3,3,4,4
India,Bihar,Sasaram,"Dada Peer, Sasaram - BSPCB",06-04-2024 12:00:00,24.952822,84.002396,PM10,73,183,110
India,Bihar,Sasaram,"Dada Peer, Sasaram - BSPCB",06-04-2024 12:00:00,24.952822,84.002396,NH3,8,21,10
India,Bihar,Sasaram,"Dada Peer, Sasaram - BSPCB",06-04-2024 12:00:00,24.952822,84.002396,CO,98,115,108
India,Bihar,Siwan,"Chitragupta Nagar, Siwan - BSPCB",06-04-2024 12:00:00,26.2271665,84.3570427,NH3,1,5,2
India,Bihar,Siwan,"Chitragupta Nagar, Siwan - BSPCB",06-04-2024 12:00:00,26.2271665,84.3570427,CO,70,136,109
India,Chandigarh,Chandigarh,"Sector 22, Chandigarh - CPCC",06-04-2024 12:00:00,30.735567,76.775714,PM2.5,23,123,66
India,Chandigarh,Chandigarh,"Sector 22, Chandigarh - CPCC",06-04-2024 12:00:00,30.735567,76.775714,NH3,6,9,8
India,Chandigarh,Chandigarh,"Sector-25, Chandigarh - CPCC",06-04-2024 12:00:00,30.751462,76.762879,PM10,100,148,118
India,Chandigarh,Chandigarh,"Sector-25, Chandigarh - CPCC",06-04-2024 12:00:00,30.751462,76.762879,NO2,4,35,14
India,Chandigarh,Chandigarh,"Sector-25, Chandigarh - CPCC",06-04-2024 12:00:00,30.751462,76.762879,NH3,10,20,14
India,Chandigarh,Chandigarh,"Sector-25, Chandigarh - CPCC",06-04-2024 12:00:00,30.751462,76.762879,CO,10,34,25
India,Chandigarh,Chandigarh,"Sector-53, Chandigarh - CPCC",06-04-2024 12:00:00,30.719859,76.738637,OZONE,20,58,36
India,Chhattisgarh,Bhilai,"32Bungalows, Bhilai - CECB",06-04-2024 12:00:00,21.194815,81.314770,SO2,4,12,7
India,Chhattisgarh,Bhilai,"32Bungalows, Bhilai - CECB",06-04-2024 12:00:00,21.194815,81.314770,OZONE,4,85,10
India,Chhattisgarh,Bhilai,"Civic Center, Bhilai - Bhilai Steel Plant",06-04-2024 12:00:00,21.185571,81.343175,NO2,15,17,16
India,Chhattisgarh,Bhilai,"Civic Center, Bhilai - Bhilai Steel Plant",06-04-2024 12:00:00,21.185571,81.343175,OZONE,7,81,30
India,Chhattisgarh,Bhilai,"Hathkhoj, Bhilai - CECB",06-04-2024 12:00:00,21.224231,81.408350,OZONE,16,18,17
India,Chhattisgarh,Bilaspur,"Mangala, Bilaspur - NTPC",06-04-2024 12:00:00,22.08815,82.13737,PM10,49,414,113
India,Chhattisgarh,Bilaspur,"Mangala, Bilaspur - NTPC",06-04-2024 12:00:00,22.08815,82.13737,NO2,16,18,17
India,Chhattisgarh,Bilaspur,"Mangala, Bilaspur - NTPC",06-04-2024 12:00:00,22.08815,82.13737,SO2,2,21,14
India,Chhattisgarh,Chhal,"Nawapara SECL Colony, Chhal - CECB",06-04-2024 12:00:00,22.118125,83.140608,SO2,15,52,28
India,Chhattisgarh,Korba,"Rampur, Korba - CECB",06-04-2024 12:00:00,22.368195,82.746431,SO2,5,67,14
India,Chhattisgarh,Milupara,"Govt. Higher Secondary School, Milupara - CECB",06-04-2024 12:00:00,22.1910172,83.5197009,NH3,1,2,1
India,Chhattisgarh,Raipur,"Bhatagaon New ISBT, Raipur - CECB",06-04-2024 12:00:00,21.219665,81.630094,NO2,5,83,63
India,Chhattisgarh,Raipur,"Bhatagaon New ISBT, Raipur - CECB",06-04-2024 12:00:00,21.219665,81.630094,OZONE,3,8,4
India,Chhattisgarh,Raipur,"Krishak Nagar, Raipur - CECB",06-04-2024 12:00:00,21.237755,81.705301,NH3,1,1,1
India,Chhattisgarh,Raipur,"Krishak Nagar, Raipur - CECB",06-04-2024 12:00:00,21.237755,81.705301,SO2,14,68,22
India,Chhattisgarh,Raipur,"Siltara Phase-II, Raipur - CECB",06-04-2024 12:00:00,21.371751,81.664929,PM2.5,45,207,128
India,Chhattisgarh,Raipur,"Siltara Phase-II, Raipur - CECB",06-04-2024 12:00:00,21.371751,81.664929,PM10,102,200,145
India,Chhattisgarh,Raipur,"Siltara Phase-II, Raipur - CECB",06-04-2024 12:00:00,21.371751,81.664929,NO2,37,82,59
India,Chhattisgarh,Raipur,"Siltara Phase-II, Raipur - CECB",06-04-2024 12:00:00,21.371751,81.664929,OZONE,3,48,14
India,Chhattisgarh,Tumidih,"OP Jindal Industrial Park, Tumidih - CECB",06-04-2024 12:00:00,22.06631475,83.33820077,PM10,NA,NA,NA
India,Delhi,Delhi,"Alipur, Delhi - DPCC",06-04-2024 12:00:00,28.815329,77.153010,PM2.5,30,351,167
India,Delhi,Delhi,"Anand Vihar, Delhi - DPCC",06-04-2024 12:00:00,28.647622,77.3158090,OZONE,4,73,32
India,Delhi,Delhi,"Ashok Vihar, Delhi - DPCC",06-04-2024 12:00:00,28.695381,77.181665,NH3,2,10,6
India,Delhi,Delhi,"Bawana, Delhi - DPCC",06-04-2024 12:00:00,28.776200,77.051074,NO2,11,63,32
India,Delhi,Delhi,"Bawana, Delhi - DPCC",06-04-2024 12:00:00,28.776200,77.051074,NH3,5,7,6
India,Delhi,Delhi,"Bawana, Delhi - DPCC",06-04-2024 12:00:00,28.776200,77.051074,CO,35,72,54
India,Delhi,Delhi,"Chandni Chowk, Delhi - IITM",06-04-2024 12:00:00,28.656756,77.227234,NH3,NA,NA,NA
India,Delhi,Delhi,"DTU, Delhi - CPCB",06-04-2024 12:00:00,28.7500499,77.1112615,CO,18,46,38
India,Delhi,Delhi,"Dr. Karni Singh Shooting Range, Delhi - DPCC",06-04-2024 12:00:00,28.498571,77.264840,PM10,108,225,151
India,Delhi,Delhi,"Dwarka-Sector 8, Delhi - DPCC ",06-04-2024 12:00:00,28.5710274,77.0719006,NH3,4,7,5
India,Delhi,Delhi,"Dwarka-Sector 8, Delhi - DPCC ",06-04-2024 12:00:00,28.5710274,77.0719006,OZONE,4,79,36
India,Delhi,Delhi,"IGI Airport (T3), Delhi - IMD",06-04-2024 12:00:00,28.5627763,77.1180053,PM2.5,24,242,91
India,Delhi,Delhi,"IGI Airport (T3), Delhi - IMD",06-04-2024 12:00:00,28.5627763,77.1180053,OZONE,4,36,17
India,Delhi,Delhi,"IHBAS, Dilshad Garden, Delhi - CPCB",06-04-2024 12:00:00,28.6811736,77.3025234,PM10,124,158,141
India,Delhi,Delhi,"IHBAS, Dilshad Garden, Delhi - CPCB",06-04-2024 12:00:00,28.6811736,77.3025234,OZONE,6,59,19
India,Delhi,Delhi,"ITO, Delhi - CPCB",06-04-2024 12:00:00,28.628624,77.241060,PM2.5,15,223,123
India,Delhi,Delhi,"ITO, Delhi - CPCB",06-04-2024 12:00:00,28.628624,77.241060,PM10,31,120,87
India,Delhi,Delhi,"Jahangirpuri, Delhi - DPCC",06-04-2024 12:00:00,28.732820,77.170633,OZONE,5,61,26
India,Delhi,Delhi,"Jawaharlal Nehru Stadium, Delhi - DPCC",06-04-2024 12:00:00,28.580280,77.233829,PM10,88,203,139
India,Delhi,Delhi,"Jawaharlal Nehru Stadium, Delhi - DPCC",06-04-2024 12:00:00,28.580280,77.233829,SO2,2,47,21
India,Delhi,Delhi,"Lodhi Road, Delhi - IMD",06-04-2024 12:00:00,28.5918245,77.2273074,NO2,1,3,2
India,Delhi,Delhi,"Lodhi Road, Delhi - IMD",06-04-2024 12:00:00,28.5918245,77.2273074,OZONE,10,33,20
India,Delhi,Delhi,"Major Dhyan Chand National Stadium, Delhi - DPCC",06-04-2024 12:00:00,28.611281,77.237738,PM2.5,38,305,135
India,Delhi,Delhi,"Major Dhyan Chand National Stadium, Delhi - DPCC",06-04-2024 12:00:00,28.611281,77.237738,OZONE,11,182,182
India,Delhi,Delhi,"Mandir Marg, Delhi - DPCC",06-04-2024 12:00:00,28.636429,77.201067,PM10,67,163,117
India,Delhi,Delhi,"Mundka, Delhi - DPCC",06-04-2024 12:00:00,28.684678,77.076574,PM2.5,33,362,186
India,Delhi,Delhi,"Mundka, Delhi - DPCC",06-04-2024 12:00:00,28.684678,77.076574,SO2,11,90,34
India,Delhi,Delhi,"Nehru Nagar, Delhi - DPCC",06-04-2024 12:00:00,28.567890,77.250515,SO2,5,18,10
India,Delhi,Delhi,"Nehru Nagar, Delhi - DPCC",06-04-2024 12:00:00,28.567890,77.250515,OZONE,5,101,48
India,Delhi,Delhi,"New Moti Bagh, Delhi - MHUA",06-04-2024 12:00:00,28.57834,77.18400,NO2,6,35,11
India,Delhi,Delhi,"North Campus, DU, Delhi - IMD",06-04-2024 12:00:00,28.6573814,77.1585447,PM10,NA,NA,NA
India,Delhi,Delhi,"North Campus, DU, Delhi - IMD",06-04-2024 12:00:00,28.6573814,77.1585447,OZONE,17,41,30
India,Delhi,Delhi,"Patparganj, Delhi - DPCC",06-04-2024 12:00:00,28.623763,77.287209,PM2.5,40,290,113
India,Delhi,Delhi,"Patparganj, Delhi - DPCC",06-04-2024 12:00:00,28.623763,77.287209,NO2,20,63,38
India,Delhi,Delhi,"Punjabi Bagh, Delhi - DPCC",06-04-2024 12:00:00,28.674045,77.131023,NH3,4,5,5
India,Delhi,Delhi,"Pusa, Delhi - DPCC",06-04-2024 12:00:00,28.639652,77.146275,CO,7,106,48
India,Delhi,Delhi,"Pusa, Delhi - IMD",06-04-2024 12:00:00,28.636110,77.173332,NO2,12,19,16
India,Delhi,Delhi,"R K Puram, Delhi - DPCC",06-04-2024 12:00:00,28.563262,77.186937,NH3,5,7,6
India,Delhi,Delhi,"Rohini, Delhi - DPCC",06-04-2024 12:00:00,28.732528,77.119920,PM10,98,291,161
India,Delhi,Delhi,"Rohini, Delhi - DPCC",06-04-2024 12:00:00,28.732528,77.119920,NO2,8,66,38
India,Delhi,Delhi,"Sirifort, Delhi - CPCB",06-04-2024 12:00:00,28.5504249,77.2159377,NO2,19,57,46
India,Delhi,Delhi,"Sirifort, Delhi - CPCB",06-04-2024 12:00:00,28.5504249,77.2159377,NH3,2,9,7
India,Delhi,Delhi,"Sonia Vihar, Delhi - DPCC",06-04-2024 12:00:00,28.710508,77.249485,PM2.5,30,335,141
India,Delhi,Delhi,"Sonia Vihar, Delhi - DPCC",06-04-2024 12:00:00,28.710508,77.249485,NO2,16,104,47
India,Delhi,Delhi,"Sri Aurobindo Marg, Delhi - DPCC",06-04-2024 12:00:00,28.531346,77.190156,SO2,11,48,24
India,Gujarat,Ahmedabad,"Chandkheda, Ahmedabad - IITM",06-04-2024 12:00:00,23.107969,72.574648,PM2.5,54,182,96
India,Gujarat,Ahmedabad,"Gyaspur, Ahmedabad - IITM",06-04-2024 12:00:00,22.977134,72.553024,PM2.5,67,351,110
India,Gujarat,Ahmedabad,"Gyaspur, Ahmedabad - IITM",06-04-2024 12:00:00,22.977134,72.553024,PM10,72,297,110
India,Gujarat,Ahmedabad,"Gyaspur, Ahmedabad - IITM",06-04-2024 12:00:00,22.977134,72.553024,NO2,NA,NA,NA
India,Gujarat,Ahmedabad,"Raikhad, Ahmedabad - IITM",06-04-2024 12:00:00,23.020509,72.579261,NH3,2,5,3
India,Gujarat,Ahmedabad,"Raikhad, Ahmedabad - IITM",06-04-2024 12:00:00,23.020509,72.579261,CO,24,57,32
India,Gujarat,Ahmedabad,"Rakhial, Ahmedabad - IITM",06-04-2024 12:00:00,23.016834,72.625775,NO2,17,48,26
India,Gujarat,Ahmedabad,"Rakhial, Ahmedabad - IITM",06-04-2024 12:00:00,23.016834,72.625775,NH3,5,9,8
India,Gujarat,Ahmedabad,"Rakhial, Ahmedabad - IITM",06-04-2024 12:00:00,23.016834,72.625775,SO2,2,22,8
India,Gujarat,Ahmedabad,"SVPI Airport Hansol, Ahmedabad - IITM",06-04-2024 12:00:00,23.076793,72.627874,PM10,83,110,97
India,Gujarat,Ahmedabad,"SVPI Airport Hansol, Ahmedabad - IITM",06-04-2024 12:00:00,23.076793,72.627874,CO,8,39,11
India,Gujarat,Ahmedabad,"SVPI Airport Hansol, Ahmedabad - IITM",06-04-2024 12:00:00,23.076793,72.627874,OZONE,12,28,19
India,Gujarat,Ahmedabad,"Sardar Vallabhbhai Patel Stadium, Ahmedabad - IITM",06-04-2024 12:00:00,23.043070,72.562968,PM2.5,47,101,69
India,Gujarat,Ankleshwar,"GIDC, Ankleshwar - GPCB",06-04-2024 12:00:00,21.613267,73.010555,PM10,53,115,88
India,Gujarat,Ankleshwar,"GIDC, Ankleshwar - GPCB",06-04-2024 12:00:00,21.613267,73.010555,CO,31,104,72
India,Gujarat,Gandhinagar,"IIPHG Lekawada, Gandhinagar - IITM",06-04-2024 12:00:00,23.243639,72.68994,PM10,51,86,69
India,Gujarat,Gandhinagar,"IIPHG Lekawada, Gandhinagar - IITM",06-04-2024 12:00:00,23.243639,72.68994,SO2,1,5,3
India,Gujarat,Gandhinagar,"IIPHG Lekawada, Gandhinagar - IITM",06-04-2024 12:00:00,23.243639,72.68994,OZONE,18,40,30
India,Gujarat,Gandhinagar,"Sector-10, Gandhinagar - GPCB",06-04-2024 12:00:00,23.221714,72.654328,CO,38,54,47
India,Gujarat,Surat,"Science Center, Surat - SMC",06-04-2024 12:00:00,21.170046,72.795405,PM10,16,47,36
India,Gujarat,Vatva,"Phase-4 GIDC, Vatva - GPCB",06-04-2024 12:00:00,22.969611,72.643500,CO,17,18,18
India,Haryana,Bahadurgarh,"Arya Nagar, Bahadurgarh - HSPCB",06-04-2024 12:00:00,28.6701,76.9254,SO2,NA,NA,NA
India,Haryana,Bahadurgarh,"Arya Nagar, Bahadurgarh - HSPCB",06-04-2024 12:00:00,28.6701,76.9254,OZONE,34,50,44
India,Haryana,Ballabgarh,"Nathu Colony, Ballabgarh - HSPCB",06-04-2024 12:00:00,28.3419248,77.319699,PM10,133,251,182
India,Haryana,Ballabgarh,"Nathu Colony, Ballabgarh - HSPCB",06-04-2024 12:00:00,28.3419248,77.319699,NH3,1,2,1
India,Haryana,Charkhi Dadri,"Mini Secretariat, Charkhi Dadri - HSPCB",06-04-2024 12:00:00,28.593883,76.270653,PM10,86,126,107
India,Haryana,Faridabad,"Sector 11, Faridabad - HSPCB",06-04-2024 12:00:00,28.376058,77.315741,PM2.5,5,263,185
India,Haryana,Faridabad,"Sector 11, Faridabad - HSPCB",06-04-2024 12:00:00,28.376058,77.315741,CO,29,46,38
India,Haryana,Fatehabad,"Huda Sector, Fatehabad - HSPCB",06-04-2024 12:00:00,29.503664,75.467934,NH3,NA,NA,NA
India,Haryana,Gurugram,"Teri Gram, Gurugram - HSPCB",06-04-2024 12:00:00,28.4275,77.1465,CO,10,24,21
India,Haryana,Gurugram,"Vikas Sadan, Gurugram - HSPCB",06-04-2024 12:00:00,28.4501238,77.0263051,PM2.5,31,344,168
India,Haryana,Hisar,"Urban Estate-II, Hisar - HSPCB",06-04-2024 12:00:00,29.140560,75.744941,PM2.5,40,147,80
India,Haryana,Hisar,"Urban Estate-II, Hisar - HSPCB",06-04-2024 12:00:00,29.140560,75.744941,PM10,71,125,92
India,Haryana,Hisar,"Urban Estate-II, Hisar - HSPCB",06-04-2024 12:00:00,29.140560,75.744941,CO,2,54,29
India,Haryana,Jind,"Police Lines, Jind - HSPCB",06-04-2024 12:00:00,29.307814,76.337619,NO2,5,15,12
India,Haryana,Jind,"Police Lines, Jind - HSPCB",06-04-2024 12:00:00,29.307814,76.337619,SO2,3,42,13
India,Haryana,Karnal,"Sector-12, Karnal - HSPCB",06-04-2024 12:00:00,29.695300,77.002700,SO2,12,13,13
India,Haryana,Kurukshetra,"Sector-7, Kurukshetra - HSPCB",06-04-2024 12:00:00,29.966942,76.875879,PM10,63,103,80
India,Haryana,Kurukshetra,"Sector-7, Kurukshetra - HSPCB",06-04-2024 12:00:00,29.966942,76.875879,OZONE,35,89,53
India,Haryana,Mandikhera,"General Hospital, Mandikhera - HSPCB",06-04-2024 12:00:00,27.9002,76.9938,SO2,27,38,33
India,Haryana,Manesar,"Sector-2 IMT, Manesar - HSPCB",06-04-2024 12:00:00,28.360699,76.936090,SO2,4,17,10
India,Haryana,Palwal,"Shyam Nagar, Palwal - HSPCB",06-04-2024 12:00:00,28.1485564,77.3320667,NH3,8,9,9
India,Haryana,Palwal,"Shyam Nagar, Palwal - HSPCB",06-04-2024 12:00:00,28.1485564,77.3320667,CO,20,32,25
India,Haryana,Panchkula,"Sector-6, Panchkula - HSPCB ",06-04-2024 12:00:00,30.7057778,76.8531805555555,SO2,2,106,34
India,Haryana,Panipat,"Sector-18, Panipat - HSPCB",06-04-2024 12:00:00,29.497973,76.993331,OZONE,30,30,30
India,Haryana,Rohtak,"MD University, Rohtak - HSPCB",06-04-2024 12:00:00,28.52123,76.37138,SO2,6,8,7
India,Haryana,Sirsa,"F-Block, Sirsa - HSPCB",06-04-2024 12:00:00,29.536400,75.015800,PM2.5,25,116,60
India,Haryana,Sirsa,"F-Block, Sirsa - HSPCB",06-04-2024 12:00:00,29.536400,75.015800,SO2,7,14,10
India,Haryana,Yamuna Nagar,"Gobind Pura, Yamuna Nagar - HSPCB",06-04-2024 12:00:00,30.1480566,77.2893471,OZONE,18,35,21
India,Himachal Pradesh,Baddi,"HIMUDA Complex Phase-1, Baddi - HPPCB",06-04-2024 12:00:00,30.943887,76.801991,SO2,9,109,47
India,Himachal Pradesh,Baddi,"HIMUDA Complex Phase-1, Baddi - HPPCB",06-04-2024 12:00:00,30.943887,76.801991,OZONE,20,139,77
India,Jharkhand,Dhanbad,"Kalakusuma, Dhanbad - DMC",06-04-2024 12:00:00,23.811548,86.481238,PM10,14,327,152
India,Jharkhand,Dhanbad,"Kalakusuma, Dhanbad - DMC",06-04-2024 12:00:00,23.811548,86.481238,NO2,14,358,175
India,Jharkhand,Dhanbad,"Sardar Patel Nagar, Dhanbad - JSPCB",06-04-2024 12:00:00,23.80569,86.44268,SO2,NA,NA,NA
India,Jharkhand,Pathardih,"Mohalbani Ghat, Pathardih - DMC",06-04-2024 12:00:00,23.669880,86.411725,PM2.5,10,326,96
India,Jharkhand,Pathardih,"Mohalbani Ghat, Pathardih - DMC",06-04-2024 12:00:00,23.669880,86.411725,PM10,10,320,149
India,Jharkhand,Pathardih,"Mohalbani Ghat, Pathardih - DMC",06-04-2024 12:00:00,23.669880,86.411725,NO2,15,362,181
India,Jharkhand,Pathardih,"Mohalbani Ghat, Pathardih - DMC",06-04-2024 12:00:00,23.669880,86.411725,SO2,NA,NA,NA
India,Karnataka,Belgaum,"Ramteerth Nagar, Belgaum - KSPCB",06-04-2024 12:00:00,15.888653,74.541751,NH3,34,34,34
India,Karnataka,Bengaluru,"Bapuji Nagar, Bengaluru - KSPCB",06-04-2024 12:00:00,12.951913,77.539784,PM10,73,112,97
India,Karnataka,Bengaluru,"Bapuji Nagar, Bengaluru - KSPCB",06-04-2024 12:00:00,12.951913,77.539784,CO,22,56,46
India,Karnataka,Bengaluru,"Hombegowda Nagar, Bengaluru - KSPCB",06-04-2024 12:00:00,12.938539,77.590100,NH3,1,2,1
India,Karnataka,Bengaluru,"Hombegowda Nagar, Bengaluru - KSPCB",06-04-2024 12:00:00,12.938539,77.590100,SO2,3,4,4
India,Karnataka,Bengaluru,"Hombegowda Nagar, Bengaluru - KSPCB",06-04-2024 12:00:00,12.938539,77.590100,CO,8,14,11
India,Karnataka,Bengaluru,"Jayanagar 5th Block, Bengaluru - KSPCB",06-04-2024 12:00:00,12.920984,77.584908,PM2.5,NA,NA,NA
India,Karnataka,Bengaluru,"Jayanagar 5th Block, Bengaluru - KSPCB",06-04-2024 12:00:00,12.920984,77.584908,PM10,NA,NA,NA
India,Karnataka,Bengaluru,"Jayanagar 5th Block, Bengaluru - KSPCB",06-04-2024 12:00:00,12.920984,77.584908,NH3,NA,NA,NA
India,Karnataka,Bengaluru,"Jayanagar 5th Block, Bengaluru - KSPCB",06-04-2024 12:00:00,12.920984,77.584908,OZONE,NA,NA,NA
India,Karnataka,Bengaluru,"Jigani, Bengaluru - KSPCB",06-04-2024 12:00:00,12.7816279,77.6299145,PM10,47,160,102
India,Karnataka,Bengaluru,"Jigani, Bengaluru - KSPCB",06-04-2024 12:00:00,12.7816279,77.6299145,SO2,16,16,16
India,Karnataka,Bengaluru,"Kasturi Nagar, Bengaluru - KSPCB",06-04-2024 12:00:00,13.003872,77.664217,PM2.5,69,475,131
India,Karnataka,Bengaluru,"Kasturi Nagar, Bengaluru - KSPCB",06-04-2024 12:00:00,13.003872,77.664217,NH3,3,4,4
India,Karnataka,Bengaluru,"Peenya, Bengaluru - CPCB",06-04-2024 12:00:00,13.0270199,77.494094,NO2,22,51,38
India,Karnataka,Bengaluru,"Peenya, Bengaluru - CPCB",06-04-2024 12:00:00,13.0270199,77.494094,CO,24,46,35
India,Karnataka,Bengaluru,"RVCE-Mailasandra, Bengaluru - KSPCB",06-04-2024 12:00:00,12.921418,77.502466,CO,29,66,38
India,Karnataka,Bengaluru,"Sanegurava Halli, Bengaluru - KSPCB",06-04-2024 12:00:00,12.990328,77.5431385,NO2,24,56,33
India,Karnataka,Bengaluru,"Shivapura_Peenya, Bengaluru - KSPCB",06-04-2024 12:00:00,13.0246342,77.5080115,PM2.5,1,142,44
India,Karnataka,Bengaluru,"Shivapura_Peenya, Bengaluru - KSPCB",06-04-2024 12:00:00,13.0246342,77.5080115,OZONE,53,56,54
India,Karnataka,Bidar,"Naubad, Bidar - KSPCB",06-04-2024 12:00:00,17.930306,77.482194,SO2,15,22,18
India,Karnataka,Chamarajanagar,"Urban, Chamarajanagar - KSPCB",06-04-2024 12:00:00,11.55358,76.55521,PM10,35,59,44
India,Karnataka,Chamarajanagar,"Urban, Chamarajanagar - KSPCB",06-04-2024 12:00:00,11.55358,76.55521,CO,19,30,23
India,Karnataka,Chamarajanagar,"Urban, Chamarajanagar - KSPCB",06-04-2024 12:00:00,11.55358,76.55521,OZONE,15,36,26
India,Karnataka,Chikkaballapur,"Chikkaballapur Rural, Chikkaballapur - KSPCB",06-04-2024 12:00:00,13.428828,77.731418,NO2,7,17,11
India,Karnataka,Davanagere,"Devaraj Urs Badavane, Davanagere - KSPCB",06-04-2024 12:00:00,14.475800,75.905200,CO,17,21,18
