country,state,city,station,last_update,latitude,longitude,pollutant_id,pollutant_min,pollutant_max,pollutant_avg
India,Andhra_Pradesh,Amaravati,"Secretariat, Amaravati - APPCB",06-02-2024 00:00:00,16.5150833,80.5181667,PM10,45,85,58
India,Andhra_Pradesh,Amaravati,"Secretariat, Amaravati - APPCB",06-02-2024 00:00:00,16.5150833,80.5181667,OZONE,1,57,30
India,Andhra_Pradesh,Chittoor,"Gangineni Cheruvu, Chittoor - APPCB",06-02-2024 00:00:00,13.204880,79.097889,NO2,4,26,11
India,Andhra_Pradesh,Chittoor,"Gangineni Cheruvu, Chittoor - APPCB",06-02-2024 00:00:00,13.204880,79.097889,SO2,1,28,12
India,Andhra_Pradesh,Kadapa,"Yerramukkapalli, Kadapa - APPCB",06-02-2024 00:00:00,14.465052,78.824187,PM2.5,24,53,37
India,Andhra_Pradesh,Rajamahendravaram,"Anand Kala Kshetram, Rajamahendravaram - APPCB",06-02-2024 00:00:00,16.9872867,81.7363176,PM10,53,109,80
India,Andhra_Pradesh,Rajamahendravaram,"Anand Kala Kshetram, Rajamahendravaram - APPCB",06-02-2024 00:00:00,16.9872867,81.7363176,CO,6,24,17
India,Andhra_Pradesh,Tirupati,"Tirumala, Tirupati - APPCB",06-02-2024 00:00:00,13.67,79.35,PM2.5,51,134,72
India,Andhra_Pradesh,Tirupati,"Tirumala, Tirupati - APPCB",06-02-2024 00:00:00,13.67,79.35,OZONE,4,46,24
India,Andhra_Pradesh,Vijayawada,"HB Colony, Vijayawada - APPCB",06-02-2024 00:00:00,16.536107,80.594233,OZONE,1,72,31
India,Andhra_Pradesh,Vijayawada,"Kanuru, Vijayawada - APPCB",06-02-2024 00:00:00,16.486692,80.699436,OZONE,25,29,25
India,Andhra_Pradesh,Vijayawada,"Rajiv Gandhi Park, Vijayawada - APPCB",06-02-2024 00:00:00,16.509717,80.612222,NO2,7,72,35
India,Andhra_Pradesh,Vijayawada,"Rajiv Nagar, Vijayawada - APPCB",06-02-2024 00:00:00,16.554731,80.649110,PM10,20,179,80
India,Andhra_Pradesh,Vijayawada,"Rajiv Nagar, Vijayawada - APPCB",06-02-2024 00:00:00,16.554731,80.649110,NO2,7,12,9
India,Andhra_Pradesh,Visakhapatnam,"GVM Corporation, Visakhapatnam - APPCB",06-02-2024 00:00:00,17.72,83.3,PM10,63,252,113
India,Andhra_Pradesh,Visakhapatnam,"GVM Corporation, Visakhapatnam - APPCB",06-02-2024 00:00:00,17.72,83.3,NH3,2,8,4
India,Arunachal_Pradesh,Naharlagun,"Naharlagun, Naharlagun - APSPCB",06-02-2024 00:00:00,27.103358,93.679645,CO,15,49,39
India,Assam,Byrnihat,"Central Academy for SFS, Byrnihat - PCBA",06-02-2024 00:00:00,26.071318,91.87488,PM10,93,500,288
India,Assam,Guwahati,"IITG, Guwahati - PCBA",06-02-2024 00:00:00,26.2028636,91.70046436,PM2.5,91,285,173
India,Assam,Guwahati,"IITG, Guwahati - PCBA",06-02-2024 00:00:00,26.2028636,91.70046436,OZONE,3,24,15
India,Assam,Guwahati,"LGBI Airport, Guwahati - PCBA",06-02-2024 00:00:00,26.10887,91.589544,PM10,111,470,189
India,Assam,Guwahati,"LGBI Airport, Guwahati - PCBA",06-02-2024 00:00:00,26.10887,91.589544,NH3,1,4,2
India,Assam,Guwahati,"LGBI Airport, Guwahati - PCBA",06-02-2024 00:00:00,26.10887,91.589544,SO2,NA,NA,NA
India,Assam,Guwahati,"LGBI Airport, Guwahati - PCBA",06-02-2024 00:00:00,26.10887,91.589544,OZONE,1,63,31
India,Assam,Guwahati,"Pan Bazaar, Guwahati - PCBA",06-02-2024 00:00:00,26.187500,91.744194,SO2,56,75,62
India,Assam,Guwahati,"Railway Colony, Guwahati - PCBA",06-02-2024 00:00:00,26.181742,91.78063,NO2,3,3,3
India,Assam,Guwahati,"Railway Colony, Guwahati - PCBA",06-02-2024 00:00:00,26.181742,91.78063,SO2,19,31,23
India,Assam,Guwahati,"Railway Colony, Guwahati - PCBA",06-02-2024 00:00:00,26.181742,91.78063,OZONE,9,40,24
India,Assam,Silchar,"Tarapur, Silchar - PCBA",06-02-2024 00:00:00,24.82827,92.79525,CO,23,32,27
India,Assam,Sivasagar,"Girls College, Sivasagar - PCBA",06-02-2024 00:00:00,26.987634,94.636574,PM10,37,81,58
India,Bihar,Arrah,"New DM Office, Arrah - BSPCB",06-02-2024 00:00:00,25.5626095,84.663264,SO2,7,23,18
India,Bihar,Aurangabad,"Gurdeo Nagar, Aurangabad - BSPCB",06-02-2024 00:00:00,24.75746,84.366208,OZONE,1,46,7
India,Bihar,Bhagalpur,"DM Office_Kachari Chowk, Bhagalpur - BSPCB",06-02-2024 00:00:00,25.251013,86.989001,PM10,105,208,162
India,Bihar,Bhagalpur,"Mayaganj, Bhagalpur - BSPCB",06-02-2024 00:00:00,25.265194,87.012947,PM2.5,88,382,320
India,Bihar,Bhagalpur,"Mayaganj, Bhagalpur - BSPCB",06-02-2024 00:00:00,25.265194,87.012947,OZONE,12,47,23
India,Bihar,Bihar Sharif,"D M Colony, Bihar Sharif - BSPCB",06-02-2024 00:00:00,25.204762,85.514960,NO2,9,10,9
India,Bihar,Bihar Sharif,"D M Colony, Bihar Sharif - BSPCB",06-02-2024 00:00:00,25.204762,85.514960,SO2,3,14,7
India,Bihar,Buxar,"Charitra Van, Buxar - BSPCB (Formerly known as Central Jail)",06-02-2024 00:00:00,25.567520,83.966379,PM10,124,365,230
India,Bihar,Buxar,"Charitra Van, Buxar - BSPCB (Formerly known as Central Jail)",06-02-2024 00:00:00,25.567520,83.966379,SO2,3,9,5
India,Bihar,Chhapra,"Darshan Nagar, Chhapra - BSPCB",06-02-2024 00:00:00,25.7808257,84.7446768,NO2,15,20,18
India,Bihar,Chhapra,"Darshan Nagar, Chhapra - BSPCB",06-02-2024 00:00:00,25.7808257,84.7446768,NH3,8,18,12
India,Bihar,Chhapra,"Darshan Nagar, Chhapra - BSPCB",06-02-2024 00:00:00,25.7808257,84.7446768,OZONE,1,8,3
India,Bihar,Gaya,"Collectorate, Gaya - BSPCB",06-02-2024 00:00:00,24.7955,84.9994,NO2,NA,NA,NA
India,Bihar,Gaya,"Kareemganj, Gaya - BSPCB",06-02-2024 00:00:00,24.792403,84.992416,NO2,30,31,30
India,Bihar,Gaya,"Kareemganj, Gaya - BSPCB",06-02-2024 00:00:00,24.792403,84.992416,NH3,1,4,3
India,Bihar,Gaya,"SFTI Kusdihra, Gaya - BSPCB",06-02-2024 00:00:00,24.762518,84.982348,PM2.5,31,117,71
India,Bihar,Gaya,"SFTI Kusdihra, Gaya - BSPCB",06-02-2024 00:00:00,24.762518,84.982348,NO2,19,28,24
India,Bihar,Gaya,"SFTI Kusdihra, Gaya - BSPCB",06-02-2024 00:00:00,24.762518,84.982348,SO2,7,9,8
India,Bihar,Hajipur,"Industrial Area, Hajipur - BSPCB",06-02-2024 00:00:00,25.697189,85.245900,NH3,9,12,11
India,Bihar,Hajipur,"Industrial Area, Hajipur - BSPCB",06-02-2024 00:00:00,25.697189,85.245900,OZONE,1,75,21
India,Bihar,Katihar,"Mirchaibari, Katihar - BSPCB",06-02-2024 00:00:00,25.560083,87.553265,NH3,3,4,3
India,Bihar,Kishanganj,"SDM Office_Khagra, Kishanganj - BSPCB",06-02-2024 00:00:00,26.0881305,87.93840336,PM10,NA,NA,NA
India,Bihar,Manguraha,"Forest Rest House, Manguraha - BSPCB",06-02-2024 00:00:00,27.308328,84.531742,PM2.5,58,313,98
India,Bihar,Motihari,"Gandak Colony, Motihari - BSPCB",06-02-2024 00:00:00,26.63086,84.90051,PM2.5,67,302,158
India,Bihar,Munger,"Town Hall, Munger - BSPCB",06-02-2024 00:00:00,25.376776,86.471523,SO2,20,46,37
India,Bihar,Munger,"Town Hall, Munger - BSPCB",06-02-2024 00:00:00,25.376776,86.471523,CO,1,195,114
India,Bihar,Muzaffarpur,"MIT-Daudpur Kothi, Muzaffarpur - BSPCB",06-02-2024 00:00:00,26.1403345,85.3650192,PM2.5,33,217,126
India,Bihar,Muzaffarpur,"MIT-Daudpur Kothi, Muzaffarpur - BSPCB",06-02-2024 00:00:00,26.1403345,85.3650192,SO2,11,12,11
India,Bihar,Muzaffarpur,"MIT-Daudpur Kothi, Muzaffarpur - BSPCB",06-02-2024 00:00:00,26.1403345,85.3650192,OZONE,5,32,13
India,Bihar,Muzaffarpur,"Muzaffarpur Collectorate, Muzaffarpur - BSPCB",06-02-2024 00:00:00,26.1209,85.3647,NO2,5,10,8
India,Bihar,Patna,"Govt. High School Shikarpur, Patna - BSPCB",06-02-2024 00:00:00,25.592539,85.227158,PM10,105,163,129
India,Bihar,Patna,"Govt. High School Shikarpur, Patna - BSPCB",06-02-2024 00:00:00,25.592539,85.227158,NO2,18,27,22
India,Bihar,Patna,"IGSC Planetarium Complex, Patna - BSPCB",06-02-2024 00:00:00,25.610369,85.132568,OZONE,4,18,12
India,Bihar,Patna,"Samanpura, Patna - BSPCB",06-02-2024 00:00:00,25.596727,85.085624,PM10,116,359,229
India,Bihar,Purnia,"Mariam Nagar, Purnia - BSPCB",06-02-2024 00:00:00,25.366336,87.117468,PM10,78,219,143
India,Bihar,Purnia,"Mariam Nagar, Purnia - BSPCB",06-02-2024 00:00:00,25.366336,87.117468,SO2,17,20,18
India,Bihar,Purnia,"Mariam Nagar, Purnia - BSPCB",06-02-2024 00:00:00,25.366336,87.117468,CO,24,82,39
India,Bihar,Rajgir,"Dangi Tola, Rajgir - BSPCB",06-02-2024 00:00:00,25.03280,85.41948,NH3,NA,NA,NA
India,Bihar,Sasaram,"Dada Peer, Sasaram - BSPCB",06-02-2024 00:00:00,24.952822,84.002396,PM10,28,123,66
India,Bihar,Sasaram,"Dada Peer, Sasaram - BSPCB",06-02-2024 00:00:00,24.952822,84.002396,CO,34,66,54
India,Bihar,Siwan,"Chitragupta Nagar, Siwan - BSPCB",06-02-2024 00:00:00,26.2271665,84.3570427,PM10,NA,NA,NA
India,Bihar,Siwan,"Chitragupta Nagar, Siwan - BSPCB",06-02-2024 00:00:00,26.2271665,84.3570427,SO2,NA,NA,NA
India,Bihar,Siwan,"Chitragupta Nagar, Siwan - BSPCB",06-02-2024 00:00:00,26.2271665,84.3570427,CO,90,155,128
India,Chandigarh,Chandigarh,"Sector 22, Chandigarh - CPCC",06-02-2024 00:00:00,30.735567,76.775714,NH3,NA,NA,NA
India,Chandigarh,Chandigarh,"Sector 22, Chandigarh - CPCC",06-02-2024 00:00:00,30.735567,76.775714,OZONE,2,65,27
India,Chandigarh,Chandigarh,"Sector-25, Chandigarh - CPCC",06-02-2024 00:00:00,30.751462,76.762879,SO2,5,13,8
India,Chandigarh,Chandigarh,"Sector-25, Chandigarh - CPCC",06-02-2024 00:00:00,30.751462,76.762879,CO,19,38,28
India,Chandigarh,Chandigarh,"Sector-53, Chandigarh - CPCC",06-02-2024 00:00:00,30.719859,76.738637,PM2.5,58,270,116
India,Chandigarh,Chandigarh,"Sector-53, Chandigarh - CPCC",06-02-2024 00:00:00,30.719859,76.738637,NO2,22,55,30
India,Chhattisgarh,Bhilai,"32Bungalows, Bhilai - CECB",06-02-2024 00:00:00,21.194815,81.314770,PM10,44,69,57
India,Chhattisgarh,Bhilai,"Civic Center, Bhilai - Bhilai Steel Plant",06-02-2024 00:00:00,21.185571,81.343175,PM2.5,28,53,37
India,Chhattisgarh,Bhilai,"Civic Center, Bhilai - Bhilai Steel Plant",06-02-2024 00:00:00,21.185571,81.343175,NO2,9,56,17
India,Chhattisgarh,Bhilai,"Hathkhoj, Bhilai - CECB",06-02-2024 00:00:00,21.224231,81.408350,CO,15,58,34
India,Chhattisgarh,Bilaspur,"Mangala, Bilaspur - NTPC",06-02-2024 00:00:00,22.08815,82.13737,PM10,NA,NA,NA
India,Chhattisgarh,Chhal,"Nawapara SECL Colony, Chhal - CECB",06-02-2024 00:00:00,22.118125,83.140608,NO2,13,60,28
India,Chhattisgarh,Korba,"Urja Nagar, Korba - CECB",06-02-2024 00:00:00,22.348441,82.549611,SO2,NA,NA,NA
India,Chhattisgarh,Kunjemura,"OP Jindal School, Kunjemura - CECB",06-02-2024 00:00:00,22.126650,83.483212,SO2,2,91,30
India,Chhattisgarh,Milupara,"Govt. Higher Secondary School, Milupara - CECB",06-02-2024 00:00:00,22.1910172,83.5197009,CO,5,42,35
India,Chhattisgarh,Raipur,"AIIMS, Raipur - CECB",06-02-2024 00:00:00,21.258815,81.578979,PM2.5,NA,NA,NA
India,Chhattisgarh,Raipur,"Bhatagaon New ISBT, Raipur - CECB",06-02-2024 00:00:00,21.219665,81.630094,PM2.5,26,57,39
India,Chhattisgarh,Raipur,"Bhatagaon New ISBT, Raipur - CECB",06-02-2024 00:00:00,21.219665,81.630094,SO2,NA,NA,NA
India,Chhattisgarh,Raipur,"Bhatagaon New ISBT, Raipur - CECB",06-02-2024 00:00:00,21.219665,81.630094,CO,24,72,42
India,Chhattisgarh,Raipur,"Krishak Nagar, Raipur - CECB",06-02-2024 00:00:00,21.237755,81.705301,PM10,43,78,55
India,Chhattisgarh,Raipur,"Krishak Nagar, Raipur - CECB",06-02-2024 00:00:00,21.237755,81.705301,NO2,16,28,24
India,Chhattisgarh,Raipur,"Siltara Phase-II, Raipur - CECB",06-02-2024 00:00:00,21.371751,81.664929,PM2.5,40,310,122
India,Chhattisgarh,Tumidih,"OP Jindal Industrial Park, Tumidih - CECB",06-02-2024 00:00:00,22.06631475,83.33820077,NO2,NA,NA,NA
India,Chhattisgarh,Tumidih,"OP Jindal Industrial Park, Tumidih - CECB",06-02-2024 00:00:00,22.06631475,83.33820077,NH3,NA,NA,NA
India,Chhattisgarh,Tumidih,"OP Jindal Industrial Park, Tumidih - CECB",06-02-2024 00:00:00,22.06631475,83.33820077,OZONE,9,72,30
India,Delhi,Delhi,"Alipur, Delhi - DPCC",06-02-2024 00:00:00,28.815329,77.153010,OZONE,4,61,31
India,Delhi,Delhi,"Anand Vihar, Delhi - DPCC",06-02-2024 00:00:00,28.647622,77.3158090,PM2.5,76,243,187
India,Delhi,Delhi,"Anand Vihar, Delhi - DPCC",06-02-2024 00:00:00,28.647622,77.3158090,PM10,108,245,166
India,Delhi,Delhi,"Anand Vihar, Delhi - DPCC",06-02-2024 00:00:00,28.647622,77.3158090,NO2,54,110,85
India,Delhi,Delhi,"Aya Nagar, Delhi - IMD",06-02-2024 00:00:00,28.4706914,77.1099364,NO2,NA,NA,NA
India,Delhi,Delhi,"Aya Nagar, Delhi - IMD",06-02-2024 00:00:00,28.4706914,77.1099364,CO,54,68,61
India,Delhi,Delhi,"Burari Crossing, Delhi - IMD",06-02-2024 00:00:00,28.7256504,77.2011573,OZONE,23,30,25
India,Delhi,Delhi,"CRRI Mathura Road, Delhi - IMD",06-02-2024 00:00:00,28.5512005,77.2735737,NO2,23,39,31
India,Delhi,Delhi,"CRRI Mathura Road, Delhi - IMD",06-02-2024 00:00:00,28.5512005,77.2735737,OZONE,3,26,9
India,Delhi,Delhi,"DTU, Delhi - CPCB",06-02-2024 00:00:00,28.7500499,77.1112615,PM10,103,157,128
India,Delhi,Delhi,"DTU, Delhi - CPCB",06-02-2024 00:00:00,28.7500499,77.1112615,OZONE,26,28,27
India,Delhi,Delhi,"ITO, Delhi - CPCB",06-02-2024 00:00:00,28.628624,77.241060,PM2.5,80,200,111
India,Delhi,Delhi,"ITO, Delhi - CPCB",06-02-2024 00:00:00,28.628624,77.241060,NH3,2,4,3
India,Delhi,Delhi,"Jahangirpuri, Delhi - DPCC",06-02-2024 00:00:00,28.732820,77.170633,NH3,7,54,17
India,Delhi,Delhi,"Jahangirpuri, Delhi - DPCC",06-02-2024 00:00:00,28.732820,77.170633,CO,35,78,57
India,Delhi,Delhi,"Jahangirpuri, Delhi - DPCC",06-02-2024 00:00:00,28.732820,77.170633,OZONE,5,66,22
India,Delhi,Delhi,"Jawaharlal Nehru Stadium, Delhi - DPCC",06-02-2024 00:00:00,28.580280,77.233829,PM10,91,134,114
India,Delhi,Delhi,"Jawaharlal Nehru Stadium, Delhi - DPCC",06-02-2024 00:00:00,28.580280,77.233829,CO,31,66,47
India,Delhi,Delhi,"Major Dhyan Chand National Stadium, Delhi - DPCC",06-02-2024 00:00:00,28.611281,77.237738,PM2.5,162,300,219
India,Delhi,Delhi,"Major Dhyan Chand National Stadium, Delhi - DPCC",06-02-2024 00:00:00,28.611281,77.237738,PM10,99,139,120
India,Delhi,Delhi,"Major Dhyan Chand National Stadium, Delhi - DPCC",06-02-2024 00:00:00,28.611281,77.237738,NO2,35,90,52
India,Delhi,Delhi,"Major Dhyan Chand National Stadium, Delhi - DPCC",06-02-2024 00:00:00,28.611281,77.237738,NH3,9,13,11
India,Delhi,Delhi,"Mandir Marg, Delhi - DPCC",06-02-2024 00:00:00,28.636429,77.201067,NH3,NA,NA,NA
India,Delhi,Delhi,"Mundka, Delhi - DPCC",06-02-2024 00:00:00,28.684678,77.076574,NO2,26,71,45
India,Delhi,Delhi,"Mundka, Delhi - DPCC",06-02-2024 00:00:00,28.684678,77.076574,OZONE,1,5,3
India,Delhi,Delhi,"NSIT Dwarka, Delhi - CPCB",06-02-2024 00:00:00,28.60909,77.0325413,OZONE,18,52,31
India,Delhi,Delhi,"Najafgarh, Delhi - DPCC",06-02-2024 00:00:00,28.570173,76.933762,PM2.5,77,160,106
India,Delhi,Delhi,"Najafgarh, Delhi - DPCC",06-02-2024 00:00:00,28.570173,76.933762,OZONE,6,90,45
India,Delhi,Delhi,"Narela, Delhi - DPCC",06-02-2024 00:00:00,28.822836,77.101981,PM2.5,98,223,156
India,Delhi,Delhi,"Nehru Nagar, Delhi - DPCC",06-02-2024 00:00:00,28.567890,77.250515,PM2.5,154,349,234
India,Delhi,Delhi,"Nehru Nagar, Delhi - DPCC",06-02-2024 00:00:00,28.567890,77.250515,SO2,4,17,8
India,Delhi,Delhi,"New Moti Bagh, Delhi - MHUA",06-02-2024 00:00:00,28.57834,77.18400,PM2.5,134,320,225
India,Delhi,Delhi,"North Campus, DU, Delhi - IMD",06-02-2024 00:00:00,28.6573814,77.1585447,PM10,NA,NA,NA
India,Delhi,Delhi,"North Campus, DU, Delhi - IMD",06-02-2024 00:00:00,28.6573814,77.1585447,NO2,NA,NA,NA
India,Delhi,Delhi,"Okhla Phase-2, Delhi - DPCC",06-02-2024 00:00:00,28.530785,77.271255,NH3,14,19,16
India,Delhi,Delhi,"Patparganj, Delhi - DPCC",06-02-2024 00:00:00,28.623763,77.287209,PM2.5,81,170,114
India,Delhi,Delhi,"Patparganj, Delhi - DPCC",06-02-2024 00:00:00,28.623763,77.287209,OZONE,1,28,5
India,Delhi,Delhi,"Punjabi Bagh, Delhi - DPCC",06-02-2024 00:00:00,28.674045,77.131023,OZONE,8,36,16
India,Delhi,Delhi,"Pusa, Delhi - DPCC",06-02-2024 00:00:00,28.639652,77.146275,SO2,6,15,10
India,Delhi,Delhi,"Pusa, Delhi - IMD",06-02-2024 00:00:00,28.636110,77.173332,PM2.5,13,301,127
India,Delhi,Delhi,"Pusa, Delhi - IMD",06-02-2024 00:00:00,28.636110,77.173332,OZONE,12,20,15
India,Delhi,Delhi,"Shadipur, Delhi - CPCB",06-02-2024 00:00:00,28.6514781,77.1473105,PM10,92,146,122
India,Delhi,Delhi,"Sonia Vihar, Delhi - DPCC",06-02-2024 00:00:00,28.710508,77.249485,CO,52,66,56
India,Delhi,Delhi,"Vivek Vihar, Delhi - DPCC",06-02-2024 00:00:00,28.672342,77.315260,PM2.5,161,307,232
India,Delhi,Delhi,"Vivek Vihar, Delhi - DPCC",06-02-2024 00:00:00,28.672342,77.315260,SO2,5,10,9
India,Delhi,Delhi,"Wazirpur, Delhi - DPCC",06-02-2024 00:00:00,28.699793,77.165453,PM10,117,227,166
India,Gujarat,Ahmedabad,"Chandkheda, Ahmedabad - IITM",06-02-2024 00:00:00,23.107969,72.574648,PM2.5,53,381,113
India,Gujarat,Ahmedabad,"Gyaspur, Ahmedabad - IITM",06-02-2024 00:00:00,22.977134,72.553024,PM2.5,50,148,76
India,Gujarat,Ahmedabad,"Gyaspur, Ahmedabad - IITM",06-02-2024 00:00:00,22.977134,72.553024,OZONE,8,15,14
India,Gujarat,Ahmedabad,"Raikhad, Ahmedabad - IITM",06-02-2024 00:00:00,23.020509,72.579261,CO,1,18,9
India,Gujarat,Ahmedabad,"SAC ISRO Satellite, Ahmedabad - IITM",06-02-2024 00:00:00,23.023389,72.515201,OZONE,2,13,8
India,Gujarat,Ahmedabad,"Sardar Vallabhbhai Patel Stadium, Ahmedabad - IITM",06-02-2024 00:00:00,23.043070,72.562968,PM10,68,109,84
India,Gujarat,Ahmedabad,"Sardar Vallabhbhai Patel Stadium, Ahmedabad - IITM",06-02-2024 00:00:00,23.043070,72.562968,CO,26,52,39
India,Gujarat,Ahmedabad,"Sardar Vallabhbhai Patel Stadium, Ahmedabad - IITM",06-02-2024 00:00:00,23.043070,72.562968,OZONE,5,14,11
India,Gujarat,Gandhinagar,"GIFT City, Gandhinagar - IITM",06-02-2024 00:00:00,23.163798,72.677768,NH3,2,3,2
India,Gujarat,Gandhinagar,"IIPHG Lekawada, Gandhinagar - IITM",06-02-2024 00:00:00,23.243639,72.68994,NO2,10,13,12
India,Gujarat,Gandhinagar,"IIPHG Lekawada, Gandhinagar - IITM",06-02-2024 00:00:00,23.243639,72.68994,NH3,3,4,3
India,Gujarat,Gandhinagar,"Sector-10, Gandhinagar - GPCB",06-02-2024 00:00:00,23.221714,72.654328,PM2.5,18,37,28
India,Gujarat,Gandhinagar,"Sector-10, Gandhinagar - GPCB",06-02-2024 00:00:00,23.221714,72.654328,CO,18,20,20
India,Gujarat,Vatva,"Phase-4 GIDC, Vatva - GPCB",06-02-2024 00:00:00,22.969611,72.643500,CO,38,40,40
India,Haryana,Bahadurgarh,"Arya Nagar, Bahadurgarh - HSPCB",06-02-2024 00:00:00,28.6701,76.9254,NO2,34,39,36
India,Haryana,Bahadurgarh,"Arya Nagar, Bahadurgarh - HSPCB",06-02-2024 00:00:00,28.6701,76.9254,SO2,12,16,13
India,Haryana,Ballabgarh,"Nathu Colony, Ballabgarh - HSPCB",06-02-2024 00:00:00,28.3419248,77.319699,NO2,12,13,13
India,Haryana,Ballabgarh,"Nathu Colony, Ballabgarh - HSPCB",06-02-2024 00:00:00,28.3419248,77.319699,SO2,5,21,14
India,Haryana,Bhiwani,"H.B. Colony, Bhiwani - HSPCB",06-02-2024 00:00:00,28.806223,76.141105,NO2,6,11,9
India,Haryana,Bhiwani,"H.B. Colony, Bhiwani - HSPCB",06-02-2024 00:00:00,28.806223,76.141105,NH3,5,6,6
India,Haryana,Charkhi Dadri,"Mini Secretariat, Charkhi Dadri - HSPCB",06-02-2024 00:00:00,28.593883,76.270653,NH3,5,6,5
India,Haryana,Charkhi Dadri,"Mini Secretariat, Charkhi Dadri - HSPCB",06-02-2024 00:00:00,28.593883,76.270653,CO,20,52,29
India,Haryana,Dharuhera,"Municipal Corporation Office, Dharuhera -  HSPCB",06-02-2024 00:00:00,28.206800,76.799700,PM10,105,160,135
India,Haryana,Dharuhera,"Municipal Corporation Office, Dharuhera -  HSPCB",06-02-2024 00:00:00,28.206800,76.799700,SO2,11,28,15
India,Haryana,Dharuhera,"Municipal Corporation Office, Dharuhera -  HSPCB",06-02-2024 00:00:00,28.206800,76.799700,OZONE,14,62,27
India,Haryana,Faridabad,"New Industrial Town, Faridabad - HSPCB",06-02-2024 00:00:00,28.39072,77.30059,SO2,20,28,24
India,Haryana,Faridabad,"New Industrial Town, Faridabad - HSPCB",06-02-2024 00:00:00,28.39072,77.30059,CO,14,28,21
India,Haryana,Faridabad,"Sector 30, Faridabad - HSPCB",06-02-2024 00:00:00,28.4417,77.3217,PM10,104,115,108
India,Haryana,Faridabad,"Sector 30, Faridabad - HSPCB",06-02-2024 00:00:00,28.4417,77.3217,CO,54,104,77
India,Haryana,Fatehabad,"Huda Sector, Fatehabad - HSPCB",06-02-2024 00:00:00,29.503664,75.467934,NH3,NA,NA,NA
India,Haryana,Gurugram,"NISE Gwal Pahari, Gurugram - IMD",06-02-2024 00:00:00,28.422681,77.148944,OZONE,1,43,20
India,Haryana,Gurugram,"Sector-51, Gurugram - HSPCB",06-02-2024 00:00:00,28.4227,77.0667,NH3,6,14,9
India,Haryana,Gurugram,"Sector-51, Gurugram - HSPCB",06-02-2024 00:00:00,28.4227,77.0667,CO,30,45,37
India,Haryana,Gurugram,"Vikas Sadan, Gurugram - HSPCB",06-02-2024 00:00:00,28.4501238,77.0263051,NO2,5,25,14
India,Haryana,Gurugram,"Vikas Sadan, Gurugram - HSPCB",06-02-2024 00:00:00,28.4501238,77.0263051,SO2,24,34,29
India,Haryana,Hisar,"Urban Estate-II, Hisar - HSPCB",06-02-2024 00:00:00,29.140560,75.744941,PM2.5,40,81,56
India,Haryana,Hisar,"Urban Estate-II, Hisar - HSPCB",06-02-2024 00:00:00,29.140560,75.744941,PM10,37,71,52
India,Haryana,Jind,"Police Lines, Jind - HSPCB",06-02-2024 00:00:00,29.307814,76.337619,SO2,1,6,3
India,Haryana,Jind,"Police Lines, Jind - HSPCB",06-02-2024 00:00:00,29.307814,76.337619,OZONE,1,12,6
India,Haryana,Kaithal,"Rishi Nagar, Kaithal - HSPCB",06-02-2024 00:00:00,29.8006,76.4155,PM2.5,44,127,68
India,Haryana,Karnal,"Sector-12, Karnal - HSPCB",06-02-2024 00:00:00,29.695300,77.002700,PM2.5,43,68,57
India,Haryana,Karnal,"Sector-12, Karnal - HSPCB",06-02-2024 00:00:00,29.695300,77.002700,SO2,12,13,12
India,Haryana,Kurukshetra,"Sector-7, Kurukshetra - HSPCB",06-02-2024 00:00:00,29.966942,76.875879,NO2,10,10,10
India,Haryana,Kurukshetra,"Sector-7, Kurukshetra - HSPCB",06-02-2024 00:00:00,29.966942,76.875879,SO2,2,129,32
India,Haryana,Mandikhera,"General Hospital, Mandikhera - HSPCB",06-02-2024 00:00:00,27.9002,76.9938,NO2,16,22,19
India,Haryana,Manesar,"Sector-2 IMT, Manesar - HSPCB",06-02-2024 00:00:00,28.360699,76.936090,PM2.5,55,115,85
India,Haryana,Manesar,"Sector-2 IMT, Manesar - HSPCB",06-02-2024 00:00:00,28.360699,76.936090,SO2,NA,NA,NA
India,Haryana,Narnaul,"Shastri Nagar, Narnaul - HSPCB",06-02-2024 00:00:00,28.060249,76.113115,PM2.5,35,63,52
India,Haryana,Narnaul,"Shastri Nagar, Narnaul - HSPCB",06-02-2024 00:00:00,28.060249,76.113115,PM10,42,76,62
India,Haryana,Palwal,"Shyam Nagar, Palwal - HSPCB",06-02-2024 00:00:00,28.1485564,77.3320667,NO2,5,5,5
India,Haryana,Panipat,"Sector-18, Panipat - HSPCB",06-02-2024 00:00:00,29.497973,76.993331,NO2,28,32,30
India,Haryana,Panipat,"Sector-18, Panipat - HSPCB",06-02-2024 00:00:00,29.497973,76.993331,CO,22,27,25
India,Haryana,Panipat,"Sector-18, Panipat - HSPCB",06-02-2024 00:00:00,29.497973,76.993331,OZONE,29,35,32
India,Haryana,Rohtak,"MD University, Rohtak - HSPCB",06-02-2024 00:00:00,28.52123,76.37138,PM2.5,45,100,63
India,Haryana,Rohtak,"MD University, Rohtak - HSPCB",06-02-2024 00:00:00,28.52123,76.37138,SO2,6,8,7
India,Haryana,Sirsa,"F-Block, Sirsa - HSPCB",06-02-2024 00:00:00,29.536400,75.015800,PM10,26,64,42
India,Haryana,Sonipat,"Murthal, Sonipat - HSPCB",06-02-2024 00:00:00,29.027200,77.062100,PM10,53,104,85
India,Haryana,Sonipat,"Murthal, Sonipat - HSPCB",06-02-2024 00:00:00,29.027200,77.062100,CO,14,34,22
India,Haryana,Yamuna Nagar,"Gobind Pura, Yamuna Nagar - HSPCB",06-02-2024 00:00:00,30.1480566,77.2893471,NO2,3,74,10
India,Haryana,Yamuna Nagar,"Gobind Pura, Yamuna Nagar - HSPCB",06-02-2024 00:00:00,30.1480566,77.2893471,OZONE,8,20,11
India,Himachal Pradesh,Baddi,"HIMUDA Complex Phase-1, Baddi - HPPCB",06-02-2024 00:00:00,30.943887,76.801991,CO,6,40,29
India,Jharkhand,Dhanbad,"Kalakusuma, Dhanbad - DMC",06-02-2024 00:00:00,23.811548,86.481238,PM10,NA,NA,NA
India,Jharkhand,Dhanbad,"Kalakusuma, Dhanbad - DMC",06-02-2024 00:00:00,23.811548,86.481238,SO2,NA,NA,NA
India,Jharkhand,Dhanbad,"Kalakusuma, Dhanbad - DMC",06-02-2024 00:00:00,23.811548,86.481238,OZONE,NA,NA,NA
India,Jharkhand,Pathardih,"Mohalbani Ghat, Pathardih - DMC",06-02-2024 00:00:00,23.669880,86.411725,PM10,NA,NA,NA
India,Jharkhand,Pathardih,"Mohalbani Ghat, Pathardih - DMC",06-02-2024 00:00:00,23.669880,86.411725,NO2,NA,NA,NA
India,Karnataka,Bagalkot,"Vidayagiri, Bagalkot - KSPCB",06-02-2024 00:00:00,16.172806,75.659694,CO,20,57,43
India,Karnataka,Belgaum,"Ramteerth Nagar, Belgaum - KSPCB",06-02-2024 00:00:00,15.888653,74.541751,SO2,8,9,8
India,Karnataka,Bengaluru,"BTM Layout, Bengaluru - CPCB",06-02-2024 00:00:00,12.9135218,77.5950804,SO2,NA,NA,NA
India,Karnataka,Bengaluru,"City Railway Station, Bengaluru - KSPCB",06-02-2024 00:00:00,12.9756843,77.5660749,PM10,NA,NA,NA
India,Karnataka,Bengaluru,"Hebbal, Bengaluru - KSPCB",06-02-2024 00:00:00,13.029152,77.585901,PM10,51,111,85
India,Karnataka,Bengaluru,"Hombegowda Nagar, Bengaluru - KSPCB",06-02-2024 00:00:00,12.938539,77.590100,NH3,2,2,2
India,Karnataka,Bengaluru,"Kasturi Nagar, Bengaluru - KSPCB",06-02-2024 00:00:00,13.003872,77.664217,PM2.5,77,114,89
India,Karnataka,Bengaluru,"Kasturi Nagar, Bengaluru - KSPCB",06-02-2024 00:00:00,13.003872,77.664217,NO2,16,17,17
India,Karnataka,Bengaluru,"Peenya, Bengaluru - CPCB",06-02-2024 00:00:00,13.0270199,77.494094,NH3,4,7,6
India,Karnataka,Bengaluru,"Peenya, Bengaluru - CPCB",06-02-2024 00:00:00,13.0270199,77.494094,OZONE,34,36,36
India,Karnataka,Bengaluru,"Shivapura_Peenya, Bengaluru - KSPCB",06-02-2024 00:00:00,13.0246342,77.5080115,PM10,56,91,69
India,Karnataka,Bengaluru,"Silk Board, Bengaluru - KSPCB",06-02-2024 00:00:00,12.917348,77.622813,SO2,6,10,9
India,Karnataka,Bengaluru,"Silk Board, Bengaluru - KSPCB",06-02-2024 00:00:00,12.917348,77.622813,OZONE,29,31,30
India,Karnataka,Bidar,"Naubad, Bidar - KSPCB",06-02-2024 00:00:00,17.930306,77.482194,NO2,7,8,8
India,Karnataka,Chamarajanagar,"Urban, Chamarajanagar - KSPCB",06-02-2024 00:00:00,11.55358,76.55521,CO,18,28,21
India,Karnataka,Chikkaballapur,"Chikkaballapur Rural, Chikkaballapur - KSPCB",06-02-2024 00:00:00,13.428828,77.731418,PM2.5,NA,NA,NA
India,Karnataka,Chikkaballapur,"Chikkaballapur Rural, Chikkaballapur - KSPCB",06-02-2024 00:00:00,13.428828,77.731418,OZONE,24,25,24
India,Karnataka,Chikkamagaluru,"Kalyana Nagara, Chikkamagaluru - KSPCB",06-02-2024 00:00:00,13.328028,75.797056,PM10,31,91,53
India,Karnataka,Davanagere,"Devaraj Urs Badavane, Davanagere - KSPCB",06-02-2024 00:00:00,14.475800,75.905200,PM10,47,101,71
India,Karnataka,Davanagere,"Devaraj Urs Badavane, Davanagere - KSPCB",06-02-2024 00:00:00,14.475800,75.905200,CO,16,18,17
India,Karnataka,Dharwad,"Kalabhavan, Dharwad - KSPCB",06-02-2024 00:00:00,15.459706,75.008381,PM2.5,47,79,62
India,Karnataka,Dharwad,"Kalabhavan, Dharwad - KSPCB",06-02-2024 00:00:00,15.459706,75.008381,PM10,67,161,108
India,Karnataka,Dharwad,"Kalabhavan, Dharwad - KSPCB",06-02-2024 00:00:00,15.459706,75.008381,NH3,2,3,3
India,Karnataka,Dharwad,"Kalabhavan, Dharwad - KSPCB",06-02-2024 00:00:00,15.459706,75.008381,SO2,3,10,6
India,Karnataka,Gadag,"Panchal Nagar, Gadag - KSPCB",06-02-2024 00:00:00,15.411456,75.638133,PM2.5,32,70,47
India,Karnataka,Hassan,"B.Katihalli, Hassan - KSPCB",06-02-2024 00:00:00,13.008556,76.125258,PM2.5,NA,NA,NA
India,Karnataka,Hassan,"B.Katihalli, Hassan - KSPCB",06-02-2024 00:00:00,13.008556,76.125258,NO2,NA,NA,NA
India,Karnataka,Haveri,"Ashwini Nagar, Haveri - KSPCB",06-02-2024 00:00:00,14.791800,75.389600,PM10,NA,NA,NA
India,Karnataka,Hubballi,"Lingaraj Nagar, Hubballi - KSPCB",06-02-2024 00:00:00,15.3714823,75.1160168,PM10,49,75,60
India,Karnataka,Kalaburagi,"Lal Bahadur Shastri Nagar, Kalaburagi - KSPCB",06-02-2024 00:00:00,17.321993,76.822628,NH3,2,2,2
India,Karnataka,Kalaburagi,"Mahatma Basaveswar Colony, Kalaburgi - KSPCB",06-02-2024 00:00:00,17.336318,76.847397,CO,37,104,64
India,Karnataka,Karwar,"KHB Colony, Karwar - KSPCB",06-02-2024 00:00:00,14.816666,74.141003,SO2,NA,NA,NA
India,Karnataka,Kolar,"Tamaka Ind. Area, Kolar - KSPCB",06-02-2024 00:00:00,13.1276288,78.1570122,NH3,5,8,7
India,Karnataka,Koppal,"Diwator Nagar, Koppal - KSPCB",06-02-2024 00:00:00,15.347630,76.181767,PM2.5,29,82,45
India,Karnataka,Koppal,"Diwator Nagar, Koppal - KSPCB",06-02-2024 00:00:00,15.347630,76.181767,NO2,4,29,14
India,Karnataka,Madikeri,"Stuart Hill, Madikeri - KSPCB",06-02-2024 00:00:00,12.415911,75.735050,PM2.5,21,69,45
India,Karnataka,Madikeri,"Stuart Hill, Madikeri - KSPCB",06-02-2024 00:00:00,12.415911,75.735050,NH3,1,1,1
India,Karnataka,Madikeri,"Stuart Hill, Madikeri - KSPCB",06-02-2024 00:00:00,12.415911,75.735050,SO2,4,4,4
India,Karnataka,Mangalore,"Kadri, Mangalore - KSPCB",06-02-2024 00:00:00,12.889250,74.853000,PM10,48,103,63
India,Karnataka,Mangalore,"Kadri, Mangalore - KSPCB",06-02-2024 00:00:00,12.889250,74.853000,NO2,7,9,8
India,Karnataka,Mangalore,"Kadri, Mangalore - KSPCB",06-02-2024 00:00:00,12.889250,74.853000,CO,32,54,45
India,Karnataka,Mysuru,"Hebbal 1st Stage, Mysuru - KSPCB",06-02-2024 00:00:00,12.21041,76.37376,NH3,1,3,2
India,Karnataka,Ramanagara,"Vijay Nagar, Ramanagara - KSPCB",06-02-2024 00:00:00,12.733409,77.298051,PM2.5,40,93,62
India,Karnataka,Ramanagara,"Vijay Nagar, Ramanagara - KSPCB",06-02-2024 00:00:00,12.733409,77.298051,PM10,33,70,46
India,Karnataka,Ramanagara,"Vijay Nagar, Ramanagara - KSPCB",06-02-2024 00:00:00,12.733409,77.298051,NO2,2,23,6
India,Karnataka,Shivamogga,"Vinoba Nagara, Shivamogga - KSPCB",06-02-2024 00:00:00,13.940000,75.555917,PM2.5,33,75,53
India,Karnataka,Tumakuru,"Thimmalapura, Tumakuru - KSPCB",06-02-2024 00:00:00,13.377516,77.099072,SO2,8,13,10
India,Karnataka,Udupi,"Brahmagiri, Udupi - KSPCB",06-02-2024 00:00:00,13.34194444,74.74694444,SO2,21,25,23
India,Karnataka,Vijayapura,"Ibrahimpur, Vijayapura - KSPCB",06-02-2024 00:00:00,16.802639,75.722694,NO2,17,19,19
India,Kerala,Eloor,"Udyogamandal, Eloor - Kerala PCB",06-02-2024 00:00:00,10.073232,76.302765,PM2.5,35,56,45
India,Kerala,Eloor,"Udyogamandal, Eloor - Kerala PCB",06-02-2024 00:00:00,10.073232,76.302765,NO2,4,4,4
India,Kerala,Kannur,"Thavakkara, Kannur - Kerala PCB",06-02-2024 00:00:00,11.875000,75.373200,CO,28,36,33
India,Kerala,Kannur,"Thavakkara, Kannur - Kerala PCB",06-02-2024 00:00:00,11.875000,75.373200,OZONE,31,35,31
India,Kerala,Kochi,"Vyttila, Kochi - Kerala PCB",06-02-2024 00:00:00,9.969447,76.321186,PM10,NA,NA,NA
India,Kerala,Kollam,"Polayathode, Kollam - Kerala PCB",06-02-2024 00:00:00,8.8787,76.6073,PM2.5,70,164,99
India,Kerala,Thiruvananthapuram,"Kariavattom, Thiruvananthapuram - Kerala PCB",06-02-2024 00:00:00,8.563700,76.886500,PM10,76,86,80
India,Kerala,Thiruvananthapuram,"Kariavattom, Thiruvananthapuram - Kerala PCB",06-02-2024 00:00:00,8.563700,76.886500,OZONE,27,30,28
India,Kerala,Thiruvananthapuram,"Plammoodu, Thiruvananthapuram - Kerala PCB",06-02-2024 00:00:00,8.5149093,76.9435879,NH3,2,2,2
India,Kerala,Thiruvananthapuram,"Plammoodu, Thiruvananthapuram - Kerala PCB",06-02-2024 00:00:00,8.5149093,76.9435879,SO2,6,19,10
India,Kerala,Thiruvananthapuram,"Plammoodu, Thiruvananthapuram - Kerala PCB",06-02-2024 00:00:00,8.5149093,76.9435879,OZONE,3,55,17
India,Kerala,Thrissur,"Corporation Ground, Thrissur - Kerala PCB",06-02-2024 00:00:00,10.532400,76.215900,NH3,1,1,1
India,Madhya Pradesh,Bhopal,"Idgah Hills, Bhopal - MPPCB",06-02-2024 00:00:00,23.264759,77.381568,NH3,3,4,4
India,Madhya Pradesh,Bhopal,"Idgah Hills, Bhopal - MPPCB",06-02-2024 00:00:00,23.264759,77.381568,SO2,14,30,20
India,Madhya Pradesh,Bhopal,"Idgah Hills, Bhopal - MPPCB",06-02-2024 00:00:00,23.264759,77.381568,OZONE,15,93,54
India,Madhya Pradesh,Bhopal,"Paryavaran Parisar, Bhopal - MPPCB",06-02-2024 00:00:00,23.210494,77.425409,PM10,64,254,107
India,Madhya Pradesh,Bhopal,"Paryavaran Parisar, Bhopal - MPPCB",06-02-2024 00:00:00,23.210494,77.425409,NO2,18,85,32
India,Madhya Pradesh,Bhopal,"Paryavaran Parisar, Bhopal - MPPCB",06-02-2024 00:00:00,23.210494,77.425409,NH3,7,12,9
India,Madhya Pradesh,Bhopal,"T T Nagar, Bhopal - MPPCB",06-02-2024 00:00:00,23.233584,77.400574,OZONE,4,102,43
India,Madhya Pradesh,Gwalior,"Deen Dayal Nagar, Gwalior - MPPCB",06-02-2024 00:00:00,26.259242,78.216432,NH3,3,7,5
India,Madhya Pradesh,Gwalior,"Maharaj Bada, Gwalior - MPPCB",06-02-2024 00:00:00,26.200388,78.147714,SO2,11,16,13
India,Madhya Pradesh,Indore,"Regional Park, Indore - IMC",06-02-2024 00:00:00,22.6780,75.8559,PM2.5,47,157,77
India,Madhya Pradesh,Indore,"Regional Park, Indore - IMC",06-02-2024 00:00:00,22.6780,75.8559,SO2,39,42,41
India,Madhya Pradesh,Indore,"Residency Area, Indore - IMC",06-02-2024 00:00:00,22.7084,75.8815,OZONE,10,14,11
India,Madhya Pradesh,Jabalpur,"Govindh Bhavan Colony, Jabalpur - JMC",06-02-2024 00:00:00,23.163174,79.973061,PM10,31,98,64
India,Madhya Pradesh,Jabalpur,"Govindh Bhavan Colony, Jabalpur - JMC",06-02-2024 00:00:00,23.163174,79.973061,SO2,4,93,19
India,Madhya Pradesh,Jabalpur,"Gupteshwar, Jabalpur - JMC",06-02-2024 00:00:00,23.142888,79.916147,NO2,12,50,26
India,Madhya Pradesh,Katni,"Gole Bazar, Katni - MPPCB",06-02-2024 00:00:00,23.50016,80.23284,PM10,66,138,87
India,Madhya Pradesh,Katni,"Gole Bazar, Katni - MPPCB",06-02-2024 00:00:00,23.50016,80.23284,NO2,9,43,25
India,Madhya Pradesh,Maihar,"Sahilara, Maihar - KJS Cements",06-02-2024 00:00:00,24.2613009,80.7231783,PM2.5,12,65,38
India,Madhya Pradesh,Pithampur,"Sector-2 Industrial Area, Pithampur - MPPCB",06-02-2024 00:00:00,22.624758,75.675238,NO2,7,32,15
India,Madhya Pradesh,Pithampur,"Sector-2 Industrial Area, Pithampur - MPPCB",06-02-2024 00:00:00,22.624758,75.675238,OZONE,20,64,46
India,Madhya Pradesh,Ratlam,"Shasthri Nagar, Ratlam - IPCA Lab",06-02-2024 00:00:00,23.331731,75.045981,SO2,12,61,29
India,Madhya Pradesh,Sagar,"Civil Lines, Sagar - MPPCB",06-02-2024 00:00:00,23.838586,78.759431,PM2.5,54,206,102
India,Madhya Pradesh,Sagar,"Civil Lines, Sagar - MPPCB",06-02-2024 00:00:00,23.838586,78.759431,CO,25,44,36
India,Madhya Pradesh,Sagar,"Deen Dayal Nagar, Sagar - MPPCB",06-02-2024 00:00:00,23.8640158,78.80289321,PM10,42,113,69
India,Madhya Pradesh,Satna,"Bandhavgar Colony, Satna - Birla Cement",06-02-2024 00:00:00,24.58434363,80.8549414,PM10,18,36,27
India,Madhya Pradesh,Satna,"Bandhavgar Colony, Satna - Birla Cement",06-02-2024 00:00:00,24.58434363,80.8549414,OZONE,58,79,61
India,Madhya Pradesh,Ujjain,"Mahakaleshwar Temple, Ujjain - MPPCB",06-02-2024 00:00:00,23.182719 ,75.768218 ,PM10,62,141,89
India,Madhya Pradesh,Ujjain,"Mahakaleshwar Temple, Ujjain - MPPCB",06-02-2024 00:00:00,23.182719 ,75.768218 ,CO,19,89,38
India,Maharashtra,Ahmednagar,"Tarakpur, Ahmednagar - MPCB",06-02-2024 00:00:00,19.10122,74.73339,SO2,17,21,19
India,Maharashtra,Akola,"Ramdaspeth, Akola - MPCB",06-02-2024 00:00:00,20.719516,77.000253,PM10,102,448,184
India,Maharashtra,Akola,"Ramdaspeth, Akola - MPCB",06-02-2024 00:00:00,20.719516,77.000253,NH3,5,21,10
India,Maharashtra,Akola,"Ramdaspeth, Akola - MPCB",06-02-2024 00:00:00,20.719516,77.000253,CO,29,152,94
India,Maharashtra,Amravati,"Shri Shivaji Science College, Amaravati - MPCB",06-02-2024 00:00:00,20.939198,77.765701,PM10,92,420,161
India,Maharashtra,Amravati,"Shri Shivaji Science College, Amaravati - MPCB",06-02-2024 00:00:00,20.939198,77.765701,CO,48,120,89
India,Maharashtra,Aurangabad,"MIDC Chilkalthana, Aurangabad - MPCB",06-02-2024 00:00:00,19.875620,75.387310,PM10,80,353,154
India,Maharashtra,Aurangabad,"More Chowk Waluj, Aurangabad - MPCB",06-02-2024 00:00:00,19.8389439,75.244448,CO,15,105,79
India,Maharashtra,Badlapur,"Katrap, Badlapur - MPCB",06-02-2024 00:00:00,19.16485,73.23409,PM2.5,92,318,215
India,Maharashtra,Badlapur,"Katrap, Badlapur - MPCB",06-02-2024 00:00:00,19.16485,73.23409,PM10,86,254,145
India,Maharashtra,Belapur,"CBD Belapur, Belapur - MPCB",06-02-2024 00:00:00,19.0243902,73.0406721,NO2,37,101,59
India,Maharashtra,Dhule,"Deopur, Dhule - MPCB",06-02-2024 00:00:00,20.918946,74.776388,SO2,1,62,20
India,Maharashtra,Dhule,"Deopur, Dhule - MPCB",06-02-2024 00:00:00,20.918946,74.776388,CO,2,38,12
India,Maharashtra,Jalgaon,"Prabhat Colony, Jalgaon - MPCB",06-02-2024 00:00:00,21.001264,75.565602,NO2,21,124,70
India,Maharashtra,Jalgaon,"Prabhat Colony, Jalgaon - MPCB",06-02-2024 00:00:00,21.001264,75.565602,CO,12,24,21
India,Maharashtra,Jalna,"Old MIDC, Jalna - MPCB",06-02-2024 00:00:00,19.854616,75.905894,SO2,NA,NA,NA
India,Maharashtra,Jalna,"Old MIDC, Jalna - MPCB",06-02-2024 00:00:00,19.854616,75.905894,CO,31,78,35
India,Maharashtra,Kolhapur,"Shivaji University, Kolhapur - MPCB",06-02-2024 00:00:00,16.6870449,74.2505872,PM10,97,263,140
India,Maharashtra,Kolhapur,"Shivaji University, Kolhapur - MPCB",06-02-2024 00:00:00,16.6870449,74.2505872,NH3,2,7,4
India,Maharashtra,Kolhapur,"Sinchan Bhavan, Kolhapur - MPCB",06-02-2024 00:00:00,16.7143745,74.2426398,PM2.5,115,288,197
India,Maharashtra,Kolhapur,"Sinchan Bhavan, Kolhapur - MPCB",06-02-2024 00:00:00,16.7143745,74.2426398,SO2,1,12,3
India,Maharashtra,Kolhapur,"Sinchan Bhavan, Kolhapur - MPCB",06-02-2024 00:00:00,16.7143745,74.2426398,OZONE,15,171,68
India,Maharashtra,Latur,"Sawe Wadi, Latur - MPCB",06-02-2024 00:00:00,18.39963,76.57452,PM10,91,322,132
India,Maharashtra,Latur,"Sawe Wadi, Latur - MPCB",06-02-2024 00:00:00,18.39963,76.57452,OZONE,1,65,28
India,Maharashtra,Mahad,"Kamble Tarf Birwadi, Mahad - MPCB",06-02-2024 00:00:00,18.1023399,73.4783687,NO2,27,30,29
India,Maharashtra,Malegaon,"Mahesh Nagar, Malegaon - MPCB",06-02-2024 00:00:00,20.555712,74.529236,NO2,1,24,9
India,Maharashtra,Malegaon,"Mahesh Nagar, Malegaon - MPCB",06-02-2024 00:00:00,20.555712,74.529236,NH3,3,28,6
India,Maharashtra,Malegaon,"Mahesh Nagar, Malegaon - MPCB",06-02-2024 00:00:00,20.555712,74.529236,SO2,7,13,9
India,Maharashtra,Mira-Bhayandar,"Bhayandar West, Mira-Bhayandar - MPCB",06-02-2024 00:00:00,19.296481,72.840923,NO2,NA,NA,NA
India,Maharashtra,Mumbai,"Bandra Kurla Complex, Mumbai - MPCB",06-02-2024 00:00:00,19.065931,72.862131,SO2,2,18,7
India,Maharashtra,Mumbai,"Borivali East, Mumbai - IITM",06-02-2024 00:00:00,19.23241,72.86895,OZONE,5,64,28
India,Maharashtra,Mumbai,"Borivali East, Mumbai - MPCB",06-02-2024 00:00:00,19.2243333,72.8658113,SO2,NA,NA,NA
India,Maharashtra,Mumbai,"Chembur, Mumbai - MPCB",06-02-2024 00:00:00,19.0364585,72.8954371,SO2,2,21,9
India,Maharashtra,Mumbai,"Chhatrapati Shivaji Intl. Airport (T2), Mumbai - MPCB",06-02-2024 00:00:00,19.10078,72.87462,NO2,NA,NA,NA
India,Maharashtra,Mumbai,"Ghatkopar, Mumbai - BMC",06-02-2024 00:00:00,19.083694,72.920967,PM2.5,NA,NA,NA
India,Maharashtra,Mumbai,"Ghatkopar, Mumbai - BMC",06-02-2024 00:00:00,19.083694,72.920967,NH3,NA,NA,NA
India,Maharashtra,Mumbai,"Ghatkopar, Mumbai - BMC",06-02-2024 00:00:00,19.083694,72.920967,CO,23,65,28
India,Maharashtra,Mumbai,"Ghatkopar, Mumbai - BMC",06-02-2024 00:00:00,19.083694,72.920967,OZONE,4,13,4
India,Maharashtra,Mumbai,"Kandivali East, Mumbai - MPCB",06-02-2024 00:00:00,19.205800,72.868200,NH3,NA,NA,NA
India,Maharashtra,Mumbai,"Kandivali West, Mumbai - BMC",06-02-2024 00:00:00,19.215859,72.831718,PM2.5,74,207,156
India,Maharashtra,Mumbai,"Kandivali West, Mumbai - BMC",06-02-2024 00:00:00,19.215859,72.831718,SO2,3,12,6
India,Maharashtra,Mumbai,"Kherwadi_Bandra East, Mumbai - MPCB",06-02-2024 00:00:00,19.0632143,72.8456324,PM2.5,65,335,174
India,Maharashtra,Mumbai,"Kherwadi_Bandra East, Mumbai - MPCB",06-02-2024 00:00:00,19.0632143,72.8456324,NH3,3,12,6
India,Maharashtra,Mumbai,"Khindipada-Bhandup West, Mumbai - IITM",06-02-2024 00:00:00,19.1653323,72.922099,PM2.5,71,202,116
India,Maharashtra,Mumbai,"Khindipada-Bhandup West, Mumbai - IITM",06-02-2024 00:00:00,19.1653323,72.922099,CO,2,33,19
India,Maharashtra,Mumbai,"Kurla, Mumbai - MPCB",06-02-2024 00:00:00,19.0863,72.8888,PM2.5,77,243,122
India,Maharashtra,Mumbai,"Kurla, Mumbai - MPCB",06-02-2024 00:00:00,19.0863,72.8888,NO2,19,54,32
India,Maharashtra,Mumbai,"Kurla, Mumbai - MPCB",06-02-2024 00:00:00,19.0863,72.8888,NH3,3,4,3
India,Maharashtra,Mumbai,"Kurla, Mumbai - MPCB",06-02-2024 00:00:00,19.0863,72.8888,SO2,32,32,32
India,Maharashtra,Mumbai,"Malad West, Mumbai - IITM",06-02-2024 00:00:00,19.19709,72.82204,OZONE,1,47,26
India,Maharashtra,Mumbai,"Mindspace-Malad West, Mumbai - MPCB",06-02-2024 00:00:00,19.1878657,72.8304069,NH3,8,9,9
India,Maharashtra,Mumbai,"Mindspace-Malad West, Mumbai - MPCB",06-02-2024 00:00:00,19.1878657,72.8304069,SO2,1,16,7
India,Maharashtra,Mumbai,"Mulund West, Mumbai - MPCB",06-02-2024 00:00:00,19.1750,72.9419,OZONE,7,7,7
India,Maharashtra,Mumbai,"Navy Nagar-Colaba, Mumbai - IITM",06-02-2024 00:00:00,18.897756,72.813320,OZONE,3,77,55
India,Maharashtra,Mumbai,"Sewri, Mumbai - BMC",06-02-2024 00:00:00,19.000084,72.856730,PM10,97,155,124
India,Maharashtra,Mumbai,"Sewri, Mumbai - BMC",06-02-2024 00:00:00,19.000084,72.856730,NO2,41,156,92
India,Maharashtra,Mumbai,"Shivaji Nagar, Mumbai - BMC",06-02-2024 00:00:00,19.060498,72.923356,NO2,72,148,117
India,Maharashtra,Mumbai,"Siddharth Nagar-Worli, Mumbai - IITM",06-02-2024 00:00:00,19.000083,72.813993,PM10,110,213,158
India,Maharashtra,Mumbai,"Siddharth Nagar-Worli, Mumbai - IITM",06-02-2024 00:00:00,19.000083,72.813993,CO,49,109,61
India,Maharashtra,Mumbai,"Vasai West, Mumbai - MPCB",06-02-2024 00:00:00,19.383200,72.820400,PM10,39,184,98
India,Maharashtra,Mumbai,"Vasai West, Mumbai - MPCB",06-02-2024 00:00:00,19.383200,72.820400,SO2,16,16,16
India,Maharashtra,Mumbai,"Vile Parle West, Mumbai - MPCB",06-02-2024 00:00:00,19.10861,72.83622,NO2,5,45,15
India,Maharashtra,Mumbai,"Vile Parle West, Mumbai - MPCB",06-02-2024 00:00:00,19.10861,72.83622,NH3,1,10,7
India,Maharashtra,Mumbai,"Vile Parle West, Mumbai - MPCB",06-02-2024 00:00:00,19.10861,72.83622,OZONE,6,7,7
India,Maharashtra,Mumbai,"Worli, Mumbai - MPCB",06-02-2024 00:00:00,18.9936162,72.8128113,PM2.5,41,101,59
India,Maharashtra,Mumbai,"Worli, Mumbai - MPCB",06-02-2024 00:00:00,18.9936162,72.8128113,NO2,20,23,22
India,Maharashtra,Nagpur,"Ambazari, Nagpur - MPCB",06-02-2024 00:00:00,21.121801,79.04952,OZONE,2,92,34
India,Maharashtra,Nagpur,"Mahal, Nagpur - MPCB",06-02-2024 00:00:00,21.14472,79.107595,PM2.5,95,228,152
India,Maharashtra,Nagpur,"Opp GPO Civil Lines, Nagpur - MPCB",06-02-2024 00:00:00,21.152875,79.0517531,SO2,13,53,22
India,Maharashtra,Nagpur,"Ram Nagar, Nagpur - MPCB",06-02-2024 00:00:00,21.143383,79.048912,NO2,NA,NA,NA
India,Maharashtra,Nanded,"Sneh Nagar, Nanded - MPCB",06-02-2024 00:00:00,19.173852,77.296291,CO,34,42,39
India,Maharashtra,Nashik,"Gangapur Road, Nashik - MPCB",06-02-2024 00:00:00,20.0073285,73.7762427,PM10,64,140,91
India,Maharashtra,Nashik,"Gangapur Road, Nashik - MPCB",06-02-2024 00:00:00,20.0073285,73.7762427,CO,18,18,18
India,Maharashtra,Nashik,"Hirawadi, Nashik - MPCB",06-02-2024 00:00:00,20.021503,73.813844,PM10,33,113,83
India,Maharashtra,Nashik,"MIDC Ambad, Nashik - MPCB",06-02-2024 00:00:00,19.950220,73.731480,PM2.5,56,181,110
India,Maharashtra,Nashik,"MIDC Ambad, Nashik - MPCB",06-02-2024 00:00:00,19.950220,73.731480,PM10,91,191,139
India,Maharashtra,Nashik,"Pandav Nagari, Nashik - MPCB",06-02-2024 00:00:00,19.9591346,73.7788008,CO,28,79,35
India,Maharashtra,Navi Mumbai,"Kopripada-Vashi, Navi Mumbai - MPCB",06-02-2024 00:00:00,19.090337,73.014232,PM2.5,18,387,225
India,Maharashtra,Navi Mumbai,"Mahape, Navi Mumbai - MPCB",06-02-2024 00:00:00,19.1135051,73.008978,NH3,3,4,3
India,Maharashtra,Navi Mumbai,"Mahape, Navi Mumbai - MPCB",06-02-2024 00:00:00,19.1135051,73.008978,SO2,26,26,26
India,Maharashtra,Navi Mumbai,"Mahape, Navi Mumbai - MPCB",06-02-2024 00:00:00,19.1135051,73.008978,CO,30,70,48
India,Maharashtra,Navi Mumbai,"Sanpada, Navi Mumbai - MPCB",06-02-2024 00:00:00,19.0575752,73.0151367,PM10,92,198,145
India,Maharashtra,Navi Mumbai,"Sanpada, Navi Mumbai - MPCB",06-02-2024 00:00:00,19.0575752,73.0151367,NO2,1,171,58
India,Maharashtra,Navi Mumbai,"Sanpada, Navi Mumbai - MPCB",06-02-2024 00:00:00,19.0575752,73.0151367,OZONE,2,153,41
India,Maharashtra,Navi Mumbai,"Sector-19A Nerul, Navi Mumbai - IITM",06-02-2024 00:00:00,19.044,73.0325,PM2.5,125,373,283
India,Maharashtra,Navi Mumbai,"Sector-19A Nerul, Navi Mumbai - IITM",06-02-2024 00:00:00,19.044,73.0325,CO,44,110,55
India,Maharashtra,Navi Mumbai,"Sector-2E Kalamboli, Navi Mumbai - MPCB",06-02-2024 00:00:00,19.02579,73.10297,PM10,104,500,194
India,Maharashtra,Navi Mumbai,"Tondare-Taloja, Navi Mumbai - MPCB",06-02-2024 00:00:00,19.0630,73.1209,CO,16,82,26
India,Maharashtra,Pimpri-Chinchwad,"Gavalinagar, Pimpri Chinchwad - MPCB",06-02-2024 00:00:00,18.63673,73.82487,PM2.5,40,212,144
India,Maharashtra,Pimpri-Chinchwad,"Gavalinagar, Pimpri Chinchwad - MPCB",06-02-2024 00:00:00,18.63673,73.82487,SO2,5,26,12
India,Maharashtra,Pimpri-Chinchwad,"Thergaon, Pimpri Chinchwad - MPCB",06-02-2024 00:00:00,18.616318,73.765797,PM2.5,57,322,256
India,Maharashtra,Pimpri-Chinchwad,"Thergaon, Pimpri Chinchwad - MPCB",06-02-2024 00:00:00,18.616318,73.765797,NO2,32,143,82
India,Maharashtra,Pune,"Alandi, Pune - IITM",06-02-2024 00:00:00,18.675076,73.892743,PM10,76,139,110
India,Maharashtra,Pune,"Alandi, Pune - IITM",06-02-2024 00:00:00,18.675076,73.892743,CO,23,65,45
India,Maharashtra,Pune,"Karve Road, Pune - MPCB",06-02-2024 00:00:00,18.5011743,73.8165527,OZONE,6,6,6
India,Maharashtra,Pune,"Katraj Dairy, Pune - MPCB",06-02-2024 00:00:00,18.454450,73.854155,SO2,3,15,9
India,Maharashtra,Pune,"Mhada Colony, Pune - IITM",06-02-2024 00:00:00,18.573040,73.927715,OZONE,22,56,37
India,Maharashtra,Pune,"Savitribai Phule Pune University, Pune - MPCB",06-02-2024 00:00:00,18.547056,73.826908,PM2.5,67,184,122
India,Maharashtra,Sangli,"Vijay Nagar, Sangli - MPCB",06-02-2024 00:00:00, 16.5038,74.3623,OZONE,3,75,36
India,Maharashtra,Solapur,"Dnyaneshwar Nagar, Solapur - MPCB",06-02-2024 00:00:00,17.6336264,75.9132495,NO2,17,201,57
India,Maharashtra,Solapur,"Dnyaneshwar Nagar, Solapur - MPCB",06-02-2024 00:00:00,17.6336264,75.9132495,NH3,20,74,33
India,Maharashtra,Solapur,"Ratandeep Housing Society, Solapur - MPCB",06-02-2024 00:00:00,17.65439,75.90649,NH3,7,12,10
India,Maharashtra,Solapur,"Ratandeep Housing Society, Solapur - MPCB",06-02-2024 00:00:00,17.65439,75.90649,SO2,6,61,19
India,Maharashtra,Solapur,"Solapur, Solapur - MPCB",06-02-2024 00:00:00,17.6599188,75.9063906,PM2.5,39,103,64
India,Maharashtra,Solapur,"Solapur, Solapur - MPCB",06-02-2024 00:00:00,17.6599188,75.9063906,OZONE,33,72,47
India,Maharashtra,Thane,"Kasarvadavali, Thane - MPCB",06-02-2024 00:00:00,19.26777,72.97182,PM2.5,NA,NA,NA
India,Maharashtra,Thane,"Kasarvadavali, Thane - MPCB",06-02-2024 00:00:00,19.26777,72.97182,PM10,NA,NA,NA
India,Maharashtra,Thane,"Kasarvadavali, Thane - MPCB",06-02-2024 00:00:00,19.26777,72.97182,NH3,3,13,5
India,Maharashtra,Thane,"Pimpleshwar Mandir, Thane - MPCB",06-02-2024 00:00:00,19.192056,72.9585188,SO2,14,115,44
India,Maharashtra,Thane,"Upvan Fort, Thane - MPCB",06-02-2024 00:00:00,19.222279,72.957979,NO2,14,96,39
India,Maharashtra,Ulhasnagar,"Sidhi Vinayak Nagar, Ulhasnagar - MPCB",06-02-2024 00:00:00,19.235581,73.159121,CO,11,136,69
India,Manipur,Imphal,"DM College of Science, Imphal - Manipur PCB",06-02-2024 00:00:00,24.8207389,93.9423085,NO2,7,8,8
India,Manipur,Imphal,"Manipur University, Imphal - Manipur PCB",06-02-2024 00:00:00,24.7524239,93.9286218,PM2.5,NA,NA,NA
India,Meghalaya,Shillong,"Lumpyngngad, Shillong - Meghalaya PCB",06-02-2024 00:00:00,25.5586,91.8985,CO,18,37,21
India,Mizoram,Aizawl,"Sikulpuikawn, Aizawl - Mizoram PCB",06-02-2024 00:00:00,23.7176342,92.7192841,SO2,2,2,2
India,Nagaland,Kohima,"PWD Juction, Kohima - NPCB",06-02-2024 00:00:00,25.6635413,94.0989878,PM2.5,84,327,184
India,Nagaland,Kohima,"PWD Juction, Kohima - NPCB",06-02-2024 00:00:00,25.6635413,94.0989878,SO2,98,104,101
India,Nagaland,Kohima,"PWD Juction, Kohima - NPCB",06-02-2024 00:00:00,25.6635413,94.0989878,CO,9,66,37
India,Odisha,Angul,"Hakimapada, Angul - OSPCB",06-02-2024 00:00:00,20.832874,85.104082,PM2.5,92,410,288
India,Odisha,Angul,"Hakimapada, Angul - OSPCB",06-02-2024 00:00:00,20.832874,85.104082,NO2,15,71,39
India,Odisha,Angul,"Hakimapada, Angul - OSPCB",06-02-2024 00:00:00,20.832874,85.104082,CO,4,112,59
India,Odisha,Balasore,"Kalidaspur, Balasore - OSPCB",06-02-2024 00:00:00,21.51161,86.89088,NO2,6,26,15
India,Odisha,Barbil,"Forest Office, Barbil - OSPCB",06-02-2024 00:00:00,22.1166054,85.3945546,PM10,120,413,198
India,Odisha,Barbil,"Forest Office, Barbil - OSPCB",06-02-2024 00:00:00,22.1166054,85.3945546,NH3,4,5,4
India,Odisha,Baripada,"Meher Colony, Baripada - OSPCB",06-02-2024 00:00:00,21.941841,86.728318,NO2,2,4,3
India,Odisha,Baripada,"Meher Colony, Baripada - OSPCB",06-02-2024 00:00:00,21.941841,86.728318,NH3,4,4,4
India,Odisha,Baripada,"Meher Colony, Baripada - OSPCB",06-02-2024 00:00:00,21.941841,86.728318,OZONE,10,68,38
India,Odisha,Bhubaneswar,"Patia, Bhubaneswar - OSPCB",06-02-2024 00:00:00,20.34652,85.81630,CO,10,48,22
India,Odisha,Bhubaneswar,"Patia, Bhubaneswar - OSPCB",06-02-2024 00:00:00,20.34652,85.81630,OZONE,9,130,67
India,Odisha,Byasanagar,"Ferro Chrome Colony, Byasanagar - OSPCB",06-02-2024 00:00:00,20.94185,86.11510,NO2,10,44,21
India,Odisha,Byasanagar,"Ferro Chrome Colony, Byasanagar - OSPCB",06-02-2024 00:00:00,20.94185,86.11510,SO2,3,104,21
India,Odisha,Byasanagar,"Ferro Chrome Colony, Byasanagar - OSPCB",06-02-2024 00:00:00,20.94185,86.11510,CO,31,126,91
India,Odisha,Cuttack,"CDA Area, Cuttack - OSPCB",06-02-2024 00:00:00,20.48891     ,85.84768     ,PM10,45,123,95
India,Odisha,Cuttack,"CDA Area, Cuttack - OSPCB",06-02-2024 00:00:00,20.48891     ,85.84768     ,CO,28,50,34
India,Odisha,Keonjhar,"Jagamohanpur, Keonjhar - OSPCB",06-02-2024 00:00:00,21.643900,85.599355,SO2,12,30,15
India,Odisha,Nayagarh,"Dabuna, Nayagarh - OSPCB",06-02-2024 00:00:00,21.847279,85.416905,OZONE,1,55,10
India,Odisha,Rourkela,"Raghunathpali, Rourkela - OSPCB",06-02-2024 00:00:00,22.220833,84.809444,PM10,110,176,141
India,Odisha,Rourkela,"Raghunathpali, Rourkela - OSPCB",06-02-2024 00:00:00,22.220833,84.809444,OZONE,16,111,32
India,Puducherry,Puducherry,"Jawahar Nagar, Puducherry - PPCC",06-02-2024 00:00:00,11.9309,79.8027,OZONE,4,45,33
India,Punjab,Amritsar,"Golden Temple, Amritsar - PPCB",06-02-2024 00:00:00,31.620000,74.876512,NH3,NA,NA,NA
India,Punjab,Bathinda,"Hardev Nagar, Bathinda - PPCB",06-02-2024 00:00:00,30.233011,74.907758,SO2,5,72,35
India,Punjab,Ludhiana,"Punjab Agricultural University, Ludhiana - PPCB",06-02-2024 00:00:00,30.9028,75.8086,NO2,23,31,27
India,Punjab,Ludhiana,"Punjab Agricultural University, Ludhiana - PPCB",06-02-2024 00:00:00,30.9028,75.8086,SO2,4,9,7
India,Punjab,Patiala,"Model Town, Patiala - PPCB",06-02-2024 00:00:00,30.349388,76.366642,CO,23,47,32
India,Rajasthan,Ajmer,"Civil Lines,  Ajmer - RSPCB",06-02-2024 00:00:00,26.470859,74.646594,PM10,20,101,52
India,Rajasthan,Ajmer,"Civil Lines,  Ajmer - RSPCB",06-02-2024 00:00:00,26.470859,74.646594,SO2,12,27,16
India,Rajasthan,Ajmer,"Civil Lines,  Ajmer - RSPCB",06-02-2024 00:00:00,26.470859,74.646594,CO,10,46,21
India,Rajasthan,Alwar,"Moti Doongri, Alwar - RSPCB",06-02-2024 00:00:00,27.554793,76.611536,NO2,NA,NA,NA
India,Rajasthan,Banswara,"Rati Talai, Banswara - RSPCB",06-02-2024 00:00:00,23.555190,74.440010,PM10,89,295,141
India,Rajasthan,Bundi,"New Colony, Bundi - RSPCB",06-02-2024 00:00:00,25.435774,75.644272,PM2.5,52,106,77
India,Rajasthan,Bundi,"New Colony, Bundi - RSPCB",06-02-2024 00:00:00,25.435774,75.644272,PM10,65,151,98
India,Rajasthan,Bundi,"New Colony, Bundi - RSPCB",06-02-2024 00:00:00,25.435774,75.644272,CO,16,54,26
India,Rajasthan,Bundi,"New Colony, Bundi - RSPCB",06-02-2024 00:00:00,25.435774,75.644272,OZONE,13,55,29
India,Rajasthan,Chittorgarh,"Shastri Nagar, Chittorgarh - RSPCB",06-02-2024 00:00:00,24.892047,74.623527,PM2.5,12,123,66
India,Rajasthan,Churu,"Subash Chowk, Churu - RSPCB",06-02-2024 00:00:00,28.296139,74.961696,NO2,7,41,16
India,Rajasthan,Churu,"Subash Chowk, Churu - RSPCB",06-02-2024 00:00:00,28.296139,74.961696,NH3,8,13,10
India,Rajasthan,Churu,"Subash Chowk, Churu - RSPCB",06-02-2024 00:00:00,28.296139,74.961696,SO2,11,15,13
India,Rajasthan,Dausa,"Khatikan Mohalla, Dausa - RSPCB",06-02-2024 00:00:00,26.895552,76.334753,OZONE,7,45,20
India,Rajasthan,Dholpur,"Raja Ganj, Dholpur - RSPCB",06-02-2024 00:00:00,26.699557,77.898881,PM2.5,98,339,232
India,Rajasthan,Dholpur,"Raja Ganj, Dholpur - RSPCB",06-02-2024 00:00:00,26.699557,77.898881,SO2,1,5,3
India,Rajasthan,Jaipur,"Adarsh Nagar, Jaipur - RSPCB",06-02-2024 00:00:00,26.902909,75.836858,NO2,13,46,23
India,Rajasthan,Jaipur,"Police Commissionerate, Jaipur - RSPCB",06-02-2024 00:00:00,26.9164092,75.7994901,NH3,10,20,15
India,Rajasthan,Jaipur,"RIICO Sitapura, Jaipur - RSPCB",06-02-2024 00:00:00,26.786682,75.827928,PM2.5,24,317,99
India,Rajasthan,Jaipur,"Shastri Nagar, Jaipur - RSPCB",06-02-2024 00:00:00,26.9502929,75.730943,SO2,9,25,20
India,Rajasthan,Jaipur,"Shastri Nagar, Jaipur - RSPCB",06-02-2024 00:00:00,26.9502929,75.730943,CO,4,65,38
India,Rajasthan,Jaisalmer,"Sadar Bazar, Jaisalmer - RSPCB",06-02-2024 00:00:00,26.912329,70.909168,NO2,3,67,17
India,Rajasthan,Jaisalmer,"Sadar Bazar, Jaisalmer - RSPCB",06-02-2024 00:00:00,26.912329,70.909168,SO2,5,8,7
India,Rajasthan,Jaisalmer,"Sadar Bazar, Jaisalmer - RSPCB",06-02-2024 00:00:00,26.912329,70.909168,CO,16,48,29
India,Rajasthan,Jalore,"Mudtra Sili, Jalore - RSPCB",06-02-2024 00:00:00,25.344694,72.626208,CO,23,88,53
India,Rajasthan,Jhalawar,"Rajlaxmi Nagar, Jhalawar - RSPCB",06-02-2024 00:00:00,24.588397,76.172782,NO2,13,21,16
India,Rajasthan,Jhunjhunu,"Indra Nagar, Jhunjhunu - RSPCB",06-02-2024 00:00:00,28.108988,75.386577,PM2.5,18,177,90
India,Rajasthan,Jhunjhunu,"Indra Nagar, Jhunjhunu - RSPCB",06-02-2024 00:00:00,28.108988,75.386577,PM10,58,173,105
India,Rajasthan,Jodhpur,"Collectorate, Jodhpur - RSPCB",06-02-2024 00:00:00,26.268249,73.0193853,PM10,58,401,154
India,Rajasthan,Jodhpur,"Collectorate, Jodhpur - RSPCB",06-02-2024 00:00:00,26.268249,73.0193853,SO2,1,37,15
India,Rajasthan,Jodhpur,"Digari Kalan, Jodhpur - RSPCB",06-02-2024 00:00:00,26.295810,73.082283,PM10,59,131,93
India,Rajasthan,Jodhpur,"Digari Kalan, Jodhpur - RSPCB",06-02-2024 00:00:00,26.295810,73.082283,NO2,12,94,32
India,Rajasthan,Jodhpur,"Digari Kalan, Jodhpur - RSPCB",06-02-2024 00:00:00,26.295810,73.082283,NH3,6,10,7
India,Rajasthan,Jodhpur,"Digari Kalan, Jodhpur - RSPCB",06-02-2024 00:00:00,26.295810,73.082283,OZONE,11,104,54
India,Rajasthan,Jodhpur,"Jhalamand, Jodhpur - RSPCB",06-02-2024 00:00:00,26.215415,73.070156,NH3,10,23,13
India,Rajasthan,Jodhpur,"Jhalamand, Jodhpur - RSPCB",06-02-2024 00:00:00,26.215415,73.070156,SO2,3,5,4
India,Rajasthan,Jodhpur,"Samrat Ashok Udhyan, Jodhpur - RSPCB",06-02-2024 00:00:00,26.253384,72.976571,SO2,2,5,4
India,Rajasthan,Jodhpur,"Samrat Ashok Udhyan, Jodhpur - RSPCB",06-02-2024 00:00:00,26.253384,72.976571,CO,25,67,44
India,Rajasthan,Karauli,"Satyawati Vihar, Karauli - RSPCB",06-02-2024 00:00:00,26.506177,77.025989,NO2,15,39,23
India,Rajasthan,Karauli,"Satyawati Vihar, Karauli - RSPCB",06-02-2024 00:00:00,26.506177,77.025989,OZONE,11,23,14
India,Rajasthan,Kota,"Dhanmandi, Kota - RSPCB",06-02-2024 00:00:00,25.164090,75.858137,PM10,76,134,101
India,Rajasthan,Kota,"Shrinath Puram, Kota - RSPCB",06-02-2024 00:00:00,25.14389,75.821256,NH3,NA,NA,NA
India,Rajasthan,Pali,"Indira Colony Vistar, Pali - RSPCB",06-02-2024 00:00:00,25.771061, 73.340227,NH3,6,17,13
India,Rajasthan,Pratapgarh,"Pragati Nagar, Pratapgarh - RSPCB",06-02-2024 00:00:00,24.041198,74.780702,CO,11,34,19
India,Rajasthan,Sawai Madhopur,"Sahu Nagar, Sawai Madhopur - RSPCB",06-02-2024 00:00:00,26.031443,76.359327,NH3,1,19,9
India,Rajasthan,Sirohi,"Vedhaynath Colony, Sirohi - RSPCB",06-02-2024 00:00:00,24.885261,72.857549,NH3,6,12,9
India,Rajasthan,Sirohi,"Vedhaynath Colony, Sirohi - RSPCB",06-02-2024 00:00:00,24.885261,72.857549,CO,13,54,32
India,Rajasthan,Sri Ganganagar,"Old City, Sri Ganganagar - RSPCB",06-02-2024 00:00:00,29.931624,73.864511,NO2,17,92,48
India,Rajasthan,Sri Ganganagar,"Old City, Sri Ganganagar - RSPCB",06-02-2024 00:00:00,29.931624,73.864511,CO,18,121,72
India,Rajasthan,Udaipur,"Ashok Nagar, Udaipur - RSPCB",06-02-2024 00:00:00,24.5886166,73.6321397,PM10,NA,NA,NA
India,Sikkim,Gangtok,"Zero Point GICI, Gangtok - SSPCB",06-02-2024 00:00:00,27.338530,88.614099,PM10,32,65,45
India,Sikkim,Gangtok,"Zero Point GICI, Gangtok - SSPCB",06-02-2024 00:00:00,27.338530,88.614099,OZONE,10,35,14
India,TamilNadu,Ariyalur,"Keelapalur, Ariyalur - TNPCB",06-02-2024 00:00:00,11.06825,79.07033,PM10,14,45,27
India,TamilNadu,Chennai,"Alandur Bus Depot, Chennai - CPCB",06-02-2024 00:00:00,12.9099161,80.1076538,NH3,6,13,8
India,TamilNadu,Chennai,"Alandur Bus Depot, Chennai - CPCB",06-02-2024 00:00:00,12.9099161,80.1076538,CO,62,64,63
India,TamilNadu,Chennai,"Arumbakkam, Chennai - TNPCB",06-02-2024 00:00:00,13.0664,80.2112 ,SO2,1,20,6
India,TamilNadu,Chennai,"Kodungaiyur, Chennai - TNPCB",06-02-2024 00:00:00,13.1278,80.2642,NH3,3,12,4
India,TamilNadu,Chennai,"Manali, Chennai - CPCB",06-02-2024 00:00:00,13.164544,80.26285,OZONE,11,28,15
India,TamilNadu,Chennai,"Perungudi, Chennai - TNPCB",06-02-2024 00:00:00,12.9533,80.2357,SO2,1,6,2
India,TamilNadu,Chennai,"Perungudi, Chennai - TNPCB",06-02-2024 00:00:00,12.9533,80.2357,OZONE,3,8,7
India,TamilNadu,Chennai,"Royapuram, Chennai - TNPCB",06-02-2024 00:00:00,13.1036,80.2909,NO2,11,29,18
India,TamilNadu,Chennai,"Royapuram, Chennai - TNPCB",06-02-2024 00:00:00,13.1036,80.2909,NH3,1,1,1
India,TamilNadu,Chennai,"Royapuram, Chennai - TNPCB",06-02-2024 00:00:00,13.1036,80.2909,SO2,1,8,3
India,TamilNadu,Chennai,"Royapuram, Chennai - TNPCB",06-02-2024 00:00:00,13.1036,80.2909,CO,16,53,20
India,TamilNadu,Chennai,"Velachery Res. Area, Chennai - CPCB",06-02-2024 00:00:00,13.0052189,80.2398125,NH3,5,8,6
India,TamilNadu,Chennai,"Velachery Res. Area, Chennai - CPCB",06-02-2024 00:00:00,13.0052189,80.2398125,SO2,1,55,22
India,TamilNadu,Chennai,"Velachery Res. Area, Chennai - CPCB",06-02-2024 00:00:00,13.0052189,80.2398125,OZONE,7,26,22
India,TamilNadu,Coimbatore,"PSG College of Arts and Science, Coimbatore - TNPCB",06-02-2024 00:00:00,11.0328,77.0349,OZONE,3,6,4
India,TamilNadu,Gummidipoondi,"Anthoni Pillai Nagar, Gummidipoondi - TNPCB",06-02-2024 00:00:00,13.4127,80.1081,PM2.5,13,348,96
India,TamilNadu,Kanchipuram,"Kilambi, Kanchipuram - TNPCB",06-02-2024 00:00:00,12.864618,79.659968,NH3,NA,NA,NA
India,TamilNadu,Kanchipuram,"Kilambi, Kanchipuram - TNPCB",06-02-2024 00:00:00,12.864618,79.659968,CO,1,2,2
India,TamilNadu,Palkalaiperur,"Bharathidasan University, Palkalaiperur - TNPCB",06-02-2024 00:00:00,10.681158,78.741746,PM10,19,50,30
India,TamilNadu,Salem,"Sona College of Technology, Salem - TNPCB",06-02-2024 00:00:00,11.679111,78.125052,PM2.5,NA,NA,NA
India,TamilNadu,Salem,"Sona College of Technology, Salem - TNPCB",06-02-2024 00:00:00,11.679111,78.125052,PM10,NA,NA,NA
India,TamilNadu,Salem,"Sona College of Technology, Salem - TNPCB",06-02-2024 00:00:00,11.679111,78.125052,CO,40,42,42
India,TamilNadu,Vellore,"Vasanthapuram, Vellore - TNPCB",06-02-2024 00:00:00,12.909494,79.131861,OZONE,1,2,1
India,TamilNadu,Virudhunagar,"Collectorate Office, Virudhunagar - TNPCB",06-02-2024 00:00:00,9.559382,77.948828,CO,21,25,23
India,Telangana,Hyderabad,"Bollaram Industrial Area, Hyderabad - TSPCB",06-02-2024 00:00:00,17.540891,78.358528,PM2.5,57,115,72
India,Telangana,Hyderabad,"Bollaram Industrial Area, Hyderabad - TSPCB",06-02-2024 00:00:00,17.540891,78.358528,PM10,60,138,96
India,Telangana,Hyderabad,"Bollaram Industrial Area, Hyderabad - TSPCB",06-02-2024 00:00:00,17.540891,78.358528,NH3,3,5,3
India,Telangana,Hyderabad,"Bollaram Industrial Area, Hyderabad - TSPCB",06-02-2024 00:00:00,17.540891,78.358528,CO,20,46,35
India,Telangana,Hyderabad,"Bollaram Industrial Area, Hyderabad - TSPCB",06-02-2024 00:00:00,17.540891,78.358528,OZONE,34,40,37
India,Telangana,Hyderabad,"Central University, Hyderabad - TSPCB",06-02-2024 00:00:00,17.460103,78.334361,OZONE,3,4,4
India,Telangana,Hyderabad,"ECIL Kapra, Hyderabad - TSPCB",06-02-2024 00:00:00,17.470431,78.566959,SO2,1,18,10
India,Telangana,Hyderabad,"ECIL Kapra, Hyderabad - TSPCB",06-02-2024 00:00:00,17.470431,78.566959,CO,10,24,15
India,Telangana,Hyderabad,"ICRISAT Patancheru, Hyderabad - TSPCB",06-02-2024 00:00:00,17.518400,78.278777,PM2.5,47,77,59
India,Telangana,Hyderabad,"IITH Kandi, Hyderabad - TSPCB",06-02-2024 00:00:00,17.585705,78.126199,NO2,7,13,10
India,Telangana,Hyderabad,"IITH Kandi, Hyderabad - TSPCB",06-02-2024 00:00:00,17.585705,78.126199,NH3,2,3,3
India,Telangana,Hyderabad,"Kokapet, Hyderabad - TSPCB",06-02-2024 00:00:00,17.393559,78.339194,PM2.5,NA,NA,NA
India,Telangana,Hyderabad,"Kokapet, Hyderabad - TSPCB",06-02-2024 00:00:00,17.393559,78.339194,CO,10,21,17
India,Telangana,Hyderabad,"Kompally Municipal Office, Hyderabad - TSPCB",06-02-2024 00:00:00,17.544899,78.486949,NO2,6,8,7
India,Telangana,Hyderabad,"Kompally Municipal Office, Hyderabad - TSPCB",06-02-2024 00:00:00,17.544899,78.486949,SO2,5,8,7
India,Telangana,Hyderabad,"New Malakpet, Hyderabad - TSPCB",06-02-2024 00:00:00,17.37206,78.50864,SO2,12,22,17
India,Telangana,Hyderabad,"New Malakpet, Hyderabad - TSPCB",06-02-2024 00:00:00,17.37206,78.50864,CO,14,42,31
India,Telangana,Hyderabad,"New Malakpet, Hyderabad - TSPCB",06-02-2024 00:00:00,17.37206,78.50864,OZONE,3,37,15
India,Telangana,Hyderabad,"Sanathnagar, Hyderabad - TSPCB",06-02-2024 00:00:00,17.4559458,78.4332152,CO,38,48,41
India,Telangana,Hyderabad,"Somajiguda, Hyderabad - TSPCB",06-02-2024 00:00:00,17.417094,78.457437,PM10,68,86,73
India,Tripura,Agartala,"Bardowali, Agartala - Tripura SPCB",06-02-2024 00:00:00,23.8175497,91.2726974,OZONE,1,28,4
India,Uttar_Pradesh,Agra,"Manoharpur, Agra - UPPCB",06-02-2024 00:00:00,27.23711,78.01936,SO2,23,24,23
India,Uttar_Pradesh,Agra,"Manoharpur, Agra - UPPCB",06-02-2024 00:00:00,27.23711,78.01936,CO,8,11,9
India,Uttar_Pradesh,Agra,"Rohta, Agra - UPPCB",06-02-2024 00:00:00,27.106972,78.000111,OZONE,16,18,17
India,Uttar_Pradesh,Agra,"Sanjay Palace, Agra - UPPCB",06-02-2024 00:00:00,27.19865833,78.00598056,PM2.5,18,49,33
India,Uttar_Pradesh,Agra,"Sanjay Palace, Agra - UPPCB",06-02-2024 00:00:00,27.19865833,78.00598056,CO,19,62,53
India,Uttar_Pradesh,Agra,"Sector-3B Avas Vikas Colony, Agra - UPPCB",06-02-2024 00:00:00,27.19412,77.96237,PM2.5,NA,NA,NA
India,Uttar_Pradesh,Agra,"Sector-3B Avas Vikas Colony, Agra - UPPCB",06-02-2024 00:00:00,27.19412,77.96237,SO2,12,14,13
India,Uttar_Pradesh,Agra,"Sector-3B Avas Vikas Colony, Agra - UPPCB",06-02-2024 00:00:00,27.19412,77.96237,CO,1,14,8
India,Uttar_Pradesh,Agra,"Shahjahan Garden, Agra - UPPCB",06-02-2024 00:00:00,27.169338,78.03582,PM2.5,28,89,41
India,Uttar_Pradesh,Agra,"Shahjahan Garden, Agra - UPPCB",06-02-2024 00:00:00,27.169338,78.03582,NH3,8,14,13
India,Uttar_Pradesh,Agra,"Shastripuram, Agra - UPPCB",06-02-2024 00:00:00,27.19862,77.92066,NH3,2,15,4
India,Uttar_Pradesh,Agra,"Shastripuram, Agra - UPPCB",06-02-2024 00:00:00,27.19862,77.92066,OZONE,1,6,2
India,Uttar_Pradesh,Baghpat,"Sardar Patel Inter College, Baghpat - UPPCB",06-02-2024 00:00:00,28.964949,77.278761,NH3,2,4,3
India,Uttar_Pradesh,Baghpat,"Sardar Patel Inter College, Baghpat - UPPCB",06-02-2024 00:00:00,28.964949,77.278761,OZONE,1,18,10
India,Uttar_Pradesh,Bareilly,"Rajendra Nagar, Bareilly - UPPCB",06-02-2024 00:00:00,28.38910936,79.42963708,SO2,41,48,42
India,Uttar_Pradesh,Bareilly,"Rajendra Nagar, Bareilly - UPPCB",06-02-2024 00:00:00,28.38910936,79.42963708,CO,20,91,39
India,Uttar_Pradesh,Firozabad,"Nagla Bhau, Firozabad - UPPCB",06-02-2024 00:00:00,27.168897,78.376960,NO2,17,17,17
India,Uttar_Pradesh,Firozabad,"Nagla Bhau, Firozabad - UPPCB",06-02-2024 00:00:00,27.168897,78.376960,SO2,12,26,18
India,Uttar_Pradesh,Ghaziabad,"Loni, Ghaziabad - UPPCB",06-02-2024 00:00:00,28.757294,77.278792,PM2.5,NA,NA,NA
India,Uttar_Pradesh,Ghaziabad,"Loni, Ghaziabad - UPPCB",06-02-2024 00:00:00,28.757294,77.278792,OZONE,4,39,19
India,Uttar_Pradesh,Ghaziabad,"Sanjay Nagar, Ghaziabad - UPPCB",06-02-2024 00:00:00,28.685382,77.453839,SO2,9,22,16
India,Uttar_Pradesh,Ghaziabad,"Vasundhara, Ghaziabad - UPPCB",06-02-2024 00:00:00,28.6603346,77.3572563,NH3,8,20,13
India,Uttar_Pradesh,Ghaziabad,"Vasundhara, Ghaziabad - UPPCB",06-02-2024 00:00:00,28.6603346,77.3572563,SO2,2,23,13
India,Uttar_Pradesh,Greater Noida,"Knowledge Park - III, Greater Noida - UPPCB",06-02-2024 00:00:00,28.47272,77.482000,PM2.5,150,305,224
India,Uttar_Pradesh,Greater Noida,"Knowledge Park - V, Greater Noida - UPPCB",06-02-2024 00:00:00,28.557054,77.453663,PM10,68,222,132
India,Uttar_Pradesh,Hapur,"Anand Vihar, Hapur - UPPCB",06-02-2024 00:00:00,28.725645,77.749675,PM10,84,151,119
India,Uttar_Pradesh,Hapur,"Anand Vihar, Hapur - UPPCB",06-02-2024 00:00:00,28.725645,77.749675,NH3,8,12,10
India,Uttar_Pradesh,Jhansi,"Shivaji Nagar, Jhansi - UPPCB",06-02-2024 00:00:00,25.4547,78.6039,PM2.5,47,77,62
India,Uttar_Pradesh,Jhansi,"Shivaji Nagar, Jhansi - UPPCB",06-02-2024 00:00:00,25.4547,78.6039,PM10,8,108,87
India,Uttar_Pradesh,Jhansi,"Shivaji Nagar, Jhansi - UPPCB",06-02-2024 00:00:00,25.4547,78.6039,OZONE,1,64,16
India,Uttar_Pradesh,Kanpur,"FTI Kidwai Nagar, Kanpur - UPPCB",06-02-2024 00:00:00,26.428282,80.327067,NO2,14,15,14
India,Uttar_Pradesh,Khurja,"Kalindi Kunj, Khurja - UPPCB",06-02-2024 00:00:00,28.2348927,77.8683002,PM10,2,64,30
India,Uttar_Pradesh,Khurja,"Kalindi Kunj, Khurja - UPPCB",06-02-2024 00:00:00,28.2348927,77.8683002,NH3,1,1,1
India,Uttar_Pradesh,Khurja,"Kalindi Kunj, Khurja - UPPCB",06-02-2024 00:00:00,28.2348927,77.8683002,CO,4,24,15
India,Uttar_Pradesh,Lucknow,"B R Ambedkar University, Lucknow - UPPCB",06-02-2024 00:00:00,26.766433,80.927299,PM10,43,78,60
India,Uttar_Pradesh,Lucknow,"Gomti Nagar, Lucknow - UPPCB",06-02-2024 00:00:00,26.868120,81.005119,PM2.5,8,24,14
India,Uttar_Pradesh,Lucknow,"Gomti Nagar, Lucknow - UPPCB",06-02-2024 00:00:00,26.868120,81.005119,PM10,25,44,32
India,Uttar_Pradesh,Lucknow,"Kendriya Vidyalaya, Lucknow - CPCB",06-02-2024 00:00:00,26.906111,80.948222,NO2,14,95,36
India,Uttar_Pradesh,Lucknow,"Kukrail Picnic Spot-1, Lucknow - UPPCB",06-02-2024 00:00:00,26.90723,80.98579,NH3,2,2,2
India,Uttar_Pradesh,Lucknow,"Kukrail Picnic Spot-1, Lucknow - UPPCB",06-02-2024 00:00:00,26.90723,80.98579,OZONE,2,20,8
India,Uttar_Pradesh,Lucknow,"Lalbagh, Lucknow - CPCB",06-02-2024 00:00:00,26.8458805,80.9365541,SO2,3,43,12
India,Uttar_Pradesh,Lucknow,"Talkatora District Industries Center, Lucknow - CPCB",06-02-2024 00:00:00,26.83399722,80.8917361,PM10,NA,NA,NA
India,Uttar_Pradesh,Lucknow,"Talkatora District Industries Center, Lucknow - CPCB",06-02-2024 00:00:00,26.83399722,80.8917361,CO,27,72,43
India,Uttar_Pradesh,Meerut,"Ganga Nagar, Meerut - UPPCB",06-02-2024 00:00:00,28.999264,77.7590354,PM2.5,32,156,63
India,Uttar_Pradesh,Meerut,"Ganga Nagar, Meerut - UPPCB",06-02-2024 00:00:00,28.999264,77.7590354,NH3,11,17,13
India,Uttar_Pradesh,Meerut,"Pallavpuram Phase 2, Meerut - UPPCB",06-02-2024 00:00:00,29.063510,77.709723,SO2,5,16,11
India,Uttar_Pradesh,Moradabad,"Buddhi Vihar, Moradabad - UPPCB",06-02-2024 00:00:00,28.83526,78.74460,OZONE,13,17,14
India,Uttar_Pradesh,Moradabad,"Eco Herbal Park, Moradabad - UPPCB",06-02-2024 00:00:00,28.840739,78.697531,NO2,3,44,14
India,Uttar_Pradesh,Moradabad,"Employment Office, Moradabad - UPPCB",06-02-2024 00:00:00,28.88528,78.73880,PM2.5,37,86,56
India,Uttar_Pradesh,Moradabad,"Jigar Colony, Moradabad - UPPCB",06-02-2024 00:00:00,28.856664,78.772638,CO,14,50,36
India,Uttar_Pradesh,Moradabad,"Kashiram Nagar, Moradabad - UPPCB",06-02-2024 00:00:00,28.849399,78.742362,NO2,1,71,24
India,Uttar_Pradesh,Moradabad,"Kashiram Nagar, Moradabad - UPPCB",06-02-2024 00:00:00,28.849399,78.742362,CO,6,46,32
India,Uttar_Pradesh,Moradabad,"Transport Nagar, Moradabad - UPPCB",06-02-2024 00:00:00,28.802625,78.753728,PM10,36,115,56
India,Uttar_Pradesh,Moradabad,"Transport Nagar, Moradabad - UPPCB",06-02-2024 00:00:00,28.802625,78.753728,CO,40,42,40
India,Uttar_Pradesh,Muzaffarnagar,"New Mandi, Muzaffarnagar - UPPCB",06-02-2024 00:00:00,29.4723508,77.7194031,NH3,6,10,8
India,Uttar_Pradesh,Muzaffarnagar,"New Mandi, Muzaffarnagar - UPPCB",06-02-2024 00:00:00,29.4723508,77.7194031,CO,14,115,23
India,Uttar_Pradesh,Noida,"Sector - 125, Noida - UPPCB",06-02-2024 00:00:00,28.5447608,77.3231257,PM2.5,70,134,90
India,Uttar_Pradesh,Noida,"Sector - 62, Noida - IMD",06-02-2024 00:00:00,28.6245479,77.3577104,PM2.5,75,175,107
India,Uttar_Pradesh,Noida,"Sector - 62, Noida - IMD",06-02-2024 00:00:00,28.6245479,77.3577104,PM10,75,186,132
India,Uttar_Pradesh,Noida,"Sector-1, Noida - UPPCB",06-02-2024 00:00:00,28.5898,77.3101,CO,20,51,35
India,Uttar_Pradesh,Prayagraj,"Jhunsi, Prayagraj - UPPCB",06-02-2024 00:00:00,25.425602,81.917152,PM10,16,121,57
India,Uttar_Pradesh,Prayagraj,"Jhunsi, Prayagraj - UPPCB",06-02-2024 00:00:00,25.425602,81.917152,SO2,30,33,31
India,Uttar_Pradesh,Prayagraj,"Motilal Nehru NIT, Prayagraj - UPPCB",06-02-2024 00:00:00,25.494,81.863,NO2,12,14,12
India,Uttar_Pradesh,Prayagraj,"Nagar Nigam, Prayagraj - UPPCB",06-02-2024 00:00:00,25.44919916 ,81.82735986 ,NO2,11,11,11
India,Uttar_Pradesh,Prayagraj,"Nagar Nigam, Prayagraj - UPPCB",06-02-2024 00:00:00,25.44919916 ,81.82735986 ,SO2,21,84,47
India,Uttar_Pradesh,Prayagraj,"Nagar Nigam, Prayagraj - UPPCB",06-02-2024 00:00:00,25.44919916 ,81.82735986 ,CO,3,34,11
India,Uttar_Pradesh,Prayagraj,"Nagar Nigam, Prayagraj - UPPCB",06-02-2024 00:00:00,25.44919916 ,81.82735986 ,OZONE,10,11,11
India,Uttar_Pradesh,Varanasi,"Bhelupur, Varanasi - UPPCB",06-02-2024 00:00:00,25.301778,82.996789,PM10,17,77,37
India,Uttar_Pradesh,Varanasi,"IESD Banaras Hindu University, Varanasi - UPPCB",06-02-2024 00:00:00,25.262326,82.995408,PM10,4,55,22
India,Uttar_Pradesh,Varanasi,"Maldahiya, Varanasi - UPPCB",06-02-2024 00:00:00,25.32393,82.99687,NH3,1,1,1
India,Uttar_Pradesh,Vrindavan,"Omex Eternity, Vrindavan - UPPCB",06-02-2024 00:00:00,27.5714090,77.6557570,PM2.5,19,48,29
India,Uttar_Pradesh,Vrindavan,"Omex Eternity, Vrindavan - UPPCB",06-02-2024 00:00:00,27.5714090,77.6557570,SO2,36,38,36
India,Uttarakhand,Dehradun,"Doon University, Dehradun - UKPCB",06-02-2024 00:00:00,30.269444,78.044167,NO2,1,5,2
India,Uttarakhand,Kashipur,"Govt. Girls Inter College, Kashipur - UKPCB",06-02-2024 00:00:00,29.2124114,78.9611753,PM2.5,25,308,85
India,Uttarakhand,Kashipur,"Govt. Girls Inter College, Kashipur - UKPCB",06-02-2024 00:00:00,29.2124114,78.9611753,PM10,35,123,73
India,Uttarakhand,Rishikesh,"Shivaji Nagar, Rishikesh - UKPCB",06-02-2024 00:00:00,30.075911,78.2859547,PM10,9,31,20
India,Uttarakhand,Rishikesh,"Shivaji Nagar, Rishikesh - UKPCB",06-02-2024 00:00:00,30.075911,78.2859547,CO,16,35,27
India,West_Bengal,Asansol,"Asansol Court Area, Asansol - WBPCB",06-02-2024 00:00:00,23.685297,86.945968,PM2.5,55,226,138
India,West_Bengal,Asansol,"Asansol Court Area, Asansol - WBPCB",06-02-2024 00:00:00,23.685297,86.945968,NO2,22,95,53
India,West_Bengal,Barrackpore,"SVSPA Campus, Barrackpore - WBPCB",06-02-2024 00:00:00,22.7605581,88.3617589,NH3,1,4,3
India,West_Bengal,Barrackpore,"SVSPA Campus, Barrackpore - WBPCB",06-02-2024 00:00:00,22.7605581,88.3617589,CO,22,106,56
India,West_Bengal,Durgapur,"Sidhu Kanhu Indoor Stadium, Durgapur - WBPCB",06-02-2024 00:00:00,23.5404352,87.2892225,CO,23,48,39
India,West_Bengal,Howrah,"Belur Math, Howrah - WBPCB",06-02-2024 00:00:00,22.629801,88.352017,PM10,93,235,143
India,West_Bengal,Howrah,"Belur Math, Howrah - WBPCB",06-02-2024 00:00:00,22.629801,88.352017,CO,2,72,33
India,West_Bengal,Howrah,"Belur Math, Howrah - WBPCB",06-02-2024 00:00:00,22.629801,88.352017,OZONE,10,83,31
India,West_Bengal,Howrah,"Ghusuri, Howrah - WBPCB",06-02-2024 00:00:00,22.611968,88.347422,PM2.5,130,341,242
India,West_Bengal,Howrah,"Ghusuri, Howrah - WBPCB",06-02-2024 00:00:00,22.611968,88.347422,OZONE,9,26,14
India,West_Bengal,Howrah,"Padmapukur, Howrah - WBPCB",06-02-2024 00:00:00,22.5687319,88.2797276,PM10,114,173,133
India,West_Bengal,Kolkata,"Ballygunge, Kolkata - WBPCB",06-02-2024 00:00:00,22.5367507,88.3638022,PM10,102,167,128
India,West_Bengal,Kolkata,"Jadavpur, Kolkata - WBPCB",06-02-2024 00:00:00,22.49929,88.36917,CO,20,77,39
India,West_Bengal,Kolkata,"Rabindra Bharati University, Kolkata - WBPCB",06-02-2024 00:00:00,22.627847,88.380669,SO2,NA,NA,NA
India,West_Bengal,Kolkata,"Rabindra Bharati University, Kolkata - WBPCB",06-02-2024 00:00:00,22.627847,88.380669,CO,NA,NA,NA
India,West_Bengal,Kolkata,"Rabindra Sarobar, Kolkata - WBPCB",06-02-2024 00:00:00,22.51106,88.35142,NH3,3,9,5
India,West_Bengal,Kolkata,"Victoria, Kolkata - WBPCB",06-02-2024 00:00:00,22.5448082,88.3403691,NH3,1,16,8
India,West_Bengal,Siliguri,"Ward-32 Bapupara, Siliguri - WBPCB",06-02-2024 00:00:00,26.6879226,88.4152495,SO2,11,15,13
India,West_Bengal,Siliguri,"Ward-32 Bapupara, Siliguri - WBPCB",06-02-2024 00:00:00,26.6879226,88.4152495,OZONE,9,62,29
India,Andhra_Pradesh,Amaravati,"Secretariat, Amaravati - APPCB",06-02-2024 00:00:00,16.5150833,80.5181667,NH3,3,4,4
India,Andhra_Pradesh,Amaravati,"Secretariat, Amaravati - APPCB",06-02-2024 00:00:00,16.5150833,80.5181667,CO,13,47,35
India,Andhra_Pradesh,Anantapur,"Gulzarpet, Anantapur - APPCB",06-02-2024 00:00:00,14.675886,77.593027,PM10,50,100,64
India,Andhra_Pradesh,Chittoor,"Gangineni Cheruvu, Chittoor - APPCB",06-02-2024 00:00:00,13.204880,79.097889,OZONE,7,124,88
India,Andhra_Pradesh,Kadapa,"Yerramukkapalli, Kadapa - APPCB",06-02-2024 00:00:00,14.465052,78.824187,NO2,8,8,8
India,Andhra_Pradesh,Rajamahendravaram,"Anand Kala Kshetram, Rajamahendravaram - APPCB",06-02-2024 00:00:00,16.9872867,81.7363176,NH3,5,9,6
India,Andhra_Pradesh,Tirupati,"Vaikuntapuram, Tirupati - APPCB",06-02-2024 00:00:00,13.615387,79.409230,PM2.5,NA,NA,NA
India,Andhra_Pradesh,Tirupati,"Vaikuntapuram, Tirupati - APPCB",06-02-2024 00:00:00,13.615387,79.409230,PM10,NA,NA,NA
India,Andhra_Pradesh,Tirupati,"Vaikuntapuram, Tirupati - APPCB",06-02-2024 00:00:00,13.615387,79.409230,SO2,NA,NA,NA
India,Andhra_Pradesh,Tirupati,"Vaikuntapuram, Tirupati - APPCB",06-02-2024 00:00:00,13.615387,79.409230,CO,10,12,11
India,Andhra_Pradesh,Vijayawada,"HB Colony, Vijayawada - APPCB",06-02-2024 00:00:00,16.536107,80.594233,SO2,NA,NA,NA
India,Andhra_Pradesh,Vijayawada,"HB Colony, Vijayawada - APPCB",06-02-2024 00:00:00,16.536107,80.594233,CO,28,32,28
India,Andhra_Pradesh,Vijayawada,"Kanuru, Vijayawada - APPCB",06-02-2024 00:00:00,16.486692,80.699436,PM10,64,91,75
India,Andhra_Pradesh,Vijayawada,"Kanuru, Vijayawada - APPCB",06-02-2024 00:00:00,16.486692,80.699436,NO2,14,16,15
India,Andhra_Pradesh,Vijayawada,"Kanuru, Vijayawada - APPCB",06-02-2024 00:00:00,16.486692,80.699436,NH3,1,1,1
India,Andhra_Pradesh,Vijayawada,"Kanuru, Vijayawada - APPCB",06-02-2024 00:00:00,16.486692,80.699436,SO2,9,13,11
India,Andhra_Pradesh,Vijayawada,"Rajiv Gandhi Park, Vijayawada - APPCB",06-02-2024 00:00:00,16.509717,80.612222,PM10,38,79,61
India,Andhra_Pradesh,Vijayawada,"Rajiv Gandhi Park, Vijayawada - APPCB",06-02-2024 00:00:00,16.509717,80.612222,NH3,3,7,6
India,Andhra_Pradesh,Vijayawada,"Rajiv Nagar, Vijayawada - APPCB",06-02-2024 00:00:00,16.554731,80.649110,CO,20,36,28
India,Andhra_Pradesh,Visakhapatnam,"GVM Corporation, Visakhapatnam - APPCB",06-02-2024 00:00:00,17.72,83.3,PM2.5,55,185,89
India,Arunachal_Pradesh,Naharlagun,"Naharlagun, Naharlagun - APSPCB",06-02-2024 00:00:00,27.103358,93.679645,OZONE,2,2,2
India,Assam,Byrnihat,"Central Academy for SFS, Byrnihat - PCBA",06-02-2024 00:00:00,26.071318,91.87488,CO,8,64,54
India,Assam,Guwahati,"IITG, Guwahati - PCBA",06-02-2024 00:00:00,26.2028636,91.70046436,PM10,96,361,153
India,Assam,Guwahati,"IITG, Guwahati - PCBA",06-02-2024 00:00:00,26.2028636,91.70046436,NO2,1,6,2
India,Assam,Guwahati,"IITG, Guwahati - PCBA",06-02-2024 00:00:00,26.2028636,91.70046436,CO,10,18,12
India,Assam,Guwahati,"LGBI Airport, Guwahati - PCBA",06-02-2024 00:00:00,26.10887,91.589544,NO2,9,47,22
India,Assam,Guwahati,"LGBI Airport, Guwahati - PCBA",06-02-2024 00:00:00,26.10887,91.589544,CO,32,56,48
India,Assam,Guwahati,"Pan Bazaar, Guwahati - PCBA",06-02-2024 00:00:00,26.187500,91.744194,CO,29,48,36
India,Assam,Guwahati,"Railway Colony, Guwahati - PCBA",06-02-2024 00:00:00,26.181742,91.78063,CO,22,46,30
India,Assam,Nagaon,"Christianpatty, Nagaon - PCBA",06-02-2024 00:00:00,26.349082,92.68449,SO2,1,8,3
India,Assam,Nagaon,"Christianpatty, Nagaon - PCBA",06-02-2024 00:00:00,26.349082,92.68449,OZONE,7,69,47
India,Assam,Nalbari,"Bata Chowk, Nalbari - PCBA",06-02-2024 00:00:00,26.446912,91.439057,NH3,1,2,1
India,Assam,Nalbari,"Bata Chowk, Nalbari - PCBA",06-02-2024 00:00:00,26.446912,91.439057,OZONE,27,80,48
India,Assam,Silchar,"Tarapur, Silchar - PCBA",06-02-2024 00:00:00,24.82827,92.79525,SO2,1,9,3
India,Assam,Sivasagar,"Girls College, Sivasagar - PCBA",06-02-2024 00:00:00,26.987634,94.636574,NH3,2,3,2
India,Bihar,Araria,"Kharahiya Basti, Araria - BSPCB",06-02-2024 00:00:00,26.146529,87.454184,SO2,15,17,16
India,Bihar,Arrah,"New DM Office, Arrah - BSPCB",06-02-2024 00:00:00,25.5626095,84.663264,NH3,6,9,7
India,Bihar,Aurangabad,"Gurdeo Nagar, Aurangabad - BSPCB",06-02-2024 00:00:00,24.75746,84.366208,PM2.5,NA,NA,NA
India,Bihar,Aurangabad,"Gurdeo Nagar, Aurangabad - BSPCB",06-02-2024 00:00:00,24.75746,84.366208,SO2,NA,NA,NA
India,Bihar,Bhagalpur,"DM Office_Kachari Chowk, Bhagalpur - BSPCB",06-02-2024 00:00:00,25.251013,86.989001,NO2,52,86,70
India,Bihar,Bhagalpur,"DM Office_Kachari Chowk, Bhagalpur - BSPCB",06-02-2024 00:00:00,25.251013,86.989001,OZONE,24,50,27
India,Bihar,Bhagalpur,"Mayaganj, Bhagalpur - BSPCB",06-02-2024 00:00:00,25.265194,87.012947,NH3,8,9,9
India,Bihar,Bhagalpur,"Mayaganj, Bhagalpur - BSPCB",06-02-2024 00:00:00,25.265194,87.012947,CO,4,12,9
India,Bihar,Buxar,"Charitra Van, Buxar - BSPCB (Formerly known as Central Jail)",06-02-2024 00:00:00,25.567520,83.966379,OZONE,6,56,18
India,Bihar,Gaya,"Collectorate, Gaya - BSPCB",06-02-2024 00:00:00,24.7955,84.9994,CO,90,101,97
India,Bihar,Gaya,"Kareemganj, Gaya - BSPCB",06-02-2024 00:00:00,24.792403,84.992416,PM2.5,NA,NA,NA
India,Bihar,Gaya,"Kareemganj, Gaya - BSPCB",06-02-2024 00:00:00,24.792403,84.992416,OZONE,8,37,23
India,Bihar,Gaya,"SFTI Kusdihra, Gaya - BSPCB",06-02-2024 00:00:00,24.762518,84.982348,NH3,4,6,5
India,Bihar,Hajipur,"Industrial Area, Hajipur - BSPCB",06-02-2024 00:00:00,25.697189,85.245900,PM10,100,189,141
India,Bihar,Katihar,"Mirchaibari, Katihar - BSPCB",06-02-2024 00:00:00,25.560083,87.553265,PM2.5,48,260,146
India,Bihar,Katihar,"Mirchaibari, Katihar - BSPCB",06-02-2024 00:00:00,25.560083,87.553265,CO,NA,NA,NA
India,Bihar,Kishanganj,"SDM Office_Khagra, Kishanganj - BSPCB",06-02-2024 00:00:00,26.0881305,87.93840336,PM2.5,NA,NA,NA
India,Bihar,Kishanganj,"SDM Office_Khagra, Kishanganj - BSPCB",06-02-2024 00:00:00,26.0881305,87.93840336,NO2,NA,NA,NA
India,Bihar,Kishanganj,"SDM Office_Khagra, Kishanganj - BSPCB",06-02-2024 00:00:00,26.0881305,87.93840336,CO,7,17,12
India,Bihar,Kishanganj,"SDM Office_Khagra, Kishanganj - BSPCB",06-02-2024 00:00:00,26.0881305,87.93840336,OZONE,10,45,14
India,Bihar,Manguraha,"Forest Rest House, Manguraha - BSPCB",06-02-2024 00:00:00,27.308328,84.531742,PM10,48,133,92
India,Bihar,Manguraha,"Forest Rest House, Manguraha - BSPCB",06-02-2024 00:00:00,27.308328,84.531742,OZONE,32,72,38
India,Bihar,Motihari,"Gandak Colony, Motihari - BSPCB",06-02-2024 00:00:00,26.63086,84.90051,NH3,6,12,9
India,Bihar,Muzaffarpur,"Buddha Colony, Muzaffarpur - BSPCB",06-02-2024 00:00:00,26.11442,85.39813,SO2,6,9,8
India,Bihar,Muzaffarpur,"Buddha Colony, Muzaffarpur - BSPCB",06-02-2024 00:00:00,26.11442,85.39813,CO,1,54,32
India,Bihar,Muzaffarpur,"Muzaffarpur Collectorate, Muzaffarpur - BSPCB",06-02-2024 00:00:00,26.1209,85.3647,CO,16,64,34
India,Bihar,Muzaffarpur,"Muzaffarpur Collectorate, Muzaffarpur - BSPCB",06-02-2024 00:00:00,26.1209,85.3647,OZONE,16,82,33
India,Bihar,Patna,"DRM Office Danapur, Patna - BSPCB",06-02-2024 00:00:00,25.586562,85.043586,SO2,7,9,8
India,Bihar,Patna,"IGSC Planetarium Complex, Patna - BSPCB",06-02-2024 00:00:00,25.610369,85.132568,NO2,12,12,12
India,Bihar,Patna,"Rajbansi Nagar, Patna - BSPCB",06-02-2024 00:00:00,25.599486,85.113666,PM2.5,NA,NA,NA
India,Bihar,Patna,"Rajbansi Nagar, Patna - BSPCB",06-02-2024 00:00:00,25.599486,85.113666,OZONE,6,14,6
India,Bihar,Patna,"Samanpura, Patna - BSPCB",06-02-2024 00:00:00,25.596727,85.085624,NO2,27,48,34
India,Bihar,Patna,"Samanpura, Patna - BSPCB",06-02-2024 00:00:00,25.596727,85.085624,SO2,15,16,16
India,Bihar,Patna,"Samanpura, Patna - BSPCB",06-02-2024 00:00:00,25.596727,85.085624,CO,56,118,90
India,Bihar,Purnia,"Mariam Nagar, Purnia - BSPCB",06-02-2024 00:00:00,25.366336,87.117468,NO2,12,13,13
India,Bihar,Purnia,"Mariam Nagar, Purnia - BSPCB",06-02-2024 00:00:00,25.366336,87.117468,OZONE,10,22,14
India,Bihar,Rajgir,"Dangi Tola, Rajgir - BSPCB",06-02-2024 00:00:00,25.03280,85.41948,PM10,NA,NA,NA
India,Bihar,Rajgir,"Dangi Tola, Rajgir - BSPCB",06-02-2024 00:00:00,25.03280,85.41948,SO2,2,4,4
India,Bihar,Rajgir,"Dangi Tola, Rajgir - BSPCB",06-02-2024 00:00:00,25.03280,85.41948,CO,5,11,10
India,Bihar,Rajgir,"Dangi Tola, Rajgir - BSPCB",06-02-2024 00:00:00,25.03280,85.41948,OZONE,21,32,23
India,Bihar,Saharsa,"Police Line, Saharsa - BSPCB",06-02-2024 00:00:00,25.892357,86.590325,PM10,55,166,117
India,Bihar,Samastipur,"DM Office_Kasipur, Samastipur - BSPCB",06-02-2024 00:00:00,25.859655,85.77944,PM10,44,149,97
India,Bihar,Samastipur,"DM Office_Kasipur, Samastipur - BSPCB",06-02-2024 00:00:00,25.859655,85.77944,CO,6,30,10
India,Bihar,Siwan,"Chitragupta Nagar, Siwan - BSPCB",06-02-2024 00:00:00,26.2271665,84.3570427,PM2.5,NA,NA,NA
India,Bihar,Siwan,"Chitragupta Nagar, Siwan - BSPCB",06-02-2024 00:00:00,26.2271665,84.3570427,NO2,NA,NA,NA
India,Chandigarh,Chandigarh,"Sector 22, Chandigarh - CPCC",06-02-2024 00:00:00,30.735567,76.775714,PM2.5,52,190,104
India,Chandigarh,Chandigarh,"Sector 22, Chandigarh - CPCC",06-02-2024 00:00:00,30.735567,76.775714,PM10,53,131,87
India,Chandigarh,Chandigarh,"Sector 22, Chandigarh - CPCC",06-02-2024 00:00:00,30.735567,76.775714,NO2,20,67,35
India,Chandigarh,Chandigarh,"Sector-25, Chandigarh - CPCC",06-02-2024 00:00:00,30.751462,76.762879,PM10,77,145,102
India,Chandigarh,Chandigarh,"Sector-25, Chandigarh - CPCC",06-02-2024 00:00:00,30.751462,76.762879,NO2,8,24,15
India,Chandigarh,Chandigarh,"Sector-25, Chandigarh - CPCC",06-02-2024 00:00:00,30.751462,76.762879,NH3,9,15,11
India,Chandigarh,Chandigarh,"Sector-53, Chandigarh - CPCC",06-02-2024 00:00:00,30.719859,76.738637,OZONE,5,30,20
India,Chhattisgarh,Bhilai,"Civic Center, Bhilai - Bhilai Steel Plant",06-02-2024 00:00:00,21.185571,81.343175,NH3,2,4,2
India,Chhattisgarh,Bhilai,"Civic Center, Bhilai - Bhilai Steel Plant",06-02-2024 00:00:00,21.185571,81.343175,OZONE,8,59,24
India,Chhattisgarh,Bhilai,"Hathkhoj, Bhilai - CECB",06-02-2024 00:00:00,21.224231,81.408350,PM10,65,136,97
India,Chhattisgarh,Bhilai,"Hathkhoj, Bhilai - CECB",06-02-2024 00:00:00,21.224231,81.408350,NO2,22,52,33
India,Chhattisgarh,Bilaspur,"Mangala, Bilaspur - NTPC",06-02-2024 00:00:00,22.08815,82.13737,PM2.5,26,108,61
India,Chhattisgarh,Chhal,"Nawapara SECL Colony, Chhal - CECB",06-02-2024 00:00:00,22.118125,83.140608,PM2.5,71,161,102
India,Chhattisgarh,Chhal,"Nawapara SECL Colony, Chhal - CECB",06-02-2024 00:00:00,22.118125,83.140608,CO,53,106,78
India,Chhattisgarh,Chhal,"Nawapara SECL Colony, Chhal - CECB",06-02-2024 00:00:00,22.118125,83.140608,OZONE,1,75,27
India,Chhattisgarh,Korba,"Urja Nagar, Korba - CECB",06-02-2024 00:00:00,22.348441,82.549611,NH3,NA,NA,NA
India,Chhattisgarh,Korba,"Urja Nagar, Korba - CECB",06-02-2024 00:00:00,22.348441,82.549611,CO,36,70,47
India,Chhattisgarh,Kunjemura,"OP Jindal School, Kunjemura - CECB",06-02-2024 00:00:00,22.126650,83.483212,OZONE,2,113,35
India,Chhattisgarh,Milupara,"Govt. Higher Secondary School, Milupara - CECB",06-02-2024 00:00:00,22.1910172,83.5197009,PM10,23,171,70
India,Chhattisgarh,Milupara,"Govt. Higher Secondary School, Milupara - CECB",06-02-2024 00:00:00,22.1910172,83.5197009,NH3,1,2,2
India,Chhattisgarh,Raipur,"Bhatagaon New ISBT, Raipur - CECB",06-02-2024 00:00:00,21.219665,81.630094,NH3,1,4,2
India,Chhattisgarh,Raipur,"Bhatagaon New ISBT, Raipur - CECB",06-02-2024 00:00:00,21.219665,81.630094,OZONE,3,13,4
India,Chhattisgarh,Raipur,"Krishak Nagar, Raipur - CECB",06-02-2024 00:00:00,21.237755,81.705301,PM2.5,28,52,38
India,Chhattisgarh,Raipur,"Krishak Nagar, Raipur - CECB",06-02-2024 00:00:00,21.237755,81.705301,SO2,7,13,9
India,Chhattisgarh,Raipur,"Krishak Nagar, Raipur - CECB",06-02-2024 00:00:00,21.237755,81.705301,CO,33,44,39
India,Chhattisgarh,Tumidih,"OP Jindal Industrial Park, Tumidih - CECB",06-02-2024 00:00:00,22.06631475,83.33820077,SO2,NA,NA,NA
India,Delhi,Delhi,"Alipur, Delhi - DPCC",06-02-2024 00:00:00,28.815329,77.153010,CO,36,52,43
India,Delhi,Delhi,"Anand Vihar, Delhi - DPCC",06-02-2024 00:00:00,28.647622,77.3158090,OZONE,5,26,18
India,Delhi,Delhi,"Ashok Vihar, Delhi - DPCC",06-02-2024 00:00:00,28.695381,77.181665,PM2.5,127,258,190
India,Delhi,Delhi,"Ashok Vihar, Delhi - DPCC",06-02-2024 00:00:00,28.695381,77.181665,CO,56,105,64
India,Delhi,Delhi,"Ashok Vihar, Delhi - DPCC",06-02-2024 00:00:00,28.695381,77.181665,OZONE,4,9,6
India,Delhi,Delhi,"Bawana, Delhi - DPCC",06-02-2024 00:00:00,28.776200,77.051074,PM2.5,140,312,200
India,Delhi,Delhi,"Bawana, Delhi - DPCC",06-02-2024 00:00:00,28.776200,77.051074,CO,32,52,41
India,Delhi,Delhi,"Burari Crossing, Delhi - IMD",06-02-2024 00:00:00,28.7256504,77.2011573,NO2,NA,NA,NA
India,Delhi,Delhi,"DTU, Delhi - CPCB",06-02-2024 00:00:00,28.7500499,77.1112615,NH3,11,15,12
India,Delhi,Delhi,"DTU, Delhi - CPCB",06-02-2024 00:00:00,28.7500499,77.1112615,CO,20,36,21
India,Delhi,Delhi,"Dr. Karni Singh Shooting Range, Delhi - DPCC",06-02-2024 00:00:00,28.498571,77.264840,PM2.5,102,221,151
India,Delhi,Delhi,"Dr. Karni Singh Shooting Range, Delhi - DPCC",06-02-2024 00:00:00,28.498571,77.264840,PM10,95,164,125
India,Delhi,Delhi,"Dr. Karni Singh Shooting Range, Delhi - DPCC",06-02-2024 00:00:00,28.498571,77.264840,NO2,27,100,54
India,Delhi,Delhi,"Dr. Karni Singh Shooting Range, Delhi - DPCC",06-02-2024 00:00:00,28.498571,77.264840,SO2,5,8,7
India,Delhi,Delhi,"Dwarka-Sector 8, Delhi - DPCC ",06-02-2024 00:00:00,28.5710274,77.0719006,NH3,9,16,12
India,Delhi,Delhi,"IGI Airport (T3), Delhi - IMD",06-02-2024 00:00:00,28.5627763,77.1180053,PM10,103,156,129
India,Delhi,Delhi,"IGI Airport (T3), Delhi - IMD",06-02-2024 00:00:00,28.5627763,77.1180053,OZONE,11,33,18
India,Delhi,Delhi,"IHBAS, Dilshad Garden, Delhi - CPCB",06-02-2024 00:00:00,28.6811736,77.3025234,PM10,63,119,97
India,Delhi,Delhi,"IHBAS, Dilshad Garden, Delhi - CPCB",06-02-2024 00:00:00,28.6811736,77.3025234,OZONE,5,27,14
India,Delhi,Delhi,"ITO, Delhi - CPCB",06-02-2024 00:00:00,28.628624,77.241060,NO2,3,40,20
India,Delhi,Delhi,"ITO, Delhi - CPCB",06-02-2024 00:00:00,28.628624,77.241060,SO2,18,30,25
India,Delhi,Delhi,"ITO, Delhi - CPCB",06-02-2024 00:00:00,28.628624,77.241060,CO,32,56,45
India,Delhi,Delhi,"Jahangirpuri, Delhi - DPCC",06-02-2024 00:00:00,28.732820,77.170633,NO2,32,67,44
India,Delhi,Delhi,"Jawaharlal Nehru Stadium, Delhi - DPCC",06-02-2024 00:00:00,28.580280,77.233829,NH3,9,16,12
India,Delhi,Delhi,"Lodhi Road, Delhi - IITM",06-02-2024 00:00:00,28.588333,77.221667,SO2,23,33,29
India,Delhi,Delhi,"Lodhi Road, Delhi - IMD",06-02-2024 00:00:00,28.5918245,77.2273074,PM2.5,59,147,83
India,Delhi,Delhi,"Lodhi Road, Delhi - IMD",06-02-2024 00:00:00,28.5918245,77.2273074,OZONE,12,68,30
India,Delhi,Delhi,"Mandir Marg, Delhi - DPCC",06-02-2024 00:00:00,28.636429,77.201067,OZONE,1,47,14
India,Delhi,Delhi,"Mundka, Delhi - DPCC",06-02-2024 00:00:00,28.684678,77.076574,NH3,6,19,11
India,Delhi,Delhi,"Mundka, Delhi - DPCC",06-02-2024 00:00:00,28.684678,77.076574,SO2,6,103,11
India,Delhi,Delhi,"NSIT Dwarka, Delhi - CPCB",06-02-2024 00:00:00,28.60909,77.0325413,CO,27,106,71
India,Delhi,Delhi,"Najafgarh, Delhi - DPCC",06-02-2024 00:00:00,28.570173,76.933762,NO2,4,16,9
India,Delhi,Delhi,"Narela, Delhi - DPCC",06-02-2024 00:00:00,28.822836,77.101981,SO2,3,7,5
India,Delhi,Delhi,"Nehru Nagar, Delhi - DPCC",06-02-2024 00:00:00,28.567890,77.250515,PM10,118,212,143
India,Delhi,Delhi,"Okhla Phase-2, Delhi - DPCC",06-02-2024 00:00:00,28.530785,77.271255,PM2.5,99,236,161
India,Delhi,Delhi,"Patparganj, Delhi - DPCC",06-02-2024 00:00:00,28.623763,77.287209,PM10,104,172,141
India,Delhi,Delhi,"Punjabi Bagh, Delhi - DPCC",06-02-2024 00:00:00,28.674045,77.131023,CO,6,182,6
India,Delhi,Delhi,"Pusa, Delhi - IMD",06-02-2024 00:00:00,28.636110,77.173332,NO2,23,30,26
India,Delhi,Delhi,"R K Puram, Delhi - DPCC",06-02-2024 00:00:00,28.563262,77.186937,SO2,16,30,24
India,Delhi,Delhi,"Rohini, Delhi - DPCC",06-02-2024 00:00:00,28.732528,77.119920,PM10,104,148,126
India,Delhi,Delhi,"Rohini, Delhi - DPCC",06-02-2024 00:00:00,28.732528,77.119920,OZONE,2,55,25
India,Delhi,Delhi,"Shadipur, Delhi - CPCB",06-02-2024 00:00:00,28.6514781,77.1473105,NO2,33,51,42
India,Delhi,Delhi,"Sirifort, Delhi - CPCB",06-02-2024 00:00:00,28.5504249,77.2159377,NH3,10,14,12
India,Delhi,Delhi,"Sonia Vihar, Delhi - DPCC",06-02-2024 00:00:00,28.710508,77.249485,PM2.5,113,240,181
India,Delhi,Delhi,"Sonia Vihar, Delhi - DPCC",06-02-2024 00:00:00,28.710508,77.249485,NO2,27,47,36
India,Delhi,Delhi,"Sonia Vihar, Delhi - DPCC",06-02-2024 00:00:00,28.710508,77.249485,SO2,5,9,8
India,Delhi,Delhi,"Sri Aurobindo Marg, Delhi - DPCC",06-02-2024 00:00:00,28.531346,77.190156,PM2.5,113,243,150
India,Delhi,Delhi,"Sri Aurobindo Marg, Delhi - DPCC",06-02-2024 00:00:00,28.531346,77.190156,PM10,87,139,119
India,Delhi,Delhi,"Vivek Vihar, Delhi - DPCC",06-02-2024 00:00:00,28.672342,77.315260,NH3,5,13,9
India,Delhi,Delhi,"Wazirpur, Delhi - DPCC",06-02-2024 00:00:00,28.699793,77.165453,NO2,67,128,90
India,Gujarat,Ahmedabad,"Chandkheda, Ahmedabad - IITM",06-02-2024 00:00:00,23.107969,72.574648,NO2,31,49,38
India,Gujarat,Ahmedabad,"Chandkheda, Ahmedabad - IITM",06-02-2024 00:00:00,23.107969,72.574648,NH3,5,6,5
India,Gujarat,Ahmedabad,"Chandkheda, Ahmedabad - IITM",06-02-2024 00:00:00,23.107969,72.574648,CO,4,88,28
India,Gujarat,Ahmedabad,"Gyaspur, Ahmedabad - IITM",06-02-2024 00:00:00,22.977134,72.553024,NO2,11,18,14
India,Gujarat,Ahmedabad,"Maninagar, Ahmedabad - GPCB",06-02-2024 00:00:00,23.002657,72.591912,PM2.5,17,66,39
India,Gujarat,Ahmedabad,"Maninagar, Ahmedabad - GPCB",06-02-2024 00:00:00,23.002657,72.591912,PM10,41,84,57
India,Gujarat,Ahmedabad,"Raikhad, Ahmedabad - IITM",06-02-2024 00:00:00,23.020509,72.579261,SO2,16,25,19
India,Gujarat,Ahmedabad,"Raikhad, Ahmedabad - IITM",06-02-2024 00:00:00,23.020509,72.579261,OZONE,9,22,19
India,Gujarat,Ahmedabad,"Rakhial, Ahmedabad - IITM",06-02-2024 00:00:00,23.016834,72.625775,NO2,9,24,14
India,Gujarat,Ahmedabad,"SAC ISRO Satellite, Ahmedabad - IITM",06-02-2024 00:00:00,23.023389,72.515201,PM2.5,94,232,161
India,Gujarat,Ahmedabad,"SAC ISRO Satellite, Ahmedabad - IITM",06-02-2024 00:00:00,23.023389,72.515201,PM10,77,116,99
India,Gujarat,Ahmedabad,"SAC ISRO Satellite, Ahmedabad - IITM",06-02-2024 00:00:00,23.023389,72.515201,NO2,17,17,17
India,Gujarat,Ahmedabad,"SVPI Airport Hansol, Ahmedabad - IITM",06-02-2024 00:00:00,23.076793,72.627874,NO2,13,21,17
India,Gujarat,Ahmedabad,"SVPI Airport Hansol, Ahmedabad - IITM",06-02-2024 00:00:00,23.076793,72.627874,NH3,3,4,3
India,Gujarat,Ahmedabad,"SVPI Airport Hansol, Ahmedabad - IITM",06-02-2024 00:00:00,23.076793,72.627874,OZONE,12,22,18
India,Gujarat,Gandhinagar,"GIFT City, Gandhinagar - IITM",06-02-2024 00:00:00,23.163798,72.677768,PM2.5,50,105,66
India,Gujarat,Gandhinagar,"GIFT City, Gandhinagar - IITM",06-02-2024 00:00:00,23.163798,72.677768,OZONE,7,27,27
India,Gujarat,Gandhinagar,"IIPHG Lekawada, Gandhinagar - IITM",06-02-2024 00:00:00,23.243639,72.68994,PM10,60,121,79
India,Gujarat,Gandhinagar,"Sector-10, Gandhinagar - GPCB",06-02-2024 00:00:00,23.221714,72.654328,PM10,34,95,61
India,Gujarat,Gandhinagar,"Sector-10, Gandhinagar - GPCB",06-02-2024 00:00:00,23.221714,72.654328,NO2,7,12,9
India,Gujarat,Vapi,"Phase-1 GIDC, Vapi - GPCB",06-02-2024 00:00:00,20.362421,72.918013,NH3,16,19,17
India,Gujarat,Vapi,"Phase-1 GIDC, Vapi - GPCB",06-02-2024 00:00:00,20.362421,72.918013,SO2,44,45,44
India,Gujarat,Vapi,"Phase-1 GIDC, Vapi - GPCB",06-02-2024 00:00:00,20.362421,72.918013,CO,103,188,178
India,Gujarat,Vatva,"Phase-4 GIDC, Vatva - GPCB",06-02-2024 00:00:00,22.969611,72.643500,PM10,31,68,54
India,Gujarat,Vatva,"Phase-4 GIDC, Vatva - GPCB",06-02-2024 00:00:00,22.969611,72.643500,SO2,3,30,7
India,Haryana,Ambala,"Patti Mehar, Ambala - HSPCB",06-02-2024 00:00:00,30.379589,76.778328,SO2,3,9,5
India,Haryana,Ambala,"Patti Mehar, Ambala - HSPCB",06-02-2024 00:00:00,30.379589,76.778328,CO,22,51,39
India,Haryana,Ambala,"Patti Mehar, Ambala - HSPCB",06-02-2024 00:00:00,30.379589,76.778328,OZONE,32,46,37
India,Haryana,Bahadurgarh,"Arya Nagar, Bahadurgarh - HSPCB",06-02-2024 00:00:00,28.6701,76.9254,PM2.5,53,103,79
India,Haryana,Bahadurgarh,"Arya Nagar, Bahadurgarh - HSPCB",06-02-2024 00:00:00,28.6701,76.9254,NH3,10,12,11
India,Haryana,Ballabgarh,"Nathu Colony, Ballabgarh - HSPCB",06-02-2024 00:00:00,28.3419248,77.319699,PM2.5,8,181,69
India,Haryana,Bhiwani,"H.B. Colony, Bhiwani - HSPCB",06-02-2024 00:00:00,28.806223,76.141105,PM2.5,53,88,68
India,Haryana,Bhiwani,"H.B. Colony, Bhiwani - HSPCB",06-02-2024 00:00:00,28.806223,76.141105,SO2,4,14,8
India,Haryana,Bhiwani,"H.B. Colony, Bhiwani - HSPCB",06-02-2024 00:00:00,28.806223,76.141105,CO,5,52,21
India,Haryana,Charkhi Dadri,"Mini Secretariat, Charkhi Dadri - HSPCB",06-02-2024 00:00:00,28.593883,76.270653,PM10,42,104,76
India,Haryana,Charkhi Dadri,"Mini Secretariat, Charkhi Dadri - HSPCB",06-02-2024 00:00:00,28.593883,76.270653,OZONE,14,17,16
India,Haryana,Dharuhera,"Municipal Corporation Office, Dharuhera -  HSPCB",06-02-2024 00:00:00,28.206800,76.799700,PM2.5,27,93,62
India,Haryana,Dharuhera,"Municipal Corporation Office, Dharuhera -  HSPCB",06-02-2024 00:00:00,28.206800,76.799700,NH3,9,26,18
India,Haryana,Dharuhera,"Municipal Corporation Office, Dharuhera -  HSPCB",06-02-2024 00:00:00,28.206800,76.799700,CO,101,102,102
India,Haryana,Faridabad,"New Industrial Town, Faridabad - HSPCB",06-02-2024 00:00:00,28.39072,77.30059,PM10,100,145,118
India,Haryana,Faridabad,"New Industrial Town, Faridabad - HSPCB",06-02-2024 00:00:00,28.39072,77.30059,NH3,3,4,4
India,Haryana,Faridabad,"New Industrial Town, Faridabad - HSPCB",06-02-2024 00:00:00,28.39072,77.30059,OZONE,30,129,68
India,Haryana,Faridabad,"Sector 11, Faridabad - HSPCB",06-02-2024 00:00:00,28.376058,77.315741,PM2.5,42,76,55
India,Haryana,Faridabad,"Sector 11, Faridabad - HSPCB",06-02-2024 00:00:00,28.376058,77.315741,CO,28,41,34
India,Haryana,Faridabad,"Sector 30, Faridabad - HSPCB",06-02-2024 00:00:00,28.4417,77.3217,SO2,3,60,7
India,Haryana,Faridabad,"Sector- 16A, Faridabad - HSPCB",06-02-2024 00:00:00,28.4088421,77.3099081,CO,4,52,4
India,Haryana,Faridabad,"Sector- 16A, Faridabad - HSPCB",06-02-2024 00:00:00,28.4088421,77.3099081,OZONE,14,14,14
India,Haryana,Fatehabad,"Huda Sector, Fatehabad - HSPCB",06-02-2024 00:00:00,29.503664,75.467934,NO2,NA,NA,NA
India,Haryana,Fatehabad,"Huda Sector, Fatehabad - HSPCB",06-02-2024 00:00:00,29.503664,75.467934,CO,5,115,8
India,Haryana,Gurugram,"Sector-51, Gurugram - HSPCB",06-02-2024 00:00:00,28.4227,77.0667,SO2,3,4,3
India,Haryana,Gurugram,"Sector-51, Gurugram - HSPCB",06-02-2024 00:00:00,28.4227,77.0667,OZONE,27,67,56
India,Haryana,Gurugram,"Teri Gram, Gurugram - HSPCB",06-02-2024 00:00:00,28.4275,77.1465,PM2.5,80,178,119
India,Haryana,Gurugram,"Teri Gram, Gurugram - HSPCB",06-02-2024 00:00:00,28.4275,77.1465,SO2,3,5,4
India,Haryana,Gurugram,"Teri Gram, Gurugram - HSPCB",06-02-2024 00:00:00,28.4275,77.1465,CO,22,29,25
India,Haryana,Gurugram,"Vikas Sadan, Gurugram - HSPCB",06-02-2024 00:00:00,28.4501238,77.0263051,PM2.5,80,157,101
India,Haryana,Gurugram,"Vikas Sadan, Gurugram - HSPCB",06-02-2024 00:00:00,28.4501238,77.0263051,OZONE,8,68,28
India,Haryana,Jind,"Police Lines, Jind - HSPCB",06-02-2024 00:00:00,29.307814,76.337619,PM2.5,44,98,58
India,Haryana,Jind,"Police Lines, Jind - HSPCB",06-02-2024 00:00:00,29.307814,76.337619,PM10,42,74,56
India,Haryana,Jind,"Police Lines, Jind - HSPCB",06-02-2024 00:00:00,29.307814,76.337619,NH3,2,6,3
India,Haryana,Kaithal,"Rishi Nagar, Kaithal - HSPCB",06-02-2024 00:00:00,29.8006,76.4155,NO2,24,26,25
India,Haryana,Kaithal,"Rishi Nagar, Kaithal - HSPCB",06-02-2024 00:00:00,29.8006,76.4155,CO,1,50,20
India,Haryana,Kaithal,"Rishi Nagar, Kaithal - HSPCB",06-02-2024 00:00:00,29.8006,76.4155,OZONE,1,7,5
India,Haryana,Karnal,"Sector-12, Karnal - HSPCB",06-02-2024 00:00:00,29.695300,77.002700,PM10,51,66,58
India,Haryana,Karnal,"Sector-12, Karnal - HSPCB",06-02-2024 00:00:00,29.695300,77.002700,NO2,7,12,10
India,Haryana,Karnal,"Sector-12, Karnal - HSPCB",06-02-2024 00:00:00,29.695300,77.002700,CO,1,43,34
India,Haryana,Kurukshetra,"Sector-7, Kurukshetra - HSPCB",06-02-2024 00:00:00,29.966942,76.875879,PM10,42,83,63
India,Haryana,Mandikhera,"General Hospital, Mandikhera - HSPCB",06-02-2024 00:00:00,27.9002,76.9938,PM10,51,81,67
India,Haryana,Mandikhera,"General Hospital, Mandikhera - HSPCB",06-02-2024 00:00:00,27.9002,76.9938,SO2,31,38,35
India,Haryana,Palwal,"Shyam Nagar, Palwal - HSPCB",06-02-2024 00:00:00,28.1485564,77.3320667,CO,8,17,11
India,Haryana,Panchkula,"Sector-6, Panchkula - HSPCB ",06-02-2024 00:00:00,30.7057778,76.8531805555555,SO2,11,12,12
India,Haryana,Panipat,"Sector-18, Panipat - HSPCB",06-02-2024 00:00:00,29.497973,76.993331,PM2.5,80,137,104
India,Haryana,Panipat,"Sector-18, Panipat - HSPCB",06-02-2024 00:00:00,29.497973,76.993331,PM10,84,95,90
India,Haryana,Sirsa,"F-Block, Sirsa - HSPCB",06-02-2024 00:00:00,29.536400,75.015800,PM2.5,27,76,47
India,Haryana,Sonipat,"Murthal, Sonipat - HSPCB",06-02-2024 00:00:00,29.027200,77.062100,PM2.5,57,150,101
India,Haryana,Sonipat,"Murthal, Sonipat - HSPCB",06-02-2024 00:00:00,29.027200,77.062100,NH3,7,10,9
India,Haryana,Sonipat,"Murthal, Sonipat - HSPCB",06-02-2024 00:00:00,29.027200,77.062100,SO2,13,29,20
India,Haryana,Yamuna Nagar,"Gobind Pura, Yamuna Nagar - HSPCB",06-02-2024 00:00:00,30.1480566,77.2893471,CO,8,48,40
India,Jharkhand,Dhanbad,"Kalakusuma, Dhanbad - DMC",06-02-2024 00:00:00,23.811548,86.481238,PM2.5,NA,NA,NA
India,Jharkhand,Dhanbad,"Sardar Patel Nagar, Dhanbad - JSPCB",06-02-2024 00:00:00,23.80569,86.44268,PM2.5,NA,NA,NA
India,Jharkhand,Dhanbad,"Sardar Patel Nagar, Dhanbad - JSPCB",06-02-2024 00:00:00,23.80569,86.44268,SO2,NA,NA,NA
India,Jharkhand,Dhanbad,"Sardar Patel Nagar, Dhanbad - JSPCB",06-02-2024 00:00:00,23.80569,86.44268,CO,150,180,171
India,Jharkhand,Dhanbad,"Sardar Patel Nagar, Dhanbad - JSPCB",06-02-2024 00:00:00,23.80569,86.44268,OZONE,12,14,13
India,Karnataka,Bagalkot,"Vidayagiri, Bagalkot - KSPCB",06-02-2024 00:00:00,16.172806,75.659694,PM10,50,51,51
India,Karnataka,Bagalkot,"Vidayagiri, Bagalkot - KSPCB",06-02-2024 00:00:00,16.172806,75.659694,NH3,1,2,1
India,Karnataka,Belgaum,"Ramteerth Nagar, Belgaum - KSPCB",06-02-2024 00:00:00,15.888653,74.541751,PM2.5,NA,NA,NA
India,Karnataka,Belgaum,"Ramteerth Nagar, Belgaum - KSPCB",06-02-2024 00:00:00,15.888653,74.541751,PM10,55,127,80
India,Karnataka,Belgaum,"Ramteerth Nagar, Belgaum - KSPCB",06-02-2024 00:00:00,15.888653,74.541751,NH3,33,34,34
India,Karnataka,Bengaluru,"Bapuji Nagar, Bengaluru - KSPCB",06-02-2024 00:00:00,12.951913,77.539784,NO2,9,12,11
India,Karnataka,Bengaluru,"Bapuji Nagar, Bengaluru - KSPCB",06-02-2024 00:00:00,12.951913,77.539784,CO,34,44,37
India,Karnataka,Bengaluru,"Bapuji Nagar, Bengaluru - KSPCB",06-02-2024 00:00:00,12.951913,77.539784,OZONE,10,12,11
India,Karnataka,Bengaluru,"City Railway Station, Bengaluru - KSPCB",06-02-2024 00:00:00,12.9756843,77.5660749,NO2,NA,NA,NA
India,Karnataka,Bengaluru,"City Railway Station, Bengaluru - KSPCB",06-02-2024 00:00:00,12.9756843,77.5660749,CO,NA,NA,NA
India,Karnataka,Bengaluru,"Hebbal, Bengaluru - KSPCB",06-02-2024 00:00:00,13.029152,77.585901,PM2.5,26,128,63
India,Karnataka,Bengaluru,"Hebbal, Bengaluru - KSPCB",06-02-2024 00:00:00,13.029152,77.585901,SO2,11,16,13
India,Karnataka,Bengaluru,"Hombegowda Nagar, Bengaluru - KSPCB",06-02-2024 00:00:00,12.938539,77.590100,SO2,3,5,4
India,Karnataka,Bengaluru,"Hombegowda Nagar, Bengaluru - KSPCB",06-02-2024 00:00:00,12.938539,77.590100,CO,16,18,17
India,Karnataka,Bengaluru,"Jayanagar 5th Block, Bengaluru - KSPCB",06-02-2024 00:00:00,12.920984,77.584908,PM2.5,38,89,65
India,Karnataka,Bengaluru,"Jayanagar 5th Block, Bengaluru - KSPCB",06-02-2024 00:00:00,12.920984,77.584908,NO2,10,12,11
India,Karnataka,Bengaluru,"Jayanagar 5th Block, Bengaluru - KSPCB",06-02-2024 00:00:00,12.920984,77.584908,NH3,2,3,3
India,Karnataka,Bengaluru,"Jayanagar 5th Block, Bengaluru - KSPCB",06-02-2024 00:00:00,12.920984,77.584908,OZONE,18,19,19
India,Karnataka,Bengaluru,"Jigani, Bengaluru - KSPCB",06-02-2024 00:00:00,12.7816279,77.6299145,NO2,26,37,32
India,Karnataka,Bengaluru,"Kasturi Nagar, Bengaluru - KSPCB",06-02-2024 00:00:00,13.003872,77.664217,PM10,106,142,120
India,Karnataka,Bengaluru,"Kasturi Nagar, Bengaluru - KSPCB",06-02-2024 00:00:00,13.003872,77.664217,CO,24,26,25
India,Karnataka,Bengaluru,"Kasturi Nagar, Bengaluru - KSPCB",06-02-2024 00:00:00,13.003872,77.664217,OZONE,16,100,65
India,Karnataka,Bengaluru,"Peenya, Bengaluru - CPCB",06-02-2024 00:00:00,13.0270199,77.494094,PM2.5,53,80,64
India,Karnataka,Bengaluru,"Peenya, Bengaluru - CPCB",06-02-2024 00:00:00,13.0270199,77.494094,PM10,65,104,82
India,Karnataka,Bengaluru,"Peenya, Bengaluru - CPCB",06-02-2024 00:00:00,13.0270199,77.494094,NO2,8,28,13
