country,state,city,station,last_update,latitude,longitude,pollutant_id,pollutant_min,pollutant_max,pollutant_avg
India,Andhra_Pradesh,Amaravati,"Secretariat, Amaravati - APPCB",29-01-2024 20:00:00,16.5150833,80.5181667,OZONE,8,65,57
India,Andhra_Pradesh,Anantapur,"Gulzarpet, Anantapur - APPCB",29-01-2024 20:00:00,14.675886,77.593027,OZONE,8,59,46
India,Andhra_Pradesh,Chittoor,"Gangineni Cheruvu, Chittoor - APPCB",29-01-2024 20:00:00,13.204880,79.097889,NH3,1,3,2
India,Andhra_Pradesh,Chittoor,"Gangineni Cheruvu, Chittoor - APPCB",29-01-2024 20:00:00,13.204880,79.097889,SO2,1,24,8
India,Andhra_Pradesh,Chittoor,"Gangineni Cheruvu, Chittoor - APPCB",29-01-2024 20:00:00,13.204880,79.097889,CO,24,62,46
India,Andhra_Pradesh,Kadapa,"Yerramukkapalli, Kadapa - APPCB",29-01-2024 20:00:00,14.465052,78.824187,PM10,34,74,45
India,Andhra_Pradesh,Kadapa,"Yerramukkapalli, Kadapa - APPCB",29-01-2024 20:00:00,14.465052,78.824187,CO,18,25,20
India,Andhra_Pradesh,Rajamahendravaram,"Anand Kala Kshetram, Rajamahendravaram - APPCB",29-01-2024 20:00:00,16.9872867,81.7363176,OZONE,5,7,6
India,Andhra_Pradesh,Tirupati,"Vaikuntapuram, Tirupati - APPCB",29-01-2024 20:00:00,13.615387,79.409230,PM2.5,19,79,40
India,Andhra_Pradesh,Tirupati,"Vaikuntapuram, Tirupati - APPCB",29-01-2024 20:00:00,13.615387,79.409230,CO,10,16,14
India,Andhra_Pradesh,Visakhapatnam,"GVM Corporation, Visakhapatnam - APPCB",29-01-2024 20:00:00,17.72,83.3,PM2.5,NA,NA,NA
India,Arunachal_Pradesh,Naharlagun,"Naharlagun, Naharlagun - APSPCB",29-01-2024 20:00:00,27.103358,93.679645,PM2.5,2,58,8
India,Arunachal_Pradesh,Naharlagun,"Naharlagun, Naharlagun - APSPCB",29-01-2024 20:00:00,27.103358,93.679645,SO2,3,3,3
India,Arunachal_Pradesh,Naharlagun,"Naharlagun, Naharlagun - APSPCB",29-01-2024 20:00:00,27.103358,93.679645,OZONE,2,2,2
India,Assam,Byrnihat,"Central Academy for SFS, Byrnihat - PCBA",29-01-2024 20:00:00,26.071318,91.87488,NO2,35,105,65
India,Assam,Guwahati,"IITG, Guwahati - PCBA",29-01-2024 20:00:00,26.2028636,91.70046436,PM10,NA,NA,NA
India,Assam,Guwahati,"IITG, Guwahati - PCBA",29-01-2024 20:00:00,26.2028636,91.70046436,CO,10,26,14
India,Assam,Guwahati,"IITG, Guwahati - PCBA",29-01-2024 20:00:00,26.2028636,91.70046436,OZONE,2,21,12
India,Assam,Guwahati,"LGBI Airport, Guwahati - PCBA",29-01-2024 20:00:00,26.10887,91.589544,PM2.5,83,362,212
India,Assam,Guwahati,"LGBI Airport, Guwahati - PCBA",29-01-2024 20:00:00,26.10887,91.589544,PM10,64,391,172
India,Assam,Guwahati,"LGBI Airport, Guwahati - PCBA",29-01-2024 20:00:00,26.10887,91.589544,SO2,11,15,12
India,Assam,Guwahati,"Pan Bazaar, Guwahati - PCBA",29-01-2024 20:00:00,26.187500,91.744194,NO2,1,10,3
India,Assam,Guwahati,"Railway Colony, Guwahati - PCBA",29-01-2024 20:00:00,26.181742,91.78063,PM10,57,499,193
India,Assam,Nagaon,"Christianpatty, Nagaon - PCBA",29-01-2024 20:00:00,26.349082,92.68449,PM2.5,NA,NA,NA
India,Assam,Nagaon,"Christianpatty, Nagaon - PCBA",29-01-2024 20:00:00,26.349082,92.68449,OZONE,3,81,53
India,Assam,Nalbari,"Bata Chowk, Nalbari - PCBA",29-01-2024 20:00:00,26.446912,91.439057,NH3,1,8,2
India,Assam,Silchar,"Tarapur, Silchar - PCBA",29-01-2024 20:00:00,24.82827,92.79525,NO2,NA,NA,NA
India,Assam,Silchar,"Tarapur, Silchar - PCBA",29-01-2024 20:00:00,24.82827,92.79525,NH3,NA,NA,NA
India,Assam,Sivasagar,"Girls College, Sivasagar - PCBA",29-01-2024 20:00:00,26.987634,94.636574,PM2.5,25,68,44
India,Bihar,Araria,"Kharahiya Basti, Araria - BSPCB",29-01-2024 20:00:00,26.146529,87.454184,OZONE,10,81,59
India,Bihar,Arrah,"New DM Office, Arrah - BSPCB",29-01-2024 20:00:00,25.5626095,84.663264,NH3,6,11,7
India,Bihar,Aurangabad,"Gurdeo Nagar, Aurangabad - BSPCB",29-01-2024 20:00:00,24.75746,84.366208,CO,64,112,79
India,Bihar,Bhagalpur,"DM Office_Kachari Chowk, Bhagalpur - BSPCB",29-01-2024 20:00:00,25.251013,86.989001,PM2.5,360,500,430
India,Bihar,Bhagalpur,"DM Office_Kachari Chowk, Bhagalpur - BSPCB",29-01-2024 20:00:00,25.251013,86.989001,CO,41,94,66
India,Bihar,Bhagalpur,"DM Office_Kachari Chowk, Bhagalpur - BSPCB",29-01-2024 20:00:00,25.251013,86.989001,OZONE,25,42,26
India,Bihar,Bhagalpur,"Mayaganj, Bhagalpur - BSPCB",29-01-2024 20:00:00,25.265194,87.012947,PM2.5,315,493,408
India,Bihar,Bihar Sharif,"D M Colony, Bihar Sharif - BSPCB",29-01-2024 20:00:00,25.204762,85.514960,PM10,84,263,160
India,Bihar,Bihar Sharif,"D M Colony, Bihar Sharif - BSPCB",29-01-2024 20:00:00,25.204762,85.514960,CO,10,61,28
India,Bihar,Chhapra,"Darshan Nagar, Chhapra - BSPCB",29-01-2024 20:00:00,25.7808257,84.7446768,SO2,NA,NA,NA
India,Bihar,Gaya,"Kareemganj, Gaya - BSPCB",29-01-2024 20:00:00,24.792403,84.992416,PM10,102,258,166
India,Bihar,Gaya,"SFTI Kusdihra, Gaya - BSPCB",29-01-2024 20:00:00,24.762518,84.982348,PM10,94,132,113
India,Bihar,Gaya,"SFTI Kusdihra, Gaya - BSPCB",29-01-2024 20:00:00,24.762518,84.982348,OZONE,9,77,58
India,Bihar,Hajipur,"Industrial Area, Hajipur - BSPCB",29-01-2024 20:00:00,25.697189,85.245900,SO2,6,7,6
India,Bihar,Katihar,"Mirchaibari, Katihar - BSPCB",29-01-2024 20:00:00,25.560083,87.553265,CO,20,23,20
India,Bihar,Kishanganj,"SDM Office_Khagra, Kishanganj - BSPCB",29-01-2024 20:00:00,26.0881305,87.93840336,NO2,NA,NA,NA
India,Bihar,Manguraha,"Forest Rest House, Manguraha - BSPCB",29-01-2024 20:00:00,27.308328,84.531742,PM2.5,100,318,174
India,Bihar,Motihari,"Gandak Colony, Motihari - BSPCB",29-01-2024 20:00:00,26.63086,84.90051,NO2,56,100,72
India,Bihar,Motihari,"Gandak Colony, Motihari - BSPCB",29-01-2024 20:00:00,26.63086,84.90051,OZONE,23,74,68
India,Bihar,Munger,"Town Hall, Munger - BSPCB",29-01-2024 20:00:00,25.376776,86.471523,PM2.5,72,325,193
India,Bihar,Munger,"Town Hall, Munger - BSPCB",29-01-2024 20:00:00,25.376776,86.471523,PM10,86,253,155
India,Bihar,Muzaffarpur,"MIT-Daudpur Kothi, Muzaffarpur - BSPCB",29-01-2024 20:00:00,26.1403345,85.3650192,SO2,9,14,10
India,Bihar,Muzaffarpur,"MIT-Daudpur Kothi, Muzaffarpur - BSPCB",29-01-2024 20:00:00,26.1403345,85.3650192,CO,22,124,115
India,Bihar,Muzaffarpur,"Muzaffarpur Collectorate, Muzaffarpur - BSPCB",29-01-2024 20:00:00,26.1209,85.3647,PM2.5,98,470,251
India,Bihar,Patna,"DRM Office Danapur, Patna - BSPCB",29-01-2024 20:00:00,25.586562,85.043586,CO,56,191,191
India,Bihar,Patna,"Govt. High School Shikarpur, Patna - BSPCB",29-01-2024 20:00:00,25.592539,85.227158,NO2,23,34,27
India,Bihar,Patna,"Govt. High School Shikarpur, Patna - BSPCB",29-01-2024 20:00:00,25.592539,85.227158,NH3,3,5,4
India,Bihar,Patna,"Govt. High School Shikarpur, Patna - BSPCB",29-01-2024 20:00:00,25.592539,85.227158,SO2,1,7,4
India,Bihar,Patna,"Govt. High School Shikarpur, Patna - BSPCB",29-01-2024 20:00:00,25.592539,85.227158,CO,66,121,93
India,Bihar,Patna,"IGSC Planetarium Complex, Patna - BSPCB",29-01-2024 20:00:00,25.610369,85.132568,CO,15,18,16
India,Bihar,Patna,"Muradpur, Patna - BSPCB",29-01-2024 20:00:00,25.619651,85.147382,PM2.5,274,380,328
India,Bihar,Patna,"Muradpur, Patna - BSPCB",29-01-2024 20:00:00,25.619651,85.147382,OZONE,9,90,54
India,Bihar,Patna,"Rajbansi Nagar, Patna - BSPCB",29-01-2024 20:00:00,25.599486,85.113666,CO,53,118,79
India,Bihar,Patna,"Rajbansi Nagar, Patna - BSPCB",29-01-2024 20:00:00,25.599486,85.113666,OZONE,1,72,35
India,Bihar,Patna,"Samanpura, Patna - BSPCB",29-01-2024 20:00:00,25.596727,85.085624,NH3,3,3,3
India,Bihar,Patna,"Samanpura, Patna - BSPCB",29-01-2024 20:00:00,25.596727,85.085624,OZONE,2,57,30
India,Bihar,Purnia,"Mariam Nagar, Purnia - BSPCB",29-01-2024 20:00:00,25.366336,87.117468,NH3,NA,NA,NA
India,Bihar,Samastipur,"DM Office_Kasipur, Samastipur - BSPCB",29-01-2024 20:00:00,25.859655,85.77944,CO,8,31,23
India,Bihar,Samastipur,"DM Office_Kasipur, Samastipur - BSPCB",29-01-2024 20:00:00,25.859655,85.77944,OZONE,9,14,11
India,Bihar,Sasaram,"Dada Peer, Sasaram - BSPCB",29-01-2024 20:00:00,24.952822,84.002396,SO2,20,23,22
India,Chandigarh,Chandigarh,"Sector-25, Chandigarh - CPCC",29-01-2024 20:00:00,30.751462,76.762879,PM10,137,215,176
India,Chandigarh,Chandigarh,"Sector-53, Chandigarh - CPCC",29-01-2024 20:00:00,30.719859,76.738637,PM2.5,250,428,339
India,Chhattisgarh,Bhilai,"Civic Center, Bhilai - Bhilai Steel Plant",29-01-2024 20:00:00,21.185571,81.343175,SO2,NA,NA,NA
India,Chhattisgarh,Bhilai,"Hathkhoj, Bhilai - CECB",29-01-2024 20:00:00,21.224231,81.408350,OZONE,7,21,17
India,Chhattisgarh,Bilaspur,"Mangala, Bilaspur - NTPC",29-01-2024 20:00:00,22.08815,82.13737,NO2,16,17,16
India,Chhattisgarh,Chhal,"Nawapara SECL Colony, Chhal - CECB",29-01-2024 20:00:00,22.118125,83.140608,NH3,2,2,2
India,Chhattisgarh,Chhal,"Nawapara SECL Colony, Chhal - CECB",29-01-2024 20:00:00,22.118125,83.140608,OZONE,3,88,44
India,Chhattisgarh,Korba,"Rampur, Korba - CECB",29-01-2024 20:00:00,22.368195,82.746431,PM10,25,72,46
India,Chhattisgarh,Korba,"Rampur, Korba - CECB",29-01-2024 20:00:00,22.368195,82.746431,OZONE,3,35,17
India,Chhattisgarh,Korba,"Urja Nagar, Korba - CECB",29-01-2024 20:00:00,22.348441,82.549611,PM10,37,421,155
India,Chhattisgarh,Korba,"Urja Nagar, Korba - CECB",29-01-2024 20:00:00,22.348441,82.549611,SO2,6,82,15
India,Chhattisgarh,Kunjemura,"OP Jindal School, Kunjemura - CECB",29-01-2024 20:00:00,22.126650,83.483212,NH3,1,5,2
India,Chhattisgarh,Milupara,"Govt. Higher Secondary School, Milupara - CECB",29-01-2024 20:00:00,22.1910172,83.5197009,PM2.5,38,140,66
India,Chhattisgarh,Milupara,"Govt. Higher Secondary School, Milupara - CECB",29-01-2024 20:00:00,22.1910172,83.5197009,SO2,10,85,27
India,Chhattisgarh,Milupara,"Govt. Higher Secondary School, Milupara - CECB",29-01-2024 20:00:00,22.1910172,83.5197009,CO,34,66,50
India,Chhattisgarh,Raipur,"Krishak Nagar, Raipur - CECB",29-01-2024 20:00:00,21.237755,81.705301,CO,39,59,45
India,Chhattisgarh,Tumidih,"OP Jindal Industrial Park, Tumidih - CECB",29-01-2024 20:00:00,22.06631475,83.33820077,NO2,19,55,30
India,Chhattisgarh,Tumidih,"OP Jindal Industrial Park, Tumidih - CECB",29-01-2024 20:00:00,22.06631475,83.33820077,NH3,1,3,2
India,Delhi,Delhi,"Alipur, Delhi - DPCC",29-01-2024 20:00:00,28.815329,77.153010,NO2,28,78,44
India,Delhi,Delhi,"Alipur, Delhi - DPCC",29-01-2024 20:00:00,28.815329,77.153010,SO2,7,14,10
India,Delhi,Delhi,"Anand Vihar, Delhi - DPCC",29-01-2024 20:00:00,28.647622,77.3158090,PM2.5,329,435,370
India,Delhi,Delhi,"Anand Vihar, Delhi - DPCC",29-01-2024 20:00:00,28.647622,77.3158090,SO2,1,28,10
India,Delhi,Delhi,"Anand Vihar, Delhi - DPCC",29-01-2024 20:00:00,28.647622,77.3158090,OZONE,14,25,17
India,Delhi,Delhi,"Ashok Vihar, Delhi - DPCC",29-01-2024 20:00:00,28.695381,77.181665,NO2,44,116,75
India,Delhi,Delhi,"Ashok Vihar, Delhi - DPCC",29-01-2024 20:00:00,28.695381,77.181665,OZONE,4,21,13
India,Delhi,Delhi,"Bawana, Delhi - DPCC",29-01-2024 20:00:00,28.776200,77.051074,PM2.5,334,453,390
India,Delhi,Delhi,"Bawana, Delhi - DPCC",29-01-2024 20:00:00,28.776200,77.051074,OZONE,3,82,43
India,Delhi,Delhi,"Burari Crossing, Delhi - IMD",29-01-2024 20:00:00,28.7256504,77.2011573,OZONE,21,65,41
India,Delhi,Delhi,"IGI Airport (T3), Delhi - IMD",29-01-2024 20:00:00,28.5627763,77.1180053,PM2.5,283,386,329
India,Delhi,Delhi,"IGI Airport (T3), Delhi - IMD",29-01-2024 20:00:00,28.5627763,77.1180053,OZONE,11,50,34
India,Delhi,Delhi,"IHBAS, Dilshad Garden, Delhi - CPCB",29-01-2024 20:00:00,28.6811736,77.3025234,PM2.5,191,337,286
India,Delhi,Delhi,"IHBAS, Dilshad Garden, Delhi - CPCB",29-01-2024 20:00:00,28.6811736,77.3025234,NO2,18,52,32
India,Delhi,Delhi,"IHBAS, Dilshad Garden, Delhi - CPCB",29-01-2024 20:00:00,28.6811736,77.3025234,OZONE,7,44,31
India,Delhi,Delhi,"Jawaharlal Nehru Stadium, Delhi - DPCC",29-01-2024 20:00:00,28.580280,77.233829,NH3,18,23,20
India,Delhi,Delhi,"Jawaharlal Nehru Stadium, Delhi - DPCC",29-01-2024 20:00:00,28.580280,77.233829,CO,66,124,90
India,Delhi,Delhi,"Lodhi Road, Delhi - IITM",29-01-2024 20:00:00,28.588333,77.221667,PM2.5,49,361,173
India,Delhi,Delhi,"Lodhi Road, Delhi - IITM",29-01-2024 20:00:00,28.588333,77.221667,NO2,78,100,87
India,Delhi,Delhi,"Major Dhyan Chand National Stadium, Delhi - DPCC",29-01-2024 20:00:00,28.611281,77.237738,NO2,48,170,73
India,Delhi,Delhi,"Mandir Marg, Delhi - DPCC",29-01-2024 20:00:00,28.636429,77.201067,PM10,187,395,251
India,Delhi,Delhi,"Mandir Marg, Delhi - DPCC",29-01-2024 20:00:00,28.636429,77.201067,NO2,97,138,117
India,Delhi,Delhi,"Mandir Marg, Delhi - DPCC",29-01-2024 20:00:00,28.636429,77.201067,CO,16,102,74
India,Delhi,Delhi,"Mundka, Delhi - DPCC",29-01-2024 20:00:00,28.684678,77.076574,CO,64,103,74
India,Delhi,Delhi,"Najafgarh, Delhi - DPCC",29-01-2024 20:00:00,28.570173,76.933762,PM10,155,267,191
India,Delhi,Delhi,"Narela, Delhi - DPCC",29-01-2024 20:00:00,28.822836,77.101981,CO,64,105,100
India,Delhi,Delhi,"Nehru Nagar, Delhi - DPCC",29-01-2024 20:00:00,28.567890,77.250515,NO2,18,48,34
India,Delhi,Delhi,"Nehru Nagar, Delhi - DPCC",29-01-2024 20:00:00,28.567890,77.250515,CO,29,146,92
India,Delhi,Delhi,"North Campus, DU, Delhi - IMD",29-01-2024 20:00:00,28.6573814,77.1585447,NO2,NA,NA,NA
India,Delhi,Delhi,"Okhla Phase-2, Delhi - DPCC",29-01-2024 20:00:00,28.530785,77.271255,PM2.5,323,414,361
India,Delhi,Delhi,"Okhla Phase-2, Delhi - DPCC",29-01-2024 20:00:00,28.530785,77.271255,NO2,50,121,70
India,Delhi,Delhi,"Okhla Phase-2, Delhi - DPCC",29-01-2024 20:00:00,28.530785,77.271255,OZONE,12,80,51
India,Delhi,Delhi,"Patparganj, Delhi - DPCC",29-01-2024 20:00:00,28.623763,77.287209,NO2,41,91,52
India,Delhi,Delhi,"Patparganj, Delhi - DPCC",29-01-2024 20:00:00,28.623763,77.287209,NH3,9,15,12
India,Delhi,Delhi,"Pusa, Delhi - DPCC",29-01-2024 20:00:00,28.639652,77.146275,NO2,103,405,207
India,Delhi,Delhi,"Pusa, Delhi - DPCC",29-01-2024 20:00:00,28.639652,77.146275,OZONE,16,70,41
India,Delhi,Delhi,"Pusa, Delhi - IMD",29-01-2024 20:00:00,28.636110,77.173332,NO2,30,70,45
India,Delhi,Delhi,"R K Puram, Delhi - DPCC",29-01-2024 20:00:00,28.563262,77.186937,NO2,27,123,58
India,Delhi,Delhi,"R K Puram, Delhi - DPCC",29-01-2024 20:00:00,28.563262,77.186937,CO,76,135,109
India,Delhi,Delhi,"R K Puram, Delhi - DPCC",29-01-2024 20:00:00,28.563262,77.186937,OZONE,9,114,57
India,Delhi,Delhi,"Rohini, Delhi - DPCC",29-01-2024 20:00:00,28.732528,77.119920,PM2.5,345,471,409
India,Delhi,Delhi,"Rohini, Delhi - DPCC",29-01-2024 20:00:00,28.732528,77.119920,NO2,46,95,65
India,Delhi,Delhi,"Rohini, Delhi - DPCC",29-01-2024 20:00:00,28.732528,77.119920,NH3,12,19,15
India,Delhi,Delhi,"Shadipur, Delhi - CPCB",29-01-2024 20:00:00,28.6514781,77.1473105,OZONE,11,32,21
India,Delhi,Delhi,"Sirifort, Delhi - CPCB",29-01-2024 20:00:00,28.5504249,77.2159377,NO2,102,188,149
India,Delhi,Delhi,"Sri Aurobindo Marg, Delhi - DPCC",29-01-2024 20:00:00,28.531346,77.190156,PM2.5,306,417,356
India,Delhi,Delhi,"Sri Aurobindo Marg, Delhi - DPCC",29-01-2024 20:00:00,28.531346,77.190156,NH3,10,14,12
India,Delhi,Delhi,"Sri Aurobindo Marg, Delhi - DPCC",29-01-2024 20:00:00,28.531346,77.190156,CO,46,81,62
India,Delhi,Delhi,"Vivek Vihar, Delhi - DPCC",29-01-2024 20:00:00,28.672342,77.315260,PM2.5,328,451,379
India,Delhi,Delhi,"Wazirpur, Delhi - DPCC",29-01-2024 20:00:00,28.699793,77.165453,NO2,84,232,149
India,Delhi,Delhi,"Wazirpur, Delhi - DPCC",29-01-2024 20:00:00,28.699793,77.165453,NH3,6,10,8
India,Delhi,Delhi,"Wazirpur, Delhi - DPCC",29-01-2024 20:00:00,28.699793,77.165453,CO,6,81,44
India,Gujarat,Ahmedabad,"Chandkheda, Ahmedabad - IITM",29-01-2024 20:00:00,23.107969,72.574648,NH3,4,6,5
India,Gujarat,Ahmedabad,"Gyaspur, Ahmedabad - IITM",29-01-2024 20:00:00,22.977134,72.553024,PM2.5,57,307,116
India,Gujarat,Ahmedabad,"Gyaspur, Ahmedabad - IITM",29-01-2024 20:00:00,22.977134,72.553024,SO2,21,26,23
India,Gujarat,Ahmedabad,"Maninagar, Ahmedabad - GPCB",29-01-2024 20:00:00,23.002657,72.591912,PM2.5,45,301,141
India,Gujarat,Ahmedabad,"Maninagar, Ahmedabad - GPCB",29-01-2024 20:00:00,23.002657,72.591912,PM10,68,301,174
India,Gujarat,Ahmedabad,"Maninagar, Ahmedabad - GPCB",29-01-2024 20:00:00,23.002657,72.591912,OZONE,3,82,58
India,Gujarat,Ahmedabad,"Raikhad, Ahmedabad - IITM",29-01-2024 20:00:00,23.020509,72.579261,PM2.5,NA,NA,NA
India,Gujarat,Ahmedabad,"Raikhad, Ahmedabad - IITM",29-01-2024 20:00:00,23.020509,72.579261,NO2,NA,NA,NA
India,Gujarat,Ahmedabad,"Raikhad, Ahmedabad - IITM",29-01-2024 20:00:00,23.020509,72.579261,OZONE,18,21,21
India,Gujarat,Ahmedabad,"Rakhial, Ahmedabad - IITM",29-01-2024 20:00:00,23.016834,72.625775,PM2.5,59,347,161
India,Gujarat,Ahmedabad,"Rakhial, Ahmedabad - IITM",29-01-2024 20:00:00,23.016834,72.625775,PM10,70,307,142
India,Gujarat,Ahmedabad,"Rakhial, Ahmedabad - IITM",29-01-2024 20:00:00,23.016834,72.625775,CO,1,116,25
India,Gujarat,Ahmedabad,"SAC ISRO Bopal, Ahmedabad - IITM",29-01-2024 20:00:00,23.041137,72.456691,PM10,49,163,99
India,Gujarat,Ahmedabad,"SAC ISRO Bopal, Ahmedabad - IITM",29-01-2024 20:00:00,23.041137,72.456691,OZONE,9,13,13
India,Gujarat,Ahmedabad,"SAC ISRO Satellite, Ahmedabad - IITM",29-01-2024 20:00:00,23.023389,72.515201,CO,22,49,39
India,Gujarat,Ahmedabad,"SAC ISRO Satellite, Ahmedabad - IITM",29-01-2024 20:00:00,23.023389,72.515201,OZONE,2,17,15
India,Gujarat,Ahmedabad,"SVPI Airport Hansol, Ahmedabad - IITM",29-01-2024 20:00:00,23.076793,72.627874,NH3,3,4,3
India,Gujarat,Ahmedabad,"SVPI Airport Hansol, Ahmedabad - IITM",29-01-2024 20:00:00,23.076793,72.627874,SO2,22,26,24
India,Gujarat,Ahmedabad,"Sardar Vallabhbhai Patel Stadium, Ahmedabad - IITM",29-01-2024 20:00:00,23.043070,72.562968,SO2,13,16,15
India,Gujarat,Ankleshwar,"GIDC, Ankleshwar - GPCB",29-01-2024 20:00:00,21.613267,73.010555,PM2.5,68,312,156
India,Gujarat,Gandhinagar,"IIPHG Lekawada, Gandhinagar - IITM",29-01-2024 20:00:00,23.243639,72.68994,NO2,13,15,14
India,Gujarat,Gandhinagar,"IIPHG Lekawada, Gandhinagar - IITM",29-01-2024 20:00:00,23.243639,72.68994,NH3,3,3,3
India,Gujarat,Gandhinagar,"IIPHG Lekawada, Gandhinagar - IITM",29-01-2024 20:00:00,23.243639,72.68994,CO,48,83,56
India,Gujarat,Gandhinagar,"IIPHG Lekawada, Gandhinagar - IITM",29-01-2024 20:00:00,23.243639,72.68994,OZONE,9,19,9
India,Gujarat,Gandhinagar,"Sector-10, Gandhinagar - GPCB",29-01-2024 20:00:00,23.221714,72.654328,PM2.5,26,86,56
India,Gujarat,Gandhinagar,"Sector-10, Gandhinagar - GPCB",29-01-2024 20:00:00,23.221714,72.654328,PM10,48,140,88
India,Gujarat,Gandhinagar,"Sector-10, Gandhinagar - GPCB",29-01-2024 20:00:00,23.221714,72.654328,NO2,3,12,7
India,Gujarat,Gandhinagar,"Sector-10, Gandhinagar - GPCB",29-01-2024 20:00:00,23.221714,72.654328,CO,18,20,20
India,Gujarat,Gandhinagar,"Sector-10, Gandhinagar - GPCB",29-01-2024 20:00:00,23.221714,72.654328,OZONE,1,39,28
India,Gujarat,Surat,"Science Center, Surat - SMC",29-01-2024 20:00:00,21.170046,72.795405,NO2,7,66,31
India,Gujarat,Vatva,"Phase-4 GIDC, Vatva - GPCB",29-01-2024 20:00:00,22.969611,72.643500,CO,38,40,40
India,Haryana,Ambala,"Patti Mehar, Ambala - HSPCB",29-01-2024 20:00:00,30.379589,76.778328,NH3,5,12,8
India,Haryana,Ambala,"Patti Mehar, Ambala - HSPCB",29-01-2024 20:00:00,30.379589,76.778328,CO,38,60,41
India,Haryana,Bahadurgarh,"Arya Nagar, Bahadurgarh - HSPCB",29-01-2024 20:00:00,28.6701,76.9254,NO2,34,39,37
India,Haryana,Ballabgarh,"Nathu Colony, Ballabgarh - HSPCB",29-01-2024 20:00:00,28.3419248,77.319699,NH3,1,2,2
India,Haryana,Ballabgarh,"Nathu Colony, Ballabgarh - HSPCB",29-01-2024 20:00:00,28.3419248,77.319699,OZONE,2,23,14
India,Haryana,Bhiwani,"H.B. Colony, Bhiwani - HSPCB",29-01-2024 20:00:00,28.806223,76.141105,OZONE,7,15,11
India,Haryana,Charkhi Dadri,"Mini Secretariat, Charkhi Dadri - HSPCB",29-01-2024 20:00:00,28.593883,76.270653,PM10,106,343,161
India,Haryana,Dharuhera,"Municipal Corporation Office, Dharuhera -  HSPCB",29-01-2024 20:00:00,28.206800,76.799700,PM10,149,347,217
India,Haryana,Dharuhera,"Municipal Corporation Office, Dharuhera -  HSPCB",29-01-2024 20:00:00,28.206800,76.799700,NO2,46,112,68
India,Haryana,Faridabad,"New Industrial Town, Faridabad - HSPCB",29-01-2024 20:00:00,28.39072,77.30059,PM2.5,NA,NA,NA
India,Haryana,Faridabad,"New Industrial Town, Faridabad - HSPCB",29-01-2024 20:00:00,28.39072,77.30059,PM10,NA,NA,NA
India,Haryana,Faridabad,"New Industrial Town, Faridabad - HSPCB",29-01-2024 20:00:00,28.39072,77.30059,OZONE,3,152,61
India,Haryana,Faridabad,"Sector 11, Faridabad - HSPCB",29-01-2024 20:00:00,28.376058,77.315741,NH3,6,6,6
India,Haryana,Faridabad,"Sector 11, Faridabad - HSPCB",29-01-2024 20:00:00,28.376058,77.315741,CO,46,62,56
India,Haryana,Faridabad,"Sector- 16A, Faridabad - HSPCB",29-01-2024 20:00:00,28.4088421,77.3099081,NO2,7,54,22
India,Haryana,Faridabad,"Sector- 16A, Faridabad - HSPCB",29-01-2024 20:00:00,28.4088421,77.3099081,SO2,NA,NA,NA
India,Haryana,Faridabad,"Sector- 16A, Faridabad - HSPCB",29-01-2024 20:00:00,28.4088421,77.3099081,CO,5,60,30
India,Haryana,Fatehabad,"Huda Sector, Fatehabad - HSPCB",29-01-2024 20:00:00,29.503664,75.467934,SO2,NA,NA,NA
India,Haryana,Gurugram,"NISE Gwal Pahari, Gurugram - IMD",29-01-2024 20:00:00,28.422681,77.148944,OZONE,2,49,30
India,Haryana,Gurugram,"Teri Gram, Gurugram - HSPCB",29-01-2024 20:00:00,28.4275,77.1465,PM10,118,199,162
India,Haryana,Gurugram,"Teri Gram, Gurugram - HSPCB",29-01-2024 20:00:00,28.4275,77.1465,CO,40,64,51
India,Haryana,Gurugram,"Vikas Sadan, Gurugram - HSPCB",29-01-2024 20:00:00,28.4501238,77.0263051,SO2,17,38,27
India,Haryana,Gurugram,"Vikas Sadan, Gurugram - HSPCB",29-01-2024 20:00:00,28.4501238,77.0263051,OZONE,8,68,50
India,Haryana,Hisar,"Urban Estate-II, Hisar - HSPCB",29-01-2024 20:00:00,29.140560,75.744941,NH3,3,4,3
India,Haryana,Hisar,"Urban Estate-II, Hisar - HSPCB",29-01-2024 20:00:00,29.140560,75.744941,CO,40,102,75
India,Haryana,Jind,"Police Lines, Jind - HSPCB",29-01-2024 20:00:00,29.307814,76.337619,PM10,120,179,154
India,Haryana,Jind,"Police Lines, Jind - HSPCB",29-01-2024 20:00:00,29.307814,76.337619,NH3,2,5,4
India,Haryana,Karnal,"Sector-12, Karnal - HSPCB",29-01-2024 20:00:00,29.695300,77.002700,CO,36,86,65
India,Haryana,Karnal,"Sector-12, Karnal - HSPCB",29-01-2024 20:00:00,29.695300,77.002700,OZONE,30,32,31
India,Haryana,Mandikhera,"General Hospital, Mandikhera - HSPCB",29-01-2024 20:00:00,27.9002,76.9938,PM2.5,13,99,30
India,Haryana,Manesar,"Sector-2 IMT, Manesar - HSPCB",29-01-2024 20:00:00,28.360699,76.936090,OZONE,5,42,23
India,Haryana,Narnaul,"Shastri Nagar, Narnaul - HSPCB",29-01-2024 20:00:00,28.060249,76.113115,PM2.5,46,201,117
India,Haryana,Narnaul,"Shastri Nagar, Narnaul - HSPCB",29-01-2024 20:00:00,28.060249,76.113115,CO,15,34,24
India,Haryana,Panipat,"Sector-18, Panipat - HSPCB",29-01-2024 20:00:00,29.497973,76.993331,PM10,104,148,119
India,Haryana,Panipat,"Sector-18, Panipat - HSPCB",29-01-2024 20:00:00,29.497973,76.993331,NO2,28,37,32
India,Haryana,Panipat,"Sector-18, Panipat - HSPCB",29-01-2024 20:00:00,29.497973,76.993331,SO2,12,16,14
India,Haryana,Rohtak,"MD University, Rohtak - HSPCB",29-01-2024 20:00:00,28.52123,76.37138,OZONE,44,54,48
India,Haryana,Sirsa,"F-Block, Sirsa - HSPCB",29-01-2024 20:00:00,29.536400,75.015800,NO2,10,10,10
India,Haryana,Sonipat,"Murthal, Sonipat - HSPCB",29-01-2024 20:00:00,29.027200,77.062100,PM2.5,268,352,311
India,Haryana,Sonipat,"Murthal, Sonipat - HSPCB",29-01-2024 20:00:00,29.027200,77.062100,NO2,37,44,40
India,Haryana,Sonipat,"Murthal, Sonipat - HSPCB",29-01-2024 20:00:00,29.027200,77.062100,SO2,13,29,20
India,Haryana,Yamuna Nagar,"Gobind Pura, Yamuna Nagar - HSPCB",29-01-2024 20:00:00,30.1480566,77.2893471,SO2,2,100,13
India,Haryana,Yamuna Nagar,"Gobind Pura, Yamuna Nagar - HSPCB",29-01-2024 20:00:00,30.1480566,77.2893471,OZONE,5,21,15
India,Himachal Pradesh,Baddi,"HIMUDA Complex Phase-1, Baddi - HPPCB",29-01-2024 20:00:00,30.943887,76.801991,PM10,116,405,203
India,Jharkhand,Dhanbad,"Sardar Patel Nagar, Dhanbad - JSPCB",29-01-2024 20:00:00,23.80569,86.44268,PM2.5,82,413,208
India,Karnataka,Bagalkot,"Vidayagiri, Bagalkot - KSPCB",29-01-2024 20:00:00,16.172806,75.659694,PM10,46,47,46
India,Karnataka,Belgaum,"Ramteerth Nagar, Belgaum - KSPCB",29-01-2024 20:00:00,15.888653,74.541751,PM10,50,113,69
India,Karnataka,Belgaum,"Ramteerth Nagar, Belgaum - KSPCB",29-01-2024 20:00:00,15.888653,74.541751,NO2,28,35,30
India,Karnataka,Bengaluru,"BTM Layout, Bengaluru - CPCB",29-01-2024 20:00:00,12.9135218,77.5950804,PM2.5,8,21,13
India,Karnataka,Bengaluru,"BTM Layout, Bengaluru - CPCB",29-01-2024 20:00:00,12.9135218,77.5950804,PM10,46,70,57
India,Karnataka,Bengaluru,"Hebbal, Bengaluru - KSPCB",29-01-2024 20:00:00,13.029152,77.585901,NO2,NA,NA,NA
India,Karnataka,Bengaluru,"Hombegowda Nagar, Bengaluru - KSPCB",29-01-2024 20:00:00,12.938539,77.590100,PM10,52,131,69
India,Karnataka,Bengaluru,"Hombegowda Nagar, Bengaluru - KSPCB",29-01-2024 20:00:00,12.938539,77.590100,SO2,1,9,4
India,Karnataka,Bengaluru,"Kasturi Nagar, Bengaluru - KSPCB",29-01-2024 20:00:00,13.003872,77.664217,PM10,88,125,106
India,Karnataka,Bengaluru,"Kasturi Nagar, Bengaluru - KSPCB",29-01-2024 20:00:00,13.003872,77.664217,NO2,16,17,16
India,Karnataka,Bengaluru,"Peenya, Bengaluru - CPCB",29-01-2024 20:00:00,13.0270199,77.494094,PM2.5,15,70,43
India,Karnataka,Bengaluru,"RVCE-Mailasandra, Bengaluru - KSPCB",29-01-2024 20:00:00,12.921418,77.502466,PM10,103,137,113
India,Karnataka,Bengaluru,"RVCE-Mailasandra, Bengaluru - KSPCB",29-01-2024 20:00:00,12.921418,77.502466,NH3,4,4,4
India,Karnataka,Bengaluru,"RVCE-Mailasandra, Bengaluru - KSPCB",29-01-2024 20:00:00,12.921418,77.502466,OZONE,40,44,41
India,Karnataka,Bidar,"Naubad, Bidar - KSPCB",29-01-2024 20:00:00,17.930306,77.482194,NO2,7,8,8
India,Karnataka,Chikkaballapur,"Chikkaballapur Rural, Chikkaballapur - KSPCB",29-01-2024 20:00:00,13.428828,77.731418,OZONE,24,25,24
India,Karnataka,Chikkamagaluru,"Kalyana Nagara, Chikkamagaluru - KSPCB",29-01-2024 20:00:00,13.328028,75.797056,NO2,16,28,19
India,Karnataka,Davanagere,"Devaraj Urs Badavane, Davanagere - KSPCB",29-01-2024 20:00:00,14.475800,75.905200,NO2,10,16,12
India,Karnataka,Davanagere,"Devaraj Urs Badavane, Davanagere - KSPCB",29-01-2024 20:00:00,14.475800,75.905200,NH3,1,1,1
India,Karnataka,Davanagere,"Devaraj Urs Badavane, Davanagere - KSPCB",29-01-2024 20:00:00,14.475800,75.905200,OZONE,18,26,25
India,Karnataka,Gadag,"Panchal Nagar, Gadag - KSPCB",29-01-2024 20:00:00,15.411456,75.638133,PM2.5,NA,NA,NA
India,Karnataka,Gadag,"Panchal Nagar, Gadag - KSPCB",29-01-2024 20:00:00,15.411456,75.638133,NH3,NA,NA,NA
India,Karnataka,Hassan,"B.Katihalli, Hassan - KSPCB",29-01-2024 20:00:00,13.008556,76.125258,NO2,NA,NA,NA
India,Karnataka,Haveri,"Ashwini Nagar, Haveri - KSPCB",29-01-2024 20:00:00,14.791800,75.389600,NH3,3,4,3
India,Karnataka,Haveri,"Ashwini Nagar, Haveri - KSPCB",29-01-2024 20:00:00,14.791800,75.389600,CO,33,35,34
India,Karnataka,Hubballi,"Deshpande Nagar, Hubballi - KSPCB",29-01-2024 20:00:00,15.351773,75.140726,CO,68,96,75
India,Karnataka,Kalaburagi,"Lal Bahadur Shastri Nagar, Kalaburagi - KSPCB",29-01-2024 20:00:00,17.321993,76.822628,NH3,2,2,2
India,Karnataka,Kalaburagi,"Mahatma Basaveswar Colony, Kalaburgi - KSPCB",29-01-2024 20:00:00,17.336318,76.847397,NH3,2,3,2
India,Karnataka,Kolar,"Tamaka Ind. Area, Kolar - KSPCB",29-01-2024 20:00:00,13.1276288,78.1570122,NH3,6,7,7
India,Karnataka,Kolar,"Tamaka Ind. Area, Kolar - KSPCB",29-01-2024 20:00:00,13.1276288,78.1570122,OZONE,12,14,13
India,Karnataka,Koppal,"Diwator Nagar, Koppal - KSPCB",29-01-2024 20:00:00,15.347630,76.181767,OZONE,23,65,58
India,Karnataka,Madikeri,"Stuart Hill, Madikeri - KSPCB",29-01-2024 20:00:00,12.415911,75.735050,CO,7,44,16
India,Karnataka,Mangalore,"Kadri, Mangalore - KSPCB",29-01-2024 20:00:00,12.889250,74.853000,NO2,8,11,10
India,Karnataka,Mangalore,"Kadri, Mangalore - KSPCB",29-01-2024 20:00:00,12.889250,74.853000,OZONE,31,31,31
India,Karnataka,Mysuru,"Hebbal 1st Stage, Mysuru - KSPCB",29-01-2024 20:00:00,12.21041,76.37376,PM2.5,34,50,41
India,Karnataka,Mysuru,"Hebbal 1st Stage, Mysuru - KSPCB",29-01-2024 20:00:00,12.21041,76.37376,OZONE,3,108,77
India,Karnataka,Shivamogga,"Vinoba Nagara, Shivamogga - KSPCB",29-01-2024 20:00:00,13.940000,75.555917,PM10,54,75,61
India,Karnataka,Shivamogga,"Vinoba Nagara, Shivamogga - KSPCB",29-01-2024 20:00:00,13.940000,75.555917,NO2,9,21,14
India,Karnataka,Udupi,"Brahmagiri, Udupi - KSPCB",29-01-2024 20:00:00,13.34194444,74.74694444,NH3,NA,NA,NA
India,Karnataka,Udupi,"Brahmagiri, Udupi - KSPCB",29-01-2024 20:00:00,13.34194444,74.74694444,SO2,NA,NA,NA
India,Karnataka,Vijayapura,"Ibrahimpur, Vijayapura - KSPCB",29-01-2024 20:00:00,16.802639,75.722694,PM2.5,25,31,30
India,Karnataka,Vijayapura,"Ibrahimpur, Vijayapura - KSPCB",29-01-2024 20:00:00,16.802639,75.722694,SO2,1,5,3
India,Kerala,Eloor,"Udyogamandal, Eloor - Kerala PCB",29-01-2024 20:00:00,10.073232,76.302765,PM2.5,30,52,40
India,Kerala,Eloor,"Udyogamandal, Eloor - Kerala PCB",29-01-2024 20:00:00,10.073232,76.302765,OZONE,4,13,9
India,Kerala,Kollam,"Polayathode, Kollam - Kerala PCB",29-01-2024 20:00:00,8.8787,76.6073,NO2,8,9,8
India,Kerala,Thiruvananthapuram,"Kariavattom, Thiruvananthapuram - Kerala PCB",29-01-2024 20:00:00,8.563700,76.886500,NH3,1,1,1
India,Kerala,Thiruvananthapuram,"Plammoodu, Thiruvananthapuram - Kerala PCB",29-01-2024 20:00:00,8.5149093,76.9435879,SO2,8,15,11
India,Kerala,Thiruvananthapuram,"Plammoodu, Thiruvananthapuram - Kerala PCB",29-01-2024 20:00:00,8.5149093,76.9435879,CO,20,34,21
India,Madhya Pradesh,Bhopal,"Idgah Hills, Bhopal - MPPCB",29-01-2024 20:00:00,23.264759,77.381568,NH3,NA,NA,NA
India,Madhya Pradesh,Bhopal,"Paryavaran Parisar, Bhopal - MPPCB",29-01-2024 20:00:00,23.210494,77.425409,PM2.5,27,422,203
India,Madhya Pradesh,Bhopal,"Paryavaran Parisar, Bhopal - MPPCB",29-01-2024 20:00:00,23.210494,77.425409,SO2,20,32,24
India,Madhya Pradesh,Bhopal,"Paryavaran Parisar, Bhopal - MPPCB",29-01-2024 20:00:00,23.210494,77.425409,CO,2,112,34
India,Madhya Pradesh,Bhopal,"T T Nagar, Bhopal - MPPCB",29-01-2024 20:00:00,23.233584,77.400574,SO2,24,56,40
India,Madhya Pradesh,Bhopal,"T T Nagar, Bhopal - MPPCB",29-01-2024 20:00:00,23.233584,77.400574,CO,36,116,49
India,Madhya Pradesh,Bhopal,"T T Nagar, Bhopal - MPPCB",29-01-2024 20:00:00,23.233584,77.400574,OZONE,8,118,95
India,Madhya Pradesh,Dewas,"Bhopal Chauraha, Dewas - MPPCB",29-01-2024 20:00:00,22.9682591,76.064118,PM2.5,49,337,200
India,Madhya Pradesh,Gwalior,"City Center, Gwalior - MPPCB",29-01-2024 20:00:00,26.203442,78.193251,NO2,17,85,28
India,Madhya Pradesh,Gwalior,"Deen Dayal Nagar, Gwalior - MPPCB",29-01-2024 20:00:00,26.259242,78.216432,PM2.5,222,369,331
India,Madhya Pradesh,Gwalior,"Maharaj Bada, Gwalior - MPPCB",29-01-2024 20:00:00,26.200388,78.147714,PM10,129,350,227
India,Madhya Pradesh,Gwalior,"Maharaj Bada, Gwalior - MPPCB",29-01-2024 20:00:00,26.200388,78.147714,NO2,19,110,47
India,Madhya Pradesh,Gwalior,"Phool Bagh, Gwalior - Mondelez Ind. Food",29-01-2024 20:00:00,26.210536,78.171,NO2,4,5,4
India,Madhya Pradesh,Indore,"Chhoti Gwaltoli, Indore - MPPCB",29-01-2024 20:00:00,22.4310,75.5213,PM2.5,63,373,244
India,Madhya Pradesh,Indore,"Chhoti Gwaltoli, Indore - MPPCB",29-01-2024 20:00:00,22.4310,75.5213,SO2,14,30,22
India,Madhya Pradesh,Indore,"Regional Park, Indore - IMC",29-01-2024 20:00:00,22.6780,75.8559,NH3,1,3,1
India,Madhya Pradesh,Indore,"Regional Park, Indore - IMC",29-01-2024 20:00:00,22.6780,75.8559,SO2,40,43,42
India,Madhya Pradesh,Indore,"Residency Area, Indore - IMC",29-01-2024 20:00:00,22.7084,75.8815,PM2.5,54,307,139
India,Madhya Pradesh,Jabalpur,"Govindh Bhavan Colony, Jabalpur - JMC",29-01-2024 20:00:00,23.163174,79.973061,NH3,5,5,5
India,Madhya Pradesh,Jabalpur,"Gupteshwar, Jabalpur - JMC",29-01-2024 20:00:00,23.142888,79.916147,NO2,9,112,31
India,Madhya Pradesh,Jabalpur,"Gupteshwar, Jabalpur - JMC",29-01-2024 20:00:00,23.142888,79.916147,CO,26,117,40
India,Madhya Pradesh,Jabalpur,"Marhatal, Jabalpur - MPPCB",29-01-2024 20:00:00,23.168606,79.932247,PM2.5,74,382,150
India,Madhya Pradesh,Jabalpur,"Marhatal, Jabalpur - MPPCB",29-01-2024 20:00:00,23.168606,79.932247,PM10,72,406,134
India,Madhya Pradesh,Jabalpur,"Marhatal, Jabalpur - MPPCB",29-01-2024 20:00:00,23.168606,79.932247,NH3,5,6,5
India,Madhya Pradesh,Jabalpur,"Suhagi, Jabalpur - JMC",29-01-2024 20:00:00,23.218135,79.957770,SO2,NA,NA,NA
India,Madhya Pradesh,Katni,"Gole Bazar, Katni - MPPCB",29-01-2024 20:00:00,23.50016,80.23284,PM10,64,231,125
India,Madhya Pradesh,Katni,"Gole Bazar, Katni - MPPCB",29-01-2024 20:00:00,23.50016,80.23284,NO2,10,106,49
India,Madhya Pradesh,Maihar,"Sahilara, Maihar - KJS Cements",29-01-2024 20:00:00,24.2613009,80.7231783,PM10,35,71,51
India,Madhya Pradesh,Mandideep,"Sector-D Industrial Area, Mandideep - MPPCB",29-01-2024 20:00:00,23.108440,77.511428,SO2,NA,NA,NA
India,Madhya Pradesh,Pithampur,"Sector-2 Industrial Area, Pithampur - MPPCB",29-01-2024 20:00:00,22.624758,75.675238,NO2,8,19,13
India,Madhya Pradesh,Ratlam,"Shasthri Nagar, Ratlam - IPCA Lab",29-01-2024 20:00:00,23.331731,75.045981,NO2,3,87,43
India,Madhya Pradesh,Sagar,"Civil Lines, Sagar - MPPCB",29-01-2024 20:00:00,23.838586,78.759431,CO,21,57,37
India,Madhya Pradesh,Sagar,"Civil Lines, Sagar - MPPCB",29-01-2024 20:00:00,23.838586,78.759431,OZONE,39,46,42
India,Madhya Pradesh,Sagar,"Deen Dayal Nagar, Sagar - MPPCB",29-01-2024 20:00:00,23.8640158,78.80289321,NO2,13,24,22
India,Madhya Pradesh,Sagar,"Deen Dayal Nagar, Sagar - MPPCB",29-01-2024 20:00:00,23.8640158,78.80289321,SO2,5,13,9
India,Madhya Pradesh,Satna,"Bandhavgar Colony, Satna - Birla Cement",29-01-2024 20:00:00,24.58434363,80.8549414,CO,22,49,27
India,Madhya Pradesh,Satna,"Bandhavgar Colony, Satna - Birla Cement",29-01-2024 20:00:00,24.58434363,80.8549414,OZONE,60,82,73
India,Madhya Pradesh,Singrauli,"Suryakiran Bhawan NCL, Singrauli - MPPCB",29-01-2024 20:00:00,24.108970,82.645580,CO,44,112,64
India,Madhya Pradesh,Ujjain,"Mahakaleshwar Temple, Ujjain - MPPCB",29-01-2024 20:00:00,23.182719 ,75.768218 ,PM2.5,42,264,138
India,Madhya Pradesh,Ujjain,"Mahakaleshwar Temple, Ujjain - MPPCB",29-01-2024 20:00:00,23.182719 ,75.768218 ,PM10,59,121,88
India,Madhya Pradesh,Ujjain,"Mahakaleshwar Temple, Ujjain - MPPCB",29-01-2024 20:00:00,23.182719 ,75.768218 ,SO2,7,27,15
India,Madhya Pradesh,Ujjain,"Mahakaleshwar Temple, Ujjain - MPPCB",29-01-2024 20:00:00,23.182719 ,75.768218 ,CO,19,110,33
India,Maharashtra,Ahmednagar,"Tarakpur, Ahmednagar - MPCB",29-01-2024 20:00:00,19.10122,74.73339,PM2.5,44,174,89
India,Maharashtra,Ahmednagar,"Tarakpur, Ahmednagar - MPCB",29-01-2024 20:00:00,19.10122,74.73339,PM10,49,206,116
India,Maharashtra,Akola,"Ramdaspeth, Akola - MPCB",29-01-2024 20:00:00,20.719516,77.000253,CO,30,121,52
India,Maharashtra,Amravati,"Shri Shivaji Science College, Amaravati - MPCB",29-01-2024 20:00:00,20.939198,77.765701,SO2,22,51,31
India,Maharashtra,Aurangabad,"MIDC Chilkalthana, Aurangabad - MPCB",29-01-2024 20:00:00,19.875620,75.387310,SO2,6,35,14
India,Maharashtra,Aurangabad,"More Chowk Waluj, Aurangabad - MPCB",29-01-2024 20:00:00,19.8389439,75.244448,PM10,NA,NA,NA
India,Maharashtra,Aurangabad,"Rachnakar Colony, Aurangabad - MPCB",29-01-2024 20:00:00,19.863756,75.321188,NH3,1,1,1
India,Maharashtra,Aurangabad,"Rachnakar Colony, Aurangabad - MPCB",29-01-2024 20:00:00,19.863756,75.321188,SO2,3,45,23
India,Maharashtra,Badlapur,"Katrap, Badlapur - MPCB",29-01-2024 20:00:00,19.16485,73.23409,NH3,2,5,3
India,Maharashtra,Badlapur,"Katrap, Badlapur - MPCB",29-01-2024 20:00:00,19.16485,73.23409,SO2,15,45,24
India,Maharashtra,Badlapur,"Katrap, Badlapur - MPCB",29-01-2024 20:00:00,19.16485,73.23409,OZONE,1,70,51
India,Maharashtra,Belapur,"CBD Belapur, Belapur - MPCB",29-01-2024 20:00:00,19.0243902,73.0406721,SO2,3,15,7
India,Maharashtra,Boisar,"Khaira, Boisar - MPCB",29-01-2024 20:00:00,19.786089,72.757971,PM10,131,198,169
India,Maharashtra,Chandrapur,"Chauhan Colony, Chandrapur - MPCB",29-01-2024 20:00:00,19.962900,79.298714,PM2.5,82,303,179
India,Maharashtra,Chandrapur,"Chauhan Colony, Chandrapur - MPCB",29-01-2024 20:00:00,19.962900,79.298714,PM10,66,191,112
India,Maharashtra,Dhule,"Deopur, Dhule - MPCB",29-01-2024 20:00:00,20.918946,74.776388,PM10,68,196,106
India,Maharashtra,Dhule,"Deopur, Dhule - MPCB",29-01-2024 20:00:00,20.918946,74.776388,CO,26,52,29
India,Maharashtra,Jalgaon,"Prabhat Colony, Jalgaon - MPCB",29-01-2024 20:00:00,21.001264,75.565602,PM10,87,175,138
India,Maharashtra,Jalgaon,"Prabhat Colony, Jalgaon - MPCB",29-01-2024 20:00:00,21.001264,75.565602,NH3,2,11,8
India,Maharashtra,Kalyan,"Khadakpada, Kalyan - MPCB",29-01-2024 20:00:00,19.25292,73.142019,PM10,65,234,125
India,Maharashtra,Kalyan,"Khadakpada, Kalyan - MPCB",29-01-2024 20:00:00,19.25292,73.142019,NO2,20,168,46
India,Maharashtra,Kolhapur,"Shivaji University, Kolhapur - MPCB",29-01-2024 20:00:00,16.6870449,74.2505872,PM10,87,227,128
India,Maharashtra,Kolhapur,"Shivaji University, Kolhapur - MPCB",29-01-2024 20:00:00,16.6870449,74.2505872,OZONE,4,128,90
India,Maharashtra,Kolhapur,"Sinchan Bhavan, Kolhapur - MPCB",29-01-2024 20:00:00,16.7143745,74.2426398,NH3,7,8,7
India,Maharashtra,Latur,"Sawe Wadi, Latur - MPCB",29-01-2024 20:00:00,18.39963,76.57452,NH3,8,8,8
India,Maharashtra,Malegaon,"Mahesh Nagar, Malegaon - MPCB",29-01-2024 20:00:00,20.555712,74.529236,SO2,5,15,10
India,Maharashtra,Mira-Bhayandar,"Bhayandar West, Mira-Bhayandar - MPCB",29-01-2024 20:00:00,19.296481,72.840923,SO2,5,27,14
India,Maharashtra,Mira-Bhayandar,"Bhayandar West, Mira-Bhayandar - MPCB",29-01-2024 20:00:00,19.296481,72.840923,OZONE,1,64,56
India,Maharashtra,Mumbai,"Bandra Kurla Complex, Mumbai - MPCB",29-01-2024 20:00:00,19.065931,72.862131,SO2,5,26,13
India,Maharashtra,Mumbai,"Bandra Kurla Complex, Mumbai - MPCB",29-01-2024 20:00:00,19.065931,72.862131,CO,22,109,37
India,Maharashtra,Mumbai,"Bandra Kurla Complex, Mumbai - MPCB",29-01-2024 20:00:00,19.065931,72.862131,OZONE,1,57,45
India,Maharashtra,Mumbai,"Borivali East, Mumbai - IITM",29-01-2024 20:00:00,19.23241,72.86895,PM2.5,NA,NA,NA
India,Maharashtra,Mumbai,"Byculla, Mumbai - BMC",29-01-2024 20:00:00,18.9767,72.8380,PM2.5,57,179,107
India,Maharashtra,Mumbai,"Byculla, Mumbai - BMC",29-01-2024 20:00:00,18.9767,72.8380,CO,14,84,29
India,Maharashtra,Mumbai,"Chakala-Andheri East, Mumbai - IITM",29-01-2024 20:00:00,19.11074,72.86084,CO,100,125,104
India,Maharashtra,Mumbai,"Chembur, Mumbai - MPCB",29-01-2024 20:00:00,19.0364585,72.8954371,PM2.5,50,148,96
India,Maharashtra,Mumbai,"Chhatrapati Shivaji Intl. Airport (T2), Mumbai - MPCB",29-01-2024 20:00:00,19.10078,72.87462,SO2,20,38,27
India,Maharashtra,Mumbai,"Chhatrapati Shivaji Intl. Airport (T2), Mumbai - MPCB",29-01-2024 20:00:00,19.10078,72.87462,OZONE,1,21,17
India,Maharashtra,Mumbai,"Colaba, Mumbai - MPCB",29-01-2024 20:00:00,18.910000,72.820000,PM2.5,47,98,67
India,Maharashtra,Mumbai,"Colaba, Mumbai - MPCB",29-01-2024 20:00:00,18.910000,72.820000,OZONE,10,14,13
India,Maharashtra,Mumbai,"Deonar, Mumbai - IITM",29-01-2024 20:00:00,19.04946,72.9230,CO,55,109,65
India,Maharashtra,Mumbai,"Kherwadi_Bandra East, Mumbai - MPCB",29-01-2024 20:00:00,19.0632143,72.8456324,OZONE,1,51,44
India,Maharashtra,Mumbai,"Mindspace-Malad West, Mumbai - MPCB",29-01-2024 20:00:00,19.1878657,72.8304069,NH3,8,9,9
India,Maharashtra,Mumbai,"Navy Nagar-Colaba, Mumbai - IITM",29-01-2024 20:00:00,18.897756,72.813320,PM2.5,82,178,113
India,Maharashtra,Mumbai,"Navy Nagar-Colaba, Mumbai - IITM",29-01-2024 20:00:00,18.897756,72.813320,PM10,103,173,125
India,Maharashtra,Mumbai,"Navy Nagar-Colaba, Mumbai - IITM",29-01-2024 20:00:00,18.897756,72.813320,CO,14,66,29
India,Maharashtra,Mumbai,"Powai, Mumbai - MPCB",29-01-2024 20:00:00,19.137500,72.915056,PM10,48,176,97
India,Maharashtra,Mumbai,"Sewri, Mumbai - BMC",29-01-2024 20:00:00,19.000084,72.856730,SO2,10,35,18
India,Maharashtra,Mumbai,"Sewri, Mumbai - BMC",29-01-2024 20:00:00,19.000084,72.856730,CO,24,109,29
India,Maharashtra,Mumbai,"Shivaji Nagar, Mumbai - BMC",29-01-2024 20:00:00,19.060498,72.923356,PM10,96,240,137
India,Maharashtra,Mumbai,"Shivaji Nagar, Mumbai - BMC",29-01-2024 20:00:00,19.060498,72.923356,NH3,2,6,4
India,Maharashtra,Mumbai,"Vasai West, Mumbai - MPCB",29-01-2024 20:00:00,19.383200,72.820400,PM2.5,26,75,51
India,Maharashtra,Mumbai,"Vasai West, Mumbai - MPCB",29-01-2024 20:00:00,19.383200,72.820400,NO2,26,28,27
India,Maharashtra,Mumbai,"Vile Parle West, Mumbai - MPCB",29-01-2024 20:00:00,19.10861,72.83622,CO,1,9,4
India,Maharashtra,Mumbai,"Vile Parle West, Mumbai - MPCB",29-01-2024 20:00:00,19.10861,72.83622,OZONE,6,23,18
India,Maharashtra,Mumbai,"Worli, Mumbai - MPCB",29-01-2024 20:00:00,18.9936162,72.8128113,PM10,75,162,109
India,Maharashtra,Nagpur,"Ambazari, Nagpur - MPCB",29-01-2024 20:00:00,21.121801,79.04952,NO2,33,120,66
India,Maharashtra,Nagpur,"Ambazari, Nagpur - MPCB",29-01-2024 20:00:00,21.121801,79.04952,CO,22,95,46
India,Maharashtra,Nagpur,"Ambazari, Nagpur - MPCB",29-01-2024 20:00:00,21.121801,79.04952,OZONE,1,129,96
India,Maharashtra,Nagpur,"Mahal, Nagpur - MPCB",29-01-2024 20:00:00,21.14472,79.107595,SO2,33,118,75
India,Maharashtra,Nagpur,"Opp GPO Civil Lines, Nagpur - MPCB",29-01-2024 20:00:00,21.152875,79.0517531,PM10,106,179,147
India,Maharashtra,Nagpur,"Opp GPO Civil Lines, Nagpur - MPCB",29-01-2024 20:00:00,21.152875,79.0517531,OZONE,2,98,68
India,Maharashtra,Nagpur,"Ram Nagar, Nagpur - MPCB",29-01-2024 20:00:00,21.143383,79.048912,PM2.5,114,307,208
India,Maharashtra,Nagpur,"Ram Nagar, Nagpur - MPCB",29-01-2024 20:00:00,21.143383,79.048912,NH3,5,5,5
India,Maharashtra,Nanded,"Sneh Nagar, Nanded - MPCB",29-01-2024 20:00:00,19.173852,77.296291,PM2.5,87,252,146
India,Maharashtra,Nanded,"Sneh Nagar, Nanded - MPCB",29-01-2024 20:00:00,19.173852,77.296291,NO2,34,124,71
India,Maharashtra,Nanded,"Sneh Nagar, Nanded - MPCB",29-01-2024 20:00:00,19.173852,77.296291,NH3,1,3,2
India,Maharashtra,Nanded,"Sneh Nagar, Nanded - MPCB",29-01-2024 20:00:00,19.173852,77.296291,OZONE,30,143,115
India,Maharashtra,Nashik,"Gangapur Road, Nashik - MPCB",29-01-2024 20:00:00,20.0073285,73.7762427,PM2.5,59,212,132
India,Maharashtra,Nashik,"Hirawadi, Nashik - MPCB",29-01-2024 20:00:00,20.021503,73.813844,NO2,1,72,39
India,Maharashtra,Nashik,"Hirawadi, Nashik - MPCB",29-01-2024 20:00:00,20.021503,73.813844,OZONE,7,119,105
India,Maharashtra,Nashik,"MIDC Ambad, Nashik - MPCB",29-01-2024 20:00:00,19.950220,73.731480,PM2.5,59,199,116
India,Maharashtra,Nashik,"MIDC Ambad, Nashik - MPCB",29-01-2024 20:00:00,19.950220,73.731480,PM10,105,185,140
India,Maharashtra,Nashik,"Pandav Nagari, Nashik - MPCB",29-01-2024 20:00:00,19.9591346,73.7788008,PM10,84,169,112
India,Maharashtra,Navi Mumbai,"Mahape, Navi Mumbai - MPCB",29-01-2024 20:00:00,19.1135051,73.008978,NH3,3,5,3
India,Maharashtra,Navi Mumbai,"Nerul, Navi Mumbai - MPCB",29-01-2024 20:00:00,19.008751,73.016620,NH3,3,7,5
India,Maharashtra,Navi Mumbai,"Sanpada, Navi Mumbai - MPCB",29-01-2024 20:00:00,19.0575752,73.0151367,CO,10,70,13
India,Maharashtra,Navi Mumbai,"Sector-19A Nerul, Navi Mumbai - IITM",29-01-2024 20:00:00,19.044,73.0325,OZONE,1,132,91
India,Maharashtra,Navi Mumbai,"Sector-2E Kalamboli, Navi Mumbai - MPCB",29-01-2024 20:00:00,19.02579,73.10297,NH3,6,25,16
India,Maharashtra,Navi Mumbai,"Sector-2E Kalamboli, Navi Mumbai - MPCB",29-01-2024 20:00:00,19.02579,73.10297,CO,10,81,23
India,Maharashtra,Navi Mumbai,"Tondare-Taloja, Navi Mumbai - MPCB",29-01-2024 20:00:00,19.0630,73.1209,PM2.5,53,313,155
India,Maharashtra,Navi Mumbai,"Tondare-Taloja, Navi Mumbai - MPCB",29-01-2024 20:00:00,19.0630,73.1209,NO2,16,118,73
India,Maharashtra,Parbhani,"Masoom Colony, Parbhani - MPCB",29-01-2024 20:00:00,19.265594,76.761463,PM10,124,179,149
India,Maharashtra,Pimpri-Chinchwad,"Gavalinagar, Pimpri Chinchwad - MPCB",29-01-2024 20:00:00,18.63673,73.82487,PM2.5,82,302,153
India,Maharashtra,Pimpri-Chinchwad,"Gavalinagar, Pimpri Chinchwad - MPCB",29-01-2024 20:00:00,18.63673,73.82487,NO2,19,122,66
India,Maharashtra,Pimpri-Chinchwad,"Gavalinagar, Pimpri Chinchwad - MPCB",29-01-2024 20:00:00,18.63673,73.82487,NH3,2,20,7
India,Maharashtra,Pimpri-Chinchwad,"Park Street Wakad, Pimpri Chinchwad - MPCB",29-01-2024 20:00:00,18.59051,73.77946,NO2,74,157,106
India,Maharashtra,Pimpri-Chinchwad,"Park Street Wakad, Pimpri Chinchwad - MPCB",29-01-2024 20:00:00,18.59051,73.77946,NH3,10,24,15
India,Maharashtra,Pune,"Bhosari, Pune - IITM",29-01-2024 20:00:00,18.640051,73.848956,PM10,88,189,128
India,Maharashtra,Pune,"Karve Road, Pune - MPCB",29-01-2024 20:00:00,18.5011743,73.8165527,PM10,118,125,118
India,Maharashtra,Pune,"Karve Road, Pune - MPCB",29-01-2024 20:00:00,18.5011743,73.8165527,CO,62,68,63
India,Maharashtra,Pune,"Katraj Dairy, Pune - MPCB",29-01-2024 20:00:00,18.454450,73.854155,OZONE,1,60,43
India,Maharashtra,Pune,"Revenue Colony-Shivajinagar, Pune - IITM",29-01-2024 20:00:00,18.530085,73.849598,SO2,98,133,114
India,Maharashtra,Pune,"Savitribai Phule Pune University, Pune - MPCB",29-01-2024 20:00:00,18.547056,73.826908,PM2.5,72,174,111
India,Maharashtra,Sangli,"Vijay Nagar, Sangli - MPCB",29-01-2024 20:00:00, 16.5038,74.3623,NH3,1,4,3
India,Maharashtra,Solapur,"Ratandeep Housing Society, Solapur - MPCB",29-01-2024 20:00:00,17.65439,75.90649,NO2,15,167,69
India,Maharashtra,Solapur,"Solapur, Solapur - MPCB",29-01-2024 20:00:00,17.6599188,75.9063906,SO2,30,39,34
India,Maharashtra,Thane,"Kasarvadavali, Thane - MPCB",29-01-2024 20:00:00,19.26777,72.97182,PM10,118,246,160
India,Manipur,Imphal,"DM College of Science, Imphal - Manipur PCB",29-01-2024 20:00:00,24.8207389,93.9423085,CO,NA,NA,NA
India,Manipur,Imphal,"Manipur University, Imphal - Manipur PCB",29-01-2024 20:00:00,24.7524239,93.9286218,SO2,60,66,63
India,Meghalaya,Shillong,"JN Stadium, Shillong - Meghalaya PCB",29-01-2024 20:00:00,25.5803419,91.8942571,NH3,NA,NA,NA
India,Meghalaya,Shillong,"Lumpyngngad, Shillong - Meghalaya PCB",29-01-2024 20:00:00,25.5586,91.8985,PM10,48,105,70
India,Meghalaya,Shillong,"Lumpyngngad, Shillong - Meghalaya PCB",29-01-2024 20:00:00,25.5586,91.8985,NH3,1,1,1
India,Mizoram,Aizawl,"Sikulpuikawn, Aizawl - Mizoram PCB",29-01-2024 20:00:00,23.7176342,92.7192841,OZONE,17,66,27
India,Odisha,Angul,"Hakimapada, Angul - OSPCB",29-01-2024 20:00:00,20.832874,85.104082,CO,7,104,29
India,Odisha,Balasore,"Kalidaspur, Balasore - OSPCB",29-01-2024 20:00:00,21.51161,86.89088,NO2,14,66,28
India,Odisha,Barbil,"Forest Office, Barbil - OSPCB",29-01-2024 20:00:00,22.1166054,85.3945546,OZONE,5,161,115
India,Odisha,Baripada,"Meher Colony, Baripada - OSPCB",29-01-2024 20:00:00,21.941841,86.728318,PM2.5,NA,NA,NA
India,Odisha,Baripada,"Meher Colony, Baripada - OSPCB",29-01-2024 20:00:00,21.941841,86.728318,SO2,5,7,6
India,Odisha,Bhubaneswar,"Lingraj Mandir, Bhubaneswar - OSPCB",29-01-2024 20:00:00,20.240790,85.836784,SO2,4,34,14
India,Odisha,Bhubaneswar,"Patia, Bhubaneswar - OSPCB",29-01-2024 20:00:00,20.34652,85.81630,PM2.5,190,323,252
India,Odisha,Bhubaneswar,"Patia, Bhubaneswar - OSPCB",29-01-2024 20:00:00,20.34652,85.81630,NH3,4,5,4
India,Odisha,Bileipada,"Tata Township, Bileipada - OSPCB",29-01-2024 20:00:00,22.06156703,85.47409613,NH3,11,11,11
India,Odisha,Bileipada,"Tata Township, Bileipada - OSPCB",29-01-2024 20:00:00,22.06156703,85.47409613,SO2,40,108,63
India,Odisha,Brajrajnagar,"GM Office, Brajrajnagar - OSPCB",29-01-2024 20:00:00,21.8004996,83.8396977,PM2.5,63,274,121
India,Odisha,Byasanagar,"Ferro Chrome Colony, Byasanagar - OSPCB",29-01-2024 20:00:00,20.94185,86.11510,PM10,111,242,146
India,Odisha,Byasanagar,"Ferro Chrome Colony, Byasanagar - OSPCB",29-01-2024 20:00:00,20.94185,86.11510,CO,60,115,105
India,Odisha,Cuttack,"CDA Area, Cuttack - OSPCB",29-01-2024 20:00:00,20.48891     ,85.84768     ,PM2.5,230,346,286
India,Odisha,Cuttack,"CDA Area, Cuttack - OSPCB",29-01-2024 20:00:00,20.48891     ,85.84768     ,SO2,5,27,12
India,Odisha,Rairangpur,"Divisional Forest Office, Rairangpur - OSPCB",29-01-2024 20:00:00,22.265816,86.174829,NH3,3,3,3
India,Odisha,Rairangpur,"Divisional Forest Office, Rairangpur - OSPCB",29-01-2024 20:00:00,22.265816,86.174829,CO,20,48,32
India,Odisha,Rourkela,"Fertilizer Township, Rourkela - OSPCB",29-01-2024 20:00:00,22.18972222,84.86277778,PM10,105,270,153
India,Odisha,Rourkela,"Fertilizer Township, Rourkela - OSPCB",29-01-2024 20:00:00,22.18972222,84.86277778,NO2,5,28,18
India,Odisha,Rourkela,"Fertilizer Township, Rourkela - OSPCB",29-01-2024 20:00:00,22.18972222,84.86277778,CO,16,26,20
India,Odisha,Rourkela,"Raghunathpali, Rourkela - OSPCB",29-01-2024 20:00:00,22.220833,84.809444,PM2.5,182,320,274
India,Odisha,Rourkela,"Raghunathpali, Rourkela - OSPCB",29-01-2024 20:00:00,22.220833,84.809444,NH3,1,2,1
India,Odisha,Suakati,"OMC Colony, Suakati - OSPCB",29-01-2024 20:00:00,21.606865,85.510538,NH3,NA,NA,NA
India,Odisha,Suakati,"OMC Colony, Suakati - OSPCB",29-01-2024 20:00:00,21.606865,85.510538,OZONE,51,228,183
India,Odisha,Talcher,"Talcher Coalfields,Talcher - OSPCB",29-01-2024 20:00:00,20.9360711,85.1707021,PM10,103,414,186
India,Odisha,Talcher,"Talcher Coalfields,Talcher - OSPCB",29-01-2024 20:00:00,20.9360711,85.1707021,NO2,44,53,47
India,Odisha,Talcher,"Talcher Coalfields,Talcher - OSPCB",29-01-2024 20:00:00,20.9360711,85.1707021,NH3,7,7,7
India,Odisha,Talcher,"Talcher Coalfields,Talcher - OSPCB",29-01-2024 20:00:00,20.9360711,85.1707021,SO2,25,103,51
India,Odisha,Tensa,"Barsua Iron Ore Mines, Tensa - OSPCB",29-01-2024 20:00:00,21.869985,85.167016,PM10,95,121,106
India,Odisha,Tensa,"Barsua Iron Ore Mines, Tensa - OSPCB",29-01-2024 20:00:00,21.869985,85.167016,NH3,8,11,9
India,Odisha,Tensa,"Barsua Iron Ore Mines, Tensa - OSPCB",29-01-2024 20:00:00,21.869985,85.167016,SO2,NA,NA,NA
India,Puducherry,Puducherry,"Jawahar Nagar, Puducherry - PPCC",29-01-2024 20:00:00,11.9309,79.8027,NH3,2,3,2
India,Puducherry,Puducherry,"Jawahar Nagar, Puducherry - PPCC",29-01-2024 20:00:00,11.9309,79.8027,SO2,4,10,6
India,Punjab,Amritsar,"Golden Temple, Amritsar - PPCB",29-01-2024 20:00:00,31.620000,74.876512,NO2,10,48,18
India,Punjab,Bathinda,"Hardev Nagar, Bathinda - PPCB",29-01-2024 20:00:00,30.233011,74.907758,CO,1,106,48
India,Punjab,Jalandhar,"Civil Line, Jalandhar - PPCB",29-01-2024 20:00:00,31.321907,75.578914,NO2,14,16,15
India,Punjab,Jalandhar,"Civil Line, Jalandhar - PPCB",29-01-2024 20:00:00,31.321907,75.578914,CO,36,108,61
India,Punjab,Khanna,"Kalal Majra, Khanna - PPCB",29-01-2024 20:00:00,30.736056 ,76.209694,PM10,34,178,106
India,Punjab,Khanna,"Kalal Majra, Khanna - PPCB",29-01-2024 20:00:00,30.736056 ,76.209694,NH3,16,18,17
India,Punjab,Khanna,"Kalal Majra, Khanna - PPCB",29-01-2024 20:00:00,30.736056 ,76.209694,OZONE,13,27,21
India,Punjab,Ludhiana,"Punjab Agricultural University, Ludhiana - PPCB",29-01-2024 20:00:00,30.9028,75.8086,CO,6,107,88
India,Punjab,Mandi Gobindgarh,"RIMT University, Mandi Gobindgarh - PPCB",29-01-2024 20:00:00,30.649961,76.331442,SO2,NA,NA,NA
India,Punjab,Patiala,"Model Town, Patiala - PPCB",29-01-2024 20:00:00,30.349388,76.366642,NH3,5,6,6
India,Punjab,Rupnagar,"Ratanpura, Rupnagar - Ambuja Cements",29-01-2024 20:00:00,31.0325454,76.5623046,PM10,89,451,179
India,Rajasthan,Ajmer,"Civil Lines,  Ajmer - RSPCB",29-01-2024 20:00:00,26.470859,74.646594,PM10,9,149,86
India,Rajasthan,Alwar,"Moti Doongri, Alwar - RSPCB",29-01-2024 20:00:00,27.554793,76.611536,NO2,40,57,44
India,Rajasthan,Banswara,"Rati Talai, Banswara - RSPCB",29-01-2024 20:00:00,23.555190,74.440010,NH3,3,6,5
India,Rajasthan,Baran,"Bamboliya, Baran - RSPCB",29-01-2024 20:00:00,25.106006,76.469948,NO2,21,100,33
India,Rajasthan,Barmer,"Railway Colony, Barmer - RSPCB",29-01-2024 20:00:00,25.747299,71.393989,PM10,61,143,90
India,Rajasthan,Bharatpur,"Krishna Nagar, Bharatpur - RSPCB",29-01-2024 20:00:00,27.215415,77.50873,PM2.5,95,154,120
India,Rajasthan,Bhilwara,"Pratap Nagar, Bhilwara - RSPCB",29-01-2024 20:00:00,25.339605,74.618883,NH3,1,68,8
India,Rajasthan,Bhilwara,"Pratap Nagar, Bhilwara - RSPCB",29-01-2024 20:00:00,25.339605,74.618883,SO2,1,53,13
India,Rajasthan,Bhilwara,"Pratap Nagar, Bhilwara - RSPCB",29-01-2024 20:00:00,25.339605,74.618883,CO,20,124,46
India,Rajasthan,Bhiwadi,"RIICO Ind. Area III, Bhiwadi - RSPCB",29-01-2024 20:00:00,28.194909,76.862296,NH3,9,17,13
India,Rajasthan,Bikaner,"MM Ground, Bikaner - RSPCB",29-01-2024 20:00:00,28.018792,73.292658,CO,59,140,76
India,Rajasthan,Bundi,"New Colony, Bundi - RSPCB",29-01-2024 20:00:00,25.435774,75.644272,NH3,4,14,5
India,Rajasthan,Bundi,"New Colony, Bundi - RSPCB",29-01-2024 20:00:00,25.435774,75.644272,CO,26,112,52
India,Rajasthan,Chittorgarh,"Shastri Nagar, Chittorgarh - RSPCB",29-01-2024 20:00:00,24.892047,74.623527,PM10,88,209,132
India,Rajasthan,Chittorgarh,"Shastri Nagar, Chittorgarh - RSPCB",29-01-2024 20:00:00,24.892047,74.623527,NH3,1,11,6
India,Rajasthan,Chittorgarh,"Shastri Nagar, Chittorgarh - RSPCB",29-01-2024 20:00:00,24.892047,74.623527,CO,77,112,103
India,Rajasthan,Churu,"Subash Chowk, Churu - RSPCB",29-01-2024 20:00:00,28.296139,74.961696,SO2,11,20,15
India,Rajasthan,Dausa,"Khatikan Mohalla, Dausa - RSPCB",29-01-2024 20:00:00,26.895552,76.334753,OZONE,30,125,98
India,Rajasthan,Dholpur,"Raja Ganj, Dholpur - RSPCB",29-01-2024 20:00:00,26.699557,77.898881,SO2,11,28,18
India,Rajasthan,Dungarpur,"Bhoiwada, Dungarpur - RSPCB",29-01-2024 20:00:00,23.837789,73.714926,PM2.5,65,304,131
India,Rajasthan,Hanumangarh,"Housing Board, Hanumangarh - RSPCB",29-01-2024 20:00:00,29.610750,74.283608,PM2.5,378,450,419
India,Rajasthan,Hanumangarh,"Housing Board, Hanumangarh - RSPCB",29-01-2024 20:00:00,29.610750,74.283608,NH3,15,23,18
India,Rajasthan,Hanumangarh,"Housing Board, Hanumangarh - RSPCB",29-01-2024 20:00:00,29.610750,74.283608,CO,56,105,83
India,Rajasthan,Jaipur,"Adarsh Nagar, Jaipur - RSPCB",29-01-2024 20:00:00,26.902909,75.836858,NO2,36,139,70
India,Rajasthan,Jaipur,"Adarsh Nagar, Jaipur - RSPCB",29-01-2024 20:00:00,26.902909,75.836858,CO,13,84,55
India,Rajasthan,Jaipur,"Adarsh Nagar, Jaipur - RSPCB",29-01-2024 20:00:00,26.902909,75.836858,OZONE,17,81,57
India,Rajasthan,Jaipur,"Mansarovar Sector-12, Jaipur - RSPCB",29-01-2024 20:00:00,26.843698,75.766894,CO,24,104,61
India,Rajasthan,Jaipur,"Mansarovar Sector-12, Jaipur - RSPCB",29-01-2024 20:00:00,26.843698,75.766894,OZONE,1,139,86
India,Rajasthan,Jaipur,"Police Commissionerate, Jaipur - RSPCB",29-01-2024 20:00:00,26.9164092,75.7994901,PM2.5,83,315,200
India,Rajasthan,Jaipur,"Police Commissionerate, Jaipur - RSPCB",29-01-2024 20:00:00,26.9164092,75.7994901,CO,23,107,62
India,Rajasthan,Jaipur,"Police Commissionerate, Jaipur - RSPCB",29-01-2024 20:00:00,26.9164092,75.7994901,OZONE,9,91,57
India,Rajasthan,Jaipur,"RIICO Sitapura, Jaipur - RSPCB",29-01-2024 20:00:00,26.786682,75.827928,NO2,26,187,53
India,Rajasthan,Jaipur,"RIICO Sitapura, Jaipur - RSPCB",29-01-2024 20:00:00,26.786682,75.827928,NH3,3,9,4
India,Rajasthan,Jaipur,"Sector-2 Murlipura, Jaipur - RSPCB",29-01-2024 20:00:00,26.960669,75.771817,NO2,2,277,35
India,Rajasthan,Jaipur,"Sector-2 Murlipura, Jaipur - RSPCB",29-01-2024 20:00:00,26.960669,75.771817,SO2,10,49,16
India,Rajasthan,Jaipur,"Shastri Nagar, Jaipur - RSPCB",29-01-2024 20:00:00,26.9502929,75.730943,PM10,61,176,115
India,Rajasthan,Jaipur,"Shastri Nagar, Jaipur - RSPCB",29-01-2024 20:00:00,26.9502929,75.730943,CO,22,122,55
India,Rajasthan,Jaisalmer,"Sadar Bazar, Jaisalmer - RSPCB",29-01-2024 20:00:00,26.912329,70.909168,NH3,8,46,14
India,Rajasthan,Jalore,"Mudtra Sili, Jalore - RSPCB",29-01-2024 20:00:00,25.344694,72.626208,NO2,6,118,36
India,Rajasthan,Jalore,"Mudtra Sili, Jalore - RSPCB",29-01-2024 20:00:00,25.344694,72.626208,OZONE,7,112,74
India,Rajasthan,Jhalawar,"Rajlaxmi Nagar, Jhalawar - RSPCB",29-01-2024 20:00:00,24.588397,76.172782,SO2,NA,NA,NA
India,Rajasthan,Jhunjhunu,"Indra Nagar, Jhunjhunu - RSPCB",29-01-2024 20:00:00,28.108988,75.386577,OZONE,3,96,79
India,Rajasthan,Jodhpur,"Collectorate, Jodhpur - RSPCB",29-01-2024 20:00:00,26.268249,73.0193853,SO2,2,54,19
India,Rajasthan,Jodhpur,"Digari Kalan, Jodhpur - RSPCB",29-01-2024 20:00:00,26.295810,73.082283,CO,24,68,35
India,Rajasthan,Jodhpur,"Digari Kalan, Jodhpur - RSPCB",29-01-2024 20:00:00,26.295810,73.082283,OZONE,3,119,91
India,Rajasthan,Jodhpur,"Samrat Ashok Udhyan, Jodhpur - RSPCB",29-01-2024 20:00:00,26.253384,72.976571,CO,32,101,53
India,Rajasthan,Karauli,"Satyawati Vihar, Karauli - RSPCB",29-01-2024 20:00:00,26.506177,77.025989,PM2.5,173,384,321
India,Rajasthan,Kota,"Dhanmandi, Kota - RSPCB",29-01-2024 20:00:00,25.164090,75.858137,PM2.5,81,338,208
India,Rajasthan,Kota,"Dhanmandi, Kota - RSPCB",29-01-2024 20:00:00,25.164090,75.858137,NO2,30,132,59
India,Rajasthan,Kota,"Nayapura, Kota - RSPCB",29-01-2024 20:00:00,25.196024,75.855668,PM2.5,111,317,212
India,Rajasthan,Kota,"Nayapura, Kota - RSPCB",29-01-2024 20:00:00,25.196024,75.855668,PM10,101,259,142
India,Rajasthan,Kota,"Nayapura, Kota - RSPCB",29-01-2024 20:00:00,25.196024,75.855668,CO,10,104,15
India,Rajasthan,Kota,"Shrinath Puram, Kota - RSPCB",29-01-2024 20:00:00,25.14389,75.821256,PM2.5,82,215,150
India,Rajasthan,Nagaur,"Karni Colony, Nagaur - RSPCB",29-01-2024 20:00:00,27.213494,73.734444,NO2,32,156,64
India,Rajasthan,Nagaur,"Karni Colony, Nagaur - RSPCB",29-01-2024 20:00:00,27.213494,73.734444,SO2,3,13,6
India,Rajasthan,Pali,"Indira Colony Vistar, Pali - RSPCB",29-01-2024 20:00:00,25.771061, 73.340227,PM10,67,196,105
India,Rajasthan,Pali,"Indira Colony Vistar, Pali - RSPCB",29-01-2024 20:00:00,25.771061, 73.340227,NO2,19,70,41
India,Rajasthan,Pali,"Indira Colony Vistar, Pali - RSPCB",29-01-2024 20:00:00,25.771061, 73.340227,SO2,10,20,13
India,Rajasthan,Pali,"Indira Colony Vistar, Pali - RSPCB",29-01-2024 20:00:00,25.771061, 73.340227,OZONE,10,54,35
India,Rajasthan,Rajsamand,"Dhoinda, Rajsamand - RSPCB",29-01-2024 20:00:00,25.036360,73.883502,PM2.5,33,253,109
India,Rajasthan,Sikar,"Radhakishan Pura, Sikar - RSPCB",29-01-2024 20:00:00,27.608912,75.153302,PM2.5,62,431,163
India,Rajasthan,Sikar,"Radhakishan Pura, Sikar - RSPCB",29-01-2024 20:00:00,27.608912,75.153302,NO2,14,76,35
India,Rajasthan,Sikar,"Radhakishan Pura, Sikar - RSPCB",29-01-2024 20:00:00,27.608912,75.153302,NH3,3,7,5
India,Rajasthan,Sirohi,"Vedhaynath Colony, Sirohi - RSPCB",29-01-2024 20:00:00,24.885261,72.857549,NH3,4,12,5
India,Rajasthan,Sirohi,"Vedhaynath Colony, Sirohi - RSPCB",29-01-2024 20:00:00,24.885261,72.857549,CO,14,100,27
India,Rajasthan,Sri Ganganagar,"Old City, Sri Ganganagar - RSPCB",29-01-2024 20:00:00,29.931624,73.864511,CO,58,141,114
India,Rajasthan,Tonk,"Shastri Nagar, Tonk - RSPCB",29-01-2024 20:00:00,26.159933,75.780517,PM10,101,454,160
India,Rajasthan,Tonk,"Shastri Nagar, Tonk - RSPCB",29-01-2024 20:00:00,26.159933,75.780517,OZONE,2,74,55
India,Rajasthan,Udaipur,"Ashok Nagar, Udaipur - RSPCB",29-01-2024 20:00:00,24.5886166,73.6321397,NH3,6,18,10
India,Rajasthan,Udaipur,"Ashok Nagar, Udaipur - RSPCB",29-01-2024 20:00:00,24.5886166,73.6321397,CO,33,117,89
India,Sikkim,Gangtok,"Zero Point GICI, Gangtok - SSPCB",29-01-2024 20:00:00,27.338530,88.614099,NH3,1,1,1
India,TamilNadu,Ariyalur,"Keelapalur, Ariyalur - TNPCB",29-01-2024 20:00:00,11.06825,79.07033,PM10,52,101,69
India,TamilNadu,Ariyalur,"Keelapalur, Ariyalur - TNPCB",29-01-2024 20:00:00,11.06825,79.07033,NO2,8,36,20
India,TamilNadu,Chengalpattu,"Crescent University, Chengalpattu - TNPCB",29-01-2024 20:00:00,12.8777316,80.0834807,SO2,22,25,24
India,TamilNadu,Chennai,"Arumbakkam, Chennai - TNPCB",29-01-2024 20:00:00,13.0664,80.2112 ,NH3,3,4,3
India,TamilNadu,Chennai,"Gandhi Nagar_Ennore, Chennai - TNPCB",29-01-2024 20:00:00,13.218341,80.32027,OZONE,2,3,2
India,TamilNadu,Chennai,"Kodungaiyur, Chennai - TNPCB",29-01-2024 20:00:00,13.1278,80.2642,PM10,NA,NA,NA
India,TamilNadu,Chennai,"Kodungaiyur, Chennai - TNPCB",29-01-2024 20:00:00,13.1278,80.2642,SO2,NA,NA,NA
India,TamilNadu,Chennai,"Manali, Chennai - CPCB",29-01-2024 20:00:00,13.164544,80.26285,PM2.5,35,132,65
India,TamilNadu,Chennai,"Manali, Chennai - CPCB",29-01-2024 20:00:00,13.164544,80.26285,CO,22,101,70
India,TamilNadu,Chennai,"Manali, Chennai - CPCB",29-01-2024 20:00:00,13.164544,80.26285,OZONE,18,41,26
India,TamilNadu,Chennai,"Perungudi, Chennai - TNPCB",29-01-2024 20:00:00,12.9533,80.2357,PM10,NA,NA,NA
India,TamilNadu,Chennai,"Perungudi, Chennai - TNPCB",29-01-2024 20:00:00,12.9533,80.2357,NO2,NA,NA,NA
India,TamilNadu,Chennai,"Perungudi, Chennai - TNPCB",29-01-2024 20:00:00,12.9533,80.2357,SO2,NA,NA,NA
India,TamilNadu,Chennai,"Royapuram, Chennai - TNPCB",29-01-2024 20:00:00,13.1036,80.2909,PM10,61,92,71
India,TamilNadu,Chennai,"Royapuram, Chennai - TNPCB",29-01-2024 20:00:00,13.1036,80.2909,NO2,11,26,16
India,TamilNadu,Chennai,"Royapuram, Chennai - TNPCB",29-01-2024 20:00:00,13.1036,80.2909,SO2,1,7,2
India,TamilNadu,Chennai,"Velachery Res. Area, Chennai - CPCB",29-01-2024 20:00:00,13.0052189,80.2398125,PM2.5,25,68,50
India,TamilNadu,Chennai,"Velachery Res. Area, Chennai - CPCB",29-01-2024 20:00:00,13.0052189,80.2398125,NO2,13,39,21
India,TamilNadu,Chennai,"Velachery Res. Area, Chennai - CPCB",29-01-2024 20:00:00,13.0052189,80.2398125,OZONE,18,45,39
India,TamilNadu,Coimbatore,"PSG College of Arts and Science, Coimbatore - TNPCB",29-01-2024 20:00:00,11.0328,77.0349,SO2,15,21,18
India,TamilNadu,Cuddalore,"Semmandalam, Cuddalore - TNPCB",29-01-2024 20:00:00,11.7637683,79.7499835,PM10,24,91,51
India,TamilNadu,Kanchipuram,"Kilambi, Kanchipuram - TNPCB",29-01-2024 20:00:00,12.864618,79.659968,CO,1,8,4
India,TamilNadu,Ooty,"Bombay Castel, Ooty - TNPCB",29-01-2024 20:00:00,11.4068288,76.7138973,PM2.5,11,98,64
India,TamilNadu,Ooty,"Bombay Castel, Ooty - TNPCB",29-01-2024 20:00:00,11.4068288,76.7138973,CO,20,20,20
India,TamilNadu,Palkalaiperur,"Bharathidasan University, Palkalaiperur - TNPCB",29-01-2024 20:00:00,10.681158,78.741746,SO2,27,28,28
India,TamilNadu,Ramanathapuram,"Chalai Bazaar, Ramanathapuram - TNPCB",29-01-2024 20:00:00,9.36399,78.831977,PM2.5,NA,NA,NA
India,TamilNadu,Ramanathapuram,"Chalai Bazaar, Ramanathapuram - TNPCB",29-01-2024 20:00:00,9.36399,78.831977,SO2,5,8,6
India,TamilNadu,Salem,"Sona College of Technology, Salem - TNPCB",29-01-2024 20:00:00,11.679111,78.125052,PM10,NA,NA,NA
India,TamilNadu,Salem,"Sona College of Technology, Salem - TNPCB",29-01-2024 20:00:00,11.679111,78.125052,OZONE,2,3,3
India,TamilNadu,Tirupur,"Kumaran College, Tirupur - TNPCB",29-01-2024 20:00:00,11.0973603,77.3228673,PM2.5,24,62,40
India,TamilNadu,Vellore,"Vasanthapuram, Vellore - TNPCB",29-01-2024 20:00:00,12.909494,79.131861,PM10,NA,NA,NA
India,TamilNadu,Virudhunagar,"Collectorate Office, Virudhunagar - TNPCB",29-01-2024 20:00:00,9.559382,77.948828,PM10,46,115,76
India,TamilNadu,Virudhunagar,"Collectorate Office, Virudhunagar - TNPCB",29-01-2024 20:00:00,9.559382,77.948828,CO,18,34,28
India,Telangana,Hyderabad,"Bollaram Industrial Area, Hyderabad - TSPCB",29-01-2024 20:00:00,17.540891,78.358528,PM2.5,NA,NA,NA
India,Telangana,Hyderabad,"Central University, Hyderabad - TSPCB",29-01-2024 20:00:00,17.460103,78.334361,PM2.5,35,68,56
India,Telangana,Hyderabad,"Central University, Hyderabad - TSPCB",29-01-2024 20:00:00,17.460103,78.334361,SO2,6,10,8
India,Telangana,Hyderabad,"ECIL Kapra, Hyderabad - TSPCB",29-01-2024 20:00:00,17.470431,78.566959,NO2,8,12,9
India,Telangana,Hyderabad,"ECIL Kapra, Hyderabad - TSPCB",29-01-2024 20:00:00,17.470431,78.566959,CO,11,25,13
India,Telangana,Hyderabad,"IITH Kandi, Hyderabad - TSPCB",29-01-2024 20:00:00,17.585705,78.126199,PM2.5,NA,NA,NA
India,Telangana,Hyderabad,"IITH Kandi, Hyderabad - TSPCB",29-01-2024 20:00:00,17.585705,78.126199,OZONE,18,39,28
India,Telangana,Hyderabad,"Kokapet, Hyderabad - TSPCB",29-01-2024 20:00:00,17.393559,78.339194,PM2.5,NA,NA,NA
India,Telangana,Hyderabad,"Kokapet, Hyderabad - TSPCB",29-01-2024 20:00:00,17.393559,78.339194,NO2,NA,NA,NA
India,Telangana,Hyderabad,"Kompally Municipal Office, Hyderabad - TSPCB",29-01-2024 20:00:00,17.544899,78.486949,PM10,NA,NA,NA
India,Telangana,Hyderabad,"New Malakpet, Hyderabad - TSPCB",29-01-2024 20:00:00,17.37206,78.50864,PM2.5,23,79,38
India,Telangana,Hyderabad,"New Malakpet, Hyderabad - TSPCB",29-01-2024 20:00:00,17.37206,78.50864,NO2,17,29,24
India,Telangana,Hyderabad,"New Malakpet, Hyderabad - TSPCB",29-01-2024 20:00:00,17.37206,78.50864,NH3,2,2,2
India,Telangana,Hyderabad,"New Malakpet, Hyderabad - TSPCB",29-01-2024 20:00:00,17.37206,78.50864,SO2,16,25,21
India,Telangana,Hyderabad,"New Malakpet, Hyderabad - TSPCB",29-01-2024 20:00:00,17.37206,78.50864,OZONE,4,31,26
India,Telangana,Hyderabad,"Ramachandrapuram, Hyderabad - TSPCB",29-01-2024 20:00:00,17.528544,78.286195,NO2,NA,NA,NA
India,Telangana,Hyderabad,"Sanathnagar, Hyderabad - TSPCB",29-01-2024 20:00:00,17.4559458,78.4332152,PM2.5,95,500,153
India,Telangana,Hyderabad,"Sanathnagar, Hyderabad - TSPCB",29-01-2024 20:00:00,17.4559458,78.4332152,OZONE,14,194,17
India,Telangana,Hyderabad,"Somajiguda, Hyderabad - TSPCB",29-01-2024 20:00:00,17.417094,78.457437,NO2,NA,NA,NA
India,Telangana,Hyderabad,"Somajiguda, Hyderabad - TSPCB",29-01-2024 20:00:00,17.417094,78.457437,NH3,NA,NA,NA
India,Telangana,Hyderabad,"Zoo Park, Hyderabad - TSPCB",29-01-2024 20:00:00,17.349694,78.451437,NO2,25,48,38
India,Tripura,Agartala,"Bardowali, Agartala - Tripura SPCB",29-01-2024 20:00:00,23.8175497,91.2726974,NH3,2,4,3
India,Tripura,Agartala,"Bardowali, Agartala - Tripura SPCB",29-01-2024 20:00:00,23.8175497,91.2726974,SO2,24,28,25
India,Uttar_Pradesh,Agra,"Rohta, Agra - UPPCB",29-01-2024 20:00:00,27.106972,78.000111,SO2,13,18,16
India,Uttar_Pradesh,Agra,"Sanjay Palace, Agra - UPPCB",29-01-2024 20:00:00,27.19865833,78.00598056,PM10,NA,NA,NA
India,Uttar_Pradesh,Agra,"Sanjay Palace, Agra - UPPCB",29-01-2024 20:00:00,27.19865833,78.00598056,CO,46,112,87
India,Uttar_Pradesh,Agra,"Sector-3B Avas Vikas Colony, Agra - UPPCB",29-01-2024 20:00:00,27.19412,77.96237,PM10,101,128,113
India,Uttar_Pradesh,Agra,"Shastripuram, Agra - UPPCB",29-01-2024 20:00:00,27.19862,77.92066,PM2.5,91,176,122
India,Uttar_Pradesh,Baghpat,"Sardar Patel Inter College, Baghpat - UPPCB",29-01-2024 20:00:00,28.964949,77.278761,NO2,36,71,46
India,Uttar_Pradesh,Baghpat,"Sardar Patel Inter College, Baghpat - UPPCB",29-01-2024 20:00:00,28.964949,77.278761,OZONE,1,51,31
India,Uttar_Pradesh,Bulandshahr,"Yamunapuram, Bulandshahr - UPPCB",29-01-2024 20:00:00,28.406963,77.849831,PM10,131,218,165
India,Uttar_Pradesh,Bulandshahr,"Yamunapuram, Bulandshahr - UPPCB",29-01-2024 20:00:00,28.406963,77.849831,CO,36,151,90
India,Uttar_Pradesh,Firozabad,"Nagla Bhau, Firozabad - UPPCB",29-01-2024 20:00:00,27.168897,78.376960,NH3,2,2,2
India,Uttar_Pradesh,Firozabad,"Nagla Bhau, Firozabad - UPPCB",29-01-2024 20:00:00,27.168897,78.376960,CO,20,30,27
India,Uttar_Pradesh,Firozabad,"Vibhab Nagar, Firozabad - UPPCB",29-01-2024 20:00:00,27.1594,78.3953,PM10,61,75,69
India,Uttar_Pradesh,Firozabad,"Vibhab Nagar, Firozabad - UPPCB",29-01-2024 20:00:00,27.1594,78.3953,SO2,13,23,14
India,Uttar_Pradesh,Ghaziabad,"Indirapuram, Ghaziabad - UPPCB",29-01-2024 20:00:00,28.646233,77.358075,NO2,86,140,103
India,Uttar_Pradesh,Ghaziabad,"Indirapuram, Ghaziabad - UPPCB",29-01-2024 20:00:00,28.646233,77.358075,SO2,14,18,16
India,Uttar_Pradesh,Ghaziabad,"Indirapuram, Ghaziabad - UPPCB",29-01-2024 20:00:00,28.646233,77.358075,CO,12,60,27
India,Uttar_Pradesh,Ghaziabad,"Indirapuram, Ghaziabad - UPPCB",29-01-2024 20:00:00,28.646233,77.358075,OZONE,6,9,8
India,Uttar_Pradesh,Ghaziabad,"Sanjay Nagar, Ghaziabad - UPPCB",29-01-2024 20:00:00,28.685382,77.453839,SO2,NA,NA,NA
India,Uttar_Pradesh,Ghaziabad,"Vasundhara, Ghaziabad - UPPCB",29-01-2024 20:00:00,28.6603346,77.3572563,PM2.5,208,391,292
India,Uttar_Pradesh,Ghaziabad,"Vasundhara, Ghaziabad - UPPCB",29-01-2024 20:00:00,28.6603346,77.3572563,OZONE,5,65,28
India,Uttar_Pradesh,Greater Noida,"Knowledge Park - III, Greater Noida - UPPCB",29-01-2024 20:00:00,28.47272,77.482000,PM10,181,306,247
India,Uttar_Pradesh,Greater Noida,"Knowledge Park - III, Greater Noida - UPPCB",29-01-2024 20:00:00,28.47272,77.482000,SO2,14,20,16
India,Uttar_Pradesh,Greater Noida,"Knowledge Park - V, Greater Noida - UPPCB",29-01-2024 20:00:00,28.557054,77.453663,NO2,9,33,15
India,Uttar_Pradesh,Hapur,"Anand Vihar, Hapur - UPPCB",29-01-2024 20:00:00,28.725645,77.749675,PM10,119,183,150
India,Uttar_Pradesh,Hapur,"Anand Vihar, Hapur - UPPCB",29-01-2024 20:00:00,28.725645,77.749675,OZONE,11,55,39
India,Uttar_Pradesh,Kanpur,"FTI Kidwai Nagar, Kanpur - UPPCB",29-01-2024 20:00:00,26.428282,80.327067,PM2.5,54,113,87
India,Uttar_Pradesh,Kanpur,"FTI Kidwai Nagar, Kanpur - UPPCB",29-01-2024 20:00:00,26.428282,80.327067,SO2,22,25,24
India,Uttar_Pradesh,Kanpur,"NSI Kalyanpur, Kanpur - UPPCB",29-01-2024 20:00:00,26.509954,80.249612,NO2,6,11,11
India,Uttar_Pradesh,Kanpur,"Nehru Nagar, Kanpur - UPPCB",29-01-2024 20:00:00,26.4703136,80.3229863,PM10,101,145,122
India,Uttar_Pradesh,Khurja,"Kalindi Kunj, Khurja - UPPCB",29-01-2024 20:00:00,28.2348927,77.8683002,PM10,47,124,88
India,Uttar_Pradesh,Khurja,"Kalindi Kunj, Khurja - UPPCB",29-01-2024 20:00:00,28.2348927,77.8683002,NO2,20,37,23
India,Uttar_Pradesh,Khurja,"Kalindi Kunj, Khurja - UPPCB",29-01-2024 20:00:00,28.2348927,77.8683002,NH3,1,2,1
India,Uttar_Pradesh,Lucknow,"B R Ambedkar University, Lucknow - UPPCB",29-01-2024 20:00:00,26.766433,80.927299,OZONE,2,57,40
India,Uttar_Pradesh,Lucknow,"Gomti Nagar, Lucknow - UPPCB",29-01-2024 20:00:00,26.868120,81.005119,NO2,6,9,7
India,Uttar_Pradesh,Lucknow,"Kendriya Vidyalaya, Lucknow - CPCB",29-01-2024 20:00:00,26.906111,80.948222,NH3,3,20,14
India,Uttar_Pradesh,Lucknow,"Kukrail Picnic Spot-1, Lucknow - UPPCB",29-01-2024 20:00:00,26.90723,80.98579,PM2.5,90,259,171
India,Uttar_Pradesh,Lucknow,"Kukrail Picnic Spot-1, Lucknow - UPPCB",29-01-2024 20:00:00,26.90723,80.98579,NO2,8,9,8
India,Uttar_Pradesh,Lucknow,"Kukrail Picnic Spot-1, Lucknow - UPPCB",29-01-2024 20:00:00,26.90723,80.98579,CO,30,62,42
India,Uttar_Pradesh,Lucknow,"Lalbagh, Lucknow - CPCB",29-01-2024 20:00:00,26.8458805,80.9365541,PM2.5,237,343,314
India,Uttar_Pradesh,Lucknow,"Talkatora District Industries Center, Lucknow - CPCB",29-01-2024 20:00:00,26.83399722,80.8917361,NH3,26,49,33
India,Uttar_Pradesh,Lucknow,"Talkatora District Industries Center, Lucknow - CPCB",29-01-2024 20:00:00,26.83399722,80.8917361,SO2,2,12,7
India,Uttar_Pradesh,Lucknow,"Talkatora District Industries Center, Lucknow - CPCB",29-01-2024 20:00:00,26.83399722,80.8917361,CO,1,111,37
India,Uttar_Pradesh,Meerut,"Ganga Nagar, Meerut - UPPCB",29-01-2024 20:00:00,28.999264,77.7590354,PM2.5,133,286,198
India,Uttar_Pradesh,Meerut,"Ganga Nagar, Meerut - UPPCB",29-01-2024 20:00:00,28.999264,77.7590354,SO2,9,27,14
India,Uttar_Pradesh,Meerut,"Jai Bhim Nagar, Meerut - UPPCB",29-01-2024 20:00:00,28.9535882,77.7622941,PM2.5,97,312,175
India,Uttar_Pradesh,Meerut,"Jai Bhim Nagar, Meerut - UPPCB",29-01-2024 20:00:00,28.9535882,77.7622941,SO2,5,16,8
India,Uttar_Pradesh,Meerut,"Pallavpuram Phase 2, Meerut - UPPCB",29-01-2024 20:00:00,29.063510,77.709723,SO2,2,35,6
India,Uttar_Pradesh,Moradabad,"Buddhi Vihar, Moradabad - UPPCB",29-01-2024 20:00:00,28.83526,78.74460,SO2,13,22,16
India,Uttar_Pradesh,Moradabad,"Buddhi Vihar, Moradabad - UPPCB",29-01-2024 20:00:00,28.83526,78.74460,CO,46,79,54
India,Uttar_Pradesh,Moradabad,"Eco Herbal Park, Moradabad - UPPCB",29-01-2024 20:00:00,28.840739,78.697531,PM10,82,148,110
India,Uttar_Pradesh,Moradabad,"Employment Office, Moradabad - UPPCB",29-01-2024 20:00:00,28.88528,78.73880,CO,40,74,47
India,Uttar_Pradesh,Moradabad,"Employment Office, Moradabad - UPPCB",29-01-2024 20:00:00,28.88528,78.73880,OZONE,13,21,17
India,Uttar_Pradesh,Moradabad,"Jigar Colony, Moradabad - UPPCB",29-01-2024 20:00:00,28.856664,78.772638,PM10,69,249,124
India,Uttar_Pradesh,Moradabad,"Jigar Colony, Moradabad - UPPCB",29-01-2024 20:00:00,28.856664,78.772638,CO,14,69,41
India,Uttar_Pradesh,Moradabad,"Kashiram Nagar, Moradabad - UPPCB",29-01-2024 20:00:00,28.849399,78.742362,NO2,18,39,26
India,Uttar_Pradesh,Moradabad,"Transport Nagar, Moradabad - UPPCB",29-01-2024 20:00:00,28.802625,78.753728,PM2.5,62,326,146
India,Uttar_Pradesh,Moradabad,"Transport Nagar, Moradabad - UPPCB",29-01-2024 20:00:00,28.802625,78.753728,NO2,18,45,24
India,Uttar_Pradesh,Moradabad,"Transport Nagar, Moradabad - UPPCB",29-01-2024 20:00:00,28.802625,78.753728,OZONE,15,25,20
India,Uttar_Pradesh,Noida,"Sector - 125, Noida - UPPCB",29-01-2024 20:00:00,28.5447608,77.3231257,NO2,30,199,59
India,Uttar_Pradesh,Noida,"Sector-1, Noida - UPPCB",29-01-2024 20:00:00,28.5898,77.3101,PM2.5,142,303,210
India,Uttar_Pradesh,Noida,"Sector-1, Noida - UPPCB",29-01-2024 20:00:00,28.5898,77.3101,PM10,114,166,129
India,Uttar_Pradesh,Noida,"Sector-1, Noida - UPPCB",29-01-2024 20:00:00,28.5898,77.3101,NO2,34,98,56
India,Uttar_Pradesh,Noida,"Sector-116, Noida - UPPCB",29-01-2024 20:00:00,28.569230,77.393848,PM10,142,268,169
India,Uttar_Pradesh,Noida,"Sector-116, Noida - UPPCB",29-01-2024 20:00:00,28.569230,77.393848,NO2,18,82,34
India,Uttar_Pradesh,Noida,"Sector-116, Noida - UPPCB",29-01-2024 20:00:00,28.569230,77.393848,SO2,5,31,17
India,Uttar_Pradesh,Prayagraj,"Jhunsi, Prayagraj - UPPCB",29-01-2024 20:00:00,25.425602,81.917152,NO2,5,6,6
India,Uttar_Pradesh,Prayagraj,"Jhunsi, Prayagraj - UPPCB",29-01-2024 20:00:00,25.425602,81.917152,NH3,5,5,5
India,Uttar_Pradesh,Prayagraj,"Motilal Nehru NIT, Prayagraj - UPPCB",29-01-2024 20:00:00,25.494,81.863,NO2,12,12,12
India,Uttar_Pradesh,Prayagraj,"Motilal Nehru NIT, Prayagraj - UPPCB",29-01-2024 20:00:00,25.494,81.863,OZONE,8,43,33
India,Uttar_Pradesh,Prayagraj,"Nagar Nigam, Prayagraj - UPPCB",29-01-2024 20:00:00,25.44919916 ,81.82735986 ,PM2.5,104,242,186
India,Uttar_Pradesh,Prayagraj,"Nagar Nigam, Prayagraj - UPPCB",29-01-2024 20:00:00,25.44919916 ,81.82735986 ,SO2,33,61,45
India,Uttar_Pradesh,Varanasi,"Ardhali Bazar, Varanasi - UPPCB",29-01-2024 20:00:00,25.3505986,82.9083074,SO2,13,22,16
India,Uttar_Pradesh,Varanasi,"Ardhali Bazar, Varanasi - UPPCB",29-01-2024 20:00:00,25.3505986,82.9083074,OZONE,17,21,18
India,Uttar_Pradesh,Varanasi,"Bhelupur, Varanasi - UPPCB",29-01-2024 20:00:00,25.301778,82.996789,NH3,1,2,2
India,Uttar_Pradesh,Varanasi,"IESD Banaras Hindu University, Varanasi - UPPCB",29-01-2024 20:00:00,25.262326,82.995408,PM2.5,23,36,30
India,Uttar_Pradesh,Varanasi,"Maldahiya, Varanasi - UPPCB",29-01-2024 20:00:00,25.32393,82.99687,NO2,5,25,14
India,Uttar_Pradesh,Varanasi,"Maldahiya, Varanasi - UPPCB",29-01-2024 20:00:00,25.32393,82.99687,NH3,1,1,1
India,Uttarakhand,Dehradun,"Doon University, Dehradun - UKPCB",29-01-2024 20:00:00,30.269444,78.044167,PM10,76,180,126
India,Uttarakhand,Dehradun,"Doon University, Dehradun - UKPCB",29-01-2024 20:00:00,30.269444,78.044167,NO2,1,9,4
India,Uttarakhand,Dehradun,"Doon University, Dehradun - UKPCB",29-01-2024 20:00:00,30.269444,78.044167,OZONE,3,11,8
India,Uttarakhand,Kashipur,"Govt. Girls Inter College, Kashipur - UKPCB",29-01-2024 20:00:00,29.2124114,78.9611753,NO2,32,100,61
India,Uttarakhand,Kashipur,"Govt. Girls Inter College, Kashipur - UKPCB",29-01-2024 20:00:00,29.2124114,78.9611753,CO,54,110,72
India,Uttarakhand,Rishikesh,"Shivaji Nagar, Rishikesh - UKPCB",29-01-2024 20:00:00,30.075911,78.2859547,PM2.5,37,93,61
India,Uttarakhand,Rishikesh,"Shivaji Nagar, Rishikesh - UKPCB",29-01-2024 20:00:00,30.075911,78.2859547,CO,31,68,41
India,West_Bengal,Asansol,"Asansol Court Area, Asansol - WBPCB",29-01-2024 20:00:00,23.685297,86.945968,PM10,NA,NA,NA
India,West_Bengal,Asansol,"Asansol Court Area, Asansol - WBPCB",29-01-2024 20:00:00,23.685297,86.945968,NH3,6,10,8
India,West_Bengal,Asansol,"Asansol Court Area, Asansol - WBPCB",29-01-2024 20:00:00,23.685297,86.945968,CO,6,52,21
India,West_Bengal,Barrackpore,"SVSPA Campus, Barrackpore - WBPCB",29-01-2024 20:00:00,22.7605581,88.3617589,SO2,9,13,11
India,West_Bengal,Haldia,"Priyambada Housing Estate, Haldia - WBPCB",29-01-2024 20:00:00,22.06047,88.109737,PM2.5,NA,NA,NA
India,West_Bengal,Haldia,"Priyambada Housing Estate, Haldia - WBPCB",29-01-2024 20:00:00,22.06047,88.109737,PM10,NA,NA,NA
India,West_Bengal,Haldia,"Priyambada Housing Estate, Haldia - WBPCB",29-01-2024 20:00:00,22.06047,88.109737,CO,45,92,54
India,West_Bengal,Howrah,"Ghusuri, Howrah - WBPCB",29-01-2024 20:00:00,22.611968,88.347422,SO2,5,8,6
India,West_Bengal,Howrah,"Padmapukur, Howrah - WBPCB",29-01-2024 20:00:00,22.5687319,88.2797276,SO2,7,51,21
India,West_Bengal,Howrah,"Padmapukur, Howrah - WBPCB",29-01-2024 20:00:00,22.5687319,88.2797276,CO,15,112,39
India,West_Bengal,Kolkata,"Bidhannagar, Kolkata - WBPCB",29-01-2024 20:00:00,22.58157048,88.41002457,CO,24,77,34
India,West_Bengal,Kolkata,"Bidhannagar, Kolkata - WBPCB",29-01-2024 20:00:00,22.58157048,88.41002457,OZONE,5,92,27
India,West_Bengal,Kolkata,"Fort William, Kolkata - WBPCB",29-01-2024 20:00:00,22.556640,88.342674,SO2,5,46,20
India,West_Bengal,Kolkata,"Jadavpur, Kolkata - WBPCB",29-01-2024 20:00:00,22.49929,88.36917,NH3,4,7,5
India,West_Bengal,Kolkata,"Rabindra Bharati University, Kolkata - WBPCB",29-01-2024 20:00:00,22.627847,88.380669,SO2,9,51,21
India,West_Bengal,Kolkata,"Rabindra Bharati University, Kolkata - WBPCB",29-01-2024 20:00:00,22.627847,88.380669,CO,27,62,40
India,West_Bengal,Kolkata,"Rabindra Sarobar, Kolkata - WBPCB",29-01-2024 20:00:00,22.51106,88.35142,NO2,37,175,99
India,West_Bengal,Kolkata,"Victoria, Kolkata - WBPCB",29-01-2024 20:00:00,22.5448082,88.3403691,NO2,NA,NA,NA
India,West_Bengal,Kolkata,"Victoria, Kolkata - WBPCB",29-01-2024 20:00:00,22.5448082,88.3403691,NH3,1,6,3
India,West_Bengal,Kolkata,"Victoria, Kolkata - WBPCB",29-01-2024 20:00:00,22.5448082,88.3403691,CO,50,102,64
India,West_Bengal,Kolkata,"Victoria, Kolkata - WBPCB",29-01-2024 20:00:00,22.5448082,88.3403691,OZONE,4,184,115
India,West_Bengal,Siliguri,"Ward-32 Bapupara, Siliguri - WBPCB",29-01-2024 20:00:00,26.6879226,88.4152495,PM10,87,401,161
India,West_Bengal,Siliguri,"Ward-32 Bapupara, Siliguri - WBPCB",29-01-2024 20:00:00,26.6879226,88.4152495,NO2,28,133,64
India,Andhra_Pradesh,Amaravati,"Secretariat, Amaravati - APPCB",29-01-2024 20:00:00,16.5150833,80.5181667,SO2,11,16,14
India,Andhra_Pradesh,Amaravati,"Secretariat, Amaravati - APPCB",29-01-2024 20:00:00,16.5150833,80.5181667,CO,17,58,36
India,Andhra_Pradesh,Anantapur,"Gulzarpet, Anantapur - APPCB",29-01-2024 20:00:00,14.675886,77.593027,PM10,45,107,69
India,Andhra_Pradesh,Chittoor,"Gangineni Cheruvu, Chittoor - APPCB",29-01-2024 20:00:00,13.204880,79.097889,PM10,39,81,54
India,Andhra_Pradesh,Kadapa,"Yerramukkapalli, Kadapa - APPCB",29-01-2024 20:00:00,14.465052,78.824187,NO2,8,9,8
India,Andhra_Pradesh,Rajamahendravaram,"Anand Kala Kshetram, Rajamahendravaram - APPCB",29-01-2024 20:00:00,16.9872867,81.7363176,NO2,NA,NA,NA
India,Andhra_Pradesh,Rajamahendravaram,"Anand Kala Kshetram, Rajamahendravaram - APPCB",29-01-2024 20:00:00,16.9872867,81.7363176,CO,1,19,9
India,Andhra_Pradesh,Tirupati,"Tirumala, Tirupati - APPCB",29-01-2024 20:00:00,13.67,79.35,NO2,41,64,53
India,Andhra_Pradesh,Tirupati,"Tirumala, Tirupati - APPCB",29-01-2024 20:00:00,13.67,79.35,OZONE,25,83,46
India,Andhra_Pradesh,Tirupati,"Vaikuntapuram, Tirupati - APPCB",29-01-2024 20:00:00,13.615387,79.409230,OZONE,5,51,42
India,Andhra_Pradesh,Visakhapatnam,"GVM Corporation, Visakhapatnam - APPCB",29-01-2024 20:00:00,17.72,83.3,OZONE,8,83,47
India,Assam,Guwahati,"IITG, Guwahati - PCBA",29-01-2024 20:00:00,26.2028636,91.70046436,PM2.5,NA,NA,NA
India,Assam,Guwahati,"IITG, Guwahati - PCBA",29-01-2024 20:00:00,26.2028636,91.70046436,SO2,NA,NA,NA
India,Assam,Guwahati,"LGBI Airport, Guwahati - PCBA",29-01-2024 20:00:00,26.10887,91.589544,NH3,1,10,5
India,Assam,Guwahati,"LGBI Airport, Guwahati - PCBA",29-01-2024 20:00:00,26.10887,91.589544,CO,57,76,62
India,Assam,Guwahati,"Railway Colony, Guwahati - PCBA",29-01-2024 20:00:00,26.181742,91.78063,OZONE,10,40,24
India,Assam,Nagaon,"Christianpatty, Nagaon - PCBA",29-01-2024 20:00:00,26.349082,92.68449,PM10,104,497,218
India,Assam,Nagaon,"Christianpatty, Nagaon - PCBA",29-01-2024 20:00:00,26.349082,92.68449,NH3,2,9,4
India,Assam,Nalbari,"Bata Chowk, Nalbari - PCBA",29-01-2024 20:00:00,26.446912,91.439057,NO2,17,62,34
India,Assam,Nalbari,"Bata Chowk, Nalbari - PCBA",29-01-2024 20:00:00,26.446912,91.439057,SO2,4,21,9
India,Assam,Nalbari,"Bata Chowk, Nalbari - PCBA",29-01-2024 20:00:00,26.446912,91.439057,CO,8,136,72
India,Assam,Nalbari,"Bata Chowk, Nalbari - PCBA",29-01-2024 20:00:00,26.446912,91.439057,OZONE,7,92,49
India,Assam,Silchar,"Tarapur, Silchar - PCBA",29-01-2024 20:00:00,24.82827,92.79525,PM2.5,NA,NA,NA
India,Bihar,Araria,"Kharahiya Basti, Araria - BSPCB",29-01-2024 20:00:00,26.146529,87.454184,PM2.5,177,443,336
India,Bihar,Araria,"Kharahiya Basti, Araria - BSPCB",29-01-2024 20:00:00,26.146529,87.454184,NO2,6,12,7
India,Bihar,Arrah,"New DM Office, Arrah - BSPCB",29-01-2024 20:00:00,25.5626095,84.663264,PM10,139,287,188
India,Bihar,Aurangabad,"Gurdeo Nagar, Aurangabad - BSPCB",29-01-2024 20:00:00,24.75746,84.366208,PM10,149,424,213
India,Bihar,Bettiah,"Kamalnath Nagar, Bettiah - BSPCB",29-01-2024 20:00:00,26.80365,84.51954,CO,NA,NA,NA
India,Bihar,Bhagalpur,"DM Office_Kachari Chowk, Bhagalpur - BSPCB",29-01-2024 20:00:00,25.251013,86.989001,PM10,216,436,327
India,Bihar,Bhagalpur,"Mayaganj, Bhagalpur - BSPCB",29-01-2024 20:00:00,25.265194,87.012947,PM10,154,432,306
India,Bihar,Bhagalpur,"Mayaganj, Bhagalpur - BSPCB",29-01-2024 20:00:00,25.265194,87.012947,SO2,8,13,12
India,Bihar,Chhapra,"Darshan Nagar, Chhapra - BSPCB",29-01-2024 20:00:00,25.7808257,84.7446768,NO2,14,36,22
India,Bihar,Chhapra,"Darshan Nagar, Chhapra - BSPCB",29-01-2024 20:00:00,25.7808257,84.7446768,OZONE,1,2,1
India,Bihar,Gaya,"Collectorate, Gaya - BSPCB",29-01-2024 20:00:00,24.7955,84.9994,PM2.5,179,383,311
India,Bihar,Gaya,"Kareemganj, Gaya - BSPCB",29-01-2024 20:00:00,24.792403,84.992416,NO2,30,31,30
India,Bihar,Gaya,"Kareemganj, Gaya - BSPCB",29-01-2024 20:00:00,24.792403,84.992416,CO,4,102,40
India,Bihar,Gaya,"SFTI Kusdihra, Gaya - BSPCB",29-01-2024 20:00:00,24.762518,84.982348,SO2,6,10,8
India,Bihar,Hajipur,"Industrial Area, Hajipur - BSPCB",29-01-2024 20:00:00,25.697189,85.245900,OZONE,2,47,28
India,Bihar,Katihar,"Mirchaibari, Katihar - BSPCB",29-01-2024 20:00:00,25.560083,87.553265,SO2,15,22,19
India,Bihar,Kishanganj,"SDM Office_Khagra, Kishanganj - BSPCB",29-01-2024 20:00:00,26.0881305,87.93840336,CO,6,20,10
India,Bihar,Manguraha,"Forest Rest House, Manguraha - BSPCB",29-01-2024 20:00:00,27.308328,84.531742,SO2,7,9,8
India,Bihar,Manguraha,"Forest Rest House, Manguraha - BSPCB",29-01-2024 20:00:00,27.308328,84.531742,OZONE,37,115,70
India,Bihar,Munger,"Town Hall, Munger - BSPCB",29-01-2024 20:00:00,25.376776,86.471523,OZONE,9,14,11
India,Bihar,Muzaffarpur,"Buddha Colony, Muzaffarpur - BSPCB",29-01-2024 20:00:00,26.11442,85.39813,PM10,171,495,320
India,Bihar,Patna,"Govt. High School Shikarpur, Patna - BSPCB",29-01-2024 20:00:00,25.592539,85.227158,PM10,178,300,242
India,Bihar,Patna,"IGSC Planetarium Complex, Patna - BSPCB",29-01-2024 20:00:00,25.610369,85.132568,OZONE,4,14,11
India,Bihar,Patna,"Muradpur, Patna - BSPCB",29-01-2024 20:00:00,25.619651,85.147382,PM10,317,486,409
India,Bihar,Patna,"Rajbansi Nagar, Patna - BSPCB",29-01-2024 20:00:00,25.599486,85.113666,PM2.5,322,373,345
India,Bihar,Patna,"Rajbansi Nagar, Patna - BSPCB",29-01-2024 20:00:00,25.599486,85.113666,SO2,10,20,15
India,Bihar,Patna,"Samanpura, Patna - BSPCB",29-01-2024 20:00:00,25.596727,85.085624,PM10,285,493,435
India,Bihar,Patna,"Samanpura, Patna - BSPCB",29-01-2024 20:00:00,25.596727,85.085624,SO2,16,17,16
India,Bihar,Patna,"Samanpura, Patna - BSPCB",29-01-2024 20:00:00,25.596727,85.085624,CO,82,136,105
India,Bihar,Purnia,"Mariam Nagar, Purnia - BSPCB",29-01-2024 20:00:00,25.366336,87.117468,PM10,NA,NA,NA
India,Bihar,Purnia,"Mariam Nagar, Purnia - BSPCB",29-01-2024 20:00:00,25.366336,87.117468,OZONE,10,49,25
India,Bihar,Rajgir,"Dangi Tola, Rajgir - BSPCB",29-01-2024 20:00:00,25.03280,85.41948,CO,10,11,10
India,Bihar,Saharsa,"Police Line, Saharsa - BSPCB",29-01-2024 20:00:00,25.892357,86.590325,PM2.5,NA,NA,NA
India,Bihar,Sasaram,"Dada Peer, Sasaram - BSPCB",29-01-2024 20:00:00,24.952822,84.002396,NO2,3,17,7
India,Bihar,Siwan,"Chitragupta Nagar, Siwan - BSPCB",29-01-2024 20:00:00,26.2271665,84.3570427,NO2,16,160,40
India,Bihar,Siwan,"Chitragupta Nagar, Siwan - BSPCB",29-01-2024 20:00:00,26.2271665,84.3570427,SO2,25,37,32
India,Bihar,Siwan,"Chitragupta Nagar, Siwan - BSPCB",29-01-2024 20:00:00,26.2271665,84.3570427,CO,105,171,92
India,Chandigarh,Chandigarh,"Sector-25, Chandigarh - CPCC",29-01-2024 20:00:00,30.751462,76.762879,PM2.5,218,325,275
India,Chandigarh,Chandigarh,"Sector-53, Chandigarh - CPCC",29-01-2024 20:00:00,30.719859,76.738637,NO2,26,100,52
India,Chandigarh,Chandigarh,"Sector-53, Chandigarh - CPCC",29-01-2024 20:00:00,30.719859,76.738637,SO2,11,58,24
India,Chandigarh,Chandigarh,"Sector-53, Chandigarh - CPCC",29-01-2024 20:00:00,30.719859,76.738637,OZONE,3,67,48
India,Chhattisgarh,Bhilai,"32Bungalows, Bhilai - CECB",29-01-2024 20:00:00,21.194815,81.314770,PM10,43,122,72
India,Chhattisgarh,Bhilai,"32Bungalows, Bhilai - CECB",29-01-2024 20:00:00,21.194815,81.314770,NO2,19,32,26
India,Chhattisgarh,Bhilai,"Hathkhoj, Bhilai - CECB",29-01-2024 20:00:00,21.224231,81.408350,PM10,53,136,106
India,Chhattisgarh,Bhilai,"Hathkhoj, Bhilai - CECB",29-01-2024 20:00:00,21.224231,81.408350,NO2,25,71,36
India,Chhattisgarh,Bhilai,"Hathkhoj, Bhilai - CECB",29-01-2024 20:00:00,21.224231,81.408350,CO,17,116,36
India,Chhattisgarh,Bilaspur,"Mangala, Bilaspur - NTPC",29-01-2024 20:00:00,22.08815,82.13737,PM2.5,5,385,54
India,Chhattisgarh,Chhal,"Nawapara SECL Colony, Chhal - CECB",29-01-2024 20:00:00,22.118125,83.140608,PM10,56,208,111
India,Chhattisgarh,Korba,"Urja Nagar, Korba - CECB",29-01-2024 20:00:00,22.348441,82.549611,NO2,64,99,84
India,Chhattisgarh,Korba,"Urja Nagar, Korba - CECB",29-01-2024 20:00:00,22.348441,82.549611,NH3,1,16,7
India,Chhattisgarh,Korba,"Urja Nagar, Korba - CECB",29-01-2024 20:00:00,22.348441,82.549611,OZONE,47,94,58
India,Chhattisgarh,Kunjemura,"OP Jindal School, Kunjemura - CECB",29-01-2024 20:00:00,22.126650,83.483212,CO,40,68,51
India,Chhattisgarh,Milupara,"Govt. Higher Secondary School, Milupara - CECB",29-01-2024 20:00:00,22.1910172,83.5197009,PM10,26,141,76
India,Chhattisgarh,Milupara,"Govt. Higher Secondary School, Milupara - CECB",29-01-2024 20:00:00,22.1910172,83.5197009,NO2,18,95,42
India,Chhattisgarh,Milupara,"Govt. Higher Secondary School, Milupara - CECB",29-01-2024 20:00:00,22.1910172,83.5197009,NH3,1,2,2
India,Chhattisgarh,Raipur,"AIIMS, Raipur - CECB",29-01-2024 20:00:00,21.258815,81.578979,PM10,NA,NA,NA
India,Chhattisgarh,Raipur,"AIIMS, Raipur - CECB",29-01-2024 20:00:00,21.258815,81.578979,SO2,NA,NA,NA
India,Chhattisgarh,Raipur,"AIIMS, Raipur - CECB",29-01-2024 20:00:00,21.258815,81.578979,CO,41,50,44
India,Chhattisgarh,Raipur,"AIIMS, Raipur - CECB",29-01-2024 20:00:00,21.258815,81.578979,OZONE,1,30,10
India,Chhattisgarh,Raipur,"Bhatagaon New ISBT, Raipur - CECB",29-01-2024 20:00:00,21.219665,81.630094,NH3,2,3,2
India,Chhattisgarh,Raipur,"Krishak Nagar, Raipur - CECB",29-01-2024 20:00:00,21.237755,81.705301,PM2.5,46,100,75
India,Chhattisgarh,Raipur,"Krishak Nagar, Raipur - CECB",29-01-2024 20:00:00,21.237755,81.705301,PM10,47,130,91
India,Chhattisgarh,Raipur,"Krishak Nagar, Raipur - CECB",29-01-2024 20:00:00,21.237755,81.705301,SO2,6,11,8
India,Delhi,Delhi,"Alipur, Delhi - DPCC",29-01-2024 20:00:00,28.815329,77.153010,PM2.5,323,406,363
India,Delhi,Delhi,"Anand Vihar, Delhi - DPCC",29-01-2024 20:00:00,28.647622,77.3158090,NH3,6,17,10
India,Delhi,Delhi,"Aya Nagar, Delhi - IMD",29-01-2024 20:00:00,28.4706914,77.1099364,PM2.5,NA,NA,NA
India,Delhi,Delhi,"Aya Nagar, Delhi - IMD",29-01-2024 20:00:00,28.4706914,77.1099364,NO2,NA,NA,NA
India,Delhi,Delhi,"Bawana, Delhi - DPCC",29-01-2024 20:00:00,28.776200,77.051074,NO2,31,75,50
India,Delhi,Delhi,"Bawana, Delhi - DPCC",29-01-2024 20:00:00,28.776200,77.051074,CO,74,104,93
India,Delhi,Delhi,"Burari Crossing, Delhi - IMD",29-01-2024 20:00:00,28.7256504,77.2011573,NO2,4,46,11
India,Delhi,Delhi,"CRRI Mathura Road, Delhi - IMD",29-01-2024 20:00:00,28.5512005,77.2735737,NO2,16,24,21
India,Delhi,Delhi,"DTU, Delhi - CPCB",29-01-2024 20:00:00,28.7500499,77.1112615,PM10,245,500,387
India,Delhi,Delhi,"DTU, Delhi - CPCB",29-01-2024 20:00:00,28.7500499,77.1112615,SO2,25,28,26
India,Delhi,Delhi,"Dr. Karni Singh Shooting Range, Delhi - DPCC",29-01-2024 20:00:00,28.498571,77.264840,SO2,4,12,8
India,Delhi,Delhi,"Dr. Karni Singh Shooting Range, Delhi - DPCC",29-01-2024 20:00:00,28.498571,77.264840,CO,66,117,91
India,Delhi,Delhi,"Dwarka-Sector 8, Delhi - DPCC ",29-01-2024 20:00:00,28.5710274,77.0719006,NH3,6,9,7
India,Delhi,Delhi,"IGI Airport (T3), Delhi - IMD",29-01-2024 20:00:00,28.5627763,77.1180053,PM10,175,274,216
India,Delhi,Delhi,"IGI Airport (T3), Delhi - IMD",29-01-2024 20:00:00,28.5627763,77.1180053,CO,32,102,62
India,Delhi,Delhi,"IHBAS, Dilshad Garden, Delhi - CPCB",29-01-2024 20:00:00,28.6811736,77.3025234,NH3,13,17,15
India,Delhi,Delhi,"IHBAS, Dilshad Garden, Delhi - CPCB",29-01-2024 20:00:00,28.6811736,77.3025234,SO2,5,60,30
India,Delhi,Delhi,"ITO, Delhi - CPCB",29-01-2024 20:00:00,28.628624,77.241060,PM2.5,262,439,324
India,Delhi,Delhi,"ITO, Delhi - CPCB",29-01-2024 20:00:00,28.628624,77.241060,CO,10,82,42
India,Delhi,Delhi,"Jahangirpuri, Delhi - DPCC",29-01-2024 20:00:00,28.732820,77.170633,OZONE,4,151,69
India,Delhi,Delhi,"Jawaharlal Nehru Stadium, Delhi - DPCC",29-01-2024 20:00:00,28.580280,77.233829,OZONE,3,75,44
India,Delhi,Delhi,"Lodhi Road, Delhi - IITM",29-01-2024 20:00:00,28.588333,77.221667,SO2,12,27,22
India,Delhi,Delhi,"Lodhi Road, Delhi - IMD",29-01-2024 20:00:00,28.5918245,77.2273074,PM2.5,210,366,315
India,Delhi,Delhi,"Lodhi Road, Delhi - IMD",29-01-2024 20:00:00,28.5918245,77.2273074,NO2,7,9,7
India,Delhi,Delhi,"Lodhi Road, Delhi - IMD",29-01-2024 20:00:00,28.5918245,77.2273074,CO,94,111,104
India,Delhi,Delhi,"Major Dhyan Chand National Stadium, Delhi - DPCC",29-01-2024 20:00:00,28.611281,77.237738,PM2.5,323,396,356
India,Delhi,Delhi,"Major Dhyan Chand National Stadium, Delhi - DPCC",29-01-2024 20:00:00,28.611281,77.237738,PM10,178,326,230
India,Delhi,Delhi,"Major Dhyan Chand National Stadium, Delhi - DPCC",29-01-2024 20:00:00,28.611281,77.237738,SO2,1,15,5
India,Delhi,Delhi,"Major Dhyan Chand National Stadium, Delhi - DPCC",29-01-2024 20:00:00,28.611281,77.237738,CO,6,125,80
India,Delhi,Delhi,"NSIT Dwarka, Delhi - CPCB",29-01-2024 20:00:00,28.60909,77.0325413,PM2.5,286,372,332
India,Delhi,Delhi,"NSIT Dwarka, Delhi - CPCB",29-01-2024 20:00:00,28.60909,77.0325413,NH3,10,13,11
India,Delhi,Delhi,"NSIT Dwarka, Delhi - CPCB",29-01-2024 20:00:00,28.60909,77.0325413,CO,33,104,52
India,Delhi,Delhi,"NSIT Dwarka, Delhi - CPCB",29-01-2024 20:00:00,28.60909,77.0325413,OZONE,17,69,42
India,Delhi,Delhi,"Najafgarh, Delhi - DPCC",29-01-2024 20:00:00,28.570173,76.933762,NO2,9,23,15
India,Delhi,Delhi,"Najafgarh, Delhi - DPCC",29-01-2024 20:00:00,28.570173,76.933762,SO2,8,14,11
India,Delhi,Delhi,"Narela, Delhi - DPCC",29-01-2024 20:00:00,28.822836,77.101981,SO2,4,14,7
India,Delhi,Delhi,"Nehru Nagar, Delhi - DPCC",29-01-2024 20:00:00,28.567890,77.250515,SO2,2,19,10
India,Delhi,Delhi,"New Moti Bagh, Delhi - MHUA",29-01-2024 20:00:00,28.57834,77.18400,PM2.5,319,421,361
India,Delhi,Delhi,"North Campus, DU, Delhi - IMD",29-01-2024 20:00:00,28.6573814,77.1585447,PM2.5,NA,NA,NA
India,Delhi,Delhi,"North Campus, DU, Delhi - IMD",29-01-2024 20:00:00,28.6573814,77.1585447,CO,46,54,50
India,Delhi,Delhi,"Okhla Phase-2, Delhi - DPCC",29-01-2024 20:00:00,28.530785,77.271255,NH3,14,24,19
India,Delhi,Delhi,"Okhla Phase-2, Delhi - DPCC",29-01-2024 20:00:00,28.530785,77.271255,CO,7,128,47
India,Delhi,Delhi,"Patparganj, Delhi - DPCC",29-01-2024 20:00:00,28.623763,77.287209,PM10,207,464,278
India,Delhi,Delhi,"Patparganj, Delhi - DPCC",29-01-2024 20:00:00,28.623763,77.287209,OZONE,1,11,5
India,Delhi,Delhi,"Punjabi Bagh, Delhi - DPCC",29-01-2024 20:00:00,28.674045,77.131023,PM2.5,342,439,386
India,Delhi,Delhi,"Punjabi Bagh, Delhi - DPCC",29-01-2024 20:00:00,28.674045,77.131023,NH3,7,8,8
India,Delhi,Delhi,"Pusa, Delhi - DPCC",29-01-2024 20:00:00,28.639652,77.146275,SO2,8,20,11
India,Delhi,Delhi,"Pusa, Delhi - IMD",29-01-2024 20:00:00,28.636110,77.173332,PM2.5,208,391,294
India,Delhi,Delhi,"R K Puram, Delhi - DPCC",29-01-2024 20:00:00,28.563262,77.186937,PM2.5,339,426,374
India,Delhi,Delhi,"R K Puram, Delhi - DPCC",29-01-2024 20:00:00,28.563262,77.186937,PM10,208,438,293
India,Delhi,Delhi,"R K Puram, Delhi - DPCC",29-01-2024 20:00:00,28.563262,77.186937,SO2,18,27,22
India,Delhi,Delhi,"Shadipur, Delhi - CPCB",29-01-2024 20:00:00,28.6514781,77.1473105,PM2.5,299,475,378
India,Delhi,Delhi,"Shadipur, Delhi - CPCB",29-01-2024 20:00:00,28.6514781,77.1473105,NO2,21,82,54
India,Delhi,Delhi,"Shadipur, Delhi - CPCB",29-01-2024 20:00:00,28.6514781,77.1473105,CO,42,110,58
India,Delhi,Delhi,"Sirifort, Delhi - CPCB",29-01-2024 20:00:00,28.5504249,77.2159377,CO,50,102,70
India,Delhi,Delhi,"Sonia Vihar, Delhi - DPCC",29-01-2024 20:00:00,28.710508,77.249485,PM10,246,434,368
India,Delhi,Delhi,"Sonia Vihar, Delhi - DPCC",29-01-2024 20:00:00,28.710508,77.249485,SO2,9,15,13
India,Delhi,Delhi,"Sri Aurobindo Marg, Delhi - DPCC",29-01-2024 20:00:00,28.531346,77.190156,NO2,33,94,50
India,Delhi,Delhi,"Sri Aurobindo Marg, Delhi - DPCC",29-01-2024 20:00:00,28.531346,77.190156,SO2,10,18,13
India,Delhi,Delhi,"Vivek Vihar, Delhi - DPCC",29-01-2024 20:00:00,28.672342,77.315260,CO,53,119,88
India,Delhi,Delhi,"Wazirpur, Delhi - DPCC",29-01-2024 20:00:00,28.699793,77.165453,PM2.5,334,471,401
India,Gujarat,Ahmedabad,"Chandkheda, Ahmedabad - IITM",29-01-2024 20:00:00,23.107969,72.574648,PM10,62,271,111
India,Gujarat,Ahmedabad,"Chandkheda, Ahmedabad - IITM",29-01-2024 20:00:00,23.107969,72.574648,NO2,25,35,30
India,Gujarat,Ahmedabad,"Chandkheda, Ahmedabad - IITM",29-01-2024 20:00:00,23.107969,72.574648,SO2,8,25,12
India,Gujarat,Ahmedabad,"Gyaspur, Ahmedabad - IITM",29-01-2024 20:00:00,22.977134,72.553024,PM10,65,183,100
India,Gujarat,Ahmedabad,"Raikhad, Ahmedabad - IITM",29-01-2024 20:00:00,23.020509,72.579261,PM10,NA,NA,NA
India,Gujarat,Ahmedabad,"Raikhad, Ahmedabad - IITM",29-01-2024 20:00:00,23.020509,72.579261,NH3,NA,NA,NA
India,Gujarat,Ahmedabad,"SAC ISRO Bopal, Ahmedabad - IITM",29-01-2024 20:00:00,23.041137,72.456691,PM2.5,52,311,147
India,Gujarat,Ahmedabad,"SAC ISRO Bopal, Ahmedabad - IITM",29-01-2024 20:00:00,23.041137,72.456691,CO,20,50,45
India,Gujarat,Ahmedabad,"SAC ISRO Satellite, Ahmedabad - IITM",29-01-2024 20:00:00,23.023389,72.515201,PM10,80,108,91
India,Gujarat,Ahmedabad,"SVPI Airport Hansol, Ahmedabad - IITM",29-01-2024 20:00:00,23.076793,72.627874,CO,20,136,29
India,Gujarat,Ankleshwar,"GIDC, Ankleshwar - GPCB",29-01-2024 20:00:00,21.613267,73.010555,PM10,63,153,106
India,Gujarat,Ankleshwar,"GIDC, Ankleshwar - GPCB",29-01-2024 20:00:00,21.613267,73.010555,NO2,33,34,34
India,Gujarat,Ankleshwar,"GIDC, Ankleshwar - GPCB",29-01-2024 20:00:00,21.613267,73.010555,NH3,6,6,6
India,Gujarat,Gandhinagar,"GIFT City, Gandhinagar - IITM",29-01-2024 20:00:00,23.163798,72.677768,PM2.5,72,354,229
India,Gujarat,Gandhinagar,"Sector-10, Gandhinagar - GPCB",29-01-2024 20:00:00,23.221714,72.654328,NH3,1,2,2
India,Gujarat,Vatva,"Phase-4 GIDC, Vatva - GPCB",29-01-2024 20:00:00,22.969611,72.643500,PM10,62,193,115
India,Gujarat,Vatva,"Phase-4 GIDC, Vatva - GPCB",29-01-2024 20:00:00,22.969611,72.643500,OZONE,3,41,3
India,Haryana,Ambala,"Patti Mehar, Ambala - HSPCB",29-01-2024 20:00:00,30.379589,76.778328,NO2,7,22,14
India,Haryana,Ambala,"Patti Mehar, Ambala - HSPCB",29-01-2024 20:00:00,30.379589,76.778328,OZONE,19,43,28
India,Haryana,Bahadurgarh,"Arya Nagar, Bahadurgarh - HSPCB",29-01-2024 20:00:00,28.6701,76.9254,PM10,151,263,175
India,Haryana,Bahadurgarh,"Arya Nagar, Bahadurgarh - HSPCB",29-01-2024 20:00:00,28.6701,76.9254,NH3,11,12,11
India,Haryana,Bahadurgarh,"Arya Nagar, Bahadurgarh - HSPCB",29-01-2024 20:00:00,28.6701,76.9254,SO2,9,14,11
India,Haryana,Bahadurgarh,"Arya Nagar, Bahadurgarh - HSPCB",29-01-2024 20:00:00,28.6701,76.9254,CO,38,59,48
India,Haryana,Ballabgarh,"Nathu Colony, Ballabgarh - HSPCB",29-01-2024 20:00:00,28.3419248,77.319699,PM2.5,14,323,124
India,Haryana,Ballabgarh,"Nathu Colony, Ballabgarh - HSPCB",29-01-2024 20:00:00,28.3419248,77.319699,PM10,108,197,130
India,Haryana,Ballabgarh,"Nathu Colony, Ballabgarh - HSPCB",29-01-2024 20:00:00,28.3419248,77.319699,CO,22,114,58
India,Haryana,Bhiwani,"H.B. Colony, Bhiwani - HSPCB",29-01-2024 20:00:00,28.806223,76.141105,SO2,5,11,8
India,Haryana,Bhiwani,"H.B. Colony, Bhiwani - HSPCB",29-01-2024 20:00:00,28.806223,76.141105,CO,64,92,70
India,Haryana,Dharuhera,"Municipal Corporation Office, Dharuhera -  HSPCB",29-01-2024 20:00:00,28.206800,76.799700,NH3,9,27,19
India,Haryana,Faridabad,"New Industrial Town, Faridabad - HSPCB",29-01-2024 20:00:00,28.39072,77.30059,CO,22,62,40
India,Haryana,Faridabad,"Sector 11, Faridabad - HSPCB",29-01-2024 20:00:00,28.376058,77.315741,NO2,30,33,31
India,Haryana,Faridabad,"Sector 11, Faridabad - HSPCB",29-01-2024 20:00:00,28.376058,77.315741,OZONE,3,4,4
India,Haryana,Faridabad,"Sector 30, Faridabad - HSPCB",29-01-2024 20:00:00,28.4417,77.3217,PM10,NA,NA,NA
India,Haryana,Faridabad,"Sector 30, Faridabad - HSPCB",29-01-2024 20:00:00,28.4417,77.3217,SO2,NA,NA,NA
India,Haryana,Faridabad,"Sector- 16A, Faridabad - HSPCB",29-01-2024 20:00:00,28.4088421,77.3099081,OZONE,14,14,14
India,Haryana,Fatehabad,"Huda Sector, Fatehabad - HSPCB",29-01-2024 20:00:00,29.503664,75.467934,PM2.5,NA,NA,NA
India,Haryana,Fatehabad,"Huda Sector, Fatehabad - HSPCB",29-01-2024 20:00:00,29.503664,75.467934,NO2,NA,NA,NA
India,Haryana,Gurugram,"Sector-51, Gurugram - HSPCB",29-01-2024 20:00:00,28.4227,77.0667,PM2.5,310,398,346
India,Haryana,Gurugram,"Sector-51, Gurugram - HSPCB",29-01-2024 20:00:00,28.4227,77.0667,SO2,3,4,3
India,Haryana,Gurugram,"Vikas Sadan, Gurugram - HSPCB",29-01-2024 20:00:00,28.4501238,77.0263051,NO2,5,26,14
India,Haryana,Hisar,"Urban Estate-II, Hisar - HSPCB",29-01-2024 20:00:00,29.140560,75.744941,PM2.5,208,316,285
India,Haryana,Kaithal,"Rishi Nagar, Kaithal - HSPCB",29-01-2024 20:00:00,29.8006,76.4155,PM2.5,194,311,263
India,Haryana,Kaithal,"Rishi Nagar, Kaithal - HSPCB",29-01-2024 20:00:00,29.8006,76.4155,SO2,1,75,21
India,Haryana,Kaithal,"Rishi Nagar, Kaithal - HSPCB",29-01-2024 20:00:00,29.8006,76.4155,OZONE,3,21,14
India,Haryana,Kurukshetra,"Sector-7, Kurukshetra - HSPCB",29-01-2024 20:00:00,29.966942,76.875879,OZONE,3,67,44
India,Haryana,Mandikhera,"General Hospital, Mandikhera - HSPCB",29-01-2024 20:00:00,27.9002,76.9938,PM10,122,151,128
India,Haryana,Manesar,"Sector-2 IMT, Manesar - HSPCB",29-01-2024 20:00:00,28.360699,76.936090,PM2.5,159,301,209
India,Haryana,Narnaul,"Shastri Nagar, Narnaul - HSPCB",29-01-2024 20:00:00,28.060249,76.113115,PM10,53,154,116
India,Haryana,Narnaul,"Shastri Nagar, Narnaul - HSPCB",29-01-2024 20:00:00,28.060249,76.113115,NO2,17,46,32
India,Haryana,Narnaul,"Shastri Nagar, Narnaul - HSPCB",29-01-2024 20:00:00,28.060249,76.113115,NH3,5,15,10
India,Haryana,Narnaul,"Shastri Nagar, Narnaul - HSPCB",29-01-2024 20:00:00,28.060249,76.113115,SO2,12,58,17
India,Haryana,Palwal,"Shyam Nagar, Palwal - HSPCB",29-01-2024 20:00:00,28.1485564,77.3320667,OZONE,7,41,26
India,Haryana,Panchkula,"Sector-6, Panchkula - HSPCB ",29-01-2024 20:00:00,30.7057778,76.8531805555555,PM2.5,37,200,117
India,Haryana,Panipat,"Sector-18, Panipat - HSPCB",29-01-2024 20:00:00,29.497973,76.993331,CO,23,52,25
India,Haryana,Rohtak,"MD University, Rohtak - HSPCB",29-01-2024 20:00:00,28.52123,76.37138,CO,20,36,31
India,Haryana,Sirsa,"F-Block, Sirsa - HSPCB",29-01-2024 20:00:00,29.536400,75.015800,PM2.5,80,176,115
India,Haryana,Sirsa,"F-Block, Sirsa - HSPCB",29-01-2024 20:00:00,29.536400,75.015800,PM10,95,140,120
India,Haryana,Sirsa,"F-Block, Sirsa - HSPCB",29-01-2024 20:00:00,29.536400,75.015800,NH3,12,13,13
India,Haryana,Sonipat,"Murthal, Sonipat - HSPCB",29-01-2024 20:00:00,29.027200,77.062100,OZONE,16,36,33
India,Haryana,Yamuna Nagar,"Gobind Pura, Yamuna Nagar - HSPCB",29-01-2024 20:00:00,30.1480566,77.2893471,NO2,11,29,18
India,Karnataka,Bagalkot,"Vidayagiri, Bagalkot - KSPCB",29-01-2024 20:00:00,16.172806,75.659694,NO2,10,11,10
India,Karnataka,Belgaum,"Ramteerth Nagar, Belgaum - KSPCB",29-01-2024 20:00:00,15.888653,74.541751,PM2.5,32,86,58
India,Karnataka,Belgaum,"Ramteerth Nagar, Belgaum - KSPCB",29-01-2024 20:00:00,15.888653,74.541751,CO,44,57,54
India,Karnataka,Bengaluru,"BTM Layout, Bengaluru - CPCB",29-01-2024 20:00:00,12.9135218,77.5950804,OZONE,22,27,25
India,Karnataka,Bengaluru,"City Railway Station, Bengaluru - KSPCB",29-01-2024 20:00:00,12.9756843,77.5660749,PM10,NA,NA,NA
India,Karnataka,Bengaluru,"Hebbal, Bengaluru - KSPCB",29-01-2024 20:00:00,13.029152,77.585901,OZONE,22,81,49
