country,state,city,station,last_update,latitude,longitude,pollutant_id,pollutant_min,pollutant_max,pollutant_avg
India,Andhra_Pradesh,Amaravati,"Secretariat, Amaravati - APPCB",03-05-2024 23:00:00,16.5150833,80.5181667,PM2.5,9,76,34
India,Andhra_Pradesh,Amaravati,"Secretariat, Amaravati - APPCB",03-05-2024 23:00:00,16.5150833,80.5181667,PM10,29,94,61
India,Andhra_Pradesh,Anantapur,"Gulzarpet, Anantapur - APPCB",03-05-2024 23:00:00,14.675886,77.593027,CO,22,123,69
India,Andhra_Pradesh,Chittoor,"Gangineni Cheruvu, Chittoor - APPCB",03-05-2024 23:00:00,13.204880,79.097889,SO2,NA,NA,NA
India,Andhra_Pradesh,Chittoor,"Gangineni Cheruvu, Chittoor - APPCB",03-05-2024 23:00:00,13.204880,79.097889,CO,28,64,40
India,Andhra_Pradesh,Kadapa,"Yerramukkapalli, Kadapa - APPCB",03-05-2024 23:00:00,14.465052,78.824187,NO2,12,13,13
India,Andhra_Pradesh,Tirupati,"Tirumala, Tirupati - APPCB",03-05-2024 23:00:00,13.67,79.35,PM10,36,78,58
India,Andhra_Pradesh,Tirupati,"Tirumala, Tirupati - APPCB",03-05-2024 23:00:00,13.67,79.35,NO2,8,48,20
India,Andhra_Pradesh,Tirupati,"Tirumala, Tirupati - APPCB",03-05-2024 23:00:00,13.67,79.35,NH3,1,2,1
India,Andhra_Pradesh,Tirupati,"Vaikuntapuram, Tirupati - APPCB",03-05-2024 23:00:00,13.615387,79.409230,PM10,13,184,42
India,Andhra_Pradesh,Vijayawada,"Kanuru, Vijayawada - APPCB",03-05-2024 23:00:00,16.486692,80.699436,NH3,7,15,10
India,Andhra_Pradesh,Vijayawada,"Kanuru, Vijayawada - APPCB",03-05-2024 23:00:00,16.486692,80.699436,CO,38,38,38
India,Andhra_Pradesh,Vijayawada,"Rajiv Gandhi Park, Vijayawada - APPCB",03-05-2024 23:00:00,16.509717,80.612222,OZONE,16,88,48
India,Andhra_Pradesh,Vijayawada,"Rajiv Nagar, Vijayawada - APPCB",03-05-2024 23:00:00,16.554731,80.649110,PM2.5,42,44,42
India,Andhra_Pradesh,Visakhapatnam,"GVM Corporation, Visakhapatnam - APPCB",03-05-2024 23:00:00,17.72,83.3,NO2,21,40,29
India,Arunachal_Pradesh,Naharlagun,"Naharlagun, Naharlagun - APSPCB",03-05-2024 23:00:00,27.103358,93.679645,CO,9,22,15
India,Arunachal_Pradesh,Naharlagun,"Naharlagun, Naharlagun - APSPCB",03-05-2024 23:00:00,27.103358,93.679645,OZONE,2,3,2
India,Assam,Byrnihat,"Central Academy for SFS, Byrnihat - PCBA",03-05-2024 23:00:00,26.071318,91.87488,NH3,10,13,11
India,Assam,Guwahati,"IITG, Guwahati - PCBA",03-05-2024 23:00:00,26.2028636,91.70046436,NO2,1,3,1
India,Assam,Guwahati,"Pan Bazaar, Guwahati - PCBA",03-05-2024 23:00:00,26.187500,91.744194,OZONE,17,17,17
India,Assam,Nagaon,"Christianpatty, Nagaon - PCBA",03-05-2024 23:00:00,26.349082,92.68449,PM10,70,104,88
India,Assam,Nagaon,"Christianpatty, Nagaon - PCBA",03-05-2024 23:00:00,26.349082,92.68449,NH3,2,38,7
India,Assam,Nalbari,"Bata Chowk, Nalbari - PCBA",03-05-2024 23:00:00,26.446912,91.439057,OZONE,12,18,16
India,Assam,Sivasagar,"Girls College, Sivasagar - PCBA",03-05-2024 23:00:00,26.987634,94.636574,PM10,51,90,66
India,Bihar,Araria,"Kharahiya Basti, Araria - BSPCB",03-05-2024 23:00:00,26.146529,87.454184,PM10,100,262,148
India,Bihar,Arrah,"New DM Office, Arrah - BSPCB",03-05-2024 23:00:00,25.5626095,84.663264,PM10,NA,NA,NA
India,Bihar,Arrah,"New DM Office, Arrah - BSPCB",03-05-2024 23:00:00,25.5626095,84.663264,SO2,NA,NA,NA
India,Bihar,Arrah,"New DM Office, Arrah - BSPCB",03-05-2024 23:00:00,25.5626095,84.663264,OZONE,13,49,17
India,Bihar,Aurangabad,"Gurdeo Nagar, Aurangabad - BSPCB",03-05-2024 23:00:00,24.75746,84.366208,PM2.5,NA,NA,NA
India,Bihar,Aurangabad,"Gurdeo Nagar, Aurangabad - BSPCB",03-05-2024 23:00:00,24.75746,84.366208,PM10,NA,NA,NA
India,Bihar,Aurangabad,"Gurdeo Nagar, Aurangabad - BSPCB",03-05-2024 23:00:00,24.75746,84.366208,NO2,4,12,6
India,Bihar,Aurangabad,"Gurdeo Nagar, Aurangabad - BSPCB",03-05-2024 23:00:00,24.75746,84.366208,NH3,11,26,18
India,Bihar,Bettiah,"Kamalnath Nagar, Bettiah - BSPCB",03-05-2024 23:00:00,26.80365,84.51954,NO2,27,29,28
India,Bihar,Bhagalpur,"DM Office_Kachari Chowk, Bhagalpur - BSPCB",03-05-2024 23:00:00,25.251013,86.989001,NO2,58,226,94
India,Bihar,Bhagalpur,"DM Office_Kachari Chowk, Bhagalpur - BSPCB",03-05-2024 23:00:00,25.251013,86.989001,OZONE,18,48,47
India,Bihar,Bhagalpur,"Mayaganj, Bhagalpur - BSPCB",03-05-2024 23:00:00,25.265194,87.012947,PM2.5,58,263,117
India,Bihar,Bhagalpur,"Mayaganj, Bhagalpur - BSPCB",03-05-2024 23:00:00,25.265194,87.012947,PM10,51,139,85
India,Bihar,Bihar Sharif,"D M Colony, Bihar Sharif - BSPCB",03-05-2024 23:00:00,25.204762,85.514960,PM2.5,33,200,68
India,Bihar,Bihar Sharif,"D M Colony, Bihar Sharif - BSPCB",03-05-2024 23:00:00,25.204762,85.514960,OZONE,15,55,35
India,Bihar,Buxar,"Charitra Van, Buxar - BSPCB (Formerly known as Central Jail)",03-05-2024 23:00:00,25.567520,83.966379,CO,42,123,95
India,Bihar,Gaya,"SFTI Kusdihra, Gaya - BSPCB",03-05-2024 23:00:00,24.762518,84.982348,OZONE,5,92,61
India,Bihar,Hajipur,"Industrial Area, Hajipur - BSPCB",03-05-2024 23:00:00,25.697189,85.245900,PM10,150,500,268
India,Bihar,Katihar,"Mirchaibari, Katihar - BSPCB",03-05-2024 23:00:00,25.560083,87.553265,NO2,NA,NA,NA
India,Bihar,Kishanganj,"SDM Office_Khagra, Kishanganj - BSPCB",03-05-2024 23:00:00,26.0881305,87.93840336,NO2,28,35,31
India,Bihar,Kishanganj,"SDM Office_Khagra, Kishanganj - BSPCB",03-05-2024 23:00:00,26.0881305,87.93840336,CO,NA,NA,NA
India,Bihar,Manguraha,"Forest Rest House, Manguraha - BSPCB",03-05-2024 23:00:00,27.308328,84.531742,SO2,2,7,4
India,Bihar,Munger,"Town Hall, Munger - BSPCB",03-05-2024 23:00:00,25.376776,86.471523,PM2.5,63,364,145
India,Bihar,Munger,"Town Hall, Munger - BSPCB",03-05-2024 23:00:00,25.376776,86.471523,NO2,4,6,5
India,Bihar,Muzaffarpur,"MIT-Daudpur Kothi, Muzaffarpur - BSPCB",03-05-2024 23:00:00,26.1403345,85.3650192,OZONE,25,92,58
India,Bihar,Muzaffarpur,"Muzaffarpur Collectorate, Muzaffarpur - BSPCB",03-05-2024 23:00:00,26.1209,85.3647,OZONE,49,124,74
India,Bihar,Patna,"DRM Office Danapur, Patna - BSPCB",03-05-2024 23:00:00,25.586562,85.043586,PM2.5,19,310,167
India,Bihar,Patna,"Govt. High School Shikarpur, Patna - BSPCB",03-05-2024 23:00:00,25.592539,85.227158,PM2.5,127,327,236
India,Bihar,Patna,"Govt. High School Shikarpur, Patna - BSPCB",03-05-2024 23:00:00,25.592539,85.227158,NH3,5,6,5
India,Bihar,Patna,"IGSC Planetarium Complex, Patna - BSPCB",03-05-2024 23:00:00,25.610369,85.132568,SO2,5,6,5
India,Bihar,Patna,"Muradpur, Patna - BSPCB",03-05-2024 23:00:00,25.619651,85.147382,CO,24,122,74
India,Bihar,Patna,"Rajbansi Nagar, Patna - BSPCB",03-05-2024 23:00:00,25.599486,85.113666,NO2,29,109,54
India,Bihar,Patna,"Rajbansi Nagar, Patna - BSPCB",03-05-2024 23:00:00,25.599486,85.113666,OZONE,5,167,45
India,Bihar,Patna,"Samanpura, Patna - BSPCB",03-05-2024 23:00:00,25.596727,85.085624,NO2,9,106,38
India,Bihar,Purnia,"Mariam Nagar, Purnia - BSPCB",03-05-2024 23:00:00,25.366336,87.117468,PM10,49,60,56
India,Bihar,Purnia,"Mariam Nagar, Purnia - BSPCB",03-05-2024 23:00:00,25.366336,87.117468,NH3,7,9,7
India,Bihar,Rajgir,"Dangi Tola, Rajgir - BSPCB",03-05-2024 23:00:00,25.03280,85.41948,PM10,32,134,73
India,Bihar,Rajgir,"Dangi Tola, Rajgir - BSPCB",03-05-2024 23:00:00,25.03280,85.41948,NH3,2,4,3
India,Bihar,Saharsa,"Police Line, Saharsa - BSPCB",03-05-2024 23:00:00,25.892357,86.590325,PM2.5,NA,NA,NA
India,Bihar,Saharsa,"Police Line, Saharsa - BSPCB",03-05-2024 23:00:00,25.892357,86.590325,PM10,NA,NA,NA
India,Bihar,Samastipur,"DM Office_Kasipur, Samastipur - BSPCB",03-05-2024 23:00:00,25.859655,85.77944,NO2,1,28,9
India,Bihar,Siwan,"Chitragupta Nagar, Siwan - BSPCB",03-05-2024 23:00:00,26.2271665,84.3570427,NO2,21,106,38
India,Bihar,Siwan,"Chitragupta Nagar, Siwan - BSPCB",03-05-2024 23:00:00,26.2271665,84.3570427,CO,38,152,98
India,Chandigarh,Chandigarh,"Sector 22, Chandigarh - CPCC",03-05-2024 23:00:00,30.735567,76.775714,PM2.5,28,120,73
India,Chandigarh,Chandigarh,"Sector 22, Chandigarh - CPCC",03-05-2024 23:00:00,30.735567,76.775714,NO2,16,53,29
India,Chandigarh,Chandigarh,"Sector 22, Chandigarh - CPCC",03-05-2024 23:00:00,30.735567,76.775714,SO2,7,82,20
India,Chandigarh,Chandigarh,"Sector-25, Chandigarh - CPCC",03-05-2024 23:00:00,30.751462,76.762879,PM10,104,153,124
India,Chandigarh,Chandigarh,"Sector-25, Chandigarh - CPCC",03-05-2024 23:00:00,30.751462,76.762879,NH3,8,16,12
India,Chandigarh,Chandigarh,"Sector-53, Chandigarh - CPCC",03-05-2024 23:00:00,30.719859,76.738637,PM10,65,233,123
India,Chandigarh,Chandigarh,"Sector-53, Chandigarh - CPCC",03-05-2024 23:00:00,30.719859,76.738637,NO2,9,58,22
India,Chandigarh,Chandigarh,"Sector-53, Chandigarh - CPCC",03-05-2024 23:00:00,30.719859,76.738637,NH3,3,6,4
India,Chandigarh,Chandigarh,"Sector-53, Chandigarh - CPCC",03-05-2024 23:00:00,30.719859,76.738637,CO,36,76,52
India,Chhattisgarh,Bhilai,"32Bungalows, Bhilai - CECB",03-05-2024 23:00:00,21.194815,81.314770,SO2,16,34,21
India,Chhattisgarh,Bhilai,"Civic Center, Bhilai - Bhilai Steel Plant",03-05-2024 23:00:00,21.185571,81.343175,SO2,9,13,10
India,Chhattisgarh,Bhilai,"Hathkhoj, Bhilai - CECB",03-05-2024 23:00:00,21.224231,81.408350,PM10,82,153,113
India,Chhattisgarh,Bhilai,"Hathkhoj, Bhilai - CECB",03-05-2024 23:00:00,21.224231,81.408350,CO,4,92,37
India,Chhattisgarh,Bilaspur,"Mangala, Bilaspur - NTPC",03-05-2024 23:00:00,22.08815,82.13737,CO,32,42,36
India,Chhattisgarh,Chhal,"Nawapara SECL Colony, Chhal - CECB",03-05-2024 23:00:00,22.118125,83.140608,PM10,75,111,92
India,Chhattisgarh,Chhal,"Nawapara SECL Colony, Chhal - CECB",03-05-2024 23:00:00,22.118125,83.140608,SO2,19,91,43
India,Chhattisgarh,Korba,"Rampur, Korba - CECB",03-05-2024 23:00:00,22.368195,82.746431,NH3,1,1,1
India,Chhattisgarh,Korba,"Rampur, Korba - CECB",03-05-2024 23:00:00,22.368195,82.746431,SO2,8,97,37
India,Chhattisgarh,Korba,"Rampur, Korba - CECB",03-05-2024 23:00:00,22.368195,82.746431,CO,12,62,35
India,Chhattisgarh,Korba,"Urja Nagar, Korba - CECB",03-05-2024 23:00:00,22.348441,82.549611,NH3,2,12,4
India,Chhattisgarh,Kunjemura,"OP Jindal School, Kunjemura - CECB",03-05-2024 23:00:00,22.126650,83.483212,PM2.5,47,348,175
India,Chhattisgarh,Kunjemura,"OP Jindal School, Kunjemura - CECB",03-05-2024 23:00:00,22.126650,83.483212,SO2,8,55,25
India,Chhattisgarh,Milupara,"Govt. Higher Secondary School, Milupara - CECB",03-05-2024 23:00:00,22.1910172,83.5197009,NO2,NA,NA,NA
India,Chhattisgarh,Milupara,"Govt. Higher Secondary School, Milupara - CECB",03-05-2024 23:00:00,22.1910172,83.5197009,OZONE,7,16,14
India,Chhattisgarh,Raipur,"AIIMS, Raipur - CECB",03-05-2024 23:00:00,21.258815,81.578979,NO2,23,80,39
India,Chhattisgarh,Raipur,"AIIMS, Raipur - CECB",03-05-2024 23:00:00,21.258815,81.578979,CO,23,72,44
India,Chhattisgarh,Raipur,"Bhatagaon New ISBT, Raipur - CECB",03-05-2024 23:00:00,21.219665,81.630094,PM2.5,11,80,48
India,Chhattisgarh,Raipur,"Bhatagaon New ISBT, Raipur - CECB",03-05-2024 23:00:00,21.219665,81.630094,NO2,37,116,58
India,Chhattisgarh,Raipur,"Bhatagaon New ISBT, Raipur - CECB",03-05-2024 23:00:00,21.219665,81.630094,SO2,1,4,3
India,Chhattisgarh,Raipur,"Krishak Nagar, Raipur - CECB",03-05-2024 23:00:00,21.237755,81.705301,PM10,75,120,89
India,Chhattisgarh,Raipur,"Krishak Nagar, Raipur - CECB",03-05-2024 23:00:00,21.237755,81.705301,CO,24,42,32
India,Delhi,Delhi,"Alipur, Delhi - DPCC",03-05-2024 23:00:00,28.815329,77.153010,PM2.5,48,392,230
India,Delhi,Delhi,"Alipur, Delhi - DPCC",03-05-2024 23:00:00,28.815329,77.153010,NH3,4,10,6
India,Delhi,Delhi,"Alipur, Delhi - DPCC",03-05-2024 23:00:00,28.815329,77.153010,SO2,12,71,38
India,Delhi,Delhi,"Alipur, Delhi - DPCC",03-05-2024 23:00:00,28.815329,77.153010,OZONE,4,163,107
India,Delhi,Delhi,"Anand Vihar, Delhi - DPCC",03-05-2024 23:00:00,28.647622,77.3158090,PM2.5,87,355,264
India,Delhi,Delhi,"Ashok Vihar, Delhi - DPCC",03-05-2024 23:00:00,28.695381,77.181665,NH3,8,19,13
India,Delhi,Delhi,"Bawana, Delhi - DPCC",03-05-2024 23:00:00,28.776200,77.051074,PM2.5,140,456,311
India,Delhi,Delhi,"Bawana, Delhi - DPCC",03-05-2024 23:00:00,28.776200,77.051074,NH3,3,6,5
India,Delhi,Delhi,"Burari Crossing, Delhi - IMD",03-05-2024 23:00:00,28.7256504,77.2011573,PM2.5,97,385,255
India,Delhi,Delhi,"Burari Crossing, Delhi - IMD",03-05-2024 23:00:00,28.7256504,77.2011573,PM10,154,415,279
India,Delhi,Delhi,"Burari Crossing, Delhi - IMD",03-05-2024 23:00:00,28.7256504,77.2011573,OZONE,10,98,53
India,Delhi,Delhi,"Chandni Chowk, Delhi - IITM",03-05-2024 23:00:00,28.656756,77.227234,CO,38,78,65
India,Delhi,Delhi,"DTU, Delhi - CPCB",03-05-2024 23:00:00,28.7500499,77.1112615,PM10,144,500,310
India,Delhi,Delhi,"Dr. Karni Singh Shooting Range, Delhi - DPCC",03-05-2024 23:00:00,28.498571,77.264840,PM2.5,87,404,235
India,Delhi,Delhi,"Dr. Karni Singh Shooting Range, Delhi - DPCC",03-05-2024 23:00:00,28.498571,77.264840,NH3,4,7,6
India,Delhi,Delhi,"Dwarka-Sector 8, Delhi - DPCC ",03-05-2024 23:00:00,28.5710274,77.0719006,NH3,2,3,2
India,Delhi,Delhi,"IHBAS, Dilshad Garden, Delhi - CPCB",03-05-2024 23:00:00,28.6811736,77.3025234,NO2,25,78,45
India,Delhi,Delhi,"ITO, Delhi - CPCB",03-05-2024 23:00:00,28.628624,77.241060,PM10,90,226,149
India,Delhi,Delhi,"ITO, Delhi - CPCB",03-05-2024 23:00:00,28.628624,77.241060,CO,24,108,58
India,Delhi,Delhi,"ITO, Delhi - CPCB",03-05-2024 23:00:00,28.628624,77.241060,OZONE,12,93,44
India,Delhi,Delhi,"Jahangirpuri, Delhi - DPCC",03-05-2024 23:00:00,28.732820,77.170633,PM2.5,72,422,278
India,Delhi,Delhi,"Jahangirpuri, Delhi - DPCC",03-05-2024 23:00:00,28.732820,77.170633,NH3,9,70,27
India,Delhi,Delhi,"Jawaharlal Nehru Stadium, Delhi - DPCC",03-05-2024 23:00:00,28.580280,77.233829,OZONE,2,274,106
India,Delhi,Delhi,"Lodhi Road, Delhi - IITM",03-05-2024 23:00:00,28.588333,77.221667,NH3,8,12,10
India,Delhi,Delhi,"Lodhi Road, Delhi - IITM",03-05-2024 23:00:00,28.588333,77.221667,CO,58,68,60
India,Delhi,Delhi,"Lodhi Road, Delhi - IMD",03-05-2024 23:00:00,28.5918245,77.2273074,PM2.5,37,379,196
India,Delhi,Delhi,"NSIT Dwarka, Delhi - CPCB",03-05-2024 23:00:00,28.60909,77.0325413,SO2,3,56,22
India,Delhi,Delhi,"NSIT Dwarka, Delhi - CPCB",03-05-2024 23:00:00,28.60909,77.0325413,OZONE,10,115,56
India,Delhi,Delhi,"Narela, Delhi - DPCC",03-05-2024 23:00:00,28.822836,77.101981,NO2,10,80,42
India,Delhi,Delhi,"Nehru Nagar, Delhi - DPCC",03-05-2024 23:00:00,28.567890,77.250515,OZONE,1,198,79
India,Delhi,Delhi,"North Campus, DU, Delhi - IMD",03-05-2024 23:00:00,28.6573814,77.1585447,CO,NA,NA,NA
India,Delhi,Delhi,"Punjabi Bagh, Delhi - DPCC",03-05-2024 23:00:00,28.674045,77.131023,SO2,5,42,24
India,Delhi,Delhi,"Pusa, Delhi - DPCC",03-05-2024 23:00:00,28.639652,77.146275,NO2,77,176,118
India,Delhi,Delhi,"Pusa, Delhi - DPCC",03-05-2024 23:00:00,28.639652,77.146275,CO,9,112,64
India,Delhi,Delhi,"R K Puram, Delhi - DPCC",03-05-2024 23:00:00,28.563262,77.186937,NH3,1,2,2
India,Delhi,Delhi,"R K Puram, Delhi - DPCC",03-05-2024 23:00:00,28.563262,77.186937,SO2,17,91,40
India,Delhi,Delhi,"Rohini, Delhi - DPCC",03-05-2024 23:00:00,28.732528,77.119920,NO2,14,90,56
India,Delhi,Delhi,"Rohini, Delhi - DPCC",03-05-2024 23:00:00,28.732528,77.119920,SO2,12,95,36
India,Delhi,Delhi,"Shadipur, Delhi - CPCB",03-05-2024 23:00:00,28.6514781,77.1473105,NH3,9,11,10
India,Delhi,Delhi,"Shadipur, Delhi - CPCB",03-05-2024 23:00:00,28.6514781,77.1473105,SO2,13,39,26
India,Delhi,Delhi,"Sirifort, Delhi - CPCB",03-05-2024 23:00:00,28.5504249,77.2159377,NO2,60,79,71
India,Delhi,Delhi,"Sonia Vihar, Delhi - DPCC",03-05-2024 23:00:00,28.710508,77.249485,PM10,128,382,239
India,Delhi,Delhi,"Vivek Vihar, Delhi - DPCC",03-05-2024 23:00:00,28.672342,77.315260,OZONE,6,130,66
India,Gujarat,Ahmedabad,"Chandkheda, Ahmedabad - IITM",03-05-2024 23:00:00,23.107969,72.574648,OZONE,7,54,29
India,Gujarat,Ahmedabad,"Gyaspur, Ahmedabad - IITM",03-05-2024 23:00:00,22.977134,72.553024,SO2,6,18,12
India,Gujarat,Ahmedabad,"Raikhad, Ahmedabad - IITM",03-05-2024 23:00:00,23.020509,72.579261,PM10,88,189,132
India,Gujarat,Ahmedabad,"Rakhial, Ahmedabad - IITM",03-05-2024 23:00:00,23.016834,72.625775,PM2.5,74,368,176
India,Gujarat,Ahmedabad,"SAC ISRO Satellite, Ahmedabad - IITM",03-05-2024 23:00:00,23.023389,72.515201,PM2.5,83,84,84
India,Gujarat,Ahmedabad,"SAC ISRO Satellite, Ahmedabad - IITM",03-05-2024 23:00:00,23.023389,72.515201,NO2,32,33,32
India,Gujarat,Ahmedabad,"SAC ISRO Satellite, Ahmedabad - IITM",03-05-2024 23:00:00,23.023389,72.515201,NH3,3,3,3
India,Gujarat,Ahmedabad,"SAC ISRO Satellite, Ahmedabad - IITM",03-05-2024 23:00:00,23.023389,72.515201,SO2,2,9,5
India,Gujarat,Ankleshwar,"GIDC, Ankleshwar - GPCB",03-05-2024 23:00:00,21.613267,73.010555,PM2.5,47,122,76
India,Gujarat,Ankleshwar,"GIDC, Ankleshwar - GPCB",03-05-2024 23:00:00,21.613267,73.010555,PM10,73,121,98
India,Gujarat,Gandhinagar,"Sector-10, Gandhinagar - GPCB",03-05-2024 23:00:00,23.221714,72.654328,SO2,6,11,7
India,Gujarat,Nandesari,"GIDC, Nandesari - Nandesari Ind. Association",03-05-2024 23:00:00,22.410802,73.097923,PM2.5,50,378,190
India,Gujarat,Surat,"Science Center, Surat - SMC",03-05-2024 23:00:00,21.170046,72.795405,SO2,1,6,3
India,Gujarat,Vapi,"Phase-1 GIDC, Vapi - GPCB",03-05-2024 23:00:00,20.362421,72.918013,OZONE,1,4,1
India,Gujarat,Vatva,"Phase-4 GIDC, Vatva - GPCB",03-05-2024 23:00:00,22.969611,72.643500,PM10,93,93,93
India,Gujarat,Vatva,"Phase-4 GIDC, Vatva - GPCB",03-05-2024 23:00:00,22.969611,72.643500,CO,34,36,36
India,Haryana,Ballabgarh,"Nathu Colony, Ballabgarh - HSPCB",03-05-2024 23:00:00,28.3419248,77.319699,PM10,27,424,259
India,Haryana,Ballabgarh,"Nathu Colony, Ballabgarh - HSPCB",03-05-2024 23:00:00,28.3419248,77.319699,CO,4,111,57
India,Haryana,Dharuhera,"Municipal Corporation Office, Dharuhera -  HSPCB",03-05-2024 23:00:00,28.206800,76.799700,CO,9,60,31
India,Haryana,Dharuhera,"Municipal Corporation Office, Dharuhera -  HSPCB",03-05-2024 23:00:00,28.206800,76.799700,OZONE,5,41,23
India,Haryana,Faridabad,"New Industrial Town, Faridabad - HSPCB",03-05-2024 23:00:00,28.39072,77.30059,PM2.5,166,500,307
India,Haryana,Faridabad,"New Industrial Town, Faridabad - HSPCB",03-05-2024 23:00:00,28.39072,77.30059,NH3,3,4,3
India,Haryana,Faridabad,"Sector 11, Faridabad - HSPCB",03-05-2024 23:00:00,28.376058,77.315741,NO2,30,33,31
India,Haryana,Faridabad,"Sector 11, Faridabad - HSPCB",03-05-2024 23:00:00,28.376058,77.315741,OZONE,4,25,16
India,Haryana,Faridabad,"Sector 30, Faridabad - HSPCB",03-05-2024 23:00:00,28.4417,77.3217,SO2,5,6,6
India,Haryana,Faridabad,"Sector 30, Faridabad - HSPCB",03-05-2024 23:00:00,28.4417,77.3217,OZONE,58,62,60
India,Haryana,Faridabad,"Sector- 16A, Faridabad - HSPCB",03-05-2024 23:00:00,28.4088421,77.3099081,NO2,2,48,10
India,Haryana,Fatehabad,"Huda Sector, Fatehabad - HSPCB",03-05-2024 23:00:00,29.503664,75.467934,PM2.5,52,322,169
India,Haryana,Fatehabad,"Huda Sector, Fatehabad - HSPCB",03-05-2024 23:00:00,29.503664,75.467934,SO2,10,11,11
India,Haryana,Fatehabad,"Huda Sector, Fatehabad - HSPCB",03-05-2024 23:00:00,29.503664,75.467934,CO,5,18,9
India,Haryana,Gurugram,"Sector-51, Gurugram - HSPCB",03-05-2024 23:00:00,28.4227,77.0667,CO,36,98,54
India,Haryana,Gurugram,"Sector-51, Gurugram - HSPCB",03-05-2024 23:00:00,28.4227,77.0667,OZONE,27,67,56
India,Haryana,Gurugram,"Vikas Sadan, Gurugram - HSPCB",03-05-2024 23:00:00,28.4501238,77.0263051,OZONE,7,68,35
India,Haryana,Jind,"Police Lines, Jind - HSPCB",03-05-2024 23:00:00,29.307814,76.337619,PM10,102,167,135
India,Haryana,Kaithal,"Rishi Nagar, Kaithal - HSPCB",03-05-2024 23:00:00,29.8006,76.4155,NH3,8,8,8
India,Haryana,Karnal,"Sector-12, Karnal - HSPCB",03-05-2024 23:00:00,29.695300,77.002700,PM2.5,NA,NA,NA
India,Haryana,Karnal,"Sector-12, Karnal - HSPCB",03-05-2024 23:00:00,29.695300,77.002700,NH3,10,13,11
India,Haryana,Karnal,"Sector-12, Karnal - HSPCB",03-05-2024 23:00:00,29.695300,77.002700,SO2,12,13,12
India,Haryana,Karnal,"Sector-12, Karnal - HSPCB",03-05-2024 23:00:00,29.695300,77.002700,CO,23,40,31
India,Haryana,Karnal,"Sector-12, Karnal - HSPCB",03-05-2024 23:00:00,29.695300,77.002700,OZONE,31,37,32
India,Haryana,Kurukshetra,"Sector-7, Kurukshetra - HSPCB",03-05-2024 23:00:00,29.966942,76.875879,PM10,94,148,126
India,Haryana,Kurukshetra,"Sector-7, Kurukshetra - HSPCB",03-05-2024 23:00:00,29.966942,76.875879,NO2,9,10,10
India,Haryana,Mandikhera,"General Hospital, Mandikhera - HSPCB",03-05-2024 23:00:00,27.9002,76.9938,NO2,20,25,22
India,Haryana,Manesar,"Sector-2 IMT, Manesar - HSPCB",03-05-2024 23:00:00,28.360699,76.936090,PM2.5,87,294,186
India,Haryana,Manesar,"Sector-2 IMT, Manesar - HSPCB",03-05-2024 23:00:00,28.360699,76.936090,CO,21,50,32
India,Haryana,Narnaul,"Shastri Nagar, Narnaul - HSPCB",03-05-2024 23:00:00,28.060249,76.113115,PM2.5,72,157,100
India,Haryana,Narnaul,"Shastri Nagar, Narnaul - HSPCB",03-05-2024 23:00:00,28.060249,76.113115,PM10,85,135,108
India,Haryana,Palwal,"Shyam Nagar, Palwal - HSPCB",03-05-2024 23:00:00,28.1485564,77.3320667,NH3,8,9,9
India,Haryana,Palwal,"Shyam Nagar, Palwal - HSPCB",03-05-2024 23:00:00,28.1485564,77.3320667,OZONE,4,46,15
India,Haryana,Sirsa,"F-Block, Sirsa - HSPCB",03-05-2024 23:00:00,29.536400,75.015800,CO,66,100,74
India,Haryana,Yamuna Nagar,"Gobind Pura, Yamuna Nagar - HSPCB",03-05-2024 23:00:00,30.1480566,77.2893471,NO2,11,29,18
India,Haryana,Yamuna Nagar,"Gobind Pura, Yamuna Nagar - HSPCB",03-05-2024 23:00:00,30.1480566,77.2893471,OZONE,17,34,28
India,Jammu_and_Kashmir,Srinagar,"Rajbagh, Srinagar - JKSPCB",03-05-2024 23:00:00,34.066206,74.819820,PM2.5,NA,NA,NA
India,Jharkhand,Dhanbad,"Kalakusuma, Dhanbad - DMC",03-05-2024 23:00:00,23.811548,86.481238,NO2,35,171,100
India,Jharkhand,Dhanbad,"Sardar Patel Nagar, Dhanbad - JSPCB",03-05-2024 23:00:00,23.80569,86.44268,CO,38,137,82
India,Jharkhand,Dhanbad,"Sardar Patel Nagar, Dhanbad - JSPCB",03-05-2024 23:00:00,23.80569,86.44268,OZONE,19,62,25
India,Jharkhand,Pathardih,"Mohalbani Ghat, Pathardih - DMC",03-05-2024 23:00:00,23.669880,86.411725,PM2.5,NA,NA,NA
India,Karnataka,Bagalkot,"Vidayagiri, Bagalkot - KSPCB",03-05-2024 23:00:00,16.172806,75.659694,PM10,45,46,46
India,Karnataka,Belgaum,"Ramteerth Nagar, Belgaum - KSPCB",03-05-2024 23:00:00,15.888653,74.541751,CO,34,53,39
India,Karnataka,Bengaluru,"BTM Layout, Bengaluru - CPCB",03-05-2024 23:00:00,12.9135218,77.5950804,CO,20,32,28
India,Karnataka,Bengaluru,"Hebbal, Bengaluru - KSPCB",03-05-2024 23:00:00,13.029152,77.585901,PM10,38,172,89
India,Karnataka,Bengaluru,"Hebbal, Bengaluru - KSPCB",03-05-2024 23:00:00,13.029152,77.585901,NO2,NA,NA,NA
India,Karnataka,Bengaluru,"Hebbal, Bengaluru - KSPCB",03-05-2024 23:00:00,13.029152,77.585901,SO2,13,23,20
India,Karnataka,Bengaluru,"Hebbal, Bengaluru - KSPCB",03-05-2024 23:00:00,13.029152,77.585901,CO,10,34,20
India,Karnataka,Bengaluru,"Hombegowda Nagar, Bengaluru - KSPCB",03-05-2024 23:00:00,12.938539,77.590100,PM2.5,32,193,75
India,Karnataka,Bengaluru,"Hombegowda Nagar, Bengaluru - KSPCB",03-05-2024 23:00:00,12.938539,77.590100,PM10,48,181,98
India,Karnataka,Bengaluru,"Hombegowda Nagar, Bengaluru - KSPCB",03-05-2024 23:00:00,12.938539,77.590100,SO2,1,4,2
India,Karnataka,Bengaluru,"Hombegowda Nagar, Bengaluru - KSPCB",03-05-2024 23:00:00,12.938539,77.590100,OZONE,8,65,30
India,Karnataka,Bengaluru,"Jayanagar 5th Block, Bengaluru - KSPCB",03-05-2024 23:00:00,12.920984,77.584908,SO2,5,67,19
India,Karnataka,Bengaluru,"Jayanagar 5th Block, Bengaluru - KSPCB",03-05-2024 23:00:00,12.920984,77.584908,CO,NA,NA,NA
India,Karnataka,Bengaluru,"Kasturi Nagar, Bengaluru - KSPCB",03-05-2024 23:00:00,13.003872,77.664217,PM2.5,7,500,113
India,Karnataka,Bengaluru,"Kasturi Nagar, Bengaluru - KSPCB",03-05-2024 23:00:00,13.003872,77.664217,NO2,16,17,16
India,Karnataka,Bengaluru,"Kasturi Nagar, Bengaluru - KSPCB",03-05-2024 23:00:00,13.003872,77.664217,NH3,3,4,4
India,Karnataka,Bengaluru,"Kasturi Nagar, Bengaluru - KSPCB",03-05-2024 23:00:00,13.003872,77.664217,CO,20,28,24
India,Karnataka,Bengaluru,"Sanegurava Halli, Bengaluru - KSPCB",03-05-2024 23:00:00,12.990328,77.5431385,PM10,34,98,48
India,Karnataka,Bengaluru,"Shivapura_Peenya, Bengaluru - KSPCB",03-05-2024 23:00:00,13.0246342,77.5080115,SO2,4,12,6
India,Karnataka,Bengaluru,"Shivapura_Peenya, Bengaluru - KSPCB",03-05-2024 23:00:00,13.0246342,77.5080115,OZONE,53,55,54
India,Karnataka,Bidar,"Naubad, Bidar - KSPCB",03-05-2024 23:00:00,17.930306,77.482194,PM2.5,38,92,62
India,Karnataka,Chikkamagaluru,"Kalyana Nagara, Chikkamagaluru - KSPCB",03-05-2024 23:00:00,13.328028,75.797056,OZONE,11,53,28
India,Karnataka,Davanagere,"Devaraj Urs Badavane, Davanagere - KSPCB",03-05-2024 23:00:00,14.475800,75.905200,NO2,11,16,13
India,Karnataka,Davanagere,"Devaraj Urs Badavane, Davanagere - KSPCB",03-05-2024 23:00:00,14.475800,75.905200,NH3,1,2,2
India,Karnataka,Dharwad,"Kalabhavan, Dharwad - KSPCB",03-05-2024 23:00:00,15.459706,75.008381,PM10,17,427,110
India,Karnataka,Dharwad,"Kalabhavan, Dharwad - KSPCB",03-05-2024 23:00:00,15.459706,75.008381,SO2,1,6,3
India,Karnataka,Gadag,"Panchal Nagar, Gadag - KSPCB",03-05-2024 23:00:00,15.411456,75.638133,SO2,2,21,14
India,Karnataka,Hassan,"B.Katihalli, Hassan - KSPCB",03-05-2024 23:00:00,13.008556,76.125258,SO2,127,136,133
India,Karnataka,Haveri,"Ashwini Nagar, Haveri - KSPCB",03-05-2024 23:00:00,14.791800,75.389600,OZONE,18,22,19
India,Karnataka,Hubballi,"Deshpande Nagar, Hubballi - KSPCB",03-05-2024 23:00:00,15.351773,75.140726,CO,5,53,31
India,Karnataka,Hubballi,"Lingaraj Nagar, Hubballi - KSPCB",03-05-2024 23:00:00,15.3714823,75.1160168,SO2,2,31,6
India,Karnataka,Kalaburagi,"Mahatma Basaveswar Colony, Kalaburgi - KSPCB",03-05-2024 23:00:00,17.336318,76.847397,PM10,50,95,64
India,Karnataka,Kalaburagi,"Mahatma Basaveswar Colony, Kalaburgi - KSPCB",03-05-2024 23:00:00,17.336318,76.847397,SO2,5,13,8
India,Karnataka,Koppal,"Diwator Nagar, Koppal - KSPCB",03-05-2024 23:00:00,15.347630,76.181767,NH3,5,10,8
India,Karnataka,Koppal,"Diwator Nagar, Koppal - KSPCB",03-05-2024 23:00:00,15.347630,76.181767,CO,100,100,100
India,Karnataka,Koppal,"Diwator Nagar, Koppal - KSPCB",03-05-2024 23:00:00,15.347630,76.181767,OZONE,23,170,29
India,Karnataka,Madikeri,"Stuart Hill, Madikeri - KSPCB",03-05-2024 23:00:00,12.415911,75.735050,NO2,2,42,9
India,Karnataka,Mysuru,"Hebbal 1st Stage, Mysuru - KSPCB",03-05-2024 23:00:00,12.21041,76.37376,PM2.5,27,74,41
India,Karnataka,Ramanagara,"Vijay Nagar, Ramanagara - KSPCB",03-05-2024 23:00:00,12.733409,77.298051,CO,2,40,23
India,Karnataka,Tumakuru,"Thimmalapura, Tumakuru - KSPCB",03-05-2024 23:00:00,13.377516,77.099072,OZONE,12,38,31
India,Karnataka,Udupi,"Brahmagiri, Udupi - KSPCB",03-05-2024 23:00:00,13.34194444,74.74694444,NO2,NA,NA,NA
India,Karnataka,Vijayapura,"Ibrahimpur, Vijayapura - KSPCB",03-05-2024 23:00:00,16.802639,75.722694,PM2.5,25,31,30
India,Karnataka,Vijayapura,"Ibrahimpur, Vijayapura - KSPCB",03-05-2024 23:00:00,16.802639,75.722694,NO2,17,19,19
India,Karnataka,Vijayapura,"Ibrahimpur, Vijayapura - KSPCB",03-05-2024 23:00:00,16.802639,75.722694,NH3,2,2,2
India,Karnataka,Vijayapura,"Ibrahimpur, Vijayapura - KSPCB",03-05-2024 23:00:00,16.802639,75.722694,CO,NA,NA,NA
India,Karnataka,Yadgir,"Collector Office, Yadgir - KSPCB",03-05-2024 23:00:00,16.7602,77.1428,NO2,6,12,8
India,Kerala,Eloor,"Udyogamandal, Eloor - Kerala PCB",03-05-2024 23:00:00,10.073232,76.302765,OZONE,11,16,14
India,Kerala,Kollam,"Polayathode, Kollam - Kerala PCB",03-05-2024 23:00:00,8.8787,76.6073,NO2,8,9,8
India,Kerala,Kollam,"Polayathode, Kollam - Kerala PCB",03-05-2024 23:00:00,8.8787,76.6073,SO2,1,3,2
India,Kerala,Thiruvananthapuram,"Kariavattom, Thiruvananthapuram - Kerala PCB",03-05-2024 23:00:00,8.563700,76.886500,NO2,8,9,9
India,Kerala,Thrissur,"Corporation Ground, Thrissur - Kerala PCB",03-05-2024 23:00:00,10.532400,76.215900,PM10,61,68,65
India,Madhya Pradesh,Bhopal,"Paryavaran Parisar, Bhopal - MPPCB",03-05-2024 23:00:00,23.210494,77.425409,PM10,95,243,134
India,Madhya Pradesh,Bhopal,"Paryavaran Parisar, Bhopal - MPPCB",03-05-2024 23:00:00,23.210494,77.425409,CO,3,103,53
India,Madhya Pradesh,Bhopal,"T T Nagar, Bhopal - MPPCB",03-05-2024 23:00:00,23.233584,77.400574,PM10,113,162,140
India,Madhya Pradesh,Bhopal,"T T Nagar, Bhopal - MPPCB",03-05-2024 23:00:00,23.233584,77.400574,NO2,17,62,33
India,Madhya Pradesh,Dewas,"Bhopal Chauraha, Dewas - MPPCB",03-05-2024 23:00:00,22.9682591,76.064118,PM10,46,130,80
India,Madhya Pradesh,Dewas,"Bhopal Chauraha, Dewas - MPPCB",03-05-2024 23:00:00,22.9682591,76.064118,OZONE,11,70,43
India,Madhya Pradesh,Gwalior,"City Center, Gwalior - MPPCB",03-05-2024 23:00:00,26.203442,78.193251,NO2,8,133,36
India,Madhya Pradesh,Gwalior,"Deen Dayal Nagar, Gwalior - MPPCB",03-05-2024 23:00:00,26.259242,78.216432,SO2,NA,NA,NA
India,Madhya Pradesh,Gwalior,"Phool Bagh, Gwalior - Mondelez Ind. Food",03-05-2024 23:00:00,26.210536,78.171,NO2,4,5,4
India,Madhya Pradesh,Gwalior,"Phool Bagh, Gwalior - Mondelez Ind. Food",03-05-2024 23:00:00,26.210536,78.171,SO2,20,42,28
India,Madhya Pradesh,Gwalior,"Phool Bagh, Gwalior - Mondelez Ind. Food",03-05-2024 23:00:00,26.210536,78.171,CO,59,106,93
India,Madhya Pradesh,Indore,"Chhoti Gwaltoli, Indore - MPPCB",03-05-2024 23:00:00,22.4310,75.5213,NO2,41,175,95
India,Madhya Pradesh,Indore,"Chhoti Gwaltoli, Indore - MPPCB",03-05-2024 23:00:00,22.4310,75.5213,NH3,2,7,5
India,Madhya Pradesh,Indore,"Chhoti Gwaltoli, Indore - MPPCB",03-05-2024 23:00:00,22.4310,75.5213,SO2,18,63,27
India,Madhya Pradesh,Indore,"Regional Park, Indore - IMC",03-05-2024 23:00:00,22.6780,75.8559,PM2.5,50,205,102
India,Madhya Pradesh,Indore,"Regional Park, Indore - IMC",03-05-2024 23:00:00,22.6780,75.8559,NO2,2,2,2
India,Madhya Pradesh,Indore,"Regional Park, Indore - IMC",03-05-2024 23:00:00,22.6780,75.8559,NH3,NA,NA,NA
India,Madhya Pradesh,Indore,"Regional Park, Indore - IMC",03-05-2024 23:00:00,22.6780,75.8559,OZONE,9,36,15
India,Madhya Pradesh,Jabalpur,"Govindh Bhavan Colony, Jabalpur - JMC",03-05-2024 23:00:00,23.163174,79.973061,PM2.5,35,85,47
India,Madhya Pradesh,Jabalpur,"Govindh Bhavan Colony, Jabalpur - JMC",03-05-2024 23:00:00,23.163174,79.973061,NH3,7,12,9
India,Madhya Pradesh,Jabalpur,"Suhagi, Jabalpur - JMC",03-05-2024 23:00:00,23.218135,79.957770,NO2,33,46,42
India,Madhya Pradesh,Jabalpur,"Suhagi, Jabalpur - JMC",03-05-2024 23:00:00,23.218135,79.957770,NH3,2,4,4
India,Madhya Pradesh,Katni,"Gole Bazar, Katni - MPPCB",03-05-2024 23:00:00,23.50016,80.23284,PM10,72,312,153
India,Madhya Pradesh,Katni,"Gole Bazar, Katni - MPPCB",03-05-2024 23:00:00,23.50016,80.23284,CO,8,115,15
India,Madhya Pradesh,Katni,"Gole Bazar, Katni - MPPCB",03-05-2024 23:00:00,23.50016,80.23284,OZONE,8,168,90
India,Madhya Pradesh,Mandideep,"Sector-D Industrial Area, Mandideep - MPPCB",03-05-2024 23:00:00,23.108440,77.511428,SO2,11,125,46
India,Madhya Pradesh,Pithampur,"Sector-2 Industrial Area, Pithampur - MPPCB",03-05-2024 23:00:00,22.624758,75.675238,SO2,9,14,11
India,Madhya Pradesh,Sagar,"Deen Dayal Nagar, Sagar - MPPCB",03-05-2024 23:00:00,23.8640158,78.80289321,PM10,131,297,159
India,Madhya Pradesh,Sagar,"Deen Dayal Nagar, Sagar - MPPCB",03-05-2024 23:00:00,23.8640158,78.80289321,CO,22,86,55
India,Madhya Pradesh,Satna,"Bandhavgar Colony, Satna - Birla Cement",03-05-2024 23:00:00,24.58434363,80.8549414,SO2,4,6,5
India,Madhya Pradesh,Singrauli,"Suryakiran Bhawan NCL, Singrauli - MPPCB",03-05-2024 23:00:00,24.108970,82.645580,PM2.5,75,500,337
India,Madhya Pradesh,Singrauli,"Suryakiran Bhawan NCL, Singrauli - MPPCB",03-05-2024 23:00:00,24.108970,82.645580,PM10,118,432,210
India,Madhya Pradesh,Singrauli,"Suryakiran Bhawan NCL, Singrauli - MPPCB",03-05-2024 23:00:00,24.108970,82.645580,NO2,13,93,44
India,Madhya Pradesh,Ujjain,"Mahakaleshwar Temple, Ujjain - MPPCB",03-05-2024 23:00:00,23.182719 ,75.768218 ,PM2.5,NA,NA,NA
India,Madhya Pradesh,Ujjain,"Mahakaleshwar Temple, Ujjain - MPPCB",03-05-2024 23:00:00,23.182719 ,75.768218 ,PM10,NA,NA,NA
India,Maharashtra,Ahmednagar,"Tarakpur, Ahmednagar - MPCB",03-05-2024 23:00:00,19.10122,74.73339,NH3,3,7,5
India,Maharashtra,Ahmednagar,"Tarakpur, Ahmednagar - MPCB",03-05-2024 23:00:00,19.10122,74.73339,OZONE,16,171,82
India,Maharashtra,Akola,"Ramdaspeth, Akola - MPCB",03-05-2024 23:00:00,20.719516,77.000253,SO2,10,32,17
India,Maharashtra,Amravati,"Shivneri Colony, Amravati - MPCB",03-05-2024 23:00:00,20.9402359,77.7895248,CO,10,78,35
India,Maharashtra,Amravati,"Shri Shivaji Science College, Amaravati - MPCB",03-05-2024 23:00:00,20.939198,77.765701,NH3,1,11,3
India,Maharashtra,Amravati,"Shri Shivaji Science College, Amaravati - MPCB",03-05-2024 23:00:00,20.939198,77.765701,SO2,2,13,6
India,Maharashtra,Aurangabad,"MIDC Chilkalthana, Aurangabad - MPCB",03-05-2024 23:00:00,19.875620,75.387310,PM2.5,80,229,124
India,Maharashtra,Aurangabad,"MIDC Chilkalthana, Aurangabad - MPCB",03-05-2024 23:00:00,19.875620,75.387310,NO2,NA,NA,NA
India,Maharashtra,Aurangabad,"More Chowk Waluj, Aurangabad - MPCB",03-05-2024 23:00:00,19.8389439,75.244448,NH3,9,11,10
India,Maharashtra,Aurangabad,"More Chowk Waluj, Aurangabad - MPCB",03-05-2024 23:00:00,19.8389439,75.244448,CO,2,114,49
India,Maharashtra,Aurangabad,"Rachnakar Colony, Aurangabad - MPCB",03-05-2024 23:00:00,19.863756,75.321188,OZONE,19,110,73
India,Maharashtra,Badlapur,"Katrap, Badlapur - MPCB",03-05-2024 23:00:00,19.16485,73.23409,PM2.5,63,142,90
India,Maharashtra,Badlapur,"Katrap, Badlapur - MPCB",03-05-2024 23:00:00,19.16485,73.23409,PM10,91,152,126
India,Maharashtra,Badlapur,"Katrap, Badlapur - MPCB",03-05-2024 23:00:00,19.16485,73.23409,NH3,1,2,1
India,Maharashtra,Badlapur,"Katrap, Badlapur - MPCB",03-05-2024 23:00:00,19.16485,73.23409,CO,19,65,29
India,Maharashtra,Belapur,"CBD Belapur, Belapur - MPCB",03-05-2024 23:00:00,19.0243902,73.0406721,PM2.5,55,188,122
India,Maharashtra,Belapur,"CBD Belapur, Belapur - MPCB",03-05-2024 23:00:00,19.0243902,73.0406721,OZONE,76,163,121
India,Maharashtra,Bhiwandi,"Gokul Nagar, Bhiwandi - MPCB",03-05-2024 23:00:00,19.309073,73.057223,OZONE,17,117,67
India,Maharashtra,Chandrapur,"Chauhan Colony, Chandrapur - MPCB",03-05-2024 23:00:00,19.962900,79.298714,CO,24,32,26
India,Maharashtra,Dhule,"Deopur, Dhule - MPCB",03-05-2024 23:00:00,20.918946,74.776388,NO2,19,88,34
India,Maharashtra,Jalgaon,"Prabhat Colony, Jalgaon - MPCB",03-05-2024 23:00:00,21.001264,75.565602,NH3,1,15,10
India,Maharashtra,Jalna,"Old MIDC, Jalna - MPCB",03-05-2024 23:00:00,19.854616,75.905894,NO2,NA,NA,NA
India,Maharashtra,Kalyan,"Khadakpada, Kalyan - MPCB",03-05-2024 23:00:00,19.25292,73.142019,PM2.5,27,52,38
India,Maharashtra,Kalyan,"Khadakpada, Kalyan - MPCB",03-05-2024 23:00:00,19.25292,73.142019,NO2,30,38,33
India,Maharashtra,Kolhapur,"Sinchan Bhavan, Kolhapur - MPCB",03-05-2024 23:00:00,16.7143745,74.2426398,PM10,59,88,76
India,Maharashtra,Latur,"Sawe Wadi, Latur - MPCB",03-05-2024 23:00:00,18.39963,76.57452,PM10,51,115,88
India,Maharashtra,Latur,"Sawe Wadi, Latur - MPCB",03-05-2024 23:00:00,18.39963,76.57452,SO2,NA,NA,NA
India,Maharashtra,Malegaon,"Mahesh Nagar, Malegaon - MPCB",03-05-2024 23:00:00,20.555712,74.529236,PM2.5,61,107,82
India,Maharashtra,Malegaon,"Mahesh Nagar, Malegaon - MPCB",03-05-2024 23:00:00,20.555712,74.529236,SO2,6,33,13
India,Maharashtra,Malegaon,"Mahesh Nagar, Malegaon - MPCB",03-05-2024 23:00:00,20.555712,74.529236,OZONE,20,91,63
India,Maharashtra,Mira-Bhayandar,"Bhayandar West, Mira-Bhayandar - MPCB",03-05-2024 23:00:00,19.296481,72.840923,PM2.5,11,96,66
India,Maharashtra,Mumbai,"Bandra Kurla Complex, Mumbai - MPCB",03-05-2024 23:00:00,19.065931,72.862131,NO2,4,13,6
India,Maharashtra,Mumbai,"Borivali East, Mumbai - IITM",03-05-2024 23:00:00,19.23241,72.86895,CO,14,26,17
India,Maharashtra,Mumbai,"Borivali East, Mumbai - IITM",03-05-2024 23:00:00,19.23241,72.86895,OZONE,30,111,76
India,Maharashtra,Mumbai,"Borivali East, Mumbai - MPCB",03-05-2024 23:00:00,19.2243333,72.8658113,PM2.5,14,31,24
India,Maharashtra,Mumbai,"Borivali East, Mumbai - MPCB",03-05-2024 23:00:00,19.2243333,72.8658113,PM10,47,121,83
India,Maharashtra,Mumbai,"Borivali East, Mumbai - MPCB",03-05-2024 23:00:00,19.2243333,72.8658113,NO2,4,18,10
India,Maharashtra,Mumbai,"Byculla, Mumbai - BMC",03-05-2024 23:00:00,18.9767,72.8380,PM2.5,16,41,29
India,Maharashtra,Mumbai,"Byculla, Mumbai - BMC",03-05-2024 23:00:00,18.9767,72.8380,PM10,43,80,65
India,Maharashtra,Mumbai,"Byculla, Mumbai - BMC",03-05-2024 23:00:00,18.9767,72.8380,CO,8,20,10
India,Maharashtra,Mumbai,"Byculla, Mumbai - BMC",03-05-2024 23:00:00,18.9767,72.8380,OZONE,26,71,52
India,Maharashtra,Mumbai,"Chembur, Mumbai - MPCB",03-05-2024 23:00:00,19.0364585,72.8954371,NH3,3,4,4
India,Maharashtra,Mumbai,"Chembur, Mumbai - MPCB",03-05-2024 23:00:00,19.0364585,72.8954371,SO2,1,2,1
India,Maharashtra,Mumbai,"Chhatrapati Shivaji Intl. Airport (T2), Mumbai - MPCB",03-05-2024 23:00:00,19.10078,72.87462,PM10,81,122,106
India,Maharashtra,Mumbai,"Chhatrapati Shivaji Intl. Airport (T2), Mumbai - MPCB",03-05-2024 23:00:00,19.10078,72.87462,CO,36,54,45
India,Maharashtra,Mumbai,"Colaba, Mumbai - MPCB",03-05-2024 23:00:00,18.910000,72.820000,PM2.5,25,65,41
India,Maharashtra,Mumbai,"Deonar, Mumbai - IITM",03-05-2024 23:00:00,19.04946,72.9230,OZONE,1,86,31
India,Maharashtra,Mumbai,"Ghatkopar, Mumbai - BMC",03-05-2024 23:00:00,19.083694,72.920967,SO2,1,2,2
India,Maharashtra,Mumbai,"Kandivali West, Mumbai - BMC",03-05-2024 23:00:00,19.215859,72.831718,OZONE,22,81,47
India,Maharashtra,Mumbai,"Khindipada-Bhandup West, Mumbai - IITM",03-05-2024 23:00:00,19.1653323,72.922099,PM2.5,45,103,72
India,Maharashtra,Mumbai,"Khindipada-Bhandup West, Mumbai - IITM",03-05-2024 23:00:00,19.1653323,72.922099,NO2,6,11,9
India,Maharashtra,Mumbai,"Khindipada-Bhandup West, Mumbai - IITM",03-05-2024 23:00:00,19.1653323,72.922099,NH3,1,3,2
India,Maharashtra,Mumbai,"Khindipada-Bhandup West, Mumbai - IITM",03-05-2024 23:00:00,19.1653323,72.922099,SO2,4,11,6
India,Maharashtra,Mumbai,"Khindipada-Bhandup West, Mumbai - IITM",03-05-2024 23:00:00,19.1653323,72.922099,OZONE,3,26,13
India,Maharashtra,Mumbai,"Kurla, Mumbai - MPCB",03-05-2024 23:00:00,19.0863,72.8888,CO,1,18,6
India,Maharashtra,Mumbai,"Mazgaon, Mumbai - IITM",03-05-2024 23:00:00,18.96702,72.84214,PM10,72,148,111
India,Maharashtra,Mumbai,"Mazgaon, Mumbai - IITM",03-05-2024 23:00:00,18.96702,72.84214,NH3,15,25,18
India,Maharashtra,Mumbai,"Mazgaon, Mumbai - IITM",03-05-2024 23:00:00,18.96702,72.84214,CO,14,85,49
India,Maharashtra,Mumbai,"Mindspace-Malad West, Mumbai - MPCB",03-05-2024 23:00:00,19.1878657,72.8304069,PM10,66,95,80
India,Maharashtra,Mumbai,"Mulund West, Mumbai - MPCB",03-05-2024 23:00:00,19.1750,72.9419,PM10,83,154,117
India,Maharashtra,Mumbai,"Mulund West, Mumbai - MPCB",03-05-2024 23:00:00,19.1750,72.9419,CO,40,40,40
India,Maharashtra,Mumbai,"Navy Nagar-Colaba, Mumbai - IITM",03-05-2024 23:00:00,18.897756,72.813320,PM2.5,29,66,50
India,Maharashtra,Mumbai,"Navy Nagar-Colaba, Mumbai - IITM",03-05-2024 23:00:00,18.897756,72.813320,NH3,3,6,4
India,Maharashtra,Mumbai,"Siddharth Nagar-Worli, Mumbai - IITM",03-05-2024 23:00:00,19.000083,72.813993,PM2.5,88,219,135
India,Maharashtra,Mumbai,"Siddharth Nagar-Worli, Mumbai - IITM",03-05-2024 23:00:00,19.000083,72.813993,PM10,89,140,120
India,Maharashtra,Mumbai,"Vasai West, Mumbai - MPCB",03-05-2024 23:00:00,19.383200,72.820400,NO2,25,28,27
India,Maharashtra,Mumbai,"Vasai West, Mumbai - MPCB",03-05-2024 23:00:00,19.383200,72.820400,SO2,16,16,16
India,Maharashtra,Mumbai,"Vile Parle West, Mumbai - MPCB",03-05-2024 23:00:00,19.10861,72.83622,NH3,11,11,11
India,Maharashtra,Mumbai,"Worli, Mumbai - MPCB",03-05-2024 23:00:00,18.9936162,72.8128113,PM2.5,15,33,24
India,Maharashtra,Mumbai,"Worli, Mumbai - MPCB",03-05-2024 23:00:00,18.9936162,72.8128113,OZONE,7,12,8
India,Maharashtra,Nagpur,"Mahal, Nagpur - MPCB",03-05-2024 23:00:00,21.14472,79.107595,NH3,1,30,7
India,Maharashtra,Nagpur,"Mahal, Nagpur - MPCB",03-05-2024 23:00:00,21.14472,79.107595,SO2,7,108,54
India,Maharashtra,Nagpur,"Mahal, Nagpur - MPCB",03-05-2024 23:00:00,21.14472,79.107595,CO,25,130,86
India,Maharashtra,Nagpur,"Opp GPO Civil Lines, Nagpur - MPCB",03-05-2024 23:00:00,21.152875,79.0517531,PM2.5,66,149,92
India,Maharashtra,Nagpur,"Opp GPO Civil Lines, Nagpur - MPCB",03-05-2024 23:00:00,21.152875,79.0517531,PM10,75,132,102
India,Maharashtra,Nanded,"Sneh Nagar, Nanded - MPCB",03-05-2024 23:00:00,19.173852,77.296291,PM10,104,177,136
India,Maharashtra,Nanded,"Sneh Nagar, Nanded - MPCB",03-05-2024 23:00:00,19.173852,77.296291,NH3,1,2,1
India,Maharashtra,Nanded,"Sneh Nagar, Nanded - MPCB",03-05-2024 23:00:00,19.173852,77.296291,CO,32,106,57
India,Maharashtra,Nashik,"Gangapur Road, Nashik - MPCB",03-05-2024 23:00:00,20.0073285,73.7762427,OZONE,7,96,81
India,Maharashtra,Nashik,"Hirawadi, Nashik - MPCB",03-05-2024 23:00:00,20.021503,73.813844,PM2.5,28,94,56
India,Maharashtra,Nashik,"Hirawadi, Nashik - MPCB",03-05-2024 23:00:00,20.021503,73.813844,SO2,6,30,19
India,Maharashtra,Nashik,"Hirawadi, Nashik - MPCB",03-05-2024 23:00:00,20.021503,73.813844,CO,32,68,53
India,Maharashtra,Nashik,"MIDC Ambad, Nashik - MPCB",03-05-2024 23:00:00,19.950220,73.731480,NO2,8,30,15
India,Maharashtra,Nashik,"Pandav Nagari, Nashik - MPCB",03-05-2024 23:00:00,19.9591346,73.7788008,NH3,3,10,6
India,Maharashtra,Nashik,"Pandav Nagari, Nashik - MPCB",03-05-2024 23:00:00,19.9591346,73.7788008,OZONE,10,122,74
India,Maharashtra,Navi Mumbai,"Kopripada-Vashi, Navi Mumbai - MPCB",03-05-2024 23:00:00,19.090337,73.014232,PM2.5,51,160,87
India,Maharashtra,Navi Mumbai,"Kopripada-Vashi, Navi Mumbai - MPCB",03-05-2024 23:00:00,19.090337,73.014232,NH3,5,15,6
India,Maharashtra,Navi Mumbai,"Kopripada-Vashi, Navi Mumbai - MPCB",03-05-2024 23:00:00,19.090337,73.014232,SO2,15,19,17
India,Maharashtra,Navi Mumbai,"Mahape, Navi Mumbai - MPCB",03-05-2024 23:00:00,19.1135051,73.008978,PM10,102,488,146
India,Maharashtra,Navi Mumbai,"Mahape, Navi Mumbai - MPCB",03-05-2024 23:00:00,19.1135051,73.008978,SO2,22,23,23
India,Maharashtra,Navi Mumbai,"Nerul, Navi Mumbai - MPCB",03-05-2024 23:00:00,19.008751,73.016620,NO2,27,45,36
India,Maharashtra,Navi Mumbai,"Nerul, Navi Mumbai - MPCB",03-05-2024 23:00:00,19.008751,73.016620,SO2,16,16,16
India,Maharashtra,Navi Mumbai,"Nerul, Navi Mumbai - MPCB",03-05-2024 23:00:00,19.008751,73.016620,CO,19,31,21
India,Maharashtra,Navi Mumbai,"Sector-19A Nerul, Navi Mumbai - IITM",03-05-2024 23:00:00,19.044,73.0325,CO,30,54,44
India,Maharashtra,Navi Mumbai,"Sector-19A Nerul, Navi Mumbai - IITM",03-05-2024 23:00:00,19.044,73.0325,OZONE,4,144,48
India,Maharashtra,Navi Mumbai,"Tondare-Taloja, Navi Mumbai - MPCB",03-05-2024 23:00:00,19.0630,73.1209,SO2,NA,NA,NA
India,Maharashtra,Pimpri-Chinchwad,"Gavalinagar, Pimpri Chinchwad - MPCB",03-05-2024 23:00:00,18.63673,73.82487,PM2.5,53,90,68
India,Maharashtra,Pimpri-Chinchwad,"Gavalinagar, Pimpri Chinchwad - MPCB",03-05-2024 23:00:00,18.63673,73.82487,NH3,1,5,2
India,Maharashtra,Pimpri-Chinchwad,"Gavalinagar, Pimpri Chinchwad - MPCB",03-05-2024 23:00:00,18.63673,73.82487,SO2,5,37,13
India,Maharashtra,Pimpri-Chinchwad,"Gavalinagar, Pimpri Chinchwad - MPCB",03-05-2024 23:00:00,18.63673,73.82487,OZONE,18,179,138
India,Maharashtra,Pimpri-Chinchwad,"Park Street Wakad, Pimpri Chinchwad - MPCB",03-05-2024 23:00:00,18.59051,73.77946,CO,1,17,4
India,Maharashtra,Pimpri-Chinchwad,"Thergaon, Pimpri Chinchwad - MPCB",03-05-2024 23:00:00,18.616318,73.765797,PM2.5,79,149,104
India,Maharashtra,Pimpri-Chinchwad,"Thergaon, Pimpri Chinchwad - MPCB",03-05-2024 23:00:00,18.616318,73.765797,NH3,2,9,5
India,Maharashtra,Pimpri-Chinchwad,"Thergaon, Pimpri Chinchwad - MPCB",03-05-2024 23:00:00,18.616318,73.765797,SO2,1,10,4
India,Maharashtra,Pimpri-Chinchwad,"Thergaon, Pimpri Chinchwad - MPCB",03-05-2024 23:00:00,18.616318,73.765797,CO,6,33,19
India,Maharashtra,Pune,"Alandi, Pune - IITM",03-05-2024 23:00:00,18.675076,73.892743,PM10,84,132,112
India,Maharashtra,Pune,"Alandi, Pune - IITM",03-05-2024 23:00:00,18.675076,73.892743,NO2,12,26,18
India,Maharashtra,Pune,"Alandi, Pune - IITM",03-05-2024 23:00:00,18.675076,73.892743,OZONE,20,77,61
India,Maharashtra,Pune,"Karve Road, Pune - MPCB",03-05-2024 23:00:00,18.5011743,73.8165527,PM2.5,49,107,68
India,Maharashtra,Pune,"Karve Road, Pune - MPCB",03-05-2024 23:00:00,18.5011743,73.8165527,SO2,14,29,19
India,Maharashtra,Pune,"Katraj Dairy, Pune - MPCB",03-05-2024 23:00:00,18.454450,73.854155,SO2,3,10,6
India,Maharashtra,Pune,"Katraj Dairy, Pune - MPCB",03-05-2024 23:00:00,18.454450,73.854155,CO,17,74,48
India,Maharashtra,Pune,"Revenue Colony-Shivajinagar, Pune - IITM",03-05-2024 23:00:00,18.530085,73.849598,CO,108,118,115
India,Maharashtra,Pune,"Revenue Colony-Shivajinagar, Pune - IITM",03-05-2024 23:00:00,18.530085,73.849598,OZONE,6,80,45
India,Maharashtra,Pune,"Savitribai Phule Pune University, Pune - MPCB",03-05-2024 23:00:00,18.547056,73.826908,NH3,2,4,3
India,Maharashtra,Pune,"Savitribai Phule Pune University, Pune - MPCB",03-05-2024 23:00:00,18.547056,73.826908,CO,10,30,20
India,Maharashtra,Sangli,"Vijay Nagar, Sangli - MPCB",03-05-2024 23:00:00, 16.5038,74.3623,PM10,60,95,79
India,Maharashtra,Sangli,"Vijay Nagar, Sangli - MPCB",03-05-2024 23:00:00, 16.5038,74.3623,NO2,14,39,24
India,Maharashtra,Solapur,"Dnyaneshwar Nagar, Solapur - MPCB",03-05-2024 23:00:00,17.6336264,75.9132495,CO,5,58,25
India,Maharashtra,Solapur,"Ratandeep Housing Society, Solapur - MPCB",03-05-2024 23:00:00,17.65439,75.90649,NO2,21,140,58
India,Maharashtra,Solapur,"Solapur, Solapur - MPCB",03-05-2024 23:00:00,17.6599188,75.9063906,SO2,104,106,105
India,Maharashtra,Thane,"Kasarvadavali, Thane - MPCB",03-05-2024 23:00:00,19.26777,72.97182,SO2,1,10,3
India,Maharashtra,Thane,"Pimpleshwar Mandir, Thane - MPCB",03-05-2024 23:00:00,19.192056,72.9585188,SO2,1,28,8
India,Maharashtra,Thane,"Upvan Fort, Thane - MPCB",03-05-2024 23:00:00,19.222279,72.957979,PM10,67,119,92
India,Maharashtra,Thane,"Upvan Fort, Thane - MPCB",03-05-2024 23:00:00,19.222279,72.957979,CO,3,36,20
India,Maharashtra,Ulhasnagar,"Sidhi Vinayak Nagar, Ulhasnagar - MPCB",03-05-2024 23:00:00,19.235581,73.159121,PM2.5,80,140,97
India,Maharashtra,Ulhasnagar,"Sidhi Vinayak Nagar, Ulhasnagar - MPCB",03-05-2024 23:00:00,19.235581,73.159121,CO,12,42,24
India,Maharashtra,Virar,"Bolinj, Virar - MPCB",03-05-2024 23:00:00,19.4458210,72.7988231,PM2.5,42,101,73
India,Maharashtra,Virar,"Bolinj, Virar - MPCB",03-05-2024 23:00:00,19.4458210,72.7988231,PM10,81,157,116
India,Maharashtra,Virar,"Bolinj, Virar - MPCB",03-05-2024 23:00:00,19.4458210,72.7988231,OZONE,3,87,65
India,Manipur,Imphal,"Manipur University, Imphal - Manipur PCB",03-05-2024 23:00:00,24.7524239,93.9286218,SO2,NA,NA,NA
India,Meghalaya,Shillong,"Lumpyngngad, Shillong - Meghalaya PCB",03-05-2024 23:00:00,25.5586,91.8985,PM10,35,111,62
India,Meghalaya,Shillong,"Lumpyngngad, Shillong - Meghalaya PCB",03-05-2024 23:00:00,25.5586,91.8985,CO,6,25,18
India,Meghalaya,Shillong,"Lumpyngngad, Shillong - Meghalaya PCB",03-05-2024 23:00:00,25.5586,91.8985,OZONE,3,74,32
India,Mizoram,Aizawl,"Sikulpuikawn, Aizawl - Mizoram PCB",03-05-2024 23:00:00,23.7176342,92.7192841,PM10,22,96,58
India,Mizoram,Aizawl,"Sikulpuikawn, Aizawl - Mizoram PCB",03-05-2024 23:00:00,23.7176342,92.7192841,NO2,1,4,1
India,Mizoram,Aizawl,"Sikulpuikawn, Aizawl - Mizoram PCB",03-05-2024 23:00:00,23.7176342,92.7192841,SO2,2,2,2
India,Nagaland,Kohima,"PWD Juction, Kohima - NPCB",03-05-2024 23:00:00,25.6635413,94.0989878,NO2,3,4,3
India,Nagaland,Kohima,"PWD Juction, Kohima - NPCB",03-05-2024 23:00:00,25.6635413,94.0989878,SO2,33,38,35
India,Odisha,Balasore,"Kalidaspur, Balasore - OSPCB",03-05-2024 23:00:00,21.51161,86.89088,PM10,73,247,134
India,Odisha,Baripada,"Meher Colony, Baripada - OSPCB",03-05-2024 23:00:00,21.941841,86.728318,OZONE,46,312,132
India,Odisha,Bhubaneswar,"Patia, Bhubaneswar - OSPCB",03-05-2024 23:00:00,20.34652,85.81630,SO2,1,29,10
India,Odisha,Bileipada,"Tata Township, Bileipada - OSPCB",03-05-2024 23:00:00,22.06156703,85.47409613,NO2,NA,NA,NA
India,Odisha,Brajrajnagar,"GM Office, Brajrajnagar - OSPCB",03-05-2024 23:00:00,21.8004996,83.8396977,PM10,37,190,99
India,Odisha,Brajrajnagar,"GM Office, Brajrajnagar - OSPCB",03-05-2024 23:00:00,21.8004996,83.8396977,NO2,14,16,15
India,Odisha,Brajrajnagar,"GM Office, Brajrajnagar - OSPCB",03-05-2024 23:00:00,21.8004996,83.8396977,NH3,6,7,6
India,Odisha,Brajrajnagar,"GM Office, Brajrajnagar - OSPCB",03-05-2024 23:00:00,21.8004996,83.8396977,CO,102,103,103
India,Odisha,Byasanagar,"Ferro Chrome Colony, Byasanagar - OSPCB",03-05-2024 23:00:00,20.94185,86.11510,CO,50,106,96
India,Odisha,Cuttack,"CDA Area, Cuttack - OSPCB",03-05-2024 23:00:00,20.48891     ,85.84768     ,PM2.5,3,87,44
India,Odisha,Keonjhar,"Jagamohanpur, Keonjhar - OSPCB",03-05-2024 23:00:00,21.643900,85.599355,NO2,14,83,35
India,Odisha,Keonjhar,"Jagamohanpur, Keonjhar - OSPCB",03-05-2024 23:00:00,21.643900,85.599355,CO,54,86,66
India,Odisha,Keonjhar,"Jagamohanpur, Keonjhar - OSPCB",03-05-2024 23:00:00,21.643900,85.599355,OZONE,9,14,14
India,Odisha,Nayagarh,"Dabuna, Nayagarh - OSPCB",03-05-2024 23:00:00,21.847279,85.416905,CO,6,70,25
India,Odisha,Rairangpur,"Divisional Forest Office, Rairangpur - OSPCB",03-05-2024 23:00:00,22.265816,86.174829,NH3,3,3,3
India,Odisha,Rairangpur,"Divisional Forest Office, Rairangpur - OSPCB",03-05-2024 23:00:00,22.265816,86.174829,OZONE,5,67,39
India,Odisha,Rourkela,"Fertilizer Township, Rourkela - OSPCB",03-05-2024 23:00:00,22.18972222,84.86277778,NO2,10,36,17
India,Odisha,Rourkela,"Raghunathpali, Rourkela - OSPCB",03-05-2024 23:00:00,22.220833,84.809444,CO,19,103,49
India,Odisha,Rourkela,"Raghunathpali, Rourkela - OSPCB",03-05-2024 23:00:00,22.220833,84.809444,OZONE,3,138,73
India,Odisha,Suakati,"OMC Colony, Suakati - OSPCB",03-05-2024 23:00:00,21.606865,85.510538,PM10,143,195,170
India,Odisha,Suakati,"OMC Colony, Suakati - OSPCB",03-05-2024 23:00:00,21.606865,85.510538,SO2,6,48,22
India,Odisha,Talcher,"Talcher Coalfields,Talcher - OSPCB",03-05-2024 23:00:00,20.9360711,85.1707021,CO,18,126,62
India,Odisha,Talcher,"Talcher Coalfields,Talcher - OSPCB",03-05-2024 23:00:00,20.9360711,85.1707021,OZONE,17,40,24
India,Odisha,Tensa,"Barsua Iron Ore Mines, Tensa - OSPCB",03-05-2024 23:00:00,21.869985,85.167016,SO2,NA,NA,NA
India,Puducherry,Puducherry,"Jawahar Nagar, Puducherry - PPCC",03-05-2024 23:00:00,11.9309,79.8027,NH3,2,4,3
India,Puducherry,Puducherry,"Jawahar Nagar, Puducherry - PPCC",03-05-2024 23:00:00,11.9309,79.8027,CO,16,28,21
India,Punjab,Amritsar,"Golden Temple, Amritsar - PPCB",03-05-2024 23:00:00,31.620000,74.876512,OZONE,28,67,51
India,Punjab,Bathinda,"Hardev Nagar, Bathinda - PPCB",03-05-2024 23:00:00,30.233011,74.907758,PM2.5,49,178,104
India,Punjab,Khanna,"Kalal Majra, Khanna - PPCB",03-05-2024 23:00:00,30.736056 ,76.209694,NO2,34,36,35
India,Punjab,Khanna,"Kalal Majra, Khanna - PPCB",03-05-2024 23:00:00,30.736056 ,76.209694,NH3,15,17,16
India,Punjab,Ludhiana,"Punjab Agricultural University, Ludhiana - PPCB",03-05-2024 23:00:00,30.9028,75.8086,PM10,73,202,136
India,Punjab,Mandi Gobindgarh,"RIMT University, Mandi Gobindgarh - PPCB",03-05-2024 23:00:00,30.649961,76.331442,CO,5,32,22
India,Punjab,Patiala,"Model Town, Patiala - PPCB",03-05-2024 23:00:00,30.349388,76.366642,CO,22,45,31
India,Punjab,Patiala,"Model Town, Patiala - PPCB",03-05-2024 23:00:00,30.349388,76.366642,OZONE,22,67,53
India,Punjab,Rupnagar,"Ratanpura, Rupnagar - Ambuja Cements",03-05-2024 23:00:00,31.0325454,76.5623046,CO,25,46,31
India,Rajasthan,Ajmer,"Civil Lines,  Ajmer - RSPCB",03-05-2024 23:00:00,26.470859,74.646594,CO,6,107,52
India,Rajasthan,Alwar,"Moti Doongri, Alwar - RSPCB",03-05-2024 23:00:00,27.554793,76.611536,OZONE,13,21,18
India,Rajasthan,Banswara,"Rati Talai, Banswara - RSPCB",03-05-2024 23:00:00,23.555190,74.440010,PM2.5,41,179,83
India,Rajasthan,Baran,"Bamboliya, Baran - RSPCB",03-05-2024 23:00:00,25.106006,76.469948,NH3,4,15,8
India,Rajasthan,Baran,"Bamboliya, Baran - RSPCB",03-05-2024 23:00:00,25.106006,76.469948,SO2,8,23,13
India,Rajasthan,Barmer,"Railway Colony, Barmer - RSPCB",03-05-2024 23:00:00,25.747299,71.393989,NO2,8,34,14
India,Rajasthan,Barmer,"Railway Colony, Barmer - RSPCB",03-05-2024 23:00:00,25.747299,71.393989,SO2,4,15,7
India,Rajasthan,Bhilwara,"Pratap Nagar, Bhilwara - RSPCB",03-05-2024 23:00:00,25.339605,74.618883,PM10,24,136,69
India,Rajasthan,Bhiwadi,"RIICO Ind. Area III, Bhiwadi - RSPCB",03-05-2024 23:00:00,28.194909,76.862296,PM2.5,136,333,266
India,Rajasthan,Bhiwadi,"RIICO Ind. Area III, Bhiwadi - RSPCB",03-05-2024 23:00:00,28.194909,76.862296,OZONE,4,89,44
India,Rajasthan,Bhiwadi,"Vasundhara Nagar_UIT, Bhiwadi - RSPCB",03-05-2024 23:00:00,28.207266,76.829265,NH3,6,21,13
India,Rajasthan,Bikaner,"MM Ground, Bikaner - RSPCB",03-05-2024 23:00:00,28.018792,73.292658,PM10,78,311,133
India,Rajasthan,Bikaner,"MM Ground, Bikaner - RSPCB",03-05-2024 23:00:00,28.018792,73.292658,OZONE,8,96,50
India,Rajasthan,Bundi,"New Colony, Bundi - RSPCB",03-05-2024 23:00:00,25.435774,75.644272,OZONE,11,161,87
India,Rajasthan,Chittorgarh,"Shastri Nagar, Chittorgarh - RSPCB",03-05-2024 23:00:00,24.892047,74.623527,NH3,9,11,10
India,Rajasthan,Dausa,"Khatikan Mohalla, Dausa - RSPCB",03-05-2024 23:00:00,26.895552,76.334753,PM10,105,413,153
India,Rajasthan,Dausa,"Khatikan Mohalla, Dausa - RSPCB",03-05-2024 23:00:00,26.895552,76.334753,SO2,2,17,5
India,Rajasthan,Dausa,"Khatikan Mohalla, Dausa - RSPCB",03-05-2024 23:00:00,26.895552,76.334753,CO,47,167,150
India,Rajasthan,Dholpur,"Raja Ganj, Dholpur - RSPCB",03-05-2024 23:00:00,26.699557,77.898881,SO2,6,19,8
India,Rajasthan,Hanumangarh,"Housing Board, Hanumangarh - RSPCB",03-05-2024 23:00:00,29.610750,74.283608,PM10,98,293,178
India,Rajasthan,Jaipur,"Adarsh Nagar, Jaipur - RSPCB",03-05-2024 23:00:00,26.902909,75.836858,NH3,3,19,8
India,Rajasthan,Jaipur,"RIICO Sitapura, Jaipur - RSPCB",03-05-2024 23:00:00,26.786682,75.827928,OZONE,2,115,45
India,Rajasthan,Jhalawar,"Rajlaxmi Nagar, Jhalawar - RSPCB",03-05-2024 23:00:00,24.588397,76.172782,NH3,2,3,2
India,Rajasthan,Jodhpur,"Collectorate, Jodhpur - RSPCB",03-05-2024 23:00:00,26.268249,73.0193853,SO2,5,14,10
India,Rajasthan,Jodhpur,"Digari Kalan, Jodhpur - RSPCB",03-05-2024 23:00:00,26.295810,73.082283,NO2,5,100,45
India,Rajasthan,Jodhpur,"Digari Kalan, Jodhpur - RSPCB",03-05-2024 23:00:00,26.295810,73.082283,NH3,2,7,4
India,Rajasthan,Jodhpur,"Jhalamand, Jodhpur - RSPCB",03-05-2024 23:00:00,26.215415,73.070156,CO,10,84,37
India,Rajasthan,Jodhpur,"Mandor, Jodhpur - RSPCB",03-05-2024 23:00:00,26.358805,73.047444,CO,17,53,28
India,Rajasthan,Jodhpur,"Mandor, Jodhpur - RSPCB",03-05-2024 23:00:00,26.358805,73.047444,OZONE,3,149,75
India,Rajasthan,Jodhpur,"Samrat Ashok Udhyan, Jodhpur - RSPCB",03-05-2024 23:00:00,26.253384,72.976571,NH3,3,13,6
India,Rajasthan,Karauli,"Satyawati Vihar, Karauli - RSPCB",03-05-2024 23:00:00,26.506177,77.025989,SO2,14,27,21
India,Rajasthan,Kota,"Dhanmandi, Kota - RSPCB",03-05-2024 23:00:00,25.164090,75.858137,SO2,6,107,21
India,Rajasthan,Kota,"Dhanmandi, Kota - RSPCB",03-05-2024 23:00:00,25.164090,75.858137,OZONE,2,164,65
India,Rajasthan,Kota,"Nayapura, Kota - RSPCB",03-05-2024 23:00:00,25.196024,75.855668,NH3,1,16,8
India,Rajasthan,Kota,"Nayapura, Kota - RSPCB",03-05-2024 23:00:00,25.196024,75.855668,SO2,5,34,12
India,Rajasthan,Pali,"Indira Colony Vistar, Pali - RSPCB",03-05-2024 23:00:00,25.771061, 73.340227,PM2.5,54,327,138
India,Rajasthan,Pali,"Indira Colony Vistar, Pali - RSPCB",03-05-2024 23:00:00,25.771061, 73.340227,OZONE,26,79,54
India,Rajasthan,Rajsamand,"Dhoinda, Rajsamand - RSPCB",03-05-2024 23:00:00,25.036360,73.883502,PM10,41,141,72
India,Rajasthan,Rajsamand,"Dhoinda, Rajsamand - RSPCB",03-05-2024 23:00:00,25.036360,73.883502,CO,29,88,54
India,Rajasthan,Sirohi,"Vedhaynath Colony, Sirohi - RSPCB",03-05-2024 23:00:00,24.885261,72.857549,PM2.5,27,132,55
India,Rajasthan,Sirohi,"Vedhaynath Colony, Sirohi - RSPCB",03-05-2024 23:00:00,24.885261,72.857549,PM10,45,184,76
India,Rajasthan,Sirohi,"Vedhaynath Colony, Sirohi - RSPCB",03-05-2024 23:00:00,24.885261,72.857549,SO2,3,10,6
India,Rajasthan,Sirohi,"Vedhaynath Colony, Sirohi - RSPCB",03-05-2024 23:00:00,24.885261,72.857549,OZONE,39,137,84
India,Rajasthan,Tonk,"Shastri Nagar, Tonk - RSPCB",03-05-2024 23:00:00,26.159933,75.780517,NO2,7,142,40
India,Rajasthan,Udaipur,"Ashok Nagar, Udaipur - RSPCB",03-05-2024 23:00:00,24.5886166,73.6321397,NO2,41,74,57
India,Rajasthan,Udaipur,"Ashok Nagar, Udaipur - RSPCB",03-05-2024 23:00:00,24.5886166,73.6321397,SO2,3,61,13
India,Rajasthan,Udaipur,"Ashok Nagar, Udaipur - RSPCB",03-05-2024 23:00:00,24.5886166,73.6321397,CO,20,128,97
India,Rajasthan,Udaipur,"Ashok Nagar, Udaipur - RSPCB",03-05-2024 23:00:00,24.5886166,73.6321397,OZONE,8,110,56
India,TamilNadu,Chengalpattu,"Crescent University, Chengalpattu - TNPCB",03-05-2024 23:00:00,12.8777316,80.0834807,PM2.5,NA,NA,NA
India,TamilNadu,Chennai,"Arumbakkam, Chennai - TNPCB",03-05-2024 23:00:00,13.0664,80.2112 ,PM2.5,7,43,24
India,TamilNadu,Chennai,"Kodungaiyur, Chennai - TNPCB",03-05-2024 23:00:00,13.1278,80.2642,OZONE,42,105,63
India,TamilNadu,Chennai,"Manali, Chennai - CPCB",03-05-2024 23:00:00,13.164544,80.26285,CO,46,111,108
India,TamilNadu,Chennai,"Velachery Res. Area, Chennai - CPCB",03-05-2024 23:00:00,13.0052189,80.2398125,PM2.5,NA,NA,NA
India,TamilNadu,Chennai,"Velachery Res. Area, Chennai - CPCB",03-05-2024 23:00:00,13.0052189,80.2398125,SO2,NA,NA,NA
India,TamilNadu,Cuddalore,"Kudikadu, Cuddalore - TNPCB",03-05-2024 23:00:00,11.6829898,79.7532099,PM2.5,47,102,66
India,TamilNadu,Cuddalore,"Kudikadu, Cuddalore - TNPCB",03-05-2024 23:00:00,11.6829898,79.7532099,NO2,NA,NA,NA
India,TamilNadu,Cuddalore,"Kudikadu, Cuddalore - TNPCB",03-05-2024 23:00:00,11.6829898,79.7532099,NH3,3,4,4
India,TamilNadu,Gummidipoondi,"Anthoni Pillai Nagar, Gummidipoondi - TNPCB",03-05-2024 23:00:00,13.4127,80.1081,NH3,2,3,3
India,TamilNadu,Gummidipoondi,"Anthoni Pillai Nagar, Gummidipoondi - TNPCB",03-05-2024 23:00:00,13.4127,80.1081,SO2,1,57,20
India,TamilNadu,Ooty,"Bombay Castel, Ooty - TNPCB",03-05-2024 23:00:00,11.4068288,76.7138973,PM10,NA,NA,NA
India,TamilNadu,Ooty,"Bombay Castel, Ooty - TNPCB",03-05-2024 23:00:00,11.4068288,76.7138973,OZONE,NA,NA,NA
India,TamilNadu,Ramanathapuram,"Chalai Bazaar, Ramanathapuram - TNPCB",03-05-2024 23:00:00,9.36399,78.831977,PM2.5,23,53,36
India,TamilNadu,Ramanathapuram,"Chalai Bazaar, Ramanathapuram - TNPCB",03-05-2024 23:00:00,9.36399,78.831977,SO2,7,11,9
India,TamilNadu,Salem,"Sona College of Technology, Salem - TNPCB",03-05-2024 23:00:00,11.679111,78.125052,PM10,32,105,67
India,TamilNadu,Salem,"Sona College of Technology, Salem - TNPCB",03-05-2024 23:00:00,11.679111,78.125052,NH3,1,1,1
India,TamilNadu,Salem,"Sona College of Technology, Salem - TNPCB",03-05-2024 23:00:00,11.679111,78.125052,CO,48,56,53
India,TamilNadu,Salem,"Sona College of Technology, Salem - TNPCB",03-05-2024 23:00:00,11.679111,78.125052,OZONE,2,4,3
India,TamilNadu,Vellore,"Vasanthapuram, Vellore - TNPCB",03-05-2024 23:00:00,12.909494,79.131861,PM2.5,NA,NA,NA
India,TamilNadu,Virudhunagar,"Collectorate Office, Virudhunagar - TNPCB",03-05-2024 23:00:00,9.559382,77.948828,CO,27,28,28
India,TamilNadu,Virudhunagar,"Collectorate Office, Virudhunagar - TNPCB",03-05-2024 23:00:00,9.559382,77.948828,OZONE,6,6,6
India,Telangana,Hyderabad,"Bollaram Industrial Area, Hyderabad - TSPCB",03-05-2024 23:00:00,17.540891,78.358528,NH3,3,19,6
India,Telangana,Hyderabad,"Central University, Hyderabad - TSPCB",03-05-2024 23:00:00,17.460103,78.334361,NO2,20,140,65
India,Telangana,Hyderabad,"ICRISAT Patancheru, Hyderabad - TSPCB",03-05-2024 23:00:00,17.518400,78.278777,NO2,15,18,16
India,Telangana,Hyderabad,"ICRISAT Patancheru, Hyderabad - TSPCB",03-05-2024 23:00:00,17.518400,78.278777,CO,26,116,53
India,Telangana,Hyderabad,"Kokapet, Hyderabad - TSPCB",03-05-2024 23:00:00,17.393559,78.339194,NO2,NA,NA,NA
India,Telangana,Hyderabad,"Kokapet, Hyderabad - TSPCB",03-05-2024 23:00:00,17.393559,78.339194,CO,25,32,32
India,Telangana,Hyderabad,"Kompally Municipal Office, Hyderabad - TSPCB",03-05-2024 23:00:00,17.544899,78.486949,NO2,9,12,11
India,Telangana,Hyderabad,"New Malakpet, Hyderabad - TSPCB",03-05-2024 23:00:00,17.37206,78.50864,PM2.5,NA,NA,NA
India,Telangana,Hyderabad,"New Malakpet, Hyderabad - TSPCB",03-05-2024 23:00:00,17.37206,78.50864,PM10,81,133,108
India,Telangana,Hyderabad,"New Malakpet, Hyderabad - TSPCB",03-05-2024 23:00:00,17.37206,78.50864,NH3,NA,NA,NA
India,Telangana,Hyderabad,"Ramachandrapuram, Hyderabad - TSPCB",03-05-2024 23:00:00,17.528544,78.286195,NO2,NA,NA,NA
India,Telangana,Hyderabad,"Sanathnagar, Hyderabad - TSPCB",03-05-2024 23:00:00,17.4559458,78.4332152,OZONE,14,18,15
India,Telangana,Hyderabad,"Zoo Park, Hyderabad - TSPCB",03-05-2024 23:00:00,17.349694,78.451437,SO2,1,14,7
India,Telangana,Hyderabad,"Zoo Park, Hyderabad - TSPCB",03-05-2024 23:00:00,17.349694,78.451437,CO,29,116,63
India,Tripura,Agartala,"Bardowali, Agartala - Tripura SPCB",03-05-2024 23:00:00,23.8175497,91.2726974,PM2.5,43,99,72
India,Tripura,Agartala,"Bardowali, Agartala - Tripura SPCB",03-05-2024 23:00:00,23.8175497,91.2726974,SO2,30,31,30
India,Uttar_Pradesh,Agra,"Manoharpur, Agra - UPPCB",03-05-2024 23:00:00,27.23711,78.01936,PM10,24,81,48
India,Uttar_Pradesh,Agra,"Rohta, Agra - UPPCB",03-05-2024 23:00:00,27.106972,78.000111,PM10,17,104,51
India,Uttar_Pradesh,Agra,"Rohta, Agra - UPPCB",03-05-2024 23:00:00,27.106972,78.000111,NH3,2,2,2
India,Uttar_Pradesh,Agra,"Sector-3B Avas Vikas Colony, Agra - UPPCB",03-05-2024 23:00:00,27.19412,77.96237,NO2,38,42,40
India,Uttar_Pradesh,Agra,"Sector-3B Avas Vikas Colony, Agra - UPPCB",03-05-2024 23:00:00,27.19412,77.96237,CO,8,26,14
India,Uttar_Pradesh,Agra,"Sector-3B Avas Vikas Colony, Agra - UPPCB",03-05-2024 23:00:00,27.19412,77.96237,OZONE,8,16,12
India,Uttar_Pradesh,Agra,"Shahjahan Garden, Agra - UPPCB",03-05-2024 23:00:00,27.169338,78.03582,NH3,2,4,3
India,Uttar_Pradesh,Bareilly,"Civil Lines, Bareilly - UPPCB",03-05-2024 23:00:00,28.359581,79.414455,CO,12,113,42
India,Uttar_Pradesh,Bulandshahr,"Yamunapuram, Bulandshahr - UPPCB",03-05-2024 23:00:00,28.406963,77.849831,PM2.5,49,311,189
India,Uttar_Pradesh,Bulandshahr,"Yamunapuram, Bulandshahr - UPPCB",03-05-2024 23:00:00,28.406963,77.849831,PM10,102,303,196
India,Uttar_Pradesh,Bulandshahr,"Yamunapuram, Bulandshahr - UPPCB",03-05-2024 23:00:00,28.406963,77.849831,SO2,12,52,31
India,Uttar_Pradesh,Bulandshahr,"Yamunapuram, Bulandshahr - UPPCB",03-05-2024 23:00:00,28.406963,77.849831,CO,20,82,38
India,Uttar_Pradesh,Firozabad,"Vibhab Nagar, Firozabad - UPPCB",03-05-2024 23:00:00,27.1594,78.3953,NH3,2,2,2
India,Uttar_Pradesh,Firozabad,"Vibhab Nagar, Firozabad - UPPCB",03-05-2024 23:00:00,27.1594,78.3953,CO,12,31,18
India,Uttar_Pradesh,Ghaziabad,"Indirapuram, Ghaziabad - UPPCB",03-05-2024 23:00:00,28.646233,77.358075,OZONE,3,83,35
India,Uttar_Pradesh,Ghaziabad,"Sanjay Nagar, Ghaziabad - UPPCB",03-05-2024 23:00:00,28.685382,77.453839,PM10,128,245,166
India,Uttar_Pradesh,Ghaziabad,"Sanjay Nagar, Ghaziabad - UPPCB",03-05-2024 23:00:00,28.685382,77.453839,NH3,5,8,6
India,Uttar_Pradesh,Ghaziabad,"Sanjay Nagar, Ghaziabad - UPPCB",03-05-2024 23:00:00,28.685382,77.453839,CO,16,78,52
India,Uttar_Pradesh,Ghaziabad,"Vasundhara, Ghaziabad - UPPCB",03-05-2024 23:00:00,28.6603346,77.3572563,OZONE,27,151,75
India,Uttar_Pradesh,Gorakhpur,"Madan Mohan Malaviya University of Technology, Gorakhpur - UPPCB",03-05-2024 23:00:00,26.730136,83.433859,NH3,1,2,2
India,Uttar_Pradesh,Gorakhpur,"Madan Mohan Malaviya University of Technology, Gorakhpur - UPPCB",03-05-2024 23:00:00,26.730136,83.433859,CO,10,34,18
India,Uttar_Pradesh,Greater Noida,"Knowledge Park - III, Greater Noida - UPPCB",03-05-2024 23:00:00,28.47272,77.482000,CO,36,107,65
India,Uttar_Pradesh,Greater Noida,"Knowledge Park - V, Greater Noida - UPPCB",03-05-2024 23:00:00,28.557054,77.453663,NH3,3,5,4
India,Uttar_Pradesh,Greater Noida,"Knowledge Park - V, Greater Noida - UPPCB",03-05-2024 23:00:00,28.557054,77.453663,SO2,2,79,32
India,Uttar_Pradesh,Hapur,"Anand Vihar, Hapur - UPPCB",03-05-2024 23:00:00,28.725645,77.749675,OZONE,20,62,46
India,Uttar_Pradesh,Khurja,"Kalindi Kunj, Khurja - UPPCB",03-05-2024 23:00:00,28.2348927,77.8683002,NO2,3,4,3
India,Uttar_Pradesh,Lucknow,"B R Ambedkar University, Lucknow - UPPCB",03-05-2024 23:00:00,26.766433,80.927299,NO2,11,12,11
India,Uttar_Pradesh,Lucknow,"Gomti Nagar, Lucknow - UPPCB",03-05-2024 23:00:00,26.868120,81.005119,SO2,6,28,11
India,Uttar_Pradesh,Lucknow,"Gomti Nagar, Lucknow - UPPCB",03-05-2024 23:00:00,26.868120,81.005119,CO,37,44,43
India,Uttar_Pradesh,Lucknow,"Kendriya Vidyalaya, Lucknow - CPCB",03-05-2024 23:00:00,26.906111,80.948222,OZONE,25,151,101
India,Uttar_Pradesh,Lucknow,"Lalbagh, Lucknow - CPCB",03-05-2024 23:00:00,26.8458805,80.9365541,PM10,139,229,178
India,Uttar_Pradesh,Lucknow,"Lalbagh, Lucknow - CPCB",03-05-2024 23:00:00,26.8458805,80.9365541,NH3,18,21,19
India,Uttar_Pradesh,Meerut,"Ganga Nagar, Meerut - UPPCB",03-05-2024 23:00:00,28.999264,77.7590354,CO,23,57,39
India,Uttar_Pradesh,Meerut,"Jai Bhim Nagar, Meerut - UPPCB",03-05-2024 23:00:00,28.9535882,77.7622941,PM10,125,396,228
India,Uttar_Pradesh,Meerut,"Jai Bhim Nagar, Meerut - UPPCB",03-05-2024 23:00:00,28.9535882,77.7622941,NH3,3,5,4
India,Uttar_Pradesh,Meerut,"Jai Bhim Nagar, Meerut - UPPCB",03-05-2024 23:00:00,28.9535882,77.7622941,CO,48,188,76
India,Uttar_Pradesh,Meerut,"Pallavpuram Phase 2, Meerut - UPPCB",03-05-2024 23:00:00,29.063510,77.709723,CO,10,70,44
India,Uttar_Pradesh,Moradabad,"Buddhi Vihar, Moradabad - UPPCB",03-05-2024 23:00:00,28.83526,78.74460,NH3,2,2,2
India,Uttar_Pradesh,Moradabad,"Buddhi Vihar, Moradabad - UPPCB",03-05-2024 23:00:00,28.83526,78.74460,OZONE,19,57,37
India,Uttar_Pradesh,Moradabad,"Eco Herbal Park, Moradabad - UPPCB",03-05-2024 23:00:00,28.840739,78.697531,CO,6,86,15
India,Uttar_Pradesh,Moradabad,"Jigar Colony, Moradabad - UPPCB",03-05-2024 23:00:00,28.856664,78.772638,PM2.5,23,77,49
India,Uttar_Pradesh,Moradabad,"Jigar Colony, Moradabad - UPPCB",03-05-2024 23:00:00,28.856664,78.772638,PM10,86,148,119
India,Uttar_Pradesh,Moradabad,"Jigar Colony, Moradabad - UPPCB",03-05-2024 23:00:00,28.856664,78.772638,CO,20,49,30
India,Uttar_Pradesh,Moradabad,"Jigar Colony, Moradabad - UPPCB",03-05-2024 23:00:00,28.856664,78.772638,OZONE,35,82,56
India,Uttar_Pradesh,Moradabad,"Kashiram Nagar, Moradabad - UPPCB",03-05-2024 23:00:00,28.849399,78.742362,OZONE,11,20,14
India,Uttar_Pradesh,Moradabad,"Transport Nagar, Moradabad - UPPCB",03-05-2024 23:00:00,28.802625,78.753728,PM10,67,139,103
India,Uttar_Pradesh,Moradabad,"Transport Nagar, Moradabad - UPPCB",03-05-2024 23:00:00,28.802625,78.753728,NH3,5,5,5
India,Uttar_Pradesh,Muzaffarnagar,"New Mandi, Muzaffarnagar - UPPCB",03-05-2024 23:00:00,29.4723508,77.7194031,NH3,10,12,11
India,Uttar_Pradesh,Noida,"Sector - 125, Noida - UPPCB",03-05-2024 23:00:00,28.5447608,77.3231257,PM2.5,43,320,149
India,Uttar_Pradesh,Noida,"Sector - 125, Noida - UPPCB",03-05-2024 23:00:00,28.5447608,77.3231257,SO2,25,84,38
India,Uttar_Pradesh,Noida,"Sector - 62, Noida - IMD",03-05-2024 23:00:00,28.6245479,77.3577104,PM10,147,325,222
India,Uttar_Pradesh,Noida,"Sector-116, Noida - UPPCB",03-05-2024 23:00:00,28.569230,77.393848,NO2,23,136,74
India,Uttar_Pradesh,Noida,"Sector-116, Noida - UPPCB",03-05-2024 23:00:00,28.569230,77.393848,CO,8,97,54
India,Uttar_Pradesh,Prayagraj,"Jhunsi, Prayagraj - UPPCB",03-05-2024 23:00:00,25.425602,81.917152,NO2,6,6,6
India,Uttar_Pradesh,Prayagraj,"Jhunsi, Prayagraj - UPPCB",03-05-2024 23:00:00,25.425602,81.917152,NH3,5,5,5
India,Uttar_Pradesh,Prayagraj,"Motilal Nehru NIT, Prayagraj - UPPCB",03-05-2024 23:00:00,25.494,81.863,PM10,57,394,101
India,Uttar_Pradesh,Prayagraj,"Motilal Nehru NIT, Prayagraj - UPPCB",03-05-2024 23:00:00,25.494,81.863,NH3,6,8,6
India,Uttar_Pradesh,Prayagraj,"Motilal Nehru NIT, Prayagraj - UPPCB",03-05-2024 23:00:00,25.494,81.863,OZONE,1,95,25
India,Uttar_Pradesh,Prayagraj,"Nagar Nigam, Prayagraj - UPPCB",03-05-2024 23:00:00,25.44919916 ,81.82735986 ,PM2.5,41,103,61
India,Uttar_Pradesh,Varanasi,"Ardhali Bazar, Varanasi - UPPCB",03-05-2024 23:00:00,25.3505986,82.9083074,PM2.5,14,62,40
India,Uttar_Pradesh,Varanasi,"Ardhali Bazar, Varanasi - UPPCB",03-05-2024 23:00:00,25.3505986,82.9083074,SO2,21,64,28
India,Uttar_Pradesh,Varanasi,"Bhelupur, Varanasi - UPPCB",03-05-2024 23:00:00,25.301778,82.996789,NO2,8,8,8
India,Uttar_Pradesh,Varanasi,"IESD Banaras Hindu University, Varanasi - UPPCB",03-05-2024 23:00:00,25.262326,82.995408,PM2.5,NA,NA,NA
India,Uttar_Pradesh,Varanasi,"IESD Banaras Hindu University, Varanasi - UPPCB",03-05-2024 23:00:00,25.262326,82.995408,NH3,1,4,2
India,Uttar_Pradesh,Varanasi,"Maldahiya, Varanasi - UPPCB",03-05-2024 23:00:00,25.32393,82.99687,NH3,1,4,1
India,Uttar_Pradesh,Varanasi,"Maldahiya, Varanasi - UPPCB",03-05-2024 23:00:00,25.32393,82.99687,SO2,25,29,26
India,Uttar_Pradesh,Varanasi,"Maldahiya, Varanasi - UPPCB",03-05-2024 23:00:00,25.32393,82.99687,CO,4,119,41
India,Uttar_Pradesh,Varanasi,"Maldahiya, Varanasi - UPPCB",03-05-2024 23:00:00,25.32393,82.99687,OZONE,1,29,19
India,Uttar_Pradesh,Vrindavan,"Omex Eternity, Vrindavan - UPPCB",03-05-2024 23:00:00,27.5714090,77.6557570,PM2.5,25,67,44
India,Uttar_Pradesh,Vrindavan,"Omex Eternity, Vrindavan - UPPCB",03-05-2024 23:00:00,27.5714090,77.6557570,PM10,48,266,113
India,Uttar_Pradesh,Vrindavan,"Omex Eternity, Vrindavan - UPPCB",03-05-2024 23:00:00,27.5714090,77.6557570,NO2,2,3,2
India,Uttar_Pradesh,Vrindavan,"Omex Eternity, Vrindavan - UPPCB",03-05-2024 23:00:00,27.5714090,77.6557570,OZONE,27,32,29
India,West_Bengal,Asansol,"Asansol Court Area, Asansol - WBPCB",03-05-2024 23:00:00,23.685297,86.945968,NO2,21,140,45
India,West_Bengal,Barrackpore,"SVSPA Campus, Barrackpore - WBPCB",03-05-2024 23:00:00,22.7605581,88.3617589,PM2.5,4,111,66
India,West_Bengal,Barrackpore,"SVSPA Campus, Barrackpore - WBPCB",03-05-2024 23:00:00,22.7605581,88.3617589,NO2,9,26,16
India,West_Bengal,Durgapur,"Sidhu Kanhu Indoor Stadium, Durgapur - WBPCB",03-05-2024 23:00:00,23.5404352,87.2892225,PM2.5,103,319,227
India,West_Bengal,Haldia,"Priyambada Housing Estate, Haldia - WBPCB",03-05-2024 23:00:00,22.06047,88.109737,CO,17,34,23
India,West_Bengal,Howrah,"Belur Math, Howrah - WBPCB",03-05-2024 23:00:00,22.629801,88.352017,PM10,56,130,91
India,West_Bengal,Howrah,"Belur Math, Howrah - WBPCB",03-05-2024 23:00:00,22.629801,88.352017,CO,4,18,10
India,West_Bengal,Howrah,"Padmapukur, Howrah - WBPCB",03-05-2024 23:00:00,22.5687319,88.2797276,NO2,NA,NA,NA
India,West_Bengal,Kolkata,"Ballygunge, Kolkata - WBPCB",03-05-2024 23:00:00,22.5367507,88.3638022,NH3,6,10,8
India,West_Bengal,Kolkata,"Bidhannagar, Kolkata - WBPCB",03-05-2024 23:00:00,22.58157048,88.41002457,PM2.5,23,75,50
India,West_Bengal,Kolkata,"Bidhannagar, Kolkata - WBPCB",03-05-2024 23:00:00,22.58157048,88.41002457,OZONE,7,99,59
India,West_Bengal,Kolkata,"Jadavpur, Kolkata - WBPCB",03-05-2024 23:00:00,22.49929,88.36917,PM2.5,30,77,50
India,West_Bengal,Kolkata,"Jadavpur, Kolkata - WBPCB",03-05-2024 23:00:00,22.49929,88.36917,SO2,5,17,10
India,West_Bengal,Kolkata,"Jadavpur, Kolkata - WBPCB",03-05-2024 23:00:00,22.49929,88.36917,OZONE,6,130,71
India,West_Bengal,Kolkata,"Rabindra Bharati University, Kolkata - WBPCB",03-05-2024 23:00:00,22.627847,88.380669,SO2,7,12,8
India,West_Bengal,Kolkata,"Rabindra Sarobar, Kolkata - WBPCB",03-05-2024 23:00:00,22.51106,88.35142,PM10,44,115,83
India,West_Bengal,Kolkata,"Rabindra Sarobar, Kolkata - WBPCB",03-05-2024 23:00:00,22.51106,88.35142,NO2,14,47,27
India,West_Bengal,Kolkata,"Rabindra Sarobar, Kolkata - WBPCB",03-05-2024 23:00:00,22.51106,88.35142,SO2,10,27,18
India,West_Bengal,Kolkata,"Victoria, Kolkata - WBPCB",03-05-2024 23:00:00,22.5448082,88.3403691,PM10,44,123,93
India,West_Bengal,Kolkata,"Victoria, Kolkata - WBPCB",03-05-2024 23:00:00,22.5448082,88.3403691,SO2,9,17,13
India,West_Bengal,Siliguri,"Ward-32 Bapupara, Siliguri - WBPCB",03-05-2024 23:00:00,26.6879226,88.4152495,CO,20,60,43
India,Andhra_Pradesh,Amaravati,"Secretariat, Amaravati - APPCB",03-05-2024 23:00:00,16.5150833,80.5181667,NO2,3,10,6
India,Andhra_Pradesh,Amaravati,"Secretariat, Amaravati - APPCB",03-05-2024 23:00:00,16.5150833,80.5181667,OZONE,14,73,43
India,Andhra_Pradesh,Anantapur,"Gulzarpet, Anantapur - APPCB",03-05-2024 23:00:00,14.675886,77.593027,NH3,4,4,4
India,Andhra_Pradesh,Anantapur,"Gulzarpet, Anantapur - APPCB",03-05-2024 23:00:00,14.675886,77.593027,OZONE,1,70,31
India,Andhra_Pradesh,Chittoor,"Gangineni Cheruvu, Chittoor - APPCB",03-05-2024 23:00:00,13.204880,79.097889,NH3,NA,NA,NA
India,Andhra_Pradesh,Kadapa,"Yerramukkapalli, Kadapa - APPCB",03-05-2024 23:00:00,14.465052,78.824187,SO2,2,3,2
India,Andhra_Pradesh,Tirupati,"Tirumala, Tirupati - APPCB",03-05-2024 23:00:00,13.67,79.35,PM2.5,27,83,51
India,Andhra_Pradesh,Tirupati,"Tirumala, Tirupati - APPCB",03-05-2024 23:00:00,13.67,79.35,SO2,1,11,5
India,Andhra_Pradesh,Tirupati,"Vaikuntapuram, Tirupati - APPCB",03-05-2024 23:00:00,13.615387,79.409230,NO2,16,27,21
India,Andhra_Pradesh,Tirupati,"Vaikuntapuram, Tirupati - APPCB",03-05-2024 23:00:00,13.615387,79.409230,NH3,2,3,3
India,Andhra_Pradesh,Tirupati,"Vaikuntapuram, Tirupati - APPCB",03-05-2024 23:00:00,13.615387,79.409230,SO2,5,5,5
India,Andhra_Pradesh,Tirupati,"Vaikuntapuram, Tirupati - APPCB",03-05-2024 23:00:00,13.615387,79.409230,CO,10,16,12
India,Andhra_Pradesh,Vijayawada,"HB Colony, Vijayawada - APPCB",03-05-2024 23:00:00,16.536107,80.594233,CO,34,36,36
India,Andhra_Pradesh,Vijayawada,"Rajiv Gandhi Park, Vijayawada - APPCB",03-05-2024 23:00:00,16.509717,80.612222,SO2,6,9,8
India,Andhra_Pradesh,Vijayawada,"Rajiv Nagar, Vijayawada - APPCB",03-05-2024 23:00:00,16.554731,80.649110,NH3,2,3,3
India,Andhra_Pradesh,Vijayawada,"Rajiv Nagar, Vijayawada - APPCB",03-05-2024 23:00:00,16.554731,80.649110,OZONE,4,268,46
India,Andhra_Pradesh,Visakhapatnam,"GVM Corporation, Visakhapatnam - APPCB",03-05-2024 23:00:00,17.72,83.3,SO2,8,15,13
India,Andhra_Pradesh,Visakhapatnam,"GVM Corporation, Visakhapatnam - APPCB",03-05-2024 23:00:00,17.72,83.3,CO,1,94,49
India,Assam,Byrnihat,"Central Academy for SFS, Byrnihat - PCBA",03-05-2024 23:00:00,26.071318,91.87488,PM2.5,103,459,306
India,Assam,Byrnihat,"Central Academy for SFS, Byrnihat - PCBA",03-05-2024 23:00:00,26.071318,91.87488,OZONE,23,121,26
India,Assam,Guwahati,"IITG, Guwahati - PCBA",03-05-2024 23:00:00,26.2028636,91.70046436,PM2.5,59,139,93
India,Assam,Guwahati,"IITG, Guwahati - PCBA",03-05-2024 23:00:00,26.2028636,91.70046436,SO2,12,13,12
India,Assam,Guwahati,"LGBI Airport, Guwahati - PCBA",03-05-2024 23:00:00,26.10887,91.589544,CO,12,111,107
India,Assam,Guwahati,"LGBI Airport, Guwahati - PCBA",03-05-2024 23:00:00,26.10887,91.589544,OZONE,2,24,11
India,Assam,Guwahati,"Railway Colony, Guwahati - PCBA",03-05-2024 23:00:00,26.181742,91.78063,PM2.5,1,412,231
India,Assam,Nagaon,"Christianpatty, Nagaon - PCBA",03-05-2024 23:00:00,26.349082,92.68449,CO,31,68,58
India,Assam,Nagaon,"Christianpatty, Nagaon - PCBA",03-05-2024 23:00:00,26.349082,92.68449,OZONE,50,152,106
India,Assam,Nalbari,"Bata Chowk, Nalbari - PCBA",03-05-2024 23:00:00,26.446912,91.439057,PM2.5,45,143,72
India,Assam,Nalbari,"Bata Chowk, Nalbari - PCBA",03-05-2024 23:00:00,26.446912,91.439057,CO,26,106,35
India,Assam,Silchar,"Tarapur, Silchar - PCBA",03-05-2024 23:00:00,24.82827,92.79525,PM2.5,16,32,21
India,Assam,Silchar,"Tarapur, Silchar - PCBA",03-05-2024 23:00:00,24.82827,92.79525,NO2,12,13,13
India,Assam,Silchar,"Tarapur, Silchar - PCBA",03-05-2024 23:00:00,24.82827,92.79525,OZONE,1,24,7
India,Assam,Sivasagar,"Girls College, Sivasagar - PCBA",03-05-2024 23:00:00,26.987634,94.636574,PM2.5,37,53,45
India,Assam,Sivasagar,"Girls College, Sivasagar - PCBA",03-05-2024 23:00:00,26.987634,94.636574,NO2,10,20,14
India,Assam,Sivasagar,"Girls College, Sivasagar - PCBA",03-05-2024 23:00:00,26.987634,94.636574,SO2,3,21,11
India,Bihar,Araria,"Kharahiya Basti, Araria - BSPCB",03-05-2024 23:00:00,26.146529,87.454184,SO2,9,17,16
India,Bihar,Araria,"Kharahiya Basti, Araria - BSPCB",03-05-2024 23:00:00,26.146529,87.454184,CO,16,30,28
India,Bihar,Araria,"Kharahiya Basti, Araria - BSPCB",03-05-2024 23:00:00,26.146529,87.454184,OZONE,6,10,10
India,Bihar,Arrah,"New DM Office, Arrah - BSPCB",03-05-2024 23:00:00,25.5626095,84.663264,NO2,NA,NA,NA
India,Bihar,Bettiah,"Kamalnath Nagar, Bettiah - BSPCB",03-05-2024 23:00:00,26.80365,84.51954,PM10,96,279,163
India,Bihar,Bhagalpur,"Mayaganj, Bhagalpur - BSPCB",03-05-2024 23:00:00,25.265194,87.012947,SO2,3,12,12
India,Bihar,Bhagalpur,"Mayaganj, Bhagalpur - BSPCB",03-05-2024 23:00:00,25.265194,87.012947,CO,8,10,9
India,Bihar,Buxar,"Charitra Van, Buxar - BSPCB (Formerly known as Central Jail)",03-05-2024 23:00:00,25.567520,83.966379,PM2.5,NA,NA,NA
India,Bihar,Chhapra,"Darshan Nagar, Chhapra - BSPCB",03-05-2024 23:00:00,25.7808257,84.7446768,PM2.5,NA,NA,NA
India,Bihar,Chhapra,"Darshan Nagar, Chhapra - BSPCB",03-05-2024 23:00:00,25.7808257,84.7446768,CO,NA,NA,NA
India,Bihar,Gaya,"Collectorate, Gaya - BSPCB",03-05-2024 23:00:00,24.7955,84.9994,PM2.5,38,315,141
India,Bihar,Gaya,"Collectorate, Gaya - BSPCB",03-05-2024 23:00:00,24.7955,84.9994,NO2,1,4,2
India,Bihar,Gaya,"Collectorate, Gaya - BSPCB",03-05-2024 23:00:00,24.7955,84.9994,CO,8,44,27
India,Bihar,Gaya,"SFTI Kusdihra, Gaya - BSPCB",03-05-2024 23:00:00,24.762518,84.982348,PM2.5,43,200,115
India,Bihar,Gaya,"SFTI Kusdihra, Gaya - BSPCB",03-05-2024 23:00:00,24.762518,84.982348,NO2,16,104,41
India,Bihar,Hajipur,"Industrial Area, Hajipur - BSPCB",03-05-2024 23:00:00,25.697189,85.245900,PM2.5,60,357,145
India,Bihar,Hajipur,"Industrial Area, Hajipur - BSPCB",03-05-2024 23:00:00,25.697189,85.245900,NO2,NA,NA,NA
India,Bihar,Hajipur,"Industrial Area, Hajipur - BSPCB",03-05-2024 23:00:00,25.697189,85.245900,SO2,7,51,10
India,Bihar,Hajipur,"Industrial Area, Hajipur - BSPCB",03-05-2024 23:00:00,25.697189,85.245900,CO,34,100,64
India,Bihar,Katihar,"Mirchaibari, Katihar - BSPCB",03-05-2024 23:00:00,25.560083,87.553265,PM2.5,NA,NA,NA
India,Bihar,Kishanganj,"SDM Office_Khagra, Kishanganj - BSPCB",03-05-2024 23:00:00,26.0881305,87.93840336,PM2.5,82,257,150
India,Bihar,Kishanganj,"SDM Office_Khagra, Kishanganj - BSPCB",03-05-2024 23:00:00,26.0881305,87.93840336,NH3,9,10,9
India,Bihar,Manguraha,"Forest Rest House, Manguraha - BSPCB",03-05-2024 23:00:00,27.308328,84.531742,PM10,NA,NA,NA
India,Bihar,Manguraha,"Forest Rest House, Manguraha - BSPCB",03-05-2024 23:00:00,27.308328,84.531742,OZONE,22,212,87
India,Bihar,Muzaffarpur,"Buddha Colony, Muzaffarpur - BSPCB",03-05-2024 23:00:00,26.11442,85.39813,SO2,8,19,13
India,Bihar,Muzaffarpur,"MIT-Daudpur Kothi, Muzaffarpur - BSPCB",03-05-2024 23:00:00,26.1403345,85.3650192,PM2.5,127,377,236
India,Bihar,Muzaffarpur,"MIT-Daudpur Kothi, Muzaffarpur - BSPCB",03-05-2024 23:00:00,26.1403345,85.3650192,SO2,4,5,4
India,Bihar,Muzaffarpur,"MIT-Daudpur Kothi, Muzaffarpur - BSPCB",03-05-2024 23:00:00,26.1403345,85.3650192,CO,10,105,52
India,Bihar,Patna,"DRM Office Danapur, Patna - BSPCB",03-05-2024 23:00:00,25.586562,85.043586,PM10,110,272,175
India,Bihar,Patna,"DRM Office Danapur, Patna - BSPCB",03-05-2024 23:00:00,25.586562,85.043586,NO2,10,137,58
India,Bihar,Patna,"Muradpur, Patna - BSPCB",03-05-2024 23:00:00,25.619651,85.147382,OZONE,3,87,44
India,Bihar,Patna,"Rajbansi Nagar, Patna - BSPCB",03-05-2024 23:00:00,25.599486,85.113666,CO,23,112,76
India,Bihar,Patna,"Samanpura, Patna - BSPCB",03-05-2024 23:00:00,25.596727,85.085624,NH3,11,22,15
India,Bihar,Purnia,"Mariam Nagar, Purnia - BSPCB",03-05-2024 23:00:00,25.366336,87.117468,CO,11,114,79
India,Bihar,Rajgir,"Dangi Tola, Rajgir - BSPCB",03-05-2024 23:00:00,25.03280,85.41948,PM2.5,28,170,70
India,Bihar,Rajgir,"Dangi Tola, Rajgir - BSPCB",03-05-2024 23:00:00,25.03280,85.41948,NO2,18,44,21
India,Bihar,Rajgir,"Dangi Tola, Rajgir - BSPCB",03-05-2024 23:00:00,25.03280,85.41948,SO2,4,11,5
India,Bihar,Saharsa,"Police Line, Saharsa - BSPCB",03-05-2024 23:00:00,25.892357,86.590325,SO2,16,17,16
India,Bihar,Samastipur,"DM Office_Kasipur, Samastipur - BSPCB",03-05-2024 23:00:00,25.859655,85.77944,PM2.5,43,311,134
India,Bihar,Sasaram,"Dada Peer, Sasaram - BSPCB",03-05-2024 23:00:00,24.952822,84.002396,PM2.5,27,73,38
India,Bihar,Sasaram,"Dada Peer, Sasaram - BSPCB",03-05-2024 23:00:00,24.952822,84.002396,OZONE,26,116,77
India,Bihar,Siwan,"Chitragupta Nagar, Siwan - BSPCB",03-05-2024 23:00:00,26.2271665,84.3570427,PM2.5,55,379,206
India,Bihar,Siwan,"Chitragupta Nagar, Siwan - BSPCB",03-05-2024 23:00:00,26.2271665,84.3570427,NH3,2,14,4
India,Chandigarh,Chandigarh,"Sector 22, Chandigarh - CPCC",03-05-2024 23:00:00,30.735567,76.775714,OZONE,54,170,118
India,Chandigarh,Chandigarh,"Sector-25, Chandigarh - CPCC",03-05-2024 23:00:00,30.751462,76.762879,NO2,3,18,10
India,Chandigarh,Chandigarh,"Sector-53, Chandigarh - CPCC",03-05-2024 23:00:00,30.719859,76.738637,PM2.5,25,163,90
India,Chhattisgarh,Bhilai,"32Bungalows, Bhilai - CECB",03-05-2024 23:00:00,21.194815,81.314770,PM10,75,157,109
India,Chhattisgarh,Bhilai,"Civic Center, Bhilai - Bhilai Steel Plant",03-05-2024 23:00:00,21.185571,81.343175,PM2.5,25,57,38
India,Chhattisgarh,Bhilai,"Civic Center, Bhilai - Bhilai Steel Plant",03-05-2024 23:00:00,21.185571,81.343175,CO,34,59,48
India,Chhattisgarh,Bhilai,"Civic Center, Bhilai - Bhilai Steel Plant",03-05-2024 23:00:00,21.185571,81.343175,OZONE,12,97,52
India,Chhattisgarh,Bhilai,"Hathkhoj, Bhilai - CECB",03-05-2024 23:00:00,21.224231,81.408350,PM2.5,34,261,87
India,Chhattisgarh,Bilaspur,"Mangala, Bilaspur - NTPC",03-05-2024 23:00:00,22.08815,82.13737,PM2.5,52,113,74
India,Chhattisgarh,Korba,"Rampur, Korba - CECB",03-05-2024 23:00:00,22.368195,82.746431,PM2.5,25,72,44
India,Chhattisgarh,Korba,"Urja Nagar, Korba - CECB",03-05-2024 23:00:00,22.348441,82.549611,PM2.5,6,6,6
India,Chhattisgarh,Korba,"Urja Nagar, Korba - CECB",03-05-2024 23:00:00,22.348441,82.549611,CO,16,98,40
India,Chhattisgarh,Kunjemura,"OP Jindal School, Kunjemura - CECB",03-05-2024 23:00:00,22.126650,83.483212,PM10,67,462,226
India,Chhattisgarh,Kunjemura,"OP Jindal School, Kunjemura - CECB",03-05-2024 23:00:00,22.126650,83.483212,NO2,14,145,61
India,Chhattisgarh,Raipur,"AIIMS, Raipur - CECB",03-05-2024 23:00:00,21.258815,81.578979,NH3,6,6,6
India,Chhattisgarh,Raipur,"AIIMS, Raipur - CECB",03-05-2024 23:00:00,21.258815,81.578979,OZONE,1,76,30
India,Chhattisgarh,Raipur,"Bhatagaon New ISBT, Raipur - CECB",03-05-2024 23:00:00,21.219665,81.630094,PM10,43,161,87
India,Chhattisgarh,Raipur,"Bhatagaon New ISBT, Raipur - CECB",03-05-2024 23:00:00,21.219665,81.630094,OZONE,3,24,9
India,Chhattisgarh,Raipur,"Siltara Phase-II, Raipur - CECB",03-05-2024 23:00:00,21.371751,81.664929,NH3,3,3,3
India,Chhattisgarh,Raipur,"Siltara Phase-II, Raipur - CECB",03-05-2024 23:00:00,21.371751,81.664929,SO2,5,75,31
India,Chhattisgarh,Tumidih,"OP Jindal Industrial Park, Tumidih - CECB",03-05-2024 23:00:00,22.06631475,83.33820077,NO2,16,66,43
India,Delhi,Delhi,"Anand Vihar, Delhi - DPCC",03-05-2024 23:00:00,28.647622,77.3158090,NO2,76,149,110
India,Delhi,Delhi,"Ashok Vihar, Delhi - DPCC",03-05-2024 23:00:00,28.695381,77.181665,PM10,154,345,281
India,Delhi,Delhi,"Ashok Vihar, Delhi - DPCC",03-05-2024 23:00:00,28.695381,77.181665,OZONE,3,139,78
India,Delhi,Delhi,"Aya Nagar, Delhi - IMD",03-05-2024 23:00:00,28.4706914,77.1099364,PM2.5,103,383,265
India,Delhi,Delhi,"Aya Nagar, Delhi - IMD",03-05-2024 23:00:00,28.4706914,77.1099364,PM10,144,412,230
India,Delhi,Delhi,"Aya Nagar, Delhi - IMD",03-05-2024 23:00:00,28.4706914,77.1099364,CO,39,100,50
India,Delhi,Delhi,"Burari Crossing, Delhi - IMD",03-05-2024 23:00:00,28.7256504,77.2011573,NO2,12,17,15
India,Delhi,Delhi,"Burari Crossing, Delhi - IMD",03-05-2024 23:00:00,28.7256504,77.2011573,CO,22,52,29
India,Delhi,Delhi,"Chandni Chowk, Delhi - IITM",03-05-2024 23:00:00,28.656756,77.227234,NH3,17,50,29
India,Delhi,Delhi,"Chandni Chowk, Delhi - IITM",03-05-2024 23:00:00,28.656756,77.227234,SO2,3,48,24
India,Delhi,Delhi,"DTU, Delhi - CPCB",03-05-2024 23:00:00,28.7500499,77.1112615,NH3,1,12,5
India,Delhi,Delhi,"Dr. Karni Singh Shooting Range, Delhi - DPCC",03-05-2024 23:00:00,28.498571,77.264840,PM10,154,405,252
India,Delhi,Delhi,"Dwarka-Sector 8, Delhi - DPCC ",03-05-2024 23:00:00,28.5710274,77.0719006,NO2,1,14,6
India,Delhi,Delhi,"Dwarka-Sector 8, Delhi - DPCC ",03-05-2024 23:00:00,28.5710274,77.0719006,CO,44,108,76
India,Delhi,Delhi,"IHBAS, Dilshad Garden, Delhi - CPCB",03-05-2024 23:00:00,28.6811736,77.3025234,CO,8,65,30
India,Delhi,Delhi,"ITO, Delhi - CPCB",03-05-2024 23:00:00,28.628624,77.241060,NH3,2,7,4
India,Delhi,Delhi,"Jahangirpuri, Delhi - DPCC",03-05-2024 23:00:00,28.732820,77.170633,NO2,38,170,115
India,Delhi,Delhi,"Jawaharlal Nehru Stadium, Delhi - DPCC",03-05-2024 23:00:00,28.580280,77.233829,SO2,13,82,36
India,Delhi,Delhi,"Jawaharlal Nehru Stadium, Delhi - DPCC",03-05-2024 23:00:00,28.580280,77.233829,CO,24,112,67
India,Delhi,Delhi,"Lodhi Road, Delhi - IMD",03-05-2024 23:00:00,28.5918245,77.2273074,CO,10,28,14
India,Delhi,Delhi,"Major Dhyan Chand National Stadium, Delhi - DPCC",03-05-2024 23:00:00,28.611281,77.237738,SO2,21,124,40
India,Delhi,Delhi,"Major Dhyan Chand National Stadium, Delhi - DPCC",03-05-2024 23:00:00,28.611281,77.237738,OZONE,2,247,79
India,Delhi,Delhi,"Mundka, Delhi - DPCC",03-05-2024 23:00:00,28.684678,77.076574,PM2.5,75,478,289
India,Delhi,Delhi,"Mundka, Delhi - DPCC",03-05-2024 23:00:00,28.684678,77.076574,SO2,16,109,50
India,Delhi,Delhi,"NSIT Dwarka, Delhi - CPCB",03-05-2024 23:00:00,28.60909,77.0325413,CO,25,50,39
India,Delhi,Delhi,"Najafgarh, Delhi - DPCC",03-05-2024 23:00:00,28.570173,76.933762,NO2,25,130,73
India,Delhi,Delhi,"Narela, Delhi - DPCC",03-05-2024 23:00:00,28.822836,77.101981,PM10,154,445,315
India,Delhi,Delhi,"Narela, Delhi - DPCC",03-05-2024 23:00:00,28.822836,77.101981,CO,16,72,46
India,Delhi,Delhi,"Nehru Nagar, Delhi - DPCC",03-05-2024 23:00:00,28.567890,77.250515,PM2.5,74,401,253
India,Delhi,Delhi,"Nehru Nagar, Delhi - DPCC",03-05-2024 23:00:00,28.567890,77.250515,NO2,7,32,19
India,Delhi,Delhi,"New Moti Bagh, Delhi - MHUA",03-05-2024 23:00:00,28.57834,77.18400,CO,22,108,68
India,Delhi,Delhi,"North Campus, DU, Delhi - IMD",03-05-2024 23:00:00,28.6573814,77.1585447,PM2.5,NA,NA,NA
India,Delhi,Delhi,"North Campus, DU, Delhi - IMD",03-05-2024 23:00:00,28.6573814,77.1585447,OZONE,NA,NA,NA
India,Delhi,Delhi,"Patparganj, Delhi - DPCC",03-05-2024 23:00:00,28.623763,77.287209,PM10,166,390,286
India,Delhi,Delhi,"Patparganj, Delhi - DPCC",03-05-2024 23:00:00,28.623763,77.287209,NO2,30,108,72
India,Delhi,Delhi,"Patparganj, Delhi - DPCC",03-05-2024 23:00:00,28.623763,77.287209,NH3,5,9,7
India,Delhi,Delhi,"Patparganj, Delhi - DPCC",03-05-2024 23:00:00,28.623763,77.287209,SO2,3,8,6
India,Delhi,Delhi,"Patparganj, Delhi - DPCC",03-05-2024 23:00:00,28.623763,77.287209,OZONE,7,154,62
India,Delhi,Delhi,"Punjabi Bagh, Delhi - DPCC",03-05-2024 23:00:00,28.674045,77.131023,OZONE,2,67,33
India,Delhi,Delhi,"Pusa, Delhi - DPCC",03-05-2024 23:00:00,28.639652,77.146275,PM10,184,471,307
India,Delhi,Delhi,"Pusa, Delhi - IMD",03-05-2024 23:00:00,28.636110,77.173332,NO2,10,28,17
India,Delhi,Delhi,"Pusa, Delhi - IMD",03-05-2024 23:00:00,28.636110,77.173332,OZONE,4,62,42
India,Delhi,Delhi,"R K Puram, Delhi - DPCC",03-05-2024 23:00:00,28.563262,77.186937,PM2.5,88,441,278
India,Delhi,Delhi,"R K Puram, Delhi - DPCC",03-05-2024 23:00:00,28.563262,77.186937,CO,15,112,69
India,Delhi,Delhi,"Rohini, Delhi - DPCC",03-05-2024 23:00:00,28.732528,77.119920,PM10,154,470,326
India,Delhi,Delhi,"Rohini, Delhi - DPCC",03-05-2024 23:00:00,28.732528,77.119920,CO,16,82,42
India,Delhi,Delhi,"Sirifort, Delhi - CPCB",03-05-2024 23:00:00,28.5504249,77.2159377,OZONE,7,76,38
India,Delhi,Delhi,"Sonia Vihar, Delhi - DPCC",03-05-2024 23:00:00,28.710508,77.249485,NO2,16,116,57
India,Delhi,Delhi,"Sonia Vihar, Delhi - DPCC",03-05-2024 23:00:00,28.710508,77.249485,SO2,12,67,28
India,Delhi,Delhi,"Sri Aurobindo Marg, Delhi - DPCC",03-05-2024 23:00:00,28.531346,77.190156,PM10,151,358,208
India,Delhi,Delhi,"Vivek Vihar, Delhi - DPCC",03-05-2024 23:00:00,28.672342,77.315260,PM2.5,73,369,244
India,Delhi,Delhi,"Vivek Vihar, Delhi - DPCC",03-05-2024 23:00:00,28.672342,77.315260,PM10,159,358,240
India,Delhi,Delhi,"Vivek Vihar, Delhi - DPCC",03-05-2024 23:00:00,28.672342,77.315260,NO2,27,127,65
India,Delhi,Delhi,"Wazirpur, Delhi - DPCC",03-05-2024 23:00:00,28.699793,77.165453,PM2.5,79,421,273
India,Gujarat,Ahmedabad,"Chandkheda, Ahmedabad - IITM",03-05-2024 23:00:00,23.107969,72.574648,PM10,85,316,123
India,Gujarat,Ahmedabad,"Chandkheda, Ahmedabad - IITM",03-05-2024 23:00:00,23.107969,72.574648,NH3,3,3,3
India,Gujarat,Ahmedabad,"Gyaspur, Ahmedabad - IITM",03-05-2024 23:00:00,22.977134,72.553024,PM10,73,397,142
India,Gujarat,Ahmedabad,"Gyaspur, Ahmedabad - IITM",03-05-2024 23:00:00,22.977134,72.553024,CO,16,72,46
India,Gujarat,Ahmedabad,"Maninagar, Ahmedabad - GPCB",03-05-2024 23:00:00,23.002657,72.591912,PM2.5,35,210,88
India,Gujarat,Ahmedabad,"Maninagar, Ahmedabad - GPCB",03-05-2024 23:00:00,23.002657,72.591912,PM10,76,217,125
India,Gujarat,Ahmedabad,"Maninagar, Ahmedabad - GPCB",03-05-2024 23:00:00,23.002657,72.591912,NO2,25,129,49
India,Gujarat,Ahmedabad,"Maninagar, Ahmedabad - GPCB",03-05-2024 23:00:00,23.002657,72.591912,OZONE,6,44,18
India,Gujarat,Ahmedabad,"Raikhad, Ahmedabad - IITM",03-05-2024 23:00:00,23.020509,72.579261,PM2.5,86,318,203
India,Gujarat,Ahmedabad,"Raikhad, Ahmedabad - IITM",03-05-2024 23:00:00,23.020509,72.579261,CO,18,118,58
India,Gujarat,Ahmedabad,"Raikhad, Ahmedabad - IITM",03-05-2024 23:00:00,23.020509,72.579261,OZONE,1,41,21
India,Gujarat,Ahmedabad,"Rakhial, Ahmedabad - IITM",03-05-2024 23:00:00,23.016834,72.625775,NH3,5,16,10
India,Gujarat,Ahmedabad,"Rakhial, Ahmedabad - IITM",03-05-2024 23:00:00,23.016834,72.625775,CO,14,123,77
India,Gujarat,Ahmedabad,"SVPI Airport Hansol, Ahmedabad - IITM",03-05-2024 23:00:00,23.076793,72.627874,SO2,5,19,11
India,Gujarat,Ahmedabad,"Sardar Vallabhbhai Patel Stadium, Ahmedabad - IITM",03-05-2024 23:00:00,23.043070,72.562968,NH3,1,2,1
India,Gujarat,Ankleshwar,"GIDC, Ankleshwar - GPCB",03-05-2024 23:00:00,21.613267,73.010555,NH3,6,6,6
India,Gujarat,Ankleshwar,"GIDC, Ankleshwar - GPCB",03-05-2024 23:00:00,21.613267,73.010555,SO2,2,50,18
India,Gujarat,Ankleshwar,"GIDC, Ankleshwar - GPCB",03-05-2024 23:00:00,21.613267,73.010555,OZONE,17,36,30
India,Gujarat,Vapi,"Phase-1 GIDC, Vapi - GPCB",03-05-2024 23:00:00,20.362421,72.918013,PM2.5,35,107,61
India,Gujarat,Vapi,"Phase-1 GIDC, Vapi - GPCB",03-05-2024 23:00:00,20.362421,72.918013,PM10,73,107,91
India,Gujarat,Vatva,"Phase-4 GIDC, Vatva - GPCB",03-05-2024 23:00:00,22.969611,72.643500,NH3,5,13,9
India,Gujarat,Vatva,"Phase-4 GIDC, Vatva - GPCB",03-05-2024 23:00:00,22.969611,72.643500,SO2,1,50,13
India,Haryana,Ambala,"Patti Mehar, Ambala - HSPCB",03-05-2024 23:00:00,30.379589,76.778328,NH3,8,8,8
India,Haryana,Ballabgarh,"Nathu Colony, Ballabgarh - HSPCB",03-05-2024 23:00:00,28.3419248,77.319699,PM2.5,20,418,306
India,Haryana,Ballabgarh,"Nathu Colony, Ballabgarh - HSPCB",03-05-2024 23:00:00,28.3419248,77.319699,SO2,1,93,34
India,Haryana,Ballabgarh,"Nathu Colony, Ballabgarh - HSPCB",03-05-2024 23:00:00,28.3419248,77.319699,OZONE,1,24,9
India,Haryana,Charkhi Dadri,"Mini Secretariat, Charkhi Dadri - HSPCB",03-05-2024 23:00:00,28.593883,76.270653,PM2.5,75,329,198
India,Haryana,Charkhi Dadri,"Mini Secretariat, Charkhi Dadri - HSPCB",03-05-2024 23:00:00,28.593883,76.270653,SO2,29,82,51
India,Haryana,Charkhi Dadri,"Mini Secretariat, Charkhi Dadri - HSPCB",03-05-2024 23:00:00,28.593883,76.270653,CO,28,106,70
India,Haryana,Dharuhera,"Municipal Corporation Office, Dharuhera -  HSPCB",03-05-2024 23:00:00,28.206800,76.799700,PM2.5,28,324,160
India,Haryana,Faridabad,"New Industrial Town, Faridabad - HSPCB",03-05-2024 23:00:00,28.39072,77.30059,CO,12,49,29
India,Haryana,Faridabad,"Sector 11, Faridabad - HSPCB",03-05-2024 23:00:00,28.376058,77.315741,PM10,142,500,282
India,Haryana,Faridabad,"Sector 11, Faridabad - HSPCB",03-05-2024 23:00:00,28.376058,77.315741,NH3,6,6,6
India,Haryana,Faridabad,"Sector 30, Faridabad - HSPCB",03-05-2024 23:00:00,28.4417,77.3217,CO,38,57,55
India,Haryana,Faridabad,"Sector- 16A, Faridabad - HSPCB",03-05-2024 23:00:00,28.4088421,77.3099081,PM2.5,77,378,203
India,Haryana,Fatehabad,"Huda Sector, Fatehabad - HSPCB",03-05-2024 23:00:00,29.503664,75.467934,OZONE,25,65,54
India,Haryana,Gurugram,"Sector-51, Gurugram - HSPCB",03-05-2024 23:00:00,28.4227,77.0667,PM10,120,422,276
India,Haryana,Gurugram,"Sector-51, Gurugram - HSPCB",03-05-2024 23:00:00,28.4227,77.0667,NO2,13,29,23
India,Haryana,Gurugram,"Vikas Sadan, Gurugram - HSPCB",03-05-2024 23:00:00,28.4501238,77.0263051,NO2,5,26,14
India,Haryana,Hisar,"Urban Estate-II, Hisar - HSPCB",03-05-2024 23:00:00,29.140560,75.744941,NO2,NA,NA,NA
India,Haryana,Jind,"Police Lines, Jind - HSPCB",03-05-2024 23:00:00,29.307814,76.337619,NH3,1,5,3
India,Haryana,Jind,"Police Lines, Jind - HSPCB",03-05-2024 23:00:00,29.307814,76.337619,SO2,15,42,26
India,Haryana,Jind,"Police Lines, Jind - HSPCB",03-05-2024 23:00:00,29.307814,76.337619,CO,4,94,31
India,Haryana,Jind,"Police Lines, Jind - HSPCB",03-05-2024 23:00:00,29.307814,76.337619,OZONE,8,24,12
India,Haryana,Kaithal,"Rishi Nagar, Kaithal - HSPCB",03-05-2024 23:00:00,29.8006,76.4155,OZONE,6,10,8
India,Haryana,Kurukshetra,"Sector-7, Kurukshetra - HSPCB",03-05-2024 23:00:00,29.966942,76.875879,NH3,3,5,5
India,Haryana,Kurukshetra,"Sector-7, Kurukshetra - HSPCB",03-05-2024 23:00:00,29.966942,76.875879,CO,3,30,17
India,Haryana,Kurukshetra,"Sector-7, Kurukshetra - HSPCB",03-05-2024 23:00:00,29.966942,76.875879,OZONE,22,68,48
India,Haryana,Mandikhera,"General Hospital, Mandikhera - HSPCB",03-05-2024 23:00:00,27.9002,76.9938,SO2,29,40,35
India,Haryana,Mandikhera,"General Hospital, Mandikhera - HSPCB",03-05-2024 23:00:00,27.9002,76.9938,CO,8,44,22
India,Haryana,Manesar,"Sector-2 IMT, Manesar - HSPCB",03-05-2024 23:00:00,28.360699,76.936090,NO2,26,84,48
India,Haryana,Manesar,"Sector-2 IMT, Manesar - HSPCB",03-05-2024 23:00:00,28.360699,76.936090,OZONE,9,118,60
India,Haryana,Narnaul,"Shastri Nagar, Narnaul - HSPCB",03-05-2024 23:00:00,28.060249,76.113115,NH3,5,27,15
India,Haryana,Narnaul,"Shastri Nagar, Narnaul - HSPCB",03-05-2024 23:00:00,28.060249,76.113115,SO2,12,44,17
India,Haryana,Narnaul,"Shastri Nagar, Narnaul - HSPCB",03-05-2024 23:00:00,28.060249,76.113115,CO,12,41,20
India,Haryana,Panchkula,"Sector-6, Panchkula - HSPCB ",03-05-2024 23:00:00,30.7057778,76.8531805555555,PM2.5,NA,NA,NA
India,Haryana,Panchkula,"Sector-6, Panchkula - HSPCB ",03-05-2024 23:00:00,30.7057778,76.8531805555555,CO,2,2,2
India,Haryana,Panipat,"Sector-18, Panipat - HSPCB",03-05-2024 23:00:00,29.497973,76.993331,NH3,2,3,2
India,Haryana,Panipat,"Sector-18, Panipat - HSPCB",03-05-2024 23:00:00,29.497973,76.993331,CO,24,26,25
India,Haryana,Panipat,"Sector-18, Panipat - HSPCB",03-05-2024 23:00:00,29.497973,76.993331,OZONE,30,30,30
India,Haryana,Sirsa,"F-Block, Sirsa - HSPCB",03-05-2024 23:00:00,29.536400,75.015800,NO2,10,11,10
India,Haryana,Sirsa,"F-Block, Sirsa - HSPCB",03-05-2024 23:00:00,29.536400,75.015800,SO2,NA,NA,NA
India,Haryana,Sonipat,"Murthal, Sonipat - HSPCB",03-05-2024 23:00:00,29.027200,77.062100,PM10,86,88,87
India,Haryana,Sonipat,"Murthal, Sonipat - HSPCB",03-05-2024 23:00:00,29.027200,77.062100,NO2,37,44,40
India,Haryana,Sonipat,"Murthal, Sonipat - HSPCB",03-05-2024 23:00:00,29.027200,77.062100,OZONE,16,36,27
India,Haryana,Yamuna Nagar,"Gobind Pura, Yamuna Nagar - HSPCB",03-05-2024 23:00:00,30.1480566,77.2893471,NH3,1,6,4
India,Haryana,Yamuna Nagar,"Gobind Pura, Yamuna Nagar - HSPCB",03-05-2024 23:00:00,30.1480566,77.2893471,SO2,3,15,8
India,Himachal Pradesh,Baddi,"HIMUDA Complex Phase-1, Baddi - HPPCB",03-05-2024 23:00:00,30.943887,76.801991,PM2.5,27,305,150
India,Himachal Pradesh,Baddi,"HIMUDA Complex Phase-1, Baddi - HPPCB",03-05-2024 23:00:00,30.943887,76.801991,NO2,4,50,30
India,Himachal Pradesh,Baddi,"HIMUDA Complex Phase-1, Baddi - HPPCB",03-05-2024 23:00:00,30.943887,76.801991,SO2,10,99,39
India,Jammu_and_Kashmir,Srinagar,"Rajbagh, Srinagar - JKSPCB",03-05-2024 23:00:00,34.066206,74.819820,OZONE,NA,NA,NA
India,Jharkhand,Dhanbad,"Kalakusuma, Dhanbad - DMC",03-05-2024 23:00:00,23.811548,86.481238,OZONE,26,71,34
India,Jharkhand,Dhanbad,"Sardar Patel Nagar, Dhanbad - JSPCB",03-05-2024 23:00:00,23.80569,86.44268,NO2,NA,NA,NA
India,Karnataka,Bagalkot,"Vidayagiri, Bagalkot - KSPCB",03-05-2024 23:00:00,16.172806,75.659694,NO2,9,10,9
India,Karnataka,Bengaluru,"Bapuji Nagar, Bengaluru - KSPCB",03-05-2024 23:00:00,12.951913,77.539784,NO2,10,11,11
India,Karnataka,Bengaluru,"Hebbal, Bengaluru - KSPCB",03-05-2024 23:00:00,13.029152,77.585901,NH3,NA,NA,NA
India,Karnataka,Bengaluru,"Hombegowda Nagar, Bengaluru - KSPCB",03-05-2024 23:00:00,12.938539,77.590100,NO2,8,28,14
India,Karnataka,Bengaluru,"Hombegowda Nagar, Bengaluru - KSPCB",03-05-2024 23:00:00,12.938539,77.590100,CO,22,66,45
India,Karnataka,Bengaluru,"Jayanagar 5th Block, Bengaluru - KSPCB",03-05-2024 23:00:00,12.920984,77.584908,OZONE,32,34,33
India,Karnataka,Bengaluru,"Kasturi Nagar, Bengaluru - KSPCB",03-05-2024 23:00:00,13.003872,77.664217,OZONE,3,90,14
India,Karnataka,Bengaluru,"Peenya, Bengaluru - CPCB",03-05-2024 23:00:00,13.0270199,77.494094,NO2,9,31,22
India,Karnataka,Bengaluru,"Peenya, Bengaluru - CPCB",03-05-2024 23:00:00,13.0270199,77.494094,SO2,6,13,10
India,Karnataka,Bengaluru,"Peenya, Bengaluru - CPCB",03-05-2024 23:00:00,13.0270199,77.494094,CO,33,44,37
India,Karnataka,Bengaluru,"RVCE-Mailasandra, Bengaluru - KSPCB",03-05-2024 23:00:00,12.921418,77.502466,PM10,45,132,93
India,Karnataka,Bengaluru,"RVCE-Mailasandra, Bengaluru - KSPCB",03-05-2024 23:00:00,12.921418,77.502466,OZONE,39,39,39
India,Karnataka,Bengaluru,"Shivapura_Peenya, Bengaluru - KSPCB",03-05-2024 23:00:00,13.0246342,77.5080115,PM2.5,NA,NA,NA
India,Karnataka,Bengaluru,"Shivapura_Peenya, Bengaluru - KSPCB",03-05-2024 23:00:00,13.0246342,77.5080115,PM10,NA,NA,NA
India,Karnataka,Bengaluru,"Shivapura_Peenya, Bengaluru - KSPCB",03-05-2024 23:00:00,13.0246342,77.5080115,NO2,15,16,15
India,Karnataka,Bidar,"Naubad, Bidar - KSPCB",03-05-2024 23:00:00,17.930306,77.482194,NO2,7,11,8
India,Karnataka,Chamarajanagar,"Urban, Chamarajanagar - KSPCB",03-05-2024 23:00:00,11.55358,76.55521,NH3,2,2,2
India,Karnataka,Chikkaballapur,"Chikkaballapur Rural, Chikkaballapur - KSPCB",03-05-2024 23:00:00,13.428828,77.731418,PM2.5,50,83,68
India,Karnataka,Chikkamagaluru,"Kalyana Nagara, Chikkamagaluru - KSPCB",03-05-2024 23:00:00,13.328028,75.797056,PM10,41,476,119
India,Karnataka,Chikkamagaluru,"Kalyana Nagara, Chikkamagaluru - KSPCB",03-05-2024 23:00:00,13.328028,75.797056,CO,11,123,27
India,Karnataka,Davanagere,"Devaraj Urs Badavane, Davanagere - KSPCB",03-05-2024 23:00:00,14.475800,75.905200,SO2,4,7,5
India,Karnataka,Dharwad,"Kalabhavan, Dharwad - KSPCB",03-05-2024 23:00:00,15.459706,75.008381,CO,14,69,56
India,Karnataka,Gadag,"Panchal Nagar, Gadag - KSPCB",03-05-2024 23:00:00,15.411456,75.638133,PM2.5,27,83,51
India,Karnataka,Gadag,"Panchal Nagar, Gadag - KSPCB",03-05-2024 23:00:00,15.411456,75.638133,CO,44,48,45
India,Karnataka,Hassan,"B.Katihalli, Hassan - KSPCB",03-05-2024 23:00:00,13.008556,76.125258,PM10,78,282,121
India,Karnataka,Haveri,"Ashwini Nagar, Haveri - KSPCB",03-05-2024 23:00:00,14.791800,75.389600,PM2.5,29,74,43
India,Karnataka,Haveri,"Ashwini Nagar, Haveri - KSPCB",03-05-2024 23:00:00,14.791800,75.389600,PM10,53,99,72
India,Karnataka,Haveri,"Ashwini Nagar, Haveri - KSPCB",03-05-2024 23:00:00,14.791800,75.389600,NO2,NA,NA,NA
India,Karnataka,Haveri,"Ashwini Nagar, Haveri - KSPCB",03-05-2024 23:00:00,14.791800,75.389600,SO2,14,14,14
India,Karnataka,Hubballi,"Deshpande Nagar, Hubballi - KSPCB",03-05-2024 23:00:00,15.351773,75.140726,PM10,59,120,81
India,Karnataka,Hubballi,"Deshpande Nagar, Hubballi - KSPCB",03-05-2024 23:00:00,15.351773,75.140726,OZONE,2,21,12
India,Karnataka,Hubballi,"Lingaraj Nagar, Hubballi - KSPCB",03-05-2024 23:00:00,15.3714823,75.1160168,NH3,2,2,2
India,Karnataka,Hubballi,"Lingaraj Nagar, Hubballi - KSPCB",03-05-2024 23:00:00,15.3714823,75.1160168,OZONE,25,79,59
India,Karnataka,Kalaburagi,"Lal Bahadur Shastri Nagar, Kalaburagi - KSPCB",03-05-2024 23:00:00,17.321993,76.822628,NH3,1,2,2
India,Karnataka,Kolar,"Tamaka Ind. Area, Kolar - KSPCB",03-05-2024 23:00:00,13.1276288,78.1570122,NH3,NA,NA,NA
India,Karnataka,Madikeri,"Stuart Hill, Madikeri - KSPCB",03-05-2024 23:00:00,12.415911,75.735050,PM2.5,NA,NA,NA
India,Karnataka,Madikeri,"Stuart Hill, Madikeri - KSPCB",03-05-2024 23:00:00,12.415911,75.735050,NH3,1,3,1
India,Karnataka,Madikeri,"Stuart Hill, Madikeri - KSPCB",03-05-2024 23:00:00,12.415911,75.735050,SO2,4,4,4
