country,state,city,station,last_update,latitude,longitude,pollutant_id,pollutant_min,pollutant_max,pollutant_avg
India,Andhra_Pradesh,Amaravati,"Secretariat, Amaravati - APPCB",22-03-2024 21:00:00,16.5150833,80.5181667,PM2.5,16,43,31
India,Andhra_Pradesh,Amaravati,"Secretariat, Amaravati - APPCB",22-03-2024 21:00:00,16.5150833,80.5181667,NH3,4,5,4
India,Andhra_Pradesh,Anantapur,"Gulzarpet, Anantapur - APPCB",22-03-2024 21:00:00,14.675886,77.593027,NH3,NA,NA,NA
India,Andhra_Pradesh,Chittoor,"Gangineni Cheruvu, Chittoor - APPCB",22-03-2024 21:00:00,13.204880,79.097889,SO2,NA,NA,NA
India,Andhra_Pradesh,Chittoor,"Gangineni Cheruvu, Chittoor - APPCB",22-03-2024 21:00:00,13.204880,79.097889,OZONE,NA,NA,NA
India,Andhra_Pradesh,Kadapa,"Yerramukkapalli, Kadapa - APPCB",22-03-2024 21:00:00,14.465052,78.824187,PM10,20,65,37
India,Andhra_Pradesh,Rajamahendravaram,"Anand Kala Kshetram, Rajamahendravaram - APPCB",22-03-2024 21:00:00,16.9872867,81.7363176,CO,18,87,46
India,Andhra_Pradesh,Tirupati,"Tirumala, Tirupati - APPCB",22-03-2024 21:00:00,13.67,79.35,NO2,19,32,22
India,Andhra_Pradesh,Tirupati,"Tirumala, Tirupati - APPCB",22-03-2024 21:00:00,13.67,79.35,NH3,1,1,1
India,Andhra_Pradesh,Tirupati,"Tirumala, Tirupati - APPCB",22-03-2024 21:00:00,13.67,79.35,CO,21,40,28
India,Andhra_Pradesh,Tirupati,"Vaikuntapuram, Tirupati - APPCB",22-03-2024 21:00:00,13.615387,79.409230,OZONE,1,51,35
India,Andhra_Pradesh,Vijayawada,"HB Colony, Vijayawada - APPCB",22-03-2024 21:00:00,16.536107,80.594233,SO2,3,6,4
India,Andhra_Pradesh,Vijayawada,"HB Colony, Vijayawada - APPCB",22-03-2024 21:00:00,16.536107,80.594233,CO,34,48,35
India,Andhra_Pradesh,Vijayawada,"Kanuru, Vijayawada - APPCB",22-03-2024 21:00:00,16.486692,80.699436,NO2,14,19,15
India,Andhra_Pradesh,Vijayawada,"Kanuru, Vijayawada - APPCB",22-03-2024 21:00:00,16.486692,80.699436,SO2,9,12,10
India,Andhra_Pradesh,Vijayawada,"Kanuru, Vijayawada - APPCB",22-03-2024 21:00:00,16.486692,80.699436,CO,26,60,38
India,Andhra_Pradesh,Visakhapatnam,"GVM Corporation, Visakhapatnam - APPCB",22-03-2024 21:00:00,17.72,83.3,PM10,52,163,95
India,Andhra_Pradesh,Visakhapatnam,"GVM Corporation, Visakhapatnam - APPCB",22-03-2024 21:00:00,17.72,83.3,NH3,3,7,4
India,Arunachal_Pradesh,Naharlagun,"Naharlagun, Naharlagun - APSPCB",22-03-2024 21:00:00,27.103358,93.679645,CO,11,28,15
India,Assam,Guwahati,"IITG, Guwahati - PCBA",22-03-2024 21:00:00,26.2028636,91.70046436,PM2.5,50,300,124
India,Assam,Guwahati,"Pan Bazaar, Guwahati - PCBA",22-03-2024 21:00:00,26.187500,91.744194,PM2.5,55,147,90
India,Assam,Guwahati,"Railway Colony, Guwahati - PCBA",22-03-2024 21:00:00,26.181742,91.78063,PM2.5,1,96,67
India,Assam,Nagaon,"Christianpatty, Nagaon - PCBA",22-03-2024 21:00:00,26.349082,92.68449,NO2,6,44,16
India,Assam,Nagaon,"Christianpatty, Nagaon - PCBA",22-03-2024 21:00:00,26.349082,92.68449,CO,5,72,55
India,Assam,Nalbari,"Bata Chowk, Nalbari - PCBA",22-03-2024 21:00:00,26.446912,91.439057,OZONE,10,107,83
India,Assam,Silchar,"Tarapur, Silchar - PCBA",22-03-2024 21:00:00,24.82827,92.79525,PM2.5,17,36,26
India,Assam,Silchar,"Tarapur, Silchar - PCBA",22-03-2024 21:00:00,24.82827,92.79525,CO,32,46,35
India,Assam,Sivasagar,"Girls College, Sivasagar - PCBA",22-03-2024 21:00:00,26.987634,94.636574,SO2,5,5,5
India,Assam,Sivasagar,"Girls College, Sivasagar - PCBA",22-03-2024 21:00:00,26.987634,94.636574,CO,2,8,3
India,Assam,Sivasagar,"Girls College, Sivasagar - PCBA",22-03-2024 21:00:00,26.987634,94.636574,OZONE,1,6,3
India,Bihar,Araria,"Kharahiya Basti, Araria - BSPCB",22-03-2024 21:00:00,26.146529,87.454184,PM10,22,184,53
India,Bihar,Araria,"Kharahiya Basti, Araria - BSPCB",22-03-2024 21:00:00,26.146529,87.454184,NH3,6,8,7
India,Bihar,Araria,"Kharahiya Basti, Araria - BSPCB",22-03-2024 21:00:00,26.146529,87.454184,SO2,10,16,14
India,Bihar,Araria,"Kharahiya Basti, Araria - BSPCB",22-03-2024 21:00:00,26.146529,87.454184,CO,18,28,22
India,Bihar,Arrah,"New DM Office, Arrah - BSPCB",22-03-2024 21:00:00,25.5626095,84.663264,CO,4,16,9
India,Bihar,Aurangabad,"Gurdeo Nagar, Aurangabad - BSPCB",22-03-2024 21:00:00,24.75746,84.366208,NH3,6,9,8
India,Bihar,Bettiah,"Kamalnath Nagar, Bettiah - BSPCB",22-03-2024 21:00:00,26.80365,84.51954,PM10,75,188,110
India,Bihar,Bhagalpur,"DM Office_Kachari Chowk, Bhagalpur - BSPCB",22-03-2024 21:00:00,25.251013,86.989001,PM2.5,12,193,74
India,Bihar,Bhagalpur,"DM Office_Kachari Chowk, Bhagalpur - BSPCB",22-03-2024 21:00:00,25.251013,86.989001,SO2,16,53,28
India,Bihar,Bhagalpur,"Mayaganj, Bhagalpur - BSPCB",22-03-2024 21:00:00,25.265194,87.012947,SO2,11,12,12
India,Bihar,Bihar Sharif,"D M Colony, Bihar Sharif - BSPCB",22-03-2024 21:00:00,25.204762,85.514960,PM10,42,101,67
India,Bihar,Bihar Sharif,"D M Colony, Bihar Sharif - BSPCB",22-03-2024 21:00:00,25.204762,85.514960,NO2,8,10,9
India,Bihar,Buxar,"Charitra Van, Buxar - BSPCB (Formerly known as Central Jail)",22-03-2024 21:00:00,25.567520,83.966379,NO2,37,180,81
India,Bihar,Buxar,"Charitra Van, Buxar - BSPCB (Formerly known as Central Jail)",22-03-2024 21:00:00,25.567520,83.966379,OZONE,6,158,127
India,Bihar,Gaya,"Collectorate, Gaya - BSPCB",22-03-2024 21:00:00,24.7955,84.9994,NO2,1,4,3
India,Bihar,Gaya,"Kareemganj, Gaya - BSPCB",22-03-2024 21:00:00,24.792403,84.992416,NO2,30,31,30
India,Bihar,Hajipur,"Industrial Area, Hajipur - BSPCB",22-03-2024 21:00:00,25.697189,85.245900,NH3,2,7,6
India,Bihar,Hajipur,"Industrial Area, Hajipur - BSPCB",22-03-2024 21:00:00,25.697189,85.245900,OZONE,47,192,162
India,Bihar,Katihar,"Mirchaibari, Katihar - BSPCB",22-03-2024 21:00:00,25.560083,87.553265,PM2.5,NA,NA,NA
India,Bihar,Katihar,"Mirchaibari, Katihar - BSPCB",22-03-2024 21:00:00,25.560083,87.553265,PM10,NA,NA,NA
India,Bihar,Katihar,"Mirchaibari, Katihar - BSPCB",22-03-2024 21:00:00,25.560083,87.553265,CO,13,13,13
India,Bihar,Kishanganj,"SDM Office_Khagra, Kishanganj - BSPCB",22-03-2024 21:00:00,26.0881305,87.93840336,NO2,NA,NA,NA
India,Bihar,Kishanganj,"SDM Office_Khagra, Kishanganj - BSPCB",22-03-2024 21:00:00,26.0881305,87.93840336,NH3,NA,NA,NA
India,Bihar,Kishanganj,"SDM Office_Khagra, Kishanganj - BSPCB",22-03-2024 21:00:00,26.0881305,87.93840336,OZONE,19,41,27
India,Bihar,Motihari,"Gandak Colony, Motihari - BSPCB",22-03-2024 21:00:00,26.63086,84.90051,SO2,2,22,16
India,Bihar,Muzaffarpur,"Buddha Colony, Muzaffarpur - BSPCB",22-03-2024 21:00:00,26.11442,85.39813,PM2.5,61,273,140
India,Bihar,Muzaffarpur,"Buddha Colony, Muzaffarpur - BSPCB",22-03-2024 21:00:00,26.11442,85.39813,PM10,70,185,124
India,Bihar,Patna,"DRM Office Danapur, Patna - BSPCB",22-03-2024 21:00:00,25.586562,85.043586,PM2.5,59,231,107
India,Bihar,Patna,"IGSC Planetarium Complex, Patna - BSPCB",22-03-2024 21:00:00,25.610369,85.132568,PM2.5,66,306,169
India,Bihar,Patna,"IGSC Planetarium Complex, Patna - BSPCB",22-03-2024 21:00:00,25.610369,85.132568,SO2,5,5,5
India,Bihar,Patna,"IGSC Planetarium Complex, Patna - BSPCB",22-03-2024 21:00:00,25.610369,85.132568,CO,12,13,12
India,Bihar,Patna,"Rajbansi Nagar, Patna - BSPCB",22-03-2024 21:00:00,25.599486,85.113666,PM10,81,167,139
India,Bihar,Patna,"Rajbansi Nagar, Patna - BSPCB",22-03-2024 21:00:00,25.599486,85.113666,NO2,17,39,23
India,Bihar,Patna,"Rajbansi Nagar, Patna - BSPCB",22-03-2024 21:00:00,25.599486,85.113666,NH3,3,4,4
India,Bihar,Patna,"Rajbansi Nagar, Patna - BSPCB",22-03-2024 21:00:00,25.599486,85.113666,CO,20,80,45
India,Bihar,Patna,"Samanpura, Patna - BSPCB",22-03-2024 21:00:00,25.596727,85.085624,PM2.5,120,333,239
India,Bihar,Patna,"Samanpura, Patna - BSPCB",22-03-2024 21:00:00,25.596727,85.085624,NH3,8,14,11
India,Bihar,Purnia,"Mariam Nagar, Purnia - BSPCB",22-03-2024 21:00:00,25.366336,87.117468,PM10,21,181,61
India,Bihar,Rajgir,"Dangi Tola, Rajgir - BSPCB",22-03-2024 21:00:00,25.03280,85.41948,PM10,15,149,67
India,Bihar,Rajgir,"Dangi Tola, Rajgir - BSPCB",22-03-2024 21:00:00,25.03280,85.41948,SO2,4,4,4
India,Bihar,Rajgir,"Dangi Tola, Rajgir - BSPCB",22-03-2024 21:00:00,25.03280,85.41948,OZONE,6,23,22
India,Bihar,Siwan,"Chitragupta Nagar, Siwan - BSPCB",22-03-2024 21:00:00,26.2271665,84.3570427,SO2,24,34,31
India,Bihar,Siwan,"Chitragupta Nagar, Siwan - BSPCB",22-03-2024 21:00:00,26.2271665,84.3570427,OZONE,2,80,50
India,Chandigarh,Chandigarh,"Sector 22, Chandigarh - CPCC",22-03-2024 21:00:00,30.735567,76.775714,NO2,19,85,38
India,Chandigarh,Chandigarh,"Sector 22, Chandigarh - CPCC",22-03-2024 21:00:00,30.735567,76.775714,SO2,10,54,20
India,Chandigarh,Chandigarh,"Sector 22, Chandigarh - CPCC",22-03-2024 21:00:00,30.735567,76.775714,OZONE,52,162,105
India,Chandigarh,Chandigarh,"Sector-25, Chandigarh - CPCC",22-03-2024 21:00:00,30.751462,76.762879,PM10,124,147,138
India,Chandigarh,Chandigarh,"Sector-25, Chandigarh - CPCC",22-03-2024 21:00:00,30.751462,76.762879,NH3,15,29,21
India,Chandigarh,Chandigarh,"Sector-25, Chandigarh - CPCC",22-03-2024 21:00:00,30.751462,76.762879,SO2,6,17,11
India,Chandigarh,Chandigarh,"Sector-53, Chandigarh - CPCC",22-03-2024 21:00:00,30.719859,76.738637,OZONE,17,68,55
India,Chhattisgarh,Bhilai,"32Bungalows, Bhilai - CECB",22-03-2024 21:00:00,21.194815,81.314770,NO2,29,38,35
India,Chhattisgarh,Bhilai,"Hathkhoj, Bhilai - CECB",22-03-2024 21:00:00,21.224231,81.408350,NO2,21,64,37
India,Chhattisgarh,Bhilai,"Hathkhoj, Bhilai - CECB",22-03-2024 21:00:00,21.224231,81.408350,OZONE,3,19,16
India,Chhattisgarh,Chhal,"Nawapara SECL Colony, Chhal - CECB",22-03-2024 21:00:00,22.118125,83.140608,NO2,17,57,29
India,Chhattisgarh,Chhal,"Nawapara SECL Colony, Chhal - CECB",22-03-2024 21:00:00,22.118125,83.140608,SO2,13,80,38
India,Chhattisgarh,Korba,"Urja Nagar, Korba - CECB",22-03-2024 21:00:00,22.348441,82.549611,PM2.5,4,12,8
India,Chhattisgarh,Korba,"Urja Nagar, Korba - CECB",22-03-2024 21:00:00,22.348441,82.549611,NO2,64,83,70
India,Chhattisgarh,Korba,"Urja Nagar, Korba - CECB",22-03-2024 21:00:00,22.348441,82.549611,NH3,5,8,6
India,Chhattisgarh,Korba,"Urja Nagar, Korba - CECB",22-03-2024 21:00:00,22.348441,82.549611,CO,28,47,32
India,Chhattisgarh,Milupara,"Govt. Higher Secondary School, Milupara - CECB",22-03-2024 21:00:00,22.1910172,83.5197009,PM2.5,9,83,35
India,Chhattisgarh,Milupara,"Govt. Higher Secondary School, Milupara - CECB",22-03-2024 21:00:00,22.1910172,83.5197009,NH3,1,2,1
India,Chhattisgarh,Milupara,"Govt. Higher Secondary School, Milupara - CECB",22-03-2024 21:00:00,22.1910172,83.5197009,OZONE,2,38,26
India,Chhattisgarh,Raipur,"AIIMS, Raipur - CECB",22-03-2024 21:00:00,21.258815,81.578979,PM2.5,24,76,52
India,Chhattisgarh,Raipur,"AIIMS, Raipur - CECB",22-03-2024 21:00:00,21.258815,81.578979,NO2,NA,NA,NA
India,Chhattisgarh,Raipur,"AIIMS, Raipur - CECB",22-03-2024 21:00:00,21.258815,81.578979,OZONE,1,10,7
India,Chhattisgarh,Raipur,"Bhatagaon New ISBT, Raipur - CECB",22-03-2024 21:00:00,21.219665,81.630094,CO,36,98,45
India,Chhattisgarh,Raipur,"Krishak Nagar, Raipur - CECB",22-03-2024 21:00:00,21.237755,81.705301,PM10,61,98,79
India,Chhattisgarh,Raipur,"Siltara Phase-II, Raipur - CECB",22-03-2024 21:00:00,21.371751,81.664929,PM2.5,NA,NA,NA
India,Chhattisgarh,Raipur,"Siltara Phase-II, Raipur - CECB",22-03-2024 21:00:00,21.371751,81.664929,PM10,NA,NA,NA
India,Chhattisgarh,Raipur,"Siltara Phase-II, Raipur - CECB",22-03-2024 21:00:00,21.371751,81.664929,OZONE,3,56,25
India,Chhattisgarh,Tumidih,"OP Jindal Industrial Park, Tumidih - CECB",22-03-2024 21:00:00,22.06631475,83.33820077,PM10,39,202,78
India,Delhi,Delhi,"Alipur, Delhi - DPCC",22-03-2024 21:00:00,28.815329,77.153010,NO2,11,43,25
India,Delhi,Delhi,"Alipur, Delhi - DPCC",22-03-2024 21:00:00,28.815329,77.153010,CO,36,78,47
India,Delhi,Delhi,"Anand Vihar, Delhi - DPCC",22-03-2024 21:00:00,28.647622,77.3158090,NO2,NA,NA,NA
India,Delhi,Delhi,"Anand Vihar, Delhi - DPCC",22-03-2024 21:00:00,28.647622,77.3158090,CO,20,123,99
India,Delhi,Delhi,"Ashok Vihar, Delhi - DPCC",22-03-2024 21:00:00,28.695381,77.181665,CO,32,100,52
India,Delhi,Delhi,"Aya Nagar, Delhi - IMD",22-03-2024 21:00:00,28.4706914,77.1099364,NO2,11,29,18
India,Delhi,Delhi,"Bawana, Delhi - DPCC",22-03-2024 21:00:00,28.776200,77.051074,PM10,136,428,194
India,Delhi,Delhi,"Bawana, Delhi - DPCC",22-03-2024 21:00:00,28.776200,77.051074,NO2,25,105,44
India,Delhi,Delhi,"Bawana, Delhi - DPCC",22-03-2024 21:00:00,28.776200,77.051074,OZONE,6,233,144
India,Delhi,Delhi,"Burari Crossing, Delhi - IMD",22-03-2024 21:00:00,28.7256504,77.2011573,OZONE,12,87,50
India,Delhi,Delhi,"CRRI Mathura Road, Delhi - IMD",22-03-2024 21:00:00,28.5512005,77.2735737,PM10,71,133,99
India,Delhi,Delhi,"CRRI Mathura Road, Delhi - IMD",22-03-2024 21:00:00,28.5512005,77.2735737,CO,29,68,36
India,Delhi,Delhi,"DTU, Delhi - CPCB",22-03-2024 21:00:00,28.7500499,77.1112615,PM2.5,91,302,148
India,Delhi,Delhi,"DTU, Delhi - CPCB",22-03-2024 21:00:00,28.7500499,77.1112615,PM10,119,285,153
India,Delhi,Delhi,"DTU, Delhi - CPCB",22-03-2024 21:00:00,28.7500499,77.1112615,NH3,9,16,12
India,Delhi,Delhi,"DTU, Delhi - CPCB",22-03-2024 21:00:00,28.7500499,77.1112615,CO,35,50,41
India,Delhi,Delhi,"DTU, Delhi - CPCB",22-03-2024 21:00:00,28.7500499,77.1112615,OZONE,27,134,83
India,Delhi,Delhi,"Dwarka-Sector 8, Delhi - DPCC ",22-03-2024 21:00:00,28.5710274,77.0719006,SO2,6,13,8
India,Delhi,Delhi,"IGI Airport (T3), Delhi - IMD",22-03-2024 21:00:00,28.5627763,77.1180053,CO,20,68,33
India,Delhi,Delhi,"IHBAS, Dilshad Garden, Delhi - CPCB",22-03-2024 21:00:00,28.6811736,77.3025234,PM10,98,137,110
India,Delhi,Delhi,"ITO, Delhi - CPCB",22-03-2024 21:00:00,28.628624,77.241060,PM10,91,199,150
India,Delhi,Delhi,"ITO, Delhi - CPCB",22-03-2024 21:00:00,28.628624,77.241060,NH3,1,9,5
India,Delhi,Delhi,"Jahangirpuri, Delhi - DPCC",22-03-2024 21:00:00,28.732820,77.170633,PM2.5,82,310,138
India,Delhi,Delhi,"Jahangirpuri, Delhi - DPCC",22-03-2024 21:00:00,28.732820,77.170633,NO2,35,125,58
India,Delhi,Delhi,"Jawaharlal Nehru Stadium, Delhi - DPCC",22-03-2024 21:00:00,28.580280,77.233829,SO2,19,27,23
India,Delhi,Delhi,"Lodhi Road, Delhi - IITM",22-03-2024 21:00:00,28.588333,77.221667,NH3,8,13,9
India,Delhi,Delhi,"Lodhi Road, Delhi - IMD",22-03-2024 21:00:00,28.5918245,77.2273074,PM2.5,86,152,114
India,Delhi,Delhi,"Mundka, Delhi - DPCC",22-03-2024 21:00:00,28.684678,77.076574,PM10,127,334,166
India,Delhi,Delhi,"NSIT Dwarka, Delhi - CPCB",22-03-2024 21:00:00,28.60909,77.0325413,PM10,110,203,133
India,Delhi,Delhi,"Narela, Delhi - DPCC",22-03-2024 21:00:00,28.822836,77.101981,CO,49,106,69
India,Delhi,Delhi,"Nehru Nagar, Delhi - DPCC",22-03-2024 21:00:00,28.567890,77.250515,CO,8,110,76
India,Delhi,Delhi,"Nehru Nagar, Delhi - DPCC",22-03-2024 21:00:00,28.567890,77.250515,OZONE,4,111,69
India,Delhi,Delhi,"New Moti Bagh, Delhi - MHUA",22-03-2024 21:00:00,28.57834,77.18400,PM2.5,88,303,163
India,Delhi,Delhi,"New Moti Bagh, Delhi - MHUA",22-03-2024 21:00:00,28.57834,77.18400,CO,31,67,41
India,Delhi,Delhi,"Okhla Phase-2, Delhi - DPCC",22-03-2024 21:00:00,28.530785,77.271255,NO2,38,183,69
India,Delhi,Delhi,"Okhla Phase-2, Delhi - DPCC",22-03-2024 21:00:00,28.530785,77.271255,NH3,11,13,12
India,Delhi,Delhi,"Punjabi Bagh, Delhi - DPCC",22-03-2024 21:00:00,28.674045,77.131023,PM2.5,79,302,155
India,Delhi,Delhi,"Punjabi Bagh, Delhi - DPCC",22-03-2024 21:00:00,28.674045,77.131023,NO2,43,95,54
India,Delhi,Delhi,"Punjabi Bagh, Delhi - DPCC",22-03-2024 21:00:00,28.674045,77.131023,SO2,17,26,23
India,Delhi,Delhi,"Punjabi Bagh, Delhi - DPCC",22-03-2024 21:00:00,28.674045,77.131023,CO,36,103,57
India,Delhi,Delhi,"Pusa, Delhi - DPCC",22-03-2024 21:00:00,28.639652,77.146275,PM10,116,215,140
India,Delhi,Delhi,"Pusa, Delhi - DPCC",22-03-2024 21:00:00,28.639652,77.146275,OZONE,14,139,92
India,Delhi,Delhi,"R K Puram, Delhi - DPCC",22-03-2024 21:00:00,28.563262,77.186937,NH3,2,6,3
India,Delhi,Delhi,"R K Puram, Delhi - DPCC",22-03-2024 21:00:00,28.563262,77.186937,OZONE,15,201,129
India,Delhi,Delhi,"Sonia Vihar, Delhi - DPCC",22-03-2024 21:00:00,28.710508,77.249485,PM10,126,221,160
India,Delhi,Delhi,"Sonia Vihar, Delhi - DPCC",22-03-2024 21:00:00,28.710508,77.249485,OZONE,17,105,76
India,Delhi,Delhi,"Sri Aurobindo Marg, Delhi - DPCC",22-03-2024 21:00:00,28.531346,77.190156,SO2,8,22,15
India,Delhi,Delhi,"Vivek Vihar, Delhi - DPCC",22-03-2024 21:00:00,28.672342,77.315260,CO,29,36,31
India,Delhi,Delhi,"Wazirpur, Delhi - DPCC",22-03-2024 21:00:00,28.699793,77.165453,SO2,8,39,20
India,Delhi,Delhi,"Wazirpur, Delhi - DPCC",22-03-2024 21:00:00,28.699793,77.165453,CO,23,107,51
India,Gujarat,Ahmedabad,"Gyaspur, Ahmedabad - IITM",22-03-2024 21:00:00,22.977134,72.553024,SO2,4,5,4
India,Gujarat,Ahmedabad,"Raikhad, Ahmedabad - IITM",22-03-2024 21:00:00,23.020509,72.579261,OZONE,8,43,30
India,Gujarat,Ahmedabad,"Rakhial, Ahmedabad - IITM",22-03-2024 21:00:00,23.016834,72.625775,NO2,18,111,60
India,Gujarat,Ahmedabad,"SAC ISRO Satellite, Ahmedabad - IITM",22-03-2024 21:00:00,23.023389,72.515201,NO2,17,17,17
India,Gujarat,Ahmedabad,"SAC ISRO Satellite, Ahmedabad - IITM",22-03-2024 21:00:00,23.023389,72.515201,CO,31,36,34
India,Gujarat,Ahmedabad,"SVPI Airport Hansol, Ahmedabad - IITM",22-03-2024 21:00:00,23.076793,72.627874,NO2,15,19,17
India,Gujarat,Ahmedabad,"SVPI Airport Hansol, Ahmedabad - IITM",22-03-2024 21:00:00,23.076793,72.627874,NH3,4,5,4
India,Gujarat,Ahmedabad,"Sardar Vallabhbhai Patel Stadium, Ahmedabad - IITM",22-03-2024 21:00:00,23.043070,72.562968,CO,27,109,41
India,Gujarat,Ankleshwar,"GIDC, Ankleshwar - GPCB",22-03-2024 21:00:00,21.613267,73.010555,NO2,36,37,37
India,Gujarat,Ankleshwar,"GIDC, Ankleshwar - GPCB",22-03-2024 21:00:00,21.613267,73.010555,NH3,7,7,7
India,Gujarat,Gandhinagar,"GIFT City, Gandhinagar - IITM",22-03-2024 21:00:00,23.163798,72.677768,NO2,14,15,15
India,Gujarat,Gandhinagar,"IIPHG Lekawada, Gandhinagar - IITM",22-03-2024 21:00:00,23.243639,72.68994,NH3,6,7,7
India,Gujarat,Gandhinagar,"IIPHG Lekawada, Gandhinagar - IITM",22-03-2024 21:00:00,23.243639,72.68994,OZONE,10,51,42
India,Gujarat,Gandhinagar,"Sector-10, Gandhinagar - GPCB",22-03-2024 21:00:00,23.221714,72.654328,PM10,48,106,81
India,Gujarat,Gandhinagar,"Sector-10, Gandhinagar - GPCB",22-03-2024 21:00:00,23.221714,72.654328,NH3,1,2,1
India,Gujarat,Gandhinagar,"Sector-10, Gandhinagar - GPCB",22-03-2024 21:00:00,23.221714,72.654328,OZONE,2,21,11
India,Gujarat,Nandesari,"GIDC, Nandesari - Nandesari Ind. Association",22-03-2024 21:00:00,22.410802,73.097923,PM2.5,74,409,262
India,Gujarat,Surat,"Science Center, Surat - SMC",22-03-2024 21:00:00,21.170046,72.795405,PM10,24,162,69
India,Gujarat,Vatva,"Phase-4 GIDC, Vatva - GPCB",22-03-2024 21:00:00,22.969611,72.643500,SO2,19,101,40
India,Gujarat,Vatva,"Phase-4 GIDC, Vatva - GPCB",22-03-2024 21:00:00,22.969611,72.643500,CO,16,185,36
India,Gujarat,Vatva,"Phase-4 GIDC, Vatva - GPCB",22-03-2024 21:00:00,22.969611,72.643500,OZONE,7,56,35
India,Haryana,Ambala,"Patti Mehar, Ambala - HSPCB",22-03-2024 21:00:00,30.379589,76.778328,PM2.5,NA,NA,NA
India,Haryana,Ambala,"Patti Mehar, Ambala - HSPCB",22-03-2024 21:00:00,30.379589,76.778328,NO2,NA,NA,NA
India,Haryana,Bahadurgarh,"Arya Nagar, Bahadurgarh - HSPCB",22-03-2024 21:00:00,28.6701,76.9254,PM2.5,42,117,81
India,Haryana,Bahadurgarh,"Arya Nagar, Bahadurgarh - HSPCB",22-03-2024 21:00:00,28.6701,76.9254,SO2,12,17,14
India,Haryana,Ballabgarh,"Nathu Colony, Ballabgarh - HSPCB",22-03-2024 21:00:00,28.3419248,77.319699,PM10,47,144,108
India,Haryana,Ballabgarh,"Nathu Colony, Ballabgarh - HSPCB",22-03-2024 21:00:00,28.3419248,77.319699,SO2,1,26,11
India,Haryana,Bhiwani,"H.B. Colony, Bhiwani - HSPCB",22-03-2024 21:00:00,28.806223,76.141105,PM2.5,90,235,141
India,Haryana,Bhiwani,"H.B. Colony, Bhiwani - HSPCB",22-03-2024 21:00:00,28.806223,76.141105,NO2,5,11,8
India,Haryana,Dharuhera,"Municipal Corporation Office, Dharuhera -  HSPCB",22-03-2024 21:00:00,28.206800,76.799700,NH3,9,25,18
India,Haryana,Faridabad,"New Industrial Town, Faridabad - HSPCB",22-03-2024 21:00:00,28.39072,77.30059,SO2,17,20,18
India,Haryana,Faridabad,"Sector 11, Faridabad - HSPCB",22-03-2024 21:00:00,28.376058,77.315741,SO2,5,122,11
India,Haryana,Faridabad,"Sector 30, Faridabad - HSPCB",22-03-2024 21:00:00,28.4417,77.3217,PM10,140,150,143
India,Haryana,Faridabad,"Sector 30, Faridabad - HSPCB",22-03-2024 21:00:00,28.4417,77.3217,CO,20,104,52
India,Haryana,Faridabad,"Sector- 16A, Faridabad - HSPCB",22-03-2024 21:00:00,28.4088421,77.3099081,NO2,3,22,10
India,Haryana,Gurugram,"Sector-51, Gurugram - HSPCB",22-03-2024 21:00:00,28.4227,77.0667,PM10,129,187,145
India,Haryana,Gurugram,"Sector-51, Gurugram - HSPCB",22-03-2024 21:00:00,28.4227,77.0667,NO2,13,29,23
India,Haryana,Gurugram,"Sector-51, Gurugram - HSPCB",22-03-2024 21:00:00,28.4227,77.0667,OZONE,27,67,56
India,Haryana,Gurugram,"Teri Gram, Gurugram - HSPCB",22-03-2024 21:00:00,28.4275,77.1465,NO2,34,50,42
India,Haryana,Gurugram,"Teri Gram, Gurugram - HSPCB",22-03-2024 21:00:00,28.4275,77.1465,CO,20,27,24
India,Haryana,Gurugram,"Vikas Sadan, Gurugram - HSPCB",22-03-2024 21:00:00,28.4501238,77.0263051,NO2,5,26,14
India,Haryana,Hisar,"Urban Estate-II, Hisar - HSPCB",22-03-2024 21:00:00,29.140560,75.744941,PM10,104,135,117
India,Haryana,Hisar,"Urban Estate-II, Hisar - HSPCB",22-03-2024 21:00:00,29.140560,75.744941,SO2,1,78,19
India,Haryana,Jind,"Police Lines, Jind - HSPCB",22-03-2024 21:00:00,29.307814,76.337619,NO2,7,16,12
India,Haryana,Jind,"Police Lines, Jind - HSPCB",22-03-2024 21:00:00,29.307814,76.337619,SO2,9,29,17
India,Haryana,Jind,"Police Lines, Jind - HSPCB",22-03-2024 21:00:00,29.307814,76.337619,CO,2,97,40
India,Haryana,Kurukshetra,"Sector-7, Kurukshetra - HSPCB",22-03-2024 21:00:00,29.966942,76.875879,NH3,5,5,5
India,Haryana,Mandikhera,"General Hospital, Mandikhera - HSPCB",22-03-2024 21:00:00,27.9002,76.9938,PM2.5,24,63,49
India,Haryana,Mandikhera,"General Hospital, Mandikhera - HSPCB",22-03-2024 21:00:00,27.9002,76.9938,SO2,30,37,34
India,Haryana,Mandikhera,"General Hospital, Mandikhera - HSPCB",22-03-2024 21:00:00,27.9002,76.9938,CO,30,53,33
India,Haryana,Manesar,"Sector-2 IMT, Manesar - HSPCB",22-03-2024 21:00:00,28.360699,76.936090,NH3,2,4,3
India,Haryana,Narnaul,"Shastri Nagar, Narnaul - HSPCB",22-03-2024 21:00:00,28.060249,76.113115,NH3,4,24,11
India,Haryana,Palwal,"Shyam Nagar, Palwal - HSPCB",22-03-2024 21:00:00,28.1485564,77.3320667,NH3,8,9,9
India,Haryana,Palwal,"Shyam Nagar, Palwal - HSPCB",22-03-2024 21:00:00,28.1485564,77.3320667,CO,22,100,30
India,Haryana,Panchkula,"Sector-6, Panchkula - HSPCB ",22-03-2024 21:00:00,30.7057778,76.8531805555555,PM2.5,11,63,35
India,Haryana,Panchkula,"Sector-6, Panchkula - HSPCB ",22-03-2024 21:00:00,30.7057778,76.8531805555555,NO2,28,31,30
India,Haryana,Panipat,"Sector-18, Panipat - HSPCB",22-03-2024 21:00:00,29.497973,76.993331,NH3,2,3,2
India,Haryana,Rohtak,"MD University, Rohtak - HSPCB",22-03-2024 21:00:00,28.52123,76.37138,CO,26,60,46
India,Haryana,Sonipat,"Murthal, Sonipat - HSPCB",22-03-2024 21:00:00,29.027200,77.062100,NO2,37,44,40
India,Haryana,Yamuna Nagar,"Gobind Pura, Yamuna Nagar - HSPCB",22-03-2024 21:00:00,30.1480566,77.2893471,SO2,NA,NA,NA
India,Himachal Pradesh,Baddi,"HIMUDA Complex Phase-1, Baddi - HPPCB",22-03-2024 21:00:00,30.943887,76.801991,SO2,12,101,49
India,Himachal Pradesh,Baddi,"HIMUDA Complex Phase-1, Baddi - HPPCB",22-03-2024 21:00:00,30.943887,76.801991,OZONE,43,174,130
India,Jharkhand,Dhanbad,"Kalakusuma, Dhanbad - DMC",22-03-2024 21:00:00,23.811548,86.481238,OZONE,10,11,10
India,Jharkhand,Pathardih,"Mohalbani Ghat, Pathardih - DMC",22-03-2024 21:00:00,23.669880,86.411725,PM10,NA,NA,NA
India,Karnataka,Bagalkot,"Vidayagiri, Bagalkot - KSPCB",22-03-2024 21:00:00,16.172806,75.659694,PM2.5,25,37,36
India,Karnataka,Bagalkot,"Vidayagiri, Bagalkot - KSPCB",22-03-2024 21:00:00,16.172806,75.659694,PM10,46,46,46
India,Karnataka,Bagalkot,"Vidayagiri, Bagalkot - KSPCB",22-03-2024 21:00:00,16.172806,75.659694,CO,23,53,34
India,Karnataka,Bengaluru,"BTM Layout, Bengaluru - CPCB",22-03-2024 21:00:00,12.9135218,77.5950804,OZONE,48,124,88
India,Karnataka,Bengaluru,"Hebbal, Bengaluru - KSPCB",22-03-2024 21:00:00,13.029152,77.585901,OZONE,8,67,60
India,Karnataka,Bengaluru,"Hombegowda Nagar, Bengaluru - KSPCB",22-03-2024 21:00:00,12.938539,77.590100,SO2,4,4,4
India,Karnataka,Bengaluru,"Jayanagar 5th Block, Bengaluru - KSPCB",22-03-2024 21:00:00,12.920984,77.584908,NO2,8,22,11
India,Karnataka,Bengaluru,"Jayanagar 5th Block, Bengaluru - KSPCB",22-03-2024 21:00:00,12.920984,77.584908,CO,9,106,82
India,Karnataka,Bengaluru,"Kasturi Nagar, Bengaluru - KSPCB",22-03-2024 21:00:00,13.003872,77.664217,NO2,16,17,17
India,Karnataka,Bengaluru,"Kasturi Nagar, Bengaluru - KSPCB",22-03-2024 21:00:00,13.003872,77.664217,SO2,9,10,10
India,Karnataka,Bengaluru,"Peenya, Bengaluru - CPCB",22-03-2024 21:00:00,13.0270199,77.494094,CO,20,34,32
India,Karnataka,Bengaluru,"Shivapura_Peenya, Bengaluru - KSPCB",22-03-2024 21:00:00,13.0246342,77.5080115,NO2,15,16,15
India,Karnataka,Bengaluru,"Shivapura_Peenya, Bengaluru - KSPCB",22-03-2024 21:00:00,13.0246342,77.5080115,SO2,3,37,9
India,Karnataka,Bengaluru,"Shivapura_Peenya, Bengaluru - KSPCB",22-03-2024 21:00:00,13.0246342,77.5080115,OZONE,53,56,54
India,Karnataka,Bengaluru,"Silk Board, Bengaluru - KSPCB",22-03-2024 21:00:00,12.917348,77.622813,PM2.5,33,191,59
India,Karnataka,Bengaluru,"Silk Board, Bengaluru - KSPCB",22-03-2024 21:00:00,12.917348,77.622813,SO2,4,12,9
India,Karnataka,Bidar,"Naubad, Bidar - KSPCB",22-03-2024 21:00:00,17.930306,77.482194,PM10,76,104,87
India,Karnataka,Chamarajanagar,"Urban, Chamarajanagar - KSPCB",22-03-2024 21:00:00,11.55358,76.55521,SO2,2,9,5
India,Karnataka,Chamarajanagar,"Urban, Chamarajanagar - KSPCB",22-03-2024 21:00:00,11.55358,76.55521,CO,19,30,26
India,Karnataka,Chikkamagaluru,"Kalyana Nagara, Chikkamagaluru - KSPCB",22-03-2024 21:00:00,13.328028,75.797056,SO2,6,16,9
India,Karnataka,Chikkamagaluru,"Kalyana Nagara, Chikkamagaluru - KSPCB",22-03-2024 21:00:00,13.328028,75.797056,OZONE,11,67,42
India,Karnataka,Dharwad,"Kalabhavan, Dharwad - KSPCB",22-03-2024 21:00:00,15.459706,75.008381,PM10,25,46,34
India,Karnataka,Dharwad,"Kalabhavan, Dharwad - KSPCB",22-03-2024 21:00:00,15.459706,75.008381,NO2,10,33,18
India,Karnataka,Gadag,"Panchal Nagar, Gadag - KSPCB",22-03-2024 21:00:00,15.411456,75.638133,CO,43,53,46
India,Karnataka,Gadag,"Panchal Nagar, Gadag - KSPCB",22-03-2024 21:00:00,15.411456,75.638133,OZONE,42,73,67
India,Karnataka,Hassan,"B.Katihalli, Hassan - KSPCB",22-03-2024 21:00:00,13.008556,76.125258,PM2.5,58,87,70
India,Karnataka,Hubballi,"Deshpande Nagar, Hubballi - KSPCB",22-03-2024 21:00:00,15.351773,75.140726,NO2,NA,NA,NA
India,Karnataka,Kalaburagi,"Lal Bahadur Shastri Nagar, Kalaburagi - KSPCB",22-03-2024 21:00:00,17.321993,76.822628,PM10,39,154,67
India,Karnataka,Kalaburagi,"Lal Bahadur Shastri Nagar, Kalaburagi - KSPCB",22-03-2024 21:00:00,17.321993,76.822628,SO2,12,105,19
India,Karnataka,Kalaburagi,"Lal Bahadur Shastri Nagar, Kalaburagi - KSPCB",22-03-2024 21:00:00,17.321993,76.822628,CO,40,74,47
India,Karnataka,Kalaburagi,"Mahatma Basaveswar Colony, Kalaburgi - KSPCB",22-03-2024 21:00:00,17.336318,76.847397,NO2,8,16,14
India,Karnataka,Kalaburagi,"Mahatma Basaveswar Colony, Kalaburgi - KSPCB",22-03-2024 21:00:00,17.336318,76.847397,CO,37,103,53
India,Karnataka,Koppal,"Diwator Nagar, Koppal - KSPCB",22-03-2024 21:00:00,15.347630,76.181767,PM2.5,29,66,43
India,Karnataka,Koppal,"Diwator Nagar, Koppal - KSPCB",22-03-2024 21:00:00,15.347630,76.181767,PM10,30,67,43
India,Karnataka,Koppal,"Diwator Nagar, Koppal - KSPCB",22-03-2024 21:00:00,15.347630,76.181767,CO,73,86,77
India,Karnataka,Madikeri,"Stuart Hill, Madikeri - KSPCB",22-03-2024 21:00:00,12.415911,75.735050,PM2.5,41,90,54
India,Karnataka,Mangalore,"Kadri, Mangalore - KSPCB",22-03-2024 21:00:00,12.889250,74.853000,PM2.5,55,74,64
India,Karnataka,Mangalore,"Kadri, Mangalore - KSPCB",22-03-2024 21:00:00,12.889250,74.853000,NH3,2,2,2
India,Karnataka,Raichur,"Haji Colony, Raichur - KSPCB",22-03-2024 21:00:00,16.208139,77.348417,PM10,46,247,109
India,Karnataka,Raichur,"Haji Colony, Raichur - KSPCB",22-03-2024 21:00:00,16.208139,77.348417,NO2,14,52,31
India,Karnataka,Raichur,"Haji Colony, Raichur - KSPCB",22-03-2024 21:00:00,16.208139,77.348417,CO,92,121,103
India,Karnataka,Ramanagara,"Vijay Nagar, Ramanagara - KSPCB",22-03-2024 21:00:00,12.733409,77.298051,NO2,2,11,4
India,Karnataka,Shivamogga,"Vinoba Nagara, Shivamogga - KSPCB",22-03-2024 21:00:00,13.940000,75.555917,PM2.5,24,50,34
India,Karnataka,Tumakuru,"Thimmalapura, Tumakuru - KSPCB",22-03-2024 21:00:00,13.377516,77.099072,CO,28,32,31
India,Karnataka,Vijayapura,"Ibrahimpur, Vijayapura - KSPCB",22-03-2024 21:00:00,16.802639,75.722694,NO2,17,19,19
India,Karnataka,Vijayapura,"Ibrahimpur, Vijayapura - KSPCB",22-03-2024 21:00:00,16.802639,75.722694,OZONE,13,16,15
India,Karnataka,Yadgir,"Collector Office, Yadgir - KSPCB",22-03-2024 21:00:00,16.7602,77.1428,OZONE,18,19,19
India,Kerala,Kollam,"Polayathode, Kollam - Kerala PCB",22-03-2024 21:00:00,8.8787,76.6073,PM2.5,3,500,110
India,Kerala,Kollam,"Polayathode, Kollam - Kerala PCB",22-03-2024 21:00:00,8.8787,76.6073,NH3,1,1,1
India,Kerala,Thrissur,"Corporation Ground, Thrissur - Kerala PCB",22-03-2024 21:00:00,10.532400,76.215900,OZONE,27,33,30
India,Madhya Pradesh,Bhopal,"Idgah Hills, Bhopal - MPPCB",22-03-2024 21:00:00,23.264759,77.381568,NO2,18,39,27
India,Madhya Pradesh,Bhopal,"Idgah Hills, Bhopal - MPPCB",22-03-2024 21:00:00,23.264759,77.381568,OZONE,56,127,108
India,Madhya Pradesh,Bhopal,"Paryavaran Parisar, Bhopal - MPPCB",22-03-2024 21:00:00,23.210494,77.425409,SO2,2,28,23
India,Madhya Pradesh,Bhopal,"T T Nagar, Bhopal - MPPCB",22-03-2024 21:00:00,23.233584,77.400574,PM10,84,172,112
India,Madhya Pradesh,Bhopal,"T T Nagar, Bhopal - MPPCB",22-03-2024 21:00:00,23.233584,77.400574,NH3,1,6,3
India,Madhya Pradesh,Dewas,"Bhopal Chauraha, Dewas - MPPCB",22-03-2024 21:00:00,22.9682591,76.064118,NO2,11,13,13
India,Madhya Pradesh,Dewas,"Bhopal Chauraha, Dewas - MPPCB",22-03-2024 21:00:00,22.9682591,76.064118,CO,18,52,26
India,Madhya Pradesh,Dewas,"Bhopal Chauraha, Dewas - MPPCB",22-03-2024 21:00:00,22.9682591,76.064118,OZONE,18,94,69
India,Madhya Pradesh,Gwalior,"City Center, Gwalior - MPPCB",22-03-2024 21:00:00,26.203442,78.193251,PM10,53,156,84
India,Madhya Pradesh,Gwalior,"Deen Dayal Nagar, Gwalior - MPPCB",22-03-2024 21:00:00,26.259242,78.216432,OZONE,60,208,125
India,Madhya Pradesh,Gwalior,"Maharaj Bada, Gwalior - MPPCB",22-03-2024 21:00:00,26.200388,78.147714,SO2,15,44,20
India,Madhya Pradesh,Indore,"Chhoti Gwaltoli, Indore - MPPCB",22-03-2024 21:00:00,22.4310,75.5213,NO2,47,196,114
India,Madhya Pradesh,Indore,"Chhoti Gwaltoli, Indore - MPPCB",22-03-2024 21:00:00,22.4310,75.5213,OZONE,11,139,91
India,Madhya Pradesh,Indore,"Maguda Nagar, Indore - IMC",22-03-2024 21:00:00,22.7524,75.8872,PM10,43,185,104
India,Madhya Pradesh,Indore,"Residency Area, Indore - IMC",22-03-2024 21:00:00,22.7084,75.8815,PM10,55,185,103
India,Madhya Pradesh,Indore,"Residency Area, Indore - IMC",22-03-2024 21:00:00,22.7084,75.8815,NO2,12,79,44
India,Madhya Pradesh,Indore,"Residency Area, Indore - IMC",22-03-2024 21:00:00,22.7084,75.8815,OZONE,10,19,16
India,Madhya Pradesh,Jabalpur,"Govindh Bhavan Colony, Jabalpur - JMC",22-03-2024 21:00:00,23.163174,79.973061,NH3,6,14,10
India,Madhya Pradesh,Jabalpur,"Govindh Bhavan Colony, Jabalpur - JMC",22-03-2024 21:00:00,23.163174,79.973061,OZONE,19,108,82
India,Madhya Pradesh,Jabalpur,"Gupteshwar, Jabalpur - JMC",22-03-2024 21:00:00,23.142888,79.916147,NO2,1,118,22
India,Madhya Pradesh,Jabalpur,"Marhatal, Jabalpur - MPPCB",22-03-2024 21:00:00,23.168606,79.932247,PM2.5,39,265,80
India,Madhya Pradesh,Jabalpur,"Marhatal, Jabalpur - MPPCB",22-03-2024 21:00:00,23.168606,79.932247,SO2,10,21,13
India,Madhya Pradesh,Katni,"Gole Bazar, Katni - MPPCB",22-03-2024 21:00:00,23.50016,80.23284,SO2,10,28,19
India,Madhya Pradesh,Maihar,"Sahilara, Maihar - KJS Cements",22-03-2024 21:00:00,24.2613009,80.7231783,SO2,17,25,19
India,Madhya Pradesh,Mandideep,"Sector-D Industrial Area, Mandideep - MPPCB",22-03-2024 21:00:00,23.108440,77.511428,PM10,110,441,192
India,Madhya Pradesh,Mandideep,"Sector-D Industrial Area, Mandideep - MPPCB",22-03-2024 21:00:00,23.108440,77.511428,CO,16,79,20
India,Madhya Pradesh,Pithampur,"Sector-2 Industrial Area, Pithampur - MPPCB",22-03-2024 21:00:00,22.624758,75.675238,PM2.5,57,182,93
India,Madhya Pradesh,Pithampur,"Sector-2 Industrial Area, Pithampur - MPPCB",22-03-2024 21:00:00,22.624758,75.675238,PM10,99,220,141
India,Madhya Pradesh,Sagar,"Civil Lines, Sagar - MPPCB",22-03-2024 21:00:00,23.838586,78.759431,NO2,8,70,17
India,Madhya Pradesh,Sagar,"Deen Dayal Nagar, Sagar - MPPCB",22-03-2024 21:00:00,23.8640158,78.80289321,NO2,13,24,23
India,Madhya Pradesh,Satna,"Bandhavgar Colony, Satna - Birla Cement",22-03-2024 21:00:00,24.58434363,80.8549414,SO2,1,3,2
India,Madhya Pradesh,Singrauli,"Suryakiran Bhawan NCL, Singrauli - MPPCB",22-03-2024 21:00:00,24.108970,82.645580,NO2,15,83,47
India,Maharashtra,Ahmednagar,"Tarakpur, Ahmednagar - MPCB",22-03-2024 21:00:00,19.10122,74.73339,PM2.5,48,192,110
India,Maharashtra,Amravati,"Shivneri Colony, Amravati - MPCB",22-03-2024 21:00:00,20.9402359,77.7895248,SO2,22,23,22
India,Maharashtra,Amravati,"Shri Shivaji Science College, Amaravati - MPCB",22-03-2024 21:00:00,20.939198,77.765701,NH3,1,37,8
India,Maharashtra,Amravati,"Shri Shivaji Science College, Amaravati - MPCB",22-03-2024 21:00:00,20.939198,77.765701,SO2,1,12,3
India,Maharashtra,Amravati,"Shri Shivaji Science College, Amaravati - MPCB",22-03-2024 21:00:00,20.939198,77.765701,CO,22,124,54
India,Maharashtra,Amravati,"Shri Shivaji Science College, Amaravati - MPCB",22-03-2024 21:00:00,20.939198,77.765701,OZONE,1,163,100
India,Maharashtra,Aurangabad,"MIDC Chilkalthana, Aurangabad - MPCB",22-03-2024 21:00:00,19.875620,75.387310,PM2.5,72,226,135
India,Maharashtra,Aurangabad,"MIDC Chilkalthana, Aurangabad - MPCB",22-03-2024 21:00:00,19.875620,75.387310,CO,3,68,30
India,Maharashtra,Aurangabad,"More Chowk Waluj, Aurangabad - MPCB",22-03-2024 21:00:00,19.8389439,75.244448,PM10,70,175,115
India,Maharashtra,Aurangabad,"Rachnakar Colony, Aurangabad - MPCB",22-03-2024 21:00:00,19.863756,75.321188,NH3,1,2,1
India,Maharashtra,Aurangabad,"Rachnakar Colony, Aurangabad - MPCB",22-03-2024 21:00:00,19.863756,75.321188,OZONE,19,121,90
India,Maharashtra,Belapur,"CBD Belapur, Belapur - MPCB",22-03-2024 21:00:00,19.0243902,73.0406721,NH3,11,36,21
India,Maharashtra,Boisar,"Khaira, Boisar - MPCB",22-03-2024 21:00:00,19.786089,72.757971,NO2,25,150,74
India,Maharashtra,Chandrapur,"MIDC Khutala, Chandrapur - MPCB",22-03-2024 21:00:00,19.9775302,79.2337086,PM10,76,174,119
India,Maharashtra,Chandrapur,"MIDC Khutala, Chandrapur - MPCB",22-03-2024 21:00:00,19.9775302,79.2337086,NH3,1,3,1
India,Maharashtra,Chandrapur,"MIDC Khutala, Chandrapur - MPCB",22-03-2024 21:00:00,19.9775302,79.2337086,CO,18,76,35
India,Maharashtra,Dhule,"Deopur, Dhule - MPCB",22-03-2024 21:00:00,20.918946,74.776388,PM2.5,69,341,130
India,Maharashtra,Dhule,"Deopur, Dhule - MPCB",22-03-2024 21:00:00,20.918946,74.776388,NO2,4,25,8
India,Maharashtra,Dhule,"Deopur, Dhule - MPCB",22-03-2024 21:00:00,20.918946,74.776388,CO,6,52,10
India,Maharashtra,Jalgaon,"Prabhat Colony, Jalgaon - MPCB",22-03-2024 21:00:00,21.001264,75.565602,NO2,16,161,62
India,Maharashtra,Jalgaon,"Prabhat Colony, Jalgaon - MPCB",22-03-2024 21:00:00,21.001264,75.565602,OZONE,5,103,73
India,Maharashtra,Kalyan,"Khadakpada, Kalyan - MPCB",22-03-2024 21:00:00,19.25292,73.142019,CO,22,66,26
India,Maharashtra,Kolhapur,"Sinchan Bhavan, Kolhapur - MPCB",22-03-2024 21:00:00,16.7143745,74.2426398,SO2,1,7,2
India,Maharashtra,Kolhapur,"Sinchan Bhavan, Kolhapur - MPCB",22-03-2024 21:00:00,16.7143745,74.2426398,CO,20,40,30
India,Maharashtra,Latur,"Sawe Wadi, Latur - MPCB",22-03-2024 21:00:00,18.39963,76.57452,PM2.5,65,310,123
India,Maharashtra,Latur,"Sawe Wadi, Latur - MPCB",22-03-2024 21:00:00,18.39963,76.57452,NO2,15,186,55
India,Maharashtra,Mahad,"Kamble Tarf Birwadi, Mahad - MPCB",22-03-2024 21:00:00,18.1023399,73.4783687,PM10,91,135,110
India,Maharashtra,Mira-Bhayandar,"Bhayandar West, Mira-Bhayandar - MPCB",22-03-2024 21:00:00,19.296481,72.840923,PM2.5,10,323,230
India,Maharashtra,Mira-Bhayandar,"Bhayandar West, Mira-Bhayandar - MPCB",22-03-2024 21:00:00,19.296481,72.840923,SO2,4,10,7
India,Maharashtra,Mumbai,"Bandra Kurla Complex, Mumbai - MPCB",22-03-2024 21:00:00,19.065931,72.862131,NO2,6,56,25
India,Maharashtra,Mumbai,"Bandra Kurla Complex, Mumbai - MPCB",22-03-2024 21:00:00,19.065931,72.862131,SO2,1,11,3
India,Maharashtra,Mumbai,"Byculla, Mumbai - BMC",22-03-2024 21:00:00,18.9767,72.8380,NH3,5,6,6
India,Maharashtra,Mumbai,"Byculla, Mumbai - BMC",22-03-2024 21:00:00,18.9767,72.8380,SO2,3,16,6
India,Maharashtra,Mumbai,"Chakala-Andheri East, Mumbai - IITM",22-03-2024 21:00:00,19.11074,72.86084,CO,18,112,42
India,Maharashtra,Mumbai,"Chembur, Mumbai - MPCB",22-03-2024 21:00:00,19.0364585,72.8954371,PM2.5,107,303,201
India,Maharashtra,Mumbai,"Chembur, Mumbai - MPCB",22-03-2024 21:00:00,19.0364585,72.8954371,CO,24,101,29
India,Maharashtra,Mumbai,"Colaba, Mumbai - MPCB",22-03-2024 21:00:00,18.910000,72.820000,PM2.5,NA,NA,NA
India,Maharashtra,Mumbai,"Colaba, Mumbai - MPCB",22-03-2024 21:00:00,18.910000,72.820000,PM10,NA,NA,NA
India,Maharashtra,Mumbai,"Colaba, Mumbai - MPCB",22-03-2024 21:00:00,18.910000,72.820000,CO,14,21,17
India,Maharashtra,Mumbai,"Colaba, Mumbai - MPCB",22-03-2024 21:00:00,18.910000,72.820000,OZONE,8,11,10
India,Maharashtra,Mumbai,"Ghatkopar, Mumbai - BMC",22-03-2024 21:00:00,19.083694,72.920967,PM10,78,138,116
India,Maharashtra,Mumbai,"Kandivali East, Mumbai - MPCB",22-03-2024 21:00:00,19.205800,72.868200,CO,103,133,104
India,Maharashtra,Mumbai,"Kandivali West, Mumbai - BMC",22-03-2024 21:00:00,19.215859,72.831718,PM10,63,128,100
India,Maharashtra,Mumbai,"Kandivali West, Mumbai - BMC",22-03-2024 21:00:00,19.215859,72.831718,NO2,16,149,73
India,Maharashtra,Mumbai,"Kandivali West, Mumbai - BMC",22-03-2024 21:00:00,19.215859,72.831718,OZONE,1,32,20
India,Maharashtra,Mumbai,"Kherwadi_Bandra East, Mumbai - MPCB",22-03-2024 21:00:00,19.0632143,72.8456324,PM2.5,83,216,136
India,Maharashtra,Mumbai,"Kherwadi_Bandra East, Mumbai - MPCB",22-03-2024 21:00:00,19.0632143,72.8456324,CO,17,116,20
India,Maharashtra,Mumbai,"Khindipada-Bhandup West, Mumbai - IITM",22-03-2024 21:00:00,19.1653323,72.922099,OZONE,5,29,27
India,Maharashtra,Mumbai,"Kurla, Mumbai - MPCB",22-03-2024 21:00:00,19.0863,72.8888,PM2.5,52,171,102
India,Maharashtra,Mumbai,"Kurla, Mumbai - MPCB",22-03-2024 21:00:00,19.0863,72.8888,PM10,52,124,95
India,Maharashtra,Mumbai,"Kurla, Mumbai - MPCB",22-03-2024 21:00:00,19.0863,72.8888,NH3,2,8,5
India,Maharashtra,Mumbai,"Mazgaon, Mumbai - IITM",22-03-2024 21:00:00,18.96702,72.84214,CO,34,100,59
India,Maharashtra,Mumbai,"Mindspace-Malad West, Mumbai - MPCB",22-03-2024 21:00:00,19.1878657,72.8304069,PM10,67,142,107
India,Maharashtra,Mumbai,"Mulund West, Mumbai - MPCB",22-03-2024 21:00:00,19.1750,72.9419,NH3,9,10,10
India,Maharashtra,Mumbai,"Powai, Mumbai - MPCB",22-03-2024 21:00:00,19.137500,72.915056,SO2,34,46,39
India,Maharashtra,Mumbai,"Sewri, Mumbai - BMC",22-03-2024 21:00:00,19.000084,72.856730,PM2.5,62,147,87
India,Maharashtra,Mumbai,"Sion, Mumbai - MPCB",22-03-2024 21:00:00,19.047000,72.874600,NH3,1,2,1
India,Maharashtra,Mumbai,"Sion, Mumbai - MPCB",22-03-2024 21:00:00,19.047000,72.874600,OZONE,15,55,27
India,Maharashtra,Mumbai,"Vasai West, Mumbai - MPCB",22-03-2024 21:00:00,19.383200,72.820400,NH3,4,4,4
India,Maharashtra,Mumbai,"Vile Parle West, Mumbai - MPCB",22-03-2024 21:00:00,19.10861,72.83622,SO2,13,15,14
India,Maharashtra,Mumbai,"Vile Parle West, Mumbai - MPCB",22-03-2024 21:00:00,19.10861,72.83622,OZONE,4,4,4
India,Maharashtra,Mumbai,"Worli, Mumbai - MPCB",22-03-2024 21:00:00,18.9936162,72.8128113,CO,32,35,34
India,Maharashtra,Nagpur,"Ambazari, Nagpur - MPCB",22-03-2024 21:00:00,21.121801,79.04952,PM10,74,293,124
India,Maharashtra,Nagpur,"Mahal, Nagpur - MPCB",22-03-2024 21:00:00,21.14472,79.107595,CO,36,150,80
India,Maharashtra,Nagpur,"Opp GPO Civil Lines, Nagpur - MPCB",22-03-2024 21:00:00,21.152875,79.0517531,NH3,4,22,10
India,Maharashtra,Nanded,"Sneh Nagar, Nanded - MPCB",22-03-2024 21:00:00,19.173852,77.296291,NH3,1,2,1
India,Maharashtra,Nanded,"Sneh Nagar, Nanded - MPCB",22-03-2024 21:00:00,19.173852,77.296291,SO2,2,7,5
India,Maharashtra,Nashik,"Gangapur Road, Nashik - MPCB",22-03-2024 21:00:00,20.0073285,73.7762427,NH3,1,2,1
India,Maharashtra,Nashik,"Hirawadi, Nashik - MPCB",22-03-2024 21:00:00,20.021503,73.813844,NH3,NA,NA,NA
India,Maharashtra,Nashik,"Hirawadi, Nashik - MPCB",22-03-2024 21:00:00,20.021503,73.813844,SO2,NA,NA,NA
India,Maharashtra,Nashik,"Pandav Nagari, Nashik - MPCB",22-03-2024 21:00:00,19.9591346,73.7788008,PM10,83,109,94
India,Maharashtra,Navi Mumbai,"Kopripada-Vashi, Navi Mumbai - MPCB",22-03-2024 21:00:00,19.090337,73.014232,PM2.5,53,500,242
India,Maharashtra,Navi Mumbai,"Kopripada-Vashi, Navi Mumbai - MPCB",22-03-2024 21:00:00,19.090337,73.014232,CO,8,108,16
India,Maharashtra,Navi Mumbai,"Kopripada-Vashi, Navi Mumbai - MPCB",22-03-2024 21:00:00,19.090337,73.014232,OZONE,10,98,66
India,Maharashtra,Navi Mumbai,"Mahape, Navi Mumbai - MPCB",22-03-2024 21:00:00,19.1135051,73.008978,SO2,26,27,27
India,Maharashtra,Navi Mumbai,"Nerul, Navi Mumbai - MPCB",22-03-2024 21:00:00,19.008751,73.016620,PM10,123,488,237
India,Maharashtra,Navi Mumbai,"Nerul, Navi Mumbai - MPCB",22-03-2024 21:00:00,19.008751,73.016620,OZONE,31,56,36
India,Maharashtra,Navi Mumbai,"Sanpada, Navi Mumbai - MPCB",22-03-2024 21:00:00,19.0575752,73.0151367,PM10,76,427,189
India,Maharashtra,Navi Mumbai,"Sanpada, Navi Mumbai - MPCB",22-03-2024 21:00:00,19.0575752,73.0151367,OZONE,2,41,30
India,Maharashtra,Navi Mumbai,"Sector-19A Nerul, Navi Mumbai - IITM",22-03-2024 21:00:00,19.044,73.0325,CO,44,105,67
India,Maharashtra,Navi Mumbai,"Sector-19A Nerul, Navi Mumbai - IITM",22-03-2024 21:00:00,19.044,73.0325,OZONE,1,83,58
India,Maharashtra,Navi Mumbai,"Sector-2E Kalamboli, Navi Mumbai - MPCB",22-03-2024 21:00:00,19.02579,73.10297,PM2.5,43,174,85
India,Maharashtra,Navi Mumbai,"Sector-2E Kalamboli, Navi Mumbai - MPCB",22-03-2024 21:00:00,19.02579,73.10297,CO,9,92,22
India,Maharashtra,Pimpri-Chinchwad,"Gavalinagar, Pimpri Chinchwad - MPCB",22-03-2024 21:00:00,18.63673,73.82487,PM2.5,61,475,125
India,Maharashtra,Pimpri-Chinchwad,"Gavalinagar, Pimpri Chinchwad - MPCB",22-03-2024 21:00:00,18.63673,73.82487,NO2,NA,NA,NA
India,Maharashtra,Pimpri-Chinchwad,"Thergaon, Pimpri Chinchwad - MPCB",22-03-2024 21:00:00,18.616318,73.765797,PM2.5,168,351,259
India,Maharashtra,Pimpri-Chinchwad,"Thergaon, Pimpri Chinchwad - MPCB",22-03-2024 21:00:00,18.616318,73.765797,CO,15,104,29
India,Maharashtra,Pune,"Bhosari, Pune - IITM",22-03-2024 21:00:00,18.640051,73.848956,PM2.5,18,166,73
India,Maharashtra,Pune,"Bhosari, Pune - IITM",22-03-2024 21:00:00,18.640051,73.848956,CO,42,49,46
India,Maharashtra,Pune,"Bhosari, Pune - IITM",22-03-2024 21:00:00,18.640051,73.848956,OZONE,7,150,107
India,Maharashtra,Pune,"Karve Road, Pune - MPCB",22-03-2024 21:00:00,18.5011743,73.8165527,OZONE,5,5,5
India,Maharashtra,Pune,"Katraj Dairy, Pune - MPCB",22-03-2024 21:00:00,18.454450,73.854155,PM10,73,112,91
India,Maharashtra,Pune,"Katraj Dairy, Pune - MPCB",22-03-2024 21:00:00,18.454450,73.854155,OZONE,24,66,53
India,Maharashtra,Pune,"Mhada Colony, Pune - IITM",22-03-2024 21:00:00,18.573040,73.927715,CO,4,102,48
India,Maharashtra,Pune,"Revenue Colony-Shivajinagar, Pune - IITM",22-03-2024 21:00:00,18.530085,73.849598,PM10,28,116,82
India,Maharashtra,Pune,"Revenue Colony-Shivajinagar, Pune - IITM",22-03-2024 21:00:00,18.530085,73.849598,NH3,9,23,16
India,Maharashtra,Pune,"Revenue Colony-Shivajinagar, Pune - IITM",22-03-2024 21:00:00,18.530085,73.849598,OZONE,8,67,47
India,Maharashtra,Pune,"Savitribai Phule Pune University, Pune - MPCB",22-03-2024 21:00:00,18.547056,73.826908,PM2.5,63,214,139
India,Maharashtra,Pune,"Transport Nagar-Nigdi, Pune - IITM",22-03-2024 21:00:00,18.664282,73.763966,PM10,65,129,104
India,Maharashtra,Pune,"Transport Nagar-Nigdi, Pune - IITM",22-03-2024 21:00:00,18.664282,73.763966,CO,43,66,57
India,Maharashtra,Sangli,"Vijay Nagar, Sangli - MPCB",22-03-2024 21:00:00, 16.5038,74.3623,PM10,80,149,103
India,Maharashtra,Solapur,"Dnyaneshwar Nagar, Solapur - MPCB",22-03-2024 21:00:00,17.6336264,75.9132495,PM10,86,123,107
India,Maharashtra,Solapur,"Dnyaneshwar Nagar, Solapur - MPCB",22-03-2024 21:00:00,17.6336264,75.9132495,SO2,6,17,10
India,Maharashtra,Solapur,"Ratandeep Housing Society, Solapur - MPCB",22-03-2024 21:00:00,17.65439,75.90649,PM2.5,NA,NA,NA
India,Maharashtra,Solapur,"Solapur, Solapur - MPCB",22-03-2024 21:00:00,17.6599188,75.9063906,NO2,53,54,54
India,Maharashtra,Thane,"Kasarvadavali, Thane - MPCB",22-03-2024 21:00:00,19.26777,72.97182,NO2,36,166,91
India,Maharashtra,Thane,"Kasarvadavali, Thane - MPCB",22-03-2024 21:00:00,19.26777,72.97182,SO2,4,29,15
India,Maharashtra,Thane,"Pimpleshwar Mandir, Thane - MPCB",22-03-2024 21:00:00,19.192056,72.9585188,PM10,99,243,161
India,Maharashtra,Thane,"Pimpleshwar Mandir, Thane - MPCB",22-03-2024 21:00:00,19.192056,72.9585188,NH3,3,3,3
India,Maharashtra,Thane,"Upvan Fort, Thane - MPCB",22-03-2024 21:00:00,19.222279,72.957979,CO,6,71,13
India,Maharashtra,Ulhasnagar,"Sidhi Vinayak Nagar, Ulhasnagar - MPCB",22-03-2024 21:00:00,19.235581,73.159121,PM2.5,77,367,212
India,Maharashtra,Ulhasnagar,"Sidhi Vinayak Nagar, Ulhasnagar - MPCB",22-03-2024 21:00:00,19.235581,73.159121,NH3,2,4,3
India,Maharashtra,Virar,"Bolinj, Virar - MPCB",22-03-2024 21:00:00,19.4458210,72.7988231,PM10,81,422,215
India,Manipur,Imphal,"Manipur University, Imphal - Manipur PCB",22-03-2024 21:00:00,24.7524239,93.9286218,SO2,NA,NA,NA
India,Meghalaya,Shillong,"Lumpyngngad, Shillong - Meghalaya PCB",22-03-2024 21:00:00,25.5586,91.8985,CO,7,22,18
India,Nagaland,Kohima,"PWD Juction, Kohima - NPCB",22-03-2024 21:00:00,25.6635413,94.0989878,PM2.5,12,237,61
India,Nagaland,Kohima,"PWD Juction, Kohima - NPCB",22-03-2024 21:00:00,25.6635413,94.0989878,CO,8,35,21
India,Odisha,Angul,"Hakimapada, Angul - OSPCB",22-03-2024 21:00:00,20.832874,85.104082,SO2,8,104,36
India,Odisha,Balasore,"Kalidaspur, Balasore - OSPCB",22-03-2024 21:00:00,21.51161,86.89088,PM2.5,43,250,78
India,Odisha,Balasore,"Kalidaspur, Balasore - OSPCB",22-03-2024 21:00:00,21.51161,86.89088,PM10,44,318,110
India,Odisha,Balasore,"Kalidaspur, Balasore - OSPCB",22-03-2024 21:00:00,21.51161,86.89088,SO2,12,25,17
India,Odisha,Balasore,"Kalidaspur, Balasore - OSPCB",22-03-2024 21:00:00,21.51161,86.89088,OZONE,4,84,57
India,Odisha,Baripada,"Meher Colony, Baripada - OSPCB",22-03-2024 21:00:00,21.941841,86.728318,OZONE,12,76,57
India,Odisha,Bhubaneswar,"Lingraj Mandir, Bhubaneswar - OSPCB",22-03-2024 21:00:00,20.240790,85.836784,SO2,1,7,3
India,Odisha,Bhubaneswar,"Lingraj Mandir, Bhubaneswar - OSPCB",22-03-2024 21:00:00,20.240790,85.836784,CO,1,132,58
India,Odisha,Bhubaneswar,"Patia, Bhubaneswar - OSPCB",22-03-2024 21:00:00,20.34652,85.81630,NH3,2,3,2
India,Odisha,Bileipada,"Tata Township, Bileipada - OSPCB",22-03-2024 21:00:00,22.06156703,85.47409613,PM2.5,66,179,128
India,Odisha,Brajrajnagar,"GM Office, Brajrajnagar - OSPCB",22-03-2024 21:00:00,21.8004996,83.8396977,PM10,35,170,71
India,Odisha,Byasanagar,"Ferro Chrome Colony, Byasanagar - OSPCB",22-03-2024 21:00:00,20.94185,86.11510,OZONE,34,144,106
India,Odisha,Cuttack,"CDA Area, Cuttack - OSPCB",22-03-2024 21:00:00,20.48891     ,85.84768     ,PM2.5,22,180,64
India,Odisha,Cuttack,"CDA Area, Cuttack - OSPCB",22-03-2024 21:00:00,20.48891     ,85.84768     ,PM10,57,130,92
India,Odisha,Cuttack,"CDA Area, Cuttack - OSPCB",22-03-2024 21:00:00,20.48891     ,85.84768     ,NH3,1,2,2
India,Odisha,Cuttack,"CDA Area, Cuttack - OSPCB",22-03-2024 21:00:00,20.48891     ,85.84768     ,CO,17,48,19
India,Odisha,Keonjhar,"Jagamohanpur, Keonjhar - OSPCB",22-03-2024 21:00:00,21.643900,85.599355,OZONE,1,40,26
India,Odisha,Nayagarh,"Dabuna, Nayagarh - OSPCB",22-03-2024 21:00:00,21.847279,85.416905,NO2,3,13,5
India,Odisha,Nayagarh,"Dabuna, Nayagarh - OSPCB",22-03-2024 21:00:00,21.847279,85.416905,NH3,3,5,5
India,Odisha,Rairangpur,"Divisional Forest Office, Rairangpur - OSPCB",22-03-2024 21:00:00,22.265816,86.174829,NO2,7,8,7
India,Odisha,Rairangpur,"Divisional Forest Office, Rairangpur - OSPCB",22-03-2024 21:00:00,22.265816,86.174829,SO2,2,7,4
India,Odisha,Rourkela,"Raghunathpali, Rourkela - OSPCB",22-03-2024 21:00:00,22.220833,84.809444,NH3,1,3,2
India,Odisha,Rourkela,"Raghunathpali, Rourkela - OSPCB",22-03-2024 21:00:00,22.220833,84.809444,OZONE,14,117,81
India,Odisha,Rourkela,"Sector-2, Rourkela - OSPCB",22-03-2024 21:00:00,22.24500000,84.88111111,PM2.5,45,147,73
India,Odisha,Talcher,"Talcher Coalfields,Talcher - OSPCB",22-03-2024 21:00:00,20.9360711,85.1707021,OZONE,1,13,4
India,Odisha,Tensa,"Barsua Iron Ore Mines, Tensa - OSPCB",22-03-2024 21:00:00,21.869985,85.167016,CO,14,54,24
India,Odisha,Tensa,"Barsua Iron Ore Mines, Tensa - OSPCB",22-03-2024 21:00:00,21.869985,85.167016,OZONE,1,54,37
India,Puducherry,Puducherry,"Jawahar Nagar, Puducherry - PPCC",22-03-2024 21:00:00,11.9309,79.8027,SO2,3,10,6
India,Punjab,Bathinda,"Hardev Nagar, Bathinda - PPCB",22-03-2024 21:00:00,30.233011,74.907758,PM10,100,293,130
India,Punjab,Jalandhar,"Civil Line, Jalandhar - PPCB",22-03-2024 21:00:00,31.321907,75.578914,SO2,9,13,10
India,Punjab,Khanna,"Kalal Majra, Khanna - PPCB",22-03-2024 21:00:00,30.736056 ,76.209694,PM10,49,113,91
India,Punjab,Ludhiana,"Punjab Agricultural University, Ludhiana - PPCB",22-03-2024 21:00:00,30.9028,75.8086,PM10,73,152,122
India,Punjab,Ludhiana,"Punjab Agricultural University, Ludhiana - PPCB",22-03-2024 21:00:00,30.9028,75.8086,NH3,4,4,4
India,Punjab,Mandi Gobindgarh,"RIMT University, Mandi Gobindgarh - PPCB",22-03-2024 21:00:00,30.649961,76.331442,PM10,76,306,107
India,Punjab,Patiala,"Model Town, Patiala - PPCB",22-03-2024 21:00:00,30.349388,76.366642,PM2.5,65,111,88
India,Punjab,Patiala,"Model Town, Patiala - PPCB",22-03-2024 21:00:00,30.349388,76.366642,NH3,6,6,6
India,Punjab,Patiala,"Model Town, Patiala - PPCB",22-03-2024 21:00:00,30.349388,76.366642,CO,20,40,26
India,Punjab,Patiala,"Model Town, Patiala - PPCB",22-03-2024 21:00:00,30.349388,76.366642,OZONE,53,111,93
India,Punjab,Rupnagar,"Ratanpura, Rupnagar - Ambuja Cements",22-03-2024 21:00:00,31.0325454,76.5623046,CO,28,62,38
India,Rajasthan,Alwar,"Moti Doongri, Alwar - RSPCB",22-03-2024 21:00:00,27.554793,76.611536,PM2.5,53,153,92
India,Rajasthan,Banswara,"Rati Talai, Banswara - RSPCB",22-03-2024 21:00:00,23.555190,74.440010,SO2,18,90,47
India,Rajasthan,Baran,"Bamboliya, Baran - RSPCB",22-03-2024 21:00:00,25.106006,76.469948,PM10,80,136,99
India,Rajasthan,Baran,"Bamboliya, Baran - RSPCB",22-03-2024 21:00:00,25.106006,76.469948,NO2,10,80,22
India,Rajasthan,Barmer,"Railway Colony, Barmer - RSPCB",22-03-2024 21:00:00,25.747299,71.393989,NH3,6,12,8
India,Rajasthan,Barmer,"Railway Colony, Barmer - RSPCB",22-03-2024 21:00:00,25.747299,71.393989,OZONE,27,91,68
India,Rajasthan,Bharatpur,"Krishna Nagar, Bharatpur - RSPCB",22-03-2024 21:00:00,27.215415,77.50873,PM2.5,9,176,97
India,Rajasthan,Bharatpur,"Krishna Nagar, Bharatpur - RSPCB",22-03-2024 21:00:00,27.215415,77.50873,SO2,3,28,12
India,Rajasthan,Bhiwadi,"RIICO Ind. Area III, Bhiwadi - RSPCB",22-03-2024 21:00:00,28.194909,76.862296,SO2,1,63,15
India,Rajasthan,Bikaner,"MM Ground, Bikaner - RSPCB",22-03-2024 21:00:00,28.018792,73.292658,NH3,9,16,11
India,Rajasthan,Bikaner,"MM Ground, Bikaner - RSPCB",22-03-2024 21:00:00,28.018792,73.292658,OZONE,32,86,71
India,Rajasthan,Chittorgarh,"Shastri Nagar, Chittorgarh - RSPCB",22-03-2024 21:00:00,24.892047,74.623527,NO2,7,127,61
India,Rajasthan,Chittorgarh,"Shastri Nagar, Chittorgarh - RSPCB",22-03-2024 21:00:00,24.892047,74.623527,NH3,1,10,3
India,Rajasthan,Churu,"Subash Chowk, Churu - RSPCB",22-03-2024 21:00:00,28.296139,74.961696,CO,9,60,18
India,Rajasthan,Dausa,"Khatikan Mohalla, Dausa - RSPCB",22-03-2024 21:00:00,26.895552,76.334753,CO,14,113,77
India,Rajasthan,Dholpur,"Raja Ganj, Dholpur - RSPCB",22-03-2024 21:00:00,26.699557,77.898881,NO2,8,40,15
India,Rajasthan,Dholpur,"Raja Ganj, Dholpur - RSPCB",22-03-2024 21:00:00,26.699557,77.898881,NH3,10,13,11
India,Rajasthan,Dungarpur,"Bhoiwada, Dungarpur - RSPCB",22-03-2024 21:00:00,23.837789,73.714926,PM10,60,176,103
India,Rajasthan,Dungarpur,"Bhoiwada, Dungarpur - RSPCB",22-03-2024 21:00:00,23.837789,73.714926,CO,26,63,29
India,Rajasthan,Hanumangarh,"Housing Board, Hanumangarh - RSPCB",22-03-2024 21:00:00,29.610750,74.283608,SO2,1,9,5
India,Rajasthan,Jaipur,"Adarsh Nagar, Jaipur - RSPCB",22-03-2024 21:00:00,26.902909,75.836858,PM2.5,31,99,74
India,Rajasthan,Jaipur,"Adarsh Nagar, Jaipur - RSPCB",22-03-2024 21:00:00,26.902909,75.836858,NO2,22,130,43
India,Rajasthan,Jaipur,"Adarsh Nagar, Jaipur - RSPCB",22-03-2024 21:00:00,26.902909,75.836858,SO2,10,31,22
India,Rajasthan,Jaipur,"Mansarovar Sector-12, Jaipur - RSPCB",22-03-2024 21:00:00,26.843698,75.766894,NH3,6,35,10
India,Rajasthan,Jaipur,"Police Commissionerate, Jaipur - RSPCB",22-03-2024 21:00:00,26.9164092,75.7994901,PM10,93,155,118
India,Rajasthan,Jaipur,"Police Commissionerate, Jaipur - RSPCB",22-03-2024 21:00:00,26.9164092,75.7994901,NH3,5,10,8
India,Rajasthan,Jaipur,"RIICO Sitapura, Jaipur - RSPCB",22-03-2024 21:00:00,26.786682,75.827928,PM2.5,42,307,137
India,Rajasthan,Jaipur,"RIICO Sitapura, Jaipur - RSPCB",22-03-2024 21:00:00,26.786682,75.827928,PM10,99,312,143
India,Rajasthan,Jaipur,"RIICO Sitapura, Jaipur - RSPCB",22-03-2024 21:00:00,26.786682,75.827928,CO,36,129,67
India,Rajasthan,Jaipur,"Sector-2 Murlipura, Jaipur - RSPCB",22-03-2024 21:00:00,26.960669,75.771817,NH3,1,29,9
India,Rajasthan,Jaipur,"Sector-2 Murlipura, Jaipur - RSPCB",22-03-2024 21:00:00,26.960669,75.771817,CO,33,146,62
India,Rajasthan,Jaipur,"Shastri Nagar, Jaipur - RSPCB",22-03-2024 21:00:00,26.9502929,75.730943,PM10,108,151,125
India,Rajasthan,Jaipur,"Shastri Nagar, Jaipur - RSPCB",22-03-2024 21:00:00,26.9502929,75.730943,CO,4,111,39
India,Rajasthan,Jaisalmer,"Sadar Bazar, Jaisalmer - RSPCB",22-03-2024 21:00:00,26.912329,70.909168,PM10,68,237,105
India,Rajasthan,Jaisalmer,"Sadar Bazar, Jaisalmer - RSPCB",22-03-2024 21:00:00,26.912329,70.909168,NO2,22,64,36
India,Rajasthan,Jaisalmer,"Sadar Bazar, Jaisalmer - RSPCB",22-03-2024 21:00:00,26.912329,70.909168,NH3,4,19,7
India,Rajasthan,Jalore,"Mudtra Sili, Jalore - RSPCB",22-03-2024 21:00:00,25.344694,72.626208,PM10,58,466,109
India,Rajasthan,Jhunjhunu,"Indra Nagar, Jhunjhunu - RSPCB",22-03-2024 21:00:00,28.108988,75.386577,CO,14,65,26
India,Rajasthan,Jhunjhunu,"Indra Nagar, Jhunjhunu - RSPCB",22-03-2024 21:00:00,28.108988,75.386577,OZONE,22,94,84
India,Rajasthan,Jodhpur,"Collectorate, Jodhpur - RSPCB",22-03-2024 21:00:00,26.268249,73.0193853,NO2,34,39,37
India,Rajasthan,Jodhpur,"Collectorate, Jodhpur - RSPCB",22-03-2024 21:00:00,26.268249,73.0193853,CO,24,90,59
India,Rajasthan,Jodhpur,"Digari Kalan, Jodhpur - RSPCB",22-03-2024 21:00:00,26.295810,73.082283,PM2.5,16,169,68
India,Rajasthan,Jodhpur,"Digari Kalan, Jodhpur - RSPCB",22-03-2024 21:00:00,26.295810,73.082283,NH3,5,12,7
India,Rajasthan,Jodhpur,"Mandor, Jodhpur - RSPCB",22-03-2024 21:00:00,26.358805,73.047444,PM2.5,10,190,66
India,Rajasthan,Jodhpur,"Samrat Ashok Udhyan, Jodhpur - RSPCB",22-03-2024 21:00:00,26.253384,72.976571,CO,27,136,37
India,Rajasthan,Karauli,"Satyawati Vihar, Karauli - RSPCB",22-03-2024 21:00:00,26.506177,77.025989,PM10,25,82,45
India,Rajasthan,Karauli,"Satyawati Vihar, Karauli - RSPCB",22-03-2024 21:00:00,26.506177,77.025989,SO2,4,14,10
India,Rajasthan,Kota,"Dhanmandi, Kota - RSPCB",22-03-2024 21:00:00,25.164090,75.858137,NO2,13,248,86
India,Rajasthan,Kota,"Shrinath Puram, Kota - RSPCB",22-03-2024 21:00:00,25.14389,75.821256,NO2,7,135,45
India,Rajasthan,Kota,"Shrinath Puram, Kota - RSPCB",22-03-2024 21:00:00,25.14389,75.821256,SO2,7,40,12
India,Rajasthan,Nagaur,"Karni Colony, Nagaur - RSPCB",22-03-2024 21:00:00,27.213494,73.734444,PM2.5,17,304,65
India,Rajasthan,Nagaur,"Karni Colony, Nagaur - RSPCB",22-03-2024 21:00:00,27.213494,73.734444,SO2,4,18,8
India,Rajasthan,Pali,"Indira Colony Vistar, Pali - RSPCB",22-03-2024 21:00:00,25.771061, 73.340227,NH3,NA,NA,NA
India,Rajasthan,Pratapgarh,"Pragati Nagar, Pratapgarh - RSPCB",22-03-2024 21:00:00,24.041198,74.780702,NH3,3,7,5
India,Rajasthan,Pratapgarh,"Pragati Nagar, Pratapgarh - RSPCB",22-03-2024 21:00:00,24.041198,74.780702,SO2,5,19,9
India,Rajasthan,Pratapgarh,"Pragati Nagar, Pratapgarh - RSPCB",22-03-2024 21:00:00,24.041198,74.780702,CO,7,46,22
India,Rajasthan,Rajsamand,"Dhoinda, Rajsamand - RSPCB",22-03-2024 21:00:00,25.036360,73.883502,NH3,6,9,7
India,Rajasthan,Rajsamand,"Dhoinda, Rajsamand - RSPCB",22-03-2024 21:00:00,25.036360,73.883502,OZONE,30,73,61
India,Rajasthan,Sawai Madhopur,"Sahu Nagar, Sawai Madhopur - RSPCB",22-03-2024 21:00:00,26.031443,76.359327,NO2,2,76,15
India,Rajasthan,Sawai Madhopur,"Sahu Nagar, Sawai Madhopur - RSPCB",22-03-2024 21:00:00,26.031443,76.359327,SO2,3,25,13
India,Rajasthan,Sikar,"Radhakishan Pura, Sikar - RSPCB",22-03-2024 21:00:00,27.608912,75.153302,PM2.5,21,120,64
India,Rajasthan,Sikar,"Radhakishan Pura, Sikar - RSPCB",22-03-2024 21:00:00,27.608912,75.153302,NO2,11,107,28
India,Rajasthan,Sikar,"Radhakishan Pura, Sikar - RSPCB",22-03-2024 21:00:00,27.608912,75.153302,NH3,4,8,6
India,Rajasthan,Sirohi,"Vedhaynath Colony, Sirohi - RSPCB",22-03-2024 21:00:00,24.885261,72.857549,PM2.5,30,303,72
India,Rajasthan,Sirohi,"Vedhaynath Colony, Sirohi - RSPCB",22-03-2024 21:00:00,24.885261,72.857549,NO2,6,80,28
India,Rajasthan,Sirohi,"Vedhaynath Colony, Sirohi - RSPCB",22-03-2024 21:00:00,24.885261,72.857549,NH3,3,14,6
India,Rajasthan,Tonk,"Shastri Nagar, Tonk - RSPCB",22-03-2024 21:00:00,26.159933,75.780517,CO,16,62,42
India,Rajasthan,Tonk,"Shastri Nagar, Tonk - RSPCB",22-03-2024 21:00:00,26.159933,75.780517,OZONE,21,109,84
India,Rajasthan,Udaipur,"Ashok Nagar, Udaipur - RSPCB",22-03-2024 21:00:00,24.5886166,73.6321397,CO,20,116,80
India,TamilNadu,Chengalpattu,"Crescent University, Chengalpattu - TNPCB",22-03-2024 21:00:00,12.8777316,80.0834807,SO2,18,22,20
India,TamilNadu,Chennai,"Kodungaiyur, Chennai - TNPCB",22-03-2024 21:00:00,13.1278,80.2642,NH3,2,4,3
India,TamilNadu,Chennai,"Kodungaiyur, Chennai - TNPCB",22-03-2024 21:00:00,13.1278,80.2642,CO,7,48,32
India,TamilNadu,Chennai,"Manali, Chennai - CPCB",22-03-2024 21:00:00,13.164544,80.26285,NO2,8,10,9
India,TamilNadu,Chennai,"Perungudi, Chennai - TNPCB",22-03-2024 21:00:00,12.9533,80.2357,OZONE,6,9,7
India,TamilNadu,Chennai,"Royapuram, Chennai - TNPCB",22-03-2024 21:00:00,13.1036,80.2909,NH3,1,1,1
India,TamilNadu,Cuddalore,"Kudikadu, Cuddalore - TNPCB",22-03-2024 21:00:00,11.6829898,79.7532099,NO2,20,33,28
India,TamilNadu,Cuddalore,"Semmandalam, Cuddalore - TNPCB",22-03-2024 21:00:00,11.7637683,79.7499835,NO2,2,23,11
India,TamilNadu,Gummidipoondi,"Anthoni Pillai Nagar, Gummidipoondi - TNPCB",22-03-2024 21:00:00,13.4127,80.1081,NO2,10,18,13
India,TamilNadu,Gummidipoondi,"Anthoni Pillai Nagar, Gummidipoondi - TNPCB",22-03-2024 21:00:00,13.4127,80.1081,SO2,2,116,24
India,TamilNadu,Kanchipuram,"Kilambi, Kanchipuram - TNPCB",22-03-2024 21:00:00,12.864618,79.659968,NH3,4,20,5
India,TamilNadu,Palkalaiperur,"Bharathidasan University, Palkalaiperur - TNPCB",22-03-2024 21:00:00,10.681158,78.741746,OZONE,1,1,1
India,TamilNadu,Ramanathapuram,"Chalai Bazaar, Ramanathapuram - TNPCB",22-03-2024 21:00:00,9.36399,78.831977,SO2,6,10,8
India,TamilNadu,Thoothukudi,"Meelavittan, Thoothukudi - TNPCB",22-03-2024 21:00:00,8.816428 ,78.099039,NO2,13,20,16
India,TamilNadu,Vellore,"Vasanthapuram, Vellore - TNPCB",22-03-2024 21:00:00,12.909494,79.131861,SO2,NA,NA,NA
India,Telangana,Hyderabad,"Bollaram Industrial Area, Hyderabad - TSPCB",22-03-2024 21:00:00,17.540891,78.358528,PM10,33,129,94
India,Telangana,Hyderabad,"Bollaram Industrial Area, Hyderabad - TSPCB",22-03-2024 21:00:00,17.540891,78.358528,NO2,16,48,36
India,Telangana,Hyderabad,"Bollaram Industrial Area, Hyderabad - TSPCB",22-03-2024 21:00:00,17.540891,78.358528,SO2,6,50,17
India,Telangana,Hyderabad,"Central University, Hyderabad - TSPCB",22-03-2024 21:00:00,17.460103,78.334361,SO2,5,12,8
India,Telangana,Hyderabad,"ECIL Kapra, Hyderabad - TSPCB",22-03-2024 21:00:00,17.470431,78.566959,PM2.5,50,61,56
India,Telangana,Hyderabad,"ECIL Kapra, Hyderabad - TSPCB",22-03-2024 21:00:00,17.470431,78.566959,CO,23,33,28
India,Telangana,Hyderabad,"ICRISAT Patancheru, Hyderabad - TSPCB",22-03-2024 21:00:00,17.518400,78.278777,OZONE,29,111,87
India,Telangana,Hyderabad,"Kokapet, Hyderabad - TSPCB",22-03-2024 21:00:00,17.393559,78.339194,CO,20,24,21
India,Telangana,Hyderabad,"Kompally Municipal Office, Hyderabad - TSPCB",22-03-2024 21:00:00,17.544899,78.486949,PM10,NA,NA,NA
India,Telangana,Hyderabad,"Nacharam_TSIIC IALA, Hyderabad - TSPCB",22-03-2024 21:00:00,17.429398,78.569354,NO2,NA,NA,NA
India,Telangana,Hyderabad,"Ramachandrapuram, Hyderabad - TSPCB",22-03-2024 21:00:00,17.528544,78.286195,CO,20,42,23
India,Telangana,Hyderabad,"Somajiguda, Hyderabad - TSPCB",22-03-2024 21:00:00,17.417094,78.457437,NO2,NA,NA,NA
India,Telangana,Hyderabad,"Somajiguda, Hyderabad - TSPCB",22-03-2024 21:00:00,17.417094,78.457437,CO,8,34,14
India,Telangana,Hyderabad,"Zoo Park, Hyderabad - TSPCB",22-03-2024 21:00:00,17.349694,78.451437,NH3,1,1,1
India,Tripura,Agartala,"Bardowali, Agartala - Tripura SPCB",22-03-2024 21:00:00,23.8175497,91.2726974,PM10,58,175,89
India,Tripura,Agartala,"Bardowali, Agartala - Tripura SPCB",22-03-2024 21:00:00,23.8175497,91.2726974,NO2,6,25,10
India,Uttar_Pradesh,Agra,"Manoharpur, Agra - UPPCB",22-03-2024 21:00:00,27.23711,78.01936,PM2.5,45,137,77
India,Uttar_Pradesh,Agra,"Rohta, Agra - UPPCB",22-03-2024 21:00:00,27.106972,78.000111,NH3,NA,NA,NA
India,Uttar_Pradesh,Agra,"Rohta, Agra - UPPCB",22-03-2024 21:00:00,27.106972,78.000111,OZONE,15,17,16
India,Uttar_Pradesh,Agra,"Sector-3B Avas Vikas Colony, Agra - UPPCB",22-03-2024 21:00:00,27.19412,77.96237,PM2.5,16,42,25
India,Uttar_Pradesh,Agra,"Sector-3B Avas Vikas Colony, Agra - UPPCB",22-03-2024 21:00:00,27.19412,77.96237,OZONE,3,23,17
India,Uttar_Pradesh,Agra,"Shahjahan Garden, Agra - UPPCB",22-03-2024 21:00:00,27.169338,78.03582,NO2,16,17,16
India,Uttar_Pradesh,Agra,"Shahjahan Garden, Agra - UPPCB",22-03-2024 21:00:00,27.169338,78.03582,OZONE,4,47,22
India,Uttar_Pradesh,Agra,"Shastripuram, Agra - UPPCB",22-03-2024 21:00:00,27.19862,77.92066,NH3,1,5,2
India,Uttar_Pradesh,Baghpat,"Sardar Patel Inter College, Baghpat - UPPCB",22-03-2024 21:00:00,28.964949,77.278761,NH3,4,5,4
India,Uttar_Pradesh,Bareilly,"Civil Lines, Bareilly - UPPCB",22-03-2024 21:00:00,28.359581,79.414455,NO2,12,32,16
India,Uttar_Pradesh,Bareilly,"Rajendra Nagar, Bareilly - UPPCB",22-03-2024 21:00:00,28.38910936,79.42963708,PM10,43,95,60
India,Uttar_Pradesh,Bulandshahr,"Yamunapuram, Bulandshahr - UPPCB",22-03-2024 21:00:00,28.406963,77.849831,NO2,7,149,23
India,Uttar_Pradesh,Bulandshahr,"Yamunapuram, Bulandshahr - UPPCB",22-03-2024 21:00:00,28.406963,77.849831,OZONE,7,62,44
India,Uttar_Pradesh,Firozabad,"Nagla Bhau, Firozabad - UPPCB",22-03-2024 21:00:00,27.168897,78.376960,CO,NA,NA,NA
India,Uttar_Pradesh,Firozabad,"Vibhab Nagar, Firozabad - UPPCB",22-03-2024 21:00:00,27.1594,78.3953,NO2,14,14,14
India,Uttar_Pradesh,Firozabad,"Vibhab Nagar, Firozabad - UPPCB",22-03-2024 21:00:00,27.1594,78.3953,SO2,13,25,16
India,Uttar_Pradesh,Ghaziabad,"Indirapuram, Ghaziabad - UPPCB",22-03-2024 21:00:00,28.646233,77.358075,NO2,48,104,79
India,Uttar_Pradesh,Ghaziabad,"Vasundhara, Ghaziabad - UPPCB",22-03-2024 21:00:00,28.6603346,77.3572563,NH3,10,22,14
India,Uttar_Pradesh,Ghaziabad,"Vasundhara, Ghaziabad - UPPCB",22-03-2024 21:00:00,28.6603346,77.3572563,SO2,1,129,13
India,Uttar_Pradesh,Gorakhpur,"Madan Mohan Malaviya University of Technology, Gorakhpur - UPPCB",22-03-2024 21:00:00,26.730136,83.433859,PM2.5,41,262,109
India,Uttar_Pradesh,Gorakhpur,"Madan Mohan Malaviya University of Technology, Gorakhpur - UPPCB",22-03-2024 21:00:00,26.730136,83.433859,NO2,2,2,2
India,Uttar_Pradesh,Gorakhpur,"Madan Mohan Malaviya University of Technology, Gorakhpur - UPPCB",22-03-2024 21:00:00,26.730136,83.433859,NH3,1,2,2
India,Uttar_Pradesh,Greater Noida,"Knowledge Park - III, Greater Noida - UPPCB",22-03-2024 21:00:00,28.47272,77.482000,PM2.5,66,210,119
India,Uttar_Pradesh,Greater Noida,"Knowledge Park - III, Greater Noida - UPPCB",22-03-2024 21:00:00,28.47272,77.482000,PM10,109,357,148
India,Uttar_Pradesh,Greater Noida,"Knowledge Park - III, Greater Noida - UPPCB",22-03-2024 21:00:00,28.47272,77.482000,NO2,1,62,12
India,Uttar_Pradesh,Greater Noida,"Knowledge Park - V, Greater Noida - UPPCB",22-03-2024 21:00:00,28.557054,77.453663,NH3,4,6,5
India,Uttar_Pradesh,Greater Noida,"Knowledge Park - V, Greater Noida - UPPCB",22-03-2024 21:00:00,28.557054,77.453663,SO2,20,27,24
India,Uttar_Pradesh,Hapur,"Anand Vihar, Hapur - UPPCB",22-03-2024 21:00:00,28.725645,77.749675,NH3,7,13,10
India,Uttar_Pradesh,Jhansi,"Shivaji Nagar, Jhansi - UPPCB",22-03-2024 21:00:00,25.4547,78.6039,CO,10,27,15
India,Uttar_Pradesh,Kanpur,"FTI Kidwai Nagar, Kanpur - UPPCB",22-03-2024 21:00:00,26.428282,80.327067,SO2,22,22,22
India,Uttar_Pradesh,Kanpur,"NSI Kalyanpur, Kanpur - UPPCB",22-03-2024 21:00:00,26.509954,80.249612,PM2.5,51,140,92
India,Uttar_Pradesh,Kanpur,"NSI Kalyanpur, Kanpur - UPPCB",22-03-2024 21:00:00,26.509954,80.249612,NO2,10,15,13
India,Uttar_Pradesh,Kanpur,"Nehru Nagar, Kanpur - UPPCB",22-03-2024 21:00:00,26.4703136,80.3229863,SO2,9,12,11
India,Uttar_Pradesh,Khurja,"Kalindi Kunj, Khurja - UPPCB",22-03-2024 21:00:00,28.2348927,77.8683002,PM2.5,47,135,79
India,Uttar_Pradesh,Khurja,"Kalindi Kunj, Khurja - UPPCB",22-03-2024 21:00:00,28.2348927,77.8683002,CO,36,54,42
India,Uttar_Pradesh,Khurja,"Kalindi Kunj, Khurja - UPPCB",22-03-2024 21:00:00,28.2348927,77.8683002,OZONE,21,38,24
India,Uttar_Pradesh,Lucknow,"B R Ambedkar University, Lucknow - UPPCB",22-03-2024 21:00:00,26.766433,80.927299,NO2,11,12,11
India,Uttar_Pradesh,Lucknow,"B R Ambedkar University, Lucknow - UPPCB",22-03-2024 21:00:00,26.766433,80.927299,CO,26,36,29
India,Uttar_Pradesh,Lucknow,"Kendriya Vidyalaya, Lucknow - CPCB",22-03-2024 21:00:00,26.906111,80.948222,OZONE,6,49,37
India,Uttar_Pradesh,Lucknow,"Lalbagh, Lucknow - CPCB",22-03-2024 21:00:00,26.8458805,80.9365541,PM10,106,137,117
India,Uttar_Pradesh,Lucknow,"Lalbagh, Lucknow - CPCB",22-03-2024 21:00:00,26.8458805,80.9365541,NO2,3,24,8
India,Uttar_Pradesh,Lucknow,"Lalbagh, Lucknow - CPCB",22-03-2024 21:00:00,26.8458805,80.9365541,SO2,2,16,9
India,Uttar_Pradesh,Lucknow,"Talkatora District Industries Center, Lucknow - CPCB",22-03-2024 21:00:00,26.83399722,80.8917361,SO2,1,10,5
India,Uttar_Pradesh,Lucknow,"Talkatora District Industries Center, Lucknow - CPCB",22-03-2024 21:00:00,26.83399722,80.8917361,OZONE,2,81,45
India,Uttar_Pradesh,Meerut,"Ganga Nagar, Meerut - UPPCB",22-03-2024 21:00:00,28.999264,77.7590354,NH3,7,13,10
India,Uttar_Pradesh,Meerut,"Ganga Nagar, Meerut - UPPCB",22-03-2024 21:00:00,28.999264,77.7590354,OZONE,19,81,63
India,Uttar_Pradesh,Meerut,"Jai Bhim Nagar, Meerut - UPPCB",22-03-2024 21:00:00,28.9535882,77.7622941,CO,50,103,67
India,Uttar_Pradesh,Meerut,"Pallavpuram Phase 2, Meerut - UPPCB",22-03-2024 21:00:00,29.063510,77.709723,CO,44,82,59
India,Uttar_Pradesh,Moradabad,"Eco Herbal Park, Moradabad - UPPCB",22-03-2024 21:00:00,28.840739,78.697531,CO,9,55,41
India,Uttar_Pradesh,Moradabad,"Employment Office, Moradabad - UPPCB",22-03-2024 21:00:00,28.88528,78.73880,PM2.5,NA,NA,NA
India,Uttar_Pradesh,Moradabad,"Employment Office, Moradabad - UPPCB",22-03-2024 21:00:00,28.88528,78.73880,PM10,NA,NA,NA
India,Uttar_Pradesh,Moradabad,"Jigar Colony, Moradabad - UPPCB",22-03-2024 21:00:00,28.856664,78.772638,PM2.5,31,142,60
India,Uttar_Pradesh,Moradabad,"Jigar Colony, Moradabad - UPPCB",22-03-2024 21:00:00,28.856664,78.772638,CO,28,41,31
India,Uttar_Pradesh,Moradabad,"Kashiram Nagar, Moradabad - UPPCB",22-03-2024 21:00:00,28.849399,78.742362,NO2,14,40,24
India,Uttar_Pradesh,Moradabad,"Kashiram Nagar, Moradabad - UPPCB",22-03-2024 21:00:00,28.849399,78.742362,NH3,4,4,4
India,Uttar_Pradesh,Moradabad,"Kashiram Nagar, Moradabad - UPPCB",22-03-2024 21:00:00,28.849399,78.742362,SO2,29,45,36
India,Uttar_Pradesh,Moradabad,"Kashiram Nagar, Moradabad - UPPCB",22-03-2024 21:00:00,28.849399,78.742362,CO,19,48,37
India,Uttar_Pradesh,Moradabad,"Transport Nagar, Moradabad - UPPCB",22-03-2024 21:00:00,28.802625,78.753728,NO2,11,20,15
India,Uttar_Pradesh,Muzaffarnagar,"New Mandi, Muzaffarnagar - UPPCB",22-03-2024 21:00:00,29.4723508,77.7194031,NO2,27,57,40
India,Uttar_Pradesh,Noida,"Sector - 125, Noida - UPPCB",22-03-2024 21:00:00,28.5447608,77.3231257,PM10,88,216,119
India,Uttar_Pradesh,Noida,"Sector - 62, Noida - IMD",22-03-2024 21:00:00,28.6245479,77.3577104,CO,12,96,42
India,Uttar_Pradesh,Noida,"Sector-1, Noida - UPPCB",22-03-2024 21:00:00,28.5898,77.3101,NO2,30,118,44
India,Uttar_Pradesh,Prayagraj,"Jhunsi, Prayagraj - UPPCB",22-03-2024 21:00:00,25.425602,81.917152,PM2.5,23,120,38
India,Uttar_Pradesh,Prayagraj,"Nagar Nigam, Prayagraj - UPPCB",22-03-2024 21:00:00,25.44919916 ,81.82735986 ,PM2.5,30,70,47
India,Uttar_Pradesh,Prayagraj,"Nagar Nigam, Prayagraj - UPPCB",22-03-2024 21:00:00,25.44919916 ,81.82735986 ,SO2,21,69,43
India,Uttar_Pradesh,Prayagraj,"Nagar Nigam, Prayagraj - UPPCB",22-03-2024 21:00:00,25.44919916 ,81.82735986 ,CO,18,70,29
India,Uttar_Pradesh,Varanasi,"IESD Banaras Hindu University, Varanasi - UPPCB",22-03-2024 21:00:00,25.262326,82.995408,NO2,2,3,2
India,Uttar_Pradesh,Varanasi,"IESD Banaras Hindu University, Varanasi - UPPCB",22-03-2024 21:00:00,25.262326,82.995408,NH3,1,5,3
India,Uttar_Pradesh,Vrindavan,"Omex Eternity, Vrindavan - UPPCB",22-03-2024 21:00:00,27.5714090,77.6557570,PM2.5,NA,NA,NA
India,Uttar_Pradesh,Vrindavan,"Omex Eternity, Vrindavan - UPPCB",22-03-2024 21:00:00,27.5714090,77.6557570,CO,41,54,45
India,Uttar_Pradesh,Vrindavan,"Omex Eternity, Vrindavan - UPPCB",22-03-2024 21:00:00,27.5714090,77.6557570,OZONE,31,35,33
India,Uttarakhand,Kashipur,"Govt. Girls Inter College, Kashipur - UKPCB",22-03-2024 21:00:00,29.2124114,78.9611753,NH3,5,14,7
India,Uttarakhand,Rishikesh,"Shivaji Nagar, Rishikesh - UKPCB",22-03-2024 21:00:00,30.075911,78.2859547,PM10,46,96,75
India,Uttarakhand,Rishikesh,"Shivaji Nagar, Rishikesh - UKPCB",22-03-2024 21:00:00,30.075911,78.2859547,SO2,3,6,4
India,West_Bengal,Asansol,"Asansol Court Area, Asansol - WBPCB",22-03-2024 21:00:00,23.685297,86.945968,PM2.5,83,398,232
India,West_Bengal,Asansol,"Asansol Court Area, Asansol - WBPCB",22-03-2024 21:00:00,23.685297,86.945968,NH3,3,13,7
India,West_Bengal,Durgapur,"Sidhu Kanhu Indoor Stadium, Durgapur - WBPCB",22-03-2024 21:00:00,23.5404352,87.2892225,NH3,3,3,3
India,West_Bengal,Durgapur,"Sidhu Kanhu Indoor Stadium, Durgapur - WBPCB",22-03-2024 21:00:00,23.5404352,87.2892225,SO2,17,43,27
India,West_Bengal,Durgapur,"Sidhu Kanhu Indoor Stadium, Durgapur - WBPCB",22-03-2024 21:00:00,23.5404352,87.2892225,CO,28,52,39
India,West_Bengal,Haldia,"Priyambada Housing Estate, Haldia - WBPCB",22-03-2024 21:00:00,22.06047,88.109737,NO2,16,79,28
India,West_Bengal,Haldia,"Priyambada Housing Estate, Haldia - WBPCB",22-03-2024 21:00:00,22.06047,88.109737,OZONE,14,98,33
India,West_Bengal,Howrah,"Belur Math, Howrah - WBPCB",22-03-2024 21:00:00,22.629801,88.352017,NH3,3,5,3
India,West_Bengal,Howrah,"Ghusuri, Howrah - WBPCB",22-03-2024 21:00:00,22.611968,88.347422,NO2,NA,NA,NA
India,West_Bengal,Howrah,"Ghusuri, Howrah - WBPCB",22-03-2024 21:00:00,22.611968,88.347422,NH3,NA,NA,NA
India,West_Bengal,Howrah,"Padmapukur, Howrah - WBPCB",22-03-2024 21:00:00,22.5687319,88.2797276,NO2,6,8,7
India,West_Bengal,Howrah,"Padmapukur, Howrah - WBPCB",22-03-2024 21:00:00,22.5687319,88.2797276,NH3,1,2,1
India,West_Bengal,Kolkata,"Ballygunge, Kolkata - WBPCB",22-03-2024 21:00:00,22.5367507,88.3638022,SO2,4,22,14
India,West_Bengal,Kolkata,"Bidhannagar, Kolkata - WBPCB",22-03-2024 21:00:00,22.58157048,88.41002457,NH3,9,12,10
India,West_Bengal,Kolkata,"Bidhannagar, Kolkata - WBPCB",22-03-2024 21:00:00,22.58157048,88.41002457,SO2,14,22,18
India,West_Bengal,Kolkata,"Fort William, Kolkata - WBPCB",22-03-2024 21:00:00,22.556640,88.342674,PM10,75,122,100
India,West_Bengal,Kolkata,"Fort William, Kolkata - WBPCB",22-03-2024 21:00:00,22.556640,88.342674,NO2,19,130,58
India,West_Bengal,Kolkata,"Jadavpur, Kolkata - WBPCB",22-03-2024 21:00:00,22.49929,88.36917,SO2,5,11,7
India,West_Bengal,Kolkata,"Jadavpur, Kolkata - WBPCB",22-03-2024 21:00:00,22.49929,88.36917,OZONE,10,88,57
India,West_Bengal,Kolkata,"Rabindra Bharati University, Kolkata - WBPCB",22-03-2024 21:00:00,22.627847,88.380669,PM2.5,35,85,60
India,West_Bengal,Kolkata,"Rabindra Bharati University, Kolkata - WBPCB",22-03-2024 21:00:00,22.627847,88.380669,NO2,9,22,18
India,West_Bengal,Kolkata,"Victoria, Kolkata - WBPCB",22-03-2024 21:00:00,22.5448082,88.3403691,NO2,6,29,13
India,Andhra_Pradesh,Amaravati,"Secretariat, Amaravati - APPCB",22-03-2024 21:00:00,16.5150833,80.5181667,PM10,32,114,55
India,Andhra_Pradesh,Kadapa,"Yerramukkapalli, Kadapa - APPCB",22-03-2024 21:00:00,14.465052,78.824187,NO2,7,8,8
India,Andhra_Pradesh,Kadapa,"Yerramukkapalli, Kadapa - APPCB",22-03-2024 21:00:00,14.465052,78.824187,SO2,2,3,2
India,Andhra_Pradesh,Rajamahendravaram,"Anand Kala Kshetram, Rajamahendravaram - APPCB",22-03-2024 21:00:00,16.9872867,81.7363176,SO2,9,12,11
India,Andhra_Pradesh,Tirupati,"Tirumala, Tirupati - APPCB",22-03-2024 21:00:00,13.67,79.35,PM10,35,71,50
India,Andhra_Pradesh,Vijayawada,"HB Colony, Vijayawada - APPCB",22-03-2024 21:00:00,16.536107,80.594233,PM10,60,84,74
India,Andhra_Pradesh,Vijayawada,"Rajiv Gandhi Park, Vijayawada - APPCB",22-03-2024 21:00:00,16.509717,80.612222,NH3,4,7,6
India,Andhra_Pradesh,Vijayawada,"Rajiv Gandhi Park, Vijayawada - APPCB",22-03-2024 21:00:00,16.509717,80.612222,SO2,5,9,7
India,Andhra_Pradesh,Vijayawada,"Rajiv Gandhi Park, Vijayawada - APPCB",22-03-2024 21:00:00,16.509717,80.612222,OZONE,3,70,49
India,Andhra_Pradesh,Vijayawada,"Rajiv Nagar, Vijayawada - APPCB",22-03-2024 21:00:00,16.554731,80.649110,SO2,13,26,20
India,Andhra_Pradesh,Visakhapatnam,"GVM Corporation, Visakhapatnam - APPCB",22-03-2024 21:00:00,17.72,83.3,PM2.5,30,104,63
India,Andhra_Pradesh,Visakhapatnam,"GVM Corporation, Visakhapatnam - APPCB",22-03-2024 21:00:00,17.72,83.3,OZONE,5,63,12
India,Arunachal_Pradesh,Naharlagun,"Naharlagun, Naharlagun - APSPCB",22-03-2024 21:00:00,27.103358,93.679645,PM10,10,74,32
India,Assam,Guwahati,"IITG, Guwahati - PCBA",22-03-2024 21:00:00,26.2028636,91.70046436,PM10,38,153,88
India,Assam,Guwahati,"LGBI Airport, Guwahati - PCBA",22-03-2024 21:00:00,26.10887,91.589544,NO2,8,113,25
India,Assam,Guwahati,"LGBI Airport, Guwahati - PCBA",22-03-2024 21:00:00,26.10887,91.589544,NH3,1,10,2
India,Assam,Guwahati,"LGBI Airport, Guwahati - PCBA",22-03-2024 21:00:00,26.10887,91.589544,SO2,1,14,13
India,Assam,Guwahati,"Pan Bazaar, Guwahati - PCBA",22-03-2024 21:00:00,26.187500,91.744194,PM10,37,146,82
India,Assam,Guwahati,"Pan Bazaar, Guwahati - PCBA",22-03-2024 21:00:00,26.187500,91.744194,SO2,55,71,61
India,Assam,Guwahati,"Pan Bazaar, Guwahati - PCBA",22-03-2024 21:00:00,26.187500,91.744194,OZONE,18,19,18
India,Assam,Nagaon,"Christianpatty, Nagaon - PCBA",22-03-2024 21:00:00,26.349082,92.68449,NH3,8,13,10
India,Assam,Nalbari,"Bata Chowk, Nalbari - PCBA",22-03-2024 21:00:00,26.446912,91.439057,PM10,40,143,76
India,Assam,Sivasagar,"Girls College, Sivasagar - PCBA",22-03-2024 21:00:00,26.987634,94.636574,NH3,2,2,2
India,Bihar,Araria,"Kharahiya Basti, Araria - BSPCB",22-03-2024 21:00:00,26.146529,87.454184,PM2.5,13,148,33
India,Bihar,Araria,"Kharahiya Basti, Araria - BSPCB",22-03-2024 21:00:00,26.146529,87.454184,NO2,5,8,7
India,Bihar,Arrah,"New DM Office, Arrah - BSPCB",22-03-2024 21:00:00,25.5626095,84.663264,PM2.5,35,193,80
India,Bihar,Arrah,"New DM Office, Arrah - BSPCB",22-03-2024 21:00:00,25.5626095,84.663264,NO2,7,31,19
India,Bihar,Arrah,"New DM Office, Arrah - BSPCB",22-03-2024 21:00:00,25.5626095,84.663264,NH3,4,6,5
India,Bihar,Arrah,"New DM Office, Arrah - BSPCB",22-03-2024 21:00:00,25.5626095,84.663264,SO2,14,21,18
India,Bihar,Arrah,"New DM Office, Arrah - BSPCB",22-03-2024 21:00:00,25.5626095,84.663264,OZONE,12,46,15
India,Bihar,Bhagalpur,"Mayaganj, Bhagalpur - BSPCB",22-03-2024 21:00:00,25.265194,87.012947,NO2,6,14,10
India,Bihar,Bihar Sharif,"D M Colony, Bihar Sharif - BSPCB",22-03-2024 21:00:00,25.204762,85.514960,NH3,2,2,2
India,Bihar,Buxar,"Charitra Van, Buxar - BSPCB (Formerly known as Central Jail)",22-03-2024 21:00:00,25.567520,83.966379,PM10,41,284,130
India,Bihar,Buxar,"Charitra Van, Buxar - BSPCB (Formerly known as Central Jail)",22-03-2024 21:00:00,25.567520,83.966379,NH3,NA,NA,NA
India,Bihar,Chhapra,"Darshan Nagar, Chhapra - BSPCB",22-03-2024 21:00:00,25.7808257,84.7446768,PM10,57,205,126
India,Bihar,Chhapra,"Darshan Nagar, Chhapra - BSPCB",22-03-2024 21:00:00,25.7808257,84.7446768,NH3,7,16,12
India,Bihar,Gaya,"Collectorate, Gaya - BSPCB",22-03-2024 21:00:00,24.7955,84.9994,SO2,5,25,14
India,Bihar,Gaya,"Collectorate, Gaya - BSPCB",22-03-2024 21:00:00,24.7955,84.9994,OZONE,42,81,70
India,Bihar,Gaya,"Kareemganj, Gaya - BSPCB",22-03-2024 21:00:00,24.792403,84.992416,NH3,1,5,3
India,Bihar,Gaya,"Kareemganj, Gaya - BSPCB",22-03-2024 21:00:00,24.792403,84.992416,OZONE,2,49,16
India,Bihar,Hajipur,"Industrial Area, Hajipur - BSPCB",22-03-2024 21:00:00,25.697189,85.245900,PM10,76,451,143
India,Bihar,Hajipur,"Industrial Area, Hajipur - BSPCB",22-03-2024 21:00:00,25.697189,85.245900,NO2,48,122,68
India,Bihar,Kishanganj,"SDM Office_Khagra, Kishanganj - BSPCB",22-03-2024 21:00:00,26.0881305,87.93840336,PM10,NA,NA,NA
India,Bihar,Kishanganj,"SDM Office_Khagra, Kishanganj - BSPCB",22-03-2024 21:00:00,26.0881305,87.93840336,CO,3,10,5
India,Bihar,Munger,"Town Hall, Munger - BSPCB",22-03-2024 21:00:00,25.376776,86.471523,CO,2,10,4
India,Bihar,Munger,"Town Hall, Munger - BSPCB",22-03-2024 21:00:00,25.376776,86.471523,OZONE,19,134,32
India,Bihar,Muzaffarpur,"Buddha Colony, Muzaffarpur - BSPCB",22-03-2024 21:00:00,26.11442,85.39813,NO2,16,57,29
India,Bihar,Muzaffarpur,"Buddha Colony, Muzaffarpur - BSPCB",22-03-2024 21:00:00,26.11442,85.39813,NH3,13,25,18
India,Bihar,Muzaffarpur,"Buddha Colony, Muzaffarpur - BSPCB",22-03-2024 21:00:00,26.11442,85.39813,CO,19,88,36
India,Bihar,Muzaffarpur,"MIT-Daudpur Kothi, Muzaffarpur - BSPCB",22-03-2024 21:00:00,26.1403345,85.3650192,SO2,7,11,10
India,Bihar,Muzaffarpur,"Muzaffarpur Collectorate, Muzaffarpur - BSPCB",22-03-2024 21:00:00,26.1209,85.3647,SO2,5,8,7
India,Bihar,Patna,"DRM Office Danapur, Patna - BSPCB",22-03-2024 21:00:00,25.586562,85.043586,PM10,84,346,159
India,Bihar,Patna,"DRM Office Danapur, Patna - BSPCB",22-03-2024 21:00:00,25.586562,85.043586,NO2,9,79,30
India,Bihar,Patna,"DRM Office Danapur, Patna - BSPCB",22-03-2024 21:00:00,25.586562,85.043586,NH3,3,3,3
India,Bihar,Patna,"DRM Office Danapur, Patna - BSPCB",22-03-2024 21:00:00,25.586562,85.043586,SO2,6,9,7
India,Bihar,Patna,"IGSC Planetarium Complex, Patna - BSPCB",22-03-2024 21:00:00,25.610369,85.132568,OZONE,4,68,23
India,Bihar,Patna,"Muradpur, Patna - BSPCB",22-03-2024 21:00:00,25.619651,85.147382,SO2,6,12,9
India,Bihar,Patna,"Samanpura, Patna - BSPCB",22-03-2024 21:00:00,25.596727,85.085624,SO2,6,16,13
India,Bihar,Purnia,"Mariam Nagar, Purnia - BSPCB",22-03-2024 21:00:00,25.366336,87.117468,PM2.5,17,120,35
India,Bihar,Purnia,"Mariam Nagar, Purnia - BSPCB",22-03-2024 21:00:00,25.366336,87.117468,OZONE,5,26,14
India,Bihar,Rajgir,"Dangi Tola, Rajgir - BSPCB",22-03-2024 21:00:00,25.03280,85.41948,NO2,1,1,1
India,Bihar,Rajgir,"Dangi Tola, Rajgir - BSPCB",22-03-2024 21:00:00,25.03280,85.41948,CO,10,11,10
India,Bihar,Saharsa,"Police Line, Saharsa - BSPCB",22-03-2024 21:00:00,25.892357,86.590325,PM10,28,286,62
India,Bihar,Saharsa,"Police Line, Saharsa - BSPCB",22-03-2024 21:00:00,25.892357,86.590325,SO2,16,16,16
India,Bihar,Samastipur,"DM Office_Kasipur, Samastipur - BSPCB",22-03-2024 21:00:00,25.859655,85.77944,PM2.5,NA,NA,NA
India,Bihar,Samastipur,"DM Office_Kasipur, Samastipur - BSPCB",22-03-2024 21:00:00,25.859655,85.77944,OZONE,8,11,9
India,Bihar,Sasaram,"Dada Peer, Sasaram - BSPCB",22-03-2024 21:00:00,24.952822,84.002396,SO2,20,23,22
India,Bihar,Sasaram,"Dada Peer, Sasaram - BSPCB",22-03-2024 21:00:00,24.952822,84.002396,OZONE,4,82,61
India,Bihar,Siwan,"Chitragupta Nagar, Siwan - BSPCB",22-03-2024 21:00:00,26.2271665,84.3570427,CO,1,124,73
India,Chandigarh,Chandigarh,"Sector 22, Chandigarh - CPCC",22-03-2024 21:00:00,30.735567,76.775714,PM2.5,75,143,105
India,Chhattisgarh,Bhilai,"32Bungalows, Bhilai - CECB",22-03-2024 21:00:00,21.194815,81.314770,NH3,6,6,6
India,Chhattisgarh,Bhilai,"Civic Center, Bhilai - Bhilai Steel Plant",22-03-2024 21:00:00,21.185571,81.343175,PM2.5,NA,NA,NA
India,Chhattisgarh,Bhilai,"Civic Center, Bhilai - Bhilai Steel Plant",22-03-2024 21:00:00,21.185571,81.343175,PM10,NA,NA,NA
India,Chhattisgarh,Bhilai,"Hathkhoj, Bhilai - CECB",22-03-2024 21:00:00,21.224231,81.408350,PM10,64,194,107
India,Chhattisgarh,Bhilai,"Hathkhoj, Bhilai - CECB",22-03-2024 21:00:00,21.224231,81.408350,NH3,7,8,8
India,Chhattisgarh,Korba,"Rampur, Korba - CECB",22-03-2024 21:00:00,22.368195,82.746431,PM10,25,165,64
India,Chhattisgarh,Korba,"Rampur, Korba - CECB",22-03-2024 21:00:00,22.368195,82.746431,NO2,35,50,39
India,Chhattisgarh,Korba,"Urja Nagar, Korba - CECB",22-03-2024 21:00:00,22.348441,82.549611,SO2,1,7,2
India,Chhattisgarh,Kunjemura,"OP Jindal School, Kunjemura - CECB",22-03-2024 21:00:00,22.126650,83.483212,SO2,2,26,12
India,Chhattisgarh,Milupara,"Govt. Higher Secondary School, Milupara - CECB",22-03-2024 21:00:00,22.1910172,83.5197009,NO2,11,63,27
India,Chhattisgarh,Raipur,"Bhatagaon New ISBT, Raipur - CECB",22-03-2024 21:00:00,21.219665,81.630094,PM10,60,124,82
India,Chhattisgarh,Raipur,"Bhatagaon New ISBT, Raipur - CECB",22-03-2024 21:00:00,21.219665,81.630094,NO2,61,84,74
India,Chhattisgarh,Raipur,"Krishak Nagar, Raipur - CECB",22-03-2024 21:00:00,21.237755,81.705301,NO2,27,41,32
India,Chhattisgarh,Raipur,"Siltara Phase-II, Raipur - CECB",22-03-2024 21:00:00,21.371751,81.664929,NO2,NA,NA,NA
India,Chhattisgarh,Raipur,"Siltara Phase-II, Raipur - CECB",22-03-2024 21:00:00,21.371751,81.664929,CO,14,50,25
India,Chhattisgarh,Tumidih,"OP Jindal Industrial Park, Tumidih - CECB",22-03-2024 21:00:00,22.06631475,83.33820077,NH3,1,3,2
India,Chhattisgarh,Tumidih,"OP Jindal Industrial Park, Tumidih - CECB",22-03-2024 21:00:00,22.06631475,83.33820077,OZONE,4,90,67
India,Delhi,Delhi,"Alipur, Delhi - DPCC",22-03-2024 21:00:00,28.815329,77.153010,PM10,124,232,158
India,Delhi,Delhi,"Alipur, Delhi - DPCC",22-03-2024 21:00:00,28.815329,77.153010,NH3,7,11,8
India,Delhi,Delhi,"Anand Vihar, Delhi - DPCC",22-03-2024 21:00:00,28.647622,77.3158090,PM2.5,NA,NA,NA
India,Delhi,Delhi,"Anand Vihar, Delhi - DPCC",22-03-2024 21:00:00,28.647622,77.3158090,OZONE,6,128,77
India,Delhi,Delhi,"Aya Nagar, Delhi - IMD",22-03-2024 21:00:00,28.4706914,77.1099364,OZONE,6,75,28
India,Delhi,Delhi,"Bawana, Delhi - DPCC",22-03-2024 21:00:00,28.776200,77.051074,PM2.5,93,316,213
India,Delhi,Delhi,"Bawana, Delhi - DPCC",22-03-2024 21:00:00,28.776200,77.051074,CO,58,106,72
India,Delhi,Delhi,"Chandni Chowk, Delhi - IITM",22-03-2024 21:00:00,28.656756,77.227234,SO2,12,69,38
India,Delhi,Delhi,"DTU, Delhi - CPCB",22-03-2024 21:00:00,28.7500499,77.1112615,NO2,29,63,43
India,Delhi,Delhi,"DTU, Delhi - CPCB",22-03-2024 21:00:00,28.7500499,77.1112615,SO2,28,29,29
India,Delhi,Delhi,"Dr. Karni Singh Shooting Range, Delhi - DPCC",22-03-2024 21:00:00,28.498571,77.264840,PM10,105,179,132
India,Delhi,Delhi,"Dr. Karni Singh Shooting Range, Delhi - DPCC",22-03-2024 21:00:00,28.498571,77.264840,NH3,9,11,10
India,Delhi,Delhi,"Dr. Karni Singh Shooting Range, Delhi - DPCC",22-03-2024 21:00:00,28.498571,77.264840,CO,38,102,54
India,Delhi,Delhi,"Dwarka-Sector 8, Delhi - DPCC ",22-03-2024 21:00:00,28.5710274,77.0719006,PM2.5,79,227,129
India,Delhi,Delhi,"Dwarka-Sector 8, Delhi - DPCC ",22-03-2024 21:00:00,28.5710274,77.0719006,NH3,4,9,6
India,Delhi,Delhi,"Dwarka-Sector 8, Delhi - DPCC ",22-03-2024 21:00:00,28.5710274,77.0719006,CO,50,143,79
India,Delhi,Delhi,"IGI Airport (T3), Delhi - IMD",22-03-2024 21:00:00,28.5627763,77.1180053,PM10,86,166,119
India,Delhi,Delhi,"IHBAS, Dilshad Garden, Delhi - CPCB",22-03-2024 21:00:00,28.6811736,77.3025234,PM2.5,53,130,68
India,Delhi,Delhi,"IHBAS, Dilshad Garden, Delhi - CPCB",22-03-2024 21:00:00,28.6811736,77.3025234,NO2,2,12,7
India,Delhi,Delhi,"ITO, Delhi - CPCB",22-03-2024 21:00:00,28.628624,77.241060,PM2.5,108,329,262
India,Delhi,Delhi,"Jahangirpuri, Delhi - DPCC",22-03-2024 21:00:00,28.732820,77.170633,PM10,116,357,159
India,Delhi,Delhi,"Jahangirpuri, Delhi - DPCC",22-03-2024 21:00:00,28.732820,77.170633,CO,50,111,74
India,Delhi,Delhi,"Jawaharlal Nehru Stadium, Delhi - DPCC",22-03-2024 21:00:00,28.580280,77.233829,PM10,115,168,136
India,Delhi,Delhi,"Jawaharlal Nehru Stadium, Delhi - DPCC",22-03-2024 21:00:00,28.580280,77.233829,OZONE,2,167,100
India,Delhi,Delhi,"Lodhi Road, Delhi - IITM",22-03-2024 21:00:00,28.588333,77.221667,SO2,15,25,22
India,Delhi,Delhi,"Lodhi Road, Delhi - IMD",22-03-2024 21:00:00,28.5918245,77.2273074,NO2,2,12,5
India,Delhi,Delhi,"Mandir Marg, Delhi - DPCC",22-03-2024 21:00:00,28.636429,77.201067,SO2,5,12,8
India,Delhi,Delhi,"NSIT Dwarka, Delhi - CPCB",22-03-2024 21:00:00,28.60909,77.0325413,NH3,7,19,11
India,Delhi,Delhi,"NSIT Dwarka, Delhi - CPCB",22-03-2024 21:00:00,28.60909,77.0325413,OZONE,9,51,38
India,Delhi,Delhi,"Najafgarh, Delhi - DPCC",22-03-2024 21:00:00,28.570173,76.933762,PM2.5,71,184,107
India,Delhi,Delhi,"Narela, Delhi - DPCC",22-03-2024 21:00:00,28.822836,77.101981,PM10,147,466,217
India,Delhi,Delhi,"Nehru Nagar, Delhi - DPCC",22-03-2024 21:00:00,28.567890,77.250515,PM10,116,256,143
India,Delhi,Delhi,"New Moti Bagh, Delhi - MHUA",22-03-2024 21:00:00,28.57834,77.18400,NO2,1,16,2
India,Delhi,Delhi,"North Campus, DU, Delhi - IMD",22-03-2024 21:00:00,28.6573814,77.1585447,PM10,NA,NA,NA
India,Delhi,Delhi,"Okhla Phase-2, Delhi - DPCC",22-03-2024 21:00:00,28.530785,77.271255,CO,56,118,81
India,Delhi,Delhi,"Pusa, Delhi - DPCC",22-03-2024 21:00:00,28.639652,77.146275,NO2,37,123,71
India,Delhi,Delhi,"Pusa, Delhi - DPCC",22-03-2024 21:00:00,28.639652,77.146275,CO,2,44,26
India,Delhi,Delhi,"Rohini, Delhi - DPCC",22-03-2024 21:00:00,28.732528,77.119920,PM2.5,90,300,139
India,Delhi,Delhi,"Rohini, Delhi - DPCC",22-03-2024 21:00:00,28.732528,77.119920,PM10,125,307,157
India,Delhi,Delhi,"Shadipur, Delhi - CPCB",22-03-2024 21:00:00,28.6514781,77.1473105,NO2,34,55,43
India,Delhi,Delhi,"Sirifort, Delhi - CPCB",22-03-2024 21:00:00,28.5504249,77.2159377,NO2,12,87,41
India,Delhi,Delhi,"Sirifort, Delhi - CPCB",22-03-2024 21:00:00,28.5504249,77.2159377,SO2,39,42,40
India,Delhi,Delhi,"Sirifort, Delhi - CPCB",22-03-2024 21:00:00,28.5504249,77.2159377,OZONE,7,87,52
India,Delhi,Delhi,"Sonia Vihar, Delhi - DPCC",22-03-2024 21:00:00,28.710508,77.249485,PM2.5,93,250,154
India,Delhi,Delhi,"Sonia Vihar, Delhi - DPCC",22-03-2024 21:00:00,28.710508,77.249485,NO2,28,108,45
India,Delhi,Delhi,"Sonia Vihar, Delhi - DPCC",22-03-2024 21:00:00,28.710508,77.249485,CO,48,108,64
India,Delhi,Delhi,"Sri Aurobindo Marg, Delhi - DPCC",22-03-2024 21:00:00,28.531346,77.190156,PM10,106,175,143
India,Delhi,Delhi,"Vivek Vihar, Delhi - DPCC",22-03-2024 21:00:00,28.672342,77.315260,PM10,NA,NA,NA
India,Delhi,Delhi,"Vivek Vihar, Delhi - DPCC",22-03-2024 21:00:00,28.672342,77.315260,NO2,NA,NA,NA
India,Delhi,Delhi,"Wazirpur, Delhi - DPCC",22-03-2024 21:00:00,28.699793,77.165453,PM10,131,351,179
India,Gujarat,Ahmedabad,"Chandkheda, Ahmedabad - IITM",22-03-2024 21:00:00,23.107969,72.574648,NO2,74,141,92
India,Gujarat,Ahmedabad,"Chandkheda, Ahmedabad - IITM",22-03-2024 21:00:00,23.107969,72.574648,CO,10,106,40
India,Gujarat,Ahmedabad,"Maninagar, Ahmedabad - GPCB",22-03-2024 21:00:00,23.002657,72.591912,PM2.5,34,211,102
India,Gujarat,Ahmedabad,"Maninagar, Ahmedabad - GPCB",22-03-2024 21:00:00,23.002657,72.591912,PM10,64,188,120
India,Gujarat,Ahmedabad,"Maninagar, Ahmedabad - GPCB",22-03-2024 21:00:00,23.002657,72.591912,NO2,25,138,67
India,Gujarat,Ahmedabad,"Maninagar, Ahmedabad - GPCB",22-03-2024 21:00:00,23.002657,72.591912,SO2,4,21,10
India,Gujarat,Ahmedabad,"Raikhad, Ahmedabad - IITM",22-03-2024 21:00:00,23.020509,72.579261,PM10,50,220,121
India,Gujarat,Ahmedabad,"Raikhad, Ahmedabad - IITM",22-03-2024 21:00:00,23.020509,72.579261,SO2,5,14,7
India,Gujarat,Ahmedabad,"Raikhad, Ahmedabad - IITM",22-03-2024 21:00:00,23.020509,72.579261,CO,26,162,50
India,Gujarat,Ahmedabad,"SAC ISRO Satellite, Ahmedabad - IITM",22-03-2024 21:00:00,23.023389,72.515201,NH3,3,3,3
India,Gujarat,Ahmedabad,"SVPI Airport Hansol, Ahmedabad - IITM",22-03-2024 21:00:00,23.076793,72.627874,SO2,10,11,11
India,Gujarat,Ahmedabad,"SVPI Airport Hansol, Ahmedabad - IITM",22-03-2024 21:00:00,23.076793,72.627874,CO,22,110,32
India,Gujarat,Ahmedabad,"Sardar Vallabhbhai Patel Stadium, Ahmedabad - IITM",22-03-2024 21:00:00,23.043070,72.562968,SO2,1,12,7
India,Gujarat,Ankleshwar,"GIDC, Ankleshwar - GPCB",22-03-2024 21:00:00,21.613267,73.010555,PM2.5,55,140,92
India,Gujarat,Gandhinagar,"GIFT City, Gandhinagar - IITM",22-03-2024 21:00:00,23.163798,72.677768,PM2.5,44,302,192
India,Gujarat,Gandhinagar,"GIFT City, Gandhinagar - IITM",22-03-2024 21:00:00,23.163798,72.677768,SO2,7,10,8
India,Gujarat,Gandhinagar,"GIFT City, Gandhinagar - IITM",22-03-2024 21:00:00,23.163798,72.677768,CO,12,32,13
India,Gujarat,Gandhinagar,"Sector-10, Gandhinagar - GPCB",22-03-2024 21:00:00,23.221714,72.654328,PM2.5,26,82,51
India,Gujarat,Surat,"Science Center, Surat - SMC",22-03-2024 21:00:00,21.170046,72.795405,NO2,20,62,44
India,Gujarat,Surat,"Science Center, Surat - SMC",22-03-2024 21:00:00,21.170046,72.795405,SO2,6,40,22
India,Gujarat,Surat,"Science Center, Surat - SMC",22-03-2024 21:00:00,21.170046,72.795405,CO,46,106,58
India,Gujarat,Vapi,"Phase-1 GIDC, Vapi - GPCB",22-03-2024 21:00:00,20.362421,72.918013,NH3,2,2,2
India,Gujarat,Vapi,"Phase-1 GIDC, Vapi - GPCB",22-03-2024 21:00:00,20.362421,72.918013,SO2,50,52,51
India,Haryana,Ambala,"Patti Mehar, Ambala - HSPCB",22-03-2024 21:00:00,30.379589,76.778328,NH3,NA,NA,NA
India,Haryana,Bahadurgarh,"Arya Nagar, Bahadurgarh - HSPCB",22-03-2024 21:00:00,28.6701,76.9254,PM10,97,173,121
India,Haryana,Bahadurgarh,"Arya Nagar, Bahadurgarh - HSPCB",22-03-2024 21:00:00,28.6701,76.9254,NH3,10,12,11
India,Haryana,Bhiwani,"H.B. Colony, Bhiwani - HSPCB",22-03-2024 21:00:00,28.806223,76.141105,PM10,83,136,106
India,Haryana,Bhiwani,"H.B. Colony, Bhiwani - HSPCB",22-03-2024 21:00:00,28.806223,76.141105,SO2,1,80,12
India,Haryana,Bhiwani,"H.B. Colony, Bhiwani - HSPCB",22-03-2024 21:00:00,28.806223,76.141105,OZONE,9,78,15
India,Haryana,Charkhi Dadri,"Mini Secretariat, Charkhi Dadri - HSPCB",22-03-2024 21:00:00,28.593883,76.270653,PM10,95,135,115
India,Haryana,Charkhi Dadri,"Mini Secretariat, Charkhi Dadri - HSPCB",22-03-2024 21:00:00,28.593883,76.270653,SO2,15,66,33
India,Haryana,Dharuhera,"Municipal Corporation Office, Dharuhera -  HSPCB",22-03-2024 21:00:00,28.206800,76.799700,PM2.5,60,160,97
India,Haryana,Dharuhera,"Municipal Corporation Office, Dharuhera -  HSPCB",22-03-2024 21:00:00,28.206800,76.799700,NO2,46,110,74
India,Haryana,Dharuhera,"Municipal Corporation Office, Dharuhera -  HSPCB",22-03-2024 21:00:00,28.206800,76.799700,SO2,15,24,18
India,Haryana,Faridabad,"New Industrial Town, Faridabad - HSPCB",22-03-2024 21:00:00,28.39072,77.30059,CO,16,80,28
India,Haryana,Faridabad,"Sector 11, Faridabad - HSPCB",22-03-2024 21:00:00,28.376058,77.315741,PM2.5,103,287,155
India,Haryana,Faridabad,"Sector 11, Faridabad - HSPCB",22-03-2024 21:00:00,28.376058,77.315741,NO2,30,33,31
India,Haryana,Faridabad,"Sector 11, Faridabad - HSPCB",22-03-2024 21:00:00,28.376058,77.315741,OZONE,4,16,10
India,Haryana,Faridabad,"Sector 30, Faridabad - HSPCB",22-03-2024 21:00:00,28.4417,77.3217,SO2,2,6,4
India,Haryana,Fatehabad,"Huda Sector, Fatehabad - HSPCB",22-03-2024 21:00:00,29.503664,75.467934,NH3,13,14,13
India,Haryana,Fatehabad,"Huda Sector, Fatehabad - HSPCB",22-03-2024 21:00:00,29.503664,75.467934,OZONE,68,104,87
India,Haryana,Hisar,"Urban Estate-II, Hisar - HSPCB",22-03-2024 21:00:00,29.140560,75.744941,PM2.5,88,168,126
India,Haryana,Hisar,"Urban Estate-II, Hisar - HSPCB",22-03-2024 21:00:00,29.140560,75.744941,NO2,21,22,21
India,Haryana,Jind,"Police Lines, Jind - HSPCB",22-03-2024 21:00:00,29.307814,76.337619,PM10,86,108,99
India,Haryana,Jind,"Police Lines, Jind - HSPCB",22-03-2024 21:00:00,29.307814,76.337619,OZONE,13,46,37
India,Haryana,Kaithal,"Rishi Nagar, Kaithal - HSPCB",22-03-2024 21:00:00,29.8006,76.4155,PM10,83,117,105
India,Haryana,Kaithal,"Rishi Nagar, Kaithal - HSPCB",22-03-2024 21:00:00,29.8006,76.4155,SO2,6,104,32
India,Haryana,Karnal,"Sector-12, Karnal - HSPCB",22-03-2024 21:00:00,29.695300,77.002700,PM10,64,105,85
India,Haryana,Karnal,"Sector-12, Karnal - HSPCB",22-03-2024 21:00:00,29.695300,77.002700,NO2,7,12,10
India,Haryana,Karnal,"Sector-12, Karnal - HSPCB",22-03-2024 21:00:00,29.695300,77.002700,OZONE,19,23,21
India,Haryana,Kurukshetra,"Sector-7, Kurukshetra - HSPCB",22-03-2024 21:00:00,29.966942,76.875879,PM10,83,112,101
India,Haryana,Kurukshetra,"Sector-7, Kurukshetra - HSPCB",22-03-2024 21:00:00,29.966942,76.875879,SO2,6,78,30
India,Haryana,Mandikhera,"General Hospital, Mandikhera - HSPCB",22-03-2024 21:00:00,27.9002,76.9938,OZONE,23,31,26
India,Haryana,Manesar,"Sector-2 IMT, Manesar - HSPCB",22-03-2024 21:00:00,28.360699,76.936090,NO2,17,23,19
India,Haryana,Palwal,"Shyam Nagar, Palwal - HSPCB",22-03-2024 21:00:00,28.1485564,77.3320667,NO2,23,24,24
India,Haryana,Panchkula,"Sector-6, Panchkula - HSPCB ",22-03-2024 21:00:00,30.7057778,76.8531805555555,SO2,11,12,12
India,Haryana,Panipat,"Sector-18, Panipat - HSPCB",22-03-2024 21:00:00,29.497973,76.993331,CO,24,26,25
India,Haryana,Rohtak,"MD University, Rohtak - HSPCB",22-03-2024 21:00:00,28.52123,76.37138,OZONE,45,55,49
India,Haryana,Sirsa,"F-Block, Sirsa - HSPCB",22-03-2024 21:00:00,29.536400,75.015800,SO2,48,75,60
India,Haryana,Yamuna Nagar,"Gobind Pura, Yamuna Nagar - HSPCB",22-03-2024 21:00:00,30.1480566,77.2893471,PM2.5,NA,NA,NA
India,Haryana,Yamuna Nagar,"Gobind Pura, Yamuna Nagar - HSPCB",22-03-2024 21:00:00,30.1480566,77.2893471,NO2,NA,NA,NA
India,Haryana,Yamuna Nagar,"Gobind Pura, Yamuna Nagar - HSPCB",22-03-2024 21:00:00,30.1480566,77.2893471,CO,NA,NA,NA
India,Haryana,Yamuna Nagar,"Gobind Pura, Yamuna Nagar - HSPCB",22-03-2024 21:00:00,30.1480566,77.2893471,OZONE,NA,NA,NA
India,Himachal Pradesh,Baddi,"HIMUDA Complex Phase-1, Baddi - HPPCB",22-03-2024 21:00:00,30.943887,76.801991,NO2,11,38,23
India,Jharkhand,Dhanbad,"Sardar Patel Nagar, Dhanbad - JSPCB",22-03-2024 21:00:00,23.80569,86.44268,SO2,NA,NA,NA
India,Jharkhand,Pathardih,"Mohalbani Ghat, Pathardih - DMC",22-03-2024 21:00:00,23.669880,86.411725,PM2.5,NA,NA,NA
India,Jharkhand,Pathardih,"Mohalbani Ghat, Pathardih - DMC",22-03-2024 21:00:00,23.669880,86.411725,NO2,NA,NA,NA
India,Jharkhand,Pathardih,"Mohalbani Ghat, Pathardih - DMC",22-03-2024 21:00:00,23.669880,86.411725,OZONE,NA,NA,NA
India,Karnataka,Bagalkot,"Vidayagiri, Bagalkot - KSPCB",22-03-2024 21:00:00,16.172806,75.659694,NO2,9,10,9
India,Karnataka,Bagalkot,"Vidayagiri, Bagalkot - KSPCB",22-03-2024 21:00:00,16.172806,75.659694,NH3,1,2,1
India,Karnataka,Bengaluru,"BTM Layout, Bengaluru - CPCB",22-03-2024 21:00:00,12.9135218,77.5950804,NO2,NA,NA,NA
India,Karnataka,Bengaluru,"Hombegowda Nagar, Bengaluru - KSPCB",22-03-2024 21:00:00,12.938539,77.590100,CO,10,25,12
India,Karnataka,Bengaluru,"Hombegowda Nagar, Bengaluru - KSPCB",22-03-2024 21:00:00,12.938539,77.590100,OZONE,4,5,4
India,Karnataka,Bengaluru,"Jayanagar 5th Block, Bengaluru - KSPCB",22-03-2024 21:00:00,12.920984,77.584908,PM10,46,133,88
India,Karnataka,Bengaluru,"Jigani, Bengaluru - KSPCB",22-03-2024 21:00:00,12.7816279,77.6299145,NH3,4,4,4
India,Karnataka,Bengaluru,"Jigani, Bengaluru - KSPCB",22-03-2024 21:00:00,12.7816279,77.6299145,SO2,16,16,16
India,Karnataka,Bengaluru,"Kasturi Nagar, Bengaluru - KSPCB",22-03-2024 21:00:00,13.003872,77.664217,PM2.5,62,111,87
India,Karnataka,Bengaluru,"Kasturi Nagar, Bengaluru - KSPCB",22-03-2024 21:00:00,13.003872,77.664217,NH3,4,4,4
India,Karnataka,Bengaluru,"Sanegurava Halli, Bengaluru - KSPCB",22-03-2024 21:00:00,12.990328,77.5431385,SO2,2,3,3
India,Karnataka,Bengaluru,"Shivapura_Peenya, Bengaluru - KSPCB",22-03-2024 21:00:00,13.0246342,77.5080115,NH3,4,4,4
India,Karnataka,Bengaluru,"Silk Board, Bengaluru - KSPCB",22-03-2024 21:00:00,12.917348,77.622813,CO,12,40,28
India,Karnataka,Bidar,"Naubad, Bidar - KSPCB",22-03-2024 21:00:00,17.930306,77.482194,PM2.5,25,76,54
India,Karnataka,Bidar,"Naubad, Bidar - KSPCB",22-03-2024 21:00:00,17.930306,77.482194,SO2,15,19,17
India,Karnataka,Bidar,"Naubad, Bidar - KSPCB",22-03-2024 21:00:00,17.930306,77.482194,CO,49,78,60
India,Karnataka,Chamarajanagar,"Urban, Chamarajanagar - KSPCB",22-03-2024 21:00:00,11.55358,76.55521,PM2.5,19,52,31
India,Karnataka,Chamarajanagar,"Urban, Chamarajanagar - KSPCB",22-03-2024 21:00:00,11.55358,76.55521,NO2,23,29,29
India,Karnataka,Chamarajanagar,"Urban, Chamarajanagar - KSPCB",22-03-2024 21:00:00,11.55358,76.55521,NH3,1,2,2
India,Karnataka,Chikkamagaluru,"Kalyana Nagara, Chikkamagaluru - KSPCB",22-03-2024 21:00:00,13.328028,75.797056,NH3,3,4,4
India,Karnataka,Davanagere,"Devaraj Urs Badavane, Davanagere - KSPCB",22-03-2024 21:00:00,14.475800,75.905200,NO2,12,17,14
India,Karnataka,Davanagere,"Devaraj Urs Badavane, Davanagere - KSPCB",22-03-2024 21:00:00,14.475800,75.905200,CO,18,22,19
India,Karnataka,Dharwad,"Kalabhavan, Dharwad - KSPCB",22-03-2024 21:00:00,15.459706,75.008381,OZONE,2,22,13
India,Karnataka,Gadag,"Panchal Nagar, Gadag - KSPCB",22-03-2024 21:00:00,15.411456,75.638133,SO2,12,20,15
India,Karnataka,Haveri,"Ashwini Nagar, Haveri - KSPCB",22-03-2024 21:00:00,14.791800,75.389600,NH3,3,3,3
India,Karnataka,Hubballi,"Deshpande Nagar, Hubballi - KSPCB",22-03-2024 21:00:00,15.351773,75.140726,CO,82,111,99
India,Karnataka,Hubballi,"Deshpande Nagar, Hubballi - KSPCB",22-03-2024 21:00:00,15.351773,75.140726,OZONE,33,57,44
India,Karnataka,Hubballi,"Lingaraj Nagar, Hubballi - KSPCB",22-03-2024 21:00:00,15.3714823,75.1160168,CO,55,190,70
India,Karnataka,Kalaburagi,"Lal Bahadur Shastri Nagar, Kalaburagi - KSPCB",22-03-2024 21:00:00,17.321993,76.822628,NO2,11,12,11
India,Karnataka,Kalaburagi,"Lal Bahadur Shastri Nagar, Kalaburagi - KSPCB",22-03-2024 21:00:00,17.321993,76.822628,OZONE,2,75,61
India,Karnataka,Kalaburagi,"Mahatma Basaveswar Colony, Kalaburgi - KSPCB",22-03-2024 21:00:00,17.336318,76.847397,PM10,26,126,60
India,Karnataka,Kalaburagi,"Mahatma Basaveswar Colony, Kalaburgi - KSPCB",22-03-2024 21:00:00,17.336318,76.847397,OZONE,2,20,16
India,Karnataka,Karwar,"KHB Colony, Karwar - KSPCB",22-03-2024 21:00:00,14.816666,74.141003,NO2,1,14,4
India,Karnataka,Karwar,"KHB Colony, Karwar - KSPCB",22-03-2024 21:00:00,14.816666,74.141003,OZONE,21,22,21
India,Karnataka,Kolar,"Tamaka Ind. Area, Kolar - KSPCB",22-03-2024 21:00:00,13.1276288,78.1570122,OZONE,13,15,15
India,Karnataka,Koppal,"Diwator Nagar, Koppal - KSPCB",22-03-2024 21:00:00,15.347630,76.181767,SO2,69,70,70
India,Karnataka,Koppal,"Diwator Nagar, Koppal - KSPCB",22-03-2024 21:00:00,15.347630,76.181767,OZONE,22,71,58
India,Karnataka,Madikeri,"Stuart Hill, Madikeri - KSPCB",22-03-2024 21:00:00,12.415911,75.735050,PM10,39,67,48
India,Karnataka,Mysuru,"Hebbal 1st Stage, Mysuru - KSPCB",22-03-2024 21:00:00,12.21041,76.37376,PM2.5,25,57,37
India,Karnataka,Mysuru,"Hebbal 1st Stage, Mysuru - KSPCB",22-03-2024 21:00:00,12.21041,76.37376,PM10,39,57,50
India,Karnataka,Mysuru,"Hebbal 1st Stage, Mysuru - KSPCB",22-03-2024 21:00:00,12.21041,76.37376,CO,6,84,26
India,Karnataka,Raichur,"Haji Colony, Raichur - KSPCB",22-03-2024 21:00:00,16.208139,77.348417,OZONE,3,39,14
India,Karnataka,Ramanagara,"Vijay Nagar, Ramanagara - KSPCB",22-03-2024 21:00:00,12.733409,77.298051,SO2,14,30,24
India,Karnataka,Ramanagara,"Vijay Nagar, Ramanagara - KSPCB",22-03-2024 21:00:00,12.733409,77.298051,CO,2,30,21
India,Karnataka,Shivamogga,"Vinoba Nagara, Shivamogga - KSPCB",22-03-2024 21:00:00,13.940000,75.555917,PM10,49,80,58
India,Karnataka,Shivamogga,"Vinoba Nagara, Shivamogga - KSPCB",22-03-2024 21:00:00,13.940000,75.555917,SO2,2,12,9
