country,state,city,station,last_update,latitude,longitude,pollutant_id,pollutant_min,pollutant_max,pollutant_avg
India,Andhra_Pradesh,Amaravati,"Secretariat, Amaravati - APPCB",27-02-2024 06:00:00,16.5150833,80.5181667,PM10,39,69,54
India,Andhra_Pradesh,Amaravati,"Secretariat, Amaravati - APPCB",27-02-2024 06:00:00,16.5150833,80.5181667,NH3,3,5,4
India,Andhra_Pradesh,Amaravati,"Secretariat, Amaravati - APPCB",27-02-2024 06:00:00,16.5150833,80.5181667,OZONE,2,24,12
India,Andhra_Pradesh,Anantapur,"Gulzarpet, Anantapur - APPCB",27-02-2024 06:00:00,14.675886,77.593027,PM10,35,74,52
India,Andhra_Pradesh,Chittoor,"Gangineni Cheruvu, Chittoor - APPCB",27-02-2024 06:00:00,13.204880,79.097889,PM10,42,82,50
India,Andhra_Pradesh,Chittoor,"Gangineni Cheruvu, Chittoor - APPCB",27-02-2024 06:00:00,13.204880,79.097889,NH3,1,4,2
India,Andhra_Pradesh,Chittoor,"Gangineni Cheruvu, Chittoor - APPCB",27-02-2024 06:00:00,13.204880,79.097889,SO2,7,64,29
India,Andhra_Pradesh,Kadapa,"Yerramukkapalli, Kadapa - APPCB",27-02-2024 06:00:00,14.465052,78.824187,PM2.5,35,54,44
India,Andhra_Pradesh,Kadapa,"Yerramukkapalli, Kadapa - APPCB",27-02-2024 06:00:00,14.465052,78.824187,PM10,37,57,46
India,Andhra_Pradesh,Kadapa,"Yerramukkapalli, Kadapa - APPCB",27-02-2024 06:00:00,14.465052,78.824187,NO2,8,8,8
India,Andhra_Pradesh,Kadapa,"Yerramukkapalli, Kadapa - APPCB",27-02-2024 06:00:00,14.465052,78.824187,SO2,1,2,2
India,Andhra_Pradesh,Kadapa,"Yerramukkapalli, Kadapa - APPCB",27-02-2024 06:00:00,14.465052,78.824187,OZONE,17,36,20
India,Andhra_Pradesh,Rajamahendravaram,"Anand Kala Kshetram, Rajamahendravaram - APPCB",27-02-2024 06:00:00,16.9872867,81.7363176,PM2.5,50,80,64
India,Andhra_Pradesh,Tirupati,"Tirumala, Tirupati - APPCB",27-02-2024 06:00:00,13.67,79.35,PM10,32,57,47
India,Andhra_Pradesh,Tirupati,"Vaikuntapuram, Tirupati - APPCB",27-02-2024 06:00:00,13.615387,79.409230,SO2,5,5,5
India,Andhra_Pradesh,Tirupati,"Vaikuntapuram, Tirupati - APPCB",27-02-2024 06:00:00,13.615387,79.409230,OZONE,1,24,9
India,Andhra_Pradesh,Vijayawada,"HB Colony, Vijayawada - APPCB",27-02-2024 06:00:00,16.536107,80.594233,PM2.5,47,64,57
India,Andhra_Pradesh,Vijayawada,"HB Colony, Vijayawada - APPCB",27-02-2024 06:00:00,16.536107,80.594233,NO2,6,19,11
India,Andhra_Pradesh,Vijayawada,"HB Colony, Vijayawada - APPCB",27-02-2024 06:00:00,16.536107,80.594233,CO,18,18,18
India,Andhra_Pradesh,Vijayawada,"Kanuru, Vijayawada - APPCB",27-02-2024 06:00:00,16.486692,80.699436,CO,48,48,48
India,Andhra_Pradesh,Vijayawada,"Rajiv Gandhi Park, Vijayawada - APPCB",27-02-2024 06:00:00,16.509717,80.612222,PM10,42,81,60
India,Andhra_Pradesh,Vijayawada,"Rajiv Gandhi Park, Vijayawada - APPCB",27-02-2024 06:00:00,16.509717,80.612222,SO2,7,9,8
India,Andhra_Pradesh,Vijayawada,"Rajiv Nagar, Vijayawada - APPCB",27-02-2024 06:00:00,16.554731,80.649110,PM2.5,20,458,129
India,Andhra_Pradesh,Visakhapatnam,"GVM Corporation, Visakhapatnam - APPCB",27-02-2024 06:00:00,17.72,83.3,NH3,4,7,5
India,Arunachal_Pradesh,Naharlagun,"Naharlagun, Naharlagun - APSPCB",27-02-2024 06:00:00,27.103358,93.679645,SO2,3,4,4
India,Assam,Byrnihat,"Central Academy for SFS, Byrnihat - PCBA",27-02-2024 06:00:00,26.071318,91.87488,SO2,6,16,12
India,Assam,Guwahati,"IITG, Guwahati - PCBA",27-02-2024 06:00:00,26.2028636,91.70046436,SO2,12,14,12
India,Assam,Guwahati,"LGBI Airport, Guwahati - PCBA",27-02-2024 06:00:00,26.10887,91.589544,PM2.5,75,351,193
India,Assam,Guwahati,"LGBI Airport, Guwahati - PCBA",27-02-2024 06:00:00,26.10887,91.589544,PM10,80,352,178
India,Assam,Guwahati,"LGBI Airport, Guwahati - PCBA",27-02-2024 06:00:00,26.10887,91.589544,NO2,8,61,26
India,Assam,Guwahati,"LGBI Airport, Guwahati - PCBA",27-02-2024 06:00:00,26.10887,91.589544,CO,14,68,39
India,Assam,Guwahati,"LGBI Airport, Guwahati - PCBA",27-02-2024 06:00:00,26.10887,91.589544,OZONE,1,56,2
India,Assam,Guwahati,"Pan Bazaar, Guwahati - PCBA",27-02-2024 06:00:00,26.187500,91.744194,NH3,4,5,4
India,Assam,Guwahati,"Pan Bazaar, Guwahati - PCBA",27-02-2024 06:00:00,26.187500,91.744194,SO2,59,88,70
India,Assam,Guwahati,"Railway Colony, Guwahati - PCBA",27-02-2024 06:00:00,26.181742,91.78063,SO2,8,11,9
India,Assam,Nagaon,"Christianpatty, Nagaon - PCBA",27-02-2024 06:00:00,26.349082,92.68449,SO2,3,17,10
India,Assam,Nagaon,"Christianpatty, Nagaon - PCBA",27-02-2024 06:00:00,26.349082,92.68449,OZONE,3,81,11
India,Assam,Nalbari,"Bata Chowk, Nalbari - PCBA",27-02-2024 06:00:00,26.446912,91.439057,SO2,5,7,6
India,Assam,Nalbari,"Bata Chowk, Nalbari - PCBA",27-02-2024 06:00:00,26.446912,91.439057,OZONE,1,76,11
India,Assam,Silchar,"Tarapur, Silchar - PCBA",27-02-2024 06:00:00,24.82827,92.79525,CO,22,35,27
India,Assam,Sivasagar,"Girls College, Sivasagar - PCBA",27-02-2024 06:00:00,26.987634,94.636574,PM10,21,99,42
India,Assam,Sivasagar,"Girls College, Sivasagar - PCBA",27-02-2024 06:00:00,26.987634,94.636574,NH3,3,3,3
India,Bihar,Araria,"Kharahiya Basti, Araria - BSPCB",27-02-2024 06:00:00,26.146529,87.454184,PM10,156,500,305
India,Bihar,Araria,"Kharahiya Basti, Araria - BSPCB",27-02-2024 06:00:00,26.146529,87.454184,NO2,6,8,7
India,Bihar,Aurangabad,"Gurdeo Nagar, Aurangabad - BSPCB",27-02-2024 06:00:00,24.75746,84.366208,SO2,2,9,5
India,Bihar,Aurangabad,"Gurdeo Nagar, Aurangabad - BSPCB",27-02-2024 06:00:00,24.75746,84.366208,CO,57,91,74
India,Bihar,Bettiah,"Kamalnath Nagar, Bettiah - BSPCB",27-02-2024 06:00:00,26.80365,84.51954,CO,62,64,63
India,Bihar,Bhagalpur,"DM Office_Kachari Chowk, Bhagalpur - BSPCB",27-02-2024 06:00:00,25.251013,86.989001,SO2,8,18,14
India,Bihar,Bhagalpur,"Mayaganj, Bhagalpur - BSPCB",27-02-2024 06:00:00,25.265194,87.012947,PM10,NA,NA,NA
India,Bihar,Bhagalpur,"Mayaganj, Bhagalpur - BSPCB",27-02-2024 06:00:00,25.265194,87.012947,NO2,5,20,10
India,Bihar,Bhagalpur,"Mayaganj, Bhagalpur - BSPCB",27-02-2024 06:00:00,25.265194,87.012947,SO2,11,13,12
India,Bihar,Bihar Sharif,"D M Colony, Bihar Sharif - BSPCB",27-02-2024 06:00:00,25.204762,85.514960,PM10,24,117,75
India,Bihar,Bihar Sharif,"D M Colony, Bihar Sharif - BSPCB",27-02-2024 06:00:00,25.204762,85.514960,OZONE,NA,NA,NA
India,Bihar,Buxar,"Charitra Van, Buxar - BSPCB (Formerly known as Central Jail)",27-02-2024 06:00:00,25.567520,83.966379,NH3,NA,NA,NA
India,Bihar,Chhapra,"Darshan Nagar, Chhapra - BSPCB",27-02-2024 06:00:00,25.7808257,84.7446768,NH3,8,13,10
India,Bihar,Chhapra,"Darshan Nagar, Chhapra - BSPCB",27-02-2024 06:00:00,25.7808257,84.7446768,SO2,13,78,45
India,Bihar,Gaya,"Collectorate, Gaya - BSPCB",27-02-2024 06:00:00,24.7955,84.9994,NO2,1,4,2
India,Bihar,Hajipur,"Industrial Area, Hajipur - BSPCB",27-02-2024 06:00:00,25.697189,85.245900,NO2,30,67,45
India,Bihar,Hajipur,"Industrial Area, Hajipur - BSPCB",27-02-2024 06:00:00,25.697189,85.245900,SO2,2,4,3
India,Bihar,Hajipur,"Industrial Area, Hajipur - BSPCB",27-02-2024 06:00:00,25.697189,85.245900,CO,44,90,79
India,Bihar,Hajipur,"Industrial Area, Hajipur - BSPCB",27-02-2024 06:00:00,25.697189,85.245900,OZONE,1,6,4
India,Bihar,Katihar,"Mirchaibari, Katihar - BSPCB",27-02-2024 06:00:00,25.560083,87.553265,PM2.5,82,344,234
India,Bihar,Katihar,"Mirchaibari, Katihar - BSPCB",27-02-2024 06:00:00,25.560083,87.553265,CO,13,13,13
India,Bihar,Katihar,"Mirchaibari, Katihar - BSPCB",27-02-2024 06:00:00,25.560083,87.553265,OZONE,16,27,19
India,Bihar,Kishanganj,"SDM Office_Khagra, Kishanganj - BSPCB",27-02-2024 06:00:00,26.0881305,87.93840336,PM10,117,487,231
India,Bihar,Kishanganj,"SDM Office_Khagra, Kishanganj - BSPCB",27-02-2024 06:00:00,26.0881305,87.93840336,NH3,11,13,12
India,Bihar,Kishanganj,"SDM Office_Khagra, Kishanganj - BSPCB",27-02-2024 06:00:00,26.0881305,87.93840336,CO,1,26,16
India,Bihar,Manguraha,"Forest Rest House, Manguraha - BSPCB",27-02-2024 06:00:00,27.308328,84.531742,NO2,3,13,9
India,Bihar,Manguraha,"Forest Rest House, Manguraha - BSPCB",27-02-2024 06:00:00,27.308328,84.531742,SO2,3,3,3
India,Bihar,Manguraha,"Forest Rest House, Manguraha - BSPCB",27-02-2024 06:00:00,27.308328,84.531742,CO,46,76,60
India,Bihar,Motihari,"Gandak Colony, Motihari - BSPCB",27-02-2024 06:00:00,26.63086,84.90051,NO2,45,96,73
India,Bihar,Muzaffarpur,"MIT-Daudpur Kothi, Muzaffarpur - BSPCB",27-02-2024 06:00:00,26.1403345,85.3650192,PM10,54,305,141
India,Bihar,Muzaffarpur,"MIT-Daudpur Kothi, Muzaffarpur - BSPCB",27-02-2024 06:00:00,26.1403345,85.3650192,CO,4,110,60
India,Bihar,Muzaffarpur,"Muzaffarpur Collectorate, Muzaffarpur - BSPCB",27-02-2024 06:00:00,26.1209,85.3647,NO2,10,16,14
India,Bihar,Patna,"DRM Office Danapur, Patna - BSPCB",27-02-2024 06:00:00,25.586562,85.043586,NH3,3,4,3
India,Bihar,Patna,"IGSC Planetarium Complex, Patna - BSPCB",27-02-2024 06:00:00,25.610369,85.132568,NO2,14,14,14
India,Bihar,Patna,"IGSC Planetarium Complex, Patna - BSPCB",27-02-2024 06:00:00,25.610369,85.132568,CO,14,19,17
India,Bihar,Patna,"Muradpur, Patna - BSPCB",27-02-2024 06:00:00,25.619651,85.147382,CO,6,106,76
India,Bihar,Purnia,"Mariam Nagar, Purnia - BSPCB",27-02-2024 06:00:00,25.366336,87.117468,CO,38,119,107
India,Bihar,Rajgir,"Dangi Tola, Rajgir - BSPCB",27-02-2024 06:00:00,25.03280,85.41948,SO2,4,4,4
India,Bihar,Sasaram,"Dada Peer, Sasaram - BSPCB",27-02-2024 06:00:00,24.952822,84.002396,CO,63,114,106
India,Bihar,Sasaram,"Dada Peer, Sasaram - BSPCB",27-02-2024 06:00:00,24.952822,84.002396,OZONE,4,76,6
India,Bihar,Siwan,"Chitragupta Nagar, Siwan - BSPCB",27-02-2024 06:00:00,26.2271665,84.3570427,NH3,1,12,3
India,Bihar,Siwan,"Chitragupta Nagar, Siwan - BSPCB",27-02-2024 06:00:00,26.2271665,84.3570427,SO2,2,34,30
India,Bihar,Siwan,"Chitragupta Nagar, Siwan - BSPCB",27-02-2024 06:00:00,26.2271665,84.3570427,OZONE,2,98,19
India,Chandigarh,Chandigarh,"Sector 22, Chandigarh - CPCC",27-02-2024 06:00:00,30.735567,76.775714,PM10,55,160,104
India,Chandigarh,Chandigarh,"Sector 22, Chandigarh - CPCC",27-02-2024 06:00:00,30.735567,76.775714,NO2,18,93,40
India,Chandigarh,Chandigarh,"Sector-25, Chandigarh - CPCC",27-02-2024 06:00:00,30.751462,76.762879,NH3,14,31,21
India,Chandigarh,Chandigarh,"Sector-25, Chandigarh - CPCC",27-02-2024 06:00:00,30.751462,76.762879,OZONE,1,50,8
India,Chandigarh,Chandigarh,"Sector-53, Chandigarh - CPCC",27-02-2024 06:00:00,30.719859,76.738637,OZONE,7,55,20
India,Chhattisgarh,Bhilai,"32Bungalows, Bhilai - CECB",27-02-2024 06:00:00,21.194815,81.314770,OZONE,4,6,4
India,Chhattisgarh,Bhilai,"Civic Center, Bhilai - Bhilai Steel Plant",27-02-2024 06:00:00,21.185571,81.343175,PM2.5,32,43,38
India,Chhattisgarh,Bhilai,"Civic Center, Bhilai - Bhilai Steel Plant",27-02-2024 06:00:00,21.185571,81.343175,SO2,4,13,10
India,Chhattisgarh,Bhilai,"Hathkhoj, Bhilai - CECB",27-02-2024 06:00:00,21.224231,81.408350,PM10,92,151,108
India,Chhattisgarh,Bhilai,"Hathkhoj, Bhilai - CECB",27-02-2024 06:00:00,21.224231,81.408350,SO2,12,27,16
India,Chhattisgarh,Bilaspur,"Mangala, Bilaspur - NTPC",27-02-2024 06:00:00,22.08815,82.13737,PM10,30,112,73
India,Chhattisgarh,Bilaspur,"Mangala, Bilaspur - NTPC",27-02-2024 06:00:00,22.08815,82.13737,NO2,19,24,21
India,Chhattisgarh,Chhal,"Nawapara SECL Colony, Chhal - CECB",27-02-2024 06:00:00,22.118125,83.140608,OZONE,3,54,5
India,Chhattisgarh,Korba,"Urja Nagar, Korba - CECB",27-02-2024 06:00:00,22.348441,82.549611,NO2,71,80,76
India,Chhattisgarh,Kunjemura,"OP Jindal School, Kunjemura - CECB",27-02-2024 06:00:00,22.126650,83.483212,OZONE,3,68,5
India,Chhattisgarh,Milupara,"Govt. Higher Secondary School, Milupara - CECB",27-02-2024 06:00:00,22.1910172,83.5197009,NO2,11,31,20
India,Chhattisgarh,Raipur,"AIIMS, Raipur - CECB",27-02-2024 06:00:00,21.258815,81.578979,PM10,56,108,84
India,Chhattisgarh,Raipur,"Krishak Nagar, Raipur - CECB",27-02-2024 06:00:00,21.237755,81.705301,SO2,8,14,11
India,Delhi,Delhi,"Alipur, Delhi - DPCC",27-02-2024 06:00:00,28.815329,77.153010,NO2,20,109,59
India,Delhi,Delhi,"Alipur, Delhi - DPCC",27-02-2024 06:00:00,28.815329,77.153010,NH3,6,8,7
India,Delhi,Delhi,"Alipur, Delhi - DPCC",27-02-2024 06:00:00,28.815329,77.153010,SO2,10,29,15
India,Delhi,Delhi,"Alipur, Delhi - DPCC",27-02-2024 06:00:00,28.815329,77.153010,OZONE,3,145,11
India,Delhi,Delhi,"Ashok Vihar, Delhi - DPCC",27-02-2024 06:00:00,28.695381,77.181665,CO,9,115,51
India,Delhi,Delhi,"Burari Crossing, Delhi - IMD",27-02-2024 06:00:00,28.7256504,77.2011573,CO,36,58,53
India,Delhi,Delhi,"CRRI Mathura Road, Delhi - IMD",27-02-2024 06:00:00,28.5512005,77.2735737,PM2.5,47,350,143
India,Delhi,Delhi,"CRRI Mathura Road, Delhi - IMD",27-02-2024 06:00:00,28.5512005,77.2735737,CO,4,132,115
India,Delhi,Delhi,"Chandni Chowk, Delhi - IITM",27-02-2024 06:00:00,28.656756,77.227234,NH3,7,8,8
India,Delhi,Delhi,"DTU, Delhi - CPCB",27-02-2024 06:00:00,28.7500499,77.1112615,PM2.5,53,178,92
India,Delhi,Delhi,"DTU, Delhi - CPCB",27-02-2024 06:00:00,28.7500499,77.1112615,NO2,45,70,55
India,Delhi,Delhi,"DTU, Delhi - CPCB",27-02-2024 06:00:00,28.7500499,77.1112615,NH3,12,16,14
India,Delhi,Delhi,"Dr. Karni Singh Shooting Range, Delhi - DPCC",27-02-2024 06:00:00,28.498571,77.264840,PM10,112,190,150
India,Delhi,Delhi,"Dr. Karni Singh Shooting Range, Delhi - DPCC",27-02-2024 06:00:00,28.498571,77.264840,NH3,5,9,7
India,Delhi,Delhi,"Dr. Karni Singh Shooting Range, Delhi - DPCC",27-02-2024 06:00:00,28.498571,77.264840,CO,32,110,75
India,Delhi,Delhi,"Dwarka-Sector 8, Delhi - DPCC ",27-02-2024 06:00:00,28.5710274,77.0719006,PM2.5,70,333,195
India,Delhi,Delhi,"Dwarka-Sector 8, Delhi - DPCC ",27-02-2024 06:00:00,28.5710274,77.0719006,NO2,3,128,42
India,Delhi,Delhi,"IGI Airport (T3), Delhi - IMD",27-02-2024 06:00:00,28.5627763,77.1180053,PM2.5,58,300,124
India,Delhi,Delhi,"IGI Airport (T3), Delhi - IMD",27-02-2024 06:00:00,28.5627763,77.1180053,PM10,105,421,161
India,Delhi,Delhi,"IHBAS, Dilshad Garden, Delhi - CPCB",27-02-2024 06:00:00,28.6811736,77.3025234,PM10,102,168,131
India,Delhi,Delhi,"IHBAS, Dilshad Garden, Delhi - CPCB",27-02-2024 06:00:00,28.6811736,77.3025234,NH3,10,15,12
India,Delhi,Delhi,"IHBAS, Dilshad Garden, Delhi - CPCB",27-02-2024 06:00:00,28.6811736,77.3025234,SO2,3,71,15
India,Delhi,Delhi,"ITO, Delhi - CPCB",27-02-2024 06:00:00,28.628624,77.241060,CO,37,132,79
India,Delhi,Delhi,"Jahangirpuri, Delhi - DPCC",27-02-2024 06:00:00,28.732820,77.170633,PM10,124,465,251
India,Delhi,Delhi,"Lodhi Road, Delhi - IITM",27-02-2024 06:00:00,28.588333,77.221667,NO2,71,130,92
India,Delhi,Delhi,"Lodhi Road, Delhi - IITM",27-02-2024 06:00:00,28.588333,77.221667,OZONE,15,17,16
India,Delhi,Delhi,"NSIT Dwarka, Delhi - CPCB",27-02-2024 06:00:00,28.60909,77.0325413,PM10,126,277,184
India,Delhi,Delhi,"NSIT Dwarka, Delhi - CPCB",27-02-2024 06:00:00,28.60909,77.0325413,OZONE,7,97,23
India,Delhi,Delhi,"Najafgarh, Delhi - DPCC",27-02-2024 06:00:00,28.570173,76.933762,NO2,7,8,7
India,Delhi,Delhi,"Najafgarh, Delhi - DPCC",27-02-2024 06:00:00,28.570173,76.933762,NH3,1,1,1
India,Delhi,Delhi,"Narela, Delhi - DPCC",27-02-2024 06:00:00,28.822836,77.101981,PM10,83,320,170
India,Delhi,Delhi,"Narela, Delhi - DPCC",27-02-2024 06:00:00,28.822836,77.101981,NH3,6,14,8
India,Delhi,Delhi,"North Campus, DU, Delhi - IMD",27-02-2024 06:00:00,28.6573814,77.1585447,PM2.5,NA,NA,NA
India,Delhi,Delhi,"North Campus, DU, Delhi - IMD",27-02-2024 06:00:00,28.6573814,77.1585447,CO,NA,NA,NA
India,Delhi,Delhi,"Okhla Phase-2, Delhi - DPCC",27-02-2024 06:00:00,28.530785,77.271255,PM10,107,286,173
India,Delhi,Delhi,"Okhla Phase-2, Delhi - DPCC",27-02-2024 06:00:00,28.530785,77.271255,CO,48,137,96
India,Delhi,Delhi,"Patparganj, Delhi - DPCC",27-02-2024 06:00:00,28.623763,77.287209,PM2.5,48,267,129
India,Delhi,Delhi,"Patparganj, Delhi - DPCC",27-02-2024 06:00:00,28.623763,77.287209,NH3,7,13,10
India,Delhi,Delhi,"Patparganj, Delhi - DPCC",27-02-2024 06:00:00,28.623763,77.287209,CO,15,99,49
India,Delhi,Delhi,"Punjabi Bagh, Delhi - DPCC",27-02-2024 06:00:00,28.674045,77.131023,PM2.5,70,298,180
India,Delhi,Delhi,"Punjabi Bagh, Delhi - DPCC",27-02-2024 06:00:00,28.674045,77.131023,OZONE,7,34,8
India,Delhi,Delhi,"Pusa, Delhi - DPCC",27-02-2024 06:00:00,28.639652,77.146275,NO2,53,146,99
India,Delhi,Delhi,"R K Puram, Delhi - DPCC",27-02-2024 06:00:00,28.563262,77.186937,PM2.5,80,385,208
India,Delhi,Delhi,"R K Puram, Delhi - DPCC",27-02-2024 06:00:00,28.563262,77.186937,PM10,120,378,180
India,Delhi,Delhi,"R K Puram, Delhi - DPCC",27-02-2024 06:00:00,28.563262,77.186937,OZONE,9,181,11
India,Delhi,Delhi,"Rohini, Delhi - DPCC",27-02-2024 06:00:00,28.732528,77.119920,CO,19,113,48
India,Delhi,Delhi,"Shadipur, Delhi - CPCB",27-02-2024 06:00:00,28.6514781,77.1473105,PM2.5,74,335,234
India,Delhi,Delhi,"Shadipur, Delhi - CPCB",27-02-2024 06:00:00,28.6514781,77.1473105,SO2,2,19,13
India,Delhi,Delhi,"Shadipur, Delhi - CPCB",27-02-2024 06:00:00,28.6514781,77.1473105,CO,26,84,45
India,Delhi,Delhi,"Sirifort, Delhi - CPCB",27-02-2024 06:00:00,28.5504249,77.2159377,SO2,35,48,42
India,Delhi,Delhi,"Sonia Vihar, Delhi - DPCC",27-02-2024 06:00:00,28.710508,77.249485,CO,33,101,62
India,Delhi,Delhi,"Sri Aurobindo Marg, Delhi - DPCC",27-02-2024 06:00:00,28.531346,77.190156,PM2.5,60,217,120
India,Delhi,Delhi,"Sri Aurobindo Marg, Delhi - DPCC",27-02-2024 06:00:00,28.531346,77.190156,OZONE,1,40,1
India,Delhi,Delhi,"Wazirpur, Delhi - DPCC",27-02-2024 06:00:00,28.699793,77.165453,PM10,130,406,220
India,Gujarat,Ahmedabad,"Chandkheda, Ahmedabad - IITM",27-02-2024 06:00:00,23.107969,72.574648,PM2.5,67,356,169
India,Gujarat,Ahmedabad,"Gyaspur, Ahmedabad - IITM",27-02-2024 06:00:00,22.977134,72.553024,CO,23,32,24
India,Gujarat,Ahmedabad,"Maninagar, Ahmedabad - GPCB",27-02-2024 06:00:00,23.002657,72.591912,PM10,96,192,132
India,Gujarat,Ahmedabad,"Maninagar, Ahmedabad - GPCB",27-02-2024 06:00:00,23.002657,72.591912,NO2,11,12,11
India,Gujarat,Ahmedabad,"Raikhad, Ahmedabad - IITM",27-02-2024 06:00:00,23.020509,72.579261,PM2.5,85,321,189
India,Gujarat,Ahmedabad,"Raikhad, Ahmedabad - IITM",27-02-2024 06:00:00,23.020509,72.579261,SO2,6,32,10
India,Gujarat,Ahmedabad,"Raikhad, Ahmedabad - IITM",27-02-2024 06:00:00,23.020509,72.579261,OZONE,29,162,35
India,Gujarat,Ahmedabad,"Rakhial, Ahmedabad - IITM",27-02-2024 06:00:00,23.016834,72.625775,PM2.5,65,305,122
India,Gujarat,Ahmedabad,"Rakhial, Ahmedabad - IITM",27-02-2024 06:00:00,23.016834,72.625775,PM10,86,203,126
India,Gujarat,Ahmedabad,"Rakhial, Ahmedabad - IITM",27-02-2024 06:00:00,23.016834,72.625775,CO,18,60,42
India,Gujarat,Ahmedabad,"SAC ISRO Bopal, Ahmedabad - IITM",27-02-2024 06:00:00,23.041137,72.456691,OZONE,16,32,19
India,Gujarat,Ahmedabad,"SVPI Airport Hansol, Ahmedabad - IITM",27-02-2024 06:00:00,23.076793,72.627874,CO,20,106,53
India,Gujarat,Ahmedabad,"Sardar Vallabhbhai Patel Stadium, Ahmedabad - IITM",27-02-2024 06:00:00,23.043070,72.562968,PM2.5,71,176,105
India,Gujarat,Ahmedabad,"Sardar Vallabhbhai Patel Stadium, Ahmedabad - IITM",27-02-2024 06:00:00,23.043070,72.562968,NO2,12,15,13
India,Gujarat,Ankleshwar,"GIDC, Ankleshwar - GPCB",27-02-2024 06:00:00,21.613267,73.010555,PM10,79,120,100
India,Gujarat,Gandhinagar,"IIPHG Lekawada, Gandhinagar - IITM",27-02-2024 06:00:00,23.243639,72.68994,SO2,13,13,13
India,Gujarat,Gandhinagar,"Sector-10, Gandhinagar - GPCB",27-02-2024 06:00:00,23.221714,72.654328,PM2.5,23,58,34
India,Gujarat,Gandhinagar,"Sector-10, Gandhinagar - GPCB",27-02-2024 06:00:00,23.221714,72.654328,NO2,3,15,9
India,Gujarat,Gandhinagar,"Sector-10, Gandhinagar - GPCB",27-02-2024 06:00:00,23.221714,72.654328,NH3,1,2,2
India,Gujarat,Gandhinagar,"Sector-10, Gandhinagar - GPCB",27-02-2024 06:00:00,23.221714,72.654328,CO,40,111,73
India,Gujarat,Gandhinagar,"Sector-10, Gandhinagar - GPCB",27-02-2024 06:00:00,23.221714,72.654328,OZONE,2,36,14
India,Gujarat,Vatva,"Phase-4 GIDC, Vatva - GPCB",27-02-2024 06:00:00,22.969611,72.643500,PM2.5,22,90,64
India,Gujarat,Vatva,"Phase-4 GIDC, Vatva - GPCB",27-02-2024 06:00:00,22.969611,72.643500,NO2,15,81,29
India,Gujarat,Vatva,"Phase-4 GIDC, Vatva - GPCB",27-02-2024 06:00:00,22.969611,72.643500,NH3,1,2,2
India,Gujarat,Vatva,"Phase-4 GIDC, Vatva - GPCB",27-02-2024 06:00:00,22.969611,72.643500,OZONE,6,6,6
India,Haryana,Ambala,"Patti Mehar, Ambala - HSPCB",27-02-2024 06:00:00,30.379589,76.778328,NO2,2,8,8
India,Haryana,Bahadurgarh,"Arya Nagar, Bahadurgarh - HSPCB",27-02-2024 06:00:00,28.6701,76.9254,PM10,101,174,125
India,Haryana,Bahadurgarh,"Arya Nagar, Bahadurgarh - HSPCB",27-02-2024 06:00:00,28.6701,76.9254,SO2,12,31,18
India,Haryana,Ballabgarh,"Nathu Colony, Ballabgarh - HSPCB",27-02-2024 06:00:00,28.3419248,77.319699,NO2,12,13,12
India,Haryana,Ballabgarh,"Nathu Colony, Ballabgarh - HSPCB",27-02-2024 06:00:00,28.3419248,77.319699,CO,4,109,39
India,Haryana,Charkhi Dadri,"Mini Secretariat, Charkhi Dadri - HSPCB",27-02-2024 06:00:00,28.593883,76.270653,NH3,5,5,5
India,Haryana,Charkhi Dadri,"Mini Secretariat, Charkhi Dadri - HSPCB",27-02-2024 06:00:00,28.593883,76.270653,SO2,49,52,51
India,Haryana,Dharuhera,"Municipal Corporation Office, Dharuhera -  HSPCB",27-02-2024 06:00:00,28.206800,76.799700,PM10,118,164,140
India,Haryana,Faridabad,"New Industrial Town, Faridabad - HSPCB",27-02-2024 06:00:00,28.39072,77.30059,PM2.5,1,440,232
India,Haryana,Faridabad,"Sector 11, Faridabad - HSPCB",27-02-2024 06:00:00,28.376058,77.315741,OZONE,3,65,3
India,Haryana,Faridabad,"Sector 30, Faridabad - HSPCB",27-02-2024 06:00:00,28.4417,77.3217,NH3,9,9,9
India,Haryana,Fatehabad,"Huda Sector, Fatehabad - HSPCB",27-02-2024 06:00:00,29.503664,75.467934,PM2.5,37,72,57
India,Haryana,Gurugram,"Sector-51, Gurugram - HSPCB",27-02-2024 06:00:00,28.4227,77.0667,NO2,13,29,23
India,Haryana,Gurugram,"Sector-51, Gurugram - HSPCB",27-02-2024 06:00:00,28.4227,77.0667,CO,28,106,89
India,Haryana,Gurugram,"Sector-51, Gurugram - HSPCB",27-02-2024 06:00:00,28.4227,77.0667,OZONE,27,67,42
India,Haryana,Gurugram,"Teri Gram, Gurugram - HSPCB",27-02-2024 06:00:00,28.4275,77.1465,PM2.5,26,309,159
India,Haryana,Gurugram,"Teri Gram, Gurugram - HSPCB",27-02-2024 06:00:00,28.4275,77.1465,OZONE,9,24,12
India,Haryana,Gurugram,"Vikas Sadan, Gurugram - HSPCB",27-02-2024 06:00:00,28.4501238,77.0263051,PM2.5,42,169,100
India,Haryana,Gurugram,"Vikas Sadan, Gurugram - HSPCB",27-02-2024 06:00:00,28.4501238,77.0263051,CO,54,140,107
India,Haryana,Gurugram,"Vikas Sadan, Gurugram - HSPCB",27-02-2024 06:00:00,28.4501238,77.0263051,OZONE,7,67,10
India,Haryana,Hisar,"Urban Estate-II, Hisar - HSPCB",27-02-2024 06:00:00,29.140560,75.744941,PM10,45,103,71
India,Haryana,Hisar,"Urban Estate-II, Hisar - HSPCB",27-02-2024 06:00:00,29.140560,75.744941,SO2,5,18,11
India,Haryana,Hisar,"Urban Estate-II, Hisar - HSPCB",27-02-2024 06:00:00,29.140560,75.744941,CO,40,70,40
India,Haryana,Hisar,"Urban Estate-II, Hisar - HSPCB",27-02-2024 06:00:00,29.140560,75.744941,OZONE,59,144,81
India,Haryana,Kaithal,"Rishi Nagar, Kaithal - HSPCB",27-02-2024 06:00:00,29.8006,76.4155,NO2,24,27,25
India,Haryana,Karnal,"Sector-12, Karnal - HSPCB",27-02-2024 06:00:00,29.695300,77.002700,PM2.5,12,33,21
India,Haryana,Karnal,"Sector-12, Karnal - HSPCB",27-02-2024 06:00:00,29.695300,77.002700,SO2,12,13,12
India,Haryana,Kurukshetra,"Sector-7, Kurukshetra - HSPCB",27-02-2024 06:00:00,29.966942,76.875879,NH3,5,5,5
India,Haryana,Manesar,"Sector-2 IMT, Manesar - HSPCB",27-02-2024 06:00:00,28.360699,76.936090,PM2.5,67,318,151
India,Haryana,Manesar,"Sector-2 IMT, Manesar - HSPCB",27-02-2024 06:00:00,28.360699,76.936090,CO,22,54,38
India,Haryana,Palwal,"Shyam Nagar, Palwal - HSPCB",27-02-2024 06:00:00,28.1485564,77.3320667,PM10,98,201,151
India,Haryana,Panchkula,"Sector-6, Panchkula - HSPCB ",27-02-2024 06:00:00,30.7057778,76.8531805555555,PM2.5,13,84,53
India,Haryana,Panipat,"Sector-18, Panipat - HSPCB",27-02-2024 06:00:00,29.497973,76.993331,NH3,2,3,3
India,Haryana,Rohtak,"MD University, Rohtak - HSPCB",27-02-2024 06:00:00,28.52123,76.37138,SO2,5,8,7
India,Haryana,Sirsa,"F-Block, Sirsa - HSPCB",27-02-2024 06:00:00,29.536400,75.015800,SO2,1,17,9
India,Haryana,Sirsa,"F-Block, Sirsa - HSPCB",27-02-2024 06:00:00,29.536400,75.015800,OZONE,41,100,57
India,Haryana,Sonipat,"Murthal, Sonipat - HSPCB",27-02-2024 06:00:00,29.027200,77.062100,PM10,65,143,93
India,Haryana,Sonipat,"Murthal, Sonipat - HSPCB",27-02-2024 06:00:00,29.027200,77.062100,NO2,37,44,40
India,Haryana,Sonipat,"Murthal, Sonipat - HSPCB",27-02-2024 06:00:00,29.027200,77.062100,SO2,12,29,20
India,Haryana,Yamuna Nagar,"Gobind Pura, Yamuna Nagar - HSPCB",27-02-2024 06:00:00,30.1480566,77.2893471,PM2.5,43,180,77
India,Haryana,Yamuna Nagar,"Gobind Pura, Yamuna Nagar - HSPCB",27-02-2024 06:00:00,30.1480566,77.2893471,NH3,1,6,2
India,Himachal Pradesh,Baddi,"HIMUDA Complex Phase-1, Baddi - HPPCB",27-02-2024 06:00:00,30.943887,76.801991,CO,16,44,39
India,Jharkhand,Dhanbad,"Sardar Patel Nagar, Dhanbad - JSPCB",27-02-2024 06:00:00,23.80569,86.44268,PM10,77,273,119
India,Jharkhand,Dhanbad,"Sardar Patel Nagar, Dhanbad - JSPCB",27-02-2024 06:00:00,23.80569,86.44268,CO,162,179,162
India,Jharkhand,Pathardih,"Mohalbani Ghat, Pathardih - DMC",27-02-2024 06:00:00,23.669880,86.411725,NO2,14,145,64
India,Jharkhand,Pathardih,"Mohalbani Ghat, Pathardih - DMC",27-02-2024 06:00:00,23.669880,86.411725,SO2,18,21,20
India,Jharkhand,Pathardih,"Mohalbani Ghat, Pathardih - DMC",27-02-2024 06:00:00,23.669880,86.411725,CO,118,136,121
India,Karnataka,Bagalkot,"Vidayagiri, Bagalkot - KSPCB",27-02-2024 06:00:00,16.172806,75.659694,PM10,42,43,42
India,Karnataka,Belgaum,"Ramteerth Nagar, Belgaum - KSPCB",27-02-2024 06:00:00,15.888653,74.541751,NH3,34,34,34
India,Karnataka,Bengaluru,"BTM Layout, Bengaluru - CPCB",27-02-2024 06:00:00,12.9135218,77.5950804,PM10,33,58,45
India,Karnataka,Bengaluru,"BTM Layout, Bengaluru - CPCB",27-02-2024 06:00:00,12.9135218,77.5950804,OZONE,7,78,55
India,Karnataka,Bengaluru,"Bapuji Nagar, Bengaluru - KSPCB",27-02-2024 06:00:00,12.951913,77.539784,NO2,9,12,11
India,Karnataka,Bengaluru,"City Railway Station, Bengaluru - KSPCB",27-02-2024 06:00:00,12.9756843,77.5660749,CO,52,80,72
India,Karnataka,Bengaluru,"Hombegowda Nagar, Bengaluru - KSPCB",27-02-2024 06:00:00,12.938539,77.590100,PM2.5,23,53,35
India,Karnataka,Bengaluru,"Jayanagar 5th Block, Bengaluru - KSPCB",27-02-2024 06:00:00,12.920984,77.584908,SO2,15,28,23
India,Karnataka,Bengaluru,"Jigani, Bengaluru - KSPCB",27-02-2024 06:00:00,12.7816279,77.6299145,NO2,31,32,32
India,Karnataka,Bengaluru,"Jigani, Bengaluru - KSPCB",27-02-2024 06:00:00,12.7816279,77.6299145,NH3,4,4,4
India,Karnataka,Bengaluru,"Kasturi Nagar, Bengaluru - KSPCB",27-02-2024 06:00:00,13.003872,77.664217,NH3,3,4,4
India,Karnataka,Bengaluru,"Peenya, Bengaluru - CPCB",27-02-2024 06:00:00,13.0270199,77.494094,NO2,19,25,22
India,Karnataka,Bengaluru,"Peenya, Bengaluru - CPCB",27-02-2024 06:00:00,13.0270199,77.494094,SO2,12,19,15
India,Karnataka,Bengaluru,"Peenya, Bengaluru - CPCB",27-02-2024 06:00:00,13.0270199,77.494094,OZONE,24,55,41
India,Karnataka,Bengaluru,"RVCE-Mailasandra, Bengaluru - KSPCB",27-02-2024 06:00:00,12.921418,77.502466,PM2.5,14,214,60
India,Karnataka,Bengaluru,"Shivapura_Peenya, Bengaluru - KSPCB",27-02-2024 06:00:00,13.0246342,77.5080115,CO,20,34,25
India,Karnataka,Bengaluru,"Silk Board, Bengaluru - KSPCB",27-02-2024 06:00:00,12.917348,77.622813,PM2.5,17,47,31
India,Karnataka,Bengaluru,"Silk Board, Bengaluru - KSPCB",27-02-2024 06:00:00,12.917348,77.622813,NH3,1,2,2
India,Karnataka,Bengaluru,"Silk Board, Bengaluru - KSPCB",27-02-2024 06:00:00,12.917348,77.622813,SO2,6,12,8
India,Karnataka,Bidar,"Naubad, Bidar - KSPCB",27-02-2024 06:00:00,17.930306,77.482194,NO2,7,16,8
India,Karnataka,Bidar,"Naubad, Bidar - KSPCB",27-02-2024 06:00:00,17.930306,77.482194,CO,24,72,54
India,Karnataka,Chamarajanagar,"Urban, Chamarajanagar - KSPCB",27-02-2024 06:00:00,11.55358,76.55521,PM10,40,61,49
India,Karnataka,Chamarajanagar,"Urban, Chamarajanagar - KSPCB",27-02-2024 06:00:00,11.55358,76.55521,CO,20,120,33
India,Karnataka,Chikkaballapur,"Chikkaballapur Rural, Chikkaballapur - KSPCB",27-02-2024 06:00:00,13.428828,77.731418,PM10,31,90,60
India,Karnataka,Chikkaballapur,"Chikkaballapur Rural, Chikkaballapur - KSPCB",27-02-2024 06:00:00,13.428828,77.731418,CO,NA,NA,NA
India,Karnataka,Davanagere,"Devaraj Urs Badavane, Davanagere - KSPCB",27-02-2024 06:00:00,14.475800,75.905200,NO2,5,15,11
India,Karnataka,Dharwad,"Kalabhavan, Dharwad - KSPCB",27-02-2024 06:00:00,15.459706,75.008381,OZONE,2,30,5
India,Karnataka,Gadag,"Panchal Nagar, Gadag - KSPCB",27-02-2024 06:00:00,15.411456,75.638133,PM10,28,51,38
India,Karnataka,Gadag,"Panchal Nagar, Gadag - KSPCB",27-02-2024 06:00:00,15.411456,75.638133,NO2,5,19,12
India,Karnataka,Hassan,"B.Katihalli, Hassan - KSPCB",27-02-2024 06:00:00,13.008556,76.125258,SO2,1,58,6
India,Karnataka,Haveri,"Ashwini Nagar, Haveri - KSPCB",27-02-2024 06:00:00,14.791800,75.389600,PM2.5,38,77,56
India,Karnataka,Haveri,"Ashwini Nagar, Haveri - KSPCB",27-02-2024 06:00:00,14.791800,75.389600,OZONE,19,38,19
India,Karnataka,Hubballi,"Deshpande Nagar, Hubballi - KSPCB",27-02-2024 06:00:00,15.351773,75.140726,OZONE,2,38,16
India,Karnataka,Kalaburagi,"Lal Bahadur Shastri Nagar, Kalaburagi - KSPCB",27-02-2024 06:00:00,17.321993,76.822628,NO2,11,12,12
India,Karnataka,Kalaburagi,"Lal Bahadur Shastri Nagar, Kalaburagi - KSPCB",27-02-2024 06:00:00,17.321993,76.822628,OZONE,5,51,16
India,Karnataka,Kalaburagi,"Mahatma Basaveswar Colony, Kalaburgi - KSPCB",27-02-2024 06:00:00,17.336318,76.847397,SO2,3,5,4
India,Karnataka,Kalaburagi,"Mahatma Basaveswar Colony, Kalaburgi - KSPCB",27-02-2024 06:00:00,17.336318,76.847397,CO,32,62,37
India,Karnataka,Karwar,"KHB Colony, Karwar - KSPCB",27-02-2024 06:00:00,14.816666,74.141003,PM10,22,134,53
India,Karnataka,Karwar,"KHB Colony, Karwar - KSPCB",27-02-2024 06:00:00,14.816666,74.141003,OZONE,21,22,22
India,Karnataka,Kolar,"Tamaka Ind. Area, Kolar - KSPCB",27-02-2024 06:00:00,13.1276288,78.1570122,SO2,NA,NA,NA
India,Karnataka,Koppal,"Diwator Nagar, Koppal - KSPCB",27-02-2024 06:00:00,15.347630,76.181767,PM10,38,59,47
India,Karnataka,Madikeri,"Stuart Hill, Madikeri - KSPCB",27-02-2024 06:00:00,12.415911,75.735050,PM2.5,29,76,45
India,Karnataka,Mangalore,"Kadri, Mangalore - KSPCB",27-02-2024 06:00:00,12.889250,74.853000,PM2.5,49,232,72
India,Karnataka,Mangalore,"Kadri, Mangalore - KSPCB",27-02-2024 06:00:00,12.889250,74.853000,SO2,18,21,20
India,Karnataka,Mangalore,"Kadri, Mangalore - KSPCB",27-02-2024 06:00:00,12.889250,74.853000,OZONE,30,33,31
India,Karnataka,Ramanagara,"Vijay Nagar, Ramanagara - KSPCB",27-02-2024 06:00:00,12.733409,77.298051,PM2.5,18,45,33
India,Karnataka,Ramanagara,"Vijay Nagar, Ramanagara - KSPCB",27-02-2024 06:00:00,12.733409,77.298051,PM10,24,39,31
India,Karnataka,Udupi,"Brahmagiri, Udupi - KSPCB",27-02-2024 06:00:00,13.34194444,74.74694444,SO2,20,23,21
India,Karnataka,Udupi,"Brahmagiri, Udupi - KSPCB",27-02-2024 06:00:00,13.34194444,74.74694444,OZONE,23,23,23
India,Karnataka,Vijayapura,"Ibrahimpur, Vijayapura - KSPCB",27-02-2024 06:00:00,16.802639,75.722694,PM10,38,40,39
India,Karnataka,Yadgir,"Collector Office, Yadgir - KSPCB",27-02-2024 06:00:00,16.7602,77.1428,PM2.5,39,70,48
India,Karnataka,Yadgir,"Collector Office, Yadgir - KSPCB",27-02-2024 06:00:00,16.7602,77.1428,PM10,35,86,60
India,Kerala,Eloor,"Udyogamandal, Eloor - Kerala PCB",27-02-2024 06:00:00,10.073232,76.302765,PM10,34,51,38
India,Kerala,Eloor,"Udyogamandal, Eloor - Kerala PCB",27-02-2024 06:00:00,10.073232,76.302765,SO2,1,18,3
India,Kerala,Eloor,"Udyogamandal, Eloor - Kerala PCB",27-02-2024 06:00:00,10.073232,76.302765,OZONE,11,27,12
India,Kerala,Kannur,"Thavakkara, Kannur - Kerala PCB",27-02-2024 06:00:00,11.875000,75.373200,PM2.5,51,60,56
India,Kerala,Kannur,"Thavakkara, Kannur - Kerala PCB",27-02-2024 06:00:00,11.875000,75.373200,NO2,6,7,6
India,Kerala,Kochi,"Vyttila, Kochi - Kerala PCB",27-02-2024 06:00:00,9.969447,76.321186,PM10,45,92,67
India,Kerala,Kochi,"Vyttila, Kochi - Kerala PCB",27-02-2024 06:00:00,9.969447,76.321186,NH3,3,3,3
India,Kerala,Kollam,"Polayathode, Kollam - Kerala PCB",27-02-2024 06:00:00,8.8787,76.6073,OZONE,31,40,34
India,Kerala,Thiruvananthapuram,"Kariavattom, Thiruvananthapuram - Kerala PCB",27-02-2024 06:00:00,8.563700,76.886500,PM2.5,71,83,78
India,Kerala,Thiruvananthapuram,"Kariavattom, Thiruvananthapuram - Kerala PCB",27-02-2024 06:00:00,8.563700,76.886500,NH3,1,1,1
India,Kerala,Thiruvananthapuram,"Plammoodu, Thiruvananthapuram - Kerala PCB",27-02-2024 06:00:00,8.5149093,76.9435879,SO2,6,14,11
India,Madhya Pradesh,Bhopal,"Idgah Hills, Bhopal - MPPCB",27-02-2024 06:00:00,23.264759,77.381568,SO2,3,35,17
India,Madhya Pradesh,Bhopal,"Idgah Hills, Bhopal - MPPCB",27-02-2024 06:00:00,23.264759,77.381568,CO,28,80,36
India,Madhya Pradesh,Bhopal,"Paryavaran Parisar, Bhopal - MPPCB",27-02-2024 06:00:00,23.210494,77.425409,OZONE,22,76,52
India,Madhya Pradesh,Bhopal,"T T Nagar, Bhopal - MPPCB",27-02-2024 06:00:00,23.233584,77.400574,PM2.5,47,120,82
India,Madhya Pradesh,Bhopal,"T T Nagar, Bhopal - MPPCB",27-02-2024 06:00:00,23.233584,77.400574,SO2,19,73,45
India,Madhya Pradesh,Bhopal,"T T Nagar, Bhopal - MPPCB",27-02-2024 06:00:00,23.233584,77.400574,CO,18,62,29
India,Madhya Pradesh,Gwalior,"City Center, Gwalior - MPPCB",27-02-2024 06:00:00,26.203442,78.193251,PM10,50,125,96
India,Madhya Pradesh,Gwalior,"Maharaj Bada, Gwalior - MPPCB",27-02-2024 06:00:00,26.200388,78.147714,OZONE,10,98,34
India,Madhya Pradesh,Gwalior,"Phool Bagh, Gwalior - Mondelez Ind. Food",27-02-2024 06:00:00,26.210536,78.171,PM2.5,4,97,70
India,Madhya Pradesh,Gwalior,"Phool Bagh, Gwalior - Mondelez Ind. Food",27-02-2024 06:00:00,26.210536,78.171,SO2,10,12,11
India,Madhya Pradesh,Indore,"Regional Park, Indore - IMC",27-02-2024 06:00:00,22.6780,75.8559,PM10,NA,NA,NA
India,Madhya Pradesh,Indore,"Regional Park, Indore - IMC",27-02-2024 06:00:00,22.6780,75.8559,CO,NA,NA,NA
India,Madhya Pradesh,Indore,"Residency Area, Indore - IMC",27-02-2024 06:00:00,22.7084,75.8815,PM2.5,29,84,60
India,Madhya Pradesh,Indore,"Residency Area, Indore - IMC",27-02-2024 06:00:00,22.7084,75.8815,NO2,38,54,45
India,Madhya Pradesh,Indore,"Residency Area, Indore - IMC",27-02-2024 06:00:00,22.7084,75.8815,SO2,23,25,24
India,Madhya Pradesh,Indore,"Residency Area, Indore - IMC",27-02-2024 06:00:00,22.7084,75.8815,CO,12,14,14
India,Madhya Pradesh,Jabalpur,"Gupteshwar, Jabalpur - JMC",27-02-2024 06:00:00,23.142888,79.916147,PM2.5,53,143,98
India,Madhya Pradesh,Jabalpur,"Gupteshwar, Jabalpur - JMC",27-02-2024 06:00:00,23.142888,79.916147,PM10,44,101,79
India,Madhya Pradesh,Jabalpur,"Gupteshwar, Jabalpur - JMC",27-02-2024 06:00:00,23.142888,79.916147,NO2,9,30,18
India,Madhya Pradesh,Jabalpur,"Marhatal, Jabalpur - MPPCB",27-02-2024 06:00:00,23.168606,79.932247,PM2.5,45,117,81
India,Madhya Pradesh,Jabalpur,"Suhagi, Jabalpur - JMC",27-02-2024 06:00:00,23.218135,79.957770,NO2,44,47,46
India,Madhya Pradesh,Katni,"Gole Bazar, Katni - MPPCB",27-02-2024 06:00:00,23.50016,80.23284,PM2.5,NA,NA,NA
India,Madhya Pradesh,Maihar,"Sahilara, Maihar - KJS Cements",27-02-2024 06:00:00,24.2613009,80.7231783,PM10,17,49,33
India,Madhya Pradesh,Maihar,"Sahilara, Maihar - KJS Cements",27-02-2024 06:00:00,24.2613009,80.7231783,CO,38,48,42
India,Madhya Pradesh,Mandideep,"Sector-D Industrial Area, Mandideep - MPPCB",27-02-2024 06:00:00,23.108440,77.511428,PM2.5,53,220,122
India,Madhya Pradesh,Mandideep,"Sector-D Industrial Area, Mandideep - MPPCB",27-02-2024 06:00:00,23.108440,77.511428,NO2,29,90,51
India,Madhya Pradesh,Pithampur,"Sector-2 Industrial Area, Pithampur - MPPCB",27-02-2024 06:00:00,22.624758,75.675238,PM2.5,55,159,92
India,Madhya Pradesh,Pithampur,"Sector-2 Industrial Area, Pithampur - MPPCB",27-02-2024 06:00:00,22.624758,75.675238,PM10,75,184,125
India,Madhya Pradesh,Pithampur,"Sector-2 Industrial Area, Pithampur - MPPCB",27-02-2024 06:00:00,22.624758,75.675238,CO,32,57,52
India,Madhya Pradesh,Ratlam,"Shasthri Nagar, Ratlam - IPCA Lab",27-02-2024 06:00:00,23.331731,75.045981,PM2.5,32,102,71
India,Madhya Pradesh,Ratlam,"Shasthri Nagar, Ratlam - IPCA Lab",27-02-2024 06:00:00,23.331731,75.045981,NO2,1,52,18
India,Madhya Pradesh,Sagar,"Civil Lines, Sagar - MPPCB",27-02-2024 06:00:00,23.838586,78.759431,OZONE,47,73,49
India,Madhya Pradesh,Sagar,"Deen Dayal Nagar, Sagar - MPPCB",27-02-2024 06:00:00,23.8640158,78.80289321,CO,52,76,62
India,Madhya Pradesh,Satna,"Bandhavgar Colony, Satna - Birla Cement",27-02-2024 06:00:00,24.58434363,80.8549414,NO2,7,14,9
India,Madhya Pradesh,Singrauli,"Suryakiran Bhawan NCL, Singrauli - MPPCB",27-02-2024 06:00:00,24.108970,82.645580,PM10,93,225,155
India,Madhya Pradesh,Singrauli,"Suryakiran Bhawan NCL, Singrauli - MPPCB",27-02-2024 06:00:00,24.108970,82.645580,CO,54,164,103
India,Madhya Pradesh,Ujjain,"Mahakaleshwar Temple, Ujjain - MPPCB",27-02-2024 06:00:00,23.182719 ,75.768218 ,PM2.5,32,109,71
India,Maharashtra,Ahmednagar,"Tarakpur, Ahmednagar - MPCB",27-02-2024 06:00:00,19.10122,74.73339,PM10,54,409,190
India,Maharashtra,Ahmednagar,"Tarakpur, Ahmednagar - MPCB",27-02-2024 06:00:00,19.10122,74.73339,OZONE,6,139,32
India,Maharashtra,Amravati,"Shivneri Colony, Amravati - MPCB",27-02-2024 06:00:00,20.9402359,77.7895248,PM2.5,61,153,91
India,Maharashtra,Amravati,"Shivneri Colony, Amravati - MPCB",27-02-2024 06:00:00,20.9402359,77.7895248,NO2,9,25,16
India,Maharashtra,Amravati,"Shivneri Colony, Amravati - MPCB",27-02-2024 06:00:00,20.9402359,77.7895248,SO2,5,34,14
India,Maharashtra,Amravati,"Shri Shivaji Science College, Amaravati - MPCB",27-02-2024 06:00:00,20.939198,77.765701,PM2.5,58,204,97
India,Maharashtra,Amravati,"Shri Shivaji Science College, Amaravati - MPCB",27-02-2024 06:00:00,20.939198,77.765701,SO2,6,18,10
India,Maharashtra,Aurangabad,"MIDC Chilkalthana, Aurangabad - MPCB",27-02-2024 06:00:00,19.875620,75.387310,NH3,3,4,4
India,Maharashtra,Aurangabad,"MIDC Chilkalthana, Aurangabad - MPCB",27-02-2024 06:00:00,19.875620,75.387310,OZONE,8,99,16
India,Maharashtra,Aurangabad,"More Chowk Waluj, Aurangabad - MPCB",27-02-2024 06:00:00,19.8389439,75.244448,NO2,33,35,34
India,Maharashtra,Aurangabad,"More Chowk Waluj, Aurangabad - MPCB",27-02-2024 06:00:00,19.8389439,75.244448,SO2,10,13,11
India,Maharashtra,Aurangabad,"Rachnakar Colony, Aurangabad - MPCB",27-02-2024 06:00:00,19.863756,75.321188,PM10,89,145,114
India,Maharashtra,Aurangabad,"Rachnakar Colony, Aurangabad - MPCB",27-02-2024 06:00:00,19.863756,75.321188,NO2,12,65,32
India,Maharashtra,Aurangabad,"Rachnakar Colony, Aurangabad - MPCB",27-02-2024 06:00:00,19.863756,75.321188,CO,21,60,25
India,Maharashtra,Badlapur,"Katrap, Badlapur - MPCB",27-02-2024 06:00:00,19.16485,73.23409,PM10,87,200,140
India,Maharashtra,Belapur,"CBD Belapur, Belapur - MPCB",27-02-2024 06:00:00,19.0243902,73.0406721,PM10,134,264,165
India,Maharashtra,Belapur,"CBD Belapur, Belapur - MPCB",27-02-2024 06:00:00,19.0243902,73.0406721,SO2,1,13,6
India,Maharashtra,Belapur,"CBD Belapur, Belapur - MPCB",27-02-2024 06:00:00,19.0243902,73.0406721,OZONE,1,200,11
India,Maharashtra,Bhiwandi,"Gokul Nagar, Bhiwandi - MPCB",27-02-2024 06:00:00,19.309073,73.057223,NO2,26,81,48
India,Maharashtra,Chandrapur,"Chauhan Colony, Chandrapur - MPCB",27-02-2024 06:00:00,19.962900,79.298714,OZONE,6,6,6
India,Maharashtra,Chandrapur,"MIDC Khutala, Chandrapur - MPCB",27-02-2024 06:00:00,19.9775302,79.2337086,NH3,NA,NA,NA
India,Maharashtra,Chandrapur,"MIDC Khutala, Chandrapur - MPCB",27-02-2024 06:00:00,19.9775302,79.2337086,OZONE,1,1,1
India,Maharashtra,Jalgaon,"Prabhat Colony, Jalgaon - MPCB",27-02-2024 06:00:00,21.001264,75.565602,CO,4,40,13
India,Maharashtra,Kolhapur,"Shivaji University, Kolhapur - MPCB",27-02-2024 06:00:00,16.6870449,74.2505872,NH3,2,7,5
India,Maharashtra,Kolhapur,"Sinchan Bhavan, Kolhapur - MPCB",27-02-2024 06:00:00,16.7143745,74.2426398,SO2,1,16,4
India,Maharashtra,Malegaon,"Mahesh Nagar, Malegaon - MPCB",27-02-2024 06:00:00,20.555712,74.529236,PM10,93,230,145
India,Maharashtra,Malegaon,"Mahesh Nagar, Malegaon - MPCB",27-02-2024 06:00:00,20.555712,74.529236,OZONE,9,74,31
India,Maharashtra,Mira-Bhayandar,"Bhayandar West, Mira-Bhayandar - MPCB",27-02-2024 06:00:00,19.296481,72.840923,PM2.5,97,254,162
India,Maharashtra,Mira-Bhayandar,"Bhayandar West, Mira-Bhayandar - MPCB",27-02-2024 06:00:00,19.296481,72.840923,NH3,4,8,6
India,Maharashtra,Mira-Bhayandar,"Bhayandar West, Mira-Bhayandar - MPCB",27-02-2024 06:00:00,19.296481,72.840923,CO,28,72,56
India,Maharashtra,Mira-Bhayandar,"Bhayandar West, Mira-Bhayandar - MPCB",27-02-2024 06:00:00,19.296481,72.840923,OZONE,2,187,7
India,Maharashtra,Mumbai,"Bandra Kurla Complex, Mumbai - MPCB",27-02-2024 06:00:00,19.065931,72.862131,SO2,1,40,9
India,Maharashtra,Mumbai,"Borivali East, Mumbai - IITM",27-02-2024 06:00:00,19.23241,72.86895,NH3,1,3,2
India,Maharashtra,Mumbai,"Byculla, Mumbai - BMC",27-02-2024 06:00:00,18.9767,72.8380,NO2,40,107,70
India,Maharashtra,Mumbai,"Byculla, Mumbai - BMC",27-02-2024 06:00:00,18.9767,72.8380,OZONE,2,313,25
India,Maharashtra,Mumbai,"Chembur, Mumbai - MPCB",27-02-2024 06:00:00,19.0364585,72.8954371,CO,NA,NA,NA
India,Maharashtra,Mumbai,"Chhatrapati Shivaji Intl. Airport (T2), Mumbai - MPCB",27-02-2024 06:00:00,19.10078,72.87462,NO2,2,93,49
India,Maharashtra,Mumbai,"Chhatrapati Shivaji Intl. Airport (T2), Mumbai - MPCB",27-02-2024 06:00:00,19.10078,72.87462,CO,76,113,107
India,Maharashtra,Mumbai,"Colaba, Mumbai - MPCB",27-02-2024 06:00:00,18.910000,72.820000,PM10,65,189,123
India,Maharashtra,Mumbai,"Kandivali East, Mumbai - MPCB",27-02-2024 06:00:00,19.205800,72.868200,PM2.5,14,61,42
India,Maharashtra,Mumbai,"Kandivali East, Mumbai - MPCB",27-02-2024 06:00:00,19.205800,72.868200,NO2,36,176,89
India,Maharashtra,Mumbai,"Kandivali East, Mumbai - MPCB",27-02-2024 06:00:00,19.205800,72.868200,SO2,71,79,76
India,Maharashtra,Mumbai,"Kandivali East, Mumbai - MPCB",27-02-2024 06:00:00,19.205800,72.868200,CO,75,121,98
India,Maharashtra,Mumbai,"Kandivali West, Mumbai - BMC",27-02-2024 06:00:00,19.215859,72.831718,PM2.5,86,192,134
India,Maharashtra,Mumbai,"Kandivali West, Mumbai - BMC",27-02-2024 06:00:00,19.215859,72.831718,PM10,88,138,113
India,Maharashtra,Mumbai,"Kherwadi_Bandra East, Mumbai - MPCB",27-02-2024 06:00:00,19.0632143,72.8456324,PM10,98,208,156
India,Maharashtra,Mumbai,"Khindipada-Bhandup West, Mumbai - IITM",27-02-2024 06:00:00,19.1653323,72.922099,PM10,102,167,130
India,Maharashtra,Mumbai,"Mazgaon, Mumbai - IITM",27-02-2024 06:00:00,18.96702,72.84214,SO2,1,33,11
India,Maharashtra,Mumbai,"Mazgaon, Mumbai - IITM",27-02-2024 06:00:00,18.96702,72.84214,CO,14,54,45
India,Maharashtra,Mumbai,"Mulund West, Mumbai - MPCB",27-02-2024 06:00:00,19.1750,72.9419,PM2.5,44,72,58
India,Maharashtra,Mumbai,"Mulund West, Mumbai - MPCB",27-02-2024 06:00:00,19.1750,72.9419,NO2,23,31,26
India,Maharashtra,Mumbai,"Navy Nagar-Colaba, Mumbai - IITM",27-02-2024 06:00:00,18.897756,72.813320,PM2.5,78,264,147
India,Maharashtra,Mumbai,"Powai, Mumbai - MPCB",27-02-2024 06:00:00,19.137500,72.915056,PM10,108,159,133
India,Maharashtra,Mumbai,"Powai, Mumbai - MPCB",27-02-2024 06:00:00,19.137500,72.915056,OZONE,25,213,59
India,Maharashtra,Mumbai,"Sion, Mumbai - MPCB",27-02-2024 06:00:00,19.047000,72.874600,NH3,1,3,2
India,Maharashtra,Mumbai,"Vasai West, Mumbai - MPCB",27-02-2024 06:00:00,19.383200,72.820400,CO,33,64,57
India,Maharashtra,Mumbai,"Vile Parle West, Mumbai - MPCB",27-02-2024 06:00:00,19.10861,72.83622,OZONE,4,5,4
India,Maharashtra,Mumbai,"Worli, Mumbai - MPCB",27-02-2024 06:00:00,18.9936162,72.8128113,NH3,1,1,1
India,Maharashtra,Nagpur,"Ambazari, Nagpur - MPCB",27-02-2024 06:00:00,21.121801,79.04952,NO2,25,91,47
India,Maharashtra,Nagpur,"Mahal, Nagpur - MPCB",27-02-2024 06:00:00,21.14472,79.107595,PM2.5,80,168,109
India,Maharashtra,Nagpur,"Mahal, Nagpur - MPCB",27-02-2024 06:00:00,21.14472,79.107595,PM10,84,150,118
India,Maharashtra,Nagpur,"Opp GPO Civil Lines, Nagpur - MPCB",27-02-2024 06:00:00,21.152875,79.0517531,NH3,3,4,4
India,Maharashtra,Nagpur,"Ram Nagar, Nagpur - MPCB",27-02-2024 06:00:00,21.143383,79.048912,PM2.5,61,205,101
India,Maharashtra,Nagpur,"Ram Nagar, Nagpur - MPCB",27-02-2024 06:00:00,21.143383,79.048912,NO2,6,74,26
India,Maharashtra,Nagpur,"Ram Nagar, Nagpur - MPCB",27-02-2024 06:00:00,21.143383,79.048912,NH3,1,8,5
India,Maharashtra,Nanded,"Sneh Nagar, Nanded - MPCB",27-02-2024 06:00:00,19.173852,77.296291,OZONE,24,79,39
India,Maharashtra,Nashik,"Gangapur Road, Nashik - MPCB",27-02-2024 06:00:00,20.0073285,73.7762427,PM10,54,147,96
India,Maharashtra,Nashik,"Hirawadi, Nashik - MPCB",27-02-2024 06:00:00,20.021503,73.813844,PM2.5,56,124,80
India,Maharashtra,Nashik,"MIDC Ambad, Nashik - MPCB",27-02-2024 06:00:00,19.950220,73.731480,SO2,NA,NA,NA
India,Maharashtra,Nashik,"Pandav Nagari, Nashik - MPCB",27-02-2024 06:00:00,19.9591346,73.7788008,PM2.5,5,60,29
India,Maharashtra,Nashik,"Pandav Nagari, Nashik - MPCB",27-02-2024 06:00:00,19.9591346,73.7788008,SO2,4,29,11
India,Maharashtra,Navi Mumbai,"Mahape, Navi Mumbai - MPCB",27-02-2024 06:00:00,19.1135051,73.008978,CO,40,75,65
India,Maharashtra,Navi Mumbai,"Mahape, Navi Mumbai - MPCB",27-02-2024 06:00:00,19.1135051,73.008978,OZONE,17,41,29
India,Maharashtra,Navi Mumbai,"Nerul, Navi Mumbai - MPCB",27-02-2024 06:00:00,19.008751,73.016620,PM10,142,430,249
India,Maharashtra,Navi Mumbai,"Sanpada, Navi Mumbai - MPCB",27-02-2024 06:00:00,19.0575752,73.0151367,PM2.5,95,203,131
India,Maharashtra,Navi Mumbai,"Sanpada, Navi Mumbai - MPCB",27-02-2024 06:00:00,19.0575752,73.0151367,NH3,5,9,7
India,Maharashtra,Navi Mumbai,"Sanpada, Navi Mumbai - MPCB",27-02-2024 06:00:00,19.0575752,73.0151367,SO2,2,35,15
India,Maharashtra,Navi Mumbai,"Sector-19A Nerul, Navi Mumbai - IITM",27-02-2024 06:00:00,19.044,73.0325,NH3,20,57,36
India,Maharashtra,Navi Mumbai,"Sector-2E Kalamboli, Navi Mumbai - MPCB",27-02-2024 06:00:00,19.02579,73.10297,PM2.5,90,209,118
India,Maharashtra,Navi Mumbai,"Sector-2E Kalamboli, Navi Mumbai - MPCB",27-02-2024 06:00:00,19.02579,73.10297,NO2,23,152,77
India,Maharashtra,Parbhani,"Masoom Colony, Parbhani - MPCB",27-02-2024 06:00:00,19.265594,76.761463,CO,22,42,30
India,Maharashtra,Parbhani,"Masoom Colony, Parbhani - MPCB",27-02-2024 06:00:00,19.265594,76.761463,OZONE,17,23,19
India,Maharashtra,Pimpri-Chinchwad,"Park Street Wakad, Pimpri Chinchwad - MPCB",27-02-2024 06:00:00,18.59051,73.77946,SO2,6,17,12
India,Maharashtra,Pimpri-Chinchwad,"Park Street Wakad, Pimpri Chinchwad - MPCB",27-02-2024 06:00:00,18.59051,73.77946,OZONE,2,106,26
India,Maharashtra,Pune,"Bhosari, Pune - IITM",27-02-2024 06:00:00,18.640051,73.848956,PM2.5,47,221,96
India,Maharashtra,Pune,"Bhosari, Pune - IITM",27-02-2024 06:00:00,18.640051,73.848956,PM10,89,181,121
India,Maharashtra,Pune,"Katraj Dairy, Pune - MPCB",27-02-2024 06:00:00,18.454450,73.854155,NO2,24,60,46
India,Maharashtra,Pune,"Katraj Dairy, Pune - MPCB",27-02-2024 06:00:00,18.454450,73.854155,SO2,2,14,7
India,Maharashtra,Pune,"Katraj Dairy, Pune - MPCB",27-02-2024 06:00:00,18.454450,73.854155,CO,40,90,67
India,Maharashtra,Pune,"Mhada Colony, Pune - IITM",27-02-2024 06:00:00,18.573040,73.927715,CO,31,57,48
India,Maharashtra,Pune,"Revenue Colony-Shivajinagar, Pune - IITM",27-02-2024 06:00:00,18.530085,73.849598,NH3,14,23,18
India,Maharashtra,Pune,"Revenue Colony-Shivajinagar, Pune - IITM",27-02-2024 06:00:00,18.530085,73.849598,OZONE,4,39,12
India,Maharashtra,Pune,"Savitribai Phule Pune University, Pune - MPCB",27-02-2024 06:00:00,18.547056,73.826908,NH3,2,9,4
India,Maharashtra,Sangli,"Vijay Nagar, Sangli - MPCB",27-02-2024 06:00:00, 16.5038,74.3623,NO2,33,92,58
India,Maharashtra,Solapur,"Dnyaneshwar Nagar, Solapur - MPCB",27-02-2024 06:00:00,17.6336264,75.9132495,NH3,16,36,26
India,Maharashtra,Solapur,"Dnyaneshwar Nagar, Solapur - MPCB",27-02-2024 06:00:00,17.6336264,75.9132495,OZONE,16,71,33
India,Maharashtra,Solapur,"Solapur, Solapur - MPCB",27-02-2024 06:00:00,17.6599188,75.9063906,PM10,117,160,134
India,Maharashtra,Thane,"Kasarvadavali, Thane - MPCB",27-02-2024 06:00:00,19.26777,72.97182,SO2,8,51,24
India,Maharashtra,Thane,"Kasarvadavali, Thane - MPCB",27-02-2024 06:00:00,19.26777,72.97182,OZONE,3,240,32
India,Maharashtra,Thane,"Pimpleshwar Mandir, Thane - MPCB",27-02-2024 06:00:00,19.192056,72.9585188,PM10,118,335,207
India,Maharashtra,Thane,"Upvan Fort, Thane - MPCB",27-02-2024 06:00:00,19.222279,72.957979,PM2.5,87,214,138
India,Maharashtra,Virar,"Bolinj, Virar - MPCB",27-02-2024 06:00:00,19.4458210,72.7988231,PM2.5,47,229,143
India,Maharashtra,Virar,"Bolinj, Virar - MPCB",27-02-2024 06:00:00,19.4458210,72.7988231,NO2,15,109,58
India,Manipur,Imphal,"DM College of Science, Imphal - Manipur PCB",27-02-2024 06:00:00,24.8207389,93.9423085,NO2,NA,NA,NA
India,Mizoram,Aizawl,"Sikulpuikawn, Aizawl - Mizoram PCB",27-02-2024 06:00:00,23.7176342,92.7192841,NO2,1,4,1
India,Mizoram,Aizawl,"Sikulpuikawn, Aizawl - Mizoram PCB",27-02-2024 06:00:00,23.7176342,92.7192841,OZONE,8,17,10
India,Nagaland,Kohima,"PWD Juction, Kohima - NPCB",27-02-2024 06:00:00,25.6635413,94.0989878,NH3,NA,NA,NA
India,Odisha,Angul,"Hakimapada, Angul - OSPCB",27-02-2024 06:00:00,20.832874,85.104082,PM2.5,98,253,152
India,Odisha,Angul,"Hakimapada, Angul - OSPCB",27-02-2024 06:00:00,20.832874,85.104082,OZONE,25,138,61
India,Odisha,Balasore,"Kalidaspur, Balasore - OSPCB",27-02-2024 06:00:00,21.51161,86.89088,NO2,10,68,22
India,Odisha,Barbil,"Forest Office, Barbil - OSPCB",27-02-2024 06:00:00,22.1166054,85.3945546,PM10,109,402,190
India,Odisha,Baripada,"Meher Colony, Baripada - OSPCB",27-02-2024 06:00:00,21.941841,86.728318,PM2.5,152,251,203
India,Odisha,Baripada,"Meher Colony, Baripada - OSPCB",27-02-2024 06:00:00,21.941841,86.728318,PM10,92,138,115
India,Odisha,Baripada,"Meher Colony, Baripada - OSPCB",27-02-2024 06:00:00,21.941841,86.728318,NH3,4,4,4
India,Odisha,Baripada,"Meher Colony, Baripada - OSPCB",27-02-2024 06:00:00,21.941841,86.728318,OZONE,12,46,16
India,Odisha,Bhubaneswar,"Lingraj Mandir, Bhubaneswar - OSPCB",27-02-2024 06:00:00,20.240790,85.836784,NO2,7,54,23
India,Odisha,Bhubaneswar,"Patia, Bhubaneswar - OSPCB",27-02-2024 06:00:00,20.34652,85.81630,SO2,6,19,11
India,Odisha,Bileipada,"Tata Township, Bileipada - OSPCB",27-02-2024 06:00:00,22.06156703,85.47409613,PM10,136,182,159
India,Odisha,Bileipada,"Tata Township, Bileipada - OSPCB",27-02-2024 06:00:00,22.06156703,85.47409613,NH3,11,11,11
India,Odisha,Bileipada,"Tata Township, Bileipada - OSPCB",27-02-2024 06:00:00,22.06156703,85.47409613,CO,20,29,27
India,Odisha,Brajrajnagar,"GM Office, Brajrajnagar - OSPCB",27-02-2024 06:00:00,21.8004996,83.8396977,PM2.5,34,150,64
India,Odisha,Byasanagar,"Ferro Chrome Colony, Byasanagar - OSPCB",27-02-2024 06:00:00,20.94185,86.11510,NO2,13,38,20
India,Odisha,Byasanagar,"Ferro Chrome Colony, Byasanagar - OSPCB",27-02-2024 06:00:00,20.94185,86.11510,SO2,7,21,13
India,Odisha,Byasanagar,"Ferro Chrome Colony, Byasanagar - OSPCB",27-02-2024 06:00:00,20.94185,86.11510,CO,74,112,100
India,Odisha,Cuttack,"CDA Area, Cuttack - OSPCB",27-02-2024 06:00:00,20.48891     ,85.84768     ,PM10,87,157,118
India,Odisha,Cuttack,"CDA Area, Cuttack - OSPCB",27-02-2024 06:00:00,20.48891     ,85.84768     ,SO2,7,15,10
India,Odisha,Keonjhar,"Jagamohanpur, Keonjhar - OSPCB",27-02-2024 06:00:00,21.643900,85.599355,NO2,24,87,55
India,Odisha,Keonjhar,"Jagamohanpur, Keonjhar - OSPCB",27-02-2024 06:00:00,21.643900,85.599355,NH3,11,17,15
India,Odisha,Nayagarh,"Dabuna, Nayagarh - OSPCB",27-02-2024 06:00:00,21.847279,85.416905,SO2,3,4,3
India,Odisha,Nayagarh,"Dabuna, Nayagarh - OSPCB",27-02-2024 06:00:00,21.847279,85.416905,OZONE,1,10,2
India,Odisha,Rairangpur,"Divisional Forest Office, Rairangpur - OSPCB",27-02-2024 06:00:00,22.265816,86.174829,PM10,88,112,99
India,Odisha,Rairangpur,"Divisional Forest Office, Rairangpur - OSPCB",27-02-2024 06:00:00,22.265816,86.174829,SO2,1,4,2
India,Odisha,Rairangpur,"Divisional Forest Office, Rairangpur - OSPCB",27-02-2024 06:00:00,22.265816,86.174829,OZONE,12,43,29
India,Odisha,Rourkela,"Fertilizer Township, Rourkela - OSPCB",27-02-2024 06:00:00,22.18972222,84.86277778,PM10,68,144,102
India,Odisha,Rourkela,"Sector-2, Rourkela - OSPCB",27-02-2024 06:00:00,22.24500000,84.88111111,CO,17,38,25
India,Odisha,Suakati,"OMC Colony, Suakati - OSPCB",27-02-2024 06:00:00,21.606865,85.510538,PM10,23,122,106
India,Odisha,Suakati,"OMC Colony, Suakati - OSPCB",27-02-2024 06:00:00,21.606865,85.510538,SO2,1,26,5
India,Odisha,Talcher,"Talcher Coalfields,Talcher - OSPCB",27-02-2024 06:00:00,20.9360711,85.1707021,PM2.5,55,253,115
India,Odisha,Talcher,"Talcher Coalfields,Talcher - OSPCB",27-02-2024 06:00:00,20.9360711,85.1707021,PM10,61,165,96
India,Odisha,Talcher,"Talcher Coalfields,Talcher - OSPCB",27-02-2024 06:00:00,20.9360711,85.1707021,CO,2,22,8
India,Puducherry,Puducherry,"Jawahar Nagar, Puducherry - PPCC",27-02-2024 06:00:00,11.9309,79.8027,CO,10,54,21
India,Punjab,Amritsar,"Golden Temple, Amritsar - PPCB",27-02-2024 06:00:00,31.620000,74.876512,NO2,17,59,33
India,Punjab,Amritsar,"Golden Temple, Amritsar - PPCB",27-02-2024 06:00:00,31.620000,74.876512,SO2,6,56,30
India,Punjab,Bathinda,"Hardev Nagar, Bathinda - PPCB",27-02-2024 06:00:00,30.233011,74.907758,PM10,NA,NA,NA
India,Punjab,Bathinda,"Hardev Nagar, Bathinda - PPCB",27-02-2024 06:00:00,30.233011,74.907758,CO,2,94,30
India,Punjab,Jalandhar,"Civil Line, Jalandhar - PPCB",27-02-2024 06:00:00,31.321907,75.578914,OZONE,31,53,32
India,Punjab,Khanna,"Kalal Majra, Khanna - PPCB",27-02-2024 06:00:00,30.736056 ,76.209694,CO,42,50,47
India,Punjab,Khanna,"Kalal Majra, Khanna - PPCB",27-02-2024 06:00:00,30.736056 ,76.209694,OZONE,2,73,13
India,Punjab,Ludhiana,"Punjab Agricultural University, Ludhiana - PPCB",27-02-2024 06:00:00,30.9028,75.8086,PM2.5,28,103,66
India,Punjab,Ludhiana,"Punjab Agricultural University, Ludhiana - PPCB",27-02-2024 06:00:00,30.9028,75.8086,NO2,14,26,18
India,Punjab,Ludhiana,"Punjab Agricultural University, Ludhiana - PPCB",27-02-2024 06:00:00,30.9028,75.8086,NH3,5,15,8
India,Punjab,Mandi Gobindgarh,"RIMT University, Mandi Gobindgarh - PPCB",27-02-2024 06:00:00,30.649961,76.331442,NH3,2,2,2
India,Punjab,Mandi Gobindgarh,"RIMT University, Mandi Gobindgarh - PPCB",27-02-2024 06:00:00,30.649961,76.331442,SO2,2,35,11
India,Punjab,Mandi Gobindgarh,"RIMT University, Mandi Gobindgarh - PPCB",27-02-2024 06:00:00,30.649961,76.331442,OZONE,32,33,33
India,Punjab,Patiala,"Model Town, Patiala - PPCB",27-02-2024 06:00:00,30.349388,76.366642,PM10,50,109,71
India,Punjab,Rupnagar,"Ratanpura, Rupnagar - Ambuja Cements",27-02-2024 06:00:00,31.0325454,76.5623046,CO,36,55,47
India,Rajasthan,Baran,"Bamboliya, Baran - RSPCB",27-02-2024 06:00:00,25.106006,76.469948,NH3,3,6,4
India,Rajasthan,Barmer,"Railway Colony, Barmer - RSPCB",27-02-2024 06:00:00,25.747299,71.393989,NO2,12,61,25
India,Rajasthan,Barmer,"Railway Colony, Barmer - RSPCB",27-02-2024 06:00:00,25.747299,71.393989,OZONE,50,133,77
India,Rajasthan,Bharatpur,"Krishna Nagar, Bharatpur - RSPCB",27-02-2024 06:00:00,27.215415,77.50873,CO,2,112,63
India,Rajasthan,Bhilwara,"Pratap Nagar, Bhilwara - RSPCB",27-02-2024 06:00:00,25.339605,74.618883,SO2,9,21,13
India,Rajasthan,Bhilwara,"Pratap Nagar, Bhilwara - RSPCB",27-02-2024 06:00:00,25.339605,74.618883,OZONE,49,83,55
India,Rajasthan,Bhiwadi,"RIICO Ind. Area III, Bhiwadi - RSPCB",27-02-2024 06:00:00,28.194909,76.862296,SO2,7,20,14
India,Rajasthan,Bikaner,"MM Ground, Bikaner - RSPCB",27-02-2024 06:00:00,28.018792,73.292658,PM10,74,261,151
India,Rajasthan,Bikaner,"MM Ground, Bikaner - RSPCB",27-02-2024 06:00:00,28.018792,73.292658,NO2,24,102,55
India,Rajasthan,Bundi,"New Colony, Bundi - RSPCB",27-02-2024 06:00:00,25.435774,75.644272,PM2.5,34,112,50
India,Rajasthan,Churu,"Subash Chowk, Churu - RSPCB",27-02-2024 06:00:00,28.296139,74.961696,NH3,8,12,10
India,Rajasthan,Churu,"Subash Chowk, Churu - RSPCB",27-02-2024 06:00:00,28.296139,74.961696,SO2,12,31,16
India,Rajasthan,Dholpur,"Raja Ganj, Dholpur - RSPCB",27-02-2024 06:00:00,26.699557,77.898881,NO2,7,40,19
India,Rajasthan,Dholpur,"Raja Ganj, Dholpur - RSPCB",27-02-2024 06:00:00,26.699557,77.898881,NH3,1,19,10
India,Rajasthan,Dholpur,"Raja Ganj, Dholpur - RSPCB",27-02-2024 06:00:00,26.699557,77.898881,SO2,5,8,7
India,Rajasthan,Dungarpur,"Bhoiwada, Dungarpur - RSPCB",27-02-2024 06:00:00,23.837789,73.714926,SO2,12,16,14
India,Rajasthan,Hanumangarh,"Housing Board, Hanumangarh - RSPCB",27-02-2024 06:00:00,29.610750,74.283608,PM10,89,477,156
India,Rajasthan,Hanumangarh,"Housing Board, Hanumangarh - RSPCB",27-02-2024 06:00:00,29.610750,74.283608,NO2,18,42,27
India,Rajasthan,Jaipur,"Adarsh Nagar, Jaipur - RSPCB",27-02-2024 06:00:00,26.902909,75.836858,NO2,24,58,35
India,Rajasthan,Jaipur,"Adarsh Nagar, Jaipur - RSPCB",27-02-2024 06:00:00,26.902909,75.836858,CO,11,40,26
India,Rajasthan,Jaipur,"Police Commissionerate, Jaipur - RSPCB",27-02-2024 06:00:00,26.9164092,75.7994901,PM10,94,146,113
India,Rajasthan,Jaipur,"RIICO Sitapura, Jaipur - RSPCB",27-02-2024 06:00:00,26.786682,75.827928,NO2,31,77,48
India,Rajasthan,Jaipur,"Sector-2 Murlipura, Jaipur - RSPCB",27-02-2024 06:00:00,26.960669,75.771817,CO,2,32,11
India,Rajasthan,Jaisalmer,"Sadar Bazar, Jaisalmer - RSPCB",27-02-2024 06:00:00,26.912329,70.909168,NH3,4,12,6
India,Rajasthan,Jaisalmer,"Sadar Bazar, Jaisalmer - RSPCB",27-02-2024 06:00:00,26.912329,70.909168,CO,6,40,27
India,Rajasthan,Jalore,"Mudtra Sili, Jalore - RSPCB",27-02-2024 06:00:00,25.344694,72.626208,PM10,72,234,107
India,Rajasthan,Jalore,"Mudtra Sili, Jalore - RSPCB",27-02-2024 06:00:00,25.344694,72.626208,CO,17,52,21
India,Rajasthan,Jhalawar,"Rajlaxmi Nagar, Jhalawar - RSPCB",27-02-2024 06:00:00,24.588397,76.172782,SO2,3,34,12
India,Rajasthan,Jodhpur,"Collectorate, Jodhpur - RSPCB",27-02-2024 06:00:00,26.268249,73.0193853,PM2.5,71,283,165
India,Rajasthan,Jodhpur,"Jhalamand, Jodhpur - RSPCB",27-02-2024 06:00:00,26.215415,73.070156,NO2,25,35,30
India,Rajasthan,Jodhpur,"Mandor, Jodhpur - RSPCB",27-02-2024 06:00:00,26.358805,73.047444,PM2.5,23,73,45
India,Rajasthan,Jodhpur,"Mandor, Jodhpur - RSPCB",27-02-2024 06:00:00,26.358805,73.047444,CO,12,25,20
India,Rajasthan,Jodhpur,"Mandor, Jodhpur - RSPCB",27-02-2024 06:00:00,26.358805,73.047444,OZONE,56,108,71
India,Rajasthan,Jodhpur,"Samrat Ashok Udhyan, Jodhpur - RSPCB",27-02-2024 06:00:00,26.253384,72.976571,PM2.5,40,77,55
India,Rajasthan,Jodhpur,"Samrat Ashok Udhyan, Jodhpur - RSPCB",27-02-2024 06:00:00,26.253384,72.976571,OZONE,49,130,78
India,Rajasthan,Karauli,"Satyawati Vihar, Karauli - RSPCB",27-02-2024 06:00:00,26.506177,77.025989,NO2,4,31,15
India,Rajasthan,Karauli,"Satyawati Vihar, Karauli - RSPCB",27-02-2024 06:00:00,26.506177,77.025989,NH3,2,6,4
India,Rajasthan,Karauli,"Satyawati Vihar, Karauli - RSPCB",27-02-2024 06:00:00,26.506177,77.025989,SO2,18,28,21
India,Rajasthan,Kota,"Dhanmandi, Kota - RSPCB",27-02-2024 06:00:00,25.164090,75.858137,PM10,61,114,94
India,Rajasthan,Kota,"Dhanmandi, Kota - RSPCB",27-02-2024 06:00:00,25.164090,75.858137,NO2,14,67,37
India,Rajasthan,Kota,"Dhanmandi, Kota - RSPCB",27-02-2024 06:00:00,25.164090,75.858137,SO2,4,19,8
India,Rajasthan,Kota,"Nayapura, Kota - RSPCB",27-02-2024 06:00:00,25.196024,75.855668,CO,16,40,25
India,Rajasthan,Kota,"Shrinath Puram, Kota - RSPCB",27-02-2024 06:00:00,25.14389,75.821256,PM10,66,114,90
India,Rajasthan,Nagaur,"Karni Colony, Nagaur - RSPCB",27-02-2024 06:00:00,27.213494,73.734444,PM2.5,38,84,56
India,Rajasthan,Nagaur,"Karni Colony, Nagaur - RSPCB",27-02-2024 06:00:00,27.213494,73.734444,NO2,9,26,15
India,Rajasthan,Nagaur,"Karni Colony, Nagaur - RSPCB",27-02-2024 06:00:00,27.213494,73.734444,SO2,4,9,6
India,Rajasthan,Pali,"Indira Colony Vistar, Pali - RSPCB",27-02-2024 06:00:00,25.771061, 73.340227,NH3,4,22,14
India,Rajasthan,Pali,"Indira Colony Vistar, Pali - RSPCB",27-02-2024 06:00:00,25.771061, 73.340227,SO2,6,11,9
India,Rajasthan,Pali,"Indira Colony Vistar, Pali - RSPCB",27-02-2024 06:00:00,25.771061, 73.340227,OZONE,19,226,20
India,Rajasthan,Rajsamand,"Dhoinda, Rajsamand - RSPCB",27-02-2024 06:00:00,25.036360,73.883502,PM2.5,37,78,56
India,Rajasthan,Sawai Madhopur,"Sahu Nagar, Sawai Madhopur - RSPCB",27-02-2024 06:00:00,26.031443,76.359327,PM2.5,31,73,49
India,Rajasthan,Sirohi,"Vedhaynath Colony, Sirohi - RSPCB",27-02-2024 06:00:00,24.885261,72.857549,PM10,55,150,78
India,Rajasthan,Sirohi,"Vedhaynath Colony, Sirohi - RSPCB",27-02-2024 06:00:00,24.885261,72.857549,NO2,10,50,22
India,Rajasthan,Sirohi,"Vedhaynath Colony, Sirohi - RSPCB",27-02-2024 06:00:00,24.885261,72.857549,NH3,3,6,4
India,Rajasthan,Sirohi,"Vedhaynath Colony, Sirohi - RSPCB",27-02-2024 06:00:00,24.885261,72.857549,OZONE,33,172,66
India,Rajasthan,Sri Ganganagar,"Old City, Sri Ganganagar - RSPCB",27-02-2024 06:00:00,29.931624,73.864511,PM2.5,48,314,142
India,Rajasthan,Sri Ganganagar,"Old City, Sri Ganganagar - RSPCB",27-02-2024 06:00:00,29.931624,73.864511,CO,95,128,100
India,Rajasthan,Tonk,"Shastri Nagar, Tonk - RSPCB",27-02-2024 06:00:00,26.159933,75.780517,NH3,5,8,6
India,Rajasthan,Tonk,"Shastri Nagar, Tonk - RSPCB",27-02-2024 06:00:00,26.159933,75.780517,CO,10,28,15
India,Sikkim,Gangtok,"Zero Point GICI, Gangtok - SSPCB",27-02-2024 06:00:00,27.338530,88.614099,SO2,9,10,10
India,Sikkim,Gangtok,"Zero Point GICI, Gangtok - SSPCB",27-02-2024 06:00:00,27.338530,88.614099,CO,19,27,22
India,TamilNadu,Ariyalur,"Keelapalur, Ariyalur - TNPCB",27-02-2024 06:00:00,11.06825,79.07033,SO2,34,35,34
India,TamilNadu,Chengalpattu,"Crescent University, Chengalpattu - TNPCB",27-02-2024 06:00:00,12.8777316,80.0834807,PM10,17,69,36
India,TamilNadu,Chengalpattu,"Crescent University, Chengalpattu - TNPCB",27-02-2024 06:00:00,12.8777316,80.0834807,SO2,23,26,25
India,TamilNadu,Chennai,"Alandur Bus Depot, Chennai - CPCB",27-02-2024 06:00:00,12.9099161,80.1076538,SO2,1,22,7
India,TamilNadu,Chennai,"Alandur Bus Depot, Chennai - CPCB",27-02-2024 06:00:00,12.9099161,80.1076538,OZONE,2,11,4
India,TamilNadu,Chennai,"Arumbakkam, Chennai - TNPCB",27-02-2024 06:00:00,13.0664,80.2112 ,PM2.5,27,53,42
India,TamilNadu,Chennai,"Gandhi Nagar_Ennore, Chennai - TNPCB",27-02-2024 06:00:00,13.218341,80.32027,CO,NA,NA,NA
India,TamilNadu,Chennai,"Manali, Chennai - CPCB",27-02-2024 06:00:00,13.164544,80.26285,PM2.5,18,53,33
India,TamilNadu,Chennai,"Perungudi, Chennai - TNPCB",27-02-2024 06:00:00,12.9533,80.2357,PM2.5,32,64,47
India,TamilNadu,Coimbatore,"PSG College of Arts and Science, Coimbatore - TNPCB",27-02-2024 06:00:00,11.0328,77.0349,PM2.5,NA,NA,NA
India,TamilNadu,Coimbatore,"PSG College of Arts and Science, Coimbatore - TNPCB",27-02-2024 06:00:00,11.0328,77.0349,NO2,NA,NA,NA
India,TamilNadu,Coimbatore,"PSG College of Arts and Science, Coimbatore - TNPCB",27-02-2024 06:00:00,11.0328,77.0349,NH3,NA,NA,NA
India,TamilNadu,Cuddalore,"Semmandalam, Cuddalore - TNPCB",27-02-2024 06:00:00,11.7637683,79.7499835,PM2.5,17,83,34
India,TamilNadu,Gummidipoondi,"Anthoni Pillai Nagar, Gummidipoondi - TNPCB",27-02-2024 06:00:00,13.4127,80.1081,NO2,8,14,11
India,TamilNadu,Kanchipuram,"Kilambi, Kanchipuram - TNPCB",27-02-2024 06:00:00,12.864618,79.659968,OZONE,NA,NA,NA
India,TamilNadu,Ooty,"Bombay Castel, Ooty - TNPCB",27-02-2024 06:00:00,11.4068288,76.7138973,PM2.5,8,63,44
India,TamilNadu,Ooty,"Bombay Castel, Ooty - TNPCB",27-02-2024 06:00:00,11.4068288,76.7138973,NH3,NA,NA,NA
India,TamilNadu,Palkalaiperur,"Bharathidasan University, Palkalaiperur - TNPCB",27-02-2024 06:00:00,10.681158,78.741746,PM10,NA,NA,NA
India,TamilNadu,Palkalaiperur,"Bharathidasan University, Palkalaiperur - TNPCB",27-02-2024 06:00:00,10.681158,78.741746,SO2,NA,NA,NA
India,TamilNadu,Salem,"Sona College of Technology, Salem - TNPCB",27-02-2024 06:00:00,11.679111,78.125052,PM2.5,27,95,46
India,TamilNadu,Tirupur,"Kumaran College, Tirupur - TNPCB",27-02-2024 06:00:00,11.0973603,77.3228673,NO2,6,29,13
India,TamilNadu,Vellore,"Vasanthapuram, Vellore - TNPCB",27-02-2024 06:00:00,12.909494,79.131861,PM10,NA,NA,NA
India,TamilNadu,Vellore,"Vasanthapuram, Vellore - TNPCB",27-02-2024 06:00:00,12.909494,79.131861,NH3,NA,NA,NA
India,TamilNadu,Vellore,"Vasanthapuram, Vellore - TNPCB",27-02-2024 06:00:00,12.909494,79.131861,OZONE,1,2,1
India,TamilNadu,Virudhunagar,"Collectorate Office, Virudhunagar - TNPCB",27-02-2024 06:00:00,9.559382,77.948828,PM10,24,54,41
India,TamilNadu,Virudhunagar,"Collectorate Office, Virudhunagar - TNPCB",27-02-2024 06:00:00,9.559382,77.948828,NO2,15,38,20
India,TamilNadu,Virudhunagar,"Collectorate Office, Virudhunagar - TNPCB",27-02-2024 06:00:00,9.559382,77.948828,NH3,2,3,2
India,Telangana,Hyderabad,"Bollaram Industrial Area, Hyderabad - TSPCB",27-02-2024 06:00:00,17.540891,78.358528,NH3,3,4,3
India,Telangana,Hyderabad,"Bollaram Industrial Area, Hyderabad - TSPCB",27-02-2024 06:00:00,17.540891,78.358528,CO,12,30,17
India,Telangana,Hyderabad,"ECIL Kapra, Hyderabad - TSPCB",27-02-2024 06:00:00,17.470431,78.566959,PM10,47,75,55
India,Telangana,Hyderabad,"ICRISAT Patancheru, Hyderabad - TSPCB",27-02-2024 06:00:00,17.518400,78.278777,OZONE,27,75,32
India,Telangana,Hyderabad,"IITH Kandi, Hyderabad - TSPCB",27-02-2024 06:00:00,17.585705,78.126199,OZONE,11,34,11
India,Telangana,Hyderabad,"Kompally Municipal Office, Hyderabad - TSPCB",27-02-2024 06:00:00,17.544899,78.486949,OZONE,14,48,18
India,Telangana,Hyderabad,"New Malakpet, Hyderabad - TSPCB",27-02-2024 06:00:00,17.37206,78.50864,PM10,58,83,66
India,Telangana,Hyderabad,"New Malakpet, Hyderabad - TSPCB",27-02-2024 06:00:00,17.37206,78.50864,NH3,2,2,2
India,Telangana,Hyderabad,"Ramachandrapuram, Hyderabad - TSPCB",27-02-2024 06:00:00,17.528544,78.286195,PM2.5,35,43,38
India,Telangana,Hyderabad,"Ramachandrapuram, Hyderabad - TSPCB",27-02-2024 06:00:00,17.528544,78.286195,CO,10,22,14
India,Telangana,Hyderabad,"Somajiguda, Hyderabad - TSPCB",27-02-2024 06:00:00,17.417094,78.457437,CO,3,19,7
India,Telangana,Hyderabad,"Zoo Park, Hyderabad - TSPCB",27-02-2024 06:00:00,17.349694,78.451437,SO2,1,7,2
India,Tripura,Agartala,"Bardowali, Agartala - Tripura SPCB",27-02-2024 06:00:00,23.8175497,91.2726974,PM2.5,55,308,169
India,Tripura,Agartala,"Bardowali, Agartala - Tripura SPCB",27-02-2024 06:00:00,23.8175497,91.2726974,NO2,5,16,11
India,Tripura,Agartala,"Bardowali, Agartala - Tripura SPCB",27-02-2024 06:00:00,23.8175497,91.2726974,NH3,3,6,4
India,Tripura,Agartala,"Bardowali, Agartala - Tripura SPCB",27-02-2024 06:00:00,23.8175497,91.2726974,OZONE,NA,NA,NA
India,Uttar_Pradesh,Agra,"Manoharpur, Agra - UPPCB",27-02-2024 06:00:00,27.23711,78.01936,NO2,20,21,21
India,Uttar_Pradesh,Agra,"Sanjay Palace, Agra - UPPCB",27-02-2024 06:00:00,27.19865833,78.00598056,PM10,28,100,58
India,Uttar_Pradesh,Agra,"Sector-3B Avas Vikas Colony, Agra - UPPCB",27-02-2024 06:00:00,27.19412,77.96237,SO2,12,19,13
India,Uttar_Pradesh,Agra,"Shahjahan Garden, Agra - UPPCB",27-02-2024 06:00:00,27.169338,78.03582,PM2.5,22,105,50
India,Uttar_Pradesh,Agra,"Shahjahan Garden, Agra - UPPCB",27-02-2024 06:00:00,27.169338,78.03582,NH3,7,10,8
India,Uttar_Pradesh,Agra,"Shahjahan Garden, Agra - UPPCB",27-02-2024 06:00:00,27.169338,78.03582,CO,1,41,34
India,Uttar_Pradesh,Agra,"Shastripuram, Agra - UPPCB",27-02-2024 06:00:00,27.19862,77.92066,NH3,NA,NA,NA
India,Uttar_Pradesh,Agra,"Shastripuram, Agra - UPPCB",27-02-2024 06:00:00,27.19862,77.92066,CO,12,28,24
India,Uttar_Pradesh,Agra,"Shastripuram, Agra - UPPCB",27-02-2024 06:00:00,27.19862,77.92066,OZONE,1,18,1
India,Uttar_Pradesh,Bareilly,"Civil Lines, Bareilly - UPPCB",27-02-2024 06:00:00,28.359581,79.414455,PM10,30,112,77
India,Uttar_Pradesh,Bulandshahr,"Yamunapuram, Bulandshahr - UPPCB",27-02-2024 06:00:00,28.406963,77.849831,PM2.5,46,188,99
India,Uttar_Pradesh,Bulandshahr,"Yamunapuram, Bulandshahr - UPPCB",27-02-2024 06:00:00,28.406963,77.849831,PM10,80,189,126
India,Uttar_Pradesh,Firozabad,"Nagla Bhau, Firozabad - UPPCB",27-02-2024 06:00:00,27.168897,78.376960,PM10,27,74,49
India,Uttar_Pradesh,Firozabad,"Nagla Bhau, Firozabad - UPPCB",27-02-2024 06:00:00,27.168897,78.376960,NO2,17,17,17
India,Uttar_Pradesh,Firozabad,"Nagla Bhau, Firozabad - UPPCB",27-02-2024 06:00:00,27.168897,78.376960,SO2,12,28,23
India,Uttar_Pradesh,Firozabad,"Nagla Bhau, Firozabad - UPPCB",27-02-2024 06:00:00,27.168897,78.376960,CO,2,24,12
India,Uttar_Pradesh,Firozabad,"Vibhab Nagar, Firozabad - UPPCB",27-02-2024 06:00:00,27.1594,78.3953,NO2,14,16,14
India,Uttar_Pradesh,Firozabad,"Vibhab Nagar, Firozabad - UPPCB",27-02-2024 06:00:00,27.1594,78.3953,SO2,12,37,16
India,Uttar_Pradesh,Ghaziabad,"Indirapuram, Ghaziabad - UPPCB",27-02-2024 06:00:00,28.646233,77.358075,PM2.5,29,275,104
India,Uttar_Pradesh,Ghaziabad,"Indirapuram, Ghaziabad - UPPCB",27-02-2024 06:00:00,28.646233,77.358075,OZONE,6,38,7
India,Uttar_Pradesh,Ghaziabad,"Loni, Ghaziabad - UPPCB",27-02-2024 06:00:00,28.757294,77.278792,PM2.5,44,332,133
India,Uttar_Pradesh,Ghaziabad,"Sanjay Nagar, Ghaziabad - UPPCB",27-02-2024 06:00:00,28.685382,77.453839,PM2.5,40,149,96
India,Uttar_Pradesh,Ghaziabad,"Sanjay Nagar, Ghaziabad - UPPCB",27-02-2024 06:00:00,28.685382,77.453839,PM10,89,188,125
India,Uttar_Pradesh,Ghaziabad,"Vasundhara, Ghaziabad - UPPCB",27-02-2024 06:00:00,28.6603346,77.3572563,PM2.5,36,224,110
India,Uttar_Pradesh,Gorakhpur,"Madan Mohan Malaviya University of Technology, Gorakhpur - UPPCB",27-02-2024 06:00:00,26.730136,83.433859,PM2.5,37,178,96
India,Uttar_Pradesh,Gorakhpur,"Madan Mohan Malaviya University of Technology, Gorakhpur - UPPCB",27-02-2024 06:00:00,26.730136,83.433859,NH3,1,2,2
India,Uttar_Pradesh,Gorakhpur,"Madan Mohan Malaviya University of Technology, Gorakhpur - UPPCB",27-02-2024 06:00:00,26.730136,83.433859,SO2,23,36,27
India,Uttar_Pradesh,Greater Noida,"Knowledge Park - V, Greater Noida - UPPCB",27-02-2024 06:00:00,28.557054,77.453663,PM2.5,53,326,175
India,Uttar_Pradesh,Jhansi,"Shivaji Nagar, Jhansi - UPPCB",27-02-2024 06:00:00,25.4547,78.6039,PM2.5,NA,NA,NA
India,Uttar_Pradesh,Kanpur,"FTI Kidwai Nagar, Kanpur - UPPCB",27-02-2024 06:00:00,26.428282,80.327067,PM2.5,32,146,73
India,Uttar_Pradesh,Kanpur,"FTI Kidwai Nagar, Kanpur - UPPCB",27-02-2024 06:00:00,26.428282,80.327067,PM10,48,382,128
India,Uttar_Pradesh,Kanpur,"FTI Kidwai Nagar, Kanpur - UPPCB",27-02-2024 06:00:00,26.428282,80.327067,NO2,15,15,15
India,Uttar_Pradesh,Kanpur,"FTI Kidwai Nagar, Kanpur - UPPCB",27-02-2024 06:00:00,26.428282,80.327067,SO2,22,24,22
India,Uttar_Pradesh,Kanpur,"FTI Kidwai Nagar, Kanpur - UPPCB",27-02-2024 06:00:00,26.428282,80.327067,OZONE,3,7,3
India,Uttar_Pradesh,Kanpur,"NSI Kalyanpur, Kanpur - UPPCB",27-02-2024 06:00:00,26.509954,80.249612,PM10,22,150,111
India,Uttar_Pradesh,Kanpur,"NSI Kalyanpur, Kanpur - UPPCB",27-02-2024 06:00:00,26.509954,80.249612,NH3,1,1,1
India,Uttar_Pradesh,Kanpur,"Nehru Nagar, Kanpur - UPPCB",27-02-2024 06:00:00,26.4703136,80.3229863,PM2.5,38,270,136
India,Uttar_Pradesh,Kanpur,"Nehru Nagar, Kanpur - UPPCB",27-02-2024 06:00:00,26.4703136,80.3229863,CO,5,128,48
India,Uttar_Pradesh,Khurja,"Kalindi Kunj, Khurja - UPPCB",27-02-2024 06:00:00,28.2348927,77.8683002,NO2,14,29,20
India,Uttar_Pradesh,Lucknow,"B R Ambedkar University, Lucknow - UPPCB",27-02-2024 06:00:00,26.766433,80.927299,SO2,26,50,29
India,Uttar_Pradesh,Lucknow,"Talkatora District Industries Center, Lucknow - CPCB",27-02-2024 06:00:00,26.83399722,80.8917361,PM2.5,56,310,172
India,Uttar_Pradesh,Lucknow,"Talkatora District Industries Center, Lucknow - CPCB",27-02-2024 06:00:00,26.83399722,80.8917361,NO2,43,96,69
India,Uttar_Pradesh,Lucknow,"Talkatora District Industries Center, Lucknow - CPCB",27-02-2024 06:00:00,26.83399722,80.8917361,NH3,10,35,19
India,Uttar_Pradesh,Lucknow,"Talkatora District Industries Center, Lucknow - CPCB",27-02-2024 06:00:00,26.83399722,80.8917361,SO2,3,22,7
India,Uttar_Pradesh,Meerut,"Ganga Nagar, Meerut - UPPCB",27-02-2024 06:00:00,28.999264,77.7590354,PM2.5,17,144,72
India,Uttar_Pradesh,Meerut,"Pallavpuram Phase 2, Meerut - UPPCB",27-02-2024 06:00:00,29.063510,77.709723,PM10,54,159,108
India,Uttar_Pradesh,Meerut,"Pallavpuram Phase 2, Meerut - UPPCB",27-02-2024 06:00:00,29.063510,77.709723,SO2,13,34,25
India,Uttar_Pradesh,Meerut,"Pallavpuram Phase 2, Meerut - UPPCB",27-02-2024 06:00:00,29.063510,77.709723,OZONE,13,100,19
India,Uttar_Pradesh,Moradabad,"Buddhi Vihar, Moradabad - UPPCB",27-02-2024 06:00:00,28.83526,78.74460,NO2,23,24,23
India,Uttar_Pradesh,Moradabad,"Eco Herbal Park, Moradabad - UPPCB",27-02-2024 06:00:00,28.840739,78.697531,PM2.5,18,158,87
India,Uttar_Pradesh,Moradabad,"Eco Herbal Park, Moradabad - UPPCB",27-02-2024 06:00:00,28.840739,78.697531,PM10,32,120,84
India,Uttar_Pradesh,Moradabad,"Employment Office, Moradabad - UPPCB",27-02-2024 06:00:00,28.88528,78.73880,CO,14,47,42
India,Uttar_Pradesh,Moradabad,"Jigar Colony, Moradabad - UPPCB",27-02-2024 06:00:00,28.856664,78.772638,OZONE,17,44,18
India,Uttar_Pradesh,Moradabad,"Kashiram Nagar, Moradabad - UPPCB",27-02-2024 06:00:00,28.849399,78.742362,NO2,19,34,26
India,Uttar_Pradesh,Moradabad,"Kashiram Nagar, Moradabad - UPPCB",27-02-2024 06:00:00,28.849399,78.742362,NH3,4,4,4
India,Uttar_Pradesh,Moradabad,"Transport Nagar, Moradabad - UPPCB",27-02-2024 06:00:00,28.802625,78.753728,NH3,6,6,6
India,Uttar_Pradesh,Noida,"Sector - 125, Noida - UPPCB",27-02-2024 06:00:00,28.5447608,77.3231257,PM2.5,NA,NA,NA
India,Uttar_Pradesh,Noida,"Sector - 125, Noida - UPPCB",27-02-2024 06:00:00,28.5447608,77.3231257,CO,NA,NA,NA
India,Uttar_Pradesh,Noida,"Sector - 62, Noida - IMD",27-02-2024 06:00:00,28.6245479,77.3577104,PM2.5,55,302,142
India,Uttar_Pradesh,Noida,"Sector-1, Noida - UPPCB",27-02-2024 06:00:00,28.5898,77.3101,PM10,119,294,192
India,Uttar_Pradesh,Noida,"Sector-1, Noida - UPPCB",27-02-2024 06:00:00,28.5898,77.3101,NO2,47,126,88
India,Uttar_Pradesh,Noida,"Sector-1, Noida - UPPCB",27-02-2024 06:00:00,28.5898,77.3101,OZONE,1,186,1
India,Uttar_Pradesh,Prayagraj,"Motilal Nehru NIT, Prayagraj - UPPCB",27-02-2024 06:00:00,25.494,81.863,PM2.5,40,78,60
India,Uttar_Pradesh,Prayagraj,"Motilal Nehru NIT, Prayagraj - UPPCB",27-02-2024 06:00:00,25.494,81.863,PM10,NA,NA,NA
India,Uttar_Pradesh,Prayagraj,"Motilal Nehru NIT, Prayagraj - UPPCB",27-02-2024 06:00:00,25.494,81.863,CO,16,86,66
India,Uttar_Pradesh,Prayagraj,"Nagar Nigam, Prayagraj - UPPCB",27-02-2024 06:00:00,25.44919916 ,81.82735986 ,NO2,5,5,5
India,Uttar_Pradesh,Prayagraj,"Nagar Nigam, Prayagraj - UPPCB",27-02-2024 06:00:00,25.44919916 ,81.82735986 ,NH3,2,15,8
India,Uttar_Pradesh,Varanasi,"IESD Banaras Hindu University, Varanasi - UPPCB",27-02-2024 06:00:00,25.262326,82.995408,NO2,2,2,2
India,Uttar_Pradesh,Varanasi,"IESD Banaras Hindu University, Varanasi - UPPCB",27-02-2024 06:00:00,25.262326,82.995408,SO2,15,16,16
India,Uttar_Pradesh,Varanasi,"Maldahiya, Varanasi - UPPCB",27-02-2024 06:00:00,25.32393,82.99687,SO2,22,22,22
India,Uttar_Pradesh,Vrindavan,"Omex Eternity, Vrindavan - UPPCB",27-02-2024 06:00:00,27.5714090,77.6557570,PM2.5,15,70,37
India,Uttarakhand,Dehradun,"Doon University, Dehradun - UKPCB",27-02-2024 06:00:00,30.269444,78.044167,PM10,28,160,86
India,Uttarakhand,Kashipur,"Govt. Girls Inter College, Kashipur - UKPCB",27-02-2024 06:00:00,29.2124114,78.9611753,PM2.5,59,132,81
India,Uttarakhand,Kashipur,"Govt. Girls Inter College, Kashipur - UKPCB",27-02-2024 06:00:00,29.2124114,78.9611753,NO2,7,31,14
India,Uttarakhand,Rishikesh,"Shivaji Nagar, Rishikesh - UKPCB",27-02-2024 06:00:00,30.075911,78.2859547,PM2.5,18,56,40
India,West_Bengal,Durgapur,"Sidhu Kanhu Indoor Stadium, Durgapur - WBPCB",27-02-2024 06:00:00,23.5404352,87.2892225,OZONE,5,87,10
India,West_Bengal,Howrah,"Belur Math, Howrah - WBPCB",27-02-2024 06:00:00,22.629801,88.352017,PM10,74,131,102
India,West_Bengal,Howrah,"Belur Math, Howrah - WBPCB",27-02-2024 06:00:00,22.629801,88.352017,SO2,7,13,10
India,West_Bengal,Howrah,"Padmapukur, Howrah - WBPCB",27-02-2024 06:00:00,22.5687319,88.2797276,CO,20,86,46
India,West_Bengal,Kolkata,"Ballygunge, Kolkata - WBPCB",27-02-2024 06:00:00,22.5367507,88.3638022,NO2,27,121,60
India,West_Bengal,Kolkata,"Ballygunge, Kolkata - WBPCB",27-02-2024 06:00:00,22.5367507,88.3638022,NH3,6,18,11
India,West_Bengal,Kolkata,"Ballygunge, Kolkata - WBPCB",27-02-2024 06:00:00,22.5367507,88.3638022,OZONE,14,53,26
India,West_Bengal,Kolkata,"Bidhannagar, Kolkata - WBPCB",27-02-2024 06:00:00,22.58157048,88.41002457,CO,14,35,29
India,West_Bengal,Kolkata,"Bidhannagar, Kolkata - WBPCB",27-02-2024 06:00:00,22.58157048,88.41002457,OZONE,2,96,5
India,West_Bengal,Kolkata,"Fort William, Kolkata - WBPCB",27-02-2024 06:00:00,22.556640,88.342674,NO2,28,102,56
India,West_Bengal,Kolkata,"Jadavpur, Kolkata - WBPCB",27-02-2024 06:00:00,22.49929,88.36917,NH3,3,8,5
India,West_Bengal,Kolkata,"Rabindra Bharati University, Kolkata - WBPCB",27-02-2024 06:00:00,22.627847,88.380669,NH3,7,8,7
India,West_Bengal,Kolkata,"Rabindra Sarobar, Kolkata - WBPCB",27-02-2024 06:00:00,22.51106,88.35142,SO2,8,37,19
India,West_Bengal,Kolkata,"Rabindra Sarobar, Kolkata - WBPCB",27-02-2024 06:00:00,22.51106,88.35142,CO,14,49,30
India,West_Bengal,Kolkata,"Victoria, Kolkata - WBPCB",27-02-2024 06:00:00,22.5448082,88.3403691,PM10,67,133,105
India,West_Bengal,Siliguri,"Ward-32 Bapupara, Siliguri - WBPCB",27-02-2024 06:00:00,26.6879226,88.4152495,NO2,33,122,67
India,West_Bengal,Siliguri,"Ward-32 Bapupara, Siliguri - WBPCB",27-02-2024 06:00:00,26.6879226,88.4152495,SO2,12,15,14
India,Andhra_Pradesh,Amaravati,"Secretariat, Amaravati - APPCB",27-02-2024 06:00:00,16.5150833,80.5181667,NO2,6,19,11
India,Andhra_Pradesh,Amaravati,"Secretariat, Amaravati - APPCB",27-02-2024 06:00:00,16.5150833,80.5181667,SO2,10,20,13
India,Andhra_Pradesh,Rajamahendravaram,"Anand Kala Kshetram, Rajamahendravaram - APPCB",27-02-2024 06:00:00,16.9872867,81.7363176,SO2,11,13,12
India,Andhra_Pradesh,Tirupati,"Vaikuntapuram, Tirupati - APPCB",27-02-2024 06:00:00,13.615387,79.409230,NH3,2,4,3
India,Andhra_Pradesh,Vijayawada,"HB Colony, Vijayawada - APPCB",27-02-2024 06:00:00,16.536107,80.594233,PM10,46,68,59
India,Andhra_Pradesh,Vijayawada,"HB Colony, Vijayawada - APPCB",27-02-2024 06:00:00,16.536107,80.594233,OZONE,6,20,10
India,Andhra_Pradesh,Vijayawada,"Kanuru, Vijayawada - APPCB",27-02-2024 06:00:00,16.486692,80.699436,PM10,56,93,75
India,Andhra_Pradesh,Vijayawada,"Kanuru, Vijayawada - APPCB",27-02-2024 06:00:00,16.486692,80.699436,OZONE,25,25,25
India,Andhra_Pradesh,Vijayawada,"Rajiv Gandhi Park, Vijayawada - APPCB",27-02-2024 06:00:00,16.509717,80.612222,PM2.5,43,82,61
India,Andhra_Pradesh,Vijayawada,"Rajiv Gandhi Park, Vijayawada - APPCB",27-02-2024 06:00:00,16.509717,80.612222,NH3,3,7,6
India,Andhra_Pradesh,Visakhapatnam,"GVM Corporation, Visakhapatnam - APPCB",27-02-2024 06:00:00,17.72,83.3,OZONE,9,36,11
India,Arunachal_Pradesh,Naharlagun,"Naharlagun, Naharlagun - APSPCB",27-02-2024 06:00:00,27.103358,93.679645,PM2.5,9,145,61
India,Arunachal_Pradesh,Naharlagun,"Naharlagun, Naharlagun - APSPCB",27-02-2024 06:00:00,27.103358,93.679645,CO,8,38,20
India,Assam,Byrnihat,"Central Academy for SFS, Byrnihat - PCBA",27-02-2024 06:00:00,26.071318,91.87488,NO2,33,125,80
India,Assam,Byrnihat,"Central Academy for SFS, Byrnihat - PCBA",27-02-2024 06:00:00,26.071318,91.87488,NH3,3,8,6
India,Assam,Guwahati,"LGBI Airport, Guwahati - PCBA",27-02-2024 06:00:00,26.10887,91.589544,NH3,1,5,3
India,Assam,Nagaon,"Christianpatty, Nagaon - PCBA",27-02-2024 06:00:00,26.349082,92.68449,PM2.5,35,315,113
India,Assam,Silchar,"Tarapur, Silchar - PCBA",27-02-2024 06:00:00,24.82827,92.79525,PM2.5,40,64,51
India,Assam,Silchar,"Tarapur, Silchar - PCBA",27-02-2024 06:00:00,24.82827,92.79525,PM10,47,52,49
India,Assam,Silchar,"Tarapur, Silchar - PCBA",27-02-2024 06:00:00,24.82827,92.79525,NH3,1,1,1
India,Assam,Sivasagar,"Girls College, Sivasagar - PCBA",27-02-2024 06:00:00,26.987634,94.636574,PM2.5,13,43,23
India,Assam,Sivasagar,"Girls College, Sivasagar - PCBA",27-02-2024 06:00:00,26.987634,94.636574,SO2,5,5,5
India,Bihar,Araria,"Kharahiya Basti, Araria - BSPCB",27-02-2024 06:00:00,26.146529,87.454184,PM2.5,93,438,302
India,Bihar,Araria,"Kharahiya Basti, Araria - BSPCB",27-02-2024 06:00:00,26.146529,87.454184,CO,18,30,26
India,Bihar,Arrah,"New DM Office, Arrah - BSPCB",27-02-2024 06:00:00,25.5626095,84.663264,SO2,15,21,18
India,Bihar,Aurangabad,"Gurdeo Nagar, Aurangabad - BSPCB",27-02-2024 06:00:00,24.75746,84.366208,PM2.5,42,270,121
India,Bihar,Bettiah,"Kamalnath Nagar, Bettiah - BSPCB",27-02-2024 06:00:00,26.80365,84.51954,SO2,16,19,18
India,Bihar,Bhagalpur,"Mayaganj, Bhagalpur - BSPCB",27-02-2024 06:00:00,25.265194,87.012947,OZONE,13,31,16
India,Bihar,Bihar Sharif,"D M Colony, Bihar Sharif - BSPCB",27-02-2024 06:00:00,25.204762,85.514960,NO2,8,10,10
India,Bihar,Bihar Sharif,"D M Colony, Bihar Sharif - BSPCB",27-02-2024 06:00:00,25.204762,85.514960,SO2,3,17,8
India,Bihar,Buxar,"Charitra Van, Buxar - BSPCB (Formerly known as Central Jail)",27-02-2024 06:00:00,25.567520,83.966379,CO,26,126,117
India,Bihar,Buxar,"Charitra Van, Buxar - BSPCB (Formerly known as Central Jail)",27-02-2024 06:00:00,25.567520,83.966379,OZONE,NA,NA,NA
India,Bihar,Gaya,"Collectorate, Gaya - BSPCB",27-02-2024 06:00:00,24.7955,84.9994,PM2.5,40,352,192
India,Bihar,Gaya,"SFTI Kusdihra, Gaya - BSPCB",27-02-2024 06:00:00,24.762518,84.982348,PM2.5,72,177,110
India,Bihar,Gaya,"SFTI Kusdihra, Gaya - BSPCB",27-02-2024 06:00:00,24.762518,84.982348,PM10,57,102,81
India,Bihar,Gaya,"SFTI Kusdihra, Gaya - BSPCB",27-02-2024 06:00:00,24.762518,84.982348,NO2,22,79,48
India,Bihar,Gaya,"SFTI Kusdihra, Gaya - BSPCB",27-02-2024 06:00:00,24.762518,84.982348,NH3,1,6,5
India,Bihar,Gaya,"SFTI Kusdihra, Gaya - BSPCB",27-02-2024 06:00:00,24.762518,84.982348,CO,18,71,48
India,Bihar,Gaya,"SFTI Kusdihra, Gaya - BSPCB",27-02-2024 06:00:00,24.762518,84.982348,OZONE,1,75,2
India,Bihar,Hajipur,"Industrial Area, Hajipur - BSPCB",27-02-2024 06:00:00,25.697189,85.245900,NH3,4,10,8
India,Bihar,Katihar,"Mirchaibari, Katihar - BSPCB",27-02-2024 06:00:00,25.560083,87.553265,PM10,75,208,138
India,Bihar,Kishanganj,"SDM Office_Khagra, Kishanganj - BSPCB",27-02-2024 06:00:00,26.0881305,87.93840336,PM2.5,25,434,149
India,Bihar,Manguraha,"Forest Rest House, Manguraha - BSPCB",27-02-2024 06:00:00,27.308328,84.531742,PM2.5,23,73,52
India,Bihar,Manguraha,"Forest Rest House, Manguraha - BSPCB",27-02-2024 06:00:00,27.308328,84.531742,NH3,1,1,1
India,Bihar,Motihari,"Gandak Colony, Motihari - BSPCB",27-02-2024 06:00:00,26.63086,84.90051,OZONE,21,146,63
India,Bihar,Munger,"Town Hall, Munger - BSPCB",27-02-2024 06:00:00,25.376776,86.471523,NO2,8,10,9
India,Bihar,Munger,"Town Hall, Munger - BSPCB",27-02-2024 06:00:00,25.376776,86.471523,CO,4,70,52
India,Bihar,Muzaffarpur,"MIT-Daudpur Kothi, Muzaffarpur - BSPCB",27-02-2024 06:00:00,26.1403345,85.3650192,PM2.5,37,316,128
India,Bihar,Muzaffarpur,"MIT-Daudpur Kothi, Muzaffarpur - BSPCB",27-02-2024 06:00:00,26.1403345,85.3650192,NH3,1,8,3
India,Bihar,Muzaffarpur,"MIT-Daudpur Kothi, Muzaffarpur - BSPCB",27-02-2024 06:00:00,26.1403345,85.3650192,SO2,9,12,10
India,Bihar,Muzaffarpur,"MIT-Daudpur Kothi, Muzaffarpur - BSPCB",27-02-2024 06:00:00,26.1403345,85.3650192,OZONE,6,84,6
India,Bihar,Muzaffarpur,"Muzaffarpur Collectorate, Muzaffarpur - BSPCB",27-02-2024 06:00:00,26.1209,85.3647,SO2,4,7,6
India,Bihar,Muzaffarpur,"Muzaffarpur Collectorate, Muzaffarpur - BSPCB",27-02-2024 06:00:00,26.1209,85.3647,OZONE,16,82,28
India,Bihar,Patna,"DRM Office Danapur, Patna - BSPCB",27-02-2024 06:00:00,25.586562,85.043586,CO,30,110,78
India,Bihar,Patna,"Govt. High School Shikarpur, Patna - BSPCB",27-02-2024 06:00:00,25.592539,85.227158,PM2.5,107,250,185
India,Bihar,Patna,"Govt. High School Shikarpur, Patna - BSPCB",27-02-2024 06:00:00,25.592539,85.227158,NO2,23,31,26
India,Bihar,Patna,"Govt. High School Shikarpur, Patna - BSPCB",27-02-2024 06:00:00,25.592539,85.227158,NH3,4,4,4
India,Bihar,Patna,"Govt. High School Shikarpur, Patna - BSPCB",27-02-2024 06:00:00,25.592539,85.227158,SO2,1,3,2
India,Bihar,Patna,"Govt. High School Shikarpur, Patna - BSPCB",27-02-2024 06:00:00,25.592539,85.227158,CO,24,72,63
India,Bihar,Patna,"Muradpur, Patna - BSPCB",27-02-2024 06:00:00,25.619651,85.147382,NO2,2,19,7
India,Bihar,Patna,"Rajbansi Nagar, Patna - BSPCB",27-02-2024 06:00:00,25.599486,85.113666,PM2.5,51,185,107
India,Bihar,Patna,"Samanpura, Patna - BSPCB",27-02-2024 06:00:00,25.596727,85.085624,PM2.5,220,370,324
India,Bihar,Patna,"Samanpura, Patna - BSPCB",27-02-2024 06:00:00,25.596727,85.085624,NO2,53,131,92
India,Bihar,Patna,"Samanpura, Patna - BSPCB",27-02-2024 06:00:00,25.596727,85.085624,NH3,1,11,5
India,Bihar,Patna,"Samanpura, Patna - BSPCB",27-02-2024 06:00:00,25.596727,85.085624,SO2,15,16,16
India,Bihar,Purnia,"Mariam Nagar, Purnia - BSPCB",27-02-2024 06:00:00,25.366336,87.117468,NO2,11,13,12
India,Bihar,Purnia,"Mariam Nagar, Purnia - BSPCB",27-02-2024 06:00:00,25.366336,87.117468,NH3,1,1,1
India,Bihar,Purnia,"Mariam Nagar, Purnia - BSPCB",27-02-2024 06:00:00,25.366336,87.117468,SO2,15,26,20
India,Bihar,Rajgir,"Dangi Tola, Rajgir - BSPCB",27-02-2024 06:00:00,25.03280,85.41948,PM10,39,187,95
India,Bihar,Saharsa,"Police Line, Saharsa - BSPCB",27-02-2024 06:00:00,25.892357,86.590325,PM10,96,200,145
India,Bihar,Saharsa,"Police Line, Saharsa - BSPCB",27-02-2024 06:00:00,25.892357,86.590325,OZONE,21,78,24
India,Bihar,Samastipur,"DM Office_Kasipur, Samastipur - BSPCB",27-02-2024 06:00:00,25.859655,85.77944,PM10,NA,NA,NA
India,Bihar,Samastipur,"DM Office_Kasipur, Samastipur - BSPCB",27-02-2024 06:00:00,25.859655,85.77944,CO,4,44,28
India,Bihar,Sasaram,"Dada Peer, Sasaram - BSPCB",27-02-2024 06:00:00,24.952822,84.002396,PM2.5,39,141,80
India,Bihar,Sasaram,"Dada Peer, Sasaram - BSPCB",27-02-2024 06:00:00,24.952822,84.002396,PM10,32,129,92
India,Bihar,Siwan,"Chitragupta Nagar, Siwan - BSPCB",27-02-2024 06:00:00,26.2271665,84.3570427,PM10,105,372,209
India,Chandigarh,Chandigarh,"Sector 22, Chandigarh - CPCC",27-02-2024 06:00:00,30.735567,76.775714,PM2.5,43,217,105
India,Chandigarh,Chandigarh,"Sector 22, Chandigarh - CPCC",27-02-2024 06:00:00,30.735567,76.775714,CO,36,122,46
India,Chandigarh,Chandigarh,"Sector-25, Chandigarh - CPCC",27-02-2024 06:00:00,30.751462,76.762879,PM2.5,102,169,137
India,Chandigarh,Chandigarh,"Sector-53, Chandigarh - CPCC",27-02-2024 06:00:00,30.719859,76.738637,PM2.5,35,267,124
India,Chandigarh,Chandigarh,"Sector-53, Chandigarh - CPCC",27-02-2024 06:00:00,30.719859,76.738637,PM10,59,143,107
India,Chhattisgarh,Bhilai,"Hathkhoj, Bhilai - CECB",27-02-2024 06:00:00,21.224231,81.408350,CO,26,42,35
India,Chhattisgarh,Chhal,"Nawapara SECL Colony, Chhal - CECB",27-02-2024 06:00:00,22.118125,83.140608,PM2.5,3,117,63
India,Chhattisgarh,Chhal,"Nawapara SECL Colony, Chhal - CECB",27-02-2024 06:00:00,22.118125,83.140608,NH3,1,2,1
India,Chhattisgarh,Korba,"Rampur, Korba - CECB",27-02-2024 06:00:00,22.368195,82.746431,CO,17,26,23
India,Chhattisgarh,Korba,"Rampur, Korba - CECB",27-02-2024 06:00:00,22.368195,82.746431,OZONE,2,31,3
India,Chhattisgarh,Korba,"Urja Nagar, Korba - CECB",27-02-2024 06:00:00,22.348441,82.549611,PM2.5,18,48,34
India,Chhattisgarh,Korba,"Urja Nagar, Korba - CECB",27-02-2024 06:00:00,22.348441,82.549611,PM10,32,130,66
India,Chhattisgarh,Korba,"Urja Nagar, Korba - CECB",27-02-2024 06:00:00,22.348441,82.549611,NH3,5,8,6
India,Chhattisgarh,Kunjemura,"OP Jindal School, Kunjemura - CECB",27-02-2024 06:00:00,22.126650,83.483212,PM2.5,28,67,44
India,Chhattisgarh,Kunjemura,"OP Jindal School, Kunjemura - CECB",27-02-2024 06:00:00,22.126650,83.483212,PM10,32,158,78
India,Chhattisgarh,Kunjemura,"OP Jindal School, Kunjemura - CECB",27-02-2024 06:00:00,22.126650,83.483212,NO2,10,109,43
India,Chhattisgarh,Raipur,"AIIMS, Raipur - CECB",27-02-2024 06:00:00,21.258815,81.578979,NO2,33,47,42
India,Chhattisgarh,Raipur,"AIIMS, Raipur - CECB",27-02-2024 06:00:00,21.258815,81.578979,SO2,4,36,10
India,Chhattisgarh,Raipur,"Bhatagaon New ISBT, Raipur - CECB",27-02-2024 06:00:00,21.219665,81.630094,NO2,58,77,65
India,Chhattisgarh,Raipur,"Bhatagaon New ISBT, Raipur - CECB",27-02-2024 06:00:00,21.219665,81.630094,NH3,2,2,2
India,Chhattisgarh,Raipur,"Bhatagaon New ISBT, Raipur - CECB",27-02-2024 06:00:00,21.219665,81.630094,SO2,4,6,5
India,Chhattisgarh,Raipur,"Bhatagaon New ISBT, Raipur - CECB",27-02-2024 06:00:00,21.219665,81.630094,OZONE,3,4,3
India,Chhattisgarh,Raipur,"Krishak Nagar, Raipur - CECB",27-02-2024 06:00:00,21.237755,81.705301,PM2.5,40,64,52
India,Chhattisgarh,Raipur,"Siltara Phase-II, Raipur - CECB",27-02-2024 06:00:00,21.371751,81.664929,PM10,56,176,96
India,Chhattisgarh,Raipur,"Siltara Phase-II, Raipur - CECB",27-02-2024 06:00:00,21.371751,81.664929,OZONE,3,14,3
India,Chhattisgarh,Tumidih,"OP Jindal Industrial Park, Tumidih - CECB",27-02-2024 06:00:00,22.06631475,83.33820077,NO2,7,30,16
India,Chhattisgarh,Tumidih,"OP Jindal Industrial Park, Tumidih - CECB",27-02-2024 06:00:00,22.06631475,83.33820077,NH3,1,3,2
India,Delhi,Delhi,"Alipur, Delhi - DPCC",27-02-2024 06:00:00,28.815329,77.153010,CO,32,76,59
India,Delhi,Delhi,"Anand Vihar, Delhi - DPCC",27-02-2024 06:00:00,28.647622,77.3158090,PM10,129,444,230
India,Delhi,Delhi,"Ashok Vihar, Delhi - DPCC",27-02-2024 06:00:00,28.695381,77.181665,PM10,132,447,207
India,Delhi,Delhi,"Ashok Vihar, Delhi - DPCC",27-02-2024 06:00:00,28.695381,77.181665,NH3,1,11,6
India,Delhi,Delhi,"Ashok Vihar, Delhi - DPCC",27-02-2024 06:00:00,28.695381,77.181665,OZONE,4,16,5
India,Delhi,Delhi,"Aya Nagar, Delhi - IMD",27-02-2024 06:00:00,28.4706914,77.1099364,PM2.5,NA,NA,NA
India,Delhi,Delhi,"Bawana, Delhi - DPCC",27-02-2024 06:00:00,28.776200,77.051074,NH3,6,10,8
India,Delhi,Delhi,"Burari Crossing, Delhi - IMD",27-02-2024 06:00:00,28.7256504,77.2011573,OZONE,3,48,5
India,Delhi,Delhi,"Chandni Chowk, Delhi - IITM",27-02-2024 06:00:00,28.656756,77.227234,OZONE,14,29,26
India,Delhi,Delhi,"Dr. Karni Singh Shooting Range, Delhi - DPCC",27-02-2024 06:00:00,28.498571,77.264840,PM2.5,60,211,136
India,Delhi,Delhi,"Dr. Karni Singh Shooting Range, Delhi - DPCC",27-02-2024 06:00:00,28.498571,77.264840,OZONE,1,192,3
India,Delhi,Delhi,"IHBAS, Dilshad Garden, Delhi - CPCB",27-02-2024 06:00:00,28.6811736,77.3025234,NO2,12,42,29
India,Delhi,Delhi,"ITO, Delhi - CPCB",27-02-2024 06:00:00,28.628624,77.241060,PM10,82,230,142
India,Delhi,Delhi,"Jahangirpuri, Delhi - DPCC",27-02-2024 06:00:00,28.732820,77.170633,PM2.5,68,403,231
India,Delhi,Delhi,"Jahangirpuri, Delhi - DPCC",27-02-2024 06:00:00,28.732820,77.170633,NO2,44,125,82
India,Delhi,Delhi,"Jahangirpuri, Delhi - DPCC",27-02-2024 06:00:00,28.732820,77.170633,OZONE,2,6,6
India,Delhi,Delhi,"Jawaharlal Nehru Stadium, Delhi - DPCC",27-02-2024 06:00:00,28.580280,77.233829,PM10,88,240,143
India,Delhi,Delhi,"Jawaharlal Nehru Stadium, Delhi - DPCC",27-02-2024 06:00:00,28.580280,77.233829,NH3,5,9,7
India,Delhi,Delhi,"Lodhi Road, Delhi - IITM",27-02-2024 06:00:00,28.588333,77.221667,PM2.5,16,445,134
India,Delhi,Delhi,"Lodhi Road, Delhi - IITM",27-02-2024 06:00:00,28.588333,77.221667,SO2,23,63,32
India,Delhi,Delhi,"Lodhi Road, Delhi - IMD",27-02-2024 06:00:00,28.5918245,77.2273074,CO,20,57,48
India,Delhi,Delhi,"Major Dhyan Chand National Stadium, Delhi - DPCC",27-02-2024 06:00:00,28.611281,77.237738,CO,80,136,115
India,Delhi,Delhi,"Major Dhyan Chand National Stadium, Delhi - DPCC",27-02-2024 06:00:00,28.611281,77.237738,OZONE,2,173,3
India,Delhi,Delhi,"Mandir Marg, Delhi - DPCC",27-02-2024 06:00:00,28.636429,77.201067,NH3,15,16,15
India,Delhi,Delhi,"NSIT Dwarka, Delhi - CPCB",27-02-2024 06:00:00,28.60909,77.0325413,SO2,13,22,16
India,Delhi,Delhi,"Najafgarh, Delhi - DPCC",27-02-2024 06:00:00,28.570173,76.933762,SO2,13,20,15
India,Delhi,Delhi,"Najafgarh, Delhi - DPCC",27-02-2024 06:00:00,28.570173,76.933762,OZONE,10,166,18
India,Delhi,Delhi,"Narela, Delhi - DPCC",27-02-2024 06:00:00,28.822836,77.101981,OZONE,4,174,25
India,Delhi,Delhi,"Nehru Nagar, Delhi - DPCC",27-02-2024 06:00:00,28.567890,77.250515,PM10,105,337,176
India,Delhi,Delhi,"Nehru Nagar, Delhi - DPCC",27-02-2024 06:00:00,28.567890,77.250515,SO2,7,38,15
India,Delhi,Delhi,"New Moti Bagh, Delhi - MHUA",27-02-2024 06:00:00,28.57834,77.18400,NO2,1,8,4
India,Delhi,Delhi,"Okhla Phase-2, Delhi - DPCC",27-02-2024 06:00:00,28.530785,77.271255,SO2,11,24,14
India,Delhi,Delhi,"Patparganj, Delhi - DPCC",27-02-2024 06:00:00,28.623763,77.287209,SO2,8,12,10
India,Delhi,Delhi,"Punjabi Bagh, Delhi - DPCC",27-02-2024 06:00:00,28.674045,77.131023,NO2,19,36,28
India,Delhi,Delhi,"Punjabi Bagh, Delhi - DPCC",27-02-2024 06:00:00,28.674045,77.131023,SO2,20,31,24
India,Delhi,Delhi,"Pusa, Delhi - DPCC",27-02-2024 06:00:00,28.639652,77.146275,CO,104,133,114
India,Delhi,Delhi,"R K Puram, Delhi - DPCC",27-02-2024 06:00:00,28.563262,77.186937,NH3,1,2,1
India,Delhi,Delhi,"Rohini, Delhi - DPCC",27-02-2024 06:00:00,28.732528,77.119920,NH3,8,12,9
India,Delhi,Delhi,"Sonia Vihar, Delhi - DPCC",27-02-2024 06:00:00,28.710508,77.249485,NO2,27,104,63
India,Delhi,Delhi,"Sonia Vihar, Delhi - DPCC",27-02-2024 06:00:00,28.710508,77.249485,SO2,5,37,13
India,Delhi,Delhi,"Sri Aurobindo Marg, Delhi - DPCC",27-02-2024 06:00:00,28.531346,77.190156,NH3,6,9,7
India,Delhi,Delhi,"Vivek Vihar, Delhi - DPCC",27-02-2024 06:00:00,28.672342,77.315260,SO2,24,29,26
India,Delhi,Delhi,"Wazirpur, Delhi - DPCC",27-02-2024 06:00:00,28.699793,77.165453,SO2,11,57,33
India,Gujarat,Ahmedabad,"Gyaspur, Ahmedabad - IITM",27-02-2024 06:00:00,22.977134,72.553024,NH3,3,4,4
India,Gujarat,Ahmedabad,"Gyaspur, Ahmedabad - IITM",27-02-2024 06:00:00,22.977134,72.553024,OZONE,3,49,9
India,Gujarat,Ahmedabad,"Raikhad, Ahmedabad - IITM",27-02-2024 06:00:00,23.020509,72.579261,PM10,90,186,130
India,Gujarat,Ahmedabad,"Raikhad, Ahmedabad - IITM",27-02-2024 06:00:00,23.020509,72.579261,NH3,1,8,1
India,Gujarat,Ahmedabad,"Rakhial, Ahmedabad - IITM",27-02-2024 06:00:00,23.016834,72.625775,NO2,64,72,69
India,Gujarat,Ahmedabad,"Rakhial, Ahmedabad - IITM",27-02-2024 06:00:00,23.016834,72.625775,SO2,3,23,7
India,Gujarat,Ahmedabad,"SAC ISRO Bopal, Ahmedabad - IITM",27-02-2024 06:00:00,23.041137,72.456691,NO2,12,13,12
India,Gujarat,Ahmedabad,"SVPI Airport Hansol, Ahmedabad - IITM",27-02-2024 06:00:00,23.076793,72.627874,PM10,85,285,139
India,Gujarat,Ahmedabad,"SVPI Airport Hansol, Ahmedabad - IITM",27-02-2024 06:00:00,23.076793,72.627874,NO2,15,21,18
India,Gujarat,Ahmedabad,"SVPI Airport Hansol, Ahmedabad - IITM",27-02-2024 06:00:00,23.076793,72.627874,SO2,3,4,3
India,Gujarat,Ahmedabad,"Sardar Vallabhbhai Patel Stadium, Ahmedabad - IITM",27-02-2024 06:00:00,23.043070,72.562968,PM10,98,147,117
India,Gujarat,Ahmedabad,"Sardar Vallabhbhai Patel Stadium, Ahmedabad - IITM",27-02-2024 06:00:00,23.043070,72.562968,SO2,4,16,8
India,Gujarat,Ankleshwar,"GIDC, Ankleshwar - GPCB",27-02-2024 06:00:00,21.613267,73.010555,NH3,7,7,7
India,Gujarat,Gandhinagar,"IIPHG Lekawada, Gandhinagar - IITM",27-02-2024 06:00:00,23.243639,72.68994,PM2.5,56,160,87
India,Gujarat,Gandhinagar,"IIPHG Lekawada, Gandhinagar - IITM",27-02-2024 06:00:00,23.243639,72.68994,PM10,73,135,102
India,Gujarat,Gandhinagar,"IIPHG Lekawada, Gandhinagar - IITM",27-02-2024 06:00:00,23.243639,72.68994,OZONE,18,39,26
India,Gujarat,Vapi,"Phase-1 GIDC, Vapi - GPCB",27-02-2024 06:00:00,20.362421,72.918013,PM2.5,81,363,243
India,Gujarat,Vapi,"Phase-1 GIDC, Vapi - GPCB",27-02-2024 06:00:00,20.362421,72.918013,PM10,107,282,178
India,Gujarat,Vapi,"Phase-1 GIDC, Vapi - GPCB",27-02-2024 06:00:00,20.362421,72.918013,NH3,16,18,17
India,Gujarat,Vapi,"Phase-1 GIDC, Vapi - GPCB",27-02-2024 06:00:00,20.362421,72.918013,SO2,46,47,46
India,Gujarat,Vatva,"Phase-4 GIDC, Vatva - GPCB",27-02-2024 06:00:00,22.969611,72.643500,SO2,17,17,17
India,Haryana,Ambala,"Patti Mehar, Ambala - HSPCB",27-02-2024 06:00:00,30.379589,76.778328,SO2,1,25,13
India,Haryana,Bahadurgarh,"Arya Nagar, Bahadurgarh - HSPCB",27-02-2024 06:00:00,28.6701,76.9254,PM2.5,50,281,119
India,Haryana,Bahadurgarh,"Arya Nagar, Bahadurgarh - HSPCB",27-02-2024 06:00:00,28.6701,76.9254,OZONE,37,48,43
India,Haryana,Charkhi Dadri,"Mini Secretariat, Charkhi Dadri - HSPCB",27-02-2024 06:00:00,28.593883,76.270653,OZONE,13,17,15
India,Haryana,Dharuhera,"Municipal Corporation Office, Dharuhera -  HSPCB",27-02-2024 06:00:00,28.206800,76.799700,PM2.5,82,266,135
India,Haryana,Dharuhera,"Municipal Corporation Office, Dharuhera -  HSPCB",27-02-2024 06:00:00,28.206800,76.799700,NO2,45,110,69
India,Haryana,Dharuhera,"Municipal Corporation Office, Dharuhera -  HSPCB",27-02-2024 06:00:00,28.206800,76.799700,NH3,9,26,19
India,Haryana,Faridabad,"New Industrial Town, Faridabad - HSPCB",27-02-2024 06:00:00,28.39072,77.30059,NH3,4,10,6
India,Haryana,Faridabad,"New Industrial Town, Faridabad - HSPCB",27-02-2024 06:00:00,28.39072,77.30059,SO2,1,12,6
India,Haryana,Faridabad,"New Industrial Town, Faridabad - HSPCB",27-02-2024 06:00:00,28.39072,77.30059,CO,15,72,48
India,Haryana,Faridabad,"New Industrial Town, Faridabad - HSPCB",27-02-2024 06:00:00,28.39072,77.30059,OZONE,34,152,42
India,Haryana,Faridabad,"Sector 11, Faridabad - HSPCB",27-02-2024 06:00:00,28.376058,77.315741,NO2,29,33,31
India,Haryana,Faridabad,"Sector 11, Faridabad - HSPCB",27-02-2024 06:00:00,28.376058,77.315741,NH3,6,6,6
India,Haryana,Faridabad,"Sector 30, Faridabad - HSPCB",27-02-2024 06:00:00,28.4417,77.3217,PM10,113,140,124
India,Haryana,Hisar,"Urban Estate-II, Hisar - HSPCB",27-02-2024 06:00:00,29.140560,75.744941,NO2,5,9,7
India,Haryana,Jind,"Police Lines, Jind - HSPCB",27-02-2024 06:00:00,29.307814,76.337619,SO2,1,77,14
India,Haryana,Jind,"Police Lines, Jind - HSPCB",27-02-2024 06:00:00,29.307814,76.337619,CO,1,119,8
India,Haryana,Jind,"Police Lines, Jind - HSPCB",27-02-2024 06:00:00,29.307814,76.337619,OZONE,7,14,9
India,Haryana,Kaithal,"Rishi Nagar, Kaithal - HSPCB",27-02-2024 06:00:00,29.8006,76.4155,OZONE,1,7,2
India,Haryana,Kurukshetra,"Sector-7, Kurukshetra - HSPCB",27-02-2024 06:00:00,29.966942,76.875879,PM10,56,111,80
India,Haryana,Mandikhera,"General Hospital, Mandikhera - HSPCB",27-02-2024 06:00:00,27.9002,76.9938,PM2.5,31,62,48
India,Haryana,Mandikhera,"General Hospital, Mandikhera - HSPCB",27-02-2024 06:00:00,27.9002,76.9938,OZONE,22,31,26
India,Haryana,Narnaul,"Shastri Nagar, Narnaul - HSPCB",27-02-2024 06:00:00,28.060249,76.113115,PM2.5,20,87,44
India,Haryana,Narnaul,"Shastri Nagar, Narnaul - HSPCB",27-02-2024 06:00:00,28.060249,76.113115,SO2,13,14,13
India,Haryana,Narnaul,"Shastri Nagar, Narnaul - HSPCB",27-02-2024 06:00:00,28.060249,76.113115,CO,8,14,10
India,Haryana,Palwal,"Shyam Nagar, Palwal - HSPCB",27-02-2024 06:00:00,28.1485564,77.3320667,PM2.5,75,121,90
India,Haryana,Palwal,"Shyam Nagar, Palwal - HSPCB",27-02-2024 06:00:00,28.1485564,77.3320667,SO2,7,17,12
India,Haryana,Palwal,"Shyam Nagar, Palwal - HSPCB",27-02-2024 06:00:00,28.1485564,77.3320667,OZONE,10,60,12
India,Haryana,Panchkula,"Sector-6, Panchkula - HSPCB ",27-02-2024 06:00:00,30.7057778,76.8531805555555,SO2,11,12,12
India,Haryana,Panipat,"Sector-18, Panipat - HSPCB",27-02-2024 06:00:00,29.497973,76.993331,PM2.5,80,86,83
India,Haryana,Panipat,"Sector-18, Panipat - HSPCB",27-02-2024 06:00:00,29.497973,76.993331,PM10,88,92,90
India,Haryana,Panipat,"Sector-18, Panipat - HSPCB",27-02-2024 06:00:00,29.497973,76.993331,SO2,18,19,19
India,Haryana,Rohtak,"MD University, Rohtak - HSPCB",27-02-2024 06:00:00,28.52123,76.37138,PM2.5,11,257,93
India,Haryana,Sonipat,"Murthal, Sonipat - HSPCB",27-02-2024 06:00:00,29.027200,77.062100,PM2.5,36,93,58
India,Jharkhand,Dhanbad,"Kalakusuma, Dhanbad - DMC",27-02-2024 06:00:00,23.811548,86.481238,CO,126,134,131
India,Jharkhand,Dhanbad,"Kalakusuma, Dhanbad - DMC",27-02-2024 06:00:00,23.811548,86.481238,OZONE,19,38,20
India,Jharkhand,Dhanbad,"Sardar Patel Nagar, Dhanbad - JSPCB",27-02-2024 06:00:00,23.80569,86.44268,NO2,1,133,63
India,Jharkhand,Pathardih,"Mohalbani Ghat, Pathardih - DMC",27-02-2024 06:00:00,23.669880,86.411725,OZONE,7,29,10
India,Karnataka,Belgaum,"Ramteerth Nagar, Belgaum - KSPCB",27-02-2024 06:00:00,15.888653,74.541751,PM10,34,103,61
India,Karnataka,Bengaluru,"BTM Layout, Bengaluru - CPCB",27-02-2024 06:00:00,12.9135218,77.5950804,NH3,5,5,5
India,Karnataka,Bengaluru,"Bapuji Nagar, Bengaluru - KSPCB",27-02-2024 06:00:00,12.951913,77.539784,SO2,3,6,5
India,Karnataka,Bengaluru,"City Railway Station, Bengaluru - KSPCB",27-02-2024 06:00:00,12.9756843,77.5660749,NO2,24,37,31
India,Karnataka,Bengaluru,"Hombegowda Nagar, Bengaluru - KSPCB",27-02-2024 06:00:00,12.938539,77.590100,NO2,31,38,33
India,Karnataka,Bengaluru,"Hombegowda Nagar, Bengaluru - KSPCB",27-02-2024 06:00:00,12.938539,77.590100,NH3,2,2,2
India,Karnataka,Bengaluru,"Jayanagar 5th Block, Bengaluru - KSPCB",27-02-2024 06:00:00,12.920984,77.584908,CO,4,28,19
India,Karnataka,Bengaluru,"Jayanagar 5th Block, Bengaluru - KSPCB",27-02-2024 06:00:00,12.920984,77.584908,OZONE,27,28,28
India,Karnataka,Bengaluru,"Jigani, Bengaluru - KSPCB",27-02-2024 06:00:00,12.7816279,77.6299145,CO,32,62,43
India,Karnataka,Bengaluru,"Kasturi Nagar, Bengaluru - KSPCB",27-02-2024 06:00:00,13.003872,77.664217,CO,22,26,24
