country,state,city,station,last_update,latitude,longitude,pollutant_id,pollutant_min,pollutant_max,pollutant_avg
India,Andhra_Pradesh,Amaravati,"Secretariat, Amaravati - APPCB",26-07-2024 10:00:00,16.5150833,80.5181667,NH3,2,4,3
India,Andhra_Pradesh,Amaravati,"Secretariat, Amaravati - APPCB",26-07-2024 10:00:00,16.5150833,80.5181667,OZONE,9,26,14
India,Andhra_Pradesh,Anantapur,"Gulzarpet, Anantapur - APPCB",26-07-2024 10:00:00,14.675886,77.593027,PM10,53,85,64
India,Andhra_Pradesh,Anantapur,"Gulzarpet, Anantapur - APPCB",26-07-2024 10:00:00,14.675886,77.593027,NO2,19,19,19
India,Andhra_Pradesh,Kadapa,"Yerramukkapalli, Kadapa - APPCB",26-07-2024 10:00:00,14.465052,78.824187,NO2,NA,NA,NA
India,Andhra_Pradesh,Rajamahendravaram,"Anand Kala Kshetram, Rajamahendravaram - APPCB",26-07-2024 10:00:00,16.9872867,81.7363176,NO2,4,19,7
India,Andhra_Pradesh,Rajamahendravaram,"Anand Kala Kshetram, Rajamahendravaram - APPCB",26-07-2024 10:00:00,16.9872867,81.7363176,SO2,11,12,12
India,Andhra_Pradesh,Tirupati,"Tirumala, Tirupati - APPCB",26-07-2024 10:00:00,13.67,79.35,OZONE,10,24,16
India,Andhra_Pradesh,Tirupati,"Vaikuntapuram, Tirupati - APPCB",26-07-2024 10:00:00,13.615387,79.409230,NO2,NA,NA,NA
India,Andhra_Pradesh,Tirupati,"Vaikuntapuram, Tirupati - APPCB",26-07-2024 10:00:00,13.615387,79.409230,SO2,NA,NA,NA
India,Andhra_Pradesh,Vijayawada,"HB Colony, Vijayawada - APPCB",26-07-2024 10:00:00,16.536107,80.594233,PM10,40,51,44
India,Andhra_Pradesh,Vijayawada,"Rajiv Gandhi Park, Vijayawada - APPCB",26-07-2024 10:00:00,16.509717,80.612222,CO,24,39,31
India,Andhra_Pradesh,Visakhapatnam,"GVM Corporation, Visakhapatnam - APPCB",26-07-2024 10:00:00,17.72,83.3,PM2.5,16,91,40
India,Andhra_Pradesh,Visakhapatnam,"GVM Corporation, Visakhapatnam - APPCB",26-07-2024 10:00:00,17.72,83.3,NH3,2,5,3
India,Assam,Byrnihat,"Central Academy for SFS, Byrnihat - PCBA",26-07-2024 10:00:00,26.071318,91.87488,SO2,NA,NA,NA
India,Assam,Guwahati,"IITG, Guwahati - PCBA",26-07-2024 10:00:00,26.2028636,91.70046436,OZONE,6,33,10
India,Assam,Guwahati,"LGBI Airport, Guwahati - PCBA",26-07-2024 10:00:00,26.10887,91.589544,PM2.5,8,500,78
India,Assam,Guwahati,"LGBI Airport, Guwahati - PCBA",26-07-2024 10:00:00,26.10887,91.589544,NH3,1,8,3
India,Assam,Guwahati,"LGBI Airport, Guwahati - PCBA",26-07-2024 10:00:00,26.10887,91.589544,SO2,1,26,10
India,Assam,Guwahati,"LGBI Airport, Guwahati - PCBA",26-07-2024 10:00:00,26.10887,91.589544,CO,22,59,35
India,Assam,Guwahati,"Pan Bazaar, Guwahati - PCBA",26-07-2024 10:00:00,26.187500,91.744194,PM2.5,6,53,21
India,Assam,Guwahati,"Railway Colony, Guwahati - PCBA",26-07-2024 10:00:00,26.181742,91.78063,PM2.5,13,61,32
India,Assam,Nagaon,"Christianpatty, Nagaon - PCBA",26-07-2024 10:00:00,26.349082,92.68449,CO,26,72,42
India,Assam,Nalbari,"Bata Chowk, Nalbari - PCBA",26-07-2024 10:00:00,26.446912,91.439057,PM2.5,NA,NA,NA
India,Assam,Nalbari,"Bata Chowk, Nalbari - PCBA",26-07-2024 10:00:00,26.446912,91.439057,PM10,15,98,50
India,Assam,Nalbari,"Bata Chowk, Nalbari - PCBA",26-07-2024 10:00:00,26.446912,91.439057,NH3,1,2,2
India,Assam,Nalbari,"Bata Chowk, Nalbari - PCBA",26-07-2024 10:00:00,26.446912,91.439057,OZONE,14,21,17
India,Assam,Sivasagar,"Girls College, Sivasagar - PCBA",26-07-2024 10:00:00,26.987634,94.636574,OZONE,1,6,1
India,Bihar,Araria,"Kharahiya Basti, Araria - BSPCB",26-07-2024 10:00:00,26.146529,87.454184,CO,8,48,38
India,Bihar,Aurangabad,"Gurdeo Nagar, Aurangabad - BSPCB",26-07-2024 10:00:00,24.75746,84.366208,CO,24,28,27
India,Bihar,Bhagalpur,"DM Office_Kachari Chowk, Bhagalpur - BSPCB",26-07-2024 10:00:00,25.251013,86.989001,NH3,1,3,2
India,Bihar,Bhagalpur,"DM Office_Kachari Chowk, Bhagalpur - BSPCB",26-07-2024 10:00:00,25.251013,86.989001,OZONE,32,51,47
India,Bihar,Bhagalpur,"Mayaganj, Bhagalpur - BSPCB",26-07-2024 10:00:00,25.265194,87.012947,SO2,33,42,38
India,Bihar,Buxar,"Charitra Van, Buxar - BSPCB (Formerly known as Central Jail)",26-07-2024 10:00:00,25.567520,83.966379,NO2,4,6,5
India,Bihar,Chhapra,"Darshan Nagar, Chhapra - BSPCB",26-07-2024 10:00:00,25.7808257,84.7446768,PM2.5,12,42,29
India,Bihar,Gaya,"SFTI Kusdihra, Gaya - BSPCB",26-07-2024 10:00:00,24.762518,84.982348,PM2.5,NA,NA,NA
India,Bihar,Gaya,"SFTI Kusdihra, Gaya - BSPCB",26-07-2024 10:00:00,24.762518,84.982348,NO2,NA,NA,NA
India,Bihar,Katihar,"Mirchaibari, Katihar - BSPCB",26-07-2024 10:00:00,25.560083,87.553265,PM10,10,57,31
India,Bihar,Kishanganj,"SDM Office_Khagra, Kishanganj - BSPCB",26-07-2024 10:00:00,26.0881305,87.93840336,PM10,12,106,56
India,Bihar,Kishanganj,"SDM Office_Khagra, Kishanganj - BSPCB",26-07-2024 10:00:00,26.0881305,87.93840336,OZONE,34,54,46
India,Bihar,Manguraha,"Forest Rest House, Manguraha - BSPCB",26-07-2024 10:00:00,27.308328,84.531742,NO2,NA,NA,NA
India,Bihar,Motihari,"Gandak Colony, Motihari - BSPCB",26-07-2024 10:00:00,26.63086,84.90051,NO2,2,20,9
India,Bihar,Motihari,"Gandak Colony, Motihari - BSPCB",26-07-2024 10:00:00,26.63086,84.90051,SO2,10,121,43
India,Bihar,Munger,"Town Hall, Munger - BSPCB",26-07-2024 10:00:00,25.376776,86.471523,OZONE,1,4,2
India,Bihar,Muzaffarpur,"MIT-Daudpur Kothi, Muzaffarpur - BSPCB",26-07-2024 10:00:00,26.1403345,85.3650192,PM10,NA,NA,NA
India,Bihar,Muzaffarpur,"Muzaffarpur Collectorate, Muzaffarpur - BSPCB",26-07-2024 10:00:00,26.1209,85.3647,PM2.5,25,120,48
India,Bihar,Muzaffarpur,"Muzaffarpur Collectorate, Muzaffarpur - BSPCB",26-07-2024 10:00:00,26.1209,85.3647,NO2,29,56,33
India,Bihar,Patna,"DRM Office Danapur, Patna - BSPCB",26-07-2024 10:00:00,25.586562,85.043586,NO2,32,105,45
India,Bihar,Patna,"DRM Office Danapur, Patna - BSPCB",26-07-2024 10:00:00,25.586562,85.043586,NH3,2,3,3
India,Bihar,Patna,"DRM Office Danapur, Patna - BSPCB",26-07-2024 10:00:00,25.586562,85.043586,SO2,3,13,11
India,Bihar,Patna,"Govt. High School Shikarpur, Patna - BSPCB",26-07-2024 10:00:00,25.592539,85.227158,PM2.5,37,63,48
India,Bihar,Patna,"Govt. High School Shikarpur, Patna - BSPCB",26-07-2024 10:00:00,25.592539,85.227158,NO2,32,35,34
India,Bihar,Patna,"Govt. High School Shikarpur, Patna - BSPCB",26-07-2024 10:00:00,25.592539,85.227158,SO2,8,12,10
India,Bihar,Patna,"Govt. High School Shikarpur, Patna - BSPCB",26-07-2024 10:00:00,25.592539,85.227158,CO,36,62,43
India,Bihar,Patna,"Govt. High School Shikarpur, Patna - BSPCB",26-07-2024 10:00:00,25.592539,85.227158,OZONE,47,54,50
India,Bihar,Patna,"IGSC Planetarium Complex, Patna - BSPCB",26-07-2024 10:00:00,25.610369,85.132568,OZONE,22,90,49
India,Bihar,Patna,"Rajbansi Nagar, Patna - BSPCB",26-07-2024 10:00:00,25.599486,85.113666,NH3,2,3,3
India,Bihar,Patna,"Samanpura, Patna - BSPCB",26-07-2024 10:00:00,25.596727,85.085624,NH3,8,13,10
India,Bihar,Purnia,"Mariam Nagar, Purnia - BSPCB",26-07-2024 10:00:00,25.366336,87.117468,NH3,1,1,1
India,Bihar,Purnia,"Mariam Nagar, Purnia - BSPCB",26-07-2024 10:00:00,25.366336,87.117468,SO2,8,16,11
India,Bihar,Purnia,"Mariam Nagar, Purnia - BSPCB",26-07-2024 10:00:00,25.366336,87.117468,CO,9,82,23
India,Bihar,Saharsa,"Police Line, Saharsa - BSPCB",26-07-2024 10:00:00,25.892357,86.590325,PM10,11,123,56
India,Bihar,Samastipur,"DM Office_Kasipur, Samastipur - BSPCB",26-07-2024 10:00:00,25.859655,85.77944,CO,101,114,104
India,Bihar,Sasaram,"Dada Peer, Sasaram - BSPCB",26-07-2024 10:00:00,24.952822,84.002396,PM2.5,8,78,40
India,Bihar,Sasaram,"Dada Peer, Sasaram - BSPCB",26-07-2024 10:00:00,24.952822,84.002396,NH3,2,2,2
India,Bihar,Siwan,"Chitragupta Nagar, Siwan - BSPCB",26-07-2024 10:00:00,26.2271665,84.3570427,CO,NA,NA,NA
India,Chandigarh,Chandigarh,"Sector 22, Chandigarh - CPCC",26-07-2024 10:00:00,30.735567,76.775714,PM2.5,13,70,36
India,Chandigarh,Chandigarh,"Sector 22, Chandigarh - CPCC",26-07-2024 10:00:00,30.735567,76.775714,PM10,30,109,62
India,Chandigarh,Chandigarh,"Sector-25, Chandigarh - CPCC",26-07-2024 10:00:00,30.751462,76.762879,NH3,15,27,20
India,Chandigarh,Chandigarh,"Sector-53, Chandigarh - CPCC",26-07-2024 10:00:00,30.719859,76.738637,PM2.5,15,63,34
India,Chandigarh,Chandigarh,"Sector-53, Chandigarh - CPCC",26-07-2024 10:00:00,30.719859,76.738637,NH3,3,13,8
India,Chhattisgarh,Bhilai,"Civic Center, Bhilai - Bhilai Steel Plant",26-07-2024 10:00:00,21.185571,81.343175,NH3,3,4,4
India,Chhattisgarh,Bhilai,"Civic Center, Bhilai - Bhilai Steel Plant",26-07-2024 10:00:00,21.185571,81.343175,CO,17,58,34
India,Chhattisgarh,Bhilai,"Hathkhoj, Bhilai - CECB",26-07-2024 10:00:00,21.224231,81.408350,NH3,7,10,7
India,Chhattisgarh,Bilaspur,"Mangala, Bilaspur - NTPC",26-07-2024 10:00:00,22.08815,82.13737,PM2.5,2,24,14
India,Chhattisgarh,Bilaspur,"Mangala, Bilaspur - NTPC",26-07-2024 10:00:00,22.08815,82.13737,PM10,7,121,24
India,Chhattisgarh,Bilaspur,"Mangala, Bilaspur - NTPC",26-07-2024 10:00:00,22.08815,82.13737,SO2,5,19,15
India,Chhattisgarh,Chhal,"Nawapara SECL Colony, Chhal - CECB",26-07-2024 10:00:00,22.118125,83.140608,NO2,40,63,52
India,Chhattisgarh,Chhal,"Nawapara SECL Colony, Chhal - CECB",26-07-2024 10:00:00,22.118125,83.140608,SO2,11,16,13
India,Chhattisgarh,Korba,"Rampur, Korba - CECB",26-07-2024 10:00:00,22.368195,82.746431,NO2,16,20,18
India,Chhattisgarh,Korba,"Urja Nagar, Korba - CECB",26-07-2024 10:00:00,22.348441,82.549611,PM2.5,NA,NA,NA
India,Chhattisgarh,Korba,"Urja Nagar, Korba - CECB",26-07-2024 10:00:00,22.348441,82.549611,SO2,NA,NA,NA
India,Chhattisgarh,Kunjemura,"OP Jindal School, Kunjemura - CECB",26-07-2024 10:00:00,22.126650,83.483212,PM2.5,7,14,8
India,Chhattisgarh,Kunjemura,"OP Jindal School, Kunjemura - CECB",26-07-2024 10:00:00,22.126650,83.483212,NH3,2,2,2
India,Chhattisgarh,Kunjemura,"OP Jindal School, Kunjemura - CECB",26-07-2024 10:00:00,22.126650,83.483212,CO,20,27,24
India,Chhattisgarh,Raipur,"AIIMS, Raipur - CECB",26-07-2024 10:00:00,21.258815,81.578979,PM2.5,2,25,9
India,Chhattisgarh,Raipur,"AIIMS, Raipur - CECB",26-07-2024 10:00:00,21.258815,81.578979,CO,16,34,23
India,Chhattisgarh,Raipur,"Bhatagaon New ISBT, Raipur - CECB",26-07-2024 10:00:00,21.219665,81.630094,NO2,4,5,4
India,Chhattisgarh,Raipur,"Bhatagaon New ISBT, Raipur - CECB",26-07-2024 10:00:00,21.219665,81.630094,NH3,2,2,2
India,Chhattisgarh,Raipur,"Bhatagaon New ISBT, Raipur - CECB",26-07-2024 10:00:00,21.219665,81.630094,SO2,4,7,5
India,Chhattisgarh,Raipur,"Krishak Nagar, Raipur - CECB",26-07-2024 10:00:00,21.237755,81.705301,SO2,12,16,14
India,Chhattisgarh,Raipur,"Krishak Nagar, Raipur - CECB",26-07-2024 10:00:00,21.237755,81.705301,OZONE,4,6,4
India,Chhattisgarh,Raipur,"Siltara Phase-II, Raipur - CECB",26-07-2024 10:00:00,21.371751,81.664929,CO,22,32,31
India,Delhi,Delhi,"Alipur, Delhi - DPCC",26-07-2024 10:00:00,28.815329,77.153010,PM10,25,120,79
India,Delhi,Delhi,"Anand Vihar, Delhi - DPCC",26-07-2024 10:00:00,28.647622,77.3158090,PM2.5,22,253,79
India,Delhi,Delhi,"Anand Vihar, Delhi - DPCC",26-07-2024 10:00:00,28.647622,77.3158090,SO2,3,19,15
India,Delhi,Delhi,"Ashok Vihar, Delhi - DPCC",26-07-2024 10:00:00,28.695381,77.181665,NH3,18,31,24
India,Delhi,Delhi,"Bawana, Delhi - DPCC",26-07-2024 10:00:00,28.776200,77.051074,PM2.5,5,90,46
India,Delhi,Delhi,"Bawana, Delhi - DPCC",26-07-2024 10:00:00,28.776200,77.051074,PM10,16,109,67
India,Delhi,Delhi,"Burari Crossing, Delhi - IMD",26-07-2024 10:00:00,28.7256504,77.2011573,OZONE,18,64,22
India,Delhi,Delhi,"CRRI Mathura Road, Delhi - IMD",26-07-2024 10:00:00,28.5512005,77.2735737,PM10,11,92,42
India,Delhi,Delhi,"Chandni Chowk, Delhi - IITM",26-07-2024 10:00:00,28.656756,77.227234,NO2,54,85,73
India,Delhi,Delhi,"Dr. Karni Singh Shooting Range, Delhi - DPCC",26-07-2024 10:00:00,28.498571,77.264840,SO2,5,14,9
India,Delhi,Delhi,"Dr. Karni Singh Shooting Range, Delhi - DPCC",26-07-2024 10:00:00,28.498571,77.264840,OZONE,6,27,11
India,Delhi,Delhi,"Dwarka-Sector 8, Delhi - DPCC ",26-07-2024 10:00:00,28.5710274,77.0719006,PM2.5,22,95,59
India,Delhi,Delhi,"Dwarka-Sector 8, Delhi - DPCC ",26-07-2024 10:00:00,28.5710274,77.0719006,PM10,30,205,99
India,Delhi,Delhi,"Dwarka-Sector 8, Delhi - DPCC ",26-07-2024 10:00:00,28.5710274,77.0719006,NO2,8,53,23
India,Delhi,Delhi,"Dwarka-Sector 8, Delhi - DPCC ",26-07-2024 10:00:00,28.5710274,77.0719006,SO2,8,11,9
India,Delhi,Delhi,"IGI Airport (T3), Delhi - IMD",26-07-2024 10:00:00,28.5627763,77.1180053,PM10,16,98,68
India,Delhi,Delhi,"IHBAS, Dilshad Garden, Delhi - CPCB",26-07-2024 10:00:00,28.6811736,77.3025234,CO,19,82,46
India,Delhi,Delhi,"IHBAS, Dilshad Garden, Delhi - CPCB",26-07-2024 10:00:00,28.6811736,77.3025234,OZONE,15,17,16
India,Delhi,Delhi,"ITO, Delhi - CPCB",26-07-2024 10:00:00,28.628624,77.241060,PM10,12,78,52
India,Delhi,Delhi,"ITO, Delhi - CPCB",26-07-2024 10:00:00,28.628624,77.241060,SO2,9,15,12
India,Delhi,Delhi,"Jahangirpuri, Delhi - DPCC",26-07-2024 10:00:00,28.732820,77.170633,NH3,3,4,3
India,Delhi,Delhi,"Jawaharlal Nehru Stadium, Delhi - DPCC",26-07-2024 10:00:00,28.580280,77.233829,PM10,8,71,43
India,Delhi,Delhi,"Lodhi Road, Delhi - IMD",26-07-2024 10:00:00,28.5918245,77.2273074,NO2,4,15,7
India,Delhi,Delhi,"Major Dhyan Chand National Stadium, Delhi - DPCC",26-07-2024 10:00:00,28.611281,77.237738,PM10,9,113,65
India,Delhi,Delhi,"Major Dhyan Chand National Stadium, Delhi - DPCC",26-07-2024 10:00:00,28.611281,77.237738,NO2,20,67,45
India,Delhi,Delhi,"Major Dhyan Chand National Stadium, Delhi - DPCC",26-07-2024 10:00:00,28.611281,77.237738,SO2,4,9,7
India,Delhi,Delhi,"Mandir Marg, Delhi - DPCC",26-07-2024 10:00:00,28.636429,77.201067,SO2,5,16,11
India,Delhi,Delhi,"Mundka, Delhi - DPCC",26-07-2024 10:00:00,28.684678,77.076574,NH3,8,20,12
India,Delhi,Delhi,"NSIT Dwarka, Delhi - CPCB",26-07-2024 10:00:00,28.60909,77.0325413,CO,22,68,35
India,Delhi,Delhi,"Najafgarh, Delhi - DPCC",26-07-2024 10:00:00,28.570173,76.933762,PM2.5,18,130,63
India,Delhi,Delhi,"Narela, Delhi - DPCC",26-07-2024 10:00:00,28.822836,77.101981,NO2,6,54,26
India,Delhi,Delhi,"Narela, Delhi - DPCC",26-07-2024 10:00:00,28.822836,77.101981,CO,40,75,52
India,Delhi,Delhi,"Narela, Delhi - DPCC",26-07-2024 10:00:00,28.822836,77.101981,OZONE,100,182,182
India,Delhi,Delhi,"Nehru Nagar, Delhi - DPCC",26-07-2024 10:00:00,28.567890,77.250515,PM2.5,27,85,47
India,Delhi,Delhi,"Nehru Nagar, Delhi - DPCC",26-07-2024 10:00:00,28.567890,77.250515,NO2,11,52,33
India,Delhi,Delhi,"Nehru Nagar, Delhi - DPCC",26-07-2024 10:00:00,28.567890,77.250515,SO2,4,10,7
India,Delhi,Delhi,"Okhla Phase-2, Delhi - DPCC",26-07-2024 10:00:00,28.530785,77.271255,PM2.5,12,70,39
India,Delhi,Delhi,"Okhla Phase-2, Delhi - DPCC",26-07-2024 10:00:00,28.530785,77.271255,PM10,23,119,63
India,Delhi,Delhi,"Okhla Phase-2, Delhi - DPCC",26-07-2024 10:00:00,28.530785,77.271255,NO2,23,70,45
India,Delhi,Delhi,"Okhla Phase-2, Delhi - DPCC",26-07-2024 10:00:00,28.530785,77.271255,SO2,5,13,8
India,Delhi,Delhi,"Patparganj, Delhi - DPCC",26-07-2024 10:00:00,28.623763,77.287209,PM10,19,112,75
India,Delhi,Delhi,"Patparganj, Delhi - DPCC",26-07-2024 10:00:00,28.623763,77.287209,OZONE,4,79,8
India,Delhi,Delhi,"Punjabi Bagh, Delhi - DPCC",26-07-2024 10:00:00,28.674045,77.131023,PM2.5,10,163,64
India,Delhi,Delhi,"Punjabi Bagh, Delhi - DPCC",26-07-2024 10:00:00,28.674045,77.131023,NH3,3,11,6
India,Delhi,Delhi,"Punjabi Bagh, Delhi - DPCC",26-07-2024 10:00:00,28.674045,77.131023,CO,22,44,32
India,Delhi,Delhi,"Pusa, Delhi - DPCC",26-07-2024 10:00:00,28.639652,77.146275,NH3,6,10,8
India,Delhi,Delhi,"Pusa, Delhi - IMD",26-07-2024 10:00:00,28.636110,77.173332,CO,48,71,61
India,Delhi,Delhi,"R K Puram, Delhi - DPCC",26-07-2024 10:00:00,28.563262,77.186937,PM2.5,3,123,74
India,Delhi,Delhi,"Rohini, Delhi - DPCC",26-07-2024 10:00:00,28.732528,77.119920,OZONE,NA,NA,NA
India,Delhi,Delhi,"Shadipur, Delhi - CPCB",26-07-2024 10:00:00,28.6514781,77.1473105,SO2,9,24,16
India,Delhi,Delhi,"Shadipur, Delhi - CPCB",26-07-2024 10:00:00,28.6514781,77.1473105,OZONE,2,55,41
India,Delhi,Delhi,"Sonia Vihar, Delhi - DPCC",26-07-2024 10:00:00,28.710508,77.249485,NO2,16,66,37
India,Delhi,Delhi,"Sri Aurobindo Marg, Delhi - DPCC",26-07-2024 10:00:00,28.531346,77.190156,CO,38,78,50
India,Delhi,Delhi,"Vivek Vihar, Delhi - DPCC",26-07-2024 10:00:00,28.672342,77.315260,SO2,7,21,10
India,Delhi,Delhi,"Wazirpur, Delhi - DPCC",26-07-2024 10:00:00,28.699793,77.165453,CO,4,57,20
India,Gujarat,Ahmedabad,"Chandkheda, Ahmedabad - IITM",26-07-2024 10:00:00,23.107969,72.574648,NH3,7,10,8
India,Gujarat,Ahmedabad,"Gyaspur, Ahmedabad - IITM",26-07-2024 10:00:00,22.977134,72.553024,PM10,NA,NA,NA
India,Gujarat,Ahmedabad,"Maninagar, Ahmedabad - GPCB",26-07-2024 10:00:00,23.002657,72.591912,SO2,27,37,32
India,Gujarat,Ahmedabad,"Raikhad, Ahmedabad - IITM",26-07-2024 10:00:00,23.020509,72.579261,PM2.5,28,78,50
India,Gujarat,Ahmedabad,"Raikhad, Ahmedabad - IITM",26-07-2024 10:00:00,23.020509,72.579261,PM10,37,125,64
India,Gujarat,Ahmedabad,"Raikhad, Ahmedabad - IITM",26-07-2024 10:00:00,23.020509,72.579261,NO2,19,33,26
India,Gujarat,Ahmedabad,"Rakhial, Ahmedabad - IITM",26-07-2024 10:00:00,23.016834,72.625775,PM2.5,43,82,63
India,Gujarat,Ahmedabad,"SVPI Airport Hansol, Ahmedabad - IITM",26-07-2024 10:00:00,23.076793,72.627874,NO2,56,82,64
India,Gujarat,Gandhinagar,"Sector-10, Gandhinagar - GPCB",26-07-2024 10:00:00,23.221714,72.654328,SO2,4,6,5
India,Gujarat,Surat,"Science Center, Surat - SMC",26-07-2024 10:00:00,21.170046,72.795405,PM2.5,4,55,33
India,Gujarat,Vapi,"Phase-1 GIDC, Vapi - GPCB",26-07-2024 10:00:00,20.362421,72.918013,OZONE,4,5,4
India,Gujarat,Vatva,"Phase-4 GIDC, Vatva - GPCB",26-07-2024 10:00:00,22.969611,72.643500,NH3,3,4,3
India,Gujarat,Vatva,"Phase-4 GIDC, Vatva - GPCB",26-07-2024 10:00:00,22.969611,72.643500,SO2,9,18,11
India,Haryana,Ambala,"Patti Mehar, Ambala - HSPCB",26-07-2024 10:00:00,30.379589,76.778328,PM2.5,39,82,60
India,Haryana,Ambala,"Patti Mehar, Ambala - HSPCB",26-07-2024 10:00:00,30.379589,76.778328,NO2,8,21,14
India,Haryana,Bahadurgarh,"Arya Nagar, Bahadurgarh - HSPCB",26-07-2024 10:00:00,28.6701,76.9254,PM2.5,40,109,61
India,Haryana,Bahadurgarh,"Arya Nagar, Bahadurgarh - HSPCB",26-07-2024 10:00:00,28.6701,76.9254,OZONE,33,40,36
India,Haryana,Ballabgarh,"Nathu Colony, Ballabgarh - HSPCB",26-07-2024 10:00:00,28.3419248,77.319699,NH3,2,3,2
India,Haryana,Ballabgarh,"Nathu Colony, Ballabgarh - HSPCB",26-07-2024 10:00:00,28.3419248,77.319699,SO2,1,126,26
India,Haryana,Ballabgarh,"Nathu Colony, Ballabgarh - HSPCB",26-07-2024 10:00:00,28.3419248,77.319699,OZONE,NA,NA,NA
India,Haryana,Charkhi Dadri,"Mini Secretariat, Charkhi Dadri - HSPCB",26-07-2024 10:00:00,28.593883,76.270653,NH3,6,9,7
India,Haryana,Charkhi Dadri,"Mini Secretariat, Charkhi Dadri - HSPCB",26-07-2024 10:00:00,28.593883,76.270653,SO2,3,19,14
India,Haryana,Charkhi Dadri,"Mini Secretariat, Charkhi Dadri - HSPCB",26-07-2024 10:00:00,28.593883,76.270653,OZONE,13,17,15
India,Haryana,Faridabad,"New Industrial Town, Faridabad - HSPCB",26-07-2024 10:00:00,28.39072,77.30059,OZONE,9,29,12
India,Haryana,Faridabad,"Sector 11, Faridabad - HSPCB",26-07-2024 10:00:00,28.376058,77.315741,PM2.5,54,144,90
India,Haryana,Faridabad,"Sector 11, Faridabad - HSPCB",26-07-2024 10:00:00,28.376058,77.315741,NO2,31,32,31
India,Haryana,Faridabad,"Sector 30, Faridabad - HSPCB",26-07-2024 10:00:00,28.4417,77.3217,PM10,64,95,82
India,Haryana,Faridabad,"Sector 30, Faridabad - HSPCB",26-07-2024 10:00:00,28.4417,77.3217,CO,18,48,28
India,Haryana,Faridabad,"Sector 30, Faridabad - HSPCB",26-07-2024 10:00:00,28.4417,77.3217,OZONE,7,10,8
India,Haryana,Fatehabad,"Huda Sector, Fatehabad - HSPCB",26-07-2024 10:00:00,29.503664,75.467934,NH3,10,11,10
India,Haryana,Gurugram,"Sector-51, Gurugram - HSPCB",26-07-2024 10:00:00,28.4227,77.0667,PM2.5,17,137,59
India,Haryana,Gurugram,"Sector-51, Gurugram - HSPCB",26-07-2024 10:00:00,28.4227,77.0667,NH3,7,14,9
India,Haryana,Gurugram,"Sector-51, Gurugram - HSPCB",26-07-2024 10:00:00,28.4227,77.0667,SO2,3,6,5
India,Haryana,Hisar,"Urban Estate-II, Hisar - HSPCB",26-07-2024 10:00:00,29.140560,75.744941,PM2.5,18,73,42
India,Haryana,Hisar,"Urban Estate-II, Hisar - HSPCB",26-07-2024 10:00:00,29.140560,75.744941,NO2,8,12,10
India,Haryana,Kaithal,"Rishi Nagar, Kaithal - HSPCB",26-07-2024 10:00:00,29.8006,76.4155,PM2.5,35,88,58
India,Haryana,Kaithal,"Rishi Nagar, Kaithal - HSPCB",26-07-2024 10:00:00,29.8006,76.4155,OZONE,27,98,36
India,Haryana,Karnal,"Sector-12, Karnal - HSPCB",26-07-2024 10:00:00,29.695300,77.002700,NO2,7,12,10
India,Haryana,Karnal,"Sector-12, Karnal - HSPCB",26-07-2024 10:00:00,29.695300,77.002700,SO2,12,13,12
India,Haryana,Kurukshetra,"Sector-7, Kurukshetra - HSPCB",26-07-2024 10:00:00,29.966942,76.875879,NH3,6,6,6
India,Haryana,Kurukshetra,"Sector-7, Kurukshetra - HSPCB",26-07-2024 10:00:00,29.966942,76.875879,OZONE,12,72,38
India,Haryana,Mandikhera,"General Hospital, Mandikhera - HSPCB",26-07-2024 10:00:00,27.9002,76.9938,PM10,55,71,63
India,Haryana,Manesar,"Sector-2 IMT, Manesar - HSPCB",26-07-2024 10:00:00,28.360699,76.936090,NH3,2,2,2
India,Haryana,Narnaul,"Shastri Nagar, Narnaul - HSPCB",26-07-2024 10:00:00,28.060249,76.113115,PM2.5,NA,NA,NA
India,Haryana,Narnaul,"Shastri Nagar, Narnaul - HSPCB",26-07-2024 10:00:00,28.060249,76.113115,NH3,5,10,8
India,Haryana,Palwal,"Shyam Nagar, Palwal - HSPCB",26-07-2024 10:00:00,28.1485564,77.3320667,PM2.5,15,53,27
India,Haryana,Palwal,"Shyam Nagar, Palwal - HSPCB",26-07-2024 10:00:00,28.1485564,77.3320667,PM10,16,89,36
India,Haryana,Palwal,"Shyam Nagar, Palwal - HSPCB",26-07-2024 10:00:00,28.1485564,77.3320667,SO2,1,129,19
India,Haryana,Panchkula,"Sector-6, Panchkula - HSPCB ",26-07-2024 10:00:00,30.7057778,76.8531805555555,SO2,2,24,8
India,Haryana,Panipat,"Sector-18, Panipat - HSPCB",26-07-2024 10:00:00,29.432304,76.972765,NO2,31,32,31
India,Haryana,Panipat,"Sector-18, Panipat - HSPCB",26-07-2024 10:00:00,29.432304,76.972765,NH3,2,3,2
India,Haryana,Panipat,"Sector-18, Panipat - HSPCB",26-07-2024 10:00:00,29.432304,76.972765,OZONE,30,30,30
India,Haryana,Sirsa,"F-Block, Sirsa - HSPCB",26-07-2024 10:00:00,29.536400,75.015800,PM2.5,2,33,9
India,Haryana,Sirsa,"F-Block, Sirsa - HSPCB",26-07-2024 10:00:00,29.536400,75.015800,NH3,11,25,14
India,Haryana,Sirsa,"F-Block, Sirsa - HSPCB",26-07-2024 10:00:00,29.536400,75.015800,SO2,6,17,12
India,Haryana,Yamuna Nagar,"Gobind Pura, Yamuna Nagar - HSPCB",26-07-2024 10:00:00,30.1480566,77.2893471,PM2.5,28,161,71
India,Haryana,Yamuna Nagar,"Gobind Pura, Yamuna Nagar - HSPCB",26-07-2024 10:00:00,30.1480566,77.2893471,OZONE,16,60,30
India,Himachal Pradesh,Baddi,"HIMUDA Complex Phase-1, Baddi - HPPCB",26-07-2024 10:00:00,30.943887,76.801991,NO2,9,45,22
India,Jammu_and_Kashmir,Srinagar,"Rajbagh, Srinagar - JKSPCB",26-07-2024 10:00:00,34.066206,74.819820,NH3,NA,NA,NA
India,Jharkhand,Jorapokhar,"Tata Stadium, Jorapokhar - JSPCB",26-07-2024 10:00:00,23.707909,86.414670,CO,8,40,40
India,Karnataka,Belgaum,"Ramteerth Nagar, Belgaum - KSPCB",26-07-2024 10:00:00,15.888653,74.541751,CO,55,68,66
India,Karnataka,Bengaluru,"BTM Layout, Bengaluru - CPCB",26-07-2024 10:00:00,12.9135218,77.5950804,PM10,20,33,26
India,Karnataka,Bengaluru,"BTM Layout, Bengaluru - CPCB",26-07-2024 10:00:00,12.9135218,77.5950804,NH3,8,10,9
India,Karnataka,Bengaluru,"BTM Layout, Bengaluru - CPCB",26-07-2024 10:00:00,12.9135218,77.5950804,SO2,8,15,9
India,Karnataka,Bengaluru,"BTM Layout, Bengaluru - CPCB",26-07-2024 10:00:00,12.9135218,77.5950804,CO,25,25,25
India,Karnataka,Bengaluru,"BTM Layout, Bengaluru - CPCB",26-07-2024 10:00:00,12.9135218,77.5950804,OZONE,19,25,22
India,Karnataka,Bengaluru,"City Railway Station, Bengaluru - KSPCB",26-07-2024 10:00:00,12.9756843,77.5660749,NO2,24,26,25
India,Karnataka,Bengaluru,"Hebbal, Bengaluru - KSPCB",26-07-2024 10:00:00,13.029152,77.585901,PM2.5,6,30,20
India,Karnataka,Bengaluru,"Hebbal, Bengaluru - KSPCB",26-07-2024 10:00:00,13.029152,77.585901,NO2,5,6,5
India,Karnataka,Bengaluru,"Hebbal, Bengaluru - KSPCB",26-07-2024 10:00:00,13.029152,77.585901,SO2,10,17,13
India,Karnataka,Bengaluru,"Hebbal, Bengaluru - KSPCB",26-07-2024 10:00:00,13.029152,77.585901,OZONE,2,8,5
India,Karnataka,Bengaluru,"Jigani, Bengaluru - KSPCB",26-07-2024 10:00:00,12.7816279,77.6299145,PM10,NA,NA,NA
India,Karnataka,Bengaluru,"Jigani, Bengaluru - KSPCB",26-07-2024 10:00:00,12.7816279,77.6299145,NO2,NA,NA,NA
India,Karnataka,Bengaluru,"Jigani, Bengaluru - KSPCB",26-07-2024 10:00:00,12.7816279,77.6299145,SO2,NA,NA,NA
India,Karnataka,Bengaluru,"Kasturi Nagar, Bengaluru - KSPCB",26-07-2024 10:00:00,13.003872,77.664217,PM2.5,31,56,43
India,Karnataka,Bengaluru,"Peenya, Bengaluru - CPCB",26-07-2024 10:00:00,13.0270199,77.494094,SO2,10,14,13
India,Karnataka,Bengaluru,"Peenya, Bengaluru - CPCB",26-07-2024 10:00:00,13.0270199,77.494094,OZONE,27,35,33
India,Karnataka,Bengaluru,"RVCE-Mailasandra, Bengaluru - KSPCB",26-07-2024 10:00:00,12.921418,77.502466,PM2.5,28,62,45
India,Karnataka,Bengaluru,"RVCE-Mailasandra, Bengaluru - KSPCB",26-07-2024 10:00:00,12.921418,77.502466,PM10,42,62,53
India,Karnataka,Bidar,"Naubad, Bidar - KSPCB",26-07-2024 10:00:00,17.930306,77.482194,SO2,22,112,31
India,Karnataka,Chikkaballapur,"Chikkaballapur Rural, Chikkaballapur - KSPCB",26-07-2024 10:00:00,13.428828,77.731418,NO2,NA,NA,NA
India,Karnataka,Chikkamagaluru,"Kalyana Nagara, Chikkamagaluru - KSPCB",26-07-2024 10:00:00,13.328028,75.797056,NH3,2,3,2
India,Karnataka,Davanagere,"Devaraj Urs Badavane, Davanagere - KSPCB",26-07-2024 10:00:00,14.475800,75.905200,NO2,7,13,9
India,Karnataka,Dharwad,"Kalabhavan, Dharwad - KSPCB",26-07-2024 10:00:00,15.459706,75.008381,PM2.5,NA,NA,NA
India,Karnataka,Gadag,"Panchal Nagar, Gadag - KSPCB",26-07-2024 10:00:00,15.411456,75.638133,NO2,7,24,14
India,Karnataka,Gadag,"Panchal Nagar, Gadag - KSPCB",26-07-2024 10:00:00,15.411456,75.638133,OZONE,12,16,13
India,Karnataka,Hassan,"B.Katihalli, Hassan - KSPCB",26-07-2024 10:00:00,13.008556,76.125258,NH3,1,4,2
India,Karnataka,Hassan,"B.Katihalli, Hassan - KSPCB",26-07-2024 10:00:00,13.008556,76.125258,SO2,4,23,14
India,Karnataka,Haveri,"Ashwini Nagar, Haveri - KSPCB",26-07-2024 10:00:00,14.791800,75.389600,NH3,16,17,16
India,Karnataka,Hubballi,"Lingaraj Nagar, Hubballi - KSPCB",26-07-2024 10:00:00,15.3714823,75.1160168,PM10,33,75,47
India,Karnataka,Hubballi,"Lingaraj Nagar, Hubballi - KSPCB",26-07-2024 10:00:00,15.3714823,75.1160168,OZONE,13,18,15
India,Karnataka,Kalaburagi,"Lal Bahadur Shastri Nagar, Kalaburagi - KSPCB",26-07-2024 10:00:00,17.321993,76.822628,NO2,10,12,11
India,Karnataka,Karwar,"KHB Colony, Karwar - KSPCB",26-07-2024 10:00:00,14.816666,74.141003,PM2.5,NA,NA,NA
India,Karnataka,Karwar,"KHB Colony, Karwar - KSPCB",26-07-2024 10:00:00,14.816666,74.141003,PM10,NA,NA,NA
India,Karnataka,Karwar,"KHB Colony, Karwar - KSPCB",26-07-2024 10:00:00,14.816666,74.141003,NO2,NA,NA,NA
India,Karnataka,Kolar,"Tamaka Ind. Area, Kolar - KSPCB",26-07-2024 10:00:00,13.1276288,78.1570122,NH3,8,13,10
India,Karnataka,Kolar,"Tamaka Ind. Area, Kolar - KSPCB",26-07-2024 10:00:00,13.1276288,78.1570122,OZONE,19,27,20
India,Karnataka,Koppal,"Diwator Nagar, Koppal - KSPCB",26-07-2024 10:00:00,15.347630,76.181767,PM10,3,9,6
India,Karnataka,Madikeri,"Stuart Hill, Madikeri - KSPCB",26-07-2024 10:00:00,12.415911,75.735050,CO,4,22,11
India,Karnataka,Madikeri,"Stuart Hill, Madikeri - KSPCB",26-07-2024 10:00:00,12.415911,75.735050,OZONE,14,21,16
India,Karnataka,Mysuru,"Hebbal 1st Stage, Mysuru - KSPCB",26-07-2024 10:00:00,12.21041,76.37376,PM2.5,11,39,20
India,Karnataka,Mysuru,"Hebbal 1st Stage, Mysuru - KSPCB",26-07-2024 10:00:00,12.21041,76.37376,SO2,2,2,1
India,Karnataka,Raichur,"Haji Colony, Raichur - KSPCB",26-07-2024 10:00:00,16.208139,77.348417,SO2,60,65,62
India,Karnataka,Shivamogga,"Vinoba Nagara, Shivamogga - KSPCB",26-07-2024 10:00:00,13.940000,75.555917,PM10,30,46,40
India,Karnataka,Shivamogga,"Vinoba Nagara, Shivamogga - KSPCB",26-07-2024 10:00:00,13.940000,75.555917,NH3,1,8,2
India,Karnataka,Shivamogga,"Vinoba Nagara, Shivamogga - KSPCB",26-07-2024 10:00:00,13.940000,75.555917,OZONE,15,41,20
India,Karnataka,Tumakuru,"Thimmalapura, Tumakuru - KSPCB",26-07-2024 10:00:00,13.377516,77.099072,OZONE,6,11,8
India,Karnataka,Vijayapura,"Ibrahimpur, Vijayapura - KSPCB",26-07-2024 10:00:00,16.802639,75.722694,PM2.5,22,26,25
India,Karnataka,Yadgir,"Collector Office, Yadgir - KSPCB",26-07-2024 10:00:00,16.7602,77.1428,PM2.5,NA,NA,NA
India,Karnataka,Yadgir,"Collector Office, Yadgir - KSPCB",26-07-2024 10:00:00,16.7602,77.1428,PM10,NA,NA,NA
India,Karnataka,Yadgir,"Collector Office, Yadgir - KSPCB",26-07-2024 10:00:00,16.7602,77.1428,NO2,NA,NA,NA
India,Kerala,Eloor,"Udyogamandal, Eloor - Kerala PCB",26-07-2024 10:00:00,10.073232,76.302765,NO2,5,6,5
India,Kerala,Eloor,"Udyogamandal, Eloor - Kerala PCB",26-07-2024 10:00:00,10.073232,76.302765,SO2,1,2,1
India,Kerala,Kollam,"Polayathode, Kollam - Kerala PCB",26-07-2024 10:00:00,8.8787,76.6073,NO2,8,9,8
India,Kerala,Thiruvananthapuram,"Plammoodu, Thiruvananthapuram - Kerala PCB",26-07-2024 10:00:00,8.5149093,76.9435879,PM10,16,32,19
India,Kerala,Thiruvananthapuram,"Plammoodu, Thiruvananthapuram - Kerala PCB",26-07-2024 10:00:00,8.5149093,76.9435879,NO2,14,82,49
India,Kerala,Thiruvananthapuram,"Plammoodu, Thiruvananthapuram - Kerala PCB",26-07-2024 10:00:00,8.5149093,76.9435879,CO,6,46,8
India,Madhya Pradesh,Bhopal,"Idgah Hills, Bhopal - MPPCB",26-07-2024 10:00:00,23.264759,77.381568,NO2,7,36,17
India,Madhya Pradesh,Bhopal,"T T Nagar, Bhopal - MPPCB",26-07-2024 10:00:00,23.233584,77.400574,NH3,4,5,4
India,Madhya Pradesh,Damoh,"Shrivastav Colony, Damoh - MPPCB",26-07-2024 10:00:00,23.81748678,79.446246,CO,12,13,13
India,Madhya Pradesh,Dewas,"Bhopal Chauraha, Dewas - MPPCB",26-07-2024 10:00:00,22.9682591,76.064118,PM10,22,56,37
India,Madhya Pradesh,Gwalior,"City Center, Gwalior - MPPCB",26-07-2024 10:00:00,26.203442,78.193251,SO2,3,37,20
India,Madhya Pradesh,Gwalior,"Deen Dayal Nagar, Gwalior - MPPCB",26-07-2024 10:00:00,26.259242,78.216432,SO2,10,17,14
India,Madhya Pradesh,Gwalior,"Phool Bagh, Gwalior - Mondelez Ind. Food",26-07-2024 10:00:00,26.210536,78.171,CO,56,64,56
India,Madhya Pradesh,Indore,"Chhoti Gwaltoli, Indore - MPPCB",26-07-2024 10:00:00,22.4310,75.5213,NO2,29,45,36
India,Madhya Pradesh,Indore,"Chhoti Gwaltoli, Indore - MPPCB",26-07-2024 10:00:00,22.4310,75.5213,OZONE,17,27,23
India,Madhya Pradesh,Indore,"Maguda Nagar, Indore - IMC",26-07-2024 10:00:00,22.7524,75.8872,PM10,NA,NA,NA
India,Madhya Pradesh,Indore,"Regional Park, Indore - IMC",26-07-2024 10:00:00,22.6780,75.8559,PM2.5,14,32,23
India,Madhya Pradesh,Indore,"Regional Park, Indore - IMC",26-07-2024 10:00:00,22.6780,75.8559,OZONE,4,8,7
India,Madhya Pradesh,Indore,"Residency Area, Indore - IMC",26-07-2024 10:00:00,22.7084,75.8815,NO2,19,26,23
India,Madhya Pradesh,Jabalpur,"Gupteshwar, Jabalpur - JMC",26-07-2024 10:00:00,23.142888,79.916147,CO,8,78,12
India,Madhya Pradesh,Jabalpur,"Marhatal, Jabalpur - MPPCB",26-07-2024 10:00:00,23.168606,79.932247,PM2.5,7,52,23
India,Madhya Pradesh,Jabalpur,"Marhatal, Jabalpur - MPPCB",26-07-2024 10:00:00,23.168606,79.932247,NH3,2,7,4
India,Madhya Pradesh,Jabalpur,"Marhatal, Jabalpur - MPPCB",26-07-2024 10:00:00,23.168606,79.932247,OZONE,10,24,17
India,Madhya Pradesh,Jabalpur,"Suhagi, Jabalpur - JMC",26-07-2024 10:00:00,23.218135,79.957770,OZONE,1,18,14
India,Madhya Pradesh,Katni,"Gole Bazar, Katni - MPPCB",26-07-2024 10:00:00,23.50016,80.23284,SO2,11,14,12
India,Madhya Pradesh,Katni,"Gole Bazar, Katni - MPPCB",26-07-2024 10:00:00,23.50016,80.23284,OZONE,3,19,13
India,Madhya Pradesh,Mandideep,"Sector-D Industrial Area, Mandideep - MPPCB",26-07-2024 10:00:00,23.108440,77.511428,PM2.5,12,35,22
India,Madhya Pradesh,Mandideep,"Sector-D Industrial Area, Mandideep - MPPCB",26-07-2024 10:00:00,23.108440,77.511428,CO,20,48,33
India,Madhya Pradesh,Pithampur,"Sector-2 Industrial Area, Pithampur - MPPCB",26-07-2024 10:00:00,22.624758,75.675238,SO2,15,27,21
India,Madhya Pradesh,Pithampur,"Sector-2 Industrial Area, Pithampur - MPPCB",26-07-2024 10:00:00,22.624758,75.675238,CO,46,56,51
India,Madhya Pradesh,Pithampur,"Sector-2 Industrial Area, Pithampur - MPPCB",26-07-2024 10:00:00,22.624758,75.675238,OZONE,25,44,32
India,Madhya Pradesh,Ratlam,"Shasthri Nagar, Ratlam - IPCA Lab",26-07-2024 10:00:00,23.331731,75.045981,PM10,11,60,28
India,Madhya Pradesh,Sagar,"Civil Lines, Sagar - MPPCB",26-07-2024 10:00:00,23.838586,78.759431,NH3,5,8,6
India,Madhya Pradesh,Sagar,"Civil Lines, Sagar - MPPCB",26-07-2024 10:00:00,23.838586,78.759431,CO,23,52,38
India,Madhya Pradesh,Sagar,"Deen Dayal Nagar, Sagar - MPPCB",26-07-2024 10:00:00,23.8640158,78.80289321,PM2.5,9,40,18
India,Madhya Pradesh,Sagar,"Deen Dayal Nagar, Sagar - MPPCB",26-07-2024 10:00:00,23.8640158,78.80289321,CO,32,38,35
India,Madhya Pradesh,Singrauli,"Suryakiran Bhawan NCL, Singrauli - MPPCB",26-07-2024 10:00:00,24.108970,82.645580,NH3,1,2,2
India,Madhya Pradesh,Singrauli,"Suryakiran Bhawan NCL, Singrauli - MPPCB",26-07-2024 10:00:00,24.108970,82.645580,SO2,75,103,93
India,Madhya Pradesh,Singrauli,"Suryakiran Bhawan NCL, Singrauli - MPPCB",26-07-2024 10:00:00,24.108970,82.645580,CO,30,91,34
India,Madhya Pradesh,Ujjain,"Mahakaleshwar Temple, Ujjain - MPPCB",26-07-2024 10:00:00,23.182719 ,75.768218 ,PM10,30,74,49
India,Maharashtra,Ahmednagar,"Tarakpur, Ahmednagar - MPCB",26-07-2024 10:00:00,19.10122,74.73339,PM10,8,94,30
India,Maharashtra,Akola,"Ramdaspeth, Akola - MPCB",26-07-2024 10:00:00,20.719516,77.000253,NH3,3,11,6
India,Maharashtra,Amravati,"Shivneri Colony, Amravati - MPCB",26-07-2024 10:00:00,20.9402359,77.7895248,NO2,3,13,8
India,Maharashtra,Amravati,"Shivneri Colony, Amravati - MPCB",26-07-2024 10:00:00,20.9402359,77.7895248,CO,4,17,6
India,Maharashtra,Amravati,"Shivneri Colony, Amravati - MPCB",26-07-2024 10:00:00,20.9402359,77.7895248,OZONE,11,20,18
India,Maharashtra,Amravati,"Shri Shivaji Science College, Amaravati - MPCB",26-07-2024 10:00:00,20.939198,77.765701,NO2,3,8,5
India,Maharashtra,Aurangabad,"MIDC Chilkalthana, Aurangabad - MPCB",26-07-2024 10:00:00,19.875620,75.387310,PM10,22,36,29
India,Maharashtra,Aurangabad,"More Chowk Waluj, Aurangabad - MPCB",26-07-2024 10:00:00,19.8389439,75.244448,NH3,2,3,2
India,Maharashtra,Badlapur,"Katrap, Badlapur - MPCB",26-07-2024 10:00:00,19.16485,73.23409,SO2,6,11,9
India,Maharashtra,Badlapur,"Katrap, Badlapur - MPCB",26-07-2024 10:00:00,19.16485,73.23409,CO,10,43,12
India,Maharashtra,Belapur,"CBD Belapur, Belapur - MPCB",26-07-2024 10:00:00,19.0243902,73.0406721,PM2.5,21,42,29
India,Maharashtra,Belapur,"CBD Belapur, Belapur - MPCB",26-07-2024 10:00:00,19.0243902,73.0406721,OZONE,11,25,14
India,Maharashtra,Bhiwandi,"Gokul Nagar, Bhiwandi - MPCB",26-07-2024 10:00:00,19.309073,73.057223,NH3,1,4,3
India,Maharashtra,Boisar,"Khaira, Boisar - MPCB",26-07-2024 10:00:00,19.786089,72.757971,PM10,53,102,66
India,Maharashtra,Chandrapur,"Chauhan Colony, Chandrapur - MPCB",26-07-2024 10:00:00,19.962900,79.298714,PM2.5,2,25,13
India,Maharashtra,Chandrapur,"MIDC Khutala, Chandrapur - MPCB",26-07-2024 10:00:00,19.9775302,79.2337086,SO2,NA,NA,NA
India,Maharashtra,Chandrapur,"MIDC Khutala, Chandrapur - MPCB",26-07-2024 10:00:00,19.9775302,79.2337086,CO,12,33,18
India,Maharashtra,Dhule,"Deopur, Dhule - MPCB",26-07-2024 10:00:00,20.918946,74.776388,PM10,35,73,60
India,Maharashtra,Jalna,"Old MIDC, Jalna - MPCB",26-07-2024 10:00:00,19.854616,75.905894,NH3,1,2,1
India,Maharashtra,Jalna,"Old MIDC, Jalna - MPCB",26-07-2024 10:00:00,19.854616,75.905894,SO2,6,7,6
India,Maharashtra,Kolhapur,"Shivaji University, Kolhapur - MPCB",26-07-2024 10:00:00,16.6870449,74.2505872,PM10,14,48,31
India,Maharashtra,Kolhapur,"Shivaji University, Kolhapur - MPCB",26-07-2024 10:00:00,16.6870449,74.2505872,OZONE,16,40,28
India,Maharashtra,Kolhapur,"Sinchan Bhavan, Kolhapur - MPCB",26-07-2024 10:00:00,16.7143745,74.2426398,PM2.5,NA,NA,NA
India,Maharashtra,Kolhapur,"Sinchan Bhavan, Kolhapur - MPCB",26-07-2024 10:00:00,16.7143745,74.2426398,NH3,7,8,7
India,Maharashtra,Latur,"Sawe Wadi, Latur - MPCB",26-07-2024 10:00:00,18.39963,76.57452,NO2,NA,NA,NA
India,Maharashtra,Malegaon,"Mahesh Nagar, Malegaon - MPCB",26-07-2024 10:00:00,20.555712,74.529236,PM10,29,88,54
India,Maharashtra,Malegaon,"Mahesh Nagar, Malegaon - MPCB",26-07-2024 10:00:00,20.555712,74.529236,NO2,6,37,16
India,Maharashtra,Malegaon,"Mahesh Nagar, Malegaon - MPCB",26-07-2024 10:00:00,20.555712,74.529236,NH3,2,5,4
India,Maharashtra,Mira-Bhayandar,"Bhayandar West, Mira-Bhayandar - MPCB",26-07-2024 10:00:00,19.296481,72.840923,NO2,2,4,3
India,Maharashtra,Mira-Bhayandar,"Bhayandar West, Mira-Bhayandar - MPCB",26-07-2024 10:00:00,19.296481,72.840923,OZONE,14,48,15
India,Maharashtra,Mumbai,"Bandra Kurla Complex, Mumbai - MPCB",26-07-2024 10:00:00,19.065931,72.862131,PM2.5,14,32,21
India,Maharashtra,Mumbai,"Bandra Kurla Complex, Mumbai - MPCB",26-07-2024 10:00:00,19.065931,72.862131,NO2,4,16,9
India,Maharashtra,Mumbai,"Bandra Kurla Complex, Mumbai - MPCB",26-07-2024 10:00:00,19.065931,72.862131,CO,26,48,32
India,Maharashtra,Mumbai,"Bandra Kurla Complex, Mumbai - MPCB",26-07-2024 10:00:00,19.065931,72.862131,OZONE,5,38,12
India,Maharashtra,Mumbai,"Chembur, Mumbai - MPCB",26-07-2024 10:00:00,19.0364585,72.8954371,PM2.5,9,25,18
India,Maharashtra,Mumbai,"Chembur, Mumbai - MPCB",26-07-2024 10:00:00,19.0364585,72.8954371,SO2,1,2,1
India,Maharashtra,Mumbai,"Chembur, Mumbai - MPCB",26-07-2024 10:00:00,19.0364585,72.8954371,CO,20,28,22
India,Maharashtra,Mumbai,"Chhatrapati Shivaji Intl. Airport (T2), Mumbai - MPCB",26-07-2024 10:00:00,19.10078,72.87462,NO2,14,30,18
India,Maharashtra,Mumbai,"Chhatrapati Shivaji Intl. Airport (T2), Mumbai - MPCB",26-07-2024 10:00:00,19.10078,72.87462,NH3,1,1,1
India,Maharashtra,Mumbai,"Colaba, Mumbai - MPCB",26-07-2024 10:00:00,18.910000,72.820000,PM2.5,6,13,8
India,Maharashtra,Mumbai,"Colaba, Mumbai - MPCB",26-07-2024 10:00:00,18.910000,72.820000,PM10,14,30,20
India,Maharashtra,Mumbai,"Colaba, Mumbai - MPCB",26-07-2024 10:00:00,18.910000,72.820000,NH3,1,1,1
India,Maharashtra,Mumbai,"Ghatkopar, Mumbai - BMC",26-07-2024 10:00:00,19.083694,72.920967,NH3,2,3,3
India,Maharashtra,Mumbai,"Ghatkopar, Mumbai - BMC",26-07-2024 10:00:00,19.083694,72.920967,SO2,1,2,1
India,Maharashtra,Mumbai,"Kandivali East, Mumbai - MPCB",26-07-2024 10:00:00,19.205800,72.868200,PM2.5,4,15,9
India,Maharashtra,Mumbai,"Kandivali East, Mumbai - MPCB",26-07-2024 10:00:00,19.205800,72.868200,PM10,12,70,26
India,Maharashtra,Mumbai,"Kandivali East, Mumbai - MPCB",26-07-2024 10:00:00,19.205800,72.868200,NO2,9,42,23
India,Maharashtra,Mumbai,"Kandivali East, Mumbai - MPCB",26-07-2024 10:00:00,19.205800,72.868200,CO,28,30,28
India,Maharashtra,Mumbai,"Kandivali West, Mumbai - BMC",26-07-2024 10:00:00,19.215859,72.831718,NH3,3,3,3
India,Maharashtra,Mumbai,"Kherwadi_Bandra East, Mumbai - MPCB",26-07-2024 10:00:00,19.0632143,72.8456324,NH3,6,8,8
India,Maharashtra,Mumbai,"Kherwadi_Bandra East, Mumbai - MPCB",26-07-2024 10:00:00,19.0632143,72.8456324,CO,8,14,10
India,Maharashtra,Mumbai,"Kurla, Mumbai - MPCB",26-07-2024 10:00:00,19.0863,72.8888,NH3,2,2,2
India,Maharashtra,Mumbai,"Malad West, Mumbai - IITM",26-07-2024 10:00:00,19.19709,72.82204,OZONE,6,15,8
India,Maharashtra,Mumbai,"Mindspace-Malad West, Mumbai - MPCB",26-07-2024 10:00:00,19.1878657,72.8304069,NH3,6,6,6
India,Maharashtra,Mumbai,"Mindspace-Malad West, Mumbai - MPCB",26-07-2024 10:00:00,19.1878657,72.8304069,SO2,2,5,3
India,Maharashtra,Mumbai,"Mulund West, Mumbai - MPCB",26-07-2024 10:00:00,19.1750,72.9419,PM2.5,5,20,12
India,Maharashtra,Mumbai,"Navy Nagar-Colaba, Mumbai - IITM",26-07-2024 10:00:00,18.897756,72.813320,NH3,2,2,2
India,Maharashtra,Mumbai,"Powai, Mumbai - MPCB",26-07-2024 10:00:00,19.137500,72.915056,PM10,14,41,31
India,Maharashtra,Mumbai,"Powai, Mumbai - MPCB",26-07-2024 10:00:00,19.137500,72.915056,OZONE,6,8,6
India,Maharashtra,Mumbai,"Sewri, Mumbai - BMC",26-07-2024 10:00:00,19.000084,72.856730,PM2.5,5,16,10
India,Maharashtra,Mumbai,"Sewri, Mumbai - BMC",26-07-2024 10:00:00,19.000084,72.856730,PM10,21,41,33
India,Maharashtra,Mumbai,"Shivaji Nagar, Mumbai - BMC",26-07-2024 10:00:00,19.060498,72.923356,NO2,1,49,17
India,Maharashtra,Mumbai,"Shivaji Nagar, Mumbai - BMC",26-07-2024 10:00:00,19.060498,72.923356,NH3,3,7,4
India,Maharashtra,Mumbai,"Sion, Mumbai - MPCB",26-07-2024 10:00:00,19.047000,72.874600,PM2.5,NA,NA,NA
India,Maharashtra,Mumbai,"Vile Parle West, Mumbai - MPCB",26-07-2024 10:00:00,19.10861,72.83622,PM10,26,58,41
India,Maharashtra,Mumbai,"Vile Parle West, Mumbai - MPCB",26-07-2024 10:00:00,19.10861,72.83622,OZONE,14,17,16
India,Maharashtra,Mumbai,"Worli, Mumbai - MPCB",26-07-2024 10:00:00,18.9936162,72.8128113,PM10,NA,NA,NA
India,Maharashtra,Mumbai,"Worli, Mumbai - MPCB",26-07-2024 10:00:00,18.9936162,72.8128113,NH3,NA,NA,NA
India,Maharashtra,Mumbai,"Worli, Mumbai - MPCB",26-07-2024 10:00:00,18.9936162,72.8128113,SO2,NA,NA,NA
India,Maharashtra,Nagpur,"Ambazari, Nagpur - MPCB",26-07-2024 10:00:00,21.121801,79.04952,NO2,10,32,18
India,Maharashtra,Nagpur,"Ambazari, Nagpur - MPCB",26-07-2024 10:00:00,21.121801,79.04952,NH3,1,4,2
India,Maharashtra,Nagpur,"Mahal, Nagpur - MPCB",26-07-2024 10:00:00,21.14472,79.107595,PM2.5,9,27,16
India,Maharashtra,Nagpur,"Opp GPO Civil Lines, Nagpur - MPCB",26-07-2024 10:00:00,21.152875,79.0517531,NH3,3,5,4
India,Maharashtra,Nagpur,"Ram Nagar, Nagpur - MPCB",26-07-2024 10:00:00,21.143383,79.048912,PM10,14,40,30
India,Maharashtra,Nanded,"Sneh Nagar, Nanded - MPCB",26-07-2024 10:00:00,19.173852,77.296291,OZONE,NA,NA,NA
India,Maharashtra,Nashik,"Gangapur Road, Nashik - MPCB",26-07-2024 10:00:00,20.0073285,73.7762427,CO,15,88,30
India,Maharashtra,Nashik,"Hirawadi, Nashik - MPCB",26-07-2024 10:00:00,20.021503,73.813844,NO2,1,6,3
India,Maharashtra,Nashik,"Hirawadi, Nashik - MPCB",26-07-2024 10:00:00,20.021503,73.813844,NH3,1,1,1
India,Maharashtra,Nashik,"MIDC Ambad, Nashik - MPCB",26-07-2024 10:00:00,19.950220,73.731480,PM10,18,43,26
India,Maharashtra,Nashik,"MIDC Ambad, Nashik - MPCB",26-07-2024 10:00:00,19.950220,73.731480,CO,5,20,15
India,Maharashtra,Nashik,"Pandav Nagari, Nashik - MPCB",26-07-2024 10:00:00,19.9591346,73.7788008,CO,12,19,14
India,Maharashtra,Navi Mumbai,"Mahape, Navi Mumbai - MPCB",26-07-2024 10:00:00,19.1135051,73.008978,NH3,2,3,2
India,Maharashtra,Navi Mumbai,"Nerul, Navi Mumbai - MPCB",26-07-2024 10:00:00,19.008751,73.016620,NO2,16,23,19
India,Maharashtra,Navi Mumbai,"Sanpada, Navi Mumbai - MPCB",26-07-2024 10:00:00,19.0575752,73.0151367,PM10,23,61,41
India,Maharashtra,Navi Mumbai,"Sanpada, Navi Mumbai - MPCB",26-07-2024 10:00:00,19.0575752,73.0151367,NH3,4,16,6
India,Maharashtra,Navi Mumbai,"Sanpada, Navi Mumbai - MPCB",26-07-2024 10:00:00,19.0575752,73.0151367,SO2,1,6,2
India,Maharashtra,Navi Mumbai,"Sector-2E Kalamboli, Navi Mumbai - MPCB",26-07-2024 10:00:00,19.02579,73.10297,SO2,1,3,2
India,Maharashtra,Pimpri-Chinchwad,"Park Street Wakad, Pimpri Chinchwad - MPCB",26-07-2024 10:00:00,18.59051,73.77946,CO,5,40,12
India,Maharashtra,Pune,"Karve Road, Pune - MPCB",26-07-2024 10:00:00,18.5011743,73.8165527,NO2,1,109,7
India,Maharashtra,Pune,"Katraj Dairy, Pune - MPCB",26-07-2024 10:00:00,18.454450,73.854155,PM10,28,28,28
India,Maharashtra,Pune,"Katraj Dairy, Pune - MPCB",26-07-2024 10:00:00,18.454450,73.854155,CO,49,50,50
India,Maharashtra,Pune,"Panchawati_Pashan, Pune - IITM",26-07-2024 10:00:00,18.536457,73.805454,CO,59,77,69
India,Maharashtra,Pune,"Savitribai Phule Pune University, Pune - MPCB",26-07-2024 10:00:00,18.547056,73.826908,PM2.5,5,18,8
India,Maharashtra,Pune,"Savitribai Phule Pune University, Pune - MPCB",26-07-2024 10:00:00,18.547056,73.826908,CO,12,34,16
India,Maharashtra,Pune,"Transport Nagar-Nigdi, Pune - IITM",26-07-2024 10:00:00,18.664282,73.763966,OZONE,31,49,31
India,Maharashtra,Sangli,"Vijay Nagar, Sangli - MPCB",26-07-2024 10:00:00, 16.5038,74.3623,PM10,5,18,11
India,Maharashtra,Sangli,"Vijay Nagar, Sangli - MPCB",26-07-2024 10:00:00, 16.5038,74.3623,CO,8,14,9
India,Maharashtra,Solapur,"Ratandeep Housing Society, Solapur - MPCB",26-07-2024 10:00:00,17.65439,75.90649,PM10,12,34,20
India,Maharashtra,Thane,"Kasarvadavali, Thane - MPCB",26-07-2024 10:00:00,19.26777,72.97182,NH3,1,2,2
India,Maharashtra,Thane,"Pimpleshwar Mandir, Thane - MPCB",26-07-2024 10:00:00,19.192056,72.9585188,CO,2,86,52
India,Maharashtra,Thane,"Pimpleshwar Mandir, Thane - MPCB",26-07-2024 10:00:00,19.192056,72.9585188,OZONE,NA,NA,NA
India,Maharashtra,Thane,"Upvan Fort, Thane - MPCB",26-07-2024 10:00:00,19.222279,72.957979,PM2.5,8,28,15
India,Maharashtra,Ulhasnagar,"Sidhi Vinayak Nagar, Ulhasnagar - MPCB",26-07-2024 10:00:00,19.235581,73.159121,PM10,46,63,56
India,Maharashtra,Virar,"Bolinj, Virar - MPCB",26-07-2024 10:00:00,19.4458210,72.7988231,PM10,48,62,56
India,Maharashtra,Virar,"Bolinj, Virar - MPCB",26-07-2024 10:00:00,19.4458210,72.7988231,SO2,1,4,3
India,Maharashtra,Virar,"Bolinj, Virar - MPCB",26-07-2024 10:00:00,19.4458210,72.7988231,OZONE,10,29,17
India,Meghalaya,Shillong,"Lumpyngngad, Shillong - Meghalaya PCB",26-07-2024 10:00:00,25.5586,91.8985,CO,4,14,5
India,Mizoram,Aizawl,"Sikulpuikawn, Aizawl - Mizoram PCB",26-07-2024 10:00:00,23.7176342,92.7192841,PM10,7,52,24
India,Odisha,Angul,"Hakimapada, Angul - OSPCB",26-07-2024 10:00:00,20.832874,85.104082,CO,15,42,16
India,Odisha,Barbil,"Forest Office, Barbil - OSPCB",26-07-2024 10:00:00,22.1166054,85.3945546,PM2.5,12,50,28
India,Odisha,Barbil,"Forest Office, Barbil - OSPCB",26-07-2024 10:00:00,22.1166054,85.3945546,OZONE,6,36,12
India,Odisha,Baripada,"Meher Colony, Baripada - OSPCB",26-07-2024 10:00:00,21.941841,86.728318,NO2,1,26,14
India,Odisha,Baripada,"Meher Colony, Baripada - OSPCB",26-07-2024 10:00:00,21.941841,86.728318,NH3,1,3,2
India,Odisha,Bhubaneswar,"Lingraj Mandir, Bhubaneswar - OSPCB",26-07-2024 10:00:00,20.240790,85.836784,PM2.5,2,72,23
India,Odisha,Bhubaneswar,"Lingraj Mandir, Bhubaneswar - OSPCB",26-07-2024 10:00:00,20.240790,85.836784,NO2,3,8,6
India,Odisha,Brajrajnagar,"GM Office, Brajrajnagar - OSPCB",26-07-2024 10:00:00,21.8004996,83.8396977,PM2.5,3,22,12
India,Odisha,Brajrajnagar,"GM Office, Brajrajnagar - OSPCB",26-07-2024 10:00:00,21.8004996,83.8396977,PM10,4,31,16
India,Odisha,Brajrajnagar,"GM Office, Brajrajnagar - OSPCB",26-07-2024 10:00:00,21.8004996,83.8396977,NH3,20,21,20
India,Odisha,Brajrajnagar,"GM Office, Brajrajnagar - OSPCB",26-07-2024 10:00:00,21.8004996,83.8396977,SO2,23,23,23
India,Odisha,Brajrajnagar,"GM Office, Brajrajnagar - OSPCB",26-07-2024 10:00:00,21.8004996,83.8396977,OZONE,20,28,21
India,Odisha,Byasanagar,"Ferro Chrome Colony, Byasanagar - OSPCB",26-07-2024 10:00:00,20.94185,86.11510,CO,6,24,17
India,Odisha,Cuttack,"CDA Area, Cuttack - OSPCB",26-07-2024 10:00:00,20.48891     ,85.84768     ,PM10,3,30,11
India,Odisha,Cuttack,"CDA Area, Cuttack - OSPCB",26-07-2024 10:00:00,20.48891     ,85.84768     ,NO2,6,17,9
India,Odisha,Cuttack,"CDA Area, Cuttack - OSPCB",26-07-2024 10:00:00,20.48891     ,85.84768     ,SO2,1,4,2
India,Odisha,Cuttack,"CDA Area, Cuttack - OSPCB",26-07-2024 10:00:00,20.48891     ,85.84768     ,CO,18,49,24
India,Odisha,Keonjhar,"Jagamohanpur, Keonjhar - OSPCB",26-07-2024 10:00:00,21.643900,85.599355,NH3,3,4,3
India,Odisha,Nayagarh,"Dabuna, Nayagarh - OSPCB",26-07-2024 10:00:00,21.847279,85.416905,NH3,NA,NA,NA
India,Odisha,Rairangpur,"Divisional Forest Office, Rairangpur - OSPCB",26-07-2024 10:00:00,22.265816,86.174829,PM2.5,19,49,33
India,Odisha,Rairangpur,"Divisional Forest Office, Rairangpur - OSPCB",26-07-2024 10:00:00,22.265816,86.174829,PM10,32,64,46
India,Odisha,Rairangpur,"Divisional Forest Office, Rairangpur - OSPCB",26-07-2024 10:00:00,22.265816,86.174829,OZONE,20,57,42
India,Odisha,Rourkela,"Raghunathpali, Rourkela - OSPCB",26-07-2024 10:00:00,22.220833,84.809444,PM2.5,22,74,46
India,Odisha,Rourkela,"Raghunathpali, Rourkela - OSPCB",26-07-2024 10:00:00,22.220833,84.809444,PM10,41,86,59
India,Odisha,Rourkela,"Sector-2, Rourkela - OSPCB",26-07-2024 10:00:00,22.24500000,84.88111111,CO,8,20,15
India,Odisha,Talcher,"Talcher Coalfields,Talcher - OSPCB",26-07-2024 10:00:00,20.9360711,85.1707021,PM10,2,44,23
India,Odisha,Talcher,"Talcher Coalfields,Talcher - OSPCB",26-07-2024 10:00:00,20.9360711,85.1707021,NH3,4,4,4
India,Odisha,Tensa,"Barsua Iron Ore Mines, Tensa - OSPCB",26-07-2024 10:00:00,21.869985,85.167016,PM2.5,25,111,37
India,Odisha,Tensa,"Barsua Iron Ore Mines, Tensa - OSPCB",26-07-2024 10:00:00,21.869985,85.167016,PM10,NA,NA,NA
India,Odisha,Tensa,"Barsua Iron Ore Mines, Tensa - OSPCB",26-07-2024 10:00:00,21.869985,85.167016,NH3,3,4,3
India,Odisha,Tensa,"Barsua Iron Ore Mines, Tensa - OSPCB",26-07-2024 10:00:00,21.869985,85.167016,CO,8,26,22
India,Odisha,Tensa,"Barsua Iron Ore Mines, Tensa - OSPCB",26-07-2024 10:00:00,21.869985,85.167016,OZONE,8,29,9
India,Puducherry,Puducherry,"Jawahar Nagar, Puducherry - PPCC",26-07-2024 10:00:00,11.9309,79.8027,OZONE,27,60,31
India,Punjab,Amritsar,"Golden Temple, Amritsar - PPCB",26-07-2024 10:00:00,31.620000,74.876512,SO2,NA,NA,NA
India,Punjab,Bathinda,"Hardev Nagar, Bathinda - PPCB",26-07-2024 10:00:00,30.233011,74.907758,SO2,4,13,9
India,Punjab,Ludhiana,"Punjab Agricultural University, Ludhiana - PPCB",26-07-2024 10:00:00,30.9028,75.8086,CO,15,94,31
India,Punjab,Mandi Gobindgarh,"RIMT University, Mandi Gobindgarh - PPCB",26-07-2024 10:00:00,30.649961,76.331442,PM10,31,250,114
India,Punjab,Mandi Gobindgarh,"RIMT University, Mandi Gobindgarh - PPCB",26-07-2024 10:00:00,30.649961,76.331442,NO2,20,30,29
India,Punjab,Patiala,"Model Town, Patiala - PPCB",26-07-2024 10:00:00,30.349388,76.366642,SO2,9,20,15
India,Punjab,Patiala,"Model Town, Patiala - PPCB",26-07-2024 10:00:00,30.349388,76.366642,CO,28,42,31
India,Rajasthan,Ajmer,"Civil Lines,  Ajmer - RSPCB",26-07-2024 10:00:00,26.470859,74.646594,SO2,4,14,9
India,Rajasthan,Alwar,"Moti Doongri, Alwar - RSPCB",26-07-2024 10:00:00,27.554793,76.611536,PM10,34,89,52
India,Rajasthan,Banswara,"Rati Talai, Banswara - RSPCB",26-07-2024 10:00:00,23.555190,74.440010,PM2.5,6,63,33
India,Rajasthan,Banswara,"Rati Talai, Banswara - RSPCB",26-07-2024 10:00:00,23.555190,74.440010,NO2,4,23,10
India,Rajasthan,Baran,"Bamboliya, Baran - RSPCB",26-07-2024 10:00:00,25.106006,76.469948,PM2.5,18,64,39
India,Rajasthan,Baran,"Bamboliya, Baran - RSPCB",26-07-2024 10:00:00,25.106006,76.469948,OZONE,28,59,36
India,Rajasthan,Bhiwadi,"RIICO Ind. Area III, Bhiwadi - RSPCB",26-07-2024 10:00:00,28.194909,76.862296,PM10,43,135,99
India,Rajasthan,Bhiwadi,"RIICO Ind. Area III, Bhiwadi - RSPCB",26-07-2024 10:00:00,28.194909,76.862296,NO2,13,42,30
India,Rajasthan,Bhiwadi,"RIICO Ind. Area III, Bhiwadi - RSPCB",26-07-2024 10:00:00,28.194909,76.862296,SO2,4,15,9
India,Rajasthan,Bhiwadi,"Vasundhara Nagar_UIT, Bhiwadi - RSPCB",26-07-2024 10:00:00,28.207266,76.829265,OZONE,15,57,26
India,Rajasthan,Bikaner,"MM Ground, Bikaner - RSPCB",26-07-2024 10:00:00,28.018792,73.292658,PM2.5,13,274,44
India,Rajasthan,Bundi,"New Colony, Bundi - RSPCB",26-07-2024 10:00:00,25.435774,75.644272,PM10,15,112,57
India,Rajasthan,Chittorgarh,"Shastri Nagar, Chittorgarh - RSPCB",26-07-2024 10:00:00,24.892047,74.623527,NH3,1,6,4
India,Rajasthan,Dausa,"Khatikan Mohalla, Dausa - RSPCB",26-07-2024 10:00:00,26.895552,76.334753,PM10,32,119,78
India,Rajasthan,Dausa,"Khatikan Mohalla, Dausa - RSPCB",26-07-2024 10:00:00,26.895552,76.334753,NO2,5,49,19
India,Rajasthan,Dausa,"Khatikan Mohalla, Dausa - RSPCB",26-07-2024 10:00:00,26.895552,76.334753,CO,20,81,47
India,Rajasthan,Dausa,"Khatikan Mohalla, Dausa - RSPCB",26-07-2024 10:00:00,26.895552,76.334753,OZONE,28,53,41
India,Rajasthan,Dholpur,"Raja Ganj, Dholpur - RSPCB",26-07-2024 10:00:00,26.699557,77.898881,SO2,NA,NA,NA
India,Rajasthan,Dholpur,"Raja Ganj, Dholpur - RSPCB",26-07-2024 10:00:00,26.699557,77.898881,CO,NA,NA,NA
India,Rajasthan,Dungarpur,"Bhoiwada, Dungarpur - RSPCB",26-07-2024 10:00:00,23.837789,73.714926,OZONE,10,41,20
India,Rajasthan,Hanumangarh,"Housing Board, Hanumangarh - RSPCB",26-07-2024 10:00:00,29.610750,74.283608,PM2.5,2,43,22
India,Rajasthan,Jaipur,"Adarsh Nagar, Jaipur - RSPCB",26-07-2024 10:00:00,26.902909,75.836858,PM10,NA,NA,NA
India,Rajasthan,Jaipur,"Mansarovar Sector-12, Jaipur - RSPCB",26-07-2024 10:00:00,26.843698,75.766894,OZONE,6,58,21
India,Rajasthan,Jaipur,"RIICO Sitapura, Jaipur - RSPCB",26-07-2024 10:00:00,26.786682,75.827928,NO2,11,136,42
India,Rajasthan,Jaipur,"RIICO Sitapura, Jaipur - RSPCB",26-07-2024 10:00:00,26.786682,75.827928,OZONE,26,186,186
India,Rajasthan,Jaipur,"Sector-2 Murlipura, Jaipur - RSPCB",26-07-2024 10:00:00,26.960669,75.771817,OZONE,14,39,21
India,Rajasthan,Jaipur,"Shastri Nagar, Jaipur - RSPCB",26-07-2024 10:00:00,26.9502929,75.730943,NO2,9,47,23
India,Rajasthan,Jaisalmer,"Sadar Bazar, Jaisalmer - RSPCB",26-07-2024 10:00:00,26.912329,70.909168,OZONE,37,127,39
India,Rajasthan,Jhalawar,"Rajlaxmi Nagar, Jhalawar - RSPCB",26-07-2024 10:00:00,24.588397,76.172782,CO,2,54,8
India,Rajasthan,Jhunjhunu,"Indra Nagar, Jhunjhunu - RSPCB",26-07-2024 10:00:00,28.108988,75.386577,SO2,2,5,3
India,Rajasthan,Jodhpur,"Digari Kalan, Jodhpur - RSPCB",26-07-2024 10:00:00,26.295810,73.082283,CO,18,44,22
India,Rajasthan,Jodhpur,"Jhalamand, Jodhpur - RSPCB",26-07-2024 10:00:00,26.215415,73.070156,PM10,66,126,97
India,Rajasthan,Jodhpur,"Mandor, Jodhpur - RSPCB",26-07-2024 10:00:00,26.358805,73.047444,OZONE,5,25,13
India,Rajasthan,Jodhpur,"Samrat Ashok Udhyan, Jodhpur - RSPCB",26-07-2024 10:00:00,26.253384,72.976571,PM2.5,16,36,25
India,Rajasthan,Jodhpur,"Samrat Ashok Udhyan, Jodhpur - RSPCB",26-07-2024 10:00:00,26.253384,72.976571,NH3,NA,NA,NA
India,Rajasthan,Jodhpur,"Samrat Ashok Udhyan, Jodhpur - RSPCB",26-07-2024 10:00:00,26.253384,72.976571,CO,2,114,12
India,Rajasthan,Karauli,"Satyawati Vihar, Karauli - RSPCB",26-07-2024 10:00:00,26.506177,77.025989,CO,9,28,10
India,Rajasthan,Karauli,"Satyawati Vihar, Karauli - RSPCB",26-07-2024 10:00:00,26.506177,77.025989,OZONE,8,71,17
India,Rajasthan,Kota,"Dhanmandi, Kota - RSPCB",26-07-2024 10:00:00,25.164090,75.858137,PM2.5,2,42,22
India,Rajasthan,Kota,"Dhanmandi, Kota - RSPCB",26-07-2024 10:00:00,25.164090,75.858137,NH3,4,11,6
India,Rajasthan,Kota,"Dhanmandi, Kota - RSPCB",26-07-2024 10:00:00,25.164090,75.858137,SO2,2,4,3
India,Rajasthan,Nagaur,"Karni Colony, Nagaur - RSPCB",26-07-2024 10:00:00,27.213494,73.734444,NO2,5,12,8
India,Rajasthan,Pali,"Indira Colony Vistar, Pali - RSPCB",26-07-2024 10:00:00,25.771061, 73.340227,PM2.5,45,144,94
India,Rajasthan,Pali,"Indira Colony Vistar, Pali - RSPCB",26-07-2024 10:00:00,25.771061, 73.340227,NO2,5,57,28
India,Rajasthan,Pali,"Indira Colony Vistar, Pali - RSPCB",26-07-2024 10:00:00,25.771061, 73.340227,NH3,6,17,12
India,Rajasthan,Pratapgarh,"Pragati Nagar, Pratapgarh - RSPCB",26-07-2024 10:00:00,24.041198,74.780702,PM10,16,76,43
India,Rajasthan,Pratapgarh,"Pragati Nagar, Pratapgarh - RSPCB",26-07-2024 10:00:00,24.041198,74.780702,NH3,2,3,3
India,Rajasthan,Rajsamand,"Dhoinda, Rajsamand - RSPCB",26-07-2024 10:00:00,25.036360,73.883502,CO,28,104,52
India,Rajasthan,Sikar,"Radhakishan Pura, Sikar - RSPCB",26-07-2024 10:00:00,27.608912,75.153302,SO2,1,3,1
India,Rajasthan,Sikar,"Radhakishan Pura, Sikar - RSPCB",26-07-2024 10:00:00,27.608912,75.153302,CO,1,46,5
India,Rajasthan,Sirohi,"Vedhaynath Colony, Sirohi - RSPCB",26-07-2024 10:00:00,24.885261,72.857549,NO2,4,9,6
India,Rajasthan,Sri Ganganagar,"Old City, Sri Ganganagar - RSPCB",26-07-2024 10:00:00,29.931624,73.864511,NH3,9,13,11
India,Rajasthan,Tonk,"Shastri Nagar, Tonk - RSPCB",26-07-2024 10:00:00,26.159933,75.780517,PM2.5,5,37,17
India,Rajasthan,Udaipur,"Ashok Nagar, Udaipur - RSPCB",26-07-2024 10:00:00,24.5886166,73.6321397,CO,5,94,39
India,Rajasthan,Udaipur,"Ashok Nagar, Udaipur - RSPCB",26-07-2024 10:00:00,24.5886166,73.6321397,OZONE,9,30,20
India,Sikkim,Gangtok,"Zero Point GICI, Gangtok - SSPCB",26-07-2024 10:00:00,27.338530,88.614099,CO,1,6,3
India,Sikkim,Gangtok,"Zero Point GICI, Gangtok - SSPCB",26-07-2024 10:00:00,27.338530,88.614099,OZONE,9,34,12
India,TamilNadu,Ariyalur,"Keelapalur, Ariyalur - TNPCB",26-07-2024 10:00:00,11.06825,79.07033,NO2,3,7,4
India,TamilNadu,Chennai,"Alandur Bus Depot, Chennai - CPCB",26-07-2024 10:00:00,12.9099161,80.1076538,SO2,1,4,2
India,TamilNadu,Chennai,"Kodungaiyur, Chennai - TNPCB",26-07-2024 10:00:00,13.1278,80.2642,NH3,3,5,4
India,TamilNadu,Chennai,"Manali, Chennai - CPCB",26-07-2024 10:00:00,13.164544,80.26285,OZONE,6,23,11
India,TamilNadu,Chennai,"Perungudi, Chennai - TNPCB",26-07-2024 10:00:00,12.9533,80.2357,NO2,4,11,6
India,TamilNadu,Cuddalore,"Semmandalam, Cuddalore - TNPCB",26-07-2024 10:00:00,11.7637683,79.7499835,NO2,9,20,14
India,TamilNadu,Cuddalore,"Semmandalam, Cuddalore - TNPCB",26-07-2024 10:00:00,11.7637683,79.7499835,OZONE,1,4,1
India,TamilNadu,Palkalaiperur,"Bharathidasan University, Palkalaiperur - TNPCB",26-07-2024 10:00:00,10.681158,78.741746,OZONE,1,2,1
India,TamilNadu,Vellore,"Vasanthapuram, Vellore - TNPCB",26-07-2024 10:00:00,12.909494,79.131861,SO2,NA,NA,NA
India,TamilNadu,Virudhunagar,"Collectorate Office, Virudhunagar - TNPCB",26-07-2024 10:00:00,9.559382,77.948828,NO2,NA,NA,NA
India,TamilNadu,Virudhunagar,"Collectorate Office, Virudhunagar - TNPCB",26-07-2024 10:00:00,9.559382,77.948828,NH3,6,7,7
India,Telangana,Hyderabad,"Bollaram Industrial Area, Hyderabad - TSPCB",26-07-2024 10:00:00,17.540891,78.358528,PM2.5,3,19,12
India,Telangana,Hyderabad,"Bollaram Industrial Area, Hyderabad - TSPCB",26-07-2024 10:00:00,17.540891,78.358528,NH3,2,4,3
India,Telangana,Hyderabad,"Central University, Hyderabad - TSPCB",26-07-2024 10:00:00,17.460103,78.334361,PM10,8,20,15
India,Telangana,Hyderabad,"Central University, Hyderabad - TSPCB",26-07-2024 10:00:00,17.460103,78.334361,NH3,1,5,3
India,Telangana,Hyderabad,"Central University, Hyderabad - TSPCB",26-07-2024 10:00:00,17.460103,78.334361,CO,5,15,11
India,Telangana,Hyderabad,"ICRISAT Patancheru, Hyderabad - TSPCB",26-07-2024 10:00:00,17.518400,78.278777,NH3,1,33,2
India,Telangana,Hyderabad,"ICRISAT Patancheru, Hyderabad - TSPCB",26-07-2024 10:00:00,17.518400,78.278777,SO2,2,14,7
India,Telangana,Hyderabad,"ICRISAT Patancheru, Hyderabad - TSPCB",26-07-2024 10:00:00,17.518400,78.278777,CO,4,25,18
India,Telangana,Hyderabad,"ICRISAT Patancheru, Hyderabad - TSPCB",26-07-2024 10:00:00,17.518400,78.278777,OZONE,6,19,11
India,Telangana,Hyderabad,"IDA Pashamylaram, Hyderabad - TSPCB",26-07-2024 10:00:00,17.5316895,78.218939,PM10,NA,NA,NA
India,Telangana,Hyderabad,"Kokapet, Hyderabad - TSPCB",26-07-2024 10:00:00,17.393559,78.339194,PM10,55,71,61
India,Telangana,Hyderabad,"Kokapet, Hyderabad - TSPCB",26-07-2024 10:00:00,17.393559,78.339194,NO2,5,8,6
India,Telangana,Hyderabad,"Nacharam_TSIIC IALA, Hyderabad - TSPCB",26-07-2024 10:00:00,17.429398,78.569354,PM2.5,37,42,38
India,Telangana,Hyderabad,"Nacharam_TSIIC IALA, Hyderabad - TSPCB",26-07-2024 10:00:00,17.429398,78.569354,PM10,51,58,52
India,Telangana,Hyderabad,"Nacharam_TSIIC IALA, Hyderabad - TSPCB",26-07-2024 10:00:00,17.429398,78.569354,SO2,9,14,9
India,Telangana,Hyderabad,"Nacharam_TSIIC IALA, Hyderabad - TSPCB",26-07-2024 10:00:00,17.429398,78.569354,CO,26,32,26
India,Telangana,Hyderabad,"Nacharam_TSIIC IALA, Hyderabad - TSPCB",26-07-2024 10:00:00,17.429398,78.569354,OZONE,17,47,17
India,Telangana,Hyderabad,"New Malakpet, Hyderabad - TSPCB",26-07-2024 10:00:00,17.37206,78.50864,PM10,59,75,64
India,Telangana,Hyderabad,"New Malakpet, Hyderabad - TSPCB",26-07-2024 10:00:00,17.37206,78.50864,NO2,10,16,13
India,Telangana,Hyderabad,"Ramachandrapuram, Hyderabad - TSPCB",26-07-2024 10:00:00,17.528544,78.286195,NH3,NA,NA,NA
India,Telangana,Hyderabad,"Sanathnagar, Hyderabad - TSPCB",26-07-2024 10:00:00,17.4559458,78.4332152,NO2,29,33,30
India,Telangana,Hyderabad,"Somajiguda, Hyderabad - TSPCB",26-07-2024 10:00:00,17.417094,78.457437,PM2.5,NA,NA,NA
India,Telangana,Hyderabad,"Zoo Park, Hyderabad - TSPCB",26-07-2024 10:00:00,17.349694,78.451437,PM2.5,2,8,5
India,Telangana,Hyderabad,"Zoo Park, Hyderabad - TSPCB",26-07-2024 10:00:00,17.349694,78.451437,NH3,NA,NA,NA
India,Telangana,Hyderabad,"Zoo Park, Hyderabad - TSPCB",26-07-2024 10:00:00,17.349694,78.451437,CO,4,34,25
India,Tripura,Agartala,"Bardowali, Agartala - Tripura SPCB",26-07-2024 10:00:00,23.8175497,91.2726974,PM10,27,116,48
India,Uttar_Pradesh,Agra,"Manoharpur, Agra - UPPCB",26-07-2024 10:00:00,27.23711,78.01936,NH3,2,2,2
India,Uttar_Pradesh,Agra,"Rohta, Agra - UPPCB",26-07-2024 10:00:00,27.106972,78.000111,PM10,NA,NA,NA
India,Uttar_Pradesh,Agra,"Rohta, Agra - UPPCB",26-07-2024 10:00:00,27.106972,78.000111,OZONE,7,9,8
India,Uttar_Pradesh,Agra,"Shahjahan Garden, Agra - UPPCB",26-07-2024 10:00:00,27.169338,78.03582,PM10,31,134,56
India,Uttar_Pradesh,Agra,"Shahjahan Garden, Agra - UPPCB",26-07-2024 10:00:00,27.169338,78.03582,NO2,21,22,21
India,Uttar_Pradesh,Agra,"Shahjahan Garden, Agra - UPPCB",26-07-2024 10:00:00,27.169338,78.03582,NH3,1,1,1
India,Uttar_Pradesh,Agra,"Shastripuram, Agra - UPPCB",26-07-2024 10:00:00,27.19862,77.92066,NO2,21,43,24
India,Uttar_Pradesh,Bareilly,"Civil Lines, Bareilly - UPPCB",26-07-2024 10:00:00,28.359581,79.414455,CO,8,24,15
India,Uttar_Pradesh,Bulandshahr,"Yamunapuram, Bulandshahr - UPPCB",26-07-2024 10:00:00,28.406963,77.849831,PM2.5,13,64,39
India,Uttar_Pradesh,Bulandshahr,"Yamunapuram, Bulandshahr - UPPCB",26-07-2024 10:00:00,28.406963,77.849831,PM10,15,84,50
India,Uttar_Pradesh,Bulandshahr,"Yamunapuram, Bulandshahr - UPPCB",26-07-2024 10:00:00,28.406963,77.849831,OZONE,3,24,5
India,Uttar_Pradesh,Firozabad,"Nagla Bhau, Firozabad - UPPCB",26-07-2024 10:00:00,27.168897,78.376960,NH3,2,2,2
India,Uttar_Pradesh,Firozabad,"Nagla Bhau, Firozabad - UPPCB",26-07-2024 10:00:00,27.168897,78.376960,CO,22,28,24
India,Uttar_Pradesh,Firozabad,"Nagla Bhau, Firozabad - UPPCB",26-07-2024 10:00:00,27.168897,78.376960,OZONE,13,19,16
India,Uttar_Pradesh,Firozabad,"Vibhab Nagar, Firozabad - UPPCB",26-07-2024 10:00:00,27.1594,78.3953,PM10,NA,NA,NA
India,Uttar_Pradesh,Firozabad,"Vibhab Nagar, Firozabad - UPPCB",26-07-2024 10:00:00,27.1594,78.3953,OZONE,11,25,11
India,Uttar_Pradesh,Ghaziabad,"Loni, Ghaziabad - UPPCB",26-07-2024 10:00:00,28.757294,77.278792,PM2.5,37,205,105
India,Uttar_Pradesh,Ghaziabad,"Loni, Ghaziabad - UPPCB",26-07-2024 10:00:00,28.757294,77.278792,OZONE,10,68,18
India,Uttar_Pradesh,Ghaziabad,"Sanjay Nagar, Ghaziabad - UPPCB",26-07-2024 10:00:00,28.685382,77.453839,SO2,6,17,10
India,Uttar_Pradesh,Ghaziabad,"Vasundhara, Ghaziabad - UPPCB",26-07-2024 10:00:00,28.6603346,77.3572563,PM10,34,127,79
India,Uttar_Pradesh,Ghaziabad,"Vasundhara, Ghaziabad - UPPCB",26-07-2024 10:00:00,28.6603346,77.3572563,CO,7,40,27
India,Uttar_Pradesh,Gorakhpur,"Madan Mohan Malaviya University of Technology, Gorakhpur - UPPCB",26-07-2024 10:00:00,26.730136,83.433859,NO2,11,11,11
India,Uttar_Pradesh,Greater Noida,"Knowledge Park - III, Greater Noida - UPPCB",26-07-2024 10:00:00,28.47272,77.482000,PM10,22,272,126
India,Uttar_Pradesh,Greater Noida,"Knowledge Park - III, Greater Noida - UPPCB",26-07-2024 10:00:00,28.47272,77.482000,SO2,7,23,13
India,Uttar_Pradesh,Greater Noida,"Knowledge Park - V, Greater Noida - UPPCB",26-07-2024 10:00:00,28.557054,77.453663,NO2,15,32,20
India,Uttar_Pradesh,Greater Noida,"Knowledge Park - V, Greater Noida - UPPCB",26-07-2024 10:00:00,28.557054,77.453663,NH3,4,6,5
India,Uttar_Pradesh,Greater Noida,"Knowledge Park - V, Greater Noida - UPPCB",26-07-2024 10:00:00,28.557054,77.453663,CO,40,79,49
India,Uttar_Pradesh,Hapur,"Anand Vihar, Hapur - UPPCB",26-07-2024 10:00:00,28.725645,77.749675,PM2.5,14,66,36
India,Uttar_Pradesh,Hapur,"Anand Vihar, Hapur - UPPCB",26-07-2024 10:00:00,28.725645,77.749675,SO2,4,32,20
India,Uttar_Pradesh,Jhansi,"Shivaji Nagar, Jhansi - UPPCB",26-07-2024 10:00:00,25.4547,78.6039,NO2,6,6,6
India,Uttar_Pradesh,Jhansi,"Shivaji Nagar, Jhansi - UPPCB",26-07-2024 10:00:00,25.4547,78.6039,SO2,21,29,23
India,Uttar_Pradesh,Jhansi,"Shivaji Nagar, Jhansi - UPPCB",26-07-2024 10:00:00,25.4547,78.6039,CO,6,52,8
India,Uttar_Pradesh,Kanpur,"FTI Kidwai Nagar, Kanpur - UPPCB",26-07-2024 10:00:00,26.428282,80.327067,NH3,2,2,2
India,Uttar_Pradesh,Kanpur,"FTI Kidwai Nagar, Kanpur - UPPCB",26-07-2024 10:00:00,26.428282,80.327067,SO2,16,17,17
India,Uttar_Pradesh,Kanpur,"NSI Kalyanpur, Kanpur - UPPCB",26-07-2024 10:00:00,26.509954,80.249612,PM10,12,49,36
India,Uttar_Pradesh,Kanpur,"NSI Kalyanpur, Kanpur - UPPCB",26-07-2024 10:00:00,26.509954,80.249612,CO,32,48,34
India,Uttar_Pradesh,Kanpur,"Nehru Nagar, Kanpur - UPPCB",26-07-2024 10:00:00,26.4703136,80.3229863,SO2,4,9,7
India,Uttar_Pradesh,Khurja,"Kalindi Kunj, Khurja - UPPCB",26-07-2024 10:00:00,28.2348927,77.8683002,NO2,12,20,14
India,Uttar_Pradesh,Khurja,"Kalindi Kunj, Khurja - UPPCB",26-07-2024 10:00:00,28.2348927,77.8683002,SO2,42,101,67
India,Uttar_Pradesh,Lucknow,"B R Ambedkar University, Lucknow - UPPCB",26-07-2024 10:00:00,26.766433,80.927299,CO,7,12,9
India,Uttar_Pradesh,Lucknow,"Gomti Nagar, Lucknow - UPPCB",26-07-2024 10:00:00,26.868120,81.005119,NO2,9,11,10
India,Uttar_Pradesh,Lucknow,"Gomti Nagar, Lucknow - UPPCB",26-07-2024 10:00:00,26.868120,81.005119,OZONE,39,47,40
India,Uttar_Pradesh,Lucknow,"Kendriya Vidyalaya, Lucknow - CPCB",26-07-2024 10:00:00,26.906111,80.948222,CO,4,38,23
India,Uttar_Pradesh,Lucknow,"Kukrail Picnic Spot-1, Lucknow - UPPCB",26-07-2024 10:00:00,26.90723,80.98579,PM2.5,8,40,21
India,Uttar_Pradesh,Lucknow,"Lalbagh, Lucknow - CPCB",26-07-2024 10:00:00,26.8458805,80.9365541,PM2.5,16,89,33
India,Uttar_Pradesh,Lucknow,"Talkatora District Industries Center, Lucknow - CPCB",26-07-2024 10:00:00,26.83399722,80.8917361,PM2.5,17,72,44
India,Uttar_Pradesh,Meerut,"Ganga Nagar, Meerut - UPPCB",26-07-2024 10:00:00,28.999264,77.7590354,PM2.5,3,49,25
India,Uttar_Pradesh,Meerut,"Jai Bhim Nagar, Meerut - UPPCB",26-07-2024 10:00:00,28.9535882,77.7622941,NH3,5,9,6
India,Uttar_Pradesh,Meerut,"Jai Bhim Nagar, Meerut - UPPCB",26-07-2024 10:00:00,28.9535882,77.7622941,CO,20,24,22
India,Uttar_Pradesh,Meerut,"Pallavpuram Phase 2, Meerut - UPPCB",26-07-2024 10:00:00,29.063510,77.709723,CO,30,61,34
India,Uttar_Pradesh,Moradabad,"Buddhi Vihar, Moradabad - UPPCB",26-07-2024 10:00:00,28.83526,78.74460,NO2,23,23,23
India,Uttar_Pradesh,Moradabad,"Eco Herbal Park, Moradabad - UPPCB",26-07-2024 10:00:00,28.840739,78.697531,OZONE,4,65,12
India,Uttar_Pradesh,Moradabad,"Employment Office, Moradabad - UPPCB",26-07-2024 10:00:00,28.88528,78.73880,PM2.5,24,67,41
India,Uttar_Pradesh,Moradabad,"Employment Office, Moradabad - UPPCB",26-07-2024 10:00:00,28.88528,78.73880,NH3,3,3,3
India,Uttar_Pradesh,Moradabad,"Employment Office, Moradabad - UPPCB",26-07-2024 10:00:00,28.88528,78.73880,OZONE,20,36,22
India,Uttar_Pradesh,Moradabad,"Jigar Colony, Moradabad - UPPCB",26-07-2024 10:00:00,28.856664,78.772638,SO2,8,9,8
India,Uttar_Pradesh,Moradabad,"Kashiram Nagar, Moradabad - UPPCB",26-07-2024 10:00:00,28.849399,78.742362,NO2,15,15,15
India,Uttar_Pradesh,Moradabad,"Kashiram Nagar, Moradabad - UPPCB",26-07-2024 10:00:00,28.849399,78.742362,SO2,13,36,25
India,Uttar_Pradesh,Moradabad,"Transport Nagar, Moradabad - UPPCB",26-07-2024 10:00:00,28.802625,78.753728,PM2.5,8,43,27
India,Uttar_Pradesh,Moradabad,"Transport Nagar, Moradabad - UPPCB",26-07-2024 10:00:00,28.802625,78.753728,OZONE,15,40,22
India,Uttar_Pradesh,Noida,"Sector - 125, Noida - UPPCB",26-07-2024 10:00:00,28.5447608,77.3231257,PM10,5,60,26
India,Uttar_Pradesh,Noida,"Sector - 125, Noida - UPPCB",26-07-2024 10:00:00,28.5447608,77.3231257,SO2,6,26,15
India,Uttar_Pradesh,Noida,"Sector-116, Noida - UPPCB",26-07-2024 10:00:00,28.569230,77.393848,OZONE,2,53,8
India,Uttar_Pradesh,Prayagraj,"Jhunsi, Prayagraj - UPPCB",26-07-2024 10:00:00,25.425602,81.917152,PM2.5,10,34,17
India,Uttar_Pradesh,Prayagraj,"Jhunsi, Prayagraj - UPPCB",26-07-2024 10:00:00,25.425602,81.917152,NH3,5,5,5
India,Uttar_Pradesh,Prayagraj,"Motilal Nehru NIT, Prayagraj - UPPCB",26-07-2024 10:00:00,25.494,81.863,PM10,6,25,16
India,Uttar_Pradesh,Prayagraj,"Motilal Nehru NIT, Prayagraj - UPPCB",26-07-2024 10:00:00,25.494,81.863,SO2,21,37,26
India,Uttar_Pradesh,Prayagraj,"Motilal Nehru NIT, Prayagraj - UPPCB",26-07-2024 10:00:00,25.494,81.863,OZONE,7,20,10
India,Uttar_Pradesh,Prayagraj,"Nagar Nigam, Prayagraj - UPPCB",26-07-2024 10:00:00,25.44919916 ,81.82735986 ,PM10,6,136,44
India,Uttar_Pradesh,Prayagraj,"Nagar Nigam, Prayagraj - UPPCB",26-07-2024 10:00:00,25.44919916 ,81.82735986 ,NH3,3,4,4
India,Uttar_Pradesh,Prayagraj,"Nagar Nigam, Prayagraj - UPPCB",26-07-2024 10:00:00,25.44919916 ,81.82735986 ,OZONE,11,15,12
India,Uttar_Pradesh,Varanasi,"Ardhali Bazar, Varanasi - UPPCB",26-07-2024 10:00:00,25.3505986,82.9083074,PM10,48,99,75
India,Uttar_Pradesh,Varanasi,"Ardhali Bazar, Varanasi - UPPCB",26-07-2024 10:00:00,25.3505986,82.9083074,SO2,17,22,19
India,Uttar_Pradesh,Varanasi,"IESD Banaras Hindu University, Varanasi - UPPCB",26-07-2024 10:00:00,25.262326,82.995408,PM10,11,144,57
India,Uttar_Pradesh,Varanasi,"Maldahiya, Varanasi - UPPCB",26-07-2024 10:00:00,25.32393,82.99687,CO,4,32,8
India,Uttar_Pradesh,Varanasi,"Maldahiya, Varanasi - UPPCB",26-07-2024 10:00:00,25.32393,82.99687,OZONE,2,12,3
India,Uttar_Pradesh,Vrindavan,"Omex Eternity, Vrindavan - UPPCB",26-07-2024 10:00:00,27.5714090,77.6557570,CO,24,39,30
India,Uttarakhand,Dehradun,"Doon University, Dehradun - UKPCB",26-07-2024 10:00:00,30.269444,78.044167,PM2.5,3,31,15
India,Uttarakhand,Dehradun,"Doon University, Dehradun - UKPCB",26-07-2024 10:00:00,30.269444,78.044167,CO,24,33,28
India,Uttarakhand,Kashipur,"Govt. Girls Inter College, Kashipur - UKPCB",26-07-2024 10:00:00,29.2124114,78.9611753,SO2,5,7,6
India,Uttarakhand,Rishikesh,"Shivaji Nagar, Rishikesh - UKPCB",26-07-2024 10:00:00,30.075911,78.2859547,CO,8,50,22
India,Uttarakhand,Rishikesh,"Shivaji Nagar, Rishikesh - UKPCB",26-07-2024 10:00:00,30.075911,78.2859547,OZONE,8,45,14
India,West_Bengal,Asansol,"Evelyn Lodge, Asansol - WBPCB",26-07-2024 10:00:00,23.6979360,86.9443950,PM2.5,35,133,61
India,West_Bengal,Asansol,"Trivenidevi Bhalotia College, Asansol - WBPCB",26-07-2024 10:00:00,23.616515,87.119133,PM10,43,114,68
India,West_Bengal,Barrackpore,"SVSPA Campus, Barrackpore - WBPCB",26-07-2024 10:00:00,22.7605581,88.3617589,PM10,29,53,44
India,West_Bengal,Barrackpore,"SVSPA Campus, Barrackpore - WBPCB",26-07-2024 10:00:00,22.7605581,88.3617589,NH3,1,2,2
India,West_Bengal,Barrackpore,"SVSPA Campus, Barrackpore - WBPCB",26-07-2024 10:00:00,22.7605581,88.3617589,CO,18,38,23
India,West_Bengal,Durgapur,"PCBL Residential Complex, Durgapur - WBPCB",26-07-2024 10:00:00,23.5087640,87.3544400,PM2.5,NA,NA,NA
India,West_Bengal,Durgapur,"PCBL Residential Complex, Durgapur - WBPCB",26-07-2024 10:00:00,23.5087640,87.3544400,PM10,30,112,56
India,West_Bengal,Durgapur,"Sidhu Kanhu Indoor Stadium, Durgapur - WBPCB",26-07-2024 10:00:00,23.5404352,87.2892225,PM2.5,20,134,71
India,West_Bengal,Durgapur,"Sidhu Kanhu Indoor Stadium, Durgapur - WBPCB",26-07-2024 10:00:00,23.5404352,87.2892225,NO2,14,31,19
India,West_Bengal,Durgapur,"Sidhu Kanhu Indoor Stadium, Durgapur - WBPCB",26-07-2024 10:00:00,23.5404352,87.2892225,SO2,11,43,27
India,West_Bengal,Haldia,"Priyambada Housing Estate, Haldia - WBPCB",26-07-2024 10:00:00,22.06047,88.109737,PM2.5,14,55,29
India,West_Bengal,Haldia,"Priyambada Housing Estate, Haldia - WBPCB",26-07-2024 10:00:00,22.06047,88.109737,CO,28,38,32
India,West_Bengal,Howrah,"Belur Math, Howrah - WBPCB",26-07-2024 10:00:00,22.629801,88.352017,PM2.5,16,76,47
India,West_Bengal,Howrah,"Belur Math, Howrah - WBPCB",26-07-2024 10:00:00,22.629801,88.352017,CO,10,57,14
India,West_Bengal,Howrah,"Botanical Garden, Howrah - WBPCB",26-07-2024 10:00:00,22.554954,88.292568,NH3,2,2,2
India,West_Bengal,Howrah,"Ghusuri, Howrah - WBPCB",26-07-2024 10:00:00,22.611968,88.347422,PM10,43,80,63
India,West_Bengal,Howrah,"Ghusuri, Howrah - WBPCB",26-07-2024 10:00:00,22.611968,88.347422,CO,14,45,20
India,West_Bengal,Howrah,"Padmapukur, Howrah - WBPCB",26-07-2024 10:00:00,22.5687319,88.2797276,PM2.5,46,81,62
India,West_Bengal,Kolkata,"Ballygunge, Kolkata - WBPCB",26-07-2024 10:00:00,22.5367507,88.3638022,PM10,38,87,66
India,West_Bengal,Kolkata,"Ballygunge, Kolkata - WBPCB",26-07-2024 10:00:00,22.5367507,88.3638022,NH3,5,5,5
India,West_Bengal,Kolkata,"Ballygunge, Kolkata - WBPCB",26-07-2024 10:00:00,22.5367507,88.3638022,SO2,5,9,7
India,West_Bengal,Kolkata,"Ballygunge, Kolkata - WBPCB",26-07-2024 10:00:00,22.5367507,88.3638022,CO,8,44,12
India,West_Bengal,Kolkata,"Fort William, Kolkata - WBPCB",26-07-2024 10:00:00,22.556640,88.342674,SO2,8,9,8
India,West_Bengal,Kolkata,"Fort William, Kolkata - WBPCB",26-07-2024 10:00:00,22.556640,88.342674,OZONE,8,17,13
India,West_Bengal,Kolkata,"Jadavpur, Kolkata - WBPCB",26-07-2024 10:00:00,22.49929,88.36917,CO,27,35,31
India,West_Bengal,Kolkata,"Rabindra Bharati University, Kolkata - WBPCB",26-07-2024 10:00:00,22.627847,88.380669,PM10,29,62,50
India,West_Bengal,Kolkata,"Rabindra Bharati University, Kolkata - WBPCB",26-07-2024 10:00:00,22.627847,88.380669,NO2,44,58,52
India,West_Bengal,Kolkata,"Rabindra Sarobar, Kolkata - WBPCB",26-07-2024 10:00:00,22.51106,88.35142,PM2.5,25,71,45
India,West_Bengal,Kolkata,"Rabindra Sarobar, Kolkata - WBPCB",26-07-2024 10:00:00,22.51106,88.35142,CO,19,42,23
India,West_Bengal,Kolkata,"Victoria, Kolkata - WBPCB",26-07-2024 10:00:00,22.5448082,88.3403691,PM2.5,26,75,55
India,West_Bengal,Kolkata,"Victoria, Kolkata - WBPCB",26-07-2024 10:00:00,22.5448082,88.3403691,CO,2,72,22
India,West_Bengal,Siliguri,"Ward-32 Bapupara, Siliguri - WBPCB",26-07-2024 10:00:00,26.6879226,88.4152495,NH3,7,8,7
India,West_Bengal,Siliguri,"Ward-32 Bapupara, Siliguri - WBPCB",26-07-2024 10:00:00,26.6879226,88.4152495,SO2,7,9,8
India,Andhra_Pradesh,Amaravati,"Secretariat, Amaravati - APPCB",26-07-2024 10:00:00,16.5150833,80.5181667,PM2.5,2,30,11
India,Andhra_Pradesh,Chittoor,"Gangineni Cheruvu, Chittoor - APPCB",26-07-2024 10:00:00,13.204880,79.097889,NH3,3,4,3
India,Andhra_Pradesh,Kadapa,"Yerramukkapalli, Kadapa - APPCB",26-07-2024 10:00:00,14.465052,78.824187,SO2,NA,NA,NA
India,Andhra_Pradesh,Rajamahendravaram,"Anand Kala Kshetram, Rajamahendravaram - APPCB",26-07-2024 10:00:00,16.9872867,81.7363176,PM2.5,11,21,18
India,Andhra_Pradesh,Rajamahendravaram,"Anand Kala Kshetram, Rajamahendravaram - APPCB",26-07-2024 10:00:00,16.9872867,81.7363176,CO,3,57,28
India,Andhra_Pradesh,Rajamahendravaram,"Anand Kala Kshetram, Rajamahendravaram - APPCB",26-07-2024 10:00:00,16.9872867,81.7363176,OZONE,5,6,5
India,Andhra_Pradesh,Tirupati,"Tirumala, Tirupati - APPCB",26-07-2024 10:00:00,13.67,79.35,PM10,14,63,29
India,Andhra_Pradesh,Tirupati,"Tirumala, Tirupati - APPCB",26-07-2024 10:00:00,13.67,79.35,SO2,1,10,6
India,Andhra_Pradesh,Tirupati,"Tirumala, Tirupati - APPCB",26-07-2024 10:00:00,13.67,79.35,CO,10,28,18
India,Andhra_Pradesh,Tirupati,"Vaikuntapuram, Tirupati - APPCB",26-07-2024 10:00:00,13.615387,79.409230,OZONE,32,34,33
India,Andhra_Pradesh,Vijayawada,"HB Colony, Vijayawada - APPCB",26-07-2024 10:00:00,16.536107,80.594233,NO2,6,16,10
India,Andhra_Pradesh,Vijayawada,"HB Colony, Vijayawada - APPCB",26-07-2024 10:00:00,16.536107,80.594233,NH3,4,5,4
India,Andhra_Pradesh,Vijayawada,"Kanuru, Vijayawada - APPCB",26-07-2024 10:00:00,16.486692,80.699436,NO2,NA,NA,NA
India,Andhra_Pradesh,Visakhapatnam,"GVM Corporation, Visakhapatnam - APPCB",26-07-2024 10:00:00,17.72,83.3,PM10,64,95,81
India,Assam,Guwahati,"IITG, Guwahati - PCBA",26-07-2024 10:00:00,26.2028636,91.70046436,NO2,NA,NA,NA
India,Assam,Guwahati,"LGBI Airport, Guwahati - PCBA",26-07-2024 10:00:00,26.10887,91.589544,PM10,14,500,68
India,Assam,Guwahati,"Pan Bazaar, Guwahati - PCBA",26-07-2024 10:00:00,26.187500,91.744194,CO,6,44,25
India,Assam,Guwahati,"Pan Bazaar, Guwahati - PCBA",26-07-2024 10:00:00,26.187500,91.744194,OZONE,17,18,17
India,Assam,Guwahati,"Railway Colony, Guwahati - PCBA",26-07-2024 10:00:00,26.181742,91.78063,NO2,3,3,3
India,Assam,Nagaon,"Christianpatty, Nagaon - PCBA",26-07-2024 10:00:00,26.349082,92.68449,PM2.5,21,47,26
India,Assam,Sivasagar,"Girls College, Sivasagar - PCBA",26-07-2024 10:00:00,26.987634,94.636574,NH3,1,2,1
India,Bihar,Araria,"Kharahiya Basti, Araria - BSPCB",26-07-2024 10:00:00,26.146529,87.454184,NO2,6,10,7
India,Bihar,Aurangabad,"Gurdeo Nagar, Aurangabad - BSPCB",26-07-2024 10:00:00,24.75746,84.366208,PM2.5,NA,NA,NA
India,Bihar,Aurangabad,"Gurdeo Nagar, Aurangabad - BSPCB",26-07-2024 10:00:00,24.75746,84.366208,PM10,NA,NA,NA
India,Bihar,Aurangabad,"Gurdeo Nagar, Aurangabad - BSPCB",26-07-2024 10:00:00,24.75746,84.366208,NO2,NA,NA,NA
India,Bihar,Bhagalpur,"Mayaganj, Bhagalpur - BSPCB",26-07-2024 10:00:00,25.265194,87.012947,PM2.5,40,157,84
India,Bihar,Bhagalpur,"Mayaganj, Bhagalpur - BSPCB",26-07-2024 10:00:00,25.265194,87.012947,OZONE,9,10,9
India,Bihar,Bihar Sharif,"D M Colony, Bihar Sharif - BSPCB",26-07-2024 10:00:00,25.204762,85.514960,NO2,NA,NA,NA
India,Bihar,Bihar Sharif,"D M Colony, Bihar Sharif - BSPCB",26-07-2024 10:00:00,25.204762,85.514960,NH3,NA,NA,NA
India,Bihar,Bihar Sharif,"D M Colony, Bihar Sharif - BSPCB",26-07-2024 10:00:00,25.204762,85.514960,SO2,3,5,3
India,Bihar,Bihar Sharif,"D M Colony, Bihar Sharif - BSPCB",26-07-2024 10:00:00,25.204762,85.514960,CO,22,40,24
India,Bihar,Buxar,"Charitra Van, Buxar - BSPCB (Formerly known as Central Jail)",26-07-2024 10:00:00,25.567520,83.966379,PM2.5,13,157,49
India,Bihar,Buxar,"Charitra Van, Buxar - BSPCB (Formerly known as Central Jail)",26-07-2024 10:00:00,25.567520,83.966379,PM10,49,110,77
India,Bihar,Chhapra,"Darshan Nagar, Chhapra - BSPCB",26-07-2024 10:00:00,25.7808257,84.7446768,PM10,14,55,38
India,Bihar,Chhapra,"Darshan Nagar, Chhapra - BSPCB",26-07-2024 10:00:00,25.7808257,84.7446768,NH3,8,19,12
India,Bihar,Chhapra,"Darshan Nagar, Chhapra - BSPCB",26-07-2024 10:00:00,25.7808257,84.7446768,SO2,41,100,71
India,Bihar,Chhapra,"Darshan Nagar, Chhapra - BSPCB",26-07-2024 10:00:00,25.7808257,84.7446768,OZONE,16,40,30
India,Bihar,Gaya,"Collectorate, Gaya - BSPCB",26-07-2024 10:00:00,24.7955,84.9994,PM2.5,24,86,55
India,Bihar,Gaya,"Kareemganj, Gaya - BSPCB",26-07-2024 10:00:00,24.792403,84.992416,NO2,6,9,7
India,Bihar,Gaya,"Kareemganj, Gaya - BSPCB",26-07-2024 10:00:00,24.792403,84.992416,NH3,3,4,3
India,Bihar,Hajipur,"Industrial Area, Hajipur - BSPCB",26-07-2024 10:00:00,25.697189,85.245900,PM10,38,84,56
India,Bihar,Katihar,"Mirchaibari, Katihar - BSPCB",26-07-2024 10:00:00,25.560083,87.553265,OZONE,4,4,4
India,Bihar,Kishanganj,"SDM Office_Khagra, Kishanganj - BSPCB",26-07-2024 10:00:00,26.0881305,87.93840336,PM2.5,5,43,19
India,Bihar,Manguraha,"Forest Rest House, Manguraha - BSPCB",26-07-2024 10:00:00,27.308328,84.531742,SO2,NA,NA,NA
India,Bihar,Motihari,"Gandak Colony, Motihari - BSPCB",26-07-2024 10:00:00,26.63086,84.90051,PM2.5,8,110,32
India,Bihar,Muzaffarpur,"MIT-Daudpur Kothi, Muzaffarpur - BSPCB",26-07-2024 10:00:00,26.1403345,85.3650192,NO2,3,6,5
India,Bihar,Muzaffarpur,"MIT-Daudpur Kothi, Muzaffarpur - BSPCB",26-07-2024 10:00:00,26.1403345,85.3650192,CO,8,111,18
India,Bihar,Patna,"Govt. High School Shikarpur, Patna - BSPCB",26-07-2024 10:00:00,25.592539,85.227158,NH3,4,5,5
India,Bihar,Patna,"Muradpur, Patna - BSPCB",26-07-2024 10:00:00,25.619651,85.147382,SO2,5,6,6
India,Bihar,Patna,"Samanpura, Patna - BSPCB",26-07-2024 10:00:00,25.596727,85.085624,SO2,4,9,5
India,Bihar,Purnia,"Mariam Nagar, Purnia - BSPCB",26-07-2024 10:00:00,25.366336,87.117468,PM2.5,5,500,87
India,Bihar,Purnia,"Mariam Nagar, Purnia - BSPCB",26-07-2024 10:00:00,25.366336,87.117468,PM10,4,500,69
India,Bihar,Rajgir,"Dangi Tola, Rajgir - BSPCB",26-07-2024 10:00:00,25.03280,85.41948,PM10,49,237,94
India,Bihar,Rajgir,"Dangi Tola, Rajgir - BSPCB",26-07-2024 10:00:00,25.03280,85.41948,SO2,4,4,4
India,Bihar,Saharsa,"Police Line, Saharsa - BSPCB",26-07-2024 10:00:00,25.892357,86.590325,NO2,5,8,7
India,Bihar,Samastipur,"DM Office_Kasipur, Samastipur - BSPCB",26-07-2024 10:00:00,25.859655,85.77944,NO2,NA,NA,NA
India,Chandigarh,Chandigarh,"Sector 22, Chandigarh - CPCC",26-07-2024 10:00:00,30.735567,76.775714,SO2,1,11,6
India,Chandigarh,Chandigarh,"Sector 22, Chandigarh - CPCC",26-07-2024 10:00:00,30.735567,76.775714,CO,31,58,37
India,Chandigarh,Chandigarh,"Sector-25, Chandigarh - CPCC",26-07-2024 10:00:00,30.751462,76.762879,CO,16,40,21
India,Chandigarh,Chandigarh,"Sector-53, Chandigarh - CPCC",26-07-2024 10:00:00,30.719859,76.738637,PM10,15,60,32
India,Chandigarh,Chandigarh,"Sector-53, Chandigarh - CPCC",26-07-2024 10:00:00,30.719859,76.738637,SO2,2,13,6
India,Chhattisgarh,Bhilai,"32Bungalows, Bhilai - CECB",26-07-2024 10:00:00,21.194815,81.314770,PM10,NA,NA,NA
India,Chhattisgarh,Bhilai,"Civic Center, Bhilai - Bhilai Steel Plant",26-07-2024 10:00:00,21.185571,81.343175,NO2,7,8,8
India,Chhattisgarh,Bhilai,"Hathkhoj, Bhilai - CECB",26-07-2024 10:00:00,21.224231,81.408350,PM2.5,3,38,18
India,Chhattisgarh,Bhilai,"Hathkhoj, Bhilai - CECB",26-07-2024 10:00:00,21.224231,81.408350,PM10,7,40,22
India,Chhattisgarh,Bhilai,"Hathkhoj, Bhilai - CECB",26-07-2024 10:00:00,21.224231,81.408350,CO,7,16,10
India,Chhattisgarh,Bilaspur,"Mangala, Bilaspur - NTPC",26-07-2024 10:00:00,22.08815,82.13737,CO,41,106,44
India,Chhattisgarh,Chhal,"Nawapara SECL Colony, Chhal - CECB",26-07-2024 10:00:00,22.118125,83.140608,PM2.5,9,24,16
India,Chhattisgarh,Chhal,"Nawapara SECL Colony, Chhal - CECB",26-07-2024 10:00:00,22.118125,83.140608,PM10,13,45,31
India,Chhattisgarh,Korba,"Rampur, Korba - CECB",26-07-2024 10:00:00,22.368195,82.746431,PM2.5,14,27,19
India,Chhattisgarh,Kunjemura,"OP Jindal School, Kunjemura - CECB",26-07-2024 10:00:00,22.126650,83.483212,SO2,3,7,4
India,Chhattisgarh,Kunjemura,"OP Jindal School, Kunjemura - CECB",26-07-2024 10:00:00,22.126650,83.483212,OZONE,7,10,7
India,Chhattisgarh,Raipur,"AIIMS, Raipur - CECB",26-07-2024 10:00:00,21.258815,81.578979,PM10,5,35,19
India,Chhattisgarh,Raipur,"AIIMS, Raipur - CECB",26-07-2024 10:00:00,21.258815,81.578979,NO2,6,9,7
India,Chhattisgarh,Raipur,"AIIMS, Raipur - CECB",26-07-2024 10:00:00,21.258815,81.578979,OZONE,1,2,1
India,Chhattisgarh,Raipur,"Bhatagaon New ISBT, Raipur - CECB",26-07-2024 10:00:00,21.219665,81.630094,PM2.5,3,24,8
India,Chhattisgarh,Raipur,"Siltara Phase-II, Raipur - CECB",26-07-2024 10:00:00,21.371751,81.664929,PM2.5,13,32,23
India,Chhattisgarh,Raipur,"Siltara Phase-II, Raipur - CECB",26-07-2024 10:00:00,21.371751,81.664929,PM10,NA,NA,NA
India,Chhattisgarh,Raipur,"Siltara Phase-II, Raipur - CECB",26-07-2024 10:00:00,21.371751,81.664929,OZONE,3,4,3
India,Chhattisgarh,Tumidih,"OP Jindal Industrial Park, Tumidih - CECB",26-07-2024 10:00:00,22.06631475,83.33820077,SO2,5,6,5
India,Delhi,Delhi,"Alipur, Delhi - DPCC",26-07-2024 10:00:00,28.815329,77.153010,PM2.5,23,70,50
India,Delhi,Delhi,"Alipur, Delhi - DPCC",26-07-2024 10:00:00,28.815329,77.153010,SO2,3,7,5
India,Delhi,Delhi,"Alipur, Delhi - DPCC",26-07-2024 10:00:00,28.815329,77.153010,CO,7,42,18
India,Delhi,Delhi,"Anand Vihar, Delhi - DPCC",26-07-2024 10:00:00,28.647622,77.3158090,NH3,2,21,10
India,Delhi,Delhi,"Ashok Vihar, Delhi - DPCC",26-07-2024 10:00:00,28.695381,77.181665,PM10,18,98,61
India,Delhi,Delhi,"Ashok Vihar, Delhi - DPCC",26-07-2024 10:00:00,28.695381,77.181665,CO,4,54,23
India,Delhi,Delhi,"Aya Nagar, Delhi - IMD",26-07-2024 10:00:00,28.4706914,77.1099364,OZONE,5,37,16
India,Delhi,Delhi,"Bawana, Delhi - DPCC",26-07-2024 10:00:00,28.776200,77.051074,SO2,11,22,13
India,Delhi,Delhi,"Burari Crossing, Delhi - IMD",26-07-2024 10:00:00,28.7256504,77.2011573,PM10,15,101,60
India,Delhi,Delhi,"Burari Crossing, Delhi - IMD",26-07-2024 10:00:00,28.7256504,77.2011573,CO,8,24,16
India,Delhi,Delhi,"CRRI Mathura Road, Delhi - IMD",26-07-2024 10:00:00,28.5512005,77.2735737,PM2.5,10,58,32
India,Delhi,Delhi,"CRRI Mathura Road, Delhi - IMD",26-07-2024 10:00:00,28.5512005,77.2735737,NO2,6,11,8
India,Delhi,Delhi,"CRRI Mathura Road, Delhi - IMD",26-07-2024 10:00:00,28.5512005,77.2735737,OZONE,7,96,11
India,Delhi,Delhi,"DTU, Delhi - CPCB",26-07-2024 10:00:00,28.7500499,77.1112615,PM10,20,105,62
India,Delhi,Delhi,"Dr. Karni Singh Shooting Range, Delhi - DPCC",26-07-2024 10:00:00,28.498571,77.264840,NH3,6,14,9
India,Delhi,Delhi,"ITO, Delhi - CPCB",26-07-2024 10:00:00,28.628624,77.241060,NH3,13,52,24
India,Delhi,Delhi,"Jawaharlal Nehru Stadium, Delhi - DPCC",26-07-2024 10:00:00,28.580280,77.233829,NO2,17,73,48
India,Delhi,Delhi,"Jawaharlal Nehru Stadium, Delhi - DPCC",26-07-2024 10:00:00,28.580280,77.233829,NH3,10,17,12
India,Delhi,Delhi,"Jawaharlal Nehru Stadium, Delhi - DPCC",26-07-2024 10:00:00,28.580280,77.233829,SO2,1,9,5
India,Delhi,Delhi,"Major Dhyan Chand National Stadium, Delhi - DPCC",26-07-2024 10:00:00,28.611281,77.237738,NH3,9,13,11
India,Delhi,Delhi,"Mandir Marg, Delhi - DPCC",26-07-2024 10:00:00,28.636429,77.201067,NO2,40,66,51
India,Delhi,Delhi,"Mundka, Delhi - DPCC",26-07-2024 10:00:00,28.684678,77.076574,PM2.5,5,88,54
India,Delhi,Delhi,"Mundka, Delhi - DPCC",26-07-2024 10:00:00,28.684678,77.076574,NO2,29,92,54
India,Delhi,Delhi,"NSIT Dwarka, Delhi - CPCB",26-07-2024 10:00:00,28.60909,77.0325413,PM2.5,28,123,65
India,Delhi,Delhi,"NSIT Dwarka, Delhi - CPCB",26-07-2024 10:00:00,28.60909,77.0325413,SO2,11,23,16
India,Delhi,Delhi,"Nehru Nagar, Delhi - DPCC",26-07-2024 10:00:00,28.567890,77.250515,PM10,23,104,63
India,Delhi,Delhi,"Nehru Nagar, Delhi - DPCC",26-07-2024 10:00:00,28.567890,77.250515,NH3,3,6,4
India,Delhi,Delhi,"North Campus, DU, Delhi - IMD",26-07-2024 10:00:00,28.6573814,77.1585447,NO2,5,18,8
India,Delhi,Delhi,"Patparganj, Delhi - DPCC",26-07-2024 10:00:00,28.623763,77.287209,SO2,1,3,2
India,Delhi,Delhi,"Punjabi Bagh, Delhi - DPCC",26-07-2024 10:00:00,28.674045,77.131023,NO2,12,35,23
India,Delhi,Delhi,"Pusa, Delhi - DPCC",26-07-2024 10:00:00,28.639652,77.146275,PM2.5,13,92,44
India,Delhi,Delhi,"Pusa, Delhi - DPCC",26-07-2024 10:00:00,28.639652,77.146275,NO2,32,108,64
India,Delhi,Delhi,"R K Puram, Delhi - DPCC",26-07-2024 10:00:00,28.563262,77.186937,NO2,13,52,30
India,Delhi,Delhi,"R K Puram, Delhi - DPCC",26-07-2024 10:00:00,28.563262,77.186937,OZONE,16,55,33
India,Delhi,Delhi,"Rohini, Delhi - DPCC",26-07-2024 10:00:00,28.732528,77.119920,NO2,NA,NA,NA
India,Delhi,Delhi,"Sonia Vihar, Delhi - DPCC",26-07-2024 10:00:00,28.710508,77.249485,CO,29,81,44
India,Delhi,Delhi,"Sonia Vihar, Delhi - DPCC",26-07-2024 10:00:00,28.710508,77.249485,OZONE,15,60,25
India,Delhi,Delhi,"Sri Aurobindo Marg, Delhi - DPCC",26-07-2024 10:00:00,28.531346,77.190156,PM2.5,12,59,36
India,Delhi,Delhi,"Sri Aurobindo Marg, Delhi - DPCC",26-07-2024 10:00:00,28.531346,77.190156,NH3,5,9,6
India,Delhi,Delhi,"Vivek Vihar, Delhi - DPCC",26-07-2024 10:00:00,28.672342,77.315260,PM2.5,20,83,52
India,Gujarat,Ahmedabad,"Chandkheda, Ahmedabad - IITM",26-07-2024 10:00:00,23.107969,72.574648,NO2,20,42,29
India,Gujarat,Ahmedabad,"Chandkheda, Ahmedabad - IITM",26-07-2024 10:00:00,23.107969,72.574648,SO2,8,15,12
India,Gujarat,Ahmedabad,"Chandkheda, Ahmedabad - IITM",26-07-2024 10:00:00,23.107969,72.574648,CO,30,44,33
India,Gujarat,Ahmedabad,"Gyaspur, Ahmedabad - IITM",26-07-2024 10:00:00,22.977134,72.553024,PM2.5,NA,NA,NA
India,Gujarat,Ahmedabad,"Maninagar, Ahmedabad - GPCB",26-07-2024 10:00:00,23.002657,72.591912,NO2,22,32,26
India,Gujarat,Ahmedabad,"SVPI Airport Hansol, Ahmedabad - IITM",26-07-2024 10:00:00,23.076793,72.627874,OZONE,5,36,8
India,Gujarat,Ahmedabad,"Sardar Vallabhbhai Patel Stadium, Ahmedabad - IITM",26-07-2024 10:00:00,23.043070,72.562968,NO2,NA,NA,NA
India,Gujarat,Ahmedabad,"Sardar Vallabhbhai Patel Stadium, Ahmedabad - IITM",26-07-2024 10:00:00,23.043070,72.562968,OZONE,8,34,12
India,Gujarat,Gandhinagar,"GIFT City, Gandhinagar - IITM",26-07-2024 10:00:00,23.163798,72.677768,PM10,42,76,59
India,Gujarat,Gandhinagar,"GIFT City, Gandhinagar - IITM",26-07-2024 10:00:00,23.163798,72.677768,SO2,10,14,12
India,Gujarat,Gandhinagar,"GIFT City, Gandhinagar - IITM",26-07-2024 10:00:00,23.163798,72.677768,CO,12,30,16
India,Gujarat,Gandhinagar,"GIFT City, Gandhinagar - IITM",26-07-2024 10:00:00,23.163798,72.677768,OZONE,4,40,9
India,Gujarat,Gandhinagar,"Sector-10, Gandhinagar - GPCB",26-07-2024 10:00:00,23.221714,72.654328,PM2.5,37,58,47
India,Gujarat,Gandhinagar,"Sector-10, Gandhinagar - GPCB",26-07-2024 10:00:00,23.221714,72.654328,NH3,1,1,1
India,Gujarat,Surat,"Science Center, Surat - SMC",26-07-2024 10:00:00,21.170046,72.795405,PM10,32,72,50
India,Gujarat,Surat,"Science Center, Surat - SMC",26-07-2024 10:00:00,21.170046,72.795405,CO,60,73,65
India,Gujarat,Vapi,"Phase-1 GIDC, Vapi - GPCB",26-07-2024 10:00:00,20.362421,72.918013,NH3,10,10,10
India,Gujarat,Vatva,"Phase-4 GIDC, Vatva - GPCB",26-07-2024 10:00:00,22.969611,72.643500,OZONE,17,25,22
India,Haryana,Ambala,"Patti Mehar, Ambala - HSPCB",26-07-2024 10:00:00,30.379589,76.778328,NH3,5,12,8
India,Haryana,Ambala,"Patti Mehar, Ambala - HSPCB",26-07-2024 10:00:00,30.379589,76.778328,OZONE,29,45,42
India,Haryana,Bhiwani,"H.B. Colony, Bhiwani - HSPCB",26-07-2024 10:00:00,28.806223,76.141105,PM2.5,12,69,31
India,Haryana,Bhiwani,"H.B. Colony, Bhiwani - HSPCB",26-07-2024 10:00:00,28.806223,76.141105,PM10,12,70,32
India,Haryana,Bhiwani,"H.B. Colony, Bhiwani - HSPCB",26-07-2024 10:00:00,28.806223,76.141105,NH3,6,6,6
India,Haryana,Charkhi Dadri,"Mini Secretariat, Charkhi Dadri - HSPCB",26-07-2024 10:00:00,28.593883,76.270653,PM10,19,91,48
India,Haryana,Dharuhera,"Municipal Corporation Office, Dharuhera -  HSPCB",26-07-2024 10:00:00,28.206800,76.799700,PM10,61,128,97
India,Haryana,Dharuhera,"Municipal Corporation Office, Dharuhera -  HSPCB",26-07-2024 10:00:00,28.206800,76.799700,SO2,7,16,10
India,Haryana,Dharuhera,"Municipal Corporation Office, Dharuhera -  HSPCB",26-07-2024 10:00:00,28.206800,76.799700,OZONE,20,47,32
India,Haryana,Faridabad,"New Industrial Town, Faridabad - HSPCB",26-07-2024 10:00:00,28.39072,77.30059,SO2,NA,NA,NA
India,Haryana,Faridabad,"Sector 11, Faridabad - HSPCB",26-07-2024 10:00:00,28.376058,77.315741,SO2,2,92,12
India,Haryana,Faridabad,"Sector 11, Faridabad - HSPCB",26-07-2024 10:00:00,28.376058,77.315741,OZONE,4,47,21
India,Haryana,Faridabad,"Sector 30, Faridabad - HSPCB",26-07-2024 10:00:00,28.4417,77.3217,NH3,3,3,3
India,Haryana,Faridabad,"Sector- 16A, Faridabad - HSPCB",26-07-2024 10:00:00,28.4088421,77.3099081,SO2,22,29,26
India,Haryana,Gurugram,"Teri Gram, Gurugram - HSPCB",26-07-2024 10:00:00,28.4275,77.1465,PM2.5,19,109,54
India,Haryana,Gurugram,"Teri Gram, Gurugram - HSPCB",26-07-2024 10:00:00,28.4275,77.1465,NH3,9,15,14
India,Haryana,Gurugram,"Vikas Sadan, Gurugram - HSPCB",26-07-2024 10:00:00,28.4501238,77.0263051,PM2.5,63,161,105
India,Haryana,Jind,"Police Lines, Jind - HSPCB",26-07-2024 10:00:00,29.307814,76.337619,SO2,2,29,6
India,Haryana,Karnal,"Sector-12, Karnal - HSPCB",26-07-2024 10:00:00,29.695300,77.002700,NH3,10,13,11
India,Haryana,Karnal,"Sector-12, Karnal - HSPCB",26-07-2024 10:00:00,29.695300,77.002700,OZONE,37,45,40
India,Haryana,Kurukshetra,"Sector-7, Kurukshetra - HSPCB",26-07-2024 10:00:00,29.966942,76.875879,NO2,16,22,19
India,Haryana,Kurukshetra,"Sector-7, Kurukshetra - HSPCB",26-07-2024 10:00:00,29.966942,76.875879,SO2,1,110,15
India,Haryana,Mandikhera,"General Hospital, Mandikhera - HSPCB",26-07-2024 10:00:00,27.9002,76.9938,NH3,16,19,18
India,Haryana,Manesar,"Sector-2 IMT, Manesar - HSPCB",26-07-2024 10:00:00,28.360699,76.936090,NO2,20,22,21
India,Haryana,Manesar,"Sector-2 IMT, Manesar - HSPCB",26-07-2024 10:00:00,28.360699,76.936090,CO,9,22,13
India,Haryana,Narnaul,"Shastri Nagar, Narnaul - HSPCB",26-07-2024 10:00:00,28.060249,76.113115,PM10,NA,NA,NA
India,Haryana,Narnaul,"Shastri Nagar, Narnaul - HSPCB",26-07-2024 10:00:00,28.060249,76.113115,NO2,15,32,25
India,Haryana,Panchkula,"Sector-6, Panchkula - HSPCB ",26-07-2024 10:00:00,30.7057778,76.8531805555555,NO2,19,22,20
India,Haryana,Panipat,"Sector-18, Panipat - HSPCB",26-07-2024 10:00:00,29.432304,76.972765,PM10,84,86,85
India,Haryana,Panipat,"Sector-18, Panipat - HSPCB",26-07-2024 10:00:00,29.432304,76.972765,CO,24,26,25
India,Haryana,Sirsa,"F-Block, Sirsa - HSPCB",26-07-2024 10:00:00,29.536400,75.015800,PM10,8,42,26
India,Haryana,Sirsa,"F-Block, Sirsa - HSPCB",26-07-2024 10:00:00,29.536400,75.015800,CO,82,90,84
India,Haryana,Yamuna Nagar,"Gobind Pura, Yamuna Nagar - HSPCB",26-07-2024 10:00:00,30.1480566,77.2893471,SO2,1,12,5
India,Haryana,Yamuna Nagar,"Gobind Pura, Yamuna Nagar - HSPCB",26-07-2024 10:00:00,30.1480566,77.2893471,CO,30,52,39
India,Himachal Pradesh,Baddi,"HIMUDA Complex Phase-1, Baddi - HPPCB",26-07-2024 10:00:00,30.943887,76.801991,CO,18,56,31
India,Himachal Pradesh,Baddi,"HIMUDA Complex Phase-1, Baddi - HPPCB",26-07-2024 10:00:00,30.943887,76.801991,OZONE,14,84,30
India,Jammu_and_Kashmir,Srinagar,"Rajbagh, Srinagar - JKSPCB",26-07-2024 10:00:00,34.066206,74.819820,CO,12,22,18
India,Jammu_and_Kashmir,Srinagar,"Rajbagh, Srinagar - JKSPCB",26-07-2024 10:00:00,34.066206,74.819820,OZONE,12,32,13
India,Jharkhand,Dhanbad,"Kalakusuma, Dhanbad - DMC",26-07-2024 10:00:00,23.811548,86.481238,CO,128,135,132
India,Jharkhand,Jorapokhar,"Tata Stadium, Jorapokhar - JSPCB",26-07-2024 10:00:00,23.707909,86.414670,PM10,NA,NA,NA
India,Karnataka,Bagalkot,"Vidayagiri, Bagalkot - KSPCB",26-07-2024 10:00:00,16.172806,75.659694,PM2.5,27,41,39
India,Karnataka,Belgaum,"Ramteerth Nagar, Belgaum - KSPCB",26-07-2024 10:00:00,15.888653,74.541751,OZONE,20,21,20
India,Karnataka,Bengaluru,"BTM Layout, Bengaluru - CPCB",26-07-2024 10:00:00,12.9135218,77.5950804,NO2,36,65,57
India,Karnataka,Bengaluru,"Bapuji Nagar, Bengaluru - KSPCB",26-07-2024 10:00:00,12.951913,77.539784,PM2.5,10,27,16
India,Karnataka,Bengaluru,"Bapuji Nagar, Bengaluru - KSPCB",26-07-2024 10:00:00,12.951913,77.539784,PM10,14,40,24
India,Karnataka,Bengaluru,"City Railway Station, Bengaluru - KSPCB",26-07-2024 10:00:00,12.9756843,77.5660749,CO,51,100,70
India,Karnataka,Bengaluru,"Jayanagar 5th Block, Bengaluru - KSPCB",26-07-2024 10:00:00,12.920984,77.584908,NH3,2,2,2
India,Karnataka,Bengaluru,"Jigani, Bengaluru - KSPCB",26-07-2024 10:00:00,12.7816279,77.6299145,PM2.5,NA,NA,NA
India,Karnataka,Bengaluru,"Jigani, Bengaluru - KSPCB",26-07-2024 10:00:00,12.7816279,77.6299145,OZONE,19,32,19
India,Karnataka,Bengaluru,"Peenya, Bengaluru - CPCB",26-07-2024 10:00:00,13.0270199,77.494094,PM2.5,39,67,49
India,Karnataka,Bengaluru,"RVCE-Mailasandra, Bengaluru - KSPCB",26-07-2024 10:00:00,12.921418,77.502466,CO,32,41,37
India,Karnataka,Bengaluru,"Sanegurava Halli, Bengaluru - KSPCB",26-07-2024 10:00:00,12.990328,77.5431385,PM10,33,52,40
India,Karnataka,Bengaluru,"Sanegurava Halli, Bengaluru - KSPCB",26-07-2024 10:00:00,12.990328,77.5431385,NO2,16,26,22
India,Karnataka,Bengaluru,"Shivapura_Peenya, Bengaluru - KSPCB",26-07-2024 10:00:00,13.0246342,77.5080115,PM10,17,44,26
India,Karnataka,Bengaluru,"Shivapura_Peenya, Bengaluru - KSPCB",26-07-2024 10:00:00,13.0246342,77.5080115,NH3,4,4,4
India,Karnataka,Bengaluru,"Silk Board, Bengaluru - KSPCB",26-07-2024 10:00:00,12.917348,77.622813,NH3,1,1,1
India,Karnataka,Bengaluru,"Silk Board, Bengaluru - KSPCB",26-07-2024 10:00:00,12.917348,77.622813,CO,7,46,21
India,Karnataka,Bidar,"Naubad, Bidar - KSPCB",26-07-2024 10:00:00,17.930306,77.482194,CO,52,72,68
India,Karnataka,Chamarajanagar,"Urban, Chamarajanagar - KSPCB",26-07-2024 10:00:00,11.55358,76.55521,CO,19,38,19
India,Karnataka,Chikkaballapur,"Chikkaballapur Rural, Chikkaballapur - KSPCB",26-07-2024 10:00:00,13.428828,77.731418,OZONE,NA,NA,NA
India,Karnataka,Chikkamagaluru,"Kalyana Nagara, Chikkamagaluru - KSPCB",26-07-2024 10:00:00,13.328028,75.797056,CO,1,107,11
India,Karnataka,Davanagere,"Devaraj Urs Badavane, Davanagere - KSPCB",26-07-2024 10:00:00,14.475800,75.905200,PM2.5,2,36,17
India,Karnataka,Dharwad,"Kalabhavan, Dharwad - KSPCB",26-07-2024 10:00:00,15.459706,75.008381,PM10,NA,NA,NA
India,Karnataka,Dharwad,"Kalabhavan, Dharwad - KSPCB",26-07-2024 10:00:00,15.459706,75.008381,OZONE,8,19,10
India,Karnataka,Gadag,"Panchal Nagar, Gadag - KSPCB",26-07-2024 10:00:00,15.411456,75.638133,PM10,25,29,26
India,Karnataka,Gadag,"Panchal Nagar, Gadag - KSPCB",26-07-2024 10:00:00,15.411456,75.638133,SO2,9,17,14
India,Karnataka,Hassan,"B.Katihalli, Hassan - KSPCB",26-07-2024 10:00:00,13.008556,76.125258,OZONE,7,15,12
India,Karnataka,Haveri,"Ashwini Nagar, Haveri - KSPCB",26-07-2024 10:00:00,14.791800,75.389600,PM2.5,5,23,13
India,Karnataka,Haveri,"Ashwini Nagar, Haveri - KSPCB",26-07-2024 10:00:00,14.791800,75.389600,CO,37,38,38
India,Karnataka,Hubballi,"Lingaraj Nagar, Hubballi - KSPCB",26-07-2024 10:00:00,15.3714823,75.1160168,NO2,4,13,7
India,Karnataka,Karwar,"KHB Colony, Karwar - KSPCB",26-07-2024 10:00:00,14.816666,74.141003,NH3,NA,NA,NA
India,Karnataka,Karwar,"KHB Colony, Karwar - KSPCB",26-07-2024 10:00:00,14.816666,74.141003,OZONE,NA,NA,NA
India,Karnataka,Kolar,"Tamaka Ind. Area, Kolar - KSPCB",26-07-2024 10:00:00,13.1276288,78.1570122,PM10,9,481,43
India,Karnataka,Kolar,"Tamaka Ind. Area, Kolar - KSPCB",26-07-2024 10:00:00,13.1276288,78.1570122,NO2,1,10,4
India,Karnataka,Kolar,"Tamaka Ind. Area, Kolar - KSPCB",26-07-2024 10:00:00,13.1276288,78.1570122,SO2,70,71,70
India,Karnataka,Kolar,"Tamaka Ind. Area, Kolar - KSPCB",26-07-2024 10:00:00,13.1276288,78.1570122,CO,8,11,8
India,Karnataka,Koppal,"Diwator Nagar, Koppal - KSPCB",26-07-2024 10:00:00,15.347630,76.181767,SO2,29,60,31
India,Karnataka,Koppal,"Diwator Nagar, Koppal - KSPCB",26-07-2024 10:00:00,15.347630,76.181767,OZONE,9,16,11
India,Karnataka,Madikeri,"Stuart Hill, Madikeri - KSPCB",26-07-2024 10:00:00,12.415911,75.735050,SO2,4,4,4
India,Karnataka,Mangalore,"Kadri, Mangalore - KSPCB",26-07-2024 10:00:00,12.889250,74.853000,NO2,6,9,6
India,Karnataka,Mysuru,"Hebbal 1st Stage, Mysuru - KSPCB",26-07-2024 10:00:00,12.21041,76.37376,CO,4,34,14
India,Karnataka,Raichur,"Haji Colony, Raichur - KSPCB",26-07-2024 10:00:00,16.208139,77.348417,NH3,3,4,4
India,Karnataka,Shivamogga,"Vinoba Nagara, Shivamogga - KSPCB",26-07-2024 10:00:00,13.940000,75.555917,PM2.5,16,28,24
India,Karnataka,Shivamogga,"Vinoba Nagara, Shivamogga - KSPCB",26-07-2024 10:00:00,13.940000,75.555917,NO2,7,17,11
India,Karnataka,Shivamogga,"Vinoba Nagara, Shivamogga - KSPCB",26-07-2024 10:00:00,13.940000,75.555917,SO2,4,10,6
India,Karnataka,Tumakuru,"Thimmalapura, Tumakuru - KSPCB",26-07-2024 10:00:00,13.377516,77.099072,NO2,17,17,17
India,Karnataka,Udupi,"Brahmagiri, Udupi - KSPCB",26-07-2024 10:00:00,13.34194444,74.74694444,CO,38,57,49
India,Karnataka,Udupi,"Brahmagiri, Udupi - KSPCB",26-07-2024 10:00:00,13.34194444,74.74694444,OZONE,20,24,23
India,Karnataka,Vijayapura,"Ibrahimpur, Vijayapura - KSPCB",26-07-2024 10:00:00,16.802639,75.722694,CO,NA,NA,NA
India,Karnataka,Yadgir,"Collector Office, Yadgir - KSPCB",26-07-2024 10:00:00,16.7602,77.1428,SO2,NA,NA,NA
India,Karnataka,Yadgir,"Collector Office, Yadgir - KSPCB",26-07-2024 10:00:00,16.7602,77.1428,OZONE,15,30,20
India,Kerala,Eloor,"Udyogamandal, Eloor - Kerala PCB",26-07-2024 10:00:00,10.073232,76.302765,PM2.5,42,60,47
India,Kerala,Kollam,"Polayathode, Kollam - Kerala PCB",26-07-2024 10:00:00,8.8787,76.6073,NH3,1,1,1
India,Kerala,Kollam,"Polayathode, Kollam - Kerala PCB",26-07-2024 10:00:00,8.8787,76.6073,OZONE,29,34,30
India,Kerala,Thiruvananthapuram,"Kariavattom, Thiruvananthapuram - Kerala PCB",26-07-2024 10:00:00,8.563700,76.886500,PM10,54,61,57
India,Kerala,Thiruvananthapuram,"Kariavattom, Thiruvananthapuram - Kerala PCB",26-07-2024 10:00:00,8.563700,76.886500,NO2,6,7,6
India,Kerala,Thiruvananthapuram,"Plammoodu, Thiruvananthapuram - Kerala PCB",26-07-2024 10:00:00,8.5149093,76.9435879,PM2.5,2,21,8
India,Madhya Pradesh,Bhopal,"Paryavaran Parisar, Bhopal - MPPCB",26-07-2024 10:00:00,23.210494,77.425409,PM10,11,85,33
India,Madhya Pradesh,Damoh,"Shrivastav Colony, Damoh - MPPCB",26-07-2024 10:00:00,23.81748678,79.446246,PM2.5,NA,NA,NA
India,Madhya Pradesh,Damoh,"Shrivastav Colony, Damoh - MPPCB",26-07-2024 10:00:00,23.81748678,79.446246,PM10,NA,NA,NA
India,Madhya Pradesh,Dewas,"Bhopal Chauraha, Dewas - MPPCB",26-07-2024 10:00:00,22.9682591,76.064118,PM2.5,12,40,24
India,Madhya Pradesh,Gwalior,"City Center, Gwalior - MPPCB",26-07-2024 10:00:00,26.203442,78.193251,PM10,30,61,46
India,Madhya Pradesh,Gwalior,"Deen Dayal Nagar, Gwalior - MPPCB",26-07-2024 10:00:00,26.259242,78.216432,PM2.5,7,66,25
India,Madhya Pradesh,Gwalior,"Deen Dayal Nagar, Gwalior - MPPCB",26-07-2024 10:00:00,26.259242,78.216432,NH3,3,7,5
India,Madhya Pradesh,Gwalior,"Maharaj Bada, Gwalior - MPPCB",26-07-2024 10:00:00,26.200388,78.147714,NO2,5,29,12
India,Madhya Pradesh,Gwalior,"Phool Bagh, Gwalior - Mondelez Ind. Food",26-07-2024 10:00:00,26.210536,78.171,PM2.5,13,75,38
India,Madhya Pradesh,Gwalior,"Phool Bagh, Gwalior - Mondelez Ind. Food",26-07-2024 10:00:00,26.210536,78.171,PM10,14,84,43
