country,state,city,station,last_update,latitude,longitude,pollutant_id,pollutant_min,pollutant_max,pollutant_avg
India,Andhra_Pradesh,Amaravati,"Secretariat, Amaravati - APPCB",04-07-2024 13:00:00,16.5150833,80.5181667,PM2.5,NA,NA,NA
India,Andhra_Pradesh,Anantapur,"Gulzarpet, Anantapur - APPCB",04-07-2024 13:00:00,14.675886,77.593027,PM10,55,500,100
India,Andhra_Pradesh,Anantapur,"Gulzarpet, Anantapur - APPCB",04-07-2024 13:00:00,14.675886,77.593027,CO,14,30,21
India,Andhra_Pradesh,Chittoor,"Gangineni Cheruvu, Chittoor - APPCB",04-07-2024 13:00:00,13.204880,79.097889,NH3,3,4,3
India,Andhra_Pradesh,Kadapa,"Yerramukkapalli, Kadapa - APPCB",04-07-2024 13:00:00,14.465052,78.824187,PM2.5,NA,NA,NA
India,Andhra_Pradesh,Kadapa,"Yerramukkapalli, Kadapa - APPCB",04-07-2024 13:00:00,14.465052,78.824187,NH3,NA,NA,NA
India,Andhra_Pradesh,Rajamahendravaram,"Anand Kala Kshetram, Rajamahendravaram - APPCB",04-07-2024 13:00:00,16.9872867,81.7363176,NO2,7,71,17
India,Andhra_Pradesh,Rajamahendravaram,"Anand Kala Kshetram, Rajamahendravaram - APPCB",04-07-2024 13:00:00,16.9872867,81.7363176,CO,18,70,39
India,Andhra_Pradesh,Tirupati,"Tirumala, Tirupati - APPCB",04-07-2024 13:00:00,13.67,79.35,CO,12,24,17
India,Andhra_Pradesh,Vijayawada,"HB Colony, Vijayawada - APPCB",04-07-2024 13:00:00,16.536107,80.594233,PM10,39,65,47
India,Andhra_Pradesh,Vijayawada,"HB Colony, Vijayawada - APPCB",04-07-2024 13:00:00,16.536107,80.594233,NO2,6,17,9
India,Andhra_Pradesh,Vijayawada,"HB Colony, Vijayawada - APPCB",04-07-2024 13:00:00,16.536107,80.594233,NH3,4,4,4
India,Andhra_Pradesh,Vijayawada,"HB Colony, Vijayawada - APPCB",04-07-2024 13:00:00,16.536107,80.594233,SO2,4,5,4
India,Andhra_Pradesh,Vijayawada,"Rajiv Gandhi Park, Vijayawada - APPCB",04-07-2024 13:00:00,16.509717,80.612222,PM10,37,66,56
India,Andhra_Pradesh,Vijayawada,"Rajiv Nagar, Vijayawada - APPCB",04-07-2024 13:00:00,16.554731,80.649110,PM2.5,47,62,50
India,Andhra_Pradesh,Visakhapatnam,"GVM Corporation, Visakhapatnam - APPCB",04-07-2024 13:00:00,17.72,83.3,PM2.5,28,95,60
India,Andhra_Pradesh,Visakhapatnam,"GVM Corporation, Visakhapatnam - APPCB",04-07-2024 13:00:00,17.72,83.3,PM10,98,145,118
India,Andhra_Pradesh,Visakhapatnam,"GVM Corporation, Visakhapatnam - APPCB",04-07-2024 13:00:00,17.72,83.3,NO2,51,62,56
India,Andhra_Pradesh,Visakhapatnam,"GVM Corporation, Visakhapatnam - APPCB",04-07-2024 13:00:00,17.72,83.3,SO2,7,14,10
India,Arunachal_Pradesh,Naharlagun,"Naharlagun, Naharlagun - APSPCB",04-07-2024 13:00:00,27.103358,93.679645,PM2.5,NA,NA,NA
India,Arunachal_Pradesh,Naharlagun,"Naharlagun, Naharlagun - APSPCB",04-07-2024 13:00:00,27.103358,93.679645,OZONE,2,3,2
India,Assam,Guwahati,"LGBI Airport, Guwahati - PCBA",04-07-2024 13:00:00,26.10887,91.589544,PM2.5,8,119,24
India,Assam,Guwahati,"LGBI Airport, Guwahati - PCBA",04-07-2024 13:00:00,26.10887,91.589544,PM10,9,125,28
India,Assam,Guwahati,"LGBI Airport, Guwahati - PCBA",04-07-2024 13:00:00,26.10887,91.589544,NO2,4,50,15
India,Assam,Guwahati,"Railway Colony, Guwahati - PCBA",04-07-2024 13:00:00,26.181742,91.78063,PM2.5,11,72,32
India,Assam,Guwahati,"Railway Colony, Guwahati - PCBA",04-07-2024 13:00:00,26.181742,91.78063,SO2,2,3,2
India,Assam,Guwahati,"Railway Colony, Guwahati - PCBA",04-07-2024 13:00:00,26.181742,91.78063,CO,16,28,16
India,Assam,Nagaon,"Christianpatty, Nagaon - PCBA",04-07-2024 13:00:00,26.349082,92.68449,NO2,1,19,6
India,Assam,Nagaon,"Christianpatty, Nagaon - PCBA",04-07-2024 13:00:00,26.349082,92.68449,SO2,9,10,10
India,Assam,Nagaon,"Christianpatty, Nagaon - PCBA",04-07-2024 13:00:00,26.349082,92.68449,CO,38,69,40
India,Assam,Nagaon,"Christianpatty, Nagaon - PCBA",04-07-2024 13:00:00,26.349082,92.68449,OZONE,11,17,13
India,Assam,Nalbari,"Bata Chowk, Nalbari - PCBA",04-07-2024 13:00:00,26.446912,91.439057,OZONE,14,41,33
India,Assam,Silchar,"Tarapur, Silchar - PCBA",04-07-2024 13:00:00,24.82827,92.79525,PM2.5,24,37,28
India,Assam,Sivasagar,"Girls College, Sivasagar - PCBA",04-07-2024 13:00:00,26.987634,94.636574,PM10,46,59,53
India,Bihar,Arrah,"New DM Office, Arrah - BSPCB",04-07-2024 13:00:00,25.5626095,84.663264,PM10,NA,NA,NA
India,Bihar,Aurangabad,"Gurdeo Nagar, Aurangabad - BSPCB",04-07-2024 13:00:00,24.75746,84.366208,NO2,2,13,7
India,Bihar,Aurangabad,"Gurdeo Nagar, Aurangabad - BSPCB",04-07-2024 13:00:00,24.75746,84.366208,OZONE,9,51,25
India,Bihar,Bettiah,"Kamalnath Nagar, Bettiah - BSPCB",04-07-2024 13:00:00,26.80365,84.51954,NH3,18,31,23
India,Bihar,Bhagalpur,"DM Office_Kachari Chowk, Bhagalpur - BSPCB",04-07-2024 13:00:00,25.251013,86.989001,NO2,20,37,30
India,Bihar,Bhagalpur,"DM Office_Kachari Chowk, Bhagalpur - BSPCB",04-07-2024 13:00:00,25.251013,86.989001,OZONE,44,51,47
India,Bihar,Bihar Sharif,"D M Colony, Bihar Sharif - BSPCB",04-07-2024 13:00:00,25.204762,85.514960,NO2,8,14,9
India,Bihar,Bihar Sharif,"D M Colony, Bihar Sharif - BSPCB",04-07-2024 13:00:00,25.204762,85.514960,CO,26,31,29
India,Bihar,Buxar,"Charitra Van, Buxar - BSPCB (Formerly known as Central Jail)",04-07-2024 13:00:00,25.567520,83.966379,PM2.5,NA,NA,NA
India,Bihar,Chhapra,"Darshan Nagar, Chhapra - BSPCB",04-07-2024 13:00:00,25.7808257,84.7446768,PM10,2,16,8
India,Bihar,Chhapra,"Darshan Nagar, Chhapra - BSPCB",04-07-2024 13:00:00,25.7808257,84.7446768,NO2,1,2,1
India,Bihar,Gaya,"Collectorate, Gaya - BSPCB",04-07-2024 13:00:00,24.7955,84.9994,PM2.5,12,78,49
India,Bihar,Gaya,"Collectorate, Gaya - BSPCB",04-07-2024 13:00:00,24.7955,84.9994,SO2,2,12,8
India,Bihar,Gaya,"Collectorate, Gaya - BSPCB",04-07-2024 13:00:00,24.7955,84.9994,CO,26,77,46
India,Bihar,Gaya,"Kareemganj, Gaya - BSPCB",04-07-2024 13:00:00,24.792403,84.992416,NO2,30,32,31
India,Bihar,Gaya,"Kareemganj, Gaya - BSPCB",04-07-2024 13:00:00,24.792403,84.992416,CO,20,76,40
India,Bihar,Kishanganj,"SDM Office_Khagra, Kishanganj - BSPCB",04-07-2024 13:00:00,26.0881305,87.93840336,PM10,12,41,22
India,Bihar,Kishanganj,"SDM Office_Khagra, Kishanganj - BSPCB",04-07-2024 13:00:00,26.0881305,87.93840336,NH3,5,7,6
India,Bihar,Kishanganj,"SDM Office_Khagra, Kishanganj - BSPCB",04-07-2024 13:00:00,26.0881305,87.93840336,SO2,NA,NA,NA
India,Bihar,Muzaffarpur,"Muzaffarpur Collectorate, Muzaffarpur - BSPCB",04-07-2024 13:00:00,26.1209,85.3647,CO,22,60,23
India,Bihar,Muzaffarpur,"Muzaffarpur Collectorate, Muzaffarpur - BSPCB",04-07-2024 13:00:00,26.1209,85.3647,OZONE,6,25,15
India,Bihar,Patna,"DRM Office Danapur, Patna - BSPCB",04-07-2024 13:00:00,25.586562,85.043586,NH3,2,3,3
India,Bihar,Patna,"DRM Office Danapur, Patna - BSPCB",04-07-2024 13:00:00,25.586562,85.043586,SO2,1,5,2
India,Bihar,Patna,"IGSC Planetarium Complex, Patna - BSPCB",04-07-2024 13:00:00,25.610369,85.132568,PM2.5,NA,NA,NA
India,Bihar,Patna,"Muradpur, Patna - BSPCB",04-07-2024 13:00:00,25.619651,85.147382,NH3,1,4,3
India,Bihar,Patna,"Rajbansi Nagar, Patna - BSPCB",04-07-2024 13:00:00,25.599486,85.113666,NO2,4,28,12
India,Bihar,Patna,"Samanpura, Patna - BSPCB",04-07-2024 13:00:00,25.596727,85.085624,PM2.5,24,59,41
India,Bihar,Patna,"Samanpura, Patna - BSPCB",04-07-2024 13:00:00,25.596727,85.085624,SO2,2,4,3
India,Bihar,Patna,"Samanpura, Patna - BSPCB",04-07-2024 13:00:00,25.596727,85.085624,OZONE,36,74,52
India,Bihar,Purnia,"Mariam Nagar, Purnia - BSPCB",04-07-2024 13:00:00,25.366336,87.117468,OZONE,NA,NA,NA
India,Bihar,Saharsa,"Police Line, Saharsa - BSPCB",04-07-2024 13:00:00,25.892357,86.590325,PM10,5,41,20
India,Bihar,Saharsa,"Police Line, Saharsa - BSPCB",04-07-2024 13:00:00,25.892357,86.590325,NO2,6,8,7
India,Bihar,Samastipur,"DM Office_Kasipur, Samastipur - BSPCB",04-07-2024 13:00:00,25.859655,85.77944,PM10,NA,NA,NA
India,Bihar,Sasaram,"Dada Peer, Sasaram - BSPCB",04-07-2024 13:00:00,24.952822,84.002396,CO,52,70,57
India,Bihar,Siwan,"Chitragupta Nagar, Siwan - BSPCB",04-07-2024 13:00:00,26.2271665,84.3570427,NH3,2,6,4
India,Bihar,Siwan,"Chitragupta Nagar, Siwan - BSPCB",04-07-2024 13:00:00,26.2271665,84.3570427,SO2,4,34,25
India,Chandigarh,Chandigarh,"Sector 22, Chandigarh - CPCC",04-07-2024 13:00:00,30.735567,76.775714,PM2.5,8,75,26
India,Chandigarh,Chandigarh,"Sector 22, Chandigarh - CPCC",04-07-2024 13:00:00,30.735567,76.775714,PM10,13,111,41
India,Chandigarh,Chandigarh,"Sector 22, Chandigarh - CPCC",04-07-2024 13:00:00,30.735567,76.775714,CO,30,47,42
India,Chandigarh,Chandigarh,"Sector-25, Chandigarh - CPCC",04-07-2024 13:00:00,30.751462,76.762879,PM10,38,92,57
India,Chandigarh,Chandigarh,"Sector-53, Chandigarh - CPCC",04-07-2024 13:00:00,30.719859,76.738637,PM2.5,2,80,26
India,Chandigarh,Chandigarh,"Sector-53, Chandigarh - CPCC",04-07-2024 13:00:00,30.719859,76.738637,NH3,2,18,9
India,Chandigarh,Chandigarh,"Sector-53, Chandigarh - CPCC",04-07-2024 13:00:00,30.719859,76.738637,CO,21,62,52
India,Chhattisgarh,Bhilai,"32Bungalows, Bhilai - CECB",04-07-2024 13:00:00,21.194815,81.314770,PM2.5,12,30,21
India,Chhattisgarh,Bhilai,"32Bungalows, Bhilai - CECB",04-07-2024 13:00:00,21.194815,81.314770,CO,6,13,8
India,Chhattisgarh,Bhilai,"Civic Center, Bhilai - Bhilai Steel Plant",04-07-2024 13:00:00,21.185571,81.343175,OZONE,12,27,17
India,Chhattisgarh,Bilaspur,"Mangala, Bilaspur - NTPC",04-07-2024 13:00:00,22.08815,82.13737,SO2,15,19,17
India,Chhattisgarh,Bilaspur,"Mangala, Bilaspur - NTPC",04-07-2024 13:00:00,22.08815,82.13737,CO,34,56,51
India,Chhattisgarh,Chhal,"Nawapara SECL Colony, Chhal - CECB",04-07-2024 13:00:00,22.118125,83.140608,NH3,2,2,2
India,Chhattisgarh,Kunjemura,"OP Jindal School, Kunjemura - CECB",04-07-2024 13:00:00,22.126650,83.483212,NH3,2,3,2
India,Chhattisgarh,Milupara,"Govt. Higher Secondary School, Milupara - CECB",04-07-2024 13:00:00,22.1910172,83.5197009,OZONE,87,145,120
India,Chhattisgarh,Raipur,"AIIMS, Raipur - CECB",04-07-2024 13:00:00,21.258815,81.578979,PM10,12,64,31
India,Chhattisgarh,Raipur,"AIIMS, Raipur - CECB",04-07-2024 13:00:00,21.258815,81.578979,OZONE,2,13,2
India,Chhattisgarh,Raipur,"Krishak Nagar, Raipur - CECB",04-07-2024 13:00:00,21.237755,81.705301,NH3,1,1,1
India,Chhattisgarh,Raipur,"Krishak Nagar, Raipur - CECB",04-07-2024 13:00:00,21.237755,81.705301,SO2,9,16,13
India,Chhattisgarh,Raipur,"Krishak Nagar, Raipur - CECB",04-07-2024 13:00:00,21.237755,81.705301,CO,11,26,13
India,Chhattisgarh,Raipur,"Siltara Phase-II, Raipur - CECB",04-07-2024 13:00:00,21.371751,81.664929,NO2,11,24,14
India,Chhattisgarh,Raipur,"Siltara Phase-II, Raipur - CECB",04-07-2024 13:00:00,21.371751,81.664929,NH3,3,3,3
India,Chhattisgarh,Raipur,"Siltara Phase-II, Raipur - CECB",04-07-2024 13:00:00,21.371751,81.664929,CO,10,30,12
India,Chhattisgarh,Tumidih,"OP Jindal Industrial Park, Tumidih - CECB",04-07-2024 13:00:00,22.06631475,83.33820077,NH3,NA,NA,NA
India,Chhattisgarh,Tumidih,"OP Jindal Industrial Park, Tumidih - CECB",04-07-2024 13:00:00,22.06631475,83.33820077,OZONE,13,14,14
India,Delhi,Delhi,"Alipur, Delhi - DPCC",04-07-2024 13:00:00,28.815329,77.153010,SO2,10,24,13
India,Delhi,Delhi,"Alipur, Delhi - DPCC",04-07-2024 13:00:00,28.815329,77.153010,CO,24,50,38
India,Delhi,Delhi,"Ashok Vihar, Delhi - DPCC",04-07-2024 13:00:00,28.695381,77.181665,NO2,30,84,45
India,Delhi,Delhi,"Ashok Vihar, Delhi - DPCC",04-07-2024 13:00:00,28.695381,77.181665,CO,22,70,37
India,Delhi,Delhi,"Bawana, Delhi - DPCC",04-07-2024 13:00:00,28.776200,77.051074,SO2,6,8,7
India,Delhi,Delhi,"Burari Crossing, Delhi - IMD",04-07-2024 13:00:00,28.7256504,77.2011573,PM10,26,146,56
India,Delhi,Delhi,"Burari Crossing, Delhi - IMD",04-07-2024 13:00:00,28.7256504,77.2011573,NO2,10,17,16
India,Delhi,Delhi,"CRRI Mathura Road, Delhi - IMD",04-07-2024 13:00:00,28.5512005,77.2735737,CO,26,68,38
India,Delhi,Delhi,"Dwarka-Sector 8, Delhi - DPCC ",04-07-2024 13:00:00,28.5710274,77.0719006,NO2,7,66,25
India,Delhi,Delhi,"Dwarka-Sector 8, Delhi - DPCC ",04-07-2024 13:00:00,28.5710274,77.0719006,CO,30,100,45
India,Delhi,Delhi,"ITO, Delhi - CPCB",04-07-2024 13:00:00,28.628624,77.241060,PM2.5,24,83,46
India,Delhi,Delhi,"ITO, Delhi - CPCB",04-07-2024 13:00:00,28.628624,77.241060,PM10,19,73,40
India,Delhi,Delhi,"ITO, Delhi - CPCB",04-07-2024 13:00:00,28.628624,77.241060,NH3,4,5,4
India,Delhi,Delhi,"Jahangirpuri, Delhi - DPCC",04-07-2024 13:00:00,28.732820,77.170633,PM10,53,354,119
India,Delhi,Delhi,"Jahangirpuri, Delhi - DPCC",04-07-2024 13:00:00,28.732820,77.170633,NO2,14,46,26
India,Delhi,Delhi,"Jahangirpuri, Delhi - DPCC",04-07-2024 13:00:00,28.732820,77.170633,SO2,24,31,27
India,Delhi,Delhi,"Jahangirpuri, Delhi - DPCC",04-07-2024 13:00:00,28.732820,77.170633,OZONE,2,18,5
India,Delhi,Delhi,"Major Dhyan Chand National Stadium, Delhi - DPCC",04-07-2024 13:00:00,28.611281,77.237738,PM2.5,13,110,41
India,Delhi,Delhi,"Major Dhyan Chand National Stadium, Delhi - DPCC",04-07-2024 13:00:00,28.611281,77.237738,SO2,3,9,6
India,Delhi,Delhi,"Mandir Marg, Delhi - DPCC",04-07-2024 13:00:00,28.636429,77.201067,CO,18,69,39
India,Delhi,Delhi,"Mundka, Delhi - DPCC",04-07-2024 13:00:00,28.684678,77.076574,NO2,37,161,67
India,Delhi,Delhi,"Najafgarh, Delhi - DPCC",04-07-2024 13:00:00,28.570173,76.933762,CO,21,50,46
India,Delhi,Delhi,"Narela, Delhi - DPCC",04-07-2024 13:00:00,28.822836,77.101981,PM10,38,167,74
India,Delhi,Delhi,"Nehru Nagar, Delhi - DPCC",04-07-2024 13:00:00,28.567890,77.250515,PM2.5,12,95,48
India,Delhi,Delhi,"Nehru Nagar, Delhi - DPCC",04-07-2024 13:00:00,28.567890,77.250515,NO2,20,95,35
India,Delhi,Delhi,"Okhla Phase-2, Delhi - DPCC",04-07-2024 13:00:00,28.530785,77.271255,NH3,6,21,11
India,Delhi,Delhi,"Okhla Phase-2, Delhi - DPCC",04-07-2024 13:00:00,28.530785,77.271255,OZONE,5,31,17
India,Delhi,Delhi,"Patparganj, Delhi - DPCC",04-07-2024 13:00:00,28.623763,77.287209,NO2,14,52,30
India,Delhi,Delhi,"Patparganj, Delhi - DPCC",04-07-2024 13:00:00,28.623763,77.287209,NH3,5,14,9
India,Delhi,Delhi,"Pusa, Delhi - DPCC",04-07-2024 13:00:00,28.639652,77.146275,PM10,8,112,48
India,Delhi,Delhi,"Pusa, Delhi - DPCC",04-07-2024 13:00:00,28.639652,77.146275,NH3,5,8,7
India,Delhi,Delhi,"Pusa, Delhi - DPCC",04-07-2024 13:00:00,28.639652,77.146275,CO,6,50,25
India,Delhi,Delhi,"R K Puram, Delhi - DPCC",04-07-2024 13:00:00,28.563262,77.186937,PM10,29,133,66
India,Delhi,Delhi,"R K Puram, Delhi - DPCC",04-07-2024 13:00:00,28.563262,77.186937,NH3,1,16,6
India,Delhi,Delhi,"R K Puram, Delhi - DPCC",04-07-2024 13:00:00,28.563262,77.186937,SO2,3,21,11
India,Delhi,Delhi,"Rohini, Delhi - DPCC",04-07-2024 13:00:00,28.732528,77.119920,NO2,16,65,34
India,Delhi,Delhi,"Shadipur, Delhi - CPCB",04-07-2024 13:00:00,28.6514781,77.1473105,PM10,27,125,52
India,Delhi,Delhi,"Shadipur, Delhi - CPCB",04-07-2024 13:00:00,28.6514781,77.1473105,OZONE,7,52,16
India,Delhi,Delhi,"Sirifort, Delhi - CPCB",04-07-2024 13:00:00,28.5504249,77.2159377,PM2.5,15,94,44
India,Delhi,Delhi,"Sonia Vihar, Delhi - DPCC",04-07-2024 13:00:00,28.710508,77.249485,PM2.5,10,150,64
India,Delhi,Delhi,"Sonia Vihar, Delhi - DPCC",04-07-2024 13:00:00,28.710508,77.249485,NO2,NA,NA,NA
India,Delhi,Delhi,"Sonia Vihar, Delhi - DPCC",04-07-2024 13:00:00,28.710508,77.249485,OZONE,7,159,62
India,Delhi,Delhi,"Vivek Vihar, Delhi - DPCC",04-07-2024 13:00:00,28.672342,77.315260,NO2,30,89,50
India,Delhi,Delhi,"Wazirpur, Delhi - DPCC",04-07-2024 13:00:00,28.699793,77.165453,PM10,44,255,107
India,Gujarat,Ahmedabad,"Chandkheda, Ahmedabad - IITM",04-07-2024 13:00:00,23.107969,72.574648,PM2.5,38,68,53
India,Gujarat,Ahmedabad,"Chandkheda, Ahmedabad - IITM",04-07-2024 13:00:00,23.107969,72.574648,NO2,9,54,22
India,Gujarat,Ahmedabad,"Gyaspur, Ahmedabad - IITM",04-07-2024 13:00:00,22.977134,72.553024,OZONE,8,45,16
India,Gujarat,Ahmedabad,"Maninagar, Ahmedabad - GPCB",04-07-2024 13:00:00,23.002657,72.591912,PM10,87,113,102
India,Gujarat,Ahmedabad,"Maninagar, Ahmedabad - GPCB",04-07-2024 13:00:00,23.002657,72.591912,NO2,27,104,43
India,Gujarat,Ahmedabad,"Maninagar, Ahmedabad - GPCB",04-07-2024 13:00:00,23.002657,72.591912,OZONE,7,67,26
India,Gujarat,Ahmedabad,"Raikhad, Ahmedabad - IITM",04-07-2024 13:00:00,23.020509,72.579261,CO,18,40,26
India,Gujarat,Ahmedabad,"Rakhial, Ahmedabad - IITM",04-07-2024 13:00:00,23.016834,72.625775,PM10,23,194,76
India,Gujarat,Ahmedabad,"SVPI Airport Hansol, Ahmedabad - IITM",04-07-2024 13:00:00,23.076793,72.627874,SO2,15,39,25
India,Gujarat,Ankleshwar,"GIDC, Ankleshwar - GPCB",04-07-2024 13:00:00,21.613267,73.010555,PM10,20,66,47
India,Gujarat,Gandhinagar,"Sector-10, Gandhinagar - GPCB",04-07-2024 13:00:00,23.221714,72.654328,PM2.5,31,64,48
India,Gujarat,Gandhinagar,"Sector-10, Gandhinagar - GPCB",04-07-2024 13:00:00,23.221714,72.654328,NH3,3,3,3
India,Gujarat,Vapi,"Phase-1 GIDC, Vapi - GPCB",04-07-2024 13:00:00,20.362421,72.918013,PM2.5,11,28,19
India,Gujarat,Vapi,"Phase-1 GIDC, Vapi - GPCB",04-07-2024 13:00:00,20.362421,72.918013,PM10,26,53,37
India,Gujarat,Vatva,"Phase-4 GIDC, Vatva - GPCB",04-07-2024 13:00:00,22.969611,72.643500,NO2,17,161,59
India,Haryana,Ambala,"Patti Mehar, Ambala - HSPCB",04-07-2024 13:00:00,30.379589,76.778328,PM10,NA,NA,NA
India,Haryana,Bahadurgarh,"Arya Nagar, Bahadurgarh - HSPCB",04-07-2024 13:00:00,28.6701,76.9254,CO,48,101,66
India,Haryana,Bhiwani,"H.B. Colony, Bhiwani - HSPCB",04-07-2024 13:00:00,28.806223,76.141105,PM2.5,28,59,43
India,Haryana,Bhiwani,"H.B. Colony, Bhiwani - HSPCB",04-07-2024 13:00:00,28.806223,76.141105,SO2,2,41,11
India,Haryana,Charkhi Dadri,"Mini Secretariat, Charkhi Dadri - HSPCB",04-07-2024 13:00:00,28.593883,76.270653,NH3,6,8,7
India,Haryana,Faridabad,"Sector 11, Faridabad - HSPCB",04-07-2024 13:00:00,28.376058,77.315741,PM2.5,21,132,42
India,Haryana,Faridabad,"Sector 30, Faridabad - HSPCB",04-07-2024 13:00:00,28.4417,77.3217,PM2.5,NA,NA,NA
India,Haryana,Faridabad,"Sector 30, Faridabad - HSPCB",04-07-2024 13:00:00,28.4417,77.3217,CO,21,90,26
India,Haryana,Faridabad,"Sector 30, Faridabad - HSPCB",04-07-2024 13:00:00,28.4417,77.3217,OZONE,57,62,61
India,Haryana,Gurugram,"NISE Gwal Pahari, Gurugram - IMD",04-07-2024 13:00:00,28.422681,77.148944,PM2.5,NA,NA,NA
India,Haryana,Hisar,"Urban Estate-II, Hisar - HSPCB",04-07-2024 13:00:00,29.140560,75.744941,NH3,3,4,4
India,Haryana,Jind,"Police Lines, Jind - HSPCB",04-07-2024 13:00:00,29.307814,76.337619,PM2.5,21,49,31
India,Haryana,Jind,"Police Lines, Jind - HSPCB",04-07-2024 13:00:00,29.307814,76.337619,NO2,7,17,11
India,Haryana,Kaithal,"Rishi Nagar, Kaithal - HSPCB",04-07-2024 13:00:00,29.8006,76.4155,NO2,24,26,25
India,Haryana,Kaithal,"Rishi Nagar, Kaithal - HSPCB",04-07-2024 13:00:00,29.8006,76.4155,NH3,8,8,8
India,Haryana,Kaithal,"Rishi Nagar, Kaithal - HSPCB",04-07-2024 13:00:00,29.8006,76.4155,CO,8,24,16
India,Haryana,Karnal,"Sector-12, Karnal - HSPCB",04-07-2024 13:00:00,29.695300,77.002700,SO2,12,13,12
India,Haryana,Mandikhera,"General Hospital, Mandikhera - HSPCB",04-07-2024 13:00:00,27.9002,76.9938,CO,20,42,27
India,Haryana,Panchkula,"Sector-6, Panchkula - HSPCB ",04-07-2024 13:00:00,30.7057778,76.8531805555555,PM2.5,20,319,66
India,Haryana,Panipat,"Sector-18, Panipat - HSPCB",04-07-2024 13:00:00,29.432304,76.972765,PM10,82,89,88
India,Haryana,Rohtak,"MD University, Rohtak - HSPCB",04-07-2024 13:00:00,28.52123,76.37138,PM2.5,2,254,78
India,Haryana,Sonipat,"Murthal, Sonipat - HSPCB",04-07-2024 13:00:00,29.027200,77.062100,NO2,37,44,40
India,Haryana,Sonipat,"Murthal, Sonipat - HSPCB",04-07-2024 13:00:00,29.027200,77.062100,SO2,12,29,20
India,Haryana,Yamuna Nagar,"Gobind Pura, Yamuna Nagar - HSPCB",04-07-2024 13:00:00,30.1480566,77.2893471,NH3,1,6,4
India,Haryana,Yamuna Nagar,"Gobind Pura, Yamuna Nagar - HSPCB",04-07-2024 13:00:00,30.1480566,77.2893471,OZONE,57,200,72
India,Jammu_and_Kashmir,Srinagar,"Rajbagh, Srinagar - JKSPCB",04-07-2024 13:00:00,34.066206,74.819820,NO2,3,6,6
India,Jammu_and_Kashmir,Srinagar,"Rajbagh, Srinagar - JKSPCB",04-07-2024 13:00:00,34.066206,74.819820,CO,20,28,22
India,Jharkhand,Dhanbad,"Sardar Patel Nagar, Dhanbad - JSPCB",04-07-2024 13:00:00,23.80569,86.44268,NO2,NA,NA,NA
India,Jharkhand,Pathardih,"Mohalbani Ghat, Pathardih - DMC",04-07-2024 13:00:00,23.669880,86.411725,PM2.5,NA,NA,NA
India,Jharkhand,Pathardih,"Mohalbani Ghat, Pathardih - DMC",04-07-2024 13:00:00,23.669880,86.411725,CO,4,6,5
India,Karnataka,Bagalkot,"Vidayagiri, Bagalkot - KSPCB",04-07-2024 13:00:00,16.172806,75.659694,PM2.5,27,41,39
India,Karnataka,Belgaum,"Ramteerth Nagar, Belgaum - KSPCB",04-07-2024 13:00:00,15.888653,74.541751,NH3,5,9,7
India,Karnataka,Belgaum,"Ramteerth Nagar, Belgaum - KSPCB",04-07-2024 13:00:00,15.888653,74.541751,OZONE,19,20,20
India,Karnataka,Bengaluru,"Bapuji Nagar, Bengaluru - KSPCB",04-07-2024 13:00:00,12.951913,77.539784,PM10,15,76,37
India,Karnataka,Bengaluru,"Bapuji Nagar, Bengaluru - KSPCB",04-07-2024 13:00:00,12.951913,77.539784,CO,16,28,25
India,Karnataka,Bengaluru,"Hebbal, Bengaluru - KSPCB",04-07-2024 13:00:00,13.029152,77.585901,NO2,5,8,6
India,Karnataka,Bengaluru,"Hebbal, Bengaluru - KSPCB",04-07-2024 13:00:00,13.029152,77.585901,SO2,18,27,22
India,Karnataka,Bengaluru,"Hebbal, Bengaluru - KSPCB",04-07-2024 13:00:00,13.029152,77.585901,OZONE,6,18,8
India,Karnataka,Bengaluru,"Hombegowda Nagar, Bengaluru - KSPCB",04-07-2024 13:00:00,12.938539,77.590100,PM2.5,7,28,17
India,Karnataka,Bengaluru,"Jayanagar 5th Block, Bengaluru - KSPCB",04-07-2024 13:00:00,12.920984,77.584908,CO,20,22,21
India,Karnataka,Bengaluru,"Jigani, Bengaluru - KSPCB",04-07-2024 13:00:00,12.7816279,77.6299145,NO2,33,34,34
India,Karnataka,Bengaluru,"Jigani, Bengaluru - KSPCB",04-07-2024 13:00:00,12.7816279,77.6299145,CO,27,42,40
India,Karnataka,Bengaluru,"Kasturi Nagar, Bengaluru - KSPCB",04-07-2024 13:00:00,13.003872,77.664217,PM2.5,27,29,28
India,Karnataka,Bengaluru,"Kasturi Nagar, Bengaluru - KSPCB",04-07-2024 13:00:00,13.003872,77.664217,NH3,3,4,4
India,Karnataka,Bengaluru,"Kasturi Nagar, Bengaluru - KSPCB",04-07-2024 13:00:00,13.003872,77.664217,SO2,9,10,10
India,Karnataka,Bengaluru,"Sanegurava Halli, Bengaluru - KSPCB",04-07-2024 13:00:00,12.990328,77.5431385,PM10,34,61,37
India,Karnataka,Bengaluru,"Shivapura_Peenya, Bengaluru - KSPCB",04-07-2024 13:00:00,13.0246342,77.5080115,NO2,15,16,15
India,Karnataka,Bengaluru,"Shivapura_Peenya, Bengaluru - KSPCB",04-07-2024 13:00:00,13.0246342,77.5080115,OZONE,54,56,54
India,Karnataka,Bidar,"Naubad, Bidar - KSPCB",04-07-2024 13:00:00,17.930306,77.482194,CO,50,76,64
India,Karnataka,Chikkamagaluru,"Kalyana Nagara, Chikkamagaluru - KSPCB",04-07-2024 13:00:00,13.328028,75.797056,NO2,12,28,19
India,Karnataka,Chikkamagaluru,"Kalyana Nagara, Chikkamagaluru - KSPCB",04-07-2024 13:00:00,13.328028,75.797056,SO2,1,4,2
India,Karnataka,Davanagere,"Devaraj Urs Badavane, Davanagere - KSPCB",04-07-2024 13:00:00,14.475800,75.905200,PM2.5,5,22,14
India,Karnataka,Davanagere,"Devaraj Urs Badavane, Davanagere - KSPCB",04-07-2024 13:00:00,14.475800,75.905200,PM10,4,26,15
India,Karnataka,Davanagere,"Devaraj Urs Badavane, Davanagere - KSPCB",04-07-2024 13:00:00,14.475800,75.905200,CO,18,20,19
India,Karnataka,Dharwad,"Kalabhavan, Dharwad - KSPCB",04-07-2024 13:00:00,15.459706,75.008381,NO2,12,20,17
India,Karnataka,Gadag,"Panchal Nagar, Gadag - KSPCB",04-07-2024 13:00:00,15.411456,75.638133,CO,44,50,45
India,Karnataka,Hubballi,"Lingaraj Nagar, Hubballi - KSPCB",04-07-2024 13:00:00,15.3714823,75.1160168,SO2,1,19,2
India,Karnataka,Hubballi,"Lingaraj Nagar, Hubballi - KSPCB",04-07-2024 13:00:00,15.3714823,75.1160168,OZONE,10,21,13
India,Karnataka,Kalaburagi,"Lal Bahadur Shastri Nagar, Kalaburagi - KSPCB",04-07-2024 13:00:00,17.321993,76.822628,PM2.5,6,53,21
India,Karnataka,Kalaburagi,"Lal Bahadur Shastri Nagar, Kalaburagi - KSPCB",04-07-2024 13:00:00,17.321993,76.822628,CO,32,34,32
India,Karnataka,Kalaburagi,"Lal Bahadur Shastri Nagar, Kalaburagi - KSPCB",04-07-2024 13:00:00,17.321993,76.822628,OZONE,3,9,4
India,Karnataka,Kalaburagi,"Mahatma Basaveswar Colony, Kalaburgi - KSPCB",04-07-2024 13:00:00,17.336318,76.847397,NH3,3,4,3
India,Karnataka,Kalaburagi,"Mahatma Basaveswar Colony, Kalaburgi - KSPCB",04-07-2024 13:00:00,17.336318,76.847397,OZONE,3,10,5
India,Karnataka,Karwar,"KHB Colony, Karwar - KSPCB",04-07-2024 13:00:00,14.816666,74.141003,PM10,10,53,26
India,Karnataka,Madikeri,"Stuart Hill, Madikeri - KSPCB",04-07-2024 13:00:00,12.415911,75.735050,PM2.5,8,29,17
India,Karnataka,Madikeri,"Stuart Hill, Madikeri - KSPCB",04-07-2024 13:00:00,12.415911,75.735050,SO2,4,4,4
India,Karnataka,Madikeri,"Stuart Hill, Madikeri - KSPCB",04-07-2024 13:00:00,12.415911,75.735050,CO,5,34,14
India,Karnataka,Raichur,"Haji Colony, Raichur - KSPCB",04-07-2024 13:00:00,16.208139,77.348417,NO2,6,21,13
India,Karnataka,Shivamogga,"Vinoba Nagara, Shivamogga - KSPCB",04-07-2024 13:00:00,13.940000,75.555917,SO2,3,10,6
India,Karnataka,Shivamogga,"Vinoba Nagara, Shivamogga - KSPCB",04-07-2024 13:00:00,13.940000,75.555917,OZONE,13,38,27
India,Karnataka,Tumakuru,"Thimmalapura, Tumakuru - KSPCB",04-07-2024 13:00:00,13.377516,77.099072,PM10,41,126,92
India,Karnataka,Tumakuru,"Thimmalapura, Tumakuru - KSPCB",04-07-2024 13:00:00,13.377516,77.099072,SO2,7,9,7
India,Karnataka,Udupi,"Brahmagiri, Udupi - KSPCB",04-07-2024 13:00:00,13.34194444,74.74694444,OZONE,23,23,23
India,Karnataka,Vijayapura,"Ibrahimpur, Vijayapura - KSPCB",04-07-2024 13:00:00,16.802639,75.722694,PM2.5,26,31,30
India,Karnataka,Vijayapura,"Ibrahimpur, Vijayapura - KSPCB",04-07-2024 13:00:00,16.802639,75.722694,PM10,42,43,43
India,Karnataka,Vijayapura,"Ibrahimpur, Vijayapura - KSPCB",04-07-2024 13:00:00,16.802639,75.722694,NH3,2,2,2
India,Karnataka,Yadgir,"Collector Office, Yadgir - KSPCB",04-07-2024 13:00:00,16.7602,77.1428,PM2.5,7,20,12
India,Kerala,Eloor,"Udyogamandal, Eloor - Kerala PCB",04-07-2024 13:00:00,10.073232,76.302765,PM10,40,51,43
India,Kerala,Eloor,"Udyogamandal, Eloor - Kerala PCB",04-07-2024 13:00:00,10.073232,76.302765,NH3,1,1,1
India,Kerala,Kannur,"Thavakkara, Kannur - Kerala PCB",04-07-2024 13:00:00,11.875000,75.373200,PM2.5,42,48,45
India,Kerala,Kannur,"Thavakkara, Kannur - Kerala PCB",04-07-2024 13:00:00,11.875000,75.373200,CO,64,72,69
India,Kerala,Kollam,"Polayathode, Kollam - Kerala PCB",04-07-2024 13:00:00,8.8787,76.6073,SO2,NA,NA,NA
India,Kerala,Thiruvananthapuram,"Kariavattom, Thiruvananthapuram - Kerala PCB",04-07-2024 13:00:00,8.563700,76.886500,OZONE,36,37,36
India,Kerala,Thiruvananthapuram,"Plammoodu, Thiruvananthapuram - Kerala PCB",04-07-2024 13:00:00,8.5149093,76.9435879,NH3,1,1,1
India,Kerala,Thiruvananthapuram,"Plammoodu, Thiruvananthapuram - Kerala PCB",04-07-2024 13:00:00,8.5149093,76.9435879,CO,12,30,17
India,Kerala,Thrissur,"Corporation Ground, Thrissur - Kerala PCB",04-07-2024 13:00:00,10.532400,76.215900,PM2.5,33,40,36
India,Kerala,Thrissur,"Corporation Ground, Thrissur - Kerala PCB",04-07-2024 13:00:00,10.532400,76.215900,CO,37,40,40
India,Madhya Pradesh,Bhopal,"Idgah Hills, Bhopal - MPPCB",04-07-2024 13:00:00,23.264759,77.381568,NO2,6,30,14
India,Madhya Pradesh,Bhopal,"Idgah Hills, Bhopal - MPPCB",04-07-2024 13:00:00,23.264759,77.381568,OZONE,12,24,17
India,Madhya Pradesh,Bhopal,"Paryavaran Parisar, Bhopal - MPPCB",04-07-2024 13:00:00,23.210494,77.425409,PM2.5,12,40,26
India,Madhya Pradesh,Bhopal,"T T Nagar, Bhopal - MPPCB",04-07-2024 13:00:00,23.233584,77.400574,PM10,24,76,50
India,Madhya Pradesh,Dewas,"Bhopal Chauraha, Dewas - MPPCB",04-07-2024 13:00:00,22.9682591,76.064118,OZONE,11,56,20
India,Madhya Pradesh,Gwalior,"City Center, Gwalior - MPPCB",04-07-2024 13:00:00,26.203442,78.193251,NH3,3,4,3
India,Madhya Pradesh,Gwalior,"City Center, Gwalior - MPPCB",04-07-2024 13:00:00,26.203442,78.193251,SO2,27,83,50
India,Madhya Pradesh,Gwalior,"Deen Dayal Nagar, Gwalior - MPPCB",04-07-2024 13:00:00,26.259242,78.216432,PM2.5,17,83,37
India,Madhya Pradesh,Gwalior,"Deen Dayal Nagar, Gwalior - MPPCB",04-07-2024 13:00:00,26.259242,78.216432,PM10,11,106,40
India,Madhya Pradesh,Gwalior,"Maharaj Bada, Gwalior - MPPCB",04-07-2024 13:00:00,26.200388,78.147714,PM2.5,8,27,16
India,Madhya Pradesh,Gwalior,"Maharaj Bada, Gwalior - MPPCB",04-07-2024 13:00:00,26.200388,78.147714,PM10,13,263,48
India,Madhya Pradesh,Gwalior,"Maharaj Bada, Gwalior - MPPCB",04-07-2024 13:00:00,26.200388,78.147714,NH3,1,16,6
India,Madhya Pradesh,Gwalior,"Maharaj Bada, Gwalior - MPPCB",04-07-2024 13:00:00,26.200388,78.147714,SO2,2,14,6
India,Madhya Pradesh,Indore,"Chhoti Gwaltoli, Indore - MPPCB",04-07-2024 13:00:00,22.4310,75.5213,PM2.5,28,55,43
India,Madhya Pradesh,Indore,"Chhoti Gwaltoli, Indore - MPPCB",04-07-2024 13:00:00,22.4310,75.5213,NO2,34,53,43
India,Madhya Pradesh,Indore,"Chhoti Gwaltoli, Indore - MPPCB",04-07-2024 13:00:00,22.4310,75.5213,NH3,2,4,4
India,Madhya Pradesh,Indore,"Maguda Nagar, Indore - IMC",04-07-2024 13:00:00,22.7524,75.8872,NH3,NA,NA,NA
India,Madhya Pradesh,Indore,"Regional Park, Indore - IMC",04-07-2024 13:00:00,22.6780,75.8559,PM10,18,34,27
India,Madhya Pradesh,Indore,"Regional Park, Indore - IMC",04-07-2024 13:00:00,22.6780,75.8559,SO2,39,40,40
India,Madhya Pradesh,Indore,"Residency Area, Indore - IMC",04-07-2024 13:00:00,22.7084,75.8815,PM2.5,17,36,26
India,Madhya Pradesh,Indore,"Residency Area, Indore - IMC",04-07-2024 13:00:00,22.7084,75.8815,PM10,18,51,38
India,Madhya Pradesh,Jabalpur,"Govindh Bhavan Colony, Jabalpur - JMC",04-07-2024 13:00:00,23.163174,79.973061,PM10,16,46,30
India,Madhya Pradesh,Jabalpur,"Govindh Bhavan Colony, Jabalpur - JMC",04-07-2024 13:00:00,23.163174,79.973061,NH3,4,4,4
India,Madhya Pradesh,Jabalpur,"Gupteshwar, Jabalpur - JMC",04-07-2024 13:00:00,23.142888,79.916147,NH3,4,4,4
India,Madhya Pradesh,Jabalpur,"Gupteshwar, Jabalpur - JMC",04-07-2024 13:00:00,23.142888,79.916147,OZONE,15,38,18
India,Madhya Pradesh,Jabalpur,"Marhatal, Jabalpur - MPPCB",04-07-2024 13:00:00,23.168606,79.932247,PM10,32,75,49
India,Madhya Pradesh,Katni,"Gole Bazar, Katni - MPPCB",04-07-2024 13:00:00,23.50016,80.23284,CO,18,45,37
India,Madhya Pradesh,Mandideep,"Sector-D Industrial Area, Mandideep - MPPCB",04-07-2024 13:00:00,23.108440,77.511428,SO2,2,66,11
India,Madhya Pradesh,Mandideep,"Sector-D Industrial Area, Mandideep - MPPCB",04-07-2024 13:00:00,23.108440,77.511428,OZONE,50,79,72
India,Madhya Pradesh,Pithampur,"Sector-2 Industrial Area, Pithampur - MPPCB",04-07-2024 13:00:00,22.624758,75.675238,SO2,14,17,15
India,Madhya Pradesh,Sagar,"Civil Lines, Sagar - MPPCB",04-07-2024 13:00:00,23.838586,78.759431,OZONE,30,54,43
India,Madhya Pradesh,Satna,"Bandhavgar Colony, Satna - Birla Cement",04-07-2024 13:00:00,24.58434363,80.8549414,OZONE,8,65,39
India,Madhya Pradesh,Singrauli,"Suryakiran Bhawan NCL, Singrauli - MPPCB",04-07-2024 13:00:00,24.108970,82.645580,PM2.5,NA,NA,NA
India,Madhya Pradesh,Singrauli,"Suryakiran Bhawan NCL, Singrauli - MPPCB",04-07-2024 13:00:00,24.108970,82.645580,PM10,NA,NA,NA
India,Madhya Pradesh,Ujjain,"Mahakaleshwar Temple, Ujjain - MPPCB",04-07-2024 13:00:00,23.182719 ,75.768218 ,OZONE,55,63,58
India,Maharashtra,Ahmednagar,"Tarakpur, Ahmednagar - MPCB",04-07-2024 13:00:00,19.10122,74.73339,NO2,7,14,11
India,Maharashtra,Akola,"Ramdaspeth, Akola - MPCB",04-07-2024 13:00:00,20.719516,77.000253,NH3,5,9,6
India,Maharashtra,Amravati,"Shivneri Colony, Amravati - MPCB",04-07-2024 13:00:00,20.9402359,77.7895248,NH3,2,3,3
India,Maharashtra,Amravati,"Shivneri Colony, Amravati - MPCB",04-07-2024 13:00:00,20.9402359,77.7895248,CO,6,26,10
India,Maharashtra,Amravati,"Shivneri Colony, Amravati - MPCB",04-07-2024 13:00:00,20.9402359,77.7895248,OZONE,4,37,10
India,Maharashtra,Amravati,"Shri Shivaji Science College, Amaravati - MPCB",04-07-2024 13:00:00,20.939198,77.765701,PM2.5,14,37,26
India,Maharashtra,Amravati,"Shri Shivaji Science College, Amaravati - MPCB",04-07-2024 13:00:00,20.939198,77.765701,NH3,2,3,2
India,Maharashtra,Amravati,"Shri Shivaji Science College, Amaravati - MPCB",04-07-2024 13:00:00,20.939198,77.765701,CO,15,42,17
India,Maharashtra,Aurangabad,"MIDC Chilkalthana, Aurangabad - MPCB",04-07-2024 13:00:00,19.875620,75.387310,NH3,5,6,5
India,Maharashtra,Aurangabad,"More Chowk Waluj, Aurangabad - MPCB",04-07-2024 13:00:00,19.8389439,75.244448,NH3,2,4,3
India,Maharashtra,Badlapur,"Katrap, Badlapur - MPCB",04-07-2024 13:00:00,19.16485,73.23409,PM2.5,16,41,27
India,Maharashtra,Badlapur,"Katrap, Badlapur - MPCB",04-07-2024 13:00:00,19.16485,73.23409,SO2,6,12,9
India,Maharashtra,Belapur,"CBD Belapur, Belapur - MPCB",04-07-2024 13:00:00,19.0243902,73.0406721,PM10,34,78,54
India,Maharashtra,Bhiwandi,"Gokul Nagar, Bhiwandi - MPCB",04-07-2024 13:00:00,19.309073,73.057223,CO,10,34,15
India,Maharashtra,Boisar,"Khaira, Boisar - MPCB",04-07-2024 13:00:00,19.786089,72.757971,PM2.5,31,50,41
India,Maharashtra,Boisar,"Khaira, Boisar - MPCB",04-07-2024 13:00:00,19.786089,72.757971,NH3,2,7,4
India,Maharashtra,Chandrapur,"Chauhan Colony, Chandrapur - MPCB",04-07-2024 13:00:00,19.962900,79.298714,CO,26,28,27
India,Maharashtra,Chandrapur,"MIDC Khutala, Chandrapur - MPCB",04-07-2024 13:00:00,19.9775302,79.2337086,PM10,17,57,38
India,Maharashtra,Chandrapur,"MIDC Khutala, Chandrapur - MPCB",04-07-2024 13:00:00,19.9775302,79.2337086,NH3,5,12,9
India,Maharashtra,Dhule,"Deopur, Dhule - MPCB",04-07-2024 13:00:00,20.918946,74.776388,NO2,8,103,22
India,Maharashtra,Jalna,"Old MIDC, Jalna - MPCB",04-07-2024 13:00:00,19.854616,75.905894,OZONE,15,47,20
India,Maharashtra,Kalyan,"Khadakpada, Kalyan - MPCB",04-07-2024 13:00:00,19.25292,73.142019,NO2,21,33,28
India,Maharashtra,Kalyan,"Khadakpada, Kalyan - MPCB",04-07-2024 13:00:00,19.25292,73.142019,CO,12,18,15
India,Maharashtra,Kolhapur,"Shivaji University, Kolhapur - MPCB",04-07-2024 13:00:00,16.6870449,74.2505872,PM2.5,15,53,28
India,Maharashtra,Kolhapur,"Sinchan Bhavan, Kolhapur - MPCB",04-07-2024 13:00:00,16.7143745,74.2426398,PM2.5,14,35,20
India,Maharashtra,Kolhapur,"Sinchan Bhavan, Kolhapur - MPCB",04-07-2024 13:00:00,16.7143745,74.2426398,PM10,21,55,39
India,Maharashtra,Kolhapur,"Sinchan Bhavan, Kolhapur - MPCB",04-07-2024 13:00:00,16.7143745,74.2426398,SO2,1,3,1
India,Maharashtra,Latur,"Sawe Wadi, Latur - MPCB",04-07-2024 13:00:00,18.39963,76.57452,SO2,2,7,4
India,Maharashtra,Latur,"Sawe Wadi, Latur - MPCB",04-07-2024 13:00:00,18.39963,76.57452,CO,4,19,11
India,Maharashtra,Mahad,"Kamble Tarf Birwadi, Mahad - MPCB",04-07-2024 13:00:00,18.1023399,73.4783687,CO,11,28,15
India,Maharashtra,Mira-Bhayandar,"Bhayandar West, Mira-Bhayandar - MPCB",04-07-2024 13:00:00,19.296481,72.840923,PM10,34,46,42
India,Maharashtra,Mumbai,"Bandra Kurla Complex, Mumbai - MPCB",04-07-2024 13:00:00,19.065931,72.862131,NH3,5,14,8
India,Maharashtra,Mumbai,"Bandra Kurla Complex, Mumbai - MPCB",04-07-2024 13:00:00,19.065931,72.862131,SO2,2,4,3
India,Maharashtra,Mumbai,"Borivali East, Mumbai - IITM",04-07-2024 13:00:00,19.23241,72.86895,PM2.5,16,40,26
India,Maharashtra,Mumbai,"Borivali East, Mumbai - MPCB",04-07-2024 13:00:00,19.2243333,72.8658113,PM2.5,2,10,5
India,Maharashtra,Mumbai,"Byculla, Mumbai - BMC",04-07-2024 13:00:00,18.9767,72.8380,NO2,14,29,21
India,Maharashtra,Mumbai,"Byculla, Mumbai - BMC",04-07-2024 13:00:00,18.9767,72.8380,CO,6,14,14
India,Maharashtra,Mumbai,"Chakala-Andheri East, Mumbai - IITM",04-07-2024 13:00:00,19.11074,72.86084,PM2.5,13,64,47
India,Maharashtra,Mumbai,"Chembur, Mumbai - MPCB",04-07-2024 13:00:00,19.0364585,72.8954371,PM2.5,15,40,26
India,Maharashtra,Mumbai,"Chembur, Mumbai - MPCB",04-07-2024 13:00:00,19.0364585,72.8954371,PM10,30,59,46
India,Maharashtra,Mumbai,"Chembur, Mumbai - MPCB",04-07-2024 13:00:00,19.0364585,72.8954371,CO,27,32,30
India,Maharashtra,Mumbai,"Chhatrapati Shivaji Intl. Airport (T2), Mumbai - MPCB",04-07-2024 13:00:00,19.10078,72.87462,PM2.5,20,43,28
India,Maharashtra,Mumbai,"Chhatrapati Shivaji Intl. Airport (T2), Mumbai - MPCB",04-07-2024 13:00:00,19.10078,72.87462,NO2,9,13,11
India,Maharashtra,Mumbai,"Chhatrapati Shivaji Intl. Airport (T2), Mumbai - MPCB",04-07-2024 13:00:00,19.10078,72.87462,OZONE,12,13,12
India,Maharashtra,Mumbai,"Deonar, Mumbai - IITM",04-07-2024 13:00:00,19.04946,72.9230,PM10,43,68,55
India,Maharashtra,Mumbai,"Deonar, Mumbai - IITM",04-07-2024 13:00:00,19.04946,72.9230,NH3,4,5,5
India,Maharashtra,Mumbai,"Deonar, Mumbai - IITM",04-07-2024 13:00:00,19.04946,72.9230,OZONE,5,19,13
India,Maharashtra,Mumbai,"Ghatkopar, Mumbai - BMC",04-07-2024 13:00:00,19.083694,72.920967,PM2.5,5,13,9
India,Maharashtra,Mumbai,"Kandivali East, Mumbai - MPCB",04-07-2024 13:00:00,19.205800,72.868200,SO2,6,7,7
India,Maharashtra,Mumbai,"Kherwadi_Bandra East, Mumbai - MPCB",04-07-2024 13:00:00,19.0632143,72.8456324,PM2.5,25,42,32
India,Maharashtra,Mumbai,"Khindipada-Bhandup West, Mumbai - IITM",04-07-2024 13:00:00,19.1653323,72.922099,OZONE,7,33,11
India,Maharashtra,Mumbai,"Kurla, Mumbai - MPCB",04-07-2024 13:00:00,19.0863,72.8888,SO2,32,32,32
India,Maharashtra,Mumbai,"Malad West, Mumbai - IITM",04-07-2024 13:00:00,19.19709,72.82204,OZONE,5,16,9
India,Maharashtra,Mumbai,"Mindspace-Malad West, Mumbai - MPCB",04-07-2024 13:00:00,19.1878657,72.8304069,PM10,40,58,48
India,Maharashtra,Mumbai,"Mindspace-Malad West, Mumbai - MPCB",04-07-2024 13:00:00,19.1878657,72.8304069,SO2,NA,NA,NA
India,Maharashtra,Mumbai,"Mindspace-Malad West, Mumbai - MPCB",04-07-2024 13:00:00,19.1878657,72.8304069,CO,10,22,10
India,Maharashtra,Mumbai,"Mulund West, Mumbai - MPCB",04-07-2024 13:00:00,19.1750,72.9419,NO2,18,19,19
India,Maharashtra,Mumbai,"Mulund West, Mumbai - MPCB",04-07-2024 13:00:00,19.1750,72.9419,NH3,10,10,10
India,Maharashtra,Mumbai,"Powai, Mumbai - MPCB",04-07-2024 13:00:00,19.137500,72.915056,NH3,2,3,2
India,Maharashtra,Mumbai,"Powai, Mumbai - MPCB",04-07-2024 13:00:00,19.137500,72.915056,OZONE,4,8,6
India,Maharashtra,Mumbai,"Sewri, Mumbai - BMC",04-07-2024 13:00:00,19.000084,72.856730,NO2,5,9,7
India,Maharashtra,Mumbai,"Shivaji Nagar, Mumbai - BMC",04-07-2024 13:00:00,19.060498,72.923356,SO2,1,11,6
India,Maharashtra,Mumbai,"Siddharth Nagar-Worli, Mumbai - IITM",04-07-2024 13:00:00,19.000083,72.813993,NO2,1,8,2
India,Maharashtra,Mumbai,"Siddharth Nagar-Worli, Mumbai - IITM",04-07-2024 13:00:00,19.000083,72.813993,CO,28,72,45
India,Maharashtra,Mumbai,"Sion, Mumbai - MPCB",04-07-2024 13:00:00,19.047000,72.874600,PM2.5,68,68,68
India,Maharashtra,Mumbai,"Sion, Mumbai - MPCB",04-07-2024 13:00:00,19.047000,72.874600,NH3,1,2,2
India,Maharashtra,Mumbai,"Sion, Mumbai - MPCB",04-07-2024 13:00:00,19.047000,72.874600,CO,26,33,29
India,Maharashtra,Mumbai,"Sion, Mumbai - MPCB",04-07-2024 13:00:00,19.047000,72.874600,OZONE,24,34,27
India,Maharashtra,Mumbai,"Vasai West, Mumbai - MPCB",04-07-2024 13:00:00,19.383200,72.820400,NO2,25,28,27
India,Maharashtra,Mumbai,"Vasai West, Mumbai - MPCB",04-07-2024 13:00:00,19.383200,72.820400,NH3,4,4,4
India,Maharashtra,Mumbai,"Vasai West, Mumbai - MPCB",04-07-2024 13:00:00,19.383200,72.820400,CO,11,32,14
India,Maharashtra,Mumbai,"Vile Parle West, Mumbai - MPCB",04-07-2024 13:00:00,19.10861,72.83622,NH3,11,11,11
India,Maharashtra,Mumbai,"Worli, Mumbai - MPCB",04-07-2024 13:00:00,18.9936162,72.8128113,PM2.5,22,34,29
India,Maharashtra,Mumbai,"Worli, Mumbai - MPCB",04-07-2024 13:00:00,18.9936162,72.8128113,SO2,12,12,12
India,Maharashtra,Nagpur,"Ambazari, Nagpur - MPCB",04-07-2024 13:00:00,21.121801,79.04952,NO2,1,32,15
India,Maharashtra,Nagpur,"Ambazari, Nagpur - MPCB",04-07-2024 13:00:00,21.121801,79.04952,NH3,1,8,2
India,Maharashtra,Nagpur,"Opp GPO Civil Lines, Nagpur - MPCB",04-07-2024 13:00:00,21.152875,79.0517531,CO,12,38,12
India,Maharashtra,Nagpur,"Ram Nagar, Nagpur - MPCB",04-07-2024 13:00:00,21.143383,79.048912,NO2,3,23,9
India,Maharashtra,Nagpur,"Ram Nagar, Nagpur - MPCB",04-07-2024 13:00:00,21.143383,79.048912,SO2,3,15,11
India,Maharashtra,Nanded,"Sneh Nagar, Nanded - MPCB",04-07-2024 13:00:00,19.173852,77.296291,PM2.5,NA,NA,NA
India,Maharashtra,Nashik,"Hirawadi, Nashik - MPCB",04-07-2024 13:00:00,20.021503,73.813844,SO2,2,9,5
India,Maharashtra,Nashik,"MIDC Ambad, Nashik - MPCB",04-07-2024 13:00:00,19.950220,73.731480,PM2.5,21,50,37
India,Maharashtra,Nashik,"MIDC Ambad, Nashik - MPCB",04-07-2024 13:00:00,19.950220,73.731480,SO2,7,11,10
India,Maharashtra,Nashik,"Pandav Nagari, Nashik - MPCB",04-07-2024 13:00:00,19.9591346,73.7788008,PM2.5,18,53,35
India,Maharashtra,Nashik,"Pandav Nagari, Nashik - MPCB",04-07-2024 13:00:00,19.9591346,73.7788008,NH3,3,9,6
India,Maharashtra,Nashik,"Pandav Nagari, Nashik - MPCB",04-07-2024 13:00:00,19.9591346,73.7788008,SO2,5,11,8
India,Maharashtra,Navi Mumbai,"Mahape, Navi Mumbai - MPCB",04-07-2024 13:00:00,19.1135051,73.008978,SO2,15,15,15
India,Maharashtra,Navi Mumbai,"Mahape, Navi Mumbai - MPCB",04-07-2024 13:00:00,19.1135051,73.008978,OZONE,17,19,18
India,Maharashtra,Navi Mumbai,"Sanpada, Navi Mumbai - MPCB",04-07-2024 13:00:00,19.0575752,73.0151367,NH3,4,5,4
India,Maharashtra,Navi Mumbai,"Sanpada, Navi Mumbai - MPCB",04-07-2024 13:00:00,19.0575752,73.0151367,SO2,1,5,2
India,Maharashtra,Navi Mumbai,"Sector-19A Nerul, Navi Mumbai - IITM",04-07-2024 13:00:00,19.044,73.0325,PM10,12,43,26
India,Maharashtra,Navi Mumbai,"Sector-19A Nerul, Navi Mumbai - IITM",04-07-2024 13:00:00,19.044,73.0325,NO2,13,17,15
India,Maharashtra,Navi Mumbai,"Sector-19A Nerul, Navi Mumbai - IITM",04-07-2024 13:00:00,19.044,73.0325,NH3,13,18,16
India,Maharashtra,Navi Mumbai,"Sector-19A Nerul, Navi Mumbai - IITM",04-07-2024 13:00:00,19.044,73.0325,OZONE,4,10,7
India,Maharashtra,Navi Mumbai,"Tondare-Taloja, Navi Mumbai - MPCB",04-07-2024 13:00:00,19.0630,73.1209,PM10,57,102,73
India,Maharashtra,Navi Mumbai,"Tondare-Taloja, Navi Mumbai - MPCB",04-07-2024 13:00:00,19.0630,73.1209,OZONE,1,99,21
India,Maharashtra,Pimpri-Chinchwad,"Gavalinagar, Pimpri Chinchwad - MPCB",04-07-2024 13:00:00,18.63673,73.82487,PM2.5,11,39,24
India,Maharashtra,Pimpri-Chinchwad,"Park Street Wakad, Pimpri Chinchwad - MPCB",04-07-2024 13:00:00,18.59051,73.77946,NO2,6,18,11
India,Maharashtra,Pimpri-Chinchwad,"Park Street Wakad, Pimpri Chinchwad - MPCB",04-07-2024 13:00:00,18.59051,73.77946,OZONE,4,11,7
India,Maharashtra,Pune,"Karve Road, Pune - MPCB",04-07-2024 13:00:00,18.5011743,73.8165527,CO,NA,NA,NA
India,Maharashtra,Pune,"Katraj Dairy, Pune - MPCB",04-07-2024 13:00:00,18.454450,73.854155,PM10,NA,NA,NA
India,Maharashtra,Pune,"Katraj Dairy, Pune - MPCB",04-07-2024 13:00:00,18.454450,73.854155,NH3,NA,NA,NA
India,Maharashtra,Pune,"Mhada Colony, Pune - IITM",04-07-2024 13:00:00,18.573040,73.927715,NO2,31,92,43
India,Maharashtra,Pune,"Revenue Colony-Shivajinagar, Pune - IITM",04-07-2024 13:00:00,18.530085,73.849598,PM2.5,10,73,38
India,Maharashtra,Pune,"Savitribai Phule Pune University, Pune - MPCB",04-07-2024 13:00:00,18.547056,73.826908,NO2,9,23,13
India,Maharashtra,Pune,"Savitribai Phule Pune University, Pune - MPCB",04-07-2024 13:00:00,18.547056,73.826908,SO2,4,7,6
India,Maharashtra,Pune,"Transport Nagar-Nigdi, Pune - IITM",04-07-2024 13:00:00,18.664282,73.763966,NO2,15,20,18
India,Maharashtra,Pune,"Transport Nagar-Nigdi, Pune - IITM",04-07-2024 13:00:00,18.664282,73.763966,OZONE,9,33,18
India,Maharashtra,Sangli,"Vijay Nagar, Sangli - MPCB",04-07-2024 13:00:00, 16.5038,74.3623,PM10,18,35,26
India,Maharashtra,Sangli,"Vijay Nagar, Sangli - MPCB",04-07-2024 13:00:00, 16.5038,74.3623,NO2,4,13,7
India,Maharashtra,Sangli,"Vijay Nagar, Sangli - MPCB",04-07-2024 13:00:00, 16.5038,74.3623,SO2,1,7,4
India,Maharashtra,Sangli,"Vijay Nagar, Sangli - MPCB",04-07-2024 13:00:00, 16.5038,74.3623,CO,10,16,13
India,Maharashtra,Solapur,"Dnyaneshwar Nagar, Solapur - MPCB",04-07-2024 13:00:00,17.6336264,75.9132495,OZONE,12,37,19
India,Maharashtra,Solapur,"Ratandeep Housing Society, Solapur - MPCB",04-07-2024 13:00:00,17.65439,75.90649,NH3,3,7,5
India,Maharashtra,Solapur,"Ratandeep Housing Society, Solapur - MPCB",04-07-2024 13:00:00,17.65439,75.90649,SO2,3,4,3
India,Maharashtra,Solapur,"Solapur, Solapur - MPCB",04-07-2024 13:00:00,17.6599188,75.9063906,PM10,NA,NA,NA
India,Maharashtra,Solapur,"Solapur, Solapur - MPCB",04-07-2024 13:00:00,17.6599188,75.9063906,NO2,NA,NA,NA
India,Maharashtra,Thane,"Kasarvadavali, Thane - MPCB",04-07-2024 13:00:00,19.26777,72.97182,OZONE,5,18,8
India,Maharashtra,Thane,"Pimpleshwar Mandir, Thane - MPCB",04-07-2024 13:00:00,19.192056,72.9585188,NH3,1,4,2
India,Maharashtra,Thane,"Pimpleshwar Mandir, Thane - MPCB",04-07-2024 13:00:00,19.192056,72.9585188,SO2,1,6,3
India,Maharashtra,Ulhasnagar,"Sidhi Vinayak Nagar, Ulhasnagar - MPCB",04-07-2024 13:00:00,19.235581,73.159121,OZONE,6,29,12
India,Maharashtra,Virar,"Bolinj, Virar - MPCB",04-07-2024 13:00:00,19.4458210,72.7988231,PM10,41,89,60
India,Manipur,Imphal,"DM College of Science, Imphal - Manipur PCB",04-07-2024 13:00:00,24.8207389,93.9423085,NH3,2,2,2
India,Manipur,Imphal,"Manipur University, Imphal - Manipur PCB",04-07-2024 13:00:00,24.7524239,93.9286218,CO,4,10,4
India,Nagaland,Kohima,"PWD Juction, Kohima - NPCB",04-07-2024 13:00:00,25.6635413,94.0989878,NH3,1,1,1
India,Nagaland,Kohima,"PWD Juction, Kohima - NPCB",04-07-2024 13:00:00,25.6635413,94.0989878,OZONE,2,10,3
India,Odisha,Balasore,"Kalidaspur, Balasore - OSPCB",04-07-2024 13:00:00,21.51161,86.89088,NH3,1,2,1
India,Odisha,Baripada,"Meher Colony, Baripada - OSPCB",04-07-2024 13:00:00,21.941841,86.728318,PM10,29,62,43
India,Odisha,Bhubaneswar,"Lingraj Mandir, Bhubaneswar - OSPCB",04-07-2024 13:00:00,20.240790,85.836784,NH3,2,4,3
India,Odisha,Bileipada,"Tata Township, Bileipada - OSPCB",04-07-2024 13:00:00,22.06156703,85.47409613,PM2.5,NA,NA,NA
India,Odisha,Bileipada,"Tata Township, Bileipada - OSPCB",04-07-2024 13:00:00,22.06156703,85.47409613,PM10,NA,NA,NA
India,Odisha,Bileipada,"Tata Township, Bileipada - OSPCB",04-07-2024 13:00:00,22.06156703,85.47409613,CO,9,24,10
India,Odisha,Brajrajnagar,"GM Office, Brajrajnagar - OSPCB",04-07-2024 13:00:00,21.8004996,83.8396977,PM2.5,12,62,32
India,Odisha,Byasanagar,"Ferro Chrome Colony, Byasanagar - OSPCB",04-07-2024 13:00:00,20.94185,86.11510,PM2.5,17,78,37
India,Odisha,Byasanagar,"Ferro Chrome Colony, Byasanagar - OSPCB",04-07-2024 13:00:00,20.94185,86.11510,NH3,1,2,2
India,Odisha,Cuttack,"CDA Area, Cuttack - OSPCB",04-07-2024 13:00:00,20.48891     ,85.84768     ,NH3,1,1,1
India,Odisha,Cuttack,"CDA Area, Cuttack - OSPCB",04-07-2024 13:00:00,20.48891     ,85.84768     ,SO2,1,10,2
India,Odisha,Cuttack,"CDA Area, Cuttack - OSPCB",04-07-2024 13:00:00,20.48891     ,85.84768     ,OZONE,1,32,17
India,Odisha,Keonjhar,"Jagamohanpur, Keonjhar - OSPCB",04-07-2024 13:00:00,21.643900,85.599355,PM2.5,8,33,25
India,Odisha,Keonjhar,"Jagamohanpur, Keonjhar - OSPCB",04-07-2024 13:00:00,21.643900,85.599355,PM10,20,40,31
India,Odisha,Keonjhar,"Jagamohanpur, Keonjhar - OSPCB",04-07-2024 13:00:00,21.643900,85.599355,NO2,2,5,3
India,Odisha,Keonjhar,"Jagamohanpur, Keonjhar - OSPCB",04-07-2024 13:00:00,21.643900,85.599355,NH3,3,4,4
India,Odisha,Nayagarh,"Dabuna, Nayagarh - OSPCB",04-07-2024 13:00:00,21.847279,85.416905,PM10,21,41,31
India,Odisha,Nayagarh,"Dabuna, Nayagarh - OSPCB",04-07-2024 13:00:00,21.847279,85.416905,CO,8,16,9
India,Odisha,Rairangpur,"Divisional Forest Office, Rairangpur - OSPCB",04-07-2024 13:00:00,22.265816,86.174829,PM10,32,58,42
India,Odisha,Rairangpur,"Divisional Forest Office, Rairangpur - OSPCB",04-07-2024 13:00:00,22.265816,86.174829,NH3,3,3,3
India,Odisha,Rairangpur,"Divisional Forest Office, Rairangpur - OSPCB",04-07-2024 13:00:00,22.265816,86.174829,SO2,15,15,15
India,Odisha,Rourkela,"Sector-2, Rourkela - OSPCB",04-07-2024 13:00:00,22.24500000,84.88111111,PM10,26,90,62
India,Odisha,Rourkela,"Sector-2, Rourkela - OSPCB",04-07-2024 13:00:00,22.24500000,84.88111111,CO,16,110,80
India,Odisha,Suakati,"OMC Colony, Suakati - OSPCB",04-07-2024 13:00:00,21.606865,85.510538,OZONE,30,45,33
India,Odisha,Tensa,"Barsua Iron Ore Mines, Tensa - OSPCB",04-07-2024 13:00:00,21.869985,85.167016,CO,9,11,10
India,Puducherry,Puducherry,"Jawahar Nagar, Puducherry - PPCC",04-07-2024 13:00:00,11.9309,79.8027,NO2,5,20,10
India,Punjab,Amritsar,"Golden Temple, Amritsar - PPCB",04-07-2024 13:00:00,31.620000,74.876512,PM2.5,26,302,106
India,Punjab,Amritsar,"Golden Temple, Amritsar - PPCB",04-07-2024 13:00:00,31.620000,74.876512,NH3,3,12,6
India,Punjab,Amritsar,"Golden Temple, Amritsar - PPCB",04-07-2024 13:00:00,31.620000,74.876512,CO,4,107,51
India,Punjab,Amritsar,"Golden Temple, Amritsar - PPCB",04-07-2024 13:00:00,31.620000,74.876512,OZONE,39,68,57
India,Punjab,Bathinda,"Hardev Nagar, Bathinda - PPCB",04-07-2024 13:00:00,30.233011,74.907758,NO2,NA,NA,NA
India,Punjab,Jalandhar,"Civil Line, Jalandhar - PPCB",04-07-2024 13:00:00,31.321907,75.578914,OZONE,13,65,28
India,Punjab,Khanna,"Kalal Majra, Khanna - PPCB",04-07-2024 13:00:00,30.736056 ,76.209694,PM2.5,15,122,37
India,Punjab,Khanna,"Kalal Majra, Khanna - PPCB",04-07-2024 13:00:00,30.736056 ,76.209694,PM10,19,87,60
India,Punjab,Ludhiana,"Punjab Agricultural University, Ludhiana - PPCB",04-07-2024 13:00:00,30.9028,75.8086,PM2.5,15,78,41
India,Punjab,Ludhiana,"Punjab Agricultural University, Ludhiana - PPCB",04-07-2024 13:00:00,30.9028,75.8086,SO2,7,10,8
India,Punjab,Patiala,"Model Town, Patiala - PPCB",04-07-2024 13:00:00,30.349388,76.366642,NH3,5,5,5
India,Punjab,Patiala,"Model Town, Patiala - PPCB",04-07-2024 13:00:00,30.349388,76.366642,OZONE,22,47,25
India,Punjab,Rupnagar,"Ratanpura, Rupnagar - Ambuja Cements",04-07-2024 13:00:00,31.0325454,76.5623046,NO2,9,46,26
India,Punjab,Rupnagar,"Ratanpura, Rupnagar - Ambuja Cements",04-07-2024 13:00:00,31.0325454,76.5623046,CO,14,40,23
India,Rajasthan,Ajmer,"Civil Lines,  Ajmer - RSPCB",04-07-2024 13:00:00,26.470859,74.646594,NH3,6,6,6
India,Rajasthan,Ajmer,"Civil Lines,  Ajmer - RSPCB",04-07-2024 13:00:00,26.470859,74.646594,SO2,1,18,7
India,Rajasthan,Alwar,"Moti Doongri, Alwar - RSPCB",04-07-2024 13:00:00,27.554793,76.611536,SO2,10,33,18
India,Rajasthan,Banswara,"Rati Talai, Banswara - RSPCB",04-07-2024 13:00:00,23.555190,74.440010,PM2.5,NA,NA,NA
India,Rajasthan,Banswara,"Rati Talai, Banswara - RSPCB",04-07-2024 13:00:00,23.555190,74.440010,OZONE,36,36,36
India,Rajasthan,Barmer,"Railway Colony, Barmer - RSPCB",04-07-2024 13:00:00,25.747299,71.393989,PM2.5,27,48,40
India,Rajasthan,Barmer,"Railway Colony, Barmer - RSPCB",04-07-2024 13:00:00,25.747299,71.393989,SO2,4,10,7
India,Rajasthan,Bhilwara,"Pratap Nagar, Bhilwara - RSPCB",04-07-2024 13:00:00,25.339605,74.618883,SO2,10,11,11
India,Rajasthan,Bhilwara,"Pratap Nagar, Bhilwara - RSPCB",04-07-2024 13:00:00,25.339605,74.618883,OZONE,12,36,16
India,Rajasthan,Bhiwadi,"RIICO Ind. Area III, Bhiwadi - RSPCB",04-07-2024 13:00:00,28.194909,76.862296,NH3,NA,NA,NA
India,Rajasthan,Bundi,"New Colony, Bundi - RSPCB",04-07-2024 13:00:00,25.435774,75.644272,NH3,3,6,4
India,Rajasthan,Churu,"Subash Chowk, Churu - RSPCB",04-07-2024 13:00:00,28.296139,74.961696,OZONE,13,55,32
India,Rajasthan,Dausa,"Khatikan Mohalla, Dausa - RSPCB",04-07-2024 13:00:00,26.895552,76.334753,PM2.5,NA,NA,NA
India,Rajasthan,Dausa,"Khatikan Mohalla, Dausa - RSPCB",04-07-2024 13:00:00,26.895552,76.334753,SO2,1,8,3
India,Rajasthan,Dholpur,"Raja Ganj, Dholpur - RSPCB",04-07-2024 13:00:00,26.699557,77.898881,PM2.5,7,143,24
India,Rajasthan,Dholpur,"Raja Ganj, Dholpur - RSPCB",04-07-2024 13:00:00,26.699557,77.898881,NO2,4,10,7
India,Rajasthan,Jaipur,"Mansarovar Sector-12, Jaipur - RSPCB",04-07-2024 13:00:00,26.843698,75.766894,PM2.5,NA,NA,NA
India,Rajasthan,Jaipur,"Police Commissionerate, Jaipur - RSPCB",04-07-2024 13:00:00,26.9164092,75.7994901,PM10,25,118,52
India,Rajasthan,Jaipur,"Police Commissionerate, Jaipur - RSPCB",04-07-2024 13:00:00,26.9164092,75.7994901,NO2,4,10,8
India,Rajasthan,Jaipur,"RIICO Sitapura, Jaipur - RSPCB",04-07-2024 13:00:00,26.786682,75.827928,SO2,NA,NA,NA
India,Rajasthan,Jaipur,"Shastri Nagar, Jaipur - RSPCB",04-07-2024 13:00:00,26.9502929,75.730943,SO2,7,24,16
India,Rajasthan,Jaipur,"Shastri Nagar, Jaipur - RSPCB",04-07-2024 13:00:00,26.9502929,75.730943,CO,26,61,45
India,Rajasthan,Jaisalmer,"Sadar Bazar, Jaisalmer - RSPCB",04-07-2024 13:00:00,26.912329,70.909168,NH3,1,8,4
India,Rajasthan,Jalore,"Mudtra Sili, Jalore - RSPCB",04-07-2024 13:00:00,25.344694,72.626208,PM10,60,115,91
India,Rajasthan,Jhalawar,"Rajlaxmi Nagar, Jhalawar - RSPCB",04-07-2024 13:00:00,24.588397,76.172782,NO2,13,18,15
India,Rajasthan,Jhalawar,"Rajlaxmi Nagar, Jhalawar - RSPCB",04-07-2024 13:00:00,24.588397,76.172782,NH3,1,2,2
India,Rajasthan,Jhunjhunu,"Indra Nagar, Jhunjhunu - RSPCB",04-07-2024 13:00:00,28.108988,75.386577,PM2.5,6,57,18
India,Rajasthan,Jhunjhunu,"Indra Nagar, Jhunjhunu - RSPCB",04-07-2024 13:00:00,28.108988,75.386577,PM10,12,82,36
India,Rajasthan,Jhunjhunu,"Indra Nagar, Jhunjhunu - RSPCB",04-07-2024 13:00:00,28.108988,75.386577,NH3,19,24,22
India,Rajasthan,Jhunjhunu,"Indra Nagar, Jhunjhunu - RSPCB",04-07-2024 13:00:00,28.108988,75.386577,SO2,2,4,3
India,Rajasthan,Jhunjhunu,"Indra Nagar, Jhunjhunu - RSPCB",04-07-2024 13:00:00,28.108988,75.386577,CO,16,32,21
India,Rajasthan,Jodhpur,"Collectorate, Jodhpur - RSPCB",04-07-2024 13:00:00,26.268249,73.0193853,SO2,1,10,5
India,Rajasthan,Jodhpur,"Digari Kalan, Jodhpur - RSPCB",04-07-2024 13:00:00,26.295810,73.082283,PM2.5,27,51,38
India,Rajasthan,Jodhpur,"Digari Kalan, Jodhpur - RSPCB",04-07-2024 13:00:00,26.295810,73.082283,PM10,72,108,86
India,Rajasthan,Jodhpur,"Jhalamand, Jodhpur - RSPCB",04-07-2024 13:00:00,26.215415,73.070156,NH3,2,8,5
India,Rajasthan,Jodhpur,"Jhalamand, Jodhpur - RSPCB",04-07-2024 13:00:00,26.215415,73.070156,SO2,2,6,3
India,Rajasthan,Jodhpur,"Mandor, Jodhpur - RSPCB",04-07-2024 13:00:00,26.358805,73.047444,PM10,55,84,69
India,Rajasthan,Jodhpur,"Mandor, Jodhpur - RSPCB",04-07-2024 13:00:00,26.358805,73.047444,NO2,15,24,20
India,Rajasthan,Jodhpur,"Mandor, Jodhpur - RSPCB",04-07-2024 13:00:00,26.358805,73.047444,OZONE,12,47,23
India,Rajasthan,Jodhpur,"Samrat Ashok Udhyan, Jodhpur - RSPCB",04-07-2024 13:00:00,26.253384,72.976571,PM2.5,31,58,42
India,Rajasthan,Jodhpur,"Samrat Ashok Udhyan, Jodhpur - RSPCB",04-07-2024 13:00:00,26.253384,72.976571,NH3,2,10,5
India,Rajasthan,Jodhpur,"Samrat Ashok Udhyan, Jodhpur - RSPCB",04-07-2024 13:00:00,26.253384,72.976571,SO2,3,7,4
India,Rajasthan,Jodhpur,"Samrat Ashok Udhyan, Jodhpur - RSPCB",04-07-2024 13:00:00,26.253384,72.976571,CO,1,62,8
India,Rajasthan,Karauli,"Satyawati Vihar, Karauli - RSPCB",04-07-2024 13:00:00,26.506177,77.025989,NO2,6,20,13
India,Rajasthan,Kota,"Dhanmandi, Kota - RSPCB",04-07-2024 13:00:00,25.164090,75.858137,PM2.5,3,48,25
India,Rajasthan,Kota,"Dhanmandi, Kota - RSPCB",04-07-2024 13:00:00,25.164090,75.858137,NH3,3,7,5
India,Rajasthan,Kota,"Nayapura, Kota - RSPCB",04-07-2024 13:00:00,25.196024,75.855668,PM2.5,21,49,35
India,Rajasthan,Kota,"Nayapura, Kota - RSPCB",04-07-2024 13:00:00,25.196024,75.855668,NH3,3,5,3
India,Rajasthan,Kota,"Nayapura, Kota - RSPCB",04-07-2024 13:00:00,25.196024,75.855668,OZONE,37,165,56
India,Rajasthan,Kota,"Shrinath Puram, Kota - RSPCB",04-07-2024 13:00:00,25.14389,75.821256,PM10,52,464,128
India,Rajasthan,Pali,"Indira Colony Vistar, Pali - RSPCB",04-07-2024 13:00:00,25.771061, 73.340227,PM2.5,38,125,80
India,Rajasthan,Pali,"Indira Colony Vistar, Pali - RSPCB",04-07-2024 13:00:00,25.771061, 73.340227,PM10,88,125,109
India,Rajasthan,Pratapgarh,"Pragati Nagar, Pratapgarh - RSPCB",04-07-2024 13:00:00,24.041198,74.780702,PM2.5,19,47,36
India,Rajasthan,Pratapgarh,"Pragati Nagar, Pratapgarh - RSPCB",04-07-2024 13:00:00,24.041198,74.780702,PM10,36,80,59
India,Rajasthan,Rajsamand,"Dhoinda, Rajsamand - RSPCB",04-07-2024 13:00:00,25.036360,73.883502,SO2,6,9,8
India,Rajasthan,Sawai Madhopur,"Sahu Nagar, Sawai Madhopur - RSPCB",04-07-2024 13:00:00,26.031443,76.359327,PM2.5,9,36,19
India,Rajasthan,Sawai Madhopur,"Sahu Nagar, Sawai Madhopur - RSPCB",04-07-2024 13:00:00,26.031443,76.359327,SO2,NA,NA,NA
India,Rajasthan,Sawai Madhopur,"Sahu Nagar, Sawai Madhopur - RSPCB",04-07-2024 13:00:00,26.031443,76.359327,CO,40,54,43
India,Rajasthan,Sawai Madhopur,"Sahu Nagar, Sawai Madhopur - RSPCB",04-07-2024 13:00:00,26.031443,76.359327,OZONE,35,88,43
India,Rajasthan,Sikar,"Radhakishan Pura, Sikar - RSPCB",04-07-2024 13:00:00,27.608912,75.153302,PM2.5,5,47,20
India,Rajasthan,Sikar,"Radhakishan Pura, Sikar - RSPCB",04-07-2024 13:00:00,27.608912,75.153302,NH3,2,4,3
India,Rajasthan,Sikar,"Radhakishan Pura, Sikar - RSPCB",04-07-2024 13:00:00,27.608912,75.153302,OZONE,3,44,22
India,Rajasthan,Sirohi,"Vedhaynath Colony, Sirohi - RSPCB",04-07-2024 13:00:00,24.885261,72.857549,PM2.5,32,61,46
India,Rajasthan,Sirohi,"Vedhaynath Colony, Sirohi - RSPCB",04-07-2024 13:00:00,24.885261,72.857549,PM10,80,123,103
India,Rajasthan,Sirohi,"Vedhaynath Colony, Sirohi - RSPCB",04-07-2024 13:00:00,24.885261,72.857549,SO2,6,11,9
India,Rajasthan,Tonk,"Shastri Nagar, Tonk - RSPCB",04-07-2024 13:00:00,26.159933,75.780517,SO2,2,3,3
India,Rajasthan,Tonk,"Shastri Nagar, Tonk - RSPCB",04-07-2024 13:00:00,26.159933,75.780517,OZONE,2,102,29
India,Rajasthan,Udaipur,"Ashok Nagar, Udaipur - RSPCB",04-07-2024 13:00:00,24.5886166,73.6321397,NH3,6,24,7
India,TamilNadu,Chennai,"Alandur Bus Depot, Chennai - CPCB",04-07-2024 13:00:00,12.9099161,80.1076538,PM2.5,23,28,24
India,TamilNadu,Chennai,"Alandur Bus Depot, Chennai - CPCB",04-07-2024 13:00:00,12.9099161,80.1076538,CO,60,64,62
India,TamilNadu,Chennai,"Alandur Bus Depot, Chennai - CPCB",04-07-2024 13:00:00,12.9099161,80.1076538,OZONE,4,18,5
India,TamilNadu,Chennai,"Kodungaiyur, Chennai - TNPCB",04-07-2024 13:00:00,13.1278,80.2642,CO,13,46,32
India,TamilNadu,Chennai,"Manali, Chennai - CPCB",04-07-2024 13:00:00,13.164544,80.26285,PM10,17,115,66
India,TamilNadu,Chennai,"Manali, Chennai - CPCB",04-07-2024 13:00:00,13.164544,80.26285,NO2,6,8,7
India,TamilNadu,Chennai,"Manali, Chennai - CPCB",04-07-2024 13:00:00,13.164544,80.26285,NH3,4,6,5
India,TamilNadu,Chennai,"Manali, Chennai - CPCB",04-07-2024 13:00:00,13.164544,80.26285,CO,82,103,99
India,TamilNadu,Chennai,"Manali, Chennai - CPCB",04-07-2024 13:00:00,13.164544,80.26285,OZONE,7,20,10
India,TamilNadu,Chennai,"Perungudi, Chennai - TNPCB",04-07-2024 13:00:00,12.9533,80.2357,PM2.5,4,62,24
India,TamilNadu,Chennai,"Perungudi, Chennai - TNPCB",04-07-2024 13:00:00,12.9533,80.2357,NH3,2,6,3
India,TamilNadu,Chennai,"Perungudi, Chennai - TNPCB",04-07-2024 13:00:00,12.9533,80.2357,CO,28,36,33
India,TamilNadu,Chennai,"Royapuram, Chennai - TNPCB",04-07-2024 13:00:00,13.1036,80.2909,SO2,3,33,7
India,TamilNadu,Cuddalore,"Semmandalam, Cuddalore - TNPCB",04-07-2024 13:00:00,11.7637683,79.7499835,NO2,16,31,23
India,TamilNadu,Gummidipoondi,"Anthoni Pillai Nagar, Gummidipoondi - TNPCB",04-07-2024 13:00:00,13.4127,80.1081,SO2,1,55,21
India,TamilNadu,Ooty,"Bombay Castel, Ooty - TNPCB",04-07-2024 13:00:00,11.4068288,76.7138973,PM10,14,52,33
India,TamilNadu,Ooty,"Bombay Castel, Ooty - TNPCB",04-07-2024 13:00:00,11.4068288,76.7138973,NH3,NA,NA,NA
India,TamilNadu,Palkalaiperur,"Bharathidasan University, Palkalaiperur - TNPCB",04-07-2024 13:00:00,10.681158,78.741746,PM10,7,37,21
India,TamilNadu,Palkalaiperur,"Bharathidasan University, Palkalaiperur - TNPCB",04-07-2024 13:00:00,10.681158,78.741746,SO2,29,30,29
India,TamilNadu,Ramanathapuram,"Chalai Bazaar, Ramanathapuram - TNPCB",04-07-2024 13:00:00,9.36399,78.831977,PM2.5,NA,NA,NA
India,TamilNadu,Ramanathapuram,"Chalai Bazaar, Ramanathapuram - TNPCB",04-07-2024 13:00:00,9.36399,78.831977,SO2,NA,NA,NA
India,TamilNadu,Thoothukudi,"Meelavittan, Thoothukudi - TNPCB",04-07-2024 13:00:00,8.816428 ,78.099039,PM10,24,95,55
India,TamilNadu,Vellore,"Vasanthapuram, Vellore - TNPCB",04-07-2024 13:00:00,12.909494,79.131861,PM10,14,53,31
India,Telangana,Hyderabad,"Bollaram Industrial Area, Hyderabad - TSPCB",04-07-2024 13:00:00,17.540891,78.358528,OZONE,31,36,34
India,Telangana,Hyderabad,"Central University, Hyderabad - TSPCB",04-07-2024 13:00:00,17.460103,78.334361,NH3,2,6,4
India,Telangana,Hyderabad,"ICRISAT Patancheru, Hyderabad - TSPCB",04-07-2024 13:00:00,17.518400,78.278777,PM2.5,3,32,20
India,Telangana,Hyderabad,"ICRISAT Patancheru, Hyderabad - TSPCB",04-07-2024 13:00:00,17.518400,78.278777,NO2,5,173,14
India,Telangana,Hyderabad,"Kokapet, Hyderabad - TSPCB",04-07-2024 13:00:00,17.393559,78.339194,SO2,NA,NA,NA
India,Telangana,Hyderabad,"Kompally Municipal Office, Hyderabad - TSPCB",04-07-2024 13:00:00,17.544899,78.486949,SO2,NA,NA,NA
India,Telangana,Hyderabad,"Kompally Municipal Office, Hyderabad - TSPCB",04-07-2024 13:00:00,17.544899,78.486949,CO,20,31,24
India,Telangana,Hyderabad,"Kompally Municipal Office, Hyderabad - TSPCB",04-07-2024 13:00:00,17.544899,78.486949,OZONE,31,39,32
India,Telangana,Hyderabad,"Nacharam_TSIIC IALA, Hyderabad - TSPCB",04-07-2024 13:00:00,17.429398,78.569354,PM10,65,76,68
India,Telangana,Hyderabad,"Nacharam_TSIIC IALA, Hyderabad - TSPCB",04-07-2024 13:00:00,17.429398,78.569354,NO2,12,17,16
India,Telangana,Hyderabad,"New Malakpet, Hyderabad - TSPCB",04-07-2024 13:00:00,17.37206,78.50864,PM2.5,19,80,32
India,Telangana,Hyderabad,"New Malakpet, Hyderabad - TSPCB",04-07-2024 13:00:00,17.37206,78.50864,NH3,2,3,3
India,Telangana,Hyderabad,"New Malakpet, Hyderabad - TSPCB",04-07-2024 13:00:00,17.37206,78.50864,CO,5,22,13
India,Telangana,Hyderabad,"Ramachandrapuram, Hyderabad - TSPCB",04-07-2024 13:00:00,17.528544,78.286195,SO2,10,17,16
India,Telangana,Hyderabad,"Ramachandrapuram, Hyderabad - TSPCB",04-07-2024 13:00:00,17.528544,78.286195,CO,20,27,25
India,Telangana,Hyderabad,"Ramachandrapuram, Hyderabad - TSPCB",04-07-2024 13:00:00,17.528544,78.286195,OZONE,27,73,46
India,Telangana,Hyderabad,"Sanathnagar, Hyderabad - TSPCB",04-07-2024 13:00:00,17.4559458,78.4332152,OZONE,14,18,16
India,Telangana,Hyderabad,"Somajiguda, Hyderabad - TSPCB",04-07-2024 13:00:00,17.417094,78.457437,PM2.5,35,76,52
India,Telangana,Hyderabad,"Somajiguda, Hyderabad - TSPCB",04-07-2024 13:00:00,17.417094,78.457437,NO2,14,32,22
India,Telangana,Hyderabad,"Zoo Park, Hyderabad - TSPCB",04-07-2024 13:00:00,17.349694,78.451437,PM2.5,5,17,10
India,Telangana,Hyderabad,"Zoo Park, Hyderabad - TSPCB",04-07-2024 13:00:00,17.349694,78.451437,PM10,5,23,10
India,Uttar_Pradesh,Agra,"Manoharpur, Agra - UPPCB",04-07-2024 13:00:00,27.23711,78.01936,PM2.5,10,53,25
India,Uttar_Pradesh,Agra,"Manoharpur, Agra - UPPCB",04-07-2024 13:00:00,27.23711,78.01936,NH3,2,2,2
India,Uttar_Pradesh,Agra,"Manoharpur, Agra - UPPCB",04-07-2024 13:00:00,27.23711,78.01936,CO,6,10,7
India,Uttar_Pradesh,Agra,"Rohta, Agra - UPPCB",04-07-2024 13:00:00,27.106972,78.000111,PM2.5,2,25,10
India,Uttar_Pradesh,Agra,"Rohta, Agra - UPPCB",04-07-2024 13:00:00,27.106972,78.000111,OZONE,22,23,23
India,Uttar_Pradesh,Agra,"Sector-3B Avas Vikas Colony, Agra - UPPCB",04-07-2024 13:00:00,27.19412,77.96237,SO2,13,17,15
India,Uttar_Pradesh,Agra,"Shahjahan Garden, Agra - UPPCB",04-07-2024 13:00:00,27.169338,78.03582,OZONE,1,3,1
India,Uttar_Pradesh,Agra,"Shastripuram, Agra - UPPCB",04-07-2024 13:00:00,27.19862,77.92066,SO2,16,17,17
India,Uttar_Pradesh,Agra,"Shastripuram, Agra - UPPCB",04-07-2024 13:00:00,27.19862,77.92066,OZONE,1,4,2
India,Uttar_Pradesh,Baghpat,"Sardar Patel Inter College, Baghpat - UPPCB",04-07-2024 13:00:00,28.964949,77.278761,PM2.5,2,32,9
India,Uttar_Pradesh,Baghpat,"Sardar Patel Inter College, Baghpat - UPPCB",04-07-2024 13:00:00,28.964949,77.278761,NO2,5,17,11
India,Uttar_Pradesh,Bareilly,"Civil Lines, Bareilly - UPPCB",04-07-2024 13:00:00,28.359581,79.414455,PM2.5,5,11,8
India,Uttar_Pradesh,Bareilly,"Civil Lines, Bareilly - UPPCB",04-07-2024 13:00:00,28.359581,79.414455,PM10,7,18,11
India,Uttar_Pradesh,Bulandshahr,"Yamunapuram, Bulandshahr - UPPCB",04-07-2024 13:00:00,28.406963,77.849831,CO,14,30,23
India,Uttar_Pradesh,Firozabad,"Nagla Bhau, Firozabad - UPPCB",04-07-2024 13:00:00,27.168897,78.376960,PM10,NA,NA,NA
India,Uttar_Pradesh,Firozabad,"Nagla Bhau, Firozabad - UPPCB",04-07-2024 13:00:00,27.168897,78.376960,OZONE,14,17,15
India,Uttar_Pradesh,Firozabad,"Vibhab Nagar, Firozabad - UPPCB",04-07-2024 13:00:00,27.1594,78.3953,CO,10,20,14
India,Uttar_Pradesh,Ghaziabad,"Indirapuram, Ghaziabad - UPPCB",04-07-2024 13:00:00,28.646233,77.358075,PM10,28,101,52
India,Uttar_Pradesh,Ghaziabad,"Indirapuram, Ghaziabad - UPPCB",04-07-2024 13:00:00,28.646233,77.358075,NO2,34,57,44
India,Uttar_Pradesh,Ghaziabad,"Loni, Ghaziabad - UPPCB",04-07-2024 13:00:00,28.757294,77.278792,NH3,1,4,2
India,Uttar_Pradesh,Ghaziabad,"Sanjay Nagar, Ghaziabad - UPPCB",04-07-2024 13:00:00,28.685382,77.453839,SO2,1,14,8
India,Uttar_Pradesh,Ghaziabad,"Vasundhara, Ghaziabad - UPPCB",04-07-2024 13:00:00,28.6603346,77.3572563,NO2,14,44,23
India,Uttar_Pradesh,Ghaziabad,"Vasundhara, Ghaziabad - UPPCB",04-07-2024 13:00:00,28.6603346,77.3572563,NH3,4,6,5
India,Uttar_Pradesh,Ghaziabad,"Vasundhara, Ghaziabad - UPPCB",04-07-2024 13:00:00,28.6603346,77.3572563,SO2,2,5,4
India,Uttar_Pradesh,Gorakhpur,"Madan Mohan Malaviya University of Technology, Gorakhpur - UPPCB",04-07-2024 13:00:00,26.730136,83.433859,PM2.5,29,59,42
India,Uttar_Pradesh,Gorakhpur,"Madan Mohan Malaviya University of Technology, Gorakhpur - UPPCB",04-07-2024 13:00:00,26.730136,83.433859,CO,4,18,7
India,Uttar_Pradesh,Greater Noida,"Knowledge Park - III, Greater Noida - UPPCB",04-07-2024 13:00:00,28.47272,77.482000,SO2,5,11,8
India,Uttar_Pradesh,Greater Noida,"Knowledge Park - V, Greater Noida - UPPCB",04-07-2024 13:00:00,28.557054,77.453663,NO2,11,19,14
India,Uttar_Pradesh,Greater Noida,"Knowledge Park - V, Greater Noida - UPPCB",04-07-2024 13:00:00,28.557054,77.453663,NH3,4,7,5
India,Uttar_Pradesh,Hapur,"Anand Vihar, Hapur - UPPCB",04-07-2024 13:00:00,28.725645,77.749675,SO2,5,17,12
India,Uttar_Pradesh,Hapur,"Anand Vihar, Hapur - UPPCB",04-07-2024 13:00:00,28.725645,77.749675,CO,56,68,64
India,Uttar_Pradesh,Kanpur,"FTI Kidwai Nagar, Kanpur - UPPCB",04-07-2024 13:00:00,26.428282,80.327067,SO2,14,14,14
India,Uttar_Pradesh,Kanpur,"FTI Kidwai Nagar, Kanpur - UPPCB",04-07-2024 13:00:00,26.428282,80.327067,CO,15,42,28
India,Uttar_Pradesh,Kanpur,"NSI Kalyanpur, Kanpur - UPPCB",04-07-2024 13:00:00,26.509954,80.249612,PM10,NA,NA,NA
India,Uttar_Pradesh,Kanpur,"NSI Kalyanpur, Kanpur - UPPCB",04-07-2024 13:00:00,26.509954,80.249612,NO2,20,21,21
India,Uttar_Pradesh,Kanpur,"NSI Kalyanpur, Kanpur - UPPCB",04-07-2024 13:00:00,26.509954,80.249612,CO,13,39,21
India,Uttar_Pradesh,Khurja,"Kalindi Kunj, Khurja - UPPCB",04-07-2024 13:00:00,28.2348927,77.8683002,PM2.5,8,72,42
India,Uttar_Pradesh,Khurja,"Kalindi Kunj, Khurja - UPPCB",04-07-2024 13:00:00,28.2348927,77.8683002,CO,18,28,25
India,Uttar_Pradesh,Lucknow,"Gomti Nagar, Lucknow - UPPCB",04-07-2024 13:00:00,26.868120,81.005119,PM10,5,30,16
India,Uttar_Pradesh,Lucknow,"Kendriya Vidyalaya, Lucknow - CPCB",04-07-2024 13:00:00,26.906111,80.948222,PM2.5,1,36,19
India,Uttar_Pradesh,Lucknow,"Kendriya Vidyalaya, Lucknow - CPCB",04-07-2024 13:00:00,26.906111,80.948222,CO,10,61,21
India,Uttar_Pradesh,Lucknow,"Kukrail Picnic Spot-1, Lucknow - UPPCB",04-07-2024 13:00:00,26.90723,80.98579,PM2.5,1,33,16
India,Uttar_Pradesh,Lucknow,"Kukrail Picnic Spot-1, Lucknow - UPPCB",04-07-2024 13:00:00,26.90723,80.98579,PM10,13,35,23
India,Uttar_Pradesh,Lucknow,"Kukrail Picnic Spot-1, Lucknow - UPPCB",04-07-2024 13:00:00,26.90723,80.98579,OZONE,3,17,8
India,Uttar_Pradesh,Lucknow,"Lalbagh, Lucknow - CPCB",04-07-2024 13:00:00,26.8458805,80.9365541,PM2.5,7,50,26
India,Uttar_Pradesh,Lucknow,"Lalbagh, Lucknow - CPCB",04-07-2024 13:00:00,26.8458805,80.9365541,NH3,30,38,32
India,Uttar_Pradesh,Lucknow,"Talkatora District Industries Center, Lucknow - CPCB",04-07-2024 13:00:00,26.83399722,80.8917361,NO2,11,13,12
India,Uttar_Pradesh,Lucknow,"Talkatora District Industries Center, Lucknow - CPCB",04-07-2024 13:00:00,26.83399722,80.8917361,CO,2,93,27
India,Uttar_Pradesh,Lucknow,"Talkatora District Industries Center, Lucknow - CPCB",04-07-2024 13:00:00,26.83399722,80.8917361,OZONE,4,85,27
India,Uttar_Pradesh,Meerut,"Ganga Nagar, Meerut - UPPCB",04-07-2024 13:00:00,28.999264,77.7590354,NO2,12,25,19
India,Uttar_Pradesh,Meerut,"Ganga Nagar, Meerut - UPPCB",04-07-2024 13:00:00,28.999264,77.7590354,SO2,15,18,16
India,Uttar_Pradesh,Meerut,"Ganga Nagar, Meerut - UPPCB",04-07-2024 13:00:00,28.999264,77.7590354,CO,28,50,35
India,Uttar_Pradesh,Meerut,"Jai Bhim Nagar, Meerut - UPPCB",04-07-2024 13:00:00,28.9535882,77.7622941,OZONE,28,60,37
India,Uttar_Pradesh,Meerut,"Pallavpuram Phase 2, Meerut - UPPCB",04-07-2024 13:00:00,29.063510,77.709723,CO,26,60,30
India,Uttar_Pradesh,Moradabad,"Buddhi Vihar, Moradabad - UPPCB",04-07-2024 13:00:00,28.83526,78.74460,NO2,23,23,23
India,Uttar_Pradesh,Moradabad,"Buddhi Vihar, Moradabad - UPPCB",04-07-2024 13:00:00,28.83526,78.74460,CO,19,30,21
India,Uttar_Pradesh,Moradabad,"Eco Herbal Park, Moradabad - UPPCB",04-07-2024 13:00:00,28.840739,78.697531,NO2,10,108,45
India,Uttar_Pradesh,Moradabad,"Eco Herbal Park, Moradabad - UPPCB",04-07-2024 13:00:00,28.840739,78.697531,CO,8,61,23
India,Uttar_Pradesh,Moradabad,"Eco Herbal Park, Moradabad - UPPCB",04-07-2024 13:00:00,28.840739,78.697531,OZONE,1,80,12
India,Uttar_Pradesh,Moradabad,"Employment Office, Moradabad - UPPCB",04-07-2024 13:00:00,28.88528,78.73880,PM2.5,7,34,23
India,Uttar_Pradesh,Moradabad,"Employment Office, Moradabad - UPPCB",04-07-2024 13:00:00,28.88528,78.73880,NH3,3,4,4
India,Uttar_Pradesh,Moradabad,"Employment Office, Moradabad - UPPCB",04-07-2024 13:00:00,28.88528,78.73880,OZONE,16,342,20
India,Uttar_Pradesh,Moradabad,"Jigar Colony, Moradabad - UPPCB",04-07-2024 13:00:00,28.856664,78.772638,NO2,17,21,20
India,Uttar_Pradesh,Moradabad,"Jigar Colony, Moradabad - UPPCB",04-07-2024 13:00:00,28.856664,78.772638,OZONE,9,85,49
India,Uttar_Pradesh,Moradabad,"Transport Nagar, Moradabad - UPPCB",04-07-2024 13:00:00,28.802625,78.753728,NH3,NA,NA,NA
India,Uttar_Pradesh,Muzaffarnagar,"New Mandi, Muzaffarnagar - UPPCB",04-07-2024 13:00:00,29.4723508,77.7194031,NO2,NA,NA,NA
India,Uttar_Pradesh,Noida,"Sector - 125, Noida - UPPCB",04-07-2024 13:00:00,28.5447608,77.3231257,PM2.5,2,40,15
India,Uttar_Pradesh,Noida,"Sector - 125, Noida - UPPCB",04-07-2024 13:00:00,28.5447608,77.3231257,PM10,4,34,16
India,Uttar_Pradesh,Noida,"Sector - 125, Noida - UPPCB",04-07-2024 13:00:00,28.5447608,77.3231257,OZONE,4,7,5
India,Uttar_Pradesh,Noida,"Sector-1, Noida - UPPCB",04-07-2024 13:00:00,28.5898,77.3101,NO2,13,61,28
India,Uttar_Pradesh,Noida,"Sector-116, Noida - UPPCB",04-07-2024 13:00:00,28.569230,77.393848,PM2.5,15,34,24
India,Uttar_Pradesh,Noida,"Sector-116, Noida - UPPCB",04-07-2024 13:00:00,28.569230,77.393848,PM10,18,68,36
India,Uttar_Pradesh,Noida,"Sector-116, Noida - UPPCB",04-07-2024 13:00:00,28.569230,77.393848,NH3,7,14,12
India,Uttar_Pradesh,Noida,"Sector-116, Noida - UPPCB",04-07-2024 13:00:00,28.569230,77.393848,OZONE,28,53,38
India,Uttar_Pradesh,Prayagraj,"Motilal Nehru NIT, Prayagraj - UPPCB",04-07-2024 13:00:00,25.494,81.863,PM2.5,10,17,13
India,Uttar_Pradesh,Prayagraj,"Motilal Nehru NIT, Prayagraj - UPPCB",04-07-2024 13:00:00,25.494,81.863,NH3,7,7,7
India,Uttar_Pradesh,Varanasi,"Ardhali Bazar, Varanasi - UPPCB",04-07-2024 13:00:00,25.3505986,82.9083074,NO2,26,31,28
India,Uttar_Pradesh,Varanasi,"Ardhali Bazar, Varanasi - UPPCB",04-07-2024 13:00:00,25.3505986,82.9083074,SO2,29,34,32
India,Uttar_Pradesh,Varanasi,"Ardhali Bazar, Varanasi - UPPCB",04-07-2024 13:00:00,25.3505986,82.9083074,CO,22,55,38
India,Uttar_Pradesh,Varanasi,"IESD Banaras Hindu University, Varanasi - UPPCB",04-07-2024 13:00:00,25.262326,82.995408,PM10,1,76,16
India,Uttar_Pradesh,Varanasi,"Maldahiya, Varanasi - UPPCB",04-07-2024 13:00:00,25.32393,82.99687,PM2.5,5,27,17
India,Uttar_Pradesh,Varanasi,"Maldahiya, Varanasi - UPPCB",04-07-2024 13:00:00,25.32393,82.99687,NO2,1,2,2
India,Uttar_Pradesh,Varanasi,"Maldahiya, Varanasi - UPPCB",04-07-2024 13:00:00,25.32393,82.99687,SO2,28,31,29
India,Uttar_Pradesh,Varanasi,"Maldahiya, Varanasi - UPPCB",04-07-2024 13:00:00,25.32393,82.99687,OZONE,1,7,2
India,Uttar_Pradesh,Vrindavan,"Omex Eternity, Vrindavan - UPPCB",04-07-2024 13:00:00,27.5714090,77.6557570,PM2.5,NA,NA,NA
India,Uttar_Pradesh,Vrindavan,"Omex Eternity, Vrindavan - UPPCB",04-07-2024 13:00:00,27.5714090,77.6557570,SO2,42,46,43
India,Uttar_Pradesh,Vrindavan,"Omex Eternity, Vrindavan - UPPCB",04-07-2024 13:00:00,27.5714090,77.6557570,CO,21,27,25
India,Uttarakhand,Dehradun,"Doon University, Dehradun - UKPCB",04-07-2024 13:00:00,30.269444,78.044167,NO2,NA,NA,NA
India,Uttarakhand,Dehradun,"Doon University, Dehradun - UKPCB",04-07-2024 13:00:00,30.269444,78.044167,CO,27,38,31
India,West_Bengal,Asansol,"Asansol Court Area, Asansol - WBPCB",04-07-2024 13:00:00,23.685297,86.945968,PM10,48,134,106
India,West_Bengal,Asansol,"Evelyn Lodge, Asansol - WBPCB",04-07-2024 13:00:00,23.6979360,86.9443950,PM10,19,78,46
India,West_Bengal,Barrackpore,"SVSPA Campus, Barrackpore - WBPCB",04-07-2024 13:00:00,22.7605581,88.3617589,NO2,8,19,14
India,West_Bengal,Durgapur,"PCBL Residential Complex, Durgapur - WBPCB",04-07-2024 13:00:00,23.5087640,87.3544400,PM10,51,138,93
India,West_Bengal,Durgapur,"PCBL Residential Complex, Durgapur - WBPCB",04-07-2024 13:00:00,23.5087640,87.3544400,CO,34,100,41
India,West_Bengal,Durgapur,"Sidhu Kanhu Indoor Stadium, Durgapur - WBPCB",04-07-2024 13:00:00,23.5404352,87.2892225,SO2,15,103,40
India,West_Bengal,Howrah,"Botanical Garden, Howrah - WBPCB",04-07-2024 13:00:00,22.554954,88.292568,NO2,5,41,18
India,West_Bengal,Howrah,"Botanical Garden, Howrah - WBPCB",04-07-2024 13:00:00,22.554954,88.292568,CO,12,40,19
India,West_Bengal,Howrah,"Ghusuri, Howrah - WBPCB",04-07-2024 13:00:00,22.611968,88.347422,CO,22,36,31
India,West_Bengal,Howrah,"Padmapukur, Howrah - WBPCB",04-07-2024 13:00:00,22.5687319,88.2797276,OZONE,19,31,21
India,West_Bengal,Kolkata,"Ballygunge, Kolkata - WBPCB",04-07-2024 13:00:00,22.5367507,88.3638022,PM10,23,62,40
India,West_Bengal,Kolkata,"Ballygunge, Kolkata - WBPCB",04-07-2024 13:00:00,22.5367507,88.3638022,CO,13,26,18
India,West_Bengal,Kolkata,"Bidhannagar, Kolkata - WBPCB",04-07-2024 13:00:00,22.58157048,88.41002457,PM10,31,58,45
India,West_Bengal,Kolkata,"Bidhannagar, Kolkata - WBPCB",04-07-2024 13:00:00,22.58157048,88.41002457,NO2,46,63,50
India,West_Bengal,Kolkata,"Bidhannagar, Kolkata - WBPCB",04-07-2024 13:00:00,22.58157048,88.41002457,SO2,9,16,12
India,West_Bengal,Kolkata,"Fort William, Kolkata - WBPCB",04-07-2024 13:00:00,22.556640,88.342674,NO2,22,49,31
India,West_Bengal,Kolkata,"Fort William, Kolkata - WBPCB",04-07-2024 13:00:00,22.556640,88.342674,SO2,3,5,4
India,West_Bengal,Kolkata,"Fort William, Kolkata - WBPCB",04-07-2024 13:00:00,22.556640,88.342674,OZONE,27,39,32
India,West_Bengal,Kolkata,"Jadavpur, Kolkata - WBPCB",04-07-2024 13:00:00,22.49929,88.36917,SO2,3,5,4
India,West_Bengal,Kolkata,"Rabindra Bharati University, Kolkata - WBPCB",04-07-2024 13:00:00,22.627847,88.380669,NO2,1,29,10
India,West_Bengal,Kolkata,"Rabindra Sarobar, Kolkata - WBPCB",04-07-2024 13:00:00,22.51106,88.35142,NH3,10,11,10
India,West_Bengal,Kolkata,"Rabindra Sarobar, Kolkata - WBPCB",04-07-2024 13:00:00,22.51106,88.35142,OZONE,5,20,7
India,West_Bengal,Kolkata,"Victoria, Kolkata - WBPCB",04-07-2024 13:00:00,22.5448082,88.3403691,NH3,5,6,6
India,West_Bengal,Siliguri,"Ward-32 Bapupara, Siliguri - WBPCB",04-07-2024 13:00:00,26.6879226,88.4152495,PM2.5,28,43,35
India,West_Bengal,Siliguri,"Ward-32 Bapupara, Siliguri - WBPCB",04-07-2024 13:00:00,26.6879226,88.4152495,OZONE,14,17,16
India,Andhra_Pradesh,Amaravati,"Secretariat, Amaravati - APPCB",04-07-2024 13:00:00,16.5150833,80.5181667,NO2,NA,NA,NA
India,Andhra_Pradesh,Amaravati,"Secretariat, Amaravati - APPCB",04-07-2024 13:00:00,16.5150833,80.5181667,OZONE,22,22,22
India,Andhra_Pradesh,Anantapur,"Gulzarpet, Anantapur - APPCB",04-07-2024 13:00:00,14.675886,77.593027,PM2.5,25,52,39
India,Andhra_Pradesh,Anantapur,"Gulzarpet, Anantapur - APPCB",04-07-2024 13:00:00,14.675886,77.593027,NH3,4,4,4
India,Andhra_Pradesh,Chittoor,"Gangineni Cheruvu, Chittoor - APPCB",04-07-2024 13:00:00,13.204880,79.097889,PM2.5,27,105,62
India,Andhra_Pradesh,Chittoor,"Gangineni Cheruvu, Chittoor - APPCB",04-07-2024 13:00:00,13.204880,79.097889,SO2,5,6,6
India,Andhra_Pradesh,Kadapa,"Yerramukkapalli, Kadapa - APPCB",04-07-2024 13:00:00,14.465052,78.824187,CO,36,40,38
India,Andhra_Pradesh,Rajamahendravaram,"Anand Kala Kshetram, Rajamahendravaram - APPCB",04-07-2024 13:00:00,16.9872867,81.7363176,NH3,1,11,4
India,Andhra_Pradesh,Rajamahendravaram,"Anand Kala Kshetram, Rajamahendravaram - APPCB",04-07-2024 13:00:00,16.9872867,81.7363176,OZONE,32,60,48
India,Andhra_Pradesh,Tirupati,"Tirumala, Tirupati - APPCB",04-07-2024 13:00:00,13.67,79.35,OZONE,15,26,16
India,Andhra_Pradesh,Tirupati,"Vaikuntapuram, Tirupati - APPCB",04-07-2024 13:00:00,13.615387,79.409230,NO2,NA,NA,NA
India,Andhra_Pradesh,Tirupati,"Vaikuntapuram, Tirupati - APPCB",04-07-2024 13:00:00,13.615387,79.409230,NH3,NA,NA,NA
India,Andhra_Pradesh,Vijayawada,"HB Colony, Vijayawada - APPCB",04-07-2024 13:00:00,16.536107,80.594233,PM2.5,28,54,37
India,Andhra_Pradesh,Vijayawada,"HB Colony, Vijayawada - APPCB",04-07-2024 13:00:00,16.536107,80.594233,OZONE,12,32,16
India,Andhra_Pradesh,Vijayawada,"Kanuru, Vijayawada - APPCB",04-07-2024 13:00:00,16.486692,80.699436,PM10,50,72,59
India,Andhra_Pradesh,Vijayawada,"Rajiv Nagar, Vijayawada - APPCB",04-07-2024 13:00:00,16.554731,80.649110,OZONE,16,24,18
India,Andhra_Pradesh,Visakhapatnam,"GVM Corporation, Visakhapatnam - APPCB",04-07-2024 13:00:00,17.72,83.3,NH3,3,5,3
India,Assam,Byrnihat,"Central Academy for SFS, Byrnihat - PCBA",04-07-2024 13:00:00,26.071318,91.87488,PM2.5,NA,NA,NA
India,Assam,Byrnihat,"Central Academy for SFS, Byrnihat - PCBA",04-07-2024 13:00:00,26.071318,91.87488,NH3,11,17,14
India,Assam,Byrnihat,"Central Academy for SFS, Byrnihat - PCBA",04-07-2024 13:00:00,26.071318,91.87488,OZONE,23,134,37
India,Assam,Guwahati,"IITG, Guwahati - PCBA",04-07-2024 13:00:00,26.2028636,91.70046436,NO2,1,3,1
India,Assam,Guwahati,"IITG, Guwahati - PCBA",04-07-2024 13:00:00,26.2028636,91.70046436,CO,7,12,9
India,Assam,Guwahati,"IITG, Guwahati - PCBA",04-07-2024 13:00:00,26.2028636,91.70046436,OZONE,2,8,4
India,Assam,Guwahati,"LGBI Airport, Guwahati - PCBA",04-07-2024 13:00:00,26.10887,91.589544,SO2,6,12,10
India,Assam,Guwahati,"LGBI Airport, Guwahati - PCBA",04-07-2024 13:00:00,26.10887,91.589544,CO,26,52,41
India,Assam,Nagaon,"Christianpatty, Nagaon - PCBA",04-07-2024 13:00:00,26.349082,92.68449,PM10,15,28,18
India,Assam,Nalbari,"Bata Chowk, Nalbari - PCBA",04-07-2024 13:00:00,26.446912,91.439057,PM10,21,245,51
India,Assam,Nalbari,"Bata Chowk, Nalbari - PCBA",04-07-2024 13:00:00,26.446912,91.439057,CO,5,40,26
India,Assam,Silchar,"Tarapur, Silchar - PCBA",04-07-2024 13:00:00,24.82827,92.79525,PM10,45,59,49
India,Assam,Silchar,"Tarapur, Silchar - PCBA",04-07-2024 13:00:00,24.82827,92.79525,NH3,1,1,1
India,Assam,Silchar,"Tarapur, Silchar - PCBA",04-07-2024 13:00:00,24.82827,92.79525,OZONE,1,9,1
India,Bihar,Arrah,"New DM Office, Arrah - BSPCB",04-07-2024 13:00:00,25.5626095,84.663264,SO2,4,10,8
India,Bihar,Arrah,"New DM Office, Arrah - BSPCB",04-07-2024 13:00:00,25.5626095,84.663264,CO,10,26,18
India,Bihar,Aurangabad,"Gurdeo Nagar, Aurangabad - BSPCB",04-07-2024 13:00:00,24.75746,84.366208,PM2.5,NA,NA,NA
India,Bihar,Aurangabad,"Gurdeo Nagar, Aurangabad - BSPCB",04-07-2024 13:00:00,24.75746,84.366208,PM10,NA,NA,NA
India,Bihar,Aurangabad,"Gurdeo Nagar, Aurangabad - BSPCB",04-07-2024 13:00:00,24.75746,84.366208,SO2,21,26,23
India,Bihar,Bettiah,"Kamalnath Nagar, Bettiah - BSPCB",04-07-2024 13:00:00,26.80365,84.51954,PM10,14,127,78
India,Bihar,Bihar Sharif,"D M Colony, Bihar Sharif - BSPCB",04-07-2024 13:00:00,25.204762,85.514960,SO2,3,4,3
India,Bihar,Buxar,"Charitra Van, Buxar - BSPCB (Formerly known as Central Jail)",04-07-2024 13:00:00,25.567520,83.966379,NH3,1,1,1
India,Bihar,Chhapra,"Darshan Nagar, Chhapra - BSPCB",04-07-2024 13:00:00,25.7808257,84.7446768,PM2.5,2,12,6
India,Bihar,Chhapra,"Darshan Nagar, Chhapra - BSPCB",04-07-2024 13:00:00,25.7808257,84.7446768,NH3,7,16,11
India,Bihar,Chhapra,"Darshan Nagar, Chhapra - BSPCB",04-07-2024 13:00:00,25.7808257,84.7446768,CO,21,60,38
India,Bihar,Gaya,"SFTI Kusdihra, Gaya - BSPCB",04-07-2024 13:00:00,24.762518,84.982348,NH3,2,4,3
India,Bihar,Gaya,"SFTI Kusdihra, Gaya - BSPCB",04-07-2024 13:00:00,24.762518,84.982348,CO,26,42,31
India,Bihar,Hajipur,"Industrial Area, Hajipur - BSPCB",04-07-2024 13:00:00,25.697189,85.245900,PM10,18,34,25
India,Bihar,Hajipur,"Industrial Area, Hajipur - BSPCB",04-07-2024 13:00:00,25.697189,85.245900,NH3,13,15,14
India,Bihar,Katihar,"Mirchaibari, Katihar - BSPCB",04-07-2024 13:00:00,25.560083,87.553265,PM2.5,3,48,11
India,Bihar,Katihar,"Mirchaibari, Katihar - BSPCB",04-07-2024 13:00:00,25.560083,87.553265,NH3,1,1,1
India,Bihar,Katihar,"Mirchaibari, Katihar - BSPCB",04-07-2024 13:00:00,25.560083,87.553265,SO2,9,14,12
India,Bihar,Kishanganj,"SDM Office_Khagra, Kishanganj - BSPCB",04-07-2024 13:00:00,26.0881305,87.93840336,NO2,31,63,38
India,Bihar,Motihari,"Gandak Colony, Motihari - BSPCB",04-07-2024 13:00:00,26.63086,84.90051,NO2,6,14,9
India,Bihar,Motihari,"Gandak Colony, Motihari - BSPCB",04-07-2024 13:00:00,26.63086,84.90051,OZONE,12,78,19
India,Bihar,Munger,"Town Hall, Munger - BSPCB",04-07-2024 13:00:00,25.376776,86.471523,NO2,3,7,5
India,Bihar,Munger,"Town Hall, Munger - BSPCB",04-07-2024 13:00:00,25.376776,86.471523,CO,87,103,98
India,Bihar,Muzaffarpur,"Buddha Colony, Muzaffarpur - BSPCB",04-07-2024 13:00:00,26.11442,85.39813,PM2.5,21,33,27
India,Bihar,Muzaffarpur,"Buddha Colony, Muzaffarpur - BSPCB",04-07-2024 13:00:00,26.11442,85.39813,NO2,8,17,13
India,Bihar,Muzaffarpur,"Buddha Colony, Muzaffarpur - BSPCB",04-07-2024 13:00:00,26.11442,85.39813,OZONE,40,63,53
India,Bihar,Muzaffarpur,"Muzaffarpur Collectorate, Muzaffarpur - BSPCB",04-07-2024 13:00:00,26.1209,85.3647,NO2,33,42,35
India,Bihar,Patna,"DRM Office Danapur, Patna - BSPCB",04-07-2024 13:00:00,25.586562,85.043586,PM2.5,NA,NA,NA
India,Bihar,Patna,"Govt. High School Shikarpur, Patna - BSPCB",04-07-2024 13:00:00,25.592539,85.227158,NO2,33,35,34
India,Bihar,Patna,"Govt. High School Shikarpur, Patna - BSPCB",04-07-2024 13:00:00,25.592539,85.227158,OZONE,1,59,20
India,Bihar,Patna,"Muradpur, Patna - BSPCB",04-07-2024 13:00:00,25.619651,85.147382,PM10,26,50,36
India,Bihar,Patna,"Muradpur, Patna - BSPCB",04-07-2024 13:00:00,25.619651,85.147382,NO2,1,19,4
India,Bihar,Patna,"Muradpur, Patna - BSPCB",04-07-2024 13:00:00,25.619651,85.147382,SO2,5,8,5
India,Bihar,Patna,"Muradpur, Patna - BSPCB",04-07-2024 13:00:00,25.619651,85.147382,CO,21,60,46
India,Bihar,Patna,"Muradpur, Patna - BSPCB",04-07-2024 13:00:00,25.619651,85.147382,OZONE,5,63,18
India,Bihar,Patna,"Rajbansi Nagar, Patna - BSPCB",04-07-2024 13:00:00,25.599486,85.113666,NH3,4,10,5
India,Bihar,Patna,"Samanpura, Patna - BSPCB",04-07-2024 13:00:00,25.596727,85.085624,PM10,29,54,41
India,Bihar,Patna,"Samanpura, Patna - BSPCB",04-07-2024 13:00:00,25.596727,85.085624,NO2,8,48,20
India,Bihar,Purnia,"Mariam Nagar, Purnia - BSPCB",04-07-2024 13:00:00,25.366336,87.117468,PM2.5,NA,NA,NA
India,Bihar,Rajgir,"Dangi Tola, Rajgir - BSPCB",04-07-2024 13:00:00,25.03280,85.41948,NH3,1,2,2
India,Bihar,Rajgir,"Dangi Tola, Rajgir - BSPCB",04-07-2024 13:00:00,25.03280,85.41948,OZONE,26,40,33
India,Bihar,Saharsa,"Police Line, Saharsa - BSPCB",04-07-2024 13:00:00,25.892357,86.590325,NH3,9,9,9
India,Bihar,Saharsa,"Police Line, Saharsa - BSPCB",04-07-2024 13:00:00,25.892357,86.590325,SO2,16,17,17
India,Bihar,Saharsa,"Police Line, Saharsa - BSPCB",04-07-2024 13:00:00,25.892357,86.590325,CO,54,56,55
India,Bihar,Sasaram,"Dada Peer, Sasaram - BSPCB",04-07-2024 13:00:00,24.952822,84.002396,PM2.5,26,345,117
India,Bihar,Siwan,"Chitragupta Nagar, Siwan - BSPCB",04-07-2024 13:00:00,26.2271665,84.3570427,NO2,15,56,33
India,Chandigarh,Chandigarh,"Sector 22, Chandigarh - CPCC",04-07-2024 13:00:00,30.735567,76.775714,NH3,3,38,14
India,Chhattisgarh,Bhilai,"Civic Center, Bhilai - Bhilai Steel Plant",04-07-2024 13:00:00,21.185571,81.343175,CO,34,58,40
India,Chhattisgarh,Bhilai,"Hathkhoj, Bhilai - CECB",04-07-2024 13:00:00,21.224231,81.408350,PM10,10,47,32
India,Chhattisgarh,Chhal,"Nawapara SECL Colony, Chhal - CECB",04-07-2024 13:00:00,22.118125,83.140608,PM10,8,51,23
India,Chhattisgarh,Korba,"Rampur, Korba - CECB",04-07-2024 13:00:00,22.368195,82.746431,SO2,NA,NA,NA
India,Chhattisgarh,Korba,"Rampur, Korba - CECB",04-07-2024 13:00:00,22.368195,82.746431,CO,NA,NA,NA
India,Chhattisgarh,Korba,"Rampur, Korba - CECB",04-07-2024 13:00:00,22.368195,82.746431,OZONE,NA,NA,NA
India,Chhattisgarh,Korba,"Urja Nagar, Korba - CECB",04-07-2024 13:00:00,22.348441,82.549611,PM10,NA,NA,NA
India,Chhattisgarh,Korba,"Urja Nagar, Korba - CECB",04-07-2024 13:00:00,22.348441,82.549611,NO2,24,48,35
India,Chhattisgarh,Korba,"Urja Nagar, Korba - CECB",04-07-2024 13:00:00,22.348441,82.549611,NH3,NA,NA,NA
India,Chhattisgarh,Kunjemura,"OP Jindal School, Kunjemura - CECB",04-07-2024 13:00:00,22.126650,83.483212,PM10,5,24,14
India,Chhattisgarh,Milupara,"Govt. Higher Secondary School, Milupara - CECB",04-07-2024 13:00:00,22.1910172,83.5197009,NO2,NA,NA,NA
India,Chhattisgarh,Milupara,"Govt. Higher Secondary School, Milupara - CECB",04-07-2024 13:00:00,22.1910172,83.5197009,NH3,NA,NA,NA
India,Chhattisgarh,Milupara,"Govt. Higher Secondary School, Milupara - CECB",04-07-2024 13:00:00,22.1910172,83.5197009,SO2,NA,NA,NA
India,Chhattisgarh,Milupara,"Govt. Higher Secondary School, Milupara - CECB",04-07-2024 13:00:00,22.1910172,83.5197009,CO,5,18,11
India,Chhattisgarh,Raipur,"AIIMS, Raipur - CECB",04-07-2024 13:00:00,21.258815,81.578979,NO2,9,39,14
India,Chhattisgarh,Raipur,"AIIMS, Raipur - CECB",04-07-2024 13:00:00,21.258815,81.578979,NH3,6,6,6
India,Chhattisgarh,Raipur,"Bhatagaon New ISBT, Raipur - CECB",04-07-2024 13:00:00,21.219665,81.630094,PM2.5,NA,NA,NA
India,Chhattisgarh,Raipur,"Bhatagaon New ISBT, Raipur - CECB",04-07-2024 13:00:00,21.219665,81.630094,NO2,4,4,4
India,Chhattisgarh,Raipur,"Krishak Nagar, Raipur - CECB",04-07-2024 13:00:00,21.237755,81.705301,PM10,6,33,18
India,Chhattisgarh,Raipur,"Krishak Nagar, Raipur - CECB",04-07-2024 13:00:00,21.237755,81.705301,OZONE,4,13,5
India,Chhattisgarh,Raipur,"Siltara Phase-II, Raipur - CECB",04-07-2024 13:00:00,21.371751,81.664929,SO2,2,19,11
India,Chhattisgarh,Tumidih,"OP Jindal Industrial Park, Tumidih - CECB",04-07-2024 13:00:00,22.06631475,83.33820077,NO2,NA,NA,NA
India,Chhattisgarh,Tumidih,"OP Jindal Industrial Park, Tumidih - CECB",04-07-2024 13:00:00,22.06631475,83.33820077,CO,17,20,18
India,Delhi,Delhi,"Alipur, Delhi - DPCC",04-07-2024 13:00:00,28.815329,77.153010,PM2.5,23,123,50
India,Delhi,Delhi,"Alipur, Delhi - DPCC",04-07-2024 13:00:00,28.815329,77.153010,PM10,33,155,57
India,Delhi,Delhi,"Anand Vihar, Delhi - DPCC",04-07-2024 13:00:00,28.647622,77.3158090,OZONE,27,84,78
India,Delhi,Delhi,"Ashok Vihar, Delhi - DPCC",04-07-2024 13:00:00,28.695381,77.181665,NH3,6,9,8
India,Delhi,Delhi,"Aya Nagar, Delhi - IMD",04-07-2024 13:00:00,28.4706914,77.1099364,PM2.5,6,58,27
India,Delhi,Delhi,"Aya Nagar, Delhi - IMD",04-07-2024 13:00:00,28.4706914,77.1099364,CO,30,48,46
India,Delhi,Delhi,"Bawana, Delhi - DPCC",04-07-2024 13:00:00,28.776200,77.051074,PM10,31,193,69
India,Delhi,Delhi,"Burari Crossing, Delhi - IMD",04-07-2024 13:00:00,28.7256504,77.2011573,CO,55,62,56
India,Delhi,Delhi,"Burari Crossing, Delhi - IMD",04-07-2024 13:00:00,28.7256504,77.2011573,OZONE,18,103,44
India,Delhi,Delhi,"DTU, Delhi - CPCB",04-07-2024 13:00:00,28.7500499,77.1112615,PM10,38,175,61
India,Delhi,Delhi,"Dr. Karni Singh Shooting Range, Delhi - DPCC",04-07-2024 13:00:00,28.498571,77.264840,PM2.5,3,78,33
India,Delhi,Delhi,"Dwarka-Sector 8, Delhi - DPCC ",04-07-2024 13:00:00,28.5710274,77.0719006,PM2.5,12,147,49
India,Delhi,Delhi,"IGI Airport (T3), Delhi - IMD",04-07-2024 13:00:00,28.5627763,77.1180053,NO2,16,53,26
India,Delhi,Delhi,"IHBAS, Dilshad Garden, Delhi - CPCB",04-07-2024 13:00:00,28.6811736,77.3025234,PM2.5,42,78,49
India,Delhi,Delhi,"Jawaharlal Nehru Stadium, Delhi - DPCC",04-07-2024 13:00:00,28.580280,77.233829,PM2.5,8,65,30
India,Delhi,Delhi,"Jawaharlal Nehru Stadium, Delhi - DPCC",04-07-2024 13:00:00,28.580280,77.233829,NH3,6,8,7
India,Delhi,Delhi,"Major Dhyan Chand National Stadium, Delhi - DPCC",04-07-2024 13:00:00,28.611281,77.237738,NH3,8,14,11
India,Delhi,Delhi,"Mandir Marg, Delhi - DPCC",04-07-2024 13:00:00,28.636429,77.201067,PM2.5,NA,NA,NA
India,Delhi,Delhi,"Mandir Marg, Delhi - DPCC",04-07-2024 13:00:00,28.636429,77.201067,NO2,55,81,64
India,Delhi,Delhi,"Mandir Marg, Delhi - DPCC",04-07-2024 13:00:00,28.636429,77.201067,NH3,4,11,6
India,Delhi,Delhi,"NSIT Dwarka, Delhi - CPCB",04-07-2024 13:00:00,28.60909,77.0325413,NH3,16,32,22
India,Delhi,Delhi,"NSIT Dwarka, Delhi - CPCB",04-07-2024 13:00:00,28.60909,77.0325413,OZONE,8,33,23
India,Delhi,Delhi,"Narela, Delhi - DPCC",04-07-2024 13:00:00,28.822836,77.101981,PM2.5,22,113,44
India,Delhi,Delhi,"Narela, Delhi - DPCC",04-07-2024 13:00:00,28.822836,77.101981,NH3,7,9,7
India,Delhi,Delhi,"Nehru Nagar, Delhi - DPCC",04-07-2024 13:00:00,28.567890,77.250515,PM10,16,112,58
India,Delhi,Delhi,"Nehru Nagar, Delhi - DPCC",04-07-2024 13:00:00,28.567890,77.250515,OZONE,1,44,10
India,Delhi,Delhi,"North Campus, DU, Delhi - IMD",04-07-2024 13:00:00,28.6573814,77.1585447,PM2.5,1,66,36
India,Delhi,Delhi,"North Campus, DU, Delhi - IMD",04-07-2024 13:00:00,28.6573814,77.1585447,PM10,11,124,56
India,Delhi,Delhi,"North Campus, DU, Delhi - IMD",04-07-2024 13:00:00,28.6573814,77.1585447,OZONE,5,21,5
India,Delhi,Delhi,"Okhla Phase-2, Delhi - DPCC",04-07-2024 13:00:00,28.530785,77.271255,SO2,7,18,13
India,Delhi,Delhi,"Okhla Phase-2, Delhi - DPCC",04-07-2024 13:00:00,28.530785,77.271255,CO,34,114,43
India,Delhi,Delhi,"Punjabi Bagh, Delhi - DPCC",04-07-2024 13:00:00,28.674045,77.131023,CO,29,79,55
India,Delhi,Delhi,"Punjabi Bagh, Delhi - DPCC",04-07-2024 13:00:00,28.674045,77.131023,OZONE,6,38,17
India,Delhi,Delhi,"Pusa, Delhi - DPCC",04-07-2024 13:00:00,28.639652,77.146275,PM2.5,3,87,33
India,Delhi,Delhi,"Pusa, Delhi - DPCC",04-07-2024 13:00:00,28.639652,77.146275,OZONE,16,25,18
India,Delhi,Delhi,"Pusa, Delhi - IMD",04-07-2024 13:00:00,28.636110,77.173332,CO,56,72,59
India,Delhi,Delhi,"R K Puram, Delhi - DPCC",04-07-2024 13:00:00,28.563262,77.186937,PM2.5,20,193,77
India,Delhi,Delhi,"Sirifort, Delhi - CPCB",04-07-2024 13:00:00,28.5504249,77.2159377,NO2,6,67,34
India,Delhi,Delhi,"Sri Aurobindo Marg, Delhi - DPCC",04-07-2024 13:00:00,28.531346,77.190156,NO2,16,67,29
India,Delhi,Delhi,"Sri Aurobindo Marg, Delhi - DPCC",04-07-2024 13:00:00,28.531346,77.190156,SO2,8,14,11
India,Delhi,Delhi,"Vivek Vihar, Delhi - DPCC",04-07-2024 13:00:00,28.672342,77.315260,CO,36,71,51
India,Delhi,Delhi,"Wazirpur, Delhi - DPCC",04-07-2024 13:00:00,28.699793,77.165453,NH3,1,45,11
India,Delhi,Delhi,"Wazirpur, Delhi - DPCC",04-07-2024 13:00:00,28.699793,77.165453,OZONE,15,34,22
India,Gujarat,Ahmedabad,"Chandkheda, Ahmedabad - IITM",04-07-2024 13:00:00,23.107969,72.574648,OZONE,12,42,19
India,Gujarat,Ahmedabad,"Maninagar, Ahmedabad - GPCB",04-07-2024 13:00:00,23.002657,72.591912,PM2.5,38,77,56
India,Gujarat,Ahmedabad,"Raikhad, Ahmedabad - IITM",04-07-2024 13:00:00,23.020509,72.579261,PM2.5,40,62,53
India,Gujarat,Ahmedabad,"Raikhad, Ahmedabad - IITM",04-07-2024 13:00:00,23.020509,72.579261,OZONE,18,38,22
India,Gujarat,Ahmedabad,"SVPI Airport Hansol, Ahmedabad - IITM",04-07-2024 13:00:00,23.076793,72.627874,PM2.5,21,99,36
India,Gujarat,Ahmedabad,"SVPI Airport Hansol, Ahmedabad - IITM",04-07-2024 13:00:00,23.076793,72.627874,NO2,56,144,98
India,Gujarat,Ahmedabad,"SVPI Airport Hansol, Ahmedabad - IITM",04-07-2024 13:00:00,23.076793,72.627874,OZONE,5,28,12
India,Gujarat,Ahmedabad,"Sardar Vallabhbhai Patel Stadium, Ahmedabad - IITM",04-07-2024 13:00:00,23.043070,72.562968,PM2.5,45,83,65
India,Gujarat,Ahmedabad,"Sardar Vallabhbhai Patel Stadium, Ahmedabad - IITM",04-07-2024 13:00:00,23.043070,72.562968,SO2,15,19,17
India,Gujarat,Ahmedabad,"Sardar Vallabhbhai Patel Stadium, Ahmedabad - IITM",04-07-2024 13:00:00,23.043070,72.562968,OZONE,10,21,14
India,Gujarat,Ankleshwar,"GIDC, Ankleshwar - GPCB",04-07-2024 13:00:00,21.613267,73.010555,PM2.5,29,31,30
India,Gujarat,Ankleshwar,"GIDC, Ankleshwar - GPCB",04-07-2024 13:00:00,21.613267,73.010555,NH3,3,4,4
India,Gujarat,Gandhinagar,"GIFT City, Gandhinagar - IITM",04-07-2024 13:00:00,23.163798,72.677768,CO,14,28,20
India,Gujarat,Surat,"Science Center, Surat - SMC",04-07-2024 13:00:00,21.170046,72.795405,PM10,NA,NA,NA
India,Gujarat,Vapi,"Phase-1 GIDC, Vapi - GPCB",04-07-2024 13:00:00,20.362421,72.918013,NH3,9,19,10
India,Gujarat,Vapi,"Phase-1 GIDC, Vapi - GPCB",04-07-2024 13:00:00,20.362421,72.918013,SO2,43,50,47
India,Gujarat,Vatva,"Phase-4 GIDC, Vatva - GPCB",04-07-2024 13:00:00,22.969611,72.643500,NH3,5,22,15
India,Gujarat,Vatva,"Phase-4 GIDC, Vatva - GPCB",04-07-2024 13:00:00,22.969611,72.643500,CO,22,22,22
India,Haryana,Ambala,"Patti Mehar, Ambala - HSPCB",04-07-2024 13:00:00,30.379589,76.778328,PM2.5,NA,NA,NA
India,Haryana,Bahadurgarh,"Arya Nagar, Bahadurgarh - HSPCB",04-07-2024 13:00:00,28.6701,76.9254,NO2,20,25,23
India,Haryana,Ballabgarh,"Nathu Colony, Ballabgarh - HSPCB",04-07-2024 13:00:00,28.3419248,77.319699,PM2.5,19,50,33
India,Haryana,Ballabgarh,"Nathu Colony, Ballabgarh - HSPCB",04-07-2024 13:00:00,28.3419248,77.319699,PM10,28,152,72
India,Haryana,Ballabgarh,"Nathu Colony, Ballabgarh - HSPCB",04-07-2024 13:00:00,28.3419248,77.319699,SO2,1,122,23
India,Haryana,Bhiwani,"H.B. Colony, Bhiwani - HSPCB",04-07-2024 13:00:00,28.806223,76.141105,PM10,27,404,73
India,Haryana,Bhiwani,"H.B. Colony, Bhiwani - HSPCB",04-07-2024 13:00:00,28.806223,76.141105,NO2,3,12,9
India,Haryana,Bhiwani,"H.B. Colony, Bhiwani - HSPCB",04-07-2024 13:00:00,28.806223,76.141105,CO,25,62,49
India,Haryana,Bhiwani,"H.B. Colony, Bhiwani - HSPCB",04-07-2024 13:00:00,28.806223,76.141105,OZONE,9,44,22
India,Haryana,Charkhi Dadri,"Mini Secretariat, Charkhi Dadri - HSPCB",04-07-2024 13:00:00,28.593883,76.270653,NO2,15,25,18
India,Haryana,Faridabad,"New Industrial Town, Faridabad - HSPCB",04-07-2024 13:00:00,28.39072,77.30059,PM2.5,15,131,39
India,Haryana,Faridabad,"New Industrial Town, Faridabad - HSPCB",04-07-2024 13:00:00,28.39072,77.30059,PM10,20,136,50
India,Haryana,Faridabad,"New Industrial Town, Faridabad - HSPCB",04-07-2024 13:00:00,28.39072,77.30059,NO2,9,27,12
India,Haryana,Faridabad,"Sector 11, Faridabad - HSPCB",04-07-2024 13:00:00,28.376058,77.315741,OZONE,2,19,3
India,Haryana,Faridabad,"Sector 30, Faridabad - HSPCB",04-07-2024 13:00:00,28.4417,77.3217,NH3,NA,NA,NA
India,Haryana,Faridabad,"Sector 30, Faridabad - HSPCB",04-07-2024 13:00:00,28.4417,77.3217,SO2,NA,NA,NA
India,Haryana,Faridabad,"Sector- 16A, Faridabad - HSPCB",04-07-2024 13:00:00,28.4088421,77.3099081,NO2,NA,NA,NA
India,Haryana,Faridabad,"Sector- 16A, Faridabad - HSPCB",04-07-2024 13:00:00,28.4088421,77.3099081,SO2,NA,NA,NA
India,Haryana,Fatehabad,"Huda Sector, Fatehabad - HSPCB",04-07-2024 13:00:00,29.503664,75.467934,PM10,18,122,64
India,Haryana,Fatehabad,"Huda Sector, Fatehabad - HSPCB",04-07-2024 13:00:00,29.503664,75.467934,NO2,29,31,30
India,Haryana,Gurugram,"NISE Gwal Pahari, Gurugram - IMD",04-07-2024 13:00:00,28.422681,77.148944,OZONE,NA,NA,NA
India,Haryana,Gurugram,"Sector-51, Gurugram - HSPCB",04-07-2024 13:00:00,28.4227,77.0667,OZONE,26,34,31
India,Haryana,Gurugram,"Teri Gram, Gurugram - HSPCB",04-07-2024 13:00:00,28.4275,77.1465,PM2.5,17,224,63
India,Haryana,Hisar,"Urban Estate-II, Hisar - HSPCB",04-07-2024 13:00:00,29.140560,75.744941,NO2,8,11,10
India,Haryana,Jind,"Police Lines, Jind - HSPCB",04-07-2024 13:00:00,29.307814,76.337619,NH3,2,5,4
India,Haryana,Jind,"Police Lines, Jind - HSPCB",04-07-2024 13:00:00,29.307814,76.337619,CO,1,123,35
India,Haryana,Jind,"Police Lines, Jind - HSPCB",04-07-2024 13:00:00,29.307814,76.337619,OZONE,21,71,36
India,Haryana,Kaithal,"Rishi Nagar, Kaithal - HSPCB",04-07-2024 13:00:00,29.8006,76.4155,PM10,23,113,65
India,Haryana,Karnal,"Sector-12, Karnal - HSPCB",04-07-2024 13:00:00,29.695300,77.002700,PM2.5,NA,NA,NA
India,Haryana,Karnal,"Sector-12, Karnal - HSPCB",04-07-2024 13:00:00,29.695300,77.002700,PM10,12,50,33
India,Haryana,Karnal,"Sector-12, Karnal - HSPCB",04-07-2024 13:00:00,29.695300,77.002700,CO,4,34,29
India,Haryana,Kurukshetra,"Sector-7, Kurukshetra - HSPCB",04-07-2024 13:00:00,29.966942,76.875879,CO,14,26,18
India,Haryana,Manesar,"Sector-2 IMT, Manesar - HSPCB",04-07-2024 13:00:00,28.360699,76.936090,PM10,35,93,62
India,Haryana,Palwal,"Shyam Nagar, Palwal - HSPCB",04-07-2024 13:00:00,28.1485564,77.3320667,PM2.5,17,57,35
India,Haryana,Palwal,"Shyam Nagar, Palwal - HSPCB",04-07-2024 13:00:00,28.1485564,77.3320667,PM10,23,107,46
India,Haryana,Palwal,"Shyam Nagar, Palwal - HSPCB",04-07-2024 13:00:00,28.1485564,77.3320667,SO2,3,13,6
India,Haryana,Palwal,"Shyam Nagar, Palwal - HSPCB",04-07-2024 13:00:00,28.1485564,77.3320667,CO,2,20,9
India,Haryana,Panchkula,"Sector-6, Panchkula - HSPCB ",04-07-2024 13:00:00,30.7057778,76.8531805555555,NO2,9,11,10
India,Haryana,Panipat,"Sector-18, Panipat - HSPCB",04-07-2024 13:00:00,29.432304,76.972765,PM2.5,87,98,96
India,Haryana,Panipat,"Sector-18, Panipat - HSPCB",04-07-2024 13:00:00,29.432304,76.972765,NO2,31,32,31
India,Haryana,Panipat,"Sector-18, Panipat - HSPCB",04-07-2024 13:00:00,29.432304,76.972765,SO2,18,19,19
India,Haryana,Rohtak,"MD University, Rohtak - HSPCB",04-07-2024 13:00:00,28.52123,76.37138,NO2,35,54,48
India,Haryana,Rohtak,"MD University, Rohtak - HSPCB",04-07-2024 13:00:00,28.52123,76.37138,CO,2,68,17
India,Haryana,Sirsa,"F-Block, Sirsa - HSPCB",04-07-2024 13:00:00,29.536400,75.015800,NO2,8,11,10
India,Himachal Pradesh,Baddi,"HIMUDA Complex Phase-1, Baddi - HPPCB",04-07-2024 13:00:00,30.943887,76.801991,NH3,7,10,8
India,Jharkhand,Dhanbad,"Kalakusuma, Dhanbad - DMC",04-07-2024 13:00:00,23.811548,86.481238,CO,129,133,131
India,Jharkhand,Dhanbad,"Sardar Patel Nagar, Dhanbad - JSPCB",04-07-2024 13:00:00,23.80569,86.44268,OZONE,8,22,14
India,Karnataka,Bagalkot,"Vidayagiri, Bagalkot - KSPCB",04-07-2024 13:00:00,16.172806,75.659694,SO2,3,3,3
India,Karnataka,Belgaum,"Ramteerth Nagar, Belgaum - KSPCB",04-07-2024 13:00:00,15.888653,74.541751,PM10,3,51,29
India,Karnataka,Bengaluru,"Bapuji Nagar, Bengaluru - KSPCB",04-07-2024 13:00:00,12.951913,77.539784,NO2,14,16,15
India,Karnataka,Bengaluru,"Bapuji Nagar, Bengaluru - KSPCB",04-07-2024 13:00:00,12.951913,77.539784,NH3,1,1,1
India,Karnataka,Bengaluru,"Bapuji Nagar, Bengaluru - KSPCB",04-07-2024 13:00:00,12.951913,77.539784,OZONE,26,35,30
India,Karnataka,Bengaluru,"City Railway Station, Bengaluru - KSPCB",04-07-2024 13:00:00,12.9756843,77.5660749,PM10,68,95,82
India,Karnataka,Bengaluru,"City Railway Station, Bengaluru - KSPCB",04-07-2024 13:00:00,12.9756843,77.5660749,NO2,26,29,27
India,Karnataka,Bengaluru,"Hebbal, Bengaluru - KSPCB",04-07-2024 13:00:00,13.029152,77.585901,CO,3,26,17
India,Karnataka,Bengaluru,"Hombegowda Nagar, Bengaluru - KSPCB",04-07-2024 13:00:00,12.938539,77.590100,NO2,8,20,13
India,Karnataka,Bengaluru,"Jayanagar 5th Block, Bengaluru - KSPCB",04-07-2024 13:00:00,12.920984,77.584908,PM2.5,11,32,21
India,Karnataka,Bengaluru,"Jigani, Bengaluru - KSPCB",04-07-2024 13:00:00,12.7816279,77.6299145,PM2.5,NA,NA,NA
India,Karnataka,Bengaluru,"Jigani, Bengaluru - KSPCB",04-07-2024 13:00:00,12.7816279,77.6299145,NH3,4,4,4
India,Karnataka,Bengaluru,"Jigani, Bengaluru - KSPCB",04-07-2024 13:00:00,12.7816279,77.6299145,SO2,12,13,12
India,Karnataka,Bengaluru,"Jigani, Bengaluru - KSPCB",04-07-2024 13:00:00,12.7816279,77.6299145,OZONE,11,26,16
India,Karnataka,Bengaluru,"Kasturi Nagar, Bengaluru - KSPCB",04-07-2024 13:00:00,13.003872,77.664217,PM10,35,38,36
India,Karnataka,Bengaluru,"Kasturi Nagar, Bengaluru - KSPCB",04-07-2024 13:00:00,13.003872,77.664217,NO2,16,17,17
India,Karnataka,Bengaluru,"Peenya, Bengaluru - CPCB",04-07-2024 13:00:00,13.0270199,77.494094,SO2,11,17,13
India,Karnataka,Bengaluru,"Peenya, Bengaluru - CPCB",04-07-2024 13:00:00,13.0270199,77.494094,CO,75,100,77
India,Karnataka,Bengaluru,"RVCE-Mailasandra, Bengaluru - KSPCB",04-07-2024 13:00:00,12.921418,77.502466,CO,32,55,51
India,Karnataka,Bengaluru,"Shivapura_Peenya, Bengaluru - KSPCB",04-07-2024 13:00:00,13.0246342,77.5080115,PM2.5,23,50,37
India,Karnataka,Bengaluru,"Silk Board, Bengaluru - KSPCB",04-07-2024 13:00:00,12.917348,77.622813,PM10,36,112,70
India,Karnataka,Bengaluru,"Silk Board, Bengaluru - KSPCB",04-07-2024 13:00:00,12.917348,77.622813,NH3,1,1,1
India,Karnataka,Bengaluru,"Silk Board, Bengaluru - KSPCB",04-07-2024 13:00:00,12.917348,77.622813,CO,5,47,28
India,Karnataka,Bidar,"Naubad, Bidar - KSPCB",04-07-2024 13:00:00,17.930306,77.482194,OZONE,5,8,6
India,Karnataka,Chamarajanagar,"Urban, Chamarajanagar - KSPCB",04-07-2024 13:00:00,11.55358,76.55521,SO2,3,8,5
India,Karnataka,Chikkamagaluru,"Kalyana Nagara, Chikkamagaluru - KSPCB",04-07-2024 13:00:00,13.328028,75.797056,NH3,2,3,2
