country,state,city,station,last_update,latitude,longitude,pollutant_id,pollutant_min,pollutant_max,pollutant_avg
India,Andhra_Pradesh,Amaravati,"Secretariat, Amaravati - APPCB",24-06-2024 04:00:00,16.5150833,80.5181667,NO2,3,14,8
India,Andhra_Pradesh,Amaravati,"Secretariat, Amaravati - APPCB",24-06-2024 04:00:00,16.5150833,80.5181667,SO2,17,20,18
India,Andhra_Pradesh,Kadapa,"Yerramukkapalli, Kadapa - APPCB",24-06-2024 04:00:00,14.465052,78.824187,PM10,47,69,59
India,Andhra_Pradesh,Rajamahendravaram,"Anand Kala Kshetram, Rajamahendravaram - APPCB",24-06-2024 04:00:00,16.9872867,81.7363176,NO2,3,72,16
India,Andhra_Pradesh,Rajamahendravaram,"Anand Kala Kshetram, Rajamahendravaram - APPCB",24-06-2024 04:00:00,16.9872867,81.7363176,SO2,11,13,12
India,Andhra_Pradesh,Tirupati,"Tirumala, Tirupati - APPCB",24-06-2024 04:00:00,13.67,79.35,PM10,18,67,41
India,Andhra_Pradesh,Tirupati,"Vaikuntapuram, Tirupati - APPCB",24-06-2024 04:00:00,13.615387,79.409230,SO2,7,8,8
India,Andhra_Pradesh,Vijayawada,"HB Colony, Vijayawada - APPCB",24-06-2024 04:00:00,16.536107,80.594233,NO2,9,17,12
India,Andhra_Pradesh,Visakhapatnam,"GVM Corporation, Visakhapatnam - APPCB",24-06-2024 04:00:00,17.72,83.3,CO,2,76,40
India,Assam,Byrnihat,"Central Academy for SFS, Byrnihat - PCBA",24-06-2024 04:00:00,26.071318,91.87488,PM2.5,18,430,180
India,Assam,Guwahati,"Pan Bazaar, Guwahati - PCBA",24-06-2024 04:00:00,26.187500,91.744194,PM2.5,10,34,24
India,Assam,Guwahati,"Railway Colony, Guwahati - PCBA",24-06-2024 04:00:00,26.181742,91.78063,PM2.5,19,57,33
India,Assam,Guwahati,"Railway Colony, Guwahati - PCBA",24-06-2024 04:00:00,26.181742,91.78063,NO2,3,3,3
India,Assam,Nalbari,"Bata Chowk, Nalbari - PCBA",24-06-2024 04:00:00,26.446912,91.439057,CO,4,131,26
India,Assam,Silchar,"Tarapur, Silchar - PCBA",24-06-2024 04:00:00,24.82827,92.79525,SO2,1,3,1
India,Assam,Sivasagar,"Girls College, Sivasagar - PCBA",24-06-2024 04:00:00,26.987634,94.636574,PM2.5,31,31,31
India,Assam,Sivasagar,"Girls College, Sivasagar - PCBA",24-06-2024 04:00:00,26.987634,94.636574,PM10,50,79,58
India,Bihar,Araria,"Kharahiya Basti, Araria - BSPCB",24-06-2024 04:00:00,26.146529,87.454184,PM2.5,NA,NA,NA
India,Bihar,Araria,"Kharahiya Basti, Araria - BSPCB",24-06-2024 04:00:00,26.146529,87.454184,NH3,NA,NA,NA
India,Bihar,Araria,"Kharahiya Basti, Araria - BSPCB",24-06-2024 04:00:00,26.146529,87.454184,OZONE,NA,NA,NA
India,Bihar,Arrah,"New DM Office, Arrah - BSPCB",24-06-2024 04:00:00,25.5626095,84.663264,PM10,46,76,60
India,Bihar,Aurangabad,"Gurdeo Nagar, Aurangabad - BSPCB",24-06-2024 04:00:00,24.75746,84.366208,OZONE,14,71,35
India,Bihar,Bhagalpur,"DM Office_Kachari Chowk, Bhagalpur - BSPCB",24-06-2024 04:00:00,25.251013,86.989001,CO,38,76,61
India,Bihar,Bhagalpur,"Mayaganj, Bhagalpur - BSPCB",24-06-2024 04:00:00,25.265194,87.012947,NO2,NA,NA,NA
India,Bihar,Bihar Sharif,"D M Colony, Bihar Sharif - BSPCB",24-06-2024 04:00:00,25.204762,85.514960,NO2,8,9,9
India,Bihar,Bihar Sharif,"D M Colony, Bihar Sharif - BSPCB",24-06-2024 04:00:00,25.204762,85.514960,SO2,3,3,3
India,Bihar,Buxar,"Charitra Van, Buxar - BSPCB (Formerly known as Central Jail)",24-06-2024 04:00:00,25.567520,83.966379,NO2,1,2,1
India,Bihar,Chhapra,"Darshan Nagar, Chhapra - BSPCB",24-06-2024 04:00:00,25.7808257,84.7446768,CO,30,54,42
India,Bihar,Gaya,"Kareemganj, Gaya - BSPCB",24-06-2024 04:00:00,24.792403,84.992416,SO2,12,13,13
India,Bihar,Gaya,"SFTI Kusdihra, Gaya - BSPCB",24-06-2024 04:00:00,24.762518,84.982348,PM10,29,41,35
India,Bihar,Gaya,"SFTI Kusdihra, Gaya - BSPCB",24-06-2024 04:00:00,24.762518,84.982348,NO2,40,202,76
India,Bihar,Gaya,"SFTI Kusdihra, Gaya - BSPCB",24-06-2024 04:00:00,24.762518,84.982348,NH3,3,39,14
India,Bihar,Hajipur,"Industrial Area, Hajipur - BSPCB",24-06-2024 04:00:00,25.697189,85.245900,PM2.5,80,134,100
India,Bihar,Katihar,"Mirchaibari, Katihar - BSPCB",24-06-2024 04:00:00,25.560083,87.553265,NO2,4,4,4
India,Bihar,Kishanganj,"SDM Office_Khagra, Kishanganj - BSPCB",24-06-2024 04:00:00,26.0881305,87.93840336,NH3,6,8,6
India,Bihar,Manguraha,"Forest Rest House, Manguraha - BSPCB",24-06-2024 04:00:00,27.308328,84.531742,NO2,14,18,16
India,Bihar,Munger,"Town Hall, Munger - BSPCB",24-06-2024 04:00:00,25.376776,86.471523,PM2.5,22,77,45
India,Bihar,Munger,"Town Hall, Munger - BSPCB",24-06-2024 04:00:00,25.376776,86.471523,PM10,34,109,66
India,Bihar,Muzaffarpur,"Buddha Colony, Muzaffarpur - BSPCB",24-06-2024 04:00:00,26.11442,85.39813,SO2,1,3,3
India,Bihar,Muzaffarpur,"Buddha Colony, Muzaffarpur - BSPCB",24-06-2024 04:00:00,26.11442,85.39813,OZONE,38,99,59
India,Bihar,Muzaffarpur,"MIT-Daudpur Kothi, Muzaffarpur - BSPCB",24-06-2024 04:00:00,26.1403345,85.3650192,NO2,3,6,5
India,Bihar,Muzaffarpur,"MIT-Daudpur Kothi, Muzaffarpur - BSPCB",24-06-2024 04:00:00,26.1403345,85.3650192,NH3,11,13,12
India,Bihar,Muzaffarpur,"Muzaffarpur Collectorate, Muzaffarpur - BSPCB",24-06-2024 04:00:00,26.1209,85.3647,CO,17,56,23
India,Bihar,Muzaffarpur,"Muzaffarpur Collectorate, Muzaffarpur - BSPCB",24-06-2024 04:00:00,26.1209,85.3647,OZONE,25,124,42
India,Bihar,Patna,"DRM Office Danapur, Patna - BSPCB",24-06-2024 04:00:00,25.586562,85.043586,PM10,80,105,94
India,Bihar,Patna,"DRM Office Danapur, Patna - BSPCB",24-06-2024 04:00:00,25.586562,85.043586,OZONE,15,62,30
India,Bihar,Patna,"Govt. High School Shikarpur, Patna - BSPCB",24-06-2024 04:00:00,25.592539,85.227158,SO2,9,12,11
India,Bihar,Patna,"Muradpur, Patna - BSPCB",24-06-2024 04:00:00,25.619651,85.147382,PM2.5,69,354,144
India,Bihar,Patna,"Muradpur, Patna - BSPCB",24-06-2024 04:00:00,25.619651,85.147382,SO2,4,13,6
India,Bihar,Patna,"Muradpur, Patna - BSPCB",24-06-2024 04:00:00,25.619651,85.147382,OZONE,5,62,7
India,Bihar,Patna,"Rajbansi Nagar, Patna - BSPCB",24-06-2024 04:00:00,25.599486,85.113666,NH3,4,8,5
India,Bihar,Patna,"Rajbansi Nagar, Patna - BSPCB",24-06-2024 04:00:00,25.599486,85.113666,CO,20,53,29
India,Bihar,Patna,"Samanpura, Patna - BSPCB",24-06-2024 04:00:00,25.596727,85.085624,SO2,3,8,4
India,Bihar,Rajgir,"Dangi Tola, Rajgir - BSPCB",24-06-2024 04:00:00,25.03280,85.41948,OZONE,29,41,34
India,Bihar,Saharsa,"Police Line, Saharsa - BSPCB",24-06-2024 04:00:00,25.892357,86.590325,PM2.5,10,93,46
India,Bihar,Saharsa,"Police Line, Saharsa - BSPCB",24-06-2024 04:00:00,25.892357,86.590325,SO2,16,16,16
India,Bihar,Saharsa,"Police Line, Saharsa - BSPCB",24-06-2024 04:00:00,25.892357,86.590325,CO,53,54,54
India,Bihar,Sasaram,"Dada Peer, Sasaram - BSPCB",24-06-2024 04:00:00,24.952822,84.002396,PM2.5,68,304,178
India,Bihar,Sasaram,"Dada Peer, Sasaram - BSPCB",24-06-2024 04:00:00,24.952822,84.002396,PM10,61,140,94
India,Bihar,Siwan,"Chitragupta Nagar, Siwan - BSPCB",24-06-2024 04:00:00,26.2271665,84.3570427,PM10,NA,NA,NA
India,Chandigarh,Chandigarh,"Sector-53, Chandigarh - CPCC",24-06-2024 04:00:00,30.719859,76.738637,PM10,79,140,115
India,Chandigarh,Chandigarh,"Sector-53, Chandigarh - CPCC",24-06-2024 04:00:00,30.719859,76.738637,NO2,11,119,45
India,Chandigarh,Chandigarh,"Sector-53, Chandigarh - CPCC",24-06-2024 04:00:00,30.719859,76.738637,SO2,6,30,16
India,Chandigarh,Chandigarh,"Sector-53, Chandigarh - CPCC",24-06-2024 04:00:00,30.719859,76.738637,CO,34,94,64
India,Chandigarh,Chandigarh,"Sector-53, Chandigarh - CPCC",24-06-2024 04:00:00,30.719859,76.738637,OZONE,5,81,12
India,Chhattisgarh,Bhilai,"32Bungalows, Bhilai - CECB",24-06-2024 04:00:00,21.194815,81.314770,PM2.5,12,33,23
India,Chhattisgarh,Bhilai,"32Bungalows, Bhilai - CECB",24-06-2024 04:00:00,21.194815,81.314770,SO2,9,11,10
India,Chhattisgarh,Bhilai,"32Bungalows, Bhilai - CECB",24-06-2024 04:00:00,21.194815,81.314770,CO,10,17,14
India,Chhattisgarh,Bhilai,"Civic Center, Bhilai - Bhilai Steel Plant",24-06-2024 04:00:00,21.185571,81.343175,NO2,7,8,8
India,Chhattisgarh,Bhilai,"Civic Center, Bhilai - Bhilai Steel Plant",24-06-2024 04:00:00,21.185571,81.343175,CO,38,46,41
India,Chhattisgarh,Bilaspur,"Mangala, Bilaspur - NTPC",24-06-2024 04:00:00,22.08815,82.13737,PM2.5,14,55,36
India,Chhattisgarh,Bilaspur,"Mangala, Bilaspur - NTPC",24-06-2024 04:00:00,22.08815,82.13737,NO2,13,15,14
India,Chhattisgarh,Bilaspur,"Mangala, Bilaspur - NTPC",24-06-2024 04:00:00,22.08815,82.13737,SO2,13,20,16
India,Chhattisgarh,Chhal,"Nawapara SECL Colony, Chhal - CECB",24-06-2024 04:00:00,22.118125,83.140608,PM2.5,25,45,34
India,Chhattisgarh,Chhal,"Nawapara SECL Colony, Chhal - CECB",24-06-2024 04:00:00,22.118125,83.140608,CO,22,46,24
India,Chhattisgarh,Korba,"Rampur, Korba - CECB",24-06-2024 04:00:00,22.368195,82.746431,OZONE,4,6,5
India,Chhattisgarh,Kunjemura,"OP Jindal School, Kunjemura - CECB",24-06-2024 04:00:00,22.126650,83.483212,PM2.5,18,73,40
India,Chhattisgarh,Kunjemura,"OP Jindal School, Kunjemura - CECB",24-06-2024 04:00:00,22.126650,83.483212,PM10,25,192,59
India,Chhattisgarh,Raipur,"AIIMS, Raipur - CECB",24-06-2024 04:00:00,21.258815,81.578979,CO,16,27,22
India,Chhattisgarh,Raipur,"Bhatagaon New ISBT, Raipur - CECB",24-06-2024 04:00:00,21.219665,81.630094,NO2,NA,NA,NA
India,Chhattisgarh,Raipur,"Bhatagaon New ISBT, Raipur - CECB",24-06-2024 04:00:00,21.219665,81.630094,OZONE,4,4,4
India,Chhattisgarh,Raipur,"Krishak Nagar, Raipur - CECB",24-06-2024 04:00:00,21.237755,81.705301,PM2.5,NA,NA,NA
India,Chhattisgarh,Raipur,"Krishak Nagar, Raipur - CECB",24-06-2024 04:00:00,21.237755,81.705301,NO2,NA,NA,NA
India,Chhattisgarh,Raipur,"Krishak Nagar, Raipur - CECB",24-06-2024 04:00:00,21.237755,81.705301,SO2,NA,NA,NA
India,Chhattisgarh,Raipur,"Siltara Phase-II, Raipur - CECB",24-06-2024 04:00:00,21.371751,81.664929,PM2.5,13,87,45
India,Chhattisgarh,Raipur,"Siltara Phase-II, Raipur - CECB",24-06-2024 04:00:00,21.371751,81.664929,CO,10,33,16
India,Chhattisgarh,Tumidih,"OP Jindal Industrial Park, Tumidih - CECB",24-06-2024 04:00:00,22.06631475,83.33820077,PM10,29,79,56
India,Chhattisgarh,Tumidih,"OP Jindal Industrial Park, Tumidih - CECB",24-06-2024 04:00:00,22.06631475,83.33820077,NO2,10,55,28
India,Chhattisgarh,Tumidih,"OP Jindal Industrial Park, Tumidih - CECB",24-06-2024 04:00:00,22.06631475,83.33820077,SO2,5,10,6
India,Chhattisgarh,Tumidih,"OP Jindal Industrial Park, Tumidih - CECB",24-06-2024 04:00:00,22.06631475,83.33820077,CO,21,80,33
India,Delhi,Delhi,"Alipur, Delhi - DPCC",24-06-2024 04:00:00,28.815329,77.153010,SO2,10,41,23
India,Delhi,Delhi,"Ashok Vihar, Delhi - DPCC",24-06-2024 04:00:00,28.695381,77.181665,NO2,NA,NA,NA
India,Delhi,Delhi,"Aya Nagar, Delhi - IMD",24-06-2024 04:00:00,28.4706914,77.1099364,CO,2,44,36
India,Delhi,Delhi,"Bawana, Delhi - DPCC",24-06-2024 04:00:00,28.776200,77.051074,CO,39,68,52
India,Delhi,Delhi,"Bawana, Delhi - DPCC",24-06-2024 04:00:00,28.776200,77.051074,OZONE,4,94,40
India,Delhi,Delhi,"Burari Crossing, Delhi - IMD",24-06-2024 04:00:00,28.7256504,77.2011573,PM2.5,73,226,109
India,Delhi,Delhi,"Chandni Chowk, Delhi - IITM",24-06-2024 04:00:00,28.656756,77.227234,SO2,14,52,34
India,Delhi,Delhi,"Chandni Chowk, Delhi - IITM",24-06-2024 04:00:00,28.656756,77.227234,CO,54,82,65
India,Delhi,Delhi,"DTU, Delhi - CPCB",24-06-2024 04:00:00,28.7500499,77.1112615,SO2,40,42,41
India,Delhi,Delhi,"DTU, Delhi - CPCB",24-06-2024 04:00:00,28.7500499,77.1112615,OZONE,29,119,55
India,Delhi,Delhi,"Dr. Karni Singh Shooting Range, Delhi - DPCC",24-06-2024 04:00:00,28.498571,77.264840,NH3,9,16,11
India,Delhi,Delhi,"IGI Airport (T3), Delhi - IMD",24-06-2024 04:00:00,28.5627763,77.1180053,PM2.5,52,116,81
India,Delhi,Delhi,"IHBAS, Dilshad Garden, Delhi - CPCB",24-06-2024 04:00:00,28.6811736,77.3025234,NH3,3,7,6
India,Delhi,Delhi,"ITO, Delhi - CPCB",24-06-2024 04:00:00,28.628624,77.241060,PM2.5,71,130,96
India,Delhi,Delhi,"ITO, Delhi - CPCB",24-06-2024 04:00:00,28.628624,77.241060,CO,66,106,87
India,Delhi,Delhi,"Jahangirpuri, Delhi - DPCC",24-06-2024 04:00:00,28.732820,77.170633,NH3,3,3,3
India,Delhi,Delhi,"Jawaharlal Nehru Stadium, Delhi - DPCC",24-06-2024 04:00:00,28.580280,77.233829,CO,42,76,53
India,Delhi,Delhi,"Jawaharlal Nehru Stadium, Delhi - DPCC",24-06-2024 04:00:00,28.580280,77.233829,OZONE,10,91,23
India,Delhi,Delhi,"Lodhi Road, Delhi - IMD",24-06-2024 04:00:00,28.5918245,77.2273074,CO,32,40,37
India,Delhi,Delhi,"Major Dhyan Chand National Stadium, Delhi - DPCC",24-06-2024 04:00:00,28.611281,77.237738,PM2.5,80,183,133
India,Delhi,Delhi,"Major Dhyan Chand National Stadium, Delhi - DPCC",24-06-2024 04:00:00,28.611281,77.237738,CO,33,75,52
India,Delhi,Delhi,"Mandir Marg, Delhi - DPCC",24-06-2024 04:00:00,28.636429,77.201067,PM2.5,72,187,96
India,Delhi,Delhi,"Mundka, Delhi - DPCC",24-06-2024 04:00:00,28.684678,77.076574,PM10,115,193,142
India,Delhi,Delhi,"Mundka, Delhi - DPCC",24-06-2024 04:00:00,28.684678,77.076574,NO2,45,102,72
India,Delhi,Delhi,"Mundka, Delhi - DPCC",24-06-2024 04:00:00,28.684678,77.076574,SO2,3,6,4
India,Delhi,Delhi,"NSIT Dwarka, Delhi - CPCB",24-06-2024 04:00:00,28.60909,77.0325413,PM10,NA,NA,NA
India,Delhi,Delhi,"NSIT Dwarka, Delhi - CPCB",24-06-2024 04:00:00,28.60909,77.0325413,NH3,15,17,15
India,Delhi,Delhi,"Najafgarh, Delhi - DPCC",24-06-2024 04:00:00,28.570173,76.933762,PM10,81,127,102
India,Delhi,Delhi,"Narela, Delhi - DPCC",24-06-2024 04:00:00,28.822836,77.101981,PM10,139,218,163
India,Delhi,Delhi,"Narela, Delhi - DPCC",24-06-2024 04:00:00,28.822836,77.101981,CO,36,57,51
India,Delhi,Delhi,"Nehru Nagar, Delhi - DPCC",24-06-2024 04:00:00,28.567890,77.250515,NO2,9,68,28
India,Delhi,Delhi,"North Campus, DU, Delhi - IMD",24-06-2024 04:00:00,28.6573814,77.1585447,OZONE,3,21,6
India,Delhi,Delhi,"Okhla Phase-2, Delhi - DPCC",24-06-2024 04:00:00,28.530785,77.271255,PM2.5,65,130,90
India,Delhi,Delhi,"Okhla Phase-2, Delhi - DPCC",24-06-2024 04:00:00,28.530785,77.271255,PM10,104,171,128
India,Delhi,Delhi,"Okhla Phase-2, Delhi - DPCC",24-06-2024 04:00:00,28.530785,77.271255,CO,12,103,81
India,Delhi,Delhi,"Punjabi Bagh, Delhi - DPCC",24-06-2024 04:00:00,28.674045,77.131023,PM2.5,60,193,123
India,Delhi,Delhi,"Punjabi Bagh, Delhi - DPCC",24-06-2024 04:00:00,28.674045,77.131023,SO2,17,40,28
India,Delhi,Delhi,"Punjabi Bagh, Delhi - DPCC",24-06-2024 04:00:00,28.674045,77.131023,OZONE,12,101,37
India,Delhi,Delhi,"Rohini, Delhi - DPCC",24-06-2024 04:00:00,28.732528,77.119920,NH3,12,27,16
India,Delhi,Delhi,"Sirifort, Delhi - CPCB",24-06-2024 04:00:00,28.5504249,77.2159377,NO2,28,65,53
India,Delhi,Delhi,"Sirifort, Delhi - CPCB",24-06-2024 04:00:00,28.5504249,77.2159377,SO2,41,56,50
India,Delhi,Delhi,"Sonia Vihar, Delhi - DPCC",24-06-2024 04:00:00,28.710508,77.249485,PM10,84,226,138
India,Delhi,Delhi,"Sonia Vihar, Delhi - DPCC",24-06-2024 04:00:00,28.710508,77.249485,CO,12,96,44
India,Delhi,Delhi,"Wazirpur, Delhi - DPCC",24-06-2024 04:00:00,28.699793,77.165453,PM10,101,189,148
India,Delhi,Delhi,"Wazirpur, Delhi - DPCC",24-06-2024 04:00:00,28.699793,77.165453,NO2,34,105,57
India,Delhi,Delhi,"Wazirpur, Delhi - DPCC",24-06-2024 04:00:00,28.699793,77.165453,NH3,6,10,8
India,Delhi,Delhi,"Wazirpur, Delhi - DPCC",24-06-2024 04:00:00,28.699793,77.165453,OZONE,2,23,6
India,Gujarat,Ahmedabad,"Gyaspur, Ahmedabad - IITM",24-06-2024 04:00:00,22.977134,72.553024,PM2.5,NA,NA,NA
India,Gujarat,Ahmedabad,"Gyaspur, Ahmedabad - IITM",24-06-2024 04:00:00,22.977134,72.553024,PM10,NA,NA,NA
India,Gujarat,Ahmedabad,"Maninagar, Ahmedabad - GPCB",24-06-2024 04:00:00,23.002657,72.591912,PM2.5,NA,NA,NA
India,Gujarat,Ahmedabad,"Raikhad, Ahmedabad - IITM",24-06-2024 04:00:00,23.020509,72.579261,NO2,NA,NA,NA
India,Gujarat,Ahmedabad,"Rakhial, Ahmedabad - IITM",24-06-2024 04:00:00,23.016834,72.625775,PM2.5,20,121,57
India,Gujarat,Ahmedabad,"Rakhial, Ahmedabad - IITM",24-06-2024 04:00:00,23.016834,72.625775,CO,10,24,16
India,Gujarat,Ahmedabad,"Sardar Vallabhbhai Patel Stadium, Ahmedabad - IITM",24-06-2024 04:00:00,23.043070,72.562968,NH3,6,8,7
India,Gujarat,Gandhinagar,"Sector-10, Gandhinagar - GPCB",24-06-2024 04:00:00,23.221714,72.654328,PM10,20,93,54
India,Gujarat,Nandesari,"GIDC, Nandesari - Nandesari Ind. Association",24-06-2024 04:00:00,22.410802,73.097923,SO2,2,20,10
India,Gujarat,Surat,"Science Center, Surat - SMC",24-06-2024 04:00:00,21.170046,72.795405,PM10,NA,NA,NA
India,Gujarat,Surat,"Science Center, Surat - SMC",24-06-2024 04:00:00,21.170046,72.795405,SO2,11,13,12
India,Gujarat,Surat,"Science Center, Surat - SMC",24-06-2024 04:00:00,21.170046,72.795405,CO,66,83,76
India,Gujarat,Vatva,"Phase-4 GIDC, Vatva - GPCB",24-06-2024 04:00:00,22.969611,72.643500,PM2.5,17,52,38
India,Gujarat,Vatva,"Phase-4 GIDC, Vatva - GPCB",24-06-2024 04:00:00,22.969611,72.643500,PM10,45,117,83
India,Haryana,Ballabgarh,"Nathu Colony, Ballabgarh - HSPCB",24-06-2024 04:00:00,28.3419248,77.319699,NH3,NA,NA,NA
India,Haryana,Bhiwani,"H.B. Colony, Bhiwani - HSPCB",24-06-2024 04:00:00,28.806223,76.141105,PM2.5,61,187,90
India,Haryana,Bhiwani,"H.B. Colony, Bhiwani - HSPCB",24-06-2024 04:00:00,28.806223,76.141105,NH3,6,6,6
India,Haryana,Bhiwani,"H.B. Colony, Bhiwani - HSPCB",24-06-2024 04:00:00,28.806223,76.141105,CO,25,82,49
India,Haryana,Charkhi Dadri,"Mini Secretariat, Charkhi Dadri - HSPCB",24-06-2024 04:00:00,28.593883,76.270653,PM2.5,60,229,122
India,Haryana,Charkhi Dadri,"Mini Secretariat, Charkhi Dadri - HSPCB",24-06-2024 04:00:00,28.593883,76.270653,OZONE,13,18,15
India,Haryana,Dharuhera,"Municipal Corporation Office, Dharuhera -  HSPCB",24-06-2024 04:00:00,28.206800,76.799700,PM2.5,34,311,108
India,Haryana,Dharuhera,"Municipal Corporation Office, Dharuhera -  HSPCB",24-06-2024 04:00:00,28.206800,76.799700,OZONE,54,113,87
India,Haryana,Faridabad,"New Industrial Town, Faridabad - HSPCB",24-06-2024 04:00:00,28.39072,77.30059,SO2,NA,NA,NA
India,Haryana,Faridabad,"New Industrial Town, Faridabad - HSPCB",24-06-2024 04:00:00,28.39072,77.30059,OZONE,48,52,50
India,Haryana,Faridabad,"Sector 30, Faridabad - HSPCB",24-06-2024 04:00:00,28.4417,77.3217,PM2.5,79,87,83
India,Haryana,Faridabad,"Sector 30, Faridabad - HSPCB",24-06-2024 04:00:00,28.4417,77.3217,NH3,NA,NA,NA
India,Haryana,Faridabad,"Sector 30, Faridabad - HSPCB",24-06-2024 04:00:00,28.4417,77.3217,OZONE,19,23,21
India,Haryana,Fatehabad,"Huda Sector, Fatehabad - HSPCB",24-06-2024 04:00:00,29.503664,75.467934,PM10,97,114,105
India,Haryana,Fatehabad,"Huda Sector, Fatehabad - HSPCB",24-06-2024 04:00:00,29.503664,75.467934,NO2,28,31,30
India,Haryana,Fatehabad,"Huda Sector, Fatehabad - HSPCB",24-06-2024 04:00:00,29.503664,75.467934,CO,43,46,45
India,Haryana,Gurugram,"NISE Gwal Pahari, Gurugram - IMD",24-06-2024 04:00:00,28.422681,77.148944,PM2.5,21,237,80
India,Haryana,Gurugram,"NISE Gwal Pahari, Gurugram - IMD",24-06-2024 04:00:00,28.422681,77.148944,PM10,45,163,105
India,Haryana,Gurugram,"NISE Gwal Pahari, Gurugram - IMD",24-06-2024 04:00:00,28.422681,77.148944,CO,24,34,28
India,Haryana,Gurugram,"Sector-51, Gurugram - HSPCB",24-06-2024 04:00:00,28.4227,77.0667,NH3,7,14,9
India,Haryana,Gurugram,"Sector-51, Gurugram - HSPCB",24-06-2024 04:00:00,28.4227,77.0667,OZONE,28,36,30
India,Haryana,Gurugram,"Vikas Sadan, Gurugram - HSPCB",24-06-2024 04:00:00,28.4501238,77.0263051,SO2,10,111,52
India,Haryana,Gurugram,"Vikas Sadan, Gurugram - HSPCB",24-06-2024 04:00:00,28.4501238,77.0263051,OZONE,8,68,13
India,Haryana,Hisar,"Urban Estate-II, Hisar - HSPCB",24-06-2024 04:00:00,29.140560,75.744941,PM10,104,143,125
India,Haryana,Hisar,"Urban Estate-II, Hisar - HSPCB",24-06-2024 04:00:00,29.140560,75.744941,NH3,3,4,4
India,Haryana,Jind,"Police Lines, Jind - HSPCB",24-06-2024 04:00:00,29.307814,76.337619,PM10,NA,NA,NA
India,Haryana,Kaithal,"Rishi Nagar, Kaithal - HSPCB",24-06-2024 04:00:00,29.8006,76.4155,NH3,NA,NA,NA
India,Haryana,Karnal,"Sector-12, Karnal - HSPCB",24-06-2024 04:00:00,29.695300,77.002700,PM2.5,64,82,73
India,Haryana,Karnal,"Sector-12, Karnal - HSPCB",24-06-2024 04:00:00,29.695300,77.002700,NO2,7,12,10
India,Haryana,Karnal,"Sector-12, Karnal - HSPCB",24-06-2024 04:00:00,29.695300,77.002700,NH3,10,13,11
India,Haryana,Kurukshetra,"Sector-7, Kurukshetra - HSPCB",24-06-2024 04:00:00,29.966942,76.875879,CO,12,34,24
India,Haryana,Mandikhera,"General Hospital, Mandikhera - HSPCB",24-06-2024 04:00:00,27.9002,76.9938,PM10,NA,NA,NA
India,Haryana,Mandikhera,"General Hospital, Mandikhera - HSPCB",24-06-2024 04:00:00,27.9002,76.9938,SO2,NA,NA,NA
India,Haryana,Manesar,"Sector-2 IMT, Manesar - HSPCB",24-06-2024 04:00:00,28.360699,76.936090,PM10,51,280,106
India,Haryana,Manesar,"Sector-2 IMT, Manesar - HSPCB",24-06-2024 04:00:00,28.360699,76.936090,NH3,1,3,2
India,Haryana,Manesar,"Sector-2 IMT, Manesar - HSPCB",24-06-2024 04:00:00,28.360699,76.936090,OZONE,10,71,14
India,Haryana,Palwal,"Shyam Nagar, Palwal - HSPCB",24-06-2024 04:00:00,28.1485564,77.3320667,NH3,8,9,9
India,Haryana,Panchkula,"Sector-6, Panchkula - HSPCB ",24-06-2024 04:00:00,30.7057778,76.8531805555555,OZONE,35,48,38
India,Haryana,Panipat,"Sector-18, Panipat - HSPCB",24-06-2024 04:00:00,29.432304,76.972765,PM10,109,111,110
India,Haryana,Rohtak,"MD University, Rohtak - HSPCB",24-06-2024 04:00:00,28.52123,76.37138,CO,36,54,43
India,Haryana,Sirsa,"F-Block, Sirsa - HSPCB",24-06-2024 04:00:00,29.536400,75.015800,PM2.5,31,97,72
India,Haryana,Sirsa,"F-Block, Sirsa - HSPCB",24-06-2024 04:00:00,29.536400,75.015800,NO2,9,11,10
India,Haryana,Sirsa,"F-Block, Sirsa - HSPCB",24-06-2024 04:00:00,29.536400,75.015800,SO2,3,9,6
India,Haryana,Sonipat,"Murthal, Sonipat - HSPCB",24-06-2024 04:00:00,29.027200,77.062100,SO2,13,29,20
India,Haryana,Sonipat,"Murthal, Sonipat - HSPCB",24-06-2024 04:00:00,29.027200,77.062100,CO,24,26,25
India,Haryana,Yamuna Nagar,"Gobind Pura, Yamuna Nagar - HSPCB",24-06-2024 04:00:00,30.1480566,77.2893471,PM10,NA,NA,NA
India,Himachal Pradesh,Baddi,"HIMUDA Complex Phase-1, Baddi - HPPCB",24-06-2024 04:00:00,30.943887,76.801991,NH3,5,7,7
India,Karnataka,Bagalkot,"Vidayagiri, Bagalkot - KSPCB",24-06-2024 04:00:00,16.172806,75.659694,CO,18,51,36
India,Karnataka,Belgaum,"Ramteerth Nagar, Belgaum - KSPCB",24-06-2024 04:00:00,15.888653,74.541751,NH3,7,10,9
India,Karnataka,Belgaum,"Ramteerth Nagar, Belgaum - KSPCB",24-06-2024 04:00:00,15.888653,74.541751,SO2,9,10,9
India,Karnataka,Bengaluru,"Bapuji Nagar, Bengaluru - KSPCB",24-06-2024 04:00:00,12.951913,77.539784,PM10,3,33,20
India,Karnataka,Bengaluru,"City Railway Station, Bengaluru - KSPCB",24-06-2024 04:00:00,12.9756843,77.5660749,NO2,NA,NA,NA
India,Karnataka,Bengaluru,"Hebbal, Bengaluru - KSPCB",24-06-2024 04:00:00,13.029152,77.585901,PM2.5,NA,NA,NA
India,Karnataka,Bengaluru,"Hebbal, Bengaluru - KSPCB",24-06-2024 04:00:00,13.029152,77.585901,NH3,NA,NA,NA
India,Karnataka,Bengaluru,"Hombegowda Nagar, Bengaluru - KSPCB",24-06-2024 04:00:00,12.938539,77.590100,PM2.5,9,19,13
India,Karnataka,Bengaluru,"Jayanagar 5th Block, Bengaluru - KSPCB",24-06-2024 04:00:00,12.920984,77.584908,PM2.5,4,27,17
India,Karnataka,Bengaluru,"Jigani, Bengaluru - KSPCB",24-06-2024 04:00:00,12.7816279,77.6299145,PM2.5,37,38,38
India,Karnataka,Bengaluru,"Jigani, Bengaluru - KSPCB",24-06-2024 04:00:00,12.7816279,77.6299145,PM10,27,40,32
India,Karnataka,Bengaluru,"Jigani, Bengaluru - KSPCB",24-06-2024 04:00:00,12.7816279,77.6299145,NH3,3,3,3
India,Karnataka,Bengaluru,"Kasturi Nagar, Bengaluru - KSPCB",24-06-2024 04:00:00,13.003872,77.664217,NO2,16,17,17
India,Karnataka,Bengaluru,"Kasturi Nagar, Bengaluru - KSPCB",24-06-2024 04:00:00,13.003872,77.664217,NH3,3,4,4
India,Karnataka,Bengaluru,"Kasturi Nagar, Bengaluru - KSPCB",24-06-2024 04:00:00,13.003872,77.664217,SO2,10,10,10
India,Karnataka,Bengaluru,"Kasturi Nagar, Bengaluru - KSPCB",24-06-2024 04:00:00,13.003872,77.664217,OZONE,39,39,39
India,Karnataka,Bengaluru,"RVCE-Mailasandra, Bengaluru - KSPCB",24-06-2024 04:00:00,12.921418,77.502466,PM2.5,17,55,36
India,Karnataka,Bengaluru,"RVCE-Mailasandra, Bengaluru - KSPCB",24-06-2024 04:00:00,12.921418,77.502466,NO2,16,17,17
India,Karnataka,Bengaluru,"Sanegurava Halli, Bengaluru - KSPCB",24-06-2024 04:00:00,12.990328,77.5431385,CO,6,58,21
India,Karnataka,Chamarajanagar,"Urban, Chamarajanagar - KSPCB",24-06-2024 04:00:00,11.55358,76.55521,NO2,NA,NA,NA
India,Karnataka,Chikkaballapur,"Chikkaballapur Rural, Chikkaballapur - KSPCB",24-06-2024 04:00:00,13.428828,77.731418,NO2,5,8,6
India,Karnataka,Chikkaballapur,"Chikkaballapur Rural, Chikkaballapur - KSPCB",24-06-2024 04:00:00,13.428828,77.731418,NH3,1,1,1
India,Karnataka,Chikkaballapur,"Chikkaballapur Rural, Chikkaballapur - KSPCB",24-06-2024 04:00:00,13.428828,77.731418,CO,4,20,15
India,Karnataka,Chikkamagaluru,"Kalyana Nagara, Chikkamagaluru - KSPCB",24-06-2024 04:00:00,13.328028,75.797056,CO,11,88,12
India,Karnataka,Davanagere,"Devaraj Urs Badavane, Davanagere - KSPCB",24-06-2024 04:00:00,14.475800,75.905200,CO,17,18,18
India,Karnataka,Dharwad,"Kalabhavan, Dharwad - KSPCB",24-06-2024 04:00:00,15.459706,75.008381,NO2,4,11,8
India,Karnataka,Hubballi,"Lingaraj Nagar, Hubballi - KSPCB",24-06-2024 04:00:00,15.3714823,75.1160168,PM10,39,51,42
India,Karnataka,Hubballi,"Lingaraj Nagar, Hubballi - KSPCB",24-06-2024 04:00:00,15.3714823,75.1160168,OZONE,23,34,30
India,Karnataka,Karwar,"KHB Colony, Karwar - KSPCB",24-06-2024 04:00:00,14.816666,74.141003,PM2.5,8,36,18
India,Karnataka,Karwar,"KHB Colony, Karwar - KSPCB",24-06-2024 04:00:00,14.816666,74.141003,OZONE,21,22,22
India,Karnataka,Koppal,"Diwator Nagar, Koppal - KSPCB",24-06-2024 04:00:00,15.347630,76.181767,PM2.5,2,24,10
India,Karnataka,Koppal,"Diwator Nagar, Koppal - KSPCB",24-06-2024 04:00:00,15.347630,76.181767,SO2,29,37,30
India,Karnataka,Mangalore,"Kadri, Mangalore - KSPCB",24-06-2024 04:00:00,12.889250,74.853000,NH3,2,2,2
India,Karnataka,Mysuru,"Hebbal 1st Stage, Mysuru - KSPCB",24-06-2024 04:00:00,12.21041,76.37376,PM2.5,7,24,14
India,Karnataka,Mysuru,"Hebbal 1st Stage, Mysuru - KSPCB",24-06-2024 04:00:00,12.21041,76.37376,NO2,9,36,21
India,Karnataka,Mysuru,"Hebbal 1st Stage, Mysuru - KSPCB",24-06-2024 04:00:00,12.21041,76.37376,CO,2,22,8
India,Karnataka,Raichur,"Haji Colony, Raichur - KSPCB",24-06-2024 04:00:00,16.208139,77.348417,PM2.5,NA,NA,NA
India,Karnataka,Ramanagara,"Vijay Nagar, Ramanagara - KSPCB",24-06-2024 04:00:00,12.733409,77.298051,SO2,16,44,31
India,Karnataka,Ramanagara,"Vijay Nagar, Ramanagara - KSPCB",24-06-2024 04:00:00,12.733409,77.298051,CO,5,120,32
India,Karnataka,Ramanagara,"Vijay Nagar, Ramanagara - KSPCB",24-06-2024 04:00:00,12.733409,77.298051,OZONE,24,37,29
India,Karnataka,Tumakuru,"Thimmalapura, Tumakuru - KSPCB",24-06-2024 04:00:00,13.377516,77.099072,OZONE,12,20,15
India,Karnataka,Udupi,"Brahmagiri, Udupi - KSPCB",24-06-2024 04:00:00,13.34194444,74.74694444,SO2,16,18,17
India,Karnataka,Vijayapura,"Ibrahimpur, Vijayapura - KSPCB",24-06-2024 04:00:00,16.802639,75.722694,NO2,17,19,19
India,Kerala,Eloor,"Udyogamandal, Eloor - Kerala PCB",24-06-2024 04:00:00,10.073232,76.302765,PM10,NA,NA,NA
India,Kerala,Eloor,"Udyogamandal, Eloor - Kerala PCB",24-06-2024 04:00:00,10.073232,76.302765,OZONE,NA,NA,NA
India,Kerala,Kannur,"Thavakkara, Kannur - Kerala PCB",24-06-2024 04:00:00,11.875000,75.373200,PM2.5,39,49,44
India,Kerala,Kannur,"Thavakkara, Kannur - Kerala PCB",24-06-2024 04:00:00,11.875000,75.373200,NO2,5,5,5
India,Kerala,Kannur,"Thavakkara, Kannur - Kerala PCB",24-06-2024 04:00:00,11.875000,75.373200,OZONE,29,30,29
India,Kerala,Kollam,"Polayathode, Kollam - Kerala PCB",24-06-2024 04:00:00,8.8787,76.6073,NH3,1,1,1
India,Kerala,Kollam,"Polayathode, Kollam - Kerala PCB",24-06-2024 04:00:00,8.8787,76.6073,CO,14,17,16
India,Kerala,Kollam,"Polayathode, Kollam - Kerala PCB",24-06-2024 04:00:00,8.8787,76.6073,OZONE,29,34,32
India,Kerala,Thiruvananthapuram,"Kariavattom, Thiruvananthapuram - Kerala PCB",24-06-2024 04:00:00,8.563700,76.886500,PM2.5,31,35,33
India,Kerala,Thiruvananthapuram,"Plammoodu, Thiruvananthapuram - Kerala PCB",24-06-2024 04:00:00,8.5149093,76.9435879,NO2,8,10,9
India,Kerala,Thiruvananthapuram,"Plammoodu, Thiruvananthapuram - Kerala PCB",24-06-2024 04:00:00,8.5149093,76.9435879,CO,12,35,27
India,Kerala,Thrissur,"Corporation Ground, Thrissur - Kerala PCB",24-06-2024 04:00:00,10.532400,76.215900,NO2,7,8,7
India,Kerala,Thrissur,"Corporation Ground, Thrissur - Kerala PCB",24-06-2024 04:00:00,10.532400,76.215900,CO,57,110,103
India,Madhya Pradesh,Bhopal,"Idgah Hills, Bhopal - MPPCB",24-06-2024 04:00:00,23.264759,77.381568,PM10,5,84,44
India,Madhya Pradesh,Bhopal,"Idgah Hills, Bhopal - MPPCB",24-06-2024 04:00:00,23.264759,77.381568,SO2,7,10,9
India,Madhya Pradesh,Bhopal,"Paryavaran Parisar, Bhopal - MPPCB",24-06-2024 04:00:00,23.210494,77.425409,SO2,7,8,7
India,Madhya Pradesh,Bhopal,"Paryavaran Parisar, Bhopal - MPPCB",24-06-2024 04:00:00,23.210494,77.425409,CO,4,103,25
India,Madhya Pradesh,Bhopal,"T T Nagar, Bhopal - MPPCB",24-06-2024 04:00:00,23.233584,77.400574,CO,16,60,30
India,Madhya Pradesh,Damoh,"Shrivastav Colony, Damoh - MPPCB",24-06-2024 04:00:00,23.81748678,79.446246,PM10,6,85,31
India,Madhya Pradesh,Damoh,"Shrivastav Colony, Damoh - MPPCB",24-06-2024 04:00:00,23.81748678,79.446246,CO,18,18,18
India,Madhya Pradesh,Dewas,"Bhopal Chauraha, Dewas - MPPCB",24-06-2024 04:00:00,22.9682591,76.064118,NH3,3,3,3
India,Madhya Pradesh,Gwalior,"City Center, Gwalior - MPPCB",24-06-2024 04:00:00,26.203442,78.193251,SO2,22,59,45
India,Madhya Pradesh,Gwalior,"Maharaj Bada, Gwalior - MPPCB",24-06-2024 04:00:00,26.200388,78.147714,PM2.5,28,100,45
India,Madhya Pradesh,Gwalior,"Phool Bagh, Gwalior - Mondelez Ind. Food",24-06-2024 04:00:00,26.210536,78.171,PM10,25,104,66
India,Madhya Pradesh,Indore,"Regional Park, Indore - IMC",24-06-2024 04:00:00,22.6780,75.8559,CO,22,30,26
India,Madhya Pradesh,Indore,"Regional Park, Indore - IMC",24-06-2024 04:00:00,22.6780,75.8559,OZONE,6,11,7
India,Madhya Pradesh,Indore,"Residency Area, Indore - IMC",24-06-2024 04:00:00,22.7084,75.8815,NO2,24,35,28
India,Madhya Pradesh,Jabalpur,"Gupteshwar, Jabalpur - JMC",24-06-2024 04:00:00,23.142888,79.916147,NO2,13,36,20
India,Madhya Pradesh,Jabalpur,"Gupteshwar, Jabalpur - JMC",24-06-2024 04:00:00,23.142888,79.916147,NH3,4,5,4
India,Madhya Pradesh,Jabalpur,"Gupteshwar, Jabalpur - JMC",24-06-2024 04:00:00,23.142888,79.916147,OZONE,23,88,36
India,Madhya Pradesh,Jabalpur,"Marhatal, Jabalpur - MPPCB",24-06-2024 04:00:00,23.168606,79.932247,PM10,22,64,39
India,Madhya Pradesh,Jabalpur,"Marhatal, Jabalpur - MPPCB",24-06-2024 04:00:00,23.168606,79.932247,NO2,6,61,18
India,Madhya Pradesh,Jabalpur,"Marhatal, Jabalpur - MPPCB",24-06-2024 04:00:00,23.168606,79.932247,SO2,7,17,14
India,Madhya Pradesh,Jabalpur,"Marhatal, Jabalpur - MPPCB",24-06-2024 04:00:00,23.168606,79.932247,CO,32,104,55
India,Madhya Pradesh,Katni,"Gole Bazar, Katni - MPPCB",24-06-2024 04:00:00,23.50016,80.23284,OZONE,7,43,13
India,Madhya Pradesh,Maihar,"Sahilara, Maihar - KJS Cements",24-06-2024 04:00:00,24.2613009,80.7231783,NO2,11,15,12
India,Madhya Pradesh,Maihar,"Sahilara, Maihar - KJS Cements",24-06-2024 04:00:00,24.2613009,80.7231783,CO,34,43,41
India,Madhya Pradesh,Ratlam,"Shasthri Nagar, Ratlam - IPCA Lab",24-06-2024 04:00:00,23.331731,75.045981,NO2,13,13,13
India,Madhya Pradesh,Ratlam,"Shasthri Nagar, Ratlam - IPCA Lab",24-06-2024 04:00:00,23.331731,75.045981,SO2,28,29,29
India,Madhya Pradesh,Sagar,"Deen Dayal Nagar, Sagar - MPPCB",24-06-2024 04:00:00,23.8640158,78.80289321,PM10,18,58,35
India,Madhya Pradesh,Satna,"Bandhavgar Colony, Satna - Birla Cement",24-06-2024 04:00:00,24.58434363,80.8549414,PM10,29,46,34
India,Madhya Pradesh,Singrauli,"Suryakiran Bhawan NCL, Singrauli - MPPCB",24-06-2024 04:00:00,24.108970,82.645580,PM10,28,130,69
India,Madhya Pradesh,Singrauli,"Suryakiran Bhawan NCL, Singrauli - MPPCB",24-06-2024 04:00:00,24.108970,82.645580,NH3,3,6,4
India,Madhya Pradesh,Ujjain,"Mahakaleshwar Temple, Ujjain - MPPCB",24-06-2024 04:00:00,23.182719 ,75.768218 ,PM2.5,15,125,69
India,Madhya Pradesh,Ujjain,"Mahakaleshwar Temple, Ujjain - MPPCB",24-06-2024 04:00:00,23.182719 ,75.768218 ,NO2,13,52,22
India,Madhya Pradesh,Ujjain,"Mahakaleshwar Temple, Ujjain - MPPCB",24-06-2024 04:00:00,23.182719 ,75.768218 ,SO2,4,8,6
India,Madhya Pradesh,Ujjain,"Mahakaleshwar Temple, Ujjain - MPPCB",24-06-2024 04:00:00,23.182719 ,75.768218 ,OZONE,46,50,47
India,Maharashtra,Akola,"Ramdaspeth, Akola - MPCB",24-06-2024 04:00:00,20.719516,77.000253,PM2.5,25,59,44
India,Maharashtra,Amravati,"Shivneri Colony, Amravati - MPCB",24-06-2024 04:00:00,20.9402359,77.7895248,OZONE,12,41,17
India,Maharashtra,Amravati,"Shri Shivaji Science College, Amaravati - MPCB",24-06-2024 04:00:00,20.939198,77.765701,PM2.5,17,42,29
India,Maharashtra,Amravati,"Shri Shivaji Science College, Amaravati - MPCB",24-06-2024 04:00:00,20.939198,77.765701,CO,18,48,28
India,Maharashtra,Amravati,"Shri Shivaji Science College, Amaravati - MPCB",24-06-2024 04:00:00,20.939198,77.765701,OZONE,6,30,12
India,Maharashtra,Badlapur,"Katrap, Badlapur - MPCB",24-06-2024 04:00:00,19.16485,73.23409,NH3,1,3,2
India,Maharashtra,Badlapur,"Katrap, Badlapur - MPCB",24-06-2024 04:00:00,19.16485,73.23409,OZONE,13,25,19
India,Maharashtra,Bhiwandi,"Gokul Nagar, Bhiwandi - MPCB",24-06-2024 04:00:00,19.309073,73.057223,PM10,65,137,88
India,Maharashtra,Bhiwandi,"Gokul Nagar, Bhiwandi - MPCB",24-06-2024 04:00:00,19.309073,73.057223,NO2,13,87,42
India,Maharashtra,Bhiwandi,"Gokul Nagar, Bhiwandi - MPCB",24-06-2024 04:00:00,19.309073,73.057223,CO,14,78,46
India,Maharashtra,Boisar,"Khaira, Boisar - MPCB",24-06-2024 04:00:00,19.786089,72.757971,PM2.5,9,206,86
India,Maharashtra,Chandrapur,"Chauhan Colony, Chandrapur - MPCB",24-06-2024 04:00:00,19.962900,79.298714,NO2,5,139,44
India,Maharashtra,Chandrapur,"MIDC Khutala, Chandrapur - MPCB",24-06-2024 04:00:00,19.9775302,79.2337086,PM10,NA,NA,NA
India,Maharashtra,Chandrapur,"MIDC Khutala, Chandrapur - MPCB",24-06-2024 04:00:00,19.9775302,79.2337086,OZONE,4,15,10
India,Maharashtra,Dhule,"Deopur, Dhule - MPCB",24-06-2024 04:00:00,20.918946,74.776388,PM10,62,112,85
India,Maharashtra,Dhule,"Deopur, Dhule - MPCB",24-06-2024 04:00:00,20.918946,74.776388,SO2,4,24,15
India,Maharashtra,Jalgaon,"Prabhat Colony, Jalgaon - MPCB",24-06-2024 04:00:00,21.001264,75.565602,PM10,2,108,59
India,Maharashtra,Jalgaon,"Prabhat Colony, Jalgaon - MPCB",24-06-2024 04:00:00,21.001264,75.565602,NO2,4,19,9
India,Maharashtra,Jalna,"Old MIDC, Jalna - MPCB",24-06-2024 04:00:00,19.854616,75.905894,PM10,NA,NA,NA
India,Maharashtra,Kalyan,"Khadakpada, Kalyan - MPCB",24-06-2024 04:00:00,19.25292,73.142019,OZONE,7,11,9
India,Maharashtra,Kolhapur,"Sinchan Bhavan, Kolhapur - MPCB",24-06-2024 04:00:00,16.7143745,74.2426398,NH3,7,8,8
India,Maharashtra,Latur,"Sawe Wadi, Latur - MPCB",24-06-2024 04:00:00,18.39963,76.57452,NH3,16,18,17
India,Maharashtra,Latur,"Sawe Wadi, Latur - MPCB",24-06-2024 04:00:00,18.39963,76.57452,OZONE,5,45,25
India,Maharashtra,Mahad,"Kamble Tarf Birwadi, Mahad - MPCB",24-06-2024 04:00:00,18.1023399,73.4783687,OZONE,10,25,16
India,Maharashtra,Malegaon,"Mahesh Nagar, Malegaon - MPCB",24-06-2024 04:00:00,20.555712,74.529236,SO2,10,24,18
India,Maharashtra,Malegaon,"Mahesh Nagar, Malegaon - MPCB",24-06-2024 04:00:00,20.555712,74.529236,CO,6,22,14
India,Maharashtra,Mira-Bhayandar,"Bhayandar West, Mira-Bhayandar - MPCB",24-06-2024 04:00:00,19.296481,72.840923,NO2,14,41,23
India,Maharashtra,Mira-Bhayandar,"Bhayandar West, Mira-Bhayandar - MPCB",24-06-2024 04:00:00,19.296481,72.840923,OZONE,1,25,11
India,Maharashtra,Mumbai,"Borivali East, Mumbai - IITM",24-06-2024 04:00:00,19.23241,72.86895,OZONE,3,44,19
India,Maharashtra,Mumbai,"Byculla, Mumbai - BMC",24-06-2024 04:00:00,18.9767,72.8380,NO2,23,25,24
India,Maharashtra,Mumbai,"Byculla, Mumbai - BMC",24-06-2024 04:00:00,18.9767,72.8380,CO,7,38,13
India,Maharashtra,Mumbai,"Chakala-Andheri East, Mumbai - IITM",24-06-2024 04:00:00,19.11074,72.86084,NO2,30,104,44
India,Maharashtra,Mumbai,"Chakala-Andheri East, Mumbai - IITM",24-06-2024 04:00:00,19.11074,72.86084,OZONE,7,47,15
India,Maharashtra,Mumbai,"Colaba, Mumbai - MPCB",24-06-2024 04:00:00,18.910000,72.820000,NO2,19,20,19
India,Maharashtra,Mumbai,"Deonar, Mumbai - IITM",24-06-2024 04:00:00,19.04946,72.9230,NH3,NA,NA,NA
India,Maharashtra,Mumbai,"Kherwadi_Bandra East, Mumbai - MPCB",24-06-2024 04:00:00,19.0632143,72.8456324,PM10,45,103,65
India,Maharashtra,Mumbai,"Malad West, Mumbai - IITM",24-06-2024 04:00:00,19.19709,72.82204,PM2.5,7,39,18
India,Maharashtra,Mumbai,"Malad West, Mumbai - IITM",24-06-2024 04:00:00,19.19709,72.82204,NH3,1,3,1
India,Maharashtra,Mumbai,"Mazgaon, Mumbai - IITM",24-06-2024 04:00:00,18.96702,72.84214,NO2,34,62,46
India,Maharashtra,Mumbai,"Mindspace-Malad West, Mumbai - MPCB",24-06-2024 04:00:00,19.1878657,72.8304069,NO2,13,79,26
India,Maharashtra,Mumbai,"Mindspace-Malad West, Mumbai - MPCB",24-06-2024 04:00:00,19.1878657,72.8304069,CO,16,53,26
India,Maharashtra,Mumbai,"Mulund West, Mumbai - MPCB",24-06-2024 04:00:00,19.1750,72.9419,OZONE,7,8,8
India,Maharashtra,Mumbai,"Sewri, Mumbai - BMC",24-06-2024 04:00:00,19.000084,72.856730,NO2,34,36,35
India,Maharashtra,Mumbai,"Sewri, Mumbai - BMC",24-06-2024 04:00:00,19.000084,72.856730,NH3,5,5,5
India,Maharashtra,Mumbai,"Siddharth Nagar-Worli, Mumbai - IITM",24-06-2024 04:00:00,19.000083,72.813993,PM2.5,7,40,18
India,Maharashtra,Mumbai,"Siddharth Nagar-Worli, Mumbai - IITM",24-06-2024 04:00:00,19.000083,72.813993,NO2,11,54,23
India,Maharashtra,Mumbai,"Siddharth Nagar-Worli, Mumbai - IITM",24-06-2024 04:00:00,19.000083,72.813993,OZONE,2,43,24
India,Maharashtra,Mumbai,"Vile Parle West, Mumbai - MPCB",24-06-2024 04:00:00,19.10861,72.83622,PM2.5,12,47,24
India,Maharashtra,Mumbai,"Vile Parle West, Mumbai - MPCB",24-06-2024 04:00:00,19.10861,72.83622,PM10,13,70,34
India,Maharashtra,Mumbai,"Vile Parle West, Mumbai - MPCB",24-06-2024 04:00:00,19.10861,72.83622,CO,32,32,32
India,Maharashtra,Mumbai,"Worli, Mumbai - MPCB",24-06-2024 04:00:00,18.9936162,72.8128113,CO,26,28,26
India,Maharashtra,Nagpur,"Mahal, Nagpur - MPCB",24-06-2024 04:00:00,21.14472,79.107595,NO2,4,38,16
India,Maharashtra,Nagpur,"Mahal, Nagpur - MPCB",24-06-2024 04:00:00,21.14472,79.107595,NH3,1,4,2
India,Maharashtra,Nagpur,"Opp GPO Civil Lines, Nagpur - MPCB",24-06-2024 04:00:00,21.152875,79.0517531,PM2.5,29,152,64
India,Maharashtra,Nagpur,"Opp GPO Civil Lines, Nagpur - MPCB",24-06-2024 04:00:00,21.152875,79.0517531,CO,14,36,18
India,Maharashtra,Nanded,"Sneh Nagar, Nanded - MPCB",24-06-2024 04:00:00,19.173852,77.296291,PM10,33,53,43
India,Maharashtra,Nanded,"Sneh Nagar, Nanded - MPCB",24-06-2024 04:00:00,19.173852,77.296291,SO2,14,20,17
India,Maharashtra,Nanded,"Sneh Nagar, Nanded - MPCB",24-06-2024 04:00:00,19.173852,77.296291,OZONE,17,63,28
India,Maharashtra,Nashik,"Hirawadi, Nashik - MPCB",24-06-2024 04:00:00,20.021503,73.813844,PM10,12,58,31
India,Maharashtra,Nashik,"Hirawadi, Nashik - MPCB",24-06-2024 04:00:00,20.021503,73.813844,NH3,4,5,4
India,Maharashtra,Nashik,"Hirawadi, Nashik - MPCB",24-06-2024 04:00:00,20.021503,73.813844,OZONE,21,82,32
India,Maharashtra,Nashik,"Pandav Nagari, Nashik - MPCB",24-06-2024 04:00:00,19.9591346,73.7788008,PM2.5,14,55,32
India,Maharashtra,Nashik,"Pandav Nagari, Nashik - MPCB",24-06-2024 04:00:00,19.9591346,73.7788008,NO2,10,84,35
India,Maharashtra,Nashik,"Pandav Nagari, Nashik - MPCB",24-06-2024 04:00:00,19.9591346,73.7788008,CO,10,20,14
India,Maharashtra,Navi Mumbai,"Kopripada-Vashi, Navi Mumbai - MPCB",24-06-2024 04:00:00,19.090337,73.014232,NH3,5,16,7
India,Maharashtra,Navi Mumbai,"Mahape, Navi Mumbai - MPCB",24-06-2024 04:00:00,19.1135051,73.008978,NO2,NA,NA,NA
India,Maharashtra,Navi Mumbai,"Mahape, Navi Mumbai - MPCB",24-06-2024 04:00:00,19.1135051,73.008978,NH3,NA,NA,NA
India,Maharashtra,Navi Mumbai,"Nerul, Navi Mumbai - MPCB",24-06-2024 04:00:00,19.008751,73.016620,CO,13,32,18
India,Maharashtra,Navi Mumbai,"Sector-19A Nerul, Navi Mumbai - IITM",24-06-2024 04:00:00,19.044,73.0325,NH3,1,2,1
India,Maharashtra,Navi Mumbai,"Sector-2E Kalamboli, Navi Mumbai - MPCB",24-06-2024 04:00:00,19.02579,73.10297,NH3,1,3,2
India,Maharashtra,Pimpri-Chinchwad,"Gavalinagar, Pimpri Chinchwad - MPCB",24-06-2024 04:00:00,18.63673,73.82487,NO2,32,33,32
India,Maharashtra,Pimpri-Chinchwad,"Gavalinagar, Pimpri Chinchwad - MPCB",24-06-2024 04:00:00,18.63673,73.82487,NH3,4,4,4
India,Maharashtra,Pimpri-Chinchwad,"Gavalinagar, Pimpri Chinchwad - MPCB",24-06-2024 04:00:00,18.63673,73.82487,OZONE,4,49,12
India,Maharashtra,Pimpri-Chinchwad,"Park Street Wakad, Pimpri Chinchwad - MPCB",24-06-2024 04:00:00,18.59051,73.77946,CO,8,32,20
India,Maharashtra,Pune,"Alandi, Pune - IITM",24-06-2024 04:00:00,18.675076,73.892743,PM10,14,68,36
India,Maharashtra,Pune,"Bhosari, Pune - IITM",24-06-2024 04:00:00,18.640051,73.848956,NO2,8,11,9
India,Maharashtra,Pune,"Bhumkar Nagar, Pune - IITM",24-06-2024 04:00:00,18.605770,73.749976,CO,8,42,24
India,Maharashtra,Pune,"Hadapsar, Pune - IITM",24-06-2024 04:00:00,18.501793,73.927532,PM2.5,30,85,59
India,Maharashtra,Pune,"Hadapsar, Pune - IITM",24-06-2024 04:00:00,18.501793,73.927532,NO2,20,42,31
India,Maharashtra,Pune,"Karve Road, Pune - MPCB",24-06-2024 04:00:00,18.5011743,73.8165527,PM10,3,80,35
India,Maharashtra,Pune,"Mhada Colony, Pune - IITM",24-06-2024 04:00:00,18.573040,73.927715,OZONE,3,63,6
India,Maharashtra,Pune,"Revenue Colony-Shivajinagar, Pune - IITM",24-06-2024 04:00:00,18.530085,73.849598,SO2,9,16,13
India,Maharashtra,Pune,"Savitribai Phule Pune University, Pune - MPCB",24-06-2024 04:00:00,18.547056,73.826908,PM10,35,73,55
India,Maharashtra,Pune,"Savitribai Phule Pune University, Pune - MPCB",24-06-2024 04:00:00,18.547056,73.826908,OZONE,3,58,19
India,Maharashtra,Sangli,"Vijay Nagar, Sangli - MPCB",24-06-2024 04:00:00, 16.5038,74.3623,PM2.5,10,36,21
India,Maharashtra,Sangli,"Vijay Nagar, Sangli - MPCB",24-06-2024 04:00:00, 16.5038,74.3623,NH3,1,1,1
India,Maharashtra,Sangli,"Vijay Nagar, Sangli - MPCB",24-06-2024 04:00:00, 16.5038,74.3623,OZONE,14,47,28
India,Maharashtra,Solapur,"Dnyaneshwar Nagar, Solapur - MPCB",24-06-2024 04:00:00,17.6336264,75.9132495,NH3,10,19,15
India,Maharashtra,Solapur,"Ratandeep Housing Society, Solapur - MPCB",24-06-2024 04:00:00,17.65439,75.90649,PM2.5,16,48,38
India,Maharashtra,Solapur,"Ratandeep Housing Society, Solapur - MPCB",24-06-2024 04:00:00,17.65439,75.90649,NO2,1,7,3
India,Maharashtra,Solapur,"Solapur, Solapur - MPCB",24-06-2024 04:00:00,17.6599188,75.9063906,PM10,64,74,71
India,Maharashtra,Thane,"Upvan Fort, Thane - MPCB",24-06-2024 04:00:00,19.222279,72.957979,NO2,13,34,23
India,Maharashtra,Ulhasnagar,"Sidhi Vinayak Nagar, Ulhasnagar - MPCB",24-06-2024 04:00:00,19.235581,73.159121,PM2.5,46,96,69
India,Maharashtra,Virar,"Bolinj, Virar - MPCB",24-06-2024 04:00:00,19.4458210,72.7988231,PM10,35,79,63
India,Maharashtra,Virar,"Bolinj, Virar - MPCB",24-06-2024 04:00:00,19.4458210,72.7988231,NO2,6,39,25
India,Maharashtra,Virar,"Bolinj, Virar - MPCB",24-06-2024 04:00:00,19.4458210,72.7988231,SO2,2,4,3
India,Meghalaya,Shillong,"Lumpyngngad, Shillong - Meghalaya PCB",24-06-2024 04:00:00,25.5586,91.8985,PM10,NA,NA,NA
India,Meghalaya,Shillong,"Lumpyngngad, Shillong - Meghalaya PCB",24-06-2024 04:00:00,25.5586,91.8985,CO,2,12,7
India,Mizoram,Aizawl,"Sikulpuikawn, Aizawl - Mizoram PCB",24-06-2024 04:00:00,23.7176342,92.7192841,PM10,6,19,12
India,Nagaland,Kohima,"PWD Juction, Kohima - NPCB",24-06-2024 04:00:00,25.6635413,94.0989878,NO2,3,5,3
India,Odisha,Balasore,"Kalidaspur, Balasore - OSPCB",24-06-2024 04:00:00,21.51161,86.89088,PM2.5,7,32,20
India,Odisha,Balasore,"Kalidaspur, Balasore - OSPCB",24-06-2024 04:00:00,21.51161,86.89088,NO2,10,44,22
India,Odisha,Balasore,"Kalidaspur, Balasore - OSPCB",24-06-2024 04:00:00,21.51161,86.89088,CO,26,106,76
India,Odisha,Balasore,"Kalidaspur, Balasore - OSPCB",24-06-2024 04:00:00,21.51161,86.89088,OZONE,10,37,23
India,Odisha,Barbil,"Forest Office, Barbil - OSPCB",24-06-2024 04:00:00,22.1166054,85.3945546,PM2.5,8,50,23
India,Odisha,Barbil,"Forest Office, Barbil - OSPCB",24-06-2024 04:00:00,22.1166054,85.3945546,NH3,2,3,2
India,Odisha,Barbil,"Forest Office, Barbil - OSPCB",24-06-2024 04:00:00,22.1166054,85.3945546,CO,11,50,34
India,Odisha,Barbil,"Forest Office, Barbil - OSPCB",24-06-2024 04:00:00,22.1166054,85.3945546,OZONE,12,69,28
India,Odisha,Baripada,"Meher Colony, Baripada - OSPCB",24-06-2024 04:00:00,21.941841,86.728318,NH3,2,3,2
India,Odisha,Bhubaneswar,"Lingraj Mandir, Bhubaneswar - OSPCB",24-06-2024 04:00:00,20.240790,85.836784,PM2.5,12,58,29
India,Odisha,Bhubaneswar,"Lingraj Mandir, Bhubaneswar - OSPCB",24-06-2024 04:00:00,20.240790,85.836784,SO2,2,17,9
India,Odisha,Bhubaneswar,"Lingraj Mandir, Bhubaneswar - OSPCB",24-06-2024 04:00:00,20.240790,85.836784,CO,NA,NA,NA
India,Odisha,Bhubaneswar,"Patia, Bhubaneswar - OSPCB",24-06-2024 04:00:00,20.34652,85.81630,SO2,1,3,2
India,Odisha,Bhubaneswar,"Patia, Bhubaneswar - OSPCB",24-06-2024 04:00:00,20.34652,85.81630,OZONE,22,86,46
India,Odisha,Brajrajnagar,"GM Office, Brajrajnagar - OSPCB",24-06-2024 04:00:00,21.8004996,83.8396977,PM10,6,142,46
India,Odisha,Brajrajnagar,"GM Office, Brajrajnagar - OSPCB",24-06-2024 04:00:00,21.8004996,83.8396977,OZONE,21,141,34
India,Odisha,Byasanagar,"Ferro Chrome Colony, Byasanagar - OSPCB",24-06-2024 04:00:00,20.94185,86.11510,NO2,6,15,8
India,Odisha,Cuttack,"CDA Area, Cuttack - OSPCB",24-06-2024 04:00:00,20.48891     ,85.84768     ,NO2,6,16,9
India,Odisha,Cuttack,"CDA Area, Cuttack - OSPCB",24-06-2024 04:00:00,20.48891     ,85.84768     ,CO,4,12,8
India,Odisha,Keonjhar,"Jagamohanpur, Keonjhar - OSPCB",24-06-2024 04:00:00,21.643900,85.599355,PM2.5,28,54,39
India,Odisha,Keonjhar,"Jagamohanpur, Keonjhar - OSPCB",24-06-2024 04:00:00,21.643900,85.599355,NH3,4,4,4
India,Odisha,Nayagarh,"Dabuna, Nayagarh - OSPCB",24-06-2024 04:00:00,21.847279,85.416905,PM10,30,60,47
India,Odisha,Rairangpur,"Divisional Forest Office, Rairangpur - OSPCB",24-06-2024 04:00:00,22.265816,86.174829,PM10,40,61,47
India,Odisha,Rairangpur,"Divisional Forest Office, Rairangpur - OSPCB",24-06-2024 04:00:00,22.265816,86.174829,NH3,4,4,4
India,Odisha,Rairangpur,"Divisional Forest Office, Rairangpur - OSPCB",24-06-2024 04:00:00,22.265816,86.174829,SO2,15,15,15
India,Odisha,Rourkela,"Fertilizer Township, Rourkela - OSPCB",24-06-2024 04:00:00,22.18972222,84.86277778,PM2.5,NA,NA,NA
India,Odisha,Rourkela,"Raghunathpali, Rourkela - OSPCB",24-06-2024 04:00:00,22.220833,84.809444,NH3,2,3,3
India,Odisha,Rourkela,"Sector-2, Rourkela - OSPCB",24-06-2024 04:00:00,22.24500000,84.88111111,NO2,31,189,84
India,Odisha,Tensa,"Barsua Iron Ore Mines, Tensa - OSPCB",24-06-2024 04:00:00,21.869985,85.167016,PM2.5,30,39,35
India,Odisha,Tensa,"Barsua Iron Ore Mines, Tensa - OSPCB",24-06-2024 04:00:00,21.869985,85.167016,OZONE,12,36,19
India,Punjab,Amritsar,"Golden Temple, Amritsar - PPCB",24-06-2024 04:00:00,31.620000,74.876512,NH3,6,12,8
India,Punjab,Amritsar,"Golden Temple, Amritsar - PPCB",24-06-2024 04:00:00,31.620000,74.876512,SO2,3,26,12
India,Punjab,Bathinda,"Hardev Nagar, Bathinda - PPCB",24-06-2024 04:00:00,30.233011,74.907758,NO2,30,41,34
India,Punjab,Jalandhar,"Civil Line, Jalandhar - PPCB",24-06-2024 04:00:00,31.321907,75.578914,NH3,4,4,4
India,Punjab,Patiala,"Model Town, Patiala - PPCB",24-06-2024 04:00:00,30.349388,76.366642,PM10,84,113,99
India,Punjab,Patiala,"Model Town, Patiala - PPCB",24-06-2024 04:00:00,30.349388,76.366642,NO2,24,29,26
India,Punjab,Patiala,"Model Town, Patiala - PPCB",24-06-2024 04:00:00,30.349388,76.366642,SO2,3,13,7
India,Punjab,Rupnagar,"Ratanpura, Rupnagar - Ambuja Cements",24-06-2024 04:00:00,31.0325454,76.5623046,PM2.5,16,41,28
India,Rajasthan,Alwar,"Moti Doongri, Alwar - RSPCB",24-06-2024 04:00:00,27.554793,76.611536,NO2,1,26,16
India,Rajasthan,Alwar,"Moti Doongri, Alwar - RSPCB",24-06-2024 04:00:00,27.554793,76.611536,CO,25,46,44
India,Rajasthan,Banswara,"Rati Talai, Banswara - RSPCB",24-06-2024 04:00:00,23.555190,74.440010,PM10,51,128,94
India,Rajasthan,Baran,"Bamboliya, Baran - RSPCB",24-06-2024 04:00:00,25.106006,76.469948,NO2,8,35,16
India,Rajasthan,Bharatpur,"Krishna Nagar, Bharatpur - RSPCB",24-06-2024 04:00:00,27.215415,77.50873,NH3,4,13,9
India,Rajasthan,Bhiwadi,"RIICO Ind. Area III, Bhiwadi - RSPCB",24-06-2024 04:00:00,28.194909,76.862296,NO2,62,95,77
India,Rajasthan,Bhiwadi,"Vasundhara Nagar_UIT, Bhiwadi - RSPCB",24-06-2024 04:00:00,28.207266,76.829265,PM10,81,163,129
India,Rajasthan,Bhiwadi,"Vasundhara Nagar_UIT, Bhiwadi - RSPCB",24-06-2024 04:00:00,28.207266,76.829265,CO,16,44,23
India,Rajasthan,Bikaner,"MM Ground, Bikaner - RSPCB",24-06-2024 04:00:00,28.018792,73.292658,CO,16,110,47
India,Rajasthan,Bikaner,"MM Ground, Bikaner - RSPCB",24-06-2024 04:00:00,28.018792,73.292658,OZONE,17,91,57
India,Rajasthan,Bundi,"New Colony, Bundi - RSPCB",24-06-2024 04:00:00,25.435774,75.644272,NH3,4,9,6
India,Rajasthan,Chittorgarh,"Shastri Nagar, Chittorgarh - RSPCB",24-06-2024 04:00:00,24.892047,74.623527,PM2.5,NA,NA,NA
India,Rajasthan,Chittorgarh,"Shastri Nagar, Chittorgarh - RSPCB",24-06-2024 04:00:00,24.892047,74.623527,PM10,NA,NA,NA
India,Rajasthan,Chittorgarh,"Shastri Nagar, Chittorgarh - RSPCB",24-06-2024 04:00:00,24.892047,74.623527,CO,20,50,29
India,Rajasthan,Churu,"Subash Chowk, Churu - RSPCB",24-06-2024 04:00:00,28.296139,74.961696,PM2.5,40,148,75
India,Rajasthan,Dungarpur,"Bhoiwada, Dungarpur - RSPCB",24-06-2024 04:00:00,23.837789,73.714926,NO2,8,26,16
India,Rajasthan,Dungarpur,"Bhoiwada, Dungarpur - RSPCB",24-06-2024 04:00:00,23.837789,73.714926,OZONE,13,91,42
India,Rajasthan,Hanumangarh,"Housing Board, Hanumangarh - RSPCB",24-06-2024 04:00:00,29.610750,74.283608,OZONE,25,79,41
India,Rajasthan,Jaipur,"Adarsh Nagar, Jaipur - RSPCB",24-06-2024 04:00:00,26.902909,75.836858,PM2.5,57,139,82
India,Rajasthan,Jaipur,"Adarsh Nagar, Jaipur - RSPCB",24-06-2024 04:00:00,26.902909,75.836858,CO,8,58,31
India,Rajasthan,Jaipur,"Adarsh Nagar, Jaipur - RSPCB",24-06-2024 04:00:00,26.902909,75.836858,OZONE,44,96,56
India,Rajasthan,Jaipur,"Mansarovar Sector-12, Jaipur - RSPCB",24-06-2024 04:00:00,26.843698,75.766894,PM10,68,102,85
India,Rajasthan,Jaipur,"Mansarovar Sector-12, Jaipur - RSPCB",24-06-2024 04:00:00,26.843698,75.766894,NH3,7,10,8
India,Rajasthan,Jaipur,"Police Commissionerate, Jaipur - RSPCB",24-06-2024 04:00:00,26.9164092,75.7994901,NO2,14,27,20
India,Rajasthan,Jaipur,"Shastri Nagar, Jaipur - RSPCB",24-06-2024 04:00:00,26.9502929,75.730943,NH3,5,12,8
India,Rajasthan,Jaipur,"Shastri Nagar, Jaipur - RSPCB",24-06-2024 04:00:00,26.9502929,75.730943,SO2,15,54,25
India,Rajasthan,Jaipur,"Shastri Nagar, Jaipur - RSPCB",24-06-2024 04:00:00,26.9502929,75.730943,CO,16,54,42
India,Rajasthan,Jaisalmer,"Sadar Bazar, Jaisalmer - RSPCB",24-06-2024 04:00:00,26.912329,70.909168,PM2.5,19,92,40
India,Rajasthan,Jaisalmer,"Sadar Bazar, Jaisalmer - RSPCB",24-06-2024 04:00:00,26.912329,70.909168,NH3,4,9,6
India,Rajasthan,Jhalawar,"Rajlaxmi Nagar, Jhalawar - RSPCB",24-06-2024 04:00:00,24.588397,76.172782,NO2,15,24,19
India,Rajasthan,Jhunjhunu,"Indra Nagar, Jhunjhunu - RSPCB",24-06-2024 04:00:00,28.108988,75.386577,PM2.5,69,236,118
India,Rajasthan,Jodhpur,"Jhalamand, Jodhpur - RSPCB",24-06-2024 04:00:00,26.215415,73.070156,CO,17,32,19
India,Rajasthan,Jodhpur,"Mandor, Jodhpur - RSPCB",24-06-2024 04:00:00,26.358805,73.047444,NO2,19,48,30
India,Rajasthan,Jodhpur,"Mandor, Jodhpur - RSPCB",24-06-2024 04:00:00,26.358805,73.047444,NH3,4,7,6
India,Rajasthan,Karauli,"Satyawati Vihar, Karauli - RSPCB",24-06-2024 04:00:00,26.506177,77.025989,NO2,9,24,17
India,Rajasthan,Karauli,"Satyawati Vihar, Karauli - RSPCB",24-06-2024 04:00:00,26.506177,77.025989,SO2,13,36,28
India,Rajasthan,Kota,"Dhanmandi, Kota - RSPCB",24-06-2024 04:00:00,25.164090,75.858137,NO2,18,57,38
India,Rajasthan,Kota,"Dhanmandi, Kota - RSPCB",24-06-2024 04:00:00,25.164090,75.858137,NH3,4,8,6
India,Rajasthan,Kota,"Nayapura, Kota - RSPCB",24-06-2024 04:00:00,25.196024,75.855668,PM2.5,22,63,37
India,Rajasthan,Kota,"Nayapura, Kota - RSPCB",24-06-2024 04:00:00,25.196024,75.855668,CO,14,32,21
India,Rajasthan,Kota,"Shrinath Puram, Kota - RSPCB",24-06-2024 04:00:00,25.14389,75.821256,PM10,NA,NA,NA
India,Rajasthan,Kota,"Shrinath Puram, Kota - RSPCB",24-06-2024 04:00:00,25.14389,75.821256,NO2,29,75,45
India,Rajasthan,Kota,"Shrinath Puram, Kota - RSPCB",24-06-2024 04:00:00,25.14389,75.821256,SO2,8,14,11
India,Rajasthan,Kota,"Shrinath Puram, Kota - RSPCB",24-06-2024 04:00:00,25.14389,75.821256,OZONE,31,45,34
India,Rajasthan,Nagaur,"Karni Colony, Nagaur - RSPCB",24-06-2024 04:00:00,27.213494,73.734444,PM2.5,31,86,54
India,Rajasthan,Nagaur,"Karni Colony, Nagaur - RSPCB",24-06-2024 04:00:00,27.213494,73.734444,NH3,6,17,10
India,Rajasthan,Pali,"Indira Colony Vistar, Pali - RSPCB",24-06-2024 04:00:00,25.771061, 73.340227,NH3,2,8,4
India,Rajasthan,Pratapgarh,"Pragati Nagar, Pratapgarh - RSPCB",24-06-2024 04:00:00,24.041198,74.780702,NH3,NA,NA,NA
India,Rajasthan,Rajsamand,"Dhoinda, Rajsamand - RSPCB",24-06-2024 04:00:00,25.036360,73.883502,PM2.5,20,48,34
India,Rajasthan,Rajsamand,"Dhoinda, Rajsamand - RSPCB",24-06-2024 04:00:00,25.036360,73.883502,SO2,3,14,9
India,Rajasthan,Sikar,"Radhakishan Pura, Sikar - RSPCB",24-06-2024 04:00:00,27.608912,75.153302,OZONE,57,194,94
India,Rajasthan,Sirohi,"Vedhaynath Colony, Sirohi - RSPCB",24-06-2024 04:00:00,24.885261,72.857549,SO2,3,7,5
India,Rajasthan,Udaipur,"Ashok Nagar, Udaipur - RSPCB",24-06-2024 04:00:00,24.5886166,73.6321397,NH3,5,15,8
India,TamilNadu,Ariyalur,"Keelapalur, Ariyalur - TNPCB",24-06-2024 04:00:00,11.06825,79.07033,SO2,33,35,34
India,TamilNadu,Chennai,"Alandur Bus Depot, Chennai - CPCB",24-06-2024 04:00:00,12.9099161,80.1076538,SO2,2,6,4
India,TamilNadu,Chennai,"Alandur Bus Depot, Chennai - CPCB",24-06-2024 04:00:00,12.9099161,80.1076538,OZONE,4,9,6
India,TamilNadu,Chennai,"Arumbakkam, Chennai - TNPCB",24-06-2024 04:00:00,13.0664,80.2112 ,PM10,21,92,47
India,TamilNadu,Chennai,"Kodungaiyur, Chennai - TNPCB",24-06-2024 04:00:00,13.1278,80.2642,PM10,11,69,38
India,TamilNadu,Chennai,"Kodungaiyur, Chennai - TNPCB",24-06-2024 04:00:00,13.1278,80.2642,NO2,9,21,14
India,TamilNadu,Chennai,"Manali, Chennai - CPCB",24-06-2024 04:00:00,13.164544,80.26285,NO2,7,8,7
India,TamilNadu,Chennai,"Perungudi, Chennai - TNPCB",24-06-2024 04:00:00,12.9533,80.2357,CO,28,34,31
India,TamilNadu,Chennai,"Royapuram, Chennai - TNPCB",24-06-2024 04:00:00,13.1036,80.2909,OZONE,5,9,7
India,TamilNadu,Chennai,"Velachery Res. Area, Chennai - CPCB",24-06-2024 04:00:00,13.0052189,80.2398125,OZONE,9,19,13
India,TamilNadu,Coimbatore,"PSG College of Arts and Science, Coimbatore - TNPCB",24-06-2024 04:00:00,11.0328,77.0349,NH3,1,1,1
India,TamilNadu,Coimbatore,"PSG College of Arts and Science, Coimbatore - TNPCB",24-06-2024 04:00:00,11.0328,77.0349,SO2,36,43,41
India,TamilNadu,Coimbatore,"PSG College of Arts and Science, Coimbatore - TNPCB",24-06-2024 04:00:00,11.0328,77.0349,CO,6,16,9
India,TamilNadu,Cuddalore,"Semmandalam, Cuddalore - TNPCB",24-06-2024 04:00:00,11.7637683,79.7499835,NH3,1,1,1
India,TamilNadu,Gummidipoondi,"Anthoni Pillai Nagar, Gummidipoondi - TNPCB",24-06-2024 04:00:00,13.4127,80.1081,PM2.5,14,115,49
India,TamilNadu,Gummidipoondi,"Anthoni Pillai Nagar, Gummidipoondi - TNPCB",24-06-2024 04:00:00,13.4127,80.1081,PM10,31,104,65
India,TamilNadu,Gummidipoondi,"Anthoni Pillai Nagar, Gummidipoondi - TNPCB",24-06-2024 04:00:00,13.4127,80.1081,NH3,1,4,2
India,TamilNadu,Thoothukudi,"Meelavittan, Thoothukudi - TNPCB",24-06-2024 04:00:00,8.816428 ,78.099039,PM10,11,62,37
India,TamilNadu,Tirupur,"Kumaran College, Tirupur - TNPCB",24-06-2024 04:00:00,11.0973603,77.3228673,SO2,NA,NA,NA
India,TamilNadu,Tirupur,"Kumaran College, Tirupur - TNPCB",24-06-2024 04:00:00,11.0973603,77.3228673,CO,NA,NA,NA
India,TamilNadu,Virudhunagar,"Collectorate Office, Virudhunagar - TNPCB",24-06-2024 04:00:00,9.559382,77.948828,PM2.5,NA,NA,NA
India,TamilNadu,Virudhunagar,"Collectorate Office, Virudhunagar - TNPCB",24-06-2024 04:00:00,9.559382,77.948828,NH3,NA,NA,NA
India,TamilNadu,Virudhunagar,"Collectorate Office, Virudhunagar - TNPCB",24-06-2024 04:00:00,9.559382,77.948828,CO,NA,NA,NA
India,Telangana,Hyderabad,"Bollaram Industrial Area, Hyderabad - TSPCB",24-06-2024 04:00:00,17.540891,78.358528,PM10,23,81,53
India,Telangana,Hyderabad,"Bollaram Industrial Area, Hyderabad - TSPCB",24-06-2024 04:00:00,17.540891,78.358528,CO,2,118,66
India,Telangana,Hyderabad,"Bollaram Industrial Area, Hyderabad - TSPCB",24-06-2024 04:00:00,17.540891,78.358528,OZONE,28,35,33
India,Telangana,Hyderabad,"Central University, Hyderabad - TSPCB",24-06-2024 04:00:00,17.460103,78.334361,PM2.5,12,45,25
India,Telangana,Hyderabad,"Central University, Hyderabad - TSPCB",24-06-2024 04:00:00,17.460103,78.334361,NH3,1,6,4
India,Telangana,Hyderabad,"ICRISAT Patancheru, Hyderabad - TSPCB",24-06-2024 04:00:00,17.518400,78.278777,NO2,5,24,10
India,Telangana,Hyderabad,"IDA Pashamylaram, Hyderabad - TSPCB",24-06-2024 04:00:00,17.5316895,78.218939,PM2.5,22,75,34
India,Telangana,Hyderabad,"Kompally Municipal Office, Hyderabad - TSPCB",24-06-2024 04:00:00,17.544899,78.486949,NH3,NA,NA,NA
India,Telangana,Hyderabad,"Kompally Municipal Office, Hyderabad - TSPCB",24-06-2024 04:00:00,17.544899,78.486949,SO2,NA,NA,NA
India,Telangana,Hyderabad,"Kompally Municipal Office, Hyderabad - TSPCB",24-06-2024 04:00:00,17.544899,78.486949,OZONE,NA,NA,NA
India,Telangana,Hyderabad,"New Malakpet, Hyderabad - TSPCB",24-06-2024 04:00:00,17.37206,78.50864,SO2,7,60,17
India,Telangana,Hyderabad,"Ramachandrapuram, Hyderabad - TSPCB",24-06-2024 04:00:00,17.528544,78.286195,NO2,8,13,10
India,Telangana,Hyderabad,"Ramachandrapuram, Hyderabad - TSPCB",24-06-2024 04:00:00,17.528544,78.286195,SO2,12,13,12
India,Telangana,Hyderabad,"Ramachandrapuram, Hyderabad - TSPCB",24-06-2024 04:00:00,17.528544,78.286195,OZONE,26,63,34
India,Telangana,Hyderabad,"Sanathnagar, Hyderabad - TSPCB",24-06-2024 04:00:00,17.4559458,78.4332152,PM2.5,25,500,78
India,Telangana,Hyderabad,"Zoo Park, Hyderabad - TSPCB",24-06-2024 04:00:00,17.349694,78.451437,PM2.5,8,43,21
India,Telangana,Hyderabad,"Zoo Park, Hyderabad - TSPCB",24-06-2024 04:00:00,17.349694,78.451437,PM10,6,98,24
India,Telangana,Hyderabad,"Zoo Park, Hyderabad - TSPCB",24-06-2024 04:00:00,17.349694,78.451437,SO2,1,6,3
India,Uttar_Pradesh,Agra,"Manoharpur, Agra - UPPCB",24-06-2024 04:00:00,27.23711,78.01936,SO2,18,18,18
India,Uttar_Pradesh,Agra,"Rohta, Agra - UPPCB",24-06-2024 04:00:00,27.106972,78.000111,SO2,5,11,7
India,Uttar_Pradesh,Baghpat,"Sardar Patel Inter College, Baghpat - UPPCB",24-06-2024 04:00:00,28.964949,77.278761,PM2.5,23,44,31
India,Uttar_Pradesh,Bareilly,"Civil Lines, Bareilly - UPPCB",24-06-2024 04:00:00,28.359581,79.414455,PM2.5,11,21,15
India,Uttar_Pradesh,Bareilly,"Civil Lines, Bareilly - UPPCB",24-06-2024 04:00:00,28.359581,79.414455,OZONE,NA,NA,NA
India,Uttar_Pradesh,Bareilly,"Rajendra Nagar, Bareilly - UPPCB",24-06-2024 04:00:00,28.38910936,79.42963708,PM2.5,17,32,20
India,Uttar_Pradesh,Bareilly,"Rajendra Nagar, Bareilly - UPPCB",24-06-2024 04:00:00,28.38910936,79.42963708,SO2,19,19,19
India,Uttar_Pradesh,Bulandshahr,"Yamunapuram, Bulandshahr - UPPCB",24-06-2024 04:00:00,28.406963,77.849831,SO2,16,27,22
India,Uttar_Pradesh,Firozabad,"Nagla Bhau, Firozabad - UPPCB",24-06-2024 04:00:00,27.168897,78.376960,PM10,24,94,50
India,Uttar_Pradesh,Firozabad,"Vibhab Nagar, Firozabad - UPPCB",24-06-2024 04:00:00,27.1594,78.3953,CO,16,24,22
India,Uttar_Pradesh,Ghaziabad,"Indirapuram, Ghaziabad - UPPCB",24-06-2024 04:00:00,28.646233,77.358075,PM2.5,88,331,210
India,Uttar_Pradesh,Ghaziabad,"Indirapuram, Ghaziabad - UPPCB",24-06-2024 04:00:00,28.646233,77.358075,CO,9,46,14
India,Uttar_Pradesh,Ghaziabad,"Loni, Ghaziabad - UPPCB",24-06-2024 04:00:00,28.757294,77.278792,PM2.5,107,372,233
India,Uttar_Pradesh,Ghaziabad,"Loni, Ghaziabad - UPPCB",24-06-2024 04:00:00,28.757294,77.278792,NO2,17,115,38
India,Uttar_Pradesh,Ghaziabad,"Sanjay Nagar, Ghaziabad - UPPCB",24-06-2024 04:00:00,28.685382,77.453839,PM10,74,163,114
India,Uttar_Pradesh,Ghaziabad,"Vasundhara, Ghaziabad - UPPCB",24-06-2024 04:00:00,28.6603346,77.3572563,PM2.5,34,84,56
India,Uttar_Pradesh,Ghaziabad,"Vasundhara, Ghaziabad - UPPCB",24-06-2024 04:00:00,28.6603346,77.3572563,NO2,17,55,28
India,Uttar_Pradesh,Gorakhpur,"Madan Mohan Malaviya University of Technology, Gorakhpur - UPPCB",24-06-2024 04:00:00,26.730136,83.433859,PM2.5,NA,NA,NA
India,Uttar_Pradesh,Gorakhpur,"Madan Mohan Malaviya University of Technology, Gorakhpur - UPPCB",24-06-2024 04:00:00,26.730136,83.433859,SO2,20,21,20
India,Uttar_Pradesh,Greater Noida,"Knowledge Park - III, Greater Noida - UPPCB",24-06-2024 04:00:00,28.47272,77.482000,OZONE,4,119,32
India,Uttar_Pradesh,Hapur,"Anand Vihar, Hapur - UPPCB",24-06-2024 04:00:00,28.725645,77.749675,PM10,45,94,73
India,Uttar_Pradesh,Hapur,"Anand Vihar, Hapur - UPPCB",24-06-2024 04:00:00,28.725645,77.749675,SO2,NA,NA,NA
India,Uttar_Pradesh,Jhansi,"Shivaji Nagar, Jhansi - UPPCB",24-06-2024 04:00:00,25.4547,78.6039,PM2.5,59,244,94
India,Uttar_Pradesh,Jhansi,"Shivaji Nagar, Jhansi - UPPCB",24-06-2024 04:00:00,25.4547,78.6039,NO2,17,38,23
India,Uttar_Pradesh,Jhansi,"Shivaji Nagar, Jhansi - UPPCB",24-06-2024 04:00:00,25.4547,78.6039,SO2,19,23,20
India,Uttar_Pradesh,Kanpur,"NSI Kalyanpur, Kanpur - UPPCB",24-06-2024 04:00:00,26.509954,80.249612,SO2,17,19,18
India,Uttar_Pradesh,Kanpur,"NSI Kalyanpur, Kanpur - UPPCB",24-06-2024 04:00:00,26.509954,80.249612,CO,30,50,48
India,Uttar_Pradesh,Kanpur,"Nehru Nagar, Kanpur - UPPCB",24-06-2024 04:00:00,26.4703136,80.3229863,PM2.5,59,193,123
India,Uttar_Pradesh,Kanpur,"Nehru Nagar, Kanpur - UPPCB",24-06-2024 04:00:00,26.4703136,80.3229863,SO2,7,15,10
India,Uttar_Pradesh,Khurja,"Kalindi Kunj, Khurja - UPPCB",24-06-2024 04:00:00,28.2348927,77.8683002,NH3,1,1,1
India,Uttar_Pradesh,Lucknow,"Gomti Nagar, Lucknow - UPPCB",24-06-2024 04:00:00,26.868120,81.005119,OZONE,42,51,47
India,Uttar_Pradesh,Lucknow,"Kukrail Picnic Spot-1, Lucknow - UPPCB",24-06-2024 04:00:00,26.90723,80.98579,OZONE,11,30,21
India,Uttar_Pradesh,Lucknow,"Lalbagh, Lucknow - CPCB",24-06-2024 04:00:00,26.8458805,80.9365541,PM2.5,38,123,79
India,Uttar_Pradesh,Lucknow,"Lalbagh, Lucknow - CPCB",24-06-2024 04:00:00,26.8458805,80.9365541,NH3,23,26,25
India,Uttar_Pradesh,Lucknow,"Talkatora District Industries Center, Lucknow - CPCB",24-06-2024 04:00:00,26.83399722,80.8917361,PM10,74,106,90
India,Uttar_Pradesh,Lucknow,"Talkatora District Industries Center, Lucknow - CPCB",24-06-2024 04:00:00,26.83399722,80.8917361,OZONE,72,96,81
India,Uttar_Pradesh,Meerut,"Ganga Nagar, Meerut - UPPCB",24-06-2024 04:00:00,28.999264,77.7590354,CO,62,86,80
India,Uttar_Pradesh,Meerut,"Jai Bhim Nagar, Meerut - UPPCB",24-06-2024 04:00:00,28.9535882,77.7622941,PM10,74,127,108
India,Uttar_Pradesh,Meerut,"Pallavpuram Phase 2, Meerut - UPPCB",24-06-2024 04:00:00,29.063510,77.709723,PM10,NA,NA,NA
India,Uttar_Pradesh,Moradabad,"Buddhi Vihar, Moradabad - UPPCB",24-06-2024 04:00:00,28.83526,78.74460,NH3,3,3,3
India,Uttar_Pradesh,Moradabad,"Buddhi Vihar, Moradabad - UPPCB",24-06-2024 04:00:00,28.83526,78.74460,OZONE,2,19,9
India,Uttar_Pradesh,Moradabad,"Eco Herbal Park, Moradabad - UPPCB",24-06-2024 04:00:00,28.840739,78.697531,CO,20,84,54
India,Uttar_Pradesh,Moradabad,"Employment Office, Moradabad - UPPCB",24-06-2024 04:00:00,28.88528,78.73880,PM10,30,294,78
India,Uttar_Pradesh,Moradabad,"Employment Office, Moradabad - UPPCB",24-06-2024 04:00:00,28.88528,78.73880,NH3,4,4,4
India,Uttar_Pradesh,Moradabad,"Jigar Colony, Moradabad - UPPCB",24-06-2024 04:00:00,28.856664,78.772638,OZONE,10,59,33
India,Uttar_Pradesh,Moradabad,"Kashiram Nagar, Moradabad - UPPCB",24-06-2024 04:00:00,28.849399,78.742362,NO2,12,14,12
India,Uttar_Pradesh,Moradabad,"Kashiram Nagar, Moradabad - UPPCB",24-06-2024 04:00:00,28.849399,78.742362,CO,24,44,35
India,Uttar_Pradesh,Moradabad,"Kashiram Nagar, Moradabad - UPPCB",24-06-2024 04:00:00,28.849399,78.742362,OZONE,19,57,36
India,Uttar_Pradesh,Moradabad,"Transport Nagar, Moradabad - UPPCB",24-06-2024 04:00:00,28.802625,78.753728,PM10,34,106,67
India,Uttar_Pradesh,Noida,"Sector - 125, Noida - UPPCB",24-06-2024 04:00:00,28.5447608,77.3231257,PM10,NA,NA,NA
India,Uttar_Pradesh,Noida,"Sector - 125, Noida - UPPCB",24-06-2024 04:00:00,28.5447608,77.3231257,NO2,NA,NA,NA
India,Uttar_Pradesh,Noida,"Sector - 62, Noida - IMD",24-06-2024 04:00:00,28.6245479,77.3577104,OZONE,19,50,28
India,Uttar_Pradesh,Noida,"Sector-1, Noida - UPPCB",24-06-2024 04:00:00,28.5898,77.3101,PM2.5,84,223,134
India,Uttar_Pradesh,Noida,"Sector-1, Noida - UPPCB",24-06-2024 04:00:00,28.5898,77.3101,PM10,86,155,124
India,Uttar_Pradesh,Noida,"Sector-1, Noida - UPPCB",24-06-2024 04:00:00,28.5898,77.3101,CO,26,58,42
India,Uttar_Pradesh,Noida,"Sector-1, Noida - UPPCB",24-06-2024 04:00:00,28.5898,77.3101,OZONE,22,98,33
India,Uttar_Pradesh,Noida,"Sector-116, Noida - UPPCB",24-06-2024 04:00:00,28.569230,77.393848,PM2.5,85,196,117
India,Uttar_Pradesh,Prayagraj,"Jhunsi, Prayagraj - UPPCB",24-06-2024 04:00:00,25.425602,81.917152,NO2,5,6,6
India,Uttar_Pradesh,Prayagraj,"Motilal Nehru NIT, Prayagraj - UPPCB",24-06-2024 04:00:00,25.494,81.863,NH3,6,7,7
India,Uttar_Pradesh,Prayagraj,"Nagar Nigam, Prayagraj - UPPCB",24-06-2024 04:00:00,25.44919916 ,81.82735986 ,OZONE,11,12,11
India,Uttar_Pradesh,Varanasi,"Ardhali Bazar, Varanasi - UPPCB",24-06-2024 04:00:00,25.3505986,82.9083074,PM2.5,20,49,33
India,Uttar_Pradesh,Varanasi,"Ardhali Bazar, Varanasi - UPPCB",24-06-2024 04:00:00,25.3505986,82.9083074,NO2,28,33,30
India,Uttar_Pradesh,Varanasi,"Ardhali Bazar, Varanasi - UPPCB",24-06-2024 04:00:00,25.3505986,82.9083074,OZONE,20,22,21
India,Uttar_Pradesh,Varanasi,"Bhelupur, Varanasi - UPPCB",24-06-2024 04:00:00,25.301778,82.996789,NO2,7,8,8
India,Uttar_Pradesh,Varanasi,"Bhelupur, Varanasi - UPPCB",24-06-2024 04:00:00,25.301778,82.996789,OZONE,3,20,14
India,Uttar_Pradesh,Varanasi,"IESD Banaras Hindu University, Varanasi - UPPCB",24-06-2024 04:00:00,25.262326,82.995408,PM10,11,25,18
India,Uttar_Pradesh,Varanasi,"IESD Banaras Hindu University, Varanasi - UPPCB",24-06-2024 04:00:00,25.262326,82.995408,NH3,1,3,1
India,Uttar_Pradesh,Varanasi,"Maldahiya, Varanasi - UPPCB",24-06-2024 04:00:00,25.32393,82.99687,PM10,NA,NA,NA
India,Uttar_Pradesh,Varanasi,"Maldahiya, Varanasi - UPPCB",24-06-2024 04:00:00,25.32393,82.99687,NO2,NA,NA,NA
India,Uttar_Pradesh,Varanasi,"Maldahiya, Varanasi - UPPCB",24-06-2024 04:00:00,25.32393,82.99687,NH3,NA,NA,NA
India,Uttar_Pradesh,Varanasi,"Maldahiya, Varanasi - UPPCB",24-06-2024 04:00:00,25.32393,82.99687,CO,NA,NA,NA
India,Uttar_Pradesh,Vrindavan,"Omex Eternity, Vrindavan - UPPCB",24-06-2024 04:00:00,27.5714090,77.6557570,PM10,27,169,74
India,Uttarakhand,Dehradun,"Doon University, Dehradun - UKPCB",24-06-2024 04:00:00,30.269444,78.044167,SO2,1,1,1
India,Uttarakhand,Dehradun,"Doon University, Dehradun - UKPCB",24-06-2024 04:00:00,30.269444,78.044167,CO,25,36,34
India,Uttarakhand,Dehradun,"Doon University, Dehradun - UKPCB",24-06-2024 04:00:00,30.269444,78.044167,OZONE,8,67,13
India,Uttarakhand,Kashipur,"Govt. Girls Inter College, Kashipur - UKPCB",24-06-2024 04:00:00,29.2124114,78.9611753,NH3,3,4,4
India,Uttarakhand,Kashipur,"Govt. Girls Inter College, Kashipur - UKPCB",24-06-2024 04:00:00,29.2124114,78.9611753,OZONE,6,61,19
India,Uttarakhand,Rishikesh,"Shivaji Nagar, Rishikesh - UKPCB",24-06-2024 04:00:00,30.075911,78.2859547,NO2,7,14,9
India,West_Bengal,Asansol,"Evelyn Lodge, Asansol - WBPCB",24-06-2024 04:00:00,23.6979360,86.9443950,PM2.5,18,75,42
India,West_Bengal,Asansol,"Evelyn Lodge, Asansol - WBPCB",24-06-2024 04:00:00,23.6979360,86.9443950,NO2,19,47,25
India,West_Bengal,Barrackpore,"SVSPA Campus, Barrackpore - WBPCB",24-06-2024 04:00:00,22.7605581,88.3617589,PM2.5,18,63,33
India,West_Bengal,Barrackpore,"SVSPA Campus, Barrackpore - WBPCB",24-06-2024 04:00:00,22.7605581,88.3617589,NO2,5,18,9
India,West_Bengal,Haldia,"Priyambada Housing Estate, Haldia - WBPCB",24-06-2024 04:00:00,22.06047,88.109737,PM10,16,55,35
India,West_Bengal,Haldia,"Priyambada Housing Estate, Haldia - WBPCB",24-06-2024 04:00:00,22.06047,88.109737,SO2,5,22,14
India,West_Bengal,Haldia,"Priyambada Housing Estate, Haldia - WBPCB",24-06-2024 04:00:00,22.06047,88.109737,OZONE,17,27,22
India,West_Bengal,Howrah,"Belur Math, Howrah - WBPCB",24-06-2024 04:00:00,22.629801,88.352017,PM2.5,NA,NA,NA
India,West_Bengal,Howrah,"Belur Math, Howrah - WBPCB",24-06-2024 04:00:00,22.629801,88.352017,OZONE,10,15,14
India,West_Bengal,Howrah,"Ghusuri, Howrah - WBPCB",24-06-2024 04:00:00,22.611968,88.347422,SO2,4,7,5
India,West_Bengal,Howrah,"Padmapukur, Howrah - WBPCB",24-06-2024 04:00:00,22.5687319,88.2797276,NO2,26,52,39
India,West_Bengal,Howrah,"Padmapukur, Howrah - WBPCB",24-06-2024 04:00:00,22.5687319,88.2797276,SO2,6,29,10
India,West_Bengal,Howrah,"Padmapukur, Howrah - WBPCB",24-06-2024 04:00:00,22.5687319,88.2797276,OZONE,20,28,21
India,West_Bengal,Kolkata,"Bidhannagar, Kolkata - WBPCB",24-06-2024 04:00:00,22.58157048,88.41002457,NO2,41,46,44
India,West_Bengal,Kolkata,"Fort William, Kolkata - WBPCB",24-06-2024 04:00:00,22.556640,88.342674,NO2,11,25,18
India,West_Bengal,Kolkata,"Fort William, Kolkata - WBPCB",24-06-2024 04:00:00,22.556640,88.342674,NH3,3,4,4
India,West_Bengal,Kolkata,"Fort William, Kolkata - WBPCB",24-06-2024 04:00:00,22.556640,88.342674,SO2,3,6,4
India,West_Bengal,Kolkata,"Rabindra Bharati University, Kolkata - WBPCB",24-06-2024 04:00:00,22.627847,88.380669,NH3,10,13,12
India,West_Bengal,Kolkata,"Victoria, Kolkata - WBPCB",24-06-2024 04:00:00,22.5448082,88.3403691,PM2.5,15,33,22
India,West_Bengal,Kolkata,"Victoria, Kolkata - WBPCB",24-06-2024 04:00:00,22.5448082,88.3403691,OZONE,12,21,13
India,West_Bengal,Siliguri,"Ward-32 Bapupara, Siliguri - WBPCB",24-06-2024 04:00:00,26.6879226,88.4152495,NH3,10,10,10
India,West_Bengal,Siliguri,"Ward-32 Bapupara, Siliguri - WBPCB",24-06-2024 04:00:00,26.6879226,88.4152495,SO2,8,9,8
India,West_Bengal,Siliguri,"Ward-32 Bapupara, Siliguri - WBPCB",24-06-2024 04:00:00,26.6879226,88.4152495,CO,12,30,21
India,West_Bengal,Siliguri,"Ward-32 Bapupara, Siliguri - WBPCB",24-06-2024 04:00:00,26.6879226,88.4152495,OZONE,17,18,17
India,Andhra_Pradesh,Amaravati,"Secretariat, Amaravati - APPCB",24-06-2024 04:00:00,16.5150833,80.5181667,PM2.5,17,44,30
India,Andhra_Pradesh,Amaravati,"Secretariat, Amaravati - APPCB",24-06-2024 04:00:00,16.5150833,80.5181667,PM10,20,77,40
India,Andhra_Pradesh,Amaravati,"Secretariat, Amaravati - APPCB",24-06-2024 04:00:00,16.5150833,80.5181667,NH3,3,4,4
India,Andhra_Pradesh,Anantapur,"Gulzarpet, Anantapur - APPCB",24-06-2024 04:00:00,14.675886,77.593027,PM10,63,232,92
India,Andhra_Pradesh,Anantapur,"Gulzarpet, Anantapur - APPCB",24-06-2024 04:00:00,14.675886,77.593027,NO2,12,13,13
India,Andhra_Pradesh,Anantapur,"Gulzarpet, Anantapur - APPCB",24-06-2024 04:00:00,14.675886,77.593027,NH3,4,4,4
India,Andhra_Pradesh,Anantapur,"Gulzarpet, Anantapur - APPCB",24-06-2024 04:00:00,14.675886,77.593027,SO2,3,5,4
India,Andhra_Pradesh,Kadapa,"Yerramukkapalli, Kadapa - APPCB",24-06-2024 04:00:00,14.465052,78.824187,PM2.5,46,62,54
India,Andhra_Pradesh,Rajamahendravaram,"Anand Kala Kshetram, Rajamahendravaram - APPCB",24-06-2024 04:00:00,16.9872867,81.7363176,CO,15,69,45
India,Andhra_Pradesh,Tirupati,"Tirumala, Tirupati - APPCB",24-06-2024 04:00:00,13.67,79.35,CO,11,29,23
India,Andhra_Pradesh,Tirupati,"Vaikuntapuram, Tirupati - APPCB",24-06-2024 04:00:00,13.615387,79.409230,PM2.5,NA,NA,NA
India,Andhra_Pradesh,Tirupati,"Vaikuntapuram, Tirupati - APPCB",24-06-2024 04:00:00,13.615387,79.409230,NH3,2,3,2
India,Andhra_Pradesh,Vijayawada,"HB Colony, Vijayawada - APPCB",24-06-2024 04:00:00,16.536107,80.594233,PM10,35,120,50
India,Andhra_Pradesh,Vijayawada,"HB Colony, Vijayawada - APPCB",24-06-2024 04:00:00,16.536107,80.594233,CO,33,33,33
India,Andhra_Pradesh,Vijayawada,"Kanuru, Vijayawada - APPCB",24-06-2024 04:00:00,16.486692,80.699436,PM10,45,67,55
India,Andhra_Pradesh,Vijayawada,"Rajiv Gandhi Park, Vijayawada - APPCB",24-06-2024 04:00:00,16.509717,80.612222,PM2.5,58,85,69
India,Andhra_Pradesh,Vijayawada,"Rajiv Gandhi Park, Vijayawada - APPCB",24-06-2024 04:00:00,16.509717,80.612222,NO2,26,38,31
India,Andhra_Pradesh,Vijayawada,"Rajiv Nagar, Vijayawada - APPCB",24-06-2024 04:00:00,16.554731,80.649110,PM2.5,47,63,50
India,Andhra_Pradesh,Vijayawada,"Rajiv Nagar, Vijayawada - APPCB",24-06-2024 04:00:00,16.554731,80.649110,NH3,2,2,2
India,Andhra_Pradesh,Vijayawada,"Rajiv Nagar, Vijayawada - APPCB",24-06-2024 04:00:00,16.554731,80.649110,CO,38,38,38
India,Andhra_Pradesh,Vijayawada,"Rajiv Nagar, Vijayawada - APPCB",24-06-2024 04:00:00,16.554731,80.649110,OZONE,14,28,19
India,Andhra_Pradesh,Visakhapatnam,"GVM Corporation, Visakhapatnam - APPCB",24-06-2024 04:00:00,17.72,83.3,NH3,3,5,3
India,Andhra_Pradesh,Visakhapatnam,"GVM Corporation, Visakhapatnam - APPCB",24-06-2024 04:00:00,17.72,83.3,SO2,9,16,12
India,Assam,Byrnihat,"Central Academy for SFS, Byrnihat - PCBA",24-06-2024 04:00:00,26.071318,91.87488,CO,9,22,11
India,Assam,Guwahati,"LGBI Airport, Guwahati - PCBA",24-06-2024 04:00:00,26.10887,91.589544,PM2.5,NA,NA,NA
India,Assam,Guwahati,"LGBI Airport, Guwahati - PCBA",24-06-2024 04:00:00,26.10887,91.589544,NO2,6,54,15
India,Assam,Guwahati,"LGBI Airport, Guwahati - PCBA",24-06-2024 04:00:00,26.10887,91.589544,CO,38,52,46
India,Assam,Guwahati,"LGBI Airport, Guwahati - PCBA",24-06-2024 04:00:00,26.10887,91.589544,OZONE,20,24,22
India,Assam,Guwahati,"Railway Colony, Guwahati - PCBA",24-06-2024 04:00:00,26.181742,91.78063,PM10,19,59,34
India,Assam,Nagaon,"Christianpatty, Nagaon - PCBA",24-06-2024 04:00:00,26.349082,92.68449,PM10,16,66,22
India,Assam,Nalbari,"Bata Chowk, Nalbari - PCBA",24-06-2024 04:00:00,26.446912,91.439057,NO2,8,25,18
India,Assam,Nalbari,"Bata Chowk, Nalbari - PCBA",24-06-2024 04:00:00,26.446912,91.439057,SO2,2,43,8
India,Assam,Silchar,"Tarapur, Silchar - PCBA",24-06-2024 04:00:00,24.82827,92.79525,NO2,9,9,9
India,Assam,Silchar,"Tarapur, Silchar - PCBA",24-06-2024 04:00:00,24.82827,92.79525,NH3,1,1,1
India,Assam,Sivasagar,"Girls College, Sivasagar - PCBA",24-06-2024 04:00:00,26.987634,94.636574,SO2,6,10,9
India,Assam,Sivasagar,"Girls College, Sivasagar - PCBA",24-06-2024 04:00:00,26.987634,94.636574,OZONE,1,4,1
India,Bihar,Araria,"Kharahiya Basti, Araria - BSPCB",24-06-2024 04:00:00,26.146529,87.454184,PM10,NA,NA,NA
India,Bihar,Araria,"Kharahiya Basti, Araria - BSPCB",24-06-2024 04:00:00,26.146529,87.454184,SO2,NA,NA,NA
India,Bihar,Arrah,"New DM Office, Arrah - BSPCB",24-06-2024 04:00:00,25.5626095,84.663264,NO2,9,12,11
India,Bihar,Arrah,"New DM Office, Arrah - BSPCB",24-06-2024 04:00:00,25.5626095,84.663264,SO2,4,10,7
India,Bihar,Arrah,"New DM Office, Arrah - BSPCB",24-06-2024 04:00:00,25.5626095,84.663264,OZONE,7,19,17
India,Bihar,Aurangabad,"Gurdeo Nagar, Aurangabad - BSPCB",24-06-2024 04:00:00,24.75746,84.366208,NH3,8,34,19
India,Bihar,Bettiah,"Kamalnath Nagar, Bettiah - BSPCB",24-06-2024 04:00:00,26.80365,84.51954,SO2,12,18,15
India,Bihar,Bhagalpur,"DM Office_Kachari Chowk, Bhagalpur - BSPCB",24-06-2024 04:00:00,25.251013,86.989001,OZONE,46,48,47
India,Bihar,Bhagalpur,"Mayaganj, Bhagalpur - BSPCB",24-06-2024 04:00:00,25.265194,87.012947,CO,NA,NA,NA
India,Bihar,Bhagalpur,"Mayaganj, Bhagalpur - BSPCB",24-06-2024 04:00:00,25.265194,87.012947,OZONE,NA,NA,NA
India,Bihar,Bihar Sharif,"D M Colony, Bihar Sharif - BSPCB",24-06-2024 04:00:00,25.204762,85.514960,CO,24,30,27
India,Bihar,Buxar,"Charitra Van, Buxar - BSPCB (Formerly known as Central Jail)",24-06-2024 04:00:00,25.567520,83.966379,PM2.5,NA,NA,NA
India,Bihar,Chhapra,"Darshan Nagar, Chhapra - BSPCB",24-06-2024 04:00:00,25.7808257,84.7446768,PM10,34,71,55
India,Bihar,Gaya,"Collectorate, Gaya - BSPCB",24-06-2024 04:00:00,24.7955,84.9994,PM2.5,28,310,99
India,Bihar,Gaya,"Kareemganj, Gaya - BSPCB",24-06-2024 04:00:00,24.792403,84.992416,PM2.5,2,40,16
India,Bihar,Gaya,"SFTI Kusdihra, Gaya - BSPCB",24-06-2024 04:00:00,24.762518,84.982348,SO2,7,9,8
India,Bihar,Hajipur,"Industrial Area, Hajipur - BSPCB",24-06-2024 04:00:00,25.697189,85.245900,OZONE,29,119,61
India,Bihar,Manguraha,"Forest Rest House, Manguraha - BSPCB",24-06-2024 04:00:00,27.308328,84.531742,PM10,NA,NA,NA
India,Bihar,Munger,"Town Hall, Munger - BSPCB",24-06-2024 04:00:00,25.376776,86.471523,CO,84,103,96
India,Bihar,Munger,"Town Hall, Munger - BSPCB",24-06-2024 04:00:00,25.376776,86.471523,OZONE,1,9,2
India,Bihar,Muzaffarpur,"Buddha Colony, Muzaffarpur - BSPCB",24-06-2024 04:00:00,26.11442,85.39813,NO2,13,29,17
India,Bihar,Patna,"DRM Office Danapur, Patna - BSPCB",24-06-2024 04:00:00,25.586562,85.043586,CO,22,38,33
India,Bihar,Patna,"Govt. High School Shikarpur, Patna - BSPCB",24-06-2024 04:00:00,25.592539,85.227158,PM10,73,96,81
India,Bihar,Patna,"Govt. High School Shikarpur, Patna - BSPCB",24-06-2024 04:00:00,25.592539,85.227158,NH3,4,5,5
India,Bihar,Patna,"Govt. High School Shikarpur, Patna - BSPCB",24-06-2024 04:00:00,25.592539,85.227158,OZONE,1,59,7
India,Bihar,Patna,"IGSC Planetarium Complex, Patna - BSPCB",24-06-2024 04:00:00,25.610369,85.132568,SO2,5,8,6
India,Bihar,Patna,"Rajbansi Nagar, Patna - BSPCB",24-06-2024 04:00:00,25.599486,85.113666,PM10,80,102,92
India,Bihar,Patna,"Rajbansi Nagar, Patna - BSPCB",24-06-2024 04:00:00,25.599486,85.113666,NO2,7,38,12
India,Bihar,Patna,"Rajbansi Nagar, Patna - BSPCB",24-06-2024 04:00:00,25.599486,85.113666,OZONE,10,74,26
India,Bihar,Saharsa,"Police Line, Saharsa - BSPCB",24-06-2024 04:00:00,25.892357,86.590325,NH3,9,9,9
India,Bihar,Samastipur,"DM Office_Kasipur, Samastipur - BSPCB",24-06-2024 04:00:00,25.859655,85.77944,PM10,NA,NA,NA
India,Bihar,Samastipur,"DM Office_Kasipur, Samastipur - BSPCB",24-06-2024 04:00:00,25.859655,85.77944,OZONE,NA,NA,NA
India,Bihar,Siwan,"Chitragupta Nagar, Siwan - BSPCB",24-06-2024 04:00:00,26.2271665,84.3570427,SO2,NA,NA,NA
India,Chandigarh,Chandigarh,"Sector 22, Chandigarh - CPCC",24-06-2024 04:00:00,30.735567,76.775714,PM2.5,50,120,81
India,Chandigarh,Chandigarh,"Sector 22, Chandigarh - CPCC",24-06-2024 04:00:00,30.735567,76.775714,NH3,7,16,11
India,Chandigarh,Chandigarh,"Sector 22, Chandigarh - CPCC",24-06-2024 04:00:00,30.735567,76.775714,CO,32,46,42
India,Chhattisgarh,Bhilai,"32Bungalows, Bhilai - CECB",24-06-2024 04:00:00,21.194815,81.314770,PM10,16,48,36
India,Chhattisgarh,Bhilai,"Civic Center, Bhilai - Bhilai Steel Plant",24-06-2024 04:00:00,21.185571,81.343175,SO2,10,11,10
India,Chhattisgarh,Bhilai,"Hathkhoj, Bhilai - CECB",24-06-2024 04:00:00,21.224231,81.408350,PM2.5,10,32,19
India,Chhattisgarh,Bhilai,"Hathkhoj, Bhilai - CECB",24-06-2024 04:00:00,21.224231,81.408350,CO,6,58,27
India,Chhattisgarh,Bhilai,"Hathkhoj, Bhilai - CECB",24-06-2024 04:00:00,21.224231,81.408350,OZONE,22,52,31
India,Chhattisgarh,Bilaspur,"Mangala, Bilaspur - NTPC",24-06-2024 04:00:00,22.08815,82.13737,PM10,12,55,32
India,Chhattisgarh,Chhal,"Nawapara SECL Colony, Chhal - CECB",24-06-2024 04:00:00,22.118125,83.140608,NO2,NA,NA,NA
India,Chhattisgarh,Korba,"Rampur, Korba - CECB",24-06-2024 04:00:00,22.368195,82.746431,NO2,NA,NA,NA
India,Chhattisgarh,Korba,"Rampur, Korba - CECB",24-06-2024 04:00:00,22.368195,82.746431,SO2,NA,NA,NA
India,Chhattisgarh,Korba,"Urja Nagar, Korba - CECB",24-06-2024 04:00:00,22.348441,82.549611,PM10,13,121,51
India,Chhattisgarh,Kunjemura,"OP Jindal School, Kunjemura - CECB",24-06-2024 04:00:00,22.126650,83.483212,NH3,1,3,2
India,Chhattisgarh,Kunjemura,"OP Jindal School, Kunjemura - CECB",24-06-2024 04:00:00,22.126650,83.483212,OZONE,4,17,5
India,Chhattisgarh,Milupara,"Govt. Higher Secondary School, Milupara - CECB",24-06-2024 04:00:00,22.1910172,83.5197009,PM2.5,NA,NA,NA
India,Chhattisgarh,Milupara,"Govt. Higher Secondary School, Milupara - CECB",24-06-2024 04:00:00,22.1910172,83.5197009,PM10,16,80,45
India,Chhattisgarh,Milupara,"Govt. Higher Secondary School, Milupara - CECB",24-06-2024 04:00:00,22.1910172,83.5197009,CO,8,34,24
India,Chhattisgarh,Raipur,"Bhatagaon New ISBT, Raipur - CECB",24-06-2024 04:00:00,21.219665,81.630094,PM10,NA,NA,NA
India,Chhattisgarh,Raipur,"Siltara Phase-II, Raipur - CECB",24-06-2024 04:00:00,21.371751,81.664929,PM10,38,99,64
India,Chhattisgarh,Raipur,"Siltara Phase-II, Raipur - CECB",24-06-2024 04:00:00,21.371751,81.664929,NH3,3,3,3
India,Chhattisgarh,Raipur,"Siltara Phase-II, Raipur - CECB",24-06-2024 04:00:00,21.371751,81.664929,OZONE,3,12,5
India,Chhattisgarh,Tumidih,"OP Jindal Industrial Park, Tumidih - CECB",24-06-2024 04:00:00,22.06631475,83.33820077,NH3,1,2,2
India,Chhattisgarh,Tumidih,"OP Jindal Industrial Park, Tumidih - CECB",24-06-2024 04:00:00,22.06631475,83.33820077,OZONE,6,36,11
India,Delhi,Delhi,"Alipur, Delhi - DPCC",24-06-2024 04:00:00,28.815329,77.153010,NO2,26,55,39
India,Delhi,Delhi,"Anand Vihar, Delhi - DPCC",24-06-2024 04:00:00,28.647622,77.3158090,PM10,67,192,141
India,Delhi,Delhi,"Anand Vihar, Delhi - DPCC",24-06-2024 04:00:00,28.647622,77.3158090,SO2,16,20,18
India,Delhi,Delhi,"Ashok Vihar, Delhi - DPCC",24-06-2024 04:00:00,28.695381,77.181665,CO,42,42,42
India,Delhi,Delhi,"Aya Nagar, Delhi - IMD",24-06-2024 04:00:00,28.4706914,77.1099364,PM10,54,134,101
India,Delhi,Delhi,"Aya Nagar, Delhi - IMD",24-06-2024 04:00:00,28.4706914,77.1099364,OZONE,9,53,13
India,Delhi,Delhi,"Bawana, Delhi - DPCC",24-06-2024 04:00:00,28.776200,77.051074,SO2,7,19,10
India,Delhi,Delhi,"Burari Crossing, Delhi - IMD",24-06-2024 04:00:00,28.7256504,77.2011573,OZONE,115,256,179
India,Delhi,Delhi,"CRRI Mathura Road, Delhi - IMD",24-06-2024 04:00:00,28.5512005,77.2735737,PM2.5,46,148,90
India,Delhi,Delhi,"CRRI Mathura Road, Delhi - IMD",24-06-2024 04:00:00,28.5512005,77.2735737,PM10,80,160,121
India,Delhi,Delhi,"CRRI Mathura Road, Delhi - IMD",24-06-2024 04:00:00,28.5512005,77.2735737,NO2,7,18,10
India,Delhi,Delhi,"Chandni Chowk, Delhi - IITM",24-06-2024 04:00:00,28.656756,77.227234,PM2.5,NA,NA,NA
India,Delhi,Delhi,"Chandni Chowk, Delhi - IITM",24-06-2024 04:00:00,28.656756,77.227234,OZONE,1,3,1
India,Delhi,Delhi,"DTU, Delhi - CPCB",24-06-2024 04:00:00,28.7500499,77.1112615,NH3,17,20,18
India,Delhi,Delhi,"Dr. Karni Singh Shooting Range, Delhi - DPCC",24-06-2024 04:00:00,28.498571,77.264840,SO2,7,13,10
India,Delhi,Delhi,"Dwarka-Sector 8, Delhi - DPCC ",24-06-2024 04:00:00,28.5710274,77.0719006,OZONE,11,71,16
India,Delhi,Delhi,"IGI Airport (T3), Delhi - IMD",24-06-2024 04:00:00,28.5627763,77.1180053,PM10,67,127,101
India,Delhi,Delhi,"IHBAS, Dilshad Garden, Delhi - CPCB",24-06-2024 04:00:00,28.6811736,77.3025234,PM2.5,50,149,82
India,Delhi,Delhi,"ITO, Delhi - CPCB",24-06-2024 04:00:00,28.628624,77.241060,NH3,4,6,5
India,Delhi,Delhi,"ITO, Delhi - CPCB",24-06-2024 04:00:00,28.628624,77.241060,OZONE,34,158,79
India,Delhi,Delhi,"Jahangirpuri, Delhi - DPCC",24-06-2024 04:00:00,28.732820,77.170633,PM2.5,80,341,155
India,Delhi,Delhi,"Jawaharlal Nehru Stadium, Delhi - DPCC",24-06-2024 04:00:00,28.580280,77.233829,PM10,81,129,110
India,Delhi,Delhi,"Lodhi Road, Delhi - IMD",24-06-2024 04:00:00,28.5918245,77.2273074,PM2.5,56,119,94
India,Delhi,Delhi,"Lodhi Road, Delhi - IMD",24-06-2024 04:00:00,28.5918245,77.2273074,PM10,68,113,103
India,Delhi,Delhi,"Major Dhyan Chand National Stadium, Delhi - DPCC",24-06-2024 04:00:00,28.611281,77.237738,OZONE,3,85,14
India,Delhi,Delhi,"Mandir Marg, Delhi - DPCC",24-06-2024 04:00:00,28.636429,77.201067,NO2,62,100,76
India,Delhi,Delhi,"Mundka, Delhi - DPCC",24-06-2024 04:00:00,28.684678,77.076574,PM2.5,68,113,89
India,Delhi,Delhi,"NSIT Dwarka, Delhi - CPCB",24-06-2024 04:00:00,28.60909,77.0325413,NO2,20,38,28
India,Delhi,Delhi,"Najafgarh, Delhi - DPCC",24-06-2024 04:00:00,28.570173,76.933762,PM2.5,57,88,72
India,Delhi,Delhi,"Najafgarh, Delhi - DPCC",24-06-2024 04:00:00,28.570173,76.933762,OZONE,2,40,18
India,Delhi,Delhi,"Nehru Nagar, Delhi - DPCC",24-06-2024 04:00:00,28.567890,77.250515,NH3,2,4,3
India,Delhi,Delhi,"Nehru Nagar, Delhi - DPCC",24-06-2024 04:00:00,28.567890,77.250515,OZONE,2,87,21
India,Delhi,Delhi,"North Campus, DU, Delhi - IMD",24-06-2024 04:00:00,28.6573814,77.1585447,PM2.5,28,424,197
India,Delhi,Delhi,"Patparganj, Delhi - DPCC",24-06-2024 04:00:00,28.623763,77.287209,PM10,101,174,137
India,Delhi,Delhi,"Patparganj, Delhi - DPCC",24-06-2024 04:00:00,28.623763,77.287209,CO,22,70,38
India,Delhi,Delhi,"Punjabi Bagh, Delhi - DPCC",24-06-2024 04:00:00,28.674045,77.131023,PM10,77,129,101
India,Delhi,Delhi,"Punjabi Bagh, Delhi - DPCC",24-06-2024 04:00:00,28.674045,77.131023,NH3,4,11,7
India,Delhi,Delhi,"Pusa, Delhi - DPCC",24-06-2024 04:00:00,28.639652,77.146275,NO2,39,108,71
India,Delhi,Delhi,"Pusa, Delhi - IMD",24-06-2024 04:00:00,28.636110,77.173332,PM2.5,46,250,105
India,Delhi,Delhi,"Pusa, Delhi - IMD",24-06-2024 04:00:00,28.636110,77.173332,NO2,21,41,29
India,Delhi,Delhi,"Pusa, Delhi - IMD",24-06-2024 04:00:00,28.636110,77.173332,OZONE,7,35,12
India,Delhi,Delhi,"R K Puram, Delhi - DPCC",24-06-2024 04:00:00,28.563262,77.186937,PM2.5,52,207,126
India,Delhi,Delhi,"R K Puram, Delhi - DPCC",24-06-2024 04:00:00,28.563262,77.186937,NO2,1,25,13
India,Delhi,Delhi,"R K Puram, Delhi - DPCC",24-06-2024 04:00:00,28.563262,77.186937,CO,2,94,49
India,Delhi,Delhi,"Shadipur, Delhi - CPCB",24-06-2024 04:00:00,28.6514781,77.1473105,PM10,134,197,153
India,Delhi,Delhi,"Shadipur, Delhi - CPCB",24-06-2024 04:00:00,28.6514781,77.1473105,SO2,10,33,18
India,Delhi,Delhi,"Shadipur, Delhi - CPCB",24-06-2024 04:00:00,28.6514781,77.1473105,CO,31,73,46
India,Delhi,Delhi,"Sirifort, Delhi - CPCB",24-06-2024 04:00:00,28.5504249,77.2159377,PM10,99,177,118
India,Delhi,Delhi,"Sirifort, Delhi - CPCB",24-06-2024 04:00:00,28.5504249,77.2159377,CO,20,83,68
India,Delhi,Delhi,"Sri Aurobindo Marg, Delhi - DPCC",24-06-2024 04:00:00,28.531346,77.190156,OZONE,1,79,5
India,Delhi,Delhi,"Vivek Vihar, Delhi - DPCC",24-06-2024 04:00:00,28.672342,77.315260,NH3,18,18,18
India,Gujarat,Ahmedabad,"Chandkheda, Ahmedabad - IITM",24-06-2024 04:00:00,23.107969,72.574648,PM10,35,196,92
India,Gujarat,Ahmedabad,"Gyaspur, Ahmedabad - IITM",24-06-2024 04:00:00,22.977134,72.553024,OZONE,NA,NA,NA
India,Gujarat,Ahmedabad,"Maninagar, Ahmedabad - GPCB",24-06-2024 04:00:00,23.002657,72.591912,OZONE,8,116,79
India,Gujarat,Ahmedabad,"Raikhad, Ahmedabad - IITM",24-06-2024 04:00:00,23.020509,72.579261,PM2.5,NA,NA,NA
India,Gujarat,Ahmedabad,"Raikhad, Ahmedabad - IITM",24-06-2024 04:00:00,23.020509,72.579261,PM10,NA,NA,NA
India,Gujarat,Ahmedabad,"Raikhad, Ahmedabad - IITM",24-06-2024 04:00:00,23.020509,72.579261,CO,8,14,9
India,Gujarat,Ahmedabad,"Rakhial, Ahmedabad - IITM",24-06-2024 04:00:00,23.016834,72.625775,PM10,21,124,66
India,Gujarat,Ahmedabad,"Rakhial, Ahmedabad - IITM",24-06-2024 04:00:00,23.016834,72.625775,OZONE,18,77,35
India,Gujarat,Ahmedabad,"Sardar Vallabhbhai Patel Stadium, Ahmedabad - IITM",24-06-2024 04:00:00,23.043070,72.562968,NO2,14,68,29
India,Gujarat,Ahmedabad,"Sardar Vallabhbhai Patel Stadium, Ahmedabad - IITM",24-06-2024 04:00:00,23.043070,72.562968,SO2,8,18,14
India,Gujarat,Ankleshwar,"GIDC, Ankleshwar - GPCB",24-06-2024 04:00:00,21.613267,73.010555,PM2.5,43,86,62
India,Gujarat,Ankleshwar,"GIDC, Ankleshwar - GPCB",24-06-2024 04:00:00,21.613267,73.010555,NO2,33,57,43
India,Gujarat,Ankleshwar,"GIDC, Ankleshwar - GPCB",24-06-2024 04:00:00,21.613267,73.010555,SO2,1,76,29
India,Gujarat,Gandhinagar,"GIFT City, Gandhinagar - IITM",24-06-2024 04:00:00,23.163798,72.677768,PM2.5,50,137,83
India,Gujarat,Gandhinagar,"GIFT City, Gandhinagar - IITM",24-06-2024 04:00:00,23.163798,72.677768,NO2,27,34,31
India,Gujarat,Gandhinagar,"GIFT City, Gandhinagar - IITM",24-06-2024 04:00:00,23.163798,72.677768,SO2,6,14,10
India,Gujarat,Gandhinagar,"GIFT City, Gandhinagar - IITM",24-06-2024 04:00:00,23.163798,72.677768,CO,7,15,9
India,Gujarat,Nandesari,"GIDC, Nandesari - Nandesari Ind. Association",24-06-2024 04:00:00,22.410802,73.097923,PM10,95,274,161
India,Gujarat,Nandesari,"GIDC, Nandesari - Nandesari Ind. Association",24-06-2024 04:00:00,22.410802,73.097923,NO2,1,14,6
India,Gujarat,Surat,"Science Center, Surat - SMC",24-06-2024 04:00:00,21.170046,72.795405,NO2,23,37,30
India,Gujarat,Vapi,"Phase-1 GIDC, Vapi - GPCB",24-06-2024 04:00:00,20.362421,72.918013,PM10,26,95,45
India,Gujarat,Vapi,"Phase-1 GIDC, Vapi - GPCB",24-06-2024 04:00:00,20.362421,72.918013,NH3,2,2,2
India,Haryana,Ambala,"Patti Mehar, Ambala - HSPCB",24-06-2024 04:00:00,30.379589,76.778328,SO2,3,33,14
India,Haryana,Bahadurgarh,"Arya Nagar, Bahadurgarh - HSPCB",24-06-2024 04:00:00,28.6701,76.9254,PM2.5,77,124,93
India,Haryana,Ballabgarh,"Nathu Colony, Ballabgarh - HSPCB",24-06-2024 04:00:00,28.3419248,77.319699,PM2.5,NA,NA,NA
India,Haryana,Ballabgarh,"Nathu Colony, Ballabgarh - HSPCB",24-06-2024 04:00:00,28.3419248,77.319699,NO2,NA,NA,NA
India,Haryana,Ballabgarh,"Nathu Colony, Ballabgarh - HSPCB",24-06-2024 04:00:00,28.3419248,77.319699,CO,10,100,46
India,Haryana,Charkhi Dadri,"Mini Secretariat, Charkhi Dadri - HSPCB",24-06-2024 04:00:00,28.593883,76.270653,PM10,48,121,82
India,Haryana,Charkhi Dadri,"Mini Secretariat, Charkhi Dadri - HSPCB",24-06-2024 04:00:00,28.593883,76.270653,NH3,6,8,7
India,Haryana,Charkhi Dadri,"Mini Secretariat, Charkhi Dadri - HSPCB",24-06-2024 04:00:00,28.593883,76.270653,CO,23,91,42
India,Haryana,Dharuhera,"Municipal Corporation Office, Dharuhera -  HSPCB",24-06-2024 04:00:00,28.206800,76.799700,CO,19,39,28
India,Haryana,Fatehabad,"Huda Sector, Fatehabad - HSPCB",24-06-2024 04:00:00,29.503664,75.467934,OZONE,11,41,29
India,Haryana,Gurugram,"NISE Gwal Pahari, Gurugram - IMD",24-06-2024 04:00:00,28.422681,77.148944,NO2,17,30,23
India,Haryana,Gurugram,"Sector-51, Gurugram - HSPCB",24-06-2024 04:00:00,28.4227,77.0667,PM10,100,122,106
India,Haryana,Gurugram,"Sector-51, Gurugram - HSPCB",24-06-2024 04:00:00,28.4227,77.0667,NO2,13,29,23
India,Haryana,Gurugram,"Vikas Sadan, Gurugram - HSPCB",24-06-2024 04:00:00,28.4501238,77.0263051,CO,50,130,74
India,Haryana,Jind,"Police Lines, Jind - HSPCB",24-06-2024 04:00:00,29.307814,76.337619,CO,12,96,36
India,Haryana,Jind,"Police Lines, Jind - HSPCB",24-06-2024 04:00:00,29.307814,76.337619,OZONE,28,76,43
India,Haryana,Kaithal,"Rishi Nagar, Kaithal - HSPCB",24-06-2024 04:00:00,29.8006,76.4155,PM10,NA,NA,NA
India,Haryana,Karnal,"Sector-12, Karnal - HSPCB",24-06-2024 04:00:00,29.695300,77.002700,PM10,62,83,71
India,Haryana,Karnal,"Sector-12, Karnal - HSPCB",24-06-2024 04:00:00,29.695300,77.002700,SO2,12,13,12
India,Haryana,Karnal,"Sector-12, Karnal - HSPCB",24-06-2024 04:00:00,29.695300,77.002700,CO,26,38,34
India,Haryana,Kurukshetra,"Sector-7, Kurukshetra - HSPCB",24-06-2024 04:00:00,29.966942,76.875879,OZONE,72,100,82
India,Haryana,Mandikhera,"General Hospital, Mandikhera - HSPCB",24-06-2024 04:00:00,27.9002,76.9938,PM2.5,NA,NA,NA
India,Haryana,Manesar,"Sector-2 IMT, Manesar - HSPCB",24-06-2024 04:00:00,28.360699,76.936090,NO2,13,25,18
India,Haryana,Narnaul,"Shastri Nagar, Narnaul - HSPCB",24-06-2024 04:00:00,28.060249,76.113115,NO2,15,84,47
India,Haryana,Narnaul,"Shastri Nagar, Narnaul - HSPCB",24-06-2024 04:00:00,28.060249,76.113115,NH3,3,17,10
India,Haryana,Narnaul,"Shastri Nagar, Narnaul - HSPCB",24-06-2024 04:00:00,28.060249,76.113115,SO2,47,47,47
India,Haryana,Palwal,"Shyam Nagar, Palwal - HSPCB",24-06-2024 04:00:00,28.1485564,77.3320667,NO2,23,25,24
India,Haryana,Palwal,"Shyam Nagar, Palwal - HSPCB",24-06-2024 04:00:00,28.1485564,77.3320667,OZONE,27,269,32
India,Haryana,Panchkula,"Sector-6, Panchkula - HSPCB ",24-06-2024 04:00:00,30.7057778,76.8531805555555,SO2,2,3,2
India,Haryana,Panipat,"Sector-18, Panipat - HSPCB",24-06-2024 04:00:00,29.432304,76.972765,NO2,31,32,31
India,Haryana,Rohtak,"MD University, Rohtak - HSPCB",24-06-2024 04:00:00,28.52123,76.37138,SO2,6,8,7
India,Haryana,Sirsa,"F-Block, Sirsa - HSPCB",24-06-2024 04:00:00,29.536400,75.015800,PM10,88,91,90
India,Haryana,Sirsa,"F-Block, Sirsa - HSPCB",24-06-2024 04:00:00,29.536400,75.015800,NH3,12,13,12
India,Haryana,Sirsa,"F-Block, Sirsa - HSPCB",24-06-2024 04:00:00,29.536400,75.015800,CO,76,101,98
India,Haryana,Sirsa,"F-Block, Sirsa - HSPCB",24-06-2024 04:00:00,29.536400,75.015800,OZONE,23,56,33
India,Haryana,Yamuna Nagar,"Gobind Pura, Yamuna Nagar - HSPCB",24-06-2024 04:00:00,30.1480566,77.2893471,PM2.5,NA,NA,NA
India,Haryana,Yamuna Nagar,"Gobind Pura, Yamuna Nagar - HSPCB",24-06-2024 04:00:00,30.1480566,77.2893471,CO,NA,NA,NA
India,Himachal Pradesh,Baddi,"HIMUDA Complex Phase-1, Baddi - HPPCB",24-06-2024 04:00:00,30.943887,76.801991,NO2,7,29,16
India,Himachal Pradesh,Baddi,"HIMUDA Complex Phase-1, Baddi - HPPCB",24-06-2024 04:00:00,30.943887,76.801991,SO2,11,95,29
India,Himachal Pradesh,Baddi,"HIMUDA Complex Phase-1, Baddi - HPPCB",24-06-2024 04:00:00,30.943887,76.801991,OZONE,61,256,132
India,Karnataka,Bagalkot,"Vidayagiri, Bagalkot - KSPCB",24-06-2024 04:00:00,16.172806,75.659694,PM2.5,25,37,36
India,Karnataka,Belgaum,"Ramteerth Nagar, Belgaum - KSPCB",24-06-2024 04:00:00,15.888653,74.541751,OZONE,19,20,19
India,Karnataka,Bengaluru,"Bapuji Nagar, Bengaluru - KSPCB",24-06-2024 04:00:00,12.951913,77.539784,PM2.5,2,22,14
India,Karnataka,Bengaluru,"Bapuji Nagar, Bengaluru - KSPCB",24-06-2024 04:00:00,12.951913,77.539784,NH3,1,1,1
India,Karnataka,Bengaluru,"City Railway Station, Bengaluru - KSPCB",24-06-2024 04:00:00,12.9756843,77.5660749,SO2,NA,NA,NA
India,Karnataka,Bengaluru,"Hebbal, Bengaluru - KSPCB",24-06-2024 04:00:00,13.029152,77.585901,CO,10,24,14
India,Karnataka,Bengaluru,"Hombegowda Nagar, Bengaluru - KSPCB",24-06-2024 04:00:00,12.938539,77.590100,NO2,9,19,13
India,Karnataka,Bengaluru,"Hombegowda Nagar, Bengaluru - KSPCB",24-06-2024 04:00:00,12.938539,77.590100,NH3,1,1,1
India,Karnataka,Bengaluru,"Jigani, Bengaluru - KSPCB",24-06-2024 04:00:00,12.7816279,77.6299145,OZONE,26,34,31
India,Karnataka,Bengaluru,"Peenya, Bengaluru - CPCB",24-06-2024 04:00:00,13.0270199,77.494094,PM10,47,60,52
India,Karnataka,Bengaluru,"Peenya, Bengaluru - CPCB",24-06-2024 04:00:00,13.0270199,77.494094,NO2,17,27,21
India,Karnataka,Bengaluru,"Peenya, Bengaluru - CPCB",24-06-2024 04:00:00,13.0270199,77.494094,SO2,13,16,14
India,Karnataka,Bengaluru,"Sanegurava Halli, Bengaluru - KSPCB",24-06-2024 04:00:00,12.990328,77.5431385,PM10,34,45,37
India,Karnataka,Bengaluru,"Shivapura_Peenya, Bengaluru - KSPCB",24-06-2024 04:00:00,13.0246342,77.5080115,SO2,2,4,3
India,Karnataka,Bengaluru,"Silk Board, Bengaluru - KSPCB",24-06-2024 04:00:00,12.917348,77.622813,PM2.5,4,26,14
India,Karnataka,Bengaluru,"Silk Board, Bengaluru - KSPCB",24-06-2024 04:00:00,12.917348,77.622813,CO,2,24,8
India,Karnataka,Chamarajanagar,"Urban, Chamarajanagar - KSPCB",24-06-2024 04:00:00,11.55358,76.55521,PM10,NA,NA,NA
India,Karnataka,Chamarajanagar,"Urban, Chamarajanagar - KSPCB",24-06-2024 04:00:00,11.55358,76.55521,NH3,2,2,2
India,Karnataka,Chamarajanagar,"Urban, Chamarajanagar - KSPCB",24-06-2024 04:00:00,11.55358,76.55521,SO2,NA,NA,NA
India,Karnataka,Chikkamagaluru,"Kalyana Nagara, Chikkamagaluru - KSPCB",24-06-2024 04:00:00,13.328028,75.797056,PM2.5,6,42,21
India,Karnataka,Chikkamagaluru,"Kalyana Nagara, Chikkamagaluru - KSPCB",24-06-2024 04:00:00,13.328028,75.797056,NO2,13,32,24
India,Karnataka,Davanagere,"Devaraj Urs Badavane, Davanagere - KSPCB",24-06-2024 04:00:00,14.475800,75.905200,NH3,1,2,1
India,Karnataka,Davanagere,"Devaraj Urs Badavane, Davanagere - KSPCB",24-06-2024 04:00:00,14.475800,75.905200,SO2,4,7,6
India,Karnataka,Dharwad,"Kalabhavan, Dharwad - KSPCB",24-06-2024 04:00:00,15.459706,75.008381,NH3,3,3,3
India,Karnataka,Dharwad,"Kalabhavan, Dharwad - KSPCB",24-06-2024 04:00:00,15.459706,75.008381,CO,20,56,38
India,Karnataka,Dharwad,"Kalabhavan, Dharwad - KSPCB",24-06-2024 04:00:00,15.459706,75.008381,OZONE,24,36,27
India,Karnataka,Gadag,"Panchal Nagar, Gadag - KSPCB",24-06-2024 04:00:00,15.411456,75.638133,SO2,12,19,14
India,Karnataka,Gadag,"Panchal Nagar, Gadag - KSPCB",24-06-2024 04:00:00,15.411456,75.638133,CO,46,49,46
India,Karnataka,Hassan,"B.Katihalli, Hassan - KSPCB",24-06-2024 04:00:00,13.008556,76.125258,PM2.5,5,48,25
India,Karnataka,Hassan,"B.Katihalli, Hassan - KSPCB",24-06-2024 04:00:00,13.008556,76.125258,NH3,1,4,2
India,Karnataka,Haveri,"Ashwini Nagar, Haveri - KSPCB",24-06-2024 04:00:00,14.791800,75.389600,SO2,NA,NA,NA
India,Karnataka,Hubballi,"Lingaraj Nagar, Hubballi - KSPCB",24-06-2024 04:00:00,15.3714823,75.1160168,NO2,6,15,12
India,Karnataka,Kalaburagi,"Mahatma Basaveswar Colony, Kalaburgi - KSPCB",24-06-2024 04:00:00,17.336318,76.847397,CO,28,47,34
India,Karnataka,Karwar,"KHB Colony, Karwar - KSPCB",24-06-2024 04:00:00,14.816666,74.141003,SO2,20,21,21
India,Karnataka,Madikeri,"Stuart Hill, Madikeri - KSPCB",24-06-2024 04:00:00,12.415911,75.735050,NO2,1,5,2
India,Karnataka,Madikeri,"Stuart Hill, Madikeri - KSPCB",24-06-2024 04:00:00,12.415911,75.735050,NH3,NA,NA,NA
India,Karnataka,Madikeri,"Stuart Hill, Madikeri - KSPCB",24-06-2024 04:00:00,12.415911,75.735050,SO2,4,4,4
India,Karnataka,Mangalore,"Kadri, Mangalore - KSPCB",24-06-2024 04:00:00,12.889250,74.853000,SO2,10,10,10
India,Karnataka,Mangalore,"Kadri, Mangalore - KSPCB",24-06-2024 04:00:00,12.889250,74.853000,OZONE,30,33,31
India,Karnataka,Mysuru,"Hebbal 1st Stage, Mysuru - KSPCB",24-06-2024 04:00:00,12.21041,76.37376,PM10,20,31,24
India,Karnataka,Raichur,"Haji Colony, Raichur - KSPCB",24-06-2024 04:00:00,16.208139,77.348417,NO2,NA,NA,NA
India,Karnataka,Raichur,"Haji Colony, Raichur - KSPCB",24-06-2024 04:00:00,16.208139,77.348417,NH3,NA,NA,NA
India,Karnataka,Raichur,"Haji Colony, Raichur - KSPCB",24-06-2024 04:00:00,16.208139,77.348417,SO2,NA,NA,NA
India,Karnataka,Shivamogga,"Vinoba Nagara, Shivamogga - KSPCB",24-06-2024 04:00:00,13.940000,75.555917,SO2,2,8,5
India,Karnataka,Udupi,"Brahmagiri, Udupi - KSPCB",24-06-2024 04:00:00,13.34194444,74.74694444,NO2,27,29,28
India,Karnataka,Yadgir,"Collector Office, Yadgir - KSPCB",24-06-2024 04:00:00,16.7602,77.1428,PM2.5,7,27,17
India,Karnataka,Yadgir,"Collector Office, Yadgir - KSPCB",24-06-2024 04:00:00,16.7602,77.1428,PM10,NA,NA,NA
India,Karnataka,Yadgir,"Collector Office, Yadgir - KSPCB",24-06-2024 04:00:00,16.7602,77.1428,NO2,5,13,8
India,Kerala,Eloor,"Udyogamandal, Eloor - Kerala PCB",24-06-2024 04:00:00,10.073232,76.302765,NO2,NA,NA,NA
India,Kerala,Eloor,"Udyogamandal, Eloor - Kerala PCB",24-06-2024 04:00:00,10.073232,76.302765,NH3,NA,NA,NA
India,Kerala,Thrissur,"Corporation Ground, Thrissur - Kerala PCB",24-06-2024 04:00:00,10.532400,76.215900,NH3,1,1,1
India,Kerala,Thrissur,"Corporation Ground, Thrissur - Kerala PCB",24-06-2024 04:00:00,10.532400,76.215900,SO2,1,2,1
India,Madhya Pradesh,Bhopal,"Idgah Hills, Bhopal - MPPCB",24-06-2024 04:00:00,23.264759,77.381568,NO2,7,39,16
India,Madhya Pradesh,Bhopal,"T T Nagar, Bhopal - MPPCB",24-06-2024 04:00:00,23.233584,77.400574,PM10,6,102,41
India,Madhya Pradesh,Bhopal,"T T Nagar, Bhopal - MPPCB",24-06-2024 04:00:00,23.233584,77.400574,NO2,23,36,27
India,Madhya Pradesh,Bhopal,"T T Nagar, Bhopal - MPPCB",24-06-2024 04:00:00,23.233584,77.400574,OZONE,6,27,17
India,Madhya Pradesh,Damoh,"Shrivastav Colony, Damoh - MPPCB",24-06-2024 04:00:00,23.81748678,79.446246,PM2.5,7,100,36
India,Madhya Pradesh,Dewas,"Bhopal Chauraha, Dewas - MPPCB",24-06-2024 04:00:00,22.9682591,76.064118,SO2,13,38,29
India,Madhya Pradesh,Gwalior,"City Center, Gwalior - MPPCB",24-06-2024 04:00:00,26.203442,78.193251,PM2.5,25,47,38
India,Madhya Pradesh,Gwalior,"City Center, Gwalior - MPPCB",24-06-2024 04:00:00,26.203442,78.193251,OZONE,31,83,57
India,Madhya Pradesh,Gwalior,"Maharaj Bada, Gwalior - MPPCB",24-06-2024 04:00:00,26.200388,78.147714,SO2,8,14,11
India,Madhya Pradesh,Indore,"Chhoti Gwaltoli, Indore - MPPCB",24-06-2024 04:00:00,22.4310,75.5213,NH3,2,4,3
India,Madhya Pradesh,Indore,"Residency Area, Indore - IMC",24-06-2024 04:00:00,22.7084,75.8815,PM2.5,6,53,32
India,Madhya Pradesh,Indore,"Residency Area, Indore - IMC",24-06-2024 04:00:00,22.7084,75.8815,SO2,20,22,21
India,Madhya Pradesh,Jabalpur,"Govindh Bhavan Colony, Jabalpur - JMC",24-06-2024 04:00:00,23.163174,79.973061,SO2,NA,NA,NA
India,Madhya Pradesh,Jabalpur,"Gupteshwar, Jabalpur - JMC",24-06-2024 04:00:00,23.142888,79.916147,CO,12,48,24
India,Madhya Pradesh,Jabalpur,"Marhatal, Jabalpur - MPPCB",24-06-2024 04:00:00,23.168606,79.932247,OZONE,5,76,24
India,Madhya Pradesh,Mandideep,"Sector-D Industrial Area, Mandideep - MPPCB",24-06-2024 04:00:00,23.108440,77.511428,CO,22,62,38
India,Madhya Pradesh,Pithampur,"Sector-2 Industrial Area, Pithampur - MPPCB",24-06-2024 04:00:00,22.624758,75.675238,PM2.5,11,72,47
India,Madhya Pradesh,Sagar,"Civil Lines, Sagar - MPPCB",24-06-2024 04:00:00,23.838586,78.759431,PM2.5,27,67,49
India,Madhya Pradesh,Sagar,"Civil Lines, Sagar - MPPCB",24-06-2024 04:00:00,23.838586,78.759431,NO2,10,20,15
India,Madhya Pradesh,Sagar,"Civil Lines, Sagar - MPPCB",24-06-2024 04:00:00,23.838586,78.759431,NH3,4,6,5
India,Madhya Pradesh,Sagar,"Deen Dayal Nagar, Sagar - MPPCB",24-06-2024 04:00:00,23.8640158,78.80289321,CO,54,62,60
