country,state,city,station,last_update,latitude,longitude,pollutant_id,pollutant_min,pollutant_max,pollutant_avg
India,Andhra_Pradesh,Amaravati,"Secretariat, Amaravati - APPCB",14-04-2024 08:00:00,16.5150833,80.5181667,PM2.5,20,86,58
India,Andhra_Pradesh,Amaravati,"Secretariat, Amaravati - APPCB",14-04-2024 08:00:00,16.5150833,80.5181667,OZONE,12,56,21
India,Andhra_Pradesh,Chittoor,"Gangineni Cheruvu, Chittoor - APPCB",14-04-2024 08:00:00,13.204880,79.097889,NO2,1,6,3
India,Andhra_Pradesh,Chittoor,"Gangineni Cheruvu, Chittoor - APPCB",14-04-2024 08:00:00,13.204880,79.097889,NH3,1,2,2
India,Andhra_Pradesh,Rajamahendravaram,"Anand Kala Kshetram, Rajamahendravaram - APPCB",14-04-2024 08:00:00,16.9872867,81.7363176,PM10,56,111,78
India,Andhra_Pradesh,Rajamahendravaram,"Anand Kala Kshetram, Rajamahendravaram - APPCB",14-04-2024 08:00:00,16.9872867,81.7363176,NO2,10,44,25
India,Andhra_Pradesh,Rajamahendravaram,"Anand Kala Kshetram, Rajamahendravaram - APPCB",14-04-2024 08:00:00,16.9872867,81.7363176,OZONE,20,41,25
India,Andhra_Pradesh,Tirupati,"Tirumala, Tirupati - APPCB",14-04-2024 08:00:00,13.67,79.35,SO2,1,22,9
India,Andhra_Pradesh,Vijayawada,"HB Colony, Vijayawada - APPCB",14-04-2024 08:00:00,16.536107,80.594233,PM10,43,106,76
India,Andhra_Pradesh,Vijayawada,"Rajiv Gandhi Park, Vijayawada - APPCB",14-04-2024 08:00:00,16.509717,80.612222,PM2.5,36,125,79
India,Andhra_Pradesh,Vijayawada,"Rajiv Gandhi Park, Vijayawada - APPCB",14-04-2024 08:00:00,16.509717,80.612222,NO2,9,104,38
India,Andhra_Pradesh,Vijayawada,"Rajiv Gandhi Park, Vijayawada - APPCB",14-04-2024 08:00:00,16.509717,80.612222,CO,38,40,38
India,Andhra_Pradesh,Vijayawada,"Rajiv Nagar, Vijayawada - APPCB",14-04-2024 08:00:00,16.554731,80.649110,PM2.5,42,58,46
India,Andhra_Pradesh,Visakhapatnam,"GVM Corporation, Visakhapatnam - APPCB",14-04-2024 08:00:00,17.72,83.3,NO2,7,109,45
India,Andhra_Pradesh,Visakhapatnam,"GVM Corporation, Visakhapatnam - APPCB",14-04-2024 08:00:00,17.72,83.3,NH3,4,8,5
India,Assam,Byrnihat,"Central Academy for SFS, Byrnihat - PCBA",14-04-2024 08:00:00,26.071318,91.87488,PM2.5,47,500,313
India,Assam,Byrnihat,"Central Academy for SFS, Byrnihat - PCBA",14-04-2024 08:00:00,26.071318,91.87488,CO,34,101,44
India,Assam,Guwahati,"LGBI Airport, Guwahati - PCBA",14-04-2024 08:00:00,26.10887,91.589544,NO2,24,75,45
India,Assam,Guwahati,"Pan Bazaar, Guwahati - PCBA",14-04-2024 08:00:00,26.187500,91.744194,NO2,1,10,3
India,Assam,Guwahati,"Pan Bazaar, Guwahati - PCBA",14-04-2024 08:00:00,26.187500,91.744194,CO,26,92,65
India,Assam,Guwahati,"Railway Colony, Guwahati - PCBA",14-04-2024 08:00:00,26.181742,91.78063,SO2,24,44,31
India,Assam,Guwahati,"Railway Colony, Guwahati - PCBA",14-04-2024 08:00:00,26.181742,91.78063,CO,21,116,65
India,Assam,Nagaon,"Christianpatty, Nagaon - PCBA",14-04-2024 08:00:00,26.349082,92.68449,PM2.5,67,217,112
India,Assam,Nagaon,"Christianpatty, Nagaon - PCBA",14-04-2024 08:00:00,26.349082,92.68449,SO2,3,37,11
India,Assam,Nalbari,"Bata Chowk, Nalbari - PCBA",14-04-2024 08:00:00,26.446912,91.439057,SO2,NA,NA,NA
India,Assam,Nalbari,"Bata Chowk, Nalbari - PCBA",14-04-2024 08:00:00,26.446912,91.439057,CO,13,136,34
India,Assam,Silchar,"Tarapur, Silchar - PCBA",14-04-2024 08:00:00,24.82827,92.79525,PM10,29,45,36
India,Assam,Silchar,"Tarapur, Silchar - PCBA",14-04-2024 08:00:00,24.82827,92.79525,SO2,3,21,8
India,Assam,Silchar,"Tarapur, Silchar - PCBA",14-04-2024 08:00:00,24.82827,92.79525,OZONE,1,9,1
India,Assam,Sivasagar,"Girls College, Sivasagar - PCBA",14-04-2024 08:00:00,26.987634,94.636574,PM10,42,99,71
India,Bihar,Aurangabad,"Gurdeo Nagar, Aurangabad - BSPCB",14-04-2024 08:00:00,24.75746,84.366208,OZONE,8,86,24
India,Bihar,Bettiah,"Kamalnath Nagar, Bettiah - BSPCB",14-04-2024 08:00:00,26.80365,84.51954,PM10,NA,NA,NA
India,Bihar,Bhagalpur,"Mayaganj, Bhagalpur - BSPCB",14-04-2024 08:00:00,25.265194,87.012947,PM2.5,85,336,222
India,Bihar,Bhagalpur,"Mayaganj, Bhagalpur - BSPCB",14-04-2024 08:00:00,25.265194,87.012947,SO2,11,13,12
India,Bihar,Buxar,"Charitra Van, Buxar - BSPCB (Formerly known as Central Jail)",14-04-2024 08:00:00,25.567520,83.966379,PM10,NA,NA,NA
India,Bihar,Chhapra,"Darshan Nagar, Chhapra - BSPCB",14-04-2024 08:00:00,25.7808257,84.7446768,PM2.5,77,372,267
India,Bihar,Chhapra,"Darshan Nagar, Chhapra - BSPCB",14-04-2024 08:00:00,25.7808257,84.7446768,NH3,7,19,13
India,Bihar,Gaya,"Collectorate, Gaya - BSPCB",14-04-2024 08:00:00,24.7955,84.9994,PM2.5,45,318,142
India,Bihar,Gaya,"Collectorate, Gaya - BSPCB",14-04-2024 08:00:00,24.7955,84.9994,SO2,5,44,19
India,Bihar,Gaya,"Collectorate, Gaya - BSPCB",14-04-2024 08:00:00,24.7955,84.9994,OZONE,41,86,73
India,Bihar,Gaya,"Kareemganj, Gaya - BSPCB",14-04-2024 08:00:00,24.792403,84.992416,NO2,30,31,30
India,Bihar,Gaya,"SFTI Kusdihra, Gaya - BSPCB",14-04-2024 08:00:00,24.762518,84.982348,NO2,18,101,39
India,Bihar,Gaya,"SFTI Kusdihra, Gaya - BSPCB",14-04-2024 08:00:00,24.762518,84.982348,SO2,9,19,11
India,Bihar,Gaya,"SFTI Kusdihra, Gaya - BSPCB",14-04-2024 08:00:00,24.762518,84.982348,CO,6,48,34
India,Bihar,Gaya,"SFTI Kusdihra, Gaya - BSPCB",14-04-2024 08:00:00,24.762518,84.982348,OZONE,21,137,67
India,Bihar,Hajipur,"Industrial Area, Hajipur - BSPCB",14-04-2024 08:00:00,25.697189,85.245900,NH3,8,11,10
India,Bihar,Hajipur,"Industrial Area, Hajipur - BSPCB",14-04-2024 08:00:00,25.697189,85.245900,CO,34,69,62
India,Bihar,Katihar,"Mirchaibari, Katihar - BSPCB",14-04-2024 08:00:00,25.560083,87.553265,NO2,24,44,32
India,Bihar,Katihar,"Mirchaibari, Katihar - BSPCB",14-04-2024 08:00:00,25.560083,87.553265,CO,NA,NA,NA
India,Bihar,Kishanganj,"SDM Office_Khagra, Kishanganj - BSPCB",14-04-2024 08:00:00,26.0881305,87.93840336,SO2,1,5,3
India,Bihar,Kishanganj,"SDM Office_Khagra, Kishanganj - BSPCB",14-04-2024 08:00:00,26.0881305,87.93840336,CO,4,14,8
India,Bihar,Munger,"Town Hall, Munger - BSPCB",14-04-2024 08:00:00,25.376776,86.471523,PM10,NA,NA,NA
India,Bihar,Munger,"Town Hall, Munger - BSPCB",14-04-2024 08:00:00,25.376776,86.471523,NO2,5,9,7
India,Bihar,Munger,"Town Hall, Munger - BSPCB",14-04-2024 08:00:00,25.376776,86.471523,NH3,NA,NA,NA
India,Bihar,Muzaffarpur,"Buddha Colony, Muzaffarpur - BSPCB",14-04-2024 08:00:00,26.11442,85.39813,CO,30,68,56
India,Bihar,Muzaffarpur,"Buddha Colony, Muzaffarpur - BSPCB",14-04-2024 08:00:00,26.11442,85.39813,OZONE,9,36,16
India,Bihar,Muzaffarpur,"MIT-Daudpur Kothi, Muzaffarpur - BSPCB",14-04-2024 08:00:00,26.1403345,85.3650192,NH3,NA,NA,NA
India,Bihar,Muzaffarpur,"MIT-Daudpur Kothi, Muzaffarpur - BSPCB",14-04-2024 08:00:00,26.1403345,85.3650192,CO,NA,NA,NA
India,Bihar,Muzaffarpur,"Muzaffarpur Collectorate, Muzaffarpur - BSPCB",14-04-2024 08:00:00,26.1209,85.3647,PM2.5,90,375,211
India,Bihar,Muzaffarpur,"Muzaffarpur Collectorate, Muzaffarpur - BSPCB",14-04-2024 08:00:00,26.1209,85.3647,SO2,7,19,9
India,Bihar,Patna,"DRM Office Danapur, Patna - BSPCB",14-04-2024 08:00:00,25.586562,85.043586,PM10,131,258,184
India,Bihar,Patna,"DRM Office Danapur, Patna - BSPCB",14-04-2024 08:00:00,25.586562,85.043586,NO2,9,91,37
India,Bihar,Patna,"Govt. High School Shikarpur, Patna - BSPCB",14-04-2024 08:00:00,25.592539,85.227158,NO2,20,27,23
India,Bihar,Patna,"Govt. High School Shikarpur, Patna - BSPCB",14-04-2024 08:00:00,25.592539,85.227158,NH3,4,5,5
India,Bihar,Patna,"Govt. High School Shikarpur, Patna - BSPCB",14-04-2024 08:00:00,25.592539,85.227158,CO,42,84,53
India,Bihar,Patna,"IGSC Planetarium Complex, Patna - BSPCB",14-04-2024 08:00:00,25.610369,85.132568,NO2,11,12,11
India,Bihar,Patna,"Muradpur, Patna - BSPCB",14-04-2024 08:00:00,25.619651,85.147382,NH3,2,4,3
India,Bihar,Patna,"Muradpur, Patna - BSPCB",14-04-2024 08:00:00,25.619651,85.147382,CO,34,108,78
India,Bihar,Patna,"Muradpur, Patna - BSPCB",14-04-2024 08:00:00,25.619651,85.147382,OZONE,5,96,18
India,Bihar,Patna,"Rajbansi Nagar, Patna - BSPCB",14-04-2024 08:00:00,25.599486,85.113666,PM10,177,377,247
India,Bihar,Patna,"Rajbansi Nagar, Patna - BSPCB",14-04-2024 08:00:00,25.599486,85.113666,SO2,10,22,14
India,Bihar,Patna,"Rajbansi Nagar, Patna - BSPCB",14-04-2024 08:00:00,25.599486,85.113666,OZONE,7,164,42
India,Bihar,Patna,"Samanpura, Patna - BSPCB",14-04-2024 08:00:00,25.596727,85.085624,PM2.5,200,382,271
India,Bihar,Purnia,"Mariam Nagar, Purnia - BSPCB",14-04-2024 08:00:00,25.366336,87.117468,NO2,2,21,7
India,Bihar,Saharsa,"Police Line, Saharsa - BSPCB",14-04-2024 08:00:00,25.892357,86.590325,CO,NA,NA,NA
India,Bihar,Saharsa,"Police Line, Saharsa - BSPCB",14-04-2024 08:00:00,25.892357,86.590325,OZONE,1,131,21
India,Bihar,Samastipur,"DM Office_Kasipur, Samastipur - BSPCB",14-04-2024 08:00:00,25.859655,85.77944,SO2,6,14,11
India,Bihar,Sasaram,"Dada Peer, Sasaram - BSPCB",14-04-2024 08:00:00,24.952822,84.002396,SO2,22,23,23
India,Bihar,Siwan,"Chitragupta Nagar, Siwan - BSPCB",14-04-2024 08:00:00,26.2271665,84.3570427,PM2.5,NA,NA,NA
India,Chandigarh,Chandigarh,"Sector 22, Chandigarh - CPCC",14-04-2024 08:00:00,30.735567,76.775714,PM2.5,45,180,81
India,Chandigarh,Chandigarh,"Sector 22, Chandigarh - CPCC",14-04-2024 08:00:00,30.735567,76.775714,PM10,53,254,118
India,Chandigarh,Chandigarh,"Sector-25, Chandigarh - CPCC",14-04-2024 08:00:00,30.751462,76.762879,PM2.5,128,213,170
India,Chandigarh,Chandigarh,"Sector-25, Chandigarh - CPCC",14-04-2024 08:00:00,30.751462,76.762879,NO2,8,26,12
India,Chandigarh,Chandigarh,"Sector-25, Chandigarh - CPCC",14-04-2024 08:00:00,30.751462,76.762879,OZONE,11,59,25
India,Chandigarh,Chandigarh,"Sector-53, Chandigarh - CPCC",14-04-2024 08:00:00,30.719859,76.738637,PM2.5,37,180,83
India,Chandigarh,Chandigarh,"Sector-53, Chandigarh - CPCC",14-04-2024 08:00:00,30.719859,76.738637,NO2,13,49,24
India,Chandigarh,Chandigarh,"Sector-53, Chandigarh - CPCC",14-04-2024 08:00:00,30.719859,76.738637,CO,40,70,46
India,Chhattisgarh,Bhilai,"32Bungalows, Bhilai - CECB",14-04-2024 08:00:00,21.194815,81.314770,OZONE,4,7,6
India,Chhattisgarh,Bhilai,"Civic Center, Bhilai - Bhilai Steel Plant",14-04-2024 08:00:00,21.185571,81.343175,NH3,5,5,5
India,Chhattisgarh,Bhilai,"Hathkhoj, Bhilai - CECB",14-04-2024 08:00:00,21.224231,81.408350,OZONE,2,16,4
India,Chhattisgarh,Chhal,"Nawapara SECL Colony, Chhal - CECB",14-04-2024 08:00:00,22.118125,83.140608,PM10,46,113,72
India,Chhattisgarh,Korba,"Rampur, Korba - CECB",14-04-2024 08:00:00,22.368195,82.746431,CO,16,38,35
India,Chhattisgarh,Milupara,"Govt. Higher Secondary School, Milupara - CECB",14-04-2024 08:00:00,22.1910172,83.5197009,NO2,NA,NA,NA
India,Chhattisgarh,Raipur,"Bhatagaon New ISBT, Raipur - CECB",14-04-2024 08:00:00,21.219665,81.630094,PM10,21,144,52
India,Chhattisgarh,Raipur,"Siltara Phase-II, Raipur - CECB",14-04-2024 08:00:00,21.371751,81.664929,NO2,30,66,43
India,Chhattisgarh,Raipur,"Siltara Phase-II, Raipur - CECB",14-04-2024 08:00:00,21.371751,81.664929,SO2,6,41,14
India,Chhattisgarh,Tumidih,"OP Jindal Industrial Park, Tumidih - CECB",14-04-2024 08:00:00,22.06631475,83.33820077,PM10,25,187,67
India,Chhattisgarh,Tumidih,"OP Jindal Industrial Park, Tumidih - CECB",14-04-2024 08:00:00,22.06631475,83.33820077,SO2,5,10,6
India,Delhi,Delhi,"Alipur, Delhi - DPCC",14-04-2024 08:00:00,28.815329,77.153010,PM2.5,40,225,78
India,Delhi,Delhi,"Alipur, Delhi - DPCC",14-04-2024 08:00:00,28.815329,77.153010,NH3,5,8,7
India,Delhi,Delhi,"Ashok Vihar, Delhi - DPCC",14-04-2024 08:00:00,28.695381,77.181665,NO2,12,85,35
India,Delhi,Delhi,"Ashok Vihar, Delhi - DPCC",14-04-2024 08:00:00,28.695381,77.181665,SO2,19,34,27
India,Delhi,Delhi,"Aya Nagar, Delhi - IMD",14-04-2024 08:00:00,28.4706914,77.1099364,PM2.5,40,161,104
India,Delhi,Delhi,"Aya Nagar, Delhi - IMD",14-04-2024 08:00:00,28.4706914,77.1099364,NO2,67,85,75
India,Delhi,Delhi,"Bawana, Delhi - DPCC",14-04-2024 08:00:00,28.776200,77.051074,NO2,18,80,28
India,Delhi,Delhi,"Bawana, Delhi - DPCC",14-04-2024 08:00:00,28.776200,77.051074,NH3,7,12,9
India,Delhi,Delhi,"Chandni Chowk, Delhi - IITM",14-04-2024 08:00:00,28.656756,77.227234,NO2,7,377,56
India,Delhi,Delhi,"DTU, Delhi - CPCB",14-04-2024 08:00:00,28.7500499,77.1112615,PM2.5,24,405,109
India,Delhi,Delhi,"Dr. Karni Singh Shooting Range, Delhi - DPCC",14-04-2024 08:00:00,28.498571,77.264840,PM10,69,486,132
India,Delhi,Delhi,"Dr. Karni Singh Shooting Range, Delhi - DPCC",14-04-2024 08:00:00,28.498571,77.264840,NH3,7,9,7
India,Delhi,Delhi,"Dwarka-Sector 8, Delhi - DPCC ",14-04-2024 08:00:00,28.5710274,77.0719006,OZONE,9,81,22
India,Delhi,Delhi,"ITO, Delhi - CPCB",14-04-2024 08:00:00,28.628624,77.241060,SO2,1,26,10
India,Delhi,Delhi,"Jahangirpuri, Delhi - DPCC",14-04-2024 08:00:00,28.732820,77.170633,OZONE,9,83,22
India,Delhi,Delhi,"Jawaharlal Nehru Stadium, Delhi - DPCC",14-04-2024 08:00:00,28.580280,77.233829,SO2,7,24,15
India,Delhi,Delhi,"Lodhi Road, Delhi - IITM",14-04-2024 08:00:00,28.588333,77.221667,NO2,NA,NA,NA
India,Delhi,Delhi,"Lodhi Road, Delhi - IITM",14-04-2024 08:00:00,28.588333,77.221667,NH3,NA,NA,NA
India,Delhi,Delhi,"Lodhi Road, Delhi - IITM",14-04-2024 08:00:00,28.588333,77.221667,OZONE,NA,NA,NA
India,Delhi,Delhi,"Mundka, Delhi - DPCC",14-04-2024 08:00:00,28.684678,77.076574,NH3,5,13,7
India,Delhi,Delhi,"Mundka, Delhi - DPCC",14-04-2024 08:00:00,28.684678,77.076574,OZONE,43,274,60
India,Delhi,Delhi,"NSIT Dwarka, Delhi - CPCB",14-04-2024 08:00:00,28.60909,77.0325413,PM2.5,61,308,135
India,Delhi,Delhi,"NSIT Dwarka, Delhi - CPCB",14-04-2024 08:00:00,28.60909,77.0325413,NO2,26,51,40
India,Delhi,Delhi,"Najafgarh, Delhi - DPCC",14-04-2024 08:00:00,28.570173,76.933762,PM2.5,5,120,57
India,Delhi,Delhi,"Najafgarh, Delhi - DPCC",14-04-2024 08:00:00,28.570173,76.933762,CO,20,60,45
India,Delhi,Delhi,"Narela, Delhi - DPCC",14-04-2024 08:00:00,28.822836,77.101981,PM2.5,48,200,91
India,Delhi,Delhi,"Narela, Delhi - DPCC",14-04-2024 08:00:00,28.822836,77.101981,NH3,6,12,8
India,Delhi,Delhi,"Nehru Nagar, Delhi - DPCC",14-04-2024 08:00:00,28.567890,77.250515,SO2,4,6,5
India,Delhi,Delhi,"New Moti Bagh, Delhi - MHUA",14-04-2024 08:00:00,28.57834,77.18400,NO2,6,22,10
India,Delhi,Delhi,"North Campus, DU, Delhi - IMD",14-04-2024 08:00:00,28.6573814,77.1585447,PM2.5,55,225,118
India,Delhi,Delhi,"Okhla Phase-2, Delhi - DPCC",14-04-2024 08:00:00,28.530785,77.271255,PM10,78,331,139
India,Delhi,Delhi,"Okhla Phase-2, Delhi - DPCC",14-04-2024 08:00:00,28.530785,77.271255,NO2,40,136,69
India,Delhi,Delhi,"Okhla Phase-2, Delhi - DPCC",14-04-2024 08:00:00,28.530785,77.271255,CO,14,98,34
India,Delhi,Delhi,"Pusa, Delhi - DPCC",14-04-2024 08:00:00,28.639652,77.146275,PM2.5,47,163,67
India,Delhi,Delhi,"Pusa, Delhi - DPCC",14-04-2024 08:00:00,28.639652,77.146275,OZONE,2,127,27
India,Delhi,Delhi,"Pusa, Delhi - IMD",14-04-2024 08:00:00,28.636110,77.173332,CO,75,94,86
India,Delhi,Delhi,"Pusa, Delhi - IMD",14-04-2024 08:00:00,28.636110,77.173332,OZONE,3,49,16
India,Delhi,Delhi,"Rohini, Delhi - DPCC",14-04-2024 08:00:00,28.732528,77.119920,PM10,61,244,121
India,Delhi,Delhi,"Shadipur, Delhi - CPCB",14-04-2024 08:00:00,28.6514781,77.1473105,PM10,27,401,128
India,Delhi,Delhi,"Sirifort, Delhi - CPCB",14-04-2024 08:00:00,28.5504249,77.2159377,NO2,11,93,61
India,Delhi,Delhi,"Sirifort, Delhi - CPCB",14-04-2024 08:00:00,28.5504249,77.2159377,OZONE,8,59,17
India,Delhi,Delhi,"Sonia Vihar, Delhi - DPCC",14-04-2024 08:00:00,28.710508,77.249485,OZONE,14,172,47
India,Delhi,Delhi,"Sri Aurobindo Marg, Delhi - DPCC",14-04-2024 08:00:00,28.531346,77.190156,NO2,24,69,40
India,Delhi,Delhi,"Sri Aurobindo Marg, Delhi - DPCC",14-04-2024 08:00:00,28.531346,77.190156,SO2,10,23,15
India,Delhi,Delhi,"Wazirpur, Delhi - DPCC",14-04-2024 08:00:00,28.699793,77.165453,PM10,74,457,160
India,Delhi,Delhi,"Wazirpur, Delhi - DPCC",14-04-2024 08:00:00,28.699793,77.165453,NH3,7,13,12
India,Delhi,Delhi,"Wazirpur, Delhi - DPCC",14-04-2024 08:00:00,28.699793,77.165453,SO2,9,39,16
India,Delhi,Delhi,"Wazirpur, Delhi - DPCC",14-04-2024 08:00:00,28.699793,77.165453,CO,5,92,23
India,Gujarat,Ahmedabad,"Chandkheda, Ahmedabad - IITM",14-04-2024 08:00:00,23.107969,72.574648,NO2,48,60,55
India,Gujarat,Ahmedabad,"Chandkheda, Ahmedabad - IITM",14-04-2024 08:00:00,23.107969,72.574648,CO,2,24,2
India,Gujarat,Ahmedabad,"Gyaspur, Ahmedabad - IITM",14-04-2024 08:00:00,22.977134,72.553024,NH3,10,11,10
India,Gujarat,Ahmedabad,"Gyaspur, Ahmedabad - IITM",14-04-2024 08:00:00,22.977134,72.553024,CO,2,14,6
India,Gujarat,Ahmedabad,"Maninagar, Ahmedabad - GPCB",14-04-2024 08:00:00,23.002657,72.591912,NO2,26,50,37
India,Gujarat,Ahmedabad,"Raikhad, Ahmedabad - IITM",14-04-2024 08:00:00,23.020509,72.579261,PM2.5,91,153,122
India,Gujarat,Ahmedabad,"Raikhad, Ahmedabad - IITM",14-04-2024 08:00:00,23.020509,72.579261,OZONE,5,28,8
India,Gujarat,Ahmedabad,"Rakhial, Ahmedabad - IITM",14-04-2024 08:00:00,23.016834,72.625775,OZONE,7,41,9
India,Gujarat,Ahmedabad,"Sardar Vallabhbhai Patel Stadium, Ahmedabad - IITM",14-04-2024 08:00:00,23.043070,72.562968,NH3,7,7,7
India,Gujarat,Ahmedabad,"Sardar Vallabhbhai Patel Stadium, Ahmedabad - IITM",14-04-2024 08:00:00,23.043070,72.562968,SO2,7,18,12
India,Gujarat,Ahmedabad,"Sardar Vallabhbhai Patel Stadium, Ahmedabad - IITM",14-04-2024 08:00:00,23.043070,72.562968,CO,37,52,39
India,Gujarat,Ankleshwar,"GIDC, Ankleshwar - GPCB",14-04-2024 08:00:00,21.613267,73.010555,SO2,1,34,13
India,Gujarat,Gandhinagar,"IIPHG Lekawada, Gandhinagar - IITM",14-04-2024 08:00:00,23.243639,72.68994,SO2,10,10,10
India,Gujarat,Gandhinagar,"Sector-10, Gandhinagar - GPCB",14-04-2024 08:00:00,23.221714,72.654328,PM2.5,40,75,53
India,Gujarat,Gandhinagar,"Sector-10, Gandhinagar - GPCB",14-04-2024 08:00:00,23.221714,72.654328,CO,26,37,30
India,Gujarat,Surat,"Science Center, Surat - SMC",14-04-2024 08:00:00,21.170046,72.795405,PM2.5,2,18,7
India,Gujarat,Surat,"Science Center, Surat - SMC",14-04-2024 08:00:00,21.170046,72.795405,NO2,21,38,30
India,Gujarat,Vatva,"Phase-4 GIDC, Vatva - GPCB",14-04-2024 08:00:00,22.969611,72.643500,PM10,66,94,82
India,Haryana,Ambala,"Patti Mehar, Ambala - HSPCB",14-04-2024 08:00:00,30.379589,76.778328,PM2.5,31,69,51
India,Haryana,Bahadurgarh,"Arya Nagar, Bahadurgarh - HSPCB",14-04-2024 08:00:00,28.6701,76.9254,OZONE,35,52,44
India,Haryana,Bhiwani,"H.B. Colony, Bhiwani - HSPCB",14-04-2024 08:00:00,28.806223,76.141105,PM10,41,395,118
India,Haryana,Bhiwani,"H.B. Colony, Bhiwani - HSPCB",14-04-2024 08:00:00,28.806223,76.141105,NO2,1,12,8
India,Haryana,Bhiwani,"H.B. Colony, Bhiwani - HSPCB",14-04-2024 08:00:00,28.806223,76.141105,SO2,1,67,10
India,Haryana,Bhiwani,"H.B. Colony, Bhiwani - HSPCB",14-04-2024 08:00:00,28.806223,76.141105,OZONE,5,25,15
India,Haryana,Dharuhera,"Municipal Corporation Office, Dharuhera -  HSPCB",14-04-2024 08:00:00,28.206800,76.799700,CO,26,106,31
India,Haryana,Faridabad,"New Industrial Town, Faridabad - HSPCB",14-04-2024 08:00:00,28.39072,77.30059,PM2.5,66,500,233
India,Haryana,Faridabad,"New Industrial Town, Faridabad - HSPCB",14-04-2024 08:00:00,28.39072,77.30059,PM10,61,482,171
India,Haryana,Faridabad,"New Industrial Town, Faridabad - HSPCB",14-04-2024 08:00:00,28.39072,77.30059,CO,12,31,16
India,Haryana,Faridabad,"Sector 11, Faridabad - HSPCB",14-04-2024 08:00:00,28.376058,77.315741,CO,32,52,36
India,Haryana,Faridabad,"Sector 30, Faridabad - HSPCB",14-04-2024 08:00:00,28.4417,77.3217,NH3,NA,NA,NA
India,Haryana,Faridabad,"Sector- 16A, Faridabad - HSPCB",14-04-2024 08:00:00,28.4088421,77.3099081,NO2,NA,NA,NA
India,Haryana,Gurugram,"Sector-51, Gurugram - HSPCB",14-04-2024 08:00:00,28.4227,77.0667,NH3,7,9,7
India,Haryana,Gurugram,"Teri Gram, Gurugram - HSPCB",14-04-2024 08:00:00,28.4275,77.1465,CO,15,31,18
India,Haryana,Hisar,"Urban Estate-II, Hisar - HSPCB",14-04-2024 08:00:00,29.140560,75.744941,NH3,9,11,9
India,Haryana,Jind,"Police Lines, Jind - HSPCB",14-04-2024 08:00:00,29.307814,76.337619,NO2,8,14,12
India,Haryana,Jind,"Police Lines, Jind - HSPCB",14-04-2024 08:00:00,29.307814,76.337619,OZONE,14,24,18
India,Haryana,Kaithal,"Rishi Nagar, Kaithal - HSPCB",14-04-2024 08:00:00,29.8006,76.4155,PM2.5,35,214,83
India,Haryana,Karnal,"Sector-12, Karnal - HSPCB",14-04-2024 08:00:00,29.695300,77.002700,SO2,12,13,12
India,Haryana,Karnal,"Sector-12, Karnal - HSPCB",14-04-2024 08:00:00,29.695300,77.002700,CO,24,48,26
India,Haryana,Kurukshetra,"Sector-7, Kurukshetra - HSPCB",14-04-2024 08:00:00,29.966942,76.875879,PM10,63,167,110
India,Haryana,Kurukshetra,"Sector-7, Kurukshetra - HSPCB",14-04-2024 08:00:00,29.966942,76.875879,NH3,4,5,5
India,Haryana,Mandikhera,"General Hospital, Mandikhera - HSPCB",14-04-2024 08:00:00,27.9002,76.9938,OZONE,24,31,28
India,Haryana,Manesar,"Sector-2 IMT, Manesar - HSPCB",14-04-2024 08:00:00,28.360699,76.936090,SO2,1,11,5
India,Haryana,Narnaul,"Shastri Nagar, Narnaul - HSPCB",14-04-2024 08:00:00,28.060249,76.113115,SO2,13,45,24
India,Haryana,Palwal,"Shyam Nagar, Palwal - HSPCB",14-04-2024 08:00:00,28.1485564,77.3320667,NH3,8,9,9
India,Haryana,Panchkula,"Sector-6, Panchkula - HSPCB ",14-04-2024 08:00:00,30.7057778,76.8531805555555,SO2,2,29,5
India,Haryana,Panipat,"Sector-18, Panipat - HSPCB",14-04-2024 08:00:00,29.497973,76.993331,PM2.5,66,67,66
India,Haryana,Sirsa,"F-Block, Sirsa - HSPCB",14-04-2024 08:00:00,29.536400,75.015800,PM2.5,30,196,104
India,Haryana,Sirsa,"F-Block, Sirsa - HSPCB",14-04-2024 08:00:00,29.536400,75.015800,SO2,NA,NA,NA
India,Haryana,Sonipat,"Murthal, Sonipat - HSPCB",14-04-2024 08:00:00,29.027200,77.062100,NO2,37,44,40
India,Haryana,Sonipat,"Murthal, Sonipat - HSPCB",14-04-2024 08:00:00,29.027200,77.062100,CO,6,108,16
India,Himachal Pradesh,Baddi,"HIMUDA Complex Phase-1, Baddi - HPPCB",14-04-2024 08:00:00,30.943887,76.801991,CO,13,38,25
India,Jharkhand,Dhanbad,"Kalakusuma, Dhanbad - DMC",14-04-2024 08:00:00,23.811548,86.481238,CO,127,134,130
India,Karnataka,Bagalkot,"Vidayagiri, Bagalkot - KSPCB",14-04-2024 08:00:00,16.172806,75.659694,NO2,9,10,9
India,Karnataka,Bengaluru,"BTM Layout, Bengaluru - CPCB",14-04-2024 08:00:00,12.9135218,77.5950804,PM10,29,54,43
India,Karnataka,Bengaluru,"Bapuji Nagar, Bengaluru - KSPCB",14-04-2024 08:00:00,12.951913,77.539784,NH3,1,1,1
India,Karnataka,Bengaluru,"Bapuji Nagar, Bengaluru - KSPCB",14-04-2024 08:00:00,12.951913,77.539784,SO2,6,8,7
India,Karnataka,Bengaluru,"Hebbal, Bengaluru - KSPCB",14-04-2024 08:00:00,13.029152,77.585901,PM2.5,31,62,45
India,Karnataka,Bengaluru,"Hombegowda Nagar, Bengaluru - KSPCB",14-04-2024 08:00:00,12.938539,77.590100,PM2.5,28,48,36
India,Karnataka,Bengaluru,"Hombegowda Nagar, Bengaluru - KSPCB",14-04-2024 08:00:00,12.938539,77.590100,NO2,9,19,13
India,Karnataka,Bengaluru,"Jayanagar 5th Block, Bengaluru - KSPCB",14-04-2024 08:00:00,12.920984,77.584908,PM2.5,NA,NA,NA
India,Karnataka,Bengaluru,"Jayanagar 5th Block, Bengaluru - KSPCB",14-04-2024 08:00:00,12.920984,77.584908,SO2,12,23,18
India,Karnataka,Bengaluru,"Jayanagar 5th Block, Bengaluru - KSPCB",14-04-2024 08:00:00,12.920984,77.584908,OZONE,27,29,28
India,Karnataka,Bengaluru,"Kasturi Nagar, Bengaluru - KSPCB",14-04-2024 08:00:00,13.003872,77.664217,SO2,10,10,10
India,Karnataka,Bengaluru,"Kasturi Nagar, Bengaluru - KSPCB",14-04-2024 08:00:00,13.003872,77.664217,OZONE,24,75,36
India,Karnataka,Bengaluru,"Sanegurava Halli, Bengaluru - KSPCB",14-04-2024 08:00:00,12.990328,77.5431385,PM10,35,57,40
India,Karnataka,Bengaluru,"Shivapura_Peenya, Bengaluru - KSPCB",14-04-2024 08:00:00,13.0246342,77.5080115,PM10,39,67,55
India,Karnataka,Bengaluru,"Shivapura_Peenya, Bengaluru - KSPCB",14-04-2024 08:00:00,13.0246342,77.5080115,OZONE,53,55,54
India,Karnataka,Bengaluru,"Silk Board, Bengaluru - KSPCB",14-04-2024 08:00:00,12.917348,77.622813,NH3,NA,NA,NA
India,Karnataka,Bidar,"Naubad, Bidar - KSPCB",14-04-2024 08:00:00,17.930306,77.482194,NO2,7,9,8
India,Karnataka,Bidar,"Naubad, Bidar - KSPCB",14-04-2024 08:00:00,17.930306,77.482194,CO,76,102,95
India,Karnataka,Chamarajanagar,"Urban, Chamarajanagar - KSPCB",14-04-2024 08:00:00,11.55358,76.55521,NO2,23,29,29
India,Karnataka,Chikkaballapur,"Chikkaballapur Rural, Chikkaballapur - KSPCB",14-04-2024 08:00:00,13.428828,77.731418,PM10,31,70,44
India,Karnataka,Chikkamagaluru,"Kalyana Nagara, Chikkamagaluru - KSPCB",14-04-2024 08:00:00,13.328028,75.797056,PM2.5,NA,NA,NA
India,Karnataka,Chikkamagaluru,"Kalyana Nagara, Chikkamagaluru - KSPCB",14-04-2024 08:00:00,13.328028,75.797056,PM10,NA,NA,NA
India,Karnataka,Chikkamagaluru,"Kalyana Nagara, Chikkamagaluru - KSPCB",14-04-2024 08:00:00,13.328028,75.797056,NH3,3,4,3
India,Karnataka,Davanagere,"Devaraj Urs Badavane, Davanagere - KSPCB",14-04-2024 08:00:00,14.475800,75.905200,PM10,21,74,46
India,Karnataka,Davanagere,"Devaraj Urs Badavane, Davanagere - KSPCB",14-04-2024 08:00:00,14.475800,75.905200,NH3,1,2,2
India,Karnataka,Davanagere,"Devaraj Urs Badavane, Davanagere - KSPCB",14-04-2024 08:00:00,14.475800,75.905200,CO,19,20,19
India,Karnataka,Dharwad,"Kalabhavan, Dharwad - KSPCB",14-04-2024 08:00:00,15.459706,75.008381,NH3,3,3,3
India,Karnataka,Dharwad,"Kalabhavan, Dharwad - KSPCB",14-04-2024 08:00:00,15.459706,75.008381,SO2,2,26,5
India,Karnataka,Haveri,"Ashwini Nagar, Haveri - KSPCB",14-04-2024 08:00:00,14.791800,75.389600,PM10,NA,NA,NA
India,Karnataka,Hubballi,"Deshpande Nagar, Hubballi - KSPCB",14-04-2024 08:00:00,15.351773,75.140726,PM2.5,NA,NA,NA
India,Karnataka,Kalaburagi,"Mahatma Basaveswar Colony, Kalaburgi - KSPCB",14-04-2024 08:00:00,17.336318,76.847397,NH3,3,4,4
India,Karnataka,Karwar,"KHB Colony, Karwar - KSPCB",14-04-2024 08:00:00,14.816666,74.141003,NO2,1,29,7
India,Karnataka,Karwar,"KHB Colony, Karwar - KSPCB",14-04-2024 08:00:00,14.816666,74.141003,OZONE,21,22,22
India,Karnataka,Kolar,"Tamaka Ind. Area, Kolar - KSPCB",14-04-2024 08:00:00,13.1276288,78.1570122,PM10,34,80,48
India,Karnataka,Koppal,"Diwator Nagar, Koppal - KSPCB",14-04-2024 08:00:00,15.347630,76.181767,SO2,26,28,27
India,Karnataka,Madikeri,"Stuart Hill, Madikeri - KSPCB",14-04-2024 08:00:00,12.415911,75.735050,NO2,3,12,6
India,Karnataka,Mysuru,"Hebbal 1st Stage, Mysuru - KSPCB",14-04-2024 08:00:00,12.21041,76.37376,NH3,2,2,2
India,Karnataka,Shivamogga,"Vinoba Nagara, Shivamogga - KSPCB",14-04-2024 08:00:00,13.940000,75.555917,PM2.5,39,42,40
India,Karnataka,Shivamogga,"Vinoba Nagara, Shivamogga - KSPCB",14-04-2024 08:00:00,13.940000,75.555917,NO2,10,16,13
India,Karnataka,Shivamogga,"Vinoba Nagara, Shivamogga - KSPCB",14-04-2024 08:00:00,13.940000,75.555917,SO2,9,12,10
India,Karnataka,Tumakuru,"Thimmalapura, Tumakuru - KSPCB",14-04-2024 08:00:00,13.377516,77.099072,PM10,37,155,108
India,Karnataka,Vijayapura,"Ibrahimpur, Vijayapura - KSPCB",14-04-2024 08:00:00,16.802639,75.722694,SO2,NA,NA,NA
India,Karnataka,Yadgir,"Collector Office, Yadgir - KSPCB",14-04-2024 08:00:00,16.7602,77.1428,NO2,NA,NA,NA
India,Kerala,Eloor,"Udyogamandal, Eloor - Kerala PCB",14-04-2024 08:00:00,10.073232,76.302765,PM2.5,29,46,38
India,Kerala,Eloor,"Udyogamandal, Eloor - Kerala PCB",14-04-2024 08:00:00,10.073232,76.302765,NO2,4,4,4
India,Kerala,Kollam,"Polayathode, Kollam - Kerala PCB",14-04-2024 08:00:00,8.8787,76.6073,PM2.5,2,286,67
India,Kerala,Kollam,"Polayathode, Kollam - Kerala PCB",14-04-2024 08:00:00,8.8787,76.6073,NH3,1,1,1
India,Kerala,Kollam,"Polayathode, Kollam - Kerala PCB",14-04-2024 08:00:00,8.8787,76.6073,SO2,1,17,3
India,Kerala,Kollam,"Polayathode, Kollam - Kerala PCB",14-04-2024 08:00:00,8.8787,76.6073,OZONE,31,40,32
India,Kerala,Thiruvananthapuram,"Kariavattom, Thiruvananthapuram - Kerala PCB",14-04-2024 08:00:00,8.563700,76.886500,SO2,1,14,8
India,Kerala,Thrissur,"Corporation Ground, Thrissur - Kerala PCB",14-04-2024 08:00:00,10.532400,76.215900,PM2.5,43,51,48
India,Madhya Pradesh,Bhopal,"Idgah Hills, Bhopal - MPPCB",14-04-2024 08:00:00,23.264759,77.381568,PM2.5,22,55,37
India,Madhya Pradesh,Bhopal,"Idgah Hills, Bhopal - MPPCB",14-04-2024 08:00:00,23.264759,77.381568,NH3,6,8,7
India,Madhya Pradesh,Bhopal,"Paryavaran Parisar, Bhopal - MPPCB",14-04-2024 08:00:00,23.210494,77.425409,NO2,8,37,16
India,Madhya Pradesh,Bhopal,"Paryavaran Parisar, Bhopal - MPPCB",14-04-2024 08:00:00,23.210494,77.425409,CO,16,40,23
India,Madhya Pradesh,Bhopal,"T T Nagar, Bhopal - MPPCB",14-04-2024 08:00:00,23.233584,77.400574,PM2.5,21,52,35
India,Madhya Pradesh,Bhopal,"T T Nagar, Bhopal - MPPCB",14-04-2024 08:00:00,23.233584,77.400574,PM10,22,102,56
India,Madhya Pradesh,Gwalior,"City Center, Gwalior - MPPCB",14-04-2024 08:00:00,26.203442,78.193251,PM2.5,28,76,42
India,Madhya Pradesh,Gwalior,"City Center, Gwalior - MPPCB",14-04-2024 08:00:00,26.203442,78.193251,NO2,6,14,10
India,Madhya Pradesh,Gwalior,"Deen Dayal Nagar, Gwalior - MPPCB",14-04-2024 08:00:00,26.259242,78.216432,NO2,18,83,39
India,Madhya Pradesh,Gwalior,"Deen Dayal Nagar, Gwalior - MPPCB",14-04-2024 08:00:00,26.259242,78.216432,OZONE,60,144,88
India,Madhya Pradesh,Gwalior,"Maharaj Bada, Gwalior - MPPCB",14-04-2024 08:00:00,26.200388,78.147714,PM2.5,17,58,38
India,Madhya Pradesh,Indore,"Chhoti Gwaltoli, Indore - MPPCB",14-04-2024 08:00:00,22.4310,75.5213,PM10,50,155,91
India,Madhya Pradesh,Indore,"Chhoti Gwaltoli, Indore - MPPCB",14-04-2024 08:00:00,22.4310,75.5213,NH3,4,7,5
India,Madhya Pradesh,Indore,"Chhoti Gwaltoli, Indore - MPPCB",14-04-2024 08:00:00,22.4310,75.5213,OZONE,21,118,46
India,Madhya Pradesh,Indore,"Maguda Nagar, Indore - IMC",14-04-2024 08:00:00,22.7524,75.8872,PM2.5,27,148,66
India,Madhya Pradesh,Indore,"Regional Park, Indore - IMC",14-04-2024 08:00:00,22.6780,75.8559,PM2.5,23,74,50
India,Madhya Pradesh,Indore,"Regional Park, Indore - IMC",14-04-2024 08:00:00,22.6780,75.8559,SO2,37,40,39
India,Madhya Pradesh,Indore,"Residency Area, Indore - IMC",14-04-2024 08:00:00,22.7084,75.8815,PM10,27,106,54
India,Madhya Pradesh,Jabalpur,"Gupteshwar, Jabalpur - JMC",14-04-2024 08:00:00,23.142888,79.916147,NO2,15,28,20
India,Madhya Pradesh,Jabalpur,"Marhatal, Jabalpur - MPPCB",14-04-2024 08:00:00,23.168606,79.932247,PM10,12,114,52
India,Madhya Pradesh,Jabalpur,"Marhatal, Jabalpur - MPPCB",14-04-2024 08:00:00,23.168606,79.932247,NO2,9,22,13
India,Madhya Pradesh,Jabalpur,"Suhagi, Jabalpur - JMC",14-04-2024 08:00:00,23.218135,79.957770,PM2.5,2,143,42
India,Madhya Pradesh,Jabalpur,"Suhagi, Jabalpur - JMC",14-04-2024 08:00:00,23.218135,79.957770,CO,24,66,36
India,Madhya Pradesh,Jabalpur,"Suhagi, Jabalpur - JMC",14-04-2024 08:00:00,23.218135,79.957770,OZONE,24,111,46
India,Madhya Pradesh,Katni,"Gole Bazar, Katni - MPPCB",14-04-2024 08:00:00,23.50016,80.23284,PM10,28,147,66
India,Madhya Pradesh,Maihar,"Sahilara, Maihar - KJS Cements",14-04-2024 08:00:00,24.2613009,80.7231783,PM10,2,71,39
India,Madhya Pradesh,Maihar,"Sahilara, Maihar - KJS Cements",14-04-2024 08:00:00,24.2613009,80.7231783,CO,68,84,71
India,Madhya Pradesh,Mandideep,"Sector-D Industrial Area, Mandideep - MPPCB",14-04-2024 08:00:00,23.108440,77.511428,SO2,13,121,49
India,Madhya Pradesh,Mandideep,"Sector-D Industrial Area, Mandideep - MPPCB",14-04-2024 08:00:00,23.108440,77.511428,CO,22,45,32
India,Madhya Pradesh,Mandideep,"Sector-D Industrial Area, Mandideep - MPPCB",14-04-2024 08:00:00,23.108440,77.511428,OZONE,15,42,22
India,Madhya Pradesh,Pithampur,"Sector-2 Industrial Area, Pithampur - MPPCB",14-04-2024 08:00:00,22.624758,75.675238,PM2.5,30,103,56
India,Madhya Pradesh,Pithampur,"Sector-2 Industrial Area, Pithampur - MPPCB",14-04-2024 08:00:00,22.624758,75.675238,CO,26,108,52
India,Madhya Pradesh,Ratlam,"Shasthri Nagar, Ratlam - IPCA Lab",14-04-2024 08:00:00,23.331731,75.045981,PM10,81,157,109
India,Madhya Pradesh,Ratlam,"Shasthri Nagar, Ratlam - IPCA Lab",14-04-2024 08:00:00,23.331731,75.045981,SO2,40,50,44
India,Madhya Pradesh,Sagar,"Civil Lines, Sagar - MPPCB",14-04-2024 08:00:00,23.838586,78.759431,PM10,NA,NA,NA
India,Madhya Pradesh,Sagar,"Deen Dayal Nagar, Sagar - MPPCB",14-04-2024 08:00:00,23.8640158,78.80289321,PM10,14,116,38
India,Madhya Pradesh,Satna,"Bandhavgar Colony, Satna - Birla Cement",14-04-2024 08:00:00,24.58434363,80.8549414,PM2.5,11,64,31
India,Madhya Pradesh,Satna,"Bandhavgar Colony, Satna - Birla Cement",14-04-2024 08:00:00,24.58434363,80.8549414,CO,27,101,32
India,Madhya Pradesh,Singrauli,"Suryakiran Bhawan NCL, Singrauli - MPPCB",14-04-2024 08:00:00,24.108970,82.645580,SO2,35,103,58
India,Madhya Pradesh,Ujjain,"Mahakaleshwar Temple, Ujjain - MPPCB",14-04-2024 08:00:00,23.182719 ,75.768218 ,PM10,46,112,77
India,Maharashtra,Ahmednagar,"Tarakpur, Ahmednagar - MPCB",14-04-2024 08:00:00,19.10122,74.73339,PM10,36,115,72
India,Maharashtra,Ahmednagar,"Tarakpur, Ahmednagar - MPCB",14-04-2024 08:00:00,19.10122,74.73339,OZONE,17,140,51
India,Maharashtra,Amravati,"Shri Shivaji Science College, Amaravati - MPCB",14-04-2024 08:00:00,20.939198,77.765701,PM2.5,34,62,48
India,Maharashtra,Amravati,"Shri Shivaji Science College, Amaravati - MPCB",14-04-2024 08:00:00,20.939198,77.765701,CO,24,44,28
India,Maharashtra,Amravati,"Shri Shivaji Science College, Amaravati - MPCB",14-04-2024 08:00:00,20.939198,77.765701,OZONE,18,53,24
India,Maharashtra,Aurangabad,"More Chowk Waluj, Aurangabad - MPCB",14-04-2024 08:00:00,19.8389439,75.244448,PM10,32,67,46
India,Maharashtra,Aurangabad,"More Chowk Waluj, Aurangabad - MPCB",14-04-2024 08:00:00,19.8389439,75.244448,NH3,9,10,9
India,Maharashtra,Aurangabad,"More Chowk Waluj, Aurangabad - MPCB",14-04-2024 08:00:00,19.8389439,75.244448,OZONE,30,86,42
India,Maharashtra,Aurangabad,"Rachnakar Colony, Aurangabad - MPCB",14-04-2024 08:00:00,19.863756,75.321188,CO,14,34,19
India,Maharashtra,Badlapur,"Katrap, Badlapur - MPCB",14-04-2024 08:00:00,19.16485,73.23409,NH3,1,3,2
India,Maharashtra,Badlapur,"Katrap, Badlapur - MPCB",14-04-2024 08:00:00,19.16485,73.23409,OZONE,3,197,9
India,Maharashtra,Belapur,"CBD Belapur, Belapur - MPCB",14-04-2024 08:00:00,19.0243902,73.0406721,SO2,1,15,4
India,Maharashtra,Belapur,"CBD Belapur, Belapur - MPCB",14-04-2024 08:00:00,19.0243902,73.0406721,OZONE,10,171,16
India,Maharashtra,Bhiwandi,"Gokul Nagar, Bhiwandi - MPCB",14-04-2024 08:00:00,19.309073,73.057223,PM2.5,53,118,74
India,Maharashtra,Bhiwandi,"Gokul Nagar, Bhiwandi - MPCB",14-04-2024 08:00:00,19.309073,73.057223,NO2,12,42,23
India,Maharashtra,Boisar,"Khaira, Boisar - MPCB",14-04-2024 08:00:00,19.786089,72.757971,PM2.5,NA,NA,NA
India,Maharashtra,Boisar,"Khaira, Boisar - MPCB",14-04-2024 08:00:00,19.786089,72.757971,PM10,NA,NA,NA
India,Maharashtra,Chandrapur,"Chauhan Colony, Chandrapur - MPCB",14-04-2024 08:00:00,19.962900,79.298714,SO2,2,4,4
India,Maharashtra,Chandrapur,"Chauhan Colony, Chandrapur - MPCB",14-04-2024 08:00:00,19.962900,79.298714,CO,24,26,25
India,Maharashtra,Chandrapur,"MIDC Khutala, Chandrapur - MPCB",14-04-2024 08:00:00,19.9775302,79.2337086,OZONE,1,38,3
India,Maharashtra,Jalgaon,"Prabhat Colony, Jalgaon - MPCB",14-04-2024 08:00:00,21.001264,75.565602,NO2,16,105,32
India,Maharashtra,Jalgaon,"Prabhat Colony, Jalgaon - MPCB",14-04-2024 08:00:00,21.001264,75.565602,SO2,2,12,5
India,Maharashtra,Jalna,"Old MIDC, Jalna - MPCB",14-04-2024 08:00:00,19.854616,75.905894,NO2,10,13,11
India,Maharashtra,Kolhapur,"Shivaji University, Kolhapur - MPCB",14-04-2024 08:00:00,16.6870449,74.2505872,SO2,2,8,4
India,Maharashtra,Kolhapur,"Shivaji University, Kolhapur - MPCB",14-04-2024 08:00:00,16.6870449,74.2505872,CO,32,82,45
India,Maharashtra,Kolhapur,"Sinchan Bhavan, Kolhapur - MPCB",14-04-2024 08:00:00,16.7143745,74.2426398,NO2,10,42,21
India,Maharashtra,Mahad,"Kamble Tarf Birwadi, Mahad - MPCB",14-04-2024 08:00:00,18.1023399,73.4783687,PM10,38,88,61
India,Maharashtra,Mahad,"Kamble Tarf Birwadi, Mahad - MPCB",14-04-2024 08:00:00,18.1023399,73.4783687,CO,10,44,30
India,Maharashtra,Malegaon,"Mahesh Nagar, Malegaon - MPCB",14-04-2024 08:00:00,20.555712,74.529236,PM2.5,49,116,88
India,Maharashtra,Malegaon,"Mahesh Nagar, Malegaon - MPCB",14-04-2024 08:00:00,20.555712,74.529236,NO2,1,11,6
India,Maharashtra,Mira-Bhayandar,"Bhayandar West, Mira-Bhayandar - MPCB",14-04-2024 08:00:00,19.296481,72.840923,NO2,4,18,10
India,Maharashtra,Mira-Bhayandar,"Bhayandar West, Mira-Bhayandar - MPCB",14-04-2024 08:00:00,19.296481,72.840923,SO2,1,4,2
India,Maharashtra,Mira-Bhayandar,"Bhayandar West, Mira-Bhayandar - MPCB",14-04-2024 08:00:00,19.296481,72.840923,CO,6,23,12
India,Maharashtra,Mumbai,"Bandra Kurla Complex, Mumbai - MPCB",14-04-2024 08:00:00,19.065931,72.862131,PM2.5,32,61,42
India,Maharashtra,Mumbai,"Bandra Kurla Complex, Mumbai - MPCB",14-04-2024 08:00:00,19.065931,72.862131,OZONE,2,65,13
India,Maharashtra,Mumbai,"Borivali East, Mumbai - MPCB",14-04-2024 08:00:00,19.2243333,72.8658113,NO2,3,18,10
India,Maharashtra,Mumbai,"Borivali East, Mumbai - MPCB",14-04-2024 08:00:00,19.2243333,72.8658113,OZONE,14,16,15
India,Maharashtra,Mumbai,"Chakala-Andheri East, Mumbai - IITM",14-04-2024 08:00:00,19.11074,72.86084,NO2,50,92,67
India,Maharashtra,Mumbai,"Chakala-Andheri East, Mumbai - IITM",14-04-2024 08:00:00,19.11074,72.86084,CO,12,50,48
India,Maharashtra,Mumbai,"Chembur, Mumbai - MPCB",14-04-2024 08:00:00,19.0364585,72.8954371,PM2.5,33,77,54
India,Maharashtra,Mumbai,"Chembur, Mumbai - MPCB",14-04-2024 08:00:00,19.0364585,72.8954371,SO2,1,14,3
India,Maharashtra,Mumbai,"Chembur, Mumbai - MPCB",14-04-2024 08:00:00,19.0364585,72.8954371,OZONE,1,96,5
India,Maharashtra,Mumbai,"Chhatrapati Shivaji Intl. Airport (T2), Mumbai - MPCB",14-04-2024 08:00:00,19.10078,72.87462,PM10,54,105,76
India,Maharashtra,Mumbai,"Chhatrapati Shivaji Intl. Airport (T2), Mumbai - MPCB",14-04-2024 08:00:00,19.10078,72.87462,NO2,NA,NA,NA
India,Maharashtra,Mumbai,"Ghatkopar, Mumbai - BMC",14-04-2024 08:00:00,19.083694,72.920967,SO2,1,5,2
India,Maharashtra,Mumbai,"Ghatkopar, Mumbai - BMC",14-04-2024 08:00:00,19.083694,72.920967,OZONE,1,33,1
India,Maharashtra,Mumbai,"Kandivali East, Mumbai - MPCB",14-04-2024 08:00:00,19.205800,72.868200,PM2.5,11,88,32
India,Maharashtra,Mumbai,"Kandivali East, Mumbai - MPCB",14-04-2024 08:00:00,19.205800,72.868200,PM10,34,160,70
India,Maharashtra,Mumbai,"Kandivali West, Mumbai - BMC",14-04-2024 08:00:00,19.215859,72.831718,CO,8,18,13
India,Maharashtra,Mumbai,"Kurla, Mumbai - MPCB",14-04-2024 08:00:00,19.0863,72.8888,NH3,2,2,2
India,Maharashtra,Mumbai,"Mazgaon, Mumbai - IITM",14-04-2024 08:00:00,18.96702,72.84214,SO2,NA,NA,NA
India,Maharashtra,Mumbai,"Mazgaon, Mumbai - IITM",14-04-2024 08:00:00,18.96702,72.84214,CO,18,44,28
India,Maharashtra,Mumbai,"Mazgaon, Mumbai - IITM",14-04-2024 08:00:00,18.96702,72.84214,OZONE,7,57,29
India,Maharashtra,Mumbai,"Mindspace-Malad West, Mumbai - MPCB",14-04-2024 08:00:00,19.1878657,72.8304069,NO2,11,49,30
India,Maharashtra,Mumbai,"Mindspace-Malad West, Mumbai - MPCB",14-04-2024 08:00:00,19.1878657,72.8304069,CO,8,36,17
India,Maharashtra,Mumbai,"Mulund West, Mumbai - MPCB",14-04-2024 08:00:00,19.1750,72.9419,PM10,39,179,84
India,Maharashtra,Mumbai,"Mulund West, Mumbai - MPCB",14-04-2024 08:00:00,19.1750,72.9419,SO2,13,13,13
India,Maharashtra,Mumbai,"Mulund West, Mumbai - MPCB",14-04-2024 08:00:00,19.1750,72.9419,CO,36,36,36
India,Maharashtra,Mumbai,"Mulund West, Mumbai - MPCB",14-04-2024 08:00:00,19.1750,72.9419,OZONE,7,7,7
India,Maharashtra,Mumbai,"Powai, Mumbai - MPCB",14-04-2024 08:00:00,19.137500,72.915056,NO2,15,27,19
India,Maharashtra,Mumbai,"Powai, Mumbai - MPCB",14-04-2024 08:00:00,19.137500,72.915056,NH3,NA,NA,NA
India,Maharashtra,Mumbai,"Sewri, Mumbai - BMC",14-04-2024 08:00:00,19.000084,72.856730,CO,12,28,17
India,Maharashtra,Mumbai,"Shivaji Nagar, Mumbai - BMC",14-04-2024 08:00:00,19.060498,72.923356,PM10,39,82,64
India,Maharashtra,Mumbai,"Shivaji Nagar, Mumbai - BMC",14-04-2024 08:00:00,19.060498,72.923356,SO2,1,12,5
India,Maharashtra,Mumbai,"Siddharth Nagar-Worli, Mumbai - IITM",14-04-2024 08:00:00,19.000083,72.813993,PM10,59,91,71
India,Maharashtra,Mumbai,"Siddharth Nagar-Worli, Mumbai - IITM",14-04-2024 08:00:00,19.000083,72.813993,NO2,21,62,30
India,Maharashtra,Mumbai,"Sion, Mumbai - MPCB",14-04-2024 08:00:00,19.047000,72.874600,CO,6,24,18
India,Maharashtra,Mumbai,"Vasai West, Mumbai - MPCB",14-04-2024 08:00:00,19.383200,72.820400,PM2.5,20,133,52
India,Maharashtra,Mumbai,"Vile Parle West, Mumbai - MPCB",14-04-2024 08:00:00,19.10861,72.83622,PM10,48,82,67
India,Maharashtra,Mumbai,"Vile Parle West, Mumbai - MPCB",14-04-2024 08:00:00,19.10861,72.83622,NO2,6,8,7
India,Maharashtra,Mumbai,"Vile Parle West, Mumbai - MPCB",14-04-2024 08:00:00,19.10861,72.83622,NH3,10,11,11
India,Maharashtra,Mumbai,"Worli, Mumbai - MPCB",14-04-2024 08:00:00,18.9936162,72.8128113,OZONE,6,11,8
India,Maharashtra,Nagpur,"Ambazari, Nagpur - MPCB",14-04-2024 08:00:00,21.121801,79.04952,CO,12,112,55
India,Maharashtra,Nagpur,"Mahal, Nagpur - MPCB",14-04-2024 08:00:00,21.14472,79.107595,PM2.5,36,94,61
India,Maharashtra,Nagpur,"Mahal, Nagpur - MPCB",14-04-2024 08:00:00,21.14472,79.107595,NO2,8,38,19
India,Maharashtra,Nagpur,"Mahal, Nagpur - MPCB",14-04-2024 08:00:00,21.14472,79.107595,SO2,2,77,26
India,Maharashtra,Nagpur,"Mahal, Nagpur - MPCB",14-04-2024 08:00:00,21.14472,79.107595,CO,20,140,56
India,Maharashtra,Nashik,"Gangapur Road, Nashik - MPCB",14-04-2024 08:00:00,20.0073285,73.7762427,CO,20,96,70
India,Maharashtra,Nashik,"Hirawadi, Nashik - MPCB",14-04-2024 08:00:00,20.021503,73.813844,NO2,6,28,18
India,Maharashtra,Nashik,"Hirawadi, Nashik - MPCB",14-04-2024 08:00:00,20.021503,73.813844,CO,10,26,17
India,Maharashtra,Nashik,"MIDC Ambad, Nashik - MPCB",14-04-2024 08:00:00,19.950220,73.731480,PM2.5,22,68,48
India,Maharashtra,Nashik,"MIDC Ambad, Nashik - MPCB",14-04-2024 08:00:00,19.950220,73.731480,NH3,2,2,2
India,Maharashtra,Navi Mumbai,"Kopripada-Vashi, Navi Mumbai - MPCB",14-04-2024 08:00:00,19.090337,73.014232,PM10,71,405,132
India,Maharashtra,Navi Mumbai,"Kopripada-Vashi, Navi Mumbai - MPCB",14-04-2024 08:00:00,19.090337,73.014232,NH3,5,19,9
India,Maharashtra,Navi Mumbai,"Mahape, Navi Mumbai - MPCB",14-04-2024 08:00:00,19.1135051,73.008978,NO2,84,89,86
India,Maharashtra,Navi Mumbai,"Nerul, Navi Mumbai - MPCB",14-04-2024 08:00:00,19.008751,73.016620,PM10,58,181,114
India,Maharashtra,Navi Mumbai,"Nerul, Navi Mumbai - MPCB",14-04-2024 08:00:00,19.008751,73.016620,SO2,20,24,23
India,Maharashtra,Navi Mumbai,"Nerul, Navi Mumbai - MPCB",14-04-2024 08:00:00,19.008751,73.016620,OZONE,34,62,48
India,Maharashtra,Navi Mumbai,"Sanpada, Navi Mumbai - MPCB",14-04-2024 08:00:00,19.0575752,73.0151367,NO2,19,43,28
India,Maharashtra,Navi Mumbai,"Sector-19A Nerul, Navi Mumbai - IITM",14-04-2024 08:00:00,19.044,73.0325,CO,26,28,28
India,Maharashtra,Parbhani,"Masoom Colony, Parbhani - MPCB",14-04-2024 08:00:00,19.265594,76.761463,NO2,23,47,31
India,Maharashtra,Parbhani,"Masoom Colony, Parbhani - MPCB",14-04-2024 08:00:00,19.265594,76.761463,CO,4,48,32
India,Maharashtra,Pimpri-Chinchwad,"Gavalinagar, Pimpri Chinchwad - MPCB",14-04-2024 08:00:00,18.63673,73.82487,SO2,3,21,9
India,Maharashtra,Pimpri-Chinchwad,"Park Street Wakad, Pimpri Chinchwad - MPCB",14-04-2024 08:00:00,18.59051,73.77946,NO2,55,117,73
India,Maharashtra,Pimpri-Chinchwad,"Thergaon, Pimpri Chinchwad - MPCB",14-04-2024 08:00:00,18.616318,73.765797,NO2,21,62,41
India,Maharashtra,Pimpri-Chinchwad,"Thergaon, Pimpri Chinchwad - MPCB",14-04-2024 08:00:00,18.616318,73.765797,SO2,1,5,1
India,Maharashtra,Pune,"Karve Road, Pune - MPCB",14-04-2024 08:00:00,18.5011743,73.8165527,PM10,135,135,135
India,Maharashtra,Pune,"Karve Road, Pune - MPCB",14-04-2024 08:00:00,18.5011743,73.8165527,NO2,2,2,2
India,Maharashtra,Pune,"Katraj Dairy, Pune - MPCB",14-04-2024 08:00:00,18.454450,73.854155,PM2.5,NA,NA,NA
India,Maharashtra,Pune,"Katraj Dairy, Pune - MPCB",14-04-2024 08:00:00,18.454450,73.854155,NO2,NA,NA,NA
India,Maharashtra,Pune,"Katraj Dairy, Pune - MPCB",14-04-2024 08:00:00,18.454450,73.854155,CO,22,66,32
India,Maharashtra,Pune,"Katraj Dairy, Pune - MPCB",14-04-2024 08:00:00,18.454450,73.854155,OZONE,3,18,6
India,Maharashtra,Pune,"Mhada Colony, Pune - IITM",14-04-2024 08:00:00,18.573040,73.927715,PM10,17,88,62
India,Maharashtra,Pune,"Revenue Colony-Shivajinagar, Pune - IITM",14-04-2024 08:00:00,18.530085,73.849598,PM10,33,81,60
India,Maharashtra,Pune,"Savitribai Phule Pune University, Pune - MPCB",14-04-2024 08:00:00,18.547056,73.826908,PM10,54,98,75
India,Maharashtra,Pune,"Savitribai Phule Pune University, Pune - MPCB",14-04-2024 08:00:00,18.547056,73.826908,CO,10,40,26
India,Maharashtra,Pune,"Transport Nagar-Nigdi, Pune - IITM",14-04-2024 08:00:00,18.664282,73.763966,NO2,12,15,13
India,Maharashtra,Sangli,"Vijay Nagar, Sangli - MPCB",14-04-2024 08:00:00, 16.5038,74.3623,PM2.5,39,74,53
India,Maharashtra,Sangli,"Vijay Nagar, Sangli - MPCB",14-04-2024 08:00:00, 16.5038,74.3623,NO2,15,71,27
India,Maharashtra,Sangli,"Vijay Nagar, Sangli - MPCB",14-04-2024 08:00:00, 16.5038,74.3623,CO,15,56,26
India,Maharashtra,Solapur,"Dnyaneshwar Nagar, Solapur - MPCB",14-04-2024 08:00:00,17.6336264,75.9132495,PM2.5,13,56,31
India,Maharashtra,Solapur,"Dnyaneshwar Nagar, Solapur - MPCB",14-04-2024 08:00:00,17.6336264,75.9132495,PM10,26,64,37
India,Maharashtra,Solapur,"Dnyaneshwar Nagar, Solapur - MPCB",14-04-2024 08:00:00,17.6336264,75.9132495,CO,15,41,24
India,Maharashtra,Solapur,"Ratandeep Housing Society, Solapur - MPCB",14-04-2024 08:00:00,17.65439,75.90649,PM10,51,76,64
India,Maharashtra,Solapur,"Ratandeep Housing Society, Solapur - MPCB",14-04-2024 08:00:00,17.65439,75.90649,NH3,10,15,13
India,Maharashtra,Thane,"Pimpleshwar Mandir, Thane - MPCB",14-04-2024 08:00:00,19.192056,72.9585188,PM10,1,190,96
India,Maharashtra,Thane,"Pimpleshwar Mandir, Thane - MPCB",14-04-2024 08:00:00,19.192056,72.9585188,CO,11,108,55
India,Manipur,Imphal,"DM College of Science, Imphal - Manipur PCB",14-04-2024 08:00:00,24.8207389,93.9423085,PM2.5,19,75,41
India,Manipur,Imphal,"Manipur University, Imphal - Manipur PCB",14-04-2024 08:00:00,24.7524239,93.9286218,NO2,7,23,13
India,Manipur,Imphal,"Manipur University, Imphal - Manipur PCB",14-04-2024 08:00:00,24.7524239,93.9286218,SO2,86,91,88
India,Mizoram,Aizawl,"Sikulpuikawn, Aizawl - Mizoram PCB",14-04-2024 08:00:00,23.7176342,92.7192841,NH3,1,3,2
India,Nagaland,Kohima,"PWD Juction, Kohima - NPCB",14-04-2024 08:00:00,25.6635413,94.0989878,NO2,3,4,3
India,Nagaland,Kohima,"PWD Juction, Kohima - NPCB",14-04-2024 08:00:00,25.6635413,94.0989878,SO2,31,36,32
India,Odisha,Angul,"Hakimapada, Angul - OSPCB",14-04-2024 08:00:00,20.832874,85.104082,PM2.5,87,330,165
India,Odisha,Angul,"Hakimapada, Angul - OSPCB",14-04-2024 08:00:00,20.832874,85.104082,SO2,12,118,43
India,Odisha,Balasore,"Kalidaspur, Balasore - OSPCB",14-04-2024 08:00:00,21.51161,86.89088,PM10,81,215,128
India,Odisha,Baripada,"Meher Colony, Baripada - OSPCB",14-04-2024 08:00:00,21.941841,86.728318,NH3,NA,NA,NA
India,Odisha,Bhubaneswar,"Lingraj Mandir, Bhubaneswar - OSPCB",14-04-2024 08:00:00,20.240790,85.836784,CO,52,105,71
India,Odisha,Bhubaneswar,"Patia, Bhubaneswar - OSPCB",14-04-2024 08:00:00,20.34652,85.81630,CO,1,152,152
India,Odisha,Bileipada,"Tata Township, Bileipada - OSPCB",14-04-2024 08:00:00,22.06156703,85.47409613,NH3,11,11,11
India,Odisha,Bileipada,"Tata Township, Bileipada - OSPCB",14-04-2024 08:00:00,22.06156703,85.47409613,SO2,1,49,15
India,Odisha,Bileipada,"Tata Township, Bileipada - OSPCB",14-04-2024 08:00:00,22.06156703,85.47409613,OZONE,14,26,15
India,Odisha,Byasanagar,"Ferro Chrome Colony, Byasanagar - OSPCB",14-04-2024 08:00:00,20.94185,86.11510,PM10,50,172,107
India,Odisha,Byasanagar,"Ferro Chrome Colony, Byasanagar - OSPCB",14-04-2024 08:00:00,20.94185,86.11510,NH3,2,4,3
India,Odisha,Byasanagar,"Ferro Chrome Colony, Byasanagar - OSPCB",14-04-2024 08:00:00,20.94185,86.11510,OZONE,21,135,28
India,Odisha,Cuttack,"CDA Area, Cuttack - OSPCB",14-04-2024 08:00:00,20.48891     ,85.84768     ,SO2,1,47,16
India,Odisha,Cuttack,"CDA Area, Cuttack - OSPCB",14-04-2024 08:00:00,20.48891     ,85.84768     ,CO,29,52,32
India,Odisha,Keonjhar,"Jagamohanpur, Keonjhar - OSPCB",14-04-2024 08:00:00,21.643900,85.599355,PM2.5,65,174,102
India,Odisha,Nayagarh,"Dabuna, Nayagarh - OSPCB",14-04-2024 08:00:00,21.847279,85.416905,PM2.5,NA,NA,NA
India,Odisha,Nayagarh,"Dabuna, Nayagarh - OSPCB",14-04-2024 08:00:00,21.847279,85.416905,CO,8,38,35
India,Odisha,Rourkela,"Raghunathpali, Rourkela - OSPCB",14-04-2024 08:00:00,22.220833,84.809444,PM2.5,78,295,192
India,Odisha,Rourkela,"Sector-2, Rourkela - OSPCB",14-04-2024 08:00:00,22.24500000,84.88111111,CO,12,96,54
India,Odisha,Suakati,"OMC Colony, Suakati - OSPCB",14-04-2024 08:00:00,21.606865,85.510538,NH3,2,5,4
India,Odisha,Talcher,"Talcher Coalfields,Talcher - OSPCB",14-04-2024 08:00:00,20.9360711,85.1707021,PM2.5,77,349,193
India,Odisha,Talcher,"Talcher Coalfields,Talcher - OSPCB",14-04-2024 08:00:00,20.9360711,85.1707021,PM10,81,425,178
India,Odisha,Talcher,"Talcher Coalfields,Talcher - OSPCB",14-04-2024 08:00:00,20.9360711,85.1707021,OZONE,15,20,19
India,Puducherry,Puducherry,"Jawahar Nagar, Puducherry - PPCC",14-04-2024 08:00:00,11.9309,79.8027,CO,22,40,29
India,Puducherry,Puducherry,"Jawahar Nagar, Puducherry - PPCC",14-04-2024 08:00:00,11.9309,79.8027,OZONE,8,52,26
India,Punjab,Amritsar,"Golden Temple, Amritsar - PPCB",14-04-2024 08:00:00,31.620000,74.876512,NH3,4,5,5
India,Punjab,Bathinda,"Hardev Nagar, Bathinda - PPCB",14-04-2024 08:00:00,30.233011,74.907758,PM2.5,35,320,112
India,Punjab,Bathinda,"Hardev Nagar, Bathinda - PPCB",14-04-2024 08:00:00,30.233011,74.907758,NO2,26,32,29
India,Punjab,Bathinda,"Hardev Nagar, Bathinda - PPCB",14-04-2024 08:00:00,30.233011,74.907758,CO,1,143,18
India,Punjab,Jalandhar,"Civil Line, Jalandhar - PPCB",14-04-2024 08:00:00,31.321907,75.578914,NH3,5,5,5
India,Punjab,Jalandhar,"Civil Line, Jalandhar - PPCB",14-04-2024 08:00:00,31.321907,75.578914,SO2,8,12,10
India,Punjab,Jalandhar,"Civil Line, Jalandhar - PPCB",14-04-2024 08:00:00,31.321907,75.578914,CO,20,52,25
India,Punjab,Ludhiana,"Punjab Agricultural University, Ludhiana - PPCB",14-04-2024 08:00:00,30.9028,75.8086,PM2.5,67,314,144
India,Punjab,Ludhiana,"Punjab Agricultural University, Ludhiana - PPCB",14-04-2024 08:00:00,30.9028,75.8086,PM10,53,175,100
India,Punjab,Ludhiana,"Punjab Agricultural University, Ludhiana - PPCB",14-04-2024 08:00:00,30.9028,75.8086,NO2,19,19,19
India,Punjab,Ludhiana,"Punjab Agricultural University, Ludhiana - PPCB",14-04-2024 08:00:00,30.9028,75.8086,OZONE,13,30,15
India,Punjab,Mandi Gobindgarh,"RIMT University, Mandi Gobindgarh - PPCB",14-04-2024 08:00:00,30.649961,76.331442,SO2,3,35,11
India,Punjab,Mandi Gobindgarh,"RIMT University, Mandi Gobindgarh - PPCB",14-04-2024 08:00:00,30.649961,76.331442,CO,12,48,23
India,Punjab,Patiala,"Model Town, Patiala - PPCB",14-04-2024 08:00:00,30.349388,76.366642,PM2.5,41,138,79
India,Punjab,Patiala,"Model Town, Patiala - PPCB",14-04-2024 08:00:00,30.349388,76.366642,NO2,21,27,24
India,Punjab,Patiala,"Model Town, Patiala - PPCB",14-04-2024 08:00:00,30.349388,76.366642,NH3,6,7,6
India,Rajasthan,Ajmer,"Civil Lines,  Ajmer - RSPCB",14-04-2024 08:00:00,26.470859,74.646594,NH3,4,67,11
India,Rajasthan,Ajmer,"Civil Lines,  Ajmer - RSPCB",14-04-2024 08:00:00,26.470859,74.646594,CO,18,37,24
India,Rajasthan,Alwar,"Moti Doongri, Alwar - RSPCB",14-04-2024 08:00:00,27.554793,76.611536,PM10,64,131,95
India,Rajasthan,Alwar,"Moti Doongri, Alwar - RSPCB",14-04-2024 08:00:00,27.554793,76.611536,NO2,25,59,45
India,Rajasthan,Alwar,"Moti Doongri, Alwar - RSPCB",14-04-2024 08:00:00,27.554793,76.611536,NH3,4,9,6
India,Rajasthan,Alwar,"Moti Doongri, Alwar - RSPCB",14-04-2024 08:00:00,27.554793,76.611536,SO2,12,63,23
India,Rajasthan,Banswara,"Rati Talai, Banswara - RSPCB",14-04-2024 08:00:00,23.555190,74.440010,CO,12,44,18
India,Rajasthan,Baran,"Bamboliya, Baran - RSPCB",14-04-2024 08:00:00,25.106006,76.469948,PM10,22,134,52
India,Rajasthan,Baran,"Bamboliya, Baran - RSPCB",14-04-2024 08:00:00,25.106006,76.469948,NH3,2,4,3
India,Rajasthan,Baran,"Bamboliya, Baran - RSPCB",14-04-2024 08:00:00,25.106006,76.469948,SO2,4,11,7
India,Rajasthan,Baran,"Bamboliya, Baran - RSPCB",14-04-2024 08:00:00,25.106006,76.469948,OZONE,49,139,59
India,Rajasthan,Barmer,"Railway Colony, Barmer - RSPCB",14-04-2024 08:00:00,25.747299,71.393989,NH3,7,31,16
India,Rajasthan,Barmer,"Railway Colony, Barmer - RSPCB",14-04-2024 08:00:00,25.747299,71.393989,SO2,3,15,8
India,Rajasthan,Bhilwara,"Pratap Nagar, Bhilwara - RSPCB",14-04-2024 08:00:00,25.339605,74.618883,PM2.5,17,100,44
India,Rajasthan,Bhilwara,"Pratap Nagar, Bhilwara - RSPCB",14-04-2024 08:00:00,25.339605,74.618883,PM10,20,107,48
India,Rajasthan,Bhilwara,"Pratap Nagar, Bhilwara - RSPCB",14-04-2024 08:00:00,25.339605,74.618883,NH3,3,6,4
India,Rajasthan,Bhiwadi,"RIICO Ind. Area III, Bhiwadi - RSPCB",14-04-2024 08:00:00,28.194909,76.862296,PM10,NA,NA,NA
India,Rajasthan,Bhiwadi,"RIICO Ind. Area III, Bhiwadi - RSPCB",14-04-2024 08:00:00,28.194909,76.862296,SO2,NA,NA,NA
India,Rajasthan,Bhiwadi,"RIICO Ind. Area III, Bhiwadi - RSPCB",14-04-2024 08:00:00,28.194909,76.862296,CO,NA,NA,NA
India,Rajasthan,Bhiwadi,"Vasundhara Nagar_UIT, Bhiwadi - RSPCB",14-04-2024 08:00:00,28.207266,76.829265,PM2.5,27,75,45
India,Rajasthan,Bhiwadi,"Vasundhara Nagar_UIT, Bhiwadi - RSPCB",14-04-2024 08:00:00,28.207266,76.829265,PM10,37,201,74
India,Rajasthan,Bhiwadi,"Vasundhara Nagar_UIT, Bhiwadi - RSPCB",14-04-2024 08:00:00,28.207266,76.829265,CO,16,26,22
India,Rajasthan,Bikaner,"MM Ground, Bikaner - RSPCB",14-04-2024 08:00:00,28.018792,73.292658,NO2,28,60,38
India,Rajasthan,Chittorgarh,"Shastri Nagar, Chittorgarh - RSPCB",14-04-2024 08:00:00,24.892047,74.623527,NH3,11,14,13
India,Rajasthan,Churu,"Subash Chowk, Churu - RSPCB",14-04-2024 08:00:00,28.296139,74.961696,PM2.5,38,130,72
India,Rajasthan,Churu,"Subash Chowk, Churu - RSPCB",14-04-2024 08:00:00,28.296139,74.961696,SO2,7,19,11
India,Rajasthan,Dholpur,"Raja Ganj, Dholpur - RSPCB",14-04-2024 08:00:00,26.699557,77.898881,NH3,10,13,11
India,Rajasthan,Dholpur,"Raja Ganj, Dholpur - RSPCB",14-04-2024 08:00:00,26.699557,77.898881,CO,11,30,18
India,Rajasthan,Dholpur,"Raja Ganj, Dholpur - RSPCB",14-04-2024 08:00:00,26.699557,77.898881,OZONE,14,32,16
India,Rajasthan,Dungarpur,"Bhoiwada, Dungarpur - RSPCB",14-04-2024 08:00:00,23.837789,73.714926,PM2.5,43,95,67
India,Rajasthan,Hanumangarh,"Housing Board, Hanumangarh - RSPCB",14-04-2024 08:00:00,29.610750,74.283608,NH3,11,20,14
India,Rajasthan,Jaipur,"Adarsh Nagar, Jaipur - RSPCB",14-04-2024 08:00:00,26.902909,75.836858,NO2,20,48,32
India,Rajasthan,Jaipur,"Mansarovar Sector-12, Jaipur - RSPCB",14-04-2024 08:00:00,26.843698,75.766894,NH3,2,5,3
India,Rajasthan,Jaipur,"Mansarovar Sector-12, Jaipur - RSPCB",14-04-2024 08:00:00,26.843698,75.766894,SO2,2,10,6
India,Rajasthan,Jaipur,"Police Commissionerate, Jaipur - RSPCB",14-04-2024 08:00:00,26.9164092,75.7994901,PM2.5,46,100,72
India,Rajasthan,Jaipur,"Police Commissionerate, Jaipur - RSPCB",14-04-2024 08:00:00,26.9164092,75.7994901,NO2,16,42,26
India,Rajasthan,Jaipur,"RIICO Sitapura, Jaipur - RSPCB",14-04-2024 08:00:00,26.786682,75.827928,PM2.5,41,86,66
India,Rajasthan,Jaipur,"RIICO Sitapura, Jaipur - RSPCB",14-04-2024 08:00:00,26.786682,75.827928,SO2,12,32,15
India,Rajasthan,Jaipur,"RIICO Sitapura, Jaipur - RSPCB",14-04-2024 08:00:00,26.786682,75.827928,OZONE,32,93,45
India,Rajasthan,Jaipur,"Sector-2 Murlipura, Jaipur - RSPCB",14-04-2024 08:00:00,26.960669,75.771817,CO,14,66,22
India,Rajasthan,Jaipur,"Shastri Nagar, Jaipur - RSPCB",14-04-2024 08:00:00,26.9502929,75.730943,CO,4,68,23
India,Rajasthan,Jaisalmer,"Sadar Bazar, Jaisalmer - RSPCB",14-04-2024 08:00:00,26.912329,70.909168,PM10,30,500,177
India,Rajasthan,Jaisalmer,"Sadar Bazar, Jaisalmer - RSPCB",14-04-2024 08:00:00,26.912329,70.909168,NH3,8,21,11
India,Rajasthan,Jalore,"Mudtra Sili, Jalore - RSPCB",14-04-2024 08:00:00,25.344694,72.626208,NO2,4,23,14
India,Rajasthan,Jalore,"Mudtra Sili, Jalore - RSPCB",14-04-2024 08:00:00,25.344694,72.626208,CO,10,24,12
India,Rajasthan,Jalore,"Mudtra Sili, Jalore - RSPCB",14-04-2024 08:00:00,25.344694,72.626208,OZONE,38,98,55
India,Rajasthan,Jhunjhunu,"Indra Nagar, Jhunjhunu - RSPCB",14-04-2024 08:00:00,28.108988,75.386577,PM2.5,33,187,80
India,Rajasthan,Jhunjhunu,"Indra Nagar, Jhunjhunu - RSPCB",14-04-2024 08:00:00,28.108988,75.386577,SO2,3,10,6
India,Rajasthan,Jodhpur,"Collectorate, Jodhpur - RSPCB",14-04-2024 08:00:00,26.268249,73.0193853,PM10,47,491,186
India,Rajasthan,Jodhpur,"Digari Kalan, Jodhpur - RSPCB",14-04-2024 08:00:00,26.295810,73.082283,PM10,24,425,131
India,Rajasthan,Jodhpur,"Digari Kalan, Jodhpur - RSPCB",14-04-2024 08:00:00,26.295810,73.082283,SO2,5,10,7
India,Rajasthan,Jodhpur,"Digari Kalan, Jodhpur - RSPCB",14-04-2024 08:00:00,26.295810,73.082283,CO,14,30,16
India,Rajasthan,Jodhpur,"Jhalamand, Jodhpur - RSPCB",14-04-2024 08:00:00,26.215415,73.070156,NO2,4,28,10
India,Rajasthan,Jodhpur,"Samrat Ashok Udhyan, Jodhpur - RSPCB",14-04-2024 08:00:00,26.253384,72.976571,PM2.5,18,304,67
India,Rajasthan,Jodhpur,"Samrat Ashok Udhyan, Jodhpur - RSPCB",14-04-2024 08:00:00,26.253384,72.976571,NO2,5,28,15
India,Rajasthan,Jodhpur,"Samrat Ashok Udhyan, Jodhpur - RSPCB",14-04-2024 08:00:00,26.253384,72.976571,NH3,5,22,9
India,Rajasthan,Jodhpur,"Samrat Ashok Udhyan, Jodhpur - RSPCB",14-04-2024 08:00:00,26.253384,72.976571,OZONE,18,88,27
India,Rajasthan,Karauli,"Satyawati Vihar, Karauli - RSPCB",14-04-2024 08:00:00,26.506177,77.025989,PM2.5,17,120,49
India,Rajasthan,Karauli,"Satyawati Vihar, Karauli - RSPCB",14-04-2024 08:00:00,26.506177,77.025989,PM10,64,220,100
India,Rajasthan,Kota,"Dhanmandi, Kota - RSPCB",14-04-2024 08:00:00,25.164090,75.858137,PM2.5,22,262,65
India,Rajasthan,Kota,"Dhanmandi, Kota - RSPCB",14-04-2024 08:00:00,25.164090,75.858137,NH3,4,6,5
India,Rajasthan,Kota,"Dhanmandi, Kota - RSPCB",14-04-2024 08:00:00,25.164090,75.858137,SO2,11,59,18
India,Rajasthan,Kota,"Nayapura, Kota - RSPCB",14-04-2024 08:00:00,25.196024,75.855668,CO,16,112,22
India,Rajasthan,Kota,"Shrinath Puram, Kota - RSPCB",14-04-2024 08:00:00,25.14389,75.821256,NO2,20,102,33
India,Rajasthan,Nagaur,"Karni Colony, Nagaur - RSPCB",14-04-2024 08:00:00,27.213494,73.734444,PM10,32,415,112
India,Rajasthan,Nagaur,"Karni Colony, Nagaur - RSPCB",14-04-2024 08:00:00,27.213494,73.734444,SO2,2,11,6
India,Rajasthan,Pali,"Indira Colony Vistar, Pali - RSPCB",14-04-2024 08:00:00,25.771061, 73.340227,CO,32,92,55
India,Rajasthan,Pali,"Indira Colony Vistar, Pali - RSPCB",14-04-2024 08:00:00,25.771061, 73.340227,OZONE,37,107,59
India,Rajasthan,Pratapgarh,"Pragati Nagar, Pratapgarh - RSPCB",14-04-2024 08:00:00,24.041198,74.780702,NH3,5,8,7
India,Rajasthan,Rajsamand,"Dhoinda, Rajsamand - RSPCB",14-04-2024 08:00:00,25.036360,73.883502,PM10,22,87,52
India,Rajasthan,Rajsamand,"Dhoinda, Rajsamand - RSPCB",14-04-2024 08:00:00,25.036360,73.883502,NO2,4,20,12
India,Rajasthan,Rajsamand,"Dhoinda, Rajsamand - RSPCB",14-04-2024 08:00:00,25.036360,73.883502,NH3,1,2,2
India,Rajasthan,Sawai Madhopur,"Sahu Nagar, Sawai Madhopur - RSPCB",14-04-2024 08:00:00,26.031443,76.359327,NH3,3,15,10
India,Rajasthan,Sikar,"Radhakishan Pura, Sikar - RSPCB",14-04-2024 08:00:00,27.608912,75.153302,PM2.5,37,134,61
India,Rajasthan,Sirohi,"Vedhaynath Colony, Sirohi - RSPCB",14-04-2024 08:00:00,24.885261,72.857549,SO2,NA,NA,NA
India,Rajasthan,Sri Ganganagar,"Old City, Sri Ganganagar - RSPCB",14-04-2024 08:00:00,29.931624,73.864511,OZONE,7,315,12
India,Rajasthan,Tonk,"Shastri Nagar, Tonk - RSPCB",14-04-2024 08:00:00,26.159933,75.780517,PM2.5,35,82,57
India,Rajasthan,Tonk,"Shastri Nagar, Tonk - RSPCB",14-04-2024 08:00:00,26.159933,75.780517,PM10,71,180,108
India,Sikkim,Gangtok,"Zero Point GICI, Gangtok - SSPCB",14-04-2024 08:00:00,27.338530,88.614099,SO2,10,12,11
India,TamilNadu,Chennai,"Alandur Bus Depot, Chennai - CPCB",14-04-2024 08:00:00,12.9099161,80.1076538,SO2,2,14,4
India,TamilNadu,Chennai,"Manali, Chennai - CPCB",14-04-2024 08:00:00,13.164544,80.26285,PM2.5,48,95,67
India,TamilNadu,Chennai,"Manali, Chennai - CPCB",14-04-2024 08:00:00,13.164544,80.26285,CO,76,106,91
India,TamilNadu,Chennai,"Velachery Res. Area, Chennai - CPCB",14-04-2024 08:00:00,13.0052189,80.2398125,PM2.5,32,55,45
India,TamilNadu,Chennai,"Velachery Res. Area, Chennai - CPCB",14-04-2024 08:00:00,13.0052189,80.2398125,SO2,10,11,11
India,TamilNadu,Cuddalore,"Kudikadu, Cuddalore - TNPCB",14-04-2024 08:00:00,11.6829898,79.7532099,PM2.5,NA,NA,NA
India,TamilNadu,Cuddalore,"Kudikadu, Cuddalore - TNPCB",14-04-2024 08:00:00,11.6829898,79.7532099,PM10,NA,NA,NA
India,TamilNadu,Cuddalore,"Semmandalam, Cuddalore - TNPCB",14-04-2024 08:00:00,11.7637683,79.7499835,PM2.5,NA,NA,NA
India,TamilNadu,Ooty,"Bombay Castel, Ooty - TNPCB",14-04-2024 08:00:00,11.4068288,76.7138973,PM2.5,NA,NA,NA
India,TamilNadu,Ramanathapuram,"Chalai Bazaar, Ramanathapuram - TNPCB",14-04-2024 08:00:00,9.36399,78.831977,SO2,7,9,8
India,TamilNadu,Thoothukudi,"Meelavittan, Thoothukudi - TNPCB",14-04-2024 08:00:00,8.816428 ,78.099039,OZONE,4,248,86
India,TamilNadu,Tirupur,"Kumaran College, Tirupur - TNPCB",14-04-2024 08:00:00,11.0973603,77.3228673,NH3,NA,NA,NA
India,Telangana,Hyderabad,"Bollaram Industrial Area, Hyderabad - TSPCB",14-04-2024 08:00:00,17.540891,78.358528,PM10,45,90,65
India,Telangana,Hyderabad,"Bollaram Industrial Area, Hyderabad - TSPCB",14-04-2024 08:00:00,17.540891,78.358528,CO,4,109,23
India,Telangana,Hyderabad,"Bollaram Industrial Area, Hyderabad - TSPCB",14-04-2024 08:00:00,17.540891,78.358528,OZONE,30,38,35
India,Telangana,Hyderabad,"Central University, Hyderabad - TSPCB",14-04-2024 08:00:00,17.460103,78.334361,PM2.5,15,43,30
India,Telangana,Hyderabad,"ICRISAT Patancheru, Hyderabad - TSPCB",14-04-2024 08:00:00,17.518400,78.278777,OZONE,26,74,33
India,Telangana,Hyderabad,"Kokapet, Hyderabad - TSPCB",14-04-2024 08:00:00,17.393559,78.339194,NO2,8,9,8
India,Telangana,Hyderabad,"Kompally Municipal Office, Hyderabad - TSPCB",14-04-2024 08:00:00,17.544899,78.486949,PM10,40,54,47
India,Telangana,Hyderabad,"Kompally Municipal Office, Hyderabad - TSPCB",14-04-2024 08:00:00,17.544899,78.486949,NO2,9,9,9
India,Telangana,Hyderabad,"Nacharam_TSIIC IALA, Hyderabad - TSPCB",14-04-2024 08:00:00,17.429398,78.569354,PM2.5,NA,NA,NA
India,Telangana,Hyderabad,"Ramachandrapuram, Hyderabad - TSPCB",14-04-2024 08:00:00,17.528544,78.286195,PM2.5,38,39,38
India,Telangana,Hyderabad,"Somajiguda, Hyderabad - TSPCB",14-04-2024 08:00:00,17.417094,78.457437,PM10,67,80,73
India,Telangana,Hyderabad,"Somajiguda, Hyderabad - TSPCB",14-04-2024 08:00:00,17.417094,78.457437,NH3,NA,NA,NA
India,Telangana,Hyderabad,"Somajiguda, Hyderabad - TSPCB",14-04-2024 08:00:00,17.417094,78.457437,SO2,15,18,17
India,Telangana,Hyderabad,"Zoo Park, Hyderabad - TSPCB",14-04-2024 08:00:00,17.349694,78.451437,SO2,1,8,4
India,Tripura,Agartala,"Bardowali, Agartala - Tripura SPCB",14-04-2024 08:00:00,23.8175497,91.2726974,NH3,2,3,3
India,Uttar_Pradesh,Agra,"Manoharpur, Agra - UPPCB",14-04-2024 08:00:00,27.23711,78.01936,SO2,12,16,14
India,Uttar_Pradesh,Agra,"Manoharpur, Agra - UPPCB",14-04-2024 08:00:00,27.23711,78.01936,CO,8,16,13
India,Uttar_Pradesh,Agra,"Rohta, Agra - UPPCB",14-04-2024 08:00:00,27.106972,78.000111,NH3,1,1,1
India,Uttar_Pradesh,Agra,"Sector-3B Avas Vikas Colony, Agra - UPPCB",14-04-2024 08:00:00,27.19412,77.96237,PM2.5,12,36,24
India,Uttar_Pradesh,Agra,"Sector-3B Avas Vikas Colony, Agra - UPPCB",14-04-2024 08:00:00,27.19412,77.96237,NO2,49,51,51
India,Uttar_Pradesh,Agra,"Sector-3B Avas Vikas Colony, Agra - UPPCB",14-04-2024 08:00:00,27.19412,77.96237,SO2,9,13,10
India,Uttar_Pradesh,Agra,"Shastripuram, Agra - UPPCB",14-04-2024 08:00:00,27.19862,77.92066,OZONE,1,12,3
India,Uttar_Pradesh,Bareilly,"Civil Lines, Bareilly - UPPCB",14-04-2024 08:00:00,28.359581,79.414455,PM2.5,4,15,9
India,Uttar_Pradesh,Bareilly,"Civil Lines, Bareilly - UPPCB",14-04-2024 08:00:00,28.359581,79.414455,PM10,51,172,104
India,Uttar_Pradesh,Bareilly,"Rajendra Nagar, Bareilly - UPPCB",14-04-2024 08:00:00,28.38910936,79.42963708,NH3,1,1,1
India,Uttar_Pradesh,Bulandshahr,"Yamunapuram, Bulandshahr - UPPCB",14-04-2024 08:00:00,28.406963,77.849831,PM2.5,34,176,61
India,Uttar_Pradesh,Bulandshahr,"Yamunapuram, Bulandshahr - UPPCB",14-04-2024 08:00:00,28.406963,77.849831,NO2,7,58,24
India,Uttar_Pradesh,Firozabad,"Nagla Bhau, Firozabad - UPPCB",14-04-2024 08:00:00,27.168897,78.376960,PM2.5,14,112,43
India,Uttar_Pradesh,Firozabad,"Vibhab Nagar, Firozabad - UPPCB",14-04-2024 08:00:00,27.1594,78.3953,NO2,13,14,14
India,Uttar_Pradesh,Ghaziabad,"Loni, Ghaziabad - UPPCB",14-04-2024 08:00:00,28.757294,77.278792,PM10,64,423,139
India,Uttar_Pradesh,Ghaziabad,"Loni, Ghaziabad - UPPCB",14-04-2024 08:00:00,28.757294,77.278792,CO,8,81,28
India,Uttar_Pradesh,Ghaziabad,"Loni, Ghaziabad - UPPCB",14-04-2024 08:00:00,28.757294,77.278792,OZONE,2,89,22
India,Uttar_Pradesh,Ghaziabad,"Sanjay Nagar, Ghaziabad - UPPCB",14-04-2024 08:00:00,28.685382,77.453839,PM10,84,439,152
India,Uttar_Pradesh,Ghaziabad,"Vasundhara, Ghaziabad - UPPCB",14-04-2024 08:00:00,28.6603346,77.3572563,SO2,2,94,30
India,Uttar_Pradesh,Gorakhpur,"Madan Mohan Malaviya University of Technology, Gorakhpur - UPPCB",14-04-2024 08:00:00,26.730136,83.433859,PM2.5,52,306,168
India,Uttar_Pradesh,Gorakhpur,"Madan Mohan Malaviya University of Technology, Gorakhpur - UPPCB",14-04-2024 08:00:00,26.730136,83.433859,NO2,2,3,2
India,Uttar_Pradesh,Greater Noida,"Knowledge Park - III, Greater Noida - UPPCB",14-04-2024 08:00:00,28.47272,77.482000,NO2,19,93,44
India,Uttar_Pradesh,Greater Noida,"Knowledge Park - V, Greater Noida - UPPCB",14-04-2024 08:00:00,28.557054,77.453663,PM2.5,42,332,119
India,Uttar_Pradesh,Hapur,"Anand Vihar, Hapur - UPPCB",14-04-2024 08:00:00,28.725645,77.749675,PM2.5,32,302,73
India,Uttar_Pradesh,Hapur,"Anand Vihar, Hapur - UPPCB",14-04-2024 08:00:00,28.725645,77.749675,NO2,5,59,13
India,Uttar_Pradesh,Jhansi,"Shivaji Nagar, Jhansi - UPPCB",14-04-2024 08:00:00,25.4547,78.6039,PM2.5,13,47,27
India,Uttar_Pradesh,Jhansi,"Shivaji Nagar, Jhansi - UPPCB",14-04-2024 08:00:00,25.4547,78.6039,CO,10,16,11
India,Uttar_Pradesh,Kanpur,"FTI Kidwai Nagar, Kanpur - UPPCB",14-04-2024 08:00:00,26.428282,80.327067,SO2,26,27,26
India,Uttar_Pradesh,Kanpur,"NSI Kalyanpur, Kanpur - UPPCB",14-04-2024 08:00:00,26.509954,80.249612,PM10,55,179,92
India,Uttar_Pradesh,Kanpur,"NSI Kalyanpur, Kanpur - UPPCB",14-04-2024 08:00:00,26.509954,80.249612,NH3,1,3,2
India,Uttar_Pradesh,Kanpur,"NSI Kalyanpur, Kanpur - UPPCB",14-04-2024 08:00:00,26.509954,80.249612,OZONE,24,73,63
India,Uttar_Pradesh,Kanpur,"Nehru Nagar, Kanpur - UPPCB",14-04-2024 08:00:00,26.4703136,80.3229863,PM2.5,29,294,73
India,Uttar_Pradesh,Khurja,"Kalindi Kunj, Khurja - UPPCB",14-04-2024 08:00:00,28.2348927,77.8683002,PM10,37,116,65
India,Uttar_Pradesh,Lucknow,"B R Ambedkar University, Lucknow - UPPCB",14-04-2024 08:00:00,26.766433,80.927299,NH3,5,6,5
India,Uttar_Pradesh,Lucknow,"Gomti Nagar, Lucknow - UPPCB",14-04-2024 08:00:00,26.868120,81.005119,PM10,55,146,92
India,Uttar_Pradesh,Lucknow,"Gomti Nagar, Lucknow - UPPCB",14-04-2024 08:00:00,26.868120,81.005119,NO2,9,11,10
India,Uttar_Pradesh,Lucknow,"Kendriya Vidyalaya, Lucknow - CPCB",14-04-2024 08:00:00,26.906111,80.948222,SO2,4,7,6
India,Uttar_Pradesh,Lucknow,"Kukrail Picnic Spot-1, Lucknow - UPPCB",14-04-2024 08:00:00,26.90723,80.98579,CO,16,36,30
India,Uttar_Pradesh,Lucknow,"Lalbagh, Lucknow - CPCB",14-04-2024 08:00:00,26.8458805,80.9365541,PM10,97,170,128
India,Uttar_Pradesh,Lucknow,"Talkatora District Industries Center, Lucknow - CPCB",14-04-2024 08:00:00,26.83399722,80.8917361,PM2.5,40,115,68
India,Uttar_Pradesh,Meerut,"Jai Bhim Nagar, Meerut - UPPCB",14-04-2024 08:00:00,28.9535882,77.7622941,NH3,8,16,11
India,Uttar_Pradesh,Meerut,"Jai Bhim Nagar, Meerut - UPPCB",14-04-2024 08:00:00,28.9535882,77.7622941,OZONE,36,146,56
India,Uttar_Pradesh,Meerut,"Pallavpuram Phase 2, Meerut - UPPCB",14-04-2024 08:00:00,29.063510,77.709723,SO2,16,37,25
India,Uttar_Pradesh,Moradabad,"Buddhi Vihar, Moradabad - UPPCB",14-04-2024 08:00:00,28.83526,78.74460,NH3,2,2,2
India,Uttar_Pradesh,Moradabad,"Eco Herbal Park, Moradabad - UPPCB",14-04-2024 08:00:00,28.840739,78.697531,OZONE,13,175,53
India,Uttar_Pradesh,Moradabad,"Employment Office, Moradabad - UPPCB",14-04-2024 08:00:00,28.88528,78.73880,NH3,4,4,4
India,Uttar_Pradesh,Moradabad,"Jigar Colony, Moradabad - UPPCB",14-04-2024 08:00:00,28.856664,78.772638,OZONE,19,32,21
India,Uttar_Pradesh,Moradabad,"Kashiram Nagar, Moradabad - UPPCB",14-04-2024 08:00:00,28.849399,78.742362,SO2,35,41,38
India,Uttar_Pradesh,Moradabad,"Kashiram Nagar, Moradabad - UPPCB",14-04-2024 08:00:00,28.849399,78.742362,CO,24,81,30
India,Uttar_Pradesh,Moradabad,"Transport Nagar, Moradabad - UPPCB",14-04-2024 08:00:00,28.802625,78.753728,SO2,NA,NA,NA
India,Uttar_Pradesh,Noida,"Sector - 62, Noida - IMD",14-04-2024 08:00:00,28.6245479,77.3577104,CO,57,76,63
India,Uttar_Pradesh,Noida,"Sector-1, Noida - UPPCB",14-04-2024 08:00:00,28.5898,77.3101,SO2,7,34,18
India,Uttar_Pradesh,Noida,"Sector-116, Noida - UPPCB",14-04-2024 08:00:00,28.569230,77.393848,OZONE,6,89,66
India,Uttar_Pradesh,Prayagraj,"Jhunsi, Prayagraj - UPPCB",14-04-2024 08:00:00,25.425602,81.917152,NH3,5,5,5
India,Uttar_Pradesh,Prayagraj,"Motilal Nehru NIT, Prayagraj - UPPCB",14-04-2024 08:00:00,25.494,81.863,NO2,12,12,12
India,Uttar_Pradesh,Prayagraj,"Nagar Nigam, Prayagraj - UPPCB",14-04-2024 08:00:00,25.44919916 ,81.82735986 ,NO2,5,5,5
India,Uttar_Pradesh,Prayagraj,"Nagar Nigam, Prayagraj - UPPCB",14-04-2024 08:00:00,25.44919916 ,81.82735986 ,CO,8,101,26
India,Uttar_Pradesh,Varanasi,"Bhelupur, Varanasi - UPPCB",14-04-2024 08:00:00,25.301778,82.996789,NO2,7,8,8
India,Uttar_Pradesh,Varanasi,"Bhelupur, Varanasi - UPPCB",14-04-2024 08:00:00,25.301778,82.996789,NH3,1,2,2
India,Uttar_Pradesh,Varanasi,"IESD Banaras Hindu University, Varanasi - UPPCB",14-04-2024 08:00:00,25.262326,82.995408,SO2,15,16,16
India,Uttar_Pradesh,Varanasi,"Maldahiya, Varanasi - UPPCB",14-04-2024 08:00:00,25.32393,82.99687,SO2,25,25,25
India,Uttar_Pradesh,Vrindavan,"Omex Eternity, Vrindavan - UPPCB",14-04-2024 08:00:00,27.5714090,77.6557570,PM2.5,16,72,36
India,Uttar_Pradesh,Vrindavan,"Omex Eternity, Vrindavan - UPPCB",14-04-2024 08:00:00,27.5714090,77.6557570,NH3,1,3,2
India,Uttarakhand,Dehradun,"Doon University, Dehradun - UKPCB",14-04-2024 08:00:00,30.269444,78.044167,PM2.5,48,189,85
India,Uttarakhand,Dehradun,"Doon University, Dehradun - UKPCB",14-04-2024 08:00:00,30.269444,78.044167,CO,34,66,58
India,Uttarakhand,Kashipur,"Govt. Girls Inter College, Kashipur - UKPCB",14-04-2024 08:00:00,29.2124114,78.9611753,CO,20,92,32
India,West_Bengal,Asansol,"Asansol Court Area, Asansol - WBPCB",14-04-2024 08:00:00,23.685297,86.945968,PM10,96,194,138
India,West_Bengal,Asansol,"Asansol Court Area, Asansol - WBPCB",14-04-2024 08:00:00,23.685297,86.945968,SO2,9,26,16
India,West_Bengal,Barrackpore,"SVSPA Campus, Barrackpore - WBPCB",14-04-2024 08:00:00,22.7605581,88.3617589,PM10,112,176,139
India,West_Bengal,Barrackpore,"SVSPA Campus, Barrackpore - WBPCB",14-04-2024 08:00:00,22.7605581,88.3617589,NO2,10,33,20
India,West_Bengal,Barrackpore,"SVSPA Campus, Barrackpore - WBPCB",14-04-2024 08:00:00,22.7605581,88.3617589,OZONE,17,115,19
India,West_Bengal,Durgapur,"Sidhu Kanhu Indoor Stadium, Durgapur - WBPCB",14-04-2024 08:00:00,23.5404352,87.2892225,CO,36,101,69
India,West_Bengal,Howrah,"Ghusuri, Howrah - WBPCB",14-04-2024 08:00:00,22.611968,88.347422,PM2.5,124,238,162
India,West_Bengal,Howrah,"Ghusuri, Howrah - WBPCB",14-04-2024 08:00:00,22.611968,88.347422,NH3,2,3,3
India,West_Bengal,Howrah,"Padmapukur, Howrah - WBPCB",14-04-2024 08:00:00,22.5687319,88.2797276,OZONE,25,97,32
India,West_Bengal,Kolkata,"Ballygunge, Kolkata - WBPCB",14-04-2024 08:00:00,22.5367507,88.3638022,PM2.5,71,101,86
India,West_Bengal,Kolkata,"Ballygunge, Kolkata - WBPCB",14-04-2024 08:00:00,22.5367507,88.3638022,NO2,16,88,37
India,West_Bengal,Kolkata,"Ballygunge, Kolkata - WBPCB",14-04-2024 08:00:00,22.5367507,88.3638022,SO2,11,46,23
India,West_Bengal,Kolkata,"Jadavpur, Kolkata - WBPCB",14-04-2024 08:00:00,22.49929,88.36917,CO,18,50,41
India,West_Bengal,Kolkata,"Rabindra Bharati University, Kolkata - WBPCB",14-04-2024 08:00:00,22.627847,88.380669,NH3,16,18,17
India,West_Bengal,Kolkata,"Rabindra Sarobar, Kolkata - WBPCB",14-04-2024 08:00:00,22.51106,88.35142,PM10,72,104,91
India,West_Bengal,Kolkata,"Victoria, Kolkata - WBPCB",14-04-2024 08:00:00,22.5448082,88.3403691,SO2,16,45,24
India,West_Bengal,Siliguri,"Ward-32 Bapupara, Siliguri - WBPCB",14-04-2024 08:00:00,26.6879226,88.4152495,OZONE,12,61,19
India,Andhra_Pradesh,Chittoor,"Gangineni Cheruvu, Chittoor - APPCB",14-04-2024 08:00:00,13.204880,79.097889,CO,2,14,7
India,Andhra_Pradesh,Chittoor,"Gangineni Cheruvu, Chittoor - APPCB",14-04-2024 08:00:00,13.204880,79.097889,OZONE,54,98,90
India,Andhra_Pradesh,Tirupati,"Tirumala, Tirupati - APPCB",14-04-2024 08:00:00,13.67,79.35,PM10,38,92,66
India,Andhra_Pradesh,Tirupati,"Tirumala, Tirupati - APPCB",14-04-2024 08:00:00,13.67,79.35,NO2,20,36,28
India,Andhra_Pradesh,Vijayawada,"HB Colony, Vijayawada - APPCB",14-04-2024 08:00:00,16.536107,80.594233,NH3,4,4,4
India,Andhra_Pradesh,Vijayawada,"Rajiv Gandhi Park, Vijayawada - APPCB",14-04-2024 08:00:00,16.509717,80.612222,NH3,1,7,6
India,Andhra_Pradesh,Vijayawada,"Rajiv Gandhi Park, Vijayawada - APPCB",14-04-2024 08:00:00,16.509717,80.612222,OZONE,5,72,16
India,Andhra_Pradesh,Visakhapatnam,"GVM Corporation, Visakhapatnam - APPCB",14-04-2024 08:00:00,17.72,83.3,PM10,73,186,107
India,Arunachal_Pradesh,Naharlagun,"Naharlagun, Naharlagun - APSPCB",14-04-2024 08:00:00,27.103358,93.679645,PM2.5,52,168,85
India,Arunachal_Pradesh,Naharlagun,"Naharlagun, Naharlagun - APSPCB",14-04-2024 08:00:00,27.103358,93.679645,PM10,53,119,81
India,Arunachal_Pradesh,Naharlagun,"Naharlagun, Naharlagun - APSPCB",14-04-2024 08:00:00,27.103358,93.679645,NO2,3,3,3
India,Assam,Byrnihat,"Central Academy for SFS, Byrnihat - PCBA",14-04-2024 08:00:00,26.071318,91.87488,NH3,4,9,7
India,Assam,Guwahati,"LGBI Airport, Guwahati - PCBA",14-04-2024 08:00:00,26.10887,91.589544,OZONE,2,23,6
India,Assam,Guwahati,"Pan Bazaar, Guwahati - PCBA",14-04-2024 08:00:00,26.187500,91.744194,SO2,34,60,45
India,Assam,Guwahati,"Pan Bazaar, Guwahati - PCBA",14-04-2024 08:00:00,26.187500,91.744194,OZONE,17,18,17
India,Assam,Nagaon,"Christianpatty, Nagaon - PCBA",14-04-2024 08:00:00,26.349082,92.68449,NO2,3,57,20
India,Assam,Silchar,"Tarapur, Silchar - PCBA",14-04-2024 08:00:00,24.82827,92.79525,PM2.5,32,47,42
India,Assam,Silchar,"Tarapur, Silchar - PCBA",14-04-2024 08:00:00,24.82827,92.79525,NH3,1,1,1
India,Assam,Silchar,"Tarapur, Silchar - PCBA",14-04-2024 08:00:00,24.82827,92.79525,CO,24,30,29
India,Assam,Sivasagar,"Girls College, Sivasagar - PCBA",14-04-2024 08:00:00,26.987634,94.636574,NO2,14,25,19
India,Bihar,Araria,"Kharahiya Basti, Araria - BSPCB",14-04-2024 08:00:00,26.146529,87.454184,NO2,6,8,7
India,Bihar,Araria,"Kharahiya Basti, Araria - BSPCB",14-04-2024 08:00:00,26.146529,87.454184,CO,24,34,27
India,Bihar,Araria,"Kharahiya Basti, Araria - BSPCB",14-04-2024 08:00:00,26.146529,87.454184,OZONE,9,11,9
India,Bihar,Arrah,"New DM Office, Arrah - BSPCB",14-04-2024 08:00:00,25.5626095,84.663264,NH3,4,9,6
India,Bihar,Aurangabad,"Gurdeo Nagar, Aurangabad - BSPCB",14-04-2024 08:00:00,24.75746,84.366208,NH3,3,8,6
India,Bihar,Bettiah,"Kamalnath Nagar, Bettiah - BSPCB",14-04-2024 08:00:00,26.80365,84.51954,OZONE,NA,NA,NA
India,Bihar,Bhagalpur,"DM Office_Kachari Chowk, Bhagalpur - BSPCB",14-04-2024 08:00:00,25.251013,86.989001,OZONE,45,63,48
India,Bihar,Bihar Sharif,"D M Colony, Bihar Sharif - BSPCB",14-04-2024 08:00:00,25.204762,85.514960,PM10,42,292,112
India,Bihar,Buxar,"Charitra Van, Buxar - BSPCB (Formerly known as Central Jail)",14-04-2024 08:00:00,25.567520,83.966379,CO,18,142,54
India,Bihar,Buxar,"Charitra Van, Buxar - BSPCB (Formerly known as Central Jail)",14-04-2024 08:00:00,25.567520,83.966379,OZONE,1,21,14
India,Bihar,Gaya,"Collectorate, Gaya - BSPCB",14-04-2024 08:00:00,24.7955,84.9994,NO2,1,4,2
India,Bihar,Gaya,"Collectorate, Gaya - BSPCB",14-04-2024 08:00:00,24.7955,84.9994,CO,85,151,151
India,Bihar,Gaya,"SFTI Kusdihra, Gaya - BSPCB",14-04-2024 08:00:00,24.762518,84.982348,PM10,35,92,66
India,Bihar,Katihar,"Mirchaibari, Katihar - BSPCB",14-04-2024 08:00:00,25.560083,87.553265,PM10,68,215,118
India,Bihar,Katihar,"Mirchaibari, Katihar - BSPCB",14-04-2024 08:00:00,25.560083,87.553265,NH3,5,9,7
India,Bihar,Kishanganj,"SDM Office_Khagra, Kishanganj - BSPCB",14-04-2024 08:00:00,26.0881305,87.93840336,PM10,115,435,200
India,Bihar,Kishanganj,"SDM Office_Khagra, Kishanganj - BSPCB",14-04-2024 08:00:00,26.0881305,87.93840336,OZONE,13,36,14
India,Bihar,Manguraha,"Forest Rest House, Manguraha - BSPCB",14-04-2024 08:00:00,27.308328,84.531742,NO2,18,21,19
India,Bihar,Munger,"Town Hall, Munger - BSPCB",14-04-2024 08:00:00,25.376776,86.471523,SO2,NA,NA,NA
India,Bihar,Muzaffarpur,"Buddha Colony, Muzaffarpur - BSPCB",14-04-2024 08:00:00,26.11442,85.39813,PM10,140,241,190
India,Bihar,Muzaffarpur,"MIT-Daudpur Kothi, Muzaffarpur - BSPCB",14-04-2024 08:00:00,26.1403345,85.3650192,PM10,NA,NA,NA
India,Bihar,Muzaffarpur,"Muzaffarpur Collectorate, Muzaffarpur - BSPCB",14-04-2024 08:00:00,26.1209,85.3647,CO,42,102,42
India,Bihar,Patna,"Govt. High School Shikarpur, Patna - BSPCB",14-04-2024 08:00:00,25.592539,85.227158,PM10,141,197,161
India,Bihar,Patna,"IGSC Planetarium Complex, Patna - BSPCB",14-04-2024 08:00:00,25.610369,85.132568,OZONE,22,97,60
India,Bihar,Patna,"Muradpur, Patna - BSPCB",14-04-2024 08:00:00,25.619651,85.147382,PM2.5,306,368,328
India,Bihar,Purnia,"Mariam Nagar, Purnia - BSPCB",14-04-2024 08:00:00,25.366336,87.117468,SO2,5,11,8
India,Bihar,Rajgir,"Dangi Tola, Rajgir - BSPCB",14-04-2024 08:00:00,25.03280,85.41948,PM2.5,15,78,45
India,Bihar,Saharsa,"Police Line, Saharsa - BSPCB",14-04-2024 08:00:00,25.892357,86.590325,SO2,16,17,16
India,Bihar,Samastipur,"DM Office_Kasipur, Samastipur - BSPCB",14-04-2024 08:00:00,25.859655,85.77944,PM2.5,NA,NA,NA
India,Bihar,Samastipur,"DM Office_Kasipur, Samastipur - BSPCB",14-04-2024 08:00:00,25.859655,85.77944,PM10,NA,NA,NA
India,Bihar,Samastipur,"DM Office_Kasipur, Samastipur - BSPCB",14-04-2024 08:00:00,25.859655,85.77944,NH3,3,5,3
India,Bihar,Samastipur,"DM Office_Kasipur, Samastipur - BSPCB",14-04-2024 08:00:00,25.859655,85.77944,CO,14,30,23
India,Bihar,Sasaram,"Dada Peer, Sasaram - BSPCB",14-04-2024 08:00:00,24.952822,84.002396,PM2.5,20,261,79
India,Chandigarh,Chandigarh,"Sector 22, Chandigarh - CPCC",14-04-2024 08:00:00,30.735567,76.775714,NO2,17,71,34
India,Chandigarh,Chandigarh,"Sector 22, Chandigarh - CPCC",14-04-2024 08:00:00,30.735567,76.775714,NH3,7,16,10
India,Chandigarh,Chandigarh,"Sector 22, Chandigarh - CPCC",14-04-2024 08:00:00,30.735567,76.775714,OZONE,16,193,95
India,Chandigarh,Chandigarh,"Sector-25, Chandigarh - CPCC",14-04-2024 08:00:00,30.751462,76.762879,NH3,11,21,13
India,Chandigarh,Chandigarh,"Sector-53, Chandigarh - CPCC",14-04-2024 08:00:00,30.719859,76.738637,PM10,80,178,121
India,Chandigarh,Chandigarh,"Sector-53, Chandigarh - CPCC",14-04-2024 08:00:00,30.719859,76.738637,SO2,12,40,25
India,Chandigarh,Chandigarh,"Sector-53, Chandigarh - CPCC",14-04-2024 08:00:00,30.719859,76.738637,OZONE,32,62,40
India,Chhattisgarh,Bhilai,"32Bungalows, Bhilai - CECB",14-04-2024 08:00:00,21.194815,81.314770,PM10,17,53,30
India,Chhattisgarh,Bhilai,"Civic Center, Bhilai - Bhilai Steel Plant",14-04-2024 08:00:00,21.185571,81.343175,SO2,6,13,10
India,Chhattisgarh,Bhilai,"Hathkhoj, Bhilai - CECB",14-04-2024 08:00:00,21.224231,81.408350,PM2.5,25,81,52
India,Chhattisgarh,Bilaspur,"Mangala, Bilaspur - NTPC",14-04-2024 08:00:00,22.08815,82.13737,PM10,34,73,57
India,Chhattisgarh,Bilaspur,"Mangala, Bilaspur - NTPC",14-04-2024 08:00:00,22.08815,82.13737,SO2,3,18,12
India,Chhattisgarh,Korba,"Rampur, Korba - CECB",14-04-2024 08:00:00,22.368195,82.746431,NH3,1,1,1
India,Chhattisgarh,Korba,"Rampur, Korba - CECB",14-04-2024 08:00:00,22.368195,82.746431,OZONE,2,36,3
India,Chhattisgarh,Kunjemura,"OP Jindal School, Kunjemura - CECB",14-04-2024 08:00:00,22.126650,83.483212,NH3,1,7,3
India,Chhattisgarh,Kunjemura,"OP Jindal School, Kunjemura - CECB",14-04-2024 08:00:00,22.126650,83.483212,SO2,3,22,10
India,Chhattisgarh,Milupara,"Govt. Higher Secondary School, Milupara - CECB",14-04-2024 08:00:00,22.1910172,83.5197009,OZONE,NA,NA,NA
India,Chhattisgarh,Raipur,"AIIMS, Raipur - CECB",14-04-2024 08:00:00,21.258815,81.578979,PM10,25,125,59
India,Chhattisgarh,Raipur,"AIIMS, Raipur - CECB",14-04-2024 08:00:00,21.258815,81.578979,OZONE,1,4,1
India,Chhattisgarh,Raipur,"Bhatagaon New ISBT, Raipur - CECB",14-04-2024 08:00:00,21.219665,81.630094,PM2.5,15,91,36
India,Delhi,Delhi,"Alipur, Delhi - DPCC",14-04-2024 08:00:00,28.815329,77.153010,OZONE,15,272,42
India,Delhi,Delhi,"Bawana, Delhi - DPCC",14-04-2024 08:00:00,28.776200,77.051074,PM10,54,417,154
India,Delhi,Delhi,"Burari Crossing, Delhi - IMD",14-04-2024 08:00:00,28.7256504,77.2011573,CO,4,52,13
India,Delhi,Delhi,"CRRI Mathura Road, Delhi - IMD",14-04-2024 08:00:00,28.5512005,77.2735737,NO2,5,8,6
India,Delhi,Delhi,"Chandni Chowk, Delhi - IITM",14-04-2024 08:00:00,28.656756,77.227234,PM10,93,171,120
India,Delhi,Delhi,"Chandni Chowk, Delhi - IITM",14-04-2024 08:00:00,28.656756,77.227234,OZONE,3,6,6
India,Delhi,Delhi,"Dr. Karni Singh Shooting Range, Delhi - DPCC",14-04-2024 08:00:00,28.498571,77.264840,NO2,12,118,43
India,Delhi,Delhi,"Dr. Karni Singh Shooting Range, Delhi - DPCC",14-04-2024 08:00:00,28.498571,77.264840,CO,20,96,38
India,Delhi,Delhi,"Dwarka-Sector 8, Delhi - DPCC ",14-04-2024 08:00:00,28.5710274,77.0719006,PM2.5,NA,NA,NA
India,Delhi,Delhi,"Dwarka-Sector 8, Delhi - DPCC ",14-04-2024 08:00:00,28.5710274,77.0719006,PM10,NA,NA,NA
India,Delhi,Delhi,"Dwarka-Sector 8, Delhi - DPCC ",14-04-2024 08:00:00,28.5710274,77.0719006,NO2,NA,NA,NA
India,Delhi,Delhi,"Dwarka-Sector 8, Delhi - DPCC ",14-04-2024 08:00:00,28.5710274,77.0719006,NH3,NA,NA,NA
India,Delhi,Delhi,"IGI Airport (T3), Delhi - IMD",14-04-2024 08:00:00,28.5627763,77.1180053,OZONE,3,52,12
India,Delhi,Delhi,"IHBAS, Dilshad Garden, Delhi - CPCB",14-04-2024 08:00:00,28.6811736,77.3025234,SO2,14,54,25
India,Delhi,Delhi,"ITO, Delhi - CPCB",14-04-2024 08:00:00,28.628624,77.241060,CO,28,85,41
India,Delhi,Delhi,"Jahangirpuri, Delhi - DPCC",14-04-2024 08:00:00,28.732820,77.170633,NO2,25,96,54
India,Delhi,Delhi,"Jawaharlal Nehru Stadium, Delhi - DPCC",14-04-2024 08:00:00,28.580280,77.233829,OZONE,9,169,54
India,Delhi,Delhi,"Lodhi Road, Delhi - IITM",14-04-2024 08:00:00,28.588333,77.221667,PM2.5,NA,NA,NA
India,Delhi,Delhi,"Lodhi Road, Delhi - IMD",14-04-2024 08:00:00,28.5918245,77.2273074,PM10,50,151,80
India,Delhi,Delhi,"Major Dhyan Chand National Stadium, Delhi - DPCC",14-04-2024 08:00:00,28.611281,77.237738,PM2.5,46,217,79
India,Delhi,Delhi,"Major Dhyan Chand National Stadium, Delhi - DPCC",14-04-2024 08:00:00,28.611281,77.237738,SO2,13,29,19
India,Delhi,Delhi,"Major Dhyan Chand National Stadium, Delhi - DPCC",14-04-2024 08:00:00,28.611281,77.237738,CO,3,36,11
India,Delhi,Delhi,"Mandir Marg, Delhi - DPCC",14-04-2024 08:00:00,28.636429,77.201067,NO2,108,127,116
India,Delhi,Delhi,"Mundka, Delhi - DPCC",14-04-2024 08:00:00,28.684678,77.076574,PM2.5,30,177,75
India,Delhi,Delhi,"NSIT Dwarka, Delhi - CPCB",14-04-2024 08:00:00,28.60909,77.0325413,PM10,84,210,130
India,Delhi,Delhi,"NSIT Dwarka, Delhi - CPCB",14-04-2024 08:00:00,28.60909,77.0325413,OZONE,2,77,8
India,Delhi,Delhi,"Najafgarh, Delhi - DPCC",14-04-2024 08:00:00,28.570173,76.933762,PM10,36,229,92
India,Delhi,Delhi,"Nehru Nagar, Delhi - DPCC",14-04-2024 08:00:00,28.567890,77.250515,NH3,3,3,3
India,Delhi,Delhi,"North Campus, DU, Delhi - IMD",14-04-2024 08:00:00,28.6573814,77.1585447,CO,72,102,82
India,Delhi,Delhi,"North Campus, DU, Delhi - IMD",14-04-2024 08:00:00,28.6573814,77.1585447,OZONE,3,48,12
India,Delhi,Delhi,"Okhla Phase-2, Delhi - DPCC",14-04-2024 08:00:00,28.530785,77.271255,OZONE,13,93,38
India,Delhi,Delhi,"Punjabi Bagh, Delhi - DPCC",14-04-2024 08:00:00,28.674045,77.131023,PM2.5,17,253,103
India,Delhi,Delhi,"Punjabi Bagh, Delhi - DPCC",14-04-2024 08:00:00,28.674045,77.131023,PM10,86,160,122
India,Delhi,Delhi,"Punjabi Bagh, Delhi - DPCC",14-04-2024 08:00:00,28.674045,77.131023,SO2,2,30,21
India,Delhi,Delhi,"Pusa, Delhi - DPCC",14-04-2024 08:00:00,28.639652,77.146275,CO,12,110,28
India,Delhi,Delhi,"R K Puram, Delhi - DPCC",14-04-2024 08:00:00,28.563262,77.186937,NO2,19,113,55
India,Delhi,Delhi,"R K Puram, Delhi - DPCC",14-04-2024 08:00:00,28.563262,77.186937,NH3,6,12,9
India,Delhi,Delhi,"R K Puram, Delhi - DPCC",14-04-2024 08:00:00,28.563262,77.186937,CO,21,81,32
India,Delhi,Delhi,"Rohini, Delhi - DPCC",14-04-2024 08:00:00,28.732528,77.119920,PM2.5,36,139,74
India,Delhi,Delhi,"Shadipur, Delhi - CPCB",14-04-2024 08:00:00,28.6514781,77.1473105,PM2.5,35,500,161
India,Delhi,Delhi,"Shadipur, Delhi - CPCB",14-04-2024 08:00:00,28.6514781,77.1473105,CO,16,44,28
India,Delhi,Delhi,"Shadipur, Delhi - CPCB",14-04-2024 08:00:00,28.6514781,77.1473105,OZONE,50,251,174
India,Delhi,Delhi,"Sonia Vihar, Delhi - DPCC",14-04-2024 08:00:00,28.710508,77.249485,PM10,68,243,127
India,Delhi,Delhi,"Sonia Vihar, Delhi - DPCC",14-04-2024 08:00:00,28.710508,77.249485,NH3,6,10,7
India,Delhi,Delhi,"Sri Aurobindo Marg, Delhi - DPCC",14-04-2024 08:00:00,28.531346,77.190156,PM2.5,45,168,66
India,Delhi,Delhi,"Vivek Vihar, Delhi - DPCC",14-04-2024 08:00:00,28.672342,77.315260,PM10,81,335,161
India,Delhi,Delhi,"Vivek Vihar, Delhi - DPCC",14-04-2024 08:00:00,28.672342,77.315260,NO2,30,82,51
India,Delhi,Delhi,"Vivek Vihar, Delhi - DPCC",14-04-2024 08:00:00,28.672342,77.315260,NH3,15,16,15
India,Gujarat,Ahmedabad,"Chandkheda, Ahmedabad - IITM",14-04-2024 08:00:00,23.107969,72.574648,OZONE,4,57,13
India,Gujarat,Ahmedabad,"Gyaspur, Ahmedabad - IITM",14-04-2024 08:00:00,22.977134,72.553024,PM2.5,60,216,105
India,Gujarat,Ahmedabad,"Gyaspur, Ahmedabad - IITM",14-04-2024 08:00:00,22.977134,72.553024,NO2,39,103,48
India,Gujarat,Ahmedabad,"Raikhad, Ahmedabad - IITM",14-04-2024 08:00:00,23.020509,72.579261,NO2,68,102,82
India,Gujarat,Ahmedabad,"Raikhad, Ahmedabad - IITM",14-04-2024 08:00:00,23.020509,72.579261,CO,1,20,12
India,Gujarat,Ahmedabad,"Rakhial, Ahmedabad - IITM",14-04-2024 08:00:00,23.016834,72.625775,PM10,50,115,90
India,Gujarat,Ahmedabad,"Rakhial, Ahmedabad - IITM",14-04-2024 08:00:00,23.016834,72.625775,SO2,8,87,33
India,Gujarat,Ahmedabad,"SAC ISRO Satellite, Ahmedabad - IITM",14-04-2024 08:00:00,23.023389,72.515201,NH3,3,3,3
India,Gujarat,Ahmedabad,"SAC ISRO Satellite, Ahmedabad - IITM",14-04-2024 08:00:00,23.023389,72.515201,OZONE,13,26,15
India,Gujarat,Ahmedabad,"Sardar Vallabhbhai Patel Stadium, Ahmedabad - IITM",14-04-2024 08:00:00,23.043070,72.562968,PM10,72,122,102
India,Gujarat,Ahmedabad,"Sardar Vallabhbhai Patel Stadium, Ahmedabad - IITM",14-04-2024 08:00:00,23.043070,72.562968,NO2,39,41,40
India,Gujarat,Ankleshwar,"GIDC, Ankleshwar - GPCB",14-04-2024 08:00:00,21.613267,73.010555,PM10,36,71,52
India,Gujarat,Ankleshwar,"GIDC, Ankleshwar - GPCB",14-04-2024 08:00:00,21.613267,73.010555,NH3,7,7,7
India,Gujarat,Ankleshwar,"GIDC, Ankleshwar - GPCB",14-04-2024 08:00:00,21.613267,73.010555,CO,60,93,70
India,Gujarat,Gandhinagar,"IIPHG Lekawada, Gandhinagar - IITM",14-04-2024 08:00:00,23.243639,72.68994,PM10,63,108,82
India,Haryana,Ambala,"Patti Mehar, Ambala - HSPCB",14-04-2024 08:00:00,30.379589,76.778328,SO2,64,103,82
India,Haryana,Ambala,"Patti Mehar, Ambala - HSPCB",14-04-2024 08:00:00,30.379589,76.778328,CO,30,60,48
India,Haryana,Bahadurgarh,"Arya Nagar, Bahadurgarh - HSPCB",14-04-2024 08:00:00,28.6701,76.9254,SO2,1,5,3
India,Haryana,Bahadurgarh,"Arya Nagar, Bahadurgarh - HSPCB",14-04-2024 08:00:00,28.6701,76.9254,CO,34,62,49
India,Haryana,Ballabgarh,"Nathu Colony, Ballabgarh - HSPCB",14-04-2024 08:00:00,28.3419248,77.319699,OZONE,7,24,14
India,Haryana,Dharuhera,"Municipal Corporation Office, Dharuhera -  HSPCB",14-04-2024 08:00:00,28.206800,76.799700,PM2.5,NA,NA,NA
India,Haryana,Faridabad,"New Industrial Town, Faridabad - HSPCB",14-04-2024 08:00:00,28.39072,77.30059,NO2,4,21,14
India,Haryana,Faridabad,"Sector 11, Faridabad - HSPCB",14-04-2024 08:00:00,28.376058,77.315741,PM10,58,401,149
India,Haryana,Faridabad,"Sector 11, Faridabad - HSPCB",14-04-2024 08:00:00,28.376058,77.315741,SO2,4,127,19
India,Haryana,Faridabad,"Sector 30, Faridabad - HSPCB",14-04-2024 08:00:00,28.4417,77.3217,PM2.5,NA,NA,NA
India,Haryana,Fatehabad,"Huda Sector, Fatehabad - HSPCB",14-04-2024 08:00:00,29.503664,75.467934,PM2.5,27,116,54
India,Haryana,Fatehabad,"Huda Sector, Fatehabad - HSPCB",14-04-2024 08:00:00,29.503664,75.467934,OZONE,24,59,53
India,Haryana,Gurugram,"Sector-51, Gurugram - HSPCB",14-04-2024 08:00:00,28.4227,77.0667,NO2,14,29,26
India,Haryana,Gurugram,"Vikas Sadan, Gurugram - HSPCB",14-04-2024 08:00:00,28.4501238,77.0263051,PM2.5,10,500,137
India,Haryana,Gurugram,"Vikas Sadan, Gurugram - HSPCB",14-04-2024 08:00:00,28.4501238,77.0263051,NO2,5,26,14
India,Haryana,Gurugram,"Vikas Sadan, Gurugram - HSPCB",14-04-2024 08:00:00,28.4501238,77.0263051,CO,54,148,106
India,Haryana,Hisar,"Urban Estate-II, Hisar - HSPCB",14-04-2024 08:00:00,29.140560,75.744941,SO2,12,53,42
India,Haryana,Hisar,"Urban Estate-II, Hisar - HSPCB",14-04-2024 08:00:00,29.140560,75.744941,OZONE,47,158,61
India,Haryana,Jind,"Police Lines, Jind - HSPCB",14-04-2024 08:00:00,29.307814,76.337619,PM10,51,166,89
India,Haryana,Kaithal,"Rishi Nagar, Kaithal - HSPCB",14-04-2024 08:00:00,29.8006,76.4155,NH3,8,8,8
India,Haryana,Karnal,"Sector-12, Karnal - HSPCB",14-04-2024 08:00:00,29.695300,77.002700,PM10,63,438,126
India,Haryana,Kurukshetra,"Sector-7, Kurukshetra - HSPCB",14-04-2024 08:00:00,29.966942,76.875879,CO,4,36,15
India,Haryana,Mandikhera,"General Hospital, Mandikhera - HSPCB",14-04-2024 08:00:00,27.9002,76.9938,CO,12,22,17
India,Haryana,Manesar,"Sector-2 IMT, Manesar - HSPCB",14-04-2024 08:00:00,28.360699,76.936090,NO2,NA,NA,NA
India,Haryana,Manesar,"Sector-2 IMT, Manesar - HSPCB",14-04-2024 08:00:00,28.360699,76.936090,OZONE,11,76,20
India,Haryana,Palwal,"Shyam Nagar, Palwal - HSPCB",14-04-2024 08:00:00,28.1485564,77.3320667,PM10,66,330,111
India,Haryana,Panchkula,"Sector-6, Panchkula - HSPCB ",14-04-2024 08:00:00,30.7057778,76.8531805555555,CO,6,18,12
India,Haryana,Panchkula,"Sector-6, Panchkula - HSPCB ",14-04-2024 08:00:00,30.7057778,76.8531805555555,OZONE,51,70,54
India,Haryana,Panipat,"Sector-18, Panipat - HSPCB",14-04-2024 08:00:00,29.497973,76.993331,NH3,2,3,3
India,Haryana,Panipat,"Sector-18, Panipat - HSPCB",14-04-2024 08:00:00,29.497973,76.993331,CO,24,26,25
India,Haryana,Sirsa,"F-Block, Sirsa - HSPCB",14-04-2024 08:00:00,29.536400,75.015800,NH3,4,14,12
India,Haryana,Sonipat,"Murthal, Sonipat - HSPCB",14-04-2024 08:00:00,29.027200,77.062100,OZONE,17,35,20
India,Karnataka,Bagalkot,"Vidayagiri, Bagalkot - KSPCB",14-04-2024 08:00:00,16.172806,75.659694,NH3,1,2,1
India,Karnataka,Bagalkot,"Vidayagiri, Bagalkot - KSPCB",14-04-2024 08:00:00,16.172806,75.659694,CO,20,52,34
India,Karnataka,Bagalkot,"Vidayagiri, Bagalkot - KSPCB",14-04-2024 08:00:00,16.172806,75.659694,OZONE,NA,NA,NA
India,Karnataka,Bengaluru,"BTM Layout, Bengaluru - CPCB",14-04-2024 08:00:00,12.9135218,77.5950804,PM2.5,17,29,22
India,Karnataka,Bengaluru,"Bapuji Nagar, Bengaluru - KSPCB",14-04-2024 08:00:00,12.951913,77.539784,NO2,10,11,11
India,Karnataka,Bengaluru,"Hebbal, Bengaluru - KSPCB",14-04-2024 08:00:00,13.029152,77.585901,OZONE,8,73,10
India,Karnataka,Bengaluru,"Jayanagar 5th Block, Bengaluru - KSPCB",14-04-2024 08:00:00,12.920984,77.584908,PM10,NA,NA,NA
India,Karnataka,Bengaluru,"Kasturi Nagar, Bengaluru - KSPCB",14-04-2024 08:00:00,13.003872,77.664217,PM2.5,55,124,78
India,Karnataka,Bengaluru,"Peenya, Bengaluru - CPCB",14-04-2024 08:00:00,13.0270199,77.494094,PM2.5,24,45,34
India,Karnataka,Bengaluru,"Peenya, Bengaluru - CPCB",14-04-2024 08:00:00,13.0270199,77.494094,NH3,3,4,3
India,Karnataka,Bengaluru,"Peenya, Bengaluru - CPCB",14-04-2024 08:00:00,13.0270199,77.494094,CO,25,38,28
India,Karnataka,Bengaluru,"RVCE-Mailasandra, Bengaluru - KSPCB",14-04-2024 08:00:00,12.921418,77.502466,NO2,16,17,17
India,Karnataka,Bengaluru,"RVCE-Mailasandra, Bengaluru - KSPCB",14-04-2024 08:00:00,12.921418,77.502466,SO2,8,16,11
India,Karnataka,Bengaluru,"Shivapura_Peenya, Bengaluru - KSPCB",14-04-2024 08:00:00,13.0246342,77.5080115,CO,24,36,29
India,Karnataka,Bengaluru,"Silk Board, Bengaluru - KSPCB",14-04-2024 08:00:00,12.917348,77.622813,PM2.5,30,65,44
India,Karnataka,Bidar,"Naubad, Bidar - KSPCB",14-04-2024 08:00:00,17.930306,77.482194,SO2,16,18,17
India,Karnataka,Chamarajanagar,"Urban, Chamarajanagar - KSPCB",14-04-2024 08:00:00,11.55358,76.55521,SO2,2,6,3
India,Karnataka,Chikkaballapur,"Chikkaballapur Rural, Chikkaballapur - KSPCB",14-04-2024 08:00:00,13.428828,77.731418,NO2,6,13,8
India,Karnataka,Chikkaballapur,"Chikkaballapur Rural, Chikkaballapur - KSPCB",14-04-2024 08:00:00,13.428828,77.731418,OZONE,24,26,26
India,Karnataka,Chikkamagaluru,"Kalyana Nagara, Chikkamagaluru - KSPCB",14-04-2024 08:00:00,13.328028,75.797056,CO,8,92,38
India,Karnataka,Chikkamagaluru,"Kalyana Nagara, Chikkamagaluru - KSPCB",14-04-2024 08:00:00,13.328028,75.797056,OZONE,14,16,15
India,Karnataka,Dharwad,"Kalabhavan, Dharwad - KSPCB",14-04-2024 08:00:00,15.459706,75.008381,PM2.5,4,74,52
India,Karnataka,Dharwad,"Kalabhavan, Dharwad - KSPCB",14-04-2024 08:00:00,15.459706,75.008381,OZONE,2,60,5
India,Karnataka,Haveri,"Ashwini Nagar, Haveri - KSPCB",14-04-2024 08:00:00,14.791800,75.389600,NH3,3,3,3
India,Karnataka,Kalaburagi,"Lal Bahadur Shastri Nagar, Kalaburagi - KSPCB",14-04-2024 08:00:00,17.321993,76.822628,PM2.5,6,71,24
India,Karnataka,Kalaburagi,"Lal Bahadur Shastri Nagar, Kalaburagi - KSPCB",14-04-2024 08:00:00,17.321993,76.822628,NO2,11,12,12
India,Karnataka,Kalaburagi,"Mahatma Basaveswar Colony, Kalaburgi - KSPCB",14-04-2024 08:00:00,17.336318,76.847397,NO2,10,17,16
India,Karnataka,Karwar,"KHB Colony, Karwar - KSPCB",14-04-2024 08:00:00,14.816666,74.141003,SO2,18,19,19
India,Karnataka,Kolar,"Tamaka Ind. Area, Kolar - KSPCB",14-04-2024 08:00:00,13.1276288,78.1570122,PM2.5,21,49,30
India,Karnataka,Kolar,"Tamaka Ind. Area, Kolar - KSPCB",14-04-2024 08:00:00,13.1276288,78.1570122,NO2,17,32,20
India,Karnataka,Koppal,"Diwator Nagar, Koppal - KSPCB",14-04-2024 08:00:00,15.347630,76.181767,NH3,6,9,7
India,Karnataka,Koppal,"Diwator Nagar, Koppal - KSPCB",14-04-2024 08:00:00,15.347630,76.181767,CO,108,112,111
India,Karnataka,Mangalore,"Kadri, Mangalore - KSPCB",14-04-2024 08:00:00,12.889250,74.853000,PM10,NA,NA,NA
India,Karnataka,Mysuru,"Hebbal 1st Stage, Mysuru - KSPCB",14-04-2024 08:00:00,12.21041,76.37376,SO2,1,2,1
India,Karnataka,Ramanagara,"Vijay Nagar, Ramanagara - KSPCB",14-04-2024 08:00:00,12.733409,77.298051,PM2.5,26,67,45
India,Karnataka,Ramanagara,"Vijay Nagar, Ramanagara - KSPCB",14-04-2024 08:00:00,12.733409,77.298051,NH3,1,2,1
India,Karnataka,Ramanagara,"Vijay Nagar, Ramanagara - KSPCB",14-04-2024 08:00:00,12.733409,77.298051,SO2,24,41,33
India,Karnataka,Shivamogga,"Vinoba Nagara, Shivamogga - KSPCB",14-04-2024 08:00:00,13.940000,75.555917,PM10,54,56,55
India,Karnataka,Vijayapura,"Ibrahimpur, Vijayapura - KSPCB",14-04-2024 08:00:00,16.802639,75.722694,PM2.5,26,31,30
India,Karnataka,Vijayapura,"Ibrahimpur, Vijayapura - KSPCB",14-04-2024 08:00:00,16.802639,75.722694,CO,NA,NA,NA
India,Karnataka,Vijayapura,"Ibrahimpur, Vijayapura - KSPCB",14-04-2024 08:00:00,16.802639,75.722694,OZONE,13,16,15
India,Karnataka,Yadgir,"Collector Office, Yadgir - KSPCB",14-04-2024 08:00:00,16.7602,77.1428,CO,14,37,14
India,Kerala,Eloor,"Udyogamandal, Eloor - Kerala PCB",14-04-2024 08:00:00,10.073232,76.302765,SO2,1,19,3
India,Kerala,Kollam,"Polayathode, Kollam - Kerala PCB",14-04-2024 08:00:00,8.8787,76.6073,CO,38,40,39
India,Kerala,Thiruvananthapuram,"Kariavattom, Thiruvananthapuram - Kerala PCB",14-04-2024 08:00:00,8.563700,76.886500,PM2.5,77,90,82
India,Kerala,Thiruvananthapuram,"Kariavattom, Thiruvananthapuram - Kerala PCB",14-04-2024 08:00:00,8.563700,76.886500,PM10,81,94,86
India,Kerala,Thiruvananthapuram,"Kariavattom, Thiruvananthapuram - Kerala PCB",14-04-2024 08:00:00,8.563700,76.886500,OZONE,28,33,30
India,Kerala,Thiruvananthapuram,"Plammoodu, Thiruvananthapuram - Kerala PCB",14-04-2024 08:00:00,8.5149093,76.9435879,PM2.5,3,32,20
India,Kerala,Thiruvananthapuram,"Plammoodu, Thiruvananthapuram - Kerala PCB",14-04-2024 08:00:00,8.5149093,76.9435879,NH3,1,1,1
India,Kerala,Thiruvananthapuram,"Plammoodu, Thiruvananthapuram - Kerala PCB",14-04-2024 08:00:00,8.5149093,76.9435879,OZONE,8,54,22
India,Madhya Pradesh,Bhopal,"Idgah Hills, Bhopal - MPPCB",14-04-2024 08:00:00,23.264759,77.381568,SO2,13,22,15
India,Madhya Pradesh,Bhopal,"Paryavaran Parisar, Bhopal - MPPCB",14-04-2024 08:00:00,23.210494,77.425409,PM10,19,62,37
India,Madhya Pradesh,Bhopal,"T T Nagar, Bhopal - MPPCB",14-04-2024 08:00:00,23.233584,77.400574,CO,10,57,36
India,Madhya Pradesh,Bhopal,"T T Nagar, Bhopal - MPPCB",14-04-2024 08:00:00,23.233584,77.400574,OZONE,22,66,35
India,Madhya Pradesh,Dewas,"Bhopal Chauraha, Dewas - MPPCB",14-04-2024 08:00:00,22.9682591,76.064118,OZONE,8,56,13
India,Madhya Pradesh,Gwalior,"City Center, Gwalior - MPPCB",14-04-2024 08:00:00,26.203442,78.193251,PM10,28,146,50
India,Madhya Pradesh,Gwalior,"Maharaj Bada, Gwalior - MPPCB",14-04-2024 08:00:00,26.200388,78.147714,NO2,14,36,22
India,Madhya Pradesh,Gwalior,"Maharaj Bada, Gwalior - MPPCB",14-04-2024 08:00:00,26.200388,78.147714,SO2,9,17,13
India,Madhya Pradesh,Indore,"Chhoti Gwaltoli, Indore - MPPCB",14-04-2024 08:00:00,22.4310,75.5213,SO2,6,103,49
India,Madhya Pradesh,Indore,"Maguda Nagar, Indore - IMC",14-04-2024 08:00:00,22.7524,75.8872,PM10,21,243,81
India,Madhya Pradesh,Indore,"Maguda Nagar, Indore - IMC",14-04-2024 08:00:00,22.7524,75.8872,SO2,25,33,30
India,Madhya Pradesh,Indore,"Maguda Nagar, Indore - IMC",14-04-2024 08:00:00,22.7524,75.8872,CO,25,36,32
India,Madhya Pradesh,Jabalpur,"Gupteshwar, Jabalpur - JMC",14-04-2024 08:00:00,23.142888,79.916147,NH3,6,7,6
India,Madhya Pradesh,Jabalpur,"Gupteshwar, Jabalpur - JMC",14-04-2024 08:00:00,23.142888,79.916147,OZONE,16,84,39
India,Madhya Pradesh,Jabalpur,"Marhatal, Jabalpur - MPPCB",14-04-2024 08:00:00,23.168606,79.932247,OZONE,26,99,50
India,Madhya Pradesh,Jabalpur,"Suhagi, Jabalpur - JMC",14-04-2024 08:00:00,23.218135,79.957770,PM10,2,102,34
India,Madhya Pradesh,Katni,"Gole Bazar, Katni - MPPCB",14-04-2024 08:00:00,23.50016,80.23284,CO,9,66,38
India,Madhya Pradesh,Maihar,"Sahilara, Maihar - KJS Cements",14-04-2024 08:00:00,24.2613009,80.7231783,NO2,11,13,12
India,Madhya Pradesh,Mandideep,"Sector-D Industrial Area, Mandideep - MPPCB",14-04-2024 08:00:00,23.108440,77.511428,NO2,14,53,30
India,Madhya Pradesh,Pithampur,"Sector-2 Industrial Area, Pithampur - MPPCB",14-04-2024 08:00:00,22.624758,75.675238,PM10,48,163,88
India,Madhya Pradesh,Pithampur,"Sector-2 Industrial Area, Pithampur - MPPCB",14-04-2024 08:00:00,22.624758,75.675238,SO2,11,13,12
India,Madhya Pradesh,Pithampur,"Sector-2 Industrial Area, Pithampur - MPPCB",14-04-2024 08:00:00,22.624758,75.675238,OZONE,21,71,26
India,Madhya Pradesh,Sagar,"Civil Lines, Sagar - MPPCB",14-04-2024 08:00:00,23.838586,78.759431,PM2.5,22,83,38
India,Madhya Pradesh,Sagar,"Civil Lines, Sagar - MPPCB",14-04-2024 08:00:00,23.838586,78.759431,NO2,6,26,11
India,Madhya Pradesh,Sagar,"Civil Lines, Sagar - MPPCB",14-04-2024 08:00:00,23.838586,78.759431,CO,8,32,12
India,Madhya Pradesh,Sagar,"Civil Lines, Sagar - MPPCB",14-04-2024 08:00:00,23.838586,78.759431,OZONE,41,111,51
India,Madhya Pradesh,Satna,"Bandhavgar Colony, Satna - Birla Cement",14-04-2024 08:00:00,24.58434363,80.8549414,NO2,21,64,32
India,Madhya Pradesh,Singrauli,"Suryakiran Bhawan NCL, Singrauli - MPPCB",14-04-2024 08:00:00,24.108970,82.645580,NO2,9,93,40
India,Madhya Pradesh,Singrauli,"Suryakiran Bhawan NCL, Singrauli - MPPCB",14-04-2024 08:00:00,24.108970,82.645580,NH3,3,6,4
India,Madhya Pradesh,Singrauli,"Suryakiran Bhawan NCL, Singrauli - MPPCB",14-04-2024 08:00:00,24.108970,82.645580,OZONE,6,79,29
India,Madhya Pradesh,Ujjain,"Mahakaleshwar Temple, Ujjain - MPPCB",14-04-2024 08:00:00,23.182719 ,75.768218 ,PM2.5,13,401,43
India,Madhya Pradesh,Ujjain,"Mahakaleshwar Temple, Ujjain - MPPCB",14-04-2024 08:00:00,23.182719 ,75.768218 ,NO2,13,38,23
India,Maharashtra,Ahmednagar,"Tarakpur, Ahmednagar - MPCB",14-04-2024 08:00:00,19.10122,74.73339,SO2,3,10,7
India,Maharashtra,Ahmednagar,"Tarakpur, Ahmednagar - MPCB",14-04-2024 08:00:00,19.10122,74.73339,CO,38,86,42
India,Maharashtra,Akola,"Ramdaspeth, Akola - MPCB",14-04-2024 08:00:00,20.719516,77.000253,PM10,28,79,49
India,Maharashtra,Akola,"Ramdaspeth, Akola - MPCB",14-04-2024 08:00:00,20.719516,77.000253,NO2,10,33,16
India,Maharashtra,Akola,"Ramdaspeth, Akola - MPCB",14-04-2024 08:00:00,20.719516,77.000253,CO,16,42,19
