country,state,city,station,last_update,latitude,longitude,pollutant_id,pollutant_min,pollutant_max,pollutant_avg
India,Andhra_Pradesh,Amaravati,"Secretariat, Amaravati - APPCB",19-05-2024 04:00:00,16.5150833,80.5181667,CO,4,102,27
India,Andhra_Pradesh,Amaravati,"Secretariat, Amaravati - APPCB",19-05-2024 04:00:00,16.5150833,80.5181667,OZONE,NA,NA,NA
India,Andhra_Pradesh,Anantapur,"Gulzarpet, Anantapur - APPCB",19-05-2024 04:00:00,14.675886,77.593027,PM2.5,NA,NA,NA
India,Andhra_Pradesh,Chittoor,"Gangineni Cheruvu, Chittoor - APPCB",19-05-2024 04:00:00,13.204880,79.097889,NH3,1,2,1
India,Andhra_Pradesh,Chittoor,"Gangineni Cheruvu, Chittoor - APPCB",19-05-2024 04:00:00,13.204880,79.097889,CO,11,21,14
India,Andhra_Pradesh,Rajamahendravaram,"Anand Kala Kshetram, Rajamahendravaram - APPCB",19-05-2024 04:00:00,16.9872867,81.7363176,PM10,4,33,17
India,Andhra_Pradesh,Tirupati,"Tirumala, Tirupati - APPCB",19-05-2024 04:00:00,13.67,79.35,NO2,15,35,26
India,Andhra_Pradesh,Tirupati,"Vaikuntapuram, Tirupati - APPCB",19-05-2024 04:00:00,13.615387,79.409230,CO,10,16,13
India,Andhra_Pradesh,Vijayawada,"HB Colony, Vijayawada - APPCB",19-05-2024 04:00:00,16.536107,80.594233,SO2,4,5,4
India,Andhra_Pradesh,Vijayawada,"HB Colony, Vijayawada - APPCB",19-05-2024 04:00:00,16.536107,80.594233,OZONE,3,87,28
India,Andhra_Pradesh,Vijayawada,"Kanuru, Vijayawada - APPCB",19-05-2024 04:00:00,16.486692,80.699436,PM10,NA,NA,NA
India,Andhra_Pradesh,Vijayawada,"Kanuru, Vijayawada - APPCB",19-05-2024 04:00:00,16.486692,80.699436,NH3,NA,NA,NA
India,Andhra_Pradesh,Vijayawada,"Rajiv Gandhi Park, Vijayawada - APPCB",19-05-2024 04:00:00,16.509717,80.612222,SO2,6,8,6
India,Andhra_Pradesh,Vijayawada,"Rajiv Nagar, Vijayawada - APPCB",19-05-2024 04:00:00,16.554731,80.649110,OZONE,15,27,16
India,Andhra_Pradesh,Visakhapatnam,"GVM Corporation, Visakhapatnam - APPCB",19-05-2024 04:00:00,17.72,83.3,PM10,19,94,51
India,Andhra_Pradesh,Visakhapatnam,"GVM Corporation, Visakhapatnam - APPCB",19-05-2024 04:00:00,17.72,83.3,OZONE,5,48,11
India,Assam,Guwahati,"IITG, Guwahati - PCBA",19-05-2024 04:00:00,26.2028636,91.70046436,NH3,5,5,5
India,Assam,Guwahati,"IITG, Guwahati - PCBA",19-05-2024 04:00:00,26.2028636,91.70046436,CO,10,15,12
India,Assam,Guwahati,"LGBI Airport, Guwahati - PCBA",19-05-2024 04:00:00,26.10887,91.589544,NO2,10,32,19
India,Assam,Guwahati,"LGBI Airport, Guwahati - PCBA",19-05-2024 04:00:00,26.10887,91.589544,OZONE,3,77,33
India,Assam,Nagaon,"Christianpatty, Nagaon - PCBA",19-05-2024 04:00:00,26.349082,92.68449,NO2,1,18,7
India,Assam,Nalbari,"Bata Chowk, Nalbari - PCBA",19-05-2024 04:00:00,26.446912,91.439057,PM10,14,115,55
India,Assam,Nalbari,"Bata Chowk, Nalbari - PCBA",19-05-2024 04:00:00,26.446912,91.439057,SO2,8,13,12
India,Assam,Silchar,"Tarapur, Silchar - PCBA",19-05-2024 04:00:00,24.82827,92.79525,NO2,13,13,13
India,Assam,Silchar,"Tarapur, Silchar - PCBA",19-05-2024 04:00:00,24.82827,92.79525,NH3,1,1,1
India,Assam,Sivasagar,"Girls College, Sivasagar - PCBA",19-05-2024 04:00:00,26.987634,94.636574,NH3,2,2,2
India,Assam,Sivasagar,"Girls College, Sivasagar - PCBA",19-05-2024 04:00:00,26.987634,94.636574,CO,22,28,26
India,Bihar,Araria,"Kharahiya Basti, Araria - BSPCB",19-05-2024 04:00:00,26.146529,87.454184,CO,16,30,27
India,Bihar,Arrah,"New DM Office, Arrah - BSPCB",19-05-2024 04:00:00,25.5626095,84.663264,PM10,72,171,120
India,Bihar,Arrah,"New DM Office, Arrah - BSPCB",19-05-2024 04:00:00,25.5626095,84.663264,NH3,7,19,11
India,Bihar,Arrah,"New DM Office, Arrah - BSPCB",19-05-2024 04:00:00,25.5626095,84.663264,CO,14,44,38
India,Bihar,Aurangabad,"Gurdeo Nagar, Aurangabad - BSPCB",19-05-2024 04:00:00,24.75746,84.366208,PM10,NA,NA,NA
India,Bihar,Aurangabad,"Gurdeo Nagar, Aurangabad - BSPCB",19-05-2024 04:00:00,24.75746,84.366208,SO2,13,23,19
India,Bihar,Bettiah,"Kamalnath Nagar, Bettiah - BSPCB",19-05-2024 04:00:00,26.80365,84.51954,OZONE,2,25,7
India,Bihar,Bhagalpur,"DM Office_Kachari Chowk, Bhagalpur - BSPCB",19-05-2024 04:00:00,25.251013,86.989001,PM2.5,88,217,149
India,Bihar,Bihar Sharif,"D M Colony, Bihar Sharif - BSPCB",19-05-2024 04:00:00,25.204762,85.514960,PM2.5,17,93,51
India,Bihar,Bihar Sharif,"D M Colony, Bihar Sharif - BSPCB",19-05-2024 04:00:00,25.204762,85.514960,NO2,9,10,10
India,Bihar,Hajipur,"Industrial Area, Hajipur - BSPCB",19-05-2024 04:00:00,25.697189,85.245900,NH3,17,24,21
India,Bihar,Katihar,"Mirchaibari, Katihar - BSPCB",19-05-2024 04:00:00,25.560083,87.553265,NH3,1,14,2
India,Bihar,Manguraha,"Forest Rest House, Manguraha - BSPCB",19-05-2024 04:00:00,27.308328,84.531742,PM10,NA,NA,NA
India,Bihar,Manguraha,"Forest Rest House, Manguraha - BSPCB",19-05-2024 04:00:00,27.308328,84.531742,NO2,21,25,23
India,Bihar,Motihari,"Gandak Colony, Motihari - BSPCB",19-05-2024 04:00:00,26.63086,84.90051,SO2,6,22,13
India,Bihar,Munger,"Town Hall, Munger - BSPCB",19-05-2024 04:00:00,25.376776,86.471523,PM10,134,154,147
India,Bihar,Muzaffarpur,"Buddha Colony, Muzaffarpur - BSPCB",19-05-2024 04:00:00,26.11442,85.39813,NH3,7,12,10
India,Bihar,Muzaffarpur,"Buddha Colony, Muzaffarpur - BSPCB",19-05-2024 04:00:00,26.11442,85.39813,CO,21,66,27
India,Bihar,Muzaffarpur,"MIT-Daudpur Kothi, Muzaffarpur - BSPCB",19-05-2024 04:00:00,26.1403345,85.3650192,NO2,2,5,4
India,Bihar,Muzaffarpur,"Muzaffarpur Collectorate, Muzaffarpur - BSPCB",19-05-2024 04:00:00,26.1209,85.3647,PM2.5,55,320,151
India,Bihar,Muzaffarpur,"Muzaffarpur Collectorate, Muzaffarpur - BSPCB",19-05-2024 04:00:00,26.1209,85.3647,CO,28,88,28
India,Bihar,Patna,"DRM Office Danapur, Patna - BSPCB",19-05-2024 04:00:00,25.586562,85.043586,PM2.5,134,304,217
India,Bihar,Patna,"DRM Office Danapur, Patna - BSPCB",19-05-2024 04:00:00,25.586562,85.043586,NO2,14,102,33
India,Bihar,Patna,"DRM Office Danapur, Patna - BSPCB",19-05-2024 04:00:00,25.586562,85.043586,NH3,2,3,3
India,Bihar,Patna,"Govt. High School Shikarpur, Patna - BSPCB",19-05-2024 04:00:00,25.592539,85.227158,PM10,110,187,158
India,Bihar,Patna,"Govt. High School Shikarpur, Patna - BSPCB",19-05-2024 04:00:00,25.592539,85.227158,NH3,5,5,5
India,Bihar,Patna,"Govt. High School Shikarpur, Patna - BSPCB",19-05-2024 04:00:00,25.592539,85.227158,OZONE,1,59,4
India,Bihar,Patna,"IGSC Planetarium Complex, Patna - BSPCB",19-05-2024 04:00:00,25.610369,85.132568,CO,9,21,12
India,Bihar,Patna,"IGSC Planetarium Complex, Patna - BSPCB",19-05-2024 04:00:00,25.610369,85.132568,OZONE,44,45,44
India,Bihar,Patna,"Muradpur, Patna - BSPCB",19-05-2024 04:00:00,25.619651,85.147382,PM2.5,133,498,333
India,Bihar,Patna,"Muradpur, Patna - BSPCB",19-05-2024 04:00:00,25.619651,85.147382,PM10,163,500,307
India,Bihar,Patna,"Muradpur, Patna - BSPCB",19-05-2024 04:00:00,25.619651,85.147382,SO2,6,9,7
India,Bihar,Patna,"Rajbansi Nagar, Patna - BSPCB",19-05-2024 04:00:00,25.599486,85.113666,PM10,131,237,172
India,Bihar,Patna,"Rajbansi Nagar, Patna - BSPCB",19-05-2024 04:00:00,25.599486,85.113666,CO,2,117,31
India,Bihar,Patna,"Samanpura, Patna - BSPCB",19-05-2024 04:00:00,25.596727,85.085624,PM10,140,435,234
India,Bihar,Purnia,"Mariam Nagar, Purnia - BSPCB",19-05-2024 04:00:00,25.366336,87.117468,PM2.5,NA,NA,NA
India,Bihar,Purnia,"Mariam Nagar, Purnia - BSPCB",19-05-2024 04:00:00,25.366336,87.117468,CO,21,60,48
India,Bihar,Sasaram,"Dada Peer, Sasaram - BSPCB",19-05-2024 04:00:00,24.952822,84.002396,NO2,6,96,56
India,Bihar,Sasaram,"Dada Peer, Sasaram - BSPCB",19-05-2024 04:00:00,24.952822,84.002396,NH3,1,28,17
India,Bihar,Sasaram,"Dada Peer, Sasaram - BSPCB",19-05-2024 04:00:00,24.952822,84.002396,SO2,NA,NA,NA
India,Bihar,Siwan,"Chitragupta Nagar, Siwan - BSPCB",19-05-2024 04:00:00,26.2271665,84.3570427,SO2,24,36,30
India,Bihar,Siwan,"Chitragupta Nagar, Siwan - BSPCB",19-05-2024 04:00:00,26.2271665,84.3570427,CO,1,147,79
India,Chandigarh,Chandigarh,"Sector 22, Chandigarh - CPCC",19-05-2024 04:00:00,30.735567,76.775714,OZONE,29,223,80
India,Chandigarh,Chandigarh,"Sector-25, Chandigarh - CPCC",19-05-2024 04:00:00,30.751462,76.762879,PM2.5,73,257,166
India,Chandigarh,Chandigarh,"Sector-25, Chandigarh - CPCC",19-05-2024 04:00:00,30.751462,76.762879,CO,14,59,38
India,Chandigarh,Chandigarh,"Sector-53, Chandigarh - CPCC",19-05-2024 04:00:00,30.719859,76.738637,NH3,5,8,6
India,Chandigarh,Chandigarh,"Sector-53, Chandigarh - CPCC",19-05-2024 04:00:00,30.719859,76.738637,CO,32,88,75
India,Chhattisgarh,Bhilai,"32Bungalows, Bhilai - CECB",19-05-2024 04:00:00,21.194815,81.314770,SO2,1,3,1
India,Chhattisgarh,Bhilai,"32Bungalows, Bhilai - CECB",19-05-2024 04:00:00,21.194815,81.314770,CO,11,14,12
India,Chhattisgarh,Bhilai,"Civic Center, Bhilai - Bhilai Steel Plant",19-05-2024 04:00:00,21.185571,81.343175,NO2,11,18,14
India,Chhattisgarh,Bhilai,"Civic Center, Bhilai - Bhilai Steel Plant",19-05-2024 04:00:00,21.185571,81.343175,SO2,9,19,11
India,Chhattisgarh,Bhilai,"Civic Center, Bhilai - Bhilai Steel Plant",19-05-2024 04:00:00,21.185571,81.343175,CO,35,62,41
India,Chhattisgarh,Bhilai,"Hathkhoj, Bhilai - CECB",19-05-2024 04:00:00,21.224231,81.408350,PM2.5,4,25,13
India,Chhattisgarh,Bhilai,"Hathkhoj, Bhilai - CECB",19-05-2024 04:00:00,21.224231,81.408350,NH3,8,9,9
India,Chhattisgarh,Bhilai,"Hathkhoj, Bhilai - CECB",19-05-2024 04:00:00,21.224231,81.408350,OZONE,19,35,26
India,Chhattisgarh,Bilaspur,"Mangala, Bilaspur - NTPC",19-05-2024 04:00:00,22.08815,82.13737,CO,42,104,47
India,Chhattisgarh,Chhal,"Nawapara SECL Colony, Chhal - CECB",19-05-2024 04:00:00,22.118125,83.140608,NO2,9,37,20
India,Chhattisgarh,Korba,"Rampur, Korba - CECB",19-05-2024 04:00:00,22.368195,82.746431,SO2,1,5,2
India,Chhattisgarh,Kunjemura,"OP Jindal School, Kunjemura - CECB",19-05-2024 04:00:00,22.126650,83.483212,PM10,19,181,87
India,Chhattisgarh,Kunjemura,"OP Jindal School, Kunjemura - CECB",19-05-2024 04:00:00,22.126650,83.483212,OZONE,4,30,12
India,Chhattisgarh,Milupara,"Govt. Higher Secondary School, Milupara - CECB",19-05-2024 04:00:00,22.1910172,83.5197009,NO2,12,82,50
India,Chhattisgarh,Milupara,"Govt. Higher Secondary School, Milupara - CECB",19-05-2024 04:00:00,22.1910172,83.5197009,SO2,5,39,19
India,Chhattisgarh,Milupara,"Govt. Higher Secondary School, Milupara - CECB",19-05-2024 04:00:00,22.1910172,83.5197009,OZONE,6,22,10
India,Chhattisgarh,Raipur,"AIIMS, Raipur - CECB",19-05-2024 04:00:00,21.258815,81.578979,PM10,NA,NA,NA
India,Chhattisgarh,Raipur,"AIIMS, Raipur - CECB",19-05-2024 04:00:00,21.258815,81.578979,SO2,NA,NA,NA
India,Chhattisgarh,Raipur,"Bhatagaon New ISBT, Raipur - CECB",19-05-2024 04:00:00,21.219665,81.630094,PM10,4,37,22
India,Chhattisgarh,Raipur,"Bhatagaon New ISBT, Raipur - CECB",19-05-2024 04:00:00,21.219665,81.630094,CO,10,18,13
India,Chhattisgarh,Raipur,"Bhatagaon New ISBT, Raipur - CECB",19-05-2024 04:00:00,21.219665,81.630094,OZONE,3,8,4
India,Chhattisgarh,Raipur,"Krishak Nagar, Raipur - CECB",19-05-2024 04:00:00,21.237755,81.705301,PM2.5,5,30,12
India,Chhattisgarh,Raipur,"Krishak Nagar, Raipur - CECB",19-05-2024 04:00:00,21.237755,81.705301,PM10,7,37,19
India,Chhattisgarh,Raipur,"Krishak Nagar, Raipur - CECB",19-05-2024 04:00:00,21.237755,81.705301,NO2,14,16,16
India,Chhattisgarh,Raipur,"Siltara Phase-II, Raipur - CECB",19-05-2024 04:00:00,21.371751,81.664929,SO2,3,57,17
India,Chhattisgarh,Raipur,"Siltara Phase-II, Raipur - CECB",19-05-2024 04:00:00,21.371751,81.664929,CO,6,32,17
India,Delhi,Delhi,"Anand Vihar, Delhi - DPCC",19-05-2024 04:00:00,28.647622,77.3158090,PM2.5,NA,NA,NA
India,Delhi,Delhi,"Ashok Vihar, Delhi - DPCC",19-05-2024 04:00:00,28.695381,77.181665,PM2.5,63,327,190
India,Delhi,Delhi,"Aya Nagar, Delhi - IMD",19-05-2024 04:00:00,28.4706914,77.1099364,PM10,40,288,169
India,Delhi,Delhi,"Bawana, Delhi - DPCC",19-05-2024 04:00:00,28.776200,77.051074,PM2.5,83,399,253
India,Delhi,Delhi,"Bawana, Delhi - DPCC",19-05-2024 04:00:00,28.776200,77.051074,SO2,11,94,44
India,Delhi,Delhi,"Bawana, Delhi - DPCC",19-05-2024 04:00:00,28.776200,77.051074,OZONE,2,196,34
India,Delhi,Delhi,"CRRI Mathura Road, Delhi - IMD",19-05-2024 04:00:00,28.5512005,77.2735737,NO2,8,27,18
India,Delhi,Delhi,"Chandni Chowk, Delhi - IITM",19-05-2024 04:00:00,28.656756,77.227234,NO2,10,51,18
India,Delhi,Delhi,"Dwarka-Sector 8, Delhi - DPCC ",19-05-2024 04:00:00,28.5710274,77.0719006,NO2,23,139,71
India,Delhi,Delhi,"IHBAS, Dilshad Garden, Delhi - CPCB",19-05-2024 04:00:00,28.6811736,77.3025234,PM2.5,74,230,142
India,Delhi,Delhi,"ITO, Delhi - CPCB",19-05-2024 04:00:00,28.628624,77.241060,NH3,4,9,6
India,Delhi,Delhi,"Jahangirpuri, Delhi - DPCC",19-05-2024 04:00:00,28.732820,77.170633,NH3,1,23,7
India,Delhi,Delhi,"Jahangirpuri, Delhi - DPCC",19-05-2024 04:00:00,28.732820,77.170633,OZONE,5,137,14
India,Delhi,Delhi,"Jawaharlal Nehru Stadium, Delhi - DPCC",19-05-2024 04:00:00,28.580280,77.233829,PM2.5,33,278,132
India,Delhi,Delhi,"Jawaharlal Nehru Stadium, Delhi - DPCC",19-05-2024 04:00:00,28.580280,77.233829,NO2,3,40,18
India,Delhi,Delhi,"Lodhi Road, Delhi - IMD",19-05-2024 04:00:00,28.5918245,77.2273074,PM10,125,248,178
India,Delhi,Delhi,"Lodhi Road, Delhi - IMD",19-05-2024 04:00:00,28.5918245,77.2273074,CO,14,54,36
India,Delhi,Delhi,"Mandir Marg, Delhi - DPCC",19-05-2024 04:00:00,28.636429,77.201067,PM2.5,70,311,192
India,Delhi,Delhi,"Mundka, Delhi - DPCC",19-05-2024 04:00:00,28.684678,77.076574,PM10,202,471,359
India,Delhi,Delhi,"Mundka, Delhi - DPCC",19-05-2024 04:00:00,28.684678,77.076574,NO2,25,128,81
India,Delhi,Delhi,"Mundka, Delhi - DPCC",19-05-2024 04:00:00,28.684678,77.076574,SO2,12,102,45
India,Delhi,Delhi,"Najafgarh, Delhi - DPCC",19-05-2024 04:00:00,28.570173,76.933762,PM10,120,420,219
India,Delhi,Delhi,"Najafgarh, Delhi - DPCC",19-05-2024 04:00:00,28.570173,76.933762,OZONE,15,148,35
India,Delhi,Delhi,"New Moti Bagh, Delhi - MHUA",19-05-2024 04:00:00,28.57834,77.18400,CO,29,123,90
India,Delhi,Delhi,"Pusa, Delhi - DPCC",19-05-2024 04:00:00,28.639652,77.146275,SO2,10,83,28
India,Delhi,Delhi,"Pusa, Delhi - IMD",19-05-2024 04:00:00,28.636110,77.173332,NO2,NA,NA,NA
India,Delhi,Delhi,"Rohini, Delhi - DPCC",19-05-2024 04:00:00,28.732528,77.119920,NO2,17,137,66
India,Delhi,Delhi,"Sirifort, Delhi - CPCB",19-05-2024 04:00:00,28.5504249,77.2159377,PM10,143,469,254
India,Delhi,Delhi,"Sirifort, Delhi - CPCB",19-05-2024 04:00:00,28.5504249,77.2159377,NH3,15,17,16
India,Delhi,Delhi,"Sonia Vihar, Delhi - DPCC",19-05-2024 04:00:00,28.710508,77.249485,PM2.5,75,339,215
India,Delhi,Delhi,"Sonia Vihar, Delhi - DPCC",19-05-2024 04:00:00,28.710508,77.249485,CO,51,117,82
India,Delhi,Delhi,"Vivek Vihar, Delhi - DPCC",19-05-2024 04:00:00,28.672342,77.315260,SO2,27,67,46
India,Delhi,Delhi,"Wazirpur, Delhi - DPCC",19-05-2024 04:00:00,28.699793,77.165453,NH3,8,15,12
India,Delhi,Delhi,"Wazirpur, Delhi - DPCC",19-05-2024 04:00:00,28.699793,77.165453,OZONE,2,232,19
India,Gujarat,Ahmedabad,"Gyaspur, Ahmedabad - IITM",19-05-2024 04:00:00,22.977134,72.553024,PM10,81,205,122
India,Gujarat,Ahmedabad,"Gyaspur, Ahmedabad - IITM",19-05-2024 04:00:00,22.977134,72.553024,NH3,5,7,6
India,Gujarat,Ahmedabad,"Maninagar, Ahmedabad - GPCB",19-05-2024 04:00:00,23.002657,72.591912,PM2.5,18,137,59
India,Gujarat,Ahmedabad,"Maninagar, Ahmedabad - GPCB",19-05-2024 04:00:00,23.002657,72.591912,NO2,32,122,56
India,Gujarat,Ahmedabad,"Raikhad, Ahmedabad - IITM",19-05-2024 04:00:00,23.020509,72.579261,NH3,6,48,18
India,Gujarat,Ahmedabad,"Rakhial, Ahmedabad - IITM",19-05-2024 04:00:00,23.016834,72.625775,OZONE,2,126,17
India,Gujarat,Ahmedabad,"SVPI Airport Hansol, Ahmedabad - IITM",19-05-2024 04:00:00,23.076793,72.627874,PM10,NA,NA,NA
India,Gujarat,Ahmedabad,"SVPI Airport Hansol, Ahmedabad - IITM",19-05-2024 04:00:00,23.076793,72.627874,CO,6,86,39
India,Gujarat,Ahmedabad,"Sardar Vallabhbhai Patel Stadium, Ahmedabad - IITM",19-05-2024 04:00:00,23.043070,72.562968,SO2,14,27,21
India,Gujarat,Ankleshwar,"GIDC, Ankleshwar - GPCB",19-05-2024 04:00:00,21.613267,73.010555,PM2.5,42,74,60
India,Gujarat,Ankleshwar,"GIDC, Ankleshwar - GPCB",19-05-2024 04:00:00,21.613267,73.010555,SO2,NA,NA,NA
India,Gujarat,Ankleshwar,"GIDC, Ankleshwar - GPCB",19-05-2024 04:00:00,21.613267,73.010555,CO,3,56,54
India,Gujarat,Ankleshwar,"GIDC, Ankleshwar - GPCB",19-05-2024 04:00:00,21.613267,73.010555,OZONE,21,37,28
India,Gujarat,Surat,"Science Center, Surat - SMC",19-05-2024 04:00:00,21.170046,72.795405,PM10,13,47,26
India,Gujarat,Vatva,"Phase-4 GIDC, Vatva - GPCB",19-05-2024 04:00:00,22.969611,72.643500,PM10,60,127,90
India,Gujarat,Vatva,"Phase-4 GIDC, Vatva - GPCB",19-05-2024 04:00:00,22.969611,72.643500,SO2,3,30,12
India,Haryana,Ambala,"Patti Mehar, Ambala - HSPCB",19-05-2024 04:00:00,30.379589,76.778328,SO2,28,35,32
India,Haryana,Bahadurgarh,"Arya Nagar, Bahadurgarh - HSPCB",19-05-2024 04:00:00,28.6701,76.9254,NO2,19,23,22
India,Haryana,Ballabgarh,"Nathu Colony, Ballabgarh - HSPCB",19-05-2024 04:00:00,28.3419248,77.319699,PM2.5,161,358,274
India,Haryana,Ballabgarh,"Nathu Colony, Ballabgarh - HSPCB",19-05-2024 04:00:00,28.3419248,77.319699,NH3,1,2,2
India,Haryana,Bhiwani,"H.B. Colony, Bhiwani - HSPCB",19-05-2024 04:00:00,28.806223,76.141105,PM2.5,100,294,184
India,Haryana,Bhiwani,"H.B. Colony, Bhiwani - HSPCB",19-05-2024 04:00:00,28.806223,76.141105,NH3,5,6,6
India,Haryana,Bhiwani,"H.B. Colony, Bhiwani - HSPCB",19-05-2024 04:00:00,28.806223,76.141105,SO2,3,22,8
India,Haryana,Bhiwani,"H.B. Colony, Bhiwani - HSPCB",19-05-2024 04:00:00,28.806223,76.141105,OZONE,13,27,17
India,Haryana,Charkhi Dadri,"Mini Secretariat, Charkhi Dadri - HSPCB",19-05-2024 04:00:00,28.593883,76.270653,PM2.5,72,144,104
India,Haryana,Dharuhera,"Municipal Corporation Office, Dharuhera -  HSPCB",19-05-2024 04:00:00,28.206800,76.799700,CO,16,72,43
India,Haryana,Faridabad,"New Industrial Town, Faridabad - HSPCB",19-05-2024 04:00:00,28.39072,77.30059,NO2,8,25,18
India,Haryana,Faridabad,"Sector 11, Faridabad - HSPCB",19-05-2024 04:00:00,28.376058,77.315741,NO2,30,32,31
India,Haryana,Faridabad,"Sector 11, Faridabad - HSPCB",19-05-2024 04:00:00,28.376058,77.315741,OZONE,5,30,10
India,Haryana,Faridabad,"Sector 30, Faridabad - HSPCB",19-05-2024 04:00:00,28.4417,77.3217,NH3,9,9,9
India,Haryana,Faridabad,"Sector- 16A, Faridabad - HSPCB",19-05-2024 04:00:00,28.4088421,77.3099081,SO2,NA,NA,NA
India,Haryana,Faridabad,"Sector- 16A, Faridabad - HSPCB",19-05-2024 04:00:00,28.4088421,77.3099081,OZONE,14,14,14
India,Haryana,Fatehabad,"Huda Sector, Fatehabad - HSPCB",19-05-2024 04:00:00,29.503664,75.467934,NH3,10,11,10
India,Haryana,Gurugram,"Sector-51, Gurugram - HSPCB",19-05-2024 04:00:00,28.4227,77.0667,OZONE,15,55,45
India,Haryana,Gurugram,"Teri Gram, Gurugram - HSPCB",19-05-2024 04:00:00,28.4275,77.1465,PM10,124,188,162
India,Haryana,Gurugram,"Teri Gram, Gurugram - HSPCB",19-05-2024 04:00:00,28.4275,77.1465,CO,13,48,36
India,Haryana,Gurugram,"Vikas Sadan, Gurugram - HSPCB",19-05-2024 04:00:00,28.4501238,77.0263051,PM2.5,80,304,195
India,Haryana,Jind,"Police Lines, Jind - HSPCB",19-05-2024 04:00:00,29.307814,76.337619,SO2,4,93,25
India,Haryana,Kaithal,"Rishi Nagar, Kaithal - HSPCB",19-05-2024 04:00:00,29.8006,76.4155,PM2.5,62,183,119
India,Haryana,Kaithal,"Rishi Nagar, Kaithal - HSPCB",19-05-2024 04:00:00,29.8006,76.4155,NH3,8,8,8
India,Haryana,Kaithal,"Rishi Nagar, Kaithal - HSPCB",19-05-2024 04:00:00,29.8006,76.4155,CO,15,89,64
India,Haryana,Karnal,"Sector-12, Karnal - HSPCB",19-05-2024 04:00:00,29.695300,77.002700,PM2.5,121,308,203
India,Haryana,Karnal,"Sector-12, Karnal - HSPCB",19-05-2024 04:00:00,29.695300,77.002700,SO2,12,13,13
India,Haryana,Kurukshetra,"Sector-7, Kurukshetra - HSPCB",19-05-2024 04:00:00,29.966942,76.875879,SO2,2,3,3
India,Haryana,Mandikhera,"General Hospital, Mandikhera - HSPCB",19-05-2024 04:00:00,27.9002,76.9938,NO2,NA,NA,NA
India,Haryana,Mandikhera,"General Hospital, Mandikhera - HSPCB",19-05-2024 04:00:00,27.9002,76.9938,CO,NA,NA,NA
India,Haryana,Manesar,"Sector-2 IMT, Manesar - HSPCB",19-05-2024 04:00:00,28.360699,76.936090,PM10,64,146,109
India,Haryana,Manesar,"Sector-2 IMT, Manesar - HSPCB",19-05-2024 04:00:00,28.360699,76.936090,NH3,1,4,2
India,Haryana,Narnaul,"Shastri Nagar, Narnaul - HSPCB",19-05-2024 04:00:00,28.060249,76.113115,PM10,98,157,121
India,Haryana,Palwal,"Shyam Nagar, Palwal - HSPCB",19-05-2024 04:00:00,28.1485564,77.3320667,NH3,8,9,9
India,Haryana,Panchkula,"Sector-6, Panchkula - HSPCB ",19-05-2024 04:00:00,30.7057778,76.8531805555555,SO2,2,43,12
India,Haryana,Panchkula,"Sector-6, Panchkula - HSPCB ",19-05-2024 04:00:00,30.7057778,76.8531805555555,OZONE,29,48,35
India,Haryana,Panipat,"Sector-18, Panipat - HSPCB",19-05-2024 04:00:00,29.432304,76.972765,PM2.5,101,132,112
India,Haryana,Panipat,"Sector-18, Panipat - HSPCB",19-05-2024 04:00:00,29.432304,76.972765,PM10,89,92,91
India,Haryana,Rohtak,"MD University, Rohtak - HSPCB",19-05-2024 04:00:00,28.52123,76.37138,OZONE,42,54,50
India,Haryana,Sirsa,"F-Block, Sirsa - HSPCB",19-05-2024 04:00:00,29.536400,75.015800,OZONE,NA,NA,NA
India,Haryana,Sonipat,"Murthal, Sonipat - HSPCB",19-05-2024 04:00:00,29.027200,77.062100,PM2.5,113,231,171
India,Haryana,Sonipat,"Murthal, Sonipat - HSPCB",19-05-2024 04:00:00,29.027200,77.062100,NH3,7,10,9
India,Haryana,Yamuna Nagar,"Gobind Pura, Yamuna Nagar - HSPCB",19-05-2024 04:00:00,30.1480566,77.2893471,NO2,11,20,17
India,Haryana,Yamuna Nagar,"Gobind Pura, Yamuna Nagar - HSPCB",19-05-2024 04:00:00,30.1480566,77.2893471,NH3,1,5,3
India,Haryana,Yamuna Nagar,"Gobind Pura, Yamuna Nagar - HSPCB",19-05-2024 04:00:00,30.1480566,77.2893471,CO,27,54,46
India,Himachal Pradesh,Baddi,"HIMUDA Complex Phase-1, Baddi - HPPCB",19-05-2024 04:00:00,30.943887,76.801991,SO2,2,84,37
India,Jharkhand,Dhanbad,"Kalakusuma, Dhanbad - DMC",19-05-2024 04:00:00,23.811548,86.481238,PM2.5,5,77,45
India,Jharkhand,Dhanbad,"Sardar Patel Nagar, Dhanbad - JSPCB",19-05-2024 04:00:00,23.80569,86.44268,SO2,3,16,7
India,Jharkhand,Pathardih,"Mohalbani Ghat, Pathardih - DMC",19-05-2024 04:00:00,23.669880,86.411725,NO2,NA,NA,NA
India,Karnataka,Bagalkot,"Vidayagiri, Bagalkot - KSPCB",19-05-2024 04:00:00,16.172806,75.659694,NO2,9,12,9
India,Karnataka,Bagalkot,"Vidayagiri, Bagalkot - KSPCB",19-05-2024 04:00:00,16.172806,75.659694,NH3,1,2,1
India,Karnataka,Belgaum,"Ramteerth Nagar, Belgaum - KSPCB",19-05-2024 04:00:00,15.888653,74.541751,NH3,6,11,9
India,Karnataka,Belgaum,"Ramteerth Nagar, Belgaum - KSPCB",19-05-2024 04:00:00,15.888653,74.541751,SO2,9,9,9
India,Karnataka,Belgaum,"Ramteerth Nagar, Belgaum - KSPCB",19-05-2024 04:00:00,15.888653,74.541751,CO,24,43,33
India,Karnataka,Bengaluru,"Bapuji Nagar, Bengaluru - KSPCB",19-05-2024 04:00:00,12.951913,77.539784,OZONE,8,24,23
India,Karnataka,Bengaluru,"Hebbal, Bengaluru - KSPCB",19-05-2024 04:00:00,13.029152,77.585901,NO2,5,5,5
India,Karnataka,Bengaluru,"Hebbal, Bengaluru - KSPCB",19-05-2024 04:00:00,13.029152,77.585901,SO2,16,24,21
India,Karnataka,Bengaluru,"Hombegowda Nagar, Bengaluru - KSPCB",19-05-2024 04:00:00,12.938539,77.590100,PM10,22,62,39
India,Karnataka,Bengaluru,"Hombegowda Nagar, Bengaluru - KSPCB",19-05-2024 04:00:00,12.938539,77.590100,NH3,1,2,2
India,Karnataka,Bengaluru,"Hombegowda Nagar, Bengaluru - KSPCB",19-05-2024 04:00:00,12.938539,77.590100,SO2,2,4,3
India,Karnataka,Bengaluru,"Kasturi Nagar, Bengaluru - KSPCB",19-05-2024 04:00:00,13.003872,77.664217,NO2,16,17,17
India,Karnataka,Bengaluru,"Peenya, Bengaluru - CPCB",19-05-2024 04:00:00,13.0270199,77.494094,PM10,NA,NA,NA
India,Karnataka,Bengaluru,"RVCE-Mailasandra, Bengaluru - KSPCB",19-05-2024 04:00:00,12.921418,77.502466,NO2,17,17,17
India,Karnataka,Bengaluru,"RVCE-Mailasandra, Bengaluru - KSPCB",19-05-2024 04:00:00,12.921418,77.502466,OZONE,39,39,39
India,Karnataka,Bengaluru,"Shivapura_Peenya, Bengaluru - KSPCB",19-05-2024 04:00:00,13.0246342,77.5080115,OZONE,53,56,54
India,Karnataka,Bengaluru,"Silk Board, Bengaluru - KSPCB",19-05-2024 04:00:00,12.917348,77.622813,NO2,NA,NA,NA
India,Karnataka,Bengaluru,"Silk Board, Bengaluru - KSPCB",19-05-2024 04:00:00,12.917348,77.622813,CO,8,14,11
India,Karnataka,Chamarajanagar,"Urban, Chamarajanagar - KSPCB",19-05-2024 04:00:00,11.55358,76.55521,PM2.5,20,45,28
India,Karnataka,Chamarajanagar,"Urban, Chamarajanagar - KSPCB",19-05-2024 04:00:00,11.55358,76.55521,SO2,2,7,4
India,Karnataka,Chamarajanagar,"Urban, Chamarajanagar - KSPCB",19-05-2024 04:00:00,11.55358,76.55521,OZONE,14,34,17
India,Karnataka,Chikkaballapur,"Chikkaballapur Rural, Chikkaballapur - KSPCB",19-05-2024 04:00:00,13.428828,77.731418,PM10,17,51,32
India,Karnataka,Chikkaballapur,"Chikkaballapur Rural, Chikkaballapur - KSPCB",19-05-2024 04:00:00,13.428828,77.731418,NH3,1,2,1
India,Karnataka,Chikkaballapur,"Chikkaballapur Rural, Chikkaballapur - KSPCB",19-05-2024 04:00:00,13.428828,77.731418,CO,12,31,16
India,Karnataka,Davanagere,"Devaraj Urs Badavane, Davanagere - KSPCB",19-05-2024 04:00:00,14.475800,75.905200,CO,12,24,19
India,Karnataka,Gadag,"Panchal Nagar, Gadag - KSPCB",19-05-2024 04:00:00,15.411456,75.638133,NH3,NA,NA,NA
India,Karnataka,Hassan,"B.Katihalli, Hassan - KSPCB",19-05-2024 04:00:00,13.008556,76.125258,NO2,NA,NA,NA
India,Karnataka,Haveri,"Ashwini Nagar, Haveri - KSPCB",19-05-2024 04:00:00,14.791800,75.389600,PM10,NA,NA,NA
India,Karnataka,Hubballi,"Deshpande Nagar, Hubballi - KSPCB",19-05-2024 04:00:00,15.351773,75.140726,NH3,NA,NA,NA
India,Karnataka,Hubballi,"Lingaraj Nagar, Hubballi - KSPCB",19-05-2024 04:00:00,15.3714823,75.1160168,OZONE,34,78,52
India,Karnataka,Kalaburagi,"Lal Bahadur Shastri Nagar, Kalaburagi - KSPCB",19-05-2024 04:00:00,17.321993,76.822628,PM10,NA,NA,NA
India,Karnataka,Kalaburagi,"Mahatma Basaveswar Colony, Kalaburgi - KSPCB",19-05-2024 04:00:00,17.336318,76.847397,OZONE,5,28,22
India,Karnataka,Karwar,"KHB Colony, Karwar - KSPCB",19-05-2024 04:00:00,14.816666,74.141003,PM2.5,NA,NA,NA
India,Karnataka,Karwar,"KHB Colony, Karwar - KSPCB",19-05-2024 04:00:00,14.816666,74.141003,SO2,NA,NA,NA
India,Karnataka,Koppal,"Diwator Nagar, Koppal - KSPCB",19-05-2024 04:00:00,15.347630,76.181767,NH3,6,9,8
India,Karnataka,Madikeri,"Stuart Hill, Madikeri - KSPCB",19-05-2024 04:00:00,12.415911,75.735050,NO2,2,8,4
India,Karnataka,Madikeri,"Stuart Hill, Madikeri - KSPCB",19-05-2024 04:00:00,12.415911,75.735050,NH3,1,1,1
India,Karnataka,Mangalore,"Kadri, Mangalore - KSPCB",19-05-2024 04:00:00,12.889250,74.853000,CO,41,48,43
India,Karnataka,Mangalore,"Kadri, Mangalore - KSPCB",19-05-2024 04:00:00,12.889250,74.853000,OZONE,31,35,32
India,Karnataka,Mysuru,"Hebbal 1st Stage, Mysuru - KSPCB",19-05-2024 04:00:00,12.21041,76.37376,PM10,NA,NA,NA
India,Karnataka,Mysuru,"Hebbal 1st Stage, Mysuru - KSPCB",19-05-2024 04:00:00,12.21041,76.37376,SO2,NA,NA,NA
India,Karnataka,Raichur,"Haji Colony, Raichur - KSPCB",19-05-2024 04:00:00,16.208139,77.348417,PM10,10,98,34
India,Karnataka,Raichur,"Haji Colony, Raichur - KSPCB",19-05-2024 04:00:00,16.208139,77.348417,OZONE,3,17,8
India,Karnataka,Ramanagara,"Vijay Nagar, Ramanagara - KSPCB",19-05-2024 04:00:00,12.733409,77.298051,SO2,31,50,39
India,Karnataka,Shivamogga,"Vinoba Nagara, Shivamogga - KSPCB",19-05-2024 04:00:00,13.940000,75.555917,OZONE,7,61,37
India,Karnataka,Udupi,"Brahmagiri, Udupi - KSPCB",19-05-2024 04:00:00,13.34194444,74.74694444,OZONE,23,24,23
India,Karnataka,Vijayapura,"Ibrahimpur, Vijayapura - KSPCB",19-05-2024 04:00:00,16.802639,75.722694,NO2,17,19,19
India,Karnataka,Yadgir,"Collector Office, Yadgir - KSPCB",19-05-2024 04:00:00,16.7602,77.1428,NO2,2,12,5
India,Kerala,Kollam,"Polayathode, Kollam - Kerala PCB",19-05-2024 04:00:00,8.8787,76.6073,NO2,8,9,8
India,Kerala,Thiruvananthapuram,"Kariavattom, Thiruvananthapuram - Kerala PCB",19-05-2024 04:00:00,8.563700,76.886500,NO2,8,10,9
India,Madhya Pradesh,Bhopal,"Idgah Hills, Bhopal - MPPCB",19-05-2024 04:00:00,23.264759,77.381568,CO,12,46,25
India,Madhya Pradesh,Bhopal,"Idgah Hills, Bhopal - MPPCB",19-05-2024 04:00:00,23.264759,77.381568,OZONE,55,131,83
India,Madhya Pradesh,Bhopal,"Paryavaran Parisar, Bhopal - MPPCB",19-05-2024 04:00:00,23.210494,77.425409,NO2,11,47,20
India,Madhya Pradesh,Bhopal,"Paryavaran Parisar, Bhopal - MPPCB",19-05-2024 04:00:00,23.210494,77.425409,NH3,4,6,5
India,Madhya Pradesh,Bhopal,"T T Nagar, Bhopal - MPPCB",19-05-2024 04:00:00,23.233584,77.400574,NO2,30,48,39
India,Madhya Pradesh,Bhopal,"T T Nagar, Bhopal - MPPCB",19-05-2024 04:00:00,23.233584,77.400574,CO,7,44,34
India,Madhya Pradesh,Dewas,"Bhopal Chauraha, Dewas - MPPCB",19-05-2024 04:00:00,22.9682591,76.064118,SO2,14,39,26
India,Madhya Pradesh,Gwalior,"City Center, Gwalior - MPPCB",19-05-2024 04:00:00,26.203442,78.193251,PM2.5,32,239,95
India,Madhya Pradesh,Gwalior,"City Center, Gwalior - MPPCB",19-05-2024 04:00:00,26.203442,78.193251,SO2,8,103,45
India,Madhya Pradesh,Indore,"Maguda Nagar, Indore - IMC",19-05-2024 04:00:00,22.7524,75.8872,CO,22,32,27
India,Madhya Pradesh,Indore,"Regional Park, Indore - IMC",19-05-2024 04:00:00,22.6780,75.8559,OZONE,11,29,19
India,Madhya Pradesh,Katni,"Gole Bazar, Katni - MPPCB",19-05-2024 04:00:00,23.50016,80.23284,PM2.5,20,78,50
India,Madhya Pradesh,Maihar,"Sahilara, Maihar - KJS Cements",19-05-2024 04:00:00,24.2613009,80.7231783,PM2.5,2,105,46
India,Madhya Pradesh,Pithampur,"Sector-2 Industrial Area, Pithampur - MPPCB",19-05-2024 04:00:00,22.624758,75.675238,PM10,46,237,108
India,Madhya Pradesh,Pithampur,"Sector-2 Industrial Area, Pithampur - MPPCB",19-05-2024 04:00:00,22.624758,75.675238,NH3,2,3,3
India,Madhya Pradesh,Satna,"Bandhavgar Colony, Satna - Birla Cement",19-05-2024 04:00:00,24.58434363,80.8549414,CO,41,100,64
India,Madhya Pradesh,Singrauli,"Suryakiran Bhawan NCL, Singrauli - MPPCB",19-05-2024 04:00:00,24.108970,82.645580,NO2,12,46,20
India,Maharashtra,Ahmednagar,"Tarakpur, Ahmednagar - MPCB",19-05-2024 04:00:00,19.10122,74.73339,PM2.5,41,103,74
India,Maharashtra,Ahmednagar,"Tarakpur, Ahmednagar - MPCB",19-05-2024 04:00:00,19.10122,74.73339,NH3,1,9,6
India,Maharashtra,Akola,"Ramdaspeth, Akola - MPCB",19-05-2024 04:00:00,20.719516,77.000253,NO2,7,61,21
India,Maharashtra,Akola,"Ramdaspeth, Akola - MPCB",19-05-2024 04:00:00,20.719516,77.000253,SO2,10,12,11
India,Maharashtra,Amravati,"Shivneri Colony, Amravati - MPCB",19-05-2024 04:00:00,20.9402359,77.7895248,SO2,1,4,1
India,Maharashtra,Amravati,"Shri Shivaji Science College, Amaravati - MPCB",19-05-2024 04:00:00,20.939198,77.765701,NO2,8,56,16
India,Maharashtra,Amravati,"Shri Shivaji Science College, Amaravati - MPCB",19-05-2024 04:00:00,20.939198,77.765701,OZONE,2,76,30
India,Maharashtra,Aurangabad,"MIDC Chilkalthana, Aurangabad - MPCB",19-05-2024 04:00:00,19.875620,75.387310,PM2.5,NA,NA,NA
India,Maharashtra,Aurangabad,"MIDC Chilkalthana, Aurangabad - MPCB",19-05-2024 04:00:00,19.875620,75.387310,PM10,76,125,103
India,Maharashtra,Aurangabad,"MIDC Chilkalthana, Aurangabad - MPCB",19-05-2024 04:00:00,19.875620,75.387310,SO2,1,8,4
India,Maharashtra,Aurangabad,"MIDC Chilkalthana, Aurangabad - MPCB",19-05-2024 04:00:00,19.875620,75.387310,CO,38,66,48
India,Maharashtra,Aurangabad,"MIDC Chilkalthana, Aurangabad - MPCB",19-05-2024 04:00:00,19.875620,75.387310,OZONE,1,72,9
India,Maharashtra,Aurangabad,"More Chowk Waluj, Aurangabad - MPCB",19-05-2024 04:00:00,19.8389439,75.244448,NO2,40,47,43
India,Maharashtra,Aurangabad,"More Chowk Waluj, Aurangabad - MPCB",19-05-2024 04:00:00,19.8389439,75.244448,SO2,1,7,4
India,Maharashtra,Aurangabad,"More Chowk Waluj, Aurangabad - MPCB",19-05-2024 04:00:00,19.8389439,75.244448,CO,16,92,53
India,Maharashtra,Aurangabad,"Rachnakar Colony, Aurangabad - MPCB",19-05-2024 04:00:00,19.863756,75.321188,OZONE,31,102,35
India,Maharashtra,Badlapur,"Katrap, Badlapur - MPCB",19-05-2024 04:00:00,19.16485,73.23409,NO2,3,5,4
India,Maharashtra,Belapur,"CBD Belapur, Belapur - MPCB",19-05-2024 04:00:00,19.0243902,73.0406721,PM10,83,121,101
India,Maharashtra,Belapur,"CBD Belapur, Belapur - MPCB",19-05-2024 04:00:00,19.0243902,73.0406721,SO2,1,8,5
India,Maharashtra,Belapur,"CBD Belapur, Belapur - MPCB",19-05-2024 04:00:00,19.0243902,73.0406721,CO,NA,NA,NA
India,Maharashtra,Bhiwandi,"Gokul Nagar, Bhiwandi - MPCB",19-05-2024 04:00:00,19.309073,73.057223,NO2,14,42,24
India,Maharashtra,Boisar,"Khaira, Boisar - MPCB",19-05-2024 04:00:00,19.786089,72.757971,CO,6,28,17
India,Maharashtra,Boisar,"Khaira, Boisar - MPCB",19-05-2024 04:00:00,19.786089,72.757971,OZONE,23,49,37
India,Maharashtra,Chandrapur,"Chauhan Colony, Chandrapur - MPCB",19-05-2024 04:00:00,19.962900,79.298714,PM10,NA,NA,NA
India,Maharashtra,Chandrapur,"MIDC Khutala, Chandrapur - MPCB",19-05-2024 04:00:00,19.9775302,79.2337086,OZONE,3,45,18
India,Maharashtra,Jalna,"Old MIDC, Jalna - MPCB",19-05-2024 04:00:00,19.854616,75.905894,PM2.5,30,57,45
India,Maharashtra,Jalna,"Old MIDC, Jalna - MPCB",19-05-2024 04:00:00,19.854616,75.905894,OZONE,1,140,51
India,Maharashtra,Kalyan,"Khadakpada, Kalyan - MPCB",19-05-2024 04:00:00,19.25292,73.142019,PM10,81,125,104
India,Maharashtra,Kalyan,"Khadakpada, Kalyan - MPCB",19-05-2024 04:00:00,19.25292,73.142019,NO2,22,160,63
India,Maharashtra,Kalyan,"Khadakpada, Kalyan - MPCB",19-05-2024 04:00:00,19.25292,73.142019,SO2,21,114,50
India,Maharashtra,Kolhapur,"Shivaji University, Kolhapur - MPCB",19-05-2024 04:00:00,16.6870449,74.2505872,SO2,2,5,3
India,Maharashtra,Kolhapur,"Sinchan Bhavan, Kolhapur - MPCB",19-05-2024 04:00:00,16.7143745,74.2426398,PM2.5,24,37,31
India,Maharashtra,Kolhapur,"Sinchan Bhavan, Kolhapur - MPCB",19-05-2024 04:00:00,16.7143745,74.2426398,NO2,6,44,18
India,Maharashtra,Kolhapur,"Sinchan Bhavan, Kolhapur - MPCB",19-05-2024 04:00:00,16.7143745,74.2426398,OZONE,43,141,79
India,Maharashtra,Latur,"Sawe Wadi, Latur - MPCB",19-05-2024 04:00:00,18.39963,76.57452,PM10,30,196,61
India,Maharashtra,Latur,"Sawe Wadi, Latur - MPCB",19-05-2024 04:00:00,18.39963,76.57452,CO,2,86,35
India,Maharashtra,Mahad,"Kamble Tarf Birwadi, Mahad - MPCB",19-05-2024 04:00:00,18.1023399,73.4783687,OZONE,6,79,42
India,Maharashtra,Mumbai,"Bandra Kurla Complex, Mumbai - MPCB",19-05-2024 04:00:00,19.065931,72.862131,CO,28,40,35
India,Maharashtra,Mumbai,"Borivali East, Mumbai - MPCB",19-05-2024 04:00:00,19.2243333,72.8658113,PM2.5,15,45,27
India,Maharashtra,Mumbai,"Borivali East, Mumbai - MPCB",19-05-2024 04:00:00,19.2243333,72.8658113,PM10,27,89,60
India,Maharashtra,Mumbai,"Byculla, Mumbai - BMC",19-05-2024 04:00:00,18.9767,72.8380,PM2.5,12,26,18
India,Maharashtra,Mumbai,"Byculla, Mumbai - BMC",19-05-2024 04:00:00,18.9767,72.8380,NO2,5,8,6
India,Maharashtra,Mumbai,"Byculla, Mumbai - BMC",19-05-2024 04:00:00,18.9767,72.8380,NH3,1,2,2
India,Maharashtra,Mumbai,"Byculla, Mumbai - BMC",19-05-2024 04:00:00,18.9767,72.8380,OZONE,10,55,46
India,Maharashtra,Mumbai,"Chakala-Andheri East, Mumbai - IITM",19-05-2024 04:00:00,19.11074,72.86084,NH3,6,13,8
India,Maharashtra,Mumbai,"Chakala-Andheri East, Mumbai - IITM",19-05-2024 04:00:00,19.11074,72.86084,CO,1,14,4
India,Maharashtra,Mumbai,"Chakala-Andheri East, Mumbai - IITM",19-05-2024 04:00:00,19.11074,72.86084,OZONE,4,52,29
India,Maharashtra,Mumbai,"Chembur, Mumbai - MPCB",19-05-2024 04:00:00,19.0364585,72.8954371,PM10,60,93,73
India,Maharashtra,Mumbai,"Chembur, Mumbai - MPCB",19-05-2024 04:00:00,19.0364585,72.8954371,OZONE,6,82,26
India,Maharashtra,Mumbai,"Chhatrapati Shivaji Intl. Airport (T2), Mumbai - MPCB",19-05-2024 04:00:00,19.10078,72.87462,PM10,64,101,84
India,Maharashtra,Mumbai,"Chhatrapati Shivaji Intl. Airport (T2), Mumbai - MPCB",19-05-2024 04:00:00,19.10078,72.87462,CO,30,45,41
India,Maharashtra,Mumbai,"Colaba, Mumbai - MPCB",19-05-2024 04:00:00,18.910000,72.820000,NH3,1,1,1
India,Maharashtra,Mumbai,"Deonar, Mumbai - IITM",19-05-2024 04:00:00,19.04946,72.9230,PM2.5,43,174,85
India,Maharashtra,Mumbai,"Deonar, Mumbai - IITM",19-05-2024 04:00:00,19.04946,72.9230,NO2,5,13,7
India,Maharashtra,Mumbai,"Ghatkopar, Mumbai - BMC",19-05-2024 04:00:00,19.083694,72.920967,NH3,2,10,4
India,Maharashtra,Mumbai,"Kandivali East, Mumbai - MPCB",19-05-2024 04:00:00,19.205800,72.868200,PM2.5,27,500,181
India,Maharashtra,Mumbai,"Kandivali East, Mumbai - MPCB",19-05-2024 04:00:00,19.205800,72.868200,PM10,91,500,287
India,Maharashtra,Mumbai,"Kandivali East, Mumbai - MPCB",19-05-2024 04:00:00,19.205800,72.868200,SO2,8,10,9
India,Maharashtra,Mumbai,"Kandivali East, Mumbai - MPCB",19-05-2024 04:00:00,19.205800,72.868200,OZONE,25,139,31
India,Maharashtra,Mumbai,"Kandivali West, Mumbai - BMC",19-05-2024 04:00:00,19.215859,72.831718,NO2,7,20,11
India,Maharashtra,Mumbai,"Kandivali West, Mumbai - BMC",19-05-2024 04:00:00,19.215859,72.831718,OZONE,21,51,33
India,Maharashtra,Mumbai,"Kherwadi_Bandra East, Mumbai - MPCB",19-05-2024 04:00:00,19.0632143,72.8456324,PM10,54,97,72
India,Maharashtra,Mumbai,"Kherwadi_Bandra East, Mumbai - MPCB",19-05-2024 04:00:00,19.0632143,72.8456324,NO2,5,19,10
India,Maharashtra,Mumbai,"Kherwadi_Bandra East, Mumbai - MPCB",19-05-2024 04:00:00,19.0632143,72.8456324,SO2,9,12,10
India,Maharashtra,Mumbai,"Khindipada-Bhandup West, Mumbai - IITM",19-05-2024 04:00:00,19.1653323,72.922099,CO,2,67,9
India,Maharashtra,Mumbai,"Khindipada-Bhandup West, Mumbai - IITM",19-05-2024 04:00:00,19.1653323,72.922099,OZONE,2,24,7
India,Maharashtra,Mumbai,"Kurla, Mumbai - MPCB",19-05-2024 04:00:00,19.0863,72.8888,NO2,14,18,16
India,Maharashtra,Mumbai,"Mindspace-Malad West, Mumbai - MPCB",19-05-2024 04:00:00,19.1878657,72.8304069,NO2,5,40,11
India,Maharashtra,Mumbai,"Mindspace-Malad West, Mumbai - MPCB",19-05-2024 04:00:00,19.1878657,72.8304069,NH3,6,7,6
India,Maharashtra,Mumbai,"Mulund West, Mumbai - MPCB",19-05-2024 04:00:00,19.1750,72.9419,PM2.5,47,123,66
India,Maharashtra,Mumbai,"Mulund West, Mumbai - MPCB",19-05-2024 04:00:00,19.1750,72.9419,NO2,15,21,19
India,Maharashtra,Mumbai,"Mulund West, Mumbai - MPCB",19-05-2024 04:00:00,19.1750,72.9419,SO2,12,13,12
India,Maharashtra,Mumbai,"Mulund West, Mumbai - MPCB",19-05-2024 04:00:00,19.1750,72.9419,CO,39,39,39
India,Maharashtra,Mumbai,"Navy Nagar-Colaba, Mumbai - IITM",19-05-2024 04:00:00,18.897756,72.813320,NO2,62,143,126
India,Maharashtra,Mumbai,"Powai, Mumbai - MPCB",19-05-2024 04:00:00,19.137500,72.915056,NH3,NA,NA,NA
India,Maharashtra,Mumbai,"Siddharth Nagar-Worli, Mumbai - IITM",19-05-2024 04:00:00,19.000083,72.813993,PM10,65,121,93
India,Maharashtra,Mumbai,"Sion, Mumbai - MPCB",19-05-2024 04:00:00,19.047000,72.874600,NH3,2,2,2
India,Maharashtra,Mumbai,"Sion, Mumbai - MPCB",19-05-2024 04:00:00,19.047000,72.874600,SO2,33,35,34
India,Maharashtra,Mumbai,"Vasai West, Mumbai - MPCB",19-05-2024 04:00:00,19.383200,72.820400,PM10,76,126,101
India,Maharashtra,Nagpur,"Mahal, Nagpur - MPCB",19-05-2024 04:00:00,21.14472,79.107595,NO2,3,32,14
India,Maharashtra,Nagpur,"Mahal, Nagpur - MPCB",19-05-2024 04:00:00,21.14472,79.107595,SO2,1,31,15
India,Maharashtra,Nashik,"Gangapur Road, Nashik - MPCB",19-05-2024 04:00:00,20.0073285,73.7762427,PM2.5,49,82,68
India,Maharashtra,Nashik,"Hirawadi, Nashik - MPCB",19-05-2024 04:00:00,20.021503,73.813844,PM2.5,35,74,56
India,Maharashtra,Nashik,"MIDC Ambad, Nashik - MPCB",19-05-2024 04:00:00,19.950220,73.731480,SO2,NA,NA,NA
India,Maharashtra,Nashik,"MIDC Ambad, Nashik - MPCB",19-05-2024 04:00:00,19.950220,73.731480,OZONE,55,73,60
India,Maharashtra,Nashik,"Pandav Nagari, Nashik - MPCB",19-05-2024 04:00:00,19.9591346,73.7788008,NH3,2,11,5
India,Maharashtra,Nashik,"Pandav Nagari, Nashik - MPCB",19-05-2024 04:00:00,19.9591346,73.7788008,CO,14,30,23
India,Maharashtra,Nashik,"Pandav Nagari, Nashik - MPCB",19-05-2024 04:00:00,19.9591346,73.7788008,OZONE,11,119,29
India,Maharashtra,Navi Mumbai,"Kopripada-Vashi, Navi Mumbai - MPCB",19-05-2024 04:00:00,19.090337,73.014232,NO2,28,71,36
India,Maharashtra,Navi Mumbai,"Nerul, Navi Mumbai - MPCB",19-05-2024 04:00:00,19.008751,73.016620,NO2,35,47,40
India,Maharashtra,Navi Mumbai,"Nerul, Navi Mumbai - MPCB",19-05-2024 04:00:00,19.008751,73.016620,SO2,24,24,24
India,Maharashtra,Navi Mumbai,"Sanpada, Navi Mumbai - MPCB",19-05-2024 04:00:00,19.0575752,73.0151367,PM10,57,117,83
India,Maharashtra,Navi Mumbai,"Sanpada, Navi Mumbai - MPCB",19-05-2024 04:00:00,19.0575752,73.0151367,NO2,1,31,13
India,Maharashtra,Navi Mumbai,"Sanpada, Navi Mumbai - MPCB",19-05-2024 04:00:00,19.0575752,73.0151367,OZONE,6,83,38
India,Maharashtra,Navi Mumbai,"Sector-19A Nerul, Navi Mumbai - IITM",19-05-2024 04:00:00,19.044,73.0325,PM10,NA,NA,NA
India,Maharashtra,Navi Mumbai,"Sector-19A Nerul, Navi Mumbai - IITM",19-05-2024 04:00:00,19.044,73.0325,SO2,2,14,6
India,Maharashtra,Navi Mumbai,"Sector-2E Kalamboli, Navi Mumbai - MPCB",19-05-2024 04:00:00,19.02579,73.10297,CO,2,22,8
India,Maharashtra,Navi Mumbai,"Tondare-Taloja, Navi Mumbai - MPCB",19-05-2024 04:00:00,19.0630,73.1209,SO2,NA,NA,NA
India,Maharashtra,Navi Mumbai,"Tondare-Taloja, Navi Mumbai - MPCB",19-05-2024 04:00:00,19.0630,73.1209,OZONE,2,85,4
India,Maharashtra,Parbhani,"Masoom Colony, Parbhani - MPCB",19-05-2024 04:00:00,19.265594,76.761463,NO2,17,56,30
India,Maharashtra,Parbhani,"Masoom Colony, Parbhani - MPCB",19-05-2024 04:00:00,19.265594,76.761463,NH3,5,7,6
India,Maharashtra,Parbhani,"Masoom Colony, Parbhani - MPCB",19-05-2024 04:00:00,19.265594,76.761463,CO,22,62,37
India,Maharashtra,Parbhani,"Masoom Colony, Parbhani - MPCB",19-05-2024 04:00:00,19.265594,76.761463,OZONE,10,154,37
India,Maharashtra,Pimpri-Chinchwad,"Gavalinagar, Pimpri Chinchwad - MPCB",19-05-2024 04:00:00,18.63673,73.82487,NO2,12,57,28
India,Maharashtra,Pimpri-Chinchwad,"Gavalinagar, Pimpri Chinchwad - MPCB",19-05-2024 04:00:00,18.63673,73.82487,CO,16,42,24
India,Maharashtra,Pimpri-Chinchwad,"Gavalinagar, Pimpri Chinchwad - MPCB",19-05-2024 04:00:00,18.63673,73.82487,OZONE,3,154,64
India,Maharashtra,Pimpri-Chinchwad,"Park Street Wakad, Pimpri Chinchwad - MPCB",19-05-2024 04:00:00,18.59051,73.77946,PM2.5,83,163,117
India,Maharashtra,Pimpri-Chinchwad,"Park Street Wakad, Pimpri Chinchwad - MPCB",19-05-2024 04:00:00,18.59051,73.77946,NH3,4,7,5
India,Maharashtra,Pimpri-Chinchwad,"Thergaon, Pimpri Chinchwad - MPCB",19-05-2024 04:00:00,18.616318,73.765797,PM2.5,48,96,70
India,Maharashtra,Pimpri-Chinchwad,"Thergaon, Pimpri Chinchwad - MPCB",19-05-2024 04:00:00,18.616318,73.765797,PM10,45,91,67
India,Maharashtra,Pimpri-Chinchwad,"Thergaon, Pimpri Chinchwad - MPCB",19-05-2024 04:00:00,18.616318,73.765797,SO2,2,4,3
India,Maharashtra,Pune,"Bhosari, Pune - IITM",19-05-2024 04:00:00,18.640051,73.848956,OZONE,6,98,49
India,Maharashtra,Pune,"Mhada Colony, Pune - IITM",19-05-2024 04:00:00,18.573040,73.927715,PM2.5,46,86,60
India,Maharashtra,Pune,"Revenue Colony-Shivajinagar, Pune - IITM",19-05-2024 04:00:00,18.530085,73.849598,NO2,33,118,70
India,Maharashtra,Pune,"Savitribai Phule Pune University, Pune - MPCB",19-05-2024 04:00:00,18.547056,73.826908,OZONE,4,249,60
India,Maharashtra,Pune,"Transport Nagar-Nigdi, Pune - IITM",19-05-2024 04:00:00,18.664282,73.763966,NO2,2,59,10
India,Maharashtra,Sangli,"Vijay Nagar, Sangli - MPCB",19-05-2024 04:00:00, 16.5038,74.3623,NH3,2,4,3
India,Maharashtra,Solapur,"Dnyaneshwar Nagar, Solapur - MPCB",19-05-2024 04:00:00,17.6336264,75.9132495,CO,9,26,12
India,Maharashtra,Thane,"Kasarvadavali, Thane - MPCB",19-05-2024 04:00:00,19.26777,72.97182,PM2.5,33,71,50
India,Maharashtra,Thane,"Kasarvadavali, Thane - MPCB",19-05-2024 04:00:00,19.26777,72.97182,NH3,3,7,5
India,Maharashtra,Thane,"Kasarvadavali, Thane - MPCB",19-05-2024 04:00:00,19.26777,72.97182,SO2,1,1,1
India,Maharashtra,Thane,"Kasarvadavali, Thane - MPCB",19-05-2024 04:00:00,19.26777,72.97182,CO,8,36,16
India,Maharashtra,Thane,"Pimpleshwar Mandir, Thane - MPCB",19-05-2024 04:00:00,19.192056,72.9585188,NH3,2,5,3
India,Maharashtra,Thane,"Pimpleshwar Mandir, Thane - MPCB",19-05-2024 04:00:00,19.192056,72.9585188,OZONE,2,80,12
India,Maharashtra,Ulhasnagar,"Sidhi Vinayak Nagar, Ulhasnagar - MPCB",19-05-2024 04:00:00,19.235581,73.159121,PM2.5,63,132,91
India,Maharashtra,Ulhasnagar,"Sidhi Vinayak Nagar, Ulhasnagar - MPCB",19-05-2024 04:00:00,19.235581,73.159121,PM10,69,120,103
India,Maharashtra,Ulhasnagar,"Sidhi Vinayak Nagar, Ulhasnagar - MPCB",19-05-2024 04:00:00,19.235581,73.159121,NO2,10,30,15
India,Maharashtra,Ulhasnagar,"Sidhi Vinayak Nagar, Ulhasnagar - MPCB",19-05-2024 04:00:00,19.235581,73.159121,SO2,10,16,12
India,Maharashtra,Virar,"Bolinj, Virar - MPCB",19-05-2024 04:00:00,19.4458210,72.7988231,NH3,3,9,6
India,Manipur,Imphal,"DM College of Science, Imphal - Manipur PCB",19-05-2024 04:00:00,24.8207389,93.9423085,PM2.5,12,39,21
India,Manipur,Imphal,"DM College of Science, Imphal - Manipur PCB",19-05-2024 04:00:00,24.8207389,93.9423085,PM10,12,61,24
India,Manipur,Imphal,"DM College of Science, Imphal - Manipur PCB",19-05-2024 04:00:00,24.8207389,93.9423085,NO2,7,8,7
India,Manipur,Imphal,"DM College of Science, Imphal - Manipur PCB",19-05-2024 04:00:00,24.8207389,93.9423085,SO2,98,101,100
India,Manipur,Imphal,"DM College of Science, Imphal - Manipur PCB",19-05-2024 04:00:00,24.8207389,93.9423085,CO,6,6,6
India,Meghalaya,Shillong,"Lumpyngngad, Shillong - Meghalaya PCB",19-05-2024 04:00:00,25.5586,91.8985,OZONE,9,61,25
India,Mizoram,Aizawl,"Sikulpuikawn, Aizawl - Mizoram PCB",19-05-2024 04:00:00,23.7176342,92.7192841,NO2,NA,NA,NA
India,Mizoram,Aizawl,"Sikulpuikawn, Aizawl - Mizoram PCB",19-05-2024 04:00:00,23.7176342,92.7192841,NH3,NA,NA,NA
India,Nagaland,Kohima,"PWD Juction, Kohima - NPCB",19-05-2024 04:00:00,25.6635413,94.0989878,PM10,37,115,75
India,Nagaland,Kohima,"PWD Juction, Kohima - NPCB",19-05-2024 04:00:00,25.6635413,94.0989878,SO2,34,35,34
India,Odisha,Angul,"Hakimapada, Angul - OSPCB",19-05-2024 04:00:00,20.832874,85.104082,NO2,4,46,14
India,Odisha,Angul,"Hakimapada, Angul - OSPCB",19-05-2024 04:00:00,20.832874,85.104082,SO2,8,131,30
India,Odisha,Balasore,"Kalidaspur, Balasore - OSPCB",19-05-2024 04:00:00,21.51161,86.89088,OZONE,7,66,16
India,Odisha,Barbil,"Forest Office, Barbil - OSPCB",19-05-2024 04:00:00,22.1166054,85.3945546,PM2.5,27,133,67
India,Odisha,Barbil,"Forest Office, Barbil - OSPCB",19-05-2024 04:00:00,22.1166054,85.3945546,PM10,59,193,103
India,Odisha,Barbil,"Forest Office, Barbil - OSPCB",19-05-2024 04:00:00,22.1166054,85.3945546,SO2,4,23,11
India,Odisha,Barbil,"Forest Office, Barbil - OSPCB",19-05-2024 04:00:00,22.1166054,85.3945546,CO,16,58,26
India,Odisha,Baripada,"Meher Colony, Baripada - OSPCB",19-05-2024 04:00:00,21.941841,86.728318,PM2.5,7,86,48
India,Odisha,Baripada,"Meher Colony, Baripada - OSPCB",19-05-2024 04:00:00,21.941841,86.728318,PM10,10,98,67
India,Odisha,Baripada,"Meher Colony, Baripada - OSPCB",19-05-2024 04:00:00,21.941841,86.728318,SO2,2,11,7
India,Odisha,Bhubaneswar,"Lingraj Mandir, Bhubaneswar - OSPCB",19-05-2024 04:00:00,20.240790,85.836784,SO2,3,14,7
India,Odisha,Bhubaneswar,"Lingraj Mandir, Bhubaneswar - OSPCB",19-05-2024 04:00:00,20.240790,85.836784,CO,50,97,64
India,Odisha,Bhubaneswar,"Patia, Bhubaneswar - OSPCB",19-05-2024 04:00:00,20.34652,85.81630,CO,16,22,20
India,Odisha,Bhubaneswar,"Patia, Bhubaneswar - OSPCB",19-05-2024 04:00:00,20.34652,85.81630,OZONE,11,79,23
India,Odisha,Bileipada,"Tata Township, Bileipada - OSPCB",19-05-2024 04:00:00,22.06156703,85.47409613,PM10,NA,NA,NA
India,Odisha,Brajrajnagar,"GM Office, Brajrajnagar - OSPCB",19-05-2024 04:00:00,21.8004996,83.8396977,NH3,8,9,8
India,Odisha,Brajrajnagar,"GM Office, Brajrajnagar - OSPCB",19-05-2024 04:00:00,21.8004996,83.8396977,CO,85,104,86
India,Odisha,Byasanagar,"Ferro Chrome Colony, Byasanagar - OSPCB",19-05-2024 04:00:00,20.94185,86.11510,PM2.5,2,52,18
India,Odisha,Byasanagar,"Ferro Chrome Colony, Byasanagar - OSPCB",19-05-2024 04:00:00,20.94185,86.11510,NO2,4,27,10
India,Odisha,Byasanagar,"Ferro Chrome Colony, Byasanagar - OSPCB",19-05-2024 04:00:00,20.94185,86.11510,NH3,1,3,2
India,Odisha,Byasanagar,"Ferro Chrome Colony, Byasanagar - OSPCB",19-05-2024 04:00:00,20.94185,86.11510,SO2,6,75,19
India,Odisha,Cuttack,"CDA Area, Cuttack - OSPCB",19-05-2024 04:00:00,20.48891     ,85.84768     ,PM10,1,88,34
India,Odisha,Cuttack,"CDA Area, Cuttack - OSPCB",19-05-2024 04:00:00,20.48891     ,85.84768     ,SO2,1,41,5
India,Odisha,Cuttack,"CDA Area, Cuttack - OSPCB",19-05-2024 04:00:00,20.48891     ,85.84768     ,OZONE,5,70,13
India,Odisha,Keonjhar,"Jagamohanpur, Keonjhar - OSPCB",19-05-2024 04:00:00,21.643900,85.599355,PM2.5,36,76,55
India,Odisha,Keonjhar,"Jagamohanpur, Keonjhar - OSPCB",19-05-2024 04:00:00,21.643900,85.599355,PM10,47,82,67
India,Odisha,Keonjhar,"Jagamohanpur, Keonjhar - OSPCB",19-05-2024 04:00:00,21.643900,85.599355,NO2,8,16,13
India,Odisha,Nayagarh,"Dabuna, Nayagarh - OSPCB",19-05-2024 04:00:00,21.847279,85.416905,SO2,1,21,5
India,Odisha,Nayagarh,"Dabuna, Nayagarh - OSPCB",19-05-2024 04:00:00,21.847279,85.416905,CO,9,24,12
India,Odisha,Rairangpur,"Divisional Forest Office, Rairangpur - OSPCB",19-05-2024 04:00:00,22.265816,86.174829,PM10,46,101,74
India,Odisha,Rairangpur,"Divisional Forest Office, Rairangpur - OSPCB",19-05-2024 04:00:00,22.265816,86.174829,NH3,3,3,3
India,Odisha,Rourkela,"Raghunathpali, Rourkela - OSPCB",19-05-2024 04:00:00,22.220833,84.809444,PM2.5,61,303,137
India,Odisha,Rourkela,"Raghunathpali, Rourkela - OSPCB",19-05-2024 04:00:00,22.220833,84.809444,OZONE,3,69,14
India,Odisha,Suakati,"OMC Colony, Suakati - OSPCB",19-05-2024 04:00:00,21.606865,85.510538,NH3,5,5,5
India,Odisha,Suakati,"OMC Colony, Suakati - OSPCB",19-05-2024 04:00:00,21.606865,85.510538,SO2,6,54,22
India,Odisha,Suakati,"OMC Colony, Suakati - OSPCB",19-05-2024 04:00:00,21.606865,85.510538,CO,22,24,23
India,Odisha,Talcher,"Talcher Coalfields,Talcher - OSPCB",19-05-2024 04:00:00,20.9360711,85.1707021,NO2,18,22,20
India,Odisha,Talcher,"Talcher Coalfields,Talcher - OSPCB",19-05-2024 04:00:00,20.9360711,85.1707021,SO2,27,77,36
India,Odisha,Tensa,"Barsua Iron Ore Mines, Tensa - OSPCB",19-05-2024 04:00:00,21.869985,85.167016,OZONE,57,101,74
India,Puducherry,Puducherry,"Jawahar Nagar, Puducherry - PPCC",19-05-2024 04:00:00,11.9309,79.8027,PM10,6,69,24
India,Puducherry,Puducherry,"Jawahar Nagar, Puducherry - PPCC",19-05-2024 04:00:00,11.9309,79.8027,OZONE,15,47,31
India,Punjab,Amritsar,"Golden Temple, Amritsar - PPCB",19-05-2024 04:00:00,31.620000,74.876512,PM2.5,65,149,102
India,Punjab,Jalandhar,"Civil Line, Jalandhar - PPCB",19-05-2024 04:00:00,31.321907,75.578914,SO2,7,14,11
India,Punjab,Jalandhar,"Civil Line, Jalandhar - PPCB",19-05-2024 04:00:00,31.321907,75.578914,OZONE,11,92,21
India,Punjab,Ludhiana,"Punjab Agricultural University, Ludhiana - PPCB",19-05-2024 04:00:00,30.9028,75.8086,SO2,7,30,17
India,Punjab,Patiala,"Model Town, Patiala - PPCB",19-05-2024 04:00:00,30.349388,76.366642,PM2.5,73,222,103
India,Punjab,Patiala,"Model Town, Patiala - PPCB",19-05-2024 04:00:00,30.349388,76.366642,PM10,141,272,176
India,Punjab,Patiala,"Model Town, Patiala - PPCB",19-05-2024 04:00:00,30.349388,76.366642,NH3,6,7,6
India,Punjab,Rupnagar,"Ratanpura, Rupnagar - Ambuja Cements",19-05-2024 04:00:00,31.0325454,76.5623046,PM2.5,27,301,134
India,Punjab,Rupnagar,"Ratanpura, Rupnagar - Ambuja Cements",19-05-2024 04:00:00,31.0325454,76.5623046,CO,26,44,34
India,Rajasthan,Ajmer,"Civil Lines,  Ajmer - RSPCB",19-05-2024 04:00:00,26.470859,74.646594,PM2.5,40,140,83
India,Rajasthan,Ajmer,"Civil Lines,  Ajmer - RSPCB",19-05-2024 04:00:00,26.470859,74.646594,SO2,5,54,21
India,Rajasthan,Alwar,"Moti Doongri, Alwar - RSPCB",19-05-2024 04:00:00,27.554793,76.611536,PM10,71,135,98
India,Rajasthan,Alwar,"Moti Doongri, Alwar - RSPCB",19-05-2024 04:00:00,27.554793,76.611536,NO2,25,63,38
India,Rajasthan,Alwar,"Moti Doongri, Alwar - RSPCB",19-05-2024 04:00:00,27.554793,76.611536,NH3,3,8,5
India,Rajasthan,Alwar,"Moti Doongri, Alwar - RSPCB",19-05-2024 04:00:00,27.554793,76.611536,CO,36,100,59
India,Rajasthan,Banswara,"Rati Talai, Banswara - RSPCB",19-05-2024 04:00:00,23.555190,74.440010,NH3,3,15,7
India,Rajasthan,Baran,"Bamboliya, Baran - RSPCB",19-05-2024 04:00:00,25.106006,76.469948,PM2.5,7,110,43
India,Rajasthan,Baran,"Bamboliya, Baran - RSPCB",19-05-2024 04:00:00,25.106006,76.469948,CO,15,54,35
India,Rajasthan,Bhiwadi,"RIICO Ind. Area III, Bhiwadi - RSPCB",19-05-2024 04:00:00,28.194909,76.862296,NH3,4,36,16
India,Rajasthan,Bhiwadi,"RIICO Ind. Area III, Bhiwadi - RSPCB",19-05-2024 04:00:00,28.194909,76.862296,OZONE,8,89,16
India,Rajasthan,Bhiwadi,"Vasundhara Nagar_UIT, Bhiwadi - RSPCB",19-05-2024 04:00:00,28.207266,76.829265,NO2,8,94,52
India,Rajasthan,Bhiwadi,"Vasundhara Nagar_UIT, Bhiwadi - RSPCB",19-05-2024 04:00:00,28.207266,76.829265,SO2,4,52,18
India,Rajasthan,Bikaner,"MM Ground, Bikaner - RSPCB",19-05-2024 04:00:00,28.018792,73.292658,SO2,2,9,4
India,Rajasthan,Bundi,"New Colony, Bundi - RSPCB",19-05-2024 04:00:00,25.435774,75.644272,NO2,6,100,28
India,Rajasthan,Bundi,"New Colony, Bundi - RSPCB",19-05-2024 04:00:00,25.435774,75.644272,SO2,5,20,10
India,Rajasthan,Chittorgarh,"Shastri Nagar, Chittorgarh - RSPCB",19-05-2024 04:00:00,24.892047,74.623527,NO2,3,13,9
India,Rajasthan,Chittorgarh,"Shastri Nagar, Chittorgarh - RSPCB",19-05-2024 04:00:00,24.892047,74.623527,CO,2,57,28
India,Rajasthan,Dausa,"Khatikan Mohalla, Dausa - RSPCB",19-05-2024 04:00:00,26.895552,76.334753,PM2.5,37,232,77
India,Rajasthan,Dausa,"Khatikan Mohalla, Dausa - RSPCB",19-05-2024 04:00:00,26.895552,76.334753,OZONE,13,224,29
India,Rajasthan,Dungarpur,"Bhoiwada, Dungarpur - RSPCB",19-05-2024 04:00:00,23.837789,73.714926,SO2,3,13,6
India,Rajasthan,Hanumangarh,"Housing Board, Hanumangarh - RSPCB",19-05-2024 04:00:00,29.610750,74.283608,PM2.5,43,364,146
India,Rajasthan,Jaipur,"Adarsh Nagar, Jaipur - RSPCB",19-05-2024 04:00:00,26.902909,75.836858,PM2.5,36,90,60
India,Rajasthan,Jaipur,"Adarsh Nagar, Jaipur - RSPCB",19-05-2024 04:00:00,26.902909,75.836858,PM10,94,180,124
India,Rajasthan,Jaipur,"Adarsh Nagar, Jaipur - RSPCB",19-05-2024 04:00:00,26.902909,75.836858,CO,16,80,55
India,Rajasthan,Jaipur,"Police Commissionerate, Jaipur - RSPCB",19-05-2024 04:00:00,26.9164092,75.7994901,NO2,23,84,53
India,Rajasthan,Jaipur,"RIICO Sitapura, Jaipur - RSPCB",19-05-2024 04:00:00,26.786682,75.827928,PM10,93,348,181
India,Rajasthan,Jaipur,"RIICO Sitapura, Jaipur - RSPCB",19-05-2024 04:00:00,26.786682,75.827928,NH3,1,7,4
India,Rajasthan,Jaipur,"Shastri Nagar, Jaipur - RSPCB",19-05-2024 04:00:00,26.9502929,75.730943,NH3,5,23,10
India,Rajasthan,Jaipur,"Shastri Nagar, Jaipur - RSPCB",19-05-2024 04:00:00,26.9502929,75.730943,SO2,7,48,26
India,Rajasthan,Jaisalmer,"Sadar Bazar, Jaisalmer - RSPCB",19-05-2024 04:00:00,26.912329,70.909168,PM2.5,31,92,52
India,Rajasthan,Jaisalmer,"Sadar Bazar, Jaisalmer - RSPCB",19-05-2024 04:00:00,26.912329,70.909168,PM10,50,104,72
India,Rajasthan,Jalore,"Mudtra Sili, Jalore - RSPCB",19-05-2024 04:00:00,25.344694,72.626208,CO,9,36,18
India,Rajasthan,Jalore,"Mudtra Sili, Jalore - RSPCB",19-05-2024 04:00:00,25.344694,72.626208,OZONE,46,163,116
India,Rajasthan,Jodhpur,"Collectorate, Jodhpur - RSPCB",19-05-2024 04:00:00,26.268249,73.0193853,NO2,24,26,25
India,Rajasthan,Jodhpur,"Digari Kalan, Jodhpur - RSPCB",19-05-2024 04:00:00,26.295810,73.082283,PM2.5,13,44,26
India,Rajasthan,Jodhpur,"Jhalamand, Jodhpur - RSPCB",19-05-2024 04:00:00,26.215415,73.070156,PM2.5,11,100,32
India,Rajasthan,Jodhpur,"Mandor, Jodhpur - RSPCB",19-05-2024 04:00:00,26.358805,73.047444,CO,14,22,19
India,Rajasthan,Jodhpur,"Samrat Ashok Udhyan, Jodhpur - RSPCB",19-05-2024 04:00:00,26.253384,72.976571,PM2.5,11,77,25
India,Rajasthan,Jodhpur,"Samrat Ashok Udhyan, Jodhpur - RSPCB",19-05-2024 04:00:00,26.253384,72.976571,NO2,2,46,9
India,Rajasthan,Jodhpur,"Samrat Ashok Udhyan, Jodhpur - RSPCB",19-05-2024 04:00:00,26.253384,72.976571,NH3,3,6,4
India,Rajasthan,Jodhpur,"Samrat Ashok Udhyan, Jodhpur - RSPCB",19-05-2024 04:00:00,26.253384,72.976571,CO,7,42,18
India,Rajasthan,Karauli,"Satyawati Vihar, Karauli - RSPCB",19-05-2024 04:00:00,26.506177,77.025989,NO2,10,96,44
India,Rajasthan,Karauli,"Satyawati Vihar, Karauli - RSPCB",19-05-2024 04:00:00,26.506177,77.025989,SO2,3,27,22
India,Rajasthan,Kota,"Dhanmandi, Kota - RSPCB",19-05-2024 04:00:00,25.164090,75.858137,PM2.5,21,93,37
India,Rajasthan,Kota,"Dhanmandi, Kota - RSPCB",19-05-2024 04:00:00,25.164090,75.858137,SO2,4,20,8
India,Rajasthan,Kota,"Nayapura, Kota - RSPCB",19-05-2024 04:00:00,25.196024,75.855668,NH3,2,13,4
India,Rajasthan,Kota,"Shrinath Puram, Kota - RSPCB",19-05-2024 04:00:00,25.14389,75.821256,NO2,12,78,30
India,Rajasthan,Kota,"Shrinath Puram, Kota - RSPCB",19-05-2024 04:00:00,25.14389,75.821256,CO,28,72,44
India,Rajasthan,Kota,"Shrinath Puram, Kota - RSPCB",19-05-2024 04:00:00,25.14389,75.821256,OZONE,20,73,43
India,Rajasthan,Nagaur,"Karni Colony, Nagaur - RSPCB",19-05-2024 04:00:00,27.213494,73.734444,PM2.5,13,82,33
India,Rajasthan,Pratapgarh,"Pragati Nagar, Pratapgarh - RSPCB",19-05-2024 04:00:00,24.041198,74.780702,PM2.5,19,81,44
India,Rajasthan,Rajsamand,"Dhoinda, Rajsamand - RSPCB",19-05-2024 04:00:00,25.036360,73.883502,PM2.5,15,85,34
India,Rajasthan,Rajsamand,"Dhoinda, Rajsamand - RSPCB",19-05-2024 04:00:00,25.036360,73.883502,NO2,2,21,10
India,Rajasthan,Rajsamand,"Dhoinda, Rajsamand - RSPCB",19-05-2024 04:00:00,25.036360,73.883502,CO,16,29,25
India,Rajasthan,Sawai Madhopur,"Sahu Nagar, Sawai Madhopur - RSPCB",19-05-2024 04:00:00,26.031443,76.359327,PM2.5,NA,NA,NA
India,Rajasthan,Sawai Madhopur,"Sahu Nagar, Sawai Madhopur - RSPCB",19-05-2024 04:00:00,26.031443,76.359327,PM10,NA,NA,NA
India,Rajasthan,Sikar,"Radhakishan Pura, Sikar - RSPCB",19-05-2024 04:00:00,27.608912,75.153302,PM10,110,327,164
India,Rajasthan,Sikar,"Radhakishan Pura, Sikar - RSPCB",19-05-2024 04:00:00,27.608912,75.153302,NO2,1,110,46
India,Rajasthan,Sikar,"Radhakishan Pura, Sikar - RSPCB",19-05-2024 04:00:00,27.608912,75.153302,OZONE,10,101,37
India,Rajasthan,Sirohi,"Vedhaynath Colony, Sirohi - RSPCB",19-05-2024 04:00:00,24.885261,72.857549,PM2.5,22,53,34
India,Rajasthan,Sirohi,"Vedhaynath Colony, Sirohi - RSPCB",19-05-2024 04:00:00,24.885261,72.857549,NO2,6,20,11
India,Rajasthan,Sirohi,"Vedhaynath Colony, Sirohi - RSPCB",19-05-2024 04:00:00,24.885261,72.857549,SO2,3,16,8
India,Rajasthan,Sri Ganganagar,"Old City, Sri Ganganagar - RSPCB",19-05-2024 04:00:00,29.931624,73.864511,PM10,165,416,251
India,Rajasthan,Sri Ganganagar,"Old City, Sri Ganganagar - RSPCB",19-05-2024 04:00:00,29.931624,73.864511,CO,10,103,49
India,Rajasthan,Tonk,"Shastri Nagar, Tonk - RSPCB",19-05-2024 04:00:00,26.159933,75.780517,PM10,NA,NA,NA
India,Rajasthan,Tonk,"Shastri Nagar, Tonk - RSPCB",19-05-2024 04:00:00,26.159933,75.780517,NO2,NA,NA,NA
India,Rajasthan,Udaipur,"Ashok Nagar, Udaipur - RSPCB",19-05-2024 04:00:00,24.5886166,73.6321397,PM2.5,49,158,86
India,Rajasthan,Udaipur,"Ashok Nagar, Udaipur - RSPCB",19-05-2024 04:00:00,24.5886166,73.6321397,NH3,2,5,4
India,Rajasthan,Udaipur,"Ashok Nagar, Udaipur - RSPCB",19-05-2024 04:00:00,24.5886166,73.6321397,CO,2,88,40
India,Sikkim,Gangtok,"Zero Point GICI, Gangtok - SSPCB",19-05-2024 04:00:00,27.338530,88.614099,PM2.5,12,39,28
India,TamilNadu,Ariyalur,"Keelapalur, Ariyalur - TNPCB",19-05-2024 04:00:00,11.06825,79.07033,PM2.5,4,37,15
India,TamilNadu,Chennai,"Alandur Bus Depot, Chennai - CPCB",19-05-2024 04:00:00,12.9099161,80.1076538,PM10,23,23,23
India,TamilNadu,Chennai,"Alandur Bus Depot, Chennai - CPCB",19-05-2024 04:00:00,12.9099161,80.1076538,NO2,3,19,8
India,TamilNadu,Chennai,"Arumbakkam, Chennai - TNPCB",19-05-2024 04:00:00,13.0664,80.2112 ,PM2.5,NA,NA,NA
India,TamilNadu,Chennai,"Manali, Chennai - CPCB",19-05-2024 04:00:00,13.164544,80.26285,SO2,2,76,7
India,TamilNadu,Chennai,"Perungudi, Chennai - TNPCB",19-05-2024 04:00:00,12.9533,80.2357,NO2,2,10,5
India,TamilNadu,Chennai,"Royapuram, Chennai - TNPCB",19-05-2024 04:00:00,13.1036,80.2909,NH3,1,3,1
India,TamilNadu,Chennai,"Royapuram, Chennai - TNPCB",19-05-2024 04:00:00,13.1036,80.2909,CO,12,44,28
India,TamilNadu,Chennai,"Velachery Res. Area, Chennai - CPCB",19-05-2024 04:00:00,13.0052189,80.2398125,CO,118,120,119
India,TamilNadu,Chennai,"Velachery Res. Area, Chennai - CPCB",19-05-2024 04:00:00,13.0052189,80.2398125,OZONE,31,47,36
India,TamilNadu,Cuddalore,"Kudikadu, Cuddalore - TNPCB",19-05-2024 04:00:00,11.6829898,79.7532099,NO2,1,1,1
India,TamilNadu,Cuddalore,"Semmandalam, Cuddalore - TNPCB",19-05-2024 04:00:00,11.7637683,79.7499835,NO2,4,13,7
India,TamilNadu,Gummidipoondi,"Anthoni Pillai Nagar, Gummidipoondi - TNPCB",19-05-2024 04:00:00,13.4127,80.1081,PM10,22,126,52
India,TamilNadu,Ooty,"Bombay Castel, Ooty - TNPCB",19-05-2024 04:00:00,11.4068288,76.7138973,NO2,NA,NA,NA
India,TamilNadu,Ooty,"Bombay Castel, Ooty - TNPCB",19-05-2024 04:00:00,11.4068288,76.7138973,SO2,13,15,13
India,TamilNadu,Palkalaiperur,"Bharathidasan University, Palkalaiperur - TNPCB",19-05-2024 04:00:00,10.681158,78.741746,PM2.5,5,18,9
India,TamilNadu,Ramanathapuram,"Chalai Bazaar, Ramanathapuram - TNPCB",19-05-2024 04:00:00,9.36399,78.831977,OZONE,13,14,14
India,Telangana,Hyderabad,"Central University, Hyderabad - TSPCB",19-05-2024 04:00:00,17.460103,78.334361,NO2,14,35,22
India,Telangana,Hyderabad,"ECIL Kapra, Hyderabad - TSPCB",19-05-2024 04:00:00,17.470431,78.566959,PM10,NA,NA,NA
India,Telangana,Hyderabad,"ECIL Kapra, Hyderabad - TSPCB",19-05-2024 04:00:00,17.470431,78.566959,NH3,NA,NA,NA
India,Telangana,Hyderabad,"ECIL Kapra, Hyderabad - TSPCB",19-05-2024 04:00:00,17.470431,78.566959,CO,NA,NA,NA
India,Telangana,Hyderabad,"IITH Kandi, Hyderabad - TSPCB",19-05-2024 04:00:00,17.585705,78.126199,NO2,NA,NA,NA
India,Telangana,Hyderabad,"Kokapet, Hyderabad - TSPCB",19-05-2024 04:00:00,17.393559,78.339194,PM2.5,45,80,56
India,Telangana,Hyderabad,"Kokapet, Hyderabad - TSPCB",19-05-2024 04:00:00,17.393559,78.339194,CO,15,26,16
India,Telangana,Hyderabad,"Kokapet, Hyderabad - TSPCB",19-05-2024 04:00:00,17.393559,78.339194,OZONE,1,7,2
India,Telangana,Hyderabad,"Kompally Municipal Office, Hyderabad - TSPCB",19-05-2024 04:00:00,17.544899,78.486949,PM10,51,64,56
India,Telangana,Hyderabad,"Kompally Municipal Office, Hyderabad - TSPCB",19-05-2024 04:00:00,17.544899,78.486949,CO,20,44,36
India,Telangana,Hyderabad,"New Malakpet, Hyderabad - TSPCB",19-05-2024 04:00:00,17.37206,78.50864,PM10,NA,NA,NA
India,Telangana,Hyderabad,"New Malakpet, Hyderabad - TSPCB",19-05-2024 04:00:00,17.37206,78.50864,NO2,NA,NA,NA
India,Telangana,Hyderabad,"New Malakpet, Hyderabad - TSPCB",19-05-2024 04:00:00,17.37206,78.50864,NH3,NA,NA,NA
India,Telangana,Hyderabad,"New Malakpet, Hyderabad - TSPCB",19-05-2024 04:00:00,17.37206,78.50864,SO2,NA,NA,NA
India,Telangana,Hyderabad,"Ramachandrapuram, Hyderabad - TSPCB",19-05-2024 04:00:00,17.528544,78.286195,NH3,NA,NA,NA
India,Telangana,Hyderabad,"Ramachandrapuram, Hyderabad - TSPCB",19-05-2024 04:00:00,17.528544,78.286195,OZONE,NA,NA,NA
India,Telangana,Hyderabad,"Sanathnagar, Hyderabad - TSPCB",19-05-2024 04:00:00,17.4559458,78.4332152,CO,26,44,41
India,Telangana,Hyderabad,"Zoo Park, Hyderabad - TSPCB",19-05-2024 04:00:00,17.349694,78.451437,PM2.5,18,85,37
India,Telangana,Hyderabad,"Zoo Park, Hyderabad - TSPCB",19-05-2024 04:00:00,17.349694,78.451437,SO2,2,8,4
India,Telangana,Hyderabad,"Zoo Park, Hyderabad - TSPCB",19-05-2024 04:00:00,17.349694,78.451437,OZONE,8,23,17
India,Tripura,Agartala,"Bardowali, Agartala - Tripura SPCB",19-05-2024 04:00:00,23.8175497,91.2726974,PM10,52,119,75
India,Tripura,Agartala,"Bardowali, Agartala - Tripura SPCB",19-05-2024 04:00:00,23.8175497,91.2726974,NO2,3,9,5
India,Tripura,Agartala,"Bardowali, Agartala - Tripura SPCB",19-05-2024 04:00:00,23.8175497,91.2726974,CO,9,44,21
India,Uttar_Pradesh,Agra,"Manoharpur, Agra - UPPCB",19-05-2024 04:00:00,27.23711,78.01936,CO,10,34,23
India,Uttar_Pradesh,Agra,"Sector-3B Avas Vikas Colony, Agra - UPPCB",19-05-2024 04:00:00,27.19412,77.96237,SO2,NA,NA,NA
India,Uttar_Pradesh,Agra,"Shahjahan Garden, Agra - UPPCB",19-05-2024 04:00:00,27.169338,78.03582,NH3,NA,NA,NA
India,Uttar_Pradesh,Agra,"Shastripuram, Agra - UPPCB",19-05-2024 04:00:00,27.19862,77.92066,SO2,14,20,16
India,Uttar_Pradesh,Agra,"Shastripuram, Agra - UPPCB",19-05-2024 04:00:00,27.19862,77.92066,CO,10,38,28
India,Uttar_Pradesh,Baghpat,"Sardar Patel Inter College, Baghpat - UPPCB",19-05-2024 04:00:00,28.964949,77.278761,PM2.5,110,301,175
India,Uttar_Pradesh,Baghpat,"Sardar Patel Inter College, Baghpat - UPPCB",19-05-2024 04:00:00,28.964949,77.278761,NH3,NA,NA,NA
India,Uttar_Pradesh,Bareilly,"Civil Lines, Bareilly - UPPCB",19-05-2024 04:00:00,28.359581,79.414455,NH3,1,5,1
India,Uttar_Pradesh,Bareilly,"Civil Lines, Bareilly - UPPCB",19-05-2024 04:00:00,28.359581,79.414455,SO2,23,33,27
India,Uttar_Pradesh,Bareilly,"Rajendra Nagar, Bareilly - UPPCB",19-05-2024 04:00:00,28.38910936,79.42963708,PM2.5,31,58,42
India,Uttar_Pradesh,Bareilly,"Rajendra Nagar, Bareilly - UPPCB",19-05-2024 04:00:00,28.38910936,79.42963708,NH3,1,2,1
India,Uttar_Pradesh,Bareilly,"Rajendra Nagar, Bareilly - UPPCB",19-05-2024 04:00:00,28.38910936,79.42963708,OZONE,2,17,3
India,Uttar_Pradesh,Bulandshahr,"Yamunapuram, Bulandshahr - UPPCB",19-05-2024 04:00:00,28.406963,77.849831,PM2.5,57,337,181
India,Uttar_Pradesh,Bulandshahr,"Yamunapuram, Bulandshahr - UPPCB",19-05-2024 04:00:00,28.406963,77.849831,NH3,14,30,19
India,Uttar_Pradesh,Firozabad,"Vibhab Nagar, Firozabad - UPPCB",19-05-2024 04:00:00,27.1594,78.3953,PM2.5,56,166,80
India,Uttar_Pradesh,Firozabad,"Vibhab Nagar, Firozabad - UPPCB",19-05-2024 04:00:00,27.1594,78.3953,PM10,75,153,100
India,Uttar_Pradesh,Ghaziabad,"Indirapuram, Ghaziabad - UPPCB",19-05-2024 04:00:00,28.646233,77.358075,PM10,163,419,293
India,Uttar_Pradesh,Ghaziabad,"Indirapuram, Ghaziabad - UPPCB",19-05-2024 04:00:00,28.646233,77.358075,NH3,9,23,13
India,Uttar_Pradesh,Ghaziabad,"Indirapuram, Ghaziabad - UPPCB",19-05-2024 04:00:00,28.646233,77.358075,OZONE,2,43,6
India,Uttar_Pradesh,Ghaziabad,"Loni, Ghaziabad - UPPCB",19-05-2024 04:00:00,28.757294,77.278792,PM2.5,63,337,185
India,Uttar_Pradesh,Ghaziabad,"Loni, Ghaziabad - UPPCB",19-05-2024 04:00:00,28.757294,77.278792,NO2,18,117,59
India,Uttar_Pradesh,Ghaziabad,"Loni, Ghaziabad - UPPCB",19-05-2024 04:00:00,28.757294,77.278792,OZONE,1,167,17
India,Uttar_Pradesh,Ghaziabad,"Vasundhara, Ghaziabad - UPPCB",19-05-2024 04:00:00,28.6603346,77.3572563,CO,2,108,78
India,Uttar_Pradesh,Ghaziabad,"Vasundhara, Ghaziabad - UPPCB",19-05-2024 04:00:00,28.6603346,77.3572563,OZONE,24,193,80
India,Uttar_Pradesh,Gorakhpur,"Madan Mohan Malaviya University of Technology, Gorakhpur - UPPCB",19-05-2024 04:00:00,26.730136,83.433859,PM10,100,228,150
India,Uttar_Pradesh,Gorakhpur,"Madan Mohan Malaviya University of Technology, Gorakhpur - UPPCB",19-05-2024 04:00:00,26.730136,83.433859,NH3,1,2,2
India,Uttar_Pradesh,Greater Noida,"Knowledge Park - III, Greater Noida - UPPCB",19-05-2024 04:00:00,28.47272,77.482000,PM10,NA,NA,NA
India,Uttar_Pradesh,Greater Noida,"Knowledge Park - V, Greater Noida - UPPCB",19-05-2024 04:00:00,28.557054,77.453663,PM10,183,500,333
India,Uttar_Pradesh,Greater Noida,"Knowledge Park - V, Greater Noida - UPPCB",19-05-2024 04:00:00,28.557054,77.453663,CO,7,102,50
India,Uttar_Pradesh,Greater Noida,"Knowledge Park - V, Greater Noida - UPPCB",19-05-2024 04:00:00,28.557054,77.453663,OZONE,1,260,46
India,Uttar_Pradesh,Hapur,"Anand Vihar, Hapur - UPPCB",19-05-2024 04:00:00,28.725645,77.749675,PM10,104,184,142
India,Uttar_Pradesh,Jhansi,"Shivaji Nagar, Jhansi - UPPCB",19-05-2024 04:00:00,25.4547,78.6039,NO2,2,113,28
India,Uttar_Pradesh,Jhansi,"Shivaji Nagar, Jhansi - UPPCB",19-05-2024 04:00:00,25.4547,78.6039,SO2,16,26,19
India,Uttar_Pradesh,Jhansi,"Shivaji Nagar, Jhansi - UPPCB",19-05-2024 04:00:00,25.4547,78.6039,CO,4,87,54
India,Uttar_Pradesh,Kanpur,"FTI Kidwai Nagar, Kanpur - UPPCB",19-05-2024 04:00:00,26.428282,80.327067,PM2.5,56,241,104
India,Uttar_Pradesh,Kanpur,"FTI Kidwai Nagar, Kanpur - UPPCB",19-05-2024 04:00:00,26.428282,80.327067,NO2,12,19,16
India,Uttar_Pradesh,Kanpur,"FTI Kidwai Nagar, Kanpur - UPPCB",19-05-2024 04:00:00,26.428282,80.327067,NH3,2,3,2
India,Uttar_Pradesh,Kanpur,"NSI Kalyanpur, Kanpur - UPPCB",19-05-2024 04:00:00,26.509954,80.249612,OZONE,2,69,14
India,Uttar_Pradesh,Kanpur,"Nehru Nagar, Kanpur - UPPCB",19-05-2024 04:00:00,26.4703136,80.3229863,NO2,12,43,27
India,Uttar_Pradesh,Khurja,"Kalindi Kunj, Khurja - UPPCB",19-05-2024 04:00:00,28.2348927,77.8683002,PM10,NA,NA,NA
India,Uttar_Pradesh,Lucknow,"B R Ambedkar University, Lucknow - UPPCB",19-05-2024 04:00:00,26.766433,80.927299,SO2,37,46,40
India,Uttar_Pradesh,Lucknow,"B R Ambedkar University, Lucknow - UPPCB",19-05-2024 04:00:00,26.766433,80.927299,CO,24,60,49
India,Uttar_Pradesh,Lucknow,"Gomti Nagar, Lucknow - UPPCB",19-05-2024 04:00:00,26.868120,81.005119,PM2.5,57,419,120
India,Uttar_Pradesh,Lucknow,"Kendriya Vidyalaya, Lucknow - CPCB",19-05-2024 04:00:00,26.906111,80.948222,OZONE,5,149,30
India,Uttar_Pradesh,Lucknow,"Kukrail Picnic Spot-1, Lucknow - UPPCB",19-05-2024 04:00:00,26.90723,80.98579,SO2,32,38,34
India,Uttar_Pradesh,Lucknow,"Kukrail Picnic Spot-1, Lucknow - UPPCB",19-05-2024 04:00:00,26.90723,80.98579,CO,18,78,48
India,Uttar_Pradesh,Lucknow,"Talkatora District Industries Center, Lucknow - CPCB",19-05-2024 04:00:00,26.83399722,80.8917361,SO2,1,32,8
India,Uttar_Pradesh,Meerut,"Ganga Nagar, Meerut - UPPCB",19-05-2024 04:00:00,28.999264,77.7590354,PM10,115,336,198
India,Uttar_Pradesh,Meerut,"Jai Bhim Nagar, Meerut - UPPCB",19-05-2024 04:00:00,28.9535882,77.7622941,PM10,155,443,291
India,Uttar_Pradesh,Meerut,"Jai Bhim Nagar, Meerut - UPPCB",19-05-2024 04:00:00,28.9535882,77.7622941,SO2,8,13,9
India,Uttar_Pradesh,Meerut,"Jai Bhim Nagar, Meerut - UPPCB",19-05-2024 04:00:00,28.9535882,77.7622941,CO,19,96,53
India,Uttar_Pradesh,Meerut,"Pallavpuram Phase 2, Meerut - UPPCB",19-05-2024 04:00:00,29.063510,77.709723,NH3,8,22,12
India,Uttar_Pradesh,Moradabad,"Buddhi Vihar, Moradabad - UPPCB",19-05-2024 04:00:00,28.83526,78.74460,PM2.5,50,190,122
India,Uttar_Pradesh,Moradabad,"Buddhi Vihar, Moradabad - UPPCB",19-05-2024 04:00:00,28.83526,78.74460,NO2,22,23,23
India,Uttar_Pradesh,Moradabad,"Buddhi Vihar, Moradabad - UPPCB",19-05-2024 04:00:00,28.83526,78.74460,NH3,3,3,3
India,Uttar_Pradesh,Moradabad,"Buddhi Vihar, Moradabad - UPPCB",19-05-2024 04:00:00,28.83526,78.74460,SO2,22,42,31
India,Uttar_Pradesh,Moradabad,"Eco Herbal Park, Moradabad - UPPCB",19-05-2024 04:00:00,28.840739,78.697531,PM2.5,46,293,110
India,Uttar_Pradesh,Moradabad,"Jigar Colony, Moradabad - UPPCB",19-05-2024 04:00:00,28.856664,78.772638,NH3,5,5,5
India,Uttar_Pradesh,Moradabad,"Jigar Colony, Moradabad - UPPCB",19-05-2024 04:00:00,28.856664,78.772638,CO,42,76,60
India,Uttar_Pradesh,Moradabad,"Kashiram Nagar, Moradabad - UPPCB",19-05-2024 04:00:00,28.849399,78.742362,CO,34,78,58
India,Uttar_Pradesh,Moradabad,"Transport Nagar, Moradabad - UPPCB",19-05-2024 04:00:00,28.802625,78.753728,PM2.5,46,129,87
India,Uttar_Pradesh,Moradabad,"Transport Nagar, Moradabad - UPPCB",19-05-2024 04:00:00,28.802625,78.753728,CO,39,42,41
India,Uttar_Pradesh,Muzaffarnagar,"New Mandi, Muzaffarnagar - UPPCB",19-05-2024 04:00:00,29.4723508,77.7194031,PM2.5,129,473,279
India,Uttar_Pradesh,Muzaffarnagar,"New Mandi, Muzaffarnagar - UPPCB",19-05-2024 04:00:00,29.4723508,77.7194031,CO,22,81,43
India,Uttar_Pradesh,Noida,"Sector - 125, Noida - UPPCB",19-05-2024 04:00:00,28.5447608,77.3231257,PM10,163,500,313
India,Uttar_Pradesh,Noida,"Sector-1, Noida - UPPCB",19-05-2024 04:00:00,28.5898,77.3101,NO2,17,164,87
India,Uttar_Pradesh,Prayagraj,"Jhunsi, Prayagraj - UPPCB",19-05-2024 04:00:00,25.425602,81.917152,NO2,6,6,6
India,Uttar_Pradesh,Prayagraj,"Jhunsi, Prayagraj - UPPCB",19-05-2024 04:00:00,25.425602,81.917152,NH3,5,5,5
India,Uttar_Pradesh,Prayagraj,"Jhunsi, Prayagraj - UPPCB",19-05-2024 04:00:00,25.425602,81.917152,OZONE,12,109,24
India,Uttar_Pradesh,Prayagraj,"Motilal Nehru NIT, Prayagraj - UPPCB",19-05-2024 04:00:00,25.494,81.863,PM2.5,22,50,34
India,Uttar_Pradesh,Prayagraj,"Nagar Nigam, Prayagraj - UPPCB",19-05-2024 04:00:00,25.44919916 ,81.82735986 ,OZONE,11,12,11
India,Uttar_Pradesh,Varanasi,"Ardhali Bazar, Varanasi - UPPCB",19-05-2024 04:00:00,25.3505986,82.9083074,OZONE,27,79,38
India,Uttar_Pradesh,Varanasi,"Bhelupur, Varanasi - UPPCB",19-05-2024 04:00:00,25.301778,82.996789,PM2.5,6,18,10
India,Uttar_Pradesh,Varanasi,"Bhelupur, Varanasi - UPPCB",19-05-2024 04:00:00,25.301778,82.996789,PM10,18,83,35
India,Uttar_Pradesh,Varanasi,"Bhelupur, Varanasi - UPPCB",19-05-2024 04:00:00,25.301778,82.996789,NO2,8,8,8
India,Uttar_Pradesh,Varanasi,"Bhelupur, Varanasi - UPPCB",19-05-2024 04:00:00,25.301778,82.996789,CO,14,82,59
India,Uttar_Pradesh,Varanasi,"IESD Banaras Hindu University, Varanasi - UPPCB",19-05-2024 04:00:00,25.262326,82.995408,NO2,2,2,2
India,Uttar_Pradesh,Varanasi,"IESD Banaras Hindu University, Varanasi - UPPCB",19-05-2024 04:00:00,25.262326,82.995408,CO,3,23,18
India,Uttar_Pradesh,Varanasi,"Maldahiya, Varanasi - UPPCB",19-05-2024 04:00:00,25.32393,82.99687,PM2.5,15,44,24
India,Uttar_Pradesh,Varanasi,"Maldahiya, Varanasi - UPPCB",19-05-2024 04:00:00,25.32393,82.99687,PM10,18,53,29
India,Uttar_Pradesh,Varanasi,"Maldahiya, Varanasi - UPPCB",19-05-2024 04:00:00,25.32393,82.99687,NO2,1,6,2
India,Uttarakhand,Dehradun,"Doon University, Dehradun - UKPCB",19-05-2024 04:00:00,30.269444,78.044167,SO2,2,6,4
India,Uttarakhand,Rishikesh,"Shivaji Nagar, Rishikesh - UKPCB",19-05-2024 04:00:00,30.075911,78.2859547,NO2,11,71,30
India,West_Bengal,Barrackpore,"SVSPA Campus, Barrackpore - WBPCB",19-05-2024 04:00:00,22.7605581,88.3617589,CO,2,22,11
India,West_Bengal,Durgapur,"PCBL Residential Complex, Durgapur - WBPCB",19-05-2024 04:00:00,23.5087640,87.3544400,NO2,22,131,56
India,West_Bengal,Durgapur,"Sidhu Kanhu Indoor Stadium, Durgapur - WBPCB",19-05-2024 04:00:00,23.5404352,87.2892225,NO2,22,45,34
India,West_Bengal,Durgapur,"Sidhu Kanhu Indoor Stadium, Durgapur - WBPCB",19-05-2024 04:00:00,23.5404352,87.2892225,OZONE,7,50,19
India,West_Bengal,Haldia,"Priyambada Housing Estate, Haldia - WBPCB",19-05-2024 04:00:00,22.06047,88.109737,NH3,4,4,4
India,West_Bengal,Howrah,"Ghusuri, Howrah - WBPCB",19-05-2024 04:00:00,22.611968,88.347422,OZONE,14,29,17
India,West_Bengal,Kolkata,"Ballygunge, Kolkata - WBPCB",19-05-2024 04:00:00,22.5367507,88.3638022,SO2,5,23,10
India,West_Bengal,Kolkata,"Ballygunge, Kolkata - WBPCB",19-05-2024 04:00:00,22.5367507,88.3638022,OZONE,22,111,44
India,West_Bengal,Kolkata,"Bidhannagar, Kolkata - WBPCB",19-05-2024 04:00:00,22.58157048,88.41002457,SO2,7,14,10
India,West_Bengal,Kolkata,"Fort William, Kolkata - WBPCB",19-05-2024 04:00:00,22.556640,88.342674,SO2,7,9,8
India,West_Bengal,Kolkata,"Jadavpur, Kolkata - WBPCB",19-05-2024 04:00:00,22.49929,88.36917,PM2.5,17,60,34
India,West_Bengal,Kolkata,"Jadavpur, Kolkata - WBPCB",19-05-2024 04:00:00,22.49929,88.36917,SO2,4,10,6
India,West_Bengal,Kolkata,"Victoria, Kolkata - WBPCB",19-05-2024 04:00:00,22.5448082,88.3403691,SO2,6,15,9
India,West_Bengal,Siliguri,"Ward-32 Bapupara, Siliguri - WBPCB",19-05-2024 04:00:00,26.6879226,88.4152495,NO2,26,48,32
India,West_Bengal,Siliguri,"Ward-32 Bapupara, Siliguri - WBPCB",19-05-2024 04:00:00,26.6879226,88.4152495,OZONE,14,44,33
India,Andhra_Pradesh,Amaravati,"Secretariat, Amaravati - APPCB",19-05-2024 04:00:00,16.5150833,80.5181667,NH3,2,4,3
India,Andhra_Pradesh,Anantapur,"Gulzarpet, Anantapur - APPCB",19-05-2024 04:00:00,14.675886,77.593027,PM10,NA,NA,NA
India,Andhra_Pradesh,Anantapur,"Gulzarpet, Anantapur - APPCB",19-05-2024 04:00:00,14.675886,77.593027,SO2,3,5,4
India,Andhra_Pradesh,Chittoor,"Gangineni Cheruvu, Chittoor - APPCB",19-05-2024 04:00:00,13.204880,79.097889,PM2.5,11,269,75
India,Andhra_Pradesh,Chittoor,"Gangineni Cheruvu, Chittoor - APPCB",19-05-2024 04:00:00,13.204880,79.097889,NO2,1,12,6
India,Andhra_Pradesh,Chittoor,"Gangineni Cheruvu, Chittoor - APPCB",19-05-2024 04:00:00,13.204880,79.097889,SO2,3,26,10
India,Andhra_Pradesh,Rajamahendravaram,"Anand Kala Kshetram, Rajamahendravaram - APPCB",19-05-2024 04:00:00,16.9872867,81.7363176,PM2.5,3,22,10
India,Andhra_Pradesh,Rajamahendravaram,"Anand Kala Kshetram, Rajamahendravaram - APPCB",19-05-2024 04:00:00,16.9872867,81.7363176,NH3,3,3,3
India,Andhra_Pradesh,Rajamahendravaram,"Anand Kala Kshetram, Rajamahendravaram - APPCB",19-05-2024 04:00:00,16.9872867,81.7363176,CO,24,36,29
India,Andhra_Pradesh,Rajamahendravaram,"Anand Kala Kshetram, Rajamahendravaram - APPCB",19-05-2024 04:00:00,16.9872867,81.7363176,OZONE,12,39,16
India,Andhra_Pradesh,Tirupati,"Tirumala, Tirupati - APPCB",19-05-2024 04:00:00,13.67,79.35,PM2.5,12,56,35
India,Andhra_Pradesh,Tirupati,"Tirumala, Tirupati - APPCB",19-05-2024 04:00:00,13.67,79.35,PM10,9,57,34
India,Andhra_Pradesh,Tirupati,"Tirumala, Tirupati - APPCB",19-05-2024 04:00:00,13.67,79.35,SO2,2,11,7
India,Andhra_Pradesh,Tirupati,"Vaikuntapuram, Tirupati - APPCB",19-05-2024 04:00:00,13.615387,79.409230,SO2,4,5,5
India,Andhra_Pradesh,Vijayawada,"HB Colony, Vijayawada - APPCB",19-05-2024 04:00:00,16.536107,80.594233,PM2.5,38,41,40
India,Andhra_Pradesh,Vijayawada,"HB Colony, Vijayawada - APPCB",19-05-2024 04:00:00,16.536107,80.594233,PM10,42,47,43
India,Andhra_Pradesh,Vijayawada,"HB Colony, Vijayawada - APPCB",19-05-2024 04:00:00,16.536107,80.594233,NO2,13,83,39
India,Andhra_Pradesh,Vijayawada,"Kanuru, Vijayawada - APPCB",19-05-2024 04:00:00,16.486692,80.699436,SO2,NA,NA,NA
India,Andhra_Pradesh,Vijayawada,"Rajiv Gandhi Park, Vijayawada - APPCB",19-05-2024 04:00:00,16.509717,80.612222,PM2.5,28,52,38
India,Andhra_Pradesh,Vijayawada,"Rajiv Gandhi Park, Vijayawada - APPCB",19-05-2024 04:00:00,16.509717,80.612222,PM10,30,55,40
India,Andhra_Pradesh,Vijayawada,"Rajiv Gandhi Park, Vijayawada - APPCB",19-05-2024 04:00:00,16.509717,80.612222,OZONE,2,6,2
India,Andhra_Pradesh,Vijayawada,"Rajiv Nagar, Vijayawada - APPCB",19-05-2024 04:00:00,16.554731,80.649110,PM2.5,42,60,44
India,Arunachal_Pradesh,Naharlagun,"Naharlagun, Naharlagun - APSPCB",19-05-2024 04:00:00,27.103358,93.679645,PM2.5,NA,NA,NA
India,Assam,Byrnihat,"Central Academy for SFS, Byrnihat - PCBA",19-05-2024 04:00:00,26.071318,91.87488,SO2,6,41,15
India,Assam,Guwahati,"Railway Colony, Guwahati - PCBA",19-05-2024 04:00:00,26.181742,91.78063,PM10,NA,NA,NA
India,Assam,Nagaon,"Christianpatty, Nagaon - PCBA",19-05-2024 04:00:00,26.349082,92.68449,SO2,3,37,17
India,Assam,Nalbari,"Bata Chowk, Nalbari - PCBA",19-05-2024 04:00:00,26.446912,91.439057,CO,20,92,80
India,Assam,Silchar,"Tarapur, Silchar - PCBA",19-05-2024 04:00:00,24.82827,92.79525,SO2,5,5,5
India,Assam,Sivasagar,"Girls College, Sivasagar - PCBA",19-05-2024 04:00:00,26.987634,94.636574,NO2,8,16,11
India,Bihar,Araria,"Kharahiya Basti, Araria - BSPCB",19-05-2024 04:00:00,26.146529,87.454184,SO2,NA,NA,NA
India,Bihar,Arrah,"New DM Office, Arrah - BSPCB",19-05-2024 04:00:00,25.5626095,84.663264,OZONE,12,61,16
India,Bihar,Aurangabad,"Gurdeo Nagar, Aurangabad - BSPCB",19-05-2024 04:00:00,24.75746,84.366208,NH3,7,27,12
India,Bihar,Bettiah,"Kamalnath Nagar, Bettiah - BSPCB",19-05-2024 04:00:00,26.80365,84.51954,NO2,30,44,36
India,Bihar,Bettiah,"Kamalnath Nagar, Bettiah - BSPCB",19-05-2024 04:00:00,26.80365,84.51954,NH3,8,38,25
India,Bihar,Bhagalpur,"DM Office_Kachari Chowk, Bhagalpur - BSPCB",19-05-2024 04:00:00,25.251013,86.989001,PM10,108,151,132
India,Bihar,Bhagalpur,"Mayaganj, Bhagalpur - BSPCB",19-05-2024 04:00:00,25.265194,87.012947,PM2.5,95,311,189
India,Bihar,Bhagalpur,"Mayaganj, Bhagalpur - BSPCB",19-05-2024 04:00:00,25.265194,87.012947,CO,3,24,15
India,Bihar,Bihar Sharif,"D M Colony, Bihar Sharif - BSPCB",19-05-2024 04:00:00,25.204762,85.514960,PM10,24,125,74
India,Bihar,Bihar Sharif,"D M Colony, Bihar Sharif - BSPCB",19-05-2024 04:00:00,25.204762,85.514960,SO2,6,15,10
India,Bihar,Buxar,"Charitra Van, Buxar - BSPCB (Formerly known as Central Jail)",19-05-2024 04:00:00,25.567520,83.966379,NO2,1,1,1
India,Bihar,Gaya,"Collectorate, Gaya - BSPCB",19-05-2024 04:00:00,24.7955,84.9994,CO,1,138,87
India,Bihar,Gaya,"Kareemganj, Gaya - BSPCB",19-05-2024 04:00:00,24.792403,84.992416,NH3,4,4,4
India,Bihar,Hajipur,"Industrial Area, Hajipur - BSPCB",19-05-2024 04:00:00,25.697189,85.245900,PM2.5,140,357,259
India,Bihar,Hajipur,"Industrial Area, Hajipur - BSPCB",19-05-2024 04:00:00,25.697189,85.245900,OZONE,6,96,14
India,Bihar,Katihar,"Mirchaibari, Katihar - BSPCB",19-05-2024 04:00:00,25.560083,87.553265,PM2.5,23,107,68
India,Bihar,Kishanganj,"SDM Office_Khagra, Kishanganj - BSPCB",19-05-2024 04:00:00,26.0881305,87.93840336,CO,11,20,12
India,Bihar,Munger,"Town Hall, Munger - BSPCB",19-05-2024 04:00:00,25.376776,86.471523,PM2.5,150,202,184
India,Bihar,Munger,"Town Hall, Munger - BSPCB",19-05-2024 04:00:00,25.376776,86.471523,CO,4,90,59
India,Bihar,Muzaffarpur,"Buddha Colony, Muzaffarpur - BSPCB",19-05-2024 04:00:00,26.11442,85.39813,PM2.5,79,314,221
India,Bihar,Muzaffarpur,"Buddha Colony, Muzaffarpur - BSPCB",19-05-2024 04:00:00,26.11442,85.39813,PM10,92,234,166
India,Bihar,Muzaffarpur,"Buddha Colony, Muzaffarpur - BSPCB",19-05-2024 04:00:00,26.11442,85.39813,SO2,5,23,12
India,Bihar,Patna,"DRM Office Danapur, Patna - BSPCB",19-05-2024 04:00:00,25.586562,85.043586,OZONE,5,79,23
India,Bihar,Patna,"Govt. High School Shikarpur, Patna - BSPCB",19-05-2024 04:00:00,25.592539,85.227158,NO2,19,25,22
India,Bihar,Patna,"Govt. High School Shikarpur, Patna - BSPCB",19-05-2024 04:00:00,25.592539,85.227158,CO,32,111,65
India,Bihar,Patna,"IGSC Planetarium Complex, Patna - BSPCB",19-05-2024 04:00:00,25.610369,85.132568,NO2,10,11,10
India,Bihar,Patna,"IGSC Planetarium Complex, Patna - BSPCB",19-05-2024 04:00:00,25.610369,85.132568,SO2,4,9,5
India,Bihar,Patna,"Samanpura, Patna - BSPCB",19-05-2024 04:00:00,25.596727,85.085624,SO2,2,3,3
India,Bihar,Purnia,"Mariam Nagar, Purnia - BSPCB",19-05-2024 04:00:00,25.366336,87.117468,OZONE,6,41,26
India,Bihar,Rajgir,"Dangi Tola, Rajgir - BSPCB",19-05-2024 04:00:00,25.03280,85.41948,SO2,2,6,4
India,Bihar,Saharsa,"Police Line, Saharsa - BSPCB",19-05-2024 04:00:00,25.892357,86.590325,PM2.5,48,318,144
India,Bihar,Samastipur,"DM Office_Kasipur, Samastipur - BSPCB",19-05-2024 04:00:00,25.859655,85.77944,PM10,NA,NA,NA
India,Bihar,Samastipur,"DM Office_Kasipur, Samastipur - BSPCB",19-05-2024 04:00:00,25.859655,85.77944,NO2,NA,NA,NA
India,Bihar,Sasaram,"Dada Peer, Sasaram - BSPCB",19-05-2024 04:00:00,24.952822,84.002396,PM2.5,NA,NA,NA
India,Bihar,Sasaram,"Dada Peer, Sasaram - BSPCB",19-05-2024 04:00:00,24.952822,84.002396,PM10,NA,NA,NA
India,Bihar,Sasaram,"Dada Peer, Sasaram - BSPCB",19-05-2024 04:00:00,24.952822,84.002396,OZONE,3,76,50
India,Chandigarh,Chandigarh,"Sector 22, Chandigarh - CPCC",19-05-2024 04:00:00,30.735567,76.775714,NO2,20,65,41
India,Chandigarh,Chandigarh,"Sector 22, Chandigarh - CPCC",19-05-2024 04:00:00,30.735567,76.775714,NH3,NA,NA,NA
India,Chandigarh,Chandigarh,"Sector-53, Chandigarh - CPCC",19-05-2024 04:00:00,30.719859,76.738637,SO2,10,44,22
India,Chhattisgarh,Bhilai,"32Bungalows, Bhilai - CECB",19-05-2024 04:00:00,21.194815,81.314770,PM2.5,10,32,21
India,Chhattisgarh,Bhilai,"Hathkhoj, Bhilai - CECB",19-05-2024 04:00:00,21.224231,81.408350,PM10,20,61,40
India,Chhattisgarh,Bhilai,"Hathkhoj, Bhilai - CECB",19-05-2024 04:00:00,21.224231,81.408350,SO2,11,17,13
India,Chhattisgarh,Chhal,"Nawapara SECL Colony, Chhal - CECB",19-05-2024 04:00:00,22.118125,83.140608,PM10,18,164,53
India,Chhattisgarh,Korba,"Rampur, Korba - CECB",19-05-2024 04:00:00,22.368195,82.746431,CO,10,37,17
India,Chhattisgarh,Korba,"Rampur, Korba - CECB",19-05-2024 04:00:00,22.368195,82.746431,OZONE,8,13,9
India,Chhattisgarh,Korba,"Urja Nagar, Korba - CECB",19-05-2024 04:00:00,22.348441,82.549611,NH3,3,9,6
India,Chhattisgarh,Kunjemura,"OP Jindal School, Kunjemura - CECB",19-05-2024 04:00:00,22.126650,83.483212,NH3,1,5,2
India,Chhattisgarh,Milupara,"Govt. Higher Secondary School, Milupara - CECB",19-05-2024 04:00:00,22.1910172,83.5197009,PM2.5,9,65,32
India,Chhattisgarh,Raipur,"Bhatagaon New ISBT, Raipur - CECB",19-05-2024 04:00:00,21.219665,81.630094,NH3,2,2,2
India,Chhattisgarh,Raipur,"Bhatagaon New ISBT, Raipur - CECB",19-05-2024 04:00:00,21.219665,81.630094,SO2,1,3,2
India,Chhattisgarh,Raipur,"Krishak Nagar, Raipur - CECB",19-05-2024 04:00:00,21.237755,81.705301,CO,12,22,20
India,Chhattisgarh,Raipur,"Siltara Phase-II, Raipur - CECB",19-05-2024 04:00:00,21.371751,81.664929,PM2.5,14,69,48
India,Chhattisgarh,Raipur,"Siltara Phase-II, Raipur - CECB",19-05-2024 04:00:00,21.371751,81.664929,PM10,15,67,46
India,Delhi,Delhi,"Alipur, Delhi - DPCC",19-05-2024 04:00:00,28.815329,77.153010,NO2,3,79,36
India,Delhi,Delhi,"Alipur, Delhi - DPCC",19-05-2024 04:00:00,28.815329,77.153010,SO2,13,66,30
India,Delhi,Delhi,"Anand Vihar, Delhi - DPCC",19-05-2024 04:00:00,28.647622,77.3158090,OZONE,6,78,21
India,Delhi,Delhi,"Aya Nagar, Delhi - IMD",19-05-2024 04:00:00,28.4706914,77.1099364,PM2.5,28,335,191
India,Delhi,Delhi,"Aya Nagar, Delhi - IMD",19-05-2024 04:00:00,28.4706914,77.1099364,CO,46,108,79
India,Delhi,Delhi,"Bawana, Delhi - DPCC",19-05-2024 04:00:00,28.776200,77.051074,NO2,8,79,32
India,Delhi,Delhi,"CRRI Mathura Road, Delhi - IMD",19-05-2024 04:00:00,28.5512005,77.2735737,CO,20,112,101
India,Delhi,Delhi,"CRRI Mathura Road, Delhi - IMD",19-05-2024 04:00:00,28.5512005,77.2735737,OZONE,3,106,4
India,Delhi,Delhi,"Chandni Chowk, Delhi - IITM",19-05-2024 04:00:00,28.656756,77.227234,SO2,7,74,37
India,Delhi,Delhi,"Chandni Chowk, Delhi - IITM",19-05-2024 04:00:00,28.656756,77.227234,CO,47,103,67
India,Delhi,Delhi,"Dr. Karni Singh Shooting Range, Delhi - DPCC",19-05-2024 04:00:00,28.498571,77.264840,PM2.5,73,334,193
India,Delhi,Delhi,"Dr. Karni Singh Shooting Range, Delhi - DPCC",19-05-2024 04:00:00,28.498571,77.264840,NO2,31,147,81
India,Delhi,Delhi,"Dr. Karni Singh Shooting Range, Delhi - DPCC",19-05-2024 04:00:00,28.498571,77.264840,OZONE,1,262,28
India,Delhi,Delhi,"Dwarka-Sector 8, Delhi - DPCC ",19-05-2024 04:00:00,28.5710274,77.0719006,PM2.5,73,342,215
India,Delhi,Delhi,"Dwarka-Sector 8, Delhi - DPCC ",19-05-2024 04:00:00,28.5710274,77.0719006,NH3,6,11,8
India,Delhi,Delhi,"Dwarka-Sector 8, Delhi - DPCC ",19-05-2024 04:00:00,28.5710274,77.0719006,CO,32,123,84
India,Delhi,Delhi,"IGI Airport (T3), Delhi - IMD",19-05-2024 04:00:00,28.5627763,77.1180053,PM10,122,223,167
India,Delhi,Delhi,"IGI Airport (T3), Delhi - IMD",19-05-2024 04:00:00,28.5627763,77.1180053,OZONE,5,83,10
India,Delhi,Delhi,"IHBAS, Dilshad Garden, Delhi - CPCB",19-05-2024 04:00:00,28.6811736,77.3025234,SO2,4,58,25
India,Delhi,Delhi,"IHBAS, Dilshad Garden, Delhi - CPCB",19-05-2024 04:00:00,28.6811736,77.3025234,OZONE,18,23,22
India,Delhi,Delhi,"ITO, Delhi - CPCB",19-05-2024 04:00:00,28.628624,77.241060,OZONE,1,91,12
India,Delhi,Delhi,"Jahangirpuri, Delhi - DPCC",19-05-2024 04:00:00,28.732820,77.170633,NO2,15,76,44
India,Delhi,Delhi,"Jahangirpuri, Delhi - DPCC",19-05-2024 04:00:00,28.732820,77.170633,SO2,20,101,58
India,Delhi,Delhi,"Jawaharlal Nehru Stadium, Delhi - DPCC",19-05-2024 04:00:00,28.580280,77.233829,CO,7,112,91
India,Delhi,Delhi,"Lodhi Road, Delhi - IITM",19-05-2024 04:00:00,28.588333,77.221667,SO2,NA,NA,NA
India,Delhi,Delhi,"Major Dhyan Chand National Stadium, Delhi - DPCC",19-05-2024 04:00:00,28.611281,77.237738,PM2.5,77,318,198
India,Delhi,Delhi,"Mandir Marg, Delhi - DPCC",19-05-2024 04:00:00,28.636429,77.201067,NH3,7,11,9
India,Delhi,Delhi,"Mundka, Delhi - DPCC",19-05-2024 04:00:00,28.684678,77.076574,PM2.5,83,427,280
India,Delhi,Delhi,"Mundka, Delhi - DPCC",19-05-2024 04:00:00,28.684678,77.076574,NH3,6,15,8
India,Delhi,Delhi,"Mundka, Delhi - DPCC",19-05-2024 04:00:00,28.684678,77.076574,CO,36,100,80
India,Delhi,Delhi,"NSIT Dwarka, Delhi - CPCB",19-05-2024 04:00:00,28.60909,77.0325413,NH3,7,12,8
India,Delhi,Delhi,"Narela, Delhi - DPCC",19-05-2024 04:00:00,28.822836,77.101981,PM2.5,67,406,228
India,Delhi,Delhi,"Nehru Nagar, Delhi - DPCC",19-05-2024 04:00:00,28.567890,77.250515,SO2,2,17,8
India,Delhi,Delhi,"Nehru Nagar, Delhi - DPCC",19-05-2024 04:00:00,28.567890,77.250515,OZONE,1,263,33
India,Delhi,Delhi,"North Campus, DU, Delhi - IMD",19-05-2024 04:00:00,28.6573814,77.1585447,NO2,13,81,39
India,Delhi,Delhi,"North Campus, DU, Delhi - IMD",19-05-2024 04:00:00,28.6573814,77.1585447,OZONE,5,61,10
India,Delhi,Delhi,"Okhla Phase-2, Delhi - DPCC",19-05-2024 04:00:00,28.530785,77.271255,PM2.5,68,328,183
India,Delhi,Delhi,"Okhla Phase-2, Delhi - DPCC",19-05-2024 04:00:00,28.530785,77.271255,PM10,157,381,244
India,Delhi,Delhi,"Patparganj, Delhi - DPCC",19-05-2024 04:00:00,28.623763,77.287209,PM2.5,93,333,223
India,Delhi,Delhi,"Patparganj, Delhi - DPCC",19-05-2024 04:00:00,28.623763,77.287209,CO,28,51,40
India,Delhi,Delhi,"Punjabi Bagh, Delhi - DPCC",19-05-2024 04:00:00,28.674045,77.131023,PM2.5,55,361,233
India,Delhi,Delhi,"Punjabi Bagh, Delhi - DPCC",19-05-2024 04:00:00,28.674045,77.131023,PM10,143,370,226
India,Delhi,Delhi,"Punjabi Bagh, Delhi - DPCC",19-05-2024 04:00:00,28.674045,77.131023,NO2,36,113,65
India,Delhi,Delhi,"Punjabi Bagh, Delhi - DPCC",19-05-2024 04:00:00,28.674045,77.131023,OZONE,2,50,11
India,Delhi,Delhi,"Pusa, Delhi - DPCC",19-05-2024 04:00:00,28.639652,77.146275,NH3,5,10,8
India,Delhi,Delhi,"R K Puram, Delhi - DPCC",19-05-2024 04:00:00,28.563262,77.186937,NO2,23,199,88
India,Delhi,Delhi,"Rohini, Delhi - DPCC",19-05-2024 04:00:00,28.732528,77.119920,PM2.5,50,339,217
India,Delhi,Delhi,"Shadipur, Delhi - CPCB",19-05-2024 04:00:00,28.6514781,77.1473105,CO,NA,NA,NA
India,Delhi,Delhi,"Shadipur, Delhi - CPCB",19-05-2024 04:00:00,28.6514781,77.1473105,OZONE,NA,NA,NA
India,Delhi,Delhi,"Sirifort, Delhi - CPCB",19-05-2024 04:00:00,28.5504249,77.2159377,SO2,27,46,33
India,Delhi,Delhi,"Sirifort, Delhi - CPCB",19-05-2024 04:00:00,28.5504249,77.2159377,CO,16,125,90
India,Delhi,Delhi,"Sonia Vihar, Delhi - DPCC",19-05-2024 04:00:00,28.710508,77.249485,PM10,139,409,244
India,Delhi,Delhi,"Sonia Vihar, Delhi - DPCC",19-05-2024 04:00:00,28.710508,77.249485,NO2,16,107,54
India,Delhi,Delhi,"Sonia Vihar, Delhi - DPCC",19-05-2024 04:00:00,28.710508,77.249485,NH3,6,10,8
India,Delhi,Delhi,"Sonia Vihar, Delhi - DPCC",19-05-2024 04:00:00,28.710508,77.249485,SO2,10,58,25
India,Delhi,Delhi,"Sri Aurobindo Marg, Delhi - DPCC",19-05-2024 04:00:00,28.531346,77.190156,PM2.5,NA,NA,NA
India,Delhi,Delhi,"Sri Aurobindo Marg, Delhi - DPCC",19-05-2024 04:00:00,28.531346,77.190156,NH3,8,11,10
India,Delhi,Delhi,"Sri Aurobindo Marg, Delhi - DPCC",19-05-2024 04:00:00,28.531346,77.190156,CO,8,63,45
India,Delhi,Delhi,"Vivek Vihar, Delhi - DPCC",19-05-2024 04:00:00,28.672342,77.315260,OZONE,4,209,34
India,Delhi,Delhi,"Wazirpur, Delhi - DPCC",19-05-2024 04:00:00,28.699793,77.165453,PM2.5,73,362,222
India,Delhi,Delhi,"Wazirpur, Delhi - DPCC",19-05-2024 04:00:00,28.699793,77.165453,PM10,168,405,249
India,Gujarat,Ahmedabad,"Chandkheda, Ahmedabad - IITM",19-05-2024 04:00:00,23.107969,72.574648,PM10,67,155,106
India,Gujarat,Ahmedabad,"Chandkheda, Ahmedabad - IITM",19-05-2024 04:00:00,23.107969,72.574648,CO,2,84,18
India,Gujarat,Ahmedabad,"Gyaspur, Ahmedabad - IITM",19-05-2024 04:00:00,22.977134,72.553024,NO2,39,50,46
India,Gujarat,Ahmedabad,"SVPI Airport Hansol, Ahmedabad - IITM",19-05-2024 04:00:00,23.076793,72.627874,NO2,30,44,39
India,Gujarat,Gandhinagar,"Sector-10, Gandhinagar - GPCB",19-05-2024 04:00:00,23.221714,72.654328,PM2.5,29,70,50
India,Gujarat,Gandhinagar,"Sector-10, Gandhinagar - GPCB",19-05-2024 04:00:00,23.221714,72.654328,SO2,3,5,4
India,Gujarat,Vapi,"Phase-1 GIDC, Vapi - GPCB",19-05-2024 04:00:00,20.362421,72.918013,PM10,44,84,63
India,Gujarat,Vapi,"Phase-1 GIDC, Vapi - GPCB",19-05-2024 04:00:00,20.362421,72.918013,NO2,6,7,6
India,Gujarat,Vapi,"Phase-1 GIDC, Vapi - GPCB",19-05-2024 04:00:00,20.362421,72.918013,OZONE,1,5,1
India,Haryana,Ambala,"Patti Mehar, Ambala - HSPCB",19-05-2024 04:00:00,30.379589,76.778328,PM2.5,88,271,157
India,Haryana,Ambala,"Patti Mehar, Ambala - HSPCB",19-05-2024 04:00:00,30.379589,76.778328,NH3,5,12,8
India,Haryana,Bahadurgarh,"Arya Nagar, Bahadurgarh - HSPCB",19-05-2024 04:00:00,28.6701,76.9254,PM10,138,402,240
India,Haryana,Ballabgarh,"Nathu Colony, Ballabgarh - HSPCB",19-05-2024 04:00:00,28.3419248,77.319699,PM10,111,443,259
India,Haryana,Ballabgarh,"Nathu Colony, Ballabgarh - HSPCB",19-05-2024 04:00:00,28.3419248,77.319699,SO2,4,71,28
India,Haryana,Ballabgarh,"Nathu Colony, Ballabgarh - HSPCB",19-05-2024 04:00:00,28.3419248,77.319699,CO,4,110,69
India,Haryana,Charkhi Dadri,"Mini Secretariat, Charkhi Dadri - HSPCB",19-05-2024 04:00:00,28.593883,76.270653,CO,21,104,80
India,Haryana,Faridabad,"Sector 11, Faridabad - HSPCB",19-05-2024 04:00:00,28.376058,77.315741,SO2,4,113,13
India,Haryana,Faridabad,"Sector 11, Faridabad - HSPCB",19-05-2024 04:00:00,28.376058,77.315741,CO,28,72,53
India,Haryana,Faridabad,"Sector 30, Faridabad - HSPCB",19-05-2024 04:00:00,28.4417,77.3217,OZONE,58,62,61
India,Haryana,Gurugram,"NISE Gwal Pahari, Gurugram - IMD",19-05-2024 04:00:00,28.422681,77.148944,NO2,NA,NA,NA
India,Haryana,Gurugram,"NISE Gwal Pahari, Gurugram - IMD",19-05-2024 04:00:00,28.422681,77.148944,CO,53,122,72
India,Haryana,Gurugram,"Sector-51, Gurugram - HSPCB",19-05-2024 04:00:00,28.4227,77.0667,NO2,2,29,13
India,Haryana,Gurugram,"Teri Gram, Gurugram - HSPCB",19-05-2024 04:00:00,28.4275,77.1465,OZONE,29,105,44
India,Haryana,Hisar,"Urban Estate-II, Hisar - HSPCB",19-05-2024 04:00:00,29.140560,75.744941,CO,25,52,34
India,Haryana,Hisar,"Urban Estate-II, Hisar - HSPCB",19-05-2024 04:00:00,29.140560,75.744941,OZONE,44,187,70
India,Haryana,Jind,"Police Lines, Jind - HSPCB",19-05-2024 04:00:00,29.307814,76.337619,PM10,112,141,127
India,Haryana,Jind,"Police Lines, Jind - HSPCB",19-05-2024 04:00:00,29.307814,76.337619,NH3,1,10,1
India,Haryana,Kaithal,"Rishi Nagar, Kaithal - HSPCB",19-05-2024 04:00:00,29.8006,76.4155,OZONE,7,17,9
India,Haryana,Karnal,"Sector-12, Karnal - HSPCB",19-05-2024 04:00:00,29.695300,77.002700,CO,16,65,40
India,Haryana,Mandikhera,"General Hospital, Mandikhera - HSPCB",19-05-2024 04:00:00,27.9002,76.9938,NH3,NA,NA,NA
India,Haryana,Manesar,"Sector-2 IMT, Manesar - HSPCB",19-05-2024 04:00:00,28.360699,76.936090,PM2.5,65,241,144
India,Haryana,Palwal,"Shyam Nagar, Palwal - HSPCB",19-05-2024 04:00:00,28.1485564,77.3320667,PM10,90,127,110
India,Haryana,Panchkula,"Sector-6, Panchkula - HSPCB ",19-05-2024 04:00:00,30.7057778,76.8531805555555,PM2.5,139,309,226
India,Haryana,Rohtak,"MD University, Rohtak - HSPCB",19-05-2024 04:00:00,28.52123,76.37138,SO2,6,8,7
India,Haryana,Sirsa,"F-Block, Sirsa - HSPCB",19-05-2024 04:00:00,29.536400,75.015800,PM2.5,NA,NA,NA
India,Haryana,Sirsa,"F-Block, Sirsa - HSPCB",19-05-2024 04:00:00,29.536400,75.015800,CO,NA,NA,NA
India,Haryana,Yamuna Nagar,"Gobind Pura, Yamuna Nagar - HSPCB",19-05-2024 04:00:00,30.1480566,77.2893471,PM2.5,107,153,127
India,Haryana,Yamuna Nagar,"Gobind Pura, Yamuna Nagar - HSPCB",19-05-2024 04:00:00,30.1480566,77.2893471,SO2,2,104,18
India,Himachal Pradesh,Baddi,"HIMUDA Complex Phase-1, Baddi - HPPCB",19-05-2024 04:00:00,30.943887,76.801991,PM10,101,273,168
India,Jharkhand,Dhanbad,"Kalakusuma, Dhanbad - DMC",19-05-2024 04:00:00,23.811548,86.481238,SO2,10,104,19
India,Jharkhand,Dhanbad,"Kalakusuma, Dhanbad - DMC",19-05-2024 04:00:00,23.811548,86.481238,CO,129,136,131
India,Jharkhand,Dhanbad,"Sardar Patel Nagar, Dhanbad - JSPCB",19-05-2024 04:00:00,23.80569,86.44268,NO2,NA,NA,NA
India,Jharkhand,Dhanbad,"Sardar Patel Nagar, Dhanbad - JSPCB",19-05-2024 04:00:00,23.80569,86.44268,CO,128,169,160
India,Jharkhand,Dhanbad,"Sardar Patel Nagar, Dhanbad - JSPCB",19-05-2024 04:00:00,23.80569,86.44268,OZONE,27,78,37
India,Jharkhand,Jorapokhar,"Tata Stadium, Jorapokhar - JSPCB",19-05-2024 04:00:00,23.707909,86.414670,CO,NA,NA,NA
India,Jharkhand,Jorapokhar,"Tata Stadium, Jorapokhar - JSPCB",19-05-2024 04:00:00,23.707909,86.414670,OZONE,NA,NA,NA
India,Jharkhand,Pathardih,"Mohalbani Ghat, Pathardih - DMC",19-05-2024 04:00:00,23.669880,86.411725,OZONE,NA,NA,NA
India,Karnataka,Bengaluru,"Hebbal, Bengaluru - KSPCB",19-05-2024 04:00:00,13.029152,77.585901,PM10,14,92,46
India,Karnataka,Bengaluru,"Hebbal, Bengaluru - KSPCB",19-05-2024 04:00:00,13.029152,77.585901,NH3,1,1,1
India,Karnataka,Bengaluru,"Hebbal, Bengaluru - KSPCB",19-05-2024 04:00:00,13.029152,77.585901,CO,6,36,17
India,Karnataka,Bengaluru,"Hombegowda Nagar, Bengaluru - KSPCB",19-05-2024 04:00:00,12.938539,77.590100,CO,16,28,23
India,Karnataka,Bengaluru,"Hombegowda Nagar, Bengaluru - KSPCB",19-05-2024 04:00:00,12.938539,77.590100,OZONE,9,57,18
India,Karnataka,Bengaluru,"Peenya, Bengaluru - CPCB",19-05-2024 04:00:00,13.0270199,77.494094,NH3,NA,NA,NA
India,Karnataka,Bengaluru,"Peenya, Bengaluru - CPCB",19-05-2024 04:00:00,13.0270199,77.494094,SO2,NA,NA,NA
India,Karnataka,Bengaluru,"Sanegurava Halli, Bengaluru - KSPCB",19-05-2024 04:00:00,12.990328,77.5431385,NO2,23,37,28
India,Karnataka,Bengaluru,"Sanegurava Halli, Bengaluru - KSPCB",19-05-2024 04:00:00,12.990328,77.5431385,SO2,2,3,3
India,Karnataka,Bengaluru,"Shivapura_Peenya, Bengaluru - KSPCB",19-05-2024 04:00:00,13.0246342,77.5080115,PM2.5,5,88,55
India,Karnataka,Bengaluru,"Shivapura_Peenya, Bengaluru - KSPCB",19-05-2024 04:00:00,13.0246342,77.5080115,NO2,15,16,15
India,Karnataka,Bengaluru,"Silk Board, Bengaluru - KSPCB",19-05-2024 04:00:00,12.917348,77.622813,PM10,53,119,89
India,Karnataka,Chikkamagaluru,"Kalyana Nagara, Chikkamagaluru - KSPCB",19-05-2024 04:00:00,13.328028,75.797056,NO2,NA,NA,NA
India,Karnataka,Davanagere,"Devaraj Urs Badavane, Davanagere - KSPCB",19-05-2024 04:00:00,14.475800,75.905200,PM2.5,18,50,30
India,Karnataka,Davanagere,"Devaraj Urs Badavane, Davanagere - KSPCB",19-05-2024 04:00:00,14.475800,75.905200,PM10,7,61,30
India,Karnataka,Davanagere,"Devaraj Urs Badavane, Davanagere - KSPCB",19-05-2024 04:00:00,14.475800,75.905200,SO2,1,94,9
India,Karnataka,Hassan,"B.Katihalli, Hassan - KSPCB",19-05-2024 04:00:00,13.008556,76.125258,SO2,NA,NA,NA
India,Karnataka,Hassan,"B.Katihalli, Hassan - KSPCB",19-05-2024 04:00:00,13.008556,76.125258,OZONE,2,3,3
India,Karnataka,Haveri,"Ashwini Nagar, Haveri - KSPCB",19-05-2024 04:00:00,14.791800,75.389600,PM2.5,23,58,38
India,Karnataka,Haveri,"Ashwini Nagar, Haveri - KSPCB",19-05-2024 04:00:00,14.791800,75.389600,SO2,14,14,14
India,Karnataka,Haveri,"Ashwini Nagar, Haveri - KSPCB",19-05-2024 04:00:00,14.791800,75.389600,CO,38,40,38
India,Karnataka,Hubballi,"Lingaraj Nagar, Hubballi - KSPCB",19-05-2024 04:00:00,15.3714823,75.1160168,SO2,1,4,2
India,Karnataka,Hubballi,"Lingaraj Nagar, Hubballi - KSPCB",19-05-2024 04:00:00,15.3714823,75.1160168,CO,8,36,14
India,Karnataka,Kalaburagi,"Lal Bahadur Shastri Nagar, Kalaburagi - KSPCB",19-05-2024 04:00:00,17.321993,76.822628,PM2.5,NA,NA,NA
India,Karnataka,Kalaburagi,"Lal Bahadur Shastri Nagar, Kalaburagi - KSPCB",19-05-2024 04:00:00,17.321993,76.822628,NO2,NA,NA,NA
India,Karnataka,Kalaburagi,"Lal Bahadur Shastri Nagar, Kalaburagi - KSPCB",19-05-2024 04:00:00,17.321993,76.822628,CO,NA,NA,NA
India,Karnataka,Kalaburagi,"Mahatma Basaveswar Colony, Kalaburgi - KSPCB",19-05-2024 04:00:00,17.336318,76.847397,NO2,10,13,10
India,Karnataka,Karwar,"KHB Colony, Karwar - KSPCB",19-05-2024 04:00:00,14.816666,74.141003,NO2,NA,NA,NA
India,Karnataka,Kolar,"Tamaka Ind. Area, Kolar - KSPCB",19-05-2024 04:00:00,13.1276288,78.1570122,OZONE,11,47,22
India,Karnataka,Madikeri,"Stuart Hill, Madikeri - KSPCB",19-05-2024 04:00:00,12.415911,75.735050,PM2.5,8,28,19
India,Karnataka,Mysuru,"Hebbal 1st Stage, Mysuru - KSPCB",19-05-2024 04:00:00,12.21041,76.37376,NH3,NA,NA,NA
India,Karnataka,Mysuru,"Hebbal 1st Stage, Mysuru - KSPCB",19-05-2024 04:00:00,12.21041,76.37376,OZONE,NA,NA,NA
India,Karnataka,Raichur,"Haji Colony, Raichur - KSPCB",19-05-2024 04:00:00,16.208139,77.348417,SO2,71,84,77
India,Karnataka,Raichur,"Haji Colony, Raichur - KSPCB",19-05-2024 04:00:00,16.208139,77.348417,CO,91,104,100
India,Karnataka,Ramanagara,"Vijay Nagar, Ramanagara - KSPCB",19-05-2024 04:00:00,12.733409,77.298051,CO,4,30,14
India,Karnataka,Shivamogga,"Vinoba Nagara, Shivamogga - KSPCB",19-05-2024 04:00:00,13.940000,75.555917,PM2.5,26,48,35
India,Karnataka,Shivamogga,"Vinoba Nagara, Shivamogga - KSPCB",19-05-2024 04:00:00,13.940000,75.555917,NH3,3,13,4
India,Karnataka,Shivamogga,"Vinoba Nagara, Shivamogga - KSPCB",19-05-2024 04:00:00,13.940000,75.555917,SO2,2,11,5
India,Karnataka,Shivamogga,"Vinoba Nagara, Shivamogga - KSPCB",19-05-2024 04:00:00,13.940000,75.555917,CO,12,46,23
India,Kerala,Kannur,"Thavakkara, Kannur - Kerala PCB",19-05-2024 04:00:00,11.875000,75.373200,PM2.5,65,78,70
India,Kerala,Kannur,"Thavakkara, Kannur - Kerala PCB",19-05-2024 04:00:00,11.875000,75.373200,NO2,6,7,6
India,Kerala,Kannur,"Thavakkara, Kannur - Kerala PCB",19-05-2024 04:00:00,11.875000,75.373200,SO2,1,2,1
India,Kerala,Kollam,"Polayathode, Kollam - Kerala PCB",19-05-2024 04:00:00,8.8787,76.6073,CO,15,18,16
India,Kerala,Thiruvananthapuram,"Kariavattom, Thiruvananthapuram - Kerala PCB",19-05-2024 04:00:00,8.563700,76.886500,PM2.5,79,90,85
India,Kerala,Thiruvananthapuram,"Kariavattom, Thiruvananthapuram - Kerala PCB",19-05-2024 04:00:00,8.563700,76.886500,SO2,3,14,9
