country,state,city,station,last_update,latitude,longitude,pollutant_id,pollutant_min,pollutant_max,pollutant_avg
India,Andhra_Pradesh,Anantapur,"Gulzarpet, Anantapur - APPCB",16-02-2024 03:00:00,14.675886,77.593027,NO2,14,30,20
India,Andhra_Pradesh,Anantapur,"Gulzarpet, Anantapur - APPCB",16-02-2024 03:00:00,14.675886,77.593027,OZONE,8,41,32
India,Andhra_Pradesh,Chittoor,"Gangineni Cheruvu, Chittoor - APPCB",16-02-2024 03:00:00,13.204880,79.097889,NO2,7,23,12
India,Andhra_Pradesh,Chittoor,"Gangineni Cheruvu, Chittoor - APPCB",16-02-2024 03:00:00,13.204880,79.097889,OZONE,7,131,61
India,Andhra_Pradesh,Rajamahendravaram,"Anand Kala Kshetram, Rajamahendravaram - APPCB",16-02-2024 03:00:00,16.9872867,81.7363176,PM10,64,139,92
India,Andhra_Pradesh,Rajamahendravaram,"Anand Kala Kshetram, Rajamahendravaram - APPCB",16-02-2024 03:00:00,16.9872867,81.7363176,NH3,3,5,4
India,Andhra_Pradesh,Tirupati,"Vaikuntapuram, Tirupati - APPCB",16-02-2024 03:00:00,13.615387,79.409230,PM10,17,66,30
India,Andhra_Pradesh,Tirupati,"Vaikuntapuram, Tirupati - APPCB",16-02-2024 03:00:00,13.615387,79.409230,NH3,2,3,3
India,Andhra_Pradesh,Vijayawada,"HB Colony, Vijayawada - APPCB",16-02-2024 03:00:00,16.536107,80.594233,PM2.5,25,328,86
India,Andhra_Pradesh,Vijayawada,"HB Colony, Vijayawada - APPCB",16-02-2024 03:00:00,16.536107,80.594233,PM10,28,249,85
India,Andhra_Pradesh,Vijayawada,"HB Colony, Vijayawada - APPCB",16-02-2024 03:00:00,16.536107,80.594233,NH3,3,5,4
India,Andhra_Pradesh,Vijayawada,"Rajiv Gandhi Park, Vijayawada - APPCB",16-02-2024 03:00:00,16.509717,80.612222,PM2.5,46,88,69
India,Andhra_Pradesh,Vijayawada,"Rajiv Gandhi Park, Vijayawada - APPCB",16-02-2024 03:00:00,16.509717,80.612222,NO2,2,107,34
India,Andhra_Pradesh,Visakhapatnam,"GVM Corporation, Visakhapatnam - APPCB",16-02-2024 03:00:00,17.72,83.3,CO,15,82,49
India,Andhra_Pradesh,Visakhapatnam,"GVM Corporation, Visakhapatnam - APPCB",16-02-2024 03:00:00,17.72,83.3,OZONE,8,25,9
India,Arunachal_Pradesh,Naharlagun,"Naharlagun, Naharlagun - APSPCB",16-02-2024 03:00:00,27.103358,93.679645,NO2,2,2,2
India,Arunachal_Pradesh,Naharlagun,"Naharlagun, Naharlagun - APSPCB",16-02-2024 03:00:00,27.103358,93.679645,SO2,3,3,3
India,Arunachal_Pradesh,Naharlagun,"Naharlagun, Naharlagun - APSPCB",16-02-2024 03:00:00,27.103358,93.679645,OZONE,2,2,2
India,Assam,Byrnihat,"Central Academy for SFS, Byrnihat - PCBA",16-02-2024 03:00:00,26.071318,91.87488,NO2,38,141,80
India,Assam,Guwahati,"IITG, Guwahati - PCBA",16-02-2024 03:00:00,26.2028636,91.70046436,OZONE,3,30,15
India,Assam,Guwahati,"Pan Bazaar, Guwahati - PCBA",16-02-2024 03:00:00,26.187500,91.744194,PM10,88,369,172
India,Assam,Nagaon,"Christianpatty, Nagaon - PCBA",16-02-2024 03:00:00,26.349082,92.68449,NH3,2,3,2
India,Assam,Nalbari,"Bata Chowk, Nalbari - PCBA",16-02-2024 03:00:00,26.446912,91.439057,PM10,70,200,140
India,Assam,Nalbari,"Bata Chowk, Nalbari - PCBA",16-02-2024 03:00:00,26.446912,91.439057,NH3,1,1,1
India,Assam,Nalbari,"Bata Chowk, Nalbari - PCBA",16-02-2024 03:00:00,26.446912,91.439057,CO,56,96,82
India,Assam,Silchar,"Tarapur, Silchar - PCBA",16-02-2024 03:00:00,24.82827,92.79525,PM2.5,42,63,48
India,Assam,Silchar,"Tarapur, Silchar - PCBA",16-02-2024 03:00:00,24.82827,92.79525,SO2,4,14,7
India,Assam,Silchar,"Tarapur, Silchar - PCBA",16-02-2024 03:00:00,24.82827,92.79525,OZONE,1,23,1
India,Assam,Sivasagar,"Girls College, Sivasagar - PCBA",16-02-2024 03:00:00,26.987634,94.636574,PM2.5,NA,NA,NA
India,Assam,Sivasagar,"Girls College, Sivasagar - PCBA",16-02-2024 03:00:00,26.987634,94.636574,NO2,NA,NA,NA
India,Assam,Sivasagar,"Girls College, Sivasagar - PCBA",16-02-2024 03:00:00,26.987634,94.636574,SO2,NA,NA,NA
India,Bihar,Araria,"Kharahiya Basti, Araria - BSPCB",16-02-2024 03:00:00,26.146529,87.454184,OZONE,7,10,8
India,Bihar,Arrah,"New DM Office, Arrah - BSPCB",16-02-2024 03:00:00,25.5626095,84.663264,PM2.5,55,163,100
India,Bihar,Aurangabad,"Gurdeo Nagar, Aurangabad - BSPCB",16-02-2024 03:00:00,24.75746,84.366208,PM10,NA,NA,NA
India,Bihar,Aurangabad,"Gurdeo Nagar, Aurangabad - BSPCB",16-02-2024 03:00:00,24.75746,84.366208,NO2,2,11,5
India,Bihar,Bettiah,"Kamalnath Nagar, Bettiah - BSPCB",16-02-2024 03:00:00,26.80365,84.51954,SO2,8,19,12
India,Bihar,Bettiah,"Kamalnath Nagar, Bettiah - BSPCB",16-02-2024 03:00:00,26.80365,84.51954,CO,76,79,77
India,Bihar,Bettiah,"Kamalnath Nagar, Bettiah - BSPCB",16-02-2024 03:00:00,26.80365,84.51954,OZONE,NA,NA,NA
India,Bihar,Bihar Sharif,"D M Colony, Bihar Sharif - BSPCB",16-02-2024 03:00:00,25.204762,85.514960,NO2,9,10,9
India,Bihar,Chhapra,"Darshan Nagar, Chhapra - BSPCB",16-02-2024 03:00:00,25.7808257,84.7446768,PM2.5,73,357,188
India,Bihar,Chhapra,"Darshan Nagar, Chhapra - BSPCB",16-02-2024 03:00:00,25.7808257,84.7446768,CO,20,35,28
India,Bihar,Gaya,"Collectorate, Gaya - BSPCB",16-02-2024 03:00:00,24.7955,84.9994,PM2.5,NA,NA,NA
India,Bihar,Gaya,"Collectorate, Gaya - BSPCB",16-02-2024 03:00:00,24.7955,84.9994,NO2,2,4,3
India,Bihar,Gaya,"SFTI Kusdihra, Gaya - BSPCB",16-02-2024 03:00:00,24.762518,84.982348,PM10,40,71,57
India,Bihar,Hajipur,"Industrial Area, Hajipur - BSPCB",16-02-2024 03:00:00,25.697189,85.245900,PM2.5,18,195,77
India,Bihar,Katihar,"Mirchaibari, Katihar - BSPCB",16-02-2024 03:00:00,25.560083,87.553265,PM10,56,152,111
India,Bihar,Kishanganj,"SDM Office_Khagra, Kishanganj - BSPCB",16-02-2024 03:00:00,26.0881305,87.93840336,NO2,32,40,37
India,Bihar,Kishanganj,"SDM Office_Khagra, Kishanganj - BSPCB",16-02-2024 03:00:00,26.0881305,87.93840336,NH3,11,18,14
India,Bihar,Kishanganj,"SDM Office_Khagra, Kishanganj - BSPCB",16-02-2024 03:00:00,26.0881305,87.93840336,OZONE,15,36,19
India,Bihar,Manguraha,"Forest Rest House, Manguraha - BSPCB",16-02-2024 03:00:00,27.308328,84.531742,PM2.5,53,321,105
India,Bihar,Manguraha,"Forest Rest House, Manguraha - BSPCB",16-02-2024 03:00:00,27.308328,84.531742,SO2,2,3,3
India,Bihar,Motihari,"Gandak Colony, Motihari - BSPCB",16-02-2024 03:00:00,26.63086,84.90051,PM10,52,145,103
India,Bihar,Motihari,"Gandak Colony, Motihari - BSPCB",16-02-2024 03:00:00,26.63086,84.90051,NH3,7,14,9
India,Bihar,Munger,"Town Hall, Munger - BSPCB",16-02-2024 03:00:00,25.376776,86.471523,NH3,1,2,2
India,Bihar,Muzaffarpur,"Buddha Colony, Muzaffarpur - BSPCB",16-02-2024 03:00:00,26.11442,85.39813,PM2.5,113,314,205
India,Bihar,Muzaffarpur,"Buddha Colony, Muzaffarpur - BSPCB",16-02-2024 03:00:00,26.11442,85.39813,NO2,21,48,32
India,Bihar,Muzaffarpur,"Buddha Colony, Muzaffarpur - BSPCB",16-02-2024 03:00:00,26.11442,85.39813,OZONE,41,108,72
India,Bihar,Muzaffarpur,"MIT-Daudpur Kothi, Muzaffarpur - BSPCB",16-02-2024 03:00:00,26.1403345,85.3650192,OZONE,5,44,8
India,Bihar,Muzaffarpur,"Muzaffarpur Collectorate, Muzaffarpur - BSPCB",16-02-2024 03:00:00,26.1209,85.3647,PM2.5,48,181,100
India,Bihar,Muzaffarpur,"Muzaffarpur Collectorate, Muzaffarpur - BSPCB",16-02-2024 03:00:00,26.1209,85.3647,CO,24,90,31
India,Bihar,Patna,"DRM Office Danapur, Patna - BSPCB",16-02-2024 03:00:00,25.586562,85.043586,SO2,6,9,8
India,Bihar,Patna,"Govt. High School Shikarpur, Patna - BSPCB",16-02-2024 03:00:00,25.592539,85.227158,NH3,3,5,4
India,Bihar,Patna,"Govt. High School Shikarpur, Patna - BSPCB",16-02-2024 03:00:00,25.592539,85.227158,OZONE,8,55,14
India,Bihar,Patna,"IGSC Planetarium Complex, Patna - BSPCB",16-02-2024 03:00:00,25.610369,85.132568,PM2.5,60,217,126
India,Bihar,Patna,"IGSC Planetarium Complex, Patna - BSPCB",16-02-2024 03:00:00,25.610369,85.132568,NO2,12,12,12
India,Bihar,Patna,"Muradpur, Patna - BSPCB",16-02-2024 03:00:00,25.619651,85.147382,PM10,118,262,170
India,Bihar,Patna,"Rajbansi Nagar, Patna - BSPCB",16-02-2024 03:00:00,25.599486,85.113666,PM2.5,78,198,126
India,Bihar,Patna,"Rajbansi Nagar, Patna - BSPCB",16-02-2024 03:00:00,25.599486,85.113666,NO2,24,50,33
India,Bihar,Patna,"Rajbansi Nagar, Patna - BSPCB",16-02-2024 03:00:00,25.599486,85.113666,NH3,1,4,3
India,Bihar,Patna,"Samanpura, Patna - BSPCB",16-02-2024 03:00:00,25.596727,85.085624,NH3,3,10,5
India,Bihar,Patna,"Samanpura, Patna - BSPCB",16-02-2024 03:00:00,25.596727,85.085624,SO2,15,17,16
India,Bihar,Purnia,"Mariam Nagar, Purnia - BSPCB",16-02-2024 03:00:00,25.366336,87.117468,NO2,12,14,13
India,Bihar,Saharsa,"Police Line, Saharsa - BSPCB",16-02-2024 03:00:00,25.892357,86.590325,PM2.5,NA,NA,NA
India,Bihar,Saharsa,"Police Line, Saharsa - BSPCB",16-02-2024 03:00:00,25.892357,86.590325,PM10,NA,NA,NA
India,Bihar,Saharsa,"Police Line, Saharsa - BSPCB",16-02-2024 03:00:00,25.892357,86.590325,SO2,9,47,21
India,Bihar,Saharsa,"Police Line, Saharsa - BSPCB",16-02-2024 03:00:00,25.892357,86.590325,CO,8,42,26
India,Bihar,Samastipur,"DM Office_Kasipur, Samastipur - BSPCB",16-02-2024 03:00:00,25.859655,85.77944,NO2,1,8,6
India,Bihar,Samastipur,"DM Office_Kasipur, Samastipur - BSPCB",16-02-2024 03:00:00,25.859655,85.77944,OZONE,9,27,12
India,Bihar,Siwan,"Chitragupta Nagar, Siwan - BSPCB",16-02-2024 03:00:00,26.2271665,84.3570427,PM2.5,43,107,75
India,Bihar,Siwan,"Chitragupta Nagar, Siwan - BSPCB",16-02-2024 03:00:00,26.2271665,84.3570427,NH3,1,7,3
India,Bihar,Siwan,"Chitragupta Nagar, Siwan - BSPCB",16-02-2024 03:00:00,26.2271665,84.3570427,OZONE,1,40,6
India,Chandigarh,Chandigarh,"Sector 22, Chandigarh - CPCC",16-02-2024 03:00:00,30.735567,76.775714,NH3,6,8,7
India,Chhattisgarh,Bhilai,"32Bungalows, Bhilai - CECB",16-02-2024 03:00:00,21.194815,81.314770,OZONE,4,9,4
India,Chhattisgarh,Bhilai,"Civic Center, Bhilai - Bhilai Steel Plant",16-02-2024 03:00:00,21.185571,81.343175,SO2,NA,NA,NA
India,Chhattisgarh,Bhilai,"Civic Center, Bhilai - Bhilai Steel Plant",16-02-2024 03:00:00,21.185571,81.343175,CO,23,48,43
India,Chhattisgarh,Bilaspur,"Mangala, Bilaspur - NTPC",16-02-2024 03:00:00,22.08815,82.13737,SO2,1,26,12
India,Chhattisgarh,Chhal,"Nawapara SECL Colony, Chhal - CECB",16-02-2024 03:00:00,22.118125,83.140608,NO2,13,62,21
India,Chhattisgarh,Chhal,"Nawapara SECL Colony, Chhal - CECB",16-02-2024 03:00:00,22.118125,83.140608,NH3,2,2,2
India,Chhattisgarh,Chhal,"Nawapara SECL Colony, Chhal - CECB",16-02-2024 03:00:00,22.118125,83.140608,SO2,9,22,14
India,Chhattisgarh,Chhal,"Nawapara SECL Colony, Chhal - CECB",16-02-2024 03:00:00,22.118125,83.140608,OZONE,1,69,8
India,Chhattisgarh,Korba,"Rampur, Korba - CECB",16-02-2024 03:00:00,22.368195,82.746431,PM10,24,497,115
India,Chhattisgarh,Korba,"Rampur, Korba - CECB",16-02-2024 03:00:00,22.368195,82.746431,OZONE,2,73,4
India,Chhattisgarh,Korba,"Urja Nagar, Korba - CECB",16-02-2024 03:00:00,22.348441,82.549611,CO,23,30,29
India,Chhattisgarh,Kunjemura,"OP Jindal School, Kunjemura - CECB",16-02-2024 03:00:00,22.126650,83.483212,PM2.5,42,74,53
India,Chhattisgarh,Raipur,"AIIMS, Raipur - CECB",16-02-2024 03:00:00,21.258815,81.578979,PM10,55,180,103
India,Chhattisgarh,Raipur,"Bhatagaon New ISBT, Raipur - CECB",16-02-2024 03:00:00,21.219665,81.630094,PM2.5,NA,NA,NA
India,Chhattisgarh,Raipur,"Bhatagaon New ISBT, Raipur - CECB",16-02-2024 03:00:00,21.219665,81.630094,NH3,NA,NA,NA
India,Chhattisgarh,Raipur,"Krishak Nagar, Raipur - CECB",16-02-2024 03:00:00,21.237755,81.705301,CO,36,53,46
India,Chhattisgarh,Raipur,"Siltara Phase-II, Raipur - CECB",16-02-2024 03:00:00,21.371751,81.664929,NO2,55,80,62
India,Chhattisgarh,Tumidih,"OP Jindal Industrial Park, Tumidih - CECB",16-02-2024 03:00:00,22.06631475,83.33820077,PM2.5,NA,NA,NA
India,Delhi,Delhi,"Alipur, Delhi - DPCC",16-02-2024 03:00:00,28.815329,77.153010,PM2.5,111,321,241
India,Delhi,Delhi,"Alipur, Delhi - DPCC",16-02-2024 03:00:00,28.815329,77.153010,SO2,6,26,11
India,Delhi,Delhi,"Alipur, Delhi - DPCC",16-02-2024 03:00:00,28.815329,77.153010,CO,38,83,68
India,Delhi,Delhi,"Anand Vihar, Delhi - DPCC",16-02-2024 03:00:00,28.647622,77.3158090,PM10,133,442,278
India,Delhi,Delhi,"Anand Vihar, Delhi - DPCC",16-02-2024 03:00:00,28.647622,77.3158090,CO,8,126,80
India,Delhi,Delhi,"Anand Vihar, Delhi - DPCC",16-02-2024 03:00:00,28.647622,77.3158090,OZONE,17,23,19
India,Delhi,Delhi,"Aya Nagar, Delhi - IMD",16-02-2024 03:00:00,28.4706914,77.1099364,NO2,NA,NA,NA
India,Delhi,Delhi,"Bawana, Delhi - DPCC",16-02-2024 03:00:00,28.776200,77.051074,NO2,16,104,51
India,Delhi,Delhi,"Burari Crossing, Delhi - IMD",16-02-2024 03:00:00,28.7256504,77.2011573,PM2.5,63,379,228
India,Delhi,Delhi,"Burari Crossing, Delhi - IMD",16-02-2024 03:00:00,28.7256504,77.2011573,OZONE,23,106,30
India,Delhi,Delhi,"DTU, Delhi - CPCB",16-02-2024 03:00:00,28.7500499,77.1112615,PM2.5,70,312,152
India,Delhi,Delhi,"DTU, Delhi - CPCB",16-02-2024 03:00:00,28.7500499,77.1112615,SO2,28,30,29
India,Delhi,Delhi,"DTU, Delhi - CPCB",16-02-2024 03:00:00,28.7500499,77.1112615,OZONE,26,41,26
India,Delhi,Delhi,"Dr. Karni Singh Shooting Range, Delhi - DPCC",16-02-2024 03:00:00,28.498571,77.264840,PM2.5,122,387,282
India,Delhi,Delhi,"Dr. Karni Singh Shooting Range, Delhi - DPCC",16-02-2024 03:00:00,28.498571,77.264840,OZONE,1,196,13
India,Delhi,Delhi,"IGI Airport (T3), Delhi - IMD",16-02-2024 03:00:00,28.5627763,77.1180053,PM2.5,94,343,254
India,Delhi,Delhi,"IHBAS, Dilshad Garden, Delhi - CPCB",16-02-2024 03:00:00,28.6811736,77.3025234,OZONE,9,59,16
India,Delhi,Delhi,"ITO, Delhi - CPCB",16-02-2024 03:00:00,28.628624,77.241060,OZONE,14,154,18
India,Delhi,Delhi,"Jahangirpuri, Delhi - DPCC",16-02-2024 03:00:00,28.732820,77.170633,PM10,171,471,296
India,Delhi,Delhi,"Jahangirpuri, Delhi - DPCC",16-02-2024 03:00:00,28.732820,77.170633,SO2,12,26,18
India,Delhi,Delhi,"Jawaharlal Nehru Stadium, Delhi - DPCC",16-02-2024 03:00:00,28.580280,77.233829,NO2,47,157,95
India,Delhi,Delhi,"Jawaharlal Nehru Stadium, Delhi - DPCC",16-02-2024 03:00:00,28.580280,77.233829,SO2,12,44,24
India,Delhi,Delhi,"Lodhi Road, Delhi - IITM",16-02-2024 03:00:00,28.588333,77.221667,PM10,100,464,132
India,Delhi,Delhi,"Lodhi Road, Delhi - IITM",16-02-2024 03:00:00,28.588333,77.221667,NO2,77,136,90
India,Delhi,Delhi,"Lodhi Road, Delhi - IITM",16-02-2024 03:00:00,28.588333,77.221667,OZONE,15,18,15
India,Delhi,Delhi,"Major Dhyan Chand National Stadium, Delhi - DPCC",16-02-2024 03:00:00,28.611281,77.237738,PM10,104,244,163
India,Delhi,Delhi,"Major Dhyan Chand National Stadium, Delhi - DPCC",16-02-2024 03:00:00,28.611281,77.237738,SO2,5,26,13
India,Delhi,Delhi,"Mandir Marg, Delhi - DPCC",16-02-2024 03:00:00,28.636429,77.201067,NO2,98,138,119
India,Delhi,Delhi,"Mandir Marg, Delhi - DPCC",16-02-2024 03:00:00,28.636429,77.201067,SO2,6,11,8
India,Delhi,Delhi,"Mundka, Delhi - DPCC",16-02-2024 03:00:00,28.684678,77.076574,PM10,138,495,262
India,Delhi,Delhi,"NSIT Dwarka, Delhi - CPCB",16-02-2024 03:00:00,28.60909,77.0325413,PM10,151,450,249
India,Delhi,Delhi,"NSIT Dwarka, Delhi - CPCB",16-02-2024 03:00:00,28.60909,77.0325413,NH3,9,12,10
India,Delhi,Delhi,"Najafgarh, Delhi - DPCC",16-02-2024 03:00:00,28.570173,76.933762,OZONE,NA,NA,NA
India,Delhi,Delhi,"Narela, Delhi - DPCC",16-02-2024 03:00:00,28.822836,77.101981,NO2,20,75,48
India,Delhi,Delhi,"Narela, Delhi - DPCC",16-02-2024 03:00:00,28.822836,77.101981,SO2,4,35,13
India,Delhi,Delhi,"Nehru Nagar, Delhi - DPCC",16-02-2024 03:00:00,28.567890,77.250515,NO2,17,36,25
India,Delhi,Delhi,"New Moti Bagh, Delhi - MHUA",16-02-2024 03:00:00,28.57834,77.18400,NO2,1,9,4
India,Delhi,Delhi,"North Campus, DU, Delhi - IMD",16-02-2024 03:00:00,28.6573814,77.1585447,PM2.5,169,345,287
India,Delhi,Delhi,"North Campus, DU, Delhi - IMD",16-02-2024 03:00:00,28.6573814,77.1585447,CO,10,40,28
India,Delhi,Delhi,"Okhla Phase-2, Delhi - DPCC",16-02-2024 03:00:00,28.530785,77.271255,NO2,63,198,129
India,Delhi,Delhi,"Okhla Phase-2, Delhi - DPCC",16-02-2024 03:00:00,28.530785,77.271255,CO,32,122,111
India,Delhi,Delhi,"Patparganj, Delhi - DPCC",16-02-2024 03:00:00,28.623763,77.287209,NO2,44,85,57
India,Delhi,Delhi,"Patparganj, Delhi - DPCC",16-02-2024 03:00:00,28.623763,77.287209,NH3,7,13,10
India,Delhi,Delhi,"Punjabi Bagh, Delhi - DPCC",16-02-2024 03:00:00,28.674045,77.131023,NH3,2,12,6
India,Delhi,Delhi,"Pusa, Delhi - DPCC",16-02-2024 03:00:00,28.639652,77.146275,CO,6,112,82
India,Delhi,Delhi,"Pusa, Delhi - IMD",16-02-2024 03:00:00,28.636110,77.173332,PM10,NA,NA,NA
India,Delhi,Delhi,"Pusa, Delhi - IMD",16-02-2024 03:00:00,28.636110,77.173332,CO,NA,NA,NA
India,Delhi,Delhi,"R K Puram, Delhi - DPCC",16-02-2024 03:00:00,28.563262,77.186937,PM2.5,144,370,304
India,Delhi,Delhi,"R K Puram, Delhi - DPCC",16-02-2024 03:00:00,28.563262,77.186937,NH3,4,5,4
India,Delhi,Delhi,"R K Puram, Delhi - DPCC",16-02-2024 03:00:00,28.563262,77.186937,SO2,7,21,14
India,Delhi,Delhi,"R K Puram, Delhi - DPCC",16-02-2024 03:00:00,28.563262,77.186937,CO,18,124,107
India,Delhi,Delhi,"Rohini, Delhi - DPCC",16-02-2024 03:00:00,28.732528,77.119920,NH3,7,16,11
India,Delhi,Delhi,"Sonia Vihar, Delhi - DPCC",16-02-2024 03:00:00,28.710508,77.249485,PM2.5,200,357,299
India,Delhi,Delhi,"Sonia Vihar, Delhi - DPCC",16-02-2024 03:00:00,28.710508,77.249485,PM10,133,454,253
India,Delhi,Delhi,"Sri Aurobindo Marg, Delhi - DPCC",16-02-2024 03:00:00,28.531346,77.190156,NO2,25,82,48
India,Delhi,Delhi,"Sri Aurobindo Marg, Delhi - DPCC",16-02-2024 03:00:00,28.531346,77.190156,NH3,7,9,8
India,Delhi,Delhi,"Sri Aurobindo Marg, Delhi - DPCC",16-02-2024 03:00:00,28.531346,77.190156,CO,14,78,52
India,Delhi,Delhi,"Wazirpur, Delhi - DPCC",16-02-2024 03:00:00,28.699793,77.165453,PM10,173,414,281
India,Gujarat,Ahmedabad,"Gyaspur, Ahmedabad - IITM",16-02-2024 03:00:00,22.977134,72.553024,NO2,21,22,22
India,Gujarat,Ahmedabad,"Maninagar, Ahmedabad - GPCB",16-02-2024 03:00:00,23.002657,72.591912,PM2.5,62,103,81
India,Gujarat,Ahmedabad,"Maninagar, Ahmedabad - GPCB",16-02-2024 03:00:00,23.002657,72.591912,NO2,16,43,24
India,Gujarat,Ahmedabad,"Rakhial, Ahmedabad - IITM",16-02-2024 03:00:00,23.016834,72.625775,PM2.5,76,248,132
India,Gujarat,Ahmedabad,"SAC ISRO Bopal, Ahmedabad - IITM",16-02-2024 03:00:00,23.041137,72.456691,CO,33,34,34
India,Gujarat,Ahmedabad,"SAC ISRO Bopal, Ahmedabad - IITM",16-02-2024 03:00:00,23.041137,72.456691,OZONE,15,35,27
India,Gujarat,Ahmedabad,"SVPI Airport Hansol, Ahmedabad - IITM",16-02-2024 03:00:00,23.076793,72.627874,NO2,NA,NA,NA
India,Gujarat,Ahmedabad,"Sardar Vallabhbhai Patel Stadium, Ahmedabad - IITM",16-02-2024 03:00:00,23.043070,72.562968,PM2.5,87,211,125
India,Gujarat,Ahmedabad,"Sardar Vallabhbhai Patel Stadium, Ahmedabad - IITM",16-02-2024 03:00:00,23.043070,72.562968,NO2,12,14,13
India,Gujarat,Ahmedabad,"Sardar Vallabhbhai Patel Stadium, Ahmedabad - IITM",16-02-2024 03:00:00,23.043070,72.562968,SO2,6,12,10
India,Gujarat,Ankleshwar,"GIDC, Ankleshwar - GPCB",16-02-2024 03:00:00,21.613267,73.010555,PM2.5,83,280,144
India,Gujarat,Ankleshwar,"GIDC, Ankleshwar - GPCB",16-02-2024 03:00:00,21.613267,73.010555,NO2,34,35,34
India,Gujarat,Gandhinagar,"IIPHG Lekawada, Gandhinagar - IITM",16-02-2024 03:00:00,23.243639,72.68994,SO2,12,40,16
India,Gujarat,Surat,"Science Center, Surat - SMC",16-02-2024 03:00:00,21.170046,72.795405,PM2.5,19,84,50
India,Gujarat,Surat,"Science Center, Surat - SMC",16-02-2024 03:00:00,21.170046,72.795405,SO2,17,29,21
India,Haryana,Ambala,"Patti Mehar, Ambala - HSPCB",16-02-2024 03:00:00,30.379589,76.778328,PM10,64,131,105
India,Haryana,Ambala,"Patti Mehar, Ambala - HSPCB",16-02-2024 03:00:00,30.379589,76.778328,OZONE,6,16,13
India,Haryana,Bahadurgarh,"Arya Nagar, Bahadurgarh - HSPCB",16-02-2024 03:00:00,28.6701,76.9254,PM2.5,85,306,177
India,Haryana,Ballabgarh,"Nathu Colony, Ballabgarh - HSPCB",16-02-2024 03:00:00,28.3419248,77.319699,PM2.5,116,379,285
India,Haryana,Ballabgarh,"Nathu Colony, Ballabgarh - HSPCB",16-02-2024 03:00:00,28.3419248,77.319699,PM10,103,308,195
India,Haryana,Ballabgarh,"Nathu Colony, Ballabgarh - HSPCB",16-02-2024 03:00:00,28.3419248,77.319699,SO2,7,78,20
India,Haryana,Charkhi Dadri,"Mini Secretariat, Charkhi Dadri - HSPCB",16-02-2024 03:00:00,28.593883,76.270653,NH3,5,8,6
India,Haryana,Charkhi Dadri,"Mini Secretariat, Charkhi Dadri - HSPCB",16-02-2024 03:00:00,28.593883,76.270653,CO,26,109,70
India,Haryana,Dharuhera,"Municipal Corporation Office, Dharuhera -  HSPCB",16-02-2024 03:00:00,28.206800,76.799700,NH3,9,26,20
India,Haryana,Dharuhera,"Municipal Corporation Office, Dharuhera -  HSPCB",16-02-2024 03:00:00,28.206800,76.799700,CO,20,100,61
India,Haryana,Faridabad,"New Industrial Town, Faridabad - HSPCB",16-02-2024 03:00:00,28.39072,77.30059,PM10,150,266,196
India,Haryana,Faridabad,"New Industrial Town, Faridabad - HSPCB",16-02-2024 03:00:00,28.39072,77.30059,CO,13,38,31
India,Haryana,Fatehabad,"Huda Sector, Fatehabad - HSPCB",16-02-2024 03:00:00,29.503664,75.467934,PM10,95,313,127
India,Haryana,Fatehabad,"Huda Sector, Fatehabad - HSPCB",16-02-2024 03:00:00,29.503664,75.467934,CO,5,43,6
India,Haryana,Gurugram,"Sector-51, Gurugram - HSPCB",16-02-2024 03:00:00,28.4227,77.0667,PM2.5,94,348,290
India,Haryana,Gurugram,"Teri Gram, Gurugram - HSPCB",16-02-2024 03:00:00,28.4275,77.1465,PM2.5,162,341,249
India,Haryana,Gurugram,"Teri Gram, Gurugram - HSPCB",16-02-2024 03:00:00,28.4275,77.1465,NO2,27,51,42
India,Haryana,Gurugram,"Vikas Sadan, Gurugram - HSPCB",16-02-2024 03:00:00,28.4501238,77.0263051,SO2,11,41,26
India,Haryana,Hisar,"Urban Estate-II, Hisar - HSPCB",16-02-2024 03:00:00,29.140560,75.744941,SO2,3,69,31
India,Haryana,Jind,"Police Lines, Jind - HSPCB",16-02-2024 03:00:00,29.307814,76.337619,PM10,90,238,121
India,Haryana,Jind,"Police Lines, Jind - HSPCB",16-02-2024 03:00:00,29.307814,76.337619,SO2,6,64,19
India,Haryana,Jind,"Police Lines, Jind - HSPCB",16-02-2024 03:00:00,29.307814,76.337619,OZONE,2,21,10
India,Haryana,Kaithal,"Rishi Nagar, Kaithal - HSPCB",16-02-2024 03:00:00,29.8006,76.4155,PM2.5,88,233,136
India,Haryana,Kaithal,"Rishi Nagar, Kaithal - HSPCB",16-02-2024 03:00:00,29.8006,76.4155,NH3,8,9,8
India,Haryana,Kaithal,"Rishi Nagar, Kaithal - HSPCB",16-02-2024 03:00:00,29.8006,76.4155,OZONE,8,15,9
India,Haryana,Karnal,"Sector-12, Karnal - HSPCB",16-02-2024 03:00:00,29.695300,77.002700,PM2.5,67,117,84
India,Haryana,Kurukshetra,"Sector-7, Kurukshetra - HSPCB",16-02-2024 03:00:00,29.966942,76.875879,OZONE,25,83,43
India,Haryana,Mandikhera,"General Hospital, Mandikhera - HSPCB",16-02-2024 03:00:00,27.9002,76.9938,SO2,26,39,33
India,Haryana,Mandikhera,"General Hospital, Mandikhera - HSPCB",16-02-2024 03:00:00,27.9002,76.9938,OZONE,17,33,26
India,Haryana,Manesar,"Sector-2 IMT, Manesar - HSPCB",16-02-2024 03:00:00,28.360699,76.936090,PM10,76,172,119
India,Haryana,Manesar,"Sector-2 IMT, Manesar - HSPCB",16-02-2024 03:00:00,28.360699,76.936090,OZONE,5,57,8
India,Haryana,Narnaul,"Shastri Nagar, Narnaul - HSPCB",16-02-2024 03:00:00,28.060249,76.113115,NH3,5,18,11
India,Haryana,Palwal,"Shyam Nagar, Palwal - HSPCB",16-02-2024 03:00:00,28.1485564,77.3320667,NO2,23,25,24
India,Haryana,Rohtak,"MD University, Rohtak - HSPCB",16-02-2024 03:00:00,28.52123,76.37138,PM2.5,17,256,133
India,Haryana,Sonipat,"Murthal, Sonipat - HSPCB",16-02-2024 03:00:00,29.027200,77.062100,NH3,7,10,9
India,Haryana,Sonipat,"Murthal, Sonipat - HSPCB",16-02-2024 03:00:00,29.027200,77.062100,OZONE,16,36,20
India,Haryana,Yamuna Nagar,"Gobind Pura, Yamuna Nagar - HSPCB",16-02-2024 03:00:00,30.1480566,77.2893471,NO2,3,5,4
India,Himachal Pradesh,Baddi,"HIMUDA Complex Phase-1, Baddi - HPPCB",16-02-2024 03:00:00,30.943887,76.801991,CO,16,78,49
India,Jharkhand,Dhanbad,"Kalakusuma, Dhanbad - DMC",16-02-2024 03:00:00,23.811548,86.481238,PM2.5,NA,NA,NA
India,Jharkhand,Dhanbad,"Kalakusuma, Dhanbad - DMC",16-02-2024 03:00:00,23.811548,86.481238,NO2,NA,NA,NA
India,Jharkhand,Dhanbad,"Kalakusuma, Dhanbad - DMC",16-02-2024 03:00:00,23.811548,86.481238,CO,80,100,87
India,Jharkhand,Pathardih,"Mohalbani Ghat, Pathardih - DMC",16-02-2024 03:00:00,23.669880,86.411725,PM10,8,10,9
India,Karnataka,Bagalkot,"Vidayagiri, Bagalkot - KSPCB",16-02-2024 03:00:00,16.172806,75.659694,PM10,42,42,42
India,Karnataka,Bagalkot,"Vidayagiri, Bagalkot - KSPCB",16-02-2024 03:00:00,16.172806,75.659694,CO,22,50,35
India,Karnataka,Belgaum,"Ramteerth Nagar, Belgaum - KSPCB",16-02-2024 03:00:00,15.888653,74.541751,NO2,24,33,27
India,Karnataka,Belgaum,"Ramteerth Nagar, Belgaum - KSPCB",16-02-2024 03:00:00,15.888653,74.541751,NH3,33,34,34
India,Karnataka,Belgaum,"Ramteerth Nagar, Belgaum - KSPCB",16-02-2024 03:00:00,15.888653,74.541751,CO,32,54,37
India,Karnataka,Bengaluru,"Bapuji Nagar, Bengaluru - KSPCB",16-02-2024 03:00:00,12.951913,77.539784,NH3,1,1,1
India,Karnataka,Bengaluru,"City Railway Station, Bengaluru - KSPCB",16-02-2024 03:00:00,12.9756843,77.5660749,PM10,67,84,73
India,Karnataka,Bengaluru,"Hebbal, Bengaluru - KSPCB",16-02-2024 03:00:00,13.029152,77.585901,PM2.5,NA,NA,NA
India,Karnataka,Bengaluru,"Hebbal, Bengaluru - KSPCB",16-02-2024 03:00:00,13.029152,77.585901,NO2,NA,NA,NA
India,Karnataka,Bengaluru,"Hombegowda Nagar, Bengaluru - KSPCB",16-02-2024 03:00:00,12.938539,77.590100,OZONE,4,5,4
India,Karnataka,Bengaluru,"Jayanagar 5th Block, Bengaluru - KSPCB",16-02-2024 03:00:00,12.920984,77.584908,PM2.5,32,158,78
India,Karnataka,Bengaluru,"Jayanagar 5th Block, Bengaluru - KSPCB",16-02-2024 03:00:00,12.920984,77.584908,OZONE,18,19,18
India,Karnataka,Bengaluru,"Jigani, Bengaluru - KSPCB",16-02-2024 03:00:00,12.7816279,77.6299145,NO2,31,32,32
India,Karnataka,Bengaluru,"Kasturi Nagar, Bengaluru - KSPCB",16-02-2024 03:00:00,13.003872,77.664217,SO2,10,10,10
India,Karnataka,Bengaluru,"Kasturi Nagar, Bengaluru - KSPCB",16-02-2024 03:00:00,13.003872,77.664217,CO,22,27,25
India,Karnataka,Bengaluru,"Sanegurava Halli, Bengaluru - KSPCB",16-02-2024 03:00:00,12.990328,77.5431385,SO2,1,3,2
India,Karnataka,Bengaluru,"Shivapura_Peenya, Bengaluru - KSPCB",16-02-2024 03:00:00,13.0246342,77.5080115,SO2,5,17,9
India,Karnataka,Bengaluru,"Silk Board, Bengaluru - KSPCB",16-02-2024 03:00:00,12.917348,77.622813,NO2,23,31,25
India,Karnataka,Bengaluru,"Silk Board, Bengaluru - KSPCB",16-02-2024 03:00:00,12.917348,77.622813,NH3,1,2,1
India,Karnataka,Bengaluru,"Silk Board, Bengaluru - KSPCB",16-02-2024 03:00:00,12.917348,77.622813,SO2,10,16,13
India,Karnataka,Bidar,"Naubad, Bidar - KSPCB",16-02-2024 03:00:00,17.930306,77.482194,PM2.5,32,95,49
India,Karnataka,Chamarajanagar,"Urban, Chamarajanagar - KSPCB",16-02-2024 03:00:00,11.55358,76.55521,CO,19,40,26
India,Karnataka,Chikkamagaluru,"Kalyana Nagara, Chikkamagaluru - KSPCB",16-02-2024 03:00:00,13.328028,75.797056,OZONE,19,65,35
India,Karnataka,Davanagere,"Devaraj Urs Badavane, Davanagere - KSPCB",16-02-2024 03:00:00,14.475800,75.905200,OZONE,2,28,25
India,Karnataka,Dharwad,"Kalabhavan, Dharwad - KSPCB",16-02-2024 03:00:00,15.459706,75.008381,PM2.5,57,89,71
India,Karnataka,Dharwad,"Kalabhavan, Dharwad - KSPCB",16-02-2024 03:00:00,15.459706,75.008381,NO2,11,35,27
India,Karnataka,Dharwad,"Kalabhavan, Dharwad - KSPCB",16-02-2024 03:00:00,15.459706,75.008381,CO,23,168,88
India,Karnataka,Gadag,"Panchal Nagar, Gadag - KSPCB",16-02-2024 03:00:00,15.411456,75.638133,NH3,NA,NA,NA
India,Karnataka,Gadag,"Panchal Nagar, Gadag - KSPCB",16-02-2024 03:00:00,15.411456,75.638133,CO,35,44,38
India,Karnataka,Hassan,"B.Katihalli, Hassan - KSPCB",16-02-2024 03:00:00,13.008556,76.125258,SO2,8,26,14
India,Karnataka,Haveri,"Ashwini Nagar, Haveri - KSPCB",16-02-2024 03:00:00,14.791800,75.389600,NO2,22,46,32
India,Karnataka,Hubballi,"Lingaraj Nagar, Hubballi - KSPCB",16-02-2024 03:00:00,15.3714823,75.1160168,NO2,7,16,11
India,Karnataka,Kalaburagi,"Lal Bahadur Shastri Nagar, Kalaburagi - KSPCB",16-02-2024 03:00:00,17.321993,76.822628,NH3,2,2,2
India,Karnataka,Kalaburagi,"Mahatma Basaveswar Colony, Kalaburgi - KSPCB",16-02-2024 03:00:00,17.336318,76.847397,SO2,3,26,7
India,Karnataka,Karwar,"KHB Colony, Karwar - KSPCB",16-02-2024 03:00:00,14.816666,74.141003,PM2.5,45,237,75
India,Karnataka,Karwar,"KHB Colony, Karwar - KSPCB",16-02-2024 03:00:00,14.816666,74.141003,SO2,17,18,18
India,Karnataka,Karwar,"KHB Colony, Karwar - KSPCB",16-02-2024 03:00:00,14.816666,74.141003,OZONE,21,22,21
India,Karnataka,Kolar,"Tamaka Ind. Area, Kolar - KSPCB",16-02-2024 03:00:00,13.1276288,78.1570122,NO2,NA,NA,NA
India,Karnataka,Koppal,"Diwator Nagar, Koppal - KSPCB",16-02-2024 03:00:00,15.347630,76.181767,NO2,2,24,11
India,Karnataka,Madikeri,"Stuart Hill, Madikeri - KSPCB",16-02-2024 03:00:00,12.415911,75.735050,PM2.5,14,61,39
India,Karnataka,Madikeri,"Stuart Hill, Madikeri - KSPCB",16-02-2024 03:00:00,12.415911,75.735050,CO,6,50,28
India,Karnataka,Mangalore,"Kadri, Mangalore - KSPCB",16-02-2024 03:00:00,12.889250,74.853000,SO2,NA,NA,NA
India,Karnataka,Mangalore,"Kadri, Mangalore - KSPCB",16-02-2024 03:00:00,12.889250,74.853000,CO,38,46,44
India,Karnataka,Mysuru,"Hebbal 1st Stage, Mysuru - KSPCB",16-02-2024 03:00:00,12.21041,76.37376,PM2.5,NA,NA,NA
India,Karnataka,Mysuru,"Hebbal 1st Stage, Mysuru - KSPCB",16-02-2024 03:00:00,12.21041,76.37376,NO2,NA,NA,NA
India,Karnataka,Raichur,"Haji Colony, Raichur - KSPCB",16-02-2024 03:00:00,16.208139,77.348417,OZONE,3,7,4
India,Karnataka,Ramanagara,"Vijay Nagar, Ramanagara - KSPCB",16-02-2024 03:00:00,12.733409,77.298051,NO2,2,10,4
India,Karnataka,Shivamogga,"Vinoba Nagara, Shivamogga - KSPCB",16-02-2024 03:00:00,13.940000,75.555917,PM2.5,38,57,48
India,Karnataka,Shivamogga,"Vinoba Nagara, Shivamogga - KSPCB",16-02-2024 03:00:00,13.940000,75.555917,NO2,12,20,13
India,Karnataka,Shivamogga,"Vinoba Nagara, Shivamogga - KSPCB",16-02-2024 03:00:00,13.940000,75.555917,NH3,2,4,3
India,Karnataka,Tumakuru,"Thimmalapura, Tumakuru - KSPCB",16-02-2024 03:00:00,13.377516,77.099072,PM10,13,37,22
India,Karnataka,Yadgir,"Collector Office, Yadgir - KSPCB",16-02-2024 03:00:00,16.7602,77.1428,PM2.5,NA,NA,NA
India,Karnataka,Yadgir,"Collector Office, Yadgir - KSPCB",16-02-2024 03:00:00,16.7602,77.1428,OZONE,16,19,18
India,Kerala,Eloor,"Udyogamandal, Eloor - Kerala PCB",16-02-2024 03:00:00,10.073232,76.302765,PM2.5,35,63,48
India,Kerala,Eloor,"Udyogamandal, Eloor - Kerala PCB",16-02-2024 03:00:00,10.073232,76.302765,NH3,1,1,1
India,Kerala,Eloor,"Udyogamandal, Eloor - Kerala PCB",16-02-2024 03:00:00,10.073232,76.302765,SO2,1,6,2
India,Kerala,Kannur,"Thavakkara, Kannur - Kerala PCB",16-02-2024 03:00:00,11.875000,75.373200,PM2.5,44,52,47
India,Kerala,Kannur,"Thavakkara, Kannur - Kerala PCB",16-02-2024 03:00:00,11.875000,75.373200,NH3,1,1,1
India,Kerala,Kochi,"Vyttila, Kochi - Kerala PCB",16-02-2024 03:00:00,9.969447,76.321186,CO,62,64,64
India,Kerala,Thiruvananthapuram,"Kariavattom, Thiruvananthapuram - Kerala PCB",16-02-2024 03:00:00,8.563700,76.886500,PM10,78,88,83
India,Kerala,Thiruvananthapuram,"Kariavattom, Thiruvananthapuram - Kerala PCB",16-02-2024 03:00:00,8.563700,76.886500,SO2,1,15,9
India,Kerala,Thrissur,"Corporation Ground, Thrissur - Kerala PCB",16-02-2024 03:00:00,10.532400,76.215900,PM2.5,NA,NA,NA
India,Kerala,Thrissur,"Corporation Ground, Thrissur - Kerala PCB",16-02-2024 03:00:00,10.532400,76.215900,PM10,NA,NA,NA
India,Kerala,Thrissur,"Corporation Ground, Thrissur - Kerala PCB",16-02-2024 03:00:00,10.532400,76.215900,NH3,NA,NA,NA
India,Madhya Pradesh,Bhopal,"Idgah Hills, Bhopal - MPPCB",16-02-2024 03:00:00,23.264759,77.381568,CO,30,68,48
India,Madhya Pradesh,Bhopal,"Paryavaran Parisar, Bhopal - MPPCB",16-02-2024 03:00:00,23.210494,77.425409,PM2.5,87,247,150
India,Madhya Pradesh,Bhopal,"Paryavaran Parisar, Bhopal - MPPCB",16-02-2024 03:00:00,23.210494,77.425409,NO2,25,84,39
India,Madhya Pradesh,Bhopal,"Paryavaran Parisar, Bhopal - MPPCB",16-02-2024 03:00:00,23.210494,77.425409,OZONE,26,79,46
India,Madhya Pradesh,Bhopal,"T T Nagar, Bhopal - MPPCB",16-02-2024 03:00:00,23.233584,77.400574,CO,26,78,46
India,Madhya Pradesh,Gwalior,"City Center, Gwalior - MPPCB",16-02-2024 03:00:00,26.203442,78.193251,CO,36,130,85
India,Madhya Pradesh,Gwalior,"Deen Dayal Nagar, Gwalior - MPPCB",16-02-2024 03:00:00,26.259242,78.216432,SO2,19,24,21
India,Madhya Pradesh,Gwalior,"Deen Dayal Nagar, Gwalior - MPPCB",16-02-2024 03:00:00,26.259242,78.216432,OZONE,9,258,28
India,Madhya Pradesh,Gwalior,"Phool Bagh, Gwalior - Mondelez Ind. Food",16-02-2024 03:00:00,26.210536,78.171,PM2.5,33,362,294
India,Madhya Pradesh,Gwalior,"Phool Bagh, Gwalior - Mondelez Ind. Food",16-02-2024 03:00:00,26.210536,78.171,SO2,8,17,13
India,Madhya Pradesh,Indore,"Chhoti Gwaltoli, Indore - MPPCB",16-02-2024 03:00:00,22.4310,75.5213,NH3,3,6,5
India,Madhya Pradesh,Indore,"Maguda Nagar, Indore - IMC",16-02-2024 03:00:00,22.7524,75.8872,NO2,4,5,5
India,Madhya Pradesh,Indore,"Maguda Nagar, Indore - IMC",16-02-2024 03:00:00,22.7524,75.8872,CO,21,28,25
India,Madhya Pradesh,Indore,"Regional Park, Indore - IMC",16-02-2024 03:00:00,22.6780,75.8559,NO2,7,13,10
India,Madhya Pradesh,Indore,"Regional Park, Indore - IMC",16-02-2024 03:00:00,22.6780,75.8559,NH3,1,3,2
India,Madhya Pradesh,Indore,"Residency Area, Indore - IMC",16-02-2024 03:00:00,22.7084,75.8815,PM2.5,46,86,68
India,Madhya Pradesh,Indore,"Residency Area, Indore - IMC",16-02-2024 03:00:00,22.7084,75.8815,PM10,51,92,71
India,Madhya Pradesh,Jabalpur,"Govindh Bhavan Colony, Jabalpur - JMC",16-02-2024 03:00:00,23.163174,79.973061,PM10,57,97,74
India,Madhya Pradesh,Jabalpur,"Govindh Bhavan Colony, Jabalpur - JMC",16-02-2024 03:00:00,23.163174,79.973061,OZONE,22,110,35
India,Madhya Pradesh,Jabalpur,"Gupteshwar, Jabalpur - JMC",16-02-2024 03:00:00,23.142888,79.916147,PM10,NA,NA,NA
India,Madhya Pradesh,Jabalpur,"Gupteshwar, Jabalpur - JMC",16-02-2024 03:00:00,23.142888,79.916147,CO,NA,NA,NA
India,Madhya Pradesh,Jabalpur,"Gupteshwar, Jabalpur - JMC",16-02-2024 03:00:00,23.142888,79.916147,OZONE,NA,NA,NA
India,Madhya Pradesh,Jabalpur,"Marhatal, Jabalpur - MPPCB",16-02-2024 03:00:00,23.168606,79.932247,PM2.5,95,310,200
India,Madhya Pradesh,Jabalpur,"Marhatal, Jabalpur - MPPCB",16-02-2024 03:00:00,23.168606,79.932247,SO2,16,26,20
India,Madhya Pradesh,Jabalpur,"Marhatal, Jabalpur - MPPCB",16-02-2024 03:00:00,23.168606,79.932247,OZONE,13,64,35
India,Madhya Pradesh,Jabalpur,"Suhagi, Jabalpur - JMC",16-02-2024 03:00:00,23.218135,79.957770,PM2.5,62,237,115
India,Madhya Pradesh,Jabalpur,"Suhagi, Jabalpur - JMC",16-02-2024 03:00:00,23.218135,79.957770,PM10,52,127,84
India,Madhya Pradesh,Jabalpur,"Suhagi, Jabalpur - JMC",16-02-2024 03:00:00,23.218135,79.957770,CO,20,113,71
India,Madhya Pradesh,Maihar,"Sahilara, Maihar - KJS Cements",16-02-2024 03:00:00,24.2613009,80.7231783,CO,22,30,24
India,Madhya Pradesh,Mandideep,"Sector-D Industrial Area, Mandideep - MPPCB",16-02-2024 03:00:00,23.108440,77.511428,PM10,102,168,133
India,Madhya Pradesh,Mandideep,"Sector-D Industrial Area, Mandideep - MPPCB",16-02-2024 03:00:00,23.108440,77.511428,NH3,10,12,11
India,Madhya Pradesh,Mandideep,"Sector-D Industrial Area, Mandideep - MPPCB",16-02-2024 03:00:00,23.108440,77.511428,OZONE,32,46,36
India,Madhya Pradesh,Pithampur,"Sector-2 Industrial Area, Pithampur - MPPCB",16-02-2024 03:00:00,22.624758,75.675238,SO2,9,15,12
India,Madhya Pradesh,Sagar,"Deen Dayal Nagar, Sagar - MPPCB",16-02-2024 03:00:00,23.8640158,78.80289321,CO,47,94,64
India,Madhya Pradesh,Satna,"Bandhavgar Colony, Satna - Birla Cement",16-02-2024 03:00:00,24.58434363,80.8549414,PM10,48,48,48
India,Madhya Pradesh,Singrauli,"Suryakiran Bhawan NCL, Singrauli - MPPCB",16-02-2024 03:00:00,24.108970,82.645580,PM10,96,156,120
India,Madhya Pradesh,Singrauli,"Suryakiran Bhawan NCL, Singrauli - MPPCB",16-02-2024 03:00:00,24.108970,82.645580,SO2,38,126,57
India,Madhya Pradesh,Ujjain,"Mahakaleshwar Temple, Ujjain - MPPCB",16-02-2024 03:00:00,23.182719 ,75.768218 ,SO2,4,13,10
India,Madhya Pradesh,Ujjain,"Mahakaleshwar Temple, Ujjain - MPPCB",16-02-2024 03:00:00,23.182719 ,75.768218 ,CO,20,60,45
India,Maharashtra,Amravati,"Shivneri Colony, Amravati - MPCB",16-02-2024 03:00:00,20.9402359,77.7895248,PM2.5,65,166,104
India,Maharashtra,Aurangabad,"MIDC Chilkalthana, Aurangabad - MPCB",16-02-2024 03:00:00,19.875620,75.387310,PM10,55,277,112
India,Maharashtra,Aurangabad,"More Chowk Waluj, Aurangabad - MPCB",16-02-2024 03:00:00,19.8389439,75.244448,PM10,41,108,72
India,Maharashtra,Aurangabad,"More Chowk Waluj, Aurangabad - MPCB",16-02-2024 03:00:00,19.8389439,75.244448,CO,13,105,41
India,Maharashtra,Aurangabad,"Rachnakar Colony, Aurangabad - MPCB",16-02-2024 03:00:00,19.863756,75.321188,PM2.5,24,210,101
India,Maharashtra,Belapur,"CBD Belapur, Belapur - MPCB",16-02-2024 03:00:00,19.0243902,73.0406721,PM2.5,90,138,106
India,Maharashtra,Bhiwandi,"Gokul Nagar, Bhiwandi - MPCB",16-02-2024 03:00:00,19.309073,73.057223,PM10,45,154,128
India,Maharashtra,Bhiwandi,"Gokul Nagar, Bhiwandi - MPCB",16-02-2024 03:00:00,19.309073,73.057223,SO2,7,34,15
India,Maharashtra,Boisar,"Khaira, Boisar - MPCB",16-02-2024 03:00:00,19.786089,72.757971,PM10,NA,NA,NA
India,Maharashtra,Boisar,"Khaira, Boisar - MPCB",16-02-2024 03:00:00,19.786089,72.757971,CO,30,79,59
India,Maharashtra,Chandrapur,"Chauhan Colony, Chandrapur - MPCB",16-02-2024 03:00:00,19.962900,79.298714,NH3,1,1,1
India,Maharashtra,Chandrapur,"Chauhan Colony, Chandrapur - MPCB",16-02-2024 03:00:00,19.962900,79.298714,CO,22,25,23
India,Maharashtra,Chandrapur,"MIDC Khutala, Chandrapur - MPCB",16-02-2024 03:00:00,19.9775302,79.2337086,PM2.5,NA,NA,NA
India,Maharashtra,Chandrapur,"MIDC Khutala, Chandrapur - MPCB",16-02-2024 03:00:00,19.9775302,79.2337086,PM10,NA,NA,NA
India,Maharashtra,Dhule,"Deopur, Dhule - MPCB",16-02-2024 03:00:00,20.918946,74.776388,SO2,6,25,15
India,Maharashtra,Jalgaon,"Prabhat Colony, Jalgaon - MPCB",16-02-2024 03:00:00,21.001264,75.565602,NH3,1,2,1
India,Maharashtra,Jalgaon,"Prabhat Colony, Jalgaon - MPCB",16-02-2024 03:00:00,21.001264,75.565602,CO,7,14,10
India,Maharashtra,Jalna,"Old MIDC, Jalna - MPCB",16-02-2024 03:00:00,19.854616,75.905894,CO,NA,NA,NA
India,Maharashtra,Kalyan,"Khadakpada, Kalyan - MPCB",16-02-2024 03:00:00,19.25292,73.142019,NO2,28,93,43
India,Maharashtra,Kalyan,"Khadakpada, Kalyan - MPCB",16-02-2024 03:00:00,19.25292,73.142019,SO2,24,81,38
India,Maharashtra,Kalyan,"Khadakpada, Kalyan - MPCB",16-02-2024 03:00:00,19.25292,73.142019,CO,16,52,35
India,Maharashtra,Kolhapur,"Shivaji University, Kolhapur - MPCB",16-02-2024 03:00:00,16.6870449,74.2505872,SO2,3,24,9
India,Maharashtra,Kolhapur,"Shivaji University, Kolhapur - MPCB",16-02-2024 03:00:00,16.6870449,74.2505872,OZONE,7,101,35
India,Maharashtra,Kolhapur,"Sinchan Bhavan, Kolhapur - MPCB",16-02-2024 03:00:00,16.7143745,74.2426398,NH3,7,8,8
India,Maharashtra,Latur,"Sawe Wadi, Latur - MPCB",16-02-2024 03:00:00,18.39963,76.57452,SO2,2,9,6
India,Maharashtra,Mahad,"Kamble Tarf Birwadi, Mahad - MPCB",16-02-2024 03:00:00,18.1023399,73.4783687,SO2,11,14,13
India,Maharashtra,Malegaon,"Mahesh Nagar, Malegaon - MPCB",16-02-2024 03:00:00,20.555712,74.529236,PM10,62,174,127
India,Maharashtra,Malegaon,"Mahesh Nagar, Malegaon - MPCB",16-02-2024 03:00:00,20.555712,74.529236,CO,48,52,50
India,Maharashtra,Mumbai,"Bandra Kurla Complex, Mumbai - MPCB",16-02-2024 03:00:00,19.065931,72.862131,OZONE,NA,NA,NA
India,Maharashtra,Mumbai,"Borivali East, Mumbai - IITM",16-02-2024 03:00:00,19.23241,72.86895,PM10,101,183,143
India,Maharashtra,Mumbai,"Borivali East, Mumbai - IITM",16-02-2024 03:00:00,19.23241,72.86895,OZONE,9,169,50
India,Maharashtra,Mumbai,"Byculla, Mumbai - BMC",16-02-2024 03:00:00,18.9767,72.8380,PM10,90,131,111
India,Maharashtra,Mumbai,"Byculla, Mumbai - BMC",16-02-2024 03:00:00,18.9767,72.8380,SO2,1,15,4
India,Maharashtra,Mumbai,"Byculla, Mumbai - BMC",16-02-2024 03:00:00,18.9767,72.8380,CO,26,93,40
India,Maharashtra,Mumbai,"Chakala-Andheri East, Mumbai - IITM",16-02-2024 03:00:00,19.11074,72.86084,NO2,102,240,161
India,Maharashtra,Mumbai,"Chakala-Andheri East, Mumbai - IITM",16-02-2024 03:00:00,19.11074,72.86084,CO,62,122,110
India,Maharashtra,Mumbai,"Chembur, Mumbai - MPCB",16-02-2024 03:00:00,19.0364585,72.8954371,NH3,4,5,4
India,Maharashtra,Mumbai,"Chhatrapati Shivaji Intl. Airport (T2), Mumbai - MPCB",16-02-2024 03:00:00,19.10078,72.87462,CO,46,116,101
India,Maharashtra,Mumbai,"Colaba, Mumbai - MPCB",16-02-2024 03:00:00,18.910000,72.820000,NO2,20,35,26
India,Maharashtra,Mumbai,"Colaba, Mumbai - MPCB",16-02-2024 03:00:00,18.910000,72.820000,NH3,1,1,1
India,Maharashtra,Mumbai,"Colaba, Mumbai - MPCB",16-02-2024 03:00:00,18.910000,72.820000,CO,14,21,17
India,Maharashtra,Mumbai,"Ghatkopar, Mumbai - BMC",16-02-2024 03:00:00,19.083694,72.920967,PM10,99,142,115
India,Maharashtra,Mumbai,"Ghatkopar, Mumbai - BMC",16-02-2024 03:00:00,19.083694,72.920967,SO2,1,7,3
India,Maharashtra,Mumbai,"Ghatkopar, Mumbai - BMC",16-02-2024 03:00:00,19.083694,72.920967,OZONE,5,47,20
India,Maharashtra,Mumbai,"Kandivali East, Mumbai - MPCB",16-02-2024 03:00:00,19.205800,72.868200,PM2.5,20,84,50
India,Maharashtra,Mumbai,"Kherwadi_Bandra East, Mumbai - MPCB",16-02-2024 03:00:00,19.0632143,72.8456324,PM10,113,167,130
India,Maharashtra,Mumbai,"Kherwadi_Bandra East, Mumbai - MPCB",16-02-2024 03:00:00,19.0632143,72.8456324,NH3,1,2,1
India,Maharashtra,Mumbai,"Khindipada-Bhandup West, Mumbai - IITM",16-02-2024 03:00:00,19.1653323,72.922099,CO,18,34,24
India,Maharashtra,Mumbai,"Khindipada-Bhandup West, Mumbai - IITM",16-02-2024 03:00:00,19.1653323,72.922099,OZONE,108,131,116
India,Maharashtra,Mumbai,"Kurla, Mumbai - MPCB",16-02-2024 03:00:00,19.0863,72.8888,NO2,15,47,31
India,Maharashtra,Mumbai,"Malad West, Mumbai - IITM",16-02-2024 03:00:00,19.19709,72.82204,PM2.5,90,318,224
India,Maharashtra,Mumbai,"Malad West, Mumbai - IITM",16-02-2024 03:00:00,19.19709,72.82204,NH3,1,3,2
India,Maharashtra,Mumbai,"Malad West, Mumbai - IITM",16-02-2024 03:00:00,19.19709,72.82204,OZONE,15,94,53
India,Maharashtra,Mumbai,"Mazgaon, Mumbai - IITM",16-02-2024 03:00:00,18.96702,72.84214,CO,18,62,47
India,Maharashtra,Mumbai,"Mazgaon, Mumbai - IITM",16-02-2024 03:00:00,18.96702,72.84214,OZONE,12,191,105
India,Maharashtra,Mumbai,"Mulund West, Mumbai - MPCB",16-02-2024 03:00:00,19.1750,72.9419,PM10,64,155,105
India,Maharashtra,Mumbai,"Mulund West, Mumbai - MPCB",16-02-2024 03:00:00,19.1750,72.9419,NO2,23,27,25
India,Maharashtra,Mumbai,"Mulund West, Mumbai - MPCB",16-02-2024 03:00:00,19.1750,72.9419,CO,30,31,31
India,Maharashtra,Mumbai,"Navy Nagar-Colaba, Mumbai - IITM",16-02-2024 03:00:00,18.897756,72.813320,PM10,135,175,153
India,Maharashtra,Mumbai,"Navy Nagar-Colaba, Mumbai - IITM",16-02-2024 03:00:00,18.897756,72.813320,NH3,7,14,8
India,Maharashtra,Mumbai,"Navy Nagar-Colaba, Mumbai - IITM",16-02-2024 03:00:00,18.897756,72.813320,SO2,3,101,27
India,Maharashtra,Mumbai,"Navy Nagar-Colaba, Mumbai - IITM",16-02-2024 03:00:00,18.897756,72.813320,CO,5,24,16
India,Maharashtra,Mumbai,"Powai, Mumbai - MPCB",16-02-2024 03:00:00,19.137500,72.915056,PM2.5,47,96,62
India,Maharashtra,Mumbai,"Powai, Mumbai - MPCB",16-02-2024 03:00:00,19.137500,72.915056,SO2,30,33,32
India,Maharashtra,Mumbai,"Powai, Mumbai - MPCB",16-02-2024 03:00:00,19.137500,72.915056,CO,38,48,43
India,Maharashtra,Mumbai,"Powai, Mumbai - MPCB",16-02-2024 03:00:00,19.137500,72.915056,OZONE,22,69,28
India,Maharashtra,Mumbai,"Sewri, Mumbai - BMC",16-02-2024 03:00:00,19.000084,72.856730,PM10,112,155,130
India,Maharashtra,Mumbai,"Sewri, Mumbai - BMC",16-02-2024 03:00:00,19.000084,72.856730,CO,16,72,30
India,Maharashtra,Mumbai,"Shivaji Nagar, Mumbai - BMC",16-02-2024 03:00:00,19.060498,72.923356,PM10,110,276,158
India,Maharashtra,Mumbai,"Vile Parle West, Mumbai - MPCB",16-02-2024 03:00:00,19.10861,72.83622,PM10,68,145,103
India,Maharashtra,Mumbai,"Vile Parle West, Mumbai - MPCB",16-02-2024 03:00:00,19.10861,72.83622,OZONE,5,5,5
India,Maharashtra,Mumbai,"Worli, Mumbai - MPCB",16-02-2024 03:00:00,18.9936162,72.8128113,NH3,1,1,1
India,Maharashtra,Nagpur,"Ambazari, Nagpur - MPCB",16-02-2024 03:00:00,21.121801,79.04952,PM10,84,128,115
India,Maharashtra,Nagpur,"Ambazari, Nagpur - MPCB",16-02-2024 03:00:00,21.121801,79.04952,OZONE,40,118,61
India,Maharashtra,Nagpur,"Mahal, Nagpur - MPCB",16-02-2024 03:00:00,21.14472,79.107595,NO2,7,40,18
India,Maharashtra,Nagpur,"Mahal, Nagpur - MPCB",16-02-2024 03:00:00,21.14472,79.107595,OZONE,30,108,49
India,Maharashtra,Nagpur,"Opp GPO Civil Lines, Nagpur - MPCB",16-02-2024 03:00:00,21.152875,79.0517531,PM2.5,81,269,182
India,Maharashtra,Nagpur,"Opp GPO Civil Lines, Nagpur - MPCB",16-02-2024 03:00:00,21.152875,79.0517531,SO2,4,128,43
India,Maharashtra,Nanded,"Sneh Nagar, Nanded - MPCB",16-02-2024 03:00:00,19.173852,77.296291,NH3,1,2,1
India,Maharashtra,Nashik,"Gangapur Road, Nashik - MPCB",16-02-2024 03:00:00,20.0073285,73.7762427,PM2.5,49,144,91
India,Maharashtra,Nashik,"Gangapur Road, Nashik - MPCB",16-02-2024 03:00:00,20.0073285,73.7762427,CO,18,18,18
India,Maharashtra,Nashik,"Hirawadi, Nashik - MPCB",16-02-2024 03:00:00,20.021503,73.813844,CO,15,65,39
India,Maharashtra,Nashik,"Pandav Nagari, Nashik - MPCB",16-02-2024 03:00:00,19.9591346,73.7788008,SO2,6,46,15
India,Maharashtra,Navi Mumbai,"Kopripada-Vashi, Navi Mumbai - MPCB",16-02-2024 03:00:00,19.090337,73.014232,OZONE,14,160,37
India,Maharashtra,Navi Mumbai,"Mahape, Navi Mumbai - MPCB",16-02-2024 03:00:00,19.1135051,73.008978,PM10,89,224,128
India,Maharashtra,Navi Mumbai,"Mahape, Navi Mumbai - MPCB",16-02-2024 03:00:00,19.1135051,73.008978,OZONE,16,52,36
India,Maharashtra,Navi Mumbai,"Nerul, Navi Mumbai - MPCB",16-02-2024 03:00:00,19.008751,73.016620,NH3,4,7,5
India,Maharashtra,Navi Mumbai,"Sanpada, Navi Mumbai - MPCB",16-02-2024 03:00:00,19.0575752,73.0151367,CO,9,101,59
India,Maharashtra,Navi Mumbai,"Sector-19A Nerul, Navi Mumbai - IITM",16-02-2024 03:00:00,19.044,73.0325,PM10,137,288,183
India,Maharashtra,Parbhani,"Masoom Colony, Parbhani - MPCB",16-02-2024 03:00:00,19.265594,76.761463,PM2.5,45,129,78
India,Maharashtra,Parbhani,"Masoom Colony, Parbhani - MPCB",16-02-2024 03:00:00,19.265594,76.761463,SO2,6,70,28
India,Maharashtra,Pimpri-Chinchwad,"Gavalinagar, Pimpri Chinchwad - MPCB",16-02-2024 03:00:00,18.63673,73.82487,NO2,6,111,65
India,Maharashtra,Pimpri-Chinchwad,"Gavalinagar, Pimpri Chinchwad - MPCB",16-02-2024 03:00:00,18.63673,73.82487,CO,22,112,55
India,Maharashtra,Pimpri-Chinchwad,"Park Street Wakad, Pimpri Chinchwad - MPCB",16-02-2024 03:00:00,18.59051,73.77946,NH3,9,16,12
India,Maharashtra,Pimpri-Chinchwad,"Thergaon, Pimpri Chinchwad - MPCB",16-02-2024 03:00:00,18.616318,73.765797,PM2.5,122,402,258
India,Maharashtra,Pimpri-Chinchwad,"Thergaon, Pimpri Chinchwad - MPCB",16-02-2024 03:00:00,18.616318,73.765797,PM10,104,362,165
India,Maharashtra,Pune,"Alandi, Pune - IITM",16-02-2024 03:00:00,18.675076,73.892743,PM2.5,31,189,84
India,Maharashtra,Pune,"Alandi, Pune - IITM",16-02-2024 03:00:00,18.675076,73.892743,OZONE,1,38,14
India,Maharashtra,Pune,"Bhosari, Pune - IITM",16-02-2024 03:00:00,18.640051,73.848956,CO,12,76,34
India,Maharashtra,Pune,"Mhada Colony, Pune - IITM",16-02-2024 03:00:00,18.573040,73.927715,CO,34,94,73
India,Maharashtra,Pune,"Savitribai Phule Pune University, Pune - MPCB",16-02-2024 03:00:00,18.547056,73.826908,PM10,91,182,136
India,Maharashtra,Pune,"Savitribai Phule Pune University, Pune - MPCB",16-02-2024 03:00:00,18.547056,73.826908,NO2,NA,NA,NA
India,Maharashtra,Pune,"Savitribai Phule Pune University, Pune - MPCB",16-02-2024 03:00:00,18.547056,73.826908,NH3,NA,NA,NA
India,Maharashtra,Pune,"Savitribai Phule Pune University, Pune - MPCB",16-02-2024 03:00:00,18.547056,73.826908,CO,20,104,76
India,Maharashtra,Pune,"Savitribai Phule Pune University, Pune - MPCB",16-02-2024 03:00:00,18.547056,73.826908,OZONE,7,194,32
India,Maharashtra,Pune,"Transport Nagar-Nigdi, Pune - IITM",16-02-2024 03:00:00,18.664282,73.763966,PM2.5,52,168,88
India,Maharashtra,Pune,"Transport Nagar-Nigdi, Pune - IITM",16-02-2024 03:00:00,18.664282,73.763966,NO2,12,24,17
India,Maharashtra,Pune,"Transport Nagar-Nigdi, Pune - IITM",16-02-2024 03:00:00,18.664282,73.763966,CO,28,92,56
India,Maharashtra,Sangli,"Vijay Nagar, Sangli - MPCB",16-02-2024 03:00:00, 16.5038,74.3623,PM10,43,226,135
India,Maharashtra,Sangli,"Vijay Nagar, Sangli - MPCB",16-02-2024 03:00:00, 16.5038,74.3623,NO2,30,134,72
India,Maharashtra,Solapur,"Dnyaneshwar Nagar, Solapur - MPCB",16-02-2024 03:00:00,17.6336264,75.9132495,PM10,56,142,102
India,Maharashtra,Solapur,"Solapur, Solapur - MPCB",16-02-2024 03:00:00,17.6599188,75.9063906,PM2.5,63,89,80
India,Maharashtra,Thane,"Kasarvadavali, Thane - MPCB",16-02-2024 03:00:00,19.26777,72.97182,PM2.5,82,113,96
India,Maharashtra,Thane,"Upvan Fort, Thane - MPCB",16-02-2024 03:00:00,19.222279,72.957979,NH3,9,15,12
India,Maharashtra,Ulhasnagar,"Sidhi Vinayak Nagar, Ulhasnagar - MPCB",16-02-2024 03:00:00,19.235581,73.159121,NH3,1,2,1
India,Maharashtra,Ulhasnagar,"Sidhi Vinayak Nagar, Ulhasnagar - MPCB",16-02-2024 03:00:00,19.235581,73.159121,CO,7,108,81
India,Maharashtra,Virar,"Bolinj, Virar - MPCB",16-02-2024 03:00:00,19.4458210,72.7988231,PM2.5,61,193,131
India,Maharashtra,Virar,"Bolinj, Virar - MPCB",16-02-2024 03:00:00,19.4458210,72.7988231,NH3,5,8,6
India,Maharashtra,Virar,"Bolinj, Virar - MPCB",16-02-2024 03:00:00,19.4458210,72.7988231,CO,26,62,51
India,Manipur,Imphal,"DM College of Science, Imphal - Manipur PCB",16-02-2024 03:00:00,24.8207389,93.9423085,NH3,2,2,2
India,Manipur,Imphal,"DM College of Science, Imphal - Manipur PCB",16-02-2024 03:00:00,24.8207389,93.9423085,CO,6,6,6
India,Manipur,Imphal,"Manipur University, Imphal - Manipur PCB",16-02-2024 03:00:00,24.7524239,93.9286218,OZONE,1,40,6
India,Mizoram,Aizawl,"Sikulpuikawn, Aizawl - Mizoram PCB",16-02-2024 03:00:00,23.7176342,92.7192841,NO2,1,3,1
India,Mizoram,Aizawl,"Sikulpuikawn, Aizawl - Mizoram PCB",16-02-2024 03:00:00,23.7176342,92.7192841,CO,12,18,18
India,Nagaland,Kohima,"PWD Juction, Kohima - NPCB",16-02-2024 03:00:00,25.6635413,94.0989878,PM2.5,34,252,140
India,Nagaland,Kohima,"PWD Juction, Kohima - NPCB",16-02-2024 03:00:00,25.6635413,94.0989878,NH3,1,1,1
India,Nagaland,Kohima,"PWD Juction, Kohima - NPCB",16-02-2024 03:00:00,25.6635413,94.0989878,OZONE,5,52,14
India,Odisha,Angul,"Hakimapada, Angul - OSPCB",16-02-2024 03:00:00,20.832874,85.104082,CO,2,82,32
India,Odisha,Barbil,"Forest Office, Barbil - OSPCB",16-02-2024 03:00:00,22.1166054,85.3945546,PM2.5,42,333,111
India,Odisha,Baripada,"Meher Colony, Baripada - OSPCB",16-02-2024 03:00:00,21.941841,86.728318,NH3,4,4,4
India,Odisha,Baripada,"Meher Colony, Baripada - OSPCB",16-02-2024 03:00:00,21.941841,86.728318,OZONE,14,68,21
India,Odisha,Bhubaneswar,"Lingraj Mandir, Bhubaneswar - OSPCB",16-02-2024 03:00:00,20.240790,85.836784,NO2,5,56,14
India,Odisha,Bhubaneswar,"Lingraj Mandir, Bhubaneswar - OSPCB",16-02-2024 03:00:00,20.240790,85.836784,CO,36,84,67
India,Odisha,Bhubaneswar,"Patia, Bhubaneswar - OSPCB",16-02-2024 03:00:00,20.34652,85.81630,NH3,3,5,4
India,Odisha,Bileipada,"Tata Township, Bileipada - OSPCB",16-02-2024 03:00:00,22.06156703,85.47409613,NO2,5,10,7
India,Odisha,Bileipada,"Tata Township, Bileipada - OSPCB",16-02-2024 03:00:00,22.06156703,85.47409613,SO2,NA,NA,NA
India,Odisha,Brajrajnagar,"GM Office, Brajrajnagar - OSPCB",16-02-2024 03:00:00,21.8004996,83.8396977,PM2.5,32,132,62
India,Odisha,Cuttack,"CDA Area, Cuttack - OSPCB",16-02-2024 03:00:00,20.48891     ,85.84768     ,PM10,73,137,104
India,Odisha,Keonjhar,"Jagamohanpur, Keonjhar - OSPCB",16-02-2024 03:00:00,21.643900,85.599355,PM2.5,75,181,122
India,Odisha,Keonjhar,"Jagamohanpur, Keonjhar - OSPCB",16-02-2024 03:00:00,21.643900,85.599355,SO2,12,12,12
India,Odisha,Nayagarh,"Dabuna, Nayagarh - OSPCB",16-02-2024 03:00:00,21.847279,85.416905,PM10,78,280,146
India,Odisha,Nayagarh,"Dabuna, Nayagarh - OSPCB",16-02-2024 03:00:00,21.847279,85.416905,SO2,2,9,4
India,Odisha,Rairangpur,"Divisional Forest Office, Rairangpur - OSPCB",16-02-2024 03:00:00,22.265816,86.174829,OZONE,5,57,12
India,Odisha,Rourkela,"Raghunathpali, Rourkela - OSPCB",16-02-2024 03:00:00,22.220833,84.809444,NO2,23,117,43
India,Odisha,Rourkela,"Raghunathpali, Rourkela - OSPCB",16-02-2024 03:00:00,22.220833,84.809444,SO2,5,16,8
India,Odisha,Rourkela,"Raghunathpali, Rourkela - OSPCB",16-02-2024 03:00:00,22.220833,84.809444,CO,26,94,34
India,Odisha,Suakati,"OMC Colony, Suakati - OSPCB",16-02-2024 03:00:00,21.606865,85.510538,PM2.5,68,177,99
India,Odisha,Suakati,"OMC Colony, Suakati - OSPCB",16-02-2024 03:00:00,21.606865,85.510538,CO,13,22,14
India,Odisha,Talcher,"Talcher Coalfields,Talcher - OSPCB",16-02-2024 03:00:00,20.9360711,85.1707021,PM2.5,17,309,123
India,Odisha,Talcher,"Talcher Coalfields,Talcher - OSPCB",16-02-2024 03:00:00,20.9360711,85.1707021,CO,4,43,18
India,Odisha,Tensa,"Barsua Iron Ore Mines, Tensa - OSPCB",16-02-2024 03:00:00,21.869985,85.167016,OZONE,1,18,8
India,Punjab,Bathinda,"Hardev Nagar, Bathinda - PPCB",16-02-2024 03:00:00,30.233011,74.907758,PM2.5,26,213,112
India,Punjab,Bathinda,"Hardev Nagar, Bathinda - PPCB",16-02-2024 03:00:00,30.233011,74.907758,PM10,NA,NA,NA
India,Punjab,Jalandhar,"Civil Line, Jalandhar - PPCB",16-02-2024 03:00:00,31.321907,75.578914,PM2.5,58,109,80
India,Punjab,Jalandhar,"Civil Line, Jalandhar - PPCB",16-02-2024 03:00:00,31.321907,75.578914,PM10,94,147,121
India,Punjab,Jalandhar,"Civil Line, Jalandhar - PPCB",16-02-2024 03:00:00,31.321907,75.578914,NH3,2,2,2
India,Punjab,Jalandhar,"Civil Line, Jalandhar - PPCB",16-02-2024 03:00:00,31.321907,75.578914,SO2,3,14,7
India,Punjab,Jalandhar,"Civil Line, Jalandhar - PPCB",16-02-2024 03:00:00,31.321907,75.578914,CO,24,108,96
India,Punjab,Jalandhar,"Civil Line, Jalandhar - PPCB",16-02-2024 03:00:00,31.321907,75.578914,OZONE,12,61,16
India,Punjab,Khanna,"Kalal Majra, Khanna - PPCB",16-02-2024 03:00:00,30.736056 ,76.209694,PM10,52,436,109
India,Punjab,Khanna,"Kalal Majra, Khanna - PPCB",16-02-2024 03:00:00,30.736056 ,76.209694,NO2,30,30,30
India,Punjab,Ludhiana,"Punjab Agricultural University, Ludhiana - PPCB",16-02-2024 03:00:00,30.9028,75.8086,PM10,98,157,122
India,Punjab,Patiala,"Model Town, Patiala - PPCB",16-02-2024 03:00:00,30.349388,76.366642,SO2,3,105,38
India,Punjab,Patiala,"Model Town, Patiala - PPCB",16-02-2024 03:00:00,30.349388,76.366642,OZONE,4,126,27
India,Punjab,Rupnagar,"Ratanpura, Rupnagar - Ambuja Cements",16-02-2024 03:00:00,31.0325454,76.5623046,PM2.5,41,237,98
India,Rajasthan,Ajmer,"Civil Lines,  Ajmer - RSPCB",16-02-2024 03:00:00,26.470859,74.646594,CO,23,100,61
India,Rajasthan,Alwar,"Moti Doongri, Alwar - RSPCB",16-02-2024 03:00:00,27.554793,76.611536,SO2,4,50,30
India,Rajasthan,Baran,"Bamboliya, Baran - RSPCB",16-02-2024 03:00:00,25.106006,76.469948,CO,24,46,35
India,Rajasthan,Barmer,"Railway Colony, Barmer - RSPCB",16-02-2024 03:00:00,25.747299,71.393989,PM10,NA,NA,NA
India,Rajasthan,Barmer,"Railway Colony, Barmer - RSPCB",16-02-2024 03:00:00,25.747299,71.393989,OZONE,63,169,81
India,Rajasthan,Bharatpur,"Krishna Nagar, Bharatpur - RSPCB",16-02-2024 03:00:00,27.215415,77.50873,NO2,NA,NA,NA
India,Rajasthan,Bhiwadi,"RIICO Ind. Area III, Bhiwadi - RSPCB",16-02-2024 03:00:00,28.194909,76.862296,SO2,2,18,9
India,Rajasthan,Chittorgarh,"Shastri Nagar, Chittorgarh - RSPCB",16-02-2024 03:00:00,24.892047,74.623527,PM10,NA,NA,NA
India,Rajasthan,Churu,"Subash Chowk, Churu - RSPCB",16-02-2024 03:00:00,28.296139,74.961696,SO2,NA,NA,NA
India,Rajasthan,Churu,"Subash Chowk, Churu - RSPCB",16-02-2024 03:00:00,28.296139,74.961696,OZONE,55,143,82
India,Rajasthan,Dausa,"Khatikan Mohalla, Dausa - RSPCB",16-02-2024 03:00:00,26.895552,76.334753,NH3,NA,NA,NA
India,Rajasthan,Dausa,"Khatikan Mohalla, Dausa - RSPCB",16-02-2024 03:00:00,26.895552,76.334753,SO2,NA,NA,NA
India,Rajasthan,Dausa,"Khatikan Mohalla, Dausa - RSPCB",16-02-2024 03:00:00,26.895552,76.334753,CO,94,173,147
India,Rajasthan,Dausa,"Khatikan Mohalla, Dausa - RSPCB",16-02-2024 03:00:00,26.895552,76.334753,OZONE,61,63,62
India,Rajasthan,Dholpur,"Raja Ganj, Dholpur - RSPCB",16-02-2024 03:00:00,26.699557,77.898881,SO2,NA,NA,NA
India,Rajasthan,Dholpur,"Raja Ganj, Dholpur - RSPCB",16-02-2024 03:00:00,26.699557,77.898881,CO,37,105,72
India,Rajasthan,Hanumangarh,"Housing Board, Hanumangarh - RSPCB",16-02-2024 03:00:00,29.610750,74.283608,PM10,145,440,304
India,Rajasthan,Jaipur,"Adarsh Nagar, Jaipur - RSPCB",16-02-2024 03:00:00,26.902909,75.836858,SO2,4,24,13
India,Rajasthan,Jaipur,"Mansarovar Sector-12, Jaipur - RSPCB",16-02-2024 03:00:00,26.843698,75.766894,PM10,NA,NA,NA
India,Rajasthan,Jaipur,"Mansarovar Sector-12, Jaipur - RSPCB",16-02-2024 03:00:00,26.843698,75.766894,NO2,NA,NA,NA
India,Rajasthan,Jaipur,"Mansarovar Sector-12, Jaipur - RSPCB",16-02-2024 03:00:00,26.843698,75.766894,CO,76,107,101
India,Rajasthan,Jaipur,"Police Commissionerate, Jaipur - RSPCB",16-02-2024 03:00:00,26.9164092,75.7994901,NH3,12,16,14
India,Rajasthan,Jaipur,"RIICO Sitapura, Jaipur - RSPCB",16-02-2024 03:00:00,26.786682,75.827928,NH3,NA,NA,NA
India,Rajasthan,Jaipur,"RIICO Sitapura, Jaipur - RSPCB",16-02-2024 03:00:00,26.786682,75.827928,CO,32,144,95
India,Rajasthan,Jaipur,"Sector-2 Murlipura, Jaipur - RSPCB",16-02-2024 03:00:00,26.960669,75.771817,SO2,NA,NA,NA
India,Rajasthan,Jaisalmer,"Sadar Bazar, Jaisalmer - RSPCB",16-02-2024 03:00:00,26.912329,70.909168,PM10,NA,NA,NA
India,Rajasthan,Jalore,"Mudtra Sili, Jalore - RSPCB",16-02-2024 03:00:00,25.344694,72.626208,OZONE,3,156,40
India,Rajasthan,Jhalawar,"Rajlaxmi Nagar, Jhalawar - RSPCB",16-02-2024 03:00:00,24.588397,76.172782,PM2.5,NA,NA,NA
India,Rajasthan,Jhalawar,"Rajlaxmi Nagar, Jhalawar - RSPCB",16-02-2024 03:00:00,24.588397,76.172782,PM10,NA,NA,NA
India,Rajasthan,Jhalawar,"Rajlaxmi Nagar, Jhalawar - RSPCB",16-02-2024 03:00:00,24.588397,76.172782,NO2,NA,NA,NA
India,Rajasthan,Jhalawar,"Rajlaxmi Nagar, Jhalawar - RSPCB",16-02-2024 03:00:00,24.588397,76.172782,OZONE,67,135,89
India,Rajasthan,Jhunjhunu,"Indra Nagar, Jhunjhunu - RSPCB",16-02-2024 03:00:00,28.108988,75.386577,NH3,NA,NA,NA
India,Rajasthan,Jodhpur,"Collectorate, Jodhpur - RSPCB",16-02-2024 03:00:00,26.268249,73.0193853,PM2.5,61,196,123
India,Rajasthan,Jodhpur,"Collectorate, Jodhpur - RSPCB",16-02-2024 03:00:00,26.268249,73.0193853,PM10,89,274,164
India,Rajasthan,Jodhpur,"Collectorate, Jodhpur - RSPCB",16-02-2024 03:00:00,26.268249,73.0193853,SO2,1,55,19
India,Rajasthan,Jodhpur,"Digari Kalan, Jodhpur - RSPCB",16-02-2024 03:00:00,26.295810,73.082283,NH3,NA,NA,NA
India,Rajasthan,Jodhpur,"Jhalamand, Jodhpur - RSPCB",16-02-2024 03:00:00,26.215415,73.070156,PM2.5,NA,NA,NA
India,Rajasthan,Jodhpur,"Jhalamand, Jodhpur - RSPCB",16-02-2024 03:00:00,26.215415,73.070156,NO2,NA,NA,NA
India,Rajasthan,Jodhpur,"Jhalamand, Jodhpur - RSPCB",16-02-2024 03:00:00,26.215415,73.070156,NH3,NA,NA,NA
India,Rajasthan,Jodhpur,"Mandor, Jodhpur - RSPCB",16-02-2024 03:00:00,26.358805,73.047444,NO2,NA,NA,NA
India,Rajasthan,Jodhpur,"Samrat Ashok Udhyan, Jodhpur - RSPCB",16-02-2024 03:00:00,26.253384,72.976571,PM2.5,NA,NA,NA
India,Rajasthan,Karauli,"Satyawati Vihar, Karauli - RSPCB",16-02-2024 03:00:00,26.506177,77.025989,NH3,NA,NA,NA
India,Rajasthan,Karauli,"Satyawati Vihar, Karauli - RSPCB",16-02-2024 03:00:00,26.506177,77.025989,OZONE,21,63,32
India,Rajasthan,Kota,"Dhanmandi, Kota - RSPCB",16-02-2024 03:00:00,25.164090,75.858137,PM2.5,NA,NA,NA
India,Rajasthan,Kota,"Dhanmandi, Kota - RSPCB",16-02-2024 03:00:00,25.164090,75.858137,PM10,NA,NA,NA
India,Rajasthan,Kota,"Nayapura, Kota - RSPCB",16-02-2024 03:00:00,25.196024,75.855668,OZONE,5,189,19
India,Rajasthan,Kota,"Shrinath Puram, Kota - RSPCB",16-02-2024 03:00:00,25.14389,75.821256,NH3,10,15,12
India,Rajasthan,Kota,"Shrinath Puram, Kota - RSPCB",16-02-2024 03:00:00,25.14389,75.821256,SO2,1,102,22
India,Rajasthan,Kota,"Shrinath Puram, Kota - RSPCB",16-02-2024 03:00:00,25.14389,75.821256,CO,2,33,21
India,Rajasthan,Nagaur,"Karni Colony, Nagaur - RSPCB",16-02-2024 03:00:00,27.213494,73.734444,OZONE,14,76,50
India,Rajasthan,Pali,"Indira Colony Vistar, Pali - RSPCB",16-02-2024 03:00:00,25.771061, 73.340227,PM2.5,83,242,135
India,Rajasthan,Pali,"Indira Colony Vistar, Pali - RSPCB",16-02-2024 03:00:00,25.771061, 73.340227,NH3,6,17,13
India,Rajasthan,Pali,"Indira Colony Vistar, Pali - RSPCB",16-02-2024 03:00:00,25.771061, 73.340227,OZONE,19,97,52
India,Rajasthan,Pratapgarh,"Pragati Nagar, Pratapgarh - RSPCB",16-02-2024 03:00:00,24.041198,74.780702,PM2.5,NA,NA,NA
India,Rajasthan,Pratapgarh,"Pragati Nagar, Pratapgarh - RSPCB",16-02-2024 03:00:00,24.041198,74.780702,SO2,NA,NA,NA
India,Rajasthan,Sikar,"Radhakishan Pura, Sikar - RSPCB",16-02-2024 03:00:00,27.608912,75.153302,NO2,NA,NA,NA
India,Rajasthan,Sikar,"Radhakishan Pura, Sikar - RSPCB",16-02-2024 03:00:00,27.608912,75.153302,NH3,NA,NA,NA
India,Rajasthan,Sirohi,"Vedhaynath Colony, Sirohi - RSPCB",16-02-2024 03:00:00,24.885261,72.857549,NO2,NA,NA,NA
India,Rajasthan,Sirohi,"Vedhaynath Colony, Sirohi - RSPCB",16-02-2024 03:00:00,24.885261,72.857549,SO2,NA,NA,NA
India,Rajasthan,Sirohi,"Vedhaynath Colony, Sirohi - RSPCB",16-02-2024 03:00:00,24.885261,72.857549,OZONE,46,180,167
India,Rajasthan,Sri Ganganagar,"Old City, Sri Ganganagar - RSPCB",16-02-2024 03:00:00,29.931624,73.864511,NO2,NA,NA,NA
India,Rajasthan,Sri Ganganagar,"Old City, Sri Ganganagar - RSPCB",16-02-2024 03:00:00,29.931624,73.864511,NH3,NA,NA,NA
India,Rajasthan,Tonk,"Shastri Nagar, Tonk - RSPCB",16-02-2024 03:00:00,26.159933,75.780517,NO2,NA,NA,NA
India,Rajasthan,Udaipur,"Ashok Nagar, Udaipur - RSPCB",16-02-2024 03:00:00,24.5886166,73.6321397,CO,34,119,85
India,Sikkim,Gangtok,"Zero Point GICI, Gangtok - SSPCB",16-02-2024 03:00:00,27.338530,88.614099,PM10,23,88,59
India,Sikkim,Gangtok,"Zero Point GICI, Gangtok - SSPCB",16-02-2024 03:00:00,27.338530,88.614099,NH3,1,1,1
India,Sikkim,Gangtok,"Zero Point GICI, Gangtok - SSPCB",16-02-2024 03:00:00,27.338530,88.614099,CO,15,34,31
India,TamilNadu,Ariyalur,"Keelapalur, Ariyalur - TNPCB",16-02-2024 03:00:00,11.06825,79.07033,NO2,9,44,18
India,TamilNadu,Chennai,"Alandur Bus Depot, Chennai - CPCB",16-02-2024 03:00:00,12.9099161,80.1076538,SO2,2,7,4
India,TamilNadu,Chennai,"Kodungaiyur, Chennai - TNPCB",16-02-2024 03:00:00,13.1278,80.2642,PM2.5,22,75,37
India,TamilNadu,Chennai,"Kodungaiyur, Chennai - TNPCB",16-02-2024 03:00:00,13.1278,80.2642,SO2,1,11,6
India,TamilNadu,Chennai,"Manali, Chennai - CPCB",16-02-2024 03:00:00,13.164544,80.26285,CO,57,101,77
India,TamilNadu,Chennai,"Perungudi, Chennai - TNPCB",16-02-2024 03:00:00,12.9533,80.2357,NH3,2,3,2
India,TamilNadu,Chennai,"Perungudi, Chennai - TNPCB",16-02-2024 03:00:00,12.9533,80.2357,OZONE,3,10,9
India,TamilNadu,Chennai,"Royapuram, Chennai - TNPCB",16-02-2024 03:00:00,13.1036,80.2909,CO,17,57,24
India,TamilNadu,Chennai,"Royapuram, Chennai - TNPCB",16-02-2024 03:00:00,13.1036,80.2909,OZONE,9,9,9
India,TamilNadu,Chennai,"Velachery Res. Area, Chennai - CPCB",16-02-2024 03:00:00,13.0052189,80.2398125,NO2,16,63,28
India,TamilNadu,Chennai,"Velachery Res. Area, Chennai - CPCB",16-02-2024 03:00:00,13.0052189,80.2398125,CO,5,117,54
India,TamilNadu,Coimbatore,"PSG College of Arts and Science, Coimbatore - TNPCB",16-02-2024 03:00:00,11.0328,77.0349,NH3,1,1,1
India,TamilNadu,Coimbatore,"PSG College of Arts and Science, Coimbatore - TNPCB",16-02-2024 03:00:00,11.0328,77.0349,SO2,14,21,18
India,TamilNadu,Coimbatore,"PSG College of Arts and Science, Coimbatore - TNPCB",16-02-2024 03:00:00,11.0328,77.0349,OZONE,3,5,4
India,TamilNadu,Cuddalore,"Kudikadu, Cuddalore - TNPCB",16-02-2024 03:00:00,11.6829898,79.7532099,NO2,14,30,20
India,TamilNadu,Kanchipuram,"Kilambi, Kanchipuram - TNPCB",16-02-2024 03:00:00,12.864618,79.659968,NO2,NA,NA,NA
India,TamilNadu,Palkalaiperur,"Bharathidasan University, Palkalaiperur - TNPCB",16-02-2024 03:00:00,10.681158,78.741746,SO2,27,28,27
India,TamilNadu,Palkalaiperur,"Bharathidasan University, Palkalaiperur - TNPCB",16-02-2024 03:00:00,10.681158,78.741746,OZONE,1,1,1
India,TamilNadu,Ramanathapuram,"Chalai Bazaar, Ramanathapuram - TNPCB",16-02-2024 03:00:00,9.36399,78.831977,PM10,33,81,62
India,TamilNadu,Salem,"Sona College of Technology, Salem - TNPCB",16-02-2024 03:00:00,11.679111,78.125052,PM10,48,79,60
India,TamilNadu,Vellore,"Vasanthapuram, Vellore - TNPCB",16-02-2024 03:00:00,12.909494,79.131861,PM10,NA,NA,NA
India,TamilNadu,Vellore,"Vasanthapuram, Vellore - TNPCB",16-02-2024 03:00:00,12.909494,79.131861,SO2,NA,NA,NA
India,TamilNadu,Virudhunagar,"Collectorate Office, Virudhunagar - TNPCB",16-02-2024 03:00:00,9.559382,77.948828,NO2,17,39,27
India,TamilNadu,Virudhunagar,"Collectorate Office, Virudhunagar - TNPCB",16-02-2024 03:00:00,9.559382,77.948828,CO,18,32,24
India,Telangana,Hyderabad,"Bollaram Industrial Area, Hyderabad - TSPCB",16-02-2024 03:00:00,17.540891,78.358528,SO2,NA,NA,NA
India,Telangana,Hyderabad,"Bollaram Industrial Area, Hyderabad - TSPCB",16-02-2024 03:00:00,17.540891,78.358528,OZONE,36,38,37
India,Telangana,Hyderabad,"Central University, Hyderabad - TSPCB",16-02-2024 03:00:00,17.460103,78.334361,PM10,30,66,50
India,Telangana,Hyderabad,"ECIL Kapra, Hyderabad - TSPCB",16-02-2024 03:00:00,17.470431,78.566959,PM2.5,41,58,47
India,Telangana,Hyderabad,"ECIL Kapra, Hyderabad - TSPCB",16-02-2024 03:00:00,17.470431,78.566959,PM10,62,77,68
India,Telangana,Hyderabad,"ECIL Kapra, Hyderabad - TSPCB",16-02-2024 03:00:00,17.470431,78.566959,SO2,2,15,7
India,Telangana,Hyderabad,"IITH Kandi, Hyderabad - TSPCB",16-02-2024 03:00:00,17.585705,78.126199,CO,13,28,24
India,Telangana,Hyderabad,"IITH Kandi, Hyderabad - TSPCB",16-02-2024 03:00:00,17.585705,78.126199,OZONE,19,131,20
India,Telangana,Hyderabad,"Kokapet, Hyderabad - TSPCB",16-02-2024 03:00:00,17.393559,78.339194,NO2,8,9,8
India,Telangana,Hyderabad,"Kompally Municipal Office, Hyderabad - TSPCB",16-02-2024 03:00:00,17.544899,78.486949,SO2,3,14,6
India,Telangana,Hyderabad,"Nacharam_TSIIC IALA, Hyderabad - TSPCB",16-02-2024 03:00:00,17.429398,78.569354,CO,30,34,31
India,Telangana,Hyderabad,"New Malakpet, Hyderabad - TSPCB",16-02-2024 03:00:00,17.37206,78.50864,PM10,56,61,59
India,Telangana,Hyderabad,"New Malakpet, Hyderabad - TSPCB",16-02-2024 03:00:00,17.37206,78.50864,NO2,16,27,22
India,Telangana,Hyderabad,"New Malakpet, Hyderabad - TSPCB",16-02-2024 03:00:00,17.37206,78.50864,SO2,10,17,14
India,Telangana,Hyderabad,"New Malakpet, Hyderabad - TSPCB",16-02-2024 03:00:00,17.37206,78.50864,CO,8,34,20
India,Telangana,Hyderabad,"New Malakpet, Hyderabad - TSPCB",16-02-2024 03:00:00,17.37206,78.50864,OZONE,1,21,11
India,Telangana,Hyderabad,"Ramachandrapuram, Hyderabad - TSPCB",16-02-2024 03:00:00,17.528544,78.286195,PM10,NA,NA,NA
India,Telangana,Hyderabad,"Sanathnagar, Hyderabad - TSPCB",16-02-2024 03:00:00,17.4559458,78.4332152,OZONE,13,108,30
India,Telangana,Hyderabad,"Somajiguda, Hyderabad - TSPCB",16-02-2024 03:00:00,17.417094,78.457437,SO2,9,15,12
India,Telangana,Hyderabad,"Zoo Park, Hyderabad - TSPCB",16-02-2024 03:00:00,17.349694,78.451437,PM2.5,34,66,48
India,Telangana,Hyderabad,"Zoo Park, Hyderabad - TSPCB",16-02-2024 03:00:00,17.349694,78.451437,NO2,27,40,34
India,Telangana,Hyderabad,"Zoo Park, Hyderabad - TSPCB",16-02-2024 03:00:00,17.349694,78.451437,OZONE,17,23,20
India,Tripura,Agartala,"Bardowali, Agartala - Tripura SPCB",16-02-2024 03:00:00,23.8175497,91.2726974,SO2,27,30,28
India,Uttar_Pradesh,Agra,"Manoharpur, Agra - UPPCB",16-02-2024 03:00:00,27.23711,78.01936,SO2,18,25,19
India,Uttar_Pradesh,Agra,"Rohta, Agra - UPPCB",16-02-2024 03:00:00,27.106972,78.000111,SO2,5,21,12
India,Uttar_Pradesh,Agra,"Sanjay Palace, Agra - UPPCB",16-02-2024 03:00:00,27.19865833,78.00598056,SO2,3,14,8
India,Uttar_Pradesh,Agra,"Sector-3B Avas Vikas Colony, Agra - UPPCB",16-02-2024 03:00:00,27.19412,77.96237,CO,8,46,30
India,Uttar_Pradesh,Baghpat,"Sardar Patel Inter College, Baghpat - UPPCB",16-02-2024 03:00:00,28.964949,77.278761,NH3,3,7,4
India,Uttar_Pradesh,Bareilly,"Civil Lines, Bareilly - UPPCB",16-02-2024 03:00:00,28.359581,79.414455,CO,18,57,44
India,Uttar_Pradesh,Bareilly,"Rajendra Nagar, Bareilly - UPPCB",16-02-2024 03:00:00,28.38910936,79.42963708,PM2.5,38,85,61
India,Uttar_Pradesh,Bareilly,"Rajendra Nagar, Bareilly - UPPCB",16-02-2024 03:00:00,28.38910936,79.42963708,PM10,54,164,94
India,Uttar_Pradesh,Firozabad,"Nagla Bhau, Firozabad - UPPCB",16-02-2024 03:00:00,27.168897,78.376960,SO2,11,31,20
India,Uttar_Pradesh,Firozabad,"Nagla Bhau, Firozabad - UPPCB",16-02-2024 03:00:00,27.168897,78.376960,CO,1,26,9
India,Uttar_Pradesh,Firozabad,"Vibhab Nagar, Firozabad - UPPCB",16-02-2024 03:00:00,27.1594,78.3953,PM2.5,NA,NA,NA
India,Uttar_Pradesh,Firozabad,"Vibhab Nagar, Firozabad - UPPCB",16-02-2024 03:00:00,27.1594,78.3953,PM10,62,80,73
India,Uttar_Pradesh,Firozabad,"Vibhab Nagar, Firozabad - UPPCB",16-02-2024 03:00:00,27.1594,78.3953,OZONE,20,73,30
India,Uttar_Pradesh,Ghaziabad,"Vasundhara, Ghaziabad - UPPCB",16-02-2024 03:00:00,28.6603346,77.3572563,CO,2,116,76
India,Uttar_Pradesh,Greater Noida,"Knowledge Park - III, Greater Noida - UPPCB",16-02-2024 03:00:00,28.47272,77.482000,PM10,158,407,260
India,Uttar_Pradesh,Greater Noida,"Knowledge Park - III, Greater Noida - UPPCB",16-02-2024 03:00:00,28.47272,77.482000,SO2,14,34,20
India,Uttar_Pradesh,Greater Noida,"Knowledge Park - V, Greater Noida - UPPCB",16-02-2024 03:00:00,28.557054,77.453663,SO2,7,31,14
India,Uttar_Pradesh,Hapur,"Anand Vihar, Hapur - UPPCB",16-02-2024 03:00:00,28.725645,77.749675,PM10,144,235,188
India,Uttar_Pradesh,Jhansi,"Shivaji Nagar, Jhansi - UPPCB",16-02-2024 03:00:00,25.4547,78.6039,PM2.5,62,216,119
India,Uttar_Pradesh,Jhansi,"Shivaji Nagar, Jhansi - UPPCB",16-02-2024 03:00:00,25.4547,78.6039,NH3,6,6,6
India,Uttar_Pradesh,Kanpur,"FTI Kidwai Nagar, Kanpur - UPPCB",16-02-2024 03:00:00,26.428282,80.327067,PM2.5,75,254,159
India,Uttar_Pradesh,Kanpur,"FTI Kidwai Nagar, Kanpur - UPPCB",16-02-2024 03:00:00,26.428282,80.327067,CO,36,108,70
India,Uttar_Pradesh,Kanpur,"FTI Kidwai Nagar, Kanpur - UPPCB",16-02-2024 03:00:00,26.428282,80.327067,OZONE,3,24,3
India,Uttar_Pradesh,Kanpur,"NSI Kalyanpur, Kanpur - UPPCB",16-02-2024 03:00:00,26.509954,80.249612,PM2.5,78,264,169
India,Uttar_Pradesh,Kanpur,"NSI Kalyanpur, Kanpur - UPPCB",16-02-2024 03:00:00,26.509954,80.249612,PM10,104,199,150
India,Uttar_Pradesh,Kanpur,"NSI Kalyanpur, Kanpur - UPPCB",16-02-2024 03:00:00,26.509954,80.249612,SO2,23,35,24
India,Uttar_Pradesh,Kanpur,"Nehru Nagar, Kanpur - UPPCB",16-02-2024 03:00:00,26.4703136,80.3229863,SO2,2,35,12
India,Uttar_Pradesh,Kanpur,"Nehru Nagar, Kanpur - UPPCB",16-02-2024 03:00:00,26.4703136,80.3229863,CO,10,124,77
India,Uttar_Pradesh,Khurja,"Kalindi Kunj, Khurja - UPPCB",16-02-2024 03:00:00,28.2348927,77.8683002,PM10,14,127,80
India,Uttar_Pradesh,Lucknow,"B R Ambedkar University, Lucknow - UPPCB",16-02-2024 03:00:00,26.766433,80.927299,PM10,80,177,121
India,Uttar_Pradesh,Lucknow,"Gomti Nagar, Lucknow - UPPCB",16-02-2024 03:00:00,26.868120,81.005119,SO2,2,27,11
India,Uttar_Pradesh,Lucknow,"Kendriya Vidyalaya, Lucknow - CPCB",16-02-2024 03:00:00,26.906111,80.948222,CO,6,98,61
India,Uttar_Pradesh,Meerut,"Ganga Nagar, Meerut - UPPCB",16-02-2024 03:00:00,28.999264,77.7590354,NH3,13,21,16
India,Uttar_Pradesh,Meerut,"Ganga Nagar, Meerut - UPPCB",16-02-2024 03:00:00,28.999264,77.7590354,SO2,11,62,26
India,Uttar_Pradesh,Meerut,"Jai Bhim Nagar, Meerut - UPPCB",16-02-2024 03:00:00,28.9535882,77.7622941,NO2,21,63,39
India,Uttar_Pradesh,Meerut,"Jai Bhim Nagar, Meerut - UPPCB",16-02-2024 03:00:00,28.9535882,77.7622941,CO,42,105,72
India,Uttar_Pradesh,Moradabad,"Eco Herbal Park, Moradabad - UPPCB",16-02-2024 03:00:00,28.840739,78.697531,PM10,62,154,114
India,Uttar_Pradesh,Moradabad,"Eco Herbal Park, Moradabad - UPPCB",16-02-2024 03:00:00,28.840739,78.697531,OZONE,11,56,22
India,Uttar_Pradesh,Moradabad,"Employment Office, Moradabad - UPPCB",16-02-2024 03:00:00,28.88528,78.73880,SO2,25,30,26
India,Uttar_Pradesh,Moradabad,"Jigar Colony, Moradabad - UPPCB",16-02-2024 03:00:00,28.856664,78.772638,NH3,5,5,5
India,Uttar_Pradesh,Moradabad,"Jigar Colony, Moradabad - UPPCB",16-02-2024 03:00:00,28.856664,78.772638,CO,29,64,53
India,Uttar_Pradesh,Moradabad,"Kashiram Nagar, Moradabad - UPPCB",16-02-2024 03:00:00,28.849399,78.742362,PM2.5,48,184,101
India,Uttar_Pradesh,Moradabad,"Kashiram Nagar, Moradabad - UPPCB",16-02-2024 03:00:00,28.849399,78.742362,SO2,23,37,31
India,Uttar_Pradesh,Noida,"Sector - 125, Noida - UPPCB",16-02-2024 03:00:00,28.5447608,77.3231257,SO2,5,31,19
India,Uttar_Pradesh,Noida,"Sector - 62, Noida - IMD",16-02-2024 03:00:00,28.6245479,77.3577104,PM10,138,356,222
India,Uttar_Pradesh,Noida,"Sector - 62, Noida - IMD",16-02-2024 03:00:00,28.6245479,77.3577104,NO2,9,25,17
India,Uttar_Pradesh,Noida,"Sector-116, Noida - UPPCB",16-02-2024 03:00:00,28.569230,77.393848,PM2.5,123,338,273
India,Uttar_Pradesh,Noida,"Sector-116, Noida - UPPCB",16-02-2024 03:00:00,28.569230,77.393848,PM10,124,250,175
India,Uttar_Pradesh,Noida,"Sector-116, Noida - UPPCB",16-02-2024 03:00:00,28.569230,77.393848,OZONE,3,66,6
India,Uttar_Pradesh,Prayagraj,"Jhunsi, Prayagraj - UPPCB",16-02-2024 03:00:00,25.425602,81.917152,NH3,5,5,5
India,Uttar_Pradesh,Prayagraj,"Motilal Nehru NIT, Prayagraj - UPPCB",16-02-2024 03:00:00,25.494,81.863,PM10,46,110,74
India,Uttar_Pradesh,Prayagraj,"Nagar Nigam, Prayagraj - UPPCB",16-02-2024 03:00:00,25.44919916 ,81.82735986 ,PM2.5,54,206,96
India,Uttar_Pradesh,Prayagraj,"Nagar Nigam, Prayagraj - UPPCB",16-02-2024 03:00:00,25.44919916 ,81.82735986 ,NH3,6,23,12
India,Uttar_Pradesh,Prayagraj,"Nagar Nigam, Prayagraj - UPPCB",16-02-2024 03:00:00,25.44919916 ,81.82735986 ,SO2,12,114,53
India,Uttar_Pradesh,Varanasi,"Bhelupur, Varanasi - UPPCB",16-02-2024 03:00:00,25.301778,82.996789,PM10,25,91,45
India,Uttar_Pradesh,Varanasi,"Bhelupur, Varanasi - UPPCB",16-02-2024 03:00:00,25.301778,82.996789,SO2,23,25,23
India,Uttar_Pradesh,Varanasi,"Maldahiya, Varanasi - UPPCB",16-02-2024 03:00:00,25.32393,82.99687,PM10,NA,NA,NA
India,Uttar_Pradesh,Varanasi,"Maldahiya, Varanasi - UPPCB",16-02-2024 03:00:00,25.32393,82.99687,CO,6,116,78
India,Uttar_Pradesh,Varanasi,"Maldahiya, Varanasi - UPPCB",16-02-2024 03:00:00,25.32393,82.99687,OZONE,NA,NA,NA
India,Uttar_Pradesh,Vrindavan,"Omex Eternity, Vrindavan - UPPCB",16-02-2024 03:00:00,27.5714090,77.6557570,OZONE,30,32,31
India,Uttarakhand,Dehradun,"Doon University, Dehradun - UKPCB",16-02-2024 03:00:00,30.269444,78.044167,PM2.5,50,276,116
India,Uttarakhand,Kashipur,"Govt. Girls Inter College, Kashipur - UKPCB",16-02-2024 03:00:00,29.2124114,78.9611753,OZONE,5,46,12
India,West_Bengal,Asansol,"Asansol Court Area, Asansol - WBPCB",16-02-2024 03:00:00,23.685297,86.945968,PM2.5,95,303,176
India,West_Bengal,Asansol,"Asansol Court Area, Asansol - WBPCB",16-02-2024 03:00:00,23.685297,86.945968,NH3,8,16,11
India,West_Bengal,Barrackpore,"SVSPA Campus, Barrackpore - WBPCB",16-02-2024 03:00:00,22.7605581,88.3617589,PM2.5,90,320,209
India,West_Bengal,Barrackpore,"SVSPA Campus, Barrackpore - WBPCB",16-02-2024 03:00:00,22.7605581,88.3617589,NO2,19,47,30
India,West_Bengal,Durgapur,"Sidhu Kanhu Indoor Stadium, Durgapur - WBPCB",16-02-2024 03:00:00,23.5404352,87.2892225,PM10,100,145,124
India,West_Bengal,Durgapur,"Sidhu Kanhu Indoor Stadium, Durgapur - WBPCB",16-02-2024 03:00:00,23.5404352,87.2892225,NO2,27,41,32
India,West_Bengal,Durgapur,"Sidhu Kanhu Indoor Stadium, Durgapur - WBPCB",16-02-2024 03:00:00,23.5404352,87.2892225,OZONE,2,38,7
India,West_Bengal,Haldia,"Priyambada Housing Estate, Haldia - WBPCB",16-02-2024 03:00:00,22.06047,88.109737,CO,40,102,93
India,West_Bengal,Howrah,"Belur Math, Howrah - WBPCB",16-02-2024 03:00:00,22.629801,88.352017,NO2,11,39,27
India,West_Bengal,Howrah,"Ghusuri, Howrah - WBPCB",16-02-2024 03:00:00,22.611968,88.347422,PM2.5,166,333,267
India,West_Bengal,Howrah,"Ghusuri, Howrah - WBPCB",16-02-2024 03:00:00,22.611968,88.347422,CO,19,68,42
India,West_Bengal,Howrah,"Ghusuri, Howrah - WBPCB",16-02-2024 03:00:00,22.611968,88.347422,OZONE,12,30,13
India,West_Bengal,Howrah,"Padmapukur, Howrah - WBPCB",16-02-2024 03:00:00,22.5687319,88.2797276,NH3,11,44,24
India,West_Bengal,Howrah,"Padmapukur, Howrah - WBPCB",16-02-2024 03:00:00,22.5687319,88.2797276,OZONE,4,56,12
India,West_Bengal,Kolkata,"Bidhannagar, Kolkata - WBPCB",16-02-2024 03:00:00,22.58157048,88.41002457,OZONE,6,87,9
India,West_Bengal,Kolkata,"Fort William, Kolkata - WBPCB",16-02-2024 03:00:00,22.556640,88.342674,PM10,112,209,159
India,West_Bengal,Kolkata,"Jadavpur, Kolkata - WBPCB",16-02-2024 03:00:00,22.49929,88.36917,NH3,5,10,7
India,West_Bengal,Kolkata,"Rabindra Bharati University, Kolkata - WBPCB",16-02-2024 03:00:00,22.627847,88.380669,SO2,6,28,12
India,West_Bengal,Siliguri,"Ward-32 Bapupara, Siliguri - WBPCB",16-02-2024 03:00:00,26.6879226,88.4152495,NH3,6,21,14
India,Andhra_Pradesh,Amaravati,"Secretariat, Amaravati - APPCB",16-02-2024 03:00:00,16.5150833,80.5181667,NO2,10,23,15
India,Andhra_Pradesh,Amaravati,"Secretariat, Amaravati - APPCB",16-02-2024 03:00:00,16.5150833,80.5181667,NH3,3,4,4
India,Andhra_Pradesh,Amaravati,"Secretariat, Amaravati - APPCB",16-02-2024 03:00:00,16.5150833,80.5181667,CO,12,69,39
India,Andhra_Pradesh,Anantapur,"Gulzarpet, Anantapur - APPCB",16-02-2024 03:00:00,14.675886,77.593027,SO2,1,21,6
India,Andhra_Pradesh,Chittoor,"Gangineni Cheruvu, Chittoor - APPCB",16-02-2024 03:00:00,13.204880,79.097889,PM2.5,32,70,47
India,Andhra_Pradesh,Chittoor,"Gangineni Cheruvu, Chittoor - APPCB",16-02-2024 03:00:00,13.204880,79.097889,NH3,1,3,1
India,Andhra_Pradesh,Chittoor,"Gangineni Cheruvu, Chittoor - APPCB",16-02-2024 03:00:00,13.204880,79.097889,CO,30,80,50
India,Andhra_Pradesh,Kadapa,"Yerramukkapalli, Kadapa - APPCB",16-02-2024 03:00:00,14.465052,78.824187,SO2,1,2,2
India,Andhra_Pradesh,Vijayawada,"HB Colony, Vijayawada - APPCB",16-02-2024 03:00:00,16.536107,80.594233,SO2,4,7,5
India,Andhra_Pradesh,Vijayawada,"HB Colony, Vijayawada - APPCB",16-02-2024 03:00:00,16.536107,80.594233,CO,18,26,19
India,Andhra_Pradesh,Vijayawada,"Kanuru, Vijayawada - APPCB",16-02-2024 03:00:00,16.486692,80.699436,PM10,NA,NA,NA
India,Andhra_Pradesh,Vijayawada,"Kanuru, Vijayawada - APPCB",16-02-2024 03:00:00,16.486692,80.699436,NH3,NA,NA,NA
India,Andhra_Pradesh,Vijayawada,"Kanuru, Vijayawada - APPCB",16-02-2024 03:00:00,16.486692,80.699436,SO2,NA,NA,NA
India,Andhra_Pradesh,Vijayawada,"Rajiv Nagar, Vijayawada - APPCB",16-02-2024 03:00:00,16.554731,80.649110,PM10,NA,NA,NA
India,Andhra_Pradesh,Vijayawada,"Rajiv Nagar, Vijayawada - APPCB",16-02-2024 03:00:00,16.554731,80.649110,OZONE,3,18,8
India,Andhra_Pradesh,Visakhapatnam,"GVM Corporation, Visakhapatnam - APPCB",16-02-2024 03:00:00,17.72,83.3,PM10,73,301,146
India,Andhra_Pradesh,Visakhapatnam,"GVM Corporation, Visakhapatnam - APPCB",16-02-2024 03:00:00,17.72,83.3,NO2,11,78,42
India,Arunachal_Pradesh,Naharlagun,"Naharlagun, Naharlagun - APSPCB",16-02-2024 03:00:00,27.103358,93.679645,PM2.5,21,92,63
India,Assam,Byrnihat,"Central Academy for SFS, Byrnihat - PCBA",16-02-2024 03:00:00,26.071318,91.87488,PM2.5,95,407,292
India,Assam,Byrnihat,"Central Academy for SFS, Byrnihat - PCBA",16-02-2024 03:00:00,26.071318,91.87488,CO,18,140,82
India,Assam,Guwahati,"IITG, Guwahati - PCBA",16-02-2024 03:00:00,26.2028636,91.70046436,PM2.5,77,302,142
India,Assam,Guwahati,"IITG, Guwahati - PCBA",16-02-2024 03:00:00,26.2028636,91.70046436,SO2,12,14,12
India,Assam,Guwahati,"LGBI Airport, Guwahati - PCBA",16-02-2024 03:00:00,26.10887,91.589544,PM10,91,476,221
India,Assam,Guwahati,"LGBI Airport, Guwahati - PCBA",16-02-2024 03:00:00,26.10887,91.589544,SO2,11,14,13
India,Assam,Guwahati,"LGBI Airport, Guwahati - PCBA",16-02-2024 03:00:00,26.10887,91.589544,OZONE,8,95,31
India,Assam,Guwahati,"Pan Bazaar, Guwahati - PCBA",16-02-2024 03:00:00,26.187500,91.744194,CO,24,56,30
India,Assam,Guwahati,"Railway Colony, Guwahati - PCBA",16-02-2024 03:00:00,26.181742,91.78063,NO2,NA,NA,NA
India,Assam,Guwahati,"Railway Colony, Guwahati - PCBA",16-02-2024 03:00:00,26.181742,91.78063,SO2,NA,NA,NA
India,Assam,Guwahati,"Railway Colony, Guwahati - PCBA",16-02-2024 03:00:00,26.181742,91.78063,OZONE,NA,NA,NA
India,Assam,Nagaon,"Christianpatty, Nagaon - PCBA",16-02-2024 03:00:00,26.349082,92.68449,CO,2,40,29
India,Assam,Nalbari,"Bata Chowk, Nalbari - PCBA",16-02-2024 03:00:00,26.446912,91.439057,NO2,14,28,19
India,Assam,Nalbari,"Bata Chowk, Nalbari - PCBA",16-02-2024 03:00:00,26.446912,91.439057,SO2,5,8,7
India,Bihar,Arrah,"New DM Office, Arrah - BSPCB",16-02-2024 03:00:00,25.5626095,84.663264,SO2,14,23,19
India,Bihar,Aurangabad,"Gurdeo Nagar, Aurangabad - BSPCB",16-02-2024 03:00:00,24.75746,84.366208,SO2,4,14,11
India,Bihar,Aurangabad,"Gurdeo Nagar, Aurangabad - BSPCB",16-02-2024 03:00:00,24.75746,84.366208,CO,4,88,53
India,Bihar,Bhagalpur,"DM Office_Kachari Chowk, Bhagalpur - BSPCB",16-02-2024 03:00:00,25.251013,86.989001,PM2.5,72,332,250
India,Bihar,Bhagalpur,"DM Office_Kachari Chowk, Bhagalpur - BSPCB",16-02-2024 03:00:00,25.251013,86.989001,SO2,6,25,15
India,Bihar,Bhagalpur,"Mayaganj, Bhagalpur - BSPCB",16-02-2024 03:00:00,25.265194,87.012947,PM2.5,42,328,220
India,Bihar,Bhagalpur,"Mayaganj, Bhagalpur - BSPCB",16-02-2024 03:00:00,25.265194,87.012947,PM10,31,162,110
India,Bihar,Bihar Sharif,"D M Colony, Bihar Sharif - BSPCB",16-02-2024 03:00:00,25.204762,85.514960,PM2.5,12,283,88
India,Bihar,Bihar Sharif,"D M Colony, Bihar Sharif - BSPCB",16-02-2024 03:00:00,25.204762,85.514960,SO2,1,15,8
India,Bihar,Chhapra,"Darshan Nagar, Chhapra - BSPCB",16-02-2024 03:00:00,25.7808257,84.7446768,OZONE,1,15,3
India,Bihar,Gaya,"Collectorate, Gaya - BSPCB",16-02-2024 03:00:00,24.7955,84.9994,SO2,6,23,12
India,Bihar,Gaya,"Collectorate, Gaya - BSPCB",16-02-2024 03:00:00,24.7955,84.9994,OZONE,48,85,60
India,Bihar,Gaya,"Kareemganj, Gaya - BSPCB",16-02-2024 03:00:00,24.792403,84.992416,PM10,19,157,51
India,Bihar,Gaya,"SFTI Kusdihra, Gaya - BSPCB",16-02-2024 03:00:00,24.762518,84.982348,OZONE,2,25,5
India,Bihar,Hajipur,"Industrial Area, Hajipur - BSPCB",16-02-2024 03:00:00,25.697189,85.245900,NH3,8,16,13
India,Bihar,Katihar,"Mirchaibari, Katihar - BSPCB",16-02-2024 03:00:00,25.560083,87.553265,NH3,2,3,2
India,Bihar,Katihar,"Mirchaibari, Katihar - BSPCB",16-02-2024 03:00:00,25.560083,87.553265,CO,NA,NA,NA
India,Bihar,Kishanganj,"SDM Office_Khagra, Kishanganj - BSPCB",16-02-2024 03:00:00,26.0881305,87.93840336,CO,1,11,6
India,Bihar,Munger,"Town Hall, Munger - BSPCB",16-02-2024 03:00:00,25.376776,86.471523,SO2,17,40,32
India,Bihar,Munger,"Town Hall, Munger - BSPCB",16-02-2024 03:00:00,25.376776,86.471523,CO,1,52,13
India,Bihar,Munger,"Town Hall, Munger - BSPCB",16-02-2024 03:00:00,25.376776,86.471523,OZONE,9,15,11
India,Bihar,Patna,"DRM Office Danapur, Patna - BSPCB",16-02-2024 03:00:00,25.586562,85.043586,PM2.5,58,212,124
India,Bihar,Patna,"DRM Office Danapur, Patna - BSPCB",16-02-2024 03:00:00,25.586562,85.043586,OZONE,1,43,3
India,Bihar,Patna,"Muradpur, Patna - BSPCB",16-02-2024 03:00:00,25.619651,85.147382,NO2,11,19,15
India,Bihar,Patna,"Muradpur, Patna - BSPCB",16-02-2024 03:00:00,25.619651,85.147382,SO2,8,12,10
India,Bihar,Patna,"Rajbansi Nagar, Patna - BSPCB",16-02-2024 03:00:00,25.599486,85.113666,PM10,97,208,147
India,Bihar,Patna,"Samanpura, Patna - BSPCB",16-02-2024 03:00:00,25.596727,85.085624,CO,58,131,114
India,Bihar,Purnia,"Mariam Nagar, Purnia - BSPCB",16-02-2024 03:00:00,25.366336,87.117468,NH3,1,1,1
India,Bihar,Purnia,"Mariam Nagar, Purnia - BSPCB",16-02-2024 03:00:00,25.366336,87.117468,SO2,16,20,18
India,Bihar,Purnia,"Mariam Nagar, Purnia - BSPCB",16-02-2024 03:00:00,25.366336,87.117468,CO,28,76,59
India,Bihar,Purnia,"Mariam Nagar, Purnia - BSPCB",16-02-2024 03:00:00,25.366336,87.117468,OZONE,9,18,12
India,Bihar,Saharsa,"Police Line, Saharsa - BSPCB",16-02-2024 03:00:00,25.892357,86.590325,NO2,6,9,7
India,Bihar,Saharsa,"Police Line, Saharsa - BSPCB",16-02-2024 03:00:00,25.892357,86.590325,OZONE,10,62,18
India,Bihar,Samastipur,"DM Office_Kasipur, Samastipur - BSPCB",16-02-2024 03:00:00,25.859655,85.77944,CO,4,32,18
India,Bihar,Sasaram,"Dada Peer, Sasaram - BSPCB",16-02-2024 03:00:00,24.952822,84.002396,PM10,57,131,86
India,Bihar,Sasaram,"Dada Peer, Sasaram - BSPCB",16-02-2024 03:00:00,24.952822,84.002396,NO2,2,22,12
India,Bihar,Sasaram,"Dada Peer, Sasaram - BSPCB",16-02-2024 03:00:00,24.952822,84.002396,OZONE,3,38,5
India,Chandigarh,Chandigarh,"Sector 22, Chandigarh - CPCC",16-02-2024 03:00:00,30.735567,76.775714,NO2,23,132,61
India,Chandigarh,Chandigarh,"Sector-25, Chandigarh - CPCC",16-02-2024 03:00:00,30.751462,76.762879,PM10,126,169,147
India,Chandigarh,Chandigarh,"Sector-25, Chandigarh - CPCC",16-02-2024 03:00:00,30.751462,76.762879,OZONE,1,48,4
India,Chandigarh,Chandigarh,"Sector-53, Chandigarh - CPCC",16-02-2024 03:00:00,30.719859,76.738637,NO2,38,123,74
India,Chandigarh,Chandigarh,"Sector-53, Chandigarh - CPCC",16-02-2024 03:00:00,30.719859,76.738637,NH3,6,9,7
India,Chandigarh,Chandigarh,"Sector-53, Chandigarh - CPCC",16-02-2024 03:00:00,30.719859,76.738637,SO2,12,72,20
India,Chhattisgarh,Bhilai,"32Bungalows, Bhilai - CECB",16-02-2024 03:00:00,21.194815,81.314770,PM2.5,37,64,52
India,Chhattisgarh,Bhilai,"32Bungalows, Bhilai - CECB",16-02-2024 03:00:00,21.194815,81.314770,SO2,2,5,4
India,Chhattisgarh,Bhilai,"Civic Center, Bhilai - Bhilai Steel Plant",16-02-2024 03:00:00,21.185571,81.343175,OZONE,8,56,13
India,Chhattisgarh,Bilaspur,"Mangala, Bilaspur - NTPC",16-02-2024 03:00:00,22.08815,82.13737,PM2.5,25,61,41
India,Chhattisgarh,Chhal,"Nawapara SECL Colony, Chhal - CECB",16-02-2024 03:00:00,22.118125,83.140608,PM2.5,50,122,65
India,Chhattisgarh,Korba,"Rampur, Korba - CECB",16-02-2024 03:00:00,22.368195,82.746431,SO2,6,51,13
India,Chhattisgarh,Korba,"Rampur, Korba - CECB",16-02-2024 03:00:00,22.368195,82.746431,CO,23,31,29
India,Chhattisgarh,Kunjemura,"OP Jindal School, Kunjemura - CECB",16-02-2024 03:00:00,22.126650,83.483212,CO,30,48,38
India,Chhattisgarh,Milupara,"Govt. Higher Secondary School, Milupara - CECB",16-02-2024 03:00:00,22.1910172,83.5197009,PM10,NA,NA,NA
India,Chhattisgarh,Milupara,"Govt. Higher Secondary School, Milupara - CECB",16-02-2024 03:00:00,22.1910172,83.5197009,NH3,NA,NA,NA
India,Chhattisgarh,Milupara,"Govt. Higher Secondary School, Milupara - CECB",16-02-2024 03:00:00,22.1910172,83.5197009,CO,NA,NA,NA
India,Chhattisgarh,Raipur,"AIIMS, Raipur - CECB",16-02-2024 03:00:00,21.258815,81.578979,NO2,31,70,51
India,Chhattisgarh,Raipur,"AIIMS, Raipur - CECB",16-02-2024 03:00:00,21.258815,81.578979,CO,17,68,55
India,Chhattisgarh,Raipur,"Bhatagaon New ISBT, Raipur - CECB",16-02-2024 03:00:00,21.219665,81.630094,NO2,NA,NA,NA
India,Chhattisgarh,Raipur,"Bhatagaon New ISBT, Raipur - CECB",16-02-2024 03:00:00,21.219665,81.630094,CO,48,88,74
India,Chhattisgarh,Raipur,"Krishak Nagar, Raipur - CECB",16-02-2024 03:00:00,21.237755,81.705301,SO2,8,24,12
India,Chhattisgarh,Raipur,"Siltara Phase-II, Raipur - CECB",16-02-2024 03:00:00,21.371751,81.664929,NH3,2,3,3
India,Chhattisgarh,Raipur,"Siltara Phase-II, Raipur - CECB",16-02-2024 03:00:00,21.371751,81.664929,SO2,7,33,12
India,Chhattisgarh,Tumidih,"OP Jindal Industrial Park, Tumidih - CECB",16-02-2024 03:00:00,22.06631475,83.33820077,PM10,NA,NA,NA
India,Chhattisgarh,Tumidih,"OP Jindal Industrial Park, Tumidih - CECB",16-02-2024 03:00:00,22.06631475,83.33820077,OZONE,7,74,28
India,Delhi,Delhi,"Alipur, Delhi - DPCC",16-02-2024 03:00:00,28.815329,77.153010,OZONE,5,179,21
India,Delhi,Delhi,"Anand Vihar, Delhi - DPCC",16-02-2024 03:00:00,28.647622,77.3158090,NO2,85,233,141
India,Delhi,Delhi,"Anand Vihar, Delhi - DPCC",16-02-2024 03:00:00,28.647622,77.3158090,NH3,4,19,10
India,Delhi,Delhi,"Ashok Vihar, Delhi - DPCC",16-02-2024 03:00:00,28.695381,77.181665,SO2,22,43,31
India,Delhi,Delhi,"Aya Nagar, Delhi - IMD",16-02-2024 03:00:00,28.4706914,77.1099364,CO,71,96,85
India,Delhi,Delhi,"Aya Nagar, Delhi - IMD",16-02-2024 03:00:00,28.4706914,77.1099364,OZONE,9,43,15
India,Delhi,Delhi,"Bawana, Delhi - DPCC",16-02-2024 03:00:00,28.776200,77.051074,PM2.5,163,382,309
India,Delhi,Delhi,"Bawana, Delhi - DPCC",16-02-2024 03:00:00,28.776200,77.051074,PM10,135,380,211
India,Delhi,Delhi,"Burari Crossing, Delhi - IMD",16-02-2024 03:00:00,28.7256504,77.2011573,CO,101,106,102
India,Delhi,Delhi,"Dr. Karni Singh Shooting Range, Delhi - DPCC",16-02-2024 03:00:00,28.498571,77.264840,PM10,126,405,207
India,Delhi,Delhi,"Dr. Karni Singh Shooting Range, Delhi - DPCC",16-02-2024 03:00:00,28.498571,77.264840,NO2,45,154,96
India,Delhi,Delhi,"Dr. Karni Singh Shooting Range, Delhi - DPCC",16-02-2024 03:00:00,28.498571,77.264840,SO2,4,22,10
India,Delhi,Delhi,"Dr. Karni Singh Shooting Range, Delhi - DPCC",16-02-2024 03:00:00,28.498571,77.264840,CO,34,108,100
India,Delhi,Delhi,"Dwarka-Sector 8, Delhi - DPCC ",16-02-2024 03:00:00,28.5710274,77.0719006,PM10,129,500,275
India,Delhi,Delhi,"IGI Airport (T3), Delhi - IMD",16-02-2024 03:00:00,28.5627763,77.1180053,NO2,37,81,57
India,Delhi,Delhi,"IGI Airport (T3), Delhi - IMD",16-02-2024 03:00:00,28.5627763,77.1180053,OZONE,11,61,13
India,Delhi,Delhi,"IHBAS, Dilshad Garden, Delhi - CPCB",16-02-2024 03:00:00,28.6811736,77.3025234,PM2.5,99,308,205
India,Delhi,Delhi,"IHBAS, Dilshad Garden, Delhi - CPCB",16-02-2024 03:00:00,28.6811736,77.3025234,PM10,120,182,144
India,Delhi,Delhi,"IHBAS, Dilshad Garden, Delhi - CPCB",16-02-2024 03:00:00,28.6811736,77.3025234,NO2,8,21,16
India,Delhi,Delhi,"Jahangirpuri, Delhi - DPCC",16-02-2024 03:00:00,28.732820,77.170633,PM2.5,205,448,333
India,Delhi,Delhi,"Jawaharlal Nehru Stadium, Delhi - DPCC",16-02-2024 03:00:00,28.580280,77.233829,PM2.5,106,330,258
India,Delhi,Delhi,"Lodhi Road, Delhi - IITM",16-02-2024 03:00:00,28.588333,77.221667,NH3,8,13,10
India,Delhi,Delhi,"Lodhi Road, Delhi - IMD",16-02-2024 03:00:00,28.5918245,77.2273074,NO2,6,28,16
India,Delhi,Delhi,"Lodhi Road, Delhi - IMD",16-02-2024 03:00:00,28.5918245,77.2273074,OZONE,13,96,19
India,Delhi,Delhi,"Major Dhyan Chand National Stadium, Delhi - DPCC",16-02-2024 03:00:00,28.611281,77.237738,OZONE,2,173,35
India,Delhi,Delhi,"Mandir Marg, Delhi - DPCC",16-02-2024 03:00:00,28.636429,77.201067,PM10,104,182,142
India,Delhi,Delhi,"Mundka, Delhi - DPCC",16-02-2024 03:00:00,28.684678,77.076574,PM2.5,101,430,313
India,Delhi,Delhi,"Mundka, Delhi - DPCC",16-02-2024 03:00:00,28.684678,77.076574,NO2,31,133,75
India,Delhi,Delhi,"Mundka, Delhi - DPCC",16-02-2024 03:00:00,28.684678,77.076574,SO2,1,13,6
India,Delhi,Delhi,"NSIT Dwarka, Delhi - CPCB",16-02-2024 03:00:00,28.60909,77.0325413,NO2,41,90,56
India,Delhi,Delhi,"Najafgarh, Delhi - DPCC",16-02-2024 03:00:00,28.570173,76.933762,PM2.5,NA,NA,NA
India,Delhi,Delhi,"Najafgarh, Delhi - DPCC",16-02-2024 03:00:00,28.570173,76.933762,CO,NA,NA,NA
India,Delhi,Delhi,"Narela, Delhi - DPCC",16-02-2024 03:00:00,28.822836,77.101981,PM10,133,248,180
India,Delhi,Delhi,"Narela, Delhi - DPCC",16-02-2024 03:00:00,28.822836,77.101981,CO,39,68,57
India,Delhi,Delhi,"Nehru Nagar, Delhi - DPCC",16-02-2024 03:00:00,28.567890,77.250515,PM2.5,134,418,312
India,Delhi,Delhi,"Nehru Nagar, Delhi - DPCC",16-02-2024 03:00:00,28.567890,77.250515,NH3,10,24,16
India,Delhi,Delhi,"Nehru Nagar, Delhi - DPCC",16-02-2024 03:00:00,28.567890,77.250515,SO2,1,24,12
India,Delhi,Delhi,"Okhla Phase-2, Delhi - DPCC",16-02-2024 03:00:00,28.530785,77.271255,PM2.5,111,343,273
India,Delhi,Delhi,"Okhla Phase-2, Delhi - DPCC",16-02-2024 03:00:00,28.530785,77.271255,SO2,2,11,6
India,Delhi,Delhi,"Patparganj, Delhi - DPCC",16-02-2024 03:00:00,28.623763,77.287209,PM2.5,93,315,226
India,Delhi,Delhi,"Patparganj, Delhi - DPCC",16-02-2024 03:00:00,28.623763,77.287209,PM10,142,352,227
India,Delhi,Delhi,"Punjabi Bagh, Delhi - DPCC",16-02-2024 03:00:00,28.674045,77.131023,SO2,1,49,23
India,Delhi,Delhi,"Pusa, Delhi - DPCC",16-02-2024 03:00:00,28.639652,77.146275,PM10,157,405,244
India,Delhi,Delhi,"R K Puram, Delhi - DPCC",16-02-2024 03:00:00,28.563262,77.186937,NO2,28,107,58
India,Delhi,Delhi,"Rohini, Delhi - DPCC",16-02-2024 03:00:00,28.732528,77.119920,PM10,124,428,240
India,Delhi,Delhi,"Shadipur, Delhi - CPCB",16-02-2024 03:00:00,28.6514781,77.1473105,PM2.5,111,334,241
India,Delhi,Delhi,"Shadipur, Delhi - CPCB",16-02-2024 03:00:00,28.6514781,77.1473105,PM10,179,410,239
India,Delhi,Delhi,"Shadipur, Delhi - CPCB",16-02-2024 03:00:00,28.6514781,77.1473105,NO2,46,60,52
India,Delhi,Delhi,"Shadipur, Delhi - CPCB",16-02-2024 03:00:00,28.6514781,77.1473105,SO2,8,20,13
India,Delhi,Delhi,"Shadipur, Delhi - CPCB",16-02-2024 03:00:00,28.6514781,77.1473105,CO,38,96,68
India,Delhi,Delhi,"Sirifort, Delhi - CPCB",16-02-2024 03:00:00,28.5504249,77.2159377,NO2,NA,NA,NA
India,Delhi,Delhi,"Sonia Vihar, Delhi - DPCC",16-02-2024 03:00:00,28.710508,77.249485,SO2,5,27,14
India,Delhi,Delhi,"Sonia Vihar, Delhi - DPCC",16-02-2024 03:00:00,28.710508,77.249485,OZONE,5,171,20
India,Delhi,Delhi,"Vivek Vihar, Delhi - DPCC",16-02-2024 03:00:00,28.672342,77.315260,CO,20,127,82
India,Delhi,Delhi,"Wazirpur, Delhi - DPCC",16-02-2024 03:00:00,28.699793,77.165453,PM2.5,179,386,312
India,Delhi,Delhi,"Wazirpur, Delhi - DPCC",16-02-2024 03:00:00,28.699793,77.165453,NO2,66,225,145
India,Gujarat,Ahmedabad,"Chandkheda, Ahmedabad - IITM",16-02-2024 03:00:00,23.107969,72.574648,NO2,72,170,114
India,Gujarat,Ahmedabad,"Gyaspur, Ahmedabad - IITM",16-02-2024 03:00:00,22.977134,72.553024,PM2.5,64,286,146
India,Gujarat,Ahmedabad,"Maninagar, Ahmedabad - GPCB",16-02-2024 03:00:00,23.002657,72.591912,PM10,61,155,90
India,Gujarat,Ahmedabad,"Maninagar, Ahmedabad - GPCB",16-02-2024 03:00:00,23.002657,72.591912,SO2,28,47,34
India,Gujarat,Ahmedabad,"Maninagar, Ahmedabad - GPCB",16-02-2024 03:00:00,23.002657,72.591912,OZONE,25,94,49
India,Gujarat,Ahmedabad,"Rakhial, Ahmedabad - IITM",16-02-2024 03:00:00,23.016834,72.625775,NO2,51,82,70
India,Gujarat,Ahmedabad,"Rakhial, Ahmedabad - IITM",16-02-2024 03:00:00,23.016834,72.625775,SO2,4,6,5
India,Gujarat,Ahmedabad,"Rakhial, Ahmedabad - IITM",16-02-2024 03:00:00,23.016834,72.625775,OZONE,15,44,25
India,Gujarat,Ahmedabad,"SAC ISRO Bopal, Ahmedabad - IITM",16-02-2024 03:00:00,23.041137,72.456691,PM10,100,286,152
India,Gujarat,Ahmedabad,"SAC ISRO Bopal, Ahmedabad - IITM",16-02-2024 03:00:00,23.041137,72.456691,NH3,3,4,4
India,Gujarat,Ahmedabad,"SAC ISRO Satellite, Ahmedabad - IITM",16-02-2024 03:00:00,23.023389,72.515201,PM2.5,119,201,182
India,Gujarat,Ahmedabad,"SAC ISRO Satellite, Ahmedabad - IITM",16-02-2024 03:00:00,23.023389,72.515201,NO2,17,17,17
India,Gujarat,Ahmedabad,"Sardar Vallabhbhai Patel Stadium, Ahmedabad - IITM",16-02-2024 03:00:00,23.043070,72.562968,OZONE,3,11,7
India,Gujarat,Ankleshwar,"GIDC, Ankleshwar - GPCB",16-02-2024 03:00:00,21.613267,73.010555,NH3,6,7,7
India,Gujarat,Ankleshwar,"GIDC, Ankleshwar - GPCB",16-02-2024 03:00:00,21.613267,73.010555,CO,56,97,76
India,Gujarat,Gandhinagar,"GIFT City, Gandhinagar - IITM",16-02-2024 03:00:00,23.163798,72.677768,CO,16,28,25
India,Gujarat,Gandhinagar,"IIPHG Lekawada, Gandhinagar - IITM",16-02-2024 03:00:00,23.243639,72.68994,PM2.5,71,134,98
India,Gujarat,Gandhinagar,"IIPHG Lekawada, Gandhinagar - IITM",16-02-2024 03:00:00,23.243639,72.68994,PM10,91,130,108
India,Gujarat,Gandhinagar,"Sector-10, Gandhinagar - GPCB",16-02-2024 03:00:00,23.221714,72.654328,PM10,48,125,99
India,Gujarat,Gandhinagar,"Sector-10, Gandhinagar - GPCB",16-02-2024 03:00:00,23.221714,72.654328,OZONE,5,42,19
India,Gujarat,Surat,"Science Center, Surat - SMC",16-02-2024 03:00:00,21.170046,72.795405,PM10,47,133,79
India,Gujarat,Surat,"Science Center, Surat - SMC",16-02-2024 03:00:00,21.170046,72.795405,CO,54,86,68
India,Gujarat,Vapi,"Phase-1 GIDC, Vapi - GPCB",16-02-2024 03:00:00,20.362421,72.918013,PM2.5,157,332,259
India,Gujarat,Vapi,"Phase-1 GIDC, Vapi - GPCB",16-02-2024 03:00:00,20.362421,72.918013,CO,1,183,43
India,Haryana,Ambala,"Patti Mehar, Ambala - HSPCB",16-02-2024 03:00:00,30.379589,76.778328,CO,31,60,42
India,Haryana,Bahadurgarh,"Arya Nagar, Bahadurgarh - HSPCB",16-02-2024 03:00:00,28.6701,76.9254,CO,40,60,54
India,Haryana,Ballabgarh,"Nathu Colony, Ballabgarh - HSPCB",16-02-2024 03:00:00,28.3419248,77.319699,NH3,1,2,2
India,Haryana,Bhiwani,"H.B. Colony, Bhiwani - HSPCB",16-02-2024 03:00:00,28.806223,76.141105,PM2.5,136,307,221
India,Haryana,Bhiwani,"H.B. Colony, Bhiwani - HSPCB",16-02-2024 03:00:00,28.806223,76.141105,PM10,106,166,133
India,Haryana,Bhiwani,"H.B. Colony, Bhiwani - HSPCB",16-02-2024 03:00:00,28.806223,76.141105,SO2,5,14,10
India,Haryana,Charkhi Dadri,"Mini Secretariat, Charkhi Dadri - HSPCB",16-02-2024 03:00:00,28.593883,76.270653,PM10,110,222,153
India,Haryana,Faridabad,"New Industrial Town, Faridabad - HSPCB",16-02-2024 03:00:00,28.39072,77.30059,PM2.5,191,329,279
India,Haryana,Faridabad,"New Industrial Town, Faridabad - HSPCB",16-02-2024 03:00:00,28.39072,77.30059,NO2,7,13,11
India,Haryana,Faridabad,"Sector 11, Faridabad - HSPCB",16-02-2024 03:00:00,28.376058,77.315741,PM2.5,NA,NA,NA
India,Haryana,Faridabad,"Sector 30, Faridabad - HSPCB",16-02-2024 03:00:00,28.4417,77.3217,PM2.5,123,163,139
India,Haryana,Faridabad,"Sector- 16A, Faridabad - HSPCB",16-02-2024 03:00:00,28.4088421,77.3099081,PM2.5,80,349,272
India,Haryana,Gurugram,"Sector-51, Gurugram - HSPCB",16-02-2024 03:00:00,28.4227,77.0667,NH3,6,14,9
India,Haryana,Gurugram,"Vikas Sadan, Gurugram - HSPCB",16-02-2024 03:00:00,28.4501238,77.0263051,NO2,5,26,14
India,Haryana,Hisar,"Urban Estate-II, Hisar - HSPCB",16-02-2024 03:00:00,29.140560,75.744941,CO,40,151,61
India,Haryana,Jind,"Police Lines, Jind - HSPCB",16-02-2024 03:00:00,29.307814,76.337619,NH3,2,6,4
India,Haryana,Jind,"Police Lines, Jind - HSPCB",16-02-2024 03:00:00,29.307814,76.337619,CO,4,116,33
India,Haryana,Kaithal,"Rishi Nagar, Kaithal - HSPCB",16-02-2024 03:00:00,29.8006,76.4155,CO,10,35,19
India,Haryana,Karnal,"Sector-12, Karnal - HSPCB",16-02-2024 03:00:00,29.695300,77.002700,NH3,10,13,11
India,Haryana,Kurukshetra,"Sector-7, Kurukshetra - HSPCB",16-02-2024 03:00:00,29.966942,76.875879,NH3,3,5,5
India,Haryana,Mandikhera,"General Hospital, Mandikhera - HSPCB",16-02-2024 03:00:00,27.9002,76.9938,PM2.5,25,69,47
India,Haryana,Manesar,"Sector-2 IMT, Manesar - HSPCB",16-02-2024 03:00:00,28.360699,76.936090,PM2.5,75,302,162
India,Haryana,Manesar,"Sector-2 IMT, Manesar - HSPCB",16-02-2024 03:00:00,28.360699,76.936090,NO2,11,28,21
India,Haryana,Narnaul,"Shastri Nagar, Narnaul - HSPCB",16-02-2024 03:00:00,28.060249,76.113115,PM10,41,155,100
India,Haryana,Palwal,"Shyam Nagar, Palwal - HSPCB",16-02-2024 03:00:00,28.1485564,77.3320667,PM2.5,65,112,82
India,Haryana,Palwal,"Shyam Nagar, Palwal - HSPCB",16-02-2024 03:00:00,28.1485564,77.3320667,CO,8,18,13
India,Haryana,Rohtak,"MD University, Rohtak - HSPCB",16-02-2024 03:00:00,28.52123,76.37138,SO2,5,9,7
India,Haryana,Rohtak,"MD University, Rohtak - HSPCB",16-02-2024 03:00:00,28.52123,76.37138,CO,12,72,35
India,Haryana,Sirsa,"F-Block, Sirsa - HSPCB",16-02-2024 03:00:00,29.536400,75.015800,NH3,12,13,13
India,Haryana,Sirsa,"F-Block, Sirsa - HSPCB",16-02-2024 03:00:00,29.536400,75.015800,SO2,1,50,21
India,Haryana,Yamuna Nagar,"Gobind Pura, Yamuna Nagar - HSPCB",16-02-2024 03:00:00,30.1480566,77.2893471,PM2.5,151,330,258
India,Karnataka,Bagalkot,"Vidayagiri, Bagalkot - KSPCB",16-02-2024 03:00:00,16.172806,75.659694,SO2,NA,NA,NA
India,Karnataka,Bengaluru,"BTM Layout, Bengaluru - CPCB",16-02-2024 03:00:00,12.9135218,77.5950804,SO2,13,13,13
India,Karnataka,Bengaluru,"BTM Layout, Bengaluru - CPCB",16-02-2024 03:00:00,12.9135218,77.5950804,CO,36,38,37
India,Karnataka,Bengaluru,"Bapuji Nagar, Bengaluru - KSPCB",16-02-2024 03:00:00,12.951913,77.539784,PM2.5,58,169,91
India,Karnataka,Bengaluru,"City Railway Station, Bengaluru - KSPCB",16-02-2024 03:00:00,12.9756843,77.5660749,CO,52,96,73
India,Karnataka,Bengaluru,"Hebbal, Bengaluru - KSPCB",16-02-2024 03:00:00,13.029152,77.585901,SO2,NA,NA,NA
India,Karnataka,Bengaluru,"Hebbal, Bengaluru - KSPCB",16-02-2024 03:00:00,13.029152,77.585901,OZONE,NA,NA,NA
India,Karnataka,Bengaluru,"Hombegowda Nagar, Bengaluru - KSPCB",16-02-2024 03:00:00,12.938539,77.590100,PM10,40,107,74
India,Karnataka,Bengaluru,"Jigani, Bengaluru - KSPCB",16-02-2024 03:00:00,12.7816279,77.6299145,PM2.5,NA,NA,NA
India,Karnataka,Bengaluru,"Jigani, Bengaluru - KSPCB",16-02-2024 03:00:00,12.7816279,77.6299145,NH3,4,4,4
India,Karnataka,Bengaluru,"Jigani, Bengaluru - KSPCB",16-02-2024 03:00:00,12.7816279,77.6299145,SO2,16,16,16
India,Karnataka,Bengaluru,"Jigani, Bengaluru - KSPCB",16-02-2024 03:00:00,12.7816279,77.6299145,CO,46,79,61
India,Karnataka,Bengaluru,"Peenya, Bengaluru - CPCB",16-02-2024 03:00:00,13.0270199,77.494094,PM2.5,7,109,61
India,Karnataka,Bengaluru,"Peenya, Bengaluru - CPCB",16-02-2024 03:00:00,13.0270199,77.494094,NO2,20,24,22
India,Karnataka,Bengaluru,"Shivapura_Peenya, Bengaluru - KSPCB",16-02-2024 03:00:00,13.0246342,77.5080115,PM10,54,91,72
India,Karnataka,Bengaluru,"Silk Board, Bengaluru - KSPCB",16-02-2024 03:00:00,12.917348,77.622813,PM10,64,114,88
India,Karnataka,Bengaluru,"Silk Board, Bengaluru - KSPCB",16-02-2024 03:00:00,12.917348,77.622813,OZONE,28,32,30
India,Karnataka,Bidar,"Naubad, Bidar - KSPCB",16-02-2024 03:00:00,17.930306,77.482194,PM10,64,100,80
India,Karnataka,Bidar,"Naubad, Bidar - KSPCB",16-02-2024 03:00:00,17.930306,77.482194,SO2,15,17,16
