country,state,city,station,last_update,latitude,longitude,pollutant_id,pollutant_min,pollutant_max,pollutant_avg
India,Andhra_Pradesh,Amaravati,"Secretariat, Amaravati - APPCB",09-02-2024 22:00:00,16.5150833,80.5181667,NH3,3,4,4
India,Andhra_Pradesh,Anantapur,"Gulzarpet, Anantapur - APPCB",09-02-2024 22:00:00,14.675886,77.593027,PM10,45,106,72
India,Andhra_Pradesh,Chittoor,"Gangineni Cheruvu, Chittoor - APPCB",09-02-2024 22:00:00,13.204880,79.097889,PM10,28,68,50
India,Andhra_Pradesh,Chittoor,"Gangineni Cheruvu, Chittoor - APPCB",09-02-2024 22:00:00,13.204880,79.097889,NH3,1,2,1
India,Andhra_Pradesh,Chittoor,"Gangineni Cheruvu, Chittoor - APPCB",09-02-2024 22:00:00,13.204880,79.097889,OZONE,8,168,110
India,Andhra_Pradesh,Rajamahendravaram,"Anand Kala Kshetram, Rajamahendravaram - APPCB",09-02-2024 22:00:00,16.9872867,81.7363176,NO2,14,36,22
India,Andhra_Pradesh,Rajamahendravaram,"Anand Kala Kshetram, Rajamahendravaram - APPCB",09-02-2024 22:00:00,16.9872867,81.7363176,OZONE,5,6,6
India,Andhra_Pradesh,Tirupati,"Tirumala, Tirupati - APPCB",09-02-2024 22:00:00,13.67,79.35,PM2.5,23,100,70
India,Andhra_Pradesh,Tirupati,"Tirumala, Tirupati - APPCB",09-02-2024 22:00:00,13.67,79.35,PM10,41,102,77
India,Andhra_Pradesh,Tirupati,"Vaikuntapuram, Tirupati - APPCB",09-02-2024 22:00:00,13.615387,79.409230,SO2,4,5,5
India,Andhra_Pradesh,Vijayawada,"HB Colony, Vijayawada - APPCB",09-02-2024 22:00:00,16.536107,80.594233,CO,22,24,24
India,Andhra_Pradesh,Vijayawada,"Kanuru, Vijayawada - APPCB",09-02-2024 22:00:00,16.486692,80.699436,PM10,67,91,76
India,Andhra_Pradesh,Vijayawada,"Kanuru, Vijayawada - APPCB",09-02-2024 22:00:00,16.486692,80.699436,SO2,5,10,6
India,Andhra_Pradesh,Vijayawada,"Rajiv Gandhi Park, Vijayawada - APPCB",09-02-2024 22:00:00,16.509717,80.612222,PM10,37,79,56
India,Andhra_Pradesh,Vijayawada,"Rajiv Gandhi Park, Vijayawada - APPCB",09-02-2024 22:00:00,16.509717,80.612222,NO2,7,54,30
India,Andhra_Pradesh,Visakhapatnam,"GVM Corporation, Visakhapatnam - APPCB",09-02-2024 22:00:00,17.72,83.3,SO2,8,16,13
India,Assam,Byrnihat,"Central Academy for SFS, Byrnihat - PCBA",09-02-2024 22:00:00,26.071318,91.87488,CO,1,109,44
India,Assam,Guwahati,"IITG, Guwahati - PCBA",09-02-2024 22:00:00,26.2028636,91.70046436,CO,10,28,14
India,Assam,Guwahati,"LGBI Airport, Guwahati - PCBA",09-02-2024 22:00:00,26.10887,91.589544,SO2,13,13,13
India,Assam,Guwahati,"Pan Bazaar, Guwahati - PCBA",09-02-2024 22:00:00,26.187500,91.744194,PM2.5,NA,NA,NA
India,Assam,Guwahati,"Railway Colony, Guwahati - PCBA",09-02-2024 22:00:00,26.181742,91.78063,SO2,18,25,21
India,Assam,Guwahati,"Railway Colony, Guwahati - PCBA",09-02-2024 22:00:00,26.181742,91.78063,OZONE,7,43,34
India,Assam,Nagaon,"Christianpatty, Nagaon - PCBA",09-02-2024 22:00:00,26.349082,92.68449,NO2,11,27,18
India,Assam,Nagaon,"Christianpatty, Nagaon - PCBA",09-02-2024 22:00:00,26.349082,92.68449,NH3,2,9,3
India,Assam,Nalbari,"Bata Chowk, Nalbari - PCBA",09-02-2024 22:00:00,26.446912,91.439057,NH3,1,7,2
India,Assam,Nalbari,"Bata Chowk, Nalbari - PCBA",09-02-2024 22:00:00,26.446912,91.439057,OZONE,4,85,39
India,Assam,Silchar,"Tarapur, Silchar - PCBA",09-02-2024 22:00:00,24.82827,92.79525,PM10,44,56,48
India,Assam,Sivasagar,"Girls College, Sivasagar - PCBA",09-02-2024 22:00:00,26.987634,94.636574,NH3,3,3,3
India,Assam,Sivasagar,"Girls College, Sivasagar - PCBA",09-02-2024 22:00:00,26.987634,94.636574,OZONE,1,9,3
India,Bihar,Arrah,"New DM Office, Arrah - BSPCB",09-02-2024 22:00:00,25.5626095,84.663264,PM2.5,47,307,106
India,Bihar,Aurangabad,"Gurdeo Nagar, Aurangabad - BSPCB",09-02-2024 22:00:00,24.75746,84.366208,PM2.5,55,302,129
India,Bihar,Aurangabad,"Gurdeo Nagar, Aurangabad - BSPCB",09-02-2024 22:00:00,24.75746,84.366208,CO,14,86,58
India,Bihar,Bettiah,"Kamalnath Nagar, Bettiah - BSPCB",09-02-2024 22:00:00,26.80365,84.51954,PM2.5,35,153,72
India,Bihar,Bettiah,"Kamalnath Nagar, Bettiah - BSPCB",09-02-2024 22:00:00,26.80365,84.51954,NO2,12,26,16
India,Bihar,Bettiah,"Kamalnath Nagar, Bettiah - BSPCB",09-02-2024 22:00:00,26.80365,84.51954,OZONE,1,8,4
India,Bihar,Bhagalpur,"DM Office_Kachari Chowk, Bhagalpur - BSPCB",09-02-2024 22:00:00,25.251013,86.989001,PM10,106,198,134
India,Bihar,Bhagalpur,"DM Office_Kachari Chowk, Bhagalpur - BSPCB",09-02-2024 22:00:00,25.251013,86.989001,NO2,28,76,51
India,Bihar,Bhagalpur,"DM Office_Kachari Chowk, Bhagalpur - BSPCB",09-02-2024 22:00:00,25.251013,86.989001,NH3,3,5,4
India,Bihar,Bhagalpur,"DM Office_Kachari Chowk, Bhagalpur - BSPCB",09-02-2024 22:00:00,25.251013,86.989001,OZONE,20,31,24
India,Bihar,Bhagalpur,"Mayaganj, Bhagalpur - BSPCB",09-02-2024 22:00:00,25.265194,87.012947,CO,8,10,9
India,Bihar,Bihar Sharif,"D M Colony, Bihar Sharif - BSPCB",09-02-2024 22:00:00,25.204762,85.514960,NH3,2,2,2
India,Bihar,Bihar Sharif,"D M Colony, Bihar Sharif - BSPCB",09-02-2024 22:00:00,25.204762,85.514960,OZONE,10,52,34
India,Bihar,Buxar,"Charitra Van, Buxar - BSPCB (Formerly known as Central Jail)",09-02-2024 22:00:00,25.567520,83.966379,PM10,145,500,225
India,Bihar,Buxar,"Charitra Van, Buxar - BSPCB (Formerly known as Central Jail)",09-02-2024 22:00:00,25.567520,83.966379,NO2,13,15,14
India,Bihar,Chhapra,"Darshan Nagar, Chhapra - BSPCB",09-02-2024 22:00:00,25.7808257,84.7446768,PM10,86,324,134
India,Bihar,Chhapra,"Darshan Nagar, Chhapra - BSPCB",09-02-2024 22:00:00,25.7808257,84.7446768,OZONE,3,24,11
India,Bihar,Gaya,"Collectorate, Gaya - BSPCB",09-02-2024 22:00:00,24.7955,84.9994,PM2.5,55,320,153
India,Bihar,Gaya,"Collectorate, Gaya - BSPCB",09-02-2024 22:00:00,24.7955,84.9994,NO2,15,18,16
India,Bihar,Gaya,"Collectorate, Gaya - BSPCB",09-02-2024 22:00:00,24.7955,84.9994,SO2,18,32,24
India,Bihar,Gaya,"Kareemganj, Gaya - BSPCB",09-02-2024 22:00:00,24.792403,84.992416,PM2.5,7,308,82
India,Bihar,Gaya,"Kareemganj, Gaya - BSPCB",09-02-2024 22:00:00,24.792403,84.992416,PM10,43,250,126
India,Bihar,Gaya,"Kareemganj, Gaya - BSPCB",09-02-2024 22:00:00,24.792403,84.992416,NH3,1,4,3
India,Bihar,Gaya,"Kareemganj, Gaya - BSPCB",09-02-2024 22:00:00,24.792403,84.992416,CO,16,96,37
India,Bihar,Gaya,"Kareemganj, Gaya - BSPCB",09-02-2024 22:00:00,24.792403,84.992416,OZONE,2,27,13
India,Bihar,Gaya,"SFTI Kusdihra, Gaya - BSPCB",09-02-2024 22:00:00,24.762518,84.982348,PM2.5,37,93,62
India,Bihar,Gaya,"SFTI Kusdihra, Gaya - BSPCB",09-02-2024 22:00:00,24.762518,84.982348,NH3,4,7,5
India,Bihar,Gaya,"SFTI Kusdihra, Gaya - BSPCB",09-02-2024 22:00:00,24.762518,84.982348,SO2,7,10,8
India,Bihar,Hajipur,"Industrial Area, Hajipur - BSPCB",09-02-2024 22:00:00,25.697189,85.245900,PM2.5,65,175,107
India,Bihar,Hajipur,"Industrial Area, Hajipur - BSPCB",09-02-2024 22:00:00,25.697189,85.245900,CO,14,34,19
India,Bihar,Katihar,"Mirchaibari, Katihar - BSPCB",09-02-2024 22:00:00,25.560083,87.553265,PM10,64,224,126
India,Bihar,Katihar,"Mirchaibari, Katihar - BSPCB",09-02-2024 22:00:00,25.560083,87.553265,CO,18,28,18
India,Bihar,Katihar,"Mirchaibari, Katihar - BSPCB",09-02-2024 22:00:00,25.560083,87.553265,OZONE,16,20,18
India,Bihar,Kishanganj,"SDM Office_Khagra, Kishanganj - BSPCB",09-02-2024 22:00:00,26.0881305,87.93840336,PM10,142,375,228
India,Bihar,Manguraha,"Forest Rest House, Manguraha - BSPCB",09-02-2024 22:00:00,27.308328,84.531742,SO2,NA,NA,NA
India,Bihar,Motihari,"Gandak Colony, Motihari - BSPCB",09-02-2024 22:00:00,26.63086,84.90051,NO2,36,68,49
India,Bihar,Motihari,"Gandak Colony, Motihari - BSPCB",09-02-2024 22:00:00,26.63086,84.90051,NH3,6,11,8
India,Bihar,Motihari,"Gandak Colony, Motihari - BSPCB",09-02-2024 22:00:00,26.63086,84.90051,OZONE,26,106,76
India,Bihar,Munger,"Town Hall, Munger - BSPCB",09-02-2024 22:00:00,25.376776,86.471523,NO2,8,11,9
India,Bihar,Munger,"Town Hall, Munger - BSPCB",09-02-2024 22:00:00,25.376776,86.471523,NH3,1,2,2
India,Bihar,Munger,"Town Hall, Munger - BSPCB",09-02-2024 22:00:00,25.376776,86.471523,SO2,27,42,36
India,Bihar,Munger,"Town Hall, Munger - BSPCB",09-02-2024 22:00:00,25.376776,86.471523,CO,1,36,3
India,Bihar,Munger,"Town Hall, Munger - BSPCB",09-02-2024 22:00:00,25.376776,86.471523,OZONE,11,141,63
India,Bihar,Muzaffarpur,"Buddha Colony, Muzaffarpur - BSPCB",09-02-2024 22:00:00,26.11442,85.39813,PM10,145,409,202
India,Bihar,Muzaffarpur,"Buddha Colony, Muzaffarpur - BSPCB",09-02-2024 22:00:00,26.11442,85.39813,NO2,21,112,45
India,Bihar,Muzaffarpur,"Buddha Colony, Muzaffarpur - BSPCB",09-02-2024 22:00:00,26.11442,85.39813,OZONE,40,127,90
India,Bihar,Muzaffarpur,"MIT-Daudpur Kothi, Muzaffarpur - BSPCB",09-02-2024 22:00:00,26.1403345,85.3650192,NO2,6,8,7
India,Bihar,Patna,"Govt. High School Shikarpur, Patna - BSPCB",09-02-2024 22:00:00,25.592539,85.227158,PM2.5,73,243,133
India,Bihar,Patna,"IGSC Planetarium Complex, Patna - BSPCB",09-02-2024 22:00:00,25.610369,85.132568,SO2,6,8,7
India,Bihar,Patna,"Muradpur, Patna - BSPCB",09-02-2024 22:00:00,25.619651,85.147382,PM10,159,439,218
India,Bihar,Patna,"Muradpur, Patna - BSPCB",09-02-2024 22:00:00,25.619651,85.147382,SO2,7,35,12
India,Bihar,Patna,"Muradpur, Patna - BSPCB",09-02-2024 22:00:00,25.619651,85.147382,OZONE,28,126,83
India,Bihar,Patna,"Samanpura, Patna - BSPCB",09-02-2024 22:00:00,25.596727,85.085624,PM10,131,496,226
India,Bihar,Patna,"Samanpura, Patna - BSPCB",09-02-2024 22:00:00,25.596727,85.085624,NO2,21,127,44
India,Bihar,Purnia,"Mariam Nagar, Purnia - BSPCB",09-02-2024 22:00:00,25.366336,87.117468,NO2,12,14,12
India,Bihar,Purnia,"Mariam Nagar, Purnia - BSPCB",09-02-2024 22:00:00,25.366336,87.117468,SO2,14,21,18
India,Bihar,Rajgir,"Dangi Tola, Rajgir - BSPCB",09-02-2024 22:00:00,25.03280,85.41948,OZONE,19,25,23
India,Bihar,Saharsa,"Police Line, Saharsa - BSPCB",09-02-2024 22:00:00,25.892357,86.590325,PM2.5,80,345,173
India,Bihar,Saharsa,"Police Line, Saharsa - BSPCB",09-02-2024 22:00:00,25.892357,86.590325,NO2,5,9,7
India,Bihar,Saharsa,"Police Line, Saharsa - BSPCB",09-02-2024 22:00:00,25.892357,86.590325,OZONE,13,80,52
India,Bihar,Samastipur,"DM Office_Kasipur, Samastipur - BSPCB",09-02-2024 22:00:00,25.859655,85.77944,PM10,NA,NA,NA
India,Bihar,Samastipur,"DM Office_Kasipur, Samastipur - BSPCB",09-02-2024 22:00:00,25.859655,85.77944,OZONE,9,43,21
India,Bihar,Sasaram,"Dada Peer, Sasaram - BSPCB",09-02-2024 22:00:00,24.952822,84.002396,PM2.5,21,139,60
India,Bihar,Sasaram,"Dada Peer, Sasaram - BSPCB",09-02-2024 22:00:00,24.952822,84.002396,OZONE,3,5,4
India,Bihar,Siwan,"Chitragupta Nagar, Siwan - BSPCB",09-02-2024 22:00:00,26.2271665,84.3570427,PM2.5,NA,NA,NA
India,Bihar,Siwan,"Chitragupta Nagar, Siwan - BSPCB",09-02-2024 22:00:00,26.2271665,84.3570427,SO2,NA,NA,NA
India,Chandigarh,Chandigarh,"Sector 22, Chandigarh - CPCC",09-02-2024 22:00:00,30.735567,76.775714,PM10,101,438,163
India,Chandigarh,Chandigarh,"Sector-25, Chandigarh - CPCC",09-02-2024 22:00:00,30.751462,76.762879,NH3,10,104,26
India,Chandigarh,Chandigarh,"Sector-25, Chandigarh - CPCC",09-02-2024 22:00:00,30.751462,76.762879,CO,22,121,59
India,Chandigarh,Chandigarh,"Sector-53, Chandigarh - CPCC",09-02-2024 22:00:00,30.719859,76.738637,NO2,26,128,59
India,Chhattisgarh,Bhilai,"32Bungalows, Bhilai - CECB",09-02-2024 22:00:00,21.194815,81.314770,NO2,16,25,20
India,Chhattisgarh,Bhilai,"Civic Center, Bhilai - Bhilai Steel Plant",09-02-2024 22:00:00,21.185571,81.343175,PM10,29,113,64
India,Chhattisgarh,Bhilai,"Civic Center, Bhilai - Bhilai Steel Plant",09-02-2024 22:00:00,21.185571,81.343175,SO2,4,13,10
India,Chhattisgarh,Bhilai,"Hathkhoj, Bhilai - CECB",09-02-2024 22:00:00,21.224231,81.408350,OZONE,12,18,16
India,Chhattisgarh,Bilaspur,"Mangala, Bilaspur - NTPC",09-02-2024 22:00:00,22.08815,82.13737,SO2,2,39,18
India,Chhattisgarh,Korba,"Urja Nagar, Korba - CECB",09-02-2024 22:00:00,22.348441,82.549611,NO2,66,80,71
India,Chhattisgarh,Korba,"Urja Nagar, Korba - CECB",09-02-2024 22:00:00,22.348441,82.549611,OZONE,47,79,51
India,Chhattisgarh,Kunjemura,"OP Jindal School, Kunjemura - CECB",09-02-2024 22:00:00,22.126650,83.483212,PM10,21,175,73
India,Chhattisgarh,Kunjemura,"OP Jindal School, Kunjemura - CECB",09-02-2024 22:00:00,22.126650,83.483212,NO2,23,136,63
India,Chhattisgarh,Milupara,"Govt. Higher Secondary School, Milupara - CECB",09-02-2024 22:00:00,22.1910172,83.5197009,NH3,1,2,1
India,Chhattisgarh,Raipur,"AIIMS, Raipur - CECB",09-02-2024 22:00:00,21.258815,81.578979,PM2.5,31,58,38
India,Chhattisgarh,Raipur,"AIIMS, Raipur - CECB",09-02-2024 22:00:00,21.258815,81.578979,PM10,NA,NA,NA
India,Chhattisgarh,Raipur,"AIIMS, Raipur - CECB",09-02-2024 22:00:00,21.258815,81.578979,CO,22,61,29
India,Chhattisgarh,Raipur,"AIIMS, Raipur - CECB",09-02-2024 22:00:00,21.258815,81.578979,OZONE,1,40,11
India,Chhattisgarh,Raipur,"Krishak Nagar, Raipur - CECB",09-02-2024 22:00:00,21.237755,81.705301,PM10,43,116,76
India,Chhattisgarh,Raipur,"Krishak Nagar, Raipur - CECB",09-02-2024 22:00:00,21.237755,81.705301,NH3,1,1,1
India,Chhattisgarh,Raipur,"Krishak Nagar, Raipur - CECB",09-02-2024 22:00:00,21.237755,81.705301,SO2,6,13,10
India,Chhattisgarh,Raipur,"Krishak Nagar, Raipur - CECB",09-02-2024 22:00:00,21.237755,81.705301,OZONE,3,6,4
India,Chhattisgarh,Raipur,"Siltara Phase-II, Raipur - CECB",09-02-2024 22:00:00,21.371751,81.664929,PM2.5,30,243,92
India,Chhattisgarh,Raipur,"Siltara Phase-II, Raipur - CECB",09-02-2024 22:00:00,21.371751,81.664929,SO2,NA,NA,NA
India,Delhi,Delhi,"Alipur, Delhi - DPCC",09-02-2024 22:00:00,28.815329,77.153010,CO,32,70,48
India,Delhi,Delhi,"Ashok Vihar, Delhi - DPCC",09-02-2024 22:00:00,28.695381,77.181665,PM10,95,355,141
India,Delhi,Delhi,"Ashok Vihar, Delhi - DPCC",09-02-2024 22:00:00,28.695381,77.181665,OZONE,4,20,13
India,Delhi,Delhi,"Bawana, Delhi - DPCC",09-02-2024 22:00:00,28.776200,77.051074,CO,26,118,53
India,Delhi,Delhi,"Burari Crossing, Delhi - IMD",09-02-2024 22:00:00,28.7256504,77.2011573,PM2.5,37,405,141
India,Delhi,Delhi,"CRRI Mathura Road, Delhi - IMD",09-02-2024 22:00:00,28.5512005,77.2735737,PM2.5,34,348,102
India,Delhi,Delhi,"CRRI Mathura Road, Delhi - IMD",09-02-2024 22:00:00,28.5512005,77.2735737,PM10,61,378,119
India,Delhi,Delhi,"DTU, Delhi - CPCB",09-02-2024 22:00:00,28.7500499,77.1112615,NO2,30,49,41
India,Delhi,Delhi,"DTU, Delhi - CPCB",09-02-2024 22:00:00,28.7500499,77.1112615,OZONE,26,35,30
India,Delhi,Delhi,"Dr. Karni Singh Shooting Range, Delhi - DPCC",09-02-2024 22:00:00,28.498571,77.264840,PM2.5,38,305,104
India,Delhi,Delhi,"Dwarka-Sector 8, Delhi - DPCC ",09-02-2024 22:00:00,28.5710274,77.0719006,PM10,91,500,197
India,Delhi,Delhi,"Dwarka-Sector 8, Delhi - DPCC ",09-02-2024 22:00:00,28.5710274,77.0719006,CO,16,187,185
India,Delhi,Delhi,"IHBAS, Dilshad Garden, Delhi - CPCB",09-02-2024 22:00:00,28.6811736,77.3025234,NH3,NA,NA,NA
India,Delhi,Delhi,"IHBAS, Dilshad Garden, Delhi - CPCB",09-02-2024 22:00:00,28.6811736,77.3025234,SO2,NA,NA,NA
India,Delhi,Delhi,"ITO, Delhi - CPCB",09-02-2024 22:00:00,28.628624,77.241060,OZONE,22,181,95
India,Delhi,Delhi,"Jawaharlal Nehru Stadium, Delhi - DPCC",09-02-2024 22:00:00,28.580280,77.233829,NH3,6,9,8
India,Delhi,Delhi,"Jawaharlal Nehru Stadium, Delhi - DPCC",09-02-2024 22:00:00,28.580280,77.233829,OZONE,3,126,67
India,Delhi,Delhi,"Lodhi Road, Delhi - IMD",09-02-2024 22:00:00,28.5918245,77.2273074,PM10,69,124,94
India,Delhi,Delhi,"Mundka, Delhi - DPCC",09-02-2024 22:00:00,28.684678,77.076574,NH3,5,11,8
India,Delhi,Delhi,"NSIT Dwarka, Delhi - CPCB",09-02-2024 22:00:00,28.60909,77.0325413,PM2.5,56,311,126
India,Delhi,Delhi,"NSIT Dwarka, Delhi - CPCB",09-02-2024 22:00:00,28.60909,77.0325413,PM10,94,493,154
India,Delhi,Delhi,"NSIT Dwarka, Delhi - CPCB",09-02-2024 22:00:00,28.60909,77.0325413,SO2,6,19,13
India,Delhi,Delhi,"Najafgarh, Delhi - DPCC",09-02-2024 22:00:00,28.570173,76.933762,CO,19,101,36
India,Delhi,Delhi,"Najafgarh, Delhi - DPCC",09-02-2024 22:00:00,28.570173,76.933762,OZONE,22,167,110
India,Delhi,Delhi,"Narela, Delhi - DPCC",09-02-2024 22:00:00,28.822836,77.101981,NH3,5,9,7
India,Delhi,Delhi,"Narela, Delhi - DPCC",09-02-2024 22:00:00,28.822836,77.101981,CO,63,108,82
India,Delhi,Delhi,"Nehru Nagar, Delhi - DPCC",09-02-2024 22:00:00,28.567890,77.250515,PM2.5,53,454,165
India,Delhi,Delhi,"Nehru Nagar, Delhi - DPCC",09-02-2024 22:00:00,28.567890,77.250515,NH3,10,26,17
India,Delhi,Delhi,"Nehru Nagar, Delhi - DPCC",09-02-2024 22:00:00,28.567890,77.250515,SO2,3,24,10
India,Delhi,Delhi,"New Moti Bagh, Delhi - MHUA",09-02-2024 22:00:00,28.57834,77.18400,CO,14,121,48
India,Delhi,Delhi,"Patparganj, Delhi - DPCC",09-02-2024 22:00:00,28.623763,77.287209,SO2,8,15,11
India,Delhi,Delhi,"Punjabi Bagh, Delhi - DPCC",09-02-2024 22:00:00,28.674045,77.131023,SO2,3,3,3
India,Delhi,Delhi,"Punjabi Bagh, Delhi - DPCC",09-02-2024 22:00:00,28.674045,77.131023,OZONE,6,33,21
India,Delhi,Delhi,"R K Puram, Delhi - DPCC",09-02-2024 22:00:00,28.563262,77.186937,SO2,17,84,34
India,Delhi,Delhi,"R K Puram, Delhi - DPCC",09-02-2024 22:00:00,28.563262,77.186937,CO,13,137,59
India,Delhi,Delhi,"R K Puram, Delhi - DPCC",09-02-2024 22:00:00,28.563262,77.186937,OZONE,9,127,72
India,Delhi,Delhi,"Rohini, Delhi - DPCC",09-02-2024 22:00:00,28.732528,77.119920,SO2,8,24,15
India,Delhi,Delhi,"Shadipur, Delhi - CPCB",09-02-2024 22:00:00,28.6514781,77.1473105,PM2.5,92,355,155
India,Delhi,Delhi,"Shadipur, Delhi - CPCB",09-02-2024 22:00:00,28.6514781,77.1473105,NO2,29,50,41
India,Delhi,Delhi,"Sirifort, Delhi - CPCB",09-02-2024 22:00:00,28.5504249,77.2159377,NO2,167,207,188
India,Delhi,Delhi,"Sirifort, Delhi - CPCB",09-02-2024 22:00:00,28.5504249,77.2159377,OZONE,5,17,8
India,Delhi,Delhi,"Sonia Vihar, Delhi - DPCC",09-02-2024 22:00:00,28.710508,77.249485,NH3,5,7,6
India,Delhi,Delhi,"Sonia Vihar, Delhi - DPCC",09-02-2024 22:00:00,28.710508,77.249485,SO2,5,12,7
India,Delhi,Delhi,"Sonia Vihar, Delhi - DPCC",09-02-2024 22:00:00,28.710508,77.249485,CO,46,124,66
India,Delhi,Delhi,"Sri Aurobindo Marg, Delhi - DPCC",09-02-2024 22:00:00,28.531346,77.190156,NO2,21,86,52
India,Delhi,Delhi,"Sri Aurobindo Marg, Delhi - DPCC",09-02-2024 22:00:00,28.531346,77.190156,SO2,9,13,11
India,Delhi,Delhi,"Sri Aurobindo Marg, Delhi - DPCC",09-02-2024 22:00:00,28.531346,77.190156,OZONE,2,35,18
India,Delhi,Delhi,"Vivek Vihar, Delhi - DPCC",09-02-2024 22:00:00,28.672342,77.315260,PM10,93,363,143
India,Delhi,Delhi,"Wazirpur, Delhi - DPCC",09-02-2024 22:00:00,28.699793,77.165453,PM2.5,65,364,195
India,Delhi,Delhi,"Wazirpur, Delhi - DPCC",09-02-2024 22:00:00,28.699793,77.165453,NO2,86,357,133
India,Gujarat,Ahmedabad,"Chandkheda, Ahmedabad - IITM",09-02-2024 22:00:00,23.107969,72.574648,PM2.5,51,285,99
India,Gujarat,Ahmedabad,"Chandkheda, Ahmedabad - IITM",09-02-2024 22:00:00,23.107969,72.574648,CO,29,102,64
India,Gujarat,Ahmedabad,"Maninagar, Ahmedabad - GPCB",09-02-2024 22:00:00,23.002657,72.591912,PM2.5,22,84,51
India,Gujarat,Ahmedabad,"Raikhad, Ahmedabad - IITM",09-02-2024 22:00:00,23.020509,72.579261,PM10,28,163,111
India,Gujarat,Ahmedabad,"Rakhial, Ahmedabad - IITM",09-02-2024 22:00:00,23.016834,72.625775,PM2.5,60,169,103
India,Gujarat,Ahmedabad,"Rakhial, Ahmedabad - IITM",09-02-2024 22:00:00,23.016834,72.625775,CO,23,44,41
India,Gujarat,Ahmedabad,"SAC ISRO Bopal, Ahmedabad - IITM",09-02-2024 22:00:00,23.041137,72.456691,OZONE,7,17,14
India,Gujarat,Ahmedabad,"SAC ISRO Satellite, Ahmedabad - IITM",09-02-2024 22:00:00,23.023389,72.515201,PM10,100,111,105
India,Gujarat,Ahmedabad,"SVPI Airport Hansol, Ahmedabad - IITM",09-02-2024 22:00:00,23.076793,72.627874,PM2.5,55,218,100
India,Gujarat,Ahmedabad,"SVPI Airport Hansol, Ahmedabad - IITM",09-02-2024 22:00:00,23.076793,72.627874,NH3,2,2,2
India,Gujarat,Gandhinagar,"GIFT City, Gandhinagar - IITM",09-02-2024 22:00:00,23.163798,72.677768,OZONE,14,19,17
India,Gujarat,Gandhinagar,"Sector-10, Gandhinagar - GPCB",09-02-2024 22:00:00,23.221714,72.654328,NO2,2,20,7
India,Gujarat,Gandhinagar,"Sector-10, Gandhinagar - GPCB",09-02-2024 22:00:00,23.221714,72.654328,NH3,1,2,2
India,Gujarat,Gandhinagar,"Sector-10, Gandhinagar - GPCB",09-02-2024 22:00:00,23.221714,72.654328,CO,19,20,20
India,Gujarat,Gandhinagar,"Sector-10, Gandhinagar - GPCB",09-02-2024 22:00:00,23.221714,72.654328,OZONE,2,48,28
India,Gujarat,Surat,"Science Center, Surat - SMC",09-02-2024 22:00:00,21.170046,72.795405,NO2,5,18,9
India,Gujarat,Vatva,"Phase-4 GIDC, Vatva - GPCB",09-02-2024 22:00:00,22.969611,72.643500,PM2.5,36,155,78
India,Gujarat,Vatva,"Phase-4 GIDC, Vatva - GPCB",09-02-2024 22:00:00,22.969611,72.643500,CO,48,50,49
India,Gujarat,Vatva,"Phase-4 GIDC, Vatva - GPCB",09-02-2024 22:00:00,22.969611,72.643500,OZONE,6,9,7
India,Haryana,Ballabgarh,"Nathu Colony, Ballabgarh - HSPCB",09-02-2024 22:00:00,28.3419248,77.319699,NH3,1,2,1
India,Haryana,Bhiwani,"H.B. Colony, Bhiwani - HSPCB",09-02-2024 22:00:00,28.806223,76.141105,NH3,6,6,6
India,Haryana,Charkhi Dadri,"Mini Secretariat, Charkhi Dadri - HSPCB",09-02-2024 22:00:00,28.593883,76.270653,PM10,32,122,64
India,Haryana,Dharuhera,"Municipal Corporation Office, Dharuhera -  HSPCB",09-02-2024 22:00:00,28.206800,76.799700,PM10,NA,NA,NA
India,Haryana,Dharuhera,"Municipal Corporation Office, Dharuhera -  HSPCB",09-02-2024 22:00:00,28.206800,76.799700,CO,6,60,28
India,Haryana,Faridabad,"New Industrial Town, Faridabad - HSPCB",09-02-2024 22:00:00,28.39072,77.30059,NO2,3,12,7
India,Haryana,Faridabad,"Sector 11, Faridabad - HSPCB",09-02-2024 22:00:00,28.376058,77.315741,NO2,30,33,31
India,Haryana,Faridabad,"Sector 11, Faridabad - HSPCB",09-02-2024 22:00:00,28.376058,77.315741,OZONE,3,18,7
India,Haryana,Faridabad,"Sector 30, Faridabad - HSPCB",09-02-2024 22:00:00,28.4417,77.3217,NO2,30,32,31
India,Haryana,Faridabad,"Sector 30, Faridabad - HSPCB",09-02-2024 22:00:00,28.4417,77.3217,NH3,9,9,9
India,Haryana,Faridabad,"Sector 30, Faridabad - HSPCB",09-02-2024 22:00:00,28.4417,77.3217,SO2,2,28,5
India,Haryana,Fatehabad,"Huda Sector, Fatehabad - HSPCB",09-02-2024 22:00:00,29.503664,75.467934,SO2,3,15,8
India,Haryana,Hisar,"Urban Estate-II, Hisar - HSPCB",09-02-2024 22:00:00,29.140560,75.744941,PM10,56,123,77
India,Haryana,Hisar,"Urban Estate-II, Hisar - HSPCB",09-02-2024 22:00:00,29.140560,75.744941,SO2,3,83,50
India,Haryana,Hisar,"Urban Estate-II, Hisar - HSPCB",09-02-2024 22:00:00,29.140560,75.744941,CO,66,106,82
India,Haryana,Hisar,"Urban Estate-II, Hisar - HSPCB",09-02-2024 22:00:00,29.140560,75.744941,OZONE,65,124,102
India,Haryana,Karnal,"Sector-12, Karnal - HSPCB",09-02-2024 22:00:00,29.695300,77.002700,PM10,59,105,82
India,Haryana,Kurukshetra,"Sector-7, Kurukshetra - HSPCB",09-02-2024 22:00:00,29.966942,76.875879,NO2,10,11,10
India,Haryana,Kurukshetra,"Sector-7, Kurukshetra - HSPCB",09-02-2024 22:00:00,29.966942,76.875879,NH3,5,5,5
India,Haryana,Narnaul,"Shastri Nagar, Narnaul - HSPCB",09-02-2024 22:00:00,28.060249,76.113115,NH3,5,18,12
India,Haryana,Palwal,"Shyam Nagar, Palwal - HSPCB",09-02-2024 22:00:00,28.1485564,77.3320667,SO2,1,18,12
India,Haryana,Rohtak,"MD University, Rohtak - HSPCB",09-02-2024 22:00:00,28.52123,76.37138,SO2,5,8,7
India,Haryana,Sirsa,"F-Block, Sirsa - HSPCB",09-02-2024 22:00:00,29.536400,75.015800,PM2.5,41,84,66
India,Haryana,Sonipat,"Murthal, Sonipat - HSPCB",09-02-2024 22:00:00,29.027200,77.062100,PM2.5,59,114,82
India,Haryana,Sonipat,"Murthal, Sonipat - HSPCB",09-02-2024 22:00:00,29.027200,77.062100,NH3,7,10,9
India,Haryana,Yamuna Nagar,"Gobind Pura, Yamuna Nagar - HSPCB",09-02-2024 22:00:00,30.1480566,77.2893471,CO,40,117,76
India,Himachal Pradesh,Baddi,"HIMUDA Complex Phase-1, Baddi - HPPCB",09-02-2024 22:00:00,30.943887,76.801991,PM10,101,475,191
India,Himachal Pradesh,Baddi,"HIMUDA Complex Phase-1, Baddi - HPPCB",09-02-2024 22:00:00,30.943887,76.801991,NO2,12,52,26
India,Himachal Pradesh,Baddi,"HIMUDA Complex Phase-1, Baddi - HPPCB",09-02-2024 22:00:00,30.943887,76.801991,CO,10,68,19
India,Jharkhand,Dhanbad,"Kalakusuma, Dhanbad - DMC",09-02-2024 22:00:00,23.811548,86.481238,PM2.5,NA,NA,NA
India,Jharkhand,Dhanbad,"Sardar Patel Nagar, Dhanbad - JSPCB",09-02-2024 22:00:00,23.80569,86.44268,NO2,NA,NA,NA
India,Jharkhand,Dhanbad,"Sardar Patel Nagar, Dhanbad - JSPCB",09-02-2024 22:00:00,23.80569,86.44268,OZONE,14,28,20
India,Jharkhand,Pathardih,"Mohalbani Ghat, Pathardih - DMC",09-02-2024 22:00:00,23.669880,86.411725,PM2.5,NA,NA,NA
India,Jharkhand,Pathardih,"Mohalbani Ghat, Pathardih - DMC",09-02-2024 22:00:00,23.669880,86.411725,NO2,NA,NA,NA
India,Jharkhand,Pathardih,"Mohalbani Ghat, Pathardih - DMC",09-02-2024 22:00:00,23.669880,86.411725,OZONE,13,27,19
India,Karnataka,Bagalkot,"Vidayagiri, Bagalkot - KSPCB",09-02-2024 22:00:00,16.172806,75.659694,NH3,1,2,1
India,Karnataka,Bagalkot,"Vidayagiri, Bagalkot - KSPCB",09-02-2024 22:00:00,16.172806,75.659694,SO2,9,10,9
India,Karnataka,Belgaum,"Ramteerth Nagar, Belgaum - KSPCB",09-02-2024 22:00:00,15.888653,74.541751,PM10,64,122,86
India,Karnataka,Belgaum,"Ramteerth Nagar, Belgaum - KSPCB",09-02-2024 22:00:00,15.888653,74.541751,OZONE,19,20,20
India,Karnataka,Bengaluru,"BTM Layout, Bengaluru - CPCB",09-02-2024 22:00:00,12.9135218,77.5950804,CO,21,22,22
India,Karnataka,Bengaluru,"Bapuji Nagar, Bengaluru - KSPCB",09-02-2024 22:00:00,12.951913,77.539784,NO2,8,12,11
India,Karnataka,Bengaluru,"City Railway Station, Bengaluru - KSPCB",09-02-2024 22:00:00,12.9756843,77.5660749,SO2,13,13,13
India,Karnataka,Bengaluru,"Hebbal, Bengaluru - KSPCB",09-02-2024 22:00:00,13.029152,77.585901,PM10,54,122,86
India,Karnataka,Bengaluru,"Hombegowda Nagar, Bengaluru - KSPCB",09-02-2024 22:00:00,12.938539,77.590100,NH3,2,2,2
India,Karnataka,Bengaluru,"Hombegowda Nagar, Bengaluru - KSPCB",09-02-2024 22:00:00,12.938539,77.590100,CO,18,29,23
India,Karnataka,Bengaluru,"Jayanagar 5th Block, Bengaluru - KSPCB",09-02-2024 22:00:00,12.920984,77.584908,NO2,11,24,16
India,Karnataka,Bengaluru,"Jigani, Bengaluru - KSPCB",09-02-2024 22:00:00,12.7816279,77.6299145,PM10,36,88,68
India,Karnataka,Bengaluru,"Jigani, Bengaluru - KSPCB",09-02-2024 22:00:00,12.7816279,77.6299145,NO2,29,30,29
India,Karnataka,Bengaluru,"Jigani, Bengaluru - KSPCB",09-02-2024 22:00:00,12.7816279,77.6299145,NH3,3,3,3
India,Karnataka,Bengaluru,"Kasturi Nagar, Bengaluru - KSPCB",09-02-2024 22:00:00,13.003872,77.664217,PM2.5,80,113,91
India,Karnataka,Bengaluru,"Kasturi Nagar, Bengaluru - KSPCB",09-02-2024 22:00:00,13.003872,77.664217,SO2,10,10,10
India,Karnataka,Bengaluru,"Sanegurava Halli, Bengaluru - KSPCB",09-02-2024 22:00:00,12.990328,77.5431385,CO,10,56,25
India,Karnataka,Bengaluru,"Shivapura_Peenya, Bengaluru - KSPCB",09-02-2024 22:00:00,13.0246342,77.5080115,PM2.5,26,96,55
India,Karnataka,Bengaluru,"Silk Board, Bengaluru - KSPCB",09-02-2024 22:00:00,12.917348,77.622813,SO2,2,17,6
India,Karnataka,Bengaluru,"Silk Board, Bengaluru - KSPCB",09-02-2024 22:00:00,12.917348,77.622813,OZONE,29,32,30
India,Karnataka,Chamarajanagar,"Urban, Chamarajanagar - KSPCB",09-02-2024 22:00:00,11.55358,76.55521,SO2,2,9,5
India,Karnataka,Chamarajanagar,"Urban, Chamarajanagar - KSPCB",09-02-2024 22:00:00,11.55358,76.55521,CO,18,26,22
India,Karnataka,Chikkaballapur,"Chikkaballapur Rural, Chikkaballapur - KSPCB",09-02-2024 22:00:00,13.428828,77.731418,PM2.5,40,98,69
India,Karnataka,Chikkamagaluru,"Kalyana Nagara, Chikkamagaluru - KSPCB",09-02-2024 22:00:00,13.328028,75.797056,NH3,3,5,4
India,Karnataka,Chikkamagaluru,"Kalyana Nagara, Chikkamagaluru - KSPCB",09-02-2024 22:00:00,13.328028,75.797056,SO2,2,9,4
India,Karnataka,Chikkamagaluru,"Kalyana Nagara, Chikkamagaluru - KSPCB",09-02-2024 22:00:00,13.328028,75.797056,CO,11,106,38
India,Karnataka,Davanagere,"Devaraj Urs Badavane, Davanagere - KSPCB",09-02-2024 22:00:00,14.475800,75.905200,NH3,NA,NA,NA
India,Karnataka,Davanagere,"Devaraj Urs Badavane, Davanagere - KSPCB",09-02-2024 22:00:00,14.475800,75.905200,CO,10,34,21
India,Karnataka,Dharwad,"Kalabhavan, Dharwad - KSPCB",09-02-2024 22:00:00,15.459706,75.008381,PM10,75,144,112
India,Karnataka,Dharwad,"Kalabhavan, Dharwad - KSPCB",09-02-2024 22:00:00,15.459706,75.008381,NO2,6,41,27
India,Karnataka,Dharwad,"Kalabhavan, Dharwad - KSPCB",09-02-2024 22:00:00,15.459706,75.008381,CO,24,118,62
India,Karnataka,Gadag,"Panchal Nagar, Gadag - KSPCB",09-02-2024 22:00:00,15.411456,75.638133,SO2,12,24,17
India,Karnataka,Hassan,"B.Katihalli, Hassan - KSPCB",09-02-2024 22:00:00,13.008556,76.125258,NO2,NA,NA,NA
India,Karnataka,Hassan,"B.Katihalli, Hassan - KSPCB",09-02-2024 22:00:00,13.008556,76.125258,CO,16,24,18
India,Karnataka,Haveri,"Ashwini Nagar, Haveri - KSPCB",09-02-2024 22:00:00,14.791800,75.389600,PM10,55,153,97
India,Karnataka,Hubballi,"Lingaraj Nagar, Hubballi - KSPCB",09-02-2024 22:00:00,15.3714823,75.1160168,PM2.5,30,52,41
India,Karnataka,Hubballi,"Lingaraj Nagar, Hubballi - KSPCB",09-02-2024 22:00:00,15.3714823,75.1160168,PM10,49,71,60
India,Karnataka,Kalaburagi,"Mahatma Basaveswar Colony, Kalaburgi - KSPCB",09-02-2024 22:00:00,17.336318,76.847397,OZONE,2,31,16
India,Karnataka,Kolar,"Tamaka Ind. Area, Kolar - KSPCB",09-02-2024 22:00:00,13.1276288,78.1570122,CO,8,41,27
India,Karnataka,Kolar,"Tamaka Ind. Area, Kolar - KSPCB",09-02-2024 22:00:00,13.1276288,78.1570122,OZONE,15,25,23
India,Karnataka,Madikeri,"Stuart Hill, Madikeri - KSPCB",09-02-2024 22:00:00,12.415911,75.735050,NH3,1,1,1
India,Karnataka,Mysuru,"Hebbal 1st Stage, Mysuru - KSPCB",09-02-2024 22:00:00,12.21041,76.37376,NO2,2,43,22
India,Karnataka,Raichur,"Haji Colony, Raichur - KSPCB",09-02-2024 22:00:00,16.208139,77.348417,PM10,98,170,129
India,Karnataka,Raichur,"Haji Colony, Raichur - KSPCB",09-02-2024 22:00:00,16.208139,77.348417,CO,90,112,106
India,Karnataka,Raichur,"Haji Colony, Raichur - KSPCB",09-02-2024 22:00:00,16.208139,77.348417,OZONE,2,19,13
India,Karnataka,Ramanagara,"Vijay Nagar, Ramanagara - KSPCB",09-02-2024 22:00:00,12.733409,77.298051,PM10,33,74,45
India,Karnataka,Ramanagara,"Vijay Nagar, Ramanagara - KSPCB",09-02-2024 22:00:00,12.733409,77.298051,NO2,3,19,8
India,Karnataka,Ramanagara,"Vijay Nagar, Ramanagara - KSPCB",09-02-2024 22:00:00,12.733409,77.298051,SO2,23,36,27
India,Karnataka,Shivamogga,"Vinoba Nagara, Shivamogga - KSPCB",09-02-2024 22:00:00,13.940000,75.555917,PM2.5,35,71,45
India,Karnataka,Udupi,"Brahmagiri, Udupi - KSPCB",09-02-2024 22:00:00,13.34194444,74.74694444,NO2,13,14,14
India,Karnataka,Udupi,"Brahmagiri, Udupi - KSPCB",09-02-2024 22:00:00,13.34194444,74.74694444,CO,42,50,44
India,Kerala,Eloor,"Udyogamandal, Eloor - Kerala PCB",09-02-2024 22:00:00,10.073232,76.302765,PM2.5,41,60,50
India,Kerala,Kannur,"Thavakkara, Kannur - Kerala PCB",09-02-2024 22:00:00,11.875000,75.373200,PM10,56,66,61
India,Kerala,Kannur,"Thavakkara, Kannur - Kerala PCB",09-02-2024 22:00:00,11.875000,75.373200,NO2,6,7,6
India,Kerala,Kannur,"Thavakkara, Kannur - Kerala PCB",09-02-2024 22:00:00,11.875000,75.373200,SO2,4,6,5
India,Kerala,Kannur,"Thavakkara, Kannur - Kerala PCB",09-02-2024 22:00:00,11.875000,75.373200,CO,29,35,32
India,Kerala,Kollam,"Polayathode, Kollam - Kerala PCB",09-02-2024 22:00:00,8.8787,76.6073,PM2.5,56,155,86
India,Kerala,Kollam,"Polayathode, Kollam - Kerala PCB",09-02-2024 22:00:00,8.8787,76.6073,SO2,1,4,2
India,Kerala,Thiruvananthapuram,"Kariavattom, Thiruvananthapuram - Kerala PCB",09-02-2024 22:00:00,8.563700,76.886500,PM2.5,74,87,79
India,Kerala,Thiruvananthapuram,"Kariavattom, Thiruvananthapuram - Kerala PCB",09-02-2024 22:00:00,8.563700,76.886500,SO2,2,16,8
India,Kerala,Thiruvananthapuram,"Plammoodu, Thiruvananthapuram - Kerala PCB",09-02-2024 22:00:00,8.5149093,76.9435879,CO,20,57,41
India,Kerala,Thrissur,"Corporation Ground, Thrissur - Kerala PCB",09-02-2024 22:00:00,10.532400,76.215900,PM2.5,49,53,50
India,Madhya Pradesh,Bhopal,"Idgah Hills, Bhopal - MPPCB",09-02-2024 22:00:00,23.264759,77.381568,PM2.5,22,170,44
India,Madhya Pradesh,Bhopal,"Idgah Hills, Bhopal - MPPCB",09-02-2024 22:00:00,23.264759,77.381568,NH3,3,3,3
India,Madhya Pradesh,Bhopal,"Idgah Hills, Bhopal - MPPCB",09-02-2024 22:00:00,23.264759,77.381568,OZONE,32,116,84
India,Madhya Pradesh,Bhopal,"Paryavaran Parisar, Bhopal - MPPCB",09-02-2024 22:00:00,23.210494,77.425409,PM10,36,336,128
India,Madhya Pradesh,Bhopal,"Paryavaran Parisar, Bhopal - MPPCB",09-02-2024 22:00:00,23.210494,77.425409,NH3,7,13,9
India,Madhya Pradesh,Bhopal,"T T Nagar, Bhopal - MPPCB",09-02-2024 22:00:00,23.233584,77.400574,PM10,58,209,109
India,Madhya Pradesh,Dewas,"Bhopal Chauraha, Dewas - MPPCB",09-02-2024 22:00:00,22.9682591,76.064118,NO2,11,13,12
India,Madhya Pradesh,Gwalior,"City Center, Gwalior - MPPCB",09-02-2024 22:00:00,26.203442,78.193251,NO2,24,99,44
India,Madhya Pradesh,Gwalior,"Maharaj Bada, Gwalior - MPPCB",09-02-2024 22:00:00,26.200388,78.147714,PM10,80,208,139
India,Madhya Pradesh,Gwalior,"Phool Bagh, Gwalior - Mondelez Ind. Food",09-02-2024 22:00:00,26.210536,78.171,NO2,2,7,4
India,Madhya Pradesh,Gwalior,"Phool Bagh, Gwalior - Mondelez Ind. Food",09-02-2024 22:00:00,26.210536,78.171,CO,29,43,35
India,Madhya Pradesh,Indore,"Chhoti Gwaltoli, Indore - MPPCB",09-02-2024 22:00:00,22.4310,75.5213,PM10,50,186,87
India,Madhya Pradesh,Indore,"Regional Park, Indore - IMC",09-02-2024 22:00:00,22.6780,75.8559,OZONE,4,13,10
India,Madhya Pradesh,Indore,"Residency Area, Indore - IMC",09-02-2024 22:00:00,22.7084,75.8815,PM2.5,22,98,41
India,Madhya Pradesh,Indore,"Residency Area, Indore - IMC",09-02-2024 22:00:00,22.7084,75.8815,SO2,22,25,23
India,Madhya Pradesh,Jabalpur,"Govindh Bhavan Colony, Jabalpur - JMC",09-02-2024 22:00:00,23.163174,79.973061,OZONE,12,110,87
India,Madhya Pradesh,Jabalpur,"Gupteshwar, Jabalpur - JMC",09-02-2024 22:00:00,23.142888,79.916147,PM10,30,105,54
India,Madhya Pradesh,Jabalpur,"Gupteshwar, Jabalpur - JMC",09-02-2024 22:00:00,23.142888,79.916147,CO,19,92,40
India,Madhya Pradesh,Jabalpur,"Gupteshwar, Jabalpur - JMC",09-02-2024 22:00:00,23.142888,79.916147,OZONE,11,108,76
India,Madhya Pradesh,Jabalpur,"Marhatal, Jabalpur - MPPCB",09-02-2024 22:00:00,23.168606,79.932247,PM10,52,158,92
India,Madhya Pradesh,Jabalpur,"Marhatal, Jabalpur - MPPCB",09-02-2024 22:00:00,23.168606,79.932247,NO2,16,59,35
India,Madhya Pradesh,Jabalpur,"Marhatal, Jabalpur - MPPCB",09-02-2024 22:00:00,23.168606,79.932247,SO2,16,27,22
India,Madhya Pradesh,Jabalpur,"Suhagi, Jabalpur - JMC",09-02-2024 22:00:00,23.218135,79.957770,PM2.5,22,250,88
India,Madhya Pradesh,Jabalpur,"Suhagi, Jabalpur - JMC",09-02-2024 22:00:00,23.218135,79.957770,NH3,5,5,5
India,Madhya Pradesh,Katni,"Gole Bazar, Katni - MPPCB",09-02-2024 22:00:00,23.50016,80.23284,NH3,NA,NA,NA
India,Madhya Pradesh,Katni,"Gole Bazar, Katni - MPPCB",09-02-2024 22:00:00,23.50016,80.23284,CO,40,102,99
India,Madhya Pradesh,Mandideep,"Sector-D Industrial Area, Mandideep - MPPCB",09-02-2024 22:00:00,23.108440,77.511428,NO2,15,167,69
India,Madhya Pradesh,Ratlam,"Shasthri Nagar, Ratlam - IPCA Lab",09-02-2024 22:00:00,23.331731,75.045981,PM10,63,166,103
India,Madhya Pradesh,Sagar,"Civil Lines, Sagar - MPPCB",09-02-2024 22:00:00,23.838586,78.759431,CO,16,40,23
India,Madhya Pradesh,Sagar,"Deen Dayal Nagar, Sagar - MPPCB",09-02-2024 22:00:00,23.8640158,78.80289321,SO2,8,10,9
India,Madhya Pradesh,Sagar,"Deen Dayal Nagar, Sagar - MPPCB",09-02-2024 22:00:00,23.8640158,78.80289321,CO,46,70,61
India,Madhya Pradesh,Satna,"Bandhavgar Colony, Satna - Birla Cement",09-02-2024 22:00:00,24.58434363,80.8549414,NO2,7,23,12
India,Madhya Pradesh,Ujjain,"Mahakaleshwar Temple, Ujjain - MPPCB",09-02-2024 22:00:00,23.182719 ,75.768218 ,CO,26,56,40
India,Madhya Pradesh,Ujjain,"Mahakaleshwar Temple, Ujjain - MPPCB",09-02-2024 22:00:00,23.182719 ,75.768218 ,OZONE,118,152,150
India,Maharashtra,Ahmednagar,"Tarakpur, Ahmednagar - MPCB",09-02-2024 22:00:00,19.10122,74.73339,NH3,1,9,5
India,Maharashtra,Ahmednagar,"Tarakpur, Ahmednagar - MPCB",09-02-2024 22:00:00,19.10122,74.73339,SO2,16,21,18
India,Maharashtra,Ahmednagar,"Tarakpur, Ahmednagar - MPCB",09-02-2024 22:00:00,19.10122,74.73339,OZONE,10,141,83
India,Maharashtra,Akola,"Ramdaspeth, Akola - MPCB",09-02-2024 22:00:00,20.719516,77.000253,PM10,47,163,97
India,Maharashtra,Amravati,"Shivneri Colony, Amravati - MPCB",09-02-2024 22:00:00,20.9402359,77.7895248,SO2,2,61,17
India,Maharashtra,Amravati,"Shivneri Colony, Amravati - MPCB",09-02-2024 22:00:00,20.9402359,77.7895248,OZONE,47,152,114
India,Maharashtra,Aurangabad,"MIDC Chilkalthana, Aurangabad - MPCB",09-02-2024 22:00:00,19.875620,75.387310,NH3,3,4,4
India,Maharashtra,Aurangabad,"MIDC Chilkalthana, Aurangabad - MPCB",09-02-2024 22:00:00,19.875620,75.387310,SO2,4,24,12
India,Maharashtra,Aurangabad,"Rachnakar Colony, Aurangabad - MPCB",09-02-2024 22:00:00,19.863756,75.321188,NO2,17,120,43
India,Maharashtra,Aurangabad,"Rachnakar Colony, Aurangabad - MPCB",09-02-2024 22:00:00,19.863756,75.321188,CO,16,113,50
India,Maharashtra,Badlapur,"Katrap, Badlapur - MPCB",09-02-2024 22:00:00,19.16485,73.23409,PM10,73,159,113
India,Maharashtra,Badlapur,"Katrap, Badlapur - MPCB",09-02-2024 22:00:00,19.16485,73.23409,NH3,2,4,3
India,Maharashtra,Badlapur,"Katrap, Badlapur - MPCB",09-02-2024 22:00:00,19.16485,73.23409,SO2,16,40,24
India,Maharashtra,Badlapur,"Katrap, Badlapur - MPCB",09-02-2024 22:00:00,19.16485,73.23409,CO,18,65,24
India,Maharashtra,Belapur,"CBD Belapur, Belapur - MPCB",09-02-2024 22:00:00,19.0243902,73.0406721,PM2.5,54,165,95
India,Maharashtra,Bhiwandi,"Gokul Nagar, Bhiwandi - MPCB",09-02-2024 22:00:00,19.309073,73.057223,PM2.5,45,176,86
India,Maharashtra,Boisar,"Khaira, Boisar - MPCB",09-02-2024 22:00:00,19.786089,72.757971,PM2.5,NA,NA,NA
India,Maharashtra,Boisar,"Khaira, Boisar - MPCB",09-02-2024 22:00:00,19.786089,72.757971,NH3,NA,NA,NA
India,Maharashtra,Chandrapur,"Chauhan Colony, Chandrapur - MPCB",09-02-2024 22:00:00,19.962900,79.298714,NO2,9,44,18
India,Maharashtra,Dhule,"Deopur, Dhule - MPCB",09-02-2024 22:00:00,20.918946,74.776388,NO2,10,79,21
India,Maharashtra,Jalgaon,"Prabhat Colony, Jalgaon - MPCB",09-02-2024 22:00:00,21.001264,75.565602,PM2.5,77,258,117
India,Maharashtra,Jalna,"Old MIDC, Jalna - MPCB",09-02-2024 22:00:00,19.854616,75.905894,NO2,12,44,21
India,Maharashtra,Jalna,"Old MIDC, Jalna - MPCB",09-02-2024 22:00:00,19.854616,75.905894,CO,30,59,42
India,Maharashtra,Kalyan,"Khadakpada, Kalyan - MPCB",09-02-2024 22:00:00,19.25292,73.142019,PM2.5,39,85,58
India,Maharashtra,Kolhapur,"Sinchan Bhavan, Kolhapur - MPCB",09-02-2024 22:00:00,16.7143745,74.2426398,SO2,NA,NA,NA
India,Maharashtra,Kolhapur,"Sinchan Bhavan, Kolhapur - MPCB",09-02-2024 22:00:00,16.7143745,74.2426398,OZONE,11,175,148
India,Maharashtra,Latur,"Sawe Wadi, Latur - MPCB",09-02-2024 22:00:00,18.39963,76.57452,SO2,6,17,10
India,Maharashtra,Malegaon,"Mahesh Nagar, Malegaon - MPCB",09-02-2024 22:00:00,20.555712,74.529236,SO2,5,15,10
India,Maharashtra,Mira-Bhayandar,"Bhayandar West, Mira-Bhayandar - MPCB",09-02-2024 22:00:00,19.296481,72.840923,NO2,NA,NA,NA
India,Maharashtra,Mira-Bhayandar,"Bhayandar West, Mira-Bhayandar - MPCB",09-02-2024 22:00:00,19.296481,72.840923,CO,10,10,10
India,Maharashtra,Mira-Bhayandar,"Bhayandar West, Mira-Bhayandar - MPCB",09-02-2024 22:00:00,19.296481,72.840923,OZONE,37,59,50
India,Maharashtra,Mumbai,"Bandra Kurla Complex, Mumbai - MPCB",09-02-2024 22:00:00,19.065931,72.862131,PM10,78,409,152
India,Maharashtra,Mumbai,"Bandra Kurla Complex, Mumbai - MPCB",09-02-2024 22:00:00,19.065931,72.862131,NH3,11,17,14
India,Maharashtra,Mumbai,"Borivali East, Mumbai - IITM",09-02-2024 22:00:00,19.23241,72.86895,PM2.5,70,259,128
India,Maharashtra,Mumbai,"Borivali East, Mumbai - IITM",09-02-2024 22:00:00,19.23241,72.86895,NH3,31,42,36
India,Maharashtra,Mumbai,"Byculla, Mumbai - BMC",09-02-2024 22:00:00,18.9767,72.8380,PM2.5,57,97,78
India,Maharashtra,Mumbai,"Byculla, Mumbai - BMC",09-02-2024 22:00:00,18.9767,72.8380,OZONE,2,89,83
India,Maharashtra,Mumbai,"Chakala-Andheri East, Mumbai - IITM",09-02-2024 22:00:00,19.11074,72.86084,NO2,88,168,130
India,Maharashtra,Mumbai,"Chakala-Andheri East, Mumbai - IITM",09-02-2024 22:00:00,19.11074,72.86084,NH3,13,50,23
India,Maharashtra,Mumbai,"Chembur, Mumbai - MPCB",09-02-2024 22:00:00,19.0364585,72.8954371,NO2,46,119,81
India,Maharashtra,Mumbai,"Chhatrapati Shivaji Intl. Airport (T2), Mumbai - MPCB",09-02-2024 22:00:00,19.10078,72.87462,NH3,3,7,6
India,Maharashtra,Mumbai,"Colaba, Mumbai - MPCB",09-02-2024 22:00:00,18.910000,72.820000,PM2.5,40,85,54
India,Maharashtra,Mumbai,"Colaba, Mumbai - MPCB",09-02-2024 22:00:00,18.910000,72.820000,PM10,71,122,88
India,Maharashtra,Mumbai,"Colaba, Mumbai - MPCB",09-02-2024 22:00:00,18.910000,72.820000,NO2,17,37,21
India,Maharashtra,Mumbai,"Ghatkopar, Mumbai - BMC",09-02-2024 22:00:00,19.083694,72.920967,PM10,88,117,107
India,Maharashtra,Mumbai,"Kandivali West, Mumbai - BMC",09-02-2024 22:00:00,19.215859,72.831718,PM2.5,NA,NA,NA
India,Maharashtra,Mumbai,"Kherwadi_Bandra East, Mumbai - MPCB",09-02-2024 22:00:00,19.0632143,72.8456324,PM2.5,58,141,92
India,Maharashtra,Mumbai,"Kherwadi_Bandra East, Mumbai - MPCB",09-02-2024 22:00:00,19.0632143,72.8456324,OZONE,1,47,42
India,Maharashtra,Mumbai,"Khindipada-Bhandup West, Mumbai - IITM",09-02-2024 22:00:00,19.1653323,72.922099,PM2.5,69,150,99
India,Maharashtra,Mumbai,"Khindipada-Bhandup West, Mumbai - IITM",09-02-2024 22:00:00,19.1653323,72.922099,PM10,82,135,109
India,Maharashtra,Mumbai,"Khindipada-Bhandup West, Mumbai - IITM",09-02-2024 22:00:00,19.1653323,72.922099,CO,8,30,17
India,Maharashtra,Mumbai,"Kurla, Mumbai - MPCB",09-02-2024 22:00:00,19.0863,72.8888,NO2,NA,NA,NA
India,Maharashtra,Mumbai,"Malad West, Mumbai - IITM",09-02-2024 22:00:00,19.19709,72.82204,NH3,NA,NA,NA
India,Maharashtra,Mumbai,"Mazgaon, Mumbai - IITM",09-02-2024 22:00:00,18.96702,72.84214,PM10,104,428,181
India,Maharashtra,Mumbai,"Mazgaon, Mumbai - IITM",09-02-2024 22:00:00,18.96702,72.84214,NH3,30,67,44
India,Maharashtra,Mumbai,"Mulund West, Mumbai - MPCB",09-02-2024 22:00:00,19.1750,72.9419,PM2.5,30,71,49
India,Maharashtra,Mumbai,"Mulund West, Mumbai - MPCB",09-02-2024 22:00:00,19.1750,72.9419,NH3,9,10,10
India,Maharashtra,Mumbai,"Navy Nagar-Colaba, Mumbai - IITM",09-02-2024 22:00:00,18.897756,72.813320,PM2.5,63,113,84
India,Maharashtra,Mumbai,"Navy Nagar-Colaba, Mumbai - IITM",09-02-2024 22:00:00,18.897756,72.813320,NO2,3,8,5
India,Maharashtra,Mumbai,"Navy Nagar-Colaba, Mumbai - IITM",09-02-2024 22:00:00,18.897756,72.813320,SO2,1,31,12
India,Maharashtra,Mumbai,"Powai, Mumbai - MPCB",09-02-2024 22:00:00,19.137500,72.915056,SO2,28,31,29
India,Maharashtra,Mumbai,"Powai, Mumbai - MPCB",09-02-2024 22:00:00,19.137500,72.915056,OZONE,21,62,45
India,Maharashtra,Mumbai,"Shivaji Nagar, Mumbai - BMC",09-02-2024 22:00:00,19.060498,72.923356,NO2,NA,NA,NA
India,Maharashtra,Mumbai,"Sion, Mumbai - MPCB",09-02-2024 22:00:00,19.047000,72.874600,PM2.5,43,126,71
India,Maharashtra,Mumbai,"Sion, Mumbai - MPCB",09-02-2024 22:00:00,19.047000,72.874600,NO2,12,81,51
India,Maharashtra,Mumbai,"Vasai West, Mumbai - MPCB",09-02-2024 22:00:00,19.383200,72.820400,PM2.5,19,65,35
India,Maharashtra,Mumbai,"Vile Parle West, Mumbai - MPCB",09-02-2024 22:00:00,19.10861,72.83622,PM10,61,111,81
India,Maharashtra,Mumbai,"Vile Parle West, Mumbai - MPCB",09-02-2024 22:00:00,19.10861,72.83622,NO2,1,21,10
India,Maharashtra,Mumbai,"Vile Parle West, Mumbai - MPCB",09-02-2024 22:00:00,19.10861,72.83622,SO2,13,14,14
India,Maharashtra,Mumbai,"Worli, Mumbai - MPCB",09-02-2024 22:00:00,18.9936162,72.8128113,PM10,72,124,96
India,Maharashtra,Mumbai,"Worli, Mumbai - MPCB",09-02-2024 22:00:00,18.9936162,72.8128113,NO2,17,18,18
India,Maharashtra,Mumbai,"Worli, Mumbai - MPCB",09-02-2024 22:00:00,18.9936162,72.8128113,NH3,NA,NA,NA
India,Maharashtra,Mumbai,"Worli, Mumbai - MPCB",09-02-2024 22:00:00,18.9936162,72.8128113,CO,32,34,34
India,Maharashtra,Nagpur,"Ambazari, Nagpur - MPCB",09-02-2024 22:00:00,21.121801,79.04952,PM2.5,44,78,60
India,Maharashtra,Nagpur,"Mahal, Nagpur - MPCB",09-02-2024 22:00:00,21.14472,79.107595,NO2,9,48,21
India,Maharashtra,Nagpur,"Mahal, Nagpur - MPCB",09-02-2024 22:00:00,21.14472,79.107595,SO2,27,76,44
India,Maharashtra,Nagpur,"Opp GPO Civil Lines, Nagpur - MPCB",09-02-2024 22:00:00,21.152875,79.0517531,NO2,13,118,33
India,Maharashtra,Nagpur,"Opp GPO Civil Lines, Nagpur - MPCB",09-02-2024 22:00:00,21.152875,79.0517531,NH3,6,24,10
India,Maharashtra,Nagpur,"Opp GPO Civil Lines, Nagpur - MPCB",09-02-2024 22:00:00,21.152875,79.0517531,CO,14,118,50
India,Maharashtra,Nanded,"Sneh Nagar, Nanded - MPCB",09-02-2024 22:00:00,19.173852,77.296291,NO2,20,50,30
India,Maharashtra,Nashik,"MIDC Ambad, Nashik - MPCB",09-02-2024 22:00:00,19.950220,73.731480,PM10,54,132,85
India,Maharashtra,Nashik,"MIDC Ambad, Nashik - MPCB",09-02-2024 22:00:00,19.950220,73.731480,NO2,14,87,34
India,Maharashtra,Nashik,"MIDC Ambad, Nashik - MPCB",09-02-2024 22:00:00,19.950220,73.731480,OZONE,59,61,60
India,Maharashtra,Nashik,"Pandav Nagari, Nashik - MPCB",09-02-2024 22:00:00,19.9591346,73.7788008,NO2,24,60,38
India,Maharashtra,Nashik,"Pandav Nagari, Nashik - MPCB",09-02-2024 22:00:00,19.9591346,73.7788008,CO,28,44,35
India,Maharashtra,Navi Mumbai,"Kopripada-Vashi, Navi Mumbai - MPCB",09-02-2024 22:00:00,19.090337,73.014232,PM2.5,56,332,179
India,Maharashtra,Navi Mumbai,"Kopripada-Vashi, Navi Mumbai - MPCB",09-02-2024 22:00:00,19.090337,73.014232,NH3,5,37,16
India,Maharashtra,Navi Mumbai,"Kopripada-Vashi, Navi Mumbai - MPCB",09-02-2024 22:00:00,19.090337,73.014232,SO2,8,38,21
India,Maharashtra,Navi Mumbai,"Mahape, Navi Mumbai - MPCB",09-02-2024 22:00:00,19.1135051,73.008978,PM2.5,38,328,109
India,Maharashtra,Navi Mumbai,"Mahape, Navi Mumbai - MPCB",09-02-2024 22:00:00,19.1135051,73.008978,OZONE,16,41,28
India,Maharashtra,Navi Mumbai,"Sanpada, Navi Mumbai - MPCB",09-02-2024 22:00:00,19.0575752,73.0151367,PM10,63,190,115
India,Maharashtra,Navi Mumbai,"Sanpada, Navi Mumbai - MPCB",09-02-2024 22:00:00,19.0575752,73.0151367,NO2,12,13,12
India,Maharashtra,Navi Mumbai,"Sector-19A Nerul, Navi Mumbai - IITM",09-02-2024 22:00:00,19.044,73.0325,CO,9,185,185
India,Maharashtra,Navi Mumbai,"Sector-2E Kalamboli, Navi Mumbai - MPCB",09-02-2024 22:00:00,19.02579,73.10297,PM2.5,105,174,138
India,Maharashtra,Navi Mumbai,"Sector-2E Kalamboli, Navi Mumbai - MPCB",09-02-2024 22:00:00,19.02579,73.10297,OZONE,1,80,40
India,Maharashtra,Navi Mumbai,"Tondare-Taloja, Navi Mumbai - MPCB",09-02-2024 22:00:00,19.0630,73.1209,NO2,42,122,92
India,Maharashtra,Navi Mumbai,"Tondare-Taloja, Navi Mumbai - MPCB",09-02-2024 22:00:00,19.0630,73.1209,SO2,NA,NA,NA
India,Maharashtra,Navi Mumbai,"Tondare-Taloja, Navi Mumbai - MPCB",09-02-2024 22:00:00,19.0630,73.1209,OZONE,2,89,62
India,Maharashtra,Parbhani,"Masoom Colony, Parbhani - MPCB",09-02-2024 22:00:00,19.265594,76.761463,PM10,11,102,53
India,Maharashtra,Parbhani,"Masoom Colony, Parbhani - MPCB",09-02-2024 22:00:00,19.265594,76.761463,OZONE,21,45,37
India,Maharashtra,Pimpri-Chinchwad,"Gavalinagar, Pimpri Chinchwad - MPCB",09-02-2024 22:00:00,18.63673,73.82487,CO,12,106,26
India,Maharashtra,Pimpri-Chinchwad,"Gavalinagar, Pimpri Chinchwad - MPCB",09-02-2024 22:00:00,18.63673,73.82487,OZONE,1,281,175
India,Maharashtra,Pimpri-Chinchwad,"Park Street Wakad, Pimpri Chinchwad - MPCB",09-02-2024 22:00:00,18.59051,73.77946,PM2.5,NA,NA,NA
India,Maharashtra,Pimpri-Chinchwad,"Park Street Wakad, Pimpri Chinchwad - MPCB",09-02-2024 22:00:00,18.59051,73.77946,SO2,NA,NA,NA
India,Maharashtra,Pimpri-Chinchwad,"Thergaon, Pimpri Chinchwad - MPCB",09-02-2024 22:00:00,18.616318,73.765797,CO,16,106,37
India,Maharashtra,Pimpri-Chinchwad,"Thergaon, Pimpri Chinchwad - MPCB",09-02-2024 22:00:00,18.616318,73.765797,OZONE,1,300,143
India,Maharashtra,Pune,"Bhosari, Pune - IITM",09-02-2024 22:00:00,18.640051,73.848956,NO2,15,29,21
India,Maharashtra,Pune,"Bhosari, Pune - IITM",09-02-2024 22:00:00,18.640051,73.848956,CO,50,108,58
India,Maharashtra,Pune,"Karve Road, Pune - MPCB",09-02-2024 22:00:00,18.5011743,73.8165527,SO2,8,54,26
India,Maharashtra,Pune,"Katraj Dairy, Pune - MPCB",09-02-2024 22:00:00,18.454450,73.854155,PM2.5,NA,NA,NA
India,Maharashtra,Pune,"Katraj Dairy, Pune - MPCB",09-02-2024 22:00:00,18.454450,73.854155,PM10,NA,NA,NA
India,Maharashtra,Pune,"Katraj Dairy, Pune - MPCB",09-02-2024 22:00:00,18.454450,73.854155,SO2,NA,NA,NA
India,Maharashtra,Pune,"Mhada Colony, Pune - IITM",09-02-2024 22:00:00,18.573040,73.927715,PM2.5,39,207,106
India,Maharashtra,Pune,"Mhada Colony, Pune - IITM",09-02-2024 22:00:00,18.573040,73.927715,PM10,61,139,104
India,Maharashtra,Pune,"Mhada Colony, Pune - IITM",09-02-2024 22:00:00,18.573040,73.927715,NO2,2,21,13
India,Maharashtra,Pune,"Savitribai Phule Pune University, Pune - MPCB",09-02-2024 22:00:00,18.547056,73.826908,SO2,2,11,5
India,Maharashtra,Sangli,"Vijay Nagar, Sangli - MPCB",09-02-2024 22:00:00, 16.5038,74.3623,CO,10,79,37
India,Maharashtra,Solapur,"Dnyaneshwar Nagar, Solapur - MPCB",09-02-2024 22:00:00,17.6336264,75.9132495,PM10,67,450,149
India,Maharashtra,Solapur,"Solapur, Solapur - MPCB",09-02-2024 22:00:00,17.6599188,75.9063906,SO2,30,44,35
India,Maharashtra,Thane,"Pimpleshwar Mandir, Thane - MPCB",09-02-2024 22:00:00,19.192056,72.9585188,PM10,132,201,171
India,Maharashtra,Thane,"Upvan Fort, Thane - MPCB",09-02-2024 22:00:00,19.222279,72.957979,NH3,11,17,13
India,Maharashtra,Virar,"Bolinj, Virar - MPCB",09-02-2024 22:00:00,19.4458210,72.7988231,NO2,14,56,29
India,Manipur,Imphal,"DM College of Science, Imphal - Manipur PCB",09-02-2024 22:00:00,24.8207389,93.9423085,PM2.5,16,90,32
India,Manipur,Imphal,"Manipur University, Imphal - Manipur PCB",09-02-2024 22:00:00,24.7524239,93.9286218,PM2.5,29,348,100
India,Meghalaya,Shillong,"Lumpyngngad, Shillong - Meghalaya PCB",09-02-2024 22:00:00,25.5586,91.8985,NO2,6,6,6
India,Meghalaya,Shillong,"Lumpyngngad, Shillong - Meghalaya PCB",09-02-2024 22:00:00,25.5586,91.8985,NH3,1,1,1
India,Mizoram,Aizawl,"Sikulpuikawn, Aizawl - Mizoram PCB",09-02-2024 22:00:00,23.7176342,92.7192841,PM2.5,43,91,63
India,Odisha,Angul,"Hakimapada, Angul - OSPCB",09-02-2024 22:00:00,20.832874,85.104082,PM2.5,97,500,254
India,Odisha,Angul,"Hakimapada, Angul - OSPCB",09-02-2024 22:00:00,20.832874,85.104082,PM10,126,421,225
India,Odisha,Angul,"Hakimapada, Angul - OSPCB",09-02-2024 22:00:00,20.832874,85.104082,NH3,1,4,2
India,Odisha,Angul,"Hakimapada, Angul - OSPCB",09-02-2024 22:00:00,20.832874,85.104082,SO2,14,133,68
India,Odisha,Angul,"Hakimapada, Angul - OSPCB",09-02-2024 22:00:00,20.832874,85.104082,OZONE,2,191,131
India,Odisha,Balasore,"Kalidaspur, Balasore - OSPCB",09-02-2024 22:00:00,21.51161,86.89088,PM2.5,68,290,129
India,Odisha,Barbil,"Forest Office, Barbil - OSPCB",09-02-2024 22:00:00,22.1166054,85.3945546,NH3,4,6,4
India,Odisha,Barbil,"Forest Office, Barbil - OSPCB",09-02-2024 22:00:00,22.1166054,85.3945546,SO2,1,40,17
India,Odisha,Barbil,"Forest Office, Barbil - OSPCB",09-02-2024 22:00:00,22.1166054,85.3945546,OZONE,3,157,87
India,Odisha,Bhubaneswar,"Lingraj Mandir, Bhubaneswar - OSPCB",09-02-2024 22:00:00,20.240790,85.836784,PM10,82,126,106
India,Odisha,Bhubaneswar,"Patia, Bhubaneswar - OSPCB",09-02-2024 22:00:00,20.34652,85.81630,NO2,16,74,32
India,Odisha,Byasanagar,"Ferro Chrome Colony, Byasanagar - OSPCB",09-02-2024 22:00:00,20.94185,86.11510,SO2,4,25,15
India,Odisha,Byasanagar,"Ferro Chrome Colony, Byasanagar - OSPCB",09-02-2024 22:00:00,20.94185,86.11510,CO,46,111,98
India,Odisha,Cuttack,"CDA Area, Cuttack - OSPCB",09-02-2024 22:00:00,20.48891     ,85.84768     ,PM10,96,191,129
India,Odisha,Keonjhar,"Jagamohanpur, Keonjhar - OSPCB",09-02-2024 22:00:00,21.643900,85.599355,PM2.5,65,158,84
India,Odisha,Nayagarh,"Dabuna, Nayagarh - OSPCB",09-02-2024 22:00:00,21.847279,85.416905,NH3,1,6,4
India,Odisha,Nayagarh,"Dabuna, Nayagarh - OSPCB",09-02-2024 22:00:00,21.847279,85.416905,SO2,3,7,4
India,Odisha,Rairangpur,"Divisional Forest Office, Rairangpur - OSPCB",09-02-2024 22:00:00,22.265816,86.174829,PM2.5,41,81,56
India,Odisha,Rairangpur,"Divisional Forest Office, Rairangpur - OSPCB",09-02-2024 22:00:00,22.265816,86.174829,NO2,7,8,7
India,Odisha,Rairangpur,"Divisional Forest Office, Rairangpur - OSPCB",09-02-2024 22:00:00,22.265816,86.174829,CO,15,40,25
India,Odisha,Rairangpur,"Divisional Forest Office, Rairangpur - OSPCB",09-02-2024 22:00:00,22.265816,86.174829,OZONE,1,89,62
India,Odisha,Rourkela,"Fertilizer Township, Rourkela - OSPCB",09-02-2024 22:00:00,22.18972222,84.86277778,PM10,54,160,106
India,Odisha,Rourkela,"Raghunathpali, Rourkela - OSPCB",09-02-2024 22:00:00,22.220833,84.809444,PM2.5,64,221,120
India,Odisha,Rourkela,"Raghunathpali, Rourkela - OSPCB",09-02-2024 22:00:00,22.220833,84.809444,PM10,95,189,141
India,Odisha,Rourkela,"Sector-2, Rourkela - OSPCB",09-02-2024 22:00:00,22.24500000,84.88111111,PM2.5,20,78,46
India,Odisha,Suakati,"OMC Colony, Suakati - OSPCB",09-02-2024 22:00:00,21.606865,85.510538,PM10,79,143,118
India,Odisha,Suakati,"OMC Colony, Suakati - OSPCB",09-02-2024 22:00:00,21.606865,85.510538,NO2,NA,NA,NA
India,Odisha,Suakati,"OMC Colony, Suakati - OSPCB",09-02-2024 22:00:00,21.606865,85.510538,CO,6,63,42
India,Odisha,Tensa,"Barsua Iron Ore Mines, Tensa - OSPCB",09-02-2024 22:00:00,21.869985,85.167016,SO2,5,24,14
India,Odisha,Tensa,"Barsua Iron Ore Mines, Tensa - OSPCB",09-02-2024 22:00:00,21.869985,85.167016,CO,11,32,17
India,Puducherry,Puducherry,"Jawahar Nagar, Puducherry - PPCC",09-02-2024 22:00:00,11.9309,79.8027,NO2,9,36,22
India,Punjab,Bathinda,"Hardev Nagar, Bathinda - PPCB",09-02-2024 22:00:00,30.233011,74.907758,PM10,19,219,105
India,Punjab,Bathinda,"Hardev Nagar, Bathinda - PPCB",09-02-2024 22:00:00,30.233011,74.907758,NO2,32,33,32
India,Punjab,Jalandhar,"Civil Line, Jalandhar - PPCB",09-02-2024 22:00:00,31.321907,75.578914,NO2,18,47,30
India,Punjab,Jalandhar,"Civil Line, Jalandhar - PPCB",09-02-2024 22:00:00,31.321907,75.578914,SO2,1,20,9
India,Punjab,Ludhiana,"Punjab Agricultural University, Ludhiana - PPCB",09-02-2024 22:00:00,30.9028,75.8086,OZONE,9,47,25
India,Punjab,Mandi Gobindgarh,"RIMT University, Mandi Gobindgarh - PPCB",09-02-2024 22:00:00,30.649961,76.331442,PM10,41,165,82
India,Punjab,Mandi Gobindgarh,"RIMT University, Mandi Gobindgarh - PPCB",09-02-2024 22:00:00,30.649961,76.331442,SO2,8,87,34
India,Punjab,Patiala,"Model Town, Patiala - PPCB",09-02-2024 22:00:00,30.349388,76.366642,NH3,5,6,6
India,Punjab,Rupnagar,"Ratanpura, Rupnagar - Ambuja Cements",09-02-2024 22:00:00,31.0325454,76.5623046,PM10,42,417,139
India,Rajasthan,Ajmer,"Civil Lines,  Ajmer - RSPCB",09-02-2024 22:00:00,26.470859,74.646594,PM10,19,113,58
India,Rajasthan,Ajmer,"Civil Lines,  Ajmer - RSPCB",09-02-2024 22:00:00,26.470859,74.646594,CO,14,64,29
India,Rajasthan,Alwar,"Moti Doongri, Alwar - RSPCB",09-02-2024 22:00:00,27.554793,76.611536,NH3,5,10,7
India,Rajasthan,Alwar,"Moti Doongri, Alwar - RSPCB",09-02-2024 22:00:00,27.554793,76.611536,CO,4,111,50
India,Rajasthan,Banswara,"Rati Talai, Banswara - RSPCB",09-02-2024 22:00:00,23.555190,74.440010,PM2.5,25,103,49
India,Rajasthan,Banswara,"Rati Talai, Banswara - RSPCB",09-02-2024 22:00:00,23.555190,74.440010,PM10,50,173,103
India,Rajasthan,Banswara,"Rati Talai, Banswara - RSPCB",09-02-2024 22:00:00,23.555190,74.440010,CO,14,62,34
India,Rajasthan,Baran,"Bamboliya, Baran - RSPCB",09-02-2024 22:00:00,25.106006,76.469948,PM2.5,11,152,60
India,Rajasthan,Barmer,"Railway Colony, Barmer - RSPCB",09-02-2024 22:00:00,25.747299,71.393989,NH3,4,8,6
India,Rajasthan,Barmer,"Railway Colony, Barmer - RSPCB",09-02-2024 22:00:00,25.747299,71.393989,SO2,9,13,10
India,Rajasthan,Bharatpur,"Krishna Nagar, Bharatpur - RSPCB",09-02-2024 22:00:00,27.215415,77.50873,PM10,64,272,115
India,Rajasthan,Bharatpur,"Krishna Nagar, Bharatpur - RSPCB",09-02-2024 22:00:00,27.215415,77.50873,CO,74,132,104
India,Rajasthan,Bhilwara,"Pratap Nagar, Bhilwara - RSPCB",09-02-2024 22:00:00,25.339605,74.618883,PM2.5,NA,NA,NA
India,Rajasthan,Bhilwara,"Pratap Nagar, Bhilwara - RSPCB",09-02-2024 22:00:00,25.339605,74.618883,PM10,NA,NA,NA
India,Rajasthan,Bhilwara,"Pratap Nagar, Bhilwara - RSPCB",09-02-2024 22:00:00,25.339605,74.618883,NO2,NA,NA,NA
India,Rajasthan,Bhiwadi,"RIICO Ind. Area III, Bhiwadi - RSPCB",09-02-2024 22:00:00,28.194909,76.862296,PM10,71,252,119
India,Rajasthan,Bhiwadi,"RIICO Ind. Area III, Bhiwadi - RSPCB",09-02-2024 22:00:00,28.194909,76.862296,OZONE,1,45,16
India,Rajasthan,Bikaner,"MM Ground, Bikaner - RSPCB",09-02-2024 22:00:00,28.018792,73.292658,PM2.5,22,310,108
India,Rajasthan,Bikaner,"MM Ground, Bikaner - RSPCB",09-02-2024 22:00:00,28.018792,73.292658,OZONE,5,78,48
India,Rajasthan,Bundi,"New Colony, Bundi - RSPCB",09-02-2024 22:00:00,25.435774,75.644272,NO2,19,122,44
India,Rajasthan,Chittorgarh,"Shastri Nagar, Chittorgarh - RSPCB",09-02-2024 22:00:00,24.892047,74.623527,PM2.5,20,242,89
India,Rajasthan,Chittorgarh,"Shastri Nagar, Chittorgarh - RSPCB",09-02-2024 22:00:00,24.892047,74.623527,PM10,36,249,129
India,Rajasthan,Churu,"Subash Chowk, Churu - RSPCB",09-02-2024 22:00:00,28.296139,74.961696,NH3,6,14,9
India,Rajasthan,Churu,"Subash Chowk, Churu - RSPCB",09-02-2024 22:00:00,28.296139,74.961696,OZONE,9,110,75
India,Rajasthan,Dholpur,"Raja Ganj, Dholpur - RSPCB",09-02-2024 22:00:00,26.699557,77.898881,PM2.5,62,346,120
India,Rajasthan,Dholpur,"Raja Ganj, Dholpur - RSPCB",09-02-2024 22:00:00,26.699557,77.898881,PM10,49,170,77
India,Rajasthan,Dholpur,"Raja Ganj, Dholpur - RSPCB",09-02-2024 22:00:00,26.699557,77.898881,SO2,1,7,3
India,Rajasthan,Dholpur,"Raja Ganj, Dholpur - RSPCB",09-02-2024 22:00:00,26.699557,77.898881,CO,12,89,43
India,Rajasthan,Hanumangarh,"Housing Board, Hanumangarh - RSPCB",09-02-2024 22:00:00,29.610750,74.283608,SO2,7,22,10
India,Rajasthan,Jaipur,"Adarsh Nagar, Jaipur - RSPCB",09-02-2024 22:00:00,26.902909,75.836858,NH3,NA,NA,NA
India,Rajasthan,Jaipur,"Adarsh Nagar, Jaipur - RSPCB",09-02-2024 22:00:00,26.902909,75.836858,SO2,1,36,10
India,Rajasthan,Jaipur,"Adarsh Nagar, Jaipur - RSPCB",09-02-2024 22:00:00,26.902909,75.836858,CO,10,96,34
India,Rajasthan,Jaipur,"Mansarovar Sector-12, Jaipur - RSPCB",09-02-2024 22:00:00,26.843698,75.766894,PM10,79,409,167
India,Rajasthan,Jaipur,"Mansarovar Sector-12, Jaipur - RSPCB",09-02-2024 22:00:00,26.843698,75.766894,OZONE,1,73,36
India,Rajasthan,Jaipur,"Police Commissionerate, Jaipur - RSPCB",09-02-2024 22:00:00,26.9164092,75.7994901,NO2,22,110,71
India,Rajasthan,Jalore,"Mudtra Sili, Jalore - RSPCB",09-02-2024 22:00:00,25.344694,72.626208,NH3,2,5,4
India,Rajasthan,Jhunjhunu,"Indra Nagar, Jhunjhunu - RSPCB",09-02-2024 22:00:00,28.108988,75.386577,OZONE,6,97,65
India,Rajasthan,Jodhpur,"Collectorate, Jodhpur - RSPCB",09-02-2024 22:00:00,26.268249,73.0193853,PM10,NA,NA,NA
India,Rajasthan,Jodhpur,"Digari Kalan, Jodhpur - RSPCB",09-02-2024 22:00:00,26.295810,73.082283,NO2,14,91,43
India,Rajasthan,Jodhpur,"Jhalamand, Jodhpur - RSPCB",09-02-2024 22:00:00,26.215415,73.070156,NH3,4,16,9
India,Rajasthan,Jodhpur,"Jhalamand, Jodhpur - RSPCB",09-02-2024 22:00:00,26.215415,73.070156,SO2,3,11,6
India,Rajasthan,Jodhpur,"Mandor, Jodhpur - RSPCB",09-02-2024 22:00:00,26.358805,73.047444,CO,10,38,26
India,Rajasthan,Jodhpur,"Samrat Ashok Udhyan, Jodhpur - RSPCB",09-02-2024 22:00:00,26.253384,72.976571,PM10,28,223,89
India,Rajasthan,Jodhpur,"Samrat Ashok Udhyan, Jodhpur - RSPCB",09-02-2024 22:00:00,26.253384,72.976571,NO2,15,143,62
India,Rajasthan,Karauli,"Satyawati Vihar, Karauli - RSPCB",09-02-2024 22:00:00,26.506177,77.025989,NO2,18,74,32
India,Rajasthan,Karauli,"Satyawati Vihar, Karauli - RSPCB",09-02-2024 22:00:00,26.506177,77.025989,NH3,3,14,6
India,Rajasthan,Kota,"Dhanmandi, Kota - RSPCB",09-02-2024 22:00:00,25.164090,75.858137,PM2.5,13,379,138
India,Rajasthan,Kota,"Dhanmandi, Kota - RSPCB",09-02-2024 22:00:00,25.164090,75.858137,NH3,3,7,4
India,Rajasthan,Nagaur,"Karni Colony, Nagaur - RSPCB",09-02-2024 22:00:00,27.213494,73.734444,PM10,41,394,138
India,Rajasthan,Nagaur,"Karni Colony, Nagaur - RSPCB",09-02-2024 22:00:00,27.213494,73.734444,SO2,1,35,5
India,Rajasthan,Pali,"Indira Colony Vistar, Pali - RSPCB",09-02-2024 22:00:00,25.771061, 73.340227,CO,20,100,38
India,Rajasthan,Pratapgarh,"Pragati Nagar, Pratapgarh - RSPCB",09-02-2024 22:00:00,24.041198,74.780702,PM2.5,20,88,48
India,Rajasthan,Pratapgarh,"Pragati Nagar, Pratapgarh - RSPCB",09-02-2024 22:00:00,24.041198,74.780702,OZONE,20,98,88
India,Rajasthan,Rajsamand,"Dhoinda, Rajsamand - RSPCB",09-02-2024 22:00:00,25.036360,73.883502,PM2.5,5,213,69
India,Rajasthan,Rajsamand,"Dhoinda, Rajsamand - RSPCB",09-02-2024 22:00:00,25.036360,73.883502,PM10,15,137,66
India,Rajasthan,Sawai Madhopur,"Sahu Nagar, Sawai Madhopur - RSPCB",09-02-2024 22:00:00,26.031443,76.359327,SO2,13,24,17
India,Rajasthan,Sirohi,"Vedhaynath Colony, Sirohi - RSPCB",09-02-2024 22:00:00,24.885261,72.857549,NH3,2,8,4
India,Rajasthan,Sri Ganganagar,"Old City, Sri Ganganagar - RSPCB",09-02-2024 22:00:00,29.931624,73.864511,PM10,101,484,235
India,Rajasthan,Sri Ganganagar,"Old City, Sri Ganganagar - RSPCB",09-02-2024 22:00:00,29.931624,73.864511,SO2,5,18,7
India,Rajasthan,Sri Ganganagar,"Old City, Sri Ganganagar - RSPCB",09-02-2024 22:00:00,29.931624,73.864511,CO,28,184,95
India,Rajasthan,Tonk,"Shastri Nagar, Tonk - RSPCB",09-02-2024 22:00:00,26.159933,75.780517,NO2,19,68,31
India,Rajasthan,Tonk,"Shastri Nagar, Tonk - RSPCB",09-02-2024 22:00:00,26.159933,75.780517,OZONE,18,51,38
India,Rajasthan,Udaipur,"Ashok Nagar, Udaipur - RSPCB",09-02-2024 22:00:00,24.5886166,73.6321397,PM10,75,164,117
India,Rajasthan,Udaipur,"Ashok Nagar, Udaipur - RSPCB",09-02-2024 22:00:00,24.5886166,73.6321397,NH3,4,9,5
India,Sikkim,Gangtok,"Zero Point GICI, Gangtok - SSPCB",09-02-2024 22:00:00,27.338530,88.614099,PM10,28,60,45
India,Sikkim,Gangtok,"Zero Point GICI, Gangtok - SSPCB",09-02-2024 22:00:00,27.338530,88.614099,NH3,1,1,1
India,TamilNadu,Ariyalur,"Keelapalur, Ariyalur - TNPCB",09-02-2024 22:00:00,11.06825,79.07033,PM10,NA,NA,NA
India,TamilNadu,Chennai,"Alandur Bus Depot, Chennai - CPCB",09-02-2024 22:00:00,12.9099161,80.1076538,PM2.5,47,388,150
India,TamilNadu,Chennai,"Alandur Bus Depot, Chennai - CPCB",09-02-2024 22:00:00,12.9099161,80.1076538,PM10,69,417,149
India,TamilNadu,Chennai,"Alandur Bus Depot, Chennai - CPCB",09-02-2024 22:00:00,12.9099161,80.1076538,SO2,1,14,4
India,TamilNadu,Chennai,"Arumbakkam, Chennai - TNPCB",09-02-2024 22:00:00,13.0664,80.2112 ,NO2,10,46,20
India,TamilNadu,Chennai,"Gandhi Nagar_Ennore, Chennai - TNPCB",09-02-2024 22:00:00,13.218341,80.32027,PM2.5,35,253,73
India,TamilNadu,Chennai,"Gandhi Nagar_Ennore, Chennai - TNPCB",09-02-2024 22:00:00,13.218341,80.32027,OZONE,2,3,2
India,TamilNadu,Chennai,"Kodungaiyur, Chennai - TNPCB",09-02-2024 22:00:00,13.1278,80.2642,SO2,1,13,5
India,TamilNadu,Chennai,"Manali, Chennai - CPCB",09-02-2024 22:00:00,13.164544,80.26285,PM2.5,27,139,59
India,TamilNadu,Chennai,"Perungudi, Chennai - TNPCB",09-02-2024 22:00:00,12.9533,80.2357,NO2,2,14,6
India,TamilNadu,Chennai,"Perungudi, Chennai - TNPCB",09-02-2024 22:00:00,12.9533,80.2357,CO,7,34,18
India,TamilNadu,Gummidipoondi,"Anthoni Pillai Nagar, Gummidipoondi - TNPCB",09-02-2024 22:00:00,13.4127,80.1081,PM2.5,29,346,132
India,TamilNadu,Gummidipoondi,"Anthoni Pillai Nagar, Gummidipoondi - TNPCB",09-02-2024 22:00:00,13.4127,80.1081,PM10,50,212,110
India,TamilNadu,Gummidipoondi,"Anthoni Pillai Nagar, Gummidipoondi - TNPCB",09-02-2024 22:00:00,13.4127,80.1081,NO2,10,16,12
India,TamilNadu,Kanchipuram,"Kilambi, Kanchipuram - TNPCB",09-02-2024 22:00:00,12.864618,79.659968,PM2.5,NA,NA,NA
India,TamilNadu,Palkalaiperur,"Bharathidasan University, Palkalaiperur - TNPCB",09-02-2024 22:00:00,10.681158,78.741746,PM2.5,29,57,41
India,TamilNadu,Palkalaiperur,"Bharathidasan University, Palkalaiperur - TNPCB",09-02-2024 22:00:00,10.681158,78.741746,SO2,27,28,27
India,TamilNadu,Palkalaiperur,"Bharathidasan University, Palkalaiperur - TNPCB",09-02-2024 22:00:00,10.681158,78.741746,OZONE,1,2,1
India,TamilNadu,Ramanathapuram,"Chalai Bazaar, Ramanathapuram - TNPCB",09-02-2024 22:00:00,9.36399,78.831977,PM2.5,24,68,44
India,TamilNadu,Ramanathapuram,"Chalai Bazaar, Ramanathapuram - TNPCB",09-02-2024 22:00:00,9.36399,78.831977,OZONE,14,14,14
India,TamilNadu,Salem,"Sona College of Technology, Salem - TNPCB",09-02-2024 22:00:00,11.679111,78.125052,PM2.5,50,126,74
India,TamilNadu,Salem,"Sona College of Technology, Salem - TNPCB",09-02-2024 22:00:00,11.679111,78.125052,NH3,1,1,1
India,TamilNadu,Thoothukudi,"Meelavittan, Thoothukudi - TNPCB",09-02-2024 22:00:00,8.816428 ,78.099039,PM10,37,116,59
India,TamilNadu,Thoothukudi,"Meelavittan, Thoothukudi - TNPCB",09-02-2024 22:00:00,8.816428 ,78.099039,SO2,7,18,13
India,TamilNadu,Tirupur,"Kumaran College, Tirupur - TNPCB",09-02-2024 22:00:00,11.0973603,77.3228673,NH3,NA,NA,NA
India,TamilNadu,Tirupur,"Kumaran College, Tirupur - TNPCB",09-02-2024 22:00:00,11.0973603,77.3228673,OZONE,7,7,7
India,TamilNadu,Vellore,"Vasanthapuram, Vellore - TNPCB",09-02-2024 22:00:00,12.909494,79.131861,OZONE,1,2,2
India,TamilNadu,Virudhunagar,"Collectorate Office, Virudhunagar - TNPCB",09-02-2024 22:00:00,9.559382,77.948828,SO2,16,16,16
India,Telangana,Hyderabad,"Bollaram Industrial Area, Hyderabad - TSPCB",09-02-2024 22:00:00,17.540891,78.358528,PM10,87,138,116
India,Telangana,Hyderabad,"Central University, Hyderabad - TSPCB",09-02-2024 22:00:00,17.460103,78.334361,CO,26,50,43
India,Telangana,Hyderabad,"ECIL Kapra, Hyderabad - TSPCB",09-02-2024 22:00:00,17.470431,78.566959,PM2.5,32,35,33
India,Telangana,Hyderabad,"ECIL Kapra, Hyderabad - TSPCB",09-02-2024 22:00:00,17.470431,78.566959,NH3,7,8,8
India,Telangana,Hyderabad,"ECIL Kapra, Hyderabad - TSPCB",09-02-2024 22:00:00,17.470431,78.566959,CO,7,18,12
India,Telangana,Hyderabad,"ICRISAT Patancheru, Hyderabad - TSPCB",09-02-2024 22:00:00,17.518400,78.278777,NH3,2,2,2
India,Telangana,Hyderabad,"IITH Kandi, Hyderabad - TSPCB",09-02-2024 22:00:00,17.585705,78.126199,PM2.5,12,208,51
India,Telangana,Hyderabad,"Kokapet, Hyderabad - TSPCB",09-02-2024 22:00:00,17.393559,78.339194,PM10,70,87,79
India,Telangana,Hyderabad,"Kokapet, Hyderabad - TSPCB",09-02-2024 22:00:00,17.393559,78.339194,NO2,5,9,8
India,Telangana,Hyderabad,"Kompally Municipal Office, Hyderabad - TSPCB",09-02-2024 22:00:00,17.544899,78.486949,PM2.5,26,303,74
India,Telangana,Hyderabad,"Kompally Municipal Office, Hyderabad - TSPCB",09-02-2024 22:00:00,17.544899,78.486949,NO2,8,10,9
India,Telangana,Hyderabad,"Kompally Municipal Office, Hyderabad - TSPCB",09-02-2024 22:00:00,17.544899,78.486949,NH3,5,6,5
India,Telangana,Hyderabad,"Kompally Municipal Office, Hyderabad - TSPCB",09-02-2024 22:00:00,17.544899,78.486949,OZONE,10,120,82
India,Telangana,Hyderabad,"New Malakpet, Hyderabad - TSPCB",09-02-2024 22:00:00,17.37206,78.50864,NO2,20,26,23
India,Telangana,Hyderabad,"New Malakpet, Hyderabad - TSPCB",09-02-2024 22:00:00,17.37206,78.50864,CO,10,28,24
India,Telangana,Hyderabad,"Ramachandrapuram, Hyderabad - TSPCB",09-02-2024 22:00:00,17.528544,78.286195,PM10,62,82,69
India,Telangana,Hyderabad,"Ramachandrapuram, Hyderabad - TSPCB",09-02-2024 22:00:00,17.528544,78.286195,NO2,9,13,10
India,Telangana,Hyderabad,"Ramachandrapuram, Hyderabad - TSPCB",09-02-2024 22:00:00,17.528544,78.286195,NH3,3,3,3
India,Telangana,Hyderabad,"Ramachandrapuram, Hyderabad - TSPCB",09-02-2024 22:00:00,17.528544,78.286195,CO,12,24,17
India,Telangana,Hyderabad,"Sanathnagar, Hyderabad - TSPCB",09-02-2024 22:00:00,17.4559458,78.4332152,PM2.5,64,98,80
India,Telangana,Hyderabad,"Sanathnagar, Hyderabad - TSPCB",09-02-2024 22:00:00,17.4559458,78.4332152,SO2,5,16,8
India,Telangana,Hyderabad,"Somajiguda, Hyderabad - TSPCB",09-02-2024 22:00:00,17.417094,78.457437,CO,10,22,15
India,Tripura,Agartala,"Bardowali, Agartala - Tripura SPCB",09-02-2024 22:00:00,23.8175497,91.2726974,PM10,117,368,213
India,Uttar_Pradesh,Agra,"Manoharpur, Agra - UPPCB",09-02-2024 22:00:00,27.23711,78.01936,SO2,23,25,24
India,Uttar_Pradesh,Agra,"Rohta, Agra - UPPCB",09-02-2024 22:00:00,27.106972,78.000111,CO,5,56,16
India,Uttar_Pradesh,Agra,"Rohta, Agra - UPPCB",09-02-2024 22:00:00,27.106972,78.000111,OZONE,13,15,13
India,Uttar_Pradesh,Agra,"Sanjay Palace, Agra - UPPCB",09-02-2024 22:00:00,27.19865833,78.00598056,PM2.5,8,63,32
India,Uttar_Pradesh,Agra,"Sanjay Palace, Agra - UPPCB",09-02-2024 22:00:00,27.19865833,78.00598056,SO2,4,14,9
India,Uttar_Pradesh,Agra,"Sector-3B Avas Vikas Colony, Agra - UPPCB",09-02-2024 22:00:00,27.19412,77.96237,PM10,29,111,57
India,Uttar_Pradesh,Agra,"Shahjahan Garden, Agra - UPPCB",09-02-2024 22:00:00,27.169338,78.03582,PM2.5,NA,NA,NA
India,Uttar_Pradesh,Agra,"Shahjahan Garden, Agra - UPPCB",09-02-2024 22:00:00,27.169338,78.03582,PM10,NA,NA,NA
India,Uttar_Pradesh,Agra,"Shahjahan Garden, Agra - UPPCB",09-02-2024 22:00:00,27.169338,78.03582,NH3,NA,NA,NA
India,Uttar_Pradesh,Agra,"Shastripuram, Agra - UPPCB",09-02-2024 22:00:00,27.19862,77.92066,SO2,16,22,18
India,Uttar_Pradesh,Baghpat,"Sardar Patel Inter College, Baghpat - UPPCB",09-02-2024 22:00:00,28.964949,77.278761,NH3,2,6,3
India,Uttar_Pradesh,Baghpat,"Sardar Patel Inter College, Baghpat - UPPCB",09-02-2024 22:00:00,28.964949,77.278761,SO2,3,53,20
India,Uttar_Pradesh,Baghpat,"Sardar Patel Inter College, Baghpat - UPPCB",09-02-2024 22:00:00,28.964949,77.278761,CO,15,78,38
India,Uttar_Pradesh,Bareilly,"Rajendra Nagar, Bareilly - UPPCB",09-02-2024 22:00:00,28.38910936,79.42963708,NH3,1,1,1
India,Uttar_Pradesh,Bulandshahr,"Yamunapuram, Bulandshahr - UPPCB",09-02-2024 22:00:00,28.406963,77.849831,PM10,96,208,129
India,Uttar_Pradesh,Bulandshahr,"Yamunapuram, Bulandshahr - UPPCB",09-02-2024 22:00:00,28.406963,77.849831,CO,17,123,25
India,Uttar_Pradesh,Firozabad,"Nagla Bhau, Firozabad - UPPCB",09-02-2024 22:00:00,27.168897,78.376960,PM10,18,79,43
India,Uttar_Pradesh,Ghaziabad,"Indirapuram, Ghaziabad - UPPCB",09-02-2024 22:00:00,28.646233,77.358075,NH3,10,23,13
India,Uttar_Pradesh,Ghaziabad,"Indirapuram, Ghaziabad - UPPCB",09-02-2024 22:00:00,28.646233,77.358075,OZONE,6,59,32
India,Uttar_Pradesh,Ghaziabad,"Loni, Ghaziabad - UPPCB",09-02-2024 22:00:00,28.757294,77.278792,PM10,68,256,118
India,Uttar_Pradesh,Ghaziabad,"Vasundhara, Ghaziabad - UPPCB",09-02-2024 22:00:00,28.6603346,77.3572563,PM2.5,35,338,93
India,Uttar_Pradesh,Ghaziabad,"Vasundhara, Ghaziabad - UPPCB",09-02-2024 22:00:00,28.6603346,77.3572563,CO,1,144,55
India,Uttar_Pradesh,Greater Noida,"Knowledge Park - III, Greater Noida - UPPCB",09-02-2024 22:00:00,28.47272,77.482000,SO2,12,23,17
India,Uttar_Pradesh,Greater Noida,"Knowledge Park - V, Greater Noida - UPPCB",09-02-2024 22:00:00,28.557054,77.453663,NH3,2,5,3
India,Uttar_Pradesh,Hapur,"Anand Vihar, Hapur - UPPCB",09-02-2024 22:00:00,28.725645,77.749675,SO2,17,57,31
India,Uttar_Pradesh,Hapur,"Anand Vihar, Hapur - UPPCB",09-02-2024 22:00:00,28.725645,77.749675,OZONE,34,248,138
India,Uttar_Pradesh,Kanpur,"NSI Kalyanpur, Kanpur - UPPCB",09-02-2024 22:00:00,26.509954,80.249612,NH3,1,2,1
India,Uttar_Pradesh,Kanpur,"Nehru Nagar, Kanpur - UPPCB",09-02-2024 22:00:00,26.4703136,80.3229863,OZONE,19,176,103
India,Uttar_Pradesh,Lucknow,"B R Ambedkar University, Lucknow - UPPCB",09-02-2024 22:00:00,26.766433,80.927299,SO2,24,37,28
India,Uttar_Pradesh,Lucknow,"Gomti Nagar, Lucknow - UPPCB",09-02-2024 22:00:00,26.868120,81.005119,PM10,29,102,50
India,Uttar_Pradesh,Lucknow,"Gomti Nagar, Lucknow - UPPCB",09-02-2024 22:00:00,26.868120,81.005119,SO2,3,22,11
India,Uttar_Pradesh,Lucknow,"Gomti Nagar, Lucknow - UPPCB",09-02-2024 22:00:00,26.868120,81.005119,OZONE,54,78,72
India,Uttar_Pradesh,Lucknow,"Kendriya Vidyalaya, Lucknow - CPCB",09-02-2024 22:00:00,26.906111,80.948222,NO2,16,142,61
India,Uttar_Pradesh,Lucknow,"Lalbagh, Lucknow - CPCB",09-02-2024 22:00:00,26.8458805,80.9365541,NO2,22,141,53
India,Uttar_Pradesh,Lucknow,"Lalbagh, Lucknow - CPCB",09-02-2024 22:00:00,26.8458805,80.9365541,NH3,10,18,12
India,Uttar_Pradesh,Lucknow,"Lalbagh, Lucknow - CPCB",09-02-2024 22:00:00,26.8458805,80.9365541,OZONE,7,103,54
India,Uttar_Pradesh,Lucknow,"Talkatora District Industries Center, Lucknow - CPCB",09-02-2024 22:00:00,26.83399722,80.8917361,PM2.5,56,264,88
India,Uttar_Pradesh,Lucknow,"Talkatora District Industries Center, Lucknow - CPCB",09-02-2024 22:00:00,26.83399722,80.8917361,NH3,11,39,19
India,Uttar_Pradesh,Meerut,"Jai Bhim Nagar, Meerut - UPPCB",09-02-2024 22:00:00,28.9535882,77.7622941,OZONE,1,14,6
India,Uttar_Pradesh,Meerut,"Pallavpuram Phase 2, Meerut - UPPCB",09-02-2024 22:00:00,29.063510,77.709723,PM10,84,180,107
India,Uttar_Pradesh,Moradabad,"Eco Herbal Park, Moradabad - UPPCB",09-02-2024 22:00:00,28.840739,78.697531,PM10,60,142,92
India,Uttar_Pradesh,Moradabad,"Employment Office, Moradabad - UPPCB",09-02-2024 22:00:00,28.88528,78.73880,PM2.5,47,126,75
India,Uttar_Pradesh,Moradabad,"Employment Office, Moradabad - UPPCB",09-02-2024 22:00:00,28.88528,78.73880,PM10,69,197,116
India,Uttar_Pradesh,Moradabad,"Employment Office, Moradabad - UPPCB",09-02-2024 22:00:00,28.88528,78.73880,NH3,4,5,4
India,Uttar_Pradesh,Moradabad,"Jigar Colony, Moradabad - UPPCB",09-02-2024 22:00:00,28.856664,78.772638,PM10,71,130,102
India,Uttar_Pradesh,Moradabad,"Jigar Colony, Moradabad - UPPCB",09-02-2024 22:00:00,28.856664,78.772638,OZONE,18,35,26
India,Uttar_Pradesh,Moradabad,"Transport Nagar, Moradabad - UPPCB",09-02-2024 22:00:00,28.802625,78.753728,SO2,42,54,44
India,Uttar_Pradesh,Noida,"Sector - 125, Noida - UPPCB",09-02-2024 22:00:00,28.5447608,77.3231257,CO,18,112,46
India,Uttar_Pradesh,Noida,"Sector-1, Noida - UPPCB",09-02-2024 22:00:00,28.5898,77.3101,NH3,3,8,6
India,Uttar_Pradesh,Noida,"Sector-1, Noida - UPPCB",09-02-2024 22:00:00,28.5898,77.3101,SO2,6,16,9
India,Uttar_Pradesh,Noida,"Sector-1, Noida - UPPCB",09-02-2024 22:00:00,28.5898,77.3101,OZONE,1,122,62
India,Uttar_Pradesh,Noida,"Sector-116, Noida - UPPCB",09-02-2024 22:00:00,28.569230,77.393848,NO2,27,113,56
India,Uttar_Pradesh,Noida,"Sector-116, Noida - UPPCB",09-02-2024 22:00:00,28.569230,77.393848,OZONE,1,76,35
India,Uttar_Pradesh,Prayagraj,"Jhunsi, Prayagraj - UPPCB",09-02-2024 22:00:00,25.425602,81.917152,PM2.5,12,134,41
India,Uttar_Pradesh,Prayagraj,"Jhunsi, Prayagraj - UPPCB",09-02-2024 22:00:00,25.425602,81.917152,PM10,39,235,75
India,Uttar_Pradesh,Prayagraj,"Jhunsi, Prayagraj - UPPCB",09-02-2024 22:00:00,25.425602,81.917152,NH3,5,5,5
India,Uttar_Pradesh,Prayagraj,"Motilal Nehru NIT, Prayagraj - UPPCB",09-02-2024 22:00:00,25.494,81.863,OZONE,5,34,18
India,Uttar_Pradesh,Prayagraj,"Nagar Nigam, Prayagraj - UPPCB",09-02-2024 22:00:00,25.44919916 ,81.82735986 ,PM10,44,119,78
India,Uttar_Pradesh,Prayagraj,"Nagar Nigam, Prayagraj - UPPCB",09-02-2024 22:00:00,25.44919916 ,81.82735986 ,SO2,10,55,34
India,Uttar_Pradesh,Prayagraj,"Nagar Nigam, Prayagraj - UPPCB",09-02-2024 22:00:00,25.44919916 ,81.82735986 ,OZONE,10,11,11
India,Uttar_Pradesh,Varanasi,"Ardhali Bazar, Varanasi - UPPCB",09-02-2024 22:00:00,25.3505986,82.9083074,NO2,23,54,30
India,Uttar_Pradesh,Varanasi,"Bhelupur, Varanasi - UPPCB",09-02-2024 22:00:00,25.301778,82.996789,PM2.5,23,99,47
India,Uttar_Pradesh,Varanasi,"Bhelupur, Varanasi - UPPCB",09-02-2024 22:00:00,25.301778,82.996789,OZONE,1,46,40
India,Uttar_Pradesh,Varanasi,"IESD Banaras Hindu University, Varanasi - UPPCB",09-02-2024 22:00:00,25.262326,82.995408,PM2.5,20,62,35
India,Uttar_Pradesh,Varanasi,"IESD Banaras Hindu University, Varanasi - UPPCB",09-02-2024 22:00:00,25.262326,82.995408,NH3,1,1,1
India,Uttar_Pradesh,Varanasi,"IESD Banaras Hindu University, Varanasi - UPPCB",09-02-2024 22:00:00,25.262326,82.995408,CO,16,26,18
India,Uttar_Pradesh,Varanasi,"Maldahiya, Varanasi - UPPCB",09-02-2024 22:00:00,25.32393,82.99687,PM2.5,43,207,73
India,Uttarakhand,Dehradun,"Doon University, Dehradun - UKPCB",09-02-2024 22:00:00,30.269444,78.044167,CO,32,66,43
India,Uttarakhand,Kashipur,"Govt. Girls Inter College, Kashipur - UKPCB",09-02-2024 22:00:00,29.2124114,78.9611753,NO2,7,45,15
India,Uttarakhand,Rishikesh,"Shivaji Nagar, Rishikesh - UKPCB",09-02-2024 22:00:00,30.075911,78.2859547,NO2,4,20,9
India,Uttarakhand,Rishikesh,"Shivaji Nagar, Rishikesh - UKPCB",09-02-2024 22:00:00,30.075911,78.2859547,CO,20,48,35
India,West_Bengal,Barrackpore,"SVSPA Campus, Barrackpore - WBPCB",09-02-2024 22:00:00,22.7605581,88.3617589,NO2,14,74,35
India,West_Bengal,Barrackpore,"SVSPA Campus, Barrackpore - WBPCB",09-02-2024 22:00:00,22.7605581,88.3617589,CO,18,98,29
India,West_Bengal,Barrackpore,"SVSPA Campus, Barrackpore - WBPCB",09-02-2024 22:00:00,22.7605581,88.3617589,OZONE,8,120,63
India,West_Bengal,Durgapur,"Sidhu Kanhu Indoor Stadium, Durgapur - WBPCB",09-02-2024 22:00:00,23.5404352,87.2892225,OZONE,2,72,25
India,West_Bengal,Haldia,"Priyambada Housing Estate, Haldia - WBPCB",09-02-2024 22:00:00,22.06047,88.109737,PM10,54,186,113
India,West_Bengal,Haldia,"Priyambada Housing Estate, Haldia - WBPCB",09-02-2024 22:00:00,22.06047,88.109737,NH3,3,6,4
India,West_Bengal,Howrah,"Belur Math, Howrah - WBPCB",09-02-2024 22:00:00,22.629801,88.352017,PM10,84,165,109
India,West_Bengal,Howrah,"Belur Math, Howrah - WBPCB",09-02-2024 22:00:00,22.629801,88.352017,NO2,13,44,25
India,West_Bengal,Howrah,"Ghusuri, Howrah - WBPCB",09-02-2024 22:00:00,22.611968,88.347422,PM10,87,180,128
India,West_Bengal,Howrah,"Ghusuri, Howrah - WBPCB",09-02-2024 22:00:00,22.611968,88.347422,NO2,24,101,44
India,West_Bengal,Howrah,"Ghusuri, Howrah - WBPCB",09-02-2024 22:00:00,22.611968,88.347422,CO,2,39,20
India,West_Bengal,Howrah,"Padmapukur, Howrah - WBPCB",09-02-2024 22:00:00,22.5687319,88.2797276,CO,6,118,35
India,West_Bengal,Kolkata,"Ballygunge, Kolkata - WBPCB",09-02-2024 22:00:00,22.5367507,88.3638022,SO2,10,40,23
India,West_Bengal,Kolkata,"Bidhannagar, Kolkata - WBPCB",09-02-2024 22:00:00,22.58157048,88.41002457,CO,14,38,20
India,West_Bengal,Kolkata,"Fort William, Kolkata - WBPCB",09-02-2024 22:00:00,22.556640,88.342674,PM2.5,69,184,105
India,West_Bengal,Kolkata,"Fort William, Kolkata - WBPCB",09-02-2024 22:00:00,22.556640,88.342674,PM10,106,158,122
India,West_Bengal,Kolkata,"Fort William, Kolkata - WBPCB",09-02-2024 22:00:00,22.556640,88.342674,SO2,9,52,21
India,West_Bengal,Kolkata,"Fort William, Kolkata - WBPCB",09-02-2024 22:00:00,22.556640,88.342674,OZONE,12,87,51
India,West_Bengal,Kolkata,"Jadavpur, Kolkata - WBPCB",09-02-2024 22:00:00,22.49929,88.36917,PM2.5,83,192,117
India,West_Bengal,Kolkata,"Rabindra Bharati University, Kolkata - WBPCB",09-02-2024 22:00:00,22.627847,88.380669,PM2.5,53,134,85
India,West_Bengal,Kolkata,"Rabindra Sarobar, Kolkata - WBPCB",09-02-2024 22:00:00,22.51106,88.35142,PM10,75,102,87
India,West_Bengal,Kolkata,"Rabindra Sarobar, Kolkata - WBPCB",09-02-2024 22:00:00,22.51106,88.35142,NH3,5,17,9
India,West_Bengal,Kolkata,"Rabindra Sarobar, Kolkata - WBPCB",09-02-2024 22:00:00,22.51106,88.35142,OZONE,3,90,44
India,West_Bengal,Kolkata,"Victoria, Kolkata - WBPCB",09-02-2024 22:00:00,22.5448082,88.3403691,OZONE,5,141,78
India,West_Bengal,Siliguri,"Ward-32 Bapupara, Siliguri - WBPCB",09-02-2024 22:00:00,26.6879226,88.4152495,NH3,5,22,12
India,West_Bengal,Siliguri,"Ward-32 Bapupara, Siliguri - WBPCB",09-02-2024 22:00:00,26.6879226,88.4152495,SO2,10,13,12
India,West_Bengal,Siliguri,"Ward-32 Bapupara, Siliguri - WBPCB",09-02-2024 22:00:00,26.6879226,88.4152495,OZONE,10,69,39
India,Andhra_Pradesh,Chittoor,"Gangineni Cheruvu, Chittoor - APPCB",09-02-2024 22:00:00,13.204880,79.097889,SO2,2,52,13
India,Andhra_Pradesh,Chittoor,"Gangineni Cheruvu, Chittoor - APPCB",09-02-2024 22:00:00,13.204880,79.097889,CO,12,26,16
India,Andhra_Pradesh,Tirupati,"Tirumala, Tirupati - APPCB",09-02-2024 22:00:00,13.67,79.35,SO2,3,13,7
India,Andhra_Pradesh,Tirupati,"Tirumala, Tirupati - APPCB",09-02-2024 22:00:00,13.67,79.35,OZONE,8,74,37
India,Andhra_Pradesh,Tirupati,"Vaikuntapuram, Tirupati - APPCB",09-02-2024 22:00:00,13.615387,79.409230,NH3,2,4,3
India,Andhra_Pradesh,Vijayawada,"HB Colony, Vijayawada - APPCB",09-02-2024 22:00:00,16.536107,80.594233,SO2,4,6,5
India,Andhra_Pradesh,Vijayawada,"HB Colony, Vijayawada - APPCB",09-02-2024 22:00:00,16.536107,80.594233,OZONE,2,38,27
India,Andhra_Pradesh,Vijayawada,"Kanuru, Vijayawada - APPCB",09-02-2024 22:00:00,16.486692,80.699436,CO,22,44,28
India,Andhra_Pradesh,Vijayawada,"Rajiv Gandhi Park, Vijayawada - APPCB",09-02-2024 22:00:00,16.509717,80.612222,SO2,6,10,7
India,Andhra_Pradesh,Vijayawada,"Rajiv Gandhi Park, Vijayawada - APPCB",09-02-2024 22:00:00,16.509717,80.612222,CO,32,34,34
India,Andhra_Pradesh,Vijayawada,"Rajiv Nagar, Vijayawada - APPCB",09-02-2024 22:00:00,16.554731,80.649110,PM10,26,370,74
India,Andhra_Pradesh,Vijayawada,"Rajiv Nagar, Vijayawada - APPCB",09-02-2024 22:00:00,16.554731,80.649110,NO2,4,13,9
India,Andhra_Pradesh,Vijayawada,"Rajiv Nagar, Vijayawada - APPCB",09-02-2024 22:00:00,16.554731,80.649110,SO2,12,34,20
India,Andhra_Pradesh,Vijayawada,"Rajiv Nagar, Vijayawada - APPCB",09-02-2024 22:00:00,16.554731,80.649110,CO,20,68,32
India,Andhra_Pradesh,Visakhapatnam,"GVM Corporation, Visakhapatnam - APPCB",09-02-2024 22:00:00,17.72,83.3,PM10,81,197,122
India,Andhra_Pradesh,Visakhapatnam,"GVM Corporation, Visakhapatnam - APPCB",09-02-2024 22:00:00,17.72,83.3,NO2,11,63,30
India,Andhra_Pradesh,Visakhapatnam,"GVM Corporation, Visakhapatnam - APPCB",09-02-2024 22:00:00,17.72,83.3,NH3,2,10,5
India,Assam,Byrnihat,"Central Academy for SFS, Byrnihat - PCBA",09-02-2024 22:00:00,26.071318,91.87488,NH3,3,8,6
India,Assam,Byrnihat,"Central Academy for SFS, Byrnihat - PCBA",09-02-2024 22:00:00,26.071318,91.87488,OZONE,12,17,14
India,Assam,Guwahati,"IITG, Guwahati - PCBA",09-02-2024 22:00:00,26.2028636,91.70046436,PM2.5,87,357,206
India,Assam,Guwahati,"Pan Bazaar, Guwahati - PCBA",09-02-2024 22:00:00,26.187500,91.744194,OZONE,16,18,17
India,Assam,Nagaon,"Christianpatty, Nagaon - PCBA",09-02-2024 22:00:00,26.349082,92.68449,PM2.5,23,500,130
India,Assam,Nagaon,"Christianpatty, Nagaon - PCBA",09-02-2024 22:00:00,26.349082,92.68449,PM10,92,461,146
India,Assam,Nalbari,"Bata Chowk, Nalbari - PCBA",09-02-2024 22:00:00,26.446912,91.439057,PM2.5,57,500,242
India,Assam,Silchar,"Tarapur, Silchar - PCBA",09-02-2024 22:00:00,24.82827,92.79525,PM2.5,34,48,41
India,Assam,Sivasagar,"Girls College, Sivasagar - PCBA",09-02-2024 22:00:00,26.987634,94.636574,PM2.5,23,36,28
India,Bihar,Araria,"Kharahiya Basti, Araria - BSPCB",09-02-2024 22:00:00,26.146529,87.454184,NO2,5,103,12
India,Bihar,Araria,"Kharahiya Basti, Araria - BSPCB",09-02-2024 22:00:00,26.146529,87.454184,SO2,11,17,15
India,Bihar,Arrah,"New DM Office, Arrah - BSPCB",09-02-2024 22:00:00,25.5626095,84.663264,PM10,60,175,105
India,Bihar,Bhagalpur,"DM Office_Kachari Chowk, Bhagalpur - BSPCB",09-02-2024 22:00:00,25.251013,86.989001,CO,28,80,56
India,Bihar,Bhagalpur,"Mayaganj, Bhagalpur - BSPCB",09-02-2024 22:00:00,25.265194,87.012947,PM2.5,98,352,204
India,Bihar,Bhagalpur,"Mayaganj, Bhagalpur - BSPCB",09-02-2024 22:00:00,25.265194,87.012947,NH3,7,10,9
India,Bihar,Bihar Sharif,"D M Colony, Bihar Sharif - BSPCB",09-02-2024 22:00:00,25.204762,85.514960,CO,4,70,24
India,Bihar,Buxar,"Charitra Van, Buxar - BSPCB (Formerly known as Central Jail)",09-02-2024 22:00:00,25.567520,83.966379,NH3,1,4,3
India,Bihar,Buxar,"Charitra Van, Buxar - BSPCB (Formerly known as Central Jail)",09-02-2024 22:00:00,25.567520,83.966379,SO2,2,118,22
India,Bihar,Chhapra,"Darshan Nagar, Chhapra - BSPCB",09-02-2024 22:00:00,25.7808257,84.7446768,PM2.5,88,382,183
India,Bihar,Chhapra,"Darshan Nagar, Chhapra - BSPCB",09-02-2024 22:00:00,25.7808257,84.7446768,NH3,9,13,11
India,Bihar,Chhapra,"Darshan Nagar, Chhapra - BSPCB",09-02-2024 22:00:00,25.7808257,84.7446768,SO2,1,50,26
India,Bihar,Gaya,"Collectorate, Gaya - BSPCB",09-02-2024 22:00:00,24.7955,84.9994,CO,37,56,47
India,Bihar,Gaya,"SFTI Kusdihra, Gaya - BSPCB",09-02-2024 22:00:00,24.762518,84.982348,NO2,19,37,29
India,Bihar,Hajipur,"Industrial Area, Hajipur - BSPCB",09-02-2024 22:00:00,25.697189,85.245900,SO2,7,9,8
India,Bihar,Hajipur,"Industrial Area, Hajipur - BSPCB",09-02-2024 22:00:00,25.697189,85.245900,OZONE,56,224,147
India,Bihar,Katihar,"Mirchaibari, Katihar - BSPCB",09-02-2024 22:00:00,25.560083,87.553265,PM2.5,55,270,106
India,Bihar,Kishanganj,"SDM Office_Khagra, Kishanganj - BSPCB",09-02-2024 22:00:00,26.0881305,87.93840336,SO2,4,8,6
India,Bihar,Munger,"Town Hall, Munger - BSPCB",09-02-2024 22:00:00,25.376776,86.471523,PM2.5,40,287,106
India,Bihar,Muzaffarpur,"Buddha Colony, Muzaffarpur - BSPCB",09-02-2024 22:00:00,26.11442,85.39813,NH3,4,13,9
India,Bihar,Muzaffarpur,"Buddha Colony, Muzaffarpur - BSPCB",09-02-2024 22:00:00,26.11442,85.39813,SO2,5,21,9
India,Bihar,Muzaffarpur,"MIT-Daudpur Kothi, Muzaffarpur - BSPCB",09-02-2024 22:00:00,26.1403345,85.3650192,SO2,10,14,12
India,Bihar,Muzaffarpur,"Muzaffarpur Collectorate, Muzaffarpur - BSPCB",09-02-2024 22:00:00,26.1209,85.3647,SO2,4,12,7
India,Bihar,Patna,"DRM Office Danapur, Patna - BSPCB",09-02-2024 22:00:00,25.586562,85.043586,NO2,10,105,43
India,Bihar,Patna,"DRM Office Danapur, Patna - BSPCB",09-02-2024 22:00:00,25.586562,85.043586,SO2,7,10,8
India,Bihar,Patna,"DRM Office Danapur, Patna - BSPCB",09-02-2024 22:00:00,25.586562,85.043586,CO,28,125,71
India,Bihar,Patna,"Govt. High School Shikarpur, Patna - BSPCB",09-02-2024 22:00:00,25.592539,85.227158,PM10,95,164,126
India,Bihar,Patna,"Govt. High School Shikarpur, Patna - BSPCB",09-02-2024 22:00:00,25.592539,85.227158,SO2,2,7,5
India,Bihar,Patna,"IGSC Planetarium Complex, Patna - BSPCB",09-02-2024 22:00:00,25.610369,85.132568,NO2,12,12,12
India,Bihar,Rajgir,"Dangi Tola, Rajgir - BSPCB",09-02-2024 22:00:00,25.03280,85.41948,NO2,1,1,1
India,Bihar,Saharsa,"Police Line, Saharsa - BSPCB",09-02-2024 22:00:00,25.892357,86.590325,PM10,82,159,106
India,Bihar,Saharsa,"Police Line, Saharsa - BSPCB",09-02-2024 22:00:00,25.892357,86.590325,NH3,9,9,9
India,Bihar,Samastipur,"DM Office_Kasipur, Samastipur - BSPCB",09-02-2024 22:00:00,25.859655,85.77944,NO2,NA,NA,NA
India,Bihar,Samastipur,"DM Office_Kasipur, Samastipur - BSPCB",09-02-2024 22:00:00,25.859655,85.77944,CO,8,30,15
India,Bihar,Sasaram,"Dada Peer, Sasaram - BSPCB",09-02-2024 22:00:00,24.952822,84.002396,NO2,2,16,7
India,Bihar,Sasaram,"Dada Peer, Sasaram - BSPCB",09-02-2024 22:00:00,24.952822,84.002396,SO2,4,43,18
India,Chandigarh,Chandigarh,"Sector 22, Chandigarh - CPCC",09-02-2024 22:00:00,30.735567,76.775714,SO2,4,56,16
India,Chandigarh,Chandigarh,"Sector-25, Chandigarh - CPCC",09-02-2024 22:00:00,30.751462,76.762879,SO2,3,39,12
India,Chandigarh,Chandigarh,"Sector-53, Chandigarh - CPCC",09-02-2024 22:00:00,30.719859,76.738637,SO2,3,13,8
India,Chandigarh,Chandigarh,"Sector-53, Chandigarh - CPCC",09-02-2024 22:00:00,30.719859,76.738637,CO,40,143,81
India,Chandigarh,Chandigarh,"Sector-53, Chandigarh - CPCC",09-02-2024 22:00:00,30.719859,76.738637,OZONE,3,78,41
India,Chhattisgarh,Bhilai,"32Bungalows, Bhilai - CECB",09-02-2024 22:00:00,21.194815,81.314770,PM2.5,11,41,29
India,Chhattisgarh,Bhilai,"32Bungalows, Bhilai - CECB",09-02-2024 22:00:00,21.194815,81.314770,OZONE,4,12,5
India,Chhattisgarh,Bhilai,"Civic Center, Bhilai - Bhilai Steel Plant",09-02-2024 22:00:00,21.185571,81.343175,NO2,7,65,19
India,Chhattisgarh,Bhilai,"Hathkhoj, Bhilai - CECB",09-02-2024 22:00:00,21.224231,81.408350,NH3,8,8,8
India,Chhattisgarh,Chhal,"Nawapara SECL Colony, Chhal - CECB",09-02-2024 22:00:00,22.118125,83.140608,NO2,11,46,21
India,Chhattisgarh,Chhal,"Nawapara SECL Colony, Chhal - CECB",09-02-2024 22:00:00,22.118125,83.140608,CO,34,96,52
India,Chhattisgarh,Korba,"Rampur, Korba - CECB",09-02-2024 22:00:00,22.368195,82.746431,PM2.5,13,34,21
India,Chhattisgarh,Korba,"Rampur, Korba - CECB",09-02-2024 22:00:00,22.368195,82.746431,SO2,12,100,36
India,Chhattisgarh,Korba,"Urja Nagar, Korba - CECB",09-02-2024 22:00:00,22.348441,82.549611,PM2.5,10,23,16
India,Chhattisgarh,Kunjemura,"OP Jindal School, Kunjemura - CECB",09-02-2024 22:00:00,22.126650,83.483212,SO2,1,56,21
India,Chhattisgarh,Kunjemura,"OP Jindal School, Kunjemura - CECB",09-02-2024 22:00:00,22.126650,83.483212,CO,18,48,26
India,Chhattisgarh,Raipur,"AIIMS, Raipur - CECB",09-02-2024 22:00:00,21.258815,81.578979,NO2,46,75,57
India,Chhattisgarh,Raipur,"AIIMS, Raipur - CECB",09-02-2024 22:00:00,21.258815,81.578979,SO2,5,79,27
India,Chhattisgarh,Raipur,"Bhatagaon New ISBT, Raipur - CECB",09-02-2024 22:00:00,21.219665,81.630094,PM2.5,28,62,45
India,Chhattisgarh,Raipur,"Bhatagaon New ISBT, Raipur - CECB",09-02-2024 22:00:00,21.219665,81.630094,NO2,68,91,77
India,Chhattisgarh,Raipur,"Siltara Phase-II, Raipur - CECB",09-02-2024 22:00:00,21.371751,81.664929,NH3,2,3,3
India,Delhi,Delhi,"Alipur, Delhi - DPCC",09-02-2024 22:00:00,28.815329,77.153010,PM2.5,40,313,124
India,Delhi,Delhi,"Alipur, Delhi - DPCC",09-02-2024 22:00:00,28.815329,77.153010,PM10,50,212,112
India,Delhi,Delhi,"Anand Vihar, Delhi - DPCC",09-02-2024 22:00:00,28.647622,77.3158090,SO2,30,52,37
India,Delhi,Delhi,"Ashok Vihar, Delhi - DPCC",09-02-2024 22:00:00,28.695381,77.181665,PM2.5,51,355,148
India,Delhi,Delhi,"Ashok Vihar, Delhi - DPCC",09-02-2024 22:00:00,28.695381,77.181665,NH3,5,7,6
India,Delhi,Delhi,"Ashok Vihar, Delhi - DPCC",09-02-2024 22:00:00,28.695381,77.181665,SO2,21,33,27
India,Delhi,Delhi,"Ashok Vihar, Delhi - DPCC",09-02-2024 22:00:00,28.695381,77.181665,CO,57,102,69
India,Delhi,Delhi,"Aya Nagar, Delhi - IMD",09-02-2024 22:00:00,28.4706914,77.1099364,PM10,59,179,99
India,Delhi,Delhi,"Bawana, Delhi - DPCC",09-02-2024 22:00:00,28.776200,77.051074,NH3,5,7,6
India,Delhi,Delhi,"Bawana, Delhi - DPCC",09-02-2024 22:00:00,28.776200,77.051074,OZONE,4,82,47
India,Delhi,Delhi,"DTU, Delhi - CPCB",09-02-2024 22:00:00,28.7500499,77.1112615,PM10,94,246,153
India,Delhi,Delhi,"Dr. Karni Singh Shooting Range, Delhi - DPCC",09-02-2024 22:00:00,28.498571,77.264840,NO2,40,152,74
India,Delhi,Delhi,"Dr. Karni Singh Shooting Range, Delhi - DPCC",09-02-2024 22:00:00,28.498571,77.264840,SO2,5,12,8
India,Delhi,Delhi,"IGI Airport (T3), Delhi - IMD",09-02-2024 22:00:00,28.5627763,77.1180053,NO2,31,91,47
India,Delhi,Delhi,"IHBAS, Dilshad Garden, Delhi - CPCB",09-02-2024 22:00:00,28.6811736,77.3025234,NO2,NA,NA,NA
India,Delhi,Delhi,"IHBAS, Dilshad Garden, Delhi - CPCB",09-02-2024 22:00:00,28.6811736,77.3025234,CO,18,76,41
India,Delhi,Delhi,"ITO, Delhi - CPCB",09-02-2024 22:00:00,28.628624,77.241060,NH3,1,8,2
India,Delhi,Delhi,"Jahangirpuri, Delhi - DPCC",09-02-2024 22:00:00,28.732820,77.170633,NO2,35,128,70
India,Delhi,Delhi,"Jahangirpuri, Delhi - DPCC",09-02-2024 22:00:00,28.732820,77.170633,SO2,10,30,15
India,Delhi,Delhi,"Jawaharlal Nehru Stadium, Delhi - DPCC",09-02-2024 22:00:00,28.580280,77.233829,NO2,39,138,75
India,Delhi,Delhi,"Jawaharlal Nehru Stadium, Delhi - DPCC",09-02-2024 22:00:00,28.580280,77.233829,SO2,1,31,8
India,Delhi,Delhi,"Jawaharlal Nehru Stadium, Delhi - DPCC",09-02-2024 22:00:00,28.580280,77.233829,CO,26,114,56
India,Delhi,Delhi,"Lodhi Road, Delhi - IMD",09-02-2024 22:00:00,28.5918245,77.2273074,PM2.5,26,69,51
India,Delhi,Delhi,"Lodhi Road, Delhi - IMD",09-02-2024 22:00:00,28.5918245,77.2273074,OZONE,17,75,49
India,Delhi,Delhi,"Major Dhyan Chand National Stadium, Delhi - DPCC",09-02-2024 22:00:00,28.611281,77.237738,OZONE,1,171,80
India,Delhi,Delhi,"Mandir Marg, Delhi - DPCC",09-02-2024 22:00:00,28.636429,77.201067,PM2.5,38,311,127
India,Delhi,Delhi,"Mandir Marg, Delhi - DPCC",09-02-2024 22:00:00,28.636429,77.201067,NH3,16,18,17
India,Delhi,Delhi,"Mandir Marg, Delhi - DPCC",09-02-2024 22:00:00,28.636429,77.201067,CO,47,133,75
India,Delhi,Delhi,"Mundka, Delhi - DPCC",09-02-2024 22:00:00,28.684678,77.076574,PM2.5,44,349,181
India,Delhi,Delhi,"Mundka, Delhi - DPCC",09-02-2024 22:00:00,28.684678,77.076574,SO2,3,15,5
India,Delhi,Delhi,"Najafgarh, Delhi - DPCC",09-02-2024 22:00:00,28.570173,76.933762,NH3,1,2,1
India,Delhi,Delhi,"Najafgarh, Delhi - DPCC",09-02-2024 22:00:00,28.570173,76.933762,SO2,5,14,9
India,Delhi,Delhi,"Narela, Delhi - DPCC",09-02-2024 22:00:00,28.822836,77.101981,PM10,69,308,133
India,Delhi,Delhi,"New Moti Bagh, Delhi - MHUA",09-02-2024 22:00:00,28.57834,77.18400,PM2.5,45,259,124
India,Delhi,Delhi,"North Campus, DU, Delhi - IMD",09-02-2024 22:00:00,28.6573814,77.1585447,PM10,71,298,134
India,Delhi,Delhi,"Okhla Phase-2, Delhi - DPCC",09-02-2024 22:00:00,28.530785,77.271255,PM2.5,47,260,97
India,Delhi,Delhi,"Patparganj, Delhi - DPCC",09-02-2024 22:00:00,28.623763,77.287209,PM2.5,44,323,117
India,Delhi,Delhi,"Patparganj, Delhi - DPCC",09-02-2024 22:00:00,28.623763,77.287209,NH3,6,11,9
India,Delhi,Delhi,"Patparganj, Delhi - DPCC",09-02-2024 22:00:00,28.623763,77.287209,OZONE,1,88,47
India,Delhi,Delhi,"Punjabi Bagh, Delhi - DPCC",09-02-2024 22:00:00,28.674045,77.131023,NH3,5,8,6
India,Delhi,Delhi,"Pusa, Delhi - DPCC",09-02-2024 22:00:00,28.639652,77.146275,PM2.5,50,248,140
India,Delhi,Delhi,"Pusa, Delhi - DPCC",09-02-2024 22:00:00,28.639652,77.146275,PM10,111,302,164
India,Delhi,Delhi,"Pusa, Delhi - DPCC",09-02-2024 22:00:00,28.639652,77.146275,CO,7,108,55
India,Delhi,Delhi,"R K Puram, Delhi - DPCC",09-02-2024 22:00:00,28.563262,77.186937,PM2.5,37,413,136
India,Delhi,Delhi,"R K Puram, Delhi - DPCC",09-02-2024 22:00:00,28.563262,77.186937,NH3,3,12,5
India,Delhi,Delhi,"Rohini, Delhi - DPCC",09-02-2024 22:00:00,28.732528,77.119920,PM10,75,500,165
India,Delhi,Delhi,"Rohini, Delhi - DPCC",09-02-2024 22:00:00,28.732528,77.119920,CO,15,159,159
India,Delhi,Delhi,"Shadipur, Delhi - CPCB",09-02-2024 22:00:00,28.6514781,77.1473105,CO,23,73,43
India,Delhi,Delhi,"Sirifort, Delhi - CPCB",09-02-2024 22:00:00,28.5504249,77.2159377,NH3,5,8,7
India,Delhi,Delhi,"Sonia Vihar, Delhi - DPCC",09-02-2024 22:00:00,28.710508,77.249485,NO2,24,95,52
India,Delhi,Delhi,"Wazirpur, Delhi - DPCC",09-02-2024 22:00:00,28.699793,77.165453,CO,20,75,24
India,Gujarat,Ahmedabad,"Gyaspur, Ahmedabad - IITM",09-02-2024 22:00:00,22.977134,72.553024,PM2.5,86,396,151
India,Gujarat,Ahmedabad,"Gyaspur, Ahmedabad - IITM",09-02-2024 22:00:00,22.977134,72.553024,NO2,9,113,15
India,Gujarat,Ahmedabad,"Maninagar, Ahmedabad - GPCB",09-02-2024 22:00:00,23.002657,72.591912,CO,22,48,32
India,Gujarat,Ahmedabad,"Raikhad, Ahmedabad - IITM",09-02-2024 22:00:00,23.020509,72.579261,PM2.5,9,315,155
India,Gujarat,Ahmedabad,"Rakhial, Ahmedabad - IITM",09-02-2024 22:00:00,23.016834,72.625775,NO2,57,82,73
India,Gujarat,Ahmedabad,"Rakhial, Ahmedabad - IITM",09-02-2024 22:00:00,23.016834,72.625775,NH3,1,8,3
India,Gujarat,Ahmedabad,"Rakhial, Ahmedabad - IITM",09-02-2024 22:00:00,23.016834,72.625775,SO2,2,6,3
India,Gujarat,Ahmedabad,"SAC ISRO Bopal, Ahmedabad - IITM",09-02-2024 22:00:00,23.041137,72.456691,NO2,16,29,22
India,Gujarat,Ahmedabad,"SAC ISRO Satellite, Ahmedabad - IITM",09-02-2024 22:00:00,23.023389,72.515201,CO,22,44,33
India,Gujarat,Ahmedabad,"SVPI Airport Hansol, Ahmedabad - IITM",09-02-2024 22:00:00,23.076793,72.627874,OZONE,11,28,28
India,Gujarat,Ahmedabad,"Sardar Vallabhbhai Patel Stadium, Ahmedabad - IITM",09-02-2024 22:00:00,23.043070,72.562968,NH3,NA,NA,NA
India,Gujarat,Ahmedabad,"Sardar Vallabhbhai Patel Stadium, Ahmedabad - IITM",09-02-2024 22:00:00,23.043070,72.562968,SO2,NA,NA,NA
India,Gujarat,Ankleshwar,"GIDC, Ankleshwar - GPCB",09-02-2024 22:00:00,21.613267,73.010555,SO2,14,124,66
India,Gujarat,Gandhinagar,"GIFT City, Gandhinagar - IITM",09-02-2024 22:00:00,23.163798,72.677768,PM2.5,44,98,67
India,Gujarat,Gandhinagar,"GIFT City, Gandhinagar - IITM",09-02-2024 22:00:00,23.163798,72.677768,NH3,6,6,6
India,Gujarat,Gandhinagar,"IIPHG Lekawada, Gandhinagar - IITM",09-02-2024 22:00:00,23.243639,72.68994,NH3,4,5,5
India,Gujarat,Gandhinagar,"IIPHG Lekawada, Gandhinagar - IITM",09-02-2024 22:00:00,23.243639,72.68994,SO2,1,42,10
India,Gujarat,Gandhinagar,"IIPHG Lekawada, Gandhinagar - IITM",09-02-2024 22:00:00,23.243639,72.68994,CO,22,50,32
India,Gujarat,Surat,"Science Center, Surat - SMC",09-02-2024 22:00:00,21.170046,72.795405,PM2.5,2,123,23
India,Gujarat,Vatva,"Phase-4 GIDC, Vatva - GPCB",09-02-2024 22:00:00,22.969611,72.643500,PM10,40,104,64
India,Gujarat,Vatva,"Phase-4 GIDC, Vatva - GPCB",09-02-2024 22:00:00,22.969611,72.643500,SO2,3,10,5
India,Haryana,Bahadurgarh,"Arya Nagar, Bahadurgarh - HSPCB",09-02-2024 22:00:00,28.6701,76.9254,PM2.5,50,191,91
India,Haryana,Bahadurgarh,"Arya Nagar, Bahadurgarh - HSPCB",09-02-2024 22:00:00,28.6701,76.9254,NH3,10,12,11
India,Haryana,Ballabgarh,"Nathu Colony, Ballabgarh - HSPCB",09-02-2024 22:00:00,28.3419248,77.319699,SO2,5,120,21
India,Haryana,Ballabgarh,"Nathu Colony, Ballabgarh - HSPCB",09-02-2024 22:00:00,28.3419248,77.319699,CO,9,139,71
India,Haryana,Bhiwani,"H.B. Colony, Bhiwani - HSPCB",09-02-2024 22:00:00,28.806223,76.141105,PM2.5,51,163,76
India,Haryana,Bhiwani,"H.B. Colony, Bhiwani - HSPCB",09-02-2024 22:00:00,28.806223,76.141105,CO,26,44,36
India,Haryana,Bhiwani,"H.B. Colony, Bhiwani - HSPCB",09-02-2024 22:00:00,28.806223,76.141105,OZONE,7,14,9
India,Haryana,Charkhi Dadri,"Mini Secretariat, Charkhi Dadri - HSPCB",09-02-2024 22:00:00,28.593883,76.270653,OZONE,12,17,15
India,Haryana,Dharuhera,"Municipal Corporation Office, Dharuhera -  HSPCB",09-02-2024 22:00:00,28.206800,76.799700,PM2.5,NA,NA,NA
India,Haryana,Dharuhera,"Municipal Corporation Office, Dharuhera -  HSPCB",09-02-2024 22:00:00,28.206800,76.799700,NO2,NA,NA,NA
India,Haryana,Faridabad,"New Industrial Town, Faridabad - HSPCB",09-02-2024 22:00:00,28.39072,77.30059,PM2.5,82,303,159
India,Haryana,Faridabad,"New Industrial Town, Faridabad - HSPCB",09-02-2024 22:00:00,28.39072,77.30059,PM10,98,198,136
India,Haryana,Faridabad,"New Industrial Town, Faridabad - HSPCB",09-02-2024 22:00:00,28.39072,77.30059,CO,14,34,21
India,Haryana,Faridabad,"Sector 11, Faridabad - HSPCB",09-02-2024 22:00:00,28.376058,77.315741,CO,32,81,46
India,Haryana,Faridabad,"Sector 30, Faridabad - HSPCB",09-02-2024 22:00:00,28.4417,77.3217,PM2.5,106,133,115
India,Haryana,Faridabad,"Sector 30, Faridabad - HSPCB",09-02-2024 22:00:00,28.4417,77.3217,PM10,104,114,108
India,Haryana,Faridabad,"Sector 30, Faridabad - HSPCB",09-02-2024 22:00:00,28.4417,77.3217,CO,66,126,90
India,Haryana,Faridabad,"Sector- 16A, Faridabad - HSPCB",09-02-2024 22:00:00,28.4088421,77.3099081,CO,4,107,41
India,Haryana,Faridabad,"Sector- 16A, Faridabad - HSPCB",09-02-2024 22:00:00,28.4088421,77.3099081,OZONE,14,14,14
India,Haryana,Fatehabad,"Huda Sector, Fatehabad - HSPCB",09-02-2024 22:00:00,29.503664,75.467934,NH3,8,9,9
India,Haryana,Gurugram,"Sector-51, Gurugram - HSPCB",09-02-2024 22:00:00,28.4227,77.0667,PM10,95,500,146
India,Haryana,Gurugram,"Sector-51, Gurugram - HSPCB",09-02-2024 22:00:00,28.4227,77.0667,NO2,13,29,23
India,Haryana,Gurugram,"Teri Gram, Gurugram - HSPCB",09-02-2024 22:00:00,28.4275,77.1465,PM2.5,60,319,159
India,Haryana,Gurugram,"Vikas Sadan, Gurugram - HSPCB",09-02-2024 22:00:00,28.4501238,77.0263051,NO2,5,25,14
India,Haryana,Gurugram,"Vikas Sadan, Gurugram - HSPCB",09-02-2024 22:00:00,28.4501238,77.0263051,CO,54,138,94
India,Haryana,Hisar,"Urban Estate-II, Hisar - HSPCB",09-02-2024 22:00:00,29.140560,75.744941,NO2,8,33,10
India,Haryana,Jind,"Police Lines, Jind - HSPCB",09-02-2024 22:00:00,29.307814,76.337619,OZONE,2,15,9
India,Haryana,Kaithal,"Rishi Nagar, Kaithal - HSPCB",09-02-2024 22:00:00,29.8006,76.4155,PM2.5,44,330,91
India,Haryana,Karnal,"Sector-12, Karnal - HSPCB",09-02-2024 22:00:00,29.695300,77.002700,PM2.5,49,97,62
India,Haryana,Karnal,"Sector-12, Karnal - HSPCB",09-02-2024 22:00:00,29.695300,77.002700,CO,22,96,56
India,Haryana,Kurukshetra,"Sector-7, Kurukshetra - HSPCB",09-02-2024 22:00:00,29.966942,76.875879,CO,19,101,49
India,Haryana,Mandikhera,"General Hospital, Mandikhera - HSPCB",09-02-2024 22:00:00,27.9002,76.9938,SO2,29,39,33
India,Haryana,Manesar,"Sector-2 IMT, Manesar - HSPCB",09-02-2024 22:00:00,28.360699,76.936090,CO,19,94,38
India,Haryana,Palwal,"Shyam Nagar, Palwal - HSPCB",09-02-2024 22:00:00,28.1485564,77.3320667,PM10,36,108,61
India,Haryana,Palwal,"Shyam Nagar, Palwal - HSPCB",09-02-2024 22:00:00,28.1485564,77.3320667,NH3,2,3,3
India,Haryana,Panipat,"Sector-18, Panipat - HSPCB",09-02-2024 22:00:00,29.497973,76.993331,PM10,85,93,89
India,Haryana,Panipat,"Sector-18, Panipat - HSPCB",09-02-2024 22:00:00,29.497973,76.993331,SO2,12,13,12
India,Haryana,Sirsa,"F-Block, Sirsa - HSPCB",09-02-2024 22:00:00,29.536400,75.015800,PM10,48,91,69
India,Haryana,Sirsa,"F-Block, Sirsa - HSPCB",09-02-2024 22:00:00,29.536400,75.015800,NH3,12,13,13
India,Haryana,Sonipat,"Murthal, Sonipat - HSPCB",09-02-2024 22:00:00,29.027200,77.062100,PM10,58,88,74
India,Haryana,Sonipat,"Murthal, Sonipat - HSPCB",09-02-2024 22:00:00,29.027200,77.062100,CO,12,22,18
India,Haryana,Yamuna Nagar,"Gobind Pura, Yamuna Nagar - HSPCB",09-02-2024 22:00:00,30.1480566,77.2893471,PM2.5,1,334,176
India,Haryana,Yamuna Nagar,"Gobind Pura, Yamuna Nagar - HSPCB",09-02-2024 22:00:00,30.1480566,77.2893471,NH3,1,3,3
India,Haryana,Yamuna Nagar,"Gobind Pura, Yamuna Nagar - HSPCB",09-02-2024 22:00:00,30.1480566,77.2893471,SO2,1,98,9
India,Haryana,Yamuna Nagar,"Gobind Pura, Yamuna Nagar - HSPCB",09-02-2024 22:00:00,30.1480566,77.2893471,OZONE,6,21,12
