country,state,city,station,last_update,latitude,longitude,pollutant_id,pollutant_min,pollutant_max,pollutant_avg
India,Andhra_Pradesh,Amaravati,"Secretariat, Amaravati - APPCB",13-01-2024 19:00:00,16.5150833,80.5181667,SO2,12,19,14
India,Andhra_Pradesh,Amaravati,"Secretariat, Amaravati - APPCB",13-01-2024 19:00:00,16.5150833,80.5181667,CO,6,49,28
India,Andhra_Pradesh,Amaravati,"Secretariat, Amaravati - APPCB",13-01-2024 19:00:00,16.5150833,80.5181667,OZONE,4,74,61
India,Andhra_Pradesh,Anantapur,"Gulzarpet, Anantapur - APPCB",13-01-2024 19:00:00,14.675886,77.593027,NH3,2,3,3
India,Andhra_Pradesh,Anantapur,"Gulzarpet, Anantapur - APPCB",13-01-2024 19:00:00,14.675886,77.593027,CO,27,56,36
India,Andhra_Pradesh,Chittoor,"Gangineni Cheruvu, Chittoor - APPCB",13-01-2024 19:00:00,13.204880,79.097889,NH3,1,4,2
India,Andhra_Pradesh,Kadapa,"Yerramukkapalli, Kadapa - APPCB",13-01-2024 19:00:00,14.465052,78.824187,SO2,1,2,2
India,Andhra_Pradesh,Rajamahendravaram,"Anand Kala Kshetram, Rajamahendravaram - APPCB",13-01-2024 19:00:00,16.9872867,81.7363176,PM2.5,255,312,300
India,Andhra_Pradesh,Rajamahendravaram,"Anand Kala Kshetram, Rajamahendravaram - APPCB",13-01-2024 19:00:00,16.9872867,81.7363176,NO2,18,56,28
India,Andhra_Pradesh,Rajamahendravaram,"Anand Kala Kshetram, Rajamahendravaram - APPCB",13-01-2024 19:00:00,16.9872867,81.7363176,NH3,4,9,5
India,Andhra_Pradesh,Rajamahendravaram,"Anand Kala Kshetram, Rajamahendravaram - APPCB",13-01-2024 19:00:00,16.9872867,81.7363176,SO2,10,29,21
India,Andhra_Pradesh,Tirupati,"Tirumala, Tirupati - APPCB",13-01-2024 19:00:00,13.67,79.35,PM10,77,112,95
India,Andhra_Pradesh,Tirupati,"Tirumala, Tirupati - APPCB",13-01-2024 19:00:00,13.67,79.35,NO2,29,52,40
India,Andhra_Pradesh,Tirupati,"Tirumala, Tirupati - APPCB",13-01-2024 19:00:00,13.67,79.35,OZONE,14,47,39
India,Andhra_Pradesh,Vijayawada,"HB Colony, Vijayawada - APPCB",13-01-2024 19:00:00,16.536107,80.594233,CO,25,26,25
India,Andhra_Pradesh,Vijayawada,"Kanuru, Vijayawada - APPCB",13-01-2024 19:00:00,16.486692,80.699436,PM10,63,285,128
India,Andhra_Pradesh,Vijayawada,"Kanuru, Vijayawada - APPCB",13-01-2024 19:00:00,16.486692,80.699436,SO2,10,10,10
India,Andhra_Pradesh,Visakhapatnam,"GVM Corporation, Visakhapatnam - APPCB",13-01-2024 19:00:00,17.72,83.3,PM2.5,206,328,276
India,Andhra_Pradesh,Visakhapatnam,"GVM Corporation, Visakhapatnam - APPCB",13-01-2024 19:00:00,17.72,83.3,NH3,3,7,5
India,Arunachal_Pradesh,Naharlagun,"Naharlagun, Naharlagun - APSPCB",13-01-2024 19:00:00,27.103358,93.679645,NO2,2,2,2
India,Arunachal_Pradesh,Naharlagun,"Naharlagun, Naharlagun - APSPCB",13-01-2024 19:00:00,27.103358,93.679645,SO2,3,3,3
India,Arunachal_Pradesh,Naharlagun,"Naharlagun, Naharlagun - APSPCB",13-01-2024 19:00:00,27.103358,93.679645,OZONE,2,2,2
India,Assam,Byrnihat,"Central Academy for SFS, Byrnihat - PCBA",13-01-2024 19:00:00,26.071318,91.87488,NH3,2,3,3
India,Assam,Guwahati,"LGBI Airport, Guwahati - PCBA",13-01-2024 19:00:00,26.10887,91.589544,PM10,136,356,219
India,Assam,Guwahati,"LGBI Airport, Guwahati - PCBA",13-01-2024 19:00:00,26.10887,91.589544,NO2,16,62,28
India,Assam,Guwahati,"Pan Bazaar, Guwahati - PCBA",13-01-2024 19:00:00,26.187500,91.744194,PM2.5,173,390,299
India,Assam,Nagaon,"Christianpatty, Nagaon - PCBA",13-01-2024 19:00:00,26.349082,92.68449,SO2,NA,NA,NA
India,Assam,Sivasagar,"Girls College, Sivasagar - PCBA",13-01-2024 19:00:00,26.987634,94.636574,NO2,22,39,29
India,Assam,Sivasagar,"Girls College, Sivasagar - PCBA",13-01-2024 19:00:00,26.987634,94.636574,NH3,2,2,2
India,Assam,Sivasagar,"Girls College, Sivasagar - PCBA",13-01-2024 19:00:00,26.987634,94.636574,CO,22,44,29
India,Assam,Sivasagar,"Girls College, Sivasagar - PCBA",13-01-2024 19:00:00,26.987634,94.636574,OZONE,1,2,1
India,Bihar,Araria,"Kharahiya Basti, Araria - BSPCB",13-01-2024 19:00:00,26.146529,87.454184,NO2,6,8,7
India,Bihar,Araria,"Kharahiya Basti, Araria - BSPCB",13-01-2024 19:00:00,26.146529,87.454184,SO2,15,17,16
India,Bihar,Aurangabad,"Gurdeo Nagar, Aurangabad - BSPCB",13-01-2024 19:00:00,24.75746,84.366208,NH3,4,51,9
India,Bihar,Bettiah,"Kamalnath Nagar, Bettiah - BSPCB",13-01-2024 19:00:00,26.80365,84.51954,SO2,11,17,15
India,Bihar,Bettiah,"Kamalnath Nagar, Bettiah - BSPCB",13-01-2024 19:00:00,26.80365,84.51954,OZONE,63,85,77
India,Bihar,Bhagalpur,"DM Office_Kachari Chowk, Bhagalpur - BSPCB",13-01-2024 19:00:00,25.251013,86.989001,PM2.5,333,408,372
India,Bihar,Bhagalpur,"DM Office_Kachari Chowk, Bhagalpur - BSPCB",13-01-2024 19:00:00,25.251013,86.989001,NO2,22,63,41
India,Bihar,Bhagalpur,"DM Office_Kachari Chowk, Bhagalpur - BSPCB",13-01-2024 19:00:00,25.251013,86.989001,SO2,20,30,24
India,Bihar,Bhagalpur,"DM Office_Kachari Chowk, Bhagalpur - BSPCB",13-01-2024 19:00:00,25.251013,86.989001,CO,40,62,50
India,Bihar,Bhagalpur,"Mayaganj, Bhagalpur - BSPCB",13-01-2024 19:00:00,25.265194,87.012947,SO2,10,14,12
India,Bihar,Gaya,"Collectorate, Gaya - BSPCB",13-01-2024 19:00:00,24.7955,84.9994,SO2,17,26,20
India,Bihar,Gaya,"Kareemganj, Gaya - BSPCB",13-01-2024 19:00:00,24.792403,84.992416,PM10,117,211,162
India,Bihar,Gaya,"Kareemganj, Gaya - BSPCB",13-01-2024 19:00:00,24.792403,84.992416,OZONE,5,30,14
India,Bihar,Gaya,"SFTI Kusdihra, Gaya - BSPCB",13-01-2024 19:00:00,24.762518,84.982348,NH3,3,5,4
India,Bihar,Gaya,"SFTI Kusdihra, Gaya - BSPCB",13-01-2024 19:00:00,24.762518,84.982348,OZONE,11,72,52
India,Bihar,Katihar,"Mirchaibari, Katihar - BSPCB",13-01-2024 19:00:00,25.560083,87.553265,PM2.5,173,402,280
India,Bihar,Katihar,"Mirchaibari, Katihar - BSPCB",13-01-2024 19:00:00,25.560083,87.553265,NO2,18,28,22
India,Bihar,Kishanganj,"SDM Office_Khagra, Kishanganj - BSPCB",13-01-2024 19:00:00,26.0881305,87.93840336,PM2.5,7,318,92
India,Bihar,Kishanganj,"SDM Office_Khagra, Kishanganj - BSPCB",13-01-2024 19:00:00,26.0881305,87.93840336,OZONE,29,45,40
India,Bihar,Manguraha,"Forest Rest House, Manguraha - BSPCB",13-01-2024 19:00:00,27.308328,84.531742,PM2.5,103,273,174
India,Bihar,Manguraha,"Forest Rest House, Manguraha - BSPCB",13-01-2024 19:00:00,27.308328,84.531742,CO,8,72,32
India,Bihar,Motihari,"Gandak Colony, Motihari - BSPCB",13-01-2024 19:00:00,26.63086,84.90051,PM2.5,87,309,169
India,Bihar,Motihari,"Gandak Colony, Motihari - BSPCB",13-01-2024 19:00:00,26.63086,84.90051,PM10,84,176,120
India,Bihar,Munger,"Town Hall, Munger - BSPCB",13-01-2024 19:00:00,25.376776,86.471523,NO2,8,10,9
India,Bihar,Munger,"Town Hall, Munger - BSPCB",13-01-2024 19:00:00,25.376776,86.471523,OZONE,10,20,16
India,Bihar,Muzaffarpur,"Buddha Colony, Muzaffarpur - BSPCB",13-01-2024 19:00:00,26.11442,85.39813,NO2,30,64,43
India,Bihar,Muzaffarpur,"Buddha Colony, Muzaffarpur - BSPCB",13-01-2024 19:00:00,26.11442,85.39813,SO2,7,16,9
India,Bihar,Muzaffarpur,"Buddha Colony, Muzaffarpur - BSPCB",13-01-2024 19:00:00,26.11442,85.39813,CO,38,106,50
India,Bihar,Muzaffarpur,"Buddha Colony, Muzaffarpur - BSPCB",13-01-2024 19:00:00,26.11442,85.39813,OZONE,22,66,48
India,Bihar,Muzaffarpur,"MIT-Daudpur Kothi, Muzaffarpur - BSPCB",13-01-2024 19:00:00,26.1403345,85.3650192,PM2.5,120,410,242
India,Bihar,Patna,"DRM Office Danapur, Patna - BSPCB",13-01-2024 19:00:00,25.586562,85.043586,PM2.5,307,427,363
India,Bihar,Patna,"Govt. High School Shikarpur, Patna - BSPCB",13-01-2024 19:00:00,25.592539,85.227158,PM10,85,252,132
India,Bihar,Patna,"Govt. High School Shikarpur, Patna - BSPCB",13-01-2024 19:00:00,25.592539,85.227158,CO,74,116,104
India,Bihar,Patna,"Govt. High School Shikarpur, Patna - BSPCB",13-01-2024 19:00:00,25.592539,85.227158,OZONE,9,42,26
India,Bihar,Patna,"IGSC Planetarium Complex, Patna - BSPCB",13-01-2024 19:00:00,25.610369,85.132568,NO2,11,34,18
India,Bihar,Patna,"Muradpur, Patna - BSPCB",13-01-2024 19:00:00,25.619651,85.147382,PM10,385,446,425
India,Bihar,Patna,"Muradpur, Patna - BSPCB",13-01-2024 19:00:00,25.619651,85.147382,NO2,9,43,17
India,Bihar,Patna,"Muradpur, Patna - BSPCB",13-01-2024 19:00:00,25.619651,85.147382,CO,73,120,90
India,Bihar,Purnia,"Mariam Nagar, Purnia - BSPCB",13-01-2024 19:00:00,25.366336,87.117468,NH3,2,2,2
India,Bihar,Saharsa,"Police Line, Saharsa - BSPCB",13-01-2024 19:00:00,25.892357,86.590325,CO,2,19,14
India,Bihar,Samastipur,"DM Office_Kasipur, Samastipur - BSPCB",13-01-2024 19:00:00,25.859655,85.77944,SO2,10,17,13
India,Bihar,Sasaram,"Dada Peer, Sasaram - BSPCB",13-01-2024 19:00:00,24.952822,84.002396,PM2.5,110,309,207
India,Bihar,Sasaram,"Dada Peer, Sasaram - BSPCB",13-01-2024 19:00:00,24.952822,84.002396,CO,36,59,39
India,Chandigarh,Chandigarh,"Sector 22, Chandigarh - CPCC",13-01-2024 19:00:00,30.735567,76.775714,PM10,260,434,353
India,Chandigarh,Chandigarh,"Sector 22, Chandigarh - CPCC",13-01-2024 19:00:00,30.735567,76.775714,NO2,NA,NA,NA
India,Chandigarh,Chandigarh,"Sector 22, Chandigarh - CPCC",13-01-2024 19:00:00,30.735567,76.775714,SO2,4,38,10
India,Chandigarh,Chandigarh,"Sector-53, Chandigarh - CPCC",13-01-2024 19:00:00,30.719859,76.738637,PM2.5,380,477,425
India,Chandigarh,Chandigarh,"Sector-53, Chandigarh - CPCC",13-01-2024 19:00:00,30.719859,76.738637,PM10,247,430,344
India,Chandigarh,Chandigarh,"Sector-53, Chandigarh - CPCC",13-01-2024 19:00:00,30.719859,76.738637,NO2,69,105,80
India,Chandigarh,Chandigarh,"Sector-53, Chandigarh - CPCC",13-01-2024 19:00:00,30.719859,76.738637,NH3,6,7,6
India,Chandigarh,Chandigarh,"Sector-53, Chandigarh - CPCC",13-01-2024 19:00:00,30.719859,76.738637,CO,84,115,92
India,Chhattisgarh,Bhilai,"32Bungalows, Bhilai - CECB",13-01-2024 19:00:00,21.194815,81.314770,NH3,6,6,6
India,Chhattisgarh,Bhilai,"Hathkhoj, Bhilai - CECB",13-01-2024 19:00:00,21.224231,81.408350,PM10,77,175,112
India,Chhattisgarh,Chhal,"Nawapara SECL Colony, Chhal - CECB",13-01-2024 19:00:00,22.118125,83.140608,PM2.5,19,57,32
India,Chhattisgarh,Korba,"Rampur, Korba - CECB",13-01-2024 19:00:00,22.368195,82.746431,SO2,8,86,24
India,Chhattisgarh,Korba,"Rampur, Korba - CECB",13-01-2024 19:00:00,22.368195,82.746431,CO,16,30,21
India,Chhattisgarh,Korba,"Urja Nagar, Korba - CECB",13-01-2024 19:00:00,22.348441,82.549611,PM10,15,51,27
India,Chhattisgarh,Korba,"Urja Nagar, Korba - CECB",13-01-2024 19:00:00,22.348441,82.549611,NO2,52,62,58
India,Chhattisgarh,Korba,"Urja Nagar, Korba - CECB",13-01-2024 19:00:00,22.348441,82.549611,OZONE,47,48,48
India,Chhattisgarh,Kunjemura,"OP Jindal School, Kunjemura - CECB",13-01-2024 19:00:00,22.126650,83.483212,NO2,15,120,51
India,Chhattisgarh,Milupara,"Govt. Higher Secondary School, Milupara - CECB",13-01-2024 19:00:00,22.1910172,83.5197009,PM2.5,12,45,24
India,Chhattisgarh,Milupara,"Govt. Higher Secondary School, Milupara - CECB",13-01-2024 19:00:00,22.1910172,83.5197009,NO2,9,44,20
India,Chhattisgarh,Milupara,"Govt. Higher Secondary School, Milupara - CECB",13-01-2024 19:00:00,22.1910172,83.5197009,NH3,1,2,1
India,Chhattisgarh,Raipur,"AIIMS, Raipur - CECB",13-01-2024 19:00:00,21.258815,81.578979,OZONE,1,9,5
India,Chhattisgarh,Raipur,"Bhatagaon New ISBT, Raipur - CECB",13-01-2024 19:00:00,21.219665,81.630094,PM2.5,28,81,46
India,Chhattisgarh,Raipur,"Krishak Nagar, Raipur - CECB",13-01-2024 19:00:00,21.237755,81.705301,PM10,46,124,83
India,Chhattisgarh,Raipur,"Krishak Nagar, Raipur - CECB",13-01-2024 19:00:00,21.237755,81.705301,SO2,8,12,10
India,Chhattisgarh,Raipur,"Siltara Phase-II, Raipur - CECB",13-01-2024 19:00:00,21.371751,81.664929,NO2,9,22,14
India,Delhi,Delhi,"Alipur, Delhi - DPCC",13-01-2024 19:00:00,28.815329,77.153010,PM2.5,268,450,369
India,Delhi,Delhi,"Alipur, Delhi - DPCC",13-01-2024 19:00:00,28.815329,77.153010,PM10,117,369,227
India,Delhi,Delhi,"Alipur, Delhi - DPCC",13-01-2024 19:00:00,28.815329,77.153010,NH3,2,5,3
India,Delhi,Delhi,"Anand Vihar, Delhi - DPCC",13-01-2024 19:00:00,28.647622,77.3158090,NO2,55,189,120
India,Delhi,Delhi,"Anand Vihar, Delhi - DPCC",13-01-2024 19:00:00,28.647622,77.3158090,NH3,9,12,11
India,Delhi,Delhi,"Ashok Vihar, Delhi - DPCC",13-01-2024 19:00:00,28.695381,77.181665,PM2.5,328,494,409
India,Delhi,Delhi,"Ashok Vihar, Delhi - DPCC",13-01-2024 19:00:00,28.695381,77.181665,NH3,11,19,14
India,Delhi,Delhi,"Ashok Vihar, Delhi - DPCC",13-01-2024 19:00:00,28.695381,77.181665,SO2,13,25,18
India,Delhi,Delhi,"Aya Nagar, Delhi - IMD",13-01-2024 19:00:00,28.4706914,77.1099364,NO2,1,25,5
India,Delhi,Delhi,"Aya Nagar, Delhi - IMD",13-01-2024 19:00:00,28.4706914,77.1099364,CO,100,122,115
India,Delhi,Delhi,"Aya Nagar, Delhi - IMD",13-01-2024 19:00:00,28.4706914,77.1099364,OZONE,2,17,11
India,Delhi,Delhi,"Bawana, Delhi - DPCC",13-01-2024 19:00:00,28.776200,77.051074,PM2.5,323,500,430
India,Delhi,Delhi,"Bawana, Delhi - DPCC",13-01-2024 19:00:00,28.776200,77.051074,PM10,170,482,383
India,Delhi,Delhi,"Bawana, Delhi - DPCC",13-01-2024 19:00:00,28.776200,77.051074,CO,88,108,104
India,Delhi,Delhi,"Burari Crossing, Delhi - IMD",13-01-2024 19:00:00,28.7256504,77.2011573,PM10,163,444,334
India,Delhi,Delhi,"Burari Crossing, Delhi - IMD",13-01-2024 19:00:00,28.7256504,77.2011573,NO2,6,18,14
India,Delhi,Delhi,"CRRI Mathura Road, Delhi - IMD",13-01-2024 19:00:00,28.5512005,77.2735737,NO2,21,27,25
India,Delhi,Delhi,"DTU, Delhi - CPCB",13-01-2024 19:00:00,28.7500499,77.1112615,NO2,2,99,43
India,Delhi,Delhi,"DTU, Delhi - CPCB",13-01-2024 19:00:00,28.7500499,77.1112615,NH3,15,25,21
India,Delhi,Delhi,"DTU, Delhi - CPCB",13-01-2024 19:00:00,28.7500499,77.1112615,SO2,25,28,26
India,Delhi,Delhi,"Dwarka-Sector 8, Delhi - DPCC ",13-01-2024 19:00:00,28.5710274,77.0719006,NH3,14,22,17
India,Delhi,Delhi,"IGI Airport (T3), Delhi - IMD",13-01-2024 19:00:00,28.5627763,77.1180053,CO,54,135,79
India,Delhi,Delhi,"IGI Airport (T3), Delhi - IMD",13-01-2024 19:00:00,28.5627763,77.1180053,OZONE,22,55,43
India,Delhi,Delhi,"IHBAS, Dilshad Garden, Delhi - CPCB",13-01-2024 19:00:00,28.6811736,77.3025234,PM10,152,425,261
India,Delhi,Delhi,"IHBAS, Dilshad Garden, Delhi - CPCB",13-01-2024 19:00:00,28.6811736,77.3025234,NH3,1,5,3
India,Delhi,Delhi,"IHBAS, Dilshad Garden, Delhi - CPCB",13-01-2024 19:00:00,28.6811736,77.3025234,CO,14,108,68
India,Delhi,Delhi,"ITO, Delhi - CPCB",13-01-2024 19:00:00,28.628624,77.241060,PM2.5,315,500,406
India,Delhi,Delhi,"ITO, Delhi - CPCB",13-01-2024 19:00:00,28.628624,77.241060,NH3,9,13,11
India,Delhi,Delhi,"Jawaharlal Nehru Stadium, Delhi - DPCC",13-01-2024 19:00:00,28.580280,77.233829,NO2,54,194,117
India,Delhi,Delhi,"Jawaharlal Nehru Stadium, Delhi - DPCC",13-01-2024 19:00:00,28.580280,77.233829,OZONE,8,45,36
India,Delhi,Delhi,"Lodhi Road, Delhi - IITM",13-01-2024 19:00:00,28.588333,77.221667,PM10,35,412,139
India,Delhi,Delhi,"Lodhi Road, Delhi - IITM",13-01-2024 19:00:00,28.588333,77.221667,NH3,12,17,13
India,Delhi,Delhi,"Lodhi Road, Delhi - IMD",13-01-2024 19:00:00,28.5918245,77.2273074,PM10,151,500,351
India,Delhi,Delhi,"Mandir Marg, Delhi - DPCC",13-01-2024 19:00:00,28.636429,77.201067,PM10,276,500,403
India,Delhi,Delhi,"Mandir Marg, Delhi - DPCC",13-01-2024 19:00:00,28.636429,77.201067,OZONE,5,19,13
India,Delhi,Delhi,"Mundka, Delhi - DPCC",13-01-2024 19:00:00,28.684678,77.076574,PM2.5,400,500,464
India,Delhi,Delhi,"Mundka, Delhi - DPCC",13-01-2024 19:00:00,28.684678,77.076574,NO2,33,136,77
India,Delhi,Delhi,"Mundka, Delhi - DPCC",13-01-2024 19:00:00,28.684678,77.076574,OZONE,1,45,23
India,Delhi,Delhi,"NSIT Dwarka, Delhi - CPCB",13-01-2024 19:00:00,28.60909,77.0325413,SO2,6,16,11
India,Delhi,Delhi,"NSIT Dwarka, Delhi - CPCB",13-01-2024 19:00:00,28.60909,77.0325413,CO,24,61,30
India,Delhi,Delhi,"NSIT Dwarka, Delhi - CPCB",13-01-2024 19:00:00,28.60909,77.0325413,OZONE,18,82,44
India,Delhi,Delhi,"Najafgarh, Delhi - DPCC",13-01-2024 19:00:00,28.570173,76.933762,NO2,17,76,39
India,Delhi,Delhi,"Nehru Nagar, Delhi - DPCC",13-01-2024 19:00:00,28.567890,77.250515,SO2,7,25,13
India,Delhi,Delhi,"Nehru Nagar, Delhi - DPCC",13-01-2024 19:00:00,28.567890,77.250515,OZONE,1,68,33
India,Delhi,Delhi,"North Campus, DU, Delhi - IMD",13-01-2024 19:00:00,28.6573814,77.1585447,CO,66,98,90
India,Delhi,Delhi,"Okhla Phase-2, Delhi - DPCC",13-01-2024 19:00:00,28.530785,77.271255,PM2.5,380,500,459
India,Delhi,Delhi,"Okhla Phase-2, Delhi - DPCC",13-01-2024 19:00:00,28.530785,77.271255,NO2,NA,NA,NA
India,Delhi,Delhi,"Patparganj, Delhi - DPCC",13-01-2024 19:00:00,28.623763,77.287209,NO2,43,139,80
India,Delhi,Delhi,"Punjabi Bagh, Delhi - DPCC",13-01-2024 19:00:00,28.674045,77.131023,PM2.5,388,500,468
India,Delhi,Delhi,"Pusa, Delhi - DPCC",13-01-2024 19:00:00,28.639652,77.146275,NO2,85,415,226
India,Delhi,Delhi,"Pusa, Delhi - IMD",13-01-2024 19:00:00,28.636110,77.173332,PM10,147,470,319
India,Delhi,Delhi,"R K Puram, Delhi - DPCC",13-01-2024 19:00:00,28.563262,77.186937,PM2.5,405,500,460
India,Delhi,Delhi,"R K Puram, Delhi - DPCC",13-01-2024 19:00:00,28.563262,77.186937,OZONE,9,58,35
India,Delhi,Delhi,"Rohini, Delhi - DPCC",13-01-2024 19:00:00,28.732528,77.119920,PM10,189,499,390
India,Delhi,Delhi,"Rohini, Delhi - DPCC",13-01-2024 19:00:00,28.732528,77.119920,NH3,9,14,12
India,Delhi,Delhi,"Rohini, Delhi - DPCC",13-01-2024 19:00:00,28.732528,77.119920,SO2,8,17,12
India,Delhi,Delhi,"Shadipur, Delhi - CPCB",13-01-2024 19:00:00,28.6514781,77.1473105,PM2.5,337,497,417
India,Delhi,Delhi,"Shadipur, Delhi - CPCB",13-01-2024 19:00:00,28.6514781,77.1473105,PM10,373,500,444
India,Delhi,Delhi,"Shadipur, Delhi - CPCB",13-01-2024 19:00:00,28.6514781,77.1473105,SO2,6,24,15
India,Delhi,Delhi,"Sirifort, Delhi - CPCB",13-01-2024 19:00:00,28.5504249,77.2159377,SO2,27,34,30
India,Delhi,Delhi,"Sonia Vihar, Delhi - DPCC",13-01-2024 19:00:00,28.710508,77.249485,PM2.5,351,500,428
India,Delhi,Delhi,"Sonia Vihar, Delhi - DPCC",13-01-2024 19:00:00,28.710508,77.249485,SO2,4,9,6
India,Delhi,Delhi,"Vivek Vihar, Delhi - DPCC",13-01-2024 19:00:00,28.672342,77.315260,SO2,7,8,8
India,Delhi,Delhi,"Wazirpur, Delhi - DPCC",13-01-2024 19:00:00,28.699793,77.165453,OZONE,3,64,33
India,Gujarat,Ahmedabad,"Chandkheda, Ahmedabad - IITM",13-01-2024 19:00:00,23.107969,72.574648,NO2,30,35,32
India,Gujarat,Ahmedabad,"Chandkheda, Ahmedabad - IITM",13-01-2024 19:00:00,23.107969,72.574648,CO,8,37,14
India,Gujarat,Ahmedabad,"Chandkheda, Ahmedabad - IITM",13-01-2024 19:00:00,23.107969,72.574648,OZONE,20,23,22
India,Gujarat,Ahmedabad,"Gyaspur, Ahmedabad - IITM",13-01-2024 19:00:00,22.977134,72.553024,PM2.5,65,327,137
India,Gujarat,Ahmedabad,"Maninagar, Ahmedabad - GPCB",13-01-2024 19:00:00,23.002657,72.591912,PM10,49,144,117
India,Gujarat,Ahmedabad,"Raikhad, Ahmedabad - IITM",13-01-2024 19:00:00,23.020509,72.579261,CO,22,92,43
India,Gujarat,Ahmedabad,"Rakhial, Ahmedabad - IITM",13-01-2024 19:00:00,23.016834,72.625775,NH3,1,7,4
India,Gujarat,Ahmedabad,"Rakhial, Ahmedabad - IITM",13-01-2024 19:00:00,23.016834,72.625775,SO2,3,16,5
India,Gujarat,Ahmedabad,"SAC ISRO Bopal, Ahmedabad - IITM",13-01-2024 19:00:00,23.041137,72.456691,PM2.5,46,305,139
India,Gujarat,Ahmedabad,"SAC ISRO Satellite, Ahmedabad - IITM",13-01-2024 19:00:00,23.023389,72.515201,SO2,4,6,5
India,Gujarat,Ahmedabad,"SVPI Airport Hansol, Ahmedabad - IITM",13-01-2024 19:00:00,23.076793,72.627874,PM10,53,125,93
India,Gujarat,Ahmedabad,"SVPI Airport Hansol, Ahmedabad - IITM",13-01-2024 19:00:00,23.076793,72.627874,NO2,15,16,15
India,Gujarat,Ahmedabad,"SVPI Airport Hansol, Ahmedabad - IITM",13-01-2024 19:00:00,23.076793,72.627874,OZONE,4,21,16
India,Gujarat,Gandhinagar,"GIFT City, Gandhinagar - IITM",13-01-2024 19:00:00,23.163798,72.677768,NO2,6,8,7
India,Gujarat,Gandhinagar,"GIFT City, Gandhinagar - IITM",13-01-2024 19:00:00,23.163798,72.677768,SO2,5,7,6
India,Gujarat,Gandhinagar,"IIPHG Lekawada, Gandhinagar - IITM",13-01-2024 19:00:00,23.243639,72.68994,PM2.5,61,177,98
India,Gujarat,Gandhinagar,"IIPHG Lekawada, Gandhinagar - IITM",13-01-2024 19:00:00,23.243639,72.68994,NH3,3,3,3
India,Gujarat,Gandhinagar,"Sector-10, Gandhinagar - GPCB",13-01-2024 19:00:00,23.221714,72.654328,PM2.5,21,70,45
India,Gujarat,Gandhinagar,"Sector-10, Gandhinagar - GPCB",13-01-2024 19:00:00,23.221714,72.654328,NO2,8,12,10
India,Gujarat,Gandhinagar,"Sector-10, Gandhinagar - GPCB",13-01-2024 19:00:00,23.221714,72.654328,SO2,9,11,9
India,Gujarat,Surat,"Science Center, Surat - SMC",13-01-2024 19:00:00,21.170046,72.795405,PM2.5,45,103,76
India,Gujarat,Surat,"Science Center, Surat - SMC",13-01-2024 19:00:00,21.170046,72.795405,SO2,14,17,15
India,Gujarat,Vatva,"Phase-4 GIDC, Vatva - GPCB",13-01-2024 19:00:00,22.969611,72.643500,CO,38,40,39
India,Gujarat,Vatva,"Phase-4 GIDC, Vatva - GPCB",13-01-2024 19:00:00,22.969611,72.643500,OZONE,5,39,28
India,Haryana,Ambala,"Patti Mehar, Ambala - HSPCB",13-01-2024 19:00:00,30.379589,76.778328,PM2.5,NA,NA,NA
India,Haryana,Ambala,"Patti Mehar, Ambala - HSPCB",13-01-2024 19:00:00,30.379589,76.778328,NO2,NA,NA,NA
India,Haryana,Bahadurgarh,"Arya Nagar, Bahadurgarh - HSPCB",13-01-2024 19:00:00,28.6701,76.9254,PM10,148,416,234
India,Haryana,Ballabgarh,"Nathu Colony, Ballabgarh - HSPCB",13-01-2024 19:00:00,28.3419248,77.319699,OZONE,3,21,15
India,Haryana,Bhiwani,"H.B. Colony, Bhiwani - HSPCB",13-01-2024 19:00:00,28.806223,76.141105,SO2,1,50,20
India,Haryana,Dharuhera,"Municipal Corporation Office, Dharuhera -  HSPCB",13-01-2024 19:00:00,28.206800,76.799700,OZONE,1,77,46
India,Haryana,Faridabad,"New Industrial Town, Faridabad - HSPCB",13-01-2024 19:00:00,28.39072,77.30059,PM10,389,500,446
India,Haryana,Faridabad,"New Industrial Town, Faridabad - HSPCB",13-01-2024 19:00:00,28.39072,77.30059,NH3,4,10,6
India,Haryana,Faridabad,"New Industrial Town, Faridabad - HSPCB",13-01-2024 19:00:00,28.39072,77.30059,OZONE,33,82,54
India,Haryana,Faridabad,"Sector 11, Faridabad - HSPCB",13-01-2024 19:00:00,28.376058,77.315741,PM10,151,500,358
India,Haryana,Faridabad,"Sector 30, Faridabad - HSPCB",13-01-2024 19:00:00,28.4417,77.3217,NH3,14,14,14
India,Haryana,Faridabad,"Sector- 16A, Faridabad - HSPCB",13-01-2024 19:00:00,28.4088421,77.3099081,CO,24,125,68
India,Haryana,Fatehabad,"Huda Sector, Fatehabad - HSPCB",13-01-2024 19:00:00,29.503664,75.467934,NO2,28,32,30
India,Haryana,Fatehabad,"Huda Sector, Fatehabad - HSPCB",13-01-2024 19:00:00,29.503664,75.467934,CO,5,14,7
India,Haryana,Gurugram,"Teri Gram, Gurugram - HSPCB",13-01-2024 19:00:00,28.4275,77.1465,CO,33,102,75
India,Haryana,Gurugram,"Teri Gram, Gurugram - HSPCB",13-01-2024 19:00:00,28.4275,77.1465,OZONE,10,24,24
India,Haryana,Hisar,"Urban Estate-II, Hisar - HSPCB",13-01-2024 19:00:00,29.140560,75.744941,PM2.5,NA,NA,NA
India,Haryana,Hisar,"Urban Estate-II, Hisar - HSPCB",13-01-2024 19:00:00,29.140560,75.744941,SO2,4,11,7
India,Haryana,Kaithal,"Rishi Nagar, Kaithal - HSPCB",13-01-2024 19:00:00,29.8006,76.4155,OZONE,9,23,18
India,Haryana,Karnal,"Sector-12, Karnal - HSPCB",13-01-2024 19:00:00,29.695300,77.002700,PM2.5,171,304,221
India,Haryana,Mandikhera,"General Hospital, Mandikhera - HSPCB",13-01-2024 19:00:00,27.9002,76.9938,NH3,18,21,19
India,Haryana,Mandikhera,"General Hospital, Mandikhera - HSPCB",13-01-2024 19:00:00,27.9002,76.9938,CO,16,71,33
India,Haryana,Manesar,"Sector-2 IMT, Manesar - HSPCB",13-01-2024 19:00:00,28.360699,76.936090,PM2.5,168,352,310
India,Haryana,Manesar,"Sector-2 IMT, Manesar - HSPCB",13-01-2024 19:00:00,28.360699,76.936090,PM10,124,267,201
India,Haryana,Manesar,"Sector-2 IMT, Manesar - HSPCB",13-01-2024 19:00:00,28.360699,76.936090,OZONE,5,37,25
India,Haryana,Narnaul,"Shastri Nagar, Narnaul - HSPCB",13-01-2024 19:00:00,28.060249,76.113115,PM10,63,235,120
India,Haryana,Narnaul,"Shastri Nagar, Narnaul - HSPCB",13-01-2024 19:00:00,28.060249,76.113115,NH3,5,15,11
India,Haryana,Narnaul,"Shastri Nagar, Narnaul - HSPCB",13-01-2024 19:00:00,28.060249,76.113115,SO2,10,74,27
India,Haryana,Palwal,"Shyam Nagar, Palwal - HSPCB",13-01-2024 19:00:00,28.1485564,77.3320667,NH3,2,3,3
India,Haryana,Palwal,"Shyam Nagar, Palwal - HSPCB",13-01-2024 19:00:00,28.1485564,77.3320667,CO,17,24,22
India,Haryana,Panipat,"Sector-18, Panipat - HSPCB",13-01-2024 19:00:00,29.497973,76.993331,NH3,2,3,2
India,Haryana,Rohtak,"MD University, Rohtak - HSPCB",13-01-2024 19:00:00,28.52123,76.37138,PM2.5,136,322,238
India,Haryana,Rohtak,"MD University, Rohtak - HSPCB",13-01-2024 19:00:00,28.52123,76.37138,OZONE,44,52,48
India,Haryana,Sirsa,"F-Block, Sirsa - HSPCB",13-01-2024 19:00:00,29.536400,75.015800,SO2,4,8,6
India,Haryana,Sonipat,"Murthal, Sonipat - HSPCB",13-01-2024 19:00:00,29.027200,77.062100,SO2,13,29,20
India,Haryana,Yamuna Nagar,"Gobind Pura, Yamuna Nagar - HSPCB",13-01-2024 19:00:00,30.1480566,77.2893471,PM10,91,368,152
India,Haryana,Yamuna Nagar,"Gobind Pura, Yamuna Nagar - HSPCB",13-01-2024 19:00:00,30.1480566,77.2893471,NO2,11,29,18
India,Himachal Pradesh,Baddi,"HIMUDA Complex Phase-1, Baddi - HPPCB",13-01-2024 19:00:00,30.943887,76.801991,NH3,6,11,8
India,Himachal Pradesh,Baddi,"HIMUDA Complex Phase-1, Baddi - HPPCB",13-01-2024 19:00:00,30.943887,76.801991,SO2,24,130,87
India,Himachal Pradesh,Baddi,"HIMUDA Complex Phase-1, Baddi - HPPCB",13-01-2024 19:00:00,30.943887,76.801991,OZONE,9,77,50
India,Jharkhand,Dhanbad,"Kalakusuma, Dhanbad - DMC",13-01-2024 19:00:00,23.811548,86.481238,PM2.5,8,136,46
India,Jharkhand,Dhanbad,"Kalakusuma, Dhanbad - DMC",13-01-2024 19:00:00,23.811548,86.481238,PM10,50,162,103
India,Jharkhand,Dhanbad,"Kalakusuma, Dhanbad - DMC",13-01-2024 19:00:00,23.811548,86.481238,CO,105,114,109
India,Jharkhand,Dhanbad,"Sardar Patel Nagar, Dhanbad - JSPCB",13-01-2024 19:00:00,23.80569,86.44268,PM2.5,52,247,102
India,Jharkhand,Pathardih,"Mohalbani Ghat, Pathardih - DMC",13-01-2024 19:00:00,23.669880,86.411725,CO,6,6,6
India,Karnataka,Belgaum,"Ramteerth Nagar, Belgaum - KSPCB",13-01-2024 19:00:00,15.888653,74.541751,CO,34,58,47
India,Karnataka,Bengaluru,"BTM Layout, Bengaluru - CPCB",13-01-2024 19:00:00,12.9135218,77.5950804,CO,14,39,29
India,Karnataka,Bengaluru,"BTM Layout, Bengaluru - CPCB",13-01-2024 19:00:00,12.9135218,77.5950804,OZONE,15,31,21
India,Karnataka,Bengaluru,"Bapuji Nagar, Bengaluru - KSPCB",13-01-2024 19:00:00,12.951913,77.539784,PM2.5,116,211,154
India,Karnataka,Bengaluru,"Hebbal, Bengaluru - KSPCB",13-01-2024 19:00:00,13.029152,77.585901,PM10,NA,NA,NA
India,Karnataka,Bengaluru,"Hebbal, Bengaluru - KSPCB",13-01-2024 19:00:00,13.029152,77.585901,NH3,NA,NA,NA
India,Karnataka,Bengaluru,"Hebbal, Bengaluru - KSPCB",13-01-2024 19:00:00,13.029152,77.585901,CO,NA,NA,NA
India,Karnataka,Bengaluru,"Hombegowda Nagar, Bengaluru - KSPCB",13-01-2024 19:00:00,12.938539,77.590100,PM2.5,47,75,63
India,Karnataka,Bengaluru,"Jayanagar 5th Block, Bengaluru - KSPCB",13-01-2024 19:00:00,12.920984,77.584908,PM2.5,97,176,140
India,Karnataka,Bengaluru,"Jayanagar 5th Block, Bengaluru - KSPCB",13-01-2024 19:00:00,12.920984,77.584908,NO2,10,13,11
India,Karnataka,Bengaluru,"Jayanagar 5th Block, Bengaluru - KSPCB",13-01-2024 19:00:00,12.920984,77.584908,OZONE,18,19,18
India,Karnataka,Bengaluru,"Jigani, Bengaluru - KSPCB",13-01-2024 19:00:00,12.7816279,77.6299145,NO2,34,36,35
India,Karnataka,Bengaluru,"Jigani, Bengaluru - KSPCB",13-01-2024 19:00:00,12.7816279,77.6299145,CO,44,71,52
India,Karnataka,Bengaluru,"Kasturi Nagar, Bengaluru - KSPCB",13-01-2024 19:00:00,13.003872,77.664217,NO2,16,17,17
India,Karnataka,Bengaluru,"Kasturi Nagar, Bengaluru - KSPCB",13-01-2024 19:00:00,13.003872,77.664217,NH3,3,4,4
India,Karnataka,Bengaluru,"Kasturi Nagar, Bengaluru - KSPCB",13-01-2024 19:00:00,13.003872,77.664217,CO,24,26,25
India,Karnataka,Bengaluru,"RVCE-Mailasandra, Bengaluru - KSPCB",13-01-2024 19:00:00,12.921418,77.502466,PM2.5,57,100,78
India,Karnataka,Bengaluru,"RVCE-Mailasandra, Bengaluru - KSPCB",13-01-2024 19:00:00,12.921418,77.502466,CO,40,61,46
India,Karnataka,Bengaluru,"Shivapura_Peenya, Bengaluru - KSPCB",13-01-2024 19:00:00,13.0246342,77.5080115,CO,29,52,36
India,Karnataka,Bengaluru,"Silk Board, Bengaluru - KSPCB",13-01-2024 19:00:00,12.917348,77.622813,PM2.5,60,99,76
India,Karnataka,Bengaluru,"Silk Board, Bengaluru - KSPCB",13-01-2024 19:00:00,12.917348,77.622813,SO2,6,11,8
India,Karnataka,Bengaluru,"Silk Board, Bengaluru - KSPCB",13-01-2024 19:00:00,12.917348,77.622813,OZONE,29,31,30
India,Karnataka,Bidar,"Naubad, Bidar - KSPCB",13-01-2024 19:00:00,17.930306,77.482194,PM2.5,109,274,178
India,Karnataka,Bidar,"Naubad, Bidar - KSPCB",13-01-2024 19:00:00,17.930306,77.482194,PM10,103,123,109
India,Karnataka,Bidar,"Naubad, Bidar - KSPCB",13-01-2024 19:00:00,17.930306,77.482194,NH3,2,3,3
India,Karnataka,Bidar,"Naubad, Bidar - KSPCB",13-01-2024 19:00:00,17.930306,77.482194,SO2,15,25,17
India,Karnataka,Bidar,"Naubad, Bidar - KSPCB",13-01-2024 19:00:00,17.930306,77.482194,OZONE,19,47,40
India,Karnataka,Chamarajanagar,"Urban, Chamarajanagar - KSPCB",13-01-2024 19:00:00,11.55358,76.55521,PM10,33,41,35
India,Karnataka,Chamarajanagar,"Urban, Chamarajanagar - KSPCB",13-01-2024 19:00:00,11.55358,76.55521,OZONE,14,22,15
India,Karnataka,Chikkaballapur,"Chikkaballapur Rural, Chikkaballapur - KSPCB",13-01-2024 19:00:00,13.428828,77.731418,OZONE,24,27,25
India,Karnataka,Chikkamagaluru,"Kalyana Nagara, Chikkamagaluru - KSPCB",13-01-2024 19:00:00,13.328028,75.797056,PM2.5,39,63,53
India,Karnataka,Chikkamagaluru,"Kalyana Nagara, Chikkamagaluru - KSPCB",13-01-2024 19:00:00,13.328028,75.797056,CO,11,102,38
India,Karnataka,Davanagere,"Devaraj Urs Badavane, Davanagere - KSPCB",13-01-2024 19:00:00,14.475800,75.905200,PM10,54,113,86
India,Karnataka,Davanagere,"Devaraj Urs Badavane, Davanagere - KSPCB",13-01-2024 19:00:00,14.475800,75.905200,NO2,7,13,11
India,Karnataka,Davanagere,"Devaraj Urs Badavane, Davanagere - KSPCB",13-01-2024 19:00:00,14.475800,75.905200,NH3,1,1,1
India,Karnataka,Dharwad,"Kalabhavan, Dharwad - KSPCB",13-01-2024 19:00:00,15.459706,75.008381,PM2.5,55,74,64
India,Karnataka,Dharwad,"Kalabhavan, Dharwad - KSPCB",13-01-2024 19:00:00,15.459706,75.008381,PM10,62,155,104
India,Karnataka,Gadag,"Panchal Nagar, Gadag - KSPCB",13-01-2024 19:00:00,15.411456,75.638133,CO,38,58,51
India,Karnataka,Hassan,"B.Katihalli, Hassan - KSPCB",13-01-2024 19:00:00,13.008556,76.125258,PM10,56,97,73
India,Karnataka,Hassan,"B.Katihalli, Hassan - KSPCB",13-01-2024 19:00:00,13.008556,76.125258,NO2,9,14,12
India,Karnataka,Hubballi,"Deshpande Nagar, Hubballi - KSPCB",13-01-2024 19:00:00,15.351773,75.140726,NO2,18,26,24
India,Karnataka,Hubballi,"Lingaraj Nagar, Hubballi - KSPCB",13-01-2024 19:00:00,15.3714823,75.1160168,PM10,57,99,78
India,Karnataka,Kalaburagi,"Lal Bahadur Shastri Nagar, Kalaburagi - KSPCB",13-01-2024 19:00:00,17.321993,76.822628,PM10,27,74,46
India,Karnataka,Kalaburagi,"Lal Bahadur Shastri Nagar, Kalaburagi - KSPCB",13-01-2024 19:00:00,17.321993,76.822628,NH3,2,2,2
India,Karnataka,Kalaburagi,"Lal Bahadur Shastri Nagar, Kalaburagi - KSPCB",13-01-2024 19:00:00,17.321993,76.822628,SO2,17,19,18
India,Karnataka,Karwar,"KHB Colony, Karwar - KSPCB",13-01-2024 19:00:00,14.816666,74.141003,CO,1,184,13
India,Karnataka,Kolar,"Tamaka Ind. Area, Kolar - KSPCB",13-01-2024 19:00:00,13.1276288,78.1570122,NH3,5,8,6
India,Karnataka,Madikeri,"Stuart Hill, Madikeri - KSPCB",13-01-2024 19:00:00,12.415911,75.735050,PM10,32,62,49
India,Karnataka,Madikeri,"Stuart Hill, Madikeri - KSPCB",13-01-2024 19:00:00,12.415911,75.735050,NH3,1,1,1
India,Karnataka,Madikeri,"Stuart Hill, Madikeri - KSPCB",13-01-2024 19:00:00,12.415911,75.735050,CO,5,42,15
India,Karnataka,Mangalore,"Kadri, Mangalore - KSPCB",13-01-2024 19:00:00,12.889250,74.853000,NO2,9,10,10
India,Karnataka,Mangalore,"Kadri, Mangalore - KSPCB",13-01-2024 19:00:00,12.889250,74.853000,SO2,21,22,21
India,Karnataka,Mysuru,"Hebbal 1st Stage, Mysuru - KSPCB",13-01-2024 19:00:00,12.21041,76.37376,PM2.5,31,66,47
India,Karnataka,Mysuru,"Hebbal 1st Stage, Mysuru - KSPCB",13-01-2024 19:00:00,12.21041,76.37376,NO2,12,59,31
India,Karnataka,Raichur,"Haji Colony, Raichur - KSPCB",13-01-2024 19:00:00,16.208139,77.348417,OZONE,4,58,16
India,Karnataka,Ramanagara,"Vijay Nagar, Ramanagara - KSPCB",13-01-2024 19:00:00,12.733409,77.298051,PM10,45,88,60
India,Karnataka,Ramanagara,"Vijay Nagar, Ramanagara - KSPCB",13-01-2024 19:00:00,12.733409,77.298051,NO2,2,22,7
India,Karnataka,Shivamogga,"Vinoba Nagara, Shivamogga - KSPCB",13-01-2024 19:00:00,13.940000,75.555917,PM10,50,81,70
India,Karnataka,Shivamogga,"Vinoba Nagara, Shivamogga - KSPCB",13-01-2024 19:00:00,13.940000,75.555917,NH3,2,37,12
India,Karnataka,Udupi,"Brahmagiri, Udupi - KSPCB",13-01-2024 19:00:00,13.34194444,74.74694444,CO,40,48,41
India,Karnataka,Vijayapura,"Ibrahimpur, Vijayapura - KSPCB",13-01-2024 19:00:00,16.802639,75.722694,SO2,1,5,2
India,Kerala,Eloor,"Udyogamandal, Eloor - Kerala PCB",13-01-2024 19:00:00,10.073232,76.302765,CO,6,148,65
India,Kerala,Kannur,"Thavakkara, Kannur - Kerala PCB",13-01-2024 19:00:00,11.875000,75.373200,SO2,5,6,5
India,Kerala,Kochi,"Vyttila, Kochi - Kerala PCB",13-01-2024 19:00:00,9.969447,76.321186,SO2,NA,NA,NA
India,Kerala,Kollam,"Polayathode, Kollam - Kerala PCB",13-01-2024 19:00:00,8.8787,76.6073,PM10,56,99,77
India,Kerala,Kollam,"Polayathode, Kollam - Kerala PCB",13-01-2024 19:00:00,8.8787,76.6073,NH3,1,1,1
India,Kerala,Thiruvananthapuram,"Kariavattom, Thiruvananthapuram - Kerala PCB",13-01-2024 19:00:00,8.563700,76.886500,PM2.5,59,74,66
India,Kerala,Thiruvananthapuram,"Kariavattom, Thiruvananthapuram - Kerala PCB",13-01-2024 19:00:00,8.563700,76.886500,SO2,5,13,8
India,Kerala,Thrissur,"Corporation Ground, Thrissur - Kerala PCB",13-01-2024 19:00:00,10.532400,76.215900,PM2.5,48,53,51
India,Kerala,Thrissur,"Corporation Ground, Thrissur - Kerala PCB",13-01-2024 19:00:00,10.532400,76.215900,NH3,1,1,1
India,Kerala,Thrissur,"Corporation Ground, Thrissur - Kerala PCB",13-01-2024 19:00:00,10.532400,76.215900,OZONE,20,30,29
India,Madhya Pradesh,Bhopal,"Idgah Hills, Bhopal - MPPCB",13-01-2024 19:00:00,23.264759,77.381568,PM2.5,67,223,109
India,Madhya Pradesh,Bhopal,"Idgah Hills, Bhopal - MPPCB",13-01-2024 19:00:00,23.264759,77.381568,NH3,3,6,4
India,Madhya Pradesh,Bhopal,"Idgah Hills, Bhopal - MPPCB",13-01-2024 19:00:00,23.264759,77.381568,OZONE,23,90,76
India,Madhya Pradesh,Bhopal,"Paryavaran Parisar, Bhopal - MPPCB",13-01-2024 19:00:00,23.210494,77.425409,OZONE,2,78,63
India,Madhya Pradesh,Bhopal,"T T Nagar, Bhopal - MPPCB",13-01-2024 19:00:00,23.233584,77.400574,PM10,91,172,117
India,Madhya Pradesh,Bhopal,"T T Nagar, Bhopal - MPPCB",13-01-2024 19:00:00,23.233584,77.400574,NO2,26,78,49
India,Madhya Pradesh,Bhopal,"T T Nagar, Bhopal - MPPCB",13-01-2024 19:00:00,23.233584,77.400574,NH3,1,9,4
India,Madhya Pradesh,Damoh,"Shrivastav Colony, Damoh - MPPCB",13-01-2024 19:00:00,23.81748678,79.446246,PM10,NA,NA,NA
India,Madhya Pradesh,Dewas,"Bhopal Chauraha, Dewas - MPPCB",13-01-2024 19:00:00,22.9682591,76.064118,PM10,54,106,77
India,Madhya Pradesh,Gwalior,"City Center, Gwalior - MPPCB",13-01-2024 19:00:00,26.203442,78.193251,PM2.5,51,430,276
India,Madhya Pradesh,Gwalior,"City Center, Gwalior - MPPCB",13-01-2024 19:00:00,26.203442,78.193251,NO2,23,83,40
India,Madhya Pradesh,Gwalior,"City Center, Gwalior - MPPCB",13-01-2024 19:00:00,26.203442,78.193251,CO,30,158,49
India,Madhya Pradesh,Gwalior,"Deen Dayal Nagar, Gwalior - MPPCB",13-01-2024 19:00:00,26.259242,78.216432,OZONE,7,176,112
India,Madhya Pradesh,Gwalior,"Maharaj Bada, Gwalior - MPPCB",13-01-2024 19:00:00,26.200388,78.147714,OZONE,4,87,63
India,Madhya Pradesh,Gwalior,"Phool Bagh, Gwalior - Mondelez Ind. Food",13-01-2024 19:00:00,26.210536,78.171,CO,34,57,36
India,Madhya Pradesh,Indore,"Chhoti Gwaltoli, Indore - MPPCB",13-01-2024 19:00:00,22.4310,75.5213,PM10,54,148,99
India,Madhya Pradesh,Indore,"Chhoti Gwaltoli, Indore - MPPCB",13-01-2024 19:00:00,22.4310,75.5213,SO2,12,37,18
India,Madhya Pradesh,Indore,"Chhoti Gwaltoli, Indore - MPPCB",13-01-2024 19:00:00,22.4310,75.5213,OZONE,13,93,70
India,Madhya Pradesh,Indore,"Maguda Nagar, Indore - IMC",13-01-2024 19:00:00,22.7524,75.8872,NH3,1,2,1
India,Madhya Pradesh,Indore,"Maguda Nagar, Indore - IMC",13-01-2024 19:00:00,22.7524,75.8872,CO,22,30,23
India,Madhya Pradesh,Indore,"Regional Park, Indore - IMC",13-01-2024 19:00:00,22.6780,75.8559,SO2,43,45,44
India,Madhya Pradesh,Indore,"Regional Park, Indore - IMC",13-01-2024 19:00:00,22.6780,75.8559,OZONE,4,16,11
India,Madhya Pradesh,Jabalpur,"Govindh Bhavan Colony, Jabalpur - JMC",13-01-2024 19:00:00,23.163174,79.973061,PM2.5,23,72,42
India,Madhya Pradesh,Jabalpur,"Govindh Bhavan Colony, Jabalpur - JMC",13-01-2024 19:00:00,23.163174,79.973061,NO2,10,33,16
India,Madhya Pradesh,Jabalpur,"Gupteshwar, Jabalpur - JMC",13-01-2024 19:00:00,23.142888,79.916147,PM2.5,33,247,81
India,Madhya Pradesh,Jabalpur,"Marhatal, Jabalpur - MPPCB",13-01-2024 19:00:00,23.168606,79.932247,PM2.5,36,257,95
India,Madhya Pradesh,Jabalpur,"Marhatal, Jabalpur - MPPCB",13-01-2024 19:00:00,23.168606,79.932247,NO2,27,101,54
India,Madhya Pradesh,Jabalpur,"Suhagi, Jabalpur - JMC",13-01-2024 19:00:00,23.218135,79.957770,PM2.5,40,253,93
India,Madhya Pradesh,Katni,"Gole Bazar, Katni - MPPCB",13-01-2024 19:00:00,23.50016,80.23284,SO2,NA,NA,NA
India,Madhya Pradesh,Maihar,"Sahilara, Maihar - KJS Cements",13-01-2024 19:00:00,24.2613009,80.7231783,PM2.5,9,52,27
India,Madhya Pradesh,Maihar,"Sahilara, Maihar - KJS Cements",13-01-2024 19:00:00,24.2613009,80.7231783,SO2,12,13,12
India,Madhya Pradesh,Maihar,"Sahilara, Maihar - KJS Cements",13-01-2024 19:00:00,24.2613009,80.7231783,CO,26,46,33
India,Madhya Pradesh,Mandideep,"Sector-D Industrial Area, Mandideep - MPPCB",13-01-2024 19:00:00,23.108440,77.511428,PM2.5,36,198,85
India,Madhya Pradesh,Pithampur,"Sector-2 Industrial Area, Pithampur - MPPCB",13-01-2024 19:00:00,22.624758,75.675238,NO2,6,18,12
India,Madhya Pradesh,Pithampur,"Sector-2 Industrial Area, Pithampur - MPPCB",13-01-2024 19:00:00,22.624758,75.675238,NH3,2,2,2
India,Madhya Pradesh,Pithampur,"Sector-2 Industrial Area, Pithampur - MPPCB",13-01-2024 19:00:00,22.624758,75.675238,SO2,11,14,12
India,Madhya Pradesh,Pithampur,"Sector-2 Industrial Area, Pithampur - MPPCB",13-01-2024 19:00:00,22.624758,75.675238,CO,36,64,40
India,Madhya Pradesh,Sagar,"Deen Dayal Nagar, Sagar - MPPCB",13-01-2024 19:00:00,23.8640158,78.80289321,NO2,22,23,22
India,Madhya Pradesh,Sagar,"Deen Dayal Nagar, Sagar - MPPCB",13-01-2024 19:00:00,23.8640158,78.80289321,CO,32,107,66
India,Madhya Pradesh,Singrauli,"Suryakiran Bhawan NCL, Singrauli - MPPCB",13-01-2024 19:00:00,24.108970,82.645580,OZONE,16,66,52
India,Madhya Pradesh,Ujjain,"Mahakaleshwar Temple, Ujjain - MPPCB",13-01-2024 19:00:00,23.182719 ,75.768218 ,PM10,52,115,77
India,Maharashtra,Ahmednagar,"Tarakpur, Ahmednagar - MPCB",13-01-2024 19:00:00,19.10122,74.73339,OZONE,4,116,79
India,Maharashtra,Akola,"Ramdaspeth, Akola - MPCB",13-01-2024 19:00:00,20.719516,77.000253,CO,23,112,31
India,Maharashtra,Amravati,"Shivneri Colony, Amravati - MPCB",13-01-2024 19:00:00,20.9402359,77.7895248,NH3,1,3,2
India,Maharashtra,Amravati,"Shri Shivaji Science College, Amaravati - MPCB",13-01-2024 19:00:00,20.939198,77.765701,PM10,90,389,157
India,Maharashtra,Amravati,"Shri Shivaji Science College, Amaravati - MPCB",13-01-2024 19:00:00,20.939198,77.765701,SO2,9,30,17
India,Maharashtra,Aurangabad,"MIDC Chilkalthana, Aurangabad - MPCB",13-01-2024 19:00:00,19.875620,75.387310,NH3,3,4,4
India,Maharashtra,Aurangabad,"MIDC Chilkalthana, Aurangabad - MPCB",13-01-2024 19:00:00,19.875620,75.387310,CO,18,75,27
India,Maharashtra,Aurangabad,"Rachnakar Colony, Aurangabad - MPCB",13-01-2024 19:00:00,19.863756,75.321188,NO2,14,107,60
India,Maharashtra,Badlapur,"Katrap, Badlapur - MPCB",13-01-2024 19:00:00,19.16485,73.23409,PM2.5,82,188,133
India,Maharashtra,Badlapur,"Katrap, Badlapur - MPCB",13-01-2024 19:00:00,19.16485,73.23409,NH3,2,4,3
India,Maharashtra,Badlapur,"Katrap, Badlapur - MPCB",13-01-2024 19:00:00,19.16485,73.23409,SO2,1,11,6
India,Maharashtra,Belapur,"CBD Belapur, Belapur - MPCB",13-01-2024 19:00:00,19.0243902,73.0406721,OZONE,7,112,79
India,Maharashtra,Bhiwandi,"Gokul Nagar, Bhiwandi - MPCB",13-01-2024 19:00:00,19.309073,73.057223,OZONE,7,57,41
India,Maharashtra,Boisar,"Khaira, Boisar - MPCB",13-01-2024 19:00:00,19.786089,72.757971,PM10,132,195,169
India,Maharashtra,Dhule,"Deopur, Dhule - MPCB",13-01-2024 19:00:00,20.918946,74.776388,NH3,1,4,2
India,Maharashtra,Dhule,"Deopur, Dhule - MPCB",13-01-2024 19:00:00,20.918946,74.776388,OZONE,5,42,29
India,Maharashtra,Jalgaon,"Prabhat Colony, Jalgaon - MPCB",13-01-2024 19:00:00,21.001264,75.565602,PM2.5,63,188,103
India,Maharashtra,Jalgaon,"Prabhat Colony, Jalgaon - MPCB",13-01-2024 19:00:00,21.001264,75.565602,CO,13,34,25
India,Maharashtra,Jalna,"Old MIDC, Jalna - MPCB",13-01-2024 19:00:00,19.854616,75.905894,PM2.5,106,222,173
India,Maharashtra,Jalna,"Old MIDC, Jalna - MPCB",13-01-2024 19:00:00,19.854616,75.905894,NH3,6,8,7
India,Maharashtra,Kalyan,"Khadakpada, Kalyan - MPCB",13-01-2024 19:00:00,19.25292,73.142019,NO2,15,106,40
India,Maharashtra,Kalyan,"Khadakpada, Kalyan - MPCB",13-01-2024 19:00:00,19.25292,73.142019,NH3,1,3,1
India,Maharashtra,Kolhapur,"Shivaji University, Kolhapur - MPCB",13-01-2024 19:00:00,16.6870449,74.2505872,NO2,10,62,33
India,Maharashtra,Kolhapur,"Shivaji University, Kolhapur - MPCB",13-01-2024 19:00:00,16.6870449,74.2505872,CO,17,104,33
India,Maharashtra,Kolhapur,"Sinchan Bhavan, Kolhapur - MPCB",13-01-2024 19:00:00,16.7143745,74.2426398,PM2.5,4,195,65
India,Maharashtra,Kolhapur,"Sinchan Bhavan, Kolhapur - MPCB",13-01-2024 19:00:00,16.7143745,74.2426398,OZONE,1,96,71
India,Maharashtra,Latur,"Sawe Wadi, Latur - MPCB",13-01-2024 19:00:00,18.39963,76.57452,NH3,8,8,8
India,Maharashtra,Malegaon,"Mahesh Nagar, Malegaon - MPCB",13-01-2024 19:00:00,20.555712,74.529236,PM10,82,193,125
India,Maharashtra,Malegaon,"Mahesh Nagar, Malegaon - MPCB",13-01-2024 19:00:00,20.555712,74.529236,CO,15,66,21
India,Maharashtra,Mira-Bhayandar,"Bhayandar West, Mira-Bhayandar - MPCB",13-01-2024 19:00:00,19.296481,72.840923,PM10,113,145,130
India,Maharashtra,Mumbai,"Bandra Kurla Complex, Mumbai - MPCB",13-01-2024 19:00:00,19.065931,72.862131,PM2.5,89,237,155
India,Maharashtra,Mumbai,"Bandra Kurla Complex, Mumbai - MPCB",13-01-2024 19:00:00,19.065931,72.862131,PM10,89,252,138
India,Maharashtra,Mumbai,"Bandra Kurla Complex, Mumbai - MPCB",13-01-2024 19:00:00,19.065931,72.862131,SO2,2,6,4
India,Maharashtra,Mumbai,"Borivali East, Mumbai - IITM",13-01-2024 19:00:00,19.23241,72.86895,PM2.5,62,115,83
India,Maharashtra,Mumbai,"Borivali East, Mumbai - IITM",13-01-2024 19:00:00,19.23241,72.86895,PM10,NA,NA,NA
India,Maharashtra,Mumbai,"Borivali East, Mumbai - IITM",13-01-2024 19:00:00,19.23241,72.86895,NO2,53,156,76
India,Maharashtra,Mumbai,"Borivali East, Mumbai - IITM",13-01-2024 19:00:00,19.23241,72.86895,OZONE,5,99,82
India,Maharashtra,Mumbai,"Borivali East, Mumbai - MPCB",13-01-2024 19:00:00,19.2243333,72.8658113,NH3,1,2,1
India,Maharashtra,Mumbai,"Borivali East, Mumbai - MPCB",13-01-2024 19:00:00,19.2243333,72.8658113,OZONE,8,9,8
India,Maharashtra,Mumbai,"Byculla, Mumbai - BMC",13-01-2024 19:00:00,18.9767,72.8380,NO2,22,89,56
India,Maharashtra,Mumbai,"Chakala-Andheri East, Mumbai - IITM",13-01-2024 19:00:00,19.11074,72.86084,NH3,2,12,5
India,Maharashtra,Mumbai,"Chembur, Mumbai - MPCB",13-01-2024 19:00:00,19.0364585,72.8954371,PM2.5,98,202,148
India,Maharashtra,Mumbai,"Chembur, Mumbai - MPCB",13-01-2024 19:00:00,19.0364585,72.8954371,SO2,1,8,2
India,Maharashtra,Mumbai,"Chhatrapati Shivaji Intl. Airport (T2), Mumbai - MPCB",13-01-2024 19:00:00,19.10078,72.87462,SO2,22,37,30
India,Maharashtra,Mumbai,"Chhatrapati Shivaji Intl. Airport (T2), Mumbai - MPCB",13-01-2024 19:00:00,19.10078,72.87462,CO,62,110,82
India,Maharashtra,Mumbai,"Ghatkopar, Mumbai - BMC",13-01-2024 19:00:00,19.083694,72.920967,NO2,13,56,45
India,Maharashtra,Mumbai,"Kandivali East, Mumbai - MPCB",13-01-2024 19:00:00,19.205800,72.868200,NH3,7,14,10
India,Maharashtra,Mumbai,"Kandivali East, Mumbai - MPCB",13-01-2024 19:00:00,19.205800,72.868200,OZONE,28,31,30
India,Maharashtra,Mumbai,"Kherwadi_Bandra East, Mumbai - MPCB",13-01-2024 19:00:00,19.0632143,72.8456324,PM2.5,85,247,183
India,Maharashtra,Mumbai,"Khindipada-Bhandup West, Mumbai - IITM",13-01-2024 19:00:00,19.1653323,72.922099,PM2.5,67,151,109
India,Maharashtra,Mumbai,"Khindipada-Bhandup West, Mumbai - IITM",13-01-2024 19:00:00,19.1653323,72.922099,CO,NA,NA,NA
India,Maharashtra,Mumbai,"Kurla, Mumbai - MPCB",13-01-2024 19:00:00,19.0863,72.8888,CO,34,94,43
India,Maharashtra,Mumbai,"Malad West, Mumbai - IITM",13-01-2024 19:00:00,19.19709,72.82204,PM2.5,164,311,245
India,Maharashtra,Mumbai,"Malad West, Mumbai - IITM",13-01-2024 19:00:00,19.19709,72.82204,OZONE,2,56,37
India,Maharashtra,Mumbai,"Navy Nagar-Colaba, Mumbai - IITM",13-01-2024 19:00:00,18.897756,72.813320,PM10,71,138,108
India,Maharashtra,Mumbai,"Navy Nagar-Colaba, Mumbai - IITM",13-01-2024 19:00:00,18.897756,72.813320,NO2,19,47,29
India,Maharashtra,Mumbai,"Navy Nagar-Colaba, Mumbai - IITM",13-01-2024 19:00:00,18.897756,72.813320,CO,22,80,44
India,Maharashtra,Mumbai,"Powai, Mumbai - MPCB",13-01-2024 19:00:00,19.137500,72.915056,SO2,14,16,15
India,Maharashtra,Mumbai,"Powai, Mumbai - MPCB",13-01-2024 19:00:00,19.137500,72.915056,CO,36,48,45
India,Maharashtra,Mumbai,"Sewri, Mumbai - BMC",13-01-2024 19:00:00,19.000084,72.856730,NH3,2,14,8
India,Maharashtra,Mumbai,"Vasai West, Mumbai - MPCB",13-01-2024 19:00:00,19.383200,72.820400,CO,11,27,15
India,Maharashtra,Mumbai,"Vasai West, Mumbai - MPCB",13-01-2024 19:00:00,19.383200,72.820400,OZONE,4,55,47
India,Maharashtra,Mumbai,"Vile Parle West, Mumbai - MPCB",13-01-2024 19:00:00,19.10861,72.83622,NH3,4,11,9
India,Maharashtra,Mumbai,"Vile Parle West, Mumbai - MPCB",13-01-2024 19:00:00,19.10861,72.83622,CO,14,16,15
India,Maharashtra,Mumbai,"Worli, Mumbai - MPCB",13-01-2024 19:00:00,18.9936162,72.8128113,PM2.5,55,185,79
India,Maharashtra,Mumbai,"Worli, Mumbai - MPCB",13-01-2024 19:00:00,18.9936162,72.8128113,PM10,93,145,119
India,Maharashtra,Nagpur,"Ambazari, Nagpur - MPCB",13-01-2024 19:00:00,21.121801,79.04952,SO2,8,38,21
India,Maharashtra,Nagpur,"Opp GPO Civil Lines, Nagpur - MPCB",13-01-2024 19:00:00,21.152875,79.0517531,NO2,24,149,59
India,Maharashtra,Nagpur,"Opp GPO Civil Lines, Nagpur - MPCB",13-01-2024 19:00:00,21.152875,79.0517531,SO2,8,38,19
India,Maharashtra,Nagpur,"Opp GPO Civil Lines, Nagpur - MPCB",13-01-2024 19:00:00,21.152875,79.0517531,OZONE,2,98,71
India,Maharashtra,Nagpur,"Ram Nagar, Nagpur - MPCB",13-01-2024 19:00:00,21.143383,79.048912,PM2.5,45,179,83
India,Maharashtra,Nagpur,"Ram Nagar, Nagpur - MPCB",13-01-2024 19:00:00,21.143383,79.048912,CO,14,116,24
India,Maharashtra,Nagpur,"Ram Nagar, Nagpur - MPCB",13-01-2024 19:00:00,21.143383,79.048912,OZONE,2,87,67
India,Maharashtra,Nanded,"Sneh Nagar, Nanded - MPCB",13-01-2024 19:00:00,19.173852,77.296291,CO,36,47,41
India,Maharashtra,Nanded,"Sneh Nagar, Nanded - MPCB",13-01-2024 19:00:00,19.173852,77.296291,OZONE,11,168,143
India,Maharashtra,Nashik,"Gangapur Road, Nashik - MPCB",13-01-2024 19:00:00,20.0073285,73.7762427,OZONE,11,61,36
India,Maharashtra,Nashik,"Hirawadi, Nashik - MPCB",13-01-2024 19:00:00,20.021503,73.813844,PM10,44,90,69
India,Maharashtra,Nashik,"Hirawadi, Nashik - MPCB",13-01-2024 19:00:00,20.021503,73.813844,OZONE,6,86,56
India,Maharashtra,Nashik,"MIDC Ambad, Nashik - MPCB",13-01-2024 19:00:00,19.950220,73.731480,OZONE,3,44,36
India,Maharashtra,Nashik,"Pandav Nagari, Nashik - MPCB",13-01-2024 19:00:00,19.9591346,73.7788008,PM2.5,11,194,97
India,Maharashtra,Nashik,"Pandav Nagari, Nashik - MPCB",13-01-2024 19:00:00,19.9591346,73.7788008,PM10,38,154,118
India,Maharashtra,Nashik,"Pandav Nagari, Nashik - MPCB",13-01-2024 19:00:00,19.9591346,73.7788008,OZONE,1,71,48
India,Maharashtra,Navi Mumbai,"Kopripada-Vashi, Navi Mumbai - MPCB",13-01-2024 19:00:00,19.090337,73.014232,CO,20,88,32
India,Maharashtra,Navi Mumbai,"Kopripada-Vashi, Navi Mumbai - MPCB",13-01-2024 19:00:00,19.090337,73.014232,OZONE,4,291,154
India,Maharashtra,Navi Mumbai,"Nerul, Navi Mumbai - MPCB",13-01-2024 19:00:00,19.008751,73.016620,NO2,8,22,16
India,Maharashtra,Navi Mumbai,"Nerul, Navi Mumbai - MPCB",13-01-2024 19:00:00,19.008751,73.016620,OZONE,25,36,28
India,Maharashtra,Navi Mumbai,"Sector-19A Nerul, Navi Mumbai - IITM",13-01-2024 19:00:00,19.044,73.0325,PM10,142,251,191
India,Maharashtra,Navi Mumbai,"Sector-2E Kalamboli, Navi Mumbai - MPCB",13-01-2024 19:00:00,19.02579,73.10297,CO,11,111,25
India,Maharashtra,Parbhani,"Masoom Colony, Parbhani - MPCB",13-01-2024 19:00:00,19.265594,76.761463,NO2,9,81,32
India,Maharashtra,Parbhani,"Masoom Colony, Parbhani - MPCB",13-01-2024 19:00:00,19.265594,76.761463,SO2,18,79,43
India,Maharashtra,Parbhani,"Masoom Colony, Parbhani - MPCB",13-01-2024 19:00:00,19.265594,76.761463,CO,25,109,45
India,Maharashtra,Pimpri-Chinchwad,"Gavalinagar, Pimpri Chinchwad - MPCB",13-01-2024 19:00:00,18.63673,73.82487,PM2.5,183,352,294
India,Maharashtra,Pimpri-Chinchwad,"Gavalinagar, Pimpri Chinchwad - MPCB",13-01-2024 19:00:00,18.63673,73.82487,PM10,130,379,194
India,Maharashtra,Pimpri-Chinchwad,"Gavalinagar, Pimpri Chinchwad - MPCB",13-01-2024 19:00:00,18.63673,73.82487,SO2,4,17,8
India,Maharashtra,Pimpri-Chinchwad,"Thergaon, Pimpri Chinchwad - MPCB",13-01-2024 19:00:00,18.616318,73.765797,PM2.5,70,342,265
India,Maharashtra,Pimpri-Chinchwad,"Thergaon, Pimpri Chinchwad - MPCB",13-01-2024 19:00:00,18.616318,73.765797,NO2,2,126,65
India,Maharashtra,Pimpri-Chinchwad,"Thergaon, Pimpri Chinchwad - MPCB",13-01-2024 19:00:00,18.616318,73.765797,SO2,3,7,5
India,Maharashtra,Pimpri-Chinchwad,"Thergaon, Pimpri Chinchwad - MPCB",13-01-2024 19:00:00,18.616318,73.765797,CO,8,102,30
India,Maharashtra,Pune,"Alandi, Pune - IITM",13-01-2024 19:00:00,18.675076,73.892743,PM10,27,164,96
India,Maharashtra,Pune,"Bhosari, Pune - IITM",13-01-2024 19:00:00,18.640051,73.848956,CO,30,56,33
India,Maharashtra,Pune,"Mhada Colony, Pune - IITM",13-01-2024 19:00:00,18.573040,73.927715,PM2.5,43,291,176
India,Maharashtra,Pune,"Mhada Colony, Pune - IITM",13-01-2024 19:00:00,18.573040,73.927715,PM10,60,155,118
India,Maharashtra,Pune,"Savitribai Phule Pune University, Pune - MPCB",13-01-2024 19:00:00,18.547056,73.826908,PM2.5,73,256,167
India,Maharashtra,Sangli,"Vijay Nagar, Sangli - MPCB",13-01-2024 19:00:00, 16.5038,74.3623,NO2,22,102,45
India,Maharashtra,Sangli,"Vijay Nagar, Sangli - MPCB",13-01-2024 19:00:00, 16.5038,74.3623,SO2,7,25,13
India,Maharashtra,Sangli,"Vijay Nagar, Sangli - MPCB",13-01-2024 19:00:00, 16.5038,74.3623,CO,20,120,33
India,Maharashtra,Solapur,"Dnyaneshwar Nagar, Solapur - MPCB",13-01-2024 19:00:00,17.6336264,75.9132495,PM2.5,77,137,103
India,Maharashtra,Solapur,"Dnyaneshwar Nagar, Solapur - MPCB",13-01-2024 19:00:00,17.6336264,75.9132495,CO,19,88,31
India,Maharashtra,Solapur,"Dnyaneshwar Nagar, Solapur - MPCB",13-01-2024 19:00:00,17.6336264,75.9132495,OZONE,21,107,86
India,Maharashtra,Solapur,"Solapur, Solapur - MPCB",13-01-2024 19:00:00,17.6599188,75.9063906,PM10,87,151,116
India,Maharashtra,Solapur,"Solapur, Solapur - MPCB",13-01-2024 19:00:00,17.6599188,75.9063906,NO2,46,58,50
India,Maharashtra,Solapur,"Solapur, Solapur - MPCB",13-01-2024 19:00:00,17.6599188,75.9063906,SO2,31,38,33
India,Maharashtra,Solapur,"Solapur, Solapur - MPCB",13-01-2024 19:00:00,17.6599188,75.9063906,OZONE,32,77,61
India,Maharashtra,Thane,"Upvan Fort, Thane - MPCB",13-01-2024 19:00:00,19.222279,72.957979,NH3,9,12,10
India,Maharashtra,Thane,"Upvan Fort, Thane - MPCB",13-01-2024 19:00:00,19.222279,72.957979,CO,10,59,21
India,Maharashtra,Thane,"Upvan Fort, Thane - MPCB",13-01-2024 19:00:00,19.222279,72.957979,OZONE,15,178,131
India,Maharashtra,Ulhasnagar,"Sidhi Vinayak Nagar, Ulhasnagar - MPCB",13-01-2024 19:00:00,19.235581,73.159121,OZONE,8,301,178
India,Maharashtra,Virar,"Bolinj, Virar - MPCB",13-01-2024 19:00:00,19.4458210,72.7988231,OZONE,4,96,91
India,Meghalaya,Shillong,"JN Stadium, Shillong - Meghalaya PCB",13-01-2024 19:00:00,25.5803419,91.8942571,NH3,2,4,3
India,Meghalaya,Shillong,"Lumpyngngad, Shillong - Meghalaya PCB",13-01-2024 19:00:00,25.5586,91.8985,PM2.5,17,183,63
India,Meghalaya,Shillong,"Lumpyngngad, Shillong - Meghalaya PCB",13-01-2024 19:00:00,25.5586,91.8985,PM10,18,103,48
India,Meghalaya,Shillong,"Lumpyngngad, Shillong - Meghalaya PCB",13-01-2024 19:00:00,25.5586,91.8985,CO,6,27,13
India,Nagaland,Kohima,"PWD Juction, Kohima - NPCB",13-01-2024 19:00:00,25.6635413,94.0989878,PM2.5,31,234,96
India,Nagaland,Kohima,"PWD Juction, Kohima - NPCB",13-01-2024 19:00:00,25.6635413,94.0989878,OZONE,9,18,13
India,Odisha,Balasore,"Kalidaspur, Balasore - OSPCB",13-01-2024 19:00:00,21.51161,86.89088,PM10,80,483,161
India,Odisha,Balasore,"Kalidaspur, Balasore - OSPCB",13-01-2024 19:00:00,21.51161,86.89088,SO2,20,55,35
India,Odisha,Barbil,"Forest Office, Barbil - OSPCB",13-01-2024 19:00:00,22.1166054,85.3945546,PM10,42,234,117
India,Odisha,Barbil,"Forest Office, Barbil - OSPCB",13-01-2024 19:00:00,22.1166054,85.3945546,CO,24,84,41
India,Odisha,Baripada,"Meher Colony, Baripada - OSPCB",13-01-2024 19:00:00,21.941841,86.728318,PM10,95,177,127
India,Odisha,Baripada,"Meher Colony, Baripada - OSPCB",13-01-2024 19:00:00,21.941841,86.728318,NO2,NA,NA,NA
India,Odisha,Baripada,"Meher Colony, Baripada - OSPCB",13-01-2024 19:00:00,21.941841,86.728318,SO2,1,6,4
India,Odisha,Bhubaneswar,"Lingraj Mandir, Bhubaneswar - OSPCB",13-01-2024 19:00:00,20.240790,85.836784,NO2,24,79,39
India,Odisha,Bhubaneswar,"Lingraj Mandir, Bhubaneswar - OSPCB",13-01-2024 19:00:00,20.240790,85.836784,SO2,8,20,13
India,Odisha,Bhubaneswar,"Patia, Bhubaneswar - OSPCB",13-01-2024 19:00:00,20.34652,85.81630,SO2,8,29,16
India,Odisha,Bileipada,"Tata Township, Bileipada - OSPCB",13-01-2024 19:00:00,22.06156703,85.47409613,PM10,84,208,142
India,Odisha,Brajrajnagar,"GM Office, Brajrajnagar - OSPCB",13-01-2024 19:00:00,21.8004996,83.8396977,OZONE,19,21,20
India,Odisha,Byasanagar,"Ferro Chrome Colony, Byasanagar - OSPCB",13-01-2024 19:00:00,20.94185,86.11510,NO2,21,44,26
India,Odisha,Byasanagar,"Ferro Chrome Colony, Byasanagar - OSPCB",13-01-2024 19:00:00,20.94185,86.11510,OZONE,8,188,143
India,Odisha,Cuttack,"CDA Area, Cuttack - OSPCB",13-01-2024 19:00:00,20.48891     ,85.84768     ,CO,38,80,45
India,Odisha,Keonjhar,"Jagamohanpur, Keonjhar - OSPCB",13-01-2024 19:00:00,21.643900,85.599355,PM10,79,141,110
India,Odisha,Nayagarh,"Dabuna, Nayagarh - OSPCB",13-01-2024 19:00:00,21.847279,85.416905,OZONE,2,56,25
India,Odisha,Rairangpur,"Divisional Forest Office, Rairangpur - OSPCB",13-01-2024 19:00:00,22.265816,86.174829,NO2,7,8,7
India,Odisha,Rourkela,"Fertilizer Township, Rourkela - OSPCB",13-01-2024 19:00:00,22.18972222,84.86277778,SO2,12,14,13
India,Odisha,Rourkela,"Raghunathpali, Rourkela - OSPCB",13-01-2024 19:00:00,22.220833,84.809444,OZONE,16,77,56
India,Odisha,Rourkela,"Sector-2, Rourkela - OSPCB",13-01-2024 19:00:00,22.24500000,84.88111111,NO2,33,34,33
India,Odisha,Talcher,"Talcher Coalfields,Talcher - OSPCB",13-01-2024 19:00:00,20.9360711,85.1707021,PM2.5,74,352,232
India,Odisha,Talcher,"Talcher Coalfields,Talcher - OSPCB",13-01-2024 19:00:00,20.9360711,85.1707021,NH3,7,7,7
India,Odisha,Talcher,"Talcher Coalfields,Talcher - OSPCB",13-01-2024 19:00:00,20.9360711,85.1707021,SO2,21,98,47
India,Odisha,Talcher,"Talcher Coalfields,Talcher - OSPCB",13-01-2024 19:00:00,20.9360711,85.1707021,OZONE,1,8,3
India,Odisha,Tensa,"Barsua Iron Ore Mines, Tensa - OSPCB",13-01-2024 19:00:00,21.869985,85.167016,PM10,48,119,73
India,Odisha,Tensa,"Barsua Iron Ore Mines, Tensa - OSPCB",13-01-2024 19:00:00,21.869985,85.167016,NH3,6,9,8
India,Puducherry,Puducherry,"Jawahar Nagar, Puducherry - PPCC",13-01-2024 19:00:00,11.9309,79.8027,SO2,4,14,7
India,Punjab,Bathinda,"Hardev Nagar, Bathinda - PPCB",13-01-2024 19:00:00,30.233011,74.907758,SO2,1,37,14
India,Punjab,Jalandhar,"Civil Line, Jalandhar - PPCB",13-01-2024 19:00:00,31.321907,75.578914,PM2.5,84,159,112
India,Punjab,Jalandhar,"Civil Line, Jalandhar - PPCB",13-01-2024 19:00:00,31.321907,75.578914,SO2,26,42,30
India,Punjab,Khanna,"Kalal Majra, Khanna - PPCB",13-01-2024 19:00:00,30.736056 ,76.209694,CO,32,48,42
India,Punjab,Khanna,"Kalal Majra, Khanna - PPCB",13-01-2024 19:00:00,30.736056 ,76.209694,OZONE,16,28,21
India,Punjab,Ludhiana,"Punjab Agricultural University, Ludhiana - PPCB",13-01-2024 19:00:00,30.9028,75.8086,PM2.5,196,357,328
India,Punjab,Mandi Gobindgarh,"RIMT University, Mandi Gobindgarh - PPCB",13-01-2024 19:00:00,30.649961,76.331442,CO,28,47,38
India,Punjab,Patiala,"Model Town, Patiala - PPCB",13-01-2024 19:00:00,30.349388,76.366642,SO2,4,48,16
India,Punjab,Patiala,"Model Town, Patiala - PPCB",13-01-2024 19:00:00,30.349388,76.366642,CO,51,88,63
India,Rajasthan,Ajmer,"Civil Lines,  Ajmer - RSPCB",13-01-2024 19:00:00,26.470859,74.646594,NH3,34,62,39
India,Rajasthan,Alwar,"Moti Doongri, Alwar - RSPCB",13-01-2024 19:00:00,27.554793,76.611536,PM2.5,77,178,122
India,Rajasthan,Alwar,"Moti Doongri, Alwar - RSPCB",13-01-2024 19:00:00,27.554793,76.611536,PM10,79,347,146
India,Rajasthan,Alwar,"Moti Doongri, Alwar - RSPCB",13-01-2024 19:00:00,27.554793,76.611536,NO2,36,60,45
India,Rajasthan,Alwar,"Moti Doongri, Alwar - RSPCB",13-01-2024 19:00:00,27.554793,76.611536,OZONE,8,29,23
India,Rajasthan,Baran,"Bamboliya, Baran - RSPCB",13-01-2024 19:00:00,25.106006,76.469948,NH3,4,21,9
India,Rajasthan,Baran,"Bamboliya, Baran - RSPCB",13-01-2024 19:00:00,25.106006,76.469948,CO,24,73,29
India,Rajasthan,Barmer,"Railway Colony, Barmer - RSPCB",13-01-2024 19:00:00,25.747299,71.393989,NO2,10,101,36
India,Rajasthan,Bharatpur,"Krishna Nagar, Bharatpur - RSPCB",13-01-2024 19:00:00,27.215415,77.50873,NH3,7,10,8
India,Rajasthan,Bhiwadi,"RIICO Ind. Area III, Bhiwadi - RSPCB",13-01-2024 19:00:00,28.194909,76.862296,PM2.5,205,411,325
India,Rajasthan,Bhiwadi,"RIICO Ind. Area III, Bhiwadi - RSPCB",13-01-2024 19:00:00,28.194909,76.862296,PM10,225,429,290
India,Rajasthan,Bhiwadi,"RIICO Ind. Area III, Bhiwadi - RSPCB",13-01-2024 19:00:00,28.194909,76.862296,CO,4,107,73
India,Rajasthan,Bundi,"New Colony, Bundi - RSPCB",13-01-2024 19:00:00,25.435774,75.644272,NH3,5,5,5
India,Rajasthan,Churu,"Subash Chowk, Churu - RSPCB",13-01-2024 19:00:00,28.296139,74.961696,PM2.5,64,349,184
India,Rajasthan,Churu,"Subash Chowk, Churu - RSPCB",13-01-2024 19:00:00,28.296139,74.961696,NH3,11,35,17
India,Rajasthan,Dausa,"Khatikan Mohalla, Dausa - RSPCB",13-01-2024 19:00:00,26.895552,76.334753,NO2,22,181,66
India,Rajasthan,Dausa,"Khatikan Mohalla, Dausa - RSPCB",13-01-2024 19:00:00,26.895552,76.334753,SO2,8,10,9
India,Rajasthan,Dausa,"Khatikan Mohalla, Dausa - RSPCB",13-01-2024 19:00:00,26.895552,76.334753,CO,36,162,162
India,Rajasthan,Dausa,"Khatikan Mohalla, Dausa - RSPCB",13-01-2024 19:00:00,26.895552,76.334753,OZONE,5,272,141
India,Rajasthan,Dholpur,"Raja Ganj, Dholpur - RSPCB",13-01-2024 19:00:00,26.699557,77.898881,NH3,2,17,10
India,Rajasthan,Dungarpur,"Bhoiwada, Dungarpur - RSPCB",13-01-2024 19:00:00,23.837789,73.714926,CO,24,102,39
India,Rajasthan,Hanumangarh,"Housing Board, Hanumangarh - RSPCB",13-01-2024 19:00:00,29.610750,74.283608,OZONE,6,14,10
India,Rajasthan,Jaipur,"Adarsh Nagar, Jaipur - RSPCB",13-01-2024 19:00:00,26.902909,75.836858,OZONE,9,88,71
India,Rajasthan,Jaipur,"RIICO Sitapura, Jaipur - RSPCB",13-01-2024 19:00:00,26.786682,75.827928,SO2,6,19,12
India,Rajasthan,Jaipur,"Sector-2 Murlipura, Jaipur - RSPCB",13-01-2024 19:00:00,26.960669,75.771817,CO,38,174,54
India,Rajasthan,Jaipur,"Shastri Nagar, Jaipur - RSPCB",13-01-2024 19:00:00,26.9502929,75.730943,PM10,70,365,157
India,Rajasthan,Jaisalmer,"Sadar Bazar, Jaisalmer - RSPCB",13-01-2024 19:00:00,26.912329,70.909168,NO2,16,102,48
India,Rajasthan,Jalore,"Mudtra Sili, Jalore - RSPCB",13-01-2024 19:00:00,25.344694,72.626208,PM10,58,489,189
India,Rajasthan,Jhalawar,"Rajlaxmi Nagar, Jhalawar - RSPCB",13-01-2024 19:00:00,24.588397,76.172782,NO2,9,53,25
India,Rajasthan,Jhunjhunu,"Indra Nagar, Jhunjhunu - RSPCB",13-01-2024 19:00:00,28.108988,75.386577,SO2,2,11,5
India,Rajasthan,Jodhpur,"Digari Kalan, Jodhpur - RSPCB",13-01-2024 19:00:00,26.295810,73.082283,NO2,13,89,54
India,Rajasthan,Jodhpur,"Digari Kalan, Jodhpur - RSPCB",13-01-2024 19:00:00,26.295810,73.082283,CO,12,138,32
India,Rajasthan,Jodhpur,"Digari Kalan, Jodhpur - RSPCB",13-01-2024 19:00:00,26.295810,73.082283,OZONE,2,106,80
India,Rajasthan,Jodhpur,"Jhalamand, Jodhpur - RSPCB",13-01-2024 19:00:00,26.215415,73.070156,SO2,3,10,6
India,Rajasthan,Jodhpur,"Mandor, Jodhpur - RSPCB",13-01-2024 19:00:00,26.358805,73.047444,PM10,29,166,95
India,Rajasthan,Jodhpur,"Mandor, Jodhpur - RSPCB",13-01-2024 19:00:00,26.358805,73.047444,CO,20,108,40
India,Rajasthan,Jodhpur,"Samrat Ashok Udhyan, Jodhpur - RSPCB",13-01-2024 19:00:00,26.253384,72.976571,CO,24,186,39
India,Rajasthan,Kota,"Nayapura, Kota - RSPCB",13-01-2024 19:00:00,25.196024,75.855668,PM2.5,82,397,256
India,Rajasthan,Kota,"Nayapura, Kota - RSPCB",13-01-2024 19:00:00,25.196024,75.855668,PM10,80,293,166
India,Rajasthan,Kota,"Nayapura, Kota - RSPCB",13-01-2024 19:00:00,25.196024,75.855668,NO2,33,110,62
India,Rajasthan,Kota,"Nayapura, Kota - RSPCB",13-01-2024 19:00:00,25.196024,75.855668,OZONE,1,94,72
India,Rajasthan,Kota,"Shrinath Puram, Kota - RSPCB",13-01-2024 19:00:00,25.14389,75.821256,OZONE,9,95,67
India,Rajasthan,Nagaur,"Karni Colony, Nagaur - RSPCB",13-01-2024 19:00:00,27.213494,73.734444,SO2,4,14,7
India,Rajasthan,Pratapgarh,"Pragati Nagar, Pratapgarh - RSPCB",13-01-2024 19:00:00,24.041198,74.780702,PM2.5,31,301,101
India,Rajasthan,Pratapgarh,"Pragati Nagar, Pratapgarh - RSPCB",13-01-2024 19:00:00,24.041198,74.780702,PM10,67,246,108
India,Rajasthan,Rajsamand,"Dhoinda, Rajsamand - RSPCB",13-01-2024 19:00:00,25.036360,73.883502,NH3,2,16,6
India,Rajasthan,Sikar,"Radhakishan Pura, Sikar - RSPCB",13-01-2024 19:00:00,27.608912,75.153302,NH3,2,4,3
India,Rajasthan,Sikar,"Radhakishan Pura, Sikar - RSPCB",13-01-2024 19:00:00,27.608912,75.153302,CO,23,127,44
India,Rajasthan,Sri Ganganagar,"Old City, Sri Ganganagar - RSPCB",13-01-2024 19:00:00,29.931624,73.864511,PM2.5,153,395,258
India,Rajasthan,Tonk,"Shastri Nagar, Tonk - RSPCB",13-01-2024 19:00:00,26.159933,75.780517,PM2.5,66,333,134
India,Rajasthan,Tonk,"Shastri Nagar, Tonk - RSPCB",13-01-2024 19:00:00,26.159933,75.780517,NO2,18,72,38
India,TamilNadu,Chengalpattu,"Crescent University, Chengalpattu - TNPCB",13-01-2024 19:00:00,12.8777316,80.0834807,SO2,NA,NA,NA
India,TamilNadu,Chengalpattu,"Crescent University, Chengalpattu - TNPCB",13-01-2024 19:00:00,12.8777316,80.0834807,CO,28,28,28
India,TamilNadu,Chennai,"Alandur Bus Depot, Chennai - CPCB",13-01-2024 19:00:00,12.9099161,80.1076538,PM10,82,137,115
India,TamilNadu,Chennai,"Alandur Bus Depot, Chennai - CPCB",13-01-2024 19:00:00,12.9099161,80.1076538,NH3,6,9,7
India,TamilNadu,Chennai,"Arumbakkam, Chennai - TNPCB",13-01-2024 19:00:00,13.0664,80.2112 ,PM2.5,89,232,152
India,TamilNadu,Chennai,"Arumbakkam, Chennai - TNPCB",13-01-2024 19:00:00,13.0664,80.2112 ,PM10,108,149,132
India,TamilNadu,Chennai,"Arumbakkam, Chennai - TNPCB",13-01-2024 19:00:00,13.0664,80.2112 ,NO2,13,40,24
India,TamilNadu,Chennai,"Gandhi Nagar_Ennore, Chennai - TNPCB",13-01-2024 19:00:00,13.218341,80.32027,NH3,NA,NA,NA
India,TamilNadu,Chennai,"Kodungaiyur, Chennai - TNPCB",13-01-2024 19:00:00,13.1278,80.2642,PM2.5,36,93,53
India,TamilNadu,Chennai,"Kodungaiyur, Chennai - TNPCB",13-01-2024 19:00:00,13.1278,80.2642,CO,6,55,32
India,TamilNadu,Chennai,"Kodungaiyur, Chennai - TNPCB",13-01-2024 19:00:00,13.1278,80.2642,OZONE,5,6,6
India,TamilNadu,Chennai,"Manali, Chennai - CPCB",13-01-2024 19:00:00,13.164544,80.26285,NH3,4,8,5
India,TamilNadu,Chennai,"Manali, Chennai - CPCB",13-01-2024 19:00:00,13.164544,80.26285,SO2,5,12,8
India,TamilNadu,Chennai,"Royapuram, Chennai - TNPCB",13-01-2024 19:00:00,13.1036,80.2909,PM2.5,64,292,150
India,TamilNadu,Coimbatore,"PSG College of Arts and Science, Coimbatore - TNPCB",13-01-2024 19:00:00,11.0328,77.0349,NH3,1,1,1
India,TamilNadu,Cuddalore,"Kudikadu, Cuddalore - TNPCB",13-01-2024 19:00:00,11.6829898,79.7532099,NO2,8,11,9
India,TamilNadu,Cuddalore,"Kudikadu, Cuddalore - TNPCB",13-01-2024 19:00:00,11.6829898,79.7532099,SO2,16,18,17
India,TamilNadu,Gummidipoondi,"Anthoni Pillai Nagar, Gummidipoondi - TNPCB",13-01-2024 19:00:00,13.4127,80.1081,PM2.5,89,347,209
India,TamilNadu,Gummidipoondi,"Anthoni Pillai Nagar, Gummidipoondi - TNPCB",13-01-2024 19:00:00,13.4127,80.1081,NH3,2,3,2
India,TamilNadu,Palkalaiperur,"Bharathidasan University, Palkalaiperur - TNPCB",13-01-2024 19:00:00,10.681158,78.741746,CO,2,24,10
India,TamilNadu,Palkalaiperur,"Bharathidasan University, Palkalaiperur - TNPCB",13-01-2024 19:00:00,10.681158,78.741746,OZONE,1,1,1
India,TamilNadu,Thoothukudi,"Meelavittan, Thoothukudi - TNPCB",13-01-2024 19:00:00,8.816428 ,78.099039,OZONE,4,17,7
India,TamilNadu,Tiruchirappalli,"St Joseph College, Tiruchirappalli - TNPCB",13-01-2024 19:00:00,10.830158,78.691849,NH3,3,3,3
India,TamilNadu,Vellore,"Vasanthapuram, Vellore - TNPCB",13-01-2024 19:00:00,12.909494,79.131861,PM2.5,97,202,140
India,Telangana,Hyderabad,"Bollaram Industrial Area, Hyderabad - TSPCB",13-01-2024 19:00:00,17.540891,78.358528,PM2.5,83,190,140
India,Telangana,Hyderabad,"Bollaram Industrial Area, Hyderabad - TSPCB",13-01-2024 19:00:00,17.540891,78.358528,NH3,2,3,2
India,Telangana,Hyderabad,"Central University, Hyderabad - TSPCB",13-01-2024 19:00:00,17.460103,78.334361,NH3,1,9,4
India,Telangana,Hyderabad,"ECIL Kapra, Hyderabad - TSPCB",13-01-2024 19:00:00,17.470431,78.566959,NO2,7,9,9
India,Telangana,Hyderabad,"ECIL Kapra, Hyderabad - TSPCB",13-01-2024 19:00:00,17.470431,78.566959,CO,17,58,25
India,Telangana,Hyderabad,"ICRISAT Patancheru, Hyderabad - TSPCB",13-01-2024 19:00:00,17.518400,78.278777,PM2.5,64,137,97
India,Telangana,Hyderabad,"ICRISAT Patancheru, Hyderabad - TSPCB",13-01-2024 19:00:00,17.518400,78.278777,OZONE,23,143,103
India,Telangana,Hyderabad,"IITH Kandi, Hyderabad - TSPCB",13-01-2024 19:00:00,17.585705,78.126199,PM10,NA,NA,NA
India,Telangana,Hyderabad,"IITH Kandi, Hyderabad - TSPCB",13-01-2024 19:00:00,17.585705,78.126199,CO,2,44,25
India,Telangana,Hyderabad,"IITH Kandi, Hyderabad - TSPCB",13-01-2024 19:00:00,17.585705,78.126199,OZONE,23,30,30
India,Telangana,Hyderabad,"Kokapet, Hyderabad - TSPCB",13-01-2024 19:00:00,17.393559,78.339194,NH3,1,2,1
India,Telangana,Hyderabad,"Kokapet, Hyderabad - TSPCB",13-01-2024 19:00:00,17.393559,78.339194,OZONE,2,27,10
India,Telangana,Hyderabad,"Kompally Municipal Office, Hyderabad - TSPCB",13-01-2024 19:00:00,17.544899,78.486949,PM2.5,34,50,42
India,Telangana,Hyderabad,"Kompally Municipal Office, Hyderabad - TSPCB",13-01-2024 19:00:00,17.544899,78.486949,CO,22,81,23
India,Telangana,Hyderabad,"New Malakpet, Hyderabad - TSPCB",13-01-2024 19:00:00,17.37206,78.50864,CO,18,45,33
India,Telangana,Hyderabad,"New Malakpet, Hyderabad - TSPCB",13-01-2024 19:00:00,17.37206,78.50864,OZONE,6,39,28
India,Telangana,Hyderabad,"Ramachandrapuram, Hyderabad - TSPCB",13-01-2024 19:00:00,17.528544,78.286195,NO2,8,8,8
India,Telangana,Hyderabad,"Sanathnagar, Hyderabad - TSPCB",13-01-2024 19:00:00,17.4559458,78.4332152,SO2,3,50,10
India,Telangana,Hyderabad,"Somajiguda, Hyderabad - TSPCB",13-01-2024 19:00:00,17.417094,78.457437,NO2,NA,NA,NA
India,Telangana,Hyderabad,"Zoo Park, Hyderabad - TSPCB",13-01-2024 19:00:00,17.349694,78.451437,PM10,70,155,110
India,Telangana,Hyderabad,"Zoo Park, Hyderabad - TSPCB",13-01-2024 19:00:00,17.349694,78.451437,NO2,27,54,41
India,Tripura,Agartala,"Bardowali, Agartala - Tripura SPCB",13-01-2024 19:00:00,23.8175497,91.2726974,CO,32,76,51
India,Uttar_Pradesh,Agra,"Manoharpur, Agra - UPPCB",13-01-2024 19:00:00,27.23711,78.01936,OZONE,3,9,6
India,Uttar_Pradesh,Agra,"Sanjay Palace, Agra - UPPCB",13-01-2024 19:00:00,27.19865833,78.00598056,SO2,1,16,8
India,Uttar_Pradesh,Agra,"Sanjay Palace, Agra - UPPCB",13-01-2024 19:00:00,27.19865833,78.00598056,CO,24,121,74
India,Uttar_Pradesh,Agra,"Sector-3B Avas Vikas Colony, Agra - UPPCB",13-01-2024 19:00:00,27.19412,77.96237,PM2.5,51,322,156
India,Uttar_Pradesh,Agra,"Sector-3B Avas Vikas Colony, Agra - UPPCB",13-01-2024 19:00:00,27.19412,77.96237,PM10,78,283,150
India,Uttar_Pradesh,Agra,"Shastripuram, Agra - UPPCB",13-01-2024 19:00:00,27.19862,77.92066,SO2,16,26,20
India,Uttar_Pradesh,Agra,"Shastripuram, Agra - UPPCB",13-01-2024 19:00:00,27.19862,77.92066,CO,5,40,12
India,Uttar_Pradesh,Agra,"Shastripuram, Agra - UPPCB",13-01-2024 19:00:00,27.19862,77.92066,OZONE,5,24,17
India,Uttar_Pradesh,Baghpat,"Sardar Patel Inter College, Baghpat - UPPCB",13-01-2024 19:00:00,28.964949,77.278761,CO,55,102,80
India,Uttar_Pradesh,Baghpat,"Sardar Patel Inter College, Baghpat - UPPCB",13-01-2024 19:00:00,28.964949,77.278761,OZONE,1,40,23
India,Uttar_Pradesh,Bareilly,"Civil Lines, Bareilly - UPPCB",13-01-2024 19:00:00,28.359581,79.414455,PM2.5,NA,NA,NA
India,Uttar_Pradesh,Bareilly,"Civil Lines, Bareilly - UPPCB",13-01-2024 19:00:00,28.359581,79.414455,PM10,NA,NA,NA
India,Uttar_Pradesh,Bareilly,"Civil Lines, Bareilly - UPPCB",13-01-2024 19:00:00,28.359581,79.414455,OZONE,3,26,14
India,Uttar_Pradesh,Bareilly,"Rajendra Nagar, Bareilly - UPPCB",13-01-2024 19:00:00,28.38910936,79.42963708,PM2.5,38,120,79
India,Uttar_Pradesh,Bulandshahr,"Yamunapuram, Bulandshahr - UPPCB",13-01-2024 19:00:00,28.406963,77.849831,PM10,80,277,166
India,Uttar_Pradesh,Firozabad,"Nagla Bhau, Firozabad - UPPCB",13-01-2024 19:00:00,27.168897,78.376960,PM2.5,58,362,162
India,Uttar_Pradesh,Firozabad,"Nagla Bhau, Firozabad - UPPCB",13-01-2024 19:00:00,27.168897,78.376960,NO2,23,24,23
India,Uttar_Pradesh,Firozabad,"Nagla Bhau, Firozabad - UPPCB",13-01-2024 19:00:00,27.168897,78.376960,OZONE,20,77,28
India,Uttar_Pradesh,Ghaziabad,"Indirapuram, Ghaziabad - UPPCB",13-01-2024 19:00:00,28.646233,77.358075,OZONE,5,11,6
India,Uttar_Pradesh,Ghaziabad,"Loni, Ghaziabad - UPPCB",13-01-2024 19:00:00,28.757294,77.278792,NO2,17,67,37
India,Uttar_Pradesh,Ghaziabad,"Loni, Ghaziabad - UPPCB",13-01-2024 19:00:00,28.757294,77.278792,CO,69,122,107
India,Uttar_Pradesh,Ghaziabad,"Loni, Ghaziabad - UPPCB",13-01-2024 19:00:00,28.757294,77.278792,OZONE,1,70,30
India,Uttar_Pradesh,Ghaziabad,"Vasundhara, Ghaziabad - UPPCB",13-01-2024 19:00:00,28.6603346,77.3572563,NO2,4,143,84
India,Uttar_Pradesh,Gorakhpur,"Madan Mohan Malaviya University of Technology, Gorakhpur - UPPCB",13-01-2024 19:00:00,26.730136,83.433859,NO2,2,2,2
India,Uttar_Pradesh,Greater Noida,"Knowledge Park - III, Greater Noida - UPPCB",13-01-2024 19:00:00,28.47272,77.482000,OZONE,1,61,28
India,Uttar_Pradesh,Greater Noida,"Knowledge Park - V, Greater Noida - UPPCB",13-01-2024 19:00:00,28.557054,77.453663,NO2,11,50,28
India,Uttar_Pradesh,Greater Noida,"Knowledge Park - V, Greater Noida - UPPCB",13-01-2024 19:00:00,28.557054,77.453663,SO2,5,10,8
India,Uttar_Pradesh,Hapur,"Anand Vihar, Hapur - UPPCB",13-01-2024 19:00:00,28.725645,77.749675,PM10,130,379,218
India,Uttar_Pradesh,Kanpur,"FTI Kidwai Nagar, Kanpur - UPPCB",13-01-2024 19:00:00,26.428282,80.327067,PM10,98,284,168
India,Uttar_Pradesh,Kanpur,"FTI Kidwai Nagar, Kanpur - UPPCB",13-01-2024 19:00:00,26.428282,80.327067,NH3,4,7,5
India,Uttar_Pradesh,Kanpur,"Nehru Nagar, Kanpur - UPPCB",13-01-2024 19:00:00,26.4703136,80.3229863,NO2,5,120,52
India,Uttar_Pradesh,Kanpur,"Nehru Nagar, Kanpur - UPPCB",13-01-2024 19:00:00,26.4703136,80.3229863,OZONE,7,98,59
India,Uttar_Pradesh,Khurja,"Kalindi Kunj, Khurja - UPPCB",13-01-2024 19:00:00,28.2348927,77.8683002,NH3,1,2,2
India,Uttar_Pradesh,Khurja,"Kalindi Kunj, Khurja - UPPCB",13-01-2024 19:00:00,28.2348927,77.8683002,SO2,38,54,43
India,Uttar_Pradesh,Lucknow,"B R Ambedkar University, Lucknow - UPPCB",13-01-2024 19:00:00,26.766433,80.927299,PM2.5,82,277,159
India,Uttar_Pradesh,Lucknow,"B R Ambedkar University, Lucknow - UPPCB",13-01-2024 19:00:00,26.766433,80.927299,OZONE,3,49,34
India,Uttar_Pradesh,Lucknow,"Gomti Nagar, Lucknow - UPPCB",13-01-2024 19:00:00,26.868120,81.005119,SO2,4,54,12
India,Uttar_Pradesh,Lucknow,"Gomti Nagar, Lucknow - UPPCB",13-01-2024 19:00:00,26.868120,81.005119,OZONE,43,59,56
India,Uttar_Pradesh,Lucknow,"Lalbagh, Lucknow - CPCB",13-01-2024 19:00:00,26.8458805,80.9365541,SO2,1,14,5
India,Uttar_Pradesh,Lucknow,"Talkatora District Industries Center, Lucknow - CPCB",13-01-2024 19:00:00,26.83399722,80.8917361,PM10,148,235,185
India,Uttar_Pradesh,Meerut,"Jai Bhim Nagar, Meerut - UPPCB",13-01-2024 19:00:00,28.9535882,77.7622941,NO2,37,79,52
India,Uttar_Pradesh,Moradabad,"Buddhi Vihar, Moradabad - UPPCB",13-01-2024 19:00:00,28.83526,78.74460,OZONE,13,16,15
India,Uttar_Pradesh,Moradabad,"Eco Herbal Park, Moradabad - UPPCB",13-01-2024 19:00:00,28.840739,78.697531,PM2.5,83,318,190
India,Uttar_Pradesh,Moradabad,"Eco Herbal Park, Moradabad - UPPCB",13-01-2024 19:00:00,28.840739,78.697531,OZONE,4,11,5
India,Uttar_Pradesh,Moradabad,"Employment Office, Moradabad - UPPCB",13-01-2024 19:00:00,28.88528,78.73880,SO2,23,25,24
India,Uttar_Pradesh,Moradabad,"Jigar Colony, Moradabad - UPPCB",13-01-2024 19:00:00,28.856664,78.772638,PM10,72,175,130
India,Uttar_Pradesh,Moradabad,"Kashiram Nagar, Moradabad - UPPCB",13-01-2024 19:00:00,28.849399,78.742362,PM10,75,229,134
India,Uttar_Pradesh,Moradabad,"Transport Nagar, Moradabad - UPPCB",13-01-2024 19:00:00,28.802625,78.753728,PM2.5,71,297,168
India,Uttar_Pradesh,Moradabad,"Transport Nagar, Moradabad - UPPCB",13-01-2024 19:00:00,28.802625,78.753728,NO2,26,45,34
India,Uttar_Pradesh,Muzaffarnagar,"New Mandi, Muzaffarnagar - UPPCB",13-01-2024 19:00:00,29.4723508,77.7194031,NO2,38,117,56
India,Uttar_Pradesh,Muzaffarnagar,"New Mandi, Muzaffarnagar - UPPCB",13-01-2024 19:00:00,29.4723508,77.7194031,SO2,14,29,21
India,Uttar_Pradesh,Muzaffarnagar,"New Mandi, Muzaffarnagar - UPPCB",13-01-2024 19:00:00,29.4723508,77.7194031,CO,60,122,95
India,Uttar_Pradesh,Muzaffarnagar,"New Mandi, Muzaffarnagar - UPPCB",13-01-2024 19:00:00,29.4723508,77.7194031,OZONE,5,47,25
India,Uttar_Pradesh,Noida,"Sector - 125, Noida - UPPCB",13-01-2024 19:00:00,28.5447608,77.3231257,NO2,91,258,149
India,Uttar_Pradesh,Noida,"Sector - 62, Noida - IMD",13-01-2024 19:00:00,28.6245479,77.3577104,PM10,286,500,423
India,Uttar_Pradesh,Noida,"Sector-1, Noida - UPPCB",13-01-2024 19:00:00,28.5898,77.3101,PM10,208,460,326
India,Uttar_Pradesh,Noida,"Sector-116, Noida - UPPCB",13-01-2024 19:00:00,28.569230,77.393848,CO,50,128,96
India,Uttar_Pradesh,Noida,"Sector-116, Noida - UPPCB",13-01-2024 19:00:00,28.569230,77.393848,OZONE,5,37,20
India,Uttar_Pradesh,Prayagraj,"Jhunsi, Prayagraj - UPPCB",13-01-2024 19:00:00,25.425602,81.917152,PM10,67,181,110
India,Uttar_Pradesh,Prayagraj,"Motilal Nehru NIT, Prayagraj - UPPCB",13-01-2024 19:00:00,25.494,81.863,SO2,29,38,36
India,Uttar_Pradesh,Prayagraj,"Motilal Nehru NIT, Prayagraj - UPPCB",13-01-2024 19:00:00,25.494,81.863,OZONE,6,119,26
India,Uttar_Pradesh,Prayagraj,"Nagar Nigam, Prayagraj - UPPCB",13-01-2024 19:00:00,25.44919916 ,81.82735986 ,PM10,69,150,99
India,Uttar_Pradesh,Varanasi,"Bhelupur, Varanasi - UPPCB",13-01-2024 19:00:00,25.301778,82.996789,PM10,45,115,68
India,Uttar_Pradesh,Varanasi,"Bhelupur, Varanasi - UPPCB",13-01-2024 19:00:00,25.301778,82.996789,CO,6,66,19
India,Uttar_Pradesh,Varanasi,"Bhelupur, Varanasi - UPPCB",13-01-2024 19:00:00,25.301778,82.996789,OZONE,4,56,30
India,Uttar_Pradesh,Varanasi,"IESD Banaras Hindu University, Varanasi - UPPCB",13-01-2024 19:00:00,25.262326,82.995408,PM2.5,17,43,27
India,Uttar_Pradesh,Varanasi,"IESD Banaras Hindu University, Varanasi - UPPCB",13-01-2024 19:00:00,25.262326,82.995408,SO2,15,16,15
India,Uttar_Pradesh,Varanasi,"IESD Banaras Hindu University, Varanasi - UPPCB",13-01-2024 19:00:00,25.262326,82.995408,OZONE,1,5,3
India,Uttar_Pradesh,Varanasi,"Maldahiya, Varanasi - UPPCB",13-01-2024 19:00:00,25.32393,82.99687,SO2,34,35,35
India,Uttar_Pradesh,Vrindavan,"Omex Eternity, Vrindavan - UPPCB",13-01-2024 19:00:00,27.5714090,77.6557570,OZONE,24,52,26
India,Uttarakhand,Dehradun,"Doon University, Dehradun - UKPCB",13-01-2024 19:00:00,30.269444,78.044167,CO,76,109,92
India,Uttarakhand,Dehradun,"Doon University, Dehradun - UKPCB",13-01-2024 19:00:00,30.269444,78.044167,OZONE,1,13,7
India,Uttarakhand,Kashipur,"Govt. Girls Inter College, Kashipur - UKPCB",13-01-2024 19:00:00,29.2124114,78.9611753,NO2,18,79,40
India,Uttarakhand,Kashipur,"Govt. Girls Inter College, Kashipur - UKPCB",13-01-2024 19:00:00,29.2124114,78.9611753,OZONE,1,12,8
India,Uttarakhand,Rishikesh,"Shivaji Nagar, Rishikesh - UKPCB",13-01-2024 19:00:00,30.075911,78.2859547,PM2.5,47,91,68
India,West_Bengal,Asansol,"Asansol Court Area, Asansol - WBPCB",13-01-2024 19:00:00,23.685297,86.945968,SO2,11,75,22
India,West_Bengal,Barrackpore,"SVSPA Campus, Barrackpore - WBPCB",13-01-2024 19:00:00,22.7605581,88.3617589,PM2.5,94,328,214
India,West_Bengal,Barrackpore,"SVSPA Campus, Barrackpore - WBPCB",13-01-2024 19:00:00,22.7605581,88.3617589,CO,58,89,66
India,West_Bengal,Durgapur,"Sidhu Kanhu Indoor Stadium, Durgapur - WBPCB",13-01-2024 19:00:00,23.5404352,87.2892225,SO2,17,49,32
India,West_Bengal,Howrah,"Belur Math, Howrah - WBPCB",13-01-2024 19:00:00,22.629801,88.352017,SO2,7,18,12
India,West_Bengal,Howrah,"Ghusuri, Howrah - WBPCB",13-01-2024 19:00:00,22.611968,88.347422,SO2,5,7,6
India,West_Bengal,Howrah,"Ghusuri, Howrah - WBPCB",13-01-2024 19:00:00,22.611968,88.347422,OZONE,9,17,14
India,West_Bengal,Howrah,"Padmapukur, Howrah - WBPCB",13-01-2024 19:00:00,22.5687319,88.2797276,NO2,25,57,40
India,West_Bengal,Kolkata,"Ballygunge, Kolkata - WBPCB",13-01-2024 19:00:00,22.5367507,88.3638022,CO,16,55,32
India,West_Bengal,Kolkata,"Bidhannagar, Kolkata - WBPCB",13-01-2024 19:00:00,22.58157048,88.41002457,PM10,115,187,158
India,West_Bengal,Kolkata,"Bidhannagar, Kolkata - WBPCB",13-01-2024 19:00:00,22.58157048,88.41002457,SO2,5,15,10
India,West_Bengal,Kolkata,"Bidhannagar, Kolkata - WBPCB",13-01-2024 19:00:00,22.58157048,88.41002457,OZONE,6,12,10
India,West_Bengal,Kolkata,"Fort William, Kolkata - WBPCB",13-01-2024 19:00:00,22.556640,88.342674,OZONE,15,88,77
India,West_Bengal,Kolkata,"Jadavpur, Kolkata - WBPCB",13-01-2024 19:00:00,22.49929,88.36917,NH3,5,7,6
India,West_Bengal,Kolkata,"Rabindra Bharati University, Kolkata - WBPCB",13-01-2024 19:00:00,22.627847,88.380669,PM10,86,146,122
India,West_Bengal,Kolkata,"Rabindra Bharati University, Kolkata - WBPCB",13-01-2024 19:00:00,22.627847,88.380669,NO2,18,23,22
India,West_Bengal,Kolkata,"Victoria, Kolkata - WBPCB",13-01-2024 19:00:00,22.5448082,88.3403691,NH3,1,2,1
India,West_Bengal,Siliguri,"Ward-32 Bapupara, Siliguri - WBPCB",13-01-2024 19:00:00,26.6879226,88.4152495,PM2.5,56,375,178
India,West_Bengal,Siliguri,"Ward-32 Bapupara, Siliguri - WBPCB",13-01-2024 19:00:00,26.6879226,88.4152495,NO2,28,80,47
India,West_Bengal,Siliguri,"Ward-32 Bapupara, Siliguri - WBPCB",13-01-2024 19:00:00,26.6879226,88.4152495,SO2,12,14,13
India,Andhra_Pradesh,Amaravati,"Secretariat, Amaravati - APPCB",13-01-2024 19:00:00,16.5150833,80.5181667,PM2.5,61,268,173
India,Andhra_Pradesh,Anantapur,"Gulzarpet, Anantapur - APPCB",13-01-2024 19:00:00,14.675886,77.593027,NO2,8,33,12
India,Andhra_Pradesh,Chittoor,"Gangineni Cheruvu, Chittoor - APPCB",13-01-2024 19:00:00,13.204880,79.097889,PM2.5,51,160,86
India,Andhra_Pradesh,Kadapa,"Yerramukkapalli, Kadapa - APPCB",13-01-2024 19:00:00,14.465052,78.824187,NH3,NA,NA,NA
India,Andhra_Pradesh,Kadapa,"Yerramukkapalli, Kadapa - APPCB",13-01-2024 19:00:00,14.465052,78.824187,CO,23,40,30
India,Andhra_Pradesh,Kadapa,"Yerramukkapalli, Kadapa - APPCB",13-01-2024 19:00:00,14.465052,78.824187,OZONE,3,61,52
India,Andhra_Pradesh,Tirupati,"Tirumala, Tirupati - APPCB",13-01-2024 19:00:00,13.67,79.35,PM2.5,90,199,139
India,Andhra_Pradesh,Tirupati,"Tirumala, Tirupati - APPCB",13-01-2024 19:00:00,13.67,79.35,NH3,1,2,2
India,Andhra_Pradesh,Tirupati,"Vaikuntapuram, Tirupati - APPCB",13-01-2024 19:00:00,13.615387,79.409230,OZONE,1,41,36
India,Andhra_Pradesh,Vijayawada,"HB Colony, Vijayawada - APPCB",13-01-2024 19:00:00,16.536107,80.594233,PM2.5,49,155,70
India,Andhra_Pradesh,Vijayawada,"HB Colony, Vijayawada - APPCB",13-01-2024 19:00:00,16.536107,80.594233,OZONE,5,82,64
India,Andhra_Pradesh,Vijayawada,"Kanuru, Vijayawada - APPCB",13-01-2024 19:00:00,16.486692,80.699436,OZONE,32,32,32
India,Andhra_Pradesh,Vijayawada,"Rajiv Gandhi Park, Vijayawada - APPCB",13-01-2024 19:00:00,16.509717,80.612222,NH3,3,7,5
India,Andhra_Pradesh,Vijayawada,"Rajiv Gandhi Park, Vijayawada - APPCB",13-01-2024 19:00:00,16.509717,80.612222,SO2,7,22,13
India,Assam,Byrnihat,"Central Academy for SFS, Byrnihat - PCBA",13-01-2024 19:00:00,26.071318,91.87488,NO2,42,107,71
India,Assam,Byrnihat,"Central Academy for SFS, Byrnihat - PCBA",13-01-2024 19:00:00,26.071318,91.87488,SO2,15,17,16
India,Assam,Guwahati,"LGBI Airport, Guwahati - PCBA",13-01-2024 19:00:00,26.10887,91.589544,SO2,12,16,14
India,Assam,Guwahati,"Pan Bazaar, Guwahati - PCBA",13-01-2024 19:00:00,26.187500,91.744194,CO,36,106,51
India,Assam,Nagaon,"Christianpatty, Nagaon - PCBA",13-01-2024 19:00:00,26.349082,92.68449,NO2,15,30,20
India,Assam,Nalbari,"Bata Chowk, Nalbari - PCBA",13-01-2024 19:00:00,26.446912,91.439057,PM10,107,416,205
India,Assam,Nalbari,"Bata Chowk, Nalbari - PCBA",13-01-2024 19:00:00,26.446912,91.439057,NH3,8,21,10
India,Assam,Silchar,"Tarapur, Silchar - PCBA",13-01-2024 19:00:00,24.82827,92.79525,NO2,28,38,32
India,Assam,Silchar,"Tarapur, Silchar - PCBA",13-01-2024 19:00:00,24.82827,92.79525,NH3,1,1,1
India,Assam,Silchar,"Tarapur, Silchar - PCBA",13-01-2024 19:00:00,24.82827,92.79525,SO2,5,8,6
India,Bihar,Araria,"Kharahiya Basti, Araria - BSPCB",13-01-2024 19:00:00,26.146529,87.454184,PM2.5,311,428,343
India,Bihar,Arrah,"New DM Office, Arrah - BSPCB",13-01-2024 19:00:00,25.5626095,84.663264,PM10,128,282,200
India,Bihar,Arrah,"New DM Office, Arrah - BSPCB",13-01-2024 19:00:00,25.5626095,84.663264,NH3,5,8,6
India,Bihar,Aurangabad,"Gurdeo Nagar, Aurangabad - BSPCB",13-01-2024 19:00:00,24.75746,84.366208,PM2.5,53,90,66
India,Bihar,Aurangabad,"Gurdeo Nagar, Aurangabad - BSPCB",13-01-2024 19:00:00,24.75746,84.366208,OZONE,9,110,67
India,Bihar,Bhagalpur,"Mayaganj, Bhagalpur - BSPCB",13-01-2024 19:00:00,25.265194,87.012947,PM10,147,292,231
India,Bihar,Bhagalpur,"Mayaganj, Bhagalpur - BSPCB",13-01-2024 19:00:00,25.265194,87.012947,NH3,9,10,9
India,Bihar,Bihar Sharif,"D M Colony, Bihar Sharif - BSPCB",13-01-2024 19:00:00,25.204762,85.514960,NO2,9,11,9
India,Bihar,Chhapra,"Darshan Nagar, Chhapra - BSPCB",13-01-2024 19:00:00,25.7808257,84.7446768,PM10,119,400,240
India,Bihar,Chhapra,"Darshan Nagar, Chhapra - BSPCB",13-01-2024 19:00:00,25.7808257,84.7446768,SO2,6,64,38
India,Bihar,Chhapra,"Darshan Nagar, Chhapra - BSPCB",13-01-2024 19:00:00,25.7808257,84.7446768,OZONE,1,3,1
India,Bihar,Gaya,"Kareemganj, Gaya - BSPCB",13-01-2024 19:00:00,24.792403,84.992416,NH3,1,6,3
India,Bihar,Gaya,"SFTI Kusdihra, Gaya - BSPCB",13-01-2024 19:00:00,24.762518,84.982348,PM2.5,146,282,219
India,Bihar,Hajipur,"Industrial Area, Hajipur - BSPCB",13-01-2024 19:00:00,25.697189,85.245900,PM10,200,362,250
India,Bihar,Hajipur,"Industrial Area, Hajipur - BSPCB",13-01-2024 19:00:00,25.697189,85.245900,NO2,14,81,29
India,Bihar,Hajipur,"Industrial Area, Hajipur - BSPCB",13-01-2024 19:00:00,25.697189,85.245900,CO,42,102,69
India,Bihar,Hajipur,"Industrial Area, Hajipur - BSPCB",13-01-2024 19:00:00,25.697189,85.245900,OZONE,7,43,15
India,Bihar,Katihar,"Mirchaibari, Katihar - BSPCB",13-01-2024 19:00:00,25.560083,87.553265,SO2,20,25,23
India,Bihar,Kishanganj,"SDM Office_Khagra, Kishanganj - BSPCB",13-01-2024 19:00:00,26.0881305,87.93840336,NO2,28,36,30
India,Bihar,Kishanganj,"SDM Office_Khagra, Kishanganj - BSPCB",13-01-2024 19:00:00,26.0881305,87.93840336,NH3,10,15,13
India,Bihar,Manguraha,"Forest Rest House, Manguraha - BSPCB",13-01-2024 19:00:00,27.308328,84.531742,NO2,NA,NA,NA
India,Bihar,Munger,"Town Hall, Munger - BSPCB",13-01-2024 19:00:00,25.376776,86.471523,PM10,101,242,163
India,Bihar,Muzaffarpur,"Buddha Colony, Muzaffarpur - BSPCB",13-01-2024 19:00:00,26.11442,85.39813,PM2.5,296,369,326
India,Bihar,Muzaffarpur,"Buddha Colony, Muzaffarpur - BSPCB",13-01-2024 19:00:00,26.11442,85.39813,PM10,195,401,270
India,Bihar,Muzaffarpur,"Muzaffarpur Collectorate, Muzaffarpur - BSPCB",13-01-2024 19:00:00,26.1209,85.3647,OZONE,11,87,57
India,Bihar,Patna,"DRM Office Danapur, Patna - BSPCB",13-01-2024 19:00:00,25.586562,85.043586,NH3,4,5,4
India,Bihar,Patna,"DRM Office Danapur, Patna - BSPCB",13-01-2024 19:00:00,25.586562,85.043586,SO2,6,8,7
India,Bihar,Patna,"IGSC Planetarium Complex, Patna - BSPCB",13-01-2024 19:00:00,25.610369,85.132568,CO,29,80,45
India,Bihar,Patna,"Muradpur, Patna - BSPCB",13-01-2024 19:00:00,25.619651,85.147382,NH3,1,8,3
India,Bihar,Patna,"Muradpur, Patna - BSPCB",13-01-2024 19:00:00,25.619651,85.147382,OZONE,4,40,29
India,Bihar,Patna,"Samanpura, Patna - BSPCB",13-01-2024 19:00:00,25.596727,85.085624,PM2.5,316,500,365
India,Bihar,Patna,"Samanpura, Patna - BSPCB",13-01-2024 19:00:00,25.596727,85.085624,NH3,2,3,3
India,Bihar,Patna,"Samanpura, Patna - BSPCB",13-01-2024 19:00:00,25.596727,85.085624,OZONE,9,57,45
India,Bihar,Rajgir,"Dangi Tola, Rajgir - BSPCB",13-01-2024 19:00:00,25.03280,85.41948,NH3,1,7,2
India,Bihar,Saharsa,"Police Line, Saharsa - BSPCB",13-01-2024 19:00:00,25.892357,86.590325,SO2,18,18,18
India,Bihar,Samastipur,"DM Office_Kasipur, Samastipur - BSPCB",13-01-2024 19:00:00,25.859655,85.77944,PM10,77,121,97
India,Bihar,Samastipur,"DM Office_Kasipur, Samastipur - BSPCB",13-01-2024 19:00:00,25.859655,85.77944,NH3,4,4,4
India,Bihar,Samastipur,"DM Office_Kasipur, Samastipur - BSPCB",13-01-2024 19:00:00,25.859655,85.77944,CO,17,38,26
India,Bihar,Sasaram,"Dada Peer, Sasaram - BSPCB",13-01-2024 19:00:00,24.952822,84.002396,NO2,2,16,7
India,Bihar,Siwan,"Chitragupta Nagar, Siwan - BSPCB",13-01-2024 19:00:00,26.2271665,84.3570427,NO2,15,53,30
India,Bihar,Siwan,"Chitragupta Nagar, Siwan - BSPCB",13-01-2024 19:00:00,26.2271665,84.3570427,SO2,8,35,29
India,Bihar,Siwan,"Chitragupta Nagar, Siwan - BSPCB",13-01-2024 19:00:00,26.2271665,84.3570427,CO,104,177,137
India,Chandigarh,Chandigarh,"Sector-25, Chandigarh - CPCC",13-01-2024 19:00:00,30.751462,76.762879,OZONE,1,28,15
India,Chandigarh,Chandigarh,"Sector-53, Chandigarh - CPCC",13-01-2024 19:00:00,30.719859,76.738637,OZONE,7,47,30
India,Chhattisgarh,Bhilai,"32Bungalows, Bhilai - CECB",13-01-2024 19:00:00,21.194815,81.314770,PM2.5,46,75,61
India,Chhattisgarh,Bhilai,"32Bungalows, Bhilai - CECB",13-01-2024 19:00:00,21.194815,81.314770,CO,33,76,51
India,Chhattisgarh,Bhilai,"Civic Center, Bhilai - Bhilai Steel Plant",13-01-2024 19:00:00,21.185571,81.343175,PM2.5,26,81,52
India,Chhattisgarh,Bhilai,"Civic Center, Bhilai - Bhilai Steel Plant",13-01-2024 19:00:00,21.185571,81.343175,PM10,44,120,78
India,Chhattisgarh,Bhilai,"Civic Center, Bhilai - Bhilai Steel Plant",13-01-2024 19:00:00,21.185571,81.343175,NO2,2,130,21
India,Chhattisgarh,Bhilai,"Civic Center, Bhilai - Bhilai Steel Plant",13-01-2024 19:00:00,21.185571,81.343175,SO2,10,33,12
India,Chhattisgarh,Bhilai,"Hathkhoj, Bhilai - CECB",13-01-2024 19:00:00,21.224231,81.408350,PM2.5,43,285,114
India,Chhattisgarh,Bhilai,"Hathkhoj, Bhilai - CECB",13-01-2024 19:00:00,21.224231,81.408350,NH3,7,8,8
India,Chhattisgarh,Bhilai,"Hathkhoj, Bhilai - CECB",13-01-2024 19:00:00,21.224231,81.408350,SO2,13,49,25
India,Chhattisgarh,Bhilai,"Hathkhoj, Bhilai - CECB",13-01-2024 19:00:00,21.224231,81.408350,CO,16,64,24
India,Chhattisgarh,Chhal,"Nawapara SECL Colony, Chhal - CECB",13-01-2024 19:00:00,22.118125,83.140608,PM10,23,99,46
India,Chhattisgarh,Chhal,"Nawapara SECL Colony, Chhal - CECB",13-01-2024 19:00:00,22.118125,83.140608,NH3,2,2,2
India,Chhattisgarh,Korba,"Rampur, Korba - CECB",13-01-2024 19:00:00,22.368195,82.746431,NO2,18,52,38
India,Chhattisgarh,Korba,"Urja Nagar, Korba - CECB",13-01-2024 19:00:00,22.348441,82.549611,SO2,4,7,6
India,Chhattisgarh,Korba,"Urja Nagar, Korba - CECB",13-01-2024 19:00:00,22.348441,82.549611,CO,18,31,23
India,Chhattisgarh,Kunjemura,"OP Jindal School, Kunjemura - CECB",13-01-2024 19:00:00,22.126650,83.483212,PM2.5,11,144,54
India,Chhattisgarh,Kunjemura,"OP Jindal School, Kunjemura - CECB",13-01-2024 19:00:00,22.126650,83.483212,CO,18,62,24
India,Chhattisgarh,Milupara,"Govt. Higher Secondary School, Milupara - CECB",13-01-2024 19:00:00,22.1910172,83.5197009,PM10,17,143,37
India,Chhattisgarh,Milupara,"Govt. Higher Secondary School, Milupara - CECB",13-01-2024 19:00:00,22.1910172,83.5197009,SO2,8,19,11
India,Chhattisgarh,Milupara,"Govt. Higher Secondary School, Milupara - CECB",13-01-2024 19:00:00,22.1910172,83.5197009,CO,14,48,25
India,Chhattisgarh,Raipur,"AIIMS, Raipur - CECB",13-01-2024 19:00:00,21.258815,81.578979,CO,28,63,32
India,Chhattisgarh,Raipur,"Bhatagaon New ISBT, Raipur - CECB",13-01-2024 19:00:00,21.219665,81.630094,NO2,63,87,74
India,Chhattisgarh,Raipur,"Krishak Nagar, Raipur - CECB",13-01-2024 19:00:00,21.237755,81.705301,OZONE,2,6,4
India,Chhattisgarh,Raipur,"Siltara Phase-II, Raipur - CECB",13-01-2024 19:00:00,21.371751,81.664929,NH3,1,13,7
India,Chhattisgarh,Tumidih,"OP Jindal Industrial Park, Tumidih - CECB",13-01-2024 19:00:00,22.06631475,83.33820077,OZONE,4,60,48
India,Delhi,Delhi,"Alipur, Delhi - DPCC",13-01-2024 19:00:00,28.815329,77.153010,CO,64,86,80
India,Delhi,Delhi,"Alipur, Delhi - DPCC",13-01-2024 19:00:00,28.815329,77.153010,OZONE,3,81,47
India,Delhi,Delhi,"Anand Vihar, Delhi - DPCC",13-01-2024 19:00:00,28.647622,77.3158090,CO,118,142,130
India,Delhi,Delhi,"Anand Vihar, Delhi - DPCC",13-01-2024 19:00:00,28.647622,77.3158090,OZONE,15,39,28
India,Delhi,Delhi,"Ashok Vihar, Delhi - DPCC",13-01-2024 19:00:00,28.695381,77.181665,NO2,43,153,88
India,Delhi,Delhi,"Aya Nagar, Delhi - IMD",13-01-2024 19:00:00,28.4706914,77.1099364,PM2.5,182,500,372
India,Delhi,Delhi,"CRRI Mathura Road, Delhi - IMD",13-01-2024 19:00:00,28.5512005,77.2735737,PM10,171,456,307
India,Delhi,Delhi,"DTU, Delhi - CPCB",13-01-2024 19:00:00,28.7500499,77.1112615,OZONE,26,33,28
India,Delhi,Delhi,"Dr. Karni Singh Shooting Range, Delhi - DPCC",13-01-2024 19:00:00,28.498571,77.264840,PM2.5,331,500,433
India,Delhi,Delhi,"Dr. Karni Singh Shooting Range, Delhi - DPCC",13-01-2024 19:00:00,28.498571,77.264840,NO2,56,214,108
India,Delhi,Delhi,"Dr. Karni Singh Shooting Range, Delhi - DPCC",13-01-2024 19:00:00,28.498571,77.264840,NH3,9,21,12
India,Delhi,Delhi,"Dwarka-Sector 8, Delhi - DPCC ",13-01-2024 19:00:00,28.5710274,77.0719006,PM2.5,422,500,466
India,Delhi,Delhi,"Dwarka-Sector 8, Delhi - DPCC ",13-01-2024 19:00:00,28.5710274,77.0719006,SO2,8,12,10
India,Delhi,Delhi,"IHBAS, Dilshad Garden, Delhi - CPCB",13-01-2024 19:00:00,28.6811736,77.3025234,SO2,2,28,6
India,Delhi,Delhi,"ITO, Delhi - CPCB",13-01-2024 19:00:00,28.628624,77.241060,PM10,187,460,318
India,Delhi,Delhi,"ITO, Delhi - CPCB",13-01-2024 19:00:00,28.628624,77.241060,SO2,9,31,16
India,Delhi,Delhi,"Jahangirpuri, Delhi - DPCC",13-01-2024 19:00:00,28.732820,77.170633,PM10,224,500,415
India,Delhi,Delhi,"Jawaharlal Nehru Stadium, Delhi - DPCC",13-01-2024 19:00:00,28.580280,77.233829,NH3,10,16,12
India,Delhi,Delhi,"Jawaharlal Nehru Stadium, Delhi - DPCC",13-01-2024 19:00:00,28.580280,77.233829,SO2,15,37,27
India,Delhi,Delhi,"Lodhi Road, Delhi - IITM",13-01-2024 19:00:00,28.588333,77.221667,PM2.5,38,307,182
India,Delhi,Delhi,"Mandir Marg, Delhi - DPCC",13-01-2024 19:00:00,28.636429,77.201067,CO,26,111,103
India,Delhi,Delhi,"Najafgarh, Delhi - DPCC",13-01-2024 19:00:00,28.570173,76.933762,PM10,168,438,257
India,Delhi,Delhi,"Najafgarh, Delhi - DPCC",13-01-2024 19:00:00,28.570173,76.933762,OZONE,2,180,89
India,Delhi,Delhi,"Nehru Nagar, Delhi - DPCC",13-01-2024 19:00:00,28.567890,77.250515,NO2,19,115,59
India,Delhi,Delhi,"New Moti Bagh, Delhi - MHUA",13-01-2024 19:00:00,28.57834,77.18400,NO2,2,18,8
India,Delhi,Delhi,"North Campus, DU, Delhi - IMD",13-01-2024 19:00:00,28.6573814,77.1585447,PM2.5,347,500,420
India,Delhi,Delhi,"North Campus, DU, Delhi - IMD",13-01-2024 19:00:00,28.6573814,77.1585447,NO2,40,137,72
India,Delhi,Delhi,"North Campus, DU, Delhi - IMD",13-01-2024 19:00:00,28.6573814,77.1585447,OZONE,26,50,44
India,Delhi,Delhi,"Punjabi Bagh, Delhi - DPCC",13-01-2024 19:00:00,28.674045,77.131023,NH3,6,10,7
India,Delhi,Delhi,"Pusa, Delhi - DPCC",13-01-2024 19:00:00,28.639652,77.146275,NH3,26,55,40
India,Delhi,Delhi,"Pusa, Delhi - IMD",13-01-2024 19:00:00,28.636110,77.173332,PM2.5,273,500,400
India,Delhi,Delhi,"R K Puram, Delhi - DPCC",13-01-2024 19:00:00,28.563262,77.186937,PM10,302,500,422
India,Delhi,Delhi,"R K Puram, Delhi - DPCC",13-01-2024 19:00:00,28.563262,77.186937,NH3,6,13,9
India,Delhi,Delhi,"Rohini, Delhi - DPCC",13-01-2024 19:00:00,28.732528,77.119920,PM2.5,368,500,454
India,Delhi,Delhi,"Shadipur, Delhi - CPCB",13-01-2024 19:00:00,28.6514781,77.1473105,NO2,35,78,53
India,Delhi,Delhi,"Sirifort, Delhi - CPCB",13-01-2024 19:00:00,28.5504249,77.2159377,PM2.5,334,474,424
India,Delhi,Delhi,"Sonia Vihar, Delhi - DPCC",13-01-2024 19:00:00,28.710508,77.249485,NH3,8,12,10
India,Delhi,Delhi,"Sonia Vihar, Delhi - DPCC",13-01-2024 19:00:00,28.710508,77.249485,CO,81,115,103
India,Delhi,Delhi,"Sri Aurobindo Marg, Delhi - DPCC",13-01-2024 19:00:00,28.531346,77.190156,OZONE,4,26,17
India,Delhi,Delhi,"Vivek Vihar, Delhi - DPCC",13-01-2024 19:00:00,28.672342,77.315260,PM2.5,360,500,440
India,Delhi,Delhi,"Vivek Vihar, Delhi - DPCC",13-01-2024 19:00:00,28.672342,77.315260,PM10,209,500,394
India,Delhi,Delhi,"Wazirpur, Delhi - DPCC",13-01-2024 19:00:00,28.699793,77.165453,NH3,5,9,7
India,Delhi,Delhi,"Wazirpur, Delhi - DPCC",13-01-2024 19:00:00,28.699793,77.165453,SO2,19,42,28
India,Gujarat,Ahmedabad,"Chandkheda, Ahmedabad - IITM",13-01-2024 19:00:00,23.107969,72.574648,PM2.5,54,245,112
India,Gujarat,Ahmedabad,"Gyaspur, Ahmedabad - IITM",13-01-2024 19:00:00,22.977134,72.553024,CO,12,28,16
India,Gujarat,Ahmedabad,"Maninagar, Ahmedabad - GPCB",13-01-2024 19:00:00,23.002657,72.591912,CO,12,47,21
India,Gujarat,Ahmedabad,"Rakhial, Ahmedabad - IITM",13-01-2024 19:00:00,23.016834,72.625775,PM2.5,77,245,149
India,Gujarat,Ahmedabad,"SAC ISRO Bopal, Ahmedabad - IITM",13-01-2024 19:00:00,23.041137,72.456691,NO2,10,11,10
India,Gujarat,Ahmedabad,"SAC ISRO Bopal, Ahmedabad - IITM",13-01-2024 19:00:00,23.041137,72.456691,SO2,6,7,7
India,Gujarat,Ahmedabad,"SAC ISRO Satellite, Ahmedabad - IITM",13-01-2024 19:00:00,23.023389,72.515201,PM2.5,83,86,85
India,Gujarat,Ahmedabad,"SAC ISRO Satellite, Ahmedabad - IITM",13-01-2024 19:00:00,23.023389,72.515201,NO2,16,16,16
India,Gujarat,Ahmedabad,"SVPI Airport Hansol, Ahmedabad - IITM",13-01-2024 19:00:00,23.076793,72.627874,PM2.5,61,254,139
India,Gujarat,Gandhinagar,"GIFT City, Gandhinagar - IITM",13-01-2024 19:00:00,23.163798,72.677768,PM2.5,35,75,53
India,Gujarat,Gandhinagar,"Sector-10, Gandhinagar - GPCB",13-01-2024 19:00:00,23.221714,72.654328,PM10,32,108,56
India,Gujarat,Gandhinagar,"Sector-10, Gandhinagar - GPCB",13-01-2024 19:00:00,23.221714,72.654328,NH3,1,2,2
India,Gujarat,Gandhinagar,"Sector-10, Gandhinagar - GPCB",13-01-2024 19:00:00,23.221714,72.654328,CO,20,20,20
India,Gujarat,Gandhinagar,"Sector-10, Gandhinagar - GPCB",13-01-2024 19:00:00,23.221714,72.654328,OZONE,15,15,15
India,Gujarat,Surat,"Science Center, Surat - SMC",13-01-2024 19:00:00,21.170046,72.795405,PM10,40,84,66
India,Gujarat,Surat,"Science Center, Surat - SMC",13-01-2024 19:00:00,21.170046,72.795405,CO,44,66,56
India,Gujarat,Vapi,"Phase-1 GIDC, Vapi - GPCB",13-01-2024 19:00:00,20.362421,72.918013,PM2.5,111,332,229
India,Gujarat,Vapi,"Phase-1 GIDC, Vapi - GPCB",13-01-2024 19:00:00,20.362421,72.918013,NH3,6,6,6
India,Gujarat,Vapi,"Phase-1 GIDC, Vapi - GPCB",13-01-2024 19:00:00,20.362421,72.918013,CO,144,156,50
India,Gujarat,Vapi,"Phase-1 GIDC, Vapi - GPCB",13-01-2024 19:00:00,20.362421,72.918013,OZONE,1,9,6
India,Haryana,Ambala,"Patti Mehar, Ambala - HSPCB",13-01-2024 19:00:00,30.379589,76.778328,PM10,NA,NA,NA
India,Haryana,Bahadurgarh,"Arya Nagar, Bahadurgarh - HSPCB",13-01-2024 19:00:00,28.6701,76.9254,NO2,33,41,37
India,Haryana,Bahadurgarh,"Arya Nagar, Bahadurgarh - HSPCB",13-01-2024 19:00:00,28.6701,76.9254,NH3,11,13,12
India,Haryana,Ballabgarh,"Nathu Colony, Ballabgarh - HSPCB",13-01-2024 19:00:00,28.3419248,77.319699,PM2.5,253,383,326
India,Haryana,Ballabgarh,"Nathu Colony, Ballabgarh - HSPCB",13-01-2024 19:00:00,28.3419248,77.319699,NO2,12,13,12
India,Haryana,Ballabgarh,"Nathu Colony, Ballabgarh - HSPCB",13-01-2024 19:00:00,28.3419248,77.319699,SO2,1,15,7
India,Haryana,Bhiwani,"H.B. Colony, Bhiwani - HSPCB",13-01-2024 19:00:00,28.806223,76.141105,PM2.5,107,316,213
India,Haryana,Bhiwani,"H.B. Colony, Bhiwani - HSPCB",13-01-2024 19:00:00,28.806223,76.141105,PM10,95,178,131
India,Haryana,Bhiwani,"H.B. Colony, Bhiwani - HSPCB",13-01-2024 19:00:00,28.806223,76.141105,NO2,6,13,9
India,Haryana,Charkhi Dadri,"Mini Secretariat, Charkhi Dadri - HSPCB",13-01-2024 19:00:00,28.593883,76.270653,NO2,9,19,12
India,Haryana,Dharuhera,"Municipal Corporation Office, Dharuhera -  HSPCB",13-01-2024 19:00:00,28.206800,76.799700,NO2,46,111,72
India,Haryana,Dharuhera,"Municipal Corporation Office, Dharuhera -  HSPCB",13-01-2024 19:00:00,28.206800,76.799700,SO2,7,21,11
India,Haryana,Faridabad,"Sector 30, Faridabad - HSPCB",13-01-2024 19:00:00,28.4417,77.3217,PM10,131,147,143
India,Haryana,Faridabad,"Sector 30, Faridabad - HSPCB",13-01-2024 19:00:00,28.4417,77.3217,SO2,3,4,3
India,Haryana,Faridabad,"Sector 30, Faridabad - HSPCB",13-01-2024 19:00:00,28.4417,77.3217,CO,63,150,106
India,Haryana,Faridabad,"Sector- 16A, Faridabad - HSPCB",13-01-2024 19:00:00,28.4088421,77.3099081,NO2,17,99,51
India,Haryana,Gurugram,"Vikas Sadan, Gurugram - HSPCB",13-01-2024 19:00:00,28.4501238,77.0263051,PM2.5,98,381,289
India,Haryana,Hisar,"Urban Estate-II, Hisar - HSPCB",13-01-2024 19:00:00,29.140560,75.744941,PM10,NA,NA,NA
India,Haryana,Kaithal,"Rishi Nagar, Kaithal - HSPCB",13-01-2024 19:00:00,29.8006,76.4155,NH3,8,8,8
India,Haryana,Karnal,"Sector-12, Karnal - HSPCB",13-01-2024 19:00:00,29.695300,77.002700,PM10,125,179,145
India,Haryana,Karnal,"Sector-12, Karnal - HSPCB",13-01-2024 19:00:00,29.695300,77.002700,NO2,7,12,10
India,Haryana,Karnal,"Sector-12, Karnal - HSPCB",13-01-2024 19:00:00,29.695300,77.002700,NH3,10,13,11
India,Haryana,Karnal,"Sector-12, Karnal - HSPCB",13-01-2024 19:00:00,29.695300,77.002700,CO,56,97,83
India,Haryana,Kurukshetra,"Sector-7, Kurukshetra - HSPCB",13-01-2024 19:00:00,29.966942,76.875879,PM2.5,99,245,183
India,Haryana,Kurukshetra,"Sector-7, Kurukshetra - HSPCB",13-01-2024 19:00:00,29.966942,76.875879,NO2,10,38,11
India,Haryana,Mandikhera,"General Hospital, Mandikhera - HSPCB",13-01-2024 19:00:00,27.9002,76.9938,OZONE,24,32,28
India,Haryana,Palwal,"Shyam Nagar, Palwal - HSPCB",13-01-2024 19:00:00,28.1485564,77.3320667,PM10,81,152,125
India,Haryana,Panipat,"Sector-18, Panipat - HSPCB",13-01-2024 19:00:00,29.497973,76.993331,PM10,129,138,134
India,Haryana,Rohtak,"MD University, Rohtak - HSPCB",13-01-2024 19:00:00,28.52123,76.37138,NO2,46,54,50
India,Haryana,Rohtak,"MD University, Rohtak - HSPCB",13-01-2024 19:00:00,28.52123,76.37138,SO2,1,39,9
India,Haryana,Sirsa,"F-Block, Sirsa - HSPCB",13-01-2024 19:00:00,29.536400,75.015800,NH3,12,13,13
India,Haryana,Sirsa,"F-Block, Sirsa - HSPCB",13-01-2024 19:00:00,29.536400,75.015800,CO,64,80,68
India,Haryana,Sirsa,"F-Block, Sirsa - HSPCB",13-01-2024 19:00:00,29.536400,75.015800,OZONE,17,59,39
India,Haryana,Sonipat,"Murthal, Sonipat - HSPCB",13-01-2024 19:00:00,29.027200,77.062100,PM2.5,162,344,285
India,Haryana,Yamuna Nagar,"Gobind Pura, Yamuna Nagar - HSPCB",13-01-2024 19:00:00,30.1480566,77.2893471,CO,12,110,64
India,Himachal Pradesh,Baddi,"HIMUDA Complex Phase-1, Baddi - HPPCB",13-01-2024 19:00:00,30.943887,76.801991,CO,64,109,80
India,Jharkhand,Dhanbad,"Kalakusuma, Dhanbad - DMC",13-01-2024 19:00:00,23.811548,86.481238,NO2,32,34,33
India,Jharkhand,Dhanbad,"Kalakusuma, Dhanbad - DMC",13-01-2024 19:00:00,23.811548,86.481238,SO2,110,115,114
India,Jharkhand,Dhanbad,"Kalakusuma, Dhanbad - DMC",13-01-2024 19:00:00,23.811548,86.481238,OZONE,24,42,36
India,Jharkhand,Dhanbad,"Sardar Patel Nagar, Dhanbad - JSPCB",13-01-2024 19:00:00,23.80569,86.44268,SO2,6,35,21
India,Jharkhand,Pathardih,"Mohalbani Ghat, Pathardih - DMC",13-01-2024 19:00:00,23.669880,86.411725,NO2,116,184,141
India,Karnataka,Bagalkot,"Vidayagiri, Bagalkot - KSPCB",13-01-2024 19:00:00,16.172806,75.659694,NH3,1,2,1
India,Karnataka,Bagalkot,"Vidayagiri, Bagalkot - KSPCB",13-01-2024 19:00:00,16.172806,75.659694,CO,28,52,42
India,Karnataka,Bagalkot,"Vidayagiri, Bagalkot - KSPCB",13-01-2024 19:00:00,16.172806,75.659694,OZONE,28,41,37
India,Karnataka,Belgaum,"Ramteerth Nagar, Belgaum - KSPCB",13-01-2024 19:00:00,15.888653,74.541751,PM10,54,128,76
India,Karnataka,Belgaum,"Ramteerth Nagar, Belgaum - KSPCB",13-01-2024 19:00:00,15.888653,74.541751,NO2,26,37,30
