country,state,city,station,last_update,latitude,longitude,pollutant_id,pollutant_min,pollutant_max,pollutant_avg
India,Andhra_Pradesh,Anantapur,"Gulzarpet, Anantapur - APPCB",26-01-2024 22:00:00,14.675886,77.593027,PM2.5,34,52,45
India,Andhra_Pradesh,Anantapur,"Gulzarpet, Anantapur - APPCB",26-01-2024 22:00:00,14.675886,77.593027,NO2,17,43,24
India,Andhra_Pradesh,Tirupati,"Tirumala, Tirupati - APPCB",26-01-2024 22:00:00,13.67,79.35,PM2.5,45,100,66
India,Andhra_Pradesh,Tirupati,"Tirumala, Tirupati - APPCB",26-01-2024 22:00:00,13.67,79.35,OZONE,6,31,20
India,Andhra_Pradesh,Tirupati,"Vaikuntapuram, Tirupati - APPCB",26-01-2024 22:00:00,13.615387,79.409230,PM2.5,NA,NA,NA
India,Andhra_Pradesh,Tirupati,"Vaikuntapuram, Tirupati - APPCB",26-01-2024 22:00:00,13.615387,79.409230,NH3,NA,NA,NA
India,Andhra_Pradesh,Visakhapatnam,"GVM Corporation, Visakhapatnam - APPCB",26-01-2024 22:00:00,17.72,83.3,SO2,5,17,14
India,Arunachal_Pradesh,Naharlagun,"Naharlagun, Naharlagun - APSPCB",26-01-2024 22:00:00,27.103358,93.679645,OZONE,2,2,2
India,Assam,Byrnihat,"Central Academy for SFS, Byrnihat - PCBA",26-01-2024 22:00:00,26.071318,91.87488,PM2.5,133,449,322
India,Assam,Byrnihat,"Central Academy for SFS, Byrnihat - PCBA",26-01-2024 22:00:00,26.071318,91.87488,NH3,1,4,2
India,Assam,Guwahati,"LGBI Airport, Guwahati - PCBA",26-01-2024 22:00:00,26.10887,91.589544,SO2,9,19,12
India,Assam,Guwahati,"Pan Bazaar, Guwahati - PCBA",26-01-2024 22:00:00,26.187500,91.744194,PM10,100,236,149
India,Assam,Guwahati,"Pan Bazaar, Guwahati - PCBA",26-01-2024 22:00:00,26.187500,91.744194,NO2,1,10,6
India,Assam,Guwahati,"Railway Colony, Guwahati - PCBA",26-01-2024 22:00:00,26.181742,91.78063,OZONE,8,40,24
India,Assam,Nagaon,"Christianpatty, Nagaon - PCBA",26-01-2024 22:00:00,26.349082,92.68449,PM2.5,133,330,252
India,Assam,Nagaon,"Christianpatty, Nagaon - PCBA",26-01-2024 22:00:00,26.349082,92.68449,CO,6,30,23
India,Assam,Silchar,"Tarapur, Silchar - PCBA",26-01-2024 22:00:00,24.82827,92.79525,PM2.5,29,45,37
India,Assam,Sivasagar,"Girls College, Sivasagar - PCBA",26-01-2024 22:00:00,26.987634,94.636574,PM2.5,15,48,34
India,Assam,Sivasagar,"Girls College, Sivasagar - PCBA",26-01-2024 22:00:00,26.987634,94.636574,PM10,35,98,68
India,Assam,Sivasagar,"Girls College, Sivasagar - PCBA",26-01-2024 22:00:00,26.987634,94.636574,SO2,5,5,5
India,Assam,Sivasagar,"Girls College, Sivasagar - PCBA",26-01-2024 22:00:00,26.987634,94.636574,OZONE,1,3,2
India,Bihar,Araria,"Kharahiya Basti, Araria - BSPCB",26-01-2024 22:00:00,26.146529,87.454184,NH3,6,8,7
India,Bihar,Arrah,"New DM Office, Arrah - BSPCB",26-01-2024 22:00:00,25.5626095,84.663264,PM2.5,302,393,336
India,Bihar,Aurangabad,"Gurdeo Nagar, Aurangabad - BSPCB",26-01-2024 22:00:00,24.75746,84.366208,NO2,6,12,9
India,Bihar,Aurangabad,"Gurdeo Nagar, Aurangabad - BSPCB",26-01-2024 22:00:00,24.75746,84.366208,OZONE,5,84,56
India,Bihar,Bhagalpur,"DM Office_Kachari Chowk, Bhagalpur - BSPCB",26-01-2024 22:00:00,25.251013,86.989001,NO2,34,90,45
India,Bihar,Bhagalpur,"DM Office_Kachari Chowk, Bhagalpur - BSPCB",26-01-2024 22:00:00,25.251013,86.989001,SO2,10,107,30
India,Bihar,Bhagalpur,"Mayaganj, Bhagalpur - BSPCB",26-01-2024 22:00:00,25.265194,87.012947,NO2,3,25,10
India,Bihar,Bhagalpur,"Mayaganj, Bhagalpur - BSPCB",26-01-2024 22:00:00,25.265194,87.012947,SO2,3,13,11
India,Bihar,Bhagalpur,"Mayaganj, Bhagalpur - BSPCB",26-01-2024 22:00:00,25.265194,87.012947,CO,7,10,9
India,Bihar,Bihar Sharif,"D M Colony, Bihar Sharif - BSPCB",26-01-2024 22:00:00,25.204762,85.514960,CO,5,48,30
India,Bihar,Chhapra,"Darshan Nagar, Chhapra - BSPCB",26-01-2024 22:00:00,25.7808257,84.7446768,PM10,152,381,242
India,Bihar,Chhapra,"Darshan Nagar, Chhapra - BSPCB",26-01-2024 22:00:00,25.7808257,84.7446768,NO2,13,29,19
India,Bihar,Chhapra,"Darshan Nagar, Chhapra - BSPCB",26-01-2024 22:00:00,25.7808257,84.7446768,NH3,9,16,13
India,Bihar,Chhapra,"Darshan Nagar, Chhapra - BSPCB",26-01-2024 22:00:00,25.7808257,84.7446768,OZONE,1,2,1
India,Bihar,Gaya,"Collectorate, Gaya - BSPCB",26-01-2024 22:00:00,24.7955,84.9994,SO2,14,35,20
India,Bihar,Gaya,"Collectorate, Gaya - BSPCB",26-01-2024 22:00:00,24.7955,84.9994,OZONE,46,80,57
India,Bihar,Gaya,"Kareemganj, Gaya - BSPCB",26-01-2024 22:00:00,24.792403,84.992416,CO,7,98,53
India,Bihar,Gaya,"SFTI Kusdihra, Gaya - BSPCB",26-01-2024 22:00:00,24.762518,84.982348,PM2.5,110,287,210
India,Bihar,Gaya,"SFTI Kusdihra, Gaya - BSPCB",26-01-2024 22:00:00,24.762518,84.982348,SO2,7,9,8
India,Bihar,Katihar,"Mirchaibari, Katihar - BSPCB",26-01-2024 22:00:00,25.560083,87.553265,CO,28,32,30
India,Bihar,Kishanganj,"SDM Office_Khagra, Kishanganj - BSPCB",26-01-2024 22:00:00,26.0881305,87.93840336,PM2.5,3,143,44
India,Bihar,Kishanganj,"SDM Office_Khagra, Kishanganj - BSPCB",26-01-2024 22:00:00,26.0881305,87.93840336,NH3,11,13,12
India,Bihar,Manguraha,"Forest Rest House, Manguraha - BSPCB",26-01-2024 22:00:00,27.308328,84.531742,NH3,NA,NA,NA
India,Bihar,Motihari,"Gandak Colony, Motihari - BSPCB",26-01-2024 22:00:00,26.63086,84.90051,SO2,1,2,1
India,Bihar,Munger,"Town Hall, Munger - BSPCB",26-01-2024 22:00:00,25.376776,86.471523,NO2,NA,NA,NA
India,Bihar,Munger,"Town Hall, Munger - BSPCB",26-01-2024 22:00:00,25.376776,86.471523,OZONE,9,14,11
India,Bihar,Muzaffarpur,"MIT-Daudpur Kothi, Muzaffarpur - BSPCB",26-01-2024 22:00:00,26.1403345,85.3650192,NH3,2,4,3
India,Bihar,Patna,"Govt. High School Shikarpur, Patna - BSPCB",26-01-2024 22:00:00,25.592539,85.227158,OZONE,6,34,17
India,Bihar,Patna,"IGSC Planetarium Complex, Patna - BSPCB",26-01-2024 22:00:00,25.610369,85.132568,CO,12,15,14
India,Bihar,Patna,"Muradpur, Patna - BSPCB",26-01-2024 22:00:00,25.619651,85.147382,NH3,2,4,3
India,Bihar,Patna,"Rajbansi Nagar, Patna - BSPCB",26-01-2024 22:00:00,25.599486,85.113666,OZONE,3,61,27
India,Bihar,Patna,"Samanpura, Patna - BSPCB",26-01-2024 22:00:00,25.596727,85.085624,PM2.5,329,417,376
India,Bihar,Patna,"Samanpura, Patna - BSPCB",26-01-2024 22:00:00,25.596727,85.085624,PM10,295,465,412
India,Bihar,Purnia,"Mariam Nagar, Purnia - BSPCB",26-01-2024 22:00:00,25.366336,87.117468,PM2.5,83,378,220
India,Bihar,Purnia,"Mariam Nagar, Purnia - BSPCB",26-01-2024 22:00:00,25.366336,87.117468,NH3,1,1,1
India,Bihar,Rajgir,"Dangi Tola, Rajgir - BSPCB",26-01-2024 22:00:00,25.03280,85.41948,PM2.5,187,450,307
India,Bihar,Saharsa,"Police Line, Saharsa - BSPCB",26-01-2024 22:00:00,25.892357,86.590325,NO2,6,8,7
India,Bihar,Saharsa,"Police Line, Saharsa - BSPCB",26-01-2024 22:00:00,25.892357,86.590325,SO2,26,28,28
India,Bihar,Samastipur,"DM Office_Kasipur, Samastipur - BSPCB",26-01-2024 22:00:00,25.859655,85.77944,SO2,2,13,7
India,Bihar,Siwan,"Chitragupta Nagar, Siwan - BSPCB",26-01-2024 22:00:00,26.2271665,84.3570427,PM2.5,163,338,245
India,Bihar,Siwan,"Chitragupta Nagar, Siwan - BSPCB",26-01-2024 22:00:00,26.2271665,84.3570427,PM10,115,215,148
India,Chandigarh,Chandigarh,"Sector 22, Chandigarh - CPCC",26-01-2024 22:00:00,30.735567,76.775714,PM2.5,302,411,353
India,Chandigarh,Chandigarh,"Sector 22, Chandigarh - CPCC",26-01-2024 22:00:00,30.735567,76.775714,NO2,10,43,20
India,Chandigarh,Chandigarh,"Sector 22, Chandigarh - CPCC",26-01-2024 22:00:00,30.735567,76.775714,CO,58,100,72
India,Chandigarh,Chandigarh,"Sector-53, Chandigarh - CPCC",26-01-2024 22:00:00,30.719859,76.738637,SO2,NA,NA,NA
India,Chhattisgarh,Bhilai,"Civic Center, Bhilai - Bhilai Steel Plant",26-01-2024 22:00:00,21.185571,81.343175,SO2,8,12,10
India,Chhattisgarh,Bhilai,"Hathkhoj, Bhilai - CECB",26-01-2024 22:00:00,21.224231,81.408350,PM2.5,56,167,90
India,Chhattisgarh,Bilaspur,"Mangala, Bilaspur - NTPC",26-01-2024 22:00:00,22.08815,82.13737,CO,27,36,32
India,Chhattisgarh,Chhal,"Nawapara SECL Colony, Chhal - CECB",26-01-2024 22:00:00,22.118125,83.140608,NO2,14,97,32
India,Chhattisgarh,Chhal,"Nawapara SECL Colony, Chhal - CECB",26-01-2024 22:00:00,22.118125,83.140608,NH3,2,2,2
India,Chhattisgarh,Chhal,"Nawapara SECL Colony, Chhal - CECB",26-01-2024 22:00:00,22.118125,83.140608,OZONE,5,66,39
India,Chhattisgarh,Korba,"Rampur, Korba - CECB",26-01-2024 22:00:00,22.368195,82.746431,PM10,NA,NA,NA
India,Chhattisgarh,Korba,"Rampur, Korba - CECB",26-01-2024 22:00:00,22.368195,82.746431,NO2,16,78,40
India,Chhattisgarh,Korba,"Urja Nagar, Korba - CECB",26-01-2024 22:00:00,22.348441,82.549611,NO2,67,99,77
India,Chhattisgarh,Korba,"Urja Nagar, Korba - CECB",26-01-2024 22:00:00,22.348441,82.549611,NH3,3,19,6
India,Chhattisgarh,Milupara,"Govt. Higher Secondary School, Milupara - CECB",26-01-2024 22:00:00,22.1910172,83.5197009,PM10,18,108,45
India,Chhattisgarh,Milupara,"Govt. Higher Secondary School, Milupara - CECB",26-01-2024 22:00:00,22.1910172,83.5197009,NH3,1,2,2
India,Chhattisgarh,Raipur,"AIIMS, Raipur - CECB",26-01-2024 22:00:00,21.258815,81.578979,OZONE,1,4,2
India,Chhattisgarh,Raipur,"Bhatagaon New ISBT, Raipur - CECB",26-01-2024 22:00:00,21.219665,81.630094,NO2,50,79,62
India,Chhattisgarh,Raipur,"Bhatagaon New ISBT, Raipur - CECB",26-01-2024 22:00:00,21.219665,81.630094,NH3,1,4,2
India,Chhattisgarh,Raipur,"Krishak Nagar, Raipur - CECB",26-01-2024 22:00:00,21.237755,81.705301,NH3,1,1,1
India,Delhi,Delhi,"Alipur, Delhi - DPCC",26-01-2024 22:00:00,28.815329,77.153010,NO2,17,89,38
India,Delhi,Delhi,"Alipur, Delhi - DPCC",26-01-2024 22:00:00,28.815329,77.153010,SO2,6,11,9
India,Delhi,Delhi,"Aya Nagar, Delhi - IMD",26-01-2024 22:00:00,28.4706914,77.1099364,CO,100,130,106
India,Delhi,Delhi,"Aya Nagar, Delhi - IMD",26-01-2024 22:00:00,28.4706914,77.1099364,OZONE,6,51,30
India,Delhi,Delhi,"Bawana, Delhi - DPCC",26-01-2024 22:00:00,28.776200,77.051074,SO2,5,11,7
India,Delhi,Delhi,"Bawana, Delhi - DPCC",26-01-2024 22:00:00,28.776200,77.051074,CO,51,107,78
India,Delhi,Delhi,"Burari Crossing, Delhi - IMD",26-01-2024 22:00:00,28.7256504,77.2011573,PM2.5,104,500,333
India,Delhi,Delhi,"Burari Crossing, Delhi - IMD",26-01-2024 22:00:00,28.7256504,77.2011573,NO2,5,13,9
India,Delhi,Delhi,"DTU, Delhi - CPCB",26-01-2024 22:00:00,28.7500499,77.1112615,NO2,4,100,45
India,Delhi,Delhi,"DTU, Delhi - CPCB",26-01-2024 22:00:00,28.7500499,77.1112615,NH3,14,45,26
India,Delhi,Delhi,"Dr. Karni Singh Shooting Range, Delhi - DPCC",26-01-2024 22:00:00,28.498571,77.264840,PM2.5,312,500,418
India,Delhi,Delhi,"Dr. Karni Singh Shooting Range, Delhi - DPCC",26-01-2024 22:00:00,28.498571,77.264840,PM10,172,470,337
India,Delhi,Delhi,"Dr. Karni Singh Shooting Range, Delhi - DPCC",26-01-2024 22:00:00,28.498571,77.264840,SO2,2,15,7
India,Delhi,Delhi,"Dwarka-Sector 8, Delhi - DPCC ",26-01-2024 22:00:00,28.5710274,77.0719006,SO2,1,9,5
India,Delhi,Delhi,"Dwarka-Sector 8, Delhi - DPCC ",26-01-2024 22:00:00,28.5710274,77.0719006,OZONE,5,65,34
India,Delhi,Delhi,"IGI Airport (T3), Delhi - IMD",26-01-2024 22:00:00,28.5627763,77.1180053,OZONE,11,60,35
India,Delhi,Delhi,"IHBAS, Dilshad Garden, Delhi - CPCB",26-01-2024 22:00:00,28.6811736,77.3025234,NO2,22,54,40
India,Delhi,Delhi,"IHBAS, Dilshad Garden, Delhi - CPCB",26-01-2024 22:00:00,28.6811736,77.3025234,SO2,2,46,17
India,Delhi,Delhi,"ITO, Delhi - CPCB",26-01-2024 22:00:00,28.628624,77.241060,OZONE,26,100,48
India,Delhi,Delhi,"Jahangirpuri, Delhi - DPCC",26-01-2024 22:00:00,28.732820,77.170633,PM10,224,469,391
India,Delhi,Delhi,"Jahangirpuri, Delhi - DPCC",26-01-2024 22:00:00,28.732820,77.170633,NO2,48,150,89
India,Delhi,Delhi,"Jahangirpuri, Delhi - DPCC",26-01-2024 22:00:00,28.732820,77.170633,SO2,19,48,24
India,Delhi,Delhi,"Jahangirpuri, Delhi - DPCC",26-01-2024 22:00:00,28.732820,77.170633,CO,55,177,177
India,Delhi,Delhi,"Lodhi Road, Delhi - IITM",26-01-2024 22:00:00,28.588333,77.221667,OZONE,15,16,15
India,Delhi,Delhi,"Lodhi Road, Delhi - IMD",26-01-2024 22:00:00,28.5918245,77.2273074,CO,109,116,111
India,Delhi,Delhi,"Mandir Marg, Delhi - DPCC",26-01-2024 22:00:00,28.636429,77.201067,PM2.5,382,499,435
India,Delhi,Delhi,"Mandir Marg, Delhi - DPCC",26-01-2024 22:00:00,28.636429,77.201067,CO,11,104,75
India,Delhi,Delhi,"Mundka, Delhi - DPCC",26-01-2024 22:00:00,28.684678,77.076574,OZONE,3,21,11
India,Delhi,Delhi,"NSIT Dwarka, Delhi - CPCB",26-01-2024 22:00:00,28.60909,77.0325413,NO2,23,75,42
India,Delhi,Delhi,"Najafgarh, Delhi - DPCC",26-01-2024 22:00:00,28.570173,76.933762,PM2.5,127,406,299
India,Delhi,Delhi,"Najafgarh, Delhi - DPCC",26-01-2024 22:00:00,28.570173,76.933762,PM10,95,248,147
India,Delhi,Delhi,"Najafgarh, Delhi - DPCC",26-01-2024 22:00:00,28.570173,76.933762,NH3,3,31,6
India,Delhi,Delhi,"Narela, Delhi - DPCC",26-01-2024 22:00:00,28.822836,77.101981,SO2,4,13,7
India,Delhi,Delhi,"Narela, Delhi - DPCC",26-01-2024 22:00:00,28.822836,77.101981,OZONE,1,175,100
India,Delhi,Delhi,"Nehru Nagar, Delhi - DPCC",26-01-2024 22:00:00,28.567890,77.250515,NH3,11,20,14
India,Delhi,Delhi,"New Moti Bagh, Delhi - MHUA",26-01-2024 22:00:00,28.57834,77.18400,PM2.5,395,500,450
India,Delhi,Delhi,"New Moti Bagh, Delhi - MHUA",26-01-2024 22:00:00,28.57834,77.18400,CO,103,134,110
India,Delhi,Delhi,"Okhla Phase-2, Delhi - DPCC",26-01-2024 22:00:00,28.530785,77.271255,NO2,63,213,120
India,Delhi,Delhi,"Patparganj, Delhi - DPCC",26-01-2024 22:00:00,28.623763,77.287209,PM2.5,433,500,478
India,Delhi,Delhi,"Patparganj, Delhi - DPCC",26-01-2024 22:00:00,28.623763,77.287209,NO2,37,117,69
India,Delhi,Delhi,"Pusa, Delhi - DPCC",26-01-2024 22:00:00,28.639652,77.146275,OZONE,22,85,45
India,Delhi,Delhi,"R K Puram, Delhi - DPCC",26-01-2024 22:00:00,28.563262,77.186937,PM10,363,500,438
India,Delhi,Delhi,"R K Puram, Delhi - DPCC",26-01-2024 22:00:00,28.563262,77.186937,NO2,15,156,70
India,Delhi,Delhi,"R K Puram, Delhi - DPCC",26-01-2024 22:00:00,28.563262,77.186937,NH3,6,13,9
India,Delhi,Delhi,"R K Puram, Delhi - DPCC",26-01-2024 22:00:00,28.563262,77.186937,SO2,11,43,25
India,Delhi,Delhi,"R K Puram, Delhi - DPCC",26-01-2024 22:00:00,28.563262,77.186937,OZONE,10,138,52
India,Delhi,Delhi,"Rohini, Delhi - DPCC",26-01-2024 22:00:00,28.732528,77.119920,SO2,9,21,14
India,Delhi,Delhi,"Rohini, Delhi - DPCC",26-01-2024 22:00:00,28.732528,77.119920,CO,29,149,80
India,Delhi,Delhi,"Sirifort, Delhi - CPCB",26-01-2024 22:00:00,28.5504249,77.2159377,PM2.5,395,500,455
India,Delhi,Delhi,"Sirifort, Delhi - CPCB",26-01-2024 22:00:00,28.5504249,77.2159377,NH3,7,16,10
India,Delhi,Delhi,"Sirifort, Delhi - CPCB",26-01-2024 22:00:00,28.5504249,77.2159377,SO2,30,41,35
India,Delhi,Delhi,"Sirifort, Delhi - CPCB",26-01-2024 22:00:00,28.5504249,77.2159377,OZONE,29,144,59
India,Delhi,Delhi,"Sonia Vihar, Delhi - DPCC",26-01-2024 22:00:00,28.710508,77.249485,PM2.5,301,450,377
India,Delhi,Delhi,"Sonia Vihar, Delhi - DPCC",26-01-2024 22:00:00,28.710508,77.249485,PM10,138,458,309
India,Delhi,Delhi,"Sri Aurobindo Marg, Delhi - DPCC",26-01-2024 22:00:00,28.531346,77.190156,PM10,203,474,338
India,Delhi,Delhi,"Sri Aurobindo Marg, Delhi - DPCC",26-01-2024 22:00:00,28.531346,77.190156,CO,50,116,77
India,Gujarat,Ahmedabad,"Chandkheda, Ahmedabad - IITM",26-01-2024 22:00:00,23.107969,72.574648,CO,10,72,31
India,Gujarat,Ahmedabad,"Gyaspur, Ahmedabad - IITM",26-01-2024 22:00:00,22.977134,72.553024,PM10,71,138,106
India,Gujarat,Ahmedabad,"Gyaspur, Ahmedabad - IITM",26-01-2024 22:00:00,22.977134,72.553024,SO2,9,14,11
India,Gujarat,Ahmedabad,"Maninagar, Ahmedabad - GPCB",26-01-2024 22:00:00,23.002657,72.591912,NO2,12,117,59
India,Gujarat,Ahmedabad,"Maninagar, Ahmedabad - GPCB",26-01-2024 22:00:00,23.002657,72.591912,OZONE,1,55,33
India,Gujarat,Ahmedabad,"Raikhad, Ahmedabad - IITM",26-01-2024 22:00:00,23.020509,72.579261,PM10,47,132,84
India,Gujarat,Ahmedabad,"Raikhad, Ahmedabad - IITM",26-01-2024 22:00:00,23.020509,72.579261,SO2,8,11,9
India,Gujarat,Ahmedabad,"Rakhial, Ahmedabad - IITM",26-01-2024 22:00:00,23.016834,72.625775,PM2.5,57,209,96
India,Gujarat,Ahmedabad,"Rakhial, Ahmedabad - IITM",26-01-2024 22:00:00,23.016834,72.625775,NO2,7,92,22
India,Gujarat,Ahmedabad,"SAC ISRO Satellite, Ahmedabad - IITM",26-01-2024 22:00:00,23.023389,72.515201,PM2.5,75,170,110
India,Gujarat,Ahmedabad,"SVPI Airport Hansol, Ahmedabad - IITM",26-01-2024 22:00:00,23.076793,72.627874,NO2,16,22,19
India,Gujarat,Ahmedabad,"SVPI Airport Hansol, Ahmedabad - IITM",26-01-2024 22:00:00,23.076793,72.627874,CO,13,82,34
India,Gujarat,Ahmedabad,"Sardar Vallabhbhai Patel Stadium, Ahmedabad - IITM",26-01-2024 22:00:00,23.043070,72.562968,PM10,74,160,115
India,Gujarat,Ahmedabad,"Sardar Vallabhbhai Patel Stadium, Ahmedabad - IITM",26-01-2024 22:00:00,23.043070,72.562968,NO2,11,13,13
India,Gujarat,Ahmedabad,"Sardar Vallabhbhai Patel Stadium, Ahmedabad - IITM",26-01-2024 22:00:00,23.043070,72.562968,NH3,3,3,3
India,Gujarat,Ankleshwar,"GIDC, Ankleshwar - GPCB",26-01-2024 22:00:00,21.613267,73.010555,NO2,33,34,34
India,Gujarat,Gandhinagar,"GIFT City, Gandhinagar - IITM",26-01-2024 22:00:00,23.163798,72.677768,NO2,9,11,10
India,Gujarat,Gandhinagar,"Sector-10, Gandhinagar - GPCB",26-01-2024 22:00:00,23.221714,72.654328,PM2.5,17,49,34
India,Gujarat,Surat,"Science Center, Surat - SMC",26-01-2024 22:00:00,21.170046,72.795405,CO,46,95,56
India,Gujarat,Vapi,"Phase-1 GIDC, Vapi - GPCB",26-01-2024 22:00:00,20.362421,72.918013,NO2,NA,NA,NA
India,Gujarat,Vapi,"Phase-1 GIDC, Vapi - GPCB",26-01-2024 22:00:00,20.362421,72.918013,SO2,37,48,44
India,Gujarat,Vapi,"Phase-1 GIDC, Vapi - GPCB",26-01-2024 22:00:00,20.362421,72.918013,CO,1,179,157
India,Haryana,Ambala,"Patti Mehar, Ambala - HSPCB",26-01-2024 22:00:00,30.379589,76.778328,PM10,NA,NA,NA
India,Haryana,Ambala,"Patti Mehar, Ambala - HSPCB",26-01-2024 22:00:00,30.379589,76.778328,SO2,NA,NA,NA
India,Haryana,Bahadurgarh,"Arya Nagar, Bahadurgarh - HSPCB",26-01-2024 22:00:00,28.6701,76.9254,NO2,34,39,36
India,Haryana,Bahadurgarh,"Arya Nagar, Bahadurgarh - HSPCB",26-01-2024 22:00:00,28.6701,76.9254,SO2,9,13,11
India,Haryana,Bahadurgarh,"Arya Nagar, Bahadurgarh - HSPCB",26-01-2024 22:00:00,28.6701,76.9254,CO,39,58,48
India,Haryana,Ballabgarh,"Nathu Colony, Ballabgarh - HSPCB",26-01-2024 22:00:00,28.3419248,77.319699,PM2.5,168,371,274
India,Haryana,Ballabgarh,"Nathu Colony, Ballabgarh - HSPCB",26-01-2024 22:00:00,28.3419248,77.319699,SO2,2,29,15
India,Haryana,Bhiwani,"H.B. Colony, Bhiwani - HSPCB",26-01-2024 22:00:00,28.806223,76.141105,SO2,5,15,9
India,Haryana,Bhiwani,"H.B. Colony, Bhiwani - HSPCB",26-01-2024 22:00:00,28.806223,76.141105,CO,40,74,53
India,Haryana,Bhiwani,"H.B. Colony, Bhiwani - HSPCB",26-01-2024 22:00:00,28.806223,76.141105,OZONE,7,28,11
India,Haryana,Charkhi Dadri,"Mini Secretariat, Charkhi Dadri - HSPCB",26-01-2024 22:00:00,28.593883,76.270653,PM2.5,54,488,194
India,Haryana,Charkhi Dadri,"Mini Secretariat, Charkhi Dadri - HSPCB",26-01-2024 22:00:00,28.593883,76.270653,SO2,8,14,10
India,Haryana,Charkhi Dadri,"Mini Secretariat, Charkhi Dadri - HSPCB",26-01-2024 22:00:00,28.593883,76.270653,CO,6,137,67
India,Haryana,Dharuhera,"Municipal Corporation Office, Dharuhera -  HSPCB",26-01-2024 22:00:00,28.206800,76.799700,PM10,136,500,252
India,Haryana,Dharuhera,"Municipal Corporation Office, Dharuhera -  HSPCB",26-01-2024 22:00:00,28.206800,76.799700,CO,34,172,79
India,Haryana,Faridabad,"Sector 11, Faridabad - HSPCB",26-01-2024 22:00:00,28.376058,77.315741,NH3,6,6,6
India,Haryana,Faridabad,"Sector 11, Faridabad - HSPCB",26-01-2024 22:00:00,28.376058,77.315741,SO2,8,9,8
India,Haryana,Faridabad,"Sector 11, Faridabad - HSPCB",26-01-2024 22:00:00,28.376058,77.315741,CO,58,102,73
India,Haryana,Faridabad,"Sector- 16A, Faridabad - HSPCB",26-01-2024 22:00:00,28.4088421,77.3099081,NO2,29,123,68
India,Haryana,Fatehabad,"Huda Sector, Fatehabad - HSPCB",26-01-2024 22:00:00,29.503664,75.467934,CO,5,10,6
India,Haryana,Gurugram,"NISE Gwal Pahari, Gurugram - IMD",26-01-2024 22:00:00,28.422681,77.148944,PM2.5,240,396,320
India,Haryana,Gurugram,"Sector-51, Gurugram - HSPCB",26-01-2024 22:00:00,28.4227,77.0667,PM2.5,254,431,353
India,Haryana,Gurugram,"Sector-51, Gurugram - HSPCB",26-01-2024 22:00:00,28.4227,77.0667,CO,83,116,96
India,Haryana,Gurugram,"Teri Gram, Gurugram - HSPCB",26-01-2024 22:00:00,28.4275,77.1465,CO,55,74,62
India,Haryana,Gurugram,"Vikas Sadan, Gurugram - HSPCB",26-01-2024 22:00:00,28.4501238,77.0263051,NO2,5,23,14
India,Haryana,Hisar,"Urban Estate-II, Hisar - HSPCB",26-01-2024 22:00:00,29.140560,75.744941,NO2,NA,NA,NA
India,Haryana,Kaithal,"Rishi Nagar, Kaithal - HSPCB",26-01-2024 22:00:00,29.8006,76.4155,NH3,NA,NA,NA
India,Haryana,Karnal,"Sector-12, Karnal - HSPCB",26-01-2024 22:00:00,29.695300,77.002700,PM2.5,98,98,98
India,Haryana,Karnal,"Sector-12, Karnal - HSPCB",26-01-2024 22:00:00,29.695300,77.002700,SO2,12,13,12
India,Haryana,Karnal,"Sector-12, Karnal - HSPCB",26-01-2024 22:00:00,29.695300,77.002700,OZONE,30,60,60
India,Haryana,Kurukshetra,"Sector-7, Kurukshetra - HSPCB",26-01-2024 22:00:00,29.966942,76.875879,PM10,63,174,125
India,Haryana,Kurukshetra,"Sector-7, Kurukshetra - HSPCB",26-01-2024 22:00:00,29.966942,76.875879,OZONE,1,69,39
India,Haryana,Mandikhera,"General Hospital, Mandikhera - HSPCB",26-01-2024 22:00:00,27.9002,76.9938,NH3,NA,NA,NA
India,Haryana,Mandikhera,"General Hospital, Mandikhera - HSPCB",26-01-2024 22:00:00,27.9002,76.9938,SO2,NA,NA,NA
India,Haryana,Manesar,"Sector-2 IMT, Manesar - HSPCB",26-01-2024 22:00:00,28.360699,76.936090,NO2,17,29,22
India,Haryana,Narnaul,"Shastri Nagar, Narnaul - HSPCB",26-01-2024 22:00:00,28.060249,76.113115,NH3,5,15,10
India,Haryana,Palwal,"Shyam Nagar, Palwal - HSPCB",26-01-2024 22:00:00,28.1485564,77.3320667,NH3,2,3,3
India,Haryana,Palwal,"Shyam Nagar, Palwal - HSPCB",26-01-2024 22:00:00,28.1485564,77.3320667,CO,22,37,28
India,Haryana,Palwal,"Shyam Nagar, Palwal - HSPCB",26-01-2024 22:00:00,28.1485564,77.3320667,OZONE,2,29,21
India,Haryana,Panchkula,"Sector-6, Panchkula - HSPCB ",26-01-2024 22:00:00,30.7057778,76.8531805555555,PM2.5,95,301,170
India,Haryana,Panchkula,"Sector-6, Panchkula - HSPCB ",26-01-2024 22:00:00,30.7057778,76.8531805555555,NO2,28,31,29
India,Haryana,Panipat,"Sector-18, Panipat - HSPCB",26-01-2024 22:00:00,29.497973,76.993331,SO2,NA,NA,NA
India,Haryana,Rohtak,"MD University, Rohtak - HSPCB",26-01-2024 22:00:00,28.52123,76.37138,NO2,47,55,51
India,Haryana,Rohtak,"MD University, Rohtak - HSPCB",26-01-2024 22:00:00,28.52123,76.37138,OZONE,45,55,50
India,Haryana,Sirsa,"F-Block, Sirsa - HSPCB",26-01-2024 22:00:00,29.536400,75.015800,PM2.5,16,100,50
India,Haryana,Sirsa,"F-Block, Sirsa - HSPCB",26-01-2024 22:00:00,29.536400,75.015800,PM10,33,86,52
India,Haryana,Sirsa,"F-Block, Sirsa - HSPCB",26-01-2024 22:00:00,29.536400,75.015800,OZONE,17,65,50
India,Haryana,Sonipat,"Murthal, Sonipat - HSPCB",26-01-2024 22:00:00,29.027200,77.062100,PM10,164,164,164
India,Himachal Pradesh,Baddi,"HIMUDA Complex Phase-1, Baddi - HPPCB",26-01-2024 22:00:00,30.943887,76.801991,CO,31,106,54
India,Himachal Pradesh,Baddi,"HIMUDA Complex Phase-1, Baddi - HPPCB",26-01-2024 22:00:00,30.943887,76.801991,OZONE,9,106,71
India,Jharkhand,Pathardih,"Mohalbani Ghat, Pathardih - DMC",26-01-2024 22:00:00,23.669880,86.411725,PM2.5,8,257,91
India,Jharkhand,Pathardih,"Mohalbani Ghat, Pathardih - DMC",26-01-2024 22:00:00,23.669880,86.411725,CO,116,144,131
India,Jharkhand,Pathardih,"Mohalbani Ghat, Pathardih - DMC",26-01-2024 22:00:00,23.669880,86.411725,OZONE,14,21,18
India,Karnataka,Bagalkot,"Vidayagiri, Bagalkot - KSPCB",26-01-2024 22:00:00,16.172806,75.659694,NH3,1,2,1
India,Karnataka,Belgaum,"Ramteerth Nagar, Belgaum - KSPCB",26-01-2024 22:00:00,15.888653,74.541751,CO,35,55,49
India,Karnataka,Bengaluru,"BTM Layout, Bengaluru - CPCB",26-01-2024 22:00:00,12.9135218,77.5950804,PM2.5,7,23,13
India,Karnataka,Bengaluru,"BTM Layout, Bengaluru - CPCB",26-01-2024 22:00:00,12.9135218,77.5950804,PM10,36,80,54
India,Karnataka,Bengaluru,"BTM Layout, Bengaluru - CPCB",26-01-2024 22:00:00,12.9135218,77.5950804,NO2,41,42,41
India,Karnataka,Bengaluru,"Bapuji Nagar, Bengaluru - KSPCB",26-01-2024 22:00:00,12.951913,77.539784,PM10,63,109,81
India,Karnataka,Bengaluru,"Bapuji Nagar, Bengaluru - KSPCB",26-01-2024 22:00:00,12.951913,77.539784,CO,36,43,38
India,Karnataka,Bengaluru,"Bapuji Nagar, Bengaluru - KSPCB",26-01-2024 22:00:00,12.951913,77.539784,OZONE,9,11,10
India,Karnataka,Bengaluru,"City Railway Station, Bengaluru - KSPCB",26-01-2024 22:00:00,12.9756843,77.5660749,NO2,20,30,26
India,Karnataka,Bengaluru,"City Railway Station, Bengaluru - KSPCB",26-01-2024 22:00:00,12.9756843,77.5660749,CO,51,108,68
India,Karnataka,Bengaluru,"Hebbal, Bengaluru - KSPCB",26-01-2024 22:00:00,13.029152,77.585901,PM10,NA,NA,NA
India,Karnataka,Bengaluru,"Hebbal, Bengaluru - KSPCB",26-01-2024 22:00:00,13.029152,77.585901,SO2,NA,NA,NA
India,Karnataka,Bengaluru,"Hombegowda Nagar, Bengaluru - KSPCB",26-01-2024 22:00:00,12.938539,77.590100,CO,11,44,19
India,Karnataka,Bengaluru,"Kasturi Nagar, Bengaluru - KSPCB",26-01-2024 22:00:00,13.003872,77.664217,PM2.5,52,117,76
India,Karnataka,Bengaluru,"Kasturi Nagar, Bengaluru - KSPCB",26-01-2024 22:00:00,13.003872,77.664217,SO2,10,10,10
India,Karnataka,Bengaluru,"RVCE-Mailasandra, Bengaluru - KSPCB",26-01-2024 22:00:00,12.921418,77.502466,PM2.5,61,128,85
India,Karnataka,Bengaluru,"Silk Board, Bengaluru - KSPCB",26-01-2024 22:00:00,12.917348,77.622813,PM10,56,98,71
India,Karnataka,Bengaluru,"Silk Board, Bengaluru - KSPCB",26-01-2024 22:00:00,12.917348,77.622813,NH3,4,7,6
India,Karnataka,Bengaluru,"Silk Board, Bengaluru - KSPCB",26-01-2024 22:00:00,12.917348,77.622813,CO,2,20,11
India,Karnataka,Bengaluru,"Silk Board, Bengaluru - KSPCB",26-01-2024 22:00:00,12.917348,77.622813,OZONE,29,30,30
India,Karnataka,Bidar,"Naubad, Bidar - KSPCB",26-01-2024 22:00:00,17.930306,77.482194,PM10,NA,NA,NA
India,Karnataka,Chamarajanagar,"Urban, Chamarajanagar - KSPCB",26-01-2024 22:00:00,11.55358,76.55521,PM10,44,46,45
India,Karnataka,Chamarajanagar,"Urban, Chamarajanagar - KSPCB",26-01-2024 22:00:00,11.55358,76.55521,NO2,28,30,29
India,Karnataka,Chamarajanagar,"Urban, Chamarajanagar - KSPCB",26-01-2024 22:00:00,11.55358,76.55521,SO2,4,4,4
India,Karnataka,Chikkaballapur,"Chikkaballapur Rural, Chikkaballapur - KSPCB",26-01-2024 22:00:00,13.428828,77.731418,OZONE,24,26,25
India,Karnataka,Davanagere,"Devaraj Urs Badavane, Davanagere - KSPCB",26-01-2024 22:00:00,14.475800,75.905200,PM10,31,113,66
India,Karnataka,Davanagere,"Devaraj Urs Badavane, Davanagere - KSPCB",26-01-2024 22:00:00,14.475800,75.905200,NO2,10,14,12
India,Karnataka,Davanagere,"Devaraj Urs Badavane, Davanagere - KSPCB",26-01-2024 22:00:00,14.475800,75.905200,SO2,4,6,5
India,Karnataka,Haveri,"Ashwini Nagar, Haveri - KSPCB",26-01-2024 22:00:00,14.791800,75.389600,PM2.5,51,86,62
India,Karnataka,Haveri,"Ashwini Nagar, Haveri - KSPCB",26-01-2024 22:00:00,14.791800,75.389600,SO2,13,14,14
India,Karnataka,Haveri,"Ashwini Nagar, Haveri - KSPCB",26-01-2024 22:00:00,14.791800,75.389600,CO,32,34,33
India,Karnataka,Hubballi,"Deshpande Nagar, Hubballi - KSPCB",26-01-2024 22:00:00,15.351773,75.140726,NH3,7,8,7
India,Karnataka,Hubballi,"Deshpande Nagar, Hubballi - KSPCB",26-01-2024 22:00:00,15.351773,75.140726,OZONE,9,46,38
India,Karnataka,Kalaburagi,"Mahatma Basaveswar Colony, Kalaburgi - KSPCB",26-01-2024 22:00:00,17.336318,76.847397,NO2,18,24,23
India,Karnataka,Kalaburagi,"Mahatma Basaveswar Colony, Kalaburgi - KSPCB",26-01-2024 22:00:00,17.336318,76.847397,CO,36,84,52
India,Karnataka,Karwar,"KHB Colony, Karwar - KSPCB",26-01-2024 22:00:00,14.816666,74.141003,PM2.5,35,227,92
India,Karnataka,Karwar,"KHB Colony, Karwar - KSPCB",26-01-2024 22:00:00,14.816666,74.141003,NO2,5,9,6
India,Karnataka,Karwar,"KHB Colony, Karwar - KSPCB",26-01-2024 22:00:00,14.816666,74.141003,CO,1,2,2
India,Karnataka,Kolar,"Tamaka Ind. Area, Kolar - KSPCB",26-01-2024 22:00:00,13.1276288,78.1570122,PM10,35,133,71
India,Karnataka,Kolar,"Tamaka Ind. Area, Kolar - KSPCB",26-01-2024 22:00:00,13.1276288,78.1570122,NH3,5,7,7
India,Karnataka,Kolar,"Tamaka Ind. Area, Kolar - KSPCB",26-01-2024 22:00:00,13.1276288,78.1570122,SO2,8,17,11
India,Karnataka,Koppal,"Diwator Nagar, Koppal - KSPCB",26-01-2024 22:00:00,15.347630,76.181767,PM2.5,27,49,36
India,Karnataka,Koppal,"Diwator Nagar, Koppal - KSPCB",26-01-2024 22:00:00,15.347630,76.181767,NH3,3,6,5
India,Karnataka,Koppal,"Diwator Nagar, Koppal - KSPCB",26-01-2024 22:00:00,15.347630,76.181767,SO2,67,87,76
India,Karnataka,Koppal,"Diwator Nagar, Koppal - KSPCB",26-01-2024 22:00:00,15.347630,76.181767,OZONE,17,62,52
India,Karnataka,Madikeri,"Stuart Hill, Madikeri - KSPCB",26-01-2024 22:00:00,12.415911,75.735050,PM10,25,85,54
India,Karnataka,Mangalore,"Kadri, Mangalore - KSPCB",26-01-2024 22:00:00,12.889250,74.853000,NH3,3,3,3
India,Karnataka,Mangalore,"Kadri, Mangalore - KSPCB",26-01-2024 22:00:00,12.889250,74.853000,SO2,19,20,20
India,Karnataka,Mysuru,"Hebbal 1st Stage, Mysuru - KSPCB",26-01-2024 22:00:00,12.21041,76.37376,OZONE,10,92,59
India,Karnataka,Tumakuru,"Thimmalapura, Tumakuru - KSPCB",26-01-2024 22:00:00,13.377516,77.099072,PM2.5,44,104,63
India,Karnataka,Tumakuru,"Thimmalapura, Tumakuru - KSPCB",26-01-2024 22:00:00,13.377516,77.099072,SO2,8,11,9
India,Karnataka,Udupi,"Brahmagiri, Udupi - KSPCB",26-01-2024 22:00:00,13.34194444,74.74694444,NO2,13,14,14
India,Karnataka,Udupi,"Brahmagiri, Udupi - KSPCB",26-01-2024 22:00:00,13.34194444,74.74694444,NH3,1,2,2
India,Karnataka,Vijayapura,"Ibrahimpur, Vijayapura - KSPCB",26-01-2024 22:00:00,16.802639,75.722694,NO2,17,19,19
India,Karnataka,Vijayapura,"Ibrahimpur, Vijayapura - KSPCB",26-01-2024 22:00:00,16.802639,75.722694,SO2,1,3,2
India,Karnataka,Yadgir,"Collector Office, Yadgir - KSPCB",26-01-2024 22:00:00,16.7602,77.1428,PM2.5,50,181,104
India,Kerala,Eloor,"Udyogamandal, Eloor - Kerala PCB",26-01-2024 22:00:00,10.073232,76.302765,NO2,4,4,4
India,Kerala,Kollam,"Polayathode, Kollam - Kerala PCB",26-01-2024 22:00:00,8.8787,76.6073,PM10,52,94,71
India,Kerala,Kollam,"Polayathode, Kollam - Kerala PCB",26-01-2024 22:00:00,8.8787,76.6073,CO,NA,NA,NA
India,Kerala,Kollam,"Polayathode, Kollam - Kerala PCB",26-01-2024 22:00:00,8.8787,76.6073,OZONE,30,39,38
India,Kerala,Thiruvananthapuram,"Kariavattom, Thiruvananthapuram - Kerala PCB",26-01-2024 22:00:00,8.563700,76.886500,NO2,8,10,9
India,Kerala,Thiruvananthapuram,"Kariavattom, Thiruvananthapuram - Kerala PCB",26-01-2024 22:00:00,8.563700,76.886500,CO,18,57,19
India,Madhya Pradesh,Bhopal,"Idgah Hills, Bhopal - MPPCB",26-01-2024 22:00:00,23.264759,77.381568,PM10,52,167,93
India,Madhya Pradesh,Bhopal,"Idgah Hills, Bhopal - MPPCB",26-01-2024 22:00:00,23.264759,77.381568,CO,26,88,42
India,Madhya Pradesh,Bhopal,"Paryavaran Parisar, Bhopal - MPPCB",26-01-2024 22:00:00,23.210494,77.425409,SO2,19,31,23
India,Madhya Pradesh,Bhopal,"T T Nagar, Bhopal - MPPCB",26-01-2024 22:00:00,23.233584,77.400574,PM2.5,41,273,113
India,Madhya Pradesh,Dewas,"Bhopal Chauraha, Dewas - MPPCB",26-01-2024 22:00:00,22.9682591,76.064118,NH3,3,3,3
India,Madhya Pradesh,Gwalior,"Deen Dayal Nagar, Gwalior - MPPCB",26-01-2024 22:00:00,26.259242,78.216432,PM2.5,66,362,210
India,Madhya Pradesh,Gwalior,"Deen Dayal Nagar, Gwalior - MPPCB",26-01-2024 22:00:00,26.259242,78.216432,NH3,10,14,11
India,Madhya Pradesh,Gwalior,"Maharaj Bada, Gwalior - MPPCB",26-01-2024 22:00:00,26.200388,78.147714,SO2,10,19,13
India,Madhya Pradesh,Gwalior,"Phool Bagh, Gwalior - Mondelez Ind. Food",26-01-2024 22:00:00,26.210536,78.171,SO2,11,15,12
India,Madhya Pradesh,Indore,"Chhoti Gwaltoli, Indore - MPPCB",26-01-2024 22:00:00,22.4310,75.5213,PM2.5,41,397,177
India,Madhya Pradesh,Indore,"Chhoti Gwaltoli, Indore - MPPCB",26-01-2024 22:00:00,22.4310,75.5213,NH3,3,8,5
India,Madhya Pradesh,Indore,"Chhoti Gwaltoli, Indore - MPPCB",26-01-2024 22:00:00,22.4310,75.5213,OZONE,10,131,69
India,Madhya Pradesh,Indore,"Maguda Nagar, Indore - IMC",26-01-2024 22:00:00,22.7524,75.8872,PM10,32,257,98
India,Madhya Pradesh,Indore,"Maguda Nagar, Indore - IMC",26-01-2024 22:00:00,22.7524,75.8872,NO2,5,7,6
India,Madhya Pradesh,Indore,"Maguda Nagar, Indore - IMC",26-01-2024 22:00:00,22.7524,75.8872,OZONE,36,45,38
India,Madhya Pradesh,Indore,"Regional Park, Indore - IMC",26-01-2024 22:00:00,22.6780,75.8559,OZONE,4,12,8
India,Madhya Pradesh,Indore,"Residency Area, Indore - IMC",26-01-2024 22:00:00,22.7084,75.8815,PM2.5,24,304,85
India,Madhya Pradesh,Indore,"Residency Area, Indore - IMC",26-01-2024 22:00:00,22.7084,75.8815,OZONE,11,18,14
India,Madhya Pradesh,Jabalpur,"Gupteshwar, Jabalpur - JMC",26-01-2024 22:00:00,23.142888,79.916147,NO2,11,131,42
India,Madhya Pradesh,Jabalpur,"Marhatal, Jabalpur - MPPCB",26-01-2024 22:00:00,23.168606,79.932247,NO2,32,127,64
India,Madhya Pradesh,Jabalpur,"Suhagi, Jabalpur - JMC",26-01-2024 22:00:00,23.218135,79.957770,PM2.5,30,317,141
India,Madhya Pradesh,Jabalpur,"Suhagi, Jabalpur - JMC",26-01-2024 22:00:00,23.218135,79.957770,NO2,36,42,40
India,Madhya Pradesh,Katni,"Gole Bazar, Katni - MPPCB",26-01-2024 22:00:00,23.50016,80.23284,PM10,46,305,110
India,Madhya Pradesh,Katni,"Gole Bazar, Katni - MPPCB",26-01-2024 22:00:00,23.50016,80.23284,NO2,15,121,52
India,Madhya Pradesh,Maihar,"Sahilara, Maihar - KJS Cements",26-01-2024 22:00:00,24.2613009,80.7231783,PM10,41,67,53
India,Madhya Pradesh,Maihar,"Sahilara, Maihar - KJS Cements",26-01-2024 22:00:00,24.2613009,80.7231783,SO2,13,21,15
India,Madhya Pradesh,Pithampur,"Sector-2 Industrial Area, Pithampur - MPPCB",26-01-2024 22:00:00,22.624758,75.675238,NO2,8,30,14
India,Madhya Pradesh,Pithampur,"Sector-2 Industrial Area, Pithampur - MPPCB",26-01-2024 22:00:00,22.624758,75.675238,CO,48,84,50
India,Madhya Pradesh,Sagar,"Civil Lines, Sagar - MPPCB",26-01-2024 22:00:00,23.838586,78.759431,NO2,10,17,13
India,Madhya Pradesh,Sagar,"Deen Dayal Nagar, Sagar - MPPCB",26-01-2024 22:00:00,23.8640158,78.80289321,PM2.5,20,77,36
India,Madhya Pradesh,Singrauli,"Suryakiran Bhawan NCL, Singrauli - MPPCB",26-01-2024 22:00:00,24.108970,82.645580,PM2.5,35,372,206
India,Madhya Pradesh,Singrauli,"Suryakiran Bhawan NCL, Singrauli - MPPCB",26-01-2024 22:00:00,24.108970,82.645580,PM10,40,381,164
India,Madhya Pradesh,Ujjain,"Mahakaleshwar Temple, Ujjain - MPPCB",26-01-2024 22:00:00,23.182719 ,75.768218 ,SO2,5,12,9
India,Maharashtra,Ahmednagar,"Tarakpur, Ahmednagar - MPCB",26-01-2024 22:00:00,19.10122,74.73339,PM2.5,61,135,86
India,Maharashtra,Ahmednagar,"Tarakpur, Ahmednagar - MPCB",26-01-2024 22:00:00,19.10122,74.73339,PM10,65,210,134
India,Maharashtra,Akola,"Ramdaspeth, Akola - MPCB",26-01-2024 22:00:00,20.719516,77.000253,PM2.5,11,341,113
India,Maharashtra,Akola,"Ramdaspeth, Akola - MPCB",26-01-2024 22:00:00,20.719516,77.000253,NO2,16,119,45
India,Maharashtra,Akola,"Ramdaspeth, Akola - MPCB",26-01-2024 22:00:00,20.719516,77.000253,SO2,2,39,17
India,Maharashtra,Akola,"Ramdaspeth, Akola - MPCB",26-01-2024 22:00:00,20.719516,77.000253,CO,24,143,61
India,Maharashtra,Aurangabad,"MIDC Chilkalthana, Aurangabad - MPCB",26-01-2024 22:00:00,19.875620,75.387310,PM2.5,95,301,153
India,Maharashtra,Aurangabad,"MIDC Chilkalthana, Aurangabad - MPCB",26-01-2024 22:00:00,19.875620,75.387310,OZONE,9,44,39
India,Maharashtra,Aurangabad,"Rachnakar Colony, Aurangabad - MPCB",26-01-2024 22:00:00,19.863756,75.321188,PM10,78,189,131
India,Maharashtra,Aurangabad,"Rachnakar Colony, Aurangabad - MPCB",26-01-2024 22:00:00,19.863756,75.321188,CO,16,91,38
India,Maharashtra,Badlapur,"Katrap, Badlapur - MPCB",26-01-2024 22:00:00,19.16485,73.23409,CO,28,96,46
India,Maharashtra,Jalna,"Old MIDC, Jalna - MPCB",26-01-2024 22:00:00,19.854616,75.905894,NH3,6,8,7
India,Maharashtra,Kalyan,"Khadakpada, Kalyan - MPCB",26-01-2024 22:00:00,19.25292,73.142019,NH3,1,7,2
India,Maharashtra,Kolhapur,"Shivaji University, Kolhapur - MPCB",26-01-2024 22:00:00,16.6870449,74.2505872,NH3,1,17,6
India,Maharashtra,Kolhapur,"Shivaji University, Kolhapur - MPCB",26-01-2024 22:00:00,16.6870449,74.2505872,CO,62,116,85
India,Maharashtra,Kolhapur,"Sinchan Bhavan, Kolhapur - MPCB",26-01-2024 22:00:00,16.7143745,74.2426398,NH3,7,8,8
India,Maharashtra,Latur,"Sawe Wadi, Latur - MPCB",26-01-2024 22:00:00,18.39963,76.57452,OZONE,47,87,72
India,Maharashtra,Mahad,"Kamble Tarf Birwadi, Mahad - MPCB",26-01-2024 22:00:00,18.1023399,73.4783687,PM10,71,113,95
India,Maharashtra,Mahad,"Kamble Tarf Birwadi, Mahad - MPCB",26-01-2024 22:00:00,18.1023399,73.4783687,CO,23,28,26
India,Maharashtra,Malegaon,"Mahesh Nagar, Malegaon - MPCB",26-01-2024 22:00:00,20.555712,74.529236,NH3,5,69,12
India,Maharashtra,Mira-Bhayandar,"Bhayandar West, Mira-Bhayandar - MPCB",26-01-2024 22:00:00,19.296481,72.840923,PM10,99,241,143
India,Maharashtra,Mira-Bhayandar,"Bhayandar West, Mira-Bhayandar - MPCB",26-01-2024 22:00:00,19.296481,72.840923,NO2,15,57,40
India,Maharashtra,Mumbai,"Bandra Kurla Complex, Mumbai - MPCB",26-01-2024 22:00:00,19.065931,72.862131,PM10,54,416,141
India,Maharashtra,Mumbai,"Bandra Kurla Complex, Mumbai - MPCB",26-01-2024 22:00:00,19.065931,72.862131,NO2,14,57,35
India,Maharashtra,Mumbai,"Borivali East, Mumbai - MPCB",26-01-2024 22:00:00,19.2243333,72.8658113,NH3,1,2,1
India,Maharashtra,Mumbai,"Borivali East, Mumbai - MPCB",26-01-2024 22:00:00,19.2243333,72.8658113,SO2,5,8,6
India,Maharashtra,Mumbai,"Byculla, Mumbai - BMC",26-01-2024 22:00:00,18.9767,72.8380,PM10,71,138,109
India,Maharashtra,Mumbai,"Byculla, Mumbai - BMC",26-01-2024 22:00:00,18.9767,72.8380,NO2,27,123,70
India,Maharashtra,Mumbai,"Byculla, Mumbai - BMC",26-01-2024 22:00:00,18.9767,72.8380,SO2,2,12,4
India,Maharashtra,Mumbai,"Chakala-Andheri East, Mumbai - IITM",26-01-2024 22:00:00,19.11074,72.86084,PM10,122,176,146
India,Maharashtra,Mumbai,"Chakala-Andheri East, Mumbai - IITM",26-01-2024 22:00:00,19.11074,72.86084,CO,97,131,104
India,Maharashtra,Mumbai,"Chembur, Mumbai - MPCB",26-01-2024 22:00:00,19.0364585,72.8954371,NH3,2,4,3
India,Maharashtra,Mumbai,"Chembur, Mumbai - MPCB",26-01-2024 22:00:00,19.0364585,72.8954371,OZONE,3,171,93
India,Maharashtra,Mumbai,"Colaba, Mumbai - MPCB",26-01-2024 22:00:00,18.910000,72.820000,PM2.5,39,95,73
India,Maharashtra,Mumbai,"Colaba, Mumbai - MPCB",26-01-2024 22:00:00,18.910000,72.820000,NO2,18,35,26
India,Maharashtra,Mumbai,"Deonar, Mumbai - IITM",26-01-2024 22:00:00,19.04946,72.9230,CO,5,105,61
India,Maharashtra,Mumbai,"Deonar, Mumbai - IITM",26-01-2024 22:00:00,19.04946,72.9230,OZONE,2,96,53
India,Maharashtra,Mumbai,"Ghatkopar, Mumbai - BMC",26-01-2024 22:00:00,19.083694,72.920967,PM2.5,67,172,107
India,Maharashtra,Mumbai,"Ghatkopar, Mumbai - BMC",26-01-2024 22:00:00,19.083694,72.920967,PM10,85,125,108
India,Maharashtra,Mumbai,"Ghatkopar, Mumbai - BMC",26-01-2024 22:00:00,19.083694,72.920967,SO2,1,4,2
India,Maharashtra,Mumbai,"Ghatkopar, Mumbai - BMC",26-01-2024 22:00:00,19.083694,72.920967,OZONE,4,41,30
India,Maharashtra,Mumbai,"Kandivali West, Mumbai - BMC",26-01-2024 22:00:00,19.215859,72.831718,PM10,75,120,103
India,Maharashtra,Mumbai,"Kurla, Mumbai - MPCB",26-01-2024 22:00:00,19.0863,72.8888,NO2,14,40,27
India,Maharashtra,Mumbai,"Malad West, Mumbai - IITM",26-01-2024 22:00:00,19.19709,72.82204,OZONE,NA,NA,NA
India,Maharashtra,Mumbai,"Mazgaon, Mumbai - IITM",26-01-2024 22:00:00,18.96702,72.84214,PM2.5,104,254,190
India,Maharashtra,Mumbai,"Mazgaon, Mumbai - IITM",26-01-2024 22:00:00,18.96702,72.84214,NH3,27,49,35
India,Maharashtra,Mumbai,"Mindspace-Malad West, Mumbai - MPCB",26-01-2024 22:00:00,19.1878657,72.8304069,OZONE,2,91,61
India,Maharashtra,Mumbai,"Navy Nagar-Colaba, Mumbai - IITM",26-01-2024 22:00:00,18.897756,72.813320,PM10,93,197,145
India,Maharashtra,Mumbai,"Navy Nagar-Colaba, Mumbai - IITM",26-01-2024 22:00:00,18.897756,72.813320,NO2,23,53,37
India,Maharashtra,Mumbai,"Powai, Mumbai - MPCB",26-01-2024 22:00:00,19.137500,72.915056,NH3,1,1,1
India,Maharashtra,Mumbai,"Sewri, Mumbai - BMC",26-01-2024 22:00:00,19.000084,72.856730,NO2,38,135,83
India,Maharashtra,Mumbai,"Sewri, Mumbai - BMC",26-01-2024 22:00:00,19.000084,72.856730,SO2,6,34,14
India,Maharashtra,Mumbai,"Shivaji Nagar, Mumbai - BMC",26-01-2024 22:00:00,19.060498,72.923356,PM2.5,79,320,163
India,Maharashtra,Mumbai,"Shivaji Nagar, Mumbai - BMC",26-01-2024 22:00:00,19.060498,72.923356,SO2,9,50,23
India,Maharashtra,Mumbai,"Siddharth Nagar-Worli, Mumbai - IITM",26-01-2024 22:00:00,19.000083,72.813993,PM2.5,106,293,192
India,Maharashtra,Mumbai,"Sion, Mumbai - MPCB",26-01-2024 22:00:00,19.047000,72.874600,CO,21,105,28
India,Maharashtra,Mumbai,"Vasai West, Mumbai - MPCB",26-01-2024 22:00:00,19.383200,72.820400,NH3,4,4,4
India,Maharashtra,Mumbai,"Vile Parle West, Mumbai - MPCB",26-01-2024 22:00:00,19.10861,72.83622,SO2,13,14,14
India,Maharashtra,Mumbai,"Vile Parle West, Mumbai - MPCB",26-01-2024 22:00:00,19.10861,72.83622,OZONE,7,29,23
India,Maharashtra,Mumbai,"Worli, Mumbai - MPCB",26-01-2024 22:00:00,18.9936162,72.8128113,SO2,10,12,11
India,Maharashtra,Nagpur,"Ambazari, Nagpur - MPCB",26-01-2024 22:00:00,21.121801,79.04952,CO,10,111,53
India,Maharashtra,Nagpur,"Ambazari, Nagpur - MPCB",26-01-2024 22:00:00,21.121801,79.04952,OZONE,2,148,73
India,Maharashtra,Nagpur,"Mahal, Nagpur - MPCB",26-01-2024 22:00:00,21.14472,79.107595,PM10,101,196,135
India,Maharashtra,Nagpur,"Mahal, Nagpur - MPCB",26-01-2024 22:00:00,21.14472,79.107595,NO2,13,63,31
India,Maharashtra,Nagpur,"Mahal, Nagpur - MPCB",26-01-2024 22:00:00,21.14472,79.107595,OZONE,2,104,53
India,Maharashtra,Nagpur,"Opp GPO Civil Lines, Nagpur - MPCB",26-01-2024 22:00:00,21.152875,79.0517531,PM2.5,92,318,196
India,Maharashtra,Nagpur,"Opp GPO Civil Lines, Nagpur - MPCB",26-01-2024 22:00:00,21.152875,79.0517531,PM10,76,197,137
India,Maharashtra,Nagpur,"Opp GPO Civil Lines, Nagpur - MPCB",26-01-2024 22:00:00,21.152875,79.0517531,OZONE,2,109,54
India,Maharashtra,Nagpur,"Ram Nagar, Nagpur - MPCB",26-01-2024 22:00:00,21.143383,79.048912,PM10,100,408,160
India,Maharashtra,Nagpur,"Ram Nagar, Nagpur - MPCB",26-01-2024 22:00:00,21.143383,79.048912,OZONE,5,72,39
India,Maharashtra,Nanded,"Sneh Nagar, Nanded - MPCB",26-01-2024 22:00:00,19.173852,77.296291,PM10,66,254,133
India,Maharashtra,Nanded,"Sneh Nagar, Nanded - MPCB",26-01-2024 22:00:00,19.173852,77.296291,CO,32,44,39
India,Maharashtra,Nashik,"Gangapur Road, Nashik - MPCB",26-01-2024 22:00:00,20.0073285,73.7762427,NO2,4,9,5
India,Maharashtra,Nashik,"MIDC Ambad, Nashik - MPCB",26-01-2024 22:00:00,19.950220,73.731480,NH3,2,3,2
India,Maharashtra,Nashik,"Pandav Nagari, Nashik - MPCB",26-01-2024 22:00:00,19.9591346,73.7788008,NO2,37,135,65
India,Maharashtra,Nashik,"Pandav Nagari, Nashik - MPCB",26-01-2024 22:00:00,19.9591346,73.7788008,NH3,7,13,8
India,Maharashtra,Nashik,"Pandav Nagari, Nashik - MPCB",26-01-2024 22:00:00,19.9591346,73.7788008,OZONE,4,110,66
India,Maharashtra,Navi Mumbai,"Kopripada-Vashi, Navi Mumbai - MPCB",26-01-2024 22:00:00,19.090337,73.014232,PM2.5,60,152,98
India,Maharashtra,Navi Mumbai,"Sanpada, Navi Mumbai - MPCB",26-01-2024 22:00:00,19.0575752,73.0151367,NH3,11,77,37
India,Maharashtra,Navi Mumbai,"Tondare-Taloja, Navi Mumbai - MPCB",26-01-2024 22:00:00,19.0630,73.1209,PM2.5,59,304,183
India,Maharashtra,Navi Mumbai,"Tondare-Taloja, Navi Mumbai - MPCB",26-01-2024 22:00:00,19.0630,73.1209,PM10,77,246,144
India,Maharashtra,Navi Mumbai,"Tondare-Taloja, Navi Mumbai - MPCB",26-01-2024 22:00:00,19.0630,73.1209,NH3,3,10,6
India,Maharashtra,Parbhani,"Masoom Colony, Parbhani - MPCB",26-01-2024 22:00:00,19.265594,76.761463,SO2,29,119,62
India,Maharashtra,Pimpri-Chinchwad,"Gavalinagar, Pimpri Chinchwad - MPCB",26-01-2024 22:00:00,18.63673,73.82487,PM2.5,72,358,226
India,Maharashtra,Pimpri-Chinchwad,"Gavalinagar, Pimpri Chinchwad - MPCB",26-01-2024 22:00:00,18.63673,73.82487,PM10,69,374,188
India,Maharashtra,Pimpri-Chinchwad,"Gavalinagar, Pimpri Chinchwad - MPCB",26-01-2024 22:00:00,18.63673,73.82487,SO2,4,24,12
India,Maharashtra,Pimpri-Chinchwad,"Park Street Wakad, Pimpri Chinchwad - MPCB",26-01-2024 22:00:00,18.59051,73.77946,NH3,9,26,17
India,Maharashtra,Pimpri-Chinchwad,"Park Street Wakad, Pimpri Chinchwad - MPCB",26-01-2024 22:00:00,18.59051,73.77946,CO,19,126,56
India,Maharashtra,Pimpri-Chinchwad,"Thergaon, Pimpri Chinchwad - MPCB",26-01-2024 22:00:00,18.616318,73.765797,OZONE,1,183,111
India,Maharashtra,Pune,"Alandi, Pune - IITM",26-01-2024 22:00:00,18.675076,73.892743,PM10,47,162,102
India,Maharashtra,Pune,"Bhosari, Pune - IITM",26-01-2024 22:00:00,18.640051,73.848956,NO2,15,21,17
India,Maharashtra,Pune,"Bhosari, Pune - IITM",26-01-2024 22:00:00,18.640051,73.848956,OZONE,1,23,15
India,Maharashtra,Pune,"Karve Road, Pune - MPCB",26-01-2024 22:00:00,18.5011743,73.8165527,CO,82,82,82
India,Maharashtra,Pune,"Karve Road, Pune - MPCB",26-01-2024 22:00:00,18.5011743,73.8165527,OZONE,7,7,7
India,Maharashtra,Pune,"Katraj Dairy, Pune - MPCB",26-01-2024 22:00:00,18.454450,73.854155,PM10,64,222,119
India,Maharashtra,Pune,"Katraj Dairy, Pune - MPCB",26-01-2024 22:00:00,18.454450,73.854155,CO,47,110,59
India,Maharashtra,Pune,"Mhada Colony, Pune - IITM",26-01-2024 22:00:00,18.573040,73.927715,PM2.5,70,270,148
India,Maharashtra,Pune,"Mhada Colony, Pune - IITM",26-01-2024 22:00:00,18.573040,73.927715,PM10,69,149,113
India,Maharashtra,Pune,"Mhada Colony, Pune - IITM",26-01-2024 22:00:00,18.573040,73.927715,NO2,10,63,43
India,Maharashtra,Pune,"Mhada Colony, Pune - IITM",26-01-2024 22:00:00,18.573040,73.927715,OZONE,1,29,21
India,Maharashtra,Pune,"Revenue Colony-Shivajinagar, Pune - IITM",26-01-2024 22:00:00,18.530085,73.849598,PM10,79,193,138
India,Maharashtra,Pune,"Savitribai Phule Pune University, Pune - MPCB",26-01-2024 22:00:00,18.547056,73.826908,PM10,74,210,150
India,Maharashtra,Pune,"Savitribai Phule Pune University, Pune - MPCB",26-01-2024 22:00:00,18.547056,73.826908,NH3,2,12,7
India,Maharashtra,Pune,"Savitribai Phule Pune University, Pune - MPCB",26-01-2024 22:00:00,18.547056,73.826908,SO2,2,11,5
India,Maharashtra,Pune,"Transport Nagar-Nigdi, Pune - IITM",26-01-2024 22:00:00,18.664282,73.763966,PM10,68,215,160
India,Maharashtra,Pune,"Transport Nagar-Nigdi, Pune - IITM",26-01-2024 22:00:00,18.664282,73.763966,NO2,13,46,29
India,Maharashtra,Solapur,"Dnyaneshwar Nagar, Solapur - MPCB",26-01-2024 22:00:00,17.6336264,75.9132495,PM10,73,461,140
India,Maharashtra,Solapur,"Ratandeep Housing Society, Solapur - MPCB",26-01-2024 22:00:00,17.65439,75.90649,SO2,11,32,17
India,Maharashtra,Solapur,"Ratandeep Housing Society, Solapur - MPCB",26-01-2024 22:00:00,17.65439,75.90649,CO,16,140,68
India,Maharashtra,Solapur,"Ratandeep Housing Society, Solapur - MPCB",26-01-2024 22:00:00,17.65439,75.90649,OZONE,1,38,21
India,Maharashtra,Solapur,"Solapur, Solapur - MPCB",26-01-2024 22:00:00,17.6599188,75.9063906,PM2.5,NA,NA,NA
India,Maharashtra,Solapur,"Solapur, Solapur - MPCB",26-01-2024 22:00:00,17.6599188,75.9063906,SO2,NA,NA,NA
India,Maharashtra,Thane,"Kasarvadavali, Thane - MPCB",26-01-2024 22:00:00,19.26777,72.97182,SO2,6,55,19
India,Maharashtra,Thane,"Upvan Fort, Thane - MPCB",26-01-2024 22:00:00,19.222279,72.957979,PM2.5,66,296,145
India,Maharashtra,Thane,"Upvan Fort, Thane - MPCB",26-01-2024 22:00:00,19.222279,72.957979,PM10,111,170,138
India,Maharashtra,Thane,"Upvan Fort, Thane - MPCB",26-01-2024 22:00:00,19.222279,72.957979,NH3,10,16,13
India,Maharashtra,Thane,"Upvan Fort, Thane - MPCB",26-01-2024 22:00:00,19.222279,72.957979,OZONE,19,134,108
India,Maharashtra,Ulhasnagar,"Sidhi Vinayak Nagar, Ulhasnagar - MPCB",26-01-2024 22:00:00,19.235581,73.159121,NO2,10,114,37
India,Maharashtra,Virar,"Bolinj, Virar - MPCB",26-01-2024 22:00:00,19.4458210,72.7988231,PM10,115,440,179
India,Maharashtra,Virar,"Bolinj, Virar - MPCB",26-01-2024 22:00:00,19.4458210,72.7988231,OZONE,2,114,96
India,Manipur,Imphal,"DM College of Science, Imphal - Manipur PCB",26-01-2024 22:00:00,24.8207389,93.9423085,PM2.5,23,81,42
India,Manipur,Imphal,"Manipur University, Imphal - Manipur PCB",26-01-2024 22:00:00,24.7524239,93.9286218,PM2.5,74,315,159
India,Manipur,Imphal,"Manipur University, Imphal - Manipur PCB",26-01-2024 22:00:00,24.7524239,93.9286218,CO,14,54,22
India,Meghalaya,Shillong,"Lumpyngngad, Shillong - Meghalaya PCB",26-01-2024 22:00:00,25.5586,91.8985,PM10,75,141,99
India,Mizoram,Aizawl,"Sikulpuikawn, Aizawl - Mizoram PCB",26-01-2024 22:00:00,23.7176342,92.7192841,PM10,33,81,52
India,Mizoram,Aizawl,"Sikulpuikawn, Aizawl - Mizoram PCB",26-01-2024 22:00:00,23.7176342,92.7192841,CO,9,18,14
India,Nagaland,Kohima,"PWD Juction, Kohima - NPCB",26-01-2024 22:00:00,25.6635413,94.0989878,SO2,90,99,94
India,Odisha,Barbil,"Forest Office, Barbil - OSPCB",26-01-2024 22:00:00,22.1166054,85.3945546,PM10,59,299,138
India,Odisha,Barbil,"Forest Office, Barbil - OSPCB",26-01-2024 22:00:00,22.1166054,85.3945546,SO2,1,44,11
India,Odisha,Barbil,"Forest Office, Barbil - OSPCB",26-01-2024 22:00:00,22.1166054,85.3945546,CO,38,98,54
India,Odisha,Baripada,"Meher Colony, Baripada - OSPCB",26-01-2024 22:00:00,21.941841,86.728318,PM10,86,239,152
India,Odisha,Baripada,"Meher Colony, Baripada - OSPCB",26-01-2024 22:00:00,21.941841,86.728318,NO2,2,3,3
India,Odisha,Baripada,"Meher Colony, Baripada - OSPCB",26-01-2024 22:00:00,21.941841,86.728318,CO,36,64,51
India,Odisha,Baripada,"Meher Colony, Baripada - OSPCB",26-01-2024 22:00:00,21.941841,86.728318,OZONE,10,34,21
India,Odisha,Bhubaneswar,"Lingraj Mandir, Bhubaneswar - OSPCB",26-01-2024 22:00:00,20.240790,85.836784,PM2.5,193,417,289
India,Odisha,Bhubaneswar,"Lingraj Mandir, Bhubaneswar - OSPCB",26-01-2024 22:00:00,20.240790,85.836784,OZONE,13,205,138
India,Odisha,Bhubaneswar,"Patia, Bhubaneswar - OSPCB",26-01-2024 22:00:00,20.34652,85.81630,NO2,17,100,33
India,Odisha,Bileipada,"Tata Township, Bileipada - OSPCB",26-01-2024 22:00:00,22.06156703,85.47409613,NO2,6,14,10
India,Odisha,Bileipada,"Tata Township, Bileipada - OSPCB",26-01-2024 22:00:00,22.06156703,85.47409613,OZONE,18,25,21
India,Odisha,Brajrajnagar,"GM Office, Brajrajnagar - OSPCB",26-01-2024 22:00:00,21.8004996,83.8396977,SO2,12,13,12
India,Odisha,Brajrajnagar,"GM Office, Brajrajnagar - OSPCB",26-01-2024 22:00:00,21.8004996,83.8396977,CO,40,104,70
India,Odisha,Byasanagar,"Ferro Chrome Colony, Byasanagar - OSPCB",26-01-2024 22:00:00,20.94185,86.11510,PM2.5,73,328,152
India,Odisha,Byasanagar,"Ferro Chrome Colony, Byasanagar - OSPCB",26-01-2024 22:00:00,20.94185,86.11510,CO,36,119,110
India,Odisha,Cuttack,"CDA Area, Cuttack - OSPCB",26-01-2024 22:00:00,20.48891     ,85.84768     ,OZONE,4,142,89
India,Odisha,Keonjhar,"Jagamohanpur, Keonjhar - OSPCB",26-01-2024 22:00:00,21.643900,85.599355,SO2,NA,NA,NA
India,Odisha,Nayagarh,"Dabuna, Nayagarh - OSPCB",26-01-2024 22:00:00,21.847279,85.416905,OZONE,1,15,6
India,Odisha,Rourkela,"Raghunathpali, Rourkela - OSPCB",26-01-2024 22:00:00,22.220833,84.809444,NH3,1,2,1
India,Odisha,Rourkela,"Sector-2, Rourkela - OSPCB",26-01-2024 22:00:00,22.24500000,84.88111111,PM2.5,23,150,55
India,Odisha,Rourkela,"Sector-2, Rourkela - OSPCB",26-01-2024 22:00:00,22.24500000,84.88111111,CO,18,88,36
India,Odisha,Talcher,"Talcher Coalfields,Talcher - OSPCB",26-01-2024 22:00:00,20.9360711,85.1707021,PM2.5,20,433,244
India,Puducherry,Puducherry,"Jawahar Nagar, Puducherry - PPCC",26-01-2024 22:00:00,11.9309,79.8027,PM10,38,75,48
India,Punjab,Bathinda,"Hardev Nagar, Bathinda - PPCB",26-01-2024 22:00:00,30.233011,74.907758,PM2.5,12,183,70
India,Punjab,Bathinda,"Hardev Nagar, Bathinda - PPCB",26-01-2024 22:00:00,30.233011,74.907758,PM10,47,99,74
India,Punjab,Bathinda,"Hardev Nagar, Bathinda - PPCB",26-01-2024 22:00:00,30.233011,74.907758,NO2,32,40,33
India,Punjab,Jalandhar,"Civil Line, Jalandhar - PPCB",26-01-2024 22:00:00,31.321907,75.578914,PM2.5,126,256,178
India,Punjab,Jalandhar,"Civil Line, Jalandhar - PPCB",26-01-2024 22:00:00,31.321907,75.578914,PM10,110,169,131
India,Punjab,Jalandhar,"Civil Line, Jalandhar - PPCB",26-01-2024 22:00:00,31.321907,75.578914,CO,43,107,68
India,Punjab,Khanna,"Kalal Majra, Khanna - PPCB",26-01-2024 22:00:00,30.736056 ,76.209694,PM2.5,41,94,70
India,Punjab,Khanna,"Kalal Majra, Khanna - PPCB",26-01-2024 22:00:00,30.736056 ,76.209694,CO,14,28,18
India,Punjab,Ludhiana,"Punjab Agricultural University, Ludhiana - PPCB",26-01-2024 22:00:00,30.9028,75.8086,SO2,1,21,9
India,Punjab,Patiala,"Model Town, Patiala - PPCB",26-01-2024 22:00:00,30.349388,76.366642,OZONE,20,49,35
India,Punjab,Rupnagar,"Ratanpura, Rupnagar - Ambuja Cements",26-01-2024 22:00:00,31.0325454,76.5623046,PM10,76,242,140
India,Rajasthan,Ajmer,"Civil Lines,  Ajmer - RSPCB",26-01-2024 22:00:00,26.470859,74.646594,NO2,21,76,40
India,Rajasthan,Banswara,"Rati Talai, Banswara - RSPCB",26-01-2024 22:00:00,23.555190,74.440010,PM10,76,170,114
India,Rajasthan,Banswara,"Rati Talai, Banswara - RSPCB",26-01-2024 22:00:00,23.555190,74.440010,NO2,10,24,17
India,Rajasthan,Banswara,"Rati Talai, Banswara - RSPCB",26-01-2024 22:00:00,23.555190,74.440010,OZONE,42,142,99
India,Rajasthan,Baran,"Bamboliya, Baran - RSPCB",26-01-2024 22:00:00,25.106006,76.469948,PM10,50,156,94
India,Rajasthan,Baran,"Bamboliya, Baran - RSPCB",26-01-2024 22:00:00,25.106006,76.469948,NH3,4,12,5
India,Rajasthan,Barmer,"Railway Colony, Barmer - RSPCB",26-01-2024 22:00:00,25.747299,71.393989,PM10,65,138,95
India,Rajasthan,Barmer,"Railway Colony, Barmer - RSPCB",26-01-2024 22:00:00,25.747299,71.393989,NH3,4,13,7
India,Rajasthan,Bikaner,"MM Ground, Bikaner - RSPCB",26-01-2024 22:00:00,28.018792,73.292658,PM10,116,400,191
India,Rajasthan,Bikaner,"MM Ground, Bikaner - RSPCB",26-01-2024 22:00:00,28.018792,73.292658,NH3,12,17,15
India,Rajasthan,Bundi,"New Colony, Bundi - RSPCB",26-01-2024 22:00:00,25.435774,75.644272,NH3,4,6,5
India,Rajasthan,Chittorgarh,"Shastri Nagar, Chittorgarh - RSPCB",26-01-2024 22:00:00,24.892047,74.623527,PM2.5,13,312,139
India,Rajasthan,Chittorgarh,"Shastri Nagar, Chittorgarh - RSPCB",26-01-2024 22:00:00,24.892047,74.623527,NH3,4,17,10
India,Rajasthan,Chittorgarh,"Shastri Nagar, Chittorgarh - RSPCB",26-01-2024 22:00:00,24.892047,74.623527,SO2,1,110,21
India,Rajasthan,Chittorgarh,"Shastri Nagar, Chittorgarh - RSPCB",26-01-2024 22:00:00,24.892047,74.623527,OZONE,2,100,70
India,Rajasthan,Churu,"Subash Chowk, Churu - RSPCB",26-01-2024 22:00:00,28.296139,74.961696,PM10,78,181,128
India,Rajasthan,Dausa,"Khatikan Mohalla, Dausa - RSPCB",26-01-2024 22:00:00,26.895552,76.334753,NH3,9,18,13
India,Rajasthan,Dungarpur,"Bhoiwada, Dungarpur - RSPCB",26-01-2024 22:00:00,23.837789,73.714926,PM10,49,315,121
India,Rajasthan,Dungarpur,"Bhoiwada, Dungarpur - RSPCB",26-01-2024 22:00:00,23.837789,73.714926,NH3,6,6,6
India,Rajasthan,Jaipur,"Adarsh Nagar, Jaipur - RSPCB",26-01-2024 22:00:00,26.902909,75.836858,CO,8,94,49
India,Rajasthan,Jaipur,"Mansarovar Sector-12, Jaipur - RSPCB",26-01-2024 22:00:00,26.843698,75.766894,PM10,111,315,191
India,Rajasthan,Jaipur,"Mansarovar Sector-12, Jaipur - RSPCB",26-01-2024 22:00:00,26.843698,75.766894,SO2,2,9,5
India,Rajasthan,Jaipur,"Police Commissionerate, Jaipur - RSPCB",26-01-2024 22:00:00,26.9164092,75.7994901,OZONE,15,91,59
India,Rajasthan,Jaipur,"Sector-2 Murlipura, Jaipur - RSPCB",26-01-2024 22:00:00,26.960669,75.771817,PM2.5,96,345,250
India,Rajasthan,Jaipur,"Sector-2 Murlipura, Jaipur - RSPCB",26-01-2024 22:00:00,26.960669,75.771817,CO,34,125,88
India,Rajasthan,Jaipur,"Sector-2 Murlipura, Jaipur - RSPCB",26-01-2024 22:00:00,26.960669,75.771817,OZONE,5,162,92
India,Rajasthan,Jaipur,"Shastri Nagar, Jaipur - RSPCB",26-01-2024 22:00:00,26.9502929,75.730943,PM10,105,164,129
India,Rajasthan,Jaipur,"Shastri Nagar, Jaipur - RSPCB",26-01-2024 22:00:00,26.9502929,75.730943,SO2,13,23,18
India,Rajasthan,Jalore,"Mudtra Sili, Jalore - RSPCB",26-01-2024 22:00:00,25.344694,72.626208,PM2.5,43,364,127
India,Rajasthan,Jalore,"Mudtra Sili, Jalore - RSPCB",26-01-2024 22:00:00,25.344694,72.626208,PM10,83,407,175
India,Rajasthan,Jalore,"Mudtra Sili, Jalore - RSPCB",26-01-2024 22:00:00,25.344694,72.626208,NO2,8,114,58
India,Rajasthan,Jalore,"Mudtra Sili, Jalore - RSPCB",26-01-2024 22:00:00,25.344694,72.626208,OZONE,5,129,89
India,Rajasthan,Jhalawar,"Rajlaxmi Nagar, Jhalawar - RSPCB",26-01-2024 22:00:00,24.588397,76.172782,CO,20,106,55
India,Rajasthan,Jhalawar,"Rajlaxmi Nagar, Jhalawar - RSPCB",26-01-2024 22:00:00,24.588397,76.172782,OZONE,5,110,72
India,Rajasthan,Jodhpur,"Collectorate, Jodhpur - RSPCB",26-01-2024 22:00:00,26.268249,73.0193853,NO2,NA,NA,NA
India,Rajasthan,Jodhpur,"Digari Kalan, Jodhpur - RSPCB",26-01-2024 22:00:00,26.295810,73.082283,PM2.5,22,274,99
India,Rajasthan,Jodhpur,"Digari Kalan, Jodhpur - RSPCB",26-01-2024 22:00:00,26.295810,73.082283,SO2,2,9,5
India,Rajasthan,Jodhpur,"Digari Kalan, Jodhpur - RSPCB",26-01-2024 22:00:00,26.295810,73.082283,OZONE,2,139,100
India,Rajasthan,Jodhpur,"Jhalamand, Jodhpur - RSPCB",26-01-2024 22:00:00,26.215415,73.070156,PM2.5,18,306,99
India,Rajasthan,Jodhpur,"Jhalamand, Jodhpur - RSPCB",26-01-2024 22:00:00,26.215415,73.070156,SO2,3,16,9
India,Rajasthan,Jodhpur,"Mandor, Jodhpur - RSPCB",26-01-2024 22:00:00,26.358805,73.047444,OZONE,14,127,97
India,Rajasthan,Jodhpur,"Samrat Ashok Udhyan, Jodhpur - RSPCB",26-01-2024 22:00:00,26.253384,72.976571,SO2,7,30,12
India,Rajasthan,Jodhpur,"Samrat Ashok Udhyan, Jodhpur - RSPCB",26-01-2024 22:00:00,26.253384,72.976571,OZONE,5,146,112
India,Rajasthan,Kota,"Nayapura, Kota - RSPCB",26-01-2024 22:00:00,25.196024,75.855668,NH3,6,13,9
India,Rajasthan,Kota,"Shrinath Puram, Kota - RSPCB",26-01-2024 22:00:00,25.14389,75.821256,NO2,76,327,154
India,Rajasthan,Kota,"Shrinath Puram, Kota - RSPCB",26-01-2024 22:00:00,25.14389,75.821256,CO,2,36,23
India,Rajasthan,Nagaur,"Karni Colony, Nagaur - RSPCB",26-01-2024 22:00:00,27.213494,73.734444,PM10,93,263,128
India,Rajasthan,Nagaur,"Karni Colony, Nagaur - RSPCB",26-01-2024 22:00:00,27.213494,73.734444,NO2,25,48,34
India,Rajasthan,Nagaur,"Karni Colony, Nagaur - RSPCB",26-01-2024 22:00:00,27.213494,73.734444,CO,32,64,39
India,Rajasthan,Pali,"Indira Colony Vistar, Pali - RSPCB",26-01-2024 22:00:00,25.771061, 73.340227,PM10,73,251,126
India,Rajasthan,Pali,"Indira Colony Vistar, Pali - RSPCB",26-01-2024 22:00:00,25.771061, 73.340227,NO2,18,70,40
India,Rajasthan,Pratapgarh,"Pragati Nagar, Pratapgarh - RSPCB",26-01-2024 22:00:00,24.041198,74.780702,PM2.5,32,136,74
India,Rajasthan,Pratapgarh,"Pragati Nagar, Pratapgarh - RSPCB",26-01-2024 22:00:00,24.041198,74.780702,NO2,12,48,21
India,Rajasthan,Rajsamand,"Dhoinda, Rajsamand - RSPCB",26-01-2024 22:00:00,25.036360,73.883502,NH3,2,16,6
India,Rajasthan,Sawai Madhopur,"Sahu Nagar, Sawai Madhopur - RSPCB",26-01-2024 22:00:00,26.031443,76.359327,PM2.5,38,243,95
India,Rajasthan,Sawai Madhopur,"Sahu Nagar, Sawai Madhopur - RSPCB",26-01-2024 22:00:00,26.031443,76.359327,PM10,61,214,121
India,Rajasthan,Sawai Madhopur,"Sahu Nagar, Sawai Madhopur - RSPCB",26-01-2024 22:00:00,26.031443,76.359327,NO2,6,8,7
India,Rajasthan,Sikar,"Radhakishan Pura, Sikar - RSPCB",26-01-2024 22:00:00,27.608912,75.153302,PM2.5,74,349,224
India,Rajasthan,Sirohi,"Vedhaynath Colony, Sirohi - RSPCB",26-01-2024 22:00:00,24.885261,72.857549,PM2.5,30,203,73
India,Rajasthan,Sirohi,"Vedhaynath Colony, Sirohi - RSPCB",26-01-2024 22:00:00,24.885261,72.857549,PM10,35,176,83
India,Rajasthan,Sri Ganganagar,"Old City, Sri Ganganagar - RSPCB",26-01-2024 22:00:00,29.931624,73.864511,PM10,82,456,189
India,Rajasthan,Sri Ganganagar,"Old City, Sri Ganganagar - RSPCB",26-01-2024 22:00:00,29.931624,73.864511,CO,23,141,120
India,Rajasthan,Tonk,"Shastri Nagar, Tonk - RSPCB",26-01-2024 22:00:00,26.159933,75.780517,NH3,5,43,12
India,Rajasthan,Udaipur,"Ashok Nagar, Udaipur - RSPCB",26-01-2024 22:00:00,24.5886166,73.6321397,SO2,11,28,19
India,Sikkim,Gangtok,"Zero Point GICI, Gangtok - SSPCB",26-01-2024 22:00:00,27.338530,88.614099,PM2.5,22,37,30
India,Sikkim,Gangtok,"Zero Point GICI, Gangtok - SSPCB",26-01-2024 22:00:00,27.338530,88.614099,NO2,1,13,4
India,Sikkim,Gangtok,"Zero Point GICI, Gangtok - SSPCB",26-01-2024 22:00:00,27.338530,88.614099,SO2,9,10,9
India,TamilNadu,Ariyalur,"Keelapalur, Ariyalur - TNPCB",26-01-2024 22:00:00,11.06825,79.07033,PM2.5,18,107,32
India,TamilNadu,Ariyalur,"Keelapalur, Ariyalur - TNPCB",26-01-2024 22:00:00,11.06825,79.07033,PM10,22,122,39
India,TamilNadu,Chennai,"Alandur Bus Depot, Chennai - CPCB",26-01-2024 22:00:00,12.9099161,80.1076538,SO2,1,3,1
India,TamilNadu,Chennai,"Gandhi Nagar_Ennore, Chennai - TNPCB",26-01-2024 22:00:00,13.218341,80.32027,NH3,1,3,2
India,TamilNadu,Chennai,"Kodungaiyur, Chennai - TNPCB",26-01-2024 22:00:00,13.1278,80.2642,NO2,6,28,15
India,TamilNadu,Chennai,"Kodungaiyur, Chennai - TNPCB",26-01-2024 22:00:00,13.1278,80.2642,CO,27,43,32
India,TamilNadu,Chennai,"Manali, Chennai - CPCB",26-01-2024 22:00:00,13.164544,80.26285,PM2.5,11,134,60
India,TamilNadu,Chennai,"Manali, Chennai - CPCB",26-01-2024 22:00:00,13.164544,80.26285,NH3,4,11,6
India,TamilNadu,Chennai,"Manali, Chennai - CPCB",26-01-2024 22:00:00,13.164544,80.26285,CO,24,111,87
India,TamilNadu,Chennai,"Perungudi, Chennai - TNPCB",26-01-2024 22:00:00,12.9533,80.2357,SO2,1,7,3
India,TamilNadu,Chennai,"Velachery Res. Area, Chennai - CPCB",26-01-2024 22:00:00,13.0052189,80.2398125,CO,15,76,47
India,TamilNadu,Coimbatore,"PSG College of Arts and Science, Coimbatore - TNPCB",26-01-2024 22:00:00,11.0328,77.0349,SO2,14,27,18
India,TamilNadu,Coimbatore,"PSG College of Arts and Science, Coimbatore - TNPCB",26-01-2024 22:00:00,11.0328,77.0349,CO,5,26,14
India,TamilNadu,Cuddalore,"Kudikadu, Cuddalore - TNPCB",26-01-2024 22:00:00,11.6829898,79.7532099,PM2.5,33,90,55
India,TamilNadu,Cuddalore,"Kudikadu, Cuddalore - TNPCB",26-01-2024 22:00:00,11.6829898,79.7532099,NO2,22,32,28
India,TamilNadu,Cuddalore,"Kudikadu, Cuddalore - TNPCB",26-01-2024 22:00:00,11.6829898,79.7532099,NH3,5,6,5
India,TamilNadu,Cuddalore,"Semmandalam, Cuddalore - TNPCB",26-01-2024 22:00:00,11.7637683,79.7499835,PM2.5,28,97,51
India,TamilNadu,Gummidipoondi,"Anthoni Pillai Nagar, Gummidipoondi - TNPCB",26-01-2024 22:00:00,13.4127,80.1081,NO2,9,15,11
India,TamilNadu,Ooty,"Bombay Castel, Ooty - TNPCB",26-01-2024 22:00:00,11.4068288,76.7138973,NO2,NA,NA,NA
India,TamilNadu,Palkalaiperur,"Bharathidasan University, Palkalaiperur - TNPCB",26-01-2024 22:00:00,10.681158,78.741746,CO,4,48,20
India,TamilNadu,Ramanathapuram,"Chalai Bazaar, Ramanathapuram - TNPCB",26-01-2024 22:00:00,9.36399,78.831977,OZONE,13,14,14
India,TamilNadu,Thoothukudi,"Meelavittan, Thoothukudi - TNPCB",26-01-2024 22:00:00,8.816428 ,78.099039,NO2,26,50,37
India,TamilNadu,Thoothukudi,"Meelavittan, Thoothukudi - TNPCB",26-01-2024 22:00:00,8.816428 ,78.099039,CO,2,58,36
India,TamilNadu,Vellore,"Vasanthapuram, Vellore - TNPCB",26-01-2024 22:00:00,12.909494,79.131861,NH3,NA,NA,NA
India,TamilNadu,Virudhunagar,"Collectorate Office, Virudhunagar - TNPCB",26-01-2024 22:00:00,9.559382,77.948828,PM2.5,27,88,44
India,TamilNadu,Virudhunagar,"Collectorate Office, Virudhunagar - TNPCB",26-01-2024 22:00:00,9.559382,77.948828,PM10,33,102,52
India,TamilNadu,Virudhunagar,"Collectorate Office, Virudhunagar - TNPCB",26-01-2024 22:00:00,9.559382,77.948828,SO2,16,17,16
India,TamilNadu,Virudhunagar,"Collectorate Office, Virudhunagar - TNPCB",26-01-2024 22:00:00,9.559382,77.948828,CO,20,38,26
India,Telangana,Hyderabad,"Bollaram Industrial Area, Hyderabad - TSPCB",26-01-2024 22:00:00,17.540891,78.358528,NH3,2,3,3
India,Telangana,Hyderabad,"Bollaram Industrial Area, Hyderabad - TSPCB",26-01-2024 22:00:00,17.540891,78.358528,CO,23,50,35
India,Telangana,Hyderabad,"ECIL Kapra, Hyderabad - TSPCB",26-01-2024 22:00:00,17.470431,78.566959,OZONE,20,38,28
India,Telangana,Hyderabad,"ICRISAT Patancheru, Hyderabad - TSPCB",26-01-2024 22:00:00,17.518400,78.278777,PM2.5,69,157,104
India,Telangana,Hyderabad,"ICRISAT Patancheru, Hyderabad - TSPCB",26-01-2024 22:00:00,17.518400,78.278777,CO,33,70,48
India,Telangana,Hyderabad,"IITH Kandi, Hyderabad - TSPCB",26-01-2024 22:00:00,17.585705,78.126199,NH3,2,2,2
India,Telangana,Hyderabad,"Kokapet, Hyderabad - TSPCB",26-01-2024 22:00:00,17.393559,78.339194,NH3,1,2,1
India,Telangana,Hyderabad,"Kokapet, Hyderabad - TSPCB",26-01-2024 22:00:00,17.393559,78.339194,OZONE,2,7,6
India,Telangana,Hyderabad,"Kompally Municipal Office, Hyderabad - TSPCB",26-01-2024 22:00:00,17.544899,78.486949,NO2,NA,NA,NA
India,Telangana,Hyderabad,"Kompally Municipal Office, Hyderabad - TSPCB",26-01-2024 22:00:00,17.544899,78.486949,NH3,NA,NA,NA
India,Telangana,Hyderabad,"New Malakpet, Hyderabad - TSPCB",26-01-2024 22:00:00,17.37206,78.50864,NO2,NA,NA,NA
India,Telangana,Hyderabad,"New Malakpet, Hyderabad - TSPCB",26-01-2024 22:00:00,17.37206,78.50864,OZONE,16,25,23
India,Telangana,Hyderabad,"Ramachandrapuram, Hyderabad - TSPCB",26-01-2024 22:00:00,17.528544,78.286195,PM10,NA,NA,NA
India,Telangana,Hyderabad,"Somajiguda, Hyderabad - TSPCB",26-01-2024 22:00:00,17.417094,78.457437,CO,9,23,13
India,Tripura,Agartala,"Bardowali, Agartala - Tripura SPCB",26-01-2024 22:00:00,23.8175497,91.2726974,PM2.5,120,350,239
India,Tripura,Agartala,"Bardowali, Agartala - Tripura SPCB",26-01-2024 22:00:00,23.8175497,91.2726974,NO2,9,28,16
India,Tripura,Agartala,"Bardowali, Agartala - Tripura SPCB",26-01-2024 22:00:00,23.8175497,91.2726974,CO,40,104,68
India,Tripura,Agartala,"Bardowali, Agartala - Tripura SPCB",26-01-2024 22:00:00,23.8175497,91.2726974,OZONE,1,11,3
India,Uttar_Pradesh,Agra,"Manoharpur, Agra - UPPCB",26-01-2024 22:00:00,27.23711,78.01936,PM2.5,37,141,69
India,Uttar_Pradesh,Agra,"Sector-3B Avas Vikas Colony, Agra - UPPCB",26-01-2024 22:00:00,27.19412,77.96237,PM2.5,50,290,98
India,Uttar_Pradesh,Agra,"Sector-3B Avas Vikas Colony, Agra - UPPCB",26-01-2024 22:00:00,27.19412,77.96237,PM10,66,191,112
India,Uttar_Pradesh,Agra,"Shahjahan Garden, Agra - UPPCB",26-01-2024 22:00:00,27.169338,78.03582,PM2.5,55,213,103
India,Uttar_Pradesh,Agra,"Shahjahan Garden, Agra - UPPCB",26-01-2024 22:00:00,27.169338,78.03582,PM10,56,130,85
India,Uttar_Pradesh,Agra,"Shahjahan Garden, Agra - UPPCB",26-01-2024 22:00:00,27.169338,78.03582,CO,36,60,44
India,Uttar_Pradesh,Agra,"Shastripuram, Agra - UPPCB",26-01-2024 22:00:00,27.19862,77.92066,CO,13,23,14
India,Uttar_Pradesh,Baghpat,"Sardar Patel Inter College, Baghpat - UPPCB",26-01-2024 22:00:00,28.964949,77.278761,PM2.5,80,314,194
India,Uttar_Pradesh,Baghpat,"Sardar Patel Inter College, Baghpat - UPPCB",26-01-2024 22:00:00,28.964949,77.278761,NO2,36,91,51
India,Uttar_Pradesh,Baghpat,"Sardar Patel Inter College, Baghpat - UPPCB",26-01-2024 22:00:00,28.964949,77.278761,CO,11,92,47
India,Uttar_Pradesh,Bareilly,"Civil Lines, Bareilly - UPPCB",26-01-2024 22:00:00,28.359581,79.414455,NO2,22,48,32
India,Uttar_Pradesh,Bareilly,"Civil Lines, Bareilly - UPPCB",26-01-2024 22:00:00,28.359581,79.414455,OZONE,1,19,10
India,Uttar_Pradesh,Bareilly,"Rajendra Nagar, Bareilly - UPPCB",26-01-2024 22:00:00,28.38910936,79.42963708,OZONE,8,9,8
India,Uttar_Pradesh,Bulandshahr,"Yamunapuram, Bulandshahr - UPPCB",26-01-2024 22:00:00,28.406963,77.849831,NO2,36,159,60
India,Uttar_Pradesh,Bulandshahr,"Yamunapuram, Bulandshahr - UPPCB",26-01-2024 22:00:00,28.406963,77.849831,NH3,10,17,12
India,Uttar_Pradesh,Firozabad,"Nagla Bhau, Firozabad - UPPCB",26-01-2024 22:00:00,27.168897,78.376960,NO2,17,17,17
India,Uttar_Pradesh,Firozabad,"Nagla Bhau, Firozabad - UPPCB",26-01-2024 22:00:00,27.168897,78.376960,CO,18,54,25
India,Uttar_Pradesh,Firozabad,"Vibhab Nagar, Firozabad - UPPCB",26-01-2024 22:00:00,27.1594,78.3953,OZONE,19,31,20
India,Uttar_Pradesh,Ghaziabad,"Indirapuram, Ghaziabad - UPPCB",26-01-2024 22:00:00,28.646233,77.358075,NO2,78,133,106
India,Uttar_Pradesh,Ghaziabad,"Indirapuram, Ghaziabad - UPPCB",26-01-2024 22:00:00,28.646233,77.358075,SO2,12,20,15
India,Uttar_Pradesh,Ghaziabad,"Vasundhara, Ghaziabad - UPPCB",26-01-2024 22:00:00,28.6603346,77.3572563,PM10,166,398,268
India,Uttar_Pradesh,Gorakhpur,"Madan Mohan Malaviya University of Technology, Gorakhpur - UPPCB",26-01-2024 22:00:00,26.730136,83.433859,NO2,2,2,2
India,Uttar_Pradesh,Gorakhpur,"Madan Mohan Malaviya University of Technology, Gorakhpur - UPPCB",26-01-2024 22:00:00,26.730136,83.433859,CO,56,91,65
India,Uttar_Pradesh,Gorakhpur,"Madan Mohan Malaviya University of Technology, Gorakhpur - UPPCB",26-01-2024 22:00:00,26.730136,83.433859,OZONE,2,24,13
India,Uttar_Pradesh,Greater Noida,"Knowledge Park - V, Greater Noida - UPPCB",26-01-2024 22:00:00,28.557054,77.453663,PM2.5,222,435,352
India,Uttar_Pradesh,Hapur,"Anand Vihar, Hapur - UPPCB",26-01-2024 22:00:00,28.725645,77.749675,NH3,7,12,9
India,Uttar_Pradesh,Jhansi,"Shivaji Nagar, Jhansi - UPPCB",26-01-2024 22:00:00,25.4547,78.6039,PM2.5,57,172,90
India,Uttar_Pradesh,Kanpur,"FTI Kidwai Nagar, Kanpur - UPPCB",26-01-2024 22:00:00,26.428282,80.327067,NO2,14,14,14
India,Uttar_Pradesh,Kanpur,"FTI Kidwai Nagar, Kanpur - UPPCB",26-01-2024 22:00:00,26.428282,80.327067,OZONE,3,5,4
India,Uttar_Pradesh,Kanpur,"NSI Kalyanpur, Kanpur - UPPCB",26-01-2024 22:00:00,26.509954,80.249612,SO2,22,23,23
India,Uttar_Pradesh,Kanpur,"Nehru Nagar, Kanpur - UPPCB",26-01-2024 22:00:00,26.4703136,80.3229863,PM10,70,370,140
India,Uttar_Pradesh,Khurja,"Kalindi Kunj, Khurja - UPPCB",26-01-2024 22:00:00,28.2348927,77.8683002,PM2.5,10,312,93
India,Uttar_Pradesh,Lucknow,"B R Ambedkar University, Lucknow - UPPCB",26-01-2024 22:00:00,26.766433,80.927299,PM2.5,88,335,185
India,Uttar_Pradesh,Lucknow,"Gomti Nagar, Lucknow - UPPCB",26-01-2024 22:00:00,26.868120,81.005119,OZONE,39,56,50
India,Uttar_Pradesh,Lucknow,"Kukrail Picnic Spot-1, Lucknow - UPPCB",26-01-2024 22:00:00,26.90723,80.98579,PM2.5,75,336,151
India,Uttar_Pradesh,Lucknow,"Lalbagh, Lucknow - CPCB",26-01-2024 22:00:00,26.8458805,80.9365541,NH3,11,14,12
India,Uttar_Pradesh,Lucknow,"Lalbagh, Lucknow - CPCB",26-01-2024 22:00:00,26.8458805,80.9365541,SO2,1,19,8
India,Uttar_Pradesh,Lucknow,"Talkatora District Industries Center, Lucknow - CPCB",26-01-2024 22:00:00,26.83399722,80.8917361,CO,1,96,45
India,Uttar_Pradesh,Lucknow,"Talkatora District Industries Center, Lucknow - CPCB",26-01-2024 22:00:00,26.83399722,80.8917361,OZONE,2,81,40
India,Uttar_Pradesh,Meerut,"Jai Bhim Nagar, Meerut - UPPCB",26-01-2024 22:00:00,28.9535882,77.7622941,NO2,23,110,63
India,Uttar_Pradesh,Meerut,"Pallavpuram Phase 2, Meerut - UPPCB",26-01-2024 22:00:00,29.063510,77.709723,CO,77,121,97
India,Uttar_Pradesh,Moradabad,"Buddhi Vihar, Moradabad - UPPCB",26-01-2024 22:00:00,28.83526,78.74460,NO2,23,24,23
India,Uttar_Pradesh,Moradabad,"Buddhi Vihar, Moradabad - UPPCB",26-01-2024 22:00:00,28.83526,78.74460,SO2,13,20,15
India,Uttar_Pradesh,Moradabad,"Eco Herbal Park, Moradabad - UPPCB",26-01-2024 22:00:00,28.840739,78.697531,SO2,2,20,10
India,Uttar_Pradesh,Moradabad,"Jigar Colony, Moradabad - UPPCB",26-01-2024 22:00:00,28.856664,78.772638,PM10,104,247,161
India,Uttar_Pradesh,Moradabad,"Kashiram Nagar, Moradabad - UPPCB",26-01-2024 22:00:00,28.849399,78.742362,PM10,86,265,148
India,Uttar_Pradesh,Moradabad,"Transport Nagar, Moradabad - UPPCB",26-01-2024 22:00:00,28.802625,78.753728,NO2,27,55,36
India,Uttar_Pradesh,Muzaffarnagar,"New Mandi, Muzaffarnagar - UPPCB",26-01-2024 22:00:00,29.4723508,77.7194031,PM2.5,259,437,337
India,Uttar_Pradesh,Muzaffarnagar,"New Mandi, Muzaffarnagar - UPPCB",26-01-2024 22:00:00,29.4723508,77.7194031,NO2,25,114,50
India,Uttar_Pradesh,Noida,"Sector - 125, Noida - UPPCB",26-01-2024 22:00:00,28.5447608,77.3231257,NH3,NA,NA,NA
India,Uttar_Pradesh,Noida,"Sector-1, Noida - UPPCB",26-01-2024 22:00:00,28.5898,77.3101,PM2.5,296,386,341
India,Uttar_Pradesh,Noida,"Sector-116, Noida - UPPCB",26-01-2024 22:00:00,28.569230,77.393848,NO2,26,120,59
India,Uttar_Pradesh,Noida,"Sector-116, Noida - UPPCB",26-01-2024 22:00:00,28.569230,77.393848,CO,20,120,71
India,Uttar_Pradesh,Prayagraj,"Jhunsi, Prayagraj - UPPCB",26-01-2024 22:00:00,25.425602,81.917152,OZONE,1,11,5
India,Uttar_Pradesh,Prayagraj,"Motilal Nehru NIT, Prayagraj - UPPCB",26-01-2024 22:00:00,25.494,81.863,PM10,66,157,95
India,Uttar_Pradesh,Prayagraj,"Motilal Nehru NIT, Prayagraj - UPPCB",26-01-2024 22:00:00,25.494,81.863,SO2,26,40,38
India,Uttar_Pradesh,Prayagraj,"Nagar Nigam, Prayagraj - UPPCB",26-01-2024 22:00:00,25.44919916 ,81.82735986 ,CO,4,102,26
India,Uttar_Pradesh,Prayagraj,"Nagar Nigam, Prayagraj - UPPCB",26-01-2024 22:00:00,25.44919916 ,81.82735986 ,OZONE,4,9,7
India,Uttar_Pradesh,Varanasi,"Ardhali Bazar, Varanasi - UPPCB",26-01-2024 22:00:00,25.3505986,82.9083074,PM2.5,34,178,59
India,Uttar_Pradesh,Varanasi,"Bhelupur, Varanasi - UPPCB",26-01-2024 22:00:00,25.301778,82.996789,NO2,1,42,16
India,Uttar_Pradesh,Varanasi,"Bhelupur, Varanasi - UPPCB",26-01-2024 22:00:00,25.301778,82.996789,SO2,21,24,22
India,Uttarakhand,Dehradun,"Doon University, Dehradun - UKPCB",26-01-2024 22:00:00,30.269444,78.044167,PM2.5,65,353,172
India,Uttarakhand,Dehradun,"Doon University, Dehradun - UKPCB",26-01-2024 22:00:00,30.269444,78.044167,NO2,2,15,5
India,Uttarakhand,Kashipur,"Govt. Girls Inter College, Kashipur - UKPCB",26-01-2024 22:00:00,29.2124114,78.9611753,SO2,7,10,8
India,Uttarakhand,Kashipur,"Govt. Girls Inter College, Kashipur - UKPCB",26-01-2024 22:00:00,29.2124114,78.9611753,CO,58,127,91
India,West_Bengal,Asansol,"Asansol Court Area, Asansol - WBPCB",26-01-2024 22:00:00,23.685297,86.945968,NO2,30,97,48
India,West_Bengal,Barrackpore,"SVSPA Campus, Barrackpore - WBPCB",26-01-2024 22:00:00,22.7605581,88.3617589,PM2.5,157,327,253
India,West_Bengal,Barrackpore,"SVSPA Campus, Barrackpore - WBPCB",26-01-2024 22:00:00,22.7605581,88.3617589,NO2,16,69,31
India,West_Bengal,Haldia,"Priyambada Housing Estate, Haldia - WBPCB",26-01-2024 22:00:00,22.06047,88.109737,NO2,25,81,47
India,West_Bengal,Haldia,"Priyambada Housing Estate, Haldia - WBPCB",26-01-2024 22:00:00,22.06047,88.109737,SO2,8,28,15
India,West_Bengal,Haldia,"Priyambada Housing Estate, Haldia - WBPCB",26-01-2024 22:00:00,22.06047,88.109737,CO,41,105,64
India,West_Bengal,Howrah,"Belur Math, Howrah - WBPCB",26-01-2024 22:00:00,22.629801,88.352017,NO2,25,51,37
India,West_Bengal,Howrah,"Belur Math, Howrah - WBPCB",26-01-2024 22:00:00,22.629801,88.352017,NH3,5,8,6
India,West_Bengal,Howrah,"Belur Math, Howrah - WBPCB",26-01-2024 22:00:00,22.629801,88.352017,CO,12,56,30
India,West_Bengal,Howrah,"Ghusuri, Howrah - WBPCB",26-01-2024 22:00:00,22.611968,88.347422,NO2,24,101,44
India,West_Bengal,Howrah,"Ghusuri, Howrah - WBPCB",26-01-2024 22:00:00,22.611968,88.347422,OZONE,9,19,13
India,West_Bengal,Howrah,"Padmapukur, Howrah - WBPCB",26-01-2024 22:00:00,22.5687319,88.2797276,CO,20,100,52
India,West_Bengal,Howrah,"Padmapukur, Howrah - WBPCB",26-01-2024 22:00:00,22.5687319,88.2797276,OZONE,2,75,40
India,West_Bengal,Kolkata,"Bidhannagar, Kolkata - WBPCB",26-01-2024 22:00:00,22.58157048,88.41002457,PM2.5,129,306,240
India,West_Bengal,Kolkata,"Bidhannagar, Kolkata - WBPCB",26-01-2024 22:00:00,22.58157048,88.41002457,NH3,9,15,11
India,West_Bengal,Kolkata,"Bidhannagar, Kolkata - WBPCB",26-01-2024 22:00:00,22.58157048,88.41002457,OZONE,5,18,11
India,West_Bengal,Kolkata,"Fort William, Kolkata - WBPCB",26-01-2024 22:00:00,22.556640,88.342674,PM10,116,195,167
India,West_Bengal,Kolkata,"Jadavpur, Kolkata - WBPCB",26-01-2024 22:00:00,22.49929,88.36917,NO2,5,11,8
India,West_Bengal,Kolkata,"Rabindra Bharati University, Kolkata - WBPCB",26-01-2024 22:00:00,22.627847,88.380669,PM10,98,172,139
India,West_Bengal,Kolkata,"Rabindra Bharati University, Kolkata - WBPCB",26-01-2024 22:00:00,22.627847,88.380669,NO2,21,22,21
India,West_Bengal,Kolkata,"Rabindra Bharati University, Kolkata - WBPCB",26-01-2024 22:00:00,22.627847,88.380669,NH3,7,8,7
India,West_Bengal,Kolkata,"Rabindra Sarobar, Kolkata - WBPCB",26-01-2024 22:00:00,22.51106,88.35142,NO2,34,187,78
India,West_Bengal,Kolkata,"Rabindra Sarobar, Kolkata - WBPCB",26-01-2024 22:00:00,22.51106,88.35142,NH3,4,20,8
India,West_Bengal,Kolkata,"Rabindra Sarobar, Kolkata - WBPCB",26-01-2024 22:00:00,22.51106,88.35142,CO,11,108,43
India,West_Bengal,Kolkata,"Rabindra Sarobar, Kolkata - WBPCB",26-01-2024 22:00:00,22.51106,88.35142,OZONE,3,89,44
India,West_Bengal,Kolkata,"Victoria, Kolkata - WBPCB",26-01-2024 22:00:00,22.5448082,88.3403691,NH3,2,10,5
India,Andhra_Pradesh,Anantapur,"Gulzarpet, Anantapur - APPCB",26-01-2024 22:00:00,14.675886,77.593027,NH3,2,3,3
India,Andhra_Pradesh,Anantapur,"Gulzarpet, Anantapur - APPCB",26-01-2024 22:00:00,14.675886,77.593027,CO,23,52,29
India,Andhra_Pradesh,Anantapur,"Gulzarpet, Anantapur - APPCB",26-01-2024 22:00:00,14.675886,77.593027,OZONE,6,49,39
India,Andhra_Pradesh,Tirupati,"Tirumala, Tirupati - APPCB",26-01-2024 22:00:00,13.67,79.35,PM10,46,96,61
India,Andhra_Pradesh,Tirupati,"Tirumala, Tirupati - APPCB",26-01-2024 22:00:00,13.67,79.35,NH3,1,5,2
India,Andhra_Pradesh,Tirupati,"Vaikuntapuram, Tirupati - APPCB",26-01-2024 22:00:00,13.615387,79.409230,PM10,NA,NA,NA
India,Andhra_Pradesh,Tirupati,"Vaikuntapuram, Tirupati - APPCB",26-01-2024 22:00:00,13.615387,79.409230,NO2,NA,NA,NA
India,Andhra_Pradesh,Tirupati,"Vaikuntapuram, Tirupati - APPCB",26-01-2024 22:00:00,13.615387,79.409230,SO2,NA,NA,NA
India,Andhra_Pradesh,Tirupati,"Vaikuntapuram, Tirupati - APPCB",26-01-2024 22:00:00,13.615387,79.409230,OZONE,1,33,28
India,Andhra_Pradesh,Vijayawada,"HB Colony, Vijayawada - APPCB",26-01-2024 22:00:00,16.536107,80.594233,PM2.5,NA,NA,NA
India,Andhra_Pradesh,Vijayawada,"HB Colony, Vijayawada - APPCB",26-01-2024 22:00:00,16.536107,80.594233,PM10,NA,NA,NA
India,Andhra_Pradesh,Visakhapatnam,"GVM Corporation, Visakhapatnam - APPCB",26-01-2024 22:00:00,17.72,83.3,CO,36,90,45
India,Arunachal_Pradesh,Naharlagun,"Naharlagun, Naharlagun - APSPCB",26-01-2024 22:00:00,27.103358,93.679645,NO2,2,2,2
India,Assam,Guwahati,"Pan Bazaar, Guwahati - PCBA",26-01-2024 22:00:00,26.187500,91.744194,PM2.5,110,349,259
India,Assam,Guwahati,"Pan Bazaar, Guwahati - PCBA",26-01-2024 22:00:00,26.187500,91.744194,NH3,4,5,4
India,Assam,Guwahati,"Railway Colony, Guwahati - PCBA",26-01-2024 22:00:00,26.181742,91.78063,SO2,19,30,23
India,Assam,Silchar,"Tarapur, Silchar - PCBA",26-01-2024 22:00:00,24.82827,92.79525,OZONE,1,2,1
India,Assam,Sivasagar,"Girls College, Sivasagar - PCBA",26-01-2024 22:00:00,26.987634,94.636574,CO,14,65,27
India,Bihar,Araria,"Kharahiya Basti, Araria - BSPCB",26-01-2024 22:00:00,26.146529,87.454184,CO,20,31,26
India,Bihar,Arrah,"New DM Office, Arrah - BSPCB",26-01-2024 22:00:00,25.5626095,84.663264,NH3,5,8,7
India,Bihar,Aurangabad,"Gurdeo Nagar, Aurangabad - BSPCB",26-01-2024 22:00:00,24.75746,84.366208,NH3,5,21,7
India,Bihar,Bhagalpur,"DM Office_Kachari Chowk, Bhagalpur - BSPCB",26-01-2024 22:00:00,25.251013,86.989001,PM2.5,293,432,357
India,Bihar,Bhagalpur,"Mayaganj, Bhagalpur - BSPCB",26-01-2024 22:00:00,25.265194,87.012947,PM10,129,423,243
India,Bihar,Bihar Sharif,"D M Colony, Bihar Sharif - BSPCB",26-01-2024 22:00:00,25.204762,85.514960,NO2,9,10,10
India,Bihar,Chhapra,"Darshan Nagar, Chhapra - BSPCB",26-01-2024 22:00:00,25.7808257,84.7446768,PM2.5,267,403,340
India,Bihar,Gaya,"Kareemganj, Gaya - BSPCB",26-01-2024 22:00:00,24.792403,84.992416,PM2.5,28,190,76
India,Bihar,Gaya,"Kareemganj, Gaya - BSPCB",26-01-2024 22:00:00,24.792403,84.992416,NO2,30,31,30
India,Bihar,Gaya,"SFTI Kusdihra, Gaya - BSPCB",26-01-2024 22:00:00,24.762518,84.982348,PM10,103,140,120
India,Bihar,Gaya,"SFTI Kusdihra, Gaya - BSPCB",26-01-2024 22:00:00,24.762518,84.982348,CO,54,104,71
India,Bihar,Hajipur,"Industrial Area, Hajipur - BSPCB",26-01-2024 22:00:00,25.697189,85.245900,PM10,175,317,218
India,Bihar,Hajipur,"Industrial Area, Hajipur - BSPCB",26-01-2024 22:00:00,25.697189,85.245900,NH3,6,10,8
India,Bihar,Hajipur,"Industrial Area, Hajipur - BSPCB",26-01-2024 22:00:00,25.697189,85.245900,SO2,5,7,6
India,Bihar,Hajipur,"Industrial Area, Hajipur - BSPCB",26-01-2024 22:00:00,25.697189,85.245900,CO,77,103,84
India,Bihar,Katihar,"Mirchaibari, Katihar - BSPCB",26-01-2024 22:00:00,25.560083,87.553265,SO2,18,26,23
India,Bihar,Kishanganj,"SDM Office_Khagra, Kishanganj - BSPCB",26-01-2024 22:00:00,26.0881305,87.93840336,NO2,28,35,30
India,Bihar,Kishanganj,"SDM Office_Khagra, Kishanganj - BSPCB",26-01-2024 22:00:00,26.0881305,87.93840336,CO,4,12,9
India,Bihar,Motihari,"Gandak Colony, Motihari - BSPCB",26-01-2024 22:00:00,26.63086,84.90051,PM10,67,225,124
India,Bihar,Motihari,"Gandak Colony, Motihari - BSPCB",26-01-2024 22:00:00,26.63086,84.90051,CO,71,107,86
India,Bihar,Motihari,"Gandak Colony, Motihari - BSPCB",26-01-2024 22:00:00,26.63086,84.90051,OZONE,20,80,65
India,Bihar,Munger,"Town Hall, Munger - BSPCB",26-01-2024 22:00:00,25.376776,86.471523,PM2.5,40,343,161
India,Bihar,Munger,"Town Hall, Munger - BSPCB",26-01-2024 22:00:00,25.376776,86.471523,PM10,48,302,135
India,Bihar,Muzaffarpur,"Buddha Colony, Muzaffarpur - BSPCB",26-01-2024 22:00:00,26.11442,85.39813,SO2,8,13,10
India,Bihar,Muzaffarpur,"MIT-Daudpur Kothi, Muzaffarpur - BSPCB",26-01-2024 22:00:00,26.1403345,85.3650192,SO2,9,19,12
India,Bihar,Muzaffarpur,"Muzaffarpur Collectorate, Muzaffarpur - BSPCB",26-01-2024 22:00:00,26.1209,85.3647,PM2.5,191,424,259
India,Bihar,Muzaffarpur,"Muzaffarpur Collectorate, Muzaffarpur - BSPCB",26-01-2024 22:00:00,26.1209,85.3647,NO2,5,10,9
India,Bihar,Patna,"DRM Office Danapur, Patna - BSPCB",26-01-2024 22:00:00,25.586562,85.043586,PM10,217,374,305
India,Bihar,Patna,"IGSC Planetarium Complex, Patna - BSPCB",26-01-2024 22:00:00,25.610369,85.132568,NO2,14,15,15
India,Bihar,Patna,"Muradpur, Patna - BSPCB",26-01-2024 22:00:00,25.619651,85.147382,SO2,6,10,8
India,Bihar,Patna,"Muradpur, Patna - BSPCB",26-01-2024 22:00:00,25.619651,85.147382,CO,95,128,106
India,Bihar,Patna,"Rajbansi Nagar, Patna - BSPCB",26-01-2024 22:00:00,25.599486,85.113666,PM10,234,431,360
India,Bihar,Patna,"Rajbansi Nagar, Patna - BSPCB",26-01-2024 22:00:00,25.599486,85.113666,SO2,9,15,13
India,Bihar,Patna,"Rajbansi Nagar, Patna - BSPCB",26-01-2024 22:00:00,25.599486,85.113666,CO,50,96,69
India,Bihar,Patna,"Samanpura, Patna - BSPCB",26-01-2024 22:00:00,25.596727,85.085624,SO2,3,6,5
India,Bihar,Patna,"Samanpura, Patna - BSPCB",26-01-2024 22:00:00,25.596727,85.085624,OZONE,27,70,48
India,Bihar,Purnia,"Mariam Nagar, Purnia - BSPCB",26-01-2024 22:00:00,25.366336,87.117468,SO2,17,22,19
India,Bihar,Rajgir,"Dangi Tola, Rajgir - BSPCB",26-01-2024 22:00:00,25.03280,85.41948,NH3,1,4,1
India,Bihar,Saharsa,"Police Line, Saharsa - BSPCB",26-01-2024 22:00:00,25.892357,86.590325,PM2.5,257,490,362
India,Bihar,Saharsa,"Police Line, Saharsa - BSPCB",26-01-2024 22:00:00,25.892357,86.590325,NH3,9,10,9
India,Bihar,Samastipur,"DM Office_Kasipur, Samastipur - BSPCB",26-01-2024 22:00:00,25.859655,85.77944,NO2,2,7,4
India,Bihar,Samastipur,"DM Office_Kasipur, Samastipur - BSPCB",26-01-2024 22:00:00,25.859655,85.77944,NH3,5,5,5
India,Bihar,Sasaram,"Dada Peer, Sasaram - BSPCB",26-01-2024 22:00:00,24.952822,84.002396,SO2,21,23,23
India,Bihar,Sasaram,"Dada Peer, Sasaram - BSPCB",26-01-2024 22:00:00,24.952822,84.002396,CO,29,74,45
India,Chandigarh,Chandigarh,"Sector-25, Chandigarh - CPCC",26-01-2024 22:00:00,30.751462,76.762879,NH3,NA,NA,NA
India,Chandigarh,Chandigarh,"Sector-53, Chandigarh - CPCC",26-01-2024 22:00:00,30.719859,76.738637,CO,89,121,109
India,Chhattisgarh,Bhilai,"32Bungalows, Bhilai - CECB",26-01-2024 22:00:00,21.194815,81.314770,PM2.5,48,84,68
India,Chhattisgarh,Bhilai,"32Bungalows, Bhilai - CECB",26-01-2024 22:00:00,21.194815,81.314770,NH3,6,6,6
India,Chhattisgarh,Bhilai,"Civic Center, Bhilai - Bhilai Steel Plant",26-01-2024 22:00:00,21.185571,81.343175,PM10,63,114,86
India,Chhattisgarh,Bhilai,"Civic Center, Bhilai - Bhilai Steel Plant",26-01-2024 22:00:00,21.185571,81.343175,NO2,9,21,15
India,Chhattisgarh,Bhilai,"Civic Center, Bhilai - Bhilai Steel Plant",26-01-2024 22:00:00,21.185571,81.343175,CO,22,65,46
India,Chhattisgarh,Bhilai,"Hathkhoj, Bhilai - CECB",26-01-2024 22:00:00,21.224231,81.408350,PM10,70,135,103
India,Chhattisgarh,Bhilai,"Hathkhoj, Bhilai - CECB",26-01-2024 22:00:00,21.224231,81.408350,CO,20,46,27
India,Chhattisgarh,Bilaspur,"Mangala, Bilaspur - NTPC",26-01-2024 22:00:00,22.08815,82.13737,PM2.5,35,214,81
India,Chhattisgarh,Bilaspur,"Mangala, Bilaspur - NTPC",26-01-2024 22:00:00,22.08815,82.13737,NO2,16,16,16
India,Chhattisgarh,Korba,"Rampur, Korba - CECB",26-01-2024 22:00:00,22.368195,82.746431,PM2.5,NA,NA,NA
India,Chhattisgarh,Korba,"Rampur, Korba - CECB",26-01-2024 22:00:00,22.368195,82.746431,CO,11,36,18
India,Chhattisgarh,Korba,"Rampur, Korba - CECB",26-01-2024 22:00:00,22.368195,82.746431,OZONE,2,82,15
India,Chhattisgarh,Korba,"Urja Nagar, Korba - CECB",26-01-2024 22:00:00,22.348441,82.549611,PM2.5,9,234,52
India,Chhattisgarh,Kunjemura,"OP Jindal School, Kunjemura - CECB",26-01-2024 22:00:00,22.126650,83.483212,PM10,34,500,171
India,Chhattisgarh,Kunjemura,"OP Jindal School, Kunjemura - CECB",26-01-2024 22:00:00,22.126650,83.483212,NH3,1,5,2
India,Chhattisgarh,Milupara,"Govt. Higher Secondary School, Milupara - CECB",26-01-2024 22:00:00,22.1910172,83.5197009,SO2,9,17,12
India,Chhattisgarh,Raipur,"AIIMS, Raipur - CECB",26-01-2024 22:00:00,21.258815,81.578979,PM2.5,44,203,112
India,Chhattisgarh,Raipur,"Bhatagaon New ISBT, Raipur - CECB",26-01-2024 22:00:00,21.219665,81.630094,PM10,38,133,89
India,Chhattisgarh,Raipur,"Bhatagaon New ISBT, Raipur - CECB",26-01-2024 22:00:00,21.219665,81.630094,CO,26,90,37
India,Delhi,Delhi,"Anand Vihar, Delhi - DPCC",26-01-2024 22:00:00,28.647622,77.3158090,PM2.5,383,500,466
India,Delhi,Delhi,"Anand Vihar, Delhi - DPCC",26-01-2024 22:00:00,28.647622,77.3158090,PM10,322,500,443
India,Delhi,Delhi,"Ashok Vihar, Delhi - DPCC",26-01-2024 22:00:00,28.695381,77.181665,PM10,217,500,375
India,Delhi,Delhi,"Ashok Vihar, Delhi - DPCC",26-01-2024 22:00:00,28.695381,77.181665,CO,36,161,161
India,Delhi,Delhi,"Ashok Vihar, Delhi - DPCC",26-01-2024 22:00:00,28.695381,77.181665,OZONE,4,20,12
India,Delhi,Delhi,"Aya Nagar, Delhi - IMD",26-01-2024 22:00:00,28.4706914,77.1099364,PM10,124,448,340
India,Delhi,Delhi,"Bawana, Delhi - DPCC",26-01-2024 22:00:00,28.776200,77.051074,PM2.5,312,455,386
India,Delhi,Delhi,"Bawana, Delhi - DPCC",26-01-2024 22:00:00,28.776200,77.051074,PM10,166,486,310
India,Delhi,Delhi,"Bawana, Delhi - DPCC",26-01-2024 22:00:00,28.776200,77.051074,NO2,20,100,44
India,Delhi,Delhi,"Burari Crossing, Delhi - IMD",26-01-2024 22:00:00,28.7256504,77.2011573,CO,72,102,96
India,Delhi,Delhi,"CRRI Mathura Road, Delhi - IMD",26-01-2024 22:00:00,28.5512005,77.2735737,CO,55,119,73
India,Delhi,Delhi,"Dwarka-Sector 8, Delhi - DPCC ",26-01-2024 22:00:00,28.5710274,77.0719006,PM10,151,500,370
India,Delhi,Delhi,"IGI Airport (T3), Delhi - IMD",26-01-2024 22:00:00,28.5627763,77.1180053,PM2.5,150,462,372
India,Delhi,Delhi,"IGI Airport (T3), Delhi - IMD",26-01-2024 22:00:00,28.5627763,77.1180053,NO2,1,61,34
India,Delhi,Delhi,"ITO, Delhi - CPCB",26-01-2024 22:00:00,28.628624,77.241060,NH3,8,15,11
India,Delhi,Delhi,"ITO, Delhi - CPCB",26-01-2024 22:00:00,28.628624,77.241060,SO2,14,34,22
India,Delhi,Delhi,"Jahangirpuri, Delhi - DPCC",26-01-2024 22:00:00,28.732820,77.170633,PM2.5,318,500,417
India,Delhi,Delhi,"Jawaharlal Nehru Stadium, Delhi - DPCC",26-01-2024 22:00:00,28.580280,77.233829,OZONE,1,60,25
India,Delhi,Delhi,"Lodhi Road, Delhi - IITM",26-01-2024 22:00:00,28.588333,77.221667,PM10,126,416,201
India,Delhi,Delhi,"Lodhi Road, Delhi - IITM",26-01-2024 22:00:00,28.588333,77.221667,NO2,55,131,91
India,Delhi,Delhi,"Lodhi Road, Delhi - IMD",26-01-2024 22:00:00,28.5918245,77.2273074,PM2.5,357,500,411
India,Delhi,Delhi,"Lodhi Road, Delhi - IMD",26-01-2024 22:00:00,28.5918245,77.2273074,NO2,7,12,10
India,Delhi,Delhi,"Major Dhyan Chand National Stadium, Delhi - DPCC",26-01-2024 22:00:00,28.611281,77.237738,PM2.5,408,500,449
India,Delhi,Delhi,"Major Dhyan Chand National Stadium, Delhi - DPCC",26-01-2024 22:00:00,28.611281,77.237738,PM10,278,472,368
India,Delhi,Delhi,"Major Dhyan Chand National Stadium, Delhi - DPCC",26-01-2024 22:00:00,28.611281,77.237738,SO2,3,24,14
India,Delhi,Delhi,"Mandir Marg, Delhi - DPCC",26-01-2024 22:00:00,28.636429,77.201067,PM10,256,431,358
India,Delhi,Delhi,"Mandir Marg, Delhi - DPCC",26-01-2024 22:00:00,28.636429,77.201067,NH3,11,17,15
India,Delhi,Delhi,"Mundka, Delhi - DPCC",26-01-2024 22:00:00,28.684678,77.076574,PM2.5,346,500,450
India,Delhi,Delhi,"Mundka, Delhi - DPCC",26-01-2024 22:00:00,28.684678,77.076574,NH3,8,15,11
India,Delhi,Delhi,"NSIT Dwarka, Delhi - CPCB",26-01-2024 22:00:00,28.60909,77.0325413,OZONE,18,113,61
India,Delhi,Delhi,"Narela, Delhi - DPCC",26-01-2024 22:00:00,28.822836,77.101981,NH3,7,11,9
India,Delhi,Delhi,"Nehru Nagar, Delhi - DPCC",26-01-2024 22:00:00,28.567890,77.250515,CO,33,148,86
India,Delhi,Delhi,"Okhla Phase-2, Delhi - DPCC",26-01-2024 22:00:00,28.530785,77.271255,SO2,7,28,14
India,Delhi,Delhi,"Okhla Phase-2, Delhi - DPCC",26-01-2024 22:00:00,28.530785,77.271255,CO,88,138,99
India,Delhi,Delhi,"Okhla Phase-2, Delhi - DPCC",26-01-2024 22:00:00,28.530785,77.271255,OZONE,7,83,58
India,Delhi,Delhi,"Patparganj, Delhi - DPCC",26-01-2024 22:00:00,28.623763,77.287209,PM10,401,481,445
India,Delhi,Delhi,"Patparganj, Delhi - DPCC",26-01-2024 22:00:00,28.623763,77.287209,CO,54,124,89
India,Delhi,Delhi,"Punjabi Bagh, Delhi - DPCC",26-01-2024 22:00:00,28.674045,77.131023,PM10,188,489,363
India,Delhi,Delhi,"Punjabi Bagh, Delhi - DPCC",26-01-2024 22:00:00,28.674045,77.131023,CO,42,66,53
India,Delhi,Delhi,"Pusa, Delhi - DPCC",26-01-2024 22:00:00,28.639652,77.146275,SO2,5,17,11
India,Delhi,Delhi,"Pusa, Delhi - IMD",26-01-2024 22:00:00,28.636110,77.173332,NO2,43,128,76
India,Delhi,Delhi,"Rohini, Delhi - DPCC",26-01-2024 22:00:00,28.732528,77.119920,NO2,4,74,34
India,Delhi,Delhi,"Shadipur, Delhi - CPCB",26-01-2024 22:00:00,28.6514781,77.1473105,NO2,46,82,59
India,Delhi,Delhi,"Sirifort, Delhi - CPCB",26-01-2024 22:00:00,28.5504249,77.2159377,PM10,326,479,424
India,Delhi,Delhi,"Sirifort, Delhi - CPCB",26-01-2024 22:00:00,28.5504249,77.2159377,NO2,79,195,149
India,Delhi,Delhi,"Sonia Vihar, Delhi - DPCC",26-01-2024 22:00:00,28.710508,77.249485,NH3,6,9,7
India,Delhi,Delhi,"Sonia Vihar, Delhi - DPCC",26-01-2024 22:00:00,28.710508,77.249485,OZONE,3,176,104
India,Delhi,Delhi,"Sri Aurobindo Marg, Delhi - DPCC",26-01-2024 22:00:00,28.531346,77.190156,PM2.5,339,500,419
India,Delhi,Delhi,"Vivek Vihar, Delhi - DPCC",26-01-2024 22:00:00,28.672342,77.315260,PM10,198,500,408
India,Delhi,Delhi,"Vivek Vihar, Delhi - DPCC",26-01-2024 22:00:00,28.672342,77.315260,NO2,38,142,79
India,Delhi,Delhi,"Vivek Vihar, Delhi - DPCC",26-01-2024 22:00:00,28.672342,77.315260,OZONE,2,30,13
India,Delhi,Delhi,"Wazirpur, Delhi - DPCC",26-01-2024 22:00:00,28.699793,77.165453,PM2.5,310,500,423
India,Delhi,Delhi,"Wazirpur, Delhi - DPCC",26-01-2024 22:00:00,28.699793,77.165453,NH3,4,18,10
India,Delhi,Delhi,"Wazirpur, Delhi - DPCC",26-01-2024 22:00:00,28.699793,77.165453,SO2,16,80,35
India,Delhi,Delhi,"Wazirpur, Delhi - DPCC",26-01-2024 22:00:00,28.699793,77.165453,CO,6,125,79
India,Gujarat,Ahmedabad,"Chandkheda, Ahmedabad - IITM",26-01-2024 22:00:00,23.107969,72.574648,PM2.5,53,241,91
India,Gujarat,Ahmedabad,"Chandkheda, Ahmedabad - IITM",26-01-2024 22:00:00,23.107969,72.574648,SO2,5,13,6
India,Gujarat,Ahmedabad,"Chandkheda, Ahmedabad - IITM",26-01-2024 22:00:00,23.107969,72.574648,OZONE,22,26,24
India,Gujarat,Ahmedabad,"Gyaspur, Ahmedabad - IITM",26-01-2024 22:00:00,22.977134,72.553024,NO2,11,17,13
India,Gujarat,Ahmedabad,"Gyaspur, Ahmedabad - IITM",26-01-2024 22:00:00,22.977134,72.553024,NH3,3,5,4
India,Gujarat,Ahmedabad,"Raikhad, Ahmedabad - IITM",26-01-2024 22:00:00,23.020509,72.579261,NO2,9,16,12
India,Gujarat,Ahmedabad,"Rakhial, Ahmedabad - IITM",26-01-2024 22:00:00,23.016834,72.625775,SO2,3,20,7
India,Gujarat,Ahmedabad,"SAC ISRO Bopal, Ahmedabad - IITM",26-01-2024 22:00:00,23.041137,72.456691,PM2.5,66,178,106
India,Gujarat,Ahmedabad,"SAC ISRO Bopal, Ahmedabad - IITM",26-01-2024 22:00:00,23.041137,72.456691,NO2,8,11,10
India,Gujarat,Ahmedabad,"SAC ISRO Bopal, Ahmedabad - IITM",26-01-2024 22:00:00,23.041137,72.456691,NH3,3,4,4
India,Gujarat,Ahmedabad,"SVPI Airport Hansol, Ahmedabad - IITM",26-01-2024 22:00:00,23.076793,72.627874,PM10,46,140,87
India,Gujarat,Ahmedabad,"Sardar Vallabhbhai Patel Stadium, Ahmedabad - IITM",26-01-2024 22:00:00,23.043070,72.562968,OZONE,3,14,10
India,Gujarat,Ankleshwar,"GIDC, Ankleshwar - GPCB",26-01-2024 22:00:00,21.613267,73.010555,PM2.5,53,161,97
India,Gujarat,Ankleshwar,"GIDC, Ankleshwar - GPCB",26-01-2024 22:00:00,21.613267,73.010555,PM10,63,124,96
India,Gujarat,Ankleshwar,"GIDC, Ankleshwar - GPCB",26-01-2024 22:00:00,21.613267,73.010555,NH3,6,6,6
India,Gujarat,Ankleshwar,"GIDC, Ankleshwar - GPCB",26-01-2024 22:00:00,21.613267,73.010555,OZONE,21,31,28
India,Gujarat,Gandhinagar,"GIFT City, Gandhinagar - IITM",26-01-2024 22:00:00,23.163798,72.677768,NH3,2,3,2
India,Gujarat,Gandhinagar,"GIFT City, Gandhinagar - IITM",26-01-2024 22:00:00,23.163798,72.677768,CO,28,46,37
India,Gujarat,Gandhinagar,"IIPHG Lekawada, Gandhinagar - IITM",26-01-2024 22:00:00,23.243639,72.68994,SO2,11,12,12
India,Gujarat,Surat,"Science Center, Surat - SMC",26-01-2024 22:00:00,21.170046,72.795405,SO2,17,42,24
India,Gujarat,Vapi,"Phase-1 GIDC, Vapi - GPCB",26-01-2024 22:00:00,20.362421,72.918013,PM2.5,60,414,217
India,Gujarat,Vatva,"Phase-4 GIDC, Vatva - GPCB",26-01-2024 22:00:00,22.969611,72.643500,SO2,NA,NA,NA
India,Haryana,Ambala,"Patti Mehar, Ambala - HSPCB",26-01-2024 22:00:00,30.379589,76.778328,CO,35,60,40
India,Haryana,Ambala,"Patti Mehar, Ambala - HSPCB",26-01-2024 22:00:00,30.379589,76.778328,OZONE,26,41,37
India,Haryana,Bahadurgarh,"Arya Nagar, Bahadurgarh - HSPCB",26-01-2024 22:00:00,28.6701,76.9254,OZONE,38,49,44
India,Haryana,Dharuhera,"Municipal Corporation Office, Dharuhera -  HSPCB",26-01-2024 22:00:00,28.206800,76.799700,NO2,44,113,71
India,Haryana,Faridabad,"Sector 11, Faridabad - HSPCB",26-01-2024 22:00:00,28.376058,77.315741,PM2.5,119,356,265
India,Haryana,Faridabad,"Sector 11, Faridabad - HSPCB",26-01-2024 22:00:00,28.376058,77.315741,OZONE,3,6,4
India,Haryana,Faridabad,"Sector 30, Faridabad - HSPCB",26-01-2024 22:00:00,28.4417,77.3217,PM2.5,161,226,198
India,Haryana,Faridabad,"Sector- 16A, Faridabad - HSPCB",26-01-2024 22:00:00,28.4088421,77.3099081,OZONE,14,15,14
India,Haryana,Fatehabad,"Huda Sector, Fatehabad - HSPCB",26-01-2024 22:00:00,29.503664,75.467934,NH3,9,10,10
India,Haryana,Gurugram,"NISE Gwal Pahari, Gurugram - IMD",26-01-2024 22:00:00,28.422681,77.148944,PM10,146,427,260
India,Haryana,Gurugram,"NISE Gwal Pahari, Gurugram - IMD",26-01-2024 22:00:00,28.422681,77.148944,CO,28,86,34
India,Haryana,Gurugram,"Sector-51, Gurugram - HSPCB",26-01-2024 22:00:00,28.4227,77.0667,NO2,13,29,23
India,Haryana,Gurugram,"Sector-51, Gurugram - HSPCB",26-01-2024 22:00:00,28.4227,77.0667,NH3,6,14,9
India,Haryana,Gurugram,"Teri Gram, Gurugram - HSPCB",26-01-2024 22:00:00,28.4275,77.1465,SO2,NA,NA,NA
India,Haryana,Gurugram,"Vikas Sadan, Gurugram - HSPCB",26-01-2024 22:00:00,28.4501238,77.0263051,PM2.5,137,342,275
India,Haryana,Jind,"Police Lines, Jind - HSPCB",26-01-2024 22:00:00,29.307814,76.337619,PM10,67,230,121
India,Haryana,Jind,"Police Lines, Jind - HSPCB",26-01-2024 22:00:00,29.307814,76.337619,SO2,4,61,15
India,Haryana,Kaithal,"Rishi Nagar, Kaithal - HSPCB",26-01-2024 22:00:00,29.8006,76.4155,CO,NA,NA,NA
India,Haryana,Karnal,"Sector-12, Karnal - HSPCB",26-01-2024 22:00:00,29.695300,77.002700,PM10,59,147,107
India,Haryana,Kurukshetra,"Sector-7, Kurukshetra - HSPCB",26-01-2024 22:00:00,29.966942,76.875879,PM2.5,93,324,222
India,Haryana,Kurukshetra,"Sector-7, Kurukshetra - HSPCB",26-01-2024 22:00:00,29.966942,76.875879,NO2,10,10,10
India,Haryana,Mandikhera,"General Hospital, Mandikhera - HSPCB",26-01-2024 22:00:00,27.9002,76.9938,PM2.5,NA,NA,NA
India,Haryana,Mandikhera,"General Hospital, Mandikhera - HSPCB",26-01-2024 22:00:00,27.9002,76.9938,PM10,NA,NA,NA
India,Haryana,Mandikhera,"General Hospital, Mandikhera - HSPCB",26-01-2024 22:00:00,27.9002,76.9938,CO,82,88,84
India,Haryana,Mandikhera,"General Hospital, Mandikhera - HSPCB",26-01-2024 22:00:00,27.9002,76.9938,OZONE,21,32,28
India,Haryana,Manesar,"Sector-2 IMT, Manesar - HSPCB",26-01-2024 22:00:00,28.360699,76.936090,PM10,161,480,257
India,Haryana,Manesar,"Sector-2 IMT, Manesar - HSPCB",26-01-2024 22:00:00,28.360699,76.936090,OZONE,5,51,27
India,Haryana,Narnaul,"Shastri Nagar, Narnaul - HSPCB",26-01-2024 22:00:00,28.060249,76.113115,CO,14,27,22
India,Haryana,Palwal,"Shyam Nagar, Palwal - HSPCB",26-01-2024 22:00:00,28.1485564,77.3320667,PM2.5,51,120,74
India,Haryana,Palwal,"Shyam Nagar, Palwal - HSPCB",26-01-2024 22:00:00,28.1485564,77.3320667,NO2,5,5,5
India,Haryana,Panchkula,"Sector-6, Panchkula - HSPCB ",26-01-2024 22:00:00,30.7057778,76.8531805555555,OZONE,36,67,62
India,Haryana,Rohtak,"MD University, Rohtak - HSPCB",26-01-2024 22:00:00,28.52123,76.37138,PM2.5,91,369,212
India,Himachal Pradesh,Baddi,"HIMUDA Complex Phase-1, Baddi - HPPCB",26-01-2024 22:00:00,30.943887,76.801991,PM10,121,332,188
India,Himachal Pradesh,Baddi,"HIMUDA Complex Phase-1, Baddi - HPPCB",26-01-2024 22:00:00,30.943887,76.801991,NH3,5,10,7
India,Jharkhand,Dhanbad,"Kalakusuma, Dhanbad - DMC",26-01-2024 22:00:00,23.811548,86.481238,PM10,24,211,119
India,Jharkhand,Dhanbad,"Kalakusuma, Dhanbad - DMC",26-01-2024 22:00:00,23.811548,86.481238,NO2,33,34,34
India,Karnataka,Bagalkot,"Vidayagiri, Bagalkot - KSPCB",26-01-2024 22:00:00,16.172806,75.659694,PM10,46,47,46
India,Karnataka,Bagalkot,"Vidayagiri, Bagalkot - KSPCB",26-01-2024 22:00:00,16.172806,75.659694,CO,18,58,42
India,Karnataka,Belgaum,"Ramteerth Nagar, Belgaum - KSPCB",26-01-2024 22:00:00,15.888653,74.541751,NH3,33,34,33
India,Karnataka,Bengaluru,"BTM Layout, Bengaluru - CPCB",26-01-2024 22:00:00,12.9135218,77.5950804,CO,27,108,59
India,Karnataka,Bengaluru,"Bapuji Nagar, Bengaluru - KSPCB",26-01-2024 22:00:00,12.951913,77.539784,NO2,9,12,11
India,Karnataka,Bengaluru,"Bapuji Nagar, Bengaluru - KSPCB",26-01-2024 22:00:00,12.951913,77.539784,SO2,6,8,7
India,Karnataka,Bengaluru,"Hebbal, Bengaluru - KSPCB",26-01-2024 22:00:00,13.029152,77.585901,OZONE,7,9,7
India,Karnataka,Bengaluru,"Hombegowda Nagar, Bengaluru - KSPCB",26-01-2024 22:00:00,12.938539,77.590100,NO2,23,36,29
India,Karnataka,Bengaluru,"Jigani, Bengaluru - KSPCB",26-01-2024 22:00:00,12.7816279,77.6299145,PM2.5,9,90,48
India,Karnataka,Bengaluru,"Jigani, Bengaluru - KSPCB",26-01-2024 22:00:00,12.7816279,77.6299145,CO,26,66,54
India,Karnataka,Bengaluru,"Kasturi Nagar, Bengaluru - KSPCB",26-01-2024 22:00:00,13.003872,77.664217,PM10,65,144,102
India,Karnataka,Bengaluru,"Kasturi Nagar, Bengaluru - KSPCB",26-01-2024 22:00:00,13.003872,77.664217,CO,24,26,25
India,Karnataka,Bengaluru,"Peenya, Bengaluru - CPCB",26-01-2024 22:00:00,13.0270199,77.494094,NH3,5,5,5
India,Karnataka,Bengaluru,"RVCE-Mailasandra, Bengaluru - KSPCB",26-01-2024 22:00:00,12.921418,77.502466,PM10,107,187,128
India,Karnataka,Bengaluru,"RVCE-Mailasandra, Bengaluru - KSPCB",26-01-2024 22:00:00,12.921418,77.502466,CO,37,58,51
India,Karnataka,Bengaluru,"Sanegurava Halli, Bengaluru - KSPCB",26-01-2024 22:00:00,12.990328,77.5431385,NO2,22,37,27
India,Karnataka,Bidar,"Naubad, Bidar - KSPCB",26-01-2024 22:00:00,17.930306,77.482194,NO2,NA,NA,NA
India,Karnataka,Bidar,"Naubad, Bidar - KSPCB",26-01-2024 22:00:00,17.930306,77.482194,CO,NA,NA,NA
India,Karnataka,Chikkaballapur,"Chikkaballapur Rural, Chikkaballapur - KSPCB",26-01-2024 22:00:00,13.428828,77.731418,PM10,44,160,68
India,Karnataka,Chikkamagaluru,"Kalyana Nagara, Chikkamagaluru - KSPCB",26-01-2024 22:00:00,13.328028,75.797056,OZONE,16,67,47
India,Karnataka,Davanagere,"Devaraj Urs Badavane, Davanagere - KSPCB",26-01-2024 22:00:00,14.475800,75.905200,OZONE,23,31,27
India,Karnataka,Dharwad,"Kalabhavan, Dharwad - KSPCB",26-01-2024 22:00:00,15.459706,75.008381,NH3,2,3,3
India,Karnataka,Dharwad,"Kalabhavan, Dharwad - KSPCB",26-01-2024 22:00:00,15.459706,75.008381,CO,30,165,81
India,Karnataka,Gadag,"Panchal Nagar, Gadag - KSPCB",26-01-2024 22:00:00,15.411456,75.638133,NH3,2,3,2
India,Karnataka,Gadag,"Panchal Nagar, Gadag - KSPCB",26-01-2024 22:00:00,15.411456,75.638133,CO,48,54,50
India,Karnataka,Hubballi,"Deshpande Nagar, Hubballi - KSPCB",26-01-2024 22:00:00,15.351773,75.140726,NO2,19,26,23
India,Karnataka,Hubballi,"Lingaraj Nagar, Hubballi - KSPCB",26-01-2024 22:00:00,15.3714823,75.1160168,PM2.5,NA,NA,NA
India,Karnataka,Hubballi,"Lingaraj Nagar, Hubballi - KSPCB",26-01-2024 22:00:00,15.3714823,75.1160168,NO2,NA,NA,NA
India,Karnataka,Hubballi,"Lingaraj Nagar, Hubballi - KSPCB",26-01-2024 22:00:00,15.3714823,75.1160168,SO2,NA,NA,NA
India,Karnataka,Hubballi,"Lingaraj Nagar, Hubballi - KSPCB",26-01-2024 22:00:00,15.3714823,75.1160168,CO,30,60,40
India,Karnataka,Hubballi,"Lingaraj Nagar, Hubballi - KSPCB",26-01-2024 22:00:00,15.3714823,75.1160168,OZONE,30,43,37
India,Karnataka,Kalaburagi,"Lal Bahadur Shastri Nagar, Kalaburagi - KSPCB",26-01-2024 22:00:00,17.321993,76.822628,PM10,7,98,45
India,Karnataka,Kalaburagi,"Lal Bahadur Shastri Nagar, Kalaburagi - KSPCB",26-01-2024 22:00:00,17.321993,76.822628,CO,36,44,40
