country,state,city,station,last_update,latitude,longitude,pollutant_id,pollutant_min,pollutant_max,pollutant_avg
India,Andhra_Pradesh,Amaravati,"Secretariat, Amaravati - APPCB",01-04-2024 13:00:00,16.5150833,80.5181667,NH3,4,5,4
India,Andhra_Pradesh,Amaravati,"Secretariat, Amaravati - APPCB",01-04-2024 13:00:00,16.5150833,80.5181667,SO2,7,11,9
India,Andhra_Pradesh,Amaravati,"Secretariat, Amaravati - APPCB",01-04-2024 13:00:00,16.5150833,80.5181667,OZONE,1,45,4
India,Andhra_Pradesh,Anantapur,"Gulzarpet, Anantapur - APPCB",01-04-2024 13:00:00,14.675886,77.593027,SO2,5,22,11
India,Andhra_Pradesh,Chittoor,"Gangineni Cheruvu, Chittoor - APPCB",01-04-2024 13:00:00,13.204880,79.097889,SO2,NA,NA,NA
India,Andhra_Pradesh,Chittoor,"Gangineni Cheruvu, Chittoor - APPCB",01-04-2024 13:00:00,13.204880,79.097889,OZONE,46,61,51
India,Andhra_Pradesh,Kadapa,"Yerramukkapalli, Kadapa - APPCB",01-04-2024 13:00:00,14.465052,78.824187,PM10,16,74,41
India,Andhra_Pradesh,Kadapa,"Yerramukkapalli, Kadapa - APPCB",01-04-2024 13:00:00,14.465052,78.824187,CO,6,22,17
India,Andhra_Pradesh,Rajamahendravaram,"Anand Kala Kshetram, Rajamahendravaram - APPCB",01-04-2024 13:00:00,16.9872867,81.7363176,NO2,7,26,14
India,Andhra_Pradesh,Tirupati,"Tirumala, Tirupati - APPCB",01-04-2024 13:00:00,13.67,79.35,NO2,11,48,23
India,Andhra_Pradesh,Tirupati,"Tirumala, Tirupati - APPCB",01-04-2024 13:00:00,13.67,79.35,CO,18,48,29
India,Andhra_Pradesh,Tirupati,"Vaikuntapuram, Tirupati - APPCB",01-04-2024 13:00:00,13.615387,79.409230,NH3,2,3,2
India,Andhra_Pradesh,Vijayawada,"HB Colony, Vijayawada - APPCB",01-04-2024 13:00:00,16.536107,80.594233,PM2.5,43,55,49
India,Andhra_Pradesh,Visakhapatnam,"GVM Corporation, Visakhapatnam - APPCB",01-04-2024 13:00:00,17.72,83.3,NH3,3,6,3
India,Andhra_Pradesh,Visakhapatnam,"GVM Corporation, Visakhapatnam - APPCB",01-04-2024 13:00:00,17.72,83.3,OZONE,3,139,68
India,Arunachal_Pradesh,Naharlagun,"Naharlagun, Naharlagun - APSPCB",01-04-2024 13:00:00,27.103358,93.679645,SO2,4,4,4
India,Assam,Guwahati,"IITG, Guwahati - PCBA",01-04-2024 13:00:00,26.2028636,91.70046436,PM10,36,117,61
India,Assam,Guwahati,"IITG, Guwahati - PCBA",01-04-2024 13:00:00,26.2028636,91.70046436,NO2,1,3,2
India,Assam,Guwahati,"IITG, Guwahati - PCBA",01-04-2024 13:00:00,26.2028636,91.70046436,NH3,5,5,5
India,Assam,Guwahati,"LGBI Airport, Guwahati - PCBA",01-04-2024 13:00:00,26.10887,91.589544,PM10,NA,NA,NA
India,Assam,Guwahati,"LGBI Airport, Guwahati - PCBA",01-04-2024 13:00:00,26.10887,91.589544,NO2,NA,NA,NA
India,Assam,Guwahati,"Pan Bazaar, Guwahati - PCBA",01-04-2024 13:00:00,26.187500,91.744194,NO2,1,8,3
India,Assam,Nagaon,"Christianpatty, Nagaon - PCBA",01-04-2024 13:00:00,26.349082,92.68449,NH3,4,20,8
India,Assam,Nagaon,"Christianpatty, Nagaon - PCBA",01-04-2024 13:00:00,26.349082,92.68449,CO,28,66,31
India,Assam,Silchar,"Tarapur, Silchar - PCBA",01-04-2024 13:00:00,24.82827,92.79525,NO2,13,13,13
India,Assam,Silchar,"Tarapur, Silchar - PCBA",01-04-2024 13:00:00,24.82827,92.79525,NH3,1,1,1
India,Assam,Silchar,"Tarapur, Silchar - PCBA",01-04-2024 13:00:00,24.82827,92.79525,SO2,1,17,12
India,Bihar,Araria,"Kharahiya Basti, Araria - BSPCB",01-04-2024 13:00:00,26.146529,87.454184,PM2.5,41,86,65
India,Bihar,Araria,"Kharahiya Basti, Araria - BSPCB",01-04-2024 13:00:00,26.146529,87.454184,CO,14,42,28
India,Bihar,Araria,"Kharahiya Basti, Araria - BSPCB",01-04-2024 13:00:00,26.146529,87.454184,OZONE,1,14,10
India,Bihar,Arrah,"New DM Office, Arrah - BSPCB",01-04-2024 13:00:00,25.5626095,84.663264,CO,4,18,7
India,Bihar,Bettiah,"Kamalnath Nagar, Bettiah - BSPCB",01-04-2024 13:00:00,26.80365,84.51954,SO2,5,26,16
India,Bihar,Bettiah,"Kamalnath Nagar, Bettiah - BSPCB",01-04-2024 13:00:00,26.80365,84.51954,OZONE,2,15,4
India,Bihar,Bhagalpur,"DM Office_Kachari Chowk, Bhagalpur - BSPCB",01-04-2024 13:00:00,25.251013,86.989001,OZONE,43,53,45
India,Bihar,Bhagalpur,"Mayaganj, Bhagalpur - BSPCB",01-04-2024 13:00:00,25.265194,87.012947,CO,8,9,9
India,Bihar,Bihar Sharif,"D M Colony, Bihar Sharif - BSPCB",01-04-2024 13:00:00,25.204762,85.514960,PM2.5,45,97,77
India,Bihar,Buxar,"Charitra Van, Buxar - BSPCB (Formerly known as Central Jail)",01-04-2024 13:00:00,25.567520,83.966379,PM2.5,30,92,58
India,Bihar,Buxar,"Charitra Van, Buxar - BSPCB (Formerly known as Central Jail)",01-04-2024 13:00:00,25.567520,83.966379,PM10,60,403,126
India,Bihar,Gaya,"Collectorate, Gaya - BSPCB",01-04-2024 13:00:00,24.7955,84.9994,PM2.5,47,85,63
India,Bihar,Gaya,"Kareemganj, Gaya - BSPCB",01-04-2024 13:00:00,24.792403,84.992416,PM2.5,17,75,41
India,Bihar,Gaya,"SFTI Kusdihra, Gaya - BSPCB",01-04-2024 13:00:00,24.762518,84.982348,NO2,NA,NA,NA
India,Bihar,Gaya,"SFTI Kusdihra, Gaya - BSPCB",01-04-2024 13:00:00,24.762518,84.982348,SO2,NA,NA,NA
India,Bihar,Katihar,"Mirchaibari, Katihar - BSPCB",01-04-2024 13:00:00,25.560083,87.553265,PM2.5,25,48,33
India,Bihar,Motihari,"Gandak Colony, Motihari - BSPCB",01-04-2024 13:00:00,26.63086,84.90051,NH3,6,13,9
India,Bihar,Motihari,"Gandak Colony, Motihari - BSPCB",01-04-2024 13:00:00,26.63086,84.90051,OZONE,19,134,43
India,Bihar,Muzaffarpur,"Buddha Colony, Muzaffarpur - BSPCB",01-04-2024 13:00:00,26.11442,85.39813,PM10,122,419,184
India,Bihar,Muzaffarpur,"Buddha Colony, Muzaffarpur - BSPCB",01-04-2024 13:00:00,26.11442,85.39813,SO2,7,16,13
India,Bihar,Muzaffarpur,"Muzaffarpur Collectorate, Muzaffarpur - BSPCB",01-04-2024 13:00:00,26.1209,85.3647,CO,26,104,48
India,Bihar,Patna,"Govt. High School Shikarpur, Patna - BSPCB",01-04-2024 13:00:00,25.592539,85.227158,PM10,138,240,166
India,Bihar,Patna,"Govt. High School Shikarpur, Patna - BSPCB",01-04-2024 13:00:00,25.592539,85.227158,NO2,19,23,21
India,Bihar,Patna,"IGSC Planetarium Complex, Patna - BSPCB",01-04-2024 13:00:00,25.610369,85.132568,SO2,4,5,5
India,Bihar,Patna,"IGSC Planetarium Complex, Patna - BSPCB",01-04-2024 13:00:00,25.610369,85.132568,OZONE,3,18,10
India,Bihar,Patna,"Muradpur, Patna - BSPCB",01-04-2024 13:00:00,25.619651,85.147382,PM2.5,137,327,242
India,Bihar,Patna,"Muradpur, Patna - BSPCB",01-04-2024 13:00:00,25.619651,85.147382,PM10,154,320,219
India,Bihar,Patna,"Muradpur, Patna - BSPCB",01-04-2024 13:00:00,25.619651,85.147382,NH3,2,4,3
India,Bihar,Patna,"Muradpur, Patna - BSPCB",01-04-2024 13:00:00,25.619651,85.147382,SO2,8,13,10
India,Bihar,Purnia,"Mariam Nagar, Purnia - BSPCB",01-04-2024 13:00:00,25.366336,87.117468,NH3,2,2,2
India,Bihar,Purnia,"Mariam Nagar, Purnia - BSPCB",01-04-2024 13:00:00,25.366336,87.117468,CO,13,43,36
India,Bihar,Purnia,"Mariam Nagar, Purnia - BSPCB",01-04-2024 13:00:00,25.366336,87.117468,OZONE,1,45,6
India,Bihar,Rajgir,"Dangi Tola, Rajgir - BSPCB",01-04-2024 13:00:00,25.03280,85.41948,PM2.5,8,55,22
India,Bihar,Rajgir,"Dangi Tola, Rajgir - BSPCB",01-04-2024 13:00:00,25.03280,85.41948,SO2,4,5,4
India,Bihar,Saharsa,"Police Line, Saharsa - BSPCB",01-04-2024 13:00:00,25.892357,86.590325,NO2,6,8,7
India,Bihar,Saharsa,"Police Line, Saharsa - BSPCB",01-04-2024 13:00:00,25.892357,86.590325,CO,20,41,33
India,Bihar,Sasaram,"Dada Peer, Sasaram - BSPCB",01-04-2024 13:00:00,24.952822,84.002396,PM2.5,13,36,24
India,Bihar,Sasaram,"Dada Peer, Sasaram - BSPCB",01-04-2024 13:00:00,24.952822,84.002396,NH3,6,12,9
India,Bihar,Sasaram,"Dada Peer, Sasaram - BSPCB",01-04-2024 13:00:00,24.952822,84.002396,SO2,NA,NA,NA
India,Bihar,Sasaram,"Dada Peer, Sasaram - BSPCB",01-04-2024 13:00:00,24.952822,84.002396,OZONE,36,93,62
India,Chandigarh,Chandigarh,"Sector-25, Chandigarh - CPCC",01-04-2024 13:00:00,30.751462,76.762879,SO2,6,30,11
India,Chandigarh,Chandigarh,"Sector-25, Chandigarh - CPCC",01-04-2024 13:00:00,30.751462,76.762879,CO,14,22,18
India,Chandigarh,Chandigarh,"Sector-25, Chandigarh - CPCC",01-04-2024 13:00:00,30.751462,76.762879,OZONE,1,40,7
India,Chandigarh,Chandigarh,"Sector-53, Chandigarh - CPCC",01-04-2024 13:00:00,30.719859,76.738637,SO2,6,33,15
India,Chhattisgarh,Bhilai,"32Bungalows, Bhilai - CECB",01-04-2024 13:00:00,21.194815,81.314770,PM2.5,30,64,43
India,Chhattisgarh,Bhilai,"32Bungalows, Bhilai - CECB",01-04-2024 13:00:00,21.194815,81.314770,NH3,7,7,7
India,Chhattisgarh,Bhilai,"32Bungalows, Bhilai - CECB",01-04-2024 13:00:00,21.194815,81.314770,SO2,5,8,6
India,Chhattisgarh,Bhilai,"Civic Center, Bhilai - Bhilai Steel Plant",01-04-2024 13:00:00,21.185571,81.343175,NO2,14,17,16
India,Chhattisgarh,Bhilai,"Hathkhoj, Bhilai - CECB",01-04-2024 13:00:00,21.224231,81.408350,NO2,16,36,25
India,Chhattisgarh,Bhilai,"Hathkhoj, Bhilai - CECB",01-04-2024 13:00:00,21.224231,81.408350,SO2,10,23,13
India,Chhattisgarh,Chhal,"Nawapara SECL Colony, Chhal - CECB",01-04-2024 13:00:00,22.118125,83.140608,CO,30,30,30
India,Chhattisgarh,Korba,"Rampur, Korba - CECB",01-04-2024 13:00:00,22.368195,82.746431,SO2,6,92,14
India,Chhattisgarh,Korba,"Urja Nagar, Korba - CECB",01-04-2024 13:00:00,22.348441,82.549611,PM10,NA,NA,NA
India,Chhattisgarh,Raipur,"AIIMS, Raipur - CECB",01-04-2024 13:00:00,21.258815,81.578979,PM10,33,61,40
India,Chhattisgarh,Raipur,"AIIMS, Raipur - CECB",01-04-2024 13:00:00,21.258815,81.578979,NH3,6,6,6
India,Chhattisgarh,Raipur,"Bhatagaon New ISBT, Raipur - CECB",01-04-2024 13:00:00,21.219665,81.630094,NO2,35,68,52
India,Chhattisgarh,Raipur,"Krishak Nagar, Raipur - CECB",01-04-2024 13:00:00,21.237755,81.705301,PM2.5,NA,NA,NA
India,Chhattisgarh,Raipur,"Krishak Nagar, Raipur - CECB",01-04-2024 13:00:00,21.237755,81.705301,PM10,23,61,38
India,Chhattisgarh,Raipur,"Krishak Nagar, Raipur - CECB",01-04-2024 13:00:00,21.237755,81.705301,NO2,21,30,27
India,Chhattisgarh,Raipur,"Krishak Nagar, Raipur - CECB",01-04-2024 13:00:00,21.237755,81.705301,NH3,1,1,1
India,Chhattisgarh,Raipur,"Krishak Nagar, Raipur - CECB",01-04-2024 13:00:00,21.237755,81.705301,CO,26,35,33
India,Chhattisgarh,Raipur,"Siltara Phase-II, Raipur - CECB",01-04-2024 13:00:00,21.371751,81.664929,NH3,3,3,3
India,Delhi,Delhi,"Alipur, Delhi - DPCC",01-04-2024 13:00:00,28.815329,77.153010,CO,28,51,42
India,Delhi,Delhi,"Ashok Vihar, Delhi - DPCC",01-04-2024 13:00:00,28.695381,77.181665,PM2.5,42,264,90
India,Delhi,Delhi,"Ashok Vihar, Delhi - DPCC",01-04-2024 13:00:00,28.695381,77.181665,NH3,5,8,6
India,Delhi,Delhi,"Ashok Vihar, Delhi - DPCC",01-04-2024 13:00:00,28.695381,77.181665,OZONE,2,9,3
India,Delhi,Delhi,"Aya Nagar, Delhi - IMD",01-04-2024 13:00:00,28.4706914,77.1099364,PM2.5,25,171,88
India,Delhi,Delhi,"Aya Nagar, Delhi - IMD",01-04-2024 13:00:00,28.4706914,77.1099364,CO,30,61,54
India,Delhi,Delhi,"Bawana, Delhi - DPCC",01-04-2024 13:00:00,28.776200,77.051074,PM2.5,49,340,147
India,Delhi,Delhi,"Bawana, Delhi - DPCC",01-04-2024 13:00:00,28.776200,77.051074,PM10,74,222,156
India,Delhi,Delhi,"Burari Crossing, Delhi - IMD",01-04-2024 13:00:00,28.7256504,77.2011573,PM10,84,145,117
India,Delhi,Delhi,"CRRI Mathura Road, Delhi - IMD",01-04-2024 13:00:00,28.5512005,77.2735737,PM10,51,122,76
India,Delhi,Delhi,"Chandni Chowk, Delhi - IITM",01-04-2024 13:00:00,28.656756,77.227234,NO2,6,264,51
India,Delhi,Delhi,"Chandni Chowk, Delhi - IITM",01-04-2024 13:00:00,28.656756,77.227234,CO,44,50,48
India,Delhi,Delhi,"DTU, Delhi - CPCB",01-04-2024 13:00:00,28.7500499,77.1112615,PM2.5,55,163,96
India,Delhi,Delhi,"Dr. Karni Singh Shooting Range, Delhi - DPCC",01-04-2024 13:00:00,28.498571,77.264840,NH3,7,9,8
India,Delhi,Delhi,"Dwarka-Sector 8, Delhi - DPCC ",01-04-2024 13:00:00,28.5710274,77.0719006,NH3,5,9,7
India,Delhi,Delhi,"IGI Airport (T3), Delhi - IMD",01-04-2024 13:00:00,28.5627763,77.1180053,CO,8,26,19
India,Delhi,Delhi,"IHBAS, Dilshad Garden, Delhi - CPCB",01-04-2024 13:00:00,28.6811736,77.3025234,NO2,26,64,40
India,Delhi,Delhi,"Jahangirpuri, Delhi - DPCC",01-04-2024 13:00:00,28.732820,77.170633,CO,39,86,56
India,Delhi,Delhi,"Jawaharlal Nehru Stadium, Delhi - DPCC",01-04-2024 13:00:00,28.580280,77.233829,PM2.5,18,237,69
India,Delhi,Delhi,"Jawaharlal Nehru Stadium, Delhi - DPCC",01-04-2024 13:00:00,28.580280,77.233829,NO2,23,62,40
India,Delhi,Delhi,"Lodhi Road, Delhi - IITM",01-04-2024 13:00:00,28.588333,77.221667,PM10,57,500,196
India,Delhi,Delhi,"Lodhi Road, Delhi - IMD",01-04-2024 13:00:00,28.5918245,77.2273074,PM10,54,130,94
India,Delhi,Delhi,"Major Dhyan Chand National Stadium, Delhi - DPCC",01-04-2024 13:00:00,28.611281,77.237738,NO2,19,58,36
India,Delhi,Delhi,"Major Dhyan Chand National Stadium, Delhi - DPCC",01-04-2024 13:00:00,28.611281,77.237738,NH3,8,11,9
India,Delhi,Delhi,"Major Dhyan Chand National Stadium, Delhi - DPCC",01-04-2024 13:00:00,28.611281,77.237738,OZONE,1,117,32
India,Delhi,Delhi,"Mundka, Delhi - DPCC",01-04-2024 13:00:00,28.684678,77.076574,PM2.5,33,378,138
India,Delhi,Delhi,"Mundka, Delhi - DPCC",01-04-2024 13:00:00,28.684678,77.076574,CO,30,76,51
India,Delhi,Delhi,"Najafgarh, Delhi - DPCC",01-04-2024 13:00:00,28.570173,76.933762,NO2,8,34,19
India,Delhi,Delhi,"Najafgarh, Delhi - DPCC",01-04-2024 13:00:00,28.570173,76.933762,CO,26,66,53
India,Delhi,Delhi,"Okhla Phase-2, Delhi - DPCC",01-04-2024 13:00:00,28.530785,77.271255,PM2.5,29,181,66
India,Delhi,Delhi,"Okhla Phase-2, Delhi - DPCC",01-04-2024 13:00:00,28.530785,77.271255,NO2,44,78,59
India,Delhi,Delhi,"Okhla Phase-2, Delhi - DPCC",01-04-2024 13:00:00,28.530785,77.271255,NH3,10,23,13
India,Delhi,Delhi,"Patparganj, Delhi - DPCC",01-04-2024 13:00:00,28.623763,77.287209,SO2,17,20,19
India,Delhi,Delhi,"Patparganj, Delhi - DPCC",01-04-2024 13:00:00,28.623763,77.287209,OZONE,7,79,20
India,Delhi,Delhi,"Punjabi Bagh, Delhi - DPCC",01-04-2024 13:00:00,28.674045,77.131023,OZONE,1,46,12
India,Delhi,Delhi,"Pusa, Delhi - DPCC",01-04-2024 13:00:00,28.639652,77.146275,OZONE,12,55,22
India,Delhi,Delhi,"Pusa, Delhi - IMD",01-04-2024 13:00:00,28.636110,77.173332,PM2.5,32,264,120
India,Delhi,Delhi,"R K Puram, Delhi - DPCC",01-04-2024 13:00:00,28.563262,77.186937,NO2,31,99,66
India,Delhi,Delhi,"Rohini, Delhi - DPCC",01-04-2024 13:00:00,28.732528,77.119920,PM10,64,152,110
India,Delhi,Delhi,"Rohini, Delhi - DPCC",01-04-2024 13:00:00,28.732528,77.119920,NO2,11,30,19
India,Delhi,Delhi,"Shadipur, Delhi - CPCB",01-04-2024 13:00:00,28.6514781,77.1473105,NH3,5,9,7
India,Delhi,Delhi,"Sirifort, Delhi - CPCB",01-04-2024 13:00:00,28.5504249,77.2159377,SO2,16,25,23
India,Delhi,Delhi,"Sirifort, Delhi - CPCB",01-04-2024 13:00:00,28.5504249,77.2159377,CO,5,26,16
India,Delhi,Delhi,"Sonia Vihar, Delhi - DPCC",01-04-2024 13:00:00,28.710508,77.249485,NO2,15,42,26
India,Delhi,Delhi,"Sri Aurobindo Marg, Delhi - DPCC",01-04-2024 13:00:00,28.531346,77.190156,PM10,81,166,116
India,Delhi,Delhi,"Sri Aurobindo Marg, Delhi - DPCC",01-04-2024 13:00:00,28.531346,77.190156,SO2,8,26,17
India,Delhi,Delhi,"Sri Aurobindo Marg, Delhi - DPCC",01-04-2024 13:00:00,28.531346,77.190156,OZONE,8,14,10
India,Delhi,Delhi,"Vivek Vihar, Delhi - DPCC",01-04-2024 13:00:00,28.672342,77.315260,SO2,31,59,40
India,Delhi,Delhi,"Wazirpur, Delhi - DPCC",01-04-2024 13:00:00,28.699793,77.165453,NO2,38,90,61
India,Gujarat,Ahmedabad,"Chandkheda, Ahmedabad - IITM",01-04-2024 13:00:00,23.107969,72.574648,SO2,6,10,7
India,Gujarat,Ahmedabad,"Gyaspur, Ahmedabad - IITM",01-04-2024 13:00:00,22.977134,72.553024,PM2.5,95,426,250
India,Gujarat,Ahmedabad,"Raikhad, Ahmedabad - IITM",01-04-2024 13:00:00,23.020509,72.579261,OZONE,7,40,20
India,Gujarat,Ahmedabad,"Rakhial, Ahmedabad - IITM",01-04-2024 13:00:00,23.016834,72.625775,PM2.5,51,182,114
India,Gujarat,Ahmedabad,"Rakhial, Ahmedabad - IITM",01-04-2024 13:00:00,23.016834,72.625775,NO2,15,63,33
India,Gujarat,Ahmedabad,"Rakhial, Ahmedabad - IITM",01-04-2024 13:00:00,23.016834,72.625775,SO2,3,23,7
India,Gujarat,Ahmedabad,"Sardar Vallabhbhai Patel Stadium, Ahmedabad - IITM",01-04-2024 13:00:00,23.043070,72.562968,PM2.5,63,241,131
India,Gujarat,Ahmedabad,"Sardar Vallabhbhai Patel Stadium, Ahmedabad - IITM",01-04-2024 13:00:00,23.043070,72.562968,CO,36,92,44
India,Gujarat,Ankleshwar,"GIDC, Ankleshwar - GPCB",01-04-2024 13:00:00,21.613267,73.010555,NO2,35,35,35
India,Gujarat,Ankleshwar,"GIDC, Ankleshwar - GPCB",01-04-2024 13:00:00,21.613267,73.010555,SO2,1,56,25
India,Gujarat,Gandhinagar,"Sector-10, Gandhinagar - GPCB",01-04-2024 13:00:00,23.221714,72.654328,PM2.5,29,71,52
India,Gujarat,Surat,"Science Center, Surat - SMC",01-04-2024 13:00:00,21.170046,72.795405,PM2.5,8,53,24
India,Gujarat,Vapi,"Phase-1 GIDC, Vapi - GPCB",01-04-2024 13:00:00,20.362421,72.918013,OZONE,1,2,1
India,Gujarat,Vatva,"Phase-4 GIDC, Vatva - GPCB",01-04-2024 13:00:00,22.969611,72.643500,PM2.5,40,356,145
India,Haryana,Ambala,"Patti Mehar, Ambala - HSPCB",01-04-2024 13:00:00,30.379589,76.778328,NO2,7,21,14
India,Haryana,Bahadurgarh,"Arya Nagar, Bahadurgarh - HSPCB",01-04-2024 13:00:00,28.6701,76.9254,NO2,33,40,36
India,Haryana,Ballabgarh,"Nathu Colony, Ballabgarh - HSPCB",01-04-2024 13:00:00,28.3419248,77.319699,PM10,119,262,154
India,Haryana,Ballabgarh,"Nathu Colony, Ballabgarh - HSPCB",01-04-2024 13:00:00,28.3419248,77.319699,OZONE,11,31,21
India,Haryana,Bhiwani,"H.B. Colony, Bhiwani - HSPCB",01-04-2024 13:00:00,28.806223,76.141105,NH3,6,6,6
India,Haryana,Charkhi Dadri,"Mini Secretariat, Charkhi Dadri - HSPCB",01-04-2024 13:00:00,28.593883,76.270653,NH3,6,8,7
India,Haryana,Charkhi Dadri,"Mini Secretariat, Charkhi Dadri - HSPCB",01-04-2024 13:00:00,28.593883,76.270653,CO,16,42,27
India,Haryana,Faridabad,"Sector 11, Faridabad - HSPCB",01-04-2024 13:00:00,28.376058,77.315741,CO,32,36,36
India,Haryana,Faridabad,"Sector 30, Faridabad - HSPCB",01-04-2024 13:00:00,28.4417,77.3217,NH3,NA,NA,NA
India,Haryana,Fatehabad,"Huda Sector, Fatehabad - HSPCB",01-04-2024 13:00:00,29.503664,75.467934,SO2,10,11,11
India,Haryana,Fatehabad,"Huda Sector, Fatehabad - HSPCB",01-04-2024 13:00:00,29.503664,75.467934,OZONE,84,108,97
India,Haryana,Gurugram,"Vikas Sadan, Gurugram - HSPCB",01-04-2024 13:00:00,28.4501238,77.0263051,PM2.5,51,245,102
India,Haryana,Hisar,"Urban Estate-II, Hisar - HSPCB",01-04-2024 13:00:00,29.140560,75.744941,CO,40,55,46
India,Haryana,Hisar,"Urban Estate-II, Hisar - HSPCB",01-04-2024 13:00:00,29.140560,75.744941,OZONE,34,102,53
India,Haryana,Jind,"Police Lines, Jind - HSPCB",01-04-2024 13:00:00,29.307814,76.337619,CO,5,72,19
India,Haryana,Kaithal,"Rishi Nagar, Kaithal - HSPCB",01-04-2024 13:00:00,29.8006,76.4155,NO2,24,26,25
India,Haryana,Kurukshetra,"Sector-7, Kurukshetra - HSPCB",01-04-2024 13:00:00,29.966942,76.875879,PM10,43,78,59
India,Haryana,Kurukshetra,"Sector-7, Kurukshetra - HSPCB",01-04-2024 13:00:00,29.966942,76.875879,NO2,10,10,10
India,Haryana,Mandikhera,"General Hospital, Mandikhera - HSPCB",01-04-2024 13:00:00,27.9002,76.9938,NH3,16,19,18
India,Haryana,Manesar,"Sector-2 IMT, Manesar - HSPCB",01-04-2024 13:00:00,28.360699,76.936090,PM2.5,29,77,44
India,Haryana,Manesar,"Sector-2 IMT, Manesar - HSPCB",01-04-2024 13:00:00,28.360699,76.936090,SO2,3,22,11
India,Haryana,Manesar,"Sector-2 IMT, Manesar - HSPCB",01-04-2024 13:00:00,28.360699,76.936090,OZONE,4,42,16
India,Haryana,Narnaul,"Shastri Nagar, Narnaul - HSPCB",01-04-2024 13:00:00,28.060249,76.113115,PM10,33,69,47
India,Haryana,Palwal,"Shyam Nagar, Palwal - HSPCB",01-04-2024 13:00:00,28.1485564,77.3320667,SO2,8,26,15
India,Haryana,Panchkula,"Sector-6, Panchkula - HSPCB ",01-04-2024 13:00:00,30.7057778,76.8531805555555,NO2,28,30,29
India,Haryana,Panipat,"Sector-18, Panipat - HSPCB",01-04-2024 13:00:00,29.497973,76.993331,NH3,2,3,3
India,Haryana,Sirsa,"F-Block, Sirsa - HSPCB",01-04-2024 13:00:00,29.536400,75.015800,NH3,12,13,13
India,Haryana,Sonipat,"Murthal, Sonipat - HSPCB",01-04-2024 13:00:00,29.027200,77.062100,NH3,7,10,9
India,Haryana,Sonipat,"Murthal, Sonipat - HSPCB",01-04-2024 13:00:00,29.027200,77.062100,OZONE,16,36,24
India,Haryana,Yamuna Nagar,"Gobind Pura, Yamuna Nagar - HSPCB",01-04-2024 13:00:00,30.1480566,77.2893471,PM10,50,94,68
India,Himachal Pradesh,Baddi,"HIMUDA Complex Phase-1, Baddi - HPPCB",01-04-2024 13:00:00,30.943887,76.801991,PM2.5,20,229,68
India,Himachal Pradesh,Baddi,"HIMUDA Complex Phase-1, Baddi - HPPCB",01-04-2024 13:00:00,30.943887,76.801991,SO2,9,109,31
India,Jharkhand,Dhanbad,"Kalakusuma, Dhanbad - DMC",01-04-2024 13:00:00,23.811548,86.481238,NO2,NA,NA,NA
India,Jharkhand,Dhanbad,"Kalakusuma, Dhanbad - DMC",01-04-2024 13:00:00,23.811548,86.481238,OZONE,22,27,25
India,Jharkhand,Pathardih,"Mohalbani Ghat, Pathardih - DMC",01-04-2024 13:00:00,23.669880,86.411725,OZONE,9,17,13
India,Karnataka,Bagalkot,"Vidayagiri, Bagalkot - KSPCB",01-04-2024 13:00:00,16.172806,75.659694,PM10,49,50,50
India,Karnataka,Bagalkot,"Vidayagiri, Bagalkot - KSPCB",01-04-2024 13:00:00,16.172806,75.659694,NH3,1,2,1
India,Karnataka,Bagalkot,"Vidayagiri, Bagalkot - KSPCB",01-04-2024 13:00:00,16.172806,75.659694,CO,25,51,36
India,Karnataka,Bengaluru,"Hombegowda Nagar, Bengaluru - KSPCB",01-04-2024 13:00:00,12.938539,77.590100,NO2,10,35,21
India,Karnataka,Bengaluru,"Hombegowda Nagar, Bengaluru - KSPCB",01-04-2024 13:00:00,12.938539,77.590100,OZONE,4,5,4
India,Karnataka,Bengaluru,"Jayanagar 5th Block, Bengaluru - KSPCB",01-04-2024 13:00:00,12.920984,77.584908,PM10,47,123,82
India,Karnataka,Bengaluru,"Kasturi Nagar, Bengaluru - KSPCB",01-04-2024 13:00:00,13.003872,77.664217,PM10,96,209,124
India,Karnataka,Bengaluru,"Kasturi Nagar, Bengaluru - KSPCB",01-04-2024 13:00:00,13.003872,77.664217,SO2,10,10,10
India,Karnataka,Bengaluru,"RVCE-Mailasandra, Bengaluru - KSPCB",01-04-2024 13:00:00,12.921418,77.502466,SO2,8,15,11
India,Karnataka,Bengaluru,"RVCE-Mailasandra, Bengaluru - KSPCB",01-04-2024 13:00:00,12.921418,77.502466,OZONE,10,10,10
India,Karnataka,Bengaluru,"Sanegurava Halli, Bengaluru - KSPCB",01-04-2024 13:00:00,12.990328,77.5431385,CO,3,130,12
India,Karnataka,Bengaluru,"Shivapura_Peenya, Bengaluru - KSPCB",01-04-2024 13:00:00,13.0246342,77.5080115,NH3,4,4,4
India,Karnataka,Bengaluru,"Shivapura_Peenya, Bengaluru - KSPCB",01-04-2024 13:00:00,13.0246342,77.5080115,CO,22,56,35
India,Karnataka,Bengaluru,"Silk Board, Bengaluru - KSPCB",01-04-2024 13:00:00,12.917348,77.622813,NH3,NA,NA,NA
India,Karnataka,Bidar,"Naubad, Bidar - KSPCB",01-04-2024 13:00:00,17.930306,77.482194,NO2,NA,NA,NA
India,Karnataka,Chamarajanagar,"Urban, Chamarajanagar - KSPCB",01-04-2024 13:00:00,11.55358,76.55521,PM10,35,62,50
India,Karnataka,Gadag,"Panchal Nagar, Gadag - KSPCB",01-04-2024 13:00:00,15.411456,75.638133,PM2.5,19,58,42
India,Karnataka,Gadag,"Panchal Nagar, Gadag - KSPCB",01-04-2024 13:00:00,15.411456,75.638133,PM10,35,57,48
India,Karnataka,Gadag,"Panchal Nagar, Gadag - KSPCB",01-04-2024 13:00:00,15.411456,75.638133,CO,38,50,42
India,Karnataka,Haveri,"Ashwini Nagar, Haveri - KSPCB",01-04-2024 13:00:00,14.791800,75.389600,PM2.5,42,69,56
India,Karnataka,Hubballi,"Deshpande Nagar, Hubballi - KSPCB",01-04-2024 13:00:00,15.351773,75.140726,CO,14,14,14
India,Karnataka,Hubballi,"Lingaraj Nagar, Hubballi - KSPCB",01-04-2024 13:00:00,15.3714823,75.1160168,NO2,16,16,16
India,Karnataka,Hubballi,"Lingaraj Nagar, Hubballi - KSPCB",01-04-2024 13:00:00,15.3714823,75.1160168,NH3,2,2,2
India,Karnataka,Kalaburagi,"Mahatma Basaveswar Colony, Kalaburgi - KSPCB",01-04-2024 13:00:00,17.336318,76.847397,NO2,11,21,16
India,Karnataka,Kalaburagi,"Mahatma Basaveswar Colony, Kalaburgi - KSPCB",01-04-2024 13:00:00,17.336318,76.847397,NH3,2,4,4
India,Karnataka,Karwar,"KHB Colony, Karwar - KSPCB",01-04-2024 13:00:00,14.816666,74.141003,CO,7,8,8
India,Karnataka,Ramanagara,"Vijay Nagar, Ramanagara - KSPCB",01-04-2024 13:00:00,12.733409,77.298051,SO2,15,31,21
India,Karnataka,Ramanagara,"Vijay Nagar, Ramanagara - KSPCB",01-04-2024 13:00:00,12.733409,77.298051,OZONE,27,30,29
India,Karnataka,Tumakuru,"Thimmalapura, Tumakuru - KSPCB",01-04-2024 13:00:00,13.377516,77.099072,PM10,NA,NA,NA
India,Karnataka,Udupi,"Brahmagiri, Udupi - KSPCB",01-04-2024 13:00:00,13.34194444,74.74694444,NO2,NA,NA,NA
India,Karnataka,Udupi,"Brahmagiri, Udupi - KSPCB",01-04-2024 13:00:00,13.34194444,74.74694444,OZONE,23,23,23
India,Kerala,Eloor,"Udyogamandal, Eloor - Kerala PCB",01-04-2024 13:00:00,10.073232,76.302765,PM10,31,39,35
India,Kerala,Eloor,"Udyogamandal, Eloor - Kerala PCB",01-04-2024 13:00:00,10.073232,76.302765,SO2,1,4,2
India,Kerala,Eloor,"Udyogamandal, Eloor - Kerala PCB",01-04-2024 13:00:00,10.073232,76.302765,OZONE,10,14,12
India,Kerala,Kannur,"Thavakkara, Kannur - Kerala PCB",01-04-2024 13:00:00,11.875000,75.373200,PM10,59,73,68
India,Kerala,Kannur,"Thavakkara, Kannur - Kerala PCB",01-04-2024 13:00:00,11.875000,75.373200,NO2,6,7,6
India,Kerala,Kollam,"Polayathode, Kollam - Kerala PCB",01-04-2024 13:00:00,8.8787,76.6073,NO2,8,9,8
India,Madhya Pradesh,Bhopal,"Idgah Hills, Bhopal - MPPCB",01-04-2024 13:00:00,23.264759,77.381568,NH3,4,5,5
India,Madhya Pradesh,Bhopal,"Paryavaran Parisar, Bhopal - MPPCB",01-04-2024 13:00:00,23.210494,77.425409,NO2,13,29,17
India,Madhya Pradesh,Bhopal,"Paryavaran Parisar, Bhopal - MPPCB",01-04-2024 13:00:00,23.210494,77.425409,NH3,8,10,9
India,Madhya Pradesh,Bhopal,"Paryavaran Parisar, Bhopal - MPPCB",01-04-2024 13:00:00,23.210494,77.425409,OZONE,35,80,55
India,Madhya Pradesh,Dewas,"Bhopal Chauraha, Dewas - MPPCB",01-04-2024 13:00:00,22.9682591,76.064118,PM2.5,39,352,156
India,Madhya Pradesh,Dewas,"Bhopal Chauraha, Dewas - MPPCB",01-04-2024 13:00:00,22.9682591,76.064118,OZONE,24,79,39
India,Madhya Pradesh,Gwalior,"City Center, Gwalior - MPPCB",01-04-2024 13:00:00,26.203442,78.193251,NO2,7,40,18
India,Madhya Pradesh,Gwalior,"City Center, Gwalior - MPPCB",01-04-2024 13:00:00,26.203442,78.193251,OZONE,14,55,37
India,Madhya Pradesh,Gwalior,"Maharaj Bada, Gwalior - MPPCB",01-04-2024 13:00:00,26.200388,78.147714,NH3,2,10,4
India,Madhya Pradesh,Gwalior,"Maharaj Bada, Gwalior - MPPCB",01-04-2024 13:00:00,26.200388,78.147714,CO,30,95,41
India,Madhya Pradesh,Indore,"Chhoti Gwaltoli, Indore - MPPCB",01-04-2024 13:00:00,22.4310,75.5213,PM2.5,52,318,110
India,Madhya Pradesh,Indore,"Chhoti Gwaltoli, Indore - MPPCB",01-04-2024 13:00:00,22.4310,75.5213,SO2,10,43,20
India,Madhya Pradesh,Indore,"Chhoti Gwaltoli, Indore - MPPCB",01-04-2024 13:00:00,22.4310,75.5213,CO,42,93,58
India,Madhya Pradesh,Indore,"Chhoti Gwaltoli, Indore - MPPCB",01-04-2024 13:00:00,22.4310,75.5213,OZONE,20,97,52
India,Madhya Pradesh,Indore,"Maguda Nagar, Indore - IMC",01-04-2024 13:00:00,22.7524,75.8872,PM10,36,107,60
India,Madhya Pradesh,Indore,"Maguda Nagar, Indore - IMC",01-04-2024 13:00:00,22.7524,75.8872,NO2,4,5,4
India,Madhya Pradesh,Indore,"Maguda Nagar, Indore - IMC",01-04-2024 13:00:00,22.7524,75.8872,SO2,1,12,8
India,Madhya Pradesh,Indore,"Maguda Nagar, Indore - IMC",01-04-2024 13:00:00,22.7524,75.8872,OZONE,34,52,39
India,Madhya Pradesh,Indore,"Regional Park, Indore - IMC",01-04-2024 13:00:00,22.6780,75.8559,SO2,39,46,42
India,Madhya Pradesh,Indore,"Regional Park, Indore - IMC",01-04-2024 13:00:00,22.6780,75.8559,OZONE,11,30,16
India,Madhya Pradesh,Indore,"Residency Area, Indore - IMC",01-04-2024 13:00:00,22.7084,75.8815,PM2.5,38,145,67
India,Madhya Pradesh,Indore,"Residency Area, Indore - IMC",01-04-2024 13:00:00,22.7084,75.8815,CO,14,18,14
India,Madhya Pradesh,Jabalpur,"Gupteshwar, Jabalpur - JMC",01-04-2024 13:00:00,23.142888,79.916147,NH3,2,4,3
India,Madhya Pradesh,Jabalpur,"Gupteshwar, Jabalpur - JMC",01-04-2024 13:00:00,23.142888,79.916147,SO2,5,27,11
India,Madhya Pradesh,Jabalpur,"Gupteshwar, Jabalpur - JMC",01-04-2024 13:00:00,23.142888,79.916147,CO,8,74,34
India,Madhya Pradesh,Jabalpur,"Gupteshwar, Jabalpur - JMC",01-04-2024 13:00:00,23.142888,79.916147,OZONE,10,83,41
India,Madhya Pradesh,Jabalpur,"Marhatal, Jabalpur - MPPCB",01-04-2024 13:00:00,23.168606,79.932247,PM2.5,37,303,127
India,Madhya Pradesh,Jabalpur,"Suhagi, Jabalpur - JMC",01-04-2024 13:00:00,23.218135,79.957770,NH3,3,4,4
India,Madhya Pradesh,Katni,"Gole Bazar, Katni - MPPCB",01-04-2024 13:00:00,23.50016,80.23284,NH3,1,6,3
India,Madhya Pradesh,Mandideep,"Sector-D Industrial Area, Mandideep - MPPCB",01-04-2024 13:00:00,23.108440,77.511428,NO2,NA,NA,NA
India,Madhya Pradesh,Pithampur,"Sector-2 Industrial Area, Pithampur - MPPCB",01-04-2024 13:00:00,22.624758,75.675238,NO2,5,20,9
India,Madhya Pradesh,Pithampur,"Sector-2 Industrial Area, Pithampur - MPPCB",01-04-2024 13:00:00,22.624758,75.675238,NH3,2,3,3
India,Madhya Pradesh,Pithampur,"Sector-2 Industrial Area, Pithampur - MPPCB",01-04-2024 13:00:00,22.624758,75.675238,CO,52,80,54
India,Madhya Pradesh,Ratlam,"Shasthri Nagar, Ratlam - IPCA Lab",01-04-2024 13:00:00,23.331731,75.045981,NO2,12,27,18
India,Madhya Pradesh,Ratlam,"Shasthri Nagar, Ratlam - IPCA Lab",01-04-2024 13:00:00,23.331731,75.045981,SO2,41,51,45
India,Madhya Pradesh,Sagar,"Civil Lines, Sagar - MPPCB",01-04-2024 13:00:00,23.838586,78.759431,PM2.5,28,314,67
India,Madhya Pradesh,Sagar,"Deen Dayal Nagar, Sagar - MPPCB",01-04-2024 13:00:00,23.8640158,78.80289321,CO,52,74,58
India,Madhya Pradesh,Satna,"Bandhavgar Colony, Satna - Birla Cement",01-04-2024 13:00:00,24.58434363,80.8549414,NO2,25,77,41
India,Madhya Pradesh,Satna,"Bandhavgar Colony, Satna - Birla Cement",01-04-2024 13:00:00,24.58434363,80.8549414,OZONE,57,83,66
India,Madhya Pradesh,Singrauli,"Suryakiran Bhawan NCL, Singrauli - MPPCB",01-04-2024 13:00:00,24.108970,82.645580,SO2,31,85,41
India,Madhya Pradesh,Singrauli,"Suryakiran Bhawan NCL, Singrauli - MPPCB",01-04-2024 13:00:00,24.108970,82.645580,OZONE,9,79,36
India,Madhya Pradesh,Ujjain,"Mahakaleshwar Temple, Ujjain - MPPCB",01-04-2024 13:00:00,23.182719 ,75.768218 ,CO,35,57,46
India,Maharashtra,Ahmednagar,"Tarakpur, Ahmednagar - MPCB",01-04-2024 13:00:00,19.10122,74.73339,PM10,30,112,66
India,Maharashtra,Ahmednagar,"Tarakpur, Ahmednagar - MPCB",01-04-2024 13:00:00,19.10122,74.73339,SO2,9,19,14
India,Maharashtra,Amravati,"Shivneri Colony, Amravati - MPCB",01-04-2024 13:00:00,20.9402359,77.7895248,NH3,1,4,2
India,Maharashtra,Aurangabad,"MIDC Chilkalthana, Aurangabad - MPCB",01-04-2024 13:00:00,19.875620,75.387310,SO2,NA,NA,NA
India,Maharashtra,Aurangabad,"Rachnakar Colony, Aurangabad - MPCB",01-04-2024 13:00:00,19.863756,75.321188,PM2.5,28,99,43
India,Maharashtra,Badlapur,"Katrap, Badlapur - MPCB",01-04-2024 13:00:00,19.16485,73.23409,CO,34,49,39
India,Maharashtra,Belapur,"CBD Belapur, Belapur - MPCB",01-04-2024 13:00:00,19.0243902,73.0406721,NO2,13,35,24
India,Maharashtra,Belapur,"CBD Belapur, Belapur - MPCB",01-04-2024 13:00:00,19.0243902,73.0406721,OZONE,10,217,42
India,Maharashtra,Chandrapur,"MIDC Khutala, Chandrapur - MPCB",01-04-2024 13:00:00,19.9775302,79.2337086,PM10,60,95,76
India,Maharashtra,Chandrapur,"MIDC Khutala, Chandrapur - MPCB",01-04-2024 13:00:00,19.9775302,79.2337086,CO,14,72,46
India,Maharashtra,Dhule,"Deopur, Dhule - MPCB",01-04-2024 13:00:00,20.918946,74.776388,NO2,NA,NA,NA
India,Maharashtra,Dhule,"Deopur, Dhule - MPCB",01-04-2024 13:00:00,20.918946,74.776388,OZONE,NA,NA,NA
India,Maharashtra,Jalgaon,"Prabhat Colony, Jalgaon - MPCB",01-04-2024 13:00:00,21.001264,75.565602,NO2,12,40,25
India,Maharashtra,Jalna,"Old MIDC, Jalna - MPCB",01-04-2024 13:00:00,19.854616,75.905894,PM2.5,34,96,61
India,Maharashtra,Kalyan,"Khadakpada, Kalyan - MPCB",01-04-2024 13:00:00,19.25292,73.142019,NH3,1,2,1
India,Maharashtra,Kalyan,"Khadakpada, Kalyan - MPCB",01-04-2024 13:00:00,19.25292,73.142019,OZONE,7,22,12
India,Maharashtra,Kolhapur,"Shivaji University, Kolhapur - MPCB",01-04-2024 13:00:00,16.6870449,74.2505872,PM2.5,93,251,188
India,Maharashtra,Kolhapur,"Shivaji University, Kolhapur - MPCB",01-04-2024 13:00:00,16.6870449,74.2505872,OZONE,1,74,16
India,Maharashtra,Mahad,"Kamble Tarf Birwadi, Mahad - MPCB",01-04-2024 13:00:00,18.1023399,73.4783687,PM10,87,140,107
India,Maharashtra,Mira-Bhayandar,"Bhayandar West, Mira-Bhayandar - MPCB",01-04-2024 13:00:00,19.296481,72.840923,PM2.5,51,78,64
India,Maharashtra,Mira-Bhayandar,"Bhayandar West, Mira-Bhayandar - MPCB",01-04-2024 13:00:00,19.296481,72.840923,PM10,65,229,127
India,Maharashtra,Mumbai,"Byculla, Mumbai - BMC",01-04-2024 13:00:00,18.9767,72.8380,PM2.5,23,37,28
India,Maharashtra,Mumbai,"Chembur, Mumbai - MPCB",01-04-2024 13:00:00,19.0364585,72.8954371,PM10,NA,NA,NA
India,Maharashtra,Mumbai,"Chembur, Mumbai - MPCB",01-04-2024 13:00:00,19.0364585,72.8954371,OZONE,NA,NA,NA
India,Maharashtra,Mumbai,"Ghatkopar, Mumbai - BMC",01-04-2024 13:00:00,19.083694,72.920967,PM10,51,93,79
India,Maharashtra,Mumbai,"Ghatkopar, Mumbai - BMC",01-04-2024 13:00:00,19.083694,72.920967,NO2,4,42,21
India,Maharashtra,Mumbai,"Ghatkopar, Mumbai - BMC",01-04-2024 13:00:00,19.083694,72.920967,CO,1,26,3
India,Maharashtra,Mumbai,"Kandivali East, Mumbai - MPCB",01-04-2024 13:00:00,19.205800,72.868200,PM10,98,350,156
India,Maharashtra,Mumbai,"Kandivali East, Mumbai - MPCB",01-04-2024 13:00:00,19.205800,72.868200,NH3,5,18,8
India,Maharashtra,Mumbai,"Kandivali East, Mumbai - MPCB",01-04-2024 13:00:00,19.205800,72.868200,CO,33,59,42
India,Maharashtra,Mumbai,"Kandivali East, Mumbai - MPCB",01-04-2024 13:00:00,19.205800,72.868200,OZONE,29,31,31
India,Maharashtra,Mumbai,"Kandivali West, Mumbai - BMC",01-04-2024 13:00:00,19.215859,72.831718,PM10,23,62,46
India,Maharashtra,Mumbai,"Kandivali West, Mumbai - BMC",01-04-2024 13:00:00,19.215859,72.831718,CO,8,27,12
India,Maharashtra,Mumbai,"Kherwadi_Bandra East, Mumbai - MPCB",01-04-2024 13:00:00,19.0632143,72.8456324,OZONE,6,189,42
India,Maharashtra,Mumbai,"Khindipada-Bhandup West, Mumbai - IITM",01-04-2024 13:00:00,19.1653323,72.922099,PM2.5,NA,NA,NA
India,Maharashtra,Mumbai,"Khindipada-Bhandup West, Mumbai - IITM",01-04-2024 13:00:00,19.1653323,72.922099,CO,10,44,33
India,Maharashtra,Mumbai,"Kurla, Mumbai - MPCB",01-04-2024 13:00:00,19.0863,72.8888,PM10,NA,NA,NA
India,Maharashtra,Mumbai,"Kurla, Mumbai - MPCB",01-04-2024 13:00:00,19.0863,72.8888,NO2,NA,NA,NA
India,Maharashtra,Mumbai,"Mazgaon, Mumbai - IITM",01-04-2024 13:00:00,18.96702,72.84214,PM10,67,107,87
India,Maharashtra,Mumbai,"Mazgaon, Mumbai - IITM",01-04-2024 13:00:00,18.96702,72.84214,SO2,3,15,8
India,Maharashtra,Mumbai,"Mindspace-Malad West, Mumbai - MPCB",01-04-2024 13:00:00,19.1878657,72.8304069,CO,11,60,14
India,Maharashtra,Mumbai,"Mindspace-Malad West, Mumbai - MPCB",01-04-2024 13:00:00,19.1878657,72.8304069,OZONE,7,179,31
India,Maharashtra,Mumbai,"Mulund West, Mumbai - MPCB",01-04-2024 13:00:00,19.1750,72.9419,SO2,13,13,13
India,Maharashtra,Mumbai,"Navy Nagar-Colaba, Mumbai - IITM",01-04-2024 13:00:00,18.897756,72.813320,SO2,2,8,4
India,Maharashtra,Mumbai,"Powai, Mumbai - MPCB",01-04-2024 13:00:00,19.137500,72.915056,PM2.5,28,63,45
India,Maharashtra,Mumbai,"Powai, Mumbai - MPCB",01-04-2024 13:00:00,19.137500,72.915056,CO,32,38,34
India,Maharashtra,Mumbai,"Sewri, Mumbai - BMC",01-04-2024 13:00:00,19.000084,72.856730,NO2,20,91,40
India,Maharashtra,Mumbai,"Shivaji Nagar, Mumbai - BMC",01-04-2024 13:00:00,19.060498,72.923356,NO2,32,117,67
India,Maharashtra,Mumbai,"Shivaji Nagar, Mumbai - BMC",01-04-2024 13:00:00,19.060498,72.923356,OZONE,3,68,35
India,Maharashtra,Mumbai,"Vasai West, Mumbai - MPCB",01-04-2024 13:00:00,19.383200,72.820400,PM2.5,36,130,61
India,Maharashtra,Mumbai,"Vasai West, Mumbai - MPCB",01-04-2024 13:00:00,19.383200,72.820400,NH3,4,5,4
India,Maharashtra,Mumbai,"Vasai West, Mumbai - MPCB",01-04-2024 13:00:00,19.383200,72.820400,CO,58,101,66
India,Maharashtra,Mumbai,"Vile Parle West, Mumbai - MPCB",01-04-2024 13:00:00,19.10861,72.83622,NO2,NA,NA,NA
India,Maharashtra,Mumbai,"Vile Parle West, Mumbai - MPCB",01-04-2024 13:00:00,19.10861,72.83622,CO,42,44,43
India,Maharashtra,Mumbai,"Worli, Mumbai - MPCB",01-04-2024 13:00:00,18.9936162,72.8128113,PM2.5,27,55,41
India,Maharashtra,Nagpur,"Ambazari, Nagpur - MPCB",01-04-2024 13:00:00,21.121801,79.04952,NO2,17,99,49
India,Maharashtra,Nagpur,"Mahal, Nagpur - MPCB",01-04-2024 13:00:00,21.14472,79.107595,NO2,9,30,19
India,Maharashtra,Nagpur,"Mahal, Nagpur - MPCB",01-04-2024 13:00:00,21.14472,79.107595,NH3,5,9,7
India,Maharashtra,Nagpur,"Mahal, Nagpur - MPCB",01-04-2024 13:00:00,21.14472,79.107595,SO2,1,64,27
India,Maharashtra,Nagpur,"Mahal, Nagpur - MPCB",01-04-2024 13:00:00,21.14472,79.107595,OZONE,5,80,32
India,Maharashtra,Nagpur,"Opp GPO Civil Lines, Nagpur - MPCB",01-04-2024 13:00:00,21.152875,79.0517531,PM2.5,57,174,110
India,Maharashtra,Nagpur,"Opp GPO Civil Lines, Nagpur - MPCB",01-04-2024 13:00:00,21.152875,79.0517531,SO2,5,23,13
India,Maharashtra,Nanded,"Sneh Nagar, Nanded - MPCB",01-04-2024 13:00:00,19.173852,77.296291,NO2,20,62,32
India,Maharashtra,Nashik,"Gangapur Road, Nashik - MPCB",01-04-2024 13:00:00,20.0073285,73.7762427,PM2.5,44,71,54
India,Maharashtra,Nashik,"Gangapur Road, Nashik - MPCB",01-04-2024 13:00:00,20.0073285,73.7762427,SO2,2,9,4
India,Maharashtra,Nashik,"Gangapur Road, Nashik - MPCB",01-04-2024 13:00:00,20.0073285,73.7762427,OZONE,19,71,41
India,Maharashtra,Nashik,"Hirawadi, Nashik - MPCB",01-04-2024 13:00:00,20.021503,73.813844,PM10,56,91,75
India,Maharashtra,Nashik,"MIDC Ambad, Nashik - MPCB",01-04-2024 13:00:00,19.950220,73.731480,NO2,NA,NA,NA
India,Maharashtra,Nashik,"MIDC Ambad, Nashik - MPCB",01-04-2024 13:00:00,19.950220,73.731480,NH3,NA,NA,NA
India,Maharashtra,Nashik,"Pandav Nagari, Nashik - MPCB",01-04-2024 13:00:00,19.9591346,73.7788008,PM10,68,96,79
India,Maharashtra,Nashik,"Pandav Nagari, Nashik - MPCB",01-04-2024 13:00:00,19.9591346,73.7788008,NH3,5,6,5
India,Maharashtra,Nashik,"Pandav Nagari, Nashik - MPCB",01-04-2024 13:00:00,19.9591346,73.7788008,SO2,5,27,16
India,Maharashtra,Nashik,"Pandav Nagari, Nashik - MPCB",01-04-2024 13:00:00,19.9591346,73.7788008,OZONE,16,57,24
India,Maharashtra,Navi Mumbai,"Mahape, Navi Mumbai - MPCB",01-04-2024 13:00:00,19.1135051,73.008978,PM2.5,34,88,53
India,Maharashtra,Navi Mumbai,"Mahape, Navi Mumbai - MPCB",01-04-2024 13:00:00,19.1135051,73.008978,NH3,3,3,3
India,Maharashtra,Navi Mumbai,"Sanpada, Navi Mumbai - MPCB",01-04-2024 13:00:00,19.0575752,73.0151367,PM2.5,56,97,73
India,Maharashtra,Navi Mumbai,"Sanpada, Navi Mumbai - MPCB",01-04-2024 13:00:00,19.0575752,73.0151367,PM10,81,186,122
India,Maharashtra,Navi Mumbai,"Sanpada, Navi Mumbai - MPCB",01-04-2024 13:00:00,19.0575752,73.0151367,NO2,11,45,21
India,Maharashtra,Navi Mumbai,"Sector-19A Nerul, Navi Mumbai - IITM",01-04-2024 13:00:00,19.044,73.0325,PM2.5,NA,NA,NA
India,Maharashtra,Navi Mumbai,"Sector-19A Nerul, Navi Mumbai - IITM",01-04-2024 13:00:00,19.044,73.0325,PM10,NA,NA,NA
India,Maharashtra,Navi Mumbai,"Sector-19A Nerul, Navi Mumbai - IITM",01-04-2024 13:00:00,19.044,73.0325,OZONE,1,98,12
India,Maharashtra,Navi Mumbai,"Sector-2E Kalamboli, Navi Mumbai - MPCB",01-04-2024 13:00:00,19.02579,73.10297,SO2,4,26,12
India,Maharashtra,Parbhani,"Masoom Colony, Parbhani - MPCB",01-04-2024 13:00:00,19.265594,76.761463,SO2,3,36,12
India,Maharashtra,Pimpri-Chinchwad,"Gavalinagar, Pimpri Chinchwad - MPCB",01-04-2024 13:00:00,18.63673,73.82487,CO,14,95,50
India,Maharashtra,Pimpri-Chinchwad,"Park Street Wakad, Pimpri Chinchwad - MPCB",01-04-2024 13:00:00,18.59051,73.77946,PM2.5,190,346,283
India,Maharashtra,Pimpri-Chinchwad,"Park Street Wakad, Pimpri Chinchwad - MPCB",01-04-2024 13:00:00,18.59051,73.77946,SO2,7,19,11
India,Maharashtra,Pimpri-Chinchwad,"Park Street Wakad, Pimpri Chinchwad - MPCB",01-04-2024 13:00:00,18.59051,73.77946,CO,24,104,66
India,Maharashtra,Pimpri-Chinchwad,"Thergaon, Pimpri Chinchwad - MPCB",01-04-2024 13:00:00,18.616318,73.765797,PM10,NA,NA,NA
India,Maharashtra,Pimpri-Chinchwad,"Thergaon, Pimpri Chinchwad - MPCB",01-04-2024 13:00:00,18.616318,73.765797,NO2,NA,NA,NA
India,Maharashtra,Pimpri-Chinchwad,"Thergaon, Pimpri Chinchwad - MPCB",01-04-2024 13:00:00,18.616318,73.765797,CO,20,38,30
India,Maharashtra,Pimpri-Chinchwad,"Thergaon, Pimpri Chinchwad - MPCB",01-04-2024 13:00:00,18.616318,73.765797,OZONE,119,168,168
India,Maharashtra,Pune,"Bhosari, Pune - IITM",01-04-2024 13:00:00,18.640051,73.848956,NO2,13,14,14
India,Maharashtra,Pune,"Karve Road, Pune - MPCB",01-04-2024 13:00:00,18.5011743,73.8165527,SO2,NA,NA,NA
India,Maharashtra,Pune,"Karve Road, Pune - MPCB",01-04-2024 13:00:00,18.5011743,73.8165527,OZONE,5,6,6
India,Maharashtra,Pune,"Katraj Dairy, Pune - MPCB",01-04-2024 13:00:00,18.454450,73.854155,PM10,61,116,83
India,Maharashtra,Pune,"Mhada Colony, Pune - IITM",01-04-2024 13:00:00,18.573040,73.927715,CO,27,57,40
India,Maharashtra,Pune,"Revenue Colony-Shivajinagar, Pune - IITM",01-04-2024 13:00:00,18.530085,73.849598,SO2,58,111,92
India,Maharashtra,Pune,"Savitribai Phule Pune University, Pune - MPCB",01-04-2024 13:00:00,18.547056,73.826908,PM2.5,59,106,75
India,Maharashtra,Pune,"Savitribai Phule Pune University, Pune - MPCB",01-04-2024 13:00:00,18.547056,73.826908,NO2,5,66,35
India,Maharashtra,Pune,"Savitribai Phule Pune University, Pune - MPCB",01-04-2024 13:00:00,18.547056,73.826908,NH3,1,2,1
India,Maharashtra,Pune,"Transport Nagar-Nigdi, Pune - IITM",01-04-2024 13:00:00,18.664282,73.763966,CO,46,76,57
India,Maharashtra,Sangli,"Vijay Nagar, Sangli - MPCB",01-04-2024 13:00:00, 16.5038,74.3623,OZONE,9,92,39
India,Maharashtra,Solapur,"Dnyaneshwar Nagar, Solapur - MPCB",01-04-2024 13:00:00,17.6336264,75.9132495,PM2.5,98,194,153
India,Maharashtra,Solapur,"Ratandeep Housing Society, Solapur - MPCB",01-04-2024 13:00:00,17.65439,75.90649,SO2,3,62,18
India,Maharashtra,Thane,"Kasarvadavali, Thane - MPCB",01-04-2024 13:00:00,19.26777,72.97182,NH3,4,16,7
India,Maharashtra,Thane,"Kasarvadavali, Thane - MPCB",01-04-2024 13:00:00,19.26777,72.97182,CO,4,48,9
India,Maharashtra,Thane,"Pimpleshwar Mandir, Thane - MPCB",01-04-2024 13:00:00,19.192056,72.9585188,CO,3,118,23
India,Maharashtra,Thane,"Upvan Fort, Thane - MPCB",01-04-2024 13:00:00,19.222279,72.957979,NO2,10,50,25
India,Maharashtra,Thane,"Upvan Fort, Thane - MPCB",01-04-2024 13:00:00,19.222279,72.957979,SO2,3,20,9
India,Maharashtra,Ulhasnagar,"Sidhi Vinayak Nagar, Ulhasnagar - MPCB",01-04-2024 13:00:00,19.235581,73.159121,OZONE,7,118,60
India,Manipur,Imphal,"Manipur University, Imphal - Manipur PCB",01-04-2024 13:00:00,24.7524239,93.9286218,NH3,NA,NA,NA
India,Meghalaya,Shillong,"Lumpyngngad, Shillong - Meghalaya PCB",01-04-2024 13:00:00,25.5586,91.8985,CO,4,13,6
India,Mizoram,Aizawl,"Sikulpuikawn, Aizawl - Mizoram PCB",01-04-2024 13:00:00,23.7176342,92.7192841,CO,8,12,10
India,Nagaland,Kohima,"PWD Juction, Kohima - NPCB",01-04-2024 13:00:00,25.6635413,94.0989878,PM10,35,112,78
India,Nagaland,Kohima,"PWD Juction, Kohima - NPCB",01-04-2024 13:00:00,25.6635413,94.0989878,CO,6,16,8
India,Odisha,Balasore,"Kalidaspur, Balasore - OSPCB",01-04-2024 13:00:00,21.51161,86.89088,NH3,2,3,2
India,Odisha,Barbil,"Forest Office, Barbil - OSPCB",01-04-2024 13:00:00,22.1166054,85.3945546,OZONE,46,203,172
India,Odisha,Baripada,"Meher Colony, Baripada - OSPCB",01-04-2024 13:00:00,21.941841,86.728318,PM10,92,126,112
India,Odisha,Baripada,"Meher Colony, Baripada - OSPCB",01-04-2024 13:00:00,21.941841,86.728318,NO2,1,3,1
India,Odisha,Baripada,"Meher Colony, Baripada - OSPCB",01-04-2024 13:00:00,21.941841,86.728318,NH3,3,3,3
India,Odisha,Bhubaneswar,"Lingraj Mandir, Bhubaneswar - OSPCB",01-04-2024 13:00:00,20.240790,85.836784,PM2.5,47,187,96
India,Odisha,Bhubaneswar,"Lingraj Mandir, Bhubaneswar - OSPCB",01-04-2024 13:00:00,20.240790,85.836784,CO,45,73,65
India,Odisha,Bhubaneswar,"Lingraj Mandir, Bhubaneswar - OSPCB",01-04-2024 13:00:00,20.240790,85.836784,OZONE,17,128,45
India,Odisha,Bileipada,"Tata Township, Bileipada - OSPCB",01-04-2024 13:00:00,22.06156703,85.47409613,NO2,10,17,12
India,Odisha,Brajrajnagar,"GM Office, Brajrajnagar - OSPCB",01-04-2024 13:00:00,21.8004996,83.8396977,NO2,14,35,18
India,Odisha,Brajrajnagar,"GM Office, Brajrajnagar - OSPCB",01-04-2024 13:00:00,21.8004996,83.8396977,NH3,1,3,2
India,Odisha,Byasanagar,"Ferro Chrome Colony, Byasanagar - OSPCB",01-04-2024 13:00:00,20.94185,86.11510,SO2,4,44,17
India,Odisha,Keonjhar,"Jagamohanpur, Keonjhar - OSPCB",01-04-2024 13:00:00,21.643900,85.599355,PM2.5,56,141,84
India,Odisha,Nayagarh,"Dabuna, Nayagarh - OSPCB",01-04-2024 13:00:00,21.847279,85.416905,OZONE,22,50,38
India,Odisha,Rairangpur,"Divisional Forest Office, Rairangpur - OSPCB",01-04-2024 13:00:00,22.265816,86.174829,PM10,80,136,108
India,Odisha,Rairangpur,"Divisional Forest Office, Rairangpur - OSPCB",01-04-2024 13:00:00,22.265816,86.174829,NO2,NA,NA,NA
India,Odisha,Rourkela,"Raghunathpali, Rourkela - OSPCB",01-04-2024 13:00:00,22.220833,84.809444,PM2.5,42,247,155
India,Odisha,Rourkela,"Raghunathpali, Rourkela - OSPCB",01-04-2024 13:00:00,22.220833,84.809444,NH3,1,3,2
India,Odisha,Rourkela,"Raghunathpali, Rourkela - OSPCB",01-04-2024 13:00:00,22.220833,84.809444,OZONE,16,169,38
India,Odisha,Suakati,"OMC Colony, Suakati - OSPCB",01-04-2024 13:00:00,21.606865,85.510538,PM2.5,113,286,171
India,Odisha,Suakati,"OMC Colony, Suakati - OSPCB",01-04-2024 13:00:00,21.606865,85.510538,SO2,5,88,27
India,Odisha,Talcher,"Talcher Coalfields,Talcher - OSPCB",01-04-2024 13:00:00,20.9360711,85.1707021,PM2.5,45,428,198
India,Odisha,Talcher,"Talcher Coalfields,Talcher - OSPCB",01-04-2024 13:00:00,20.9360711,85.1707021,NH3,5,5,5
India,Odisha,Tensa,"Barsua Iron Ore Mines, Tensa - OSPCB",01-04-2024 13:00:00,21.869985,85.167016,SO2,NA,NA,NA
India,Odisha,Tensa,"Barsua Iron Ore Mines, Tensa - OSPCB",01-04-2024 13:00:00,21.869985,85.167016,OZONE,33,97,49
India,Puducherry,Puducherry,"Jawahar Nagar, Puducherry - PPCC",01-04-2024 13:00:00,11.9309,79.8027,PM2.5,5,55,20
India,Puducherry,Puducherry,"Jawahar Nagar, Puducherry - PPCC",01-04-2024 13:00:00,11.9309,79.8027,PM10,10,56,25
India,Punjab,Amritsar,"Golden Temple, Amritsar - PPCB",01-04-2024 13:00:00,31.620000,74.876512,NO2,NA,NA,NA
India,Punjab,Bathinda,"Hardev Nagar, Bathinda - PPCB",01-04-2024 13:00:00,30.233011,74.907758,PM10,14,148,79
India,Punjab,Jalandhar,"Civil Line, Jalandhar - PPCB",01-04-2024 13:00:00,31.321907,75.578914,PM2.5,NA,NA,NA
India,Punjab,Jalandhar,"Civil Line, Jalandhar - PPCB",01-04-2024 13:00:00,31.321907,75.578914,NO2,NA,NA,NA
India,Punjab,Jalandhar,"Civil Line, Jalandhar - PPCB",01-04-2024 13:00:00,31.321907,75.578914,SO2,NA,NA,NA
India,Punjab,Khanna,"Kalal Majra, Khanna - PPCB",01-04-2024 13:00:00,30.736056 ,76.209694,PM2.5,19,68,38
India,Punjab,Khanna,"Kalal Majra, Khanna - PPCB",01-04-2024 13:00:00,30.736056 ,76.209694,PM10,33,74,54
India,Punjab,Ludhiana,"Punjab Agricultural University, Ludhiana - PPCB",01-04-2024 13:00:00,30.9028,75.8086,NO2,20,20,20
India,Punjab,Mandi Gobindgarh,"RIMT University, Mandi Gobindgarh - PPCB",01-04-2024 13:00:00,30.649961,76.331442,SO2,4,51,17
India,Punjab,Rupnagar,"Ratanpura, Rupnagar - Ambuja Cements",01-04-2024 13:00:00,31.0325454,76.5623046,PM10,57,168,106
India,Rajasthan,Ajmer,"Civil Lines,  Ajmer - RSPCB",01-04-2024 13:00:00,26.470859,74.646594,PM10,57,115,90
India,Rajasthan,Ajmer,"Civil Lines,  Ajmer - RSPCB",01-04-2024 13:00:00,26.470859,74.646594,CO,15,37,21
India,Rajasthan,Alwar,"Moti Doongri, Alwar - RSPCB",01-04-2024 13:00:00,27.554793,76.611536,OZONE,12,28,21
India,Rajasthan,Banswara,"Rati Talai, Banswara - RSPCB",01-04-2024 13:00:00,23.555190,74.440010,PM2.5,32,182,66
India,Rajasthan,Banswara,"Rati Talai, Banswara - RSPCB",01-04-2024 13:00:00,23.555190,74.440010,PM10,93,425,149
India,Rajasthan,Barmer,"Railway Colony, Barmer - RSPCB",01-04-2024 13:00:00,25.747299,71.393989,OZONE,18,103,77
India,Rajasthan,Bharatpur,"Krishna Nagar, Bharatpur - RSPCB",01-04-2024 13:00:00,27.215415,77.50873,PM10,89,176,133
India,Rajasthan,Bhilwara,"Pratap Nagar, Bhilwara - RSPCB",01-04-2024 13:00:00,25.339605,74.618883,NO2,12,60,27
India,Rajasthan,Bhilwara,"Pratap Nagar, Bhilwara - RSPCB",01-04-2024 13:00:00,25.339605,74.618883,CO,12,46,34
India,Rajasthan,Bhiwadi,"Vasundhara Nagar_UIT, Bhiwadi - RSPCB",01-04-2024 13:00:00,28.207266,76.829265,PM2.5,8,80,34
India,Rajasthan,Bhiwadi,"Vasundhara Nagar_UIT, Bhiwadi - RSPCB",01-04-2024 13:00:00,28.207266,76.829265,NO2,16,41,24
India,Rajasthan,Bikaner,"MM Ground, Bikaner - RSPCB",01-04-2024 13:00:00,28.018792,73.292658,OZONE,8,103,58
India,Rajasthan,Bundi,"New Colony, Bundi - RSPCB",01-04-2024 13:00:00,25.435774,75.644272,PM2.5,10,61,32
India,Rajasthan,Bundi,"New Colony, Bundi - RSPCB",01-04-2024 13:00:00,25.435774,75.644272,SO2,3,7,5
India,Rajasthan,Churu,"Subash Chowk, Churu - RSPCB",01-04-2024 13:00:00,28.296139,74.961696,NH3,8,15,11
India,Rajasthan,Churu,"Subash Chowk, Churu - RSPCB",01-04-2024 13:00:00,28.296139,74.961696,OZONE,47,120,73
India,Rajasthan,Dausa,"Khatikan Mohalla, Dausa - RSPCB",01-04-2024 13:00:00,26.895552,76.334753,SO2,9,20,13
India,Rajasthan,Dungarpur,"Bhoiwada, Dungarpur - RSPCB",01-04-2024 13:00:00,23.837789,73.714926,PM10,37,318,116
India,Rajasthan,Dungarpur,"Bhoiwada, Dungarpur - RSPCB",01-04-2024 13:00:00,23.837789,73.714926,CO,20,52,40
India,Rajasthan,Hanumangarh,"Housing Board, Hanumangarh - RSPCB",01-04-2024 13:00:00,29.610750,74.283608,PM10,78,176,124
India,Rajasthan,Hanumangarh,"Housing Board, Hanumangarh - RSPCB",01-04-2024 13:00:00,29.610750,74.283608,NH3,5,14,9
India,Rajasthan,Jaipur,"Adarsh Nagar, Jaipur - RSPCB",01-04-2024 13:00:00,26.902909,75.836858,NH3,2,5,3
India,Rajasthan,Jaipur,"Adarsh Nagar, Jaipur - RSPCB",01-04-2024 13:00:00,26.902909,75.836858,OZONE,25,42,32
India,Rajasthan,Jaipur,"Mansarovar Sector-12, Jaipur - RSPCB",01-04-2024 13:00:00,26.843698,75.766894,NH3,3,9,5
India,Rajasthan,Jaipur,"Police Commissionerate, Jaipur - RSPCB",01-04-2024 13:00:00,26.9164092,75.7994901,CO,18,58,36
India,Rajasthan,Jaipur,"RIICO Sitapura, Jaipur - RSPCB",01-04-2024 13:00:00,26.786682,75.827928,PM10,86,166,118
India,Rajasthan,Jaipur,"Sector-2 Murlipura, Jaipur - RSPCB",01-04-2024 13:00:00,26.960669,75.771817,PM2.5,28,76,46
India,Rajasthan,Jaipur,"Shastri Nagar, Jaipur - RSPCB",01-04-2024 13:00:00,26.9502929,75.730943,PM10,100,150,120
India,Rajasthan,Jaisalmer,"Sadar Bazar, Jaisalmer - RSPCB",01-04-2024 13:00:00,26.912329,70.909168,NO2,9,45,21
India,Rajasthan,Jalore,"Mudtra Sili, Jalore - RSPCB",01-04-2024 13:00:00,25.344694,72.626208,NH3,4,5,4
India,Rajasthan,Jhalawar,"Rajlaxmi Nagar, Jhalawar - RSPCB",01-04-2024 13:00:00,24.588397,76.172782,SO2,2,53,11
India,Rajasthan,Jhunjhunu,"Indra Nagar, Jhunjhunu - RSPCB",01-04-2024 13:00:00,28.108988,75.386577,PM2.5,21,68,42
India,Rajasthan,Jhunjhunu,"Indra Nagar, Jhunjhunu - RSPCB",01-04-2024 13:00:00,28.108988,75.386577,OZONE,29,92,52
India,Rajasthan,Jodhpur,"Collectorate, Jodhpur - RSPCB",01-04-2024 13:00:00,26.268249,73.0193853,PM2.5,59,185,109
India,Rajasthan,Jodhpur,"Jhalamand, Jodhpur - RSPCB",01-04-2024 13:00:00,26.215415,73.070156,PM2.5,22,143,58
India,Rajasthan,Jodhpur,"Mandor, Jodhpur - RSPCB",01-04-2024 13:00:00,26.358805,73.047444,PM10,84,181,136
India,Rajasthan,Jodhpur,"Samrat Ashok Udhyan, Jodhpur - RSPCB",01-04-2024 13:00:00,26.253384,72.976571,PM2.5,26,97,47
India,Rajasthan,Jodhpur,"Samrat Ashok Udhyan, Jodhpur - RSPCB",01-04-2024 13:00:00,26.253384,72.976571,NH3,3,5,4
India,Rajasthan,Kota,"Dhanmandi, Kota - RSPCB",01-04-2024 13:00:00,25.164090,75.858137,CO,11,62,25
India,Rajasthan,Kota,"Nayapura, Kota - RSPCB",01-04-2024 13:00:00,25.196024,75.855668,PM10,92,209,123
India,Rajasthan,Kota,"Nayapura, Kota - RSPCB",01-04-2024 13:00:00,25.196024,75.855668,CO,12,72,33
India,Rajasthan,Kota,"Shrinath Puram, Kota - RSPCB",01-04-2024 13:00:00,25.14389,75.821256,SO2,3,73,10
India,Rajasthan,Kota,"Shrinath Puram, Kota - RSPCB",01-04-2024 13:00:00,25.14389,75.821256,OZONE,26,86,62
India,Rajasthan,Nagaur,"Karni Colony, Nagaur - RSPCB",01-04-2024 13:00:00,27.213494,73.734444,PM2.5,26,166,60
India,Rajasthan,Nagaur,"Karni Colony, Nagaur - RSPCB",01-04-2024 13:00:00,27.213494,73.734444,NO2,16,39,24
India,Rajasthan,Nagaur,"Karni Colony, Nagaur - RSPCB",01-04-2024 13:00:00,27.213494,73.734444,SO2,4,13,6
India,Rajasthan,Pali,"Indira Colony Vistar, Pali - RSPCB",01-04-2024 13:00:00,25.771061, 73.340227,PM2.5,62,355,181
India,Rajasthan,Pali,"Indira Colony Vistar, Pali - RSPCB",01-04-2024 13:00:00,25.771061, 73.340227,PM10,107,315,172
India,Rajasthan,Pali,"Indira Colony Vistar, Pali - RSPCB",01-04-2024 13:00:00,25.771061, 73.340227,NO2,20,41,28
India,Rajasthan,Pali,"Indira Colony Vistar, Pali - RSPCB",01-04-2024 13:00:00,25.771061, 73.340227,NH3,1,7,2
India,Rajasthan,Pratapgarh,"Pragati Nagar, Pratapgarh - RSPCB",01-04-2024 13:00:00,24.041198,74.780702,PM10,51,167,96
India,Rajasthan,Pratapgarh,"Pragati Nagar, Pratapgarh - RSPCB",01-04-2024 13:00:00,24.041198,74.780702,NH3,3,6,4
India,Rajasthan,Pratapgarh,"Pragati Nagar, Pratapgarh - RSPCB",01-04-2024 13:00:00,24.041198,74.780702,CO,15,173,21
India,Rajasthan,Rajsamand,"Dhoinda, Rajsamand - RSPCB",01-04-2024 13:00:00,25.036360,73.883502,NH3,6,7,6
India,Rajasthan,Rajsamand,"Dhoinda, Rajsamand - RSPCB",01-04-2024 13:00:00,25.036360,73.883502,CO,48,88,78
India,Rajasthan,Sawai Madhopur,"Sahu Nagar, Sawai Madhopur - RSPCB",01-04-2024 13:00:00,26.031443,76.359327,PM2.5,43,213,80
India,Rajasthan,Sikar,"Radhakishan Pura, Sikar - RSPCB",01-04-2024 13:00:00,27.608912,75.153302,PM10,64,158,111
India,Rajasthan,Sikar,"Radhakishan Pura, Sikar - RSPCB",01-04-2024 13:00:00,27.608912,75.153302,SO2,2,18,6
India,Rajasthan,Sirohi,"Vedhaynath Colony, Sirohi - RSPCB",01-04-2024 13:00:00,24.885261,72.857549,NO2,4,58,14
India,Rajasthan,Sri Ganganagar,"Old City, Sri Ganganagar - RSPCB",01-04-2024 13:00:00,29.931624,73.864511,PM10,103,208,133
India,Rajasthan,Sri Ganganagar,"Old City, Sri Ganganagar - RSPCB",01-04-2024 13:00:00,29.931624,73.864511,CO,57,96,85
India,Rajasthan,Tonk,"Shastri Nagar, Tonk - RSPCB",01-04-2024 13:00:00,26.159933,75.780517,NO2,13,47,22
India,Rajasthan,Tonk,"Shastri Nagar, Tonk - RSPCB",01-04-2024 13:00:00,26.159933,75.780517,CO,8,42,18
India,Rajasthan,Tonk,"Shastri Nagar, Tonk - RSPCB",01-04-2024 13:00:00,26.159933,75.780517,OZONE,21,74,36
India,Rajasthan,Udaipur,"Ashok Nagar, Udaipur - RSPCB",01-04-2024 13:00:00,24.5886166,73.6321397,NH3,7,7,7
India,TamilNadu,Chengalpattu,"Crescent University, Chengalpattu - TNPCB",01-04-2024 13:00:00,12.8777316,80.0834807,PM2.5,NA,NA,NA
India,TamilNadu,Chengalpattu,"Crescent University, Chengalpattu - TNPCB",01-04-2024 13:00:00,12.8777316,80.0834807,SO2,NA,NA,NA
India,TamilNadu,Chengalpattu,"Crescent University, Chengalpattu - TNPCB",01-04-2024 13:00:00,12.8777316,80.0834807,CO,26,28,27
India,TamilNadu,Chennai,"Alandur Bus Depot, Chennai - CPCB",01-04-2024 13:00:00,12.9099161,80.1076538,PM2.5,34,60,44
India,TamilNadu,Chennai,"Alandur Bus Depot, Chennai - CPCB",01-04-2024 13:00:00,12.9099161,80.1076538,NO2,3,48,14
India,TamilNadu,Chennai,"Kodungaiyur, Chennai - TNPCB",01-04-2024 13:00:00,13.1278,80.2642,PM2.5,11,27,17
India,TamilNadu,Chennai,"Kodungaiyur, Chennai - TNPCB",01-04-2024 13:00:00,13.1278,80.2642,OZONE,5,6,6
India,TamilNadu,Chennai,"Perungudi, Chennai - TNPCB",01-04-2024 13:00:00,12.9533,80.2357,PM2.5,5,43,19
India,TamilNadu,Chennai,"Perungudi, Chennai - TNPCB",01-04-2024 13:00:00,12.9533,80.2357,NO2,2,8,4
India,TamilNadu,Chennai,"Perungudi, Chennai - TNPCB",01-04-2024 13:00:00,12.9533,80.2357,CO,3,98,28
India,TamilNadu,Chennai,"Royapuram, Chennai - TNPCB",01-04-2024 13:00:00,13.1036,80.2909,NO2,10,18,14
India,TamilNadu,Chennai,"Velachery Res. Area, Chennai - CPCB",01-04-2024 13:00:00,13.0052189,80.2398125,NO2,7,23,12
India,TamilNadu,Coimbatore,"PSG College of Arts and Science, Coimbatore - TNPCB",01-04-2024 13:00:00,11.0328,77.0349,PM2.5,35,82,55
India,TamilNadu,Coimbatore,"PSG College of Arts and Science, Coimbatore - TNPCB",01-04-2024 13:00:00,11.0328,77.0349,NO2,2,5,3
India,TamilNadu,Coimbatore,"PSG College of Arts and Science, Coimbatore - TNPCB",01-04-2024 13:00:00,11.0328,77.0349,NH3,1,1,1
India,TamilNadu,Gummidipoondi,"Anthoni Pillai Nagar, Gummidipoondi - TNPCB",01-04-2024 13:00:00,13.4127,80.1081,NH3,1,2,2
India,TamilNadu,Kanchipuram,"Kilambi, Kanchipuram - TNPCB",01-04-2024 13:00:00,12.864618,79.659968,PM10,NA,NA,NA
India,TamilNadu,Ramanathapuram,"Chalai Bazaar, Ramanathapuram - TNPCB",01-04-2024 13:00:00,9.36399,78.831977,OZONE,13,14,14
India,TamilNadu,Thoothukudi,"Meelavittan, Thoothukudi - TNPCB",01-04-2024 13:00:00,8.816428 ,78.099039,OZONE,1,108,25
India,Telangana,Hyderabad,"ECIL Kapra, Hyderabad - TSPCB",01-04-2024 13:00:00,17.470431,78.566959,NH3,7,10,7
India,Telangana,Hyderabad,"ICRISAT Patancheru, Hyderabad - TSPCB",01-04-2024 13:00:00,17.518400,78.278777,PM10,50,144,80
India,Telangana,Hyderabad,"IITH Kandi, Hyderabad - TSPCB",01-04-2024 13:00:00,17.585705,78.126199,NO2,NA,NA,NA
India,Telangana,Hyderabad,"Kokapet, Hyderabad - TSPCB",01-04-2024 13:00:00,17.393559,78.339194,PM10,72,96,78
India,Telangana,Hyderabad,"Kokapet, Hyderabad - TSPCB",01-04-2024 13:00:00,17.393559,78.339194,NO2,7,10,7
India,Telangana,Hyderabad,"Kokapet, Hyderabad - TSPCB",01-04-2024 13:00:00,17.393559,78.339194,NH3,2,2,2
India,Telangana,Hyderabad,"Kompally Municipal Office, Hyderabad - TSPCB",01-04-2024 13:00:00,17.544899,78.486949,SO2,3,33,12
India,Telangana,Hyderabad,"Kompally Municipal Office, Hyderabad - TSPCB",01-04-2024 13:00:00,17.544899,78.486949,CO,19,64,40
India,Telangana,Hyderabad,"Nacharam_TSIIC IALA, Hyderabad - TSPCB",01-04-2024 13:00:00,17.429398,78.569354,NO2,11,11,11
India,Telangana,Hyderabad,"New Malakpet, Hyderabad - TSPCB",01-04-2024 13:00:00,17.37206,78.50864,NO2,15,31,22
India,Telangana,Hyderabad,"Sanathnagar, Hyderabad - TSPCB",01-04-2024 13:00:00,17.4559458,78.4332152,PM2.5,33,84,58
India,Telangana,Hyderabad,"Somajiguda, Hyderabad - TSPCB",01-04-2024 13:00:00,17.417094,78.457437,SO2,NA,NA,NA
India,Telangana,Hyderabad,"Zoo Park, Hyderabad - TSPCB",01-04-2024 13:00:00,17.349694,78.451437,NH3,NA,NA,NA
India,Telangana,Hyderabad,"Zoo Park, Hyderabad - TSPCB",01-04-2024 13:00:00,17.349694,78.451437,SO2,2,11,4
India,Tripura,Agartala,"Bardowali, Agartala - Tripura SPCB",01-04-2024 13:00:00,23.8175497,91.2726974,NH3,NA,NA,NA
India,Uttar_Pradesh,Agra,"Sanjay Palace, Agra - UPPCB",01-04-2024 13:00:00,27.19865833,78.00598056,CO,10,63,29
India,Uttar_Pradesh,Agra,"Sector-3B Avas Vikas Colony, Agra - UPPCB",01-04-2024 13:00:00,27.19412,77.96237,SO2,11,21,18
India,Uttar_Pradesh,Agra,"Shahjahan Garden, Agra - UPPCB",01-04-2024 13:00:00,27.169338,78.03582,OZONE,1,3,1
India,Uttar_Pradesh,Agra,"Shastripuram, Agra - UPPCB",01-04-2024 13:00:00,27.19862,77.92066,PM10,25,111,87
India,Uttar_Pradesh,Agra,"Shastripuram, Agra - UPPCB",01-04-2024 13:00:00,27.19862,77.92066,NH3,NA,NA,NA
India,Uttar_Pradesh,Baghpat,"Sardar Patel Inter College, Baghpat - UPPCB",01-04-2024 13:00:00,28.964949,77.278761,OZONE,6,67,22
India,Uttar_Pradesh,Bareilly,"Rajendra Nagar, Bareilly - UPPCB",01-04-2024 13:00:00,28.38910936,79.42963708,NO2,5,14,9
India,Uttar_Pradesh,Bareilly,"Rajendra Nagar, Bareilly - UPPCB",01-04-2024 13:00:00,28.38910936,79.42963708,SO2,43,46,43
India,Uttar_Pradesh,Firozabad,"Vibhab Nagar, Firozabad - UPPCB",01-04-2024 13:00:00,27.1594,78.3953,PM2.5,NA,NA,NA
India,Uttar_Pradesh,Firozabad,"Vibhab Nagar, Firozabad - UPPCB",01-04-2024 13:00:00,27.1594,78.3953,OZONE,22,42,30
India,Uttar_Pradesh,Ghaziabad,"Indirapuram, Ghaziabad - UPPCB",01-04-2024 13:00:00,28.646233,77.358075,PM2.5,30,88,46
India,Uttar_Pradesh,Ghaziabad,"Indirapuram, Ghaziabad - UPPCB",01-04-2024 13:00:00,28.646233,77.358075,OZONE,1,24,5
India,Uttar_Pradesh,Ghaziabad,"Loni, Ghaziabad - UPPCB",01-04-2024 13:00:00,28.757294,77.278792,PM10,59,167,108
India,Uttar_Pradesh,Ghaziabad,"Loni, Ghaziabad - UPPCB",01-04-2024 13:00:00,28.757294,77.278792,SO2,9,30,18
India,Uttar_Pradesh,Ghaziabad,"Vasundhara, Ghaziabad - UPPCB",01-04-2024 13:00:00,28.6603346,77.3572563,NO2,6,71,40
India,Uttar_Pradesh,Ghaziabad,"Vasundhara, Ghaziabad - UPPCB",01-04-2024 13:00:00,28.6603346,77.3572563,NH3,9,17,12
India,Uttar_Pradesh,Ghaziabad,"Vasundhara, Ghaziabad - UPPCB",01-04-2024 13:00:00,28.6603346,77.3572563,CO,1,63,35
India,Uttar_Pradesh,Greater Noida,"Knowledge Park - V, Greater Noida - UPPCB",01-04-2024 13:00:00,28.557054,77.453663,PM2.5,39,211,79
India,Uttar_Pradesh,Greater Noida,"Knowledge Park - V, Greater Noida - UPPCB",01-04-2024 13:00:00,28.557054,77.453663,NO2,34,57,44
India,Uttar_Pradesh,Greater Noida,"Knowledge Park - V, Greater Noida - UPPCB",01-04-2024 13:00:00,28.557054,77.453663,NH3,4,7,5
India,Uttar_Pradesh,Greater Noida,"Knowledge Park - V, Greater Noida - UPPCB",01-04-2024 13:00:00,28.557054,77.453663,SO2,8,34,22
India,Uttar_Pradesh,Jhansi,"Shivaji Nagar, Jhansi - UPPCB",01-04-2024 13:00:00,25.4547,78.6039,PM2.5,2,78,29
India,Uttar_Pradesh,Jhansi,"Shivaji Nagar, Jhansi - UPPCB",01-04-2024 13:00:00,25.4547,78.6039,NH3,6,6,6
India,Uttar_Pradesh,Kanpur,"FTI Kidwai Nagar, Kanpur - UPPCB",01-04-2024 13:00:00,26.428282,80.327067,NH3,2,4,3
India,Uttar_Pradesh,Kanpur,"NSI Kalyanpur, Kanpur - UPPCB",01-04-2024 13:00:00,26.509954,80.249612,NH3,1,1,1
India,Uttar_Pradesh,Kanpur,"NSI Kalyanpur, Kanpur - UPPCB",01-04-2024 13:00:00,26.509954,80.249612,SO2,19,21,20
India,Uttar_Pradesh,Kanpur,"Nehru Nagar, Kanpur - UPPCB",01-04-2024 13:00:00,26.4703136,80.3229863,PM10,13,64,40
India,Uttar_Pradesh,Kanpur,"Nehru Nagar, Kanpur - UPPCB",01-04-2024 13:00:00,26.4703136,80.3229863,NO2,23,44,33
India,Uttar_Pradesh,Lucknow,"Kendriya Vidyalaya, Lucknow - CPCB",01-04-2024 13:00:00,26.906111,80.948222,PM2.5,28,83,60
India,Uttar_Pradesh,Lucknow,"Kendriya Vidyalaya, Lucknow - CPCB",01-04-2024 13:00:00,26.906111,80.948222,NO2,7,23,13
India,Uttar_Pradesh,Lucknow,"Kukrail Picnic Spot-1, Lucknow - UPPCB",01-04-2024 13:00:00,26.90723,80.98579,PM2.5,38,110,76
India,Uttar_Pradesh,Lucknow,"Lalbagh, Lucknow - CPCB",01-04-2024 13:00:00,26.8458805,80.9365541,PM10,111,222,125
India,Uttar_Pradesh,Lucknow,"Talkatora District Industries Center, Lucknow - CPCB",01-04-2024 13:00:00,26.83399722,80.8917361,OZONE,2,80,17
India,Uttar_Pradesh,Meerut,"Ganga Nagar, Meerut - UPPCB",01-04-2024 13:00:00,28.999264,77.7590354,SO2,NA,NA,NA
India,Uttar_Pradesh,Meerut,"Ganga Nagar, Meerut - UPPCB",01-04-2024 13:00:00,28.999264,77.7590354,CO,18,38,30
India,Uttar_Pradesh,Meerut,"Jai Bhim Nagar, Meerut - UPPCB",01-04-2024 13:00:00,28.9535882,77.7622941,NO2,11,36,20
India,Uttar_Pradesh,Meerut,"Jai Bhim Nagar, Meerut - UPPCB",01-04-2024 13:00:00,28.9535882,77.7622941,OZONE,25,90,44
India,Uttar_Pradesh,Meerut,"Pallavpuram Phase 2, Meerut - UPPCB",01-04-2024 13:00:00,29.063510,77.709723,SO2,15,40,25
India,Uttar_Pradesh,Moradabad,"Buddhi Vihar, Moradabad - UPPCB",01-04-2024 13:00:00,28.83526,78.74460,PM10,42,120,84
India,Uttar_Pradesh,Moradabad,"Employment Office, Moradabad - UPPCB",01-04-2024 13:00:00,28.88528,78.73880,PM10,56,109,82
India,Uttar_Pradesh,Moradabad,"Employment Office, Moradabad - UPPCB",01-04-2024 13:00:00,28.88528,78.73880,NO2,17,19,19
India,Uttar_Pradesh,Moradabad,"Jigar Colony, Moradabad - UPPCB",01-04-2024 13:00:00,28.856664,78.772638,NH3,5,5,5
India,Uttar_Pradesh,Moradabad,"Jigar Colony, Moradabad - UPPCB",01-04-2024 13:00:00,28.856664,78.772638,OZONE,19,29,21
India,Uttar_Pradesh,Moradabad,"Kashiram Nagar, Moradabad - UPPCB",01-04-2024 13:00:00,28.849399,78.742362,NO2,3,4,4
India,Uttar_Pradesh,Moradabad,"Kashiram Nagar, Moradabad - UPPCB",01-04-2024 13:00:00,28.849399,78.742362,OZONE,15,120,18
India,Uttar_Pradesh,Moradabad,"Transport Nagar, Moradabad - UPPCB",01-04-2024 13:00:00,28.802625,78.753728,CO,14,42,41
India,Uttar_Pradesh,Muzaffarnagar,"New Mandi, Muzaffarnagar - UPPCB",01-04-2024 13:00:00,29.4723508,77.7194031,NO2,16,31,21
India,Uttar_Pradesh,Noida,"Sector - 125, Noida - UPPCB",01-04-2024 13:00:00,28.5447608,77.3231257,NH3,8,13,11
India,Uttar_Pradesh,Noida,"Sector-1, Noida - UPPCB",01-04-2024 13:00:00,28.5898,77.3101,NO2,23,46,34
India,Uttar_Pradesh,Noida,"Sector-1, Noida - UPPCB",01-04-2024 13:00:00,28.5898,77.3101,NH3,3,5,4
India,Uttar_Pradesh,Noida,"Sector-116, Noida - UPPCB",01-04-2024 13:00:00,28.569230,77.393848,PM10,68,169,118
India,Uttar_Pradesh,Noida,"Sector-116, Noida - UPPCB",01-04-2024 13:00:00,28.569230,77.393848,CO,32,101,85
India,Uttar_Pradesh,Prayagraj,"Jhunsi, Prayagraj - UPPCB",01-04-2024 13:00:00,25.425602,81.917152,NO2,6,6,6
India,Uttar_Pradesh,Prayagraj,"Motilal Nehru NIT, Prayagraj - UPPCB",01-04-2024 13:00:00,25.494,81.863,CO,4,20,15
India,Uttar_Pradesh,Varanasi,"Ardhali Bazar, Varanasi - UPPCB",01-04-2024 13:00:00,25.3505986,82.9083074,OZONE,11,16,15
India,Uttar_Pradesh,Varanasi,"Bhelupur, Varanasi - UPPCB",01-04-2024 13:00:00,25.301778,82.996789,SO2,26,27,26
India,Uttar_Pradesh,Varanasi,"IESD Banaras Hindu University, Varanasi - UPPCB",01-04-2024 13:00:00,25.262326,82.995408,PM2.5,NA,NA,NA
India,Uttar_Pradesh,Varanasi,"IESD Banaras Hindu University, Varanasi - UPPCB",01-04-2024 13:00:00,25.262326,82.995408,NO2,2,3,2
India,Uttar_Pradesh,Vrindavan,"Omex Eternity, Vrindavan - UPPCB",01-04-2024 13:00:00,27.5714090,77.6557570,PM2.5,16,46,27
India,Uttar_Pradesh,Vrindavan,"Omex Eternity, Vrindavan - UPPCB",01-04-2024 13:00:00,27.5714090,77.6557570,NO2,2,3,3
India,Uttar_Pradesh,Vrindavan,"Omex Eternity, Vrindavan - UPPCB",01-04-2024 13:00:00,27.5714090,77.6557570,NH3,2,5,3
India,Uttarakhand,Dehradun,"Doon University, Dehradun - UKPCB",01-04-2024 13:00:00,30.269444,78.044167,PM2.5,NA,NA,NA
India,Uttarakhand,Dehradun,"Doon University, Dehradun - UKPCB",01-04-2024 13:00:00,30.269444,78.044167,NO2,NA,NA,NA
India,Uttarakhand,Kashipur,"Govt. Girls Inter College, Kashipur - UKPCB",01-04-2024 13:00:00,29.2124114,78.9611753,PM2.5,25,75,54
India,Uttarakhand,Rishikesh,"Shivaji Nagar, Rishikesh - UKPCB",01-04-2024 13:00:00,30.075911,78.2859547,NO2,6,35,16
India,Uttarakhand,Rishikesh,"Shivaji Nagar, Rishikesh - UKPCB",01-04-2024 13:00:00,30.075911,78.2859547,CO,10,38,25
India,West_Bengal,Asansol,"Asansol Court Area, Asansol - WBPCB",01-04-2024 13:00:00,23.685297,86.945968,CO,17,82,53
India,West_Bengal,Asansol,"Asansol Court Area, Asansol - WBPCB",01-04-2024 13:00:00,23.685297,86.945968,OZONE,16,42,25
India,West_Bengal,Barrackpore,"SVSPA Campus, Barrackpore - WBPCB",01-04-2024 13:00:00,22.7605581,88.3617589,NH3,1,1,1
India,West_Bengal,Durgapur,"Sidhu Kanhu Indoor Stadium, Durgapur - WBPCB",01-04-2024 13:00:00,23.5404352,87.2892225,PM10,47,151,115
India,West_Bengal,Howrah,"Belur Math, Howrah - WBPCB",01-04-2024 13:00:00,22.629801,88.352017,NO2,12,20,15
India,West_Bengal,Howrah,"Belur Math, Howrah - WBPCB",01-04-2024 13:00:00,22.629801,88.352017,NH3,2,3,3
India,West_Bengal,Howrah,"Ghusuri, Howrah - WBPCB",01-04-2024 13:00:00,22.611968,88.347422,PM2.5,63,157,90
India,West_Bengal,Howrah,"Ghusuri, Howrah - WBPCB",01-04-2024 13:00:00,22.611968,88.347422,SO2,5,7,6
India,West_Bengal,Howrah,"Padmapukur, Howrah - WBPCB",01-04-2024 13:00:00,22.5687319,88.2797276,CO,7,56,28
India,West_Bengal,Howrah,"Padmapukur, Howrah - WBPCB",01-04-2024 13:00:00,22.5687319,88.2797276,OZONE,13,63,27
India,West_Bengal,Kolkata,"Ballygunge, Kolkata - WBPCB",01-04-2024 13:00:00,22.5367507,88.3638022,PM10,54,98,74
India,West_Bengal,Kolkata,"Ballygunge, Kolkata - WBPCB",01-04-2024 13:00:00,22.5367507,88.3638022,NH3,3,4,4
India,West_Bengal,Kolkata,"Ballygunge, Kolkata - WBPCB",01-04-2024 13:00:00,22.5367507,88.3638022,CO,24,40,33
India,West_Bengal,Kolkata,"Bidhannagar, Kolkata - WBPCB",01-04-2024 13:00:00,22.58157048,88.41002457,NH3,8,9,9
India,West_Bengal,Kolkata,"Fort William, Kolkata - WBPCB",01-04-2024 13:00:00,22.556640,88.342674,SO2,9,34,14
India,West_Bengal,Kolkata,"Fort William, Kolkata - WBPCB",01-04-2024 13:00:00,22.556640,88.342674,OZONE,27,55,35
India,West_Bengal,Kolkata,"Jadavpur, Kolkata - WBPCB",01-04-2024 13:00:00,22.49929,88.36917,PM2.5,40,66,54
India,West_Bengal,Kolkata,"Jadavpur, Kolkata - WBPCB",01-04-2024 13:00:00,22.49929,88.36917,PM10,52,85,68
India,West_Bengal,Kolkata,"Jadavpur, Kolkata - WBPCB",01-04-2024 13:00:00,22.49929,88.36917,CO,14,32,24
India,West_Bengal,Kolkata,"Jadavpur, Kolkata - WBPCB",01-04-2024 13:00:00,22.49929,88.36917,OZONE,28,104,58
India,West_Bengal,Kolkata,"Rabindra Bharati University, Kolkata - WBPCB",01-04-2024 13:00:00,22.627847,88.380669,PM10,57,103,76
India,West_Bengal,Kolkata,"Rabindra Sarobar, Kolkata - WBPCB",01-04-2024 13:00:00,22.51106,88.35142,PM10,37,77,56
India,West_Bengal,Kolkata,"Victoria, Kolkata - WBPCB",01-04-2024 13:00:00,22.5448082,88.3403691,NO2,5,7,6
India,West_Bengal,Kolkata,"Victoria, Kolkata - WBPCB",01-04-2024 13:00:00,22.5448082,88.3403691,SO2,5,19,9
India,West_Bengal,Kolkata,"Victoria, Kolkata - WBPCB",01-04-2024 13:00:00,22.5448082,88.3403691,OZONE,33,129,56
India,West_Bengal,Siliguri,"Ward-32 Bapupara, Siliguri - WBPCB",01-04-2024 13:00:00,26.6879226,88.4152495,NO2,32,62,42
India,West_Bengal,Siliguri,"Ward-32 Bapupara, Siliguri - WBPCB",01-04-2024 13:00:00,26.6879226,88.4152495,NH3,7,11,10
India,West_Bengal,Siliguri,"Ward-32 Bapupara, Siliguri - WBPCB",01-04-2024 13:00:00,26.6879226,88.4152495,SO2,6,9,7
India,Andhra_Pradesh,Amaravati,"Secretariat, Amaravati - APPCB",01-04-2024 13:00:00,16.5150833,80.5181667,PM10,18,75,31
India,Andhra_Pradesh,Anantapur,"Gulzarpet, Anantapur - APPCB",01-04-2024 13:00:00,14.675886,77.593027,PM2.5,17,67,36
India,Andhra_Pradesh,Chittoor,"Gangineni Cheruvu, Chittoor - APPCB",01-04-2024 13:00:00,13.204880,79.097889,PM2.5,NA,NA,NA
India,Andhra_Pradesh,Kadapa,"Yerramukkapalli, Kadapa - APPCB",01-04-2024 13:00:00,14.465052,78.824187,NO2,8,8,8
India,Andhra_Pradesh,Rajamahendravaram,"Anand Kala Kshetram, Rajamahendravaram - APPCB",01-04-2024 13:00:00,16.9872867,81.7363176,PM2.5,7,45,21
India,Andhra_Pradesh,Rajamahendravaram,"Anand Kala Kshetram, Rajamahendravaram - APPCB",01-04-2024 13:00:00,16.9872867,81.7363176,CO,4,32,27
India,Andhra_Pradesh,Tirupati,"Tirumala, Tirupati - APPCB",01-04-2024 13:00:00,13.67,79.35,PM2.5,10,57,32
India,Andhra_Pradesh,Tirupati,"Tirumala, Tirupati - APPCB",01-04-2024 13:00:00,13.67,79.35,PM10,18,67,42
India,Andhra_Pradesh,Tirupati,"Tirumala, Tirupati - APPCB",01-04-2024 13:00:00,13.67,79.35,SO2,5,11,7
India,Andhra_Pradesh,Vijayawada,"HB Colony, Vijayawada - APPCB",01-04-2024 13:00:00,16.536107,80.594233,PM10,43,66,54
India,Andhra_Pradesh,Vijayawada,"HB Colony, Vijayawada - APPCB",01-04-2024 13:00:00,16.536107,80.594233,NO2,5,12,8
India,Andhra_Pradesh,Vijayawada,"Rajiv Gandhi Park, Vijayawada - APPCB",01-04-2024 13:00:00,16.509717,80.612222,NO2,2,47,25
India,Andhra_Pradesh,Vijayawada,"Rajiv Gandhi Park, Vijayawada - APPCB",01-04-2024 13:00:00,16.509717,80.612222,SO2,6,9,7
India,Andhra_Pradesh,Vijayawada,"Rajiv Gandhi Park, Vijayawada - APPCB",01-04-2024 13:00:00,16.509717,80.612222,CO,38,56,42
India,Andhra_Pradesh,Vijayawada,"Rajiv Gandhi Park, Vijayawada - APPCB",01-04-2024 13:00:00,16.509717,80.612222,OZONE,1,54,11
India,Andhra_Pradesh,Vijayawada,"Rajiv Nagar, Vijayawada - APPCB",01-04-2024 13:00:00,16.554731,80.649110,SO2,13,21,17
India,Andhra_Pradesh,Visakhapatnam,"GVM Corporation, Visakhapatnam - APPCB",01-04-2024 13:00:00,17.72,83.3,NO2,33,49,40
India,Andhra_Pradesh,Visakhapatnam,"GVM Corporation, Visakhapatnam - APPCB",01-04-2024 13:00:00,17.72,83.3,SO2,10,17,13
India,Arunachal_Pradesh,Naharlagun,"Naharlagun, Naharlagun - APSPCB",01-04-2024 13:00:00,27.103358,93.679645,NO2,3,3,3
India,Assam,Byrnihat,"Central Academy for SFS, Byrnihat - PCBA",01-04-2024 13:00:00,26.071318,91.87488,PM2.5,NA,NA,NA
India,Assam,Byrnihat,"Central Academy for SFS, Byrnihat - PCBA",01-04-2024 13:00:00,26.071318,91.87488,NH3,4,16,8
India,Assam,Guwahati,"IITG, Guwahati - PCBA",01-04-2024 13:00:00,26.2028636,91.70046436,SO2,11,12,12
India,Assam,Guwahati,"IITG, Guwahati - PCBA",01-04-2024 13:00:00,26.2028636,91.70046436,CO,8,14,10
India,Assam,Guwahati,"IITG, Guwahati - PCBA",01-04-2024 13:00:00,26.2028636,91.70046436,OZONE,7,35,15
India,Assam,Guwahati,"LGBI Airport, Guwahati - PCBA",01-04-2024 13:00:00,26.10887,91.589544,CO,26,40,28
India,Assam,Guwahati,"LGBI Airport, Guwahati - PCBA",01-04-2024 13:00:00,26.10887,91.589544,OZONE,16,18,17
India,Assam,Guwahati,"Pan Bazaar, Guwahati - PCBA",01-04-2024 13:00:00,26.187500,91.744194,NH3,3,6,4
India,Assam,Nagaon,"Christianpatty, Nagaon - PCBA",01-04-2024 13:00:00,26.349082,92.68449,PM10,64,84,71
India,Assam,Nagaon,"Christianpatty, Nagaon - PCBA",01-04-2024 13:00:00,26.349082,92.68449,NO2,1,19,4
India,Assam,Nagaon,"Christianpatty, Nagaon - PCBA",01-04-2024 13:00:00,26.349082,92.68449,SO2,24,66,48
India,Assam,Nalbari,"Bata Chowk, Nalbari - PCBA",01-04-2024 13:00:00,26.446912,91.439057,PM10,30,131,59
India,Assam,Nalbari,"Bata Chowk, Nalbari - PCBA",01-04-2024 13:00:00,26.446912,91.439057,SO2,8,11,10
India,Assam,Nalbari,"Bata Chowk, Nalbari - PCBA",01-04-2024 13:00:00,26.446912,91.439057,OZONE,37,97,57
India,Assam,Silchar,"Tarapur, Silchar - PCBA",01-04-2024 13:00:00,24.82827,92.79525,OZONE,1,8,5
India,Assam,Sivasagar,"Girls College, Sivasagar - PCBA",01-04-2024 13:00:00,26.987634,94.636574,PM2.5,38,48,42
India,Assam,Sivasagar,"Girls College, Sivasagar - PCBA",01-04-2024 13:00:00,26.987634,94.636574,PM10,30,42,35
India,Assam,Sivasagar,"Girls College, Sivasagar - PCBA",01-04-2024 13:00:00,26.987634,94.636574,OZONE,1,8,2
India,Bihar,Aurangabad,"Gurdeo Nagar, Aurangabad - BSPCB",01-04-2024 13:00:00,24.75746,84.366208,PM10,34,103,65
India,Bihar,Bettiah,"Kamalnath Nagar, Bettiah - BSPCB",01-04-2024 13:00:00,26.80365,84.51954,NO2,8,8,8
India,Bihar,Bhagalpur,"DM Office_Kachari Chowk, Bhagalpur - BSPCB",01-04-2024 13:00:00,25.251013,86.989001,CO,36,76,46
India,Bihar,Bihar Sharif,"D M Colony, Bihar Sharif - BSPCB",01-04-2024 13:00:00,25.204762,85.514960,SO2,2,10,7
India,Bihar,Buxar,"Charitra Van, Buxar - BSPCB (Formerly known as Central Jail)",01-04-2024 13:00:00,25.567520,83.966379,NO2,28,116,56
India,Bihar,Chhapra,"Darshan Nagar, Chhapra - BSPCB",01-04-2024 13:00:00,25.7808257,84.7446768,NO2,15,32,24
India,Bihar,Chhapra,"Darshan Nagar, Chhapra - BSPCB",01-04-2024 13:00:00,25.7808257,84.7446768,CO,30,58,41
India,Bihar,Gaya,"Collectorate, Gaya - BSPCB",01-04-2024 13:00:00,24.7955,84.9994,OZONE,54,79,59
India,Bihar,Gaya,"SFTI Kusdihra, Gaya - BSPCB",01-04-2024 13:00:00,24.762518,84.982348,PM2.5,NA,NA,NA
India,Bihar,Katihar,"Mirchaibari, Katihar - BSPCB",01-04-2024 13:00:00,25.560083,87.553265,NO2,19,36,23
India,Bihar,Kishanganj,"SDM Office_Khagra, Kishanganj - BSPCB",01-04-2024 13:00:00,26.0881305,87.93840336,CO,4,6,6
India,Bihar,Manguraha,"Forest Rest House, Manguraha - BSPCB",01-04-2024 13:00:00,27.308328,84.531742,PM10,NA,NA,NA
India,Bihar,Manguraha,"Forest Rest House, Manguraha - BSPCB",01-04-2024 13:00:00,27.308328,84.531742,NO2,NA,NA,NA
India,Bihar,Motihari,"Gandak Colony, Motihari - BSPCB",01-04-2024 13:00:00,26.63086,84.90051,SO2,2,8,5
India,Bihar,Munger,"Town Hall, Munger - BSPCB",01-04-2024 13:00:00,25.376776,86.471523,NO2,8,10,9
India,Bihar,Munger,"Town Hall, Munger - BSPCB",01-04-2024 13:00:00,25.376776,86.471523,SO2,8,44,28
India,Bihar,Muzaffarpur,"Buddha Colony, Muzaffarpur - BSPCB",01-04-2024 13:00:00,26.11442,85.39813,NO2,1,45,21
India,Bihar,Muzaffarpur,"Buddha Colony, Muzaffarpur - BSPCB",01-04-2024 13:00:00,26.11442,85.39813,NH3,7,27,16
India,Bihar,Muzaffarpur,"Buddha Colony, Muzaffarpur - BSPCB",01-04-2024 13:00:00,26.11442,85.39813,CO,1,43,13
India,Bihar,Patna,"DRM Office Danapur, Patna - BSPCB",01-04-2024 13:00:00,25.586562,85.043586,SO2,6,10,8
India,Bihar,Patna,"Govt. High School Shikarpur, Patna - BSPCB",01-04-2024 13:00:00,25.592539,85.227158,CO,28,46,39
India,Bihar,Patna,"Muradpur, Patna - BSPCB",01-04-2024 13:00:00,25.619651,85.147382,NO2,6,19,12
India,Bihar,Patna,"Rajbansi Nagar, Patna - BSPCB",01-04-2024 13:00:00,25.599486,85.113666,PM2.5,101,208,145
India,Bihar,Patna,"Samanpura, Patna - BSPCB",01-04-2024 13:00:00,25.596727,85.085624,NH3,33,60,44
India,Bihar,Purnia,"Mariam Nagar, Purnia - BSPCB",01-04-2024 13:00:00,25.366336,87.117468,PM2.5,20,95,41
India,Bihar,Purnia,"Mariam Nagar, Purnia - BSPCB",01-04-2024 13:00:00,25.366336,87.117468,SO2,6,10,8
India,Bihar,Rajgir,"Dangi Tola, Rajgir - BSPCB",01-04-2024 13:00:00,25.03280,85.41948,NO2,1,1,1
India,Bihar,Rajgir,"Dangi Tola, Rajgir - BSPCB",01-04-2024 13:00:00,25.03280,85.41948,NH3,1,5,1
India,Bihar,Saharsa,"Police Line, Saharsa - BSPCB",01-04-2024 13:00:00,25.892357,86.590325,PM10,85,165,109
India,Bihar,Saharsa,"Police Line, Saharsa - BSPCB",01-04-2024 13:00:00,25.892357,86.590325,NH3,9,9,9
India,Bihar,Samastipur,"DM Office_Kasipur, Samastipur - BSPCB",01-04-2024 13:00:00,25.859655,85.77944,NO2,2,9,5
India,Bihar,Samastipur,"DM Office_Kasipur, Samastipur - BSPCB",01-04-2024 13:00:00,25.859655,85.77944,SO2,3,14,8
India,Bihar,Siwan,"Chitragupta Nagar, Siwan - BSPCB",01-04-2024 13:00:00,26.2271665,84.3570427,PM10,50,121,83
India,Bihar,Siwan,"Chitragupta Nagar, Siwan - BSPCB",01-04-2024 13:00:00,26.2271665,84.3570427,NO2,9,176,22
India,Bihar,Siwan,"Chitragupta Nagar, Siwan - BSPCB",01-04-2024 13:00:00,26.2271665,84.3570427,NH3,1,4,2
India,Chandigarh,Chandigarh,"Sector 22, Chandigarh - CPCC",01-04-2024 13:00:00,30.735567,76.775714,CO,28,44,43
India,Chandigarh,Chandigarh,"Sector-53, Chandigarh - CPCC",01-04-2024 13:00:00,30.719859,76.738637,PM10,62,119,86
India,Chandigarh,Chandigarh,"Sector-53, Chandigarh - CPCC",01-04-2024 13:00:00,30.719859,76.738637,CO,36,53,46
India,Chandigarh,Chandigarh,"Sector-53, Chandigarh - CPCC",01-04-2024 13:00:00,30.719859,76.738637,OZONE,12,54,22
India,Chhattisgarh,Bhilai,"32Bungalows, Bhilai - CECB",01-04-2024 13:00:00,21.194815,81.314770,PM10,28,62,43
India,Chhattisgarh,Bhilai,"32Bungalows, Bhilai - CECB",01-04-2024 13:00:00,21.194815,81.314770,NO2,22,34,31
India,Chhattisgarh,Bhilai,"Civic Center, Bhilai - Bhilai Steel Plant",01-04-2024 13:00:00,21.185571,81.343175,PM10,23,56,39
India,Chhattisgarh,Bhilai,"Civic Center, Bhilai - Bhilai Steel Plant",01-04-2024 13:00:00,21.185571,81.343175,CO,2,58,37
India,Chhattisgarh,Bhilai,"Hathkhoj, Bhilai - CECB",01-04-2024 13:00:00,21.224231,81.408350,PM2.5,13,78,42
India,Chhattisgarh,Bhilai,"Hathkhoj, Bhilai - CECB",01-04-2024 13:00:00,21.224231,81.408350,OZONE,9,20,13
India,Chhattisgarh,Bilaspur,"Mangala, Bilaspur - NTPC",01-04-2024 13:00:00,22.08815,82.13737,NO2,16,20,19
India,Chhattisgarh,Bilaspur,"Mangala, Bilaspur - NTPC",01-04-2024 13:00:00,22.08815,82.13737,SO2,16,23,19
India,Chhattisgarh,Korba,"Rampur, Korba - CECB",01-04-2024 13:00:00,22.368195,82.746431,PM10,44,112,72
India,Chhattisgarh,Korba,"Urja Nagar, Korba - CECB",01-04-2024 13:00:00,22.348441,82.549611,NH3,NA,NA,NA
India,Chhattisgarh,Raipur,"Siltara Phase-II, Raipur - CECB",01-04-2024 13:00:00,21.371751,81.664929,SO2,25,83,44
India,Delhi,Delhi,"Anand Vihar, Delhi - DPCC",01-04-2024 13:00:00,28.647622,77.3158090,PM2.5,NA,NA,NA
India,Delhi,Delhi,"Ashok Vihar, Delhi - DPCC",01-04-2024 13:00:00,28.695381,77.181665,PM10,95,209,143
India,Delhi,Delhi,"Bawana, Delhi - DPCC",01-04-2024 13:00:00,28.776200,77.051074,CO,34,62,51
India,Delhi,Delhi,"Burari Crossing, Delhi - IMD",01-04-2024 13:00:00,28.7256504,77.2011573,OZONE,15,45,20
India,Delhi,Delhi,"CRRI Mathura Road, Delhi - IMD",01-04-2024 13:00:00,28.5512005,77.2735737,OZONE,2,28,4
India,Delhi,Delhi,"DTU, Delhi - CPCB",01-04-2024 13:00:00,28.7500499,77.1112615,NO2,5,11,7
India,Delhi,Delhi,"DTU, Delhi - CPCB",01-04-2024 13:00:00,28.7500499,77.1112615,OZONE,29,128,32
India,Delhi,Delhi,"Dr. Karni Singh Shooting Range, Delhi - DPCC",01-04-2024 13:00:00,28.498571,77.264840,PM10,77,146,109
India,Delhi,Delhi,"Dr. Karni Singh Shooting Range, Delhi - DPCC",01-04-2024 13:00:00,28.498571,77.264840,CO,16,44,27
India,Delhi,Delhi,"Dr. Karni Singh Shooting Range, Delhi - DPCC",01-04-2024 13:00:00,28.498571,77.264840,OZONE,29,149,55
India,Delhi,Delhi,"Dwarka-Sector 8, Delhi - DPCC ",01-04-2024 13:00:00,28.5710274,77.0719006,PM10,72,357,149
India,Delhi,Delhi,"Dwarka-Sector 8, Delhi - DPCC ",01-04-2024 13:00:00,28.5710274,77.0719006,CO,40,94,68
India,Delhi,Delhi,"IGI Airport (T3), Delhi - IMD",01-04-2024 13:00:00,28.5627763,77.1180053,OZONE,2,26,4
India,Delhi,Delhi,"IHBAS, Dilshad Garden, Delhi - CPCB",01-04-2024 13:00:00,28.6811736,77.3025234,PM2.5,99,212,138
India,Delhi,Delhi,"ITO, Delhi - CPCB",01-04-2024 13:00:00,28.628624,77.241060,PM10,12,138,71
India,Delhi,Delhi,"Jahangirpuri, Delhi - DPCC",01-04-2024 13:00:00,28.732820,77.170633,NH3,9,13,11
India,Delhi,Delhi,"Jahangirpuri, Delhi - DPCC",01-04-2024 13:00:00,28.732820,77.170633,OZONE,5,49,15
India,Delhi,Delhi,"Jawaharlal Nehru Stadium, Delhi - DPCC",01-04-2024 13:00:00,28.580280,77.233829,OZONE,6,124,43
India,Delhi,Delhi,"Lodhi Road, Delhi - IITM",01-04-2024 13:00:00,28.588333,77.221667,SO2,15,38,24
India,Delhi,Delhi,"Lodhi Road, Delhi - IITM",01-04-2024 13:00:00,28.588333,77.221667,OZONE,16,32,17
India,Delhi,Delhi,"Lodhi Road, Delhi - IMD",01-04-2024 13:00:00,28.5918245,77.2273074,OZONE,9,28,13
India,Delhi,Delhi,"Major Dhyan Chand National Stadium, Delhi - DPCC",01-04-2024 13:00:00,28.611281,77.237738,SO2,13,33,21
India,Delhi,Delhi,"Mandir Marg, Delhi - DPCC",01-04-2024 13:00:00,28.636429,77.201067,CO,46,74,70
India,Delhi,Delhi,"Mundka, Delhi - DPCC",01-04-2024 13:00:00,28.684678,77.076574,PM10,109,410,198
India,Delhi,Delhi,"Mundka, Delhi - DPCC",01-04-2024 13:00:00,28.684678,77.076574,NO2,13,47,27
India,Delhi,Delhi,"Mundka, Delhi - DPCC",01-04-2024 13:00:00,28.684678,77.076574,NH3,8,14,10
India,Delhi,Delhi,"Mundka, Delhi - DPCC",01-04-2024 13:00:00,28.684678,77.076574,OZONE,4,82,20
India,Delhi,Delhi,"NSIT Dwarka, Delhi - CPCB",01-04-2024 13:00:00,28.60909,77.0325413,NO2,41,63,52
India,Delhi,Delhi,"NSIT Dwarka, Delhi - CPCB",01-04-2024 13:00:00,28.60909,77.0325413,SO2,5,29,19
India,Delhi,Delhi,"Najafgarh, Delhi - DPCC",01-04-2024 13:00:00,28.570173,76.933762,PM2.5,12,250,79
India,Delhi,Delhi,"Najafgarh, Delhi - DPCC",01-04-2024 13:00:00,28.570173,76.933762,SO2,2,19,11
India,Delhi,Delhi,"Nehru Nagar, Delhi - DPCC",01-04-2024 13:00:00,28.567890,77.250515,NH3,10,11,10
India,Delhi,Delhi,"North Campus, DU, Delhi - IMD",01-04-2024 13:00:00,28.6573814,77.1585447,PM2.5,46,190,93
India,Delhi,Delhi,"North Campus, DU, Delhi - IMD",01-04-2024 13:00:00,28.6573814,77.1585447,CO,22,64,52
India,Delhi,Delhi,"North Campus, DU, Delhi - IMD",01-04-2024 13:00:00,28.6573814,77.1585447,OZONE,2,45,8
India,Delhi,Delhi,"Okhla Phase-2, Delhi - DPCC",01-04-2024 13:00:00,28.530785,77.271255,CO,26,138,110
India,Delhi,Delhi,"Okhla Phase-2, Delhi - DPCC",01-04-2024 13:00:00,28.530785,77.271255,OZONE,15,80,30
India,Delhi,Delhi,"Patparganj, Delhi - DPCC",01-04-2024 13:00:00,28.623763,77.287209,PM10,81,185,134
India,Delhi,Delhi,"Punjabi Bagh, Delhi - DPCC",01-04-2024 13:00:00,28.674045,77.131023,PM10,68,197,120
India,Delhi,Delhi,"Punjabi Bagh, Delhi - DPCC",01-04-2024 13:00:00,28.674045,77.131023,NO2,17,48,35
India,Delhi,Delhi,"Pusa, Delhi - DPCC",01-04-2024 13:00:00,28.639652,77.146275,NO2,41,92,64
India,Delhi,Delhi,"Pusa, Delhi - DPCC",01-04-2024 13:00:00,28.639652,77.146275,NH3,5,12,9
India,Delhi,Delhi,"Pusa, Delhi - DPCC",01-04-2024 13:00:00,28.639652,77.146275,CO,11,62,48
India,Delhi,Delhi,"Pusa, Delhi - IMD",01-04-2024 13:00:00,28.636110,77.173332,PM10,81,175,122
India,Delhi,Delhi,"Pusa, Delhi - IMD",01-04-2024 13:00:00,28.636110,77.173332,NO2,9,18,12
India,Delhi,Delhi,"R K Puram, Delhi - DPCC",01-04-2024 13:00:00,28.563262,77.186937,SO2,1,42,17
India,Delhi,Delhi,"Rohini, Delhi - DPCC",01-04-2024 13:00:00,28.732528,77.119920,SO2,6,20,12
India,Delhi,Delhi,"Shadipur, Delhi - CPCB",01-04-2024 13:00:00,28.6514781,77.1473105,PM2.5,68,343,200
India,Delhi,Delhi,"Shadipur, Delhi - CPCB",01-04-2024 13:00:00,28.6514781,77.1473105,CO,26,114,63
India,Delhi,Delhi,"Sirifort, Delhi - CPCB",01-04-2024 13:00:00,28.5504249,77.2159377,PM10,73,167,115
India,Delhi,Delhi,"Sirifort, Delhi - CPCB",01-04-2024 13:00:00,28.5504249,77.2159377,NH3,4,8,6
India,Delhi,Delhi,"Sonia Vihar, Delhi - DPCC",01-04-2024 13:00:00,28.710508,77.249485,PM10,68,152,111
India,Delhi,Delhi,"Sonia Vihar, Delhi - DPCC",01-04-2024 13:00:00,28.710508,77.249485,CO,42,64,58
India,Delhi,Delhi,"Vivek Vihar, Delhi - DPCC",01-04-2024 13:00:00,28.672342,77.315260,PM2.5,42,244,85
India,Delhi,Delhi,"Vivek Vihar, Delhi - DPCC",01-04-2024 13:00:00,28.672342,77.315260,NH3,15,16,15
India,Gujarat,Ahmedabad,"Chandkheda, Ahmedabad - IITM",01-04-2024 13:00:00,23.107969,72.574648,NO2,7,10,9
India,Gujarat,Ahmedabad,"Chandkheda, Ahmedabad - IITM",01-04-2024 13:00:00,23.107969,72.574648,OZONE,5,49,22
India,Gujarat,Ahmedabad,"Maninagar, Ahmedabad - GPCB",01-04-2024 13:00:00,23.002657,72.591912,PM10,50,291,134
India,Gujarat,Ahmedabad,"Maninagar, Ahmedabad - GPCB",01-04-2024 13:00:00,23.002657,72.591912,NO2,21,100,46
India,Gujarat,Ahmedabad,"Raikhad, Ahmedabad - IITM",01-04-2024 13:00:00,23.020509,72.579261,NO2,26,154,67
India,Gujarat,Ahmedabad,"Rakhial, Ahmedabad - IITM",01-04-2024 13:00:00,23.016834,72.625775,PM10,64,144,113
India,Gujarat,Ahmedabad,"SAC ISRO Satellite, Ahmedabad - IITM",01-04-2024 13:00:00,23.023389,72.515201,NH3,NA,NA,NA
India,Gujarat,Ahmedabad,"SAC ISRO Satellite, Ahmedabad - IITM",01-04-2024 13:00:00,23.023389,72.515201,SO2,2,21,7
India,Gujarat,Ahmedabad,"SAC ISRO Satellite, Ahmedabad - IITM",01-04-2024 13:00:00,23.023389,72.515201,CO,26,39,33
India,Gujarat,Ahmedabad,"SVPI Airport Hansol, Ahmedabad - IITM",01-04-2024 13:00:00,23.076793,72.627874,PM10,35,130,99
India,Gujarat,Ahmedabad,"Sardar Vallabhbhai Patel Stadium, Ahmedabad - IITM",01-04-2024 13:00:00,23.043070,72.562968,NH3,6,6,6
India,Gujarat,Ankleshwar,"GIDC, Ankleshwar - GPCB",01-04-2024 13:00:00,21.613267,73.010555,PM10,56,128,87
India,Gujarat,Gandhinagar,"GIFT City, Gandhinagar - IITM",01-04-2024 13:00:00,23.163798,72.677768,NH3,8,9,9
India,Gujarat,Gandhinagar,"IIPHG Lekawada, Gandhinagar - IITM",01-04-2024 13:00:00,23.243639,72.68994,NH3,6,7,7
India,Gujarat,Gandhinagar,"Sector-10, Gandhinagar - GPCB",01-04-2024 13:00:00,23.221714,72.654328,NH3,1,2,2
India,Gujarat,Gandhinagar,"Sector-10, Gandhinagar - GPCB",01-04-2024 13:00:00,23.221714,72.654328,SO2,2,11,5
India,Gujarat,Nandesari,"GIDC, Nandesari - Nandesari Ind. Association",01-04-2024 13:00:00,22.410802,73.097923,PM10,94,438,221
India,Gujarat,Nandesari,"GIDC, Nandesari - Nandesari Ind. Association",01-04-2024 13:00:00,22.410802,73.097923,SO2,1,15,10
India,Gujarat,Vapi,"Phase-1 GIDC, Vapi - GPCB",01-04-2024 13:00:00,20.362421,72.918013,NO2,6,7,6
India,Gujarat,Vapi,"Phase-1 GIDC, Vapi - GPCB",01-04-2024 13:00:00,20.362421,72.918013,SO2,50,52,51
India,Haryana,Ambala,"Patti Mehar, Ambala - HSPCB",01-04-2024 13:00:00,30.379589,76.778328,PM2.5,4,47,31
India,Haryana,Ambala,"Patti Mehar, Ambala - HSPCB",01-04-2024 13:00:00,30.379589,76.778328,PM10,32,66,49
India,Haryana,Ambala,"Patti Mehar, Ambala - HSPCB",01-04-2024 13:00:00,30.379589,76.778328,SO2,2,103,70
India,Haryana,Ambala,"Patti Mehar, Ambala - HSPCB",01-04-2024 13:00:00,30.379589,76.778328,OZONE,1,28,16
India,Haryana,Bahadurgarh,"Arya Nagar, Bahadurgarh - HSPCB",01-04-2024 13:00:00,28.6701,76.9254,NH3,11,12,12
India,Haryana,Ballabgarh,"Nathu Colony, Ballabgarh - HSPCB",01-04-2024 13:00:00,28.3419248,77.319699,NO2,12,13,12
India,Haryana,Bhiwani,"H.B. Colony, Bhiwani - HSPCB",01-04-2024 13:00:00,28.806223,76.141105,PM2.5,45,135,71
India,Haryana,Charkhi Dadri,"Mini Secretariat, Charkhi Dadri - HSPCB",01-04-2024 13:00:00,28.593883,76.270653,NO2,14,23,18
India,Haryana,Charkhi Dadri,"Mini Secretariat, Charkhi Dadri - HSPCB",01-04-2024 13:00:00,28.593883,76.270653,OZONE,14,18,15
India,Haryana,Dharuhera,"Municipal Corporation Office, Dharuhera -  HSPCB",01-04-2024 13:00:00,28.206800,76.799700,PM2.5,NA,NA,NA
India,Haryana,Dharuhera,"Municipal Corporation Office, Dharuhera -  HSPCB",01-04-2024 13:00:00,28.206800,76.799700,NH3,NA,NA,NA
India,Haryana,Dharuhera,"Municipal Corporation Office, Dharuhera -  HSPCB",01-04-2024 13:00:00,28.206800,76.799700,CO,NA,NA,NA
India,Haryana,Faridabad,"New Industrial Town, Faridabad - HSPCB",01-04-2024 13:00:00,28.39072,77.30059,PM2.5,1,373,73
India,Haryana,Faridabad,"New Industrial Town, Faridabad - HSPCB",01-04-2024 13:00:00,28.39072,77.30059,NH3,NA,NA,NA
India,Haryana,Faridabad,"Sector 11, Faridabad - HSPCB",01-04-2024 13:00:00,28.376058,77.315741,OZONE,7,30,8
India,Haryana,Faridabad,"Sector 30, Faridabad - HSPCB",01-04-2024 13:00:00,28.4417,77.3217,PM2.5,NA,NA,NA
India,Haryana,Faridabad,"Sector 30, Faridabad - HSPCB",01-04-2024 13:00:00,28.4417,77.3217,OZONE,13,62,24
India,Haryana,Faridabad,"Sector- 16A, Faridabad - HSPCB",01-04-2024 13:00:00,28.4088421,77.3099081,NO2,13,41,27
India,Haryana,Gurugram,"Sector-51, Gurugram - HSPCB",01-04-2024 13:00:00,28.4227,77.0667,PM2.5,NA,NA,NA
India,Haryana,Gurugram,"Sector-51, Gurugram - HSPCB",01-04-2024 13:00:00,28.4227,77.0667,PM10,106,134,116
India,Haryana,Gurugram,"Sector-51, Gurugram - HSPCB",01-04-2024 13:00:00,28.4227,77.0667,CO,26,45,33
India,Haryana,Gurugram,"Sector-51, Gurugram - HSPCB",01-04-2024 13:00:00,28.4227,77.0667,OZONE,27,67,46
India,Haryana,Gurugram,"Teri Gram, Gurugram - HSPCB",01-04-2024 13:00:00,28.4275,77.1465,NO2,21,52,31
India,Haryana,Gurugram,"Teri Gram, Gurugram - HSPCB",01-04-2024 13:00:00,28.4275,77.1465,NH3,52,65,60
India,Haryana,Gurugram,"Teri Gram, Gurugram - HSPCB",01-04-2024 13:00:00,28.4275,77.1465,CO,13,23,16
India,Haryana,Gurugram,"Vikas Sadan, Gurugram - HSPCB",01-04-2024 13:00:00,28.4501238,77.0263051,CO,54,148,104
India,Haryana,Jind,"Police Lines, Jind - HSPCB",01-04-2024 13:00:00,29.307814,76.337619,PM10,30,67,50
India,Haryana,Jind,"Police Lines, Jind - HSPCB",01-04-2024 13:00:00,29.307814,76.337619,NH3,2,5,4
India,Haryana,Kaithal,"Rishi Nagar, Kaithal - HSPCB",01-04-2024 13:00:00,29.8006,76.4155,PM2.5,19,59,35
India,Haryana,Kaithal,"Rishi Nagar, Kaithal - HSPCB",01-04-2024 13:00:00,29.8006,76.4155,NH3,8,8,8
India,Haryana,Kaithal,"Rishi Nagar, Kaithal - HSPCB",01-04-2024 13:00:00,29.8006,76.4155,SO2,2,40,21
India,Haryana,Kaithal,"Rishi Nagar, Kaithal - HSPCB",01-04-2024 13:00:00,29.8006,76.4155,CO,3,18,8
India,Haryana,Karnal,"Sector-12, Karnal - HSPCB",01-04-2024 13:00:00,29.695300,77.002700,PM2.5,50,68,60
India,Haryana,Karnal,"Sector-12, Karnal - HSPCB",01-04-2024 13:00:00,29.695300,77.002700,NO2,7,12,10
India,Haryana,Kurukshetra,"Sector-7, Kurukshetra - HSPCB",01-04-2024 13:00:00,29.966942,76.875879,NH3,5,5,5
India,Haryana,Kurukshetra,"Sector-7, Kurukshetra - HSPCB",01-04-2024 13:00:00,29.966942,76.875879,CO,1,29,15
India,Haryana,Kurukshetra,"Sector-7, Kurukshetra - HSPCB",01-04-2024 13:00:00,29.966942,76.875879,OZONE,21,73,32
India,Haryana,Mandikhera,"General Hospital, Mandikhera - HSPCB",01-04-2024 13:00:00,27.9002,76.9938,CO,5,87,25
India,Haryana,Mandikhera,"General Hospital, Mandikhera - HSPCB",01-04-2024 13:00:00,27.9002,76.9938,OZONE,23,31,27
India,Haryana,Manesar,"Sector-2 IMT, Manesar - HSPCB",01-04-2024 13:00:00,28.360699,76.936090,PM10,29,77,44
India,Haryana,Narnaul,"Shastri Nagar, Narnaul - HSPCB",01-04-2024 13:00:00,28.060249,76.113115,SO2,13,39,18
India,Haryana,Palwal,"Shyam Nagar, Palwal - HSPCB",01-04-2024 13:00:00,28.1485564,77.3320667,PM10,45,92,70
India,Haryana,Palwal,"Shyam Nagar, Palwal - HSPCB",01-04-2024 13:00:00,28.1485564,77.3320667,NH3,8,9,9
India,Haryana,Palwal,"Shyam Nagar, Palwal - HSPCB",01-04-2024 13:00:00,28.1485564,77.3320667,CO,22,30,25
India,Haryana,Panipat,"Sector-18, Panipat - HSPCB",01-04-2024 13:00:00,29.497973,76.993331,PM10,64,67,65
India,Haryana,Panipat,"Sector-18, Panipat - HSPCB",01-04-2024 13:00:00,29.497973,76.993331,SO2,18,19,19
India,Haryana,Rohtak,"MD University, Rohtak - HSPCB",01-04-2024 13:00:00,28.52123,76.37138,PM2.5,2,87,13
India,Haryana,Sirsa,"F-Block, Sirsa - HSPCB",01-04-2024 13:00:00,29.536400,75.015800,NO2,10,10,10
India,Haryana,Sirsa,"F-Block, Sirsa - HSPCB",01-04-2024 13:00:00,29.536400,75.015800,CO,28,42,40
India,Haryana,Sonipat,"Murthal, Sonipat - HSPCB",01-04-2024 13:00:00,29.027200,77.062100,SO2,13,29,20
India,Haryana,Yamuna Nagar,"Gobind Pura, Yamuna Nagar - HSPCB",01-04-2024 13:00:00,30.1480566,77.2893471,OZONE,17,34,20
India,Jharkhand,Dhanbad,"Kalakusuma, Dhanbad - DMC",01-04-2024 13:00:00,23.811548,86.481238,PM10,11,84,58
India,Jharkhand,Dhanbad,"Kalakusuma, Dhanbad - DMC",01-04-2024 13:00:00,23.811548,86.481238,CO,128,134,131
India,Jharkhand,Pathardih,"Mohalbani Ghat, Pathardih - DMC",01-04-2024 13:00:00,23.669880,86.411725,SO2,NA,NA,NA
India,Karnataka,Bengaluru,"Bapuji Nagar, Bengaluru - KSPCB",01-04-2024 13:00:00,12.951913,77.539784,NO2,2,13,10
India,Karnataka,Bengaluru,"Bapuji Nagar, Bengaluru - KSPCB",01-04-2024 13:00:00,12.951913,77.539784,SO2,3,9,6
India,Karnataka,Bengaluru,"Hebbal, Bengaluru - KSPCB",01-04-2024 13:00:00,13.029152,77.585901,PM10,NA,NA,NA
India,Karnataka,Bengaluru,"Hombegowda Nagar, Bengaluru - KSPCB",01-04-2024 13:00:00,12.938539,77.590100,SO2,4,5,4
India,Karnataka,Bengaluru,"Jayanagar 5th Block, Bengaluru - KSPCB",01-04-2024 13:00:00,12.920984,77.584908,NO2,7,18,10
India,Karnataka,Bengaluru,"Jayanagar 5th Block, Bengaluru - KSPCB",01-04-2024 13:00:00,12.920984,77.584908,NH3,3,5,4
India,Karnataka,Bengaluru,"Jayanagar 5th Block, Bengaluru - KSPCB",01-04-2024 13:00:00,12.920984,77.584908,SO2,14,25,19
India,Karnataka,Bengaluru,"Kasturi Nagar, Bengaluru - KSPCB",01-04-2024 13:00:00,13.003872,77.664217,NH3,3,4,4
India,Karnataka,Bengaluru,"Sanegurava Halli, Bengaluru - KSPCB",01-04-2024 13:00:00,12.990328,77.5431385,SO2,2,3,3
India,Karnataka,Bengaluru,"Shivapura_Peenya, Bengaluru - KSPCB",01-04-2024 13:00:00,13.0246342,77.5080115,SO2,5,20,11
India,Karnataka,Bengaluru,"Silk Board, Bengaluru - KSPCB",01-04-2024 13:00:00,12.917348,77.622813,PM2.5,NA,NA,NA
India,Karnataka,Bengaluru,"Silk Board, Bengaluru - KSPCB",01-04-2024 13:00:00,12.917348,77.622813,CO,23,26,25
India,Karnataka,Bidar,"Naubad, Bidar - KSPCB",01-04-2024 13:00:00,17.930306,77.482194,PM10,NA,NA,NA
India,Karnataka,Chamarajanagar,"Urban, Chamarajanagar - KSPCB",01-04-2024 13:00:00,11.55358,76.55521,NO2,23,41,32
India,Karnataka,Chamarajanagar,"Urban, Chamarajanagar - KSPCB",01-04-2024 13:00:00,11.55358,76.55521,NH3,1,2,1
India,Karnataka,Chikkaballapur,"Chikkaballapur Rural, Chikkaballapur - KSPCB",01-04-2024 13:00:00,13.428828,77.731418,SO2,14,25,19
India,Karnataka,Chikkaballapur,"Chikkaballapur Rural, Chikkaballapur - KSPCB",01-04-2024 13:00:00,13.428828,77.731418,CO,12,28,17
India,Karnataka,Davanagere,"Devaraj Urs Badavane, Davanagere - KSPCB",01-04-2024 13:00:00,14.475800,75.905200,PM2.5,22,88,52
India,Karnataka,Davanagere,"Devaraj Urs Badavane, Davanagere - KSPCB",01-04-2024 13:00:00,14.475800,75.905200,NH3,1,2,1
India,Karnataka,Dharwad,"Kalabhavan, Dharwad - KSPCB",01-04-2024 13:00:00,15.459706,75.008381,OZONE,2,32,2
India,Karnataka,Gadag,"Panchal Nagar, Gadag - KSPCB",01-04-2024 13:00:00,15.411456,75.638133,NO2,6,21,13
India,Karnataka,Haveri,"Ashwini Nagar, Haveri - KSPCB",01-04-2024 13:00:00,14.791800,75.389600,PM10,NA,NA,NA
India,Karnataka,Haveri,"Ashwini Nagar, Haveri - KSPCB",01-04-2024 13:00:00,14.791800,75.389600,NO2,30,37,33
India,Karnataka,Haveri,"Ashwini Nagar, Haveri - KSPCB",01-04-2024 13:00:00,14.791800,75.389600,OZONE,18,19,19
India,Karnataka,Kalaburagi,"Lal Bahadur Shastri Nagar, Kalaburagi - KSPCB",01-04-2024 13:00:00,17.321993,76.822628,OZONE,8,105,28
India,Karnataka,Koppal,"Diwator Nagar, Koppal - KSPCB",01-04-2024 13:00:00,15.347630,76.181767,PM2.5,NA,NA,NA
India,Karnataka,Madikeri,"Stuart Hill, Madikeri - KSPCB",01-04-2024 13:00:00,12.415911,75.735050,PM10,32,49,39
India,Karnataka,Madikeri,"Stuart Hill, Madikeri - KSPCB",01-04-2024 13:00:00,12.415911,75.735050,NO2,2,7,3
India,Karnataka,Madikeri,"Stuart Hill, Madikeri - KSPCB",01-04-2024 13:00:00,12.415911,75.735050,NH3,1,1,1
India,Karnataka,Madikeri,"Stuart Hill, Madikeri - KSPCB",01-04-2024 13:00:00,12.415911,75.735050,SO2,4,4,4
India,Karnataka,Madikeri,"Stuart Hill, Madikeri - KSPCB",01-04-2024 13:00:00,12.415911,75.735050,OZONE,22,48,28
India,Karnataka,Mangalore,"Kadri, Mangalore - KSPCB",01-04-2024 13:00:00,12.889250,74.853000,PM10,29,41,35
India,Karnataka,Mysuru,"Hebbal 1st Stage, Mysuru - KSPCB",01-04-2024 13:00:00,12.21041,76.37376,PM10,31,97,59
India,Karnataka,Ramanagara,"Vijay Nagar, Ramanagara - KSPCB",01-04-2024 13:00:00,12.733409,77.298051,PM10,24,62,38
India,Karnataka,Ramanagara,"Vijay Nagar, Ramanagara - KSPCB",01-04-2024 13:00:00,12.733409,77.298051,NO2,3,12,6
India,Karnataka,Shivamogga,"Vinoba Nagara, Shivamogga - KSPCB",01-04-2024 13:00:00,13.940000,75.555917,NH3,2,3,3
India,Karnataka,Shivamogga,"Vinoba Nagara, Shivamogga - KSPCB",01-04-2024 13:00:00,13.940000,75.555917,SO2,3,10,7
India,Karnataka,Udupi,"Brahmagiri, Udupi - KSPCB",01-04-2024 13:00:00,13.34194444,74.74694444,SO2,NA,NA,NA
India,Karnataka,Udupi,"Brahmagiri, Udupi - KSPCB",01-04-2024 13:00:00,13.34194444,74.74694444,CO,50,50,50
India,Karnataka,Vijayapura,"Ibrahimpur, Vijayapura - KSPCB",01-04-2024 13:00:00,16.802639,75.722694,PM2.5,26,31,30
India,Karnataka,Vijayapura,"Ibrahimpur, Vijayapura - KSPCB",01-04-2024 13:00:00,16.802639,75.722694,NH3,2,2,2
India,Karnataka,Yadgir,"Collector Office, Yadgir - KSPCB",01-04-2024 13:00:00,16.7602,77.1428,PM2.5,37,76,54
India,Karnataka,Yadgir,"Collector Office, Yadgir - KSPCB",01-04-2024 13:00:00,16.7602,77.1428,PM10,45,116,69
India,Karnataka,Yadgir,"Collector Office, Yadgir - KSPCB",01-04-2024 13:00:00,16.7602,77.1428,NO2,5,9,6
India,Karnataka,Yadgir,"Collector Office, Yadgir - KSPCB",01-04-2024 13:00:00,16.7602,77.1428,SO2,5,42,19
India,Karnataka,Yadgir,"Collector Office, Yadgir - KSPCB",01-04-2024 13:00:00,16.7602,77.1428,CO,11,26,16
India,Kerala,Kollam,"Polayathode, Kollam - Kerala PCB",01-04-2024 13:00:00,8.8787,76.6073,PM2.5,NA,NA,NA
India,Kerala,Kollam,"Polayathode, Kollam - Kerala PCB",01-04-2024 13:00:00,8.8787,76.6073,PM10,10,500,65
India,Kerala,Thiruvananthapuram,"Kariavattom, Thiruvananthapuram - Kerala PCB",01-04-2024 13:00:00,8.563700,76.886500,NO2,8,10,9
India,Kerala,Thiruvananthapuram,"Kariavattom, Thiruvananthapuram - Kerala PCB",01-04-2024 13:00:00,8.563700,76.886500,OZONE,27,31,30
India,Kerala,Thrissur,"Corporation Ground, Thrissur - Kerala PCB",01-04-2024 13:00:00,10.532400,76.215900,PM2.5,44,51,47
India,Madhya Pradesh,Bhopal,"Idgah Hills, Bhopal - MPPCB",01-04-2024 13:00:00,23.264759,77.381568,PM2.5,32,93,58
India,Madhya Pradesh,Bhopal,"Idgah Hills, Bhopal - MPPCB",01-04-2024 13:00:00,23.264759,77.381568,PM10,66,139,113
India,Madhya Pradesh,Bhopal,"Idgah Hills, Bhopal - MPPCB",01-04-2024 13:00:00,23.264759,77.381568,SO2,18,20,19
India,Madhya Pradesh,Bhopal,"Idgah Hills, Bhopal - MPPCB",01-04-2024 13:00:00,23.264759,77.381568,OZONE,24,95,50
India,Madhya Pradesh,Bhopal,"Paryavaran Parisar, Bhopal - MPPCB",01-04-2024 13:00:00,23.210494,77.425409,CO,14,65,23
India,Madhya Pradesh,Gwalior,"City Center, Gwalior - MPPCB",01-04-2024 13:00:00,26.203442,78.193251,NH3,6,8,7
India,Madhya Pradesh,Gwalior,"City Center, Gwalior - MPPCB",01-04-2024 13:00:00,26.203442,78.193251,CO,40,88,50
India,Madhya Pradesh,Gwalior,"Deen Dayal Nagar, Gwalior - MPPCB",01-04-2024 13:00:00,26.259242,78.216432,SO2,12,16,14
India,Madhya Pradesh,Gwalior,"Maharaj Bada, Gwalior - MPPCB",01-04-2024 13:00:00,26.200388,78.147714,PM2.5,13,90,48
India,Madhya Pradesh,Indore,"Chhoti Gwaltoli, Indore - MPPCB",01-04-2024 13:00:00,22.4310,75.5213,PM10,100,199,133
India,Madhya Pradesh,Indore,"Regional Park, Indore - IMC",01-04-2024 13:00:00,22.6780,75.8559,PM2.5,31,100,59
India,Madhya Pradesh,Indore,"Regional Park, Indore - IMC",01-04-2024 13:00:00,22.6780,75.8559,PM10,NA,NA,NA
India,Madhya Pradesh,Indore,"Residency Area, Indore - IMC",01-04-2024 13:00:00,22.7084,75.8815,OZONE,11,16,12
India,Madhya Pradesh,Jabalpur,"Govindh Bhavan Colony, Jabalpur - JMC",01-04-2024 13:00:00,23.163174,79.973061,CO,2,41,30
India,Madhya Pradesh,Jabalpur,"Marhatal, Jabalpur - MPPCB",01-04-2024 13:00:00,23.168606,79.932247,PM10,74,193,131
India,Madhya Pradesh,Jabalpur,"Marhatal, Jabalpur - MPPCB",01-04-2024 13:00:00,23.168606,79.932247,CO,52,124,77
India,Madhya Pradesh,Jabalpur,"Suhagi, Jabalpur - JMC",01-04-2024 13:00:00,23.218135,79.957770,PM2.5,47,353,187
India,Madhya Pradesh,Jabalpur,"Suhagi, Jabalpur - JMC",01-04-2024 13:00:00,23.218135,79.957770,PM10,39,214,110
India,Madhya Pradesh,Jabalpur,"Suhagi, Jabalpur - JMC",01-04-2024 13:00:00,23.218135,79.957770,NO2,39,46,43
India,Madhya Pradesh,Jabalpur,"Suhagi, Jabalpur - JMC",01-04-2024 13:00:00,23.218135,79.957770,CO,20,103,51
India,Madhya Pradesh,Jabalpur,"Suhagi, Jabalpur - JMC",01-04-2024 13:00:00,23.218135,79.957770,OZONE,2,94,44
India,Madhya Pradesh,Katni,"Gole Bazar, Katni - MPPCB",01-04-2024 13:00:00,23.50016,80.23284,PM10,73,261,150
India,Madhya Pradesh,Mandideep,"Sector-D Industrial Area, Mandideep - MPPCB",01-04-2024 13:00:00,23.108440,77.511428,PM2.5,NA,NA,NA
India,Madhya Pradesh,Pithampur,"Sector-2 Industrial Area, Pithampur - MPPCB",01-04-2024 13:00:00,22.624758,75.675238,PM2.5,33,301,87
India,Madhya Pradesh,Sagar,"Deen Dayal Nagar, Sagar - MPPCB",01-04-2024 13:00:00,23.8640158,78.80289321,PM10,19,76,43
India,Madhya Pradesh,Sagar,"Deen Dayal Nagar, Sagar - MPPCB",01-04-2024 13:00:00,23.8640158,78.80289321,NO2,10,24,23
India,Madhya Pradesh,Ujjain,"Mahakaleshwar Temple, Ujjain - MPPCB",01-04-2024 13:00:00,23.182719 ,75.768218 ,PM10,NA,NA,NA
