country,state,city,station,last_update,latitude,longitude,pollutant_id,pollutant_min,pollutant_max,pollutant_avg
India,Andhra_Pradesh,Anantapur,"Gulzarpet, Anantapur - APPCB",26-04-2024 08:00:00,14.675886,77.593027,PM2.5,28,55,40
India,Andhra_Pradesh,Anantapur,"Gulzarpet, Anantapur - APPCB",26-04-2024 08:00:00,14.675886,77.593027,CO,24,42,31
India,Andhra_Pradesh,Chittoor,"Gangineni Cheruvu, Chittoor - APPCB",26-04-2024 08:00:00,13.204880,79.097889,PM2.5,30,116,71
India,Andhra_Pradesh,Chittoor,"Gangineni Cheruvu, Chittoor - APPCB",26-04-2024 08:00:00,13.204880,79.097889,NH3,1,2,1
India,Andhra_Pradesh,Rajamahendravaram,"Anand Kala Kshetram, Rajamahendravaram - APPCB",26-04-2024 08:00:00,16.9872867,81.7363176,PM10,17,63,40
India,Andhra_Pradesh,Tirupati,"Vaikuntapuram, Tirupati - APPCB",26-04-2024 08:00:00,13.615387,79.409230,PM2.5,NA,NA,NA
India,Andhra_Pradesh,Vijayawada,"Rajiv Gandhi Park, Vijayawada - APPCB",26-04-2024 08:00:00,16.509717,80.612222,NO2,32,76,52
India,Andhra_Pradesh,Vijayawada,"Rajiv Nagar, Vijayawada - APPCB",26-04-2024 08:00:00,16.554731,80.649110,CO,40,40,40
India,Andhra_Pradesh,Visakhapatnam,"GVM Corporation, Visakhapatnam - APPCB",26-04-2024 08:00:00,17.72,83.3,PM10,63,173,95
India,Andhra_Pradesh,Visakhapatnam,"GVM Corporation, Visakhapatnam - APPCB",26-04-2024 08:00:00,17.72,83.3,NH3,3,7,4
India,Andhra_Pradesh,Visakhapatnam,"GVM Corporation, Visakhapatnam - APPCB",26-04-2024 08:00:00,17.72,83.3,CO,2,47,19
India,Arunachal_Pradesh,Naharlagun,"Naharlagun, Naharlagun - APSPCB",26-04-2024 08:00:00,27.103358,93.679645,PM10,NA,NA,NA
India,Assam,Byrnihat,"Central Academy for SFS, Byrnihat - PCBA",26-04-2024 08:00:00,26.071318,91.87488,PM10,83,291,184
India,Assam,Guwahati,"LGBI Airport, Guwahati - PCBA",26-04-2024 08:00:00,26.10887,91.589544,NO2,30,90,56
India,Assam,Guwahati,"Pan Bazaar, Guwahati - PCBA",26-04-2024 08:00:00,26.187500,91.744194,SO2,37,66,54
India,Assam,Nagaon,"Christianpatty, Nagaon - PCBA",26-04-2024 08:00:00,26.349082,92.68449,CO,31,69,36
India,Assam,Nagaon,"Christianpatty, Nagaon - PCBA",26-04-2024 08:00:00,26.349082,92.68449,OZONE,54,94,64
India,Assam,Silchar,"Tarapur, Silchar - PCBA",26-04-2024 08:00:00,24.82827,92.79525,PM2.5,22,49,32
India,Assam,Sivasagar,"Girls College, Sivasagar - PCBA",26-04-2024 08:00:00,26.987634,94.636574,PM2.5,30,58,38
India,Assam,Sivasagar,"Girls College, Sivasagar - PCBA",26-04-2024 08:00:00,26.987634,94.636574,NO2,9,16,12
India,Bihar,Bhagalpur,"DM Office_Kachari Chowk, Bhagalpur - BSPCB",26-04-2024 08:00:00,25.251013,86.989001,NH3,3,4,4
India,Bihar,Bhagalpur,"DM Office_Kachari Chowk, Bhagalpur - BSPCB",26-04-2024 08:00:00,25.251013,86.989001,SO2,14,16,15
India,Bihar,Bhagalpur,"Mayaganj, Bhagalpur - BSPCB",26-04-2024 08:00:00,25.265194,87.012947,PM10,NA,NA,NA
India,Bihar,Bihar Sharif,"D M Colony, Bihar Sharif - BSPCB",26-04-2024 08:00:00,25.204762,85.514960,CO,50,84,65
India,Bihar,Chhapra,"Darshan Nagar, Chhapra - BSPCB",26-04-2024 08:00:00,25.7808257,84.7446768,NO2,21,34,27
India,Bihar,Gaya,"Kareemganj, Gaya - BSPCB",26-04-2024 08:00:00,24.792403,84.992416,OZONE,2,20,15
India,Bihar,Gaya,"SFTI Kusdihra, Gaya - BSPCB",26-04-2024 08:00:00,24.762518,84.982348,PM10,56,106,72
India,Bihar,Gaya,"SFTI Kusdihra, Gaya - BSPCB",26-04-2024 08:00:00,24.762518,84.982348,NO2,21,89,45
India,Bihar,Katihar,"Mirchaibari, Katihar - BSPCB",26-04-2024 08:00:00,25.560083,87.553265,SO2,15,24,18
India,Bihar,Katihar,"Mirchaibari, Katihar - BSPCB",26-04-2024 08:00:00,25.560083,87.553265,OZONE,12,38,12
India,Bihar,Kishanganj,"SDM Office_Khagra, Kishanganj - BSPCB",26-04-2024 08:00:00,26.0881305,87.93840336,PM2.5,53,333,129
India,Bihar,Kishanganj,"SDM Office_Khagra, Kishanganj - BSPCB",26-04-2024 08:00:00,26.0881305,87.93840336,PM10,147,497,235
India,Bihar,Kishanganj,"SDM Office_Khagra, Kishanganj - BSPCB",26-04-2024 08:00:00,26.0881305,87.93840336,SO2,1,12,4
India,Bihar,Kishanganj,"SDM Office_Khagra, Kishanganj - BSPCB",26-04-2024 08:00:00,26.0881305,87.93840336,CO,2,22,5
India,Bihar,Motihari,"Gandak Colony, Motihari - BSPCB",26-04-2024 08:00:00,26.63086,84.90051,PM10,27,236,81
India,Bihar,Motihari,"Gandak Colony, Motihari - BSPCB",26-04-2024 08:00:00,26.63086,84.90051,CO,4,24,16
India,Bihar,Patna,"DRM Office Danapur, Patna - BSPCB",26-04-2024 08:00:00,25.586562,85.043586,NO2,8,117,52
India,Bihar,Patna,"Govt. High School Shikarpur, Patna - BSPCB",26-04-2024 08:00:00,25.592539,85.227158,PM10,128,436,220
India,Bihar,Patna,"Govt. High School Shikarpur, Patna - BSPCB",26-04-2024 08:00:00,25.592539,85.227158,NH3,5,5,5
India,Bihar,Patna,"Govt. High School Shikarpur, Patna - BSPCB",26-04-2024 08:00:00,25.592539,85.227158,SO2,7,12,9
India,Bihar,Patna,"IGSC Planetarium Complex, Patna - BSPCB",26-04-2024 08:00:00,25.610369,85.132568,SO2,NA,NA,NA
India,Bihar,Patna,"Muradpur, Patna - BSPCB",26-04-2024 08:00:00,25.619651,85.147382,SO2,7,16,9
India,Bihar,Patna,"Muradpur, Patna - BSPCB",26-04-2024 08:00:00,25.619651,85.147382,OZONE,3,91,21
India,Bihar,Patna,"Rajbansi Nagar, Patna - BSPCB",26-04-2024 08:00:00,25.599486,85.113666,PM10,136,447,190
India,Bihar,Patna,"Rajbansi Nagar, Patna - BSPCB",26-04-2024 08:00:00,25.599486,85.113666,NH3,5,18,11
India,Bihar,Purnia,"Mariam Nagar, Purnia - BSPCB",26-04-2024 08:00:00,25.366336,87.117468,CO,8,58,44
India,Bihar,Purnia,"Mariam Nagar, Purnia - BSPCB",26-04-2024 08:00:00,25.366336,87.117468,OZONE,5,27,7
India,Bihar,Rajgir,"Dangi Tola, Rajgir - BSPCB",26-04-2024 08:00:00,25.03280,85.41948,CO,22,40,28
India,Bihar,Rajgir,"Dangi Tola, Rajgir - BSPCB",26-04-2024 08:00:00,25.03280,85.41948,OZONE,30,38,33
India,Bihar,Saharsa,"Police Line, Saharsa - BSPCB",26-04-2024 08:00:00,25.892357,86.590325,NH3,9,9,9
India,Bihar,Samastipur,"DM Office_Kasipur, Samastipur - BSPCB",26-04-2024 08:00:00,25.859655,85.77944,PM10,139,485,244
India,Bihar,Sasaram,"Dada Peer, Sasaram - BSPCB",26-04-2024 08:00:00,24.952822,84.002396,PM2.5,8,44,28
India,Bihar,Sasaram,"Dada Peer, Sasaram - BSPCB",26-04-2024 08:00:00,24.952822,84.002396,PM10,35,115,77
India,Chandigarh,Chandigarh,"Sector 22, Chandigarh - CPCC",26-04-2024 08:00:00,30.735567,76.775714,SO2,5,46,22
India,Chandigarh,Chandigarh,"Sector-25, Chandigarh - CPCC",26-04-2024 08:00:00,30.751462,76.762879,PM10,98,138,115
India,Chandigarh,Chandigarh,"Sector-25, Chandigarh - CPCC",26-04-2024 08:00:00,30.751462,76.762879,NH3,8,31,15
India,Chandigarh,Chandigarh,"Sector-25, Chandigarh - CPCC",26-04-2024 08:00:00,30.751462,76.762879,SO2,10,21,16
India,Chandigarh,Chandigarh,"Sector-53, Chandigarh - CPCC",26-04-2024 08:00:00,30.719859,76.738637,NO2,7,88,37
India,Chhattisgarh,Bhilai,"32Bungalows, Bhilai - CECB",26-04-2024 08:00:00,21.194815,81.314770,PM10,51,100,75
India,Chhattisgarh,Bhilai,"Civic Center, Bhilai - Bhilai Steel Plant",26-04-2024 08:00:00,21.185571,81.343175,NO2,13,18,15
India,Chhattisgarh,Bhilai,"Hathkhoj, Bhilai - CECB",26-04-2024 08:00:00,21.224231,81.408350,SO2,15,82,31
India,Chhattisgarh,Chhal,"Nawapara SECL Colony, Chhal - CECB",26-04-2024 08:00:00,22.118125,83.140608,PM10,39,257,92
India,Chhattisgarh,Chhal,"Nawapara SECL Colony, Chhal - CECB",26-04-2024 08:00:00,22.118125,83.140608,NO2,15,71,34
India,Chhattisgarh,Korba,"Rampur, Korba - CECB",26-04-2024 08:00:00,22.368195,82.746431,PM10,45,109,81
India,Chhattisgarh,Milupara,"Govt. Higher Secondary School, Milupara - CECB",26-04-2024 08:00:00,22.1910172,83.5197009,PM2.5,NA,NA,NA
India,Chhattisgarh,Raipur,"AIIMS, Raipur - CECB",26-04-2024 08:00:00,21.258815,81.578979,NO2,13,31,21
India,Chhattisgarh,Raipur,"Bhatagaon New ISBT, Raipur - CECB",26-04-2024 08:00:00,21.219665,81.630094,PM10,NA,NA,NA
India,Chhattisgarh,Raipur,"Bhatagaon New ISBT, Raipur - CECB",26-04-2024 08:00:00,21.219665,81.630094,CO,NA,NA,NA
India,Chhattisgarh,Raipur,"Krishak Nagar, Raipur - CECB",26-04-2024 08:00:00,21.237755,81.705301,CO,22,44,33
India,Chhattisgarh,Raipur,"Siltara Phase-II, Raipur - CECB",26-04-2024 08:00:00,21.371751,81.664929,PM2.5,27,271,121
India,Chhattisgarh,Raipur,"Siltara Phase-II, Raipur - CECB",26-04-2024 08:00:00,21.371751,81.664929,OZONE,3,50,5
India,Chhattisgarh,Tumidih,"OP Jindal Industrial Park, Tumidih - CECB",26-04-2024 08:00:00,22.06631475,83.33820077,CO,16,52,38
India,Chhattisgarh,Tumidih,"OP Jindal Industrial Park, Tumidih - CECB",26-04-2024 08:00:00,22.06631475,83.33820077,OZONE,4,82,13
India,Delhi,Delhi,"Anand Vihar, Delhi - DPCC",26-04-2024 08:00:00,28.647622,77.3158090,NH3,3,12,7
India,Delhi,Delhi,"Anand Vihar, Delhi - DPCC",26-04-2024 08:00:00,28.647622,77.3158090,OZONE,4,107,10
India,Delhi,Delhi,"Ashok Vihar, Delhi - DPCC",26-04-2024 08:00:00,28.695381,77.181665,SO2,15,101,33
India,Delhi,Delhi,"Aya Nagar, Delhi - IMD",26-04-2024 08:00:00,28.4706914,77.1099364,PM2.5,NA,NA,NA
India,Delhi,Delhi,"Aya Nagar, Delhi - IMD",26-04-2024 08:00:00,28.4706914,77.1099364,NO2,NA,NA,NA
India,Delhi,Delhi,"Bawana, Delhi - DPCC",26-04-2024 08:00:00,28.776200,77.051074,NH3,4,7,6
India,Delhi,Delhi,"Burari Crossing, Delhi - IMD",26-04-2024 08:00:00,28.7256504,77.2011573,PM2.5,12,354,167
India,Delhi,Delhi,"Burari Crossing, Delhi - IMD",26-04-2024 08:00:00,28.7256504,77.2011573,CO,18,94,47
India,Delhi,Delhi,"Chandni Chowk, Delhi - IITM",26-04-2024 08:00:00,28.656756,77.227234,PM10,60,226,136
India,Delhi,Delhi,"Chandni Chowk, Delhi - IITM",26-04-2024 08:00:00,28.656756,77.227234,OZONE,8,26,9
India,Delhi,Delhi,"Dr. Karni Singh Shooting Range, Delhi - DPCC",26-04-2024 08:00:00,28.498571,77.264840,SO2,14,66,26
India,Delhi,Delhi,"IGI Airport (T3), Delhi - IMD",26-04-2024 08:00:00,28.5627763,77.1180053,CO,34,119,102
India,Delhi,Delhi,"IGI Airport (T3), Delhi - IMD",26-04-2024 08:00:00,28.5627763,77.1180053,OZONE,4,46,9
India,Delhi,Delhi,"ITO, Delhi - CPCB",26-04-2024 08:00:00,28.628624,77.241060,PM10,63,240,128
India,Delhi,Delhi,"ITO, Delhi - CPCB",26-04-2024 08:00:00,28.628624,77.241060,CO,32,118,88
India,Delhi,Delhi,"Jahangirpuri, Delhi - DPCC",26-04-2024 08:00:00,28.732820,77.170633,PM2.5,25,442,207
India,Delhi,Delhi,"Jahangirpuri, Delhi - DPCC",26-04-2024 08:00:00,28.732820,77.170633,NH3,6,34,16
India,Delhi,Delhi,"Jahangirpuri, Delhi - DPCC",26-04-2024 08:00:00,28.732820,77.170633,SO2,7,107,43
India,Delhi,Delhi,"Lodhi Road, Delhi - IMD",26-04-2024 08:00:00,28.5918245,77.2273074,PM10,56,260,121
India,Delhi,Delhi,"Major Dhyan Chand National Stadium, Delhi - DPCC",26-04-2024 08:00:00,28.611281,77.237738,PM2.5,30,402,131
India,Delhi,Delhi,"Major Dhyan Chand National Stadium, Delhi - DPCC",26-04-2024 08:00:00,28.611281,77.237738,OZONE,1,249,7
India,Delhi,Delhi,"Mandir Marg, Delhi - DPCC",26-04-2024 08:00:00,28.636429,77.201067,SO2,2,21,8
India,Delhi,Delhi,"Mandir Marg, Delhi - DPCC",26-04-2024 08:00:00,28.636429,77.201067,OZONE,2,24,4
India,Delhi,Delhi,"Mundka, Delhi - DPCC",26-04-2024 08:00:00,28.684678,77.076574,PM2.5,10,338,174
India,Delhi,Delhi,"Mundka, Delhi - DPCC",26-04-2024 08:00:00,28.684678,77.076574,PM10,97,487,233
India,Delhi,Delhi,"NSIT Dwarka, Delhi - CPCB",26-04-2024 08:00:00,28.60909,77.0325413,SO2,3,83,18
India,Delhi,Delhi,"NSIT Dwarka, Delhi - CPCB",26-04-2024 08:00:00,28.60909,77.0325413,CO,26,50,30
India,Delhi,Delhi,"Narela, Delhi - DPCC",26-04-2024 08:00:00,28.822836,77.101981,PM10,77,454,200
India,Delhi,Delhi,"Narela, Delhi - DPCC",26-04-2024 08:00:00,28.822836,77.101981,OZONE,4,162,21
India,Delhi,Delhi,"Nehru Nagar, Delhi - DPCC",26-04-2024 08:00:00,28.567890,77.250515,SO2,3,9,5
India,Delhi,Delhi,"New Moti Bagh, Delhi - MHUA",26-04-2024 08:00:00,28.57834,77.18400,CO,14,131,101
India,Delhi,Delhi,"Okhla Phase-2, Delhi - DPCC",26-04-2024 08:00:00,28.530785,77.271255,SO2,10,22,16
India,Delhi,Delhi,"Pusa, Delhi - DPCC",26-04-2024 08:00:00,28.639652,77.146275,PM2.5,22,438,115
India,Delhi,Delhi,"Pusa, Delhi - DPCC",26-04-2024 08:00:00,28.639652,77.146275,CO,1,109,22
India,Delhi,Delhi,"Pusa, Delhi - IMD",26-04-2024 08:00:00,28.636110,77.173332,OZONE,4,50,7
India,Delhi,Delhi,"R K Puram, Delhi - DPCC",26-04-2024 08:00:00,28.563262,77.186937,OZONE,17,172,26
India,Delhi,Delhi,"Rohini, Delhi - DPCC",26-04-2024 08:00:00,28.732528,77.119920,PM2.5,16,486,187
India,Delhi,Delhi,"Shadipur, Delhi - CPCB",26-04-2024 08:00:00,28.6514781,77.1473105,PM2.5,67,443,278
India,Delhi,Delhi,"Sirifort, Delhi - CPCB",26-04-2024 08:00:00,28.5504249,77.2159377,CO,8,132,102
India,Delhi,Delhi,"Sonia Vihar, Delhi - DPCC",26-04-2024 08:00:00,28.710508,77.249485,SO2,7,77,19
India,Delhi,Delhi,"Sri Aurobindo Marg, Delhi - DPCC",26-04-2024 08:00:00,28.531346,77.190156,NH3,6,13,9
India,Delhi,Delhi,"Sri Aurobindo Marg, Delhi - DPCC",26-04-2024 08:00:00,28.531346,77.190156,CO,3,75,51
India,Delhi,Delhi,"Vivek Vihar, Delhi - DPCC",26-04-2024 08:00:00,28.672342,77.315260,CO,3,111,58
India,Delhi,Delhi,"Wazirpur, Delhi - DPCC",26-04-2024 08:00:00,28.699793,77.165453,PM10,108,380,219
India,Delhi,Delhi,"Wazirpur, Delhi - DPCC",26-04-2024 08:00:00,28.699793,77.165453,NH3,12,13,12
India,Gujarat,Ahmedabad,"Maninagar, Ahmedabad - GPCB",26-04-2024 08:00:00,23.002657,72.591912,OZONE,17,74,30
India,Gujarat,Ahmedabad,"Raikhad, Ahmedabad - IITM",26-04-2024 08:00:00,23.020509,72.579261,NH3,5,6,5
India,Gujarat,Ahmedabad,"SAC ISRO Satellite, Ahmedabad - IITM",26-04-2024 08:00:00,23.023389,72.515201,PM2.5,88,135,105
India,Gujarat,Ahmedabad,"SVPI Airport Hansol, Ahmedabad - IITM",26-04-2024 08:00:00,23.076793,72.627874,PM10,83,126,103
India,Gujarat,Ankleshwar,"GIDC, Ankleshwar - GPCB",26-04-2024 08:00:00,21.613267,73.010555,OZONE,20,36,23
India,Gujarat,Gandhinagar,"IIPHG Lekawada, Gandhinagar - IITM",26-04-2024 08:00:00,23.243639,72.68994,PM2.5,NA,NA,NA
India,Gujarat,Gandhinagar,"Sector-10, Gandhinagar - GPCB",26-04-2024 08:00:00,23.221714,72.654328,PM10,36,101,58
India,Gujarat,Gandhinagar,"Sector-10, Gandhinagar - GPCB",26-04-2024 08:00:00,23.221714,72.654328,NO2,16,23,21
India,Gujarat,Gandhinagar,"Sector-10, Gandhinagar - GPCB",26-04-2024 08:00:00,23.221714,72.654328,SO2,4,5,5
India,Gujarat,Gandhinagar,"Sector-10, Gandhinagar - GPCB",26-04-2024 08:00:00,23.221714,72.654328,OZONE,7,66,13
India,Gujarat,Surat,"Science Center, Surat - SMC",26-04-2024 08:00:00,21.170046,72.795405,PM10,4,40,19
India,Gujarat,Surat,"Science Center, Surat - SMC",26-04-2024 08:00:00,21.170046,72.795405,CO,22,40,24
India,Gujarat,Vapi,"Phase-1 GIDC, Vapi - GPCB",26-04-2024 08:00:00,20.362421,72.918013,PM2.5,25,82,42
India,Gujarat,Vatva,"Phase-4 GIDC, Vatva - GPCB",26-04-2024 08:00:00,22.969611,72.643500,NO2,22,98,37
India,Haryana,Ambala,"Patti Mehar, Ambala - HSPCB",26-04-2024 08:00:00,30.379589,76.778328,CO,30,60,45
India,Haryana,Ballabgarh,"Nathu Colony, Ballabgarh - HSPCB",26-04-2024 08:00:00,28.3419248,77.319699,PM10,121,429,256
India,Haryana,Ballabgarh,"Nathu Colony, Ballabgarh - HSPCB",26-04-2024 08:00:00,28.3419248,77.319699,NO2,8,13,12
India,Haryana,Ballabgarh,"Nathu Colony, Ballabgarh - HSPCB",26-04-2024 08:00:00,28.3419248,77.319699,SO2,3,50,16
India,Haryana,Charkhi Dadri,"Mini Secretariat, Charkhi Dadri - HSPCB",26-04-2024 08:00:00,28.593883,76.270653,NO2,14,23,17
India,Haryana,Charkhi Dadri,"Mini Secretariat, Charkhi Dadri - HSPCB",26-04-2024 08:00:00,28.593883,76.270653,CO,21,101,62
India,Haryana,Dharuhera,"Municipal Corporation Office, Dharuhera -  HSPCB",26-04-2024 08:00:00,28.206800,76.799700,PM10,18,371,208
India,Haryana,Faridabad,"New Industrial Town, Faridabad - HSPCB",26-04-2024 08:00:00,28.39072,77.30059,NH3,1,8,5
India,Haryana,Faridabad,"Sector 11, Faridabad - HSPCB",26-04-2024 08:00:00,28.376058,77.315741,SO2,1,127,40
India,Haryana,Faridabad,"Sector 11, Faridabad - HSPCB",26-04-2024 08:00:00,28.376058,77.315741,OZONE,4,100,5
India,Haryana,Faridabad,"Sector 30, Faridabad - HSPCB",26-04-2024 08:00:00,28.4417,77.3217,PM10,137,150,143
India,Haryana,Faridabad,"Sector 30, Faridabad - HSPCB",26-04-2024 08:00:00,28.4417,77.3217,SO2,5,6,6
India,Haryana,Faridabad,"Sector- 16A, Faridabad - HSPCB",26-04-2024 08:00:00,28.4088421,77.3099081,PM2.5,18,366,115
India,Haryana,Fatehabad,"Huda Sector, Fatehabad - HSPCB",26-04-2024 08:00:00,29.503664,75.467934,NO2,28,32,30
India,Haryana,Gurugram,"Sector-51, Gurugram - HSPCB",26-04-2024 08:00:00,28.4227,77.0667,SO2,3,4,3
India,Haryana,Gurugram,"Teri Gram, Gurugram - HSPCB",26-04-2024 08:00:00,28.4275,77.1465,NO2,32,98,56
India,Haryana,Gurugram,"Teri Gram, Gurugram - HSPCB",26-04-2024 08:00:00,28.4275,77.1465,CO,12,74,50
India,Haryana,Gurugram,"Vikas Sadan, Gurugram - HSPCB",26-04-2024 08:00:00,28.4501238,77.0263051,NO2,5,26,14
India,Haryana,Gurugram,"Vikas Sadan, Gurugram - HSPCB",26-04-2024 08:00:00,28.4501238,77.0263051,OZONE,8,69,10
India,Haryana,Hisar,"Urban Estate-II, Hisar - HSPCB",26-04-2024 08:00:00,29.140560,75.744941,CO,24,56,29
India,Haryana,Jind,"Police Lines, Jind - HSPCB",26-04-2024 08:00:00,29.307814,76.337619,NO2,5,17,12
India,Haryana,Jind,"Police Lines, Jind - HSPCB",26-04-2024 08:00:00,29.307814,76.337619,CO,8,88,37
India,Haryana,Kaithal,"Rishi Nagar, Kaithal - HSPCB",26-04-2024 08:00:00,29.8006,76.4155,PM2.5,32,99,64
India,Haryana,Kaithal,"Rishi Nagar, Kaithal - HSPCB",26-04-2024 08:00:00,29.8006,76.4155,PM10,82,148,116
India,Haryana,Karnal,"Sector-12, Karnal - HSPCB",26-04-2024 08:00:00,29.695300,77.002700,NO2,7,12,10
India,Haryana,Karnal,"Sector-12, Karnal - HSPCB",26-04-2024 08:00:00,29.695300,77.002700,NH3,10,13,11
India,Haryana,Karnal,"Sector-12, Karnal - HSPCB",26-04-2024 08:00:00,29.695300,77.002700,CO,12,44,28
India,Haryana,Kurukshetra,"Sector-7, Kurukshetra - HSPCB",26-04-2024 08:00:00,29.966942,76.875879,PM2.5,47,117,81
India,Haryana,Kurukshetra,"Sector-7, Kurukshetra - HSPCB",26-04-2024 08:00:00,29.966942,76.875879,PM10,90,138,112
India,Haryana,Kurukshetra,"Sector-7, Kurukshetra - HSPCB",26-04-2024 08:00:00,29.966942,76.875879,OZONE,19,80,29
India,Haryana,Mandikhera,"General Hospital, Mandikhera - HSPCB",26-04-2024 08:00:00,27.9002,76.9938,NH3,16,20,18
India,Haryana,Palwal,"Shyam Nagar, Palwal - HSPCB",26-04-2024 08:00:00,28.1485564,77.3320667,PM2.5,57,107,84
India,Haryana,Panchkula,"Sector-6, Panchkula - HSPCB ",26-04-2024 08:00:00,30.7057778,76.8531805555555,NO2,9,11,10
India,Haryana,Panipat,"Sector-18, Panipat - HSPCB",26-04-2024 08:00:00,29.497973,76.993331,NO2,NA,NA,NA
India,Haryana,Panipat,"Sector-18, Panipat - HSPCB",26-04-2024 08:00:00,29.497973,76.993331,SO2,NA,NA,NA
India,Haryana,Rohtak,"MD University, Rohtak - HSPCB",26-04-2024 08:00:00,28.52123,76.37138,PM2.5,1,341,90
India,Haryana,Rohtak,"MD University, Rohtak - HSPCB",26-04-2024 08:00:00,28.52123,76.37138,OZONE,46,56,49
India,Haryana,Sirsa,"F-Block, Sirsa - HSPCB",26-04-2024 08:00:00,29.536400,75.015800,PM2.5,42,158,89
India,Haryana,Sonipat,"Murthal, Sonipat - HSPCB",26-04-2024 08:00:00,29.027200,77.062100,PM2.5,43,44,44
India,Haryana,Sonipat,"Murthal, Sonipat - HSPCB",26-04-2024 08:00:00,29.027200,77.062100,PM10,97,99,98
India,Haryana,Sonipat,"Murthal, Sonipat - HSPCB",26-04-2024 08:00:00,29.027200,77.062100,NH3,7,10,9
India,Haryana,Yamuna Nagar,"Gobind Pura, Yamuna Nagar - HSPCB",26-04-2024 08:00:00,30.1480566,77.2893471,PM10,69,144,101
India,Haryana,Yamuna Nagar,"Gobind Pura, Yamuna Nagar - HSPCB",26-04-2024 08:00:00,30.1480566,77.2893471,NO2,11,28,18
India,Himachal Pradesh,Baddi,"HIMUDA Complex Phase-1, Baddi - HPPCB",26-04-2024 08:00:00,30.943887,76.801991,CO,6,50,19
India,Jharkhand,Dhanbad,"Kalakusuma, Dhanbad - DMC",26-04-2024 08:00:00,23.811548,86.481238,OZONE,29,57,49
India,Jharkhand,Pathardih,"Mohalbani Ghat, Pathardih - DMC",26-04-2024 08:00:00,23.669880,86.411725,OZONE,NA,NA,NA
India,Karnataka,Bagalkot,"Vidayagiri, Bagalkot - KSPCB",26-04-2024 08:00:00,16.172806,75.659694,PM2.5,19,37,36
India,Karnataka,Belgaum,"Ramteerth Nagar, Belgaum - KSPCB",26-04-2024 08:00:00,15.888653,74.541751,CO,23,42,38
India,Karnataka,Bengaluru,"BTM Layout, Bengaluru - CPCB",26-04-2024 08:00:00,12.9135218,77.5950804,SO2,7,13,12
India,Karnataka,Bengaluru,"Bapuji Nagar, Bengaluru - KSPCB",26-04-2024 08:00:00,12.951913,77.539784,NO2,10,11,11
India,Karnataka,Bengaluru,"Bapuji Nagar, Bengaluru - KSPCB",26-04-2024 08:00:00,12.951913,77.539784,SO2,5,8,6
India,Karnataka,Bengaluru,"Hombegowda Nagar, Bengaluru - KSPCB",26-04-2024 08:00:00,12.938539,77.590100,PM2.5,40,80,55
India,Karnataka,Bengaluru,"Hombegowda Nagar, Bengaluru - KSPCB",26-04-2024 08:00:00,12.938539,77.590100,NO2,10,23,16
India,Karnataka,Bengaluru,"Jayanagar 5th Block, Bengaluru - KSPCB",26-04-2024 08:00:00,12.920984,77.584908,PM2.5,60,160,90
India,Karnataka,Bengaluru,"Jayanagar 5th Block, Bengaluru - KSPCB",26-04-2024 08:00:00,12.920984,77.584908,OZONE,22,23,22
India,Karnataka,Bengaluru,"Kasturi Nagar, Bengaluru - KSPCB",26-04-2024 08:00:00,13.003872,77.664217,OZONE,23,103,42
India,Karnataka,Bengaluru,"RVCE-Mailasandra, Bengaluru - KSPCB",26-04-2024 08:00:00,12.921418,77.502466,OZONE,39,39,39
India,Karnataka,Bengaluru,"Silk Board, Bengaluru - KSPCB",26-04-2024 08:00:00,12.917348,77.622813,NO2,8,19,11
India,Karnataka,Bidar,"Naubad, Bidar - KSPCB",26-04-2024 08:00:00,17.930306,77.482194,NO2,NA,NA,NA
India,Karnataka,Bidar,"Naubad, Bidar - KSPCB",26-04-2024 08:00:00,17.930306,77.482194,NH3,NA,NA,NA
India,Karnataka,Chamarajanagar,"Urban, Chamarajanagar - KSPCB",26-04-2024 08:00:00,11.55358,76.55521,SO2,2,9,3
India,Karnataka,Chikkaballapur,"Chikkaballapur Rural, Chikkaballapur - KSPCB",26-04-2024 08:00:00,13.428828,77.731418,PM2.5,44,153,91
India,Karnataka,Chikkaballapur,"Chikkaballapur Rural, Chikkaballapur - KSPCB",26-04-2024 08:00:00,13.428828,77.731418,NO2,6,13,8
India,Karnataka,Chikkaballapur,"Chikkaballapur Rural, Chikkaballapur - KSPCB",26-04-2024 08:00:00,13.428828,77.731418,CO,16,35,22
India,Karnataka,Chikkamagaluru,"Kalyana Nagara, Chikkamagaluru - KSPCB",26-04-2024 08:00:00,13.328028,75.797056,NO2,NA,NA,NA
India,Karnataka,Chikkamagaluru,"Kalyana Nagara, Chikkamagaluru - KSPCB",26-04-2024 08:00:00,13.328028,75.797056,CO,NA,NA,NA
India,Karnataka,Davanagere,"Devaraj Urs Badavane, Davanagere - KSPCB",26-04-2024 08:00:00,14.475800,75.905200,NO2,11,19,13
India,Karnataka,Dharwad,"Kalabhavan, Dharwad - KSPCB",26-04-2024 08:00:00,15.459706,75.008381,PM10,67,127,98
India,Karnataka,Haveri,"Ashwini Nagar, Haveri - KSPCB",26-04-2024 08:00:00,14.791800,75.389600,PM10,NA,NA,NA
India,Karnataka,Hubballi,"Deshpande Nagar, Hubballi - KSPCB",26-04-2024 08:00:00,15.351773,75.140726,NH3,NA,NA,NA
India,Karnataka,Hubballi,"Deshpande Nagar, Hubballi - KSPCB",26-04-2024 08:00:00,15.351773,75.140726,SO2,NA,NA,NA
India,Karnataka,Hubballi,"Lingaraj Nagar, Hubballi - KSPCB",26-04-2024 08:00:00,15.3714823,75.1160168,NH3,2,2,2
India,Karnataka,Karwar,"KHB Colony, Karwar - KSPCB",26-04-2024 08:00:00,14.816666,74.141003,NH3,1,23,4
India,Karnataka,Karwar,"KHB Colony, Karwar - KSPCB",26-04-2024 08:00:00,14.816666,74.141003,SO2,21,22,22
India,Karnataka,Kolar,"Tamaka Ind. Area, Kolar - KSPCB",26-04-2024 08:00:00,13.1276288,78.1570122,SO2,13,21,15
India,Karnataka,Kolar,"Tamaka Ind. Area, Kolar - KSPCB",26-04-2024 08:00:00,13.1276288,78.1570122,OZONE,13,16,14
India,Karnataka,Koppal,"Diwator Nagar, Koppal - KSPCB",26-04-2024 08:00:00,15.347630,76.181767,PM2.5,16,78,36
India,Karnataka,Madikeri,"Stuart Hill, Madikeri - KSPCB",26-04-2024 08:00:00,12.415911,75.735050,NO2,2,16,6
India,Karnataka,Mangalore,"Kadri, Mangalore - KSPCB",26-04-2024 08:00:00,12.889250,74.853000,SO2,15,18,16
India,Karnataka,Mysuru,"Hebbal 1st Stage, Mysuru - KSPCB",26-04-2024 08:00:00,12.21041,76.37376,PM10,33,55,45
India,Karnataka,Mysuru,"Hebbal 1st Stage, Mysuru - KSPCB",26-04-2024 08:00:00,12.21041,76.37376,SO2,2,3,2
India,Karnataka,Ramanagara,"Vijay Nagar, Ramanagara - KSPCB",26-04-2024 08:00:00,12.733409,77.298051,PM2.5,41,171,92
India,Karnataka,Ramanagara,"Vijay Nagar, Ramanagara - KSPCB",26-04-2024 08:00:00,12.733409,77.298051,NO2,3,13,6
India,Karnataka,Shivamogga,"Vinoba Nagara, Shivamogga - KSPCB",26-04-2024 08:00:00,13.940000,75.555917,NH3,2,4,3
India,Karnataka,Shivamogga,"Vinoba Nagara, Shivamogga - KSPCB",26-04-2024 08:00:00,13.940000,75.555917,OZONE,29,87,56
India,Karnataka,Tumakuru,"Thimmalapura, Tumakuru - KSPCB",26-04-2024 08:00:00,13.377516,77.099072,PM10,99,183,136
India,Karnataka,Tumakuru,"Thimmalapura, Tumakuru - KSPCB",26-04-2024 08:00:00,13.377516,77.099072,SO2,8,19,11
India,Karnataka,Vijayapura,"Ibrahimpur, Vijayapura - KSPCB",26-04-2024 08:00:00,16.802639,75.722694,CO,NA,NA,NA
India,Karnataka,Vijayapura,"Ibrahimpur, Vijayapura - KSPCB",26-04-2024 08:00:00,16.802639,75.722694,OZONE,13,16,15
India,Kerala,Eloor,"Udyogamandal, Eloor - Kerala PCB",26-04-2024 08:00:00,10.073232,76.302765,PM10,32,48,39
India,Kerala,Eloor,"Udyogamandal, Eloor - Kerala PCB",26-04-2024 08:00:00,10.073232,76.302765,CO,10,90,18
India,Kerala,Kannur,"Thavakkara, Kannur - Kerala PCB",26-04-2024 08:00:00,11.875000,75.373200,CO,28,35,32
India,Kerala,Kannur,"Thavakkara, Kannur - Kerala PCB",26-04-2024 08:00:00,11.875000,75.373200,OZONE,31,36,32
India,Kerala,Kollam,"Polayathode, Kollam - Kerala PCB",26-04-2024 08:00:00,8.8787,76.6073,NO2,8,9,8
India,Kerala,Kollam,"Polayathode, Kollam - Kerala PCB",26-04-2024 08:00:00,8.8787,76.6073,NH3,1,1,1
India,Kerala,Kollam,"Polayathode, Kollam - Kerala PCB",26-04-2024 08:00:00,8.8787,76.6073,CO,14,18,15
India,Kerala,Thiruvananthapuram,"Kariavattom, Thiruvananthapuram - Kerala PCB",26-04-2024 08:00:00,8.563700,76.886500,PM2.5,76,89,82
India,Kerala,Thiruvananthapuram,"Kariavattom, Thiruvananthapuram - Kerala PCB",26-04-2024 08:00:00,8.563700,76.886500,SO2,2,13,7
India,Kerala,Thiruvananthapuram,"Plammoodu, Thiruvananthapuram - Kerala PCB",26-04-2024 08:00:00,8.5149093,76.9435879,PM2.5,6,43,25
India,Kerala,Thiruvananthapuram,"Plammoodu, Thiruvananthapuram - Kerala PCB",26-04-2024 08:00:00,8.5149093,76.9435879,SO2,3,11,9
India,Kerala,Thrissur,"Corporation Ground, Thrissur - Kerala PCB",26-04-2024 08:00:00,10.532400,76.215900,NH3,NA,NA,NA
India,Kerala,Thrissur,"Corporation Ground, Thrissur - Kerala PCB",26-04-2024 08:00:00,10.532400,76.215900,SO2,1,6,2
India,Madhya Pradesh,Bhopal,"Idgah Hills, Bhopal - MPPCB",26-04-2024 08:00:00,23.264759,77.381568,OZONE,16,90,43
India,Madhya Pradesh,Bhopal,"Paryavaran Parisar, Bhopal - MPPCB",26-04-2024 08:00:00,23.210494,77.425409,PM2.5,23,85,48
India,Madhya Pradesh,Bhopal,"Paryavaran Parisar, Bhopal - MPPCB",26-04-2024 08:00:00,23.210494,77.425409,PM10,46,130,82
India,Madhya Pradesh,Bhopal,"Paryavaran Parisar, Bhopal - MPPCB",26-04-2024 08:00:00,23.210494,77.425409,SO2,7,9,8
India,Madhya Pradesh,Dewas,"Bhopal Chauraha, Dewas - MPPCB",26-04-2024 08:00:00,22.9682591,76.064118,PM2.5,16,107,44
India,Madhya Pradesh,Gwalior,"City Center, Gwalior - MPPCB",26-04-2024 08:00:00,26.203442,78.193251,NO2,8,123,39
India,Madhya Pradesh,Gwalior,"City Center, Gwalior - MPPCB",26-04-2024 08:00:00,26.203442,78.193251,CO,12,130,85
India,Madhya Pradesh,Gwalior,"City Center, Gwalior - MPPCB",26-04-2024 08:00:00,26.203442,78.193251,OZONE,19,84,21
India,Madhya Pradesh,Gwalior,"Deen Dayal Nagar, Gwalior - MPPCB",26-04-2024 08:00:00,26.259242,78.216432,NO2,11,104,57
India,Madhya Pradesh,Gwalior,"Deen Dayal Nagar, Gwalior - MPPCB",26-04-2024 08:00:00,26.259242,78.216432,NH3,6,12,9
India,Madhya Pradesh,Gwalior,"Maharaj Bada, Gwalior - MPPCB",26-04-2024 08:00:00,26.200388,78.147714,OZONE,6,183,46
India,Madhya Pradesh,Gwalior,"Phool Bagh, Gwalior - Mondelez Ind. Food",26-04-2024 08:00:00,26.210536,78.171,NO2,4,5,4
India,Madhya Pradesh,Indore,"Chhoti Gwaltoli, Indore - MPPCB",26-04-2024 08:00:00,22.4310,75.5213,SO2,9,62,21
India,Madhya Pradesh,Indore,"Chhoti Gwaltoli, Indore - MPPCB",26-04-2024 08:00:00,22.4310,75.5213,CO,36,113,69
India,Madhya Pradesh,Indore,"Maguda Nagar, Indore - IMC",26-04-2024 08:00:00,22.7524,75.8872,PM2.5,40,107,70
India,Madhya Pradesh,Indore,"Maguda Nagar, Indore - IMC",26-04-2024 08:00:00,22.7524,75.8872,SO2,22,35,28
India,Madhya Pradesh,Indore,"Regional Park, Indore - IMC",26-04-2024 08:00:00,22.6780,75.8559,PM10,23,82,42
India,Madhya Pradesh,Indore,"Residency Area, Indore - IMC",26-04-2024 08:00:00,22.7084,75.8815,NO2,34,57,45
India,Madhya Pradesh,Indore,"Residency Area, Indore - IMC",26-04-2024 08:00:00,22.7084,75.8815,SO2,25,32,28
India,Madhya Pradesh,Jabalpur,"Govindh Bhavan Colony, Jabalpur - JMC",26-04-2024 08:00:00,23.163174,79.973061,CO,NA,NA,NA
India,Madhya Pradesh,Jabalpur,"Gupteshwar, Jabalpur - JMC",26-04-2024 08:00:00,23.142888,79.916147,CO,22,44,27
India,Madhya Pradesh,Jabalpur,"Gupteshwar, Jabalpur - JMC",26-04-2024 08:00:00,23.142888,79.916147,OZONE,24,87,45
India,Madhya Pradesh,Jabalpur,"Marhatal, Jabalpur - MPPCB",26-04-2024 08:00:00,23.168606,79.932247,NO2,8,60,23
India,Madhya Pradesh,Jabalpur,"Marhatal, Jabalpur - MPPCB",26-04-2024 08:00:00,23.168606,79.932247,OZONE,56,86,66
India,Madhya Pradesh,Jabalpur,"Suhagi, Jabalpur - JMC",26-04-2024 08:00:00,23.218135,79.957770,CO,30,52,43
India,Madhya Pradesh,Katni,"Gole Bazar, Katni - MPPCB",26-04-2024 08:00:00,23.50016,80.23284,PM10,NA,NA,NA
India,Madhya Pradesh,Maihar,"Sahilara, Maihar - KJS Cements",26-04-2024 08:00:00,24.2613009,80.7231783,PM10,23,114,57
India,Madhya Pradesh,Maihar,"Sahilara, Maihar - KJS Cements",26-04-2024 08:00:00,24.2613009,80.7231783,SO2,17,52,20
India,Madhya Pradesh,Mandideep,"Sector-D Industrial Area, Mandideep - MPPCB",26-04-2024 08:00:00,23.108440,77.511428,NO2,8,64,30
India,Madhya Pradesh,Pithampur,"Sector-2 Industrial Area, Pithampur - MPPCB",26-04-2024 08:00:00,22.624758,75.675238,CO,9,57,41
India,Madhya Pradesh,Pithampur,"Sector-2 Industrial Area, Pithampur - MPPCB",26-04-2024 08:00:00,22.624758,75.675238,OZONE,15,59,23
India,Madhya Pradesh,Sagar,"Civil Lines, Sagar - MPPCB",26-04-2024 08:00:00,23.838586,78.759431,NH3,3,6,5
India,Madhya Pradesh,Sagar,"Deen Dayal Nagar, Sagar - MPPCB",26-04-2024 08:00:00,23.8640158,78.80289321,NO2,23,24,24
India,Madhya Pradesh,Satna,"Bandhavgar Colony, Satna - Birla Cement",26-04-2024 08:00:00,24.58434363,80.8549414,PM2.5,3,52,20
India,Madhya Pradesh,Satna,"Bandhavgar Colony, Satna - Birla Cement",26-04-2024 08:00:00,24.58434363,80.8549414,PM10,46,100,72
India,Madhya Pradesh,Satna,"Bandhavgar Colony, Satna - Birla Cement",26-04-2024 08:00:00,24.58434363,80.8549414,SO2,4,10,5
India,Madhya Pradesh,Ujjain,"Mahakaleshwar Temple, Ujjain - MPPCB",26-04-2024 08:00:00,23.182719 ,75.768218 ,PM2.5,NA,NA,NA
India,Madhya Pradesh,Ujjain,"Mahakaleshwar Temple, Ujjain - MPPCB",26-04-2024 08:00:00,23.182719 ,75.768218 ,SO2,NA,NA,NA
India,Maharashtra,Ahmednagar,"Tarakpur, Ahmednagar - MPCB",26-04-2024 08:00:00,19.10122,74.73339,NH3,1,17,10
India,Maharashtra,Akola,"Ramdaspeth, Akola - MPCB",26-04-2024 08:00:00,20.719516,77.000253,PM2.5,27,96,45
India,Maharashtra,Akola,"Ramdaspeth, Akola - MPCB",26-04-2024 08:00:00,20.719516,77.000253,PM10,20,181,73
India,Maharashtra,Amravati,"Shivneri Colony, Amravati - MPCB",26-04-2024 08:00:00,20.9402359,77.7895248,NO2,1,22,11
India,Maharashtra,Amravati,"Shivneri Colony, Amravati - MPCB",26-04-2024 08:00:00,20.9402359,77.7895248,CO,1,25,3
India,Maharashtra,Amravati,"Shivneri Colony, Amravati - MPCB",26-04-2024 08:00:00,20.9402359,77.7895248,OZONE,21,109,39
India,Maharashtra,Amravati,"Shri Shivaji Science College, Amaravati - MPCB",26-04-2024 08:00:00,20.939198,77.765701,PM2.5,26,59,48
India,Maharashtra,Amravati,"Shri Shivaji Science College, Amaravati - MPCB",26-04-2024 08:00:00,20.939198,77.765701,NH3,NA,NA,NA
India,Maharashtra,Aurangabad,"MIDC Chilkalthana, Aurangabad - MPCB",26-04-2024 08:00:00,19.875620,75.387310,PM10,58,118,85
India,Maharashtra,Aurangabad,"MIDC Chilkalthana, Aurangabad - MPCB",26-04-2024 08:00:00,19.875620,75.387310,NH3,3,4,3
India,Maharashtra,Badlapur,"Katrap, Badlapur - MPCB",26-04-2024 08:00:00,19.16485,73.23409,OZONE,1,92,6
India,Maharashtra,Belapur,"CBD Belapur, Belapur - MPCB",26-04-2024 08:00:00,19.0243902,73.0406721,PM2.5,59,109,80
India,Maharashtra,Belapur,"CBD Belapur, Belapur - MPCB",26-04-2024 08:00:00,19.0243902,73.0406721,CO,13,38,23
India,Maharashtra,Belapur,"CBD Belapur, Belapur - MPCB",26-04-2024 08:00:00,19.0243902,73.0406721,OZONE,31,142,53
India,Maharashtra,Dhule,"Deopur, Dhule - MPCB",26-04-2024 08:00:00,20.918946,74.776388,PM2.5,75,154,102
India,Maharashtra,Dhule,"Deopur, Dhule - MPCB",26-04-2024 08:00:00,20.918946,74.776388,NH3,7,11,8
India,Maharashtra,Kolhapur,"Sinchan Bhavan, Kolhapur - MPCB",26-04-2024 08:00:00,16.7143745,74.2426398,OZONE,11,172,40
India,Maharashtra,Latur,"Sawe Wadi, Latur - MPCB",26-04-2024 08:00:00,18.39963,76.57452,NO2,12,176,66
India,Maharashtra,Latur,"Sawe Wadi, Latur - MPCB",26-04-2024 08:00:00,18.39963,76.57452,OZONE,3,140,26
India,Maharashtra,Mahad,"Kamble Tarf Birwadi, Mahad - MPCB",26-04-2024 08:00:00,18.1023399,73.4783687,PM10,53,101,79
India,Maharashtra,Mahad,"Kamble Tarf Birwadi, Mahad - MPCB",26-04-2024 08:00:00,18.1023399,73.4783687,NO2,16,88,29
India,Maharashtra,Mahad,"Kamble Tarf Birwadi, Mahad - MPCB",26-04-2024 08:00:00,18.1023399,73.4783687,NH3,8,8,8
India,Maharashtra,Malegaon,"Mahesh Nagar, Malegaon - MPCB",26-04-2024 08:00:00,20.555712,74.529236,SO2,7,21,15
India,Maharashtra,Malegaon,"Mahesh Nagar, Malegaon - MPCB",26-04-2024 08:00:00,20.555712,74.529236,CO,14,52,26
India,Maharashtra,Mira-Bhayandar,"Bhayandar West, Mira-Bhayandar - MPCB",26-04-2024 08:00:00,19.296481,72.840923,PM2.5,32,116,61
India,Maharashtra,Mira-Bhayandar,"Bhayandar West, Mira-Bhayandar - MPCB",26-04-2024 08:00:00,19.296481,72.840923,PM10,58,264,122
India,Maharashtra,Mira-Bhayandar,"Bhayandar West, Mira-Bhayandar - MPCB",26-04-2024 08:00:00,19.296481,72.840923,NO2,5,31,13
India,Maharashtra,Mumbai,"Bandra Kurla Complex, Mumbai - MPCB",26-04-2024 08:00:00,19.065931,72.862131,OZONE,3,93,27
India,Maharashtra,Mumbai,"Borivali East, Mumbai - IITM",26-04-2024 08:00:00,19.23241,72.86895,PM10,58,86,71
India,Maharashtra,Mumbai,"Borivali East, Mumbai - IITM",26-04-2024 08:00:00,19.23241,72.86895,NH3,3,6,4
India,Maharashtra,Mumbai,"Borivali East, Mumbai - IITM",26-04-2024 08:00:00,19.23241,72.86895,CO,7,30,15
India,Maharashtra,Mumbai,"Borivali East, Mumbai - IITM",26-04-2024 08:00:00,19.23241,72.86895,OZONE,36,104,43
India,Maharashtra,Mumbai,"Borivali East, Mumbai - MPCB",26-04-2024 08:00:00,19.2243333,72.8658113,SO2,7,12,9
India,Maharashtra,Mumbai,"Byculla, Mumbai - BMC",26-04-2024 08:00:00,18.9767,72.8380,PM10,18,54,40
India,Maharashtra,Mumbai,"Chembur, Mumbai - MPCB",26-04-2024 08:00:00,19.0364585,72.8954371,PM10,43,99,71
India,Maharashtra,Mumbai,"Chembur, Mumbai - MPCB",26-04-2024 08:00:00,19.0364585,72.8954371,NO2,16,63,31
India,Maharashtra,Mumbai,"Chhatrapati Shivaji Intl. Airport (T2), Mumbai - MPCB",26-04-2024 08:00:00,19.10078,72.87462,NO2,NA,NA,NA
India,Maharashtra,Mumbai,"Chhatrapati Shivaji Intl. Airport (T2), Mumbai - MPCB",26-04-2024 08:00:00,19.10078,72.87462,OZONE,3,6,4
India,Maharashtra,Mumbai,"Colaba, Mumbai - MPCB",26-04-2024 08:00:00,18.910000,72.820000,SO2,10,14,11
India,Maharashtra,Mumbai,"Deonar, Mumbai - IITM",26-04-2024 08:00:00,19.04946,72.9230,PM2.5,41,276,100
India,Maharashtra,Mumbai,"Kandivali East, Mumbai - MPCB",26-04-2024 08:00:00,19.205800,72.868200,SO2,6,7,7
India,Maharashtra,Mumbai,"Kherwadi_Bandra East, Mumbai - MPCB",26-04-2024 08:00:00,19.0632143,72.8456324,NO2,6,54,18
India,Maharashtra,Mumbai,"Kurla, Mumbai - MPCB",26-04-2024 08:00:00,19.0863,72.8888,PM2.5,13,198,48
India,Maharashtra,Mumbai,"Kurla, Mumbai - MPCB",26-04-2024 08:00:00,19.0863,72.8888,NO2,14,19,16
India,Maharashtra,Mumbai,"Mindspace-Malad West, Mumbai - MPCB",26-04-2024 08:00:00,19.1878657,72.8304069,PM2.5,27,81,41
India,Maharashtra,Mumbai,"Mindspace-Malad West, Mumbai - MPCB",26-04-2024 08:00:00,19.1878657,72.8304069,NH3,9,9,9
India,Maharashtra,Mumbai,"Mindspace-Malad West, Mumbai - MPCB",26-04-2024 08:00:00,19.1878657,72.8304069,OZONE,14,51,19
India,Maharashtra,Mumbai,"Mulund West, Mumbai - MPCB",26-04-2024 08:00:00,19.1750,72.9419,NO2,20,24,22
India,Maharashtra,Mumbai,"Powai, Mumbai - MPCB",26-04-2024 08:00:00,19.137500,72.915056,PM2.5,21,42,28
India,Maharashtra,Mumbai,"Powai, Mumbai - MPCB",26-04-2024 08:00:00,19.137500,72.915056,PM10,53,116,78
India,Maharashtra,Mumbai,"Powai, Mumbai - MPCB",26-04-2024 08:00:00,19.137500,72.915056,OZONE,29,80,34
India,Maharashtra,Mumbai,"Sewri, Mumbai - BMC",26-04-2024 08:00:00,19.000084,72.856730,NH3,1,5,4
India,Maharashtra,Mumbai,"Shivaji Nagar, Mumbai - BMC",26-04-2024 08:00:00,19.060498,72.923356,NH3,4,7,6
India,Maharashtra,Mumbai,"Siddharth Nagar-Worli, Mumbai - IITM",26-04-2024 08:00:00,19.000083,72.813993,NH3,4,7,5
India,Maharashtra,Mumbai,"Siddharth Nagar-Worli, Mumbai - IITM",26-04-2024 08:00:00,19.000083,72.813993,OZONE,27,90,51
India,Maharashtra,Mumbai,"Sion, Mumbai - MPCB",26-04-2024 08:00:00,19.047000,72.874600,PM10,59,122,96
India,Maharashtra,Mumbai,"Vasai West, Mumbai - MPCB",26-04-2024 08:00:00,19.383200,72.820400,NH3,4,5,4
India,Maharashtra,Mumbai,"Vile Parle West, Mumbai - MPCB",26-04-2024 08:00:00,19.10861,72.83622,PM2.5,23,56,33
India,Maharashtra,Mumbai,"Vile Parle West, Mumbai - MPCB",26-04-2024 08:00:00,19.10861,72.83622,NH3,9,11,11
India,Maharashtra,Mumbai,"Worli, Mumbai - MPCB",26-04-2024 08:00:00,18.9936162,72.8128113,PM2.5,13,30,21
India,Maharashtra,Mumbai,"Worli, Mumbai - MPCB",26-04-2024 08:00:00,18.9936162,72.8128113,PM10,37,103,69
India,Maharashtra,Nagpur,"Mahal, Nagpur - MPCB",26-04-2024 08:00:00,21.14472,79.107595,PM10,47,86,64
India,Maharashtra,Nagpur,"Opp GPO Civil Lines, Nagpur - MPCB",26-04-2024 08:00:00,21.152875,79.0517531,NO2,14,18,16
India,Maharashtra,Nagpur,"Opp GPO Civil Lines, Nagpur - MPCB",26-04-2024 08:00:00,21.152875,79.0517531,OZONE,15,86,51
India,Maharashtra,Nanded,"Sneh Nagar, Nanded - MPCB",26-04-2024 08:00:00,19.173852,77.296291,PM2.5,39,168,84
India,Maharashtra,Nashik,"Gangapur Road, Nashik - MPCB",26-04-2024 08:00:00,20.0073285,73.7762427,PM2.5,43,97,71
India,Maharashtra,Nashik,"Gangapur Road, Nashik - MPCB",26-04-2024 08:00:00,20.0073285,73.7762427,NH3,1,3,1
India,Maharashtra,Nashik,"Gangapur Road, Nashik - MPCB",26-04-2024 08:00:00,20.0073285,73.7762427,OZONE,1,78,13
India,Maharashtra,Nashik,"Hirawadi, Nashik - MPCB",26-04-2024 08:00:00,20.021503,73.813844,PM2.5,24,104,57
India,Maharashtra,Nashik,"Hirawadi, Nashik - MPCB",26-04-2024 08:00:00,20.021503,73.813844,OZONE,6,98,10
India,Maharashtra,Nashik,"MIDC Ambad, Nashik - MPCB",26-04-2024 08:00:00,19.950220,73.731480,PM10,5,68,51
India,Maharashtra,Nashik,"Pandav Nagari, Nashik - MPCB",26-04-2024 08:00:00,19.9591346,73.7788008,OZONE,8,93,12
India,Maharashtra,Navi Mumbai,"Mahape, Navi Mumbai - MPCB",26-04-2024 08:00:00,19.1135051,73.008978,PM10,71,311,140
India,Maharashtra,Navi Mumbai,"Mahape, Navi Mumbai - MPCB",26-04-2024 08:00:00,19.1135051,73.008978,NO2,84,87,86
India,Maharashtra,Navi Mumbai,"Nerul, Navi Mumbai - MPCB",26-04-2024 08:00:00,19.008751,73.016620,SO2,14,16,15
India,Maharashtra,Navi Mumbai,"Sanpada, Navi Mumbai - MPCB",26-04-2024 08:00:00,19.0575752,73.0151367,PM2.5,27,72,46
India,Maharashtra,Navi Mumbai,"Sector-19A Nerul, Navi Mumbai - IITM",26-04-2024 08:00:00,19.044,73.0325,PM10,24,114,77
India,Maharashtra,Navi Mumbai,"Sector-19A Nerul, Navi Mumbai - IITM",26-04-2024 08:00:00,19.044,73.0325,NO2,22,71,46
India,Maharashtra,Navi Mumbai,"Sector-2E Kalamboli, Navi Mumbai - MPCB",26-04-2024 08:00:00,19.02579,73.10297,PM2.5,37,72,58
India,Maharashtra,Pimpri-Chinchwad,"Gavalinagar, Pimpri Chinchwad - MPCB",26-04-2024 08:00:00,18.63673,73.82487,PM2.5,36,80,59
India,Maharashtra,Pimpri-Chinchwad,"Gavalinagar, Pimpri Chinchwad - MPCB",26-04-2024 08:00:00,18.63673,73.82487,CO,14,32,19
India,Maharashtra,Pimpri-Chinchwad,"Park Street Wakad, Pimpri Chinchwad - MPCB",26-04-2024 08:00:00,18.59051,73.77946,NH3,4,11,7
India,Maharashtra,Pimpri-Chinchwad,"Park Street Wakad, Pimpri Chinchwad - MPCB",26-04-2024 08:00:00,18.59051,73.77946,SO2,5,17,8
India,Maharashtra,Pimpri-Chinchwad,"Thergaon, Pimpri Chinchwad - MPCB",26-04-2024 08:00:00,18.616318,73.765797,OZONE,3,194,26
India,Maharashtra,Pune,"Bhosari, Pune - IITM",26-04-2024 08:00:00,18.640051,73.848956,PM2.5,NA,NA,NA
India,Maharashtra,Pune,"Bhosari, Pune - IITM",26-04-2024 08:00:00,18.640051,73.848956,PM10,NA,NA,NA
India,Maharashtra,Pune,"Katraj Dairy, Pune - MPCB",26-04-2024 08:00:00,18.454450,73.854155,PM2.5,37,69,54
India,Maharashtra,Pune,"Katraj Dairy, Pune - MPCB",26-04-2024 08:00:00,18.454450,73.854155,CO,22,67,34
India,Maharashtra,Sangli,"Vijay Nagar, Sangli - MPCB",26-04-2024 08:00:00, 16.5038,74.3623,NO2,9,28,16
India,Maharashtra,Solapur,"Dnyaneshwar Nagar, Solapur - MPCB",26-04-2024 08:00:00,17.6336264,75.9132495,NO2,14,54,27
India,Maharashtra,Solapur,"Ratandeep Housing Society, Solapur - MPCB",26-04-2024 08:00:00,17.65439,75.90649,PM2.5,58,164,98
India,Maharashtra,Solapur,"Solapur, Solapur - MPCB",26-04-2024 08:00:00,17.6599188,75.9063906,NO2,53,55,54
India,Maharashtra,Solapur,"Solapur, Solapur - MPCB",26-04-2024 08:00:00,17.6599188,75.9063906,SO2,103,106,104
India,Maharashtra,Thane,"Kasarvadavali, Thane - MPCB",26-04-2024 08:00:00,19.26777,72.97182,NO2,19,73,37
India,Maharashtra,Thane,"Kasarvadavali, Thane - MPCB",26-04-2024 08:00:00,19.26777,72.97182,SO2,1,9,2
India,Maharashtra,Thane,"Pimpleshwar Mandir, Thane - MPCB",26-04-2024 08:00:00,19.192056,72.9585188,CO,4,130,76
India,Maharashtra,Thane,"Upvan Fort, Thane - MPCB",26-04-2024 08:00:00,19.222279,72.957979,PM10,30,84,56
India,Maharashtra,Thane,"Upvan Fort, Thane - MPCB",26-04-2024 08:00:00,19.222279,72.957979,SO2,7,21,12
India,Maharashtra,Ulhasnagar,"Sidhi Vinayak Nagar, Ulhasnagar - MPCB",26-04-2024 08:00:00,19.235581,73.159121,CO,12,60,34
India,Maharashtra,Virar,"Bolinj, Virar - MPCB",26-04-2024 08:00:00,19.4458210,72.7988231,OZONE,11,82,35
India,Meghalaya,Shillong,"Lumpyngngad, Shillong - Meghalaya PCB",26-04-2024 08:00:00,25.5586,91.8985,CO,7,101,8
India,Mizoram,Aizawl,"Sikulpuikawn, Aizawl - Mizoram PCB",26-04-2024 08:00:00,23.7176342,92.7192841,NH3,NA,NA,NA
India,Mizoram,Aizawl,"Sikulpuikawn, Aizawl - Mizoram PCB",26-04-2024 08:00:00,23.7176342,92.7192841,CO,12,22,14
India,Nagaland,Kohima,"PWD Juction, Kohima - NPCB",26-04-2024 08:00:00,25.6635413,94.0989878,CO,8,20,10
India,Odisha,Angul,"Hakimapada, Angul - OSPCB",26-04-2024 08:00:00,20.832874,85.104082,PM2.5,58,429,192
India,Odisha,Barbil,"Forest Office, Barbil - OSPCB",26-04-2024 08:00:00,22.1166054,85.3945546,SO2,10,38,21
India,Odisha,Bhubaneswar,"Lingraj Mandir, Bhubaneswar - OSPCB",26-04-2024 08:00:00,20.240790,85.836784,PM2.5,18,310,79
India,Odisha,Bhubaneswar,"Lingraj Mandir, Bhubaneswar - OSPCB",26-04-2024 08:00:00,20.240790,85.836784,NO2,4,24,12
India,Odisha,Bhubaneswar,"Patia, Bhubaneswar - OSPCB",26-04-2024 08:00:00,20.34652,85.81630,PM10,23,107,64
India,Odisha,Brajrajnagar,"GM Office, Brajrajnagar - OSPCB",26-04-2024 08:00:00,21.8004996,83.8396977,PM10,10,141,82
India,Odisha,Byasanagar,"Ferro Chrome Colony, Byasanagar - OSPCB",26-04-2024 08:00:00,20.94185,86.11510,NO2,11,69,21
India,Odisha,Cuttack,"CDA Area, Cuttack - OSPCB",26-04-2024 08:00:00,20.48891     ,85.84768     ,SO2,1,68,11
India,Odisha,Cuttack,"CDA Area, Cuttack - OSPCB",26-04-2024 08:00:00,20.48891     ,85.84768     ,CO,12,35,15
India,Odisha,Keonjhar,"Jagamohanpur, Keonjhar - OSPCB",26-04-2024 08:00:00,21.643900,85.599355,PM10,47,145,97
India,Odisha,Keonjhar,"Jagamohanpur, Keonjhar - OSPCB",26-04-2024 08:00:00,21.643900,85.599355,NO2,12,54,28
India,Odisha,Keonjhar,"Jagamohanpur, Keonjhar - OSPCB",26-04-2024 08:00:00,21.643900,85.599355,NH3,NA,NA,NA
India,Odisha,Nayagarh,"Dabuna, Nayagarh - OSPCB",26-04-2024 08:00:00,21.847279,85.416905,NO2,NA,NA,NA
India,Odisha,Rairangpur,"Divisional Forest Office, Rairangpur - OSPCB",26-04-2024 08:00:00,22.265816,86.174829,PM2.5,72,286,176
India,Odisha,Rairangpur,"Divisional Forest Office, Rairangpur - OSPCB",26-04-2024 08:00:00,22.265816,86.174829,OZONE,8,91,13
India,Odisha,Rourkela,"Fertilizer Township, Rourkela - OSPCB",26-04-2024 08:00:00,22.18972222,84.86277778,NO2,11,87,21
India,Odisha,Rourkela,"Raghunathpali, Rourkela - OSPCB",26-04-2024 08:00:00,22.220833,84.809444,PM2.5,51,180,120
India,Odisha,Rourkela,"Raghunathpali, Rourkela - OSPCB",26-04-2024 08:00:00,22.220833,84.809444,NO2,17,177,80
India,Odisha,Rourkela,"Raghunathpali, Rourkela - OSPCB",26-04-2024 08:00:00,22.220833,84.809444,NH3,1,3,2
India,Odisha,Rourkela,"Sector-2, Rourkela - OSPCB",26-04-2024 08:00:00,22.24500000,84.88111111,PM2.5,41,260,134
India,Odisha,Talcher,"Talcher Coalfields,Talcher - OSPCB",26-04-2024 08:00:00,20.9360711,85.1707021,PM10,81,500,252
India,Odisha,Talcher,"Talcher Coalfields,Talcher - OSPCB",26-04-2024 08:00:00,20.9360711,85.1707021,CO,38,127,66
India,Odisha,Talcher,"Talcher Coalfields,Talcher - OSPCB",26-04-2024 08:00:00,20.9360711,85.1707021,OZONE,19,34,31
India,Puducherry,Puducherry,"Jawahar Nagar, Puducherry - PPCC",26-04-2024 08:00:00,11.9309,79.8027,OZONE,4,68,10
India,Punjab,Amritsar,"Golden Temple, Amritsar - PPCB",26-04-2024 08:00:00,31.620000,74.876512,NO2,10,64,34
India,Punjab,Amritsar,"Golden Temple, Amritsar - PPCB",26-04-2024 08:00:00,31.620000,74.876512,CO,14,54,32
India,Punjab,Jalandhar,"Civil Line, Jalandhar - PPCB",26-04-2024 08:00:00,31.321907,75.578914,PM10,25,108,70
India,Punjab,Ludhiana,"Punjab Agricultural University, Ludhiana - PPCB",26-04-2024 08:00:00,30.9028,75.8086,OZONE,15,55,21
India,Punjab,Mandi Gobindgarh,"RIMT University, Mandi Gobindgarh - PPCB",26-04-2024 08:00:00,30.649961,76.331442,NH3,5,6,6
India,Punjab,Mandi Gobindgarh,"RIMT University, Mandi Gobindgarh - PPCB",26-04-2024 08:00:00,30.649961,76.331442,SO2,4,34,11
India,Punjab,Patiala,"Model Town, Patiala - PPCB",26-04-2024 08:00:00,30.349388,76.366642,PM2.5,43,99,73
India,Punjab,Patiala,"Model Town, Patiala - PPCB",26-04-2024 08:00:00,30.349388,76.366642,PM10,81,118,100
India,Punjab,Patiala,"Model Town, Patiala - PPCB",26-04-2024 08:00:00,30.349388,76.366642,SO2,3,45,15
India,Punjab,Patiala,"Model Town, Patiala - PPCB",26-04-2024 08:00:00,30.349388,76.366642,CO,18,64,31
India,Punjab,Rupnagar,"Ratanpura, Rupnagar - Ambuja Cements",26-04-2024 08:00:00,31.0325454,76.5623046,PM10,71,131,101
India,Rajasthan,Ajmer,"Civil Lines,  Ajmer - RSPCB",26-04-2024 08:00:00,26.470859,74.646594,NO2,11,16,14
India,Rajasthan,Alwar,"Moti Doongri, Alwar - RSPCB",26-04-2024 08:00:00,27.554793,76.611536,PM2.5,34,96,58
India,Rajasthan,Alwar,"Moti Doongri, Alwar - RSPCB",26-04-2024 08:00:00,27.554793,76.611536,PM10,52,108,71
India,Rajasthan,Alwar,"Moti Doongri, Alwar - RSPCB",26-04-2024 08:00:00,27.554793,76.611536,CO,25,88,44
India,Rajasthan,Banswara,"Rati Talai, Banswara - RSPCB",26-04-2024 08:00:00,23.555190,74.440010,PM2.5,35,99,70
India,Rajasthan,Baran,"Bamboliya, Baran - RSPCB",26-04-2024 08:00:00,25.106006,76.469948,PM10,70,173,128
India,Rajasthan,Barmer,"Railway Colony, Barmer - RSPCB",26-04-2024 08:00:00,25.747299,71.393989,PM10,44,132,74
India,Rajasthan,Barmer,"Railway Colony, Barmer - RSPCB",26-04-2024 08:00:00,25.747299,71.393989,SO2,4,9,6
India,Rajasthan,Bharatpur,"Krishna Nagar, Bharatpur - RSPCB",26-04-2024 08:00:00,27.215415,77.50873,OZONE,2,153,15
India,Rajasthan,Bhilwara,"Pratap Nagar, Bhilwara - RSPCB",26-04-2024 08:00:00,25.339605,74.618883,NO2,NA,NA,NA
India,Rajasthan,Bhiwadi,"Vasundhara Nagar_UIT, Bhiwadi - RSPCB",26-04-2024 08:00:00,28.207266,76.829265,PM10,87,425,246
India,Rajasthan,Bhiwadi,"Vasundhara Nagar_UIT, Bhiwadi - RSPCB",26-04-2024 08:00:00,28.207266,76.829265,NO2,6,126,56
India,Rajasthan,Bikaner,"MM Ground, Bikaner - RSPCB",26-04-2024 08:00:00,28.018792,73.292658,CO,16,173,39
India,Rajasthan,Bundi,"New Colony, Bundi - RSPCB",26-04-2024 08:00:00,25.435774,75.644272,PM10,NA,NA,NA
India,Rajasthan,Bundi,"New Colony, Bundi - RSPCB",26-04-2024 08:00:00,25.435774,75.644272,NO2,NA,NA,NA
India,Rajasthan,Chittorgarh,"Shastri Nagar, Chittorgarh - RSPCB",26-04-2024 08:00:00,24.892047,74.623527,NO2,18,64,38
India,Rajasthan,Chittorgarh,"Shastri Nagar, Chittorgarh - RSPCB",26-04-2024 08:00:00,24.892047,74.623527,NH3,9,11,10
India,Rajasthan,Chittorgarh,"Shastri Nagar, Chittorgarh - RSPCB",26-04-2024 08:00:00,24.892047,74.623527,SO2,1,8,5
India,Rajasthan,Chittorgarh,"Shastri Nagar, Chittorgarh - RSPCB",26-04-2024 08:00:00,24.892047,74.623527,CO,2,46,27
India,Rajasthan,Dausa,"Khatikan Mohalla, Dausa - RSPCB",26-04-2024 08:00:00,26.895552,76.334753,NH3,4,7,6
India,Rajasthan,Dholpur,"Raja Ganj, Dholpur - RSPCB",26-04-2024 08:00:00,26.699557,77.898881,NO2,7,66,28
India,Rajasthan,Hanumangarh,"Housing Board, Hanumangarh - RSPCB",26-04-2024 08:00:00,29.610750,74.283608,PM10,54,244,138
India,Rajasthan,Hanumangarh,"Housing Board, Hanumangarh - RSPCB",26-04-2024 08:00:00,29.610750,74.283608,NH3,8,18,13
India,Rajasthan,Hanumangarh,"Housing Board, Hanumangarh - RSPCB",26-04-2024 08:00:00,29.610750,74.283608,SO2,4,34,12
India,Rajasthan,Jaipur,"Adarsh Nagar, Jaipur - RSPCB",26-04-2024 08:00:00,26.902909,75.836858,PM10,64,108,87
India,Rajasthan,Jaipur,"Adarsh Nagar, Jaipur - RSPCB",26-04-2024 08:00:00,26.902909,75.836858,NO2,20,120,58
India,Rajasthan,Jaipur,"RIICO Sitapura, Jaipur - RSPCB",26-04-2024 08:00:00,26.786682,75.827928,OZONE,19,44,38
India,Rajasthan,Jaipur,"Sector-2 Murlipura, Jaipur - RSPCB",26-04-2024 08:00:00,26.960669,75.771817,PM2.5,40,173,65
India,Rajasthan,Jaipur,"Sector-2 Murlipura, Jaipur - RSPCB",26-04-2024 08:00:00,26.960669,75.771817,OZONE,1,120,19
India,Rajasthan,Jaipur,"Shastri Nagar, Jaipur - RSPCB",26-04-2024 08:00:00,26.9502929,75.730943,OZONE,11,85,40
India,Rajasthan,Jalore,"Mudtra Sili, Jalore - RSPCB",26-04-2024 08:00:00,25.344694,72.626208,PM2.5,25,69,38
India,Rajasthan,Jalore,"Mudtra Sili, Jalore - RSPCB",26-04-2024 08:00:00,25.344694,72.626208,CO,8,24,11
India,Rajasthan,Jhalawar,"Rajlaxmi Nagar, Jhalawar - RSPCB",26-04-2024 08:00:00,24.588397,76.172782,OZONE,9,91,24
India,Rajasthan,Jodhpur,"Collectorate, Jodhpur - RSPCB",26-04-2024 08:00:00,26.268249,73.0193853,NO2,4,85,27
India,Rajasthan,Jodhpur,"Collectorate, Jodhpur - RSPCB",26-04-2024 08:00:00,26.268249,73.0193853,SO2,7,27,13
India,Rajasthan,Jodhpur,"Collectorate, Jodhpur - RSPCB",26-04-2024 08:00:00,26.268249,73.0193853,CO,6,117,19
India,Rajasthan,Jodhpur,"Digari Kalan, Jodhpur - RSPCB",26-04-2024 08:00:00,26.295810,73.082283,SO2,4,7,5
India,Rajasthan,Jodhpur,"Digari Kalan, Jodhpur - RSPCB",26-04-2024 08:00:00,26.295810,73.082283,OZONE,12,91,39
India,Rajasthan,Jodhpur,"Jhalamand, Jodhpur - RSPCB",26-04-2024 08:00:00,26.215415,73.070156,PM10,32,274,115
India,Rajasthan,Jodhpur,"Jhalamand, Jodhpur - RSPCB",26-04-2024 08:00:00,26.215415,73.070156,NO2,4,98,24
India,Rajasthan,Jodhpur,"Mandor, Jodhpur - RSPCB",26-04-2024 08:00:00,26.358805,73.047444,PM10,46,146,82
India,Rajasthan,Jodhpur,"Mandor, Jodhpur - RSPCB",26-04-2024 08:00:00,26.358805,73.047444,SO2,4,7,5
India,Rajasthan,Karauli,"Satyawati Vihar, Karauli - RSPCB",26-04-2024 08:00:00,26.506177,77.025989,SO2,17,28,22
India,Rajasthan,Karauli,"Satyawati Vihar, Karauli - RSPCB",26-04-2024 08:00:00,26.506177,77.025989,CO,8,41,17
India,Rajasthan,Kota,"Dhanmandi, Kota - RSPCB",26-04-2024 08:00:00,25.164090,75.858137,CO,12,129,43
India,Rajasthan,Kota,"Nayapura, Kota - RSPCB",26-04-2024 08:00:00,25.196024,75.855668,NH3,5,20,9
India,Rajasthan,Kota,"Shrinath Puram, Kota - RSPCB",26-04-2024 08:00:00,25.14389,75.821256,PM10,63,459,140
India,Rajasthan,Nagaur,"Karni Colony, Nagaur - RSPCB",26-04-2024 08:00:00,27.213494,73.734444,PM10,70,192,113
India,Rajasthan,Nagaur,"Karni Colony, Nagaur - RSPCB",26-04-2024 08:00:00,27.213494,73.734444,NH3,6,10,7
India,Rajasthan,Pali,"Indira Colony Vistar, Pali - RSPCB",26-04-2024 08:00:00,25.771061, 73.340227,PM10,98,213,154
India,Rajasthan,Pratapgarh,"Pragati Nagar, Pratapgarh - RSPCB",26-04-2024 08:00:00,24.041198,74.780702,PM10,67,293,119
India,Rajasthan,Rajsamand,"Dhoinda, Rajsamand - RSPCB",26-04-2024 08:00:00,25.036360,73.883502,PM10,NA,NA,NA
India,Rajasthan,Rajsamand,"Dhoinda, Rajsamand - RSPCB",26-04-2024 08:00:00,25.036360,73.883502,NH3,NA,NA,NA
India,Rajasthan,Sawai Madhopur,"Sahu Nagar, Sawai Madhopur - RSPCB",26-04-2024 08:00:00,26.031443,76.359327,PM2.5,32,150,77
India,Rajasthan,Sawai Madhopur,"Sahu Nagar, Sawai Madhopur - RSPCB",26-04-2024 08:00:00,26.031443,76.359327,NH3,1,15,8
India,Rajasthan,Sikar,"Radhakishan Pura, Sikar - RSPCB",26-04-2024 08:00:00,27.608912,75.153302,CO,22,76,36
India,Rajasthan,Sirohi,"Vedhaynath Colony, Sirohi - RSPCB",26-04-2024 08:00:00,24.885261,72.857549,PM10,42,199,70
India,Rajasthan,Sirohi,"Vedhaynath Colony, Sirohi - RSPCB",26-04-2024 08:00:00,24.885261,72.857549,CO,16,32,18
India,Rajasthan,Sri Ganganagar,"Old City, Sri Ganganagar - RSPCB",26-04-2024 08:00:00,29.931624,73.864511,CO,68,107,80
India,Rajasthan,Tonk,"Shastri Nagar, Tonk - RSPCB",26-04-2024 08:00:00,26.159933,75.780517,PM10,59,500,184
India,Rajasthan,Tonk,"Shastri Nagar, Tonk - RSPCB",26-04-2024 08:00:00,26.159933,75.780517,NO2,6,148,46
India,Rajasthan,Tonk,"Shastri Nagar, Tonk - RSPCB",26-04-2024 08:00:00,26.159933,75.780517,CO,7,104,49
India,Rajasthan,Tonk,"Shastri Nagar, Tonk - RSPCB",26-04-2024 08:00:00,26.159933,75.780517,OZONE,1,124,26
India,Rajasthan,Udaipur,"Ashok Nagar, Udaipur - RSPCB",26-04-2024 08:00:00,24.5886166,73.6321397,SO2,6,13,10
India,Rajasthan,Udaipur,"Ashok Nagar, Udaipur - RSPCB",26-04-2024 08:00:00,24.5886166,73.6321397,CO,14,92,32
India,Sikkim,Gangtok,"Zero Point GICI, Gangtok - SSPCB",26-04-2024 08:00:00,27.338530,88.614099,NH3,1,1,1
India,Sikkim,Gangtok,"Zero Point GICI, Gangtok - SSPCB",26-04-2024 08:00:00,27.338530,88.614099,SO2,11,13,12
India,TamilNadu,Chennai,"Alandur Bus Depot, Chennai - CPCB",26-04-2024 08:00:00,12.9099161,80.1076538,NO2,8,17,10
India,TamilNadu,Chennai,"Alandur Bus Depot, Chennai - CPCB",26-04-2024 08:00:00,12.9099161,80.1076538,SO2,1,8,4
India,TamilNadu,Chennai,"Arumbakkam, Chennai - TNPCB",26-04-2024 08:00:00,13.0664,80.2112 ,SO2,2,9,4
India,TamilNadu,Chennai,"Kodungaiyur, Chennai - TNPCB",26-04-2024 08:00:00,13.1278,80.2642,PM2.5,8,27,13
India,TamilNadu,Chennai,"Kodungaiyur, Chennai - TNPCB",26-04-2024 08:00:00,13.1278,80.2642,NH3,2,3,3
India,TamilNadu,Chennai,"Kodungaiyur, Chennai - TNPCB",26-04-2024 08:00:00,13.1278,80.2642,SO2,1,14,6
India,TamilNadu,Chennai,"Manali, Chennai - CPCB",26-04-2024 08:00:00,13.164544,80.26285,PM10,31,75,57
India,TamilNadu,Chennai,"Manali, Chennai - CPCB",26-04-2024 08:00:00,13.164544,80.26285,NO2,9,10,9
India,TamilNadu,Chennai,"Manali, Chennai - CPCB",26-04-2024 08:00:00,13.164544,80.26285,SO2,2,6,4
India,TamilNadu,Chennai,"Royapuram, Chennai - TNPCB",26-04-2024 08:00:00,13.1036,80.2909,PM2.5,3,17,11
India,TamilNadu,Chennai,"Velachery Res. Area, Chennai - CPCB",26-04-2024 08:00:00,13.0052189,80.2398125,SO2,11,11,11
India,TamilNadu,Chennai,"Velachery Res. Area, Chennai - CPCB",26-04-2024 08:00:00,13.0052189,80.2398125,OZONE,31,46,33
India,TamilNadu,Coimbatore,"PSG College of Arts and Science, Coimbatore - TNPCB",26-04-2024 08:00:00,11.0328,77.0349,PM2.5,42,75,55
India,TamilNadu,Cuddalore,"Semmandalam, Cuddalore - TNPCB",26-04-2024 08:00:00,11.7637683,79.7499835,PM10,NA,NA,NA
India,TamilNadu,Ooty,"Bombay Castel, Ooty - TNPCB",26-04-2024 08:00:00,11.4068288,76.7138973,SO2,12,19,13
India,TamilNadu,Ooty,"Bombay Castel, Ooty - TNPCB",26-04-2024 08:00:00,11.4068288,76.7138973,CO,22,23,22
India,TamilNadu,Palkalaiperur,"Bharathidasan University, Palkalaiperur - TNPCB",26-04-2024 08:00:00,10.681158,78.741746,CO,2,13,3
India,TamilNadu,Ramanathapuram,"Chalai Bazaar, Ramanathapuram - TNPCB",26-04-2024 08:00:00,9.36399,78.831977,PM2.5,28,71,43
India,TamilNadu,Salem,"Sona College of Technology, Salem - TNPCB",26-04-2024 08:00:00,11.679111,78.125052,PM2.5,NA,NA,NA
India,TamilNadu,Thoothukudi,"Meelavittan, Thoothukudi - TNPCB",26-04-2024 08:00:00,8.816428 ,78.099039,OZONE,2,35,7
India,TamilNadu,Tirupur,"Kumaran College, Tirupur - TNPCB",26-04-2024 08:00:00,11.0973603,77.3228673,NO2,NA,NA,NA
India,TamilNadu,Tirupur,"Kumaran College, Tirupur - TNPCB",26-04-2024 08:00:00,11.0973603,77.3228673,OZONE,NA,NA,NA
India,TamilNadu,Vellore,"Vasanthapuram, Vellore - TNPCB",26-04-2024 08:00:00,12.909494,79.131861,PM2.5,16,91,39
India,Telangana,Hyderabad,"Bollaram Industrial Area, Hyderabad - TSPCB",26-04-2024 08:00:00,17.540891,78.358528,PM2.5,43,133,65
India,Telangana,Hyderabad,"Bollaram Industrial Area, Hyderabad - TSPCB",26-04-2024 08:00:00,17.540891,78.358528,NH3,2,5,3
India,Telangana,Hyderabad,"Central University, Hyderabad - TSPCB",26-04-2024 08:00:00,17.460103,78.334361,PM2.5,19,60,38
India,Telangana,Hyderabad,"Central University, Hyderabad - TSPCB",26-04-2024 08:00:00,17.460103,78.334361,OZONE,3,4,4
India,Telangana,Hyderabad,"ECIL Kapra, Hyderabad - TSPCB",26-04-2024 08:00:00,17.470431,78.566959,PM2.5,49,108,65
India,Telangana,Hyderabad,"ECIL Kapra, Hyderabad - TSPCB",26-04-2024 08:00:00,17.470431,78.566959,OZONE,5,120,15
India,Telangana,Hyderabad,"ICRISAT Patancheru, Hyderabad - TSPCB",26-04-2024 08:00:00,17.518400,78.278777,PM10,48,113,78
India,Telangana,Hyderabad,"ICRISAT Patancheru, Hyderabad - TSPCB",26-04-2024 08:00:00,17.518400,78.278777,OZONE,34,101,44
India,Telangana,Hyderabad,"IITH Kandi, Hyderabad - TSPCB",26-04-2024 08:00:00,17.585705,78.126199,NH3,NA,NA,NA
India,Telangana,Hyderabad,"Kokapet, Hyderabad - TSPCB",26-04-2024 08:00:00,17.393559,78.339194,PM10,71,90,77
India,Telangana,Hyderabad,"Kokapet, Hyderabad - TSPCB",26-04-2024 08:00:00,17.393559,78.339194,NO2,8,12,9
India,Telangana,Hyderabad,"Kokapet, Hyderabad - TSPCB",26-04-2024 08:00:00,17.393559,78.339194,NH3,2,3,2
India,Telangana,Hyderabad,"Kokapet, Hyderabad - TSPCB",26-04-2024 08:00:00,17.393559,78.339194,SO2,9,12,12
India,Telangana,Hyderabad,"Kompally Municipal Office, Hyderabad - TSPCB",26-04-2024 08:00:00,17.544899,78.486949,NO2,9,10,9
India,Telangana,Hyderabad,"Kompally Municipal Office, Hyderabad - TSPCB",26-04-2024 08:00:00,17.544899,78.486949,CO,12,54,29
India,Telangana,Hyderabad,"Nacharam_TSIIC IALA, Hyderabad - TSPCB",26-04-2024 08:00:00,17.429398,78.569354,NO2,15,16,16
India,Telangana,Hyderabad,"Nacharam_TSIIC IALA, Hyderabad - TSPCB",26-04-2024 08:00:00,17.429398,78.569354,CO,26,42,34
India,Telangana,Hyderabad,"New Malakpet, Hyderabad - TSPCB",26-04-2024 08:00:00,17.37206,78.50864,SO2,NA,NA,NA
India,Telangana,Hyderabad,"Ramachandrapuram, Hyderabad - TSPCB",26-04-2024 08:00:00,17.528544,78.286195,PM2.5,25,37,34
India,Telangana,Hyderabad,"Ramachandrapuram, Hyderabad - TSPCB",26-04-2024 08:00:00,17.528544,78.286195,CO,14,38,27
India,Telangana,Hyderabad,"Sanathnagar, Hyderabad - TSPCB",26-04-2024 08:00:00,17.4559458,78.4332152,CO,34,52,44
India,Uttar_Pradesh,Agra,"Rohta, Agra - UPPCB",26-04-2024 08:00:00,27.106972,78.000111,CO,6,34,22
India,Uttar_Pradesh,Agra,"Sector-3B Avas Vikas Colony, Agra - UPPCB",26-04-2024 08:00:00,27.19412,77.96237,PM10,32,123,68
India,Uttar_Pradesh,Agra,"Sector-3B Avas Vikas Colony, Agra - UPPCB",26-04-2024 08:00:00,27.19412,77.96237,NO2,25,26,26
India,Uttar_Pradesh,Agra,"Sector-3B Avas Vikas Colony, Agra - UPPCB",26-04-2024 08:00:00,27.19412,77.96237,CO,8,29,23
India,Uttar_Pradesh,Agra,"Shastripuram, Agra - UPPCB",26-04-2024 08:00:00,27.19862,77.92066,PM10,60,182,111
India,Uttar_Pradesh,Agra,"Shastripuram, Agra - UPPCB",26-04-2024 08:00:00,27.19862,77.92066,CO,9,20,18
India,Uttar_Pradesh,Baghpat,"Sardar Patel Inter College, Baghpat - UPPCB",26-04-2024 08:00:00,28.964949,77.278761,NH3,2,7,4
India,Uttar_Pradesh,Bulandshahr,"Yamunapuram, Bulandshahr - UPPCB",26-04-2024 08:00:00,28.406963,77.849831,NO2,16,158,82
India,Uttar_Pradesh,Bulandshahr,"Yamunapuram, Bulandshahr - UPPCB",26-04-2024 08:00:00,28.406963,77.849831,SO2,NA,NA,NA
India,Uttar_Pradesh,Firozabad,"Vibhab Nagar, Firozabad - UPPCB",26-04-2024 08:00:00,27.1594,78.3953,OZONE,31,125,53
India,Uttar_Pradesh,Ghaziabad,"Indirapuram, Ghaziabad - UPPCB",26-04-2024 08:00:00,28.646233,77.358075,PM2.5,21,307,134
India,Uttar_Pradesh,Ghaziabad,"Indirapuram, Ghaziabad - UPPCB",26-04-2024 08:00:00,28.646233,77.358075,NO2,27,93,54
India,Uttar_Pradesh,Ghaziabad,"Loni, Ghaziabad - UPPCB",26-04-2024 08:00:00,28.757294,77.278792,PM2.5,25,303,120
India,Uttar_Pradesh,Ghaziabad,"Loni, Ghaziabad - UPPCB",26-04-2024 08:00:00,28.757294,77.278792,SO2,2,53,16
India,Uttar_Pradesh,Ghaziabad,"Sanjay Nagar, Ghaziabad - UPPCB",26-04-2024 08:00:00,28.685382,77.453839,NO2,24,120,62
India,Uttar_Pradesh,Ghaziabad,"Sanjay Nagar, Ghaziabad - UPPCB",26-04-2024 08:00:00,28.685382,77.453839,CO,10,112,34
India,Uttar_Pradesh,Gorakhpur,"Madan Mohan Malaviya University of Technology, Gorakhpur - UPPCB",26-04-2024 08:00:00,26.730136,83.433859,NH3,1,1,1
India,Uttar_Pradesh,Gorakhpur,"Madan Mohan Malaviya University of Technology, Gorakhpur - UPPCB",26-04-2024 08:00:00,26.730136,83.433859,CO,4,21,19
India,Uttar_Pradesh,Greater Noida,"Knowledge Park - III, Greater Noida - UPPCB",26-04-2024 08:00:00,28.47272,77.482000,PM10,103,373,223
India,Uttar_Pradesh,Greater Noida,"Knowledge Park - III, Greater Noida - UPPCB",26-04-2024 08:00:00,28.47272,77.482000,NO2,27,160,104
India,Uttar_Pradesh,Greater Noida,"Knowledge Park - V, Greater Noida - UPPCB",26-04-2024 08:00:00,28.557054,77.453663,CO,8,127,59
India,Uttar_Pradesh,Hapur,"Anand Vihar, Hapur - UPPCB",26-04-2024 08:00:00,28.725645,77.749675,CO,22,44,32
India,Uttar_Pradesh,Jhansi,"Shivaji Nagar, Jhansi - UPPCB",26-04-2024 08:00:00,25.4547,78.6039,PM10,20,91,53
India,Uttar_Pradesh,Jhansi,"Shivaji Nagar, Jhansi - UPPCB",26-04-2024 08:00:00,25.4547,78.6039,NH3,6,6,6
India,Uttar_Pradesh,Jhansi,"Shivaji Nagar, Jhansi - UPPCB",26-04-2024 08:00:00,25.4547,78.6039,SO2,14,23,17
India,Uttar_Pradesh,Khurja,"Kalindi Kunj, Khurja - UPPCB",26-04-2024 08:00:00,28.2348927,77.8683002,SO2,48,67,55
India,Uttar_Pradesh,Lucknow,"B R Ambedkar University, Lucknow - UPPCB",26-04-2024 08:00:00,26.766433,80.927299,PM2.5,61,240,107
India,Uttar_Pradesh,Lucknow,"B R Ambedkar University, Lucknow - UPPCB",26-04-2024 08:00:00,26.766433,80.927299,NO2,11,12,11
India,Uttar_Pradesh,Lucknow,"B R Ambedkar University, Lucknow - UPPCB",26-04-2024 08:00:00,26.766433,80.927299,NH3,5,6,5
India,Uttar_Pradesh,Lucknow,"B R Ambedkar University, Lucknow - UPPCB",26-04-2024 08:00:00,26.766433,80.927299,OZONE,1,90,18
India,Uttar_Pradesh,Lucknow,"Lalbagh, Lucknow - CPCB",26-04-2024 08:00:00,26.8458805,80.9365541,PM10,90,198,140
India,Uttar_Pradesh,Lucknow,"Talkatora District Industries Center, Lucknow - CPCB",26-04-2024 08:00:00,26.83399722,80.8917361,PM2.5,116,330,221
India,Uttar_Pradesh,Lucknow,"Talkatora District Industries Center, Lucknow - CPCB",26-04-2024 08:00:00,26.83399722,80.8917361,NO2,31,109,60
India,Uttar_Pradesh,Meerut,"Ganga Nagar, Meerut - UPPCB",26-04-2024 08:00:00,28.999264,77.7590354,PM10,109,193,134
India,Uttar_Pradesh,Meerut,"Ganga Nagar, Meerut - UPPCB",26-04-2024 08:00:00,28.999264,77.7590354,SO2,7,58,23
India,Uttar_Pradesh,Meerut,"Ganga Nagar, Meerut - UPPCB",26-04-2024 08:00:00,28.999264,77.7590354,CO,18,60,40
India,Uttar_Pradesh,Meerut,"Jai Bhim Nagar, Meerut - UPPCB",26-04-2024 08:00:00,28.9535882,77.7622941,NO2,16,78,54
India,Uttar_Pradesh,Meerut,"Jai Bhim Nagar, Meerut - UPPCB",26-04-2024 08:00:00,28.9535882,77.7622941,CO,40,95,71
India,Uttar_Pradesh,Meerut,"Jai Bhim Nagar, Meerut - UPPCB",26-04-2024 08:00:00,28.9535882,77.7622941,OZONE,40,141,50
India,Uttar_Pradesh,Meerut,"Pallavpuram Phase 2, Meerut - UPPCB",26-04-2024 08:00:00,29.063510,77.709723,PM2.5,15,277,75
India,Uttar_Pradesh,Meerut,"Pallavpuram Phase 2, Meerut - UPPCB",26-04-2024 08:00:00,29.063510,77.709723,OZONE,20,99,29
India,Uttar_Pradesh,Moradabad,"Buddhi Vihar, Moradabad - UPPCB",26-04-2024 08:00:00,28.83526,78.74460,SO2,15,17,16
India,Uttar_Pradesh,Moradabad,"Eco Herbal Park, Moradabad - UPPCB",26-04-2024 08:00:00,28.840739,78.697531,OZONE,33,226,47
India,Uttar_Pradesh,Moradabad,"Employment Office, Moradabad - UPPCB",26-04-2024 08:00:00,28.88528,78.73880,NH3,3,4,4
India,Uttar_Pradesh,Moradabad,"Jigar Colony, Moradabad - UPPCB",26-04-2024 08:00:00,28.856664,78.772638,NH3,6,6,6
India,Uttar_Pradesh,Moradabad,"Jigar Colony, Moradabad - UPPCB",26-04-2024 08:00:00,28.856664,78.772638,SO2,6,11,8
India,Uttar_Pradesh,Moradabad,"Jigar Colony, Moradabad - UPPCB",26-04-2024 08:00:00,28.856664,78.772638,OZONE,45,97,60
India,Uttar_Pradesh,Moradabad,"Transport Nagar, Moradabad - UPPCB",26-04-2024 08:00:00,28.802625,78.753728,SO2,48,56,52
India,Uttar_Pradesh,Noida,"Sector - 125, Noida - UPPCB",26-04-2024 08:00:00,28.5447608,77.3231257,SO2,16,44,27
India,Uttar_Pradesh,Noida,"Sector - 62, Noida - IMD",26-04-2024 08:00:00,28.6245479,77.3577104,CO,21,45,41
India,Uttar_Pradesh,Noida,"Sector-116, Noida - UPPCB",26-04-2024 08:00:00,28.569230,77.393848,NO2,19,144,69
India,Uttar_Pradesh,Noida,"Sector-116, Noida - UPPCB",26-04-2024 08:00:00,28.569230,77.393848,OZONE,1,240,51
India,Uttar_Pradesh,Prayagraj,"Jhunsi, Prayagraj - UPPCB",26-04-2024 08:00:00,25.425602,81.917152,NO2,5,6,6
India,Uttar_Pradesh,Prayagraj,"Motilal Nehru NIT, Prayagraj - UPPCB",26-04-2024 08:00:00,25.494,81.863,OZONE,5,32,6
India,Uttar_Pradesh,Prayagraj,"Nagar Nigam, Prayagraj - UPPCB",26-04-2024 08:00:00,25.44919916 ,81.82735986 ,PM2.5,28,135,47
India,Uttar_Pradesh,Varanasi,"Ardhali Bazar, Varanasi - UPPCB",26-04-2024 08:00:00,25.3505986,82.9083074,OZONE,34,39,38
India,Uttar_Pradesh,Varanasi,"IESD Banaras Hindu University, Varanasi - UPPCB",26-04-2024 08:00:00,25.262326,82.995408,PM10,18,49,30
India,Uttar_Pradesh,Varanasi,"IESD Banaras Hindu University, Varanasi - UPPCB",26-04-2024 08:00:00,25.262326,82.995408,OZONE,NA,NA,NA
India,Uttarakhand,Kashipur,"Govt. Girls Inter College, Kashipur - UKPCB",26-04-2024 08:00:00,29.2124114,78.9611753,PM2.5,49,115,76
India,Uttarakhand,Kashipur,"Govt. Girls Inter College, Kashipur - UKPCB",26-04-2024 08:00:00,29.2124114,78.9611753,SO2,8,10,9
India,Uttarakhand,Rishikesh,"Shivaji Nagar, Rishikesh - UKPCB",26-04-2024 08:00:00,30.075911,78.2859547,NO2,8,38,18
India,West_Bengal,Asansol,"Asansol Court Area, Asansol - WBPCB",26-04-2024 08:00:00,23.685297,86.945968,PM2.5,162,325,256
India,West_Bengal,Asansol,"Asansol Court Area, Asansol - WBPCB",26-04-2024 08:00:00,23.685297,86.945968,OZONE,24,86,39
India,West_Bengal,Durgapur,"PCBL Residential Complex, Durgapur - WBPCB",26-04-2024 08:00:00,23.5087640,87.3544400,PM10,NA,NA,NA
India,West_Bengal,Durgapur,"PCBL Residential Complex, Durgapur - WBPCB",26-04-2024 08:00:00,23.5087640,87.3544400,NH3,NA,NA,NA
India,West_Bengal,Durgapur,"Sidhu Kanhu Indoor Stadium, Durgapur - WBPCB",26-04-2024 08:00:00,23.5404352,87.2892225,PM10,111,292,175
India,West_Bengal,Durgapur,"Sidhu Kanhu Indoor Stadium, Durgapur - WBPCB",26-04-2024 08:00:00,23.5404352,87.2892225,NH3,4,7,5
India,West_Bengal,Haldia,"Priyambada Housing Estate, Haldia - WBPCB",26-04-2024 08:00:00,22.06047,88.109737,PM2.5,23,85,48
India,West_Bengal,Howrah,"Belur Math, Howrah - WBPCB",26-04-2024 08:00:00,22.629801,88.352017,PM2.5,49,151,79
India,West_Bengal,Howrah,"Belur Math, Howrah - WBPCB",26-04-2024 08:00:00,22.629801,88.352017,CO,2,57,10
India,West_Bengal,Howrah,"Padmapukur, Howrah - WBPCB",26-04-2024 08:00:00,22.5687319,88.2797276,OZONE,7,74,11
India,West_Bengal,Kolkata,"Ballygunge, Kolkata - WBPCB",26-04-2024 08:00:00,22.5367507,88.3638022,NO2,15,34,21
India,West_Bengal,Kolkata,"Bidhannagar, Kolkata - WBPCB",26-04-2024 08:00:00,22.58157048,88.41002457,NH3,7,9,8
India,West_Bengal,Kolkata,"Fort William, Kolkata - WBPCB",26-04-2024 08:00:00,22.556640,88.342674,CO,16,46,18
India,West_Bengal,Kolkata,"Jadavpur, Kolkata - WBPCB",26-04-2024 08:00:00,22.49929,88.36917,PM2.5,33,77,60
India,West_Bengal,Kolkata,"Jadavpur, Kolkata - WBPCB",26-04-2024 08:00:00,22.49929,88.36917,PM10,51,110,84
India,West_Bengal,Kolkata,"Jadavpur, Kolkata - WBPCB",26-04-2024 08:00:00,22.49929,88.36917,SO2,4,36,14
India,West_Bengal,Kolkata,"Jadavpur, Kolkata - WBPCB",26-04-2024 08:00:00,22.49929,88.36917,CO,2,32,5
India,West_Bengal,Kolkata,"Jadavpur, Kolkata - WBPCB",26-04-2024 08:00:00,22.49929,88.36917,OZONE,17,179,25
India,West_Bengal,Kolkata,"Rabindra Bharati University, Kolkata - WBPCB",26-04-2024 08:00:00,22.627847,88.380669,PM10,56,241,101
India,West_Bengal,Kolkata,"Rabindra Sarobar, Kolkata - WBPCB",26-04-2024 08:00:00,22.51106,88.35142,CO,18,42,22
India,West_Bengal,Siliguri,"Ward-32 Bapupara, Siliguri - WBPCB",26-04-2024 08:00:00,26.6879226,88.4152495,NO2,30,103,60
India,Andhra_Pradesh,Amaravati,"Secretariat, Amaravati - APPCB",26-04-2024 08:00:00,16.5150833,80.5181667,NH3,3,4,4
India,Andhra_Pradesh,Anantapur,"Gulzarpet, Anantapur - APPCB",26-04-2024 08:00:00,14.675886,77.593027,NO2,12,13,12
India,Andhra_Pradesh,Anantapur,"Gulzarpet, Anantapur - APPCB",26-04-2024 08:00:00,14.675886,77.593027,OZONE,15,60,28
India,Andhra_Pradesh,Chittoor,"Gangineni Cheruvu, Chittoor - APPCB",26-04-2024 08:00:00,13.204880,79.097889,SO2,1,59,17
India,Andhra_Pradesh,Kadapa,"Yerramukkapalli, Kadapa - APPCB",26-04-2024 08:00:00,14.465052,78.824187,PM10,NA,NA,NA
India,Andhra_Pradesh,Kadapa,"Yerramukkapalli, Kadapa - APPCB",26-04-2024 08:00:00,14.465052,78.824187,OZONE,NA,NA,NA
India,Andhra_Pradesh,Rajamahendravaram,"Anand Kala Kshetram, Rajamahendravaram - APPCB",26-04-2024 08:00:00,16.9872867,81.7363176,NH3,1,9,5
India,Andhra_Pradesh,Tirupati,"Tirumala, Tirupati - APPCB",26-04-2024 08:00:00,13.67,79.35,NO2,17,40,26
India,Andhra_Pradesh,Tirupati,"Vaikuntapuram, Tirupati - APPCB",26-04-2024 08:00:00,13.615387,79.409230,CO,8,14,12
India,Andhra_Pradesh,Vijayawada,"HB Colony, Vijayawada - APPCB",26-04-2024 08:00:00,16.536107,80.594233,CO,38,40,40
India,Andhra_Pradesh,Vijayawada,"HB Colony, Vijayawada - APPCB",26-04-2024 08:00:00,16.536107,80.594233,OZONE,14,94,19
India,Andhra_Pradesh,Vijayawada,"Kanuru, Vijayawada - APPCB",26-04-2024 08:00:00,16.486692,80.699436,PM2.5,40,101,54
India,Andhra_Pradesh,Vijayawada,"Kanuru, Vijayawada - APPCB",26-04-2024 08:00:00,16.486692,80.699436,NH3,1,1,1
India,Andhra_Pradesh,Vijayawada,"Kanuru, Vijayawada - APPCB",26-04-2024 08:00:00,16.486692,80.699436,CO,22,48,30
India,Andhra_Pradesh,Vijayawada,"Rajiv Gandhi Park, Vijayawada - APPCB",26-04-2024 08:00:00,16.509717,80.612222,PM10,26,77,50
India,Andhra_Pradesh,Vijayawada,"Rajiv Gandhi Park, Vijayawada - APPCB",26-04-2024 08:00:00,16.509717,80.612222,NH3,1,4,2
India,Andhra_Pradesh,Vijayawada,"Rajiv Gandhi Park, Vijayawada - APPCB",26-04-2024 08:00:00,16.509717,80.612222,SO2,5,7,6
India,Andhra_Pradesh,Vijayawada,"Rajiv Nagar, Vijayawada - APPCB",26-04-2024 08:00:00,16.554731,80.649110,PM10,60,64,61
India,Andhra_Pradesh,Vijayawada,"Rajiv Nagar, Vijayawada - APPCB",26-04-2024 08:00:00,16.554731,80.649110,OZONE,8,37,11
India,Andhra_Pradesh,Visakhapatnam,"GVM Corporation, Visakhapatnam - APPCB",26-04-2024 08:00:00,17.72,83.3,NO2,35,62,50
India,Assam,Byrnihat,"Central Academy for SFS, Byrnihat - PCBA",26-04-2024 08:00:00,26.071318,91.87488,NH3,7,10,9
India,Assam,Guwahati,"IITG, Guwahati - PCBA",26-04-2024 08:00:00,26.2028636,91.70046436,NH3,5,5,5
India,Assam,Guwahati,"LGBI Airport, Guwahati - PCBA",26-04-2024 08:00:00,26.10887,91.589544,PM10,62,500,247
India,Assam,Guwahati,"LGBI Airport, Guwahati - PCBA",26-04-2024 08:00:00,26.10887,91.589544,NH3,2,7,5
India,Assam,Guwahati,"Railway Colony, Guwahati - PCBA",26-04-2024 08:00:00,26.181742,91.78063,PM10,42,415,183
India,Assam,Guwahati,"Railway Colony, Guwahati - PCBA",26-04-2024 08:00:00,26.181742,91.78063,SO2,13,19,16
India,Assam,Guwahati,"Railway Colony, Guwahati - PCBA",26-04-2024 08:00:00,26.181742,91.78063,CO,12,65,14
India,Assam,Nagaon,"Christianpatty, Nagaon - PCBA",26-04-2024 08:00:00,26.349082,92.68449,NH3,3,4,4
India,Assam,Nalbari,"Bata Chowk, Nalbari - PCBA",26-04-2024 08:00:00,26.446912,91.439057,PM10,42,209,116
India,Assam,Nalbari,"Bata Chowk, Nalbari - PCBA",26-04-2024 08:00:00,26.446912,91.439057,CO,49,92,70
India,Assam,Silchar,"Tarapur, Silchar - PCBA",26-04-2024 08:00:00,24.82827,92.79525,NO2,13,13,13
India,Assam,Silchar,"Tarapur, Silchar - PCBA",26-04-2024 08:00:00,24.82827,92.79525,SO2,1,15,6
India,Assam,Sivasagar,"Girls College, Sivasagar - PCBA",26-04-2024 08:00:00,26.987634,94.636574,SO2,4,16,11
India,Bihar,Araria,"Kharahiya Basti, Araria - BSPCB",26-04-2024 08:00:00,26.146529,87.454184,PM10,60,271,143
India,Bihar,Arrah,"New DM Office, Arrah - BSPCB",26-04-2024 08:00:00,25.5626095,84.663264,NO2,3,36,19
India,Bihar,Arrah,"New DM Office, Arrah - BSPCB",26-04-2024 08:00:00,25.5626095,84.663264,NH3,2,5,3
India,Bihar,Bettiah,"Kamalnath Nagar, Bettiah - BSPCB",26-04-2024 08:00:00,26.80365,84.51954,PM2.5,NA,NA,NA
India,Bihar,Bettiah,"Kamalnath Nagar, Bettiah - BSPCB",26-04-2024 08:00:00,26.80365,84.51954,NH3,3,6,4
India,Bihar,Bettiah,"Kamalnath Nagar, Bettiah - BSPCB",26-04-2024 08:00:00,26.80365,84.51954,OZONE,4,21,6
India,Bihar,Bhagalpur,"Mayaganj, Bhagalpur - BSPCB",26-04-2024 08:00:00,25.265194,87.012947,OZONE,NA,NA,NA
India,Bihar,Bihar Sharif,"D M Colony, Bihar Sharif - BSPCB",26-04-2024 08:00:00,25.204762,85.514960,PM10,54,115,87
India,Bihar,Chhapra,"Darshan Nagar, Chhapra - BSPCB",26-04-2024 08:00:00,25.7808257,84.7446768,CO,38,66,52
India,Bihar,Gaya,"Collectorate, Gaya - BSPCB",26-04-2024 08:00:00,24.7955,84.9994,OZONE,47,76,64
India,Bihar,Gaya,"Kareemganj, Gaya - BSPCB",26-04-2024 08:00:00,24.792403,84.992416,PM2.5,13,92,44
India,Bihar,Gaya,"SFTI Kusdihra, Gaya - BSPCB",26-04-2024 08:00:00,24.762518,84.982348,PM2.5,30,117,72
India,Bihar,Gaya,"SFTI Kusdihra, Gaya - BSPCB",26-04-2024 08:00:00,24.762518,84.982348,SO2,6,22,9
India,Bihar,Hajipur,"Industrial Area, Hajipur - BSPCB",26-04-2024 08:00:00,25.697189,85.245900,PM2.5,71,192,121
India,Bihar,Hajipur,"Industrial Area, Hajipur - BSPCB",26-04-2024 08:00:00,25.697189,85.245900,NO2,23,69,54
India,Bihar,Katihar,"Mirchaibari, Katihar - BSPCB",26-04-2024 08:00:00,25.560083,87.553265,NH3,5,15,7
India,Bihar,Kishanganj,"SDM Office_Khagra, Kishanganj - BSPCB",26-04-2024 08:00:00,26.0881305,87.93840336,NO2,29,35,31
India,Bihar,Motihari,"Gandak Colony, Motihari - BSPCB",26-04-2024 08:00:00,26.63086,84.90051,NH3,6,20,13
India,Bihar,Munger,"Town Hall, Munger - BSPCB",26-04-2024 08:00:00,25.376776,86.471523,NH3,2,2,2
India,Bihar,Muzaffarpur,"Buddha Colony, Muzaffarpur - BSPCB",26-04-2024 08:00:00,26.11442,85.39813,SO2,1,16,9
India,Bihar,Muzaffarpur,"Muzaffarpur Collectorate, Muzaffarpur - BSPCB",26-04-2024 08:00:00,26.1209,85.3647,PM2.5,42,359,140
India,Bihar,Patna,"DRM Office Danapur, Patna - BSPCB",26-04-2024 08:00:00,25.586562,85.043586,NH3,3,3,3
India,Bihar,Patna,"DRM Office Danapur, Patna - BSPCB",26-04-2024 08:00:00,25.586562,85.043586,SO2,10,56,25
India,Bihar,Patna,"Govt. High School Shikarpur, Patna - BSPCB",26-04-2024 08:00:00,25.592539,85.227158,OZONE,1,59,3
India,Bihar,Patna,"Muradpur, Patna - BSPCB",26-04-2024 08:00:00,25.619651,85.147382,PM2.5,113,500,251
India,Bihar,Patna,"Rajbansi Nagar, Patna - BSPCB",26-04-2024 08:00:00,25.599486,85.113666,CO,23,86,49
India,Bihar,Patna,"Samanpura, Patna - BSPCB",26-04-2024 08:00:00,25.596727,85.085624,PM10,183,463,321
India,Bihar,Patna,"Samanpura, Patna - BSPCB",26-04-2024 08:00:00,25.596727,85.085624,NO2,9,111,52
India,Bihar,Purnia,"Mariam Nagar, Purnia - BSPCB",26-04-2024 08:00:00,25.366336,87.117468,PM10,15,139,94
India,Bihar,Purnia,"Mariam Nagar, Purnia - BSPCB",26-04-2024 08:00:00,25.366336,87.117468,NO2,3,11,8
India,Bihar,Rajgir,"Dangi Tola, Rajgir - BSPCB",26-04-2024 08:00:00,25.03280,85.41948,PM10,26,109,57
India,Bihar,Rajgir,"Dangi Tola, Rajgir - BSPCB",26-04-2024 08:00:00,25.03280,85.41948,SO2,4,5,4
India,Bihar,Saharsa,"Police Line, Saharsa - BSPCB",26-04-2024 08:00:00,25.892357,86.590325,PM2.5,18,67,47
India,Bihar,Samastipur,"DM Office_Kasipur, Samastipur - BSPCB",26-04-2024 08:00:00,25.859655,85.77944,NO2,2,16,7
India,Bihar,Samastipur,"DM Office_Kasipur, Samastipur - BSPCB",26-04-2024 08:00:00,25.859655,85.77944,SO2,9,10,10
India,Bihar,Sasaram,"Dada Peer, Sasaram - BSPCB",26-04-2024 08:00:00,24.952822,84.002396,NO2,19,144,65
India,Bihar,Sasaram,"Dada Peer, Sasaram - BSPCB",26-04-2024 08:00:00,24.952822,84.002396,OZONE,4,82,28
India,Bihar,Siwan,"Chitragupta Nagar, Siwan - BSPCB",26-04-2024 08:00:00,26.2271665,84.3570427,NH3,1,3,2
India,Bihar,Siwan,"Chitragupta Nagar, Siwan - BSPCB",26-04-2024 08:00:00,26.2271665,84.3570427,CO,101,138,111
India,Bihar,Siwan,"Chitragupta Nagar, Siwan - BSPCB",26-04-2024 08:00:00,26.2271665,84.3570427,OZONE,50,130,62
India,Chandigarh,Chandigarh,"Sector 22, Chandigarh - CPCC",26-04-2024 08:00:00,30.735567,76.775714,PM10,35,123,74
India,Chandigarh,Chandigarh,"Sector 22, Chandigarh - CPCC",26-04-2024 08:00:00,30.735567,76.775714,OZONE,3,175,51
India,Chandigarh,Chandigarh,"Sector-53, Chandigarh - CPCC",26-04-2024 08:00:00,30.719859,76.738637,PM10,39,189,98
India,Chandigarh,Chandigarh,"Sector-53, Chandigarh - CPCC",26-04-2024 08:00:00,30.719859,76.738637,OZONE,7,64,19
India,Chhattisgarh,Bhilai,"32Bungalows, Bhilai - CECB",26-04-2024 08:00:00,21.194815,81.314770,CO,18,42,29
India,Chhattisgarh,Bhilai,"Civic Center, Bhilai - Bhilai Steel Plant",26-04-2024 08:00:00,21.185571,81.343175,PM2.5,18,58,36
India,Chhattisgarh,Bhilai,"Civic Center, Bhilai - Bhilai Steel Plant",26-04-2024 08:00:00,21.185571,81.343175,SO2,4,31,10
India,Chhattisgarh,Bhilai,"Civic Center, Bhilai - Bhilai Steel Plant",26-04-2024 08:00:00,21.185571,81.343175,CO,12,76,34
India,Chhattisgarh,Bhilai,"Hathkhoj, Bhilai - CECB",26-04-2024 08:00:00,21.224231,81.408350,NO2,16,63,32
India,Chhattisgarh,Bhilai,"Hathkhoj, Bhilai - CECB",26-04-2024 08:00:00,21.224231,81.408350,OZONE,13,31,18
India,Chhattisgarh,Chhal,"Nawapara SECL Colony, Chhal - CECB",26-04-2024 08:00:00,22.118125,83.140608,PM2.5,44,326,111
India,Chhattisgarh,Chhal,"Nawapara SECL Colony, Chhal - CECB",26-04-2024 08:00:00,22.118125,83.140608,SO2,17,46,27
India,Chhattisgarh,Chhal,"Nawapara SECL Colony, Chhal - CECB",26-04-2024 08:00:00,22.118125,83.140608,OZONE,7,131,21
India,Chhattisgarh,Korba,"Urja Nagar, Korba - CECB",26-04-2024 08:00:00,22.348441,82.549611,OZONE,NA,NA,NA
India,Chhattisgarh,Milupara,"Govt. Higher Secondary School, Milupara - CECB",26-04-2024 08:00:00,22.1910172,83.5197009,OZONE,NA,NA,NA
India,Chhattisgarh,Raipur,"AIIMS, Raipur - CECB",26-04-2024 08:00:00,21.258815,81.578979,PM2.5,33,59,46
India,Chhattisgarh,Raipur,"Bhatagaon New ISBT, Raipur - CECB",26-04-2024 08:00:00,21.219665,81.630094,NH3,NA,NA,NA
India,Chhattisgarh,Raipur,"Bhatagaon New ISBT, Raipur - CECB",26-04-2024 08:00:00,21.219665,81.630094,SO2,NA,NA,NA
India,Chhattisgarh,Raipur,"Krishak Nagar, Raipur - CECB",26-04-2024 08:00:00,21.237755,81.705301,NO2,16,17,16
India,Chhattisgarh,Raipur,"Krishak Nagar, Raipur - CECB",26-04-2024 08:00:00,21.237755,81.705301,OZONE,1,68,4
India,Chhattisgarh,Raipur,"Siltara Phase-II, Raipur - CECB",26-04-2024 08:00:00,21.371751,81.664929,NH3,3,3,3
India,Chhattisgarh,Raipur,"Siltara Phase-II, Raipur - CECB",26-04-2024 08:00:00,21.371751,81.664929,CO,16,68,48
India,Delhi,Delhi,"Alipur, Delhi - DPCC",26-04-2024 08:00:00,28.815329,77.153010,CO,31,83,64
India,Delhi,Delhi,"Anand Vihar, Delhi - DPCC",26-04-2024 08:00:00,28.647622,77.3158090,NO2,54,168,110
India,Delhi,Delhi,"Ashok Vihar, Delhi - DPCC",26-04-2024 08:00:00,28.695381,77.181665,PM2.5,13,320,128
India,Delhi,Delhi,"Ashok Vihar, Delhi - DPCC",26-04-2024 08:00:00,28.695381,77.181665,NH3,8,19,14
India,Delhi,Delhi,"Ashok Vihar, Delhi - DPCC",26-04-2024 08:00:00,28.695381,77.181665,CO,3,103,36
India,Delhi,Delhi,"Ashok Vihar, Delhi - DPCC",26-04-2024 08:00:00,28.695381,77.181665,OZONE,2,32,5
India,Delhi,Delhi,"Bawana, Delhi - DPCC",26-04-2024 08:00:00,28.776200,77.051074,NO2,11,108,47
India,Delhi,Delhi,"Bawana, Delhi - DPCC",26-04-2024 08:00:00,28.776200,77.051074,SO2,5,102,22
India,Delhi,Delhi,"CRRI Mathura Road, Delhi - IMD",26-04-2024 08:00:00,28.5512005,77.2735737,CO,28,123,111
India,Delhi,Delhi,"CRRI Mathura Road, Delhi - IMD",26-04-2024 08:00:00,28.5512005,77.2735737,OZONE,1,67,2
India,Delhi,Delhi,"DTU, Delhi - CPCB",26-04-2024 08:00:00,28.7500499,77.1112615,PM10,82,500,175
India,Delhi,Delhi,"DTU, Delhi - CPCB",26-04-2024 08:00:00,28.7500499,77.1112615,NO2,4,12,8
India,Delhi,Delhi,"Dr. Karni Singh Shooting Range, Delhi - DPCC",26-04-2024 08:00:00,28.498571,77.264840,NH3,5,10,7
India,Delhi,Delhi,"Dr. Karni Singh Shooting Range, Delhi - DPCC",26-04-2024 08:00:00,28.498571,77.264840,CO,20,120,66
India,Delhi,Delhi,"Dr. Karni Singh Shooting Range, Delhi - DPCC",26-04-2024 08:00:00,28.498571,77.264840,OZONE,4,219,20
India,Delhi,Delhi,"Dwarka-Sector 8, Delhi - DPCC ",26-04-2024 08:00:00,28.5710274,77.0719006,OZONE,1,68,2
India,Delhi,Delhi,"IGI Airport (T3), Delhi - IMD",26-04-2024 08:00:00,28.5627763,77.1180053,PM10,54,450,208
India,Delhi,Delhi,"IHBAS, Dilshad Garden, Delhi - CPCB",26-04-2024 08:00:00,28.6811736,77.3025234,OZONE,2,25,8
India,Delhi,Delhi,"ITO, Delhi - CPCB",26-04-2024 08:00:00,28.628624,77.241060,NH3,1,7,4
India,Delhi,Delhi,"Jawaharlal Nehru Stadium, Delhi - DPCC",26-04-2024 08:00:00,28.580280,77.233829,CO,21,120,97
India,Delhi,Delhi,"Major Dhyan Chand National Stadium, Delhi - DPCC",26-04-2024 08:00:00,28.611281,77.237738,PM10,52,412,140
India,Delhi,Delhi,"Mundka, Delhi - DPCC",26-04-2024 08:00:00,28.684678,77.076574,NH3,NA,NA,NA
India,Delhi,Delhi,"Mundka, Delhi - DPCC",26-04-2024 08:00:00,28.684678,77.076574,CO,28,82,71
India,Delhi,Delhi,"Mundka, Delhi - DPCC",26-04-2024 08:00:00,28.684678,77.076574,OZONE,6,125,16
India,Delhi,Delhi,"NSIT Dwarka, Delhi - CPCB",26-04-2024 08:00:00,28.60909,77.0325413,NH3,7,19,12
India,Delhi,Delhi,"Najafgarh, Delhi - DPCC",26-04-2024 08:00:00,28.570173,76.933762,SO2,8,20,14
India,Delhi,Delhi,"Narela, Delhi - DPCC",26-04-2024 08:00:00,28.822836,77.101981,PM2.5,18,449,152
India,Delhi,Delhi,"Narela, Delhi - DPCC",26-04-2024 08:00:00,28.822836,77.101981,NH3,3,8,6
India,Delhi,Delhi,"Narela, Delhi - DPCC",26-04-2024 08:00:00,28.822836,77.101981,CO,12,72,49
India,Delhi,Delhi,"Nehru Nagar, Delhi - DPCC",26-04-2024 08:00:00,28.567890,77.250515,NO2,10,23,13
India,Delhi,Delhi,"Nehru Nagar, Delhi - DPCC",26-04-2024 08:00:00,28.567890,77.250515,OZONE,1,198,2
India,Delhi,Delhi,"Patparganj, Delhi - DPCC",26-04-2024 08:00:00,28.623763,77.287209,PM2.5,12,230,86
India,Delhi,Delhi,"Patparganj, Delhi - DPCC",26-04-2024 08:00:00,28.623763,77.287209,PM10,111,364,196
India,Delhi,Delhi,"Patparganj, Delhi - DPCC",26-04-2024 08:00:00,28.623763,77.287209,NO2,31,109,60
India,Delhi,Delhi,"Patparganj, Delhi - DPCC",26-04-2024 08:00:00,28.623763,77.287209,NH3,6,10,8
India,Delhi,Delhi,"Punjabi Bagh, Delhi - DPCC",26-04-2024 08:00:00,28.674045,77.131023,PM10,76,464,174
India,Delhi,Delhi,"Punjabi Bagh, Delhi - DPCC",26-04-2024 08:00:00,28.674045,77.131023,NH3,4,7,5
India,Delhi,Delhi,"Pusa, Delhi - DPCC",26-04-2024 08:00:00,28.639652,77.146275,NO2,66,177,109
India,Delhi,Delhi,"Pusa, Delhi - IMD",26-04-2024 08:00:00,28.636110,77.173332,CO,30,92,69
India,Delhi,Delhi,"R K Puram, Delhi - DPCC",26-04-2024 08:00:00,28.563262,77.186937,NO2,1,99,29
India,Delhi,Delhi,"Sonia Vihar, Delhi - DPCC",26-04-2024 08:00:00,28.710508,77.249485,PM10,74,374,208
India,Delhi,Delhi,"Sonia Vihar, Delhi - DPCC",26-04-2024 08:00:00,28.710508,77.249485,NO2,13,118,63
India,Delhi,Delhi,"Sonia Vihar, Delhi - DPCC",26-04-2024 08:00:00,28.710508,77.249485,OZONE,5,114,8
India,Delhi,Delhi,"Sri Aurobindo Marg, Delhi - DPCC",26-04-2024 08:00:00,28.531346,77.190156,NO2,9,99,56
India,Delhi,Delhi,"Sri Aurobindo Marg, Delhi - DPCC",26-04-2024 08:00:00,28.531346,77.190156,SO2,7,90,18
India,Delhi,Delhi,"Vivek Vihar, Delhi - DPCC",26-04-2024 08:00:00,28.672342,77.315260,SO2,26,85,46
India,Delhi,Delhi,"Vivek Vihar, Delhi - DPCC",26-04-2024 08:00:00,28.672342,77.315260,OZONE,2,124,22
India,Delhi,Delhi,"Wazirpur, Delhi - DPCC",26-04-2024 08:00:00,28.699793,77.165453,NO2,15,74,44
India,Delhi,Delhi,"Wazirpur, Delhi - DPCC",26-04-2024 08:00:00,28.699793,77.165453,CO,38,140,88
India,Gujarat,Ahmedabad,"Chandkheda, Ahmedabad - IITM",26-04-2024 08:00:00,23.107969,72.574648,PM2.5,66,304,105
India,Gujarat,Ahmedabad,"Gyaspur, Ahmedabad - IITM",26-04-2024 08:00:00,22.977134,72.553024,NO2,1,62,8
India,Gujarat,Ahmedabad,"Raikhad, Ahmedabad - IITM",26-04-2024 08:00:00,23.020509,72.579261,PM10,86,140,104
India,Gujarat,Ahmedabad,"Rakhial, Ahmedabad - IITM",26-04-2024 08:00:00,23.016834,72.625775,NO2,58,90,74
India,Gujarat,Ahmedabad,"Rakhial, Ahmedabad - IITM",26-04-2024 08:00:00,23.016834,72.625775,SO2,8,36,15
India,Gujarat,Ahmedabad,"Rakhial, Ahmedabad - IITM",26-04-2024 08:00:00,23.016834,72.625775,CO,26,93,81
India,Gujarat,Ahmedabad,"SAC ISRO Satellite, Ahmedabad - IITM",26-04-2024 08:00:00,23.023389,72.515201,PM10,86,100,91
India,Gujarat,Ahmedabad,"SVPI Airport Hansol, Ahmedabad - IITM",26-04-2024 08:00:00,23.076793,72.627874,OZONE,10,48,15
India,Gujarat,Ahmedabad,"Sardar Vallabhbhai Patel Stadium, Ahmedabad - IITM",26-04-2024 08:00:00,23.043070,72.562968,NH3,8,9,9
India,Gujarat,Gandhinagar,"IIPHG Lekawada, Gandhinagar - IITM",26-04-2024 08:00:00,23.243639,72.68994,OZONE,NA,NA,NA
India,Gujarat,Gandhinagar,"Sector-10, Gandhinagar - GPCB",26-04-2024 08:00:00,23.221714,72.654328,PM2.5,31,64,43
India,Gujarat,Surat,"Science Center, Surat - SMC",26-04-2024 08:00:00,21.170046,72.795405,SO2,1,5,2
India,Gujarat,Vapi,"Phase-1 GIDC, Vapi - GPCB",26-04-2024 08:00:00,20.362421,72.918013,NH3,2,2,2
India,Gujarat,Vatva,"Phase-4 GIDC, Vatva - GPCB",26-04-2024 08:00:00,22.969611,72.643500,PM2.5,36,90,54
India,Gujarat,Vatva,"Phase-4 GIDC, Vatva - GPCB",26-04-2024 08:00:00,22.969611,72.643500,NH3,8,13,10
India,Gujarat,Vatva,"Phase-4 GIDC, Vatva - GPCB",26-04-2024 08:00:00,22.969611,72.643500,SO2,1,31,10
India,Haryana,Ambala,"Patti Mehar, Ambala - HSPCB",26-04-2024 08:00:00,30.379589,76.778328,SO2,13,20,16
India,Haryana,Bhiwani,"H.B. Colony, Bhiwani - HSPCB",26-04-2024 08:00:00,28.806223,76.141105,PM2.5,44,273,123
India,Haryana,Dharuhera,"Municipal Corporation Office, Dharuhera -  HSPCB",26-04-2024 08:00:00,28.206800,76.799700,PM2.5,58,320,189
India,Haryana,Dharuhera,"Municipal Corporation Office, Dharuhera -  HSPCB",26-04-2024 08:00:00,28.206800,76.799700,NO2,43,112,68
India,Haryana,Dharuhera,"Municipal Corporation Office, Dharuhera -  HSPCB",26-04-2024 08:00:00,28.206800,76.799700,NH3,9,26,19
India,Haryana,Faridabad,"New Industrial Town, Faridabad - HSPCB",26-04-2024 08:00:00,28.39072,77.30059,PM2.5,113,435,264
India,Haryana,Faridabad,"New Industrial Town, Faridabad - HSPCB",26-04-2024 08:00:00,28.39072,77.30059,NO2,1,16,11
India,Haryana,Faridabad,"New Industrial Town, Faridabad - HSPCB",26-04-2024 08:00:00,28.39072,77.30059,SO2,2,13,6
India,Haryana,Faridabad,"Sector 30, Faridabad - HSPCB",26-04-2024 08:00:00,28.4417,77.3217,NO2,30,33,31
India,Haryana,Faridabad,"Sector- 16A, Faridabad - HSPCB",26-04-2024 08:00:00,28.4088421,77.3099081,SO2,22,28,25
India,Haryana,Faridabad,"Sector- 16A, Faridabad - HSPCB",26-04-2024 08:00:00,28.4088421,77.3099081,CO,2,66,28
India,Haryana,Faridabad,"Sector- 16A, Faridabad - HSPCB",26-04-2024 08:00:00,28.4088421,77.3099081,OZONE,14,14,14
India,Haryana,Fatehabad,"Huda Sector, Fatehabad - HSPCB",26-04-2024 08:00:00,29.503664,75.467934,PM2.5,25,94,60
India,Haryana,Fatehabad,"Huda Sector, Fatehabad - HSPCB",26-04-2024 08:00:00,29.503664,75.467934,PM10,79,198,125
India,Haryana,Fatehabad,"Huda Sector, Fatehabad - HSPCB",26-04-2024 08:00:00,29.503664,75.467934,NH3,9,11,10
India,Haryana,Fatehabad,"Huda Sector, Fatehabad - HSPCB",26-04-2024 08:00:00,29.503664,75.467934,SO2,10,11,11
India,Haryana,Fatehabad,"Huda Sector, Fatehabad - HSPCB",26-04-2024 08:00:00,29.503664,75.467934,CO,5,20,7
India,Haryana,Gurugram,"Sector-51, Gurugram - HSPCB",26-04-2024 08:00:00,28.4227,77.0667,PM2.5,140,500,335
India,Haryana,Gurugram,"Sector-51, Gurugram - HSPCB",26-04-2024 08:00:00,28.4227,77.0667,PM10,102,488,264
India,Haryana,Gurugram,"Sector-51, Gurugram - HSPCB",26-04-2024 08:00:00,28.4227,77.0667,NH3,6,14,9
India,Haryana,Gurugram,"Sector-51, Gurugram - HSPCB",26-04-2024 08:00:00,28.4227,77.0667,CO,32,126,121
India,Haryana,Gurugram,"Teri Gram, Gurugram - HSPCB",26-04-2024 08:00:00,28.4275,77.1465,NH3,37,55,47
India,Haryana,Gurugram,"Teri Gram, Gurugram - HSPCB",26-04-2024 08:00:00,28.4275,77.1465,SO2,5,8,6
India,Haryana,Hisar,"Urban Estate-II, Hisar - HSPCB",26-04-2024 08:00:00,29.140560,75.744941,NO2,17,31,26
India,Haryana,Hisar,"Urban Estate-II, Hisar - HSPCB",26-04-2024 08:00:00,29.140560,75.744941,SO2,6,106,70
India,Haryana,Jind,"Police Lines, Jind - HSPCB",26-04-2024 08:00:00,29.307814,76.337619,NH3,2,5,4
India,Haryana,Karnal,"Sector-12, Karnal - HSPCB",26-04-2024 08:00:00,29.695300,77.002700,SO2,12,13,13
India,Haryana,Karnal,"Sector-12, Karnal - HSPCB",26-04-2024 08:00:00,29.695300,77.002700,OZONE,29,37,31
India,Haryana,Kurukshetra,"Sector-7, Kurukshetra - HSPCB",26-04-2024 08:00:00,29.966942,76.875879,CO,1,28,18
India,Haryana,Mandikhera,"General Hospital, Mandikhera - HSPCB",26-04-2024 08:00:00,27.9002,76.9938,PM2.5,12,141,50
India,Haryana,Manesar,"Sector-2 IMT, Manesar - HSPCB",26-04-2024 08:00:00,28.360699,76.936090,NH3,2,3,2
India,Haryana,Manesar,"Sector-2 IMT, Manesar - HSPCB",26-04-2024 08:00:00,28.360699,76.936090,CO,17,80,53
India,Haryana,Narnaul,"Shastri Nagar, Narnaul - HSPCB",26-04-2024 08:00:00,28.060249,76.113115,OZONE,9,60,58
India,Haryana,Palwal,"Shyam Nagar, Palwal - HSPCB",26-04-2024 08:00:00,28.1485564,77.3320667,PM10,92,174,120
India,Haryana,Palwal,"Shyam Nagar, Palwal - HSPCB",26-04-2024 08:00:00,28.1485564,77.3320667,NH3,8,9,9
India,Haryana,Panipat,"Sector-18, Panipat - HSPCB",26-04-2024 08:00:00,29.497973,76.993331,PM10,NA,NA,NA
India,Haryana,Panipat,"Sector-18, Panipat - HSPCB",26-04-2024 08:00:00,29.497973,76.993331,NH3,NA,NA,NA
India,Haryana,Panipat,"Sector-18, Panipat - HSPCB",26-04-2024 08:00:00,29.497973,76.993331,CO,NA,NA,NA
India,Haryana,Panipat,"Sector-18, Panipat - HSPCB",26-04-2024 08:00:00,29.497973,76.993331,OZONE,NA,NA,NA
India,Haryana,Rohtak,"MD University, Rohtak - HSPCB",26-04-2024 08:00:00,28.52123,76.37138,CO,9,92,36
India,Haryana,Sirsa,"F-Block, Sirsa - HSPCB",26-04-2024 08:00:00,29.536400,75.015800,SO2,73,81,78
India,Haryana,Sirsa,"F-Block, Sirsa - HSPCB",26-04-2024 08:00:00,29.536400,75.015800,OZONE,20,65,20
India,Haryana,Yamuna Nagar,"Gobind Pura, Yamuna Nagar - HSPCB",26-04-2024 08:00:00,30.1480566,77.2893471,SO2,3,11,6
India,Haryana,Yamuna Nagar,"Gobind Pura, Yamuna Nagar - HSPCB",26-04-2024 08:00:00,30.1480566,77.2893471,CO,28,92,57
India,Himachal Pradesh,Baddi,"HIMUDA Complex Phase-1, Baddi - HPPCB",26-04-2024 08:00:00,30.943887,76.801991,SO2,8,108,39
India,Himachal Pradesh,Baddi,"HIMUDA Complex Phase-1, Baddi - HPPCB",26-04-2024 08:00:00,30.943887,76.801991,OZONE,34,172,86
India,Jharkhand,Dhanbad,"Kalakusuma, Dhanbad - DMC",26-04-2024 08:00:00,23.811548,86.481238,PM2.5,1,90,39
India,Jharkhand,Dhanbad,"Kalakusuma, Dhanbad - DMC",26-04-2024 08:00:00,23.811548,86.481238,SO2,NA,NA,NA
India,Jharkhand,Dhanbad,"Sardar Patel Nagar, Dhanbad - JSPCB",26-04-2024 08:00:00,23.80569,86.44268,SO2,NA,NA,NA
India,Jharkhand,Pathardih,"Mohalbani Ghat, Pathardih - DMC",26-04-2024 08:00:00,23.669880,86.411725,PM2.5,NA,NA,NA
India,Jharkhand,Pathardih,"Mohalbani Ghat, Pathardih - DMC",26-04-2024 08:00:00,23.669880,86.411725,PM10,NA,NA,NA
India,Karnataka,Belgaum,"Ramteerth Nagar, Belgaum - KSPCB",26-04-2024 08:00:00,15.888653,74.541751,PM2.5,14,33,24
India,Karnataka,Bengaluru,"BTM Layout, Bengaluru - CPCB",26-04-2024 08:00:00,12.9135218,77.5950804,NO2,25,35,26
India,Karnataka,Bengaluru,"BTM Layout, Bengaluru - CPCB",26-04-2024 08:00:00,12.9135218,77.5950804,CO,28,31,28
India,Karnataka,Bengaluru,"Bapuji Nagar, Bengaluru - KSPCB",26-04-2024 08:00:00,12.951913,77.539784,PM2.5,78,161,106
India,Karnataka,Bengaluru,"Bapuji Nagar, Bengaluru - KSPCB",26-04-2024 08:00:00,12.951913,77.539784,NH3,1,1,1
India,Karnataka,Bengaluru,"Bapuji Nagar, Bengaluru - KSPCB",26-04-2024 08:00:00,12.951913,77.539784,OZONE,27,37,29
India,Karnataka,Bengaluru,"Kasturi Nagar, Bengaluru - KSPCB",26-04-2024 08:00:00,13.003872,77.664217,PM2.5,84,131,100
India,Karnataka,Bengaluru,"Kasturi Nagar, Bengaluru - KSPCB",26-04-2024 08:00:00,13.003872,77.664217,NO2,16,17,17
India,Karnataka,Bengaluru,"Peenya, Bengaluru - CPCB",26-04-2024 08:00:00,13.0270199,77.494094,NH3,3,5,3
India,Karnataka,Bengaluru,"RVCE-Mailasandra, Bengaluru - KSPCB",26-04-2024 08:00:00,12.921418,77.502466,SO2,9,21,12
India,Karnataka,Bengaluru,"RVCE-Mailasandra, Bengaluru - KSPCB",26-04-2024 08:00:00,12.921418,77.502466,CO,28,84,43
India,Karnataka,Bengaluru,"Sanegurava Halli, Bengaluru - KSPCB",26-04-2024 08:00:00,12.990328,77.5431385,PM10,39,66,50
India,Karnataka,Bengaluru,"Sanegurava Halli, Bengaluru - KSPCB",26-04-2024 08:00:00,12.990328,77.5431385,CO,4,35,12
India,Karnataka,Bengaluru,"Silk Board, Bengaluru - KSPCB",26-04-2024 08:00:00,12.917348,77.622813,SO2,4,11,8
India,Karnataka,Bengaluru,"Silk Board, Bengaluru - KSPCB",26-04-2024 08:00:00,12.917348,77.622813,CO,8,35,13
India,Karnataka,Bidar,"Naubad, Bidar - KSPCB",26-04-2024 08:00:00,17.930306,77.482194,SO2,NA,NA,NA
India,Karnataka,Bidar,"Naubad, Bidar - KSPCB",26-04-2024 08:00:00,17.930306,77.482194,CO,NA,NA,NA
India,Karnataka,Bidar,"Naubad, Bidar - KSPCB",26-04-2024 08:00:00,17.930306,77.482194,OZONE,NA,NA,NA
India,Karnataka,Chamarajanagar,"Urban, Chamarajanagar - KSPCB",26-04-2024 08:00:00,11.55358,76.55521,PM2.5,20,49,33
India,Karnataka,Chamarajanagar,"Urban, Chamarajanagar - KSPCB",26-04-2024 08:00:00,11.55358,76.55521,NO2,16,34,26
India,Karnataka,Chamarajanagar,"Urban, Chamarajanagar - KSPCB",26-04-2024 08:00:00,11.55358,76.55521,NH3,1,2,2
India,Karnataka,Chamarajanagar,"Urban, Chamarajanagar - KSPCB",26-04-2024 08:00:00,11.55358,76.55521,OZONE,14,56,16
India,Karnataka,Chikkaballapur,"Chikkaballapur Rural, Chikkaballapur - KSPCB",26-04-2024 08:00:00,13.428828,77.731418,PM10,61,133,86
India,Karnataka,Chikkamagaluru,"Kalyana Nagara, Chikkamagaluru - KSPCB",26-04-2024 08:00:00,13.328028,75.797056,OZONE,NA,NA,NA
India,Karnataka,Davanagere,"Devaraj Urs Badavane, Davanagere - KSPCB",26-04-2024 08:00:00,14.475800,75.905200,OZONE,19,24,20
India,Karnataka,Gadag,"Panchal Nagar, Gadag - KSPCB",26-04-2024 08:00:00,15.411456,75.638133,PM2.5,5,61,33
India,Karnataka,Gadag,"Panchal Nagar, Gadag - KSPCB",26-04-2024 08:00:00,15.411456,75.638133,NO2,5,25,14
India,Karnataka,Gadag,"Panchal Nagar, Gadag - KSPCB",26-04-2024 08:00:00,15.411456,75.638133,CO,45,63,51
India,Karnataka,Gadag,"Panchal Nagar, Gadag - KSPCB",26-04-2024 08:00:00,15.411456,75.638133,OZONE,28,86,38
India,Karnataka,Hassan,"B.Katihalli, Hassan - KSPCB",26-04-2024 08:00:00,13.008556,76.125258,PM10,66,66,66
India,Karnataka,Hassan,"B.Katihalli, Hassan - KSPCB",26-04-2024 08:00:00,13.008556,76.125258,CO,12,24,20
India,Karnataka,Haveri,"Ashwini Nagar, Haveri - KSPCB",26-04-2024 08:00:00,14.791800,75.389600,PM2.5,47,68,58
India,Karnataka,Haveri,"Ashwini Nagar, Haveri - KSPCB",26-04-2024 08:00:00,14.791800,75.389600,SO2,14,15,14
India,Karnataka,Haveri,"Ashwini Nagar, Haveri - KSPCB",26-04-2024 08:00:00,14.791800,75.389600,CO,37,39,38
India,Karnataka,Hubballi,"Deshpande Nagar, Hubballi - KSPCB",26-04-2024 08:00:00,15.351773,75.140726,PM2.5,NA,NA,NA
India,Karnataka,Hubballi,"Deshpande Nagar, Hubballi - KSPCB",26-04-2024 08:00:00,15.351773,75.140726,CO,NA,NA,NA
India,Karnataka,Hubballi,"Deshpande Nagar, Hubballi - KSPCB",26-04-2024 08:00:00,15.351773,75.140726,OZONE,NA,NA,NA
India,Karnataka,Kalaburagi,"Lal Bahadur Shastri Nagar, Kalaburagi - KSPCB",26-04-2024 08:00:00,17.321993,76.822628,SO2,21,22,22
India,Karnataka,Kalaburagi,"Lal Bahadur Shastri Nagar, Kalaburagi - KSPCB",26-04-2024 08:00:00,17.321993,76.822628,CO,42,60,44
India,Karnataka,Kalaburagi,"Lal Bahadur Shastri Nagar, Kalaburagi - KSPCB",26-04-2024 08:00:00,17.321993,76.822628,OZONE,6,77,25
India,Karnataka,Karwar,"KHB Colony, Karwar - KSPCB",26-04-2024 08:00:00,14.816666,74.141003,CO,8,9,8
India,Karnataka,Karwar,"KHB Colony, Karwar - KSPCB",26-04-2024 08:00:00,14.816666,74.141003,OZONE,21,22,21
India,Karnataka,Kolar,"Tamaka Ind. Area, Kolar - KSPCB",26-04-2024 08:00:00,13.1276288,78.1570122,PM2.5,54,100,70
India,Karnataka,Kolar,"Tamaka Ind. Area, Kolar - KSPCB",26-04-2024 08:00:00,13.1276288,78.1570122,PM10,87,141,109
India,Karnataka,Koppal,"Diwator Nagar, Koppal - KSPCB",26-04-2024 08:00:00,15.347630,76.181767,NO2,32,67,44
India,Karnataka,Koppal,"Diwator Nagar, Koppal - KSPCB",26-04-2024 08:00:00,15.347630,76.181767,NH3,6,9,8
India,Karnataka,Koppal,"Diwator Nagar, Koppal - KSPCB",26-04-2024 08:00:00,15.347630,76.181767,CO,94,96,96
India,Karnataka,Madikeri,"Stuart Hill, Madikeri - KSPCB",26-04-2024 08:00:00,12.415911,75.735050,PM2.5,20,50,33
India,Karnataka,Madikeri,"Stuart Hill, Madikeri - KSPCB",26-04-2024 08:00:00,12.415911,75.735050,PM10,23,62,40
India,Karnataka,Madikeri,"Stuart Hill, Madikeri - KSPCB",26-04-2024 08:00:00,12.415911,75.735050,SO2,4,4,4
India,Karnataka,Madikeri,"Stuart Hill, Madikeri - KSPCB",26-04-2024 08:00:00,12.415911,75.735050,OZONE,24,53,30
India,Karnataka,Mangalore,"Kadri, Mangalore - KSPCB",26-04-2024 08:00:00,12.889250,74.853000,OZONE,30,32,30
India,Karnataka,Shivamogga,"Vinoba Nagara, Shivamogga - KSPCB",26-04-2024 08:00:00,13.940000,75.555917,PM10,49,75,59
India,Karnataka,Shivamogga,"Vinoba Nagara, Shivamogga - KSPCB",26-04-2024 08:00:00,13.940000,75.555917,SO2,2,11,6
India,Karnataka,Vijayapura,"Ibrahimpur, Vijayapura - KSPCB",26-04-2024 08:00:00,16.802639,75.722694,NH3,2,2,2
India,Karnataka,Yadgir,"Collector Office, Yadgir - KSPCB",26-04-2024 08:00:00,16.7602,77.1428,NH3,NA,NA,NA
India,Karnataka,Yadgir,"Collector Office, Yadgir - KSPCB",26-04-2024 08:00:00,16.7602,77.1428,SO2,1,61,21
India,Kerala,Eloor,"Udyogamandal, Eloor - Kerala PCB",26-04-2024 08:00:00,10.073232,76.302765,NH3,1,1,1
India,Kerala,Kannur,"Thavakkara, Kannur - Kerala PCB",26-04-2024 08:00:00,11.875000,75.373200,NH3,1,1,1
India,Kerala,Kannur,"Thavakkara, Kannur - Kerala PCB",26-04-2024 08:00:00,11.875000,75.373200,SO2,1,5,2
India,Kerala,Thiruvananthapuram,"Kariavattom, Thiruvananthapuram - Kerala PCB",26-04-2024 08:00:00,8.563700,76.886500,PM10,80,93,86
India,Kerala,Thiruvananthapuram,"Kariavattom, Thiruvananthapuram - Kerala PCB",26-04-2024 08:00:00,8.563700,76.886500,NH3,1,1,1
India,Kerala,Thiruvananthapuram,"Kariavattom, Thiruvananthapuram - Kerala PCB",26-04-2024 08:00:00,8.563700,76.886500,CO,18,40,20
India,Kerala,Thiruvananthapuram,"Plammoodu, Thiruvananthapuram - Kerala PCB",26-04-2024 08:00:00,8.5149093,76.9435879,NO2,7,10,9
India,Kerala,Thiruvananthapuram,"Plammoodu, Thiruvananthapuram - Kerala PCB",26-04-2024 08:00:00,8.5149093,76.9435879,OZONE,6,93,28
India,Kerala,Thrissur,"Corporation Ground, Thrissur - Kerala PCB",26-04-2024 08:00:00,10.532400,76.215900,PM2.5,45,52,48
India,Kerala,Thrissur,"Corporation Ground, Thrissur - Kerala PCB",26-04-2024 08:00:00,10.532400,76.215900,PM10,61,70,64
India,Kerala,Thrissur,"Corporation Ground, Thrissur - Kerala PCB",26-04-2024 08:00:00,10.532400,76.215900,NO2,7,8,7
India,Madhya Pradesh,Bhopal,"Idgah Hills, Bhopal - MPPCB",26-04-2024 08:00:00,23.264759,77.381568,PM2.5,22,63,40
India,Madhya Pradesh,Bhopal,"Paryavaran Parisar, Bhopal - MPPCB",26-04-2024 08:00:00,23.210494,77.425409,NH3,6,9,7
India,Madhya Pradesh,Bhopal,"Paryavaran Parisar, Bhopal - MPPCB",26-04-2024 08:00:00,23.210494,77.425409,CO,8,86,16
India,Madhya Pradesh,Dewas,"Bhopal Chauraha, Dewas - MPPCB",26-04-2024 08:00:00,22.9682591,76.064118,NO2,12,15,13
India,Madhya Pradesh,Gwalior,"City Center, Gwalior - MPPCB",26-04-2024 08:00:00,26.203442,78.193251,NH3,3,9,5
India,Madhya Pradesh,Gwalior,"Deen Dayal Nagar, Gwalior - MPPCB",26-04-2024 08:00:00,26.259242,78.216432,PM2.5,22,242,95
India,Madhya Pradesh,Gwalior,"Deen Dayal Nagar, Gwalior - MPPCB",26-04-2024 08:00:00,26.259242,78.216432,PM10,55,302,138
India,Madhya Pradesh,Gwalior,"Deen Dayal Nagar, Gwalior - MPPCB",26-04-2024 08:00:00,26.259242,78.216432,OZONE,9,203,50
India,Madhya Pradesh,Gwalior,"Maharaj Bada, Gwalior - MPPCB",26-04-2024 08:00:00,26.200388,78.147714,PM2.5,13,92,54
India,Madhya Pradesh,Gwalior,"Maharaj Bada, Gwalior - MPPCB",26-04-2024 08:00:00,26.200388,78.147714,NH3,4,23,9
India,Madhya Pradesh,Indore,"Chhoti Gwaltoli, Indore - MPPCB",26-04-2024 08:00:00,22.4310,75.5213,NO2,50,143,85
India,Madhya Pradesh,Indore,"Maguda Nagar, Indore - IMC",26-04-2024 08:00:00,22.7524,75.8872,CO,21,36,34
India,Madhya Pradesh,Jabalpur,"Gupteshwar, Jabalpur - JMC",26-04-2024 08:00:00,23.142888,79.916147,PM2.5,14,92,39
India,Madhya Pradesh,Jabalpur,"Marhatal, Jabalpur - MPPCB",26-04-2024 08:00:00,23.168606,79.932247,PM10,31,90,60
India,Madhya Pradesh,Jabalpur,"Suhagi, Jabalpur - JMC",26-04-2024 08:00:00,23.218135,79.957770,PM2.5,23,72,44
India,Madhya Pradesh,Katni,"Gole Bazar, Katni - MPPCB",26-04-2024 08:00:00,23.50016,80.23284,PM2.5,NA,NA,NA
