country,state,city,station,last_update,latitude,longitude,pollutant_id,pollutant_min,pollutant_max,pollutant_avg
India,Andhra_Pradesh,Amaravati,"Secretariat, Amaravati - APPCB",06-02-2024 10:00:00,16.5150833,80.5181667,NH3,2,4,4
India,Andhra_Pradesh,Anantapur,"Gulzarpet, Anantapur - APPCB",06-02-2024 10:00:00,14.675886,77.593027,NO2,NA,NA,NA
India,Andhra_Pradesh,Chittoor,"Gangineni Cheruvu, Chittoor - APPCB",06-02-2024 10:00:00,13.204880,79.097889,PM10,44,85,65
India,Andhra_Pradesh,Rajamahendravaram,"Anand Kala Kshetram, Rajamahendravaram - APPCB",06-02-2024 10:00:00,16.9872867,81.7363176,PM2.5,53,81,67
India,Andhra_Pradesh,Tirupati,"Tirumala, Tirupati - APPCB",06-02-2024 10:00:00,13.67,79.35,PM2.5,53,153,79
India,Andhra_Pradesh,Tirupati,"Tirumala, Tirupati - APPCB",06-02-2024 10:00:00,13.67,79.35,CO,36,76,48
India,Andhra_Pradesh,Tirupati,"Tirumala, Tirupati - APPCB",06-02-2024 10:00:00,13.67,79.35,OZONE,3,46,15
India,Andhra_Pradesh,Tirupati,"Vaikuntapuram, Tirupati - APPCB",06-02-2024 10:00:00,13.615387,79.409230,SO2,4,5,5
India,Andhra_Pradesh,Tirupati,"Vaikuntapuram, Tirupati - APPCB",06-02-2024 10:00:00,13.615387,79.409230,CO,10,16,13
India,Andhra_Pradesh,Vijayawada,"HB Colony, Vijayawada - APPCB",06-02-2024 10:00:00,16.536107,80.594233,PM10,37,49,45
India,Andhra_Pradesh,Vijayawada,"HB Colony, Vijayawada - APPCB",06-02-2024 10:00:00,16.536107,80.594233,SO2,3,6,4
India,Andhra_Pradesh,Vijayawada,"Kanuru, Vijayawada - APPCB",06-02-2024 10:00:00,16.486692,80.699436,PM10,63,82,72
India,Andhra_Pradesh,Vijayawada,"Kanuru, Vijayawada - APPCB",06-02-2024 10:00:00,16.486692,80.699436,SO2,6,13,9
India,Arunachal_Pradesh,Naharlagun,"Naharlagun, Naharlagun - APSPCB",06-02-2024 10:00:00,27.103358,93.679645,SO2,3,3,3
India,Assam,Guwahati,"Railway Colony, Guwahati - PCBA",06-02-2024 10:00:00,26.181742,91.78063,CO,21,40,24
India,Assam,Nagaon,"Christianpatty, Nagaon - PCBA",06-02-2024 10:00:00,26.349082,92.68449,PM10,57,162,107
India,Assam,Nalbari,"Bata Chowk, Nalbari - PCBA",06-02-2024 10:00:00,26.446912,91.439057,OZONE,3,80,38
India,Assam,Silchar,"Tarapur, Silchar - PCBA",06-02-2024 10:00:00,24.82827,92.79525,PM2.5,35,50,40
India,Assam,Silchar,"Tarapur, Silchar - PCBA",06-02-2024 10:00:00,24.82827,92.79525,PM10,45,96,63
India,Assam,Silchar,"Tarapur, Silchar - PCBA",06-02-2024 10:00:00,24.82827,92.79525,SO2,1,9,4
India,Assam,Sivasagar,"Girls College, Sivasagar - PCBA",06-02-2024 10:00:00,26.987634,94.636574,PM2.5,14,53,33
India,Assam,Sivasagar,"Girls College, Sivasagar - PCBA",06-02-2024 10:00:00,26.987634,94.636574,NH3,2,3,3
India,Bihar,Arrah,"New DM Office, Arrah - BSPCB",06-02-2024 10:00:00,25.5626095,84.663264,PM2.5,47,360,110
India,Bihar,Arrah,"New DM Office, Arrah - BSPCB",06-02-2024 10:00:00,25.5626095,84.663264,PM10,42,225,81
India,Bihar,Arrah,"New DM Office, Arrah - BSPCB",06-02-2024 10:00:00,25.5626095,84.663264,CO,2,21,12
India,Bihar,Aurangabad,"Gurdeo Nagar, Aurangabad - BSPCB",06-02-2024 10:00:00,24.75746,84.366208,PM2.5,65,247,116
India,Bihar,Aurangabad,"Gurdeo Nagar, Aurangabad - BSPCB",06-02-2024 10:00:00,24.75746,84.366208,OZONE,1,46,10
India,Bihar,Bettiah,"Kamalnath Nagar, Bettiah - BSPCB",06-02-2024 10:00:00,26.80365,84.51954,NO2,12,18,16
India,Bihar,Bhagalpur,"DM Office_Kachari Chowk, Bhagalpur - BSPCB",06-02-2024 10:00:00,25.251013,86.989001,NO2,53,86,70
India,Bihar,Bhagalpur,"Mayaganj, Bhagalpur - BSPCB",06-02-2024 10:00:00,25.265194,87.012947,CO,4,12,9
India,Bihar,Bihar Sharif,"D M Colony, Bihar Sharif - BSPCB",06-02-2024 10:00:00,25.204762,85.514960,CO,10,48,26
India,Bihar,Buxar,"Charitra Van, Buxar - BSPCB (Formerly known as Central Jail)",06-02-2024 10:00:00,25.567520,83.966379,PM2.5,243,413,321
India,Bihar,Chhapra,"Darshan Nagar, Chhapra - BSPCB",06-02-2024 10:00:00,25.7808257,84.7446768,PM2.5,57,318,138
India,Bihar,Chhapra,"Darshan Nagar, Chhapra - BSPCB",06-02-2024 10:00:00,25.7808257,84.7446768,NO2,14,20,17
India,Bihar,Gaya,"Kareemganj, Gaya - BSPCB",06-02-2024 10:00:00,24.792403,84.992416,PM2.5,NA,NA,NA
India,Bihar,Gaya,"Kareemganj, Gaya - BSPCB",06-02-2024 10:00:00,24.792403,84.992416,SO2,3,12,7
India,Bihar,Gaya,"Kareemganj, Gaya - BSPCB",06-02-2024 10:00:00,24.792403,84.992416,OZONE,8,37,23
India,Bihar,Gaya,"SFTI Kusdihra, Gaya - BSPCB",06-02-2024 10:00:00,24.762518,84.982348,CO,44,81,76
India,Bihar,Hajipur,"Industrial Area, Hajipur - BSPCB",06-02-2024 10:00:00,25.697189,85.245900,NO2,32,50,42
India,Bihar,Kishanganj,"SDM Office_Khagra, Kishanganj - BSPCB",06-02-2024 10:00:00,26.0881305,87.93840336,NH3,14,16,16
India,Bihar,Kishanganj,"SDM Office_Khagra, Kishanganj - BSPCB",06-02-2024 10:00:00,26.0881305,87.93840336,SO2,15,31,20
India,Bihar,Manguraha,"Forest Rest House, Manguraha - BSPCB",06-02-2024 10:00:00,27.308328,84.531742,OZONE,32,72,34
India,Bihar,Motihari,"Gandak Colony, Motihari - BSPCB",06-02-2024 10:00:00,26.63086,84.90051,SO2,NA,NA,NA
India,Bihar,Munger,"Town Hall, Munger - BSPCB",06-02-2024 10:00:00,25.376776,86.471523,PM2.5,23,97,53
India,Bihar,Munger,"Town Hall, Munger - BSPCB",06-02-2024 10:00:00,25.376776,86.471523,NH3,1,2,2
India,Bihar,Munger,"Town Hall, Munger - BSPCB",06-02-2024 10:00:00,25.376776,86.471523,SO2,20,44,36
India,Bihar,Munger,"Town Hall, Munger - BSPCB",06-02-2024 10:00:00,25.376776,86.471523,CO,1,195,164
India,Bihar,Muzaffarpur,"MIT-Daudpur Kothi, Muzaffarpur - BSPCB",06-02-2024 10:00:00,26.1403345,85.3650192,NH3,2,7,5
India,Bihar,Muzaffarpur,"MIT-Daudpur Kothi, Muzaffarpur - BSPCB",06-02-2024 10:00:00,26.1403345,85.3650192,CO,82,116,107
India,Bihar,Muzaffarpur,"MIT-Daudpur Kothi, Muzaffarpur - BSPCB",06-02-2024 10:00:00,26.1403345,85.3650192,OZONE,5,32,9
India,Bihar,Patna,"DRM Office Danapur, Patna - BSPCB",06-02-2024 10:00:00,25.586562,85.043586,PM10,64,138,105
India,Bihar,Patna,"DRM Office Danapur, Patna - BSPCB",06-02-2024 10:00:00,25.586562,85.043586,SO2,7,9,8
India,Bihar,Patna,"Govt. High School Shikarpur, Patna - BSPCB",06-02-2024 10:00:00,25.592539,85.227158,NO2,20,27,22
India,Bihar,Patna,"Govt. High School Shikarpur, Patna - BSPCB",06-02-2024 10:00:00,25.592539,85.227158,NH3,4,5,4
India,Bihar,Patna,"IGSC Planetarium Complex, Patna - BSPCB",06-02-2024 10:00:00,25.610369,85.132568,PM2.5,95,228,144
India,Bihar,Patna,"IGSC Planetarium Complex, Patna - BSPCB",06-02-2024 10:00:00,25.610369,85.132568,NO2,12,12,12
India,Bihar,Patna,"IGSC Planetarium Complex, Patna - BSPCB",06-02-2024 10:00:00,25.610369,85.132568,OZONE,4,16,12
India,Bihar,Patna,"Muradpur, Patna - BSPCB",06-02-2024 10:00:00,25.619651,85.147382,NO2,10,20,14
India,Bihar,Patna,"Samanpura, Patna - BSPCB",06-02-2024 10:00:00,25.596727,85.085624,PM10,116,250,177
India,Bihar,Patna,"Samanpura, Patna - BSPCB",06-02-2024 10:00:00,25.596727,85.085624,SO2,15,16,16
India,Bihar,Purnia,"Mariam Nagar, Purnia - BSPCB",06-02-2024 10:00:00,25.366336,87.117468,CO,24,60,44
India,Bihar,Rajgir,"Dangi Tola, Rajgir - BSPCB",06-02-2024 10:00:00,25.03280,85.41948,PM10,78,118,98
India,Bihar,Rajgir,"Dangi Tola, Rajgir - BSPCB",06-02-2024 10:00:00,25.03280,85.41948,NO2,1,1,1
India,Bihar,Saharsa,"Police Line, Saharsa - BSPCB",06-02-2024 10:00:00,25.892357,86.590325,NH3,9,9,9
India,Bihar,Samastipur,"DM Office_Kasipur, Samastipur - BSPCB",06-02-2024 10:00:00,25.859655,85.77944,PM10,NA,NA,NA
India,Bihar,Sasaram,"Dada Peer, Sasaram - BSPCB",06-02-2024 10:00:00,24.952822,84.002396,SO2,18,23,21
India,Bihar,Siwan,"Chitragupta Nagar, Siwan - BSPCB",06-02-2024 10:00:00,26.2271665,84.3570427,PM2.5,25,88,51
India,Bihar,Siwan,"Chitragupta Nagar, Siwan - BSPCB",06-02-2024 10:00:00,26.2271665,84.3570427,PM10,24,83,48
India,Bihar,Siwan,"Chitragupta Nagar, Siwan - BSPCB",06-02-2024 10:00:00,26.2271665,84.3570427,NH3,1,7,2
India,Bihar,Siwan,"Chitragupta Nagar, Siwan - BSPCB",06-02-2024 10:00:00,26.2271665,84.3570427,CO,66,155,85
India,Bihar,Siwan,"Chitragupta Nagar, Siwan - BSPCB",06-02-2024 10:00:00,26.2271665,84.3570427,OZONE,4,43,17
India,Chandigarh,Chandigarh,"Sector 22, Chandigarh - CPCC",06-02-2024 10:00:00,30.735567,76.775714,SO2,5,18,8
India,Chandigarh,Chandigarh,"Sector-25, Chandigarh - CPCC",06-02-2024 10:00:00,30.751462,76.762879,NH3,9,15,11
India,Chandigarh,Chandigarh,"Sector-25, Chandigarh - CPCC",06-02-2024 10:00:00,30.751462,76.762879,CO,19,38,27
India,Chandigarh,Chandigarh,"Sector-53, Chandigarh - CPCC",06-02-2024 10:00:00,30.719859,76.738637,PM10,66,149,95
India,Chhattisgarh,Bhilai,"Civic Center, Bhilai - Bhilai Steel Plant",06-02-2024 10:00:00,21.185571,81.343175,NH3,2,5,3
India,Chhattisgarh,Bhilai,"Hathkhoj, Bhilai - CECB",06-02-2024 10:00:00,21.224231,81.408350,PM2.5,31,87,63
India,Chhattisgarh,Bhilai,"Hathkhoj, Bhilai - CECB",06-02-2024 10:00:00,21.224231,81.408350,PM10,71,138,100
India,Chhattisgarh,Bhilai,"Hathkhoj, Bhilai - CECB",06-02-2024 10:00:00,21.224231,81.408350,SO2,11,25,17
India,Chhattisgarh,Bilaspur,"Mangala, Bilaspur - NTPC",06-02-2024 10:00:00,22.08815,82.13737,PM10,NA,NA,NA
India,Chhattisgarh,Chhal,"Nawapara SECL Colony, Chhal - CECB",06-02-2024 10:00:00,22.118125,83.140608,NO2,12,60,28
India,Chhattisgarh,Milupara,"Govt. Higher Secondary School, Milupara - CECB",06-02-2024 10:00:00,22.1910172,83.5197009,NO2,16,67,33
India,Chhattisgarh,Raipur,"Bhatagaon New ISBT, Raipur - CECB",06-02-2024 10:00:00,21.219665,81.630094,NO2,60,85,73
India,Chhattisgarh,Raipur,"Bhatagaon New ISBT, Raipur - CECB",06-02-2024 10:00:00,21.219665,81.630094,NH3,1,3,2
India,Chhattisgarh,Raipur,"Siltara Phase-II, Raipur - CECB",06-02-2024 10:00:00,21.371751,81.664929,PM2.5,52,310,142
India,Chhattisgarh,Raipur,"Siltara Phase-II, Raipur - CECB",06-02-2024 10:00:00,21.371751,81.664929,NH3,2,3,3
India,Delhi,Delhi,"Alipur, Delhi - DPCC",06-02-2024 10:00:00,28.815329,77.153010,CO,36,50,45
India,Delhi,Delhi,"Anand Vihar, Delhi - DPCC",06-02-2024 10:00:00,28.647622,77.3158090,CO,72,107,83
India,Delhi,Delhi,"Ashok Vihar, Delhi - DPCC",06-02-2024 10:00:00,28.695381,77.181665,PM10,101,169,139
India,Delhi,Delhi,"Ashok Vihar, Delhi - DPCC",06-02-2024 10:00:00,28.695381,77.181665,CO,56,102,61
India,Delhi,Delhi,"Aya Nagar, Delhi - IMD",06-02-2024 10:00:00,28.4706914,77.1099364,PM2.5,5,161,74
India,Delhi,Delhi,"Aya Nagar, Delhi - IMD",06-02-2024 10:00:00,28.4706914,77.1099364,PM10,67,130,101
India,Delhi,Delhi,"Bawana, Delhi - DPCC",06-02-2024 10:00:00,28.776200,77.051074,PM2.5,50,312,142
India,Delhi,Delhi,"Bawana, Delhi - DPCC",06-02-2024 10:00:00,28.776200,77.051074,NH3,5,11,8
India,Delhi,Delhi,"Bawana, Delhi - DPCC",06-02-2024 10:00:00,28.776200,77.051074,OZONE,7,36,11
India,Delhi,Delhi,"Burari Crossing, Delhi - IMD",06-02-2024 10:00:00,28.7256504,77.2011573,PM2.5,38,203,126
India,Delhi,Delhi,"Burari Crossing, Delhi - IMD",06-02-2024 10:00:00,28.7256504,77.2011573,OZONE,20,30,24
India,Delhi,Delhi,"CRRI Mathura Road, Delhi - IMD",06-02-2024 10:00:00,28.5512005,77.2735737,NO2,25,39,32
India,Delhi,Delhi,"DTU, Delhi - CPCB",06-02-2024 10:00:00,28.7500499,77.1112615,NH3,9,13,11
India,Delhi,Delhi,"Dr. Karni Singh Shooting Range, Delhi - DPCC",06-02-2024 10:00:00,28.498571,77.264840,NO2,42,100,65
India,Delhi,Delhi,"Dr. Karni Singh Shooting Range, Delhi - DPCC",06-02-2024 10:00:00,28.498571,77.264840,NH3,6,10,8
India,Delhi,Delhi,"Dwarka-Sector 8, Delhi - DPCC ",06-02-2024 10:00:00,28.5710274,77.0719006,PM10,78,211,133
India,Delhi,Delhi,"Dwarka-Sector 8, Delhi - DPCC ",06-02-2024 10:00:00,28.5710274,77.0719006,NH3,8,13,10
India,Delhi,Delhi,"Dwarka-Sector 8, Delhi - DPCC ",06-02-2024 10:00:00,28.5710274,77.0719006,CO,27,70,38
India,Delhi,Delhi,"IGI Airport (T3), Delhi - IMD",06-02-2024 10:00:00,28.5627763,77.1180053,CO,78,98,85
India,Delhi,Delhi,"IHBAS, Dilshad Garden, Delhi - CPCB",06-02-2024 10:00:00,28.6811736,77.3025234,PM10,72,119,98
India,Delhi,Delhi,"IHBAS, Dilshad Garden, Delhi - CPCB",06-02-2024 10:00:00,28.6811736,77.3025234,SO2,5,47,18
India,Delhi,Delhi,"IHBAS, Dilshad Garden, Delhi - CPCB",06-02-2024 10:00:00,28.6811736,77.3025234,OZONE,5,27,7
India,Delhi,Delhi,"ITO, Delhi - CPCB",06-02-2024 10:00:00,28.628624,77.241060,PM10,42,111,77
India,Delhi,Delhi,"ITO, Delhi - CPCB",06-02-2024 10:00:00,28.628624,77.241060,NH3,2,4,3
India,Delhi,Delhi,"ITO, Delhi - CPCB",06-02-2024 10:00:00,28.628624,77.241060,SO2,7,30,22
India,Delhi,Delhi,"Jahangirpuri, Delhi - DPCC",06-02-2024 10:00:00,28.732820,77.170633,SO2,5,20,11
India,Delhi,Delhi,"Jahangirpuri, Delhi - DPCC",06-02-2024 10:00:00,28.732820,77.170633,CO,29,78,39
India,Delhi,Delhi,"Jawaharlal Nehru Stadium, Delhi - DPCC",06-02-2024 10:00:00,28.580280,77.233829,CO,32,66,41
India,Delhi,Delhi,"Lodhi Road, Delhi - IITM",06-02-2024 10:00:00,28.588333,77.221667,PM2.5,57,111,76
India,Delhi,Delhi,"Lodhi Road, Delhi - IMD",06-02-2024 10:00:00,28.5918245,77.2273074,PM10,73,138,108
India,Delhi,Delhi,"Lodhi Road, Delhi - IMD",06-02-2024 10:00:00,28.5918245,77.2273074,NO2,5,6,5
India,Delhi,Delhi,"Lodhi Road, Delhi - IMD",06-02-2024 10:00:00,28.5918245,77.2273074,CO,46,58,47
India,Delhi,Delhi,"Lodhi Road, Delhi - IMD",06-02-2024 10:00:00,28.5918245,77.2273074,OZONE,13,68,15
India,Delhi,Delhi,"Major Dhyan Chand National Stadium, Delhi - DPCC",06-02-2024 10:00:00,28.611281,77.237738,PM2.5,122,300,192
India,Delhi,Delhi,"Mandir Marg, Delhi - DPCC",06-02-2024 10:00:00,28.636429,77.201067,PM2.5,104,239,168
India,Delhi,Delhi,"Mundka, Delhi - DPCC",06-02-2024 10:00:00,28.684678,77.076574,PM10,53,158,111
India,Delhi,Delhi,"Mundka, Delhi - DPCC",06-02-2024 10:00:00,28.684678,77.076574,SO2,3,103,10
India,Delhi,Delhi,"NSIT Dwarka, Delhi - CPCB",06-02-2024 10:00:00,28.60909,77.0325413,PM2.5,46,162,97
India,Delhi,Delhi,"NSIT Dwarka, Delhi - CPCB",06-02-2024 10:00:00,28.60909,77.0325413,OZONE,18,52,23
India,Delhi,Delhi,"Najafgarh, Delhi - DPCC",06-02-2024 10:00:00,28.570173,76.933762,PM10,30,101,71
India,Delhi,Delhi,"Narela, Delhi - DPCC",06-02-2024 10:00:00,28.822836,77.101981,PM2.5,52,237,133
India,Delhi,Delhi,"Narela, Delhi - DPCC",06-02-2024 10:00:00,28.822836,77.101981,NO2,13,35,21
India,Delhi,Delhi,"Narela, Delhi - DPCC",06-02-2024 10:00:00,28.822836,77.101981,CO,66,84,74
India,Delhi,Delhi,"Nehru Nagar, Delhi - DPCC",06-02-2024 10:00:00,28.567890,77.250515,PM10,106,212,141
India,Delhi,Delhi,"Nehru Nagar, Delhi - DPCC",06-02-2024 10:00:00,28.567890,77.250515,OZONE,2,100,6
India,Delhi,Delhi,"North Campus, DU, Delhi - IMD",06-02-2024 10:00:00,28.6573814,77.1585447,NO2,25,75,35
India,Delhi,Delhi,"North Campus, DU, Delhi - IMD",06-02-2024 10:00:00,28.6573814,77.1585447,CO,12,24,14
India,Delhi,Delhi,"Okhla Phase-2, Delhi - DPCC",06-02-2024 10:00:00,28.530785,77.271255,PM10,110,155,132
India,Delhi,Delhi,"Okhla Phase-2, Delhi - DPCC",06-02-2024 10:00:00,28.530785,77.271255,NO2,47,81,60
India,Delhi,Delhi,"Punjabi Bagh, Delhi - DPCC",06-02-2024 10:00:00,28.674045,77.131023,NO2,27,50,41
India,Delhi,Delhi,"Pusa, Delhi - DPCC",06-02-2024 10:00:00,28.639652,77.146275,PM2.5,78,315,170
India,Delhi,Delhi,"Pusa, Delhi - DPCC",06-02-2024 10:00:00,28.639652,77.146275,NH3,16,22,20
India,Delhi,Delhi,"Pusa, Delhi - DPCC",06-02-2024 10:00:00,28.639652,77.146275,SO2,6,14,9
India,Delhi,Delhi,"Pusa, Delhi - DPCC",06-02-2024 10:00:00,28.639652,77.146275,OZONE,13,34,14
India,Delhi,Delhi,"R K Puram, Delhi - DPCC",06-02-2024 10:00:00,28.563262,77.186937,NO2,33,75,50
India,Delhi,Delhi,"R K Puram, Delhi - DPCC",06-02-2024 10:00:00,28.563262,77.186937,SO2,20,30,24
India,Delhi,Delhi,"Rohini, Delhi - DPCC",06-02-2024 10:00:00,28.732528,77.119920,PM10,66,140,113
India,Delhi,Delhi,"Rohini, Delhi - DPCC",06-02-2024 10:00:00,28.732528,77.119920,NH3,8,15,10
India,Delhi,Delhi,"Rohini, Delhi - DPCC",06-02-2024 10:00:00,28.732528,77.119920,CO,19,70,24
India,Delhi,Delhi,"Sirifort, Delhi - CPCB",06-02-2024 10:00:00,28.5504249,77.2159377,SO2,30,33,31
India,Delhi,Delhi,"Sonia Vihar, Delhi - DPCC",06-02-2024 10:00:00,28.710508,77.249485,OZONE,6,56,15
India,Delhi,Delhi,"Vivek Vihar, Delhi - DPCC",06-02-2024 10:00:00,28.672342,77.315260,NH3,5,12,8
India,Delhi,Delhi,"Vivek Vihar, Delhi - DPCC",06-02-2024 10:00:00,28.672342,77.315260,SO2,5,10,8
India,Delhi,Delhi,"Vivek Vihar, Delhi - DPCC",06-02-2024 10:00:00,28.672342,77.315260,CO,14,47,22
India,Gujarat,Ahmedabad,"Chandkheda, Ahmedabad - IITM",06-02-2024 10:00:00,23.107969,72.574648,PM2.5,51,381,113
India,Gujarat,Ahmedabad,"Chandkheda, Ahmedabad - IITM",06-02-2024 10:00:00,23.107969,72.574648,SO2,8,22,12
India,Gujarat,Ahmedabad,"Chandkheda, Ahmedabad - IITM",06-02-2024 10:00:00,23.107969,72.574648,CO,4,106,77
India,Gujarat,Ahmedabad,"Maninagar, Ahmedabad - GPCB",06-02-2024 10:00:00,23.002657,72.591912,PM10,41,80,57
India,Gujarat,Ahmedabad,"Raikhad, Ahmedabad - IITM",06-02-2024 10:00:00,23.020509,72.579261,CO,1,18,5
India,Gujarat,Ahmedabad,"Raikhad, Ahmedabad - IITM",06-02-2024 10:00:00,23.020509,72.579261,OZONE,14,22,16
India,Gujarat,Ahmedabad,"Rakhial, Ahmedabad - IITM",06-02-2024 10:00:00,23.016834,72.625775,SO2,3,20,6
India,Gujarat,Ahmedabad,"Rakhial, Ahmedabad - IITM",06-02-2024 10:00:00,23.016834,72.625775,CO,50,87,60
India,Gujarat,Ahmedabad,"Rakhial, Ahmedabad - IITM",06-02-2024 10:00:00,23.016834,72.625775,OZONE,2,20,6
India,Gujarat,Ahmedabad,"SAC ISRO Bopal, Ahmedabad - IITM",06-02-2024 10:00:00,23.041137,72.456691,PM10,32,167,69
India,Gujarat,Ahmedabad,"SAC ISRO Bopal, Ahmedabad - IITM",06-02-2024 10:00:00,23.041137,72.456691,SO2,14,19,17
India,Gujarat,Ahmedabad,"SAC ISRO Satellite, Ahmedabad - IITM",06-02-2024 10:00:00,23.023389,72.515201,NO2,17,17,17
India,Gujarat,Ahmedabad,"SVPI Airport Hansol, Ahmedabad - IITM",06-02-2024 10:00:00,23.076793,72.627874,PM10,53,104,72
India,Gujarat,Ahmedabad,"SVPI Airport Hansol, Ahmedabad - IITM",06-02-2024 10:00:00,23.076793,72.627874,NO2,13,21,16
India,Gujarat,Ahmedabad,"Sardar Vallabhbhai Patel Stadium, Ahmedabad - IITM",06-02-2024 10:00:00,23.043070,72.562968,PM10,68,112,81
India,Gujarat,Ahmedabad,"Sardar Vallabhbhai Patel Stadium, Ahmedabad - IITM",06-02-2024 10:00:00,23.043070,72.562968,NO2,12,14,13
India,Gujarat,Ahmedabad,"Sardar Vallabhbhai Patel Stadium, Ahmedabad - IITM",06-02-2024 10:00:00,23.043070,72.562968,NH3,3,3,3
India,Gujarat,Ahmedabad,"Sardar Vallabhbhai Patel Stadium, Ahmedabad - IITM",06-02-2024 10:00:00,23.043070,72.562968,CO,26,52,31
India,Gujarat,Gandhinagar,"GIFT City, Gandhinagar - IITM",06-02-2024 10:00:00,23.163798,72.677768,PM2.5,49,105,68
India,Gujarat,Gandhinagar,"GIFT City, Gandhinagar - IITM",06-02-2024 10:00:00,23.163798,72.677768,PM10,56,112,79
India,Gujarat,Gandhinagar,"GIFT City, Gandhinagar - IITM",06-02-2024 10:00:00,23.163798,72.677768,NO2,8,11,10
India,Gujarat,Gandhinagar,"Sector-10, Gandhinagar - GPCB",06-02-2024 10:00:00,23.221714,72.654328,NH3,2,2,2
India,Gujarat,Surat,"Science Center, Surat - SMC",06-02-2024 10:00:00,21.170046,72.795405,SO2,16,22,19
India,Gujarat,Vapi,"Phase-1 GIDC, Vapi - GPCB",06-02-2024 10:00:00,20.362421,72.918013,PM2.5,92,400,246
India,Gujarat,Vapi,"Phase-1 GIDC, Vapi - GPCB",06-02-2024 10:00:00,20.362421,72.918013,CO,1,190,47
India,Gujarat,Vatva,"Phase-4 GIDC, Vatva - GPCB",06-02-2024 10:00:00,22.969611,72.643500,SO2,3,30,8
India,Haryana,Ambala,"Patti Mehar, Ambala - HSPCB",06-02-2024 10:00:00,30.379589,76.778328,NH3,9,11,9
India,Haryana,Bahadurgarh,"Arya Nagar, Bahadurgarh - HSPCB",06-02-2024 10:00:00,28.6701,76.9254,PM10,47,89,72
India,Haryana,Ballabgarh,"Nathu Colony, Ballabgarh - HSPCB",06-02-2024 10:00:00,28.3419248,77.319699,PM10,102,154,123
India,Haryana,Ballabgarh,"Nathu Colony, Ballabgarh - HSPCB",06-02-2024 10:00:00,28.3419248,77.319699,OZONE,1,13,2
India,Haryana,Bhiwani,"H.B. Colony, Bhiwani - HSPCB",06-02-2024 10:00:00,28.806223,76.141105,OZONE,9,99,12
India,Haryana,Dharuhera,"Municipal Corporation Office, Dharuhera -  HSPCB",06-02-2024 10:00:00,28.206800,76.799700,CO,101,102,102
India,Haryana,Faridabad,"New Industrial Town, Faridabad - HSPCB",06-02-2024 10:00:00,28.39072,77.30059,CO,14,27,17
India,Haryana,Faridabad,"Sector 30, Faridabad - HSPCB",06-02-2024 10:00:00,28.4417,77.3217,NO2,31,33,32
India,Haryana,Faridabad,"Sector 30, Faridabad - HSPCB",06-02-2024 10:00:00,28.4417,77.3217,SO2,3,60,6
India,Haryana,Faridabad,"Sector- 16A, Faridabad - HSPCB",06-02-2024 10:00:00,28.4088421,77.3099081,CO,NA,NA,NA
India,Haryana,Fatehabad,"Huda Sector, Fatehabad - HSPCB",06-02-2024 10:00:00,29.503664,75.467934,OZONE,20,35,25
India,Haryana,Gurugram,"Teri Gram, Gurugram - HSPCB",06-02-2024 10:00:00,28.4275,77.1465,NH3,27,48,38
India,Haryana,Hisar,"Urban Estate-II, Hisar - HSPCB",06-02-2024 10:00:00,29.140560,75.744941,PM2.5,40,109,59
India,Haryana,Hisar,"Urban Estate-II, Hisar - HSPCB",06-02-2024 10:00:00,29.140560,75.744941,PM10,NA,NA,NA
India,Haryana,Hisar,"Urban Estate-II, Hisar - HSPCB",06-02-2024 10:00:00,29.140560,75.744941,NO2,8,10,9
India,Haryana,Kaithal,"Rishi Nagar, Kaithal - HSPCB",06-02-2024 10:00:00,29.8006,76.4155,PM2.5,44,127,66
India,Haryana,Kaithal,"Rishi Nagar, Kaithal - HSPCB",06-02-2024 10:00:00,29.8006,76.4155,SO2,6,21,12
India,Haryana,Kurukshetra,"Sector-7, Kurukshetra - HSPCB",06-02-2024 10:00:00,29.966942,76.875879,NH3,5,5,5
India,Haryana,Mandikhera,"General Hospital, Mandikhera - HSPCB",06-02-2024 10:00:00,27.9002,76.9938,NO2,16,22,19
India,Haryana,Mandikhera,"General Hospital, Mandikhera - HSPCB",06-02-2024 10:00:00,27.9002,76.9938,NH3,18,21,20
India,Haryana,Manesar,"Sector-2 IMT, Manesar - HSPCB",06-02-2024 10:00:00,28.360699,76.936090,NH3,3,8,5
India,Haryana,Manesar,"Sector-2 IMT, Manesar - HSPCB",06-02-2024 10:00:00,28.360699,76.936090,CO,5,40,25
India,Haryana,Narnaul,"Shastri Nagar, Narnaul - HSPCB",06-02-2024 10:00:00,28.060249,76.113115,CO,4,40,20
India,Haryana,Narnaul,"Shastri Nagar, Narnaul - HSPCB",06-02-2024 10:00:00,28.060249,76.113115,OZONE,4,86,54
India,Haryana,Palwal,"Shyam Nagar, Palwal - HSPCB",06-02-2024 10:00:00,28.1485564,77.3320667,NO2,5,5,5
India,Haryana,Panchkula,"Sector-6, Panchkula - HSPCB ",06-02-2024 10:00:00,30.7057778,76.8531805555555,OZONE,27,31,29
India,Haryana,Panipat,"Sector-18, Panipat - HSPCB",06-02-2024 10:00:00,29.497973,76.993331,NO2,28,32,30
India,Haryana,Panipat,"Sector-18, Panipat - HSPCB",06-02-2024 10:00:00,29.497973,76.993331,NH3,2,3,2
India,Haryana,Panipat,"Sector-18, Panipat - HSPCB",06-02-2024 10:00:00,29.497973,76.993331,SO2,12,13,12
India,Haryana,Sirsa,"F-Block, Sirsa - HSPCB",06-02-2024 10:00:00,29.536400,75.015800,CO,68,103,84
India,Haryana,Sonipat,"Murthal, Sonipat - HSPCB",06-02-2024 10:00:00,29.027200,77.062100,PM2.5,30,107,70
India,Haryana,Yamuna Nagar,"Gobind Pura, Yamuna Nagar - HSPCB",06-02-2024 10:00:00,30.1480566,77.2893471,PM2.5,7,76,43
India,Haryana,Yamuna Nagar,"Gobind Pura, Yamuna Nagar - HSPCB",06-02-2024 10:00:00,30.1480566,77.2893471,NH3,1,45,6
India,Himachal Pradesh,Baddi,"HIMUDA Complex Phase-1, Baddi - HPPCB",06-02-2024 10:00:00,30.943887,76.801991,PM10,69,155,108
India,Himachal Pradesh,Baddi,"HIMUDA Complex Phase-1, Baddi - HPPCB",06-02-2024 10:00:00,30.943887,76.801991,CO,6,44,34
India,Himachal Pradesh,Baddi,"HIMUDA Complex Phase-1, Baddi - HPPCB",06-02-2024 10:00:00,30.943887,76.801991,OZONE,8,54,10
India,Jharkhand,Dhanbad,"Kalakusuma, Dhanbad - DMC",06-02-2024 10:00:00,23.811548,86.481238,PM2.5,NA,NA,NA
India,Jharkhand,Dhanbad,"Kalakusuma, Dhanbad - DMC",06-02-2024 10:00:00,23.811548,86.481238,NO2,NA,NA,NA
India,Jharkhand,Dhanbad,"Sardar Patel Nagar, Dhanbad - JSPCB",06-02-2024 10:00:00,23.80569,86.44268,SO2,NA,NA,NA
India,Karnataka,Belgaum,"Ramteerth Nagar, Belgaum - KSPCB",06-02-2024 10:00:00,15.888653,74.541751,CO,37,54,45
India,Karnataka,Bengaluru,"BTM Layout, Bengaluru - CPCB",06-02-2024 10:00:00,12.9135218,77.5950804,PM2.5,17,323,55
India,Karnataka,Bengaluru,"BTM Layout, Bengaluru - CPCB",06-02-2024 10:00:00,12.9135218,77.5950804,PM10,55,102,74
India,Karnataka,Bengaluru,"BTM Layout, Bengaluru - CPCB",06-02-2024 10:00:00,12.9135218,77.5950804,NH3,14,21,17
India,Karnataka,Bengaluru,"City Railway Station, Bengaluru - KSPCB",06-02-2024 10:00:00,12.9756843,77.5660749,NO2,NA,NA,NA
India,Karnataka,Bengaluru,"Hebbal, Bengaluru - KSPCB",06-02-2024 10:00:00,13.029152,77.585901,OZONE,5,20,9
India,Karnataka,Bengaluru,"Jayanagar 5th Block, Bengaluru - KSPCB",06-02-2024 10:00:00,12.920984,77.584908,PM2.5,48,115,70
India,Karnataka,Bengaluru,"Jayanagar 5th Block, Bengaluru - KSPCB",06-02-2024 10:00:00,12.920984,77.584908,NH3,2,3,3
India,Karnataka,Bengaluru,"Kasturi Nagar, Bengaluru - KSPCB",06-02-2024 10:00:00,13.003872,77.664217,NH3,3,4,4
India,Karnataka,Bengaluru,"Peenya, Bengaluru - CPCB",06-02-2024 10:00:00,13.0270199,77.494094,NH3,4,7,5
India,Karnataka,Bengaluru,"Peenya, Bengaluru - CPCB",06-02-2024 10:00:00,13.0270199,77.494094,SO2,10,21,16
India,Karnataka,Bengaluru,"Sanegurava Halli, Bengaluru - KSPCB",06-02-2024 10:00:00,12.990328,77.5431385,PM10,NA,NA,NA
India,Karnataka,Bengaluru,"Sanegurava Halli, Bengaluru - KSPCB",06-02-2024 10:00:00,12.990328,77.5431385,NO2,NA,NA,NA
India,Karnataka,Bengaluru,"Shivapura_Peenya, Bengaluru - KSPCB",06-02-2024 10:00:00,13.0246342,77.5080115,PM10,56,115,73
India,Karnataka,Bidar,"Naubad, Bidar - KSPCB",06-02-2024 10:00:00,17.930306,77.482194,NO2,NA,NA,NA
India,Karnataka,Chamarajanagar,"Urban, Chamarajanagar - KSPCB",06-02-2024 10:00:00,11.55358,76.55521,NO2,23,35,30
India,Karnataka,Chikkaballapur,"Chikkaballapur Rural, Chikkaballapur - KSPCB",06-02-2024 10:00:00,13.428828,77.731418,NH3,NA,NA,NA
India,Karnataka,Chikkamagaluru,"Kalyana Nagara, Chikkamagaluru - KSPCB",06-02-2024 10:00:00,13.328028,75.797056,PM10,31,110,57
India,Karnataka,Chikkamagaluru,"Kalyana Nagara, Chikkamagaluru - KSPCB",06-02-2024 10:00:00,13.328028,75.797056,NO2,20,33,25
India,Karnataka,Chikkamagaluru,"Kalyana Nagara, Chikkamagaluru - KSPCB",06-02-2024 10:00:00,13.328028,75.797056,NH3,3,6,4
India,Karnataka,Chikkamagaluru,"Kalyana Nagara, Chikkamagaluru - KSPCB",06-02-2024 10:00:00,13.328028,75.797056,CO,8,127,12
India,Karnataka,Davanagere,"Devaraj Urs Badavane, Davanagere - KSPCB",06-02-2024 10:00:00,14.475800,75.905200,CO,16,18,17
India,Karnataka,Dharwad,"Kalabhavan, Dharwad - KSPCB",06-02-2024 10:00:00,15.459706,75.008381,OZONE,2,44,3
India,Karnataka,Hassan,"B.Katihalli, Hassan - KSPCB",06-02-2024 10:00:00,13.008556,76.125258,PM2.5,35,130,68
India,Karnataka,Hassan,"B.Katihalli, Hassan - KSPCB",06-02-2024 10:00:00,13.008556,76.125258,CO,8,28,22
India,Karnataka,Haveri,"Ashwini Nagar, Haveri - KSPCB",06-02-2024 10:00:00,14.791800,75.389600,NO2,24,42,32
India,Karnataka,Hubballi,"Lingaraj Nagar, Hubballi - KSPCB",06-02-2024 10:00:00,15.3714823,75.1160168,CO,40,95,69
India,Karnataka,Hubballi,"Lingaraj Nagar, Hubballi - KSPCB",06-02-2024 10:00:00,15.3714823,75.1160168,OZONE,2,41,10
India,Karnataka,Kalaburagi,"Lal Bahadur Shastri Nagar, Kalaburagi - KSPCB",06-02-2024 10:00:00,17.321993,76.822628,NO2,12,12,12
India,Karnataka,Kalaburagi,"Lal Bahadur Shastri Nagar, Kalaburagi - KSPCB",06-02-2024 10:00:00,17.321993,76.822628,NH3,2,2,2
India,Karnataka,Kalaburagi,"Lal Bahadur Shastri Nagar, Kalaburagi - KSPCB",06-02-2024 10:00:00,17.321993,76.822628,OZONE,3,70,37
India,Karnataka,Kalaburagi,"Mahatma Basaveswar Colony, Kalaburgi - KSPCB",06-02-2024 10:00:00,17.336318,76.847397,SO2,4,18,6
India,Karnataka,Kalaburagi,"Mahatma Basaveswar Colony, Kalaburgi - KSPCB",06-02-2024 10:00:00,17.336318,76.847397,OZONE,1,25,13
India,Karnataka,Kolar,"Tamaka Ind. Area, Kolar - KSPCB",06-02-2024 10:00:00,13.1276288,78.1570122,CO,10,14,13
India,Karnataka,Mangalore,"Kadri, Mangalore - KSPCB",06-02-2024 10:00:00,12.889250,74.853000,PM2.5,51,180,81
India,Karnataka,Mangalore,"Kadri, Mangalore - KSPCB",06-02-2024 10:00:00,12.889250,74.853000,OZONE,31,32,31
India,Karnataka,Raichur,"Haji Colony, Raichur - KSPCB",06-02-2024 10:00:00,16.208139,77.348417,PM10,NA,NA,NA
India,Karnataka,Raichur,"Haji Colony, Raichur - KSPCB",06-02-2024 10:00:00,16.208139,77.348417,NO2,20,58,32
India,Karnataka,Ramanagara,"Vijay Nagar, Ramanagara - KSPCB",06-02-2024 10:00:00,12.733409,77.298051,SO2,26,43,30
India,Karnataka,Shivamogga,"Vinoba Nagara, Shivamogga - KSPCB",06-02-2024 10:00:00,13.940000,75.555917,PM10,54,90,71
India,Karnataka,Shivamogga,"Vinoba Nagara, Shivamogga - KSPCB",06-02-2024 10:00:00,13.940000,75.555917,NH3,2,5,3
India,Karnataka,Tumakuru,"Thimmalapura, Tumakuru - KSPCB",06-02-2024 10:00:00,13.377516,77.099072,OZONE,7,51,24
India,Karnataka,Yadgir,"Collector Office, Yadgir - KSPCB",06-02-2024 10:00:00,16.7602,77.1428,PM10,51,141,84
India,Kerala,Eloor,"Udyogamandal, Eloor - Kerala PCB",06-02-2024 10:00:00,10.073232,76.302765,PM2.5,37,67,50
India,Kerala,Kannur,"Thavakkara, Kannur - Kerala PCB",06-02-2024 10:00:00,11.875000,75.373200,PM2.5,44,52,48
India,Kerala,Kannur,"Thavakkara, Kannur - Kerala PCB",06-02-2024 10:00:00,11.875000,75.373200,NH3,1,1,1
India,Kerala,Kochi,"Vyttila, Kochi - Kerala PCB",06-02-2024 10:00:00,9.969447,76.321186,NO2,NA,NA,NA
India,Kerala,Kochi,"Vyttila, Kochi - Kerala PCB",06-02-2024 10:00:00,9.969447,76.321186,SO2,NA,NA,NA
India,Kerala,Kochi,"Vyttila, Kochi - Kerala PCB",06-02-2024 10:00:00,9.969447,76.321186,CO,60,62,60
India,Kerala,Kollam,"Polayathode, Kollam - Kerala PCB",06-02-2024 10:00:00,8.8787,76.6073,CO,12,52,22
India,Kerala,Thiruvananthapuram,"Kariavattom, Thiruvananthapuram - Kerala PCB",06-02-2024 10:00:00,8.563700,76.886500,NO2,8,10,9
India,Kerala,Thiruvananthapuram,"Kariavattom, Thiruvananthapuram - Kerala PCB",06-02-2024 10:00:00,8.563700,76.886500,OZONE,25,30,29
India,Kerala,Thiruvananthapuram,"Plammoodu, Thiruvananthapuram - Kerala PCB",06-02-2024 10:00:00,8.5149093,76.9435879,PM2.5,22,67,43
India,Kerala,Thiruvananthapuram,"Plammoodu, Thiruvananthapuram - Kerala PCB",06-02-2024 10:00:00,8.5149093,76.9435879,CO,22,32,27
India,Kerala,Thiruvananthapuram,"Plammoodu, Thiruvananthapuram - Kerala PCB",06-02-2024 10:00:00,8.5149093,76.9435879,OZONE,12,53,19
India,Madhya Pradesh,Bhopal,"Idgah Hills, Bhopal - MPPCB",06-02-2024 10:00:00,23.264759,77.381568,PM10,94,126,110
India,Madhya Pradesh,Bhopal,"Paryavaran Parisar, Bhopal - MPPCB",06-02-2024 10:00:00,23.210494,77.425409,PM10,85,254,117
India,Madhya Pradesh,Bhopal,"Paryavaran Parisar, Bhopal - MPPCB",06-02-2024 10:00:00,23.210494,77.425409,OZONE,2,76,25
India,Madhya Pradesh,Bhopal,"T T Nagar, Bhopal - MPPCB",06-02-2024 10:00:00,23.233584,77.400574,PM10,78,163,117
India,Madhya Pradesh,Bhopal,"T T Nagar, Bhopal - MPPCB",06-02-2024 10:00:00,23.233584,77.400574,NH3,3,6,5
India,Madhya Pradesh,Gwalior,"City Center, Gwalior - MPPCB",06-02-2024 10:00:00,26.203442,78.193251,PM10,80,198,116
India,Madhya Pradesh,Gwalior,"City Center, Gwalior - MPPCB",06-02-2024 10:00:00,26.203442,78.193251,SO2,33,42,37
India,Madhya Pradesh,Gwalior,"Deen Dayal Nagar, Gwalior - MPPCB",06-02-2024 10:00:00,26.259242,78.216432,NH3,3,6,4
India,Madhya Pradesh,Gwalior,"Maharaj Bada, Gwalior - MPPCB",06-02-2024 10:00:00,26.200388,78.147714,PM10,79,243,157
India,Madhya Pradesh,Gwalior,"Maharaj Bada, Gwalior - MPPCB",06-02-2024 10:00:00,26.200388,78.147714,SO2,12,17,14
India,Madhya Pradesh,Gwalior,"Maharaj Bada, Gwalior - MPPCB",06-02-2024 10:00:00,26.200388,78.147714,CO,5,124,5
India,Madhya Pradesh,Gwalior,"Phool Bagh, Gwalior - Mondelez Ind. Food",06-02-2024 10:00:00,26.210536,78.171,PM10,40,139,89
India,Madhya Pradesh,Indore,"Chhoti Gwaltoli, Indore - MPPCB",06-02-2024 10:00:00,22.4310,75.5213,NH3,5,8,6
India,Madhya Pradesh,Indore,"Maguda Nagar, Indore - IMC",06-02-2024 10:00:00,22.7524,75.8872,NO2,NA,NA,NA
India,Madhya Pradesh,Indore,"Regional Park, Indore - IMC",06-02-2024 10:00:00,22.6780,75.8559,CO,18,26,22
India,Madhya Pradesh,Indore,"Residency Area, Indore - IMC",06-02-2024 10:00:00,22.7084,75.8815,PM2.5,44,137,61
India,Madhya Pradesh,Indore,"Residency Area, Indore - IMC",06-02-2024 10:00:00,22.7084,75.8815,CO,6,12,9
India,Madhya Pradesh,Jabalpur,"Govindh Bhavan Colony, Jabalpur - JMC",06-02-2024 10:00:00,23.163174,79.973061,PM2.5,42,95,68
India,Madhya Pradesh,Jabalpur,"Gupteshwar, Jabalpur - JMC",06-02-2024 10:00:00,23.142888,79.916147,PM10,57,121,81
India,Madhya Pradesh,Jabalpur,"Suhagi, Jabalpur - JMC",06-02-2024 10:00:00,23.218135,79.957770,OZONE,6,96,11
India,Madhya Pradesh,Maihar,"Sahilara, Maihar - KJS Cements",06-02-2024 10:00:00,24.2613009,80.7231783,PM2.5,2,65,31
India,Madhya Pradesh,Mandideep,"Sector-D Industrial Area, Mandideep - MPPCB",06-02-2024 10:00:00,23.108440,77.511428,CO,8,98,61
India,Madhya Pradesh,Mandideep,"Sector-D Industrial Area, Mandideep - MPPCB",06-02-2024 10:00:00,23.108440,77.511428,OZONE,8,71,35
India,Madhya Pradesh,Pithampur,"Sector-2 Industrial Area, Pithampur - MPPCB",06-02-2024 10:00:00,22.624758,75.675238,NH3,5,7,5
India,Madhya Pradesh,Pithampur,"Sector-2 Industrial Area, Pithampur - MPPCB",06-02-2024 10:00:00,22.624758,75.675238,OZONE,19,64,34
India,Madhya Pradesh,Ratlam,"Shasthri Nagar, Ratlam - IPCA Lab",06-02-2024 10:00:00,23.331731,75.045981,PM2.5,14,98,52
India,Madhya Pradesh,Ratlam,"Shasthri Nagar, Ratlam - IPCA Lab",06-02-2024 10:00:00,23.331731,75.045981,NO2,5,60,37
India,Madhya Pradesh,Sagar,"Deen Dayal Nagar, Sagar - MPPCB",06-02-2024 10:00:00,23.8640158,78.80289321,PM10,25,113,69
India,Madhya Pradesh,Satna,"Bandhavgar Colony, Satna - Birla Cement",06-02-2024 10:00:00,24.58434363,80.8549414,NO2,4,21,10
India,Madhya Pradesh,Satna,"Bandhavgar Colony, Satna - Birla Cement",06-02-2024 10:00:00,24.58434363,80.8549414,CO,17,26,20
India,Madhya Pradesh,Ujjain,"Mahakaleshwar Temple, Ujjain - MPPCB",06-02-2024 10:00:00,23.182719 ,75.768218 ,NO2,4,31,16
India,Madhya Pradesh,Ujjain,"Mahakaleshwar Temple, Ujjain - MPPCB",06-02-2024 10:00:00,23.182719 ,75.768218 ,NH3,7,8,8
India,Maharashtra,Ahmednagar,"Tarakpur, Ahmednagar - MPCB",06-02-2024 10:00:00,19.10122,74.73339,PM10,37,167,105
India,Maharashtra,Akola,"Ramdaspeth, Akola - MPCB",06-02-2024 10:00:00,20.719516,77.000253,NH3,5,21,10
India,Maharashtra,Akola,"Ramdaspeth, Akola - MPCB",06-02-2024 10:00:00,20.719516,77.000253,SO2,7,42,14
India,Maharashtra,Amravati,"Shivneri Colony, Amravati - MPCB",06-02-2024 10:00:00,20.9402359,77.7895248,PM2.5,72,103,88
India,Maharashtra,Amravati,"Shri Shivaji Science College, Amaravati - MPCB",06-02-2024 10:00:00,20.939198,77.765701,PM10,110,248,147
India,Maharashtra,Aurangabad,"MIDC Chilkalthana, Aurangabad - MPCB",06-02-2024 10:00:00,19.875620,75.387310,NO2,11,112,38
India,Maharashtra,Aurangabad,"MIDC Chilkalthana, Aurangabad - MPCB",06-02-2024 10:00:00,19.875620,75.387310,NH3,3,4,4
India,Maharashtra,Aurangabad,"More Chowk Waluj, Aurangabad - MPCB",06-02-2024 10:00:00,19.8389439,75.244448,OZONE,3,23,10
India,Maharashtra,Badlapur,"Katrap, Badlapur - MPCB",06-02-2024 10:00:00,19.16485,73.23409,CO,20,92,57
India,Maharashtra,Belapur,"CBD Belapur, Belapur - MPCB",06-02-2024 10:00:00,19.0243902,73.0406721,NH3,18,53,30
India,Maharashtra,Boisar,"Khaira, Boisar - MPCB",06-02-2024 10:00:00,19.786089,72.757971,PM10,NA,NA,NA
India,Maharashtra,Boisar,"Khaira, Boisar - MPCB",06-02-2024 10:00:00,19.786089,72.757971,NO2,NA,NA,NA
India,Maharashtra,Chandrapur,"Chauhan Colony, Chandrapur - MPCB",06-02-2024 10:00:00,19.962900,79.298714,NO2,15,44,22
India,Maharashtra,Dhule,"Deopur, Dhule - MPCB",06-02-2024 10:00:00,20.918946,74.776388,PM2.5,35,137,86
India,Maharashtra,Dhule,"Deopur, Dhule - MPCB",06-02-2024 10:00:00,20.918946,74.776388,NO2,5,16,10
India,Maharashtra,Dhule,"Deopur, Dhule - MPCB",06-02-2024 10:00:00,20.918946,74.776388,OZONE,15,81,30
India,Maharashtra,Jalgaon,"Prabhat Colony, Jalgaon - MPCB",06-02-2024 10:00:00,21.001264,75.565602,NO2,21,116,58
India,Maharashtra,Jalgaon,"Prabhat Colony, Jalgaon - MPCB",06-02-2024 10:00:00,21.001264,75.565602,OZONE,6,60,21
India,Maharashtra,Jalna,"Old MIDC, Jalna - MPCB",06-02-2024 10:00:00,19.854616,75.905894,NO2,NA,NA,NA
India,Maharashtra,Jalna,"Old MIDC, Jalna - MPCB",06-02-2024 10:00:00,19.854616,75.905894,NH3,NA,NA,NA
India,Maharashtra,Jalna,"Old MIDC, Jalna - MPCB",06-02-2024 10:00:00,19.854616,75.905894,SO2,NA,NA,NA
India,Maharashtra,Jalna,"Old MIDC, Jalna - MPCB",06-02-2024 10:00:00,19.854616,75.905894,OZONE,52,104,58
India,Maharashtra,Kalyan,"Khadakpada, Kalyan - MPCB",06-02-2024 10:00:00,19.25292,73.142019,SO2,17,108,38
India,Maharashtra,Kolhapur,"Sinchan Bhavan, Kolhapur - MPCB",06-02-2024 10:00:00,16.7143745,74.2426398,NH3,7,8,8
India,Maharashtra,Latur,"Sawe Wadi, Latur - MPCB",06-02-2024 10:00:00,18.39963,76.57452,CO,14,164,33
India,Maharashtra,Mahad,"Kamble Tarf Birwadi, Mahad - MPCB",06-02-2024 10:00:00,18.1023399,73.4783687,SO2,11,14,12
India,Maharashtra,Mahad,"Kamble Tarf Birwadi, Mahad - MPCB",06-02-2024 10:00:00,18.1023399,73.4783687,OZONE,23,104,37
India,Maharashtra,Mira-Bhayandar,"Bhayandar West, Mira-Bhayandar - MPCB",06-02-2024 10:00:00,19.296481,72.840923,PM2.5,87,296,204
India,Maharashtra,Mira-Bhayandar,"Bhayandar West, Mira-Bhayandar - MPCB",06-02-2024 10:00:00,19.296481,72.840923,NH3,4,9,7
India,Maharashtra,Mumbai,"Bandra Kurla Complex, Mumbai - MPCB",06-02-2024 10:00:00,19.065931,72.862131,PM10,94,232,145
India,Maharashtra,Mumbai,"Borivali East, Mumbai - IITM",06-02-2024 10:00:00,19.23241,72.86895,NO2,19,414,177
India,Maharashtra,Mumbai,"Borivali East, Mumbai - IITM",06-02-2024 10:00:00,19.23241,72.86895,CO,8,49,43
India,Maharashtra,Mumbai,"Borivali East, Mumbai - MPCB",06-02-2024 10:00:00,19.2243333,72.8658113,PM10,19,146,73
India,Maharashtra,Mumbai,"Byculla, Mumbai - BMC",06-02-2024 10:00:00,18.9767,72.8380,PM10,68,137,94
India,Maharashtra,Mumbai,"Byculla, Mumbai - BMC",06-02-2024 10:00:00,18.9767,72.8380,OZONE,1,95,9
India,Maharashtra,Mumbai,"Chakala-Andheri East, Mumbai - IITM",06-02-2024 10:00:00,19.11074,72.86084,SO2,43,115,85
India,Maharashtra,Mumbai,"Chakala-Andheri East, Mumbai - IITM",06-02-2024 10:00:00,19.11074,72.86084,CO,66,131,115
India,Maharashtra,Mumbai,"Colaba, Mumbai - MPCB",06-02-2024 10:00:00,18.910000,72.820000,PM2.5,35,107,59
India,Maharashtra,Mumbai,"Colaba, Mumbai - MPCB",06-02-2024 10:00:00,18.910000,72.820000,NO2,15,34,22
India,Maharashtra,Mumbai,"Colaba, Mumbai - MPCB",06-02-2024 10:00:00,18.910000,72.820000,SO2,10,22,14
India,Maharashtra,Mumbai,"Ghatkopar, Mumbai - BMC",06-02-2024 10:00:00,19.083694,72.920967,PM2.5,NA,NA,NA
India,Maharashtra,Mumbai,"Ghatkopar, Mumbai - BMC",06-02-2024 10:00:00,19.083694,72.920967,NO2,NA,NA,NA
India,Maharashtra,Mumbai,"Ghatkopar, Mumbai - BMC",06-02-2024 10:00:00,19.083694,72.920967,SO2,NA,NA,NA
India,Maharashtra,Mumbai,"Ghatkopar, Mumbai - BMC",06-02-2024 10:00:00,19.083694,72.920967,OZONE,4,13,5
India,Maharashtra,Mumbai,"Kherwadi_Bandra East, Mumbai - MPCB",06-02-2024 10:00:00,19.0632143,72.8456324,CO,4,110,59
India,Maharashtra,Mumbai,"Khindipada-Bhandup West, Mumbai - IITM",06-02-2024 10:00:00,19.1653323,72.922099,PM10,84,156,116
India,Maharashtra,Mumbai,"Khindipada-Bhandup West, Mumbai - IITM",06-02-2024 10:00:00,19.1653323,72.922099,NH3,13,73,36
India,Maharashtra,Mumbai,"Kurla, Mumbai - MPCB",06-02-2024 10:00:00,19.0863,72.8888,PM10,77,123,99
India,Maharashtra,Mumbai,"Kurla, Mumbai - MPCB",06-02-2024 10:00:00,19.0863,72.8888,SO2,32,32,32
India,Maharashtra,Mumbai,"Mindspace-Malad West, Mumbai - MPCB",06-02-2024 10:00:00,19.1878657,72.8304069,NH3,8,9,9
India,Maharashtra,Mumbai,"Mindspace-Malad West, Mumbai - MPCB",06-02-2024 10:00:00,19.1878657,72.8304069,OZONE,3,64,6
India,Maharashtra,Mumbai,"Mulund West, Mumbai - MPCB",06-02-2024 10:00:00,19.1750,72.9419,PM10,43,143,85
India,Maharashtra,Mumbai,"Mulund West, Mumbai - MPCB",06-02-2024 10:00:00,19.1750,72.9419,NO2,23,27,25
India,Maharashtra,Mumbai,"Navy Nagar-Colaba, Mumbai - IITM",06-02-2024 10:00:00,18.897756,72.813320,CO,8,78,45
India,Maharashtra,Mumbai,"Navy Nagar-Colaba, Mumbai - IITM",06-02-2024 10:00:00,18.897756,72.813320,OZONE,3,77,26
India,Maharashtra,Mumbai,"Powai, Mumbai - MPCB",06-02-2024 10:00:00,19.137500,72.915056,PM10,60,151,98
India,Maharashtra,Mumbai,"Shivaji Nagar, Mumbai - BMC",06-02-2024 10:00:00,19.060498,72.923356,NO2,72,148,108
India,Maharashtra,Mumbai,"Siddharth Nagar-Worli, Mumbai - IITM",06-02-2024 10:00:00,19.000083,72.813993,NH3,14,25,20
India,Maharashtra,Mumbai,"Sion, Mumbai - MPCB",06-02-2024 10:00:00,19.047000,72.874600,NO2,11,135,74
India,Maharashtra,Mumbai,"Sion, Mumbai - MPCB",06-02-2024 10:00:00,19.047000,72.874600,OZONE,11,19,15
India,Maharashtra,Mumbai,"Vasai West, Mumbai - MPCB",06-02-2024 10:00:00,19.383200,72.820400,PM2.5,19,125,48
India,Maharashtra,Mumbai,"Vasai West, Mumbai - MPCB",06-02-2024 10:00:00,19.383200,72.820400,NO2,26,28,27
India,Maharashtra,Mumbai,"Vasai West, Mumbai - MPCB",06-02-2024 10:00:00,19.383200,72.820400,SO2,16,16,16
India,Maharashtra,Mumbai,"Vasai West, Mumbai - MPCB",06-02-2024 10:00:00,19.383200,72.820400,CO,19,104,42
India,Maharashtra,Mumbai,"Vile Parle West, Mumbai - MPCB",06-02-2024 10:00:00,19.10861,72.83622,SO2,13,14,14
India,Maharashtra,Mumbai,"Vile Parle West, Mumbai - MPCB",06-02-2024 10:00:00,19.10861,72.83622,OZONE,5,7,6
India,Maharashtra,Mumbai,"Worli, Mumbai - MPCB",06-02-2024 10:00:00,18.9936162,72.8128113,CO,40,44,40
India,Maharashtra,Nagpur,"Ambazari, Nagpur - MPCB",06-02-2024 10:00:00,21.121801,79.04952,OZONE,1,92,17
India,Maharashtra,Nagpur,"Mahal, Nagpur - MPCB",06-02-2024 10:00:00,21.14472,79.107595,NO2,12,63,32
India,Maharashtra,Nagpur,"Mahal, Nagpur - MPCB",06-02-2024 10:00:00,21.14472,79.107595,SO2,29,75,51
India,Maharashtra,Nagpur,"Opp GPO Civil Lines, Nagpur - MPCB",06-02-2024 10:00:00,21.152875,79.0517531,PM2.5,94,236,165
India,Maharashtra,Nagpur,"Opp GPO Civil Lines, Nagpur - MPCB",06-02-2024 10:00:00,21.152875,79.0517531,NH3,3,20,7
India,Maharashtra,Nagpur,"Opp GPO Civil Lines, Nagpur - MPCB",06-02-2024 10:00:00,21.152875,79.0517531,OZONE,2,73,7
India,Maharashtra,Nagpur,"Ram Nagar, Nagpur - MPCB",06-02-2024 10:00:00,21.143383,79.048912,NH3,7,8,8
India,Maharashtra,Nagpur,"Ram Nagar, Nagpur - MPCB",06-02-2024 10:00:00,21.143383,79.048912,SO2,20,59,31
India,Maharashtra,Nanded,"Sneh Nagar, Nanded - MPCB",06-02-2024 10:00:00,19.173852,77.296291,CO,34,44,41
India,Maharashtra,Nanded,"Sneh Nagar, Nanded - MPCB",06-02-2024 10:00:00,19.173852,77.296291,OZONE,12,128,35
India,Maharashtra,Nashik,"Gangapur Road, Nashik - MPCB",06-02-2024 10:00:00,20.0073285,73.7762427,NO2,1,3,2
India,Maharashtra,Nashik,"Gangapur Road, Nashik - MPCB",06-02-2024 10:00:00,20.0073285,73.7762427,CO,18,18,18
India,Maharashtra,Nashik,"Hirawadi, Nashik - MPCB",06-02-2024 10:00:00,20.021503,73.813844,SO2,4,7,5
India,Maharashtra,Nashik,"MIDC Ambad, Nashik - MPCB",06-02-2024 10:00:00,19.950220,73.731480,PM2.5,56,219,102
India,Maharashtra,Nashik,"Pandav Nagari, Nashik - MPCB",06-02-2024 10:00:00,19.9591346,73.7788008,SO2,18,44,26
India,Maharashtra,Nashik,"Pandav Nagari, Nashik - MPCB",06-02-2024 10:00:00,19.9591346,73.7788008,CO,28,70,48
India,Maharashtra,Navi Mumbai,"Kopripada-Vashi, Navi Mumbai - MPCB",06-02-2024 10:00:00,19.090337,73.014232,PM10,41,224,116
India,Maharashtra,Navi Mumbai,"Kopripada-Vashi, Navi Mumbai - MPCB",06-02-2024 10:00:00,19.090337,73.014232,NH3,6,45,20
India,Maharashtra,Navi Mumbai,"Kopripada-Vashi, Navi Mumbai - MPCB",06-02-2024 10:00:00,19.090337,73.014232,OZONE,1,145,2
India,Maharashtra,Navi Mumbai,"Mahape, Navi Mumbai - MPCB",06-02-2024 10:00:00,19.1135051,73.008978,NO2,37,39,38
India,Maharashtra,Navi Mumbai,"Sanpada, Navi Mumbai - MPCB",06-02-2024 10:00:00,19.0575752,73.0151367,PM2.5,47,238,102
India,Maharashtra,Navi Mumbai,"Sanpada, Navi Mumbai - MPCB",06-02-2024 10:00:00,19.0575752,73.0151367,PM10,92,182,132
India,Maharashtra,Navi Mumbai,"Sanpada, Navi Mumbai - MPCB",06-02-2024 10:00:00,19.0575752,73.0151367,CO,10,103,59
India,Maharashtra,Navi Mumbai,"Tondare-Taloja, Navi Mumbai - MPCB",06-02-2024 10:00:00,19.0630,73.1209,PM2.5,78,303,155
India,Maharashtra,Navi Mumbai,"Tondare-Taloja, Navi Mumbai - MPCB",06-02-2024 10:00:00,19.0630,73.1209,NO2,23,142,74
India,Maharashtra,Navi Mumbai,"Tondare-Taloja, Navi Mumbai - MPCB",06-02-2024 10:00:00,19.0630,73.1209,CO,16,78,44
India,Maharashtra,Parbhani,"Masoom Colony, Parbhani - MPCB",06-02-2024 10:00:00,19.265594,76.761463,PM10,103,411,182
India,Maharashtra,Parbhani,"Masoom Colony, Parbhani - MPCB",06-02-2024 10:00:00,19.265594,76.761463,SO2,12,103,56
India,Maharashtra,Pimpri-Chinchwad,"Gavalinagar, Pimpri Chinchwad - MPCB",06-02-2024 10:00:00,18.63673,73.82487,NH3,1,20,6
India,Maharashtra,Pimpri-Chinchwad,"Park Street Wakad, Pimpri Chinchwad - MPCB",06-02-2024 10:00:00,18.59051,73.77946,PM10,111,192,148
India,Maharashtra,Pimpri-Chinchwad,"Park Street Wakad, Pimpri Chinchwad - MPCB",06-02-2024 10:00:00,18.59051,73.77946,SO2,8,23,13
India,Maharashtra,Pimpri-Chinchwad,"Thergaon, Pimpri Chinchwad - MPCB",06-02-2024 10:00:00,18.616318,73.765797,PM2.5,NA,NA,NA
India,Maharashtra,Pune,"Bhosari, Pune - IITM",06-02-2024 10:00:00,18.640051,73.848956,PM10,85,222,141
India,Maharashtra,Pune,"Bhosari, Pune - IITM",06-02-2024 10:00:00,18.640051,73.848956,CO,22,104,45
India,Maharashtra,Pune,"Karve Road, Pune - MPCB",06-02-2024 10:00:00,18.5011743,73.8165527,PM10,125,128,128
India,Maharashtra,Pune,"Karve Road, Pune - MPCB",06-02-2024 10:00:00,18.5011743,73.8165527,NO2,2,2,2
India,Maharashtra,Pune,"Karve Road, Pune - MPCB",06-02-2024 10:00:00,18.5011743,73.8165527,SO2,22,23,23
India,Maharashtra,Pune,"Katraj Dairy, Pune - MPCB",06-02-2024 10:00:00,18.454450,73.854155,PM2.5,52,302,110
India,Maharashtra,Pune,"Katraj Dairy, Pune - MPCB",06-02-2024 10:00:00,18.454450,73.854155,OZONE,1,50,5
India,Maharashtra,Pune,"Transport Nagar-Nigdi, Pune - IITM",06-02-2024 10:00:00,18.664282,73.763966,CO,19,74,54
India,Maharashtra,Solapur,"Ratandeep Housing Society, Solapur - MPCB",06-02-2024 10:00:00,17.65439,75.90649,NO2,28,165,82
India,Maharashtra,Solapur,"Solapur, Solapur - MPCB",06-02-2024 10:00:00,17.6599188,75.9063906,PM10,91,151,117
India,Maharashtra,Thane,"Kasarvadavali, Thane - MPCB",06-02-2024 10:00:00,19.26777,72.97182,SO2,11,50,21
India,Maharashtra,Thane,"Kasarvadavali, Thane - MPCB",06-02-2024 10:00:00,19.26777,72.97182,CO,12,60,48
India,Maharashtra,Thane,"Kasarvadavali, Thane - MPCB",06-02-2024 10:00:00,19.26777,72.97182,OZONE,1,113,2
India,Maharashtra,Thane,"Pimpleshwar Mandir, Thane - MPCB",06-02-2024 10:00:00,19.192056,72.9585188,PM10,11,283,166
India,Maharashtra,Thane,"Pimpleshwar Mandir, Thane - MPCB",06-02-2024 10:00:00,19.192056,72.9585188,NO2,15,27,21
India,Maharashtra,Thane,"Upvan Fort, Thane - MPCB",06-02-2024 10:00:00,19.222279,72.957979,PM2.5,60,206,100
India,Maharashtra,Thane,"Upvan Fort, Thane - MPCB",06-02-2024 10:00:00,19.222279,72.957979,NO2,14,86,41
India,Maharashtra,Ulhasnagar,"Sidhi Vinayak Nagar, Ulhasnagar - MPCB",06-02-2024 10:00:00,19.235581,73.159121,NO2,10,83,35
India,Maharashtra,Ulhasnagar,"Sidhi Vinayak Nagar, Ulhasnagar - MPCB",06-02-2024 10:00:00,19.235581,73.159121,CO,11,136,49
India,Maharashtra,Virar,"Bolinj, Virar - MPCB",06-02-2024 10:00:00,19.4458210,72.7988231,CO,13,105,37
India,Manipur,Imphal,"DM College of Science, Imphal - Manipur PCB",06-02-2024 10:00:00,24.8207389,93.9423085,NH3,2,2,2
India,Manipur,Imphal,"Manipur University, Imphal - Manipur PCB",06-02-2024 10:00:00,24.7524239,93.9286218,NH3,NA,NA,NA
India,Mizoram,Aizawl,"Sikulpuikawn, Aizawl - Mizoram PCB",06-02-2024 10:00:00,23.7176342,92.7192841,PM2.5,50,100,64
India,Mizoram,Aizawl,"Sikulpuikawn, Aizawl - Mizoram PCB",06-02-2024 10:00:00,23.7176342,92.7192841,SO2,2,2,2
India,Nagaland,Kohima,"PWD Juction, Kohima - NPCB",06-02-2024 10:00:00,25.6635413,94.0989878,NH3,1,1,1
India,Odisha,Balasore,"Kalidaspur, Balasore - OSPCB",06-02-2024 10:00:00,21.51161,86.89088,SO2,19,58,32
India,Odisha,Balasore,"Kalidaspur, Balasore - OSPCB",06-02-2024 10:00:00,21.51161,86.89088,CO,86,182,99
India,Odisha,Barbil,"Forest Office, Barbil - OSPCB",06-02-2024 10:00:00,22.1166054,85.3945546,CO,37,105,72
India,Odisha,Baripada,"Meher Colony, Baripada - OSPCB",06-02-2024 10:00:00,21.941841,86.728318,PM2.5,129,328,227
India,Odisha,Bhubaneswar,"Patia, Bhubaneswar - OSPCB",06-02-2024 10:00:00,20.34652,85.81630,PM10,65,126,93
India,Odisha,Bhubaneswar,"Patia, Bhubaneswar - OSPCB",06-02-2024 10:00:00,20.34652,85.81630,OZONE,22,130,37
India,Odisha,Bileipada,"Tata Township, Bileipada - OSPCB",06-02-2024 10:00:00,22.06156703,85.47409613,CO,15,28,25
India,Odisha,Bileipada,"Tata Township, Bileipada - OSPCB",06-02-2024 10:00:00,22.06156703,85.47409613,OZONE,18,29,18
India,Odisha,Byasanagar,"Ferro Chrome Colony, Byasanagar - OSPCB",06-02-2024 10:00:00,20.94185,86.11510,PM10,67,151,105
India,Odisha,Cuttack,"CDA Area, Cuttack - OSPCB",06-02-2024 10:00:00,20.48891     ,85.84768     ,PM2.5,78,170,116
India,Odisha,Cuttack,"CDA Area, Cuttack - OSPCB",06-02-2024 10:00:00,20.48891     ,85.84768     ,NO2,16,33,23
India,Odisha,Keonjhar,"Jagamohanpur, Keonjhar - OSPCB",06-02-2024 10:00:00,21.643900,85.599355,SO2,12,24,14
India,Odisha,Nayagarh,"Dabuna, Nayagarh - OSPCB",06-02-2024 10:00:00,21.847279,85.416905,NH3,3,5,4
India,Odisha,Rairangpur,"Divisional Forest Office, Rairangpur - OSPCB",06-02-2024 10:00:00,22.265816,86.174829,SO2,6,50,20
India,Odisha,Rourkela,"Fertilizer Township, Rourkela - OSPCB",06-02-2024 10:00:00,22.18972222,84.86277778,PM2.5,NA,NA,NA
India,Odisha,Rourkela,"Raghunathpali, Rourkela - OSPCB",06-02-2024 10:00:00,22.220833,84.809444,PM2.5,102,288,176
India,Odisha,Rourkela,"Raghunathpali, Rourkela - OSPCB",06-02-2024 10:00:00,22.220833,84.809444,NH3,1,2,1
India,Odisha,Suakati,"OMC Colony, Suakati - OSPCB",06-02-2024 10:00:00,21.606865,85.510538,PM10,104,179,128
India,Odisha,Talcher,"Talcher Coalfields,Talcher - OSPCB",06-02-2024 10:00:00,20.9360711,85.1707021,SO2,20,113,49
India,Odisha,Talcher,"Talcher Coalfields,Talcher - OSPCB",06-02-2024 10:00:00,20.9360711,85.1707021,OZONE,1,12,3
India,Odisha,Tensa,"Barsua Iron Ore Mines, Tensa - OSPCB",06-02-2024 10:00:00,21.869985,85.167016,CO,9,26,22
India,Odisha,Tensa,"Barsua Iron Ore Mines, Tensa - OSPCB",06-02-2024 10:00:00,21.869985,85.167016,OZONE,26,66,31
India,Puducherry,Puducherry,"Jawahar Nagar, Puducherry - PPCC",06-02-2024 10:00:00,11.9309,79.8027,PM10,32,73,48
India,Puducherry,Puducherry,"Jawahar Nagar, Puducherry - PPCC",06-02-2024 10:00:00,11.9309,79.8027,OZONE,12,45,24
India,Punjab,Bathinda,"Hardev Nagar, Bathinda - PPCB",06-02-2024 10:00:00,30.233011,74.907758,SO2,5,107,41
India,Punjab,Ludhiana,"Punjab Agricultural University, Ludhiana - PPCB",06-02-2024 10:00:00,30.9028,75.8086,NO2,23,29,27
India,Punjab,Patiala,"Model Town, Patiala - PPCB",06-02-2024 10:00:00,30.349388,76.366642,PM10,43,88,60
India,Punjab,Patiala,"Model Town, Patiala - PPCB",06-02-2024 10:00:00,30.349388,76.366642,OZONE,16,39,18
India,Punjab,Rupnagar,"Ratanpura, Rupnagar - Ambuja Cements",06-02-2024 10:00:00,31.0325454,76.5623046,SO2,5,62,11
India,Rajasthan,Alwar,"Moti Doongri, Alwar - RSPCB",06-02-2024 10:00:00,27.554793,76.611536,PM10,36,122,71
India,Rajasthan,Alwar,"Moti Doongri, Alwar - RSPCB",06-02-2024 10:00:00,27.554793,76.611536,NO2,41,99,52
India,Rajasthan,Alwar,"Moti Doongri, Alwar - RSPCB",06-02-2024 10:00:00,27.554793,76.611536,CO,13,103,40
India,Rajasthan,Banswara,"Rati Talai, Banswara - RSPCB",06-02-2024 10:00:00,23.555190,74.440010,PM2.5,31,209,74
India,Rajasthan,Banswara,"Rati Talai, Banswara - RSPCB",06-02-2024 10:00:00,23.555190,74.440010,OZONE,1,77,28
India,Rajasthan,Barmer,"Railway Colony, Barmer - RSPCB",06-02-2024 10:00:00,25.747299,71.393989,PM10,69,139,87
India,Rajasthan,Bharatpur,"Krishna Nagar, Bharatpur - RSPCB",06-02-2024 10:00:00,27.215415,77.50873,PM2.5,32,60,46
India,Rajasthan,Bhilwara,"Pratap Nagar, Bhilwara - RSPCB",06-02-2024 10:00:00,25.339605,74.618883,PM2.5,48,128,74
India,Rajasthan,Bhiwadi,"RIICO Ind. Area III, Bhiwadi - RSPCB",06-02-2024 10:00:00,28.194909,76.862296,NO2,14,31,20
India,Rajasthan,Bikaner,"MM Ground, Bikaner - RSPCB",06-02-2024 10:00:00,28.018792,73.292658,SO2,5,10,8
India,Rajasthan,Bundi,"New Colony, Bundi - RSPCB",06-02-2024 10:00:00,25.435774,75.644272,PM2.5,52,202,91
India,Rajasthan,Bundi,"New Colony, Bundi - RSPCB",06-02-2024 10:00:00,25.435774,75.644272,CO,16,54,21
India,Rajasthan,Chittorgarh,"Shastri Nagar, Chittorgarh - RSPCB",06-02-2024 10:00:00,24.892047,74.623527,CO,12,54,32
India,Rajasthan,Churu,"Subash Chowk, Churu - RSPCB",06-02-2024 10:00:00,28.296139,74.961696,NH3,8,13,10
India,Rajasthan,Dausa,"Khatikan Mohalla, Dausa - RSPCB",06-02-2024 10:00:00,26.895552,76.334753,NH3,7,11,9
India,Rajasthan,Dholpur,"Raja Ganj, Dholpur - RSPCB",06-02-2024 10:00:00,26.699557,77.898881,PM10,94,161,121
India,Rajasthan,Dholpur,"Raja Ganj, Dholpur - RSPCB",06-02-2024 10:00:00,26.699557,77.898881,NH3,8,12,11
India,Rajasthan,Dungarpur,"Bhoiwada, Dungarpur - RSPCB",06-02-2024 10:00:00,23.837789,73.714926,PM2.5,60,207,94
India,Rajasthan,Dungarpur,"Bhoiwada, Dungarpur - RSPCB",06-02-2024 10:00:00,23.837789,73.714926,SO2,5,7,5
India,Rajasthan,Dungarpur,"Bhoiwada, Dungarpur - RSPCB",06-02-2024 10:00:00,23.837789,73.714926,CO,17,57,45
India,Rajasthan,Dungarpur,"Bhoiwada, Dungarpur - RSPCB",06-02-2024 10:00:00,23.837789,73.714926,OZONE,10,37,17
India,Rajasthan,Hanumangarh,"Housing Board, Hanumangarh - RSPCB",06-02-2024 10:00:00,29.610750,74.283608,NO2,25,91,44
India,Rajasthan,Hanumangarh,"Housing Board, Hanumangarh - RSPCB",06-02-2024 10:00:00,29.610750,74.283608,NH3,10,21,13
India,Rajasthan,Hanumangarh,"Housing Board, Hanumangarh - RSPCB",06-02-2024 10:00:00,29.610750,74.283608,CO,19,103,56
India,Rajasthan,Jaipur,"Adarsh Nagar, Jaipur - RSPCB",06-02-2024 10:00:00,26.902909,75.836858,NH3,4,7,5
India,Rajasthan,Jaipur,"Police Commissionerate, Jaipur - RSPCB",06-02-2024 10:00:00,26.9164092,75.7994901,CO,23,57,32
India,Rajasthan,Jaipur,"RIICO Sitapura, Jaipur - RSPCB",06-02-2024 10:00:00,26.786682,75.827928,OZONE,12,81,42
India,Rajasthan,Jaipur,"Sector-2 Murlipura, Jaipur - RSPCB",06-02-2024 10:00:00,26.960669,75.771817,CO,2,28,22
India,Rajasthan,Jaipur,"Shastri Nagar, Jaipur - RSPCB",06-02-2024 10:00:00,26.9502929,75.730943,NH3,5,15,9
India,Rajasthan,Jaipur,"Shastri Nagar, Jaipur - RSPCB",06-02-2024 10:00:00,26.9502929,75.730943,CO,9,56,25
India,Rajasthan,Jaisalmer,"Sadar Bazar, Jaisalmer - RSPCB",06-02-2024 10:00:00,26.912329,70.909168,NO2,3,67,16
India,Rajasthan,Jaisalmer,"Sadar Bazar, Jaisalmer - RSPCB",06-02-2024 10:00:00,26.912329,70.909168,NH3,6,18,10
India,Rajasthan,Jaisalmer,"Sadar Bazar, Jaisalmer - RSPCB",06-02-2024 10:00:00,26.912329,70.909168,CO,12,48,15
India,Rajasthan,Jalore,"Mudtra Sili, Jalore - RSPCB",06-02-2024 10:00:00,25.344694,72.626208,OZONE,29,77,46
India,Rajasthan,Jhalawar,"Rajlaxmi Nagar, Jhalawar - RSPCB",06-02-2024 10:00:00,24.588397,76.172782,OZONE,21,67,29
India,Rajasthan,Jhunjhunu,"Indra Nagar, Jhunjhunu - RSPCB",06-02-2024 10:00:00,28.108988,75.386577,PM10,34,173,98
India,Rajasthan,Jhunjhunu,"Indra Nagar, Jhunjhunu - RSPCB",06-02-2024 10:00:00,28.108988,75.386577,NH3,12,19,16
India,Rajasthan,Jhunjhunu,"Indra Nagar, Jhunjhunu - RSPCB",06-02-2024 10:00:00,28.108988,75.386577,SO2,1,3,2
India,Rajasthan,Jodhpur,"Digari Kalan, Jodhpur - RSPCB",06-02-2024 10:00:00,26.295810,73.082283,NH3,5,9,6
India,Rajasthan,Karauli,"Satyawati Vihar, Karauli - RSPCB",06-02-2024 10:00:00,26.506177,77.025989,PM10,115,165,140
India,Rajasthan,Kota,"Dhanmandi, Kota - RSPCB",06-02-2024 10:00:00,25.164090,75.858137,PM10,67,131,96
India,Rajasthan,Kota,"Dhanmandi, Kota - RSPCB",06-02-2024 10:00:00,25.164090,75.858137,NO2,15,79,38
India,Rajasthan,Kota,"Dhanmandi, Kota - RSPCB",06-02-2024 10:00:00,25.164090,75.858137,CO,22,73,26
India,Rajasthan,Kota,"Nayapura, Kota - RSPCB",06-02-2024 10:00:00,25.196024,75.855668,OZONE,4,52,25
India,Rajasthan,Kota,"Shrinath Puram, Kota - RSPCB",06-02-2024 10:00:00,25.14389,75.821256,PM2.5,53,100,69
India,Rajasthan,Kota,"Shrinath Puram, Kota - RSPCB",06-02-2024 10:00:00,25.14389,75.821256,NO2,NA,NA,NA
India,Rajasthan,Kota,"Shrinath Puram, Kota - RSPCB",06-02-2024 10:00:00,25.14389,75.821256,NH3,NA,NA,NA
India,Rajasthan,Kota,"Shrinath Puram, Kota - RSPCB",06-02-2024 10:00:00,25.14389,75.821256,SO2,NA,NA,NA
India,Rajasthan,Nagaur,"Karni Colony, Nagaur - RSPCB",06-02-2024 10:00:00,27.213494,73.734444,CO,18,54,22
India,Rajasthan,Nagaur,"Karni Colony, Nagaur - RSPCB",06-02-2024 10:00:00,27.213494,73.734444,OZONE,29,69,45
India,Rajasthan,Pali,"Indira Colony Vistar, Pali - RSPCB",06-02-2024 10:00:00,25.771061, 73.340227,OZONE,19,67,28
India,Rajasthan,Pratapgarh,"Pragati Nagar, Pratapgarh - RSPCB",06-02-2024 10:00:00,24.041198,74.780702,PM10,26,187,89
India,Rajasthan,Rajsamand,"Dhoinda, Rajsamand - RSPCB",06-02-2024 10:00:00,25.036360,73.883502,PM10,45,91,70
India,Rajasthan,Rajsamand,"Dhoinda, Rajsamand - RSPCB",06-02-2024 10:00:00,25.036360,73.883502,NH3,3,7,4
India,Rajasthan,Rajsamand,"Dhoinda, Rajsamand - RSPCB",06-02-2024 10:00:00,25.036360,73.883502,CO,22,40,35
India,Rajasthan,Sirohi,"Vedhaynath Colony, Sirohi - RSPCB",06-02-2024 10:00:00,24.885261,72.857549,PM2.5,15,78,43
India,Rajasthan,Sirohi,"Vedhaynath Colony, Sirohi - RSPCB",06-02-2024 10:00:00,24.885261,72.857549,PM10,30,115,57
India,Rajasthan,Sirohi,"Vedhaynath Colony, Sirohi - RSPCB",06-02-2024 10:00:00,24.885261,72.857549,OZONE,2,75,20
India,Rajasthan,Sri Ganganagar,"Old City, Sri Ganganagar - RSPCB",06-02-2024 10:00:00,29.931624,73.864511,CO,18,121,76
India,Rajasthan,Tonk,"Shastri Nagar, Tonk - RSPCB",06-02-2024 10:00:00,26.159933,75.780517,NO2,12,96,24
India,Rajasthan,Udaipur,"Ashok Nagar, Udaipur - RSPCB",06-02-2024 10:00:00,24.5886166,73.6321397,PM2.5,NA,NA,NA
India,Rajasthan,Udaipur,"Ashok Nagar, Udaipur - RSPCB",06-02-2024 10:00:00,24.5886166,73.6321397,NO2,NA,NA,NA
India,Sikkim,Gangtok,"Zero Point GICI, Gangtok - SSPCB",06-02-2024 10:00:00,27.338530,88.614099,SO2,9,9,9
India,TamilNadu,Chengalpattu,"Crescent University, Chengalpattu - TNPCB",06-02-2024 10:00:00,12.8777316,80.0834807,SO2,NA,NA,NA
India,TamilNadu,Chengalpattu,"Crescent University, Chengalpattu - TNPCB",06-02-2024 10:00:00,12.8777316,80.0834807,CO,26,30,30
India,TamilNadu,Chennai,"Arumbakkam, Chennai - TNPCB",06-02-2024 10:00:00,13.0664,80.2112 ,NH3,2,4,3
India,TamilNadu,Chennai,"Arumbakkam, Chennai - TNPCB",06-02-2024 10:00:00,13.0664,80.2112 ,SO2,1,17,6
India,TamilNadu,Chennai,"Gandhi Nagar_Ennore, Chennai - TNPCB",06-02-2024 10:00:00,13.218341,80.32027,PM2.5,35,122,74
India,TamilNadu,Chennai,"Gandhi Nagar_Ennore, Chennai - TNPCB",06-02-2024 10:00:00,13.218341,80.32027,NH3,1,4,2
India,TamilNadu,Chennai,"Kodungaiyur, Chennai - TNPCB",06-02-2024 10:00:00,13.1278,80.2642,SO2,1,12,5
India,TamilNadu,Chennai,"Manali, Chennai - CPCB",06-02-2024 10:00:00,13.164544,80.26285,PM10,41,111,65
India,TamilNadu,Chennai,"Manali, Chennai - CPCB",06-02-2024 10:00:00,13.164544,80.26285,NH3,2,10,6
India,TamilNadu,Chennai,"Perungudi, Chennai - TNPCB",06-02-2024 10:00:00,12.9533,80.2357,CO,2,52,28
India,TamilNadu,Chennai,"Royapuram, Chennai - TNPCB",06-02-2024 10:00:00,13.1036,80.2909,PM2.5,29,178,64
India,TamilNadu,Chennai,"Royapuram, Chennai - TNPCB",06-02-2024 10:00:00,13.1036,80.2909,NO2,11,40,19
India,TamilNadu,Chennai,"Royapuram, Chennai - TNPCB",06-02-2024 10:00:00,13.1036,80.2909,CO,17,60,36
India,TamilNadu,Chennai,"Velachery Res. Area, Chennai - CPCB",06-02-2024 10:00:00,13.0052189,80.2398125,OZONE,9,26,11
India,TamilNadu,Coimbatore,"PSG College of Arts and Science, Coimbatore - TNPCB",06-02-2024 10:00:00,11.0328,77.0349,PM2.5,NA,NA,NA
India,TamilNadu,Coimbatore,"PSG College of Arts and Science, Coimbatore - TNPCB",06-02-2024 10:00:00,11.0328,77.0349,NO2,NA,NA,NA
India,TamilNadu,Coimbatore,"PSG College of Arts and Science, Coimbatore - TNPCB",06-02-2024 10:00:00,11.0328,77.0349,SO2,NA,NA,NA
India,TamilNadu,Coimbatore,"PSG College of Arts and Science, Coimbatore - TNPCB",06-02-2024 10:00:00,11.0328,77.0349,OZONE,NA,NA,NA
India,TamilNadu,Cuddalore,"Kudikadu, Cuddalore - TNPCB",06-02-2024 10:00:00,11.6829898,79.7532099,SO2,16,21,18
India,TamilNadu,Cuddalore,"Semmandalam, Cuddalore - TNPCB",06-02-2024 10:00:00,11.7637683,79.7499835,PM2.5,13,132,53
India,TamilNadu,Cuddalore,"Semmandalam, Cuddalore - TNPCB",06-02-2024 10:00:00,11.7637683,79.7499835,OZONE,1,2,2
India,TamilNadu,Kanchipuram,"Kilambi, Kanchipuram - TNPCB",06-02-2024 10:00:00,12.864618,79.659968,NH3,4,4,4
India,TamilNadu,Kanchipuram,"Kilambi, Kanchipuram - TNPCB",06-02-2024 10:00:00,12.864618,79.659968,SO2,3,8,5
India,TamilNadu,Palkalaiperur,"Bharathidasan University, Palkalaiperur - TNPCB",06-02-2024 10:00:00,10.681158,78.741746,PM2.5,19,43,29
India,TamilNadu,Palkalaiperur,"Bharathidasan University, Palkalaiperur - TNPCB",06-02-2024 10:00:00,10.681158,78.741746,SO2,27,28,27
India,TamilNadu,Salem,"Sona College of Technology, Salem - TNPCB",06-02-2024 10:00:00,11.679111,78.125052,PM10,NA,NA,NA
India,TamilNadu,Salem,"Sona College of Technology, Salem - TNPCB",06-02-2024 10:00:00,11.679111,78.125052,NO2,NA,NA,NA
India,TamilNadu,Salem,"Sona College of Technology, Salem - TNPCB",06-02-2024 10:00:00,11.679111,78.125052,NH3,NA,NA,NA
India,TamilNadu,Tirupur,"Kumaran College, Tirupur - TNPCB",06-02-2024 10:00:00,11.0973603,77.3228673,PM10,NA,NA,NA
India,TamilNadu,Tirupur,"Kumaran College, Tirupur - TNPCB",06-02-2024 10:00:00,11.0973603,77.3228673,SO2,NA,NA,NA
India,TamilNadu,Vellore,"Vasanthapuram, Vellore - TNPCB",06-02-2024 10:00:00,12.909494,79.131861,PM2.5,47,129,79
India,TamilNadu,Virudhunagar,"Collectorate Office, Virudhunagar - TNPCB",06-02-2024 10:00:00,9.559382,77.948828,PM2.5,14,47,28
India,TamilNadu,Virudhunagar,"Collectorate Office, Virudhunagar - TNPCB",06-02-2024 10:00:00,9.559382,77.948828,PM10,18,56,34
India,TamilNadu,Virudhunagar,"Collectorate Office, Virudhunagar - TNPCB",06-02-2024 10:00:00,9.559382,77.948828,NO2,17,52,26
India,Telangana,Hyderabad,"Bollaram Industrial Area, Hyderabad - TSPCB",06-02-2024 10:00:00,17.540891,78.358528,SO2,7,18,15
India,Telangana,Hyderabad,"Central University, Hyderabad - TSPCB",06-02-2024 10:00:00,17.460103,78.334361,PM10,57,100,72
India,Telangana,Hyderabad,"ECIL Kapra, Hyderabad - TSPCB",06-02-2024 10:00:00,17.470431,78.566959,NO2,8,9,8
India,Telangana,Hyderabad,"ECIL Kapra, Hyderabad - TSPCB",06-02-2024 10:00:00,17.470431,78.566959,CO,10,24,17
India,Telangana,Hyderabad,"ICRISAT Patancheru, Hyderabad - TSPCB",06-02-2024 10:00:00,17.518400,78.278777,PM10,52,112,71
India,Telangana,Hyderabad,"ICRISAT Patancheru, Hyderabad - TSPCB",06-02-2024 10:00:00,17.518400,78.278777,NH3,2,2,2
India,Telangana,Hyderabad,"IITH Kandi, Hyderabad - TSPCB",06-02-2024 10:00:00,17.585705,78.126199,PM2.5,7,35,18
India,Telangana,Hyderabad,"IITH Kandi, Hyderabad - TSPCB",06-02-2024 10:00:00,17.585705,78.126199,SO2,11,13,12
India,Telangana,Hyderabad,"IITH Kandi, Hyderabad - TSPCB",06-02-2024 10:00:00,17.585705,78.126199,CO,10,40,23
India,Telangana,Hyderabad,"Kompally Municipal Office, Hyderabad - TSPCB",06-02-2024 10:00:00,17.544899,78.486949,PM2.5,26,166,68
India,Telangana,Hyderabad,"Kompally Municipal Office, Hyderabad - TSPCB",06-02-2024 10:00:00,17.544899,78.486949,NO2,6,6,6
India,Telangana,Hyderabad,"Kompally Municipal Office, Hyderabad - TSPCB",06-02-2024 10:00:00,17.544899,78.486949,CO,18,34,27
India,Telangana,Hyderabad,"Nacharam_TSIIC IALA, Hyderabad - TSPCB",06-02-2024 10:00:00,17.429398,78.569354,PM2.5,48,70,57
India,Telangana,Hyderabad,"New Malakpet, Hyderabad - TSPCB",06-02-2024 10:00:00,17.37206,78.50864,PM10,57,90,70
India,Telangana,Hyderabad,"New Malakpet, Hyderabad - TSPCB",06-02-2024 10:00:00,17.37206,78.50864,NH3,2,2,2
India,Telangana,Hyderabad,"New Malakpet, Hyderabad - TSPCB",06-02-2024 10:00:00,17.37206,78.50864,CO,10,42,20
India,Telangana,Hyderabad,"Ramachandrapuram, Hyderabad - TSPCB",06-02-2024 10:00:00,17.528544,78.286195,PM2.5,NA,NA,NA
India,Telangana,Hyderabad,"Sanathnagar, Hyderabad - TSPCB",06-02-2024 10:00:00,17.4559458,78.4332152,PM2.5,62,115,82
India,Telangana,Hyderabad,"Sanathnagar, Hyderabad - TSPCB",06-02-2024 10:00:00,17.4559458,78.4332152,SO2,1,19,7
India,Telangana,Hyderabad,"Somajiguda, Hyderabad - TSPCB",06-02-2024 10:00:00,17.417094,78.457437,PM10,NA,NA,NA
India,Telangana,Hyderabad,"Zoo Park, Hyderabad - TSPCB",06-02-2024 10:00:00,17.349694,78.451437,PM2.5,55,114,73
India,Tripura,Agartala,"Bardowali, Agartala - Tripura SPCB",06-02-2024 10:00:00,23.8175497,91.2726974,PM2.5,119,345,250
India,Tripura,Agartala,"Bardowali, Agartala - Tripura SPCB",06-02-2024 10:00:00,23.8175497,91.2726974,NO2,9,41,19
India,Tripura,Agartala,"Bardowali, Agartala - Tripura SPCB",06-02-2024 10:00:00,23.8175497,91.2726974,NH3,2,3,2
India,Tripura,Agartala,"Bardowali, Agartala - Tripura SPCB",06-02-2024 10:00:00,23.8175497,91.2726974,SO2,23,26,24
India,Uttar_Pradesh,Agra,"Manoharpur, Agra - UPPCB",06-02-2024 10:00:00,27.23711,78.01936,PM2.5,22,45,31
India,Uttar_Pradesh,Agra,"Manoharpur, Agra - UPPCB",06-02-2024 10:00:00,27.23711,78.01936,NO2,20,20,20
India,Uttar_Pradesh,Agra,"Manoharpur, Agra - UPPCB",06-02-2024 10:00:00,27.23711,78.01936,OZONE,3,9,4
India,Uttar_Pradesh,Agra,"Rohta, Agra - UPPCB",06-02-2024 10:00:00,27.106972,78.000111,NH3,1,1,1
India,Uttar_Pradesh,Agra,"Rohta, Agra - UPPCB",06-02-2024 10:00:00,27.106972,78.000111,SO2,2,12,6
India,Uttar_Pradesh,Agra,"Rohta, Agra - UPPCB",06-02-2024 10:00:00,27.106972,78.000111,CO,4,20,12
India,Uttar_Pradesh,Agra,"Sanjay Palace, Agra - UPPCB",06-02-2024 10:00:00,27.19865833,78.00598056,NO2,37,76,56
India,Uttar_Pradesh,Agra,"Sector-3B Avas Vikas Colony, Agra - UPPCB",06-02-2024 10:00:00,27.19412,77.96237,PM2.5,25,48,35
India,Uttar_Pradesh,Agra,"Sector-3B Avas Vikas Colony, Agra - UPPCB",06-02-2024 10:00:00,27.19412,77.96237,OZONE,14,28,14
India,Uttar_Pradesh,Agra,"Shahjahan Garden, Agra - UPPCB",06-02-2024 10:00:00,27.169338,78.03582,PM10,38,80,54
India,Uttar_Pradesh,Agra,"Shastripuram, Agra - UPPCB",06-02-2024 10:00:00,27.19862,77.92066,PM10,55,83,67
India,Uttar_Pradesh,Bareilly,"Rajendra Nagar, Bareilly - UPPCB",06-02-2024 10:00:00,28.38910936,79.42963708,OZONE,9,12,9
India,Uttar_Pradesh,Bulandshahr,"Yamunapuram, Bulandshahr - UPPCB",06-02-2024 10:00:00,28.406963,77.849831,PM10,60,171,107
India,Uttar_Pradesh,Firozabad,"Nagla Bhau, Firozabad - UPPCB",06-02-2024 10:00:00,27.168897,78.376960,OZONE,18,30,19
India,Uttar_Pradesh,Firozabad,"Vibhab Nagar, Firozabad - UPPCB",06-02-2024 10:00:00,27.1594,78.3953,PM2.5,NA,NA,NA
India,Uttar_Pradesh,Firozabad,"Vibhab Nagar, Firozabad - UPPCB",06-02-2024 10:00:00,27.1594,78.3953,NO2,13,14,14
India,Uttar_Pradesh,Firozabad,"Vibhab Nagar, Firozabad - UPPCB",06-02-2024 10:00:00,27.1594,78.3953,NH3,2,2,2
India,Uttar_Pradesh,Ghaziabad,"Indirapuram, Ghaziabad - UPPCB",06-02-2024 10:00:00,28.646233,77.358075,PM2.5,64,98,78
India,Uttar_Pradesh,Ghaziabad,"Sanjay Nagar, Ghaziabad - UPPCB",06-02-2024 10:00:00,28.685382,77.453839,PM2.5,72,297,153
India,Uttar_Pradesh,Ghaziabad,"Vasundhara, Ghaziabad - UPPCB",06-02-2024 10:00:00,28.6603346,77.3572563,NH3,8,20,12
India,Uttar_Pradesh,Gorakhpur,"Madan Mohan Malaviya University of Technology, Gorakhpur - UPPCB",06-02-2024 10:00:00,26.730136,83.433859,SO2,37,45,40
India,Uttar_Pradesh,Greater Noida,"Knowledge Park - III, Greater Noida - UPPCB",06-02-2024 10:00:00,28.47272,77.482000,NO2,40,110,63
India,Uttar_Pradesh,Hapur,"Anand Vihar, Hapur - UPPCB",06-02-2024 10:00:00,28.725645,77.749675,PM10,68,151,122
India,Uttar_Pradesh,Hapur,"Anand Vihar, Hapur - UPPCB",06-02-2024 10:00:00,28.725645,77.749675,NO2,23,50,28
India,Uttar_Pradesh,Hapur,"Anand Vihar, Hapur - UPPCB",06-02-2024 10:00:00,28.725645,77.749675,NH3,5,12,8
India,Uttar_Pradesh,Hapur,"Anand Vihar, Hapur - UPPCB",06-02-2024 10:00:00,28.725645,77.749675,SO2,15,31,24
India,Uttar_Pradesh,Kanpur,"FTI Kidwai Nagar, Kanpur - UPPCB",06-02-2024 10:00:00,26.428282,80.327067,PM10,32,104,61
India,Uttar_Pradesh,Kanpur,"NSI Kalyanpur, Kanpur - UPPCB",06-02-2024 10:00:00,26.509954,80.249612,CO,22,39,31
India,Uttar_Pradesh,Khurja,"Kalindi Kunj, Khurja - UPPCB",06-02-2024 10:00:00,28.2348927,77.8683002,NO2,15,21,18
India,Uttar_Pradesh,Khurja,"Kalindi Kunj, Khurja - UPPCB",06-02-2024 10:00:00,28.2348927,77.8683002,CO,2,24,7
India,Uttar_Pradesh,Lucknow,"Gomti Nagar, Lucknow - UPPCB",06-02-2024 10:00:00,26.868120,81.005119,OZONE,52,79,62
India,Uttar_Pradesh,Lucknow,"Kendriya Vidyalaya, Lucknow - CPCB",06-02-2024 10:00:00,26.906111,80.948222,PM10,46,82,66
India,Uttar_Pradesh,Lucknow,"Kendriya Vidyalaya, Lucknow - CPCB",06-02-2024 10:00:00,26.906111,80.948222,NO2,12,95,38
India,Uttar_Pradesh,Lucknow,"Kukrail Picnic Spot-1, Lucknow - UPPCB",06-02-2024 10:00:00,26.90723,80.98579,NO2,8,9,8
India,Uttar_Pradesh,Lucknow,"Lalbagh, Lucknow - CPCB",06-02-2024 10:00:00,26.8458805,80.9365541,NH3,10,14,12
India,Uttar_Pradesh,Lucknow,"Talkatora District Industries Center, Lucknow - CPCB",06-02-2024 10:00:00,26.83399722,80.8917361,PM2.5,28,85,61
India,Uttar_Pradesh,Lucknow,"Talkatora District Industries Center, Lucknow - CPCB",06-02-2024 10:00:00,26.83399722,80.8917361,PM10,43,109,82
India,Uttar_Pradesh,Lucknow,"Talkatora District Industries Center, Lucknow - CPCB",06-02-2024 10:00:00,26.83399722,80.8917361,NH3,20,47,26
India,Uttar_Pradesh,Meerut,"Ganga Nagar, Meerut - UPPCB",06-02-2024 10:00:00,28.999264,77.7590354,PM10,37,131,74
India,Uttar_Pradesh,Meerut,"Ganga Nagar, Meerut - UPPCB",06-02-2024 10:00:00,28.999264,77.7590354,NO2,24,46,32
India,Uttar_Pradesh,Meerut,"Ganga Nagar, Meerut - UPPCB",06-02-2024 10:00:00,28.999264,77.7590354,CO,21,32,24
India,Uttar_Pradesh,Meerut,"Jai Bhim Nagar, Meerut - UPPCB",06-02-2024 10:00:00,28.9535882,77.7622941,PM2.5,30,115,62
India,Uttar_Pradesh,Meerut,"Jai Bhim Nagar, Meerut - UPPCB",06-02-2024 10:00:00,28.9535882,77.7622941,PM10,32,102,61
India,Uttar_Pradesh,Meerut,"Jai Bhim Nagar, Meerut - UPPCB",06-02-2024 10:00:00,28.9535882,77.7622941,NO2,11,33,19
India,Uttar_Pradesh,Meerut,"Pallavpuram Phase 2, Meerut - UPPCB",06-02-2024 10:00:00,29.063510,77.709723,PM2.5,37,158,76
India,Uttar_Pradesh,Meerut,"Pallavpuram Phase 2, Meerut - UPPCB",06-02-2024 10:00:00,29.063510,77.709723,NO2,11,38,20
India,Uttar_Pradesh,Meerut,"Pallavpuram Phase 2, Meerut - UPPCB",06-02-2024 10:00:00,29.063510,77.709723,OZONE,1,36,7
India,Uttar_Pradesh,Moradabad,"Employment Office, Moradabad - UPPCB",06-02-2024 10:00:00,28.88528,78.73880,PM2.5,37,86,57
India,Uttar_Pradesh,Moradabad,"Employment Office, Moradabad - UPPCB",06-02-2024 10:00:00,28.88528,78.73880,OZONE,13,17,13
India,Uttar_Pradesh,Moradabad,"Transport Nagar, Moradabad - UPPCB",06-02-2024 10:00:00,28.802625,78.753728,CO,40,42,40
India,Uttar_Pradesh,Muzaffarnagar,"New Mandi, Muzaffarnagar - UPPCB",06-02-2024 10:00:00,29.4723508,77.7194031,NH3,5,10,6
India,Uttar_Pradesh,Muzaffarnagar,"New Mandi, Muzaffarnagar - UPPCB",06-02-2024 10:00:00,29.4723508,77.7194031,OZONE,13,64,23
India,Uttar_Pradesh,Noida,"Sector - 125, Noida - UPPCB",06-02-2024 10:00:00,28.5447608,77.3231257,PM10,79,125,100
India,Uttar_Pradesh,Noida,"Sector-1, Noida - UPPCB",06-02-2024 10:00:00,28.5898,77.3101,CO,20,51,31
India,Uttar_Pradesh,Noida,"Sector-116, Noida - UPPCB",06-02-2024 10:00:00,28.569230,77.393848,NO2,20,72,38
India,Uttar_Pradesh,Prayagraj,"Jhunsi, Prayagraj - UPPCB",06-02-2024 10:00:00,25.425602,81.917152,CO,8,21,12
India,Uttar_Pradesh,Prayagraj,"Motilal Nehru NIT, Prayagraj - UPPCB",06-02-2024 10:00:00,25.494,81.863,PM2.5,9,49,32
India,Uttar_Pradesh,Prayagraj,"Motilal Nehru NIT, Prayagraj - UPPCB",06-02-2024 10:00:00,25.494,81.863,NH3,6,7,7
India,Uttar_Pradesh,Prayagraj,"Motilal Nehru NIT, Prayagraj - UPPCB",06-02-2024 10:00:00,25.494,81.863,OZONE,6,17,7
India,Uttar_Pradesh,Prayagraj,"Nagar Nigam, Prayagraj - UPPCB",06-02-2024 10:00:00,25.44919916 ,81.82735986 ,NO2,11,11,11
India,Uttar_Pradesh,Prayagraj,"Nagar Nigam, Prayagraj - UPPCB",06-02-2024 10:00:00,25.44919916 ,81.82735986 ,NH3,7,14,10
India,Uttar_Pradesh,Prayagraj,"Nagar Nigam, Prayagraj - UPPCB",06-02-2024 10:00:00,25.44919916 ,81.82735986 ,SO2,8,59,30
India,Uttar_Pradesh,Prayagraj,"Nagar Nigam, Prayagraj - UPPCB",06-02-2024 10:00:00,25.44919916 ,81.82735986 ,OZONE,10,11,10
India,Uttar_Pradesh,Varanasi,"Bhelupur, Varanasi - UPPCB",06-02-2024 10:00:00,25.301778,82.996789,NH3,1,1,1
India,Uttar_Pradesh,Varanasi,"Bhelupur, Varanasi - UPPCB",06-02-2024 10:00:00,25.301778,82.996789,CO,18,70,22
India,Uttar_Pradesh,Varanasi,"IESD Banaras Hindu University, Varanasi - UPPCB",06-02-2024 10:00:00,25.262326,82.995408,SO2,13,13,13
India,Uttar_Pradesh,Varanasi,"IESD Banaras Hindu University, Varanasi - UPPCB",06-02-2024 10:00:00,25.262326,82.995408,OZONE,1,1,1
India,Uttar_Pradesh,Vrindavan,"Omex Eternity, Vrindavan - UPPCB",06-02-2024 10:00:00,27.5714090,77.6557570,PM10,36,304,122
India,Uttarakhand,Dehradun,"Doon University, Dehradun - UKPCB",06-02-2024 10:00:00,30.269444,78.044167,PM2.5,2,90,51
India,Uttarakhand,Kashipur,"Govt. Girls Inter College, Kashipur - UKPCB",06-02-2024 10:00:00,29.2124114,78.9611753,PM2.5,25,308,77
India,Uttarakhand,Kashipur,"Govt. Girls Inter College, Kashipur - UKPCB",06-02-2024 10:00:00,29.2124114,78.9611753,SO2,1,10,8
India,Uttarakhand,Kashipur,"Govt. Girls Inter College, Kashipur - UKPCB",06-02-2024 10:00:00,29.2124114,78.9611753,OZONE,NA,NA,NA
India,Uttarakhand,Rishikesh,"Shivaji Nagar, Rishikesh - UKPCB",06-02-2024 10:00:00,30.075911,78.2859547,SO2,4,6,5
India,West_Bengal,Asansol,"Asansol Court Area, Asansol - WBPCB",06-02-2024 10:00:00,23.685297,86.945968,OZONE,6,31,8
India,West_Bengal,Barrackpore,"SVSPA Campus, Barrackpore - WBPCB",06-02-2024 10:00:00,22.7605581,88.3617589,PM2.5,65,303,172
India,West_Bengal,Haldia,"Priyambada Housing Estate, Haldia - WBPCB",06-02-2024 10:00:00,22.06047,88.109737,PM2.5,54,108,78
India,West_Bengal,Howrah,"Belur Math, Howrah - WBPCB",06-02-2024 10:00:00,22.629801,88.352017,SO2,11,16,12
India,West_Bengal,Howrah,"Ghusuri, Howrah - WBPCB",06-02-2024 10:00:00,22.611968,88.347422,OZONE,10,26,11
India,West_Bengal,Howrah,"Padmapukur, Howrah - WBPCB",06-02-2024 10:00:00,22.5687319,88.2797276,PM2.5,80,252,122
India,West_Bengal,Kolkata,"Bidhannagar, Kolkata - WBPCB",06-02-2024 10:00:00,22.58157048,88.41002457,PM2.5,95,201,131
India,West_Bengal,Kolkata,"Bidhannagar, Kolkata - WBPCB",06-02-2024 10:00:00,22.58157048,88.41002457,NO2,13,51,23
India,West_Bengal,Kolkata,"Fort William, Kolkata - WBPCB",06-02-2024 10:00:00,22.556640,88.342674,NH3,6,7,7
India,West_Bengal,Kolkata,"Jadavpur, Kolkata - WBPCB",06-02-2024 10:00:00,22.49929,88.36917,PM2.5,63,252,170
India,West_Bengal,Kolkata,"Jadavpur, Kolkata - WBPCB",06-02-2024 10:00:00,22.49929,88.36917,CO,14,57,20
India,West_Bengal,Kolkata,"Rabindra Sarobar, Kolkata - WBPCB",06-02-2024 10:00:00,22.51106,88.35142,SO2,7,47,19
India,West_Bengal,Kolkata,"Victoria, Kolkata - WBPCB",06-02-2024 10:00:00,22.5448082,88.3403691,CO,23,103,26
India,West_Bengal,Siliguri,"Ward-32 Bapupara, Siliguri - WBPCB",06-02-2024 10:00:00,26.6879226,88.4152495,PM2.5,63,286,118
India,West_Bengal,Siliguri,"Ward-32 Bapupara, Siliguri - WBPCB",06-02-2024 10:00:00,26.6879226,88.4152495,NH3,5,17,12
India,West_Bengal,Siliguri,"Ward-32 Bapupara, Siliguri - WBPCB",06-02-2024 10:00:00,26.6879226,88.4152495,CO,18,104,24
India,Andhra_Pradesh,Kadapa,"Yerramukkapalli, Kadapa - APPCB",06-02-2024 10:00:00,14.465052,78.824187,PM2.5,24,53,39
India,Andhra_Pradesh,Kadapa,"Yerramukkapalli, Kadapa - APPCB",06-02-2024 10:00:00,14.465052,78.824187,NO2,8,8,8
India,Andhra_Pradesh,Vijayawada,"HB Colony, Vijayawada - APPCB",06-02-2024 10:00:00,16.536107,80.594233,NO2,8,20,14
India,Andhra_Pradesh,Vijayawada,"Rajiv Gandhi Park, Vijayawada - APPCB",06-02-2024 10:00:00,16.509717,80.612222,PM2.5,42,84,65
India,Andhra_Pradesh,Vijayawada,"Rajiv Nagar, Vijayawada - APPCB",06-02-2024 10:00:00,16.554731,80.649110,PM2.5,25,340,102
India,Andhra_Pradesh,Visakhapatnam,"GVM Corporation, Visakhapatnam - APPCB",06-02-2024 10:00:00,17.72,83.3,PM2.5,55,170,87
India,Andhra_Pradesh,Visakhapatnam,"GVM Corporation, Visakhapatnam - APPCB",06-02-2024 10:00:00,17.72,83.3,PM10,63,151,101
India,Andhra_Pradesh,Visakhapatnam,"GVM Corporation, Visakhapatnam - APPCB",06-02-2024 10:00:00,17.72,83.3,NH3,2,6,4
India,Arunachal_Pradesh,Naharlagun,"Naharlagun, Naharlagun - APSPCB",06-02-2024 10:00:00,27.103358,93.679645,PM2.5,43,103,68
India,Arunachal_Pradesh,Naharlagun,"Naharlagun, Naharlagun - APSPCB",06-02-2024 10:00:00,27.103358,93.679645,NO2,2,2,2
India,Assam,Byrnihat,"Central Academy for SFS, Byrnihat - PCBA",06-02-2024 10:00:00,26.071318,91.87488,NO2,38,135,68
India,Assam,Byrnihat,"Central Academy for SFS, Byrnihat - PCBA",06-02-2024 10:00:00,26.071318,91.87488,SO2,10,12,11
India,Assam,Byrnihat,"Central Academy for SFS, Byrnihat - PCBA",06-02-2024 10:00:00,26.071318,91.87488,OZONE,12,15,12
India,Assam,Guwahati,"IITG, Guwahati - PCBA",06-02-2024 10:00:00,26.2028636,91.70046436,SO2,11,13,12
India,Assam,Guwahati,"Pan Bazaar, Guwahati - PCBA",06-02-2024 10:00:00,26.187500,91.744194,NO2,1,5,2
India,Assam,Guwahati,"Railway Colony, Guwahati - PCBA",06-02-2024 10:00:00,26.181742,91.78063,PM10,59,246,115
India,Assam,Nagaon,"Christianpatty, Nagaon - PCBA",06-02-2024 10:00:00,26.349082,92.68449,NH3,1,2,2
India,Assam,Nagaon,"Christianpatty, Nagaon - PCBA",06-02-2024 10:00:00,26.349082,92.68449,SO2,NA,NA,NA
India,Assam,Nalbari,"Bata Chowk, Nalbari - PCBA",06-02-2024 10:00:00,26.446912,91.439057,NO2,30,49,41
India,Assam,Nalbari,"Bata Chowk, Nalbari - PCBA",06-02-2024 10:00:00,26.446912,91.439057,NH3,1,2,1
India,Assam,Silchar,"Tarapur, Silchar - PCBA",06-02-2024 10:00:00,24.82827,92.79525,NO2,24,52,38
India,Assam,Silchar,"Tarapur, Silchar - PCBA",06-02-2024 10:00:00,24.82827,92.79525,OZONE,NA,NA,NA
India,Assam,Sivasagar,"Girls College, Sivasagar - PCBA",06-02-2024 10:00:00,26.987634,94.636574,OZONE,NA,NA,NA
India,Bihar,Araria,"Kharahiya Basti, Araria - BSPCB",06-02-2024 10:00:00,26.146529,87.454184,NH3,6,8,7
India,Bihar,Araria,"Kharahiya Basti, Araria - BSPCB",06-02-2024 10:00:00,26.146529,87.454184,CO,12,30,25
India,Bihar,Arrah,"New DM Office, Arrah - BSPCB",06-02-2024 10:00:00,25.5626095,84.663264,NH3,5,9,7
India,Bihar,Arrah,"New DM Office, Arrah - BSPCB",06-02-2024 10:00:00,25.5626095,84.663264,OZONE,14,39,14
India,Bihar,Aurangabad,"Gurdeo Nagar, Aurangabad - BSPCB",06-02-2024 10:00:00,24.75746,84.366208,NO2,6,10,8
India,Bihar,Aurangabad,"Gurdeo Nagar, Aurangabad - BSPCB",06-02-2024 10:00:00,24.75746,84.366208,CO,6,82,73
India,Bihar,Bettiah,"Kamalnath Nagar, Bettiah - BSPCB",06-02-2024 10:00:00,26.80365,84.51954,PM2.5,7,90,38
India,Bihar,Bettiah,"Kamalnath Nagar, Bettiah - BSPCB",06-02-2024 10:00:00,26.80365,84.51954,OZONE,NA,NA,NA
India,Bihar,Bhagalpur,"Mayaganj, Bhagalpur - BSPCB",06-02-2024 10:00:00,25.265194,87.012947,PM2.5,88,362,279
India,Bihar,Bihar Sharif,"D M Colony, Bihar Sharif - BSPCB",06-02-2024 10:00:00,25.204762,85.514960,PM2.5,48,140,78
India,Bihar,Bihar Sharif,"D M Colony, Bihar Sharif - BSPCB",06-02-2024 10:00:00,25.204762,85.514960,PM10,41,103,66
India,Bihar,Bihar Sharif,"D M Colony, Bihar Sharif - BSPCB",06-02-2024 10:00:00,25.204762,85.514960,NO2,8,10,9
India,Bihar,Buxar,"Charitra Van, Buxar - BSPCB (Formerly known as Central Jail)",06-02-2024 10:00:00,25.567520,83.966379,NH3,NA,NA,NA
India,Bihar,Buxar,"Charitra Van, Buxar - BSPCB (Formerly known as Central Jail)",06-02-2024 10:00:00,25.567520,83.966379,OZONE,6,56,17
India,Bihar,Chhapra,"Darshan Nagar, Chhapra - BSPCB",06-02-2024 10:00:00,25.7808257,84.7446768,PM10,56,189,106
India,Bihar,Chhapra,"Darshan Nagar, Chhapra - BSPCB",06-02-2024 10:00:00,25.7808257,84.7446768,SO2,12,85,48
India,Bihar,Chhapra,"Darshan Nagar, Chhapra - BSPCB",06-02-2024 10:00:00,25.7808257,84.7446768,OZONE,1,8,2
India,Bihar,Gaya,"Collectorate, Gaya - BSPCB",06-02-2024 10:00:00,24.7955,84.9994,PM2.5,47,308,158
India,Bihar,Gaya,"Collectorate, Gaya - BSPCB",06-02-2024 10:00:00,24.7955,84.9994,SO2,16,27,21
India,Bihar,Gaya,"Collectorate, Gaya - BSPCB",06-02-2024 10:00:00,24.7955,84.9994,CO,42,101,57
India,Bihar,Gaya,"Kareemganj, Gaya - BSPCB",06-02-2024 10:00:00,24.792403,84.992416,PM10,NA,NA,NA
India,Bihar,Gaya,"SFTI Kusdihra, Gaya - BSPCB",06-02-2024 10:00:00,24.762518,84.982348,NH3,4,6,5
India,Bihar,Gaya,"SFTI Kusdihra, Gaya - BSPCB",06-02-2024 10:00:00,24.762518,84.982348,OZONE,3,19,5
India,Bihar,Hajipur,"Industrial Area, Hajipur - BSPCB",06-02-2024 10:00:00,25.697189,85.245900,SO2,11,13,12
India,Bihar,Katihar,"Mirchaibari, Katihar - BSPCB",06-02-2024 10:00:00,25.560083,87.553265,NO2,8,17,12
India,Bihar,Katihar,"Mirchaibari, Katihar - BSPCB",06-02-2024 10:00:00,25.560083,87.553265,CO,NA,NA,NA
India,Bihar,Manguraha,"Forest Rest House, Manguraha - BSPCB",06-02-2024 10:00:00,27.308328,84.531742,NH3,2,2,2
India,Bihar,Manguraha,"Forest Rest House, Manguraha - BSPCB",06-02-2024 10:00:00,27.308328,84.531742,CO,2,12,7
India,Bihar,Motihari,"Gandak Colony, Motihari - BSPCB",06-02-2024 10:00:00,26.63086,84.90051,PM10,35,157,77
India,Bihar,Motihari,"Gandak Colony, Motihari - BSPCB",06-02-2024 10:00:00,26.63086,84.90051,NH3,6,12,9
India,Bihar,Motihari,"Gandak Colony, Motihari - BSPCB",06-02-2024 10:00:00,26.63086,84.90051,OZONE,28,74,41
India,Bihar,Muzaffarpur,"Buddha Colony, Muzaffarpur - BSPCB",06-02-2024 10:00:00,26.11442,85.39813,NH3,11,17,14
India,Bihar,Muzaffarpur,"MIT-Daudpur Kothi, Muzaffarpur - BSPCB",06-02-2024 10:00:00,26.1403345,85.3650192,PM2.5,33,163,72
India,Bihar,Patna,"DRM Office Danapur, Patna - BSPCB",06-02-2024 10:00:00,25.586562,85.043586,NH3,4,5,4
India,Bihar,Patna,"DRM Office Danapur, Patna - BSPCB",06-02-2024 10:00:00,25.586562,85.043586,OZONE,1,30,5
India,Bihar,Patna,"IGSC Planetarium Complex, Patna - BSPCB",06-02-2024 10:00:00,25.610369,85.132568,SO2,6,8,6
India,Bihar,Patna,"IGSC Planetarium Complex, Patna - BSPCB",06-02-2024 10:00:00,25.610369,85.132568,CO,12,17,13
India,Bihar,Patna,"Muradpur, Patna - BSPCB",06-02-2024 10:00:00,25.619651,85.147382,CO,40,105,54
India,Bihar,Rajgir,"Dangi Tola, Rajgir - BSPCB",06-02-2024 10:00:00,25.03280,85.41948,SO2,2,4,4
India,Bihar,Rajgir,"Dangi Tola, Rajgir - BSPCB",06-02-2024 10:00:00,25.03280,85.41948,OZONE,21,31,22
India,Bihar,Saharsa,"Police Line, Saharsa - BSPCB",06-02-2024 10:00:00,25.892357,86.590325,SO2,11,58,35
India,Bihar,Saharsa,"Police Line, Saharsa - BSPCB",06-02-2024 10:00:00,25.892357,86.590325,OZONE,10,51,17
India,Bihar,Sasaram,"Dada Peer, Sasaram - BSPCB",06-02-2024 10:00:00,24.952822,84.002396,PM10,32,123,72
India,Bihar,Siwan,"Chitragupta Nagar, Siwan - BSPCB",06-02-2024 10:00:00,26.2271665,84.3570427,NO2,10,52,21
India,Bihar,Siwan,"Chitragupta Nagar, Siwan - BSPCB",06-02-2024 10:00:00,26.2271665,84.3570427,SO2,22,35,33
India,Chandigarh,Chandigarh,"Sector 22, Chandigarh - CPCC",06-02-2024 10:00:00,30.735567,76.775714,PM2.5,55,190,107
India,Chandigarh,Chandigarh,"Sector 22, Chandigarh - CPCC",06-02-2024 10:00:00,30.735567,76.775714,NH3,NA,NA,NA
India,Chandigarh,Chandigarh,"Sector 22, Chandigarh - CPCC",06-02-2024 10:00:00,30.735567,76.775714,OZONE,2,65,13
India,Chandigarh,Chandigarh,"Sector-25, Chandigarh - CPCC",06-02-2024 10:00:00,30.751462,76.762879,OZONE,1,16,1
India,Chandigarh,Chandigarh,"Sector-53, Chandigarh - CPCC",06-02-2024 10:00:00,30.719859,76.738637,SO2,NA,NA,NA
India,Chandigarh,Chandigarh,"Sector-53, Chandigarh - CPCC",06-02-2024 10:00:00,30.719859,76.738637,CO,43,78,51
India,Chhattisgarh,Bhilai,"32Bungalows, Bhilai - CECB",06-02-2024 10:00:00,21.194815,81.314770,PM10,41,69,56
India,Chhattisgarh,Bhilai,"32Bungalows, Bhilai - CECB",06-02-2024 10:00:00,21.194815,81.314770,NO2,16,26,20
India,Chhattisgarh,Bhilai,"32Bungalows, Bhilai - CECB",06-02-2024 10:00:00,21.194815,81.314770,SO2,5,8,6
India,Chhattisgarh,Bhilai,"Hathkhoj, Bhilai - CECB",06-02-2024 10:00:00,21.224231,81.408350,NH3,7,8,7
India,Chhattisgarh,Bhilai,"Hathkhoj, Bhilai - CECB",06-02-2024 10:00:00,21.224231,81.408350,OZONE,9,23,13
India,Chhattisgarh,Chhal,"Nawapara SECL Colony, Chhal - CECB",06-02-2024 10:00:00,22.118125,83.140608,CO,53,106,83
India,Chhattisgarh,Korba,"Urja Nagar, Korba - CECB",06-02-2024 10:00:00,22.348441,82.549611,NH3,1,11,6
India,Chhattisgarh,Kunjemura,"OP Jindal School, Kunjemura - CECB",06-02-2024 10:00:00,22.126650,83.483212,NO2,29,140,72
India,Chhattisgarh,Kunjemura,"OP Jindal School, Kunjemura - CECB",06-02-2024 10:00:00,22.126650,83.483212,SO2,1,91,24
India,Chhattisgarh,Milupara,"Govt. Higher Secondary School, Milupara - CECB",06-02-2024 10:00:00,22.1910172,83.5197009,CO,5,64,35
India,Chhattisgarh,Raipur,"AIIMS, Raipur - CECB",06-02-2024 10:00:00,21.258815,81.578979,SO2,5,23,10
India,Chhattisgarh,Raipur,"Bhatagaon New ISBT, Raipur - CECB",06-02-2024 10:00:00,21.219665,81.630094,PM2.5,26,62,40
India,Chhattisgarh,Raipur,"Bhatagaon New ISBT, Raipur - CECB",06-02-2024 10:00:00,21.219665,81.630094,PM10,42,107,63
India,Chhattisgarh,Raipur,"Siltara Phase-II, Raipur - CECB",06-02-2024 10:00:00,21.371751,81.664929,PM10,75,156,108
India,Chhattisgarh,Tumidih,"OP Jindal Industrial Park, Tumidih - CECB",06-02-2024 10:00:00,22.06631475,83.33820077,PM10,40,226,81
India,Chhattisgarh,Tumidih,"OP Jindal Industrial Park, Tumidih - CECB",06-02-2024 10:00:00,22.06631475,83.33820077,NH3,1,3,2
India,Delhi,Delhi,"Alipur, Delhi - DPCC",06-02-2024 10:00:00,28.815329,77.153010,SO2,5,13,7
India,Delhi,Delhi,"Anand Vihar, Delhi - DPCC",06-02-2024 10:00:00,28.647622,77.3158090,PM2.5,76,243,180
India,Delhi,Delhi,"Anand Vihar, Delhi - DPCC",06-02-2024 10:00:00,28.647622,77.3158090,PM10,118,280,183
India,Delhi,Delhi,"Anand Vihar, Delhi - DPCC",06-02-2024 10:00:00,28.647622,77.3158090,SO2,5,27,14
India,Delhi,Delhi,"Ashok Vihar, Delhi - DPCC",06-02-2024 10:00:00,28.695381,77.181665,SO2,21,43,26
India,Delhi,Delhi,"Bawana, Delhi - DPCC",06-02-2024 10:00:00,28.776200,77.051074,NO2,11,37,18
India,Delhi,Delhi,"CRRI Mathura Road, Delhi - IMD",06-02-2024 10:00:00,28.5512005,77.2735737,CO,68,96,73
India,Delhi,Delhi,"CRRI Mathura Road, Delhi - IMD",06-02-2024 10:00:00,28.5512005,77.2735737,OZONE,3,26,3
India,Delhi,Delhi,"Dr. Karni Singh Shooting Range, Delhi - DPCC",06-02-2024 10:00:00,28.498571,77.264840,PM2.5,90,221,138
India,Delhi,Delhi,"IGI Airport (T3), Delhi - IMD",06-02-2024 10:00:00,28.5627763,77.1180053,OZONE,11,33,12
India,Delhi,Delhi,"IHBAS, Dilshad Garden, Delhi - CPCB",06-02-2024 10:00:00,28.6811736,77.3025234,PM2.5,43,141,72
India,Delhi,Delhi,"IHBAS, Dilshad Garden, Delhi - CPCB",06-02-2024 10:00:00,28.6811736,77.3025234,NO2,5,34,22
India,Delhi,Delhi,"IHBAS, Dilshad Garden, Delhi - CPCB",06-02-2024 10:00:00,28.6811736,77.3025234,CO,28,84,43
India,Delhi,Delhi,"ITO, Delhi - CPCB",06-02-2024 10:00:00,28.628624,77.241060,PM2.5,49,200,100
India,Delhi,Delhi,"Jahangirpuri, Delhi - DPCC",06-02-2024 10:00:00,28.732820,77.170633,PM2.5,129,335,240
India,Delhi,Delhi,"Jahangirpuri, Delhi - DPCC",06-02-2024 10:00:00,28.732820,77.170633,NO2,32,67,46
India,Delhi,Delhi,"Jahangirpuri, Delhi - DPCC",06-02-2024 10:00:00,28.732820,77.170633,NH3,10,54,19
India,Delhi,Delhi,"Jawaharlal Nehru Stadium, Delhi - DPCC",06-02-2024 10:00:00,28.580280,77.233829,SO2,1,13,6
India,Delhi,Delhi,"Lodhi Road, Delhi - IITM",06-02-2024 10:00:00,28.588333,77.221667,SO2,22,36,29
India,Delhi,Delhi,"Major Dhyan Chand National Stadium, Delhi - DPCC",06-02-2024 10:00:00,28.611281,77.237738,OZONE,1,96,5
India,Delhi,Delhi,"Mandir Marg, Delhi - DPCC",06-02-2024 10:00:00,28.636429,77.201067,NO2,53,100,86
India,Delhi,Delhi,"Mundka, Delhi - DPCC",06-02-2024 10:00:00,28.684678,77.076574,NH3,5,15,9
India,Delhi,Delhi,"Mundka, Delhi - DPCC",06-02-2024 10:00:00,28.684678,77.076574,OZONE,1,8,4
India,Delhi,Delhi,"NSIT Dwarka, Delhi - CPCB",06-02-2024 10:00:00,28.60909,77.0325413,PM10,83,157,121
India,Delhi,Delhi,"Najafgarh, Delhi - DPCC",06-02-2024 10:00:00,28.570173,76.933762,PM2.5,48,110,81
India,Delhi,Delhi,"Najafgarh, Delhi - DPCC",06-02-2024 10:00:00,28.570173,76.933762,NO2,4,9,6
India,Delhi,Delhi,"Narela, Delhi - DPCC",06-02-2024 10:00:00,28.822836,77.101981,PM10,51,156,111
India,Delhi,Delhi,"Narela, Delhi - DPCC",06-02-2024 10:00:00,28.822836,77.101981,SO2,2,9,4
India,Delhi,Delhi,"Nehru Nagar, Delhi - DPCC",06-02-2024 10:00:00,28.567890,77.250515,CO,2,108,68
India,Delhi,Delhi,"New Moti Bagh, Delhi - MHUA",06-02-2024 10:00:00,28.57834,77.18400,CO,20,49,26
India,Delhi,Delhi,"Patparganj, Delhi - DPCC",06-02-2024 10:00:00,28.623763,77.287209,OZONE,1,28,2
India,Delhi,Delhi,"Punjabi Bagh, Delhi - DPCC",06-02-2024 10:00:00,28.674045,77.131023,PM2.5,102,231,165
India,Delhi,Delhi,"Punjabi Bagh, Delhi - DPCC",06-02-2024 10:00:00,28.674045,77.131023,NH3,4,8,6
India,Delhi,Delhi,"Punjabi Bagh, Delhi - DPCC",06-02-2024 10:00:00,28.674045,77.131023,OZONE,7,36,8
India,Delhi,Delhi,"Rohini, Delhi - DPCC",06-02-2024 10:00:00,28.732528,77.119920,SO2,5,17,12
India,Delhi,Delhi,"Shadipur, Delhi - CPCB",06-02-2024 10:00:00,28.6514781,77.1473105,PM10,110,146,127
India,Delhi,Delhi,"Shadipur, Delhi - CPCB",06-02-2024 10:00:00,28.6514781,77.1473105,NO2,33,51,42
India,Delhi,Delhi,"Shadipur, Delhi - CPCB",06-02-2024 10:00:00,28.6514781,77.1473105,NH3,9,14,13
India,Delhi,Delhi,"Shadipur, Delhi - CPCB",06-02-2024 10:00:00,28.6514781,77.1473105,SO2,12,20,16
India,Delhi,Delhi,"Sirifort, Delhi - CPCB",06-02-2024 10:00:00,28.5504249,77.2159377,NO2,101,166,139
India,Delhi,Delhi,"Sonia Vihar, Delhi - DPCC",06-02-2024 10:00:00,28.710508,77.249485,PM10,102,144,119
India,Delhi,Delhi,"Sonia Vihar, Delhi - DPCC",06-02-2024 10:00:00,28.710508,77.249485,NO2,24,61,34
India,Delhi,Delhi,"Sonia Vihar, Delhi - DPCC",06-02-2024 10:00:00,28.710508,77.249485,CO,51,72,56
India,Delhi,Delhi,"Sri Aurobindo Marg, Delhi - DPCC",06-02-2024 10:00:00,28.531346,77.190156,PM10,88,139,120
India,Delhi,Delhi,"Sri Aurobindo Marg, Delhi - DPCC",06-02-2024 10:00:00,28.531346,77.190156,NO2,24,58,36
India,Delhi,Delhi,"Sri Aurobindo Marg, Delhi - DPCC",06-02-2024 10:00:00,28.531346,77.190156,SO2,6,12,8
India,Delhi,Delhi,"Wazirpur, Delhi - DPCC",06-02-2024 10:00:00,28.699793,77.165453,PM10,104,227,170
India,Delhi,Delhi,"Wazirpur, Delhi - DPCC",06-02-2024 10:00:00,28.699793,77.165453,NO2,76,140,98
India,Delhi,Delhi,"Wazirpur, Delhi - DPCC",06-02-2024 10:00:00,28.699793,77.165453,NH3,3,4,3
India,Delhi,Delhi,"Wazirpur, Delhi - DPCC",06-02-2024 10:00:00,28.699793,77.165453,SO2,8,34,22
India,Delhi,Delhi,"Wazirpur, Delhi - DPCC",06-02-2024 10:00:00,28.699793,77.165453,OZONE,1,36,3
India,Gujarat,Ahmedabad,"Chandkheda, Ahmedabad - IITM",06-02-2024 10:00:00,23.107969,72.574648,NH3,5,6,5
India,Gujarat,Ahmedabad,"Gyaspur, Ahmedabad - IITM",06-02-2024 10:00:00,22.977134,72.553024,NO2,11,18,16
India,Gujarat,Ahmedabad,"Gyaspur, Ahmedabad - IITM",06-02-2024 10:00:00,22.977134,72.553024,SO2,11,25,17
India,Gujarat,Ahmedabad,"Raikhad, Ahmedabad - IITM",06-02-2024 10:00:00,23.020509,72.579261,PM2.5,14,63,30
India,Gujarat,Ahmedabad,"Raikhad, Ahmedabad - IITM",06-02-2024 10:00:00,23.020509,72.579261,NO2,10,15,12
India,Gujarat,Ahmedabad,"Raikhad, Ahmedabad - IITM",06-02-2024 10:00:00,23.020509,72.579261,SO2,16,25,18
India,Gujarat,Ahmedabad,"Rakhial, Ahmedabad - IITM",06-02-2024 10:00:00,23.016834,72.625775,NO2,9,29,14
India,Gujarat,Ahmedabad,"SAC ISRO Bopal, Ahmedabad - IITM",06-02-2024 10:00:00,23.041137,72.456691,CO,36,45,38
India,Gujarat,Ahmedabad,"SAC ISRO Satellite, Ahmedabad - IITM",06-02-2024 10:00:00,23.023389,72.515201,NH3,3,3,3
India,Gujarat,Ahmedabad,"SAC ISRO Satellite, Ahmedabad - IITM",06-02-2024 10:00:00,23.023389,72.515201,CO,38,50,48
India,Gujarat,Ahmedabad,"SVPI Airport Hansol, Ahmedabad - IITM",06-02-2024 10:00:00,23.076793,72.627874,NH3,3,4,4
India,Gujarat,Ahmedabad,"Sardar Vallabhbhai Patel Stadium, Ahmedabad - IITM",06-02-2024 10:00:00,23.043070,72.562968,PM2.5,55,105,69
India,Gujarat,Ahmedabad,"Sardar Vallabhbhai Patel Stadium, Ahmedabad - IITM",06-02-2024 10:00:00,23.043070,72.562968,OZONE,5,14,12
India,Gujarat,Ankleshwar,"GIDC, Ankleshwar - GPCB",06-02-2024 10:00:00,21.613267,73.010555,PM2.5,13,167,71
India,Gujarat,Gandhinagar,"IIPHG Lekawada, Gandhinagar - IITM",06-02-2024 10:00:00,23.243639,72.68994,PM10,60,457,99
India,Gujarat,Gandhinagar,"IIPHG Lekawada, Gandhinagar - IITM",06-02-2024 10:00:00,23.243639,72.68994,NO2,10,13,11
India,Gujarat,Gandhinagar,"IIPHG Lekawada, Gandhinagar - IITM",06-02-2024 10:00:00,23.243639,72.68994,OZONE,15,33,24
India,Gujarat,Gandhinagar,"Sector-10, Gandhinagar - GPCB",06-02-2024 10:00:00,23.221714,72.654328,PM2.5,18,48,28
India,Gujarat,Gandhinagar,"Sector-10, Gandhinagar - GPCB",06-02-2024 10:00:00,23.221714,72.654328,NO2,7,11,9
India,Gujarat,Gandhinagar,"Sector-10, Gandhinagar - GPCB",06-02-2024 10:00:00,23.221714,72.654328,SO2,8,9,8
India,Gujarat,Surat,"Science Center, Surat - SMC",06-02-2024 10:00:00,21.170046,72.795405,PM2.5,NA,NA,NA
India,Gujarat,Surat,"Science Center, Surat - SMC",06-02-2024 10:00:00,21.170046,72.795405,NO2,10,47,21
India,Gujarat,Vatva,"Phase-4 GIDC, Vatva - GPCB",06-02-2024 10:00:00,22.969611,72.643500,CO,38,40,39
India,Haryana,Ambala,"Patti Mehar, Ambala - HSPCB",06-02-2024 10:00:00,30.379589,76.778328,PM10,30,50,40
India,Haryana,Ambala,"Patti Mehar, Ambala - HSPCB",06-02-2024 10:00:00,30.379589,76.778328,OZONE,24,43,33
India,Haryana,Bahadurgarh,"Arya Nagar, Bahadurgarh - HSPCB",06-02-2024 10:00:00,28.6701,76.9254,NO2,32,40,36
India,Haryana,Bahadurgarh,"Arya Nagar, Bahadurgarh - HSPCB",06-02-2024 10:00:00,28.6701,76.9254,OZONE,38,48,43
India,Haryana,Ballabgarh,"Nathu Colony, Ballabgarh - HSPCB",06-02-2024 10:00:00,28.3419248,77.319699,PM2.5,42,181,98
India,Haryana,Ballabgarh,"Nathu Colony, Ballabgarh - HSPCB",06-02-2024 10:00:00,28.3419248,77.319699,CO,5,80,30
India,Haryana,Bhiwani,"H.B. Colony, Bhiwani - HSPCB",06-02-2024 10:00:00,28.806223,76.141105,NO2,6,12,9
India,Haryana,Charkhi Dadri,"Mini Secretariat, Charkhi Dadri - HSPCB",06-02-2024 10:00:00,28.593883,76.270653,OZONE,14,17,15
India,Haryana,Dharuhera,"Municipal Corporation Office, Dharuhera -  HSPCB",06-02-2024 10:00:00,28.206800,76.799700,NH3,9,26,18
India,Haryana,Dharuhera,"Municipal Corporation Office, Dharuhera -  HSPCB",06-02-2024 10:00:00,28.206800,76.799700,OZONE,7,62,11
India,Haryana,Faridabad,"Sector 11, Faridabad - HSPCB",06-02-2024 10:00:00,28.376058,77.315741,PM2.5,42,71,56
India,Haryana,Faridabad,"Sector 11, Faridabad - HSPCB",06-02-2024 10:00:00,28.376058,77.315741,NH3,6,6,6
India,Haryana,Faridabad,"Sector 11, Faridabad - HSPCB",06-02-2024 10:00:00,28.376058,77.315741,OZONE,3,12,4
India,Haryana,Fatehabad,"Huda Sector, Fatehabad - HSPCB",06-02-2024 10:00:00,29.503664,75.467934,PM10,31,92,50
India,Haryana,Fatehabad,"Huda Sector, Fatehabad - HSPCB",06-02-2024 10:00:00,29.503664,75.467934,NO2,28,31,30
India,Haryana,Gurugram,"NISE Gwal Pahari, Gurugram - IMD",06-02-2024 10:00:00,28.422681,77.148944,NO2,4,21,16
India,Haryana,Gurugram,"Sector-51, Gurugram - HSPCB",06-02-2024 10:00:00,28.4227,77.0667,SO2,2,4,3
India,Haryana,Gurugram,"Teri Gram, Gurugram - HSPCB",06-02-2024 10:00:00,28.4275,77.1465,NO2,21,36,29
India,Haryana,Gurugram,"Teri Gram, Gurugram - HSPCB",06-02-2024 10:00:00,28.4275,77.1465,OZONE,10,24,12
India,Haryana,Gurugram,"Vikas Sadan, Gurugram - HSPCB",06-02-2024 10:00:00,28.4501238,77.0263051,CO,54,138,101
India,Haryana,Jind,"Police Lines, Jind - HSPCB",06-02-2024 10:00:00,29.307814,76.337619,PM10,42,74,58
India,Haryana,Kaithal,"Rishi Nagar, Kaithal - HSPCB",06-02-2024 10:00:00,29.8006,76.4155,PM10,48,114,65
India,Haryana,Kaithal,"Rishi Nagar, Kaithal - HSPCB",06-02-2024 10:00:00,29.8006,76.4155,CO,1,50,5
India,Haryana,Karnal,"Sector-12, Karnal - HSPCB",06-02-2024 10:00:00,29.695300,77.002700,PM2.5,21,64,45
India,Haryana,Karnal,"Sector-12, Karnal - HSPCB",06-02-2024 10:00:00,29.695300,77.002700,CO,1,43,33
India,Haryana,Mandikhera,"General Hospital, Mandikhera - HSPCB",06-02-2024 10:00:00,27.9002,76.9938,PM10,39,81,56
India,Haryana,Narnaul,"Shastri Nagar, Narnaul - HSPCB",06-02-2024 10:00:00,28.060249,76.113115,PM2.5,29,63,46
India,Haryana,Narnaul,"Shastri Nagar, Narnaul - HSPCB",06-02-2024 10:00:00,28.060249,76.113115,PM10,35,76,55
India,Haryana,Narnaul,"Shastri Nagar, Narnaul - HSPCB",06-02-2024 10:00:00,28.060249,76.113115,NH3,5,18,12
India,Haryana,Palwal,"Shyam Nagar, Palwal - HSPCB",06-02-2024 10:00:00,28.1485564,77.3320667,PM2.5,32,83,64
India,Haryana,Palwal,"Shyam Nagar, Palwal - HSPCB",06-02-2024 10:00:00,28.1485564,77.3320667,SO2,2,16,7
India,Haryana,Panipat,"Sector-18, Panipat - HSPCB",06-02-2024 10:00:00,29.497973,76.993331,PM10,84,95,90
India,Haryana,Panipat,"Sector-18, Panipat - HSPCB",06-02-2024 10:00:00,29.497973,76.993331,CO,22,27,24
India,Haryana,Rohtak,"MD University, Rohtak - HSPCB",06-02-2024 10:00:00,28.52123,76.37138,PM2.5,28,75,48
India,Haryana,Rohtak,"MD University, Rohtak - HSPCB",06-02-2024 10:00:00,28.52123,76.37138,SO2,6,8,7
India,Haryana,Rohtak,"MD University, Rohtak - HSPCB",06-02-2024 10:00:00,28.52123,76.37138,OZONE,44,52,48
India,Haryana,Sirsa,"F-Block, Sirsa - HSPCB",06-02-2024 10:00:00,29.536400,75.015800,NH3,7,13,12
India,Haryana,Sirsa,"F-Block, Sirsa - HSPCB",06-02-2024 10:00:00,29.536400,75.015800,OZONE,17,66,22
India,Haryana,Sonipat,"Murthal, Sonipat - HSPCB",06-02-2024 10:00:00,29.027200,77.062100,NO2,37,44,40
India,Jharkhand,Dhanbad,"Kalakusuma, Dhanbad - DMC",06-02-2024 10:00:00,23.811548,86.481238,OZONE,34,40,37
India,Jharkhand,Dhanbad,"Sardar Patel Nagar, Dhanbad - JSPCB",06-02-2024 10:00:00,23.80569,86.44268,OZONE,NA,NA,NA
India,Jharkhand,Pathardih,"Mohalbani Ghat, Pathardih - DMC",06-02-2024 10:00:00,23.669880,86.411725,CO,NA,NA,NA
India,Jharkhand,Pathardih,"Mohalbani Ghat, Pathardih - DMC",06-02-2024 10:00:00,23.669880,86.411725,OZONE,NA,NA,NA
India,Karnataka,Bagalkot,"Vidayagiri, Bagalkot - KSPCB",06-02-2024 10:00:00,16.172806,75.659694,PM10,50,51,51
India,Karnataka,Belgaum,"Ramteerth Nagar, Belgaum - KSPCB",06-02-2024 10:00:00,15.888653,74.541751,PM10,57,128,88
India,Karnataka,Bengaluru,"BTM Layout, Bengaluru - CPCB",06-02-2024 10:00:00,12.9135218,77.5950804,OZONE,2,46,19
India,Karnataka,Bengaluru,"Bapuji Nagar, Bengaluru - KSPCB",06-02-2024 10:00:00,12.951913,77.539784,PM2.5,55,168,73
India,Karnataka,Bengaluru,"Bapuji Nagar, Bengaluru - KSPCB",06-02-2024 10:00:00,12.951913,77.539784,NO2,9,12,10
India,Karnataka,Bengaluru,"Bapuji Nagar, Bengaluru - KSPCB",06-02-2024 10:00:00,12.951913,77.539784,CO,32,44,34
India,Karnataka,Bengaluru,"Bapuji Nagar, Bengaluru - KSPCB",06-02-2024 10:00:00,12.951913,77.539784,OZONE,10,12,11
India,Karnataka,Bengaluru,"City Railway Station, Bengaluru - KSPCB",06-02-2024 10:00:00,12.9756843,77.5660749,PM10,NA,NA,NA
India,Karnataka,Bengaluru,"Hebbal, Bengaluru - KSPCB",06-02-2024 10:00:00,13.029152,77.585901,NO2,5,5,5
India,Karnataka,Bengaluru,"Hombegowda Nagar, Bengaluru - KSPCB",06-02-2024 10:00:00,12.938539,77.590100,PM2.5,40,83,56
India,Karnataka,Bengaluru,"Hombegowda Nagar, Bengaluru - KSPCB",06-02-2024 10:00:00,12.938539,77.590100,NO2,33,43,39
India,Karnataka,Bengaluru,"Hombegowda Nagar, Bengaluru - KSPCB",06-02-2024 10:00:00,12.938539,77.590100,SO2,3,5,4
India,Karnataka,Bengaluru,"Hombegowda Nagar, Bengaluru - KSPCB",06-02-2024 10:00:00,12.938539,77.590100,OZONE,4,5,5
India,Karnataka,Bengaluru,"Jayanagar 5th Block, Bengaluru - KSPCB",06-02-2024 10:00:00,12.920984,77.584908,NO2,10,12,11
India,Karnataka,Bengaluru,"Jayanagar 5th Block, Bengaluru - KSPCB",06-02-2024 10:00:00,12.920984,77.584908,SO2,16,23,18
India,Karnataka,Bengaluru,"Jigani, Bengaluru - KSPCB",06-02-2024 10:00:00,12.7816279,77.6299145,PM2.5,8,246,72
India,Karnataka,Bengaluru,"Jigani, Bengaluru - KSPCB",06-02-2024 10:00:00,12.7816279,77.6299145,NO2,26,36,29
India,Karnataka,Bengaluru,"Jigani, Bengaluru - KSPCB",06-02-2024 10:00:00,12.7816279,77.6299145,SO2,5,11,6
India,Karnataka,Bengaluru,"Jigani, Bengaluru - KSPCB",06-02-2024 10:00:00,12.7816279,77.6299145,CO,40,89,67
India,Karnataka,Bengaluru,"Kasturi Nagar, Bengaluru - KSPCB",06-02-2024 10:00:00,13.003872,77.664217,SO2,9,10,10
India,Karnataka,Bengaluru,"Shivapura_Peenya, Bengaluru - KSPCB",06-02-2024 10:00:00,13.0246342,77.5080115,PM2.5,31,176,68
India,Karnataka,Bengaluru,"Shivapura_Peenya, Bengaluru - KSPCB",06-02-2024 10:00:00,13.0246342,77.5080115,NH3,4,4,4
India,Karnataka,Bengaluru,"Silk Board, Bengaluru - KSPCB",06-02-2024 10:00:00,12.917348,77.622813,PM2.5,33,140,68
India,Karnataka,Bengaluru,"Silk Board, Bengaluru - KSPCB",06-02-2024 10:00:00,12.917348,77.622813,SO2,6,10,8
India,Karnataka,Chamarajanagar,"Urban, Chamarajanagar - KSPCB",06-02-2024 10:00:00,11.55358,76.55521,NH3,1,2,2
India,Karnataka,Chikkaballapur,"Chikkaballapur Rural, Chikkaballapur - KSPCB",06-02-2024 10:00:00,13.428828,77.731418,PM10,NA,NA,NA
India,Karnataka,Davanagere,"Devaraj Urs Badavane, Davanagere - KSPCB",06-02-2024 10:00:00,14.475800,75.905200,NO2,10,15,12
India,Karnataka,Davanagere,"Devaraj Urs Badavane, Davanagere - KSPCB",06-02-2024 10:00:00,14.475800,75.905200,OZONE,22,42,22
India,Karnataka,Dharwad,"Kalabhavan, Dharwad - KSPCB",06-02-2024 10:00:00,15.459706,75.008381,PM10,61,161,93
India,Karnataka,Dharwad,"Kalabhavan, Dharwad - KSPCB",06-02-2024 10:00:00,15.459706,75.008381,NO2,2,36,22
