country,state,city,station,last_update,latitude,longitude,pollutant_id,pollutant_min,pollutant_max,pollutant_avg
India,Andhra_Pradesh,Amaravati,"Secretariat, Amaravati - APPCB",03-04-2024 07:00:00,16.5150833,80.5181667,PM10,34,72,51
India,Andhra_Pradesh,Anantapur,"Gulzarpet, Anantapur - APPCB",03-04-2024 07:00:00,14.675886,77.593027,PM2.5,30,58,42
India,Andhra_Pradesh,Anantapur,"Gulzarpet, Anantapur - APPCB",03-04-2024 07:00:00,14.675886,77.593027,PM10,72,103,88
India,Andhra_Pradesh,Anantapur,"Gulzarpet, Anantapur - APPCB",03-04-2024 07:00:00,14.675886,77.593027,CO,26,82,34
India,Andhra_Pradesh,Kadapa,"Yerramukkapalli, Kadapa - APPCB",03-04-2024 07:00:00,14.465052,78.824187,PM10,24,58,40
India,Andhra_Pradesh,Rajamahendravaram,"Anand Kala Kshetram, Rajamahendravaram - APPCB",03-04-2024 07:00:00,16.9872867,81.7363176,PM2.5,10,32,19
India,Andhra_Pradesh,Rajamahendravaram,"Anand Kala Kshetram, Rajamahendravaram - APPCB",03-04-2024 07:00:00,16.9872867,81.7363176,NH3,2,6,3
India,Andhra_Pradesh,Tirupati,"Tirumala, Tirupati - APPCB",03-04-2024 07:00:00,13.67,79.35,NO2,12,42,23
India,Andhra_Pradesh,Tirupati,"Tirumala, Tirupati - APPCB",03-04-2024 07:00:00,13.67,79.35,NH3,1,2,1
India,Andhra_Pradesh,Vijayawada,"HB Colony, Vijayawada - APPCB",03-04-2024 07:00:00,16.536107,80.594233,CO,26,34,26
India,Andhra_Pradesh,Vijayawada,"Rajiv Gandhi Park, Vijayawada - APPCB",03-04-2024 07:00:00,16.509717,80.612222,SO2,5,10,7
India,Andhra_Pradesh,Vijayawada,"Rajiv Gandhi Park, Vijayawada - APPCB",03-04-2024 07:00:00,16.509717,80.612222,CO,32,40,36
India,Andhra_Pradesh,Visakhapatnam,"GVM Corporation, Visakhapatnam - APPCB",03-04-2024 07:00:00,17.72,83.3,PM10,76,158,103
India,Assam,Byrnihat,"Central Academy for SFS, Byrnihat - PCBA",03-04-2024 07:00:00,26.071318,91.87488,PM2.5,97,499,296
India,Assam,Byrnihat,"Central Academy for SFS, Byrnihat - PCBA",03-04-2024 07:00:00,26.071318,91.87488,NO2,18,110,62
India,Assam,Guwahati,"IITG, Guwahati - PCBA",03-04-2024 07:00:00,26.2028636,91.70046436,PM10,59,270,139
India,Assam,Guwahati,"LGBI Airport, Guwahati - PCBA",03-04-2024 07:00:00,26.10887,91.589544,SO2,NA,NA,NA
India,Assam,Guwahati,"LGBI Airport, Guwahati - PCBA",03-04-2024 07:00:00,26.10887,91.589544,OZONE,15,19,17
India,Assam,Guwahati,"Pan Bazaar, Guwahati - PCBA",03-04-2024 07:00:00,26.187500,91.744194,PM2.5,38,185,79
India,Assam,Guwahati,"Railway Colony, Guwahati - PCBA",03-04-2024 07:00:00,26.181742,91.78063,PM10,58,500,205
India,Assam,Guwahati,"Railway Colony, Guwahati - PCBA",03-04-2024 07:00:00,26.181742,91.78063,NO2,3,4,3
India,Assam,Nagaon,"Christianpatty, Nagaon - PCBA",03-04-2024 07:00:00,26.349082,92.68449,SO2,5,47,20
India,Assam,Nagaon,"Christianpatty, Nagaon - PCBA",03-04-2024 07:00:00,26.349082,92.68449,CO,30,130,37
India,Assam,Nalbari,"Bata Chowk, Nalbari - PCBA",03-04-2024 07:00:00,26.446912,91.439057,PM2.5,43,253,94
India,Assam,Nalbari,"Bata Chowk, Nalbari - PCBA",03-04-2024 07:00:00,26.446912,91.439057,OZONE,30,181,57
India,Assam,Silchar,"Tarapur, Silchar - PCBA",03-04-2024 07:00:00,24.82827,92.79525,PM10,32,83,53
India,Bihar,Arrah,"New DM Office, Arrah - BSPCB",03-04-2024 07:00:00,25.5626095,84.663264,PM2.5,42,62,51
India,Bihar,Arrah,"New DM Office, Arrah - BSPCB",03-04-2024 07:00:00,25.5626095,84.663264,OZONE,9,43,15
India,Bihar,Aurangabad,"Gurdeo Nagar, Aurangabad - BSPCB",03-04-2024 07:00:00,24.75746,84.366208,PM2.5,NA,NA,NA
India,Bihar,Bhagalpur,"DM Office_Kachari Chowk, Bhagalpur - BSPCB",03-04-2024 07:00:00,25.251013,86.989001,NH3,6,9,7
India,Bihar,Bhagalpur,"DM Office_Kachari Chowk, Bhagalpur - BSPCB",03-04-2024 07:00:00,25.251013,86.989001,SO2,16,49,31
India,Bihar,Bhagalpur,"DM Office_Kachari Chowk, Bhagalpur - BSPCB",03-04-2024 07:00:00,25.251013,86.989001,OZONE,44,49,46
India,Bihar,Bhagalpur,"Mayaganj, Bhagalpur - BSPCB",03-04-2024 07:00:00,25.265194,87.012947,NH3,6,10,8
India,Bihar,Bhagalpur,"Mayaganj, Bhagalpur - BSPCB",03-04-2024 07:00:00,25.265194,87.012947,OZONE,17,98,44
India,Bihar,Bihar Sharif,"D M Colony, Bihar Sharif - BSPCB",03-04-2024 07:00:00,25.204762,85.514960,PM2.5,NA,NA,NA
India,Bihar,Buxar,"Charitra Van, Buxar - BSPCB (Formerly known as Central Jail)",03-04-2024 07:00:00,25.567520,83.966379,PM2.5,NA,NA,NA
India,Bihar,Buxar,"Charitra Van, Buxar - BSPCB (Formerly known as Central Jail)",03-04-2024 07:00:00,25.567520,83.966379,NH3,NA,NA,NA
India,Bihar,Gaya,"Collectorate, Gaya - BSPCB",03-04-2024 07:00:00,24.7955,84.9994,SO2,5,19,12
India,Bihar,Gaya,"Kareemganj, Gaya - BSPCB",03-04-2024 07:00:00,24.792403,84.992416,SO2,6,10,8
India,Bihar,Hajipur,"Industrial Area, Hajipur - BSPCB",03-04-2024 07:00:00,25.697189,85.245900,CO,16,64,38
India,Bihar,Katihar,"Mirchaibari, Katihar - BSPCB",03-04-2024 07:00:00,25.560083,87.553265,PM10,127,260,181
India,Bihar,Katihar,"Mirchaibari, Katihar - BSPCB",03-04-2024 07:00:00,25.560083,87.553265,SO2,15,23,18
India,Bihar,Kishanganj,"SDM Office_Khagra, Kishanganj - BSPCB",03-04-2024 07:00:00,26.0881305,87.93840336,PM2.5,52,341,133
India,Bihar,Kishanganj,"SDM Office_Khagra, Kishanganj - BSPCB",03-04-2024 07:00:00,26.0881305,87.93840336,PM10,141,500,216
India,Bihar,Manguraha,"Forest Rest House, Manguraha - BSPCB",03-04-2024 07:00:00,27.308328,84.531742,OZONE,12,53,19
India,Bihar,Motihari,"Gandak Colony, Motihari - BSPCB",03-04-2024 07:00:00,26.63086,84.90051,NH3,NA,NA,NA
India,Bihar,Motihari,"Gandak Colony, Motihari - BSPCB",03-04-2024 07:00:00,26.63086,84.90051,CO,NA,NA,NA
India,Bihar,Munger,"Town Hall, Munger - BSPCB",03-04-2024 07:00:00,25.376776,86.471523,PM10,75,153,113
India,Bihar,Munger,"Town Hall, Munger - BSPCB",03-04-2024 07:00:00,25.376776,86.471523,SO2,23,32,28
India,Bihar,Muzaffarpur,"Buddha Colony, Muzaffarpur - BSPCB",03-04-2024 07:00:00,26.11442,85.39813,PM10,124,194,156
India,Bihar,Muzaffarpur,"MIT-Daudpur Kothi, Muzaffarpur - BSPCB",03-04-2024 07:00:00,26.1403345,85.3650192,PM10,123,308,173
India,Bihar,Muzaffarpur,"MIT-Daudpur Kothi, Muzaffarpur - BSPCB",03-04-2024 07:00:00,26.1403345,85.3650192,NO2,5,8,7
India,Bihar,Muzaffarpur,"MIT-Daudpur Kothi, Muzaffarpur - BSPCB",03-04-2024 07:00:00,26.1403345,85.3650192,NH3,1,4,2
India,Bihar,Muzaffarpur,"Muzaffarpur Collectorate, Muzaffarpur - BSPCB",03-04-2024 07:00:00,26.1209,85.3647,PM2.5,35,187,83
India,Bihar,Patna,"DRM Office Danapur, Patna - BSPCB",03-04-2024 07:00:00,25.586562,85.043586,NH3,3,3,3
India,Bihar,Patna,"Govt. High School Shikarpur, Patna - BSPCB",03-04-2024 07:00:00,25.592539,85.227158,SO2,7,14,10
India,Bihar,Patna,"IGSC Planetarium Complex, Patna - BSPCB",03-04-2024 07:00:00,25.610369,85.132568,CO,12,13,12
India,Bihar,Patna,"Muradpur, Patna - BSPCB",03-04-2024 07:00:00,25.619651,85.147382,PM10,185,347,260
India,Bihar,Patna,"Rajbansi Nagar, Patna - BSPCB",03-04-2024 07:00:00,25.599486,85.113666,PM10,139,189,154
India,Bihar,Patna,"Rajbansi Nagar, Patna - BSPCB",03-04-2024 07:00:00,25.599486,85.113666,SO2,1,15,10
India,Bihar,Patna,"Rajbansi Nagar, Patna - BSPCB",03-04-2024 07:00:00,25.599486,85.113666,CO,2,40,8
India,Bihar,Patna,"Samanpura, Patna - BSPCB",03-04-2024 07:00:00,25.596727,85.085624,NH3,19,48,35
India,Bihar,Purnia,"Mariam Nagar, Purnia - BSPCB",03-04-2024 07:00:00,25.366336,87.117468,PM2.5,NA,NA,NA
India,Bihar,Purnia,"Mariam Nagar, Purnia - BSPCB",03-04-2024 07:00:00,25.366336,87.117468,NO2,5,7,6
India,Bihar,Rajgir,"Dangi Tola, Rajgir - BSPCB",03-04-2024 07:00:00,25.03280,85.41948,PM2.5,18,60,35
India,Bihar,Saharsa,"Police Line, Saharsa - BSPCB",03-04-2024 07:00:00,25.892357,86.590325,NO2,6,8,7
India,Bihar,Saharsa,"Police Line, Saharsa - BSPCB",03-04-2024 07:00:00,25.892357,86.590325,NH3,9,9,9
India,Bihar,Saharsa,"Police Line, Saharsa - BSPCB",03-04-2024 07:00:00,25.892357,86.590325,OZONE,16,51,20
India,Bihar,Sasaram,"Dada Peer, Sasaram - BSPCB",03-04-2024 07:00:00,24.952822,84.002396,NH3,3,12,8
India,Bihar,Sasaram,"Dada Peer, Sasaram - BSPCB",03-04-2024 07:00:00,24.952822,84.002396,CO,82,119,112
India,Bihar,Sasaram,"Dada Peer, Sasaram - BSPCB",03-04-2024 07:00:00,24.952822,84.002396,OZONE,35,80,45
India,Bihar,Siwan,"Chitragupta Nagar, Siwan - BSPCB",03-04-2024 07:00:00,26.2271665,84.3570427,OZONE,6,125,68
India,Chandigarh,Chandigarh,"Sector 22, Chandigarh - CPCC",03-04-2024 07:00:00,30.735567,76.775714,SO2,4,44,15
India,Chandigarh,Chandigarh,"Sector-25, Chandigarh - CPCC",03-04-2024 07:00:00,30.751462,76.762879,NH3,8,18,13
India,Chandigarh,Chandigarh,"Sector-25, Chandigarh - CPCC",03-04-2024 07:00:00,30.751462,76.762879,OZONE,2,52,5
India,Chandigarh,Chandigarh,"Sector-53, Chandigarh - CPCC",03-04-2024 07:00:00,30.719859,76.738637,SO2,7,30,15
India,Chhattisgarh,Bhilai,"32Bungalows, Bhilai - CECB",03-04-2024 07:00:00,21.194815,81.314770,NH3,6,7,7
India,Chhattisgarh,Bhilai,"32Bungalows, Bhilai - CECB",03-04-2024 07:00:00,21.194815,81.314770,CO,21,66,56
India,Chhattisgarh,Bilaspur,"Mangala, Bilaspur - NTPC",03-04-2024 07:00:00,22.08815,82.13737,NO2,16,22,19
India,Chhattisgarh,Chhal,"Nawapara SECL Colony, Chhal - CECB",03-04-2024 07:00:00,22.118125,83.140608,NH3,2,2,2
India,Chhattisgarh,Korba,"Rampur, Korba - CECB",03-04-2024 07:00:00,22.368195,82.746431,CO,18,50,47
India,Chhattisgarh,Korba,"Urja Nagar, Korba - CECB",03-04-2024 07:00:00,22.348441,82.549611,CO,26,50,43
India,Chhattisgarh,Milupara,"Govt. Higher Secondary School, Milupara - CECB",03-04-2024 07:00:00,22.1910172,83.5197009,NH3,NA,NA,NA
India,Chhattisgarh,Raipur,"AIIMS, Raipur - CECB",03-04-2024 07:00:00,21.258815,81.578979,SO2,7,24,13
India,Chhattisgarh,Raipur,"Bhatagaon New ISBT, Raipur - CECB",03-04-2024 07:00:00,21.219665,81.630094,NH3,2,3,3
India,Chhattisgarh,Raipur,"Siltara Phase-II, Raipur - CECB",03-04-2024 07:00:00,21.371751,81.664929,PM2.5,47,251,137
India,Chhattisgarh,Tumidih,"OP Jindal Industrial Park, Tumidih - CECB",03-04-2024 07:00:00,22.06631475,83.33820077,NH3,1,4,2
India,Delhi,Delhi,"Alipur, Delhi - DPCC",03-04-2024 07:00:00,28.815329,77.153010,NO2,5,82,30
India,Delhi,Delhi,"Ashok Vihar, Delhi - DPCC",03-04-2024 07:00:00,28.695381,77.181665,NH3,1,9,6
India,Delhi,Delhi,"Ashok Vihar, Delhi - DPCC",03-04-2024 07:00:00,28.695381,77.181665,CO,9,64,39
India,Delhi,Delhi,"Aya Nagar, Delhi - IMD",03-04-2024 07:00:00,28.4706914,77.1099364,NO2,58,63,61
India,Delhi,Delhi,"Bawana, Delhi - DPCC",03-04-2024 07:00:00,28.776200,77.051074,NO2,12,73,34
India,Delhi,Delhi,"Bawana, Delhi - DPCC",03-04-2024 07:00:00,28.776200,77.051074,CO,36,65,57
India,Delhi,Delhi,"Burari Crossing, Delhi - IMD",03-04-2024 07:00:00,28.7256504,77.2011573,NO2,16,22,19
India,Delhi,Delhi,"Burari Crossing, Delhi - IMD",03-04-2024 07:00:00,28.7256504,77.2011573,CO,20,38,29
India,Delhi,Delhi,"CRRI Mathura Road, Delhi - IMD",03-04-2024 07:00:00,28.5512005,77.2735737,NO2,NA,NA,NA
India,Delhi,Delhi,"CRRI Mathura Road, Delhi - IMD",03-04-2024 07:00:00,28.5512005,77.2735737,OZONE,NA,NA,NA
India,Delhi,Delhi,"Chandni Chowk, Delhi - IITM",03-04-2024 07:00:00,28.656756,77.227234,NH3,4,24,14
India,Delhi,Delhi,"Chandni Chowk, Delhi - IITM",03-04-2024 07:00:00,28.656756,77.227234,SO2,19,58,40
India,Delhi,Delhi,"Chandni Chowk, Delhi - IITM",03-04-2024 07:00:00,28.656756,77.227234,OZONE,5,7,6
India,Delhi,Delhi,"DTU, Delhi - CPCB",03-04-2024 07:00:00,28.7500499,77.1112615,NO2,NA,NA,NA
India,Delhi,Delhi,"Dr. Karni Singh Shooting Range, Delhi - DPCC",03-04-2024 07:00:00,28.498571,77.264840,SO2,18,49,29
India,Delhi,Delhi,"Dwarka-Sector 8, Delhi - DPCC ",03-04-2024 07:00:00,28.5710274,77.0719006,PM2.5,37,445,132
India,Delhi,Delhi,"Dwarka-Sector 8, Delhi - DPCC ",03-04-2024 07:00:00,28.5710274,77.0719006,SO2,7,85,21
India,Delhi,Delhi,"IGI Airport (T3), Delhi - IMD",03-04-2024 07:00:00,28.5627763,77.1180053,PM10,58,215,106
India,Delhi,Delhi,"IHBAS, Dilshad Garden, Delhi - CPCB",03-04-2024 07:00:00,28.6811736,77.3025234,NH3,9,12,11
India,Delhi,Delhi,"IHBAS, Dilshad Garden, Delhi - CPCB",03-04-2024 07:00:00,28.6811736,77.3025234,OZONE,6,59,9
India,Delhi,Delhi,"ITO, Delhi - CPCB",03-04-2024 07:00:00,28.628624,77.241060,PM10,2,134,73
India,Delhi,Delhi,"Jawaharlal Nehru Stadium, Delhi - DPCC",03-04-2024 07:00:00,28.580280,77.233829,SO2,1,33,15
India,Delhi,Delhi,"Lodhi Road, Delhi - IITM",03-04-2024 07:00:00,28.588333,77.221667,PM10,69,500,220
India,Delhi,Delhi,"Lodhi Road, Delhi - IITM",03-04-2024 07:00:00,28.588333,77.221667,NO2,68,116,89
India,Delhi,Delhi,"Lodhi Road, Delhi - IMD",03-04-2024 07:00:00,28.5918245,77.2273074,PM10,74,120,99
India,Delhi,Delhi,"Mandir Marg, Delhi - DPCC",03-04-2024 07:00:00,28.636429,77.201067,NH3,6,6,6
India,Delhi,Delhi,"Mundka, Delhi - DPCC",03-04-2024 07:00:00,28.684678,77.076574,OZONE,2,137,44
India,Delhi,Delhi,"NSIT Dwarka, Delhi - CPCB",03-04-2024 07:00:00,28.60909,77.0325413,CO,27,85,43
India,Delhi,Delhi,"Najafgarh, Delhi - DPCC",03-04-2024 07:00:00,28.570173,76.933762,OZONE,17,132,27
India,Delhi,Delhi,"Narela, Delhi - DPCC",03-04-2024 07:00:00,28.822836,77.101981,PM2.5,22,408,150
India,Delhi,Delhi,"Narela, Delhi - DPCC",03-04-2024 07:00:00,28.822836,77.101981,NH3,5,9,7
India,Delhi,Delhi,"Narela, Delhi - DPCC",03-04-2024 07:00:00,28.822836,77.101981,SO2,12,70,27
India,Delhi,Delhi,"Nehru Nagar, Delhi - DPCC",03-04-2024 07:00:00,28.567890,77.250515,NH3,8,10,9
India,Delhi,Delhi,"Nehru Nagar, Delhi - DPCC",03-04-2024 07:00:00,28.567890,77.250515,SO2,8,20,15
India,Delhi,Delhi,"North Campus, DU, Delhi - IMD",03-04-2024 07:00:00,28.6573814,77.1585447,OZONE,NA,NA,NA
India,Delhi,Delhi,"Okhla Phase-2, Delhi - DPCC",03-04-2024 07:00:00,28.530785,77.271255,CO,2,139,122
India,Delhi,Delhi,"Punjabi Bagh, Delhi - DPCC",03-04-2024 07:00:00,28.674045,77.131023,PM2.5,27,243,119
India,Delhi,Delhi,"Pusa, Delhi - DPCC",03-04-2024 07:00:00,28.639652,77.146275,OZONE,9,60,12
India,Delhi,Delhi,"R K Puram, Delhi - DPCC",03-04-2024 07:00:00,28.563262,77.186937,CO,15,112,60
India,Delhi,Delhi,"Rohini, Delhi - DPCC",03-04-2024 07:00:00,28.732528,77.119920,PM2.5,20,346,157
India,Delhi,Delhi,"Shadipur, Delhi - CPCB",03-04-2024 07:00:00,28.6514781,77.1473105,PM2.5,128,344,249
India,Delhi,Delhi,"Sirifort, Delhi - CPCB",03-04-2024 07:00:00,28.5504249,77.2159377,NO2,16,74,56
India,Delhi,Delhi,"Sri Aurobindo Marg, Delhi - DPCC",03-04-2024 07:00:00,28.531346,77.190156,NH3,5,8,6
India,Delhi,Delhi,"Wazirpur, Delhi - DPCC",03-04-2024 07:00:00,28.699793,77.165453,SO2,11,73,40
India,Gujarat,Ahmedabad,"Chandkheda, Ahmedabad - IITM",03-04-2024 07:00:00,23.107969,72.574648,PM2.5,61,181,99
India,Gujarat,Ahmedabad,"Chandkheda, Ahmedabad - IITM",03-04-2024 07:00:00,23.107969,72.574648,PM10,63,130,95
India,Gujarat,Ahmedabad,"Chandkheda, Ahmedabad - IITM",03-04-2024 07:00:00,23.107969,72.574648,SO2,7,15,10
India,Gujarat,Ahmedabad,"Gyaspur, Ahmedabad - IITM",03-04-2024 07:00:00,22.977134,72.553024,NO2,23,64,46
India,Gujarat,Ahmedabad,"Maninagar, Ahmedabad - GPCB",03-04-2024 07:00:00,23.002657,72.591912,NO2,25,80,45
India,Gujarat,Ahmedabad,"Raikhad, Ahmedabad - IITM",03-04-2024 07:00:00,23.020509,72.579261,CO,18,104,65
India,Gujarat,Ahmedabad,"Raikhad, Ahmedabad - IITM",03-04-2024 07:00:00,23.020509,72.579261,OZONE,7,34,10
India,Gujarat,Ahmedabad,"Rakhial, Ahmedabad - IITM",03-04-2024 07:00:00,23.016834,72.625775,SO2,4,38,13
India,Gujarat,Ahmedabad,"SVPI Airport Hansol, Ahmedabad - IITM",03-04-2024 07:00:00,23.076793,72.627874,PM2.5,65,101,78
India,Gujarat,Ahmedabad,"SVPI Airport Hansol, Ahmedabad - IITM",03-04-2024 07:00:00,23.076793,72.627874,NH3,4,5,4
India,Gujarat,Ahmedabad,"SVPI Airport Hansol, Ahmedabad - IITM",03-04-2024 07:00:00,23.076793,72.627874,SO2,4,52,16
India,Gujarat,Ahmedabad,"SVPI Airport Hansol, Ahmedabad - IITM",03-04-2024 07:00:00,23.076793,72.627874,CO,22,77,44
India,Gujarat,Ahmedabad,"Sardar Vallabhbhai Patel Stadium, Ahmedabad - IITM",03-04-2024 07:00:00,23.043070,72.562968,NO2,31,41,39
India,Gujarat,Ankleshwar,"GIDC, Ankleshwar - GPCB",03-04-2024 07:00:00,21.613267,73.010555,NH3,6,6,6
India,Gujarat,Ankleshwar,"GIDC, Ankleshwar - GPCB",03-04-2024 07:00:00,21.613267,73.010555,SO2,12,80,35
India,Gujarat,Gandhinagar,"IIPHG Lekawada, Gandhinagar - IITM",03-04-2024 07:00:00,23.243639,72.68994,NO2,38,45,41
India,Gujarat,Gandhinagar,"Sector-10, Gandhinagar - GPCB",03-04-2024 07:00:00,23.221714,72.654328,NH3,1,2,1
India,Gujarat,Nandesari,"GIDC, Nandesari - Nandesari Ind. Association",03-04-2024 07:00:00,22.410802,73.097923,SO2,3,15,10
India,Gujarat,Surat,"Science Center, Surat - SMC",03-04-2024 07:00:00,21.170046,72.795405,PM2.5,7,38,20
India,Gujarat,Surat,"Science Center, Surat - SMC",03-04-2024 07:00:00,21.170046,72.795405,SO2,2,10,5
India,Gujarat,Surat,"Science Center, Surat - SMC",03-04-2024 07:00:00,21.170046,72.795405,CO,28,74,40
India,Gujarat,Vapi,"Phase-1 GIDC, Vapi - GPCB",03-04-2024 07:00:00,20.362421,72.918013,PM2.5,56,185,90
India,Gujarat,Vatva,"Phase-4 GIDC, Vatva - GPCB",03-04-2024 07:00:00,22.969611,72.643500,NH3,NA,NA,NA
India,Gujarat,Vatva,"Phase-4 GIDC, Vatva - GPCB",03-04-2024 07:00:00,22.969611,72.643500,CO,NA,NA,NA
India,Haryana,Ambala,"Patti Mehar, Ambala - HSPCB",03-04-2024 07:00:00,30.379589,76.778328,PM10,33,66,47
India,Haryana,Ambala,"Patti Mehar, Ambala - HSPCB",03-04-2024 07:00:00,30.379589,76.778328,NO2,7,21,14
India,Haryana,Bahadurgarh,"Arya Nagar, Bahadurgarh - HSPCB",03-04-2024 07:00:00,28.6701,76.9254,NO2,33,39,36
India,Haryana,Ballabgarh,"Nathu Colony, Ballabgarh - HSPCB",03-04-2024 07:00:00,28.3419248,77.319699,OZONE,5,31,7
India,Haryana,Bhiwani,"H.B. Colony, Bhiwani - HSPCB",03-04-2024 07:00:00,28.806223,76.141105,SO2,1,89,21
India,Haryana,Bhiwani,"H.B. Colony, Bhiwani - HSPCB",03-04-2024 07:00:00,28.806223,76.141105,OZONE,2,39,11
India,Haryana,Charkhi Dadri,"Mini Secretariat, Charkhi Dadri - HSPCB",03-04-2024 07:00:00,28.593883,76.270653,NO2,15,24,18
India,Haryana,Charkhi Dadri,"Mini Secretariat, Charkhi Dadri - HSPCB",03-04-2024 07:00:00,28.593883,76.270653,SO2,1,20,12
India,Haryana,Dharuhera,"Municipal Corporation Office, Dharuhera -  HSPCB",03-04-2024 07:00:00,28.206800,76.799700,SO2,10,39,24
India,Haryana,Dharuhera,"Municipal Corporation Office, Dharuhera -  HSPCB",03-04-2024 07:00:00,28.206800,76.799700,CO,74,104,99
India,Haryana,Dharuhera,"Municipal Corporation Office, Dharuhera -  HSPCB",03-04-2024 07:00:00,28.206800,76.799700,OZONE,44,65,46
India,Haryana,Faridabad,"Sector 11, Faridabad - HSPCB",03-04-2024 07:00:00,28.376058,77.315741,PM2.5,95,386,176
India,Haryana,Faridabad,"Sector 11, Faridabad - HSPCB",03-04-2024 07:00:00,28.376058,77.315741,NO2,31,32,31
India,Haryana,Faridabad,"Sector 11, Faridabad - HSPCB",03-04-2024 07:00:00,28.376058,77.315741,SO2,5,84,9
India,Haryana,Faridabad,"Sector 30, Faridabad - HSPCB",03-04-2024 07:00:00,28.4417,77.3217,PM2.5,91,99,96
India,Haryana,Faridabad,"Sector 30, Faridabad - HSPCB",03-04-2024 07:00:00,28.4417,77.3217,PM10,138,147,143
India,Haryana,Faridabad,"Sector 30, Faridabad - HSPCB",03-04-2024 07:00:00,28.4417,77.3217,NH3,9,9,9
India,Haryana,Fatehabad,"Huda Sector, Fatehabad - HSPCB",03-04-2024 07:00:00,29.503664,75.467934,NO2,37,38,37
India,Haryana,Gurugram,"Teri Gram, Gurugram - HSPCB",03-04-2024 07:00:00,28.4275,77.1465,PM2.5,64,267,156
India,Haryana,Gurugram,"Teri Gram, Gurugram - HSPCB",03-04-2024 07:00:00,28.4275,77.1465,PM10,145,281,207
India,Haryana,Gurugram,"Teri Gram, Gurugram - HSPCB",03-04-2024 07:00:00,28.4275,77.1465,NO2,31,45,38
India,Haryana,Gurugram,"Vikas Sadan, Gurugram - HSPCB",03-04-2024 07:00:00,28.4501238,77.0263051,PM2.5,77,204,136
India,Haryana,Hisar,"Urban Estate-II, Hisar - HSPCB",03-04-2024 07:00:00,29.140560,75.744941,NH3,8,10,9
India,Haryana,Hisar,"Urban Estate-II, Hisar - HSPCB",03-04-2024 07:00:00,29.140560,75.744941,SO2,6,95,52
India,Haryana,Kaithal,"Rishi Nagar, Kaithal - HSPCB",03-04-2024 07:00:00,29.8006,76.4155,CO,2,22,17
India,Haryana,Karnal,"Sector-12, Karnal - HSPCB",03-04-2024 07:00:00,29.695300,77.002700,NH3,10,13,11
India,Haryana,Karnal,"Sector-12, Karnal - HSPCB",03-04-2024 07:00:00,29.695300,77.002700,SO2,12,13,13
India,Haryana,Kurukshetra,"Sector-7, Kurukshetra - HSPCB",03-04-2024 07:00:00,29.966942,76.875879,PM2.5,26,114,60
India,Haryana,Manesar,"Sector-2 IMT, Manesar - HSPCB",03-04-2024 07:00:00,28.360699,76.936090,PM2.5,32,94,56
India,Haryana,Manesar,"Sector-2 IMT, Manesar - HSPCB",03-04-2024 07:00:00,28.360699,76.936090,CO,2,26,22
India,Haryana,Narnaul,"Shastri Nagar, Narnaul - HSPCB",03-04-2024 07:00:00,28.060249,76.113115,PM2.5,32,93,53
India,Haryana,Panipat,"Sector-18, Panipat - HSPCB",03-04-2024 07:00:00,29.497973,76.993331,PM2.5,90,94,92
India,Haryana,Rohtak,"MD University, Rohtak - HSPCB",03-04-2024 07:00:00,28.52123,76.37138,NO2,46,56,50
India,Haryana,Sirsa,"F-Block, Sirsa - HSPCB",03-04-2024 07:00:00,29.536400,75.015800,SO2,76,81,78
India,Haryana,Sonipat,"Murthal, Sonipat - HSPCB",03-04-2024 07:00:00,29.027200,77.062100,SO2,12,29,20
India,Haryana,Yamuna Nagar,"Gobind Pura, Yamuna Nagar - HSPCB",03-04-2024 07:00:00,30.1480566,77.2893471,PM10,61,107,81
India,Haryana,Yamuna Nagar,"Gobind Pura, Yamuna Nagar - HSPCB",03-04-2024 07:00:00,30.1480566,77.2893471,NH3,1,6,4
India,Himachal Pradesh,Baddi,"HIMUDA Complex Phase-1, Baddi - HPPCB",03-04-2024 07:00:00,30.943887,76.801991,NH3,3,7,4
India,Himachal Pradesh,Baddi,"HIMUDA Complex Phase-1, Baddi - HPPCB",03-04-2024 07:00:00,30.943887,76.801991,CO,18,57,26
India,Jammu_and_Kashmir,Srinagar,"Rajbagh, Srinagar - JKSPCB",03-04-2024 07:00:00,34.066206,74.819820,PM10,NA,NA,NA
India,Jharkhand,Dhanbad,"Kalakusuma, Dhanbad - DMC",03-04-2024 07:00:00,23.811548,86.481238,PM10,59,75,62
India,Jharkhand,Dhanbad,"Sardar Patel Nagar, Dhanbad - JSPCB",03-04-2024 07:00:00,23.80569,86.44268,PM10,51,271,132
India,Jharkhand,Dhanbad,"Sardar Patel Nagar, Dhanbad - JSPCB",03-04-2024 07:00:00,23.80569,86.44268,OZONE,11,26,12
India,Karnataka,Bengaluru,"BTM Layout, Bengaluru - CPCB",03-04-2024 07:00:00,12.9135218,77.5950804,NH3,NA,NA,NA
India,Karnataka,Bengaluru,"BTM Layout, Bengaluru - CPCB",03-04-2024 07:00:00,12.9135218,77.5950804,CO,NA,NA,NA
India,Karnataka,Bengaluru,"BTM Layout, Bengaluru - CPCB",03-04-2024 07:00:00,12.9135218,77.5950804,OZONE,NA,NA,NA
India,Karnataka,Bengaluru,"Hombegowda Nagar, Bengaluru - KSPCB",03-04-2024 07:00:00,12.938539,77.590100,PM2.5,38,71,50
India,Karnataka,Bengaluru,"Hombegowda Nagar, Bengaluru - KSPCB",03-04-2024 07:00:00,12.938539,77.590100,NO2,8,38,18
India,Karnataka,Bengaluru,"Jayanagar 5th Block, Bengaluru - KSPCB",03-04-2024 07:00:00,12.920984,77.584908,PM10,63,139,97
India,Karnataka,Bengaluru,"Jigani, Bengaluru - KSPCB",03-04-2024 07:00:00,12.7816279,77.6299145,NO2,31,32,32
India,Karnataka,Bengaluru,"Kasturi Nagar, Bengaluru - KSPCB",03-04-2024 07:00:00,13.003872,77.664217,PM2.5,75,316,117
India,Karnataka,Bengaluru,"RVCE-Mailasandra, Bengaluru - KSPCB",03-04-2024 07:00:00,12.921418,77.502466,NO2,16,17,17
India,Karnataka,Bengaluru,"RVCE-Mailasandra, Bengaluru - KSPCB",03-04-2024 07:00:00,12.921418,77.502466,OZONE,10,10,10
India,Karnataka,Bengaluru,"Sanegurava Halli, Bengaluru - KSPCB",03-04-2024 07:00:00,12.990328,77.5431385,PM10,44,80,48
India,Karnataka,Bengaluru,"Shivapura_Peenya, Bengaluru - KSPCB",03-04-2024 07:00:00,13.0246342,77.5080115,NO2,15,16,15
India,Karnataka,Bidar,"Naubad, Bidar - KSPCB",03-04-2024 07:00:00,17.930306,77.482194,NO2,7,10,8
India,Karnataka,Chamarajanagar,"Urban, Chamarajanagar - KSPCB",03-04-2024 07:00:00,11.55358,76.55521,CO,19,30,20
India,Karnataka,Chikkaballapur,"Chikkaballapur Rural, Chikkaballapur - KSPCB",03-04-2024 07:00:00,13.428828,77.731418,PM2.5,32,85,56
India,Karnataka,Chikkaballapur,"Chikkaballapur Rural, Chikkaballapur - KSPCB",03-04-2024 07:00:00,13.428828,77.731418,OZONE,25,26,25
India,Karnataka,Chikkamagaluru,"Kalyana Nagara, Chikkamagaluru - KSPCB",03-04-2024 07:00:00,13.328028,75.797056,NH3,3,4,4
India,Karnataka,Davanagere,"Devaraj Urs Badavane, Davanagere - KSPCB",03-04-2024 07:00:00,14.475800,75.905200,NH3,NA,NA,NA
India,Karnataka,Haveri,"Ashwini Nagar, Haveri - KSPCB",03-04-2024 07:00:00,14.791800,75.389600,PM10,59,82,66
India,Karnataka,Haveri,"Ashwini Nagar, Haveri - KSPCB",03-04-2024 07:00:00,14.791800,75.389600,SO2,14,14,14
India,Karnataka,Hubballi,"Deshpande Nagar, Hubballi - KSPCB",03-04-2024 07:00:00,15.351773,75.140726,NH3,4,6,5
India,Karnataka,Hubballi,"Lingaraj Nagar, Hubballi - KSPCB",03-04-2024 07:00:00,15.3714823,75.1160168,PM2.5,43,58,52
India,Karnataka,Hubballi,"Lingaraj Nagar, Hubballi - KSPCB",03-04-2024 07:00:00,15.3714823,75.1160168,NO2,16,21,18
India,Karnataka,Hubballi,"Lingaraj Nagar, Hubballi - KSPCB",03-04-2024 07:00:00,15.3714823,75.1160168,NH3,1,3,2
India,Karnataka,Hubballi,"Lingaraj Nagar, Hubballi - KSPCB",03-04-2024 07:00:00,15.3714823,75.1160168,OZONE,15,50,19
India,Karnataka,Kalaburagi,"Lal Bahadur Shastri Nagar, Kalaburagi - KSPCB",03-04-2024 07:00:00,17.321993,76.822628,OZONE,19,101,36
India,Karnataka,Kalaburagi,"Mahatma Basaveswar Colony, Kalaburgi - KSPCB",03-04-2024 07:00:00,17.336318,76.847397,NH3,2,4,3
India,Karnataka,Kalaburagi,"Mahatma Basaveswar Colony, Kalaburgi - KSPCB",03-04-2024 07:00:00,17.336318,76.847397,SO2,2,57,11
India,Karnataka,Kalaburagi,"Mahatma Basaveswar Colony, Kalaburgi - KSPCB",03-04-2024 07:00:00,17.336318,76.847397,CO,36,79,52
India,Karnataka,Karwar,"KHB Colony, Karwar - KSPCB",03-04-2024 07:00:00,14.816666,74.141003,CO,6,8,8
India,Karnataka,Kolar,"Tamaka Ind. Area, Kolar - KSPCB",03-04-2024 07:00:00,13.1276288,78.1570122,OZONE,13,15,14
India,Karnataka,Koppal,"Diwator Nagar, Koppal - KSPCB",03-04-2024 07:00:00,15.347630,76.181767,CO,100,106,102
India,Karnataka,Madikeri,"Stuart Hill, Madikeri - KSPCB",03-04-2024 07:00:00,12.415911,75.735050,OZONE,22,38,29
India,Karnataka,Mangalore,"Kadri, Mangalore - KSPCB",03-04-2024 07:00:00,12.889250,74.853000,NO2,5,6,6
India,Karnataka,Mangalore,"Kadri, Mangalore - KSPCB",03-04-2024 07:00:00,12.889250,74.853000,SO2,18,105,27
India,Karnataka,Mangalore,"Kadri, Mangalore - KSPCB",03-04-2024 07:00:00,12.889250,74.853000,OZONE,30,33,31
India,Karnataka,Mysuru,"Hebbal 1st Stage, Mysuru - KSPCB",03-04-2024 07:00:00,12.21041,76.37376,NO2,5,38,23
India,Karnataka,Raichur,"Haji Colony, Raichur - KSPCB",03-04-2024 07:00:00,16.208139,77.348417,NO2,23,57,38
India,Karnataka,Raichur,"Haji Colony, Raichur - KSPCB",03-04-2024 07:00:00,16.208139,77.348417,NH3,1,3,2
India,Karnataka,Ramanagara,"Vijay Nagar, Ramanagara - KSPCB",03-04-2024 07:00:00,12.733409,77.298051,PM10,31,90,48
India,Karnataka,Ramanagara,"Vijay Nagar, Ramanagara - KSPCB",03-04-2024 07:00:00,12.733409,77.298051,CO,2,39,18
India,Karnataka,Tumakuru,"Thimmalapura, Tumakuru - KSPCB",03-04-2024 07:00:00,13.377516,77.099072,PM10,11,99,37
India,Karnataka,Tumakuru,"Thimmalapura, Tumakuru - KSPCB",03-04-2024 07:00:00,13.377516,77.099072,NH3,2,5,3
India,Karnataka,Tumakuru,"Thimmalapura, Tumakuru - KSPCB",03-04-2024 07:00:00,13.377516,77.099072,OZONE,13,67,28
India,Karnataka,Udupi,"Brahmagiri, Udupi - KSPCB",03-04-2024 07:00:00,13.34194444,74.74694444,NH3,1,1,1
India,Karnataka,Vijayapura,"Ibrahimpur, Vijayapura - KSPCB",03-04-2024 07:00:00,16.802639,75.722694,SO2,25,131,76
India,Karnataka,Yadgir,"Collector Office, Yadgir - KSPCB",03-04-2024 07:00:00,16.7602,77.1428,PM2.5,55,92,71
India,Karnataka,Yadgir,"Collector Office, Yadgir - KSPCB",03-04-2024 07:00:00,16.7602,77.1428,NO2,5,11,7
India,Kerala,Eloor,"Udyogamandal, Eloor - Kerala PCB",03-04-2024 07:00:00,10.073232,76.302765,NO2,4,4,4
India,Kerala,Kannur,"Thavakkara, Kannur - Kerala PCB",03-04-2024 07:00:00,11.875000,75.373200,NO2,NA,NA,NA
India,Kerala,Kannur,"Thavakkara, Kannur - Kerala PCB",03-04-2024 07:00:00,11.875000,75.373200,SO2,NA,NA,NA
India,Kerala,Kollam,"Polayathode, Kollam - Kerala PCB",03-04-2024 07:00:00,8.8787,76.6073,OZONE,NA,NA,NA
India,Kerala,Thiruvananthapuram,"Kariavattom, Thiruvananthapuram - Kerala PCB",03-04-2024 07:00:00,8.563700,76.886500,SO2,1,11,7
India,Kerala,Thrissur,"Corporation Ground, Thrissur - Kerala PCB",03-04-2024 07:00:00,10.532400,76.215900,OZONE,27,32,30
India,Madhya Pradesh,Bhopal,"Idgah Hills, Bhopal - MPPCB",03-04-2024 07:00:00,23.264759,77.381568,PM2.5,33,147,67
India,Madhya Pradesh,Bhopal,"Idgah Hills, Bhopal - MPPCB",03-04-2024 07:00:00,23.264759,77.381568,NO2,19,56,37
India,Madhya Pradesh,Bhopal,"Paryavaran Parisar, Bhopal - MPPCB",03-04-2024 07:00:00,23.210494,77.425409,PM10,107,161,134
India,Madhya Pradesh,Bhopal,"T T Nagar, Bhopal - MPPCB",03-04-2024 07:00:00,23.233584,77.400574,NH3,4,7,6
India,Madhya Pradesh,Dewas,"Bhopal Chauraha, Dewas - MPPCB",03-04-2024 07:00:00,22.9682591,76.064118,PM10,136,404,225
India,Madhya Pradesh,Gwalior,"Deen Dayal Nagar, Gwalior - MPPCB",03-04-2024 07:00:00,26.259242,78.216432,PM2.5,30,281,104
India,Madhya Pradesh,Gwalior,"Deen Dayal Nagar, Gwalior - MPPCB",03-04-2024 07:00:00,26.259242,78.216432,NH3,6,10,8
India,Madhya Pradesh,Gwalior,"Maharaj Bada, Gwalior - MPPCB",03-04-2024 07:00:00,26.200388,78.147714,NO2,12,123,46
India,Madhya Pradesh,Gwalior,"Maharaj Bada, Gwalior - MPPCB",03-04-2024 07:00:00,26.200388,78.147714,CO,35,128,73
India,Madhya Pradesh,Indore,"Maguda Nagar, Indore - IMC",03-04-2024 07:00:00,22.7524,75.8872,PM2.5,66,288,138
India,Madhya Pradesh,Indore,"Maguda Nagar, Indore - IMC",03-04-2024 07:00:00,22.7524,75.8872,OZONE,37,48,38
India,Madhya Pradesh,Indore,"Regional Park, Indore - IMC",03-04-2024 07:00:00,22.6780,75.8559,PM10,51,118,75
India,Madhya Pradesh,Indore,"Regional Park, Indore - IMC",03-04-2024 07:00:00,22.6780,75.8559,SO2,46,51,48
India,Madhya Pradesh,Indore,"Regional Park, Indore - IMC",03-04-2024 07:00:00,22.6780,75.8559,OZONE,11,23,15
India,Madhya Pradesh,Indore,"Residency Area, Indore - IMC",03-04-2024 07:00:00,22.7084,75.8815,PM2.5,63,273,118
India,Madhya Pradesh,Jabalpur,"Gupteshwar, Jabalpur - JMC",03-04-2024 07:00:00,23.142888,79.916147,PM2.5,NA,NA,NA
India,Madhya Pradesh,Jabalpur,"Gupteshwar, Jabalpur - JMC",03-04-2024 07:00:00,23.142888,79.916147,PM10,NA,NA,NA
India,Madhya Pradesh,Jabalpur,"Marhatal, Jabalpur - MPPCB",03-04-2024 07:00:00,23.168606,79.932247,SO2,6,14,11
India,Madhya Pradesh,Jabalpur,"Suhagi, Jabalpur - JMC",03-04-2024 07:00:00,23.218135,79.957770,PM2.5,92,369,245
India,Madhya Pradesh,Jabalpur,"Suhagi, Jabalpur - JMC",03-04-2024 07:00:00,23.218135,79.957770,PM10,77,244,143
India,Madhya Pradesh,Jabalpur,"Suhagi, Jabalpur - JMC",03-04-2024 07:00:00,23.218135,79.957770,CO,29,107,69
India,Madhya Pradesh,Jabalpur,"Suhagi, Jabalpur - JMC",03-04-2024 07:00:00,23.218135,79.957770,OZONE,1,169,12
India,Madhya Pradesh,Katni,"Gole Bazar, Katni - MPPCB",03-04-2024 07:00:00,23.50016,80.23284,NH3,1,8,5
India,Madhya Pradesh,Katni,"Gole Bazar, Katni - MPPCB",03-04-2024 07:00:00,23.50016,80.23284,CO,23,92,52
India,Madhya Pradesh,Katni,"Gole Bazar, Katni - MPPCB",03-04-2024 07:00:00,23.50016,80.23284,OZONE,28,118,41
India,Madhya Pradesh,Mandideep,"Sector-D Industrial Area, Mandideep - MPPCB",03-04-2024 07:00:00,23.108440,77.511428,NH3,4,6,5
India,Madhya Pradesh,Pithampur,"Sector-2 Industrial Area, Pithampur - MPPCB",03-04-2024 07:00:00,22.624758,75.675238,OZONE,25,75,43
India,Madhya Pradesh,Ratlam,"Shasthri Nagar, Ratlam - IPCA Lab",03-04-2024 07:00:00,23.331731,75.045981,PM2.5,33,167,77
India,Madhya Pradesh,Ratlam,"Shasthri Nagar, Ratlam - IPCA Lab",03-04-2024 07:00:00,23.331731,75.045981,PM10,141,316,185
India,Madhya Pradesh,Sagar,"Civil Lines, Sagar - MPPCB",03-04-2024 07:00:00,23.838586,78.759431,PM10,90,148,114
India,Madhya Pradesh,Sagar,"Civil Lines, Sagar - MPPCB",03-04-2024 07:00:00,23.838586,78.759431,NO2,9,57,20
India,Madhya Pradesh,Sagar,"Deen Dayal Nagar, Sagar - MPPCB",03-04-2024 07:00:00,23.8640158,78.80289321,PM10,29,88,57
India,Madhya Pradesh,Sagar,"Deen Dayal Nagar, Sagar - MPPCB",03-04-2024 07:00:00,23.8640158,78.80289321,SO2,9,24,13
India,Madhya Pradesh,Singrauli,"Suryakiran Bhawan NCL, Singrauli - MPPCB",03-04-2024 07:00:00,24.108970,82.645580,OZONE,9,74,16
India,Madhya Pradesh,Ujjain,"Mahakaleshwar Temple, Ujjain - MPPCB",03-04-2024 07:00:00,23.182719 ,75.768218 ,OZONE,114,147,131
India,Maharashtra,Ahmednagar,"Tarakpur, Ahmednagar - MPCB",03-04-2024 07:00:00,19.10122,74.73339,PM2.5,13,138,46
India,Maharashtra,Ahmednagar,"Tarakpur, Ahmednagar - MPCB",03-04-2024 07:00:00,19.10122,74.73339,SO2,13,23,17
India,Maharashtra,Ahmednagar,"Tarakpur, Ahmednagar - MPCB",03-04-2024 07:00:00,19.10122,74.73339,CO,16,104,22
India,Maharashtra,Akola,"Ramdaspeth, Akola - MPCB",03-04-2024 07:00:00,20.719516,77.000253,SO2,14,85,27
India,Maharashtra,Akola,"Ramdaspeth, Akola - MPCB",03-04-2024 07:00:00,20.719516,77.000253,OZONE,2,121,29
India,Maharashtra,Amravati,"Shivneri Colony, Amravati - MPCB",03-04-2024 07:00:00,20.9402359,77.7895248,PM2.5,60,133,86
India,Maharashtra,Amravati,"Shivneri Colony, Amravati - MPCB",03-04-2024 07:00:00,20.9402359,77.7895248,CO,12,72,29
India,Maharashtra,Aurangabad,"More Chowk Waluj, Aurangabad - MPCB",03-04-2024 07:00:00,19.8389439,75.244448,PM10,91,153,110
India,Maharashtra,Aurangabad,"More Chowk Waluj, Aurangabad - MPCB",03-04-2024 07:00:00,19.8389439,75.244448,NO2,40,48,44
India,Maharashtra,Aurangabad,"More Chowk Waluj, Aurangabad - MPCB",03-04-2024 07:00:00,19.8389439,75.244448,OZONE,17,119,52
India,Maharashtra,Aurangabad,"Rachnakar Colony, Aurangabad - MPCB",03-04-2024 07:00:00,19.863756,75.321188,SO2,38,95,69
India,Maharashtra,Badlapur,"Katrap, Badlapur - MPCB",03-04-2024 07:00:00,19.16485,73.23409,PM2.5,86,271,152
India,Maharashtra,Badlapur,"Katrap, Badlapur - MPCB",03-04-2024 07:00:00,19.16485,73.23409,NH3,1,4,2
India,Maharashtra,Belapur,"CBD Belapur, Belapur - MPCB",03-04-2024 07:00:00,19.0243902,73.0406721,NO2,14,36,23
India,Maharashtra,Belapur,"CBD Belapur, Belapur - MPCB",03-04-2024 07:00:00,19.0243902,73.0406721,OZONE,16,182,26
India,Maharashtra,Bhiwandi,"Gokul Nagar, Bhiwandi - MPCB",03-04-2024 07:00:00,19.309073,73.057223,PM2.5,40,260,100
India,Maharashtra,Bhiwandi,"Gokul Nagar, Bhiwandi - MPCB",03-04-2024 07:00:00,19.309073,73.057223,NO2,18,74,32
India,Maharashtra,Bhiwandi,"Gokul Nagar, Bhiwandi - MPCB",03-04-2024 07:00:00,19.309073,73.057223,OZONE,15,314,34
India,Maharashtra,Boisar,"Khaira, Boisar - MPCB",03-04-2024 07:00:00,19.786089,72.757971,PM2.5,NA,NA,NA
India,Maharashtra,Boisar,"Khaira, Boisar - MPCB",03-04-2024 07:00:00,19.786089,72.757971,PM10,NA,NA,NA
India,Maharashtra,Boisar,"Khaira, Boisar - MPCB",03-04-2024 07:00:00,19.786089,72.757971,SO2,NA,NA,NA
India,Maharashtra,Chandrapur,"Chauhan Colony, Chandrapur - MPCB",03-04-2024 07:00:00,19.962900,79.298714,NO2,22,92,38
India,Maharashtra,Chandrapur,"Chauhan Colony, Chandrapur - MPCB",03-04-2024 07:00:00,19.962900,79.298714,OZONE,8,9,9
India,Maharashtra,Chandrapur,"MIDC Khutala, Chandrapur - MPCB",03-04-2024 07:00:00,19.9775302,79.2337086,PM10,NA,NA,NA
India,Maharashtra,Dhule,"Deopur, Dhule - MPCB",03-04-2024 07:00:00,20.918946,74.776388,NO2,4,10,7
India,Maharashtra,Jalna,"Old MIDC, Jalna - MPCB",03-04-2024 07:00:00,19.854616,75.905894,PM10,67,135,104
India,Maharashtra,Jalna,"Old MIDC, Jalna - MPCB",03-04-2024 07:00:00,19.854616,75.905894,SO2,8,9,8
India,Maharashtra,Jalna,"Old MIDC, Jalna - MPCB",03-04-2024 07:00:00,19.854616,75.905894,OZONE,3,93,50
India,Maharashtra,Kalyan,"Khadakpada, Kalyan - MPCB",03-04-2024 07:00:00,19.25292,73.142019,SO2,28,38,32
India,Maharashtra,Kalyan,"Khadakpada, Kalyan - MPCB",03-04-2024 07:00:00,19.25292,73.142019,CO,18,24,22
India,Maharashtra,Kolhapur,"Sinchan Bhavan, Kolhapur - MPCB",03-04-2024 07:00:00,16.7143745,74.2426398,NO2,11,55,23
India,Maharashtra,Kolhapur,"Sinchan Bhavan, Kolhapur - MPCB",03-04-2024 07:00:00,16.7143745,74.2426398,CO,14,41,18
India,Maharashtra,Latur,"Sawe Wadi, Latur - MPCB",03-04-2024 07:00:00,18.39963,76.57452,CO,12,62,32
India,Maharashtra,Mahad,"Kamble Tarf Birwadi, Mahad - MPCB",03-04-2024 07:00:00,18.1023399,73.4783687,NO2,22,151,36
India,Maharashtra,Mahad,"Kamble Tarf Birwadi, Mahad - MPCB",03-04-2024 07:00:00,18.1023399,73.4783687,CO,10,37,17
India,Maharashtra,Mahad,"Kamble Tarf Birwadi, Mahad - MPCB",03-04-2024 07:00:00,18.1023399,73.4783687,OZONE,6,83,11
India,Maharashtra,Malegaon,"Mahesh Nagar, Malegaon - MPCB",03-04-2024 07:00:00,20.555712,74.529236,NH3,5,7,6
India,Maharashtra,Malegaon,"Mahesh Nagar, Malegaon - MPCB",03-04-2024 07:00:00,20.555712,74.529236,SO2,3,17,11
India,Maharashtra,Malegaon,"Mahesh Nagar, Malegaon - MPCB",03-04-2024 07:00:00,20.555712,74.529236,OZONE,21,79,37
India,Maharashtra,Mumbai,"Borivali East, Mumbai - IITM",03-04-2024 07:00:00,19.23241,72.86895,CO,8,77,21
India,Maharashtra,Mumbai,"Borivali East, Mumbai - MPCB",03-04-2024 07:00:00,19.2243333,72.8658113,PM10,60,181,120
India,Maharashtra,Mumbai,"Byculla, Mumbai - BMC",03-04-2024 07:00:00,18.9767,72.8380,PM2.5,34,72,52
India,Maharashtra,Mumbai,"Byculla, Mumbai - BMC",03-04-2024 07:00:00,18.9767,72.8380,SO2,2,33,6
India,Maharashtra,Mumbai,"Chakala-Andheri East, Mumbai - IITM",03-04-2024 07:00:00,19.11074,72.86084,NH3,6,19,10
India,Maharashtra,Mumbai,"Chembur, Mumbai - MPCB",03-04-2024 07:00:00,19.0364585,72.8954371,PM10,26,146,124
India,Maharashtra,Mumbai,"Chembur, Mumbai - MPCB",03-04-2024 07:00:00,19.0364585,72.8954371,SO2,1,37,5
India,Maharashtra,Mumbai,"Chembur, Mumbai - MPCB",03-04-2024 07:00:00,19.0364585,72.8954371,OZONE,4,119,26
India,Maharashtra,Mumbai,"Ghatkopar, Mumbai - BMC",03-04-2024 07:00:00,19.083694,72.920967,NO2,15,46,23
India,Maharashtra,Mumbai,"Ghatkopar, Mumbai - BMC",03-04-2024 07:00:00,19.083694,72.920967,CO,2,88,11
India,Maharashtra,Mumbai,"Khindipada-Bhandup West, Mumbai - IITM",03-04-2024 07:00:00,19.1653323,72.922099,NO2,8,16,14
India,Maharashtra,Mumbai,"Khindipada-Bhandup West, Mumbai - IITM",03-04-2024 07:00:00,19.1653323,72.922099,SO2,3,7,6
India,Maharashtra,Mumbai,"Khindipada-Bhandup West, Mumbai - IITM",03-04-2024 07:00:00,19.1653323,72.922099,CO,2,37,18
India,Maharashtra,Mumbai,"Mazgaon, Mumbai - IITM",03-04-2024 07:00:00,18.96702,72.84214,PM2.5,95,355,193
India,Maharashtra,Mumbai,"Mazgaon, Mumbai - IITM",03-04-2024 07:00:00,18.96702,72.84214,NO2,33,127,69
India,Maharashtra,Mumbai,"Mazgaon, Mumbai - IITM",03-04-2024 07:00:00,18.96702,72.84214,NH3,15,29,21
India,Maharashtra,Mumbai,"Mindspace-Malad West, Mumbai - MPCB",03-04-2024 07:00:00,19.1878657,72.8304069,SO2,4,8,6
India,Maharashtra,Mumbai,"Mulund West, Mumbai - MPCB",03-04-2024 07:00:00,19.1750,72.9419,NO2,20,26,22
India,Maharashtra,Mumbai,"Mulund West, Mumbai - MPCB",03-04-2024 07:00:00,19.1750,72.9419,NH3,10,11,11
India,Maharashtra,Mumbai,"Powai, Mumbai - MPCB",03-04-2024 07:00:00,19.137500,72.915056,OZONE,26,100,41
India,Maharashtra,Mumbai,"Sewri, Mumbai - BMC",03-04-2024 07:00:00,19.000084,72.856730,NH3,1,7,5
India,Maharashtra,Mumbai,"Shivaji Nagar, Mumbai - BMC",03-04-2024 07:00:00,19.060498,72.923356,NH3,4,8,6
India,Maharashtra,Mumbai,"Siddharth Nagar-Worli, Mumbai - IITM",03-04-2024 07:00:00,19.000083,72.813993,PM10,140,247,201
India,Maharashtra,Mumbai,"Siddharth Nagar-Worli, Mumbai - IITM",03-04-2024 07:00:00,19.000083,72.813993,NH3,5,6,5
India,Maharashtra,Mumbai,"Sion, Mumbai - MPCB",03-04-2024 07:00:00,19.047000,72.874600,PM2.5,65,182,119
India,Maharashtra,Mumbai,"Sion, Mumbai - MPCB",03-04-2024 07:00:00,19.047000,72.874600,NO2,12,45,26
India,Maharashtra,Mumbai,"Vasai West, Mumbai - MPCB",03-04-2024 07:00:00,19.383200,72.820400,NH3,NA,NA,NA
India,Maharashtra,Mumbai,"Vasai West, Mumbai - MPCB",03-04-2024 07:00:00,19.383200,72.820400,OZONE,NA,NA,NA
India,Maharashtra,Mumbai,"Vile Parle West, Mumbai - MPCB",03-04-2024 07:00:00,19.10861,72.83622,SO2,13,15,14
India,Maharashtra,Mumbai,"Worli, Mumbai - MPCB",03-04-2024 07:00:00,18.9936162,72.8128113,PM2.5,35,68,58
India,Maharashtra,Mumbai,"Worli, Mumbai - MPCB",03-04-2024 07:00:00,18.9936162,72.8128113,NO2,14,15,14
India,Maharashtra,Mumbai,"Worli, Mumbai - MPCB",03-04-2024 07:00:00,18.9936162,72.8128113,OZONE,6,10,8
India,Maharashtra,Nagpur,"Ambazari, Nagpur - MPCB",03-04-2024 07:00:00,21.121801,79.04952,PM2.5,64,140,88
India,Maharashtra,Nagpur,"Mahal, Nagpur - MPCB",03-04-2024 07:00:00,21.14472,79.107595,PM2.5,46,79,64
India,Maharashtra,Nagpur,"Mahal, Nagpur - MPCB",03-04-2024 07:00:00,21.14472,79.107595,NH3,5,15,9
India,Maharashtra,Nagpur,"Opp GPO Civil Lines, Nagpur - MPCB",03-04-2024 07:00:00,21.152875,79.0517531,PM10,84,147,108
India,Maharashtra,Nagpur,"Ram Nagar, Nagpur - MPCB",03-04-2024 07:00:00,21.143383,79.048912,NO2,6,63,22
India,Maharashtra,Nanded,"Sneh Nagar, Nanded - MPCB",03-04-2024 07:00:00,19.173852,77.296291,OZONE,3,126,27
India,Maharashtra,Nashik,"Gangapur Road, Nashik - MPCB",03-04-2024 07:00:00,20.0073285,73.7762427,PM10,93,127,110
India,Maharashtra,Nashik,"Gangapur Road, Nashik - MPCB",03-04-2024 07:00:00,20.0073285,73.7762427,NO2,13,24,18
India,Maharashtra,Nashik,"Gangapur Road, Nashik - MPCB",03-04-2024 07:00:00,20.0073285,73.7762427,OZONE,7,91,41
India,Maharashtra,Nashik,"Hirawadi, Nashik - MPCB",03-04-2024 07:00:00,20.021503,73.813844,NO2,3,62,19
India,Maharashtra,Nashik,"Hirawadi, Nashik - MPCB",03-04-2024 07:00:00,20.021503,73.813844,NH3,1,2,2
India,Maharashtra,Nashik,"MIDC Ambad, Nashik - MPCB",03-04-2024 07:00:00,19.950220,73.731480,PM2.5,63,97,76
India,Maharashtra,Nashik,"MIDC Ambad, Nashik - MPCB",03-04-2024 07:00:00,19.950220,73.731480,PM10,64,90,78
India,Maharashtra,Nashik,"MIDC Ambad, Nashik - MPCB",03-04-2024 07:00:00,19.950220,73.731480,NH3,2,3,2
India,Maharashtra,Navi Mumbai,"Kopripada-Vashi, Navi Mumbai - MPCB",03-04-2024 07:00:00,19.090337,73.014232,CO,21,51,37
India,Maharashtra,Navi Mumbai,"Mahape, Navi Mumbai - MPCB",03-04-2024 07:00:00,19.1135051,73.008978,PM10,128,456,197
India,Maharashtra,Navi Mumbai,"Mahape, Navi Mumbai - MPCB",03-04-2024 07:00:00,19.1135051,73.008978,NO2,37,38,38
India,Maharashtra,Navi Mumbai,"Mahape, Navi Mumbai - MPCB",03-04-2024 07:00:00,19.1135051,73.008978,OZONE,17,46,25
India,Maharashtra,Navi Mumbai,"Nerul, Navi Mumbai - MPCB",03-04-2024 07:00:00,19.008751,73.016620,NO2,15,25,20
India,Maharashtra,Navi Mumbai,"Sanpada, Navi Mumbai - MPCB",03-04-2024 07:00:00,19.0575752,73.0151367,PM10,118,189,148
India,Maharashtra,Navi Mumbai,"Sanpada, Navi Mumbai - MPCB",03-04-2024 07:00:00,19.0575752,73.0151367,SO2,2,16,5
India,Maharashtra,Parbhani,"Masoom Colony, Parbhani - MPCB",03-04-2024 07:00:00,19.265594,76.761463,NO2,15,43,26
India,Maharashtra,Parbhani,"Masoom Colony, Parbhani - MPCB",03-04-2024 07:00:00,19.265594,76.761463,NH3,13,15,14
India,Maharashtra,Pune,"Karve Road, Pune - MPCB",03-04-2024 07:00:00,18.5011743,73.8165527,OZONE,6,6,6
India,Maharashtra,Pune,"Katraj Dairy, Pune - MPCB",03-04-2024 07:00:00,18.454450,73.854155,PM10,64,116,88
India,Maharashtra,Pune,"Katraj Dairy, Pune - MPCB",03-04-2024 07:00:00,18.454450,73.854155,OZONE,20,83,39
India,Maharashtra,Pune,"Mhada Colony, Pune - IITM",03-04-2024 07:00:00,18.573040,73.927715,NO2,4,21,13
India,Maharashtra,Pune,"Revenue Colony-Shivajinagar, Pune - IITM",03-04-2024 07:00:00,18.530085,73.849598,NH3,9,19,13
India,Maharashtra,Pune,"Savitribai Phule Pune University, Pune - MPCB",03-04-2024 07:00:00,18.547056,73.826908,PM2.5,61,91,73
India,Maharashtra,Pune,"Transport Nagar-Nigdi, Pune - IITM",03-04-2024 07:00:00,18.664282,73.763966,PM10,44,104,75
India,Maharashtra,Sangli,"Vijay Nagar, Sangli - MPCB",03-04-2024 07:00:00, 16.5038,74.3623,PM10,77,131,106
India,Maharashtra,Sangli,"Vijay Nagar, Sangli - MPCB",03-04-2024 07:00:00, 16.5038,74.3623,OZONE,7,90,26
India,Maharashtra,Solapur,"Ratandeep Housing Society, Solapur - MPCB",03-04-2024 07:00:00,17.65439,75.90649,PM2.5,116,171,146
India,Maharashtra,Solapur,"Ratandeep Housing Society, Solapur - MPCB",03-04-2024 07:00:00,17.65439,75.90649,PM10,100,122,111
India,Maharashtra,Solapur,"Solapur, Solapur - MPCB",03-04-2024 07:00:00,17.6599188,75.9063906,NO2,53,55,54
India,Maharashtra,Thane,"Kasarvadavali, Thane - MPCB",03-04-2024 07:00:00,19.26777,72.97182,NO2,24,69,45
India,Maharashtra,Thane,"Pimpleshwar Mandir, Thane - MPCB",03-04-2024 07:00:00,19.192056,72.9585188,NO2,31,74,47
India,Maharashtra,Thane,"Upvan Fort, Thane - MPCB",03-04-2024 07:00:00,19.222279,72.957979,NO2,11,53,25
India,Maharashtra,Thane,"Upvan Fort, Thane - MPCB",03-04-2024 07:00:00,19.222279,72.957979,SO2,1,13,5
India,Maharashtra,Ulhasnagar,"Sidhi Vinayak Nagar, Ulhasnagar - MPCB",03-04-2024 07:00:00,19.235581,73.159121,NH3,2,4,2
India,Maharashtra,Ulhasnagar,"Sidhi Vinayak Nagar, Ulhasnagar - MPCB",03-04-2024 07:00:00,19.235581,73.159121,SO2,1,70,12
India,Manipur,Imphal,"Manipur University, Imphal - Manipur PCB",03-04-2024 07:00:00,24.7524239,93.9286218,OZONE,2,52,15
India,Nagaland,Kohima,"PWD Juction, Kohima - NPCB",03-04-2024 07:00:00,25.6635413,94.0989878,NH3,1,1,1
India,Nagaland,Kohima,"PWD Juction, Kohima - NPCB",03-04-2024 07:00:00,25.6635413,94.0989878,CO,8,20,11
India,Odisha,Barbil,"Forest Office, Barbil - OSPCB",03-04-2024 07:00:00,22.1166054,85.3945546,PM2.5,62,386,188
India,Odisha,Barbil,"Forest Office, Barbil - OSPCB",03-04-2024 07:00:00,22.1166054,85.3945546,PM10,108,444,218
India,Odisha,Barbil,"Forest Office, Barbil - OSPCB",03-04-2024 07:00:00,22.1166054,85.3945546,SO2,8,22,12
India,Odisha,Baripada,"Meher Colony, Baripada - OSPCB",03-04-2024 07:00:00,21.941841,86.728318,CO,24,52,29
India,Odisha,Bhubaneswar,"Lingraj Mandir, Bhubaneswar - OSPCB",03-04-2024 07:00:00,20.240790,85.836784,NH3,2,3,2
India,Odisha,Bhubaneswar,"Patia, Bhubaneswar - OSPCB",03-04-2024 07:00:00,20.34652,85.81630,OZONE,7,132,18
India,Odisha,Bileipada,"Tata Township, Bileipada - OSPCB",03-04-2024 07:00:00,22.06156703,85.47409613,NH3,11,11,11
India,Odisha,Brajrajnagar,"GM Office, Brajrajnagar - OSPCB",03-04-2024 07:00:00,21.8004996,83.8396977,NO2,NA,NA,NA
India,Odisha,Brajrajnagar,"GM Office, Brajrajnagar - OSPCB",03-04-2024 07:00:00,21.8004996,83.8396977,CO,NA,NA,NA
India,Odisha,Byasanagar,"Ferro Chrome Colony, Byasanagar - OSPCB",03-04-2024 07:00:00,20.94185,86.11510,PM10,79,181,121
India,Odisha,Byasanagar,"Ferro Chrome Colony, Byasanagar - OSPCB",03-04-2024 07:00:00,20.94185,86.11510,SO2,4,59,24
India,Odisha,Keonjhar,"Jagamohanpur, Keonjhar - OSPCB",03-04-2024 07:00:00,21.643900,85.599355,SO2,1,13,4
India,Odisha,Nayagarh,"Dabuna, Nayagarh - OSPCB",03-04-2024 07:00:00,21.847279,85.416905,PM2.5,NA,NA,NA
India,Odisha,Nayagarh,"Dabuna, Nayagarh - OSPCB",03-04-2024 07:00:00,21.847279,85.416905,NO2,NA,NA,NA
India,Odisha,Nayagarh,"Dabuna, Nayagarh - OSPCB",03-04-2024 07:00:00,21.847279,85.416905,SO2,NA,NA,NA
India,Odisha,Rairangpur,"Divisional Forest Office, Rairangpur - OSPCB",03-04-2024 07:00:00,22.265816,86.174829,SO2,3,11,6
India,Odisha,Rairangpur,"Divisional Forest Office, Rairangpur - OSPCB",03-04-2024 07:00:00,22.265816,86.174829,CO,20,96,40
India,Odisha,Rourkela,"Raghunathpali, Rourkela - OSPCB",03-04-2024 07:00:00,22.220833,84.809444,PM10,82,253,165
India,Odisha,Rourkela,"Sector-2, Rourkela - OSPCB",03-04-2024 07:00:00,22.24500000,84.88111111,PM2.5,71,324,177
India,Odisha,Rourkela,"Sector-2, Rourkela - OSPCB",03-04-2024 07:00:00,22.24500000,84.88111111,CO,12,105,48
India,Odisha,Suakati,"OMC Colony, Suakati - OSPCB",03-04-2024 07:00:00,21.606865,85.510538,NO2,9,13,10
India,Odisha,Tensa,"Barsua Iron Ore Mines, Tensa - OSPCB",03-04-2024 07:00:00,21.869985,85.167016,PM2.5,20,239,133
India,Puducherry,Puducherry,"Jawahar Nagar, Puducherry - PPCC",03-04-2024 07:00:00,11.9309,79.8027,PM2.5,5,53,18
India,Puducherry,Puducherry,"Jawahar Nagar, Puducherry - PPCC",03-04-2024 07:00:00,11.9309,79.8027,NH3,2,6,4
India,Puducherry,Puducherry,"Jawahar Nagar, Puducherry - PPCC",03-04-2024 07:00:00,11.9309,79.8027,SO2,4,10,7
India,Puducherry,Puducherry,"Jawahar Nagar, Puducherry - PPCC",03-04-2024 07:00:00,11.9309,79.8027,CO,16,43,27
India,Punjab,Amritsar,"Golden Temple, Amritsar - PPCB",03-04-2024 07:00:00,31.620000,74.876512,PM2.5,26,134,41
India,Punjab,Amritsar,"Golden Temple, Amritsar - PPCB",03-04-2024 07:00:00,31.620000,74.876512,SO2,12,29,19
India,Punjab,Amritsar,"Golden Temple, Amritsar - PPCB",03-04-2024 07:00:00,31.620000,74.876512,CO,14,65,40
India,Punjab,Bathinda,"Hardev Nagar, Bathinda - PPCB",03-04-2024 07:00:00,30.233011,74.907758,PM10,34,162,82
India,Punjab,Bathinda,"Hardev Nagar, Bathinda - PPCB",03-04-2024 07:00:00,30.233011,74.907758,SO2,4,39,18
India,Punjab,Jalandhar,"Civil Line, Jalandhar - PPCB",03-04-2024 07:00:00,31.321907,75.578914,NO2,34,38,36
India,Punjab,Jalandhar,"Civil Line, Jalandhar - PPCB",03-04-2024 07:00:00,31.321907,75.578914,OZONE,16,92,29
India,Punjab,Khanna,"Kalal Majra, Khanna - PPCB",03-04-2024 07:00:00,30.736056 ,76.209694,NO2,26,30,29
India,Punjab,Ludhiana,"Punjab Agricultural University, Ludhiana - PPCB",03-04-2024 07:00:00,30.9028,75.8086,PM10,49,137,92
India,Punjab,Patiala,"Model Town, Patiala - PPCB",03-04-2024 07:00:00,30.349388,76.366642,NO2,24,29,27
India,Rajasthan,Ajmer,"Civil Lines,  Ajmer - RSPCB",03-04-2024 07:00:00,26.470859,74.646594,OZONE,15,99,34
India,Rajasthan,Alwar,"Moti Doongri, Alwar - RSPCB",03-04-2024 07:00:00,27.554793,76.611536,PM2.5,21,76,54
India,Rajasthan,Alwar,"Moti Doongri, Alwar - RSPCB",03-04-2024 07:00:00,27.554793,76.611536,SO2,10,88,36
India,Rajasthan,Baran,"Bamboliya, Baran - RSPCB",03-04-2024 07:00:00,25.106006,76.469948,NO2,8,112,39
India,Rajasthan,Baran,"Bamboliya, Baran - RSPCB",03-04-2024 07:00:00,25.106006,76.469948,OZONE,1,130,26
India,Rajasthan,Bhilwara,"Pratap Nagar, Bhilwara - RSPCB",03-04-2024 07:00:00,25.339605,74.618883,NH3,3,4,3
India,Rajasthan,Bhilwara,"Pratap Nagar, Bhilwara - RSPCB",03-04-2024 07:00:00,25.339605,74.618883,OZONE,14,94,26
India,Rajasthan,Bhiwadi,"RIICO Ind. Area III, Bhiwadi - RSPCB",03-04-2024 07:00:00,28.194909,76.862296,PM2.5,57,197,121
India,Rajasthan,Bhiwadi,"RIICO Ind. Area III, Bhiwadi - RSPCB",03-04-2024 07:00:00,28.194909,76.862296,PM10,101,181,144
India,Rajasthan,Bhiwadi,"RIICO Ind. Area III, Bhiwadi - RSPCB",03-04-2024 07:00:00,28.194909,76.862296,NO2,2,6,4
India,Rajasthan,Bhiwadi,"RIICO Ind. Area III, Bhiwadi - RSPCB",03-04-2024 07:00:00,28.194909,76.862296,CO,10,151,107
India,Rajasthan,Bhiwadi,"Vasundhara Nagar_UIT, Bhiwadi - RSPCB",03-04-2024 07:00:00,28.207266,76.829265,PM2.5,8,122,48
India,Rajasthan,Bhiwadi,"Vasundhara Nagar_UIT, Bhiwadi - RSPCB",03-04-2024 07:00:00,28.207266,76.829265,NO2,22,70,42
India,Rajasthan,Bhiwadi,"Vasundhara Nagar_UIT, Bhiwadi - RSPCB",03-04-2024 07:00:00,28.207266,76.829265,NH3,8,19,14
India,Rajasthan,Bundi,"New Colony, Bundi - RSPCB",03-04-2024 07:00:00,25.435774,75.644272,NH3,2,3,3
India,Rajasthan,Chittorgarh,"Shastri Nagar, Chittorgarh - RSPCB",03-04-2024 07:00:00,24.892047,74.623527,PM2.5,NA,NA,NA
India,Rajasthan,Chittorgarh,"Shastri Nagar, Chittorgarh - RSPCB",03-04-2024 07:00:00,24.892047,74.623527,OZONE,NA,NA,NA
India,Rajasthan,Dausa,"Khatikan Mohalla, Dausa - RSPCB",03-04-2024 07:00:00,26.895552,76.334753,PM10,101,377,158
India,Rajasthan,Dausa,"Khatikan Mohalla, Dausa - RSPCB",03-04-2024 07:00:00,26.895552,76.334753,NO2,16,113,43
India,Rajasthan,Dausa,"Khatikan Mohalla, Dausa - RSPCB",03-04-2024 07:00:00,26.895552,76.334753,OZONE,7,161,102
India,Rajasthan,Dholpur,"Raja Ganj, Dholpur - RSPCB",03-04-2024 07:00:00,26.699557,77.898881,SO2,4,6,5
India,Rajasthan,Dungarpur,"Bhoiwada, Dungarpur - RSPCB",03-04-2024 07:00:00,23.837789,73.714926,NO2,8,29,15
India,Rajasthan,Hanumangarh,"Housing Board, Hanumangarh - RSPCB",03-04-2024 07:00:00,29.610750,74.283608,PM10,98,297,144
India,Rajasthan,Hanumangarh,"Housing Board, Hanumangarh - RSPCB",03-04-2024 07:00:00,29.610750,74.283608,NO2,12,43,25
India,Rajasthan,Hanumangarh,"Housing Board, Hanumangarh - RSPCB",03-04-2024 07:00:00,29.610750,74.283608,OZONE,24,70,28
India,Rajasthan,Jaipur,"Adarsh Nagar, Jaipur - RSPCB",03-04-2024 07:00:00,26.902909,75.836858,PM10,66,138,100
India,Rajasthan,Jaipur,"Adarsh Nagar, Jaipur - RSPCB",03-04-2024 07:00:00,26.902909,75.836858,SO2,7,36,20
India,Rajasthan,Jaipur,"Mansarovar Sector-12, Jaipur - RSPCB",03-04-2024 07:00:00,26.843698,75.766894,PM10,96,261,138
India,Rajasthan,Jaipur,"RIICO Sitapura, Jaipur - RSPCB",03-04-2024 07:00:00,26.786682,75.827928,PM10,92,226,154
India,Rajasthan,Jaipur,"Sector-2 Murlipura, Jaipur - RSPCB",03-04-2024 07:00:00,26.960669,75.771817,NO2,16,78,42
India,Rajasthan,Jaipur,"Sector-2 Murlipura, Jaipur - RSPCB",03-04-2024 07:00:00,26.960669,75.771817,OZONE,10,68,43
India,Rajasthan,Jaipur,"Shastri Nagar, Jaipur - RSPCB",03-04-2024 07:00:00,26.9502929,75.730943,NH3,1,16,6
India,Rajasthan,Jaipur,"Shastri Nagar, Jaipur - RSPCB",03-04-2024 07:00:00,26.9502929,75.730943,OZONE,34,104,58
India,Rajasthan,Jalore,"Mudtra Sili, Jalore - RSPCB",03-04-2024 07:00:00,25.344694,72.626208,CO,8,33,10
India,Rajasthan,Jhalawar,"Rajlaxmi Nagar, Jhalawar - RSPCB",03-04-2024 07:00:00,24.588397,76.172782,PM2.5,36,138,63
India,Rajasthan,Jhunjhunu,"Indra Nagar, Jhunjhunu - RSPCB",03-04-2024 07:00:00,28.108988,75.386577,CO,12,38,24
India,Rajasthan,Jodhpur,"Digari Kalan, Jodhpur - RSPCB",03-04-2024 07:00:00,26.295810,73.082283,PM2.5,22,101,58
India,Rajasthan,Jodhpur,"Digari Kalan, Jodhpur - RSPCB",03-04-2024 07:00:00,26.295810,73.082283,NH3,2,6,3
India,Rajasthan,Jodhpur,"Mandor, Jodhpur - RSPCB",03-04-2024 07:00:00,26.358805,73.047444,NH3,4,11,7
India,Rajasthan,Jodhpur,"Mandor, Jodhpur - RSPCB",03-04-2024 07:00:00,26.358805,73.047444,SO2,2,8,5
India,Rajasthan,Karauli,"Satyawati Vihar, Karauli - RSPCB",03-04-2024 07:00:00,26.506177,77.025989,NH3,4,8,6
India,Rajasthan,Kota,"Dhanmandi, Kota - RSPCB",03-04-2024 07:00:00,25.164090,75.858137,NH3,3,5,4
India,Rajasthan,Kota,"Nayapura, Kota - RSPCB",03-04-2024 07:00:00,25.196024,75.855668,CO,17,108,60
India,Rajasthan,Kota,"Shrinath Puram, Kota - RSPCB",03-04-2024 07:00:00,25.14389,75.821256,NH3,1,4,3
India,Rajasthan,Nagaur,"Karni Colony, Nagaur - RSPCB",03-04-2024 07:00:00,27.213494,73.734444,PM10,105,295,148
India,Rajasthan,Nagaur,"Karni Colony, Nagaur - RSPCB",03-04-2024 07:00:00,27.213494,73.734444,NH3,8,14,11
India,Rajasthan,Nagaur,"Karni Colony, Nagaur - RSPCB",03-04-2024 07:00:00,27.213494,73.734444,OZONE,36,63,46
India,Rajasthan,Pali,"Indira Colony Vistar, Pali - RSPCB",03-04-2024 07:00:00,25.771061, 73.340227,PM2.5,75,230,146
India,Rajasthan,Pali,"Indira Colony Vistar, Pali - RSPCB",03-04-2024 07:00:00,25.771061, 73.340227,SO2,8,11,9
India,Rajasthan,Pratapgarh,"Pragati Nagar, Pratapgarh - RSPCB",03-04-2024 07:00:00,24.041198,74.780702,CO,13,38,19
India,Rajasthan,Pratapgarh,"Pragati Nagar, Pratapgarh - RSPCB",03-04-2024 07:00:00,24.041198,74.780702,OZONE,38,103,53
India,Rajasthan,Rajsamand,"Dhoinda, Rajsamand - RSPCB",03-04-2024 07:00:00,25.036360,73.883502,PM2.5,38,319,90
India,Rajasthan,Rajsamand,"Dhoinda, Rajsamand - RSPCB",03-04-2024 07:00:00,25.036360,73.883502,PM10,54,173,83
India,Rajasthan,Sawai Madhopur,"Sahu Nagar, Sawai Madhopur - RSPCB",03-04-2024 07:00:00,26.031443,76.359327,SO2,2,31,5
India,Rajasthan,Sawai Madhopur,"Sahu Nagar, Sawai Madhopur - RSPCB",03-04-2024 07:00:00,26.031443,76.359327,CO,6,103,48
India,Rajasthan,Sikar,"Radhakishan Pura, Sikar - RSPCB",03-04-2024 07:00:00,27.608912,75.153302,PM2.5,22,206,64
India,Rajasthan,Sikar,"Radhakishan Pura, Sikar - RSPCB",03-04-2024 07:00:00,27.608912,75.153302,PM10,63,329,139
India,Rajasthan,Sikar,"Radhakishan Pura, Sikar - RSPCB",03-04-2024 07:00:00,27.608912,75.153302,CO,20,90,27
India,Rajasthan,Sirohi,"Vedhaynath Colony, Sirohi - RSPCB",03-04-2024 07:00:00,24.885261,72.857549,NH3,2,5,3
India,Rajasthan,Sirohi,"Vedhaynath Colony, Sirohi - RSPCB",03-04-2024 07:00:00,24.885261,72.857549,CO,2,24,14
India,Rajasthan,Sri Ganganagar,"Old City, Sri Ganganagar - RSPCB",03-04-2024 07:00:00,29.931624,73.864511,PM10,125,500,275
India,Rajasthan,Sri Ganganagar,"Old City, Sri Ganganagar - RSPCB",03-04-2024 07:00:00,29.931624,73.864511,SO2,2,10,6
India,Rajasthan,Udaipur,"Ashok Nagar, Udaipur - RSPCB",03-04-2024 07:00:00,24.5886166,73.6321397,PM10,82,171,125
India,Rajasthan,Udaipur,"Ashok Nagar, Udaipur - RSPCB",03-04-2024 07:00:00,24.5886166,73.6321397,NH3,6,7,7
India,Sikkim,Gangtok,"Zero Point GICI, Gangtok - SSPCB",03-04-2024 07:00:00,27.338530,88.614099,PM2.5,26,43,34
India,Sikkim,Gangtok,"Zero Point GICI, Gangtok - SSPCB",03-04-2024 07:00:00,27.338530,88.614099,NO2,1,8,3
India,Sikkim,Gangtok,"Zero Point GICI, Gangtok - SSPCB",03-04-2024 07:00:00,27.338530,88.614099,SO2,10,11,11
India,TamilNadu,Ariyalur,"Keelapalur, Ariyalur - TNPCB",03-04-2024 07:00:00,11.06825,79.07033,SO2,37,39,38
India,TamilNadu,Chengalpattu,"Crescent University, Chengalpattu - TNPCB",03-04-2024 07:00:00,12.8777316,80.0834807,NO2,NA,NA,NA
India,TamilNadu,Chengalpattu,"Crescent University, Chengalpattu - TNPCB",03-04-2024 07:00:00,12.8777316,80.0834807,OZONE,NA,NA,NA
India,TamilNadu,Chennai,"Alandur Bus Depot, Chennai - CPCB",03-04-2024 07:00:00,12.9099161,80.1076538,PM2.5,33,62,42
India,TamilNadu,Chennai,"Alandur Bus Depot, Chennai - CPCB",03-04-2024 07:00:00,12.9099161,80.1076538,NO2,4,12,7
India,TamilNadu,Chennai,"Alandur Bus Depot, Chennai - CPCB",03-04-2024 07:00:00,12.9099161,80.1076538,NH3,2,48,8
India,TamilNadu,Chennai,"Alandur Bus Depot, Chennai - CPCB",03-04-2024 07:00:00,12.9099161,80.1076538,CO,60,111,101
India,TamilNadu,Chennai,"Arumbakkam, Chennai - TNPCB",03-04-2024 07:00:00,13.0664,80.2112 ,PM10,22,78,46
India,TamilNadu,Chennai,"Arumbakkam, Chennai - TNPCB",03-04-2024 07:00:00,13.0664,80.2112 ,NH3,2,11,6
India,TamilNadu,Chennai,"Kodungaiyur, Chennai - TNPCB",03-04-2024 07:00:00,13.1278,80.2642,PM2.5,9,37,20
India,TamilNadu,Chennai,"Kodungaiyur, Chennai - TNPCB",03-04-2024 07:00:00,13.1278,80.2642,PM10,17,79,45
India,TamilNadu,Chennai,"Kodungaiyur, Chennai - TNPCB",03-04-2024 07:00:00,13.1278,80.2642,NO2,7,17,11
India,TamilNadu,Chennai,"Kodungaiyur, Chennai - TNPCB",03-04-2024 07:00:00,13.1278,80.2642,OZONE,5,6,6
India,TamilNadu,Chennai,"Perungudi, Chennai - TNPCB",03-04-2024 07:00:00,12.9533,80.2357,NO2,2,9,4
India,TamilNadu,Chennai,"Perungudi, Chennai - TNPCB",03-04-2024 07:00:00,12.9533,80.2357,SO2,2,7,4
India,TamilNadu,Chennai,"Royapuram, Chennai - TNPCB",03-04-2024 07:00:00,13.1036,80.2909,SO2,NA,NA,NA
India,TamilNadu,Chennai,"Velachery Res. Area, Chennai - CPCB",03-04-2024 07:00:00,13.0052189,80.2398125,PM2.5,23,86,42
India,TamilNadu,Coimbatore,"PSG College of Arts and Science, Coimbatore - TNPCB",03-04-2024 07:00:00,11.0328,77.0349,NH3,NA,NA,NA
India,TamilNadu,Cuddalore,"Semmandalam, Cuddalore - TNPCB",03-04-2024 07:00:00,11.7637683,79.7499835,OZONE,1,2,2
India,TamilNadu,Gummidipoondi,"Anthoni Pillai Nagar, Gummidipoondi - TNPCB",03-04-2024 07:00:00,13.4127,80.1081,PM10,47,145,87
India,TamilNadu,Palkalaiperur,"Bharathidasan University, Palkalaiperur - TNPCB",03-04-2024 07:00:00,10.681158,78.741746,SO2,NA,NA,NA
India,TamilNadu,Salem,"Sona College of Technology, Salem - TNPCB",03-04-2024 07:00:00,11.679111,78.125052,PM2.5,NA,NA,NA
India,TamilNadu,Salem,"Sona College of Technology, Salem - TNPCB",03-04-2024 07:00:00,11.679111,78.125052,NO2,6,16,8
India,TamilNadu,Salem,"Sona College of Technology, Salem - TNPCB",03-04-2024 07:00:00,11.679111,78.125052,NH3,1,1,1
India,TamilNadu,Vellore,"Vasanthapuram, Vellore - TNPCB",03-04-2024 07:00:00,12.909494,79.131861,NO2,NA,NA,NA
India,TamilNadu,Vellore,"Vasanthapuram, Vellore - TNPCB",03-04-2024 07:00:00,12.909494,79.131861,OZONE,NA,NA,NA
India,TamilNadu,Virudhunagar,"Collectorate Office, Virudhunagar - TNPCB",03-04-2024 07:00:00,9.559382,77.948828,PM10,32,76,52
India,Telangana,Hyderabad,"Bollaram Industrial Area, Hyderabad - TSPCB",03-04-2024 07:00:00,17.540891,78.358528,PM10,64,143,106
India,Telangana,Hyderabad,"Bollaram Industrial Area, Hyderabad - TSPCB",03-04-2024 07:00:00,17.540891,78.358528,CO,2,120,56
India,Telangana,Hyderabad,"Central University, Hyderabad - TSPCB",03-04-2024 07:00:00,17.460103,78.334361,CO,14,44,30
India,Telangana,Hyderabad,"ECIL Kapra, Hyderabad - TSPCB",03-04-2024 07:00:00,17.470431,78.566959,PM2.5,NA,NA,NA
India,Telangana,Hyderabad,"ECIL Kapra, Hyderabad - TSPCB",03-04-2024 07:00:00,17.470431,78.566959,NH3,7,10,7
India,Telangana,Hyderabad,"ICRISAT Patancheru, Hyderabad - TSPCB",03-04-2024 07:00:00,17.518400,78.278777,NH3,2,2,2
India,Telangana,Hyderabad,"IITH Kandi, Hyderabad - TSPCB",03-04-2024 07:00:00,17.585705,78.126199,SO2,8,11,9
India,Telangana,Hyderabad,"Kokapet, Hyderabad - TSPCB",03-04-2024 07:00:00,17.393559,78.339194,OZONE,3,11,8
India,Telangana,Hyderabad,"Kompally Municipal Office, Hyderabad - TSPCB",03-04-2024 07:00:00,17.544899,78.486949,NH3,NA,NA,NA
India,Telangana,Hyderabad,"Kompally Municipal Office, Hyderabad - TSPCB",03-04-2024 07:00:00,17.544899,78.486949,CO,NA,NA,NA
India,Telangana,Hyderabad,"Kompally Municipal Office, Hyderabad - TSPCB",03-04-2024 07:00:00,17.544899,78.486949,OZONE,NA,NA,NA
India,Telangana,Hyderabad,"Nacharam_TSIIC IALA, Hyderabad - TSPCB",03-04-2024 07:00:00,17.429398,78.569354,OZONE,15,79,42
India,Telangana,Hyderabad,"New Malakpet, Hyderabad - TSPCB",03-04-2024 07:00:00,17.37206,78.50864,PM2.5,33,62,49
India,Telangana,Hyderabad,"New Malakpet, Hyderabad - TSPCB",03-04-2024 07:00:00,17.37206,78.50864,SO2,1,7,3
India,Telangana,Hyderabad,"Ramachandrapuram, Hyderabad - TSPCB",03-04-2024 07:00:00,17.528544,78.286195,OZONE,3,52,14
India,Telangana,Hyderabad,"Zoo Park, Hyderabad - TSPCB",03-04-2024 07:00:00,17.349694,78.451437,PM2.5,45,125,74
India,Telangana,Hyderabad,"Zoo Park, Hyderabad - TSPCB",03-04-2024 07:00:00,17.349694,78.451437,NH3,1,2,1
India,Telangana,Hyderabad,"Zoo Park, Hyderabad - TSPCB",03-04-2024 07:00:00,17.349694,78.451437,OZONE,17,60,19
India,Tripura,Agartala,"Bardowali, Agartala - Tripura SPCB",03-04-2024 07:00:00,23.8175497,91.2726974,NH3,2,3,3
India,Tripura,Agartala,"Bardowali, Agartala - Tripura SPCB",03-04-2024 07:00:00,23.8175497,91.2726974,CO,13,22,14
India,Uttar_Pradesh,Agra,"Manoharpur, Agra - UPPCB",03-04-2024 07:00:00,27.23711,78.01936,NO2,23,26,26
India,Uttar_Pradesh,Agra,"Rohta, Agra - UPPCB",03-04-2024 07:00:00,27.106972,78.000111,OZONE,16,18,18
India,Uttar_Pradesh,Agra,"Sanjay Palace, Agra - UPPCB",03-04-2024 07:00:00,27.19865833,78.00598056,PM2.5,7,48,22
India,Uttar_Pradesh,Agra,"Sanjay Palace, Agra - UPPCB",03-04-2024 07:00:00,27.19865833,78.00598056,NO2,23,48,35
India,Uttar_Pradesh,Agra,"Sector-3B Avas Vikas Colony, Agra - UPPCB",03-04-2024 07:00:00,27.19412,77.96237,PM2.5,11,57,27
India,Uttar_Pradesh,Agra,"Sector-3B Avas Vikas Colony, Agra - UPPCB",03-04-2024 07:00:00,27.19412,77.96237,CO,7,17,13
India,Uttar_Pradesh,Agra,"Shahjahan Garden, Agra - UPPCB",03-04-2024 07:00:00,27.169338,78.03582,NO2,16,17,16
India,Uttar_Pradesh,Agra,"Shahjahan Garden, Agra - UPPCB",03-04-2024 07:00:00,27.169338,78.03582,NH3,6,9,7
India,Uttar_Pradesh,Agra,"Shastripuram, Agra - UPPCB",03-04-2024 07:00:00,27.19862,77.92066,PM10,19,157,102
India,Uttar_Pradesh,Baghpat,"Sardar Patel Inter College, Baghpat - UPPCB",03-04-2024 07:00:00,28.964949,77.278761,SO2,22,111,48
India,Uttar_Pradesh,Baghpat,"Sardar Patel Inter College, Baghpat - UPPCB",03-04-2024 07:00:00,28.964949,77.278761,OZONE,3,56,10
India,Uttar_Pradesh,Bareilly,"Rajendra Nagar, Bareilly - UPPCB",03-04-2024 07:00:00,28.38910936,79.42963708,SO2,43,44,43
India,Uttar_Pradesh,Bulandshahr,"Yamunapuram, Bulandshahr - UPPCB",03-04-2024 07:00:00,28.406963,77.849831,PM2.5,21,197,75
India,Uttar_Pradesh,Bulandshahr,"Yamunapuram, Bulandshahr - UPPCB",03-04-2024 07:00:00,28.406963,77.849831,CO,20,60,49
India,Uttar_Pradesh,Bulandshahr,"Yamunapuram, Bulandshahr - UPPCB",03-04-2024 07:00:00,28.406963,77.849831,OZONE,9,151,24
India,Uttar_Pradesh,Firozabad,"Nagla Bhau, Firozabad - UPPCB",03-04-2024 07:00:00,27.168897,78.376960,NH3,2,2,2
India,Uttar_Pradesh,Firozabad,"Nagla Bhau, Firozabad - UPPCB",03-04-2024 07:00:00,27.168897,78.376960,CO,15,40,34
India,Uttar_Pradesh,Ghaziabad,"Indirapuram, Ghaziabad - UPPCB",03-04-2024 07:00:00,28.646233,77.358075,SO2,1,118,19
India,Uttar_Pradesh,Ghaziabad,"Loni, Ghaziabad - UPPCB",03-04-2024 07:00:00,28.757294,77.278792,NO2,14,93,43
India,Uttar_Pradesh,Ghaziabad,"Loni, Ghaziabad - UPPCB",03-04-2024 07:00:00,28.757294,77.278792,NH3,1,8,4
India,Uttar_Pradesh,Ghaziabad,"Loni, Ghaziabad - UPPCB",03-04-2024 07:00:00,28.757294,77.278792,CO,4,93,77
India,Uttar_Pradesh,Ghaziabad,"Vasundhara, Ghaziabad - UPPCB",03-04-2024 07:00:00,28.6603346,77.3572563,PM2.5,17,148,71
India,Uttar_Pradesh,Ghaziabad,"Vasundhara, Ghaziabad - UPPCB",03-04-2024 07:00:00,28.6603346,77.3572563,NH3,4,13,8
India,Uttar_Pradesh,Gorakhpur,"Madan Mohan Malaviya University of Technology, Gorakhpur - UPPCB",03-04-2024 07:00:00,26.730136,83.433859,PM2.5,41,169,80
India,Uttar_Pradesh,Gorakhpur,"Madan Mohan Malaviya University of Technology, Gorakhpur - UPPCB",03-04-2024 07:00:00,26.730136,83.433859,CO,8,22,16
India,Uttar_Pradesh,Greater Noida,"Knowledge Park - V, Greater Noida - UPPCB",03-04-2024 07:00:00,28.557054,77.453663,PM10,138,342,191
India,Uttar_Pradesh,Greater Noida,"Knowledge Park - V, Greater Noida - UPPCB",03-04-2024 07:00:00,28.557054,77.453663,NO2,39,61,51
India,Uttar_Pradesh,Greater Noida,"Knowledge Park - V, Greater Noida - UPPCB",03-04-2024 07:00:00,28.557054,77.453663,SO2,16,45,29
India,Uttar_Pradesh,Greater Noida,"Knowledge Park - V, Greater Noida - UPPCB",03-04-2024 07:00:00,28.557054,77.453663,OZONE,6,165,24
India,Uttar_Pradesh,Hapur,"Anand Vihar, Hapur - UPPCB",03-04-2024 07:00:00,28.725645,77.749675,PM10,NA,NA,NA
India,Uttar_Pradesh,Hapur,"Anand Vihar, Hapur - UPPCB",03-04-2024 07:00:00,28.725645,77.749675,OZONE,2,90,15
India,Uttar_Pradesh,Jhansi,"Shivaji Nagar, Jhansi - UPPCB",03-04-2024 07:00:00,25.4547,78.6039,SO2,12,18,15
India,Uttar_Pradesh,Kanpur,"FTI Kidwai Nagar, Kanpur - UPPCB",03-04-2024 07:00:00,26.428282,80.327067,PM2.5,50,220,95
India,Uttar_Pradesh,Kanpur,"FTI Kidwai Nagar, Kanpur - UPPCB",03-04-2024 07:00:00,26.428282,80.327067,PM10,69,228,126
India,Uttar_Pradesh,Kanpur,"FTI Kidwai Nagar, Kanpur - UPPCB",03-04-2024 07:00:00,26.428282,80.327067,SO2,22,23,23
India,Uttar_Pradesh,Kanpur,"NSI Kalyanpur, Kanpur - UPPCB",03-04-2024 07:00:00,26.509954,80.249612,OZONE,4,46,33
India,Uttar_Pradesh,Kanpur,"Nehru Nagar, Kanpur - UPPCB",03-04-2024 07:00:00,26.4703136,80.3229863,NO2,12,48,36
India,Uttar_Pradesh,Khurja,"Kalindi Kunj, Khurja - UPPCB",03-04-2024 07:00:00,28.2348927,77.8683002,SO2,51,62,55
India,Uttar_Pradesh,Khurja,"Kalindi Kunj, Khurja - UPPCB",03-04-2024 07:00:00,28.2348927,77.8683002,OZONE,31,37,31
India,Uttar_Pradesh,Lucknow,"B R Ambedkar University, Lucknow - UPPCB",03-04-2024 07:00:00,26.766433,80.927299,PM2.5,30,119,67
India,Uttar_Pradesh,Lucknow,"Gomti Nagar, Lucknow - UPPCB",03-04-2024 07:00:00,26.868120,81.005119,SO2,2,14,10
India,Uttar_Pradesh,Lucknow,"Kendriya Vidyalaya, Lucknow - CPCB",03-04-2024 07:00:00,26.906111,80.948222,PM2.5,34,60,50
India,Uttar_Pradesh,Lucknow,"Kendriya Vidyalaya, Lucknow - CPCB",03-04-2024 07:00:00,26.906111,80.948222,PM10,89,112,98
India,Uttar_Pradesh,Lucknow,"Kendriya Vidyalaya, Lucknow - CPCB",03-04-2024 07:00:00,26.906111,80.948222,NO2,8,30,16
India,Uttar_Pradesh,Lucknow,"Kukrail Picnic Spot-1, Lucknow - UPPCB",03-04-2024 07:00:00,26.90723,80.98579,PM2.5,39,111,73
India,Uttar_Pradesh,Lucknow,"Kukrail Picnic Spot-1, Lucknow - UPPCB",03-04-2024 07:00:00,26.90723,80.98579,NO2,8,9,8
India,Uttar_Pradesh,Lucknow,"Kukrail Picnic Spot-1, Lucknow - UPPCB",03-04-2024 07:00:00,26.90723,80.98579,CO,11,23,22
India,Uttar_Pradesh,Lucknow,"Lalbagh, Lucknow - CPCB",03-04-2024 07:00:00,26.8458805,80.9365541,NO2,4,17,7
India,Uttar_Pradesh,Lucknow,"Talkatora District Industries Center, Lucknow - CPCB",03-04-2024 07:00:00,26.83399722,80.8917361,CO,10,38,29
India,Uttar_Pradesh,Lucknow,"Talkatora District Industries Center, Lucknow - CPCB",03-04-2024 07:00:00,26.83399722,80.8917361,OZONE,2,81,6
India,Uttar_Pradesh,Meerut,"Ganga Nagar, Meerut - UPPCB",03-04-2024 07:00:00,28.999264,77.7590354,PM2.5,16,92,54
India,Uttar_Pradesh,Meerut,"Jai Bhim Nagar, Meerut - UPPCB",03-04-2024 07:00:00,28.9535882,77.7622941,NH3,3,5,4
India,Uttar_Pradesh,Meerut,"Jai Bhim Nagar, Meerut - UPPCB",03-04-2024 07:00:00,28.9535882,77.7622941,OZONE,23,110,51
India,Uttar_Pradesh,Meerut,"Pallavpuram Phase 2, Meerut - UPPCB",03-04-2024 07:00:00,29.063510,77.709723,OZONE,6,98,19
India,Uttar_Pradesh,Moradabad,"Buddhi Vihar, Moradabad - UPPCB",03-04-2024 07:00:00,28.83526,78.74460,PM2.5,18,79,53
India,Uttar_Pradesh,Moradabad,"Buddhi Vihar, Moradabad - UPPCB",03-04-2024 07:00:00,28.83526,78.74460,PM10,56,119,90
India,Uttar_Pradesh,Moradabad,"Buddhi Vihar, Moradabad - UPPCB",03-04-2024 07:00:00,28.83526,78.74460,NH3,2,2,2
India,Uttar_Pradesh,Moradabad,"Buddhi Vihar, Moradabad - UPPCB",03-04-2024 07:00:00,28.83526,78.74460,SO2,26,38,30
India,Uttar_Pradesh,Moradabad,"Eco Herbal Park, Moradabad - UPPCB",03-04-2024 07:00:00,28.840739,78.697531,NO2,5,48,16
India,Uttar_Pradesh,Moradabad,"Eco Herbal Park, Moradabad - UPPCB",03-04-2024 07:00:00,28.840739,78.697531,SO2,13,43,29
India,Uttar_Pradesh,Moradabad,"Eco Herbal Park, Moradabad - UPPCB",03-04-2024 07:00:00,28.840739,78.697531,CO,38,84,64
India,Uttar_Pradesh,Moradabad,"Eco Herbal Park, Moradabad - UPPCB",03-04-2024 07:00:00,28.840739,78.697531,OZONE,3,122,45
India,Uttar_Pradesh,Moradabad,"Employment Office, Moradabad - UPPCB",03-04-2024 07:00:00,28.88528,78.73880,PM10,60,102,82
India,Uttar_Pradesh,Moradabad,"Jigar Colony, Moradabad - UPPCB",03-04-2024 07:00:00,28.856664,78.772638,PM10,83,140,106
India,Uttar_Pradesh,Moradabad,"Transport Nagar, Moradabad - UPPCB",03-04-2024 07:00:00,28.802625,78.753728,NH3,6,6,6
India,Uttar_Pradesh,Moradabad,"Transport Nagar, Moradabad - UPPCB",03-04-2024 07:00:00,28.802625,78.753728,SO2,44,50,48
India,Uttar_Pradesh,Moradabad,"Transport Nagar, Moradabad - UPPCB",03-04-2024 07:00:00,28.802625,78.753728,OZONE,16,36,19
India,Uttar_Pradesh,Muzaffarnagar,"New Mandi, Muzaffarnagar - UPPCB",03-04-2024 07:00:00,29.4723508,77.7194031,NO2,21,42,29
India,Uttar_Pradesh,Muzaffarnagar,"New Mandi, Muzaffarnagar - UPPCB",03-04-2024 07:00:00,29.4723508,77.7194031,CO,31,74,48
India,Uttar_Pradesh,Noida,"Sector - 125, Noida - UPPCB",03-04-2024 07:00:00,28.5447608,77.3231257,SO2,16,105,30
India,Uttar_Pradesh,Noida,"Sector - 125, Noida - UPPCB",03-04-2024 07:00:00,28.5447608,77.3231257,CO,31,86,63
India,Uttar_Pradesh,Noida,"Sector - 62, Noida - IMD",03-04-2024 07:00:00,28.6245479,77.3577104,PM2.5,33,184,91
India,Uttar_Pradesh,Noida,"Sector-1, Noida - UPPCB",03-04-2024 07:00:00,28.5898,77.3101,CO,19,71,39
India,Uttar_Pradesh,Noida,"Sector-116, Noida - UPPCB",03-04-2024 07:00:00,28.569230,77.393848,NO2,20,77,42
India,Uttar_Pradesh,Noida,"Sector-116, Noida - UPPCB",03-04-2024 07:00:00,28.569230,77.393848,OZONE,2,44,9
India,Uttar_Pradesh,Varanasi,"Ardhali Bazar, Varanasi - UPPCB",03-04-2024 07:00:00,25.3505986,82.9083074,PM2.5,6,36,20
India,Uttar_Pradesh,Varanasi,"Ardhali Bazar, Varanasi - UPPCB",03-04-2024 07:00:00,25.3505986,82.9083074,NO2,25,35,29
India,Uttar_Pradesh,Varanasi,"Bhelupur, Varanasi - UPPCB",03-04-2024 07:00:00,25.301778,82.996789,PM2.5,3,14,8
India,Uttar_Pradesh,Varanasi,"IESD Banaras Hindu University, Varanasi - UPPCB",03-04-2024 07:00:00,25.262326,82.995408,OZONE,NA,NA,NA
India,Uttar_Pradesh,Varanasi,"Maldahiya, Varanasi - UPPCB",03-04-2024 07:00:00,25.32393,82.99687,CO,2,30,17
India,Uttar_Pradesh,Varanasi,"Maldahiya, Varanasi - UPPCB",03-04-2024 07:00:00,25.32393,82.99687,OZONE,1,49,2
India,Uttarakhand,Dehradun,"Doon University, Dehradun - UKPCB",03-04-2024 07:00:00,30.269444,78.044167,NO2,1,4,2
India,Uttarakhand,Dehradun,"Doon University, Dehradun - UKPCB",03-04-2024 07:00:00,30.269444,78.044167,SO2,1,4,2
India,Uttarakhand,Dehradun,"Doon University, Dehradun - UKPCB",03-04-2024 07:00:00,30.269444,78.044167,OZONE,39,129,56
India,Uttarakhand,Kashipur,"Govt. Girls Inter College, Kashipur - UKPCB",03-04-2024 07:00:00,29.2124114,78.9611753,PM2.5,41,109,77
India,Uttarakhand,Kashipur,"Govt. Girls Inter College, Kashipur - UKPCB",03-04-2024 07:00:00,29.2124114,78.9611753,NO2,4,16,7
India,Uttarakhand,Rishikesh,"Shivaji Nagar, Rishikesh - UKPCB",03-04-2024 07:00:00,30.075911,78.2859547,NO2,8,34,16
India,Uttarakhand,Rishikesh,"Shivaji Nagar, Rishikesh - UKPCB",03-04-2024 07:00:00,30.075911,78.2859547,OZONE,18,120,34
India,West_Bengal,Asansol,"Asansol Court Area, Asansol - WBPCB",03-04-2024 07:00:00,23.685297,86.945968,PM2.5,92,277,193
India,West_Bengal,Durgapur,"Sidhu Kanhu Indoor Stadium, Durgapur - WBPCB",03-04-2024 07:00:00,23.5404352,87.2892225,PM2.5,47,288,172
India,West_Bengal,Haldia,"Priyambada Housing Estate, Haldia - WBPCB",03-04-2024 07:00:00,22.06047,88.109737,PM10,18,82,53
India,West_Bengal,Haldia,"Priyambada Housing Estate, Haldia - WBPCB",03-04-2024 07:00:00,22.06047,88.109737,NO2,10,44,20
India,West_Bengal,Haldia,"Priyambada Housing Estate, Haldia - WBPCB",03-04-2024 07:00:00,22.06047,88.109737,CO,18,36,20
India,West_Bengal,Haldia,"Priyambada Housing Estate, Haldia - WBPCB",03-04-2024 07:00:00,22.06047,88.109737,OZONE,18,150,20
India,West_Bengal,Howrah,"Belur Math, Howrah - WBPCB",03-04-2024 07:00:00,22.629801,88.352017,NO2,6,25,14
India,West_Bengal,Howrah,"Belur Math, Howrah - WBPCB",03-04-2024 07:00:00,22.629801,88.352017,NH3,2,3,2
India,West_Bengal,Howrah,"Ghusuri, Howrah - WBPCB",03-04-2024 07:00:00,22.611968,88.347422,NO2,4,23,12
India,West_Bengal,Howrah,"Ghusuri, Howrah - WBPCB",03-04-2024 07:00:00,22.611968,88.347422,SO2,4,6,5
India,West_Bengal,Howrah,"Ghusuri, Howrah - WBPCB",03-04-2024 07:00:00,22.611968,88.347422,CO,2,24,3
India,West_Bengal,Kolkata,"Ballygunge, Kolkata - WBPCB",03-04-2024 07:00:00,22.5367507,88.3638022,PM2.5,54,114,80
India,West_Bengal,Kolkata,"Ballygunge, Kolkata - WBPCB",03-04-2024 07:00:00,22.5367507,88.3638022,CO,4,36,7
India,West_Bengal,Kolkata,"Bidhannagar, Kolkata - WBPCB",03-04-2024 07:00:00,22.58157048,88.41002457,PM2.5,46,109,70
India,West_Bengal,Kolkata,"Bidhannagar, Kolkata - WBPCB",03-04-2024 07:00:00,22.58157048,88.41002457,NH3,8,10,9
India,West_Bengal,Kolkata,"Bidhannagar, Kolkata - WBPCB",03-04-2024 07:00:00,22.58157048,88.41002457,OZONE,12,151,24
India,West_Bengal,Kolkata,"Jadavpur, Kolkata - WBPCB",03-04-2024 07:00:00,22.49929,88.36917,SO2,5,23,13
India,West_Bengal,Kolkata,"Victoria, Kolkata - WBPCB",03-04-2024 07:00:00,22.5448082,88.3403691,PM2.5,39,127,70
India,West_Bengal,Kolkata,"Victoria, Kolkata - WBPCB",03-04-2024 07:00:00,22.5448082,88.3403691,NO2,7,20,9
India,Andhra_Pradesh,Amaravati,"Secretariat, Amaravati - APPCB",03-04-2024 07:00:00,16.5150833,80.5181667,PM2.5,18,58,34
India,Andhra_Pradesh,Amaravati,"Secretariat, Amaravati - APPCB",03-04-2024 07:00:00,16.5150833,80.5181667,NH3,4,5,5
India,Andhra_Pradesh,Anantapur,"Gulzarpet, Anantapur - APPCB",03-04-2024 07:00:00,14.675886,77.593027,SO2,5,10,7
India,Andhra_Pradesh,Anantapur,"Gulzarpet, Anantapur - APPCB",03-04-2024 07:00:00,14.675886,77.593027,OZONE,7,66,26
India,Andhra_Pradesh,Chittoor,"Gangineni Cheruvu, Chittoor - APPCB",03-04-2024 07:00:00,13.204880,79.097889,PM2.5,27,94,60
India,Andhra_Pradesh,Chittoor,"Gangineni Cheruvu, Chittoor - APPCB",03-04-2024 07:00:00,13.204880,79.097889,NH3,1,3,1
India,Andhra_Pradesh,Chittoor,"Gangineni Cheruvu, Chittoor - APPCB",03-04-2024 07:00:00,13.204880,79.097889,CO,2,16,16
India,Andhra_Pradesh,Kadapa,"Yerramukkapalli, Kadapa - APPCB",03-04-2024 07:00:00,14.465052,78.824187,OZONE,17,91,40
India,Andhra_Pradesh,Rajamahendravaram,"Anand Kala Kshetram, Rajamahendravaram - APPCB",03-04-2024 07:00:00,16.9872867,81.7363176,CO,2,57,16
India,Andhra_Pradesh,Tirupati,"Tirumala, Tirupati - APPCB",03-04-2024 07:00:00,13.67,79.35,CO,17,40,23
India,Andhra_Pradesh,Tirupati,"Tirumala, Tirupati - APPCB",03-04-2024 07:00:00,13.67,79.35,OZONE,18,85,29
India,Andhra_Pradesh,Tirupati,"Vaikuntapuram, Tirupati - APPCB",03-04-2024 07:00:00,13.615387,79.409230,SO2,NA,NA,NA
India,Andhra_Pradesh,Tirupati,"Vaikuntapuram, Tirupati - APPCB",03-04-2024 07:00:00,13.615387,79.409230,CO,NA,NA,NA
India,Andhra_Pradesh,Vijayawada,"HB Colony, Vijayawada - APPCB",03-04-2024 07:00:00,16.536107,80.594233,PM10,38,93,64
India,Andhra_Pradesh,Vijayawada,"HB Colony, Vijayawada - APPCB",03-04-2024 07:00:00,16.536107,80.594233,NH3,4,4,4
India,Andhra_Pradesh,Vijayawada,"Rajiv Gandhi Park, Vijayawada - APPCB",03-04-2024 07:00:00,16.509717,80.612222,PM2.5,34,87,57
India,Andhra_Pradesh,Vijayawada,"Rajiv Gandhi Park, Vijayawada - APPCB",03-04-2024 07:00:00,16.509717,80.612222,NH3,6,7,6
India,Andhra_Pradesh,Vijayawada,"Rajiv Nagar, Vijayawada - APPCB",03-04-2024 07:00:00,16.554731,80.649110,CO,37,37,37
India,Andhra_Pradesh,Visakhapatnam,"GVM Corporation, Visakhapatnam - APPCB",03-04-2024 07:00:00,17.72,83.3,PM2.5,33,80,52
India,Andhra_Pradesh,Visakhapatnam,"GVM Corporation, Visakhapatnam - APPCB",03-04-2024 07:00:00,17.72,83.3,NO2,33,47,39
India,Assam,Byrnihat,"Central Academy for SFS, Byrnihat - PCBA",03-04-2024 07:00:00,26.071318,91.87488,SO2,5,33,11
India,Assam,Byrnihat,"Central Academy for SFS, Byrnihat - PCBA",03-04-2024 07:00:00,26.071318,91.87488,OZONE,17,22,21
India,Assam,Guwahati,"IITG, Guwahati - PCBA",03-04-2024 07:00:00,26.2028636,91.70046436,NH3,5,5,5
India,Assam,Guwahati,"IITG, Guwahati - PCBA",03-04-2024 07:00:00,26.2028636,91.70046436,OZONE,2,43,7
India,Assam,Guwahati,"LGBI Airport, Guwahati - PCBA",03-04-2024 07:00:00,26.10887,91.589544,PM10,115,311,173
India,Assam,Guwahati,"LGBI Airport, Guwahati - PCBA",03-04-2024 07:00:00,26.10887,91.589544,CO,26,47,39
India,Assam,Guwahati,"Pan Bazaar, Guwahati - PCBA",03-04-2024 07:00:00,26.187500,91.744194,NH3,4,7,5
India,Assam,Guwahati,"Railway Colony, Guwahati - PCBA",03-04-2024 07:00:00,26.181742,91.78063,PM2.5,1,500,207
India,Assam,Guwahati,"Railway Colony, Guwahati - PCBA",03-04-2024 07:00:00,26.181742,91.78063,SO2,43,76,53
India,Assam,Nagaon,"Christianpatty, Nagaon - PCBA",03-04-2024 07:00:00,26.349082,92.68449,NO2,2,106,15
India,Assam,Nagaon,"Christianpatty, Nagaon - PCBA",03-04-2024 07:00:00,26.349082,92.68449,OZONE,12,114,47
India,Assam,Nalbari,"Bata Chowk, Nalbari - PCBA",03-04-2024 07:00:00,26.446912,91.439057,PM10,70,396,179
India,Assam,Nalbari,"Bata Chowk, Nalbari - PCBA",03-04-2024 07:00:00,26.446912,91.439057,NO2,11,59,21
India,Assam,Nalbari,"Bata Chowk, Nalbari - PCBA",03-04-2024 07:00:00,26.446912,91.439057,NH3,NA,NA,NA
India,Assam,Nalbari,"Bata Chowk, Nalbari - PCBA",03-04-2024 07:00:00,26.446912,91.439057,SO2,1,10,4
India,Assam,Silchar,"Tarapur, Silchar - PCBA",03-04-2024 07:00:00,24.82827,92.79525,CO,28,35,34
India,Bihar,Aurangabad,"Gurdeo Nagar, Aurangabad - BSPCB",03-04-2024 07:00:00,24.75746,84.366208,PM10,NA,NA,NA
India,Bihar,Aurangabad,"Gurdeo Nagar, Aurangabad - BSPCB",03-04-2024 07:00:00,24.75746,84.366208,SO2,3,12,9
India,Bihar,Aurangabad,"Gurdeo Nagar, Aurangabad - BSPCB",03-04-2024 07:00:00,24.75746,84.366208,CO,30,78,68
India,Bihar,Bettiah,"Kamalnath Nagar, Bettiah - BSPCB",03-04-2024 07:00:00,26.80365,84.51954,PM10,51,111,84
India,Bihar,Bettiah,"Kamalnath Nagar, Bettiah - BSPCB",03-04-2024 07:00:00,26.80365,84.51954,CO,62,72,63
India,Bihar,Bhagalpur,"Mayaganj, Bhagalpur - BSPCB",03-04-2024 07:00:00,25.265194,87.012947,SO2,11,12,12
India,Bihar,Bihar Sharif,"D M Colony, Bihar Sharif - BSPCB",03-04-2024 07:00:00,25.204762,85.514960,NO2,NA,NA,NA
India,Bihar,Bihar Sharif,"D M Colony, Bihar Sharif - BSPCB",03-04-2024 07:00:00,25.204762,85.514960,SO2,NA,NA,NA
India,Bihar,Buxar,"Charitra Van, Buxar - BSPCB (Formerly known as Central Jail)",03-04-2024 07:00:00,25.567520,83.966379,PM10,NA,NA,NA
India,Bihar,Buxar,"Charitra Van, Buxar - BSPCB (Formerly known as Central Jail)",03-04-2024 07:00:00,25.567520,83.966379,NO2,NA,NA,NA
India,Bihar,Buxar,"Charitra Van, Buxar - BSPCB (Formerly known as Central Jail)",03-04-2024 07:00:00,25.567520,83.966379,SO2,NA,NA,NA
India,Bihar,Chhapra,"Darshan Nagar, Chhapra - BSPCB",03-04-2024 07:00:00,25.7808257,84.7446768,PM10,100,151,123
India,Bihar,Chhapra,"Darshan Nagar, Chhapra - BSPCB",03-04-2024 07:00:00,25.7808257,84.7446768,SO2,3,26,8
India,Bihar,Gaya,"Collectorate, Gaya - BSPCB",03-04-2024 07:00:00,24.7955,84.9994,PM2.5,28,85,53
India,Bihar,Gaya,"Collectorate, Gaya - BSPCB",03-04-2024 07:00:00,24.7955,84.9994,NO2,1,4,3
India,Bihar,Gaya,"Kareemganj, Gaya - BSPCB",03-04-2024 07:00:00,24.792403,84.992416,NO2,28,31,30
India,Bihar,Hajipur,"Industrial Area, Hajipur - BSPCB",03-04-2024 07:00:00,25.697189,85.245900,SO2,7,9,8
India,Bihar,Katihar,"Mirchaibari, Katihar - BSPCB",03-04-2024 07:00:00,25.560083,87.553265,PM2.5,22,73,47
India,Bihar,Katihar,"Mirchaibari, Katihar - BSPCB",03-04-2024 07:00:00,25.560083,87.553265,CO,43,62,47
India,Bihar,Kishanganj,"SDM Office_Khagra, Kishanganj - BSPCB",03-04-2024 07:00:00,26.0881305,87.93840336,NH3,9,11,10
India,Bihar,Kishanganj,"SDM Office_Khagra, Kishanganj - BSPCB",03-04-2024 07:00:00,26.0881305,87.93840336,SO2,34,104,49
India,Bihar,Kishanganj,"SDM Office_Khagra, Kishanganj - BSPCB",03-04-2024 07:00:00,26.0881305,87.93840336,OZONE,16,46,17
India,Bihar,Motihari,"Gandak Colony, Motihari - BSPCB",03-04-2024 07:00:00,26.63086,84.90051,PM2.5,NA,NA,NA
India,Bihar,Munger,"Town Hall, Munger - BSPCB",03-04-2024 07:00:00,25.376776,86.471523,CO,2,6,5
India,Bihar,Munger,"Town Hall, Munger - BSPCB",03-04-2024 07:00:00,25.376776,86.471523,OZONE,28,141,29
India,Bihar,Muzaffarpur,"Buddha Colony, Muzaffarpur - BSPCB",03-04-2024 07:00:00,26.11442,85.39813,NO2,21,63,36
India,Bihar,Muzaffarpur,"Buddha Colony, Muzaffarpur - BSPCB",03-04-2024 07:00:00,26.11442,85.39813,CO,1,104,10
India,Bihar,Muzaffarpur,"Muzaffarpur Collectorate, Muzaffarpur - BSPCB",03-04-2024 07:00:00,26.1209,85.3647,NO2,6,15,9
India,Bihar,Muzaffarpur,"Muzaffarpur Collectorate, Muzaffarpur - BSPCB",03-04-2024 07:00:00,26.1209,85.3647,CO,11,88,30
India,Bihar,Patna,"DRM Office Danapur, Patna - BSPCB",03-04-2024 07:00:00,25.586562,85.043586,CO,19,64,35
India,Bihar,Patna,"Govt. High School Shikarpur, Patna - BSPCB",03-04-2024 07:00:00,25.592539,85.227158,PM2.5,89,213,147
India,Bihar,Patna,"Govt. High School Shikarpur, Patna - BSPCB",03-04-2024 07:00:00,25.592539,85.227158,CO,26,50,38
India,Bihar,Patna,"Govt. High School Shikarpur, Patna - BSPCB",03-04-2024 07:00:00,25.592539,85.227158,OZONE,1,59,2
India,Bihar,Patna,"IGSC Planetarium Complex, Patna - BSPCB",03-04-2024 07:00:00,25.610369,85.132568,PM2.5,NA,NA,NA
India,Bihar,Patna,"IGSC Planetarium Complex, Patna - BSPCB",03-04-2024 07:00:00,25.610369,85.132568,NO2,10,10,10
India,Bihar,Patna,"Muradpur, Patna - BSPCB",03-04-2024 07:00:00,25.619651,85.147382,NH3,2,5,3
India,Bihar,Patna,"Muradpur, Patna - BSPCB",03-04-2024 07:00:00,25.619651,85.147382,OZONE,7,35,10
India,Bihar,Purnia,"Mariam Nagar, Purnia - BSPCB",03-04-2024 07:00:00,25.366336,87.117468,PM10,109,194,143
India,Bihar,Purnia,"Mariam Nagar, Purnia - BSPCB",03-04-2024 07:00:00,25.366336,87.117468,CO,8,66,54
India,Bihar,Rajgir,"Dangi Tola, Rajgir - BSPCB",03-04-2024 07:00:00,25.03280,85.41948,PM10,20,66,39
India,Bihar,Rajgir,"Dangi Tola, Rajgir - BSPCB",03-04-2024 07:00:00,25.03280,85.41948,NO2,1,1,1
India,Bihar,Rajgir,"Dangi Tola, Rajgir - BSPCB",03-04-2024 07:00:00,25.03280,85.41948,CO,10,11,10
India,Bihar,Samastipur,"DM Office_Kasipur, Samastipur - BSPCB",03-04-2024 07:00:00,25.859655,85.77944,PM10,77,185,116
India,Bihar,Samastipur,"DM Office_Kasipur, Samastipur - BSPCB",03-04-2024 07:00:00,25.859655,85.77944,NO2,4,16,9
India,Bihar,Samastipur,"DM Office_Kasipur, Samastipur - BSPCB",03-04-2024 07:00:00,25.859655,85.77944,OZONE,10,38,10
India,Bihar,Siwan,"Chitragupta Nagar, Siwan - BSPCB",03-04-2024 07:00:00,26.2271665,84.3570427,NO2,10,47,23
India,Bihar,Siwan,"Chitragupta Nagar, Siwan - BSPCB",03-04-2024 07:00:00,26.2271665,84.3570427,NH3,1,5,2
India,Bihar,Siwan,"Chitragupta Nagar, Siwan - BSPCB",03-04-2024 07:00:00,26.2271665,84.3570427,CO,58,136,84
India,Chandigarh,Chandigarh,"Sector 22, Chandigarh - CPCC",03-04-2024 07:00:00,30.735567,76.775714,NO2,20,82,38
India,Chandigarh,Chandigarh,"Sector 22, Chandigarh - CPCC",03-04-2024 07:00:00,30.735567,76.775714,OZONE,7,158,40
India,Chandigarh,Chandigarh,"Sector-53, Chandigarh - CPCC",03-04-2024 07:00:00,30.719859,76.738637,PM2.5,30,167,82
India,Chandigarh,Chandigarh,"Sector-53, Chandigarh - CPCC",03-04-2024 07:00:00,30.719859,76.738637,NH3,5,7,6
India,Chandigarh,Chandigarh,"Sector-53, Chandigarh - CPCC",03-04-2024 07:00:00,30.719859,76.738637,CO,38,84,57
India,Chandigarh,Chandigarh,"Sector-53, Chandigarh - CPCC",03-04-2024 07:00:00,30.719859,76.738637,OZONE,5,57,16
India,Chhattisgarh,Bhilai,"32Bungalows, Bhilai - CECB",03-04-2024 07:00:00,21.194815,81.314770,PM10,54,119,78
India,Chhattisgarh,Bhilai,"Civic Center, Bhilai - Bhilai Steel Plant",03-04-2024 07:00:00,21.185571,81.343175,NO2,8,18,17
India,Chhattisgarh,Bhilai,"Civic Center, Bhilai - Bhilai Steel Plant",03-04-2024 07:00:00,21.185571,81.343175,SO2,3,16,11
India,Chhattisgarh,Bilaspur,"Mangala, Bilaspur - NTPC",03-04-2024 07:00:00,22.08815,82.13737,PM2.5,43,95,72
India,Chhattisgarh,Chhal,"Nawapara SECL Colony, Chhal - CECB",03-04-2024 07:00:00,22.118125,83.140608,NO2,22,74,43
India,Chhattisgarh,Korba,"Rampur, Korba - CECB",03-04-2024 07:00:00,22.368195,82.746431,OZONE,2,33,2
India,Chhattisgarh,Korba,"Urja Nagar, Korba - CECB",03-04-2024 07:00:00,22.348441,82.549611,PM2.5,NA,NA,NA
India,Chhattisgarh,Korba,"Urja Nagar, Korba - CECB",03-04-2024 07:00:00,22.348441,82.549611,NO2,44,61,54
India,Chhattisgarh,Korba,"Urja Nagar, Korba - CECB",03-04-2024 07:00:00,22.348441,82.549611,OZONE,1,4,1
India,Chhattisgarh,Kunjemura,"OP Jindal School, Kunjemura - CECB",03-04-2024 07:00:00,22.126650,83.483212,CO,27,108,100
India,Chhattisgarh,Milupara,"Govt. Higher Secondary School, Milupara - CECB",03-04-2024 07:00:00,22.1910172,83.5197009,SO2,NA,NA,NA
India,Chhattisgarh,Milupara,"Govt. Higher Secondary School, Milupara - CECB",03-04-2024 07:00:00,22.1910172,83.5197009,CO,26,96,71
India,Chhattisgarh,Milupara,"Govt. Higher Secondary School, Milupara - CECB",03-04-2024 07:00:00,22.1910172,83.5197009,OZONE,NA,NA,NA
India,Chhattisgarh,Raipur,"AIIMS, Raipur - CECB",03-04-2024 07:00:00,21.258815,81.578979,PM2.5,39,81,58
India,Chhattisgarh,Raipur,"AIIMS, Raipur - CECB",03-04-2024 07:00:00,21.258815,81.578979,CO,30,52,52
India,Chhattisgarh,Raipur,"Bhatagaon New ISBT, Raipur - CECB",03-04-2024 07:00:00,21.219665,81.630094,PM2.5,NA,NA,NA
India,Chhattisgarh,Raipur,"Bhatagaon New ISBT, Raipur - CECB",03-04-2024 07:00:00,21.219665,81.630094,OZONE,3,11,3
India,Chhattisgarh,Raipur,"Krishak Nagar, Raipur - CECB",03-04-2024 07:00:00,21.237755,81.705301,PM10,46,113,85
India,Chhattisgarh,Raipur,"Krishak Nagar, Raipur - CECB",03-04-2024 07:00:00,21.237755,81.705301,NO2,22,45,34
India,Chhattisgarh,Raipur,"Krishak Nagar, Raipur - CECB",03-04-2024 07:00:00,21.237755,81.705301,SO2,13,37,20
India,Chhattisgarh,Raipur,"Krishak Nagar, Raipur - CECB",03-04-2024 07:00:00,21.237755,81.705301,OZONE,2,56,3
India,Chhattisgarh,Raipur,"Siltara Phase-II, Raipur - CECB",03-04-2024 07:00:00,21.371751,81.664929,OZONE,3,82,3
India,Chhattisgarh,Tumidih,"OP Jindal Industrial Park, Tumidih - CECB",03-04-2024 07:00:00,22.06631475,83.33820077,NO2,14,62,30
India,Chhattisgarh,Tumidih,"OP Jindal Industrial Park, Tumidih - CECB",03-04-2024 07:00:00,22.06631475,83.33820077,SO2,5,29,8
India,Chhattisgarh,Tumidih,"OP Jindal Industrial Park, Tumidih - CECB",03-04-2024 07:00:00,22.06631475,83.33820077,OZONE,6,104,13
India,Delhi,Delhi,"Alipur, Delhi - DPCC",03-04-2024 07:00:00,28.815329,77.153010,PM10,75,281,133
India,Delhi,Delhi,"Alipur, Delhi - DPCC",03-04-2024 07:00:00,28.815329,77.153010,NH3,4,8,5
India,Delhi,Delhi,"Alipur, Delhi - DPCC",03-04-2024 07:00:00,28.815329,77.153010,CO,31,68,56
India,Delhi,Delhi,"Anand Vihar, Delhi - DPCC",03-04-2024 07:00:00,28.647622,77.3158090,PM10,129,373,194
India,Delhi,Delhi,"Anand Vihar, Delhi - DPCC",03-04-2024 07:00:00,28.647622,77.3158090,NO2,33,112,69
India,Delhi,Delhi,"Ashok Vihar, Delhi - DPCC",03-04-2024 07:00:00,28.695381,77.181665,SO2,22,54,36
India,Delhi,Delhi,"Ashok Vihar, Delhi - DPCC",03-04-2024 07:00:00,28.695381,77.181665,OZONE,3,20,5
India,Delhi,Delhi,"Aya Nagar, Delhi - IMD",03-04-2024 07:00:00,28.4706914,77.1099364,CO,20,70,60
India,Delhi,Delhi,"Aya Nagar, Delhi - IMD",03-04-2024 07:00:00,28.4706914,77.1099364,OZONE,4,27,5
India,Delhi,Delhi,"CRRI Mathura Road, Delhi - IMD",03-04-2024 07:00:00,28.5512005,77.2735737,PM10,NA,NA,NA
India,Delhi,Delhi,"Chandni Chowk, Delhi - IITM",03-04-2024 07:00:00,28.656756,77.227234,NO2,13,106,42
India,Delhi,Delhi,"Dr. Karni Singh Shooting Range, Delhi - DPCC",03-04-2024 07:00:00,28.498571,77.264840,NH3,5,7,6
India,Delhi,Delhi,"Dwarka-Sector 8, Delhi - DPCC ",03-04-2024 07:00:00,28.5710274,77.0719006,NO2,12,76,39
India,Delhi,Delhi,"Dwarka-Sector 8, Delhi - DPCC ",03-04-2024 07:00:00,28.5710274,77.0719006,NH3,4,9,5
India,Delhi,Delhi,"IGI Airport (T3), Delhi - IMD",03-04-2024 07:00:00,28.5627763,77.1180053,PM2.5,25,336,89
India,Delhi,Delhi,"IHBAS, Dilshad Garden, Delhi - CPCB",03-04-2024 07:00:00,28.6811736,77.3025234,NO2,29,67,38
India,Delhi,Delhi,"IHBAS, Dilshad Garden, Delhi - CPCB",03-04-2024 07:00:00,28.6811736,77.3025234,SO2,3,98,32
India,Delhi,Delhi,"ITO, Delhi - CPCB",03-04-2024 07:00:00,28.628624,77.241060,SO2,9,28,20
India,Delhi,Delhi,"ITO, Delhi - CPCB",03-04-2024 07:00:00,28.628624,77.241060,CO,27,105,67
India,Delhi,Delhi,"Jahangirpuri, Delhi - DPCC",03-04-2024 07:00:00,28.732820,77.170633,SO2,25,69,45
India,Delhi,Delhi,"Jahangirpuri, Delhi - DPCC",03-04-2024 07:00:00,28.732820,77.170633,CO,34,101,71
India,Delhi,Delhi,"Jawaharlal Nehru Stadium, Delhi - DPCC",03-04-2024 07:00:00,28.580280,77.233829,OZONE,1,153,11
India,Delhi,Delhi,"Lodhi Road, Delhi - IITM",03-04-2024 07:00:00,28.588333,77.221667,SO2,19,45,30
India,Delhi,Delhi,"Lodhi Road, Delhi - IITM",03-04-2024 07:00:00,28.588333,77.221667,CO,59,68,67
India,Delhi,Delhi,"Lodhi Road, Delhi - IMD",03-04-2024 07:00:00,28.5918245,77.2273074,OZONE,9,45,10
India,Delhi,Delhi,"Major Dhyan Chand National Stadium, Delhi - DPCC",03-04-2024 07:00:00,28.611281,77.237738,NO2,26,128,72
India,Delhi,Delhi,"Major Dhyan Chand National Stadium, Delhi - DPCC",03-04-2024 07:00:00,28.611281,77.237738,NH3,5,8,6
India,Delhi,Delhi,"Major Dhyan Chand National Stadium, Delhi - DPCC",03-04-2024 07:00:00,28.611281,77.237738,OZONE,4,134,17
India,Delhi,Delhi,"Mandir Marg, Delhi - DPCC",03-04-2024 07:00:00,28.636429,77.201067,PM10,64,126,94
India,Delhi,Delhi,"Mundka, Delhi - DPCC",03-04-2024 07:00:00,28.684678,77.076574,CO,26,72,55
India,Delhi,Delhi,"Najafgarh, Delhi - DPCC",03-04-2024 07:00:00,28.570173,76.933762,NH3,2,11,5
India,Delhi,Delhi,"Najafgarh, Delhi - DPCC",03-04-2024 07:00:00,28.570173,76.933762,SO2,1,37,23
India,Delhi,Delhi,"Narela, Delhi - DPCC",03-04-2024 07:00:00,28.822836,77.101981,NO2,11,101,49
India,Delhi,Delhi,"Narela, Delhi - DPCC",03-04-2024 07:00:00,28.822836,77.101981,CO,43,84,66
India,Delhi,Delhi,"Nehru Nagar, Delhi - DPCC",03-04-2024 07:00:00,28.567890,77.250515,PM10,93,209,139
India,Delhi,Delhi,"New Moti Bagh, Delhi - MHUA",03-04-2024 07:00:00,28.57834,77.18400,PM2.5,22,259,107
India,Delhi,Delhi,"New Moti Bagh, Delhi - MHUA",03-04-2024 07:00:00,28.57834,77.18400,NO2,1,4,1
India,Delhi,Delhi,"New Moti Bagh, Delhi - MHUA",03-04-2024 07:00:00,28.57834,77.18400,CO,8,48,42
India,Delhi,Delhi,"North Campus, DU, Delhi - IMD",03-04-2024 07:00:00,28.6573814,77.1585447,PM10,NA,NA,NA
India,Delhi,Delhi,"North Campus, DU, Delhi - IMD",03-04-2024 07:00:00,28.6573814,77.1585447,NO2,NA,NA,NA
India,Delhi,Delhi,"Okhla Phase-2, Delhi - DPCC",03-04-2024 07:00:00,28.530785,77.271255,PM10,111,334,156
India,Delhi,Delhi,"Okhla Phase-2, Delhi - DPCC",03-04-2024 07:00:00,28.530785,77.271255,NH3,6,12,8
India,Delhi,Delhi,"Okhla Phase-2, Delhi - DPCC",03-04-2024 07:00:00,28.530785,77.271255,SO2,9,18,12
India,Delhi,Delhi,"Punjabi Bagh, Delhi - DPCC",03-04-2024 07:00:00,28.674045,77.131023,PM10,91,194,135
India,Delhi,Delhi,"Pusa, Delhi - DPCC",03-04-2024 07:00:00,28.639652,77.146275,PM10,101,223,150
India,Delhi,Delhi,"Pusa, Delhi - DPCC",03-04-2024 07:00:00,28.639652,77.146275,SO2,10,42,24
India,Delhi,Delhi,"Pusa, Delhi - IMD",03-04-2024 07:00:00,28.636110,77.173332,NO2,10,18,13
India,Delhi,Delhi,"Pusa, Delhi - IMD",03-04-2024 07:00:00,28.636110,77.173332,CO,60,82,78
India,Delhi,Delhi,"Pusa, Delhi - IMD",03-04-2024 07:00:00,28.636110,77.173332,OZONE,6,43,12
India,Delhi,Delhi,"Rohini, Delhi - DPCC",03-04-2024 07:00:00,28.732528,77.119920,NO2,3,98,40
India,Delhi,Delhi,"Shadipur, Delhi - CPCB",03-04-2024 07:00:00,28.6514781,77.1473105,PM10,129,287,186
India,Delhi,Delhi,"Sirifort, Delhi - CPCB",03-04-2024 07:00:00,28.5504249,77.2159377,CO,3,102,42
India,Delhi,Delhi,"Sirifort, Delhi - CPCB",03-04-2024 07:00:00,28.5504249,77.2159377,OZONE,2,42,3
India,Delhi,Delhi,"Sri Aurobindo Marg, Delhi - DPCC",03-04-2024 07:00:00,28.531346,77.190156,CO,2,51,38
India,Delhi,Delhi,"Sri Aurobindo Marg, Delhi - DPCC",03-04-2024 07:00:00,28.531346,77.190156,OZONE,7,47,8
India,Delhi,Delhi,"Wazirpur, Delhi - DPCC",03-04-2024 07:00:00,28.699793,77.165453,PM2.5,31,320,143
India,Delhi,Delhi,"Wazirpur, Delhi - DPCC",03-04-2024 07:00:00,28.699793,77.165453,NO2,52,183,111
India,Delhi,Delhi,"Wazirpur, Delhi - DPCC",03-04-2024 07:00:00,28.699793,77.165453,CO,8,100,32
India,Gujarat,Ahmedabad,"Chandkheda, Ahmedabad - IITM",03-04-2024 07:00:00,23.107969,72.574648,OZONE,4,47,9
India,Gujarat,Ahmedabad,"Gyaspur, Ahmedabad - IITM",03-04-2024 07:00:00,22.977134,72.553024,PM10,108,480,179
India,Gujarat,Ahmedabad,"Maninagar, Ahmedabad - GPCB",03-04-2024 07:00:00,23.002657,72.591912,PM10,103,211,135
India,Gujarat,Ahmedabad,"Maninagar, Ahmedabad - GPCB",03-04-2024 07:00:00,23.002657,72.591912,SO2,21,86,48
India,Gujarat,Ahmedabad,"Maninagar, Ahmedabad - GPCB",03-04-2024 07:00:00,23.002657,72.591912,CO,38,78,52
India,Gujarat,Ahmedabad,"Raikhad, Ahmedabad - IITM",03-04-2024 07:00:00,23.020509,72.579261,NH3,NA,NA,NA
India,Gujarat,Ahmedabad,"Raikhad, Ahmedabad - IITM",03-04-2024 07:00:00,23.020509,72.579261,SO2,6,18,9
India,Gujarat,Ahmedabad,"Rakhial, Ahmedabad - IITM",03-04-2024 07:00:00,23.016834,72.625775,PM10,105,141,120
India,Gujarat,Ahmedabad,"Rakhial, Ahmedabad - IITM",03-04-2024 07:00:00,23.016834,72.625775,NO2,15,123,40
India,Gujarat,Ahmedabad,"Rakhial, Ahmedabad - IITM",03-04-2024 07:00:00,23.016834,72.625775,CO,34,86,75
India,Gujarat,Ahmedabad,"Rakhial, Ahmedabad - IITM",03-04-2024 07:00:00,23.016834,72.625775,OZONE,8,46,9
India,Gujarat,Ahmedabad,"SAC ISRO Satellite, Ahmedabad - IITM",03-04-2024 07:00:00,23.023389,72.515201,PM2.5,131,134,133
India,Gujarat,Ahmedabad,"SVPI Airport Hansol, Ahmedabad - IITM",03-04-2024 07:00:00,23.076793,72.627874,NO2,14,19,17
India,Gujarat,Ahmedabad,"SVPI Airport Hansol, Ahmedabad - IITM",03-04-2024 07:00:00,23.076793,72.627874,OZONE,10,41,12
India,Gujarat,Ahmedabad,"Sardar Vallabhbhai Patel Stadium, Ahmedabad - IITM",03-04-2024 07:00:00,23.043070,72.562968,SO2,3,14,9
India,Gujarat,Ahmedabad,"Sardar Vallabhbhai Patel Stadium, Ahmedabad - IITM",03-04-2024 07:00:00,23.043070,72.562968,CO,32,78,47
India,Gujarat,Ankleshwar,"GIDC, Ankleshwar - GPCB",03-04-2024 07:00:00,21.613267,73.010555,NO2,35,35,35
India,Gujarat,Gandhinagar,"IIPHG Lekawada, Gandhinagar - IITM",03-04-2024 07:00:00,23.243639,72.68994,PM2.5,56,134,80
India,Gujarat,Gandhinagar,"IIPHG Lekawada, Gandhinagar - IITM",03-04-2024 07:00:00,23.243639,72.68994,CO,8,21,19
India,Gujarat,Gandhinagar,"IIPHG Lekawada, Gandhinagar - IITM",03-04-2024 07:00:00,23.243639,72.68994,OZONE,11,45,12
India,Gujarat,Gandhinagar,"Sector-10, Gandhinagar - GPCB",03-04-2024 07:00:00,23.221714,72.654328,OZONE,1,18,1
India,Gujarat,Vapi,"Phase-1 GIDC, Vapi - GPCB",03-04-2024 07:00:00,20.362421,72.918013,SO2,51,52,52
India,Gujarat,Vatva,"Phase-4 GIDC, Vatva - GPCB",03-04-2024 07:00:00,22.969611,72.643500,OZONE,NA,NA,NA
India,Haryana,Ambala,"Patti Mehar, Ambala - HSPCB",03-04-2024 07:00:00,30.379589,76.778328,PM2.5,32,70,49
India,Haryana,Bahadurgarh,"Arya Nagar, Bahadurgarh - HSPCB",03-04-2024 07:00:00,28.6701,76.9254,PM10,93,376,144
India,Haryana,Bahadurgarh,"Arya Nagar, Bahadurgarh - HSPCB",03-04-2024 07:00:00,28.6701,76.9254,SO2,5,59,19
India,Haryana,Bahadurgarh,"Arya Nagar, Bahadurgarh - HSPCB",03-04-2024 07:00:00,28.6701,76.9254,OZONE,39,51,45
India,Haryana,Ballabgarh,"Nathu Colony, Ballabgarh - HSPCB",03-04-2024 07:00:00,28.3419248,77.319699,PM2.5,74,319,150
India,Haryana,Ballabgarh,"Nathu Colony, Ballabgarh - HSPCB",03-04-2024 07:00:00,28.3419248,77.319699,NH3,1,2,2
India,Haryana,Ballabgarh,"Nathu Colony, Ballabgarh - HSPCB",03-04-2024 07:00:00,28.3419248,77.319699,CO,28,104,67
India,Haryana,Charkhi Dadri,"Mini Secretariat, Charkhi Dadri - HSPCB",03-04-2024 07:00:00,28.593883,76.270653,PM2.5,83,285,144
India,Haryana,Charkhi Dadri,"Mini Secretariat, Charkhi Dadri - HSPCB",03-04-2024 07:00:00,28.593883,76.270653,PM10,83,162,113
India,Haryana,Charkhi Dadri,"Mini Secretariat, Charkhi Dadri - HSPCB",03-04-2024 07:00:00,28.593883,76.270653,NH3,6,8,7
India,Haryana,Charkhi Dadri,"Mini Secretariat, Charkhi Dadri - HSPCB",03-04-2024 07:00:00,28.593883,76.270653,CO,30,85,54
India,Haryana,Faridabad,"New Industrial Town, Faridabad - HSPCB",03-04-2024 07:00:00,28.39072,77.30059,PM2.5,139,404,270
India,Haryana,Faridabad,"New Industrial Town, Faridabad - HSPCB",03-04-2024 07:00:00,28.39072,77.30059,NO2,10,19,12
India,Haryana,Faridabad,"Sector- 16A, Faridabad - HSPCB",03-04-2024 07:00:00,28.4088421,77.3099081,PM2.5,20,372,125
India,Haryana,Fatehabad,"Huda Sector, Fatehabad - HSPCB",03-04-2024 07:00:00,29.503664,75.467934,CO,5,10,6
India,Haryana,Gurugram,"Sector-51, Gurugram - HSPCB",03-04-2024 07:00:00,28.4227,77.0667,PM10,106,184,153
India,Haryana,Gurugram,"Sector-51, Gurugram - HSPCB",03-04-2024 07:00:00,28.4227,77.0667,OZONE,27,67,40
India,Haryana,Gurugram,"Teri Gram, Gurugram - HSPCB",03-04-2024 07:00:00,28.4275,77.1465,SO2,3,5,4
India,Haryana,Gurugram,"Vikas Sadan, Gurugram - HSPCB",03-04-2024 07:00:00,28.4501238,77.0263051,OZONE,7,69,10
India,Haryana,Hisar,"Urban Estate-II, Hisar - HSPCB",03-04-2024 07:00:00,29.140560,75.744941,PM2.5,42,171,82
India,Haryana,Hisar,"Urban Estate-II, Hisar - HSPCB",03-04-2024 07:00:00,29.140560,75.744941,PM10,64,187,93
India,Haryana,Jind,"Police Lines, Jind - HSPCB",03-04-2024 07:00:00,29.307814,76.337619,PM10,45,96,62
India,Haryana,Jind,"Police Lines, Jind - HSPCB",03-04-2024 07:00:00,29.307814,76.337619,NO2,4,13,11
India,Haryana,Jind,"Police Lines, Jind - HSPCB",03-04-2024 07:00:00,29.307814,76.337619,CO,4,106,39
India,Haryana,Kaithal,"Rishi Nagar, Kaithal - HSPCB",03-04-2024 07:00:00,29.8006,76.4155,NO2,24,26,25
India,Haryana,Karnal,"Sector-12, Karnal - HSPCB",03-04-2024 07:00:00,29.695300,77.002700,OZONE,28,40,32
India,Haryana,Kurukshetra,"Sector-7, Kurukshetra - HSPCB",03-04-2024 07:00:00,29.966942,76.875879,NO2,10,11,10
India,Haryana,Kurukshetra,"Sector-7, Kurukshetra - HSPCB",03-04-2024 07:00:00,29.966942,76.875879,NH3,5,5,5
India,Haryana,Kurukshetra,"Sector-7, Kurukshetra - HSPCB",03-04-2024 07:00:00,29.966942,76.875879,SO2,8,81,28
India,Haryana,Kurukshetra,"Sector-7, Kurukshetra - HSPCB",03-04-2024 07:00:00,29.966942,76.875879,CO,4,25,15
India,Haryana,Mandikhera,"General Hospital, Mandikhera - HSPCB",03-04-2024 07:00:00,27.9002,76.9938,CO,3,26,17
India,Haryana,Manesar,"Sector-2 IMT, Manesar - HSPCB",03-04-2024 07:00:00,28.360699,76.936090,NH3,1,3,2
India,Haryana,Narnaul,"Shastri Nagar, Narnaul - HSPCB",03-04-2024 07:00:00,28.060249,76.113115,NO2,12,75,35
India,Haryana,Narnaul,"Shastri Nagar, Narnaul - HSPCB",03-04-2024 07:00:00,28.060249,76.113115,CO,11,34,26
India,Haryana,Panchkula,"Sector-6, Panchkula - HSPCB ",03-04-2024 07:00:00,30.7057778,76.8531805555555,PM2.5,NA,NA,NA
India,Haryana,Panchkula,"Sector-6, Panchkula - HSPCB ",03-04-2024 07:00:00,30.7057778,76.8531805555555,NO2,NA,NA,NA
India,Haryana,Panchkula,"Sector-6, Panchkula - HSPCB ",03-04-2024 07:00:00,30.7057778,76.8531805555555,OZONE,NA,NA,NA
India,Haryana,Panipat,"Sector-18, Panipat - HSPCB",03-04-2024 07:00:00,29.497973,76.993331,CO,24,26,25
India,Haryana,Rohtak,"MD University, Rohtak - HSPCB",03-04-2024 07:00:00,28.52123,76.37138,PM2.5,1,10,5
India,Haryana,Rohtak,"MD University, Rohtak - HSPCB",03-04-2024 07:00:00,28.52123,76.37138,OZONE,43,55,50
India,Haryana,Sirsa,"F-Block, Sirsa - HSPCB",03-04-2024 07:00:00,29.536400,75.015800,PM2.5,32,108,51
India,Haryana,Sirsa,"F-Block, Sirsa - HSPCB",03-04-2024 07:00:00,29.536400,75.015800,OZONE,31,99,62
India,Haryana,Sonipat,"Murthal, Sonipat - HSPCB",03-04-2024 07:00:00,29.027200,77.062100,NH3,7,10,9
India,Haryana,Sonipat,"Murthal, Sonipat - HSPCB",03-04-2024 07:00:00,29.027200,77.062100,CO,12,28,23
India,Haryana,Yamuna Nagar,"Gobind Pura, Yamuna Nagar - HSPCB",03-04-2024 07:00:00,30.1480566,77.2893471,PM2.5,46,84,61
India,Haryana,Yamuna Nagar,"Gobind Pura, Yamuna Nagar - HSPCB",03-04-2024 07:00:00,30.1480566,77.2893471,CO,40,88,56
