country,state,city,station,last_update,latitude,longitude,pollutant_id,pollutant_min,pollutant_max,pollutant_avg
India,Andhra_Pradesh,Anantapur,"Gulzarpet, Anantapur - APPCB",27-01-2024 03:00:00,14.675886,77.593027,CO,23,52,30
India,Andhra_Pradesh,Tirupati,"Tirumala, Tirupati - APPCB",27-01-2024 03:00:00,13.67,79.35,NH3,1,5,2
India,Andhra_Pradesh,Tirupati,"Tirumala, Tirupati - APPCB",27-01-2024 03:00:00,13.67,79.35,OZONE,6,31,12
India,Andhra_Pradesh,Tirupati,"Vaikuntapuram, Tirupati - APPCB",27-01-2024 03:00:00,13.615387,79.409230,PM2.5,NA,NA,NA
India,Andhra_Pradesh,Tirupati,"Vaikuntapuram, Tirupati - APPCB",27-01-2024 03:00:00,13.615387,79.409230,NH3,NA,NA,NA
India,Andhra_Pradesh,Tirupati,"Vaikuntapuram, Tirupati - APPCB",27-01-2024 03:00:00,13.615387,79.409230,SO2,NA,NA,NA
India,Andhra_Pradesh,Visakhapatnam,"GVM Corporation, Visakhapatnam - APPCB",27-01-2024 03:00:00,17.72,83.3,NH3,2,5,3
India,Andhra_Pradesh,Visakhapatnam,"GVM Corporation, Visakhapatnam - APPCB",27-01-2024 03:00:00,17.72,83.3,CO,36,90,50
India,Arunachal_Pradesh,Naharlagun,"Naharlagun, Naharlagun - APSPCB",27-01-2024 03:00:00,27.103358,93.679645,NO2,2,2,2
India,Arunachal_Pradesh,Naharlagun,"Naharlagun, Naharlagun - APSPCB",27-01-2024 03:00:00,27.103358,93.679645,OZONE,2,2,2
India,Assam,Guwahati,"Pan Bazaar, Guwahati - PCBA",27-01-2024 03:00:00,26.187500,91.744194,PM10,100,184,144
India,Assam,Guwahati,"Pan Bazaar, Guwahati - PCBA",27-01-2024 03:00:00,26.187500,91.744194,SO2,55,69,63
India,Assam,Guwahati,"Railway Colony, Guwahati - PCBA",27-01-2024 03:00:00,26.181742,91.78063,CO,28,106,89
India,Assam,Nagaon,"Christianpatty, Nagaon - PCBA",27-01-2024 03:00:00,26.349082,92.68449,SO2,10,22,16
India,Assam,Nagaon,"Christianpatty, Nagaon - PCBA",27-01-2024 03:00:00,26.349082,92.68449,OZONE,3,94,20
India,Assam,Silchar,"Tarapur, Silchar - PCBA",27-01-2024 03:00:00,24.82827,92.79525,PM10,46,48,46
India,Assam,Sivasagar,"Girls College, Sivasagar - PCBA",27-01-2024 03:00:00,26.987634,94.636574,OZONE,1,3,1
India,Bihar,Araria,"Kharahiya Basti, Araria - BSPCB",27-01-2024 03:00:00,26.146529,87.454184,PM2.5,NA,NA,NA
India,Bihar,Araria,"Kharahiya Basti, Araria - BSPCB",27-01-2024 03:00:00,26.146529,87.454184,SO2,11,18,15
India,Bihar,Arrah,"New DM Office, Arrah - BSPCB",27-01-2024 03:00:00,25.5626095,84.663264,PM2.5,300,362,327
India,Bihar,Arrah,"New DM Office, Arrah - BSPCB",27-01-2024 03:00:00,25.5626095,84.663264,NH3,5,8,6
India,Bihar,Arrah,"New DM Office, Arrah - BSPCB",27-01-2024 03:00:00,25.5626095,84.663264,SO2,15,21,18
India,Bihar,Arrah,"New DM Office, Arrah - BSPCB",27-01-2024 03:00:00,25.5626095,84.663264,CO,6,36,9
India,Bihar,Arrah,"New DM Office, Arrah - BSPCB",27-01-2024 03:00:00,25.5626095,84.663264,OZONE,6,29,12
India,Bihar,Aurangabad,"Gurdeo Nagar, Aurangabad - BSPCB",27-01-2024 03:00:00,24.75746,84.366208,NO2,6,12,9
India,Bihar,Aurangabad,"Gurdeo Nagar, Aurangabad - BSPCB",27-01-2024 03:00:00,24.75746,84.366208,OZONE,6,84,26
India,Bihar,Bhagalpur,"DM Office_Kachari Chowk, Bhagalpur - BSPCB",27-01-2024 03:00:00,25.251013,86.989001,NO2,34,90,47
India,Bihar,Bhagalpur,"DM Office_Kachari Chowk, Bhagalpur - BSPCB",27-01-2024 03:00:00,25.251013,86.989001,CO,38,88,73
India,Bihar,Bhagalpur,"Mayaganj, Bhagalpur - BSPCB",27-01-2024 03:00:00,25.265194,87.012947,PM2.5,267,481,378
India,Bihar,Bhagalpur,"Mayaganj, Bhagalpur - BSPCB",27-01-2024 03:00:00,25.265194,87.012947,CO,7,10,9
India,Bihar,Bihar Sharif,"D M Colony, Bihar Sharif - BSPCB",27-01-2024 03:00:00,25.204762,85.514960,NO2,9,10,9
India,Bihar,Bihar Sharif,"D M Colony, Bihar Sharif - BSPCB",27-01-2024 03:00:00,25.204762,85.514960,OZONE,3,38,12
India,Bihar,Chhapra,"Darshan Nagar, Chhapra - BSPCB",27-01-2024 03:00:00,25.7808257,84.7446768,OZONE,1,2,1
India,Bihar,Gaya,"Collectorate, Gaya - BSPCB",27-01-2024 03:00:00,24.7955,84.9994,PM2.5,206,370,325
India,Bihar,Gaya,"Kareemganj, Gaya - BSPCB",27-01-2024 03:00:00,24.792403,84.992416,CO,1,98,41
India,Bihar,Gaya,"SFTI Kusdihra, Gaya - BSPCB",27-01-2024 03:00:00,24.762518,84.982348,PM2.5,110,291,222
India,Bihar,Gaya,"SFTI Kusdihra, Gaya - BSPCB",27-01-2024 03:00:00,24.762518,84.982348,NH3,4,6,5
India,Bihar,Hajipur,"Industrial Area, Hajipur - BSPCB",27-01-2024 03:00:00,25.697189,85.245900,PM2.5,128,224,177
India,Bihar,Hajipur,"Industrial Area, Hajipur - BSPCB",27-01-2024 03:00:00,25.697189,85.245900,PM10,175,268,206
India,Bihar,Katihar,"Mirchaibari, Katihar - BSPCB",27-01-2024 03:00:00,25.560083,87.553265,CO,28,32,30
India,Bihar,Kishanganj,"SDM Office_Khagra, Kishanganj - BSPCB",27-01-2024 03:00:00,26.0881305,87.93840336,OZONE,NA,NA,NA
India,Bihar,Manguraha,"Forest Rest House, Manguraha - BSPCB",27-01-2024 03:00:00,27.308328,84.531742,SO2,NA,NA,NA
India,Bihar,Manguraha,"Forest Rest House, Manguraha - BSPCB",27-01-2024 03:00:00,27.308328,84.531742,CO,2,10,5
India,Bihar,Motihari,"Gandak Colony, Motihari - BSPCB",27-01-2024 03:00:00,26.63086,84.90051,PM10,67,225,128
India,Bihar,Motihari,"Gandak Colony, Motihari - BSPCB",27-01-2024 03:00:00,26.63086,84.90051,NO2,60,90,75
India,Bihar,Munger,"Town Hall, Munger - BSPCB",27-01-2024 03:00:00,25.376776,86.471523,NO2,7,9,8
India,Bihar,Munger,"Town Hall, Munger - BSPCB",27-01-2024 03:00:00,25.376776,86.471523,SO2,28,44,37
India,Bihar,Muzaffarpur,"Buddha Colony, Muzaffarpur - BSPCB",27-01-2024 03:00:00,26.11442,85.39813,OZONE,40,81,67
India,Bihar,Muzaffarpur,"MIT-Daudpur Kothi, Muzaffarpur - BSPCB",27-01-2024 03:00:00,26.1403345,85.3650192,CO,14,120,84
India,Bihar,Muzaffarpur,"Muzaffarpur Collectorate, Muzaffarpur - BSPCB",27-01-2024 03:00:00,26.1209,85.3647,PM2.5,127,314,230
India,Bihar,Patna,"IGSC Planetarium Complex, Patna - BSPCB",27-01-2024 03:00:00,25.610369,85.132568,SO2,6,7,7
India,Bihar,Patna,"Muradpur, Patna - BSPCB",27-01-2024 03:00:00,25.619651,85.147382,PM10,390,474,427
India,Bihar,Patna,"Muradpur, Patna - BSPCB",27-01-2024 03:00:00,25.619651,85.147382,OZONE,10,73,15
India,Bihar,Patna,"Rajbansi Nagar, Patna - BSPCB",27-01-2024 03:00:00,25.599486,85.113666,NH3,5,13,9
India,Bihar,Patna,"Rajbansi Nagar, Patna - BSPCB",27-01-2024 03:00:00,25.599486,85.113666,SO2,9,15,13
India,Bihar,Patna,"Samanpura, Patna - BSPCB",27-01-2024 03:00:00,25.596727,85.085624,PM10,295,463,414
India,Bihar,Purnia,"Mariam Nagar, Purnia - BSPCB",27-01-2024 03:00:00,25.366336,87.117468,OZONE,10,25,13
India,Bihar,Rajgir,"Dangi Tola, Rajgir - BSPCB",27-01-2024 03:00:00,25.03280,85.41948,SO2,1,5,4
India,Bihar,Rajgir,"Dangi Tola, Rajgir - BSPCB",27-01-2024 03:00:00,25.03280,85.41948,OZONE,22,24,23
India,Bihar,Saharsa,"Police Line, Saharsa - BSPCB",27-01-2024 03:00:00,25.892357,86.590325,PM2.5,257,490,357
India,Bihar,Saharsa,"Police Line, Saharsa - BSPCB",27-01-2024 03:00:00,25.892357,86.590325,NH3,9,10,9
India,Bihar,Samastipur,"DM Office_Kasipur, Samastipur - BSPCB",27-01-2024 03:00:00,25.859655,85.77944,PM10,112,322,186
India,Bihar,Sasaram,"Dada Peer, Sasaram - BSPCB",27-01-2024 03:00:00,24.952822,84.002396,NH3,4,8,6
India,Bihar,Sasaram,"Dada Peer, Sasaram - BSPCB",27-01-2024 03:00:00,24.952822,84.002396,OZONE,4,5,4
India,Bihar,Siwan,"Chitragupta Nagar, Siwan - BSPCB",27-01-2024 03:00:00,26.2271665,84.3570427,NH3,2,13,4
India,Bihar,Siwan,"Chitragupta Nagar, Siwan - BSPCB",27-01-2024 03:00:00,26.2271665,84.3570427,SO2,10,37,29
India,Chandigarh,Chandigarh,"Sector-25, Chandigarh - CPCC",27-01-2024 03:00:00,30.751462,76.762879,PM2.5,NA,NA,NA
India,Chandigarh,Chandigarh,"Sector-25, Chandigarh - CPCC",27-01-2024 03:00:00,30.751462,76.762879,PM10,NA,NA,NA
India,Chandigarh,Chandigarh,"Sector-25, Chandigarh - CPCC",27-01-2024 03:00:00,30.751462,76.762879,NO2,NA,NA,NA
India,Chandigarh,Chandigarh,"Sector-25, Chandigarh - CPCC",27-01-2024 03:00:00,30.751462,76.762879,OZONE,1,4,3
India,Chandigarh,Chandigarh,"Sector-53, Chandigarh - CPCC",27-01-2024 03:00:00,30.719859,76.738637,PM2.5,NA,NA,NA
India,Chhattisgarh,Bhilai,"32Bungalows, Bhilai - CECB",27-01-2024 03:00:00,21.194815,81.314770,NO2,22,33,27
India,Chhattisgarh,Bhilai,"Civic Center, Bhilai - Bhilai Steel Plant",27-01-2024 03:00:00,21.185571,81.343175,NO2,8,21,15
India,Chhattisgarh,Bhilai,"Civic Center, Bhilai - Bhilai Steel Plant",27-01-2024 03:00:00,21.185571,81.343175,NH3,2,3,2
India,Chhattisgarh,Bhilai,"Civic Center, Bhilai - Bhilai Steel Plant",27-01-2024 03:00:00,21.185571,81.343175,SO2,8,12,10
India,Chhattisgarh,Bhilai,"Hathkhoj, Bhilai - CECB",27-01-2024 03:00:00,21.224231,81.408350,PM10,70,178,111
India,Chhattisgarh,Bilaspur,"Mangala, Bilaspur - NTPC",27-01-2024 03:00:00,22.08815,82.13737,PM2.5,35,217,80
India,Chhattisgarh,Chhal,"Nawapara SECL Colony, Chhal - CECB",27-01-2024 03:00:00,22.118125,83.140608,PM10,19,97,55
India,Chhattisgarh,Chhal,"Nawapara SECL Colony, Chhal - CECB",27-01-2024 03:00:00,22.118125,83.140608,NH3,2,2,2
India,Chhattisgarh,Chhal,"Nawapara SECL Colony, Chhal - CECB",27-01-2024 03:00:00,22.118125,83.140608,SO2,6,58,20
India,Chhattisgarh,Chhal,"Nawapara SECL Colony, Chhal - CECB",27-01-2024 03:00:00,22.118125,83.140608,OZONE,5,66,19
India,Chhattisgarh,Korba,"Rampur, Korba - CECB",27-01-2024 03:00:00,22.368195,82.746431,OZONE,2,82,6
India,Chhattisgarh,Korba,"Urja Nagar, Korba - CECB",27-01-2024 03:00:00,22.348441,82.549611,SO2,4,12,7
India,Chhattisgarh,Kunjemura,"OP Jindal School, Kunjemura - CECB",27-01-2024 03:00:00,22.126650,83.483212,PM10,34,500,224
India,Chhattisgarh,Milupara,"Govt. Higher Secondary School, Milupara - CECB",27-01-2024 03:00:00,22.1910172,83.5197009,PM10,18,108,47
India,Chhattisgarh,Milupara,"Govt. Higher Secondary School, Milupara - CECB",27-01-2024 03:00:00,22.1910172,83.5197009,SO2,9,17,12
India,Chhattisgarh,Raipur,"AIIMS, Raipur - CECB",27-01-2024 03:00:00,21.258815,81.578979,CO,26,57,40
India,Chhattisgarh,Raipur,"Bhatagaon New ISBT, Raipur - CECB",27-01-2024 03:00:00,21.219665,81.630094,NO2,50,80,65
India,Chhattisgarh,Raipur,"Bhatagaon New ISBT, Raipur - CECB",27-01-2024 03:00:00,21.219665,81.630094,SO2,NA,NA,NA
India,Chhattisgarh,Raipur,"Bhatagaon New ISBT, Raipur - CECB",27-01-2024 03:00:00,21.219665,81.630094,CO,26,106,71
India,Chhattisgarh,Raipur,"Krishak Nagar, Raipur - CECB",27-01-2024 03:00:00,21.237755,81.705301,NO2,23,42,36
India,Chhattisgarh,Raipur,"Krishak Nagar, Raipur - CECB",27-01-2024 03:00:00,21.237755,81.705301,OZONE,3,6,3
India,Chhattisgarh,Raipur,"Siltara Phase-II, Raipur - CECB",27-01-2024 03:00:00,21.371751,81.664929,PM2.5,29,76,45
India,Chhattisgarh,Raipur,"Siltara Phase-II, Raipur - CECB",27-01-2024 03:00:00,21.371751,81.664929,PM10,NA,NA,NA
India,Delhi,Delhi,"Alipur, Delhi - DPCC",27-01-2024 03:00:00,28.815329,77.153010,SO2,6,11,9
India,Delhi,Delhi,"Anand Vihar, Delhi - DPCC",27-01-2024 03:00:00,28.647622,77.3158090,NO2,101,231,149
India,Delhi,Delhi,"Anand Vihar, Delhi - DPCC",27-01-2024 03:00:00,28.647622,77.3158090,SO2,NA,NA,NA
India,Delhi,Delhi,"Aya Nagar, Delhi - IMD",27-01-2024 03:00:00,28.4706914,77.1099364,NO2,30,74,43
India,Delhi,Delhi,"Aya Nagar, Delhi - IMD",27-01-2024 03:00:00,28.4706914,77.1099364,OZONE,6,51,7
India,Delhi,Delhi,"Bawana, Delhi - DPCC",27-01-2024 03:00:00,28.776200,77.051074,PM2.5,312,455,374
India,Delhi,Delhi,"Bawana, Delhi - DPCC",27-01-2024 03:00:00,28.776200,77.051074,NH3,6,11,9
India,Delhi,Delhi,"DTU, Delhi - CPCB",27-01-2024 03:00:00,28.7500499,77.1112615,NH3,13,45,25
India,Delhi,Delhi,"Dr. Karni Singh Shooting Range, Delhi - DPCC",27-01-2024 03:00:00,28.498571,77.264840,NO2,40,123,78
India,Delhi,Delhi,"Dr. Karni Singh Shooting Range, Delhi - DPCC",27-01-2024 03:00:00,28.498571,77.264840,SO2,2,10,6
India,Delhi,Delhi,"Dwarka-Sector 8, Delhi - DPCC ",27-01-2024 03:00:00,28.5710274,77.0719006,PM10,151,500,396
India,Delhi,Delhi,"Dwarka-Sector 8, Delhi - DPCC ",27-01-2024 03:00:00,28.5710274,77.0719006,SO2,1,10,5
India,Delhi,Delhi,"IGI Airport (T3), Delhi - IMD",27-01-2024 03:00:00,28.5627763,77.1180053,PM10,138,499,362
India,Delhi,Delhi,"IHBAS, Dilshad Garden, Delhi - CPCB",27-01-2024 03:00:00,28.6811736,77.3025234,PM2.5,303,378,337
India,Delhi,Delhi,"IHBAS, Dilshad Garden, Delhi - CPCB",27-01-2024 03:00:00,28.6811736,77.3025234,NH3,1,10,4
India,Delhi,Delhi,"ITO, Delhi - CPCB",27-01-2024 03:00:00,28.628624,77.241060,PM10,199,425,292
India,Delhi,Delhi,"Jahangirpuri, Delhi - DPCC",27-01-2024 03:00:00,28.732820,77.170633,NO2,48,150,92
India,Delhi,Delhi,"Jahangirpuri, Delhi - DPCC",27-01-2024 03:00:00,28.732820,77.170633,SO2,20,48,26
India,Delhi,Delhi,"Jawaharlal Nehru Stadium, Delhi - DPCC",27-01-2024 03:00:00,28.580280,77.233829,NH3,1,4,2
India,Delhi,Delhi,"Jawaharlal Nehru Stadium, Delhi - DPCC",27-01-2024 03:00:00,28.580280,77.233829,SO2,1,51,13
India,Delhi,Delhi,"Lodhi Road, Delhi - IITM",27-01-2024 03:00:00,28.588333,77.221667,PM10,NA,NA,NA
India,Delhi,Delhi,"Lodhi Road, Delhi - IITM",27-01-2024 03:00:00,28.588333,77.221667,OZONE,NA,NA,NA
India,Delhi,Delhi,"Mandir Marg, Delhi - DPCC",27-01-2024 03:00:00,28.636429,77.201067,PM10,262,431,380
India,Delhi,Delhi,"Mundka, Delhi - DPCC",27-01-2024 03:00:00,28.684678,77.076574,PM2.5,346,500,444
India,Delhi,Delhi,"Mundka, Delhi - DPCC",27-01-2024 03:00:00,28.684678,77.076574,PM10,195,499,378
India,Delhi,Delhi,"Mundka, Delhi - DPCC",27-01-2024 03:00:00,28.684678,77.076574,NO2,38,117,79
India,Delhi,Delhi,"NSIT Dwarka, Delhi - CPCB",27-01-2024 03:00:00,28.60909,77.0325413,PM2.5,311,500,406
India,Delhi,Delhi,"NSIT Dwarka, Delhi - CPCB",27-01-2024 03:00:00,28.60909,77.0325413,NO2,23,75,44
India,Delhi,Delhi,"Najafgarh, Delhi - DPCC",27-01-2024 03:00:00,28.570173,76.933762,PM10,95,248,155
India,Delhi,Delhi,"Narela, Delhi - DPCC",27-01-2024 03:00:00,28.822836,77.101981,PM10,125,386,275
India,Delhi,Delhi,"Narela, Delhi - DPCC",27-01-2024 03:00:00,28.822836,77.101981,NO2,14,101,47
India,Delhi,Delhi,"Narela, Delhi - DPCC",27-01-2024 03:00:00,28.822836,77.101981,NH3,7,11,9
India,Delhi,Delhi,"Narela, Delhi - DPCC",27-01-2024 03:00:00,28.822836,77.101981,OZONE,5,175,22
India,Delhi,Delhi,"North Campus, DU, Delhi - IMD",27-01-2024 03:00:00,28.6573814,77.1585447,PM2.5,NA,NA,NA
India,Delhi,Delhi,"North Campus, DU, Delhi - IMD",27-01-2024 03:00:00,28.6573814,77.1585447,PM10,NA,NA,NA
India,Delhi,Delhi,"North Campus, DU, Delhi - IMD",27-01-2024 03:00:00,28.6573814,77.1585447,OZONE,NA,NA,NA
India,Delhi,Delhi,"Okhla Phase-2, Delhi - DPCC",27-01-2024 03:00:00,28.530785,77.271255,PM2.5,405,500,462
India,Delhi,Delhi,"Punjabi Bagh, Delhi - DPCC",27-01-2024 03:00:00,28.674045,77.131023,NO2,58,123,87
India,Delhi,Delhi,"Punjabi Bagh, Delhi - DPCC",27-01-2024 03:00:00,28.674045,77.131023,SO2,6,10,8
India,Delhi,Delhi,"R K Puram, Delhi - DPCC",27-01-2024 03:00:00,28.563262,77.186937,SO2,11,45,25
India,Delhi,Delhi,"Rohini, Delhi - DPCC",27-01-2024 03:00:00,28.732528,77.119920,PM2.5,289,500,421
India,Delhi,Delhi,"Rohini, Delhi - DPCC",27-01-2024 03:00:00,28.732528,77.119920,PM10,148,500,359
India,Delhi,Delhi,"Shadipur, Delhi - CPCB",27-01-2024 03:00:00,28.6514781,77.1473105,OZONE,4,55,17
India,Delhi,Delhi,"Sirifort, Delhi - CPCB",27-01-2024 03:00:00,28.5504249,77.2159377,PM2.5,395,500,449
India,Delhi,Delhi,"Sonia Vihar, Delhi - DPCC",27-01-2024 03:00:00,28.710508,77.249485,NH3,6,8,7
India,Delhi,Delhi,"Sri Aurobindo Marg, Delhi - DPCC",27-01-2024 03:00:00,28.531346,77.190156,PM2.5,339,500,419
India,Delhi,Delhi,"Sri Aurobindo Marg, Delhi - DPCC",27-01-2024 03:00:00,28.531346,77.190156,NO2,17,187,65
India,Delhi,Delhi,"Sri Aurobindo Marg, Delhi - DPCC",27-01-2024 03:00:00,28.531346,77.190156,SO2,11,16,13
India,Gujarat,Ahmedabad,"Chandkheda, Ahmedabad - IITM",27-01-2024 03:00:00,23.107969,72.574648,SO2,5,16,7
India,Gujarat,Ahmedabad,"Raikhad, Ahmedabad - IITM",27-01-2024 03:00:00,23.020509,72.579261,OZONE,9,14,11
India,Gujarat,Ahmedabad,"SAC ISRO Bopal, Ahmedabad - IITM",27-01-2024 03:00:00,23.041137,72.456691,NH3,3,4,4
India,Gujarat,Ahmedabad,"SVPI Airport Hansol, Ahmedabad - IITM",27-01-2024 03:00:00,23.076793,72.627874,SO2,5,17,12
India,Gujarat,Ahmedabad,"SVPI Airport Hansol, Ahmedabad - IITM",27-01-2024 03:00:00,23.076793,72.627874,CO,13,95,73
India,Gujarat,Ahmedabad,"Sardar Vallabhbhai Patel Stadium, Ahmedabad - IITM",27-01-2024 03:00:00,23.043070,72.562968,SO2,10,12,11
India,Gujarat,Ahmedabad,"Sardar Vallabhbhai Patel Stadium, Ahmedabad - IITM",27-01-2024 03:00:00,23.043070,72.562968,CO,9,97,69
India,Gujarat,Ahmedabad,"Sardar Vallabhbhai Patel Stadium, Ahmedabad - IITM",27-01-2024 03:00:00,23.043070,72.562968,OZONE,3,14,5
India,Gujarat,Gandhinagar,"GIFT City, Gandhinagar - IITM",27-01-2024 03:00:00,23.163798,72.677768,NO2,9,11,10
India,Gujarat,Gandhinagar,"GIFT City, Gandhinagar - IITM",27-01-2024 03:00:00,23.163798,72.677768,SO2,5,8,6
India,Gujarat,Gandhinagar,"GIFT City, Gandhinagar - IITM",27-01-2024 03:00:00,23.163798,72.677768,CO,28,46,40
India,Gujarat,Surat,"Science Center, Surat - SMC",27-01-2024 03:00:00,21.170046,72.795405,PM10,14,85,50
India,Gujarat,Surat,"Science Center, Surat - SMC",27-01-2024 03:00:00,21.170046,72.795405,CO,46,79,68
India,Gujarat,Vapi,"Phase-1 GIDC, Vapi - GPCB",27-01-2024 03:00:00,20.362421,72.918013,NH3,5,23,12
India,Haryana,Bahadurgarh,"Arya Nagar, Bahadurgarh - HSPCB",27-01-2024 03:00:00,28.6701,76.9254,NO2,34,40,36
India,Haryana,Bahadurgarh,"Arya Nagar, Bahadurgarh - HSPCB",27-01-2024 03:00:00,28.6701,76.9254,OZONE,38,49,45
India,Haryana,Ballabgarh,"Nathu Colony, Ballabgarh - HSPCB",27-01-2024 03:00:00,28.3419248,77.319699,PM10,135,239,181
India,Haryana,Bhiwani,"H.B. Colony, Bhiwani - HSPCB",27-01-2024 03:00:00,28.806223,76.141105,PM2.5,88,339,184
India,Haryana,Bhiwani,"H.B. Colony, Bhiwani - HSPCB",27-01-2024 03:00:00,28.806223,76.141105,CO,40,74,51
India,Haryana,Charkhi Dadri,"Mini Secretariat, Charkhi Dadri - HSPCB",27-01-2024 03:00:00,28.593883,76.270653,PM2.5,54,488,254
India,Haryana,Charkhi Dadri,"Mini Secretariat, Charkhi Dadri - HSPCB",27-01-2024 03:00:00,28.593883,76.270653,PM10,54,481,192
India,Haryana,Charkhi Dadri,"Mini Secretariat, Charkhi Dadri - HSPCB",27-01-2024 03:00:00,28.593883,76.270653,NH3,5,9,6
India,Haryana,Faridabad,"Sector 11, Faridabad - HSPCB",27-01-2024 03:00:00,28.376058,77.315741,SO2,8,9,8
India,Haryana,Faridabad,"Sector 11, Faridabad - HSPCB",27-01-2024 03:00:00,28.376058,77.315741,CO,58,98,80
India,Haryana,Faridabad,"Sector 30, Faridabad - HSPCB",27-01-2024 03:00:00,28.4417,77.3217,PM2.5,161,226,194
India,Haryana,Faridabad,"Sector 30, Faridabad - HSPCB",27-01-2024 03:00:00,28.4417,77.3217,SO2,4,6,4
India,Haryana,Faridabad,"Sector- 16A, Faridabad - HSPCB",27-01-2024 03:00:00,28.4088421,77.3099081,SO2,13,27,21
India,Haryana,Faridabad,"Sector- 16A, Faridabad - HSPCB",27-01-2024 03:00:00,28.4088421,77.3099081,CO,40,109,97
India,Haryana,Fatehabad,"Huda Sector, Fatehabad - HSPCB",27-01-2024 03:00:00,29.503664,75.467934,PM2.5,53,193,109
India,Haryana,Gurugram,"NISE Gwal Pahari, Gurugram - IMD",27-01-2024 03:00:00,28.422681,77.148944,PM10,146,402,222
India,Haryana,Gurugram,"NISE Gwal Pahari, Gurugram - IMD",27-01-2024 03:00:00,28.422681,77.148944,NO2,43,44,43
India,Haryana,Gurugram,"NISE Gwal Pahari, Gurugram - IMD",27-01-2024 03:00:00,28.422681,77.148944,CO,28,62,43
India,Haryana,Gurugram,"Sector-51, Gurugram - HSPCB",27-01-2024 03:00:00,28.4227,77.0667,PM10,148,408,277
India,Haryana,Gurugram,"Sector-51, Gurugram - HSPCB",27-01-2024 03:00:00,28.4227,77.0667,NH3,6,14,9
India,Haryana,Gurugram,"Sector-51, Gurugram - HSPCB",27-01-2024 03:00:00,28.4227,77.0667,CO,83,129,116
India,Haryana,Gurugram,"Teri Gram, Gurugram - HSPCB",27-01-2024 03:00:00,28.4275,77.1465,SO2,1,3,2
India,Haryana,Gurugram,"Teri Gram, Gurugram - HSPCB",27-01-2024 03:00:00,28.4275,77.1465,OZONE,10,36,32
India,Haryana,Hisar,"Urban Estate-II, Hisar - HSPCB",27-01-2024 03:00:00,29.140560,75.744941,PM10,70,339,150
India,Haryana,Hisar,"Urban Estate-II, Hisar - HSPCB",27-01-2024 03:00:00,29.140560,75.744941,NO2,7,10,8
India,Haryana,Hisar,"Urban Estate-II, Hisar - HSPCB",27-01-2024 03:00:00,29.140560,75.744941,NH3,3,4,3
India,Haryana,Hisar,"Urban Estate-II, Hisar - HSPCB",27-01-2024 03:00:00,29.140560,75.744941,OZONE,5,81,5
India,Haryana,Jind,"Police Lines, Jind - HSPCB",27-01-2024 03:00:00,29.307814,76.337619,CO,2,125,39
India,Haryana,Kaithal,"Rishi Nagar, Kaithal - HSPCB",27-01-2024 03:00:00,29.8006,76.4155,PM10,NA,NA,NA
India,Haryana,Kaithal,"Rishi Nagar, Kaithal - HSPCB",27-01-2024 03:00:00,29.8006,76.4155,SO2,NA,NA,NA
India,Haryana,Kaithal,"Rishi Nagar, Kaithal - HSPCB",27-01-2024 03:00:00,29.8006,76.4155,OZONE,1,8,8
India,Haryana,Karnal,"Sector-12, Karnal - HSPCB",27-01-2024 03:00:00,29.695300,77.002700,OZONE,30,60,60
India,Haryana,Mandikhera,"General Hospital, Mandikhera - HSPCB",27-01-2024 03:00:00,27.9002,76.9938,PM2.5,NA,NA,NA
India,Haryana,Mandikhera,"General Hospital, Mandikhera - HSPCB",27-01-2024 03:00:00,27.9002,76.9938,CO,82,105,98
India,Haryana,Manesar,"Sector-2 IMT, Manesar - HSPCB",27-01-2024 03:00:00,28.360699,76.936090,PM10,161,480,255
India,Haryana,Narnaul,"Shastri Nagar, Narnaul - HSPCB",27-01-2024 03:00:00,28.060249,76.113115,NO2,17,48,33
India,Haryana,Narnaul,"Shastri Nagar, Narnaul - HSPCB",27-01-2024 03:00:00,28.060249,76.113115,CO,14,36,30
India,Haryana,Panchkula,"Sector-6, Panchkula - HSPCB ",27-01-2024 03:00:00,30.7057778,76.8531805555555,SO2,11,12,12
India,Haryana,Panipat,"Sector-18, Panipat - HSPCB",27-01-2024 03:00:00,29.497973,76.993331,NH3,NA,NA,NA
India,Haryana,Rohtak,"MD University, Rohtak - HSPCB",27-01-2024 03:00:00,28.52123,76.37138,NO2,47,55,51
India,Haryana,Sirsa,"F-Block, Sirsa - HSPCB",27-01-2024 03:00:00,29.536400,75.015800,SO2,18,30,26
India,Jharkhand,Dhanbad,"Sardar Patel Nagar, Dhanbad - JSPCB",27-01-2024 03:00:00,23.80569,86.44268,SO2,10,14,12
India,Jharkhand,Dhanbad,"Sardar Patel Nagar, Dhanbad - JSPCB",27-01-2024 03:00:00,23.80569,86.44268,OZONE,9,17,11
India,Jharkhand,Pathardih,"Mohalbani Ghat, Pathardih - DMC",27-01-2024 03:00:00,23.669880,86.411725,PM2.5,8,257,93
India,Jharkhand,Pathardih,"Mohalbani Ghat, Pathardih - DMC",27-01-2024 03:00:00,23.669880,86.411725,CO,116,144,131
India,Karnataka,Bagalkot,"Vidayagiri, Bagalkot - KSPCB",27-01-2024 03:00:00,16.172806,75.659694,PM10,46,47,46
India,Karnataka,Bagalkot,"Vidayagiri, Bagalkot - KSPCB",27-01-2024 03:00:00,16.172806,75.659694,NH3,1,2,1
India,Karnataka,Bagalkot,"Vidayagiri, Bagalkot - KSPCB",27-01-2024 03:00:00,16.172806,75.659694,CO,26,58,40
India,Karnataka,Belgaum,"Ramteerth Nagar, Belgaum - KSPCB",27-01-2024 03:00:00,15.888653,74.541751,PM10,55,120,77
India,Karnataka,Bengaluru,"BTM Layout, Bengaluru - CPCB",27-01-2024 03:00:00,12.9135218,77.5950804,PM2.5,7,17,12
India,Karnataka,Bengaluru,"BTM Layout, Bengaluru - CPCB",27-01-2024 03:00:00,12.9135218,77.5950804,PM10,36,64,52
India,Karnataka,Bengaluru,"BTM Layout, Bengaluru - CPCB",27-01-2024 03:00:00,12.9135218,77.5950804,NH3,5,5,5
India,Karnataka,Bengaluru,"Bapuji Nagar, Bengaluru - KSPCB",27-01-2024 03:00:00,12.951913,77.539784,NH3,1,1,1
India,Karnataka,Bengaluru,"Bapuji Nagar, Bengaluru - KSPCB",27-01-2024 03:00:00,12.951913,77.539784,OZONE,10,11,10
India,Karnataka,Bengaluru,"City Railway Station, Bengaluru - KSPCB",27-01-2024 03:00:00,12.9756843,77.5660749,NO2,20,29,25
India,Karnataka,Bengaluru,"Hebbal, Bengaluru - KSPCB",27-01-2024 03:00:00,13.029152,77.585901,PM2.5,NA,NA,NA
India,Karnataka,Bengaluru,"Hebbal, Bengaluru - KSPCB",27-01-2024 03:00:00,13.029152,77.585901,NH3,NA,NA,NA
India,Karnataka,Bengaluru,"Hebbal, Bengaluru - KSPCB",27-01-2024 03:00:00,13.029152,77.585901,SO2,NA,NA,NA
India,Karnataka,Bengaluru,"Hombegowda Nagar, Bengaluru - KSPCB",27-01-2024 03:00:00,12.938539,77.590100,PM10,41,79,59
India,Karnataka,Bengaluru,"Hombegowda Nagar, Bengaluru - KSPCB",27-01-2024 03:00:00,12.938539,77.590100,OZONE,4,5,4
India,Karnataka,Bengaluru,"Jigani, Bengaluru - KSPCB",27-01-2024 03:00:00,12.7816279,77.6299145,NO2,36,37,37
India,Karnataka,Bengaluru,"Kasturi Nagar, Bengaluru - KSPCB",27-01-2024 03:00:00,13.003872,77.664217,CO,24,26,25
India,Karnataka,Bengaluru,"Kasturi Nagar, Bengaluru - KSPCB",27-01-2024 03:00:00,13.003872,77.664217,OZONE,42,89,51
India,Karnataka,Bengaluru,"Peenya, Bengaluru - CPCB",27-01-2024 03:00:00,13.0270199,77.494094,PM2.5,34,52,43
India,Karnataka,Bengaluru,"RVCE-Mailasandra, Bengaluru - KSPCB",27-01-2024 03:00:00,12.921418,77.502466,PM2.5,61,97,79
India,Karnataka,Bengaluru,"RVCE-Mailasandra, Bengaluru - KSPCB",27-01-2024 03:00:00,12.921418,77.502466,PM10,107,128,117
India,Karnataka,Bengaluru,"Silk Board, Bengaluru - KSPCB",27-01-2024 03:00:00,12.917348,77.622813,PM2.5,33,58,45
India,Karnataka,Bengaluru,"Silk Board, Bengaluru - KSPCB",27-01-2024 03:00:00,12.917348,77.622813,SO2,4,11,6
India,Karnataka,Bidar,"Naubad, Bidar - KSPCB",27-01-2024 03:00:00,17.930306,77.482194,CO,NA,NA,NA
India,Karnataka,Chamarajanagar,"Urban, Chamarajanagar - KSPCB",27-01-2024 03:00:00,11.55358,76.55521,PM2.5,23,31,30
India,Karnataka,Chamarajanagar,"Urban, Chamarajanagar - KSPCB",27-01-2024 03:00:00,11.55358,76.55521,PM10,44,46,45
India,Karnataka,Chikkaballapur,"Chikkaballapur Rural, Chikkaballapur - KSPCB",27-01-2024 03:00:00,13.428828,77.731418,NO2,6,12,8
India,Karnataka,Chikkaballapur,"Chikkaballapur Rural, Chikkaballapur - KSPCB",27-01-2024 03:00:00,13.428828,77.731418,CO,NA,NA,NA
India,Karnataka,Chikkamagaluru,"Kalyana Nagara, Chikkamagaluru - KSPCB",27-01-2024 03:00:00,13.328028,75.797056,PM10,36,70,51
India,Karnataka,Davanagere,"Devaraj Urs Badavane, Davanagere - KSPCB",27-01-2024 03:00:00,14.475800,75.905200,PM2.5,30,95,49
India,Karnataka,Davanagere,"Devaraj Urs Badavane, Davanagere - KSPCB",27-01-2024 03:00:00,14.475800,75.905200,OZONE,23,31,27
India,Karnataka,Dharwad,"Kalabhavan, Dharwad - KSPCB",27-01-2024 03:00:00,15.459706,75.008381,NH3,2,3,3
India,Karnataka,Gadag,"Panchal Nagar, Gadag - KSPCB",27-01-2024 03:00:00,15.411456,75.638133,NO2,5,22,12
India,Karnataka,Gadag,"Panchal Nagar, Gadag - KSPCB",27-01-2024 03:00:00,15.411456,75.638133,NH3,2,3,2
India,Karnataka,Gadag,"Panchal Nagar, Gadag - KSPCB",27-01-2024 03:00:00,15.411456,75.638133,SO2,8,12,10
India,Karnataka,Gadag,"Panchal Nagar, Gadag - KSPCB",27-01-2024 03:00:00,15.411456,75.638133,CO,48,54,49
India,Karnataka,Haveri,"Ashwini Nagar, Haveri - KSPCB",27-01-2024 03:00:00,14.791800,75.389600,PM10,54,54,54
India,Karnataka,Haveri,"Ashwini Nagar, Haveri - KSPCB",27-01-2024 03:00:00,14.791800,75.389600,NH3,3,5,3
India,Karnataka,Hubballi,"Deshpande Nagar, Hubballi - KSPCB",27-01-2024 03:00:00,15.351773,75.140726,NH3,7,8,7
India,Karnataka,Hubballi,"Deshpande Nagar, Hubballi - KSPCB",27-01-2024 03:00:00,15.351773,75.140726,SO2,16,16,16
India,Karnataka,Hubballi,"Lingaraj Nagar, Hubballi - KSPCB",27-01-2024 03:00:00,15.3714823,75.1160168,NO2,NA,NA,NA
India,Karnataka,Hubballi,"Lingaraj Nagar, Hubballi - KSPCB",27-01-2024 03:00:00,15.3714823,75.1160168,NH3,NA,NA,NA
India,Karnataka,Kalaburagi,"Lal Bahadur Shastri Nagar, Kalaburagi - KSPCB",27-01-2024 03:00:00,17.321993,76.822628,OZONE,23,81,49
India,Karnataka,Kalaburagi,"Mahatma Basaveswar Colony, Kalaburgi - KSPCB",27-01-2024 03:00:00,17.336318,76.847397,CO,36,84,57
India,Karnataka,Karwar,"KHB Colony, Karwar - KSPCB",27-01-2024 03:00:00,14.816666,74.141003,SO2,18,18,18
India,Karnataka,Karwar,"KHB Colony, Karwar - KSPCB",27-01-2024 03:00:00,14.816666,74.141003,CO,1,2,2
India,Karnataka,Koppal,"Diwator Nagar, Koppal - KSPCB",27-01-2024 03:00:00,15.347630,76.181767,SO2,67,87,75
India,Karnataka,Madikeri,"Stuart Hill, Madikeri - KSPCB",27-01-2024 03:00:00,12.415911,75.735050,PM2.5,31,72,52
India,Karnataka,Mangalore,"Kadri, Mangalore - KSPCB",27-01-2024 03:00:00,12.889250,74.853000,PM2.5,28,78,51
India,Karnataka,Mangalore,"Kadri, Mangalore - KSPCB",27-01-2024 03:00:00,12.889250,74.853000,PM10,25,83,59
India,Karnataka,Mysuru,"Hebbal 1st Stage, Mysuru - KSPCB",27-01-2024 03:00:00,12.21041,76.37376,NH3,1,3,2
India,Karnataka,Ramanagara,"Vijay Nagar, Ramanagara - KSPCB",27-01-2024 03:00:00,12.733409,77.298051,PM10,29,47,38
India,Karnataka,Ramanagara,"Vijay Nagar, Ramanagara - KSPCB",27-01-2024 03:00:00,12.733409,77.298051,NH3,1,1,1
India,Karnataka,Ramanagara,"Vijay Nagar, Ramanagara - KSPCB",27-01-2024 03:00:00,12.733409,77.298051,CO,18,34,23
India,Karnataka,Shivamogga,"Vinoba Nagara, Shivamogga - KSPCB",27-01-2024 03:00:00,13.940000,75.555917,NO2,10,28,19
India,Karnataka,Tumakuru,"Thimmalapura, Tumakuru - KSPCB",27-01-2024 03:00:00,13.377516,77.099072,PM10,72,155,105
India,Karnataka,Udupi,"Brahmagiri, Udupi - KSPCB",27-01-2024 03:00:00,13.34194444,74.74694444,PM10,20,56,33
India,Karnataka,Vijayapura,"Ibrahimpur, Vijayapura - KSPCB",27-01-2024 03:00:00,16.802639,75.722694,NO2,17,19,19
India,Karnataka,Vijayapura,"Ibrahimpur, Vijayapura - KSPCB",27-01-2024 03:00:00,16.802639,75.722694,NH3,2,2,2
India,Karnataka,Yadgir,"Collector Office, Yadgir - KSPCB",27-01-2024 03:00:00,16.7602,77.1428,SO2,6,35,19
India,Karnataka,Yadgir,"Collector Office, Yadgir - KSPCB",27-01-2024 03:00:00,16.7602,77.1428,OZONE,18,19,18
India,Kerala,Kannur,"Thavakkara, Kannur - Kerala PCB",27-01-2024 03:00:00,11.875000,75.373200,PM10,59,66,63
India,Kerala,Kannur,"Thavakkara, Kannur - Kerala PCB",27-01-2024 03:00:00,11.875000,75.373200,NO2,6,7,6
India,Kerala,Kannur,"Thavakkara, Kannur - Kerala PCB",27-01-2024 03:00:00,11.875000,75.373200,CO,30,34,33
India,Kerala,Thiruvananthapuram,"Kariavattom, Thiruvananthapuram - Kerala PCB",27-01-2024 03:00:00,8.563700,76.886500,PM2.5,70,84,78
India,Kerala,Thiruvananthapuram,"Plammoodu, Thiruvananthapuram - Kerala PCB",27-01-2024 03:00:00,8.5149093,76.9435879,PM10,39,86,61
India,Kerala,Thiruvananthapuram,"Plammoodu, Thiruvananthapuram - Kerala PCB",27-01-2024 03:00:00,8.5149093,76.9435879,SO2,4,18,10
India,Kerala,Thrissur,"Corporation Ground, Thrissur - Kerala PCB",27-01-2024 03:00:00,10.532400,76.215900,NO2,9,10,10
India,Madhya Pradesh,Bhopal,"Idgah Hills, Bhopal - MPPCB",27-01-2024 03:00:00,23.264759,77.381568,NO2,13,76,33
India,Madhya Pradesh,Bhopal,"Paryavaran Parisar, Bhopal - MPPCB",27-01-2024 03:00:00,23.210494,77.425409,SO2,19,26,23
India,Madhya Pradesh,Bhopal,"T T Nagar, Bhopal - MPPCB",27-01-2024 03:00:00,23.233584,77.400574,PM2.5,41,285,121
India,Madhya Pradesh,Bhopal,"T T Nagar, Bhopal - MPPCB",27-01-2024 03:00:00,23.233584,77.400574,NH3,1,4,2
India,Madhya Pradesh,Dewas,"Bhopal Chauraha, Dewas - MPPCB",27-01-2024 03:00:00,22.9682591,76.064118,NH3,3,3,3
India,Madhya Pradesh,Dewas,"Bhopal Chauraha, Dewas - MPPCB",27-01-2024 03:00:00,22.9682591,76.064118,SO2,9,74,40
India,Madhya Pradesh,Dewas,"Bhopal Chauraha, Dewas - MPPCB",27-01-2024 03:00:00,22.9682591,76.064118,OZONE,8,48,11
India,Madhya Pradesh,Gwalior,"City Center, Gwalior - MPPCB",27-01-2024 03:00:00,26.203442,78.193251,PM10,62,233,140
India,Madhya Pradesh,Gwalior,"City Center, Gwalior - MPPCB",27-01-2024 03:00:00,26.203442,78.193251,NH3,5,8,6
India,Madhya Pradesh,Gwalior,"City Center, Gwalior - MPPCB",27-01-2024 03:00:00,26.203442,78.193251,SO2,16,35,28
India,Madhya Pradesh,Gwalior,"Deen Dayal Nagar, Gwalior - MPPCB",27-01-2024 03:00:00,26.259242,78.216432,PM2.5,66,398,233
India,Madhya Pradesh,Gwalior,"Deen Dayal Nagar, Gwalior - MPPCB",27-01-2024 03:00:00,26.259242,78.216432,NH3,10,14,12
India,Madhya Pradesh,Gwalior,"Deen Dayal Nagar, Gwalior - MPPCB",27-01-2024 03:00:00,26.259242,78.216432,SO2,15,18,17
India,Madhya Pradesh,Gwalior,"Maharaj Bada, Gwalior - MPPCB",27-01-2024 03:00:00,26.200388,78.147714,SO2,10,19,13
India,Madhya Pradesh,Gwalior,"Phool Bagh, Gwalior - Mondelez Ind. Food",27-01-2024 03:00:00,26.210536,78.171,PM10,11,158,98
India,Madhya Pradesh,Indore,"Chhoti Gwaltoli, Indore - MPPCB",27-01-2024 03:00:00,22.4310,75.5213,OZONE,10,131,15
India,Madhya Pradesh,Indore,"Maguda Nagar, Indore - IMC",27-01-2024 03:00:00,22.7524,75.8872,PM2.5,33,305,102
India,Madhya Pradesh,Indore,"Maguda Nagar, Indore - IMC",27-01-2024 03:00:00,22.7524,75.8872,SO2,20,26,23
India,Madhya Pradesh,Indore,"Maguda Nagar, Indore - IMC",27-01-2024 03:00:00,22.7524,75.8872,CO,19,64,33
India,Madhya Pradesh,Indore,"Regional Park, Indore - IMC",27-01-2024 03:00:00,22.6780,75.8559,PM10,NA,NA,NA
India,Madhya Pradesh,Indore,"Residency Area, Indore - IMC",27-01-2024 03:00:00,22.7084,75.8815,PM10,29,155,68
India,Madhya Pradesh,Indore,"Residency Area, Indore - IMC",27-01-2024 03:00:00,22.7084,75.8815,SO2,23,26,24
India,Madhya Pradesh,Jabalpur,"Govindh Bhavan Colony, Jabalpur - JMC",27-01-2024 03:00:00,23.163174,79.973061,PM2.5,22,62,41
India,Madhya Pradesh,Jabalpur,"Gupteshwar, Jabalpur - JMC",27-01-2024 03:00:00,23.142888,79.916147,PM10,30,222,75
India,Madhya Pradesh,Jabalpur,"Gupteshwar, Jabalpur - JMC",27-01-2024 03:00:00,23.142888,79.916147,SO2,5,83,18
India,Madhya Pradesh,Jabalpur,"Gupteshwar, Jabalpur - JMC",27-01-2024 03:00:00,23.142888,79.916147,CO,20,147,94
India,Madhya Pradesh,Jabalpur,"Marhatal, Jabalpur - MPPCB",27-01-2024 03:00:00,23.168606,79.932247,NO2,32,127,66
India,Madhya Pradesh,Jabalpur,"Marhatal, Jabalpur - MPPCB",27-01-2024 03:00:00,23.168606,79.932247,SO2,17,34,20
India,Madhya Pradesh,Katni,"Gole Bazar, Katni - MPPCB",27-01-2024 03:00:00,23.50016,80.23284,SO2,15,61,26
India,Madhya Pradesh,Maihar,"Sahilara, Maihar - KJS Cements",27-01-2024 03:00:00,24.2613009,80.7231783,PM2.5,35,85,52
India,Madhya Pradesh,Ratlam,"Shasthri Nagar, Ratlam - IPCA Lab",27-01-2024 03:00:00,23.331731,75.045981,PM10,83,242,132
India,Madhya Pradesh,Ratlam,"Shasthri Nagar, Ratlam - IPCA Lab",27-01-2024 03:00:00,23.331731,75.045981,NO2,6,71,30
India,Madhya Pradesh,Ratlam,"Shasthri Nagar, Ratlam - IPCA Lab",27-01-2024 03:00:00,23.331731,75.045981,SO2,13,19,14
India,Madhya Pradesh,Sagar,"Civil Lines, Sagar - MPPCB",27-01-2024 03:00:00,23.838586,78.759431,NH3,2,3,2
India,Madhya Pradesh,Sagar,"Civil Lines, Sagar - MPPCB",27-01-2024 03:00:00,23.838586,78.759431,SO2,3,7,4
India,Madhya Pradesh,Sagar,"Civil Lines, Sagar - MPPCB",27-01-2024 03:00:00,23.838586,78.759431,OZONE,40,44,41
India,Madhya Pradesh,Satna,"Bandhavgar Colony, Satna - Birla Cement",27-01-2024 03:00:00,24.58434363,80.8549414,OZONE,57,90,79
India,Madhya Pradesh,Singrauli,"Suryakiran Bhawan NCL, Singrauli - MPPCB",27-01-2024 03:00:00,24.108970,82.645580,PM10,40,381,163
India,Madhya Pradesh,Singrauli,"Suryakiran Bhawan NCL, Singrauli - MPPCB",27-01-2024 03:00:00,24.108970,82.645580,CO,50,121,86
India,Madhya Pradesh,Ujjain,"Mahakaleshwar Temple, Ujjain - MPPCB",27-01-2024 03:00:00,23.182719 ,75.768218 ,PM10,36,124,80
India,Maharashtra,Ahmednagar,"Tarakpur, Ahmednagar - MPCB",27-01-2024 03:00:00,19.10122,74.73339,NH3,2,3,3
India,Maharashtra,Ahmednagar,"Tarakpur, Ahmednagar - MPCB",27-01-2024 03:00:00,19.10122,74.73339,SO2,12,17,15
India,Maharashtra,Akola,"Ramdaspeth, Akola - MPCB",27-01-2024 03:00:00,20.719516,77.000253,OZONE,6,79,16
India,Maharashtra,Amravati,"Shri Shivaji Science College, Amaravati - MPCB",27-01-2024 03:00:00,20.939198,77.765701,OZONE,16,26,22
India,Maharashtra,Aurangabad,"Rachnakar Colony, Aurangabad - MPCB",27-01-2024 03:00:00,19.863756,75.321188,CO,16,91,49
India,Maharashtra,Belapur,"CBD Belapur, Belapur - MPCB",27-01-2024 03:00:00,19.0243902,73.0406721,PM2.5,81,183,112
India,Maharashtra,Belapur,"CBD Belapur, Belapur - MPCB",27-01-2024 03:00:00,19.0243902,73.0406721,PM10,134,196,157
India,Maharashtra,Belapur,"CBD Belapur, Belapur - MPCB",27-01-2024 03:00:00,19.0243902,73.0406721,NO2,29,82,59
India,Maharashtra,Belapur,"CBD Belapur, Belapur - MPCB",27-01-2024 03:00:00,19.0243902,73.0406721,CO,30,80,54
India,Maharashtra,Dhule,"Deopur, Dhule - MPCB",27-01-2024 03:00:00,20.918946,74.776388,NO2,13,37,20
India,Maharashtra,Dhule,"Deopur, Dhule - MPCB",27-01-2024 03:00:00,20.918946,74.776388,SO2,1,24,12
India,Maharashtra,Jalgaon,"Prabhat Colony, Jalgaon - MPCB",27-01-2024 03:00:00,21.001264,75.565602,PM10,47,352,128
India,Maharashtra,Jalgaon,"Prabhat Colony, Jalgaon - MPCB",27-01-2024 03:00:00,21.001264,75.565602,OZONE,4,99,29
India,Maharashtra,Kalyan,"Khadakpada, Kalyan - MPCB",27-01-2024 03:00:00,19.25292,73.142019,CO,8,76,49
India,Maharashtra,Kolhapur,"Shivaji University, Kolhapur - MPCB",27-01-2024 03:00:00,16.6870449,74.2505872,CO,62,116,100
India,Maharashtra,Kolhapur,"Sinchan Bhavan, Kolhapur - MPCB",27-01-2024 03:00:00,16.7143745,74.2426398,NO2,22,107,53
India,Maharashtra,Kolhapur,"Sinchan Bhavan, Kolhapur - MPCB",27-01-2024 03:00:00,16.7143745,74.2426398,OZONE,2,148,51
India,Maharashtra,Mahad,"Kamble Tarf Birwadi, Mahad - MPCB",27-01-2024 03:00:00,18.1023399,73.4783687,PM10,71,110,95
India,Maharashtra,Mahad,"Kamble Tarf Birwadi, Mahad - MPCB",27-01-2024 03:00:00,18.1023399,73.4783687,NH3,5,6,5
India,Maharashtra,Malegaon,"Mahesh Nagar, Malegaon - MPCB",27-01-2024 03:00:00,20.555712,74.529236,PM10,72,228,134
India,Maharashtra,Mumbai,"Bandra Kurla Complex, Mumbai - MPCB",27-01-2024 03:00:00,19.065931,72.862131,PM10,54,151,97
India,Maharashtra,Mumbai,"Borivali East, Mumbai - IITM",27-01-2024 03:00:00,19.23241,72.86895,NH3,3,4,3
India,Maharashtra,Mumbai,"Borivali East, Mumbai - MPCB",27-01-2024 03:00:00,19.2243333,72.8658113,PM2.5,28,87,54
India,Maharashtra,Mumbai,"Borivali East, Mumbai - MPCB",27-01-2024 03:00:00,19.2243333,72.8658113,NH3,1,2,1
India,Maharashtra,Mumbai,"Chhatrapati Shivaji Intl. Airport (T2), Mumbai - MPCB",27-01-2024 03:00:00,19.10078,72.87462,PM2.5,25,73,38
India,Maharashtra,Mumbai,"Chhatrapati Shivaji Intl. Airport (T2), Mumbai - MPCB",27-01-2024 03:00:00,19.10078,72.87462,NH3,4,9,7
India,Maharashtra,Mumbai,"Colaba, Mumbai - MPCB",27-01-2024 03:00:00,18.910000,72.820000,PM2.5,39,95,74
India,Maharashtra,Mumbai,"Deonar, Mumbai - IITM",27-01-2024 03:00:00,19.04946,72.9230,NO2,20,45,29
India,Maharashtra,Mumbai,"Deonar, Mumbai - IITM",27-01-2024 03:00:00,19.04946,72.9230,CO,5,105,76
India,Maharashtra,Mumbai,"Ghatkopar, Mumbai - BMC",27-01-2024 03:00:00,19.083694,72.920967,CO,14,44,30
India,Maharashtra,Mumbai,"Kandivali East, Mumbai - MPCB",27-01-2024 03:00:00,19.205800,72.868200,PM10,60,165,93
India,Maharashtra,Mumbai,"Kandivali East, Mumbai - MPCB",27-01-2024 03:00:00,19.205800,72.868200,OZONE,24,31,29
India,Maharashtra,Mumbai,"Kandivali West, Mumbai - BMC",27-01-2024 03:00:00,19.215859,72.831718,NO2,21,101,52
India,Maharashtra,Mumbai,"Kherwadi_Bandra East, Mumbai - MPCB",27-01-2024 03:00:00,19.0632143,72.8456324,SO2,23,79,34
India,Maharashtra,Mumbai,"Khindipada-Bhandup West, Mumbai - IITM",27-01-2024 03:00:00,19.1653323,72.922099,NO2,2,21,5
India,Maharashtra,Mumbai,"Khindipada-Bhandup West, Mumbai - IITM",27-01-2024 03:00:00,19.1653323,72.922099,SO2,1,3,1
India,Maharashtra,Mumbai,"Mulund West, Mumbai - MPCB",27-01-2024 03:00:00,19.1750,72.9419,PM2.5,37,80,53
India,Maharashtra,Mumbai,"Mulund West, Mumbai - MPCB",27-01-2024 03:00:00,19.1750,72.9419,PM10,63,115,92
India,Maharashtra,Mumbai,"Powai, Mumbai - MPCB",27-01-2024 03:00:00,19.137500,72.915056,PM2.5,42,74,56
India,Maharashtra,Mumbai,"Powai, Mumbai - MPCB",27-01-2024 03:00:00,19.137500,72.915056,OZONE,22,52,29
India,Maharashtra,Mumbai,"Sewri, Mumbai - BMC",27-01-2024 03:00:00,19.000084,72.856730,PM2.5,67,197,126
India,Maharashtra,Mumbai,"Sewri, Mumbai - BMC",27-01-2024 03:00:00,19.000084,72.856730,PM10,87,171,122
India,Maharashtra,Mumbai,"Sewri, Mumbai - BMC",27-01-2024 03:00:00,19.000084,72.856730,NH3,3,16,11
India,Maharashtra,Mumbai,"Sewri, Mumbai - BMC",27-01-2024 03:00:00,19.000084,72.856730,OZONE,1,254,58
India,Maharashtra,Mumbai,"Siddharth Nagar-Worli, Mumbai - IITM",27-01-2024 03:00:00,19.000083,72.813993,NH3,2,6,4
India,Maharashtra,Mumbai,"Sion, Mumbai - MPCB",27-01-2024 03:00:00,19.047000,72.874600,PM2.5,49,158,81
India,Maharashtra,Mumbai,"Vasai West, Mumbai - MPCB",27-01-2024 03:00:00,19.383200,72.820400,NH3,4,4,4
India,Maharashtra,Mumbai,"Vasai West, Mumbai - MPCB",27-01-2024 03:00:00,19.383200,72.820400,CO,15,42,34
India,Maharashtra,Mumbai,"Vile Parle West, Mumbai - MPCB",27-01-2024 03:00:00,19.10861,72.83622,PM10,51,120,79
India,Maharashtra,Mumbai,"Vile Parle West, Mumbai - MPCB",27-01-2024 03:00:00,19.10861,72.83622,NH3,2,10,8
India,Maharashtra,Mumbai,"Vile Parle West, Mumbai - MPCB",27-01-2024 03:00:00,19.10861,72.83622,SO2,13,14,14
India,Maharashtra,Mumbai,"Worli, Mumbai - MPCB",27-01-2024 03:00:00,18.9936162,72.8128113,NO2,20,22,22
India,Maharashtra,Mumbai,"Worli, Mumbai - MPCB",27-01-2024 03:00:00,18.9936162,72.8128113,NH3,1,1,1
India,Maharashtra,Nagpur,"Ambazari, Nagpur - MPCB",27-01-2024 03:00:00,21.121801,79.04952,PM10,103,334,143
India,Maharashtra,Nagpur,"Ambazari, Nagpur - MPCB",27-01-2024 03:00:00,21.121801,79.04952,NH3,1,14,4
India,Maharashtra,Nagpur,"Opp GPO Civil Lines, Nagpur - MPCB",27-01-2024 03:00:00,21.152875,79.0517531,NH3,1,6,2
India,Maharashtra,Nashik,"Gangapur Road, Nashik - MPCB",27-01-2024 03:00:00,20.0073285,73.7762427,PM10,69,298,133
India,Maharashtra,Nashik,"Gangapur Road, Nashik - MPCB",27-01-2024 03:00:00,20.0073285,73.7762427,SO2,1,44,10
India,Maharashtra,Nashik,"Hirawadi, Nashik - MPCB",27-01-2024 03:00:00,20.021503,73.813844,PM10,49,125,90
India,Maharashtra,Nashik,"Hirawadi, Nashik - MPCB",27-01-2024 03:00:00,20.021503,73.813844,NH3,1,2,1
India,Maharashtra,Nashik,"Hirawadi, Nashik - MPCB",27-01-2024 03:00:00,20.021503,73.813844,CO,11,90,45
India,Maharashtra,Nashik,"MIDC Ambad, Nashik - MPCB",27-01-2024 03:00:00,19.950220,73.731480,NO2,7,108,40
India,Maharashtra,Nashik,"MIDC Ambad, Nashik - MPCB",27-01-2024 03:00:00,19.950220,73.731480,NH3,2,3,2
India,Maharashtra,Nashik,"Pandav Nagari, Nashik - MPCB",27-01-2024 03:00:00,19.9591346,73.7788008,NH3,7,11,8
India,Maharashtra,Nashik,"Pandav Nagari, Nashik - MPCB",27-01-2024 03:00:00,19.9591346,73.7788008,CO,35,105,79
India,Maharashtra,Navi Mumbai,"Kopripada-Vashi, Navi Mumbai - MPCB",27-01-2024 03:00:00,19.090337,73.014232,PM10,72,143,102
India,Maharashtra,Navi Mumbai,"Nerul, Navi Mumbai - MPCB",27-01-2024 03:00:00,19.008751,73.016620,CO,54,98,67
India,Maharashtra,Navi Mumbai,"Sanpada, Navi Mumbai - MPCB",27-01-2024 03:00:00,19.0575752,73.0151367,PM10,79,195,136
India,Maharashtra,Navi Mumbai,"Sanpada, Navi Mumbai - MPCB",27-01-2024 03:00:00,19.0575752,73.0151367,NH3,11,67,35
India,Maharashtra,Navi Mumbai,"Sanpada, Navi Mumbai - MPCB",27-01-2024 03:00:00,19.0575752,73.0151367,SO2,8,37,18
India,Maharashtra,Navi Mumbai,"Sector-2E Kalamboli, Navi Mumbai - MPCB",27-01-2024 03:00:00,19.02579,73.10297,NH3,14,25,20
India,Maharashtra,Navi Mumbai,"Sector-2E Kalamboli, Navi Mumbai - MPCB",27-01-2024 03:00:00,19.02579,73.10297,CO,10,102,85
India,Maharashtra,Navi Mumbai,"Tondare-Taloja, Navi Mumbai - MPCB",27-01-2024 03:00:00,19.0630,73.1209,NH3,3,10,6
India,Maharashtra,Navi Mumbai,"Tondare-Taloja, Navi Mumbai - MPCB",27-01-2024 03:00:00,19.0630,73.1209,SO2,17,89,38
India,Maharashtra,Navi Mumbai,"Tondare-Taloja, Navi Mumbai - MPCB",27-01-2024 03:00:00,19.0630,73.1209,OZONE,1,201,30
India,Maharashtra,Parbhani,"Masoom Colony, Parbhani - MPCB",27-01-2024 03:00:00,19.265594,76.761463,CO,28,129,54
India,Maharashtra,Pimpri-Chinchwad,"Gavalinagar, Pimpri Chinchwad - MPCB",27-01-2024 03:00:00,18.63673,73.82487,NO2,9,120,62
India,Maharashtra,Pimpri-Chinchwad,"Gavalinagar, Pimpri Chinchwad - MPCB",27-01-2024 03:00:00,18.63673,73.82487,CO,20,106,74
India,Maharashtra,Pimpri-Chinchwad,"Gavalinagar, Pimpri Chinchwad - MPCB",27-01-2024 03:00:00,18.63673,73.82487,OZONE,1,218,21
India,Maharashtra,Pimpri-Chinchwad,"Park Street Wakad, Pimpri Chinchwad - MPCB",27-01-2024 03:00:00,18.59051,73.77946,CO,19,111,86
India,Maharashtra,Pimpri-Chinchwad,"Thergaon, Pimpri Chinchwad - MPCB",27-01-2024 03:00:00,18.616318,73.765797,SO2,4,15,8
India,Maharashtra,Pimpri-Chinchwad,"Thergaon, Pimpri Chinchwad - MPCB",27-01-2024 03:00:00,18.616318,73.765797,OZONE,1,183,26
India,Maharashtra,Pune,"Alandi, Pune - IITM",27-01-2024 03:00:00,18.675076,73.892743,PM10,47,162,104
India,Maharashtra,Pune,"Bhosari, Pune - IITM",27-01-2024 03:00:00,18.640051,73.848956,PM10,76,291,151
India,Maharashtra,Pune,"Karve Road, Pune - MPCB",27-01-2024 03:00:00,18.5011743,73.8165527,PM2.5,96,96,96
India,Maharashtra,Pune,"Karve Road, Pune - MPCB",27-01-2024 03:00:00,18.5011743,73.8165527,NO2,2,2,2
India,Maharashtra,Pune,"Katraj Dairy, Pune - MPCB",27-01-2024 03:00:00,18.454450,73.854155,NH3,3,7,5
India,Maharashtra,Pune,"Katraj Dairy, Pune - MPCB",27-01-2024 03:00:00,18.454450,73.854155,SO2,2,19,10
India,Maharashtra,Pune,"Mhada Colony, Pune - IITM",27-01-2024 03:00:00,18.573040,73.927715,PM2.5,70,270,160
India,Maharashtra,Pune,"Mhada Colony, Pune - IITM",27-01-2024 03:00:00,18.573040,73.927715,NO2,10,70,45
India,Maharashtra,Pune,"Revenue Colony-Shivajinagar, Pune - IITM",27-01-2024 03:00:00,18.530085,73.849598,PM2.5,64,301,170
India,Maharashtra,Pune,"Revenue Colony-Shivajinagar, Pune - IITM",27-01-2024 03:00:00,18.530085,73.849598,PM10,79,175,129
India,Maharashtra,Pune,"Savitribai Phule Pune University, Pune - MPCB",27-01-2024 03:00:00,18.547056,73.826908,PM10,74,198,142
India,Maharashtra,Pune,"Savitribai Phule Pune University, Pune - MPCB",27-01-2024 03:00:00,18.547056,73.826908,CO,14,68,43
India,Maharashtra,Pune,"Transport Nagar-Nigdi, Pune - IITM",27-01-2024 03:00:00,18.664282,73.763966,PM2.5,26,196,108
India,Maharashtra,Sangli,"Vijay Nagar, Sangli - MPCB",27-01-2024 03:00:00, 16.5038,74.3623,NO2,11,85,36
India,Maharashtra,Solapur,"Ratandeep Housing Society, Solapur - MPCB",27-01-2024 03:00:00,17.65439,75.90649,PM2.5,85,310,143
India,Maharashtra,Solapur,"Ratandeep Housing Society, Solapur - MPCB",27-01-2024 03:00:00,17.65439,75.90649,OZONE,1,38,15
India,Maharashtra,Thane,"Upvan Fort, Thane - MPCB",27-01-2024 03:00:00,19.222279,72.957979,PM10,112,170,136
India,Maharashtra,Ulhasnagar,"Sidhi Vinayak Nagar, Ulhasnagar - MPCB",27-01-2024 03:00:00,19.235581,73.159121,PM2.5,56,315,177
India,Maharashtra,Ulhasnagar,"Sidhi Vinayak Nagar, Ulhasnagar - MPCB",27-01-2024 03:00:00,19.235581,73.159121,NO2,10,85,35
India,Maharashtra,Ulhasnagar,"Sidhi Vinayak Nagar, Ulhasnagar - MPCB",27-01-2024 03:00:00,19.235581,73.159121,CO,10,129,96
India,Maharashtra,Virar,"Bolinj, Virar - MPCB",27-01-2024 03:00:00,19.4458210,72.7988231,NO2,13,95,45
India,Manipur,Imphal,"DM College of Science, Imphal - Manipur PCB",27-01-2024 03:00:00,24.8207389,93.9423085,SO2,78,83,81
India,Manipur,Imphal,"DM College of Science, Imphal - Manipur PCB",27-01-2024 03:00:00,24.8207389,93.9423085,CO,6,6,6
India,Meghalaya,Shillong,"JN Stadium, Shillong - Meghalaya PCB",27-01-2024 03:00:00,25.5803419,91.8942571,NO2,12,58,32
India,Meghalaya,Shillong,"Lumpyngngad, Shillong - Meghalaya PCB",27-01-2024 03:00:00,25.5586,91.8985,NH3,1,1,1
India,Mizoram,Aizawl,"Sikulpuikawn, Aizawl - Mizoram PCB",27-01-2024 03:00:00,23.7176342,92.7192841,PM2.5,26,71,42
India,Mizoram,Aizawl,"Sikulpuikawn, Aizawl - Mizoram PCB",27-01-2024 03:00:00,23.7176342,92.7192841,PM10,33,81,53
India,Mizoram,Aizawl,"Sikulpuikawn, Aizawl - Mizoram PCB",27-01-2024 03:00:00,23.7176342,92.7192841,NO2,1,2,1
India,Mizoram,Aizawl,"Sikulpuikawn, Aizawl - Mizoram PCB",27-01-2024 03:00:00,23.7176342,92.7192841,NH3,NA,NA,NA
India,Mizoram,Aizawl,"Sikulpuikawn, Aizawl - Mizoram PCB",27-01-2024 03:00:00,23.7176342,92.7192841,OZONE,16,31,21
India,Nagaland,Kohima,"PWD Juction, Kohima - NPCB",27-01-2024 03:00:00,25.6635413,94.0989878,NO2,3,4,3
India,Nagaland,Kohima,"PWD Juction, Kohima - NPCB",27-01-2024 03:00:00,25.6635413,94.0989878,OZONE,11,22,13
India,Odisha,Angul,"Hakimapada, Angul - OSPCB",27-01-2024 03:00:00,20.832874,85.104082,OZONE,2,161,38
India,Odisha,Balasore,"Kalidaspur, Balasore - OSPCB",27-01-2024 03:00:00,21.51161,86.89088,PM2.5,213,474,323
India,Odisha,Barbil,"Forest Office, Barbil - OSPCB",27-01-2024 03:00:00,22.1166054,85.3945546,PM2.5,42,310,126
India,Odisha,Baripada,"Meher Colony, Baripada - OSPCB",27-01-2024 03:00:00,21.941841,86.728318,NH3,3,4,4
India,Odisha,Bhubaneswar,"Lingraj Mandir, Bhubaneswar - OSPCB",27-01-2024 03:00:00,20.240790,85.836784,CO,24,125,83
India,Odisha,Bhubaneswar,"Patia, Bhubaneswar - OSPCB",27-01-2024 03:00:00,20.34652,85.81630,SO2,6,43,19
India,Odisha,Bileipada,"Tata Township, Bileipada - OSPCB",27-01-2024 03:00:00,22.06156703,85.47409613,PM2.5,96,302,196
India,Odisha,Bileipada,"Tata Township, Bileipada - OSPCB",27-01-2024 03:00:00,22.06156703,85.47409613,PM10,106,346,224
India,Odisha,Bileipada,"Tata Township, Bileipada - OSPCB",27-01-2024 03:00:00,22.06156703,85.47409613,SO2,33,102,44
India,Odisha,Brajrajnagar,"GM Office, Brajrajnagar - OSPCB",27-01-2024 03:00:00,21.8004996,83.8396977,PM10,33,172,79
India,Odisha,Byasanagar,"Ferro Chrome Colony, Byasanagar - OSPCB",27-01-2024 03:00:00,20.94185,86.11510,NH3,2,4,3
India,Odisha,Byasanagar,"Ferro Chrome Colony, Byasanagar - OSPCB",27-01-2024 03:00:00,20.94185,86.11510,CO,36,119,97
India,Odisha,Byasanagar,"Ferro Chrome Colony, Byasanagar - OSPCB",27-01-2024 03:00:00,20.94185,86.11510,OZONE,19,144,33
India,Odisha,Cuttack,"CDA Area, Cuttack - OSPCB",27-01-2024 03:00:00,20.48891     ,85.84768     ,PM2.5,173,365,273
India,Odisha,Rairangpur,"Divisional Forest Office, Rairangpur - OSPCB",27-01-2024 03:00:00,22.265816,86.174829,CO,18,52,39
India,Odisha,Rourkela,"Raghunathpali, Rourkela - OSPCB",27-01-2024 03:00:00,22.220833,84.809444,CO,30,96,52
India,Odisha,Suakati,"OMC Colony, Suakati - OSPCB",27-01-2024 03:00:00,21.606865,85.510538,CO,14,24,20
India,Odisha,Suakati,"OMC Colony, Suakati - OSPCB",27-01-2024 03:00:00,21.606865,85.510538,OZONE,33,143,52
India,Odisha,Talcher,"Talcher Coalfields,Talcher - OSPCB",27-01-2024 03:00:00,20.9360711,85.1707021,PM2.5,28,433,290
India,Odisha,Talcher,"Talcher Coalfields,Talcher - OSPCB",27-01-2024 03:00:00,20.9360711,85.1707021,CO,18,126,109
India,Odisha,Talcher,"Talcher Coalfields,Talcher - OSPCB",27-01-2024 03:00:00,20.9360711,85.1707021,OZONE,1,9,4
India,Odisha,Tensa,"Barsua Iron Ore Mines, Tensa - OSPCB",27-01-2024 03:00:00,21.869985,85.167016,NH3,8,13,10
India,Puducherry,Puducherry,"Jawahar Nagar, Puducherry - PPCC",27-01-2024 03:00:00,11.9309,79.8027,PM10,35,75,47
India,Puducherry,Puducherry,"Jawahar Nagar, Puducherry - PPCC",27-01-2024 03:00:00,11.9309,79.8027,NH3,2,3,2
India,Punjab,Amritsar,"Golden Temple, Amritsar - PPCB",27-01-2024 03:00:00,31.620000,74.876512,NH3,5,18,10
India,Punjab,Khanna,"Kalal Majra, Khanna - PPCB",27-01-2024 03:00:00,30.736056 ,76.209694,PM10,47,106,85
India,Punjab,Ludhiana,"Punjab Agricultural University, Ludhiana - PPCB",27-01-2024 03:00:00,30.9028,75.8086,NO2,27,31,29
India,Punjab,Ludhiana,"Punjab Agricultural University, Ludhiana - PPCB",27-01-2024 03:00:00,30.9028,75.8086,NH3,5,11,6
India,Punjab,Ludhiana,"Punjab Agricultural University, Ludhiana - PPCB",27-01-2024 03:00:00,30.9028,75.8086,CO,6,126,74
India,Punjab,Mandi Gobindgarh,"RIMT University, Mandi Gobindgarh - PPCB",27-01-2024 03:00:00,30.649961,76.331442,NH3,2,2,2
India,Punjab,Patiala,"Model Town, Patiala - PPCB",27-01-2024 03:00:00,30.349388,76.366642,OZONE,20,49,23
India,Punjab,Rupnagar,"Ratanpura, Rupnagar - Ambuja Cements",27-01-2024 03:00:00,31.0325454,76.5623046,SO2,1,8,4
India,Punjab,Rupnagar,"Ratanpura, Rupnagar - Ambuja Cements",27-01-2024 03:00:00,31.0325454,76.5623046,CO,37,64,50
India,Rajasthan,Ajmer,"Civil Lines,  Ajmer - RSPCB",27-01-2024 03:00:00,26.470859,74.646594,PM10,44,177,105
India,Rajasthan,Ajmer,"Civil Lines,  Ajmer - RSPCB",27-01-2024 03:00:00,26.470859,74.646594,NH3,28,46,35
India,Rajasthan,Ajmer,"Civil Lines,  Ajmer - RSPCB",27-01-2024 03:00:00,26.470859,74.646594,SO2,4,23,15
India,Rajasthan,Alwar,"Moti Doongri, Alwar - RSPCB",27-01-2024 03:00:00,27.554793,76.611536,NO2,40,54,46
India,Rajasthan,Alwar,"Moti Doongri, Alwar - RSPCB",27-01-2024 03:00:00,27.554793,76.611536,CO,60,130,107
India,Rajasthan,Banswara,"Rati Talai, Banswara - RSPCB",27-01-2024 03:00:00,23.555190,74.440010,OZONE,42,142,65
India,Rajasthan,Baran,"Bamboliya, Baran - RSPCB",27-01-2024 03:00:00,25.106006,76.469948,OZONE,4,123,47
India,Rajasthan,Barmer,"Railway Colony, Barmer - RSPCB",27-01-2024 03:00:00,25.747299,71.393989,PM10,69,138,106
India,Rajasthan,Barmer,"Railway Colony, Barmer - RSPCB",27-01-2024 03:00:00,25.747299,71.393989,NH3,4,8,6
India,Rajasthan,Barmer,"Railway Colony, Barmer - RSPCB",27-01-2024 03:00:00,25.747299,71.393989,CO,2,61,49
India,Rajasthan,Bharatpur,"Krishna Nagar, Bharatpur - RSPCB",27-01-2024 03:00:00,27.215415,77.50873,NO2,NA,NA,NA
India,Rajasthan,Bhilwara,"Pratap Nagar, Bhilwara - RSPCB",27-01-2024 03:00:00,25.339605,74.618883,OZONE,4,123,29
India,Rajasthan,Bhiwadi,"RIICO Ind. Area III, Bhiwadi - RSPCB",27-01-2024 03:00:00,28.194909,76.862296,PM10,111,392,198
India,Rajasthan,Bhiwadi,"RIICO Ind. Area III, Bhiwadi - RSPCB",27-01-2024 03:00:00,28.194909,76.862296,CO,22,139,113
India,Rajasthan,Bikaner,"MM Ground, Bikaner - RSPCB",27-01-2024 03:00:00,28.018792,73.292658,PM10,124,400,204
India,Rajasthan,Bikaner,"MM Ground, Bikaner - RSPCB",27-01-2024 03:00:00,28.018792,73.292658,NO2,14,63,35
India,Rajasthan,Bundi,"New Colony, Bundi - RSPCB",27-01-2024 03:00:00,25.435774,75.644272,NH3,4,6,5
India,Rajasthan,Chittorgarh,"Shastri Nagar, Chittorgarh - RSPCB",27-01-2024 03:00:00,24.892047,74.623527,PM10,64,333,162
India,Rajasthan,Churu,"Subash Chowk, Churu - RSPCB",27-01-2024 03:00:00,28.296139,74.961696,PM2.5,61,350,202
India,Rajasthan,Churu,"Subash Chowk, Churu - RSPCB",27-01-2024 03:00:00,28.296139,74.961696,NH3,10,17,14
India,Rajasthan,Dausa,"Khatikan Mohalla, Dausa - RSPCB",27-01-2024 03:00:00,26.895552,76.334753,PM2.5,41,302,136
India,Rajasthan,Dausa,"Khatikan Mohalla, Dausa - RSPCB",27-01-2024 03:00:00,26.895552,76.334753,CO,74,117,99
India,Rajasthan,Dholpur,"Raja Ganj, Dholpur - RSPCB",27-01-2024 03:00:00,26.699557,77.898881,PM2.5,48,392,217
India,Rajasthan,Dholpur,"Raja Ganj, Dholpur - RSPCB",27-01-2024 03:00:00,26.699557,77.898881,NO2,16,63,32
India,Rajasthan,Dholpur,"Raja Ganj, Dholpur - RSPCB",27-01-2024 03:00:00,26.699557,77.898881,NH3,9,13,10
India,Rajasthan,Dholpur,"Raja Ganj, Dholpur - RSPCB",27-01-2024 03:00:00,26.699557,77.898881,SO2,4,21,13
India,Rajasthan,Dungarpur,"Bhoiwada, Dungarpur - RSPCB",27-01-2024 03:00:00,23.837789,73.714926,OZONE,7,51,18
India,Rajasthan,Jaipur,"Adarsh Nagar, Jaipur - RSPCB",27-01-2024 03:00:00,26.902909,75.836858,PM2.5,51,313,170
India,Rajasthan,Jaipur,"Adarsh Nagar, Jaipur - RSPCB",27-01-2024 03:00:00,26.902909,75.836858,SO2,4,23,14
India,Rajasthan,Jaipur,"Mansarovar Sector-12, Jaipur - RSPCB",27-01-2024 03:00:00,26.843698,75.766894,NO2,19,130,57
India,Rajasthan,Jaipur,"Mansarovar Sector-12, Jaipur - RSPCB",27-01-2024 03:00:00,26.843698,75.766894,OZONE,3,138,17
India,Rajasthan,Jaipur,"Police Commissionerate, Jaipur - RSPCB",27-01-2024 03:00:00,26.9164092,75.7994901,NH3,12,16,14
India,Rajasthan,Jaipur,"Police Commissionerate, Jaipur - RSPCB",27-01-2024 03:00:00,26.9164092,75.7994901,SO2,8,23,16
India,Rajasthan,Jaipur,"Shastri Nagar, Jaipur - RSPCB",27-01-2024 03:00:00,26.9502929,75.730943,PM2.5,88,234,164
India,Rajasthan,Jaipur,"Shastri Nagar, Jaipur - RSPCB",27-01-2024 03:00:00,26.9502929,75.730943,NH3,7,37,16
India,Rajasthan,Jaisalmer,"Sadar Bazar, Jaisalmer - RSPCB",27-01-2024 03:00:00,26.912329,70.909168,CO,42,64,56
India,Rajasthan,Jalore,"Mudtra Sili, Jalore - RSPCB",27-01-2024 03:00:00,25.344694,72.626208,PM10,83,407,158
India,Rajasthan,Jalore,"Mudtra Sili, Jalore - RSPCB",27-01-2024 03:00:00,25.344694,72.626208,SO2,7,12,10
India,Rajasthan,Jhunjhunu,"Indra Nagar, Jhunjhunu - RSPCB",27-01-2024 03:00:00,28.108988,75.386577,NO2,32,107,53
India,Rajasthan,Jodhpur,"Digari Kalan, Jodhpur - RSPCB",27-01-2024 03:00:00,26.295810,73.082283,PM2.5,22,264,84
India,Rajasthan,Jodhpur,"Jhalamand, Jodhpur - RSPCB",27-01-2024 03:00:00,26.215415,73.070156,PM2.5,18,157,72
India,Rajasthan,Jodhpur,"Jhalamand, Jodhpur - RSPCB",27-01-2024 03:00:00,26.215415,73.070156,CO,13,50,37
India,Rajasthan,Jodhpur,"Mandor, Jodhpur - RSPCB",27-01-2024 03:00:00,26.358805,73.047444,NO2,24,58,37
India,Rajasthan,Jodhpur,"Mandor, Jodhpur - RSPCB",27-01-2024 03:00:00,26.358805,73.047444,OZONE,14,127,80
India,Rajasthan,Karauli,"Satyawati Vihar, Karauli - RSPCB",27-01-2024 03:00:00,26.506177,77.025989,PM2.5,95,297,206
India,Rajasthan,Karauli,"Satyawati Vihar, Karauli - RSPCB",27-01-2024 03:00:00,26.506177,77.025989,CO,17,48,41
India,Rajasthan,Kota,"Nayapura, Kota - RSPCB",27-01-2024 03:00:00,25.196024,75.855668,NH3,6,12,9
India,Rajasthan,Kota,"Nayapura, Kota - RSPCB",27-01-2024 03:00:00,25.196024,75.855668,OZONE,1,115,13
India,Rajasthan,Kota,"Shrinath Puram, Kota - RSPCB",27-01-2024 03:00:00,25.14389,75.821256,NO2,76,327,159
India,Rajasthan,Nagaur,"Karni Colony, Nagaur - RSPCB",27-01-2024 03:00:00,27.213494,73.734444,NO2,25,48,33
India,Rajasthan,Pali,"Indira Colony Vistar, Pali - RSPCB",27-01-2024 03:00:00,25.771061, 73.340227,PM10,73,208,119
India,Rajasthan,Pratapgarh,"Pragati Nagar, Pratapgarh - RSPCB",27-01-2024 03:00:00,24.041198,74.780702,PM10,65,168,97
India,Rajasthan,Rajsamand,"Dhoinda, Rajsamand - RSPCB",27-01-2024 03:00:00,25.036360,73.883502,PM10,33,254,103
India,Rajasthan,Sawai Madhopur,"Sahu Nagar, Sawai Madhopur - RSPCB",27-01-2024 03:00:00,26.031443,76.359327,PM10,61,214,117
India,Rajasthan,Sawai Madhopur,"Sahu Nagar, Sawai Madhopur - RSPCB",27-01-2024 03:00:00,26.031443,76.359327,NO2,6,8,7
India,Rajasthan,Sawai Madhopur,"Sahu Nagar, Sawai Madhopur - RSPCB",27-01-2024 03:00:00,26.031443,76.359327,OZONE,15,106,25
India,Rajasthan,Sikar,"Radhakishan Pura, Sikar - RSPCB",27-01-2024 03:00:00,27.608912,75.153302,OZONE,18,145,96
India,Rajasthan,Sirohi,"Vedhaynath Colony, Sirohi - RSPCB",27-01-2024 03:00:00,24.885261,72.857549,PM10,35,160,84
India,Rajasthan,Sirohi,"Vedhaynath Colony, Sirohi - RSPCB",27-01-2024 03:00:00,24.885261,72.857549,OZONE,2,148,25
India,Rajasthan,Sri Ganganagar,"Old City, Sri Ganganagar - RSPCB",27-01-2024 03:00:00,29.931624,73.864511,PM2.5,77,402,237
India,Rajasthan,Sri Ganganagar,"Old City, Sri Ganganagar - RSPCB",27-01-2024 03:00:00,29.931624,73.864511,NH3,5,23,12
India,Rajasthan,Sri Ganganagar,"Old City, Sri Ganganagar - RSPCB",27-01-2024 03:00:00,29.931624,73.864511,SO2,3,8,6
India,Rajasthan,Sri Ganganagar,"Old City, Sri Ganganagar - RSPCB",27-01-2024 03:00:00,29.931624,73.864511,OZONE,2,63,4
India,Rajasthan,Tonk,"Shastri Nagar, Tonk - RSPCB",27-01-2024 03:00:00,26.159933,75.780517,NO2,20,110,40
India,Sikkim,Gangtok,"Zero Point GICI, Gangtok - SSPCB",27-01-2024 03:00:00,27.338530,88.614099,PM2.5,19,37,28
India,Sikkim,Gangtok,"Zero Point GICI, Gangtok - SSPCB",27-01-2024 03:00:00,27.338530,88.614099,OZONE,13,66,19
India,TamilNadu,Chennai,"Alandur Bus Depot, Chennai - CPCB",27-01-2024 03:00:00,12.9099161,80.1076538,SO2,1,3,1
India,TamilNadu,Chennai,"Arumbakkam, Chennai - TNPCB",27-01-2024 03:00:00,13.0664,80.2112 ,SO2,1,20,7
India,TamilNadu,Chennai,"Gandhi Nagar_Ennore, Chennai - TNPCB",27-01-2024 03:00:00,13.218341,80.32027,NH3,1,3,2
India,TamilNadu,Chennai,"Kodungaiyur, Chennai - TNPCB",27-01-2024 03:00:00,13.1278,80.2642,PM10,50,155,79
India,TamilNadu,Chennai,"Manali, Chennai - CPCB",27-01-2024 03:00:00,13.164544,80.26285,OZONE,8,193,10
India,TamilNadu,Chennai,"Perungudi, Chennai - TNPCB",27-01-2024 03:00:00,12.9533,80.2357,PM10,46,416,101
India,TamilNadu,Chennai,"Perungudi, Chennai - TNPCB",27-01-2024 03:00:00,12.9533,80.2357,NH3,2,3,3
India,TamilNadu,Chennai,"Perungudi, Chennai - TNPCB",27-01-2024 03:00:00,12.9533,80.2357,CO,20,48,33
India,TamilNadu,Chennai,"Royapuram, Chennai - TNPCB",27-01-2024 03:00:00,13.1036,80.2909,CO,13,60,26
India,TamilNadu,Cuddalore,"Kudikadu, Cuddalore - TNPCB",27-01-2024 03:00:00,11.6829898,79.7532099,NH3,5,6,5
India,TamilNadu,Palkalaiperur,"Bharathidasan University, Palkalaiperur - TNPCB",27-01-2024 03:00:00,10.681158,78.741746,PM2.5,12,35,27
India,TamilNadu,Ramanathapuram,"Chalai Bazaar, Ramanathapuram - TNPCB",27-01-2024 03:00:00,9.36399,78.831977,PM10,30,77,55
India,TamilNadu,Ramanathapuram,"Chalai Bazaar, Ramanathapuram - TNPCB",27-01-2024 03:00:00,9.36399,78.831977,SO2,5,8,6
India,TamilNadu,Salem,"Sona College of Technology, Salem - TNPCB",27-01-2024 03:00:00,11.679111,78.125052,NH3,1,1,1
India,TamilNadu,Thoothukudi,"Meelavittan, Thoothukudi - TNPCB",27-01-2024 03:00:00,8.816428 ,78.099039,NO2,26,45,34
India,TamilNadu,Thoothukudi,"Meelavittan, Thoothukudi - TNPCB",27-01-2024 03:00:00,8.816428 ,78.099039,SO2,8,20,14
India,TamilNadu,Tirupur,"Kumaran College, Tirupur - TNPCB",27-01-2024 03:00:00,11.0973603,77.3228673,PM2.5,21,82,35
India,TamilNadu,Tirupur,"Kumaran College, Tirupur - TNPCB",27-01-2024 03:00:00,11.0973603,77.3228673,SO2,19,19,19
India,TamilNadu,Vellore,"Vasanthapuram, Vellore - TNPCB",27-01-2024 03:00:00,12.909494,79.131861,PM2.5,NA,NA,NA
India,TamilNadu,Vellore,"Vasanthapuram, Vellore - TNPCB",27-01-2024 03:00:00,12.909494,79.131861,PM10,NA,NA,NA
India,TamilNadu,Vellore,"Vasanthapuram, Vellore - TNPCB",27-01-2024 03:00:00,12.909494,79.131861,NO2,NA,NA,NA
India,TamilNadu,Virudhunagar,"Collectorate Office, Virudhunagar - TNPCB",27-01-2024 03:00:00,9.559382,77.948828,PM10,33,102,51
India,TamilNadu,Virudhunagar,"Collectorate Office, Virudhunagar - TNPCB",27-01-2024 03:00:00,9.559382,77.948828,SO2,16,17,16
India,Telangana,Hyderabad,"Bollaram Industrial Area, Hyderabad - TSPCB",27-01-2024 03:00:00,17.540891,78.358528,NO2,16,36,26
India,Telangana,Hyderabad,"Bollaram Industrial Area, Hyderabad - TSPCB",27-01-2024 03:00:00,17.540891,78.358528,OZONE,36,39,38
India,Telangana,Hyderabad,"Central University, Hyderabad - TSPCB",27-01-2024 03:00:00,17.460103,78.334361,NH3,3,17,6
India,Telangana,Hyderabad,"ECIL Kapra, Hyderabad - TSPCB",27-01-2024 03:00:00,17.470431,78.566959,PM2.5,46,60,51
India,Telangana,Hyderabad,"ECIL Kapra, Hyderabad - TSPCB",27-01-2024 03:00:00,17.470431,78.566959,NH3,5,6,5
India,Telangana,Hyderabad,"ICRISAT Patancheru, Hyderabad - TSPCB",27-01-2024 03:00:00,17.518400,78.278777,OZONE,23,132,47
India,Telangana,Hyderabad,"IITH Kandi, Hyderabad - TSPCB",27-01-2024 03:00:00,17.585705,78.126199,NH3,2,2,2
India,Telangana,Hyderabad,"Kokapet, Hyderabad - TSPCB",27-01-2024 03:00:00,17.393559,78.339194,PM2.5,44,67,52
India,Telangana,Hyderabad,"Kokapet, Hyderabad - TSPCB",27-01-2024 03:00:00,17.393559,78.339194,NH3,1,2,1
India,Telangana,Hyderabad,"New Malakpet, Hyderabad - TSPCB",27-01-2024 03:00:00,17.37206,78.50864,PM10,NA,NA,NA
India,Telangana,Hyderabad,"New Malakpet, Hyderabad - TSPCB",27-01-2024 03:00:00,17.37206,78.50864,NH3,NA,NA,NA
India,Tripura,Agartala,"Bardowali, Agartala - Tripura SPCB",27-01-2024 03:00:00,23.8175497,91.2726974,SO2,23,26,24
India,Tripura,Agartala,"Bardowali, Agartala - Tripura SPCB",27-01-2024 03:00:00,23.8175497,91.2726974,CO,40,104,76
India,Uttar_Pradesh,Agra,"Manoharpur, Agra - UPPCB",27-01-2024 03:00:00,27.23711,78.01936,PM2.5,37,141,73
India,Uttar_Pradesh,Agra,"Rohta, Agra - UPPCB",27-01-2024 03:00:00,27.106972,78.000111,CO,30,70,56
India,Uttar_Pradesh,Agra,"Rohta, Agra - UPPCB",27-01-2024 03:00:00,27.106972,78.000111,OZONE,15,16,16
India,Uttar_Pradesh,Agra,"Sector-3B Avas Vikas Colony, Agra - UPPCB",27-01-2024 03:00:00,27.19412,77.96237,NO2,25,85,45
India,Uttar_Pradesh,Agra,"Sector-3B Avas Vikas Colony, Agra - UPPCB",27-01-2024 03:00:00,27.19412,77.96237,OZONE,13,15,14
India,Uttar_Pradesh,Agra,"Shahjahan Garden, Agra - UPPCB",27-01-2024 03:00:00,27.169338,78.03582,CO,36,92,58
India,Uttar_Pradesh,Agra,"Shastripuram, Agra - UPPCB",27-01-2024 03:00:00,27.19862,77.92066,PM2.5,51,255,92
India,Uttar_Pradesh,Bareilly,"Civil Lines, Bareilly - UPPCB",27-01-2024 03:00:00,28.359581,79.414455,SO2,39,41,40
India,Uttar_Pradesh,Bareilly,"Civil Lines, Bareilly - UPPCB",27-01-2024 03:00:00,28.359581,79.414455,OZONE,1,19,10
India,Uttar_Pradesh,Bulandshahr,"Yamunapuram, Bulandshahr - UPPCB",27-01-2024 03:00:00,28.406963,77.849831,NH3,10,17,13
India,Uttar_Pradesh,Bulandshahr,"Yamunapuram, Bulandshahr - UPPCB",27-01-2024 03:00:00,28.406963,77.849831,SO2,8,35,21
India,Uttar_Pradesh,Bulandshahr,"Yamunapuram, Bulandshahr - UPPCB",27-01-2024 03:00:00,28.406963,77.849831,CO,48,126,72
India,Uttar_Pradesh,Bulandshahr,"Yamunapuram, Bulandshahr - UPPCB",27-01-2024 03:00:00,28.406963,77.849831,OZONE,2,104,6
India,Uttar_Pradesh,Firozabad,"Nagla Bhau, Firozabad - UPPCB",27-01-2024 03:00:00,27.168897,78.376960,PM10,36,178,79
India,Uttar_Pradesh,Firozabad,"Nagla Bhau, Firozabad - UPPCB",27-01-2024 03:00:00,27.168897,78.376960,SO2,9,20,15
India,Uttar_Pradesh,Firozabad,"Vibhab Nagar, Firozabad - UPPCB",27-01-2024 03:00:00,27.1594,78.3953,PM10,33,116,76
India,Uttar_Pradesh,Firozabad,"Vibhab Nagar, Firozabad - UPPCB",27-01-2024 03:00:00,27.1594,78.3953,NH3,2,2,2
India,Uttar_Pradesh,Ghaziabad,"Indirapuram, Ghaziabad - UPPCB",27-01-2024 03:00:00,28.646233,77.358075,PM2.5,276,493,373
India,Uttar_Pradesh,Ghaziabad,"Indirapuram, Ghaziabad - UPPCB",27-01-2024 03:00:00,28.646233,77.358075,NH3,5,9,7
India,Uttar_Pradesh,Ghaziabad,"Indirapuram, Ghaziabad - UPPCB",27-01-2024 03:00:00,28.646233,77.358075,CO,18,114,94
India,Uttar_Pradesh,Ghaziabad,"Loni, Ghaziabad - UPPCB",27-01-2024 03:00:00,28.757294,77.278792,PM2.5,112,475,320
India,Uttar_Pradesh,Ghaziabad,"Loni, Ghaziabad - UPPCB",27-01-2024 03:00:00,28.757294,77.278792,PM10,125,491,263
India,Uttar_Pradesh,Ghaziabad,"Sanjay Nagar, Ghaziabad - UPPCB",27-01-2024 03:00:00,28.685382,77.453839,SO2,9,43,24
India,Uttar_Pradesh,Gorakhpur,"Madan Mohan Malaviya University of Technology, Gorakhpur - UPPCB",27-01-2024 03:00:00,26.730136,83.433859,PM10,80,135,108
India,Uttar_Pradesh,Gorakhpur,"Madan Mohan Malaviya University of Technology, Gorakhpur - UPPCB",27-01-2024 03:00:00,26.730136,83.433859,NO2,2,2,2
India,Uttar_Pradesh,Greater Noida,"Knowledge Park - V, Greater Noida - UPPCB",27-01-2024 03:00:00,28.557054,77.453663,PM10,150,408,265
India,Uttar_Pradesh,Hapur,"Anand Vihar, Hapur - UPPCB",27-01-2024 03:00:00,28.725645,77.749675,PM10,152,408,248
India,Uttar_Pradesh,Hapur,"Anand Vihar, Hapur - UPPCB",27-01-2024 03:00:00,28.725645,77.749675,NO2,35,98,58
India,Uttar_Pradesh,Hapur,"Anand Vihar, Hapur - UPPCB",27-01-2024 03:00:00,28.725645,77.749675,CO,81,124,116
India,Uttar_Pradesh,Jhansi,"Shivaji Nagar, Jhansi - UPPCB",27-01-2024 03:00:00,25.4547,78.6039,PM2.5,57,289,105
India,Uttar_Pradesh,Kanpur,"FTI Kidwai Nagar, Kanpur - UPPCB",27-01-2024 03:00:00,26.428282,80.327067,CO,66,120,98
India,Uttar_Pradesh,Kanpur,"NSI Kalyanpur, Kanpur - UPPCB",27-01-2024 03:00:00,26.509954,80.249612,NO2,11,12,11
India,Uttar_Pradesh,Kanpur,"Nehru Nagar, Kanpur - UPPCB",27-01-2024 03:00:00,26.4703136,80.3229863,SO2,1,66,17
India,Uttar_Pradesh,Khurja,"Kalindi Kunj, Khurja - UPPCB",27-01-2024 03:00:00,28.2348927,77.8683002,PM2.5,10,312,91
India,Uttar_Pradesh,Khurja,"Kalindi Kunj, Khurja - UPPCB",27-01-2024 03:00:00,28.2348927,77.8683002,PM10,9,178,74
India,Uttar_Pradesh,Lucknow,"B R Ambedkar University, Lucknow - UPPCB",27-01-2024 03:00:00,26.766433,80.927299,SO2,24,27,24
India,Uttar_Pradesh,Lucknow,"Gomti Nagar, Lucknow - UPPCB",27-01-2024 03:00:00,26.868120,81.005119,SO2,4,22,11
India,Uttar_Pradesh,Lucknow,"Kendriya Vidyalaya, Lucknow - CPCB",27-01-2024 03:00:00,26.906111,80.948222,PM10,95,349,159
India,Uttar_Pradesh,Lucknow,"Talkatora District Industries Center, Lucknow - CPCB",27-01-2024 03:00:00,26.83399722,80.8917361,NO2,78,125,96
India,Uttar_Pradesh,Lucknow,"Talkatora District Industries Center, Lucknow - CPCB",27-01-2024 03:00:00,26.83399722,80.8917361,SO2,1,26,8
India,Uttar_Pradesh,Lucknow,"Talkatora District Industries Center, Lucknow - CPCB",27-01-2024 03:00:00,26.83399722,80.8917361,CO,1,96,46
India,Uttar_Pradesh,Meerut,"Jai Bhim Nagar, Meerut - UPPCB",27-01-2024 03:00:00,28.9535882,77.7622941,PM2.5,118,422,267
India,Uttar_Pradesh,Meerut,"Pallavpuram Phase 2, Meerut - UPPCB",27-01-2024 03:00:00,29.063510,77.709723,PM2.5,113,348,238
India,Uttar_Pradesh,Meerut,"Pallavpuram Phase 2, Meerut - UPPCB",27-01-2024 03:00:00,29.063510,77.709723,SO2,4,4,4
India,Uttar_Pradesh,Moradabad,"Eco Herbal Park, Moradabad - UPPCB",27-01-2024 03:00:00,28.840739,78.697531,PM10,86,186,137
India,Uttar_Pradesh,Moradabad,"Employment Office, Moradabad - UPPCB",27-01-2024 03:00:00,28.88528,78.73880,PM2.5,77,305,176
India,Uttar_Pradesh,Moradabad,"Employment Office, Moradabad - UPPCB",27-01-2024 03:00:00,28.88528,78.73880,CO,86,108,100
India,Uttar_Pradesh,Moradabad,"Kashiram Nagar, Moradabad - UPPCB",27-01-2024 03:00:00,28.849399,78.742362,NH3,4,4,4
India,Uttar_Pradesh,Muzaffarnagar,"New Mandi, Muzaffarnagar - UPPCB",27-01-2024 03:00:00,29.4723508,77.7194031,NH3,8,12,10
India,Uttar_Pradesh,Noida,"Sector - 125, Noida - UPPCB",27-01-2024 03:00:00,28.5447608,77.3231257,PM10,178,402,256
India,Uttar_Pradesh,Noida,"Sector - 125, Noida - UPPCB",27-01-2024 03:00:00,28.5447608,77.3231257,NO2,45,157,89
India,Uttar_Pradesh,Noida,"Sector - 62, Noida - IMD",27-01-2024 03:00:00,28.6245479,77.3577104,NO2,NA,NA,NA
India,Uttar_Pradesh,Noida,"Sector - 62, Noida - IMD",27-01-2024 03:00:00,28.6245479,77.3577104,CO,NA,NA,NA
India,Uttar_Pradesh,Noida,"Sector - 62, Noida - IMD",27-01-2024 03:00:00,28.6245479,77.3577104,OZONE,NA,NA,NA
India,Uttar_Pradesh,Prayagraj,"Jhunsi, Prayagraj - UPPCB",27-01-2024 03:00:00,25.425602,81.917152,PM10,57,208,116
India,Uttar_Pradesh,Prayagraj,"Nagar Nigam, Prayagraj - UPPCB",27-01-2024 03:00:00,25.44919916 ,81.82735986 ,CO,4,106,75
India,Uttar_Pradesh,Varanasi,"Ardhali Bazar, Varanasi - UPPCB",27-01-2024 03:00:00,25.3505986,82.9083074,PM2.5,34,83,55
India,Uttar_Pradesh,Varanasi,"Ardhali Bazar, Varanasi - UPPCB",27-01-2024 03:00:00,25.3505986,82.9083074,PM10,45,105,71
India,Uttar_Pradesh,Varanasi,"Bhelupur, Varanasi - UPPCB",27-01-2024 03:00:00,25.301778,82.996789,PM2.5,21,51,35
India,Uttar_Pradesh,Varanasi,"IESD Banaras Hindu University, Varanasi - UPPCB",27-01-2024 03:00:00,25.262326,82.995408,PM10,29,105,62
India,Uttar_Pradesh,Varanasi,"IESD Banaras Hindu University, Varanasi - UPPCB",27-01-2024 03:00:00,25.262326,82.995408,CO,37,58,46
India,Uttar_Pradesh,Varanasi,"Maldahiya, Varanasi - UPPCB",27-01-2024 03:00:00,25.32393,82.99687,PM2.5,NA,NA,NA
India,Uttar_Pradesh,Vrindavan,"Omex Eternity, Vrindavan - UPPCB",27-01-2024 03:00:00,27.5714090,77.6557570,PM2.5,38,101,61
India,Uttar_Pradesh,Vrindavan,"Omex Eternity, Vrindavan - UPPCB",27-01-2024 03:00:00,27.5714090,77.6557570,NH3,2,5,3
India,Uttar_Pradesh,Vrindavan,"Omex Eternity, Vrindavan - UPPCB",27-01-2024 03:00:00,27.5714090,77.6557570,OZONE,30,31,30
India,Uttarakhand,Dehradun,"Doon University, Dehradun - UKPCB",27-01-2024 03:00:00,30.269444,78.044167,PM10,75,254,145
India,Uttarakhand,Dehradun,"Doon University, Dehradun - UKPCB",27-01-2024 03:00:00,30.269444,78.044167,CO,26,69,62
India,Uttarakhand,Kashipur,"Govt. Girls Inter College, Kashipur - UKPCB",27-01-2024 03:00:00,29.2124114,78.9611753,PM10,95,301,153
India,Uttarakhand,Kashipur,"Govt. Girls Inter College, Kashipur - UKPCB",27-01-2024 03:00:00,29.2124114,78.9611753,NH3,8,14,10
India,Uttarakhand,Kashipur,"Govt. Girls Inter College, Kashipur - UKPCB",27-01-2024 03:00:00,29.2124114,78.9611753,CO,58,124,105
India,Uttarakhand,Rishikesh,"Shivaji Nagar, Rishikesh - UKPCB",27-01-2024 03:00:00,30.075911,78.2859547,PM10,58,128,87
India,Uttarakhand,Rishikesh,"Shivaji Nagar, Rishikesh - UKPCB",27-01-2024 03:00:00,30.075911,78.2859547,NO2,6,14,9
India,Uttarakhand,Rishikesh,"Shivaji Nagar, Rishikesh - UKPCB",27-01-2024 03:00:00,30.075911,78.2859547,CO,28,68,59
India,West_Bengal,Asansol,"Asansol Court Area, Asansol - WBPCB",27-01-2024 03:00:00,23.685297,86.945968,OZONE,9,52,18
India,West_Bengal,Barrackpore,"SVSPA Campus, Barrackpore - WBPCB",27-01-2024 03:00:00,22.7605581,88.3617589,PM2.5,157,334,253
India,West_Bengal,Barrackpore,"SVSPA Campus, Barrackpore - WBPCB",27-01-2024 03:00:00,22.7605581,88.3617589,SO2,11,27,13
India,West_Bengal,Durgapur,"Sidhu Kanhu Indoor Stadium, Durgapur - WBPCB",27-01-2024 03:00:00,23.5404352,87.2892225,PM10,78,207,151
India,West_Bengal,Haldia,"Priyambada Housing Estate, Haldia - WBPCB",27-01-2024 03:00:00,22.06047,88.109737,NH3,4,7,5
India,West_Bengal,Haldia,"Priyambada Housing Estate, Haldia - WBPCB",27-01-2024 03:00:00,22.06047,88.109737,CO,41,105,81
India,West_Bengal,Howrah,"Belur Math, Howrah - WBPCB",27-01-2024 03:00:00,22.629801,88.352017,PM2.5,132,303,232
India,West_Bengal,Howrah,"Padmapukur, Howrah - WBPCB",27-01-2024 03:00:00,22.5687319,88.2797276,PM2.5,104,327,252
India,West_Bengal,Kolkata,"Ballygunge, Kolkata - WBPCB",27-01-2024 03:00:00,22.5367507,88.3638022,PM10,109,214,171
India,West_Bengal,Kolkata,"Bidhannagar, Kolkata - WBPCB",27-01-2024 03:00:00,22.58157048,88.41002457,NO2,18,50,29
India,West_Bengal,Kolkata,"Bidhannagar, Kolkata - WBPCB",27-01-2024 03:00:00,22.58157048,88.41002457,SO2,5,18,13
India,West_Bengal,Kolkata,"Bidhannagar, Kolkata - WBPCB",27-01-2024 03:00:00,22.58157048,88.41002457,CO,54,92,81
India,West_Bengal,Kolkata,"Fort William, Kolkata - WBPCB",27-01-2024 03:00:00,22.556640,88.342674,SO2,6,30,14
India,West_Bengal,Kolkata,"Jadavpur, Kolkata - WBPCB",27-01-2024 03:00:00,22.49929,88.36917,PM10,120,286,193
India,West_Bengal,Kolkata,"Rabindra Bharati University, Kolkata - WBPCB",27-01-2024 03:00:00,22.627847,88.380669,PM10,98,169,140
India,West_Bengal,Kolkata,"Rabindra Bharati University, Kolkata - WBPCB",27-01-2024 03:00:00,22.627847,88.380669,OZONE,1,70,11
India,West_Bengal,Kolkata,"Victoria, Kolkata - WBPCB",27-01-2024 03:00:00,22.5448082,88.3403691,NO2,NA,NA,NA
India,West_Bengal,Siliguri,"Ward-32 Bapupara, Siliguri - WBPCB",27-01-2024 03:00:00,26.6879226,88.4152495,PM2.5,93,305,172
India,West_Bengal,Siliguri,"Ward-32 Bapupara, Siliguri - WBPCB",27-01-2024 03:00:00,26.6879226,88.4152495,PM10,101,183,132
India,West_Bengal,Siliguri,"Ward-32 Bapupara, Siliguri - WBPCB",27-01-2024 03:00:00,26.6879226,88.4152495,NH3,8,18,12
India,West_Bengal,Siliguri,"Ward-32 Bapupara, Siliguri - WBPCB",27-01-2024 03:00:00,26.6879226,88.4152495,CO,28,95,77
India,Andhra_Pradesh,Vijayawada,"HB Colony, Vijayawada - APPCB",27-01-2024 03:00:00,16.536107,80.594233,CO,NA,NA,NA
India,Andhra_Pradesh,Visakhapatnam,"GVM Corporation, Visakhapatnam - APPCB",27-01-2024 03:00:00,17.72,83.3,PM2.5,75,181,124
India,Assam,Byrnihat,"Central Academy for SFS, Byrnihat - PCBA",27-01-2024 03:00:00,26.071318,91.87488,NH3,1,4,3
India,Assam,Guwahati,"LGBI Airport, Guwahati - PCBA",27-01-2024 03:00:00,26.10887,91.589544,PM2.5,130,328,258
India,Assam,Guwahati,"LGBI Airport, Guwahati - PCBA",27-01-2024 03:00:00,26.10887,91.589544,OZONE,1,84,10
India,Assam,Guwahati,"Pan Bazaar, Guwahati - PCBA",27-01-2024 03:00:00,26.187500,91.744194,NH3,4,5,4
India,Assam,Guwahati,"Pan Bazaar, Guwahati - PCBA",27-01-2024 03:00:00,26.187500,91.744194,OZONE,17,18,17
India,Assam,Guwahati,"Railway Colony, Guwahati - PCBA",27-01-2024 03:00:00,26.181742,91.78063,PM2.5,126,390,272
India,Assam,Nalbari,"Bata Chowk, Nalbari - PCBA",27-01-2024 03:00:00,26.446912,91.439057,PM2.5,87,372,274
India,Assam,Nalbari,"Bata Chowk, Nalbari - PCBA",27-01-2024 03:00:00,26.446912,91.439057,PM10,69,202,146
India,Assam,Nalbari,"Bata Chowk, Nalbari - PCBA",27-01-2024 03:00:00,26.446912,91.439057,NO2,12,34,26
India,Assam,Nalbari,"Bata Chowk, Nalbari - PCBA",27-01-2024 03:00:00,26.446912,91.439057,SO2,5,21,9
India,Assam,Silchar,"Tarapur, Silchar - PCBA",27-01-2024 03:00:00,24.82827,92.79525,CO,34,45,41
India,Assam,Sivasagar,"Girls College, Sivasagar - PCBA",27-01-2024 03:00:00,26.987634,94.636574,NO2,19,31,23
India,Assam,Sivasagar,"Girls College, Sivasagar - PCBA",27-01-2024 03:00:00,26.987634,94.636574,NH3,3,3,3
India,Bihar,Araria,"Kharahiya Basti, Araria - BSPCB",27-01-2024 03:00:00,26.146529,87.454184,CO,20,31,27
India,Bihar,Arrah,"New DM Office, Arrah - BSPCB",27-01-2024 03:00:00,25.5626095,84.663264,NO2,14,51,28
India,Bihar,Aurangabad,"Gurdeo Nagar, Aurangabad - BSPCB",27-01-2024 03:00:00,24.75746,84.366208,PM10,96,162,119
India,Bihar,Bhagalpur,"DM Office_Kachari Chowk, Bhagalpur - BSPCB",27-01-2024 03:00:00,25.251013,86.989001,PM2.5,293,466,370
India,Bihar,Bhagalpur,"Mayaganj, Bhagalpur - BSPCB",27-01-2024 03:00:00,25.265194,87.012947,SO2,3,13,11
India,Bihar,Bhagalpur,"Mayaganj, Bhagalpur - BSPCB",27-01-2024 03:00:00,25.265194,87.012947,OZONE,15,59,34
India,Bihar,Bihar Sharif,"D M Colony, Bihar Sharif - BSPCB",27-01-2024 03:00:00,25.204762,85.514960,NH3,2,2,2
India,Bihar,Bihar Sharif,"D M Colony, Bihar Sharif - BSPCB",27-01-2024 03:00:00,25.204762,85.514960,SO2,2,11,7
India,Bihar,Chhapra,"Darshan Nagar, Chhapra - BSPCB",27-01-2024 03:00:00,25.7808257,84.7446768,PM2.5,170,403,324
India,Bihar,Chhapra,"Darshan Nagar, Chhapra - BSPCB",27-01-2024 03:00:00,25.7808257,84.7446768,NO2,13,29,19
India,Bihar,Gaya,"Kareemganj, Gaya - BSPCB",27-01-2024 03:00:00,24.792403,84.992416,SO2,6,10,8
India,Bihar,Gaya,"SFTI Kusdihra, Gaya - BSPCB",27-01-2024 03:00:00,24.762518,84.982348,PM10,103,140,122
India,Bihar,Gaya,"SFTI Kusdihra, Gaya - BSPCB",27-01-2024 03:00:00,24.762518,84.982348,CO,54,104,85
India,Bihar,Hajipur,"Industrial Area, Hajipur - BSPCB",27-01-2024 03:00:00,25.697189,85.245900,SO2,5,8,6
India,Bihar,Hajipur,"Industrial Area, Hajipur - BSPCB",27-01-2024 03:00:00,25.697189,85.245900,CO,77,102,95
India,Bihar,Hajipur,"Industrial Area, Hajipur - BSPCB",27-01-2024 03:00:00,25.697189,85.245900,OZONE,1,18,7
India,Bihar,Katihar,"Mirchaibari, Katihar - BSPCB",27-01-2024 03:00:00,25.560083,87.553265,PM2.5,68,378,193
India,Bihar,Katihar,"Mirchaibari, Katihar - BSPCB",27-01-2024 03:00:00,25.560083,87.553265,PM10,92,415,183
India,Bihar,Kishanganj,"SDM Office_Khagra, Kishanganj - BSPCB",27-01-2024 03:00:00,26.0881305,87.93840336,NO2,NA,NA,NA
India,Bihar,Motihari,"Gandak Colony, Motihari - BSPCB",27-01-2024 03:00:00,26.63086,84.90051,OZONE,20,80,51
India,Bihar,Munger,"Town Hall, Munger - BSPCB",27-01-2024 03:00:00,25.376776,86.471523,PM10,48,302,135
India,Bihar,Munger,"Town Hall, Munger - BSPCB",27-01-2024 03:00:00,25.376776,86.471523,CO,16,127,71
India,Bihar,Munger,"Town Hall, Munger - BSPCB",27-01-2024 03:00:00,25.376776,86.471523,OZONE,9,14,11
India,Bihar,Muzaffarpur,"Buddha Colony, Muzaffarpur - BSPCB",27-01-2024 03:00:00,26.11442,85.39813,PM2.5,235,382,332
India,Bihar,Muzaffarpur,"MIT-Daudpur Kothi, Muzaffarpur - BSPCB",27-01-2024 03:00:00,26.1403345,85.3650192,PM10,89,275,159
India,Bihar,Muzaffarpur,"Muzaffarpur Collectorate, Muzaffarpur - BSPCB",27-01-2024 03:00:00,26.1209,85.3647,CO,18,84,48
India,Bihar,Muzaffarpur,"Muzaffarpur Collectorate, Muzaffarpur - BSPCB",27-01-2024 03:00:00,26.1209,85.3647,OZONE,14,70,17
India,Bihar,Patna,"DRM Office Danapur, Patna - BSPCB",27-01-2024 03:00:00,25.586562,85.043586,NO2,6,40,24
India,Bihar,Patna,"Govt. High School Shikarpur, Patna - BSPCB",27-01-2024 03:00:00,25.592539,85.227158,PM2.5,234,322,269
India,Bihar,Patna,"Govt. High School Shikarpur, Patna - BSPCB",27-01-2024 03:00:00,25.592539,85.227158,PM10,152,245,210
India,Bihar,Patna,"Govt. High School Shikarpur, Patna - BSPCB",27-01-2024 03:00:00,25.592539,85.227158,SO2,4,7,5
India,Bihar,Patna,"IGSC Planetarium Complex, Patna - BSPCB",27-01-2024 03:00:00,25.610369,85.132568,CO,12,15,14
India,Bihar,Patna,"Muradpur, Patna - BSPCB",27-01-2024 03:00:00,25.619651,85.147382,NH3,2,4,3
India,Bihar,Patna,"Rajbansi Nagar, Patna - BSPCB",27-01-2024 03:00:00,25.599486,85.113666,PM2.5,315,351,336
India,Bihar,Patna,"Rajbansi Nagar, Patna - BSPCB",27-01-2024 03:00:00,25.599486,85.113666,NO2,42,267,144
India,Bihar,Patna,"Samanpura, Patna - BSPCB",27-01-2024 03:00:00,25.596727,85.085624,PM2.5,339,417,384
India,Bihar,Patna,"Samanpura, Patna - BSPCB",27-01-2024 03:00:00,25.596727,85.085624,CO,114,143,130
India,Bihar,Patna,"Samanpura, Patna - BSPCB",27-01-2024 03:00:00,25.596727,85.085624,OZONE,27,70,39
India,Bihar,Purnia,"Mariam Nagar, Purnia - BSPCB",27-01-2024 03:00:00,25.366336,87.117468,PM2.5,83,378,230
India,Bihar,Purnia,"Mariam Nagar, Purnia - BSPCB",27-01-2024 03:00:00,25.366336,87.117468,NO2,12,13,13
India,Bihar,Purnia,"Mariam Nagar, Purnia - BSPCB",27-01-2024 03:00:00,25.366336,87.117468,NH3,1,1,1
India,Bihar,Purnia,"Mariam Nagar, Purnia - BSPCB",27-01-2024 03:00:00,25.366336,87.117468,CO,74,112,104
India,Bihar,Rajgir,"Dangi Tola, Rajgir - BSPCB",27-01-2024 03:00:00,25.03280,85.41948,PM10,129,436,207
India,Bihar,Rajgir,"Dangi Tola, Rajgir - BSPCB",27-01-2024 03:00:00,25.03280,85.41948,NH3,1,4,1
India,Bihar,Saharsa,"Police Line, Saharsa - BSPCB",27-01-2024 03:00:00,25.892357,86.590325,PM10,124,375,198
India,Bihar,Samastipur,"DM Office_Kasipur, Samastipur - BSPCB",27-01-2024 03:00:00,25.859655,85.77944,CO,4,28,13
India,Bihar,Siwan,"Chitragupta Nagar, Siwan - BSPCB",27-01-2024 03:00:00,26.2271665,84.3570427,CO,119,186,67
India,Chandigarh,Chandigarh,"Sector 22, Chandigarh - CPCC",27-01-2024 03:00:00,30.735567,76.775714,NO2,9,43,19
India,Chandigarh,Chandigarh,"Sector 22, Chandigarh - CPCC",27-01-2024 03:00:00,30.735567,76.775714,OZONE,2,147,19
India,Chandigarh,Chandigarh,"Sector-25, Chandigarh - CPCC",27-01-2024 03:00:00,30.751462,76.762879,NH3,NA,NA,NA
India,Chandigarh,Chandigarh,"Sector-25, Chandigarh - CPCC",27-01-2024 03:00:00,30.751462,76.762879,CO,46,76,59
India,Chandigarh,Chandigarh,"Sector-53, Chandigarh - CPCC",27-01-2024 03:00:00,30.719859,76.738637,NH3,NA,NA,NA
India,Chhattisgarh,Bhilai,"32Bungalows, Bhilai - CECB",27-01-2024 03:00:00,21.194815,81.314770,PM2.5,48,104,72
India,Chhattisgarh,Bhilai,"32Bungalows, Bhilai - CECB",27-01-2024 03:00:00,21.194815,81.314770,PM10,64,119,90
India,Chhattisgarh,Bhilai,"32Bungalows, Bhilai - CECB",27-01-2024 03:00:00,21.194815,81.314770,NH3,6,6,6
India,Chhattisgarh,Bhilai,"32Bungalows, Bhilai - CECB",27-01-2024 03:00:00,21.194815,81.314770,CO,32,65,50
India,Chhattisgarh,Bhilai,"32Bungalows, Bhilai - CECB",27-01-2024 03:00:00,21.194815,81.314770,OZONE,4,5,4
India,Chhattisgarh,Bhilai,"Civic Center, Bhilai - Bhilai Steel Plant",27-01-2024 03:00:00,21.185571,81.343175,CO,3,65,41
India,Chhattisgarh,Bhilai,"Hathkhoj, Bhilai - CECB",27-01-2024 03:00:00,21.224231,81.408350,NO2,40,93,62
India,Chhattisgarh,Bhilai,"Hathkhoj, Bhilai - CECB",27-01-2024 03:00:00,21.224231,81.408350,OZONE,6,20,12
India,Chhattisgarh,Chhal,"Nawapara SECL Colony, Chhal - CECB",27-01-2024 03:00:00,22.118125,83.140608,PM2.5,23,68,37
India,Chhattisgarh,Korba,"Rampur, Korba - CECB",27-01-2024 03:00:00,22.368195,82.746431,PM10,NA,NA,NA
India,Chhattisgarh,Korba,"Urja Nagar, Korba - CECB",27-01-2024 03:00:00,22.348441,82.549611,NH3,3,26,7
India,Chhattisgarh,Korba,"Urja Nagar, Korba - CECB",27-01-2024 03:00:00,22.348441,82.549611,OZONE,47,48,47
India,Chhattisgarh,Kunjemura,"OP Jindal School, Kunjemura - CECB",27-01-2024 03:00:00,22.126650,83.483212,PM2.5,36,146,73
India,Chhattisgarh,Kunjemura,"OP Jindal School, Kunjemura - CECB",27-01-2024 03:00:00,22.126650,83.483212,NO2,19,112,55
India,Chhattisgarh,Kunjemura,"OP Jindal School, Kunjemura - CECB",27-01-2024 03:00:00,22.126650,83.483212,CO,18,48,37
India,Chhattisgarh,Raipur,"Krishak Nagar, Raipur - CECB",27-01-2024 03:00:00,21.237755,81.705301,PM10,44,94,75
India,Chhattisgarh,Raipur,"Siltara Phase-II, Raipur - CECB",27-01-2024 03:00:00,21.371751,81.664929,NO2,14,40,28
India,Delhi,Delhi,"Alipur, Delhi - DPCC",27-01-2024 03:00:00,28.815329,77.153010,PM10,103,322,194
India,Delhi,Delhi,"Anand Vihar, Delhi - DPCC",27-01-2024 03:00:00,28.647622,77.3158090,NH3,7,18,13
India,Delhi,Delhi,"Aya Nagar, Delhi - IMD",27-01-2024 03:00:00,28.4706914,77.1099364,PM2.5,75,461,344
India,Delhi,Delhi,"Burari Crossing, Delhi - IMD",27-01-2024 03:00:00,28.7256504,77.2011573,NO2,5,15,10
India,Delhi,Delhi,"CRRI Mathura Road, Delhi - IMD",27-01-2024 03:00:00,28.5512005,77.2735737,PM2.5,332,500,419
India,Delhi,Delhi,"DTU, Delhi - CPCB",27-01-2024 03:00:00,28.7500499,77.1112615,PM10,168,460,336
India,Delhi,Delhi,"DTU, Delhi - CPCB",27-01-2024 03:00:00,28.7500499,77.1112615,CO,40,90,53
India,Delhi,Delhi,"Dr. Karni Singh Shooting Range, Delhi - DPCC",27-01-2024 03:00:00,28.498571,77.264840,CO,62,127,108
India,Delhi,Delhi,"Dwarka-Sector 8, Delhi - DPCC ",27-01-2024 03:00:00,28.5710274,77.0719006,OZONE,5,65,6
India,Delhi,Delhi,"IHBAS, Dilshad Garden, Delhi - CPCB",27-01-2024 03:00:00,28.6811736,77.3025234,NO2,26,54,40
India,Delhi,Delhi,"IHBAS, Dilshad Garden, Delhi - CPCB",27-01-2024 03:00:00,28.6811736,77.3025234,SO2,2,55,18
India,Delhi,Delhi,"IHBAS, Dilshad Garden, Delhi - CPCB",27-01-2024 03:00:00,28.6811736,77.3025234,CO,35,124,107
India,Delhi,Delhi,"ITO, Delhi - CPCB",27-01-2024 03:00:00,28.628624,77.241060,PM2.5,339,500,413
India,Delhi,Delhi,"ITO, Delhi - CPCB",27-01-2024 03:00:00,28.628624,77.241060,NO2,52,291,158
India,Delhi,Delhi,"ITO, Delhi - CPCB",27-01-2024 03:00:00,28.628624,77.241060,NH3,8,16,11
India,Delhi,Delhi,"Jahangirpuri, Delhi - DPCC",27-01-2024 03:00:00,28.732820,77.170633,PM10,224,500,395
India,Delhi,Delhi,"Jawaharlal Nehru Stadium, Delhi - DPCC",27-01-2024 03:00:00,28.580280,77.233829,CO,102,163,141
India,Delhi,Delhi,"Lodhi Road, Delhi - IITM",27-01-2024 03:00:00,28.588333,77.221667,PM2.5,NA,NA,NA
India,Delhi,Delhi,"Lodhi Road, Delhi - IITM",27-01-2024 03:00:00,28.588333,77.221667,NO2,NA,NA,NA
India,Delhi,Delhi,"Lodhi Road, Delhi - IMD",27-01-2024 03:00:00,28.5918245,77.2273074,PM2.5,359,500,427
India,Delhi,Delhi,"Major Dhyan Chand National Stadium, Delhi - DPCC",27-01-2024 03:00:00,28.611281,77.237738,NH3,12,23,17
India,Delhi,Delhi,"Major Dhyan Chand National Stadium, Delhi - DPCC",27-01-2024 03:00:00,28.611281,77.237738,SO2,1,21,13
India,Delhi,Delhi,"Major Dhyan Chand National Stadium, Delhi - DPCC",27-01-2024 03:00:00,28.611281,77.237738,CO,48,123,100
India,Delhi,Delhi,"Mandir Marg, Delhi - DPCC",27-01-2024 03:00:00,28.636429,77.201067,NO2,72,143,111
India,Delhi,Delhi,"NSIT Dwarka, Delhi - CPCB",27-01-2024 03:00:00,28.60909,77.0325413,PM10,193,500,385
India,Delhi,Delhi,"NSIT Dwarka, Delhi - CPCB",27-01-2024 03:00:00,28.60909,77.0325413,SO2,6,30,16
India,Delhi,Delhi,"NSIT Dwarka, Delhi - CPCB",27-01-2024 03:00:00,28.60909,77.0325413,CO,36,106,85
India,Delhi,Delhi,"NSIT Dwarka, Delhi - CPCB",27-01-2024 03:00:00,28.60909,77.0325413,OZONE,18,113,24
India,Delhi,Delhi,"Najafgarh, Delhi - DPCC",27-01-2024 03:00:00,28.570173,76.933762,PM2.5,127,406,302
India,Delhi,Delhi,"Najafgarh, Delhi - DPCC",27-01-2024 03:00:00,28.570173,76.933762,NO2,5,26,17
India,Delhi,Delhi,"Najafgarh, Delhi - DPCC",27-01-2024 03:00:00,28.570173,76.933762,NH3,3,31,6
India,Delhi,Delhi,"Najafgarh, Delhi - DPCC",27-01-2024 03:00:00,28.570173,76.933762,SO2,5,9,7
India,Delhi,Delhi,"Najafgarh, Delhi - DPCC",27-01-2024 03:00:00,28.570173,76.933762,CO,8,94,39
India,Delhi,Delhi,"Okhla Phase-2, Delhi - DPCC",27-01-2024 03:00:00,28.530785,77.271255,NO2,63,213,122
India,Delhi,Delhi,"Okhla Phase-2, Delhi - DPCC",27-01-2024 03:00:00,28.530785,77.271255,CO,88,118,88
India,Delhi,Delhi,"Patparganj, Delhi - DPCC",27-01-2024 03:00:00,28.623763,77.287209,PM2.5,433,500,478
India,Delhi,Delhi,"Patparganj, Delhi - DPCC",27-01-2024 03:00:00,28.623763,77.287209,PM10,400,486,446
India,Delhi,Delhi,"Patparganj, Delhi - DPCC",27-01-2024 03:00:00,28.623763,77.287209,NH3,8,15,12
India,Delhi,Delhi,"Patparganj, Delhi - DPCC",27-01-2024 03:00:00,28.623763,77.287209,CO,54,133,119
India,Delhi,Delhi,"Punjabi Bagh, Delhi - DPCC",27-01-2024 03:00:00,28.674045,77.131023,PM10,188,500,376
India,Delhi,Delhi,"Punjabi Bagh, Delhi - DPCC",27-01-2024 03:00:00,28.674045,77.131023,NH3,5,8,7
India,Delhi,Delhi,"Pusa, Delhi - DPCC",27-01-2024 03:00:00,28.639652,77.146275,PM2.5,339,500,432
India,Delhi,Delhi,"Pusa, Delhi - DPCC",27-01-2024 03:00:00,28.639652,77.146275,NO2,97,416,246
India,Delhi,Delhi,"Pusa, Delhi - DPCC",27-01-2024 03:00:00,28.639652,77.146275,NH3,24,45,32
India,Delhi,Delhi,"Pusa, Delhi - DPCC",27-01-2024 03:00:00,28.639652,77.146275,SO2,5,17,12
India,Delhi,Delhi,"Pusa, Delhi - IMD",27-01-2024 03:00:00,28.636110,77.173332,NO2,43,128,81
India,Delhi,Delhi,"Sirifort, Delhi - CPCB",27-01-2024 03:00:00,28.5504249,77.2159377,CO,82,129,115
India,Delhi,Delhi,"Sonia Vihar, Delhi - DPCC",27-01-2024 03:00:00,28.710508,77.249485,PM10,138,458,324
India,Delhi,Delhi,"Sonia Vihar, Delhi - DPCC",27-01-2024 03:00:00,28.710508,77.249485,NO2,35,127,67
India,Delhi,Delhi,"Sonia Vihar, Delhi - DPCC",27-01-2024 03:00:00,28.710508,77.249485,OZONE,3,176,4
India,Delhi,Delhi,"Sri Aurobindo Marg, Delhi - DPCC",27-01-2024 03:00:00,28.531346,77.190156,NH3,8,12,11
India,Delhi,Delhi,"Sri Aurobindo Marg, Delhi - DPCC",27-01-2024 03:00:00,28.531346,77.190156,CO,50,113,91
India,Delhi,Delhi,"Vivek Vihar, Delhi - DPCC",27-01-2024 03:00:00,28.672342,77.315260,NO2,38,142,82
India,Delhi,Delhi,"Vivek Vihar, Delhi - DPCC",27-01-2024 03:00:00,28.672342,77.315260,SO2,7,8,8
India,Delhi,Delhi,"Vivek Vihar, Delhi - DPCC",27-01-2024 03:00:00,28.672342,77.315260,OZONE,2,31,6
India,Delhi,Delhi,"Wazirpur, Delhi - DPCC",27-01-2024 03:00:00,28.699793,77.165453,NH3,4,18,9
India,Gujarat,Ahmedabad,"Chandkheda, Ahmedabad - IITM",27-01-2024 03:00:00,23.107969,72.574648,NO2,19,24,22
India,Gujarat,Ahmedabad,"Chandkheda, Ahmedabad - IITM",27-01-2024 03:00:00,23.107969,72.574648,NH3,4,4,4
India,Gujarat,Ahmedabad,"Gyaspur, Ahmedabad - IITM",27-01-2024 03:00:00,22.977134,72.553024,PM10,71,144,106
India,Gujarat,Ahmedabad,"Maninagar, Ahmedabad - GPCB",27-01-2024 03:00:00,23.002657,72.591912,PM2.5,34,136,84
India,Gujarat,Ahmedabad,"Rakhial, Ahmedabad - IITM",27-01-2024 03:00:00,23.016834,72.625775,PM2.5,57,214,98
India,Gujarat,Ahmedabad,"Rakhial, Ahmedabad - IITM",27-01-2024 03:00:00,23.016834,72.625775,NH3,3,7,5
India,Gujarat,Ahmedabad,"Rakhial, Ahmedabad - IITM",27-01-2024 03:00:00,23.016834,72.625775,SO2,3,20,6
India,Gujarat,Ahmedabad,"SAC ISRO Bopal, Ahmedabad - IITM",27-01-2024 03:00:00,23.041137,72.456691,PM2.5,66,192,112
India,Gujarat,Ahmedabad,"SAC ISRO Bopal, Ahmedabad - IITM",27-01-2024 03:00:00,23.041137,72.456691,PM10,62,118,90
India,Gujarat,Ahmedabad,"SAC ISRO Satellite, Ahmedabad - IITM",27-01-2024 03:00:00,23.023389,72.515201,NO2,14,17,15
India,Gujarat,Ahmedabad,"SAC ISRO Satellite, Ahmedabad - IITM",27-01-2024 03:00:00,23.023389,72.515201,NH3,3,5,4
India,Gujarat,Ahmedabad,"SVPI Airport Hansol, Ahmedabad - IITM",27-01-2024 03:00:00,23.076793,72.627874,PM10,46,137,88
India,Gujarat,Ahmedabad,"SVPI Airport Hansol, Ahmedabad - IITM",27-01-2024 03:00:00,23.076793,72.627874,NH3,4,5,4
India,Gujarat,Ahmedabad,"Sardar Vallabhbhai Patel Stadium, Ahmedabad - IITM",27-01-2024 03:00:00,23.043070,72.562968,NH3,3,3,3
India,Gujarat,Ankleshwar,"GIDC, Ankleshwar - GPCB",27-01-2024 03:00:00,21.613267,73.010555,PM2.5,53,161,94
India,Gujarat,Gandhinagar,"GIFT City, Gandhinagar - IITM",27-01-2024 03:00:00,23.163798,72.677768,OZONE,3,27,9
India,Gujarat,Gandhinagar,"Sector-10, Gandhinagar - GPCB",27-01-2024 03:00:00,23.221714,72.654328,PM2.5,17,65,37
India,Gujarat,Gandhinagar,"Sector-10, Gandhinagar - GPCB",27-01-2024 03:00:00,23.221714,72.654328,NO2,3,11,6
India,Gujarat,Surat,"Science Center, Surat - SMC",27-01-2024 03:00:00,21.170046,72.795405,NO2,9,38,24
India,Gujarat,Surat,"Science Center, Surat - SMC",27-01-2024 03:00:00,21.170046,72.795405,SO2,17,42,25
India,Gujarat,Vapi,"Phase-1 GIDC, Vapi - GPCB",27-01-2024 03:00:00,20.362421,72.918013,PM2.5,60,414,234
India,Gujarat,Vapi,"Phase-1 GIDC, Vapi - GPCB",27-01-2024 03:00:00,20.362421,72.918013,PM10,71,416,192
India,Gujarat,Vatva,"Phase-4 GIDC, Vatva - GPCB",27-01-2024 03:00:00,22.969611,72.643500,PM10,40,110,69
India,Gujarat,Vatva,"Phase-4 GIDC, Vatva - GPCB",27-01-2024 03:00:00,22.969611,72.643500,NO2,45,213,99
India,Gujarat,Vatva,"Phase-4 GIDC, Vatva - GPCB",27-01-2024 03:00:00,22.969611,72.643500,NH3,1,2,2
India,Gujarat,Vatva,"Phase-4 GIDC, Vatva - GPCB",27-01-2024 03:00:00,22.969611,72.643500,SO2,NA,NA,NA
India,Haryana,Ambala,"Patti Mehar, Ambala - HSPCB",27-01-2024 03:00:00,30.379589,76.778328,CO,30,60,41
India,Haryana,Ambala,"Patti Mehar, Ambala - HSPCB",27-01-2024 03:00:00,30.379589,76.778328,OZONE,28,41,36
India,Haryana,Bahadurgarh,"Arya Nagar, Bahadurgarh - HSPCB",27-01-2024 03:00:00,28.6701,76.9254,PM10,127,234,163
India,Haryana,Ballabgarh,"Nathu Colony, Ballabgarh - HSPCB",27-01-2024 03:00:00,28.3419248,77.319699,NO2,12,13,12
India,Haryana,Ballabgarh,"Nathu Colony, Ballabgarh - HSPCB",27-01-2024 03:00:00,28.3419248,77.319699,CO,8,104,79
India,Haryana,Ballabgarh,"Nathu Colony, Ballabgarh - HSPCB",27-01-2024 03:00:00,28.3419248,77.319699,OZONE,1,26,3
India,Haryana,Bhiwani,"H.B. Colony, Bhiwani - HSPCB",27-01-2024 03:00:00,28.806223,76.141105,NH3,8,9,8
India,Haryana,Charkhi Dadri,"Mini Secretariat, Charkhi Dadri - HSPCB",27-01-2024 03:00:00,28.593883,76.270653,SO2,5,14,10
India,Haryana,Charkhi Dadri,"Mini Secretariat, Charkhi Dadri - HSPCB",27-01-2024 03:00:00,28.593883,76.270653,OZONE,12,19,15
India,Haryana,Dharuhera,"Municipal Corporation Office, Dharuhera -  HSPCB",27-01-2024 03:00:00,28.206800,76.799700,NO2,46,113,72
India,Haryana,Faridabad,"Sector 11, Faridabad - HSPCB",27-01-2024 03:00:00,28.376058,77.315741,PM10,119,500,210
India,Haryana,Faridabad,"Sector 11, Faridabad - HSPCB",27-01-2024 03:00:00,28.376058,77.315741,NO2,30,32,31
India,Haryana,Faridabad,"Sector 30, Faridabad - HSPCB",27-01-2024 03:00:00,28.4417,77.3217,OZONE,3,29,4
India,Haryana,Fatehabad,"Huda Sector, Fatehabad - HSPCB",27-01-2024 03:00:00,29.503664,75.467934,PM10,39,132,87
India,Haryana,Fatehabad,"Huda Sector, Fatehabad - HSPCB",27-01-2024 03:00:00,29.503664,75.467934,CO,5,10,7
India,Haryana,Fatehabad,"Huda Sector, Fatehabad - HSPCB",27-01-2024 03:00:00,29.503664,75.467934,OZONE,20,25,21
India,Haryana,Gurugram,"Teri Gram, Gurugram - HSPCB",27-01-2024 03:00:00,28.4275,77.1465,NO2,25,53,39
India,Haryana,Gurugram,"Teri Gram, Gurugram - HSPCB",27-01-2024 03:00:00,28.4275,77.1465,CO,55,80,72
India,Haryana,Gurugram,"Vikas Sadan, Gurugram - HSPCB",27-01-2024 03:00:00,28.4501238,77.0263051,PM2.5,137,342,270
India,Haryana,Gurugram,"Vikas Sadan, Gurugram - HSPCB",27-01-2024 03:00:00,28.4501238,77.0263051,NO2,5,25,13
India,Haryana,Hisar,"Urban Estate-II, Hisar - HSPCB",27-01-2024 03:00:00,29.140560,75.744941,PM2.5,69,394,199
India,Haryana,Jind,"Police Lines, Jind - HSPCB",27-01-2024 03:00:00,29.307814,76.337619,PM2.5,87,274,175
India,Haryana,Jind,"Police Lines, Jind - HSPCB",27-01-2024 03:00:00,29.307814,76.337619,PM10,67,230,119
India,Haryana,Kaithal,"Rishi Nagar, Kaithal - HSPCB",27-01-2024 03:00:00,29.8006,76.4155,NH3,NA,NA,NA
India,Haryana,Kaithal,"Rishi Nagar, Kaithal - HSPCB",27-01-2024 03:00:00,29.8006,76.4155,CO,22,126,24
India,Haryana,Kurukshetra,"Sector-7, Kurukshetra - HSPCB",27-01-2024 03:00:00,29.966942,76.875879,PM2.5,93,320,211
India,Haryana,Kurukshetra,"Sector-7, Kurukshetra - HSPCB",27-01-2024 03:00:00,29.966942,76.875879,PM10,63,174,119
India,Haryana,Kurukshetra,"Sector-7, Kurukshetra - HSPCB",27-01-2024 03:00:00,29.966942,76.875879,NH3,5,5,5
India,Haryana,Kurukshetra,"Sector-7, Kurukshetra - HSPCB",27-01-2024 03:00:00,29.966942,76.875879,OZONE,1,69,14
India,Haryana,Mandikhera,"General Hospital, Mandikhera - HSPCB",27-01-2024 03:00:00,27.9002,76.9938,PM10,NA,NA,NA
India,Haryana,Narnaul,"Shastri Nagar, Narnaul - HSPCB",27-01-2024 03:00:00,28.060249,76.113115,PM10,89,173,114
India,Haryana,Narnaul,"Shastri Nagar, Narnaul - HSPCB",27-01-2024 03:00:00,28.060249,76.113115,SO2,13,63,20
India,Haryana,Palwal,"Shyam Nagar, Palwal - HSPCB",27-01-2024 03:00:00,28.1485564,77.3320667,PM2.5,51,120,77
India,Haryana,Palwal,"Shyam Nagar, Palwal - HSPCB",27-01-2024 03:00:00,28.1485564,77.3320667,SO2,8,17,13
India,Haryana,Palwal,"Shyam Nagar, Palwal - HSPCB",27-01-2024 03:00:00,28.1485564,77.3320667,OZONE,2,29,16
India,Haryana,Rohtak,"MD University, Rohtak - HSPCB",27-01-2024 03:00:00,28.52123,76.37138,SO2,2,35,9
India,Haryana,Sirsa,"F-Block, Sirsa - HSPCB",27-01-2024 03:00:00,29.536400,75.015800,PM2.5,16,167,58
India,Haryana,Sonipat,"Murthal, Sonipat - HSPCB",27-01-2024 03:00:00,29.027200,77.062100,SO2,13,29,20
India,Himachal Pradesh,Baddi,"HIMUDA Complex Phase-1, Baddi - HPPCB",27-01-2024 03:00:00,30.943887,76.801991,PM2.5,97,368,246
India,Himachal Pradesh,Baddi,"HIMUDA Complex Phase-1, Baddi - HPPCB",27-01-2024 03:00:00,30.943887,76.801991,PM10,121,301,174
India,Himachal Pradesh,Baddi,"HIMUDA Complex Phase-1, Baddi - HPPCB",27-01-2024 03:00:00,30.943887,76.801991,NO2,28,72,46
India,Himachal Pradesh,Baddi,"HIMUDA Complex Phase-1, Baddi - HPPCB",27-01-2024 03:00:00,30.943887,76.801991,NH3,5,10,7
India,Jharkhand,Dhanbad,"Kalakusuma, Dhanbad - DMC",27-01-2024 03:00:00,23.811548,86.481238,PM2.5,3,191,73
India,Jharkhand,Dhanbad,"Sardar Patel Nagar, Dhanbad - JSPCB",27-01-2024 03:00:00,23.80569,86.44268,NO2,12,167,85
India,Karnataka,Belgaum,"Ramteerth Nagar, Belgaum - KSPCB",27-01-2024 03:00:00,15.888653,74.541751,SO2,8,9,8
India,Karnataka,Bengaluru,"Bapuji Nagar, Bengaluru - KSPCB",27-01-2024 03:00:00,12.951913,77.539784,PM2.5,67,142,92
India,Karnataka,Bengaluru,"Hebbal, Bengaluru - KSPCB",27-01-2024 03:00:00,13.029152,77.585901,NO2,NA,NA,NA
India,Karnataka,Bengaluru,"Hombegowda Nagar, Bengaluru - KSPCB",27-01-2024 03:00:00,12.938539,77.590100,NO2,28,36,31
India,Karnataka,Bengaluru,"Hombegowda Nagar, Bengaluru - KSPCB",27-01-2024 03:00:00,12.938539,77.590100,NH3,2,2,2
India,Karnataka,Bengaluru,"Jigani, Bengaluru - KSPCB",27-01-2024 03:00:00,12.7816279,77.6299145,PM10,44,113,75
India,Karnataka,Bengaluru,"Jigani, Bengaluru - KSPCB",27-01-2024 03:00:00,12.7816279,77.6299145,CO,28,67,59
India,Karnataka,Bengaluru,"Kasturi Nagar, Bengaluru - KSPCB",27-01-2024 03:00:00,13.003872,77.664217,NO2,16,17,17
India,Karnataka,Bengaluru,"Kasturi Nagar, Bengaluru - KSPCB",27-01-2024 03:00:00,13.003872,77.664217,SO2,10,10,10
India,Karnataka,Bengaluru,"RVCE-Mailasandra, Bengaluru - KSPCB",27-01-2024 03:00:00,12.921418,77.502466,SO2,4,5,4
India,Karnataka,Bengaluru,"RVCE-Mailasandra, Bengaluru - KSPCB",27-01-2024 03:00:00,12.921418,77.502466,CO,40,58,51
India,Karnataka,Bengaluru,"Sanegurava Halli, Bengaluru - KSPCB",27-01-2024 03:00:00,12.990328,77.5431385,PM10,29,31,30
India,Karnataka,Bengaluru,"Sanegurava Halli, Bengaluru - KSPCB",27-01-2024 03:00:00,12.990328,77.5431385,NO2,21,37,27
India,Karnataka,Bengaluru,"Silk Board, Bengaluru - KSPCB",27-01-2024 03:00:00,12.917348,77.622813,NO2,20,24,22
India,Karnataka,Bidar,"Naubad, Bidar - KSPCB",27-01-2024 03:00:00,17.930306,77.482194,SO2,NA,NA,NA
India,Karnataka,Chikkaballapur,"Chikkaballapur Rural, Chikkaballapur - KSPCB",27-01-2024 03:00:00,13.428828,77.731418,NH3,1,1,1
India,Karnataka,Chikkaballapur,"Chikkaballapur Rural, Chikkaballapur - KSPCB",27-01-2024 03:00:00,13.428828,77.731418,OZONE,24,26,25
India,Karnataka,Chikkamagaluru,"Kalyana Nagara, Chikkamagaluru - KSPCB",27-01-2024 03:00:00,13.328028,75.797056,NO2,21,38,28
India,Karnataka,Chikkamagaluru,"Kalyana Nagara, Chikkamagaluru - KSPCB",27-01-2024 03:00:00,13.328028,75.797056,NH3,3,6,4
India,Karnataka,Chikkamagaluru,"Kalyana Nagara, Chikkamagaluru - KSPCB",27-01-2024 03:00:00,13.328028,75.797056,CO,11,110,24
India,Karnataka,Davanagere,"Devaraj Urs Badavane, Davanagere - KSPCB",27-01-2024 03:00:00,14.475800,75.905200,NO2,10,14,11
India,Karnataka,Dharwad,"Kalabhavan, Dharwad - KSPCB",27-01-2024 03:00:00,15.459706,75.008381,SO2,4,8,6
India,Karnataka,Dharwad,"Kalabhavan, Dharwad - KSPCB",27-01-2024 03:00:00,15.459706,75.008381,CO,29,165,94
India,Karnataka,Gadag,"Panchal Nagar, Gadag - KSPCB",27-01-2024 03:00:00,15.411456,75.638133,PM2.5,31,70,45
India,Karnataka,Hubballi,"Deshpande Nagar, Hubballi - KSPCB",27-01-2024 03:00:00,15.351773,75.140726,NO2,19,26,23
India,Karnataka,Hubballi,"Lingaraj Nagar, Hubballi - KSPCB",27-01-2024 03:00:00,15.3714823,75.1160168,SO2,NA,NA,NA
India,Karnataka,Kalaburagi,"Lal Bahadur Shastri Nagar, Kalaburagi - KSPCB",27-01-2024 03:00:00,17.321993,76.822628,PM10,7,98,43
India,Karnataka,Kalaburagi,"Lal Bahadur Shastri Nagar, Kalaburagi - KSPCB",27-01-2024 03:00:00,17.321993,76.822628,NH3,2,2,2
India,Karnataka,Kalaburagi,"Mahatma Basaveswar Colony, Kalaburgi - KSPCB",27-01-2024 03:00:00,17.336318,76.847397,NO2,18,24,22
India,Karnataka,Kolar,"Tamaka Ind. Area, Kolar - KSPCB",27-01-2024 03:00:00,13.1276288,78.1570122,NO2,2,11,6
India,Karnataka,Kolar,"Tamaka Ind. Area, Kolar - KSPCB",27-01-2024 03:00:00,13.1276288,78.1570122,OZONE,13,21,16
India,Karnataka,Koppal,"Diwator Nagar, Koppal - KSPCB",27-01-2024 03:00:00,15.347630,76.181767,OZONE,17,62,41
India,Karnataka,Madikeri,"Stuart Hill, Madikeri - KSPCB",27-01-2024 03:00:00,12.415911,75.735050,PM10,38,85,58
India,Karnataka,Madikeri,"Stuart Hill, Madikeri - KSPCB",27-01-2024 03:00:00,12.415911,75.735050,NO2,7,35,12
India,Karnataka,Madikeri,"Stuart Hill, Madikeri - KSPCB",27-01-2024 03:00:00,12.415911,75.735050,NH3,1,1,1
India,Karnataka,Mangalore,"Kadri, Mangalore - KSPCB",27-01-2024 03:00:00,12.889250,74.853000,NO2,9,11,10
India,Karnataka,Mangalore,"Kadri, Mangalore - KSPCB",27-01-2024 03:00:00,12.889250,74.853000,CO,34,42,41
India,Karnataka,Mysuru,"Hebbal 1st Stage, Mysuru - KSPCB",27-01-2024 03:00:00,12.21041,76.37376,PM2.5,31,52,41
