country,state,city,station,last_update,latitude,longitude,pollutant_id,pollutant_min,pollutant_max,pollutant_avg
India,Andhra_Pradesh,Amaravati,"Secretariat, Amaravati - APPCB",06-02-2024 20:00:00,16.5150833,80.5181667,SO2,13,26,16
India,Andhra_Pradesh,Amaravati,"Secretariat, Amaravati - APPCB",06-02-2024 20:00:00,16.5150833,80.5181667,OZONE,2,64,45
India,Andhra_Pradesh,Anantapur,"Gulzarpet, Anantapur - APPCB",06-02-2024 20:00:00,14.675886,77.593027,OZONE,3,49,41
India,Andhra_Pradesh,Chittoor,"Gangineni Cheruvu, Chittoor - APPCB",06-02-2024 20:00:00,13.204880,79.097889,PM10,56,107,73
India,Andhra_Pradesh,Chittoor,"Gangineni Cheruvu, Chittoor - APPCB",06-02-2024 20:00:00,13.204880,79.097889,NH3,1,2,1
India,Andhra_Pradesh,Chittoor,"Gangineni Cheruvu, Chittoor - APPCB",06-02-2024 20:00:00,13.204880,79.097889,OZONE,8,163,132
India,Andhra_Pradesh,Kadapa,"Yerramukkapalli, Kadapa - APPCB",06-02-2024 20:00:00,14.465052,78.824187,NO2,8,8,8
India,Andhra_Pradesh,Rajamahendravaram,"Anand Kala Kshetram, Rajamahendravaram - APPCB",06-02-2024 20:00:00,16.9872867,81.7363176,SO2,7,77,16
India,Andhra_Pradesh,Tirupati,"Tirumala, Tirupati - APPCB",06-02-2024 20:00:00,13.67,79.35,NO2,27,62,44
India,Andhra_Pradesh,Tirupati,"Vaikuntapuram, Tirupati - APPCB",06-02-2024 20:00:00,13.615387,79.409230,PM2.5,20,36,25
India,Andhra_Pradesh,Vijayawada,"HB Colony, Vijayawada - APPCB",06-02-2024 20:00:00,16.536107,80.594233,PM2.5,34,43,39
India,Andhra_Pradesh,Vijayawada,"HB Colony, Vijayawada - APPCB",06-02-2024 20:00:00,16.536107,80.594233,PM10,38,49,45
India,Andhra_Pradesh,Vijayawada,"HB Colony, Vijayawada - APPCB",06-02-2024 20:00:00,16.536107,80.594233,OZONE,9,75,52
India,Andhra_Pradesh,Vijayawada,"Rajiv Gandhi Park, Vijayawada - APPCB",06-02-2024 20:00:00,16.509717,80.612222,NO2,6,60,28
India,Andhra_Pradesh,Vijayawada,"Rajiv Gandhi Park, Vijayawada - APPCB",06-02-2024 20:00:00,16.509717,80.612222,CO,30,34,34
India,Andhra_Pradesh,Vijayawada,"Rajiv Nagar, Vijayawada - APPCB",06-02-2024 20:00:00,16.554731,80.649110,PM2.5,25,340,117
India,Andhra_Pradesh,Vijayawada,"Rajiv Nagar, Vijayawada - APPCB",06-02-2024 20:00:00,16.554731,80.649110,NO2,8,12,10
India,Andhra_Pradesh,Vijayawada,"Rajiv Nagar, Vijayawada - APPCB",06-02-2024 20:00:00,16.554731,80.649110,NH3,1,3,2
India,Andhra_Pradesh,Visakhapatnam,"GVM Corporation, Visakhapatnam - APPCB",06-02-2024 20:00:00,17.72,83.3,NH3,2,5,4
India,Andhra_Pradesh,Visakhapatnam,"GVM Corporation, Visakhapatnam - APPCB",06-02-2024 20:00:00,17.72,83.3,CO,8,80,19
India,Assam,Byrnihat,"Central Academy for SFS, Byrnihat - PCBA",06-02-2024 20:00:00,26.071318,91.87488,NH3,6,8,7
India,Assam,Guwahati,"IITG, Guwahati - PCBA",06-02-2024 20:00:00,26.2028636,91.70046436,NO2,1,12,3
India,Assam,Guwahati,"LGBI Airport, Guwahati - PCBA",06-02-2024 20:00:00,26.10887,91.589544,PM10,127,319,187
India,Assam,Guwahati,"Pan Bazaar, Guwahati - PCBA",06-02-2024 20:00:00,26.187500,91.744194,CO,27,103,46
India,Assam,Guwahati,"Railway Colony, Guwahati - PCBA",06-02-2024 20:00:00,26.181742,91.78063,PM2.5,52,364,118
India,Assam,Guwahati,"Railway Colony, Guwahati - PCBA",06-02-2024 20:00:00,26.181742,91.78063,SO2,19,29,22
India,Assam,Nagaon,"Christianpatty, Nagaon - PCBA",06-02-2024 20:00:00,26.349082,92.68449,NO2,9,17,13
India,Assam,Nagaon,"Christianpatty, Nagaon - PCBA",06-02-2024 20:00:00,26.349082,92.68449,SO2,NA,NA,NA
India,Assam,Nalbari,"Bata Chowk, Nalbari - PCBA",06-02-2024 20:00:00,26.446912,91.439057,NH3,1,6,2
India,Assam,Silchar,"Tarapur, Silchar - PCBA",06-02-2024 20:00:00,24.82827,92.79525,PM2.5,33,49,39
India,Assam,Sivasagar,"Girls College, Sivasagar - PCBA",06-02-2024 20:00:00,26.987634,94.636574,PM2.5,14,43,28
India,Bihar,Araria,"Kharahiya Basti, Araria - BSPCB",06-02-2024 20:00:00,26.146529,87.454184,PM10,134,265,170
India,Bihar,Araria,"Kharahiya Basti, Araria - BSPCB",06-02-2024 20:00:00,26.146529,87.454184,CO,12,30,23
India,Bihar,Araria,"Kharahiya Basti, Araria - BSPCB",06-02-2024 20:00:00,26.146529,87.454184,OZONE,5,10,8
India,Bihar,Arrah,"New DM Office, Arrah - BSPCB",06-02-2024 20:00:00,25.5626095,84.663264,NH3,5,9,7
India,Bihar,Aurangabad,"Gurdeo Nagar, Aurangabad - BSPCB",06-02-2024 20:00:00,24.75746,84.366208,NH3,6,10,8
India,Bihar,Aurangabad,"Gurdeo Nagar, Aurangabad - BSPCB",06-02-2024 20:00:00,24.75746,84.366208,CO,16,84,82
India,Bihar,Bhagalpur,"Mayaganj, Bhagalpur - BSPCB",06-02-2024 20:00:00,25.265194,87.012947,SO2,10,14,12
India,Bihar,Buxar,"Charitra Van, Buxar - BSPCB (Formerly known as Central Jail)",06-02-2024 20:00:00,25.567520,83.966379,CO,39,107,51
India,Bihar,Gaya,"Collectorate, Gaya - BSPCB",06-02-2024 20:00:00,24.7955,84.9994,NO2,14,16,15
India,Bihar,Gaya,"Collectorate, Gaya - BSPCB",06-02-2024 20:00:00,24.7955,84.9994,SO2,16,27,20
India,Bihar,Gaya,"Kareemganj, Gaya - BSPCB",06-02-2024 20:00:00,24.792403,84.992416,CO,12,107,39
India,Bihar,Gaya,"SFTI Kusdihra, Gaya - BSPCB",06-02-2024 20:00:00,24.762518,84.982348,PM10,32,62,53
India,Bihar,Gaya,"SFTI Kusdihra, Gaya - BSPCB",06-02-2024 20:00:00,24.762518,84.982348,NO2,20,36,28
India,Bihar,Hajipur,"Industrial Area, Hajipur - BSPCB",06-02-2024 20:00:00,25.697189,85.245900,PM10,52,159,99
India,Bihar,Hajipur,"Industrial Area, Hajipur - BSPCB",06-02-2024 20:00:00,25.697189,85.245900,CO,34,60,40
India,Bihar,Hajipur,"Industrial Area, Hajipur - BSPCB",06-02-2024 20:00:00,25.697189,85.245900,OZONE,9,226,38
India,Bihar,Katihar,"Mirchaibari, Katihar - BSPCB",06-02-2024 20:00:00,25.560083,87.553265,PM10,61,191,101
India,Bihar,Katihar,"Mirchaibari, Katihar - BSPCB",06-02-2024 20:00:00,25.560083,87.553265,CO,20,22,22
India,Bihar,Kishanganj,"SDM Office_Khagra, Kishanganj - BSPCB",06-02-2024 20:00:00,26.0881305,87.93840336,PM2.5,17,167,38
India,Bihar,Kishanganj,"SDM Office_Khagra, Kishanganj - BSPCB",06-02-2024 20:00:00,26.0881305,87.93840336,NH3,12,16,15
India,Bihar,Kishanganj,"SDM Office_Khagra, Kishanganj - BSPCB",06-02-2024 20:00:00,26.0881305,87.93840336,OZONE,10,41,27
India,Bihar,Manguraha,"Forest Rest House, Manguraha - BSPCB",06-02-2024 20:00:00,27.308328,84.531742,CO,1,12,2
India,Bihar,Manguraha,"Forest Rest House, Manguraha - BSPCB",06-02-2024 20:00:00,27.308328,84.531742,OZONE,21,37,32
India,Bihar,Motihari,"Gandak Colony, Motihari - BSPCB",06-02-2024 20:00:00,26.63086,84.90051,PM10,35,119,62
India,Bihar,Motihari,"Gandak Colony, Motihari - BSPCB",06-02-2024 20:00:00,26.63086,84.90051,NO2,29,73,53
India,Bihar,Motihari,"Gandak Colony, Motihari - BSPCB",06-02-2024 20:00:00,26.63086,84.90051,NH3,5,12,9
India,Bihar,Munger,"Town Hall, Munger - BSPCB",06-02-2024 20:00:00,25.376776,86.471523,SO2,33,44,39
India,Bihar,Muzaffarpur,"Buddha Colony, Muzaffarpur - BSPCB",06-02-2024 20:00:00,26.11442,85.39813,PM2.5,78,234,135
India,Bihar,Muzaffarpur,"Buddha Colony, Muzaffarpur - BSPCB",06-02-2024 20:00:00,26.11442,85.39813,PM10,91,169,124
India,Bihar,Muzaffarpur,"Buddha Colony, Muzaffarpur - BSPCB",06-02-2024 20:00:00,26.11442,85.39813,NO2,19,56,28
India,Bihar,Muzaffarpur,"MIT-Daudpur Kothi, Muzaffarpur - BSPCB",06-02-2024 20:00:00,26.1403345,85.3650192,OZONE,5,35,25
India,Bihar,Patna,"DRM Office Danapur, Patna - BSPCB",06-02-2024 20:00:00,25.586562,85.043586,PM10,64,138,95
India,Bihar,Patna,"DRM Office Danapur, Patna - BSPCB",06-02-2024 20:00:00,25.586562,85.043586,NO2,10,38,20
India,Bihar,Patna,"DRM Office Danapur, Patna - BSPCB",06-02-2024 20:00:00,25.586562,85.043586,SO2,7,9,8
India,Bihar,Patna,"Govt. High School Shikarpur, Patna - BSPCB",06-02-2024 20:00:00,25.592539,85.227158,PM2.5,40,100,75
India,Bihar,Patna,"IGSC Planetarium Complex, Patna - BSPCB",06-02-2024 20:00:00,25.610369,85.132568,NO2,12,13,12
India,Bihar,Patna,"IGSC Planetarium Complex, Patna - BSPCB",06-02-2024 20:00:00,25.610369,85.132568,SO2,6,9,6
India,Bihar,Patna,"IGSC Planetarium Complex, Patna - BSPCB",06-02-2024 20:00:00,25.610369,85.132568,OZONE,4,16,12
India,Bihar,Patna,"Muradpur, Patna - BSPCB",06-02-2024 20:00:00,25.619651,85.147382,PM2.5,45,109,73
India,Bihar,Patna,"Muradpur, Patna - BSPCB",06-02-2024 20:00:00,25.619651,85.147382,NO2,10,16,14
India,Bihar,Patna,"Muradpur, Patna - BSPCB",06-02-2024 20:00:00,25.619651,85.147382,OZONE,18,51,41
India,Bihar,Patna,"Rajbansi Nagar, Patna - BSPCB",06-02-2024 20:00:00,25.599486,85.113666,SO2,NA,NA,NA
India,Bihar,Patna,"Samanpura, Patna - BSPCB",06-02-2024 20:00:00,25.596727,85.085624,PM2.5,90,317,174
India,Bihar,Patna,"Samanpura, Patna - BSPCB",06-02-2024 20:00:00,25.596727,85.085624,PM10,132,248,165
India,Bihar,Patna,"Samanpura, Patna - BSPCB",06-02-2024 20:00:00,25.596727,85.085624,NO2,25,48,35
India,Bihar,Patna,"Samanpura, Patna - BSPCB",06-02-2024 20:00:00,25.596727,85.085624,NH3,3,6,4
India,Bihar,Patna,"Samanpura, Patna - BSPCB",06-02-2024 20:00:00,25.596727,85.085624,OZONE,11,31,18
India,Bihar,Purnia,"Mariam Nagar, Purnia - BSPCB",06-02-2024 20:00:00,25.366336,87.117468,NH3,1,1,1
India,Bihar,Purnia,"Mariam Nagar, Purnia - BSPCB",06-02-2024 20:00:00,25.366336,87.117468,SO2,17,26,21
India,Bihar,Purnia,"Mariam Nagar, Purnia - BSPCB",06-02-2024 20:00:00,25.366336,87.117468,OZONE,10,28,18
India,Bihar,Saharsa,"Police Line, Saharsa - BSPCB",06-02-2024 20:00:00,25.892357,86.590325,PM10,NA,NA,NA
India,Bihar,Saharsa,"Police Line, Saharsa - BSPCB",06-02-2024 20:00:00,25.892357,86.590325,NH3,9,9,9
India,Bihar,Samastipur,"DM Office_Kasipur, Samastipur - BSPCB",06-02-2024 20:00:00,25.859655,85.77944,PM10,NA,NA,NA
India,Bihar,Samastipur,"DM Office_Kasipur, Samastipur - BSPCB",06-02-2024 20:00:00,25.859655,85.77944,NH3,3,5,5
India,Bihar,Samastipur,"DM Office_Kasipur, Samastipur - BSPCB",06-02-2024 20:00:00,25.859655,85.77944,SO2,3,14,9
India,Bihar,Samastipur,"DM Office_Kasipur, Samastipur - BSPCB",06-02-2024 20:00:00,25.859655,85.77944,OZONE,10,20,16
India,Bihar,Sasaram,"Dada Peer, Sasaram - BSPCB",06-02-2024 20:00:00,24.952822,84.002396,OZONE,4,5,4
India,Chandigarh,Chandigarh,"Sector 22, Chandigarh - CPCC",06-02-2024 20:00:00,30.735567,76.775714,PM10,56,131,84
India,Chandigarh,Chandigarh,"Sector 22, Chandigarh - CPCC",06-02-2024 20:00:00,30.735567,76.775714,CO,34,51,37
India,Chandigarh,Chandigarh,"Sector-25, Chandigarh - CPCC",06-02-2024 20:00:00,30.751462,76.762879,PM2.5,96,138,111
India,Chandigarh,Chandigarh,"Sector-25, Chandigarh - CPCC",06-02-2024 20:00:00,30.751462,76.762879,NH3,9,16,12
India,Chandigarh,Chandigarh,"Sector-25, Chandigarh - CPCC",06-02-2024 20:00:00,30.751462,76.762879,OZONE,1,35,24
India,Chhattisgarh,Bhilai,"32Bungalows, Bhilai - CECB",06-02-2024 20:00:00,21.194815,81.314770,NH3,6,6,6
India,Chhattisgarh,Bhilai,"32Bungalows, Bhilai - CECB",06-02-2024 20:00:00,21.194815,81.314770,CO,18,36,20
India,Chhattisgarh,Bhilai,"Hathkhoj, Bhilai - CECB",06-02-2024 20:00:00,21.224231,81.408350,OZONE,9,24,20
India,Chhattisgarh,Chhal,"Nawapara SECL Colony, Chhal - CECB",06-02-2024 20:00:00,22.118125,83.140608,OZONE,2,73,55
India,Chhattisgarh,Kunjemura,"OP Jindal School, Kunjemura - CECB",06-02-2024 20:00:00,22.126650,83.483212,PM10,70,403,175
India,Chhattisgarh,Kunjemura,"OP Jindal School, Kunjemura - CECB",06-02-2024 20:00:00,22.126650,83.483212,SO2,1,34,12
India,Chhattisgarh,Raipur,"Krishak Nagar, Raipur - CECB",06-02-2024 20:00:00,21.237755,81.705301,SO2,7,13,10
India,Chhattisgarh,Raipur,"Siltara Phase-II, Raipur - CECB",06-02-2024 20:00:00,21.371751,81.664929,PM10,83,156,117
India,Chhattisgarh,Raipur,"Siltara Phase-II, Raipur - CECB",06-02-2024 20:00:00,21.371751,81.664929,OZONE,3,18,11
India,Chhattisgarh,Tumidih,"OP Jindal Industrial Park, Tumidih - CECB",06-02-2024 20:00:00,22.06631475,83.33820077,SO2,5,14,7
India,Delhi,Delhi,"Alipur, Delhi - DPCC",06-02-2024 20:00:00,28.815329,77.153010,NO2,8,59,24
India,Delhi,Delhi,"Alipur, Delhi - DPCC",06-02-2024 20:00:00,28.815329,77.153010,SO2,7,13,8
India,Delhi,Delhi,"Alipur, Delhi - DPCC",06-02-2024 20:00:00,28.815329,77.153010,OZONE,6,92,74
India,Delhi,Delhi,"Bawana, Delhi - DPCC",06-02-2024 20:00:00,28.776200,77.051074,SO2,4,7,5
India,Delhi,Delhi,"DTU, Delhi - CPCB",06-02-2024 20:00:00,28.7500499,77.1112615,PM10,59,143,106
India,Delhi,Delhi,"Dr. Karni Singh Shooting Range, Delhi - DPCC",06-02-2024 20:00:00,28.498571,77.264840,SO2,5,9,7
India,Delhi,Delhi,"Dr. Karni Singh Shooting Range, Delhi - DPCC",06-02-2024 20:00:00,28.498571,77.264840,CO,20,103,42
India,Delhi,Delhi,"IGI Airport (T3), Delhi - IMD",06-02-2024 20:00:00,28.5627763,77.1180053,NO2,32,44,37
India,Delhi,Delhi,"ITO, Delhi - CPCB",06-02-2024 20:00:00,28.628624,77.241060,PM10,42,108,66
India,Delhi,Delhi,"ITO, Delhi - CPCB",06-02-2024 20:00:00,28.628624,77.241060,CO,24,62,35
India,Delhi,Delhi,"Jahangirpuri, Delhi - DPCC",06-02-2024 20:00:00,28.732820,77.170633,NO2,31,110,52
India,Delhi,Delhi,"Jahangirpuri, Delhi - DPCC",06-02-2024 20:00:00,28.732820,77.170633,CO,29,104,58
India,Delhi,Delhi,"Jawaharlal Nehru Stadium, Delhi - DPCC",06-02-2024 20:00:00,28.580280,77.233829,NH3,6,11,9
India,Delhi,Delhi,"Lodhi Road, Delhi - IITM",06-02-2024 20:00:00,28.588333,77.221667,PM10,75,123,96
India,Delhi,Delhi,"Lodhi Road, Delhi - IMD",06-02-2024 20:00:00,28.5918245,77.2273074,CO,2,58,37
India,Delhi,Delhi,"Major Dhyan Chand National Stadium, Delhi - DPCC",06-02-2024 20:00:00,28.611281,77.237738,PM10,63,156,105
India,Delhi,Delhi,"Major Dhyan Chand National Stadium, Delhi - DPCC",06-02-2024 20:00:00,28.611281,77.237738,CO,30,100,45
India,Delhi,Delhi,"Mandir Marg, Delhi - DPCC",06-02-2024 20:00:00,28.636429,77.201067,OZONE,1,26,18
India,Delhi,Delhi,"Mundka, Delhi - DPCC",06-02-2024 20:00:00,28.684678,77.076574,NO2,31,99,47
India,Delhi,Delhi,"Mundka, Delhi - DPCC",06-02-2024 20:00:00,28.684678,77.076574,SO2,3,103,10
India,Delhi,Delhi,"NSIT Dwarka, Delhi - CPCB",06-02-2024 20:00:00,28.60909,77.0325413,NO2,14,43,26
India,Delhi,Delhi,"NSIT Dwarka, Delhi - CPCB",06-02-2024 20:00:00,28.60909,77.0325413,NH3,7,10,8
India,Delhi,Delhi,"NSIT Dwarka, Delhi - CPCB",06-02-2024 20:00:00,28.60909,77.0325413,CO,26,106,56
India,Delhi,Delhi,"Najafgarh, Delhi - DPCC",06-02-2024 20:00:00,28.570173,76.933762,NH3,2,3,2
India,Delhi,Delhi,"Najafgarh, Delhi - DPCC",06-02-2024 20:00:00,28.570173,76.933762,CO,12,30,18
India,Delhi,Delhi,"Najafgarh, Delhi - DPCC",06-02-2024 20:00:00,28.570173,76.933762,OZONE,12,123,95
India,Delhi,Delhi,"Nehru Nagar, Delhi - DPCC",06-02-2024 20:00:00,28.567890,77.250515,PM2.5,53,349,179
India,Delhi,Delhi,"Nehru Nagar, Delhi - DPCC",06-02-2024 20:00:00,28.567890,77.250515,CO,28,108,70
India,Delhi,Delhi,"New Moti Bagh, Delhi - MHUA",06-02-2024 20:00:00,28.57834,77.18400,PM2.5,48,304,151
India,Delhi,Delhi,"Okhla Phase-2, Delhi - DPCC",06-02-2024 20:00:00,28.530785,77.271255,PM10,100,159,125
India,Delhi,Delhi,"Okhla Phase-2, Delhi - DPCC",06-02-2024 20:00:00,28.530785,77.271255,NO2,41,105,63
India,Delhi,Delhi,"Patparganj, Delhi - DPCC",06-02-2024 20:00:00,28.623763,77.287209,PM10,106,155,133
India,Delhi,Delhi,"Punjabi Bagh, Delhi - DPCC",06-02-2024 20:00:00,28.674045,77.131023,NO2,31,78,46
India,Delhi,Delhi,"Pusa, Delhi - DPCC",06-02-2024 20:00:00,28.639652,77.146275,CO,4,113,50
India,Delhi,Delhi,"Pusa, Delhi - IMD",06-02-2024 20:00:00,28.636110,77.173332,NO2,21,34,26
India,Delhi,Delhi,"Pusa, Delhi - IMD",06-02-2024 20:00:00,28.636110,77.173332,OZONE,12,23,21
India,Delhi,Delhi,"R K Puram, Delhi - DPCC",06-02-2024 20:00:00,28.563262,77.186937,PM2.5,3,280,166
India,Delhi,Delhi,"R K Puram, Delhi - DPCC",06-02-2024 20:00:00,28.563262,77.186937,SO2,17,27,23
India,Delhi,Delhi,"R K Puram, Delhi - DPCC",06-02-2024 20:00:00,28.563262,77.186937,OZONE,8,100,74
India,Delhi,Delhi,"Rohini, Delhi - DPCC",06-02-2024 20:00:00,28.732528,77.119920,OZONE,3,86,62
India,Delhi,Delhi,"Shadipur, Delhi - CPCB",06-02-2024 20:00:00,28.6514781,77.1473105,PM2.5,41,181,88
India,Delhi,Delhi,"Shadipur, Delhi - CPCB",06-02-2024 20:00:00,28.6514781,77.1473105,PM10,111,276,133
India,Delhi,Delhi,"Shadipur, Delhi - CPCB",06-02-2024 20:00:00,28.6514781,77.1473105,NH3,9,14,12
India,Delhi,Delhi,"Sirifort, Delhi - CPCB",06-02-2024 20:00:00,28.5504249,77.2159377,SO2,29,33,31
India,Delhi,Delhi,"Sri Aurobindo Marg, Delhi - DPCC",06-02-2024 20:00:00,28.531346,77.190156,PM10,84,151,114
India,Delhi,Delhi,"Vivek Vihar, Delhi - DPCC",06-02-2024 20:00:00,28.672342,77.315260,OZONE,3,47,18
India,Delhi,Delhi,"Wazirpur, Delhi - DPCC",06-02-2024 20:00:00,28.699793,77.165453,NH3,2,4,3
India,Gujarat,Ahmedabad,"Chandkheda, Ahmedabad - IITM",06-02-2024 20:00:00,23.107969,72.574648,CO,12,106,53
India,Gujarat,Ahmedabad,"Gyaspur, Ahmedabad - IITM",06-02-2024 20:00:00,22.977134,72.553024,PM2.5,63,379,147
India,Gujarat,Ahmedabad,"Gyaspur, Ahmedabad - IITM",06-02-2024 20:00:00,22.977134,72.553024,PM10,69,406,125
India,Gujarat,Ahmedabad,"Gyaspur, Ahmedabad - IITM",06-02-2024 20:00:00,22.977134,72.553024,CO,22,63,38
India,Gujarat,Ahmedabad,"Maninagar, Ahmedabad - GPCB",06-02-2024 20:00:00,23.002657,72.591912,PM2.5,19,87,44
India,Gujarat,Ahmedabad,"Maninagar, Ahmedabad - GPCB",06-02-2024 20:00:00,23.002657,72.591912,SO2,1,54,16
India,Gujarat,Ahmedabad,"Maninagar, Ahmedabad - GPCB",06-02-2024 20:00:00,23.002657,72.591912,CO,8,48,27
India,Gujarat,Ahmedabad,"Raikhad, Ahmedabad - IITM",06-02-2024 20:00:00,23.020509,72.579261,NO2,10,86,30
India,Gujarat,Ahmedabad,"Raikhad, Ahmedabad - IITM",06-02-2024 20:00:00,23.020509,72.579261,NH3,2,4,3
India,Gujarat,Ahmedabad,"Rakhial, Ahmedabad - IITM",06-02-2024 20:00:00,23.016834,72.625775,OZONE,2,40,31
India,Gujarat,Ahmedabad,"SAC ISRO Bopal, Ahmedabad - IITM",06-02-2024 20:00:00,23.041137,72.456691,NH3,4,4,4
India,Gujarat,Ahmedabad,"SVPI Airport Hansol, Ahmedabad - IITM",06-02-2024 20:00:00,23.076793,72.627874,PM10,65,104,79
India,Gujarat,Ankleshwar,"GIDC, Ankleshwar - GPCB",06-02-2024 20:00:00,21.613267,73.010555,PM2.5,56,94,78
India,Gujarat,Ankleshwar,"GIDC, Ankleshwar - GPCB",06-02-2024 20:00:00,21.613267,73.010555,CO,9,102,55
India,Gujarat,Ankleshwar,"GIDC, Ankleshwar - GPCB",06-02-2024 20:00:00,21.613267,73.010555,OZONE,20,30,26
India,Gujarat,Gandhinagar,"GIFT City, Gandhinagar - IITM",06-02-2024 20:00:00,23.163798,72.677768,PM2.5,49,178,77
India,Gujarat,Gandhinagar,"GIFT City, Gandhinagar - IITM",06-02-2024 20:00:00,23.163798,72.677768,PM10,56,139,85
India,Gujarat,Gandhinagar,"IIPHG Lekawada, Gandhinagar - IITM",06-02-2024 20:00:00,23.243639,72.68994,PM2.5,21,500,175
India,Gujarat,Gandhinagar,"Sector-10, Gandhinagar - GPCB",06-02-2024 20:00:00,23.221714,72.654328,PM2.5,23,48,31
India,Gujarat,Gandhinagar,"Sector-10, Gandhinagar - GPCB",06-02-2024 20:00:00,23.221714,72.654328,SO2,8,9,9
India,Gujarat,Vapi,"Phase-1 GIDC, Vapi - GPCB",06-02-2024 20:00:00,20.362421,72.918013,PM2.5,85,400,231
India,Gujarat,Vatva,"Phase-4 GIDC, Vatva - GPCB",06-02-2024 20:00:00,22.969611,72.643500,OZONE,2,31,2
India,Haryana,Ambala,"Patti Mehar, Ambala - HSPCB",06-02-2024 20:00:00,30.379589,76.778328,NO2,2,3,3
India,Haryana,Ambala,"Patti Mehar, Ambala - HSPCB",06-02-2024 20:00:00,30.379589,76.778328,NH3,9,9,9
India,Haryana,Ballabgarh,"Nathu Colony, Ballabgarh - HSPCB",06-02-2024 20:00:00,28.3419248,77.319699,CO,5,80,29
India,Haryana,Bhiwani,"H.B. Colony, Bhiwani - HSPCB",06-02-2024 20:00:00,28.806223,76.141105,PM2.5,31,106,71
India,Haryana,Charkhi Dadri,"Mini Secretariat, Charkhi Dadri - HSPCB",06-02-2024 20:00:00,28.593883,76.270653,NH3,5,9,5
India,Haryana,Dharuhera,"Municipal Corporation Office, Dharuhera -  HSPCB",06-02-2024 20:00:00,28.206800,76.799700,NO2,45,113,71
India,Haryana,Faridabad,"New Industrial Town, Faridabad - HSPCB",06-02-2024 20:00:00,28.39072,77.30059,NO2,1,12,6
India,Haryana,Faridabad,"New Industrial Town, Faridabad - HSPCB",06-02-2024 20:00:00,28.39072,77.30059,CO,11,27,15
India,Haryana,Faridabad,"New Industrial Town, Faridabad - HSPCB",06-02-2024 20:00:00,28.39072,77.30059,OZONE,32,244,162
India,Haryana,Faridabad,"Sector 11, Faridabad - HSPCB",06-02-2024 20:00:00,28.376058,77.315741,NO2,30,32,31
India,Haryana,Faridabad,"Sector 11, Faridabad - HSPCB",06-02-2024 20:00:00,28.376058,77.315741,NH3,6,7,6
India,Haryana,Faridabad,"Sector 30, Faridabad - HSPCB",06-02-2024 20:00:00,28.4417,77.3217,PM2.5,106,136,122
India,Haryana,Faridabad,"Sector- 16A, Faridabad - HSPCB",06-02-2024 20:00:00,28.4088421,77.3099081,SO2,NA,NA,NA
India,Haryana,Faridabad,"Sector- 16A, Faridabad - HSPCB",06-02-2024 20:00:00,28.4088421,77.3099081,OZONE,13,14,14
India,Haryana,Fatehabad,"Huda Sector, Fatehabad - HSPCB",06-02-2024 20:00:00,29.503664,75.467934,PM10,46,113,68
India,Haryana,Fatehabad,"Huda Sector, Fatehabad - HSPCB",06-02-2024 20:00:00,29.503664,75.467934,NH3,9,10,10
India,Haryana,Gurugram,"Teri Gram, Gurugram - HSPCB",06-02-2024 20:00:00,28.4275,77.1465,PM2.5,46,142,77
India,Haryana,Gurugram,"Vikas Sadan, Gurugram - HSPCB",06-02-2024 20:00:00,28.4501238,77.0263051,PM2.5,71,141,93
India,Haryana,Kaithal,"Rishi Nagar, Kaithal - HSPCB",06-02-2024 20:00:00,29.8006,76.4155,PM2.5,39,127,69
India,Haryana,Kaithal,"Rishi Nagar, Kaithal - HSPCB",06-02-2024 20:00:00,29.8006,76.4155,NO2,24,26,25
India,Haryana,Mandikhera,"General Hospital, Mandikhera - HSPCB",06-02-2024 20:00:00,27.9002,76.9938,OZONE,21,31,26
India,Haryana,Narnaul,"Shastri Nagar, Narnaul - HSPCB",06-02-2024 20:00:00,28.060249,76.113115,NH3,5,18,12
India,Haryana,Panipat,"Sector-18, Panipat - HSPCB",06-02-2024 20:00:00,29.497973,76.993331,NO2,28,32,30
India,Haryana,Rohtak,"MD University, Rohtak - HSPCB",06-02-2024 20:00:00,28.52123,76.37138,NO2,45,53,50
India,Haryana,Sirsa,"F-Block, Sirsa - HSPCB",06-02-2024 20:00:00,29.536400,75.015800,SO2,1,59,24
India,Haryana,Sirsa,"F-Block, Sirsa - HSPCB",06-02-2024 20:00:00,29.536400,75.015800,OZONE,17,95,74
India,Haryana,Sonipat,"Murthal, Sonipat - HSPCB",06-02-2024 20:00:00,29.027200,77.062100,CO,8,19,12
India,Haryana,Sonipat,"Murthal, Sonipat - HSPCB",06-02-2024 20:00:00,29.027200,77.062100,OZONE,16,36,33
India,Haryana,Yamuna Nagar,"Gobind Pura, Yamuna Nagar - HSPCB",06-02-2024 20:00:00,30.1480566,77.2893471,CO,24,50,33
India,Jharkhand,Dhanbad,"Kalakusuma, Dhanbad - DMC",06-02-2024 20:00:00,23.811548,86.481238,NO2,NA,NA,NA
India,Jharkhand,Dhanbad,"Sardar Patel Nagar, Dhanbad - JSPCB",06-02-2024 20:00:00,23.80569,86.44268,CO,167,173,170
India,Jharkhand,Dhanbad,"Sardar Patel Nagar, Dhanbad - JSPCB",06-02-2024 20:00:00,23.80569,86.44268,OZONE,8,12,10
India,Jharkhand,Pathardih,"Mohalbani Ghat, Pathardih - DMC",06-02-2024 20:00:00,23.669880,86.411725,OZONE,7,11,9
India,Karnataka,Bagalkot,"Vidayagiri, Bagalkot - KSPCB",06-02-2024 20:00:00,16.172806,75.659694,NO2,10,11,10
India,Karnataka,Bagalkot,"Vidayagiri, Bagalkot - KSPCB",06-02-2024 20:00:00,16.172806,75.659694,CO,28,58,43
India,Karnataka,Belgaum,"Ramteerth Nagar, Belgaum - KSPCB",06-02-2024 20:00:00,15.888653,74.541751,PM2.5,NA,NA,NA
India,Karnataka,Bengaluru,"BTM Layout, Bengaluru - CPCB",06-02-2024 20:00:00,12.9135218,77.5950804,PM2.5,17,323,45
India,Karnataka,Bengaluru,"BTM Layout, Bengaluru - CPCB",06-02-2024 20:00:00,12.9135218,77.5950804,OZONE,2,47,31
India,Karnataka,Bengaluru,"Bapuji Nagar, Bengaluru - KSPCB",06-02-2024 20:00:00,12.951913,77.539784,PM2.5,46,168,74
India,Karnataka,Bengaluru,"Bapuji Nagar, Bengaluru - KSPCB",06-02-2024 20:00:00,12.951913,77.539784,PM10,68,168,102
India,Karnataka,Bengaluru,"Hebbal, Bengaluru - KSPCB",06-02-2024 20:00:00,13.029152,77.585901,NH3,1,1,1
India,Karnataka,Bengaluru,"Jayanagar 5th Block, Bengaluru - KSPCB",06-02-2024 20:00:00,12.920984,77.584908,NH3,2,3,3
India,Karnataka,Bengaluru,"Kasturi Nagar, Bengaluru - KSPCB",06-02-2024 20:00:00,13.003872,77.664217,NO2,16,17,17
India,Karnataka,Bengaluru,"Shivapura_Peenya, Bengaluru - KSPCB",06-02-2024 20:00:00,13.0246342,77.5080115,SO2,6,18,9
India,Karnataka,Bengaluru,"Silk Board, Bengaluru - KSPCB",06-02-2024 20:00:00,12.917348,77.622813,PM2.5,30,140,68
India,Karnataka,Bengaluru,"Silk Board, Bengaluru - KSPCB",06-02-2024 20:00:00,12.917348,77.622813,SO2,5,8,6
India,Karnataka,Chamarajanagar,"Urban, Chamarajanagar - KSPCB",06-02-2024 20:00:00,11.55358,76.55521,PM10,34,58,45
India,Karnataka,Chikkamagaluru,"Kalyana Nagara, Chikkamagaluru - KSPCB",06-02-2024 20:00:00,13.328028,75.797056,CO,11,127,26
India,Karnataka,Davanagere,"Devaraj Urs Badavane, Davanagere - KSPCB",06-02-2024 20:00:00,14.475800,75.905200,NO2,6,13,11
India,Karnataka,Davanagere,"Devaraj Urs Badavane, Davanagere - KSPCB",06-02-2024 20:00:00,14.475800,75.905200,SO2,3,9,5
India,Karnataka,Davanagere,"Devaraj Urs Badavane, Davanagere - KSPCB",06-02-2024 20:00:00,14.475800,75.905200,CO,13,27,22
India,Karnataka,Gadag,"Panchal Nagar, Gadag - KSPCB",06-02-2024 20:00:00,15.411456,75.638133,PM10,24,44,36
India,Karnataka,Gadag,"Panchal Nagar, Gadag - KSPCB",06-02-2024 20:00:00,15.411456,75.638133,SO2,11,19,16
India,Karnataka,Hubballi,"Lingaraj Nagar, Hubballi - KSPCB",06-02-2024 20:00:00,15.3714823,75.1160168,OZONE,2,38,34
India,Karnataka,Kalaburagi,"Lal Bahadur Shastri Nagar, Kalaburagi - KSPCB",06-02-2024 20:00:00,17.321993,76.822628,NH3,2,2,2
India,Karnataka,Kalaburagi,"Mahatma Basaveswar Colony, Kalaburgi - KSPCB",06-02-2024 20:00:00,17.336318,76.847397,NH3,3,4,3
India,Karnataka,Kalaburagi,"Mahatma Basaveswar Colony, Kalaburgi - KSPCB",06-02-2024 20:00:00,17.336318,76.847397,CO,34,102,45
India,Karnataka,Kalaburagi,"Mahatma Basaveswar Colony, Kalaburgi - KSPCB",06-02-2024 20:00:00,17.336318,76.847397,OZONE,1,26,20
India,Karnataka,Koppal,"Diwator Nagar, Koppal - KSPCB",06-02-2024 20:00:00,15.347630,76.181767,OZONE,2,15,7
India,Karnataka,Madikeri,"Stuart Hill, Madikeri - KSPCB",06-02-2024 20:00:00,12.415911,75.735050,NO2,6,11,8
India,Karnataka,Madikeri,"Stuart Hill, Madikeri - KSPCB",06-02-2024 20:00:00,12.415911,75.735050,SO2,4,4,4
India,Karnataka,Madikeri,"Stuart Hill, Madikeri - KSPCB",06-02-2024 20:00:00,12.415911,75.735050,OZONE,32,41,38
India,Karnataka,Mangalore,"Kadri, Mangalore - KSPCB",06-02-2024 20:00:00,12.889250,74.853000,NO2,6,8,8
India,Karnataka,Mysuru,"Hebbal 1st Stage, Mysuru - KSPCB",06-02-2024 20:00:00,12.21041,76.37376,NH3,1,3,2
India,Karnataka,Raichur,"Haji Colony, Raichur - KSPCB",06-02-2024 20:00:00,16.208139,77.348417,NO2,20,58,34
India,Karnataka,Raichur,"Haji Colony, Raichur - KSPCB",06-02-2024 20:00:00,16.208139,77.348417,OZONE,2,7,4
India,Karnataka,Ramanagara,"Vijay Nagar, Ramanagara - KSPCB",06-02-2024 20:00:00,12.733409,77.298051,CO,2,47,11
India,Karnataka,Shivamogga,"Vinoba Nagara, Shivamogga - KSPCB",06-02-2024 20:00:00,13.940000,75.555917,PM2.5,42,64,55
India,Karnataka,Shivamogga,"Vinoba Nagara, Shivamogga - KSPCB",06-02-2024 20:00:00,13.940000,75.555917,NO2,11,27,14
India,Karnataka,Vijayapura,"Ibrahimpur, Vijayapura - KSPCB",06-02-2024 20:00:00,16.802639,75.722694,CO,30,62,47
India,Karnataka,Yadgir,"Collector Office, Yadgir - KSPCB",06-02-2024 20:00:00,16.7602,77.1428,PM2.5,51,147,74
India,Karnataka,Yadgir,"Collector Office, Yadgir - KSPCB",06-02-2024 20:00:00,16.7602,77.1428,NO2,5,9,6
India,Kerala,Eloor,"Udyogamandal, Eloor - Kerala PCB",06-02-2024 20:00:00,10.073232,76.302765,NO2,4,4,4
India,Kerala,Kannur,"Thavakkara, Kannur - Kerala PCB",06-02-2024 20:00:00,11.875000,75.373200,NH3,1,1,1
India,Kerala,Kollam,"Polayathode, Kollam - Kerala PCB",06-02-2024 20:00:00,8.8787,76.6073,PM2.5,72,186,109
India,Kerala,Kollam,"Polayathode, Kollam - Kerala PCB",06-02-2024 20:00:00,8.8787,76.6073,NO2,8,9,8
India,Kerala,Kollam,"Polayathode, Kollam - Kerala PCB",06-02-2024 20:00:00,8.8787,76.6073,SO2,1,7,3
India,Kerala,Thiruvananthapuram,"Kariavattom, Thiruvananthapuram - Kerala PCB",06-02-2024 20:00:00,8.563700,76.886500,CO,14,46,25
India,Kerala,Thiruvananthapuram,"Kariavattom, Thiruvananthapuram - Kerala PCB",06-02-2024 20:00:00,8.563700,76.886500,OZONE,25,31,29
India,Kerala,Thiruvananthapuram,"Plammoodu, Thiruvananthapuram - Kerala PCB",06-02-2024 20:00:00,8.5149093,76.9435879,SO2,8,13,10
India,Madhya Pradesh,Bhopal,"Paryavaran Parisar, Bhopal - MPPCB",06-02-2024 20:00:00,23.210494,77.425409,NH3,8,12,10
India,Madhya Pradesh,Bhopal,"Paryavaran Parisar, Bhopal - MPPCB",06-02-2024 20:00:00,23.210494,77.425409,SO2,22,25,23
India,Madhya Pradesh,Bhopal,"T T Nagar, Bhopal - MPPCB",06-02-2024 20:00:00,23.233584,77.400574,PM2.5,58,181,108
India,Madhya Pradesh,Gwalior,"City Center, Gwalior - MPPCB",06-02-2024 20:00:00,26.203442,78.193251,PM2.5,52,311,172
India,Madhya Pradesh,Gwalior,"City Center, Gwalior - MPPCB",06-02-2024 20:00:00,26.203442,78.193251,SO2,33,42,36
India,Madhya Pradesh,Gwalior,"Deen Dayal Nagar, Gwalior - MPPCB",06-02-2024 20:00:00,26.259242,78.216432,OZONE,11,144,99
India,Madhya Pradesh,Gwalior,"Maharaj Bada, Gwalior - MPPCB",06-02-2024 20:00:00,26.200388,78.147714,NO2,21,114,43
India,Madhya Pradesh,Gwalior,"Phool Bagh, Gwalior - Mondelez Ind. Food",06-02-2024 20:00:00,26.210536,78.171,PM10,40,139,88
India,Madhya Pradesh,Gwalior,"Phool Bagh, Gwalior - Mondelez Ind. Food",06-02-2024 20:00:00,26.210536,78.171,SO2,11,17,12
India,Madhya Pradesh,Indore,"Chhoti Gwaltoli, Indore - MPPCB",06-02-2024 20:00:00,22.4310,75.5213,NH3,5,7,6
India,Madhya Pradesh,Indore,"Maguda Nagar, Indore - IMC",06-02-2024 20:00:00,22.7524,75.8872,PM10,NA,NA,NA
India,Madhya Pradesh,Indore,"Maguda Nagar, Indore - IMC",06-02-2024 20:00:00,22.7524,75.8872,NH3,NA,NA,NA
India,Madhya Pradesh,Indore,"Maguda Nagar, Indore - IMC",06-02-2024 20:00:00,22.7524,75.8872,SO2,NA,NA,NA
India,Madhya Pradesh,Indore,"Regional Park, Indore - IMC",06-02-2024 20:00:00,22.6780,75.8559,PM2.5,31,95,62
India,Madhya Pradesh,Indore,"Regional Park, Indore - IMC",06-02-2024 20:00:00,22.6780,75.8559,NH3,1,2,1
India,Madhya Pradesh,Indore,"Regional Park, Indore - IMC",06-02-2024 20:00:00,22.6780,75.8559,CO,18,26,19
India,Madhya Pradesh,Jabalpur,"Govindh Bhavan Colony, Jabalpur - JMC",06-02-2024 20:00:00,23.163174,79.973061,CO,22,54,23
India,Madhya Pradesh,Jabalpur,"Govindh Bhavan Colony, Jabalpur - JMC",06-02-2024 20:00:00,23.163174,79.973061,OZONE,10,90,69
India,Madhya Pradesh,Jabalpur,"Gupteshwar, Jabalpur - JMC",06-02-2024 20:00:00,23.142888,79.916147,PM10,69,121,84
India,Madhya Pradesh,Jabalpur,"Marhatal, Jabalpur - MPPCB",06-02-2024 20:00:00,23.168606,79.932247,SO2,17,26,20
India,Madhya Pradesh,Jabalpur,"Suhagi, Jabalpur - JMC",06-02-2024 20:00:00,23.218135,79.957770,NO2,43,50,48
India,Madhya Pradesh,Jabalpur,"Suhagi, Jabalpur - JMC",06-02-2024 20:00:00,23.218135,79.957770,OZONE,6,72,39
India,Madhya Pradesh,Katni,"Gole Bazar, Katni - MPPCB",06-02-2024 20:00:00,23.50016,80.23284,CO,34,108,86
India,Madhya Pradesh,Mandideep,"Sector-D Industrial Area, Mandideep - MPPCB",06-02-2024 20:00:00,23.108440,77.511428,NO2,41,174,110
India,Madhya Pradesh,Pithampur,"Sector-2 Industrial Area, Pithampur - MPPCB",06-02-2024 20:00:00,22.624758,75.675238,PM2.5,19,82,44
India,Madhya Pradesh,Ratlam,"Shasthri Nagar, Ratlam - IPCA Lab",06-02-2024 20:00:00,23.331731,75.045981,PM10,77,174,110
India,Madhya Pradesh,Sagar,"Civil Lines, Sagar - MPPCB",06-02-2024 20:00:00,23.838586,78.759431,NH3,1,7,4
India,Madhya Pradesh,Sagar,"Civil Lines, Sagar - MPPCB",06-02-2024 20:00:00,23.838586,78.759431,OZONE,41,49,45
India,Madhya Pradesh,Ujjain,"Mahakaleshwar Temple, Ujjain - MPPCB",06-02-2024 20:00:00,23.182719 ,75.768218 ,PM10,52,110,66
India,Maharashtra,Ahmednagar,"Tarakpur, Ahmednagar - MPCB",06-02-2024 20:00:00,19.10122,74.73339,NH3,3,4,3
India,Maharashtra,Akola,"Ramdaspeth, Akola - MPCB",06-02-2024 20:00:00,20.719516,77.000253,SO2,7,29,12
India,Maharashtra,Amravati,"Shivneri Colony, Amravati - MPCB",06-02-2024 20:00:00,20.9402359,77.7895248,NO2,19,105,51
India,Maharashtra,Amravati,"Shivneri Colony, Amravati - MPCB",06-02-2024 20:00:00,20.9402359,77.7895248,OZONE,6,80,59
India,Maharashtra,Amravati,"Shri Shivaji Science College, Amaravati - MPCB",06-02-2024 20:00:00,20.939198,77.765701,NO2,9,130,48
India,Maharashtra,Aurangabad,"MIDC Chilkalthana, Aurangabad - MPCB",06-02-2024 20:00:00,19.875620,75.387310,OZONE,9,65,50
India,Maharashtra,Aurangabad,"Rachnakar Colony, Aurangabad - MPCB",06-02-2024 20:00:00,19.863756,75.321188,NO2,19,127,60
India,Maharashtra,Aurangabad,"Rachnakar Colony, Aurangabad - MPCB",06-02-2024 20:00:00,19.863756,75.321188,OZONE,14,110,77
India,Maharashtra,Belapur,"CBD Belapur, Belapur - MPCB",06-02-2024 20:00:00,19.0243902,73.0406721,PM2.5,49,211,98
India,Maharashtra,Belapur,"CBD Belapur, Belapur - MPCB",06-02-2024 20:00:00,19.0243902,73.0406721,OZONE,1,92,46
India,Maharashtra,Bhiwandi,"Gokul Nagar, Bhiwandi - MPCB",06-02-2024 20:00:00,19.309073,73.057223,PM10,61,253,134
India,Maharashtra,Boisar,"Khaira, Boisar - MPCB",06-02-2024 20:00:00,19.786089,72.757971,NH3,NA,NA,NA
India,Maharashtra,Chandrapur,"Chauhan Colony, Chandrapur - MPCB",06-02-2024 20:00:00,19.962900,79.298714,PM2.5,67,308,129
India,Maharashtra,Chandrapur,"MIDC Khutala, Chandrapur - MPCB",06-02-2024 20:00:00,19.9775302,79.2337086,NH3,NA,NA,NA
India,Maharashtra,Chandrapur,"MIDC Khutala, Chandrapur - MPCB",06-02-2024 20:00:00,19.9775302,79.2337086,SO2,NA,NA,NA
India,Maharashtra,Chandrapur,"MIDC Khutala, Chandrapur - MPCB",06-02-2024 20:00:00,19.9775302,79.2337086,OZONE,1,1,1
India,Maharashtra,Jalgaon,"Prabhat Colony, Jalgaon - MPCB",06-02-2024 20:00:00,21.001264,75.565602,PM2.5,40,112,65
India,Maharashtra,Jalgaon,"Prabhat Colony, Jalgaon - MPCB",06-02-2024 20:00:00,21.001264,75.565602,CO,12,24,18
India,Maharashtra,Jalna,"Old MIDC, Jalna - MPCB",06-02-2024 20:00:00,19.854616,75.905894,PM10,108,416,182
India,Maharashtra,Kolhapur,"Shivaji University, Kolhapur - MPCB",06-02-2024 20:00:00,16.6870449,74.2505872,PM2.5,20,158,112
India,Maharashtra,Kolhapur,"Shivaji University, Kolhapur - MPCB",06-02-2024 20:00:00,16.6870449,74.2505872,NO2,18,68,35
India,Maharashtra,Kolhapur,"Sinchan Bhavan, Kolhapur - MPCB",06-02-2024 20:00:00,16.7143745,74.2426398,NO2,24,87,44
India,Maharashtra,Kolhapur,"Sinchan Bhavan, Kolhapur - MPCB",06-02-2024 20:00:00,16.7143745,74.2426398,SO2,1,18,4
India,Maharashtra,Malegaon,"Mahesh Nagar, Malegaon - MPCB",06-02-2024 20:00:00,20.555712,74.529236,CO,12,46,22
India,Maharashtra,Mira-Bhayandar,"Bhayandar West, Mira-Bhayandar - MPCB",06-02-2024 20:00:00,19.296481,72.840923,PM10,119,177,150
India,Maharashtra,Mira-Bhayandar,"Bhayandar West, Mira-Bhayandar - MPCB",06-02-2024 20:00:00,19.296481,72.840923,OZONE,1,59,44
India,Maharashtra,Mumbai,"Bandra Kurla Complex, Mumbai - MPCB",06-02-2024 20:00:00,19.065931,72.862131,CO,24,104,33
India,Maharashtra,Mumbai,"Chakala-Andheri East, Mumbai - IITM",06-02-2024 20:00:00,19.11074,72.86084,NH3,NA,NA,NA
India,Maharashtra,Mumbai,"Chakala-Andheri East, Mumbai - IITM",06-02-2024 20:00:00,19.11074,72.86084,SO2,39,115,83
India,Maharashtra,Mumbai,"Chembur, Mumbai - MPCB",06-02-2024 20:00:00,19.0364585,72.8954371,NO2,20,111,69
India,Maharashtra,Mumbai,"Chhatrapati Shivaji Intl. Airport (T2), Mumbai - MPCB",06-02-2024 20:00:00,19.10078,72.87462,NH3,4,8,6
India,Maharashtra,Mumbai,"Chhatrapati Shivaji Intl. Airport (T2), Mumbai - MPCB",06-02-2024 20:00:00,19.10078,72.87462,OZONE,1,16,10
India,Maharashtra,Mumbai,"Colaba, Mumbai - MPCB",06-02-2024 20:00:00,18.910000,72.820000,NH3,1,1,1
India,Maharashtra,Mumbai,"Ghatkopar, Mumbai - BMC",06-02-2024 20:00:00,19.083694,72.920967,PM10,83,215,140
India,Maharashtra,Mumbai,"Ghatkopar, Mumbai - BMC",06-02-2024 20:00:00,19.083694,72.920967,SO2,1,3,2
India,Maharashtra,Mumbai,"Kandivali East, Mumbai - MPCB",06-02-2024 20:00:00,19.205800,72.868200,PM2.5,27,80,47
India,Maharashtra,Mumbai,"Kandivali East, Mumbai - MPCB",06-02-2024 20:00:00,19.205800,72.868200,NO2,45,129,78
India,Maharashtra,Mumbai,"Kandivali West, Mumbai - BMC",06-02-2024 20:00:00,19.215859,72.831718,PM10,85,119,109
India,Maharashtra,Mumbai,"Kandivali West, Mumbai - BMC",06-02-2024 20:00:00,19.215859,72.831718,CO,17,70,24
India,Maharashtra,Mumbai,"Kherwadi_Bandra East, Mumbai - MPCB",06-02-2024 20:00:00,19.0632143,72.8456324,PM2.5,59,138,92
India,Maharashtra,Mumbai,"Kherwadi_Bandra East, Mumbai - MPCB",06-02-2024 20:00:00,19.0632143,72.8456324,OZONE,1,64,45
India,Maharashtra,Mumbai,"Khindipada-Bhandup West, Mumbai - IITM",06-02-2024 20:00:00,19.1653323,72.922099,NH3,4,73,23
India,Maharashtra,Mumbai,"Kurla, Mumbai - MPCB",06-02-2024 20:00:00,19.0863,72.8888,NO2,12,49,28
India,Maharashtra,Mumbai,"Kurla, Mumbai - MPCB",06-02-2024 20:00:00,19.0863,72.8888,SO2,32,32,32
India,Maharashtra,Mumbai,"Malad West, Mumbai - IITM",06-02-2024 20:00:00,19.19709,72.82204,NO2,11,19,15
India,Maharashtra,Mumbai,"Mazgaon, Mumbai - IITM",06-02-2024 20:00:00,18.96702,72.84214,PM10,109,148,129
India,Maharashtra,Mumbai,"Mazgaon, Mumbai - IITM",06-02-2024 20:00:00,18.96702,72.84214,NO2,94,275,186
India,Maharashtra,Mumbai,"Mazgaon, Mumbai - IITM",06-02-2024 20:00:00,18.96702,72.84214,SO2,7,43,18
India,Maharashtra,Mumbai,"Mazgaon, Mumbai - IITM",06-02-2024 20:00:00,18.96702,72.84214,OZONE,4,123,72
India,Maharashtra,Mumbai,"Mindspace-Malad West, Mumbai - MPCB",06-02-2024 20:00:00,19.1878657,72.8304069,NO2,7,120,61
India,Maharashtra,Mumbai,"Mindspace-Malad West, Mumbai - MPCB",06-02-2024 20:00:00,19.1878657,72.8304069,CO,32,108,34
India,Maharashtra,Mumbai,"Mulund West, Mumbai - MPCB",06-02-2024 20:00:00,19.1750,72.9419,PM2.5,22,83,38
India,Maharashtra,Mumbai,"Navy Nagar-Colaba, Mumbai - IITM",06-02-2024 20:00:00,18.897756,72.813320,CO,2,80,18
India,Maharashtra,Mumbai,"Navy Nagar-Colaba, Mumbai - IITM",06-02-2024 20:00:00,18.897756,72.813320,OZONE,3,89,59
India,Maharashtra,Mumbai,"Powai, Mumbai - MPCB",06-02-2024 20:00:00,19.137500,72.915056,PM2.5,29,59,43
India,Maharashtra,Mumbai,"Powai, Mumbai - MPCB",06-02-2024 20:00:00,19.137500,72.915056,CO,34,46,42
India,Maharashtra,Mumbai,"Sewri, Mumbai - BMC",06-02-2024 20:00:00,19.000084,72.856730,NH3,2,15,8
India,Maharashtra,Mumbai,"Shivaji Nagar, Mumbai - BMC",06-02-2024 20:00:00,19.060498,72.923356,NO2,51,148,103
India,Maharashtra,Mumbai,"Shivaji Nagar, Mumbai - BMC",06-02-2024 20:00:00,19.060498,72.923356,OZONE,1,125,90
India,Maharashtra,Mumbai,"Siddharth Nagar-Worli, Mumbai - IITM",06-02-2024 20:00:00,19.000083,72.813993,CO,22,84,63
India,Maharashtra,Mumbai,"Sion, Mumbai - MPCB",06-02-2024 20:00:00,19.047000,72.874600,PM2.5,50,188,88
India,Maharashtra,Mumbai,"Sion, Mumbai - MPCB",06-02-2024 20:00:00,19.047000,72.874600,OZONE,11,24,17
India,Maharashtra,Mumbai,"Vasai West, Mumbai - MPCB",06-02-2024 20:00:00,19.383200,72.820400,SO2,16,17,16
India,Maharashtra,Mumbai,"Worli, Mumbai - MPCB",06-02-2024 20:00:00,18.9936162,72.8128113,PM2.5,35,74,49
India,Maharashtra,Mumbai,"Worli, Mumbai - MPCB",06-02-2024 20:00:00,18.9936162,72.8128113,NO2,20,22,21
India,Maharashtra,Mumbai,"Worli, Mumbai - MPCB",06-02-2024 20:00:00,18.9936162,72.8128113,OZONE,6,11,9
India,Maharashtra,Nagpur,"Ambazari, Nagpur - MPCB",06-02-2024 20:00:00,21.121801,79.04952,NH3,1,13,3
India,Maharashtra,Nagpur,"Mahal, Nagpur - MPCB",06-02-2024 20:00:00,21.14472,79.107595,NO2,12,63,32
India,Maharashtra,Nagpur,"Mahal, Nagpur - MPCB",06-02-2024 20:00:00,21.14472,79.107595,NH3,1,16,5
India,Maharashtra,Nagpur,"Opp GPO Civil Lines, Nagpur - MPCB",06-02-2024 20:00:00,21.152875,79.0517531,OZONE,2,67,45
India,Maharashtra,Nagpur,"Ram Nagar, Nagpur - MPCB",06-02-2024 20:00:00,21.143383,79.048912,OZONE,11,61,52
India,Maharashtra,Nashik,"Gangapur Road, Nashik - MPCB",06-02-2024 20:00:00,20.0073285,73.7762427,OZONE,2,36,27
India,Maharashtra,Nashik,"Hirawadi, Nashik - MPCB",06-02-2024 20:00:00,20.021503,73.813844,SO2,4,5,4
India,Maharashtra,Navi Mumbai,"Mahape, Navi Mumbai - MPCB",06-02-2024 20:00:00,19.1135051,73.008978,PM2.5,25,188,79
India,Maharashtra,Navi Mumbai,"Mahape, Navi Mumbai - MPCB",06-02-2024 20:00:00,19.1135051,73.008978,NO2,37,39,38
India,Maharashtra,Navi Mumbai,"Mahape, Navi Mumbai - MPCB",06-02-2024 20:00:00,19.1135051,73.008978,NH3,3,4,3
India,Maharashtra,Navi Mumbai,"Nerul, Navi Mumbai - MPCB",06-02-2024 20:00:00,19.008751,73.016620,NH3,4,8,6
India,Maharashtra,Navi Mumbai,"Nerul, Navi Mumbai - MPCB",06-02-2024 20:00:00,19.008751,73.016620,SO2,9,14,11
India,Maharashtra,Navi Mumbai,"Sector-19A Nerul, Navi Mumbai - IITM",06-02-2024 20:00:00,19.044,73.0325,OZONE,1,113,75
India,Maharashtra,Navi Mumbai,"Sector-2E Kalamboli, Navi Mumbai - MPCB",06-02-2024 20:00:00,19.02579,73.10297,PM10,88,195,148
India,Maharashtra,Navi Mumbai,"Tondare-Taloja, Navi Mumbai - MPCB",06-02-2024 20:00:00,19.0630,73.1209,PM10,74,184,137
India,Maharashtra,Parbhani,"Masoom Colony, Parbhani - MPCB",06-02-2024 20:00:00,19.265594,76.761463,PM10,98,411,178
India,Maharashtra,Parbhani,"Masoom Colony, Parbhani - MPCB",06-02-2024 20:00:00,19.265594,76.761463,CO,10,160,31
India,Maharashtra,Pimpri-Chinchwad,"Gavalinagar, Pimpri Chinchwad - MPCB",06-02-2024 20:00:00,18.63673,73.82487,SO2,6,34,13
India,Maharashtra,Pimpri-Chinchwad,"Gavalinagar, Pimpri Chinchwad - MPCB",06-02-2024 20:00:00,18.63673,73.82487,CO,14,105,25
India,Maharashtra,Pimpri-Chinchwad,"Gavalinagar, Pimpri Chinchwad - MPCB",06-02-2024 20:00:00,18.63673,73.82487,OZONE,1,254,156
India,Maharashtra,Pimpri-Chinchwad,"Park Street Wakad, Pimpri Chinchwad - MPCB",06-02-2024 20:00:00,18.59051,73.77946,SO2,8,21,13
India,Maharashtra,Pimpri-Chinchwad,"Park Street Wakad, Pimpri Chinchwad - MPCB",06-02-2024 20:00:00,18.59051,73.77946,CO,20,112,35
India,Maharashtra,Pune,"Alandi, Pune - IITM",06-02-2024 20:00:00,18.675076,73.892743,CO,23,80,32
India,Maharashtra,Pune,"Alandi, Pune - IITM",06-02-2024 20:00:00,18.675076,73.892743,OZONE,1,34,19
India,Maharashtra,Pune,"Bhosari, Pune - IITM",06-02-2024 20:00:00,18.640051,73.848956,CO,40,47,42
India,Maharashtra,Pune,"Karve Road, Pune - MPCB",06-02-2024 20:00:00,18.5011743,73.8165527,SO2,14,76,26
India,Maharashtra,Pune,"Katraj Dairy, Pune - MPCB",06-02-2024 20:00:00,18.454450,73.854155,PM10,43,225,123
India,Maharashtra,Pune,"Katraj Dairy, Pune - MPCB",06-02-2024 20:00:00,18.454450,73.854155,NO2,40,70,55
India,Maharashtra,Pune,"Revenue Colony-Shivajinagar, Pune - IITM",06-02-2024 20:00:00,18.530085,73.849598,PM2.5,62,272,123
India,Maharashtra,Pune,"Revenue Colony-Shivajinagar, Pune - IITM",06-02-2024 20:00:00,18.530085,73.849598,PM10,81,163,114
India,Maharashtra,Pune,"Revenue Colony-Shivajinagar, Pune - IITM",06-02-2024 20:00:00,18.530085,73.849598,OZONE,6,84,52
India,Maharashtra,Pune,"Savitribai Phule Pune University, Pune - MPCB",06-02-2024 20:00:00,18.547056,73.826908,NO2,14,74,40
India,Maharashtra,Pune,"Savitribai Phule Pune University, Pune - MPCB",06-02-2024 20:00:00,18.547056,73.826908,OZONE,1,302,168
India,Maharashtra,Sangli,"Vijay Nagar, Sangli - MPCB",06-02-2024 20:00:00, 16.5038,74.3623,PM10,82,173,140
India,Maharashtra,Sangli,"Vijay Nagar, Sangli - MPCB",06-02-2024 20:00:00, 16.5038,74.3623,NH3,1,4,3
India,Maharashtra,Sangli,"Vijay Nagar, Sangli - MPCB",06-02-2024 20:00:00, 16.5038,74.3623,SO2,8,25,14
India,Maharashtra,Solapur,"Dnyaneshwar Nagar, Solapur - MPCB",06-02-2024 20:00:00,17.6336264,75.9132495,NO2,21,201,60
India,Maharashtra,Solapur,"Ratandeep Housing Society, Solapur - MPCB",06-02-2024 20:00:00,17.65439,75.90649,PM2.5,96,275,186
India,Maharashtra,Solapur,"Ratandeep Housing Society, Solapur - MPCB",06-02-2024 20:00:00,17.65439,75.90649,PM10,99,233,148
India,Maharashtra,Solapur,"Ratandeep Housing Society, Solapur - MPCB",06-02-2024 20:00:00,17.65439,75.90649,NO2,34,161,82
India,Maharashtra,Solapur,"Ratandeep Housing Society, Solapur - MPCB",06-02-2024 20:00:00,17.65439,75.90649,NH3,8,12,9
India,Maharashtra,Solapur,"Ratandeep Housing Society, Solapur - MPCB",06-02-2024 20:00:00,17.65439,75.90649,SO2,8,19,12
India,Maharashtra,Thane,"Pimpleshwar Mandir, Thane - MPCB",06-02-2024 20:00:00,19.192056,72.9585188,PM10,135,283,190
India,Maharashtra,Thane,"Pimpleshwar Mandir, Thane - MPCB",06-02-2024 20:00:00,19.192056,72.9585188,OZONE,3,49,33
India,Maharashtra,Thane,"Upvan Fort, Thane - MPCB",06-02-2024 20:00:00,19.222279,72.957979,PM2.5,60,176,92
India,Maharashtra,Virar,"Bolinj, Virar - MPCB",06-02-2024 20:00:00,19.4458210,72.7988231,OZONE,2,89,72
India,Manipur,Imphal,"Manipur University, Imphal - Manipur PCB",06-02-2024 20:00:00,24.7524239,93.9286218,NO2,7,38,14
India,Manipur,Imphal,"Manipur University, Imphal - Manipur PCB",06-02-2024 20:00:00,24.7524239,93.9286218,CO,14,75,18
India,Meghalaya,Shillong,"Lumpyngngad, Shillong - Meghalaya PCB",06-02-2024 20:00:00,25.5586,91.8985,NO2,5,6,6
India,Mizoram,Aizawl,"Sikulpuikawn, Aizawl - Mizoram PCB",06-02-2024 20:00:00,23.7176342,92.7192841,PM2.5,51,94,72
India,Nagaland,Kohima,"PWD Juction, Kohima - NPCB",06-02-2024 20:00:00,25.6635413,94.0989878,PM2.5,1,299,110
India,Nagaland,Kohima,"PWD Juction, Kohima - NPCB",06-02-2024 20:00:00,25.6635413,94.0989878,NO2,3,4,3
India,Nagaland,Kohima,"PWD Juction, Kohima - NPCB",06-02-2024 20:00:00,25.6635413,94.0989878,SO2,90,107,100
India,Nagaland,Kohima,"PWD Juction, Kohima - NPCB",06-02-2024 20:00:00,25.6635413,94.0989878,OZONE,10,26,15
India,Odisha,Angul,"Hakimapada, Angul - OSPCB",06-02-2024 20:00:00,20.832874,85.104082,SO2,10,115,43
India,Odisha,Angul,"Hakimapada, Angul - OSPCB",06-02-2024 20:00:00,20.832874,85.104082,CO,6,104,40
India,Odisha,Balasore,"Kalidaspur, Balasore - OSPCB",06-02-2024 20:00:00,21.51161,86.89088,PM2.5,85,223,132
India,Odisha,Balasore,"Kalidaspur, Balasore - OSPCB",06-02-2024 20:00:00,21.51161,86.89088,NH3,3,7,4
India,Odisha,Balasore,"Kalidaspur, Balasore - OSPCB",06-02-2024 20:00:00,21.51161,86.89088,SO2,18,44,26
India,Odisha,Balasore,"Kalidaspur, Balasore - OSPCB",06-02-2024 20:00:00,21.51161,86.89088,OZONE,14,75,50
India,Odisha,Barbil,"Forest Office, Barbil - OSPCB",06-02-2024 20:00:00,22.1166054,85.3945546,PM10,129,452,235
India,Odisha,Barbil,"Forest Office, Barbil - OSPCB",06-02-2024 20:00:00,22.1166054,85.3945546,SO2,1,48,14
India,Odisha,Baripada,"Meher Colony, Baripada - OSPCB",06-02-2024 20:00:00,21.941841,86.728318,NH3,4,4,4
India,Odisha,Bileipada,"Tata Township, Bileipada - OSPCB",06-02-2024 20:00:00,22.06156703,85.47409613,CO,17,32,19
India,Odisha,Byasanagar,"Ferro Chrome Colony, Byasanagar - OSPCB",06-02-2024 20:00:00,20.94185,86.11510,PM10,67,135,98
India,Odisha,Byasanagar,"Ferro Chrome Colony, Byasanagar - OSPCB",06-02-2024 20:00:00,20.94185,86.11510,NH3,3,4,3
India,Odisha,Byasanagar,"Ferro Chrome Colony, Byasanagar - OSPCB",06-02-2024 20:00:00,20.94185,86.11510,SO2,2,29,11
India,Odisha,Cuttack,"CDA Area, Cuttack - OSPCB",06-02-2024 20:00:00,20.48891     ,85.84768     ,PM2.5,75,153,103
India,Odisha,Keonjhar,"Jagamohanpur, Keonjhar - OSPCB",06-02-2024 20:00:00,21.643900,85.599355,PM10,78,119,98
India,Odisha,Keonjhar,"Jagamohanpur, Keonjhar - OSPCB",06-02-2024 20:00:00,21.643900,85.599355,OZONE,1,27,13
India,Odisha,Nayagarh,"Dabuna, Nayagarh - OSPCB",06-02-2024 20:00:00,21.847279,85.416905,PM10,NA,NA,NA
India,Odisha,Nayagarh,"Dabuna, Nayagarh - OSPCB",06-02-2024 20:00:00,21.847279,85.416905,SO2,1,11,3
India,Odisha,Rairangpur,"Divisional Forest Office, Rairangpur - OSPCB",06-02-2024 20:00:00,22.265816,86.174829,SO2,6,32,15
India,Odisha,Rourkela,"Fertilizer Township, Rourkela - OSPCB",06-02-2024 20:00:00,22.18972222,84.86277778,PM10,78,223,130
India,Odisha,Rourkela,"Fertilizer Township, Rourkela - OSPCB",06-02-2024 20:00:00,22.18972222,84.86277778,NO2,11,90,28
India,Odisha,Suakati,"OMC Colony, Suakati - OSPCB",06-02-2024 20:00:00,21.606865,85.510538,NO2,21,58,44
India,Odisha,Suakati,"OMC Colony, Suakati - OSPCB",06-02-2024 20:00:00,21.606865,85.510538,SO2,10,87,37
India,Odisha,Talcher,"Talcher Coalfields,Talcher - OSPCB",06-02-2024 20:00:00,20.9360711,85.1707021,PM2.5,21,443,181
India,Odisha,Talcher,"Talcher Coalfields,Talcher - OSPCB",06-02-2024 20:00:00,20.9360711,85.1707021,PM10,42,407,143
India,Odisha,Tensa,"Barsua Iron Ore Mines, Tensa - OSPCB",06-02-2024 20:00:00,21.869985,85.167016,PM2.5,45,87,67
India,Odisha,Tensa,"Barsua Iron Ore Mines, Tensa - OSPCB",06-02-2024 20:00:00,21.869985,85.167016,PM10,78,100,88
India,Odisha,Tensa,"Barsua Iron Ore Mines, Tensa - OSPCB",06-02-2024 20:00:00,21.869985,85.167016,NO2,36,68,46
India,Odisha,Tensa,"Barsua Iron Ore Mines, Tensa - OSPCB",06-02-2024 20:00:00,21.869985,85.167016,SO2,NA,NA,NA
India,Odisha,Tensa,"Barsua Iron Ore Mines, Tensa - OSPCB",06-02-2024 20:00:00,21.869985,85.167016,OZONE,26,56,44
India,Puducherry,Puducherry,"Jawahar Nagar, Puducherry - PPCC",06-02-2024 20:00:00,11.9309,79.8027,PM2.5,44,84,61
India,Punjab,Amritsar,"Golden Temple, Amritsar - PPCB",06-02-2024 20:00:00,31.620000,74.876512,PM2.5,NA,NA,NA
India,Punjab,Amritsar,"Golden Temple, Amritsar - PPCB",06-02-2024 20:00:00,31.620000,74.876512,NO2,NA,NA,NA
India,Punjab,Amritsar,"Golden Temple, Amritsar - PPCB",06-02-2024 20:00:00,31.620000,74.876512,SO2,NA,NA,NA
India,Punjab,Bathinda,"Hardev Nagar, Bathinda - PPCB",06-02-2024 20:00:00,30.233011,74.907758,CO,4,106,41
India,Punjab,Jalandhar,"Civil Line, Jalandhar - PPCB",06-02-2024 20:00:00,31.321907,75.578914,SO2,2,17,5
India,Punjab,Jalandhar,"Civil Line, Jalandhar - PPCB",06-02-2024 20:00:00,31.321907,75.578914,OZONE,5,51,38
India,Punjab,Khanna,"Kalal Majra, Khanna - PPCB",06-02-2024 20:00:00,30.736056 ,76.209694,PM10,37,88,56
India,Punjab,Ludhiana,"Punjab Agricultural University, Ludhiana - PPCB",06-02-2024 20:00:00,30.9028,75.8086,NO2,23,29,26
India,Punjab,Mandi Gobindgarh,"RIMT University, Mandi Gobindgarh - PPCB",06-02-2024 20:00:00,30.649961,76.331442,NH3,2,2,2
India,Punjab,Patiala,"Model Town, Patiala - PPCB",06-02-2024 20:00:00,30.349388,76.366642,CO,20,47,24
India,Rajasthan,Ajmer,"Civil Lines,  Ajmer - RSPCB",06-02-2024 20:00:00,26.470859,74.646594,NO2,20,43,27
India,Rajasthan,Ajmer,"Civil Lines,  Ajmer - RSPCB",06-02-2024 20:00:00,26.470859,74.646594,OZONE,17,65,53
India,Rajasthan,Alwar,"Moti Doongri, Alwar - RSPCB",06-02-2024 20:00:00,27.554793,76.611536,CO,18,103,36
India,Rajasthan,Banswara,"Rati Talai, Banswara - RSPCB",06-02-2024 20:00:00,23.555190,74.440010,PM10,37,208,109
India,Rajasthan,Banswara,"Rati Talai, Banswara - RSPCB",06-02-2024 20:00:00,23.555190,74.440010,OZONE,1,86,63
India,Rajasthan,Baran,"Bamboliya, Baran - RSPCB",06-02-2024 20:00:00,25.106006,76.469948,SO2,5,83,9
India,Rajasthan,Baran,"Bamboliya, Baran - RSPCB",06-02-2024 20:00:00,25.106006,76.469948,CO,21,31,24
India,Rajasthan,Barmer,"Railway Colony, Barmer - RSPCB",06-02-2024 20:00:00,25.747299,71.393989,NH3,6,10,8
India,Rajasthan,Barmer,"Railway Colony, Barmer - RSPCB",06-02-2024 20:00:00,25.747299,71.393989,CO,28,49,41
India,Rajasthan,Bharatpur,"Krishna Nagar, Bharatpur - RSPCB",06-02-2024 20:00:00,27.215415,77.50873,PM10,71,164,119
India,Rajasthan,Bharatpur,"Krishna Nagar, Bharatpur - RSPCB",06-02-2024 20:00:00,27.215415,77.50873,NH3,9,22,11
India,Rajasthan,Bharatpur,"Krishna Nagar, Bharatpur - RSPCB",06-02-2024 20:00:00,27.215415,77.50873,OZONE,9,104,67
India,Rajasthan,Bhilwara,"Pratap Nagar, Bhilwara - RSPCB",06-02-2024 20:00:00,25.339605,74.618883,NO2,16,50,24
India,Rajasthan,Bhilwara,"Pratap Nagar, Bhilwara - RSPCB",06-02-2024 20:00:00,25.339605,74.618883,OZONE,16,58,49
India,Rajasthan,Bhiwadi,"RIICO Ind. Area III, Bhiwadi - RSPCB",06-02-2024 20:00:00,28.194909,76.862296,OZONE,1,45,25
India,Rajasthan,Bikaner,"MM Ground, Bikaner - RSPCB",06-02-2024 20:00:00,28.018792,73.292658,OZONE,12,61,43
India,Rajasthan,Bundi,"New Colony, Bundi - RSPCB",06-02-2024 20:00:00,25.435774,75.644272,PM10,73,151,108
India,Rajasthan,Chittorgarh,"Shastri Nagar, Chittorgarh - RSPCB",06-02-2024 20:00:00,24.892047,74.623527,CO,21,54,29
India,Rajasthan,Churu,"Subash Chowk, Churu - RSPCB",06-02-2024 20:00:00,28.296139,74.961696,PM10,45,170,78
India,Rajasthan,Churu,"Subash Chowk, Churu - RSPCB",06-02-2024 20:00:00,28.296139,74.961696,SO2,12,18,14
India,Rajasthan,Dausa,"Khatikan Mohalla, Dausa - RSPCB",06-02-2024 20:00:00,26.895552,76.334753,SO2,2,9,5
India,Rajasthan,Dausa,"Khatikan Mohalla, Dausa - RSPCB",06-02-2024 20:00:00,26.895552,76.334753,OZONE,14,31,19
India,Rajasthan,Dholpur,"Raja Ganj, Dholpur - RSPCB",06-02-2024 20:00:00,26.699557,77.898881,PM10,68,161,121
India,Rajasthan,Dholpur,"Raja Ganj, Dholpur - RSPCB",06-02-2024 20:00:00,26.699557,77.898881,NH3,8,12,11
India,Rajasthan,Hanumangarh,"Housing Board, Hanumangarh - RSPCB",06-02-2024 20:00:00,29.610750,74.283608,PM2.5,55,422,204
India,Rajasthan,Hanumangarh,"Housing Board, Hanumangarh - RSPCB",06-02-2024 20:00:00,29.610750,74.283608,PM10,97,407,164
India,Rajasthan,Hanumangarh,"Housing Board, Hanumangarh - RSPCB",06-02-2024 20:00:00,29.610750,74.283608,SO2,6,11,8
India,Rajasthan,Jaipur,"Adarsh Nagar, Jaipur - RSPCB",06-02-2024 20:00:00,26.902909,75.836858,PM10,48,108,75
India,Rajasthan,Jaipur,"Adarsh Nagar, Jaipur - RSPCB",06-02-2024 20:00:00,26.902909,75.836858,OZONE,25,73,60
India,Rajasthan,Jaipur,"Mansarovar Sector-12, Jaipur - RSPCB",06-02-2024 20:00:00,26.843698,75.766894,OZONE,5,36,25
India,Rajasthan,Jaipur,"Police Commissionerate, Jaipur - RSPCB",06-02-2024 20:00:00,26.9164092,75.7994901,NO2,22,98,43
India,Rajasthan,Jaipur,"RIICO Sitapura, Jaipur - RSPCB",06-02-2024 20:00:00,26.786682,75.827928,PM10,60,202,113
India,Rajasthan,Jaipur,"Sector-2 Murlipura, Jaipur - RSPCB",06-02-2024 20:00:00,26.960669,75.771817,PM2.5,73,260,139
India,Rajasthan,Jaipur,"Shastri Nagar, Jaipur - RSPCB",06-02-2024 20:00:00,26.9502929,75.730943,PM2.5,27,90,61
India,Rajasthan,Jaipur,"Shastri Nagar, Jaipur - RSPCB",06-02-2024 20:00:00,26.9502929,75.730943,NO2,20,131,43
India,Rajasthan,Jaisalmer,"Sadar Bazar, Jaisalmer - RSPCB",06-02-2024 20:00:00,26.912329,70.909168,PM10,51,209,101
India,Rajasthan,Jaisalmer,"Sadar Bazar, Jaisalmer - RSPCB",06-02-2024 20:00:00,26.912329,70.909168,CO,12,37,23
India,Rajasthan,Jaisalmer,"Sadar Bazar, Jaisalmer - RSPCB",06-02-2024 20:00:00,26.912329,70.909168,OZONE,45,107,91
India,Rajasthan,Jalore,"Mudtra Sili, Jalore - RSPCB",06-02-2024 20:00:00,25.344694,72.626208,PM2.5,52,146,88
India,Rajasthan,Jalore,"Mudtra Sili, Jalore - RSPCB",06-02-2024 20:00:00,25.344694,72.626208,NH3,4,9,6
India,Rajasthan,Jalore,"Mudtra Sili, Jalore - RSPCB",06-02-2024 20:00:00,25.344694,72.626208,OZONE,18,96,74
India,Rajasthan,Jhalawar,"Rajlaxmi Nagar, Jhalawar - RSPCB",06-02-2024 20:00:00,24.588397,76.172782,NH3,4,7,5
India,Rajasthan,Jhunjhunu,"Indra Nagar, Jhunjhunu - RSPCB",06-02-2024 20:00:00,28.108988,75.386577,CO,22,61,29
India,Rajasthan,Jodhpur,"Collectorate, Jodhpur - RSPCB",06-02-2024 20:00:00,26.268249,73.0193853,PM10,30,401,138
India,Rajasthan,Jodhpur,"Collectorate, Jodhpur - RSPCB",06-02-2024 20:00:00,26.268249,73.0193853,NO2,19,53,28
India,Rajasthan,Jodhpur,"Digari Kalan, Jodhpur - RSPCB",06-02-2024 20:00:00,26.295810,73.082283,PM10,61,131,87
India,Rajasthan,Jodhpur,"Digari Kalan, Jodhpur - RSPCB",06-02-2024 20:00:00,26.295810,73.082283,OZONE,24,113,95
India,Rajasthan,Jodhpur,"Jhalamand, Jodhpur - RSPCB",06-02-2024 20:00:00,26.215415,73.070156,PM10,63,160,103
India,Rajasthan,Jodhpur,"Jhalamand, Jodhpur - RSPCB",06-02-2024 20:00:00,26.215415,73.070156,NO2,15,77,33
India,Rajasthan,Jodhpur,"Jhalamand, Jodhpur - RSPCB",06-02-2024 20:00:00,26.215415,73.070156,OZONE,7,108,91
India,Rajasthan,Jodhpur,"Mandor, Jodhpur - RSPCB",06-02-2024 20:00:00,26.358805,73.047444,PM2.5,NA,NA,NA
India,Rajasthan,Jodhpur,"Mandor, Jodhpur - RSPCB",06-02-2024 20:00:00,26.358805,73.047444,NH3,NA,NA,NA
India,Rajasthan,Jodhpur,"Samrat Ashok Udhyan, Jodhpur - RSPCB",06-02-2024 20:00:00,26.253384,72.976571,NO2,17,115,38
India,Rajasthan,Kota,"Dhanmandi, Kota - RSPCB",06-02-2024 20:00:00,25.164090,75.858137,NH3,4,7,5
India,Rajasthan,Kota,"Nayapura, Kota - RSPCB",06-02-2024 20:00:00,25.196024,75.855668,SO2,1,9,5
India,Rajasthan,Nagaur,"Karni Colony, Nagaur - RSPCB",06-02-2024 20:00:00,27.213494,73.734444,NO2,15,54,26
India,Rajasthan,Nagaur,"Karni Colony, Nagaur - RSPCB",06-02-2024 20:00:00,27.213494,73.734444,SO2,1,6,3
India,Rajasthan,Nagaur,"Karni Colony, Nagaur - RSPCB",06-02-2024 20:00:00,27.213494,73.734444,OZONE,29,81,61
India,Rajasthan,Pali,"Indira Colony Vistar, Pali - RSPCB",06-02-2024 20:00:00,25.771061, 73.340227,PM10,75,111,92
India,Rajasthan,Pali,"Indira Colony Vistar, Pali - RSPCB",06-02-2024 20:00:00,25.771061, 73.340227,SO2,17,20,18
India,Rajasthan,Pratapgarh,"Pragati Nagar, Pratapgarh - RSPCB",06-02-2024 20:00:00,24.041198,74.780702,CO,16,29,25
India,Rajasthan,Rajsamand,"Dhoinda, Rajsamand - RSPCB",06-02-2024 20:00:00,25.036360,73.883502,SO2,5,10,7
India,Rajasthan,Rajsamand,"Dhoinda, Rajsamand - RSPCB",06-02-2024 20:00:00,25.036360,73.883502,OZONE,8,33,29
India,Rajasthan,Sawai Madhopur,"Sahu Nagar, Sawai Madhopur - RSPCB",06-02-2024 20:00:00,26.031443,76.359327,PM2.5,34,73,51
India,Rajasthan,Sawai Madhopur,"Sahu Nagar, Sawai Madhopur - RSPCB",06-02-2024 20:00:00,26.031443,76.359327,PM10,52,108,79
India,Rajasthan,Sawai Madhopur,"Sahu Nagar, Sawai Madhopur - RSPCB",06-02-2024 20:00:00,26.031443,76.359327,OZONE,14,83,68
India,Rajasthan,Sikar,"Radhakishan Pura, Sikar - RSPCB",06-02-2024 20:00:00,27.608912,75.153302,NO2,2,20,10
India,Rajasthan,Sirohi,"Vedhaynath Colony, Sirohi - RSPCB",06-02-2024 20:00:00,24.885261,72.857549,NH3,5,10,7
India,Rajasthan,Sirohi,"Vedhaynath Colony, Sirohi - RSPCB",06-02-2024 20:00:00,24.885261,72.857549,SO2,5,12,9
India,Rajasthan,Sirohi,"Vedhaynath Colony, Sirohi - RSPCB",06-02-2024 20:00:00,24.885261,72.857549,OZONE,2,90,76
India,Rajasthan,Sri Ganganagar,"Old City, Sri Ganganagar - RSPCB",06-02-2024 20:00:00,29.931624,73.864511,PM10,167,483,295
India,Rajasthan,Sri Ganganagar,"Old City, Sri Ganganagar - RSPCB",06-02-2024 20:00:00,29.931624,73.864511,NO2,22,119,55
India,Rajasthan,Sri Ganganagar,"Old City, Sri Ganganagar - RSPCB",06-02-2024 20:00:00,29.931624,73.864511,OZONE,2,133,76
India,Rajasthan,Tonk,"Shastri Nagar, Tonk - RSPCB",06-02-2024 20:00:00,26.159933,75.780517,SO2,2,9,4
India,Rajasthan,Udaipur,"Ashok Nagar, Udaipur - RSPCB",06-02-2024 20:00:00,24.5886166,73.6321397,PM10,NA,NA,NA
India,Rajasthan,Udaipur,"Ashok Nagar, Udaipur - RSPCB",06-02-2024 20:00:00,24.5886166,73.6321397,NO2,NA,NA,NA
India,Rajasthan,Udaipur,"Ashok Nagar, Udaipur - RSPCB",06-02-2024 20:00:00,24.5886166,73.6321397,CO,24,78,63
India,Sikkim,Gangtok,"Zero Point GICI, Gangtok - SSPCB",06-02-2024 20:00:00,27.338530,88.614099,PM10,27,73,46
India,Sikkim,Gangtok,"Zero Point GICI, Gangtok - SSPCB",06-02-2024 20:00:00,27.338530,88.614099,NH3,1,1,1
India,TamilNadu,Ariyalur,"Keelapalur, Ariyalur - TNPCB",06-02-2024 20:00:00,11.06825,79.07033,PM10,33,57,43
India,TamilNadu,Chennai,"Alandur Bus Depot, Chennai - CPCB",06-02-2024 20:00:00,12.9099161,80.1076538,OZONE,2,9,6
India,TamilNadu,Chennai,"Arumbakkam, Chennai - TNPCB",06-02-2024 20:00:00,13.0664,80.2112 ,PM10,53,124,85
India,TamilNadu,Chennai,"Arumbakkam, Chennai - TNPCB",06-02-2024 20:00:00,13.0664,80.2112 ,SO2,1,17,7
India,TamilNadu,Chennai,"Gandhi Nagar_Ennore, Chennai - TNPCB",06-02-2024 20:00:00,13.218341,80.32027,NO2,12,34,24
India,TamilNadu,Chennai,"Kodungaiyur, Chennai - TNPCB",06-02-2024 20:00:00,13.1278,80.2642,NO2,6,26,13
India,TamilNadu,Chennai,"Manali, Chennai - CPCB",06-02-2024 20:00:00,13.164544,80.26285,NO2,6,17,12
India,TamilNadu,Chennai,"Perungudi, Chennai - TNPCB",06-02-2024 20:00:00,12.9533,80.2357,PM10,68,206,101
India,TamilNadu,Chennai,"Perungudi, Chennai - TNPCB",06-02-2024 20:00:00,12.9533,80.2357,NH3,NA,NA,NA
India,TamilNadu,Chennai,"Royapuram, Chennai - TNPCB",06-02-2024 20:00:00,13.1036,80.2909,SO2,1,8,3
India,TamilNadu,Chennai,"Velachery Res. Area, Chennai - CPCB",06-02-2024 20:00:00,13.0052189,80.2398125,PM10,58,98,77
India,TamilNadu,Chennai,"Velachery Res. Area, Chennai - CPCB",06-02-2024 20:00:00,13.0052189,80.2398125,CO,25,113,80
India,TamilNadu,Coimbatore,"PSG College of Arts and Science, Coimbatore - TNPCB",06-02-2024 20:00:00,11.0328,77.0349,PM2.5,NA,NA,NA
India,TamilNadu,Coimbatore,"PSG College of Arts and Science, Coimbatore - TNPCB",06-02-2024 20:00:00,11.0328,77.0349,CO,5,5,5
India,TamilNadu,Cuddalore,"Semmandalam, Cuddalore - TNPCB",06-02-2024 20:00:00,11.7637683,79.7499835,PM2.5,40,132,70
India,TamilNadu,Gummidipoondi,"Anthoni Pillai Nagar, Gummidipoondi - TNPCB",06-02-2024 20:00:00,13.4127,80.1081,PM10,65,413,145
India,TamilNadu,Kanchipuram,"Kilambi, Kanchipuram - TNPCB",06-02-2024 20:00:00,12.864618,79.659968,PM2.5,55,127,83
India,TamilNadu,Kanchipuram,"Kilambi, Kanchipuram - TNPCB",06-02-2024 20:00:00,12.864618,79.659968,CO,1,4,2
India,TamilNadu,Ooty,"Bombay Castel, Ooty - TNPCB",06-02-2024 20:00:00,11.4068288,76.7138973,NO2,NA,NA,NA
India,TamilNadu,Ooty,"Bombay Castel, Ooty - TNPCB",06-02-2024 20:00:00,11.4068288,76.7138973,OZONE,5,6,5
India,TamilNadu,Palkalaiperur,"Bharathidasan University, Palkalaiperur - TNPCB",06-02-2024 20:00:00,10.681158,78.741746,SO2,26,28,27
India,TamilNadu,Ramanathapuram,"Chalai Bazaar, Ramanathapuram - TNPCB",06-02-2024 20:00:00,9.36399,78.831977,PM2.5,18,79,46
India,TamilNadu,Ramanathapuram,"Chalai Bazaar, Ramanathapuram - TNPCB",06-02-2024 20:00:00,9.36399,78.831977,SO2,5,8,6
India,TamilNadu,Ramanathapuram,"Chalai Bazaar, Ramanathapuram - TNPCB",06-02-2024 20:00:00,9.36399,78.831977,OZONE,13,14,14
India,TamilNadu,Salem,"Sona College of Technology, Salem - TNPCB",06-02-2024 20:00:00,11.679111,78.125052,PM10,NA,NA,NA
India,TamilNadu,Salem,"Sona College of Technology, Salem - TNPCB",06-02-2024 20:00:00,11.679111,78.125052,SO2,NA,NA,NA
India,TamilNadu,Salem,"Sona College of Technology, Salem - TNPCB",06-02-2024 20:00:00,11.679111,78.125052,OZONE,3,3,3
India,TamilNadu,Thoothukudi,"Meelavittan, Thoothukudi - TNPCB",06-02-2024 20:00:00,8.816428 ,78.099039,CO,1,88,36
India,TamilNadu,Tirupur,"Kumaran College, Tirupur - TNPCB",06-02-2024 20:00:00,11.0973603,77.3228673,PM10,NA,NA,NA
India,TamilNadu,Virudhunagar,"Collectorate Office, Virudhunagar - TNPCB",06-02-2024 20:00:00,9.559382,77.948828,NO2,17,40,26
India,Telangana,Hyderabad,"ICRISAT Patancheru, Hyderabad - TSPCB",06-02-2024 20:00:00,17.518400,78.278777,PM2.5,40,80,55
India,Telangana,Hyderabad,"Kokapet, Hyderabad - TSPCB",06-02-2024 20:00:00,17.393559,78.339194,PM10,NA,NA,NA
India,Telangana,Hyderabad,"Kokapet, Hyderabad - TSPCB",06-02-2024 20:00:00,17.393559,78.339194,NO2,NA,NA,NA
India,Telangana,Hyderabad,"Kokapet, Hyderabad - TSPCB",06-02-2024 20:00:00,17.393559,78.339194,SO2,NA,NA,NA
India,Telangana,Hyderabad,"Kompally Municipal Office, Hyderabad - TSPCB",06-02-2024 20:00:00,17.544899,78.486949,PM2.5,27,90,44
India,Telangana,Hyderabad,"Kompally Municipal Office, Hyderabad - TSPCB",06-02-2024 20:00:00,17.544899,78.486949,NO2,6,8,7
India,Telangana,Hyderabad,"New Malakpet, Hyderabad - TSPCB",06-02-2024 20:00:00,17.37206,78.50864,CO,10,42,29
India,Telangana,Hyderabad,"New Malakpet, Hyderabad - TSPCB",06-02-2024 20:00:00,17.37206,78.50864,OZONE,2,31,23
India,Telangana,Hyderabad,"Ramachandrapuram, Hyderabad - TSPCB",06-02-2024 20:00:00,17.528544,78.286195,CO,12,33,17
India,Telangana,Hyderabad,"Sanathnagar, Hyderabad - TSPCB",06-02-2024 20:00:00,17.4559458,78.4332152,PM2.5,62,500,111
India,Telangana,Hyderabad,"Sanathnagar, Hyderabad - TSPCB",06-02-2024 20:00:00,17.4559458,78.4332152,CO,36,60,45
India,Telangana,Hyderabad,"Somajiguda, Hyderabad - TSPCB",06-02-2024 20:00:00,17.417094,78.457437,SO2,NA,NA,NA
India,Telangana,Hyderabad,"Zoo Park, Hyderabad - TSPCB",06-02-2024 20:00:00,17.349694,78.451437,NO2,24,42,33
India,Telangana,Hyderabad,"Zoo Park, Hyderabad - TSPCB",06-02-2024 20:00:00,17.349694,78.451437,NH3,1,1,1
India,Telangana,Hyderabad,"Zoo Park, Hyderabad - TSPCB",06-02-2024 20:00:00,17.349694,78.451437,CO,26,100,48
India,Tripura,Agartala,"Bardowali, Agartala - Tripura SPCB",06-02-2024 20:00:00,23.8175497,91.2726974,PM10,143,332,204
India,Tripura,Agartala,"Bardowali, Agartala - Tripura SPCB",06-02-2024 20:00:00,23.8175497,91.2726974,OZONE,2,10,5
India,Uttar_Pradesh,Agra,"Manoharpur, Agra - UPPCB",06-02-2024 20:00:00,27.23711,78.01936,NO2,19,20,20
India,Uttar_Pradesh,Agra,"Manoharpur, Agra - UPPCB",06-02-2024 20:00:00,27.23711,78.01936,NH3,1,1,1
India,Uttar_Pradesh,Agra,"Manoharpur, Agra - UPPCB",06-02-2024 20:00:00,27.23711,78.01936,OZONE,3,22,15
India,Uttar_Pradesh,Agra,"Rohta, Agra - UPPCB",06-02-2024 20:00:00,27.106972,78.000111,PM10,18,76,51
India,Uttar_Pradesh,Agra,"Sanjay Palace, Agra - UPPCB",06-02-2024 20:00:00,27.19865833,78.00598056,PM2.5,17,53,36
India,Uttar_Pradesh,Agra,"Shahjahan Garden, Agra - UPPCB",06-02-2024 20:00:00,27.169338,78.03582,PM10,29,80,53
India,Uttar_Pradesh,Agra,"Shahjahan Garden, Agra - UPPCB",06-02-2024 20:00:00,27.169338,78.03582,OZONE,8,15,13
India,Uttar_Pradesh,Baghpat,"Sardar Patel Inter College, Baghpat - UPPCB",06-02-2024 20:00:00,28.964949,77.278761,NO2,29,52,39
India,Uttar_Pradesh,Bareilly,"Rajendra Nagar, Bareilly - UPPCB",06-02-2024 20:00:00,28.38910936,79.42963708,PM10,26,73,49
India,Uttar_Pradesh,Bareilly,"Rajendra Nagar, Bareilly - UPPCB",06-02-2024 20:00:00,28.38910936,79.42963708,NO2,29,92,42
India,Uttar_Pradesh,Bulandshahr,"Yamunapuram, Bulandshahr - UPPCB",06-02-2024 20:00:00,28.406963,77.849831,NO2,12,64,25
India,Uttar_Pradesh,Bulandshahr,"Yamunapuram, Bulandshahr - UPPCB",06-02-2024 20:00:00,28.406963,77.849831,NH3,4,7,5
India,Uttar_Pradesh,Firozabad,"Nagla Bhau, Firozabad - UPPCB",06-02-2024 20:00:00,27.168897,78.376960,CO,2,10,5
India,Uttar_Pradesh,Ghaziabad,"Indirapuram, Ghaziabad - UPPCB",06-02-2024 20:00:00,28.646233,77.358075,PM2.5,22,98,67
India,Uttar_Pradesh,Ghaziabad,"Indirapuram, Ghaziabad - UPPCB",06-02-2024 20:00:00,28.646233,77.358075,SO2,14,23,17
India,Uttar_Pradesh,Ghaziabad,"Loni, Ghaziabad - UPPCB",06-02-2024 20:00:00,28.757294,77.278792,PM2.5,30,102,67
India,Uttar_Pradesh,Ghaziabad,"Loni, Ghaziabad - UPPCB",06-02-2024 20:00:00,28.757294,77.278792,SO2,5,16,10
India,Uttar_Pradesh,Ghaziabad,"Sanjay Nagar, Ghaziabad - UPPCB",06-02-2024 20:00:00,28.685382,77.453839,SO2,9,22,17
India,Uttar_Pradesh,Ghaziabad,"Sanjay Nagar, Ghaziabad - UPPCB",06-02-2024 20:00:00,28.685382,77.453839,OZONE,23,92,71
India,Uttar_Pradesh,Ghaziabad,"Vasundhara, Ghaziabad - UPPCB",06-02-2024 20:00:00,28.6603346,77.3572563,NO2,4,94,44
India,Uttar_Pradesh,Ghaziabad,"Vasundhara, Ghaziabad - UPPCB",06-02-2024 20:00:00,28.6603346,77.3572563,CO,24,108,44
India,Uttar_Pradesh,Gorakhpur,"Madan Mohan Malaviya University of Technology, Gorakhpur - UPPCB",06-02-2024 20:00:00,26.730136,83.433859,NO2,2,2,2
India,Uttar_Pradesh,Gorakhpur,"Madan Mohan Malaviya University of Technology, Gorakhpur - UPPCB",06-02-2024 20:00:00,26.730136,83.433859,OZONE,2,15,11
India,Uttar_Pradesh,Greater Noida,"Knowledge Park - V, Greater Noida - UPPCB",06-02-2024 20:00:00,28.557054,77.453663,OZONE,4,62,43
India,Uttar_Pradesh,Hapur,"Anand Vihar, Hapur - UPPCB",06-02-2024 20:00:00,28.725645,77.749675,CO,26,45,32
India,Uttar_Pradesh,Hapur,"Anand Vihar, Hapur - UPPCB",06-02-2024 20:00:00,28.725645,77.749675,OZONE,22,121,101
India,Uttar_Pradesh,Jhansi,"Shivaji Nagar, Jhansi - UPPCB",06-02-2024 20:00:00,25.4547,78.6039,PM2.5,34,64,48
India,Uttar_Pradesh,Jhansi,"Shivaji Nagar, Jhansi - UPPCB",06-02-2024 20:00:00,25.4547,78.6039,NO2,13,68,19
India,Uttar_Pradesh,Kanpur,"FTI Kidwai Nagar, Kanpur - UPPCB",06-02-2024 20:00:00,26.428282,80.327067,PM2.5,28,91,49
India,Uttar_Pradesh,Kanpur,"FTI Kidwai Nagar, Kanpur - UPPCB",06-02-2024 20:00:00,26.428282,80.327067,NO2,14,14,14
India,Uttar_Pradesh,Kanpur,"NSI Kalyanpur, Kanpur - UPPCB",06-02-2024 20:00:00,26.509954,80.249612,NO2,10,16,14
India,Uttar_Pradesh,Kanpur,"NSI Kalyanpur, Kanpur - UPPCB",06-02-2024 20:00:00,26.509954,80.249612,SO2,23,24,23
India,Uttar_Pradesh,Khurja,"Kalindi Kunj, Khurja - UPPCB",06-02-2024 20:00:00,28.2348927,77.8683002,OZONE,19,24,19
India,Uttar_Pradesh,Lucknow,"Gomti Nagar, Lucknow - UPPCB",06-02-2024 20:00:00,26.868120,81.005119,SO2,2,16,8
India,Uttar_Pradesh,Lucknow,"Kendriya Vidyalaya, Lucknow - CPCB",06-02-2024 20:00:00,26.906111,80.948222,PM10,46,89,70
India,Uttar_Pradesh,Lucknow,"Kendriya Vidyalaya, Lucknow - CPCB",06-02-2024 20:00:00,26.906111,80.948222,NH3,3,20,14
India,Uttar_Pradesh,Lucknow,"Kendriya Vidyalaya, Lucknow - CPCB",06-02-2024 20:00:00,26.906111,80.948222,OZONE,4,44,30
India,Uttar_Pradesh,Lucknow,"Kukrail Picnic Spot-1, Lucknow - UPPCB",06-02-2024 20:00:00,26.90723,80.98579,NO2,8,9,8
India,Uttar_Pradesh,Lucknow,"Kukrail Picnic Spot-1, Lucknow - UPPCB",06-02-2024 20:00:00,26.90723,80.98579,NH3,2,2,2
India,Uttar_Pradesh,Lucknow,"Kukrail Picnic Spot-1, Lucknow - UPPCB",06-02-2024 20:00:00,26.90723,80.98579,CO,14,33,19
India,Uttar_Pradesh,Lucknow,"Lalbagh, Lucknow - CPCB",06-02-2024 20:00:00,26.8458805,80.9365541,PM10,68,137,99
India,Uttar_Pradesh,Lucknow,"Talkatora District Industries Center, Lucknow - CPCB",06-02-2024 20:00:00,26.83399722,80.8917361,NO2,36,65,50
India,Uttar_Pradesh,Lucknow,"Talkatora District Industries Center, Lucknow - CPCB",06-02-2024 20:00:00,26.83399722,80.8917361,SO2,4,19,9
India,Uttar_Pradesh,Meerut,"Ganga Nagar, Meerut - UPPCB",06-02-2024 20:00:00,28.999264,77.7590354,PM10,37,124,72
India,Uttar_Pradesh,Meerut,"Ganga Nagar, Meerut - UPPCB",06-02-2024 20:00:00,28.999264,77.7590354,NH3,6,16,10
India,Uttar_Pradesh,Meerut,"Jai Bhim Nagar, Meerut - UPPCB",06-02-2024 20:00:00,28.9535882,77.7622941,NH3,4,10,6
India,Uttar_Pradesh,Meerut,"Pallavpuram Phase 2, Meerut - UPPCB",06-02-2024 20:00:00,29.063510,77.709723,PM2.5,22,127,54
India,Uttar_Pradesh,Meerut,"Pallavpuram Phase 2, Meerut - UPPCB",06-02-2024 20:00:00,29.063510,77.709723,PM10,33,117,69
India,Uttar_Pradesh,Moradabad,"Buddhi Vihar, Moradabad - UPPCB",06-02-2024 20:00:00,28.83526,78.74460,PM10,NA,NA,NA
India,Uttar_Pradesh,Moradabad,"Buddhi Vihar, Moradabad - UPPCB",06-02-2024 20:00:00,28.83526,78.74460,NH3,1,2,2
India,Uttar_Pradesh,Moradabad,"Buddhi Vihar, Moradabad - UPPCB",06-02-2024 20:00:00,28.83526,78.74460,SO2,5,23,14
India,Uttar_Pradesh,Moradabad,"Buddhi Vihar, Moradabad - UPPCB",06-02-2024 20:00:00,28.83526,78.74460,OZONE,13,28,23
India,Uttar_Pradesh,Moradabad,"Eco Herbal Park, Moradabad - UPPCB",06-02-2024 20:00:00,28.840739,78.697531,SO2,3,19,9
India,Uttar_Pradesh,Moradabad,"Employment Office, Moradabad - UPPCB",06-02-2024 20:00:00,28.88528,78.73880,CO,8,42,11
India,Uttar_Pradesh,Moradabad,"Jigar Colony, Moradabad - UPPCB",06-02-2024 20:00:00,28.856664,78.772638,CO,18,50,21
India,Uttar_Pradesh,Moradabad,"Kashiram Nagar, Moradabad - UPPCB",06-02-2024 20:00:00,28.849399,78.742362,NH3,3,4,4
India,Uttar_Pradesh,Muzaffarnagar,"New Mandi, Muzaffarnagar - UPPCB",06-02-2024 20:00:00,29.4723508,77.7194031,PM2.5,68,278,149
India,Uttar_Pradesh,Muzaffarnagar,"New Mandi, Muzaffarnagar - UPPCB",06-02-2024 20:00:00,29.4723508,77.7194031,PM10,64,139,107
India,Uttar_Pradesh,Noida,"Sector - 125, Noida - UPPCB",06-02-2024 20:00:00,28.5447608,77.3231257,PM2.5,35,127,70
India,Uttar_Pradesh,Noida,"Sector-1, Noida - UPPCB",06-02-2024 20:00:00,28.5898,77.3101,PM2.5,48,279,144
India,Uttar_Pradesh,Noida,"Sector-1, Noida - UPPCB",06-02-2024 20:00:00,28.5898,77.3101,SO2,3,6,5
India,Uttar_Pradesh,Noida,"Sector-116, Noida - UPPCB",06-02-2024 20:00:00,28.569230,77.393848,SO2,5,31,16
India,Uttar_Pradesh,Prayagraj,"Jhunsi, Prayagraj - UPPCB",06-02-2024 20:00:00,25.425602,81.917152,PM10,38,109,67
India,Uttar_Pradesh,Prayagraj,"Jhunsi, Prayagraj - UPPCB",06-02-2024 20:00:00,25.425602,81.917152,CO,8,23,14
India,Uttar_Pradesh,Prayagraj,"Jhunsi, Prayagraj - UPPCB",06-02-2024 20:00:00,25.425602,81.917152,OZONE,1,11,7
India,Uttar_Pradesh,Prayagraj,"Motilal Nehru NIT, Prayagraj - UPPCB",06-02-2024 20:00:00,25.494,81.863,OZONE,6,17,11
India,Uttar_Pradesh,Varanasi,"Ardhali Bazar, Varanasi - UPPCB",06-02-2024 20:00:00,25.3505986,82.9083074,PM2.5,10,22,14
India,Uttar_Pradesh,Varanasi,"Bhelupur, Varanasi - UPPCB",06-02-2024 20:00:00,25.301778,82.996789,NO2,8,8,8
India,Uttar_Pradesh,Varanasi,"Bhelupur, Varanasi - UPPCB",06-02-2024 20:00:00,25.301778,82.996789,SO2,21,22,22
India,Uttar_Pradesh,Varanasi,"Bhelupur, Varanasi - UPPCB",06-02-2024 20:00:00,25.301778,82.996789,CO,17,70,22
India,Uttar_Pradesh,Varanasi,"IESD Banaras Hindu University, Varanasi - UPPCB",06-02-2024 20:00:00,25.262326,82.995408,PM2.5,13,34,19
India,Uttar_Pradesh,Varanasi,"IESD Banaras Hindu University, Varanasi - UPPCB",06-02-2024 20:00:00,25.262326,82.995408,OZONE,1,5,2
India,Uttar_Pradesh,Varanasi,"Maldahiya, Varanasi - UPPCB",06-02-2024 20:00:00,25.32393,82.99687,PM10,24,73,35
India,Uttar_Pradesh,Varanasi,"Maldahiya, Varanasi - UPPCB",06-02-2024 20:00:00,25.32393,82.99687,NO2,NA,NA,NA
India,Uttar_Pradesh,Vrindavan,"Omex Eternity, Vrindavan - UPPCB",06-02-2024 20:00:00,27.5714090,77.6557570,PM2.5,14,48,30
India,Uttarakhand,Kashipur,"Govt. Girls Inter College, Kashipur - UKPCB",06-02-2024 20:00:00,29.2124114,78.9611753,PM2.5,33,308,83
India,West_Bengal,Asansol,"Asansol Court Area, Asansol - WBPCB",06-02-2024 20:00:00,23.685297,86.945968,NH3,7,20,9
India,West_Bengal,Asansol,"Asansol Court Area, Asansol - WBPCB",06-02-2024 20:00:00,23.685297,86.945968,OZONE,6,24,18
India,West_Bengal,Barrackpore,"SVSPA Campus, Barrackpore - WBPCB",06-02-2024 20:00:00,22.7605581,88.3617589,PM10,128,226,162
India,West_Bengal,Durgapur,"Sidhu Kanhu Indoor Stadium, Durgapur - WBPCB",06-02-2024 20:00:00,23.5404352,87.2892225,PM2.5,60,112,82
India,West_Bengal,Haldia,"Priyambada Housing Estate, Haldia - WBPCB",06-02-2024 20:00:00,22.06047,88.109737,SO2,4,17,10
India,West_Bengal,Haldia,"Priyambada Housing Estate, Haldia - WBPCB",06-02-2024 20:00:00,22.06047,88.109737,CO,42,59,45
India,West_Bengal,Howrah,"Belur Math, Howrah - WBPCB",06-02-2024 20:00:00,22.629801,88.352017,OZONE,10,37,29
India,West_Bengal,Howrah,"Ghusuri, Howrah - WBPCB",06-02-2024 20:00:00,22.611968,88.347422,SO2,6,7,6
India,West_Bengal,Howrah,"Ghusuri, Howrah - WBPCB",06-02-2024 20:00:00,22.611968,88.347422,OZONE,10,15,13
India,West_Bengal,Howrah,"Padmapukur, Howrah - WBPCB",06-02-2024 20:00:00,22.5687319,88.2797276,PM10,109,152,127
India,West_Bengal,Kolkata,"Bidhannagar, Kolkata - WBPCB",06-02-2024 20:00:00,22.58157048,88.41002457,SO2,6,18,10
India,West_Bengal,Kolkata,"Fort William, Kolkata - WBPCB",06-02-2024 20:00:00,22.556640,88.342674,PM10,99,162,122
India,West_Bengal,Kolkata,"Jadavpur, Kolkata - WBPCB",06-02-2024 20:00:00,22.49929,88.36917,NO2,3,13,5
India,West_Bengal,Kolkata,"Jadavpur, Kolkata - WBPCB",06-02-2024 20:00:00,22.49929,88.36917,CO,7,57,18
India,West_Bengal,Kolkata,"Jadavpur, Kolkata - WBPCB",06-02-2024 20:00:00,22.49929,88.36917,OZONE,9,47,33
India,West_Bengal,Kolkata,"Victoria, Kolkata - WBPCB",06-02-2024 20:00:00,22.5448082,88.3403691,PM10,102,152,121
India,West_Bengal,Kolkata,"Victoria, Kolkata - WBPCB",06-02-2024 20:00:00,22.5448082,88.3403691,CO,23,103,38
India,West_Bengal,Siliguri,"Ward-32 Bapupara, Siliguri - WBPCB",06-02-2024 20:00:00,26.6879226,88.4152495,PM2.5,33,286,114
India,Andhra_Pradesh,Chittoor,"Gangineni Cheruvu, Chittoor - APPCB",06-02-2024 20:00:00,13.204880,79.097889,SO2,2,73,21
India,Andhra_Pradesh,Chittoor,"Gangineni Cheruvu, Chittoor - APPCB",06-02-2024 20:00:00,13.204880,79.097889,CO,18,52,35
India,Andhra_Pradesh,Kadapa,"Yerramukkapalli, Kadapa - APPCB",06-02-2024 20:00:00,14.465052,78.824187,SO2,1,2,2
India,Andhra_Pradesh,Kadapa,"Yerramukkapalli, Kadapa - APPCB",06-02-2024 20:00:00,14.465052,78.824187,OZONE,14,54,49
India,Andhra_Pradesh,Rajamahendravaram,"Anand Kala Kshetram, Rajamahendravaram - APPCB",06-02-2024 20:00:00,16.9872867,81.7363176,PM2.5,53,96,70
India,Andhra_Pradesh,Tirupati,"Tirumala, Tirupati - APPCB",06-02-2024 20:00:00,13.67,79.35,PM2.5,55,153,90
India,Andhra_Pradesh,Tirupati,"Tirumala, Tirupati - APPCB",06-02-2024 20:00:00,13.67,79.35,OZONE,3,58,42
India,Andhra_Pradesh,Tirupati,"Vaikuntapuram, Tirupati - APPCB",06-02-2024 20:00:00,13.615387,79.409230,PM10,17,32,22
India,Andhra_Pradesh,Tirupati,"Vaikuntapuram, Tirupati - APPCB",06-02-2024 20:00:00,13.615387,79.409230,SO2,5,5,5
India,Andhra_Pradesh,Tirupati,"Vaikuntapuram, Tirupati - APPCB",06-02-2024 20:00:00,13.615387,79.409230,OZONE,2,49,39
India,Andhra_Pradesh,Vijayawada,"HB Colony, Vijayawada - APPCB",06-02-2024 20:00:00,16.536107,80.594233,NH3,4,5,4
India,Andhra_Pradesh,Vijayawada,"HB Colony, Vijayawada - APPCB",06-02-2024 20:00:00,16.536107,80.594233,SO2,3,6,4
India,Andhra_Pradesh,Vijayawada,"Kanuru, Vijayawada - APPCB",06-02-2024 20:00:00,16.486692,80.699436,SO2,6,12,8
India,Assam,Guwahati,"IITG, Guwahati - PCBA",06-02-2024 20:00:00,26.2028636,91.70046436,PM10,73,159,115
India,Assam,Guwahati,"IITG, Guwahati - PCBA",06-02-2024 20:00:00,26.2028636,91.70046436,OZONE,2,45,19
India,Assam,Guwahati,"LGBI Airport, Guwahati - PCBA",06-02-2024 20:00:00,26.10887,91.589544,SO2,1,22,6
India,Assam,Guwahati,"LGBI Airport, Guwahati - PCBA",06-02-2024 20:00:00,26.10887,91.589544,OZONE,3,70,43
India,Assam,Guwahati,"Pan Bazaar, Guwahati - PCBA",06-02-2024 20:00:00,26.187500,91.744194,NO2,1,10,2
India,Assam,Guwahati,"Pan Bazaar, Guwahati - PCBA",06-02-2024 20:00:00,26.187500,91.744194,NH3,3,5,3
India,Assam,Guwahati,"Railway Colony, Guwahati - PCBA",06-02-2024 20:00:00,26.181742,91.78063,OZONE,6,41,26
India,Assam,Nagaon,"Christianpatty, Nagaon - PCBA",06-02-2024 20:00:00,26.349082,92.68449,PM2.5,8,58,28
India,Assam,Nagaon,"Christianpatty, Nagaon - PCBA",06-02-2024 20:00:00,26.349082,92.68449,PM10,57,171,112
India,Assam,Nalbari,"Bata Chowk, Nalbari - PCBA",06-02-2024 20:00:00,26.446912,91.439057,NO2,28,104,48
India,Assam,Silchar,"Tarapur, Silchar - PCBA",06-02-2024 20:00:00,24.82827,92.79525,SO2,1,10,4
India,Assam,Sivasagar,"Girls College, Sivasagar - PCBA",06-02-2024 20:00:00,26.987634,94.636574,SO2,4,4,4
India,Bihar,Araria,"Kharahiya Basti, Araria - BSPCB",06-02-2024 20:00:00,26.146529,87.454184,NO2,6,11,8
India,Bihar,Aurangabad,"Gurdeo Nagar, Aurangabad - BSPCB",06-02-2024 20:00:00,24.75746,84.366208,PM2.5,65,247,123
India,Bihar,Aurangabad,"Gurdeo Nagar, Aurangabad - BSPCB",06-02-2024 20:00:00,24.75746,84.366208,OZONE,1,41,25
India,Bihar,Bettiah,"Kamalnath Nagar, Bettiah - BSPCB",06-02-2024 20:00:00,26.80365,84.51954,PM2.5,7,90,29
India,Bihar,Bettiah,"Kamalnath Nagar, Bettiah - BSPCB",06-02-2024 20:00:00,26.80365,84.51954,NO2,12,18,15
India,Bihar,Bettiah,"Kamalnath Nagar, Bettiah - BSPCB",06-02-2024 20:00:00,26.80365,84.51954,CO,76,80,77
India,Bihar,Bhagalpur,"DM Office_Kachari Chowk, Bhagalpur - BSPCB",06-02-2024 20:00:00,25.251013,86.989001,SO2,7,26,16
India,Bihar,Bhagalpur,"Mayaganj, Bhagalpur - BSPCB",06-02-2024 20:00:00,25.265194,87.012947,NO2,2,21,9
India,Bihar,Bihar Sharif,"D M Colony, Bihar Sharif - BSPCB",06-02-2024 20:00:00,25.204762,85.514960,PM2.5,45,157,76
India,Bihar,Buxar,"Charitra Van, Buxar - BSPCB (Formerly known as Central Jail)",06-02-2024 20:00:00,25.567520,83.966379,SO2,1,9,3
India,Bihar,Chhapra,"Darshan Nagar, Chhapra - BSPCB",06-02-2024 20:00:00,25.7808257,84.7446768,NH3,9,18,13
India,Bihar,Gaya,"Collectorate, Gaya - BSPCB",06-02-2024 20:00:00,24.7955,84.9994,PM2.5,68,308,172
India,Bihar,Gaya,"Kareemganj, Gaya - BSPCB",06-02-2024 20:00:00,24.792403,84.992416,PM2.5,10,180,55
India,Bihar,Gaya,"Kareemganj, Gaya - BSPCB",06-02-2024 20:00:00,24.792403,84.992416,NO2,25,31,30
India,Bihar,Gaya,"Kareemganj, Gaya - BSPCB",06-02-2024 20:00:00,24.792403,84.992416,NH3,1,5,3
India,Bihar,Gaya,"SFTI Kusdihra, Gaya - BSPCB",06-02-2024 20:00:00,24.762518,84.982348,SO2,8,9,8
India,Bihar,Gaya,"SFTI Kusdihra, Gaya - BSPCB",06-02-2024 20:00:00,24.762518,84.982348,OZONE,3,12,8
India,Bihar,Hajipur,"Industrial Area, Hajipur - BSPCB",06-02-2024 20:00:00,25.697189,85.245900,NH3,9,12,11
India,Bihar,Katihar,"Mirchaibari, Katihar - BSPCB",06-02-2024 20:00:00,25.560083,87.553265,PM2.5,57,260,81
India,Bihar,Katihar,"Mirchaibari, Katihar - BSPCB",06-02-2024 20:00:00,25.560083,87.553265,OZONE,21,27,23
India,Bihar,Kishanganj,"SDM Office_Khagra, Kishanganj - BSPCB",06-02-2024 20:00:00,26.0881305,87.93840336,PM10,111,439,170
India,Bihar,Kishanganj,"SDM Office_Khagra, Kishanganj - BSPCB",06-02-2024 20:00:00,26.0881305,87.93840336,SO2,11,26,20
India,Bihar,Manguraha,"Forest Rest House, Manguraha - BSPCB",06-02-2024 20:00:00,27.308328,84.531742,PM2.5,NA,NA,NA
India,Bihar,Motihari,"Gandak Colony, Motihari - BSPCB",06-02-2024 20:00:00,26.63086,84.90051,CO,22,70,46
India,Bihar,Munger,"Town Hall, Munger - BSPCB",06-02-2024 20:00:00,25.376776,86.471523,PM10,41,79,58
India,Bihar,Muzaffarpur,"Buddha Colony, Muzaffarpur - BSPCB",06-02-2024 20:00:00,26.11442,85.39813,NH3,11,17,14
India,Bihar,Muzaffarpur,"MIT-Daudpur Kothi, Muzaffarpur - BSPCB",06-02-2024 20:00:00,26.1403345,85.3650192,NO2,3,7,5
India,Bihar,Muzaffarpur,"MIT-Daudpur Kothi, Muzaffarpur - BSPCB",06-02-2024 20:00:00,26.1403345,85.3650192,NH3,4,8,6
India,Bihar,Muzaffarpur,"MIT-Daudpur Kothi, Muzaffarpur - BSPCB",06-02-2024 20:00:00,26.1403345,85.3650192,SO2,10,14,11
India,Bihar,Muzaffarpur,"Muzaffarpur Collectorate, Muzaffarpur - BSPCB",06-02-2024 20:00:00,26.1209,85.3647,PM2.5,61,255,117
India,Bihar,Patna,"Govt. High School Shikarpur, Patna - BSPCB",06-02-2024 20:00:00,25.592539,85.227158,NH3,3,5,4
India,Bihar,Patna,"Govt. High School Shikarpur, Patna - BSPCB",06-02-2024 20:00:00,25.592539,85.227158,CO,54,101,65
India,Bihar,Patna,"Govt. High School Shikarpur, Patna - BSPCB",06-02-2024 20:00:00,25.592539,85.227158,OZONE,7,40,22
India,Bihar,Patna,"Rajbansi Nagar, Patna - BSPCB",06-02-2024 20:00:00,25.599486,85.113666,NH3,NA,NA,NA
India,Bihar,Purnia,"Mariam Nagar, Purnia - BSPCB",06-02-2024 20:00:00,25.366336,87.117468,PM2.5,27,190,96
India,Bihar,Purnia,"Mariam Nagar, Purnia - BSPCB",06-02-2024 20:00:00,25.366336,87.117468,PM10,74,128,93
India,Bihar,Purnia,"Mariam Nagar, Purnia - BSPCB",06-02-2024 20:00:00,25.366336,87.117468,NO2,11,14,13
India,Bihar,Rajgir,"Dangi Tola, Rajgir - BSPCB",06-02-2024 20:00:00,25.03280,85.41948,PM10,78,118,100
India,Bihar,Rajgir,"Dangi Tola, Rajgir - BSPCB",06-02-2024 20:00:00,25.03280,85.41948,NO2,1,1,1
India,Bihar,Rajgir,"Dangi Tola, Rajgir - BSPCB",06-02-2024 20:00:00,25.03280,85.41948,OZONE,21,27,23
India,Bihar,Samastipur,"DM Office_Kasipur, Samastipur - BSPCB",06-02-2024 20:00:00,25.859655,85.77944,PM2.5,NA,NA,NA
India,Bihar,Sasaram,"Dada Peer, Sasaram - BSPCB",06-02-2024 20:00:00,24.952822,84.002396,NO2,3,12,6
India,Bihar,Siwan,"Chitragupta Nagar, Siwan - BSPCB",06-02-2024 20:00:00,26.2271665,84.3570427,SO2,31,35,34
India,Bihar,Siwan,"Chitragupta Nagar, Siwan - BSPCB",06-02-2024 20:00:00,26.2271665,84.3570427,CO,62,136,89
India,Chandigarh,Chandigarh,"Sector-25, Chandigarh - CPCC",06-02-2024 20:00:00,30.751462,76.762879,NO2,11,24,14
India,Chandigarh,Chandigarh,"Sector-53, Chandigarh - CPCC",06-02-2024 20:00:00,30.719859,76.738637,NH3,3,5,4
India,Chhattisgarh,Bhilai,"32Bungalows, Bhilai - CECB",06-02-2024 20:00:00,21.194815,81.314770,SO2,5,9,7
India,Chhattisgarh,Bhilai,"32Bungalows, Bhilai - CECB",06-02-2024 20:00:00,21.194815,81.314770,OZONE,4,16,9
India,Chhattisgarh,Bhilai,"Civic Center, Bhilai - Bhilai Steel Plant",06-02-2024 20:00:00,21.185571,81.343175,CO,NA,NA,NA
India,Chhattisgarh,Chhal,"Nawapara SECL Colony, Chhal - CECB",06-02-2024 20:00:00,22.118125,83.140608,PM10,NA,NA,NA
India,Chhattisgarh,Korba,"Rampur, Korba - CECB",06-02-2024 20:00:00,22.368195,82.746431,NO2,NA,NA,NA
India,Chhattisgarh,Korba,"Rampur, Korba - CECB",06-02-2024 20:00:00,22.368195,82.746431,SO2,NA,NA,NA
India,Chhattisgarh,Korba,"Urja Nagar, Korba - CECB",06-02-2024 20:00:00,22.348441,82.549611,PM2.5,12,239,46
India,Chhattisgarh,Korba,"Urja Nagar, Korba - CECB",06-02-2024 20:00:00,22.348441,82.549611,PM10,18,367,106
India,Chhattisgarh,Korba,"Urja Nagar, Korba - CECB",06-02-2024 20:00:00,22.348441,82.549611,NO2,50,94,82
India,Chhattisgarh,Milupara,"Govt. Higher Secondary School, Milupara - CECB",06-02-2024 20:00:00,22.1910172,83.5197009,NO2,16,66,31
India,Chhattisgarh,Milupara,"Govt. Higher Secondary School, Milupara - CECB",06-02-2024 20:00:00,22.1910172,83.5197009,SO2,9,70,20
India,Chhattisgarh,Raipur,"AIIMS, Raipur - CECB",06-02-2024 20:00:00,21.258815,81.578979,NH3,NA,NA,NA
India,Chhattisgarh,Raipur,"AIIMS, Raipur - CECB",06-02-2024 20:00:00,21.258815,81.578979,SO2,5,27,10
India,Chhattisgarh,Raipur,"Krishak Nagar, Raipur - CECB",06-02-2024 20:00:00,21.237755,81.705301,NH3,1,1,1
India,Chhattisgarh,Tumidih,"OP Jindal Industrial Park, Tumidih - CECB",06-02-2024 20:00:00,22.06631475,83.33820077,PM10,40,226,85
India,Delhi,Delhi,"Alipur, Delhi - DPCC",06-02-2024 20:00:00,28.815329,77.153010,NH3,11,15,13
India,Delhi,Delhi,"Alipur, Delhi - DPCC",06-02-2024 20:00:00,28.815329,77.153010,CO,33,56,38
India,Delhi,Delhi,"Anand Vihar, Delhi - DPCC",06-02-2024 20:00:00,28.647622,77.3158090,PM10,118,280,181
India,Delhi,Delhi,"Anand Vihar, Delhi - DPCC",06-02-2024 20:00:00,28.647622,77.3158090,SO2,6,26,19
India,Delhi,Delhi,"Anand Vihar, Delhi - DPCC",06-02-2024 20:00:00,28.647622,77.3158090,OZONE,18,20,20
India,Delhi,Delhi,"Ashok Vihar, Delhi - DPCC",06-02-2024 20:00:00,28.695381,77.181665,PM10,101,161,131
India,Delhi,Delhi,"Ashok Vihar, Delhi - DPCC",06-02-2024 20:00:00,28.695381,77.181665,NO2,21,92,43
India,Delhi,Delhi,"Ashok Vihar, Delhi - DPCC",06-02-2024 20:00:00,28.695381,77.181665,NH3,6,10,8
India,Delhi,Delhi,"Aya Nagar, Delhi - IMD",06-02-2024 20:00:00,28.4706914,77.1099364,PM2.5,5,308,92
India,Delhi,Delhi,"Bawana, Delhi - DPCC",06-02-2024 20:00:00,28.776200,77.051074,PM2.5,50,312,123
India,Delhi,Delhi,"Bawana, Delhi - DPCC",06-02-2024 20:00:00,28.776200,77.051074,PM10,38,207,103
India,Delhi,Delhi,"Burari Crossing, Delhi - IMD",06-02-2024 20:00:00,28.7256504,77.2011573,NO2,4,7,6
India,Delhi,Delhi,"Burari Crossing, Delhi - IMD",06-02-2024 20:00:00,28.7256504,77.2011573,OZONE,20,51,37
India,Delhi,Delhi,"CRRI Mathura Road, Delhi - IMD",06-02-2024 20:00:00,28.5512005,77.2735737,NO2,25,43,33
India,Delhi,Delhi,"DTU, Delhi - CPCB",06-02-2024 20:00:00,28.7500499,77.1112615,CO,15,25,18
India,Delhi,Delhi,"DTU, Delhi - CPCB",06-02-2024 20:00:00,28.7500499,77.1112615,OZONE,26,34,30
India,Delhi,Delhi,"Dr. Karni Singh Shooting Range, Delhi - DPCC",06-02-2024 20:00:00,28.498571,77.264840,PM10,92,164,127
India,Delhi,Delhi,"Dwarka-Sector 8, Delhi - DPCC ",06-02-2024 20:00:00,28.5710274,77.0719006,PM2.5,58,193,130
India,Delhi,Delhi,"Dwarka-Sector 8, Delhi - DPCC ",06-02-2024 20:00:00,28.5710274,77.0719006,NO2,24,102,42
India,Delhi,Delhi,"Dwarka-Sector 8, Delhi - DPCC ",06-02-2024 20:00:00,28.5710274,77.0719006,OZONE,2,42,30
India,Delhi,Delhi,"IGI Airport (T3), Delhi - IMD",06-02-2024 20:00:00,28.5627763,77.1180053,OZONE,11,45,32
India,Delhi,Delhi,"IHBAS, Dilshad Garden, Delhi - CPCB",06-02-2024 20:00:00,28.6811736,77.3025234,NO2,10,34,24
India,Delhi,Delhi,"IHBAS, Dilshad Garden, Delhi - CPCB",06-02-2024 20:00:00,28.6811736,77.3025234,SO2,6,33,16
India,Delhi,Delhi,"ITO, Delhi - CPCB",06-02-2024 20:00:00,28.628624,77.241060,PM2.5,42,172,82
India,Delhi,Delhi,"ITO, Delhi - CPCB",06-02-2024 20:00:00,28.628624,77.241060,NO2,2,60,21
India,Delhi,Delhi,"Jahangirpuri, Delhi - DPCC",06-02-2024 20:00:00,28.732820,77.170633,SO2,5,18,11
India,Delhi,Delhi,"Jawaharlal Nehru Stadium, Delhi - DPCC",06-02-2024 20:00:00,28.580280,77.233829,NO2,40,116,62
India,Delhi,Delhi,"Jawaharlal Nehru Stadium, Delhi - DPCC",06-02-2024 20:00:00,28.580280,77.233829,CO,26,62,37
India,Delhi,Delhi,"Lodhi Road, Delhi - IMD",06-02-2024 20:00:00,28.5918245,77.2273074,PM2.5,3,76,57
India,Delhi,Delhi,"Lodhi Road, Delhi - IMD",06-02-2024 20:00:00,28.5918245,77.2273074,PM10,21,131,92
India,Delhi,Delhi,"Lodhi Road, Delhi - IMD",06-02-2024 20:00:00,28.5918245,77.2273074,NO2,5,16,6
India,Delhi,Delhi,"Mandir Marg, Delhi - DPCC",06-02-2024 20:00:00,28.636429,77.201067,PM2.5,53,221,133
India,Delhi,Delhi,"Mandir Marg, Delhi - DPCC",06-02-2024 20:00:00,28.636429,77.201067,CO,48,80,58
India,Delhi,Delhi,"Najafgarh, Delhi - DPCC",06-02-2024 20:00:00,28.570173,76.933762,PM2.5,40,200,78
India,Delhi,Delhi,"Narela, Delhi - DPCC",06-02-2024 20:00:00,28.822836,77.101981,NH3,6,13,8
India,Delhi,Delhi,"Narela, Delhi - DPCC",06-02-2024 20:00:00,28.822836,77.101981,CO,63,86,72
India,Delhi,Delhi,"Okhla Phase-2, Delhi - DPCC",06-02-2024 20:00:00,28.530785,77.271255,NH3,8,14,11
India,Delhi,Delhi,"Patparganj, Delhi - DPCC",06-02-2024 20:00:00,28.623763,77.287209,NH3,7,12,10
India,Delhi,Delhi,"Patparganj, Delhi - DPCC",06-02-2024 20:00:00,28.623763,77.287209,OZONE,1,66,41
India,Delhi,Delhi,"Punjabi Bagh, Delhi - DPCC",06-02-2024 20:00:00,28.674045,77.131023,CO,4,38,14
India,Delhi,Delhi,"Pusa, Delhi - DPCC",06-02-2024 20:00:00,28.639652,77.146275,PM2.5,48,311,148
India,Delhi,Delhi,"R K Puram, Delhi - DPCC",06-02-2024 20:00:00,28.563262,77.186937,CO,12,110,34
India,Delhi,Delhi,"Rohini, Delhi - DPCC",06-02-2024 20:00:00,28.732528,77.119920,NH3,6,10,8
India,Delhi,Delhi,"Sirifort, Delhi - CPCB",06-02-2024 20:00:00,28.5504249,77.2159377,PM10,27,52,41
India,Delhi,Delhi,"Sirifort, Delhi - CPCB",06-02-2024 20:00:00,28.5504249,77.2159377,NH3,5,13,10
India,Delhi,Delhi,"Sonia Vihar, Delhi - DPCC",06-02-2024 20:00:00,28.710508,77.249485,PM10,78,160,114
India,Delhi,Delhi,"Sonia Vihar, Delhi - DPCC",06-02-2024 20:00:00,28.710508,77.249485,NH3,4,8,6
India,Delhi,Delhi,"Sonia Vihar, Delhi - DPCC",06-02-2024 20:00:00,28.710508,77.249485,CO,40,72,49
India,Delhi,Delhi,"Sri Aurobindo Marg, Delhi - DPCC",06-02-2024 20:00:00,28.531346,77.190156,PM2.5,41,213,110
India,Delhi,Delhi,"Sri Aurobindo Marg, Delhi - DPCC",06-02-2024 20:00:00,28.531346,77.190156,NO2,16,59,37
India,Delhi,Delhi,"Vivek Vihar, Delhi - DPCC",06-02-2024 20:00:00,28.672342,77.315260,PM2.5,43,301,145
India,Delhi,Delhi,"Wazirpur, Delhi - DPCC",06-02-2024 20:00:00,28.699793,77.165453,OZONE,1,62,45
India,Gujarat,Ahmedabad,"Gyaspur, Ahmedabad - IITM",06-02-2024 20:00:00,22.977134,72.553024,OZONE,12,15,14
India,Gujarat,Ahmedabad,"Maninagar, Ahmedabad - GPCB",06-02-2024 20:00:00,23.002657,72.591912,PM10,41,108,61
India,Gujarat,Ahmedabad,"Maninagar, Ahmedabad - GPCB",06-02-2024 20:00:00,23.002657,72.591912,OZONE,10,93,76
India,Gujarat,Ahmedabad,"Raikhad, Ahmedabad - IITM",06-02-2024 20:00:00,23.020509,72.579261,CO,1,56,30
India,Gujarat,Ahmedabad,"Rakhial, Ahmedabad - IITM",06-02-2024 20:00:00,23.016834,72.625775,PM2.5,41,117,69
India,Gujarat,Ahmedabad,"Rakhial, Ahmedabad - IITM",06-02-2024 20:00:00,23.016834,72.625775,NH3,4,8,6
India,Gujarat,Ahmedabad,"Rakhial, Ahmedabad - IITM",06-02-2024 20:00:00,23.016834,72.625775,CO,19,87,44
India,Gujarat,Ahmedabad,"SAC ISRO Bopal, Ahmedabad - IITM",06-02-2024 20:00:00,23.041137,72.456691,PM2.5,58,298,95
India,Gujarat,Ahmedabad,"SAC ISRO Satellite, Ahmedabad - IITM",06-02-2024 20:00:00,23.023389,72.515201,NO2,17,17,17
India,Gujarat,Ahmedabad,"SAC ISRO Satellite, Ahmedabad - IITM",06-02-2024 20:00:00,23.023389,72.515201,CO,48,52,51
India,Gujarat,Ahmedabad,"SVPI Airport Hansol, Ahmedabad - IITM",06-02-2024 20:00:00,23.076793,72.627874,NO2,13,16,14
India,Gujarat,Ahmedabad,"SVPI Airport Hansol, Ahmedabad - IITM",06-02-2024 20:00:00,23.076793,72.627874,NH3,3,4,4
India,Gujarat,Ahmedabad,"Sardar Vallabhbhai Patel Stadium, Ahmedabad - IITM",06-02-2024 20:00:00,23.043070,72.562968,PM10,68,112,85
India,Gujarat,Ahmedabad,"Sardar Vallabhbhai Patel Stadium, Ahmedabad - IITM",06-02-2024 20:00:00,23.043070,72.562968,CO,22,52,31
India,Gujarat,Ankleshwar,"GIDC, Ankleshwar - GPCB",06-02-2024 20:00:00,21.613267,73.010555,NH3,6,6,6
India,Gujarat,Gandhinagar,"GIFT City, Gandhinagar - IITM",06-02-2024 20:00:00,23.163798,72.677768,SO2,3,9,6
India,Gujarat,Gandhinagar,"GIFT City, Gandhinagar - IITM",06-02-2024 20:00:00,23.163798,72.677768,OZONE,27,27,27
India,Gujarat,Gandhinagar,"IIPHG Lekawada, Gandhinagar - IITM",06-02-2024 20:00:00,23.243639,72.68994,NH3,4,4,4
India,Gujarat,Gandhinagar,"Sector-10, Gandhinagar - GPCB",06-02-2024 20:00:00,23.221714,72.654328,PM10,44,95,72
India,Gujarat,Surat,"Science Center, Surat - SMC",06-02-2024 20:00:00,21.170046,72.795405,PM2.5,NA,NA,NA
India,Gujarat,Vapi,"Phase-1 GIDC, Vapi - GPCB",06-02-2024 20:00:00,20.362421,72.918013,SO2,44,45,44
India,Gujarat,Vatva,"Phase-4 GIDC, Vatva - GPCB",06-02-2024 20:00:00,22.969611,72.643500,CO,38,40,39
India,Haryana,Ambala,"Patti Mehar, Ambala - HSPCB",06-02-2024 20:00:00,30.379589,76.778328,PM10,30,50,39
India,Haryana,Ambala,"Patti Mehar, Ambala - HSPCB",06-02-2024 20:00:00,30.379589,76.778328,CO,30,60,41
India,Haryana,Ambala,"Patti Mehar, Ambala - HSPCB",06-02-2024 20:00:00,30.379589,76.778328,OZONE,24,44,38
India,Haryana,Charkhi Dadri,"Mini Secretariat, Charkhi Dadri - HSPCB",06-02-2024 20:00:00,28.593883,76.270653,SO2,5,15,8
India,Haryana,Charkhi Dadri,"Mini Secretariat, Charkhi Dadri - HSPCB",06-02-2024 20:00:00,28.593883,76.270653,CO,16,37,22
India,Haryana,Dharuhera,"Municipal Corporation Office, Dharuhera -  HSPCB",06-02-2024 20:00:00,28.206800,76.799700,PM2.5,23,117,52
India,Haryana,Dharuhera,"Municipal Corporation Office, Dharuhera -  HSPCB",06-02-2024 20:00:00,28.206800,76.799700,CO,101,102,102
India,Haryana,Faridabad,"New Industrial Town, Faridabad - HSPCB",06-02-2024 20:00:00,28.39072,77.30059,SO2,22,26,24
India,Haryana,Faridabad,"Sector 30, Faridabad - HSPCB",06-02-2024 20:00:00,28.4417,77.3217,OZONE,8,37,28
India,Haryana,Faridabad,"Sector- 16A, Faridabad - HSPCB",06-02-2024 20:00:00,28.4088421,77.3099081,NO2,NA,NA,NA
India,Haryana,Gurugram,"Sector-51, Gurugram - HSPCB",06-02-2024 20:00:00,28.4227,77.0667,PM2.5,65,211,130
India,Haryana,Gurugram,"Sector-51, Gurugram - HSPCB",06-02-2024 20:00:00,28.4227,77.0667,OZONE,27,67,56
India,Haryana,Gurugram,"Teri Gram, Gurugram - HSPCB",06-02-2024 20:00:00,28.4275,77.1465,NO2,21,33,28
India,Haryana,Gurugram,"Teri Gram, Gurugram - HSPCB",06-02-2024 20:00:00,28.4275,77.1465,NH3,26,48,35
India,Haryana,Jind,"Police Lines, Jind - HSPCB",06-02-2024 20:00:00,29.307814,76.337619,PM10,48,81,65
India,Haryana,Jind,"Police Lines, Jind - HSPCB",06-02-2024 20:00:00,29.307814,76.337619,SO2,2,10,4
India,Haryana,Kurukshetra,"Sector-7, Kurukshetra - HSPCB",06-02-2024 20:00:00,29.966942,76.875879,NO2,10,10,10
India,Haryana,Kurukshetra,"Sector-7, Kurukshetra - HSPCB",06-02-2024 20:00:00,29.966942,76.875879,CO,10,29,16
India,Haryana,Mandikhera,"General Hospital, Mandikhera - HSPCB",06-02-2024 20:00:00,27.9002,76.9938,PM2.5,4,52,10
India,Haryana,Manesar,"Sector-2 IMT, Manesar - HSPCB",06-02-2024 20:00:00,28.360699,76.936090,CO,18,40,25
India,Haryana,Narnaul,"Shastri Nagar, Narnaul - HSPCB",06-02-2024 20:00:00,28.060249,76.113115,SO2,13,50,20
India,Haryana,Panchkula,"Sector-6, Panchkula - HSPCB ",06-02-2024 20:00:00,30.7057778,76.8531805555555,OZONE,27,31,30
India,Haryana,Panipat,"Sector-18, Panipat - HSPCB",06-02-2024 20:00:00,29.497973,76.993331,PM2.5,81,86,83
India,Haryana,Rohtak,"MD University, Rohtak - HSPCB",06-02-2024 20:00:00,28.52123,76.37138,SO2,5,8,7
India,Haryana,Sirsa,"F-Block, Sirsa - HSPCB",06-02-2024 20:00:00,29.536400,75.015800,PM10,37,149,64
India,Haryana,Sonipat,"Murthal, Sonipat - HSPCB",06-02-2024 20:00:00,29.027200,77.062100,PM2.5,30,85,60
India,Haryana,Yamuna Nagar,"Gobind Pura, Yamuna Nagar - HSPCB",06-02-2024 20:00:00,30.1480566,77.2893471,SO2,1,24,6
India,Himachal Pradesh,Baddi,"HIMUDA Complex Phase-1, Baddi - HPPCB",06-02-2024 20:00:00,30.943887,76.801991,CO,12,44,17
India,Jharkhand,Dhanbad,"Kalakusuma, Dhanbad - DMC",06-02-2024 20:00:00,23.811548,86.481238,PM10,NA,NA,NA
India,Jharkhand,Dhanbad,"Kalakusuma, Dhanbad - DMC",06-02-2024 20:00:00,23.811548,86.481238,OZONE,NA,NA,NA
India,Jharkhand,Dhanbad,"Sardar Patel Nagar, Dhanbad - JSPCB",06-02-2024 20:00:00,23.80569,86.44268,SO2,NA,NA,NA
India,Karnataka,Bagalkot,"Vidayagiri, Bagalkot - KSPCB",06-02-2024 20:00:00,16.172806,75.659694,PM10,46,51,50
India,Karnataka,Bagalkot,"Vidayagiri, Bagalkot - KSPCB",06-02-2024 20:00:00,16.172806,75.659694,NH3,1,2,1
India,Karnataka,Belgaum,"Ramteerth Nagar, Belgaum - KSPCB",06-02-2024 20:00:00,15.888653,74.541751,NH3,33,34,34
India,Karnataka,Bengaluru,"BTM Layout, Bengaluru - CPCB",06-02-2024 20:00:00,12.9135218,77.5950804,PM10,48,102,67
India,Karnataka,Bengaluru,"BTM Layout, Bengaluru - CPCB",06-02-2024 20:00:00,12.9135218,77.5950804,NH3,16,21,18
India,Karnataka,Bengaluru,"Bapuji Nagar, Bengaluru - KSPCB",06-02-2024 20:00:00,12.951913,77.539784,NH3,1,1,1
India,Karnataka,Bengaluru,"City Railway Station, Bengaluru - KSPCB",06-02-2024 20:00:00,12.9756843,77.5660749,NO2,NA,NA,NA
India,Karnataka,Bengaluru,"Hebbal, Bengaluru - KSPCB",06-02-2024 20:00:00,13.029152,77.585901,PM10,75,187,102
India,Karnataka,Bengaluru,"Hebbal, Bengaluru - KSPCB",06-02-2024 20:00:00,13.029152,77.585901,CO,9,52,26
India,Karnataka,Bengaluru,"Hebbal, Bengaluru - KSPCB",06-02-2024 20:00:00,13.029152,77.585901,OZONE,7,11,9
India,Karnataka,Bengaluru,"Hombegowda Nagar, Bengaluru - KSPCB",06-02-2024 20:00:00,12.938539,77.590100,CO,14,20,18
India,Karnataka,Bengaluru,"Hombegowda Nagar, Bengaluru - KSPCB",06-02-2024 20:00:00,12.938539,77.590100,OZONE,4,5,4
India,Karnataka,Bengaluru,"Jigani, Bengaluru - KSPCB",06-02-2024 20:00:00,12.7816279,77.6299145,SO2,5,10,7
India,Karnataka,Bengaluru,"Kasturi Nagar, Bengaluru - KSPCB",06-02-2024 20:00:00,13.003872,77.664217,NH3,4,4,4
India,Karnataka,Bengaluru,"Kasturi Nagar, Bengaluru - KSPCB",06-02-2024 20:00:00,13.003872,77.664217,OZONE,12,82,68
India,Karnataka,Bengaluru,"Peenya, Bengaluru - CPCB",06-02-2024 20:00:00,13.0270199,77.494094,PM2.5,20,87,71
India,Karnataka,Bengaluru,"Peenya, Bengaluru - CPCB",06-02-2024 20:00:00,13.0270199,77.494094,CO,22,54,40
India,Karnataka,Bengaluru,"Silk Board, Bengaluru - KSPCB",06-02-2024 20:00:00,12.917348,77.622813,OZONE,29,31,30
India,Karnataka,Chamarajanagar,"Urban, Chamarajanagar - KSPCB",06-02-2024 20:00:00,11.55358,76.55521,NH3,2,3,2
India,Karnataka,Chamarajanagar,"Urban, Chamarajanagar - KSPCB",06-02-2024 20:00:00,11.55358,76.55521,SO2,2,9,5
India,Karnataka,Chikkaballapur,"Chikkaballapur Rural, Chikkaballapur - KSPCB",06-02-2024 20:00:00,13.428828,77.731418,SO2,NA,NA,NA
India,Karnataka,Dharwad,"Kalabhavan, Dharwad - KSPCB",06-02-2024 20:00:00,15.459706,75.008381,PM2.5,60,82,72
India,Karnataka,Dharwad,"Kalabhavan, Dharwad - KSPCB",06-02-2024 20:00:00,15.459706,75.008381,NO2,2,38,23
India,Karnataka,Dharwad,"Kalabhavan, Dharwad - KSPCB",06-02-2024 20:00:00,15.459706,75.008381,CO,52,184,72
India,Karnataka,Gadag,"Panchal Nagar, Gadag - KSPCB",06-02-2024 20:00:00,15.411456,75.638133,PM2.5,24,49,37
India,Karnataka,Hassan,"B.Katihalli, Hassan - KSPCB",06-02-2024 20:00:00,13.008556,76.125258,PM2.5,27,130,62
India,Karnataka,Hassan,"B.Katihalli, Hassan - KSPCB",06-02-2024 20:00:00,13.008556,76.125258,PM10,46,159,81
India,Karnataka,Hassan,"B.Katihalli, Hassan - KSPCB",06-02-2024 20:00:00,13.008556,76.125258,NH3,3,4,3
India,Karnataka,Haveri,"Ashwini Nagar, Haveri - KSPCB",06-02-2024 20:00:00,14.791800,75.389600,PM2.5,NA,NA,NA
India,Karnataka,Hubballi,"Lingaraj Nagar, Hubballi - KSPCB",06-02-2024 20:00:00,15.3714823,75.1160168,NH3,2,2,2
India,Karnataka,Kalaburagi,"Lal Bahadur Shastri Nagar, Kalaburagi - KSPCB",06-02-2024 20:00:00,17.321993,76.822628,NO2,11,12,12
India,Karnataka,Karwar,"KHB Colony, Karwar - KSPCB",06-02-2024 20:00:00,14.816666,74.141003,SO2,18,18,18
India,Karnataka,Kolar,"Tamaka Ind. Area, Kolar - KSPCB",06-02-2024 20:00:00,13.1276288,78.1570122,PM10,72,131,94
India,Karnataka,Koppal,"Diwator Nagar, Koppal - KSPCB",06-02-2024 20:00:00,15.347630,76.181767,NO2,2,29,14
India,Karnataka,Madikeri,"Stuart Hill, Madikeri - KSPCB",06-02-2024 20:00:00,12.415911,75.735050,PM2.5,17,56,38
India,Karnataka,Mangalore,"Kadri, Mangalore - KSPCB",06-02-2024 20:00:00,12.889250,74.853000,SO2,17,21,20
India,Karnataka,Mangalore,"Kadri, Mangalore - KSPCB",06-02-2024 20:00:00,12.889250,74.853000,OZONE,31,32,31
India,Karnataka,Raichur,"Haji Colony, Raichur - KSPCB",06-02-2024 20:00:00,16.208139,77.348417,PM2.5,17,87,37
India,Karnataka,Raichur,"Haji Colony, Raichur - KSPCB",06-02-2024 20:00:00,16.208139,77.348417,CO,82,120,100
India,Karnataka,Ramanagara,"Vijay Nagar, Ramanagara - KSPCB",06-02-2024 20:00:00,12.733409,77.298051,PM2.5,35,186,67
India,Karnataka,Ramanagara,"Vijay Nagar, Ramanagara - KSPCB",06-02-2024 20:00:00,12.733409,77.298051,PM10,27,96,50
India,Karnataka,Ramanagara,"Vijay Nagar, Ramanagara - KSPCB",06-02-2024 20:00:00,12.733409,77.298051,NH3,1,2,1
India,Karnataka,Ramanagara,"Vijay Nagar, Ramanagara - KSPCB",06-02-2024 20:00:00,12.733409,77.298051,SO2,26,43,32
India,Karnataka,Shivamogga,"Vinoba Nagara, Shivamogga - KSPCB",06-02-2024 20:00:00,13.940000,75.555917,OZONE,34,83,70
India,Karnataka,Tumakuru,"Thimmalapura, Tumakuru - KSPCB",06-02-2024 20:00:00,13.377516,77.099072,CO,21,103,72
India,Karnataka,Udupi,"Brahmagiri, Udupi - KSPCB",06-02-2024 20:00:00,13.34194444,74.74694444,SO2,NA,NA,NA
India,Karnataka,Vijayapura,"Ibrahimpur, Vijayapura - KSPCB",06-02-2024 20:00:00,16.802639,75.722694,PM2.5,26,31,30
India,Karnataka,Vijayapura,"Ibrahimpur, Vijayapura - KSPCB",06-02-2024 20:00:00,16.802639,75.722694,PM10,38,40,39
India,Kerala,Eloor,"Udyogamandal, Eloor - Kerala PCB",06-02-2024 20:00:00,10.073232,76.302765,SO2,1,8,2
India,Kerala,Eloor,"Udyogamandal, Eloor - Kerala PCB",06-02-2024 20:00:00,10.073232,76.302765,CO,6,78,50
