country,state,city,station,last_update,latitude,longitude,pollutant_id,pollutant_min,pollutant_max,pollutant_avg
India,Andhra_Pradesh,Amaravati,"Secretariat, Amaravati - APPCB",27-04-2024 23:00:00,16.5150833,80.5181667,NO2,4,9,6
India,Andhra_Pradesh,Anantapur,"Gulzarpet, Anantapur - APPCB",27-04-2024 23:00:00,14.675886,77.593027,PM10,NA,NA,NA
India,Andhra_Pradesh,Anantapur,"Gulzarpet, Anantapur - APPCB",27-04-2024 23:00:00,14.675886,77.593027,SO2,NA,NA,NA
India,Andhra_Pradesh,Chittoor,"Gangineni Cheruvu, Chittoor - APPCB",27-04-2024 23:00:00,13.204880,79.097889,NH3,1,2,1
India,Andhra_Pradesh,Kadapa,"Yerramukkapalli, Kadapa - APPCB",27-04-2024 23:00:00,14.465052,78.824187,PM10,NA,NA,NA
India,Andhra_Pradesh,Kadapa,"Yerramukkapalli, Kadapa - APPCB",27-04-2024 23:00:00,14.465052,78.824187,OZONE,NA,NA,NA
India,Andhra_Pradesh,Rajamahendravaram,"Anand Kala Kshetram, Rajamahendravaram - APPCB",27-04-2024 23:00:00,16.9872867,81.7363176,PM2.5,17,89,38
India,Andhra_Pradesh,Tirupati,"Tirumala, Tirupati - APPCB",27-04-2024 23:00:00,13.67,79.35,CO,32,52,44
India,Andhra_Pradesh,Tirupati,"Vaikuntapuram, Tirupati - APPCB",27-04-2024 23:00:00,13.615387,79.409230,NO2,15,25,18
India,Andhra_Pradesh,Tirupati,"Vaikuntapuram, Tirupati - APPCB",27-04-2024 23:00:00,13.615387,79.409230,CO,10,15,14
India,Andhra_Pradesh,Vijayawada,"HB Colony, Vijayawada - APPCB",27-04-2024 23:00:00,16.536107,80.594233,PM10,49,77,57
India,Andhra_Pradesh,Vijayawada,"HB Colony, Vijayawada - APPCB",27-04-2024 23:00:00,16.536107,80.594233,NH3,4,4,4
India,Andhra_Pradesh,Vijayawada,"Rajiv Gandhi Park, Vijayawada - APPCB",27-04-2024 23:00:00,16.509717,80.612222,PM2.5,44,97,73
India,Andhra_Pradesh,Visakhapatnam,"GVM Corporation, Visakhapatnam - APPCB",27-04-2024 23:00:00,17.72,83.3,PM10,61,181,111
India,Andhra_Pradesh,Visakhapatnam,"GVM Corporation, Visakhapatnam - APPCB",27-04-2024 23:00:00,17.72,83.3,OZONE,1,86,22
India,Assam,Guwahati,"IITG, Guwahati - PCBA",27-04-2024 23:00:00,26.2028636,91.70046436,PM2.5,33,94,53
India,Assam,Guwahati,"IITG, Guwahati - PCBA",27-04-2024 23:00:00,26.2028636,91.70046436,NO2,1,3,1
India,Assam,Guwahati,"IITG, Guwahati - PCBA",27-04-2024 23:00:00,26.2028636,91.70046436,CO,10,14,11
India,Assam,Guwahati,"LGBI Airport, Guwahati - PCBA",27-04-2024 23:00:00,26.10887,91.589544,PM10,47,168,104
India,Assam,Guwahati,"Pan Bazaar, Guwahati - PCBA",27-04-2024 23:00:00,26.187500,91.744194,PM2.5,28,78,45
India,Assam,Nagaon,"Christianpatty, Nagaon - PCBA",27-04-2024 23:00:00,26.349082,92.68449,SO2,5,59,19
India,Assam,Nagaon,"Christianpatty, Nagaon - PCBA",27-04-2024 23:00:00,26.349082,92.68449,OZONE,32,95,59
India,Assam,Nalbari,"Bata Chowk, Nalbari - PCBA",27-04-2024 23:00:00,26.446912,91.439057,CO,64,104,84
India,Assam,Sivasagar,"Girls College, Sivasagar - PCBA",27-04-2024 23:00:00,26.987634,94.636574,PM2.5,32,56,42
India,Assam,Sivasagar,"Girls College, Sivasagar - PCBA",27-04-2024 23:00:00,26.987634,94.636574,NO2,10,17,13
India,Bihar,Araria,"Kharahiya Basti, Araria - BSPCB",27-04-2024 23:00:00,26.146529,87.454184,PM10,71,144,101
India,Bihar,Araria,"Kharahiya Basti, Araria - BSPCB",27-04-2024 23:00:00,26.146529,87.454184,CO,22,30,27
India,Bihar,Bettiah,"Kamalnath Nagar, Bettiah - BSPCB",27-04-2024 23:00:00,26.80365,84.51954,PM10,NA,NA,NA
India,Bihar,Bettiah,"Kamalnath Nagar, Bettiah - BSPCB",27-04-2024 23:00:00,26.80365,84.51954,NO2,8,29,26
India,Bihar,Bhagalpur,"Mayaganj, Bhagalpur - BSPCB",27-04-2024 23:00:00,25.265194,87.012947,PM2.5,53,260,125
India,Bihar,Bhagalpur,"Mayaganj, Bhagalpur - BSPCB",27-04-2024 23:00:00,25.265194,87.012947,NO2,1,13,8
India,Bihar,Bhagalpur,"Mayaganj, Bhagalpur - BSPCB",27-04-2024 23:00:00,25.265194,87.012947,CO,4,10,9
India,Bihar,Bihar Sharif,"D M Colony, Bihar Sharif - BSPCB",27-04-2024 23:00:00,25.204762,85.514960,NH3,2,2,2
India,Bihar,Bihar Sharif,"D M Colony, Bihar Sharif - BSPCB",27-04-2024 23:00:00,25.204762,85.514960,SO2,3,16,11
India,Bihar,Chhapra,"Darshan Nagar, Chhapra - BSPCB",27-04-2024 23:00:00,25.7808257,84.7446768,CO,41,70,58
India,Bihar,Gaya,"Collectorate, Gaya - BSPCB",27-04-2024 23:00:00,24.7955,84.9994,PM2.5,36,443,185
India,Bihar,Gaya,"Collectorate, Gaya - BSPCB",27-04-2024 23:00:00,24.7955,84.9994,OZONE,44,80,64
India,Bihar,Gaya,"Kareemganj, Gaya - BSPCB",27-04-2024 23:00:00,24.792403,84.992416,NO2,30,31,30
India,Bihar,Gaya,"SFTI Kusdihra, Gaya - BSPCB",27-04-2024 23:00:00,24.762518,84.982348,PM10,35,72,57
India,Bihar,Gaya,"SFTI Kusdihra, Gaya - BSPCB",27-04-2024 23:00:00,24.762518,84.982348,OZONE,6,152,65
India,Bihar,Hajipur,"Industrial Area, Hajipur - BSPCB",27-04-2024 23:00:00,25.697189,85.245900,NH3,1,10,6
India,Bihar,Katihar,"Mirchaibari, Katihar - BSPCB",27-04-2024 23:00:00,25.560083,87.553265,NH3,2,10,7
India,Bihar,Katihar,"Mirchaibari, Katihar - BSPCB",27-04-2024 23:00:00,25.560083,87.553265,SO2,16,22,19
India,Bihar,Katihar,"Mirchaibari, Katihar - BSPCB",27-04-2024 23:00:00,25.560083,87.553265,CO,46,62,54
India,Bihar,Katihar,"Mirchaibari, Katihar - BSPCB",27-04-2024 23:00:00,25.560083,87.553265,OZONE,10,17,13
India,Bihar,Kishanganj,"SDM Office_Khagra, Kishanganj - BSPCB",27-04-2024 23:00:00,26.0881305,87.93840336,PM2.5,47,273,101
India,Bihar,Manguraha,"Forest Rest House, Manguraha - BSPCB",27-04-2024 23:00:00,27.308328,84.531742,PM2.5,75,210,122
India,Bihar,Manguraha,"Forest Rest House, Manguraha - BSPCB",27-04-2024 23:00:00,27.308328,84.531742,PM10,67,165,138
India,Bihar,Motihari,"Gandak Colony, Motihari - BSPCB",27-04-2024 23:00:00,26.63086,84.90051,OZONE,35,175,61
India,Bihar,Munger,"Town Hall, Munger - BSPCB",27-04-2024 23:00:00,25.376776,86.471523,PM2.5,70,302,131
India,Bihar,Munger,"Town Hall, Munger - BSPCB",27-04-2024 23:00:00,25.376776,86.471523,NO2,4,8,7
India,Bihar,Munger,"Town Hall, Munger - BSPCB",27-04-2024 23:00:00,25.376776,86.471523,SO2,19,29,25
India,Bihar,Muzaffarpur,"Buddha Colony, Muzaffarpur - BSPCB",27-04-2024 23:00:00,26.11442,85.39813,CO,21,70,35
India,Bihar,Muzaffarpur,"Buddha Colony, Muzaffarpur - BSPCB",27-04-2024 23:00:00,26.11442,85.39813,OZONE,16,48,35
India,Bihar,Muzaffarpur,"Muzaffarpur Collectorate, Muzaffarpur - BSPCB",27-04-2024 23:00:00,26.1209,85.3647,NO2,NA,NA,NA
India,Bihar,Patna,"DRM Office Danapur, Patna - BSPCB",27-04-2024 23:00:00,25.586562,85.043586,PM2.5,NA,NA,NA
India,Bihar,Patna,"DRM Office Danapur, Patna - BSPCB",27-04-2024 23:00:00,25.586562,85.043586,CO,14,58,29
India,Bihar,Patna,"IGSC Planetarium Complex, Patna - BSPCB",27-04-2024 23:00:00,25.610369,85.132568,OZONE,34,45,37
India,Bihar,Patna,"Rajbansi Nagar, Patna - BSPCB",27-04-2024 23:00:00,25.599486,85.113666,PM2.5,56,257,146
India,Bihar,Patna,"Samanpura, Patna - BSPCB",27-04-2024 23:00:00,25.596727,85.085624,PM10,128,434,223
India,Bihar,Saharsa,"Police Line, Saharsa - BSPCB",27-04-2024 23:00:00,25.892357,86.590325,PM2.5,43,347,134
India,Bihar,Saharsa,"Police Line, Saharsa - BSPCB",27-04-2024 23:00:00,25.892357,86.590325,SO2,16,16,16
India,Bihar,Saharsa,"Police Line, Saharsa - BSPCB",27-04-2024 23:00:00,25.892357,86.590325,OZONE,11,45,31
India,Bihar,Samastipur,"DM Office_Kasipur, Samastipur - BSPCB",27-04-2024 23:00:00,25.859655,85.77944,PM2.5,60,329,146
India,Bihar,Sasaram,"Dada Peer, Sasaram - BSPCB",27-04-2024 23:00:00,24.952822,84.002396,PM10,52,120,85
India,Chandigarh,Chandigarh,"Sector 22, Chandigarh - CPCC",27-04-2024 23:00:00,30.735567,76.775714,NO2,16,94,49
India,Chandigarh,Chandigarh,"Sector 22, Chandigarh - CPCC",27-04-2024 23:00:00,30.735567,76.775714,OZONE,20,104,42
India,Chandigarh,Chandigarh,"Sector-25, Chandigarh - CPCC",27-04-2024 23:00:00,30.751462,76.762879,PM10,101,164,126
India,Chandigarh,Chandigarh,"Sector-25, Chandigarh - CPCC",27-04-2024 23:00:00,30.751462,76.762879,CO,20,46,28
India,Chhattisgarh,Bhilai,"32Bungalows, Bhilai - CECB",27-04-2024 23:00:00,21.194815,81.314770,PM10,38,197,68
India,Chhattisgarh,Bhilai,"32Bungalows, Bhilai - CECB",27-04-2024 23:00:00,21.194815,81.314770,NH3,6,7,6
India,Chhattisgarh,Bhilai,"32Bungalows, Bhilai - CECB",27-04-2024 23:00:00,21.194815,81.314770,SO2,4,29,12
India,Chhattisgarh,Bhilai,"32Bungalows, Bhilai - CECB",27-04-2024 23:00:00,21.194815,81.314770,OZONE,7,70,34
India,Chhattisgarh,Bhilai,"Civic Center, Bhilai - Bhilai Steel Plant",27-04-2024 23:00:00,21.185571,81.343175,PM10,24,95,45
India,Chhattisgarh,Bhilai,"Civic Center, Bhilai - Bhilai Steel Plant",27-04-2024 23:00:00,21.185571,81.343175,NH3,2,7,4
India,Chhattisgarh,Bilaspur,"Mangala, Bilaspur - NTPC",27-04-2024 23:00:00,22.08815,82.13737,PM10,24,87,41
India,Chhattisgarh,Bilaspur,"Mangala, Bilaspur - NTPC",27-04-2024 23:00:00,22.08815,82.13737,SO2,4,19,12
India,Chhattisgarh,Chhal,"Nawapara SECL Colony, Chhal - CECB",27-04-2024 23:00:00,22.118125,83.140608,SO2,15,60,28
India,Chhattisgarh,Korba,"Rampur, Korba - CECB",27-04-2024 23:00:00,22.368195,82.746431,PM2.5,17,41,25
India,Chhattisgarh,Milupara,"Govt. Higher Secondary School, Milupara - CECB",27-04-2024 23:00:00,22.1910172,83.5197009,PM10,NA,NA,NA
India,Chhattisgarh,Milupara,"Govt. Higher Secondary School, Milupara - CECB",27-04-2024 23:00:00,22.1910172,83.5197009,NO2,NA,NA,NA
India,Chhattisgarh,Raipur,"AIIMS, Raipur - CECB",27-04-2024 23:00:00,21.258815,81.578979,NH3,NA,NA,NA
India,Chhattisgarh,Raipur,"Bhatagaon New ISBT, Raipur - CECB",27-04-2024 23:00:00,21.219665,81.630094,SO2,1,3,2
India,Chhattisgarh,Raipur,"Krishak Nagar, Raipur - CECB",27-04-2024 23:00:00,21.237755,81.705301,PM2.5,24,43,31
India,Chhattisgarh,Raipur,"Siltara Phase-II, Raipur - CECB",27-04-2024 23:00:00,21.371751,81.664929,PM2.5,39,149,57
India,Chhattisgarh,Raipur,"Siltara Phase-II, Raipur - CECB",27-04-2024 23:00:00,21.371751,81.664929,NO2,26,67,43
India,Chhattisgarh,Tumidih,"OP Jindal Industrial Park, Tumidih - CECB",27-04-2024 23:00:00,22.06631475,83.33820077,PM2.5,NA,NA,NA
India,Chhattisgarh,Tumidih,"OP Jindal Industrial Park, Tumidih - CECB",27-04-2024 23:00:00,22.06631475,83.33820077,OZONE,NA,NA,NA
India,Delhi,Delhi,"Alipur, Delhi - DPCC",27-04-2024 23:00:00,28.815329,77.153010,CO,18,60,38
India,Delhi,Delhi,"Anand Vihar, Delhi - DPCC",27-04-2024 23:00:00,28.647622,77.3158090,PM10,NA,NA,NA
India,Delhi,Delhi,"Anand Vihar, Delhi - DPCC",27-04-2024 23:00:00,28.647622,77.3158090,NH3,NA,NA,NA
India,Delhi,Delhi,"Ashok Vihar, Delhi - DPCC",27-04-2024 23:00:00,28.695381,77.181665,PM2.5,46,374,129
India,Delhi,Delhi,"Ashok Vihar, Delhi - DPCC",27-04-2024 23:00:00,28.695381,77.181665,PM10,92,290,193
India,Delhi,Delhi,"Aya Nagar, Delhi - IMD",27-04-2024 23:00:00,28.4706914,77.1099364,NO2,13,38,32
India,Delhi,Delhi,"Bawana, Delhi - DPCC",27-04-2024 23:00:00,28.776200,77.051074,PM10,106,276,182
India,Delhi,Delhi,"Bawana, Delhi - DPCC",27-04-2024 23:00:00,28.776200,77.051074,NO2,12,86,37
India,Delhi,Delhi,"CRRI Mathura Road, Delhi - IMD",27-04-2024 23:00:00,28.5512005,77.2735737,PM2.5,54,360,111
India,Delhi,Delhi,"Chandni Chowk, Delhi - IITM",27-04-2024 23:00:00,28.656756,77.227234,NO2,176,363,273
India,Delhi,Delhi,"Chandni Chowk, Delhi - IITM",27-04-2024 23:00:00,28.656756,77.227234,CO,72,104,92
India,Delhi,Delhi,"DTU, Delhi - CPCB",27-04-2024 23:00:00,28.7500499,77.1112615,CO,18,48,26
India,Delhi,Delhi,"Dr. Karni Singh Shooting Range, Delhi - DPCC",27-04-2024 23:00:00,28.498571,77.264840,NH3,7,11,9
India,Delhi,Delhi,"IHBAS, Dilshad Garden, Delhi - CPCB",27-04-2024 23:00:00,28.6811736,77.3025234,NO2,28,67,50
India,Delhi,Delhi,"ITO, Delhi - CPCB",27-04-2024 23:00:00,28.628624,77.241060,PM2.5,46,125,79
India,Delhi,Delhi,"ITO, Delhi - CPCB",27-04-2024 23:00:00,28.628624,77.241060,PM10,88,217,139
India,Delhi,Delhi,"Jawaharlal Nehru Stadium, Delhi - DPCC",27-04-2024 23:00:00,28.580280,77.233829,SO2,4,25,13
India,Delhi,Delhi,"Lodhi Road, Delhi - IITM",27-04-2024 23:00:00,28.588333,77.221667,OZONE,16,22,19
India,Delhi,Delhi,"Lodhi Road, Delhi - IMD",27-04-2024 23:00:00,28.5918245,77.2273074,NO2,4,28,13
India,Delhi,Delhi,"Mandir Marg, Delhi - DPCC",27-04-2024 23:00:00,28.636429,77.201067,NH3,4,7,6
India,Delhi,Delhi,"Mandir Marg, Delhi - DPCC",27-04-2024 23:00:00,28.636429,77.201067,CO,18,54,31
India,Delhi,Delhi,"Mandir Marg, Delhi - DPCC",27-04-2024 23:00:00,28.636429,77.201067,OZONE,2,87,26
India,Delhi,Delhi,"Najafgarh, Delhi - DPCC",27-04-2024 23:00:00,28.570173,76.933762,NO2,20,72,43
India,Delhi,Delhi,"Patparganj, Delhi - DPCC",27-04-2024 23:00:00,28.623763,77.287209,OZONE,4,104,67
India,Delhi,Delhi,"Pusa, Delhi - DPCC",27-04-2024 23:00:00,28.639652,77.146275,PM2.5,37,123,65
India,Delhi,Delhi,"R K Puram, Delhi - DPCC",27-04-2024 23:00:00,28.563262,77.186937,OZONE,17,127,78
India,Delhi,Delhi,"Rohini, Delhi - DPCC",27-04-2024 23:00:00,28.732528,77.119920,OZONE,6,128,94
India,Delhi,Delhi,"Shadipur, Delhi - CPCB",27-04-2024 23:00:00,28.6514781,77.1473105,PM10,57,500,235
India,Delhi,Delhi,"Sonia Vihar, Delhi - DPCC",27-04-2024 23:00:00,28.710508,77.249485,NH3,6,23,8
India,Delhi,Delhi,"Sri Aurobindo Marg, Delhi - DPCC",27-04-2024 23:00:00,28.531346,77.190156,PM2.5,42,147,72
India,Delhi,Delhi,"Sri Aurobindo Marg, Delhi - DPCC",27-04-2024 23:00:00,28.531346,77.190156,NH3,9,16,12
India,Delhi,Delhi,"Vivek Vihar, Delhi - DPCC",27-04-2024 23:00:00,28.672342,77.315260,NO2,24,92,55
India,Gujarat,Ahmedabad,"Chandkheda, Ahmedabad - IITM",27-04-2024 23:00:00,23.107969,72.574648,PM10,69,174,111
India,Gujarat,Ahmedabad,"Chandkheda, Ahmedabad - IITM",27-04-2024 23:00:00,23.107969,72.574648,SO2,5,18,10
India,Gujarat,Ahmedabad,"Gyaspur, Ahmedabad - IITM",27-04-2024 23:00:00,22.977134,72.553024,NO2,8,13,10
India,Gujarat,Ahmedabad,"Maninagar, Ahmedabad - GPCB",27-04-2024 23:00:00,23.002657,72.591912,PM10,37,226,102
India,Gujarat,Ahmedabad,"Raikhad, Ahmedabad - IITM",27-04-2024 23:00:00,23.020509,72.579261,NO2,44,68,50
India,Gujarat,Ahmedabad,"Raikhad, Ahmedabad - IITM",27-04-2024 23:00:00,23.020509,72.579261,OZONE,6,24,15
India,Gujarat,Ahmedabad,"Rakhial, Ahmedabad - IITM",27-04-2024 23:00:00,23.016834,72.625775,PM10,96,197,129
India,Gujarat,Ahmedabad,"Rakhial, Ahmedabad - IITM",27-04-2024 23:00:00,23.016834,72.625775,OZONE,7,37,33
India,Gujarat,Ahmedabad,"SAC ISRO Satellite, Ahmedabad - IITM",27-04-2024 23:00:00,23.023389,72.515201,PM2.5,83,134,107
India,Gujarat,Ahmedabad,"SAC ISRO Satellite, Ahmedabad - IITM",27-04-2024 23:00:00,23.023389,72.515201,CO,22,40,27
India,Gujarat,Ahmedabad,"SVPI Airport Hansol, Ahmedabad - IITM",27-04-2024 23:00:00,23.076793,72.627874,SO2,2,11,6
India,Gujarat,Ahmedabad,"SVPI Airport Hansol, Ahmedabad - IITM",27-04-2024 23:00:00,23.076793,72.627874,CO,14,102,46
India,Gujarat,Ahmedabad,"Sardar Vallabhbhai Patel Stadium, Ahmedabad - IITM",27-04-2024 23:00:00,23.043070,72.562968,PM2.5,67,235,104
India,Gujarat,Ankleshwar,"GIDC, Ankleshwar - GPCB",27-04-2024 23:00:00,21.613267,73.010555,CO,44,79,49
India,Gujarat,Nandesari,"GIDC, Nandesari - Nandesari Ind. Association",27-04-2024 23:00:00,22.410802,73.097923,PM10,NA,NA,NA
India,Gujarat,Surat,"Science Center, Surat - SMC",27-04-2024 23:00:00,21.170046,72.795405,SO2,1,6,3
India,Gujarat,Vapi,"Phase-1 GIDC, Vapi - GPCB",27-04-2024 23:00:00,20.362421,72.918013,PM2.5,28,106,54
India,Gujarat,Vapi,"Phase-1 GIDC, Vapi - GPCB",27-04-2024 23:00:00,20.362421,72.918013,PM10,38,138,77
India,Gujarat,Vapi,"Phase-1 GIDC, Vapi - GPCB",27-04-2024 23:00:00,20.362421,72.918013,NH3,2,2,2
India,Gujarat,Vapi,"Phase-1 GIDC, Vapi - GPCB",27-04-2024 23:00:00,20.362421,72.918013,OZONE,35,46,42
India,Haryana,Ambala,"Patti Mehar, Ambala - HSPCB",27-04-2024 23:00:00,30.379589,76.778328,NH3,NA,NA,NA
India,Haryana,Ambala,"Patti Mehar, Ambala - HSPCB",27-04-2024 23:00:00,30.379589,76.778328,CO,39,60,39
India,Haryana,Bahadurgarh,"Arya Nagar, Bahadurgarh - HSPCB",27-04-2024 23:00:00,28.6701,76.9254,NH3,7,10,9
India,Haryana,Bahadurgarh,"Arya Nagar, Bahadurgarh - HSPCB",27-04-2024 23:00:00,28.6701,76.9254,CO,84,102,99
India,Haryana,Ballabgarh,"Nathu Colony, Ballabgarh - HSPCB",27-04-2024 23:00:00,28.3419248,77.319699,PM2.5,95,288,165
India,Haryana,Bhiwani,"H.B. Colony, Bhiwani - HSPCB",27-04-2024 23:00:00,28.806223,76.141105,PM10,48,422,140
India,Haryana,Bhiwani,"H.B. Colony, Bhiwani - HSPCB",27-04-2024 23:00:00,28.806223,76.141105,NO2,3,10,8
India,Haryana,Bhiwani,"H.B. Colony, Bhiwani - HSPCB",27-04-2024 23:00:00,28.806223,76.141105,CO,6,40,27
India,Haryana,Charkhi Dadri,"Mini Secretariat, Charkhi Dadri - HSPCB",27-04-2024 23:00:00,28.593883,76.270653,PM2.5,58,362,212
India,Haryana,Charkhi Dadri,"Mini Secretariat, Charkhi Dadri - HSPCB",27-04-2024 23:00:00,28.593883,76.270653,PM10,58,284,155
India,Haryana,Charkhi Dadri,"Mini Secretariat, Charkhi Dadri - HSPCB",27-04-2024 23:00:00,28.593883,76.270653,NH3,6,8,7
India,Haryana,Charkhi Dadri,"Mini Secretariat, Charkhi Dadri - HSPCB",27-04-2024 23:00:00,28.593883,76.270653,CO,21,72,39
India,Haryana,Faridabad,"New Industrial Town, Faridabad - HSPCB",27-04-2024 23:00:00,28.39072,77.30059,NH3,NA,NA,NA
India,Haryana,Faridabad,"New Industrial Town, Faridabad - HSPCB",27-04-2024 23:00:00,28.39072,77.30059,CO,6,42,19
India,Haryana,Faridabad,"New Industrial Town, Faridabad - HSPCB",27-04-2024 23:00:00,28.39072,77.30059,OZONE,20,263,71
India,Haryana,Faridabad,"Sector 11, Faridabad - HSPCB",27-04-2024 23:00:00,28.376058,77.315741,SO2,2,116,7
India,Haryana,Faridabad,"Sector 11, Faridabad - HSPCB",27-04-2024 23:00:00,28.376058,77.315741,CO,32,50,38
India,Haryana,Faridabad,"Sector 11, Faridabad - HSPCB",27-04-2024 23:00:00,28.376058,77.315741,OZONE,3,14,10
India,Haryana,Faridabad,"Sector 30, Faridabad - HSPCB",27-04-2024 23:00:00,28.4417,77.3217,NO2,31,32,31
India,Haryana,Faridabad,"Sector- 16A, Faridabad - HSPCB",27-04-2024 23:00:00,28.4088421,77.3099081,PM2.5,63,313,113
India,Haryana,Fatehabad,"Huda Sector, Fatehabad - HSPCB",27-04-2024 23:00:00,29.503664,75.467934,PM2.5,28,98,51
India,Haryana,Fatehabad,"Huda Sector, Fatehabad - HSPCB",27-04-2024 23:00:00,29.503664,75.467934,NO2,29,31,30
India,Haryana,Gurugram,"Sector-51, Gurugram - HSPCB",27-04-2024 23:00:00,28.4227,77.0667,PM10,93,286,187
India,Haryana,Gurugram,"Teri Gram, Gurugram - HSPCB",27-04-2024 23:00:00,28.4275,77.1465,NH3,35,46,40
India,Haryana,Gurugram,"Teri Gram, Gurugram - HSPCB",27-04-2024 23:00:00,28.4275,77.1465,SO2,5,6,5
India,Haryana,Gurugram,"Teri Gram, Gurugram - HSPCB",27-04-2024 23:00:00,28.4275,77.1465,OZONE,27,36,33
India,Haryana,Gurugram,"Vikas Sadan, Gurugram - HSPCB",27-04-2024 23:00:00,28.4501238,77.0263051,NO2,5,26,14
India,Haryana,Hisar,"Urban Estate-II, Hisar - HSPCB",27-04-2024 23:00:00,29.140560,75.744941,PM10,75,298,141
India,Haryana,Karnal,"Sector-12, Karnal - HSPCB",27-04-2024 23:00:00,29.695300,77.002700,PM2.5,37,111,69
India,Haryana,Karnal,"Sector-12, Karnal - HSPCB",27-04-2024 23:00:00,29.695300,77.002700,CO,12,38,22
India,Haryana,Manesar,"Sector-2 IMT, Manesar - HSPCB",27-04-2024 23:00:00,28.360699,76.936090,CO,18,56,28
India,Haryana,Narnaul,"Shastri Nagar, Narnaul - HSPCB",27-04-2024 23:00:00,28.060249,76.113115,NO2,15,75,46
India,Haryana,Narnaul,"Shastri Nagar, Narnaul - HSPCB",27-04-2024 23:00:00,28.060249,76.113115,SO2,13,43,19
India,Haryana,Panchkula,"Sector-6, Panchkula - HSPCB ",27-04-2024 23:00:00,30.7057778,76.8531805555555,PM2.5,41,263,108
India,Haryana,Panchkula,"Sector-6, Panchkula - HSPCB ",27-04-2024 23:00:00,30.7057778,76.8531805555555,SO2,2,2,2
India,Haryana,Rohtak,"MD University, Rohtak - HSPCB",27-04-2024 23:00:00,28.52123,76.37138,SO2,6,8,7
India,Himachal Pradesh,Baddi,"HIMUDA Complex Phase-1, Baddi - HPPCB",27-04-2024 23:00:00,30.943887,76.801991,PM10,55,401,143
India,Himachal Pradesh,Baddi,"HIMUDA Complex Phase-1, Baddi - HPPCB",27-04-2024 23:00:00,30.943887,76.801991,CO,10,21,14
India,Jharkhand,Pathardih,"Mohalbani Ghat, Pathardih - DMC",27-04-2024 23:00:00,23.669880,86.411725,PM2.5,NA,NA,NA
India,Jharkhand,Pathardih,"Mohalbani Ghat, Pathardih - DMC",27-04-2024 23:00:00,23.669880,86.411725,SO2,NA,NA,NA
India,Karnataka,Bagalkot,"Vidayagiri, Bagalkot - KSPCB",27-04-2024 23:00:00,16.172806,75.659694,PM2.5,19,37,36
India,Karnataka,Bengaluru,"Bapuji Nagar, Bengaluru - KSPCB",27-04-2024 23:00:00,12.951913,77.539784,NO2,10,11,11
India,Karnataka,Bengaluru,"Hombegowda Nagar, Bengaluru - KSPCB",27-04-2024 23:00:00,12.938539,77.590100,SO2,4,10,6
India,Karnataka,Bengaluru,"Jayanagar 5th Block, Bengaluru - KSPCB",27-04-2024 23:00:00,12.920984,77.584908,PM10,90,193,120
India,Karnataka,Bengaluru,"Peenya, Bengaluru - CPCB",27-04-2024 23:00:00,13.0270199,77.494094,PM2.5,30,309,58
India,Karnataka,Bengaluru,"Peenya, Bengaluru - CPCB",27-04-2024 23:00:00,13.0270199,77.494094,SO2,8,13,10
India,Karnataka,Bengaluru,"RVCE-Mailasandra, Bengaluru - KSPCB",27-04-2024 23:00:00,12.921418,77.502466,PM10,35,158,108
India,Karnataka,Bengaluru,"RVCE-Mailasandra, Bengaluru - KSPCB",27-04-2024 23:00:00,12.921418,77.502466,SO2,8,24,13
India,Karnataka,Bidar,"Naubad, Bidar - KSPCB",27-04-2024 23:00:00,17.930306,77.482194,NH3,NA,NA,NA
India,Karnataka,Bidar,"Naubad, Bidar - KSPCB",27-04-2024 23:00:00,17.930306,77.482194,CO,62,107,92
India,Karnataka,Chamarajanagar,"Urban, Chamarajanagar - KSPCB",27-04-2024 23:00:00,11.55358,76.55521,NH3,2,2,2
India,Karnataka,Chikkaballapur,"Chikkaballapur Rural, Chikkaballapur - KSPCB",27-04-2024 23:00:00,13.428828,77.731418,PM2.5,29,147,74
India,Karnataka,Chikkamagaluru,"Kalyana Nagara, Chikkamagaluru - KSPCB",27-04-2024 23:00:00,13.328028,75.797056,PM10,NA,NA,NA
India,Karnataka,Chikkamagaluru,"Kalyana Nagara, Chikkamagaluru - KSPCB",27-04-2024 23:00:00,13.328028,75.797056,OZONE,12,35,21
India,Karnataka,Davanagere,"Devaraj Urs Badavane, Davanagere - KSPCB",27-04-2024 23:00:00,14.475800,75.905200,CO,17,28,20
India,Karnataka,Dharwad,"Kalabhavan, Dharwad - KSPCB",27-04-2024 23:00:00,15.459706,75.008381,NO2,5,28,15
India,Karnataka,Dharwad,"Kalabhavan, Dharwad - KSPCB",27-04-2024 23:00:00,15.459706,75.008381,CO,22,127,71
India,Karnataka,Gadag,"Panchal Nagar, Gadag - KSPCB",27-04-2024 23:00:00,15.411456,75.638133,SO2,7,16,13
India,Karnataka,Hubballi,"Deshpande Nagar, Hubballi - KSPCB",27-04-2024 23:00:00,15.351773,75.140726,OZONE,1,9,7
India,Karnataka,Hubballi,"Lingaraj Nagar, Hubballi - KSPCB",27-04-2024 23:00:00,15.3714823,75.1160168,PM10,49,71,59
India,Karnataka,Kalaburagi,"Lal Bahadur Shastri Nagar, Kalaburagi - KSPCB",27-04-2024 23:00:00,17.321993,76.822628,CO,43,55,46
India,Karnataka,Kalaburagi,"Mahatma Basaveswar Colony, Kalaburgi - KSPCB",27-04-2024 23:00:00,17.336318,76.847397,NO2,NA,NA,NA
India,Karnataka,Kalaburagi,"Mahatma Basaveswar Colony, Kalaburgi - KSPCB",27-04-2024 23:00:00,17.336318,76.847397,SO2,NA,NA,NA
India,Karnataka,Karwar,"KHB Colony, Karwar - KSPCB",27-04-2024 23:00:00,14.816666,74.141003,SO2,21,22,21
India,Karnataka,Kolar,"Tamaka Ind. Area, Kolar - KSPCB",27-04-2024 23:00:00,13.1276288,78.1570122,PM2.5,NA,NA,NA
India,Karnataka,Kolar,"Tamaka Ind. Area, Kolar - KSPCB",27-04-2024 23:00:00,13.1276288,78.1570122,CO,6,6,6
India,Karnataka,Mangalore,"Kadri, Mangalore - KSPCB",27-04-2024 23:00:00,12.889250,74.853000,SO2,4,58,18
India,Karnataka,Mysuru,"Hebbal 1st Stage, Mysuru - KSPCB",27-04-2024 23:00:00,12.21041,76.37376,PM2.5,23,43,32
India,Karnataka,Mysuru,"Hebbal 1st Stage, Mysuru - KSPCB",27-04-2024 23:00:00,12.21041,76.37376,NH3,2,2,2
India,Karnataka,Mysuru,"Hebbal 1st Stage, Mysuru - KSPCB",27-04-2024 23:00:00,12.21041,76.37376,OZONE,14,91,62
India,Karnataka,Shivamogga,"Vinoba Nagara, Shivamogga - KSPCB",27-04-2024 23:00:00,13.940000,75.555917,PM10,47,63,52
India,Karnataka,Shivamogga,"Vinoba Nagara, Shivamogga - KSPCB",27-04-2024 23:00:00,13.940000,75.555917,CO,8,31,21
India,Karnataka,Shivamogga,"Vinoba Nagara, Shivamogga - KSPCB",27-04-2024 23:00:00,13.940000,75.555917,OZONE,21,71,54
India,Karnataka,Vijayapura,"Ibrahimpur, Vijayapura - KSPCB",27-04-2024 23:00:00,16.802639,75.722694,NH3,2,2,2
India,Karnataka,Yadgir,"Collector Office, Yadgir - KSPCB",27-04-2024 23:00:00,16.7602,77.1428,PM10,60,93,77
India,Karnataka,Yadgir,"Collector Office, Yadgir - KSPCB",27-04-2024 23:00:00,16.7602,77.1428,NO2,5,9,6
India,Kerala,Eloor,"Udyogamandal, Eloor - Kerala PCB",27-04-2024 23:00:00,10.073232,76.302765,PM2.5,29,42,36
India,Kerala,Eloor,"Udyogamandal, Eloor - Kerala PCB",27-04-2024 23:00:00,10.073232,76.302765,PM10,32,40,37
India,Kerala,Eloor,"Udyogamandal, Eloor - Kerala PCB",27-04-2024 23:00:00,10.073232,76.302765,CO,15,94,57
India,Kerala,Kannur,"Thavakkara, Kannur - Kerala PCB",27-04-2024 23:00:00,11.875000,75.373200,NH3,1,1,1
India,Kerala,Kollam,"Polayathode, Kollam - Kerala PCB",27-04-2024 23:00:00,8.8787,76.6073,SO2,1,23,3
India,Kerala,Thiruvananthapuram,"Kariavattom, Thiruvananthapuram - Kerala PCB",27-04-2024 23:00:00,8.563700,76.886500,NH3,1,1,1
India,Kerala,Thiruvananthapuram,"Plammoodu, Thiruvananthapuram - Kerala PCB",27-04-2024 23:00:00,8.5149093,76.9435879,OZONE,7,71,17
India,Kerala,Thrissur,"Corporation Ground, Thrissur - Kerala PCB",27-04-2024 23:00:00,10.532400,76.215900,OZONE,28,33,30
India,Madhya Pradesh,Bhopal,"Idgah Hills, Bhopal - MPPCB",27-04-2024 23:00:00,23.264759,77.381568,SO2,14,26,18
India,Madhya Pradesh,Bhopal,"Paryavaran Parisar, Bhopal - MPPCB",27-04-2024 23:00:00,23.210494,77.425409,PM2.5,22,190,59
India,Madhya Pradesh,Bhopal,"Paryavaran Parisar, Bhopal - MPPCB",27-04-2024 23:00:00,23.210494,77.425409,NO2,10,117,37
India,Madhya Pradesh,Bhopal,"Paryavaran Parisar, Bhopal - MPPCB",27-04-2024 23:00:00,23.210494,77.425409,NH3,6,9,7
India,Madhya Pradesh,Bhopal,"T T Nagar, Bhopal - MPPCB",27-04-2024 23:00:00,23.233584,77.400574,PM2.5,32,224,65
India,Madhya Pradesh,Bhopal,"T T Nagar, Bhopal - MPPCB",27-04-2024 23:00:00,23.233584,77.400574,NH3,2,6,5
India,Madhya Pradesh,Dewas,"Bhopal Chauraha, Dewas - MPPCB",27-04-2024 23:00:00,22.9682591,76.064118,NO2,12,14,13
India,Madhya Pradesh,Dewas,"Bhopal Chauraha, Dewas - MPPCB",27-04-2024 23:00:00,22.9682591,76.064118,NH3,3,3,3
India,Madhya Pradesh,Gwalior,"City Center, Gwalior - MPPCB",27-04-2024 23:00:00,26.203442,78.193251,SO2,NA,NA,NA
India,Madhya Pradesh,Gwalior,"City Center, Gwalior - MPPCB",27-04-2024 23:00:00,26.203442,78.193251,CO,46,84,57
India,Madhya Pradesh,Gwalior,"Deen Dayal Nagar, Gwalior - MPPCB",27-04-2024 23:00:00,26.259242,78.216432,NH3,5,27,10
India,Madhya Pradesh,Gwalior,"Deen Dayal Nagar, Gwalior - MPPCB",27-04-2024 23:00:00,26.259242,78.216432,OZONE,66,115,93
India,Madhya Pradesh,Gwalior,"Maharaj Bada, Gwalior - MPPCB",27-04-2024 23:00:00,26.200388,78.147714,PM10,41,139,93
India,Madhya Pradesh,Gwalior,"Maharaj Bada, Gwalior - MPPCB",27-04-2024 23:00:00,26.200388,78.147714,NH3,2,6,3
India,Madhya Pradesh,Gwalior,"Maharaj Bada, Gwalior - MPPCB",27-04-2024 23:00:00,26.200388,78.147714,CO,24,82,59
India,Madhya Pradesh,Indore,"Chhoti Gwaltoli, Indore - MPPCB",27-04-2024 23:00:00,22.4310,75.5213,NO2,46,112,72
India,Madhya Pradesh,Indore,"Chhoti Gwaltoli, Indore - MPPCB",27-04-2024 23:00:00,22.4310,75.5213,SO2,13,31,22
India,Madhya Pradesh,Indore,"Residency Area, Indore - IMC",27-04-2024 23:00:00,22.7084,75.8815,PM2.5,31,67,45
India,Madhya Pradesh,Jabalpur,"Gupteshwar, Jabalpur - JMC",27-04-2024 23:00:00,23.142888,79.916147,PM2.5,14,81,43
India,Madhya Pradesh,Jabalpur,"Gupteshwar, Jabalpur - JMC",27-04-2024 23:00:00,23.142888,79.916147,PM10,32,120,65
India,Madhya Pradesh,Jabalpur,"Marhatal, Jabalpur - MPPCB",27-04-2024 23:00:00,23.168606,79.932247,NH3,3,3,3
India,Madhya Pradesh,Jabalpur,"Marhatal, Jabalpur - MPPCB",27-04-2024 23:00:00,23.168606,79.932247,SO2,10,21,16
India,Madhya Pradesh,Jabalpur,"Suhagi, Jabalpur - JMC",27-04-2024 23:00:00,23.218135,79.957770,PM10,30,183,86
India,Madhya Pradesh,Mandideep,"Sector-D Industrial Area, Mandideep - MPPCB",27-04-2024 23:00:00,23.108440,77.511428,NH3,6,12,8
India,Madhya Pradesh,Pithampur,"Sector-2 Industrial Area, Pithampur - MPPCB",27-04-2024 23:00:00,22.624758,75.675238,PM10,58,240,116
India,Madhya Pradesh,Pithampur,"Sector-2 Industrial Area, Pithampur - MPPCB",27-04-2024 23:00:00,22.624758,75.675238,NH3,2,2,2
India,Madhya Pradesh,Pithampur,"Sector-2 Industrial Area, Pithampur - MPPCB",27-04-2024 23:00:00,22.624758,75.675238,CO,22,66,27
India,Madhya Pradesh,Sagar,"Deen Dayal Nagar, Sagar - MPPCB",27-04-2024 23:00:00,23.8640158,78.80289321,SO2,9,13,10
India,Madhya Pradesh,Singrauli,"Suryakiran Bhawan NCL, Singrauli - MPPCB",27-04-2024 23:00:00,24.108970,82.645580,PM2.5,28,166,65
India,Madhya Pradesh,Singrauli,"Suryakiran Bhawan NCL, Singrauli - MPPCB",27-04-2024 23:00:00,24.108970,82.645580,PM10,49,194,105
India,Madhya Pradesh,Ujjain,"Mahakaleshwar Temple, Ujjain - MPPCB",27-04-2024 23:00:00,23.182719 ,75.768218 ,NO2,NA,NA,NA
India,Maharashtra,Ahmednagar,"Tarakpur, Ahmednagar - MPCB",27-04-2024 23:00:00,19.10122,74.73339,PM10,NA,NA,NA
India,Maharashtra,Ahmednagar,"Tarakpur, Ahmednagar - MPCB",27-04-2024 23:00:00,19.10122,74.73339,NO2,NA,NA,NA
India,Maharashtra,Ahmednagar,"Tarakpur, Ahmednagar - MPCB",27-04-2024 23:00:00,19.10122,74.73339,SO2,NA,NA,NA
India,Maharashtra,Akola,"Ramdaspeth, Akola - MPCB",27-04-2024 23:00:00,20.719516,77.000253,PM2.5,35,89,47
India,Maharashtra,Akola,"Ramdaspeth, Akola - MPCB",27-04-2024 23:00:00,20.719516,77.000253,PM10,50,267,78
India,Maharashtra,Akola,"Ramdaspeth, Akola - MPCB",27-04-2024 23:00:00,20.719516,77.000253,OZONE,5,89,53
India,Maharashtra,Amravati,"Shivneri Colony, Amravati - MPCB",27-04-2024 23:00:00,20.9402359,77.7895248,SO2,2,26,4
India,Maharashtra,Amravati,"Shivneri Colony, Amravati - MPCB",27-04-2024 23:00:00,20.9402359,77.7895248,CO,8,72,30
India,Maharashtra,Amravati,"Shri Shivaji Science College, Amaravati - MPCB",27-04-2024 23:00:00,20.939198,77.765701,PM2.5,48,122,65
India,Maharashtra,Amravati,"Shri Shivaji Science College, Amaravati - MPCB",27-04-2024 23:00:00,20.939198,77.765701,PM10,46,160,70
India,Maharashtra,Amravati,"Shri Shivaji Science College, Amaravati - MPCB",27-04-2024 23:00:00,20.939198,77.765701,NO2,5,170,33
India,Maharashtra,Aurangabad,"MIDC Chilkalthana, Aurangabad - MPCB",27-04-2024 23:00:00,19.875620,75.387310,SO2,1,39,20
India,Maharashtra,Aurangabad,"More Chowk Waluj, Aurangabad - MPCB",27-04-2024 23:00:00,19.8389439,75.244448,OZONE,10,125,72
India,Maharashtra,Aurangabad,"Rachnakar Colony, Aurangabad - MPCB",27-04-2024 23:00:00,19.863756,75.321188,OZONE,29,114,60
India,Maharashtra,Badlapur,"Katrap, Badlapur - MPCB",27-04-2024 23:00:00,19.16485,73.23409,PM10,61,125,97
India,Maharashtra,Badlapur,"Katrap, Badlapur - MPCB",27-04-2024 23:00:00,19.16485,73.23409,NH3,1,3,2
India,Maharashtra,Badlapur,"Katrap, Badlapur - MPCB",27-04-2024 23:00:00,19.16485,73.23409,CO,18,74,27
India,Maharashtra,Belapur,"CBD Belapur, Belapur - MPCB",27-04-2024 23:00:00,19.0243902,73.0406721,PM2.5,60,173,107
India,Maharashtra,Belapur,"CBD Belapur, Belapur - MPCB",27-04-2024 23:00:00,19.0243902,73.0406721,SO2,3,8,5
India,Maharashtra,Belapur,"CBD Belapur, Belapur - MPCB",27-04-2024 23:00:00,19.0243902,73.0406721,CO,13,57,35
India,Maharashtra,Belapur,"CBD Belapur, Belapur - MPCB",27-04-2024 23:00:00,19.0243902,73.0406721,OZONE,34,87,59
India,Maharashtra,Bhiwandi,"Gokul Nagar, Bhiwandi - MPCB",27-04-2024 23:00:00,19.309073,73.057223,NH3,4,4,4
India,Maharashtra,Boisar,"Khaira, Boisar - MPCB",27-04-2024 23:00:00,19.786089,72.757971,CO,9,49,27
India,Maharashtra,Chandrapur,"Chauhan Colony, Chandrapur - MPCB",27-04-2024 23:00:00,19.962900,79.298714,NH3,1,1,1
India,Maharashtra,Dhule,"Deopur, Dhule - MPCB",27-04-2024 23:00:00,20.918946,74.776388,NH3,7,12,10
India,Maharashtra,Jalgaon,"Prabhat Colony, Jalgaon - MPCB",27-04-2024 23:00:00,21.001264,75.565602,NO2,9,74,31
India,Maharashtra,Jalgaon,"Prabhat Colony, Jalgaon - MPCB",27-04-2024 23:00:00,21.001264,75.565602,NH3,9,24,15
India,Maharashtra,Kalyan,"Khadakpada, Kalyan - MPCB",27-04-2024 23:00:00,19.25292,73.142019,OZONE,10,24,18
India,Maharashtra,Kolhapur,"Shivaji University, Kolhapur - MPCB",27-04-2024 23:00:00,16.6870449,74.2505872,OZONE,13,139,99
India,Maharashtra,Kolhapur,"Sinchan Bhavan, Kolhapur - MPCB",27-04-2024 23:00:00,16.7143745,74.2426398,PM10,51,116,95
India,Maharashtra,Latur,"Sawe Wadi, Latur - MPCB",27-04-2024 23:00:00,18.39963,76.57452,CO,8,78,28
India,Maharashtra,Malegaon,"Mahesh Nagar, Malegaon - MPCB",27-04-2024 23:00:00,20.555712,74.529236,PM10,94,136,114
India,Maharashtra,Mira-Bhayandar,"Bhayandar West, Mira-Bhayandar - MPCB",27-04-2024 23:00:00,19.296481,72.840923,PM2.5,43,184,72
India,Maharashtra,Mira-Bhayandar,"Bhayandar West, Mira-Bhayandar - MPCB",27-04-2024 23:00:00,19.296481,72.840923,PM10,63,199,116
India,Maharashtra,Mumbai,"Bandra Kurla Complex, Mumbai - MPCB",27-04-2024 23:00:00,19.065931,72.862131,PM2.5,35,95,56
India,Maharashtra,Mumbai,"Bandra Kurla Complex, Mumbai - MPCB",27-04-2024 23:00:00,19.065931,72.862131,OZONE,3,165,100
India,Maharashtra,Mumbai,"Borivali East, Mumbai - IITM",27-04-2024 23:00:00,19.23241,72.86895,PM2.5,34,95,56
India,Maharashtra,Mumbai,"Borivali East, Mumbai - IITM",27-04-2024 23:00:00,19.23241,72.86895,NO2,48,99,66
India,Maharashtra,Mumbai,"Byculla, Mumbai - BMC",27-04-2024 23:00:00,18.9767,72.8380,NH3,2,3,3
India,Maharashtra,Mumbai,"Byculla, Mumbai - BMC",27-04-2024 23:00:00,18.9767,72.8380,SO2,1,10,3
India,Maharashtra,Mumbai,"Byculla, Mumbai - BMC",27-04-2024 23:00:00,18.9767,72.8380,OZONE,14,145,98
India,Maharashtra,Mumbai,"Chakala-Andheri East, Mumbai - IITM",27-04-2024 23:00:00,19.11074,72.86084,PM10,64,410,171
India,Maharashtra,Mumbai,"Chakala-Andheri East, Mumbai - IITM",27-04-2024 23:00:00,19.11074,72.86084,NO2,49,126,82
India,Maharashtra,Mumbai,"Chembur, Mumbai - MPCB",27-04-2024 23:00:00,19.0364585,72.8954371,NO2,16,86,34
India,Maharashtra,Mumbai,"Chhatrapati Shivaji Intl. Airport (T2), Mumbai - MPCB",27-04-2024 23:00:00,19.10078,72.87462,SO2,18,26,21
India,Maharashtra,Mumbai,"Chhatrapati Shivaji Intl. Airport (T2), Mumbai - MPCB",27-04-2024 23:00:00,19.10078,72.87462,CO,38,97,65
India,Maharashtra,Mumbai,"Colaba, Mumbai - MPCB",27-04-2024 23:00:00,18.910000,72.820000,PM2.5,24,140,48
India,Maharashtra,Mumbai,"Colaba, Mumbai - MPCB",27-04-2024 23:00:00,18.910000,72.820000,PM10,56,122,81
India,Maharashtra,Mumbai,"Ghatkopar, Mumbai - BMC",27-04-2024 23:00:00,19.083694,72.920967,NH3,1,15,4
India,Maharashtra,Mumbai,"Kandivali West, Mumbai - BMC",27-04-2024 23:00:00,19.215859,72.831718,PM2.5,22,67,44
India,Maharashtra,Mumbai,"Kandivali West, Mumbai - BMC",27-04-2024 23:00:00,19.215859,72.831718,NO2,5,32,12
India,Maharashtra,Mumbai,"Kherwadi_Bandra East, Mumbai - MPCB",27-04-2024 23:00:00,19.0632143,72.8456324,CO,8,43,20
India,Maharashtra,Mumbai,"Khindipada-Bhandup West, Mumbai - IITM",27-04-2024 23:00:00,19.1653323,72.922099,OZONE,10,38,29
India,Maharashtra,Mumbai,"Kurla, Mumbai - MPCB",27-04-2024 23:00:00,19.0863,72.8888,NO2,14,42,21
India,Maharashtra,Mumbai,"Kurla, Mumbai - MPCB",27-04-2024 23:00:00,19.0863,72.8888,SO2,32,32,32
India,Maharashtra,Mumbai,"Mazgaon, Mumbai - IITM",27-04-2024 23:00:00,18.96702,72.84214,NH3,16,29,20
India,Maharashtra,Mumbai,"Mazgaon, Mumbai - IITM",27-04-2024 23:00:00,18.96702,72.84214,SO2,NA,NA,NA
India,Maharashtra,Mumbai,"Mindspace-Malad West, Mumbai - MPCB",27-04-2024 23:00:00,19.1878657,72.8304069,PM10,34,111,59
India,Maharashtra,Mumbai,"Mulund West, Mumbai - MPCB",27-04-2024 23:00:00,19.1750,72.9419,SO2,13,14,13
India,Maharashtra,Mumbai,"Powai, Mumbai - MPCB",27-04-2024 23:00:00,19.137500,72.915056,PM10,51,137,99
India,Maharashtra,Mumbai,"Shivaji Nagar, Mumbai - BMC",27-04-2024 23:00:00,19.060498,72.923356,PM10,47,142,93
India,Maharashtra,Mumbai,"Sion, Mumbai - MPCB",27-04-2024 23:00:00,19.047000,72.874600,NH3,1,2,2
India,Maharashtra,Mumbai,"Sion, Mumbai - MPCB",27-04-2024 23:00:00,19.047000,72.874600,SO2,33,35,34
India,Maharashtra,Mumbai,"Vasai West, Mumbai - MPCB",27-04-2024 23:00:00,19.383200,72.820400,NO2,25,28,27
India,Maharashtra,Mumbai,"Vasai West, Mumbai - MPCB",27-04-2024 23:00:00,19.383200,72.820400,SO2,16,17,16
India,Maharashtra,Mumbai,"Vile Parle West, Mumbai - MPCB",27-04-2024 23:00:00,19.10861,72.83622,NO2,7,14,9
India,Maharashtra,Nagpur,"Ambazari, Nagpur - MPCB",27-04-2024 23:00:00,21.121801,79.04952,NH3,2,10,3
India,Maharashtra,Nagpur,"Ambazari, Nagpur - MPCB",27-04-2024 23:00:00,21.121801,79.04952,CO,14,117,61
India,Maharashtra,Nagpur,"Ambazari, Nagpur - MPCB",27-04-2024 23:00:00,21.121801,79.04952,OZONE,4,198,81
India,Maharashtra,Nagpur,"Mahal, Nagpur - MPCB",27-04-2024 23:00:00,21.14472,79.107595,NO2,6,73,19
India,Maharashtra,Nagpur,"Mahal, Nagpur - MPCB",27-04-2024 23:00:00,21.14472,79.107595,NH3,2,14,9
India,Maharashtra,Nagpur,"Mahal, Nagpur - MPCB",27-04-2024 23:00:00,21.14472,79.107595,OZONE,3,111,51
India,Maharashtra,Nagpur,"Opp GPO Civil Lines, Nagpur - MPCB",27-04-2024 23:00:00,21.152875,79.0517531,OZONE,3,110,46
India,Maharashtra,Nanded,"Sneh Nagar, Nanded - MPCB",27-04-2024 23:00:00,19.173852,77.296291,PM2.5,58,144,76
India,Maharashtra,Nanded,"Sneh Nagar, Nanded - MPCB",27-04-2024 23:00:00,19.173852,77.296291,SO2,7,13,10
India,Maharashtra,Nanded,"Sneh Nagar, Nanded - MPCB",27-04-2024 23:00:00,19.173852,77.296291,OZONE,40,138,89
India,Maharashtra,Nashik,"Gangapur Road, Nashik - MPCB",27-04-2024 23:00:00,20.0073285,73.7762427,PM2.5,15,110,71
India,Maharashtra,Nashik,"Gangapur Road, Nashik - MPCB",27-04-2024 23:00:00,20.0073285,73.7762427,PM10,16,98,74
India,Maharashtra,Nashik,"Hirawadi, Nashik - MPCB",27-04-2024 23:00:00,20.021503,73.813844,NH3,2,4,3
India,Maharashtra,Nashik,"MIDC Ambad, Nashik - MPCB",27-04-2024 23:00:00,19.950220,73.731480,NO2,8,83,26
India,Maharashtra,Nashik,"MIDC Ambad, Nashik - MPCB",27-04-2024 23:00:00,19.950220,73.731480,SO2,13,96,27
India,Maharashtra,Nashik,"Pandav Nagari, Nashik - MPCB",27-04-2024 23:00:00,19.9591346,73.7788008,PM2.5,64,282,108
India,Maharashtra,Navi Mumbai,"Mahape, Navi Mumbai - MPCB",27-04-2024 23:00:00,19.1135051,73.008978,OZONE,45,60,54
India,Maharashtra,Navi Mumbai,"Nerul, Navi Mumbai - MPCB",27-04-2024 23:00:00,19.008751,73.016620,PM2.5,38,123,73
India,Maharashtra,Navi Mumbai,"Nerul, Navi Mumbai - MPCB",27-04-2024 23:00:00,19.008751,73.016620,CO,22,40,30
India,Maharashtra,Navi Mumbai,"Sanpada, Navi Mumbai - MPCB",27-04-2024 23:00:00,19.0575752,73.0151367,PM2.5,30,85,61
India,Maharashtra,Navi Mumbai,"Sanpada, Navi Mumbai - MPCB",27-04-2024 23:00:00,19.0575752,73.0151367,PM10,69,210,107
India,Maharashtra,Navi Mumbai,"Sector-2E Kalamboli, Navi Mumbai - MPCB",27-04-2024 23:00:00,19.02579,73.10297,NO2,21,114,49
India,Maharashtra,Navi Mumbai,"Tondare-Taloja, Navi Mumbai - MPCB",27-04-2024 23:00:00,19.0630,73.1209,NH3,3,5,3
India,Maharashtra,Navi Mumbai,"Tondare-Taloja, Navi Mumbai - MPCB",27-04-2024 23:00:00,19.0630,73.1209,SO2,24,65,41
India,Maharashtra,Parbhani,"Masoom Colony, Parbhani - MPCB",27-04-2024 23:00:00,19.265594,76.761463,SO2,3,13,6
India,Maharashtra,Pimpri-Chinchwad,"Gavalinagar, Pimpri Chinchwad - MPCB",27-04-2024 23:00:00,18.63673,73.82487,PM10,80,112,98
India,Maharashtra,Pimpri-Chinchwad,"Gavalinagar, Pimpri Chinchwad - MPCB",27-04-2024 23:00:00,18.63673,73.82487,NO2,13,68,34
India,Maharashtra,Pimpri-Chinchwad,"Gavalinagar, Pimpri Chinchwad - MPCB",27-04-2024 23:00:00,18.63673,73.82487,SO2,7,27,12
India,Maharashtra,Pimpri-Chinchwad,"Park Street Wakad, Pimpri Chinchwad - MPCB",27-04-2024 23:00:00,18.59051,73.77946,PM10,29,239,112
India,Maharashtra,Pimpri-Chinchwad,"Park Street Wakad, Pimpri Chinchwad - MPCB",27-04-2024 23:00:00,18.59051,73.77946,NH3,5,10,7
India,Maharashtra,Pimpri-Chinchwad,"Thergaon, Pimpri Chinchwad - MPCB",27-04-2024 23:00:00,18.616318,73.765797,PM2.5,NA,NA,NA
India,Maharashtra,Pimpri-Chinchwad,"Thergaon, Pimpri Chinchwad - MPCB",27-04-2024 23:00:00,18.616318,73.765797,SO2,NA,NA,NA
India,Maharashtra,Pimpri-Chinchwad,"Thergaon, Pimpri Chinchwad - MPCB",27-04-2024 23:00:00,18.616318,73.765797,CO,18,43,31
India,Maharashtra,Pimpri-Chinchwad,"Thergaon, Pimpri Chinchwad - MPCB",27-04-2024 23:00:00,18.616318,73.765797,OZONE,82,191,139
India,Maharashtra,Pune,"Karve Road, Pune - MPCB",27-04-2024 23:00:00,18.5011743,73.8165527,PM2.5,32,126,65
India,Maharashtra,Pune,"Katraj Dairy, Pune - MPCB",27-04-2024 23:00:00,18.454450,73.854155,NH3,1,6,3
India,Maharashtra,Pune,"Katraj Dairy, Pune - MPCB",27-04-2024 23:00:00,18.454450,73.854155,CO,26,107,64
India,Maharashtra,Pune,"Mhada Colony, Pune - IITM",27-04-2024 23:00:00,18.573040,73.927715,PM10,71,131,92
India,Maharashtra,Pune,"Mhada Colony, Pune - IITM",27-04-2024 23:00:00,18.573040,73.927715,OZONE,8,92,71
India,Maharashtra,Pune,"Revenue Colony-Shivajinagar, Pune - IITM",27-04-2024 23:00:00,18.530085,73.849598,CO,110,118,116
India,Maharashtra,Pune,"Transport Nagar-Nigdi, Pune - IITM",27-04-2024 23:00:00,18.664282,73.763966,PM10,46,114,80
India,Maharashtra,Pune,"Transport Nagar-Nigdi, Pune - IITM",27-04-2024 23:00:00,18.664282,73.763966,NO2,11,14,13
India,Maharashtra,Pune,"Transport Nagar-Nigdi, Pune - IITM",27-04-2024 23:00:00,18.664282,73.763966,CO,23,40,35
India,Maharashtra,Solapur,"Dnyaneshwar Nagar, Solapur - MPCB",27-04-2024 23:00:00,17.6336264,75.9132495,NO2,12,139,38
India,Maharashtra,Solapur,"Ratandeep Housing Society, Solapur - MPCB",27-04-2024 23:00:00,17.65439,75.90649,NH3,NA,NA,NA
India,Maharashtra,Solapur,"Solapur, Solapur - MPCB",27-04-2024 23:00:00,17.6599188,75.9063906,PM10,149,149,149
India,Maharashtra,Thane,"Kasarvadavali, Thane - MPCB",27-04-2024 23:00:00,19.26777,72.97182,PM10,44,131,87
India,Maharashtra,Thane,"Pimpleshwar Mandir, Thane - MPCB",27-04-2024 23:00:00,19.192056,72.9585188,NH3,2,16,4
India,Maharashtra,Thane,"Upvan Fort, Thane - MPCB",27-04-2024 23:00:00,19.222279,72.957979,NO2,5,26,16
India,Maharashtra,Thane,"Upvan Fort, Thane - MPCB",27-04-2024 23:00:00,19.222279,72.957979,SO2,9,38,19
India,Maharashtra,Ulhasnagar,"Sidhi Vinayak Nagar, Ulhasnagar - MPCB",27-04-2024 23:00:00,19.235581,73.159121,NO2,11,80,25
India,Maharashtra,Virar,"Bolinj, Virar - MPCB",27-04-2024 23:00:00,19.4458210,72.7988231,PM10,58,105,80
India,Maharashtra,Virar,"Bolinj, Virar - MPCB",27-04-2024 23:00:00,19.4458210,72.7988231,NO2,5,25,11
India,Maharashtra,Virar,"Bolinj, Virar - MPCB",27-04-2024 23:00:00,19.4458210,72.7988231,NH3,9,9,9
India,Meghalaya,Shillong,"Lumpyngngad, Shillong - Meghalaya PCB",27-04-2024 23:00:00,25.5586,91.8985,OZONE,1,46,23
India,Mizoram,Aizawl,"Sikulpuikawn, Aizawl - Mizoram PCB",27-04-2024 23:00:00,23.7176342,92.7192841,NO2,1,2,1
India,Odisha,Angul,"Hakimapada, Angul - OSPCB",27-04-2024 23:00:00,20.832874,85.104082,NO2,6,39,21
India,Odisha,Balasore,"Kalidaspur, Balasore - OSPCB",27-04-2024 23:00:00,21.51161,86.89088,SO2,14,29,18
India,Odisha,Barbil,"Forest Office, Barbil - OSPCB",27-04-2024 23:00:00,22.1166054,85.3945546,OZONE,25,209,109
India,Odisha,Bileipada,"Tata Township, Bileipada - OSPCB",27-04-2024 23:00:00,22.06156703,85.47409613,PM10,93,478,181
India,Odisha,Bileipada,"Tata Township, Bileipada - OSPCB",27-04-2024 23:00:00,22.06156703,85.47409613,NO2,11,18,14
India,Odisha,Brajrajnagar,"GM Office, Brajrajnagar - OSPCB",27-04-2024 23:00:00,21.8004996,83.8396977,SO2,23,33,28
India,Odisha,Brajrajnagar,"GM Office, Brajrajnagar - OSPCB",27-04-2024 23:00:00,21.8004996,83.8396977,CO,100,101,101
India,Odisha,Byasanagar,"Ferro Chrome Colony, Byasanagar - OSPCB",27-04-2024 23:00:00,20.94185,86.11510,NO2,10,21,15
India,Odisha,Byasanagar,"Ferro Chrome Colony, Byasanagar - OSPCB",27-04-2024 23:00:00,20.94185,86.11510,NH3,2,6,3
India,Odisha,Byasanagar,"Ferro Chrome Colony, Byasanagar - OSPCB",27-04-2024 23:00:00,20.94185,86.11510,SO2,6,49,22
India,Odisha,Keonjhar,"Jagamohanpur, Keonjhar - OSPCB",27-04-2024 23:00:00,21.643900,85.599355,PM2.5,69,228,122
India,Odisha,Keonjhar,"Jagamohanpur, Keonjhar - OSPCB",27-04-2024 23:00:00,21.643900,85.599355,NH3,1,4,3
India,Odisha,Nayagarh,"Dabuna, Nayagarh - OSPCB",27-04-2024 23:00:00,21.847279,85.416905,SO2,NA,NA,NA
India,Odisha,Rairangpur,"Divisional Forest Office, Rairangpur - OSPCB",27-04-2024 23:00:00,22.265816,86.174829,CO,12,58,34
India,Odisha,Rairangpur,"Divisional Forest Office, Rairangpur - OSPCB",27-04-2024 23:00:00,22.265816,86.174829,OZONE,6,68,32
India,Odisha,Rourkela,"Fertilizer Township, Rourkela - OSPCB",27-04-2024 23:00:00,22.18972222,84.86277778,PM10,51,162,108
India,Odisha,Rourkela,"Fertilizer Township, Rourkela - OSPCB",27-04-2024 23:00:00,22.18972222,84.86277778,SO2,11,18,14
India,Odisha,Rourkela,"Raghunathpali, Rourkela - OSPCB",27-04-2024 23:00:00,22.220833,84.809444,PM2.5,24,185,91
India,Odisha,Rourkela,"Raghunathpali, Rourkela - OSPCB",27-04-2024 23:00:00,22.220833,84.809444,SO2,7,36,15
India,Odisha,Rourkela,"Raghunathpali, Rourkela - OSPCB",27-04-2024 23:00:00,22.220833,84.809444,CO,14,82,34
India,Odisha,Suakati,"OMC Colony, Suakati - OSPCB",27-04-2024 23:00:00,21.606865,85.510538,SO2,6,60,26
India,Odisha,Tensa,"Barsua Iron Ore Mines, Tensa - OSPCB",27-04-2024 23:00:00,21.869985,85.167016,PM10,85,117,105
India,Odisha,Tensa,"Barsua Iron Ore Mines, Tensa - OSPCB",27-04-2024 23:00:00,21.869985,85.167016,SO2,NA,NA,NA
India,Puducherry,Puducherry,"Jawahar Nagar, Puducherry - PPCC",27-04-2024 23:00:00,11.9309,79.8027,OZONE,1,101,45
India,Punjab,Amritsar,"Golden Temple, Amritsar - PPCB",27-04-2024 23:00:00,31.620000,74.876512,SO2,14,18,16
India,Punjab,Bathinda,"Hardev Nagar, Bathinda - PPCB",27-04-2024 23:00:00,30.233011,74.907758,CO,4,107,31
India,Punjab,Jalandhar,"Civil Line, Jalandhar - PPCB",27-04-2024 23:00:00,31.321907,75.578914,PM2.5,7,137,42
India,Punjab,Jalandhar,"Civil Line, Jalandhar - PPCB",27-04-2024 23:00:00,31.321907,75.578914,PM10,11,89,47
India,Punjab,Khanna,"Kalal Majra, Khanna - PPCB",27-04-2024 23:00:00,30.736056 ,76.209694,NH3,NA,NA,NA
India,Punjab,Khanna,"Kalal Majra, Khanna - PPCB",27-04-2024 23:00:00,30.736056 ,76.209694,SO2,NA,NA,NA
India,Punjab,Khanna,"Kalal Majra, Khanna - PPCB",27-04-2024 23:00:00,30.736056 ,76.209694,CO,8,10,10
India,Punjab,Ludhiana,"Punjab Agricultural University, Ludhiana - PPCB",27-04-2024 23:00:00,30.9028,75.8086,NO2,12,19,14
India,Punjab,Patiala,"Model Town, Patiala - PPCB",27-04-2024 23:00:00,30.349388,76.366642,PM2.5,23,79,53
India,Punjab,Rupnagar,"Ratanpura, Rupnagar - Ambuja Cements",27-04-2024 23:00:00,31.0325454,76.5623046,CO,28,62,33
India,Rajasthan,Ajmer,"Civil Lines,  Ajmer - RSPCB",27-04-2024 23:00:00,26.470859,74.646594,NO2,9,15,12
India,Rajasthan,Ajmer,"Civil Lines,  Ajmer - RSPCB",27-04-2024 23:00:00,26.470859,74.646594,OZONE,51,248,122
India,Rajasthan,Alwar,"Moti Doongri, Alwar - RSPCB",27-04-2024 23:00:00,27.554793,76.611536,PM2.5,31,110,57
India,Rajasthan,Alwar,"Moti Doongri, Alwar - RSPCB",27-04-2024 23:00:00,27.554793,76.611536,PM10,46,108,79
India,Rajasthan,Baran,"Bamboliya, Baran - RSPCB",27-04-2024 23:00:00,25.106006,76.469948,NO2,9,99,24
India,Rajasthan,Baran,"Bamboliya, Baran - RSPCB",27-04-2024 23:00:00,25.106006,76.469948,SO2,10,25,14
India,Rajasthan,Barmer,"Railway Colony, Barmer - RSPCB",27-04-2024 23:00:00,25.747299,71.393989,PM10,63,224,102
India,Rajasthan,Barmer,"Railway Colony, Barmer - RSPCB",27-04-2024 23:00:00,25.747299,71.393989,CO,67,86,76
India,Rajasthan,Bharatpur,"Krishna Nagar, Bharatpur - RSPCB",27-04-2024 23:00:00,27.215415,77.50873,NO2,12,33,21
India,Rajasthan,Bharatpur,"Krishna Nagar, Bharatpur - RSPCB",27-04-2024 23:00:00,27.215415,77.50873,CO,2,57,38
India,Rajasthan,Bhilwara,"Pratap Nagar, Bhilwara - RSPCB",27-04-2024 23:00:00,25.339605,74.618883,NH3,NA,NA,NA
India,Rajasthan,Bhiwadi,"RIICO Ind. Area III, Bhiwadi - RSPCB",27-04-2024 23:00:00,28.194909,76.862296,PM10,57,367,202
India,Rajasthan,Bhiwadi,"RIICO Ind. Area III, Bhiwadi - RSPCB",27-04-2024 23:00:00,28.194909,76.862296,NO2,14,46,30
India,Rajasthan,Bhiwadi,"Vasundhara Nagar_UIT, Bhiwadi - RSPCB",27-04-2024 23:00:00,28.207266,76.829265,CO,10,37,22
India,Rajasthan,Bikaner,"MM Ground, Bikaner - RSPCB",27-04-2024 23:00:00,28.018792,73.292658,PM2.5,37,401,118
India,Rajasthan,Bundi,"New Colony, Bundi - RSPCB",27-04-2024 23:00:00,25.435774,75.644272,SO2,3,7,4
India,Rajasthan,Chittorgarh,"Shastri Nagar, Chittorgarh - RSPCB",27-04-2024 23:00:00,24.892047,74.623527,PM2.5,3,93,34
India,Rajasthan,Chittorgarh,"Shastri Nagar, Chittorgarh - RSPCB",27-04-2024 23:00:00,24.892047,74.623527,NO2,13,51,26
India,Rajasthan,Churu,"Subash Chowk, Churu - RSPCB",27-04-2024 23:00:00,28.296139,74.961696,CO,9,20,9
India,Rajasthan,Dausa,"Khatikan Mohalla, Dausa - RSPCB",27-04-2024 23:00:00,26.895552,76.334753,NO2,28,120,58
India,Rajasthan,Dausa,"Khatikan Mohalla, Dausa - RSPCB",27-04-2024 23:00:00,26.895552,76.334753,CO,3,106,46
India,Rajasthan,Dausa,"Khatikan Mohalla, Dausa - RSPCB",27-04-2024 23:00:00,26.895552,76.334753,OZONE,4,153,62
India,Rajasthan,Dholpur,"Raja Ganj, Dholpur - RSPCB",27-04-2024 23:00:00,26.699557,77.898881,PM2.5,33,68,49
India,Rajasthan,Dholpur,"Raja Ganj, Dholpur - RSPCB",27-04-2024 23:00:00,26.699557,77.898881,OZONE,71,87,77
India,Rajasthan,Hanumangarh,"Housing Board, Hanumangarh - RSPCB",27-04-2024 23:00:00,29.610750,74.283608,PM10,NA,NA,NA
India,Rajasthan,Hanumangarh,"Housing Board, Hanumangarh - RSPCB",27-04-2024 23:00:00,29.610750,74.283608,SO2,2,20,8
India,Rajasthan,Jaipur,"Adarsh Nagar, Jaipur - RSPCB",27-04-2024 23:00:00,26.902909,75.836858,PM10,43,205,125
India,Rajasthan,Jaipur,"Adarsh Nagar, Jaipur - RSPCB",27-04-2024 23:00:00,26.902909,75.836858,SO2,7,28,18
India,Rajasthan,Jaipur,"Mansarovar Sector-12, Jaipur - RSPCB",27-04-2024 23:00:00,26.843698,75.766894,PM2.5,23,111,71
India,Rajasthan,Jaipur,"Mansarovar Sector-12, Jaipur - RSPCB",27-04-2024 23:00:00,26.843698,75.766894,NO2,10,87,30
India,Rajasthan,Jaipur,"Mansarovar Sector-12, Jaipur - RSPCB",27-04-2024 23:00:00,26.843698,75.766894,CO,31,66,44
India,Rajasthan,Jaipur,"Police Commissionerate, Jaipur - RSPCB",27-04-2024 23:00:00,26.9164092,75.7994901,NH3,5,9,7
India,Rajasthan,Jaipur,"RIICO Sitapura, Jaipur - RSPCB",27-04-2024 23:00:00,26.786682,75.827928,PM2.5,32,216,88
India,Rajasthan,Jaipur,"Sector-2 Murlipura, Jaipur - RSPCB",27-04-2024 23:00:00,26.960669,75.771817,PM10,60,371,195
India,Rajasthan,Jaipur,"Shastri Nagar, Jaipur - RSPCB",27-04-2024 23:00:00,26.9502929,75.730943,NH3,6,28,12
India,Rajasthan,Jaipur,"Shastri Nagar, Jaipur - RSPCB",27-04-2024 23:00:00,26.9502929,75.730943,SO2,2,37,18
India,Rajasthan,Jaisalmer,"Sadar Bazar, Jaisalmer - RSPCB",27-04-2024 23:00:00,26.912329,70.909168,PM2.5,36,391,181
India,Rajasthan,Jaisalmer,"Sadar Bazar, Jaisalmer - RSPCB",27-04-2024 23:00:00,26.912329,70.909168,OZONE,59,100,87
India,Rajasthan,Jhalawar,"Rajlaxmi Nagar, Jhalawar - RSPCB",27-04-2024 23:00:00,24.588397,76.172782,PM2.5,17,94,42
India,Rajasthan,Jhunjhunu,"Indra Nagar, Jhunjhunu - RSPCB",27-04-2024 23:00:00,28.108988,75.386577,NH3,6,7,6
India,Rajasthan,Jodhpur,"Collectorate, Jodhpur - RSPCB",27-04-2024 23:00:00,26.268249,73.0193853,PM2.5,29,500,185
India,Rajasthan,Jodhpur,"Collectorate, Jodhpur - RSPCB",27-04-2024 23:00:00,26.268249,73.0193853,OZONE,25,111,83
India,Rajasthan,Jodhpur,"Digari Kalan, Jodhpur - RSPCB",27-04-2024 23:00:00,26.295810,73.082283,SO2,4,7,6
India,Rajasthan,Jodhpur,"Samrat Ashok Udhyan, Jodhpur - RSPCB",27-04-2024 23:00:00,26.253384,72.976571,PM10,98,500,170
India,Rajasthan,Jodhpur,"Samrat Ashok Udhyan, Jodhpur - RSPCB",27-04-2024 23:00:00,26.253384,72.976571,NH3,2,3,2
India,Rajasthan,Jodhpur,"Samrat Ashok Udhyan, Jodhpur - RSPCB",27-04-2024 23:00:00,26.253384,72.976571,OZONE,36,122,92
India,Rajasthan,Karauli,"Satyawati Vihar, Karauli - RSPCB",27-04-2024 23:00:00,26.506177,77.025989,PM2.5,5,72,41
India,Rajasthan,Karauli,"Satyawati Vihar, Karauli - RSPCB",27-04-2024 23:00:00,26.506177,77.025989,NH3,7,15,11
India,Rajasthan,Kota,"Dhanmandi, Kota - RSPCB",27-04-2024 23:00:00,25.164090,75.858137,PM2.5,17,314,55
India,Rajasthan,Kota,"Dhanmandi, Kota - RSPCB",27-04-2024 23:00:00,25.164090,75.858137,OZONE,4,96,41
India,Rajasthan,Kota,"Nayapura, Kota - RSPCB",27-04-2024 23:00:00,25.196024,75.855668,NH3,7,20,12
India,Rajasthan,Nagaur,"Karni Colony, Nagaur - RSPCB",27-04-2024 23:00:00,27.213494,73.734444,PM10,100,500,290
India,Rajasthan,Nagaur,"Karni Colony, Nagaur - RSPCB",27-04-2024 23:00:00,27.213494,73.734444,NH3,4,6,5
India,Rajasthan,Nagaur,"Karni Colony, Nagaur - RSPCB",27-04-2024 23:00:00,27.213494,73.734444,OZONE,48,91,65
India,Rajasthan,Pali,"Indira Colony Vistar, Pali - RSPCB",27-04-2024 23:00:00,25.771061, 73.340227,PM2.5,72,331,154
India,Rajasthan,Pali,"Indira Colony Vistar, Pali - RSPCB",27-04-2024 23:00:00,25.771061, 73.340227,SO2,7,10,9
India,Rajasthan,Pali,"Indira Colony Vistar, Pali - RSPCB",27-04-2024 23:00:00,25.771061, 73.340227,OZONE,27,68,59
India,Rajasthan,Pratapgarh,"Pragati Nagar, Pratapgarh - RSPCB",27-04-2024 23:00:00,24.041198,74.780702,CO,6,38,15
India,Rajasthan,Sawai Madhopur,"Sahu Nagar, Sawai Madhopur - RSPCB",27-04-2024 23:00:00,26.031443,76.359327,OZONE,2,81,43
India,Rajasthan,Sikar,"Radhakishan Pura, Sikar - RSPCB",27-04-2024 23:00:00,27.608912,75.153302,OZONE,58,107,88
India,Rajasthan,Sirohi,"Vedhaynath Colony, Sirohi - RSPCB",27-04-2024 23:00:00,24.885261,72.857549,NO2,3,37,9
India,Rajasthan,Sirohi,"Vedhaynath Colony, Sirohi - RSPCB",27-04-2024 23:00:00,24.885261,72.857549,NH3,3,6,4
India,Rajasthan,Sirohi,"Vedhaynath Colony, Sirohi - RSPCB",27-04-2024 23:00:00,24.885261,72.857549,SO2,2,12,7
India,Rajasthan,Tonk,"Shastri Nagar, Tonk - RSPCB",27-04-2024 23:00:00,26.159933,75.780517,OZONE,27,84,60
India,Sikkim,Gangtok,"Zero Point GICI, Gangtok - SSPCB",27-04-2024 23:00:00,27.338530,88.614099,PM10,58,74,65
India,TamilNadu,Chennai,"Alandur Bus Depot, Chennai - CPCB",27-04-2024 23:00:00,12.9099161,80.1076538,NO2,8,14,10
India,TamilNadu,Chennai,"Alandur Bus Depot, Chennai - CPCB",27-04-2024 23:00:00,12.9099161,80.1076538,NH3,7,43,11
India,TamilNadu,Chennai,"Arumbakkam, Chennai - TNPCB",27-04-2024 23:00:00,13.0664,80.2112 ,PM2.5,9,46,24
India,TamilNadu,Chennai,"Kodungaiyur, Chennai - TNPCB",27-04-2024 23:00:00,13.1278,80.2642,NH3,3,4,4
India,TamilNadu,Chennai,"Kodungaiyur, Chennai - TNPCB",27-04-2024 23:00:00,13.1278,80.2642,CO,24,105,33
India,TamilNadu,Chennai,"Kodungaiyur, Chennai - TNPCB",27-04-2024 23:00:00,13.1278,80.2642,OZONE,2,10,7
India,TamilNadu,Chennai,"Royapuram, Chennai - TNPCB",27-04-2024 23:00:00,13.1036,80.2909,PM2.5,11,35,21
India,TamilNadu,Chennai,"Velachery Res. Area, Chennai - CPCB",27-04-2024 23:00:00,13.0052189,80.2398125,NO2,11,22,15
India,TamilNadu,Chennai,"Velachery Res. Area, Chennai - CPCB",27-04-2024 23:00:00,13.0052189,80.2398125,OZONE,29,44,34
India,TamilNadu,Coimbatore,"PSG College of Arts and Science, Coimbatore - TNPCB",27-04-2024 23:00:00,11.0328,77.0349,OZONE,4,9,5
India,TamilNadu,Cuddalore,"Semmandalam, Cuddalore - TNPCB",27-04-2024 23:00:00,11.7637683,79.7499835,PM10,NA,NA,NA
India,TamilNadu,Cuddalore,"Semmandalam, Cuddalore - TNPCB",27-04-2024 23:00:00,11.7637683,79.7499835,NO2,NA,NA,NA
India,TamilNadu,Cuddalore,"Semmandalam, Cuddalore - TNPCB",27-04-2024 23:00:00,11.7637683,79.7499835,OZONE,1,3,2
India,TamilNadu,Ooty,"Bombay Castel, Ooty - TNPCB",27-04-2024 23:00:00,11.4068288,76.7138973,NO2,1,100,27
India,TamilNadu,Ooty,"Bombay Castel, Ooty - TNPCB",27-04-2024 23:00:00,11.4068288,76.7138973,NH3,NA,NA,NA
India,TamilNadu,Ooty,"Bombay Castel, Ooty - TNPCB",27-04-2024 23:00:00,11.4068288,76.7138973,SO2,13,13,13
India,TamilNadu,Ooty,"Bombay Castel, Ooty - TNPCB",27-04-2024 23:00:00,11.4068288,76.7138973,CO,22,22,22
India,TamilNadu,Ramanathapuram,"Chalai Bazaar, Ramanathapuram - TNPCB",27-04-2024 23:00:00,9.36399,78.831977,SO2,8,10,9
India,TamilNadu,Ramanathapuram,"Chalai Bazaar, Ramanathapuram - TNPCB",27-04-2024 23:00:00,9.36399,78.831977,CO,3,16,6
India,TamilNadu,Salem,"Sona College of Technology, Salem - TNPCB",27-04-2024 23:00:00,11.679111,78.125052,PM2.5,NA,NA,NA
India,TamilNadu,Salem,"Sona College of Technology, Salem - TNPCB",27-04-2024 23:00:00,11.679111,78.125052,SO2,NA,NA,NA
India,TamilNadu,Thoothukudi,"Meelavittan, Thoothukudi - TNPCB",27-04-2024 23:00:00,8.816428 ,78.099039,SO2,NA,NA,NA
India,TamilNadu,Tirupur,"Kumaran College, Tirupur - TNPCB",27-04-2024 23:00:00,11.0973603,77.3228673,PM2.5,NA,NA,NA
India,TamilNadu,Tirupur,"Kumaran College, Tirupur - TNPCB",27-04-2024 23:00:00,11.0973603,77.3228673,SO2,NA,NA,NA
India,TamilNadu,Tirupur,"Kumaran College, Tirupur - TNPCB",27-04-2024 23:00:00,11.0973603,77.3228673,OZONE,NA,NA,NA
India,TamilNadu,Vellore,"Vasanthapuram, Vellore - TNPCB",27-04-2024 23:00:00,12.909494,79.131861,PM2.5,NA,NA,NA
India,TamilNadu,Virudhunagar,"Collectorate Office, Virudhunagar - TNPCB",27-04-2024 23:00:00,9.559382,77.948828,PM10,43,103,59
India,Telangana,Hyderabad,"Bollaram Industrial Area, Hyderabad - TSPCB",27-04-2024 23:00:00,17.540891,78.358528,PM2.5,64,155,84
India,Telangana,Hyderabad,"Bollaram Industrial Area, Hyderabad - TSPCB",27-04-2024 23:00:00,17.540891,78.358528,SO2,17,54,27
India,Telangana,Hyderabad,"Bollaram Industrial Area, Hyderabad - TSPCB",27-04-2024 23:00:00,17.540891,78.358528,CO,22,87,30
India,Telangana,Hyderabad,"ECIL Kapra, Hyderabad - TSPCB",27-04-2024 23:00:00,17.470431,78.566959,NO2,11,15,12
India,Telangana,Hyderabad,"ECIL Kapra, Hyderabad - TSPCB",27-04-2024 23:00:00,17.470431,78.566959,NH3,6,9,8
India,Telangana,Hyderabad,"ECIL Kapra, Hyderabad - TSPCB",27-04-2024 23:00:00,17.470431,78.566959,OZONE,9,58,46
India,Telangana,Hyderabad,"ICRISAT Patancheru, Hyderabad - TSPCB",27-04-2024 23:00:00,17.518400,78.278777,NO2,16,17,17
India,Telangana,Hyderabad,"Kokapet, Hyderabad - TSPCB",27-04-2024 23:00:00,17.393559,78.339194,NH3,2,3,3
India,Telangana,Hyderabad,"Kompally Municipal Office, Hyderabad - TSPCB",27-04-2024 23:00:00,17.544899,78.486949,PM2.5,NA,NA,NA
India,Telangana,Hyderabad,"Kompally Municipal Office, Hyderabad - TSPCB",27-04-2024 23:00:00,17.544899,78.486949,SO2,NA,NA,NA
India,Telangana,Hyderabad,"Ramachandrapuram, Hyderabad - TSPCB",27-04-2024 23:00:00,17.528544,78.286195,PM10,64,88,77
India,Telangana,Hyderabad,"Somajiguda, Hyderabad - TSPCB",27-04-2024 23:00:00,17.417094,78.457437,PM10,83,110,93
India,Telangana,Hyderabad,"Somajiguda, Hyderabad - TSPCB",27-04-2024 23:00:00,17.417094,78.457437,NH3,7,9,8
India,Uttar_Pradesh,Agra,"Manoharpur, Agra - UPPCB",27-04-2024 23:00:00,27.23711,78.01936,NH3,2,3,2
India,Uttar_Pradesh,Agra,"Rohta, Agra - UPPCB",27-04-2024 23:00:00,27.106972,78.000111,CO,5,13,6
India,Uttar_Pradesh,Agra,"Sanjay Palace, Agra - UPPCB",27-04-2024 23:00:00,27.19865833,78.00598056,NO2,18,28,23
India,Uttar_Pradesh,Agra,"Sector-3B Avas Vikas Colony, Agra - UPPCB",27-04-2024 23:00:00,27.19412,77.96237,NH3,5,15,10
India,Uttar_Pradesh,Agra,"Sector-3B Avas Vikas Colony, Agra - UPPCB",27-04-2024 23:00:00,27.19412,77.96237,SO2,10,13,11
India,Uttar_Pradesh,Agra,"Sector-3B Avas Vikas Colony, Agra - UPPCB",27-04-2024 23:00:00,27.19412,77.96237,CO,6,12,8
India,Uttar_Pradesh,Agra,"Shahjahan Garden, Agra - UPPCB",27-04-2024 23:00:00,27.169338,78.03582,NH3,3,5,4
India,Uttar_Pradesh,Agra,"Shahjahan Garden, Agra - UPPCB",27-04-2024 23:00:00,27.169338,78.03582,CO,10,18,13
India,Uttar_Pradesh,Agra,"Shastripuram, Agra - UPPCB",27-04-2024 23:00:00,27.19862,77.92066,PM2.5,4,47,28
India,Uttar_Pradesh,Agra,"Shastripuram, Agra - UPPCB",27-04-2024 23:00:00,27.19862,77.92066,PM10,18,119,65
India,Uttar_Pradesh,Agra,"Shastripuram, Agra - UPPCB",27-04-2024 23:00:00,27.19862,77.92066,NO2,39,165,52
India,Uttar_Pradesh,Agra,"Shastripuram, Agra - UPPCB",27-04-2024 23:00:00,27.19862,77.92066,NH3,1,6,3
India,Uttar_Pradesh,Baghpat,"Sardar Patel Inter College, Baghpat - UPPCB",27-04-2024 23:00:00,28.964949,77.278761,NH3,1,4,2
India,Uttar_Pradesh,Baghpat,"Sardar Patel Inter College, Baghpat - UPPCB",27-04-2024 23:00:00,28.964949,77.278761,CO,34,87,42
India,Uttar_Pradesh,Bareilly,"Civil Lines, Bareilly - UPPCB",27-04-2024 23:00:00,28.359581,79.414455,NH3,NA,NA,NA
India,Uttar_Pradesh,Bareilly,"Rajendra Nagar, Bareilly - UPPCB",27-04-2024 23:00:00,28.38910936,79.42963708,CO,2,38,16
India,Uttar_Pradesh,Firozabad,"Nagla Bhau, Firozabad - UPPCB",27-04-2024 23:00:00,27.168897,78.376960,NO2,17,17,17
India,Uttar_Pradesh,Firozabad,"Nagla Bhau, Firozabad - UPPCB",27-04-2024 23:00:00,27.168897,78.376960,SO2,18,28,21
India,Uttar_Pradesh,Firozabad,"Vibhab Nagar, Firozabad - UPPCB",27-04-2024 23:00:00,27.1594,78.3953,PM2.5,NA,NA,NA
India,Uttar_Pradesh,Ghaziabad,"Indirapuram, Ghaziabad - UPPCB",27-04-2024 23:00:00,28.646233,77.358075,PM10,117,292,190
India,Uttar_Pradesh,Ghaziabad,"Indirapuram, Ghaziabad - UPPCB",27-04-2024 23:00:00,28.646233,77.358075,NH3,5,8,7
India,Uttar_Pradesh,Gorakhpur,"Madan Mohan Malaviya University of Technology, Gorakhpur - UPPCB",27-04-2024 23:00:00,26.730136,83.433859,NH3,1,1,1
India,Uttar_Pradesh,Greater Noida,"Knowledge Park - III, Greater Noida - UPPCB",27-04-2024 23:00:00,28.47272,77.482000,PM10,121,320,187
India,Uttar_Pradesh,Greater Noida,"Knowledge Park - III, Greater Noida - UPPCB",27-04-2024 23:00:00,28.47272,77.482000,NH3,1,6,3
India,Uttar_Pradesh,Greater Noida,"Knowledge Park - V, Greater Noida - UPPCB",27-04-2024 23:00:00,28.557054,77.453663,NO2,25,60,41
India,Uttar_Pradesh,Greater Noida,"Knowledge Park - V, Greater Noida - UPPCB",27-04-2024 23:00:00,28.557054,77.453663,CO,8,88,42
India,Uttar_Pradesh,Greater Noida,"Knowledge Park - V, Greater Noida - UPPCB",27-04-2024 23:00:00,28.557054,77.453663,OZONE,11,162,82
India,Uttar_Pradesh,Hapur,"Anand Vihar, Hapur - UPPCB",27-04-2024 23:00:00,28.725645,77.749675,PM2.5,NA,NA,NA
India,Uttar_Pradesh,Hapur,"Anand Vihar, Hapur - UPPCB",27-04-2024 23:00:00,28.725645,77.749675,NH3,NA,NA,NA
India,Uttar_Pradesh,Jhansi,"Shivaji Nagar, Jhansi - UPPCB",27-04-2024 23:00:00,25.4547,78.6039,PM10,12,500,56
India,Uttar_Pradesh,Jhansi,"Shivaji Nagar, Jhansi - UPPCB",27-04-2024 23:00:00,25.4547,78.6039,OZONE,28,42,34
India,Uttar_Pradesh,Kanpur,"FTI Kidwai Nagar, Kanpur - UPPCB",27-04-2024 23:00:00,26.428282,80.327067,PM2.5,43,174,69
India,Uttar_Pradesh,Kanpur,"FTI Kidwai Nagar, Kanpur - UPPCB",27-04-2024 23:00:00,26.428282,80.327067,PM10,67,196,112
India,Uttar_Pradesh,Kanpur,"Nehru Nagar, Kanpur - UPPCB",27-04-2024 23:00:00,26.4703136,80.3229863,PM2.5,30,226,73
India,Uttar_Pradesh,Kanpur,"Nehru Nagar, Kanpur - UPPCB",27-04-2024 23:00:00,26.4703136,80.3229863,SO2,6,11,9
India,Uttar_Pradesh,Lucknow,"B R Ambedkar University, Lucknow - UPPCB",27-04-2024 23:00:00,26.766433,80.927299,PM2.5,45,118,64
India,Uttar_Pradesh,Lucknow,"B R Ambedkar University, Lucknow - UPPCB",27-04-2024 23:00:00,26.766433,80.927299,NO2,11,12,11
India,Uttar_Pradesh,Lucknow,"B R Ambedkar University, Lucknow - UPPCB",27-04-2024 23:00:00,26.766433,80.927299,CO,20,40,27
India,Uttar_Pradesh,Lucknow,"B R Ambedkar University, Lucknow - UPPCB",27-04-2024 23:00:00,26.766433,80.927299,OZONE,2,71,40
India,Uttar_Pradesh,Lucknow,"Kendriya Vidyalaya, Lucknow - CPCB",27-04-2024 23:00:00,26.906111,80.948222,SO2,1,7,5
India,Uttar_Pradesh,Lucknow,"Lalbagh, Lucknow - CPCB",27-04-2024 23:00:00,26.8458805,80.9365541,PM2.5,67,321,160
India,Uttar_Pradesh,Lucknow,"Lalbagh, Lucknow - CPCB",27-04-2024 23:00:00,26.8458805,80.9365541,SO2,1,18,8
India,Uttar_Pradesh,Lucknow,"Talkatora District Industries Center, Lucknow - CPCB",27-04-2024 23:00:00,26.83399722,80.8917361,NO2,3,100,30
India,Uttar_Pradesh,Lucknow,"Talkatora District Industries Center, Lucknow - CPCB",27-04-2024 23:00:00,26.83399722,80.8917361,NH3,9,30,13
India,Uttar_Pradesh,Lucknow,"Talkatora District Industries Center, Lucknow - CPCB",27-04-2024 23:00:00,26.83399722,80.8917361,SO2,1,14,5
India,Uttar_Pradesh,Lucknow,"Talkatora District Industries Center, Lucknow - CPCB",27-04-2024 23:00:00,26.83399722,80.8917361,CO,6,34,17
India,Uttar_Pradesh,Meerut,"Ganga Nagar, Meerut - UPPCB",27-04-2024 23:00:00,28.999264,77.7590354,NH3,6,15,9
India,Uttar_Pradesh,Meerut,"Ganga Nagar, Meerut - UPPCB",27-04-2024 23:00:00,28.999264,77.7590354,CO,19,50,30
India,Uttar_Pradesh,Meerut,"Jai Bhim Nagar, Meerut - UPPCB",27-04-2024 23:00:00,28.9535882,77.7622941,SO2,6,8,7
India,Uttar_Pradesh,Meerut,"Pallavpuram Phase 2, Meerut - UPPCB",27-04-2024 23:00:00,29.063510,77.709723,NO2,22,105,50
India,Uttar_Pradesh,Moradabad,"Buddhi Vihar, Moradabad - UPPCB",27-04-2024 23:00:00,28.83526,78.74460,NH3,2,2,2
India,Uttar_Pradesh,Moradabad,"Buddhi Vihar, Moradabad - UPPCB",27-04-2024 23:00:00,28.83526,78.74460,OZONE,16,42,32
India,Uttar_Pradesh,Moradabad,"Eco Herbal Park, Moradabad - UPPCB",27-04-2024 23:00:00,28.840739,78.697531,SO2,6,61,18
India,Uttar_Pradesh,Moradabad,"Employment Office, Moradabad - UPPCB",27-04-2024 23:00:00,28.88528,78.73880,PM2.5,28,57,39
India,Uttar_Pradesh,Moradabad,"Jigar Colony, Moradabad - UPPCB",27-04-2024 23:00:00,28.856664,78.772638,CO,14,44,28
India,Uttar_Pradesh,Moradabad,"Kashiram Nagar, Moradabad - UPPCB",27-04-2024 23:00:00,28.849399,78.742362,SO2,34,50,40
India,Uttar_Pradesh,Moradabad,"Transport Nagar, Moradabad - UPPCB",27-04-2024 23:00:00,28.802625,78.753728,NO2,6,25,13
India,Uttar_Pradesh,Noida,"Sector-1, Noida - UPPCB",27-04-2024 23:00:00,28.5898,77.3101,PM10,86,302,188
India,Uttar_Pradesh,Noida,"Sector-1, Noida - UPPCB",27-04-2024 23:00:00,28.5898,77.3101,NH3,3,8,6
India,Uttar_Pradesh,Noida,"Sector-1, Noida - UPPCB",27-04-2024 23:00:00,28.5898,77.3101,OZONE,15,175,96
India,Uttar_Pradesh,Noida,"Sector-116, Noida - UPPCB",27-04-2024 23:00:00,28.569230,77.393848,CO,4,61,39
India,Uttar_Pradesh,Prayagraj,"Jhunsi, Prayagraj - UPPCB",27-04-2024 23:00:00,25.425602,81.917152,PM10,37,143,72
India,Uttar_Pradesh,Prayagraj,"Jhunsi, Prayagraj - UPPCB",27-04-2024 23:00:00,25.425602,81.917152,SO2,30,32,31
India,Uttar_Pradesh,Prayagraj,"Jhunsi, Prayagraj - UPPCB",27-04-2024 23:00:00,25.425602,81.917152,CO,2,43,19
India,Uttar_Pradesh,Prayagraj,"Motilal Nehru NIT, Prayagraj - UPPCB",27-04-2024 23:00:00,25.494,81.863,SO2,28,33,30
India,Uttar_Pradesh,Prayagraj,"Motilal Nehru NIT, Prayagraj - UPPCB",27-04-2024 23:00:00,25.494,81.863,CO,4,44,20
India,Uttar_Pradesh,Prayagraj,"Nagar Nigam, Prayagraj - UPPCB",27-04-2024 23:00:00,25.44919916 ,81.82735986 ,PM10,33,186,85
India,Uttar_Pradesh,Varanasi,"Ardhali Bazar, Varanasi - UPPCB",27-04-2024 23:00:00,25.3505986,82.9083074,PM10,10,54,27
India,Uttar_Pradesh,Varanasi,"Bhelupur, Varanasi - UPPCB",27-04-2024 23:00:00,25.301778,82.996789,PM10,15,38,26
India,Uttar_Pradesh,Varanasi,"Maldahiya, Varanasi - UPPCB",27-04-2024 23:00:00,25.32393,82.99687,SO2,26,26,26
India,Uttar_Pradesh,Varanasi,"Maldahiya, Varanasi - UPPCB",27-04-2024 23:00:00,25.32393,82.99687,CO,2,22,10
India,Uttar_Pradesh,Vrindavan,"Omex Eternity, Vrindavan - UPPCB",27-04-2024 23:00:00,27.5714090,77.6557570,PM10,34,276,113
India,Uttarakhand,Dehradun,"Doon University, Dehradun - UKPCB",27-04-2024 23:00:00,30.269444,78.044167,PM2.5,13,86,45
India,Uttarakhand,Rishikesh,"Shivaji Nagar, Rishikesh - UKPCB",27-04-2024 23:00:00,30.075911,78.2859547,PM10,60,98,73
India,Uttarakhand,Rishikesh,"Shivaji Nagar, Rishikesh - UKPCB",27-04-2024 23:00:00,30.075911,78.2859547,NO2,6,27,13
India,West_Bengal,Asansol,"Asansol Court Area, Asansol - WBPCB",27-04-2024 23:00:00,23.685297,86.945968,PM10,111,270,167
India,West_Bengal,Asansol,"Asansol Court Area, Asansol - WBPCB",27-04-2024 23:00:00,23.685297,86.945968,NH3,8,19,13
India,West_Bengal,Barrackpore,"SVSPA Campus, Barrackpore - WBPCB",27-04-2024 23:00:00,22.7605581,88.3617589,NH3,2,4,2
India,West_Bengal,Barrackpore,"SVSPA Campus, Barrackpore - WBPCB",27-04-2024 23:00:00,22.7605581,88.3617589,SO2,7,12,9
India,West_Bengal,Haldia,"Priyambada Housing Estate, Haldia - WBPCB",27-04-2024 23:00:00,22.06047,88.109737,PM10,21,109,55
India,West_Bengal,Haldia,"Priyambada Housing Estate, Haldia - WBPCB",27-04-2024 23:00:00,22.06047,88.109737,CO,18,32,23
India,West_Bengal,Howrah,"Padmapukur, Howrah - WBPCB",27-04-2024 23:00:00,22.5687319,88.2797276,PM10,49,116,77
India,West_Bengal,Kolkata,"Ballygunge, Kolkata - WBPCB",27-04-2024 23:00:00,22.5367507,88.3638022,CO,2,26,9
India,West_Bengal,Kolkata,"Bidhannagar, Kolkata - WBPCB",27-04-2024 23:00:00,22.58157048,88.41002457,PM10,47,88,65
India,West_Bengal,Kolkata,"Bidhannagar, Kolkata - WBPCB",27-04-2024 23:00:00,22.58157048,88.41002457,SO2,7,17,12
India,West_Bengal,Kolkata,"Bidhannagar, Kolkata - WBPCB",27-04-2024 23:00:00,22.58157048,88.41002457,CO,24,38,30
India,West_Bengal,Kolkata,"Fort William, Kolkata - WBPCB",27-04-2024 23:00:00,22.556640,88.342674,NH3,2,3,2
India,West_Bengal,Kolkata,"Jadavpur, Kolkata - WBPCB",27-04-2024 23:00:00,22.49929,88.36917,PM10,41,103,66
India,West_Bengal,Kolkata,"Rabindra Sarobar, Kolkata - WBPCB",27-04-2024 23:00:00,22.51106,88.35142,PM10,38,90,62
India,West_Bengal,Kolkata,"Victoria, Kolkata - WBPCB",27-04-2024 23:00:00,22.5448082,88.3403691,CO,28,58,47
India,Andhra_Pradesh,Amaravati,"Secretariat, Amaravati - APPCB",27-04-2024 23:00:00,16.5150833,80.5181667,PM2.5,12,43,28
India,Andhra_Pradesh,Anantapur,"Gulzarpet, Anantapur - APPCB",27-04-2024 23:00:00,14.675886,77.593027,CO,30,49,35
India,Andhra_Pradesh,Rajamahendravaram,"Anand Kala Kshetram, Rajamahendravaram - APPCB",27-04-2024 23:00:00,16.9872867,81.7363176,OZONE,12,23,18
India,Andhra_Pradesh,Tirupati,"Tirumala, Tirupati - APPCB",27-04-2024 23:00:00,13.67,79.35,NO2,15,42,27
India,Andhra_Pradesh,Vijayawada,"HB Colony, Vijayawada - APPCB",27-04-2024 23:00:00,16.536107,80.594233,NO2,4,7,5
India,Andhra_Pradesh,Vijayawada,"HB Colony, Vijayawada - APPCB",27-04-2024 23:00:00,16.536107,80.594233,SO2,4,6,5
India,Andhra_Pradesh,Vijayawada,"Kanuru, Vijayawada - APPCB",27-04-2024 23:00:00,16.486692,80.699436,PM2.5,NA,NA,NA
India,Andhra_Pradesh,Vijayawada,"Kanuru, Vijayawada - APPCB",27-04-2024 23:00:00,16.486692,80.699436,NO2,14,14,14
India,Andhra_Pradesh,Vijayawada,"Kanuru, Vijayawada - APPCB",27-04-2024 23:00:00,16.486692,80.699436,NH3,1,1,1
India,Andhra_Pradesh,Vijayawada,"Kanuru, Vijayawada - APPCB",27-04-2024 23:00:00,16.486692,80.699436,SO2,10,14,12
India,Andhra_Pradesh,Vijayawada,"Rajiv Gandhi Park, Vijayawada - APPCB",27-04-2024 23:00:00,16.509717,80.612222,PM10,39,85,64
India,Andhra_Pradesh,Vijayawada,"Rajiv Gandhi Park, Vijayawada - APPCB",27-04-2024 23:00:00,16.509717,80.612222,SO2,6,11,8
India,Arunachal_Pradesh,Naharlagun,"Naharlagun, Naharlagun - APSPCB",27-04-2024 23:00:00,27.103358,93.679645,PM2.5,NA,NA,NA
India,Arunachal_Pradesh,Naharlagun,"Naharlagun, Naharlagun - APSPCB",27-04-2024 23:00:00,27.103358,93.679645,CO,NA,NA,NA
India,Assam,Byrnihat,"Central Academy for SFS, Byrnihat - PCBA",27-04-2024 23:00:00,26.071318,91.87488,PM10,55,125,84
India,Assam,Byrnihat,"Central Academy for SFS, Byrnihat - PCBA",27-04-2024 23:00:00,26.071318,91.87488,SO2,7,16,11
India,Assam,Byrnihat,"Central Academy for SFS, Byrnihat - PCBA",27-04-2024 23:00:00,26.071318,91.87488,CO,28,60,45
India,Assam,Guwahati,"IITG, Guwahati - PCBA",27-04-2024 23:00:00,26.2028636,91.70046436,PM10,38,104,63
India,Assam,Guwahati,"IITG, Guwahati - PCBA",27-04-2024 23:00:00,26.2028636,91.70046436,OZONE,9,42,21
India,Assam,Guwahati,"Railway Colony, Guwahati - PCBA",27-04-2024 23:00:00,26.181742,91.78063,NO2,3,3,3
India,Assam,Nagaon,"Christianpatty, Nagaon - PCBA",27-04-2024 23:00:00,26.349082,92.68449,PM10,71,119,87
India,Assam,Nagaon,"Christianpatty, Nagaon - PCBA",27-04-2024 23:00:00,26.349082,92.68449,NO2,3,41,12
India,Assam,Nalbari,"Bata Chowk, Nalbari - PCBA",27-04-2024 23:00:00,26.446912,91.439057,NO2,6,26,12
India,Assam,Nalbari,"Bata Chowk, Nalbari - PCBA",27-04-2024 23:00:00,26.446912,91.439057,OZONE,6,130,34
India,Assam,Silchar,"Tarapur, Silchar - PCBA",27-04-2024 23:00:00,24.82827,92.79525,PM10,42,59,45
India,Assam,Silchar,"Tarapur, Silchar - PCBA",27-04-2024 23:00:00,24.82827,92.79525,NO2,13,13,13
India,Bihar,Arrah,"New DM Office, Arrah - BSPCB",27-04-2024 23:00:00,25.5626095,84.663264,PM10,58,127,85
India,Bihar,Arrah,"New DM Office, Arrah - BSPCB",27-04-2024 23:00:00,25.5626095,84.663264,NH3,2,5,3
India,Bihar,Arrah,"New DM Office, Arrah - BSPCB",27-04-2024 23:00:00,25.5626095,84.663264,SO2,11,34,21
India,Bihar,Aurangabad,"Gurdeo Nagar, Aurangabad - BSPCB",27-04-2024 23:00:00,24.75746,84.366208,PM2.5,NA,NA,NA
India,Bihar,Aurangabad,"Gurdeo Nagar, Aurangabad - BSPCB",27-04-2024 23:00:00,24.75746,84.366208,NH3,3,35,18
India,Bihar,Bettiah,"Kamalnath Nagar, Bettiah - BSPCB",27-04-2024 23:00:00,26.80365,84.51954,CO,60,64,64
India,Bihar,Bhagalpur,"DM Office_Kachari Chowk, Bhagalpur - BSPCB",27-04-2024 23:00:00,25.251013,86.989001,PM10,122,185,147
India,Bihar,Bhagalpur,"DM Office_Kachari Chowk, Bhagalpur - BSPCB",27-04-2024 23:00:00,25.251013,86.989001,NH3,3,7,5
India,Bihar,Bhagalpur,"DM Office_Kachari Chowk, Bhagalpur - BSPCB",27-04-2024 23:00:00,25.251013,86.989001,CO,22,96,52
India,Bihar,Bhagalpur,"Mayaganj, Bhagalpur - BSPCB",27-04-2024 23:00:00,25.265194,87.012947,OZONE,14,112,51
India,Bihar,Bihar Sharif,"D M Colony, Bihar Sharif - BSPCB",27-04-2024 23:00:00,25.204762,85.514960,PM10,40,85,63
India,Bihar,Bihar Sharif,"D M Colony, Bihar Sharif - BSPCB",27-04-2024 23:00:00,25.204762,85.514960,NO2,9,10,9
India,Bihar,Buxar,"Charitra Van, Buxar - BSPCB (Formerly known as Central Jail)",27-04-2024 23:00:00,25.567520,83.966379,NH3,3,4,3
India,Bihar,Chhapra,"Darshan Nagar, Chhapra - BSPCB",27-04-2024 23:00:00,25.7808257,84.7446768,PM2.5,48,95,71
India,Bihar,Chhapra,"Darshan Nagar, Chhapra - BSPCB",27-04-2024 23:00:00,25.7808257,84.7446768,NO2,21,29,24
India,Bihar,Gaya,"Kareemganj, Gaya - BSPCB",27-04-2024 23:00:00,24.792403,84.992416,PM10,47,126,72
India,Bihar,Gaya,"SFTI Kusdihra, Gaya - BSPCB",27-04-2024 23:00:00,24.762518,84.982348,NO2,20,106,50
India,Bihar,Gaya,"SFTI Kusdihra, Gaya - BSPCB",27-04-2024 23:00:00,24.762518,84.982348,SO2,9,12,10
India,Bihar,Hajipur,"Industrial Area, Hajipur - BSPCB",27-04-2024 23:00:00,25.697189,85.245900,CO,26,50,29
India,Bihar,Kishanganj,"SDM Office_Khagra, Kishanganj - BSPCB",27-04-2024 23:00:00,26.0881305,87.93840336,PM10,103,429,201
India,Bihar,Kishanganj,"SDM Office_Khagra, Kishanganj - BSPCB",27-04-2024 23:00:00,26.0881305,87.93840336,NO2,28,34,30
India,Bihar,Manguraha,"Forest Rest House, Manguraha - BSPCB",27-04-2024 23:00:00,27.308328,84.531742,CO,1,92,46
India,Bihar,Motihari,"Gandak Colony, Motihari - BSPCB",27-04-2024 23:00:00,26.63086,84.90051,PM10,28,107,54
India,Bihar,Muzaffarpur,"Buddha Colony, Muzaffarpur - BSPCB",27-04-2024 23:00:00,26.11442,85.39813,SO2,9,83,16
India,Bihar,Muzaffarpur,"MIT-Daudpur Kothi, Muzaffarpur - BSPCB",27-04-2024 23:00:00,26.1403345,85.3650192,NO2,4,6,5
India,Bihar,Patna,"DRM Office Danapur, Patna - BSPCB",27-04-2024 23:00:00,25.586562,85.043586,PM10,77,162,124
India,Bihar,Patna,"Govt. High School Shikarpur, Patna - BSPCB",27-04-2024 23:00:00,25.592539,85.227158,PM10,114,191,149
India,Bihar,Patna,"Govt. High School Shikarpur, Patna - BSPCB",27-04-2024 23:00:00,25.592539,85.227158,SO2,7,11,10
India,Bihar,Patna,"Rajbansi Nagar, Patna - BSPCB",27-04-2024 23:00:00,25.599486,85.113666,NO2,24,66,33
India,Bihar,Patna,"Rajbansi Nagar, Patna - BSPCB",27-04-2024 23:00:00,25.599486,85.113666,NH3,7,17,9
India,Bihar,Patna,"Rajbansi Nagar, Patna - BSPCB",27-04-2024 23:00:00,25.599486,85.113666,SO2,8,22,14
India,Bihar,Patna,"Samanpura, Patna - BSPCB",27-04-2024 23:00:00,25.596727,85.085624,PM2.5,54,325,172
India,Bihar,Patna,"Samanpura, Patna - BSPCB",27-04-2024 23:00:00,25.596727,85.085624,CO,31,112,57
India,Bihar,Purnia,"Mariam Nagar, Purnia - BSPCB",27-04-2024 23:00:00,25.366336,87.117468,PM10,11,121,34
India,Bihar,Purnia,"Mariam Nagar, Purnia - BSPCB",27-04-2024 23:00:00,25.366336,87.117468,NO2,4,64,14
India,Bihar,Purnia,"Mariam Nagar, Purnia - BSPCB",27-04-2024 23:00:00,25.366336,87.117468,NH3,5,17,12
India,Bihar,Purnia,"Mariam Nagar, Purnia - BSPCB",27-04-2024 23:00:00,25.366336,87.117468,SO2,6,18,11
India,Bihar,Rajgir,"Dangi Tola, Rajgir - BSPCB",27-04-2024 23:00:00,25.03280,85.41948,NO2,18,22,19
India,Bihar,Saharsa,"Police Line, Saharsa - BSPCB",27-04-2024 23:00:00,25.892357,86.590325,NO2,6,7,7
India,Bihar,Samastipur,"DM Office_Kasipur, Samastipur - BSPCB",27-04-2024 23:00:00,25.859655,85.77944,NH3,NA,NA,NA
India,Bihar,Samastipur,"DM Office_Kasipur, Samastipur - BSPCB",27-04-2024 23:00:00,25.859655,85.77944,OZONE,9,42,24
India,Bihar,Sasaram,"Dada Peer, Sasaram - BSPCB",27-04-2024 23:00:00,24.952822,84.002396,NO2,11,71,42
India,Bihar,Siwan,"Chitragupta Nagar, Siwan - BSPCB",27-04-2024 23:00:00,26.2271665,84.3570427,PM10,NA,NA,NA
India,Bihar,Siwan,"Chitragupta Nagar, Siwan - BSPCB",27-04-2024 23:00:00,26.2271665,84.3570427,NH3,2,4,3
India,Bihar,Siwan,"Chitragupta Nagar, Siwan - BSPCB",27-04-2024 23:00:00,26.2271665,84.3570427,SO2,14,32,26
India,Chandigarh,Chandigarh,"Sector 22, Chandigarh - CPCC",27-04-2024 23:00:00,30.735567,76.775714,NH3,5,10,7
India,Chandigarh,Chandigarh,"Sector-25, Chandigarh - CPCC",27-04-2024 23:00:00,30.751462,76.762879,NH3,11,20,15
India,Chandigarh,Chandigarh,"Sector-25, Chandigarh - CPCC",27-04-2024 23:00:00,30.751462,76.762879,SO2,9,39,16
India,Chandigarh,Chandigarh,"Sector-53, Chandigarh - CPCC",27-04-2024 23:00:00,30.719859,76.738637,PM10,43,168,101
India,Chhattisgarh,Bhilai,"32Bungalows, Bhilai - CECB",27-04-2024 23:00:00,21.194815,81.314770,PM2.5,31,137,55
India,Chhattisgarh,Bhilai,"Civic Center, Bhilai - Bhilai Steel Plant",27-04-2024 23:00:00,21.185571,81.343175,OZONE,7,84,39
India,Chhattisgarh,Bhilai,"Hathkhoj, Bhilai - CECB",27-04-2024 23:00:00,21.224231,81.408350,SO2,16,79,27
India,Chhattisgarh,Bhilai,"Hathkhoj, Bhilai - CECB",27-04-2024 23:00:00,21.224231,81.408350,CO,8,103,37
India,Chhattisgarh,Bilaspur,"Mangala, Bilaspur - NTPC",27-04-2024 23:00:00,22.08815,82.13737,PM2.5,24,96,39
India,Chhattisgarh,Bilaspur,"Mangala, Bilaspur - NTPC",27-04-2024 23:00:00,22.08815,82.13737,CO,24,34,33
India,Chhattisgarh,Chhal,"Nawapara SECL Colony, Chhal - CECB",27-04-2024 23:00:00,22.118125,83.140608,NH3,2,2,2
India,Chhattisgarh,Chhal,"Nawapara SECL Colony, Chhal - CECB",27-04-2024 23:00:00,22.118125,83.140608,CO,19,70,39
India,Chhattisgarh,Korba,"Urja Nagar, Korba - CECB",27-04-2024 23:00:00,22.348441,82.549611,PM2.5,NA,NA,NA
India,Chhattisgarh,Korba,"Urja Nagar, Korba - CECB",27-04-2024 23:00:00,22.348441,82.549611,CO,14,42,25
India,Chhattisgarh,Korba,"Urja Nagar, Korba - CECB",27-04-2024 23:00:00,22.348441,82.549611,OZONE,1,25,2
India,Chhattisgarh,Raipur,"AIIMS, Raipur - CECB",27-04-2024 23:00:00,21.258815,81.578979,PM10,NA,NA,NA
India,Chhattisgarh,Raipur,"AIIMS, Raipur - CECB",27-04-2024 23:00:00,21.258815,81.578979,SO2,NA,NA,NA
India,Chhattisgarh,Raipur,"AIIMS, Raipur - CECB",27-04-2024 23:00:00,21.258815,81.578979,CO,22,59,37
India,Chhattisgarh,Raipur,"AIIMS, Raipur - CECB",27-04-2024 23:00:00,21.258815,81.578979,OZONE,8,58,30
India,Chhattisgarh,Raipur,"Bhatagaon New ISBT, Raipur - CECB",27-04-2024 23:00:00,21.219665,81.630094,OZONE,3,7,5
India,Chhattisgarh,Raipur,"Krishak Nagar, Raipur - CECB",27-04-2024 23:00:00,21.237755,81.705301,OZONE,1,84,42
India,Chhattisgarh,Raipur,"Siltara Phase-II, Raipur - CECB",27-04-2024 23:00:00,21.371751,81.664929,PM10,31,148,85
India,Chhattisgarh,Raipur,"Siltara Phase-II, Raipur - CECB",27-04-2024 23:00:00,21.371751,81.664929,SO2,13,94,48
India,Chhattisgarh,Raipur,"Siltara Phase-II, Raipur - CECB",27-04-2024 23:00:00,21.371751,81.664929,CO,14,57,32
India,Chhattisgarh,Raipur,"Siltara Phase-II, Raipur - CECB",27-04-2024 23:00:00,21.371751,81.664929,OZONE,3,66,31
India,Chhattisgarh,Tumidih,"OP Jindal Industrial Park, Tumidih - CECB",27-04-2024 23:00:00,22.06631475,83.33820077,PM10,NA,NA,NA
India,Delhi,Delhi,"Alipur, Delhi - DPCC",27-04-2024 23:00:00,28.815329,77.153010,NO2,10,88,30
India,Delhi,Delhi,"Alipur, Delhi - DPCC",27-04-2024 23:00:00,28.815329,77.153010,NH3,5,10,7
India,Delhi,Delhi,"Alipur, Delhi - DPCC",27-04-2024 23:00:00,28.815329,77.153010,SO2,12,35,19
India,Delhi,Delhi,"Anand Vihar, Delhi - DPCC",27-04-2024 23:00:00,28.647622,77.3158090,PM2.5,NA,NA,NA
India,Delhi,Delhi,"Anand Vihar, Delhi - DPCC",27-04-2024 23:00:00,28.647622,77.3158090,NO2,NA,NA,NA
India,Delhi,Delhi,"Anand Vihar, Delhi - DPCC",27-04-2024 23:00:00,28.647622,77.3158090,OZONE,23,86,49
India,Delhi,Delhi,"Ashok Vihar, Delhi - DPCC",27-04-2024 23:00:00,28.695381,77.181665,SO2,19,43,28
India,Delhi,Delhi,"Aya Nagar, Delhi - IMD",27-04-2024 23:00:00,28.4706914,77.1099364,PM2.5,7,296,136
India,Delhi,Delhi,"Burari Crossing, Delhi - IMD",27-04-2024 23:00:00,28.7256504,77.2011573,CO,22,44,28
India,Delhi,Delhi,"CRRI Mathura Road, Delhi - IMD",27-04-2024 23:00:00,28.5512005,77.2735737,OZONE,1,33,17
India,Delhi,Delhi,"DTU, Delhi - CPCB",27-04-2024 23:00:00,28.7500499,77.1112615,PM10,104,272,189
India,Delhi,Delhi,"DTU, Delhi - CPCB",27-04-2024 23:00:00,28.7500499,77.1112615,NH3,12,14,13
India,Delhi,Delhi,"DTU, Delhi - CPCB",27-04-2024 23:00:00,28.7500499,77.1112615,SO2,34,39,36
India,Delhi,Delhi,"Dr. Karni Singh Shooting Range, Delhi - DPCC",27-04-2024 23:00:00,28.498571,77.264840,CO,27,104,57
India,Delhi,Delhi,"Dr. Karni Singh Shooting Range, Delhi - DPCC",27-04-2024 23:00:00,28.498571,77.264840,OZONE,2,197,107
India,Delhi,Delhi,"Dwarka-Sector 8, Delhi - DPCC ",27-04-2024 23:00:00,28.5710274,77.0719006,OZONE,2,57,38
India,Delhi,Delhi,"IGI Airport (T3), Delhi - IMD",27-04-2024 23:00:00,28.5627763,77.1180053,NO2,4,10,7
India,Delhi,Delhi,"IGI Airport (T3), Delhi - IMD",27-04-2024 23:00:00,28.5627763,77.1180053,CO,30,72,37
India,Delhi,Delhi,"IHBAS, Dilshad Garden, Delhi - CPCB",27-04-2024 23:00:00,28.6811736,77.3025234,PM2.5,75,204,106
India,Delhi,Delhi,"IHBAS, Dilshad Garden, Delhi - CPCB",27-04-2024 23:00:00,28.6811736,77.3025234,NH3,7,11,9
India,Delhi,Delhi,"IHBAS, Dilshad Garden, Delhi - CPCB",27-04-2024 23:00:00,28.6811736,77.3025234,OZONE,5,26,13
India,Delhi,Delhi,"Jahangirpuri, Delhi - DPCC",27-04-2024 23:00:00,28.732820,77.170633,NH3,6,13,10
India,Delhi,Delhi,"Jahangirpuri, Delhi - DPCC",27-04-2024 23:00:00,28.732820,77.170633,CO,46,102,66
India,Delhi,Delhi,"Jawaharlal Nehru Stadium, Delhi - DPCC",27-04-2024 23:00:00,28.580280,77.233829,PM2.5,30,76,51
India,Delhi,Delhi,"Jawaharlal Nehru Stadium, Delhi - DPCC",27-04-2024 23:00:00,28.580280,77.233829,PM10,74,258,154
India,Delhi,Delhi,"Lodhi Road, Delhi - IITM",27-04-2024 23:00:00,28.588333,77.221667,SO2,16,36,26
India,Delhi,Delhi,"Lodhi Road, Delhi - IMD",27-04-2024 23:00:00,28.5918245,77.2273074,PM10,67,432,159
India,Delhi,Delhi,"Lodhi Road, Delhi - IMD",27-04-2024 23:00:00,28.5918245,77.2273074,OZONE,5,50,33
India,Delhi,Delhi,"Mundka, Delhi - DPCC",27-04-2024 23:00:00,28.684678,77.076574,NO2,15,95,44
India,Delhi,Delhi,"Mundka, Delhi - DPCC",27-04-2024 23:00:00,28.684678,77.076574,SO2,8,101,21
India,Delhi,Delhi,"Mundka, Delhi - DPCC",27-04-2024 23:00:00,28.684678,77.076574,OZONE,11,133,80
India,Delhi,Delhi,"NSIT Dwarka, Delhi - CPCB",27-04-2024 23:00:00,28.60909,77.0325413,NO2,25,43,32
India,Delhi,Delhi,"NSIT Dwarka, Delhi - CPCB",27-04-2024 23:00:00,28.60909,77.0325413,CO,24,50,45
India,Delhi,Delhi,"Najafgarh, Delhi - DPCC",27-04-2024 23:00:00,28.570173,76.933762,PM2.5,32,240,73
India,Delhi,Delhi,"Najafgarh, Delhi - DPCC",27-04-2024 23:00:00,28.570173,76.933762,SO2,7,17,12
India,Delhi,Delhi,"Najafgarh, Delhi - DPCC",27-04-2024 23:00:00,28.570173,76.933762,CO,34,51,40
India,Delhi,Delhi,"Narela, Delhi - DPCC",27-04-2024 23:00:00,28.822836,77.101981,PM2.5,55,237,105
India,Delhi,Delhi,"Narela, Delhi - DPCC",27-04-2024 23:00:00,28.822836,77.101981,PM10,112,401,200
India,Delhi,Delhi,"Narela, Delhi - DPCC",27-04-2024 23:00:00,28.822836,77.101981,OZONE,4,135,98
India,Delhi,Delhi,"Nehru Nagar, Delhi - DPCC",27-04-2024 23:00:00,28.567890,77.250515,NH3,2,10,3
India,Delhi,Delhi,"Nehru Nagar, Delhi - DPCC",27-04-2024 23:00:00,28.567890,77.250515,CO,46,146,65
India,Delhi,Delhi,"New Moti Bagh, Delhi - MHUA",27-04-2024 23:00:00,28.57834,77.18400,PM2.5,36,323,115
India,Delhi,Delhi,"Okhla Phase-2, Delhi - DPCC",27-04-2024 23:00:00,28.530785,77.271255,OZONE,11,96,53
India,Delhi,Delhi,"Patparganj, Delhi - DPCC",27-04-2024 23:00:00,28.623763,77.287209,PM2.5,48,143,79
India,Delhi,Delhi,"Patparganj, Delhi - DPCC",27-04-2024 23:00:00,28.623763,77.287209,PM10,100,340,211
India,Delhi,Delhi,"Patparganj, Delhi - DPCC",27-04-2024 23:00:00,28.623763,77.287209,CO,48,97,66
India,Delhi,Delhi,"Punjabi Bagh, Delhi - DPCC",27-04-2024 23:00:00,28.674045,77.131023,CO,37,70,51
India,Delhi,Delhi,"Punjabi Bagh, Delhi - DPCC",27-04-2024 23:00:00,28.674045,77.131023,OZONE,3,66,24
India,Delhi,Delhi,"Pusa, Delhi - DPCC",27-04-2024 23:00:00,28.639652,77.146275,SO2,4,23,13
India,Delhi,Delhi,"Pusa, Delhi - DPCC",27-04-2024 23:00:00,28.639652,77.146275,OZONE,8,68,42
India,Delhi,Delhi,"Pusa, Delhi - IMD",27-04-2024 23:00:00,28.636110,77.173332,CO,33,50,38
India,Delhi,Delhi,"Rohini, Delhi - DPCC",27-04-2024 23:00:00,28.732528,77.119920,SO2,8,28,14
India,Delhi,Delhi,"Shadipur, Delhi - CPCB",27-04-2024 23:00:00,28.6514781,77.1473105,NH3,5,9,6
India,Delhi,Delhi,"Sonia Vihar, Delhi - DPCC",27-04-2024 23:00:00,28.710508,77.249485,PM10,117,280,190
India,Delhi,Delhi,"Sonia Vihar, Delhi - DPCC",27-04-2024 23:00:00,28.710508,77.249485,OZONE,7,121,74
India,Delhi,Delhi,"Sri Aurobindo Marg, Delhi - DPCC",27-04-2024 23:00:00,28.531346,77.190156,SO2,7,29,15
India,Delhi,Delhi,"Wazirpur, Delhi - DPCC",27-04-2024 23:00:00,28.699793,77.165453,NH3,12,13,12
India,Delhi,Delhi,"Wazirpur, Delhi - DPCC",27-04-2024 23:00:00,28.699793,77.165453,SO2,4,19,12
India,Delhi,Delhi,"Wazirpur, Delhi - DPCC",27-04-2024 23:00:00,28.699793,77.165453,CO,36,92,59
India,Gujarat,Ahmedabad,"Gyaspur, Ahmedabad - IITM",27-04-2024 23:00:00,22.977134,72.553024,CO,20,57,39
India,Gujarat,Ahmedabad,"Raikhad, Ahmedabad - IITM",27-04-2024 23:00:00,23.020509,72.579261,SO2,6,14,9
India,Gujarat,Ahmedabad,"Raikhad, Ahmedabad - IITM",27-04-2024 23:00:00,23.020509,72.579261,CO,4,139,52
India,Gujarat,Ahmedabad,"SAC ISRO Satellite, Ahmedabad - IITM",27-04-2024 23:00:00,23.023389,72.515201,NO2,17,32,20
India,Gujarat,Ahmedabad,"SAC ISRO Satellite, Ahmedabad - IITM",27-04-2024 23:00:00,23.023389,72.515201,NH3,2,3,3
India,Gujarat,Ahmedabad,"SVPI Airport Hansol, Ahmedabad - IITM",27-04-2024 23:00:00,23.076793,72.627874,PM10,100,154,123
India,Gujarat,Ahmedabad,"SVPI Airport Hansol, Ahmedabad - IITM",27-04-2024 23:00:00,23.076793,72.627874,NH3,4,6,6
India,Gujarat,Ahmedabad,"Sardar Vallabhbhai Patel Stadium, Ahmedabad - IITM",27-04-2024 23:00:00,23.043070,72.562968,NO2,24,48,44
India,Gujarat,Ahmedabad,"Sardar Vallabhbhai Patel Stadium, Ahmedabad - IITM",27-04-2024 23:00:00,23.043070,72.562968,SO2,1,18,5
India,Gujarat,Ahmedabad,"Sardar Vallabhbhai Patel Stadium, Ahmedabad - IITM",27-04-2024 23:00:00,23.043070,72.562968,OZONE,2,41,23
India,Gujarat,Ankleshwar,"GIDC, Ankleshwar - GPCB",27-04-2024 23:00:00,21.613267,73.010555,PM10,61,127,87
India,Gujarat,Ankleshwar,"GIDC, Ankleshwar - GPCB",27-04-2024 23:00:00,21.613267,73.010555,SO2,11,54,30
India,Gujarat,Ankleshwar,"GIDC, Ankleshwar - GPCB",27-04-2024 23:00:00,21.613267,73.010555,OZONE,23,35,32
India,Gujarat,Gandhinagar,"Sector-10, Gandhinagar - GPCB",27-04-2024 23:00:00,23.221714,72.654328,NO2,19,23,21
India,Gujarat,Gandhinagar,"Sector-10, Gandhinagar - GPCB",27-04-2024 23:00:00,23.221714,72.654328,OZONE,2,33,19
India,Gujarat,Nandesari,"GIDC, Nandesari - Nandesari Ind. Association",27-04-2024 23:00:00,22.410802,73.097923,NO2,NA,NA,NA
India,Gujarat,Surat,"Science Center, Surat - SMC",27-04-2024 23:00:00,21.170046,72.795405,PM2.5,2,21,12
India,Gujarat,Vatva,"Phase-4 GIDC, Vatva - GPCB",27-04-2024 23:00:00,22.969611,72.643500,NH3,6,12,9
India,Gujarat,Vatva,"Phase-4 GIDC, Vatva - GPCB",27-04-2024 23:00:00,22.969611,72.643500,CO,34,36,36
India,Gujarat,Vatva,"Phase-4 GIDC, Vatva - GPCB",27-04-2024 23:00:00,22.969611,72.643500,OZONE,6,36,20
India,Haryana,Ambala,"Patti Mehar, Ambala - HSPCB",27-04-2024 23:00:00,30.379589,76.778328,OZONE,39,60,39
India,Haryana,Bahadurgarh,"Arya Nagar, Bahadurgarh - HSPCB",27-04-2024 23:00:00,28.6701,76.9254,PM10,88,194,147
India,Haryana,Ballabgarh,"Nathu Colony, Ballabgarh - HSPCB",27-04-2024 23:00:00,28.3419248,77.319699,PM10,106,223,163
India,Haryana,Ballabgarh,"Nathu Colony, Ballabgarh - HSPCB",27-04-2024 23:00:00,28.3419248,77.319699,NH3,1,2,2
India,Haryana,Charkhi Dadri,"Mini Secretariat, Charkhi Dadri - HSPCB",27-04-2024 23:00:00,28.593883,76.270653,NO2,14,25,18
India,Haryana,Dharuhera,"Municipal Corporation Office, Dharuhera -  HSPCB",27-04-2024 23:00:00,28.206800,76.799700,NH3,9,26,19
India,Haryana,Dharuhera,"Municipal Corporation Office, Dharuhera -  HSPCB",27-04-2024 23:00:00,28.206800,76.799700,CO,10,38,21
India,Haryana,Dharuhera,"Municipal Corporation Office, Dharuhera -  HSPCB",27-04-2024 23:00:00,28.206800,76.799700,OZONE,4,30,19
India,Haryana,Faridabad,"New Industrial Town, Faridabad - HSPCB",27-04-2024 23:00:00,28.39072,77.30059,NO2,NA,NA,NA
India,Haryana,Faridabad,"Sector 11, Faridabad - HSPCB",27-04-2024 23:00:00,28.376058,77.315741,PM2.5,170,396,294
India,Haryana,Faridabad,"Sector 11, Faridabad - HSPCB",27-04-2024 23:00:00,28.376058,77.315741,NH3,6,6,6
India,Haryana,Faridabad,"Sector 30, Faridabad - HSPCB",27-04-2024 23:00:00,28.4417,77.3217,OZONE,10,10,10
India,Haryana,Faridabad,"Sector- 16A, Faridabad - HSPCB",27-04-2024 23:00:00,28.4088421,77.3099081,NO2,5,33,18
India,Haryana,Faridabad,"Sector- 16A, Faridabad - HSPCB",27-04-2024 23:00:00,28.4088421,77.3099081,OZONE,14,14,14
India,Haryana,Fatehabad,"Huda Sector, Fatehabad - HSPCB",27-04-2024 23:00:00,29.503664,75.467934,PM10,81,417,148
India,Haryana,Gurugram,"Sector-51, Gurugram - HSPCB",27-04-2024 23:00:00,28.4227,77.0667,PM2.5,118,389,296
India,Haryana,Gurugram,"Sector-51, Gurugram - HSPCB",27-04-2024 23:00:00,28.4227,77.0667,NH3,7,14,9
India,Haryana,Gurugram,"Sector-51, Gurugram - HSPCB",27-04-2024 23:00:00,28.4227,77.0667,SO2,2,4,3
India,Haryana,Gurugram,"Sector-51, Gurugram - HSPCB",27-04-2024 23:00:00,28.4227,77.0667,OZONE,27,67,56
India,Haryana,Gurugram,"Teri Gram, Gurugram - HSPCB",27-04-2024 23:00:00,28.4275,77.1465,PM2.5,18,314,176
India,Haryana,Gurugram,"Teri Gram, Gurugram - HSPCB",27-04-2024 23:00:00,28.4275,77.1465,PM10,109,335,222
India,Haryana,Hisar,"Urban Estate-II, Hisar - HSPCB",27-04-2024 23:00:00,29.140560,75.744941,NH3,7,11,9
India,Haryana,Hisar,"Urban Estate-II, Hisar - HSPCB",27-04-2024 23:00:00,29.140560,75.744941,OZONE,38,156,119
India,Haryana,Kaithal,"Rishi Nagar, Kaithal - HSPCB",27-04-2024 23:00:00,29.8006,76.4155,PM10,NA,NA,NA
India,Haryana,Kaithal,"Rishi Nagar, Kaithal - HSPCB",27-04-2024 23:00:00,29.8006,76.4155,SO2,NA,NA,NA
India,Haryana,Karnal,"Sector-12, Karnal - HSPCB",27-04-2024 23:00:00,29.695300,77.002700,PM10,29,114,73
India,Haryana,Karnal,"Sector-12, Karnal - HSPCB",27-04-2024 23:00:00,29.695300,77.002700,NH3,10,13,11
India,Haryana,Kurukshetra,"Sector-7, Kurukshetra - HSPCB",27-04-2024 23:00:00,29.966942,76.875879,SO2,2,3,2
India,Haryana,Kurukshetra,"Sector-7, Kurukshetra - HSPCB",27-04-2024 23:00:00,29.966942,76.875879,CO,5,22,8
India,Haryana,Kurukshetra,"Sector-7, Kurukshetra - HSPCB",27-04-2024 23:00:00,29.966942,76.875879,OZONE,4,60,47
India,Haryana,Mandikhera,"General Hospital, Mandikhera - HSPCB",27-04-2024 23:00:00,27.9002,76.9938,PM10,48,126,90
India,Haryana,Manesar,"Sector-2 IMT, Manesar - HSPCB",27-04-2024 23:00:00,28.360699,76.936090,PM2.5,63,146,100
India,Haryana,Manesar,"Sector-2 IMT, Manesar - HSPCB",27-04-2024 23:00:00,28.360699,76.936090,OZONE,4,70,38
India,Haryana,Narnaul,"Shastri Nagar, Narnaul - HSPCB",27-04-2024 23:00:00,28.060249,76.113115,PM2.5,42,167,87
India,Haryana,Narnaul,"Shastri Nagar, Narnaul - HSPCB",27-04-2024 23:00:00,28.060249,76.113115,NH3,5,24,15
India,Haryana,Palwal,"Shyam Nagar, Palwal - HSPCB",27-04-2024 23:00:00,28.1485564,77.3320667,OZONE,8,38,25
India,Haryana,Panipat,"Sector-18, Panipat - HSPCB",27-04-2024 23:00:00,29.497973,76.993331,NH3,2,3,2
India,Haryana,Panipat,"Sector-18, Panipat - HSPCB",27-04-2024 23:00:00,29.497973,76.993331,SO2,18,19,19
India,Haryana,Sonipat,"Murthal, Sonipat - HSPCB",27-04-2024 23:00:00,29.027200,77.062100,NO2,37,44,40
India,Haryana,Yamuna Nagar,"Gobind Pura, Yamuna Nagar - HSPCB",27-04-2024 23:00:00,30.1480566,77.2893471,CO,27,70,49
India,Jharkhand,Pathardih,"Mohalbani Ghat, Pathardih - DMC",27-04-2024 23:00:00,23.669880,86.411725,OZONE,16,28,22
India,Karnataka,Bagalkot,"Vidayagiri, Bagalkot - KSPCB",27-04-2024 23:00:00,16.172806,75.659694,SO2,8,10,9
India,Karnataka,Bagalkot,"Vidayagiri, Bagalkot - KSPCB",27-04-2024 23:00:00,16.172806,75.659694,CO,20,54,38
India,Karnataka,Belgaum,"Ramteerth Nagar, Belgaum - KSPCB",27-04-2024 23:00:00,15.888653,74.541751,PM2.5,18,50,27
India,Karnataka,Belgaum,"Ramteerth Nagar, Belgaum - KSPCB",27-04-2024 23:00:00,15.888653,74.541751,PM10,31,93,53
India,Karnataka,Belgaum,"Ramteerth Nagar, Belgaum - KSPCB",27-04-2024 23:00:00,15.888653,74.541751,NO2,11,65,35
India,Karnataka,Bengaluru,"Bapuji Nagar, Bengaluru - KSPCB",27-04-2024 23:00:00,12.951913,77.539784,PM10,54,110,92
India,Karnataka,Bengaluru,"Bapuji Nagar, Bengaluru - KSPCB",27-04-2024 23:00:00,12.951913,77.539784,SO2,6,11,8
India,Karnataka,Bengaluru,"Bapuji Nagar, Bengaluru - KSPCB",27-04-2024 23:00:00,12.951913,77.539784,CO,18,52,42
India,Karnataka,Bengaluru,"Hombegowda Nagar, Bengaluru - KSPCB",27-04-2024 23:00:00,12.938539,77.590100,NO2,11,23,16
India,Karnataka,Bengaluru,"Hombegowda Nagar, Bengaluru - KSPCB",27-04-2024 23:00:00,12.938539,77.590100,NH3,1,2,1
India,Karnataka,Bengaluru,"Kasturi Nagar, Bengaluru - KSPCB",27-04-2024 23:00:00,13.003872,77.664217,NO2,16,17,17
India,Karnataka,Bengaluru,"Kasturi Nagar, Bengaluru - KSPCB",27-04-2024 23:00:00,13.003872,77.664217,OZONE,4,99,84
India,Karnataka,Bengaluru,"Peenya, Bengaluru - CPCB",27-04-2024 23:00:00,13.0270199,77.494094,NH3,3,6,4
India,Karnataka,Bengaluru,"Peenya, Bengaluru - CPCB",27-04-2024 23:00:00,13.0270199,77.494094,CO,34,42,37
India,Karnataka,Bengaluru,"Peenya, Bengaluru - CPCB",27-04-2024 23:00:00,13.0270199,77.494094,OZONE,22,44,28
India,Karnataka,Bengaluru,"Shivapura_Peenya, Bengaluru - KSPCB",27-04-2024 23:00:00,13.0246342,77.5080115,PM2.5,13,237,71
India,Karnataka,Bengaluru,"Silk Board, Bengaluru - KSPCB",27-04-2024 23:00:00,12.917348,77.622813,PM2.5,45,119,81
India,Karnataka,Bengaluru,"Silk Board, Bengaluru - KSPCB",27-04-2024 23:00:00,12.917348,77.622813,PM10,61,133,104
India,Karnataka,Bidar,"Naubad, Bidar - KSPCB",27-04-2024 23:00:00,17.930306,77.482194,NO2,NA,NA,NA
India,Karnataka,Chamarajanagar,"Urban, Chamarajanagar - KSPCB",27-04-2024 23:00:00,11.55358,76.55521,NO2,17,23,22
India,Karnataka,Chamarajanagar,"Urban, Chamarajanagar - KSPCB",27-04-2024 23:00:00,11.55358,76.55521,OZONE,14,29,18
India,Karnataka,Chikkaballapur,"Chikkaballapur Rural, Chikkaballapur - KSPCB",27-04-2024 23:00:00,13.428828,77.731418,PM10,50,125,78
India,Karnataka,Davanagere,"Devaraj Urs Badavane, Davanagere - KSPCB",27-04-2024 23:00:00,14.475800,75.905200,OZONE,20,24,22
India,Karnataka,Dharwad,"Kalabhavan, Dharwad - KSPCB",27-04-2024 23:00:00,15.459706,75.008381,PM2.5,48,113,71
India,Karnataka,Dharwad,"Kalabhavan, Dharwad - KSPCB",27-04-2024 23:00:00,15.459706,75.008381,NH3,3,3,3
India,Karnataka,Dharwad,"Kalabhavan, Dharwad - KSPCB",27-04-2024 23:00:00,15.459706,75.008381,OZONE,2,22,2
India,Karnataka,Gadag,"Panchal Nagar, Gadag - KSPCB",27-04-2024 23:00:00,15.411456,75.638133,PM10,32,54,44
India,Karnataka,Gadag,"Panchal Nagar, Gadag - KSPCB",27-04-2024 23:00:00,15.411456,75.638133,NO2,6,49,15
India,Karnataka,Gadag,"Panchal Nagar, Gadag - KSPCB",27-04-2024 23:00:00,15.411456,75.638133,NH3,1,3,2
India,Karnataka,Gadag,"Panchal Nagar, Gadag - KSPCB",27-04-2024 23:00:00,15.411456,75.638133,CO,44,57,48
India,Karnataka,Hubballi,"Deshpande Nagar, Hubballi - KSPCB",27-04-2024 23:00:00,15.351773,75.140726,PM10,NA,NA,NA
India,Karnataka,Hubballi,"Lingaraj Nagar, Hubballi - KSPCB",27-04-2024 23:00:00,15.3714823,75.1160168,NO2,6,6,6
India,Karnataka,Kalaburagi,"Lal Bahadur Shastri Nagar, Kalaburagi - KSPCB",27-04-2024 23:00:00,17.321993,76.822628,PM2.5,12,152,55
India,Karnataka,Kalaburagi,"Lal Bahadur Shastri Nagar, Kalaburagi - KSPCB",27-04-2024 23:00:00,17.321993,76.822628,NH3,2,3,2
India,Karnataka,Kalaburagi,"Mahatma Basaveswar Colony, Kalaburgi - KSPCB",27-04-2024 23:00:00,17.336318,76.847397,PM2.5,NA,NA,NA
India,Karnataka,Kolar,"Tamaka Ind. Area, Kolar - KSPCB",27-04-2024 23:00:00,13.1276288,78.1570122,NH3,NA,NA,NA
India,Karnataka,Kolar,"Tamaka Ind. Area, Kolar - KSPCB",27-04-2024 23:00:00,13.1276288,78.1570122,SO2,NA,NA,NA
India,Karnataka,Kolar,"Tamaka Ind. Area, Kolar - KSPCB",27-04-2024 23:00:00,13.1276288,78.1570122,OZONE,14,16,15
India,Karnataka,Koppal,"Diwator Nagar, Koppal - KSPCB",27-04-2024 23:00:00,15.347630,76.181767,NO2,22,67,48
India,Karnataka,Madikeri,"Stuart Hill, Madikeri - KSPCB",27-04-2024 23:00:00,12.415911,75.735050,PM2.5,15,68,35
India,Karnataka,Madikeri,"Stuart Hill, Madikeri - KSPCB",27-04-2024 23:00:00,12.415911,75.735050,NO2,1,16,6
India,Karnataka,Madikeri,"Stuart Hill, Madikeri - KSPCB",27-04-2024 23:00:00,12.415911,75.735050,CO,8,172,45
India,Karnataka,Mysuru,"Hebbal 1st Stage, Mysuru - KSPCB",27-04-2024 23:00:00,12.21041,76.37376,SO2,1,3,2
India,Karnataka,Mysuru,"Hebbal 1st Stage, Mysuru - KSPCB",27-04-2024 23:00:00,12.21041,76.37376,CO,6,32,16
India,Karnataka,Ramanagara,"Vijay Nagar, Ramanagara - KSPCB",27-04-2024 23:00:00,12.733409,77.298051,PM2.5,31,95,65
India,Karnataka,Ramanagara,"Vijay Nagar, Ramanagara - KSPCB",27-04-2024 23:00:00,12.733409,77.298051,NH3,1,2,1
India,Karnataka,Shivamogga,"Vinoba Nagara, Shivamogga - KSPCB",27-04-2024 23:00:00,13.940000,75.555917,NO2,10,18,13
India,Karnataka,Shivamogga,"Vinoba Nagara, Shivamogga - KSPCB",27-04-2024 23:00:00,13.940000,75.555917,SO2,2,10,4
India,Karnataka,Tumakuru,"Thimmalapura, Tumakuru - KSPCB",27-04-2024 23:00:00,13.377516,77.099072,PM10,96,161,123
India,Karnataka,Vijayapura,"Ibrahimpur, Vijayapura - KSPCB",27-04-2024 23:00:00,16.802639,75.722694,NO2,17,19,19
India,Karnataka,Vijayapura,"Ibrahimpur, Vijayapura - KSPCB",27-04-2024 23:00:00,16.802639,75.722694,SO2,2,107,34
India,Karnataka,Yadgir,"Collector Office, Yadgir - KSPCB",27-04-2024 23:00:00,16.7602,77.1428,CO,10,26,18
India,Karnataka,Yadgir,"Collector Office, Yadgir - KSPCB",27-04-2024 23:00:00,16.7602,77.1428,OZONE,18,19,19
India,Kerala,Eloor,"Udyogamandal, Eloor - Kerala PCB",27-04-2024 23:00:00,10.073232,76.302765,NO2,4,5,4
India,Kerala,Kannur,"Thavakkara, Kannur - Kerala PCB",27-04-2024 23:00:00,11.875000,75.373200,OZONE,31,36,32
India,Kerala,Kollam,"Polayathode, Kollam - Kerala PCB",27-04-2024 23:00:00,8.8787,76.6073,PM2.5,87,194,125
India,Kerala,Kollam,"Polayathode, Kollam - Kerala PCB",27-04-2024 23:00:00,8.8787,76.6073,NH3,1,1,1
India,Kerala,Thiruvananthapuram,"Kariavattom, Thiruvananthapuram - Kerala PCB",27-04-2024 23:00:00,8.563700,76.886500,CO,18,40,23
India,Madhya Pradesh,Gwalior,"City Center, Gwalior - MPPCB",27-04-2024 23:00:00,26.203442,78.193251,PM10,NA,NA,NA
India,Madhya Pradesh,Gwalior,"Deen Dayal Nagar, Gwalior - MPPCB",27-04-2024 23:00:00,26.259242,78.216432,NO2,9,43,18
India,Madhya Pradesh,Gwalior,"Maharaj Bada, Gwalior - MPPCB",27-04-2024 23:00:00,26.200388,78.147714,NO2,10,36,18
India,Madhya Pradesh,Indore,"Chhoti Gwaltoli, Indore - MPPCB",27-04-2024 23:00:00,22.4310,75.5213,PM10,66,128,93
India,Madhya Pradesh,Indore,"Chhoti Gwaltoli, Indore - MPPCB",27-04-2024 23:00:00,22.4310,75.5213,OZONE,18,104,56
India,Madhya Pradesh,Indore,"Maguda Nagar, Indore - IMC",27-04-2024 23:00:00,22.7524,75.8872,NH3,1,2,1
India,Madhya Pradesh,Indore,"Maguda Nagar, Indore - IMC",27-04-2024 23:00:00,22.7524,75.8872,SO2,23,35,29
India,Madhya Pradesh,Indore,"Regional Park, Indore - IMC",27-04-2024 23:00:00,22.6780,75.8559,NH3,NA,NA,NA
India,Madhya Pradesh,Indore,"Regional Park, Indore - IMC",27-04-2024 23:00:00,22.6780,75.8559,OZONE,11,24,16
India,Madhya Pradesh,Indore,"Residency Area, Indore - IMC",27-04-2024 23:00:00,22.7084,75.8815,NH3,NA,NA,NA
India,Madhya Pradesh,Indore,"Residency Area, Indore - IMC",27-04-2024 23:00:00,22.7084,75.8815,SO2,25,30,28
India,Madhya Pradesh,Indore,"Residency Area, Indore - IMC",27-04-2024 23:00:00,22.7084,75.8815,OZONE,9,18,13
India,Madhya Pradesh,Jabalpur,"Govindh Bhavan Colony, Jabalpur - JMC",27-04-2024 23:00:00,23.163174,79.973061,PM10,12,80,37
India,Madhya Pradesh,Jabalpur,"Gupteshwar, Jabalpur - JMC",27-04-2024 23:00:00,23.142888,79.916147,CO,20,114,70
India,Madhya Pradesh,Jabalpur,"Marhatal, Jabalpur - MPPCB",27-04-2024 23:00:00,23.168606,79.932247,PM10,43,202,88
India,Madhya Pradesh,Jabalpur,"Suhagi, Jabalpur - JMC",27-04-2024 23:00:00,23.218135,79.957770,OZONE,1,184,74
India,Madhya Pradesh,Katni,"Gole Bazar, Katni - MPPCB",27-04-2024 23:00:00,23.50016,80.23284,PM2.5,29,94,50
India,Madhya Pradesh,Katni,"Gole Bazar, Katni - MPPCB",27-04-2024 23:00:00,23.50016,80.23284,OZONE,7,96,63
India,Madhya Pradesh,Mandideep,"Sector-D Industrial Area, Mandideep - MPPCB",27-04-2024 23:00:00,23.108440,77.511428,OZONE,11,44,33
