country,state,city,station,last_update,latitude,longitude,pollutant_id,pollutant_min,pollutant_max,pollutant_avg
India,Andhra_Pradesh,Amaravati,"Secretariat, Amaravati - APPCB",24-04-2024 07:00:00,16.5150833,80.5181667,CO,2,101,11
India,Andhra_Pradesh,Anantapur,"Gulzarpet, Anantapur - APPCB",24-04-2024 07:00:00,14.675886,77.593027,SO2,6,16,10
India,Andhra_Pradesh,Chittoor,"Gangineni Cheruvu, Chittoor - APPCB",24-04-2024 07:00:00,13.204880,79.097889,CO,4,24,19
India,Andhra_Pradesh,Kadapa,"Yerramukkapalli, Kadapa - APPCB",24-04-2024 07:00:00,14.465052,78.824187,PM2.5,11,248,44
India,Andhra_Pradesh,Rajamahendravaram,"Anand Kala Kshetram, Rajamahendravaram - APPCB",24-04-2024 07:00:00,16.9872867,81.7363176,PM2.5,6,61,28
India,Andhra_Pradesh,Rajamahendravaram,"Anand Kala Kshetram, Rajamahendravaram - APPCB",24-04-2024 07:00:00,16.9872867,81.7363176,PM10,20,87,47
India,Andhra_Pradesh,Rajamahendravaram,"Anand Kala Kshetram, Rajamahendravaram - APPCB",24-04-2024 07:00:00,16.9872867,81.7363176,NO2,3,22,10
India,Andhra_Pradesh,Tirupati,"Tirumala, Tirupati - APPCB",24-04-2024 07:00:00,13.67,79.35,NO2,20,44,28
India,Andhra_Pradesh,Tirupati,"Tirumala, Tirupati - APPCB",24-04-2024 07:00:00,13.67,79.35,OZONE,24,69,39
India,Andhra_Pradesh,Tirupati,"Vaikuntapuram, Tirupati - APPCB",24-04-2024 07:00:00,13.615387,79.409230,PM2.5,13,86,43
India,Andhra_Pradesh,Tirupati,"Vaikuntapuram, Tirupati - APPCB",24-04-2024 07:00:00,13.615387,79.409230,NH3,2,3,3
India,Andhra_Pradesh,Vijayawada,"HB Colony, Vijayawada - APPCB",24-04-2024 07:00:00,16.536107,80.594233,NO2,4,15,6
India,Andhra_Pradesh,Vijayawada,"HB Colony, Vijayawada - APPCB",24-04-2024 07:00:00,16.536107,80.594233,OZONE,12,89,27
India,Andhra_Pradesh,Vijayawada,"Rajiv Gandhi Park, Vijayawada - APPCB",24-04-2024 07:00:00,16.509717,80.612222,OZONE,44,51,49
India,Andhra_Pradesh,Vijayawada,"Rajiv Nagar, Vijayawada - APPCB",24-04-2024 07:00:00,16.554731,80.649110,PM10,59,89,64
India,Andhra_Pradesh,Visakhapatnam,"GVM Corporation, Visakhapatnam - APPCB",24-04-2024 07:00:00,17.72,83.3,SO2,7,19,13
India,Arunachal_Pradesh,Naharlagun,"Naharlagun, Naharlagun - APSPCB",24-04-2024 07:00:00,27.103358,93.679645,CO,NA,NA,NA
India,Assam,Guwahati,"LGBI Airport, Guwahati - PCBA",24-04-2024 07:00:00,26.10887,91.589544,PM2.5,42,311,130
India,Assam,Guwahati,"LGBI Airport, Guwahati - PCBA",24-04-2024 07:00:00,26.10887,91.589544,SO2,9,12,10
India,Assam,Guwahati,"Pan Bazaar, Guwahati - PCBA",24-04-2024 07:00:00,26.187500,91.744194,PM2.5,NA,NA,NA
India,Assam,Guwahati,"Pan Bazaar, Guwahati - PCBA",24-04-2024 07:00:00,26.187500,91.744194,SO2,NA,NA,NA
India,Assam,Guwahati,"Railway Colony, Guwahati - PCBA",24-04-2024 07:00:00,26.181742,91.78063,SO2,16,22,18
India,Assam,Guwahati,"Railway Colony, Guwahati - PCBA",24-04-2024 07:00:00,26.181742,91.78063,OZONE,4,38,20
India,Assam,Nagaon,"Christianpatty, Nagaon - PCBA",24-04-2024 07:00:00,26.349082,92.68449,NO2,3,49,15
India,Assam,Nalbari,"Bata Chowk, Nalbari - PCBA",24-04-2024 07:00:00,26.446912,91.439057,PM10,92,493,231
India,Assam,Nalbari,"Bata Chowk, Nalbari - PCBA",24-04-2024 07:00:00,26.446912,91.439057,CO,38,120,86
India,Assam,Silchar,"Tarapur, Silchar - PCBA",24-04-2024 07:00:00,24.82827,92.79525,OZONE,2,34,5
India,Bihar,Araria,"Kharahiya Basti, Araria - BSPCB",24-04-2024 07:00:00,26.146529,87.454184,PM10,67,306,124
India,Bihar,Arrah,"New DM Office, Arrah - BSPCB",24-04-2024 07:00:00,25.5626095,84.663264,PM10,49,148,89
India,Bihar,Arrah,"New DM Office, Arrah - BSPCB",24-04-2024 07:00:00,25.5626095,84.663264,CO,3,14,9
India,Bihar,Arrah,"New DM Office, Arrah - BSPCB",24-04-2024 07:00:00,25.5626095,84.663264,OZONE,13,48,16
India,Bihar,Aurangabad,"Gurdeo Nagar, Aurangabad - BSPCB",24-04-2024 07:00:00,24.75746,84.366208,PM2.5,NA,NA,NA
India,Bihar,Bettiah,"Kamalnath Nagar, Bettiah - BSPCB",24-04-2024 07:00:00,26.80365,84.51954,PM10,75,170,118
India,Bihar,Bettiah,"Kamalnath Nagar, Bettiah - BSPCB",24-04-2024 07:00:00,26.80365,84.51954,NH3,3,7,5
India,Bihar,Bettiah,"Kamalnath Nagar, Bettiah - BSPCB",24-04-2024 07:00:00,26.80365,84.51954,SO2,10,23,15
India,Bihar,Bhagalpur,"DM Office_Kachari Chowk, Bhagalpur - BSPCB",24-04-2024 07:00:00,25.251013,86.989001,PM2.5,NA,NA,NA
India,Bihar,Bhagalpur,"DM Office_Kachari Chowk, Bhagalpur - BSPCB",24-04-2024 07:00:00,25.251013,86.989001,CO,17,96,34
India,Bihar,Bhagalpur,"Mayaganj, Bhagalpur - BSPCB",24-04-2024 07:00:00,25.265194,87.012947,OZONE,30,97,39
India,Bihar,Bihar Sharif,"D M Colony, Bihar Sharif - BSPCB",24-04-2024 07:00:00,25.204762,85.514960,PM2.5,10,67,36
India,Bihar,Bihar Sharif,"D M Colony, Bihar Sharif - BSPCB",24-04-2024 07:00:00,25.204762,85.514960,OZONE,25,87,57
India,Bihar,Chhapra,"Darshan Nagar, Chhapra - BSPCB",24-04-2024 07:00:00,25.7808257,84.7446768,PM10,70,138,105
India,Bihar,Gaya,"Collectorate, Gaya - BSPCB",24-04-2024 07:00:00,24.7955,84.9994,SO2,5,35,15
India,Bihar,Gaya,"Collectorate, Gaya - BSPCB",24-04-2024 07:00:00,24.7955,84.9994,OZONE,46,81,64
India,Bihar,Gaya,"Kareemganj, Gaya - BSPCB",24-04-2024 07:00:00,24.792403,84.992416,PM2.5,2,42,24
India,Bihar,Gaya,"Kareemganj, Gaya - BSPCB",24-04-2024 07:00:00,24.792403,84.992416,OZONE,2,26,15
India,Bihar,Gaya,"SFTI Kusdihra, Gaya - BSPCB",24-04-2024 07:00:00,24.762518,84.982348,OZONE,1,64,16
India,Bihar,Hajipur,"Industrial Area, Hajipur - BSPCB",24-04-2024 07:00:00,25.697189,85.245900,PM10,128,366,215
India,Bihar,Hajipur,"Industrial Area, Hajipur - BSPCB",24-04-2024 07:00:00,25.697189,85.245900,NO2,54,68,61
India,Bihar,Katihar,"Mirchaibari, Katihar - BSPCB",24-04-2024 07:00:00,25.560083,87.553265,NH3,5,9,7
India,Bihar,Katihar,"Mirchaibari, Katihar - BSPCB",24-04-2024 07:00:00,25.560083,87.553265,OZONE,11,21,12
India,Bihar,Manguraha,"Forest Rest House, Manguraha - BSPCB",24-04-2024 07:00:00,27.308328,84.531742,PM2.5,NA,NA,NA
India,Bihar,Manguraha,"Forest Rest House, Manguraha - BSPCB",24-04-2024 07:00:00,27.308328,84.531742,NH3,NA,NA,NA
India,Bihar,Motihari,"Gandak Colony, Motihari - BSPCB",24-04-2024 07:00:00,26.63086,84.90051,SO2,2,12,6
India,Bihar,Munger,"Town Hall, Munger - BSPCB",24-04-2024 07:00:00,25.376776,86.471523,OZONE,27,156,29
India,Bihar,Patna,"DRM Office Danapur, Patna - BSPCB",24-04-2024 07:00:00,25.586562,85.043586,NO2,7,103,36
India,Bihar,Patna,"Govt. High School Shikarpur, Patna - BSPCB",24-04-2024 07:00:00,25.592539,85.227158,PM10,91,252,159
India,Bihar,Patna,"Govt. High School Shikarpur, Patna - BSPCB",24-04-2024 07:00:00,25.592539,85.227158,NO2,17,26,21
India,Bihar,Patna,"Govt. High School Shikarpur, Patna - BSPCB",24-04-2024 07:00:00,25.592539,85.227158,SO2,9,12,10
India,Bihar,Patna,"IGSC Planetarium Complex, Patna - BSPCB",24-04-2024 07:00:00,25.610369,85.132568,SO2,5,6,5
India,Bihar,Patna,"IGSC Planetarium Complex, Patna - BSPCB",24-04-2024 07:00:00,25.610369,85.132568,CO,12,14,12
India,Bihar,Patna,"Muradpur, Patna - BSPCB",24-04-2024 07:00:00,25.619651,85.147382,PM2.5,113,344,294
India,Bihar,Patna,"Muradpur, Patna - BSPCB",24-04-2024 07:00:00,25.619651,85.147382,PM10,108,470,303
India,Bihar,Patna,"Samanpura, Patna - BSPCB",24-04-2024 07:00:00,25.596727,85.085624,SO2,5,15,8
India,Bihar,Purnia,"Mariam Nagar, Purnia - BSPCB",24-04-2024 07:00:00,25.366336,87.117468,PM2.5,5,92,41
India,Bihar,Purnia,"Mariam Nagar, Purnia - BSPCB",24-04-2024 07:00:00,25.366336,87.117468,CO,16,66,52
India,Bihar,Rajgir,"Dangi Tola, Rajgir - BSPCB",24-04-2024 07:00:00,25.03280,85.41948,PM2.5,NA,NA,NA
India,Bihar,Saharsa,"Police Line, Saharsa - BSPCB",24-04-2024 07:00:00,25.892357,86.590325,NO2,6,8,7
India,Bihar,Sasaram,"Dada Peer, Sasaram - BSPCB",24-04-2024 07:00:00,24.952822,84.002396,PM10,37,117,81
India,Chandigarh,Chandigarh,"Sector 22, Chandigarh - CPCC",24-04-2024 07:00:00,30.735567,76.775714,PM10,26,173,79
India,Chandigarh,Chandigarh,"Sector-25, Chandigarh - CPCC",24-04-2024 07:00:00,30.751462,76.762879,NH3,12,31,19
India,Chandigarh,Chandigarh,"Sector-53, Chandigarh - CPCC",24-04-2024 07:00:00,30.719859,76.738637,NO2,13,111,52
India,Chandigarh,Chandigarh,"Sector-53, Chandigarh - CPCC",24-04-2024 07:00:00,30.719859,76.738637,CO,22,124,63
India,Chandigarh,Chandigarh,"Sector-53, Chandigarh - CPCC",24-04-2024 07:00:00,30.719859,76.738637,OZONE,3,50,9
India,Chhattisgarh,Bhilai,"32Bungalows, Bhilai - CECB",24-04-2024 07:00:00,21.194815,81.314770,CO,14,44,23
India,Chhattisgarh,Bhilai,"32Bungalows, Bhilai - CECB",24-04-2024 07:00:00,21.194815,81.314770,OZONE,6,53,7
India,Chhattisgarh,Bhilai,"Civic Center, Bhilai - Bhilai Steel Plant",24-04-2024 07:00:00,21.185571,81.343175,PM2.5,15,43,24
India,Chhattisgarh,Bhilai,"Civic Center, Bhilai - Bhilai Steel Plant",24-04-2024 07:00:00,21.185571,81.343175,NO2,15,16,16
India,Chhattisgarh,Bhilai,"Civic Center, Bhilai - Bhilai Steel Plant",24-04-2024 07:00:00,21.185571,81.343175,NH3,3,5,4
India,Chhattisgarh,Bhilai,"Civic Center, Bhilai - Bhilai Steel Plant",24-04-2024 07:00:00,21.185571,81.343175,SO2,8,11,10
India,Chhattisgarh,Bhilai,"Hathkhoj, Bhilai - CECB",24-04-2024 07:00:00,21.224231,81.408350,NH3,7,9,8
India,Chhattisgarh,Bilaspur,"Mangala, Bilaspur - NTPC",24-04-2024 07:00:00,22.08815,82.13737,PM10,16,71,44
India,Chhattisgarh,Bilaspur,"Mangala, Bilaspur - NTPC",24-04-2024 07:00:00,22.08815,82.13737,SO2,9,20,15
India,Chhattisgarh,Chhal,"Nawapara SECL Colony, Chhal - CECB",24-04-2024 07:00:00,22.118125,83.140608,PM2.5,21,60,40
India,Chhattisgarh,Korba,"Rampur, Korba - CECB",24-04-2024 07:00:00,22.368195,82.746431,PM2.5,18,28,23
India,Chhattisgarh,Korba,"Rampur, Korba - CECB",24-04-2024 07:00:00,22.368195,82.746431,PM10,27,65,45
India,Chhattisgarh,Korba,"Rampur, Korba - CECB",24-04-2024 07:00:00,22.368195,82.746431,NO2,26,55,46
India,Chhattisgarh,Korba,"Rampur, Korba - CECB",24-04-2024 07:00:00,22.368195,82.746431,NH3,1,1,1
India,Chhattisgarh,Korba,"Rampur, Korba - CECB",24-04-2024 07:00:00,22.368195,82.746431,CO,16,29,22
India,Chhattisgarh,Korba,"Urja Nagar, Korba - CECB",24-04-2024 07:00:00,22.348441,82.549611,PM10,NA,NA,NA
India,Chhattisgarh,Korba,"Urja Nagar, Korba - CECB",24-04-2024 07:00:00,22.348441,82.549611,CO,19,103,36
India,Chhattisgarh,Raipur,"AIIMS, Raipur - CECB",24-04-2024 07:00:00,21.258815,81.578979,CO,22,82,30
India,Chhattisgarh,Raipur,"Bhatagaon New ISBT, Raipur - CECB",24-04-2024 07:00:00,21.219665,81.630094,SO2,1,3,2
India,Chhattisgarh,Raipur,"Bhatagaon New ISBT, Raipur - CECB",24-04-2024 07:00:00,21.219665,81.630094,CO,16,104,36
India,Chhattisgarh,Raipur,"Krishak Nagar, Raipur - CECB",24-04-2024 07:00:00,21.237755,81.705301,PM2.5,16,55,29
India,Chhattisgarh,Raipur,"Krishak Nagar, Raipur - CECB",24-04-2024 07:00:00,21.237755,81.705301,PM10,19,110,48
India,Chhattisgarh,Raipur,"Krishak Nagar, Raipur - CECB",24-04-2024 07:00:00,21.237755,81.705301,NO2,16,17,17
India,Chhattisgarh,Raipur,"Krishak Nagar, Raipur - CECB",24-04-2024 07:00:00,21.237755,81.705301,OZONE,1,54,3
India,Chhattisgarh,Raipur,"Siltara Phase-II, Raipur - CECB",24-04-2024 07:00:00,21.371751,81.664929,NH3,3,3,3
India,Chhattisgarh,Raipur,"Siltara Phase-II, Raipur - CECB",24-04-2024 07:00:00,21.371751,81.664929,SO2,8,57,19
India,Chhattisgarh,Raipur,"Siltara Phase-II, Raipur - CECB",24-04-2024 07:00:00,21.371751,81.664929,CO,16,54,27
India,Chhattisgarh,Tumidih,"OP Jindal Industrial Park, Tumidih - CECB",24-04-2024 07:00:00,22.06631475,83.33820077,NO2,13,53,31
India,Delhi,Delhi,"Alipur, Delhi - DPCC",24-04-2024 07:00:00,28.815329,77.153010,CO,36,90,67
India,Delhi,Delhi,"Anand Vihar, Delhi - DPCC",24-04-2024 07:00:00,28.647622,77.3158090,PM10,149,497,254
India,Delhi,Delhi,"Anand Vihar, Delhi - DPCC",24-04-2024 07:00:00,28.647622,77.3158090,NO2,55,140,109
India,Delhi,Delhi,"Ashok Vihar, Delhi - DPCC",24-04-2024 07:00:00,28.695381,77.181665,CO,13,75,53
India,Delhi,Delhi,"Ashok Vihar, Delhi - DPCC",24-04-2024 07:00:00,28.695381,77.181665,OZONE,2,81,2
India,Delhi,Delhi,"Aya Nagar, Delhi - IMD",24-04-2024 07:00:00,28.4706914,77.1099364,OZONE,1,45,1
India,Delhi,Delhi,"Bawana, Delhi - DPCC",24-04-2024 07:00:00,28.776200,77.051074,CO,8,74,59
India,Delhi,Delhi,"Bawana, Delhi - DPCC",24-04-2024 07:00:00,28.776200,77.051074,OZONE,2,165,4
India,Delhi,Delhi,"Burari Crossing, Delhi - IMD",24-04-2024 07:00:00,28.7256504,77.2011573,PM2.5,16,307,153
India,Delhi,Delhi,"CRRI Mathura Road, Delhi - IMD",24-04-2024 07:00:00,28.5512005,77.2735737,NO2,NA,NA,NA
India,Delhi,Delhi,"Chandni Chowk, Delhi - IITM",24-04-2024 07:00:00,28.656756,77.227234,CO,38,50,46
India,Delhi,Delhi,"DTU, Delhi - CPCB",24-04-2024 07:00:00,28.7500499,77.1112615,PM2.5,98,478,232
India,Delhi,Delhi,"Dr. Karni Singh Shooting Range, Delhi - DPCC",24-04-2024 07:00:00,28.498571,77.264840,PM2.5,38,123,73
India,Delhi,Delhi,"Dwarka-Sector 8, Delhi - DPCC ",24-04-2024 07:00:00,28.5710274,77.0719006,PM10,NA,NA,NA
India,Delhi,Delhi,"Dwarka-Sector 8, Delhi - DPCC ",24-04-2024 07:00:00,28.5710274,77.0719006,CO,NA,NA,NA
India,Delhi,Delhi,"IGI Airport (T3), Delhi - IMD",24-04-2024 07:00:00,28.5627763,77.1180053,NO2,6,16,11
India,Delhi,Delhi,"IGI Airport (T3), Delhi - IMD",24-04-2024 07:00:00,28.5627763,77.1180053,OZONE,5,61,8
India,Delhi,Delhi,"IHBAS, Dilshad Garden, Delhi - CPCB",24-04-2024 07:00:00,28.6811736,77.3025234,PM2.5,67,178,92
India,Delhi,Delhi,"IHBAS, Dilshad Garden, Delhi - CPCB",24-04-2024 07:00:00,28.6811736,77.3025234,NH3,5,10,9
India,Delhi,Delhi,"Jahangirpuri, Delhi - DPCC",24-04-2024 07:00:00,28.732820,77.170633,CO,45,108,92
India,Delhi,Delhi,"Jawaharlal Nehru Stadium, Delhi - DPCC",24-04-2024 07:00:00,28.580280,77.233829,PM10,86,495,156
India,Delhi,Delhi,"Jawaharlal Nehru Stadium, Delhi - DPCC",24-04-2024 07:00:00,28.580280,77.233829,NO2,34,137,87
India,Delhi,Delhi,"Lodhi Road, Delhi - IITM",24-04-2024 07:00:00,28.588333,77.221667,NH3,7,10,9
India,Delhi,Delhi,"Lodhi Road, Delhi - IITM",24-04-2024 07:00:00,28.588333,77.221667,CO,60,68,67
India,Delhi,Delhi,"Lodhi Road, Delhi - IMD",24-04-2024 07:00:00,28.5918245,77.2273074,PM10,52,395,124
India,Delhi,Delhi,"Lodhi Road, Delhi - IMD",24-04-2024 07:00:00,28.5918245,77.2273074,NO2,5,17,10
India,Delhi,Delhi,"Major Dhyan Chand National Stadium, Delhi - DPCC",24-04-2024 07:00:00,28.611281,77.237738,PM10,68,429,167
India,Delhi,Delhi,"Major Dhyan Chand National Stadium, Delhi - DPCC",24-04-2024 07:00:00,28.611281,77.237738,OZONE,2,255,2
India,Delhi,Delhi,"Mandir Marg, Delhi - DPCC",24-04-2024 07:00:00,28.636429,77.201067,PM10,66,324,125
India,Delhi,Delhi,"Mandir Marg, Delhi - DPCC",24-04-2024 07:00:00,28.636429,77.201067,SO2,3,29,10
India,Delhi,Delhi,"Mundka, Delhi - DPCC",24-04-2024 07:00:00,28.684678,77.076574,PM10,33,500,252
India,Delhi,Delhi,"NSIT Dwarka, Delhi - CPCB",24-04-2024 07:00:00,28.60909,77.0325413,NO2,17,44,32
India,Delhi,Delhi,"NSIT Dwarka, Delhi - CPCB",24-04-2024 07:00:00,28.60909,77.0325413,NH3,10,21,16
India,Delhi,Delhi,"Narela, Delhi - DPCC",24-04-2024 07:00:00,28.822836,77.101981,PM10,103,483,250
India,Delhi,Delhi,"Narela, Delhi - DPCC",24-04-2024 07:00:00,28.822836,77.101981,SO2,5,104,32
India,Delhi,Delhi,"Nehru Nagar, Delhi - DPCC",24-04-2024 07:00:00,28.567890,77.250515,NO2,7,20,11
India,Delhi,Delhi,"Okhla Phase-2, Delhi - DPCC",24-04-2024 07:00:00,28.530785,77.271255,PM2.5,39,189,72
India,Delhi,Delhi,"Okhla Phase-2, Delhi - DPCC",24-04-2024 07:00:00,28.530785,77.271255,NH3,6,11,8
India,Delhi,Delhi,"Okhla Phase-2, Delhi - DPCC",24-04-2024 07:00:00,28.530785,77.271255,OZONE,8,142,13
India,Delhi,Delhi,"Patparganj, Delhi - DPCC",24-04-2024 07:00:00,28.623763,77.287209,NH3,6,11,9
India,Delhi,Delhi,"Punjabi Bagh, Delhi - DPCC",24-04-2024 07:00:00,28.674045,77.131023,PM10,77,441,204
India,Delhi,Delhi,"Pusa, Delhi - DPCC",24-04-2024 07:00:00,28.639652,77.146275,PM2.5,22,160,77
India,Delhi,Delhi,"Pusa, Delhi - DPCC",24-04-2024 07:00:00,28.639652,77.146275,PM10,72,308,176
India,Delhi,Delhi,"Pusa, Delhi - DPCC",24-04-2024 07:00:00,28.639652,77.146275,SO2,6,28,15
India,Delhi,Delhi,"Pusa, Delhi - IMD",24-04-2024 07:00:00,28.636110,77.173332,CO,83,104,102
India,Delhi,Delhi,"Pusa, Delhi - IMD",24-04-2024 07:00:00,28.636110,77.173332,OZONE,1,62,3
India,Delhi,Delhi,"R K Puram, Delhi - DPCC",24-04-2024 07:00:00,28.563262,77.186937,PM2.5,55,336,142
India,Delhi,Delhi,"Rohini, Delhi - DPCC",24-04-2024 07:00:00,28.732528,77.119920,OZONE,7,217,8
India,Delhi,Delhi,"Shadipur, Delhi - CPCB",24-04-2024 07:00:00,28.6514781,77.1473105,PM10,113,500,218
India,Delhi,Delhi,"Shadipur, Delhi - CPCB",24-04-2024 07:00:00,28.6514781,77.1473105,NO2,47,83,64
India,Delhi,Delhi,"Shadipur, Delhi - CPCB",24-04-2024 07:00:00,28.6514781,77.1473105,OZONE,56,91,81
India,Delhi,Delhi,"Sirifort, Delhi - CPCB",24-04-2024 07:00:00,28.5504249,77.2159377,CO,12,107,68
India,Delhi,Delhi,"Sonia Vihar, Delhi - DPCC",24-04-2024 07:00:00,28.710508,77.249485,NO2,15,119,56
India,Delhi,Delhi,"Sri Aurobindo Marg, Delhi - DPCC",24-04-2024 07:00:00,28.531346,77.190156,SO2,6,25,15
India,Delhi,Delhi,"Vivek Vihar, Delhi - DPCC",24-04-2024 07:00:00,28.672342,77.315260,NO2,31,110,72
India,Delhi,Delhi,"Vivek Vihar, Delhi - DPCC",24-04-2024 07:00:00,28.672342,77.315260,OZONE,1,164,6
India,Delhi,Delhi,"Wazirpur, Delhi - DPCC",24-04-2024 07:00:00,28.699793,77.165453,NH3,12,13,12
India,Delhi,Delhi,"Wazirpur, Delhi - DPCC",24-04-2024 07:00:00,28.699793,77.165453,CO,53,115,109
India,Gujarat,Ahmedabad,"Chandkheda, Ahmedabad - IITM",24-04-2024 07:00:00,23.107969,72.574648,SO2,2,28,9
India,Gujarat,Ahmedabad,"Chandkheda, Ahmedabad - IITM",24-04-2024 07:00:00,23.107969,72.574648,CO,4,91,62
India,Gujarat,Ahmedabad,"Gyaspur, Ahmedabad - IITM",24-04-2024 07:00:00,22.977134,72.553024,CO,32,70,45
India,Gujarat,Ahmedabad,"Maninagar, Ahmedabad - GPCB",24-04-2024 07:00:00,23.002657,72.591912,PM2.5,30,265,77
India,Gujarat,Ahmedabad,"Raikhad, Ahmedabad - IITM",24-04-2024 07:00:00,23.020509,72.579261,NO2,38,57,46
India,Gujarat,Ahmedabad,"Raikhad, Ahmedabad - IITM",24-04-2024 07:00:00,23.020509,72.579261,OZONE,7,35,13
India,Gujarat,Ahmedabad,"Rakhial, Ahmedabad - IITM",24-04-2024 07:00:00,23.016834,72.625775,SO2,5,51,15
India,Gujarat,Ahmedabad,"Rakhial, Ahmedabad - IITM",24-04-2024 07:00:00,23.016834,72.625775,OZONE,4,38,25
India,Gujarat,Ahmedabad,"SAC ISRO Satellite, Ahmedabad - IITM",24-04-2024 07:00:00,23.023389,72.515201,PM2.5,116,119,117
India,Gujarat,Ahmedabad,"SAC ISRO Satellite, Ahmedabad - IITM",24-04-2024 07:00:00,23.023389,72.515201,NO2,17,17,17
India,Gujarat,Ahmedabad,"SAC ISRO Satellite, Ahmedabad - IITM",24-04-2024 07:00:00,23.023389,72.515201,NH3,3,4,3
India,Gujarat,Ahmedabad,"Sardar Vallabhbhai Patel Stadium, Ahmedabad - IITM",24-04-2024 07:00:00,23.043070,72.562968,PM10,80,130,103
India,Gujarat,Ahmedabad,"Sardar Vallabhbhai Patel Stadium, Ahmedabad - IITM",24-04-2024 07:00:00,23.043070,72.562968,OZONE,4,45,12
India,Gujarat,Gandhinagar,"IIPHG Lekawada, Gandhinagar - IITM",24-04-2024 07:00:00,23.243639,72.68994,PM10,NA,NA,NA
India,Gujarat,Gandhinagar,"IIPHG Lekawada, Gandhinagar - IITM",24-04-2024 07:00:00,23.243639,72.68994,NO2,NA,NA,NA
India,Gujarat,Gandhinagar,"Sector-10, Gandhinagar - GPCB",24-04-2024 07:00:00,23.221714,72.654328,OZONE,2,47,11
India,Gujarat,Nandesari,"GIDC, Nandesari - Nandesari Ind. Association",24-04-2024 07:00:00,22.410802,73.097923,PM10,101,288,172
India,Gujarat,Vapi,"Phase-1 GIDC, Vapi - GPCB",24-04-2024 07:00:00,20.362421,72.918013,PM2.5,29,123,55
India,Gujarat,Vapi,"Phase-1 GIDC, Vapi - GPCB",24-04-2024 07:00:00,20.362421,72.918013,NH3,2,2,2
India,Gujarat,Vatva,"Phase-4 GIDC, Vatva - GPCB",24-04-2024 07:00:00,22.969611,72.643500,NO2,25,98,48
India,Gujarat,Vatva,"Phase-4 GIDC, Vatva - GPCB",24-04-2024 07:00:00,22.969611,72.643500,NH3,NA,NA,NA
India,Haryana,Ambala,"Patti Mehar, Ambala - HSPCB",24-04-2024 07:00:00,30.379589,76.778328,NO2,3,4,4
India,Haryana,Ambala,"Patti Mehar, Ambala - HSPCB",24-04-2024 07:00:00,30.379589,76.778328,SO2,1,28,18
India,Haryana,Bahadurgarh,"Arya Nagar, Bahadurgarh - HSPCB",24-04-2024 07:00:00,28.6701,76.9254,PM2.5,10,90,43
India,Haryana,Bahadurgarh,"Arya Nagar, Bahadurgarh - HSPCB",24-04-2024 07:00:00,28.6701,76.9254,PM10,58,242,145
India,Haryana,Bahadurgarh,"Arya Nagar, Bahadurgarh - HSPCB",24-04-2024 07:00:00,28.6701,76.9254,NO2,12,24,21
India,Haryana,Bhiwani,"H.B. Colony, Bhiwani - HSPCB",24-04-2024 07:00:00,28.806223,76.141105,CO,2,57,36
India,Haryana,Charkhi Dadri,"Mini Secretariat, Charkhi Dadri - HSPCB",24-04-2024 07:00:00,28.593883,76.270653,PM2.5,67,310,131
India,Haryana,Charkhi Dadri,"Mini Secretariat, Charkhi Dadri - HSPCB",24-04-2024 07:00:00,28.593883,76.270653,SO2,6,38,16
India,Haryana,Dharuhera,"Municipal Corporation Office, Dharuhera -  HSPCB",24-04-2024 07:00:00,28.206800,76.799700,PM2.5,66,139,94
India,Haryana,Faridabad,"New Industrial Town, Faridabad - HSPCB",24-04-2024 07:00:00,28.39072,77.30059,OZONE,1,263,12
India,Haryana,Faridabad,"Sector 11, Faridabad - HSPCB",24-04-2024 07:00:00,28.376058,77.315741,PM10,63,401,183
India,Haryana,Faridabad,"Sector 11, Faridabad - HSPCB",24-04-2024 07:00:00,28.376058,77.315741,SO2,2,117,12
India,Haryana,Faridabad,"Sector 30, Faridabad - HSPCB",24-04-2024 07:00:00,28.4417,77.3217,SO2,NA,NA,NA
India,Haryana,Faridabad,"Sector- 16A, Faridabad - HSPCB",24-04-2024 07:00:00,28.4088421,77.3099081,NO2,NA,NA,NA
India,Haryana,Faridabad,"Sector- 16A, Faridabad - HSPCB",24-04-2024 07:00:00,28.4088421,77.3099081,OZONE,NA,NA,NA
India,Haryana,Gurugram,"Sector-51, Gurugram - HSPCB",24-04-2024 07:00:00,28.4227,77.0667,CO,35,82,56
India,Haryana,Gurugram,"Teri Gram, Gurugram - HSPCB",24-04-2024 07:00:00,28.4275,77.1465,PM2.5,2,321,121
India,Haryana,Gurugram,"Teri Gram, Gurugram - HSPCB",24-04-2024 07:00:00,28.4275,77.1465,SO2,4,7,6
India,Haryana,Gurugram,"Vikas Sadan, Gurugram - HSPCB",24-04-2024 07:00:00,28.4501238,77.0263051,PM2.5,8,478,227
India,Haryana,Jind,"Police Lines, Jind - HSPCB",24-04-2024 07:00:00,29.307814,76.337619,NH3,NA,NA,NA
India,Haryana,Jind,"Police Lines, Jind - HSPCB",24-04-2024 07:00:00,29.307814,76.337619,CO,NA,NA,NA
India,Haryana,Jind,"Police Lines, Jind - HSPCB",24-04-2024 07:00:00,29.307814,76.337619,OZONE,NA,NA,NA
India,Haryana,Kaithal,"Rishi Nagar, Kaithal - HSPCB",24-04-2024 07:00:00,29.8006,76.4155,NH3,8,8,8
India,Haryana,Kaithal,"Rishi Nagar, Kaithal - HSPCB",24-04-2024 07:00:00,29.8006,76.4155,SO2,20,56,38
India,Haryana,Kaithal,"Rishi Nagar, Kaithal - HSPCB",24-04-2024 07:00:00,29.8006,76.4155,OZONE,1,19,5
India,Haryana,Karnal,"Sector-12, Karnal - HSPCB",24-04-2024 07:00:00,29.695300,77.002700,SO2,12,13,12
India,Haryana,Kurukshetra,"Sector-7, Kurukshetra - HSPCB",24-04-2024 07:00:00,29.966942,76.875879,PM2.5,41,143,96
India,Haryana,Mandikhera,"General Hospital, Mandikhera - HSPCB",24-04-2024 07:00:00,27.9002,76.9938,NO2,17,23,21
India,Haryana,Mandikhera,"General Hospital, Mandikhera - HSPCB",24-04-2024 07:00:00,27.9002,76.9938,OZONE,21,37,28
India,Haryana,Manesar,"Sector-2 IMT, Manesar - HSPCB",24-04-2024 07:00:00,28.360699,76.936090,PM10,44,125,90
India,Haryana,Narnaul,"Shastri Nagar, Narnaul - HSPCB",24-04-2024 07:00:00,28.060249,76.113115,SO2,12,48,18
India,Haryana,Narnaul,"Shastri Nagar, Narnaul - HSPCB",24-04-2024 07:00:00,28.060249,76.113115,OZONE,25,61,57
India,Haryana,Palwal,"Shyam Nagar, Palwal - HSPCB",24-04-2024 07:00:00,28.1485564,77.3320667,CO,18,106,26
India,Haryana,Panchkula,"Sector-6, Panchkula - HSPCB ",24-04-2024 07:00:00,30.7057778,76.8531805555555,PM2.5,28,123,68
India,Haryana,Rohtak,"MD University, Rohtak - HSPCB",24-04-2024 07:00:00,28.52123,76.37138,NO2,48,56,51
India,Haryana,Rohtak,"MD University, Rohtak - HSPCB",24-04-2024 07:00:00,28.52123,76.37138,SO2,6,8,7
India,Haryana,Sirsa,"F-Block, Sirsa - HSPCB",24-04-2024 07:00:00,29.536400,75.015800,PM2.5,42,74,56
India,Haryana,Yamuna Nagar,"Gobind Pura, Yamuna Nagar - HSPCB",24-04-2024 07:00:00,30.1480566,77.2893471,NO2,11,29,18
India,Haryana,Yamuna Nagar,"Gobind Pura, Yamuna Nagar - HSPCB",24-04-2024 07:00:00,30.1480566,77.2893471,NH3,1,6,4
India,Haryana,Yamuna Nagar,"Gobind Pura, Yamuna Nagar - HSPCB",24-04-2024 07:00:00,30.1480566,77.2893471,CO,27,108,46
India,Jharkhand,Dhanbad,"Kalakusuma, Dhanbad - DMC",24-04-2024 07:00:00,23.811548,86.481238,NO2,NA,NA,NA
India,Karnataka,Bagalkot,"Vidayagiri, Bagalkot - KSPCB",24-04-2024 07:00:00,16.172806,75.659694,NO2,9,10,9
India,Karnataka,Belgaum,"Ramteerth Nagar, Belgaum - KSPCB",24-04-2024 07:00:00,15.888653,74.541751,CO,26,44,36
India,Karnataka,Bengaluru,"BTM Layout, Bengaluru - CPCB",24-04-2024 07:00:00,12.9135218,77.5950804,NO2,31,39,33
India,Karnataka,Bengaluru,"BTM Layout, Bengaluru - CPCB",24-04-2024 07:00:00,12.9135218,77.5950804,CO,23,28,25
India,Karnataka,Bengaluru,"Bapuji Nagar, Bengaluru - KSPCB",24-04-2024 07:00:00,12.951913,77.539784,NO2,10,11,11
India,Karnataka,Bengaluru,"Bapuji Nagar, Bengaluru - KSPCB",24-04-2024 07:00:00,12.951913,77.539784,CO,13,38,22
India,Karnataka,Bengaluru,"Hebbal, Bengaluru - KSPCB",24-04-2024 07:00:00,13.029152,77.585901,PM2.5,27,103,51
India,Karnataka,Bengaluru,"Hebbal, Bengaluru - KSPCB",24-04-2024 07:00:00,13.029152,77.585901,CO,1,32,15
India,Karnataka,Bengaluru,"Hombegowda Nagar, Bengaluru - KSPCB",24-04-2024 07:00:00,12.938539,77.590100,NO2,11,21,16
India,Karnataka,Bengaluru,"Jayanagar 5th Block, Bengaluru - KSPCB",24-04-2024 07:00:00,12.920984,77.584908,PM2.5,30,114,64
India,Karnataka,Bengaluru,"Jayanagar 5th Block, Bengaluru - KSPCB",24-04-2024 07:00:00,12.920984,77.584908,CO,5,7,6
India,Karnataka,Bengaluru,"Jayanagar 5th Block, Bengaluru - KSPCB",24-04-2024 07:00:00,12.920984,77.584908,OZONE,22,22,22
India,Karnataka,Bengaluru,"Peenya, Bengaluru - CPCB",24-04-2024 07:00:00,13.0270199,77.494094,PM10,70,92,81
India,Karnataka,Bengaluru,"Peenya, Bengaluru - CPCB",24-04-2024 07:00:00,13.0270199,77.494094,NH3,3,5,4
India,Karnataka,Bengaluru,"Peenya, Bengaluru - CPCB",24-04-2024 07:00:00,13.0270199,77.494094,SO2,9,12,11
India,Karnataka,Bengaluru,"RVCE-Mailasandra, Bengaluru - KSPCB",24-04-2024 07:00:00,12.921418,77.502466,NO2,16,17,17
India,Karnataka,Bengaluru,"Sanegurava Halli, Bengaluru - KSPCB",24-04-2024 07:00:00,12.990328,77.5431385,NO2,23,35,27
India,Karnataka,Bengaluru,"Shivapura_Peenya, Bengaluru - KSPCB",24-04-2024 07:00:00,13.0246342,77.5080115,CO,22,40,27
India,Karnataka,Chamarajanagar,"Urban, Chamarajanagar - KSPCB",24-04-2024 07:00:00,11.55358,76.55521,PM10,34,52,42
India,Karnataka,Chamarajanagar,"Urban, Chamarajanagar - KSPCB",24-04-2024 07:00:00,11.55358,76.55521,SO2,2,8,5
India,Karnataka,Chikkaballapur,"Chikkaballapur Rural, Chikkaballapur - KSPCB",24-04-2024 07:00:00,13.428828,77.731418,PM2.5,23,102,56
India,Karnataka,Chikkamagaluru,"Kalyana Nagara, Chikkamagaluru - KSPCB",24-04-2024 07:00:00,13.328028,75.797056,PM10,51,85,61
India,Karnataka,Chikkamagaluru,"Kalyana Nagara, Chikkamagaluru - KSPCB",24-04-2024 07:00:00,13.328028,75.797056,SO2,2,7,4
India,Karnataka,Davanagere,"Devaraj Urs Badavane, Davanagere - KSPCB",24-04-2024 07:00:00,14.475800,75.905200,NH3,1,28,3
India,Karnataka,Dharwad,"Kalabhavan, Dharwad - KSPCB",24-04-2024 07:00:00,15.459706,75.008381,SO2,1,5,3
India,Karnataka,Dharwad,"Kalabhavan, Dharwad - KSPCB",24-04-2024 07:00:00,15.459706,75.008381,OZONE,2,16,5
India,Karnataka,Hassan,"B.Katihalli, Hassan - KSPCB",24-04-2024 07:00:00,13.008556,76.125258,NO2,NA,NA,NA
India,Karnataka,Haveri,"Ashwini Nagar, Haveri - KSPCB",24-04-2024 07:00:00,14.791800,75.389600,PM10,NA,NA,NA
India,Karnataka,Haveri,"Ashwini Nagar, Haveri - KSPCB",24-04-2024 07:00:00,14.791800,75.389600,SO2,14,14,14
India,Karnataka,Hubballi,"Lingaraj Nagar, Hubballi - KSPCB",24-04-2024 07:00:00,15.3714823,75.1160168,NH3,2,2,2
India,Karnataka,Hubballi,"Lingaraj Nagar, Hubballi - KSPCB",24-04-2024 07:00:00,15.3714823,75.1160168,SO2,2,9,5
India,Karnataka,Kalaburagi,"Lal Bahadur Shastri Nagar, Kalaburagi - KSPCB",24-04-2024 07:00:00,17.321993,76.822628,PM2.5,1,294,43
India,Karnataka,Kalaburagi,"Mahatma Basaveswar Colony, Kalaburgi - KSPCB",24-04-2024 07:00:00,17.336318,76.847397,SO2,1,15,3
India,Karnataka,Madikeri,"Stuart Hill, Madikeri - KSPCB",24-04-2024 07:00:00,12.415911,75.735050,NH3,1,2,1
India,Karnataka,Madikeri,"Stuart Hill, Madikeri - KSPCB",24-04-2024 07:00:00,12.415911,75.735050,SO2,4,4,4
India,Karnataka,Madikeri,"Stuart Hill, Madikeri - KSPCB",24-04-2024 07:00:00,12.415911,75.735050,CO,4,156,27
India,Karnataka,Mangalore,"Kadri, Mangalore - KSPCB",24-04-2024 07:00:00,12.889250,74.853000,NH3,2,2,2
India,Karnataka,Mysuru,"Hebbal 1st Stage, Mysuru - KSPCB",24-04-2024 07:00:00,12.21041,76.37376,CO,7,36,15
India,Karnataka,Ramanagara,"Vijay Nagar, Ramanagara - KSPCB",24-04-2024 07:00:00,12.733409,77.298051,PM10,22,62,38
India,Karnataka,Ramanagara,"Vijay Nagar, Ramanagara - KSPCB",24-04-2024 07:00:00,12.733409,77.298051,OZONE,28,35,29
India,Karnataka,Tumakuru,"Thimmalapura, Tumakuru - KSPCB",24-04-2024 07:00:00,13.377516,77.099072,SO2,NA,NA,NA
India,Karnataka,Tumakuru,"Thimmalapura, Tumakuru - KSPCB",24-04-2024 07:00:00,13.377516,77.099072,CO,29,34,32
India,Karnataka,Vijayapura,"Ibrahimpur, Vijayapura - KSPCB",24-04-2024 07:00:00,16.802639,75.722694,OZONE,14,16,15
India,Karnataka,Yadgir,"Collector Office, Yadgir - KSPCB",24-04-2024 07:00:00,16.7602,77.1428,PM2.5,41,79,52
India,Kerala,Eloor,"Udyogamandal, Eloor - Kerala PCB",24-04-2024 07:00:00,10.073232,76.302765,PM10,36,47,41
India,Kerala,Kannur,"Thavakkara, Kannur - Kerala PCB",24-04-2024 07:00:00,11.875000,75.373200,PM2.5,68,78,73
India,Kerala,Kannur,"Thavakkara, Kannur - Kerala PCB",24-04-2024 07:00:00,11.875000,75.373200,PM10,65,120,84
India,Kerala,Kollam,"Polayathode, Kollam - Kerala PCB",24-04-2024 07:00:00,8.8787,76.6073,SO2,1,21,3
India,Kerala,Thiruvananthapuram,"Kariavattom, Thiruvananthapuram - Kerala PCB",24-04-2024 07:00:00,8.563700,76.886500,PM2.5,78,90,82
India,Kerala,Thiruvananthapuram,"Kariavattom, Thiruvananthapuram - Kerala PCB",24-04-2024 07:00:00,8.563700,76.886500,NH3,1,1,1
India,Kerala,Thiruvananthapuram,"Kariavattom, Thiruvananthapuram - Kerala PCB",24-04-2024 07:00:00,8.563700,76.886500,OZONE,28,33,29
India,Kerala,Thiruvananthapuram,"Plammoodu, Thiruvananthapuram - Kerala PCB",24-04-2024 07:00:00,8.5149093,76.9435879,SO2,4,17,10
India,Kerala,Thrissur,"Corporation Ground, Thrissur - Kerala PCB",24-04-2024 07:00:00,10.532400,76.215900,CO,14,100,22
India,Kerala,Thrissur,"Corporation Ground, Thrissur - Kerala PCB",24-04-2024 07:00:00,10.532400,76.215900,OZONE,28,32,30
India,Madhya Pradesh,Bhopal,"Idgah Hills, Bhopal - MPPCB",24-04-2024 07:00:00,23.264759,77.381568,PM2.5,18,57,35
India,Madhya Pradesh,Bhopal,"Idgah Hills, Bhopal - MPPCB",24-04-2024 07:00:00,23.264759,77.381568,NH3,4,5,4
India,Madhya Pradesh,Bhopal,"Idgah Hills, Bhopal - MPPCB",24-04-2024 07:00:00,23.264759,77.381568,SO2,14,24,17
India,Madhya Pradesh,Bhopal,"Idgah Hills, Bhopal - MPPCB",24-04-2024 07:00:00,23.264759,77.381568,OZONE,11,86,40
India,Madhya Pradesh,Bhopal,"Paryavaran Parisar, Bhopal - MPPCB",24-04-2024 07:00:00,23.210494,77.425409,NO2,7,76,28
India,Madhya Pradesh,Bhopal,"T T Nagar, Bhopal - MPPCB",24-04-2024 07:00:00,23.233584,77.400574,OZONE,12,72,41
India,Madhya Pradesh,Dewas,"Bhopal Chauraha, Dewas - MPPCB",24-04-2024 07:00:00,22.9682591,76.064118,PM2.5,16,91,45
India,Madhya Pradesh,Dewas,"Bhopal Chauraha, Dewas - MPPCB",24-04-2024 07:00:00,22.9682591,76.064118,NH3,3,3,3
India,Madhya Pradesh,Gwalior,"Deen Dayal Nagar, Gwalior - MPPCB",24-04-2024 07:00:00,26.259242,78.216432,NO2,9,74,34
India,Madhya Pradesh,Gwalior,"Maharaj Bada, Gwalior - MPPCB",24-04-2024 07:00:00,26.200388,78.147714,NH3,2,22,5
India,Madhya Pradesh,Gwalior,"Phool Bagh, Gwalior - Mondelez Ind. Food",24-04-2024 07:00:00,26.210536,78.171,CO,40,59,43
India,Madhya Pradesh,Indore,"Chhoti Gwaltoli, Indore - MPPCB",24-04-2024 07:00:00,22.4310,75.5213,OZONE,23,90,42
India,Madhya Pradesh,Indore,"Residency Area, Indore - IMC",24-04-2024 07:00:00,22.7084,75.8815,PM10,37,88,57
India,Madhya Pradesh,Indore,"Residency Area, Indore - IMC",24-04-2024 07:00:00,22.7084,75.8815,SO2,24,31,27
India,Madhya Pradesh,Jabalpur,"Govindh Bhavan Colony, Jabalpur - JMC",24-04-2024 07:00:00,23.163174,79.973061,PM2.5,NA,NA,NA
India,Madhya Pradesh,Jabalpur,"Gupteshwar, Jabalpur - JMC",24-04-2024 07:00:00,23.142888,79.916147,NO2,NA,NA,NA
India,Madhya Pradesh,Jabalpur,"Marhatal, Jabalpur - MPPCB",24-04-2024 07:00:00,23.168606,79.932247,CO,3,52,37
India,Madhya Pradesh,Jabalpur,"Marhatal, Jabalpur - MPPCB",24-04-2024 07:00:00,23.168606,79.932247,OZONE,60,91,67
India,Madhya Pradesh,Jabalpur,"Suhagi, Jabalpur - JMC",24-04-2024 07:00:00,23.218135,79.957770,NO2,39,44,42
India,Madhya Pradesh,Jabalpur,"Suhagi, Jabalpur - JMC",24-04-2024 07:00:00,23.218135,79.957770,NH3,3,4,4
India,Madhya Pradesh,Jabalpur,"Suhagi, Jabalpur - JMC",24-04-2024 07:00:00,23.218135,79.957770,CO,32,72,44
India,Madhya Pradesh,Ratlam,"Shasthri Nagar, Ratlam - IPCA Lab",24-04-2024 07:00:00,23.331731,75.045981,PM10,36,233,124
India,Madhya Pradesh,Sagar,"Civil Lines, Sagar - MPPCB",24-04-2024 07:00:00,23.838586,78.759431,CO,16,64,32
India,Madhya Pradesh,Satna,"Bandhavgar Colony, Satna - Birla Cement",24-04-2024 07:00:00,24.58434363,80.8549414,PM2.5,10,77,24
India,Madhya Pradesh,Satna,"Bandhavgar Colony, Satna - Birla Cement",24-04-2024 07:00:00,24.58434363,80.8549414,NO2,27,93,44
India,Madhya Pradesh,Satna,"Bandhavgar Colony, Satna - Birla Cement",24-04-2024 07:00:00,24.58434363,80.8549414,CO,32,109,50
India,Madhya Pradesh,Singrauli,"Suryakiran Bhawan NCL, Singrauli - MPPCB",24-04-2024 07:00:00,24.108970,82.645580,PM2.5,42,344,142
India,Madhya Pradesh,Singrauli,"Suryakiran Bhawan NCL, Singrauli - MPPCB",24-04-2024 07:00:00,24.108970,82.645580,NO2,8,86,34
India,Madhya Pradesh,Singrauli,"Suryakiran Bhawan NCL, Singrauli - MPPCB",24-04-2024 07:00:00,24.108970,82.645580,CO,62,102,93
India,Madhya Pradesh,Ujjain,"Mahakaleshwar Temple, Ujjain - MPPCB",24-04-2024 07:00:00,23.182719 ,75.768218 ,NH3,5,24,13
India,Maharashtra,Ahmednagar,"Tarakpur, Ahmednagar - MPCB",24-04-2024 07:00:00,19.10122,74.73339,PM10,67,140,106
India,Maharashtra,Amravati,"Shivneri Colony, Amravati - MPCB",24-04-2024 07:00:00,20.9402359,77.7895248,PM10,37,86,64
India,Maharashtra,Amravati,"Shri Shivaji Science College, Amaravati - MPCB",24-04-2024 07:00:00,20.939198,77.765701,PM10,44,76,58
India,Maharashtra,Aurangabad,"MIDC Chilkalthana, Aurangabad - MPCB",24-04-2024 07:00:00,19.875620,75.387310,PM2.5,NA,NA,NA
India,Maharashtra,Aurangabad,"MIDC Chilkalthana, Aurangabad - MPCB",24-04-2024 07:00:00,19.875620,75.387310,PM10,NA,NA,NA
India,Maharashtra,Badlapur,"Katrap, Badlapur - MPCB",24-04-2024 07:00:00,19.16485,73.23409,NH3,2,4,3
India,Maharashtra,Badlapur,"Katrap, Badlapur - MPCB",24-04-2024 07:00:00,19.16485,73.23409,CO,18,73,35
India,Maharashtra,Belapur,"CBD Belapur, Belapur - MPCB",24-04-2024 07:00:00,19.0243902,73.0406721,NO2,24,84,54
India,Maharashtra,Belapur,"CBD Belapur, Belapur - MPCB",24-04-2024 07:00:00,19.0243902,73.0406721,NH3,1,2,2
India,Maharashtra,Boisar,"Khaira, Boisar - MPCB",24-04-2024 07:00:00,19.786089,72.757971,NO2,22,259,52
India,Maharashtra,Boisar,"Khaira, Boisar - MPCB",24-04-2024 07:00:00,19.786089,72.757971,CO,10,58,28
India,Maharashtra,Chandrapur,"Chauhan Colony, Chandrapur - MPCB",24-04-2024 07:00:00,19.962900,79.298714,SO2,2,14,7
India,Maharashtra,Chandrapur,"Chauhan Colony, Chandrapur - MPCB",24-04-2024 07:00:00,19.962900,79.298714,OZONE,7,15,12
India,Maharashtra,Chandrapur,"MIDC Khutala, Chandrapur - MPCB",24-04-2024 07:00:00,19.9775302,79.2337086,PM10,NA,NA,NA
India,Maharashtra,Chandrapur,"MIDC Khutala, Chandrapur - MPCB",24-04-2024 07:00:00,19.9775302,79.2337086,OZONE,3,69,34
India,Maharashtra,Jalgaon,"Prabhat Colony, Jalgaon - MPCB",24-04-2024 07:00:00,21.001264,75.565602,NO2,10,88,28
India,Maharashtra,Jalgaon,"Prabhat Colony, Jalgaon - MPCB",24-04-2024 07:00:00,21.001264,75.565602,NH3,7,13,11
India,Maharashtra,Jalna,"Old MIDC, Jalna - MPCB",24-04-2024 07:00:00,19.854616,75.905894,PM2.5,20,89,49
India,Maharashtra,Jalna,"Old MIDC, Jalna - MPCB",24-04-2024 07:00:00,19.854616,75.905894,NO2,8,17,12
India,Maharashtra,Kalyan,"Khadakpada, Kalyan - MPCB",24-04-2024 07:00:00,19.25292,73.142019,SO2,24,37,29
India,Maharashtra,Kalyan,"Khadakpada, Kalyan - MPCB",24-04-2024 07:00:00,19.25292,73.142019,OZONE,8,26,10
India,Maharashtra,Mahad,"Kamble Tarf Birwadi, Mahad - MPCB",24-04-2024 07:00:00,18.1023399,73.4783687,NH3,8,8,8
India,Maharashtra,Mahad,"Kamble Tarf Birwadi, Mahad - MPCB",24-04-2024 07:00:00,18.1023399,73.4783687,CO,20,60,27
India,Maharashtra,Malegaon,"Mahesh Nagar, Malegaon - MPCB",24-04-2024 07:00:00,20.555712,74.529236,NH3,2,7,4
India,Maharashtra,Mira-Bhayandar,"Bhayandar West, Mira-Bhayandar - MPCB",24-04-2024 07:00:00,19.296481,72.840923,PM2.5,36,84,63
India,Maharashtra,Mira-Bhayandar,"Bhayandar West, Mira-Bhayandar - MPCB",24-04-2024 07:00:00,19.296481,72.840923,CO,7,24,17
India,Maharashtra,Mumbai,"Bandra Kurla Complex, Mumbai - MPCB",24-04-2024 07:00:00,19.065931,72.862131,PM10,88,118,109
India,Maharashtra,Mumbai,"Bandra Kurla Complex, Mumbai - MPCB",24-04-2024 07:00:00,19.065931,72.862131,NO2,3,12,6
India,Maharashtra,Mumbai,"Borivali East, Mumbai - IITM",24-04-2024 07:00:00,19.23241,72.86895,PM2.5,36,69,48
India,Maharashtra,Mumbai,"Borivali East, Mumbai - IITM",24-04-2024 07:00:00,19.23241,72.86895,PM10,49,99,80
India,Maharashtra,Mumbai,"Borivali East, Mumbai - IITM",24-04-2024 07:00:00,19.23241,72.86895,NO2,16,91,61
India,Maharashtra,Mumbai,"Borivali East, Mumbai - MPCB",24-04-2024 07:00:00,19.2243333,72.8658113,PM2.5,12,95,38
India,Maharashtra,Mumbai,"Byculla, Mumbai - BMC",24-04-2024 07:00:00,18.9767,72.8380,PM2.5,19,32,25
India,Maharashtra,Mumbai,"Byculla, Mumbai - BMC",24-04-2024 07:00:00,18.9767,72.8380,NH3,2,3,3
India,Maharashtra,Mumbai,"Byculla, Mumbai - BMC",24-04-2024 07:00:00,18.9767,72.8380,SO2,1,5,3
India,Maharashtra,Mumbai,"Chakala-Andheri East, Mumbai - IITM",24-04-2024 07:00:00,19.11074,72.86084,PM2.5,56,301,128
India,Maharashtra,Mumbai,"Chembur, Mumbai - MPCB",24-04-2024 07:00:00,19.0364585,72.8954371,PM2.5,33,83,59
India,Maharashtra,Mumbai,"Chembur, Mumbai - MPCB",24-04-2024 07:00:00,19.0364585,72.8954371,NH3,3,4,4
India,Maharashtra,Mumbai,"Chhatrapati Shivaji Intl. Airport (T2), Mumbai - MPCB",24-04-2024 07:00:00,19.10078,72.87462,NH3,1,4,2
India,Maharashtra,Mumbai,"Colaba, Mumbai - MPCB",24-04-2024 07:00:00,18.910000,72.820000,PM10,70,112,87
India,Maharashtra,Mumbai,"Deonar, Mumbai - IITM",24-04-2024 07:00:00,19.04946,72.9230,NO2,NA,NA,NA
India,Maharashtra,Mumbai,"Deonar, Mumbai - IITM",24-04-2024 07:00:00,19.04946,72.9230,NH3,NA,NA,NA
India,Maharashtra,Mumbai,"Ghatkopar, Mumbai - BMC",24-04-2024 07:00:00,19.083694,72.920967,PM10,36,80,61
India,Maharashtra,Mumbai,"Ghatkopar, Mumbai - BMC",24-04-2024 07:00:00,19.083694,72.920967,CO,2,26,11
India,Maharashtra,Mumbai,"Kandivali West, Mumbai - BMC",24-04-2024 07:00:00,19.215859,72.831718,CO,6,20,10
India,Maharashtra,Mumbai,"Khindipada-Bhandup West, Mumbai - IITM",24-04-2024 07:00:00,19.1653323,72.922099,SO2,2,22,6
India,Maharashtra,Mumbai,"Khindipada-Bhandup West, Mumbai - IITM",24-04-2024 07:00:00,19.1653323,72.922099,CO,8,64,48
India,Maharashtra,Mumbai,"Kurla, Mumbai - MPCB",24-04-2024 07:00:00,19.0863,72.8888,CO,8,25,16
India,Maharashtra,Mumbai,"Mazgaon, Mumbai - IITM",24-04-2024 07:00:00,18.96702,72.84214,PM2.5,75,402,254
India,Maharashtra,Mumbai,"Mazgaon, Mumbai - IITM",24-04-2024 07:00:00,18.96702,72.84214,NH3,15,27,19
India,Maharashtra,Mumbai,"Mazgaon, Mumbai - IITM",24-04-2024 07:00:00,18.96702,72.84214,SO2,17,36,26
India,Maharashtra,Mumbai,"Mindspace-Malad West, Mumbai - MPCB",24-04-2024 07:00:00,19.1878657,72.8304069,PM10,42,72,58
India,Maharashtra,Mumbai,"Mindspace-Malad West, Mumbai - MPCB",24-04-2024 07:00:00,19.1878657,72.8304069,NH3,7,9,9
India,Maharashtra,Mumbai,"Mindspace-Malad West, Mumbai - MPCB",24-04-2024 07:00:00,19.1878657,72.8304069,CO,8,30,14
India,Maharashtra,Mumbai,"Vile Parle West, Mumbai - MPCB",24-04-2024 07:00:00,19.10861,72.83622,PM10,94,122,109
India,Maharashtra,Mumbai,"Vile Parle West, Mumbai - MPCB",24-04-2024 07:00:00,19.10861,72.83622,NH3,11,11,11
India,Maharashtra,Nagpur,"Mahal, Nagpur - MPCB",24-04-2024 07:00:00,21.14472,79.107595,NO2,8,37,13
India,Maharashtra,Nagpur,"Mahal, Nagpur - MPCB",24-04-2024 07:00:00,21.14472,79.107595,CO,19,115,25
India,Maharashtra,Nagpur,"Opp GPO Civil Lines, Nagpur - MPCB",24-04-2024 07:00:00,21.152875,79.0517531,PM10,38,127,62
India,Maharashtra,Nagpur,"Opp GPO Civil Lines, Nagpur - MPCB",24-04-2024 07:00:00,21.152875,79.0517531,NH3,4,13,6
India,Maharashtra,Nashik,"Hirawadi, Nashik - MPCB",24-04-2024 07:00:00,20.021503,73.813844,PM2.5,24,73,47
India,Maharashtra,Nashik,"Hirawadi, Nashik - MPCB",24-04-2024 07:00:00,20.021503,73.813844,NO2,6,72,24
India,Maharashtra,Nashik,"MIDC Ambad, Nashik - MPCB",24-04-2024 07:00:00,19.950220,73.731480,NH3,2,4,3
India,Maharashtra,Nashik,"Pandav Nagari, Nashik - MPCB",24-04-2024 07:00:00,19.9591346,73.7788008,PM2.5,53,80,67
India,Maharashtra,Nashik,"Pandav Nagari, Nashik - MPCB",24-04-2024 07:00:00,19.9591346,73.7788008,PM10,73,109,88
India,Maharashtra,Navi Mumbai,"Kopripada-Vashi, Navi Mumbai - MPCB",24-04-2024 07:00:00,19.090337,73.014232,PM2.5,32,207,76
India,Maharashtra,Navi Mumbai,"Mahape, Navi Mumbai - MPCB",24-04-2024 07:00:00,19.1135051,73.008978,SO2,22,23,23
India,Maharashtra,Navi Mumbai,"Nerul, Navi Mumbai - MPCB",24-04-2024 07:00:00,19.008751,73.016620,PM10,85,176,126
India,Maharashtra,Navi Mumbai,"Sanpada, Navi Mumbai - MPCB",24-04-2024 07:00:00,19.0575752,73.0151367,PM2.5,38,70,54
India,Maharashtra,Navi Mumbai,"Sanpada, Navi Mumbai - MPCB",24-04-2024 07:00:00,19.0575752,73.0151367,NO2,11,52,25
India,Maharashtra,Navi Mumbai,"Sector-2E Kalamboli, Navi Mumbai - MPCB",24-04-2024 07:00:00,19.02579,73.10297,PM10,84,149,108
India,Maharashtra,Navi Mumbai,"Tondare-Taloja, Navi Mumbai - MPCB",24-04-2024 07:00:00,19.0630,73.1209,NH3,1,4,2
India,Maharashtra,Navi Mumbai,"Tondare-Taloja, Navi Mumbai - MPCB",24-04-2024 07:00:00,19.0630,73.1209,CO,2,36,26
India,Maharashtra,Parbhani,"Masoom Colony, Parbhani - MPCB",24-04-2024 07:00:00,19.265594,76.761463,PM2.5,31,90,64
India,Maharashtra,Parbhani,"Masoom Colony, Parbhani - MPCB",24-04-2024 07:00:00,19.265594,76.761463,PM10,53,103,79
India,Maharashtra,Parbhani,"Masoom Colony, Parbhani - MPCB",24-04-2024 07:00:00,19.265594,76.761463,CO,24,32,30
India,Maharashtra,Pimpri-Chinchwad,"Gavalinagar, Pimpri Chinchwad - MPCB",24-04-2024 07:00:00,18.63673,73.82487,PM10,13,488,120
India,Maharashtra,Pimpri-Chinchwad,"Gavalinagar, Pimpri Chinchwad - MPCB",24-04-2024 07:00:00,18.63673,73.82487,NH3,1,12,3
India,Maharashtra,Pimpri-Chinchwad,"Park Street Wakad, Pimpri Chinchwad - MPCB",24-04-2024 07:00:00,18.59051,73.77946,SO2,2,18,10
India,Maharashtra,Pimpri-Chinchwad,"Thergaon, Pimpri Chinchwad - MPCB",24-04-2024 07:00:00,18.616318,73.765797,NH3,2,11,4
India,Maharashtra,Pune,"Bhosari, Pune - IITM",24-04-2024 07:00:00,18.640051,73.848956,PM10,43,115,80
India,Maharashtra,Pune,"Bhosari, Pune - IITM",24-04-2024 07:00:00,18.640051,73.848956,NO2,14,15,14
India,Maharashtra,Pune,"Bhosari, Pune - IITM",24-04-2024 07:00:00,18.640051,73.848956,CO,46,52,47
India,Maharashtra,Pune,"Karve Road, Pune - MPCB",24-04-2024 07:00:00,18.5011743,73.8165527,PM10,48,138,98
India,Maharashtra,Pune,"Karve Road, Pune - MPCB",24-04-2024 07:00:00,18.5011743,73.8165527,SO2,8,25,17
India,Maharashtra,Pune,"Karve Road, Pune - MPCB",24-04-2024 07:00:00,18.5011743,73.8165527,CO,24,78,49
India,Maharashtra,Pune,"Mhada Colony, Pune - IITM",24-04-2024 07:00:00,18.573040,73.927715,OZONE,8,102,22
India,Maharashtra,Pune,"Revenue Colony-Shivajinagar, Pune - IITM",24-04-2024 07:00:00,18.530085,73.849598,PM10,48,110,85
India,Maharashtra,Pune,"Revenue Colony-Shivajinagar, Pune - IITM",24-04-2024 07:00:00,18.530085,73.849598,NO2,59,124,92
India,Maharashtra,Pune,"Revenue Colony-Shivajinagar, Pune - IITM",24-04-2024 07:00:00,18.530085,73.849598,OZONE,1,81,9
India,Maharashtra,Sangli,"Vijay Nagar, Sangli - MPCB",24-04-2024 07:00:00, 16.5038,74.3623,PM10,56,88,73
India,Maharashtra,Sangli,"Vijay Nagar, Sangli - MPCB",24-04-2024 07:00:00, 16.5038,74.3623,NH3,1,3,2
India,Maharashtra,Sangli,"Vijay Nagar, Sangli - MPCB",24-04-2024 07:00:00, 16.5038,74.3623,CO,13,38,25
India,Maharashtra,Solapur,"Dnyaneshwar Nagar, Solapur - MPCB",24-04-2024 07:00:00,17.6336264,75.9132495,NO2,5,109,29
India,Maharashtra,Solapur,"Dnyaneshwar Nagar, Solapur - MPCB",24-04-2024 07:00:00,17.6336264,75.9132495,NH3,18,52,30
India,Maharashtra,Solapur,"Ratandeep Housing Society, Solapur - MPCB",24-04-2024 07:00:00,17.65439,75.90649,PM10,55,285,87
India,Maharashtra,Solapur,"Ratandeep Housing Society, Solapur - MPCB",24-04-2024 07:00:00,17.65439,75.90649,OZONE,5,172,26
India,Maharashtra,Thane,"Kasarvadavali, Thane - MPCB",24-04-2024 07:00:00,19.26777,72.97182,PM2.5,30,74,53
India,Maharashtra,Thane,"Pimpleshwar Mandir, Thane - MPCB",24-04-2024 07:00:00,19.192056,72.9585188,CO,5,109,79
India,Maharashtra,Thane,"Upvan Fort, Thane - MPCB",24-04-2024 07:00:00,19.222279,72.957979,NH3,5,6,6
India,Maharashtra,Thane,"Upvan Fort, Thane - MPCB",24-04-2024 07:00:00,19.222279,72.957979,SO2,9,26,14
India,Maharashtra,Thane,"Upvan Fort, Thane - MPCB",24-04-2024 07:00:00,19.222279,72.957979,OZONE,34,89,46
India,Maharashtra,Virar,"Bolinj, Virar - MPCB",24-04-2024 07:00:00,19.4458210,72.7988231,PM10,62,112,82
India,Maharashtra,Virar,"Bolinj, Virar - MPCB",24-04-2024 07:00:00,19.4458210,72.7988231,NH3,3,7,6
India,Maharashtra,Virar,"Bolinj, Virar - MPCB",24-04-2024 07:00:00,19.4458210,72.7988231,SO2,6,18,9
India,Manipur,Imphal,"DM College of Science, Imphal - Manipur PCB",24-04-2024 07:00:00,24.8207389,93.9423085,PM10,NA,NA,NA
India,Manipur,Imphal,"Manipur University, Imphal - Manipur PCB",24-04-2024 07:00:00,24.7524239,93.9286218,NH3,NA,NA,NA
India,Meghalaya,Shillong,"Lumpyngngad, Shillong - Meghalaya PCB",24-04-2024 07:00:00,25.5586,91.8985,PM2.5,51,131,77
India,Odisha,Angul,"Hakimapada, Angul - OSPCB",24-04-2024 07:00:00,20.832874,85.104082,OZONE,18,137,44
India,Odisha,Balasore,"Kalidaspur, Balasore - OSPCB",24-04-2024 07:00:00,21.51161,86.89088,OZONE,15,138,57
India,Odisha,Barbil,"Forest Office, Barbil - OSPCB",24-04-2024 07:00:00,22.1166054,85.3945546,PM10,48,238,104
India,Odisha,Barbil,"Forest Office, Barbil - OSPCB",24-04-2024 07:00:00,22.1166054,85.3945546,OZONE,40,163,53
India,Odisha,Bileipada,"Tata Township, Bileipada - OSPCB",24-04-2024 07:00:00,22.06156703,85.47409613,PM10,79,405,160
India,Odisha,Brajrajnagar,"GM Office, Brajrajnagar - OSPCB",24-04-2024 07:00:00,21.8004996,83.8396977,NO2,15,20,16
India,Odisha,Byasanagar,"Ferro Chrome Colony, Byasanagar - OSPCB",24-04-2024 07:00:00,20.94185,86.11510,PM2.5,65,193,102
India,Odisha,Byasanagar,"Ferro Chrome Colony, Byasanagar - OSPCB",24-04-2024 07:00:00,20.94185,86.11510,NH3,2,4,3
India,Odisha,Byasanagar,"Ferro Chrome Colony, Byasanagar - OSPCB",24-04-2024 07:00:00,20.94185,86.11510,SO2,10,63,30
India,Odisha,Byasanagar,"Ferro Chrome Colony, Byasanagar - OSPCB",24-04-2024 07:00:00,20.94185,86.11510,CO,60,107,89
India,Odisha,Byasanagar,"Ferro Chrome Colony, Byasanagar - OSPCB",24-04-2024 07:00:00,20.94185,86.11510,OZONE,45,237,69
India,Odisha,Keonjhar,"Jagamohanpur, Keonjhar - OSPCB",24-04-2024 07:00:00,21.643900,85.599355,OZONE,10,37,14
India,Odisha,Nayagarh,"Dabuna, Nayagarh - OSPCB",24-04-2024 07:00:00,21.847279,85.416905,PM2.5,57,241,136
India,Odisha,Nayagarh,"Dabuna, Nayagarh - OSPCB",24-04-2024 07:00:00,21.847279,85.416905,NO2,3,3,3
India,Odisha,Rairangpur,"Divisional Forest Office, Rairangpur - OSPCB",24-04-2024 07:00:00,22.265816,86.174829,CO,4,101,26
India,Odisha,Rourkela,"Fertilizer Township, Rourkela - OSPCB",24-04-2024 07:00:00,22.18972222,84.86277778,NO2,9,58,22
India,Odisha,Rourkela,"Raghunathpali, Rourkela - OSPCB",24-04-2024 07:00:00,22.220833,84.809444,NH3,1,3,2
India,Odisha,Rourkela,"Sector-2, Rourkela - OSPCB",24-04-2024 07:00:00,22.24500000,84.88111111,CO,12,50,35
India,Odisha,Talcher,"Talcher Coalfields,Talcher - OSPCB",24-04-2024 07:00:00,20.9360711,85.1707021,PM2.5,37,317,132
India,Odisha,Talcher,"Talcher Coalfields,Talcher - OSPCB",24-04-2024 07:00:00,20.9360711,85.1707021,CO,48,128,90
India,Odisha,Talcher,"Talcher Coalfields,Talcher - OSPCB",24-04-2024 07:00:00,20.9360711,85.1707021,OZONE,20,28,25
India,Puducherry,Puducherry,"Jawahar Nagar, Puducherry - PPCC",24-04-2024 07:00:00,11.9309,79.8027,PM10,6,39,19
India,Puducherry,Puducherry,"Jawahar Nagar, Puducherry - PPCC",24-04-2024 07:00:00,11.9309,79.8027,NH3,3,9,6
India,Punjab,Amritsar,"Golden Temple, Amritsar - PPCB",24-04-2024 07:00:00,31.620000,74.876512,NO2,10,48,27
India,Punjab,Amritsar,"Golden Temple, Amritsar - PPCB",24-04-2024 07:00:00,31.620000,74.876512,NH3,5,8,6
India,Punjab,Amritsar,"Golden Temple, Amritsar - PPCB",24-04-2024 07:00:00,31.620000,74.876512,SO2,15,23,18
India,Punjab,Bathinda,"Hardev Nagar, Bathinda - PPCB",24-04-2024 07:00:00,30.233011,74.907758,SO2,6,26,14
India,Punjab,Bathinda,"Hardev Nagar, Bathinda - PPCB",24-04-2024 07:00:00,30.233011,74.907758,CO,3,64,19
India,Punjab,Jalandhar,"Civil Line, Jalandhar - PPCB",24-04-2024 07:00:00,31.321907,75.578914,PM2.5,28,57,42
India,Punjab,Jalandhar,"Civil Line, Jalandhar - PPCB",24-04-2024 07:00:00,31.321907,75.578914,SO2,8,11,9
India,Punjab,Jalandhar,"Civil Line, Jalandhar - PPCB",24-04-2024 07:00:00,31.321907,75.578914,CO,16,44,22
India,Punjab,Jalandhar,"Civil Line, Jalandhar - PPCB",24-04-2024 07:00:00,31.321907,75.578914,OZONE,18,76,27
India,Punjab,Khanna,"Kalal Majra, Khanna - PPCB",24-04-2024 07:00:00,30.736056 ,76.209694,CO,14,16,15
India,Punjab,Ludhiana,"Punjab Agricultural University, Ludhiana - PPCB",24-04-2024 07:00:00,30.9028,75.8086,SO2,8,36,15
India,Punjab,Mandi Gobindgarh,"RIMT University, Mandi Gobindgarh - PPCB",24-04-2024 07:00:00,30.649961,76.331442,NH3,6,6,6
India,Punjab,Patiala,"Model Town, Patiala - PPCB",24-04-2024 07:00:00,30.349388,76.366642,NO2,22,27,24
India,Punjab,Rupnagar,"Ratanpura, Rupnagar - Ambuja Cements",24-04-2024 07:00:00,31.0325454,76.5623046,PM2.5,16,149,74
India,Punjab,Rupnagar,"Ratanpura, Rupnagar - Ambuja Cements",24-04-2024 07:00:00,31.0325454,76.5623046,PM10,16,118,73
India,Rajasthan,Ajmer,"Civil Lines,  Ajmer - RSPCB",24-04-2024 07:00:00,26.470859,74.646594,OZONE,30,111,80
India,Rajasthan,Alwar,"Moti Doongri, Alwar - RSPCB",24-04-2024 07:00:00,27.554793,76.611536,PM10,44,172,76
India,Rajasthan,Alwar,"Moti Doongri, Alwar - RSPCB",24-04-2024 07:00:00,27.554793,76.611536,SO2,4,51,19
India,Rajasthan,Banswara,"Rati Talai, Banswara - RSPCB",24-04-2024 07:00:00,23.555190,74.440010,PM2.5,22,91,54
India,Rajasthan,Banswara,"Rati Talai, Banswara - RSPCB",24-04-2024 07:00:00,23.555190,74.440010,NO2,3,112,24
India,Rajasthan,Baran,"Bamboliya, Baran - RSPCB",24-04-2024 07:00:00,25.106006,76.469948,CO,14,59,29
India,Rajasthan,Barmer,"Railway Colony, Barmer - RSPCB",24-04-2024 07:00:00,25.747299,71.393989,NH3,5,14,10
India,Rajasthan,Bharatpur,"Krishna Nagar, Bharatpur - RSPCB",24-04-2024 07:00:00,27.215415,77.50873,NH3,1,26,2
India,Rajasthan,Bharatpur,"Krishna Nagar, Bharatpur - RSPCB",24-04-2024 07:00:00,27.215415,77.50873,OZONE,304,342,313
India,Rajasthan,Bhilwara,"Pratap Nagar, Bhilwara - RSPCB",24-04-2024 07:00:00,25.339605,74.618883,NO2,11,106,38
India,Rajasthan,Bhilwara,"Pratap Nagar, Bhilwara - RSPCB",24-04-2024 07:00:00,25.339605,74.618883,NH3,1,5,3
India,Rajasthan,Bhilwara,"Pratap Nagar, Bhilwara - RSPCB",24-04-2024 07:00:00,25.339605,74.618883,CO,16,70,39
India,Rajasthan,Bhiwadi,"Vasundhara Nagar_UIT, Bhiwadi - RSPCB",24-04-2024 07:00:00,28.207266,76.829265,CO,13,28,23
India,Rajasthan,Bikaner,"MM Ground, Bikaner - RSPCB",24-04-2024 07:00:00,28.018792,73.292658,PM2.5,12,87,29
India,Rajasthan,Bikaner,"MM Ground, Bikaner - RSPCB",24-04-2024 07:00:00,28.018792,73.292658,PM10,86,228,134
India,Rajasthan,Bikaner,"MM Ground, Bikaner - RSPCB",24-04-2024 07:00:00,28.018792,73.292658,NH3,9,14,10
India,Rajasthan,Bikaner,"MM Ground, Bikaner - RSPCB",24-04-2024 07:00:00,28.018792,73.292658,OZONE,27,100,59
India,Rajasthan,Bundi,"New Colony, Bundi - RSPCB",24-04-2024 07:00:00,25.435774,75.644272,PM2.5,14,66,30
India,Rajasthan,Churu,"Subash Chowk, Churu - RSPCB",24-04-2024 07:00:00,28.296139,74.961696,CO,11,28,22
India,Rajasthan,Dausa,"Khatikan Mohalla, Dausa - RSPCB",24-04-2024 07:00:00,26.895552,76.334753,NH3,4,7,5
India,Rajasthan,Dausa,"Khatikan Mohalla, Dausa - RSPCB",24-04-2024 07:00:00,26.895552,76.334753,OZONE,16,84,57
India,Rajasthan,Dholpur,"Raja Ganj, Dholpur - RSPCB",24-04-2024 07:00:00,26.699557,77.898881,CO,8,43,18
India,Rajasthan,Dungarpur,"Bhoiwada, Dungarpur - RSPCB",24-04-2024 07:00:00,23.837789,73.714926,NO2,13,23,16
India,Rajasthan,Dungarpur,"Bhoiwada, Dungarpur - RSPCB",24-04-2024 07:00:00,23.837789,73.714926,CO,9,177,18
India,Rajasthan,Hanumangarh,"Housing Board, Hanumangarh - RSPCB",24-04-2024 07:00:00,29.610750,74.283608,SO2,1,22,7
India,Rajasthan,Jaipur,"Adarsh Nagar, Jaipur - RSPCB",24-04-2024 07:00:00,26.902909,75.836858,NO2,27,101,45
India,Rajasthan,Jaipur,"Adarsh Nagar, Jaipur - RSPCB",24-04-2024 07:00:00,26.902909,75.836858,OZONE,19,44,35
India,Rajasthan,Jaipur,"Mansarovar Sector-12, Jaipur - RSPCB",24-04-2024 07:00:00,26.843698,75.766894,NH3,2,25,6
India,Rajasthan,Jaipur,"Police Commissionerate, Jaipur - RSPCB",24-04-2024 07:00:00,26.9164092,75.7994901,NH3,5,8,7
India,Rajasthan,Jaipur,"RIICO Sitapura, Jaipur - RSPCB",24-04-2024 07:00:00,26.786682,75.827928,PM2.5,13,323,69
India,Rajasthan,Jaipur,"Sector-2 Murlipura, Jaipur - RSPCB",24-04-2024 07:00:00,26.960669,75.771817,PM2.5,25,61,41
India,Rajasthan,Jaipur,"Sector-2 Murlipura, Jaipur - RSPCB",24-04-2024 07:00:00,26.960669,75.771817,SO2,6,17,10
India,Rajasthan,Jaipur,"Sector-2 Murlipura, Jaipur - RSPCB",24-04-2024 07:00:00,26.960669,75.771817,CO,32,90,44
India,Rajasthan,Jaipur,"Sector-2 Murlipura, Jaipur - RSPCB",24-04-2024 07:00:00,26.960669,75.771817,OZONE,32,89,67
India,Rajasthan,Jaipur,"Shastri Nagar, Jaipur - RSPCB",24-04-2024 07:00:00,26.9502929,75.730943,NO2,27,120,48
India,Rajasthan,Jaipur,"Shastri Nagar, Jaipur - RSPCB",24-04-2024 07:00:00,26.9502929,75.730943,SO2,6,32,18
India,Rajasthan,Jaipur,"Shastri Nagar, Jaipur - RSPCB",24-04-2024 07:00:00,26.9502929,75.730943,OZONE,30,87,63
India,Rajasthan,Jaisalmer,"Sadar Bazar, Jaisalmer - RSPCB",24-04-2024 07:00:00,26.912329,70.909168,OZONE,6,129,65
India,Rajasthan,Jalore,"Mudtra Sili, Jalore - RSPCB",24-04-2024 07:00:00,25.344694,72.626208,NO2,6,84,25
India,Rajasthan,Jhalawar,"Rajlaxmi Nagar, Jhalawar - RSPCB",24-04-2024 07:00:00,24.588397,76.172782,CO,16,48,26
India,Rajasthan,Jhunjhunu,"Indra Nagar, Jhunjhunu - RSPCB",24-04-2024 07:00:00,28.108988,75.386577,PM10,68,157,105
India,Rajasthan,Jodhpur,"Collectorate, Jodhpur - RSPCB",24-04-2024 07:00:00,26.268249,73.0193853,NO2,4,101,33
India,Rajasthan,Jodhpur,"Collectorate, Jodhpur - RSPCB",24-04-2024 07:00:00,26.268249,73.0193853,SO2,2,34,12
India,Rajasthan,Jodhpur,"Collectorate, Jodhpur - RSPCB",24-04-2024 07:00:00,26.268249,73.0193853,OZONE,7,156,30
India,Rajasthan,Jodhpur,"Jhalamand, Jodhpur - RSPCB",24-04-2024 07:00:00,26.215415,73.070156,PM2.5,13,305,83
India,Rajasthan,Jodhpur,"Jhalamand, Jodhpur - RSPCB",24-04-2024 07:00:00,26.215415,73.070156,CO,9,78,44
India,Rajasthan,Jodhpur,"Mandor, Jodhpur - RSPCB",24-04-2024 07:00:00,26.358805,73.047444,CO,7,22,17
India,Rajasthan,Jodhpur,"Samrat Ashok Udhyan, Jodhpur - RSPCB",24-04-2024 07:00:00,26.253384,72.976571,CO,4,70,30
India,Rajasthan,Karauli,"Satyawati Vihar, Karauli - RSPCB",24-04-2024 07:00:00,26.506177,77.025989,NO2,6,29,15
India,Rajasthan,Kota,"Nayapura, Kota - RSPCB",24-04-2024 07:00:00,25.196024,75.855668,SO2,2,10,4
India,Rajasthan,Nagaur,"Karni Colony, Nagaur - RSPCB",24-04-2024 07:00:00,27.213494,73.734444,NO2,7,26,15
India,Rajasthan,Nagaur,"Karni Colony, Nagaur - RSPCB",24-04-2024 07:00:00,27.213494,73.734444,SO2,2,11,4
India,Rajasthan,Pali,"Indira Colony Vistar, Pali - RSPCB",24-04-2024 07:00:00,25.771061, 73.340227,PM2.5,58,194,108
India,Rajasthan,Pali,"Indira Colony Vistar, Pali - RSPCB",24-04-2024 07:00:00,25.771061, 73.340227,NO2,19,70,40
India,Rajasthan,Pali,"Indira Colony Vistar, Pali - RSPCB",24-04-2024 07:00:00,25.771061, 73.340227,SO2,8,10,9
India,Rajasthan,Sawai Madhopur,"Sahu Nagar, Sawai Madhopur - RSPCB",24-04-2024 07:00:00,26.031443,76.359327,PM2.5,25,237,79
India,Rajasthan,Sikar,"Radhakishan Pura, Sikar - RSPCB",24-04-2024 07:00:00,27.608912,75.153302,PM2.5,17,59,44
India,Rajasthan,Sikar,"Radhakishan Pura, Sikar - RSPCB",24-04-2024 07:00:00,27.608912,75.153302,NH3,4,8,6
India,Rajasthan,Sirohi,"Vedhaynath Colony, Sirohi - RSPCB",24-04-2024 07:00:00,24.885261,72.857549,NH3,3,9,4
India,Rajasthan,Sirohi,"Vedhaynath Colony, Sirohi - RSPCB",24-04-2024 07:00:00,24.885261,72.857549,CO,14,54,35
India,Rajasthan,Sirohi,"Vedhaynath Colony, Sirohi - RSPCB",24-04-2024 07:00:00,24.885261,72.857549,OZONE,14,120,45
India,Rajasthan,Sri Ganganagar,"Old City, Sri Ganganagar - RSPCB",24-04-2024 07:00:00,29.931624,73.864511,PM10,89,268,169
India,Rajasthan,Sri Ganganagar,"Old City, Sri Ganganagar - RSPCB",24-04-2024 07:00:00,29.931624,73.864511,NH3,9,34,14
India,Rajasthan,Sri Ganganagar,"Old City, Sri Ganganagar - RSPCB",24-04-2024 07:00:00,29.931624,73.864511,SO2,1,13,5
India,Rajasthan,Tonk,"Shastri Nagar, Tonk - RSPCB",24-04-2024 07:00:00,26.159933,75.780517,PM10,55,271,117
India,Rajasthan,Tonk,"Shastri Nagar, Tonk - RSPCB",24-04-2024 07:00:00,26.159933,75.780517,SO2,1,8,5
India,Rajasthan,Udaipur,"Ashok Nagar, Udaipur - RSPCB",24-04-2024 07:00:00,24.5886166,73.6321397,PM2.5,49,101,72
India,Rajasthan,Udaipur,"Ashok Nagar, Udaipur - RSPCB",24-04-2024 07:00:00,24.5886166,73.6321397,NO2,24,64,48
India,Rajasthan,Udaipur,"Ashok Nagar, Udaipur - RSPCB",24-04-2024 07:00:00,24.5886166,73.6321397,OZONE,21,70,40
India,Sikkim,Gangtok,"Zero Point GICI, Gangtok - SSPCB",24-04-2024 07:00:00,27.338530,88.614099,SO2,11,13,12
India,Sikkim,Gangtok,"Zero Point GICI, Gangtok - SSPCB",24-04-2024 07:00:00,27.338530,88.614099,CO,14,31,15
India,Sikkim,Gangtok,"Zero Point GICI, Gangtok - SSPCB",24-04-2024 07:00:00,27.338530,88.614099,OZONE,37,136,51
India,TamilNadu,Ariyalur,"Keelapalur, Ariyalur - TNPCB",24-04-2024 07:00:00,11.06825,79.07033,PM10,12,40,26
India,TamilNadu,Chengalpattu,"Crescent University, Chengalpattu - TNPCB",24-04-2024 07:00:00,12.8777316,80.0834807,NO2,NA,NA,NA
India,TamilNadu,Chengalpattu,"Crescent University, Chengalpattu - TNPCB",24-04-2024 07:00:00,12.8777316,80.0834807,NH3,NA,NA,NA
India,TamilNadu,Chennai,"Kodungaiyur, Chennai - TNPCB",24-04-2024 07:00:00,13.1278,80.2642,CO,24,104,32
India,TamilNadu,Chennai,"Manali, Chennai - CPCB",24-04-2024 07:00:00,13.164544,80.26285,SO2,4,9,6
India,TamilNadu,Chennai,"Royapuram, Chennai - TNPCB",24-04-2024 07:00:00,13.1036,80.2909,NO2,9,23,14
India,TamilNadu,Chennai,"Royapuram, Chennai - TNPCB",24-04-2024 07:00:00,13.1036,80.2909,CO,16,30,24
India,TamilNadu,Chennai,"Velachery Res. Area, Chennai - CPCB",24-04-2024 07:00:00,13.0052189,80.2398125,PM2.5,16,33,25
India,TamilNadu,Coimbatore,"PSG College of Arts and Science, Coimbatore - TNPCB",24-04-2024 07:00:00,11.0328,77.0349,NO2,2,4,2
India,TamilNadu,Cuddalore,"Kudikadu, Cuddalore - TNPCB",24-04-2024 07:00:00,11.6829898,79.7532099,NH3,3,4,4
India,TamilNadu,Gummidipoondi,"Anthoni Pillai Nagar, Gummidipoondi - TNPCB",24-04-2024 07:00:00,13.4127,80.1081,NH3,1,2,2
India,TamilNadu,Kanchipuram,"Kilambi, Kanchipuram - TNPCB",24-04-2024 07:00:00,12.864618,79.659968,NO2,NA,NA,NA
India,TamilNadu,Ooty,"Bombay Castel, Ooty - TNPCB",24-04-2024 07:00:00,11.4068288,76.7138973,PM10,NA,NA,NA
India,TamilNadu,Ooty,"Bombay Castel, Ooty - TNPCB",24-04-2024 07:00:00,11.4068288,76.7138973,NH3,NA,NA,NA
India,TamilNadu,Ooty,"Bombay Castel, Ooty - TNPCB",24-04-2024 07:00:00,11.4068288,76.7138973,SO2,13,13,13
India,TamilNadu,Ooty,"Bombay Castel, Ooty - TNPCB",24-04-2024 07:00:00,11.4068288,76.7138973,CO,19,22,21
India,TamilNadu,Ooty,"Bombay Castel, Ooty - TNPCB",24-04-2024 07:00:00,11.4068288,76.7138973,OZONE,5,6,5
India,TamilNadu,Ramanathapuram,"Chalai Bazaar, Ramanathapuram - TNPCB",24-04-2024 07:00:00,9.36399,78.831977,CO,NA,NA,NA
India,TamilNadu,Salem,"Sona College of Technology, Salem - TNPCB",24-04-2024 07:00:00,11.679111,78.125052,NO2,NA,NA,NA
India,TamilNadu,Salem,"Sona College of Technology, Salem - TNPCB",24-04-2024 07:00:00,11.679111,78.125052,CO,NA,NA,NA
India,TamilNadu,Salem,"Sona College of Technology, Salem - TNPCB",24-04-2024 07:00:00,11.679111,78.125052,OZONE,NA,NA,NA
India,TamilNadu,Thoothukudi,"Meelavittan, Thoothukudi - TNPCB",24-04-2024 07:00:00,8.816428 ,78.099039,NO2,25,45,35
India,TamilNadu,Thoothukudi,"Meelavittan, Thoothukudi - TNPCB",24-04-2024 07:00:00,8.816428 ,78.099039,OZONE,1,15,9
India,TamilNadu,Tirupur,"Kumaran College, Tirupur - TNPCB",24-04-2024 07:00:00,11.0973603,77.3228673,NO2,6,49,18
India,TamilNadu,Vellore,"Vasanthapuram, Vellore - TNPCB",24-04-2024 07:00:00,12.909494,79.131861,CO,NA,NA,NA
India,Telangana,Hyderabad,"Bollaram Industrial Area, Hyderabad - TSPCB",24-04-2024 07:00:00,17.540891,78.358528,PM10,70,142,103
India,Telangana,Hyderabad,"ICRISAT Patancheru, Hyderabad - TSPCB",24-04-2024 07:00:00,17.518400,78.278777,NH3,2,2,2
India,Telangana,Hyderabad,"IITH Kandi, Hyderabad - TSPCB",24-04-2024 07:00:00,17.585705,78.126199,NO2,8,11,10
India,Telangana,Hyderabad,"Kokapet, Hyderabad - TSPCB",24-04-2024 07:00:00,17.393559,78.339194,PM10,69,199,83
India,Telangana,Hyderabad,"New Malakpet, Hyderabad - TSPCB",24-04-2024 07:00:00,17.37206,78.50864,PM2.5,18,53,41
India,Telangana,Hyderabad,"New Malakpet, Hyderabad - TSPCB",24-04-2024 07:00:00,17.37206,78.50864,CO,12,55,20
India,Telangana,Hyderabad,"Ramachandrapuram, Hyderabad - TSPCB",24-04-2024 07:00:00,17.528544,78.286195,SO2,9,12,11
India,Telangana,Hyderabad,"Sanathnagar, Hyderabad - TSPCB",24-04-2024 07:00:00,17.4559458,78.4332152,CO,30,56,51
India,Telangana,Hyderabad,"Somajiguda, Hyderabad - TSPCB",24-04-2024 07:00:00,17.417094,78.457437,PM2.5,35,63,48
India,Telangana,Hyderabad,"Somajiguda, Hyderabad - TSPCB",24-04-2024 07:00:00,17.417094,78.457437,NO2,14,54,28
India,Tripura,Agartala,"Bardowali, Agartala - Tripura SPCB",24-04-2024 07:00:00,23.8175497,91.2726974,PM2.5,76,141,94
India,Uttar_Pradesh,Agra,"Manoharpur, Agra - UPPCB",24-04-2024 07:00:00,27.23711,78.01936,OZONE,1,72,17
India,Uttar_Pradesh,Agra,"Rohta, Agra - UPPCB",24-04-2024 07:00:00,27.106972,78.000111,PM2.5,NA,NA,NA
India,Uttar_Pradesh,Agra,"Rohta, Agra - UPPCB",24-04-2024 07:00:00,27.106972,78.000111,PM10,NA,NA,NA
India,Uttar_Pradesh,Agra,"Rohta, Agra - UPPCB",24-04-2024 07:00:00,27.106972,78.000111,OZONE,13,17,15
India,Uttar_Pradesh,Agra,"Sanjay Palace, Agra - UPPCB",24-04-2024 07:00:00,27.19865833,78.00598056,CO,3,64,31
India,Uttar_Pradesh,Agra,"Sector-3B Avas Vikas Colony, Agra - UPPCB",24-04-2024 07:00:00,27.19412,77.96237,CO,6,12,8
India,Uttar_Pradesh,Agra,"Shahjahan Garden, Agra - UPPCB",24-04-2024 07:00:00,27.169338,78.03582,PM2.5,18,48,34
India,Uttar_Pradesh,Agra,"Shahjahan Garden, Agra - UPPCB",24-04-2024 07:00:00,27.169338,78.03582,NH3,1,16,3
India,Uttar_Pradesh,Baghpat,"Sardar Patel Inter College, Baghpat - UPPCB",24-04-2024 07:00:00,28.964949,77.278761,PM10,32,500,175
India,Uttar_Pradesh,Bareilly,"Civil Lines, Bareilly - UPPCB",24-04-2024 07:00:00,28.359581,79.414455,NO2,2,5,2
India,Uttar_Pradesh,Bareilly,"Civil Lines, Bareilly - UPPCB",24-04-2024 07:00:00,28.359581,79.414455,OZONE,1,16,1
India,Uttar_Pradesh,Bulandshahr,"Yamunapuram, Bulandshahr - UPPCB",24-04-2024 07:00:00,28.406963,77.849831,PM2.5,24,177,56
India,Uttar_Pradesh,Bulandshahr,"Yamunapuram, Bulandshahr - UPPCB",24-04-2024 07:00:00,28.406963,77.849831,NO2,9,109,45
India,Uttar_Pradesh,Firozabad,"Vibhab Nagar, Firozabad - UPPCB",24-04-2024 07:00:00,27.1594,78.3953,PM2.5,30,240,68
India,Uttar_Pradesh,Firozabad,"Vibhab Nagar, Firozabad - UPPCB",24-04-2024 07:00:00,27.1594,78.3953,NO2,13,15,14
India,Uttar_Pradesh,Ghaziabad,"Indirapuram, Ghaziabad - UPPCB",24-04-2024 07:00:00,28.646233,77.358075,PM10,119,433,212
India,Uttar_Pradesh,Ghaziabad,"Indirapuram, Ghaziabad - UPPCB",24-04-2024 07:00:00,28.646233,77.358075,OZONE,4,165,7
India,Uttar_Pradesh,Ghaziabad,"Loni, Ghaziabad - UPPCB",24-04-2024 07:00:00,28.757294,77.278792,NO2,15,119,59
India,Uttar_Pradesh,Ghaziabad,"Loni, Ghaziabad - UPPCB",24-04-2024 07:00:00,28.757294,77.278792,NH3,1,15,6
India,Uttar_Pradesh,Ghaziabad,"Loni, Ghaziabad - UPPCB",24-04-2024 07:00:00,28.757294,77.278792,SO2,17,59,36
India,Uttar_Pradesh,Gorakhpur,"Madan Mohan Malaviya University of Technology, Gorakhpur - UPPCB",24-04-2024 07:00:00,26.730136,83.433859,PM10,54,132,94
India,Uttar_Pradesh,Gorakhpur,"Madan Mohan Malaviya University of Technology, Gorakhpur - UPPCB",24-04-2024 07:00:00,26.730136,83.433859,SO2,34,50,41
India,Uttar_Pradesh,Gorakhpur,"Madan Mohan Malaviya University of Technology, Gorakhpur - UPPCB",24-04-2024 07:00:00,26.730136,83.433859,CO,3,32,28
India,Uttar_Pradesh,Greater Noida,"Knowledge Park - V, Greater Noida - UPPCB",24-04-2024 07:00:00,28.557054,77.453663,PM2.5,45,234,126
India,Uttar_Pradesh,Hapur,"Anand Vihar, Hapur - UPPCB",24-04-2024 07:00:00,28.725645,77.749675,NH3,4,5,4
India,Uttar_Pradesh,Jhansi,"Shivaji Nagar, Jhansi - UPPCB",24-04-2024 07:00:00,25.4547,78.6039,SO2,14,18,15
India,Uttar_Pradesh,Kanpur,"FTI Kidwai Nagar, Kanpur - UPPCB",24-04-2024 07:00:00,26.428282,80.327067,NO2,12,18,16
India,Uttar_Pradesh,Kanpur,"FTI Kidwai Nagar, Kanpur - UPPCB",24-04-2024 07:00:00,26.428282,80.327067,NH3,2,4,3
India,Uttar_Pradesh,Kanpur,"NSI Kalyanpur, Kanpur - UPPCB",24-04-2024 07:00:00,26.509954,80.249612,NO2,7,11,10
India,Uttar_Pradesh,Kanpur,"Nehru Nagar, Kanpur - UPPCB",24-04-2024 07:00:00,26.4703136,80.3229863,PM2.5,42,309,75
India,Uttar_Pradesh,Khurja,"Kalindi Kunj, Khurja - UPPCB",24-04-2024 07:00:00,28.2348927,77.8683002,CO,28,55,32
India,Uttar_Pradesh,Lucknow,"Gomti Nagar, Lucknow - UPPCB",24-04-2024 07:00:00,26.868120,81.005119,SO2,8,13,11
India,Uttar_Pradesh,Lucknow,"Kendriya Vidyalaya, Lucknow - CPCB",24-04-2024 07:00:00,26.906111,80.948222,SO2,4,7,5
India,Uttar_Pradesh,Lucknow,"Kendriya Vidyalaya, Lucknow - CPCB",24-04-2024 07:00:00,26.906111,80.948222,OZONE,28,87,62
India,Uttar_Pradesh,Lucknow,"Kukrail Picnic Spot-1, Lucknow - UPPCB",24-04-2024 07:00:00,26.90723,80.98579,NO2,8,8,8
India,Uttar_Pradesh,Lucknow,"Kukrail Picnic Spot-1, Lucknow - UPPCB",24-04-2024 07:00:00,26.90723,80.98579,NH3,2,2,2
India,Uttar_Pradesh,Lucknow,"Lalbagh, Lucknow - CPCB",24-04-2024 07:00:00,26.8458805,80.9365541,PM2.5,44,304,122
India,Uttar_Pradesh,Lucknow,"Lalbagh, Lucknow - CPCB",24-04-2024 07:00:00,26.8458805,80.9365541,NH3,19,24,20
India,Uttar_Pradesh,Meerut,"Ganga Nagar, Meerut - UPPCB",24-04-2024 07:00:00,28.999264,77.7590354,PM10,109,493,164
India,Uttar_Pradesh,Meerut,"Ganga Nagar, Meerut - UPPCB",24-04-2024 07:00:00,28.999264,77.7590354,CO,20,52,32
India,Uttar_Pradesh,Meerut,"Jai Bhim Nagar, Meerut - UPPCB",24-04-2024 07:00:00,28.9535882,77.7622941,OZONE,7,232,35
India,Uttar_Pradesh,Moradabad,"Eco Herbal Park, Moradabad - UPPCB",24-04-2024 07:00:00,28.840739,78.697531,NO2,11,45,24
India,Uttar_Pradesh,Moradabad,"Eco Herbal Park, Moradabad - UPPCB",24-04-2024 07:00:00,28.840739,78.697531,NH3,5,14,8
India,Uttar_Pradesh,Moradabad,"Eco Herbal Park, Moradabad - UPPCB",24-04-2024 07:00:00,28.840739,78.697531,CO,4,105,17
India,Uttar_Pradesh,Moradabad,"Eco Herbal Park, Moradabad - UPPCB",24-04-2024 07:00:00,28.840739,78.697531,OZONE,22,161,46
India,Uttar_Pradesh,Moradabad,"Employment Office, Moradabad - UPPCB",24-04-2024 07:00:00,28.88528,78.73880,SO2,28,39,32
India,Uttar_Pradesh,Moradabad,"Jigar Colony, Moradabad - UPPCB",24-04-2024 07:00:00,28.856664,78.772638,CO,22,56,34
India,Uttar_Pradesh,Moradabad,"Transport Nagar, Moradabad - UPPCB",24-04-2024 07:00:00,28.802625,78.753728,PM10,54,234,98
India,Uttar_Pradesh,Moradabad,"Transport Nagar, Moradabad - UPPCB",24-04-2024 07:00:00,28.802625,78.753728,NO2,6,34,15
India,Uttar_Pradesh,Moradabad,"Transport Nagar, Moradabad - UPPCB",24-04-2024 07:00:00,28.802625,78.753728,CO,40,42,42
India,Uttar_Pradesh,Moradabad,"Transport Nagar, Moradabad - UPPCB",24-04-2024 07:00:00,28.802625,78.753728,OZONE,10,53,12
India,Uttar_Pradesh,Muzaffarnagar,"New Mandi, Muzaffarnagar - UPPCB",24-04-2024 07:00:00,29.4723508,77.7194031,PM10,138,500,282
India,Uttar_Pradesh,Muzaffarnagar,"New Mandi, Muzaffarnagar - UPPCB",24-04-2024 07:00:00,29.4723508,77.7194031,CO,24,74,58
India,Uttar_Pradesh,Noida,"Sector-1, Noida - UPPCB",24-04-2024 07:00:00,28.5898,77.3101,NH3,1,5,3
India,Uttar_Pradesh,Noida,"Sector-116, Noida - UPPCB",24-04-2024 07:00:00,28.569230,77.393848,SO2,6,45,23
India,Uttar_Pradesh,Prayagraj,"Motilal Nehru NIT, Prayagraj - UPPCB",24-04-2024 07:00:00,25.494,81.863,PM2.5,19,43,30
India,Uttar_Pradesh,Prayagraj,"Nagar Nigam, Prayagraj - UPPCB",24-04-2024 07:00:00,25.44919916 ,81.82735986 ,PM2.5,30,304,55
India,Uttar_Pradesh,Prayagraj,"Nagar Nigam, Prayagraj - UPPCB",24-04-2024 07:00:00,25.44919916 ,81.82735986 ,NO2,5,5,5
India,Uttar_Pradesh,Prayagraj,"Nagar Nigam, Prayagraj - UPPCB",24-04-2024 07:00:00,25.44919916 ,81.82735986 ,SO2,9,103,44
India,Uttar_Pradesh,Varanasi,"Bhelupur, Varanasi - UPPCB",24-04-2024 07:00:00,25.301778,82.996789,PM10,16,45,28
India,Uttar_Pradesh,Varanasi,"Bhelupur, Varanasi - UPPCB",24-04-2024 07:00:00,25.301778,82.996789,NH3,1,2,1
India,Uttar_Pradesh,Varanasi,"IESD Banaras Hindu University, Varanasi - UPPCB",24-04-2024 07:00:00,25.262326,82.995408,PM2.5,5,10,6
India,Uttar_Pradesh,Varanasi,"IESD Banaras Hindu University, Varanasi - UPPCB",24-04-2024 07:00:00,25.262326,82.995408,NH3,1,2,1
India,Uttar_Pradesh,Varanasi,"Maldahiya, Varanasi - UPPCB",24-04-2024 07:00:00,25.32393,82.99687,SO2,25,29,26
India,Uttar_Pradesh,Vrindavan,"Omex Eternity, Vrindavan - UPPCB",24-04-2024 07:00:00,27.5714090,77.6557570,NO2,2,3,3
India,Uttarakhand,Kashipur,"Govt. Girls Inter College, Kashipur - UKPCB",24-04-2024 07:00:00,29.2124114,78.9611753,NH3,5,29,22
India,West_Bengal,Asansol,"Asansol Court Area, Asansol - WBPCB",24-04-2024 07:00:00,23.685297,86.945968,PM2.5,81,202,151
India,West_Bengal,Asansol,"Asansol Court Area, Asansol - WBPCB",24-04-2024 07:00:00,23.685297,86.945968,NO2,23,58,36
India,West_Bengal,Asansol,"Asansol Court Area, Asansol - WBPCB",24-04-2024 07:00:00,23.685297,86.945968,CO,36,86,67
India,West_Bengal,Durgapur,"PCBL Residential Complex, Durgapur - WBPCB",24-04-2024 07:00:00,23.5087640,87.3544400,PM10,NA,NA,NA
India,West_Bengal,Durgapur,"PCBL Residential Complex, Durgapur - WBPCB",24-04-2024 07:00:00,23.5087640,87.3544400,NH3,NA,NA,NA
India,West_Bengal,Durgapur,"PCBL Residential Complex, Durgapur - WBPCB",24-04-2024 07:00:00,23.5087640,87.3544400,OZONE,2,9,5
India,West_Bengal,Durgapur,"Sidhu Kanhu Indoor Stadium, Durgapur - WBPCB",24-04-2024 07:00:00,23.5404352,87.2892225,PM10,79,195,124
India,West_Bengal,Haldia,"Priyambada Housing Estate, Haldia - WBPCB",24-04-2024 07:00:00,22.06047,88.109737,PM2.5,27,91,42
India,West_Bengal,Haldia,"Priyambada Housing Estate, Haldia - WBPCB",24-04-2024 07:00:00,22.06047,88.109737,SO2,8,127,36
India,West_Bengal,Haldia,"Priyambada Housing Estate, Haldia - WBPCB",24-04-2024 07:00:00,22.06047,88.109737,OZONE,22,94,27
India,West_Bengal,Howrah,"Ghusuri, Howrah - WBPCB",24-04-2024 07:00:00,22.611968,88.347422,NO2,16,25,19
India,West_Bengal,Howrah,"Ghusuri, Howrah - WBPCB",24-04-2024 07:00:00,22.611968,88.347422,OZONE,10,25,17
India,West_Bengal,Howrah,"Padmapukur, Howrah - WBPCB",24-04-2024 07:00:00,22.5687319,88.2797276,NO2,15,104,30
India,West_Bengal,Howrah,"Padmapukur, Howrah - WBPCB",24-04-2024 07:00:00,22.5687319,88.2797276,NH3,6,15,9
India,West_Bengal,Howrah,"Padmapukur, Howrah - WBPCB",24-04-2024 07:00:00,22.5687319,88.2797276,OZONE,5,52,27
India,West_Bengal,Kolkata,"Ballygunge, Kolkata - WBPCB",24-04-2024 07:00:00,22.5367507,88.3638022,PM10,64,110,88
India,West_Bengal,Kolkata,"Ballygunge, Kolkata - WBPCB",24-04-2024 07:00:00,22.5367507,88.3638022,NO2,12,33,20
India,West_Bengal,Kolkata,"Ballygunge, Kolkata - WBPCB",24-04-2024 07:00:00,22.5367507,88.3638022,SO2,10,77,25
India,West_Bengal,Kolkata,"Bidhannagar, Kolkata - WBPCB",24-04-2024 07:00:00,22.58157048,88.41002457,OZONE,19,114,74
India,West_Bengal,Kolkata,"Fort William, Kolkata - WBPCB",24-04-2024 07:00:00,22.556640,88.342674,NH3,2,5,3
India,West_Bengal,Kolkata,"Jadavpur, Kolkata - WBPCB",24-04-2024 07:00:00,22.49929,88.36917,SO2,NA,NA,NA
India,West_Bengal,Kolkata,"Jadavpur, Kolkata - WBPCB",24-04-2024 07:00:00,22.49929,88.36917,CO,1,40,2
India,West_Bengal,Kolkata,"Rabindra Bharati University, Kolkata - WBPCB",24-04-2024 07:00:00,22.627847,88.380669,NH3,4,19,16
India,West_Bengal,Kolkata,"Rabindra Bharati University, Kolkata - WBPCB",24-04-2024 07:00:00,22.627847,88.380669,CO,29,65,34
India,West_Bengal,Kolkata,"Rabindra Sarobar, Kolkata - WBPCB",24-04-2024 07:00:00,22.51106,88.35142,NO2,15,86,35
India,West_Bengal,Kolkata,"Victoria, Kolkata - WBPCB",24-04-2024 07:00:00,22.5448082,88.3403691,PM2.5,48,77,60
India,West_Bengal,Siliguri,"Ward-32 Bapupara, Siliguri - WBPCB",24-04-2024 07:00:00,26.6879226,88.4152495,OZONE,19,81,25
India,Andhra_Pradesh,Amaravati,"Secretariat, Amaravati - APPCB",24-04-2024 07:00:00,16.5150833,80.5181667,PM2.5,8,42,18
India,Andhra_Pradesh,Amaravati,"Secretariat, Amaravati - APPCB",24-04-2024 07:00:00,16.5150833,80.5181667,OZONE,5,35,9
India,Andhra_Pradesh,Anantapur,"Gulzarpet, Anantapur - APPCB",24-04-2024 07:00:00,14.675886,77.593027,NO2,NA,NA,NA
India,Andhra_Pradesh,Anantapur,"Gulzarpet, Anantapur - APPCB",24-04-2024 07:00:00,14.675886,77.593027,CO,20,45,25
India,Andhra_Pradesh,Chittoor,"Gangineni Cheruvu, Chittoor - APPCB",24-04-2024 07:00:00,13.204880,79.097889,NO2,2,19,7
India,Andhra_Pradesh,Chittoor,"Gangineni Cheruvu, Chittoor - APPCB",24-04-2024 07:00:00,13.204880,79.097889,NH3,1,2,1
India,Andhra_Pradesh,Rajamahendravaram,"Anand Kala Kshetram, Rajamahendravaram - APPCB",24-04-2024 07:00:00,16.9872867,81.7363176,NH3,3,4,4
India,Andhra_Pradesh,Rajamahendravaram,"Anand Kala Kshetram, Rajamahendravaram - APPCB",24-04-2024 07:00:00,16.9872867,81.7363176,SO2,11,13,12
India,Andhra_Pradesh,Tirupati,"Vaikuntapuram, Tirupati - APPCB",24-04-2024 07:00:00,13.615387,79.409230,PM10,13,88,43
India,Andhra_Pradesh,Tirupati,"Vaikuntapuram, Tirupati - APPCB",24-04-2024 07:00:00,13.615387,79.409230,CO,8,15,12
India,Andhra_Pradesh,Vijayawada,"HB Colony, Vijayawada - APPCB",24-04-2024 07:00:00,16.536107,80.594233,NH3,4,4,4
India,Andhra_Pradesh,Vijayawada,"HB Colony, Vijayawada - APPCB",24-04-2024 07:00:00,16.536107,80.594233,SO2,4,5,5
India,Andhra_Pradesh,Vijayawada,"Kanuru, Vijayawada - APPCB",24-04-2024 07:00:00,16.486692,80.699436,PM10,NA,NA,NA
India,Andhra_Pradesh,Vijayawada,"Kanuru, Vijayawada - APPCB",24-04-2024 07:00:00,16.486692,80.699436,SO2,NA,NA,NA
India,Andhra_Pradesh,Vijayawada,"Rajiv Nagar, Vijayawada - APPCB",24-04-2024 07:00:00,16.554731,80.649110,OZONE,8,24,15
India,Andhra_Pradesh,Visakhapatnam,"GVM Corporation, Visakhapatnam - APPCB",24-04-2024 07:00:00,17.72,83.3,PM2.5,52,257,99
India,Andhra_Pradesh,Visakhapatnam,"GVM Corporation, Visakhapatnam - APPCB",24-04-2024 07:00:00,17.72,83.3,NH3,3,6,5
India,Arunachal_Pradesh,Naharlagun,"Naharlagun, Naharlagun - APSPCB",24-04-2024 07:00:00,27.103358,93.679645,PM2.5,NA,NA,NA
India,Arunachal_Pradesh,Naharlagun,"Naharlagun, Naharlagun - APSPCB",24-04-2024 07:00:00,27.103358,93.679645,SO2,NA,NA,NA
India,Assam,Byrnihat,"Central Academy for SFS, Byrnihat - PCBA",24-04-2024 07:00:00,26.071318,91.87488,SO2,NA,NA,NA
India,Assam,Guwahati,"IITG, Guwahati - PCBA",24-04-2024 07:00:00,26.2028636,91.70046436,OZONE,2,21,3
India,Assam,Guwahati,"Pan Bazaar, Guwahati - PCBA",24-04-2024 07:00:00,26.187500,91.744194,NH3,NA,NA,NA
India,Assam,Guwahati,"Pan Bazaar, Guwahati - PCBA",24-04-2024 07:00:00,26.187500,91.744194,CO,NA,NA,NA
India,Assam,Nalbari,"Bata Chowk, Nalbari - PCBA",24-04-2024 07:00:00,26.446912,91.439057,NO2,8,52,21
India,Assam,Silchar,"Tarapur, Silchar - PCBA",24-04-2024 07:00:00,24.82827,92.79525,PM10,35,70,44
India,Assam,Sivasagar,"Girls College, Sivasagar - PCBA",24-04-2024 07:00:00,26.987634,94.636574,PM10,54,95,68
India,Assam,Sivasagar,"Girls College, Sivasagar - PCBA",24-04-2024 07:00:00,26.987634,94.636574,NH3,1,1,1
India,Bihar,Araria,"Kharahiya Basti, Araria - BSPCB",24-04-2024 07:00:00,26.146529,87.454184,PM2.5,51,101,72
India,Bihar,Arrah,"New DM Office, Arrah - BSPCB",24-04-2024 07:00:00,25.5626095,84.663264,SO2,12,35,19
India,Bihar,Aurangabad,"Gurdeo Nagar, Aurangabad - BSPCB",24-04-2024 07:00:00,24.75746,84.366208,SO2,NA,NA,NA
India,Bihar,Bettiah,"Kamalnath Nagar, Bettiah - BSPCB",24-04-2024 07:00:00,26.80365,84.51954,NO2,NA,NA,NA
India,Bihar,Bhagalpur,"DM Office_Kachari Chowk, Bhagalpur - BSPCB",24-04-2024 07:00:00,25.251013,86.989001,PM10,NA,NA,NA
India,Bihar,Bhagalpur,"DM Office_Kachari Chowk, Bhagalpur - BSPCB",24-04-2024 07:00:00,25.251013,86.989001,OZONE,43,57,47
India,Bihar,Bhagalpur,"Mayaganj, Bhagalpur - BSPCB",24-04-2024 07:00:00,25.265194,87.012947,PM10,21,85,52
India,Bihar,Bhagalpur,"Mayaganj, Bhagalpur - BSPCB",24-04-2024 07:00:00,25.265194,87.012947,NH3,9,10,9
India,Bihar,Bihar Sharif,"D M Colony, Bihar Sharif - BSPCB",24-04-2024 07:00:00,25.204762,85.514960,NH3,2,2,2
India,Bihar,Bihar Sharif,"D M Colony, Bihar Sharif - BSPCB",24-04-2024 07:00:00,25.204762,85.514960,CO,44,68,56
India,Bihar,Chhapra,"Darshan Nagar, Chhapra - BSPCB",24-04-2024 07:00:00,25.7808257,84.7446768,NO2,18,29,24
India,Bihar,Chhapra,"Darshan Nagar, Chhapra - BSPCB",24-04-2024 07:00:00,25.7808257,84.7446768,CO,35,72,50
India,Bihar,Gaya,"Collectorate, Gaya - BSPCB",24-04-2024 07:00:00,24.7955,84.9994,NO2,1,3,2
India,Bihar,Gaya,"Collectorate, Gaya - BSPCB",24-04-2024 07:00:00,24.7955,84.9994,CO,6,26,14
India,Bihar,Gaya,"Kareemganj, Gaya - BSPCB",24-04-2024 07:00:00,24.792403,84.992416,CO,11,23,15
India,Bihar,Gaya,"SFTI Kusdihra, Gaya - BSPCB",24-04-2024 07:00:00,24.762518,84.982348,PM2.5,17,88,49
India,Bihar,Gaya,"SFTI Kusdihra, Gaya - BSPCB",24-04-2024 07:00:00,24.762518,84.982348,SO2,8,11,9
India,Bihar,Hajipur,"Industrial Area, Hajipur - BSPCB",24-04-2024 07:00:00,25.697189,85.245900,PM2.5,48,220,92
India,Bihar,Hajipur,"Industrial Area, Hajipur - BSPCB",24-04-2024 07:00:00,25.697189,85.245900,SO2,7,8,7
India,Bihar,Katihar,"Mirchaibari, Katihar - BSPCB",24-04-2024 07:00:00,25.560083,87.553265,SO2,16,21,18
India,Bihar,Katihar,"Mirchaibari, Katihar - BSPCB",24-04-2024 07:00:00,25.560083,87.553265,CO,44,60,51
India,Bihar,Kishanganj,"SDM Office_Khagra, Kishanganj - BSPCB",24-04-2024 07:00:00,26.0881305,87.93840336,PM2.5,38,120,73
India,Bihar,Kishanganj,"SDM Office_Khagra, Kishanganj - BSPCB",24-04-2024 07:00:00,26.0881305,87.93840336,OZONE,18,58,57
India,Bihar,Motihari,"Gandak Colony, Motihari - BSPCB",24-04-2024 07:00:00,26.63086,84.90051,PM10,24,102,56
India,Bihar,Munger,"Town Hall, Munger - BSPCB",24-04-2024 07:00:00,25.376776,86.471523,PM2.5,30,280,130
India,Bihar,Munger,"Town Hall, Munger - BSPCB",24-04-2024 07:00:00,25.376776,86.471523,NO2,7,8,8
India,Bihar,Munger,"Town Hall, Munger - BSPCB",24-04-2024 07:00:00,25.376776,86.471523,SO2,10,25,15
India,Bihar,Muzaffarpur,"Buddha Colony, Muzaffarpur - BSPCB",24-04-2024 07:00:00,26.11442,85.39813,PM2.5,194,332,270
India,Bihar,Muzaffarpur,"Buddha Colony, Muzaffarpur - BSPCB",24-04-2024 07:00:00,26.11442,85.39813,PM10,152,281,195
India,Bihar,Muzaffarpur,"Buddha Colony, Muzaffarpur - BSPCB",24-04-2024 07:00:00,26.11442,85.39813,CO,16,64,30
India,Bihar,Muzaffarpur,"MIT-Daudpur Kothi, Muzaffarpur - BSPCB",24-04-2024 07:00:00,26.1403345,85.3650192,NH3,1,2,1
India,Bihar,Muzaffarpur,"MIT-Daudpur Kothi, Muzaffarpur - BSPCB",24-04-2024 07:00:00,26.1403345,85.3650192,SO2,4,4,4
India,Bihar,Muzaffarpur,"Muzaffarpur Collectorate, Muzaffarpur - BSPCB",24-04-2024 07:00:00,26.1209,85.3647,PM2.5,46,197,103
India,Bihar,Patna,"DRM Office Danapur, Patna - BSPCB",24-04-2024 07:00:00,25.586562,85.043586,CO,10,108,17
India,Bihar,Patna,"Govt. High School Shikarpur, Patna - BSPCB",24-04-2024 07:00:00,25.592539,85.227158,PM2.5,60,241,163
India,Bihar,Patna,"IGSC Planetarium Complex, Patna - BSPCB",24-04-2024 07:00:00,25.610369,85.132568,PM2.5,42,313,119
India,Bihar,Patna,"IGSC Planetarium Complex, Patna - BSPCB",24-04-2024 07:00:00,25.610369,85.132568,OZONE,28,53,49
India,Bihar,Patna,"Rajbansi Nagar, Patna - BSPCB",24-04-2024 07:00:00,25.599486,85.113666,PM2.5,70,280,163
India,Bihar,Patna,"Rajbansi Nagar, Patna - BSPCB",24-04-2024 07:00:00,25.599486,85.113666,NH3,5,12,7
India,Bihar,Patna,"Samanpura, Patna - BSPCB",24-04-2024 07:00:00,25.596727,85.085624,NO2,15,90,50
India,Bihar,Purnia,"Mariam Nagar, Purnia - BSPCB",24-04-2024 07:00:00,25.366336,87.117468,NO2,5,11,8
India,Bihar,Purnia,"Mariam Nagar, Purnia - BSPCB",24-04-2024 07:00:00,25.366336,87.117468,SO2,3,13,8
India,Bihar,Rajgir,"Dangi Tola, Rajgir - BSPCB",24-04-2024 07:00:00,25.03280,85.41948,SO2,3,5,4
India,Bihar,Sasaram,"Dada Peer, Sasaram - BSPCB",24-04-2024 07:00:00,24.952822,84.002396,CO,60,87,78
India,Bihar,Siwan,"Chitragupta Nagar, Siwan - BSPCB",24-04-2024 07:00:00,26.2271665,84.3570427,NH3,1,4,2
India,Bihar,Siwan,"Chitragupta Nagar, Siwan - BSPCB",24-04-2024 07:00:00,26.2271665,84.3570427,SO2,18,36,30
India,Bihar,Siwan,"Chitragupta Nagar, Siwan - BSPCB",24-04-2024 07:00:00,26.2271665,84.3570427,OZONE,35,137,48
India,Chandigarh,Chandigarh,"Sector 22, Chandigarh - CPCC",24-04-2024 07:00:00,30.735567,76.775714,NH3,4,8,6
India,Chandigarh,Chandigarh,"Sector 22, Chandigarh - CPCC",24-04-2024 07:00:00,30.735567,76.775714,OZONE,3,137,45
India,Chandigarh,Chandigarh,"Sector-25, Chandigarh - CPCC",24-04-2024 07:00:00,30.751462,76.762879,PM10,34,127,87
India,Chandigarh,Chandigarh,"Sector-53, Chandigarh - CPCC",24-04-2024 07:00:00,30.719859,76.738637,SO2,1,14,8
India,Chhattisgarh,Bhilai,"Civic Center, Bhilai - Bhilai Steel Plant",24-04-2024 07:00:00,21.185571,81.343175,OZONE,8,64,38
India,Chhattisgarh,Bhilai,"Hathkhoj, Bhilai - CECB",24-04-2024 07:00:00,21.224231,81.408350,PM10,28,199,73
India,Chhattisgarh,Bilaspur,"Mangala, Bilaspur - NTPC",24-04-2024 07:00:00,22.08815,82.13737,NO2,13,17,14
India,Chhattisgarh,Chhal,"Nawapara SECL Colony, Chhal - CECB",24-04-2024 07:00:00,22.118125,83.140608,PM10,29,68,45
India,Chhattisgarh,Chhal,"Nawapara SECL Colony, Chhal - CECB",24-04-2024 07:00:00,22.118125,83.140608,NH3,2,2,2
India,Chhattisgarh,Chhal,"Nawapara SECL Colony, Chhal - CECB",24-04-2024 07:00:00,22.118125,83.140608,SO2,14,26,19
India,Chhattisgarh,Chhal,"Nawapara SECL Colony, Chhal - CECB",24-04-2024 07:00:00,22.118125,83.140608,CO,22,64,32
India,Chhattisgarh,Korba,"Rampur, Korba - CECB",24-04-2024 07:00:00,22.368195,82.746431,SO2,8,46,12
India,Chhattisgarh,Korba,"Rampur, Korba - CECB",24-04-2024 07:00:00,22.368195,82.746431,OZONE,8,25,9
India,Chhattisgarh,Korba,"Urja Nagar, Korba - CECB",24-04-2024 07:00:00,22.348441,82.549611,PM2.5,12,87,41
India,Chhattisgarh,Raipur,"Bhatagaon New ISBT, Raipur - CECB",24-04-2024 07:00:00,21.219665,81.630094,NO2,28,49,36
India,Chhattisgarh,Raipur,"Krishak Nagar, Raipur - CECB",24-04-2024 07:00:00,21.237755,81.705301,SO2,11,33,20
India,Chhattisgarh,Raipur,"Siltara Phase-II, Raipur - CECB",24-04-2024 07:00:00,21.371751,81.664929,OZONE,3,36,4
India,Chhattisgarh,Tumidih,"OP Jindal Industrial Park, Tumidih - CECB",24-04-2024 07:00:00,22.06631475,83.33820077,CO,16,53,27
India,Chhattisgarh,Tumidih,"OP Jindal Industrial Park, Tumidih - CECB",24-04-2024 07:00:00,22.06631475,83.33820077,OZONE,14,59,20
India,Delhi,Delhi,"Alipur, Delhi - DPCC",24-04-2024 07:00:00,28.815329,77.153010,SO2,8,54,21
India,Delhi,Delhi,"Alipur, Delhi - DPCC",24-04-2024 07:00:00,28.815329,77.153010,OZONE,1,187,11
India,Delhi,Delhi,"Ashok Vihar, Delhi - DPCC",24-04-2024 07:00:00,28.695381,77.181665,PM10,73,431,229
India,Delhi,Delhi,"Ashok Vihar, Delhi - DPCC",24-04-2024 07:00:00,28.695381,77.181665,NO2,13,114,65
India,Delhi,Delhi,"Ashok Vihar, Delhi - DPCC",24-04-2024 07:00:00,28.695381,77.181665,NH3,10,20,14
India,Delhi,Delhi,"Ashok Vihar, Delhi - DPCC",24-04-2024 07:00:00,28.695381,77.181665,SO2,22,44,30
India,Delhi,Delhi,"Bawana, Delhi - DPCC",24-04-2024 07:00:00,28.776200,77.051074,PM2.5,42,489,203
India,Delhi,Delhi,"CRRI Mathura Road, Delhi - IMD",24-04-2024 07:00:00,28.5512005,77.2735737,PM2.5,NA,NA,NA
India,Delhi,Delhi,"Chandni Chowk, Delhi - IITM",24-04-2024 07:00:00,28.656756,77.227234,OZONE,3,7,5
India,Delhi,Delhi,"DTU, Delhi - CPCB",24-04-2024 07:00:00,28.7500499,77.1112615,PM10,107,500,235
India,Delhi,Delhi,"DTU, Delhi - CPCB",24-04-2024 07:00:00,28.7500499,77.1112615,CO,16,82,61
India,Delhi,Delhi,"DTU, Delhi - CPCB",24-04-2024 07:00:00,28.7500499,77.1112615,OZONE,26,235,29
India,Delhi,Delhi,"Dr. Karni Singh Shooting Range, Delhi - DPCC",24-04-2024 07:00:00,28.498571,77.264840,PM10,68,500,163
India,Delhi,Delhi,"Dr. Karni Singh Shooting Range, Delhi - DPCC",24-04-2024 07:00:00,28.498571,77.264840,CO,28,100,51
India,Delhi,Delhi,"Dwarka-Sector 8, Delhi - DPCC ",24-04-2024 07:00:00,28.5710274,77.0719006,NO2,NA,NA,NA
India,Delhi,Delhi,"ITO, Delhi - CPCB",24-04-2024 07:00:00,28.628624,77.241060,NO2,40,218,101
India,Delhi,Delhi,"Jahangirpuri, Delhi - DPCC",24-04-2024 07:00:00,28.732820,77.170633,PM2.5,54,358,195
India,Delhi,Delhi,"Jahangirpuri, Delhi - DPCC",24-04-2024 07:00:00,28.732820,77.170633,NO2,39,179,107
India,Delhi,Delhi,"Jawaharlal Nehru Stadium, Delhi - DPCC",24-04-2024 07:00:00,28.580280,77.233829,NH3,5,9,7
India,Delhi,Delhi,"Jawaharlal Nehru Stadium, Delhi - DPCC",24-04-2024 07:00:00,28.580280,77.233829,OZONE,1,262,4
India,Delhi,Delhi,"Lodhi Road, Delhi - IMD",24-04-2024 07:00:00,28.5918245,77.2273074,OZONE,NA,NA,NA
India,Delhi,Delhi,"Mandir Marg, Delhi - DPCC",24-04-2024 07:00:00,28.636429,77.201067,PM2.5,26,246,91
India,Delhi,Delhi,"Mandir Marg, Delhi - DPCC",24-04-2024 07:00:00,28.636429,77.201067,OZONE,1,181,2
India,Delhi,Delhi,"Mundka, Delhi - DPCC",24-04-2024 07:00:00,28.684678,77.076574,SO2,7,44,19
India,Delhi,Delhi,"NSIT Dwarka, Delhi - CPCB",24-04-2024 07:00:00,28.60909,77.0325413,OZONE,6,99,11
India,Delhi,Delhi,"Najafgarh, Delhi - DPCC",24-04-2024 07:00:00,28.570173,76.933762,PM2.5,13,350,134
India,Delhi,Delhi,"Najafgarh, Delhi - DPCC",24-04-2024 07:00:00,28.570173,76.933762,NO2,24,102,58
India,Delhi,Delhi,"Najafgarh, Delhi - DPCC",24-04-2024 07:00:00,28.570173,76.933762,SO2,3,26,11
India,Delhi,Delhi,"Narela, Delhi - DPCC",24-04-2024 07:00:00,28.822836,77.101981,NO2,12,100,47
India,Delhi,Delhi,"Narela, Delhi - DPCC",24-04-2024 07:00:00,28.822836,77.101981,OZONE,4,195,9
India,Delhi,Delhi,"Nehru Nagar, Delhi - DPCC",24-04-2024 07:00:00,28.567890,77.250515,NH3,2,3,2
India,Delhi,Delhi,"New Moti Bagh, Delhi - MHUA",24-04-2024 07:00:00,28.57834,77.18400,PM2.5,50,333,134
India,Delhi,Delhi,"New Moti Bagh, Delhi - MHUA",24-04-2024 07:00:00,28.57834,77.18400,NO2,6,32,12
India,Delhi,Delhi,"Okhla Phase-2, Delhi - DPCC",24-04-2024 07:00:00,28.530785,77.271255,PM10,80,379,175
India,Delhi,Delhi,"Okhla Phase-2, Delhi - DPCC",24-04-2024 07:00:00,28.530785,77.271255,NO2,32,111,79
India,Delhi,Delhi,"Patparganj, Delhi - DPCC",24-04-2024 07:00:00,28.623763,77.287209,PM10,94,500,198
India,Delhi,Delhi,"Pusa, Delhi - DPCC",24-04-2024 07:00:00,28.639652,77.146275,OZONE,10,129,10
India,Delhi,Delhi,"R K Puram, Delhi - DPCC",24-04-2024 07:00:00,28.563262,77.186937,OZONE,12,266,16
India,Delhi,Delhi,"Rohini, Delhi - DPCC",24-04-2024 07:00:00,28.732528,77.119920,PM10,69,430,223
India,Delhi,Delhi,"Shadipur, Delhi - CPCB",24-04-2024 07:00:00,28.6514781,77.1473105,SO2,10,36,20
India,Delhi,Delhi,"Sirifort, Delhi - CPCB",24-04-2024 07:00:00,28.5504249,77.2159377,SO2,7,34,17
India,Delhi,Delhi,"Sirifort, Delhi - CPCB",24-04-2024 07:00:00,28.5504249,77.2159377,OZONE,7,146,20
India,Delhi,Delhi,"Sonia Vihar, Delhi - DPCC",24-04-2024 07:00:00,28.710508,77.249485,PM2.5,25,325,147
India,Delhi,Delhi,"Sonia Vihar, Delhi - DPCC",24-04-2024 07:00:00,28.710508,77.249485,NH3,5,8,6
India,Delhi,Delhi,"Sonia Vihar, Delhi - DPCC",24-04-2024 07:00:00,28.710508,77.249485,SO2,7,30,16
India,Delhi,Delhi,"Sonia Vihar, Delhi - DPCC",24-04-2024 07:00:00,28.710508,77.249485,CO,48,104,84
India,Delhi,Delhi,"Sri Aurobindo Marg, Delhi - DPCC",24-04-2024 07:00:00,28.531346,77.190156,NO2,17,95,39
India,Delhi,Delhi,"Sri Aurobindo Marg, Delhi - DPCC",24-04-2024 07:00:00,28.531346,77.190156,OZONE,9,95,9
India,Delhi,Delhi,"Wazirpur, Delhi - DPCC",24-04-2024 07:00:00,28.699793,77.165453,OZONE,5,171,7
India,Gujarat,Ahmedabad,"Gyaspur, Ahmedabad - IITM",24-04-2024 07:00:00,22.977134,72.553024,OZONE,3,47,6
India,Gujarat,Ahmedabad,"Maninagar, Ahmedabad - GPCB",24-04-2024 07:00:00,23.002657,72.591912,PM10,71,183,101
India,Gujarat,Ahmedabad,"Raikhad, Ahmedabad - IITM",24-04-2024 07:00:00,23.020509,72.579261,SO2,6,23,10
India,Gujarat,Ahmedabad,"Rakhial, Ahmedabad - IITM",24-04-2024 07:00:00,23.016834,72.625775,PM10,98,199,129
India,Gujarat,Ahmedabad,"Rakhial, Ahmedabad - IITM",24-04-2024 07:00:00,23.016834,72.625775,NO2,29,52,37
India,Gujarat,Ahmedabad,"SVPI Airport Hansol, Ahmedabad - IITM",24-04-2024 07:00:00,23.076793,72.627874,PM10,65,154,105
India,Gujarat,Ahmedabad,"SVPI Airport Hansol, Ahmedabad - IITM",24-04-2024 07:00:00,23.076793,72.627874,NO2,15,26,21
India,Gujarat,Ahmedabad,"SVPI Airport Hansol, Ahmedabad - IITM",24-04-2024 07:00:00,23.076793,72.627874,OZONE,7,36,13
India,Gujarat,Ahmedabad,"Sardar Vallabhbhai Patel Stadium, Ahmedabad - IITM",24-04-2024 07:00:00,23.043070,72.562968,PM2.5,67,158,99
India,Gujarat,Gandhinagar,"IIPHG Lekawada, Gandhinagar - IITM",24-04-2024 07:00:00,23.243639,72.68994,NH3,NA,NA,NA
India,Gujarat,Gandhinagar,"Sector-10, Gandhinagar - GPCB",24-04-2024 07:00:00,23.221714,72.654328,PM10,34,102,62
India,Gujarat,Surat,"Science Center, Surat - SMC",24-04-2024 07:00:00,21.170046,72.795405,PM2.5,2,38,11
India,Gujarat,Surat,"Science Center, Surat - SMC",24-04-2024 07:00:00,21.170046,72.795405,NO2,29,68,44
India,Gujarat,Surat,"Science Center, Surat - SMC",24-04-2024 07:00:00,21.170046,72.795405,SO2,1,8,4
India,Gujarat,Surat,"Science Center, Surat - SMC",24-04-2024 07:00:00,21.170046,72.795405,CO,23,48,26
India,Gujarat,Vatva,"Phase-4 GIDC, Vatva - GPCB",24-04-2024 07:00:00,22.969611,72.643500,PM2.5,42,334,100
India,Gujarat,Vatva,"Phase-4 GIDC, Vatva - GPCB",24-04-2024 07:00:00,22.969611,72.643500,PM10,56,263,119
India,Gujarat,Vatva,"Phase-4 GIDC, Vatva - GPCB",24-04-2024 07:00:00,22.969611,72.643500,OZONE,10,44,14
India,Haryana,Bahadurgarh,"Arya Nagar, Bahadurgarh - HSPCB",24-04-2024 07:00:00,28.6701,76.9254,CO,92,102,97
India,Haryana,Ballabgarh,"Nathu Colony, Ballabgarh - HSPCB",24-04-2024 07:00:00,28.3419248,77.319699,PM2.5,99,348,188
India,Haryana,Bhiwani,"H.B. Colony, Bhiwani - HSPCB",24-04-2024 07:00:00,28.806223,76.141105,NO2,1,12,8
India,Haryana,Bhiwani,"H.B. Colony, Bhiwani - HSPCB",24-04-2024 07:00:00,28.806223,76.141105,NH3,4,6,6
India,Haryana,Charkhi Dadri,"Mini Secretariat, Charkhi Dadri - HSPCB",24-04-2024 07:00:00,28.593883,76.270653,NH3,6,8,7
India,Haryana,Charkhi Dadri,"Mini Secretariat, Charkhi Dadri - HSPCB",24-04-2024 07:00:00,28.593883,76.270653,CO,25,74,50
India,Haryana,Charkhi Dadri,"Mini Secretariat, Charkhi Dadri - HSPCB",24-04-2024 07:00:00,28.593883,76.270653,OZONE,14,17,15
India,Haryana,Dharuhera,"Municipal Corporation Office, Dharuhera -  HSPCB",24-04-2024 07:00:00,28.206800,76.799700,NH3,9,26,18
India,Haryana,Dharuhera,"Municipal Corporation Office, Dharuhera -  HSPCB",24-04-2024 07:00:00,28.206800,76.799700,CO,12,36,23
India,Haryana,Dharuhera,"Municipal Corporation Office, Dharuhera -  HSPCB",24-04-2024 07:00:00,28.206800,76.799700,OZONE,27,49,30
India,Haryana,Faridabad,"New Industrial Town, Faridabad - HSPCB",24-04-2024 07:00:00,28.39072,77.30059,PM10,33,468,164
India,Haryana,Faridabad,"Sector 11, Faridabad - HSPCB",24-04-2024 07:00:00,28.376058,77.315741,NH3,6,6,6
India,Haryana,Faridabad,"Sector 30, Faridabad - HSPCB",24-04-2024 07:00:00,28.4417,77.3217,NO2,NA,NA,NA
India,Haryana,Faridabad,"Sector 30, Faridabad - HSPCB",24-04-2024 07:00:00,28.4417,77.3217,CO,NA,NA,NA
India,Haryana,Faridabad,"Sector- 16A, Faridabad - HSPCB",24-04-2024 07:00:00,28.4088421,77.3099081,CO,NA,NA,NA
India,Haryana,Gurugram,"Sector-51, Gurugram - HSPCB",24-04-2024 07:00:00,28.4227,77.0667,PM2.5,150,434,283
India,Haryana,Gurugram,"Sector-51, Gurugram - HSPCB",24-04-2024 07:00:00,28.4227,77.0667,NO2,13,29,23
India,Haryana,Gurugram,"Sector-51, Gurugram - HSPCB",24-04-2024 07:00:00,28.4227,77.0667,NH3,7,14,9
India,Haryana,Gurugram,"Sector-51, Gurugram - HSPCB",24-04-2024 07:00:00,28.4227,77.0667,OZONE,27,67,40
India,Haryana,Gurugram,"Teri Gram, Gurugram - HSPCB",24-04-2024 07:00:00,28.4275,77.1465,CO,12,34,23
India,Haryana,Gurugram,"Vikas Sadan, Gurugram - HSPCB",24-04-2024 07:00:00,28.4501238,77.0263051,NO2,5,25,14
India,Haryana,Gurugram,"Vikas Sadan, Gurugram - HSPCB",24-04-2024 07:00:00,28.4501238,77.0263051,CO,54,151,104
India,Haryana,Hisar,"Urban Estate-II, Hisar - HSPCB",24-04-2024 07:00:00,29.140560,75.744941,NO2,17,31,25
India,Haryana,Hisar,"Urban Estate-II, Hisar - HSPCB",24-04-2024 07:00:00,29.140560,75.744941,CO,25,51,38
India,Haryana,Kaithal,"Rishi Nagar, Kaithal - HSPCB",24-04-2024 07:00:00,29.8006,76.4155,PM10,55,159,108
India,Haryana,Karnal,"Sector-12, Karnal - HSPCB",24-04-2024 07:00:00,29.695300,77.002700,PM2.5,75,146,105
India,Haryana,Karnal,"Sector-12, Karnal - HSPCB",24-04-2024 07:00:00,29.695300,77.002700,PM10,73,151,109
India,Haryana,Karnal,"Sector-12, Karnal - HSPCB",24-04-2024 07:00:00,29.695300,77.002700,NO2,7,12,10
India,Haryana,Mandikhera,"General Hospital, Mandikhera - HSPCB",24-04-2024 07:00:00,27.9002,76.9938,PM2.5,10,61,29
India,Haryana,Mandikhera,"General Hospital, Mandikhera - HSPCB",24-04-2024 07:00:00,27.9002,76.9938,PM10,44,343,92
India,Haryana,Manesar,"Sector-2 IMT, Manesar - HSPCB",24-04-2024 07:00:00,28.360699,76.936090,SO2,6,37,12
India,Haryana,Palwal,"Shyam Nagar, Palwal - HSPCB",24-04-2024 07:00:00,28.1485564,77.3320667,NO2,23,24,24
India,Haryana,Palwal,"Shyam Nagar, Palwal - HSPCB",24-04-2024 07:00:00,28.1485564,77.3320667,SO2,1,132,20
India,Haryana,Palwal,"Shyam Nagar, Palwal - HSPCB",24-04-2024 07:00:00,28.1485564,77.3320667,OZONE,9,56,19
India,Haryana,Panchkula,"Sector-6, Panchkula - HSPCB ",24-04-2024 07:00:00,30.7057778,76.8531805555555,CO,2,22,15
India,Haryana,Panipat,"Sector-18, Panipat - HSPCB",24-04-2024 07:00:00,29.497973,76.993331,NO2,31,32,31
India,Haryana,Panipat,"Sector-18, Panipat - HSPCB",24-04-2024 07:00:00,29.497973,76.993331,NH3,2,3,3
India,Haryana,Panipat,"Sector-18, Panipat - HSPCB",24-04-2024 07:00:00,29.497973,76.993331,SO2,18,19,19
India,Haryana,Panipat,"Sector-18, Panipat - HSPCB",24-04-2024 07:00:00,29.497973,76.993331,CO,24,26,25
India,Haryana,Panipat,"Sector-18, Panipat - HSPCB",24-04-2024 07:00:00,29.497973,76.993331,OZONE,30,30,30
India,Haryana,Rohtak,"MD University, Rohtak - HSPCB",24-04-2024 07:00:00,28.52123,76.37138,PM2.5,16,500,123
India,Haryana,Rohtak,"MD University, Rohtak - HSPCB",24-04-2024 07:00:00,28.52123,76.37138,CO,24,90,43
India,Haryana,Sirsa,"F-Block, Sirsa - HSPCB",24-04-2024 07:00:00,29.536400,75.015800,NO2,9,11,10
India,Haryana,Sirsa,"F-Block, Sirsa - HSPCB",24-04-2024 07:00:00,29.536400,75.015800,SO2,5,13,9
India,Haryana,Sonipat,"Murthal, Sonipat - HSPCB",24-04-2024 07:00:00,29.027200,77.062100,CO,1,46,12
India,Haryana,Sonipat,"Murthal, Sonipat - HSPCB",24-04-2024 07:00:00,29.027200,77.062100,OZONE,17,36,19
India,Haryana,Yamuna Nagar,"Gobind Pura, Yamuna Nagar - HSPCB",24-04-2024 07:00:00,30.1480566,77.2893471,OZONE,16,36,17
India,Himachal Pradesh,Baddi,"HIMUDA Complex Phase-1, Baddi - HPPCB",24-04-2024 07:00:00,30.943887,76.801991,OZONE,80,154,107
India,Jharkhand,Dhanbad,"Kalakusuma, Dhanbad - DMC",24-04-2024 07:00:00,23.811548,86.481238,PM10,13,157,102
India,Jharkhand,Dhanbad,"Kalakusuma, Dhanbad - DMC",24-04-2024 07:00:00,23.811548,86.481238,SO2,NA,NA,NA
India,Jharkhand,Dhanbad,"Kalakusuma, Dhanbad - DMC",24-04-2024 07:00:00,23.811548,86.481238,CO,127,136,132
India,Jharkhand,Pathardih,"Mohalbani Ghat, Pathardih - DMC",24-04-2024 07:00:00,23.669880,86.411725,PM10,NA,NA,NA
India,Jharkhand,Pathardih,"Mohalbani Ghat, Pathardih - DMC",24-04-2024 07:00:00,23.669880,86.411725,OZONE,NA,NA,NA
India,Karnataka,Bagalkot,"Vidayagiri, Bagalkot - KSPCB",24-04-2024 07:00:00,16.172806,75.659694,NH3,1,2,1
India,Karnataka,Bagalkot,"Vidayagiri, Bagalkot - KSPCB",24-04-2024 07:00:00,16.172806,75.659694,CO,22,52,37
India,Karnataka,Belgaum,"Ramteerth Nagar, Belgaum - KSPCB",24-04-2024 07:00:00,15.888653,74.541751,PM10,32,78,50
India,Karnataka,Belgaum,"Ramteerth Nagar, Belgaum - KSPCB",24-04-2024 07:00:00,15.888653,74.541751,NH3,1,6,3
India,Karnataka,Bengaluru,"BTM Layout, Bengaluru - CPCB",24-04-2024 07:00:00,12.9135218,77.5950804,PM10,37,76,51
India,Karnataka,Bengaluru,"BTM Layout, Bengaluru - CPCB",24-04-2024 07:00:00,12.9135218,77.5950804,NH3,4,5,4
India,Karnataka,Bengaluru,"BTM Layout, Bengaluru - CPCB",24-04-2024 07:00:00,12.9135218,77.5950804,OZONE,14,76,32
India,Karnataka,Bengaluru,"Bapuji Nagar, Bengaluru - KSPCB",24-04-2024 07:00:00,12.951913,77.539784,PM2.5,47,143,83
India,Karnataka,Bengaluru,"Hombegowda Nagar, Bengaluru - KSPCB",24-04-2024 07:00:00,12.938539,77.590100,SO2,3,9,5
India,Karnataka,Bengaluru,"Jayanagar 5th Block, Bengaluru - KSPCB",24-04-2024 07:00:00,12.920984,77.584908,PM10,48,160,102
India,Karnataka,Bengaluru,"Jayanagar 5th Block, Bengaluru - KSPCB",24-04-2024 07:00:00,12.920984,77.584908,NO2,4,8,5
India,Karnataka,Bengaluru,"Jayanagar 5th Block, Bengaluru - KSPCB",24-04-2024 07:00:00,12.920984,77.584908,NH3,3,4,3
India,Karnataka,Bengaluru,"Kasturi Nagar, Bengaluru - KSPCB",24-04-2024 07:00:00,13.003872,77.664217,PM10,60,378,108
India,Karnataka,Bengaluru,"Kasturi Nagar, Bengaluru - KSPCB",24-04-2024 07:00:00,13.003872,77.664217,NH3,3,4,4
India,Karnataka,Bengaluru,"Peenya, Bengaluru - CPCB",24-04-2024 07:00:00,13.0270199,77.494094,PM2.5,55,72,63
India,Karnataka,Bengaluru,"Peenya, Bengaluru - CPCB",24-04-2024 07:00:00,13.0270199,77.494094,OZONE,1,7,5
India,Karnataka,Bengaluru,"RVCE-Mailasandra, Bengaluru - KSPCB",24-04-2024 07:00:00,12.921418,77.502466,PM2.5,31,97,69
India,Karnataka,Bengaluru,"Shivapura_Peenya, Bengaluru - KSPCB",24-04-2024 07:00:00,13.0246342,77.5080115,NO2,15,16,15
India,Karnataka,Bengaluru,"Silk Board, Bengaluru - KSPCB",24-04-2024 07:00:00,12.917348,77.622813,PM2.5,43,98,72
India,Karnataka,Chamarajanagar,"Urban, Chamarajanagar - KSPCB",24-04-2024 07:00:00,11.55358,76.55521,CO,12,121,35
India,Karnataka,Chikkaballapur,"Chikkaballapur Rural, Chikkaballapur - KSPCB",24-04-2024 07:00:00,13.428828,77.731418,NO2,6,13,9
India,Karnataka,Chikkaballapur,"Chikkaballapur Rural, Chikkaballapur - KSPCB",24-04-2024 07:00:00,13.428828,77.731418,OZONE,25,26,26
India,Karnataka,Chikkamagaluru,"Kalyana Nagara, Chikkamagaluru - KSPCB",24-04-2024 07:00:00,13.328028,75.797056,CO,11,114,13
India,Karnataka,Chikkamagaluru,"Kalyana Nagara, Chikkamagaluru - KSPCB",24-04-2024 07:00:00,13.328028,75.797056,OZONE,15,63,15
India,Karnataka,Davanagere,"Devaraj Urs Badavane, Davanagere - KSPCB",24-04-2024 07:00:00,14.475800,75.905200,PM2.5,38,73,60
India,Karnataka,Davanagere,"Devaraj Urs Badavane, Davanagere - KSPCB",24-04-2024 07:00:00,14.475800,75.905200,PM10,46,111,61
India,Karnataka,Dharwad,"Kalabhavan, Dharwad - KSPCB",24-04-2024 07:00:00,15.459706,75.008381,PM2.5,44,95,69
India,Karnataka,Gadag,"Panchal Nagar, Gadag - KSPCB",24-04-2024 07:00:00,15.411456,75.638133,CO,43,56,48
India,Karnataka,Hassan,"B.Katihalli, Hassan - KSPCB",24-04-2024 07:00:00,13.008556,76.125258,PM2.5,NA,NA,NA
India,Karnataka,Hassan,"B.Katihalli, Hassan - KSPCB",24-04-2024 07:00:00,13.008556,76.125258,CO,NA,NA,NA
India,Karnataka,Hubballi,"Lingaraj Nagar, Hubballi - KSPCB",24-04-2024 07:00:00,15.3714823,75.1160168,OZONE,37,99,43
India,Karnataka,Kalaburagi,"Lal Bahadur Shastri Nagar, Kalaburagi - KSPCB",24-04-2024 07:00:00,17.321993,76.822628,NH3,2,2,2
India,Karnataka,Kalaburagi,"Lal Bahadur Shastri Nagar, Kalaburagi - KSPCB",24-04-2024 07:00:00,17.321993,76.822628,OZONE,6,66,28
India,Karnataka,Kalaburagi,"Mahatma Basaveswar Colony, Kalaburgi - KSPCB",24-04-2024 07:00:00,17.336318,76.847397,OZONE,2,37,17
India,Karnataka,Kolar,"Tamaka Ind. Area, Kolar - KSPCB",24-04-2024 07:00:00,13.1276288,78.1570122,PM10,NA,NA,NA
India,Karnataka,Koppal,"Diwator Nagar, Koppal - KSPCB",24-04-2024 07:00:00,15.347630,76.181767,PM10,21,92,42
India,Karnataka,Koppal,"Diwator Nagar, Koppal - KSPCB",24-04-2024 07:00:00,15.347630,76.181767,NH3,5,9,7
