country,state,city,station,last_update,latitude,longitude,pollutant_id,pollutant_min,pollutant_max,pollutant_avg
India,Andhra_Pradesh,Amaravati,"Secretariat, Amaravati - APPCB",12-03-2024 15:00:00,16.5150833,80.5181667,PM10,61,86,68
India,Andhra_Pradesh,Anantapur,"Gulzarpet, Anantapur - APPCB",12-03-2024 15:00:00,14.675886,77.593027,PM2.5,35,74,46
India,Andhra_Pradesh,Anantapur,"Gulzarpet, Anantapur - APPCB",12-03-2024 15:00:00,14.675886,77.593027,PM10,70,110,87
India,Andhra_Pradesh,Anantapur,"Gulzarpet, Anantapur - APPCB",12-03-2024 15:00:00,14.675886,77.593027,SO2,4,16,8
India,Andhra_Pradesh,Chittoor,"Gangineni Cheruvu, Chittoor - APPCB",12-03-2024 15:00:00,13.204880,79.097889,PM2.5,NA,NA,NA
India,Andhra_Pradesh,Chittoor,"Gangineni Cheruvu, Chittoor - APPCB",12-03-2024 15:00:00,13.204880,79.097889,PM10,NA,NA,NA
India,Andhra_Pradesh,Chittoor,"Gangineni Cheruvu, Chittoor - APPCB",12-03-2024 15:00:00,13.204880,79.097889,NO2,NA,NA,NA
India,Andhra_Pradesh,Chittoor,"Gangineni Cheruvu, Chittoor - APPCB",12-03-2024 15:00:00,13.204880,79.097889,SO2,NA,NA,NA
India,Andhra_Pradesh,Chittoor,"Gangineni Cheruvu, Chittoor - APPCB",12-03-2024 15:00:00,13.204880,79.097889,OZONE,NA,NA,NA
India,Andhra_Pradesh,Kadapa,"Yerramukkapalli, Kadapa - APPCB",12-03-2024 15:00:00,14.465052,78.824187,SO2,1,3,2
India,Andhra_Pradesh,Kadapa,"Yerramukkapalli, Kadapa - APPCB",12-03-2024 15:00:00,14.465052,78.824187,OZONE,16,82,43
India,Andhra_Pradesh,Rajamahendravaram,"Anand Kala Kshetram, Rajamahendravaram - APPCB",12-03-2024 15:00:00,16.9872867,81.7363176,PM10,56,105,75
India,Andhra_Pradesh,Tirupati,"Vaikuntapuram, Tirupati - APPCB",12-03-2024 15:00:00,13.615387,79.409230,NO2,16,27,20
India,Andhra_Pradesh,Vijayawada,"HB Colony, Vijayawada - APPCB",12-03-2024 15:00:00,16.536107,80.594233,NO2,5,14,9
India,Andhra_Pradesh,Vijayawada,"HB Colony, Vijayawada - APPCB",12-03-2024 15:00:00,16.536107,80.594233,SO2,3,5,4
India,Andhra_Pradesh,Vijayawada,"Kanuru, Vijayawada - APPCB",12-03-2024 15:00:00,16.486692,80.699436,PM2.5,64,79,71
India,Andhra_Pradesh,Vijayawada,"Kanuru, Vijayawada - APPCB",12-03-2024 15:00:00,16.486692,80.699436,NH3,1,1,1
India,Andhra_Pradesh,Vijayawada,"Rajiv Nagar, Vijayawada - APPCB",12-03-2024 15:00:00,16.554731,80.649110,NO2,5,36,8
India,Andhra_Pradesh,Visakhapatnam,"GVM Corporation, Visakhapatnam - APPCB",12-03-2024 15:00:00,17.72,83.3,OZONE,9,12,10
India,Arunachal_Pradesh,Naharlagun,"Naharlagun, Naharlagun - APSPCB",12-03-2024 15:00:00,27.103358,93.679645,OZONE,2,2,2
India,Assam,Byrnihat,"Central Academy for SFS, Byrnihat - PCBA",12-03-2024 15:00:00,26.071318,91.87488,PM2.5,NA,NA,NA
India,Assam,Byrnihat,"Central Academy for SFS, Byrnihat - PCBA",12-03-2024 15:00:00,26.071318,91.87488,SO2,11,19,14
India,Assam,Byrnihat,"Central Academy for SFS, Byrnihat - PCBA",12-03-2024 15:00:00,26.071318,91.87488,OZONE,10,15,13
India,Assam,Guwahati,"IITG, Guwahati - PCBA",12-03-2024 15:00:00,26.2028636,91.70046436,CO,10,17,13
India,Assam,Guwahati,"Pan Bazaar, Guwahati - PCBA",12-03-2024 15:00:00,26.187500,91.744194,SO2,73,90,82
India,Assam,Guwahati,"Railway Colony, Guwahati - PCBA",12-03-2024 15:00:00,26.181742,91.78063,NO2,3,4,3
India,Assam,Guwahati,"Railway Colony, Guwahati - PCBA",12-03-2024 15:00:00,26.181742,91.78063,CO,22,134,48
India,Assam,Nagaon,"Christianpatty, Nagaon - PCBA",12-03-2024 15:00:00,26.349082,92.68449,NH3,2,9,4
India,Assam,Nalbari,"Bata Chowk, Nalbari - PCBA",12-03-2024 15:00:00,26.446912,91.439057,PM2.5,137,347,274
India,Assam,Nalbari,"Bata Chowk, Nalbari - PCBA",12-03-2024 15:00:00,26.446912,91.439057,CO,89,128,107
India,Assam,Nalbari,"Bata Chowk, Nalbari - PCBA",12-03-2024 15:00:00,26.446912,91.439057,OZONE,1,167,160
India,Assam,Sivasagar,"Girls College, Sivasagar - PCBA",12-03-2024 15:00:00,26.987634,94.636574,PM2.5,43,56,49
India,Assam,Sivasagar,"Girls College, Sivasagar - PCBA",12-03-2024 15:00:00,26.987634,94.636574,PM10,37,83,61
India,Assam,Sivasagar,"Girls College, Sivasagar - PCBA",12-03-2024 15:00:00,26.987634,94.636574,NH3,2,2,2
India,Assam,Sivasagar,"Girls College, Sivasagar - PCBA",12-03-2024 15:00:00,26.987634,94.636574,SO2,5,11,8
India,Bihar,Araria,"Kharahiya Basti, Araria - BSPCB",12-03-2024 15:00:00,26.146529,87.454184,PM2.5,49,220,145
India,Bihar,Araria,"Kharahiya Basti, Araria - BSPCB",12-03-2024 15:00:00,26.146529,87.454184,NH3,7,8,8
India,Bihar,Araria,"Kharahiya Basti, Araria - BSPCB",12-03-2024 15:00:00,26.146529,87.454184,CO,22,36,33
India,Bihar,Araria,"Kharahiya Basti, Araria - BSPCB",12-03-2024 15:00:00,26.146529,87.454184,OZONE,8,12,11
India,Bihar,Arrah,"New DM Office, Arrah - BSPCB",12-03-2024 15:00:00,25.5626095,84.663264,OZONE,NA,NA,NA
India,Bihar,Aurangabad,"Gurdeo Nagar, Aurangabad - BSPCB",12-03-2024 15:00:00,24.75746,84.366208,NH3,5,12,8
India,Bihar,Bettiah,"Kamalnath Nagar, Bettiah - BSPCB",12-03-2024 15:00:00,26.80365,84.51954,PM10,72,163,121
India,Bihar,Bhagalpur,"DM Office_Kachari Chowk, Bhagalpur - BSPCB",12-03-2024 15:00:00,25.251013,86.989001,PM2.5,37,345,152
India,Bihar,Bhagalpur,"DM Office_Kachari Chowk, Bhagalpur - BSPCB",12-03-2024 15:00:00,25.251013,86.989001,SO2,12,55,18
India,Bihar,Bhagalpur,"Mayaganj, Bhagalpur - BSPCB",12-03-2024 15:00:00,25.265194,87.012947,SO2,11,12,12
India,Bihar,Bihar Sharif,"D M Colony, Bihar Sharif - BSPCB",12-03-2024 15:00:00,25.204762,85.514960,NO2,7,10,9
India,Bihar,Bihar Sharif,"D M Colony, Bihar Sharif - BSPCB",12-03-2024 15:00:00,25.204762,85.514960,CO,6,54,23
India,Bihar,Buxar,"Charitra Van, Buxar - BSPCB (Formerly known as Central Jail)",12-03-2024 15:00:00,25.567520,83.966379,CO,52,105,68
India,Bihar,Chhapra,"Darshan Nagar, Chhapra - BSPCB",12-03-2024 15:00:00,25.7808257,84.7446768,PM2.5,65,260,169
India,Bihar,Chhapra,"Darshan Nagar, Chhapra - BSPCB",12-03-2024 15:00:00,25.7808257,84.7446768,PM10,63,151,120
India,Bihar,Gaya,"Collectorate, Gaya - BSPCB",12-03-2024 15:00:00,24.7955,84.9994,SO2,2,23,12
India,Bihar,Gaya,"Kareemganj, Gaya - BSPCB",12-03-2024 15:00:00,24.792403,84.992416,PM10,56,213,116
India,Bihar,Gaya,"Kareemganj, Gaya - BSPCB",12-03-2024 15:00:00,24.792403,84.992416,OZONE,3,41,16
India,Bihar,Gaya,"SFTI Kusdihra, Gaya - BSPCB",12-03-2024 15:00:00,24.762518,84.982348,NO2,20,55,37
India,Bihar,Gaya,"SFTI Kusdihra, Gaya - BSPCB",12-03-2024 15:00:00,24.762518,84.982348,CO,24,42,33
India,Bihar,Katihar,"Mirchaibari, Katihar - BSPCB",12-03-2024 15:00:00,25.560083,87.553265,PM2.5,72,340,190
India,Bihar,Katihar,"Mirchaibari, Katihar - BSPCB",12-03-2024 15:00:00,25.560083,87.553265,NH3,3,6,4
India,Bihar,Manguraha,"Forest Rest House, Manguraha - BSPCB",12-03-2024 15:00:00,27.308328,84.531742,OZONE,1,82,50
India,Bihar,Motihari,"Gandak Colony, Motihari - BSPCB",12-03-2024 15:00:00,26.63086,84.90051,CO,NA,NA,NA
India,Bihar,Munger,"Town Hall, Munger - BSPCB",12-03-2024 15:00:00,25.376776,86.471523,PM2.5,58,434,172
India,Bihar,Munger,"Town Hall, Munger - BSPCB",12-03-2024 15:00:00,25.376776,86.471523,NH3,1,2,2
India,Bihar,Munger,"Town Hall, Munger - BSPCB",12-03-2024 15:00:00,25.376776,86.471523,CO,4,14,4
India,Bihar,Muzaffarpur,"Buddha Colony, Muzaffarpur - BSPCB",12-03-2024 15:00:00,26.11442,85.39813,NO2,NA,NA,NA
India,Bihar,Muzaffarpur,"Buddha Colony, Muzaffarpur - BSPCB",12-03-2024 15:00:00,26.11442,85.39813,NH3,NA,NA,NA
India,Bihar,Muzaffarpur,"Buddha Colony, Muzaffarpur - BSPCB",12-03-2024 15:00:00,26.11442,85.39813,SO2,NA,NA,NA
India,Bihar,Muzaffarpur,"Buddha Colony, Muzaffarpur - BSPCB",12-03-2024 15:00:00,26.11442,85.39813,OZONE,20,65,41
India,Bihar,Patna,"DRM Office Danapur, Patna - BSPCB",12-03-2024 15:00:00,25.586562,85.043586,NO2,14,108,50
India,Bihar,Patna,"DRM Office Danapur, Patna - BSPCB",12-03-2024 15:00:00,25.586562,85.043586,CO,28,103,41
India,Bihar,Patna,"IGSC Planetarium Complex, Patna - BSPCB",12-03-2024 15:00:00,25.610369,85.132568,OZONE,6,43,22
India,Bihar,Patna,"Rajbansi Nagar, Patna - BSPCB",12-03-2024 15:00:00,25.599486,85.113666,PM10,120,165,145
India,Bihar,Patna,"Rajbansi Nagar, Patna - BSPCB",12-03-2024 15:00:00,25.599486,85.113666,SO2,1,14,6
India,Bihar,Patna,"Rajbansi Nagar, Patna - BSPCB",12-03-2024 15:00:00,25.599486,85.113666,CO,46,102,62
India,Bihar,Patna,"Rajbansi Nagar, Patna - BSPCB",12-03-2024 15:00:00,25.599486,85.113666,OZONE,5,134,55
India,Bihar,Patna,"Samanpura, Patna - BSPCB",12-03-2024 15:00:00,25.596727,85.085624,CO,69,132,97
India,Bihar,Purnia,"Mariam Nagar, Purnia - BSPCB",12-03-2024 15:00:00,25.366336,87.117468,PM2.5,25,183,116
India,Bihar,Purnia,"Mariam Nagar, Purnia - BSPCB",12-03-2024 15:00:00,25.366336,87.117468,NH3,1,1,1
India,Bihar,Purnia,"Mariam Nagar, Purnia - BSPCB",12-03-2024 15:00:00,25.366336,87.117468,OZONE,11,64,35
India,Bihar,Rajgir,"Dangi Tola, Rajgir - BSPCB",12-03-2024 15:00:00,25.03280,85.41948,PM2.5,35,349,82
India,Bihar,Saharsa,"Police Line, Saharsa - BSPCB",12-03-2024 15:00:00,25.892357,86.590325,PM2.5,33,260,126
India,Bihar,Saharsa,"Police Line, Saharsa - BSPCB",12-03-2024 15:00:00,25.892357,86.590325,SO2,16,17,16
India,Bihar,Saharsa,"Police Line, Saharsa - BSPCB",12-03-2024 15:00:00,25.892357,86.590325,CO,16,52,22
India,Bihar,Samastipur,"DM Office_Kasipur, Samastipur - BSPCB",12-03-2024 15:00:00,25.859655,85.77944,NH3,3,4,4
India,Bihar,Samastipur,"DM Office_Kasipur, Samastipur - BSPCB",12-03-2024 15:00:00,25.859655,85.77944,OZONE,9,27,18
India,Bihar,Sasaram,"Dada Peer, Sasaram - BSPCB",12-03-2024 15:00:00,24.952822,84.002396,SO2,21,23,22
India,Bihar,Siwan,"Chitragupta Nagar, Siwan - BSPCB",12-03-2024 15:00:00,26.2271665,84.3570427,SO2,26,36,33
India,Chandigarh,Chandigarh,"Sector 22, Chandigarh - CPCC",12-03-2024 15:00:00,30.735567,76.775714,PM2.5,43,300,200
India,Chandigarh,Chandigarh,"Sector 22, Chandigarh - CPCC",12-03-2024 15:00:00,30.735567,76.775714,NH3,4,8,6
India,Chandigarh,Chandigarh,"Sector-25, Chandigarh - CPCC",12-03-2024 15:00:00,30.751462,76.762879,PM2.5,128,228,171
India,Chandigarh,Chandigarh,"Sector-25, Chandigarh - CPCC",12-03-2024 15:00:00,30.751462,76.762879,PM10,116,151,137
India,Chandigarh,Chandigarh,"Sector-25, Chandigarh - CPCC",12-03-2024 15:00:00,30.751462,76.762879,SO2,7,22,11
India,Chandigarh,Chandigarh,"Sector-53, Chandigarh - CPCC",12-03-2024 15:00:00,30.719859,76.738637,PM2.5,53,309,220
India,Chandigarh,Chandigarh,"Sector-53, Chandigarh - CPCC",12-03-2024 15:00:00,30.719859,76.738637,PM10,73,197,144
India,Chandigarh,Chandigarh,"Sector-53, Chandigarh - CPCC",12-03-2024 15:00:00,30.719859,76.738637,NH3,5,7,5
India,Chandigarh,Chandigarh,"Sector-53, Chandigarh - CPCC",12-03-2024 15:00:00,30.719859,76.738637,SO2,11,22,15
India,Chhattisgarh,Bhilai,"32Bungalows, Bhilai - CECB",12-03-2024 15:00:00,21.194815,81.314770,PM2.5,42,54,48
India,Chhattisgarh,Bhilai,"32Bungalows, Bhilai - CECB",12-03-2024 15:00:00,21.194815,81.314770,PM10,49,73,61
India,Chhattisgarh,Bhilai,"32Bungalows, Bhilai - CECB",12-03-2024 15:00:00,21.194815,81.314770,SO2,5,10,7
India,Chhattisgarh,Bhilai,"Hathkhoj, Bhilai - CECB",12-03-2024 15:00:00,21.224231,81.408350,SO2,14,36,21
India,Chhattisgarh,Bhilai,"Hathkhoj, Bhilai - CECB",12-03-2024 15:00:00,21.224231,81.408350,OZONE,30,46,40
India,Chhattisgarh,Bilaspur,"Mangala, Bilaspur - NTPC",12-03-2024 15:00:00,22.08815,82.13737,PM10,41,93,61
India,Chhattisgarh,Bilaspur,"Mangala, Bilaspur - NTPC",12-03-2024 15:00:00,22.08815,82.13737,NO2,11,15,13
India,Chhattisgarh,Chhal,"Nawapara SECL Colony, Chhal - CECB",12-03-2024 15:00:00,22.118125,83.140608,PM10,53,129,93
India,Chhattisgarh,Korba,"Rampur, Korba - CECB",12-03-2024 15:00:00,22.368195,82.746431,PM10,NA,NA,NA
India,Chhattisgarh,Korba,"Urja Nagar, Korba - CECB",12-03-2024 15:00:00,22.348441,82.549611,NH3,1,13,6
India,Chhattisgarh,Korba,"Urja Nagar, Korba - CECB",12-03-2024 15:00:00,22.348441,82.549611,SO2,4,14,6
India,Chhattisgarh,Kunjemura,"OP Jindal School, Kunjemura - CECB",12-03-2024 15:00:00,22.126650,83.483212,NH3,1,4,2
India,Chhattisgarh,Kunjemura,"OP Jindal School, Kunjemura - CECB",12-03-2024 15:00:00,22.126650,83.483212,SO2,2,82,15
India,Chhattisgarh,Milupara,"Govt. Higher Secondary School, Milupara - CECB",12-03-2024 15:00:00,22.1910172,83.5197009,PM10,NA,NA,NA
India,Chhattisgarh,Raipur,"AIIMS, Raipur - CECB",12-03-2024 15:00:00,21.258815,81.578979,PM10,48,112,67
India,Chhattisgarh,Raipur,"AIIMS, Raipur - CECB",12-03-2024 15:00:00,21.258815,81.578979,NO2,32,71,55
India,Chhattisgarh,Raipur,"AIIMS, Raipur - CECB",12-03-2024 15:00:00,21.258815,81.578979,NH3,4,6,6
India,Chhattisgarh,Raipur,"Bhatagaon New ISBT, Raipur - CECB",12-03-2024 15:00:00,21.219665,81.630094,SO2,3,5,5
India,Chhattisgarh,Raipur,"Krishak Nagar, Raipur - CECB",12-03-2024 15:00:00,21.237755,81.705301,NO2,25,43,33
India,Chhattisgarh,Raipur,"Krishak Nagar, Raipur - CECB",12-03-2024 15:00:00,21.237755,81.705301,CO,30,51,46
India,Chhattisgarh,Raipur,"Siltara Phase-II, Raipur - CECB",12-03-2024 15:00:00,21.371751,81.664929,PM2.5,NA,NA,NA
India,Chhattisgarh,Raipur,"Siltara Phase-II, Raipur - CECB",12-03-2024 15:00:00,21.371751,81.664929,SO2,18,65,33
India,Chhattisgarh,Raipur,"Siltara Phase-II, Raipur - CECB",12-03-2024 15:00:00,21.371751,81.664929,CO,22,82,56
India,Chhattisgarh,Tumidih,"OP Jindal Industrial Park, Tumidih - CECB",12-03-2024 15:00:00,22.06631475,83.33820077,CO,22,82,25
India,Delhi,Delhi,"Alipur, Delhi - DPCC",12-03-2024 15:00:00,28.815329,77.153010,NH3,NA,NA,NA
India,Delhi,Delhi,"Alipur, Delhi - DPCC",12-03-2024 15:00:00,28.815329,77.153010,SO2,NA,NA,NA
India,Delhi,Delhi,"Alipur, Delhi - DPCC",12-03-2024 15:00:00,28.815329,77.153010,OZONE,48,159,100
India,Delhi,Delhi,"Ashok Vihar, Delhi - DPCC",12-03-2024 15:00:00,28.695381,77.181665,PM10,114,314,176
India,Delhi,Delhi,"Aya Nagar, Delhi - IMD",12-03-2024 15:00:00,28.4706914,77.1099364,PM10,119,386,162
India,Delhi,Delhi,"Bawana, Delhi - DPCC",12-03-2024 15:00:00,28.776200,77.051074,SO2,9,32,16
India,Delhi,Delhi,"Bawana, Delhi - DPCC",12-03-2024 15:00:00,28.776200,77.051074,OZONE,4,148,52
India,Delhi,Delhi,"Burari Crossing, Delhi - IMD",12-03-2024 15:00:00,28.7256504,77.2011573,NO2,11,14,12
India,Delhi,Delhi,"Burari Crossing, Delhi - IMD",12-03-2024 15:00:00,28.7256504,77.2011573,CO,47,68,62
India,Delhi,Delhi,"Burari Crossing, Delhi - IMD",12-03-2024 15:00:00,28.7256504,77.2011573,OZONE,4,78,12
India,Delhi,Delhi,"CRRI Mathura Road, Delhi - IMD",12-03-2024 15:00:00,28.5512005,77.2735737,NO2,4,23,14
India,Delhi,Delhi,"CRRI Mathura Road, Delhi - IMD",12-03-2024 15:00:00,28.5512005,77.2735737,CO,23,86,83
India,Delhi,Delhi,"Chandni Chowk, Delhi - IITM",12-03-2024 15:00:00,28.656756,77.227234,PM2.5,163,336,252
India,Delhi,Delhi,"Dr. Karni Singh Shooting Range, Delhi - DPCC",12-03-2024 15:00:00,28.498571,77.264840,PM10,111,240,165
India,Delhi,Delhi,"Dr. Karni Singh Shooting Range, Delhi - DPCC",12-03-2024 15:00:00,28.498571,77.264840,SO2,22,52,29
India,Delhi,Delhi,"Dwarka-Sector 8, Delhi - DPCC ",12-03-2024 15:00:00,28.5710274,77.0719006,PM10,131,450,199
India,Delhi,Delhi,"IGI Airport (T3), Delhi - IMD",12-03-2024 15:00:00,28.5627763,77.1180053,PM2.5,57,428,150
India,Delhi,Delhi,"IGI Airport (T3), Delhi - IMD",12-03-2024 15:00:00,28.5627763,77.1180053,NO2,28,78,53
India,Delhi,Delhi,"IHBAS, Dilshad Garden, Delhi - CPCB",12-03-2024 15:00:00,28.6811736,77.3025234,PM2.5,64,273,159
India,Delhi,Delhi,"Jahangirpuri, Delhi - DPCC",12-03-2024 15:00:00,28.732820,77.170633,PM10,125,411,222
India,Delhi,Delhi,"Jahangirpuri, Delhi - DPCC",12-03-2024 15:00:00,28.732820,77.170633,NH3,8,18,10
India,Delhi,Delhi,"Jahangirpuri, Delhi - DPCC",12-03-2024 15:00:00,28.732820,77.170633,SO2,2,57,18
India,Delhi,Delhi,"Jawaharlal Nehru Stadium, Delhi - DPCC",12-03-2024 15:00:00,28.580280,77.233829,CO,30,78,53
India,Delhi,Delhi,"Lodhi Road, Delhi - IITM",12-03-2024 15:00:00,28.588333,77.221667,NO2,81,120,90
India,Delhi,Delhi,"Lodhi Road, Delhi - IMD",12-03-2024 15:00:00,28.5918245,77.2273074,PM10,71,245,118
India,Delhi,Delhi,"Lodhi Road, Delhi - IMD",12-03-2024 15:00:00,28.5918245,77.2273074,CO,17,39,37
India,Delhi,Delhi,"Major Dhyan Chand National Stadium, Delhi - DPCC",12-03-2024 15:00:00,28.611281,77.237738,PM2.5,79,344,185
India,Delhi,Delhi,"Major Dhyan Chand National Stadium, Delhi - DPCC",12-03-2024 15:00:00,28.611281,77.237738,PM10,101,256,147
India,Delhi,Delhi,"Major Dhyan Chand National Stadium, Delhi - DPCC",12-03-2024 15:00:00,28.611281,77.237738,NH3,7,11,8
India,Delhi,Delhi,"Mandir Marg, Delhi - DPCC",12-03-2024 15:00:00,28.636429,77.201067,NH3,10,13,11
India,Delhi,Delhi,"Mundka, Delhi - DPCC",12-03-2024 15:00:00,28.684678,77.076574,NH3,5,8,6
India,Delhi,Delhi,"Mundka, Delhi - DPCC",12-03-2024 15:00:00,28.684678,77.076574,SO2,8,26,13
India,Delhi,Delhi,"Najafgarh, Delhi - DPCC",12-03-2024 15:00:00,28.570173,76.933762,PM10,83,334,154
India,Delhi,Delhi,"Najafgarh, Delhi - DPCC",12-03-2024 15:00:00,28.570173,76.933762,NO2,6,22,13
India,Delhi,Delhi,"Najafgarh, Delhi - DPCC",12-03-2024 15:00:00,28.570173,76.933762,OZONE,7,223,156
India,Delhi,Delhi,"Nehru Nagar, Delhi - DPCC",12-03-2024 15:00:00,28.567890,77.250515,PM2.5,73,352,206
India,Delhi,Delhi,"Nehru Nagar, Delhi - DPCC",12-03-2024 15:00:00,28.567890,77.250515,SO2,8,26,12
India,Delhi,Delhi,"Okhla Phase-2, Delhi - DPCC",12-03-2024 15:00:00,28.530785,77.271255,NH3,7,12,9
India,Delhi,Delhi,"Patparganj, Delhi - DPCC",12-03-2024 15:00:00,28.623763,77.287209,SO2,14,20,17
India,Delhi,Delhi,"Punjabi Bagh, Delhi - DPCC",12-03-2024 15:00:00,28.674045,77.131023,NO2,16,35,24
India,Delhi,Delhi,"R K Puram, Delhi - DPCC",12-03-2024 15:00:00,28.563262,77.186937,PM2.5,75,358,187
India,Delhi,Delhi,"Rohini, Delhi - DPCC",12-03-2024 15:00:00,28.732528,77.119920,PM2.5,55,379,197
India,Delhi,Delhi,"Rohini, Delhi - DPCC",12-03-2024 15:00:00,28.732528,77.119920,PM10,98,341,173
India,Delhi,Delhi,"Rohini, Delhi - DPCC",12-03-2024 15:00:00,28.732528,77.119920,NO2,15,79,44
India,Delhi,Delhi,"Sirifort, Delhi - CPCB",12-03-2024 15:00:00,28.5504249,77.2159377,SO2,40,49,43
India,Delhi,Delhi,"Sonia Vihar, Delhi - DPCC",12-03-2024 15:00:00,28.710508,77.249485,CO,48,96,75
India,Delhi,Delhi,"Sri Aurobindo Marg, Delhi - DPCC",12-03-2024 15:00:00,28.531346,77.190156,CO,12,54,36
India,Delhi,Delhi,"Sri Aurobindo Marg, Delhi - DPCC",12-03-2024 15:00:00,28.531346,77.190156,OZONE,1,51,23
India,Gujarat,Ahmedabad,"Chandkheda, Ahmedabad - IITM",12-03-2024 15:00:00,23.107969,72.574648,PM10,54,129,87
India,Gujarat,Ahmedabad,"Gyaspur, Ahmedabad - IITM",12-03-2024 15:00:00,22.977134,72.553024,NH3,4,4,4
India,Gujarat,Ahmedabad,"Gyaspur, Ahmedabad - IITM",12-03-2024 15:00:00,22.977134,72.553024,SO2,3,6,5
India,Gujarat,Ahmedabad,"Gyaspur, Ahmedabad - IITM",12-03-2024 15:00:00,22.977134,72.553024,CO,22,26,25
India,Gujarat,Ahmedabad,"Gyaspur, Ahmedabad - IITM",12-03-2024 15:00:00,22.977134,72.553024,OZONE,8,45,27
India,Gujarat,Ahmedabad,"Maninagar, Ahmedabad - GPCB",12-03-2024 15:00:00,23.002657,72.591912,OZONE,9,105,83
India,Gujarat,Ahmedabad,"Raikhad, Ahmedabad - IITM",12-03-2024 15:00:00,23.020509,72.579261,NO2,51,171,83
India,Gujarat,Ahmedabad,"Rakhial, Ahmedabad - IITM",12-03-2024 15:00:00,23.016834,72.625775,OZONE,1,42,13
India,Gujarat,Ahmedabad,"SAC ISRO Satellite, Ahmedabad - IITM",12-03-2024 15:00:00,23.023389,72.515201,NH3,3,3,3
India,Gujarat,Ahmedabad,"SAC ISRO Satellite, Ahmedabad - IITM",12-03-2024 15:00:00,23.023389,72.515201,OZONE,12,23,20
India,Gujarat,Ahmedabad,"SVPI Airport Hansol, Ahmedabad - IITM",12-03-2024 15:00:00,23.076793,72.627874,SO2,7,8,7
India,Gujarat,Ahmedabad,"SVPI Airport Hansol, Ahmedabad - IITM",12-03-2024 15:00:00,23.076793,72.627874,CO,22,54,33
India,Gujarat,Ahmedabad,"Sardar Vallabhbhai Patel Stadium, Ahmedabad - IITM",12-03-2024 15:00:00,23.043070,72.562968,NO2,15,17,16
India,Gujarat,Gandhinagar,"GIFT City, Gandhinagar - IITM",12-03-2024 15:00:00,23.163798,72.677768,CO,20,32,25
India,Gujarat,Gandhinagar,"IIPHG Lekawada, Gandhinagar - IITM",12-03-2024 15:00:00,23.243639,72.68994,SO2,11,12,11
India,Gujarat,Gandhinagar,"IIPHG Lekawada, Gandhinagar - IITM",12-03-2024 15:00:00,23.243639,72.68994,CO,22,24,23
India,Gujarat,Gandhinagar,"IIPHG Lekawada, Gandhinagar - IITM",12-03-2024 15:00:00,23.243639,72.68994,OZONE,6,42,23
India,Gujarat,Gandhinagar,"Sector-10, Gandhinagar - GPCB",12-03-2024 15:00:00,23.221714,72.654328,NO2,5,17,14
India,Gujarat,Gandhinagar,"Sector-10, Gandhinagar - GPCB",12-03-2024 15:00:00,23.221714,72.654328,OZONE,2,23,3
India,Gujarat,Surat,"Science Center, Surat - SMC",12-03-2024 15:00:00,21.170046,72.795405,PM2.5,17,70,44
India,Gujarat,Surat,"Science Center, Surat - SMC",12-03-2024 15:00:00,21.170046,72.795405,PM10,18,87,41
India,Gujarat,Surat,"Science Center, Surat - SMC",12-03-2024 15:00:00,21.170046,72.795405,CO,46,102,54
India,Gujarat,Vapi,"Phase-1 GIDC, Vapi - GPCB",12-03-2024 15:00:00,20.362421,72.918013,PM2.5,38,118,79
India,Gujarat,Vapi,"Phase-1 GIDC, Vapi - GPCB",12-03-2024 15:00:00,20.362421,72.918013,NO2,17,33,30
India,Haryana,Ambala,"Patti Mehar, Ambala - HSPCB",12-03-2024 15:00:00,30.379589,76.778328,NO2,8,9,8
India,Haryana,Ambala,"Patti Mehar, Ambala - HSPCB",12-03-2024 15:00:00,30.379589,76.778328,CO,30,60,51
India,Haryana,Ambala,"Patti Mehar, Ambala - HSPCB",12-03-2024 15:00:00,30.379589,76.778328,OZONE,34,46,42
India,Haryana,Ballabgarh,"Nathu Colony, Ballabgarh - HSPCB",12-03-2024 15:00:00,28.3419248,77.319699,PM10,109,262,161
India,Haryana,Bhiwani,"H.B. Colony, Bhiwani - HSPCB",12-03-2024 15:00:00,28.806223,76.141105,NO2,7,12,9
India,Haryana,Bhiwani,"H.B. Colony, Bhiwani - HSPCB",12-03-2024 15:00:00,28.806223,76.141105,NH3,6,6,6
India,Haryana,Charkhi Dadri,"Mini Secretariat, Charkhi Dadri - HSPCB",12-03-2024 15:00:00,28.593883,76.270653,PM2.5,75,172,104
India,Haryana,Charkhi Dadri,"Mini Secretariat, Charkhi Dadri - HSPCB",12-03-2024 15:00:00,28.593883,76.270653,OZONE,14,18,15
India,Haryana,Dharuhera,"Municipal Corporation Office, Dharuhera -  HSPCB",12-03-2024 15:00:00,28.206800,76.799700,NH3,9,26,19
India,Haryana,Dharuhera,"Municipal Corporation Office, Dharuhera -  HSPCB",12-03-2024 15:00:00,28.206800,76.799700,CO,20,59,44
India,Haryana,Dharuhera,"Municipal Corporation Office, Dharuhera -  HSPCB",12-03-2024 15:00:00,28.206800,76.799700,OZONE,10,72,43
India,Haryana,Faridabad,"New Industrial Town, Faridabad - HSPCB",12-03-2024 15:00:00,28.39072,77.30059,PM2.5,256,340,307
India,Haryana,Faridabad,"New Industrial Town, Faridabad - HSPCB",12-03-2024 15:00:00,28.39072,77.30059,CO,8,45,26
India,Haryana,Faridabad,"Sector 11, Faridabad - HSPCB",12-03-2024 15:00:00,28.376058,77.315741,SO2,5,9,8
India,Haryana,Faridabad,"Sector 11, Faridabad - HSPCB",12-03-2024 15:00:00,28.376058,77.315741,CO,6,44,28
India,Haryana,Faridabad,"Sector 30, Faridabad - HSPCB",12-03-2024 15:00:00,28.4417,77.3217,OZONE,6,51,7
India,Haryana,Fatehabad,"Huda Sector, Fatehabad - HSPCB",12-03-2024 15:00:00,29.503664,75.467934,PM2.5,29,117,64
India,Haryana,Fatehabad,"Huda Sector, Fatehabad - HSPCB",12-03-2024 15:00:00,29.503664,75.467934,CO,6,17,7
India,Haryana,Gurugram,"Sector-51, Gurugram - HSPCB",12-03-2024 15:00:00,28.4227,77.0667,SO2,3,5,4
India,Haryana,Gurugram,"Sector-51, Gurugram - HSPCB",12-03-2024 15:00:00,28.4227,77.0667,OZONE,27,67,50
India,Haryana,Gurugram,"Teri Gram, Gurugram - HSPCB",12-03-2024 15:00:00,28.4275,77.1465,PM10,124,430,246
India,Haryana,Jind,"Police Lines, Jind - HSPCB",12-03-2024 15:00:00,29.307814,76.337619,SO2,8,27,15
India,Haryana,Kaithal,"Rishi Nagar, Kaithal - HSPCB",12-03-2024 15:00:00,29.8006,76.4155,PM2.5,33,138,74
India,Haryana,Kaithal,"Rishi Nagar, Kaithal - HSPCB",12-03-2024 15:00:00,29.8006,76.4155,SO2,1,113,11
India,Haryana,Karnal,"Sector-12, Karnal - HSPCB",12-03-2024 15:00:00,29.695300,77.002700,NH3,10,13,11
India,Haryana,Kurukshetra,"Sector-7, Kurukshetra - HSPCB",12-03-2024 15:00:00,29.966942,76.875879,PM2.5,50,115,76
India,Haryana,Kurukshetra,"Sector-7, Kurukshetra - HSPCB",12-03-2024 15:00:00,29.966942,76.875879,CO,2,29,16
India,Haryana,Mandikhera,"General Hospital, Mandikhera - HSPCB",12-03-2024 15:00:00,27.9002,76.9938,PM10,91,140,117
India,Haryana,Mandikhera,"General Hospital, Mandikhera - HSPCB",12-03-2024 15:00:00,27.9002,76.9938,SO2,31,38,34
India,Haryana,Manesar,"Sector-2 IMT, Manesar - HSPCB",12-03-2024 15:00:00,28.360699,76.936090,NH3,2,4,3
India,Haryana,Manesar,"Sector-2 IMT, Manesar - HSPCB",12-03-2024 15:00:00,28.360699,76.936090,SO2,6,15,11
India,Haryana,Manesar,"Sector-2 IMT, Manesar - HSPCB",12-03-2024 15:00:00,28.360699,76.936090,OZONE,1,62,14
India,Haryana,Narnaul,"Shastri Nagar, Narnaul - HSPCB",12-03-2024 15:00:00,28.060249,76.113115,CO,8,19,12
India,Haryana,Narnaul,"Shastri Nagar, Narnaul - HSPCB",12-03-2024 15:00:00,28.060249,76.113115,OZONE,16,52,45
India,Haryana,Panipat,"Sector-18, Panipat - HSPCB",12-03-2024 15:00:00,29.497973,76.993331,PM2.5,146,156,150
India,Haryana,Rohtak,"MD University, Rohtak - HSPCB",12-03-2024 15:00:00,28.52123,76.37138,PM2.5,11,371,193
India,Haryana,Rohtak,"MD University, Rohtak - HSPCB",12-03-2024 15:00:00,28.52123,76.37138,CO,2,88,40
India,Haryana,Sirsa,"F-Block, Sirsa - HSPCB",12-03-2024 15:00:00,29.536400,75.015800,CO,38,52,47
India,Haryana,Yamuna Nagar,"Gobind Pura, Yamuna Nagar - HSPCB",12-03-2024 15:00:00,30.1480566,77.2893471,PM10,14,180,105
India,Haryana,Yamuna Nagar,"Gobind Pura, Yamuna Nagar - HSPCB",12-03-2024 15:00:00,30.1480566,77.2893471,NH3,1,2,2
India,Haryana,Yamuna Nagar,"Gobind Pura, Yamuna Nagar - HSPCB",12-03-2024 15:00:00,30.1480566,77.2893471,OZONE,17,35,25
India,Himachal Pradesh,Baddi,"HIMUDA Complex Phase-1, Baddi - HPPCB",12-03-2024 15:00:00,30.943887,76.801991,NO2,10,70,35
India,Himachal Pradesh,Baddi,"HIMUDA Complex Phase-1, Baddi - HPPCB",12-03-2024 15:00:00,30.943887,76.801991,NH3,4,9,7
India,Himachal Pradesh,Baddi,"HIMUDA Complex Phase-1, Baddi - HPPCB",12-03-2024 15:00:00,30.943887,76.801991,CO,19,58,41
India,Jharkhand,Dhanbad,"Sardar Patel Nagar, Dhanbad - JSPCB",12-03-2024 15:00:00,23.80569,86.44268,PM2.5,NA,NA,NA
India,Jharkhand,Dhanbad,"Sardar Patel Nagar, Dhanbad - JSPCB",12-03-2024 15:00:00,23.80569,86.44268,NO2,NA,NA,NA
India,Jharkhand,Dhanbad,"Sardar Patel Nagar, Dhanbad - JSPCB",12-03-2024 15:00:00,23.80569,86.44268,OZONE,11,51,28
India,Karnataka,Belgaum,"Ramteerth Nagar, Belgaum - KSPCB",12-03-2024 15:00:00,15.888653,74.541751,SO2,8,9,8
India,Karnataka,Belgaum,"Ramteerth Nagar, Belgaum - KSPCB",12-03-2024 15:00:00,15.888653,74.541751,CO,28,49,38
India,Karnataka,Bengaluru,"Bapuji Nagar, Bengaluru - KSPCB",12-03-2024 15:00:00,12.951913,77.539784,NH3,1,1,1
India,Karnataka,Bengaluru,"Hombegowda Nagar, Bengaluru - KSPCB",12-03-2024 15:00:00,12.938539,77.590100,PM2.5,64,118,83
India,Karnataka,Bengaluru,"Jayanagar 5th Block, Bengaluru - KSPCB",12-03-2024 15:00:00,12.920984,77.584908,PM10,80,132,106
India,Karnataka,Bengaluru,"Jayanagar 5th Block, Bengaluru - KSPCB",12-03-2024 15:00:00,12.920984,77.584908,NH3,4,5,4
India,Karnataka,Bengaluru,"Jayanagar 5th Block, Bengaluru - KSPCB",12-03-2024 15:00:00,12.920984,77.584908,OZONE,28,28,28
India,Karnataka,Bengaluru,"Jigani, Bengaluru - KSPCB",12-03-2024 15:00:00,12.7816279,77.6299145,CO,48,48,48
India,Karnataka,Bengaluru,"Kasturi Nagar, Bengaluru - KSPCB",12-03-2024 15:00:00,13.003872,77.664217,PM10,127,158,140
India,Karnataka,Bengaluru,"Kasturi Nagar, Bengaluru - KSPCB",12-03-2024 15:00:00,13.003872,77.664217,NO2,16,17,17
India,Karnataka,Bengaluru,"Kasturi Nagar, Bengaluru - KSPCB",12-03-2024 15:00:00,13.003872,77.664217,SO2,10,10,10
India,Karnataka,Bengaluru,"Peenya, Bengaluru - CPCB",12-03-2024 15:00:00,13.0270199,77.494094,PM2.5,30,61,38
India,Karnataka,Bengaluru,"Peenya, Bengaluru - CPCB",12-03-2024 15:00:00,13.0270199,77.494094,CO,14,62,36
India,Karnataka,Bengaluru,"RVCE-Mailasandra, Bengaluru - KSPCB",12-03-2024 15:00:00,12.921418,77.502466,PM10,NA,NA,NA
India,Karnataka,Bengaluru,"RVCE-Mailasandra, Bengaluru - KSPCB",12-03-2024 15:00:00,12.921418,77.502466,SO2,8,14,11
India,Karnataka,Bengaluru,"RVCE-Mailasandra, Bengaluru - KSPCB",12-03-2024 15:00:00,12.921418,77.502466,CO,40,64,45
India,Karnataka,Bengaluru,"Sanegurava Halli, Bengaluru - KSPCB",12-03-2024 15:00:00,12.990328,77.5431385,NO2,NA,NA,NA
India,Karnataka,Bengaluru,"Sanegurava Halli, Bengaluru - KSPCB",12-03-2024 15:00:00,12.990328,77.5431385,SO2,NA,NA,NA
India,Karnataka,Bengaluru,"Shivapura_Peenya, Bengaluru - KSPCB",12-03-2024 15:00:00,13.0246342,77.5080115,SO2,4,58,15
India,Karnataka,Bengaluru,"Shivapura_Peenya, Bengaluru - KSPCB",12-03-2024 15:00:00,13.0246342,77.5080115,OZONE,54,55,55
India,Karnataka,Bidar,"Naubad, Bidar - KSPCB",12-03-2024 15:00:00,17.930306,77.482194,CO,60,89,68
India,Karnataka,Chamarajanagar,"Urban, Chamarajanagar - KSPCB",12-03-2024 15:00:00,11.55358,76.55521,NO2,23,53,36
India,Karnataka,Chikkaballapur,"Chikkaballapur Rural, Chikkaballapur - KSPCB",12-03-2024 15:00:00,13.428828,77.731418,NO2,7,21,10
India,Karnataka,Chikkamagaluru,"Kalyana Nagara, Chikkamagaluru - KSPCB",12-03-2024 15:00:00,13.328028,75.797056,SO2,NA,NA,NA
India,Karnataka,Davanagere,"Devaraj Urs Badavane, Davanagere - KSPCB",12-03-2024 15:00:00,14.475800,75.905200,NO2,11,17,13
India,Karnataka,Davanagere,"Devaraj Urs Badavane, Davanagere - KSPCB",12-03-2024 15:00:00,14.475800,75.905200,NH3,1,1,1
India,Karnataka,Davanagere,"Devaraj Urs Badavane, Davanagere - KSPCB",12-03-2024 15:00:00,14.475800,75.905200,SO2,1,9,5
India,Karnataka,Dharwad,"Kalabhavan, Dharwad - KSPCB",12-03-2024 15:00:00,15.459706,75.008381,NO2,16,31,19
India,Karnataka,Dharwad,"Kalabhavan, Dharwad - KSPCB",12-03-2024 15:00:00,15.459706,75.008381,SO2,4,17,7
India,Karnataka,Dharwad,"Kalabhavan, Dharwad - KSPCB",12-03-2024 15:00:00,15.459706,75.008381,CO,40,102,85
India,Karnataka,Dharwad,"Kalabhavan, Dharwad - KSPCB",12-03-2024 15:00:00,15.459706,75.008381,OZONE,2,60,15
India,Karnataka,Gadag,"Panchal Nagar, Gadag - KSPCB",12-03-2024 15:00:00,15.411456,75.638133,PM10,39,62,49
India,Karnataka,Hassan,"B.Katihalli, Hassan - KSPCB",12-03-2024 15:00:00,13.008556,76.125258,OZONE,4,33,20
India,Karnataka,Hubballi,"Lingaraj Nagar, Hubballi - KSPCB",12-03-2024 15:00:00,15.3714823,75.1160168,OZONE,29,55,32
India,Karnataka,Kalaburagi,"Lal Bahadur Shastri Nagar, Kalaburagi - KSPCB",12-03-2024 15:00:00,17.321993,76.822628,PM10,53,116,77
India,Karnataka,Kalaburagi,"Lal Bahadur Shastri Nagar, Kalaburagi - KSPCB",12-03-2024 15:00:00,17.321993,76.822628,NH3,2,2,2
India,Karnataka,Kalaburagi,"Lal Bahadur Shastri Nagar, Kalaburagi - KSPCB",12-03-2024 15:00:00,17.321993,76.822628,SO2,12,29,14
India,Karnataka,Kalaburagi,"Mahatma Basaveswar Colony, Kalaburgi - KSPCB",12-03-2024 15:00:00,17.336318,76.847397,PM2.5,29,94,51
India,Karnataka,Karwar,"KHB Colony, Karwar - KSPCB",12-03-2024 15:00:00,14.816666,74.141003,CO,7,8,7
India,Karnataka,Kolar,"Tamaka Ind. Area, Kolar - KSPCB",12-03-2024 15:00:00,13.1276288,78.1570122,NO2,18,35,23
India,Karnataka,Kolar,"Tamaka Ind. Area, Kolar - KSPCB",12-03-2024 15:00:00,13.1276288,78.1570122,NH3,3,21,12
India,Karnataka,Kolar,"Tamaka Ind. Area, Kolar - KSPCB",12-03-2024 15:00:00,13.1276288,78.1570122,CO,27,27,27
India,Karnataka,Koppal,"Diwator Nagar, Koppal - KSPCB",12-03-2024 15:00:00,15.347630,76.181767,PM2.5,19,86,42
India,Karnataka,Koppal,"Diwator Nagar, Koppal - KSPCB",12-03-2024 15:00:00,15.347630,76.181767,NH3,3,8,5
India,Karnataka,Koppal,"Diwator Nagar, Koppal - KSPCB",12-03-2024 15:00:00,15.347630,76.181767,SO2,64,66,65
India,Karnataka,Mysuru,"Hebbal 1st Stage, Mysuru - KSPCB",12-03-2024 15:00:00,12.21041,76.37376,SO2,1,18,5
India,Karnataka,Raichur,"Haji Colony, Raichur - KSPCB",12-03-2024 15:00:00,16.208139,77.348417,NO2,19,44,31
India,Karnataka,Ramanagara,"Vijay Nagar, Ramanagara - KSPCB",12-03-2024 15:00:00,12.733409,77.298051,NH3,1,1,1
India,Karnataka,Ramanagara,"Vijay Nagar, Ramanagara - KSPCB",12-03-2024 15:00:00,12.733409,77.298051,SO2,14,38,24
India,Karnataka,Ramanagara,"Vijay Nagar, Ramanagara - KSPCB",12-03-2024 15:00:00,12.733409,77.298051,CO,4,36,17
India,Karnataka,Ramanagara,"Vijay Nagar, Ramanagara - KSPCB",12-03-2024 15:00:00,12.733409,77.298051,OZONE,29,30,29
India,Karnataka,Shivamogga,"Vinoba Nagara, Shivamogga - KSPCB",12-03-2024 15:00:00,13.940000,75.555917,NH3,2,4,3
India,Karnataka,Tumakuru,"Thimmalapura, Tumakuru - KSPCB",12-03-2024 15:00:00,13.377516,77.099072,SO2,8,18,10
India,Karnataka,Vijayapura,"Ibrahimpur, Vijayapura - KSPCB",12-03-2024 15:00:00,16.802639,75.722694,NO2,17,19,19
India,Karnataka,Vijayapura,"Ibrahimpur, Vijayapura - KSPCB",12-03-2024 15:00:00,16.802639,75.722694,NH3,2,2,2
India,Karnataka,Vijayapura,"Ibrahimpur, Vijayapura - KSPCB",12-03-2024 15:00:00,16.802639,75.722694,SO2,21,121,56
India,Karnataka,Vijayapura,"Ibrahimpur, Vijayapura - KSPCB",12-03-2024 15:00:00,16.802639,75.722694,CO,23,70,60
India,Karnataka,Yadgir,"Collector Office, Yadgir - KSPCB",12-03-2024 15:00:00,16.7602,77.1428,NH3,NA,NA,NA
India,Kerala,Eloor,"Udyogamandal, Eloor - Kerala PCB",12-03-2024 15:00:00,10.073232,76.302765,PM10,33,44,38
India,Kerala,Eloor,"Udyogamandal, Eloor - Kerala PCB",12-03-2024 15:00:00,10.073232,76.302765,NH3,1,1,1
India,Kerala,Kannur,"Thavakkara, Kannur - Kerala PCB",12-03-2024 15:00:00,11.875000,75.373200,NH3,1,1,1
India,Kerala,Kollam,"Polayathode, Kollam - Kerala PCB",12-03-2024 15:00:00,8.8787,76.6073,PM2.5,100,278,150
India,Kerala,Kollam,"Polayathode, Kollam - Kerala PCB",12-03-2024 15:00:00,8.8787,76.6073,PM10,82,124,96
India,Kerala,Kollam,"Polayathode, Kollam - Kerala PCB",12-03-2024 15:00:00,8.8787,76.6073,NH3,1,1,1
India,Kerala,Thiruvananthapuram,"Kariavattom, Thiruvananthapuram - Kerala PCB",12-03-2024 15:00:00,8.563700,76.886500,CO,18,38,24
India,Kerala,Thiruvananthapuram,"Kariavattom, Thiruvananthapuram - Kerala PCB",12-03-2024 15:00:00,8.563700,76.886500,OZONE,27,33,30
India,Kerala,Thrissur,"Corporation Ground, Thrissur - Kerala PCB",12-03-2024 15:00:00,10.532400,76.215900,CO,14,56,23
India,Madhya Pradesh,Bhopal,"Idgah Hills, Bhopal - MPPCB",12-03-2024 15:00:00,23.264759,77.381568,PM2.5,18,110,58
India,Madhya Pradesh,Bhopal,"Idgah Hills, Bhopal - MPPCB",12-03-2024 15:00:00,23.264759,77.381568,OZONE,16,101,57
India,Madhya Pradesh,Bhopal,"Paryavaran Parisar, Bhopal - MPPCB",12-03-2024 15:00:00,23.210494,77.425409,PM2.5,17,217,103
India,Madhya Pradesh,Bhopal,"T T Nagar, Bhopal - MPPCB",12-03-2024 15:00:00,23.233584,77.400574,PM2.5,22,174,86
India,Madhya Pradesh,Dewas,"Bhopal Chauraha, Dewas - MPPCB",12-03-2024 15:00:00,22.9682591,76.064118,NO2,NA,NA,NA
India,Madhya Pradesh,Dewas,"Bhopal Chauraha, Dewas - MPPCB",12-03-2024 15:00:00,22.9682591,76.064118,OZONE,22,27,26
India,Madhya Pradesh,Gwalior,"City Center, Gwalior - MPPCB",12-03-2024 15:00:00,26.203442,78.193251,OZONE,10,74,47
India,Madhya Pradesh,Gwalior,"Maharaj Bada, Gwalior - MPPCB",12-03-2024 15:00:00,26.200388,78.147714,PM10,100,233,146
India,Madhya Pradesh,Gwalior,"Maharaj Bada, Gwalior - MPPCB",12-03-2024 15:00:00,26.200388,78.147714,CO,5,114,15
India,Madhya Pradesh,Gwalior,"Maharaj Bada, Gwalior - MPPCB",12-03-2024 15:00:00,26.200388,78.147714,OZONE,4,175,164
India,Madhya Pradesh,Indore,"Regional Park, Indore - IMC",12-03-2024 15:00:00,22.6780,75.8559,SO2,39,41,40
India,Madhya Pradesh,Indore,"Regional Park, Indore - IMC",12-03-2024 15:00:00,22.6780,75.8559,CO,21,32,24
India,Madhya Pradesh,Indore,"Residency Area, Indore - IMC",12-03-2024 15:00:00,22.7084,75.8815,PM10,32,101,63
India,Madhya Pradesh,Indore,"Residency Area, Indore - IMC",12-03-2024 15:00:00,22.7084,75.8815,CO,12,18,14
India,Madhya Pradesh,Jabalpur,"Govindh Bhavan Colony, Jabalpur - JMC",12-03-2024 15:00:00,23.163174,79.973061,PM2.5,30,117,66
India,Madhya Pradesh,Jabalpur,"Govindh Bhavan Colony, Jabalpur - JMC",12-03-2024 15:00:00,23.163174,79.973061,NH3,7,16,12
India,Madhya Pradesh,Jabalpur,"Marhatal, Jabalpur - MPPCB",12-03-2024 15:00:00,23.168606,79.932247,NO2,16,117,46
India,Madhya Pradesh,Jabalpur,"Marhatal, Jabalpur - MPPCB",12-03-2024 15:00:00,23.168606,79.932247,NH3,3,5,4
India,Madhya Pradesh,Jabalpur,"Marhatal, Jabalpur - MPPCB",12-03-2024 15:00:00,23.168606,79.932247,CO,18,118,40
India,Madhya Pradesh,Jabalpur,"Suhagi, Jabalpur - JMC",12-03-2024 15:00:00,23.218135,79.957770,PM2.5,33,355,191
India,Madhya Pradesh,Jabalpur,"Suhagi, Jabalpur - JMC",12-03-2024 15:00:00,23.218135,79.957770,NH3,5,5,5
India,Madhya Pradesh,Katni,"Gole Bazar, Katni - MPPCB",12-03-2024 15:00:00,23.50016,80.23284,PM10,88,325,147
India,Madhya Pradesh,Maihar,"Sahilara, Maihar - KJS Cements",12-03-2024 15:00:00,24.2613009,80.7231783,PM2.5,23,56,35
India,Madhya Pradesh,Maihar,"Sahilara, Maihar - KJS Cements",12-03-2024 15:00:00,24.2613009,80.7231783,NO2,14,14,14
India,Madhya Pradesh,Maihar,"Sahilara, Maihar - KJS Cements",12-03-2024 15:00:00,24.2613009,80.7231783,SO2,18,47,26
India,Madhya Pradesh,Maihar,"Sahilara, Maihar - KJS Cements",12-03-2024 15:00:00,24.2613009,80.7231783,CO,50,60,56
India,Madhya Pradesh,Mandideep,"Sector-D Industrial Area, Mandideep - MPPCB",12-03-2024 15:00:00,23.108440,77.511428,PM10,NA,NA,NA
India,Madhya Pradesh,Mandideep,"Sector-D Industrial Area, Mandideep - MPPCB",12-03-2024 15:00:00,23.108440,77.511428,SO2,NA,NA,NA
India,Madhya Pradesh,Pithampur,"Sector-2 Industrial Area, Pithampur - MPPCB",12-03-2024 15:00:00,22.624758,75.675238,CO,50,61,54
India,Madhya Pradesh,Ratlam,"Shasthri Nagar, Ratlam - IPCA Lab",12-03-2024 15:00:00,23.331731,75.045981,NO2,16,62,37
India,Madhya Pradesh,Ratlam,"Shasthri Nagar, Ratlam - IPCA Lab",12-03-2024 15:00:00,23.331731,75.045981,SO2,36,38,36
India,Madhya Pradesh,Sagar,"Civil Lines, Sagar - MPPCB",12-03-2024 15:00:00,23.838586,78.759431,PM2.5,49,85,60
India,Madhya Pradesh,Sagar,"Civil Lines, Sagar - MPPCB",12-03-2024 15:00:00,23.838586,78.759431,NH3,5,17,7
India,Madhya Pradesh,Sagar,"Deen Dayal Nagar, Sagar - MPPCB",12-03-2024 15:00:00,23.8640158,78.80289321,CO,31,64,57
India,Madhya Pradesh,Satna,"Bandhavgar Colony, Satna - Birla Cement",12-03-2024 15:00:00,24.58434363,80.8549414,NO2,29,76,45
India,Maharashtra,Ahmednagar,"Tarakpur, Ahmednagar - MPCB",12-03-2024 15:00:00,19.10122,74.73339,SO2,12,16,14
India,Maharashtra,Ahmednagar,"Tarakpur, Ahmednagar - MPCB",12-03-2024 15:00:00,19.10122,74.73339,CO,20,136,45
India,Maharashtra,Akola,"Ramdaspeth, Akola - MPCB",12-03-2024 15:00:00,20.719516,77.000253,PM2.5,52,164,90
India,Maharashtra,Akola,"Ramdaspeth, Akola - MPCB",12-03-2024 15:00:00,20.719516,77.000253,CO,27,117,36
India,Maharashtra,Amravati,"Shri Shivaji Science College, Amaravati - MPCB",12-03-2024 15:00:00,20.939198,77.765701,CO,14,54,29
India,Maharashtra,Aurangabad,"MIDC Chilkalthana, Aurangabad - MPCB",12-03-2024 15:00:00,19.875620,75.387310,PM10,73,163,106
India,Maharashtra,Aurangabad,"More Chowk Waluj, Aurangabad - MPCB",12-03-2024 15:00:00,19.8389439,75.244448,OZONE,7,21,12
India,Maharashtra,Badlapur,"Katrap, Badlapur - MPCB",12-03-2024 15:00:00,19.16485,73.23409,CO,19,119,61
India,Maharashtra,Belapur,"CBD Belapur, Belapur - MPCB",12-03-2024 15:00:00,19.0243902,73.0406721,NH3,16,76,32
India,Maharashtra,Bhiwandi,"Gokul Nagar, Bhiwandi - MPCB",12-03-2024 15:00:00,19.309073,73.057223,PM10,102,172,138
India,Maharashtra,Bhiwandi,"Gokul Nagar, Bhiwandi - MPCB",12-03-2024 15:00:00,19.309073,73.057223,SO2,2,30,10
India,Maharashtra,Chandrapur,"Chauhan Colony, Chandrapur - MPCB",12-03-2024 15:00:00,19.962900,79.298714,PM2.5,61,314,115
India,Maharashtra,Chandrapur,"Chauhan Colony, Chandrapur - MPCB",12-03-2024 15:00:00,19.962900,79.298714,NO2,17,45,27
India,Maharashtra,Chandrapur,"Chauhan Colony, Chandrapur - MPCB",12-03-2024 15:00:00,19.962900,79.298714,NH3,3,4,4
India,Maharashtra,Chandrapur,"Chauhan Colony, Chandrapur - MPCB",12-03-2024 15:00:00,19.962900,79.298714,OZONE,91,261,189
India,Maharashtra,Chandrapur,"MIDC Khutala, Chandrapur - MPCB",12-03-2024 15:00:00,19.9775302,79.2337086,NH3,NA,NA,NA
India,Maharashtra,Jalgaon,"Prabhat Colony, Jalgaon - MPCB",12-03-2024 15:00:00,21.001264,75.565602,PM10,79,134,104
India,Maharashtra,Jalgaon,"Prabhat Colony, Jalgaon - MPCB",12-03-2024 15:00:00,21.001264,75.565602,SO2,8,43,16
India,Maharashtra,Jalgaon,"Prabhat Colony, Jalgaon - MPCB",12-03-2024 15:00:00,21.001264,75.565602,CO,13,57,16
India,Maharashtra,Jalna,"Old MIDC, Jalna - MPCB",12-03-2024 15:00:00,19.854616,75.905894,PM2.5,78,316,178
India,Maharashtra,Jalna,"Old MIDC, Jalna - MPCB",12-03-2024 15:00:00,19.854616,75.905894,NO2,5,32,21
India,Maharashtra,Jalna,"Old MIDC, Jalna - MPCB",12-03-2024 15:00:00,19.854616,75.905894,CO,24,32,29
India,Maharashtra,Kalyan,"Khadakpada, Kalyan - MPCB",12-03-2024 15:00:00,19.25292,73.142019,NH3,1,2,1
India,Maharashtra,Kolhapur,"Shivaji University, Kolhapur - MPCB",12-03-2024 15:00:00,16.6870449,74.2505872,PM2.5,8,182,123
India,Maharashtra,Kolhapur,"Shivaji University, Kolhapur - MPCB",12-03-2024 15:00:00,16.6870449,74.2505872,OZONE,13,126,67
India,Maharashtra,Kolhapur,"Sinchan Bhavan, Kolhapur - MPCB",12-03-2024 15:00:00,16.7143745,74.2426398,NH3,7,8,8
India,Maharashtra,Latur,"Sawe Wadi, Latur - MPCB",12-03-2024 15:00:00,18.39963,76.57452,PM2.5,62,223,118
India,Maharashtra,Mahad,"Kamble Tarf Birwadi, Mahad - MPCB",12-03-2024 15:00:00,18.1023399,73.4783687,OZONE,13,170,69
India,Maharashtra,Malegaon,"Mahesh Nagar, Malegaon - MPCB",12-03-2024 15:00:00,20.555712,74.529236,NO2,3,17,9
India,Maharashtra,Mira-Bhayandar,"Bhayandar West, Mira-Bhayandar - MPCB",12-03-2024 15:00:00,19.296481,72.840923,PM2.5,55,248,176
India,Maharashtra,Mira-Bhayandar,"Bhayandar West, Mira-Bhayandar - MPCB",12-03-2024 15:00:00,19.296481,72.840923,PM10,45,230,153
India,Maharashtra,Mumbai,"Bandra Kurla Complex, Mumbai - MPCB",12-03-2024 15:00:00,19.065931,72.862131,NH3,7,11,9
India,Maharashtra,Mumbai,"Borivali East, Mumbai - IITM",12-03-2024 15:00:00,19.23241,72.86895,CO,34,97,63
India,Maharashtra,Mumbai,"Borivali East, Mumbai - MPCB",12-03-2024 15:00:00,19.2243333,72.8658113,NO2,NA,NA,NA
India,Maharashtra,Mumbai,"Borivali East, Mumbai - MPCB",12-03-2024 15:00:00,19.2243333,72.8658113,NH3,NA,NA,NA
India,Maharashtra,Mumbai,"Byculla, Mumbai - BMC",12-03-2024 15:00:00,18.9767,72.8380,PM10,52,105,76
India,Maharashtra,Mumbai,"Byculla, Mumbai - BMC",12-03-2024 15:00:00,18.9767,72.8380,NO2,15,42,27
India,Maharashtra,Mumbai,"Byculla, Mumbai - BMC",12-03-2024 15:00:00,18.9767,72.8380,OZONE,40,162,75
India,Maharashtra,Mumbai,"Chakala-Andheri East, Mumbai - IITM",12-03-2024 15:00:00,19.11074,72.86084,PM2.5,78,142,102
India,Maharashtra,Mumbai,"Chakala-Andheri East, Mumbai - IITM",12-03-2024 15:00:00,19.11074,72.86084,NO2,79,186,126
India,Maharashtra,Mumbai,"Chembur, Mumbai - MPCB",12-03-2024 15:00:00,19.0364585,72.8954371,PM10,63,144,119
India,Maharashtra,Mumbai,"Chembur, Mumbai - MPCB",12-03-2024 15:00:00,19.0364585,72.8954371,NO2,28,115,62
India,Maharashtra,Mumbai,"Chembur, Mumbai - MPCB",12-03-2024 15:00:00,19.0364585,72.8954371,OZONE,8,177,162
India,Maharashtra,Mumbai,"Chhatrapati Shivaji Intl. Airport (T2), Mumbai - MPCB",12-03-2024 15:00:00,19.10078,72.87462,SO2,26,32,29
India,Maharashtra,Mumbai,"Chhatrapati Shivaji Intl. Airport (T2), Mumbai - MPCB",12-03-2024 15:00:00,19.10078,72.87462,OZONE,4,26,14
India,Maharashtra,Mumbai,"Ghatkopar, Mumbai - BMC",12-03-2024 15:00:00,19.083694,72.920967,SO2,NA,NA,NA
India,Maharashtra,Mumbai,"Kandivali East, Mumbai - MPCB",12-03-2024 15:00:00,19.205800,72.868200,PM10,61,179,115
India,Maharashtra,Mumbai,"Kandivali East, Mumbai - MPCB",12-03-2024 15:00:00,19.205800,72.868200,NH3,7,12,8
India,Maharashtra,Mumbai,"Kandivali West, Mumbai - BMC",12-03-2024 15:00:00,19.215859,72.831718,PM2.5,NA,NA,NA
India,Maharashtra,Mumbai,"Kandivali West, Mumbai - BMC",12-03-2024 15:00:00,19.215859,72.831718,PM10,NA,NA,NA
India,Maharashtra,Mumbai,"Kandivali West, Mumbai - BMC",12-03-2024 15:00:00,19.215859,72.831718,NH3,NA,NA,NA
India,Maharashtra,Mumbai,"Kandivali West, Mumbai - BMC",12-03-2024 15:00:00,19.215859,72.831718,SO2,NA,NA,NA
India,Maharashtra,Mumbai,"Khindipada-Bhandup West, Mumbai - IITM",12-03-2024 15:00:00,19.1653323,72.922099,NH3,16,47,21
India,Maharashtra,Mumbai,"Khindipada-Bhandup West, Mumbai - IITM",12-03-2024 15:00:00,19.1653323,72.922099,SO2,1,3,2
India,Maharashtra,Mumbai,"Khindipada-Bhandup West, Mumbai - IITM",12-03-2024 15:00:00,19.1653323,72.922099,CO,3,30,19
India,Maharashtra,Mumbai,"Kurla, Mumbai - MPCB",12-03-2024 15:00:00,19.0863,72.8888,OZONE,29,68,47
India,Maharashtra,Mumbai,"Mazgaon, Mumbai - IITM",12-03-2024 15:00:00,18.96702,72.84214,NH3,18,37,26
India,Maharashtra,Mumbai,"Mulund West, Mumbai - MPCB",12-03-2024 15:00:00,19.1750,72.9419,NO2,24,27,25
India,Maharashtra,Mumbai,"Mulund West, Mumbai - MPCB",12-03-2024 15:00:00,19.1750,72.9419,SO2,13,13,13
India,Maharashtra,Mumbai,"Navy Nagar-Colaba, Mumbai - IITM",12-03-2024 15:00:00,18.897756,72.813320,SO2,1,26,8
India,Maharashtra,Mumbai,"Navy Nagar-Colaba, Mumbai - IITM",12-03-2024 15:00:00,18.897756,72.813320,CO,2,23,9
India,Maharashtra,Mumbai,"Powai, Mumbai - MPCB",12-03-2024 15:00:00,19.137500,72.915056,PM10,61,132,105
India,Maharashtra,Mumbai,"Powai, Mumbai - MPCB",12-03-2024 15:00:00,19.137500,72.915056,NH3,1,3,1
India,Maharashtra,Mumbai,"Powai, Mumbai - MPCB",12-03-2024 15:00:00,19.137500,72.915056,CO,30,42,33
India,Maharashtra,Mumbai,"Sewri, Mumbai - BMC",12-03-2024 15:00:00,19.000084,72.856730,PM2.5,44,83,64
India,Maharashtra,Mumbai,"Sewri, Mumbai - BMC",12-03-2024 15:00:00,19.000084,72.856730,PM10,63,123,99
India,Maharashtra,Mumbai,"Sewri, Mumbai - BMC",12-03-2024 15:00:00,19.000084,72.856730,NO2,29,104,63
India,Maharashtra,Mumbai,"Shivaji Nagar, Mumbai - BMC",12-03-2024 15:00:00,19.060498,72.923356,PM2.5,NA,NA,NA
India,Maharashtra,Mumbai,"Shivaji Nagar, Mumbai - BMC",12-03-2024 15:00:00,19.060498,72.923356,OZONE,19,118,68
India,Maharashtra,Mumbai,"Siddharth Nagar-Worli, Mumbai - IITM",12-03-2024 15:00:00,19.000083,72.813993,NH3,5,6,5
India,Maharashtra,Mumbai,"Vasai West, Mumbai - MPCB",12-03-2024 15:00:00,19.383200,72.820400,SO2,15,17,16
India,Maharashtra,Mumbai,"Worli, Mumbai - MPCB",12-03-2024 15:00:00,18.9936162,72.8128113,CO,36,38,37
India,Maharashtra,Mumbai,"Worli, Mumbai - MPCB",12-03-2024 15:00:00,18.9936162,72.8128113,OZONE,6,11,10
India,Maharashtra,Nagpur,"Ambazari, Nagpur - MPCB",12-03-2024 15:00:00,21.121801,79.04952,PM2.5,54,101,77
India,Maharashtra,Nagpur,"Ambazari, Nagpur - MPCB",12-03-2024 15:00:00,21.121801,79.04952,NO2,18,80,35
India,Maharashtra,Nagpur,"Ambazari, Nagpur - MPCB",12-03-2024 15:00:00,21.121801,79.04952,SO2,9,67,23
India,Maharashtra,Nagpur,"Ambazari, Nagpur - MPCB",12-03-2024 15:00:00,21.121801,79.04952,OZONE,17,150,82
India,Maharashtra,Nagpur,"Mahal, Nagpur - MPCB",12-03-2024 15:00:00,21.14472,79.107595,PM10,99,154,125
India,Maharashtra,Nagpur,"Mahal, Nagpur - MPCB",12-03-2024 15:00:00,21.14472,79.107595,NH3,1,9,4
India,Maharashtra,Nagpur,"Mahal, Nagpur - MPCB",12-03-2024 15:00:00,21.14472,79.107595,SO2,12,43,30
India,Maharashtra,Nagpur,"Opp GPO Civil Lines, Nagpur - MPCB",12-03-2024 15:00:00,21.152875,79.0517531,PM2.5,52,149,80
India,Maharashtra,Nagpur,"Opp GPO Civil Lines, Nagpur - MPCB",12-03-2024 15:00:00,21.152875,79.0517531,PM10,77,146,102
India,Maharashtra,Nanded,"Sneh Nagar, Nanded - MPCB",12-03-2024 15:00:00,19.173852,77.296291,PM10,NA,NA,NA
India,Maharashtra,Navi Mumbai,"Kopripada-Vashi, Navi Mumbai - MPCB",12-03-2024 15:00:00,19.090337,73.014232,PM2.5,43,358,129
India,Maharashtra,Navi Mumbai,"Kopripada-Vashi, Navi Mumbai - MPCB",12-03-2024 15:00:00,19.090337,73.014232,CO,12,106,28
India,Maharashtra,Navi Mumbai,"Mahape, Navi Mumbai - MPCB",12-03-2024 15:00:00,19.1135051,73.008978,SO2,26,27,26
India,Maharashtra,Navi Mumbai,"Nerul, Navi Mumbai - MPCB",12-03-2024 15:00:00,19.008751,73.016620,PM2.5,57,269,109
India,Maharashtra,Navi Mumbai,"Nerul, Navi Mumbai - MPCB",12-03-2024 15:00:00,19.008751,73.016620,PM10,110,500,181
India,Maharashtra,Navi Mumbai,"Sanpada, Navi Mumbai - MPCB",12-03-2024 15:00:00,19.0575752,73.0151367,PM2.5,72,247,134
India,Maharashtra,Navi Mumbai,"Sanpada, Navi Mumbai - MPCB",12-03-2024 15:00:00,19.0575752,73.0151367,PM10,107,196,142
India,Maharashtra,Navi Mumbai,"Sector-19A Nerul, Navi Mumbai - IITM",12-03-2024 15:00:00,19.044,73.0325,OZONE,1,231,183
India,Maharashtra,Navi Mumbai,"Sector-2E Kalamboli, Navi Mumbai - MPCB",12-03-2024 15:00:00,19.02579,73.10297,PM2.5,53,118,83
India,Maharashtra,Navi Mumbai,"Sector-2E Kalamboli, Navi Mumbai - MPCB",12-03-2024 15:00:00,19.02579,73.10297,PM10,64,186,126
India,Maharashtra,Navi Mumbai,"Tondare-Taloja, Navi Mumbai - MPCB",12-03-2024 15:00:00,19.0630,73.1209,NH3,3,9,5
India,Maharashtra,Navi Mumbai,"Tondare-Taloja, Navi Mumbai - MPCB",12-03-2024 15:00:00,19.0630,73.1209,SO2,11,65,46
India,Maharashtra,Navi Mumbai,"Tondare-Taloja, Navi Mumbai - MPCB",12-03-2024 15:00:00,19.0630,73.1209,CO,8,56,27
India,Maharashtra,Parbhani,"Masoom Colony, Parbhani - MPCB",12-03-2024 15:00:00,19.265594,76.761463,CO,6,58,24
India,Maharashtra,Pimpri-Chinchwad,"Gavalinagar, Pimpri Chinchwad - MPCB",12-03-2024 15:00:00,18.63673,73.82487,PM10,67,156,111
India,Maharashtra,Pimpri-Chinchwad,"Gavalinagar, Pimpri Chinchwad - MPCB",12-03-2024 15:00:00,18.63673,73.82487,CO,15,86,46
India,Maharashtra,Pimpri-Chinchwad,"Thergaon, Pimpri Chinchwad - MPCB",12-03-2024 15:00:00,18.616318,73.765797,PM2.5,91,317,223
India,Maharashtra,Pimpri-Chinchwad,"Thergaon, Pimpri Chinchwad - MPCB",12-03-2024 15:00:00,18.616318,73.765797,NH3,2,25,10
India,Maharashtra,Pimpri-Chinchwad,"Thergaon, Pimpri Chinchwad - MPCB",12-03-2024 15:00:00,18.616318,73.765797,SO2,3,5,4
India,Maharashtra,Pimpri-Chinchwad,"Thergaon, Pimpri Chinchwad - MPCB",12-03-2024 15:00:00,18.616318,73.765797,CO,15,100,60
India,Maharashtra,Pune,"Bhosari, Pune - IITM",12-03-2024 15:00:00,18.640051,73.848956,PM10,65,186,117
India,Maharashtra,Pune,"Bhosari, Pune - IITM",12-03-2024 15:00:00,18.640051,73.848956,CO,40,48,44
India,Maharashtra,Pune,"Karve Road, Pune - MPCB",12-03-2024 15:00:00,18.5011743,73.8165527,NO2,2,2,2
India,Maharashtra,Pune,"Karve Road, Pune - MPCB",12-03-2024 15:00:00,18.5011743,73.8165527,OZONE,6,6,6
India,Maharashtra,Pune,"Katraj Dairy, Pune - MPCB",12-03-2024 15:00:00,18.454450,73.854155,PM2.5,NA,NA,NA
India,Maharashtra,Pune,"Katraj Dairy, Pune - MPCB",12-03-2024 15:00:00,18.454450,73.854155,CO,NA,NA,NA
India,Maharashtra,Pune,"Katraj Dairy, Pune - MPCB",12-03-2024 15:00:00,18.454450,73.854155,OZONE,NA,NA,NA
India,Maharashtra,Pune,"Revenue Colony-Shivajinagar, Pune - IITM",12-03-2024 15:00:00,18.530085,73.849598,OZONE,1,46,13
India,Maharashtra,Pune,"Savitribai Phule Pune University, Pune - MPCB",12-03-2024 15:00:00,18.547056,73.826908,PM10,61,223,125
India,Maharashtra,Pune,"Savitribai Phule Pune University, Pune - MPCB",12-03-2024 15:00:00,18.547056,73.826908,NH3,NA,NA,NA
India,Maharashtra,Sangli,"Vijay Nagar, Sangli - MPCB",12-03-2024 15:00:00, 16.5038,74.3623,PM2.5,65,267,150
India,Maharashtra,Solapur,"Dnyaneshwar Nagar, Solapur - MPCB",12-03-2024 15:00:00,17.6336264,75.9132495,NO2,NA,NA,NA
India,Maharashtra,Solapur,"Ratandeep Housing Society, Solapur - MPCB",12-03-2024 15:00:00,17.65439,75.90649,OZONE,9,154,78
India,Maharashtra,Thane,"Pimpleshwar Mandir, Thane - MPCB",12-03-2024 15:00:00,19.192056,72.9585188,NH3,3,3,3
India,Maharashtra,Thane,"Pimpleshwar Mandir, Thane - MPCB",12-03-2024 15:00:00,19.192056,72.9585188,CO,4,114,69
India,Maharashtra,Thane,"Upvan Fort, Thane - MPCB",12-03-2024 15:00:00,19.222279,72.957979,NO2,11,68,31
India,Maharashtra,Thane,"Upvan Fort, Thane - MPCB",12-03-2024 15:00:00,19.222279,72.957979,OZONE,29,125,57
India,Maharashtra,Ulhasnagar,"Sidhi Vinayak Nagar, Ulhasnagar - MPCB",12-03-2024 15:00:00,19.235581,73.159121,NO2,7,53,23
India,Maharashtra,Virar,"Bolinj, Virar - MPCB",12-03-2024 15:00:00,19.4458210,72.7988231,PM2.5,66,142,101
India,Maharashtra,Virar,"Bolinj, Virar - MPCB",12-03-2024 15:00:00,19.4458210,72.7988231,NH3,5,6,5
India,Maharashtra,Virar,"Bolinj, Virar - MPCB",12-03-2024 15:00:00,19.4458210,72.7988231,SO2,16,39,24
India,Maharashtra,Virar,"Bolinj, Virar - MPCB",12-03-2024 15:00:00,19.4458210,72.7988231,OZONE,42,120,63
India,Mizoram,Aizawl,"Sikulpuikawn, Aizawl - Mizoram PCB",12-03-2024 15:00:00,23.7176342,92.7192841,PM2.5,54,111,74
India,Nagaland,Kohima,"PWD Juction, Kohima - NPCB",12-03-2024 15:00:00,25.6635413,94.0989878,OZONE,12,64,27
India,Odisha,Angul,"Hakimapada, Angul - OSPCB",12-03-2024 15:00:00,20.832874,85.104082,PM2.5,60,500,204
India,Odisha,Angul,"Hakimapada, Angul - OSPCB",12-03-2024 15:00:00,20.832874,85.104082,NH3,1,2,1
India,Odisha,Angul,"Hakimapada, Angul - OSPCB",12-03-2024 15:00:00,20.832874,85.104082,OZONE,8,132,64
India,Odisha,Baripada,"Meher Colony, Baripada - OSPCB",12-03-2024 15:00:00,21.941841,86.728318,NH3,4,4,4
India,Odisha,Bhubaneswar,"Lingraj Mandir, Bhubaneswar - OSPCB",12-03-2024 15:00:00,20.240790,85.836784,PM10,45,153,85
India,Odisha,Bhubaneswar,"Lingraj Mandir, Bhubaneswar - OSPCB",12-03-2024 15:00:00,20.240790,85.836784,NO2,2,22,10
India,Odisha,Bhubaneswar,"Lingraj Mandir, Bhubaneswar - OSPCB",12-03-2024 15:00:00,20.240790,85.836784,NH3,5,7,5
India,Odisha,Bileipada,"Tata Township, Bileipada - OSPCB",12-03-2024 15:00:00,22.06156703,85.47409613,NH3,11,11,11
India,Odisha,Bileipada,"Tata Township, Bileipada - OSPCB",12-03-2024 15:00:00,22.06156703,85.47409613,SO2,16,58,24
India,Odisha,Bileipada,"Tata Township, Bileipada - OSPCB",12-03-2024 15:00:00,22.06156703,85.47409613,CO,16,36,27
India,Odisha,Byasanagar,"Ferro Chrome Colony, Byasanagar - OSPCB",12-03-2024 15:00:00,20.94185,86.11510,SO2,3,80,15
India,Odisha,Keonjhar,"Jagamohanpur, Keonjhar - OSPCB",12-03-2024 15:00:00,21.643900,85.599355,CO,12,58,32
India,Odisha,Nayagarh,"Dabuna, Nayagarh - OSPCB",12-03-2024 15:00:00,21.847279,85.416905,PM2.5,98,223,184
India,Odisha,Rairangpur,"Divisional Forest Office, Rairangpur - OSPCB",12-03-2024 15:00:00,22.265816,86.174829,PM2.5,47,108,76
India,Odisha,Rairangpur,"Divisional Forest Office, Rairangpur - OSPCB",12-03-2024 15:00:00,22.265816,86.174829,SO2,2,13,4
India,Odisha,Rourkela,"Fertilizer Township, Rourkela - OSPCB",12-03-2024 15:00:00,22.18972222,84.86277778,PM2.5,26,334,147
India,Odisha,Rourkela,"Fertilizer Township, Rourkela - OSPCB",12-03-2024 15:00:00,22.18972222,84.86277778,PM10,71,236,127
India,Odisha,Rourkela,"Fertilizer Township, Rourkela - OSPCB",12-03-2024 15:00:00,22.18972222,84.86277778,NO2,10,84,21
India,Odisha,Rourkela,"Fertilizer Township, Rourkela - OSPCB",12-03-2024 15:00:00,22.18972222,84.86277778,CO,16,26,20
India,Odisha,Rourkela,"Raghunathpali, Rourkela - OSPCB",12-03-2024 15:00:00,22.220833,84.809444,CO,24,60,33
India,Odisha,Suakati,"OMC Colony, Suakati - OSPCB",12-03-2024 15:00:00,21.606865,85.510538,PM2.5,92,207,150
India,Odisha,Suakati,"OMC Colony, Suakati - OSPCB",12-03-2024 15:00:00,21.606865,85.510538,NH3,11,60,18
India,Odisha,Suakati,"OMC Colony, Suakati - OSPCB",12-03-2024 15:00:00,21.606865,85.510538,SO2,14,109,35
India,Odisha,Talcher,"Talcher Coalfields,Talcher - OSPCB",12-03-2024 15:00:00,20.9360711,85.1707021,PM2.5,25,436,139
India,Puducherry,Puducherry,"Jawahar Nagar, Puducherry - PPCC",12-03-2024 15:00:00,11.9309,79.8027,PM10,34,100,57
India,Puducherry,Puducherry,"Jawahar Nagar, Puducherry - PPCC",12-03-2024 15:00:00,11.9309,79.8027,CO,15,54,32
India,Punjab,Bathinda,"Hardev Nagar, Bathinda - PPCB",12-03-2024 15:00:00,30.233011,74.907758,PM10,32,133,83
India,Punjab,Jalandhar,"Civil Line, Jalandhar - PPCB",12-03-2024 15:00:00,31.321907,75.578914,NH3,2,5,3
India,Punjab,Jalandhar,"Civil Line, Jalandhar - PPCB",12-03-2024 15:00:00,31.321907,75.578914,SO2,10,15,12
India,Punjab,Jalandhar,"Civil Line, Jalandhar - PPCB",12-03-2024 15:00:00,31.321907,75.578914,CO,36,85,60
India,Punjab,Khanna,"Kalal Majra, Khanna - PPCB",12-03-2024 15:00:00,30.736056 ,76.209694,NH3,14,14,14
India,Punjab,Khanna,"Kalal Majra, Khanna - PPCB",12-03-2024 15:00:00,30.736056 ,76.209694,OZONE,13,100,43
India,Punjab,Rupnagar,"Ratanpura, Rupnagar - Ambuja Cements",12-03-2024 15:00:00,31.0325454,76.5623046,PM10,72,442,237
India,Rajasthan,Ajmer,"Civil Lines,  Ajmer - RSPCB",12-03-2024 15:00:00,26.470859,74.646594,PM10,74,144,107
India,Rajasthan,Alwar,"Moti Doongri, Alwar - RSPCB",12-03-2024 15:00:00,27.554793,76.611536,NH3,5,12,7
India,Rajasthan,Banswara,"Rati Talai, Banswara - RSPCB",12-03-2024 15:00:00,23.555190,74.440010,PM10,84,249,133
India,Rajasthan,Banswara,"Rati Talai, Banswara - RSPCB",12-03-2024 15:00:00,23.555190,74.440010,NH3,3,7,4
India,Rajasthan,Baran,"Bamboliya, Baran - RSPCB",12-03-2024 15:00:00,25.106006,76.469948,SO2,10,34,15
India,Rajasthan,Baran,"Bamboliya, Baran - RSPCB",12-03-2024 15:00:00,25.106006,76.469948,OZONE,19,158,81
India,Rajasthan,Barmer,"Railway Colony, Barmer - RSPCB",12-03-2024 15:00:00,25.747299,71.393989,SO2,6,18,9
India,Rajasthan,Bhiwadi,"Vasundhara Nagar_UIT, Bhiwadi - RSPCB",12-03-2024 15:00:00,28.207266,76.829265,PM10,90,292,183
India,Rajasthan,Bhiwadi,"Vasundhara Nagar_UIT, Bhiwadi - RSPCB",12-03-2024 15:00:00,28.207266,76.829265,CO,16,50,39
India,Rajasthan,Bikaner,"MM Ground, Bikaner - RSPCB",12-03-2024 15:00:00,28.018792,73.292658,NH3,9,12,11
India,Rajasthan,Bundi,"New Colony, Bundi - RSPCB",12-03-2024 15:00:00,25.435774,75.644272,PM2.5,NA,NA,NA
India,Rajasthan,Chittorgarh,"Shastri Nagar, Chittorgarh - RSPCB",12-03-2024 15:00:00,24.892047,74.623527,PM2.5,33,164,79
India,Rajasthan,Churu,"Subash Chowk, Churu - RSPCB",12-03-2024 15:00:00,28.296139,74.961696,PM2.5,27,198,82
India,Rajasthan,Churu,"Subash Chowk, Churu - RSPCB",12-03-2024 15:00:00,28.296139,74.961696,PM10,72,144,102
India,Rajasthan,Churu,"Subash Chowk, Churu - RSPCB",12-03-2024 15:00:00,28.296139,74.961696,NH3,10,13,11
India,Rajasthan,Churu,"Subash Chowk, Churu - RSPCB",12-03-2024 15:00:00,28.296139,74.961696,SO2,4,26,12
India,Rajasthan,Dausa,"Khatikan Mohalla, Dausa - RSPCB",12-03-2024 15:00:00,26.895552,76.334753,PM10,101,175,131
India,Rajasthan,Dholpur,"Raja Ganj, Dholpur - RSPCB",12-03-2024 15:00:00,26.699557,77.898881,CO,19,64,43
India,Rajasthan,Hanumangarh,"Housing Board, Hanumangarh - RSPCB",12-03-2024 15:00:00,29.610750,74.283608,NH3,NA,NA,NA
India,Rajasthan,Jaipur,"Adarsh Nagar, Jaipur - RSPCB",12-03-2024 15:00:00,26.902909,75.836858,NO2,23,96,44
India,Rajasthan,Jaipur,"Adarsh Nagar, Jaipur - RSPCB",12-03-2024 15:00:00,26.902909,75.836858,OZONE,19,53,46
India,Rajasthan,Jaipur,"Mansarovar Sector-12, Jaipur - RSPCB",12-03-2024 15:00:00,26.843698,75.766894,PM10,50,119,91
India,Rajasthan,Jaipur,"Police Commissionerate, Jaipur - RSPCB",12-03-2024 15:00:00,26.9164092,75.7994901,OZONE,12,121,90
India,Rajasthan,Jaipur,"RIICO Sitapura, Jaipur - RSPCB",12-03-2024 15:00:00,26.786682,75.827928,PM2.5,40,315,180
India,Rajasthan,Jaipur,"RIICO Sitapura, Jaipur - RSPCB",12-03-2024 15:00:00,26.786682,75.827928,SO2,13,30,20
India,Rajasthan,Jaipur,"RIICO Sitapura, Jaipur - RSPCB",12-03-2024 15:00:00,26.786682,75.827928,OZONE,3,117,89
India,Rajasthan,Jaipur,"Sector-2 Murlipura, Jaipur - RSPCB",12-03-2024 15:00:00,26.960669,75.771817,NO2,4,49,18
India,Rajasthan,Jaipur,"Sector-2 Murlipura, Jaipur - RSPCB",12-03-2024 15:00:00,26.960669,75.771817,SO2,10,28,18
India,Rajasthan,Jaipur,"Sector-2 Murlipura, Jaipur - RSPCB",12-03-2024 15:00:00,26.960669,75.771817,CO,6,105,16
India,Rajasthan,Jaipur,"Sector-2 Murlipura, Jaipur - RSPCB",12-03-2024 15:00:00,26.960669,75.771817,OZONE,8,155,120
India,Rajasthan,Jaipur,"Shastri Nagar, Jaipur - RSPCB",12-03-2024 15:00:00,26.9502929,75.730943,NO2,9,136,49
India,Rajasthan,Jaisalmer,"Sadar Bazar, Jaisalmer - RSPCB",12-03-2024 15:00:00,26.912329,70.909168,CO,13,93,26
India,Rajasthan,Jaisalmer,"Sadar Bazar, Jaisalmer - RSPCB",12-03-2024 15:00:00,26.912329,70.909168,OZONE,3,117,96
India,Rajasthan,Jalore,"Mudtra Sili, Jalore - RSPCB",12-03-2024 15:00:00,25.344694,72.626208,PM10,43,355,97
India,Rajasthan,Jalore,"Mudtra Sili, Jalore - RSPCB",12-03-2024 15:00:00,25.344694,72.626208,NO2,8,61,27
India,Rajasthan,Jodhpur,"Collectorate, Jodhpur - RSPCB",12-03-2024 15:00:00,26.268249,73.0193853,PM10,5,197,119
India,Rajasthan,Jodhpur,"Digari Kalan, Jodhpur - RSPCB",12-03-2024 15:00:00,26.295810,73.082283,NH3,7,10,8
India,Rajasthan,Jodhpur,"Jhalamand, Jodhpur - RSPCB",12-03-2024 15:00:00,26.215415,73.070156,SO2,4,25,10
India,Rajasthan,Jodhpur,"Jhalamand, Jodhpur - RSPCB",12-03-2024 15:00:00,26.215415,73.070156,OZONE,16,97,69
India,Rajasthan,Jodhpur,"Samrat Ashok Udhyan, Jodhpur - RSPCB",12-03-2024 15:00:00,26.253384,72.976571,PM2.5,9,91,42
India,Rajasthan,Karauli,"Satyawati Vihar, Karauli - RSPCB",12-03-2024 15:00:00,26.506177,77.025989,SO2,6,16,10
India,Rajasthan,Karauli,"Satyawati Vihar, Karauli - RSPCB",12-03-2024 15:00:00,26.506177,77.025989,OZONE,16,38,35
India,Rajasthan,Kota,"Nayapura, Kota - RSPCB",12-03-2024 15:00:00,25.196024,75.855668,PM2.5,26,284,120
India,Rajasthan,Kota,"Nayapura, Kota - RSPCB",12-03-2024 15:00:00,25.196024,75.855668,SO2,2,18,7
India,Rajasthan,Kota,"Shrinath Puram, Kota - RSPCB",12-03-2024 15:00:00,25.14389,75.821256,PM10,80,184,117
India,Rajasthan,Kota,"Shrinath Puram, Kota - RSPCB",12-03-2024 15:00:00,25.14389,75.821256,CO,33,113,41
India,Rajasthan,Kota,"Shrinath Puram, Kota - RSPCB",12-03-2024 15:00:00,25.14389,75.821256,OZONE,8,97,54
India,Rajasthan,Nagaur,"Karni Colony, Nagaur - RSPCB",12-03-2024 15:00:00,27.213494,73.734444,CO,18,58,42
India,Rajasthan,Rajsamand,"Dhoinda, Rajsamand - RSPCB",12-03-2024 15:00:00,25.036360,73.883502,PM2.5,7,72,28
India,Rajasthan,Sawai Madhopur,"Sahu Nagar, Sawai Madhopur - RSPCB",12-03-2024 15:00:00,26.031443,76.359327,NO2,5,77,27
India,Rajasthan,Sikar,"Radhakishan Pura, Sikar - RSPCB",12-03-2024 15:00:00,27.608912,75.153302,SO2,5,15,8
India,Rajasthan,Sikar,"Radhakishan Pura, Sikar - RSPCB",12-03-2024 15:00:00,27.608912,75.153302,OZONE,6,78,57
India,Rajasthan,Sirohi,"Vedhaynath Colony, Sirohi - RSPCB",12-03-2024 15:00:00,24.885261,72.857549,OZONE,4,105,64
India,Rajasthan,Sri Ganganagar,"Old City, Sri Ganganagar - RSPCB",12-03-2024 15:00:00,29.931624,73.864511,PM2.5,37,304,130
India,Rajasthan,Udaipur,"Ashok Nagar, Udaipur - RSPCB",12-03-2024 15:00:00,24.5886166,73.6321397,PM10,46,128,83
India,Rajasthan,Udaipur,"Ashok Nagar, Udaipur - RSPCB",12-03-2024 15:00:00,24.5886166,73.6321397,NH3,9,11,10
India,Rajasthan,Udaipur,"Ashok Nagar, Udaipur - RSPCB",12-03-2024 15:00:00,24.5886166,73.6321397,CO,1,68,8
India,Sikkim,Gangtok,"Zero Point GICI, Gangtok - SSPCB",12-03-2024 15:00:00,27.338530,88.614099,PM2.5,25,68,51
India,Sikkim,Gangtok,"Zero Point GICI, Gangtok - SSPCB",12-03-2024 15:00:00,27.338530,88.614099,SO2,11,11,11
India,Sikkim,Gangtok,"Zero Point GICI, Gangtok - SSPCB",12-03-2024 15:00:00,27.338530,88.614099,OZONE,45,129,91
India,TamilNadu,Ariyalur,"Keelapalur, Ariyalur - TNPCB",12-03-2024 15:00:00,11.06825,79.07033,PM10,48,68,59
India,TamilNadu,Chengalpattu,"Crescent University, Chengalpattu - TNPCB",12-03-2024 15:00:00,12.8777316,80.0834807,PM2.5,32,73,50
India,TamilNadu,Chengalpattu,"Crescent University, Chengalpattu - TNPCB",12-03-2024 15:00:00,12.8777316,80.0834807,SO2,20,21,20
India,TamilNadu,Chennai,"Alandur Bus Depot, Chennai - CPCB",12-03-2024 15:00:00,12.9099161,80.1076538,NH3,3,26,11
India,TamilNadu,Chennai,"Arumbakkam, Chennai - TNPCB",12-03-2024 15:00:00,13.0664,80.2112 ,PM10,44,114,78
India,TamilNadu,Chennai,"Kodungaiyur, Chennai - TNPCB",12-03-2024 15:00:00,13.1278,80.2642,SO2,1,12,5
India,TamilNadu,Chennai,"Kodungaiyur, Chennai - TNPCB",12-03-2024 15:00:00,13.1278,80.2642,CO,26,41,35
India,TamilNadu,Chennai,"Kodungaiyur, Chennai - TNPCB",12-03-2024 15:00:00,13.1278,80.2642,OZONE,5,6,6
India,TamilNadu,Chennai,"Manali, Chennai - CPCB",12-03-2024 15:00:00,13.164544,80.26285,PM2.5,35,55,45
India,TamilNadu,Chennai,"Manali, Chennai - CPCB",12-03-2024 15:00:00,13.164544,80.26285,NO2,7,9,8
India,TamilNadu,Chennai,"Manali, Chennai - CPCB",12-03-2024 15:00:00,13.164544,80.26285,NH3,4,5,4
India,TamilNadu,Chennai,"Perungudi, Chennai - TNPCB",12-03-2024 15:00:00,12.9533,80.2357,SO2,2,8,4
India,TamilNadu,Chennai,"Royapuram, Chennai - TNPCB",12-03-2024 15:00:00,13.1036,80.2909,PM10,39,116,64
India,TamilNadu,Chennai,"Royapuram, Chennai - TNPCB",12-03-2024 15:00:00,13.1036,80.2909,NO2,12,32,21
India,TamilNadu,Chennai,"Royapuram, Chennai - TNPCB",12-03-2024 15:00:00,13.1036,80.2909,OZONE,9,11,10
India,TamilNadu,Chennai,"Velachery Res. Area, Chennai - CPCB",12-03-2024 15:00:00,13.0052189,80.2398125,NO2,8,31,14
India,TamilNadu,Chennai,"Velachery Res. Area, Chennai - CPCB",12-03-2024 15:00:00,13.0052189,80.2398125,OZONE,1,10,5
India,TamilNadu,Cuddalore,"Kudikadu, Cuddalore - TNPCB",12-03-2024 15:00:00,11.6829898,79.7532099,NH3,5,6,5
India,TamilNadu,Cuddalore,"Semmandalam, Cuddalore - TNPCB",12-03-2024 15:00:00,11.7637683,79.7499835,NH3,1,3,2
India,TamilNadu,Gummidipoondi,"Anthoni Pillai Nagar, Gummidipoondi - TNPCB",12-03-2024 15:00:00,13.4127,80.1081,PM2.5,53,202,92
India,TamilNadu,Gummidipoondi,"Anthoni Pillai Nagar, Gummidipoondi - TNPCB",12-03-2024 15:00:00,13.4127,80.1081,NH3,1,2,2
India,TamilNadu,Gummidipoondi,"Anthoni Pillai Nagar, Gummidipoondi - TNPCB",12-03-2024 15:00:00,13.4127,80.1081,SO2,5,57,20
India,TamilNadu,Kanchipuram,"Kilambi, Kanchipuram - TNPCB",12-03-2024 15:00:00,12.864618,79.659968,NH3,4,4,4
India,TamilNadu,Kanchipuram,"Kilambi, Kanchipuram - TNPCB",12-03-2024 15:00:00,12.864618,79.659968,CO,18,24,20
India,TamilNadu,Ooty,"Bombay Castel, Ooty - TNPCB",12-03-2024 15:00:00,11.4068288,76.7138973,CO,18,19,18
India,TamilNadu,Palkalaiperur,"Bharathidasan University, Palkalaiperur - TNPCB",12-03-2024 15:00:00,10.681158,78.741746,PM10,40,70,54
India,TamilNadu,Ramanathapuram,"Chalai Bazaar, Ramanathapuram - TNPCB",12-03-2024 15:00:00,9.36399,78.831977,NH3,NA,NA,NA
India,TamilNadu,Ramanathapuram,"Chalai Bazaar, Ramanathapuram - TNPCB",12-03-2024 15:00:00,9.36399,78.831977,SO2,NA,NA,NA
India,TamilNadu,Salem,"Sona College of Technology, Salem - TNPCB",12-03-2024 15:00:00,11.679111,78.125052,CO,43,46,45
India,TamilNadu,Salem,"Sona College of Technology, Salem - TNPCB",12-03-2024 15:00:00,11.679111,78.125052,OZONE,2,3,3
India,TamilNadu,Thoothukudi,"Meelavittan, Thoothukudi - TNPCB",12-03-2024 15:00:00,8.816428 ,78.099039,NO2,15,22,18
India,TamilNadu,Tirupur,"Kumaran College, Tirupur - TNPCB",12-03-2024 15:00:00,11.0973603,77.3228673,PM2.5,21,67,37
India,TamilNadu,Tirupur,"Kumaran College, Tirupur - TNPCB",12-03-2024 15:00:00,11.0973603,77.3228673,PM10,78,258,143
India,TamilNadu,Tirupur,"Kumaran College, Tirupur - TNPCB",12-03-2024 15:00:00,11.0973603,77.3228673,CO,22,101,37
India,TamilNadu,Tirupur,"Kumaran College, Tirupur - TNPCB",12-03-2024 15:00:00,11.0973603,77.3228673,OZONE,6,7,7
India,TamilNadu,Vellore,"Vasanthapuram, Vellore - TNPCB",12-03-2024 15:00:00,12.909494,79.131861,CO,20,20,20
India,TamilNadu,Vellore,"Vasanthapuram, Vellore - TNPCB",12-03-2024 15:00:00,12.909494,79.131861,OZONE,1,2,1
India,Telangana,Hyderabad,"Bollaram Industrial Area, Hyderabad - TSPCB",12-03-2024 15:00:00,17.540891,78.358528,CO,8,73,36
India,Telangana,Hyderabad,"Central University, Hyderabad - TSPCB",12-03-2024 15:00:00,17.460103,78.334361,PM2.5,38,75,49
India,Telangana,Hyderabad,"ECIL Kapra, Hyderabad - TSPCB",12-03-2024 15:00:00,17.470431,78.566959,NO2,7,12,8
India,Telangana,Hyderabad,"ICRISAT Patancheru, Hyderabad - TSPCB",12-03-2024 15:00:00,17.518400,78.278777,SO2,14,25,18
India,Telangana,Hyderabad,"ICRISAT Patancheru, Hyderabad - TSPCB",12-03-2024 15:00:00,17.518400,78.278777,OZONE,8,117,57
India,Telangana,Hyderabad,"Kokapet, Hyderabad - TSPCB",12-03-2024 15:00:00,17.393559,78.339194,PM10,72,99,79
India,Telangana,Hyderabad,"Kokapet, Hyderabad - TSPCB",12-03-2024 15:00:00,17.393559,78.339194,NO2,8,10,10
India,Telangana,Hyderabad,"Kokapet, Hyderabad - TSPCB",12-03-2024 15:00:00,17.393559,78.339194,SO2,9,12,11
India,Telangana,Hyderabad,"Kokapet, Hyderabad - TSPCB",12-03-2024 15:00:00,17.393559,78.339194,OZONE,1,15,6
India,Telangana,Hyderabad,"Kompally Municipal Office, Hyderabad - TSPCB",12-03-2024 15:00:00,17.544899,78.486949,SO2,5,20,8
India,Telangana,Hyderabad,"New Malakpet, Hyderabad - TSPCB",12-03-2024 15:00:00,17.37206,78.50864,NH3,4,4,4
India,Telangana,Hyderabad,"New Malakpet, Hyderabad - TSPCB",12-03-2024 15:00:00,17.37206,78.50864,CO,11,40,22
India,Telangana,Hyderabad,"Ramachandrapuram, Hyderabad - TSPCB",12-03-2024 15:00:00,17.528544,78.286195,PM2.5,NA,NA,NA
India,Telangana,Hyderabad,"Ramachandrapuram, Hyderabad - TSPCB",12-03-2024 15:00:00,17.528544,78.286195,SO2,NA,NA,NA
India,Telangana,Hyderabad,"Ramachandrapuram, Hyderabad - TSPCB",12-03-2024 15:00:00,17.528544,78.286195,OZONE,32,35,33
India,Telangana,Hyderabad,"Sanathnagar, Hyderabad - TSPCB",12-03-2024 15:00:00,17.4559458,78.4332152,OZONE,12,64,22
India,Telangana,Hyderabad,"Zoo Park, Hyderabad - TSPCB",12-03-2024 15:00:00,17.349694,78.451437,PM2.5,40,93,65
India,Uttar_Pradesh,Agra,"Rohta, Agra - UPPCB",12-03-2024 15:00:00,27.106972,78.000111,NO2,3,3,3
India,Uttar_Pradesh,Agra,"Rohta, Agra - UPPCB",12-03-2024 15:00:00,27.106972,78.000111,CO,3,22,17
India,Uttar_Pradesh,Agra,"Sanjay Palace, Agra - UPPCB",12-03-2024 15:00:00,27.19865833,78.00598056,CO,30,76,56
India,Uttar_Pradesh,Agra,"Sector-3B Avas Vikas Colony, Agra - UPPCB",12-03-2024 15:00:00,27.19412,77.96237,OZONE,2,10,5
India,Uttar_Pradesh,Agra,"Shahjahan Garden, Agra - UPPCB",12-03-2024 15:00:00,27.169338,78.03582,PM2.5,NA,NA,NA
India,Uttar_Pradesh,Agra,"Shahjahan Garden, Agra - UPPCB",12-03-2024 15:00:00,27.169338,78.03582,PM10,NA,NA,NA
India,Uttar_Pradesh,Agra,"Shastripuram, Agra - UPPCB",12-03-2024 15:00:00,27.19862,77.92066,NO2,23,74,33
India,Uttar_Pradesh,Baghpat,"Sardar Patel Inter College, Baghpat - UPPCB",12-03-2024 15:00:00,28.964949,77.278761,PM2.5,30,223,92
India,Uttar_Pradesh,Baghpat,"Sardar Patel Inter College, Baghpat - UPPCB",12-03-2024 15:00:00,28.964949,77.278761,NH3,1,4,2
India,Uttar_Pradesh,Baghpat,"Sardar Patel Inter College, Baghpat - UPPCB",12-03-2024 15:00:00,28.964949,77.278761,SO2,19,77,48
India,Uttar_Pradesh,Baghpat,"Sardar Patel Inter College, Baghpat - UPPCB",12-03-2024 15:00:00,28.964949,77.278761,CO,16,74,50
India,Uttar_Pradesh,Bareilly,"Rajendra Nagar, Bareilly - UPPCB",12-03-2024 15:00:00,28.38910936,79.42963708,PM10,39,105,77
India,Uttar_Pradesh,Firozabad,"Nagla Bhau, Firozabad - UPPCB",12-03-2024 15:00:00,27.168897,78.376960,NO2,17,18,17
India,Uttar_Pradesh,Firozabad,"Nagla Bhau, Firozabad - UPPCB",12-03-2024 15:00:00,27.168897,78.376960,CO,20,30,27
India,Uttar_Pradesh,Firozabad,"Vibhab Nagar, Firozabad - UPPCB",12-03-2024 15:00:00,27.1594,78.3953,PM2.5,57,190,87
India,Uttar_Pradesh,Firozabad,"Vibhab Nagar, Firozabad - UPPCB",12-03-2024 15:00:00,27.1594,78.3953,PM10,43,106,62
India,Uttar_Pradesh,Ghaziabad,"Indirapuram, Ghaziabad - UPPCB",12-03-2024 15:00:00,28.646233,77.358075,PM10,111,222,151
India,Uttar_Pradesh,Ghaziabad,"Indirapuram, Ghaziabad - UPPCB",12-03-2024 15:00:00,28.646233,77.358075,NH3,7,10,9
India,Uttar_Pradesh,Ghaziabad,"Indirapuram, Ghaziabad - UPPCB",12-03-2024 15:00:00,28.646233,77.358075,OZONE,5,69,20
India,Uttar_Pradesh,Ghaziabad,"Loni, Ghaziabad - UPPCB",12-03-2024 15:00:00,28.757294,77.278792,NH3,1,3,2
India,Uttar_Pradesh,Ghaziabad,"Loni, Ghaziabad - UPPCB",12-03-2024 15:00:00,28.757294,77.278792,SO2,10,44,25
India,Uttar_Pradesh,Ghaziabad,"Sanjay Nagar, Ghaziabad - UPPCB",12-03-2024 15:00:00,28.685382,77.453839,SO2,19,69,35
India,Uttar_Pradesh,Ghaziabad,"Vasundhara, Ghaziabad - UPPCB",12-03-2024 15:00:00,28.6603346,77.3572563,SO2,1,103,20
India,Uttar_Pradesh,Gorakhpur,"Madan Mohan Malaviya University of Technology, Gorakhpur - UPPCB",12-03-2024 15:00:00,26.730136,83.433859,PM2.5,60,301,180
India,Uttar_Pradesh,Gorakhpur,"Madan Mohan Malaviya University of Technology, Gorakhpur - UPPCB",12-03-2024 15:00:00,26.730136,83.433859,OZONE,1,67,50
India,Uttar_Pradesh,Greater Noida,"Knowledge Park - III, Greater Noida - UPPCB",12-03-2024 15:00:00,28.47272,77.482000,PM10,145,322,215
India,Uttar_Pradesh,Greater Noida,"Knowledge Park - III, Greater Noida - UPPCB",12-03-2024 15:00:00,28.47272,77.482000,CO,41,97,70
India,Uttar_Pradesh,Greater Noida,"Knowledge Park - V, Greater Noida - UPPCB",12-03-2024 15:00:00,28.557054,77.453663,NO2,23,49,36
India,Uttar_Pradesh,Greater Noida,"Knowledge Park - V, Greater Noida - UPPCB",12-03-2024 15:00:00,28.557054,77.453663,SO2,6,49,24
India,Uttar_Pradesh,Greater Noida,"Knowledge Park - V, Greater Noida - UPPCB",12-03-2024 15:00:00,28.557054,77.453663,CO,17,82,46
India,Uttar_Pradesh,Hapur,"Anand Vihar, Hapur - UPPCB",12-03-2024 15:00:00,28.725645,77.749675,NH3,7,10,8
India,Uttar_Pradesh,Hapur,"Anand Vihar, Hapur - UPPCB",12-03-2024 15:00:00,28.725645,77.749675,CO,22,100,68
India,Uttar_Pradesh,Jhansi,"Shivaji Nagar, Jhansi - UPPCB",12-03-2024 15:00:00,25.4547,78.6039,NO2,5,31,17
India,Uttar_Pradesh,Kanpur,"FTI Kidwai Nagar, Kanpur - UPPCB",12-03-2024 15:00:00,26.428282,80.327067,SO2,23,24,23
India,Uttar_Pradesh,Kanpur,"NSI Kalyanpur, Kanpur - UPPCB",12-03-2024 15:00:00,26.509954,80.249612,PM2.5,41,146,74
India,Uttar_Pradesh,Kanpur,"NSI Kalyanpur, Kanpur - UPPCB",12-03-2024 15:00:00,26.509954,80.249612,NO2,16,18,16
India,Uttar_Pradesh,Kanpur,"Nehru Nagar, Kanpur - UPPCB",12-03-2024 15:00:00,26.4703136,80.3229863,CO,1,56,22
India,Uttar_Pradesh,Khurja,"Kalindi Kunj, Khurja - UPPCB",12-03-2024 15:00:00,28.2348927,77.8683002,NO2,6,30,17
India,Uttar_Pradesh,Khurja,"Kalindi Kunj, Khurja - UPPCB",12-03-2024 15:00:00,28.2348927,77.8683002,CO,14,64,55
India,Uttar_Pradesh,Lucknow,"B R Ambedkar University, Lucknow - UPPCB",12-03-2024 15:00:00,26.766433,80.927299,PM2.5,32,106,68
India,Uttar_Pradesh,Lucknow,"B R Ambedkar University, Lucknow - UPPCB",12-03-2024 15:00:00,26.766433,80.927299,NO2,11,12,11
India,Uttar_Pradesh,Lucknow,"Gomti Nagar, Lucknow - UPPCB",12-03-2024 15:00:00,26.868120,81.005119,PM2.5,44,221,112
India,Uttar_Pradesh,Lucknow,"Gomti Nagar, Lucknow - UPPCB",12-03-2024 15:00:00,26.868120,81.005119,NO2,9,11,10
India,Uttar_Pradesh,Lucknow,"Gomti Nagar, Lucknow - UPPCB",12-03-2024 15:00:00,26.868120,81.005119,SO2,4,14,10
India,Uttar_Pradesh,Lucknow,"Gomti Nagar, Lucknow - UPPCB",12-03-2024 15:00:00,26.868120,81.005119,OZONE,30,41,37
India,Uttar_Pradesh,Lucknow,"Kendriya Vidyalaya, Lucknow - CPCB",12-03-2024 15:00:00,26.906111,80.948222,PM2.5,35,127,79
India,Uttar_Pradesh,Lucknow,"Kendriya Vidyalaya, Lucknow - CPCB",12-03-2024 15:00:00,26.906111,80.948222,NO2,10,48,26
India,Uttar_Pradesh,Lucknow,"Kendriya Vidyalaya, Lucknow - CPCB",12-03-2024 15:00:00,26.906111,80.948222,SO2,5,9,7
India,Uttar_Pradesh,Lucknow,"Kendriya Vidyalaya, Lucknow - CPCB",12-03-2024 15:00:00,26.906111,80.948222,OZONE,16,44,31
India,Uttar_Pradesh,Lucknow,"Kukrail Picnic Spot-1, Lucknow - UPPCB",12-03-2024 15:00:00,26.90723,80.98579,SO2,33,38,35
India,Uttar_Pradesh,Meerut,"Ganga Nagar, Meerut - UPPCB",12-03-2024 15:00:00,28.999264,77.7590354,PM2.5,29,188,88
India,Uttar_Pradesh,Meerut,"Ganga Nagar, Meerut - UPPCB",12-03-2024 15:00:00,28.999264,77.7590354,CO,28,54,48
India,Uttar_Pradesh,Meerut,"Jai Bhim Nagar, Meerut - UPPCB",12-03-2024 15:00:00,28.9535882,77.7622941,NO2,14,53,31
India,Uttar_Pradesh,Meerut,"Jai Bhim Nagar, Meerut - UPPCB",12-03-2024 15:00:00,28.9535882,77.7622941,OZONE,7,124,68
India,Uttar_Pradesh,Meerut,"Pallavpuram Phase 2, Meerut - UPPCB",12-03-2024 15:00:00,29.063510,77.709723,PM10,74,162,126
India,Uttar_Pradesh,Meerut,"Pallavpuram Phase 2, Meerut - UPPCB",12-03-2024 15:00:00,29.063510,77.709723,NO2,16,115,50
India,Uttar_Pradesh,Moradabad,"Buddhi Vihar, Moradabad - UPPCB",12-03-2024 15:00:00,28.83526,78.74460,PM10,72,139,109
India,Uttar_Pradesh,Moradabad,"Buddhi Vihar, Moradabad - UPPCB",12-03-2024 15:00:00,28.83526,78.74460,SO2,23,34,26
India,Uttar_Pradesh,Moradabad,"Eco Herbal Park, Moradabad - UPPCB",12-03-2024 15:00:00,28.840739,78.697531,NH3,NA,NA,NA
India,Uttar_Pradesh,Moradabad,"Eco Herbal Park, Moradabad - UPPCB",12-03-2024 15:00:00,28.840739,78.697531,SO2,NA,NA,NA
India,Uttar_Pradesh,Moradabad,"Jigar Colony, Moradabad - UPPCB",12-03-2024 15:00:00,28.856664,78.772638,NH3,5,16,5
India,Uttar_Pradesh,Moradabad,"Jigar Colony, Moradabad - UPPCB",12-03-2024 15:00:00,28.856664,78.772638,SO2,21,27,23
India,Uttar_Pradesh,Muzaffarnagar,"New Mandi, Muzaffarnagar - UPPCB",12-03-2024 15:00:00,29.4723508,77.7194031,PM2.5,68,336,226
India,Uttar_Pradesh,Muzaffarnagar,"New Mandi, Muzaffarnagar - UPPCB",12-03-2024 15:00:00,29.4723508,77.7194031,NO2,9,10,9
India,Uttar_Pradesh,Noida,"Sector - 125, Noida - UPPCB",12-03-2024 15:00:00,28.5447608,77.3231257,SO2,11,39,23
India,Uttar_Pradesh,Noida,"Sector - 125, Noida - UPPCB",12-03-2024 15:00:00,28.5447608,77.3231257,OZONE,5,233,165
India,Uttar_Pradesh,Noida,"Sector - 62, Noida - IMD",12-03-2024 15:00:00,28.6245479,77.3577104,CO,20,105,26
India,Uttar_Pradesh,Noida,"Sector-116, Noida - UPPCB",12-03-2024 15:00:00,28.569230,77.393848,SO2,18,57,32
India,Uttar_Pradesh,Prayagraj,"Jhunsi, Prayagraj - UPPCB",12-03-2024 15:00:00,25.425602,81.917152,NH3,5,5,5
India,Uttar_Pradesh,Prayagraj,"Motilal Nehru NIT, Prayagraj - UPPCB",12-03-2024 15:00:00,25.494,81.863,OZONE,5,40,17
India,Uttar_Pradesh,Prayagraj,"Nagar Nigam, Prayagraj - UPPCB",12-03-2024 15:00:00,25.44919916 ,81.82735986 ,PM10,43,164,100
India,Uttar_Pradesh,Prayagraj,"Nagar Nigam, Prayagraj - UPPCB",12-03-2024 15:00:00,25.44919916 ,81.82735986 ,OZONE,10,11,11
India,Uttar_Pradesh,Varanasi,"Ardhali Bazar, Varanasi - UPPCB",12-03-2024 15:00:00,25.3505986,82.9083074,PM10,17,71,38
India,Uttar_Pradesh,Varanasi,"Bhelupur, Varanasi - UPPCB",12-03-2024 15:00:00,25.301778,82.996789,SO2,24,25,25
India,Uttar_Pradesh,Varanasi,"Bhelupur, Varanasi - UPPCB",12-03-2024 15:00:00,25.301778,82.996789,CO,16,109,24
India,Uttar_Pradesh,Varanasi,"IESD Banaras Hindu University, Varanasi - UPPCB",12-03-2024 15:00:00,25.262326,82.995408,NH3,2,9,5
India,Uttar_Pradesh,Varanasi,"Maldahiya, Varanasi - UPPCB",12-03-2024 15:00:00,25.32393,82.99687,PM2.5,NA,NA,NA
India,Uttarakhand,Dehradun,"Doon University, Dehradun - UKPCB",12-03-2024 15:00:00,30.269444,78.044167,PM10,66,131,96
India,Uttarakhand,Kashipur,"Govt. Girls Inter College, Kashipur - UKPCB",12-03-2024 15:00:00,29.2124114,78.9611753,PM10,55,106,77
India,Uttarakhand,Rishikesh,"Shivaji Nagar, Rishikesh - UKPCB",12-03-2024 15:00:00,30.075911,78.2859547,CO,10,49,22
India,West_Bengal,Asansol,"Asansol Court Area, Asansol - WBPCB",12-03-2024 15:00:00,23.685297,86.945968,SO2,15,32,21
India,West_Bengal,Barrackpore,"SVSPA Campus, Barrackpore - WBPCB",12-03-2024 15:00:00,22.7605581,88.3617589,SO2,12,31,17
India,West_Bengal,Durgapur,"Sidhu Kanhu Indoor Stadium, Durgapur - WBPCB",12-03-2024 15:00:00,23.5404352,87.2892225,PM10,119,191,146
India,West_Bengal,Durgapur,"Sidhu Kanhu Indoor Stadium, Durgapur - WBPCB",12-03-2024 15:00:00,23.5404352,87.2892225,NO2,23,33,27
India,West_Bengal,Durgapur,"Sidhu Kanhu Indoor Stadium, Durgapur - WBPCB",12-03-2024 15:00:00,23.5404352,87.2892225,SO2,14,33,25
India,West_Bengal,Haldia,"Priyambada Housing Estate, Haldia - WBPCB",12-03-2024 15:00:00,22.06047,88.109737,PM2.5,20,57,38
India,West_Bengal,Haldia,"Priyambada Housing Estate, Haldia - WBPCB",12-03-2024 15:00:00,22.06047,88.109737,PM10,33,113,77
India,West_Bengal,Haldia,"Priyambada Housing Estate, Haldia - WBPCB",12-03-2024 15:00:00,22.06047,88.109737,OZONE,7,196,93
India,West_Bengal,Howrah,"Belur Math, Howrah - WBPCB",12-03-2024 15:00:00,22.629801,88.352017,PM10,86,146,111
India,West_Bengal,Howrah,"Belur Math, Howrah - WBPCB",12-03-2024 15:00:00,22.629801,88.352017,NO2,13,41,29
India,West_Bengal,Howrah,"Belur Math, Howrah - WBPCB",12-03-2024 15:00:00,22.629801,88.352017,OZONE,7,96,28
India,West_Bengal,Howrah,"Ghusuri, Howrah - WBPCB",12-03-2024 15:00:00,22.611968,88.347422,PM10,105,154,133
India,West_Bengal,Howrah,"Ghusuri, Howrah - WBPCB",12-03-2024 15:00:00,22.611968,88.347422,OZONE,11,31,19
India,West_Bengal,Howrah,"Padmapukur, Howrah - WBPCB",12-03-2024 15:00:00,22.5687319,88.2797276,PM10,74,137,105
India,West_Bengal,Howrah,"Padmapukur, Howrah - WBPCB",12-03-2024 15:00:00,22.5687319,88.2797276,CO,26,77,42
India,West_Bengal,Kolkata,"Bidhannagar, Kolkata - WBPCB",12-03-2024 15:00:00,22.58157048,88.41002457,NH3,8,10,9
India,West_Bengal,Kolkata,"Fort William, Kolkata - WBPCB",12-03-2024 15:00:00,22.556640,88.342674,NH3,5,7,5
India,West_Bengal,Kolkata,"Fort William, Kolkata - WBPCB",12-03-2024 15:00:00,22.556640,88.342674,CO,28,55,37
India,West_Bengal,Kolkata,"Fort William, Kolkata - WBPCB",12-03-2024 15:00:00,22.556640,88.342674,OZONE,25,137,53
India,West_Bengal,Kolkata,"Jadavpur, Kolkata - WBPCB",12-03-2024 15:00:00,22.49929,88.36917,NO2,1,7,3
India,West_Bengal,Kolkata,"Jadavpur, Kolkata - WBPCB",12-03-2024 15:00:00,22.49929,88.36917,NH3,7,9,8
India,West_Bengal,Kolkata,"Jadavpur, Kolkata - WBPCB",12-03-2024 15:00:00,22.49929,88.36917,CO,20,34,25
India,West_Bengal,Kolkata,"Rabindra Bharati University, Kolkata - WBPCB",12-03-2024 15:00:00,22.627847,88.380669,SO2,3,109,24
India,West_Bengal,Kolkata,"Rabindra Sarobar, Kolkata - WBPCB",12-03-2024 15:00:00,22.51106,88.35142,NO2,34,76,47
India,Andhra_Pradesh,Amaravati,"Secretariat, Amaravati - APPCB",12-03-2024 15:00:00,16.5150833,80.5181667,PM2.5,40,60,48
India,Andhra_Pradesh,Anantapur,"Gulzarpet, Anantapur - APPCB",12-03-2024 15:00:00,14.675886,77.593027,OZONE,12,60,39
India,Andhra_Pradesh,Kadapa,"Yerramukkapalli, Kadapa - APPCB",12-03-2024 15:00:00,14.465052,78.824187,NO2,8,8,8
India,Andhra_Pradesh,Tirupati,"Tirumala, Tirupati - APPCB",12-03-2024 15:00:00,13.67,79.35,OZONE,24,66,40
India,Andhra_Pradesh,Vijayawada,"HB Colony, Vijayawada - APPCB",12-03-2024 15:00:00,16.536107,80.594233,PM10,61,82,73
India,Andhra_Pradesh,Vijayawada,"Kanuru, Vijayawada - APPCB",12-03-2024 15:00:00,16.486692,80.699436,SO2,5,12,8
India,Andhra_Pradesh,Vijayawada,"Rajiv Gandhi Park, Vijayawada - APPCB",12-03-2024 15:00:00,16.509717,80.612222,NH3,4,7,6
India,Andhra_Pradesh,Vijayawada,"Rajiv Gandhi Park, Vijayawada - APPCB",12-03-2024 15:00:00,16.509717,80.612222,OZONE,2,62,33
India,Andhra_Pradesh,Vijayawada,"Rajiv Nagar, Vijayawada - APPCB",12-03-2024 15:00:00,16.554731,80.649110,NH3,1,1,1
India,Assam,Guwahati,"Pan Bazaar, Guwahati - PCBA",12-03-2024 15:00:00,26.187500,91.744194,PM10,127,347,221
India,Assam,Guwahati,"Pan Bazaar, Guwahati - PCBA",12-03-2024 15:00:00,26.187500,91.744194,OZONE,18,19,18
India,Assam,Nagaon,"Christianpatty, Nagaon - PCBA",12-03-2024 15:00:00,26.349082,92.68449,NO2,19,90,38
India,Assam,Nalbari,"Bata Chowk, Nalbari - PCBA",12-03-2024 15:00:00,26.446912,91.439057,NH3,1,5,2
India,Assam,Silchar,"Tarapur, Silchar - PCBA",12-03-2024 15:00:00,24.82827,92.79525,CO,13,45,15
India,Bihar,Araria,"Kharahiya Basti, Araria - BSPCB",12-03-2024 15:00:00,26.146529,87.454184,NO2,6,8,7
India,Bihar,Arrah,"New DM Office, Arrah - BSPCB",12-03-2024 15:00:00,25.5626095,84.663264,PM10,NA,NA,NA
India,Bihar,Arrah,"New DM Office, Arrah - BSPCB",12-03-2024 15:00:00,25.5626095,84.663264,NO2,NA,NA,NA
India,Bihar,Aurangabad,"Gurdeo Nagar, Aurangabad - BSPCB",12-03-2024 15:00:00,24.75746,84.366208,SO2,4,17,10
India,Bihar,Bettiah,"Kamalnath Nagar, Bettiah - BSPCB",12-03-2024 15:00:00,26.80365,84.51954,NO2,20,47,43
India,Bihar,Bettiah,"Kamalnath Nagar, Bettiah - BSPCB",12-03-2024 15:00:00,26.80365,84.51954,SO2,15,18,16
India,Bihar,Bhagalpur,"Mayaganj, Bhagalpur - BSPCB",12-03-2024 15:00:00,25.265194,87.012947,PM2.5,50,324,199
India,Bihar,Bhagalpur,"Mayaganj, Bhagalpur - BSPCB",12-03-2024 15:00:00,25.265194,87.012947,PM10,37,157,103
India,Bihar,Bhagalpur,"Mayaganj, Bhagalpur - BSPCB",12-03-2024 15:00:00,25.265194,87.012947,CO,8,10,9
India,Bihar,Bihar Sharif,"D M Colony, Bihar Sharif - BSPCB",12-03-2024 15:00:00,25.204762,85.514960,PM2.5,43,304,115
India,Bihar,Buxar,"Charitra Van, Buxar - BSPCB (Formerly known as Central Jail)",12-03-2024 15:00:00,25.567520,83.966379,OZONE,2,185,175
India,Bihar,Gaya,"Collectorate, Gaya - BSPCB",12-03-2024 15:00:00,24.7955,84.9994,OZONE,50,72,61
India,Bihar,Gaya,"Kareemganj, Gaya - BSPCB",12-03-2024 15:00:00,24.792403,84.992416,CO,8,113,36
India,Bihar,Gaya,"SFTI Kusdihra, Gaya - BSPCB",12-03-2024 15:00:00,24.762518,84.982348,SO2,6,11,7
India,Bihar,Hajipur,"Industrial Area, Hajipur - BSPCB",12-03-2024 15:00:00,25.697189,85.245900,SO2,7,9,8
India,Bihar,Hajipur,"Industrial Area, Hajipur - BSPCB",12-03-2024 15:00:00,25.697189,85.245900,OZONE,5,62,39
India,Bihar,Katihar,"Mirchaibari, Katihar - BSPCB",12-03-2024 15:00:00,25.560083,87.553265,SO2,16,23,21
India,Bihar,Katihar,"Mirchaibari, Katihar - BSPCB",12-03-2024 15:00:00,25.560083,87.553265,CO,14,88,61
India,Bihar,Kishanganj,"SDM Office_Khagra, Kishanganj - BSPCB",12-03-2024 15:00:00,26.0881305,87.93840336,NH3,11,12,12
India,Bihar,Kishanganj,"SDM Office_Khagra, Kishanganj - BSPCB",12-03-2024 15:00:00,26.0881305,87.93840336,CO,1,12,4
India,Bihar,Motihari,"Gandak Colony, Motihari - BSPCB",12-03-2024 15:00:00,26.63086,84.90051,PM10,NA,NA,NA
India,Bihar,Motihari,"Gandak Colony, Motihari - BSPCB",12-03-2024 15:00:00,26.63086,84.90051,OZONE,34,116,87
India,Bihar,Munger,"Town Hall, Munger - BSPCB",12-03-2024 15:00:00,25.376776,86.471523,PM10,69,464,156
India,Bihar,Munger,"Town Hall, Munger - BSPCB",12-03-2024 15:00:00,25.376776,86.471523,SO2,12,40,28
India,Bihar,Muzaffarpur,"Buddha Colony, Muzaffarpur - BSPCB",12-03-2024 15:00:00,26.11442,85.39813,PM2.5,NA,NA,NA
India,Bihar,Muzaffarpur,"Buddha Colony, Muzaffarpur - BSPCB",12-03-2024 15:00:00,26.11442,85.39813,PM10,NA,NA,NA
India,Bihar,Muzaffarpur,"Muzaffarpur Collectorate, Muzaffarpur - BSPCB",12-03-2024 15:00:00,26.1209,85.3647,SO2,6,17,9
India,Bihar,Muzaffarpur,"Muzaffarpur Collectorate, Muzaffarpur - BSPCB",12-03-2024 15:00:00,26.1209,85.3647,OZONE,20,117,50
India,Bihar,Patna,"DRM Office Danapur, Patna - BSPCB",12-03-2024 15:00:00,25.586562,85.043586,PM2.5,76,174,114
India,Bihar,Patna,"DRM Office Danapur, Patna - BSPCB",12-03-2024 15:00:00,25.586562,85.043586,SO2,7,10,8
India,Bihar,Patna,"IGSC Planetarium Complex, Patna - BSPCB",12-03-2024 15:00:00,25.610369,85.132568,NO2,14,14,14
India,Bihar,Patna,"Muradpur, Patna - BSPCB",12-03-2024 15:00:00,25.619651,85.147382,CO,11,82,31
India,Bihar,Patna,"Muradpur, Patna - BSPCB",12-03-2024 15:00:00,25.619651,85.147382,OZONE,1,37,21
India,Bihar,Patna,"Rajbansi Nagar, Patna - BSPCB",12-03-2024 15:00:00,25.599486,85.113666,PM2.5,71,184,119
India,Bihar,Patna,"Rajbansi Nagar, Patna - BSPCB",12-03-2024 15:00:00,25.599486,85.113666,NH3,2,4,3
India,Bihar,Patna,"Samanpura, Patna - BSPCB",12-03-2024 15:00:00,25.596727,85.085624,OZONE,5,28,19
India,Bihar,Rajgir,"Dangi Tola, Rajgir - BSPCB",12-03-2024 15:00:00,25.03280,85.41948,NO2,1,1,1
India,Bihar,Rajgir,"Dangi Tola, Rajgir - BSPCB",12-03-2024 15:00:00,25.03280,85.41948,SO2,4,4,4
India,Bihar,Samastipur,"DM Office_Kasipur, Samastipur - BSPCB",12-03-2024 15:00:00,25.859655,85.77944,NO2,3,43,23
India,Bihar,Sasaram,"Dada Peer, Sasaram - BSPCB",12-03-2024 15:00:00,24.952822,84.002396,NO2,12,31,18
India,Bihar,Sasaram,"Dada Peer, Sasaram - BSPCB",12-03-2024 15:00:00,24.952822,84.002396,CO,103,108,104
India,Bihar,Siwan,"Chitragupta Nagar, Siwan - BSPCB",12-03-2024 15:00:00,26.2271665,84.3570427,NH3,1,9,3
India,Chandigarh,Chandigarh,"Sector 22, Chandigarh - CPCC",12-03-2024 15:00:00,30.735567,76.775714,SO2,5,76,22
India,Chandigarh,Chandigarh,"Sector-25, Chandigarh - CPCC",12-03-2024 15:00:00,30.751462,76.762879,OZONE,1,61,19
India,Chandigarh,Chandigarh,"Sector-53, Chandigarh - CPCC",12-03-2024 15:00:00,30.719859,76.738637,NO2,28,69,48
India,Chhattisgarh,Bhilai,"Hathkhoj, Bhilai - CECB",12-03-2024 15:00:00,21.224231,81.408350,NO2,17,71,38
India,Chhattisgarh,Bhilai,"Hathkhoj, Bhilai - CECB",12-03-2024 15:00:00,21.224231,81.408350,NH3,7,8,8
India,Chhattisgarh,Chhal,"Nawapara SECL Colony, Chhal - CECB",12-03-2024 15:00:00,22.118125,83.140608,NH3,2,2,2
India,Chhattisgarh,Chhal,"Nawapara SECL Colony, Chhal - CECB",12-03-2024 15:00:00,22.118125,83.140608,SO2,12,31,16
India,Chhattisgarh,Korba,"Rampur, Korba - CECB",12-03-2024 15:00:00,22.368195,82.746431,PM2.5,NA,NA,NA
India,Chhattisgarh,Korba,"Urja Nagar, Korba - CECB",12-03-2024 15:00:00,22.348441,82.549611,PM10,47,485,157
India,Chhattisgarh,Korba,"Urja Nagar, Korba - CECB",12-03-2024 15:00:00,22.348441,82.549611,OZONE,1,6,1
India,Chhattisgarh,Kunjemura,"OP Jindal School, Kunjemura - CECB",12-03-2024 15:00:00,22.126650,83.483212,PM2.5,43,134,83
India,Chhattisgarh,Kunjemura,"OP Jindal School, Kunjemura - CECB",12-03-2024 15:00:00,22.126650,83.483212,PM10,59,410,181
India,Chhattisgarh,Kunjemura,"OP Jindal School, Kunjemura - CECB",12-03-2024 15:00:00,22.126650,83.483212,NO2,14,133,61
India,Chhattisgarh,Kunjemura,"OP Jindal School, Kunjemura - CECB",12-03-2024 15:00:00,22.126650,83.483212,CO,17,56,34
India,Chhattisgarh,Milupara,"Govt. Higher Secondary School, Milupara - CECB",12-03-2024 15:00:00,22.1910172,83.5197009,PM2.5,NA,NA,NA
India,Chhattisgarh,Milupara,"Govt. Higher Secondary School, Milupara - CECB",12-03-2024 15:00:00,22.1910172,83.5197009,CO,NA,NA,NA
India,Chhattisgarh,Raipur,"AIIMS, Raipur - CECB",12-03-2024 15:00:00,21.258815,81.578979,PM2.5,31,67,44
India,Chhattisgarh,Raipur,"AIIMS, Raipur - CECB",12-03-2024 15:00:00,21.258815,81.578979,SO2,5,13,9
India,Chhattisgarh,Raipur,"Bhatagaon New ISBT, Raipur - CECB",12-03-2024 15:00:00,21.219665,81.630094,OZONE,3,7,5
India,Chhattisgarh,Raipur,"Krishak Nagar, Raipur - CECB",12-03-2024 15:00:00,21.237755,81.705301,OZONE,4,16,7
India,Chhattisgarh,Raipur,"Siltara Phase-II, Raipur - CECB",12-03-2024 15:00:00,21.371751,81.664929,NH3,3,3,3
India,Chhattisgarh,Tumidih,"OP Jindal Industrial Park, Tumidih - CECB",12-03-2024 15:00:00,22.06631475,83.33820077,PM10,NA,NA,NA
India,Chhattisgarh,Tumidih,"OP Jindal Industrial Park, Tumidih - CECB",12-03-2024 15:00:00,22.06631475,83.33820077,SO2,NA,NA,NA
India,Chhattisgarh,Tumidih,"OP Jindal Industrial Park, Tumidih - CECB",12-03-2024 15:00:00,22.06631475,83.33820077,OZONE,21,78,70
India,Delhi,Delhi,"Alipur, Delhi - DPCC",12-03-2024 15:00:00,28.815329,77.153010,PM2.5,NA,NA,NA
India,Delhi,Delhi,"Alipur, Delhi - DPCC",12-03-2024 15:00:00,28.815329,77.153010,CO,35,60,37
India,Delhi,Delhi,"Ashok Vihar, Delhi - DPCC",12-03-2024 15:00:00,28.695381,77.181665,NO2,11,87,45
India,Delhi,Delhi,"Ashok Vihar, Delhi - DPCC",12-03-2024 15:00:00,28.695381,77.181665,OZONE,4,25,9
India,Delhi,Delhi,"Bawana, Delhi - DPCC",12-03-2024 15:00:00,28.776200,77.051074,NH3,5,8,7
India,Delhi,Delhi,"CRRI Mathura Road, Delhi - IMD",12-03-2024 15:00:00,28.5512005,77.2735737,OZONE,4,84,8
India,Delhi,Delhi,"Chandni Chowk, Delhi - IITM",12-03-2024 15:00:00,28.656756,77.227234,SO2,17,43,32
India,Delhi,Delhi,"DTU, Delhi - CPCB",12-03-2024 15:00:00,28.7500499,77.1112615,PM2.5,74,322,154
India,Delhi,Delhi,"DTU, Delhi - CPCB",12-03-2024 15:00:00,28.7500499,77.1112615,NH3,9,13,11
India,Delhi,Delhi,"DTU, Delhi - CPCB",12-03-2024 15:00:00,28.7500499,77.1112615,CO,24,55,42
India,Delhi,Delhi,"Dr. Karni Singh Shooting Range, Delhi - DPCC",12-03-2024 15:00:00,28.498571,77.264840,PM2.5,71,319,191
India,Delhi,Delhi,"Dr. Karni Singh Shooting Range, Delhi - DPCC",12-03-2024 15:00:00,28.498571,77.264840,NH3,6,25,11
India,Delhi,Delhi,"Dr. Karni Singh Shooting Range, Delhi - DPCC",12-03-2024 15:00:00,28.498571,77.264840,OZONE,2,172,172
India,Delhi,Delhi,"Dwarka-Sector 8, Delhi - DPCC ",12-03-2024 15:00:00,28.5710274,77.0719006,NO2,6,50,26
India,Delhi,Delhi,"IGI Airport (T3), Delhi - IMD",12-03-2024 15:00:00,28.5627763,77.1180053,PM10,80,409,143
India,Delhi,Delhi,"IHBAS, Dilshad Garden, Delhi - CPCB",12-03-2024 15:00:00,28.6811736,77.3025234,NO2,27,86,40
India,Delhi,Delhi,"IHBAS, Dilshad Garden, Delhi - CPCB",12-03-2024 15:00:00,28.6811736,77.3025234,CO,38,119,85
India,Delhi,Delhi,"Jahangirpuri, Delhi - DPCC",12-03-2024 15:00:00,28.732820,77.170633,NO2,21,53,39
India,Delhi,Delhi,"Jawaharlal Nehru Stadium, Delhi - DPCC",12-03-2024 15:00:00,28.580280,77.233829,PM2.5,55,327,140
India,Delhi,Delhi,"Jawaharlal Nehru Stadium, Delhi - DPCC",12-03-2024 15:00:00,28.580280,77.233829,PM10,102,247,142
India,Delhi,Delhi,"Jawaharlal Nehru Stadium, Delhi - DPCC",12-03-2024 15:00:00,28.580280,77.233829,NO2,32,126,86
India,Delhi,Delhi,"Jawaharlal Nehru Stadium, Delhi - DPCC",12-03-2024 15:00:00,28.580280,77.233829,NH3,6,11,8
India,Delhi,Delhi,"Jawaharlal Nehru Stadium, Delhi - DPCC",12-03-2024 15:00:00,28.580280,77.233829,OZONE,1,271,194
India,Delhi,Delhi,"Lodhi Road, Delhi - IITM",12-03-2024 15:00:00,28.588333,77.221667,PM10,70,338,114
India,Delhi,Delhi,"Lodhi Road, Delhi - IMD",12-03-2024 15:00:00,28.5918245,77.2273074,NO2,3,14,8
India,Delhi,Delhi,"Major Dhyan Chand National Stadium, Delhi - DPCC",12-03-2024 15:00:00,28.611281,77.237738,SO2,13,41,22
India,Delhi,Delhi,"Mandir Marg, Delhi - DPCC",12-03-2024 15:00:00,28.636429,77.201067,OZONE,10,10,10
India,Delhi,Delhi,"Mundka, Delhi - DPCC",12-03-2024 15:00:00,28.684678,77.076574,PM2.5,63,403,210
India,Delhi,Delhi,"Mundka, Delhi - DPCC",12-03-2024 15:00:00,28.684678,77.076574,OZONE,14,14,14
India,Delhi,Delhi,"NSIT Dwarka, Delhi - CPCB",12-03-2024 15:00:00,28.60909,77.0325413,NO2,30,65,48
India,Delhi,Delhi,"NSIT Dwarka, Delhi - CPCB",12-03-2024 15:00:00,28.60909,77.0325413,SO2,17,30,21
India,Delhi,Delhi,"NSIT Dwarka, Delhi - CPCB",12-03-2024 15:00:00,28.60909,77.0325413,CO,28,99,35
India,Delhi,Delhi,"NSIT Dwarka, Delhi - CPCB",12-03-2024 15:00:00,28.60909,77.0325413,OZONE,15,130,56
India,Delhi,Delhi,"Narela, Delhi - DPCC",12-03-2024 15:00:00,28.822836,77.101981,NH3,5,8,7
India,Delhi,Delhi,"New Moti Bagh, Delhi - MHUA",12-03-2024 15:00:00,28.57834,77.18400,CO,18,62,47
India,Delhi,Delhi,"Okhla Phase-2, Delhi - DPCC",12-03-2024 15:00:00,28.530785,77.271255,CO,22,88,69
India,Delhi,Delhi,"Patparganj, Delhi - DPCC",12-03-2024 15:00:00,28.623763,77.287209,NH3,7,14,9
India,Delhi,Delhi,"Patparganj, Delhi - DPCC",12-03-2024 15:00:00,28.623763,77.287209,OZONE,4,151,47
India,Delhi,Delhi,"Punjabi Bagh, Delhi - DPCC",12-03-2024 15:00:00,28.674045,77.131023,PM10,112,317,166
India,Delhi,Delhi,"Pusa, Delhi - DPCC",12-03-2024 15:00:00,28.639652,77.146275,NH3,8,13,10
India,Delhi,Delhi,"Pusa, Delhi - DPCC",12-03-2024 15:00:00,28.639652,77.146275,SO2,8,38,21
India,Delhi,Delhi,"Pusa, Delhi - IMD",12-03-2024 15:00:00,28.636110,77.173332,NO2,21,43,31
India,Delhi,Delhi,"R K Puram, Delhi - DPCC",12-03-2024 15:00:00,28.563262,77.186937,PM10,117,294,159
India,Delhi,Delhi,"R K Puram, Delhi - DPCC",12-03-2024 15:00:00,28.563262,77.186937,OZONE,9,224,167
India,Delhi,Delhi,"Rohini, Delhi - DPCC",12-03-2024 15:00:00,28.732528,77.119920,CO,22,102,41
India,Delhi,Delhi,"Shadipur, Delhi - CPCB",12-03-2024 15:00:00,28.6514781,77.1473105,PM10,110,354,207
India,Delhi,Delhi,"Sirifort, Delhi - CPCB",12-03-2024 15:00:00,28.5504249,77.2159377,NO2,NA,NA,NA
India,Delhi,Delhi,"Sirifort, Delhi - CPCB",12-03-2024 15:00:00,28.5504249,77.2159377,OZONE,4,125,31
India,Delhi,Delhi,"Sonia Vihar, Delhi - DPCC",12-03-2024 15:00:00,28.710508,77.249485,PM10,104,288,167
India,Delhi,Delhi,"Sonia Vihar, Delhi - DPCC",12-03-2024 15:00:00,28.710508,77.249485,SO2,10,42,20
India,Delhi,Delhi,"Sonia Vihar, Delhi - DPCC",12-03-2024 15:00:00,28.710508,77.249485,OZONE,17,193,151
India,Delhi,Delhi,"Sri Aurobindo Marg, Delhi - DPCC",12-03-2024 15:00:00,28.531346,77.190156,PM2.5,60,369,161
India,Delhi,Delhi,"Sri Aurobindo Marg, Delhi - DPCC",12-03-2024 15:00:00,28.531346,77.190156,SO2,10,50,19
India,Delhi,Delhi,"Vivek Vihar, Delhi - DPCC",12-03-2024 15:00:00,28.672342,77.315260,SO2,NA,NA,NA
India,Delhi,Delhi,"Wazirpur, Delhi - DPCC",12-03-2024 15:00:00,28.699793,77.165453,PM10,129,344,180
India,Delhi,Delhi,"Wazirpur, Delhi - DPCC",12-03-2024 15:00:00,28.699793,77.165453,NO2,54,146,105
India,Gujarat,Ahmedabad,"Chandkheda, Ahmedabad - IITM",12-03-2024 15:00:00,23.107969,72.574648,NO2,32,65,54
India,Gujarat,Ahmedabad,"Gyaspur, Ahmedabad - IITM",12-03-2024 15:00:00,22.977134,72.553024,NO2,21,22,21
India,Gujarat,Ahmedabad,"Maninagar, Ahmedabad - GPCB",12-03-2024 15:00:00,23.002657,72.591912,CO,12,86,51
India,Gujarat,Ahmedabad,"Raikhad, Ahmedabad - IITM",12-03-2024 15:00:00,23.020509,72.579261,PM2.5,5,39,20
India,Gujarat,Ahmedabad,"Rakhial, Ahmedabad - IITM",12-03-2024 15:00:00,23.016834,72.625775,CO,3,73,31
India,Gujarat,Ahmedabad,"SAC ISRO Satellite, Ahmedabad - IITM",12-03-2024 15:00:00,23.023389,72.515201,SO2,1,8,4
India,Gujarat,Ahmedabad,"SVPI Airport Hansol, Ahmedabad - IITM",12-03-2024 15:00:00,23.076793,72.627874,OZONE,23,39,32
India,Gujarat,Ahmedabad,"Sardar Vallabhbhai Patel Stadium, Ahmedabad - IITM",12-03-2024 15:00:00,23.043070,72.562968,PM2.5,44,253,84
India,Gujarat,Ahmedabad,"Sardar Vallabhbhai Patel Stadium, Ahmedabad - IITM",12-03-2024 15:00:00,23.043070,72.562968,NH3,4,4,4
India,Gujarat,Ankleshwar,"GIDC, Ankleshwar - GPCB",12-03-2024 15:00:00,21.613267,73.010555,CO,30,110,85
India,Gujarat,Gandhinagar,"IIPHG Lekawada, Gandhinagar - IITM",12-03-2024 15:00:00,23.243639,72.68994,PM10,39,117,91
India,Gujarat,Gandhinagar,"IIPHG Lekawada, Gandhinagar - IITM",12-03-2024 15:00:00,23.243639,72.68994,NH3,7,8,8
India,Gujarat,Gandhinagar,"Sector-10, Gandhinagar - GPCB",12-03-2024 15:00:00,23.221714,72.654328,PM2.5,18,48,33
India,Gujarat,Gandhinagar,"Sector-10, Gandhinagar - GPCB",12-03-2024 15:00:00,23.221714,72.654328,PM10,24,82,51
India,Gujarat,Gandhinagar,"Sector-10, Gandhinagar - GPCB",12-03-2024 15:00:00,23.221714,72.654328,CO,40,72,45
India,Gujarat,Nandesari,"GIDC, Nandesari - Nandesari Ind. Association",12-03-2024 15:00:00,22.410802,73.097923,PM10,79,409,172
India,Gujarat,Nandesari,"GIDC, Nandesari - Nandesari Ind. Association",12-03-2024 15:00:00,22.410802,73.097923,NO2,8,69,27
India,Gujarat,Nandesari,"GIDC, Nandesari - Nandesari Ind. Association",12-03-2024 15:00:00,22.410802,73.097923,SO2,1,14,8
India,Gujarat,Surat,"Science Center, Surat - SMC",12-03-2024 15:00:00,21.170046,72.795405,SO2,18,31,22
India,Gujarat,Vapi,"Phase-1 GIDC, Vapi - GPCB",12-03-2024 15:00:00,20.362421,72.918013,PM10,57,127,106
India,Gujarat,Vapi,"Phase-1 GIDC, Vapi - GPCB",12-03-2024 15:00:00,20.362421,72.918013,SO2,47,48,47
India,Haryana,Ambala,"Patti Mehar, Ambala - HSPCB",12-03-2024 15:00:00,30.379589,76.778328,NH3,8,8,8
India,Haryana,Bahadurgarh,"Arya Nagar, Bahadurgarh - HSPCB",12-03-2024 15:00:00,28.6701,76.9254,PM10,97,198,130
India,Haryana,Bahadurgarh,"Arya Nagar, Bahadurgarh - HSPCB",12-03-2024 15:00:00,28.6701,76.9254,SO2,13,17,15
India,Haryana,Bahadurgarh,"Arya Nagar, Bahadurgarh - HSPCB",12-03-2024 15:00:00,28.6701,76.9254,OZONE,40,50,44
India,Haryana,Ballabgarh,"Nathu Colony, Ballabgarh - HSPCB",12-03-2024 15:00:00,28.3419248,77.319699,OZONE,1,29,15
India,Haryana,Charkhi Dadri,"Mini Secretariat, Charkhi Dadri - HSPCB",12-03-2024 15:00:00,28.593883,76.270653,NO2,12,17,13
India,Haryana,Charkhi Dadri,"Mini Secretariat, Charkhi Dadri - HSPCB",12-03-2024 15:00:00,28.593883,76.270653,NH3,6,7,6
India,Haryana,Faridabad,"New Industrial Town, Faridabad - HSPCB",12-03-2024 15:00:00,28.39072,77.30059,NH3,3,6,5
India,Haryana,Faridabad,"Sector 11, Faridabad - HSPCB",12-03-2024 15:00:00,28.376058,77.315741,PM2.5,23,303,213
India,Haryana,Faridabad,"Sector 30, Faridabad - HSPCB",12-03-2024 15:00:00,28.4417,77.3217,NH3,9,9,9
India,Haryana,Gurugram,"Teri Gram, Gurugram - HSPCB",12-03-2024 15:00:00,28.4275,77.1465,SO2,3,5,4
India,Haryana,Gurugram,"Teri Gram, Gurugram - HSPCB",12-03-2024 15:00:00,28.4275,77.1465,CO,6,36,31
India,Haryana,Hisar,"Urban Estate-II, Hisar - HSPCB",12-03-2024 15:00:00,29.140560,75.744941,OZONE,41,154,75
India,Haryana,Jind,"Police Lines, Jind - HSPCB",12-03-2024 15:00:00,29.307814,76.337619,PM2.5,42,96,64
India,Haryana,Jind,"Police Lines, Jind - HSPCB",12-03-2024 15:00:00,29.307814,76.337619,PM10,63,107,82
India,Haryana,Kaithal,"Rishi Nagar, Kaithal - HSPCB",12-03-2024 15:00:00,29.8006,76.4155,NH3,8,8,8
India,Haryana,Kaithal,"Rishi Nagar, Kaithal - HSPCB",12-03-2024 15:00:00,29.8006,76.4155,CO,3,40,23
India,Haryana,Karnal,"Sector-12, Karnal - HSPCB",12-03-2024 15:00:00,29.695300,77.002700,PM2.5,NA,NA,NA
India,Haryana,Karnal,"Sector-12, Karnal - HSPCB",12-03-2024 15:00:00,29.695300,77.002700,PM10,NA,NA,NA
India,Haryana,Karnal,"Sector-12, Karnal - HSPCB",12-03-2024 15:00:00,29.695300,77.002700,SO2,12,22,13
India,Haryana,Mandikhera,"General Hospital, Mandikhera - HSPCB",12-03-2024 15:00:00,27.9002,76.9938,CO,12,58,40
India,Haryana,Mandikhera,"General Hospital, Mandikhera - HSPCB",12-03-2024 15:00:00,27.9002,76.9938,OZONE,24,33,28
India,Haryana,Manesar,"Sector-2 IMT, Manesar - HSPCB",12-03-2024 15:00:00,28.360699,76.936090,PM10,49,179,97
India,Haryana,Narnaul,"Shastri Nagar, Narnaul - HSPCB",12-03-2024 15:00:00,28.060249,76.113115,PM2.5,38,90,54
India,Haryana,Narnaul,"Shastri Nagar, Narnaul - HSPCB",12-03-2024 15:00:00,28.060249,76.113115,PM10,46,105,64
