country,state,city,station,last_update,latitude,longitude,pollutant_id,pollutant_min,pollutant_max,pollutant_avg
India,Andhra_Pradesh,Amaravati,"Secretariat, Amaravati - APPCB",23-03-2024 22:00:00,16.5150833,80.5181667,PM10,38,56,46
India,Andhra_Pradesh,Amaravati,"Secretariat, Amaravati - APPCB",23-03-2024 22:00:00,16.5150833,80.5181667,NH3,4,5,4
India,Andhra_Pradesh,Chittoor,"Gangineni Cheruvu, Chittoor - APPCB",23-03-2024 22:00:00,13.204880,79.097889,PM10,NA,NA,NA
India,Andhra_Pradesh,Chittoor,"Gangineni Cheruvu, Chittoor - APPCB",23-03-2024 22:00:00,13.204880,79.097889,NO2,NA,NA,NA
India,Andhra_Pradesh,Chittoor,"Gangineni Cheruvu, Chittoor - APPCB",23-03-2024 22:00:00,13.204880,79.097889,OZONE,51,142,106
India,Andhra_Pradesh,Kadapa,"Yerramukkapalli, Kadapa - APPCB",23-03-2024 22:00:00,14.465052,78.824187,PM2.5,30,70,43
India,Andhra_Pradesh,Kadapa,"Yerramukkapalli, Kadapa - APPCB",23-03-2024 22:00:00,14.465052,78.824187,PM10,31,74,45
India,Andhra_Pradesh,Rajamahendravaram,"Anand Kala Kshetram, Rajamahendravaram - APPCB",23-03-2024 22:00:00,16.9872867,81.7363176,CO,3,52,37
India,Andhra_Pradesh,Tirupati,"Tirumala, Tirupati - APPCB",23-03-2024 22:00:00,13.67,79.35,PM2.5,45,99,65
India,Andhra_Pradesh,Tirupati,"Tirumala, Tirupati - APPCB",23-03-2024 22:00:00,13.67,79.35,NH3,1,2,1
India,Andhra_Pradesh,Tirupati,"Vaikuntapuram, Tirupati - APPCB",23-03-2024 22:00:00,13.615387,79.409230,NO2,15,27,20
India,Andhra_Pradesh,Tirupati,"Vaikuntapuram, Tirupati - APPCB",23-03-2024 22:00:00,13.615387,79.409230,CO,9,17,12
India,Andhra_Pradesh,Vijayawada,"HB Colony, Vijayawada - APPCB",23-03-2024 22:00:00,16.536107,80.594233,PM2.5,59,74,66
India,Andhra_Pradesh,Vijayawada,"Kanuru, Vijayawada - APPCB",23-03-2024 22:00:00,16.486692,80.699436,PM2.5,58,66,61
India,Andhra_Pradesh,Vijayawada,"Kanuru, Vijayawada - APPCB",23-03-2024 22:00:00,16.486692,80.699436,PM10,65,75,68
India,Andhra_Pradesh,Vijayawada,"Kanuru, Vijayawada - APPCB",23-03-2024 22:00:00,16.486692,80.699436,NH3,1,1,1
India,Andhra_Pradesh,Vijayawada,"Kanuru, Vijayawada - APPCB",23-03-2024 22:00:00,16.486692,80.699436,OZONE,28,28,28
India,Andhra_Pradesh,Vijayawada,"Rajiv Gandhi Park, Vijayawada - APPCB",23-03-2024 22:00:00,16.509717,80.612222,CO,38,60,45
India,Andhra_Pradesh,Vijayawada,"Rajiv Gandhi Park, Vijayawada - APPCB",23-03-2024 22:00:00,16.509717,80.612222,OZONE,2,67,41
India,Andhra_Pradesh,Vijayawada,"Rajiv Nagar, Vijayawada - APPCB",23-03-2024 22:00:00,16.554731,80.649110,PM10,59,71,62
India,Assam,Byrnihat,"Central Academy for SFS, Byrnihat - PCBA",23-03-2024 22:00:00,26.071318,91.87488,NH3,3,8,6
India,Assam,Guwahati,"IITG, Guwahati - PCBA",23-03-2024 22:00:00,26.2028636,91.70046436,OZONE,2,28,14
India,Assam,Guwahati,"LGBI Airport, Guwahati - PCBA",23-03-2024 22:00:00,26.10887,91.589544,PM10,48,277,112
India,Assam,Guwahati,"LGBI Airport, Guwahati - PCBA",23-03-2024 22:00:00,26.10887,91.589544,SO2,1,3,2
India,Assam,Guwahati,"LGBI Airport, Guwahati - PCBA",23-03-2024 22:00:00,26.10887,91.589544,OZONE,1,54,26
India,Assam,Guwahati,"Pan Bazaar, Guwahati - PCBA",23-03-2024 22:00:00,26.187500,91.744194,NO2,NA,NA,NA
India,Assam,Guwahati,"Pan Bazaar, Guwahati - PCBA",23-03-2024 22:00:00,26.187500,91.744194,OZONE,NA,NA,NA
India,Assam,Guwahati,"Railway Colony, Guwahati - PCBA",23-03-2024 22:00:00,26.181742,91.78063,PM2.5,NA,NA,NA
India,Assam,Guwahati,"Railway Colony, Guwahati - PCBA",23-03-2024 22:00:00,26.181742,91.78063,PM10,NA,NA,NA
India,Assam,Guwahati,"Railway Colony, Guwahati - PCBA",23-03-2024 22:00:00,26.181742,91.78063,OZONE,6,53,30
India,Assam,Nalbari,"Bata Chowk, Nalbari - PCBA",23-03-2024 22:00:00,26.446912,91.439057,PM10,74,407,165
India,Assam,Silchar,"Tarapur, Silchar - PCBA",23-03-2024 22:00:00,24.82827,92.79525,PM2.5,21,48,29
India,Assam,Silchar,"Tarapur, Silchar - PCBA",23-03-2024 22:00:00,24.82827,92.79525,OZONE,3,3,3
India,Assam,Sivasagar,"Girls College, Sivasagar - PCBA",23-03-2024 22:00:00,26.987634,94.636574,NH3,2,2,2
India,Bihar,Araria,"Kharahiya Basti, Araria - BSPCB",23-03-2024 22:00:00,26.146529,87.454184,PM2.5,49,167,75
India,Bihar,Araria,"Kharahiya Basti, Araria - BSPCB",23-03-2024 22:00:00,26.146529,87.454184,OZONE,6,10,9
India,Bihar,Arrah,"New DM Office, Arrah - BSPCB",23-03-2024 22:00:00,25.5626095,84.663264,NO2,NA,NA,NA
India,Bihar,Arrah,"New DM Office, Arrah - BSPCB",23-03-2024 22:00:00,25.5626095,84.663264,OZONE,NA,NA,NA
India,Bihar,Aurangabad,"Gurdeo Nagar, Aurangabad - BSPCB",23-03-2024 22:00:00,24.75746,84.366208,PM10,NA,NA,NA
India,Bihar,Bettiah,"Kamalnath Nagar, Bettiah - BSPCB",23-03-2024 22:00:00,26.80365,84.51954,PM2.5,98,322,237
India,Bihar,Bettiah,"Kamalnath Nagar, Bettiah - BSPCB",23-03-2024 22:00:00,26.80365,84.51954,NH3,3,5,3
India,Bihar,Bettiah,"Kamalnath Nagar, Bettiah - BSPCB",23-03-2024 22:00:00,26.80365,84.51954,OZONE,1,15,8
India,Bihar,Bhagalpur,"DM Office_Kachari Chowk, Bhagalpur - BSPCB",23-03-2024 22:00:00,25.251013,86.989001,PM10,101,180,139
India,Bihar,Bihar Sharif,"D M Colony, Bihar Sharif - BSPCB",23-03-2024 22:00:00,25.204762,85.514960,NO2,8,10,9
India,Bihar,Bihar Sharif,"D M Colony, Bihar Sharif - BSPCB",23-03-2024 22:00:00,25.204762,85.514960,CO,8,52,30
India,Bihar,Gaya,"Collectorate, Gaya - BSPCB",23-03-2024 22:00:00,24.7955,84.9994,PM2.5,42,305,161
India,Bihar,Gaya,"Kareemganj, Gaya - BSPCB",23-03-2024 22:00:00,24.792403,84.992416,PM10,46,278,118
India,Bihar,Gaya,"Kareemganj, Gaya - BSPCB",23-03-2024 22:00:00,24.792403,84.992416,SO2,5,11,9
India,Bihar,Gaya,"Kareemganj, Gaya - BSPCB",23-03-2024 22:00:00,24.792403,84.992416,CO,22,112,47
India,Bihar,Gaya,"SFTI Kusdihra, Gaya - BSPCB",23-03-2024 22:00:00,24.762518,84.982348,OZONE,4,111,77
India,Bihar,Hajipur,"Industrial Area, Hajipur - BSPCB",23-03-2024 22:00:00,25.697189,85.245900,CO,24,102,30
India,Bihar,Kishanganj,"SDM Office_Khagra, Kishanganj - BSPCB",23-03-2024 22:00:00,26.0881305,87.93840336,NH3,12,13,13
India,Bihar,Kishanganj,"SDM Office_Khagra, Kishanganj - BSPCB",23-03-2024 22:00:00,26.0881305,87.93840336,OZONE,19,37,27
India,Bihar,Manguraha,"Forest Rest House, Manguraha - BSPCB",23-03-2024 22:00:00,27.308328,84.531742,PM10,46,92,60
India,Bihar,Manguraha,"Forest Rest House, Manguraha - BSPCB",23-03-2024 22:00:00,27.308328,84.531742,CO,NA,NA,NA
India,Bihar,Motihari,"Gandak Colony, Motihari - BSPCB",23-03-2024 22:00:00,26.63086,84.90051,NO2,NA,NA,NA
India,Bihar,Motihari,"Gandak Colony, Motihari - BSPCB",23-03-2024 22:00:00,26.63086,84.90051,SO2,NA,NA,NA
India,Bihar,Munger,"Town Hall, Munger - BSPCB",23-03-2024 22:00:00,25.376776,86.471523,NO2,8,10,9
India,Bihar,Munger,"Town Hall, Munger - BSPCB",23-03-2024 22:00:00,25.376776,86.471523,SO2,25,50,35
India,Bihar,Muzaffarpur,"MIT-Daudpur Kothi, Muzaffarpur - BSPCB",23-03-2024 22:00:00,26.1403345,85.3650192,PM10,60,191,135
India,Bihar,Patna,"DRM Office Danapur, Patna - BSPCB",23-03-2024 22:00:00,25.586562,85.043586,CO,10,107,57
India,Bihar,Patna,"Govt. High School Shikarpur, Patna - BSPCB",23-03-2024 22:00:00,25.592539,85.227158,CO,28,80,47
India,Bihar,Patna,"Govt. High School Shikarpur, Patna - BSPCB",23-03-2024 22:00:00,25.592539,85.227158,OZONE,1,59,33
India,Bihar,Patna,"Rajbansi Nagar, Patna - BSPCB",23-03-2024 22:00:00,25.599486,85.113666,PM2.5,66,284,154
India,Bihar,Patna,"Rajbansi Nagar, Patna - BSPCB",23-03-2024 22:00:00,25.599486,85.113666,NH3,3,4,4
India,Bihar,Patna,"Rajbansi Nagar, Patna - BSPCB",23-03-2024 22:00:00,25.599486,85.113666,OZONE,1,90,43
India,Bihar,Patna,"Samanpura, Patna - BSPCB",23-03-2024 22:00:00,25.596727,85.085624,PM2.5,102,366,278
India,Bihar,Patna,"Samanpura, Patna - BSPCB",23-03-2024 22:00:00,25.596727,85.085624,SO2,6,7,7
India,Bihar,Patna,"Samanpura, Patna - BSPCB",23-03-2024 22:00:00,25.596727,85.085624,CO,36,111,63
India,Bihar,Purnia,"Mariam Nagar, Purnia - BSPCB",23-03-2024 22:00:00,25.366336,87.117468,NO2,5,6,6
India,Bihar,Purnia,"Mariam Nagar, Purnia - BSPCB",23-03-2024 22:00:00,25.366336,87.117468,OZONE,2,34,14
India,Bihar,Rajgir,"Dangi Tola, Rajgir - BSPCB",23-03-2024 22:00:00,25.03280,85.41948,NO2,1,1,1
India,Bihar,Saharsa,"Police Line, Saharsa - BSPCB",23-03-2024 22:00:00,25.892357,86.590325,NO2,5,8,7
India,Bihar,Samastipur,"DM Office_Kasipur, Samastipur - BSPCB",23-03-2024 22:00:00,25.859655,85.77944,PM2.5,32,359,204
India,Bihar,Samastipur,"DM Office_Kasipur, Samastipur - BSPCB",23-03-2024 22:00:00,25.859655,85.77944,SO2,11,14,13
India,Bihar,Samastipur,"DM Office_Kasipur, Samastipur - BSPCB",23-03-2024 22:00:00,25.859655,85.77944,CO,24,31,26
India,Bihar,Samastipur,"DM Office_Kasipur, Samastipur - BSPCB",23-03-2024 22:00:00,25.859655,85.77944,OZONE,8,12,10
India,Bihar,Sasaram,"Dada Peer, Sasaram - BSPCB",23-03-2024 22:00:00,24.952822,84.002396,CO,100,139,119
India,Bihar,Sasaram,"Dada Peer, Sasaram - BSPCB",23-03-2024 22:00:00,24.952822,84.002396,OZONE,4,108,62
India,Chandigarh,Chandigarh,"Sector-25, Chandigarh - CPCC",23-03-2024 22:00:00,30.751462,76.762879,NO2,7,37,14
India,Chandigarh,Chandigarh,"Sector-53, Chandigarh - CPCC",23-03-2024 22:00:00,30.719859,76.738637,PM10,80,184,118
India,Chandigarh,Chandigarh,"Sector-53, Chandigarh - CPCC",23-03-2024 22:00:00,30.719859,76.738637,SO2,9,14,12
India,Chandigarh,Chandigarh,"Sector-53, Chandigarh - CPCC",23-03-2024 22:00:00,30.719859,76.738637,CO,34,94,54
India,Chhattisgarh,Bhilai,"32Bungalows, Bhilai - CECB",23-03-2024 22:00:00,21.194815,81.314770,PM10,35,121,68
India,Chhattisgarh,Bhilai,"32Bungalows, Bhilai - CECB",23-03-2024 22:00:00,21.194815,81.314770,NO2,28,40,34
India,Chhattisgarh,Bhilai,"Civic Center, Bhilai - Bhilai Steel Plant",23-03-2024 22:00:00,21.185571,81.343175,NO2,14,18,14
India,Chhattisgarh,Bhilai,"Hathkhoj, Bhilai - CECB",23-03-2024 22:00:00,21.224231,81.408350,CO,14,102,47
India,Chhattisgarh,Chhal,"Nawapara SECL Colony, Chhal - CECB",23-03-2024 22:00:00,22.118125,83.140608,PM10,50,157,95
India,Chhattisgarh,Chhal,"Nawapara SECL Colony, Chhal - CECB",23-03-2024 22:00:00,22.118125,83.140608,SO2,14,60,32
India,Chhattisgarh,Korba,"Urja Nagar, Korba - CECB",23-03-2024 22:00:00,22.348441,82.549611,OZONE,1,92,23
India,Chhattisgarh,Kunjemura,"OP Jindal School, Kunjemura - CECB",23-03-2024 22:00:00,22.126650,83.483212,PM2.5,55,93,72
India,Chhattisgarh,Kunjemura,"OP Jindal School, Kunjemura - CECB",23-03-2024 22:00:00,22.126650,83.483212,NO2,19,112,50
India,Chhattisgarh,Kunjemura,"OP Jindal School, Kunjemura - CECB",23-03-2024 22:00:00,22.126650,83.483212,OZONE,4,88,63
India,Chhattisgarh,Milupara,"Govt. Higher Secondary School, Milupara - CECB",23-03-2024 22:00:00,22.1910172,83.5197009,NO2,16,80,33
India,Chhattisgarh,Raipur,"Bhatagaon New ISBT, Raipur - CECB",23-03-2024 22:00:00,21.219665,81.630094,OZONE,3,13,6
India,Chhattisgarh,Raipur,"Krishak Nagar, Raipur - CECB",23-03-2024 22:00:00,21.237755,81.705301,PM2.5,40,76,58
India,Chhattisgarh,Raipur,"Siltara Phase-II, Raipur - CECB",23-03-2024 22:00:00,21.371751,81.664929,PM2.5,57,116,79
India,Chhattisgarh,Tumidih,"OP Jindal Industrial Park, Tumidih - CECB",23-03-2024 22:00:00,22.06631475,83.33820077,PM2.5,30,322,80
India,Chhattisgarh,Tumidih,"OP Jindal Industrial Park, Tumidih - CECB",23-03-2024 22:00:00,22.06631475,83.33820077,NH3,1,4,2
India,Chhattisgarh,Tumidih,"OP Jindal Industrial Park, Tumidih - CECB",23-03-2024 22:00:00,22.06631475,83.33820077,OZONE,4,94,61
India,Delhi,Delhi,"Alipur, Delhi - DPCC",23-03-2024 22:00:00,28.815329,77.153010,NO2,4,111,50
India,Delhi,Delhi,"Anand Vihar, Delhi - DPCC",23-03-2024 22:00:00,28.647622,77.3158090,CO,80,146,94
India,Delhi,Delhi,"Anand Vihar, Delhi - DPCC",23-03-2024 22:00:00,28.647622,77.3158090,OZONE,2,66,35
India,Delhi,Delhi,"Aya Nagar, Delhi - IMD",23-03-2024 22:00:00,28.4706914,77.1099364,PM10,96,250,154
India,Delhi,Delhi,"Aya Nagar, Delhi - IMD",23-03-2024 22:00:00,28.4706914,77.1099364,NO2,17,23,20
India,Delhi,Delhi,"Aya Nagar, Delhi - IMD",23-03-2024 22:00:00,28.4706914,77.1099364,CO,10,60,12
India,Delhi,Delhi,"Bawana, Delhi - DPCC",23-03-2024 22:00:00,28.776200,77.051074,PM2.5,58,410,208
India,Delhi,Delhi,"Burari Crossing, Delhi - IMD",23-03-2024 22:00:00,28.7256504,77.2011573,PM10,94,442,205
India,Delhi,Delhi,"CRRI Mathura Road, Delhi - IMD",23-03-2024 22:00:00,28.5512005,77.2735737,PM10,67,194,133
India,Delhi,Delhi,"CRRI Mathura Road, Delhi - IMD",23-03-2024 22:00:00,28.5512005,77.2735737,OZONE,2,23,12
India,Delhi,Delhi,"DTU, Delhi - CPCB",23-03-2024 22:00:00,28.7500499,77.1112615,OZONE,26,93,57
India,Delhi,Delhi,"Dr. Karni Singh Shooting Range, Delhi - DPCC",23-03-2024 22:00:00,28.498571,77.264840,SO2,14,52,20
India,Delhi,Delhi,"Dwarka-Sector 8, Delhi - DPCC ",23-03-2024 22:00:00,28.5710274,77.0719006,PM2.5,50,346,204
India,Delhi,Delhi,"Dwarka-Sector 8, Delhi - DPCC ",23-03-2024 22:00:00,28.5710274,77.0719006,CO,38,170,64
India,Delhi,Delhi,"IHBAS, Dilshad Garden, Delhi - CPCB",23-03-2024 22:00:00,28.6811736,77.3025234,PM2.5,NA,NA,NA
India,Delhi,Delhi,"ITO, Delhi - CPCB",23-03-2024 22:00:00,28.628624,77.241060,CO,24,140,47
India,Delhi,Delhi,"Jahangirpuri, Delhi - DPCC",23-03-2024 22:00:00,28.732820,77.170633,NH3,2,13,8
India,Delhi,Delhi,"Jawaharlal Nehru Stadium, Delhi - DPCC",23-03-2024 22:00:00,28.580280,77.233829,NO2,26,150,89
India,Delhi,Delhi,"Jawaharlal Nehru Stadium, Delhi - DPCC",23-03-2024 22:00:00,28.580280,77.233829,SO2,13,64,36
India,Delhi,Delhi,"Jawaharlal Nehru Stadium, Delhi - DPCC",23-03-2024 22:00:00,28.580280,77.233829,CO,5,138,45
India,Delhi,Delhi,"Jawaharlal Nehru Stadium, Delhi - DPCC",23-03-2024 22:00:00,28.580280,77.233829,OZONE,1,168,79
India,Delhi,Delhi,"Lodhi Road, Delhi - IITM",23-03-2024 22:00:00,28.588333,77.221667,NO2,83,122,94
India,Delhi,Delhi,"Major Dhyan Chand National Stadium, Delhi - DPCC",23-03-2024 22:00:00,28.611281,77.237738,PM10,71,266,155
India,Delhi,Delhi,"Major Dhyan Chand National Stadium, Delhi - DPCC",23-03-2024 22:00:00,28.611281,77.237738,OZONE,2,130,88
India,Delhi,Delhi,"Mundka, Delhi - DPCC",23-03-2024 22:00:00,28.684678,77.076574,PM2.5,57,500,268
India,Delhi,Delhi,"NSIT Dwarka, Delhi - CPCB",23-03-2024 22:00:00,28.60909,77.0325413,CO,34,95,48
India,Delhi,Delhi,"Narela, Delhi - DPCC",23-03-2024 22:00:00,28.822836,77.101981,NO2,11,132,47
India,Delhi,Delhi,"Narela, Delhi - DPCC",23-03-2024 22:00:00,28.822836,77.101981,NH3,7,13,10
India,Delhi,Delhi,"Narela, Delhi - DPCC",23-03-2024 22:00:00,28.822836,77.101981,OZONE,8,99,68
India,Delhi,Delhi,"North Campus, DU, Delhi - IMD",23-03-2024 22:00:00,28.6573814,77.1585447,PM2.5,70,325,210
India,Delhi,Delhi,"North Campus, DU, Delhi - IMD",23-03-2024 22:00:00,28.6573814,77.1585447,PM10,88,353,201
India,Delhi,Delhi,"Okhla Phase-2, Delhi - DPCC",23-03-2024 22:00:00,28.530785,77.271255,PM2.5,30,321,181
India,Delhi,Delhi,"Okhla Phase-2, Delhi - DPCC",23-03-2024 22:00:00,28.530785,77.271255,OZONE,3,83,51
India,Delhi,Delhi,"Patparganj, Delhi - DPCC",23-03-2024 22:00:00,28.623763,77.287209,NH3,6,13,8
India,Delhi,Delhi,"Patparganj, Delhi - DPCC",23-03-2024 22:00:00,28.623763,77.287209,CO,19,112,43
India,Delhi,Delhi,"Punjabi Bagh, Delhi - DPCC",23-03-2024 22:00:00,28.674045,77.131023,PM10,98,382,183
India,Delhi,Delhi,"Punjabi Bagh, Delhi - DPCC",23-03-2024 22:00:00,28.674045,77.131023,OZONE,9,57,36
India,Delhi,Delhi,"Pusa, Delhi - DPCC",23-03-2024 22:00:00,28.639652,77.146275,PM2.5,43,302,163
India,Delhi,Delhi,"Pusa, Delhi - DPCC",23-03-2024 22:00:00,28.639652,77.146275,NO2,65,174,108
India,Delhi,Delhi,"Pusa, Delhi - DPCC",23-03-2024 22:00:00,28.639652,77.146275,CO,7,106,42
India,Delhi,Delhi,"Pusa, Delhi - IMD",23-03-2024 22:00:00,28.636110,77.173332,PM2.5,NA,NA,NA
India,Delhi,Delhi,"R K Puram, Delhi - DPCC",23-03-2024 22:00:00,28.563262,77.186937,PM10,87,345,181
India,Delhi,Delhi,"Rohini, Delhi - DPCC",23-03-2024 22:00:00,28.732528,77.119920,CO,12,154,38
India,Delhi,Delhi,"Shadipur, Delhi - CPCB",23-03-2024 22:00:00,28.6514781,77.1473105,CO,28,72,38
India,Delhi,Delhi,"Sonia Vihar, Delhi - DPCC",23-03-2024 22:00:00,28.710508,77.249485,OZONE,11,45,32
India,Delhi,Delhi,"Vivek Vihar, Delhi - DPCC",23-03-2024 22:00:00,28.672342,77.315260,PM2.5,NA,NA,NA
India,Gujarat,Ahmedabad,"Chandkheda, Ahmedabad - IITM",23-03-2024 22:00:00,23.107969,72.574648,PM2.5,62,211,103
India,Gujarat,Ahmedabad,"Chandkheda, Ahmedabad - IITM",23-03-2024 22:00:00,23.107969,72.574648,PM10,64,141,97
India,Gujarat,Ahmedabad,"Gyaspur, Ahmedabad - IITM",23-03-2024 22:00:00,22.977134,72.553024,NO2,31,48,40
India,Gujarat,Ahmedabad,"Gyaspur, Ahmedabad - IITM",23-03-2024 22:00:00,22.977134,72.553024,NH3,10,10,10
India,Gujarat,Ahmedabad,"Maninagar, Ahmedabad - GPCB",23-03-2024 22:00:00,23.002657,72.591912,PM2.5,NA,NA,NA
India,Gujarat,Ahmedabad,"Maninagar, Ahmedabad - GPCB",23-03-2024 22:00:00,23.002657,72.591912,NO2,NA,NA,NA
India,Gujarat,Ahmedabad,"Rakhial, Ahmedabad - IITM",23-03-2024 22:00:00,23.016834,72.625775,NO2,19,86,36
India,Gujarat,Ahmedabad,"Rakhial, Ahmedabad - IITM",23-03-2024 22:00:00,23.016834,72.625775,SO2,5,68,19
India,Gujarat,Ahmedabad,"SAC ISRO Satellite, Ahmedabad - IITM",23-03-2024 22:00:00,23.023389,72.515201,PM10,106,113,109
India,Gujarat,Ahmedabad,"SVPI Airport Hansol, Ahmedabad - IITM",23-03-2024 22:00:00,23.076793,72.627874,SO2,11,11,11
India,Gujarat,Ahmedabad,"SVPI Airport Hansol, Ahmedabad - IITM",23-03-2024 22:00:00,23.076793,72.627874,CO,24,92,34
India,Gujarat,Ahmedabad,"Sardar Vallabhbhai Patel Stadium, Ahmedabad - IITM",23-03-2024 22:00:00,23.043070,72.562968,SO2,1,13,6
India,Gujarat,Ankleshwar,"GIDC, Ankleshwar - GPCB",23-03-2024 22:00:00,21.613267,73.010555,NO2,37,37,37
India,Gujarat,Ankleshwar,"GIDC, Ankleshwar - GPCB",23-03-2024 22:00:00,21.613267,73.010555,CO,50,108,61
India,Gujarat,Gandhinagar,"GIFT City, Gandhinagar - IITM",23-03-2024 22:00:00,23.163798,72.677768,NH3,4,4,4
India,Gujarat,Gandhinagar,"GIFT City, Gandhinagar - IITM",23-03-2024 22:00:00,23.163798,72.677768,CO,8,26,10
India,Gujarat,Gandhinagar,"IIPHG Lekawada, Gandhinagar - IITM",23-03-2024 22:00:00,23.243639,72.68994,PM2.5,55,282,147
India,Gujarat,Gandhinagar,"IIPHG Lekawada, Gandhinagar - IITM",23-03-2024 22:00:00,23.243639,72.68994,SO2,3,12,8
India,Gujarat,Gandhinagar,"IIPHG Lekawada, Gandhinagar - IITM",23-03-2024 22:00:00,23.243639,72.68994,CO,22,24,23
India,Gujarat,Gandhinagar,"Sector-10, Gandhinagar - GPCB",23-03-2024 22:00:00,23.221714,72.654328,PM2.5,25,61,47
India,Gujarat,Gandhinagar,"Sector-10, Gandhinagar - GPCB",23-03-2024 22:00:00,23.221714,72.654328,PM10,54,101,78
India,Gujarat,Gandhinagar,"Sector-10, Gandhinagar - GPCB",23-03-2024 22:00:00,23.221714,72.654328,NH3,1,2,2
India,Gujarat,Nandesari,"GIDC, Nandesari - Nandesari Ind. Association",23-03-2024 22:00:00,22.410802,73.097923,PM2.5,125,500,266
India,Gujarat,Surat,"Science Center, Surat - SMC",23-03-2024 22:00:00,21.170046,72.795405,CO,42,56,51
India,Gujarat,Vatva,"Phase-4 GIDC, Vatva - GPCB",23-03-2024 22:00:00,22.969611,72.643500,NO2,55,161,93
India,Haryana,Ambala,"Patti Mehar, Ambala - HSPCB",23-03-2024 22:00:00,30.379589,76.778328,PM2.5,30,78,56
India,Haryana,Ambala,"Patti Mehar, Ambala - HSPCB",23-03-2024 22:00:00,30.379589,76.778328,PM10,31,59,45
India,Haryana,Ambala,"Patti Mehar, Ambala - HSPCB",23-03-2024 22:00:00,30.379589,76.778328,NO2,7,22,14
India,Haryana,Ambala,"Patti Mehar, Ambala - HSPCB",23-03-2024 22:00:00,30.379589,76.778328,OZONE,2,33,20
India,Haryana,Bahadurgarh,"Arya Nagar, Bahadurgarh - HSPCB",23-03-2024 22:00:00,28.6701,76.9254,PM2.5,NA,NA,NA
India,Haryana,Bahadurgarh,"Arya Nagar, Bahadurgarh - HSPCB",23-03-2024 22:00:00,28.6701,76.9254,NO2,NA,NA,NA
India,Haryana,Bhiwani,"H.B. Colony, Bhiwani - HSPCB",23-03-2024 22:00:00,28.806223,76.141105,NO2,5,12,9
India,Haryana,Bhiwani,"H.B. Colony, Bhiwani - HSPCB",23-03-2024 22:00:00,28.806223,76.141105,SO2,1,11,3
India,Haryana,Dharuhera,"Municipal Corporation Office, Dharuhera -  HSPCB",23-03-2024 22:00:00,28.206800,76.799700,NH3,9,27,20
India,Haryana,Faridabad,"New Industrial Town, Faridabad - HSPCB",23-03-2024 22:00:00,28.39072,77.30059,NH3,NA,NA,NA
India,Haryana,Faridabad,"New Industrial Town, Faridabad - HSPCB",23-03-2024 22:00:00,28.39072,77.30059,CO,NA,NA,NA
India,Haryana,Faridabad,"New Industrial Town, Faridabad - HSPCB",23-03-2024 22:00:00,28.39072,77.30059,OZONE,NA,NA,NA
India,Haryana,Faridabad,"Sector 30, Faridabad - HSPCB",23-03-2024 22:00:00,28.4417,77.3217,CO,16,109,44
India,Haryana,Faridabad,"Sector- 16A, Faridabad - HSPCB",23-03-2024 22:00:00,28.4088421,77.3099081,PM2.5,42,341,199
India,Haryana,Faridabad,"Sector- 16A, Faridabad - HSPCB",23-03-2024 22:00:00,28.4088421,77.3099081,OZONE,14,14,14
India,Haryana,Fatehabad,"Huda Sector, Fatehabad - HSPCB",23-03-2024 22:00:00,29.503664,75.467934,SO2,10,11,11
India,Haryana,Gurugram,"Teri Gram, Gurugram - HSPCB",23-03-2024 22:00:00,28.4275,77.1465,NO2,27,49,39
India,Haryana,Gurugram,"Teri Gram, Gurugram - HSPCB",23-03-2024 22:00:00,28.4275,77.1465,CO,16,54,19
India,Haryana,Gurugram,"Teri Gram, Gurugram - HSPCB",23-03-2024 22:00:00,28.4275,77.1465,OZONE,13,18,15
India,Haryana,Gurugram,"Vikas Sadan, Gurugram - HSPCB",23-03-2024 22:00:00,28.4501238,77.0263051,PM2.5,104,306,190
India,Haryana,Gurugram,"Vikas Sadan, Gurugram - HSPCB",23-03-2024 22:00:00,28.4501238,77.0263051,NO2,5,25,14
India,Haryana,Gurugram,"Vikas Sadan, Gurugram - HSPCB",23-03-2024 22:00:00,28.4501238,77.0263051,CO,54,150,113
India,Haryana,Hisar,"Urban Estate-II, Hisar - HSPCB",23-03-2024 22:00:00,29.140560,75.744941,SO2,1,80,25
India,Haryana,Jind,"Police Lines, Jind - HSPCB",23-03-2024 22:00:00,29.307814,76.337619,OZONE,10,28,22
India,Haryana,Kaithal,"Rishi Nagar, Kaithal - HSPCB",23-03-2024 22:00:00,29.8006,76.4155,CO,5,53,10
India,Haryana,Kurukshetra,"Sector-7, Kurukshetra - HSPCB",23-03-2024 22:00:00,29.966942,76.875879,PM10,79,107,90
India,Haryana,Mandikhera,"General Hospital, Mandikhera - HSPCB",23-03-2024 22:00:00,27.9002,76.9938,CO,NA,NA,NA
India,Haryana,Manesar,"Sector-2 IMT, Manesar - HSPCB",23-03-2024 22:00:00,28.360699,76.936090,PM2.5,NA,NA,NA
India,Haryana,Palwal,"Shyam Nagar, Palwal - HSPCB",23-03-2024 22:00:00,28.1485564,77.3320667,CO,12,38,27
India,Haryana,Panipat,"Sector-18, Panipat - HSPCB",23-03-2024 22:00:00,29.497973,76.993331,PM2.5,NA,NA,NA
India,Haryana,Panipat,"Sector-18, Panipat - HSPCB",23-03-2024 22:00:00,29.497973,76.993331,CO,24,26,25
India,Haryana,Rohtak,"MD University, Rohtak - HSPCB",23-03-2024 22:00:00,28.52123,76.37138,CO,24,60,46
India,Haryana,Sonipat,"Murthal, Sonipat - HSPCB",23-03-2024 22:00:00,29.027200,77.062100,PM10,19,79,50
India,Haryana,Sonipat,"Murthal, Sonipat - HSPCB",23-03-2024 22:00:00,29.027200,77.062100,OZONE,17,35,17
India,Haryana,Yamuna Nagar,"Gobind Pura, Yamuna Nagar - HSPCB",23-03-2024 22:00:00,30.1480566,77.2893471,PM2.5,53,345,92
India,Haryana,Yamuna Nagar,"Gobind Pura, Yamuna Nagar - HSPCB",23-03-2024 22:00:00,30.1480566,77.2893471,SO2,1,35,9
India,Himachal Pradesh,Baddi,"HIMUDA Complex Phase-1, Baddi - HPPCB",23-03-2024 22:00:00,30.943887,76.801991,SO2,8,72,31
India,Himachal Pradesh,Baddi,"HIMUDA Complex Phase-1, Baddi - HPPCB",23-03-2024 22:00:00,30.943887,76.801991,CO,10,53,18
India,Karnataka,Bengaluru,"Hebbal, Bengaluru - KSPCB",23-03-2024 22:00:00,13.029152,77.585901,OZONE,8,75,20
India,Karnataka,Bengaluru,"Hombegowda Nagar, Bengaluru - KSPCB",23-03-2024 22:00:00,12.938539,77.590100,CO,10,16,13
India,Karnataka,Bengaluru,"Jayanagar 5th Block, Bengaluru - KSPCB",23-03-2024 22:00:00,12.920984,77.584908,PM2.5,61,159,76
India,Karnataka,Bengaluru,"Jigani, Bengaluru - KSPCB",23-03-2024 22:00:00,12.7816279,77.6299145,PM10,30,158,86
India,Karnataka,Bengaluru,"Jigani, Bengaluru - KSPCB",23-03-2024 22:00:00,12.7816279,77.6299145,NH3,4,4,4
India,Karnataka,Bengaluru,"Jigani, Bengaluru - KSPCB",23-03-2024 22:00:00,12.7816279,77.6299145,SO2,16,16,16
India,Karnataka,Bengaluru,"Kasturi Nagar, Bengaluru - KSPCB",23-03-2024 22:00:00,13.003872,77.664217,NO2,16,17,17
India,Karnataka,Bengaluru,"Kasturi Nagar, Bengaluru - KSPCB",23-03-2024 22:00:00,13.003872,77.664217,NH3,3,4,4
India,Karnataka,Bengaluru,"Shivapura_Peenya, Bengaluru - KSPCB",23-03-2024 22:00:00,13.0246342,77.5080115,NH3,4,4,4
India,Karnataka,Bengaluru,"Silk Board, Bengaluru - KSPCB",23-03-2024 22:00:00,12.917348,77.622813,NO2,17,27,21
India,Karnataka,Bengaluru,"Silk Board, Bengaluru - KSPCB",23-03-2024 22:00:00,12.917348,77.622813,OZONE,29,31,30
India,Karnataka,Bidar,"Naubad, Bidar - KSPCB",23-03-2024 22:00:00,17.930306,77.482194,NO2,7,9,8
India,Karnataka,Bidar,"Naubad, Bidar - KSPCB",23-03-2024 22:00:00,17.930306,77.482194,SO2,15,23,17
India,Karnataka,Chamarajanagar,"Urban, Chamarajanagar - KSPCB",23-03-2024 22:00:00,11.55358,76.55521,PM2.5,26,31,30
India,Karnataka,Chamarajanagar,"Urban, Chamarajanagar - KSPCB",23-03-2024 22:00:00,11.55358,76.55521,CO,22,120,22
India,Karnataka,Chikkaballapur,"Chikkaballapur Rural, Chikkaballapur - KSPCB",23-03-2024 22:00:00,13.428828,77.731418,NH3,1,1,1
India,Karnataka,Chikkamagaluru,"Kalyana Nagara, Chikkamagaluru - KSPCB",23-03-2024 22:00:00,13.328028,75.797056,NH3,3,4,3
India,Karnataka,Chikkamagaluru,"Kalyana Nagara, Chikkamagaluru - KSPCB",23-03-2024 22:00:00,13.328028,75.797056,OZONE,12,30,28
India,Karnataka,Dharwad,"Kalabhavan, Dharwad - KSPCB",23-03-2024 22:00:00,15.459706,75.008381,SO2,3,10,4
India,Karnataka,Gadag,"Panchal Nagar, Gadag - KSPCB",23-03-2024 22:00:00,15.411456,75.638133,PM10,41,129,55
India,Karnataka,Gadag,"Panchal Nagar, Gadag - KSPCB",23-03-2024 22:00:00,15.411456,75.638133,NO2,5,29,15
India,Karnataka,Hassan,"B.Katihalli, Hassan - KSPCB",23-03-2024 22:00:00,13.008556,76.125258,NO2,9,36,21
India,Karnataka,Hubballi,"Deshpande Nagar, Hubballi - KSPCB",23-03-2024 22:00:00,15.351773,75.140726,PM2.5,54,91,72
India,Karnataka,Hubballi,"Deshpande Nagar, Hubballi - KSPCB",23-03-2024 22:00:00,15.351773,75.140726,SO2,1,3,2
India,Karnataka,Kalaburagi,"Lal Bahadur Shastri Nagar, Kalaburagi - KSPCB",23-03-2024 22:00:00,17.321993,76.822628,PM10,52,123,72
India,Karnataka,Kalaburagi,"Lal Bahadur Shastri Nagar, Kalaburagi - KSPCB",23-03-2024 22:00:00,17.321993,76.822628,SO2,12,13,12
India,Karnataka,Kalaburagi,"Lal Bahadur Shastri Nagar, Kalaburagi - KSPCB",23-03-2024 22:00:00,17.321993,76.822628,OZONE,13,89,73
India,Karnataka,Kalaburagi,"Mahatma Basaveswar Colony, Kalaburgi - KSPCB",23-03-2024 22:00:00,17.336318,76.847397,PM2.5,29,59,41
India,Karnataka,Karwar,"KHB Colony, Karwar - KSPCB",23-03-2024 22:00:00,14.816666,74.141003,PM2.5,50,147,75
India,Karnataka,Karwar,"KHB Colony, Karwar - KSPCB",23-03-2024 22:00:00,14.816666,74.141003,SO2,18,19,18
India,Karnataka,Kolar,"Tamaka Ind. Area, Kolar - KSPCB",23-03-2024 22:00:00,13.1276288,78.1570122,NO2,19,32,24
India,Karnataka,Kolar,"Tamaka Ind. Area, Kolar - KSPCB",23-03-2024 22:00:00,13.1276288,78.1570122,CO,14,17,16
India,Karnataka,Madikeri,"Stuart Hill, Madikeri - KSPCB",23-03-2024 22:00:00,12.415911,75.735050,NH3,1,2,1
India,Karnataka,Mangalore,"Kadri, Mangalore - KSPCB",23-03-2024 22:00:00,12.889250,74.853000,NH3,1,2,2
India,Karnataka,Mangalore,"Kadri, Mangalore - KSPCB",23-03-2024 22:00:00,12.889250,74.853000,CO,44,50,46
India,Karnataka,Raichur,"Haji Colony, Raichur - KSPCB",23-03-2024 22:00:00,16.208139,77.348417,PM10,66,149,105
India,Karnataka,Raichur,"Haji Colony, Raichur - KSPCB",23-03-2024 22:00:00,16.208139,77.348417,NH3,2,3,2
India,Karnataka,Ramanagara,"Vijay Nagar, Ramanagara - KSPCB",23-03-2024 22:00:00,12.733409,77.298051,PM10,34,56,44
India,Karnataka,Ramanagara,"Vijay Nagar, Ramanagara - KSPCB",23-03-2024 22:00:00,12.733409,77.298051,SO2,17,32,24
India,Karnataka,Shivamogga,"Vinoba Nagara, Shivamogga - KSPCB",23-03-2024 22:00:00,13.940000,75.555917,NH3,2,4,3
India,Karnataka,Tumakuru,"Thimmalapura, Tumakuru - KSPCB",23-03-2024 22:00:00,13.377516,77.099072,NO2,NA,NA,NA
India,Karnataka,Udupi,"Brahmagiri, Udupi - KSPCB",23-03-2024 22:00:00,13.34194444,74.74694444,PM10,54,109,80
India,Karnataka,Udupi,"Brahmagiri, Udupi - KSPCB",23-03-2024 22:00:00,13.34194444,74.74694444,NO2,26,32,29
India,Karnataka,Yadgir,"Collector Office, Yadgir - KSPCB",23-03-2024 22:00:00,16.7602,77.1428,PM10,55,123,78
India,Karnataka,Yadgir,"Collector Office, Yadgir - KSPCB",23-03-2024 22:00:00,16.7602,77.1428,NH3,NA,NA,NA
India,Kerala,Kannur,"Thavakkara, Kannur - Kerala PCB",23-03-2024 22:00:00,11.875000,75.373200,NH3,1,1,1
India,Kerala,Kannur,"Thavakkara, Kannur - Kerala PCB",23-03-2024 22:00:00,11.875000,75.373200,SO2,5,7,6
India,Kerala,Thiruvananthapuram,"Plammoodu, Thiruvananthapuram - Kerala PCB",23-03-2024 22:00:00,8.5149093,76.9435879,SO2,3,12,8
India,Kerala,Thiruvananthapuram,"Plammoodu, Thiruvananthapuram - Kerala PCB",23-03-2024 22:00:00,8.5149093,76.9435879,OZONE,7,61,20
India,Kerala,Thrissur,"Corporation Ground, Thrissur - Kerala PCB",23-03-2024 22:00:00,10.532400,76.215900,NO2,7,8,7
India,Kerala,Thrissur,"Corporation Ground, Thrissur - Kerala PCB",23-03-2024 22:00:00,10.532400,76.215900,NH3,NA,NA,NA
India,Madhya Pradesh,Bhopal,"Idgah Hills, Bhopal - MPPCB",23-03-2024 22:00:00,23.264759,77.381568,NO2,28,70,41
India,Madhya Pradesh,Bhopal,"Paryavaran Parisar, Bhopal - MPPCB",23-03-2024 22:00:00,23.210494,77.425409,NH3,9,15,12
India,Madhya Pradesh,Bhopal,"Paryavaran Parisar, Bhopal - MPPCB",23-03-2024 22:00:00,23.210494,77.425409,CO,2,94,36
India,Madhya Pradesh,Gwalior,"City Center, Gwalior - MPPCB",23-03-2024 22:00:00,26.203442,78.193251,NH3,5,11,9
India,Madhya Pradesh,Gwalior,"City Center, Gwalior - MPPCB",23-03-2024 22:00:00,26.203442,78.193251,OZONE,1,57,27
India,Madhya Pradesh,Indore,"Chhoti Gwaltoli, Indore - MPPCB",23-03-2024 22:00:00,22.4310,75.5213,PM10,73,164,112
India,Madhya Pradesh,Indore,"Maguda Nagar, Indore - IMC",23-03-2024 22:00:00,22.7524,75.8872,NH3,1,1,1
India,Madhya Pradesh,Indore,"Regional Park, Indore - IMC",23-03-2024 22:00:00,22.6780,75.8559,PM2.5,40,98,61
India,Madhya Pradesh,Indore,"Regional Park, Indore - IMC",23-03-2024 22:00:00,22.6780,75.8559,OZONE,10,28,17
India,Madhya Pradesh,Indore,"Residency Area, Indore - IMC",23-03-2024 22:00:00,22.7084,75.8815,NO2,12,15,14
India,Madhya Pradesh,Jabalpur,"Govindh Bhavan Colony, Jabalpur - JMC",23-03-2024 22:00:00,23.163174,79.973061,SO2,10,34,18
India,Madhya Pradesh,Jabalpur,"Govindh Bhavan Colony, Jabalpur - JMC",23-03-2024 22:00:00,23.163174,79.973061,OZONE,11,100,73
India,Madhya Pradesh,Jabalpur,"Marhatal, Jabalpur - MPPCB",23-03-2024 22:00:00,23.168606,79.932247,SO2,12,31,16
India,Madhya Pradesh,Jabalpur,"Suhagi, Jabalpur - JMC",23-03-2024 22:00:00,23.218135,79.957770,PM10,43,196,93
India,Madhya Pradesh,Jabalpur,"Suhagi, Jabalpur - JMC",23-03-2024 22:00:00,23.218135,79.957770,NO2,38,46,42
India,Madhya Pradesh,Katni,"Gole Bazar, Katni - MPPCB",23-03-2024 22:00:00,23.50016,80.23284,SO2,16,32,22
India,Madhya Pradesh,Katni,"Gole Bazar, Katni - MPPCB",23-03-2024 22:00:00,23.50016,80.23284,OZONE,4,100,66
India,Madhya Pradesh,Maihar,"Sahilara, Maihar - KJS Cements",23-03-2024 22:00:00,24.2613009,80.7231783,PM10,25,90,45
India,Madhya Pradesh,Maihar,"Sahilara, Maihar - KJS Cements",23-03-2024 22:00:00,24.2613009,80.7231783,NO2,14,14,14
India,Madhya Pradesh,Mandideep,"Sector-D Industrial Area, Mandideep - MPPCB",23-03-2024 22:00:00,23.108440,77.511428,NH3,NA,NA,NA
India,Madhya Pradesh,Mandideep,"Sector-D Industrial Area, Mandideep - MPPCB",23-03-2024 22:00:00,23.108440,77.511428,CO,14,82,29
India,Madhya Pradesh,Mandideep,"Sector-D Industrial Area, Mandideep - MPPCB",23-03-2024 22:00:00,23.108440,77.511428,OZONE,21,63,39
India,Madhya Pradesh,Pithampur,"Sector-2 Industrial Area, Pithampur - MPPCB",23-03-2024 22:00:00,22.624758,75.675238,SO2,11,19,15
India,Madhya Pradesh,Ratlam,"Shasthri Nagar, Ratlam - IPCA Lab",23-03-2024 22:00:00,23.331731,75.045981,PM10,103,221,143
India,Madhya Pradesh,Ratlam,"Shasthri Nagar, Ratlam - IPCA Lab",23-03-2024 22:00:00,23.331731,75.045981,SO2,42,47,44
India,Madhya Pradesh,Sagar,"Civil Lines, Sagar - MPPCB",23-03-2024 22:00:00,23.838586,78.759431,PM10,54,158,88
India,Madhya Pradesh,Sagar,"Civil Lines, Sagar - MPPCB",23-03-2024 22:00:00,23.838586,78.759431,NH3,2,4,3
India,Madhya Pradesh,Sagar,"Civil Lines, Sagar - MPPCB",23-03-2024 22:00:00,23.838586,78.759431,OZONE,26,125,82
India,Madhya Pradesh,Singrauli,"Suryakiran Bhawan NCL, Singrauli - MPPCB",23-03-2024 22:00:00,24.108970,82.645580,NO2,NA,NA,NA
India,Madhya Pradesh,Ujjain,"Mahakaleshwar Temple, Ujjain - MPPCB",23-03-2024 22:00:00,23.182719 ,75.768218 ,CO,10,74,23
India,Maharashtra,Ahmednagar,"Tarakpur, Ahmednagar - MPCB",23-03-2024 22:00:00,19.10122,74.73339,PM2.5,20,105,63
India,Maharashtra,Ahmednagar,"Tarakpur, Ahmednagar - MPCB",23-03-2024 22:00:00,19.10122,74.73339,CO,20,114,57
India,Maharashtra,Amravati,"Shivneri Colony, Amravati - MPCB",23-03-2024 22:00:00,20.9402359,77.7895248,PM10,84,127,108
India,Maharashtra,Amravati,"Shivneri Colony, Amravati - MPCB",23-03-2024 22:00:00,20.9402359,77.7895248,CO,14,72,35
India,Maharashtra,Amravati,"Shri Shivaji Science College, Amaravati - MPCB",23-03-2024 22:00:00,20.939198,77.765701,CO,24,120,61
India,Maharashtra,Amravati,"Shri Shivaji Science College, Amaravati - MPCB",23-03-2024 22:00:00,20.939198,77.765701,OZONE,1,162,97
India,Maharashtra,Aurangabad,"MIDC Chilkalthana, Aurangabad - MPCB",23-03-2024 22:00:00,19.875620,75.387310,PM2.5,69,158,103
India,Maharashtra,Aurangabad,"Rachnakar Colony, Aurangabad - MPCB",23-03-2024 22:00:00,19.863756,75.321188,OZONE,9,111,80
India,Maharashtra,Badlapur,"Katrap, Badlapur - MPCB",23-03-2024 22:00:00,19.16485,73.23409,PM2.5,89,277,166
India,Maharashtra,Badlapur,"Katrap, Badlapur - MPCB",23-03-2024 22:00:00,19.16485,73.23409,CO,20,100,28
India,Maharashtra,Belapur,"CBD Belapur, Belapur - MPCB",23-03-2024 22:00:00,19.0243902,73.0406721,PM2.5,59,194,95
India,Maharashtra,Belapur,"CBD Belapur, Belapur - MPCB",23-03-2024 22:00:00,19.0243902,73.0406721,CO,21,58,31
India,Maharashtra,Bhiwandi,"Gokul Nagar, Bhiwandi - MPCB",23-03-2024 22:00:00,19.309073,73.057223,OZONE,3,157,50
India,Maharashtra,Boisar,"Khaira, Boisar - MPCB",23-03-2024 22:00:00,19.786089,72.757971,NH3,3,11,6
India,Maharashtra,Boisar,"Khaira, Boisar - MPCB",23-03-2024 22:00:00,19.786089,72.757971,SO2,8,101,31
India,Maharashtra,Chandrapur,"Chauhan Colony, Chandrapur - MPCB",23-03-2024 22:00:00,19.962900,79.298714,PM10,34,119,72
India,Maharashtra,Chandrapur,"Chauhan Colony, Chandrapur - MPCB",23-03-2024 22:00:00,19.962900,79.298714,NH3,1,16,5
India,Maharashtra,Chandrapur,"Chauhan Colony, Chandrapur - MPCB",23-03-2024 22:00:00,19.962900,79.298714,SO2,6,41,14
India,Maharashtra,Chandrapur,"MIDC Khutala, Chandrapur - MPCB",23-03-2024 22:00:00,19.9775302,79.2337086,PM10,73,178,117
India,Maharashtra,Jalgaon,"Prabhat Colony, Jalgaon - MPCB",23-03-2024 22:00:00,21.001264,75.565602,CO,15,96,45
India,Maharashtra,Jalgaon,"Prabhat Colony, Jalgaon - MPCB",23-03-2024 22:00:00,21.001264,75.565602,OZONE,6,93,53
India,Maharashtra,Jalna,"Old MIDC, Jalna - MPCB",23-03-2024 22:00:00,19.854616,75.905894,SO2,NA,NA,NA
India,Maharashtra,Kalyan,"Khadakpada, Kalyan - MPCB",23-03-2024 22:00:00,19.25292,73.142019,PM10,116,178,139
India,Maharashtra,Kalyan,"Khadakpada, Kalyan - MPCB",23-03-2024 22:00:00,19.25292,73.142019,OZONE,7,30,19
India,Maharashtra,Kolhapur,"Shivaji University, Kolhapur - MPCB",23-03-2024 22:00:00,16.6870449,74.2505872,NH3,2,6,3
India,Maharashtra,Kolhapur,"Sinchan Bhavan, Kolhapur - MPCB",23-03-2024 22:00:00,16.7143745,74.2426398,NO2,9,51,21
India,Maharashtra,Kolhapur,"Sinchan Bhavan, Kolhapur - MPCB",23-03-2024 22:00:00,16.7143745,74.2426398,NH3,7,8,8
India,Maharashtra,Latur,"Sawe Wadi, Latur - MPCB",23-03-2024 22:00:00,18.39963,76.57452,CO,7,67,26
India,Maharashtra,Mahad,"Kamble Tarf Birwadi, Mahad - MPCB",23-03-2024 22:00:00,18.1023399,73.4783687,PM2.5,31,304,122
India,Maharashtra,Mahad,"Kamble Tarf Birwadi, Mahad - MPCB",23-03-2024 22:00:00,18.1023399,73.4783687,PM10,50,135,106
India,Maharashtra,Malegaon,"Mahesh Nagar, Malegaon - MPCB",23-03-2024 22:00:00,20.555712,74.529236,PM2.5,124,250,187
India,Maharashtra,Malegaon,"Mahesh Nagar, Malegaon - MPCB",23-03-2024 22:00:00,20.555712,74.529236,NO2,9,30,15
India,Maharashtra,Malegaon,"Mahesh Nagar, Malegaon - MPCB",23-03-2024 22:00:00,20.555712,74.529236,OZONE,23,88,63
India,Maharashtra,Mira-Bhayandar,"Bhayandar West, Mira-Bhayandar - MPCB",23-03-2024 22:00:00,19.296481,72.840923,PM2.5,65,226,150
India,Maharashtra,Mira-Bhayandar,"Bhayandar West, Mira-Bhayandar - MPCB",23-03-2024 22:00:00,19.296481,72.840923,NO2,6,52,23
India,Maharashtra,Mumbai,"Bandra Kurla Complex, Mumbai - MPCB",23-03-2024 22:00:00,19.065931,72.862131,NO2,6,30,15
India,Maharashtra,Mumbai,"Bandra Kurla Complex, Mumbai - MPCB",23-03-2024 22:00:00,19.065931,72.862131,CO,26,66,33
India,Maharashtra,Mumbai,"Byculla, Mumbai - BMC",23-03-2024 22:00:00,18.9767,72.8380,CO,9,28,11
India,Maharashtra,Mumbai,"Byculla, Mumbai - BMC",23-03-2024 22:00:00,18.9767,72.8380,OZONE,1,98,70
India,Maharashtra,Mumbai,"Chembur, Mumbai - MPCB",23-03-2024 22:00:00,19.0364585,72.8954371,CO,20,38,25
India,Maharashtra,Mumbai,"Ghatkopar, Mumbai - BMC",23-03-2024 22:00:00,19.083694,72.920967,CO,10,32,16
India,Maharashtra,Mumbai,"Kandivali East, Mumbai - MPCB",23-03-2024 22:00:00,19.205800,72.868200,PM2.5,55,191,104
India,Maharashtra,Mumbai,"Kandivali West, Mumbai - BMC",23-03-2024 22:00:00,19.215859,72.831718,PM10,42,75,56
India,Maharashtra,Mumbai,"Kandivali West, Mumbai - BMC",23-03-2024 22:00:00,19.215859,72.831718,SO2,1,3,2
India,Maharashtra,Mumbai,"Kherwadi_Bandra East, Mumbai - MPCB",23-03-2024 22:00:00,19.0632143,72.8456324,PM10,NA,NA,NA
India,Maharashtra,Mumbai,"Kherwadi_Bandra East, Mumbai - MPCB",23-03-2024 22:00:00,19.0632143,72.8456324,NH3,NA,NA,NA
India,Maharashtra,Mumbai,"Kherwadi_Bandra East, Mumbai - MPCB",23-03-2024 22:00:00,19.0632143,72.8456324,OZONE,10,101,73
India,Maharashtra,Mumbai,"Mazgaon, Mumbai - IITM",23-03-2024 22:00:00,18.96702,72.84214,CO,18,55,36
India,Maharashtra,Mumbai,"Mindspace-Malad West, Mumbai - MPCB",23-03-2024 22:00:00,19.1878657,72.8304069,NO2,NA,NA,NA
India,Maharashtra,Mumbai,"Mindspace-Malad West, Mumbai - MPCB",23-03-2024 22:00:00,19.1878657,72.8304069,OZONE,6,46,30
India,Maharashtra,Mumbai,"Mulund West, Mumbai - MPCB",23-03-2024 22:00:00,19.1750,72.9419,PM10,48,158,93
India,Maharashtra,Mumbai,"Mulund West, Mumbai - MPCB",23-03-2024 22:00:00,19.1750,72.9419,NO2,21,26,22
India,Maharashtra,Mumbai,"Mulund West, Mumbai - MPCB",23-03-2024 22:00:00,19.1750,72.9419,NH3,10,11,10
India,Maharashtra,Mumbai,"Navy Nagar-Colaba, Mumbai - IITM",23-03-2024 22:00:00,18.897756,72.813320,PM10,81,124,97
India,Maharashtra,Mumbai,"Powai, Mumbai - MPCB",23-03-2024 22:00:00,19.137500,72.915056,NH3,1,2,1
India,Maharashtra,Mumbai,"Powai, Mumbai - MPCB",23-03-2024 22:00:00,19.137500,72.915056,CO,36,47,40
India,Maharashtra,Mumbai,"Sewri, Mumbai - BMC",23-03-2024 22:00:00,19.000084,72.856730,PM10,57,100,73
India,Maharashtra,Mumbai,"Shivaji Nagar, Mumbai - BMC",23-03-2024 22:00:00,19.060498,72.923356,NO2,50,117,89
India,Maharashtra,Mumbai,"Shivaji Nagar, Mumbai - BMC",23-03-2024 22:00:00,19.060498,72.923356,NH3,8,13,9
India,Maharashtra,Mumbai,"Shivaji Nagar, Mumbai - BMC",23-03-2024 22:00:00,19.060498,72.923356,SO2,1,31,9
India,Maharashtra,Mumbai,"Siddharth Nagar-Worli, Mumbai - IITM",23-03-2024 22:00:00,19.000083,72.813993,PM10,NA,NA,NA
India,Maharashtra,Mumbai,"Sion, Mumbai - MPCB",23-03-2024 22:00:00,19.047000,72.874600,PM10,84,155,114
India,Maharashtra,Mumbai,"Sion, Mumbai - MPCB",23-03-2024 22:00:00,19.047000,72.874600,OZONE,16,28,21
India,Maharashtra,Mumbai,"Vile Parle West, Mumbai - MPCB",23-03-2024 22:00:00,19.10861,72.83622,OZONE,4,4,4
India,Maharashtra,Mumbai,"Worli, Mumbai - MPCB",23-03-2024 22:00:00,18.9936162,72.8128113,PM10,30,64,44
India,Maharashtra,Nagpur,"Ambazari, Nagpur - MPCB",23-03-2024 22:00:00,21.121801,79.04952,CO,10,127,63
India,Maharashtra,Nagpur,"Ambazari, Nagpur - MPCB",23-03-2024 22:00:00,21.121801,79.04952,OZONE,1,148,74
India,Maharashtra,Nagpur,"Mahal, Nagpur - MPCB",23-03-2024 22:00:00,21.14472,79.107595,PM10,105,181,146
India,Maharashtra,Nagpur,"Opp GPO Civil Lines, Nagpur - MPCB",23-03-2024 22:00:00,21.152875,79.0517531,PM10,NA,NA,NA
India,Maharashtra,Nagpur,"Opp GPO Civil Lines, Nagpur - MPCB",23-03-2024 22:00:00,21.152875,79.0517531,NO2,29,205,90
India,Maharashtra,Nagpur,"Opp GPO Civil Lines, Nagpur - MPCB",23-03-2024 22:00:00,21.152875,79.0517531,SO2,10,46,21
India,Maharashtra,Nagpur,"Opp GPO Civil Lines, Nagpur - MPCB",23-03-2024 22:00:00,21.152875,79.0517531,OZONE,2,94,44
India,Maharashtra,Nagpur,"Ram Nagar, Nagpur - MPCB",23-03-2024 22:00:00,21.143383,79.048912,PM10,115,175,142
India,Maharashtra,Nagpur,"Ram Nagar, Nagpur - MPCB",23-03-2024 22:00:00,21.143383,79.048912,SO2,11,53,29
India,Maharashtra,Nagpur,"Ram Nagar, Nagpur - MPCB",23-03-2024 22:00:00,21.143383,79.048912,OZONE,4,177,74
India,Maharashtra,Nanded,"Sneh Nagar, Nanded - MPCB",23-03-2024 22:00:00,19.173852,77.296291,PM2.5,91,307,221
India,Maharashtra,Nanded,"Sneh Nagar, Nanded - MPCB",23-03-2024 22:00:00,19.173852,77.296291,NH3,1,2,1
India,Maharashtra,Nanded,"Sneh Nagar, Nanded - MPCB",23-03-2024 22:00:00,19.173852,77.296291,CO,30,42,35
India,Maharashtra,Nanded,"Sneh Nagar, Nanded - MPCB",23-03-2024 22:00:00,19.173852,77.296291,OZONE,12,154,114
India,Maharashtra,Nashik,"Gangapur Road, Nashik - MPCB",23-03-2024 22:00:00,20.0073285,73.7762427,NO2,11,19,14
India,Maharashtra,Nashik,"Hirawadi, Nashik - MPCB",23-03-2024 22:00:00,20.021503,73.813844,PM10,77,112,94
India,Maharashtra,Nashik,"Hirawadi, Nashik - MPCB",23-03-2024 22:00:00,20.021503,73.813844,NO2,4,46,22
India,Maharashtra,Nashik,"Hirawadi, Nashik - MPCB",23-03-2024 22:00:00,20.021503,73.813844,SO2,2,30,11
India,Maharashtra,Nashik,"Hirawadi, Nashik - MPCB",23-03-2024 22:00:00,20.021503,73.813844,OZONE,43,122,96
India,Maharashtra,Navi Mumbai,"Kopripada-Vashi, Navi Mumbai - MPCB",23-03-2024 22:00:00,19.090337,73.014232,PM2.5,58,500,228
India,Maharashtra,Navi Mumbai,"Kopripada-Vashi, Navi Mumbai - MPCB",23-03-2024 22:00:00,19.090337,73.014232,OZONE,17,140,67
India,Maharashtra,Navi Mumbai,"Nerul, Navi Mumbai - MPCB",23-03-2024 22:00:00,19.008751,73.016620,PM10,108,272,166
India,Maharashtra,Navi Mumbai,"Nerul, Navi Mumbai - MPCB",23-03-2024 22:00:00,19.008751,73.016620,NH3,3,5,3
India,Maharashtra,Navi Mumbai,"Sanpada, Navi Mumbai - MPCB",23-03-2024 22:00:00,19.0575752,73.0151367,NO2,7,44,20
India,Maharashtra,Navi Mumbai,"Sector-19A Nerul, Navi Mumbai - IITM",23-03-2024 22:00:00,19.044,73.0325,SO2,8,23,16
India,Maharashtra,Navi Mumbai,"Sector-2E Kalamboli, Navi Mumbai - MPCB",23-03-2024 22:00:00,19.02579,73.10297,PM10,79,107,97
India,Maharashtra,Navi Mumbai,"Tondare-Taloja, Navi Mumbai - MPCB",23-03-2024 22:00:00,19.0630,73.1209,NO2,23,133,61
India,Maharashtra,Parbhani,"Masoom Colony, Parbhani - MPCB",23-03-2024 22:00:00,19.265594,76.761463,PM10,110,436,191
India,Maharashtra,Parbhani,"Masoom Colony, Parbhani - MPCB",23-03-2024 22:00:00,19.265594,76.761463,SO2,16,80,40
India,Maharashtra,Parbhani,"Masoom Colony, Parbhani - MPCB",23-03-2024 22:00:00,19.265594,76.761463,OZONE,6,145,110
India,Maharashtra,Pimpri-Chinchwad,"Gavalinagar, Pimpri Chinchwad - MPCB",23-03-2024 22:00:00,18.63673,73.82487,OZONE,5,268,187
India,Maharashtra,Pimpri-Chinchwad,"Park Street Wakad, Pimpri Chinchwad - MPCB",23-03-2024 22:00:00,18.59051,73.77946,PM2.5,21,157,70
India,Maharashtra,Pimpri-Chinchwad,"Park Street Wakad, Pimpri Chinchwad - MPCB",23-03-2024 22:00:00,18.59051,73.77946,NO2,53,107,75
India,Maharashtra,Pimpri-Chinchwad,"Park Street Wakad, Pimpri Chinchwad - MPCB",23-03-2024 22:00:00,18.59051,73.77946,CO,26,51,28
India,Maharashtra,Pune,"Bhosari, Pune - IITM",23-03-2024 22:00:00,18.640051,73.848956,CO,40,50,46
India,Maharashtra,Pune,"Katraj Dairy, Pune - MPCB",23-03-2024 22:00:00,18.454450,73.854155,NO2,14,48,29
India,Maharashtra,Pune,"Katraj Dairy, Pune - MPCB",23-03-2024 22:00:00,18.454450,73.854155,OZONE,20,80,58
India,Maharashtra,Pune,"Mhada Colony, Pune - IITM",23-03-2024 22:00:00,18.573040,73.927715,OZONE,6,30,27
India,Maharashtra,Pune,"Revenue Colony-Shivajinagar, Pune - IITM",23-03-2024 22:00:00,18.530085,73.849598,NH3,9,24,16
India,Maharashtra,Pune,"Transport Nagar-Nigdi, Pune - IITM",23-03-2024 22:00:00,18.664282,73.763966,PM2.5,37,101,67
India,Maharashtra,Pune,"Transport Nagar-Nigdi, Pune - IITM",23-03-2024 22:00:00,18.664282,73.763966,OZONE,17,75,49
India,Maharashtra,Sangli,"Vijay Nagar, Sangli - MPCB",23-03-2024 22:00:00, 16.5038,74.3623,PM10,66,110,92
India,Maharashtra,Solapur,"Solapur, Solapur - MPCB",23-03-2024 22:00:00,17.6599188,75.9063906,NO2,54,54,54
India,Maharashtra,Thane,"Kasarvadavali, Thane - MPCB",23-03-2024 22:00:00,19.26777,72.97182,SO2,2,25,8
India,Maharashtra,Ulhasnagar,"Sidhi Vinayak Nagar, Ulhasnagar - MPCB",23-03-2024 22:00:00,19.235581,73.159121,NO2,8,32,17
India,Maharashtra,Virar,"Bolinj, Virar - MPCB",23-03-2024 22:00:00,19.4458210,72.7988231,PM2.5,67,300,157
India,Maharashtra,Virar,"Bolinj, Virar - MPCB",23-03-2024 22:00:00,19.4458210,72.7988231,NH3,5,9,6
India,Maharashtra,Virar,"Bolinj, Virar - MPCB",23-03-2024 22:00:00,19.4458210,72.7988231,OZONE,1,90,69
India,Manipur,Imphal,"DM College of Science, Imphal - Manipur PCB",23-03-2024 22:00:00,24.8207389,93.9423085,PM2.5,NA,NA,NA
India,Manipur,Imphal,"DM College of Science, Imphal - Manipur PCB",23-03-2024 22:00:00,24.8207389,93.9423085,CO,6,6,6
India,Meghalaya,Shillong,"Lumpyngngad, Shillong - Meghalaya PCB",23-03-2024 22:00:00,25.5586,91.8985,PM2.5,43,85,62
India,Mizoram,Aizawl,"Sikulpuikawn, Aizawl - Mizoram PCB",23-03-2024 22:00:00,23.7176342,92.7192841,PM2.5,28,65,46
India,Mizoram,Aizawl,"Sikulpuikawn, Aizawl - Mizoram PCB",23-03-2024 22:00:00,23.7176342,92.7192841,NO2,1,2,1
India,Nagaland,Kohima,"PWD Juction, Kohima - NPCB",23-03-2024 22:00:00,25.6635413,94.0989878,PM10,49,156,83
India,Nagaland,Kohima,"PWD Juction, Kohima - NPCB",23-03-2024 22:00:00,25.6635413,94.0989878,NH3,1,1,1
India,Odisha,Angul,"Hakimapada, Angul - OSPCB",23-03-2024 22:00:00,20.832874,85.104082,NO2,15,35,23
India,Odisha,Angul,"Hakimapada, Angul - OSPCB",23-03-2024 22:00:00,20.832874,85.104082,OZONE,6,196,128
India,Odisha,Balasore,"Kalidaspur, Balasore - OSPCB",23-03-2024 22:00:00,21.51161,86.89088,NH3,5,8,6
India,Odisha,Balasore,"Kalidaspur, Balasore - OSPCB",23-03-2024 22:00:00,21.51161,86.89088,SO2,15,30,20
India,Odisha,Barbil,"Forest Office, Barbil - OSPCB",23-03-2024 22:00:00,22.1166054,85.3945546,PM10,79,290,146
India,Odisha,Barbil,"Forest Office, Barbil - OSPCB",23-03-2024 22:00:00,22.1166054,85.3945546,OZONE,11,143,92
India,Odisha,Baripada,"Meher Colony, Baripada - OSPCB",23-03-2024 22:00:00,21.941841,86.728318,PM2.5,7,187,130
India,Odisha,Baripada,"Meher Colony, Baripada - OSPCB",23-03-2024 22:00:00,21.941841,86.728318,NO2,1,3,1
India,Odisha,Bhubaneswar,"Lingraj Mandir, Bhubaneswar - OSPCB",23-03-2024 22:00:00,20.240790,85.836784,PM2.5,40,328,86
India,Odisha,Bhubaneswar,"Lingraj Mandir, Bhubaneswar - OSPCB",23-03-2024 22:00:00,20.240790,85.836784,PM10,25,218,88
India,Odisha,Bhubaneswar,"Lingraj Mandir, Bhubaneswar - OSPCB",23-03-2024 22:00:00,20.240790,85.836784,CO,48,100,57
India,Odisha,Bhubaneswar,"Patia, Bhubaneswar - OSPCB",23-03-2024 22:00:00,20.34652,85.81630,CO,62,103,75
India,Odisha,Bileipada,"Tata Township, Bileipada - OSPCB",23-03-2024 22:00:00,22.06156703,85.47409613,PM2.5,29,172,119
India,Odisha,Brajrajnagar,"GM Office, Brajrajnagar - OSPCB",23-03-2024 22:00:00,21.8004996,83.8396977,CO,64,96,73
India,Odisha,Brajrajnagar,"GM Office, Brajrajnagar - OSPCB",23-03-2024 22:00:00,21.8004996,83.8396977,OZONE,19,20,19
India,Odisha,Byasanagar,"Ferro Chrome Colony, Byasanagar - OSPCB",23-03-2024 22:00:00,20.94185,86.11510,PM2.5,33,107,64
India,Odisha,Byasanagar,"Ferro Chrome Colony, Byasanagar - OSPCB",23-03-2024 22:00:00,20.94185,86.11510,SO2,3,70,19
India,Odisha,Nayagarh,"Dabuna, Nayagarh - OSPCB",23-03-2024 22:00:00,21.847279,85.416905,OZONE,2,12,5
India,Odisha,Rairangpur,"Divisional Forest Office, Rairangpur - OSPCB",23-03-2024 22:00:00,22.265816,86.174829,NO2,7,8,8
India,Odisha,Rairangpur,"Divisional Forest Office, Rairangpur - OSPCB",23-03-2024 22:00:00,22.265816,86.174829,NH3,5,5,5
India,Odisha,Rairangpur,"Divisional Forest Office, Rairangpur - OSPCB",23-03-2024 22:00:00,22.265816,86.174829,SO2,2,6,3
India,Odisha,Suakati,"OMC Colony, Suakati - OSPCB",23-03-2024 22:00:00,21.606865,85.510538,PM2.5,63,173,115
India,Odisha,Suakati,"OMC Colony, Suakati - OSPCB",23-03-2024 22:00:00,21.606865,85.510538,CO,18,46,18
India,Odisha,Talcher,"Talcher Coalfields,Talcher - OSPCB",23-03-2024 22:00:00,20.9360711,85.1707021,PM2.5,12,317,154
India,Odisha,Talcher,"Talcher Coalfields,Talcher - OSPCB",23-03-2024 22:00:00,20.9360711,85.1707021,NH3,4,6,5
India,Odisha,Tensa,"Barsua Iron Ore Mines, Tensa - OSPCB",23-03-2024 22:00:00,21.869985,85.167016,NH3,9,12,10
India,Puducherry,Puducherry,"Jawahar Nagar, Puducherry - PPCC",23-03-2024 22:00:00,11.9309,79.8027,SO2,2,14,8
India,Puducherry,Puducherry,"Jawahar Nagar, Puducherry - PPCC",23-03-2024 22:00:00,11.9309,79.8027,CO,18,44,26
India,Puducherry,Puducherry,"Jawahar Nagar, Puducherry - PPCC",23-03-2024 22:00:00,11.9309,79.8027,OZONE,3,46,31
India,Punjab,Amritsar,"Golden Temple, Amritsar - PPCB",23-03-2024 22:00:00,31.620000,74.876512,PM10,65,102,85
India,Punjab,Amritsar,"Golden Temple, Amritsar - PPCB",23-03-2024 22:00:00,31.620000,74.876512,NO2,10,20,14
India,Punjab,Amritsar,"Golden Temple, Amritsar - PPCB",23-03-2024 22:00:00,31.620000,74.876512,OZONE,44,66,56
India,Punjab,Bathinda,"Hardev Nagar, Bathinda - PPCB",23-03-2024 22:00:00,30.233011,74.907758,PM2.5,48,113,75
India,Punjab,Jalandhar,"Civil Line, Jalandhar - PPCB",23-03-2024 22:00:00,31.321907,75.578914,PM10,47,97,80
India,Punjab,Ludhiana,"Punjab Agricultural University, Ludhiana - PPCB",23-03-2024 22:00:00,30.9028,75.8086,PM2.5,48,145,88
India,Punjab,Ludhiana,"Punjab Agricultural University, Ludhiana - PPCB",23-03-2024 22:00:00,30.9028,75.8086,SO2,10,14,12
India,Punjab,Ludhiana,"Punjab Agricultural University, Ludhiana - PPCB",23-03-2024 22:00:00,30.9028,75.8086,CO,19,49,30
India,Punjab,Ludhiana,"Punjab Agricultural University, Ludhiana - PPCB",23-03-2024 22:00:00,30.9028,75.8086,OZONE,12,38,28
India,Punjab,Mandi Gobindgarh,"RIMT University, Mandi Gobindgarh - PPCB",23-03-2024 22:00:00,30.649961,76.331442,PM10,112,431,182
India,Punjab,Mandi Gobindgarh,"RIMT University, Mandi Gobindgarh - PPCB",23-03-2024 22:00:00,30.649961,76.331442,NO2,19,24,23
India,Punjab,Mandi Gobindgarh,"RIMT University, Mandi Gobindgarh - PPCB",23-03-2024 22:00:00,30.649961,76.331442,OZONE,50,52,51
India,Punjab,Patiala,"Model Town, Patiala - PPCB",23-03-2024 22:00:00,30.349388,76.366642,SO2,2,31,8
India,Punjab,Rupnagar,"Ratanpura, Rupnagar - Ambuja Cements",23-03-2024 22:00:00,31.0325454,76.5623046,CO,22,49,32
India,Rajasthan,Ajmer,"Civil Lines,  Ajmer - RSPCB",23-03-2024 22:00:00,26.470859,74.646594,PM10,50,161,93
India,Rajasthan,Alwar,"Moti Doongri, Alwar - RSPCB",23-03-2024 22:00:00,27.554793,76.611536,NH3,5,7,6
India,Rajasthan,Barmer,"Railway Colony, Barmer - RSPCB",23-03-2024 22:00:00,25.747299,71.393989,OZONE,20,94,56
India,Rajasthan,Bharatpur,"Krishna Nagar, Bharatpur - RSPCB",23-03-2024 22:00:00,27.215415,77.50873,NH3,13,25,20
India,Rajasthan,Bharatpur,"Krishna Nagar, Bharatpur - RSPCB",23-03-2024 22:00:00,27.215415,77.50873,CO,22,86,44
India,Rajasthan,Bhilwara,"Pratap Nagar, Bhilwara - RSPCB",23-03-2024 22:00:00,25.339605,74.618883,CO,16,84,37
India,Rajasthan,Bhiwadi,"RIICO Ind. Area III, Bhiwadi - RSPCB",23-03-2024 22:00:00,28.194909,76.862296,NH3,1,12,6
India,Rajasthan,Bhiwadi,"Vasundhara Nagar_UIT, Bhiwadi - RSPCB",23-03-2024 22:00:00,28.207266,76.829265,NH3,1,9,5
India,Rajasthan,Bhiwadi,"Vasundhara Nagar_UIT, Bhiwadi - RSPCB",23-03-2024 22:00:00,28.207266,76.829265,CO,14,64,23
India,Rajasthan,Bikaner,"MM Ground, Bikaner - RSPCB",23-03-2024 22:00:00,28.018792,73.292658,CO,16,92,41
India,Rajasthan,Bundi,"New Colony, Bundi - RSPCB",23-03-2024 22:00:00,25.435774,75.644272,OZONE,5,121,73
India,Rajasthan,Chittorgarh,"Shastri Nagar, Chittorgarh - RSPCB",23-03-2024 22:00:00,24.892047,74.623527,NH3,2,15,8
India,Rajasthan,Churu,"Subash Chowk, Churu - RSPCB",23-03-2024 22:00:00,28.296139,74.961696,SO2,4,25,13
India,Rajasthan,Dausa,"Khatikan Mohalla, Dausa - RSPCB",23-03-2024 22:00:00,26.895552,76.334753,PM2.5,27,220,83
India,Rajasthan,Dholpur,"Raja Ganj, Dholpur - RSPCB",23-03-2024 22:00:00,26.699557,77.898881,NO2,9,64,29
India,Rajasthan,Dholpur,"Raja Ganj, Dholpur - RSPCB",23-03-2024 22:00:00,26.699557,77.898881,NH3,9,15,12
India,Rajasthan,Dholpur,"Raja Ganj, Dholpur - RSPCB",23-03-2024 22:00:00,26.699557,77.898881,SO2,4,8,6
India,Rajasthan,Dholpur,"Raja Ganj, Dholpur - RSPCB",23-03-2024 22:00:00,26.699557,77.898881,OZONE,22,178,123
India,Rajasthan,Dungarpur,"Bhoiwada, Dungarpur - RSPCB",23-03-2024 22:00:00,23.837789,73.714926,PM10,72,142,94
India,Rajasthan,Dungarpur,"Bhoiwada, Dungarpur - RSPCB",23-03-2024 22:00:00,23.837789,73.714926,SO2,8,10,8
India,Rajasthan,Dungarpur,"Bhoiwada, Dungarpur - RSPCB",23-03-2024 22:00:00,23.837789,73.714926,OZONE,20,73,62
India,Rajasthan,Hanumangarh,"Housing Board, Hanumangarh - RSPCB",23-03-2024 22:00:00,29.610750,74.283608,PM2.5,60,335,176
India,Rajasthan,Hanumangarh,"Housing Board, Hanumangarh - RSPCB",23-03-2024 22:00:00,29.610750,74.283608,NH3,8,15,12
India,Rajasthan,Jaipur,"Adarsh Nagar, Jaipur - RSPCB",23-03-2024 22:00:00,26.902909,75.836858,PM10,83,146,113
India,Rajasthan,Jaipur,"Police Commissionerate, Jaipur - RSPCB",23-03-2024 22:00:00,26.9164092,75.7994901,SO2,12,22,18
India,Rajasthan,Jaipur,"RIICO Sitapura, Jaipur - RSPCB",23-03-2024 22:00:00,26.786682,75.827928,PM2.5,34,350,168
India,Rajasthan,Jaipur,"RIICO Sitapura, Jaipur - RSPCB",23-03-2024 22:00:00,26.786682,75.827928,NO2,13,223,74
India,Rajasthan,Jaipur,"RIICO Sitapura, Jaipur - RSPCB",23-03-2024 22:00:00,26.786682,75.827928,NH3,1,44,13
India,Rajasthan,Jaipur,"RIICO Sitapura, Jaipur - RSPCB",23-03-2024 22:00:00,26.786682,75.827928,SO2,11,32,16
India,Rajasthan,Jaipur,"RIICO Sitapura, Jaipur - RSPCB",23-03-2024 22:00:00,26.786682,75.827928,OZONE,1,97,42
India,Rajasthan,Jaipur,"Sector-2 Murlipura, Jaipur - RSPCB",23-03-2024 22:00:00,26.960669,75.771817,SO2,6,111,34
India,Rajasthan,Jaipur,"Shastri Nagar, Jaipur - RSPCB",23-03-2024 22:00:00,26.9502929,75.730943,PM2.5,56,279,128
India,Rajasthan,Jalore,"Mudtra Sili, Jalore - RSPCB",23-03-2024 22:00:00,25.344694,72.626208,NO2,6,66,19
India,Rajasthan,Jhalawar,"Rajlaxmi Nagar, Jhalawar - RSPCB",23-03-2024 22:00:00,24.588397,76.172782,OZONE,6,91,60
India,Rajasthan,Jhunjhunu,"Indra Nagar, Jhunjhunu - RSPCB",23-03-2024 22:00:00,28.108988,75.386577,PM10,76,198,139
India,Rajasthan,Jodhpur,"Collectorate, Jodhpur - RSPCB",23-03-2024 22:00:00,26.268249,73.0193853,OZONE,29,94,71
India,Rajasthan,Jodhpur,"Digari Kalan, Jodhpur - RSPCB",23-03-2024 22:00:00,26.295810,73.082283,PM10,82,417,132
India,Rajasthan,Jodhpur,"Digari Kalan, Jodhpur - RSPCB",23-03-2024 22:00:00,26.295810,73.082283,SO2,3,11,6
India,Rajasthan,Jodhpur,"Digari Kalan, Jodhpur - RSPCB",23-03-2024 22:00:00,26.295810,73.082283,OZONE,4,88,63
India,Rajasthan,Jodhpur,"Jhalamand, Jodhpur - RSPCB",23-03-2024 22:00:00,26.215415,73.070156,PM10,69,368,142
India,Rajasthan,Jodhpur,"Mandor, Jodhpur - RSPCB",23-03-2024 22:00:00,26.358805,73.047444,OZONE,5,105,63
India,Rajasthan,Karauli,"Satyawati Vihar, Karauli - RSPCB",23-03-2024 22:00:00,26.506177,77.025989,PM10,NA,NA,NA
India,Rajasthan,Karauli,"Satyawati Vihar, Karauli - RSPCB",23-03-2024 22:00:00,26.506177,77.025989,SO2,NA,NA,NA
India,Rajasthan,Kota,"Dhanmandi, Kota - RSPCB",23-03-2024 22:00:00,25.164090,75.858137,NH3,4,6,4
India,Rajasthan,Kota,"Shrinath Puram, Kota - RSPCB",23-03-2024 22:00:00,25.14389,75.821256,PM2.5,76,317,147
India,Rajasthan,Kota,"Shrinath Puram, Kota - RSPCB",23-03-2024 22:00:00,25.14389,75.821256,SO2,6,18,10
India,Rajasthan,Nagaur,"Karni Colony, Nagaur - RSPCB",23-03-2024 22:00:00,27.213494,73.734444,NO2,9,36,21
India,Rajasthan,Nagaur,"Karni Colony, Nagaur - RSPCB",23-03-2024 22:00:00,27.213494,73.734444,SO2,3,18,6
India,Rajasthan,Nagaur,"Karni Colony, Nagaur - RSPCB",23-03-2024 22:00:00,27.213494,73.734444,CO,15,39,21
India,Rajasthan,Pali,"Indira Colony Vistar, Pali - RSPCB",23-03-2024 22:00:00,25.771061, 73.340227,PM2.5,82,323,158
India,Rajasthan,Pali,"Indira Colony Vistar, Pali - RSPCB",23-03-2024 22:00:00,25.771061, 73.340227,NO2,25,48,33
India,Rajasthan,Pali,"Indira Colony Vistar, Pali - RSPCB",23-03-2024 22:00:00,25.771061, 73.340227,SO2,8,13,10
India,Rajasthan,Pali,"Indira Colony Vistar, Pali - RSPCB",23-03-2024 22:00:00,25.771061, 73.340227,CO,56,104,81
India,Rajasthan,Rajsamand,"Dhoinda, Rajsamand - RSPCB",23-03-2024 22:00:00,25.036360,73.883502,NH3,5,8,7
India,Rajasthan,Rajsamand,"Dhoinda, Rajsamand - RSPCB",23-03-2024 22:00:00,25.036360,73.883502,OZONE,22,59,49
India,Rajasthan,Sawai Madhopur,"Sahu Nagar, Sawai Madhopur - RSPCB",23-03-2024 22:00:00,26.031443,76.359327,PM10,57,295,102
India,Rajasthan,Sawai Madhopur,"Sahu Nagar, Sawai Madhopur - RSPCB",23-03-2024 22:00:00,26.031443,76.359327,CO,15,106,60
India,Rajasthan,Sirohi,"Vedhaynath Colony, Sirohi - RSPCB",23-03-2024 22:00:00,24.885261,72.857549,NO2,5,52,14
India,Rajasthan,Sirohi,"Vedhaynath Colony, Sirohi - RSPCB",23-03-2024 22:00:00,24.885261,72.857549,CO,2,56,28
India,Rajasthan,Sri Ganganagar,"Old City, Sri Ganganagar - RSPCB",23-03-2024 22:00:00,29.931624,73.864511,PM2.5,60,253,126
India,Rajasthan,Tonk,"Shastri Nagar, Tonk - RSPCB",23-03-2024 22:00:00,26.159933,75.780517,SO2,4,13,7
India,Rajasthan,Tonk,"Shastri Nagar, Tonk - RSPCB",23-03-2024 22:00:00,26.159933,75.780517,CO,16,101,45
India,TamilNadu,Chengalpattu,"Crescent University, Chengalpattu - TNPCB",23-03-2024 22:00:00,12.8777316,80.0834807,PM2.5,33,302,71
India,TamilNadu,Chennai,"Alandur Bus Depot, Chennai - CPCB",23-03-2024 22:00:00,12.9099161,80.1076538,NH3,1,18,6
India,TamilNadu,Chennai,"Arumbakkam, Chennai - TNPCB",23-03-2024 22:00:00,13.0664,80.2112 ,PM2.5,22,98,44
India,TamilNadu,Chennai,"Arumbakkam, Chennai - TNPCB",23-03-2024 22:00:00,13.0664,80.2112 ,NO2,6,35,14
India,TamilNadu,Chennai,"Kodungaiyur, Chennai - TNPCB",23-03-2024 22:00:00,13.1278,80.2642,NH3,3,5,3
India,TamilNadu,Chennai,"Kodungaiyur, Chennai - TNPCB",23-03-2024 22:00:00,13.1278,80.2642,OZONE,5,6,6
India,TamilNadu,Chennai,"Manali, Chennai - CPCB",23-03-2024 22:00:00,13.164544,80.26285,NH3,3,5,4
India,TamilNadu,Chennai,"Velachery Res. Area, Chennai - CPCB",23-03-2024 22:00:00,13.0052189,80.2398125,PM10,NA,NA,NA
India,TamilNadu,Chennai,"Velachery Res. Area, Chennai - CPCB",23-03-2024 22:00:00,13.0052189,80.2398125,SO2,10,11,11
India,TamilNadu,Coimbatore,"PSG College of Arts and Science, Coimbatore - TNPCB",23-03-2024 22:00:00,11.0328,77.0349,PM2.5,45,93,65
India,TamilNadu,Cuddalore,"Semmandalam, Cuddalore - TNPCB",23-03-2024 22:00:00,11.7637683,79.7499835,OZONE,1,2,2
India,TamilNadu,Gummidipoondi,"Anthoni Pillai Nagar, Gummidipoondi - TNPCB",23-03-2024 22:00:00,13.4127,80.1081,SO2,4,68,22
India,TamilNadu,Kanchipuram,"Kilambi, Kanchipuram - TNPCB",23-03-2024 22:00:00,12.864618,79.659968,SO2,3,8,6
India,TamilNadu,Palkalaiperur,"Bharathidasan University, Palkalaiperur - TNPCB",23-03-2024 22:00:00,10.681158,78.741746,PM10,37,54,44
India,TamilNadu,Palkalaiperur,"Bharathidasan University, Palkalaiperur - TNPCB",23-03-2024 22:00:00,10.681158,78.741746,SO2,27,29,28
India,TamilNadu,Palkalaiperur,"Bharathidasan University, Palkalaiperur - TNPCB",23-03-2024 22:00:00,10.681158,78.741746,OZONE,1,1,1
India,TamilNadu,Ramanathapuram,"Chalai Bazaar, Ramanathapuram - TNPCB",23-03-2024 22:00:00,9.36399,78.831977,NH3,1,1,1
India,TamilNadu,Ramanathapuram,"Chalai Bazaar, Ramanathapuram - TNPCB",23-03-2024 22:00:00,9.36399,78.831977,SO2,7,9,8
India,TamilNadu,Ramanathapuram,"Chalai Bazaar, Ramanathapuram - TNPCB",23-03-2024 22:00:00,9.36399,78.831977,CO,2,7,5
India,TamilNadu,Thoothukudi,"Meelavittan, Thoothukudi - TNPCB",23-03-2024 22:00:00,8.816428 ,78.099039,CO,4,54,25
India,TamilNadu,Vellore,"Vasanthapuram, Vellore - TNPCB",23-03-2024 22:00:00,12.909494,79.131861,PM2.5,14,281,67
India,TamilNadu,Vellore,"Vasanthapuram, Vellore - TNPCB",23-03-2024 22:00:00,12.909494,79.131861,PM10,36,151,73
India,TamilNadu,Vellore,"Vasanthapuram, Vellore - TNPCB",23-03-2024 22:00:00,12.909494,79.131861,NH3,1,1,1
India,TamilNadu,Virudhunagar,"Collectorate Office, Virudhunagar - TNPCB",23-03-2024 22:00:00,9.559382,77.948828,NO2,1,8,5
India,TamilNadu,Virudhunagar,"Collectorate Office, Virudhunagar - TNPCB",23-03-2024 22:00:00,9.559382,77.948828,SO2,5,23,7
India,Telangana,Hyderabad,"Bollaram Industrial Area, Hyderabad - TSPCB",23-03-2024 22:00:00,17.540891,78.358528,PM10,71,132,102
India,Telangana,Hyderabad,"Bollaram Industrial Area, Hyderabad - TSPCB",23-03-2024 22:00:00,17.540891,78.358528,SO2,4,54,11
India,Telangana,Hyderabad,"Central University, Hyderabad - TSPCB",23-03-2024 22:00:00,17.460103,78.334361,PM2.5,23,58,36
India,Telangana,Hyderabad,"Central University, Hyderabad - TSPCB",23-03-2024 22:00:00,17.460103,78.334361,SO2,4,11,8
India,Telangana,Hyderabad,"ECIL Kapra, Hyderabad - TSPCB",23-03-2024 22:00:00,17.470431,78.566959,PM10,68,85,75
India,Telangana,Hyderabad,"ICRISAT Patancheru, Hyderabad - TSPCB",23-03-2024 22:00:00,17.518400,78.278777,NO2,16,18,17
India,Telangana,Hyderabad,"Kokapet, Hyderabad - TSPCB",23-03-2024 22:00:00,17.393559,78.339194,PM2.5,51,96,60
India,Telangana,Hyderabad,"Ramachandrapuram, Hyderabad - TSPCB",23-03-2024 22:00:00,17.528544,78.286195,NO2,10,11,10
India,Telangana,Hyderabad,"Sanathnagar, Hyderabad - TSPCB",23-03-2024 22:00:00,17.4559458,78.4332152,PM2.5,43,85,63
India,Telangana,Hyderabad,"Sanathnagar, Hyderabad - TSPCB",23-03-2024 22:00:00,17.4559458,78.4332152,CO,30,42,38
India,Telangana,Hyderabad,"Somajiguda, Hyderabad - TSPCB",23-03-2024 22:00:00,17.417094,78.457437,NH3,NA,NA,NA
India,Telangana,Hyderabad,"Zoo Park, Hyderabad - TSPCB",23-03-2024 22:00:00,17.349694,78.451437,PM2.5,40,113,66
India,Telangana,Hyderabad,"Zoo Park, Hyderabad - TSPCB",23-03-2024 22:00:00,17.349694,78.451437,NO2,20,47,32
India,Tripura,Agartala,"Bardowali, Agartala - Tripura SPCB",23-03-2024 22:00:00,23.8175497,91.2726974,PM10,82,183,112
India,Tripura,Agartala,"Bardowali, Agartala - Tripura SPCB",23-03-2024 22:00:00,23.8175497,91.2726974,NO2,5,17,9
India,Tripura,Agartala,"Bardowali, Agartala - Tripura SPCB",23-03-2024 22:00:00,23.8175497,91.2726974,NH3,2,3,2
India,Uttar_Pradesh,Agra,"Manoharpur, Agra - UPPCB",23-03-2024 22:00:00,27.23711,78.01936,NO2,27,27,27
India,Uttar_Pradesh,Agra,"Manoharpur, Agra - UPPCB",23-03-2024 22:00:00,27.23711,78.01936,NH3,1,2,1
India,Uttar_Pradesh,Agra,"Manoharpur, Agra - UPPCB",23-03-2024 22:00:00,27.23711,78.01936,SO2,8,17,11
India,Uttar_Pradesh,Agra,"Rohta, Agra - UPPCB",23-03-2024 22:00:00,27.106972,78.000111,PM10,26,101,54
India,Uttar_Pradesh,Agra,"Sector-3B Avas Vikas Colony, Agra - UPPCB",23-03-2024 22:00:00,27.19412,77.96237,SO2,23,26,24
India,Uttar_Pradesh,Agra,"Sector-3B Avas Vikas Colony, Agra - UPPCB",23-03-2024 22:00:00,27.19412,77.96237,CO,12,28,15
India,Uttar_Pradesh,Agra,"Shastripuram, Agra - UPPCB",23-03-2024 22:00:00,27.19862,77.92066,NH3,NA,NA,NA
India,Uttar_Pradesh,Bareilly,"Rajendra Nagar, Bareilly - UPPCB",23-03-2024 22:00:00,28.38910936,79.42963708,PM2.5,26,53,39
India,Uttar_Pradesh,Bareilly,"Rajendra Nagar, Bareilly - UPPCB",23-03-2024 22:00:00,28.38910936,79.42963708,NH3,1,2,1
India,Uttar_Pradesh,Bareilly,"Rajendra Nagar, Bareilly - UPPCB",23-03-2024 22:00:00,28.38910936,79.42963708,CO,8,61,16
India,Uttar_Pradesh,Bulandshahr,"Yamunapuram, Bulandshahr - UPPCB",23-03-2024 22:00:00,28.406963,77.849831,PM10,92,160,130
India,Uttar_Pradesh,Bulandshahr,"Yamunapuram, Bulandshahr - UPPCB",23-03-2024 22:00:00,28.406963,77.849831,NH3,12,20,15
India,Uttar_Pradesh,Firozabad,"Nagla Bhau, Firozabad - UPPCB",23-03-2024 22:00:00,27.168897,78.376960,PM2.5,NA,NA,NA
India,Uttar_Pradesh,Firozabad,"Nagla Bhau, Firozabad - UPPCB",23-03-2024 22:00:00,27.168897,78.376960,NH3,NA,NA,NA
India,Uttar_Pradesh,Ghaziabad,"Indirapuram, Ghaziabad - UPPCB",23-03-2024 22:00:00,28.646233,77.358075,NH3,7,14,10
India,Uttar_Pradesh,Ghaziabad,"Loni, Ghaziabad - UPPCB",23-03-2024 22:00:00,28.757294,77.278792,CO,14,129,42
India,Uttar_Pradesh,Ghaziabad,"Vasundhara, Ghaziabad - UPPCB",23-03-2024 22:00:00,28.6603346,77.3572563,NH3,9,20,14
India,Uttar_Pradesh,Gorakhpur,"Madan Mohan Malaviya University of Technology, Gorakhpur - UPPCB",23-03-2024 22:00:00,26.730136,83.433859,NO2,2,2,2
India,Uttar_Pradesh,Gorakhpur,"Madan Mohan Malaviya University of Technology, Gorakhpur - UPPCB",23-03-2024 22:00:00,26.730136,83.433859,SO2,33,41,36
India,Uttar_Pradesh,Greater Noida,"Knowledge Park - III, Greater Noida - UPPCB",23-03-2024 22:00:00,28.47272,77.482000,SO2,NA,NA,NA
India,Uttar_Pradesh,Greater Noida,"Knowledge Park - III, Greater Noida - UPPCB",23-03-2024 22:00:00,28.47272,77.482000,OZONE,7,92,77
India,Uttar_Pradesh,Greater Noida,"Knowledge Park - V, Greater Noida - UPPCB",23-03-2024 22:00:00,28.557054,77.453663,PM10,137,474,277
India,Uttar_Pradesh,Greater Noida,"Knowledge Park - V, Greater Noida - UPPCB",23-03-2024 22:00:00,28.557054,77.453663,NO2,39,62,50
India,Uttar_Pradesh,Hapur,"Anand Vihar, Hapur - UPPCB",23-03-2024 22:00:00,28.725645,77.749675,PM2.5,26,304,159
India,Uttar_Pradesh,Hapur,"Anand Vihar, Hapur - UPPCB",23-03-2024 22:00:00,28.725645,77.749675,CO,49,97,63
India,Uttar_Pradesh,Hapur,"Anand Vihar, Hapur - UPPCB",23-03-2024 22:00:00,28.725645,77.749675,OZONE,9,86,53
India,Uttar_Pradesh,Jhansi,"Shivaji Nagar, Jhansi - UPPCB",23-03-2024 22:00:00,25.4547,78.6039,NO2,1,55,13
India,Uttar_Pradesh,Jhansi,"Shivaji Nagar, Jhansi - UPPCB",23-03-2024 22:00:00,25.4547,78.6039,NH3,6,6,6
India,Uttar_Pradesh,Kanpur,"FTI Kidwai Nagar, Kanpur - UPPCB",23-03-2024 22:00:00,26.428282,80.327067,PM10,74,167,110
India,Uttar_Pradesh,Kanpur,"NSI Kalyanpur, Kanpur - UPPCB",23-03-2024 22:00:00,26.509954,80.249612,SO2,18,32,20
India,Uttar_Pradesh,Khurja,"Kalindi Kunj, Khurja - UPPCB",23-03-2024 22:00:00,28.2348927,77.8683002,PM2.5,39,215,101
India,Uttar_Pradesh,Lucknow,"B R Ambedkar University, Lucknow - UPPCB",23-03-2024 22:00:00,26.766433,80.927299,CO,23,43,27
India,Uttar_Pradesh,Lucknow,"Gomti Nagar, Lucknow - UPPCB",23-03-2024 22:00:00,26.868120,81.005119,PM2.5,97,332,206
India,Uttar_Pradesh,Lucknow,"Gomti Nagar, Lucknow - UPPCB",23-03-2024 22:00:00,26.868120,81.005119,CO,76,89,86
India,Uttar_Pradesh,Lucknow,"Kendriya Vidyalaya, Lucknow - CPCB",23-03-2024 22:00:00,26.906111,80.948222,PM10,93,168,129
India,Uttar_Pradesh,Lucknow,"Kukrail Picnic Spot-1, Lucknow - UPPCB",23-03-2024 22:00:00,26.90723,80.98579,SO2,34,42,37
India,Uttar_Pradesh,Lucknow,"Talkatora District Industries Center, Lucknow - CPCB",23-03-2024 22:00:00,26.83399722,80.8917361,NO2,44,120,79
India,Uttar_Pradesh,Meerut,"Ganga Nagar, Meerut - UPPCB",23-03-2024 22:00:00,28.999264,77.7590354,OZONE,10,68,45
India,Uttar_Pradesh,Meerut,"Pallavpuram Phase 2, Meerut - UPPCB",23-03-2024 22:00:00,29.063510,77.709723,PM2.5,27,221,128
India,Uttar_Pradesh,Meerut,"Pallavpuram Phase 2, Meerut - UPPCB",23-03-2024 22:00:00,29.063510,77.709723,NH3,9,15,12
India,Uttar_Pradesh,Moradabad,"Buddhi Vihar, Moradabad - UPPCB",23-03-2024 22:00:00,28.83526,78.74460,PM2.5,46,309,149
India,Uttar_Pradesh,Moradabad,"Buddhi Vihar, Moradabad - UPPCB",23-03-2024 22:00:00,28.83526,78.74460,CO,25,54,28
India,Uttar_Pradesh,Moradabad,"Eco Herbal Park, Moradabad - UPPCB",23-03-2024 22:00:00,28.840739,78.697531,PM10,64,128,96
India,Uttar_Pradesh,Moradabad,"Eco Herbal Park, Moradabad - UPPCB",23-03-2024 22:00:00,28.840739,78.697531,SO2,2,43,20
India,Uttar_Pradesh,Moradabad,"Eco Herbal Park, Moradabad - UPPCB",23-03-2024 22:00:00,28.840739,78.697531,CO,4,82,37
India,Uttar_Pradesh,Moradabad,"Employment Office, Moradabad - UPPCB",23-03-2024 22:00:00,28.88528,78.73880,PM10,NA,NA,NA
India,Uttar_Pradesh,Moradabad,"Jigar Colony, Moradabad - UPPCB",23-03-2024 22:00:00,28.856664,78.772638,NO2,22,26,24
India,Uttar_Pradesh,Moradabad,"Jigar Colony, Moradabad - UPPCB",23-03-2024 22:00:00,28.856664,78.772638,NH3,5,6,5
India,Uttar_Pradesh,Moradabad,"Kashiram Nagar, Moradabad - UPPCB",23-03-2024 22:00:00,28.849399,78.742362,PM2.5,53,319,165
India,Uttar_Pradesh,Muzaffarnagar,"New Mandi, Muzaffarnagar - UPPCB",23-03-2024 22:00:00,29.4723508,77.7194031,PM2.5,56,307,193
India,Uttar_Pradesh,Noida,"Sector - 125, Noida - UPPCB",23-03-2024 22:00:00,28.5447608,77.3231257,PM2.5,22,309,125
India,Uttar_Pradesh,Noida,"Sector - 62, Noida - IMD",23-03-2024 22:00:00,28.6245479,77.3577104,PM10,NA,NA,NA
India,Uttar_Pradesh,Noida,"Sector-1, Noida - UPPCB",23-03-2024 22:00:00,28.5898,77.3101,PM10,110,400,194
India,Uttar_Pradesh,Noida,"Sector-1, Noida - UPPCB",23-03-2024 22:00:00,28.5898,77.3101,NH3,1,6,3
India,Uttar_Pradesh,Noida,"Sector-116, Noida - UPPCB",23-03-2024 22:00:00,28.569230,77.393848,PM2.5,37,355,183
India,Uttar_Pradesh,Noida,"Sector-116, Noida - UPPCB",23-03-2024 22:00:00,28.569230,77.393848,NO2,18,115,56
India,Uttar_Pradesh,Noida,"Sector-116, Noida - UPPCB",23-03-2024 22:00:00,28.569230,77.393848,CO,32,140,83
India,Uttar_Pradesh,Noida,"Sector-116, Noida - UPPCB",23-03-2024 22:00:00,28.569230,77.393848,OZONE,1,33,16
India,Uttar_Pradesh,Prayagraj,"Jhunsi, Prayagraj - UPPCB",23-03-2024 22:00:00,25.425602,81.917152,NH3,5,5,5
India,Uttar_Pradesh,Prayagraj,"Jhunsi, Prayagraj - UPPCB",23-03-2024 22:00:00,25.425602,81.917152,CO,8,101,15
India,Uttar_Pradesh,Prayagraj,"Jhunsi, Prayagraj - UPPCB",23-03-2024 22:00:00,25.425602,81.917152,OZONE,1,46,27
India,Uttar_Pradesh,Prayagraj,"Motilal Nehru NIT, Prayagraj - UPPCB",23-03-2024 22:00:00,25.494,81.863,PM2.5,19,124,60
India,Uttar_Pradesh,Prayagraj,"Motilal Nehru NIT, Prayagraj - UPPCB",23-03-2024 22:00:00,25.494,81.863,PM10,49,178,114
India,Uttar_Pradesh,Varanasi,"Bhelupur, Varanasi - UPPCB",23-03-2024 22:00:00,25.301778,82.996789,NH3,1,2,1
India,Uttar_Pradesh,Varanasi,"Maldahiya, Varanasi - UPPCB",23-03-2024 22:00:00,25.32393,82.99687,NH3,1,2,1
India,Uttar_Pradesh,Varanasi,"Maldahiya, Varanasi - UPPCB",23-03-2024 22:00:00,25.32393,82.99687,SO2,24,28,25
India,Uttarakhand,Dehradun,"Doon University, Dehradun - UKPCB",23-03-2024 22:00:00,30.269444,78.044167,PM10,74,139,104
India,Uttarakhand,Dehradun,"Doon University, Dehradun - UKPCB",23-03-2024 22:00:00,30.269444,78.044167,CO,36,60,41
India,Uttarakhand,Rishikesh,"Shivaji Nagar, Rishikesh - UKPCB",23-03-2024 22:00:00,30.075911,78.2859547,OZONE,9,98,67
India,West_Bengal,Barrackpore,"SVSPA Campus, Barrackpore - WBPCB",23-03-2024 22:00:00,22.7605581,88.3617589,PM2.5,65,304,141
India,West_Bengal,Barrackpore,"SVSPA Campus, Barrackpore - WBPCB",23-03-2024 22:00:00,22.7605581,88.3617589,PM10,90,185,129
India,West_Bengal,Barrackpore,"SVSPA Campus, Barrackpore - WBPCB",23-03-2024 22:00:00,22.7605581,88.3617589,OZONE,1,78,55
India,West_Bengal,Durgapur,"Sidhu Kanhu Indoor Stadium, Durgapur - WBPCB",23-03-2024 22:00:00,23.5404352,87.2892225,PM2.5,78,302,156
India,West_Bengal,Durgapur,"Sidhu Kanhu Indoor Stadium, Durgapur - WBPCB",23-03-2024 22:00:00,23.5404352,87.2892225,NO2,22,30,26
India,West_Bengal,Haldia,"Priyambada Housing Estate, Haldia - WBPCB",23-03-2024 22:00:00,22.06047,88.109737,PM2.5,22,84,48
India,West_Bengal,Haldia,"Priyambada Housing Estate, Haldia - WBPCB",23-03-2024 22:00:00,22.06047,88.109737,PM10,42,162,92
India,West_Bengal,Haldia,"Priyambada Housing Estate, Haldia - WBPCB",23-03-2024 22:00:00,22.06047,88.109737,NO2,11,54,24
India,West_Bengal,Howrah,"Belur Math, Howrah - WBPCB",23-03-2024 22:00:00,22.629801,88.352017,PM2.5,65,139,92
India,West_Bengal,Howrah,"Belur Math, Howrah - WBPCB",23-03-2024 22:00:00,22.629801,88.352017,PM10,84,131,104
India,West_Bengal,Howrah,"Ghusuri, Howrah - WBPCB",23-03-2024 22:00:00,22.611968,88.347422,SO2,5,7,6
India,West_Bengal,Howrah,"Padmapukur, Howrah - WBPCB",23-03-2024 22:00:00,22.5687319,88.2797276,CO,17,51,38
India,West_Bengal,Kolkata,"Ballygunge, Kolkata - WBPCB",23-03-2024 22:00:00,22.5367507,88.3638022,PM2.5,58,173,101
India,West_Bengal,Kolkata,"Ballygunge, Kolkata - WBPCB",23-03-2024 22:00:00,22.5367507,88.3638022,PM10,66,137,96
India,West_Bengal,Kolkata,"Ballygunge, Kolkata - WBPCB",23-03-2024 22:00:00,22.5367507,88.3638022,SO2,5,27,16
India,West_Bengal,Kolkata,"Bidhannagar, Kolkata - WBPCB",23-03-2024 22:00:00,22.58157048,88.41002457,OZONE,3,129,86
India,West_Bengal,Kolkata,"Fort William, Kolkata - WBPCB",23-03-2024 22:00:00,22.556640,88.342674,PM2.5,45,164,92
India,West_Bengal,Kolkata,"Fort William, Kolkata - WBPCB",23-03-2024 22:00:00,22.556640,88.342674,NO2,15,127,46
India,West_Bengal,Kolkata,"Fort William, Kolkata - WBPCB",23-03-2024 22:00:00,22.556640,88.342674,NH3,4,6,4
India,West_Bengal,Kolkata,"Jadavpur, Kolkata - WBPCB",23-03-2024 22:00:00,22.49929,88.36917,PM2.5,52,142,82
India,West_Bengal,Kolkata,"Jadavpur, Kolkata - WBPCB",23-03-2024 22:00:00,22.49929,88.36917,SO2,5,18,9
India,West_Bengal,Kolkata,"Jadavpur, Kolkata - WBPCB",23-03-2024 22:00:00,22.49929,88.36917,CO,18,58,20
India,West_Bengal,Kolkata,"Rabindra Bharati University, Kolkata - WBPCB",23-03-2024 22:00:00,22.627847,88.380669,NH3,7,7,7
India,West_Bengal,Kolkata,"Rabindra Sarobar, Kolkata - WBPCB",23-03-2024 22:00:00,22.51106,88.35142,CO,12,62,22
India,West_Bengal,Kolkata,"Victoria, Kolkata - WBPCB",23-03-2024 22:00:00,22.5448082,88.3403691,NO2,21,41,31
India,West_Bengal,Kolkata,"Victoria, Kolkata - WBPCB",23-03-2024 22:00:00,22.5448082,88.3403691,SO2,7,18,12
India,West_Bengal,Kolkata,"Victoria, Kolkata - WBPCB",23-03-2024 22:00:00,22.5448082,88.3403691,OZONE,16,89,57
India,Andhra_Pradesh,Amaravati,"Secretariat, Amaravati - APPCB",23-03-2024 22:00:00,16.5150833,80.5181667,OZONE,5,59,39
India,Andhra_Pradesh,Anantapur,"Gulzarpet, Anantapur - APPCB",23-03-2024 22:00:00,14.675886,77.593027,PM10,NA,NA,NA
India,Andhra_Pradesh,Anantapur,"Gulzarpet, Anantapur - APPCB",23-03-2024 22:00:00,14.675886,77.593027,SO2,4,12,5
India,Andhra_Pradesh,Anantapur,"Gulzarpet, Anantapur - APPCB",23-03-2024 22:00:00,14.675886,77.593027,OZONE,15,62,57
India,Andhra_Pradesh,Chittoor,"Gangineni Cheruvu, Chittoor - APPCB",23-03-2024 22:00:00,13.204880,79.097889,CO,44,70,60
India,Andhra_Pradesh,Kadapa,"Yerramukkapalli, Kadapa - APPCB",23-03-2024 22:00:00,14.465052,78.824187,OZONE,21,103,87
India,Andhra_Pradesh,Rajamahendravaram,"Anand Kala Kshetram, Rajamahendravaram - APPCB",23-03-2024 22:00:00,16.9872867,81.7363176,PM10,35,78,50
India,Andhra_Pradesh,Tirupati,"Tirumala, Tirupati - APPCB",23-03-2024 22:00:00,13.67,79.35,SO2,3,11,6
India,Andhra_Pradesh,Tirupati,"Vaikuntapuram, Tirupati - APPCB",23-03-2024 22:00:00,13.615387,79.409230,PM10,20,111,57
India,Andhra_Pradesh,Tirupati,"Vaikuntapuram, Tirupati - APPCB",23-03-2024 22:00:00,13.615387,79.409230,OZONE,2,59,45
India,Andhra_Pradesh,Vijayawada,"HB Colony, Vijayawada - APPCB",23-03-2024 22:00:00,16.536107,80.594233,PM10,63,85,73
India,Andhra_Pradesh,Vijayawada,"HB Colony, Vijayawada - APPCB",23-03-2024 22:00:00,16.536107,80.594233,NH3,4,4,4
India,Andhra_Pradesh,Vijayawada,"Rajiv Gandhi Park, Vijayawada - APPCB",23-03-2024 22:00:00,16.509717,80.612222,PM2.5,42,66,53
India,Andhra_Pradesh,Vijayawada,"Rajiv Gandhi Park, Vijayawada - APPCB",23-03-2024 22:00:00,16.509717,80.612222,NO2,2,50,27
India,Andhra_Pradesh,Vijayawada,"Rajiv Nagar, Vijayawada - APPCB",23-03-2024 22:00:00,16.554731,80.649110,NO2,NA,NA,NA
India,Andhra_Pradesh,Vijayawada,"Rajiv Nagar, Vijayawada - APPCB",23-03-2024 22:00:00,16.554731,80.649110,OZONE,7,36,23
India,Andhra_Pradesh,Visakhapatnam,"GVM Corporation, Visakhapatnam - APPCB",23-03-2024 22:00:00,17.72,83.3,SO2,9,14,11
India,Arunachal_Pradesh,Naharlagun,"Naharlagun, Naharlagun - APSPCB",23-03-2024 22:00:00,27.103358,93.679645,CO,10,20,12
India,Assam,Guwahati,"IITG, Guwahati - PCBA",23-03-2024 22:00:00,26.2028636,91.70046436,PM10,60,183,102
India,Assam,Nagaon,"Christianpatty, Nagaon - PCBA",23-03-2024 22:00:00,26.349082,92.68449,PM2.5,2,35,12
India,Assam,Nagaon,"Christianpatty, Nagaon - PCBA",23-03-2024 22:00:00,26.349082,92.68449,NO2,8,32,16
India,Assam,Nalbari,"Bata Chowk, Nalbari - PCBA",23-03-2024 22:00:00,26.446912,91.439057,PM2.5,68,150,108
India,Assam,Silchar,"Tarapur, Silchar - PCBA",23-03-2024 22:00:00,24.82827,92.79525,NO2,17,18,18
India,Assam,Sivasagar,"Girls College, Sivasagar - PCBA",23-03-2024 22:00:00,26.987634,94.636574,PM10,47,75,62
India,Bihar,Araria,"Kharahiya Basti, Araria - BSPCB",23-03-2024 22:00:00,26.146529,87.454184,PM10,57,181,107
India,Bihar,Araria,"Kharahiya Basti, Araria - BSPCB",23-03-2024 22:00:00,26.146529,87.454184,NO2,6,8,7
India,Bihar,Araria,"Kharahiya Basti, Araria - BSPCB",23-03-2024 22:00:00,26.146529,87.454184,SO2,9,17,15
India,Bihar,Araria,"Kharahiya Basti, Araria - BSPCB",23-03-2024 22:00:00,26.146529,87.454184,CO,16,30,27
India,Bihar,Arrah,"New DM Office, Arrah - BSPCB",23-03-2024 22:00:00,25.5626095,84.663264,NH3,NA,NA,NA
India,Bihar,Aurangabad,"Gurdeo Nagar, Aurangabad - BSPCB",23-03-2024 22:00:00,24.75746,84.366208,NO2,2,6,5
India,Bihar,Aurangabad,"Gurdeo Nagar, Aurangabad - BSPCB",23-03-2024 22:00:00,24.75746,84.366208,CO,40,72,58
India,Bihar,Bettiah,"Kamalnath Nagar, Bettiah - BSPCB",23-03-2024 22:00:00,26.80365,84.51954,CO,62,68,64
India,Bihar,Bihar Sharif,"D M Colony, Bihar Sharif - BSPCB",23-03-2024 22:00:00,25.204762,85.514960,NH3,2,2,2
India,Bihar,Bihar Sharif,"D M Colony, Bihar Sharif - BSPCB",23-03-2024 22:00:00,25.204762,85.514960,OZONE,4,4,4
India,Bihar,Chhapra,"Darshan Nagar, Chhapra - BSPCB",23-03-2024 22:00:00,25.7808257,84.7446768,NH3,7,17,12
India,Bihar,Gaya,"Collectorate, Gaya - BSPCB",23-03-2024 22:00:00,24.7955,84.9994,SO2,8,28,17
India,Bihar,Gaya,"Kareemganj, Gaya - BSPCB",23-03-2024 22:00:00,24.792403,84.992416,PM2.5,10,305,98
India,Bihar,Gaya,"Kareemganj, Gaya - BSPCB",23-03-2024 22:00:00,24.792403,84.992416,OZONE,3,48,20
India,Bihar,Gaya,"SFTI Kusdihra, Gaya - BSPCB",23-03-2024 22:00:00,24.762518,84.982348,PM2.5,46,92,73
India,Bihar,Hajipur,"Industrial Area, Hajipur - BSPCB",23-03-2024 22:00:00,25.697189,85.245900,PM10,106,367,178
India,Bihar,Hajipur,"Industrial Area, Hajipur - BSPCB",23-03-2024 22:00:00,25.697189,85.245900,NH3,3,7,5
India,Bihar,Katihar,"Mirchaibari, Katihar - BSPCB",23-03-2024 22:00:00,25.560083,87.553265,NH3,5,8,7
India,Bihar,Kishanganj,"SDM Office_Khagra, Kishanganj - BSPCB",23-03-2024 22:00:00,26.0881305,87.93840336,PM2.5,NA,NA,NA
India,Bihar,Kishanganj,"SDM Office_Khagra, Kishanganj - BSPCB",23-03-2024 22:00:00,26.0881305,87.93840336,PM10,NA,NA,NA
India,Bihar,Manguraha,"Forest Rest House, Manguraha - BSPCB",23-03-2024 22:00:00,27.308328,84.531742,SO2,6,7,6
India,Bihar,Manguraha,"Forest Rest House, Manguraha - BSPCB",23-03-2024 22:00:00,27.308328,84.531742,OZONE,10,41,30
India,Bihar,Motihari,"Gandak Colony, Motihari - BSPCB",23-03-2024 22:00:00,26.63086,84.90051,NH3,NA,NA,NA
India,Bihar,Munger,"Town Hall, Munger - BSPCB",23-03-2024 22:00:00,25.376776,86.471523,PM2.5,78,435,199
India,Bihar,Munger,"Town Hall, Munger - BSPCB",23-03-2024 22:00:00,25.376776,86.471523,CO,2,8,5
India,Bihar,Munger,"Town Hall, Munger - BSPCB",23-03-2024 22:00:00,25.376776,86.471523,OZONE,27,39,29
India,Bihar,Muzaffarpur,"MIT-Daudpur Kothi, Muzaffarpur - BSPCB",23-03-2024 22:00:00,26.1403345,85.3650192,PM2.5,60,317,190
India,Bihar,Muzaffarpur,"MIT-Daudpur Kothi, Muzaffarpur - BSPCB",23-03-2024 22:00:00,26.1403345,85.3650192,SO2,7,12,9
India,Bihar,Muzaffarpur,"Muzaffarpur Collectorate, Muzaffarpur - BSPCB",23-03-2024 22:00:00,26.1209,85.3647,CO,16,90,64
India,Bihar,Muzaffarpur,"Muzaffarpur Collectorate, Muzaffarpur - BSPCB",23-03-2024 22:00:00,26.1209,85.3647,OZONE,18,58,40
India,Bihar,Patna,"DRM Office Danapur, Patna - BSPCB",23-03-2024 22:00:00,25.586562,85.043586,PM10,78,383,154
India,Bihar,Patna,"IGSC Planetarium Complex, Patna - BSPCB",23-03-2024 22:00:00,25.610369,85.132568,PM2.5,60,352,189
India,Bihar,Patna,"IGSC Planetarium Complex, Patna - BSPCB",23-03-2024 22:00:00,25.610369,85.132568,SO2,5,5,5
India,Bihar,Patna,"Muradpur, Patna - BSPCB",23-03-2024 22:00:00,25.619651,85.147382,NH3,2,4,3
India,Bihar,Patna,"Muradpur, Patna - BSPCB",23-03-2024 22:00:00,25.619651,85.147382,OZONE,1,32,17
India,Bihar,Patna,"Rajbansi Nagar, Patna - BSPCB",23-03-2024 22:00:00,25.599486,85.113666,PM10,106,277,165
India,Bihar,Patna,"Rajbansi Nagar, Patna - BSPCB",23-03-2024 22:00:00,25.599486,85.113666,NO2,15,43,26
India,Bihar,Patna,"Samanpura, Patna - BSPCB",23-03-2024 22:00:00,25.596727,85.085624,NO2,30,81,52
India,Bihar,Purnia,"Mariam Nagar, Purnia - BSPCB",23-03-2024 22:00:00,25.366336,87.117468,CO,13,100,37
India,Bihar,Saharsa,"Police Line, Saharsa - BSPCB",23-03-2024 22:00:00,25.892357,86.590325,SO2,16,16,16
India,Bihar,Samastipur,"DM Office_Kasipur, Samastipur - BSPCB",23-03-2024 22:00:00,25.859655,85.77944,PM10,28,266,119
India,Bihar,Sasaram,"Dada Peer, Sasaram - BSPCB",23-03-2024 22:00:00,24.952822,84.002396,NO2,11,32,20
India,Bihar,Sasaram,"Dada Peer, Sasaram - BSPCB",23-03-2024 22:00:00,24.952822,84.002396,NH3,8,20,11
India,Bihar,Siwan,"Chitragupta Nagar, Siwan - BSPCB",23-03-2024 22:00:00,26.2271665,84.3570427,NH3,1,17,3
India,Bihar,Siwan,"Chitragupta Nagar, Siwan - BSPCB",23-03-2024 22:00:00,26.2271665,84.3570427,CO,26,97,51
India,Bihar,Siwan,"Chitragupta Nagar, Siwan - BSPCB",23-03-2024 22:00:00,26.2271665,84.3570427,OZONE,4,105,65
India,Chandigarh,Chandigarh,"Sector 22, Chandigarh - CPCC",23-03-2024 22:00:00,30.735567,76.775714,NH3,7,11,9
India,Chandigarh,Chandigarh,"Sector 22, Chandigarh - CPCC",23-03-2024 22:00:00,30.735567,76.775714,OZONE,36,127,85
India,Chandigarh,Chandigarh,"Sector-25, Chandigarh - CPCC",23-03-2024 22:00:00,30.751462,76.762879,NH3,14,22,18
India,Chandigarh,Chandigarh,"Sector-53, Chandigarh - CPCC",23-03-2024 22:00:00,30.719859,76.738637,NO2,8,68,23
India,Chhattisgarh,Bhilai,"32Bungalows, Bhilai - CECB",23-03-2024 22:00:00,21.194815,81.314770,NH3,6,6,6
India,Chhattisgarh,Bhilai,"32Bungalows, Bhilai - CECB",23-03-2024 22:00:00,21.194815,81.314770,SO2,5,8,6
India,Chhattisgarh,Bhilai,"32Bungalows, Bhilai - CECB",23-03-2024 22:00:00,21.194815,81.314770,OZONE,4,21,13
India,Chhattisgarh,Bhilai,"Hathkhoj, Bhilai - CECB",23-03-2024 22:00:00,21.224231,81.408350,PM10,52,200,115
India,Chhattisgarh,Bhilai,"Hathkhoj, Bhilai - CECB",23-03-2024 22:00:00,21.224231,81.408350,NH3,7,8,8
India,Chhattisgarh,Bhilai,"Hathkhoj, Bhilai - CECB",23-03-2024 22:00:00,21.224231,81.408350,SO2,12,22,16
India,Chhattisgarh,Bilaspur,"Mangala, Bilaspur - NTPC",23-03-2024 22:00:00,22.08815,82.13737,PM10,42,124,72
India,Chhattisgarh,Chhal,"Nawapara SECL Colony, Chhal - CECB",23-03-2024 22:00:00,22.118125,83.140608,NH3,2,3,2
India,Chhattisgarh,Chhal,"Nawapara SECL Colony, Chhal - CECB",23-03-2024 22:00:00,22.118125,83.140608,CO,28,99,46
India,Chhattisgarh,Chhal,"Nawapara SECL Colony, Chhal - CECB",23-03-2024 22:00:00,22.118125,83.140608,OZONE,1,166,105
India,Chhattisgarh,Korba,"Rampur, Korba - CECB",23-03-2024 22:00:00,22.368195,82.746431,PM10,45,177,80
India,Chhattisgarh,Korba,"Rampur, Korba - CECB",23-03-2024 22:00:00,22.368195,82.746431,SO2,6,77,15
India,Chhattisgarh,Milupara,"Govt. Higher Secondary School, Milupara - CECB",23-03-2024 22:00:00,22.1910172,83.5197009,NH3,1,2,1
India,Chhattisgarh,Raipur,"AIIMS, Raipur - CECB",23-03-2024 22:00:00,21.258815,81.578979,PM10,29,150,80
India,Chhattisgarh,Raipur,"AIIMS, Raipur - CECB",23-03-2024 22:00:00,21.258815,81.578979,NO2,NA,NA,NA
India,Chhattisgarh,Raipur,"Bhatagaon New ISBT, Raipur - CECB",23-03-2024 22:00:00,21.219665,81.630094,SO2,1,4,2
India,Chhattisgarh,Raipur,"Bhatagaon New ISBT, Raipur - CECB",23-03-2024 22:00:00,21.219665,81.630094,CO,17,100,40
India,Chhattisgarh,Raipur,"Krishak Nagar, Raipur - CECB",23-03-2024 22:00:00,21.237755,81.705301,NH3,1,1,1
India,Chhattisgarh,Raipur,"Krishak Nagar, Raipur - CECB",23-03-2024 22:00:00,21.237755,81.705301,SO2,10,17,13
India,Chhattisgarh,Tumidih,"OP Jindal Industrial Park, Tumidih - CECB",23-03-2024 22:00:00,22.06631475,83.33820077,NO2,8,71,23
India,Delhi,Delhi,"Anand Vihar, Delhi - DPCC",23-03-2024 22:00:00,28.647622,77.3158090,NO2,34,139,72
India,Delhi,Delhi,"Anand Vihar, Delhi - DPCC",23-03-2024 22:00:00,28.647622,77.3158090,SO2,NA,NA,NA
India,Delhi,Delhi,"Ashok Vihar, Delhi - DPCC",23-03-2024 22:00:00,28.695381,77.181665,OZONE,2,7,5
India,Delhi,Delhi,"Bawana, Delhi - DPCC",23-03-2024 22:00:00,28.776200,77.051074,OZONE,3,80,51
India,Delhi,Delhi,"Burari Crossing, Delhi - IMD",23-03-2024 22:00:00,28.7256504,77.2011573,NO2,2,10,6
India,Delhi,Delhi,"Burari Crossing, Delhi - IMD",23-03-2024 22:00:00,28.7256504,77.2011573,OZONE,1,50,34
India,Delhi,Delhi,"Chandni Chowk, Delhi - IITM",23-03-2024 22:00:00,28.656756,77.227234,PM2.5,127,373,276
India,Delhi,Delhi,"Chandni Chowk, Delhi - IITM",23-03-2024 22:00:00,28.656756,77.227234,PM10,129,435,217
India,Delhi,Delhi,"Chandni Chowk, Delhi - IITM",23-03-2024 22:00:00,28.656756,77.227234,NH3,6,38,17
India,Delhi,Delhi,"Chandni Chowk, Delhi - IITM",23-03-2024 22:00:00,28.656756,77.227234,CO,72,162,98
India,Delhi,Delhi,"DTU, Delhi - CPCB",23-03-2024 22:00:00,28.7500499,77.1112615,PM10,83,415,203
India,Delhi,Delhi,"Dr. Karni Singh Shooting Range, Delhi - DPCC",23-03-2024 22:00:00,28.498571,77.264840,NO2,28,148,89
India,Delhi,Delhi,"Dr. Karni Singh Shooting Range, Delhi - DPCC",23-03-2024 22:00:00,28.498571,77.264840,OZONE,1,172,90
India,Delhi,Delhi,"Dwarka-Sector 8, Delhi - DPCC ",23-03-2024 22:00:00,28.5710274,77.0719006,NH3,3,9,5
India,Delhi,Delhi,"IGI Airport (T3), Delhi - IMD",23-03-2024 22:00:00,28.5627763,77.1180053,CO,12,110,25
India,Delhi,Delhi,"IHBAS, Dilshad Garden, Delhi - CPCB",23-03-2024 22:00:00,28.6811736,77.3025234,OZONE,11,52,28
India,Delhi,Delhi,"ITO, Delhi - CPCB",23-03-2024 22:00:00,28.628624,77.241060,PM2.5,13,378,248
India,Delhi,Delhi,"ITO, Delhi - CPCB",23-03-2024 22:00:00,28.628624,77.241060,SO2,12,44,20
India,Delhi,Delhi,"ITO, Delhi - CPCB",23-03-2024 22:00:00,28.628624,77.241060,OZONE,18,68,44
India,Delhi,Delhi,"Jahangirpuri, Delhi - DPCC",23-03-2024 22:00:00,28.732820,77.170633,NO2,25,158,90
India,Delhi,Delhi,"Jawaharlal Nehru Stadium, Delhi - DPCC",23-03-2024 22:00:00,28.580280,77.233829,NH3,7,11,9
India,Delhi,Delhi,"Major Dhyan Chand National Stadium, Delhi - DPCC",23-03-2024 22:00:00,28.611281,77.237738,NO2,21,195,99
India,Delhi,Delhi,"Mundka, Delhi - DPCC",23-03-2024 22:00:00,28.684678,77.076574,PM10,149,500,306
India,Delhi,Delhi,"Mundka, Delhi - DPCC",23-03-2024 22:00:00,28.684678,77.076574,NO2,15,152,60
India,Delhi,Delhi,"NSIT Dwarka, Delhi - CPCB",23-03-2024 22:00:00,28.60909,77.0325413,OZONE,2,46,29
India,Delhi,Delhi,"Najafgarh, Delhi - DPCC",23-03-2024 22:00:00,28.570173,76.933762,PM10,68,386,176
India,Delhi,Delhi,"Najafgarh, Delhi - DPCC",23-03-2024 22:00:00,28.570173,76.933762,NH3,12,13,13
India,Delhi,Delhi,"Najafgarh, Delhi - DPCC",23-03-2024 22:00:00,28.570173,76.933762,SO2,9,15,12
India,Delhi,Delhi,"Najafgarh, Delhi - DPCC",23-03-2024 22:00:00,28.570173,76.933762,CO,4,94,18
India,Delhi,Delhi,"Nehru Nagar, Delhi - DPCC",23-03-2024 22:00:00,28.567890,77.250515,OZONE,3,104,58
India,Delhi,Delhi,"New Moti Bagh, Delhi - MHUA",23-03-2024 22:00:00,28.57834,77.18400,CO,8,121,25
India,Delhi,Delhi,"North Campus, DU, Delhi - IMD",23-03-2024 22:00:00,28.6573814,77.1585447,OZONE,1,26,16
India,Delhi,Delhi,"Okhla Phase-2, Delhi - DPCC",23-03-2024 22:00:00,28.530785,77.271255,PM10,113,473,218
India,Delhi,Delhi,"Okhla Phase-2, Delhi - DPCC",23-03-2024 22:00:00,28.530785,77.271255,NH3,9,16,12
India,Delhi,Delhi,"Patparganj, Delhi - DPCC",23-03-2024 22:00:00,28.623763,77.287209,NO2,29,75,47
India,Delhi,Delhi,"Pusa, Delhi - DPCC",23-03-2024 22:00:00,28.639652,77.146275,SO2,2,50,18
India,Delhi,Delhi,"Pusa, Delhi - DPCC",23-03-2024 22:00:00,28.639652,77.146275,OZONE,10,60,32
India,Delhi,Delhi,"Pusa, Delhi - IMD",23-03-2024 22:00:00,28.636110,77.173332,CO,63,117,67
India,Delhi,Delhi,"R K Puram, Delhi - DPCC",23-03-2024 22:00:00,28.563262,77.186937,NO2,4,70,18
India,Delhi,Delhi,"Rohini, Delhi - DPCC",23-03-2024 22:00:00,28.732528,77.119920,NH3,9,16,12
India,Delhi,Delhi,"Rohini, Delhi - DPCC",23-03-2024 22:00:00,28.732528,77.119920,SO2,4,48,13
India,Delhi,Delhi,"Sirifort, Delhi - CPCB",23-03-2024 22:00:00,28.5504249,77.2159377,PM10,81,271,148
India,Delhi,Delhi,"Sirifort, Delhi - CPCB",23-03-2024 22:00:00,28.5504249,77.2159377,OZONE,4,64,31
India,Delhi,Delhi,"Sri Aurobindo Marg, Delhi - DPCC",23-03-2024 22:00:00,28.531346,77.190156,CO,1,111,19
India,Delhi,Delhi,"Wazirpur, Delhi - DPCC",23-03-2024 22:00:00,28.699793,77.165453,SO2,1,69,29
India,Delhi,Delhi,"Wazirpur, Delhi - DPCC",23-03-2024 22:00:00,28.699793,77.165453,CO,12,126,58
India,Gujarat,Ahmedabad,"Chandkheda, Ahmedabad - IITM",23-03-2024 22:00:00,23.107969,72.574648,NO2,121,183,149
India,Gujarat,Ahmedabad,"Chandkheda, Ahmedabad - IITM",23-03-2024 22:00:00,23.107969,72.574648,CO,23,109,50
India,Gujarat,Ahmedabad,"Gyaspur, Ahmedabad - IITM",23-03-2024 22:00:00,22.977134,72.553024,PM2.5,66,291,123
India,Gujarat,Ahmedabad,"Raikhad, Ahmedabad - IITM",23-03-2024 22:00:00,23.020509,72.579261,PM2.5,40,334,165
India,Gujarat,Ahmedabad,"Raikhad, Ahmedabad - IITM",23-03-2024 22:00:00,23.020509,72.579261,NO2,14,126,44
India,Gujarat,Ahmedabad,"Rakhial, Ahmedabad - IITM",23-03-2024 22:00:00,23.016834,72.625775,CO,34,100,63
India,Gujarat,Ahmedabad,"SAC ISRO Satellite, Ahmedabad - IITM",23-03-2024 22:00:00,23.023389,72.515201,PM2.5,139,161,148
India,Gujarat,Ahmedabad,"SAC ISRO Satellite, Ahmedabad - IITM",23-03-2024 22:00:00,23.023389,72.515201,CO,26,37,28
India,Gujarat,Ahmedabad,"SVPI Airport Hansol, Ahmedabad - IITM",23-03-2024 22:00:00,23.076793,72.627874,NH3,4,5,4
India,Gujarat,Ahmedabad,"Sardar Vallabhbhai Patel Stadium, Ahmedabad - IITM",23-03-2024 22:00:00,23.043070,72.562968,NO2,1,17,12
India,Gujarat,Ahmedabad,"Sardar Vallabhbhai Patel Stadium, Ahmedabad - IITM",23-03-2024 22:00:00,23.043070,72.562968,NH3,2,2,2
India,Gujarat,Ahmedabad,"Sardar Vallabhbhai Patel Stadium, Ahmedabad - IITM",23-03-2024 22:00:00,23.043070,72.562968,OZONE,15,24,19
India,Gujarat,Ankleshwar,"GIDC, Ankleshwar - GPCB",23-03-2024 22:00:00,21.613267,73.010555,PM2.5,65,151,92
India,Gujarat,Ankleshwar,"GIDC, Ankleshwar - GPCB",23-03-2024 22:00:00,21.613267,73.010555,NH3,7,7,7
India,Gujarat,Ankleshwar,"GIDC, Ankleshwar - GPCB",23-03-2024 22:00:00,21.613267,73.010555,OZONE,22,36,31
India,Gujarat,Gandhinagar,"GIFT City, Gandhinagar - IITM",23-03-2024 22:00:00,23.163798,72.677768,PM10,58,225,98
India,Gujarat,Gandhinagar,"GIFT City, Gandhinagar - IITM",23-03-2024 22:00:00,23.163798,72.677768,SO2,8,18,11
India,Gujarat,Gandhinagar,"Sector-10, Gandhinagar - GPCB",23-03-2024 22:00:00,23.221714,72.654328,NO2,19,25,21
India,Gujarat,Gandhinagar,"Sector-10, Gandhinagar - GPCB",23-03-2024 22:00:00,23.221714,72.654328,SO2,4,41,15
India,Gujarat,Surat,"Science Center, Surat - SMC",23-03-2024 22:00:00,21.170046,72.795405,NO2,28,48,37
India,Gujarat,Vapi,"Phase-1 GIDC, Vapi - GPCB",23-03-2024 22:00:00,20.362421,72.918013,SO2,50,52,51
India,Gujarat,Vatva,"Phase-4 GIDC, Vatva - GPCB",23-03-2024 22:00:00,22.969611,72.643500,PM2.5,60,231,122
India,Haryana,Ambala,"Patti Mehar, Ambala - HSPCB",23-03-2024 22:00:00,30.379589,76.778328,SO2,21,44,33
India,Haryana,Bahadurgarh,"Arya Nagar, Bahadurgarh - HSPCB",23-03-2024 22:00:00,28.6701,76.9254,CO,NA,NA,NA
India,Haryana,Ballabgarh,"Nathu Colony, Ballabgarh - HSPCB",23-03-2024 22:00:00,28.3419248,77.319699,SO2,5,22,14
India,Haryana,Charkhi Dadri,"Mini Secretariat, Charkhi Dadri - HSPCB",23-03-2024 22:00:00,28.593883,76.270653,SO2,10,41,20
India,Haryana,Charkhi Dadri,"Mini Secretariat, Charkhi Dadri - HSPCB",23-03-2024 22:00:00,28.593883,76.270653,OZONE,13,18,15
India,Haryana,Dharuhera,"Municipal Corporation Office, Dharuhera -  HSPCB",23-03-2024 22:00:00,28.206800,76.799700,PM10,107,409,232
India,Haryana,Dharuhera,"Municipal Corporation Office, Dharuhera -  HSPCB",23-03-2024 22:00:00,28.206800,76.799700,SO2,2,39,17
India,Haryana,Dharuhera,"Municipal Corporation Office, Dharuhera -  HSPCB",23-03-2024 22:00:00,28.206800,76.799700,OZONE,29,49,44
India,Haryana,Faridabad,"Sector 11, Faridabad - HSPCB",23-03-2024 22:00:00,28.376058,77.315741,PM2.5,118,378,266
India,Haryana,Faridabad,"Sector 11, Faridabad - HSPCB",23-03-2024 22:00:00,28.376058,77.315741,NH3,6,6,6
India,Haryana,Faridabad,"Sector 11, Faridabad - HSPCB",23-03-2024 22:00:00,28.376058,77.315741,SO2,6,7,6
India,Haryana,Faridabad,"Sector 11, Faridabad - HSPCB",23-03-2024 22:00:00,28.376058,77.315741,CO,30,78,40
India,Haryana,Faridabad,"Sector 30, Faridabad - HSPCB",23-03-2024 22:00:00,28.4417,77.3217,NO2,30,33,31
India,Haryana,Faridabad,"Sector- 16A, Faridabad - HSPCB",23-03-2024 22:00:00,28.4088421,77.3099081,CO,4,146,40
India,Haryana,Fatehabad,"Huda Sector, Fatehabad - HSPCB",23-03-2024 22:00:00,29.503664,75.467934,PM10,69,119,89
India,Haryana,Fatehabad,"Huda Sector, Fatehabad - HSPCB",23-03-2024 22:00:00,29.503664,75.467934,NO2,37,38,38
India,Haryana,Fatehabad,"Huda Sector, Fatehabad - HSPCB",23-03-2024 22:00:00,29.503664,75.467934,NH3,12,13,13
India,Haryana,Fatehabad,"Huda Sector, Fatehabad - HSPCB",23-03-2024 22:00:00,29.503664,75.467934,CO,5,13,8
India,Haryana,Gurugram,"Sector-51, Gurugram - HSPCB",23-03-2024 22:00:00,28.4227,77.0667,OZONE,27,67,56
India,Haryana,Gurugram,"Teri Gram, Gurugram - HSPCB",23-03-2024 22:00:00,28.4275,77.1465,PM2.5,129,359,244
India,Haryana,Gurugram,"Teri Gram, Gurugram - HSPCB",23-03-2024 22:00:00,28.4275,77.1465,SO2,3,5,4
India,Haryana,Gurugram,"Vikas Sadan, Gurugram - HSPCB",23-03-2024 22:00:00,28.4501238,77.0263051,OZONE,8,70,40
India,Haryana,Hisar,"Urban Estate-II, Hisar - HSPCB",23-03-2024 22:00:00,29.140560,75.744941,CO,40,66,50
India,Haryana,Jind,"Police Lines, Jind - HSPCB",23-03-2024 22:00:00,29.307814,76.337619,PM10,51,110,84
India,Haryana,Jind,"Police Lines, Jind - HSPCB",23-03-2024 22:00:00,29.307814,76.337619,NH3,2,6,4
India,Haryana,Jind,"Police Lines, Jind - HSPCB",23-03-2024 22:00:00,29.307814,76.337619,SO2,5,23,14
India,Haryana,Kaithal,"Rishi Nagar, Kaithal - HSPCB",23-03-2024 22:00:00,29.8006,76.4155,SO2,1,103,24
India,Haryana,Kurukshetra,"Sector-7, Kurukshetra - HSPCB",23-03-2024 22:00:00,29.966942,76.875879,SO2,1,123,23
India,Haryana,Kurukshetra,"Sector-7, Kurukshetra - HSPCB",23-03-2024 22:00:00,29.966942,76.875879,OZONE,1,62,43
India,Haryana,Mandikhera,"General Hospital, Mandikhera - HSPCB",23-03-2024 22:00:00,27.9002,76.9938,PM2.5,NA,NA,NA
India,Haryana,Manesar,"Sector-2 IMT, Manesar - HSPCB",23-03-2024 22:00:00,28.360699,76.936090,CO,NA,NA,NA
India,Haryana,Narnaul,"Shastri Nagar, Narnaul - HSPCB",23-03-2024 22:00:00,28.060249,76.113115,NH3,4,24,11
India,Haryana,Palwal,"Shyam Nagar, Palwal - HSPCB",23-03-2024 22:00:00,28.1485564,77.3320667,NO2,23,24,24
India,Haryana,Palwal,"Shyam Nagar, Palwal - HSPCB",23-03-2024 22:00:00,28.1485564,77.3320667,NH3,8,9,9
India,Haryana,Palwal,"Shyam Nagar, Palwal - HSPCB",23-03-2024 22:00:00,28.1485564,77.3320667,OZONE,9,55,28
India,Haryana,Panchkula,"Sector-6, Panchkula - HSPCB ",23-03-2024 22:00:00,30.7057778,76.8531805555555,PM2.5,7,103,33
India,Haryana,Panipat,"Sector-18, Panipat - HSPCB",23-03-2024 22:00:00,29.497973,76.993331,PM10,NA,NA,NA
India,Haryana,Rohtak,"MD University, Rohtak - HSPCB",23-03-2024 22:00:00,28.52123,76.37138,NO2,47,57,52
India,Haryana,Rohtak,"MD University, Rohtak - HSPCB",23-03-2024 22:00:00,28.52123,76.37138,SO2,5,8,7
India,Haryana,Sirsa,"F-Block, Sirsa - HSPCB",23-03-2024 22:00:00,29.536400,75.015800,SO2,NA,NA,NA
India,Haryana,Sonipat,"Murthal, Sonipat - HSPCB",23-03-2024 22:00:00,29.027200,77.062100,NH3,5,10,9
India,Haryana,Yamuna Nagar,"Gobind Pura, Yamuna Nagar - HSPCB",23-03-2024 22:00:00,30.1480566,77.2893471,NO2,11,29,18
India,Haryana,Yamuna Nagar,"Gobind Pura, Yamuna Nagar - HSPCB",23-03-2024 22:00:00,30.1480566,77.2893471,NH3,1,6,4
India,Jharkhand,Dhanbad,"Kalakusuma, Dhanbad - DMC",23-03-2024 22:00:00,23.811548,86.481238,CO,129,134,131
India,Jharkhand,Dhanbad,"Sardar Patel Nagar, Dhanbad - JSPCB",23-03-2024 22:00:00,23.80569,86.44268,NO2,NA,NA,NA
India,Jharkhand,Dhanbad,"Sardar Patel Nagar, Dhanbad - JSPCB",23-03-2024 22:00:00,23.80569,86.44268,OZONE,9,46,46
India,Karnataka,Bagalkot,"Vidayagiri, Bagalkot - KSPCB",23-03-2024 22:00:00,16.172806,75.659694,PM2.5,25,37,36
India,Karnataka,Bagalkot,"Vidayagiri, Bagalkot - KSPCB",23-03-2024 22:00:00,16.172806,75.659694,NO2,9,10,9
India,Karnataka,Bengaluru,"BTM Layout, Bengaluru - CPCB",23-03-2024 22:00:00,12.9135218,77.5950804,NO2,NA,NA,NA
India,Karnataka,Bengaluru,"BTM Layout, Bengaluru - CPCB",23-03-2024 22:00:00,12.9135218,77.5950804,OZONE,74,118,82
India,Karnataka,Bengaluru,"Hebbal, Bengaluru - KSPCB",23-03-2024 22:00:00,13.029152,77.585901,SO2,NA,NA,NA
India,Karnataka,Bengaluru,"Hombegowda Nagar, Bengaluru - KSPCB",23-03-2024 22:00:00,12.938539,77.590100,SO2,3,4,3
India,Karnataka,Bengaluru,"Jayanagar 5th Block, Bengaluru - KSPCB",23-03-2024 22:00:00,12.920984,77.584908,PM10,58,131,102
India,Karnataka,Bengaluru,"Jigani, Bengaluru - KSPCB",23-03-2024 22:00:00,12.7816279,77.6299145,PM2.5,12,287,97
India,Karnataka,Bengaluru,"Jigani, Bengaluru - KSPCB",23-03-2024 22:00:00,12.7816279,77.6299145,NO2,31,32,32
India,Karnataka,Bengaluru,"Jigani, Bengaluru - KSPCB",23-03-2024 22:00:00,12.7816279,77.6299145,OZONE,6,81,58
India,Karnataka,Bengaluru,"Kasturi Nagar, Bengaluru - KSPCB",23-03-2024 22:00:00,13.003872,77.664217,OZONE,15,108,91
India,Karnataka,Bengaluru,"Sanegurava Halli, Bengaluru - KSPCB",23-03-2024 22:00:00,12.990328,77.5431385,PM10,34,66,41
India,Karnataka,Bengaluru,"Sanegurava Halli, Bengaluru - KSPCB",23-03-2024 22:00:00,12.990328,77.5431385,SO2,2,3,3
India,Karnataka,Bengaluru,"Shivapura_Peenya, Bengaluru - KSPCB",23-03-2024 22:00:00,13.0246342,77.5080115,CO,24,48,33
India,Karnataka,Bengaluru,"Silk Board, Bengaluru - KSPCB",23-03-2024 22:00:00,12.917348,77.622813,PM2.5,39,76,54
India,Karnataka,Bengaluru,"Silk Board, Bengaluru - KSPCB",23-03-2024 22:00:00,12.917348,77.622813,CO,1,42,18
India,Karnataka,Bidar,"Naubad, Bidar - KSPCB",23-03-2024 22:00:00,17.930306,77.482194,PM10,74,111,90
India,Karnataka,Bidar,"Naubad, Bidar - KSPCB",23-03-2024 22:00:00,17.930306,77.482194,OZONE,24,46,39
India,Karnataka,Chamarajanagar,"Urban, Chamarajanagar - KSPCB",23-03-2024 22:00:00,11.55358,76.55521,PM10,44,46,45
India,Karnataka,Chamarajanagar,"Urban, Chamarajanagar - KSPCB",23-03-2024 22:00:00,11.55358,76.55521,OZONE,25,27,26
India,Karnataka,Chikkaballapur,"Chikkaballapur Rural, Chikkaballapur - KSPCB",23-03-2024 22:00:00,13.428828,77.731418,PM10,58,114,76
India,Karnataka,Chikkamagaluru,"Kalyana Nagara, Chikkamagaluru - KSPCB",23-03-2024 22:00:00,13.328028,75.797056,SO2,NA,NA,NA
India,Karnataka,Davanagere,"Devaraj Urs Badavane, Davanagere - KSPCB",23-03-2024 22:00:00,14.475800,75.905200,NH3,1,1,1
India,Karnataka,Davanagere,"Devaraj Urs Badavane, Davanagere - KSPCB",23-03-2024 22:00:00,14.475800,75.905200,CO,8,23,19
India,Karnataka,Dharwad,"Kalabhavan, Dharwad - KSPCB",23-03-2024 22:00:00,15.459706,75.008381,NO2,10,29,19
India,Karnataka,Dharwad,"Kalabhavan, Dharwad - KSPCB",23-03-2024 22:00:00,15.459706,75.008381,NH3,3,3,3
India,Karnataka,Hassan,"B.Katihalli, Hassan - KSPCB",23-03-2024 22:00:00,13.008556,76.125258,PM2.5,25,83,50
India,Karnataka,Hassan,"B.Katihalli, Hassan - KSPCB",23-03-2024 22:00:00,13.008556,76.125258,NH3,3,7,5
India,Karnataka,Haveri,"Ashwini Nagar, Haveri - KSPCB",23-03-2024 22:00:00,14.791800,75.389600,NH3,NA,NA,NA
India,Karnataka,Kalaburagi,"Mahatma Basaveswar Colony, Kalaburgi - KSPCB",23-03-2024 22:00:00,17.336318,76.847397,OZONE,7,22,17
India,Karnataka,Kolar,"Tamaka Ind. Area, Kolar - KSPCB",23-03-2024 22:00:00,13.1276288,78.1570122,SO2,9,25,15
India,Karnataka,Kolar,"Tamaka Ind. Area, Kolar - KSPCB",23-03-2024 22:00:00,13.1276288,78.1570122,OZONE,12,43,41
India,Karnataka,Madikeri,"Stuart Hill, Madikeri - KSPCB",23-03-2024 22:00:00,12.415911,75.735050,PM10,42,60,51
India,Karnataka,Madikeri,"Stuart Hill, Madikeri - KSPCB",23-03-2024 22:00:00,12.415911,75.735050,NO2,2,13,5
India,Karnataka,Madikeri,"Stuart Hill, Madikeri - KSPCB",23-03-2024 22:00:00,12.415911,75.735050,SO2,4,4,4
India,Karnataka,Mysuru,"Hebbal 1st Stage, Mysuru - KSPCB",23-03-2024 22:00:00,12.21041,76.37376,NO2,6,42,23
India,Karnataka,Mysuru,"Hebbal 1st Stage, Mysuru - KSPCB",23-03-2024 22:00:00,12.21041,76.37376,NH3,1,3,2
India,Karnataka,Mysuru,"Hebbal 1st Stage, Mysuru - KSPCB",23-03-2024 22:00:00,12.21041,76.37376,OZONE,13,69,53
India,Karnataka,Raichur,"Haji Colony, Raichur - KSPCB",23-03-2024 22:00:00,16.208139,77.348417,SO2,65,84,74
