country,state,city,station,last_update,latitude,longitude,pollutant_id,pollutant_min,pollutant_max,pollutant_avg
India,Andhra_Pradesh,Amaravati,"Secretariat, Amaravati - APPCB",24-06-2024 14:00:00,16.5150833,80.5181667,PM2.5,11,44,28
India,Andhra_Pradesh,Amaravati,"Secretariat, Amaravati - APPCB",24-06-2024 14:00:00,16.5150833,80.5181667,NO2,3,29,11
India,Andhra_Pradesh,Amaravati,"Secretariat, Amaravati - APPCB",24-06-2024 14:00:00,16.5150833,80.5181667,SO2,6,19,17
India,Andhra_Pradesh,Anantapur,"Gulzarpet, Anantapur - APPCB",24-06-2024 14:00:00,14.675886,77.593027,NH3,4,4,4
India,Andhra_Pradesh,Anantapur,"Gulzarpet, Anantapur - APPCB",24-06-2024 14:00:00,14.675886,77.593027,OZONE,6,30,24
India,Andhra_Pradesh,Chittoor,"Gangineni Cheruvu, Chittoor - APPCB",24-06-2024 14:00:00,13.204880,79.097889,PM2.5,NA,NA,NA
India,Andhra_Pradesh,Kadapa,"Yerramukkapalli, Kadapa - APPCB",24-06-2024 14:00:00,14.465052,78.824187,SO2,1,2,2
India,Andhra_Pradesh,Kadapa,"Yerramukkapalli, Kadapa - APPCB",24-06-2024 14:00:00,14.465052,78.824187,CO,4,16,10
India,Andhra_Pradesh,Rajamahendravaram,"Anand Kala Kshetram, Rajamahendravaram - APPCB",24-06-2024 14:00:00,16.9872867,81.7363176,PM2.5,15,52,32
India,Andhra_Pradesh,Rajamahendravaram,"Anand Kala Kshetram, Rajamahendravaram - APPCB",24-06-2024 14:00:00,16.9872867,81.7363176,SO2,10,13,12
India,Andhra_Pradesh,Rajamahendravaram,"Anand Kala Kshetram, Rajamahendravaram - APPCB",24-06-2024 14:00:00,16.9872867,81.7363176,CO,6,69,26
India,Andhra_Pradesh,Tirupati,"Vaikuntapuram, Tirupati - APPCB",24-06-2024 14:00:00,13.615387,79.409230,NO2,NA,NA,NA
India,Andhra_Pradesh,Vijayawada,"HB Colony, Vijayawada - APPCB",24-06-2024 14:00:00,16.536107,80.594233,NO2,9,17,12
India,Andhra_Pradesh,Vijayawada,"HB Colony, Vijayawada - APPCB",24-06-2024 14:00:00,16.536107,80.594233,NH3,4,4,4
India,Andhra_Pradesh,Vijayawada,"Kanuru, Vijayawada - APPCB",24-06-2024 14:00:00,16.486692,80.699436,SO2,6,11,8
India,Andhra_Pradesh,Vijayawada,"Rajiv Gandhi Park, Vijayawada - APPCB",24-06-2024 14:00:00,16.509717,80.612222,NO2,27,40,32
India,Andhra_Pradesh,Vijayawada,"Rajiv Gandhi Park, Vijayawada - APPCB",24-06-2024 14:00:00,16.509717,80.612222,CO,38,40,39
India,Andhra_Pradesh,Visakhapatnam,"GVM Corporation, Visakhapatnam - APPCB",24-06-2024 14:00:00,17.72,83.3,PM2.5,27,72,48
India,Andhra_Pradesh,Visakhapatnam,"GVM Corporation, Visakhapatnam - APPCB",24-06-2024 14:00:00,17.72,83.3,NH3,2,5,4
India,Andhra_Pradesh,Visakhapatnam,"GVM Corporation, Visakhapatnam - APPCB",24-06-2024 14:00:00,17.72,83.3,OZONE,10,153,40
India,Assam,Byrnihat,"Central Academy for SFS, Byrnihat - PCBA",24-06-2024 14:00:00,26.071318,91.87488,PM10,19,500,204
India,Assam,Guwahati,"IITG, Guwahati - PCBA",24-06-2024 14:00:00,26.2028636,91.70046436,NO2,NA,NA,NA
India,Assam,Guwahati,"IITG, Guwahati - PCBA",24-06-2024 14:00:00,26.2028636,91.70046436,NH3,NA,NA,NA
India,Assam,Guwahati,"IITG, Guwahati - PCBA",24-06-2024 14:00:00,26.2028636,91.70046436,SO2,NA,NA,NA
India,Assam,Guwahati,"Pan Bazaar, Guwahati - PCBA",24-06-2024 14:00:00,26.187500,91.744194,CO,14,28,24
India,Assam,Guwahati,"Railway Colony, Guwahati - PCBA",24-06-2024 14:00:00,26.181742,91.78063,SO2,2,2,2
India,Assam,Nagaon,"Christianpatty, Nagaon - PCBA",24-06-2024 14:00:00,26.349082,92.68449,NO2,1,14,5
India,Assam,Nalbari,"Bata Chowk, Nalbari - PCBA",24-06-2024 14:00:00,26.446912,91.439057,PM2.5,5,75,42
India,Assam,Silchar,"Tarapur, Silchar - PCBA",24-06-2024 14:00:00,24.82827,92.79525,NO2,9,9,9
India,Bihar,Araria,"Kharahiya Basti, Araria - BSPCB",24-06-2024 14:00:00,26.146529,87.454184,NO2,NA,NA,NA
India,Bihar,Araria,"Kharahiya Basti, Araria - BSPCB",24-06-2024 14:00:00,26.146529,87.454184,NH3,NA,NA,NA
India,Bihar,Arrah,"New DM Office, Arrah - BSPCB",24-06-2024 14:00:00,25.5626095,84.663264,PM2.5,18,47,29
India,Bihar,Aurangabad,"Gurdeo Nagar, Aurangabad - BSPCB",24-06-2024 14:00:00,24.75746,84.366208,PM2.5,NA,NA,NA
India,Bihar,Aurangabad,"Gurdeo Nagar, Aurangabad - BSPCB",24-06-2024 14:00:00,24.75746,84.366208,SO2,12,23,18
India,Bihar,Aurangabad,"Gurdeo Nagar, Aurangabad - BSPCB",24-06-2024 14:00:00,24.75746,84.366208,OZONE,14,89,54
India,Bihar,Bettiah,"Kamalnath Nagar, Bettiah - BSPCB",24-06-2024 14:00:00,26.80365,84.51954,OZONE,1,10,3
India,Bihar,Bhagalpur,"DM Office_Kachari Chowk, Bhagalpur - BSPCB",24-06-2024 14:00:00,25.251013,86.989001,PM10,52,115,86
India,Bihar,Bhagalpur,"Mayaganj, Bhagalpur - BSPCB",24-06-2024 14:00:00,25.265194,87.012947,NO2,NA,NA,NA
India,Bihar,Bhagalpur,"Mayaganj, Bhagalpur - BSPCB",24-06-2024 14:00:00,25.265194,87.012947,NH3,NA,NA,NA
India,Bihar,Bihar Sharif,"D M Colony, Bihar Sharif - BSPCB",24-06-2024 14:00:00,25.204762,85.514960,NO2,8,9,9
India,Bihar,Buxar,"Charitra Van, Buxar - BSPCB (Formerly known as Central Jail)",24-06-2024 14:00:00,25.567520,83.966379,PM2.5,NA,NA,NA
India,Bihar,Buxar,"Charitra Van, Buxar - BSPCB (Formerly known as Central Jail)",24-06-2024 14:00:00,25.567520,83.966379,NO2,1,2,1
India,Bihar,Chhapra,"Darshan Nagar, Chhapra - BSPCB",24-06-2024 14:00:00,25.7808257,84.7446768,NH3,6,12,8
India,Bihar,Chhapra,"Darshan Nagar, Chhapra - BSPCB",24-06-2024 14:00:00,25.7808257,84.7446768,OZONE,1,5,3
India,Bihar,Gaya,"Kareemganj, Gaya - BSPCB",24-06-2024 14:00:00,24.792403,84.992416,PM2.5,2,53,17
India,Bihar,Hajipur,"Industrial Area, Hajipur - BSPCB",24-06-2024 14:00:00,25.697189,85.245900,NH3,10,14,13
India,Bihar,Katihar,"Mirchaibari, Katihar - BSPCB",24-06-2024 14:00:00,25.560083,87.553265,CO,17,39,33
India,Bihar,Kishanganj,"SDM Office_Khagra, Kishanganj - BSPCB",24-06-2024 14:00:00,26.0881305,87.93840336,CO,5,8,7
India,Bihar,Kishanganj,"SDM Office_Khagra, Kishanganj - BSPCB",24-06-2024 14:00:00,26.0881305,87.93840336,OZONE,7,82,35
India,Bihar,Munger,"Town Hall, Munger - BSPCB",24-06-2024 14:00:00,25.376776,86.471523,PM10,32,109,71
India,Bihar,Muzaffarpur,"Buddha Colony, Muzaffarpur - BSPCB",24-06-2024 14:00:00,26.11442,85.39813,PM10,56,100,76
India,Bihar,Muzaffarpur,"MIT-Daudpur Kothi, Muzaffarpur - BSPCB",24-06-2024 14:00:00,26.1403345,85.3650192,PM2.5,40,123,63
India,Bihar,Muzaffarpur,"MIT-Daudpur Kothi, Muzaffarpur - BSPCB",24-06-2024 14:00:00,26.1403345,85.3650192,PM10,37,101,56
India,Bihar,Muzaffarpur,"MIT-Daudpur Kothi, Muzaffarpur - BSPCB",24-06-2024 14:00:00,26.1403345,85.3650192,NH3,12,13,12
India,Bihar,Muzaffarpur,"MIT-Daudpur Kothi, Muzaffarpur - BSPCB",24-06-2024 14:00:00,26.1403345,85.3650192,CO,10,108,84
India,Bihar,Muzaffarpur,"Muzaffarpur Collectorate, Muzaffarpur - BSPCB",24-06-2024 14:00:00,26.1209,85.3647,OZONE,25,98,33
India,Bihar,Patna,"Govt. High School Shikarpur, Patna - BSPCB",24-06-2024 14:00:00,25.592539,85.227158,SO2,NA,NA,NA
India,Bihar,Patna,"IGSC Planetarium Complex, Patna - BSPCB",24-06-2024 14:00:00,25.610369,85.132568,PM2.5,63,99,81
India,Bihar,Patna,"IGSC Planetarium Complex, Patna - BSPCB",24-06-2024 14:00:00,25.610369,85.132568,SO2,5,7,6
India,Bihar,Patna,"Muradpur, Patna - BSPCB",24-06-2024 14:00:00,25.619651,85.147382,PM10,121,186,150
India,Bihar,Patna,"Muradpur, Patna - BSPCB",24-06-2024 14:00:00,25.619651,85.147382,NO2,2,73,26
India,Bihar,Patna,"Rajbansi Nagar, Patna - BSPCB",24-06-2024 14:00:00,25.599486,85.113666,CO,14,53,25
India,Bihar,Patna,"Samanpura, Patna - BSPCB",24-06-2024 14:00:00,25.596727,85.085624,PM10,100,153,124
India,Bihar,Patna,"Samanpura, Patna - BSPCB",24-06-2024 14:00:00,25.596727,85.085624,NO2,1,63,12
India,Bihar,Patna,"Samanpura, Patna - BSPCB",24-06-2024 14:00:00,25.596727,85.085624,NH3,5,18,8
India,Bihar,Patna,"Samanpura, Patna - BSPCB",24-06-2024 14:00:00,25.596727,85.085624,CO,35,54,41
India,Bihar,Purnia,"Mariam Nagar, Purnia - BSPCB",24-06-2024 14:00:00,25.366336,87.117468,PM2.5,27,173,63
India,Bihar,Rajgir,"Dangi Tola, Rajgir - BSPCB",24-06-2024 14:00:00,25.03280,85.41948,PM2.5,25,120,46
India,Bihar,Rajgir,"Dangi Tola, Rajgir - BSPCB",24-06-2024 14:00:00,25.03280,85.41948,PM10,28,115,51
India,Bihar,Sasaram,"Dada Peer, Sasaram - BSPCB",24-06-2024 14:00:00,24.952822,84.002396,NO2,1,62,20
India,Bihar,Sasaram,"Dada Peer, Sasaram - BSPCB",24-06-2024 14:00:00,24.952822,84.002396,CO,46,78,66
India,Bihar,Siwan,"Chitragupta Nagar, Siwan - BSPCB",24-06-2024 14:00:00,26.2271665,84.3570427,NH3,2,9,6
India,Bihar,Siwan,"Chitragupta Nagar, Siwan - BSPCB",24-06-2024 14:00:00,26.2271665,84.3570427,CO,64,109,103
India,Bihar,Siwan,"Chitragupta Nagar, Siwan - BSPCB",24-06-2024 14:00:00,26.2271665,84.3570427,OZONE,1,32,14
India,Chandigarh,Chandigarh,"Sector 22, Chandigarh - CPCC",24-06-2024 14:00:00,30.735567,76.775714,NH3,7,16,11
India,Chandigarh,Chandigarh,"Sector-25, Chandigarh - CPCC",24-06-2024 14:00:00,30.751462,76.762879,PM2.5,93,170,134
India,Chandigarh,Chandigarh,"Sector-25, Chandigarh - CPCC",24-06-2024 14:00:00,30.751462,76.762879,SO2,1,9,5
India,Chandigarh,Chandigarh,"Sector-53, Chandigarh - CPCC",24-06-2024 14:00:00,30.719859,76.738637,PM10,80,140,117
India,Chandigarh,Chandigarh,"Sector-53, Chandigarh - CPCC",24-06-2024 14:00:00,30.719859,76.738637,NH3,5,10,7
India,Chandigarh,Chandigarh,"Sector-53, Chandigarh - CPCC",24-06-2024 14:00:00,30.719859,76.738637,CO,40,94,48
India,Chhattisgarh,Bhilai,"32Bungalows, Bhilai - CECB",24-06-2024 14:00:00,21.194815,81.314770,CO,9,17,10
India,Chhattisgarh,Bhilai,"Hathkhoj, Bhilai - CECB",24-06-2024 14:00:00,21.224231,81.408350,PM2.5,10,33,19
India,Chhattisgarh,Bhilai,"Hathkhoj, Bhilai - CECB",24-06-2024 14:00:00,21.224231,81.408350,NH3,9,10,10
India,Chhattisgarh,Bilaspur,"Mangala, Bilaspur - NTPC",24-06-2024 14:00:00,22.08815,82.13737,SO2,3,20,15
India,Chhattisgarh,Chhal,"Nawapara SECL Colony, Chhal - CECB",24-06-2024 14:00:00,22.118125,83.140608,NH3,NA,NA,NA
India,Chhattisgarh,Korba,"Rampur, Korba - CECB",24-06-2024 14:00:00,22.368195,82.746431,OZONE,4,6,4
India,Chhattisgarh,Milupara,"Govt. Higher Secondary School, Milupara - CECB",24-06-2024 14:00:00,22.1910172,83.5197009,CO,5,34,10
India,Chhattisgarh,Raipur,"AIIMS, Raipur - CECB",24-06-2024 14:00:00,21.258815,81.578979,PM10,17,41,28
India,Chhattisgarh,Raipur,"AIIMS, Raipur - CECB",24-06-2024 14:00:00,21.258815,81.578979,CO,16,28,21
India,Chhattisgarh,Raipur,"Bhatagaon New ISBT, Raipur - CECB",24-06-2024 14:00:00,21.219665,81.630094,PM10,NA,NA,NA
India,Chhattisgarh,Raipur,"Siltara Phase-II, Raipur - CECB",24-06-2024 14:00:00,21.371751,81.664929,PM2.5,14,57,35
India,Chhattisgarh,Raipur,"Siltara Phase-II, Raipur - CECB",24-06-2024 14:00:00,21.371751,81.664929,PM10,26,85,54
India,Chhattisgarh,Tumidih,"OP Jindal Industrial Park, Tumidih - CECB",24-06-2024 14:00:00,22.06631475,83.33820077,PM2.5,1,303,51
India,Chhattisgarh,Tumidih,"OP Jindal Industrial Park, Tumidih - CECB",24-06-2024 14:00:00,22.06631475,83.33820077,OZONE,5,36,19
India,Delhi,Delhi,"Alipur, Delhi - DPCC",24-06-2024 14:00:00,28.815329,77.153010,SO2,10,27,19
India,Delhi,Delhi,"Alipur, Delhi - DPCC",24-06-2024 14:00:00,28.815329,77.153010,CO,35,53,42
India,Delhi,Delhi,"Ashok Vihar, Delhi - DPCC",24-06-2024 14:00:00,28.695381,77.181665,PM10,NA,NA,NA
India,Delhi,Delhi,"Ashok Vihar, Delhi - DPCC",24-06-2024 14:00:00,28.695381,77.181665,NH3,NA,NA,NA
India,Delhi,Delhi,"Aya Nagar, Delhi - IMD",24-06-2024 14:00:00,28.4706914,77.1099364,NO2,33,42,38
India,Delhi,Delhi,"Burari Crossing, Delhi - IMD",24-06-2024 14:00:00,28.7256504,77.2011573,PM2.5,42,157,98
India,Delhi,Delhi,"CRRI Mathura Road, Delhi - IMD",24-06-2024 14:00:00,28.5512005,77.2735737,PM2.5,46,192,96
India,Delhi,Delhi,"Chandni Chowk, Delhi - IITM",24-06-2024 14:00:00,28.656756,77.227234,SO2,7,52,36
India,Delhi,Delhi,"DTU, Delhi - CPCB",24-06-2024 14:00:00,28.7500499,77.1112615,NH3,17,19,18
India,Delhi,Delhi,"DTU, Delhi - CPCB",24-06-2024 14:00:00,28.7500499,77.1112615,OZONE,36,128,68
India,Delhi,Delhi,"Dr. Karni Singh Shooting Range, Delhi - DPCC",24-06-2024 14:00:00,28.498571,77.264840,CO,35,64,49
India,Delhi,Delhi,"Dwarka-Sector 8, Delhi - DPCC ",24-06-2024 14:00:00,28.5710274,77.0719006,PM10,69,244,153
India,Delhi,Delhi,"IGI Airport (T3), Delhi - IMD",24-06-2024 14:00:00,28.5627763,77.1180053,NO2,24,67,40
India,Delhi,Delhi,"Jahangirpuri, Delhi - DPCC",24-06-2024 14:00:00,28.732820,77.170633,NO2,20,62,35
India,Delhi,Delhi,"Jawaharlal Nehru Stadium, Delhi - DPCC",24-06-2024 14:00:00,28.580280,77.233829,PM10,81,133,109
India,Delhi,Delhi,"Jawaharlal Nehru Stadium, Delhi - DPCC",24-06-2024 14:00:00,28.580280,77.233829,SO2,10,20,14
India,Delhi,Delhi,"Lodhi Road, Delhi - IMD",24-06-2024 14:00:00,28.5918245,77.2273074,NO2,2,11,4
India,Delhi,Delhi,"Lodhi Road, Delhi - IMD",24-06-2024 14:00:00,28.5918245,77.2273074,CO,32,40,36
India,Delhi,Delhi,"Mandir Marg, Delhi - DPCC",24-06-2024 14:00:00,28.636429,77.201067,PM10,67,144,105
India,Delhi,Delhi,"Mandir Marg, Delhi - DPCC",24-06-2024 14:00:00,28.636429,77.201067,NO2,40,100,75
India,Delhi,Delhi,"Mandir Marg, Delhi - DPCC",24-06-2024 14:00:00,28.636429,77.201067,NH3,5,9,6
India,Delhi,Delhi,"Mundka, Delhi - DPCC",24-06-2024 14:00:00,28.684678,77.076574,PM2.5,78,157,101
India,Delhi,Delhi,"NSIT Dwarka, Delhi - CPCB",24-06-2024 14:00:00,28.60909,77.0325413,NH3,14,16,15
India,Delhi,Delhi,"Narela, Delhi - DPCC",24-06-2024 14:00:00,28.822836,77.101981,PM2.5,79,166,107
India,Delhi,Delhi,"Narela, Delhi - DPCC",24-06-2024 14:00:00,28.822836,77.101981,NH3,5,6,5
India,Delhi,Delhi,"Narela, Delhi - DPCC",24-06-2024 14:00:00,28.822836,77.101981,CO,36,57,47
India,Delhi,Delhi,"Nehru Nagar, Delhi - DPCC",24-06-2024 14:00:00,28.567890,77.250515,NH3,2,4,3
India,Delhi,Delhi,"New Moti Bagh, Delhi - MHUA",24-06-2024 14:00:00,28.57834,77.18400,PM2.5,76,500,277
India,Delhi,Delhi,"North Campus, DU, Delhi - IMD",24-06-2024 14:00:00,28.6573814,77.1585447,NO2,12,20,14
India,Delhi,Delhi,"Okhla Phase-2, Delhi - DPCC",24-06-2024 14:00:00,28.530785,77.271255,NO2,19,112,56
India,Delhi,Delhi,"Patparganj, Delhi - DPCC",24-06-2024 14:00:00,28.623763,77.287209,PM2.5,45,130,76
India,Delhi,Delhi,"Pusa, Delhi - DPCC",24-06-2024 14:00:00,28.639652,77.146275,CO,40,120,56
India,Delhi,Delhi,"Pusa, Delhi - IMD",24-06-2024 14:00:00,28.636110,77.173332,OZONE,8,31,18
India,Delhi,Delhi,"R K Puram, Delhi - DPCC",24-06-2024 14:00:00,28.563262,77.186937,NO2,6,52,24
India,Delhi,Delhi,"R K Puram, Delhi - DPCC",24-06-2024 14:00:00,28.563262,77.186937,OZONE,3,93,17
India,Delhi,Delhi,"Rohini, Delhi - DPCC",24-06-2024 14:00:00,28.732528,77.119920,NH3,12,20,16
India,Delhi,Delhi,"Shadipur, Delhi - CPCB",24-06-2024 14:00:00,28.6514781,77.1473105,PM10,131,197,155
India,Delhi,Delhi,"Shadipur, Delhi - CPCB",24-06-2024 14:00:00,28.6514781,77.1473105,NO2,46,157,65
India,Delhi,Delhi,"Sirifort, Delhi - CPCB",24-06-2024 14:00:00,28.5504249,77.2159377,PM10,NA,NA,NA
India,Delhi,Delhi,"Sonia Vihar, Delhi - DPCC",24-06-2024 14:00:00,28.710508,77.249485,NH3,6,65,21
India,Delhi,Delhi,"Sonia Vihar, Delhi - DPCC",24-06-2024 14:00:00,28.710508,77.249485,SO2,2,8,5
India,Delhi,Delhi,"Vivek Vihar, Delhi - DPCC",24-06-2024 14:00:00,28.672342,77.315260,NH3,18,18,18
India,Delhi,Delhi,"Vivek Vihar, Delhi - DPCC",24-06-2024 14:00:00,28.672342,77.315260,SO2,12,26,16
India,Delhi,Delhi,"Wazirpur, Delhi - DPCC",24-06-2024 14:00:00,28.699793,77.165453,PM10,101,189,148
India,Delhi,Delhi,"Wazirpur, Delhi - DPCC",24-06-2024 14:00:00,28.699793,77.165453,NO2,37,105,56
India,Delhi,Delhi,"Wazirpur, Delhi - DPCC",24-06-2024 14:00:00,28.699793,77.165453,NH3,6,10,9
India,Gujarat,Ahmedabad,"Chandkheda, Ahmedabad - IITM",24-06-2024 14:00:00,23.107969,72.574648,PM2.5,37,317,100
India,Gujarat,Ahmedabad,"Gyaspur, Ahmedabad - IITM",24-06-2024 14:00:00,22.977134,72.553024,NO2,NA,NA,NA
India,Gujarat,Ahmedabad,"Raikhad, Ahmedabad - IITM",24-06-2024 14:00:00,23.020509,72.579261,NH3,NA,NA,NA
India,Gujarat,Ahmedabad,"Raikhad, Ahmedabad - IITM",24-06-2024 14:00:00,23.020509,72.579261,SO2,NA,NA,NA
India,Gujarat,Ahmedabad,"Raikhad, Ahmedabad - IITM",24-06-2024 14:00:00,23.020509,72.579261,CO,8,52,18
India,Gujarat,Ahmedabad,"Sardar Vallabhbhai Patel Stadium, Ahmedabad - IITM",24-06-2024 14:00:00,23.043070,72.562968,PM10,60,150,95
India,Gujarat,Ankleshwar,"GIDC, Ankleshwar - GPCB",24-06-2024 14:00:00,21.613267,73.010555,NH3,2,4,3
India,Gujarat,Gandhinagar,"GIFT City, Gandhinagar - IITM",24-06-2024 14:00:00,23.163798,72.677768,NH3,7,8,8
India,Gujarat,Gandhinagar,"Sector-10, Gandhinagar - GPCB",24-06-2024 14:00:00,23.221714,72.654328,SO2,7,8,7
India,Gujarat,Gandhinagar,"Sector-10, Gandhinagar - GPCB",24-06-2024 14:00:00,23.221714,72.654328,CO,20,26,22
India,Gujarat,Vatva,"Phase-4 GIDC, Vatva - GPCB",24-06-2024 14:00:00,22.969611,72.643500,NO2,49,111,71
India,Haryana,Ambala,"Patti Mehar, Ambala - HSPCB",24-06-2024 14:00:00,30.379589,76.778328,PM2.5,7,28,17
India,Haryana,Ballabgarh,"Nathu Colony, Ballabgarh - HSPCB",24-06-2024 14:00:00,28.3419248,77.319699,NO2,6,13,12
India,Haryana,Bhiwani,"H.B. Colony, Bhiwani - HSPCB",24-06-2024 14:00:00,28.806223,76.141105,NO2,6,13,8
India,Haryana,Bhiwani,"H.B. Colony, Bhiwani - HSPCB",24-06-2024 14:00:00,28.806223,76.141105,SO2,3,16,9
India,Haryana,Bhiwani,"H.B. Colony, Bhiwani - HSPCB",24-06-2024 14:00:00,28.806223,76.141105,CO,25,79,27
India,Haryana,Charkhi Dadri,"Mini Secretariat, Charkhi Dadri - HSPCB",24-06-2024 14:00:00,28.593883,76.270653,PM10,48,115,76
India,Haryana,Charkhi Dadri,"Mini Secretariat, Charkhi Dadri - HSPCB",24-06-2024 14:00:00,28.593883,76.270653,NO2,15,25,18
India,Haryana,Charkhi Dadri,"Mini Secretariat, Charkhi Dadri - HSPCB",24-06-2024 14:00:00,28.593883,76.270653,OZONE,13,17,15
India,Haryana,Faridabad,"Sector 30, Faridabad - HSPCB",24-06-2024 14:00:00,28.4417,77.3217,PM10,146,159,153
India,Haryana,Faridabad,"Sector- 16A, Faridabad - HSPCB",24-06-2024 14:00:00,28.4088421,77.3099081,OZONE,14,14,14
India,Haryana,Fatehabad,"Huda Sector, Fatehabad - HSPCB",24-06-2024 14:00:00,29.503664,75.467934,CO,43,77,50
India,Haryana,Gurugram,"Teri Gram, Gurugram - HSPCB",24-06-2024 14:00:00,28.4275,77.1465,SO2,NA,NA,NA
India,Haryana,Gurugram,"Teri Gram, Gurugram - HSPCB",24-06-2024 14:00:00,28.4275,77.1465,OZONE,26,89,53
India,Haryana,Gurugram,"Vikas Sadan, Gurugram - HSPCB",24-06-2024 14:00:00,28.4501238,77.0263051,CO,50,131,82
India,Haryana,Hisar,"Urban Estate-II, Hisar - HSPCB",24-06-2024 14:00:00,29.140560,75.744941,OZONE,37,99,63
India,Haryana,Jind,"Police Lines, Jind - HSPCB",24-06-2024 14:00:00,29.307814,76.337619,PM2.5,57,98,72
India,Haryana,Jind,"Police Lines, Jind - HSPCB",24-06-2024 14:00:00,29.307814,76.337619,OZONE,24,99,66
India,Haryana,Karnal,"Sector-12, Karnal - HSPCB",24-06-2024 14:00:00,29.695300,77.002700,PM10,62,112,79
India,Haryana,Karnal,"Sector-12, Karnal - HSPCB",24-06-2024 14:00:00,29.695300,77.002700,CO,26,47,40
India,Haryana,Kurukshetra,"Sector-7, Kurukshetra - HSPCB",24-06-2024 14:00:00,29.966942,76.875879,PM10,86,117,100
India,Haryana,Kurukshetra,"Sector-7, Kurukshetra - HSPCB",24-06-2024 14:00:00,29.966942,76.875879,OZONE,61,100,73
India,Haryana,Mandikhera,"General Hospital, Mandikhera - HSPCB",24-06-2024 14:00:00,27.9002,76.9938,CO,NA,NA,NA
India,Haryana,Mandikhera,"General Hospital, Mandikhera - HSPCB",24-06-2024 14:00:00,27.9002,76.9938,OZONE,NA,NA,NA
India,Haryana,Manesar,"Sector-2 IMT, Manesar - HSPCB",24-06-2024 14:00:00,28.360699,76.936090,OZONE,10,60,22
India,Haryana,Palwal,"Shyam Nagar, Palwal - HSPCB",24-06-2024 14:00:00,28.1485564,77.3320667,NH3,8,9,9
India,Haryana,Panchkula,"Sector-6, Panchkula - HSPCB ",24-06-2024 14:00:00,30.7057778,76.8531805555555,PM2.5,79,220,130
India,Haryana,Panipat,"Sector-18, Panipat - HSPCB",24-06-2024 14:00:00,29.432304,76.972765,CO,24,26,25
India,Haryana,Sonipat,"Murthal, Sonipat - HSPCB",24-06-2024 14:00:00,29.027200,77.062100,PM10,63,107,82
India,Haryana,Sonipat,"Murthal, Sonipat - HSPCB",24-06-2024 14:00:00,29.027200,77.062100,CO,24,26,25
India,Haryana,Yamuna Nagar,"Gobind Pura, Yamuna Nagar - HSPCB",24-06-2024 14:00:00,30.1480566,77.2893471,PM10,NA,NA,NA
India,Himachal Pradesh,Baddi,"HIMUDA Complex Phase-1, Baddi - HPPCB",24-06-2024 14:00:00,30.943887,76.801991,PM2.5,28,143,71
India,Himachal Pradesh,Baddi,"HIMUDA Complex Phase-1, Baddi - HPPCB",24-06-2024 14:00:00,30.943887,76.801991,OZONE,70,256,117
India,Jammu_and_Kashmir,Srinagar,"Rajbagh, Srinagar - JKSPCB",24-06-2024 14:00:00,34.066206,74.819820,PM10,NA,NA,NA
India,Jharkhand,Dhanbad,"Sardar Patel Nagar, Dhanbad - JSPCB",24-06-2024 14:00:00,23.80569,86.44268,NO2,NA,NA,NA
India,Karnataka,Bengaluru,"Hebbal, Bengaluru - KSPCB",24-06-2024 14:00:00,13.029152,77.585901,PM10,5,40,20
India,Karnataka,Bengaluru,"Hebbal, Bengaluru - KSPCB",24-06-2024 14:00:00,13.029152,77.585901,NH3,1,1,1
India,Karnataka,Bengaluru,"Hombegowda Nagar, Bengaluru - KSPCB",24-06-2024 14:00:00,12.938539,77.590100,SO2,NA,NA,NA
India,Karnataka,Bengaluru,"Hombegowda Nagar, Bengaluru - KSPCB",24-06-2024 14:00:00,12.938539,77.590100,CO,NA,NA,NA
India,Karnataka,Bengaluru,"Jayanagar 5th Block, Bengaluru - KSPCB",24-06-2024 14:00:00,12.920984,77.584908,OZONE,13,16,14
India,Karnataka,Bengaluru,"Jigani, Bengaluru - KSPCB",24-06-2024 14:00:00,12.7816279,77.6299145,PM10,27,63,36
India,Karnataka,Bengaluru,"Jigani, Bengaluru - KSPCB",24-06-2024 14:00:00,12.7816279,77.6299145,NO2,39,41,40
India,Karnataka,Bengaluru,"Jigani, Bengaluru - KSPCB",24-06-2024 14:00:00,12.7816279,77.6299145,OZONE,27,48,41
India,Karnataka,Bengaluru,"Shivapura_Peenya, Bengaluru - KSPCB",24-06-2024 14:00:00,13.0246342,77.5080115,PM2.5,11,45,30
India,Karnataka,Chamarajanagar,"Urban, Chamarajanagar - KSPCB",24-06-2024 14:00:00,11.55358,76.55521,PM10,43,54,47
India,Karnataka,Chamarajanagar,"Urban, Chamarajanagar - KSPCB",24-06-2024 14:00:00,11.55358,76.55521,NH3,2,2,2
India,Karnataka,Chamarajanagar,"Urban, Chamarajanagar - KSPCB",24-06-2024 14:00:00,11.55358,76.55521,SO2,3,6,4
India,Karnataka,Chamarajanagar,"Urban, Chamarajanagar - KSPCB",24-06-2024 14:00:00,11.55358,76.55521,CO,22,120,26
India,Karnataka,Chamarajanagar,"Urban, Chamarajanagar - KSPCB",24-06-2024 14:00:00,11.55358,76.55521,OZONE,25,39,32
India,Karnataka,Davanagere,"Devaraj Urs Badavane, Davanagere - KSPCB",24-06-2024 14:00:00,14.475800,75.905200,NO2,10,13,11
India,Karnataka,Davanagere,"Devaraj Urs Badavane, Davanagere - KSPCB",24-06-2024 14:00:00,14.475800,75.905200,SO2,4,8,6
India,Karnataka,Dharwad,"Kalabhavan, Dharwad - KSPCB",24-06-2024 14:00:00,15.459706,75.008381,PM10,11,84,45
India,Karnataka,Hassan,"B.Katihalli, Hassan - KSPCB",24-06-2024 14:00:00,13.008556,76.125258,SO2,8,28,18
India,Karnataka,Haveri,"Ashwini Nagar, Haveri - KSPCB",24-06-2024 14:00:00,14.791800,75.389600,CO,36,38,37
India,Karnataka,Hubballi,"Lingaraj Nagar, Hubballi - KSPCB",24-06-2024 14:00:00,15.3714823,75.1160168,NH3,2,4,3
India,Karnataka,Koppal,"Diwator Nagar, Koppal - KSPCB",24-06-2024 14:00:00,15.347630,76.181767,PM10,4,17,9
India,Karnataka,Koppal,"Diwator Nagar, Koppal - KSPCB",24-06-2024 14:00:00,15.347630,76.181767,NH3,2,9,7
India,Karnataka,Mangalore,"Kadri, Mangalore - KSPCB",24-06-2024 14:00:00,12.889250,74.853000,SO2,10,10,10
India,Karnataka,Mangalore,"Kadri, Mangalore - KSPCB",24-06-2024 14:00:00,12.889250,74.853000,OZONE,28,33,31
India,Karnataka,Mysuru,"Hebbal 1st Stage, Mysuru - KSPCB",24-06-2024 14:00:00,12.21041,76.37376,PM2.5,7,24,14
India,Karnataka,Mysuru,"Hebbal 1st Stage, Mysuru - KSPCB",24-06-2024 14:00:00,12.21041,76.37376,SO2,1,3,2
India,Karnataka,Mysuru,"Hebbal 1st Stage, Mysuru - KSPCB",24-06-2024 14:00:00,12.21041,76.37376,CO,2,22,14
India,Karnataka,Raichur,"Haji Colony, Raichur - KSPCB",24-06-2024 14:00:00,16.208139,77.348417,PM10,NA,NA,NA
India,Karnataka,Raichur,"Haji Colony, Raichur - KSPCB",24-06-2024 14:00:00,16.208139,77.348417,SO2,NA,NA,NA
India,Karnataka,Ramanagara,"Vijay Nagar, Ramanagara - KSPCB",24-06-2024 14:00:00,12.733409,77.298051,PM10,2,37,13
India,Karnataka,Tumakuru,"Thimmalapura, Tumakuru - KSPCB",24-06-2024 14:00:00,13.377516,77.099072,PM2.5,14,45,24
India,Karnataka,Tumakuru,"Thimmalapura, Tumakuru - KSPCB",24-06-2024 14:00:00,13.377516,77.099072,CO,30,36,32
India,Karnataka,Udupi,"Brahmagiri, Udupi - KSPCB",24-06-2024 14:00:00,13.34194444,74.74694444,NO2,27,29,28
India,Karnataka,Udupi,"Brahmagiri, Udupi - KSPCB",24-06-2024 14:00:00,13.34194444,74.74694444,SO2,16,18,17
India,Karnataka,Vijayapura,"Ibrahimpur, Vijayapura - KSPCB",24-06-2024 14:00:00,16.802639,75.722694,PM2.5,25,31,30
India,Karnataka,Yadgir,"Collector Office, Yadgir - KSPCB",24-06-2024 14:00:00,16.7602,77.1428,OZONE,15,22,18
India,Kerala,Eloor,"Udyogamandal, Eloor - Kerala PCB",24-06-2024 14:00:00,10.073232,76.302765,OZONE,9,12,10
India,Kerala,Kannur,"Thavakkara, Kannur - Kerala PCB",24-06-2024 14:00:00,11.875000,75.373200,NO2,5,5,5
India,Kerala,Kannur,"Thavakkara, Kannur - Kerala PCB",24-06-2024 14:00:00,11.875000,75.373200,OZONE,29,30,29
India,Kerala,Kollam,"Polayathode, Kollam - Kerala PCB",24-06-2024 14:00:00,8.8787,76.6073,CO,14,17,15
India,Kerala,Thiruvananthapuram,"Kariavattom, Thiruvananthapuram - Kerala PCB",24-06-2024 14:00:00,8.563700,76.886500,PM2.5,29,37,32
India,Kerala,Thiruvananthapuram,"Plammoodu, Thiruvananthapuram - Kerala PCB",24-06-2024 14:00:00,8.5149093,76.9435879,SO2,4,17,11
India,Kerala,Thiruvananthapuram,"Plammoodu, Thiruvananthapuram - Kerala PCB",24-06-2024 14:00:00,8.5149093,76.9435879,OZONE,7,47,13
India,Kerala,Thrissur,"Corporation Ground, Thrissur - Kerala PCB",24-06-2024 14:00:00,10.532400,76.215900,PM10,58,70,64
India,Kerala,Thrissur,"Corporation Ground, Thrissur - Kerala PCB",24-06-2024 14:00:00,10.532400,76.215900,NO2,7,8,7
India,Madhya Pradesh,Bhopal,"Idgah Hills, Bhopal - MPPCB",24-06-2024 14:00:00,23.264759,77.381568,PM10,5,84,43
India,Madhya Pradesh,Bhopal,"Idgah Hills, Bhopal - MPPCB",24-06-2024 14:00:00,23.264759,77.381568,CO,14,54,27
India,Madhya Pradesh,Bhopal,"T T Nagar, Bhopal - MPPCB",24-06-2024 14:00:00,23.233584,77.400574,PM2.5,4,43,21
India,Madhya Pradesh,Bhopal,"T T Nagar, Bhopal - MPPCB",24-06-2024 14:00:00,23.233584,77.400574,SO2,3,33,17
India,Madhya Pradesh,Damoh,"Shrivastav Colony, Damoh - MPPCB",24-06-2024 14:00:00,23.81748678,79.446246,PM10,19,85,39
India,Madhya Pradesh,Damoh,"Shrivastav Colony, Damoh - MPPCB",24-06-2024 14:00:00,23.81748678,79.446246,SO2,32,35,33
India,Madhya Pradesh,Damoh,"Shrivastav Colony, Damoh - MPPCB",24-06-2024 14:00:00,23.81748678,79.446246,CO,18,18,18
India,Madhya Pradesh,Dewas,"Bhopal Chauraha, Dewas - MPPCB",24-06-2024 14:00:00,22.9682591,76.064118,SO2,13,38,27
India,Madhya Pradesh,Dewas,"Bhopal Chauraha, Dewas - MPPCB",24-06-2024 14:00:00,22.9682591,76.064118,OZONE,17,43,25
India,Madhya Pradesh,Gwalior,"City Center, Gwalior - MPPCB",24-06-2024 14:00:00,26.203442,78.193251,NH3,2,2,2
India,Madhya Pradesh,Gwalior,"Deen Dayal Nagar, Gwalior - MPPCB",24-06-2024 14:00:00,26.259242,78.216432,PM10,47,129,92
India,Madhya Pradesh,Gwalior,"Deen Dayal Nagar, Gwalior - MPPCB",24-06-2024 14:00:00,26.259242,78.216432,NH3,1,11,5
India,Madhya Pradesh,Gwalior,"Deen Dayal Nagar, Gwalior - MPPCB",24-06-2024 14:00:00,26.259242,78.216432,SO2,12,17,15
India,Madhya Pradesh,Gwalior,"Maharaj Bada, Gwalior - MPPCB",24-06-2024 14:00:00,26.200388,78.147714,NO2,14,54,26
India,Madhya Pradesh,Gwalior,"Phool Bagh, Gwalior - Mondelez Ind. Food",24-06-2024 14:00:00,26.210536,78.171,PM2.5,NA,NA,NA
India,Madhya Pradesh,Gwalior,"Phool Bagh, Gwalior - Mondelez Ind. Food",24-06-2024 14:00:00,26.210536,78.171,SO2,24,28,25
India,Madhya Pradesh,Indore,"Chhoti Gwaltoli, Indore - MPPCB",24-06-2024 14:00:00,22.4310,75.5213,PM2.5,2,88,36
India,Madhya Pradesh,Indore,"Chhoti Gwaltoli, Indore - MPPCB",24-06-2024 14:00:00,22.4310,75.5213,NH3,2,4,3
India,Madhya Pradesh,Indore,"Chhoti Gwaltoli, Indore - MPPCB",24-06-2024 14:00:00,22.4310,75.5213,CO,50,121,90
India,Madhya Pradesh,Indore,"Maguda Nagar, Indore - IMC",24-06-2024 14:00:00,22.7524,75.8872,PM2.5,NA,NA,NA
India,Madhya Pradesh,Indore,"Maguda Nagar, Indore - IMC",24-06-2024 14:00:00,22.7524,75.8872,NH3,NA,NA,NA
India,Madhya Pradesh,Indore,"Residency Area, Indore - IMC",24-06-2024 14:00:00,22.7084,75.8815,PM10,8,77,36
India,Madhya Pradesh,Indore,"Residency Area, Indore - IMC",24-06-2024 14:00:00,22.7084,75.8815,SO2,20,22,21
India,Madhya Pradesh,Indore,"Residency Area, Indore - IMC",24-06-2024 14:00:00,22.7084,75.8815,OZONE,11,18,14
India,Madhya Pradesh,Jabalpur,"Govindh Bhavan Colony, Jabalpur - JMC",24-06-2024 14:00:00,23.163174,79.973061,PM10,28,75,44
India,Madhya Pradesh,Jabalpur,"Govindh Bhavan Colony, Jabalpur - JMC",24-06-2024 14:00:00,23.163174,79.973061,CO,4,14,12
India,Madhya Pradesh,Jabalpur,"Gupteshwar, Jabalpur - JMC",24-06-2024 14:00:00,23.142888,79.916147,NH3,4,5,4
India,Madhya Pradesh,Jabalpur,"Gupteshwar, Jabalpur - JMC",24-06-2024 14:00:00,23.142888,79.916147,SO2,2,18,5
India,Madhya Pradesh,Jabalpur,"Marhatal, Jabalpur - MPPCB",24-06-2024 14:00:00,23.168606,79.932247,NO2,3,61,17
India,Madhya Pradesh,Jabalpur,"Marhatal, Jabalpur - MPPCB",24-06-2024 14:00:00,23.168606,79.932247,OZONE,12,49,32
India,Madhya Pradesh,Maihar,"Sahilara, Maihar - KJS Cements",24-06-2024 14:00:00,24.2613009,80.7231783,PM10,9,86,52
India,Madhya Pradesh,Mandideep,"Sector-D Industrial Area, Mandideep - MPPCB",24-06-2024 14:00:00,23.108440,77.511428,NH3,5,10,7
India,Madhya Pradesh,Mandideep,"Sector-D Industrial Area, Mandideep - MPPCB",24-06-2024 14:00:00,23.108440,77.511428,SO2,11,113,45
India,Madhya Pradesh,Mandideep,"Sector-D Industrial Area, Mandideep - MPPCB",24-06-2024 14:00:00,23.108440,77.511428,OZONE,48,190,190
India,Madhya Pradesh,Pithampur,"Sector-2 Industrial Area, Pithampur - MPPCB",24-06-2024 14:00:00,22.624758,75.675238,PM2.5,11,85,44
India,Madhya Pradesh,Pithampur,"Sector-2 Industrial Area, Pithampur - MPPCB",24-06-2024 14:00:00,22.624758,75.675238,NO2,3,23,8
India,Madhya Pradesh,Pithampur,"Sector-2 Industrial Area, Pithampur - MPPCB",24-06-2024 14:00:00,22.624758,75.675238,CO,23,50,35
India,Madhya Pradesh,Sagar,"Civil Lines, Sagar - MPPCB",24-06-2024 14:00:00,23.838586,78.759431,NO2,10,20,14
India,Madhya Pradesh,Sagar,"Civil Lines, Sagar - MPPCB",24-06-2024 14:00:00,23.838586,78.759431,NH3,4,5,5
India,Madhya Pradesh,Sagar,"Deen Dayal Nagar, Sagar - MPPCB",24-06-2024 14:00:00,23.8640158,78.80289321,PM10,16,52,28
India,Madhya Pradesh,Satna,"Bandhavgar Colony, Satna - Birla Cement",24-06-2024 14:00:00,24.58434363,80.8549414,PM2.5,13,32,18
India,Madhya Pradesh,Singrauli,"Suryakiran Bhawan NCL, Singrauli - MPPCB",24-06-2024 14:00:00,24.108970,82.645580,NO2,6,38,21
India,Madhya Pradesh,Ujjain,"Mahakaleshwar Temple, Ujjain - MPPCB",24-06-2024 14:00:00,23.182719 ,75.768218 ,PM2.5,15,125,64
India,Madhya Pradesh,Ujjain,"Mahakaleshwar Temple, Ujjain - MPPCB",24-06-2024 14:00:00,23.182719 ,75.768218 ,NH3,4,6,5
India,Maharashtra,Ahmednagar,"Tarakpur, Ahmednagar - MPCB",24-06-2024 14:00:00,19.10122,74.73339,NH3,NA,NA,NA
India,Maharashtra,Amravati,"Shivneri Colony, Amravati - MPCB",24-06-2024 14:00:00,20.9402359,77.7895248,NH3,4,5,4
India,Maharashtra,Amravati,"Shri Shivaji Science College, Amaravati - MPCB",24-06-2024 14:00:00,20.939198,77.765701,PM2.5,20,42,29
India,Maharashtra,Amravati,"Shri Shivaji Science College, Amaravati - MPCB",24-06-2024 14:00:00,20.939198,77.765701,PM10,24,45,33
India,Maharashtra,Amravati,"Shri Shivaji Science College, Amaravati - MPCB",24-06-2024 14:00:00,20.939198,77.765701,OZONE,6,27,15
India,Maharashtra,Aurangabad,"MIDC Chilkalthana, Aurangabad - MPCB",24-06-2024 14:00:00,19.875620,75.387310,SO2,1,5,3
India,Maharashtra,Badlapur,"Katrap, Badlapur - MPCB",24-06-2024 14:00:00,19.16485,73.23409,NH3,2,3,3
India,Maharashtra,Badlapur,"Katrap, Badlapur - MPCB",24-06-2024 14:00:00,19.16485,73.23409,OZONE,13,41,22
India,Maharashtra,Belapur,"CBD Belapur, Belapur - MPCB",24-06-2024 14:00:00,19.0243902,73.0406721,PM2.5,28,54,40
India,Maharashtra,Belapur,"CBD Belapur, Belapur - MPCB",24-06-2024 14:00:00,19.0243902,73.0406721,NO2,15,44,28
India,Maharashtra,Belapur,"CBD Belapur, Belapur - MPCB",24-06-2024 14:00:00,19.0243902,73.0406721,OZONE,5,72,28
India,Maharashtra,Bhiwandi,"Gokul Nagar, Bhiwandi - MPCB",24-06-2024 14:00:00,19.309073,73.057223,PM10,53,95,72
India,Maharashtra,Bhiwandi,"Gokul Nagar, Bhiwandi - MPCB",24-06-2024 14:00:00,19.309073,73.057223,NO2,20,87,39
India,Maharashtra,Bhiwandi,"Gokul Nagar, Bhiwandi - MPCB",24-06-2024 14:00:00,19.309073,73.057223,CO,19,78,34
India,Maharashtra,Boisar,"Khaira, Boisar - MPCB",24-06-2024 14:00:00,19.786089,72.757971,SO2,9,11,10
India,Maharashtra,Chandrapur,"Chauhan Colony, Chandrapur - MPCB",24-06-2024 14:00:00,19.962900,79.298714,OZONE,13,17,17
India,Maharashtra,Dhule,"Deopur, Dhule - MPCB",24-06-2024 14:00:00,20.918946,74.776388,PM2.5,51,127,82
India,Maharashtra,Dhule,"Deopur, Dhule - MPCB",24-06-2024 14:00:00,20.918946,74.776388,PM10,44,112,82
India,Maharashtra,Kalyan,"Khadakpada, Kalyan - MPCB",24-06-2024 14:00:00,19.25292,73.142019,NO2,26,42,31
India,Maharashtra,Kolhapur,"Shivaji University, Kolhapur - MPCB",24-06-2024 14:00:00,16.6870449,74.2505872,PM2.5,15,46,29
India,Maharashtra,Kolhapur,"Shivaji University, Kolhapur - MPCB",24-06-2024 14:00:00,16.6870449,74.2505872,OZONE,28,45,38
India,Maharashtra,Kolhapur,"Sinchan Bhavan, Kolhapur - MPCB",24-06-2024 14:00:00,16.7143745,74.2426398,PM2.5,14,39,28
India,Maharashtra,Kolhapur,"Sinchan Bhavan, Kolhapur - MPCB",24-06-2024 14:00:00,16.7143745,74.2426398,NH3,7,8,8
India,Maharashtra,Kolhapur,"Sinchan Bhavan, Kolhapur - MPCB",24-06-2024 14:00:00,16.7143745,74.2426398,SO2,1,2,1
India,Maharashtra,Kolhapur,"Sinchan Bhavan, Kolhapur - MPCB",24-06-2024 14:00:00,16.7143745,74.2426398,CO,10,21,14
India,Maharashtra,Latur,"Sawe Wadi, Latur - MPCB",24-06-2024 14:00:00,18.39963,76.57452,PM2.5,11,58,29
India,Maharashtra,Latur,"Sawe Wadi, Latur - MPCB",24-06-2024 14:00:00,18.39963,76.57452,SO2,1,7,4
India,Maharashtra,Latur,"Sawe Wadi, Latur - MPCB",24-06-2024 14:00:00,18.39963,76.57452,OZONE,5,45,30
India,Maharashtra,Mahad,"Kamble Tarf Birwadi, Mahad - MPCB",24-06-2024 14:00:00,18.1023399,73.4783687,OZONE,10,26,18
India,Maharashtra,Mira-Bhayandar,"Bhayandar West, Mira-Bhayandar - MPCB",24-06-2024 14:00:00,19.296481,72.840923,OZONE,2,32,18
India,Maharashtra,Mumbai,"Bandra Kurla Complex, Mumbai - MPCB",24-06-2024 14:00:00,19.065931,72.862131,NO2,10,27,17
India,Maharashtra,Mumbai,"Bandra Kurla Complex, Mumbai - MPCB",24-06-2024 14:00:00,19.065931,72.862131,SO2,2,3,2
India,Maharashtra,Mumbai,"Bandra Kurla Complex, Mumbai - MPCB",24-06-2024 14:00:00,19.065931,72.862131,OZONE,9,40,26
India,Maharashtra,Mumbai,"Borivali East, Mumbai - IITM",24-06-2024 14:00:00,19.23241,72.86895,PM2.5,18,41,27
India,Maharashtra,Mumbai,"Borivali East, Mumbai - IITM",24-06-2024 14:00:00,19.23241,72.86895,CO,58,82,73
India,Maharashtra,Mumbai,"Byculla, Mumbai - BMC",24-06-2024 14:00:00,18.9767,72.8380,PM10,13,32,22
India,Maharashtra,Mumbai,"Byculla, Mumbai - BMC",24-06-2024 14:00:00,18.9767,72.8380,NO2,23,25,24
India,Maharashtra,Mumbai,"Byculla, Mumbai - BMC",24-06-2024 14:00:00,18.9767,72.8380,OZONE,10,38,24
India,Maharashtra,Mumbai,"Chakala-Andheri East, Mumbai - IITM",24-06-2024 14:00:00,19.11074,72.86084,CO,6,30,19
India,Maharashtra,Mumbai,"Chembur, Mumbai - MPCB",24-06-2024 14:00:00,19.0364585,72.8954371,NO2,14,42,23
India,Maharashtra,Mumbai,"Chhatrapati Shivaji Intl. Airport (T2), Mumbai - MPCB",24-06-2024 14:00:00,19.10078,72.87462,PM10,31,52,40
India,Maharashtra,Mumbai,"Ghatkopar, Mumbai - BMC",24-06-2024 14:00:00,19.083694,72.920967,PM2.5,6,20,11
India,Maharashtra,Mumbai,"Ghatkopar, Mumbai - BMC",24-06-2024 14:00:00,19.083694,72.920967,NH3,3,6,5
India,Maharashtra,Mumbai,"Kandivali West, Mumbai - BMC",24-06-2024 14:00:00,19.215859,72.831718,PM2.5,7,33,17
India,Maharashtra,Mumbai,"Kandivali West, Mumbai - BMC",24-06-2024 14:00:00,19.215859,72.831718,PM10,8,32,21
India,Maharashtra,Mumbai,"Kandivali West, Mumbai - BMC",24-06-2024 14:00:00,19.215859,72.831718,NO2,7,40,21
India,Maharashtra,Mumbai,"Kandivali West, Mumbai - BMC",24-06-2024 14:00:00,19.215859,72.831718,NH3,1,3,2
India,Maharashtra,Mumbai,"Kandivali West, Mumbai - BMC",24-06-2024 14:00:00,19.215859,72.831718,OZONE,18,34,25
India,Maharashtra,Mumbai,"Khindipada-Bhandup West, Mumbai - IITM",24-06-2024 14:00:00,19.1653323,72.922099,OZONE,6,35,14
India,Maharashtra,Mumbai,"Kurla, Mumbai - MPCB",24-06-2024 14:00:00,19.0863,72.8888,PM2.5,4,39,12
India,Maharashtra,Mumbai,"Kurla, Mumbai - MPCB",24-06-2024 14:00:00,19.0863,72.8888,NH3,1,1,1
India,Maharashtra,Mumbai,"Kurla, Mumbai - MPCB",24-06-2024 14:00:00,19.0863,72.8888,SO2,32,32,32
India,Maharashtra,Mumbai,"Mazgaon, Mumbai - IITM",24-06-2024 14:00:00,18.96702,72.84214,SO2,NA,NA,NA
India,Maharashtra,Mumbai,"Mindspace-Malad West, Mumbai - MPCB",24-06-2024 14:00:00,19.1878657,72.8304069,PM2.5,13,38,26
India,Maharashtra,Mumbai,"Mulund West, Mumbai - MPCB",24-06-2024 14:00:00,19.1750,72.9419,NO2,19,21,20
India,Maharashtra,Mumbai,"Mulund West, Mumbai - MPCB",24-06-2024 14:00:00,19.1750,72.9419,NH3,10,11,10
India,Maharashtra,Mumbai,"Powai, Mumbai - MPCB",24-06-2024 14:00:00,19.137500,72.915056,NO2,11,32,17
India,Maharashtra,Mumbai,"Powai, Mumbai - MPCB",24-06-2024 14:00:00,19.137500,72.915056,CO,18,54,38
India,Maharashtra,Mumbai,"Sewri, Mumbai - BMC",24-06-2024 14:00:00,19.000084,72.856730,CO,12,112,53
India,Maharashtra,Mumbai,"Siddharth Nagar-Worli, Mumbai - IITM",24-06-2024 14:00:00,19.000083,72.813993,OZONE,13,49,33
India,Maharashtra,Mumbai,"Sion, Mumbai - MPCB",24-06-2024 14:00:00,19.047000,72.874600,NO2,28,145,60
India,Maharashtra,Mumbai,"Vasai West, Mumbai - MPCB",24-06-2024 14:00:00,19.383200,72.820400,NO2,26,29,27
India,Maharashtra,Mumbai,"Vasai West, Mumbai - MPCB",24-06-2024 14:00:00,19.383200,72.820400,SO2,24,26,25
India,Maharashtra,Mumbai,"Vile Parle West, Mumbai - MPCB",24-06-2024 14:00:00,19.10861,72.83622,PM2.5,7,47,21
India,Maharashtra,Mumbai,"Vile Parle West, Mumbai - MPCB",24-06-2024 14:00:00,19.10861,72.83622,NH3,11,11,11
India,Maharashtra,Nagpur,"Mahal, Nagpur - MPCB",24-06-2024 14:00:00,21.14472,79.107595,PM10,24,70,46
India,Maharashtra,Nagpur,"Mahal, Nagpur - MPCB",24-06-2024 14:00:00,21.14472,79.107595,CO,24,69,39
India,Maharashtra,Nagpur,"Opp GPO Civil Lines, Nagpur - MPCB",24-06-2024 14:00:00,21.152875,79.0517531,PM2.5,23,152,56
India,Maharashtra,Nagpur,"Opp GPO Civil Lines, Nagpur - MPCB",24-06-2024 14:00:00,21.152875,79.0517531,NO2,9,61,24
India,Maharashtra,Nagpur,"Opp GPO Civil Lines, Nagpur - MPCB",24-06-2024 14:00:00,21.152875,79.0517531,NH3,3,4,4
India,Maharashtra,Nagpur,"Ram Nagar, Nagpur - MPCB",24-06-2024 14:00:00,21.143383,79.048912,NO2,4,68,14
India,Maharashtra,Nanded,"Sneh Nagar, Nanded - MPCB",24-06-2024 14:00:00,19.173852,77.296291,CO,16,26,22
India,Maharashtra,Nashik,"Gangapur Road, Nashik - MPCB",24-06-2024 14:00:00,20.0073285,73.7762427,PM2.5,14,115,37
India,Maharashtra,Nashik,"Gangapur Road, Nashik - MPCB",24-06-2024 14:00:00,20.0073285,73.7762427,NH3,2,5,3
India,Maharashtra,Nashik,"Gangapur Road, Nashik - MPCB",24-06-2024 14:00:00,20.0073285,73.7762427,CO,2,119,45
India,Maharashtra,Nashik,"Hirawadi, Nashik - MPCB",24-06-2024 14:00:00,20.021503,73.813844,PM10,12,56,27
India,Maharashtra,Nashik,"Hirawadi, Nashik - MPCB",24-06-2024 14:00:00,20.021503,73.813844,NH3,3,5,4
India,Maharashtra,Nashik,"Hirawadi, Nashik - MPCB",24-06-2024 14:00:00,20.021503,73.813844,SO2,6,18,13
India,Maharashtra,Nashik,"Hirawadi, Nashik - MPCB",24-06-2024 14:00:00,20.021503,73.813844,CO,9,44,16
India,Maharashtra,Nashik,"MIDC Ambad, Nashik - MPCB",24-06-2024 14:00:00,19.950220,73.731480,SO2,NA,NA,NA
India,Maharashtra,Nashik,"MIDC Ambad, Nashik - MPCB",24-06-2024 14:00:00,19.950220,73.731480,CO,18,68,48
India,Maharashtra,Nashik,"Pandav Nagari, Nashik - MPCB",24-06-2024 14:00:00,19.9591346,73.7788008,NH3,2,6,4
India,Maharashtra,Navi Mumbai,"Kopripada-Vashi, Navi Mumbai - MPCB",24-06-2024 14:00:00,19.090337,73.014232,CO,8,24,18
India,Maharashtra,Navi Mumbai,"Mahape, Navi Mumbai - MPCB",24-06-2024 14:00:00,19.1135051,73.008978,NH3,2,2,2
India,Maharashtra,Navi Mumbai,"Nerul, Navi Mumbai - MPCB",24-06-2024 14:00:00,19.008751,73.016620,NO2,19,47,28
India,Maharashtra,Navi Mumbai,"Sanpada, Navi Mumbai - MPCB",24-06-2024 14:00:00,19.0575752,73.0151367,OZONE,14,94,49
India,Maharashtra,Navi Mumbai,"Sector-19A Nerul, Navi Mumbai - IITM",24-06-2024 14:00:00,19.044,73.0325,SO2,6,7,7
India,Maharashtra,Navi Mumbai,"Sector-19A Nerul, Navi Mumbai - IITM",24-06-2024 14:00:00,19.044,73.0325,OZONE,1,20,10
India,Maharashtra,Navi Mumbai,"Sector-2E Kalamboli, Navi Mumbai - MPCB",24-06-2024 14:00:00,19.02579,73.10297,PM10,37,91,59
India,Maharashtra,Pimpri-Chinchwad,"Gavalinagar, Pimpri Chinchwad - MPCB",24-06-2024 14:00:00,18.63673,73.82487,SO2,2,3,2
India,Maharashtra,Pune,"Alandi, Pune - IITM",24-06-2024 14:00:00,18.675076,73.892743,CO,32,48,40
India,Maharashtra,Pune,"Bhosari, Pune - IITM",24-06-2024 14:00:00,18.640051,73.848956,NO2,8,11,9
India,Maharashtra,Pune,"Bhosari, Pune - IITM",24-06-2024 14:00:00,18.640051,73.848956,OZONE,4,75,39
India,Maharashtra,Pune,"Bhumkar Nagar, Pune - IITM",24-06-2024 14:00:00,18.605770,73.749976,NO2,39,53,45
India,Maharashtra,Pune,"Bhumkar Nagar, Pune - IITM",24-06-2024 14:00:00,18.605770,73.749976,OZONE,11,48,30
India,Maharashtra,Pune,"Hadapsar, Pune - IITM",24-06-2024 14:00:00,18.501793,73.927532,PM2.5,32,79,54
India,Maharashtra,Pune,"Hadapsar, Pune - IITM",24-06-2024 14:00:00,18.501793,73.927532,CO,NA,NA,NA
India,Maharashtra,Pune,"Hadapsar, Pune - IITM",24-06-2024 14:00:00,18.501793,73.927532,OZONE,10,16,14
India,Maharashtra,Pune,"Karve Road, Pune - MPCB",24-06-2024 14:00:00,18.5011743,73.8165527,SO2,1,13,5
India,Maharashtra,Pune,"Revenue Colony-Shivajinagar, Pune - IITM",24-06-2024 14:00:00,18.530085,73.849598,PM10,17,60,38
India,Maharashtra,Pune,"Savitribai Phule Pune University, Pune - MPCB",24-06-2024 14:00:00,18.547056,73.826908,NO2,15,26,19
India,Maharashtra,Pune,"Savitribai Phule Pune University, Pune - MPCB",24-06-2024 14:00:00,18.547056,73.826908,NH3,1,4,3
India,Maharashtra,Pune,"Transport Nagar-Nigdi, Pune - IITM",24-06-2024 14:00:00,18.664282,73.763966,NO2,20,22,21
India,Maharashtra,Sangli,"Vijay Nagar, Sangli - MPCB",24-06-2024 14:00:00, 16.5038,74.3623,NO2,2,20,13
India,Maharashtra,Sangli,"Vijay Nagar, Sangli - MPCB",24-06-2024 14:00:00, 16.5038,74.3623,OZONE,17,52,38
India,Maharashtra,Solapur,"Ratandeep Housing Society, Solapur - MPCB",24-06-2024 14:00:00,17.65439,75.90649,NO2,2,5,3
India,Maharashtra,Solapur,"Ratandeep Housing Society, Solapur - MPCB",24-06-2024 14:00:00,17.65439,75.90649,SO2,2,3,2
India,Maharashtra,Solapur,"Solapur, Solapur - MPCB",24-06-2024 14:00:00,17.6599188,75.9063906,PM10,74,77,74
India,Maharashtra,Solapur,"Solapur, Solapur - MPCB",24-06-2024 14:00:00,17.6599188,75.9063906,NO2,55,55,55
India,Maharashtra,Solapur,"Solapur, Solapur - MPCB",24-06-2024 14:00:00,17.6599188,75.9063906,SO2,6,40,23
India,Maharashtra,Virar,"Bolinj, Virar - MPCB",24-06-2024 14:00:00,19.4458210,72.7988231,PM2.5,NA,NA,NA
India,Maharashtra,Virar,"Bolinj, Virar - MPCB",24-06-2024 14:00:00,19.4458210,72.7988231,PM10,1,95,54
India,Maharashtra,Virar,"Bolinj, Virar - MPCB",24-06-2024 14:00:00,19.4458210,72.7988231,NH3,4,5,5
India,Maharashtra,Virar,"Bolinj, Virar - MPCB",24-06-2024 14:00:00,19.4458210,72.7988231,SO2,3,6,4
India,Manipur,Imphal,"Manipur University, Imphal - Manipur PCB",24-06-2024 14:00:00,24.7524239,93.9286218,NO2,6,9,7
India,Mizoram,Aizawl,"Sikulpuikawn, Aizawl - Mizoram PCB",24-06-2024 14:00:00,23.7176342,92.7192841,PM2.5,1,18,6
India,Nagaland,Kohima,"PWD Juction, Kohima - NPCB",24-06-2024 14:00:00,25.6635413,94.0989878,NO2,3,5,3
India,Nagaland,Kohima,"PWD Juction, Kohima - NPCB",24-06-2024 14:00:00,25.6635413,94.0989878,CO,2,12,8
India,Odisha,Angul,"Hakimapada, Angul - OSPCB",24-06-2024 14:00:00,20.832874,85.104082,PM10,35,120,66
India,Odisha,Angul,"Hakimapada, Angul - OSPCB",24-06-2024 14:00:00,20.832874,85.104082,NH3,1,2,1
India,Odisha,Balasore,"Kalidaspur, Balasore - OSPCB",24-06-2024 14:00:00,21.51161,86.89088,NO2,8,44,19
India,Odisha,Balasore,"Kalidaspur, Balasore - OSPCB",24-06-2024 14:00:00,21.51161,86.89088,SO2,14,19,15
India,Odisha,Balasore,"Kalidaspur, Balasore - OSPCB",24-06-2024 14:00:00,21.51161,86.89088,OZONE,17,62,33
India,Odisha,Barbil,"Forest Office, Barbil - OSPCB",24-06-2024 14:00:00,22.1166054,85.3945546,NH3,2,3,3
India,Odisha,Baripada,"Meher Colony, Baripada - OSPCB",24-06-2024 14:00:00,21.941841,86.728318,NH3,1,3,2
India,Odisha,Bhubaneswar,"Lingraj Mandir, Bhubaneswar - OSPCB",24-06-2024 14:00:00,20.240790,85.836784,PM10,96,258,175
India,Odisha,Bhubaneswar,"Patia, Bhubaneswar - OSPCB",24-06-2024 14:00:00,20.34652,85.81630,PM2.5,12,45,24
India,Odisha,Bhubaneswar,"Patia, Bhubaneswar - OSPCB",24-06-2024 14:00:00,20.34652,85.81630,SO2,1,4,3
India,Odisha,Byasanagar,"Ferro Chrome Colony, Byasanagar - OSPCB",24-06-2024 14:00:00,20.94185,86.11510,SO2,3,21,6
India,Odisha,Byasanagar,"Ferro Chrome Colony, Byasanagar - OSPCB",24-06-2024 14:00:00,20.94185,86.11510,CO,22,32,26
India,Odisha,Byasanagar,"Ferro Chrome Colony, Byasanagar - OSPCB",24-06-2024 14:00:00,20.94185,86.11510,OZONE,27,92,59
India,Odisha,Nayagarh,"Dabuna, Nayagarh - OSPCB",24-06-2024 14:00:00,21.847279,85.416905,PM2.5,27,52,40
India,Odisha,Rairangpur,"Divisional Forest Office, Rairangpur - OSPCB",24-06-2024 14:00:00,22.265816,86.174829,NO2,2,14,4
India,Odisha,Suakati,"OMC Colony, Suakati - OSPCB",24-06-2024 14:00:00,21.606865,85.510538,NO2,11,14,12
India,Odisha,Talcher,"Talcher Coalfields,Talcher - OSPCB",24-06-2024 14:00:00,20.9360711,85.1707021,NO2,20,23,21
India,Odisha,Tensa,"Barsua Iron Ore Mines, Tensa - OSPCB",24-06-2024 14:00:00,21.869985,85.167016,NH3,2,3,3
India,Odisha,Tensa,"Barsua Iron Ore Mines, Tensa - OSPCB",24-06-2024 14:00:00,21.869985,85.167016,SO2,1,12,4
India,Punjab,Amritsar,"Golden Temple, Amritsar - PPCB",24-06-2024 14:00:00,31.620000,74.876512,NO2,13,151,75
India,Punjab,Amritsar,"Golden Temple, Amritsar - PPCB",24-06-2024 14:00:00,31.620000,74.876512,SO2,3,24,12
India,Punjab,Amritsar,"Golden Temple, Amritsar - PPCB",24-06-2024 14:00:00,31.620000,74.876512,OZONE,41,67,49
India,Punjab,Bathinda,"Hardev Nagar, Bathinda - PPCB",24-06-2024 14:00:00,30.233011,74.907758,PM10,94,255,178
India,Punjab,Jalandhar,"Civil Line, Jalandhar - PPCB",24-06-2024 14:00:00,31.321907,75.578914,PM2.5,80,135,95
India,Punjab,Jalandhar,"Civil Line, Jalandhar - PPCB",24-06-2024 14:00:00,31.321907,75.578914,SO2,11,17,13
India,Punjab,Jalandhar,"Civil Line, Jalandhar - PPCB",24-06-2024 14:00:00,31.321907,75.578914,OZONE,35,104,78
India,Punjab,Ludhiana,"Punjab Agricultural University, Ludhiana - PPCB",24-06-2024 14:00:00,30.9028,75.8086,CO,22,56,46
India,Punjab,Ludhiana,"Punjab Agricultural University, Ludhiana - PPCB",24-06-2024 14:00:00,30.9028,75.8086,OZONE,16,54,26
India,Punjab,Mandi Gobindgarh,"RIMT University, Mandi Gobindgarh - PPCB",24-06-2024 14:00:00,30.649961,76.331442,PM10,NA,NA,NA
India,Punjab,Mandi Gobindgarh,"RIMT University, Mandi Gobindgarh - PPCB",24-06-2024 14:00:00,30.649961,76.331442,NH3,NA,NA,NA
India,Punjab,Patiala,"Model Town, Patiala - PPCB",24-06-2024 14:00:00,30.349388,76.366642,CO,23,38,33
India,Punjab,Rupnagar,"Ratanpura, Rupnagar - Ambuja Cements",24-06-2024 14:00:00,31.0325454,76.5623046,PM2.5,21,47,31
India,Punjab,Rupnagar,"Ratanpura, Rupnagar - Ambuja Cements",24-06-2024 14:00:00,31.0325454,76.5623046,SO2,5,7,6
India,Rajasthan,Alwar,"Moti Doongri, Alwar - RSPCB",24-06-2024 14:00:00,27.554793,76.611536,NO2,11,40,23
India,Rajasthan,Alwar,"Moti Doongri, Alwar - RSPCB",24-06-2024 14:00:00,27.554793,76.611536,OZONE,13,67,21
India,Rajasthan,Baran,"Bamboliya, Baran - RSPCB",24-06-2024 14:00:00,25.106006,76.469948,PM10,18,76,42
India,Rajasthan,Barmer,"Railway Colony, Barmer - RSPCB",24-06-2024 14:00:00,25.747299,71.393989,NO2,6,39,16
India,Rajasthan,Barmer,"Railway Colony, Barmer - RSPCB",24-06-2024 14:00:00,25.747299,71.393989,OZONE,15,122,43
India,Rajasthan,Bharatpur,"Krishna Nagar, Bharatpur - RSPCB",24-06-2024 14:00:00,27.215415,77.50873,PM2.5,30,84,52
India,Rajasthan,Bhilwara,"Pratap Nagar, Bhilwara - RSPCB",24-06-2024 14:00:00,25.339605,74.618883,PM2.5,NA,NA,NA
India,Rajasthan,Bhilwara,"Pratap Nagar, Bhilwara - RSPCB",24-06-2024 14:00:00,25.339605,74.618883,OZONE,43,95,72
India,Rajasthan,Bhiwadi,"RIICO Ind. Area III, Bhiwadi - RSPCB",24-06-2024 14:00:00,28.194909,76.862296,PM10,56,133,100
India,Rajasthan,Bhiwadi,"RIICO Ind. Area III, Bhiwadi - RSPCB",24-06-2024 14:00:00,28.194909,76.862296,NH3,2,19,8
India,Rajasthan,Bhiwadi,"Vasundhara Nagar_UIT, Bhiwadi - RSPCB",24-06-2024 14:00:00,28.207266,76.829265,NH3,16,25,20
India,Rajasthan,Bhiwadi,"Vasundhara Nagar_UIT, Bhiwadi - RSPCB",24-06-2024 14:00:00,28.207266,76.829265,SO2,1,20,6
India,Rajasthan,Bhiwadi,"Vasundhara Nagar_UIT, Bhiwadi - RSPCB",24-06-2024 14:00:00,28.207266,76.829265,OZONE,10,102,40
India,Rajasthan,Bikaner,"MM Ground, Bikaner - RSPCB",24-06-2024 14:00:00,28.018792,73.292658,NH3,7,11,9
India,Rajasthan,Bundi,"New Colony, Bundi - RSPCB",24-06-2024 14:00:00,25.435774,75.644272,NH3,4,9,6
India,Rajasthan,Bundi,"New Colony, Bundi - RSPCB",24-06-2024 14:00:00,25.435774,75.644272,CO,19,30,24
India,Rajasthan,Churu,"Subash Chowk, Churu - RSPCB",24-06-2024 14:00:00,28.296139,74.961696,NH3,13,23,17
India,Rajasthan,Dausa,"Khatikan Mohalla, Dausa - RSPCB",24-06-2024 14:00:00,26.895552,76.334753,NH3,2,9,4
India,Rajasthan,Dholpur,"Raja Ganj, Dholpur - RSPCB",24-06-2024 14:00:00,26.699557,77.898881,CO,3,34,15
India,Rajasthan,Dungarpur,"Bhoiwada, Dungarpur - RSPCB",24-06-2024 14:00:00,23.837789,73.714926,SO2,6,15,10
India,Rajasthan,Dungarpur,"Bhoiwada, Dungarpur - RSPCB",24-06-2024 14:00:00,23.837789,73.714926,OZONE,18,91,65
India,Rajasthan,Jaipur,"Mansarovar Sector-12, Jaipur - RSPCB",24-06-2024 14:00:00,26.843698,75.766894,PM2.5,16,53,38
India,Rajasthan,Jaipur,"Mansarovar Sector-12, Jaipur - RSPCB",24-06-2024 14:00:00,26.843698,75.766894,SO2,3,9,4
India,Rajasthan,Jaipur,"Police Commissionerate, Jaipur - RSPCB",24-06-2024 14:00:00,26.9164092,75.7994901,NH3,9,13,11
India,Rajasthan,Jaipur,"RIICO Sitapura, Jaipur - RSPCB",24-06-2024 14:00:00,26.786682,75.827928,NH3,1,5,3
India,Rajasthan,Jaisalmer,"Sadar Bazar, Jaisalmer - RSPCB",24-06-2024 14:00:00,26.912329,70.909168,SO2,3,4,4
India,Rajasthan,Jaisalmer,"Sadar Bazar, Jaisalmer - RSPCB",24-06-2024 14:00:00,26.912329,70.909168,CO,1,48,7
India,Rajasthan,Jaisalmer,"Sadar Bazar, Jaisalmer - RSPCB",24-06-2024 14:00:00,26.912329,70.909168,OZONE,88,146,111
India,Rajasthan,Jalore,"Mudtra Sili, Jalore - RSPCB",24-06-2024 14:00:00,25.344694,72.626208,NO2,7,67,19
India,Rajasthan,Jalore,"Mudtra Sili, Jalore - RSPCB",24-06-2024 14:00:00,25.344694,72.626208,SO2,3,5,4
India,Rajasthan,Jhalawar,"Rajlaxmi Nagar, Jhalawar - RSPCB",24-06-2024 14:00:00,24.588397,76.172782,PM10,24,88,55
India,Rajasthan,Jhunjhunu,"Indra Nagar, Jhunjhunu - RSPCB",24-06-2024 14:00:00,28.108988,75.386577,PM10,72,196,122
India,Rajasthan,Jhunjhunu,"Indra Nagar, Jhunjhunu - RSPCB",24-06-2024 14:00:00,28.108988,75.386577,SO2,2,4,3
India,Rajasthan,Jhunjhunu,"Indra Nagar, Jhunjhunu - RSPCB",24-06-2024 14:00:00,28.108988,75.386577,OZONE,21,157,69
India,Rajasthan,Jodhpur,"Collectorate, Jodhpur - RSPCB",24-06-2024 14:00:00,26.268249,73.0193853,OZONE,14,81,27
India,Rajasthan,Jodhpur,"Jhalamand, Jodhpur - RSPCB",24-06-2024 14:00:00,26.215415,73.070156,PM2.5,27,77,44
India,Rajasthan,Jodhpur,"Mandor, Jodhpur - RSPCB",24-06-2024 14:00:00,26.358805,73.047444,NH3,4,17,8
India,Rajasthan,Jodhpur,"Mandor, Jodhpur - RSPCB",24-06-2024 14:00:00,26.358805,73.047444,CO,28,57,50
India,Rajasthan,Jodhpur,"Mandor, Jodhpur - RSPCB",24-06-2024 14:00:00,26.358805,73.047444,OZONE,22,91,52
India,Rajasthan,Jodhpur,"Samrat Ashok Udhyan, Jodhpur - RSPCB",24-06-2024 14:00:00,26.253384,72.976571,PM2.5,35,91,50
India,Rajasthan,Jodhpur,"Samrat Ashok Udhyan, Jodhpur - RSPCB",24-06-2024 14:00:00,26.253384,72.976571,SO2,3,5,4
India,Rajasthan,Karauli,"Satyawati Vihar, Karauli - RSPCB",24-06-2024 14:00:00,26.506177,77.025989,NH3,4,6,5
India,Rajasthan,Kota,"Dhanmandi, Kota - RSPCB",24-06-2024 14:00:00,25.164090,75.858137,PM2.5,44,121,68
India,Rajasthan,Kota,"Dhanmandi, Kota - RSPCB",24-06-2024 14:00:00,25.164090,75.858137,SO2,4,13,8
India,Rajasthan,Kota,"Nayapura, Kota - RSPCB",24-06-2024 14:00:00,25.196024,75.855668,PM10,30,178,70
India,Rajasthan,Kota,"Nayapura, Kota - RSPCB",24-06-2024 14:00:00,25.196024,75.855668,NH3,5,8,7
India,Rajasthan,Kota,"Nayapura, Kota - RSPCB",24-06-2024 14:00:00,25.196024,75.855668,OZONE,23,133,78
India,Rajasthan,Kota,"Shrinath Puram, Kota - RSPCB",24-06-2024 14:00:00,25.14389,75.821256,PM2.5,24,86,44
India,Rajasthan,Kota,"Shrinath Puram, Kota - RSPCB",24-06-2024 14:00:00,25.14389,75.821256,NH3,4,7,6
India,Rajasthan,Kota,"Shrinath Puram, Kota - RSPCB",24-06-2024 14:00:00,25.14389,75.821256,CO,13,68,46
India,Rajasthan,Pratapgarh,"Pragati Nagar, Pratapgarh - RSPCB",24-06-2024 14:00:00,24.041198,74.780702,CO,1,135,90
India,Rajasthan,Rajsamand,"Dhoinda, Rajsamand - RSPCB",24-06-2024 14:00:00,25.036360,73.883502,NO2,10,38,20
India,Rajasthan,Sawai Madhopur,"Sahu Nagar, Sawai Madhopur - RSPCB",24-06-2024 14:00:00,26.031443,76.359327,PM10,24,72,51
India,Rajasthan,Sirohi,"Vedhaynath Colony, Sirohi - RSPCB",24-06-2024 14:00:00,24.885261,72.857549,PM10,44,106,58
India,Rajasthan,Sirohi,"Vedhaynath Colony, Sirohi - RSPCB",24-06-2024 14:00:00,24.885261,72.857549,CO,4,34,28
India,Rajasthan,Sri Ganganagar,"Old City, Sri Ganganagar - RSPCB",24-06-2024 14:00:00,29.931624,73.864511,OZONE,27,27,27
India,Rajasthan,Tonk,"Shastri Nagar, Tonk - RSPCB",24-06-2024 14:00:00,26.159933,75.780517,CO,19,28,22
India,Rajasthan,Udaipur,"Ashok Nagar, Udaipur - RSPCB",24-06-2024 14:00:00,24.5886166,73.6321397,PM2.5,26,144,85
India,Rajasthan,Udaipur,"Ashok Nagar, Udaipur - RSPCB",24-06-2024 14:00:00,24.5886166,73.6321397,PM10,29,160,92
India,Rajasthan,Udaipur,"Ashok Nagar, Udaipur - RSPCB",24-06-2024 14:00:00,24.5886166,73.6321397,SO2,2,16,8
India,Sikkim,Gangtok,"Zero Point GICI, Gangtok - SSPCB",24-06-2024 14:00:00,27.338530,88.614099,OZONE,15,46,28
India,TamilNadu,Ariyalur,"Keelapalur, Ariyalur - TNPCB",24-06-2024 14:00:00,11.06825,79.07033,PM10,9,62,24
India,TamilNadu,Chennai,"Arumbakkam, Chennai - TNPCB",24-06-2024 14:00:00,13.0664,80.2112 ,PM10,17,79,41
India,TamilNadu,Chennai,"Kodungaiyur, Chennai - TNPCB",24-06-2024 14:00:00,13.1278,80.2642,PM2.5,5,28,15
India,TamilNadu,Chennai,"Manali, Chennai - CPCB",24-06-2024 14:00:00,13.164544,80.26285,PM10,33,92,66
India,TamilNadu,Chennai,"Manali, Chennai - CPCB",24-06-2024 14:00:00,13.164544,80.26285,NH3,5,6,5
India,TamilNadu,Chennai,"Perungudi, Chennai - TNPCB",24-06-2024 14:00:00,12.9533,80.2357,NH3,3,4,3
India,TamilNadu,Chennai,"Royapuram, Chennai - TNPCB",24-06-2024 14:00:00,13.1036,80.2909,PM10,23,110,59
India,TamilNadu,Chennai,"Royapuram, Chennai - TNPCB",24-06-2024 14:00:00,13.1036,80.2909,NH3,1,3,2
India,TamilNadu,Cuddalore,"Kudikadu, Cuddalore - TNPCB",24-06-2024 14:00:00,11.6829898,79.7532099,NO2,NA,NA,NA
India,TamilNadu,Cuddalore,"Semmandalam, Cuddalore - TNPCB",24-06-2024 14:00:00,11.7637683,79.7499835,PM2.5,NA,NA,NA
India,TamilNadu,Gummidipoondi,"Anthoni Pillai Nagar, Gummidipoondi - TNPCB",24-06-2024 14:00:00,13.4127,80.1081,NO2,10,21,13
India,TamilNadu,Ooty,"Bombay Castel, Ooty - TNPCB",24-06-2024 14:00:00,11.4068288,76.7138973,PM10,NA,NA,NA
India,TamilNadu,Ramanathapuram,"Chalai Bazaar, Ramanathapuram - TNPCB",24-06-2024 14:00:00,9.36399,78.831977,SO2,NA,NA,NA
India,TamilNadu,Thoothukudi,"Meelavittan, Thoothukudi - TNPCB",24-06-2024 14:00:00,8.816428 ,78.099039,CO,6,25,14
India,TamilNadu,Thoothukudi,"Meelavittan, Thoothukudi - TNPCB",24-06-2024 14:00:00,8.816428 ,78.099039,OZONE,1,2,2
India,TamilNadu,Vellore,"Vasanthapuram, Vellore - TNPCB",24-06-2024 14:00:00,12.909494,79.131861,NO2,NA,NA,NA
India,Telangana,Hyderabad,"Bollaram Industrial Area, Hyderabad - TSPCB",24-06-2024 14:00:00,17.540891,78.358528,PM2.5,NA,NA,NA
India,Telangana,Hyderabad,"Bollaram Industrial Area, Hyderabad - TSPCB",24-06-2024 14:00:00,17.540891,78.358528,PM10,NA,NA,NA
India,Telangana,Hyderabad,"Central University, Hyderabad - TSPCB",24-06-2024 14:00:00,17.460103,78.334361,PM2.5,5,45,19
India,Telangana,Hyderabad,"Central University, Hyderabad - TSPCB",24-06-2024 14:00:00,17.460103,78.334361,OZONE,3,4,4
India,Telangana,Hyderabad,"ICRISAT Patancheru, Hyderabad - TSPCB",24-06-2024 14:00:00,17.518400,78.278777,PM10,3,46,19
India,Telangana,Hyderabad,"ICRISAT Patancheru, Hyderabad - TSPCB",24-06-2024 14:00:00,17.518400,78.278777,NH3,1,4,1
India,Telangana,Hyderabad,"IDA Pashamylaram, Hyderabad - TSPCB",24-06-2024 14:00:00,17.5316895,78.218939,NO2,27,51,40
India,Telangana,Hyderabad,"IITH Kandi, Hyderabad - TSPCB",24-06-2024 14:00:00,17.585705,78.126199,PM2.5,NA,NA,NA
India,Telangana,Hyderabad,"Kokapet, Hyderabad - TSPCB",24-06-2024 14:00:00,17.393559,78.339194,NO2,10,12,12
India,Telangana,Hyderabad,"Kompally Municipal Office, Hyderabad - TSPCB",24-06-2024 14:00:00,17.544899,78.486949,PM2.5,NA,NA,NA
India,Telangana,Hyderabad,"Kompally Municipal Office, Hyderabad - TSPCB",24-06-2024 14:00:00,17.544899,78.486949,CO,18,26,21
India,Telangana,Hyderabad,"Nacharam_TSIIC IALA, Hyderabad - TSPCB",24-06-2024 14:00:00,17.429398,78.569354,SO2,4,9,8
India,Telangana,Hyderabad,"Ramachandrapuram, Hyderabad - TSPCB",24-06-2024 14:00:00,17.528544,78.286195,NO2,10,13,12
India,Telangana,Hyderabad,"Ramachandrapuram, Hyderabad - TSPCB",24-06-2024 14:00:00,17.528544,78.286195,OZONE,28,63,48
India,Telangana,Hyderabad,"Sanathnagar, Hyderabad - TSPCB",24-06-2024 14:00:00,17.4559458,78.4332152,NO2,17,32,30
India,Telangana,Hyderabad,"Sanathnagar, Hyderabad - TSPCB",24-06-2024 14:00:00,17.4559458,78.4332152,SO2,7,40,12
India,Telangana,Hyderabad,"Zoo Park, Hyderabad - TSPCB",24-06-2024 14:00:00,17.349694,78.451437,OZONE,16,25,20
India,Tripura,Agartala,"Bardowali, Agartala - Tripura SPCB",24-06-2024 14:00:00,23.8175497,91.2726974,NH3,3,10,8
India,Tripura,Agartala,"Bardowali, Agartala - Tripura SPCB",24-06-2024 14:00:00,23.8175497,91.2726974,OZONE,3,14,8
India,Uttar_Pradesh,Agra,"Manoharpur, Agra - UPPCB",24-06-2024 14:00:00,27.23711,78.01936,NH3,2,2,2
India,Uttar_Pradesh,Agra,"Rohta, Agra - UPPCB",24-06-2024 14:00:00,27.106972,78.000111,PM10,NA,NA,NA
India,Uttar_Pradesh,Agra,"Rohta, Agra - UPPCB",24-06-2024 14:00:00,27.106972,78.000111,CO,4,14,8
India,Uttar_Pradesh,Agra,"Sector-3B Avas Vikas Colony, Agra - UPPCB",24-06-2024 14:00:00,27.19412,77.96237,NO2,41,44,42
India,Uttar_Pradesh,Agra,"Sector-3B Avas Vikas Colony, Agra - UPPCB",24-06-2024 14:00:00,27.19412,77.96237,NH3,2,11,8
India,Uttar_Pradesh,Agra,"Shahjahan Garden, Agra - UPPCB",24-06-2024 14:00:00,27.169338,78.03582,PM10,NA,NA,NA
India,Uttar_Pradesh,Agra,"Shahjahan Garden, Agra - UPPCB",24-06-2024 14:00:00,27.169338,78.03582,OZONE,1,14,1
India,Uttar_Pradesh,Baghpat,"Sardar Patel Inter College, Baghpat - UPPCB",24-06-2024 14:00:00,28.964949,77.278761,OZONE,9,53,28
India,Uttar_Pradesh,Bareilly,"Civil Lines, Bareilly - UPPCB",24-06-2024 14:00:00,28.359581,79.414455,PM10,NA,NA,NA
India,Uttar_Pradesh,Bulandshahr,"Yamunapuram, Bulandshahr - UPPCB",24-06-2024 14:00:00,28.406963,77.849831,PM2.5,38,213,95
India,Uttar_Pradesh,Bulandshahr,"Yamunapuram, Bulandshahr - UPPCB",24-06-2024 14:00:00,28.406963,77.849831,CO,47,84,62
India,Uttar_Pradesh,Firozabad,"Nagla Bhau, Firozabad - UPPCB",24-06-2024 14:00:00,27.168897,78.376960,PM2.5,16,101,50
India,Uttar_Pradesh,Firozabad,"Nagla Bhau, Firozabad - UPPCB",24-06-2024 14:00:00,27.168897,78.376960,PM10,24,94,50
India,Uttar_Pradesh,Firozabad,"Nagla Bhau, Firozabad - UPPCB",24-06-2024 14:00:00,27.168897,78.376960,NO2,15,17,17
India,Uttar_Pradesh,Firozabad,"Nagla Bhau, Firozabad - UPPCB",24-06-2024 14:00:00,27.168897,78.376960,SO2,17,67,41
India,Uttar_Pradesh,Ghaziabad,"Indirapuram, Ghaziabad - UPPCB",24-06-2024 14:00:00,28.646233,77.358075,PM10,102,178,141
India,Uttar_Pradesh,Ghaziabad,"Loni, Ghaziabad - UPPCB",24-06-2024 14:00:00,28.757294,77.278792,OZONE,5,72,33
India,Uttar_Pradesh,Ghaziabad,"Sanjay Nagar, Ghaziabad - UPPCB",24-06-2024 14:00:00,28.685382,77.453839,OZONE,4,45,20
India,Uttar_Pradesh,Ghaziabad,"Vasundhara, Ghaziabad - UPPCB",24-06-2024 14:00:00,28.6603346,77.3572563,OZONE,11,11,11
India,Uttar_Pradesh,Gorakhpur,"Madan Mohan Malaviya University of Technology, Gorakhpur - UPPCB",24-06-2024 14:00:00,26.730136,83.433859,PM2.5,NA,NA,NA
India,Uttar_Pradesh,Gorakhpur,"Madan Mohan Malaviya University of Technology, Gorakhpur - UPPCB",24-06-2024 14:00:00,26.730136,83.433859,CO,4,20,12
India,Uttar_Pradesh,Greater Noida,"Knowledge Park - III, Greater Noida - UPPCB",24-06-2024 14:00:00,28.47272,77.482000,CO,30,69,34
India,Uttar_Pradesh,Greater Noida,"Knowledge Park - III, Greater Noida - UPPCB",24-06-2024 14:00:00,28.47272,77.482000,OZONE,8,119,51
India,Uttar_Pradesh,Greater Noida,"Knowledge Park - V, Greater Noida - UPPCB",24-06-2024 14:00:00,28.557054,77.453663,PM10,124,314,180
India,Uttar_Pradesh,Hapur,"Anand Vihar, Hapur - UPPCB",24-06-2024 14:00:00,28.725645,77.749675,NO2,10,40,24
India,Uttar_Pradesh,Hapur,"Anand Vihar, Hapur - UPPCB",24-06-2024 14:00:00,28.725645,77.749675,CO,32,69,51
India,Uttar_Pradesh,Hapur,"Anand Vihar, Hapur - UPPCB",24-06-2024 14:00:00,28.725645,77.749675,OZONE,1,60,20
India,Uttar_Pradesh,Jhansi,"Shivaji Nagar, Jhansi - UPPCB",24-06-2024 14:00:00,25.4547,78.6039,PM2.5,61,166,92
India,Uttar_Pradesh,Jhansi,"Shivaji Nagar, Jhansi - UPPCB",24-06-2024 14:00:00,25.4547,78.6039,PM10,56,112,79
India,Uttar_Pradesh,Jhansi,"Shivaji Nagar, Jhansi - UPPCB",24-06-2024 14:00:00,25.4547,78.6039,NO2,15,28,21
India,Uttar_Pradesh,Jhansi,"Shivaji Nagar, Jhansi - UPPCB",24-06-2024 14:00:00,25.4547,78.6039,OZONE,19,82,53
India,Uttar_Pradesh,Kanpur,"FTI Kidwai Nagar, Kanpur - UPPCB",24-06-2024 14:00:00,26.428282,80.327067,PM2.5,4,76,50
India,Uttar_Pradesh,Kanpur,"FTI Kidwai Nagar, Kanpur - UPPCB",24-06-2024 14:00:00,26.428282,80.327067,OZONE,2,12,3
India,Uttar_Pradesh,Kanpur,"NSI Kalyanpur, Kanpur - UPPCB",24-06-2024 14:00:00,26.509954,80.249612,OZONE,12,48,37
India,Uttar_Pradesh,Lucknow,"B R Ambedkar University, Lucknow - UPPCB",24-06-2024 14:00:00,26.766433,80.927299,PM2.5,41,156,78
India,Uttar_Pradesh,Lucknow,"B R Ambedkar University, Lucknow - UPPCB",24-06-2024 14:00:00,26.766433,80.927299,PM10,40,93,68
India,Uttar_Pradesh,Lucknow,"Gomti Nagar, Lucknow - UPPCB",24-06-2024 14:00:00,26.868120,81.005119,NO2,10,11,10
India,Uttar_Pradesh,Lucknow,"Kendriya Vidyalaya, Lucknow - CPCB",24-06-2024 14:00:00,26.906111,80.948222,PM10,68,98,84
India,Uttar_Pradesh,Lucknow,"Kendriya Vidyalaya, Lucknow - CPCB",24-06-2024 14:00:00,26.906111,80.948222,OZONE,31,78,42
India,Uttar_Pradesh,Lucknow,"Kukrail Picnic Spot-1, Lucknow - UPPCB",24-06-2024 14:00:00,26.90723,80.98579,CO,16,24,20
India,Uttar_Pradesh,Lucknow,"Kukrail Picnic Spot-1, Lucknow - UPPCB",24-06-2024 14:00:00,26.90723,80.98579,OZONE,11,30,23
India,Uttar_Pradesh,Lucknow,"Talkatora District Industries Center, Lucknow - CPCB",24-06-2024 14:00:00,26.83399722,80.8917361,NO2,11,13,12
India,Uttar_Pradesh,Meerut,"Ganga Nagar, Meerut - UPPCB",24-06-2024 14:00:00,28.999264,77.7590354,NH3,10,20,12
India,Uttar_Pradesh,Meerut,"Ganga Nagar, Meerut - UPPCB",24-06-2024 14:00:00,28.999264,77.7590354,SO2,14,21,16
India,Uttar_Pradesh,Meerut,"Jai Bhim Nagar, Meerut - UPPCB",24-06-2024 14:00:00,28.9535882,77.7622941,PM2.5,45,233,95
India,Uttar_Pradesh,Meerut,"Jai Bhim Nagar, Meerut - UPPCB",24-06-2024 14:00:00,28.9535882,77.7622941,PM10,86,145,114
India,Uttar_Pradesh,Moradabad,"Eco Herbal Park, Moradabad - UPPCB",24-06-2024 14:00:00,28.840739,78.697531,PM10,24,98,63
India,Uttar_Pradesh,Moradabad,"Eco Herbal Park, Moradabad - UPPCB",24-06-2024 14:00:00,28.840739,78.697531,NH3,7,23,11
India,Uttar_Pradesh,Moradabad,"Employment Office, Moradabad - UPPCB",24-06-2024 14:00:00,28.88528,78.73880,PM2.5,29,76,53
India,Uttar_Pradesh,Moradabad,"Employment Office, Moradabad - UPPCB",24-06-2024 14:00:00,28.88528,78.73880,NO2,17,17,17
India,Uttar_Pradesh,Moradabad,"Employment Office, Moradabad - UPPCB",24-06-2024 14:00:00,28.88528,78.73880,OZONE,8,67,25
India,Uttar_Pradesh,Moradabad,"Jigar Colony, Moradabad - UPPCB",24-06-2024 14:00:00,28.856664,78.772638,PM2.5,29,83,54
India,Uttar_Pradesh,Moradabad,"Jigar Colony, Moradabad - UPPCB",24-06-2024 14:00:00,28.856664,78.772638,PM10,45,111,83
India,Uttar_Pradesh,Moradabad,"Transport Nagar, Moradabad - UPPCB",24-06-2024 14:00:00,28.802625,78.753728,SO2,22,33,28
India,Uttar_Pradesh,Muzaffarnagar,"New Mandi, Muzaffarnagar - UPPCB",24-06-2024 14:00:00,29.4723508,77.7194031,PM2.5,58,299,157
India,Uttar_Pradesh,Noida,"Sector - 125, Noida - UPPCB",24-06-2024 14:00:00,28.5447608,77.3231257,PM10,NA,NA,NA
India,Uttar_Pradesh,Noida,"Sector - 62, Noida - IMD",24-06-2024 14:00:00,28.6245479,77.3577104,PM10,91,164,125
India,Uttar_Pradesh,Noida,"Sector-116, Noida - UPPCB",24-06-2024 14:00:00,28.569230,77.393848,NO2,15,48,26
India,Uttar_Pradesh,Prayagraj,"Jhunsi, Prayagraj - UPPCB",24-06-2024 14:00:00,25.425602,81.917152,PM2.5,NA,NA,NA
India,Uttar_Pradesh,Prayagraj,"Jhunsi, Prayagraj - UPPCB",24-06-2024 14:00:00,25.425602,81.917152,PM10,28,91,57
India,Uttar_Pradesh,Prayagraj,"Motilal Nehru NIT, Prayagraj - UPPCB",24-06-2024 14:00:00,25.494,81.863,OZONE,8,66,34
India,Uttar_Pradesh,Prayagraj,"Nagar Nigam, Prayagraj - UPPCB",24-06-2024 14:00:00,25.44919916 ,81.82735986 ,PM2.5,38,174,70
India,Uttar_Pradesh,Prayagraj,"Nagar Nigam, Prayagraj - UPPCB",24-06-2024 14:00:00,25.44919916 ,81.82735986 ,NO2,5,5,5
India,Uttar_Pradesh,Prayagraj,"Nagar Nigam, Prayagraj - UPPCB",24-06-2024 14:00:00,25.44919916 ,81.82735986 ,CO,14,27,17
India,Uttar_Pradesh,Prayagraj,"Nagar Nigam, Prayagraj - UPPCB",24-06-2024 14:00:00,25.44919916 ,81.82735986 ,OZONE,11,12,11
India,Uttar_Pradesh,Varanasi,"Bhelupur, Varanasi - UPPCB",24-06-2024 14:00:00,25.301778,82.996789,SO2,32,33,33
India,Uttar_Pradesh,Varanasi,"IESD Banaras Hindu University, Varanasi - UPPCB",24-06-2024 14:00:00,25.262326,82.995408,PM2.5,3,12,8
India,Uttar_Pradesh,Varanasi,"IESD Banaras Hindu University, Varanasi - UPPCB",24-06-2024 14:00:00,25.262326,82.995408,PM10,6,25,17
India,Uttar_Pradesh,Varanasi,"IESD Banaras Hindu University, Varanasi - UPPCB",24-06-2024 14:00:00,25.262326,82.995408,NO2,2,2,2
India,Uttar_Pradesh,Varanasi,"Maldahiya, Varanasi - UPPCB",24-06-2024 14:00:00,25.32393,82.99687,PM10,NA,NA,NA
India,Uttar_Pradesh,Varanasi,"Maldahiya, Varanasi - UPPCB",24-06-2024 14:00:00,25.32393,82.99687,CO,10,24,15
India,Uttarakhand,Dehradun,"Doon University, Dehradun - UKPCB",24-06-2024 14:00:00,30.269444,78.044167,PM2.5,20,86,53
India,Uttarakhand,Kashipur,"Govt. Girls Inter College, Kashipur - UKPCB",24-06-2024 14:00:00,29.2124114,78.9611753,PM2.5,6,40,23
India,Uttarakhand,Rishikesh,"Shivaji Nagar, Rishikesh - UKPCB",24-06-2024 14:00:00,30.075911,78.2859547,PM2.5,NA,NA,NA
India,Uttarakhand,Rishikesh,"Shivaji Nagar, Rishikesh - UKPCB",24-06-2024 14:00:00,30.075911,78.2859547,CO,12,37,27
India,West_Bengal,Asansol,"Asansol Court Area, Asansol - WBPCB",24-06-2024 14:00:00,23.685297,86.945968,NH3,9,13,10
India,West_Bengal,Asansol,"Asansol Court Area, Asansol - WBPCB",24-06-2024 14:00:00,23.685297,86.945968,SO2,10,14,13
India,West_Bengal,Asansol,"Evelyn Lodge, Asansol - WBPCB",24-06-2024 14:00:00,23.6979360,86.9443950,NO2,19,40,26
India,West_Bengal,Asansol,"Evelyn Lodge, Asansol - WBPCB",24-06-2024 14:00:00,23.6979360,86.9443950,CO,55,101,78
India,West_Bengal,Asansol,"Mahabir Colliery, Asansol - WBPCB",24-06-2024 14:00:00,23.6181830,87.1057180,PM10,NA,NA,NA
India,West_Bengal,Barrackpore,"SVSPA Campus, Barrackpore - WBPCB",24-06-2024 14:00:00,22.7605581,88.3617589,NO2,5,11,7
India,West_Bengal,Barrackpore,"SVSPA Campus, Barrackpore - WBPCB",24-06-2024 14:00:00,22.7605581,88.3617589,NH3,1,2,1
India,West_Bengal,Barrackpore,"SVSPA Campus, Barrackpore - WBPCB",24-06-2024 14:00:00,22.7605581,88.3617589,OZONE,10,163,40
India,West_Bengal,Durgapur,"PCBL Residential Complex, Durgapur - WBPCB",24-06-2024 14:00:00,23.5087640,87.3544400,PM2.5,NA,NA,NA
India,West_Bengal,Durgapur,"Sidhu Kanhu Indoor Stadium, Durgapur - WBPCB",24-06-2024 14:00:00,23.5404352,87.2892225,NO2,17,33,22
India,West_Bengal,Durgapur,"Sidhu Kanhu Indoor Stadium, Durgapur - WBPCB",24-06-2024 14:00:00,23.5404352,87.2892225,NH3,2,3,2
India,West_Bengal,Haldia,"Priyambada Housing Estate, Haldia - WBPCB",24-06-2024 14:00:00,22.06047,88.109737,NO2,10,13,11
India,West_Bengal,Haldia,"Priyambada Housing Estate, Haldia - WBPCB",24-06-2024 14:00:00,22.06047,88.109737,CO,20,30,24
India,West_Bengal,Haldia,"Priyambada Housing Estate, Haldia - WBPCB",24-06-2024 14:00:00,22.06047,88.109737,OZONE,17,27,23
India,West_Bengal,Howrah,"Belur Math, Howrah - WBPCB",24-06-2024 14:00:00,22.629801,88.352017,PM10,25,78,38
India,West_Bengal,Howrah,"Belur Math, Howrah - WBPCB",24-06-2024 14:00:00,22.629801,88.352017,SO2,1,2,1
India,West_Bengal,Howrah,"Belur Math, Howrah - WBPCB",24-06-2024 14:00:00,22.629801,88.352017,OZONE,10,18,14
India,West_Bengal,Howrah,"Botanical Garden, Howrah - WBPCB",24-06-2024 14:00:00,22.554954,88.292568,PM10,13,111,46
India,West_Bengal,Howrah,"Ghusuri, Howrah - WBPCB",24-06-2024 14:00:00,22.611968,88.347422,SO2,4,6,5
India,West_Bengal,Howrah,"Padmapukur, Howrah - WBPCB",24-06-2024 14:00:00,22.5687319,88.2797276,NH3,4,7,6
India,West_Bengal,Howrah,"Padmapukur, Howrah - WBPCB",24-06-2024 14:00:00,22.5687319,88.2797276,SO2,6,45,14
India,West_Bengal,Howrah,"Padmapukur, Howrah - WBPCB",24-06-2024 14:00:00,22.5687319,88.2797276,CO,13,108,37
India,West_Bengal,Howrah,"Padmapukur, Howrah - WBPCB",24-06-2024 14:00:00,22.5687319,88.2797276,OZONE,20,31,26
India,West_Bengal,Kolkata,"Ballygunge, Kolkata - WBPCB",24-06-2024 14:00:00,22.5367507,88.3638022,PM2.5,13,29,17
India,West_Bengal,Kolkata,"Ballygunge, Kolkata - WBPCB",24-06-2024 14:00:00,22.5367507,88.3638022,SO2,2,6,4
India,West_Bengal,Kolkata,"Bidhannagar, Kolkata - WBPCB",24-06-2024 14:00:00,22.58157048,88.41002457,PM10,18,46,27
India,West_Bengal,Kolkata,"Fort William, Kolkata - WBPCB",24-06-2024 14:00:00,22.556640,88.342674,NO2,11,25,18
India,West_Bengal,Kolkata,"Rabindra Sarobar, Kolkata - WBPCB",24-06-2024 14:00:00,22.51106,88.35142,SO2,5,7,6
India,West_Bengal,Kolkata,"Rabindra Sarobar, Kolkata - WBPCB",24-06-2024 14:00:00,22.51106,88.35142,OZONE,14,34,26
India,West_Bengal,Kolkata,"Victoria, Kolkata - WBPCB",24-06-2024 14:00:00,22.5448082,88.3403691,NO2,25,35,28
India,West_Bengal,Kolkata,"Victoria, Kolkata - WBPCB",24-06-2024 14:00:00,22.5448082,88.3403691,NH3,5,6,6
India,West_Bengal,Kolkata,"Victoria, Kolkata - WBPCB",24-06-2024 14:00:00,22.5448082,88.3403691,CO,16,30,22
India,Andhra_Pradesh,Amaravati,"Secretariat, Amaravati - APPCB",24-06-2024 14:00:00,16.5150833,80.5181667,CO,12,37,27
India,Andhra_Pradesh,Rajamahendravaram,"Anand Kala Kshetram, Rajamahendravaram - APPCB",24-06-2024 14:00:00,16.9872867,81.7363176,NH3,1,35,8
India,Andhra_Pradesh,Rajamahendravaram,"Anand Kala Kshetram, Rajamahendravaram - APPCB",24-06-2024 14:00:00,16.9872867,81.7363176,OZONE,21,79,52
India,Andhra_Pradesh,Tirupati,"Tirumala, Tirupati - APPCB",24-06-2024 14:00:00,13.67,79.35,NO2,13,33,21
India,Andhra_Pradesh,Tirupati,"Tirumala, Tirupati - APPCB",24-06-2024 14:00:00,13.67,79.35,NH3,1,2,1
India,Andhra_Pradesh,Tirupati,"Tirumala, Tirupati - APPCB",24-06-2024 14:00:00,13.67,79.35,SO2,1,13,5
India,Andhra_Pradesh,Vijayawada,"HB Colony, Vijayawada - APPCB",24-06-2024 14:00:00,16.536107,80.594233,PM2.5,25,134,40
India,Andhra_Pradesh,Vijayawada,"HB Colony, Vijayawada - APPCB",24-06-2024 14:00:00,16.536107,80.594233,PM10,35,120,49
India,Andhra_Pradesh,Vijayawada,"Rajiv Gandhi Park, Vijayawada - APPCB",24-06-2024 14:00:00,16.509717,80.612222,PM2.5,38,85,66
India,Andhra_Pradesh,Vijayawada,"Rajiv Gandhi Park, Vijayawada - APPCB",24-06-2024 14:00:00,16.509717,80.612222,SO2,7,9,8
India,Andhra_Pradesh,Vijayawada,"Rajiv Nagar, Vijayawada - APPCB",24-06-2024 14:00:00,16.554731,80.649110,NO2,10,10,10
India,Andhra_Pradesh,Vijayawada,"Rajiv Nagar, Vijayawada - APPCB",24-06-2024 14:00:00,16.554731,80.649110,SO2,26,26,26
India,Andhra_Pradesh,Visakhapatnam,"GVM Corporation, Visakhapatnam - APPCB",24-06-2024 14:00:00,17.72,83.3,PM10,56,142,101
India,Assam,Byrnihat,"Central Academy for SFS, Byrnihat - PCBA",24-06-2024 14:00:00,26.071318,91.87488,NO2,13,25,17
India,Assam,Byrnihat,"Central Academy for SFS, Byrnihat - PCBA",24-06-2024 14:00:00,26.071318,91.87488,NH3,15,20,16
India,Assam,Byrnihat,"Central Academy for SFS, Byrnihat - PCBA",24-06-2024 14:00:00,26.071318,91.87488,CO,9,18,13
India,Assam,Guwahati,"IITG, Guwahati - PCBA",24-06-2024 14:00:00,26.2028636,91.70046436,OZONE,27,30,28
India,Assam,Guwahati,"LGBI Airport, Guwahati - PCBA",24-06-2024 14:00:00,26.10887,91.589544,CO,39,58,49
India,Assam,Guwahati,"Pan Bazaar, Guwahati - PCBA",24-06-2024 14:00:00,26.187500,91.744194,OZONE,17,18,17
India,Assam,Nagaon,"Christianpatty, Nagaon - PCBA",24-06-2024 14:00:00,26.349082,92.68449,OZONE,9,78,43
India,Assam,Nalbari,"Bata Chowk, Nalbari - PCBA",24-06-2024 14:00:00,26.446912,91.439057,PM10,15,86,44
India,Assam,Nalbari,"Bata Chowk, Nalbari - PCBA",24-06-2024 14:00:00,26.446912,91.439057,NH3,1,2,1
India,Assam,Nalbari,"Bata Chowk, Nalbari - PCBA",24-06-2024 14:00:00,26.446912,91.439057,OZONE,6,80,30
India,Assam,Silchar,"Tarapur, Silchar - PCBA",24-06-2024 14:00:00,24.82827,92.79525,PM2.5,25,32,29
India,Assam,Sivasagar,"Girls College, Sivasagar - PCBA",24-06-2024 14:00:00,26.987634,94.636574,CO,2,10,4
India,Bihar,Arrah,"New DM Office, Arrah - BSPCB",24-06-2024 14:00:00,25.5626095,84.663264,CO,12,28,23
India,Bihar,Aurangabad,"Gurdeo Nagar, Aurangabad - BSPCB",24-06-2024 14:00:00,24.75746,84.366208,PM10,NA,NA,NA
India,Bihar,Aurangabad,"Gurdeo Nagar, Aurangabad - BSPCB",24-06-2024 14:00:00,24.75746,84.366208,NH3,8,45,20
India,Bihar,Aurangabad,"Gurdeo Nagar, Aurangabad - BSPCB",24-06-2024 14:00:00,24.75746,84.366208,CO,5,40,15
India,Bihar,Bettiah,"Kamalnath Nagar, Bettiah - BSPCB",24-06-2024 14:00:00,26.80365,84.51954,PM10,42,158,99
India,Bihar,Bettiah,"Kamalnath Nagar, Bettiah - BSPCB",24-06-2024 14:00:00,26.80365,84.51954,CO,33,56,39
India,Bihar,Bhagalpur,"DM Office_Kachari Chowk, Bhagalpur - BSPCB",24-06-2024 14:00:00,25.251013,86.989001,OZONE,46,49,48
India,Bihar,Bhagalpur,"Mayaganj, Bhagalpur - BSPCB",24-06-2024 14:00:00,25.265194,87.012947,OZONE,4,31,19
India,Bihar,Bihar Sharif,"D M Colony, Bihar Sharif - BSPCB",24-06-2024 14:00:00,25.204762,85.514960,NH3,1,1,1
India,Bihar,Bihar Sharif,"D M Colony, Bihar Sharif - BSPCB",24-06-2024 14:00:00,25.204762,85.514960,CO,24,30,28
India,Bihar,Bihar Sharif,"D M Colony, Bihar Sharif - BSPCB",24-06-2024 14:00:00,25.204762,85.514960,OZONE,16,60,43
India,Bihar,Buxar,"Charitra Van, Buxar - BSPCB (Formerly known as Central Jail)",24-06-2024 14:00:00,25.567520,83.966379,OZONE,5,71,43
India,Bihar,Chhapra,"Darshan Nagar, Chhapra - BSPCB",24-06-2024 14:00:00,25.7808257,84.7446768,PM10,34,124,60
India,Bihar,Chhapra,"Darshan Nagar, Chhapra - BSPCB",24-06-2024 14:00:00,25.7808257,84.7446768,NO2,NA,NA,NA
India,Bihar,Chhapra,"Darshan Nagar, Chhapra - BSPCB",24-06-2024 14:00:00,25.7808257,84.7446768,CO,34,54,40
India,Bihar,Gaya,"Collectorate, Gaya - BSPCB",24-06-2024 14:00:00,24.7955,84.9994,PM2.5,28,305,88
India,Bihar,Gaya,"Collectorate, Gaya - BSPCB",24-06-2024 14:00:00,24.7955,84.9994,NO2,3,5,4
India,Bihar,Gaya,"Collectorate, Gaya - BSPCB",24-06-2024 14:00:00,24.7955,84.9994,CO,19,31,27
India,Bihar,Gaya,"Kareemganj, Gaya - BSPCB",24-06-2024 14:00:00,24.792403,84.992416,PM10,27,45,34
India,Bihar,Gaya,"Kareemganj, Gaya - BSPCB",24-06-2024 14:00:00,24.792403,84.992416,NO2,28,32,30
India,Bihar,Gaya,"SFTI Kusdihra, Gaya - BSPCB",24-06-2024 14:00:00,24.762518,84.982348,PM2.5,18,59,26
India,Bihar,Gaya,"SFTI Kusdihra, Gaya - BSPCB",24-06-2024 14:00:00,24.762518,84.982348,NO2,30,191,57
India,Bihar,Gaya,"SFTI Kusdihra, Gaya - BSPCB",24-06-2024 14:00:00,24.762518,84.982348,SO2,7,12,8
India,Bihar,Gaya,"SFTI Kusdihra, Gaya - BSPCB",24-06-2024 14:00:00,24.762518,84.982348,OZONE,27,94,64
India,Bihar,Hajipur,"Industrial Area, Hajipur - BSPCB",24-06-2024 14:00:00,25.697189,85.245900,PM2.5,80,124,95
India,Bihar,Hajipur,"Industrial Area, Hajipur - BSPCB",24-06-2024 14:00:00,25.697189,85.245900,PM10,68,107,87
India,Bihar,Katihar,"Mirchaibari, Katihar - BSPCB",24-06-2024 14:00:00,25.560083,87.553265,NO2,4,4,4
India,Bihar,Manguraha,"Forest Rest House, Manguraha - BSPCB",24-06-2024 14:00:00,27.308328,84.531742,NH3,2,3,2
India,Bihar,Manguraha,"Forest Rest House, Manguraha - BSPCB",24-06-2024 14:00:00,27.308328,84.531742,OZONE,6,24,13
India,Bihar,Motihari,"Gandak Colony, Motihari - BSPCB",24-06-2024 14:00:00,26.63086,84.90051,PM10,NA,NA,NA
India,Bihar,Motihari,"Gandak Colony, Motihari - BSPCB",24-06-2024 14:00:00,26.63086,84.90051,NO2,NA,NA,NA
India,Bihar,Munger,"Town Hall, Munger - BSPCB",24-06-2024 14:00:00,25.376776,86.471523,NO2,4,6,5
India,Bihar,Munger,"Town Hall, Munger - BSPCB",24-06-2024 14:00:00,25.376776,86.471523,NH3,2,3,3
India,Bihar,Muzaffarpur,"Buddha Colony, Muzaffarpur - BSPCB",24-06-2024 14:00:00,26.11442,85.39813,NH3,3,7,5
India,Bihar,Muzaffarpur,"Buddha Colony, Muzaffarpur - BSPCB",24-06-2024 14:00:00,26.11442,85.39813,SO2,2,4,3
India,Bihar,Muzaffarpur,"Buddha Colony, Muzaffarpur - BSPCB",24-06-2024 14:00:00,26.11442,85.39813,CO,16,32,24
India,Bihar,Muzaffarpur,"Buddha Colony, Muzaffarpur - BSPCB",24-06-2024 14:00:00,26.11442,85.39813,OZONE,37,106,74
India,Bihar,Muzaffarpur,"MIT-Daudpur Kothi, Muzaffarpur - BSPCB",24-06-2024 14:00:00,26.1403345,85.3650192,SO2,8,13,10
India,Bihar,Patna,"DRM Office Danapur, Patna - BSPCB",24-06-2024 14:00:00,25.586562,85.043586,NO2,17,24,20
India,Bihar,Patna,"DRM Office Danapur, Patna - BSPCB",24-06-2024 14:00:00,25.586562,85.043586,CO,20,38,27
India,Bihar,Patna,"DRM Office Danapur, Patna - BSPCB",24-06-2024 14:00:00,25.586562,85.043586,OZONE,11,62,36
India,Bihar,Patna,"Govt. High School Shikarpur, Patna - BSPCB",24-06-2024 14:00:00,25.592539,85.227158,PM2.5,NA,NA,NA
India,Bihar,Patna,"Govt. High School Shikarpur, Patna - BSPCB",24-06-2024 14:00:00,25.592539,85.227158,CO,31,44,32
India,Bihar,Patna,"IGSC Planetarium Complex, Patna - BSPCB",24-06-2024 14:00:00,25.610369,85.132568,NO2,12,12,12
India,Bihar,Patna,"Muradpur, Patna - BSPCB",24-06-2024 14:00:00,25.619651,85.147382,PM2.5,69,354,158
India,Bihar,Patna,"Muradpur, Patna - BSPCB",24-06-2024 14:00:00,25.619651,85.147382,SO2,3,7,5
India,Bihar,Patna,"Muradpur, Patna - BSPCB",24-06-2024 14:00:00,25.619651,85.147382,CO,20,83,49
India,Bihar,Patna,"Rajbansi Nagar, Patna - BSPCB",24-06-2024 14:00:00,25.599486,85.113666,NO2,8,38,14
India,Bihar,Purnia,"Mariam Nagar, Purnia - BSPCB",24-06-2024 14:00:00,25.366336,87.117468,CO,6,74,32
India,Bihar,Rajgir,"Dangi Tola, Rajgir - BSPCB",24-06-2024 14:00:00,25.03280,85.41948,CO,38,38,38
India,Bihar,Samastipur,"DM Office_Kasipur, Samastipur - BSPCB",24-06-2024 14:00:00,25.859655,85.77944,PM10,NA,NA,NA
India,Bihar,Sasaram,"Dada Peer, Sasaram - BSPCB",24-06-2024 14:00:00,24.952822,84.002396,PM2.5,68,334,194
India,Bihar,Siwan,"Chitragupta Nagar, Siwan - BSPCB",24-06-2024 14:00:00,26.2271665,84.3570427,PM10,NA,NA,NA
India,Bihar,Siwan,"Chitragupta Nagar, Siwan - BSPCB",24-06-2024 14:00:00,26.2271665,84.3570427,SO2,2,35,19
India,Chandigarh,Chandigarh,"Sector 22, Chandigarh - CPCC",24-06-2024 14:00:00,30.735567,76.775714,NO2,19,70,36
India,Chandigarh,Chandigarh,"Sector 22, Chandigarh - CPCC",24-06-2024 14:00:00,30.735567,76.775714,CO,32,46,39
India,Chandigarh,Chandigarh,"Sector 22, Chandigarh - CPCC",24-06-2024 14:00:00,30.735567,76.775714,OZONE,31,304,93
India,Chhattisgarh,Bhilai,"Hathkhoj, Bhilai - CECB",24-06-2024 14:00:00,21.224231,81.408350,CO,12,58,16
India,Chhattisgarh,Bhilai,"Hathkhoj, Bhilai - CECB",24-06-2024 14:00:00,21.224231,81.408350,OZONE,22,63,48
India,Chhattisgarh,Bilaspur,"Mangala, Bilaspur - NTPC",24-06-2024 14:00:00,22.08815,82.13737,CO,34,44,38
India,Chhattisgarh,Chhal,"Nawapara SECL Colony, Chhal - CECB",24-06-2024 14:00:00,22.118125,83.140608,CO,21,32,25
India,Chhattisgarh,Korba,"Rampur, Korba - CECB",24-06-2024 14:00:00,22.368195,82.746431,PM10,23,35,29
India,Chhattisgarh,Korba,"Urja Nagar, Korba - CECB",24-06-2024 14:00:00,22.348441,82.549611,PM2.5,NA,NA,NA
India,Chhattisgarh,Korba,"Urja Nagar, Korba - CECB",24-06-2024 14:00:00,22.348441,82.549611,PM10,NA,NA,NA
India,Chhattisgarh,Korba,"Urja Nagar, Korba - CECB",24-06-2024 14:00:00,22.348441,82.549611,NO2,38,46,42
India,Chhattisgarh,Korba,"Urja Nagar, Korba - CECB",24-06-2024 14:00:00,22.348441,82.549611,CO,24,72,50
India,Chhattisgarh,Kunjemura,"OP Jindal School, Kunjemura - CECB",24-06-2024 14:00:00,22.126650,83.483212,PM10,15,192,60
India,Chhattisgarh,Milupara,"Govt. Higher Secondary School, Milupara - CECB",24-06-2024 14:00:00,22.1910172,83.5197009,NH3,NA,NA,NA
India,Chhattisgarh,Milupara,"Govt. Higher Secondary School, Milupara - CECB",24-06-2024 14:00:00,22.1910172,83.5197009,OZONE,23,155,33
India,Chhattisgarh,Raipur,"Bhatagaon New ISBT, Raipur - CECB",24-06-2024 14:00:00,21.219665,81.630094,NH3,NA,NA,NA
India,Chhattisgarh,Raipur,"Bhatagaon New ISBT, Raipur - CECB",24-06-2024 14:00:00,21.219665,81.630094,SO2,NA,NA,NA
India,Chhattisgarh,Raipur,"Bhatagaon New ISBT, Raipur - CECB",24-06-2024 14:00:00,21.219665,81.630094,OZONE,4,10,7
India,Chhattisgarh,Raipur,"Krishak Nagar, Raipur - CECB",24-06-2024 14:00:00,21.237755,81.705301,NO2,NA,NA,NA
India,Chhattisgarh,Raipur,"Krishak Nagar, Raipur - CECB",24-06-2024 14:00:00,21.237755,81.705301,SO2,NA,NA,NA
India,Chhattisgarh,Raipur,"Krishak Nagar, Raipur - CECB",24-06-2024 14:00:00,21.237755,81.705301,OZONE,NA,NA,NA
India,Chhattisgarh,Raipur,"Siltara Phase-II, Raipur - CECB",24-06-2024 14:00:00,21.371751,81.664929,NH3,3,3,3
India,Chhattisgarh,Raipur,"Siltara Phase-II, Raipur - CECB",24-06-2024 14:00:00,21.371751,81.664929,SO2,1,8,3
India,Chhattisgarh,Tumidih,"OP Jindal Industrial Park, Tumidih - CECB",24-06-2024 14:00:00,22.06631475,83.33820077,SO2,5,10,6
India,Delhi,Delhi,"Alipur, Delhi - DPCC",24-06-2024 14:00:00,28.815329,77.153010,PM2.5,77,270,131
India,Delhi,Delhi,"Alipur, Delhi - DPCC",24-06-2024 14:00:00,28.815329,77.153010,PM10,100,177,138
India,Delhi,Delhi,"Anand Vihar, Delhi - DPCC",24-06-2024 14:00:00,28.647622,77.3158090,PM2.5,48,257,141
India,Delhi,Delhi,"Anand Vihar, Delhi - DPCC",24-06-2024 14:00:00,28.647622,77.3158090,NO2,39,74,50
India,Delhi,Delhi,"Ashok Vihar, Delhi - DPCC",24-06-2024 14:00:00,28.695381,77.181665,CO,42,60,50
India,Delhi,Delhi,"Ashok Vihar, Delhi - DPCC",24-06-2024 14:00:00,28.695381,77.181665,OZONE,22,103,58
India,Delhi,Delhi,"Bawana, Delhi - DPCC",24-06-2024 14:00:00,28.776200,77.051074,OZONE,11,94,27
India,Delhi,Delhi,"CRRI Mathura Road, Delhi - IMD",24-06-2024 14:00:00,28.5512005,77.2735737,CO,26,48,36
India,Delhi,Delhi,"CRRI Mathura Road, Delhi - IMD",24-06-2024 14:00:00,28.5512005,77.2735737,OZONE,5,15,7
India,Delhi,Delhi,"Chandni Chowk, Delhi - IITM",24-06-2024 14:00:00,28.656756,77.227234,PM10,NA,NA,NA
India,Delhi,Delhi,"Chandni Chowk, Delhi - IITM",24-06-2024 14:00:00,28.656756,77.227234,OZONE,1,3,1
India,Delhi,Delhi,"DTU, Delhi - CPCB",24-06-2024 14:00:00,28.7500499,77.1112615,PM2.5,77,190,113
India,Delhi,Delhi,"DTU, Delhi - CPCB",24-06-2024 14:00:00,28.7500499,77.1112615,NO2,63,72,66
India,Delhi,Delhi,"DTU, Delhi - CPCB",24-06-2024 14:00:00,28.7500499,77.1112615,CO,45,72,56
India,Delhi,Delhi,"Dwarka-Sector 8, Delhi - DPCC ",24-06-2024 14:00:00,28.5710274,77.0719006,NH3,7,28,15
India,Delhi,Delhi,"Dwarka-Sector 8, Delhi - DPCC ",24-06-2024 14:00:00,28.5710274,77.0719006,CO,2,102,54
India,Delhi,Delhi,"IGI Airport (T3), Delhi - IMD",24-06-2024 14:00:00,28.5627763,77.1180053,CO,33,50,42
India,Delhi,Delhi,"IGI Airport (T3), Delhi - IMD",24-06-2024 14:00:00,28.5627763,77.1180053,OZONE,3,49,20
India,Delhi,Delhi,"IHBAS, Dilshad Garden, Delhi - CPCB",24-06-2024 14:00:00,28.6811736,77.3025234,NO2,24,66,36
India,Delhi,Delhi,"IHBAS, Dilshad Garden, Delhi - CPCB",24-06-2024 14:00:00,28.6811736,77.3025234,CO,10,88,32
India,Delhi,Delhi,"ITO, Delhi - CPCB",24-06-2024 14:00:00,28.628624,77.241060,SO2,12,32,21
India,Delhi,Delhi,"Jahangirpuri, Delhi - DPCC",24-06-2024 14:00:00,28.732820,77.170633,OZONE,4,96,40
India,Delhi,Delhi,"Jawaharlal Nehru Stadium, Delhi - DPCC",24-06-2024 14:00:00,28.580280,77.233829,CO,42,76,48
India,Delhi,Delhi,"Jawaharlal Nehru Stadium, Delhi - DPCC",24-06-2024 14:00:00,28.580280,77.233829,OZONE,8,91,42
India,Delhi,Delhi,"Lodhi Road, Delhi - IMD",24-06-2024 14:00:00,28.5918245,77.2273074,PM10,68,113,101
India,Delhi,Delhi,"Major Dhyan Chand National Stadium, Delhi - DPCC",24-06-2024 14:00:00,28.611281,77.237738,PM2.5,80,329,161
India,Delhi,Delhi,"Major Dhyan Chand National Stadium, Delhi - DPCC",24-06-2024 14:00:00,28.611281,77.237738,PM10,78,197,130
India,Delhi,Delhi,"Major Dhyan Chand National Stadium, Delhi - DPCC",24-06-2024 14:00:00,28.611281,77.237738,NO2,14,107,48
India,Delhi,Delhi,"Major Dhyan Chand National Stadium, Delhi - DPCC",24-06-2024 14:00:00,28.611281,77.237738,CO,36,75,46
India,Delhi,Delhi,"Major Dhyan Chand National Stadium, Delhi - DPCC",24-06-2024 14:00:00,28.611281,77.237738,OZONE,1,85,17
India,Delhi,Delhi,"Mandir Marg, Delhi - DPCC",24-06-2024 14:00:00,28.636429,77.201067,PM2.5,72,150,92
India,Delhi,Delhi,"Mandir Marg, Delhi - DPCC",24-06-2024 14:00:00,28.636429,77.201067,SO2,6,20,13
India,Delhi,Delhi,"Mundka, Delhi - DPCC",24-06-2024 14:00:00,28.684678,77.076574,PM10,115,246,160
India,Delhi,Delhi,"Mundka, Delhi - DPCC",24-06-2024 14:00:00,28.684678,77.076574,NO2,45,113,74
India,Delhi,Delhi,"Mundka, Delhi - DPCC",24-06-2024 14:00:00,28.684678,77.076574,NH3,8,31,16
India,Delhi,Delhi,"Mundka, Delhi - DPCC",24-06-2024 14:00:00,28.684678,77.076574,OZONE,21,186,51
India,Delhi,Delhi,"NSIT Dwarka, Delhi - CPCB",24-06-2024 14:00:00,28.60909,77.0325413,PM10,NA,NA,NA
India,Delhi,Delhi,"Najafgarh, Delhi - DPCC",24-06-2024 14:00:00,28.570173,76.933762,NH3,9,24,15
India,Delhi,Delhi,"Najafgarh, Delhi - DPCC",24-06-2024 14:00:00,28.570173,76.933762,SO2,10,19,14
India,Delhi,Delhi,"Nehru Nagar, Delhi - DPCC",24-06-2024 14:00:00,28.567890,77.250515,SO2,5,10,7
India,Delhi,Delhi,"Nehru Nagar, Delhi - DPCC",24-06-2024 14:00:00,28.567890,77.250515,CO,53,98,64
India,Delhi,Delhi,"New Moti Bagh, Delhi - MHUA",24-06-2024 14:00:00,28.57834,77.18400,NO2,6,22,12
India,Delhi,Delhi,"North Campus, DU, Delhi - IMD",24-06-2024 14:00:00,28.6573814,77.1585447,PM2.5,40,424,231
India,Delhi,Delhi,"North Campus, DU, Delhi - IMD",24-06-2024 14:00:00,28.6573814,77.1585447,PM10,96,142,117
India,Delhi,Delhi,"Okhla Phase-2, Delhi - DPCC",24-06-2024 14:00:00,28.530785,77.271255,OZONE,9,92,46
India,Delhi,Delhi,"Punjabi Bagh, Delhi - DPCC",24-06-2024 14:00:00,28.674045,77.131023,PM2.5,60,197,131
India,Delhi,Delhi,"Punjabi Bagh, Delhi - DPCC",24-06-2024 14:00:00,28.674045,77.131023,OZONE,22,86,47
India,Delhi,Delhi,"Pusa, Delhi - DPCC",24-06-2024 14:00:00,28.639652,77.146275,SO2,1,8,4
India,Delhi,Delhi,"Pusa, Delhi - IMD",24-06-2024 14:00:00,28.636110,77.173332,PM10,71,140,102
India,Delhi,Delhi,"Pusa, Delhi - IMD",24-06-2024 14:00:00,28.636110,77.173332,CO,50,68,60
India,Delhi,Delhi,"R K Puram, Delhi - DPCC",24-06-2024 14:00:00,28.563262,77.186937,PM2.5,92,170,126
India,Delhi,Delhi,"Rohini, Delhi - DPCC",24-06-2024 14:00:00,28.732528,77.119920,NO2,17,53,30
India,Delhi,Delhi,"Rohini, Delhi - DPCC",24-06-2024 14:00:00,28.732528,77.119920,OZONE,7,36,18
India,Delhi,Delhi,"Shadipur, Delhi - CPCB",24-06-2024 14:00:00,28.6514781,77.1473105,PM2.5,123,248,169
India,Delhi,Delhi,"Sirifort, Delhi - CPCB",24-06-2024 14:00:00,28.5504249,77.2159377,SO2,NA,NA,NA
India,Delhi,Delhi,"Sonia Vihar, Delhi - DPCC",24-06-2024 14:00:00,28.710508,77.249485,CO,11,96,19
India,Delhi,Delhi,"Vivek Vihar, Delhi - DPCC",24-06-2024 14:00:00,28.672342,77.315260,NO2,16,36,22
India,Delhi,Delhi,"Wazirpur, Delhi - DPCC",24-06-2024 14:00:00,28.699793,77.165453,PM2.5,87,207,137
India,Gujarat,Ahmedabad,"Gyaspur, Ahmedabad - IITM",24-06-2024 14:00:00,22.977134,72.553024,PM2.5,NA,NA,NA
India,Gujarat,Ahmedabad,"Gyaspur, Ahmedabad - IITM",24-06-2024 14:00:00,22.977134,72.553024,PM10,NA,NA,NA
India,Gujarat,Ahmedabad,"Gyaspur, Ahmedabad - IITM",24-06-2024 14:00:00,22.977134,72.553024,SO2,NA,NA,NA
India,Gujarat,Ahmedabad,"Maninagar, Ahmedabad - GPCB",24-06-2024 14:00:00,23.002657,72.591912,CO,3,23,7
India,Gujarat,Ahmedabad,"SVPI Airport Hansol, Ahmedabad - IITM",24-06-2024 14:00:00,23.076793,72.627874,NH3,NA,NA,NA
India,Gujarat,Ahmedabad,"Sardar Vallabhbhai Patel Stadium, Ahmedabad - IITM",24-06-2024 14:00:00,23.043070,72.562968,NH3,6,9,7
India,Gujarat,Gandhinagar,"Sector-10, Gandhinagar - GPCB",24-06-2024 14:00:00,23.221714,72.654328,NO2,22,23,23
India,Gujarat,Surat,"Science Center, Surat - SMC",24-06-2024 14:00:00,21.170046,72.795405,SO2,11,14,12
India,Gujarat,Vapi,"Phase-1 GIDC, Vapi - GPCB",24-06-2024 14:00:00,20.362421,72.918013,NO2,6,7,6
India,Gujarat,Vapi,"Phase-1 GIDC, Vapi - GPCB",24-06-2024 14:00:00,20.362421,72.918013,SO2,45,48,48
India,Gujarat,Vatva,"Phase-4 GIDC, Vatva - GPCB",24-06-2024 14:00:00,22.969611,72.643500,PM2.5,28,52,44
India,Haryana,Ambala,"Patti Mehar, Ambala - HSPCB",24-06-2024 14:00:00,30.379589,76.778328,NH3,5,12,8
India,Haryana,Bahadurgarh,"Arya Nagar, Bahadurgarh - HSPCB",24-06-2024 14:00:00,28.6701,76.9254,PM10,82,143,112
India,Haryana,Bahadurgarh,"Arya Nagar, Bahadurgarh - HSPCB",24-06-2024 14:00:00,28.6701,76.9254,NH3,8,10,9
India,Haryana,Bahadurgarh,"Arya Nagar, Bahadurgarh - HSPCB",24-06-2024 14:00:00,28.6701,76.9254,SO2,NA,NA,NA
India,Haryana,Ballabgarh,"Nathu Colony, Ballabgarh - HSPCB",24-06-2024 14:00:00,28.3419248,77.319699,PM10,62,464,206
India,Haryana,Ballabgarh,"Nathu Colony, Ballabgarh - HSPCB",24-06-2024 14:00:00,28.3419248,77.319699,CO,10,100,36
India,Haryana,Dharuhera,"Municipal Corporation Office, Dharuhera -  HSPCB",24-06-2024 14:00:00,28.206800,76.799700,PM10,55,122,93
India,Haryana,Dharuhera,"Municipal Corporation Office, Dharuhera -  HSPCB",24-06-2024 14:00:00,28.206800,76.799700,NH3,9,25,19
India,Haryana,Faridabad,"New Industrial Town, Faridabad - HSPCB",24-06-2024 14:00:00,28.39072,77.30059,SO2,15,17,16
India,Haryana,Faridabad,"Sector 11, Faridabad - HSPCB",24-06-2024 14:00:00,28.376058,77.315741,SO2,6,128,19
India,Haryana,Faridabad,"Sector 30, Faridabad - HSPCB",24-06-2024 14:00:00,28.4417,77.3217,NO2,30,33,31
India,Haryana,Faridabad,"Sector 30, Faridabad - HSPCB",24-06-2024 14:00:00,28.4417,77.3217,CO,18,90,40
India,Haryana,Faridabad,"Sector- 16A, Faridabad - HSPCB",24-06-2024 14:00:00,28.4088421,77.3099081,CO,30,80,48
India,Haryana,Fatehabad,"Huda Sector, Fatehabad - HSPCB",24-06-2024 14:00:00,29.503664,75.467934,PM10,89,112,102
India,Haryana,Fatehabad,"Huda Sector, Fatehabad - HSPCB",24-06-2024 14:00:00,29.503664,75.467934,NO2,28,31,30
India,Haryana,Fatehabad,"Huda Sector, Fatehabad - HSPCB",24-06-2024 14:00:00,29.503664,75.467934,NH3,9,10,10
India,Haryana,Gurugram,"NISE Gwal Pahari, Gurugram - IMD",24-06-2024 14:00:00,28.422681,77.148944,CO,24,38,36
India,Haryana,Gurugram,"NISE Gwal Pahari, Gurugram - IMD",24-06-2024 14:00:00,28.422681,77.148944,OZONE,6,78,35
India,Haryana,Gurugram,"Sector-51, Gurugram - HSPCB",24-06-2024 14:00:00,28.4227,77.0667,PM10,104,122,107
India,Haryana,Gurugram,"Sector-51, Gurugram - HSPCB",24-06-2024 14:00:00,28.4227,77.0667,CO,32,51,39
India,Haryana,Gurugram,"Teri Gram, Gurugram - HSPCB",24-06-2024 14:00:00,28.4275,77.1465,PM2.5,NA,NA,NA
India,Haryana,Gurugram,"Teri Gram, Gurugram - HSPCB",24-06-2024 14:00:00,28.4275,77.1465,NH3,NA,NA,NA
India,Haryana,Gurugram,"Teri Gram, Gurugram - HSPCB",24-06-2024 14:00:00,28.4275,77.1465,CO,4,38,19
India,Haryana,Gurugram,"Vikas Sadan, Gurugram - HSPCB",24-06-2024 14:00:00,28.4501238,77.0263051,NO2,5,25,14
India,Haryana,Kaithal,"Rishi Nagar, Kaithal - HSPCB",24-06-2024 14:00:00,29.8006,76.4155,PM10,NA,NA,NA
India,Haryana,Kaithal,"Rishi Nagar, Kaithal - HSPCB",24-06-2024 14:00:00,29.8006,76.4155,NO2,NA,NA,NA
India,Haryana,Kaithal,"Rishi Nagar, Kaithal - HSPCB",24-06-2024 14:00:00,29.8006,76.4155,NH3,NA,NA,NA
India,Haryana,Kaithal,"Rishi Nagar, Kaithal - HSPCB",24-06-2024 14:00:00,29.8006,76.4155,SO2,NA,NA,NA
India,Haryana,Karnal,"Sector-12, Karnal - HSPCB",24-06-2024 14:00:00,29.695300,77.002700,PM2.5,64,122,78
India,Haryana,Narnaul,"Shastri Nagar, Narnaul - HSPCB",24-06-2024 14:00:00,28.060249,76.113115,NO2,15,84,47
India,Haryana,Panchkula,"Sector-6, Panchkula - HSPCB ",24-06-2024 14:00:00,30.7057778,76.8531805555555,SO2,2,24,4
India,Haryana,Panipat,"Sector-18, Panipat - HSPCB",24-06-2024 14:00:00,29.432304,76.972765,NO2,31,32,31
India,Haryana,Panipat,"Sector-18, Panipat - HSPCB",24-06-2024 14:00:00,29.432304,76.972765,OZONE,30,30,30
India,Haryana,Rohtak,"MD University, Rohtak - HSPCB",24-06-2024 14:00:00,28.52123,76.37138,PM2.5,9,500,258
India,Haryana,Rohtak,"MD University, Rohtak - HSPCB",24-06-2024 14:00:00,28.52123,76.37138,CO,12,54,30
India,Haryana,Sirsa,"F-Block, Sirsa - HSPCB",24-06-2024 14:00:00,29.536400,75.015800,PM2.5,31,156,78
India,Haryana,Sonipat,"Murthal, Sonipat - HSPCB",24-06-2024 14:00:00,29.027200,77.062100,NO2,37,44,39
India,Haryana,Sonipat,"Murthal, Sonipat - HSPCB",24-06-2024 14:00:00,29.027200,77.062100,NH3,7,10,9
India,Himachal Pradesh,Baddi,"HIMUDA Complex Phase-1, Baddi - HPPCB",24-06-2024 14:00:00,30.943887,76.801991,PM10,38,149,94
India,Himachal Pradesh,Baddi,"HIMUDA Complex Phase-1, Baddi - HPPCB",24-06-2024 14:00:00,30.943887,76.801991,NO2,7,20,14
India,Himachal Pradesh,Baddi,"HIMUDA Complex Phase-1, Baddi - HPPCB",24-06-2024 14:00:00,30.943887,76.801991,NH3,5,7,6
India,Himachal Pradesh,Baddi,"HIMUDA Complex Phase-1, Baddi - HPPCB",24-06-2024 14:00:00,30.943887,76.801991,SO2,11,78,28
India,Jammu_and_Kashmir,Srinagar,"Rajbagh, Srinagar - JKSPCB",24-06-2024 14:00:00,34.066206,74.819820,NO2,NA,NA,NA
India,Jammu_and_Kashmir,Srinagar,"Rajbagh, Srinagar - JKSPCB",24-06-2024 14:00:00,34.066206,74.819820,CO,20,21,20
India,Jharkhand,Dhanbad,"Kalakusuma, Dhanbad - DMC",24-06-2024 14:00:00,23.811548,86.481238,PM10,NA,NA,NA
India,Jharkhand,Dhanbad,"Sardar Patel Nagar, Dhanbad - JSPCB",24-06-2024 14:00:00,23.80569,86.44268,PM10,NA,NA,NA
India,Jharkhand,Pathardih,"Mohalbani Ghat, Pathardih - DMC",24-06-2024 14:00:00,23.669880,86.411725,PM2.5,NA,NA,NA
India,Jharkhand,Pathardih,"Mohalbani Ghat, Pathardih - DMC",24-06-2024 14:00:00,23.669880,86.411725,NO2,NA,NA,NA
India,Jharkhand,Pathardih,"Mohalbani Ghat, Pathardih - DMC",24-06-2024 14:00:00,23.669880,86.411725,OZONE,20,23,22
India,Karnataka,Belgaum,"Ramteerth Nagar, Belgaum - KSPCB",24-06-2024 14:00:00,15.888653,74.541751,PM2.5,6,19,12
India,Karnataka,Belgaum,"Ramteerth Nagar, Belgaum - KSPCB",24-06-2024 14:00:00,15.888653,74.541751,OZONE,19,20,20
India,Karnataka,Bengaluru,"Bapuji Nagar, Bengaluru - KSPCB",24-06-2024 14:00:00,12.951913,77.539784,PM10,3,44,20
India,Karnataka,Bengaluru,"Bapuji Nagar, Bengaluru - KSPCB",24-06-2024 14:00:00,12.951913,77.539784,NO2,14,17,15
India,Karnataka,Bengaluru,"Bapuji Nagar, Bengaluru - KSPCB",24-06-2024 14:00:00,12.951913,77.539784,NH3,1,1,1
India,Karnataka,Bengaluru,"Bapuji Nagar, Bengaluru - KSPCB",24-06-2024 14:00:00,12.951913,77.539784,OZONE,37,56,45
India,Karnataka,Bengaluru,"City Railway Station, Bengaluru - KSPCB",24-06-2024 14:00:00,12.9756843,77.5660749,CO,52,100,65
India,Karnataka,Bengaluru,"Hebbal, Bengaluru - KSPCB",24-06-2024 14:00:00,13.029152,77.585901,PM2.5,2,20,8
India,Karnataka,Bengaluru,"Hebbal, Bengaluru - KSPCB",24-06-2024 14:00:00,13.029152,77.585901,NO2,5,7,6
India,Karnataka,Bengaluru,"Hebbal, Bengaluru - KSPCB",24-06-2024 14:00:00,13.029152,77.585901,SO2,20,26,24
India,Karnataka,Bengaluru,"Hebbal, Bengaluru - KSPCB",24-06-2024 14:00:00,13.029152,77.585901,CO,8,24,16
India,Karnataka,Bengaluru,"Jayanagar 5th Block, Bengaluru - KSPCB",24-06-2024 14:00:00,12.920984,77.584908,PM2.5,4,28,16
India,Karnataka,Bengaluru,"Jigani, Bengaluru - KSPCB",24-06-2024 14:00:00,12.7816279,77.6299145,PM2.5,37,38,38
India,Karnataka,Bengaluru,"Jigani, Bengaluru - KSPCB",24-06-2024 14:00:00,12.7816279,77.6299145,CO,24,26,24
India,Karnataka,Bengaluru,"Kasturi Nagar, Bengaluru - KSPCB",24-06-2024 14:00:00,13.003872,77.664217,CO,24,26,25
India,Karnataka,Bengaluru,"Peenya, Bengaluru - CPCB",24-06-2024 14:00:00,13.0270199,77.494094,SO2,13,16,14
India,Karnataka,Bengaluru,"RVCE-Mailasandra, Bengaluru - KSPCB",24-06-2024 14:00:00,12.921418,77.502466,CO,36,50,42
India,Karnataka,Bengaluru,"RVCE-Mailasandra, Bengaluru - KSPCB",24-06-2024 14:00:00,12.921418,77.502466,OZONE,39,39,39
India,Karnataka,Bengaluru,"Shivapura_Peenya, Bengaluru - KSPCB",24-06-2024 14:00:00,13.0246342,77.5080115,NO2,15,16,15
India,Karnataka,Bengaluru,"Shivapura_Peenya, Bengaluru - KSPCB",24-06-2024 14:00:00,13.0246342,77.5080115,NH3,4,4,4
India,Karnataka,Bengaluru,"Silk Board, Bengaluru - KSPCB",24-06-2024 14:00:00,12.917348,77.622813,NO2,NA,NA,NA
India,Karnataka,Bengaluru,"Silk Board, Bengaluru - KSPCB",24-06-2024 14:00:00,12.917348,77.622813,NH3,NA,NA,NA
India,Karnataka,Chamarajanagar,"Urban, Chamarajanagar - KSPCB",24-06-2024 14:00:00,11.55358,76.55521,NO2,NA,NA,NA
India,Karnataka,Chikkaballapur,"Chikkaballapur Rural, Chikkaballapur - KSPCB",24-06-2024 14:00:00,13.428828,77.731418,PM2.5,7,38,18
India,Karnataka,Chikkaballapur,"Chikkaballapur Rural, Chikkaballapur - KSPCB",24-06-2024 14:00:00,13.428828,77.731418,PM10,6,65,31
India,Karnataka,Chikkaballapur,"Chikkaballapur Rural, Chikkaballapur - KSPCB",24-06-2024 14:00:00,13.428828,77.731418,NH3,1,1,1
India,Karnataka,Chikkaballapur,"Chikkaballapur Rural, Chikkaballapur - KSPCB",24-06-2024 14:00:00,13.428828,77.731418,OZONE,32,35,34
India,Karnataka,Chikkamagaluru,"Kalyana Nagara, Chikkamagaluru - KSPCB",24-06-2024 14:00:00,13.328028,75.797056,PM2.5,6,42,24
India,Karnataka,Dharwad,"Kalabhavan, Dharwad - KSPCB",24-06-2024 14:00:00,15.459706,75.008381,PM2.5,8,59,32
India,Karnataka,Dharwad,"Kalabhavan, Dharwad - KSPCB",24-06-2024 14:00:00,15.459706,75.008381,CO,20,68,49
India,Karnataka,Gadag,"Panchal Nagar, Gadag - KSPCB",24-06-2024 14:00:00,15.411456,75.638133,NO2,6,28,14
India,Karnataka,Hassan,"B.Katihalli, Hassan - KSPCB",24-06-2024 14:00:00,13.008556,76.125258,PM10,14,67,32
India,Karnataka,Haveri,"Ashwini Nagar, Haveri - KSPCB",24-06-2024 14:00:00,14.791800,75.389600,NO2,NA,NA,NA
India,Karnataka,Haveri,"Ashwini Nagar, Haveri - KSPCB",24-06-2024 14:00:00,14.791800,75.389600,NH3,NA,NA,NA
India,Karnataka,Haveri,"Ashwini Nagar, Haveri - KSPCB",24-06-2024 14:00:00,14.791800,75.389600,OZONE,35,42,40
India,Karnataka,Hubballi,"Lingaraj Nagar, Hubballi - KSPCB",24-06-2024 14:00:00,15.3714823,75.1160168,NO2,11,16,14
India,Karnataka,Kalaburagi,"Mahatma Basaveswar Colony, Kalaburgi - KSPCB",24-06-2024 14:00:00,17.336318,76.847397,OZONE,9,20,15
India,Karnataka,Karwar,"KHB Colony, Karwar - KSPCB",24-06-2024 14:00:00,14.816666,74.141003,OZONE,21,22,22
India,Karnataka,Madikeri,"Stuart Hill, Madikeri - KSPCB",24-06-2024 14:00:00,12.415911,75.735050,PM10,9,29,20
India,Karnataka,Mangalore,"Kadri, Mangalore - KSPCB",24-06-2024 14:00:00,12.889250,74.853000,PM10,36,65,50
India,Karnataka,Raichur,"Haji Colony, Raichur - KSPCB",24-06-2024 14:00:00,16.208139,77.348417,NO2,NA,NA,NA
India,Karnataka,Ramanagara,"Vijay Nagar, Ramanagara - KSPCB",24-06-2024 14:00:00,12.733409,77.298051,PM2.5,2,28,10
India,Karnataka,Ramanagara,"Vijay Nagar, Ramanagara - KSPCB",24-06-2024 14:00:00,12.733409,77.298051,NO2,6,12,8
India,Karnataka,Ramanagara,"Vijay Nagar, Ramanagara - KSPCB",24-06-2024 14:00:00,12.733409,77.298051,NH3,2,3,2
India,Karnataka,Ramanagara,"Vijay Nagar, Ramanagara - KSPCB",24-06-2024 14:00:00,12.733409,77.298051,OZONE,28,37,29
India,Karnataka,Shivamogga,"Vinoba Nagara, Shivamogga - KSPCB",24-06-2024 14:00:00,13.940000,75.555917,PM2.5,23,51,44
India,Karnataka,Shivamogga,"Vinoba Nagara, Shivamogga - KSPCB",24-06-2024 14:00:00,13.940000,75.555917,PM10,35,77,66
India,Karnataka,Tumakuru,"Thimmalapura, Tumakuru - KSPCB",24-06-2024 14:00:00,13.377516,77.099072,PM10,28,414,86
India,Karnataka,Vijayapura,"Ibrahimpur, Vijayapura - KSPCB",24-06-2024 14:00:00,16.802639,75.722694,PM10,41,44,42
India,Karnataka,Vijayapura,"Ibrahimpur, Vijayapura - KSPCB",24-06-2024 14:00:00,16.802639,75.722694,NH3,2,2,2
India,Karnataka,Vijayapura,"Ibrahimpur, Vijayapura - KSPCB",24-06-2024 14:00:00,16.802639,75.722694,OZONE,13,16,15
India,Karnataka,Yadgir,"Collector Office, Yadgir - KSPCB",24-06-2024 14:00:00,16.7602,77.1428,PM10,NA,NA,NA
India,Karnataka,Yadgir,"Collector Office, Yadgir - KSPCB",24-06-2024 14:00:00,16.7602,77.1428,NH3,1,2,1
India,Kerala,Eloor,"Udyogamandal, Eloor - Kerala PCB",24-06-2024 14:00:00,10.073232,76.302765,PM2.5,NA,NA,NA
