country,state,city,station,last_update,latitude,longitude,pollutant_id,pollutant_min,pollutant_max,pollutant_avg
India,Andhra_Pradesh,Amaravati,"Secretariat, Amaravati - APPCB",28-06-2024 21:00:00,16.5150833,80.5181667,CO,14,46,39
India,Andhra_Pradesh,Anantapur,"Gulzarpet, Anantapur - APPCB",28-06-2024 21:00:00,14.675886,77.593027,PM10,67,89,77
India,Andhra_Pradesh,Anantapur,"Gulzarpet, Anantapur - APPCB",28-06-2024 21:00:00,14.675886,77.593027,NH3,4,4,4
India,Andhra_Pradesh,Anantapur,"Gulzarpet, Anantapur - APPCB",28-06-2024 21:00:00,14.675886,77.593027,SO2,3,5,4
India,Andhra_Pradesh,Anantapur,"Gulzarpet, Anantapur - APPCB",28-06-2024 21:00:00,14.675886,77.593027,OZONE,3,17,13
India,Andhra_Pradesh,Chittoor,"Gangineni Cheruvu, Chittoor - APPCB",28-06-2024 21:00:00,13.204880,79.097889,NH3,3,4,3
India,Andhra_Pradesh,Chittoor,"Gangineni Cheruvu, Chittoor - APPCB",28-06-2024 21:00:00,13.204880,79.097889,CO,22,36,27
India,Andhra_Pradesh,Kadapa,"Yerramukkapalli, Kadapa - APPCB",28-06-2024 21:00:00,14.465052,78.824187,PM10,NA,NA,NA
India,Andhra_Pradesh,Kadapa,"Yerramukkapalli, Kadapa - APPCB",28-06-2024 21:00:00,14.465052,78.824187,SO2,NA,NA,NA
India,Andhra_Pradesh,Kadapa,"Yerramukkapalli, Kadapa - APPCB",28-06-2024 21:00:00,14.465052,78.824187,CO,37,39,38
India,Andhra_Pradesh,Rajamahendravaram,"Anand Kala Kshetram, Rajamahendravaram - APPCB",28-06-2024 21:00:00,16.9872867,81.7363176,PM10,16,59,31
India,Andhra_Pradesh,Tirupati,"Tirumala, Tirupati - APPCB",28-06-2024 21:00:00,13.67,79.35,OZONE,12,23,20
India,Andhra_Pradesh,Tirupati,"Vaikuntapuram, Tirupati - APPCB",28-06-2024 21:00:00,13.615387,79.409230,PM10,NA,NA,NA
India,Andhra_Pradesh,Vijayawada,"HB Colony, Vijayawada - APPCB",28-06-2024 21:00:00,16.536107,80.594233,PM2.5,NA,NA,NA
India,Andhra_Pradesh,Vijayawada,"HB Colony, Vijayawada - APPCB",28-06-2024 21:00:00,16.536107,80.594233,NH3,NA,NA,NA
India,Andhra_Pradesh,Vijayawada,"Kanuru, Vijayawada - APPCB",28-06-2024 21:00:00,16.486692,80.699436,PM10,NA,NA,NA
India,Andhra_Pradesh,Vijayawada,"Rajiv Gandhi Park, Vijayawada - APPCB",28-06-2024 21:00:00,16.509717,80.612222,PM2.5,33,66,43
India,Andhra_Pradesh,Vijayawada,"Rajiv Nagar, Vijayawada - APPCB",28-06-2024 21:00:00,16.554731,80.649110,PM2.5,47,98,52
India,Andhra_Pradesh,Vijayawada,"Rajiv Nagar, Vijayawada - APPCB",28-06-2024 21:00:00,16.554731,80.649110,CO,38,38,38
India,Andhra_Pradesh,Visakhapatnam,"GVM Corporation, Visakhapatnam - APPCB",28-06-2024 21:00:00,17.72,83.3,CO,12,35,23
India,Andhra_Pradesh,Visakhapatnam,"GVM Corporation, Visakhapatnam - APPCB",28-06-2024 21:00:00,17.72,83.3,OZONE,8,20,13
India,Arunachal_Pradesh,Naharlagun,"Naharlagun, Naharlagun - APSPCB",28-06-2024 21:00:00,27.103358,93.679645,PM10,NA,NA,NA
India,Assam,Byrnihat,"Central Academy for SFS, Byrnihat - PCBA",28-06-2024 21:00:00,26.071318,91.87488,SO2,9,45,22
India,Assam,Guwahati,"LGBI Airport, Guwahati - PCBA",28-06-2024 21:00:00,26.10887,91.589544,NO2,NA,NA,NA
India,Assam,Guwahati,"Pan Bazaar, Guwahati - PCBA",28-06-2024 21:00:00,26.187500,91.744194,PM2.5,8,468,124
India,Assam,Nagaon,"Christianpatty, Nagaon - PCBA",28-06-2024 21:00:00,26.349082,92.68449,NH3,NA,NA,NA
India,Assam,Nagaon,"Christianpatty, Nagaon - PCBA",28-06-2024 21:00:00,26.349082,92.68449,SO2,NA,NA,NA
India,Assam,Silchar,"Tarapur, Silchar - PCBA",28-06-2024 21:00:00,24.82827,92.79525,NO2,11,11,11
India,Assam,Silchar,"Tarapur, Silchar - PCBA",28-06-2024 21:00:00,24.82827,92.79525,SO2,5,5,5
India,Assam,Silchar,"Tarapur, Silchar - PCBA",28-06-2024 21:00:00,24.82827,92.79525,CO,28,31,29
India,Assam,Silchar,"Tarapur, Silchar - PCBA",28-06-2024 21:00:00,24.82827,92.79525,OZONE,1,3,1
India,Assam,Sivasagar,"Girls College, Sivasagar - PCBA",28-06-2024 21:00:00,26.987634,94.636574,PM2.5,36,41,38
India,Assam,Sivasagar,"Girls College, Sivasagar - PCBA",28-06-2024 21:00:00,26.987634,94.636574,NO2,5,12,8
India,Bihar,Araria,"Kharahiya Basti, Araria - BSPCB",28-06-2024 21:00:00,26.146529,87.454184,NO2,6,9,7
India,Bihar,Araria,"Kharahiya Basti, Araria - BSPCB",28-06-2024 21:00:00,26.146529,87.454184,OZONE,29,41,36
India,Bihar,Arrah,"New DM Office, Arrah - BSPCB",28-06-2024 21:00:00,25.5626095,84.663264,PM2.5,7,52,20
India,Bihar,Arrah,"New DM Office, Arrah - BSPCB",28-06-2024 21:00:00,25.5626095,84.663264,PM10,14,109,48
India,Bihar,Arrah,"New DM Office, Arrah - BSPCB",28-06-2024 21:00:00,25.5626095,84.663264,OZONE,14,19,17
India,Bihar,Aurangabad,"Gurdeo Nagar, Aurangabad - BSPCB",28-06-2024 21:00:00,24.75746,84.366208,NH3,2,68,16
India,Bihar,Bettiah,"Kamalnath Nagar, Bettiah - BSPCB",28-06-2024 21:00:00,26.80365,84.51954,OZONE,1,8,4
India,Bihar,Bihar Sharif,"D M Colony, Bihar Sharif - BSPCB",28-06-2024 21:00:00,25.204762,85.514960,NH3,1,1,1
India,Bihar,Bihar Sharif,"D M Colony, Bihar Sharif - BSPCB",28-06-2024 21:00:00,25.204762,85.514960,CO,24,29,28
India,Bihar,Buxar,"Charitra Van, Buxar - BSPCB (Formerly known as Central Jail)",28-06-2024 21:00:00,25.567520,83.966379,PM2.5,NA,NA,NA
India,Bihar,Buxar,"Charitra Van, Buxar - BSPCB (Formerly known as Central Jail)",28-06-2024 21:00:00,25.567520,83.966379,SO2,2,39,6
India,Bihar,Chhapra,"Darshan Nagar, Chhapra - BSPCB",28-06-2024 21:00:00,25.7808257,84.7446768,NH3,5,11,8
India,Bihar,Chhapra,"Darshan Nagar, Chhapra - BSPCB",28-06-2024 21:00:00,25.7808257,84.7446768,SO2,18,72,44
India,Bihar,Gaya,"Collectorate, Gaya - BSPCB",28-06-2024 21:00:00,24.7955,84.9994,NO2,7,12,10
India,Bihar,Gaya,"Kareemganj, Gaya - BSPCB",28-06-2024 21:00:00,24.792403,84.992416,PM10,19,39,29
India,Bihar,Gaya,"SFTI Kusdihra, Gaya - BSPCB",28-06-2024 21:00:00,24.762518,84.982348,NO2,13,23,18
India,Bihar,Gaya,"SFTI Kusdihra, Gaya - BSPCB",28-06-2024 21:00:00,24.762518,84.982348,NH3,2,9,4
India,Bihar,Hajipur,"Industrial Area, Hajipur - BSPCB",28-06-2024 21:00:00,25.697189,85.245900,PM10,32,95,63
India,Bihar,Hajipur,"Industrial Area, Hajipur - BSPCB",28-06-2024 21:00:00,25.697189,85.245900,SO2,6,10,8
India,Bihar,Hajipur,"Industrial Area, Hajipur - BSPCB",28-06-2024 21:00:00,25.697189,85.245900,OZONE,11,81,59
India,Bihar,Katihar,"Mirchaibari, Katihar - BSPCB",28-06-2024 21:00:00,25.560083,87.553265,PM2.5,2,35,20
India,Bihar,Katihar,"Mirchaibari, Katihar - BSPCB",28-06-2024 21:00:00,25.560083,87.553265,NO2,1,4,4
India,Bihar,Katihar,"Mirchaibari, Katihar - BSPCB",28-06-2024 21:00:00,25.560083,87.553265,NH3,1,2,1
India,Bihar,Kishanganj,"SDM Office_Khagra, Kishanganj - BSPCB",28-06-2024 21:00:00,26.0881305,87.93840336,PM2.5,NA,NA,NA
India,Bihar,Manguraha,"Forest Rest House, Manguraha - BSPCB",28-06-2024 21:00:00,27.308328,84.531742,NH3,NA,NA,NA
India,Bihar,Motihari,"Gandak Colony, Motihari - BSPCB",28-06-2024 21:00:00,26.63086,84.90051,NH3,1,2,1
India,Bihar,Munger,"Town Hall, Munger - BSPCB",28-06-2024 21:00:00,25.376776,86.471523,PM2.5,NA,NA,NA
India,Bihar,Munger,"Town Hall, Munger - BSPCB",28-06-2024 21:00:00,25.376776,86.471523,NH3,2,3,3
India,Bihar,Munger,"Town Hall, Munger - BSPCB",28-06-2024 21:00:00,25.376776,86.471523,SO2,13,35,25
India,Bihar,Muzaffarpur,"Buddha Colony, Muzaffarpur - BSPCB",28-06-2024 21:00:00,26.11442,85.39813,NH3,4,12,7
India,Bihar,Muzaffarpur,"MIT-Daudpur Kothi, Muzaffarpur - BSPCB",28-06-2024 21:00:00,26.1403345,85.3650192,SO2,9,13,11
India,Bihar,Muzaffarpur,"MIT-Daudpur Kothi, Muzaffarpur - BSPCB",28-06-2024 21:00:00,26.1403345,85.3650192,CO,18,18,18
India,Bihar,Patna,"DRM Office Danapur, Patna - BSPCB",28-06-2024 21:00:00,25.586562,85.043586,PM2.5,12,51,28
India,Bihar,Patna,"DRM Office Danapur, Patna - BSPCB",28-06-2024 21:00:00,25.586562,85.043586,PM10,58,95,70
India,Bihar,Patna,"DRM Office Danapur, Patna - BSPCB",28-06-2024 21:00:00,25.586562,85.043586,SO2,1,4,3
India,Bihar,Patna,"DRM Office Danapur, Patna - BSPCB",28-06-2024 21:00:00,25.586562,85.043586,OZONE,1,35,25
India,Bihar,Patna,"Govt. High School Shikarpur, Patna - BSPCB",28-06-2024 21:00:00,25.592539,85.227158,SO2,8,13,10
India,Bihar,Patna,"IGSC Planetarium Complex, Patna - BSPCB",28-06-2024 21:00:00,25.610369,85.132568,NO2,NA,NA,NA
India,Bihar,Patna,"IGSC Planetarium Complex, Patna - BSPCB",28-06-2024 21:00:00,25.610369,85.132568,OZONE,45,184,182
India,Bihar,Patna,"Muradpur, Patna - BSPCB",28-06-2024 21:00:00,25.619651,85.147382,OZONE,5,61,50
India,Bihar,Patna,"Samanpura, Patna - BSPCB",28-06-2024 21:00:00,25.596727,85.085624,NO2,20,69,30
India,Bihar,Patna,"Samanpura, Patna - BSPCB",28-06-2024 21:00:00,25.596727,85.085624,CO,28,63,35
India,Bihar,Patna,"Samanpura, Patna - BSPCB",28-06-2024 21:00:00,25.596727,85.085624,OZONE,13,121,61
India,Bihar,Purnia,"Mariam Nagar, Purnia - BSPCB",28-06-2024 21:00:00,25.366336,87.117468,PM10,15,47,33
India,Bihar,Saharsa,"Police Line, Saharsa - BSPCB",28-06-2024 21:00:00,25.892357,86.590325,NH3,9,9,9
India,Bihar,Saharsa,"Police Line, Saharsa - BSPCB",28-06-2024 21:00:00,25.892357,86.590325,OZONE,8,50,28
India,Bihar,Samastipur,"DM Office_Kasipur, Samastipur - BSPCB",28-06-2024 21:00:00,25.859655,85.77944,PM2.5,5,37,11
India,Bihar,Siwan,"Chitragupta Nagar, Siwan - BSPCB",28-06-2024 21:00:00,26.2271665,84.3570427,PM10,26,109,61
India,Chandigarh,Chandigarh,"Sector 22, Chandigarh - CPCC",28-06-2024 21:00:00,30.735567,76.775714,NO2,16,50,31
India,Chandigarh,Chandigarh,"Sector-25, Chandigarh - CPCC",28-06-2024 21:00:00,30.751462,76.762879,SO2,2,6,4
India,Chandigarh,Chandigarh,"Sector-53, Chandigarh - CPCC",28-06-2024 21:00:00,30.719859,76.738637,NO2,10,35,22
India,Chhattisgarh,Bhilai,"32Bungalows, Bhilai - CECB",28-06-2024 21:00:00,21.194815,81.314770,OZONE,8,16,12
India,Chhattisgarh,Bhilai,"Civic Center, Bhilai - Bhilai Steel Plant",28-06-2024 21:00:00,21.185571,81.343175,PM2.5,13,30,19
India,Chhattisgarh,Bhilai,"Civic Center, Bhilai - Bhilai Steel Plant",28-06-2024 21:00:00,21.185571,81.343175,OZONE,15,25,21
India,Chhattisgarh,Korba,"Rampur, Korba - CECB",28-06-2024 21:00:00,22.368195,82.746431,CO,12,40,29
India,Chhattisgarh,Korba,"Urja Nagar, Korba - CECB",28-06-2024 21:00:00,22.348441,82.549611,PM2.5,2,26,12
India,Chhattisgarh,Korba,"Urja Nagar, Korba - CECB",28-06-2024 21:00:00,22.348441,82.549611,NH3,3,6,4
India,Chhattisgarh,Kunjemura,"OP Jindal School, Kunjemura - CECB",28-06-2024 21:00:00,22.126650,83.483212,PM10,23,153,73
India,Chhattisgarh,Kunjemura,"OP Jindal School, Kunjemura - CECB",28-06-2024 21:00:00,22.126650,83.483212,OZONE,4,13,9
India,Chhattisgarh,Raipur,"AIIMS, Raipur - CECB",28-06-2024 21:00:00,21.258815,81.578979,NH3,6,6,6
India,Chhattisgarh,Raipur,"Bhatagaon New ISBT, Raipur - CECB",28-06-2024 21:00:00,21.219665,81.630094,OZONE,3,7,5
India,Chhattisgarh,Raipur,"Krishak Nagar, Raipur - CECB",28-06-2024 21:00:00,21.237755,81.705301,PM2.5,5,14,9
India,Chhattisgarh,Raipur,"Siltara Phase-II, Raipur - CECB",28-06-2024 21:00:00,21.371751,81.664929,NO2,11,39,16
India,Chhattisgarh,Raipur,"Siltara Phase-II, Raipur - CECB",28-06-2024 21:00:00,21.371751,81.664929,SO2,8,14,11
India,Delhi,Delhi,"Aya Nagar, Delhi - IMD",28-06-2024 21:00:00,28.4706914,77.1099364,NO2,5,14,9
India,Delhi,Delhi,"Aya Nagar, Delhi - IMD",28-06-2024 21:00:00,28.4706914,77.1099364,CO,14,46,21
India,Delhi,Delhi,"Aya Nagar, Delhi - IMD",28-06-2024 21:00:00,28.4706914,77.1099364,OZONE,11,29,24
India,Delhi,Delhi,"Bawana, Delhi - DPCC",28-06-2024 21:00:00,28.776200,77.051074,PM2.5,7,191,56
India,Delhi,Delhi,"Bawana, Delhi - DPCC",28-06-2024 21:00:00,28.776200,77.051074,PM10,3,132,61
India,Delhi,Delhi,"Bawana, Delhi - DPCC",28-06-2024 21:00:00,28.776200,77.051074,SO2,6,11,8
India,Delhi,Delhi,"Bawana, Delhi - DPCC",28-06-2024 21:00:00,28.776200,77.051074,CO,33,76,55
India,Delhi,Delhi,"Burari Crossing, Delhi - IMD",28-06-2024 21:00:00,28.7256504,77.2011573,OZONE,14,89,59
India,Delhi,Delhi,"CRRI Mathura Road, Delhi - IMD",28-06-2024 21:00:00,28.5512005,77.2735737,NO2,3,4,3
India,Delhi,Delhi,"DTU, Delhi - CPCB",28-06-2024 21:00:00,28.7500499,77.1112615,NO2,42,85,67
India,Delhi,Delhi,"DTU, Delhi - CPCB",28-06-2024 21:00:00,28.7500499,77.1112615,NH3,15,26,21
India,Delhi,Delhi,"Dr. Karni Singh Shooting Range, Delhi - DPCC",28-06-2024 21:00:00,28.498571,77.264840,PM2.5,10,163,71
India,Delhi,Delhi,"Dr. Karni Singh Shooting Range, Delhi - DPCC",28-06-2024 21:00:00,28.498571,77.264840,NH3,5,10,7
India,Delhi,Delhi,"Dr. Karni Singh Shooting Range, Delhi - DPCC",28-06-2024 21:00:00,28.498571,77.264840,CO,30,51,37
India,Delhi,Delhi,"Dwarka-Sector 8, Delhi - DPCC ",28-06-2024 21:00:00,28.5710274,77.0719006,PM2.5,12,87,55
India,Delhi,Delhi,"IHBAS, Dilshad Garden, Delhi - CPCB",28-06-2024 21:00:00,28.6811736,77.3025234,PM10,NA,NA,NA
India,Delhi,Delhi,"ITO, Delhi - CPCB",28-06-2024 21:00:00,28.628624,77.241060,NH3,2,5,4
India,Delhi,Delhi,"Jawaharlal Nehru Stadium, Delhi - DPCC",28-06-2024 21:00:00,28.580280,77.233829,SO2,6,14,11
India,Delhi,Delhi,"Jawaharlal Nehru Stadium, Delhi - DPCC",28-06-2024 21:00:00,28.580280,77.233829,OZONE,22,57,47
India,Delhi,Delhi,"Lodhi Road, Delhi - IMD",28-06-2024 21:00:00,28.5918245,77.2273074,PM10,NA,NA,NA
India,Delhi,Delhi,"Lodhi Road, Delhi - IMD",28-06-2024 21:00:00,28.5918245,77.2273074,NO2,2,17,5
India,Delhi,Delhi,"Major Dhyan Chand National Stadium, Delhi - DPCC",28-06-2024 21:00:00,28.611281,77.237738,PM2.5,10,85,53
India,Delhi,Delhi,"Major Dhyan Chand National Stadium, Delhi - DPCC",28-06-2024 21:00:00,28.611281,77.237738,OZONE,1,22,14
India,Delhi,Delhi,"Mandir Marg, Delhi - DPCC",28-06-2024 21:00:00,28.636429,77.201067,PM2.5,NA,NA,NA
India,Delhi,Delhi,"Mundka, Delhi - DPCC",28-06-2024 21:00:00,28.684678,77.076574,CO,24,65,48
India,Delhi,Delhi,"NSIT Dwarka, Delhi - CPCB",28-06-2024 21:00:00,28.60909,77.0325413,NH3,3,6,5
India,Delhi,Delhi,"Najafgarh, Delhi - DPCC",28-06-2024 21:00:00,28.570173,76.933762,PM10,3,85,40
India,Delhi,Delhi,"Narela, Delhi - DPCC",28-06-2024 21:00:00,28.822836,77.101981,PM2.5,5,140,51
India,Delhi,Delhi,"Narela, Delhi - DPCC",28-06-2024 21:00:00,28.822836,77.101981,PM10,17,167,115
India,Delhi,Delhi,"Narela, Delhi - DPCC",28-06-2024 21:00:00,28.822836,77.101981,SO2,1,6,2
India,Delhi,Delhi,"Narela, Delhi - DPCC",28-06-2024 21:00:00,28.822836,77.101981,CO,36,54,48
India,Delhi,Delhi,"Nehru Nagar, Delhi - DPCC",28-06-2024 21:00:00,28.567890,77.250515,SO2,2,8,5
India,Delhi,Delhi,"Nehru Nagar, Delhi - DPCC",28-06-2024 21:00:00,28.567890,77.250515,CO,56,89,68
India,Delhi,Delhi,"North Campus, DU, Delhi - IMD",28-06-2024 21:00:00,28.6573814,77.1585447,PM10,8,130,62
India,Delhi,Delhi,"Okhla Phase-2, Delhi - DPCC",28-06-2024 21:00:00,28.530785,77.271255,SO2,5,13,8
India,Delhi,Delhi,"Patparganj, Delhi - DPCC",28-06-2024 21:00:00,28.623763,77.287209,NO2,14,50,24
India,Delhi,Delhi,"Pusa, Delhi - IMD",28-06-2024 21:00:00,28.636110,77.173332,PM2.5,2,500,81
India,Delhi,Delhi,"Pusa, Delhi - IMD",28-06-2024 21:00:00,28.636110,77.173332,CO,49,70,55
India,Delhi,Delhi,"Pusa, Delhi - IMD",28-06-2024 21:00:00,28.636110,77.173332,OZONE,3,35,23
India,Delhi,Delhi,"R K Puram, Delhi - DPCC",28-06-2024 21:00:00,28.563262,77.186937,PM10,NA,NA,NA
India,Delhi,Delhi,"Shadipur, Delhi - CPCB",28-06-2024 21:00:00,28.6514781,77.1473105,NO2,34,66,55
India,Delhi,Delhi,"Sonia Vihar, Delhi - DPCC",28-06-2024 21:00:00,28.710508,77.249485,CO,8,62,24
India,Delhi,Delhi,"Sri Aurobindo Marg, Delhi - DPCC",28-06-2024 21:00:00,28.531346,77.190156,NH3,7,23,13
India,Delhi,Delhi,"Wazirpur, Delhi - DPCC",28-06-2024 21:00:00,28.699793,77.165453,CO,8,85,37
India,Gujarat,Ahmedabad,"Chandkheda, Ahmedabad - IITM",28-06-2024 21:00:00,23.107969,72.574648,PM2.5,14,48,28
India,Gujarat,Ahmedabad,"Maninagar, Ahmedabad - GPCB",28-06-2024 21:00:00,23.002657,72.591912,CO,1,12,9
India,Gujarat,Ahmedabad,"Raikhad, Ahmedabad - IITM",28-06-2024 21:00:00,23.020509,72.579261,SO2,NA,NA,NA
India,Gujarat,Ahmedabad,"Raikhad, Ahmedabad - IITM",28-06-2024 21:00:00,23.020509,72.579261,OZONE,8,58,28
India,Gujarat,Ahmedabad,"Rakhial, Ahmedabad - IITM",28-06-2024 21:00:00,23.016834,72.625775,NH3,NA,NA,NA
India,Gujarat,Ahmedabad,"Sardar Vallabhbhai Patel Stadium, Ahmedabad - IITM",28-06-2024 21:00:00,23.043070,72.562968,NO2,20,80,34
India,Gujarat,Ahmedabad,"Sardar Vallabhbhai Patel Stadium, Ahmedabad - IITM",28-06-2024 21:00:00,23.043070,72.562968,NH3,2,3,3
India,Gujarat,Ankleshwar,"GIDC, Ankleshwar - GPCB",28-06-2024 21:00:00,21.613267,73.010555,PM2.5,8,40,22
India,Gujarat,Gandhinagar,"Sector-10, Gandhinagar - GPCB",28-06-2024 21:00:00,23.221714,72.654328,PM10,27,78,46
India,Gujarat,Gandhinagar,"Sector-10, Gandhinagar - GPCB",28-06-2024 21:00:00,23.221714,72.654328,NH3,3,3,3
India,Gujarat,Surat,"Science Center, Surat - SMC",28-06-2024 21:00:00,21.170046,72.795405,PM2.5,2,40,17
India,Gujarat,Vatva,"Phase-4 GIDC, Vatva - GPCB",28-06-2024 21:00:00,22.969611,72.643500,NH3,9,21,17
India,Haryana,Ambala,"Patti Mehar, Ambala - HSPCB",28-06-2024 21:00:00,30.379589,76.778328,NH3,NA,NA,NA
India,Haryana,Ambala,"Patti Mehar, Ambala - HSPCB",28-06-2024 21:00:00,30.379589,76.778328,SO2,NA,NA,NA
India,Haryana,Ballabgarh,"Nathu Colony, Ballabgarh - HSPCB",28-06-2024 21:00:00,28.3419248,77.319699,OZONE,2,135,18
India,Haryana,Bhiwani,"H.B. Colony, Bhiwani - HSPCB",28-06-2024 21:00:00,28.806223,76.141105,SO2,3,14,8
India,Haryana,Bhiwani,"H.B. Colony, Bhiwani - HSPCB",28-06-2024 21:00:00,28.806223,76.141105,CO,36,68,45
India,Haryana,Charkhi Dadri,"Mini Secretariat, Charkhi Dadri - HSPCB",28-06-2024 21:00:00,28.593883,76.270653,PM2.5,17,500,155
India,Haryana,Charkhi Dadri,"Mini Secretariat, Charkhi Dadri - HSPCB",28-06-2024 21:00:00,28.593883,76.270653,SO2,14,22,19
India,Haryana,Charkhi Dadri,"Mini Secretariat, Charkhi Dadri - HSPCB",28-06-2024 21:00:00,28.593883,76.270653,CO,22,72,59
India,Haryana,Faridabad,"New Industrial Town, Faridabad - HSPCB",28-06-2024 21:00:00,28.39072,77.30059,SO2,NA,NA,NA
India,Haryana,Faridabad,"Sector 11, Faridabad - HSPCB",28-06-2024 21:00:00,28.376058,77.315741,SO2,3,120,40
India,Haryana,Faridabad,"Sector 30, Faridabad - HSPCB",28-06-2024 21:00:00,28.4417,77.3217,OZONE,NA,NA,NA
India,Haryana,Fatehabad,"Huda Sector, Fatehabad - HSPCB",28-06-2024 21:00:00,29.503664,75.467934,PM10,8,86,43
India,Haryana,Fatehabad,"Huda Sector, Fatehabad - HSPCB",28-06-2024 21:00:00,29.503664,75.467934,SO2,10,64,15
India,Haryana,Fatehabad,"Huda Sector, Fatehabad - HSPCB",28-06-2024 21:00:00,29.503664,75.467934,CO,43,80,44
India,Haryana,Gurugram,"NISE Gwal Pahari, Gurugram - IMD",28-06-2024 21:00:00,28.422681,77.148944,PM10,NA,NA,NA
India,Haryana,Gurugram,"Sector-51, Gurugram - HSPCB",28-06-2024 21:00:00,28.4227,77.0667,OZONE,28,33,31
India,Haryana,Gurugram,"Vikas Sadan, Gurugram - HSPCB",28-06-2024 21:00:00,28.4501238,77.0263051,CO,50,133,107
India,Haryana,Jind,"Police Lines, Jind - HSPCB",28-06-2024 21:00:00,29.307814,76.337619,PM2.5,NA,NA,NA
India,Haryana,Jind,"Police Lines, Jind - HSPCB",28-06-2024 21:00:00,29.307814,76.337619,PM10,NA,NA,NA
India,Haryana,Jind,"Police Lines, Jind - HSPCB",28-06-2024 21:00:00,29.307814,76.337619,NO2,NA,NA,NA
India,Haryana,Jind,"Police Lines, Jind - HSPCB",28-06-2024 21:00:00,29.307814,76.337619,NH3,NA,NA,NA
India,Haryana,Kaithal,"Rishi Nagar, Kaithal - HSPCB",28-06-2024 21:00:00,29.8006,76.4155,NH3,8,8,8
India,Haryana,Karnal,"Sector-12, Karnal - HSPCB",28-06-2024 21:00:00,29.695300,77.002700,NO2,7,12,10
India,Haryana,Kurukshetra,"Sector-7, Kurukshetra - HSPCB",28-06-2024 21:00:00,29.966942,76.875879,PM2.5,29,84,57
India,Haryana,Kurukshetra,"Sector-7, Kurukshetra - HSPCB",28-06-2024 21:00:00,29.966942,76.875879,SO2,2,3,2
India,Haryana,Mandikhera,"General Hospital, Mandikhera - HSPCB",28-06-2024 21:00:00,27.9002,76.9938,PM2.5,NA,NA,NA
India,Haryana,Manesar,"Sector-2 IMT, Manesar - HSPCB",28-06-2024 21:00:00,28.360699,76.936090,PM10,23,74,42
India,Haryana,Narnaul,"Shastri Nagar, Narnaul - HSPCB",28-06-2024 21:00:00,28.060249,76.113115,PM10,30,117,60
India,Haryana,Narnaul,"Shastri Nagar, Narnaul - HSPCB",28-06-2024 21:00:00,28.060249,76.113115,OZONE,8,51,32
India,Haryana,Palwal,"Shyam Nagar, Palwal - HSPCB",28-06-2024 21:00:00,28.1485564,77.3320667,PM10,NA,NA,NA
India,Haryana,Palwal,"Shyam Nagar, Palwal - HSPCB",28-06-2024 21:00:00,28.1485564,77.3320667,OZONE,1,88,20
India,Haryana,Panchkula,"Sector-6, Panchkula - HSPCB ",28-06-2024 21:00:00,30.7057778,76.8531805555555,CO,7,12,8
India,Haryana,Sirsa,"F-Block, Sirsa - HSPCB",28-06-2024 21:00:00,29.536400,75.015800,NO2,9,11,10
India,Haryana,Sirsa,"F-Block, Sirsa - HSPCB",28-06-2024 21:00:00,29.536400,75.015800,SO2,4,7,5
India,Haryana,Sonipat,"Murthal, Sonipat - HSPCB",28-06-2024 21:00:00,29.027200,77.062100,PM2.5,12,39,21
India,Himachal Pradesh,Baddi,"HIMUDA Complex Phase-1, Baddi - HPPCB",28-06-2024 21:00:00,30.943887,76.801991,CO,16,48,29
India,Jammu_and_Kashmir,Srinagar,"Rajbagh, Srinagar - JKSPCB",28-06-2024 21:00:00,34.066206,74.819820,PM10,NA,NA,NA
India,Jharkhand,Dhanbad,"Kalakusuma, Dhanbad - DMC",28-06-2024 21:00:00,23.811548,86.481238,OZONE,29,29,29
India,Jharkhand,Dhanbad,"Sardar Patel Nagar, Dhanbad - JSPCB",28-06-2024 21:00:00,23.80569,86.44268,PM10,NA,NA,NA
India,Jharkhand,Pathardih,"Mohalbani Ghat, Pathardih - DMC",28-06-2024 21:00:00,23.669880,86.411725,CO,1,12,1
India,Karnataka,Bagalkot,"Vidayagiri, Bagalkot - KSPCB",28-06-2024 21:00:00,16.172806,75.659694,PM10,43,60,59
India,Karnataka,Bagalkot,"Vidayagiri, Bagalkot - KSPCB",28-06-2024 21:00:00,16.172806,75.659694,NH3,1,2,1
India,Karnataka,Belgaum,"Ramteerth Nagar, Belgaum - KSPCB",28-06-2024 21:00:00,15.888653,74.541751,PM2.5,12,50,30
India,Karnataka,Bengaluru,"Bapuji Nagar, Bengaluru - KSPCB",28-06-2024 21:00:00,12.951913,77.539784,PM10,25,129,57
India,Karnataka,Bengaluru,"Bapuji Nagar, Bengaluru - KSPCB",28-06-2024 21:00:00,12.951913,77.539784,NH3,1,1,1
India,Karnataka,Bengaluru,"City Railway Station, Bengaluru - KSPCB",28-06-2024 21:00:00,12.9756843,77.5660749,PM10,66,109,81
India,Karnataka,Bengaluru,"Hebbal, Bengaluru - KSPCB",28-06-2024 21:00:00,13.029152,77.585901,PM10,20,38,28
India,Karnataka,Bengaluru,"Hebbal, Bengaluru - KSPCB",28-06-2024 21:00:00,13.029152,77.585901,OZONE,6,34,18
India,Karnataka,Bengaluru,"Hombegowda Nagar, Bengaluru - KSPCB",28-06-2024 21:00:00,12.938539,77.590100,SO2,3,5,4
India,Karnataka,Bengaluru,"Jayanagar 5th Block, Bengaluru - KSPCB",28-06-2024 21:00:00,12.920984,77.584908,NH3,NA,NA,NA
India,Karnataka,Bengaluru,"Jigani, Bengaluru - KSPCB",28-06-2024 21:00:00,12.7816279,77.6299145,PM2.5,37,38,38
India,Karnataka,Bengaluru,"Jigani, Bengaluru - KSPCB",28-06-2024 21:00:00,12.7816279,77.6299145,CO,24,48,28
India,Karnataka,Bengaluru,"Kasturi Nagar, Bengaluru - KSPCB",28-06-2024 21:00:00,13.003872,77.664217,NO2,16,17,17
India,Karnataka,Bengaluru,"Kasturi Nagar, Bengaluru - KSPCB",28-06-2024 21:00:00,13.003872,77.664217,SO2,10,10,10
India,Karnataka,Bengaluru,"Kasturi Nagar, Bengaluru - KSPCB",28-06-2024 21:00:00,13.003872,77.664217,CO,24,26,25
India,Karnataka,Bengaluru,"RVCE-Mailasandra, Bengaluru - KSPCB",28-06-2024 21:00:00,12.921418,77.502466,PM10,NA,NA,NA
India,Karnataka,Bengaluru,"RVCE-Mailasandra, Bengaluru - KSPCB",28-06-2024 21:00:00,12.921418,77.502466,SO2,7,9,7
India,Karnataka,Bengaluru,"Shivapura_Peenya, Bengaluru - KSPCB",28-06-2024 21:00:00,13.0246342,77.5080115,OZONE,53,56,54
India,Karnataka,Bengaluru,"Silk Board, Bengaluru - KSPCB",28-06-2024 21:00:00,12.917348,77.622813,PM10,36,90,60
India,Karnataka,Bengaluru,"Silk Board, Bengaluru - KSPCB",28-06-2024 21:00:00,12.917348,77.622813,OZONE,7,17,11
India,Karnataka,Chamarajanagar,"Urban, Chamarajanagar - KSPCB",28-06-2024 21:00:00,11.55358,76.55521,NO2,22,36,28
India,Karnataka,Chamarajanagar,"Urban, Chamarajanagar - KSPCB",28-06-2024 21:00:00,11.55358,76.55521,NH3,1,2,2
India,Karnataka,Chikkaballapur,"Chikkaballapur Rural, Chikkaballapur - KSPCB",28-06-2024 21:00:00,13.428828,77.731418,PM2.5,7,66,21
India,Karnataka,Chikkamagaluru,"Kalyana Nagara, Chikkamagaluru - KSPCB",28-06-2024 21:00:00,13.328028,75.797056,NH3,3,4,4
India,Karnataka,Davanagere,"Devaraj Urs Badavane, Davanagere - KSPCB",28-06-2024 21:00:00,14.475800,75.905200,NO2,8,11,9
India,Karnataka,Davanagere,"Devaraj Urs Badavane, Davanagere - KSPCB",28-06-2024 21:00:00,14.475800,75.905200,NH3,1,2,1
India,Karnataka,Dharwad,"Kalabhavan, Dharwad - KSPCB",28-06-2024 21:00:00,15.459706,75.008381,NH3,3,3,3
India,Karnataka,Dharwad,"Kalabhavan, Dharwad - KSPCB",28-06-2024 21:00:00,15.459706,75.008381,SO2,1,4,2
India,Karnataka,Dharwad,"Kalabhavan, Dharwad - KSPCB",28-06-2024 21:00:00,15.459706,75.008381,CO,14,59,49
India,Karnataka,Gadag,"Panchal Nagar, Gadag - KSPCB",28-06-2024 21:00:00,15.411456,75.638133,OZONE,6,7,6
India,Karnataka,Hassan,"B.Katihalli, Hassan - KSPCB",28-06-2024 21:00:00,13.008556,76.125258,PM2.5,8,48,36
India,Karnataka,Hassan,"B.Katihalli, Hassan - KSPCB",28-06-2024 21:00:00,13.008556,76.125258,SO2,13,27,19
India,Karnataka,Hubballi,"Lingaraj Nagar, Hubballi - KSPCB",28-06-2024 21:00:00,15.3714823,75.1160168,SO2,1,5,2
India,Karnataka,Kalaburagi,"Lal Bahadur Shastri Nagar, Kalaburagi - KSPCB",28-06-2024 21:00:00,17.321993,76.822628,PM10,NA,NA,NA
India,Karnataka,Kalaburagi,"Lal Bahadur Shastri Nagar, Kalaburagi - KSPCB",28-06-2024 21:00:00,17.321993,76.822628,OZONE,4,7,6
India,Karnataka,Kolar,"Tamaka Ind. Area, Kolar - KSPCB",28-06-2024 21:00:00,13.1276288,78.1570122,CO,NA,NA,NA
India,Karnataka,Koppal,"Diwator Nagar, Koppal - KSPCB",28-06-2024 21:00:00,15.347630,76.181767,NH3,6,10,8
India,Karnataka,Koppal,"Diwator Nagar, Koppal - KSPCB",28-06-2024 21:00:00,15.347630,76.181767,SO2,30,30,30
India,Karnataka,Koppal,"Diwator Nagar, Koppal - KSPCB",28-06-2024 21:00:00,15.347630,76.181767,CO,4,4,4
India,Karnataka,Koppal,"Diwator Nagar, Koppal - KSPCB",28-06-2024 21:00:00,15.347630,76.181767,OZONE,6,15,14
India,Karnataka,Madikeri,"Stuart Hill, Madikeri - KSPCB",28-06-2024 21:00:00,12.415911,75.735050,PM2.5,14,28,21
India,Karnataka,Madikeri,"Stuart Hill, Madikeri - KSPCB",28-06-2024 21:00:00,12.415911,75.735050,NO2,1,4,2
India,Karnataka,Mangalore,"Kadri, Mangalore - KSPCB",28-06-2024 21:00:00,12.889250,74.853000,OZONE,30,33,32
India,Karnataka,Mysuru,"Hebbal 1st Stage, Mysuru - KSPCB",28-06-2024 21:00:00,12.21041,76.37376,CO,1,30,13
India,Karnataka,Raichur,"Haji Colony, Raichur - KSPCB",28-06-2024 21:00:00,16.208139,77.348417,PM2.5,NA,NA,NA
India,Karnataka,Raichur,"Haji Colony, Raichur - KSPCB",28-06-2024 21:00:00,16.208139,77.348417,NH3,NA,NA,NA
India,Karnataka,Shivamogga,"Vinoba Nagara, Shivamogga - KSPCB",28-06-2024 21:00:00,13.940000,75.555917,PM10,37,72,52
India,Karnataka,Tumakuru,"Thimmalapura, Tumakuru - KSPCB",28-06-2024 21:00:00,13.377516,77.099072,PM2.5,18,67,35
India,Karnataka,Tumakuru,"Thimmalapura, Tumakuru - KSPCB",28-06-2024 21:00:00,13.377516,77.099072,NH3,2,3,2
India,Karnataka,Udupi,"Brahmagiri, Udupi - KSPCB",28-06-2024 21:00:00,13.34194444,74.74694444,NO2,23,26,24
India,Karnataka,Udupi,"Brahmagiri, Udupi - KSPCB",28-06-2024 21:00:00,13.34194444,74.74694444,OZONE,23,24,23
India,Karnataka,Vijayapura,"Ibrahimpur, Vijayapura - KSPCB",28-06-2024 21:00:00,16.802639,75.722694,NH3,2,2,2
India,Karnataka,Vijayapura,"Ibrahimpur, Vijayapura - KSPCB",28-06-2024 21:00:00,16.802639,75.722694,OZONE,14,16,15
India,Karnataka,Yadgir,"Collector Office, Yadgir - KSPCB",28-06-2024 21:00:00,16.7602,77.1428,PM2.5,5,19,10
India,Karnataka,Yadgir,"Collector Office, Yadgir - KSPCB",28-06-2024 21:00:00,16.7602,77.1428,NO2,2,10,8
India,Karnataka,Yadgir,"Collector Office, Yadgir - KSPCB",28-06-2024 21:00:00,16.7602,77.1428,SO2,NA,NA,NA
India,Kerala,Eloor,"Udyogamandal, Eloor - Kerala PCB",28-06-2024 21:00:00,10.073232,76.302765,CO,9,90,64
India,Kerala,Kannur,"Thavakkara, Kannur - Kerala PCB",28-06-2024 21:00:00,11.875000,75.373200,PM10,40,45,42
India,Kerala,Kannur,"Thavakkara, Kannur - Kerala PCB",28-06-2024 21:00:00,11.875000,75.373200,NO2,5,5,5
India,Kerala,Thiruvananthapuram,"Kariavattom, Thiruvananthapuram - Kerala PCB",28-06-2024 21:00:00,8.563700,76.886500,PM2.5,31,37,33
India,Kerala,Thiruvananthapuram,"Kariavattom, Thiruvananthapuram - Kerala PCB",28-06-2024 21:00:00,8.563700,76.886500,PM10,54,60,57
India,Kerala,Thiruvananthapuram,"Kariavattom, Thiruvananthapuram - Kerala PCB",28-06-2024 21:00:00,8.563700,76.886500,SO2,1,10,5
India,Kerala,Thiruvananthapuram,"Plammoodu, Thiruvananthapuram - Kerala PCB",28-06-2024 21:00:00,8.5149093,76.9435879,PM2.5,NA,NA,NA
India,Madhya Pradesh,Bhopal,"Idgah Hills, Bhopal - MPPCB",28-06-2024 21:00:00,23.264759,77.381568,PM10,18,179,47
India,Madhya Pradesh,Bhopal,"Idgah Hills, Bhopal - MPPCB",28-06-2024 21:00:00,23.264759,77.381568,SO2,7,10,9
India,Madhya Pradesh,Bhopal,"Paryavaran Parisar, Bhopal - MPPCB",28-06-2024 21:00:00,23.210494,77.425409,NH3,5,73,17
India,Madhya Pradesh,Bhopal,"Paryavaran Parisar, Bhopal - MPPCB",28-06-2024 21:00:00,23.210494,77.425409,CO,7,46,26
India,Madhya Pradesh,Bhopal,"T T Nagar, Bhopal - MPPCB",28-06-2024 21:00:00,23.233584,77.400574,PM10,19,102,39
India,Madhya Pradesh,Bhopal,"T T Nagar, Bhopal - MPPCB",28-06-2024 21:00:00,23.233584,77.400574,NO2,16,38,25
India,Madhya Pradesh,Dewas,"Bhopal Chauraha, Dewas - MPPCB",28-06-2024 21:00:00,22.9682591,76.064118,CO,5,34,19
India,Madhya Pradesh,Gwalior,"City Center, Gwalior - MPPCB",28-06-2024 21:00:00,26.203442,78.193251,NH3,2,4,2
India,Madhya Pradesh,Gwalior,"Deen Dayal Nagar, Gwalior - MPPCB",28-06-2024 21:00:00,26.259242,78.216432,PM10,11,93,43
India,Madhya Pradesh,Gwalior,"Deen Dayal Nagar, Gwalior - MPPCB",28-06-2024 21:00:00,26.259242,78.216432,SO2,1,31,22
India,Madhya Pradesh,Gwalior,"Maharaj Bada, Gwalior - MPPCB",28-06-2024 21:00:00,26.200388,78.147714,CO,19,72,47
India,Madhya Pradesh,Gwalior,"Phool Bagh, Gwalior - Mondelez Ind. Food",28-06-2024 21:00:00,26.210536,78.171,PM10,15,133,63
India,Madhya Pradesh,Indore,"Chhoti Gwaltoli, Indore - MPPCB",28-06-2024 21:00:00,22.4310,75.5213,OZONE,15,51,39
India,Madhya Pradesh,Indore,"Maguda Nagar, Indore - IMC",28-06-2024 21:00:00,22.7524,75.8872,NO2,3,3,3
India,Madhya Pradesh,Indore,"Maguda Nagar, Indore - IMC",28-06-2024 21:00:00,22.7524,75.8872,CO,17,23,19
India,Madhya Pradesh,Jabalpur,"Govindh Bhavan Colony, Jabalpur - JMC",28-06-2024 21:00:00,23.163174,79.973061,PM2.5,NA,NA,NA
India,Madhya Pradesh,Jabalpur,"Govindh Bhavan Colony, Jabalpur - JMC",28-06-2024 21:00:00,23.163174,79.973061,PM10,NA,NA,NA
India,Madhya Pradesh,Jabalpur,"Govindh Bhavan Colony, Jabalpur - JMC",28-06-2024 21:00:00,23.163174,79.973061,NH3,NA,NA,NA
India,Madhya Pradesh,Jabalpur,"Gupteshwar, Jabalpur - JMC",28-06-2024 21:00:00,23.142888,79.916147,NH3,NA,NA,NA
India,Madhya Pradesh,Jabalpur,"Marhatal, Jabalpur - MPPCB",28-06-2024 21:00:00,23.168606,79.932247,OZONE,5,28,15
India,Madhya Pradesh,Jabalpur,"Suhagi, Jabalpur - JMC",28-06-2024 21:00:00,23.218135,79.957770,SO2,NA,NA,NA
India,Madhya Pradesh,Jabalpur,"Suhagi, Jabalpur - JMC",28-06-2024 21:00:00,23.218135,79.957770,CO,NA,NA,NA
India,Madhya Pradesh,Katni,"Gole Bazar, Katni - MPPCB",28-06-2024 21:00:00,23.50016,80.23284,PM2.5,21,63,42
India,Madhya Pradesh,Katni,"Gole Bazar, Katni - MPPCB",28-06-2024 21:00:00,23.50016,80.23284,PM10,28,94,58
India,Madhya Pradesh,Katni,"Gole Bazar, Katni - MPPCB",28-06-2024 21:00:00,23.50016,80.23284,OZONE,7,50,29
India,Madhya Pradesh,Maihar,"Sahilara, Maihar - KJS Cements",28-06-2024 21:00:00,24.2613009,80.7231783,PM10,NA,NA,NA
India,Madhya Pradesh,Maihar,"Sahilara, Maihar - KJS Cements",28-06-2024 21:00:00,24.2613009,80.7231783,SO2,10,19,14
India,Madhya Pradesh,Mandideep,"Sector-D Industrial Area, Mandideep - MPPCB",28-06-2024 21:00:00,23.108440,77.511428,PM2.5,12,45,28
India,Madhya Pradesh,Pithampur,"Sector-2 Industrial Area, Pithampur - MPPCB",28-06-2024 21:00:00,22.624758,75.675238,CO,41,57,48
India,Madhya Pradesh,Pithampur,"Sector-2 Industrial Area, Pithampur - MPPCB",28-06-2024 21:00:00,22.624758,75.675238,OZONE,29,71,64
India,Madhya Pradesh,Sagar,"Civil Lines, Sagar - MPPCB",28-06-2024 21:00:00,23.838586,78.759431,SO2,1,8,4
India,Madhya Pradesh,Sagar,"Civil Lines, Sagar - MPPCB",28-06-2024 21:00:00,23.838586,78.759431,CO,38,61,51
India,Madhya Pradesh,Sagar,"Deen Dayal Nagar, Sagar - MPPCB",28-06-2024 21:00:00,23.8640158,78.80289321,PM10,20,71,35
India,Maharashtra,Akola,"Ramdaspeth, Akola - MPCB",28-06-2024 21:00:00,20.719516,77.000253,CO,17,62,31
India,Maharashtra,Amravati,"Shivneri Colony, Amravati - MPCB",28-06-2024 21:00:00,20.9402359,77.7895248,PM2.5,NA,NA,NA
India,Maharashtra,Amravati,"Shivneri Colony, Amravati - MPCB",28-06-2024 21:00:00,20.9402359,77.7895248,PM10,NA,NA,NA
India,Maharashtra,Amravati,"Shivneri Colony, Amravati - MPCB",28-06-2024 21:00:00,20.9402359,77.7895248,NO2,3,16,8
India,Maharashtra,Amravati,"Shivneri Colony, Amravati - MPCB",28-06-2024 21:00:00,20.9402359,77.7895248,SO2,1,2,2
India,Maharashtra,Amravati,"Shivneri Colony, Amravati - MPCB",28-06-2024 21:00:00,20.9402359,77.7895248,CO,8,20,15
India,Maharashtra,Amravati,"Shri Shivaji Science College, Amaravati - MPCB",28-06-2024 21:00:00,20.939198,77.765701,SO2,1,2,2
India,Maharashtra,Aurangabad,"MIDC Chilkalthana, Aurangabad - MPCB",28-06-2024 21:00:00,19.875620,75.387310,NO2,2,11,5
India,Maharashtra,Aurangabad,"MIDC Chilkalthana, Aurangabad - MPCB",28-06-2024 21:00:00,19.875620,75.387310,SO2,1,3,1
India,Maharashtra,Aurangabad,"More Chowk Waluj, Aurangabad - MPCB",28-06-2024 21:00:00,19.8389439,75.244448,SO2,17,21,18
India,Maharashtra,Badlapur,"Katrap, Badlapur - MPCB",28-06-2024 21:00:00,19.16485,73.23409,SO2,11,19,14
India,Maharashtra,Badlapur,"Katrap, Badlapur - MPCB",28-06-2024 21:00:00,19.16485,73.23409,OZONE,11,20,13
India,Maharashtra,Bhiwandi,"Gokul Nagar, Bhiwandi - MPCB",28-06-2024 21:00:00,19.309073,73.057223,CO,20,76,32
India,Maharashtra,Bhiwandi,"Gokul Nagar, Bhiwandi - MPCB",28-06-2024 21:00:00,19.309073,73.057223,OZONE,13,22,20
India,Maharashtra,Boisar,"Khaira, Boisar - MPCB",28-06-2024 21:00:00,19.786089,72.757971,PM10,NA,NA,NA
India,Maharashtra,Chandrapur,"Chauhan Colony, Chandrapur - MPCB",28-06-2024 21:00:00,19.962900,79.298714,PM2.5,2,34,15
India,Maharashtra,Chandrapur,"Chauhan Colony, Chandrapur - MPCB",28-06-2024 21:00:00,19.962900,79.298714,PM10,6,40,19
India,Maharashtra,Chandrapur,"MIDC Khutala, Chandrapur - MPCB",28-06-2024 21:00:00,19.9775302,79.2337086,NH3,2,11,7
India,Maharashtra,Dhule,"Deopur, Dhule - MPCB",28-06-2024 21:00:00,20.918946,74.776388,CO,6,28,16
India,Maharashtra,Jalgaon,"Prabhat Colony, Jalgaon - MPCB",28-06-2024 21:00:00,21.001264,75.565602,PM2.5,9,30,18
India,Maharashtra,Jalgaon,"Prabhat Colony, Jalgaon - MPCB",28-06-2024 21:00:00,21.001264,75.565602,NO2,4,19,11
India,Maharashtra,Jalgaon,"Prabhat Colony, Jalgaon - MPCB",28-06-2024 21:00:00,21.001264,75.565602,OZONE,9,75,35
India,Maharashtra,Jalna,"Old MIDC, Jalna - MPCB",28-06-2024 21:00:00,19.854616,75.905894,CO,18,28,25
India,Maharashtra,Kalyan,"Khadakpada, Kalyan - MPCB",28-06-2024 21:00:00,19.25292,73.142019,SO2,20,30,25
India,Maharashtra,Kalyan,"Khadakpada, Kalyan - MPCB",28-06-2024 21:00:00,19.25292,73.142019,OZONE,7,8,7
India,Maharashtra,Kolhapur,"Shivaji University, Kolhapur - MPCB",28-06-2024 21:00:00,16.6870449,74.2505872,PM10,34,77,56
India,Maharashtra,Kolhapur,"Shivaji University, Kolhapur - MPCB",28-06-2024 21:00:00,16.6870449,74.2505872,NH3,4,5,4
India,Maharashtra,Kolhapur,"Shivaji University, Kolhapur - MPCB",28-06-2024 21:00:00,16.6870449,74.2505872,OZONE,18,40,31
India,Maharashtra,Kolhapur,"Sinchan Bhavan, Kolhapur - MPCB",28-06-2024 21:00:00,16.7143745,74.2426398,SO2,1,3,1
India,Maharashtra,Latur,"Sawe Wadi, Latur - MPCB",28-06-2024 21:00:00,18.39963,76.57452,CO,3,26,23
India,Maharashtra,Mahad,"Kamble Tarf Birwadi, Mahad - MPCB",28-06-2024 21:00:00,18.1023399,73.4783687,NO2,5,32,19
India,Maharashtra,Malegaon,"Mahesh Nagar, Malegaon - MPCB",28-06-2024 21:00:00,20.555712,74.529236,NH3,NA,NA,NA
India,Maharashtra,Malegaon,"Mahesh Nagar, Malegaon - MPCB",28-06-2024 21:00:00,20.555712,74.529236,CO,6,18,15
India,Maharashtra,Mumbai,"Bandra Kurla Complex, Mumbai - MPCB",28-06-2024 21:00:00,19.065931,72.862131,PM10,14,59,31
India,Maharashtra,Mumbai,"Bandra Kurla Complex, Mumbai - MPCB",28-06-2024 21:00:00,19.065931,72.862131,NH3,4,12,7
India,Maharashtra,Mumbai,"Bandra Kurla Complex, Mumbai - MPCB",28-06-2024 21:00:00,19.065931,72.862131,CO,28,55,44
India,Maharashtra,Mumbai,"Bandra Kurla Complex, Mumbai - MPCB",28-06-2024 21:00:00,19.065931,72.862131,OZONE,3,36,9
India,Maharashtra,Mumbai,"Borivali East, Mumbai - MPCB",28-06-2024 21:00:00,19.2243333,72.8658113,PM10,5,50,27
India,Maharashtra,Mumbai,"Borivali East, Mumbai - MPCB",28-06-2024 21:00:00,19.2243333,72.8658113,NH3,2,3,3
India,Maharashtra,Mumbai,"Chembur, Mumbai - MPCB",28-06-2024 21:00:00,19.0364585,72.8954371,NO2,17,54,29
India,Maharashtra,Mumbai,"Chhatrapati Shivaji Intl. Airport (T2), Mumbai - MPCB",28-06-2024 21:00:00,19.10078,72.87462,PM10,17,58,35
India,Maharashtra,Mumbai,"Chhatrapati Shivaji Intl. Airport (T2), Mumbai - MPCB",28-06-2024 21:00:00,19.10078,72.87462,NO2,26,55,41
India,Maharashtra,Mumbai,"Chhatrapati Shivaji Intl. Airport (T2), Mumbai - MPCB",28-06-2024 21:00:00,19.10078,72.87462,OZONE,11,12,11
India,Maharashtra,Mumbai,"Deonar, Mumbai - IITM",28-06-2024 21:00:00,19.04946,72.9230,PM10,18,52,32
India,Maharashtra,Mumbai,"Deonar, Mumbai - IITM",28-06-2024 21:00:00,19.04946,72.9230,NH3,5,7,6
India,Maharashtra,Mumbai,"Deonar, Mumbai - IITM",28-06-2024 21:00:00,19.04946,72.9230,OZONE,1,26,8
India,Maharashtra,Mumbai,"Ghatkopar, Mumbai - BMC",28-06-2024 21:00:00,19.083694,72.920967,PM10,5,27,12
India,Maharashtra,Mumbai,"Ghatkopar, Mumbai - BMC",28-06-2024 21:00:00,19.083694,72.920967,NH3,2,7,5
India,Maharashtra,Mumbai,"Kandivali East, Mumbai - MPCB",28-06-2024 21:00:00,19.205800,72.868200,NH3,NA,NA,NA
India,Maharashtra,Mumbai,"Kherwadi_Bandra East, Mumbai - MPCB",28-06-2024 21:00:00,19.0632143,72.8456324,PM2.5,4,36,15
India,Maharashtra,Mumbai,"Kherwadi_Bandra East, Mumbai - MPCB",28-06-2024 21:00:00,19.0632143,72.8456324,NO2,5,18,11
India,Maharashtra,Mumbai,"Kurla, Mumbai - MPCB",28-06-2024 21:00:00,19.0863,72.8888,NO2,10,11,10
India,Maharashtra,Mumbai,"Kurla, Mumbai - MPCB",28-06-2024 21:00:00,19.0863,72.8888,CO,1,15,11
India,Maharashtra,Mumbai,"Mazgaon, Mumbai - IITM",28-06-2024 21:00:00,18.96702,72.84214,CO,19,70,48
India,Maharashtra,Mumbai,"Mulund West, Mumbai - MPCB",28-06-2024 21:00:00,19.1750,72.9419,PM2.5,6,57,16
India,Maharashtra,Mumbai,"Powai, Mumbai - MPCB",28-06-2024 21:00:00,19.137500,72.915056,SO2,14,15,14
India,Maharashtra,Mumbai,"Powai, Mumbai - MPCB",28-06-2024 21:00:00,19.137500,72.915056,CO,15,18,17
India,Maharashtra,Mumbai,"Siddharth Nagar-Worli, Mumbai - IITM",28-06-2024 21:00:00,19.000083,72.813993,PM10,32,88,60
India,Maharashtra,Mumbai,"Siddharth Nagar-Worli, Mumbai - IITM",28-06-2024 21:00:00,19.000083,72.813993,NH3,4,4,4
India,Maharashtra,Mumbai,"Siddharth Nagar-Worli, Mumbai - IITM",28-06-2024 21:00:00,19.000083,72.813993,OZONE,15,45,29
India,Maharashtra,Mumbai,"Sion, Mumbai - MPCB",28-06-2024 21:00:00,19.047000,72.874600,OZONE,17,37,25
India,Maharashtra,Mumbai,"Vasai West, Mumbai - MPCB",28-06-2024 21:00:00,19.383200,72.820400,PM2.5,7,73,26
India,Maharashtra,Mumbai,"Vasai West, Mumbai - MPCB",28-06-2024 21:00:00,19.383200,72.820400,NH3,4,4,4
India,Maharashtra,Mumbai,"Worli, Mumbai - MPCB",28-06-2024 21:00:00,18.9936162,72.8128113,NO2,13,13,13
India,Maharashtra,Nagpur,"Ambazari, Nagpur - MPCB",28-06-2024 21:00:00,21.121801,79.04952,NH3,2,8,3
India,Maharashtra,Nagpur,"Mahal, Nagpur - MPCB",28-06-2024 21:00:00,21.14472,79.107595,PM10,11,64,27
India,Maharashtra,Nagpur,"Opp GPO Civil Lines, Nagpur - MPCB",28-06-2024 21:00:00,21.152875,79.0517531,NO2,9,39,22
India,Maharashtra,Nagpur,"Opp GPO Civil Lines, Nagpur - MPCB",28-06-2024 21:00:00,21.152875,79.0517531,OZONE,4,9,6
India,Maharashtra,Nagpur,"Ram Nagar, Nagpur - MPCB",28-06-2024 21:00:00,21.143383,79.048912,NH3,3,4,4
India,Maharashtra,Nagpur,"Ram Nagar, Nagpur - MPCB",28-06-2024 21:00:00,21.143383,79.048912,CO,8,21,13
India,Maharashtra,Nashik,"Gangapur Road, Nashik - MPCB",28-06-2024 21:00:00,20.0073285,73.7762427,NO2,5,11,7
India,Maharashtra,Nashik,"Gangapur Road, Nashik - MPCB",28-06-2024 21:00:00,20.0073285,73.7762427,SO2,6,17,11
India,Maharashtra,Nashik,"Hirawadi, Nashik - MPCB",28-06-2024 21:00:00,20.021503,73.813844,PM2.5,8,22,11
India,Maharashtra,Nashik,"Hirawadi, Nashik - MPCB",28-06-2024 21:00:00,20.021503,73.813844,SO2,3,15,9
India,Maharashtra,Nashik,"Pandav Nagari, Nashik - MPCB",28-06-2024 21:00:00,19.9591346,73.7788008,SO2,6,13,10
India,Maharashtra,Navi Mumbai,"Kopripada-Vashi, Navi Mumbai - MPCB",28-06-2024 21:00:00,19.090337,73.014232,PM2.5,7,20,14
India,Maharashtra,Navi Mumbai,"Mahape, Navi Mumbai - MPCB",28-06-2024 21:00:00,19.1135051,73.008978,PM10,14,62,30
India,Maharashtra,Navi Mumbai,"Mahape, Navi Mumbai - MPCB",28-06-2024 21:00:00,19.1135051,73.008978,NO2,34,35,34
India,Maharashtra,Navi Mumbai,"Mahape, Navi Mumbai - MPCB",28-06-2024 21:00:00,19.1135051,73.008978,CO,14,27,20
India,Maharashtra,Navi Mumbai,"Mahape, Navi Mumbai - MPCB",28-06-2024 21:00:00,19.1135051,73.008978,OZONE,19,21,20
India,Maharashtra,Navi Mumbai,"Nerul, Navi Mumbai - MPCB",28-06-2024 21:00:00,19.008751,73.016620,NH3,3,7,5
India,Maharashtra,Navi Mumbai,"Nerul, Navi Mumbai - MPCB",28-06-2024 21:00:00,19.008751,73.016620,SO2,7,7,7
India,Maharashtra,Navi Mumbai,"Sanpada, Navi Mumbai - MPCB",28-06-2024 21:00:00,19.0575752,73.0151367,PM10,10,123,47
India,Maharashtra,Navi Mumbai,"Sector-19A Nerul, Navi Mumbai - IITM",28-06-2024 21:00:00,19.044,73.0325,PM10,4,23,11
India,Maharashtra,Navi Mumbai,"Sector-19A Nerul, Navi Mumbai - IITM",28-06-2024 21:00:00,19.044,73.0325,NO2,2,8,4
India,Maharashtra,Navi Mumbai,"Sector-19A Nerul, Navi Mumbai - IITM",28-06-2024 21:00:00,19.044,73.0325,SO2,NA,NA,NA
India,Maharashtra,Navi Mumbai,"Sector-19A Nerul, Navi Mumbai - IITM",28-06-2024 21:00:00,19.044,73.0325,CO,16,49,27
India,Maharashtra,Navi Mumbai,"Sector-2E Kalamboli, Navi Mumbai - MPCB",28-06-2024 21:00:00,19.02579,73.10297,OZONE,2,19,9
India,Maharashtra,Navi Mumbai,"Tondare-Taloja, Navi Mumbai - MPCB",28-06-2024 21:00:00,19.0630,73.1209,NO2,8,72,19
India,Maharashtra,Pimpri-Chinchwad,"Gavalinagar, Pimpri Chinchwad - MPCB",28-06-2024 21:00:00,18.63673,73.82487,NH3,4,4,4
India,Maharashtra,Pimpri-Chinchwad,"Thergaon, Pimpri Chinchwad - MPCB",28-06-2024 21:00:00,18.616318,73.765797,CO,26,72,38
India,Maharashtra,Pune,"Alandi, Pune - IITM",28-06-2024 21:00:00,18.675076,73.892743,PM10,20,38,27
India,Maharashtra,Pune,"Bhosari, Pune - IITM",28-06-2024 21:00:00,18.640051,73.848956,NO2,8,10,9
India,Maharashtra,Pune,"Bhumkar Nagar, Pune - IITM",28-06-2024 21:00:00,18.605770,73.749976,PM10,5,63,24
India,Maharashtra,Pune,"Hadapsar, Pune - IITM",28-06-2024 21:00:00,18.501793,73.927532,PM10,16,74,45
India,Maharashtra,Pune,"Mhada Colony, Pune - IITM",28-06-2024 21:00:00,18.573040,73.927715,PM10,29,66,38
India,Maharashtra,Pune,"Revenue Colony-Shivajinagar, Pune - IITM",28-06-2024 21:00:00,18.530085,73.849598,PM2.5,22,105,44
India,Maharashtra,Pune,"Revenue Colony-Shivajinagar, Pune - IITM",28-06-2024 21:00:00,18.530085,73.849598,PM10,21,89,40
India,Maharashtra,Pune,"Savitribai Phule Pune University, Pune - MPCB",28-06-2024 21:00:00,18.547056,73.826908,SO2,2,8,5
India,Maharashtra,Solapur,"Dnyaneshwar Nagar, Solapur - MPCB",28-06-2024 21:00:00,17.6336264,75.9132495,PM10,21,86,45
India,Maharashtra,Solapur,"Dnyaneshwar Nagar, Solapur - MPCB",28-06-2024 21:00:00,17.6336264,75.9132495,SO2,3,4,3
India,Maharashtra,Solapur,"Dnyaneshwar Nagar, Solapur - MPCB",28-06-2024 21:00:00,17.6336264,75.9132495,CO,6,16,11
India,Maharashtra,Solapur,"Ratandeep Housing Society, Solapur - MPCB",28-06-2024 21:00:00,17.65439,75.90649,PM10,19,54,36
India,Maharashtra,Solapur,"Ratandeep Housing Society, Solapur - MPCB",28-06-2024 21:00:00,17.65439,75.90649,OZONE,16,39,24
India,Maharashtra,Solapur,"Solapur, Solapur - MPCB",28-06-2024 21:00:00,17.6599188,75.9063906,PM2.5,65,70,67
India,Maharashtra,Thane,"Kasarvadavali, Thane - MPCB",28-06-2024 21:00:00,19.26777,72.97182,NH3,3,5,4
India,Maharashtra,Thane,"Pimpleshwar Mandir, Thane - MPCB",28-06-2024 21:00:00,19.192056,72.9585188,PM10,1,27,18
India,Maharashtra,Thane,"Upvan Fort, Thane - MPCB",28-06-2024 21:00:00,19.222279,72.957979,PM10,7,35,19
India,Maharashtra,Thane,"Upvan Fort, Thane - MPCB",28-06-2024 21:00:00,19.222279,72.957979,CO,8,40,22
India,Maharashtra,Ulhasnagar,"Sidhi Vinayak Nagar, Ulhasnagar - MPCB",28-06-2024 21:00:00,19.235581,73.159121,PM10,36,53,43
India,Maharashtra,Virar,"Bolinj, Virar - MPCB",28-06-2024 21:00:00,19.4458210,72.7988231,SO2,3,5,4
India,Manipur,Imphal,"DM College of Science, Imphal - Manipur PCB",28-06-2024 21:00:00,24.8207389,93.9423085,PM2.5,1,4,2
India,Manipur,Imphal,"DM College of Science, Imphal - Manipur PCB",28-06-2024 21:00:00,24.8207389,93.9423085,PM10,1,12,5
India,Meghalaya,Shillong,"Lumpyngngad, Shillong - Meghalaya PCB",28-06-2024 21:00:00,25.5586,91.8985,PM10,NA,NA,NA
India,Mizoram,Aizawl,"Sikulpuikawn, Aizawl - Mizoram PCB",28-06-2024 21:00:00,23.7176342,92.7192841,OZONE,NA,NA,NA
India,Nagaland,Kohima,"PWD Juction, Kohima - NPCB",28-06-2024 21:00:00,25.6635413,94.0989878,SO2,37,45,39
India,Odisha,Balasore,"Kalidaspur, Balasore - OSPCB",28-06-2024 21:00:00,21.51161,86.89088,PM2.5,NA,NA,NA
India,Odisha,Baripada,"Meher Colony, Baripada - OSPCB",28-06-2024 21:00:00,21.941841,86.728318,PM2.5,11,36,17
India,Odisha,Bhubaneswar,"Patia, Bhubaneswar - OSPCB",28-06-2024 21:00:00,20.34652,85.81630,NO2,3,10,6
India,Odisha,Bhubaneswar,"Patia, Bhubaneswar - OSPCB",28-06-2024 21:00:00,20.34652,85.81630,CO,15,26,24
India,Odisha,Bileipada,"Tata Township, Bileipada - OSPCB",28-06-2024 21:00:00,22.06156703,85.47409613,OZONE,23,57,45
India,Odisha,Brajrajnagar,"GM Office, Brajrajnagar - OSPCB",28-06-2024 21:00:00,21.8004996,83.8396977,PM2.5,6,60,26
India,Odisha,Byasanagar,"Ferro Chrome Colony, Byasanagar - OSPCB",28-06-2024 21:00:00,20.94185,86.11510,PM10,NA,NA,NA
India,Odisha,Byasanagar,"Ferro Chrome Colony, Byasanagar - OSPCB",28-06-2024 21:00:00,20.94185,86.11510,NH3,1,2,2
India,Odisha,Byasanagar,"Ferro Chrome Colony, Byasanagar - OSPCB",28-06-2024 21:00:00,20.94185,86.11510,OZONE,8,66,36
India,Odisha,Cuttack,"CDA Area, Cuttack - OSPCB",28-06-2024 21:00:00,20.48891     ,85.84768     ,NO2,6,16,11
India,Odisha,Keonjhar,"Jagamohanpur, Keonjhar - OSPCB",28-06-2024 21:00:00,21.643900,85.599355,PM2.5,12,17,14
India,Odisha,Keonjhar,"Jagamohanpur, Keonjhar - OSPCB",28-06-2024 21:00:00,21.643900,85.599355,PM10,27,41,33
India,Odisha,Keonjhar,"Jagamohanpur, Keonjhar - OSPCB",28-06-2024 21:00:00,21.643900,85.599355,CO,11,70,35
India,Odisha,Keonjhar,"Jagamohanpur, Keonjhar - OSPCB",28-06-2024 21:00:00,21.643900,85.599355,OZONE,3,11,6
India,Odisha,Nayagarh,"Dabuna, Nayagarh - OSPCB",28-06-2024 21:00:00,21.847279,85.416905,PM2.5,NA,NA,NA
India,Odisha,Nayagarh,"Dabuna, Nayagarh - OSPCB",28-06-2024 21:00:00,21.847279,85.416905,CO,NA,NA,NA
India,Odisha,Rairangpur,"Divisional Forest Office, Rairangpur - OSPCB",28-06-2024 21:00:00,22.265816,86.174829,PM10,26,47,34
India,Odisha,Rourkela,"Fertilizer Township, Rourkela - OSPCB",28-06-2024 21:00:00,22.18972222,84.86277778,PM10,NA,NA,NA
India,Odisha,Rourkela,"Fertilizer Township, Rourkela - OSPCB",28-06-2024 21:00:00,22.18972222,84.86277778,NO2,10,52,26
India,Odisha,Rourkela,"Raghunathpali, Rourkela - OSPCB",28-06-2024 21:00:00,22.220833,84.809444,PM10,8,81,23
India,Odisha,Rourkela,"Raghunathpali, Rourkela - OSPCB",28-06-2024 21:00:00,22.220833,84.809444,NH3,2,3,3
India,Odisha,Rourkela,"Raghunathpali, Rourkela - OSPCB",28-06-2024 21:00:00,22.220833,84.809444,CO,19,63,29
India,Odisha,Rourkela,"Raghunathpali, Rourkela - OSPCB",28-06-2024 21:00:00,22.220833,84.809444,OZONE,28,41,32
India,Odisha,Rourkela,"Sector-2, Rourkela - OSPCB",28-06-2024 21:00:00,22.24500000,84.88111111,NO2,51,117,88
India,Odisha,Suakati,"OMC Colony, Suakati - OSPCB",28-06-2024 21:00:00,21.606865,85.510538,PM10,20,34,26
India,Odisha,Suakati,"OMC Colony, Suakati - OSPCB",28-06-2024 21:00:00,21.606865,85.510538,NH3,5,5,5
India,Odisha,Talcher,"Talcher Coalfields,Talcher - OSPCB",28-06-2024 21:00:00,20.9360711,85.1707021,CO,26,121,83
India,Odisha,Tensa,"Barsua Iron Ore Mines, Tensa - OSPCB",28-06-2024 21:00:00,21.869985,85.167016,OZONE,26,37,34
India,Puducherry,Puducherry,"Jawahar Nagar, Puducherry - PPCC",28-06-2024 21:00:00,11.9309,79.8027,NO2,1,18,11
India,Puducherry,Puducherry,"Jawahar Nagar, Puducherry - PPCC",28-06-2024 21:00:00,11.9309,79.8027,NH3,2,6,4
India,Punjab,Amritsar,"Golden Temple, Amritsar - PPCB",28-06-2024 21:00:00,31.620000,74.876512,PM2.5,23,297,73
India,Punjab,Amritsar,"Golden Temple, Amritsar - PPCB",28-06-2024 21:00:00,31.620000,74.876512,PM10,50,229,111
India,Punjab,Amritsar,"Golden Temple, Amritsar - PPCB",28-06-2024 21:00:00,31.620000,74.876512,OZONE,43,70,52
India,Punjab,Bathinda,"Hardev Nagar, Bathinda - PPCB",28-06-2024 21:00:00,30.233011,74.907758,SO2,5,29,19
India,Punjab,Khanna,"Kalal Majra, Khanna - PPCB",28-06-2024 21:00:00,30.736056 ,76.209694,PM2.5,12,117,37
India,Punjab,Ludhiana,"Punjab Agricultural University, Ludhiana - PPCB",28-06-2024 21:00:00,30.9028,75.8086,PM10,52,128,86
India,Punjab,Ludhiana,"Punjab Agricultural University, Ludhiana - PPCB",28-06-2024 21:00:00,30.9028,75.8086,SO2,5,9,7
India,Punjab,Patiala,"Model Town, Patiala - PPCB",28-06-2024 21:00:00,30.349388,76.366642,SO2,7,20,12
India,Rajasthan,Ajmer,"Civil Lines,  Ajmer - RSPCB",28-06-2024 21:00:00,26.470859,74.646594,SO2,6,17,11
India,Rajasthan,Alwar,"Moti Doongri, Alwar - RSPCB",28-06-2024 21:00:00,27.554793,76.611536,PM2.5,17,66,36
India,Rajasthan,Alwar,"Moti Doongri, Alwar - RSPCB",28-06-2024 21:00:00,27.554793,76.611536,NH3,4,11,6
India,Rajasthan,Banswara,"Rati Talai, Banswara - RSPCB",28-06-2024 21:00:00,23.555190,74.440010,PM2.5,5,55,16
India,Rajasthan,Banswara,"Rati Talai, Banswara - RSPCB",28-06-2024 21:00:00,23.555190,74.440010,PM10,8,90,26
India,Rajasthan,Barmer,"Railway Colony, Barmer - RSPCB",28-06-2024 21:00:00,25.747299,71.393989,CO,5,24,21
India,Rajasthan,Bharatpur,"Krishna Nagar, Bharatpur - RSPCB",28-06-2024 21:00:00,27.215415,77.50873,PM2.5,2,301,75
India,Rajasthan,Bharatpur,"Krishna Nagar, Bharatpur - RSPCB",28-06-2024 21:00:00,27.215415,77.50873,NH3,5,12,9
India,Rajasthan,Bhiwadi,"RIICO Ind. Area III, Bhiwadi - RSPCB",28-06-2024 21:00:00,28.194909,76.862296,PM2.5,3,111,57
India,Rajasthan,Bhiwadi,"RIICO Ind. Area III, Bhiwadi - RSPCB",28-06-2024 21:00:00,28.194909,76.862296,SO2,2,27,10
India,Rajasthan,Bhiwadi,"RIICO Ind. Area III, Bhiwadi - RSPCB",28-06-2024 21:00:00,28.194909,76.862296,OZONE,10,91,66
India,Rajasthan,Bikaner,"MM Ground, Bikaner - RSPCB",28-06-2024 21:00:00,28.018792,73.292658,CO,16,56,33
India,Rajasthan,Bundi,"New Colony, Bundi - RSPCB",28-06-2024 21:00:00,25.435774,75.644272,CO,10,32,22
India,Rajasthan,Chittorgarh,"Shastri Nagar, Chittorgarh - RSPCB",28-06-2024 21:00:00,24.892047,74.623527,PM2.5,17,237,98
India,Rajasthan,Chittorgarh,"Shastri Nagar, Chittorgarh - RSPCB",28-06-2024 21:00:00,24.892047,74.623527,PM10,35,116,73
India,Rajasthan,Chittorgarh,"Shastri Nagar, Chittorgarh - RSPCB",28-06-2024 21:00:00,24.892047,74.623527,SO2,4,17,9
India,Rajasthan,Churu,"Subash Chowk, Churu - RSPCB",28-06-2024 21:00:00,28.296139,74.961696,NH3,6,51,21
India,Rajasthan,Dausa,"Khatikan Mohalla, Dausa - RSPCB",28-06-2024 21:00:00,26.895552,76.334753,PM10,9,130,50
India,Rajasthan,Dausa,"Khatikan Mohalla, Dausa - RSPCB",28-06-2024 21:00:00,26.895552,76.334753,NO2,4,49,14
India,Rajasthan,Dausa,"Khatikan Mohalla, Dausa - RSPCB",28-06-2024 21:00:00,26.895552,76.334753,SO2,8,17,14
India,Rajasthan,Dholpur,"Raja Ganj, Dholpur - RSPCB",28-06-2024 21:00:00,26.699557,77.898881,CO,1,25,13
India,Rajasthan,Jaipur,"Adarsh Nagar, Jaipur - RSPCB",28-06-2024 21:00:00,26.902909,75.836858,PM2.5,9,53,28
India,Rajasthan,Jaipur,"Adarsh Nagar, Jaipur - RSPCB",28-06-2024 21:00:00,26.902909,75.836858,SO2,5,26,15
India,Rajasthan,Jaipur,"Adarsh Nagar, Jaipur - RSPCB",28-06-2024 21:00:00,26.902909,75.836858,CO,23,58,31
India,Rajasthan,Jaipur,"Adarsh Nagar, Jaipur - RSPCB",28-06-2024 21:00:00,26.902909,75.836858,OZONE,2,60,44
India,Rajasthan,Jaipur,"Mansarovar Sector-12, Jaipur - RSPCB",28-06-2024 21:00:00,26.843698,75.766894,PM2.5,4,103,17
India,Rajasthan,Jaipur,"Mansarovar Sector-12, Jaipur - RSPCB",28-06-2024 21:00:00,26.843698,75.766894,NO2,10,46,19
India,Rajasthan,Jaipur,"Mansarovar Sector-12, Jaipur - RSPCB",28-06-2024 21:00:00,26.843698,75.766894,OZONE,24,64,55
India,Rajasthan,Jaipur,"Police Commissionerate, Jaipur - RSPCB",28-06-2024 21:00:00,26.9164092,75.7994901,NH3,10,12,11
India,Rajasthan,Jaipur,"Sector-2 Murlipura, Jaipur - RSPCB",28-06-2024 21:00:00,26.960669,75.771817,PM2.5,2,18,10
India,Rajasthan,Jaipur,"Sector-2 Murlipura, Jaipur - RSPCB",28-06-2024 21:00:00,26.960669,75.771817,NO2,14,77,34
India,Rajasthan,Jaipur,"Shastri Nagar, Jaipur - RSPCB",28-06-2024 21:00:00,26.9502929,75.730943,SO2,11,20,16
India,Rajasthan,Jaipur,"Shastri Nagar, Jaipur - RSPCB",28-06-2024 21:00:00,26.9502929,75.730943,CO,22,56,44
India,Rajasthan,Jaipur,"Shastri Nagar, Jaipur - RSPCB",28-06-2024 21:00:00,26.9502929,75.730943,OZONE,20,59,52
India,Rajasthan,Jaisalmer,"Sadar Bazar, Jaisalmer - RSPCB",28-06-2024 21:00:00,26.912329,70.909168,CO,32,38,35
India,Rajasthan,Jhalawar,"Rajlaxmi Nagar, Jhalawar - RSPCB",28-06-2024 21:00:00,24.588397,76.172782,PM2.5,7,64,30
India,Rajasthan,Jhalawar,"Rajlaxmi Nagar, Jhalawar - RSPCB",28-06-2024 21:00:00,24.588397,76.172782,PM10,6,59,38
India,Rajasthan,Jhalawar,"Rajlaxmi Nagar, Jhalawar - RSPCB",28-06-2024 21:00:00,24.588397,76.172782,SO2,6,84,12
India,Rajasthan,Jhalawar,"Rajlaxmi Nagar, Jhalawar - RSPCB",28-06-2024 21:00:00,24.588397,76.172782,CO,11,46,22
India,Rajasthan,Jhunjhunu,"Indra Nagar, Jhunjhunu - RSPCB",28-06-2024 21:00:00,28.108988,75.386577,NO2,18,57,27
India,Rajasthan,Jhunjhunu,"Indra Nagar, Jhunjhunu - RSPCB",28-06-2024 21:00:00,28.108988,75.386577,SO2,2,6,3
India,Rajasthan,Jodhpur,"Collectorate, Jodhpur - RSPCB",28-06-2024 21:00:00,26.268249,73.0193853,OZONE,2,122,15
India,Rajasthan,Jodhpur,"Digari Kalan, Jodhpur - RSPCB",28-06-2024 21:00:00,26.295810,73.082283,PM2.5,2,27,14
India,Rajasthan,Jodhpur,"Digari Kalan, Jodhpur - RSPCB",28-06-2024 21:00:00,26.295810,73.082283,PM10,6,96,34
India,Rajasthan,Jodhpur,"Digari Kalan, Jodhpur - RSPCB",28-06-2024 21:00:00,26.295810,73.082283,NH3,4,22,10
India,Rajasthan,Kota,"Dhanmandi, Kota - RSPCB",28-06-2024 21:00:00,25.164090,75.858137,PM10,NA,NA,NA
India,Rajasthan,Kota,"Dhanmandi, Kota - RSPCB",28-06-2024 21:00:00,25.164090,75.858137,NO2,14,43,22
India,Rajasthan,Kota,"Nayapura, Kota - RSPCB",28-06-2024 21:00:00,25.196024,75.855668,PM2.5,2,29,15
India,Rajasthan,Kota,"Nayapura, Kota - RSPCB",28-06-2024 21:00:00,25.196024,75.855668,NO2,6,28,14
India,Rajasthan,Kota,"Nayapura, Kota - RSPCB",28-06-2024 21:00:00,25.196024,75.855668,CO,14,126,39
India,Rajasthan,Kota,"Shrinath Puram, Kota - RSPCB",28-06-2024 21:00:00,25.14389,75.821256,SO2,6,15,10
India,Rajasthan,Pali,"Indira Colony Vistar, Pali - RSPCB",28-06-2024 21:00:00,25.771061, 73.340227,PM2.5,11,65,35
India,Rajasthan,Pali,"Indira Colony Vistar, Pali - RSPCB",28-06-2024 21:00:00,25.771061, 73.340227,NH3,4,7,5
India,Rajasthan,Pratapgarh,"Pragati Nagar, Pratapgarh - RSPCB",28-06-2024 21:00:00,24.041198,74.780702,NO2,4,21,11
India,Rajasthan,Rajsamand,"Dhoinda, Rajsamand - RSPCB",28-06-2024 21:00:00,25.036360,73.883502,PM2.5,NA,NA,NA
India,Rajasthan,Sawai Madhopur,"Sahu Nagar, Sawai Madhopur - RSPCB",28-06-2024 21:00:00,26.031443,76.359327,PM2.5,7,184,20
India,Rajasthan,Sawai Madhopur,"Sahu Nagar, Sawai Madhopur - RSPCB",28-06-2024 21:00:00,26.031443,76.359327,NH3,NA,NA,NA
India,Rajasthan,Sawai Madhopur,"Sahu Nagar, Sawai Madhopur - RSPCB",28-06-2024 21:00:00,26.031443,76.359327,SO2,1,13,5
India,Rajasthan,Sawai Madhopur,"Sahu Nagar, Sawai Madhopur - RSPCB",28-06-2024 21:00:00,26.031443,76.359327,CO,14,62,50
India,Rajasthan,Sikar,"Radhakishan Pura, Sikar - RSPCB",28-06-2024 21:00:00,27.608912,75.153302,PM2.5,12,97,41
India,Rajasthan,Sikar,"Radhakishan Pura, Sikar - RSPCB",28-06-2024 21:00:00,27.608912,75.153302,CO,12,35,26
India,Rajasthan,Sirohi,"Vedhaynath Colony, Sirohi - RSPCB",28-06-2024 21:00:00,24.885261,72.857549,SO2,4,11,7
India,Rajasthan,Sri Ganganagar,"Old City, Sri Ganganagar - RSPCB",28-06-2024 21:00:00,29.931624,73.864511,NO2,10,89,33
India,Rajasthan,Sri Ganganagar,"Old City, Sri Ganganagar - RSPCB",28-06-2024 21:00:00,29.931624,73.864511,SO2,1,10,4
India,Rajasthan,Tonk,"Shastri Nagar, Tonk - RSPCB",28-06-2024 21:00:00,26.159933,75.780517,SO2,1,6,3
India,Rajasthan,Udaipur,"Ashok Nagar, Udaipur - RSPCB",28-06-2024 21:00:00,24.5886166,73.6321397,NO2,2,85,30
India,Rajasthan,Udaipur,"Ashok Nagar, Udaipur - RSPCB",28-06-2024 21:00:00,24.5886166,73.6321397,OZONE,7,23,16
India,Sikkim,Gangtok,"Zero Point GICI, Gangtok - SSPCB",28-06-2024 21:00:00,27.338530,88.614099,NO2,NA,NA,NA
India,Sikkim,Gangtok,"Zero Point GICI, Gangtok - SSPCB",28-06-2024 21:00:00,27.338530,88.614099,CO,2,8,6
India,TamilNadu,Ariyalur,"Keelapalur, Ariyalur - TNPCB",28-06-2024 21:00:00,11.06825,79.07033,PM10,9,116,33
India,TamilNadu,Ariyalur,"Keelapalur, Ariyalur - TNPCB",28-06-2024 21:00:00,11.06825,79.07033,NO2,7,9,8
India,TamilNadu,Chennai,"Alandur Bus Depot, Chennai - CPCB",28-06-2024 21:00:00,12.9099161,80.1076538,PM2.5,25,27,25
India,TamilNadu,Chennai,"Kodungaiyur, Chennai - TNPCB",28-06-2024 21:00:00,13.1278,80.2642,NH3,2,6,4
India,TamilNadu,Chennai,"Manali, Chennai - CPCB",28-06-2024 21:00:00,13.164544,80.26285,NH3,NA,NA,NA
India,TamilNadu,Chennai,"Perungudi, Chennai - TNPCB",28-06-2024 21:00:00,12.9533,80.2357,NH3,3,5,4
India,TamilNadu,Chennai,"Royapuram, Chennai - TNPCB",28-06-2024 21:00:00,13.1036,80.2909,NH3,NA,NA,NA
India,TamilNadu,Chennai,"Royapuram, Chennai - TNPCB",28-06-2024 21:00:00,13.1036,80.2909,SO2,NA,NA,NA
India,TamilNadu,Coimbatore,"PSG College of Arts and Science, Coimbatore - TNPCB",28-06-2024 21:00:00,11.0328,77.0349,SO2,31,42,39
India,TamilNadu,Cuddalore,"Kudikadu, Cuddalore - TNPCB",28-06-2024 21:00:00,11.6829898,79.7532099,NH3,3,3,3
India,TamilNadu,Cuddalore,"Semmandalam, Cuddalore - TNPCB",28-06-2024 21:00:00,11.7637683,79.7499835,PM2.5,NA,NA,NA
India,TamilNadu,Gummidipoondi,"Anthoni Pillai Nagar, Gummidipoondi - TNPCB",28-06-2024 21:00:00,13.4127,80.1081,SO2,7,63,37
India,TamilNadu,Ooty,"Bombay Castel, Ooty - TNPCB",28-06-2024 21:00:00,11.4068288,76.7138973,PM10,NA,NA,NA
India,TamilNadu,Ramanathapuram,"Chalai Bazaar, Ramanathapuram - TNPCB",28-06-2024 21:00:00,9.36399,78.831977,PM2.5,NA,NA,NA
India,TamilNadu,Thoothukudi,"Meelavittan, Thoothukudi - TNPCB",28-06-2024 21:00:00,8.816428 ,78.099039,NO2,24,53,37
India,TamilNadu,Tirupur,"Kumaran College, Tirupur - TNPCB",28-06-2024 21:00:00,11.0973603,77.3228673,CO,13,32,24
India,TamilNadu,Vellore,"Vasanthapuram, Vellore - TNPCB",28-06-2024 21:00:00,12.909494,79.131861,PM10,13,46,30
India,Telangana,Hyderabad,"Central University, Hyderabad - TSPCB",28-06-2024 21:00:00,17.460103,78.334361,NO2,11,28,21
India,Telangana,Hyderabad,"ICRISAT Patancheru, Hyderabad - TSPCB",28-06-2024 21:00:00,17.518400,78.278777,NO2,4,10,8
India,Telangana,Hyderabad,"ICRISAT Patancheru, Hyderabad - TSPCB",28-06-2024 21:00:00,17.518400,78.278777,CO,11,50,17
India,Telangana,Hyderabad,"IDA Pashamylaram, Hyderabad - TSPCB",28-06-2024 21:00:00,17.5316895,78.218939,OZONE,8,12,9
India,Telangana,Hyderabad,"Kokapet, Hyderabad - TSPCB",28-06-2024 21:00:00,17.393559,78.339194,CO,18,34,23
India,Telangana,Hyderabad,"Kompally Municipal Office, Hyderabad - TSPCB",28-06-2024 21:00:00,17.544899,78.486949,SO2,NA,NA,NA
India,Telangana,Hyderabad,"Nacharam_TSIIC IALA, Hyderabad - TSPCB",28-06-2024 21:00:00,17.429398,78.569354,PM2.5,42,51,47
India,Telangana,Hyderabad,"Nacharam_TSIIC IALA, Hyderabad - TSPCB",28-06-2024 21:00:00,17.429398,78.569354,NO2,8,16,13
India,Telangana,Hyderabad,"New Malakpet, Hyderabad - TSPCB",28-06-2024 21:00:00,17.37206,78.50864,NO2,12,20,15
India,Telangana,Hyderabad,"Ramachandrapuram, Hyderabad - TSPCB",28-06-2024 21:00:00,17.528544,78.286195,SO2,NA,NA,NA
India,Telangana,Hyderabad,"Sanathnagar, Hyderabad - TSPCB",28-06-2024 21:00:00,17.4559458,78.4332152,PM2.5,19,42,29
India,Telangana,Hyderabad,"Somajiguda, Hyderabad - TSPCB",28-06-2024 21:00:00,17.417094,78.457437,NO2,15,40,23
India,Tripura,Agartala,"Bardowali, Agartala - Tripura SPCB",28-06-2024 21:00:00,23.8175497,91.2726974,OZONE,5,15,9
India,Uttar_Pradesh,Agra,"Manoharpur, Agra - UPPCB",28-06-2024 21:00:00,27.23711,78.01936,OZONE,25,56,49
India,Uttar_Pradesh,Agra,"Rohta, Agra - UPPCB",28-06-2024 21:00:00,27.106972,78.000111,NO2,5,6,6
India,Uttar_Pradesh,Agra,"Rohta, Agra - UPPCB",28-06-2024 21:00:00,27.106972,78.000111,NH3,2,2,2
India,Uttar_Pradesh,Agra,"Rohta, Agra - UPPCB",28-06-2024 21:00:00,27.106972,78.000111,OZONE,22,22,22
India,Uttar_Pradesh,Agra,"Sanjay Palace, Agra - UPPCB",28-06-2024 21:00:00,27.19865833,78.00598056,PM2.5,NA,NA,NA
India,Uttar_Pradesh,Agra,"Sector-3B Avas Vikas Colony, Agra - UPPCB",28-06-2024 21:00:00,27.19412,77.96237,NO2,37,38,37
India,Uttar_Pradesh,Agra,"Shahjahan Garden, Agra - UPPCB",28-06-2024 21:00:00,27.169338,78.03582,CO,10,20,12
India,Uttar_Pradesh,Agra,"Shastripuram, Agra - UPPCB",28-06-2024 21:00:00,27.19862,77.92066,SO2,14,17,16
India,Uttar_Pradesh,Baghpat,"Sardar Patel Inter College, Baghpat - UPPCB",28-06-2024 21:00:00,28.964949,77.278761,PM10,7,134,64
India,Uttar_Pradesh,Baghpat,"Sardar Patel Inter College, Baghpat - UPPCB",28-06-2024 21:00:00,28.964949,77.278761,SO2,13,50,30
India,Uttar_Pradesh,Baghpat,"Sardar Patel Inter College, Baghpat - UPPCB",28-06-2024 21:00:00,28.964949,77.278761,CO,12,66,53
India,Uttar_Pradesh,Bulandshahr,"Yamunapuram, Bulandshahr - UPPCB",28-06-2024 21:00:00,28.406963,77.849831,PM2.5,15,75,41
India,Uttar_Pradesh,Bulandshahr,"Yamunapuram, Bulandshahr - UPPCB",28-06-2024 21:00:00,28.406963,77.849831,CO,20,47,26
India,Uttar_Pradesh,Bulandshahr,"Yamunapuram, Bulandshahr - UPPCB",28-06-2024 21:00:00,28.406963,77.849831,OZONE,8,21,15
India,Uttar_Pradesh,Firozabad,"Nagla Bhau, Firozabad - UPPCB",28-06-2024 21:00:00,27.168897,78.376960,NO2,17,17,17
India,Uttar_Pradesh,Firozabad,"Nagla Bhau, Firozabad - UPPCB",28-06-2024 21:00:00,27.168897,78.376960,NH3,2,2,2
India,Uttar_Pradesh,Firozabad,"Vibhab Nagar, Firozabad - UPPCB",28-06-2024 21:00:00,27.1594,78.3953,PM2.5,NA,NA,NA
India,Uttar_Pradesh,Firozabad,"Vibhab Nagar, Firozabad - UPPCB",28-06-2024 21:00:00,27.1594,78.3953,PM10,NA,NA,NA
India,Uttar_Pradesh,Ghaziabad,"Loni, Ghaziabad - UPPCB",28-06-2024 21:00:00,28.757294,77.278792,PM2.5,58,303,102
India,Uttar_Pradesh,Ghaziabad,"Sanjay Nagar, Ghaziabad - UPPCB",28-06-2024 21:00:00,28.685382,77.453839,NO2,14,89,35
India,Uttar_Pradesh,Ghaziabad,"Vasundhara, Ghaziabad - UPPCB",28-06-2024 21:00:00,28.6603346,77.3572563,NH3,4,6,5
India,Uttar_Pradesh,Greater Noida,"Knowledge Park - III, Greater Noida - UPPCB",28-06-2024 21:00:00,28.47272,77.482000,OZONE,2,70,49
India,Uttar_Pradesh,Greater Noida,"Knowledge Park - V, Greater Noida - UPPCB",28-06-2024 21:00:00,28.557054,77.453663,NO2,7,23,14
India,Uttar_Pradesh,Greater Noida,"Knowledge Park - V, Greater Noida - UPPCB",28-06-2024 21:00:00,28.557054,77.453663,NH3,4,7,5
India,Uttar_Pradesh,Greater Noida,"Knowledge Park - V, Greater Noida - UPPCB",28-06-2024 21:00:00,28.557054,77.453663,CO,16,62,22
India,Uttar_Pradesh,Hapur,"Anand Vihar, Hapur - UPPCB",28-06-2024 21:00:00,28.725645,77.749675,PM2.5,12,38,23
India,Uttar_Pradesh,Hapur,"Anand Vihar, Hapur - UPPCB",28-06-2024 21:00:00,28.725645,77.749675,OZONE,5,16,10
India,Uttar_Pradesh,Jhansi,"Shivaji Nagar, Jhansi - UPPCB",28-06-2024 21:00:00,25.4547,78.6039,OZONE,1,11,7
India,Uttar_Pradesh,Kanpur,"FTI Kidwai Nagar, Kanpur - UPPCB",28-06-2024 21:00:00,26.428282,80.327067,PM10,42,78,53
India,Uttar_Pradesh,Kanpur,"NSI Kalyanpur, Kanpur - UPPCB",28-06-2024 21:00:00,26.509954,80.249612,CO,32,50,38
India,Uttar_Pradesh,Kanpur,"NSI Kalyanpur, Kanpur - UPPCB",28-06-2024 21:00:00,26.509954,80.249612,OZONE,11,51,28
India,Uttar_Pradesh,Kanpur,"Nehru Nagar, Kanpur - UPPCB",28-06-2024 21:00:00,26.4703136,80.3229863,PM10,30,76,49
India,Uttar_Pradesh,Kanpur,"Nehru Nagar, Kanpur - UPPCB",28-06-2024 21:00:00,26.4703136,80.3229863,SO2,8,12,10
India,Uttar_Pradesh,Kanpur,"Nehru Nagar, Kanpur - UPPCB",28-06-2024 21:00:00,26.4703136,80.3229863,OZONE,2,18,6
India,Uttar_Pradesh,Khurja,"Kalindi Kunj, Khurja - UPPCB",28-06-2024 21:00:00,28.2348927,77.8683002,SO2,32,111,51
India,Uttar_Pradesh,Lucknow,"B R Ambedkar University, Lucknow - UPPCB",28-06-2024 21:00:00,26.766433,80.927299,CO,24,26,25
India,Uttar_Pradesh,Lucknow,"Gomti Nagar, Lucknow - UPPCB",28-06-2024 21:00:00,26.868120,81.005119,PM2.5,3,63,24
India,Uttar_Pradesh,Lucknow,"Kendriya Vidyalaya, Lucknow - CPCB",28-06-2024 21:00:00,26.906111,80.948222,NH3,3,17,12
India,Uttar_Pradesh,Lucknow,"Kendriya Vidyalaya, Lucknow - CPCB",28-06-2024 21:00:00,26.906111,80.948222,CO,14,40,28
India,Uttar_Pradesh,Lucknow,"Kukrail Picnic Spot-1, Lucknow - UPPCB",28-06-2024 21:00:00,26.90723,80.98579,PM2.5,26,46,37
India,Uttar_Pradesh,Lucknow,"Kukrail Picnic Spot-1, Lucknow - UPPCB",28-06-2024 21:00:00,26.90723,80.98579,NH3,3,3,3
India,Uttar_Pradesh,Lucknow,"Lalbagh, Lucknow - CPCB",28-06-2024 21:00:00,26.8458805,80.9365541,NO2,17,27,25
India,Uttar_Pradesh,Lucknow,"Lalbagh, Lucknow - CPCB",28-06-2024 21:00:00,26.8458805,80.9365541,NH3,25,35,31
India,Uttar_Pradesh,Lucknow,"Lalbagh, Lucknow - CPCB",28-06-2024 21:00:00,26.8458805,80.9365541,CO,2,112,74
India,Uttar_Pradesh,Lucknow,"Talkatora District Industries Center, Lucknow - CPCB",28-06-2024 21:00:00,26.83399722,80.8917361,NO2,11,13,12
India,Uttar_Pradesh,Meerut,"Ganga Nagar, Meerut - UPPCB",28-06-2024 21:00:00,28.999264,77.7590354,NH3,NA,NA,NA
India,Uttar_Pradesh,Meerut,"Ganga Nagar, Meerut - UPPCB",28-06-2024 21:00:00,28.999264,77.7590354,SO2,NA,NA,NA
India,Uttar_Pradesh,Meerut,"Ganga Nagar, Meerut - UPPCB",28-06-2024 21:00:00,28.999264,77.7590354,CO,100,115,104
India,Uttar_Pradesh,Meerut,"Jai Bhim Nagar, Meerut - UPPCB",28-06-2024 21:00:00,28.9535882,77.7622941,NO2,NA,NA,NA
India,Uttar_Pradesh,Meerut,"Jai Bhim Nagar, Meerut - UPPCB",28-06-2024 21:00:00,28.9535882,77.7622941,CO,26,60,37
India,Uttar_Pradesh,Meerut,"Pallavpuram Phase 2, Meerut - UPPCB",28-06-2024 21:00:00,29.063510,77.709723,NO2,6,43,17
India,Uttar_Pradesh,Moradabad,"Buddhi Vihar, Moradabad - UPPCB",28-06-2024 21:00:00,28.83526,78.74460,PM2.5,21,64,41
India,Uttar_Pradesh,Moradabad,"Buddhi Vihar, Moradabad - UPPCB",28-06-2024 21:00:00,28.83526,78.74460,OZONE,5,18,10
India,Uttar_Pradesh,Moradabad,"Employment Office, Moradabad - UPPCB",28-06-2024 21:00:00,28.88528,78.73880,PM2.5,24,68,41
India,Uttar_Pradesh,Moradabad,"Employment Office, Moradabad - UPPCB",28-06-2024 21:00:00,28.88528,78.73880,CO,18,42,20
India,Uttar_Pradesh,Moradabad,"Jigar Colony, Moradabad - UPPCB",28-06-2024 21:00:00,28.856664,78.772638,NO2,17,18,17
India,Uttar_Pradesh,Moradabad,"Jigar Colony, Moradabad - UPPCB",28-06-2024 21:00:00,28.856664,78.772638,NH3,4,7,4
India,Uttar_Pradesh,Moradabad,"Kashiram Nagar, Moradabad - UPPCB",28-06-2024 21:00:00,28.849399,78.742362,PM2.5,NA,NA,NA
India,Uttar_Pradesh,Moradabad,"Transport Nagar, Moradabad - UPPCB",28-06-2024 21:00:00,28.802625,78.753728,CO,38,42,41
India,Uttar_Pradesh,Muzaffarnagar,"New Mandi, Muzaffarnagar - UPPCB",28-06-2024 21:00:00,29.4723508,77.7194031,NO2,8,26,16
India,Uttar_Pradesh,Noida,"Sector - 62, Noida - IMD",28-06-2024 21:00:00,28.6245479,77.3577104,NO2,11,15,13
India,Uttar_Pradesh,Noida,"Sector - 62, Noida - IMD",28-06-2024 21:00:00,28.6245479,77.3577104,OZONE,32,56,50
India,Uttar_Pradesh,Noida,"Sector-1, Noida - UPPCB",28-06-2024 21:00:00,28.5898,77.3101,SO2,9,16,12
India,Uttar_Pradesh,Prayagraj,"Jhunsi, Prayagraj - UPPCB",28-06-2024 21:00:00,25.425602,81.917152,PM10,42,88,59
India,Uttar_Pradesh,Prayagraj,"Jhunsi, Prayagraj - UPPCB",28-06-2024 21:00:00,25.425602,81.917152,NO2,6,6,6
India,Uttar_Pradesh,Prayagraj,"Motilal Nehru NIT, Prayagraj - UPPCB",28-06-2024 21:00:00,25.494,81.863,PM10,22,40,28
India,Uttar_Pradesh,Prayagraj,"Nagar Nigam, Prayagraj - UPPCB",28-06-2024 21:00:00,25.44919916 ,81.82735986 ,PM2.5,31,210,72
India,Uttar_Pradesh,Prayagraj,"Nagar Nigam, Prayagraj - UPPCB",28-06-2024 21:00:00,25.44919916 ,81.82735986 ,PM10,33,143,56
India,Uttar_Pradesh,Prayagraj,"Nagar Nigam, Prayagraj - UPPCB",28-06-2024 21:00:00,25.44919916 ,81.82735986 ,SO2,4,101,32
India,Uttar_Pradesh,Varanasi,"Ardhali Bazar, Varanasi - UPPCB",28-06-2024 21:00:00,25.3505986,82.9083074,NO2,27,32,29
India,Uttar_Pradesh,Varanasi,"Bhelupur, Varanasi - UPPCB",28-06-2024 21:00:00,25.301778,82.996789,PM2.5,13,39,27
India,Uttar_Pradesh,Varanasi,"Bhelupur, Varanasi - UPPCB",28-06-2024 21:00:00,25.301778,82.996789,NH3,1,1,1
India,Uttar_Pradesh,Varanasi,"IESD Banaras Hindu University, Varanasi - UPPCB",28-06-2024 21:00:00,25.262326,82.995408,NO2,2,2,2
India,Uttar_Pradesh,Varanasi,"Maldahiya, Varanasi - UPPCB",28-06-2024 21:00:00,25.32393,82.99687,NO2,1,2,2
India,Uttar_Pradesh,Varanasi,"Maldahiya, Varanasi - UPPCB",28-06-2024 21:00:00,25.32393,82.99687,NH3,1,1,1
India,Uttar_Pradesh,Vrindavan,"Omex Eternity, Vrindavan - UPPCB",28-06-2024 21:00:00,27.5714090,77.6557570,PM2.5,NA,NA,NA
India,Uttar_Pradesh,Vrindavan,"Omex Eternity, Vrindavan - UPPCB",28-06-2024 21:00:00,27.5714090,77.6557570,NH3,1,1,1
India,Uttarakhand,Dehradun,"Doon University, Dehradun - UKPCB",28-06-2024 21:00:00,30.269444,78.044167,SO2,1,1,1
India,Uttarakhand,Kashipur,"Govt. Girls Inter College, Kashipur - UKPCB",28-06-2024 21:00:00,29.2124114,78.9611753,OZONE,1,25,19
India,Uttarakhand,Rishikesh,"Shivaji Nagar, Rishikesh - UKPCB",28-06-2024 21:00:00,30.075911,78.2859547,SO2,4,5,4
India,West_Bengal,Asansol,"Asansol Court Area, Asansol - WBPCB",28-06-2024 21:00:00,23.685297,86.945968,NO2,19,48,35
India,West_Bengal,Asansol,"Asansol Court Area, Asansol - WBPCB",28-06-2024 21:00:00,23.685297,86.945968,NH3,10,14,11
India,West_Bengal,Asansol,"Evelyn Lodge, Asansol - WBPCB",28-06-2024 21:00:00,23.6979360,86.9443950,SO2,3,7,4
India,West_Bengal,Asansol,"Mahabir Colliery, Asansol - WBPCB",28-06-2024 21:00:00,23.6181830,87.1057180,OZONE,1,30,22
India,West_Bengal,Durgapur,"PCBL Residential Complex, Durgapur - WBPCB",28-06-2024 21:00:00,23.5087640,87.3544400,PM2.5,9,125,42
India,West_Bengal,Durgapur,"PCBL Residential Complex, Durgapur - WBPCB",28-06-2024 21:00:00,23.5087640,87.3544400,SO2,9,11,10
India,West_Bengal,Durgapur,"PCBL Residential Complex, Durgapur - WBPCB",28-06-2024 21:00:00,23.5087640,87.3544400,OZONE,5,91,67
India,West_Bengal,Durgapur,"Sidhu Kanhu Indoor Stadium, Durgapur - WBPCB",28-06-2024 21:00:00,23.5404352,87.2892225,SO2,9,64,31
India,West_Bengal,Haldia,"Priyambada Housing Estate, Haldia - WBPCB",28-06-2024 21:00:00,22.06047,88.109737,PM2.5,20,34,25
India,West_Bengal,Howrah,"Belur Math, Howrah - WBPCB",28-06-2024 21:00:00,22.629801,88.352017,NO2,NA,NA,NA
India,West_Bengal,Howrah,"Botanical Garden, Howrah - WBPCB",28-06-2024 21:00:00,22.554954,88.292568,PM10,NA,NA,NA
India,West_Bengal,Howrah,"Botanical Garden, Howrah - WBPCB",28-06-2024 21:00:00,22.554954,88.292568,OZONE,4,25,18
India,West_Bengal,Howrah,"Ghusuri, Howrah - WBPCB",28-06-2024 21:00:00,22.611968,88.347422,CO,14,32,26
India,West_Bengal,Howrah,"Padmapukur, Howrah - WBPCB",28-06-2024 21:00:00,22.5687319,88.2797276,PM10,33,56,42
India,West_Bengal,Howrah,"Padmapukur, Howrah - WBPCB",28-06-2024 21:00:00,22.5687319,88.2797276,NO2,32,57,43
India,West_Bengal,Howrah,"Padmapukur, Howrah - WBPCB",28-06-2024 21:00:00,22.5687319,88.2797276,CO,2,54,25
India,West_Bengal,Howrah,"Padmapukur, Howrah - WBPCB",28-06-2024 21:00:00,22.5687319,88.2797276,OZONE,19,26,23
India,West_Bengal,Kolkata,"Ballygunge, Kolkata - WBPCB",28-06-2024 21:00:00,22.5367507,88.3638022,NO2,12,36,18
India,West_Bengal,Kolkata,"Fort William, Kolkata - WBPCB",28-06-2024 21:00:00,22.556640,88.342674,OZONE,18,32,24
India,West_Bengal,Kolkata,"Jadavpur, Kolkata - WBPCB",28-06-2024 21:00:00,22.49929,88.36917,NO2,13,16,14
India,West_Bengal,Kolkata,"Jadavpur, Kolkata - WBPCB",28-06-2024 21:00:00,22.49929,88.36917,SO2,4,5,4
India,West_Bengal,Kolkata,"Jadavpur, Kolkata - WBPCB",28-06-2024 21:00:00,22.49929,88.36917,OZONE,19,26,21
India,West_Bengal,Kolkata,"Rabindra Sarobar, Kolkata - WBPCB",28-06-2024 21:00:00,22.51106,88.35142,PM10,24,26,25
India,West_Bengal,Kolkata,"Rabindra Sarobar, Kolkata - WBPCB",28-06-2024 21:00:00,22.51106,88.35142,NO2,25,39,29
India,West_Bengal,Kolkata,"Rabindra Sarobar, Kolkata - WBPCB",28-06-2024 21:00:00,22.51106,88.35142,NH3,6,7,7
India,West_Bengal,Kolkata,"Victoria, Kolkata - WBPCB",28-06-2024 21:00:00,22.5448082,88.3403691,PM10,39,57,46
India,West_Bengal,Kolkata,"Victoria, Kolkata - WBPCB",28-06-2024 21:00:00,22.5448082,88.3403691,NH3,6,7,6
India,West_Bengal,Siliguri,"Ward-32 Bapupara, Siliguri - WBPCB",28-06-2024 21:00:00,26.6879226,88.4152495,PM10,19,59,34
India,West_Bengal,Siliguri,"Ward-32 Bapupara, Siliguri - WBPCB",28-06-2024 21:00:00,26.6879226,88.4152495,CO,12,30,22
India,Andhra_Pradesh,Chittoor,"Gangineni Cheruvu, Chittoor - APPCB",28-06-2024 21:00:00,13.204880,79.097889,PM2.5,48,78,57
India,Andhra_Pradesh,Kadapa,"Yerramukkapalli, Kadapa - APPCB",28-06-2024 21:00:00,14.465052,78.824187,NO2,NA,NA,NA
India,Andhra_Pradesh,Rajamahendravaram,"Anand Kala Kshetram, Rajamahendravaram - APPCB",28-06-2024 21:00:00,16.9872867,81.7363176,NO2,1,34,9
India,Andhra_Pradesh,Rajamahendravaram,"Anand Kala Kshetram, Rajamahendravaram - APPCB",28-06-2024 21:00:00,16.9872867,81.7363176,SO2,11,12,11
India,Andhra_Pradesh,Tirupati,"Tirumala, Tirupati - APPCB",28-06-2024 21:00:00,13.67,79.35,PM2.5,8,37,19
India,Andhra_Pradesh,Tirupati,"Tirumala, Tirupati - APPCB",28-06-2024 21:00:00,13.67,79.35,NO2,27,52,40
India,Andhra_Pradesh,Tirupati,"Tirumala, Tirupati - APPCB",28-06-2024 21:00:00,13.67,79.35,SO2,5,12,8
India,Andhra_Pradesh,Tirupati,"Vaikuntapuram, Tirupati - APPCB",28-06-2024 21:00:00,13.615387,79.409230,NO2,NA,NA,NA
India,Andhra_Pradesh,Tirupati,"Vaikuntapuram, Tirupati - APPCB",28-06-2024 21:00:00,13.615387,79.409230,NH3,NA,NA,NA
India,Andhra_Pradesh,Tirupati,"Vaikuntapuram, Tirupati - APPCB",28-06-2024 21:00:00,13.615387,79.409230,OZONE,6,38,32
India,Andhra_Pradesh,Vijayawada,"Rajiv Gandhi Park, Vijayawada - APPCB",28-06-2024 21:00:00,16.509717,80.612222,NH3,4,6,5
India,Andhra_Pradesh,Vijayawada,"Rajiv Nagar, Vijayawada - APPCB",28-06-2024 21:00:00,16.554731,80.649110,PM10,53,110,58
India,Andhra_Pradesh,Vijayawada,"Rajiv Nagar, Vijayawada - APPCB",28-06-2024 21:00:00,16.554731,80.649110,NO2,10,10,10
India,Andhra_Pradesh,Vijayawada,"Rajiv Nagar, Vijayawada - APPCB",28-06-2024 21:00:00,16.554731,80.649110,NH3,1,2,2
India,Andhra_Pradesh,Vijayawada,"Rajiv Nagar, Vijayawada - APPCB",28-06-2024 21:00:00,16.554731,80.649110,OZONE,15,20,18
India,Assam,Guwahati,"IITG, Guwahati - PCBA",28-06-2024 21:00:00,26.2028636,91.70046436,PM10,NA,NA,NA
India,Assam,Guwahati,"IITG, Guwahati - PCBA",28-06-2024 21:00:00,26.2028636,91.70046436,SO2,NA,NA,NA
India,Assam,Guwahati,"IITG, Guwahati - PCBA",28-06-2024 21:00:00,26.2028636,91.70046436,OZONE,NA,NA,NA
India,Assam,Guwahati,"LGBI Airport, Guwahati - PCBA",28-06-2024 21:00:00,26.10887,91.589544,OZONE,21,26,24
India,Assam,Guwahati,"Pan Bazaar, Guwahati - PCBA",28-06-2024 21:00:00,26.187500,91.744194,NO2,NA,NA,NA
India,Assam,Guwahati,"Pan Bazaar, Guwahati - PCBA",28-06-2024 21:00:00,26.187500,91.744194,CO,16,34,20
India,Assam,Guwahati,"Railway Colony, Guwahati - PCBA",28-06-2024 21:00:00,26.181742,91.78063,PM2.5,12,44,27
India,Assam,Guwahati,"Railway Colony, Guwahati - PCBA",28-06-2024 21:00:00,26.181742,91.78063,PM10,13,45,28
India,Assam,Nagaon,"Christianpatty, Nagaon - PCBA",28-06-2024 21:00:00,26.349082,92.68449,PM2.5,NA,NA,NA
India,Assam,Nalbari,"Bata Chowk, Nalbari - PCBA",28-06-2024 21:00:00,26.446912,91.439057,PM10,17,110,50
India,Assam,Nalbari,"Bata Chowk, Nalbari - PCBA",28-06-2024 21:00:00,26.446912,91.439057,NO2,13,28,23
India,Assam,Nalbari,"Bata Chowk, Nalbari - PCBA",28-06-2024 21:00:00,26.446912,91.439057,SO2,4,10,7
India,Assam,Nalbari,"Bata Chowk, Nalbari - PCBA",28-06-2024 21:00:00,26.446912,91.439057,CO,17,54,51
India,Assam,Silchar,"Tarapur, Silchar - PCBA",28-06-2024 21:00:00,24.82827,92.79525,NH3,1,1,1
India,Assam,Sivasagar,"Girls College, Sivasagar - PCBA",28-06-2024 21:00:00,26.987634,94.636574,PM10,44,61,48
India,Assam,Sivasagar,"Girls College, Sivasagar - PCBA",28-06-2024 21:00:00,26.987634,94.636574,CO,2,10,6
India,Bihar,Araria,"Kharahiya Basti, Araria - BSPCB",28-06-2024 21:00:00,26.146529,87.454184,NH3,5,7,6
India,Bihar,Araria,"Kharahiya Basti, Araria - BSPCB",28-06-2024 21:00:00,26.146529,87.454184,SO2,10,17,13
India,Bihar,Arrah,"New DM Office, Arrah - BSPCB",28-06-2024 21:00:00,25.5626095,84.663264,CO,12,30,18
India,Bihar,Aurangabad,"Gurdeo Nagar, Aurangabad - BSPCB",28-06-2024 21:00:00,24.75746,84.366208,PM2.5,NA,NA,NA
India,Bihar,Aurangabad,"Gurdeo Nagar, Aurangabad - BSPCB",28-06-2024 21:00:00,24.75746,84.366208,PM10,NA,NA,NA
India,Bihar,Aurangabad,"Gurdeo Nagar, Aurangabad - BSPCB",28-06-2024 21:00:00,24.75746,84.366208,NO2,1,11,6
India,Bihar,Aurangabad,"Gurdeo Nagar, Aurangabad - BSPCB",28-06-2024 21:00:00,24.75746,84.366208,OZONE,10,60,44
India,Bihar,Bettiah,"Kamalnath Nagar, Bettiah - BSPCB",28-06-2024 21:00:00,26.80365,84.51954,SO2,11,24,17
India,Bihar,Bhagalpur,"DM Office_Kachari Chowk, Bhagalpur - BSPCB",28-06-2024 21:00:00,25.251013,86.989001,PM2.5,10,70,43
India,Bihar,Bhagalpur,"DM Office_Kachari Chowk, Bhagalpur - BSPCB",28-06-2024 21:00:00,25.251013,86.989001,NH3,4,9,6
India,Bihar,Bhagalpur,"Mayaganj, Bhagalpur - BSPCB",28-06-2024 21:00:00,25.265194,87.012947,NO2,5,7,6
India,Bihar,Bihar Sharif,"D M Colony, Bihar Sharif - BSPCB",28-06-2024 21:00:00,25.204762,85.514960,PM10,NA,NA,NA
India,Bihar,Buxar,"Charitra Van, Buxar - BSPCB (Formerly known as Central Jail)",28-06-2024 21:00:00,25.567520,83.966379,PM10,NA,NA,NA
India,Bihar,Chhapra,"Darshan Nagar, Chhapra - BSPCB",28-06-2024 21:00:00,25.7808257,84.7446768,PM10,27,57,40
India,Bihar,Chhapra,"Darshan Nagar, Chhapra - BSPCB",28-06-2024 21:00:00,25.7808257,84.7446768,NO2,NA,NA,NA
India,Bihar,Chhapra,"Darshan Nagar, Chhapra - BSPCB",28-06-2024 21:00:00,25.7808257,84.7446768,OZONE,1,9,2
India,Bihar,Gaya,"Kareemganj, Gaya - BSPCB",28-06-2024 21:00:00,24.792403,84.992416,CO,35,62,51
India,Bihar,Gaya,"Kareemganj, Gaya - BSPCB",28-06-2024 21:00:00,24.792403,84.992416,OZONE,17,79,48
India,Bihar,Gaya,"SFTI Kusdihra, Gaya - BSPCB",28-06-2024 21:00:00,24.762518,84.982348,PM2.5,11,30,18
India,Bihar,Gaya,"SFTI Kusdihra, Gaya - BSPCB",28-06-2024 21:00:00,24.762518,84.982348,CO,20,36,24
India,Bihar,Hajipur,"Industrial Area, Hajipur - BSPCB",28-06-2024 21:00:00,25.697189,85.245900,PM2.5,37,113,67
India,Bihar,Hajipur,"Industrial Area, Hajipur - BSPCB",28-06-2024 21:00:00,25.697189,85.245900,NO2,7,19,12
India,Bihar,Katihar,"Mirchaibari, Katihar - BSPCB",28-06-2024 21:00:00,25.560083,87.553265,SO2,9,16,12
India,Bihar,Kishanganj,"SDM Office_Khagra, Kishanganj - BSPCB",28-06-2024 21:00:00,26.0881305,87.93840336,NO2,43,44,44
India,Bihar,Munger,"Town Hall, Munger - BSPCB",28-06-2024 21:00:00,25.376776,86.471523,CO,68,106,92
India,Bihar,Munger,"Town Hall, Munger - BSPCB",28-06-2024 21:00:00,25.376776,86.471523,OZONE,1,14,2
India,Bihar,Muzaffarpur,"Buddha Colony, Muzaffarpur - BSPCB",28-06-2024 21:00:00,26.11442,85.39813,PM10,53,107,66
India,Bihar,Muzaffarpur,"MIT-Daudpur Kothi, Muzaffarpur - BSPCB",28-06-2024 21:00:00,26.1403345,85.3650192,PM10,NA,NA,NA
India,Bihar,Muzaffarpur,"Muzaffarpur Collectorate, Muzaffarpur - BSPCB",28-06-2024 21:00:00,26.1209,85.3647,NO2,28,66,36
India,Bihar,Muzaffarpur,"Muzaffarpur Collectorate, Muzaffarpur - BSPCB",28-06-2024 21:00:00,26.1209,85.3647,SO2,5,8,7
India,Bihar,Muzaffarpur,"Muzaffarpur Collectorate, Muzaffarpur - BSPCB",28-06-2024 21:00:00,26.1209,85.3647,CO,21,45,40
India,Bihar,Patna,"DRM Office Danapur, Patna - BSPCB",28-06-2024 21:00:00,25.586562,85.043586,CO,12,40,23
India,Bihar,Patna,"Govt. High School Shikarpur, Patna - BSPCB",28-06-2024 21:00:00,25.592539,85.227158,NO2,33,36,34
India,Bihar,Patna,"Muradpur, Patna - BSPCB",28-06-2024 21:00:00,25.619651,85.147382,NO2,5,25,11
India,Bihar,Patna,"Muradpur, Patna - BSPCB",28-06-2024 21:00:00,25.619651,85.147382,NH3,2,4,3
India,Bihar,Patna,"Rajbansi Nagar, Patna - BSPCB",28-06-2024 21:00:00,25.599486,85.113666,NH3,4,13,7
India,Bihar,Patna,"Rajbansi Nagar, Patna - BSPCB",28-06-2024 21:00:00,25.599486,85.113666,SO2,1,12,6
India,Bihar,Patna,"Samanpura, Patna - BSPCB",28-06-2024 21:00:00,25.596727,85.085624,NH3,9,15,12
India,Bihar,Purnia,"Mariam Nagar, Purnia - BSPCB",28-06-2024 21:00:00,25.366336,87.117468,NO2,5,6,5
India,Bihar,Purnia,"Mariam Nagar, Purnia - BSPCB",28-06-2024 21:00:00,25.366336,87.117468,NH3,1,1,1
India,Bihar,Rajgir,"Dangi Tola, Rajgir - BSPCB",28-06-2024 21:00:00,25.03280,85.41948,SO2,4,4,4
India,Bihar,Rajgir,"Dangi Tola, Rajgir - BSPCB",28-06-2024 21:00:00,25.03280,85.41948,OZONE,30,38,34
India,Bihar,Saharsa,"Police Line, Saharsa - BSPCB",28-06-2024 21:00:00,25.892357,86.590325,CO,54,55,54
India,Bihar,Samastipur,"DM Office_Kasipur, Samastipur - BSPCB",28-06-2024 21:00:00,25.859655,85.77944,NH3,3,3,3
India,Bihar,Sasaram,"Dada Peer, Sasaram - BSPCB",28-06-2024 21:00:00,24.952822,84.002396,CO,52,79,59
India,Chandigarh,Chandigarh,"Sector 22, Chandigarh - CPCC",28-06-2024 21:00:00,30.735567,76.775714,NH3,5,17,9
India,Chandigarh,Chandigarh,"Sector 22, Chandigarh - CPCC",28-06-2024 21:00:00,30.735567,76.775714,SO2,4,29,13
India,Chandigarh,Chandigarh,"Sector-25, Chandigarh - CPCC",28-06-2024 21:00:00,30.751462,76.762879,NH3,12,21,14
India,Chandigarh,Chandigarh,"Sector-53, Chandigarh - CPCC",28-06-2024 21:00:00,30.719859,76.738637,PM2.5,20,72,50
India,Chandigarh,Chandigarh,"Sector-53, Chandigarh - CPCC",28-06-2024 21:00:00,30.719859,76.738637,NH3,2,27,8
India,Chandigarh,Chandigarh,"Sector-53, Chandigarh - CPCC",28-06-2024 21:00:00,30.719859,76.738637,SO2,4,26,11
India,Chhattisgarh,Bhilai,"32Bungalows, Bhilai - CECB",28-06-2024 21:00:00,21.194815,81.314770,SO2,7,10,9
India,Chhattisgarh,Bilaspur,"Mangala, Bilaspur - NTPC",28-06-2024 21:00:00,22.08815,82.13737,PM2.5,6,46,25
India,Chhattisgarh,Bilaspur,"Mangala, Bilaspur - NTPC",28-06-2024 21:00:00,22.08815,82.13737,NO2,18,24,21
India,Chhattisgarh,Chhal,"Nawapara SECL Colony, Chhal - CECB",28-06-2024 21:00:00,22.118125,83.140608,CO,14,44,27
India,Chhattisgarh,Chhal,"Nawapara SECL Colony, Chhal - CECB",28-06-2024 21:00:00,22.118125,83.140608,OZONE,4,79,59
India,Chhattisgarh,Korba,"Rampur, Korba - CECB",28-06-2024 21:00:00,22.368195,82.746431,SO2,4,9,7
India,Chhattisgarh,Korba,"Urja Nagar, Korba - CECB",28-06-2024 21:00:00,22.348441,82.549611,PM10,7,408,42
India,Chhattisgarh,Korba,"Urja Nagar, Korba - CECB",28-06-2024 21:00:00,22.348441,82.549611,NO2,28,47,34
India,Chhattisgarh,Korba,"Urja Nagar, Korba - CECB",28-06-2024 21:00:00,22.348441,82.549611,SO2,6,10,7
India,Chhattisgarh,Kunjemura,"OP Jindal School, Kunjemura - CECB",28-06-2024 21:00:00,22.126650,83.483212,CO,25,60,31
India,Chhattisgarh,Raipur,"AIIMS, Raipur - CECB",28-06-2024 21:00:00,21.258815,81.578979,PM2.5,6,24,13
India,Chhattisgarh,Raipur,"AIIMS, Raipur - CECB",28-06-2024 21:00:00,21.258815,81.578979,PM10,12,52,26
India,Chhattisgarh,Raipur,"AIIMS, Raipur - CECB",28-06-2024 21:00:00,21.258815,81.578979,CO,16,26,22
India,Chhattisgarh,Raipur,"Bhatagaon New ISBT, Raipur - CECB",28-06-2024 21:00:00,21.219665,81.630094,PM2.5,NA,NA,NA
India,Chhattisgarh,Raipur,"Bhatagaon New ISBT, Raipur - CECB",28-06-2024 21:00:00,21.219665,81.630094,PM10,NA,NA,NA
India,Chhattisgarh,Raipur,"Bhatagaon New ISBT, Raipur - CECB",28-06-2024 21:00:00,21.219665,81.630094,NO2,4,4,4
India,Chhattisgarh,Raipur,"Bhatagaon New ISBT, Raipur - CECB",28-06-2024 21:00:00,21.219665,81.630094,SO2,NA,NA,NA
India,Chhattisgarh,Raipur,"Krishak Nagar, Raipur - CECB",28-06-2024 21:00:00,21.237755,81.705301,NH3,1,1,1
India,Chhattisgarh,Raipur,"Siltara Phase-II, Raipur - CECB",28-06-2024 21:00:00,21.371751,81.664929,PM10,53,121,86
India,Chhattisgarh,Raipur,"Siltara Phase-II, Raipur - CECB",28-06-2024 21:00:00,21.371751,81.664929,NH3,3,3,3
India,Chhattisgarh,Tumidih,"OP Jindal Industrial Park, Tumidih - CECB",28-06-2024 21:00:00,22.06631475,83.33820077,PM2.5,4,322,49
India,Chhattisgarh,Tumidih,"OP Jindal Industrial Park, Tumidih - CECB",28-06-2024 21:00:00,22.06631475,83.33820077,NO2,9,55,30
India,Chhattisgarh,Tumidih,"OP Jindal Industrial Park, Tumidih - CECB",28-06-2024 21:00:00,22.06631475,83.33820077,OZONE,4,35,26
India,Delhi,Delhi,"Ashok Vihar, Delhi - DPCC",28-06-2024 21:00:00,28.695381,77.181665,PM10,10,90,54
India,Delhi,Delhi,"Aya Nagar, Delhi - IMD",28-06-2024 21:00:00,28.4706914,77.1099364,PM10,2,85,42
India,Delhi,Delhi,"Bawana, Delhi - DPCC",28-06-2024 21:00:00,28.776200,77.051074,NH3,9,16,12
India,Delhi,Delhi,"Burari Crossing, Delhi - IMD",28-06-2024 21:00:00,28.7256504,77.2011573,PM10,5,138,53
India,Delhi,Delhi,"DTU, Delhi - CPCB",28-06-2024 21:00:00,28.7500499,77.1112615,PM10,NA,NA,NA
India,Delhi,Delhi,"DTU, Delhi - CPCB",28-06-2024 21:00:00,28.7500499,77.1112615,SO2,41,80,46
India,Delhi,Delhi,"DTU, Delhi - CPCB",28-06-2024 21:00:00,28.7500499,77.1112615,CO,4,82,52
India,Delhi,Delhi,"IHBAS, Dilshad Garden, Delhi - CPCB",28-06-2024 21:00:00,28.6811736,77.3025234,NO2,22,68,42
India,Delhi,Delhi,"ITO, Delhi - CPCB",28-06-2024 21:00:00,28.628624,77.241060,NO2,2,19,11
India,Delhi,Delhi,"ITO, Delhi - CPCB",28-06-2024 21:00:00,28.628624,77.241060,OZONE,18,29,21
India,Delhi,Delhi,"Jawaharlal Nehru Stadium, Delhi - DPCC",28-06-2024 21:00:00,28.580280,77.233829,PM2.5,23,73,41
India,Delhi,Delhi,"Lodhi Road, Delhi - IMD",28-06-2024 21:00:00,28.5918245,77.2273074,OZONE,5,61,48
India,Delhi,Delhi,"Major Dhyan Chand National Stadium, Delhi - DPCC",28-06-2024 21:00:00,28.611281,77.237738,NH3,8,15,11
India,Delhi,Delhi,"Mandir Marg, Delhi - DPCC",28-06-2024 21:00:00,28.636429,77.201067,OZONE,NA,NA,NA
India,Delhi,Delhi,"NSIT Dwarka, Delhi - CPCB",28-06-2024 21:00:00,28.60909,77.0325413,CO,22,68,40
India,Delhi,Delhi,"Najafgarh, Delhi - DPCC",28-06-2024 21:00:00,28.570173,76.933762,NO2,6,23,13
India,Delhi,Delhi,"Najafgarh, Delhi - DPCC",28-06-2024 21:00:00,28.570173,76.933762,NH3,8,26,14
India,Delhi,Delhi,"Najafgarh, Delhi - DPCC",28-06-2024 21:00:00,28.570173,76.933762,CO,44,100,60
India,Delhi,Delhi,"Nehru Nagar, Delhi - DPCC",28-06-2024 21:00:00,28.567890,77.250515,NO2,4,46,19
India,Delhi,Delhi,"Nehru Nagar, Delhi - DPCC",28-06-2024 21:00:00,28.567890,77.250515,OZONE,1,54,27
India,Delhi,Delhi,"New Moti Bagh, Delhi - MHUA",28-06-2024 21:00:00,28.57834,77.18400,PM2.5,NA,NA,NA
India,Delhi,Delhi,"North Campus, DU, Delhi - IMD",28-06-2024 21:00:00,28.6573814,77.1585447,PM2.5,NA,NA,NA
India,Delhi,Delhi,"Okhla Phase-2, Delhi - DPCC",28-06-2024 21:00:00,28.530785,77.271255,NO2,10,74,31
India,Delhi,Delhi,"Patparganj, Delhi - DPCC",28-06-2024 21:00:00,28.623763,77.287209,PM2.5,5,70,30
India,Delhi,Delhi,"Patparganj, Delhi - DPCC",28-06-2024 21:00:00,28.623763,77.287209,PM10,13,107,60
India,Delhi,Delhi,"Patparganj, Delhi - DPCC",28-06-2024 21:00:00,28.623763,77.287209,NH3,6,9,7
India,Delhi,Delhi,"Patparganj, Delhi - DPCC",28-06-2024 21:00:00,28.623763,77.287209,OZONE,1,97,26
India,Delhi,Delhi,"Punjabi Bagh, Delhi - DPCC",28-06-2024 21:00:00,28.674045,77.131023,PM2.5,8,207,71
India,Delhi,Delhi,"Punjabi Bagh, Delhi - DPCC",28-06-2024 21:00:00,28.674045,77.131023,NH3,3,7,5
India,Delhi,Delhi,"Pusa, Delhi - DPCC",28-06-2024 21:00:00,28.639652,77.146275,NO2,26,99,52
India,Delhi,Delhi,"Pusa, Delhi - DPCC",28-06-2024 21:00:00,28.639652,77.146275,SO2,1,4,2
India,Delhi,Delhi,"Pusa, Delhi - DPCC",28-06-2024 21:00:00,28.639652,77.146275,OZONE,5,15,11
India,Delhi,Delhi,"Pusa, Delhi - IMD",28-06-2024 21:00:00,28.636110,77.173332,PM10,2,135,60
India,Delhi,Delhi,"Pusa, Delhi - IMD",28-06-2024 21:00:00,28.636110,77.173332,NO2,12,29,18
India,Delhi,Delhi,"R K Puram, Delhi - DPCC",28-06-2024 21:00:00,28.563262,77.186937,SO2,NA,NA,NA
India,Delhi,Delhi,"Shadipur, Delhi - CPCB",28-06-2024 21:00:00,28.6514781,77.1473105,NH3,9,12,10
India,Delhi,Delhi,"Sirifort, Delhi - CPCB",28-06-2024 21:00:00,28.5504249,77.2159377,SO2,48,56,50
India,Delhi,Delhi,"Sirifort, Delhi - CPCB",28-06-2024 21:00:00,28.5504249,77.2159377,OZONE,5,27,6
India,Delhi,Delhi,"Sonia Vihar, Delhi - DPCC",28-06-2024 21:00:00,28.710508,77.249485,NH3,7,27,15
India,Delhi,Delhi,"Sri Aurobindo Marg, Delhi - DPCC",28-06-2024 21:00:00,28.531346,77.190156,PM10,13,115,62
India,Delhi,Delhi,"Sri Aurobindo Marg, Delhi - DPCC",28-06-2024 21:00:00,28.531346,77.190156,NO2,8,51,25
India,Delhi,Delhi,"Sri Aurobindo Marg, Delhi - DPCC",28-06-2024 21:00:00,28.531346,77.190156,SO2,7,13,10
India,Delhi,Delhi,"Sri Aurobindo Marg, Delhi - DPCC",28-06-2024 21:00:00,28.531346,77.190156,CO,44,78,52
India,Delhi,Delhi,"Sri Aurobindo Marg, Delhi - DPCC",28-06-2024 21:00:00,28.531346,77.190156,OZONE,2,51,22
India,Delhi,Delhi,"Vivek Vihar, Delhi - DPCC",28-06-2024 21:00:00,28.672342,77.315260,NH3,11,17,16
India,Delhi,Delhi,"Vivek Vihar, Delhi - DPCC",28-06-2024 21:00:00,28.672342,77.315260,SO2,5,17,11
India,Delhi,Delhi,"Wazirpur, Delhi - DPCC",28-06-2024 21:00:00,28.699793,77.165453,NH3,2,10,9
India,Gujarat,Ahmedabad,"Chandkheda, Ahmedabad - IITM",28-06-2024 21:00:00,23.107969,72.574648,PM10,14,51,31
India,Gujarat,Ahmedabad,"Chandkheda, Ahmedabad - IITM",28-06-2024 21:00:00,23.107969,72.574648,NO2,58,147,108
India,Gujarat,Ahmedabad,"Gyaspur, Ahmedabad - IITM",28-06-2024 21:00:00,22.977134,72.553024,PM2.5,85,142,104
India,Gujarat,Ahmedabad,"Gyaspur, Ahmedabad - IITM",28-06-2024 21:00:00,22.977134,72.553024,OZONE,17,31,25
India,Gujarat,Ahmedabad,"Maninagar, Ahmedabad - GPCB",28-06-2024 21:00:00,23.002657,72.591912,PM2.5,8,61,33
India,Gujarat,Ahmedabad,"Maninagar, Ahmedabad - GPCB",28-06-2024 21:00:00,23.002657,72.591912,PM10,27,80,52
India,Gujarat,Ahmedabad,"Rakhial, Ahmedabad - IITM",28-06-2024 21:00:00,23.016834,72.625775,PM2.5,NA,NA,NA
India,Gujarat,Ahmedabad,"Sardar Vallabhbhai Patel Stadium, Ahmedabad - IITM",28-06-2024 21:00:00,23.043070,72.562968,PM2.5,17,71,38
India,Gujarat,Ahmedabad,"Sardar Vallabhbhai Patel Stadium, Ahmedabad - IITM",28-06-2024 21:00:00,23.043070,72.562968,SO2,16,17,16
India,Gujarat,Ahmedabad,"Sardar Vallabhbhai Patel Stadium, Ahmedabad - IITM",28-06-2024 21:00:00,23.043070,72.562968,CO,56,74,65
India,Gujarat,Ankleshwar,"GIDC, Ankleshwar - GPCB",28-06-2024 21:00:00,21.613267,73.010555,CO,34,65,58
India,Gujarat,Gandhinagar,"GIFT City, Gandhinagar - IITM",28-06-2024 21:00:00,23.163798,72.677768,PM2.5,18,51,30
India,Gujarat,Gandhinagar,"GIFT City, Gandhinagar - IITM",28-06-2024 21:00:00,23.163798,72.677768,SO2,4,17,8
India,Gujarat,Gandhinagar,"Sector-10, Gandhinagar - GPCB",28-06-2024 21:00:00,23.221714,72.654328,PM2.5,20,45,31
India,Gujarat,Gandhinagar,"Sector-10, Gandhinagar - GPCB",28-06-2024 21:00:00,23.221714,72.654328,CO,28,40,32
India,Gujarat,Surat,"Science Center, Surat - SMC",28-06-2024 21:00:00,21.170046,72.795405,NO2,24,31,27
India,Gujarat,Vapi,"Phase-1 GIDC, Vapi - GPCB",28-06-2024 21:00:00,20.362421,72.918013,NO2,6,7,6
India,Gujarat,Vapi,"Phase-1 GIDC, Vapi - GPCB",28-06-2024 21:00:00,20.362421,72.918013,SO2,45,50,48
India,Gujarat,Vatva,"Phase-4 GIDC, Vatva - GPCB",28-06-2024 21:00:00,22.969611,72.643500,PM2.5,1,22,7
India,Gujarat,Vatva,"Phase-4 GIDC, Vatva - GPCB",28-06-2024 21:00:00,22.969611,72.643500,NO2,27,120,49
India,Haryana,Ambala,"Patti Mehar, Ambala - HSPCB",28-06-2024 21:00:00,30.379589,76.778328,PM10,NA,NA,NA
India,Haryana,Bahadurgarh,"Arya Nagar, Bahadurgarh - HSPCB",28-06-2024 21:00:00,28.6701,76.9254,NH3,8,9,9
India,Haryana,Bhiwani,"H.B. Colony, Bhiwani - HSPCB",28-06-2024 21:00:00,28.806223,76.141105,OZONE,22,33,30
India,Haryana,Charkhi Dadri,"Mini Secretariat, Charkhi Dadri - HSPCB",28-06-2024 21:00:00,28.593883,76.270653,PM10,14,498,133
India,Haryana,Charkhi Dadri,"Mini Secretariat, Charkhi Dadri - HSPCB",28-06-2024 21:00:00,28.593883,76.270653,OZONE,12,18,16
India,Haryana,Faridabad,"Sector- 16A, Faridabad - HSPCB",28-06-2024 21:00:00,28.4088421,77.3099081,PM2.5,23,118,62
India,Haryana,Gurugram,"NISE Gwal Pahari, Gurugram - IMD",28-06-2024 21:00:00,28.422681,77.148944,PM2.5,NA,NA,NA
India,Haryana,Gurugram,"Teri Gram, Gurugram - HSPCB",28-06-2024 21:00:00,28.4275,77.1465,NH3,22,37,26
India,Haryana,Gurugram,"Teri Gram, Gurugram - HSPCB",28-06-2024 21:00:00,28.4275,77.1465,SO2,3,5,4
India,Haryana,Gurugram,"Teri Gram, Gurugram - HSPCB",28-06-2024 21:00:00,28.4275,77.1465,OZONE,13,37,29
India,Haryana,Gurugram,"Vikas Sadan, Gurugram - HSPCB",28-06-2024 21:00:00,28.4501238,77.0263051,OZONE,8,68,50
India,Haryana,Hisar,"Urban Estate-II, Hisar - HSPCB",28-06-2024 21:00:00,29.140560,75.744941,PM10,48,72,59
India,Haryana,Hisar,"Urban Estate-II, Hisar - HSPCB",28-06-2024 21:00:00,29.140560,75.744941,NO2,9,11,10
India,Haryana,Hisar,"Urban Estate-II, Hisar - HSPCB",28-06-2024 21:00:00,29.140560,75.744941,NH3,4,4,4
India,Haryana,Jind,"Police Lines, Jind - HSPCB",28-06-2024 21:00:00,29.307814,76.337619,OZONE,41,150,150
India,Haryana,Kaithal,"Rishi Nagar, Kaithal - HSPCB",28-06-2024 21:00:00,29.8006,76.4155,PM2.5,26,56,38
India,Haryana,Kaithal,"Rishi Nagar, Kaithal - HSPCB",28-06-2024 21:00:00,29.8006,76.4155,NO2,24,27,25
India,Haryana,Karnal,"Sector-12, Karnal - HSPCB",28-06-2024 21:00:00,29.695300,77.002700,NH3,10,13,11
India,Haryana,Kurukshetra,"Sector-7, Kurukshetra - HSPCB",28-06-2024 21:00:00,29.966942,76.875879,NH3,6,6,6
India,Haryana,Kurukshetra,"Sector-7, Kurukshetra - HSPCB",28-06-2024 21:00:00,29.966942,76.875879,OZONE,95,129,112
India,Haryana,Mandikhera,"General Hospital, Mandikhera - HSPCB",28-06-2024 21:00:00,27.9002,76.9938,PM10,NA,NA,NA
India,Haryana,Manesar,"Sector-2 IMT, Manesar - HSPCB",28-06-2024 21:00:00,28.360699,76.936090,NH3,1,3,2
India,Haryana,Manesar,"Sector-2 IMT, Manesar - HSPCB",28-06-2024 21:00:00,28.360699,76.936090,CO,2,108,18
India,Haryana,Narnaul,"Shastri Nagar, Narnaul - HSPCB",28-06-2024 21:00:00,28.060249,76.113115,PM2.5,30,152,63
India,Haryana,Narnaul,"Shastri Nagar, Narnaul - HSPCB",28-06-2024 21:00:00,28.060249,76.113115,SO2,47,52,47
India,Haryana,Narnaul,"Shastri Nagar, Narnaul - HSPCB",28-06-2024 21:00:00,28.060249,76.113115,CO,14,59,30
India,Haryana,Palwal,"Shyam Nagar, Palwal - HSPCB",28-06-2024 21:00:00,28.1485564,77.3320667,SO2,NA,NA,NA
India,Haryana,Palwal,"Shyam Nagar, Palwal - HSPCB",28-06-2024 21:00:00,28.1485564,77.3320667,CO,18,32,23
India,Haryana,Panchkula,"Sector-6, Panchkula - HSPCB ",28-06-2024 21:00:00,30.7057778,76.8531805555555,NO2,9,11,10
India,Haryana,Panipat,"Sector-18, Panipat - HSPCB",28-06-2024 21:00:00,29.432304,76.972765,PM2.5,97,99,98
India,Haryana,Panipat,"Sector-18, Panipat - HSPCB",28-06-2024 21:00:00,29.432304,76.972765,SO2,18,19,19
India,Haryana,Panipat,"Sector-18, Panipat - HSPCB",28-06-2024 21:00:00,29.432304,76.972765,CO,24,26,25
India,Haryana,Rohtak,"MD University, Rohtak - HSPCB",28-06-2024 21:00:00,28.52123,76.37138,NO2,48,65,52
India,Haryana,Rohtak,"MD University, Rohtak - HSPCB",28-06-2024 21:00:00,28.52123,76.37138,SO2,6,8,7
India,Haryana,Rohtak,"MD University, Rohtak - HSPCB",28-06-2024 21:00:00,28.52123,76.37138,OZONE,45,54,49
India,Haryana,Sirsa,"F-Block, Sirsa - HSPCB",28-06-2024 21:00:00,29.536400,75.015800,CO,50,101,89
India,Haryana,Sonipat,"Murthal, Sonipat - HSPCB",28-06-2024 21:00:00,29.027200,77.062100,NH3,7,10,9
India,Haryana,Yamuna Nagar,"Gobind Pura, Yamuna Nagar - HSPCB",28-06-2024 21:00:00,30.1480566,77.2893471,PM10,48,99,67
India,Haryana,Yamuna Nagar,"Gobind Pura, Yamuna Nagar - HSPCB",28-06-2024 21:00:00,30.1480566,77.2893471,NO2,11,21,16
India,Haryana,Yamuna Nagar,"Gobind Pura, Yamuna Nagar - HSPCB",28-06-2024 21:00:00,30.1480566,77.2893471,CO,30,60,39
India,Himachal Pradesh,Baddi,"HIMUDA Complex Phase-1, Baddi - HPPCB",28-06-2024 21:00:00,30.943887,76.801991,PM10,13,219,91
India,Himachal Pradesh,Baddi,"HIMUDA Complex Phase-1, Baddi - HPPCB",28-06-2024 21:00:00,30.943887,76.801991,NH3,8,14,10
India,Jammu_and_Kashmir,Srinagar,"Rajbagh, Srinagar - JKSPCB",28-06-2024 21:00:00,34.066206,74.819820,NH3,NA,NA,NA
India,Jharkhand,Dhanbad,"Kalakusuma, Dhanbad - DMC",28-06-2024 21:00:00,23.811548,86.481238,NO2,142,143,143
India,Jharkhand,Dhanbad,"Kalakusuma, Dhanbad - DMC",28-06-2024 21:00:00,23.811548,86.481238,SO2,9,10,9
India,Jharkhand,Pathardih,"Mohalbani Ghat, Pathardih - DMC",28-06-2024 21:00:00,23.669880,86.411725,SO2,NA,NA,NA
India,Karnataka,Bagalkot,"Vidayagiri, Bagalkot - KSPCB",28-06-2024 21:00:00,16.172806,75.659694,OZONE,5,18,18
India,Karnataka,Belgaum,"Ramteerth Nagar, Belgaum - KSPCB",28-06-2024 21:00:00,15.888653,74.541751,SO2,9,9,9
India,Karnataka,Belgaum,"Ramteerth Nagar, Belgaum - KSPCB",28-06-2024 21:00:00,15.888653,74.541751,CO,42,57,50
India,Karnataka,Bengaluru,"Hebbal, Bengaluru - KSPCB",28-06-2024 21:00:00,13.029152,77.585901,NH3,1,1,1
India,Karnataka,Bengaluru,"Hebbal, Bengaluru - KSPCB",28-06-2024 21:00:00,13.029152,77.585901,SO2,21,27,24
India,Karnataka,Bengaluru,"Hebbal, Bengaluru - KSPCB",28-06-2024 21:00:00,13.029152,77.585901,CO,12,32,18
India,Karnataka,Bengaluru,"Hombegowda Nagar, Bengaluru - KSPCB",28-06-2024 21:00:00,12.938539,77.590100,PM2.5,11,23,17
India,Karnataka,Bengaluru,"Jayanagar 5th Block, Bengaluru - KSPCB",28-06-2024 21:00:00,12.920984,77.584908,SO2,NA,NA,NA
India,Karnataka,Bengaluru,"Jayanagar 5th Block, Bengaluru - KSPCB",28-06-2024 21:00:00,12.920984,77.584908,CO,6,31,20
India,Karnataka,Bengaluru,"Jayanagar 5th Block, Bengaluru - KSPCB",28-06-2024 21:00:00,12.920984,77.584908,OZONE,4,19,12
India,Karnataka,Bengaluru,"Peenya, Bengaluru - CPCB",28-06-2024 21:00:00,13.0270199,77.494094,NH3,3,5,3
India,Karnataka,Bengaluru,"Peenya, Bengaluru - CPCB",28-06-2024 21:00:00,13.0270199,77.494094,CO,70,104,87
India,Karnataka,Bengaluru,"RVCE-Mailasandra, Bengaluru - KSPCB",28-06-2024 21:00:00,12.921418,77.502466,PM2.5,68,145,104
India,Karnataka,Bengaluru,"RVCE-Mailasandra, Bengaluru - KSPCB",28-06-2024 21:00:00,12.921418,77.502466,CO,34,48,43
India,Karnataka,Bengaluru,"Sanegurava Halli, Bengaluru - KSPCB",28-06-2024 21:00:00,12.990328,77.5431385,NO2,21,34,23
India,Karnataka,Bengaluru,"Shivapura_Peenya, Bengaluru - KSPCB",28-06-2024 21:00:00,13.0246342,77.5080115,PM2.5,27,95,43
India,Karnataka,Bengaluru,"Shivapura_Peenya, Bengaluru - KSPCB",28-06-2024 21:00:00,13.0246342,77.5080115,NH3,4,4,4
India,Karnataka,Bengaluru,"Shivapura_Peenya, Bengaluru - KSPCB",28-06-2024 21:00:00,13.0246342,77.5080115,CO,14,29,20
India,Karnataka,Bengaluru,"Silk Board, Bengaluru - KSPCB",28-06-2024 21:00:00,12.917348,77.622813,PM2.5,3,44,21
India,Karnataka,Bidar,"Naubad, Bidar - KSPCB",28-06-2024 21:00:00,17.930306,77.482194,SO2,10,12,11
India,Karnataka,Chamarajanagar,"Urban, Chamarajanagar - KSPCB",28-06-2024 21:00:00,11.55358,76.55521,SO2,2,8,4
India,Karnataka,Chamarajanagar,"Urban, Chamarajanagar - KSPCB",28-06-2024 21:00:00,11.55358,76.55521,OZONE,25,39,32
India,Karnataka,Davanagere,"Devaraj Urs Badavane, Davanagere - KSPCB",28-06-2024 21:00:00,14.475800,75.905200,SO2,4,7,5
India,Karnataka,Dharwad,"Kalabhavan, Dharwad - KSPCB",28-06-2024 21:00:00,15.459706,75.008381,PM2.5,9,69,36
India,Karnataka,Dharwad,"Kalabhavan, Dharwad - KSPCB",28-06-2024 21:00:00,15.459706,75.008381,PM10,14,98,54
India,Karnataka,Gadag,"Panchal Nagar, Gadag - KSPCB",28-06-2024 21:00:00,15.411456,75.638133,SO2,8,22,14
India,Karnataka,Gadag,"Panchal Nagar, Gadag - KSPCB",28-06-2024 21:00:00,15.411456,75.638133,CO,39,50,48
India,Karnataka,Haveri,"Ashwini Nagar, Haveri - KSPCB",28-06-2024 21:00:00,14.791800,75.389600,PM2.5,13,30,21
India,Karnataka,Hubballi,"Lingaraj Nagar, Hubballi - KSPCB",28-06-2024 21:00:00,15.3714823,75.1160168,NH3,2,4,3
India,Karnataka,Hubballi,"Lingaraj Nagar, Hubballi - KSPCB",28-06-2024 21:00:00,15.3714823,75.1160168,OZONE,10,24,16
India,Karnataka,Kalaburagi,"Mahatma Basaveswar Colony, Kalaburgi - KSPCB",28-06-2024 21:00:00,17.336318,76.847397,SO2,3,5,4
India,Karnataka,Kalaburagi,"Mahatma Basaveswar Colony, Kalaburgi - KSPCB",28-06-2024 21:00:00,17.336318,76.847397,CO,30,40,36
India,Karnataka,Karwar,"KHB Colony, Karwar - KSPCB",28-06-2024 21:00:00,14.816666,74.141003,NH3,1,13,2
India,Karnataka,Karwar,"KHB Colony, Karwar - KSPCB",28-06-2024 21:00:00,14.816666,74.141003,SO2,19,21,20
India,Karnataka,Karwar,"KHB Colony, Karwar - KSPCB",28-06-2024 21:00:00,14.816666,74.141003,CO,8,8,8
India,Karnataka,Kolar,"Tamaka Ind. Area, Kolar - KSPCB",28-06-2024 21:00:00,13.1276288,78.1570122,PM10,NA,NA,NA
India,Karnataka,Koppal,"Diwator Nagar, Koppal - KSPCB",28-06-2024 21:00:00,15.347630,76.181767,PM2.5,1,17,9
