country,state,city,station,last_update,latitude,longitude,pollutant_id,pollutant_min,pollutant_max,pollutant_avg
India,Andhra_Pradesh,Amaravati,"Secretariat, Amaravati - APPCB",06-06-2024 02:00:00,16.5150833,80.5181667,NH3,3,4,4
India,Andhra_Pradesh,Amaravati,"Secretariat, Amaravati - APPCB",06-06-2024 02:00:00,16.5150833,80.5181667,OZONE,17,50,27
India,Andhra_Pradesh,Rajamahendravaram,"Anand Kala Kshetram, Rajamahendravaram - APPCB",06-06-2024 02:00:00,16.9872867,81.7363176,NO2,8,55,17
India,Andhra_Pradesh,Rajamahendravaram,"Anand Kala Kshetram, Rajamahendravaram - APPCB",06-06-2024 02:00:00,16.9872867,81.7363176,SO2,11,12,11
India,Andhra_Pradesh,Tirupati,"Tirumala, Tirupati - APPCB",06-06-2024 02:00:00,13.67,79.35,NO2,16,29,22
India,Andhra_Pradesh,Tirupati,"Tirumala, Tirupati - APPCB",06-06-2024 02:00:00,13.67,79.35,OZONE,17,37,30
India,Andhra_Pradesh,Vijayawada,"HB Colony, Vijayawada - APPCB",06-06-2024 02:00:00,16.536107,80.594233,OZONE,15,43,27
India,Andhra_Pradesh,Vijayawada,"Kanuru, Vijayawada - APPCB",06-06-2024 02:00:00,16.486692,80.699436,PM2.5,43,59,48
India,Andhra_Pradesh,Vijayawada,"Kanuru, Vijayawada - APPCB",06-06-2024 02:00:00,16.486692,80.699436,NO2,14,19,15
India,Andhra_Pradesh,Vijayawada,"Rajiv Gandhi Park, Vijayawada - APPCB",06-06-2024 02:00:00,16.509717,80.612222,NO2,23,51,33
India,Andhra_Pradesh,Vijayawada,"Rajiv Nagar, Vijayawada - APPCB",06-06-2024 02:00:00,16.554731,80.649110,NH3,2,2,2
India,Andhra_Pradesh,Visakhapatnam,"GVM Corporation, Visakhapatnam - APPCB",06-06-2024 02:00:00,17.72,83.3,NH3,2,4,3
India,Arunachal_Pradesh,Naharlagun,"Naharlagun, Naharlagun - APSPCB",06-06-2024 02:00:00,27.103358,93.679645,PM10,NA,NA,NA
India,Arunachal_Pradesh,Naharlagun,"Naharlagun, Naharlagun - APSPCB",06-06-2024 02:00:00,27.103358,93.679645,SO2,NA,NA,NA
India,Assam,Guwahati,"IITG, Guwahati - PCBA",06-06-2024 02:00:00,26.2028636,91.70046436,PM2.5,3,48,22
India,Assam,Guwahati,"LGBI Airport, Guwahati - PCBA",06-06-2024 02:00:00,26.10887,91.589544,PM10,7,477,82
India,Assam,Guwahati,"Railway Colony, Guwahati - PCBA",06-06-2024 02:00:00,26.181742,91.78063,CO,22,101,70
India,Assam,Guwahati,"Railway Colony, Guwahati - PCBA",06-06-2024 02:00:00,26.181742,91.78063,OZONE,1,13,6
India,Assam,Nagaon,"Christianpatty, Nagaon - PCBA",06-06-2024 02:00:00,26.349082,92.68449,CO,17,102,79
India,Assam,Nalbari,"Bata Chowk, Nalbari - PCBA",06-06-2024 02:00:00,26.446912,91.439057,PM10,8,173,63
India,Assam,Nalbari,"Bata Chowk, Nalbari - PCBA",06-06-2024 02:00:00,26.446912,91.439057,CO,23,43,34
India,Assam,Silchar,"Tarapur, Silchar - PCBA",06-06-2024 02:00:00,24.82827,92.79525,PM2.5,28,43,35
India,Assam,Silchar,"Tarapur, Silchar - PCBA",06-06-2024 02:00:00,24.82827,92.79525,NH3,1,1,1
India,Assam,Silchar,"Tarapur, Silchar - PCBA",06-06-2024 02:00:00,24.82827,92.79525,CO,31,49,40
India,Assam,Sivasagar,"Girls College, Sivasagar - PCBA",06-06-2024 02:00:00,26.987634,94.636574,NO2,11,15,13
India,Bihar,Araria,"Kharahiya Basti, Araria - BSPCB",06-06-2024 02:00:00,26.146529,87.454184,PM10,NA,NA,NA
India,Bihar,Arrah,"New DM Office, Arrah - BSPCB",06-06-2024 02:00:00,25.5626095,84.663264,SO2,2,11,6
India,Bihar,Bettiah,"Kamalnath Nagar, Bettiah - BSPCB",06-06-2024 02:00:00,26.80365,84.51954,PM2.5,NA,NA,NA
India,Bihar,Bettiah,"Kamalnath Nagar, Bettiah - BSPCB",06-06-2024 02:00:00,26.80365,84.51954,NO2,26,34,30
India,Bihar,Bettiah,"Kamalnath Nagar, Bettiah - BSPCB",06-06-2024 02:00:00,26.80365,84.51954,NH3,30,71,46
India,Bihar,Bettiah,"Kamalnath Nagar, Bettiah - BSPCB",06-06-2024 02:00:00,26.80365,84.51954,SO2,12,23,17
India,Bihar,Bhagalpur,"Mayaganj, Bhagalpur - BSPCB",06-06-2024 02:00:00,25.265194,87.012947,PM2.5,67,193,126
India,Bihar,Bhagalpur,"Mayaganj, Bhagalpur - BSPCB",06-06-2024 02:00:00,25.265194,87.012947,NO2,3,12,7
India,Bihar,Bhagalpur,"Mayaganj, Bhagalpur - BSPCB",06-06-2024 02:00:00,25.265194,87.012947,CO,22,39,32
India,Bihar,Bihar Sharif,"D M Colony, Bihar Sharif - BSPCB",06-06-2024 02:00:00,25.204762,85.514960,PM10,24,141,85
India,Bihar,Bihar Sharif,"D M Colony, Bihar Sharif - BSPCB",06-06-2024 02:00:00,25.204762,85.514960,SO2,NA,NA,NA
India,Bihar,Chhapra,"Darshan Nagar, Chhapra - BSPCB",06-06-2024 02:00:00,25.7808257,84.7446768,PM2.5,28,68,54
India,Bihar,Chhapra,"Darshan Nagar, Chhapra - BSPCB",06-06-2024 02:00:00,25.7808257,84.7446768,CO,20,42,34
India,Bihar,Gaya,"Collectorate, Gaya - BSPCB",06-06-2024 02:00:00,24.7955,84.9994,CO,112,129,120
India,Bihar,Gaya,"SFTI Kusdihra, Gaya - BSPCB",06-06-2024 02:00:00,24.762518,84.982348,NH3,1,11,6
India,Bihar,Gaya,"SFTI Kusdihra, Gaya - BSPCB",06-06-2024 02:00:00,24.762518,84.982348,CO,20,56,31
India,Bihar,Hajipur,"Industrial Area, Hajipur - BSPCB",06-06-2024 02:00:00,25.697189,85.245900,NO2,14,40,24
India,Bihar,Katihar,"Mirchaibari, Katihar - BSPCB",06-06-2024 02:00:00,25.560083,87.553265,PM2.5,27,68,43
India,Bihar,Kishanganj,"SDM Office_Khagra, Kishanganj - BSPCB",06-06-2024 02:00:00,26.0881305,87.93840336,SO2,3,10,6
India,Bihar,Manguraha,"Forest Rest House, Manguraha - BSPCB",06-06-2024 02:00:00,27.308328,84.531742,NO2,NA,NA,NA
India,Bihar,Manguraha,"Forest Rest House, Manguraha - BSPCB",06-06-2024 02:00:00,27.308328,84.531742,NH3,NA,NA,NA
India,Bihar,Motihari,"Gandak Colony, Motihari - BSPCB",06-06-2024 02:00:00,26.63086,84.90051,PM10,26,95,58
India,Bihar,Motihari,"Gandak Colony, Motihari - BSPCB",06-06-2024 02:00:00,26.63086,84.90051,CO,4,44,34
India,Bihar,Motihari,"Gandak Colony, Motihari - BSPCB",06-06-2024 02:00:00,26.63086,84.90051,OZONE,27,61,42
India,Bihar,Munger,"Town Hall, Munger - BSPCB",06-06-2024 02:00:00,25.376776,86.471523,SO2,1,34,18
India,Bihar,Muzaffarpur,"Buddha Colony, Muzaffarpur - BSPCB",06-06-2024 02:00:00,26.11442,85.39813,PM10,55,119,85
India,Bihar,Muzaffarpur,"Buddha Colony, Muzaffarpur - BSPCB",06-06-2024 02:00:00,26.11442,85.39813,NO2,12,29,16
India,Bihar,Muzaffarpur,"Buddha Colony, Muzaffarpur - BSPCB",06-06-2024 02:00:00,26.11442,85.39813,NH3,4,9,6
India,Bihar,Muzaffarpur,"Buddha Colony, Muzaffarpur - BSPCB",06-06-2024 02:00:00,26.11442,85.39813,CO,14,32,21
India,Bihar,Muzaffarpur,"MIT-Daudpur Kothi, Muzaffarpur - BSPCB",06-06-2024 02:00:00,26.1403345,85.3650192,PM10,NA,NA,NA
India,Bihar,Muzaffarpur,"MIT-Daudpur Kothi, Muzaffarpur - BSPCB",06-06-2024 02:00:00,26.1403345,85.3650192,OZONE,6,26,16
India,Bihar,Muzaffarpur,"Muzaffarpur Collectorate, Muzaffarpur - BSPCB",06-06-2024 02:00:00,26.1209,85.3647,NO2,33,37,34
India,Bihar,Patna,"DRM Office Danapur, Patna - BSPCB",06-06-2024 02:00:00,25.586562,85.043586,PM2.5,44,178,101
India,Bihar,Patna,"DRM Office Danapur, Patna - BSPCB",06-06-2024 02:00:00,25.586562,85.043586,NH3,2,3,3
India,Bihar,Patna,"Govt. High School Shikarpur, Patna - BSPCB",06-06-2024 02:00:00,25.592539,85.227158,CO,38,52,44
India,Bihar,Patna,"IGSC Planetarium Complex, Patna - BSPCB",06-06-2024 02:00:00,25.610369,85.132568,OZONE,22,58,44
India,Bihar,Patna,"Muradpur, Patna - BSPCB",06-06-2024 02:00:00,25.619651,85.147382,OZONE,5,62,14
India,Bihar,Patna,"Rajbansi Nagar, Patna - BSPCB",06-06-2024 02:00:00,25.599486,85.113666,CO,22,40,30
India,Bihar,Patna,"Rajbansi Nagar, Patna - BSPCB",06-06-2024 02:00:00,25.599486,85.113666,OZONE,22,87,61
India,Bihar,Patna,"Samanpura, Patna - BSPCB",06-06-2024 02:00:00,25.596727,85.085624,PM2.5,69,146,108
India,Bihar,Rajgir,"Dangi Tola, Rajgir - BSPCB",06-06-2024 02:00:00,25.03280,85.41948,SO2,3,5,4
India,Bihar,Saharsa,"Police Line, Saharsa - BSPCB",06-06-2024 02:00:00,25.892357,86.590325,CO,54,54,54
India,Bihar,Samastipur,"DM Office_Kasipur, Samastipur - BSPCB",06-06-2024 02:00:00,25.859655,85.77944,NH3,NA,NA,NA
India,Bihar,Samastipur,"DM Office_Kasipur, Samastipur - BSPCB",06-06-2024 02:00:00,25.859655,85.77944,SO2,NA,NA,NA
India,Bihar,Sasaram,"Dada Peer, Sasaram - BSPCB",06-06-2024 02:00:00,24.952822,84.002396,NH3,9,17,12
India,Chandigarh,Chandigarh,"Sector-25, Chandigarh - CPCC",06-06-2024 02:00:00,30.751462,76.762879,NO2,NA,NA,NA
India,Chandigarh,Chandigarh,"Sector-53, Chandigarh - CPCC",06-06-2024 02:00:00,30.719859,76.738637,PM2.5,25,257,124
India,Chandigarh,Chandigarh,"Sector-53, Chandigarh - CPCC",06-06-2024 02:00:00,30.719859,76.738637,OZONE,4,76,43
India,Chhattisgarh,Bhilai,"Civic Center, Bhilai - Bhilai Steel Plant",06-06-2024 02:00:00,21.185571,81.343175,PM2.5,17,33,27
India,Chhattisgarh,Bhilai,"Hathkhoj, Bhilai - CECB",06-06-2024 02:00:00,21.224231,81.408350,SO2,10,12,11
India,Chhattisgarh,Bilaspur,"Mangala, Bilaspur - NTPC",06-06-2024 02:00:00,22.08815,82.13737,PM2.5,11,156,37
India,Chhattisgarh,Chhal,"Nawapara SECL Colony, Chhal - CECB",06-06-2024 02:00:00,22.118125,83.140608,NH3,1,2,2
India,Chhattisgarh,Chhal,"Nawapara SECL Colony, Chhal - CECB",06-06-2024 02:00:00,22.118125,83.140608,SO2,NA,NA,NA
India,Chhattisgarh,Kunjemura,"OP Jindal School, Kunjemura - CECB",06-06-2024 02:00:00,22.126650,83.483212,CO,24,45,33
India,Chhattisgarh,Kunjemura,"OP Jindal School, Kunjemura - CECB",06-06-2024 02:00:00,22.126650,83.483212,OZONE,6,49,23
India,Chhattisgarh,Raipur,"AIIMS, Raipur - CECB",06-06-2024 02:00:00,21.258815,81.578979,CO,20,31,26
India,Chhattisgarh,Raipur,"Bhatagaon New ISBT, Raipur - CECB",06-06-2024 02:00:00,21.219665,81.630094,NO2,1,2,1
India,Chhattisgarh,Raipur,"Bhatagaon New ISBT, Raipur - CECB",06-06-2024 02:00:00,21.219665,81.630094,SO2,1,3,2
India,Chhattisgarh,Raipur,"Krishak Nagar, Raipur - CECB",06-06-2024 02:00:00,21.237755,81.705301,NH3,NA,NA,NA
India,Chhattisgarh,Raipur,"Siltara Phase-II, Raipur - CECB",06-06-2024 02:00:00,21.371751,81.664929,NO2,7,77,39
India,Chhattisgarh,Raipur,"Siltara Phase-II, Raipur - CECB",06-06-2024 02:00:00,21.371751,81.664929,CO,1,9,6
India,Chhattisgarh,Tumidih,"OP Jindal Industrial Park, Tumidih - CECB",06-06-2024 02:00:00,22.06631475,83.33820077,CO,NA,NA,NA
India,Delhi,Delhi,"Ashok Vihar, Delhi - DPCC",06-06-2024 02:00:00,28.695381,77.181665,PM2.5,48,213,90
India,Delhi,Delhi,"Ashok Vihar, Delhi - DPCC",06-06-2024 02:00:00,28.695381,77.181665,NH3,10,18,15
India,Delhi,Delhi,"Ashok Vihar, Delhi - DPCC",06-06-2024 02:00:00,28.695381,77.181665,CO,9,65,35
India,Delhi,Delhi,"Aya Nagar, Delhi - IMD",06-06-2024 02:00:00,28.4706914,77.1099364,PM10,42,249,148
India,Delhi,Delhi,"Aya Nagar, Delhi - IMD",06-06-2024 02:00:00,28.4706914,77.1099364,NO2,6,15,12
India,Delhi,Delhi,"Bawana, Delhi - DPCC",06-06-2024 02:00:00,28.776200,77.051074,NO2,8,72,23
India,Delhi,Delhi,"Bawana, Delhi - DPCC",06-06-2024 02:00:00,28.776200,77.051074,NH3,3,5,4
India,Delhi,Delhi,"Bawana, Delhi - DPCC",06-06-2024 02:00:00,28.776200,77.051074,CO,27,80,52
India,Delhi,Delhi,"CRRI Mathura Road, Delhi - IMD",06-06-2024 02:00:00,28.5512005,77.2735737,OZONE,4,47,25
India,Delhi,Delhi,"Chandni Chowk, Delhi - IITM",06-06-2024 02:00:00,28.656756,77.227234,SO2,16,53,39
India,Delhi,Delhi,"DTU, Delhi - CPCB",06-06-2024 02:00:00,28.7500499,77.1112615,NO2,30,36,33
India,Delhi,Delhi,"DTU, Delhi - CPCB",06-06-2024 02:00:00,28.7500499,77.1112615,CO,28,68,37
India,Delhi,Delhi,"DTU, Delhi - CPCB",06-06-2024 02:00:00,28.7500499,77.1112615,OZONE,30,128,70
India,Delhi,Delhi,"Dr. Karni Singh Shooting Range, Delhi - DPCC",06-06-2024 02:00:00,28.498571,77.264840,SO2,10,18,14
India,Delhi,Delhi,"IGI Airport (T3), Delhi - IMD",06-06-2024 02:00:00,28.5627763,77.1180053,PM10,122,402,165
India,Delhi,Delhi,"IGI Airport (T3), Delhi - IMD",06-06-2024 02:00:00,28.5627763,77.1180053,OZONE,2,33,21
India,Delhi,Delhi,"IHBAS, Dilshad Garden, Delhi - CPCB",06-06-2024 02:00:00,28.6811736,77.3025234,PM2.5,84,318,170
India,Delhi,Delhi,"IHBAS, Dilshad Garden, Delhi - CPCB",06-06-2024 02:00:00,28.6811736,77.3025234,PM10,78,477,204
India,Delhi,Delhi,"IHBAS, Dilshad Garden, Delhi - CPCB",06-06-2024 02:00:00,28.6811736,77.3025234,OZONE,15,36,33
India,Delhi,Delhi,"ITO, Delhi - CPCB",06-06-2024 02:00:00,28.628624,77.241060,PM10,36,238,125
India,Delhi,Delhi,"ITO, Delhi - CPCB",06-06-2024 02:00:00,28.628624,77.241060,SO2,4,18,12
India,Delhi,Delhi,"Jawaharlal Nehru Stadium, Delhi - DPCC",06-06-2024 02:00:00,28.580280,77.233829,PM10,NA,NA,NA
India,Delhi,Delhi,"Lodhi Road, Delhi - IITM",06-06-2024 02:00:00,28.588333,77.221667,PM2.5,39,171,71
India,Delhi,Delhi,"Lodhi Road, Delhi - IITM",06-06-2024 02:00:00,28.588333,77.221667,NO2,1,66,20
India,Delhi,Delhi,"Lodhi Road, Delhi - IMD",06-06-2024 02:00:00,28.5918245,77.2273074,OZONE,2,25,14
India,Delhi,Delhi,"Major Dhyan Chand National Stadium, Delhi - DPCC",06-06-2024 02:00:00,28.611281,77.237738,PM2.5,67,277,122
India,Delhi,Delhi,"NSIT Dwarka, Delhi - CPCB",06-06-2024 02:00:00,28.60909,77.0325413,SO2,17,29,23
India,Delhi,Delhi,"NSIT Dwarka, Delhi - CPCB",06-06-2024 02:00:00,28.60909,77.0325413,OZONE,13,49,25
India,Delhi,Delhi,"Najafgarh, Delhi - DPCC",06-06-2024 02:00:00,28.570173,76.933762,NH3,7,10,8
India,Delhi,Delhi,"Narela, Delhi - DPCC",06-06-2024 02:00:00,28.822836,77.101981,PM10,145,436,274
India,Delhi,Delhi,"Nehru Nagar, Delhi - DPCC",06-06-2024 02:00:00,28.567890,77.250515,PM10,84,459,215
India,Delhi,Delhi,"Nehru Nagar, Delhi - DPCC",06-06-2024 02:00:00,28.567890,77.250515,OZONE,2,144,82
India,Delhi,Delhi,"North Campus, DU, Delhi - IMD",06-06-2024 02:00:00,28.6573814,77.1585447,NO2,NA,NA,NA
India,Delhi,Delhi,"Okhla Phase-2, Delhi - DPCC",06-06-2024 02:00:00,28.530785,77.271255,PM10,105,461,260
India,Delhi,Delhi,"Patparganj, Delhi - DPCC",06-06-2024 02:00:00,28.623763,77.287209,PM2.5,55,302,129
India,Delhi,Delhi,"Patparganj, Delhi - DPCC",06-06-2024 02:00:00,28.623763,77.287209,CO,18,77,47
India,Delhi,Delhi,"Punjabi Bagh, Delhi - DPCC",06-06-2024 02:00:00,28.674045,77.131023,NH3,5,8,6
India,Delhi,Delhi,"Pusa, Delhi - DPCC",06-06-2024 02:00:00,28.639652,77.146275,NO2,32,105,64
India,Delhi,Delhi,"Pusa, Delhi - DPCC",06-06-2024 02:00:00,28.639652,77.146275,OZONE,7,53,37
India,Delhi,Delhi,"Pusa, Delhi - IMD",06-06-2024 02:00:00,28.636110,77.173332,PM2.5,1,419,174
India,Delhi,Delhi,"Rohini, Delhi - DPCC",06-06-2024 02:00:00,28.732528,77.119920,PM2.5,48,280,94
India,Delhi,Delhi,"Rohini, Delhi - DPCC",06-06-2024 02:00:00,28.732528,77.119920,NO2,9,102,33
India,Delhi,Delhi,"Rohini, Delhi - DPCC",06-06-2024 02:00:00,28.732528,77.119920,OZONE,6,93,61
India,Delhi,Delhi,"Shadipur, Delhi - CPCB",06-06-2024 02:00:00,28.6514781,77.1473105,PM2.5,94,500,340
India,Delhi,Delhi,"Sirifort, Delhi - CPCB",06-06-2024 02:00:00,28.5504249,77.2159377,PM10,94,386,236
India,Delhi,Delhi,"Sirifort, Delhi - CPCB",06-06-2024 02:00:00,28.5504249,77.2159377,SO2,42,47,44
India,Delhi,Delhi,"Sirifort, Delhi - CPCB",06-06-2024 02:00:00,28.5504249,77.2159377,CO,8,44,22
India,Delhi,Delhi,"Sonia Vihar, Delhi - DPCC",06-06-2024 02:00:00,28.710508,77.249485,PM2.5,50,304,114
India,Delhi,Delhi,"Vivek Vihar, Delhi - DPCC",06-06-2024 02:00:00,28.672342,77.315260,PM2.5,46,124,79
India,Delhi,Delhi,"Vivek Vihar, Delhi - DPCC",06-06-2024 02:00:00,28.672342,77.315260,SO2,10,19,13
India,Delhi,Delhi,"Vivek Vihar, Delhi - DPCC",06-06-2024 02:00:00,28.672342,77.315260,OZONE,5,64,42
India,Delhi,Delhi,"Wazirpur, Delhi - DPCC",06-06-2024 02:00:00,28.699793,77.165453,PM2.5,58,208,103
India,Gujarat,Ahmedabad,"Chandkheda, Ahmedabad - IITM",06-06-2024 02:00:00,23.107969,72.574648,CO,27,28,28
India,Gujarat,Ahmedabad,"Gyaspur, Ahmedabad - IITM",06-06-2024 02:00:00,22.977134,72.553024,SO2,16,23,20
India,Gujarat,Ahmedabad,"Gyaspur, Ahmedabad - IITM",06-06-2024 02:00:00,22.977134,72.553024,OZONE,82,137,129
India,Gujarat,Ahmedabad,"Maninagar, Ahmedabad - GPCB",06-06-2024 02:00:00,23.002657,72.591912,SO2,13,114,52
India,Gujarat,Ahmedabad,"Maninagar, Ahmedabad - GPCB",06-06-2024 02:00:00,23.002657,72.591912,OZONE,23,95,41
India,Gujarat,Ahmedabad,"Raikhad, Ahmedabad - IITM",06-06-2024 02:00:00,23.020509,72.579261,PM10,16,178,139
India,Gujarat,Ahmedabad,"Raikhad, Ahmedabad - IITM",06-06-2024 02:00:00,23.020509,72.579261,SO2,15,21,19
India,Gujarat,Ahmedabad,"Raikhad, Ahmedabad - IITM",06-06-2024 02:00:00,23.020509,72.579261,OZONE,NA,NA,NA
India,Gujarat,Ahmedabad,"SVPI Airport Hansol, Ahmedabad - IITM",06-06-2024 02:00:00,23.076793,72.627874,SO2,4,13,7
India,Gujarat,Ahmedabad,"SVPI Airport Hansol, Ahmedabad - IITM",06-06-2024 02:00:00,23.076793,72.627874,OZONE,24,63,63
India,Gujarat,Gandhinagar,"GIFT City, Gandhinagar - IITM",06-06-2024 02:00:00,23.163798,72.677768,PM10,NA,NA,NA
India,Gujarat,Gandhinagar,"Sector-10, Gandhinagar - GPCB",06-06-2024 02:00:00,23.221714,72.654328,PM10,68,431,118
India,Gujarat,Nandesari,"GIDC, Nandesari - Nandesari Ind. Association",06-06-2024 02:00:00,22.410802,73.097923,PM2.5,NA,NA,NA
India,Gujarat,Vapi,"Phase-1 GIDC, Vapi - GPCB",06-06-2024 02:00:00,20.362421,72.918013,OZONE,1,1,1
India,Haryana,Ambala,"Patti Mehar, Ambala - HSPCB",06-06-2024 02:00:00,30.379589,76.778328,NO2,10,21,15
India,Haryana,Ambala,"Patti Mehar, Ambala - HSPCB",06-06-2024 02:00:00,30.379589,76.778328,NH3,5,12,9
India,Haryana,Bahadurgarh,"Arya Nagar, Bahadurgarh - HSPCB",06-06-2024 02:00:00,28.6701,76.9254,NH3,4,10,9
India,Haryana,Bahadurgarh,"Arya Nagar, Bahadurgarh - HSPCB",06-06-2024 02:00:00,28.6701,76.9254,SO2,4,72,21
India,Haryana,Bhiwani,"H.B. Colony, Bhiwani - HSPCB",06-06-2024 02:00:00,28.806223,76.141105,SO2,3,15,7
India,Haryana,Faridabad,"New Industrial Town, Faridabad - HSPCB",06-06-2024 02:00:00,28.39072,77.30059,PM10,75,500,331
India,Haryana,Faridabad,"New Industrial Town, Faridabad - HSPCB",06-06-2024 02:00:00,28.39072,77.30059,NH3,1,4,3
India,Haryana,Faridabad,"Sector 11, Faridabad - HSPCB",06-06-2024 02:00:00,28.376058,77.315741,PM2.5,33,328,181
India,Haryana,Faridabad,"Sector- 16A, Faridabad - HSPCB",06-06-2024 02:00:00,28.4088421,77.3099081,SO2,19,29,25
India,Haryana,Faridabad,"Sector- 16A, Faridabad - HSPCB",06-06-2024 02:00:00,28.4088421,77.3099081,OZONE,14,14,14
India,Haryana,Fatehabad,"Huda Sector, Fatehabad - HSPCB",06-06-2024 02:00:00,29.503664,75.467934,PM2.5,49,318,226
India,Haryana,Gurugram,"NISE Gwal Pahari, Gurugram - IMD",06-06-2024 02:00:00,28.422681,77.148944,PM10,56,355,184
India,Haryana,Gurugram,"NISE Gwal Pahari, Gurugram - IMD",06-06-2024 02:00:00,28.422681,77.148944,NO2,26,80,50
India,Haryana,Gurugram,"Sector-51, Gurugram - HSPCB",06-06-2024 02:00:00,28.4227,77.0667,PM2.5,126,311,224
India,Haryana,Gurugram,"Teri Gram, Gurugram - HSPCB",06-06-2024 02:00:00,28.4275,77.1465,OZONE,12,49,17
India,Haryana,Gurugram,"Vikas Sadan, Gurugram - HSPCB",06-06-2024 02:00:00,28.4501238,77.0263051,PM2.5,83,500,242
India,Haryana,Gurugram,"Vikas Sadan, Gurugram - HSPCB",06-06-2024 02:00:00,28.4501238,77.0263051,CO,54,151,108
India,Haryana,Jind,"Police Lines, Jind - HSPCB",06-06-2024 02:00:00,29.307814,76.337619,NO2,1,28,5
India,Haryana,Jind,"Police Lines, Jind - HSPCB",06-06-2024 02:00:00,29.307814,76.337619,SO2,2,60,18
India,Haryana,Kaithal,"Rishi Nagar, Kaithal - HSPCB",06-06-2024 02:00:00,29.8006,76.4155,SO2,2,110,21
India,Haryana,Kaithal,"Rishi Nagar, Kaithal - HSPCB",06-06-2024 02:00:00,29.8006,76.4155,CO,8,76,31
India,Haryana,Kaithal,"Rishi Nagar, Kaithal - HSPCB",06-06-2024 02:00:00,29.8006,76.4155,OZONE,4,25,18
India,Haryana,Karnal,"Sector-12, Karnal - HSPCB",06-06-2024 02:00:00,29.695300,77.002700,OZONE,29,37,31
India,Haryana,Kurukshetra,"Sector-7, Kurukshetra - HSPCB",06-06-2024 02:00:00,29.966942,76.875879,PM2.5,121,325,251
India,Haryana,Kurukshetra,"Sector-7, Kurukshetra - HSPCB",06-06-2024 02:00:00,29.966942,76.875879,NO2,10,10,10
India,Haryana,Kurukshetra,"Sector-7, Kurukshetra - HSPCB",06-06-2024 02:00:00,29.966942,76.875879,OZONE,41,81,62
India,Haryana,Mandikhera,"General Hospital, Mandikhera - HSPCB",06-06-2024 02:00:00,27.9002,76.9938,NO2,19,26,22
India,Haryana,Mandikhera,"General Hospital, Mandikhera - HSPCB",06-06-2024 02:00:00,27.9002,76.9938,SO2,30,38,34
India,Haryana,Manesar,"Sector-2 IMT, Manesar - HSPCB",06-06-2024 02:00:00,28.360699,76.936090,NO2,17,24,21
India,Haryana,Manesar,"Sector-2 IMT, Manesar - HSPCB",06-06-2024 02:00:00,28.360699,76.936090,SO2,2,12,7
India,Haryana,Narnaul,"Shastri Nagar, Narnaul - HSPCB",06-06-2024 02:00:00,28.060249,76.113115,PM2.5,37,59,49
India,Haryana,Narnaul,"Shastri Nagar, Narnaul - HSPCB",06-06-2024 02:00:00,28.060249,76.113115,PM10,37,59,49
India,Haryana,Narnaul,"Shastri Nagar, Narnaul - HSPCB",06-06-2024 02:00:00,28.060249,76.113115,NH3,5,27,15
India,Haryana,Palwal,"Shyam Nagar, Palwal - HSPCB",06-06-2024 02:00:00,28.1485564,77.3320667,NO2,23,25,24
India,Haryana,Palwal,"Shyam Nagar, Palwal - HSPCB",06-06-2024 02:00:00,28.1485564,77.3320667,NH3,8,9,9
India,Haryana,Palwal,"Shyam Nagar, Palwal - HSPCB",06-06-2024 02:00:00,28.1485564,77.3320667,SO2,3,14,9
India,Haryana,Palwal,"Shyam Nagar, Palwal - HSPCB",06-06-2024 02:00:00,28.1485564,77.3320667,CO,14,34,27
India,Haryana,Panipat,"Sector-18, Panipat - HSPCB",06-06-2024 02:00:00,29.432304,76.972765,SO2,18,19,19
India,Haryana,Panipat,"Sector-18, Panipat - HSPCB",06-06-2024 02:00:00,29.432304,76.972765,OZONE,29,30,30
India,Haryana,Sonipat,"Murthal, Sonipat - HSPCB",06-06-2024 02:00:00,29.027200,77.062100,PM10,157,414,203
India,Haryana,Yamuna Nagar,"Gobind Pura, Yamuna Nagar - HSPCB",06-06-2024 02:00:00,30.1480566,77.2893471,PM2.5,100,396,153
India,Haryana,Yamuna Nagar,"Gobind Pura, Yamuna Nagar - HSPCB",06-06-2024 02:00:00,30.1480566,77.2893471,NO2,11,21,16
India,Himachal Pradesh,Baddi,"HIMUDA Complex Phase-1, Baddi - HPPCB",06-06-2024 02:00:00,30.943887,76.801991,NO2,6,39,16
India,Jammu_and_Kashmir,Srinagar,"Rajbagh, Srinagar - JKSPCB",06-06-2024 02:00:00,34.066206,74.819820,PM2.5,NA,NA,NA
India,Jharkhand,Dhanbad,"Kalakusuma, Dhanbad - DMC",06-06-2024 02:00:00,23.811548,86.481238,PM2.5,12,26,18
India,Jharkhand,Dhanbad,"Kalakusuma, Dhanbad - DMC",06-06-2024 02:00:00,23.811548,86.481238,PM10,12,17,14
India,Karnataka,Bagalkot,"Vidayagiri, Bagalkot - KSPCB",06-06-2024 02:00:00,16.172806,75.659694,OZONE,1,41,26
India,Karnataka,Belgaum,"Ramteerth Nagar, Belgaum - KSPCB",06-06-2024 02:00:00,15.888653,74.541751,NO2,3,55,25
India,Karnataka,Bengaluru,"Bapuji Nagar, Bengaluru - KSPCB",06-06-2024 02:00:00,12.951913,77.539784,SO2,6,8,7
India,Karnataka,Bengaluru,"Hebbal, Bengaluru - KSPCB",06-06-2024 02:00:00,13.029152,77.585901,OZONE,7,77,8
India,Karnataka,Bengaluru,"Hombegowda Nagar, Bengaluru - KSPCB",06-06-2024 02:00:00,12.938539,77.590100,PM2.5,8,22,15
India,Karnataka,Bengaluru,"Hombegowda Nagar, Bengaluru - KSPCB",06-06-2024 02:00:00,12.938539,77.590100,CO,13,44,26
India,Karnataka,Bengaluru,"Jigani, Bengaluru - KSPCB",06-06-2024 02:00:00,12.7816279,77.6299145,PM10,24,90,49
India,Karnataka,Bengaluru,"Kasturi Nagar, Bengaluru - KSPCB",06-06-2024 02:00:00,13.003872,77.664217,PM2.5,34,44,39
India,Karnataka,Bengaluru,"Peenya, Bengaluru - CPCB",06-06-2024 02:00:00,13.0270199,77.494094,CO,78,90,84
India,Karnataka,Bengaluru,"Sanegurava Halli, Bengaluru - KSPCB",06-06-2024 02:00:00,12.990328,77.5431385,SO2,2,4,3
India,Karnataka,Bengaluru,"Shivapura_Peenya, Bengaluru - KSPCB",06-06-2024 02:00:00,13.0246342,77.5080115,NH3,4,4,4
India,Karnataka,Bengaluru,"Shivapura_Peenya, Bengaluru - KSPCB",06-06-2024 02:00:00,13.0246342,77.5080115,OZONE,53,55,54
India,Karnataka,Bengaluru,"Silk Board, Bengaluru - KSPCB",06-06-2024 02:00:00,12.917348,77.622813,NH3,NA,NA,NA
India,Karnataka,Bidar,"Naubad, Bidar - KSPCB",06-06-2024 02:00:00,17.930306,77.482194,NH3,2,3,3
India,Karnataka,Bidar,"Naubad, Bidar - KSPCB",06-06-2024 02:00:00,17.930306,77.482194,CO,79,111,91
India,Karnataka,Chamarajanagar,"Urban, Chamarajanagar - KSPCB",06-06-2024 02:00:00,11.55358,76.55521,NO2,15,23,21
India,Karnataka,Chikkamagaluru,"Kalyana Nagara, Chikkamagaluru - KSPCB",06-06-2024 02:00:00,13.328028,75.797056,PM2.5,4,46,27
India,Karnataka,Chikkamagaluru,"Kalyana Nagara, Chikkamagaluru - KSPCB",06-06-2024 02:00:00,13.328028,75.797056,NH3,2,4,3
India,Karnataka,Chikkamagaluru,"Kalyana Nagara, Chikkamagaluru - KSPCB",06-06-2024 02:00:00,13.328028,75.797056,CO,11,110,19
India,Karnataka,Davanagere,"Devaraj Urs Badavane, Davanagere - KSPCB",06-06-2024 02:00:00,14.475800,75.905200,NH3,NA,NA,NA
India,Karnataka,Davanagere,"Devaraj Urs Badavane, Davanagere - KSPCB",06-06-2024 02:00:00,14.475800,75.905200,OZONE,15,21,20
India,Karnataka,Dharwad,"Kalabhavan, Dharwad - KSPCB",06-06-2024 02:00:00,15.459706,75.008381,PM2.5,13,39,28
India,Karnataka,Dharwad,"Kalabhavan, Dharwad - KSPCB",06-06-2024 02:00:00,15.459706,75.008381,NO2,1,12,6
India,Karnataka,Dharwad,"Kalabhavan, Dharwad - KSPCB",06-06-2024 02:00:00,15.459706,75.008381,OZONE,32,33,32
India,Karnataka,Gadag,"Panchal Nagar, Gadag - KSPCB",06-06-2024 02:00:00,15.411456,75.638133,NH3,2,4,2
India,Karnataka,Hubballi,"Lingaraj Nagar, Hubballi - KSPCB",06-06-2024 02:00:00,15.3714823,75.1160168,NH3,2,4,3
India,Karnataka,Kalaburagi,"Lal Bahadur Shastri Nagar, Kalaburagi - KSPCB",06-06-2024 02:00:00,17.321993,76.822628,PM10,NA,NA,NA
India,Karnataka,Kalaburagi,"Lal Bahadur Shastri Nagar, Kalaburagi - KSPCB",06-06-2024 02:00:00,17.321993,76.822628,OZONE,3,30,24
India,Karnataka,Kalaburagi,"Mahatma Basaveswar Colony, Kalaburgi - KSPCB",06-06-2024 02:00:00,17.336318,76.847397,SO2,NA,NA,NA
India,Karnataka,Kalaburagi,"Mahatma Basaveswar Colony, Kalaburgi - KSPCB",06-06-2024 02:00:00,17.336318,76.847397,OZONE,45,62,45
India,Karnataka,Karwar,"KHB Colony, Karwar - KSPCB",06-06-2024 02:00:00,14.816666,74.141003,SO2,23,24,23
India,Karnataka,Karwar,"KHB Colony, Karwar - KSPCB",06-06-2024 02:00:00,14.816666,74.141003,CO,9,10,10
India,Karnataka,Koppal,"Diwator Nagar, Koppal - KSPCB",06-06-2024 02:00:00,15.347630,76.181767,SO2,23,24,24
India,Karnataka,Madikeri,"Stuart Hill, Madikeri - KSPCB",06-06-2024 02:00:00,12.415911,75.735050,PM2.5,11,28,21
India,Karnataka,Madikeri,"Stuart Hill, Madikeri - KSPCB",06-06-2024 02:00:00,12.415911,75.735050,SO2,4,4,4
India,Karnataka,Mangalore,"Kadri, Mangalore - KSPCB",06-06-2024 02:00:00,12.889250,74.853000,PM10,30,82,52
India,Karnataka,Raichur,"Haji Colony, Raichur - KSPCB",06-06-2024 02:00:00,16.208139,77.348417,PM10,NA,NA,NA
India,Karnataka,Raichur,"Haji Colony, Raichur - KSPCB",06-06-2024 02:00:00,16.208139,77.348417,CO,80,105,99
India,Karnataka,Ramanagara,"Vijay Nagar, Ramanagara - KSPCB",06-06-2024 02:00:00,12.733409,77.298051,NO2,NA,NA,NA
India,Karnataka,Ramanagara,"Vijay Nagar, Ramanagara - KSPCB",06-06-2024 02:00:00,12.733409,77.298051,SO2,NA,NA,NA
India,Karnataka,Shivamogga,"Vinoba Nagara, Shivamogga - KSPCB",06-06-2024 02:00:00,13.940000,75.555917,PM2.5,24,48,35
India,Karnataka,Shivamogga,"Vinoba Nagara, Shivamogga - KSPCB",06-06-2024 02:00:00,13.940000,75.555917,CO,10,35,23
India,Karnataka,Tumakuru,"Thimmalapura, Tumakuru - KSPCB",06-06-2024 02:00:00,13.377516,77.099072,PM10,33,500,100
India,Karnataka,Tumakuru,"Thimmalapura, Tumakuru - KSPCB",06-06-2024 02:00:00,13.377516,77.099072,SO2,6,18,9
India,Karnataka,Tumakuru,"Thimmalapura, Tumakuru - KSPCB",06-06-2024 02:00:00,13.377516,77.099072,CO,29,35,32
India,Kerala,Kollam,"Polayathode, Kollam - Kerala PCB",06-06-2024 02:00:00,8.8787,76.6073,PM2.5,8,69,30
India,Kerala,Kollam,"Polayathode, Kollam - Kerala PCB",06-06-2024 02:00:00,8.8787,76.6073,NO2,8,9,8
India,Kerala,Kollam,"Polayathode, Kollam - Kerala PCB",06-06-2024 02:00:00,8.8787,76.6073,CO,14,19,16
India,Kerala,Kollam,"Polayathode, Kollam - Kerala PCB",06-06-2024 02:00:00,8.8787,76.6073,OZONE,30,35,33
India,Kerala,Thiruvananthapuram,"Kariavattom, Thiruvananthapuram - Kerala PCB",06-06-2024 02:00:00,8.563700,76.886500,PM2.5,40,47,44
India,Kerala,Thiruvananthapuram,"Kariavattom, Thiruvananthapuram - Kerala PCB",06-06-2024 02:00:00,8.563700,76.886500,PM10,57,64,60
India,Kerala,Thiruvananthapuram,"Kariavattom, Thiruvananthapuram - Kerala PCB",06-06-2024 02:00:00,8.563700,76.886500,NO2,6,7,7
India,Kerala,Thiruvananthapuram,"Kariavattom, Thiruvananthapuram - Kerala PCB",06-06-2024 02:00:00,8.563700,76.886500,SO2,2,10,6
India,Kerala,Thiruvananthapuram,"Plammoodu, Thiruvananthapuram - Kerala PCB",06-06-2024 02:00:00,8.5149093,76.9435879,PM2.5,NA,NA,NA
India,Kerala,Thiruvananthapuram,"Plammoodu, Thiruvananthapuram - Kerala PCB",06-06-2024 02:00:00,8.5149093,76.9435879,NO2,8,11,9
India,Kerala,Thrissur,"Corporation Ground, Thrissur - Kerala PCB",06-06-2024 02:00:00,10.532400,76.215900,PM2.5,45,50,47
India,Kerala,Thrissur,"Corporation Ground, Thrissur - Kerala PCB",06-06-2024 02:00:00,10.532400,76.215900,PM10,60,67,64
India,Madhya Pradesh,Bhopal,"Idgah Hills, Bhopal - MPPCB",06-06-2024 02:00:00,23.264759,77.381568,PM2.5,28,100,56
India,Madhya Pradesh,Bhopal,"Paryavaran Parisar, Bhopal - MPPCB",06-06-2024 02:00:00,23.210494,77.425409,NH3,3,9,5
India,Madhya Pradesh,Bhopal,"T T Nagar, Bhopal - MPPCB",06-06-2024 02:00:00,23.233584,77.400574,PM10,30,162,76
India,Madhya Pradesh,Dewas,"Bhopal Chauraha, Dewas - MPPCB",06-06-2024 02:00:00,22.9682591,76.064118,PM2.5,19,73,34
India,Madhya Pradesh,Dewas,"Bhopal Chauraha, Dewas - MPPCB",06-06-2024 02:00:00,22.9682591,76.064118,NO2,12,14,13
India,Madhya Pradesh,Dewas,"Bhopal Chauraha, Dewas - MPPCB",06-06-2024 02:00:00,22.9682591,76.064118,NH3,3,3,3
India,Madhya Pradesh,Gwalior,"Deen Dayal Nagar, Gwalior - MPPCB",06-06-2024 02:00:00,26.259242,78.216432,PM10,61,189,120
India,Madhya Pradesh,Gwalior,"Maharaj Bada, Gwalior - MPPCB",06-06-2024 02:00:00,26.200388,78.147714,NH3,2,12,4
India,Madhya Pradesh,Indore,"Maguda Nagar, Indore - IMC",06-06-2024 02:00:00,22.7524,75.8872,NO2,3,5,4
India,Madhya Pradesh,Indore,"Maguda Nagar, Indore - IMC",06-06-2024 02:00:00,22.7524,75.8872,NH3,1,2,2
India,Madhya Pradesh,Indore,"Maguda Nagar, Indore - IMC",06-06-2024 02:00:00,22.7524,75.8872,SO2,33,36,34
India,Madhya Pradesh,Indore,"Maguda Nagar, Indore - IMC",06-06-2024 02:00:00,22.7524,75.8872,OZONE,2,6,3
India,Madhya Pradesh,Indore,"Regional Park, Indore - IMC",06-06-2024 02:00:00,22.6780,75.8559,NH3,NA,NA,NA
India,Madhya Pradesh,Jabalpur,"Govindh Bhavan Colony, Jabalpur - JMC",06-06-2024 02:00:00,23.163174,79.973061,CO,14,34,23
India,Madhya Pradesh,Jabalpur,"Gupteshwar, Jabalpur - JMC",06-06-2024 02:00:00,23.142888,79.916147,PM10,33,104,56
India,Madhya Pradesh,Jabalpur,"Gupteshwar, Jabalpur - JMC",06-06-2024 02:00:00,23.142888,79.916147,NO2,5,43,12
India,Madhya Pradesh,Jabalpur,"Marhatal, Jabalpur - MPPCB",06-06-2024 02:00:00,23.168606,79.932247,OZONE,36,70,50
India,Madhya Pradesh,Jabalpur,"Suhagi, Jabalpur - JMC",06-06-2024 02:00:00,23.218135,79.957770,CO,38,99,66
India,Madhya Pradesh,Katni,"Gole Bazar, Katni - MPPCB",06-06-2024 02:00:00,23.50016,80.23284,PM10,56,189,94
India,Madhya Pradesh,Katni,"Gole Bazar, Katni - MPPCB",06-06-2024 02:00:00,23.50016,80.23284,NH3,2,5,3
India,Madhya Pradesh,Maihar,"Sahilara, Maihar - KJS Cements",06-06-2024 02:00:00,24.2613009,80.7231783,SO2,10,13,12
India,Madhya Pradesh,Maihar,"Sahilara, Maihar - KJS Cements",06-06-2024 02:00:00,24.2613009,80.7231783,CO,16,34,18
India,Madhya Pradesh,Pithampur,"Sector-2 Industrial Area, Pithampur - MPPCB",06-06-2024 02:00:00,22.624758,75.675238,OZONE,17,38,25
India,Madhya Pradesh,Ratlam,"Shasthri Nagar, Ratlam - IPCA Lab",06-06-2024 02:00:00,23.331731,75.045981,NO2,13,13,13
India,Madhya Pradesh,Sagar,"Civil Lines, Sagar - MPPCB",06-06-2024 02:00:00,23.838586,78.759431,PM10,25,103,53
India,Madhya Pradesh,Sagar,"Civil Lines, Sagar - MPPCB",06-06-2024 02:00:00,23.838586,78.759431,NO2,4,48,12
India,Madhya Pradesh,Sagar,"Deen Dayal Nagar, Sagar - MPPCB",06-06-2024 02:00:00,23.8640158,78.80289321,PM10,18,180,65
India,Madhya Pradesh,Sagar,"Deen Dayal Nagar, Sagar - MPPCB",06-06-2024 02:00:00,23.8640158,78.80289321,SO2,12,18,14
India,Madhya Pradesh,Sagar,"Deen Dayal Nagar, Sagar - MPPCB",06-06-2024 02:00:00,23.8640158,78.80289321,CO,51,67,57
India,Madhya Pradesh,Satna,"Bandhavgar Colony, Satna - Birla Cement",06-06-2024 02:00:00,24.58434363,80.8549414,PM10,35,67,45
India,Madhya Pradesh,Satna,"Bandhavgar Colony, Satna - Birla Cement",06-06-2024 02:00:00,24.58434363,80.8549414,CO,38,130,92
India,Madhya Pradesh,Singrauli,"Suryakiran Bhawan NCL, Singrauli - MPPCB",06-06-2024 02:00:00,24.108970,82.645580,CO,34,109,72
India,Madhya Pradesh,Ujjain,"Mahakaleshwar Temple, Ujjain - MPPCB",06-06-2024 02:00:00,23.182719 ,75.768218 ,CO,12,38,23
India,Madhya Pradesh,Ujjain,"Mahakaleshwar Temple, Ujjain - MPPCB",06-06-2024 02:00:00,23.182719 ,75.768218 ,OZONE,63,80,79
India,Maharashtra,Ahmednagar,"Tarakpur, Ahmednagar - MPCB",06-06-2024 02:00:00,19.10122,74.73339,SO2,11,42,21
India,Maharashtra,Akola,"Ramdaspeth, Akola - MPCB",06-06-2024 02:00:00,20.719516,77.000253,SO2,13,19,15
India,Maharashtra,Amravati,"Shivneri Colony, Amravati - MPCB",06-06-2024 02:00:00,20.9402359,77.7895248,NO2,3,34,11
India,Maharashtra,Amravati,"Shri Shivaji Science College, Amaravati - MPCB",06-06-2024 02:00:00,20.939198,77.765701,NH3,2,3,2
India,Maharashtra,Amravati,"Shri Shivaji Science College, Amaravati - MPCB",06-06-2024 02:00:00,20.939198,77.765701,SO2,3,5,4
India,Maharashtra,Aurangabad,"More Chowk Waluj, Aurangabad - MPCB",06-06-2024 02:00:00,19.8389439,75.244448,OZONE,7,62,30
India,Maharashtra,Badlapur,"Katrap, Badlapur - MPCB",06-06-2024 02:00:00,19.16485,73.23409,OZONE,14,97,29
India,Maharashtra,Belapur,"CBD Belapur, Belapur - MPCB",06-06-2024 02:00:00,19.0243902,73.0406721,NO2,19,60,33
India,Maharashtra,Belapur,"CBD Belapur, Belapur - MPCB",06-06-2024 02:00:00,19.0243902,73.0406721,SO2,9,22,11
India,Maharashtra,Belapur,"CBD Belapur, Belapur - MPCB",06-06-2024 02:00:00,19.0243902,73.0406721,CO,6,19,13
India,Maharashtra,Bhiwandi,"Gokul Nagar, Bhiwandi - MPCB",06-06-2024 02:00:00,19.309073,73.057223,PM10,55,85,71
India,Maharashtra,Bhiwandi,"Gokul Nagar, Bhiwandi - MPCB",06-06-2024 02:00:00,19.309073,73.057223,SO2,12,23,18
India,Maharashtra,Boisar,"Khaira, Boisar - MPCB",06-06-2024 02:00:00,19.786089,72.757971,NO2,4,38,12
India,Maharashtra,Boisar,"Khaira, Boisar - MPCB",06-06-2024 02:00:00,19.786089,72.757971,NH3,NA,NA,NA
India,Maharashtra,Chandrapur,"Chauhan Colony, Chandrapur - MPCB",06-06-2024 02:00:00,19.962900,79.298714,PM2.5,31,71,48
India,Maharashtra,Chandrapur,"Chauhan Colony, Chandrapur - MPCB",06-06-2024 02:00:00,19.962900,79.298714,NO2,14,38,22
India,Maharashtra,Dhule,"Deopur, Dhule - MPCB",06-06-2024 02:00:00,20.918946,74.776388,PM2.5,40,101,77
India,Maharashtra,Jalgaon,"Prabhat Colony, Jalgaon - MPCB",06-06-2024 02:00:00,21.001264,75.565602,NO2,12,34,20
India,Maharashtra,Jalna,"Old MIDC, Jalna - MPCB",06-06-2024 02:00:00,19.854616,75.905894,SO2,5,7,6
India,Maharashtra,Jalna,"Old MIDC, Jalna - MPCB",06-06-2024 02:00:00,19.854616,75.905894,CO,21,30,26
India,Maharashtra,Kolhapur,"Shivaji University, Kolhapur - MPCB",06-06-2024 02:00:00,16.6870449,74.2505872,SO2,1,3,2
India,Maharashtra,Kolhapur,"Shivaji University, Kolhapur - MPCB",06-06-2024 02:00:00,16.6870449,74.2505872,CO,44,88,60
India,Maharashtra,Kolhapur,"Sinchan Bhavan, Kolhapur - MPCB",06-06-2024 02:00:00,16.7143745,74.2426398,PM10,NA,NA,NA
India,Maharashtra,Latur,"Sawe Wadi, Latur - MPCB",06-06-2024 02:00:00,18.39963,76.57452,SO2,1,6,4
India,Maharashtra,Malegaon,"Mahesh Nagar, Malegaon - MPCB",06-06-2024 02:00:00,20.555712,74.529236,NH3,3,9,6
India,Maharashtra,Mira-Bhayandar,"Bhayandar West, Mira-Bhayandar - MPCB",06-06-2024 02:00:00,19.296481,72.840923,NH3,NA,NA,NA
India,Maharashtra,Mira-Bhayandar,"Bhayandar West, Mira-Bhayandar - MPCB",06-06-2024 02:00:00,19.296481,72.840923,CO,18,26,21
India,Maharashtra,Mumbai,"Borivali East, Mumbai - IITM",06-06-2024 02:00:00,19.23241,72.86895,NH3,7,9,8
India,Maharashtra,Mumbai,"Borivali East, Mumbai - IITM",06-06-2024 02:00:00,19.23241,72.86895,OZONE,28,57,42
India,Maharashtra,Mumbai,"Borivali East, Mumbai - MPCB",06-06-2024 02:00:00,19.2243333,72.8658113,SO2,10,29,17
India,Maharashtra,Mumbai,"Borivali East, Mumbai - MPCB",06-06-2024 02:00:00,19.2243333,72.8658113,CO,34,40,37
India,Maharashtra,Mumbai,"Borivali East, Mumbai - MPCB",06-06-2024 02:00:00,19.2243333,72.8658113,OZONE,15,16,15
India,Maharashtra,Mumbai,"Byculla, Mumbai - BMC",06-06-2024 02:00:00,18.9767,72.8380,CO,8,19,13
India,Maharashtra,Mumbai,"Byculla, Mumbai - BMC",06-06-2024 02:00:00,18.9767,72.8380,OZONE,7,22,15
India,Maharashtra,Mumbai,"Chakala-Andheri East, Mumbai - IITM",06-06-2024 02:00:00,19.11074,72.86084,PM2.5,26,99,51
India,Maharashtra,Mumbai,"Chakala-Andheri East, Mumbai - IITM",06-06-2024 02:00:00,19.11074,72.86084,SO2,1,19,10
India,Maharashtra,Mumbai,"Chhatrapati Shivaji Intl. Airport (T2), Mumbai - MPCB",06-06-2024 02:00:00,19.10078,72.87462,PM10,32,90,60
India,Maharashtra,Mumbai,"Chhatrapati Shivaji Intl. Airport (T2), Mumbai - MPCB",06-06-2024 02:00:00,19.10078,72.87462,NH3,NA,NA,NA
India,Maharashtra,Mumbai,"Deonar, Mumbai - IITM",06-06-2024 02:00:00,19.04946,72.9230,PM2.5,NA,NA,NA
India,Maharashtra,Mumbai,"Ghatkopar, Mumbai - BMC",06-06-2024 02:00:00,19.083694,72.920967,CO,6,14,10
India,Maharashtra,Mumbai,"Ghatkopar, Mumbai - BMC",06-06-2024 02:00:00,19.083694,72.920967,OZONE,4,12,5
India,Maharashtra,Mumbai,"Kandivali East, Mumbai - MPCB",06-06-2024 02:00:00,19.205800,72.868200,OZONE,28,137,39
India,Maharashtra,Mumbai,"Kandivali West, Mumbai - BMC",06-06-2024 02:00:00,19.215859,72.831718,CO,5,24,15
India,Maharashtra,Mumbai,"Kherwadi_Bandra East, Mumbai - MPCB",06-06-2024 02:00:00,19.0632143,72.8456324,PM2.5,10,38,22
India,Maharashtra,Mumbai,"Khindipada-Bhandup West, Mumbai - IITM",06-06-2024 02:00:00,19.1653323,72.922099,CO,2,22,14
India,Maharashtra,Mumbai,"Kurla, Mumbai - MPCB",06-06-2024 02:00:00,19.0863,72.8888,PM10,85,105,95
India,Maharashtra,Mumbai,"Mindspace-Malad West, Mumbai - MPCB",06-06-2024 02:00:00,19.1878657,72.8304069,PM10,33,62,43
India,Maharashtra,Mumbai,"Mindspace-Malad West, Mumbai - MPCB",06-06-2024 02:00:00,19.1878657,72.8304069,CO,20,28,23
India,Maharashtra,Mumbai,"Mindspace-Malad West, Mumbai - MPCB",06-06-2024 02:00:00,19.1878657,72.8304069,OZONE,11,55,40
India,Maharashtra,Mumbai,"Navy Nagar-Colaba, Mumbai - IITM",06-06-2024 02:00:00,18.897756,72.813320,NH3,10,13,12
India,Maharashtra,Mumbai,"Navy Nagar-Colaba, Mumbai - IITM",06-06-2024 02:00:00,18.897756,72.813320,OZONE,10,37,15
India,Maharashtra,Mumbai,"Powai, Mumbai - MPCB",06-06-2024 02:00:00,19.137500,72.915056,SO2,13,15,14
India,Maharashtra,Mumbai,"Sewri, Mumbai - BMC",06-06-2024 02:00:00,19.000084,72.856730,NH3,NA,NA,NA
India,Maharashtra,Mumbai,"Sewri, Mumbai - BMC",06-06-2024 02:00:00,19.000084,72.856730,OZONE,11,30,16
India,Maharashtra,Mumbai,"Sion, Mumbai - MPCB",06-06-2024 02:00:00,19.047000,72.874600,NH3,6,9,8
India,Maharashtra,Mumbai,"Sion, Mumbai - MPCB",06-06-2024 02:00:00,19.047000,72.874600,SO2,25,26,26
India,Maharashtra,Mumbai,"Vasai West, Mumbai - MPCB",06-06-2024 02:00:00,19.383200,72.820400,PM2.5,NA,NA,NA
India,Maharashtra,Mumbai,"Vasai West, Mumbai - MPCB",06-06-2024 02:00:00,19.383200,72.820400,NH3,NA,NA,NA
India,Maharashtra,Mumbai,"Worli, Mumbai - MPCB",06-06-2024 02:00:00,18.9936162,72.8128113,CO,24,25,24
India,Maharashtra,Nagpur,"Ambazari, Nagpur - MPCB",06-06-2024 02:00:00,21.121801,79.04952,PM2.5,29,63,46
India,Maharashtra,Nagpur,"Ambazari, Nagpur - MPCB",06-06-2024 02:00:00,21.121801,79.04952,NO2,7,94,24
India,Maharashtra,Nagpur,"Ambazari, Nagpur - MPCB",06-06-2024 02:00:00,21.121801,79.04952,NH3,2,15,4
India,Maharashtra,Nagpur,"Mahal, Nagpur - MPCB",06-06-2024 02:00:00,21.14472,79.107595,SO2,2,97,40
India,Maharashtra,Nagpur,"Mahal, Nagpur - MPCB",06-06-2024 02:00:00,21.14472,79.107595,OZONE,4,122,25
India,Maharashtra,Nagpur,"Opp GPO Civil Lines, Nagpur - MPCB",06-06-2024 02:00:00,21.152875,79.0517531,CO,9,119,61
India,Maharashtra,Nanded,"Sneh Nagar, Nanded - MPCB",06-06-2024 02:00:00,19.173852,77.296291,CO,33,46,38
India,Maharashtra,Nashik,"Hirawadi, Nashik - MPCB",06-06-2024 02:00:00,20.021503,73.813844,PM2.5,18,38,26
India,Maharashtra,Nashik,"Hirawadi, Nashik - MPCB",06-06-2024 02:00:00,20.021503,73.813844,NH3,3,6,4
India,Maharashtra,Nashik,"MIDC Ambad, Nashik - MPCB",06-06-2024 02:00:00,19.950220,73.731480,NH3,4,5,4
India,Maharashtra,Nashik,"MIDC Ambad, Nashik - MPCB",06-06-2024 02:00:00,19.950220,73.731480,CO,16,43,23
India,Maharashtra,Nashik,"Pandav Nagari, Nashik - MPCB",06-06-2024 02:00:00,19.9591346,73.7788008,NO2,17,36,25
India,Maharashtra,Nashik,"Pandav Nagari, Nashik - MPCB",06-06-2024 02:00:00,19.9591346,73.7788008,CO,6,10,8
India,Maharashtra,Navi Mumbai,"Kopripada-Vashi, Navi Mumbai - MPCB",06-06-2024 02:00:00,19.090337,73.014232,OZONE,10,16,12
India,Maharashtra,Navi Mumbai,"Mahape, Navi Mumbai - MPCB",06-06-2024 02:00:00,19.1135051,73.008978,NO2,41,44,42
India,Maharashtra,Navi Mumbai,"Mahape, Navi Mumbai - MPCB",06-06-2024 02:00:00,19.1135051,73.008978,SO2,23,23,23
India,Maharashtra,Navi Mumbai,"Mahape, Navi Mumbai - MPCB",06-06-2024 02:00:00,19.1135051,73.008978,OZONE,6,18,12
India,Maharashtra,Navi Mumbai,"Nerul, Navi Mumbai - MPCB",06-06-2024 02:00:00,19.008751,73.016620,PM2.5,14,35,23
India,Maharashtra,Navi Mumbai,"Sanpada, Navi Mumbai - MPCB",06-06-2024 02:00:00,19.0575752,73.0151367,PM10,45,104,66
India,Maharashtra,Navi Mumbai,"Sector-2E Kalamboli, Navi Mumbai - MPCB",06-06-2024 02:00:00,19.02579,73.10297,PM2.5,20,307,84
India,Maharashtra,Navi Mumbai,"Sector-2E Kalamboli, Navi Mumbai - MPCB",06-06-2024 02:00:00,19.02579,73.10297,CO,14,26,22
India,Maharashtra,Navi Mumbai,"Sector-2E Kalamboli, Navi Mumbai - MPCB",06-06-2024 02:00:00,19.02579,73.10297,OZONE,2,47,10
India,Maharashtra,Navi Mumbai,"Tondare-Taloja, Navi Mumbai - MPCB",06-06-2024 02:00:00,19.0630,73.1209,CO,2,24,9
India,Maharashtra,Navi Mumbai,"Tondare-Taloja, Navi Mumbai - MPCB",06-06-2024 02:00:00,19.0630,73.1209,OZONE,23,26,25
India,Maharashtra,Parbhani,"Masoom Colony, Parbhani - MPCB",06-06-2024 02:00:00,19.265594,76.761463,NH3,NA,NA,NA
India,Maharashtra,Pimpri-Chinchwad,"Gavalinagar, Pimpri Chinchwad - MPCB",06-06-2024 02:00:00,18.63673,73.82487,PM10,35,62,48
India,Maharashtra,Pune,"Mhada Colony, Pune - IITM",06-06-2024 02:00:00,18.573040,73.927715,OZONE,4,78,20
India,Maharashtra,Pune,"Revenue Colony-Shivajinagar, Pune - IITM",06-06-2024 02:00:00,18.530085,73.849598,PM10,37,136,64
India,Maharashtra,Pune,"Savitribai Phule Pune University, Pune - MPCB",06-06-2024 02:00:00,18.547056,73.826908,PM10,23,172,130
India,Maharashtra,Pune,"Savitribai Phule Pune University, Pune - MPCB",06-06-2024 02:00:00,18.547056,73.826908,SO2,1,6,3
India,Maharashtra,Pune,"Transport Nagar-Nigdi, Pune - IITM",06-06-2024 02:00:00,18.664282,73.763966,NO2,NA,NA,NA
India,Maharashtra,Sangli,"Vijay Nagar, Sangli - MPCB",06-06-2024 02:00:00, 16.5038,74.3623,PM10,18,45,31
India,Maharashtra,Sangli,"Vijay Nagar, Sangli - MPCB",06-06-2024 02:00:00, 16.5038,74.3623,SO2,3,10,6
India,Maharashtra,Solapur,"Ratandeep Housing Society, Solapur - MPCB",06-06-2024 02:00:00,17.65439,75.90649,NH3,9,9,9
India,Maharashtra,Thane,"Kasarvadavali, Thane - MPCB",06-06-2024 02:00:00,19.26777,72.97182,CO,14,28,21
India,Maharashtra,Thane,"Pimpleshwar Mandir, Thane - MPCB",06-06-2024 02:00:00,19.192056,72.9585188,PM10,60,124,88
India,Maharashtra,Thane,"Pimpleshwar Mandir, Thane - MPCB",06-06-2024 02:00:00,19.192056,72.9585188,NH3,2,5,3
India,Maharashtra,Thane,"Upvan Fort, Thane - MPCB",06-06-2024 02:00:00,19.222279,72.957979,PM10,43,73,55
India,Maharashtra,Thane,"Upvan Fort, Thane - MPCB",06-06-2024 02:00:00,19.222279,72.957979,NH3,3,5,4
India,Maharashtra,Ulhasnagar,"Sidhi Vinayak Nagar, Ulhasnagar - MPCB",06-06-2024 02:00:00,19.235581,73.159121,NH3,2,3,2
India,Maharashtra,Ulhasnagar,"Sidhi Vinayak Nagar, Ulhasnagar - MPCB",06-06-2024 02:00:00,19.235581,73.159121,SO2,7,18,12
India,Maharashtra,Virar,"Bolinj, Virar - MPCB",06-06-2024 02:00:00,19.4458210,72.7988231,NO2,11,75,21
India,Maharashtra,Virar,"Bolinj, Virar - MPCB",06-06-2024 02:00:00,19.4458210,72.7988231,SO2,3,15,8
India,Manipur,Imphal,"Manipur University, Imphal - Manipur PCB",06-06-2024 02:00:00,24.7524239,93.9286218,PM2.5,8,48,32
India,Nagaland,Kohima,"PWD Juction, Kohima - NPCB",06-06-2024 02:00:00,25.6635413,94.0989878,NH3,NA,NA,NA
India,Odisha,Angul,"Hakimapada, Angul - OSPCB",06-06-2024 02:00:00,20.832874,85.104082,NO2,4,18,10
India,Odisha,Angul,"Hakimapada, Angul - OSPCB",06-06-2024 02:00:00,20.832874,85.104082,OZONE,26,115,51
India,Odisha,Balasore,"Kalidaspur, Balasore - OSPCB",06-06-2024 02:00:00,21.51161,86.89088,CO,16,104,54
India,Odisha,Baripada,"Meher Colony, Baripada - OSPCB",06-06-2024 02:00:00,21.941841,86.728318,PM2.5,29,92,61
India,Odisha,Bhubaneswar,"Lingraj Mandir, Bhubaneswar - OSPCB",06-06-2024 02:00:00,20.240790,85.836784,NO2,9,40,19
India,Odisha,Bhubaneswar,"Lingraj Mandir, Bhubaneswar - OSPCB",06-06-2024 02:00:00,20.240790,85.836784,NH3,1,3,2
India,Odisha,Bhubaneswar,"Lingraj Mandir, Bhubaneswar - OSPCB",06-06-2024 02:00:00,20.240790,85.836784,CO,9,82,34
India,Odisha,Bhubaneswar,"Patia, Bhubaneswar - OSPCB",06-06-2024 02:00:00,20.34652,85.81630,PM2.5,28,88,50
India,Odisha,Bhubaneswar,"Patia, Bhubaneswar - OSPCB",06-06-2024 02:00:00,20.34652,85.81630,SO2,1,6,4
India,Odisha,Bileipada,"Tata Township, Bileipada - OSPCB",06-06-2024 02:00:00,22.06156703,85.47409613,PM10,20,182,130
India,Odisha,Brajrajnagar,"GM Office, Brajrajnagar - OSPCB",06-06-2024 02:00:00,21.8004996,83.8396977,PM10,15,146,70
India,Odisha,Brajrajnagar,"GM Office, Brajrajnagar - OSPCB",06-06-2024 02:00:00,21.8004996,83.8396977,NO2,17,20,19
India,Odisha,Brajrajnagar,"GM Office, Brajrajnagar - OSPCB",06-06-2024 02:00:00,21.8004996,83.8396977,SO2,21,26,21
India,Odisha,Byasanagar,"Ferro Chrome Colony, Byasanagar - OSPCB",06-06-2024 02:00:00,20.94185,86.11510,NO2,8,16,11
India,Odisha,Byasanagar,"Ferro Chrome Colony, Byasanagar - OSPCB",06-06-2024 02:00:00,20.94185,86.11510,SO2,3,97,26
India,Odisha,Byasanagar,"Ferro Chrome Colony, Byasanagar - OSPCB",06-06-2024 02:00:00,20.94185,86.11510,CO,62,117,87
India,Odisha,Byasanagar,"Ferro Chrome Colony, Byasanagar - OSPCB",06-06-2024 02:00:00,20.94185,86.11510,OZONE,54,275,109
India,Odisha,Cuttack,"CDA Area, Cuttack - OSPCB",06-06-2024 02:00:00,20.48891     ,85.84768     ,CO,15,29,23
India,Odisha,Keonjhar,"Jagamohanpur, Keonjhar - OSPCB",06-06-2024 02:00:00,21.643900,85.599355,OZONE,1,53,7
India,Odisha,Nayagarh,"Dabuna, Nayagarh - OSPCB",06-06-2024 02:00:00,21.847279,85.416905,PM10,55,194,93
India,Odisha,Nayagarh,"Dabuna, Nayagarh - OSPCB",06-06-2024 02:00:00,21.847279,85.416905,NH3,3,4,4
India,Odisha,Nayagarh,"Dabuna, Nayagarh - OSPCB",06-06-2024 02:00:00,21.847279,85.416905,OZONE,10,49,33
India,Odisha,Rairangpur,"Divisional Forest Office, Rairangpur - OSPCB",06-06-2024 02:00:00,22.265816,86.174829,PM10,49,107,72
India,Odisha,Rairangpur,"Divisional Forest Office, Rairangpur - OSPCB",06-06-2024 02:00:00,22.265816,86.174829,OZONE,8,34,18
India,Odisha,Rourkela,"Raghunathpali, Rourkela - OSPCB",06-06-2024 02:00:00,22.220833,84.809444,PM10,69,137,90
India,Odisha,Suakati,"OMC Colony, Suakati - OSPCB",06-06-2024 02:00:00,21.606865,85.510538,PM2.5,59,86,71
India,Odisha,Talcher,"Talcher Coalfields,Talcher - OSPCB",06-06-2024 02:00:00,20.9360711,85.1707021,PM2.5,26,211,72
India,Punjab,Bathinda,"Hardev Nagar, Bathinda - PPCB",06-06-2024 02:00:00,30.233011,74.907758,PM10,NA,NA,NA
India,Punjab,Bathinda,"Hardev Nagar, Bathinda - PPCB",06-06-2024 02:00:00,30.233011,74.907758,NO2,32,33,32
India,Punjab,Bathinda,"Hardev Nagar, Bathinda - PPCB",06-06-2024 02:00:00,30.233011,74.907758,SO2,19,44,31
India,Punjab,Khanna,"Kalal Majra, Khanna - PPCB",06-06-2024 02:00:00,30.736056 ,76.209694,OZONE,6,39,16
India,Punjab,Ludhiana,"Punjab Agricultural University, Ludhiana - PPCB",06-06-2024 02:00:00,30.9028,75.8086,PM10,NA,NA,NA
India,Punjab,Patiala,"Model Town, Patiala - PPCB",06-06-2024 02:00:00,30.349388,76.366642,NH3,4,6,5
India,Punjab,Patiala,"Model Town, Patiala - PPCB",06-06-2024 02:00:00,30.349388,76.366642,OZONE,29,102,58
India,Punjab,Rupnagar,"Ratanpura, Rupnagar - Ambuja Cements",06-06-2024 02:00:00,31.0325454,76.5623046,PM10,102,449,212
India,Punjab,Rupnagar,"Ratanpura, Rupnagar - Ambuja Cements",06-06-2024 02:00:00,31.0325454,76.5623046,SO2,7,10,8
India,Rajasthan,Ajmer,"Civil Lines,  Ajmer - RSPCB",06-06-2024 02:00:00,26.470859,74.646594,PM2.5,30,164,62
India,Rajasthan,Ajmer,"Civil Lines,  Ajmer - RSPCB",06-06-2024 02:00:00,26.470859,74.646594,SO2,2,66,20
India,Rajasthan,Banswara,"Rati Talai, Banswara - RSPCB",06-06-2024 02:00:00,23.555190,74.440010,NO2,5,18,12
India,Rajasthan,Banswara,"Rati Talai, Banswara - RSPCB",06-06-2024 02:00:00,23.555190,74.440010,CO,24,38,28
India,Rajasthan,Baran,"Bamboliya, Baran - RSPCB",06-06-2024 02:00:00,25.106006,76.469948,NO2,5,49,12
India,Rajasthan,Barmer,"Railway Colony, Barmer - RSPCB",06-06-2024 02:00:00,25.747299,71.393989,NH3,4,17,9
India,Rajasthan,Barmer,"Railway Colony, Barmer - RSPCB",06-06-2024 02:00:00,25.747299,71.393989,SO2,3,5,4
India,Rajasthan,Bharatpur,"Krishna Nagar, Bharatpur - RSPCB",06-06-2024 02:00:00,27.215415,77.50873,OZONE,38,93,73
India,Rajasthan,Bhilwara,"Pratap Nagar, Bhilwara - RSPCB",06-06-2024 02:00:00,25.339605,74.618883,PM2.5,22,58,40
India,Rajasthan,Bhilwara,"Pratap Nagar, Bhilwara - RSPCB",06-06-2024 02:00:00,25.339605,74.618883,SO2,9,38,17
India,Rajasthan,Bhilwara,"Pratap Nagar, Bhilwara - RSPCB",06-06-2024 02:00:00,25.339605,74.618883,OZONE,42,73,61
India,Rajasthan,Bhiwadi,"RIICO Ind. Area III, Bhiwadi - RSPCB",06-06-2024 02:00:00,28.194909,76.862296,PM10,97,201,146
India,Rajasthan,Bhiwadi,"RIICO Ind. Area III, Bhiwadi - RSPCB",06-06-2024 02:00:00,28.194909,76.862296,NH3,1,5,3
India,Rajasthan,Bhiwadi,"RIICO Ind. Area III, Bhiwadi - RSPCB",06-06-2024 02:00:00,28.194909,76.862296,CO,4,96,18
India,Rajasthan,Bundi,"New Colony, Bundi - RSPCB",06-06-2024 02:00:00,25.435774,75.644272,PM2.5,17,61,36
India,Rajasthan,Chittorgarh,"Shastri Nagar, Chittorgarh - RSPCB",06-06-2024 02:00:00,24.892047,74.623527,NH3,9,19,16
India,Rajasthan,Chittorgarh,"Shastri Nagar, Chittorgarh - RSPCB",06-06-2024 02:00:00,24.892047,74.623527,OZONE,36,78,71
India,Rajasthan,Dungarpur,"Bhoiwada, Dungarpur - RSPCB",06-06-2024 02:00:00,23.837789,73.714926,PM2.5,33,82,49
India,Rajasthan,Dungarpur,"Bhoiwada, Dungarpur - RSPCB",06-06-2024 02:00:00,23.837789,73.714926,NH3,1,2,2
India,Rajasthan,Dungarpur,"Bhoiwada, Dungarpur - RSPCB",06-06-2024 02:00:00,23.837789,73.714926,CO,2,36,21
India,Rajasthan,Hanumangarh,"Housing Board, Hanumangarh - RSPCB",06-06-2024 02:00:00,29.610750,74.283608,NO2,1,11,3
India,Rajasthan,Hanumangarh,"Housing Board, Hanumangarh - RSPCB",06-06-2024 02:00:00,29.610750,74.283608,NH3,5,24,8
India,Rajasthan,Hanumangarh,"Housing Board, Hanumangarh - RSPCB",06-06-2024 02:00:00,29.610750,74.283608,SO2,1,39,12
India,Rajasthan,Jaipur,"Adarsh Nagar, Jaipur - RSPCB",06-06-2024 02:00:00,26.902909,75.836858,PM10,88,134,111
India,Rajasthan,Jaipur,"Adarsh Nagar, Jaipur - RSPCB",06-06-2024 02:00:00,26.902909,75.836858,SO2,1,60,18
India,Rajasthan,Jaipur,"Adarsh Nagar, Jaipur - RSPCB",06-06-2024 02:00:00,26.902909,75.836858,CO,4,82,43
India,Rajasthan,Jaipur,"Mansarovar Sector-12, Jaipur - RSPCB",06-06-2024 02:00:00,26.843698,75.766894,SO2,3,17,10
India,Rajasthan,Jaipur,"Mansarovar Sector-12, Jaipur - RSPCB",06-06-2024 02:00:00,26.843698,75.766894,OZONE,28,131,43
India,Rajasthan,Jaipur,"Police Commissionerate, Jaipur - RSPCB",06-06-2024 02:00:00,26.9164092,75.7994901,PM2.5,75,261,136
India,Rajasthan,Jaipur,"RIICO Sitapura, Jaipur - RSPCB",06-06-2024 02:00:00,26.786682,75.827928,PM2.5,24,91,48
India,Rajasthan,Jaipur,"Sector-2 Murlipura, Jaipur - RSPCB",06-06-2024 02:00:00,26.960669,75.771817,SO2,5,40,12
India,Rajasthan,Jalore,"Mudtra Sili, Jalore - RSPCB",06-06-2024 02:00:00,25.344694,72.626208,OZONE,41,96,73
India,Rajasthan,Jhalawar,"Rajlaxmi Nagar, Jhalawar - RSPCB",06-06-2024 02:00:00,24.588397,76.172782,PM10,47,128,90
India,Rajasthan,Jhalawar,"Rajlaxmi Nagar, Jhalawar - RSPCB",06-06-2024 02:00:00,24.588397,76.172782,CO,13,34,22
India,Rajasthan,Jhunjhunu,"Indra Nagar, Jhunjhunu - RSPCB",06-06-2024 02:00:00,28.108988,75.386577,PM10,104,332,141
India,Rajasthan,Jhunjhunu,"Indra Nagar, Jhunjhunu - RSPCB",06-06-2024 02:00:00,28.108988,75.386577,SO2,3,6,4
India,Rajasthan,Jodhpur,"Digari Kalan, Jodhpur - RSPCB",06-06-2024 02:00:00,26.295810,73.082283,PM10,87,213,134
India,Rajasthan,Jodhpur,"Digari Kalan, Jodhpur - RSPCB",06-06-2024 02:00:00,26.295810,73.082283,NO2,2,21,8
India,Rajasthan,Jodhpur,"Jhalamand, Jodhpur - RSPCB",06-06-2024 02:00:00,26.215415,73.070156,PM2.5,22,44,33
India,Rajasthan,Jodhpur,"Jhalamand, Jodhpur - RSPCB",06-06-2024 02:00:00,26.215415,73.070156,CO,4,14,11
India,Rajasthan,Jodhpur,"Mandor, Jodhpur - RSPCB",06-06-2024 02:00:00,26.358805,73.047444,NO2,13,33,21
India,Rajasthan,Jodhpur,"Mandor, Jodhpur - RSPCB",06-06-2024 02:00:00,26.358805,73.047444,NH3,3,5,4
India,Rajasthan,Jodhpur,"Mandor, Jodhpur - RSPCB",06-06-2024 02:00:00,26.358805,73.047444,CO,15,24,21
India,Rajasthan,Jodhpur,"Samrat Ashok Udhyan, Jodhpur - RSPCB",06-06-2024 02:00:00,26.253384,72.976571,PM2.5,18,39,29
India,Rajasthan,Kota,"Dhanmandi, Kota - RSPCB",06-06-2024 02:00:00,25.164090,75.858137,NO2,9,50,19
India,Rajasthan,Kota,"Dhanmandi, Kota - RSPCB",06-06-2024 02:00:00,25.164090,75.858137,OZONE,29,105,56
India,Rajasthan,Kota,"Nayapura, Kota - RSPCB",06-06-2024 02:00:00,25.196024,75.855668,PM10,75,128,102
India,Rajasthan,Kota,"Nayapura, Kota - RSPCB",06-06-2024 02:00:00,25.196024,75.855668,SO2,6,26,10
India,Rajasthan,Kota,"Nayapura, Kota - RSPCB",06-06-2024 02:00:00,25.196024,75.855668,CO,10,36,21
India,Rajasthan,Kota,"Nayapura, Kota - RSPCB",06-06-2024 02:00:00,25.196024,75.855668,OZONE,31,99,62
India,Rajasthan,Nagaur,"Karni Colony, Nagaur - RSPCB",06-06-2024 02:00:00,27.213494,73.734444,NO2,4,9,7
India,Rajasthan,Nagaur,"Karni Colony, Nagaur - RSPCB",06-06-2024 02:00:00,27.213494,73.734444,OZONE,35,81,58
India,Rajasthan,Rajsamand,"Dhoinda, Rajsamand - RSPCB",06-06-2024 02:00:00,25.036360,73.883502,PM2.5,5,33,17
India,Rajasthan,Rajsamand,"Dhoinda, Rajsamand - RSPCB",06-06-2024 02:00:00,25.036360,73.883502,PM10,35,72,54
India,Rajasthan,Sikar,"Radhakishan Pura, Sikar - RSPCB",06-06-2024 02:00:00,27.608912,75.153302,PM2.5,26,124,44
India,Rajasthan,Sikar,"Radhakishan Pura, Sikar - RSPCB",06-06-2024 02:00:00,27.608912,75.153302,OZONE,37,67,49
India,Rajasthan,Sirohi,"Vedhaynath Colony, Sirohi - RSPCB",06-06-2024 02:00:00,24.885261,72.857549,NH3,5,13,9
India,Rajasthan,Sirohi,"Vedhaynath Colony, Sirohi - RSPCB",06-06-2024 02:00:00,24.885261,72.857549,CO,8,36,28
India,Rajasthan,Sri Ganganagar,"Old City, Sri Ganganagar - RSPCB",06-06-2024 02:00:00,29.931624,73.864511,PM2.5,130,421,269
India,Rajasthan,Sri Ganganagar,"Old City, Sri Ganganagar - RSPCB",06-06-2024 02:00:00,29.931624,73.864511,PM10,222,456,348
India,Rajasthan,Sri Ganganagar,"Old City, Sri Ganganagar - RSPCB",06-06-2024 02:00:00,29.931624,73.864511,CO,6,76,45
India,Rajasthan,Tonk,"Shastri Nagar, Tonk - RSPCB",06-06-2024 02:00:00,26.159933,75.780517,SO2,3,89,10
India,Rajasthan,Udaipur,"Ashok Nagar, Udaipur - RSPCB",06-06-2024 02:00:00,24.5886166,73.6321397,SO2,1,22,8
India,Sikkim,Gangtok,"Zero Point GICI, Gangtok - SSPCB",06-06-2024 02:00:00,27.338530,88.614099,NO2,1,6,2
India,Sikkim,Gangtok,"Zero Point GICI, Gangtok - SSPCB",06-06-2024 02:00:00,27.338530,88.614099,CO,6,19,14
India,TamilNadu,Ariyalur,"Keelapalur, Ariyalur - TNPCB",06-06-2024 02:00:00,11.06825,79.07033,PM2.5,6,37,20
India,TamilNadu,Chennai,"Alandur Bus Depot, Chennai - CPCB",06-06-2024 02:00:00,12.9099161,80.1076538,NO2,8,56,14
India,TamilNadu,Chennai,"Kodungaiyur, Chennai - TNPCB",06-06-2024 02:00:00,13.1278,80.2642,NO2,13,50,24
India,TamilNadu,Chennai,"Kodungaiyur, Chennai - TNPCB",06-06-2024 02:00:00,13.1278,80.2642,SO2,2,7,4
India,TamilNadu,Chennai,"Perungudi, Chennai - TNPCB",06-06-2024 02:00:00,12.9533,80.2357,OZONE,7,17,15
India,TamilNadu,Chennai,"Royapuram, Chennai - TNPCB",06-06-2024 02:00:00,13.1036,80.2909,PM10,20,72,40
India,TamilNadu,Chennai,"Velachery Res. Area, Chennai - CPCB",06-06-2024 02:00:00,13.0052189,80.2398125,NH3,NA,NA,NA
India,TamilNadu,Coimbatore,"PSG College of Arts and Science, Coimbatore - TNPCB",06-06-2024 02:00:00,11.0328,77.0349,NO2,1,3,1
India,TamilNadu,Coimbatore,"PSG College of Arts and Science, Coimbatore - TNPCB",06-06-2024 02:00:00,11.0328,77.0349,OZONE,3,5,4
India,TamilNadu,Cuddalore,"Kudikadu, Cuddalore - TNPCB",06-06-2024 02:00:00,11.6829898,79.7532099,SO2,10,13,11
India,TamilNadu,Cuddalore,"Semmandalam, Cuddalore - TNPCB",06-06-2024 02:00:00,11.7637683,79.7499835,PM10,NA,NA,NA
India,TamilNadu,Gummidipoondi,"Anthoni Pillai Nagar, Gummidipoondi - TNPCB",06-06-2024 02:00:00,13.4127,80.1081,NO2,20,67,40
India,TamilNadu,Gummidipoondi,"Anthoni Pillai Nagar, Gummidipoondi - TNPCB",06-06-2024 02:00:00,13.4127,80.1081,SO2,1,9,4
India,TamilNadu,Ooty,"Bombay Castel, Ooty - TNPCB",06-06-2024 02:00:00,11.4068288,76.7138973,PM10,NA,NA,NA
India,TamilNadu,Ooty,"Bombay Castel, Ooty - TNPCB",06-06-2024 02:00:00,11.4068288,76.7138973,NH3,NA,NA,NA
India,TamilNadu,Salem,"Sona College of Technology, Salem - TNPCB",06-06-2024 02:00:00,11.679111,78.125052,SO2,NA,NA,NA
India,TamilNadu,Tirupur,"Kumaran College, Tirupur - TNPCB",06-06-2024 02:00:00,11.0973603,77.3228673,PM2.5,NA,NA,NA
India,TamilNadu,Tirupur,"Kumaran College, Tirupur - TNPCB",06-06-2024 02:00:00,11.0973603,77.3228673,NO2,NA,NA,NA
India,TamilNadu,Tirupur,"Kumaran College, Tirupur - TNPCB",06-06-2024 02:00:00,11.0973603,77.3228673,OZONE,7,7,7
India,TamilNadu,Vellore,"Vasanthapuram, Vellore - TNPCB",06-06-2024 02:00:00,12.909494,79.131861,NO2,NA,NA,NA
India,Telangana,Hyderabad,"Bollaram Industrial Area, Hyderabad - TSPCB",06-06-2024 02:00:00,17.540891,78.358528,OZONE,32,36,35
India,Telangana,Hyderabad,"ICRISAT Patancheru, Hyderabad - TSPCB",06-06-2024 02:00:00,17.518400,78.278777,NO2,6,22,11
India,Telangana,Hyderabad,"ICRISAT Patancheru, Hyderabad - TSPCB",06-06-2024 02:00:00,17.518400,78.278777,NH3,1,4,2
India,Telangana,Hyderabad,"IITH Kandi, Hyderabad - TSPCB",06-06-2024 02:00:00,17.585705,78.126199,OZONE,NA,NA,NA
India,Telangana,Hyderabad,"Kokapet, Hyderabad - TSPCB",06-06-2024 02:00:00,17.393559,78.339194,NH3,2,2,2
India,Telangana,Hyderabad,"Nacharam_TSIIC IALA, Hyderabad - TSPCB",06-06-2024 02:00:00,17.429398,78.569354,NO2,17,20,18
India,Telangana,Hyderabad,"Nacharam_TSIIC IALA, Hyderabad - TSPCB",06-06-2024 02:00:00,17.429398,78.569354,OZONE,15,53,27
India,Telangana,Hyderabad,"Ramachandrapuram, Hyderabad - TSPCB",06-06-2024 02:00:00,17.528544,78.286195,PM2.5,41,50,46
India,Telangana,Hyderabad,"Ramachandrapuram, Hyderabad - TSPCB",06-06-2024 02:00:00,17.528544,78.286195,NH3,4,5,5
India,Telangana,Hyderabad,"Somajiguda, Hyderabad - TSPCB",06-06-2024 02:00:00,17.417094,78.457437,PM2.5,NA,NA,NA
India,Telangana,Hyderabad,"Somajiguda, Hyderabad - TSPCB",06-06-2024 02:00:00,17.417094,78.457437,NO2,NA,NA,NA
India,Telangana,Hyderabad,"Zoo Park, Hyderabad - TSPCB",06-06-2024 02:00:00,17.349694,78.451437,PM2.5,NA,NA,NA
India,Tripura,Agartala,"Bardowali, Agartala - Tripura SPCB",06-06-2024 02:00:00,23.8175497,91.2726974,NO2,2,8,4
India,Tripura,Agartala,"Bardowali, Agartala - Tripura SPCB",06-06-2024 02:00:00,23.8175497,91.2726974,NH3,1,2,1
India,Uttar_Pradesh,Agra,"Rohta, Agra - UPPCB",06-06-2024 02:00:00,27.106972,78.000111,SO2,2,10,5
India,Uttar_Pradesh,Agra,"Rohta, Agra - UPPCB",06-06-2024 02:00:00,27.106972,78.000111,OZONE,17,20,20
India,Uttar_Pradesh,Agra,"Sanjay Palace, Agra - UPPCB",06-06-2024 02:00:00,27.19865833,78.00598056,PM2.5,13,36,23
India,Uttar_Pradesh,Agra,"Shahjahan Garden, Agra - UPPCB",06-06-2024 02:00:00,27.169338,78.03582,SO2,22,72,38
India,Uttar_Pradesh,Agra,"Shahjahan Garden, Agra - UPPCB",06-06-2024 02:00:00,27.169338,78.03582,CO,6,26,14
India,Uttar_Pradesh,Baghpat,"Sardar Patel Inter College, Baghpat - UPPCB",06-06-2024 02:00:00,28.964949,77.278761,NO2,8,77,33
India,Uttar_Pradesh,Baghpat,"Sardar Patel Inter College, Baghpat - UPPCB",06-06-2024 02:00:00,28.964949,77.278761,NH3,1,8,3
India,Uttar_Pradesh,Bareilly,"Rajendra Nagar, Bareilly - UPPCB",06-06-2024 02:00:00,28.38910936,79.42963708,PM2.5,17,25,20
India,Uttar_Pradesh,Bareilly,"Rajendra Nagar, Bareilly - UPPCB",06-06-2024 02:00:00,28.38910936,79.42963708,PM10,36,91,48
India,Uttar_Pradesh,Bulandshahr,"Yamunapuram, Bulandshahr - UPPCB",06-06-2024 02:00:00,28.406963,77.849831,NO2,2,63,26
India,Uttar_Pradesh,Bulandshahr,"Yamunapuram, Bulandshahr - UPPCB",06-06-2024 02:00:00,28.406963,77.849831,OZONE,8,107,62
India,Uttar_Pradesh,Firozabad,"Nagla Bhau, Firozabad - UPPCB",06-06-2024 02:00:00,27.168897,78.376960,OZONE,14,19,16
India,Uttar_Pradesh,Firozabad,"Vibhab Nagar, Firozabad - UPPCB",06-06-2024 02:00:00,27.1594,78.3953,NO2,13,14,14
India,Uttar_Pradesh,Firozabad,"Vibhab Nagar, Firozabad - UPPCB",06-06-2024 02:00:00,27.1594,78.3953,OZONE,7,76,35
India,Uttar_Pradesh,Ghaziabad,"Indirapuram, Ghaziabad - UPPCB",06-06-2024 02:00:00,28.646233,77.358075,NH3,12,20,16
India,Uttar_Pradesh,Ghaziabad,"Sanjay Nagar, Ghaziabad - UPPCB",06-06-2024 02:00:00,28.685382,77.453839,OZONE,2,118,62
India,Uttar_Pradesh,Greater Noida,"Knowledge Park - III, Greater Noida - UPPCB",06-06-2024 02:00:00,28.47272,77.482000,PM10,108,414,275
India,Uttar_Pradesh,Greater Noida,"Knowledge Park - V, Greater Noida - UPPCB",06-06-2024 02:00:00,28.557054,77.453663,CO,6,103,50
India,Uttar_Pradesh,Jhansi,"Shivaji Nagar, Jhansi - UPPCB",06-06-2024 02:00:00,25.4547,78.6039,NH3,6,6,6
India,Uttar_Pradesh,Jhansi,"Shivaji Nagar, Jhansi - UPPCB",06-06-2024 02:00:00,25.4547,78.6039,SO2,16,21,18
India,Uttar_Pradesh,Jhansi,"Shivaji Nagar, Jhansi - UPPCB",06-06-2024 02:00:00,25.4547,78.6039,OZONE,10,65,36
India,Uttar_Pradesh,Kanpur,"FTI Kidwai Nagar, Kanpur - UPPCB",06-06-2024 02:00:00,26.428282,80.327067,SO2,13,19,14
India,Uttar_Pradesh,Kanpur,"Nehru Nagar, Kanpur - UPPCB",06-06-2024 02:00:00,26.4703136,80.3229863,NO2,24,53,40
India,Uttar_Pradesh,Kanpur,"Nehru Nagar, Kanpur - UPPCB",06-06-2024 02:00:00,26.4703136,80.3229863,SO2,6,13,10
India,Uttar_Pradesh,Khurja,"Kalindi Kunj, Khurja - UPPCB",06-06-2024 02:00:00,28.2348927,77.8683002,SO2,105,138,116
India,Uttar_Pradesh,Lucknow,"Gomti Nagar, Lucknow - UPPCB",06-06-2024 02:00:00,26.868120,81.005119,SO2,7,15,11
India,Uttar_Pradesh,Lucknow,"Gomti Nagar, Lucknow - UPPCB",06-06-2024 02:00:00,26.868120,81.005119,OZONE,41,53,48
India,Uttar_Pradesh,Lucknow,"Kendriya Vidyalaya, Lucknow - CPCB",06-06-2024 02:00:00,26.906111,80.948222,OZONE,16,107,68
India,Uttar_Pradesh,Meerut,"Jai Bhim Nagar, Meerut - UPPCB",06-06-2024 02:00:00,28.9535882,77.7622941,PM2.5,37,197,125
India,Uttar_Pradesh,Meerut,"Jai Bhim Nagar, Meerut - UPPCB",06-06-2024 02:00:00,28.9535882,77.7622941,CO,14,57,31
India,Uttar_Pradesh,Meerut,"Jai Bhim Nagar, Meerut - UPPCB",06-06-2024 02:00:00,28.9535882,77.7622941,OZONE,13,133,59
India,Uttar_Pradesh,Meerut,"Pallavpuram Phase 2, Meerut - UPPCB",06-06-2024 02:00:00,29.063510,77.709723,NO2,11,55,21
India,Uttar_Pradesh,Meerut,"Pallavpuram Phase 2, Meerut - UPPCB",06-06-2024 02:00:00,29.063510,77.709723,NH3,5,14,8
India,Uttar_Pradesh,Moradabad,"Buddhi Vihar, Moradabad - UPPCB",06-06-2024 02:00:00,28.83526,78.74460,NO2,23,23,23
India,Uttar_Pradesh,Moradabad,"Buddhi Vihar, Moradabad - UPPCB",06-06-2024 02:00:00,28.83526,78.74460,OZONE,37,101,59
India,Uttar_Pradesh,Moradabad,"Eco Herbal Park, Moradabad - UPPCB",06-06-2024 02:00:00,28.840739,78.697531,NO2,13,45,20
India,Uttar_Pradesh,Moradabad,"Employment Office, Moradabad - UPPCB",06-06-2024 02:00:00,28.88528,78.73880,NH3,2,4,4
India,Uttar_Pradesh,Moradabad,"Jigar Colony, Moradabad - UPPCB",06-06-2024 02:00:00,28.856664,78.772638,PM2.5,24,62,41
India,Uttar_Pradesh,Moradabad,"Jigar Colony, Moradabad - UPPCB",06-06-2024 02:00:00,28.856664,78.772638,CO,8,42,28
India,Uttar_Pradesh,Moradabad,"Kashiram Nagar, Moradabad - UPPCB",06-06-2024 02:00:00,28.849399,78.742362,OZONE,10,106,54
India,Uttar_Pradesh,Moradabad,"Transport Nagar, Moradabad - UPPCB",06-06-2024 02:00:00,28.802625,78.753728,PM10,43,145,88
India,Uttar_Pradesh,Moradabad,"Transport Nagar, Moradabad - UPPCB",06-06-2024 02:00:00,28.802625,78.753728,OZONE,10,45,32
India,Uttar_Pradesh,Muzaffarnagar,"New Mandi, Muzaffarnagar - UPPCB",06-06-2024 02:00:00,29.4723508,77.7194031,CO,8,54,28
India,Uttar_Pradesh,Muzaffarnagar,"New Mandi, Muzaffarnagar - UPPCB",06-06-2024 02:00:00,29.4723508,77.7194031,OZONE,18,91,52
India,Uttar_Pradesh,Noida,"Sector - 62, Noida - IMD",06-06-2024 02:00:00,28.6245479,77.3577104,PM2.5,46,148,103
India,Uttar_Pradesh,Noida,"Sector - 62, Noida - IMD",06-06-2024 02:00:00,28.6245479,77.3577104,OZONE,8,44,33
India,Uttar_Pradesh,Noida,"Sector-1, Noida - UPPCB",06-06-2024 02:00:00,28.5898,77.3101,PM10,165,402,262
India,Uttar_Pradesh,Noida,"Sector-116, Noida - UPPCB",06-06-2024 02:00:00,28.569230,77.393848,PM2.5,45,336,120
India,Uttar_Pradesh,Prayagraj,"Jhunsi, Prayagraj - UPPCB",06-06-2024 02:00:00,25.425602,81.917152,PM10,61,157,95
India,Uttar_Pradesh,Prayagraj,"Jhunsi, Prayagraj - UPPCB",06-06-2024 02:00:00,25.425602,81.917152,OZONE,17,99,65
India,Uttar_Pradesh,Prayagraj,"Nagar Nigam, Prayagraj - UPPCB",06-06-2024 02:00:00,25.44919916 ,81.82735986 ,PM10,51,129,78
India,Uttar_Pradesh,Prayagraj,"Nagar Nigam, Prayagraj - UPPCB",06-06-2024 02:00:00,25.44919916 ,81.82735986 ,NH3,2,5,3
India,Uttar_Pradesh,Varanasi,"Bhelupur, Varanasi - UPPCB",06-06-2024 02:00:00,25.301778,82.996789,OZONE,4,31,20
India,Uttar_Pradesh,Varanasi,"IESD Banaras Hindu University, Varanasi - UPPCB",06-06-2024 02:00:00,25.262326,82.995408,NO2,2,3,2
India,Uttar_Pradesh,Varanasi,"IESD Banaras Hindu University, Varanasi - UPPCB",06-06-2024 02:00:00,25.262326,82.995408,SO2,18,22,20
India,Uttar_Pradesh,Vrindavan,"Omex Eternity, Vrindavan - UPPCB",06-06-2024 02:00:00,27.5714090,77.6557570,PM10,44,401,122
India,Uttar_Pradesh,Vrindavan,"Omex Eternity, Vrindavan - UPPCB",06-06-2024 02:00:00,27.5714090,77.6557570,OZONE,20,29,22
India,Uttarakhand,Dehradun,"Doon University, Dehradun - UKPCB",06-06-2024 02:00:00,30.269444,78.044167,PM10,19,204,101
India,Uttarakhand,Dehradun,"Doon University, Dehradun - UKPCB",06-06-2024 02:00:00,30.269444,78.044167,NO2,1,4,2
India,Uttarakhand,Dehradun,"Doon University, Dehradun - UKPCB",06-06-2024 02:00:00,30.269444,78.044167,OZONE,49,133,81
India,West_Bengal,Asansol,"Asansol Court Area, Asansol - WBPCB",06-06-2024 02:00:00,23.685297,86.945968,PM10,40,121,82
India,West_Bengal,Asansol,"Evelyn Lodge, Asansol - WBPCB",06-06-2024 02:00:00,23.6979360,86.9443950,CO,57,84,73
India,West_Bengal,Durgapur,"PCBL Residential Complex, Durgapur - WBPCB",06-06-2024 02:00:00,23.5087640,87.3544400,PM2.5,NA,NA,NA
India,West_Bengal,Durgapur,"PCBL Residential Complex, Durgapur - WBPCB",06-06-2024 02:00:00,23.5087640,87.3544400,OZONE,11,11,11
India,West_Bengal,Durgapur,"Sidhu Kanhu Indoor Stadium, Durgapur - WBPCB",06-06-2024 02:00:00,23.5404352,87.2892225,PM2.5,52,310,121
India,West_Bengal,Durgapur,"Sidhu Kanhu Indoor Stadium, Durgapur - WBPCB",06-06-2024 02:00:00,23.5404352,87.2892225,NO2,21,50,32
India,West_Bengal,Haldia,"Priyambada Housing Estate, Haldia - WBPCB",06-06-2024 02:00:00,22.06047,88.109737,OZONE,24,77,30
India,West_Bengal,Howrah,"Ghusuri, Howrah - WBPCB",06-06-2024 02:00:00,22.611968,88.347422,NH3,NA,NA,NA
India,West_Bengal,Howrah,"Padmapukur, Howrah - WBPCB",06-06-2024 02:00:00,22.5687319,88.2797276,PM10,62,95,82
India,West_Bengal,Howrah,"Padmapukur, Howrah - WBPCB",06-06-2024 02:00:00,22.5687319,88.2797276,NH3,6,9,8
India,West_Bengal,Howrah,"Padmapukur, Howrah - WBPCB",06-06-2024 02:00:00,22.5687319,88.2797276,SO2,7,72,21
India,West_Bengal,Kolkata,"Ballygunge, Kolkata - WBPCB",06-06-2024 02:00:00,22.5367507,88.3638022,SO2,2,17,7
India,West_Bengal,Kolkata,"Bidhannagar, Kolkata - WBPCB",06-06-2024 02:00:00,22.58157048,88.41002457,PM2.5,24,79,52
India,West_Bengal,Kolkata,"Bidhannagar, Kolkata - WBPCB",06-06-2024 02:00:00,22.58157048,88.41002457,SO2,8,16,12
India,West_Bengal,Kolkata,"Jadavpur, Kolkata - WBPCB",06-06-2024 02:00:00,22.49929,88.36917,NO2,12,18,14
India,West_Bengal,Kolkata,"Jadavpur, Kolkata - WBPCB",06-06-2024 02:00:00,22.49929,88.36917,NH3,4,5,5
India,West_Bengal,Kolkata,"Rabindra Bharati University, Kolkata - WBPCB",06-06-2024 02:00:00,22.627847,88.380669,PM10,44,82,64
India,West_Bengal,Kolkata,"Rabindra Bharati University, Kolkata - WBPCB",06-06-2024 02:00:00,22.627847,88.380669,NO2,48,53,51
India,West_Bengal,Kolkata,"Rabindra Sarobar, Kolkata - WBPCB",06-06-2024 02:00:00,22.51106,88.35142,OZONE,8,56,30
India,West_Bengal,Kolkata,"Victoria, Kolkata - WBPCB",06-06-2024 02:00:00,22.5448082,88.3403691,PM2.5,30,58,47
India,West_Bengal,Kolkata,"Victoria, Kolkata - WBPCB",06-06-2024 02:00:00,22.5448082,88.3403691,OZONE,8,50,26
India,West_Bengal,Siliguri,"Ward-32 Bapupara, Siliguri - WBPCB",06-06-2024 02:00:00,26.6879226,88.4152495,NH3,10,11,10
India,Andhra_Pradesh,Amaravati,"Secretariat, Amaravati - APPCB",06-06-2024 02:00:00,16.5150833,80.5181667,PM2.5,10,26,18
India,Andhra_Pradesh,Amaravati,"Secretariat, Amaravati - APPCB",06-06-2024 02:00:00,16.5150833,80.5181667,PM10,8,95,30
India,Andhra_Pradesh,Amaravati,"Secretariat, Amaravati - APPCB",06-06-2024 02:00:00,16.5150833,80.5181667,NO2,4,13,8
India,Andhra_Pradesh,Anantapur,"Gulzarpet, Anantapur - APPCB",06-06-2024 02:00:00,14.675886,77.593027,PM2.5,21,34,28
India,Andhra_Pradesh,Anantapur,"Gulzarpet, Anantapur - APPCB",06-06-2024 02:00:00,14.675886,77.593027,PM10,40,70,47
India,Andhra_Pradesh,Anantapur,"Gulzarpet, Anantapur - APPCB",06-06-2024 02:00:00,14.675886,77.593027,SO2,1,3,2
India,Andhra_Pradesh,Anantapur,"Gulzarpet, Anantapur - APPCB",06-06-2024 02:00:00,14.675886,77.593027,CO,15,48,31
India,Andhra_Pradesh,Anantapur,"Gulzarpet, Anantapur - APPCB",06-06-2024 02:00:00,14.675886,77.593027,OZONE,3,25,13
India,Andhra_Pradesh,Kadapa,"Yerramukkapalli, Kadapa - APPCB",06-06-2024 02:00:00,14.465052,78.824187,PM10,29,142,45
India,Andhra_Pradesh,Rajamahendravaram,"Anand Kala Kshetram, Rajamahendravaram - APPCB",06-06-2024 02:00:00,16.9872867,81.7363176,CO,22,40,32
India,Andhra_Pradesh,Tirupati,"Tirumala, Tirupati - APPCB",06-06-2024 02:00:00,13.67,79.35,PM2.5,7,36,21
India,Andhra_Pradesh,Tirupati,"Tirumala, Tirupati - APPCB",06-06-2024 02:00:00,13.67,79.35,CO,29,56,38
India,Andhra_Pradesh,Tirupati,"Vaikuntapuram, Tirupati - APPCB",06-06-2024 02:00:00,13.615387,79.409230,SO2,7,8,8
India,Andhra_Pradesh,Vijayawada,"HB Colony, Vijayawada - APPCB",06-06-2024 02:00:00,16.536107,80.594233,SO2,6,7,6
India,Andhra_Pradesh,Vijayawada,"HB Colony, Vijayawada - APPCB",06-06-2024 02:00:00,16.536107,80.594233,CO,32,38,38
India,Andhra_Pradesh,Vijayawada,"Rajiv Gandhi Park, Vijayawada - APPCB",06-06-2024 02:00:00,16.509717,80.612222,PM2.5,41,76,52
India,Andhra_Pradesh,Vijayawada,"Rajiv Gandhi Park, Vijayawada - APPCB",06-06-2024 02:00:00,16.509717,80.612222,NH3,2,6,4
India,Andhra_Pradesh,Vijayawada,"Rajiv Gandhi Park, Vijayawada - APPCB",06-06-2024 02:00:00,16.509717,80.612222,CO,36,38,38
India,Andhra_Pradesh,Vijayawada,"Rajiv Gandhi Park, Vijayawada - APPCB",06-06-2024 02:00:00,16.509717,80.612222,OZONE,25,58,44
India,Andhra_Pradesh,Visakhapatnam,"GVM Corporation, Visakhapatnam - APPCB",06-06-2024 02:00:00,17.72,83.3,PM10,37,165,105
India,Andhra_Pradesh,Visakhapatnam,"GVM Corporation, Visakhapatnam - APPCB",06-06-2024 02:00:00,17.72,83.3,OZONE,5,17,11
India,Assam,Byrnihat,"Central Academy for SFS, Byrnihat - PCBA",06-06-2024 02:00:00,26.071318,91.87488,PM2.5,28,437,183
India,Assam,Byrnihat,"Central Academy for SFS, Byrnihat - PCBA",06-06-2024 02:00:00,26.071318,91.87488,CO,3,16,5
India,Assam,Byrnihat,"Central Academy for SFS, Byrnihat - PCBA",06-06-2024 02:00:00,26.071318,91.87488,OZONE,20,129,22
India,Assam,Guwahati,"IITG, Guwahati - PCBA",06-06-2024 02:00:00,26.2028636,91.70046436,SO2,12,13,12
India,Assam,Guwahati,"IITG, Guwahati - PCBA",06-06-2024 02:00:00,26.2028636,91.70046436,CO,8,14,11
India,Assam,Guwahati,"LGBI Airport, Guwahati - PCBA",06-06-2024 02:00:00,26.10887,91.589544,PM2.5,5,345,70
India,Assam,Guwahati,"LGBI Airport, Guwahati - PCBA",06-06-2024 02:00:00,26.10887,91.589544,SO2,6,15,10
India,Assam,Guwahati,"LGBI Airport, Guwahati - PCBA",06-06-2024 02:00:00,26.10887,91.589544,CO,42,70,60
India,Assam,Guwahati,"Pan Bazaar, Guwahati - PCBA",06-06-2024 02:00:00,26.187500,91.744194,CO,18,52,40
India,Assam,Nagaon,"Christianpatty, Nagaon - PCBA",06-06-2024 02:00:00,26.349082,92.68449,NH3,1,33,3
India,Assam,Nagaon,"Christianpatty, Nagaon - PCBA",06-06-2024 02:00:00,26.349082,92.68449,SO2,1,56,13
India,Assam,Sivasagar,"Girls College, Sivasagar - PCBA",06-06-2024 02:00:00,26.987634,94.636574,PM10,44,74,52
India,Assam,Sivasagar,"Girls College, Sivasagar - PCBA",06-06-2024 02:00:00,26.987634,94.636574,NH3,2,2,2
India,Assam,Sivasagar,"Girls College, Sivasagar - PCBA",06-06-2024 02:00:00,26.987634,94.636574,SO2,6,7,6
India,Bihar,Araria,"Kharahiya Basti, Araria - BSPCB",06-06-2024 02:00:00,26.146529,87.454184,OZONE,NA,NA,NA
India,Bihar,Arrah,"New DM Office, Arrah - BSPCB",06-06-2024 02:00:00,25.5626095,84.663264,NO2,9,13,10
India,Bihar,Arrah,"New DM Office, Arrah - BSPCB",06-06-2024 02:00:00,25.5626095,84.663264,NH3,4,8,6
India,Bihar,Aurangabad,"Gurdeo Nagar, Aurangabad - BSPCB",06-06-2024 02:00:00,24.75746,84.366208,NO2,3,11,6
India,Bihar,Aurangabad,"Gurdeo Nagar, Aurangabad - BSPCB",06-06-2024 02:00:00,24.75746,84.366208,CO,10,45,22
India,Bihar,Bettiah,"Kamalnath Nagar, Bettiah - BSPCB",06-06-2024 02:00:00,26.80365,84.51954,PM10,NA,NA,NA
India,Bihar,Bhagalpur,"DM Office_Kachari Chowk, Bhagalpur - BSPCB",06-06-2024 02:00:00,25.251013,86.989001,PM2.5,58,243,115
India,Bihar,Bhagalpur,"DM Office_Kachari Chowk, Bhagalpur - BSPCB",06-06-2024 02:00:00,25.251013,86.989001,NO2,25,61,38
India,Bihar,Bhagalpur,"DM Office_Kachari Chowk, Bhagalpur - BSPCB",06-06-2024 02:00:00,25.251013,86.989001,SO2,28,43,35
India,Bihar,Bhagalpur,"DM Office_Kachari Chowk, Bhagalpur - BSPCB",06-06-2024 02:00:00,25.251013,86.989001,CO,32,94,58
India,Bihar,Bhagalpur,"Mayaganj, Bhagalpur - BSPCB",06-06-2024 02:00:00,25.265194,87.012947,PM10,58,119,93
India,Bihar,Bhagalpur,"Mayaganj, Bhagalpur - BSPCB",06-06-2024 02:00:00,25.265194,87.012947,NH3,8,9,9
India,Bihar,Bhagalpur,"Mayaganj, Bhagalpur - BSPCB",06-06-2024 02:00:00,25.265194,87.012947,OZONE,10,62,27
India,Bihar,Bihar Sharif,"D M Colony, Bihar Sharif - BSPCB",06-06-2024 02:00:00,25.204762,85.514960,PM2.5,17,120,61
India,Bihar,Buxar,"Charitra Van, Buxar - BSPCB (Formerly known as Central Jail)",06-06-2024 02:00:00,25.567520,83.966379,CO,24,102,66
India,Bihar,Chhapra,"Darshan Nagar, Chhapra - BSPCB",06-06-2024 02:00:00,25.7808257,84.7446768,SO2,12,24,18
India,Bihar,Gaya,"Kareemganj, Gaya - BSPCB",06-06-2024 02:00:00,24.792403,84.992416,NO2,19,22,21
India,Bihar,Gaya,"Kareemganj, Gaya - BSPCB",06-06-2024 02:00:00,24.792403,84.992416,SO2,10,10,10
India,Bihar,Gaya,"Kareemganj, Gaya - BSPCB",06-06-2024 02:00:00,24.792403,84.992416,CO,22,23,22
India,Bihar,Hajipur,"Industrial Area, Hajipur - BSPCB",06-06-2024 02:00:00,25.697189,85.245900,PM2.5,77,233,124
India,Bihar,Hajipur,"Industrial Area, Hajipur - BSPCB",06-06-2024 02:00:00,25.697189,85.245900,NH3,11,14,13
India,Bihar,Hajipur,"Industrial Area, Hajipur - BSPCB",06-06-2024 02:00:00,25.697189,85.245900,CO,12,30,26
India,Bihar,Katihar,"Mirchaibari, Katihar - BSPCB",06-06-2024 02:00:00,25.560083,87.553265,SO2,2,14,9
India,Bihar,Kishanganj,"SDM Office_Khagra, Kishanganj - BSPCB",06-06-2024 02:00:00,26.0881305,87.93840336,NO2,33,46,39
India,Bihar,Kishanganj,"SDM Office_Khagra, Kishanganj - BSPCB",06-06-2024 02:00:00,26.0881305,87.93840336,OZONE,10,39,17
India,Bihar,Muzaffarpur,"Buddha Colony, Muzaffarpur - BSPCB",06-06-2024 02:00:00,26.11442,85.39813,PM2.5,50,115,76
India,Bihar,Muzaffarpur,"Muzaffarpur Collectorate, Muzaffarpur - BSPCB",06-06-2024 02:00:00,26.1209,85.3647,PM2.5,38,500,243
India,Bihar,Patna,"Muradpur, Patna - BSPCB",06-06-2024 02:00:00,25.619651,85.147382,NH3,1,7,5
India,Bihar,Patna,"Rajbansi Nagar, Patna - BSPCB",06-06-2024 02:00:00,25.599486,85.113666,PM10,93,152,116
India,Bihar,Patna,"Samanpura, Patna - BSPCB",06-06-2024 02:00:00,25.596727,85.085624,NO2,4,17,9
India,Bihar,Patna,"Samanpura, Patna - BSPCB",06-06-2024 02:00:00,25.596727,85.085624,OZONE,44,152,77
India,Bihar,Rajgir,"Dangi Tola, Rajgir - BSPCB",06-06-2024 02:00:00,25.03280,85.41948,NO2,14,15,15
India,Bihar,Rajgir,"Dangi Tola, Rajgir - BSPCB",06-06-2024 02:00:00,25.03280,85.41948,NH3,2,2,2
India,Bihar,Saharsa,"Police Line, Saharsa - BSPCB",06-06-2024 02:00:00,25.892357,86.590325,PM10,34,191,74
India,Bihar,Saharsa,"Police Line, Saharsa - BSPCB",06-06-2024 02:00:00,25.892357,86.590325,NO2,6,8,7
India,Bihar,Samastipur,"DM Office_Kasipur, Samastipur - BSPCB",06-06-2024 02:00:00,25.859655,85.77944,PM2.5,NA,NA,NA
India,Bihar,Sasaram,"Dada Peer, Sasaram - BSPCB",06-06-2024 02:00:00,24.952822,84.002396,PM10,19,76,44
India,Bihar,Sasaram,"Dada Peer, Sasaram - BSPCB",06-06-2024 02:00:00,24.952822,84.002396,OZONE,21,85,42
India,Chandigarh,Chandigarh,"Sector-25, Chandigarh - CPCC",06-06-2024 02:00:00,30.751462,76.762879,NH3,11,20,14
India,Chandigarh,Chandigarh,"Sector-53, Chandigarh - CPCC",06-06-2024 02:00:00,30.719859,76.738637,NO2,6,71,22
India,Chandigarh,Chandigarh,"Sector-53, Chandigarh - CPCC",06-06-2024 02:00:00,30.719859,76.738637,SO2,2,83,11
India,Chandigarh,Chandigarh,"Sector-53, Chandigarh - CPCC",06-06-2024 02:00:00,30.719859,76.738637,CO,34,68,39
India,Chhattisgarh,Bhilai,"32Bungalows, Bhilai - CECB",06-06-2024 02:00:00,21.194815,81.314770,PM10,30,89,52
India,Chhattisgarh,Bhilai,"32Bungalows, Bhilai - CECB",06-06-2024 02:00:00,21.194815,81.314770,NH3,6,7,7
India,Chhattisgarh,Bhilai,"Civic Center, Bhilai - Bhilai Steel Plant",06-06-2024 02:00:00,21.185571,81.343175,SO2,9,11,10
India,Chhattisgarh,Bhilai,"Civic Center, Bhilai - Bhilai Steel Plant",06-06-2024 02:00:00,21.185571,81.343175,OZONE,9,67,36
India,Chhattisgarh,Bhilai,"Hathkhoj, Bhilai - CECB",06-06-2024 02:00:00,21.224231,81.408350,PM10,33,78,50
India,Chhattisgarh,Bilaspur,"Mangala, Bilaspur - NTPC",06-06-2024 02:00:00,22.08815,82.13737,PM10,18,97,43
India,Chhattisgarh,Korba,"Urja Nagar, Korba - CECB",06-06-2024 02:00:00,22.348441,82.549611,NO2,43,55,49
India,Chhattisgarh,Korba,"Urja Nagar, Korba - CECB",06-06-2024 02:00:00,22.348441,82.549611,CO,24,82,52
India,Chhattisgarh,Kunjemura,"OP Jindal School, Kunjemura - CECB",06-06-2024 02:00:00,22.126650,83.483212,PM10,49,269,99
India,Chhattisgarh,Kunjemura,"OP Jindal School, Kunjemura - CECB",06-06-2024 02:00:00,22.126650,83.483212,NH3,2,3,2
India,Chhattisgarh,Raipur,"AIIMS, Raipur - CECB",06-06-2024 02:00:00,21.258815,81.578979,OZONE,4,44,12
India,Chhattisgarh,Raipur,"Bhatagaon New ISBT, Raipur - CECB",06-06-2024 02:00:00,21.219665,81.630094,PM2.5,15,32,25
India,Chhattisgarh,Raipur,"Bhatagaon New ISBT, Raipur - CECB",06-06-2024 02:00:00,21.219665,81.630094,PM10,24,51,37
India,Chhattisgarh,Raipur,"Siltara Phase-II, Raipur - CECB",06-06-2024 02:00:00,21.371751,81.664929,NH3,3,3,3
India,Chhattisgarh,Tumidih,"OP Jindal Industrial Park, Tumidih - CECB",06-06-2024 02:00:00,22.06631475,83.33820077,OZONE,NA,NA,NA
India,Delhi,Delhi,"Alipur, Delhi - DPCC",06-06-2024 02:00:00,28.815329,77.153010,NH3,3,7,5
India,Delhi,Delhi,"Alipur, Delhi - DPCC",06-06-2024 02:00:00,28.815329,77.153010,CO,34,80,43
India,Delhi,Delhi,"Anand Vihar, Delhi - DPCC",06-06-2024 02:00:00,28.647622,77.3158090,PM10,147,500,359
India,Delhi,Delhi,"Ashok Vihar, Delhi - DPCC",06-06-2024 02:00:00,28.695381,77.181665,NO2,15,94,33
India,Delhi,Delhi,"Ashok Vihar, Delhi - DPCC",06-06-2024 02:00:00,28.695381,77.181665,SO2,9,28,17
India,Delhi,Delhi,"Ashok Vihar, Delhi - DPCC",06-06-2024 02:00:00,28.695381,77.181665,OZONE,6,90,64
India,Delhi,Delhi,"Bawana, Delhi - DPCC",06-06-2024 02:00:00,28.776200,77.051074,SO2,8,48,20
India,Delhi,Delhi,"Burari Crossing, Delhi - IMD",06-06-2024 02:00:00,28.7256504,77.2011573,PM2.5,70,217,134
India,Delhi,Delhi,"Burari Crossing, Delhi - IMD",06-06-2024 02:00:00,28.7256504,77.2011573,OZONE,29,175,43
India,Delhi,Delhi,"CRRI Mathura Road, Delhi - IMD",06-06-2024 02:00:00,28.5512005,77.2735737,PM2.5,52,320,186
India,Delhi,Delhi,"CRRI Mathura Road, Delhi - IMD",06-06-2024 02:00:00,28.5512005,77.2735737,NO2,8,25,15
India,Delhi,Delhi,"CRRI Mathura Road, Delhi - IMD",06-06-2024 02:00:00,28.5512005,77.2735737,CO,20,67,37
India,Delhi,Delhi,"Chandni Chowk, Delhi - IITM",06-06-2024 02:00:00,28.656756,77.227234,PM2.5,314,375,341
India,Delhi,Delhi,"DTU, Delhi - CPCB",06-06-2024 02:00:00,28.7500499,77.1112615,NH3,12,15,14
India,Delhi,Delhi,"DTU, Delhi - CPCB",06-06-2024 02:00:00,28.7500499,77.1112615,SO2,39,50,42
India,Delhi,Delhi,"Dr. Karni Singh Shooting Range, Delhi - DPCC",06-06-2024 02:00:00,28.498571,77.264840,PM2.5,52,254,115
India,Delhi,Delhi,"Dwarka-Sector 8, Delhi - DPCC ",06-06-2024 02:00:00,28.5710274,77.0719006,PM10,115,456,256
India,Delhi,Delhi,"Dwarka-Sector 8, Delhi - DPCC ",06-06-2024 02:00:00,28.5710274,77.0719006,SO2,7,20,12
India,Delhi,Delhi,"IGI Airport (T3), Delhi - IMD",06-06-2024 02:00:00,28.5627763,77.1180053,CO,36,64,45
India,Delhi,Delhi,"ITO, Delhi - CPCB",06-06-2024 02:00:00,28.628624,77.241060,CO,16,68,37
India,Delhi,Delhi,"Jahangirpuri, Delhi - DPCC",06-06-2024 02:00:00,28.732820,77.170633,PM2.5,60,307,124
India,Delhi,Delhi,"Jahangirpuri, Delhi - DPCC",06-06-2024 02:00:00,28.732820,77.170633,PM10,127,434,302
India,Delhi,Delhi,"Jahangirpuri, Delhi - DPCC",06-06-2024 02:00:00,28.732820,77.170633,NH3,2,12,9
India,Delhi,Delhi,"Jawaharlal Nehru Stadium, Delhi - DPCC",06-06-2024 02:00:00,28.580280,77.233829,NO2,NA,NA,NA
India,Delhi,Delhi,"Jawaharlal Nehru Stadium, Delhi - DPCC",06-06-2024 02:00:00,28.580280,77.233829,NH3,NA,NA,NA
India,Delhi,Delhi,"Jawaharlal Nehru Stadium, Delhi - DPCC",06-06-2024 02:00:00,28.580280,77.233829,CO,1,156,156
India,Delhi,Delhi,"Lodhi Road, Delhi - IMD",06-06-2024 02:00:00,28.5918245,77.2273074,PM2.5,39,188,86
India,Delhi,Delhi,"Lodhi Road, Delhi - IMD",06-06-2024 02:00:00,28.5918245,77.2273074,CO,26,44,32
India,Delhi,Delhi,"Mandir Marg, Delhi - DPCC",06-06-2024 02:00:00,28.636429,77.201067,PM2.5,10,260,102
India,Delhi,Delhi,"Mandir Marg, Delhi - DPCC",06-06-2024 02:00:00,28.636429,77.201067,NH3,3,5,4
India,Delhi,Delhi,"Mandir Marg, Delhi - DPCC",06-06-2024 02:00:00,28.636429,77.201067,OZONE,9,72,64
India,Delhi,Delhi,"Mundka, Delhi - DPCC",06-06-2024 02:00:00,28.684678,77.076574,NO2,25,107,55
India,Delhi,Delhi,"Narela, Delhi - DPCC",06-06-2024 02:00:00,28.822836,77.101981,PM2.5,82,311,171
India,Delhi,Delhi,"New Moti Bagh, Delhi - MHUA",06-06-2024 02:00:00,28.57834,77.18400,PM2.5,44,337,146
India,Delhi,Delhi,"New Moti Bagh, Delhi - MHUA",06-06-2024 02:00:00,28.57834,77.18400,NO2,5,28,12
India,Delhi,Delhi,"North Campus, DU, Delhi - IMD",06-06-2024 02:00:00,28.6573814,77.1585447,CO,32,99,43
India,Delhi,Delhi,"Okhla Phase-2, Delhi - DPCC",06-06-2024 02:00:00,28.530785,77.271255,PM2.5,45,170,81
India,Delhi,Delhi,"Okhla Phase-2, Delhi - DPCC",06-06-2024 02:00:00,28.530785,77.271255,NH3,8,14,11
India,Delhi,Delhi,"Okhla Phase-2, Delhi - DPCC",06-06-2024 02:00:00,28.530785,77.271255,CO,42,111,91
India,Delhi,Delhi,"Patparganj, Delhi - DPCC",06-06-2024 02:00:00,28.623763,77.287209,SO2,8,29,16
India,Delhi,Delhi,"Patparganj, Delhi - DPCC",06-06-2024 02:00:00,28.623763,77.287209,OZONE,1,55,45
India,Delhi,Delhi,"Punjabi Bagh, Delhi - DPCC",06-06-2024 02:00:00,28.674045,77.131023,PM2.5,55,309,161
India,Delhi,Delhi,"Punjabi Bagh, Delhi - DPCC",06-06-2024 02:00:00,28.674045,77.131023,NO2,9,82,27
India,Delhi,Delhi,"Punjabi Bagh, Delhi - DPCC",06-06-2024 02:00:00,28.674045,77.131023,SO2,4,55,24
India,Delhi,Delhi,"Punjabi Bagh, Delhi - DPCC",06-06-2024 02:00:00,28.674045,77.131023,OZONE,16,87,34
India,Delhi,Delhi,"Pusa, Delhi - DPCC",06-06-2024 02:00:00,28.639652,77.146275,PM10,116,500,258
India,Delhi,Delhi,"Pusa, Delhi - DPCC",06-06-2024 02:00:00,28.639652,77.146275,SO2,2,16,8
India,Delhi,Delhi,"R K Puram, Delhi - DPCC",06-06-2024 02:00:00,28.563262,77.186937,SO2,13,33,22
India,Delhi,Delhi,"Rohini, Delhi - DPCC",06-06-2024 02:00:00,28.732528,77.119920,SO2,11,48,20
India,Delhi,Delhi,"Rohini, Delhi - DPCC",06-06-2024 02:00:00,28.732528,77.119920,CO,14,52,30
India,Delhi,Delhi,"Shadipur, Delhi - CPCB",06-06-2024 02:00:00,28.6514781,77.1473105,NO2,49,157,84
India,Delhi,Delhi,"Sonia Vihar, Delhi - DPCC",06-06-2024 02:00:00,28.710508,77.249485,PM10,81,415,243
India,Delhi,Delhi,"Sonia Vihar, Delhi - DPCC",06-06-2024 02:00:00,28.710508,77.249485,NH3,7,13,10
India,Delhi,Delhi,"Sonia Vihar, Delhi - DPCC",06-06-2024 02:00:00,28.710508,77.249485,CO,1,75,12
India,Delhi,Delhi,"Sri Aurobindo Marg, Delhi - DPCC",06-06-2024 02:00:00,28.531346,77.190156,OZONE,1,69,29
India,Delhi,Delhi,"Vivek Vihar, Delhi - DPCC",06-06-2024 02:00:00,28.672342,77.315260,PM10,102,439,284
India,Delhi,Delhi,"Wazirpur, Delhi - DPCC",06-06-2024 02:00:00,28.699793,77.165453,NH3,10,15,13
India,Gujarat,Ahmedabad,"Gyaspur, Ahmedabad - IITM",06-06-2024 02:00:00,22.977134,72.553024,NO2,36,54,47
India,Gujarat,Ahmedabad,"Gyaspur, Ahmedabad - IITM",06-06-2024 02:00:00,22.977134,72.553024,NH3,4,7,7
India,Gujarat,Ahmedabad,"Maninagar, Ahmedabad - GPCB",06-06-2024 02:00:00,23.002657,72.591912,PM10,NA,NA,NA
India,Gujarat,Ahmedabad,"Raikhad, Ahmedabad - IITM",06-06-2024 02:00:00,23.020509,72.579261,PM2.5,19,316,222
India,Gujarat,Ahmedabad,"Raikhad, Ahmedabad - IITM",06-06-2024 02:00:00,23.020509,72.579261,NH3,3,3,3
India,Gujarat,Ahmedabad,"SVPI Airport Hansol, Ahmedabad - IITM",06-06-2024 02:00:00,23.076793,72.627874,NH3,5,6,5
India,Gujarat,Ahmedabad,"SVPI Airport Hansol, Ahmedabad - IITM",06-06-2024 02:00:00,23.076793,72.627874,CO,2,24,17
India,Gujarat,Ankleshwar,"GIDC, Ankleshwar - GPCB",06-06-2024 02:00:00,21.613267,73.010555,NO2,16,22,20
India,Gujarat,Gandhinagar,"Sector-10, Gandhinagar - GPCB",06-06-2024 02:00:00,23.221714,72.654328,PM2.5,23,48,35
India,Gujarat,Gandhinagar,"Sector-10, Gandhinagar - GPCB",06-06-2024 02:00:00,23.221714,72.654328,NH3,1,2,2
India,Gujarat,Surat,"Science Center, Surat - SMC",06-06-2024 02:00:00,21.170046,72.795405,PM2.5,3,23,10
India,Gujarat,Surat,"Science Center, Surat - SMC",06-06-2024 02:00:00,21.170046,72.795405,NO2,17,29,21
India,Gujarat,Vapi,"Phase-1 GIDC, Vapi - GPCB",06-06-2024 02:00:00,20.362421,72.918013,PM10,35,94,56
India,Gujarat,Vatva,"Phase-4 GIDC, Vatva - GPCB",06-06-2024 02:00:00,22.969611,72.643500,NO2,36,93,53
India,Gujarat,Vatva,"Phase-4 GIDC, Vatva - GPCB",06-06-2024 02:00:00,22.969611,72.643500,SO2,1,56,35
India,Gujarat,Vatva,"Phase-4 GIDC, Vatva - GPCB",06-06-2024 02:00:00,22.969611,72.643500,OZONE,7,25,23
India,Haryana,Ambala,"Patti Mehar, Ambala - HSPCB",06-06-2024 02:00:00,30.379589,76.778328,PM10,NA,NA,NA
India,Haryana,Ambala,"Patti Mehar, Ambala - HSPCB",06-06-2024 02:00:00,30.379589,76.778328,SO2,NA,NA,NA
India,Haryana,Bahadurgarh,"Arya Nagar, Bahadurgarh - HSPCB",06-06-2024 02:00:00,28.6701,76.9254,PM2.5,67,314,194
India,Haryana,Bahadurgarh,"Arya Nagar, Bahadurgarh - HSPCB",06-06-2024 02:00:00,28.6701,76.9254,PM10,115,485,230
India,Haryana,Ballabgarh,"Nathu Colony, Ballabgarh - HSPCB",06-06-2024 02:00:00,28.3419248,77.319699,PM2.5,162,312,237
India,Haryana,Ballabgarh,"Nathu Colony, Ballabgarh - HSPCB",06-06-2024 02:00:00,28.3419248,77.319699,NO2,1,13,12
India,Haryana,Ballabgarh,"Nathu Colony, Ballabgarh - HSPCB",06-06-2024 02:00:00,28.3419248,77.319699,CO,9,105,40
India,Haryana,Bhiwani,"H.B. Colony, Bhiwani - HSPCB",06-06-2024 02:00:00,28.806223,76.141105,CO,25,63,47
India,Haryana,Charkhi Dadri,"Mini Secretariat, Charkhi Dadri - HSPCB",06-06-2024 02:00:00,28.593883,76.270653,PM2.5,154,484,281
India,Haryana,Charkhi Dadri,"Mini Secretariat, Charkhi Dadri - HSPCB",06-06-2024 02:00:00,28.593883,76.270653,NH3,6,8,7
India,Haryana,Charkhi Dadri,"Mini Secretariat, Charkhi Dadri - HSPCB",06-06-2024 02:00:00,28.593883,76.270653,SO2,2,103,22
India,Haryana,Charkhi Dadri,"Mini Secretariat, Charkhi Dadri - HSPCB",06-06-2024 02:00:00,28.593883,76.270653,CO,10,84,49
India,Haryana,Charkhi Dadri,"Mini Secretariat, Charkhi Dadri - HSPCB",06-06-2024 02:00:00,28.593883,76.270653,OZONE,14,17,15
India,Haryana,Dharuhera,"Municipal Corporation Office, Dharuhera -  HSPCB",06-06-2024 02:00:00,28.206800,76.799700,PM10,109,406,151
India,Haryana,Dharuhera,"Municipal Corporation Office, Dharuhera -  HSPCB",06-06-2024 02:00:00,28.206800,76.799700,NO2,46,112,75
India,Haryana,Dharuhera,"Municipal Corporation Office, Dharuhera -  HSPCB",06-06-2024 02:00:00,28.206800,76.799700,CO,11,34,26
India,Haryana,Faridabad,"New Industrial Town, Faridabad - HSPCB",06-06-2024 02:00:00,28.39072,77.30059,OZONE,8,86,45
India,Haryana,Faridabad,"Sector 11, Faridabad - HSPCB",06-06-2024 02:00:00,28.376058,77.315741,PM10,72,451,230
India,Haryana,Fatehabad,"Huda Sector, Fatehabad - HSPCB",06-06-2024 02:00:00,29.503664,75.467934,SO2,1,50,11
India,Haryana,Fatehabad,"Huda Sector, Fatehabad - HSPCB",06-06-2024 02:00:00,29.503664,75.467934,CO,5,80,25
India,Haryana,Gurugram,"NISE Gwal Pahari, Gurugram - IMD",06-06-2024 02:00:00,28.422681,77.148944,PM2.5,NA,NA,NA
India,Haryana,Gurugram,"NISE Gwal Pahari, Gurugram - IMD",06-06-2024 02:00:00,28.422681,77.148944,CO,29,112,50
India,Haryana,Hisar,"Urban Estate-II, Hisar - HSPCB",06-06-2024 02:00:00,29.140560,75.744941,PM10,NA,NA,NA
India,Haryana,Hisar,"Urban Estate-II, Hisar - HSPCB",06-06-2024 02:00:00,29.140560,75.744941,OZONE,40,73,47
India,Haryana,Jind,"Police Lines, Jind - HSPCB",06-06-2024 02:00:00,29.307814,76.337619,OZONE,12,31,19
India,Haryana,Karnal,"Sector-12, Karnal - HSPCB",06-06-2024 02:00:00,29.695300,77.002700,PM2.5,118,284,187
India,Haryana,Kurukshetra,"Sector-7, Kurukshetra - HSPCB",06-06-2024 02:00:00,29.966942,76.875879,SO2,2,3,3
India,Haryana,Mandikhera,"General Hospital, Mandikhera - HSPCB",06-06-2024 02:00:00,27.9002,76.9938,PM10,64,404,126
India,Haryana,Mandikhera,"General Hospital, Mandikhera - HSPCB",06-06-2024 02:00:00,27.9002,76.9938,OZONE,22,33,27
India,Haryana,Manesar,"Sector-2 IMT, Manesar - HSPCB",06-06-2024 02:00:00,28.360699,76.936090,PM10,85,136,105
India,Haryana,Panchkula,"Sector-6, Panchkula - HSPCB ",06-06-2024 02:00:00,30.7057778,76.8531805555555,PM2.5,232,334,291
India,Haryana,Panchkula,"Sector-6, Panchkula - HSPCB ",06-06-2024 02:00:00,30.7057778,76.8531805555555,SO2,2,7,3
India,Haryana,Panipat,"Sector-18, Panipat - HSPCB",06-06-2024 02:00:00,29.432304,76.972765,PM10,101,105,103
India,Haryana,Panipat,"Sector-18, Panipat - HSPCB",06-06-2024 02:00:00,29.432304,76.972765,NH3,2,3,2
India,Haryana,Panipat,"Sector-18, Panipat - HSPCB",06-06-2024 02:00:00,29.432304,76.972765,CO,23,26,24
India,Haryana,Rohtak,"MD University, Rohtak - HSPCB",06-06-2024 02:00:00,28.52123,76.37138,OZONE,46,54,50
India,Haryana,Sirsa,"F-Block, Sirsa - HSPCB",06-06-2024 02:00:00,29.536400,75.015800,PM2.5,68,333,225
India,Haryana,Sonipat,"Murthal, Sonipat - HSPCB",06-06-2024 02:00:00,29.027200,77.062100,NH3,2,10,9
India,Haryana,Sonipat,"Murthal, Sonipat - HSPCB",06-06-2024 02:00:00,29.027200,77.062100,SO2,11,30,20
India,Haryana,Yamuna Nagar,"Gobind Pura, Yamuna Nagar - HSPCB",06-06-2024 02:00:00,30.1480566,77.2893471,SO2,1,99,22
India,Haryana,Yamuna Nagar,"Gobind Pura, Yamuna Nagar - HSPCB",06-06-2024 02:00:00,30.1480566,77.2893471,CO,24,80,46
India,Himachal Pradesh,Baddi,"HIMUDA Complex Phase-1, Baddi - HPPCB",06-06-2024 02:00:00,30.943887,76.801991,PM10,29,500,209
India,Jammu_and_Kashmir,Srinagar,"Rajbagh, Srinagar - JKSPCB",06-06-2024 02:00:00,34.066206,74.819820,OZONE,NA,NA,NA
India,Jharkhand,Dhanbad,"Kalakusuma, Dhanbad - DMC",06-06-2024 02:00:00,23.811548,86.481238,NO2,58,59,59
India,Jharkhand,Dhanbad,"Sardar Patel Nagar, Dhanbad - JSPCB",06-06-2024 02:00:00,23.80569,86.44268,OZONE,NA,NA,NA
India,Karnataka,Bagalkot,"Vidayagiri, Bagalkot - KSPCB",06-06-2024 02:00:00,16.172806,75.659694,PM10,42,42,42
India,Karnataka,Bagalkot,"Vidayagiri, Bagalkot - KSPCB",06-06-2024 02:00:00,16.172806,75.659694,NH3,1,2,1
India,Karnataka,Bagalkot,"Vidayagiri, Bagalkot - KSPCB",06-06-2024 02:00:00,16.172806,75.659694,SO2,1,9,8
India,Karnataka,Belgaum,"Ramteerth Nagar, Belgaum - KSPCB",06-06-2024 02:00:00,15.888653,74.541751,PM2.5,9,46,16
India,Karnataka,Belgaum,"Ramteerth Nagar, Belgaum - KSPCB",06-06-2024 02:00:00,15.888653,74.541751,OZONE,18,24,20
India,Karnataka,Bengaluru,"Bapuji Nagar, Bengaluru - KSPCB",06-06-2024 02:00:00,12.951913,77.539784,CO,14,64,49
India,Karnataka,Bengaluru,"Hebbal, Bengaluru - KSPCB",06-06-2024 02:00:00,13.029152,77.585901,SO2,10,32,20
India,Karnataka,Bengaluru,"Hombegowda Nagar, Bengaluru - KSPCB",06-06-2024 02:00:00,12.938539,77.590100,OZONE,6,37,16
India,Karnataka,Bengaluru,"Kasturi Nagar, Bengaluru - KSPCB",06-06-2024 02:00:00,13.003872,77.664217,NH3,3,4,4
India,Karnataka,Bengaluru,"Kasturi Nagar, Bengaluru - KSPCB",06-06-2024 02:00:00,13.003872,77.664217,CO,24,25,25
India,Karnataka,Bengaluru,"Peenya, Bengaluru - CPCB",06-06-2024 02:00:00,13.0270199,77.494094,NH3,3,4,3
India,Karnataka,Bengaluru,"Sanegurava Halli, Bengaluru - KSPCB",06-06-2024 02:00:00,12.990328,77.5431385,PM10,36,51,40
India,Karnataka,Bengaluru,"Sanegurava Halli, Bengaluru - KSPCB",06-06-2024 02:00:00,12.990328,77.5431385,NO2,20,29,23
India,Karnataka,Bengaluru,"Silk Board, Bengaluru - KSPCB",06-06-2024 02:00:00,12.917348,77.622813,PM2.5,NA,NA,NA
India,Karnataka,Bidar,"Naubad, Bidar - KSPCB",06-06-2024 02:00:00,17.930306,77.482194,PM2.5,14,50,31
India,Karnataka,Chamarajanagar,"Urban, Chamarajanagar - KSPCB",06-06-2024 02:00:00,11.55358,76.55521,PM2.5,23,39,33
India,Karnataka,Chamarajanagar,"Urban, Chamarajanagar - KSPCB",06-06-2024 02:00:00,11.55358,76.55521,PM10,35,53,44
India,Karnataka,Chikkaballapur,"Chikkaballapur Rural, Chikkaballapur - KSPCB",06-06-2024 02:00:00,13.428828,77.731418,PM10,8,35,20
India,Karnataka,Chikkaballapur,"Chikkaballapur Rural, Chikkaballapur - KSPCB",06-06-2024 02:00:00,13.428828,77.731418,OZONE,24,28,26
India,Karnataka,Chikkamagaluru,"Kalyana Nagara, Chikkamagaluru - KSPCB",06-06-2024 02:00:00,13.328028,75.797056,NO2,13,36,22
India,Karnataka,Davanagere,"Devaraj Urs Badavane, Davanagere - KSPCB",06-06-2024 02:00:00,14.475800,75.905200,PM2.5,NA,NA,NA
India,Karnataka,Davanagere,"Devaraj Urs Badavane, Davanagere - KSPCB",06-06-2024 02:00:00,14.475800,75.905200,NO2,NA,NA,NA
India,Karnataka,Davanagere,"Devaraj Urs Badavane, Davanagere - KSPCB",06-06-2024 02:00:00,14.475800,75.905200,CO,12,26,20
India,Karnataka,Dharwad,"Kalabhavan, Dharwad - KSPCB",06-06-2024 02:00:00,15.459706,75.008381,CO,14,90,50
India,Karnataka,Gadag,"Panchal Nagar, Gadag - KSPCB",06-06-2024 02:00:00,15.411456,75.638133,PM2.5,2,34,12
India,Karnataka,Haveri,"Ashwini Nagar, Haveri - KSPCB",06-06-2024 02:00:00,14.791800,75.389600,NH3,2,4,3
India,Karnataka,Hubballi,"Lingaraj Nagar, Hubballi - KSPCB",06-06-2024 02:00:00,15.3714823,75.1160168,PM2.5,34,52,40
India,Karnataka,Kalaburagi,"Lal Bahadur Shastri Nagar, Kalaburagi - KSPCB",06-06-2024 02:00:00,17.321993,76.822628,NO2,NA,NA,NA
India,Karnataka,Kalaburagi,"Lal Bahadur Shastri Nagar, Kalaburagi - KSPCB",06-06-2024 02:00:00,17.321993,76.822628,SO2,NA,NA,NA
India,Karnataka,Kalaburagi,"Mahatma Basaveswar Colony, Kalaburgi - KSPCB",06-06-2024 02:00:00,17.336318,76.847397,PM10,NA,NA,NA
India,Karnataka,Karwar,"KHB Colony, Karwar - KSPCB",06-06-2024 02:00:00,14.816666,74.141003,PM10,9,34,17
India,Karnataka,Karwar,"KHB Colony, Karwar - KSPCB",06-06-2024 02:00:00,14.816666,74.141003,OZONE,21,22,21
India,Karnataka,Kolar,"Tamaka Ind. Area, Kolar - KSPCB",06-06-2024 02:00:00,13.1276288,78.1570122,PM10,NA,NA,NA
India,Karnataka,Kolar,"Tamaka Ind. Area, Kolar - KSPCB",06-06-2024 02:00:00,13.1276288,78.1570122,NO2,NA,NA,NA
India,Karnataka,Koppal,"Diwator Nagar, Koppal - KSPCB",06-06-2024 02:00:00,15.347630,76.181767,PM2.5,NA,NA,NA
India,Karnataka,Koppal,"Diwator Nagar, Koppal - KSPCB",06-06-2024 02:00:00,15.347630,76.181767,OZONE,7,20,13
India,Karnataka,Madikeri,"Stuart Hill, Madikeri - KSPCB",06-06-2024 02:00:00,12.415911,75.735050,NH3,NA,NA,NA
India,Karnataka,Mangalore,"Kadri, Mangalore - KSPCB",06-06-2024 02:00:00,12.889250,74.853000,PM2.5,15,59,33
India,Karnataka,Mangalore,"Kadri, Mangalore - KSPCB",06-06-2024 02:00:00,12.889250,74.853000,NO2,5,6,6
India,Karnataka,Mangalore,"Kadri, Mangalore - KSPCB",06-06-2024 02:00:00,12.889250,74.853000,NH3,2,2,2
India,Karnataka,Raichur,"Haji Colony, Raichur - KSPCB",06-06-2024 02:00:00,16.208139,77.348417,NH3,2,4,3
India,Karnataka,Tumakuru,"Thimmalapura, Tumakuru - KSPCB",06-06-2024 02:00:00,13.377516,77.099072,PM2.5,19,49,33
India,Karnataka,Udupi,"Brahmagiri, Udupi - KSPCB",06-06-2024 02:00:00,13.34194444,74.74694444,PM2.5,2,26,13
India,Karnataka,Udupi,"Brahmagiri, Udupi - KSPCB",06-06-2024 02:00:00,13.34194444,74.74694444,NO2,27,30,28
India,Karnataka,Udupi,"Brahmagiri, Udupi - KSPCB",06-06-2024 02:00:00,13.34194444,74.74694444,CO,50,56,54
India,Karnataka,Vijayapura,"Ibrahimpur, Vijayapura - KSPCB",06-06-2024 02:00:00,16.802639,75.722694,NO2,17,19,19
India,Karnataka,Vijayapura,"Ibrahimpur, Vijayapura - KSPCB",06-06-2024 02:00:00,16.802639,75.722694,SO2,NA,NA,NA
India,Karnataka,Yadgir,"Collector Office, Yadgir - KSPCB",06-06-2024 02:00:00,16.7602,77.1428,PM2.5,NA,NA,NA
India,Karnataka,Yadgir,"Collector Office, Yadgir - KSPCB",06-06-2024 02:00:00,16.7602,77.1428,PM10,NA,NA,NA
India,Karnataka,Yadgir,"Collector Office, Yadgir - KSPCB",06-06-2024 02:00:00,16.7602,77.1428,NH3,NA,NA,NA
India,Karnataka,Yadgir,"Collector Office, Yadgir - KSPCB",06-06-2024 02:00:00,16.7602,77.1428,SO2,NA,NA,NA
India,Karnataka,Yadgir,"Collector Office, Yadgir - KSPCB",06-06-2024 02:00:00,16.7602,77.1428,CO,16,76,22
India,Kerala,Kannur,"Thavakkara, Kannur - Kerala PCB",06-06-2024 02:00:00,11.875000,75.373200,NO2,5,5,5
India,Kerala,Kannur,"Thavakkara, Kannur - Kerala PCB",06-06-2024 02:00:00,11.875000,75.373200,SO2,NA,NA,NA
India,Kerala,Kollam,"Polayathode, Kollam - Kerala PCB",06-06-2024 02:00:00,8.8787,76.6073,PM10,27,64,41
India,Kerala,Kollam,"Polayathode, Kollam - Kerala PCB",06-06-2024 02:00:00,8.8787,76.6073,NH3,1,1,1
India,Kerala,Thiruvananthapuram,"Kariavattom, Thiruvananthapuram - Kerala PCB",06-06-2024 02:00:00,8.563700,76.886500,OZONE,36,37,36
India,Madhya Pradesh,Bhopal,"Idgah Hills, Bhopal - MPPCB",06-06-2024 02:00:00,23.264759,77.381568,PM10,22,138,77
India,Madhya Pradesh,Bhopal,"Idgah Hills, Bhopal - MPPCB",06-06-2024 02:00:00,23.264759,77.381568,NO2,11,39,25
India,Madhya Pradesh,Bhopal,"Paryavaran Parisar, Bhopal - MPPCB",06-06-2024 02:00:00,23.210494,77.425409,PM2.5,13,65,35
India,Madhya Pradesh,Bhopal,"T T Nagar, Bhopal - MPPCB",06-06-2024 02:00:00,23.233584,77.400574,NH3,7,9,8
India,Madhya Pradesh,Bhopal,"T T Nagar, Bhopal - MPPCB",06-06-2024 02:00:00,23.233584,77.400574,SO2,9,17,13
India,Madhya Pradesh,Bhopal,"T T Nagar, Bhopal - MPPCB",06-06-2024 02:00:00,23.233584,77.400574,CO,10,42,35
India,Madhya Pradesh,Gwalior,"City Center, Gwalior - MPPCB",06-06-2024 02:00:00,26.203442,78.193251,CO,30,100,53
India,Madhya Pradesh,Gwalior,"City Center, Gwalior - MPPCB",06-06-2024 02:00:00,26.203442,78.193251,OZONE,61,75,67
India,Madhya Pradesh,Gwalior,"Deen Dayal Nagar, Gwalior - MPPCB",06-06-2024 02:00:00,26.259242,78.216432,NH3,4,6,5
India,Madhya Pradesh,Gwalior,"Deen Dayal Nagar, Gwalior - MPPCB",06-06-2024 02:00:00,26.259242,78.216432,CO,52,69,61
India,Madhya Pradesh,Gwalior,"Maharaj Bada, Gwalior - MPPCB",06-06-2024 02:00:00,26.200388,78.147714,PM2.5,27,70,39
India,Madhya Pradesh,Gwalior,"Maharaj Bada, Gwalior - MPPCB",06-06-2024 02:00:00,26.200388,78.147714,SO2,1,19,12
India,Madhya Pradesh,Gwalior,"Maharaj Bada, Gwalior - MPPCB",06-06-2024 02:00:00,26.200388,78.147714,OZONE,53,111,86
India,Madhya Pradesh,Indore,"Chhoti Gwaltoli, Indore - MPPCB",06-06-2024 02:00:00,22.4310,75.5213,PM2.5,18,65,41
India,Madhya Pradesh,Indore,"Chhoti Gwaltoli, Indore - MPPCB",06-06-2024 02:00:00,22.4310,75.5213,OZONE,30,69,44
India,Madhya Pradesh,Indore,"Regional Park, Indore - IMC",06-06-2024 02:00:00,22.6780,75.8559,SO2,NA,NA,NA
India,Madhya Pradesh,Indore,"Regional Park, Indore - IMC",06-06-2024 02:00:00,22.6780,75.8559,CO,18,26,23
India,Madhya Pradesh,Indore,"Residency Area, Indore - IMC",06-06-2024 02:00:00,22.7084,75.8815,PM10,20,73,43
India,Madhya Pradesh,Indore,"Residency Area, Indore - IMC",06-06-2024 02:00:00,22.7084,75.8815,CO,7,13,12
India,Madhya Pradesh,Indore,"Residency Area, Indore - IMC",06-06-2024 02:00:00,22.7084,75.8815,OZONE,7,22,10
India,Madhya Pradesh,Jabalpur,"Govindh Bhavan Colony, Jabalpur - JMC",06-06-2024 02:00:00,23.163174,79.973061,PM10,38,110,68
India,Madhya Pradesh,Jabalpur,"Marhatal, Jabalpur - MPPCB",06-06-2024 02:00:00,23.168606,79.932247,SO2,17,23,20
India,Madhya Pradesh,Jabalpur,"Suhagi, Jabalpur - JMC",06-06-2024 02:00:00,23.218135,79.957770,PM2.5,18,93,51
India,Madhya Pradesh,Jabalpur,"Suhagi, Jabalpur - JMC",06-06-2024 02:00:00,23.218135,79.957770,OZONE,27,96,58
