country,state,city,station,last_update,latitude,longitude,pollutant_id,pollutant_min,pollutant_max,pollutant_avg
India,Andhra_Pradesh,Amaravati,"Secretariat, Amaravati - APPCB",16-06-2024 22:00:00,16.5150833,80.5181667,PM10,16,54,38
India,Andhra_Pradesh,Amaravati,"Secretariat, Amaravati - APPCB",16-06-2024 22:00:00,16.5150833,80.5181667,NO2,4,13,7
India,Andhra_Pradesh,Amaravati,"Secretariat, Amaravati - APPCB",16-06-2024 22:00:00,16.5150833,80.5181667,NH3,3,4,4
India,Andhra_Pradesh,Anantapur,"Gulzarpet, Anantapur - APPCB",16-06-2024 22:00:00,14.675886,77.593027,OZONE,2,24,19
India,Andhra_Pradesh,Kadapa,"Yerramukkapalli, Kadapa - APPCB",16-06-2024 22:00:00,14.465052,78.824187,SO2,2,3,2
India,Andhra_Pradesh,Rajamahendravaram,"Anand Kala Kshetram, Rajamahendravaram - APPCB",16-06-2024 22:00:00,16.9872867,81.7363176,NO2,8,45,17
India,Andhra_Pradesh,Tirupati,"Tirumala, Tirupati - APPCB",16-06-2024 22:00:00,13.67,79.35,CO,34,50,38
India,Andhra_Pradesh,Tirupati,"Vaikuntapuram, Tirupati - APPCB",16-06-2024 22:00:00,13.615387,79.409230,NO2,NA,NA,NA
India,Andhra_Pradesh,Vijayawada,"HB Colony, Vijayawada - APPCB",16-06-2024 22:00:00,16.536107,80.594233,NH3,4,5,4
India,Andhra_Pradesh,Vijayawada,"HB Colony, Vijayawada - APPCB",16-06-2024 22:00:00,16.536107,80.594233,SO2,5,6,5
India,Andhra_Pradesh,Vijayawada,"HB Colony, Vijayawada - APPCB",16-06-2024 22:00:00,16.536107,80.594233,OZONE,10,42,30
India,Andhra_Pradesh,Vijayawada,"Kanuru, Vijayawada - APPCB",16-06-2024 22:00:00,16.486692,80.699436,SO2,NA,NA,NA
India,Andhra_Pradesh,Vijayawada,"Kanuru, Vijayawada - APPCB",16-06-2024 22:00:00,16.486692,80.699436,CO,36,36,36
India,Andhra_Pradesh,Vijayawada,"Rajiv Gandhi Park, Vijayawada - APPCB",16-06-2024 22:00:00,16.509717,80.612222,SO2,9,12,11
India,Andhra_Pradesh,Vijayawada,"Rajiv Nagar, Vijayawada - APPCB",16-06-2024 22:00:00,16.554731,80.649110,CO,38,38,38
India,Andhra_Pradesh,Vijayawada,"Rajiv Nagar, Vijayawada - APPCB",16-06-2024 22:00:00,16.554731,80.649110,OZONE,18,51,32
India,Andhra_Pradesh,Visakhapatnam,"GVM Corporation, Visakhapatnam - APPCB",16-06-2024 22:00:00,17.72,83.3,PM10,73,142,104
India,Andhra_Pradesh,Visakhapatnam,"GVM Corporation, Visakhapatnam - APPCB",16-06-2024 22:00:00,17.72,83.3,NH3,3,7,4
India,Assam,Guwahati,"LGBI Airport, Guwahati - PCBA",16-06-2024 22:00:00,26.10887,91.589544,CO,29,50,39
India,Assam,Guwahati,"Railway Colony, Guwahati - PCBA",16-06-2024 22:00:00,26.181742,91.78063,SO2,1,2,2
India,Assam,Nagaon,"Christianpatty, Nagaon - PCBA",16-06-2024 22:00:00,26.349082,92.68449,PM10,15,28,17
India,Assam,Nalbari,"Bata Chowk, Nalbari - PCBA",16-06-2024 22:00:00,26.446912,91.439057,CO,18,48,28
India,Assam,Silchar,"Tarapur, Silchar - PCBA",16-06-2024 22:00:00,24.82827,92.79525,PM10,42,49,44
India,Assam,Silchar,"Tarapur, Silchar - PCBA",16-06-2024 22:00:00,24.82827,92.79525,NO2,16,16,16
India,Assam,Sivasagar,"Girls College, Sivasagar - PCBA",16-06-2024 22:00:00,26.987634,94.636574,NH3,2,4,3
India,Bihar,Arrah,"New DM Office, Arrah - BSPCB",16-06-2024 22:00:00,25.5626095,84.663264,PM2.5,42,80,57
India,Bihar,Aurangabad,"Gurdeo Nagar, Aurangabad - BSPCB",16-06-2024 22:00:00,24.75746,84.366208,CO,8,31,22
India,Bihar,Bettiah,"Kamalnath Nagar, Bettiah - BSPCB",16-06-2024 22:00:00,26.80365,84.51954,PM10,64,250,120
India,Bihar,Bettiah,"Kamalnath Nagar, Bettiah - BSPCB",16-06-2024 22:00:00,26.80365,84.51954,OZONE,2,10,6
India,Bihar,Bhagalpur,"DM Office_Kachari Chowk, Bhagalpur - BSPCB",16-06-2024 22:00:00,25.251013,86.989001,PM10,90,175,125
India,Bihar,Bhagalpur,"DM Office_Kachari Chowk, Bhagalpur - BSPCB",16-06-2024 22:00:00,25.251013,86.989001,SO2,19,26,23
India,Bihar,Bhagalpur,"DM Office_Kachari Chowk, Bhagalpur - BSPCB",16-06-2024 22:00:00,25.251013,86.989001,OZONE,45,63,61
India,Bihar,Bihar Sharif,"D M Colony, Bihar Sharif - BSPCB",16-06-2024 22:00:00,25.204762,85.514960,NO2,8,10,9
India,Bihar,Bihar Sharif,"D M Colony, Bihar Sharif - BSPCB",16-06-2024 22:00:00,25.204762,85.514960,OZONE,21,100,33
India,Bihar,Chhapra,"Darshan Nagar, Chhapra - BSPCB",16-06-2024 22:00:00,25.7808257,84.7446768,SO2,1,1,1
India,Bihar,Gaya,"Collectorate, Gaya - BSPCB",16-06-2024 22:00:00,24.7955,84.9994,NO2,3,5,4
India,Bihar,Gaya,"Kareemganj, Gaya - BSPCB",16-06-2024 22:00:00,24.792403,84.992416,NO2,20,23,21
India,Bihar,Gaya,"Kareemganj, Gaya - BSPCB",16-06-2024 22:00:00,24.792403,84.992416,SO2,9,10,10
India,Bihar,Gaya,"Kareemganj, Gaya - BSPCB",16-06-2024 22:00:00,24.792403,84.992416,CO,12,23,22
India,Bihar,Gaya,"SFTI Kusdihra, Gaya - BSPCB",16-06-2024 22:00:00,24.762518,84.982348,NH3,5,5,5
India,Bihar,Gaya,"SFTI Kusdihra, Gaya - BSPCB",16-06-2024 22:00:00,24.762518,84.982348,CO,12,40,23
India,Bihar,Hajipur,"Industrial Area, Hajipur - BSPCB",16-06-2024 22:00:00,25.697189,85.245900,PM10,94,185,127
India,Bihar,Hajipur,"Industrial Area, Hajipur - BSPCB",16-06-2024 22:00:00,25.697189,85.245900,SO2,4,6,5
India,Bihar,Hajipur,"Industrial Area, Hajipur - BSPCB",16-06-2024 22:00:00,25.697189,85.245900,OZONE,39,220,142
India,Bihar,Kishanganj,"SDM Office_Khagra, Kishanganj - BSPCB",16-06-2024 22:00:00,26.0881305,87.93840336,PM2.5,15,140,44
India,Bihar,Kishanganj,"SDM Office_Khagra, Kishanganj - BSPCB",16-06-2024 22:00:00,26.0881305,87.93840336,SO2,5,6,6
India,Bihar,Manguraha,"Forest Rest House, Manguraha - BSPCB",16-06-2024 22:00:00,27.308328,84.531742,PM2.5,NA,NA,NA
India,Bihar,Motihari,"Gandak Colony, Motihari - BSPCB",16-06-2024 22:00:00,26.63086,84.90051,PM2.5,NA,NA,NA
India,Bihar,Munger,"Town Hall, Munger - BSPCB",16-06-2024 22:00:00,25.376776,86.471523,PM10,74,440,136
India,Bihar,Munger,"Town Hall, Munger - BSPCB",16-06-2024 22:00:00,25.376776,86.471523,NO2,4,6,5
India,Bihar,Munger,"Town Hall, Munger - BSPCB",16-06-2024 22:00:00,25.376776,86.471523,NH3,3,3,3
India,Bihar,Muzaffarpur,"Buddha Colony, Muzaffarpur - BSPCB",16-06-2024 22:00:00,26.11442,85.39813,PM2.5,NA,NA,NA
India,Bihar,Muzaffarpur,"Buddha Colony, Muzaffarpur - BSPCB",16-06-2024 22:00:00,26.11442,85.39813,NO2,NA,NA,NA
India,Bihar,Muzaffarpur,"Buddha Colony, Muzaffarpur - BSPCB",16-06-2024 22:00:00,26.11442,85.39813,NH3,NA,NA,NA
India,Bihar,Muzaffarpur,"MIT-Daudpur Kothi, Muzaffarpur - BSPCB",16-06-2024 22:00:00,26.1403345,85.3650192,PM10,NA,NA,NA
India,Bihar,Muzaffarpur,"MIT-Daudpur Kothi, Muzaffarpur - BSPCB",16-06-2024 22:00:00,26.1403345,85.3650192,SO2,9,9,9
India,Bihar,Patna,"DRM Office Danapur, Patna - BSPCB",16-06-2024 22:00:00,25.586562,85.043586,NH3,2,3,3
India,Bihar,Patna,"DRM Office Danapur, Patna - BSPCB",16-06-2024 22:00:00,25.586562,85.043586,CO,20,39,29
India,Bihar,Patna,"Govt. High School Shikarpur, Patna - BSPCB",16-06-2024 22:00:00,25.592539,85.227158,PM2.5,97,178,137
India,Bihar,Patna,"Muradpur, Patna - BSPCB",16-06-2024 22:00:00,25.619651,85.147382,NH3,1,12,6
India,Bihar,Patna,"Rajbansi Nagar, Patna - BSPCB",16-06-2024 22:00:00,25.599486,85.113666,NH3,4,7,5
India,Bihar,Patna,"Samanpura, Patna - BSPCB",16-06-2024 22:00:00,25.596727,85.085624,NH3,1,20,6
India,Bihar,Patna,"Samanpura, Patna - BSPCB",16-06-2024 22:00:00,25.596727,85.085624,OZONE,8,122,76
India,Bihar,Purnia,"Mariam Nagar, Purnia - BSPCB",16-06-2024 22:00:00,25.366336,87.117468,SO2,5,14,9
India,Bihar,Rajgir,"Dangi Tola, Rajgir - BSPCB",16-06-2024 22:00:00,25.03280,85.41948,NO2,14,16,15
India,Bihar,Sasaram,"Dada Peer, Sasaram - BSPCB",16-06-2024 22:00:00,24.952822,84.002396,NO2,4,37,19
India,Bihar,Sasaram,"Dada Peer, Sasaram - BSPCB",16-06-2024 22:00:00,24.952822,84.002396,NH3,3,14,8
India,Bihar,Sasaram,"Dada Peer, Sasaram - BSPCB",16-06-2024 22:00:00,24.952822,84.002396,OZONE,1,58,39
India,Bihar,Siwan,"Chitragupta Nagar, Siwan - BSPCB",16-06-2024 22:00:00,26.2271665,84.3570427,PM2.5,NA,NA,NA
India,Chandigarh,Chandigarh,"Sector 22, Chandigarh - CPCC",16-06-2024 22:00:00,30.735567,76.775714,PM2.5,55,100,74
India,Chandigarh,Chandigarh,"Sector 22, Chandigarh - CPCC",16-06-2024 22:00:00,30.735567,76.775714,SO2,9,50,22
India,Chandigarh,Chandigarh,"Sector-53, Chandigarh - CPCC",16-06-2024 22:00:00,30.719859,76.738637,NH3,5,7,6
India,Chhattisgarh,Bhilai,"32Bungalows, Bhilai - CECB",16-06-2024 22:00:00,21.194815,81.314770,SO2,9,15,11
India,Chhattisgarh,Bhilai,"Civic Center, Bhilai - Bhilai Steel Plant",16-06-2024 22:00:00,21.185571,81.343175,PM2.5,22,41,31
India,Chhattisgarh,Bhilai,"Hathkhoj, Bhilai - CECB",16-06-2024 22:00:00,21.224231,81.408350,CO,11,33,18
India,Chhattisgarh,Bilaspur,"Mangala, Bilaspur - NTPC",16-06-2024 22:00:00,22.08815,82.13737,SO2,12,20,17
India,Chhattisgarh,Chhal,"Nawapara SECL Colony, Chhal - CECB",16-06-2024 22:00:00,22.118125,83.140608,CO,24,61,42
India,Chhattisgarh,Korba,"Rampur, Korba - CECB",16-06-2024 22:00:00,22.368195,82.746431,NH3,1,2,1
India,Chhattisgarh,Korba,"Urja Nagar, Korba - CECB",16-06-2024 22:00:00,22.348441,82.549611,PM2.5,NA,NA,NA
India,Chhattisgarh,Kunjemura,"OP Jindal School, Kunjemura - CECB",16-06-2024 22:00:00,22.126650,83.483212,SO2,1,5,4
India,Chhattisgarh,Milupara,"Govt. Higher Secondary School, Milupara - CECB",16-06-2024 22:00:00,22.1910172,83.5197009,NO2,NA,NA,NA
India,Chhattisgarh,Milupara,"Govt. Higher Secondary School, Milupara - CECB",16-06-2024 22:00:00,22.1910172,83.5197009,CO,5,38,31
India,Chhattisgarh,Raipur,"AIIMS, Raipur - CECB",16-06-2024 22:00:00,21.258815,81.578979,NH3,6,6,6
India,Chhattisgarh,Raipur,"Bhatagaon New ISBT, Raipur - CECB",16-06-2024 22:00:00,21.219665,81.630094,PM10,41,127,72
India,Chhattisgarh,Raipur,"Krishak Nagar, Raipur - CECB",16-06-2024 22:00:00,21.237755,81.705301,OZONE,5,46,31
India,Chhattisgarh,Raipur,"Siltara Phase-II, Raipur - CECB",16-06-2024 22:00:00,21.371751,81.664929,OZONE,4,29,17
India,Chhattisgarh,Tumidih,"OP Jindal Industrial Park, Tumidih - CECB",16-06-2024 22:00:00,22.06631475,83.33820077,NO2,9,88,41
India,Chhattisgarh,Tumidih,"OP Jindal Industrial Park, Tumidih - CECB",16-06-2024 22:00:00,22.06631475,83.33820077,SO2,5,7,5
India,Chhattisgarh,Tumidih,"OP Jindal Industrial Park, Tumidih - CECB",16-06-2024 22:00:00,22.06631475,83.33820077,OZONE,5,32,20
India,Delhi,Delhi,"Ashok Vihar, Delhi - DPCC",16-06-2024 22:00:00,28.695381,77.181665,NH3,3,11,9
India,Delhi,Delhi,"Ashok Vihar, Delhi - DPCC",16-06-2024 22:00:00,28.695381,77.181665,CO,30,60,41
India,Delhi,Delhi,"Aya Nagar, Delhi - IMD",16-06-2024 22:00:00,28.4706914,77.1099364,NO2,9,12,11
India,Delhi,Delhi,"Aya Nagar, Delhi - IMD",16-06-2024 22:00:00,28.4706914,77.1099364,OZONE,11,34,27
India,Delhi,Delhi,"Bawana, Delhi - DPCC",16-06-2024 22:00:00,28.776200,77.051074,PM2.5,40,235,118
India,Delhi,Delhi,"Bawana, Delhi - DPCC",16-06-2024 22:00:00,28.776200,77.051074,PM10,127,334,208
India,Delhi,Delhi,"Bawana, Delhi - DPCC",16-06-2024 22:00:00,28.776200,77.051074,SO2,10,115,38
India,Delhi,Delhi,"Bawana, Delhi - DPCC",16-06-2024 22:00:00,28.776200,77.051074,CO,20,52,28
India,Delhi,Delhi,"Bawana, Delhi - DPCC",16-06-2024 22:00:00,28.776200,77.051074,OZONE,8,91,73
India,Delhi,Delhi,"Chandni Chowk, Delhi - IITM",16-06-2024 22:00:00,28.656756,77.227234,PM2.5,251,337,310
India,Delhi,Delhi,"DTU, Delhi - CPCB",16-06-2024 22:00:00,28.7500499,77.1112615,PM10,111,262,182
India,Delhi,Delhi,"DTU, Delhi - CPCB",16-06-2024 22:00:00,28.7500499,77.1112615,OZONE,34,93,79
India,Delhi,Delhi,"Dr. Karni Singh Shooting Range, Delhi - DPCC",16-06-2024 22:00:00,28.498571,77.264840,CO,22,84,39
India,Delhi,Delhi,"Dwarka-Sector 8, Delhi - DPCC ",16-06-2024 22:00:00,28.5710274,77.0719006,OZONE,7,76,58
India,Delhi,Delhi,"IGI Airport (T3), Delhi - IMD",16-06-2024 22:00:00,28.5627763,77.1180053,CO,24,50,29
India,Delhi,Delhi,"Lodhi Road, Delhi - IMD",16-06-2024 22:00:00,28.5918245,77.2273074,OZONE,3,14,11
India,Delhi,Delhi,"Mandir Marg, Delhi - DPCC",16-06-2024 22:00:00,28.636429,77.201067,PM2.5,NA,NA,NA
India,Delhi,Delhi,"Mandir Marg, Delhi - DPCC",16-06-2024 22:00:00,28.636429,77.201067,NH3,NA,NA,NA
India,Delhi,Delhi,"Mandir Marg, Delhi - DPCC",16-06-2024 22:00:00,28.636429,77.201067,SO2,NA,NA,NA
India,Delhi,Delhi,"Mandir Marg, Delhi - DPCC",16-06-2024 22:00:00,28.636429,77.201067,CO,42,52,48
India,Delhi,Delhi,"Mundka, Delhi - DPCC",16-06-2024 22:00:00,28.684678,77.076574,PM10,142,420,257
India,Delhi,Delhi,"Mundka, Delhi - DPCC",16-06-2024 22:00:00,28.684678,77.076574,CO,32,68,38
India,Delhi,Delhi,"NSIT Dwarka, Delhi - CPCB",16-06-2024 22:00:00,28.60909,77.0325413,NH3,7,9,8
India,Delhi,Delhi,"NSIT Dwarka, Delhi - CPCB",16-06-2024 22:00:00,28.60909,77.0325413,SO2,5,36,15
India,Delhi,Delhi,"Najafgarh, Delhi - DPCC",16-06-2024 22:00:00,28.570173,76.933762,SO2,10,22,16
India,Delhi,Delhi,"Narela, Delhi - DPCC",16-06-2024 22:00:00,28.822836,77.101981,SO2,7,72,36
India,Delhi,Delhi,"North Campus, DU, Delhi - IMD",16-06-2024 22:00:00,28.6573814,77.1585447,PM10,119,187,155
India,Delhi,Delhi,"North Campus, DU, Delhi - IMD",16-06-2024 22:00:00,28.6573814,77.1585447,CO,56,101,72
India,Delhi,Delhi,"North Campus, DU, Delhi - IMD",16-06-2024 22:00:00,28.6573814,77.1585447,OZONE,21,42,34
India,Delhi,Delhi,"Patparganj, Delhi - DPCC",16-06-2024 22:00:00,28.623763,77.287209,PM2.5,57,193,105
India,Delhi,Delhi,"Punjabi Bagh, Delhi - DPCC",16-06-2024 22:00:00,28.674045,77.131023,SO2,2,63,33
India,Delhi,Delhi,"Punjabi Bagh, Delhi - DPCC",16-06-2024 22:00:00,28.674045,77.131023,CO,34,68,45
India,Delhi,Delhi,"Pusa, Delhi - DPCC",16-06-2024 22:00:00,28.639652,77.146275,PM2.5,27,133,68
India,Delhi,Delhi,"R K Puram, Delhi - DPCC",16-06-2024 22:00:00,28.563262,77.186937,NO2,11,127,54
India,Delhi,Delhi,"R K Puram, Delhi - DPCC",16-06-2024 22:00:00,28.563262,77.186937,OZONE,19,111,83
India,Delhi,Delhi,"Rohini, Delhi - DPCC",16-06-2024 22:00:00,28.732528,77.119920,PM10,138,292,205
India,Delhi,Delhi,"Rohini, Delhi - DPCC",16-06-2024 22:00:00,28.732528,77.119920,SO2,10,60,28
India,Delhi,Delhi,"Shadipur, Delhi - CPCB",16-06-2024 22:00:00,28.6514781,77.1473105,SO2,10,25,18
India,Delhi,Delhi,"Shadipur, Delhi - CPCB",16-06-2024 22:00:00,28.6514781,77.1473105,OZONE,2,57,20
India,Delhi,Delhi,"Sirifort, Delhi - CPCB",16-06-2024 22:00:00,28.5504249,77.2159377,PM2.5,45,194,91
India,Delhi,Delhi,"Sonia Vihar, Delhi - DPCC",16-06-2024 22:00:00,28.710508,77.249485,PM2.5,65,65,65
India,Delhi,Delhi,"Vivek Vihar, Delhi - DPCC",16-06-2024 22:00:00,28.672342,77.315260,PM2.5,40,150,81
India,Delhi,Delhi,"Vivek Vihar, Delhi - DPCC",16-06-2024 22:00:00,28.672342,77.315260,PM10,156,291,211
India,Delhi,Delhi,"Wazirpur, Delhi - DPCC",16-06-2024 22:00:00,28.699793,77.165453,NH3,NA,NA,NA
India,Delhi,Delhi,"Wazirpur, Delhi - DPCC",16-06-2024 22:00:00,28.699793,77.165453,OZONE,9,68,49
India,Gujarat,Ahmedabad,"Chandkheda, Ahmedabad - IITM",16-06-2024 22:00:00,23.107969,72.574648,PM10,37,111,58
India,Gujarat,Ahmedabad,"Gyaspur, Ahmedabad - IITM",16-06-2024 22:00:00,22.977134,72.553024,PM10,75,152,103
India,Gujarat,Ahmedabad,"Maninagar, Ahmedabad - GPCB",16-06-2024 22:00:00,23.002657,72.591912,PM10,NA,NA,NA
India,Gujarat,Ahmedabad,"Maninagar, Ahmedabad - GPCB",16-06-2024 22:00:00,23.002657,72.591912,CO,1,24,14
India,Gujarat,Ahmedabad,"Raikhad, Ahmedabad - IITM",16-06-2024 22:00:00,23.020509,72.579261,PM10,52,228,110
India,Gujarat,Ahmedabad,"Raikhad, Ahmedabad - IITM",16-06-2024 22:00:00,23.020509,72.579261,SO2,23,26,24
India,Gujarat,Ahmedabad,"Rakhial, Ahmedabad - IITM",16-06-2024 22:00:00,23.016834,72.625775,PM10,56,102,83
India,Gujarat,Ahmedabad,"Rakhial, Ahmedabad - IITM",16-06-2024 22:00:00,23.016834,72.625775,NH3,10,70,44
India,Gujarat,Ahmedabad,"Rakhial, Ahmedabad - IITM",16-06-2024 22:00:00,23.016834,72.625775,CO,33,62,44
India,Gujarat,Ahmedabad,"Rakhial, Ahmedabad - IITM",16-06-2024 22:00:00,23.016834,72.625775,OZONE,4,73,47
India,Gujarat,Ankleshwar,"GIDC, Ankleshwar - GPCB",16-06-2024 22:00:00,21.613267,73.010555,NO2,26,36,30
India,Gujarat,Gandhinagar,"Sector-10, Gandhinagar - GPCB",16-06-2024 22:00:00,23.221714,72.654328,OZONE,18,18,18
India,Gujarat,Surat,"Science Center, Surat - SMC",16-06-2024 22:00:00,21.170046,72.795405,PM2.5,1,22,12
India,Gujarat,Surat,"Science Center, Surat - SMC",16-06-2024 22:00:00,21.170046,72.795405,CO,64,74,69
India,Gujarat,Vatva,"Phase-4 GIDC, Vatva - GPCB",16-06-2024 22:00:00,22.969611,72.643500,NO2,40,147,76
India,Gujarat,Vatva,"Phase-4 GIDC, Vatva - GPCB",16-06-2024 22:00:00,22.969611,72.643500,NH3,5,15,11
India,Haryana,Ambala,"Patti Mehar, Ambala - HSPCB",16-06-2024 22:00:00,30.379589,76.778328,NO2,7,21,14
India,Haryana,Ambala,"Patti Mehar, Ambala - HSPCB",16-06-2024 22:00:00,30.379589,76.778328,SO2,8,14,11
India,Haryana,Ambala,"Patti Mehar, Ambala - HSPCB",16-06-2024 22:00:00,30.379589,76.778328,CO,31,58,40
India,Haryana,Ambala,"Patti Mehar, Ambala - HSPCB",16-06-2024 22:00:00,30.379589,76.778328,OZONE,35,61,48
India,Haryana,Bahadurgarh,"Arya Nagar, Bahadurgarh - HSPCB",16-06-2024 22:00:00,28.6701,76.9254,PM10,129,193,163
India,Haryana,Bahadurgarh,"Arya Nagar, Bahadurgarh - HSPCB",16-06-2024 22:00:00,28.6701,76.9254,NO2,18,25,22
India,Haryana,Bahadurgarh,"Arya Nagar, Bahadurgarh - HSPCB",16-06-2024 22:00:00,28.6701,76.9254,CO,93,102,97
India,Haryana,Bhiwani,"H.B. Colony, Bhiwani - HSPCB",16-06-2024 22:00:00,28.806223,76.141105,NH3,6,6,6
India,Haryana,Charkhi Dadri,"Mini Secretariat, Charkhi Dadri - HSPCB",16-06-2024 22:00:00,28.593883,76.270653,CO,6,97,33
India,Haryana,Dharuhera,"Municipal Corporation Office, Dharuhera -  HSPCB",16-06-2024 22:00:00,28.206800,76.799700,SO2,6,16,9
India,Haryana,Faridabad,"New Industrial Town, Faridabad - HSPCB",16-06-2024 22:00:00,28.39072,77.30059,CO,4,51,14
India,Haryana,Faridabad,"New Industrial Town, Faridabad - HSPCB",16-06-2024 22:00:00,28.39072,77.30059,OZONE,59,164,164
India,Haryana,Faridabad,"Sector 11, Faridabad - HSPCB",16-06-2024 22:00:00,28.376058,77.315741,NH3,6,6,6
India,Haryana,Faridabad,"Sector 30, Faridabad - HSPCB",16-06-2024 22:00:00,28.4417,77.3217,PM10,110,135,124
India,Haryana,Faridabad,"Sector- 16A, Faridabad - HSPCB",16-06-2024 22:00:00,28.4088421,77.3099081,CO,10,71,37
India,Haryana,Faridabad,"Sector- 16A, Faridabad - HSPCB",16-06-2024 22:00:00,28.4088421,77.3099081,OZONE,14,14,14
India,Haryana,Gurugram,"Sector-51, Gurugram - HSPCB",16-06-2024 22:00:00,28.4227,77.0667,PM2.5,84,261,155
India,Haryana,Gurugram,"Teri Gram, Gurugram - HSPCB",16-06-2024 22:00:00,28.4275,77.1465,PM10,125,181,154
India,Haryana,Gurugram,"Vikas Sadan, Gurugram - HSPCB",16-06-2024 22:00:00,28.4501238,77.0263051,NO2,5,26,14
India,Haryana,Gurugram,"Vikas Sadan, Gurugram - HSPCB",16-06-2024 22:00:00,28.4501238,77.0263051,SO2,5,101,33
India,Haryana,Hisar,"Urban Estate-II, Hisar - HSPCB",16-06-2024 22:00:00,29.140560,75.744941,PM10,100,141,115
India,Haryana,Hisar,"Urban Estate-II, Hisar - HSPCB",16-06-2024 22:00:00,29.140560,75.744941,NO2,7,11,11
India,Haryana,Hisar,"Urban Estate-II, Hisar - HSPCB",16-06-2024 22:00:00,29.140560,75.744941,OZONE,34,81,70
India,Haryana,Jind,"Police Lines, Jind - HSPCB",16-06-2024 22:00:00,29.307814,76.337619,OZONE,21,61,35
India,Haryana,Kaithal,"Rishi Nagar, Kaithal - HSPCB",16-06-2024 22:00:00,29.8006,76.4155,OZONE,16,174,174
India,Haryana,Karnal,"Sector-12, Karnal - HSPCB",16-06-2024 22:00:00,29.695300,77.002700,PM10,95,133,115
India,Haryana,Kurukshetra,"Sector-7, Kurukshetra - HSPCB",16-06-2024 22:00:00,29.966942,76.875879,PM10,130,152,141
India,Haryana,Kurukshetra,"Sector-7, Kurukshetra - HSPCB",16-06-2024 22:00:00,29.966942,76.875879,CO,10,26,13
India,Haryana,Mandikhera,"General Hospital, Mandikhera - HSPCB",16-06-2024 22:00:00,27.9002,76.9938,OZONE,22,32,26
India,Haryana,Narnaul,"Shastri Nagar, Narnaul - HSPCB",16-06-2024 22:00:00,28.060249,76.113115,PM10,23,50,37
India,Haryana,Narnaul,"Shastri Nagar, Narnaul - HSPCB",16-06-2024 22:00:00,28.060249,76.113115,CO,6,14,6
India,Haryana,Palwal,"Shyam Nagar, Palwal - HSPCB",16-06-2024 22:00:00,28.1485564,77.3320667,PM2.5,46,69,55
India,Haryana,Palwal,"Shyam Nagar, Palwal - HSPCB",16-06-2024 22:00:00,28.1485564,77.3320667,NH3,8,9,9
India,Haryana,Panipat,"Sector-18, Panipat - HSPCB",16-06-2024 22:00:00,29.432304,76.972765,CO,24,26,25
India,Haryana,Rohtak,"MD University, Rohtak - HSPCB",16-06-2024 22:00:00,28.52123,76.37138,PM2.5,7,389,218
India,Haryana,Sonipat,"Murthal, Sonipat - HSPCB",16-06-2024 22:00:00,29.027200,77.062100,OZONE,16,36,29
India,Haryana,Yamuna Nagar,"Gobind Pura, Yamuna Nagar - HSPCB",16-06-2024 22:00:00,30.1480566,77.2893471,PM10,127,151,138
India,Karnataka,Bagalkot,"Vidayagiri, Bagalkot - KSPCB",16-06-2024 22:00:00,16.172806,75.659694,CO,14,46,35
India,Karnataka,Belgaum,"Ramteerth Nagar, Belgaum - KSPCB",16-06-2024 22:00:00,15.888653,74.541751,PM2.5,6,14,10
India,Karnataka,Belgaum,"Ramteerth Nagar, Belgaum - KSPCB",16-06-2024 22:00:00,15.888653,74.541751,NO2,14,34,22
India,Karnataka,Belgaum,"Ramteerth Nagar, Belgaum - KSPCB",16-06-2024 22:00:00,15.888653,74.541751,SO2,9,10,9
India,Karnataka,Belgaum,"Ramteerth Nagar, Belgaum - KSPCB",16-06-2024 22:00:00,15.888653,74.541751,CO,37,46,40
India,Karnataka,Bengaluru,"Bapuji Nagar, Bengaluru - KSPCB",16-06-2024 22:00:00,12.951913,77.539784,SO2,5,7,6
India,Karnataka,Bengaluru,"Bapuji Nagar, Bengaluru - KSPCB",16-06-2024 22:00:00,12.951913,77.539784,OZONE,24,26,25
India,Karnataka,Bengaluru,"Hebbal, Bengaluru - KSPCB",16-06-2024 22:00:00,13.029152,77.585901,PM2.5,2,31,14
India,Karnataka,Bengaluru,"Hombegowda Nagar, Bengaluru - KSPCB",16-06-2024 22:00:00,12.938539,77.590100,PM10,18,41,28
India,Karnataka,Bengaluru,"Hombegowda Nagar, Bengaluru - KSPCB",16-06-2024 22:00:00,12.938539,77.590100,OZONE,11,26,21
India,Karnataka,Bengaluru,"Jayanagar 5th Block, Bengaluru - KSPCB",16-06-2024 22:00:00,12.920984,77.584908,CO,16,16,16
India,Karnataka,Bengaluru,"Jigani, Bengaluru - KSPCB",16-06-2024 22:00:00,12.7816279,77.6299145,PM2.5,37,38,37
India,Karnataka,Bengaluru,"Jigani, Bengaluru - KSPCB",16-06-2024 22:00:00,12.7816279,77.6299145,NO2,41,43,42
India,Karnataka,Bengaluru,"Kasturi Nagar, Bengaluru - KSPCB",16-06-2024 22:00:00,13.003872,77.664217,PM2.5,30,38,34
India,Karnataka,Bengaluru,"Kasturi Nagar, Bengaluru - KSPCB",16-06-2024 22:00:00,13.003872,77.664217,PM10,39,49,44
India,Karnataka,Bengaluru,"Kasturi Nagar, Bengaluru - KSPCB",16-06-2024 22:00:00,13.003872,77.664217,NH3,4,4,4
India,Karnataka,Bengaluru,"Peenya, Bengaluru - CPCB",16-06-2024 22:00:00,13.0270199,77.494094,PM2.5,35,46,41
India,Karnataka,Bengaluru,"Peenya, Bengaluru - CPCB",16-06-2024 22:00:00,13.0270199,77.494094,SO2,12,17,15
India,Karnataka,Bengaluru,"Shivapura_Peenya, Bengaluru - KSPCB",16-06-2024 22:00:00,13.0246342,77.5080115,PM2.5,24,71,43
India,Karnataka,Bengaluru,"Shivapura_Peenya, Bengaluru - KSPCB",16-06-2024 22:00:00,13.0246342,77.5080115,SO2,2,7,4
India,Karnataka,Bengaluru,"Silk Board, Bengaluru - KSPCB",16-06-2024 22:00:00,12.917348,77.622813,NO2,10,22,15
India,Karnataka,Chamarajanagar,"Urban, Chamarajanagar - KSPCB",16-06-2024 22:00:00,11.55358,76.55521,PM10,44,52,46
India,Karnataka,Chamarajanagar,"Urban, Chamarajanagar - KSPCB",16-06-2024 22:00:00,11.55358,76.55521,CO,22,120,24
India,Karnataka,Chikkaballapur,"Chikkaballapur Rural, Chikkaballapur - KSPCB",16-06-2024 22:00:00,13.428828,77.731418,PM10,12,38,26
India,Karnataka,Chikkaballapur,"Chikkaballapur Rural, Chikkaballapur - KSPCB",16-06-2024 22:00:00,13.428828,77.731418,SO2,20,35,24
India,Karnataka,Chikkamagaluru,"Kalyana Nagara, Chikkamagaluru - KSPCB",16-06-2024 22:00:00,13.328028,75.797056,NO2,15,29,20
India,Karnataka,Chikkamagaluru,"Kalyana Nagara, Chikkamagaluru - KSPCB",16-06-2024 22:00:00,13.328028,75.797056,SO2,2,7,4
India,Karnataka,Chikkamagaluru,"Kalyana Nagara, Chikkamagaluru - KSPCB",16-06-2024 22:00:00,13.328028,75.797056,CO,11,103,34
India,Karnataka,Davanagere,"Devaraj Urs Badavane, Davanagere - KSPCB",16-06-2024 22:00:00,14.475800,75.905200,PM2.5,3,75,21
India,Karnataka,Gadag,"Panchal Nagar, Gadag - KSPCB",16-06-2024 22:00:00,15.411456,75.638133,CO,12,48,42
India,Karnataka,Haveri,"Ashwini Nagar, Haveri - KSPCB",16-06-2024 22:00:00,14.791800,75.389600,NO2,NA,NA,NA
India,Karnataka,Hubballi,"Lingaraj Nagar, Hubballi - KSPCB",16-06-2024 22:00:00,15.3714823,75.1160168,NO2,11,20,17
India,Karnataka,Kalaburagi,"Lal Bahadur Shastri Nagar, Kalaburagi - KSPCB",16-06-2024 22:00:00,17.321993,76.822628,SO2,14,16,15
India,Karnataka,Kalaburagi,"Mahatma Basaveswar Colony, Kalaburgi - KSPCB",16-06-2024 22:00:00,17.336318,76.847397,NO2,NA,NA,NA
India,Karnataka,Kolar,"Tamaka Ind. Area, Kolar - KSPCB",16-06-2024 22:00:00,13.1276288,78.1570122,CO,6,6,6
India,Karnataka,Madikeri,"Stuart Hill, Madikeri - KSPCB",16-06-2024 22:00:00,12.415911,75.735050,CO,1,160,56
India,Karnataka,Mangalore,"Kadri, Mangalore - KSPCB",16-06-2024 22:00:00,12.889250,74.853000,PM2.5,18,50,32
India,Karnataka,Mangalore,"Kadri, Mangalore - KSPCB",16-06-2024 22:00:00,12.889250,74.853000,PM10,40,86,57
India,Karnataka,Mangalore,"Kadri, Mangalore - KSPCB",16-06-2024 22:00:00,12.889250,74.853000,NO2,5,6,6
India,Karnataka,Mysuru,"Hebbal 1st Stage, Mysuru - KSPCB",16-06-2024 22:00:00,12.21041,76.37376,PM10,24,45,33
India,Karnataka,Mysuru,"Hebbal 1st Stage, Mysuru - KSPCB",16-06-2024 22:00:00,12.21041,76.37376,OZONE,10,53,41
India,Karnataka,Ramanagara,"Vijay Nagar, Ramanagara - KSPCB",16-06-2024 22:00:00,12.733409,77.298051,CO,7,52,14
India,Karnataka,Shivamogga,"Vinoba Nagara, Shivamogga - KSPCB",16-06-2024 22:00:00,13.940000,75.555917,NO2,11,119,23
India,Karnataka,Shivamogga,"Vinoba Nagara, Shivamogga - KSPCB",16-06-2024 22:00:00,13.940000,75.555917,OZONE,22,45,40
India,Karnataka,Tumakuru,"Thimmalapura, Tumakuru - KSPCB",16-06-2024 22:00:00,13.377516,77.099072,SO2,7,20,8
India,Karnataka,Udupi,"Brahmagiri, Udupi - KSPCB",16-06-2024 22:00:00,13.34194444,74.74694444,NO2,NA,NA,NA
India,Karnataka,Vijayapura,"Ibrahimpur, Vijayapura - KSPCB",16-06-2024 22:00:00,16.802639,75.722694,CO,30,107,107
India,Karnataka,Vijayapura,"Ibrahimpur, Vijayapura - KSPCB",16-06-2024 22:00:00,16.802639,75.722694,OZONE,13,15,15
India,Karnataka,Yadgir,"Collector Office, Yadgir - KSPCB",16-06-2024 22:00:00,16.7602,77.1428,PM2.5,NA,NA,NA
India,Kerala,Eloor,"Udyogamandal, Eloor - Kerala PCB",16-06-2024 22:00:00,10.073232,76.302765,PM2.5,18,41,27
India,Kerala,Eloor,"Udyogamandal, Eloor - Kerala PCB",16-06-2024 22:00:00,10.073232,76.302765,CO,12,107,51
India,Kerala,Kollam,"Polayathode, Kollam - Kerala PCB",16-06-2024 22:00:00,8.8787,76.6073,SO2,1,4,2
India,Kerala,Thiruvananthapuram,"Kariavattom, Thiruvananthapuram - Kerala PCB",16-06-2024 22:00:00,8.563700,76.886500,PM10,59,65,62
India,Kerala,Thrissur,"Corporation Ground, Thrissur - Kerala PCB",16-06-2024 22:00:00,10.532400,76.215900,PM2.5,44,50,48
India,Kerala,Thrissur,"Corporation Ground, Thrissur - Kerala PCB",16-06-2024 22:00:00,10.532400,76.215900,PM10,60,68,64
India,Kerala,Thrissur,"Corporation Ground, Thrissur - Kerala PCB",16-06-2024 22:00:00,10.532400,76.215900,SO2,1,3,2
India,Kerala,Thrissur,"Corporation Ground, Thrissur - Kerala PCB",16-06-2024 22:00:00,10.532400,76.215900,OZONE,28,31,29
India,Madhya Pradesh,Bhopal,"T T Nagar, Bhopal - MPPCB",16-06-2024 22:00:00,23.233584,77.400574,OZONE,23,73,59
India,Madhya Pradesh,Dewas,"Bhopal Chauraha, Dewas - MPPCB",16-06-2024 22:00:00,22.9682591,76.064118,PM2.5,32,148,58
India,Madhya Pradesh,Dewas,"Bhopal Chauraha, Dewas - MPPCB",16-06-2024 22:00:00,22.9682591,76.064118,NO2,12,15,13
India,Madhya Pradesh,Gwalior,"City Center, Gwalior - MPPCB",16-06-2024 22:00:00,26.203442,78.193251,OZONE,43,90,78
India,Madhya Pradesh,Gwalior,"Deen Dayal Nagar, Gwalior - MPPCB",16-06-2024 22:00:00,26.259242,78.216432,NO2,3,66,15
India,Madhya Pradesh,Gwalior,"Maharaj Bada, Gwalior - MPPCB",16-06-2024 22:00:00,26.200388,78.147714,NH3,1,6,3
India,Madhya Pradesh,Gwalior,"Phool Bagh, Gwalior - Mondelez Ind. Food",16-06-2024 22:00:00,26.210536,78.171,NO2,4,5,4
India,Madhya Pradesh,Indore,"Chhoti Gwaltoli, Indore - MPPCB",16-06-2024 22:00:00,22.4310,75.5213,PM2.5,22,88,39
India,Madhya Pradesh,Indore,"Maguda Nagar, Indore - IMC",16-06-2024 22:00:00,22.7524,75.8872,NH3,1,1,1
India,Madhya Pradesh,Jabalpur,"Govindh Bhavan Colony, Jabalpur - JMC",16-06-2024 22:00:00,23.163174,79.973061,OZONE,NA,NA,NA
India,Madhya Pradesh,Maihar,"Sahilara, Maihar - KJS Cements",16-06-2024 22:00:00,24.2613009,80.7231783,NO2,11,13,12
India,Madhya Pradesh,Pithampur,"Sector-2 Industrial Area, Pithampur - MPPCB",16-06-2024 22:00:00,22.624758,75.675238,PM2.5,30,93,55
India,Madhya Pradesh,Pithampur,"Sector-2 Industrial Area, Pithampur - MPPCB",16-06-2024 22:00:00,22.624758,75.675238,PM10,51,122,86
India,Madhya Pradesh,Sagar,"Civil Lines, Sagar - MPPCB",16-06-2024 22:00:00,23.838586,78.759431,PM2.5,19,38,30
India,Madhya Pradesh,Sagar,"Deen Dayal Nagar, Sagar - MPPCB",16-06-2024 22:00:00,23.8640158,78.80289321,SO2,10,12,12
India,Madhya Pradesh,Satna,"Bandhavgar Colony, Satna - Birla Cement",16-06-2024 22:00:00,24.58434363,80.8549414,PM10,28,77,44
India,Madhya Pradesh,Satna,"Bandhavgar Colony, Satna - Birla Cement",16-06-2024 22:00:00,24.58434363,80.8549414,SO2,2,4,3
India,Madhya Pradesh,Satna,"Bandhavgar Colony, Satna - Birla Cement",16-06-2024 22:00:00,24.58434363,80.8549414,CO,34,129,42
India,Maharashtra,Ahmednagar,"Tarakpur, Ahmednagar - MPCB",16-06-2024 22:00:00,19.10122,74.73339,PM10,29,110,57
India,Maharashtra,Ahmednagar,"Tarakpur, Ahmednagar - MPCB",16-06-2024 22:00:00,19.10122,74.73339,NH3,3,12,7
India,Maharashtra,Akola,"Ramdaspeth, Akola - MPCB",16-06-2024 22:00:00,20.719516,77.000253,SO2,14,27,16
India,Maharashtra,Amravati,"Shivneri Colony, Amravati - MPCB",16-06-2024 22:00:00,20.9402359,77.7895248,NO2,4,21,11
India,Maharashtra,Amravati,"Shivneri Colony, Amravati - MPCB",16-06-2024 22:00:00,20.9402359,77.7895248,CO,12,28,17
India,Maharashtra,Amravati,"Shri Shivaji Science College, Amaravati - MPCB",16-06-2024 22:00:00,20.939198,77.765701,NO2,6,54,13
India,Maharashtra,Amravati,"Shri Shivaji Science College, Amaravati - MPCB",16-06-2024 22:00:00,20.939198,77.765701,OZONE,7,44,35
India,Maharashtra,Badlapur,"Katrap, Badlapur - MPCB",16-06-2024 22:00:00,19.16485,73.23409,SO2,11,33,16
India,Maharashtra,Belapur,"CBD Belapur, Belapur - MPCB",16-06-2024 22:00:00,19.0243902,73.0406721,PM2.5,22,47,34
India,Maharashtra,Belapur,"CBD Belapur, Belapur - MPCB",16-06-2024 22:00:00,19.0243902,73.0406721,PM10,43,66,56
India,Maharashtra,Belapur,"CBD Belapur, Belapur - MPCB",16-06-2024 22:00:00,19.0243902,73.0406721,NO2,23,32,28
India,Maharashtra,Belapur,"CBD Belapur, Belapur - MPCB",16-06-2024 22:00:00,19.0243902,73.0406721,SO2,8,13,10
India,Maharashtra,Bhiwandi,"Gokul Nagar, Bhiwandi - MPCB",16-06-2024 22:00:00,19.309073,73.057223,NO2,13,67,30
India,Maharashtra,Bhiwandi,"Gokul Nagar, Bhiwandi - MPCB",16-06-2024 22:00:00,19.309073,73.057223,OZONE,16,70,53
India,Maharashtra,Boisar,"Khaira, Boisar - MPCB",16-06-2024 22:00:00,19.786089,72.757971,PM2.5,9,113,43
India,Maharashtra,Boisar,"Khaira, Boisar - MPCB",16-06-2024 22:00:00,19.786089,72.757971,NH3,1,14,4
India,Maharashtra,Boisar,"Khaira, Boisar - MPCB",16-06-2024 22:00:00,19.786089,72.757971,CO,2,22,14
India,Maharashtra,Chandrapur,"Chauhan Colony, Chandrapur - MPCB",16-06-2024 22:00:00,19.962900,79.298714,PM2.5,23,97,47
India,Maharashtra,Dhule,"Deopur, Dhule - MPCB",16-06-2024 22:00:00,20.918946,74.776388,NO2,6,27,12
India,Maharashtra,Dhule,"Deopur, Dhule - MPCB",16-06-2024 22:00:00,20.918946,74.776388,SO2,10,15,12
India,Maharashtra,Jalgaon,"Prabhat Colony, Jalgaon - MPCB",16-06-2024 22:00:00,21.001264,75.565602,NH3,1,18,8
India,Maharashtra,Jalgaon,"Prabhat Colony, Jalgaon - MPCB",16-06-2024 22:00:00,21.001264,75.565602,SO2,2,9,5
India,Maharashtra,Kolhapur,"Shivaji University, Kolhapur - MPCB",16-06-2024 22:00:00,16.6870449,74.2505872,PM2.5,20,45,32
India,Maharashtra,Kolhapur,"Shivaji University, Kolhapur - MPCB",16-06-2024 22:00:00,16.6870449,74.2505872,CO,3,30,18
India,Maharashtra,Kolhapur,"Sinchan Bhavan, Kolhapur - MPCB",16-06-2024 22:00:00,16.7143745,74.2426398,SO2,1,2,1
India,Maharashtra,Kolhapur,"Sinchan Bhavan, Kolhapur - MPCB",16-06-2024 22:00:00,16.7143745,74.2426398,OZONE,6,55,35
India,Maharashtra,Latur,"Sawe Wadi, Latur - MPCB",16-06-2024 22:00:00,18.39963,76.57452,PM2.5,8,28,19
India,Maharashtra,Malegaon,"Mahesh Nagar, Malegaon - MPCB",16-06-2024 22:00:00,20.555712,74.529236,PM10,26,55,42
India,Maharashtra,Malegaon,"Mahesh Nagar, Malegaon - MPCB",16-06-2024 22:00:00,20.555712,74.529236,CO,10,43,20
India,Maharashtra,Mumbai,"Bandra Kurla Complex, Mumbai - MPCB",16-06-2024 22:00:00,19.065931,72.862131,PM10,55,88,71
India,Maharashtra,Mumbai,"Borivali East, Mumbai - IITM",16-06-2024 22:00:00,19.23241,72.86895,NH3,6,9,8
India,Maharashtra,Mumbai,"Borivali East, Mumbai - IITM",16-06-2024 22:00:00,19.23241,72.86895,OZONE,21,31,25
India,Maharashtra,Mumbai,"Borivali East, Mumbai - MPCB",16-06-2024 22:00:00,19.2243333,72.8658113,CO,35,39,37
India,Maharashtra,Mumbai,"Byculla, Mumbai - BMC",16-06-2024 22:00:00,18.9767,72.8380,PM10,15,50,28
India,Maharashtra,Mumbai,"Chakala-Andheri East, Mumbai - IITM",16-06-2024 22:00:00,19.11074,72.86084,SO2,2,36,13
India,Maharashtra,Mumbai,"Chakala-Andheri East, Mumbai - IITM",16-06-2024 22:00:00,19.11074,72.86084,CO,2,37,8
India,Maharashtra,Mumbai,"Chembur, Mumbai - MPCB",16-06-2024 22:00:00,19.0364585,72.8954371,PM2.5,12,42,28
India,Maharashtra,Mumbai,"Deonar, Mumbai - IITM",16-06-2024 22:00:00,19.04946,72.9230,PM2.5,11,56,26
India,Maharashtra,Mumbai,"Deonar, Mumbai - IITM",16-06-2024 22:00:00,19.04946,72.9230,NO2,5,10,7
India,Maharashtra,Mumbai,"Kandivali West, Mumbai - BMC",16-06-2024 22:00:00,19.215859,72.831718,CO,6,28,14
India,Maharashtra,Mumbai,"Kandivali West, Mumbai - BMC",16-06-2024 22:00:00,19.215859,72.831718,OZONE,1,38,27
India,Maharashtra,Mumbai,"Kherwadi_Bandra East, Mumbai - MPCB",16-06-2024 22:00:00,19.0632143,72.8456324,PM10,46,95,61
India,Maharashtra,Mumbai,"Kherwadi_Bandra East, Mumbai - MPCB",16-06-2024 22:00:00,19.0632143,72.8456324,OZONE,1,49,33
India,Maharashtra,Mumbai,"Khindipada-Bhandup West, Mumbai - IITM",16-06-2024 22:00:00,19.1653323,72.922099,OZONE,4,20,14
India,Maharashtra,Mumbai,"Kurla, Mumbai - MPCB",16-06-2024 22:00:00,19.0863,72.8888,OZONE,26,28,28
India,Maharashtra,Mumbai,"Mulund West, Mumbai - MPCB",16-06-2024 22:00:00,19.1750,72.9419,PM10,NA,NA,NA
India,Maharashtra,Mumbai,"Mulund West, Mumbai - MPCB",16-06-2024 22:00:00,19.1750,72.9419,CO,NA,NA,NA
India,Maharashtra,Mumbai,"Mulund West, Mumbai - MPCB",16-06-2024 22:00:00,19.1750,72.9419,OZONE,NA,NA,NA
India,Maharashtra,Mumbai,"Navy Nagar-Colaba, Mumbai - IITM",16-06-2024 22:00:00,18.897756,72.813320,SO2,7,15,10
India,Maharashtra,Mumbai,"Powai, Mumbai - MPCB",16-06-2024 22:00:00,19.137500,72.915056,PM10,38,75,58
India,Maharashtra,Mumbai,"Powai, Mumbai - MPCB",16-06-2024 22:00:00,19.137500,72.915056,SO2,14,15,14
India,Maharashtra,Mumbai,"Sewri, Mumbai - BMC",16-06-2024 22:00:00,19.000084,72.856730,PM2.5,7,29,18
India,Maharashtra,Mumbai,"Vasai West, Mumbai - MPCB",16-06-2024 22:00:00,19.383200,72.820400,PM10,40,122,75
India,Maharashtra,Mumbai,"Vile Parle West, Mumbai - MPCB",16-06-2024 22:00:00,19.10861,72.83622,NO2,2,11,9
India,Maharashtra,Mumbai,"Worli, Mumbai - MPCB",16-06-2024 22:00:00,18.9936162,72.8128113,PM10,NA,NA,NA
India,Maharashtra,Mumbai,"Worli, Mumbai - MPCB",16-06-2024 22:00:00,18.9936162,72.8128113,OZONE,4,9,7
India,Maharashtra,Nagpur,"Ambazari, Nagpur - MPCB",16-06-2024 22:00:00,21.121801,79.04952,PM2.5,19,58,44
India,Maharashtra,Nagpur,"Ambazari, Nagpur - MPCB",16-06-2024 22:00:00,21.121801,79.04952,NO2,5,30,14
India,Maharashtra,Nagpur,"Mahal, Nagpur - MPCB",16-06-2024 22:00:00,21.14472,79.107595,PM10,35,66,49
India,Maharashtra,Nagpur,"Mahal, Nagpur - MPCB",16-06-2024 22:00:00,21.14472,79.107595,NO2,6,51,17
India,Maharashtra,Nagpur,"Mahal, Nagpur - MPCB",16-06-2024 22:00:00,21.14472,79.107595,SO2,10,38,16
India,Maharashtra,Nagpur,"Opp GPO Civil Lines, Nagpur - MPCB",16-06-2024 22:00:00,21.152875,79.0517531,SO2,3,10,6
India,Maharashtra,Nanded,"Sneh Nagar, Nanded - MPCB",16-06-2024 22:00:00,19.173852,77.296291,NH3,4,5,4
India,Maharashtra,Nashik,"Gangapur Road, Nashik - MPCB",16-06-2024 22:00:00,20.0073285,73.7762427,PM10,34,66,48
India,Maharashtra,Nashik,"Gangapur Road, Nashik - MPCB",16-06-2024 22:00:00,20.0073285,73.7762427,SO2,7,15,11
India,Maharashtra,Nashik,"Hirawadi, Nashik - MPCB",16-06-2024 22:00:00,20.021503,73.813844,OZONE,14,77,57
India,Maharashtra,Nashik,"MIDC Ambad, Nashik - MPCB",16-06-2024 22:00:00,19.950220,73.731480,NO2,6,14,8
India,Maharashtra,Nashik,"MIDC Ambad, Nashik - MPCB",16-06-2024 22:00:00,19.950220,73.731480,NH3,3,6,4
India,Maharashtra,Nashik,"Pandav Nagari, Nashik - MPCB",16-06-2024 22:00:00,19.9591346,73.7788008,PM2.5,17,39,29
India,Maharashtra,Nashik,"Pandav Nagari, Nashik - MPCB",16-06-2024 22:00:00,19.9591346,73.7788008,NH3,1,8,2
India,Maharashtra,Nashik,"Pandav Nagari, Nashik - MPCB",16-06-2024 22:00:00,19.9591346,73.7788008,SO2,4,8,6
India,Maharashtra,Nashik,"Pandav Nagari, Nashik - MPCB",16-06-2024 22:00:00,19.9591346,73.7788008,CO,10,16,13
India,Maharashtra,Nashik,"Pandav Nagari, Nashik - MPCB",16-06-2024 22:00:00,19.9591346,73.7788008,OZONE,19,49,37
India,Maharashtra,Navi Mumbai,"Kopripada-Vashi, Navi Mumbai - MPCB",16-06-2024 22:00:00,19.090337,73.014232,SO2,7,8,7
India,Maharashtra,Navi Mumbai,"Kopripada-Vashi, Navi Mumbai - MPCB",16-06-2024 22:00:00,19.090337,73.014232,CO,10,29,13
India,Maharashtra,Navi Mumbai,"Mahape, Navi Mumbai - MPCB",16-06-2024 22:00:00,19.1135051,73.008978,PM2.5,17,59,28
India,Maharashtra,Navi Mumbai,"Nerul, Navi Mumbai - MPCB",16-06-2024 22:00:00,19.008751,73.016620,NH3,3,6,4
India,Maharashtra,Navi Mumbai,"Sanpada, Navi Mumbai - MPCB",16-06-2024 22:00:00,19.0575752,73.0151367,NO2,7,37,20
India,Maharashtra,Navi Mumbai,"Sector-19A Nerul, Navi Mumbai - IITM",16-06-2024 22:00:00,19.044,73.0325,PM10,15,65,39
India,Maharashtra,Navi Mumbai,"Sector-2E Kalamboli, Navi Mumbai - MPCB",16-06-2024 22:00:00,19.02579,73.10297,PM10,46,116,70
India,Maharashtra,Navi Mumbai,"Tondare-Taloja, Navi Mumbai - MPCB",16-06-2024 22:00:00,19.0630,73.1209,OZONE,1,43,22
India,Maharashtra,Pune,"Alandi, Pune - IITM",16-06-2024 22:00:00,18.675076,73.892743,PM2.5,9,26,14
India,Maharashtra,Pune,"Bhosari, Pune - IITM",16-06-2024 22:00:00,18.640051,73.848956,OZONE,13,69,56
India,Maharashtra,Pune,"Bhumkar Nagar, Pune - IITM",16-06-2024 22:00:00,18.605770,73.749976,NO2,34,54,40
India,Maharashtra,Pune,"Hadapsar, Pune - IITM",16-06-2024 22:00:00,18.501793,73.927532,PM2.5,20,83,54
India,Maharashtra,Pune,"Karve Road, Pune - MPCB",16-06-2024 22:00:00,18.5011743,73.8165527,PM2.5,2,43,19
India,Maharashtra,Pune,"Karve Road, Pune - MPCB",16-06-2024 22:00:00,18.5011743,73.8165527,SO2,1,12,5
India,Maharashtra,Pune,"Karve Road, Pune - MPCB",16-06-2024 22:00:00,18.5011743,73.8165527,OZONE,2,40,20
India,Maharashtra,Sangli,"Vijay Nagar, Sangli - MPCB",16-06-2024 22:00:00, 16.5038,74.3623,NO2,4,25,11
India,Maharashtra,Sangli,"Vijay Nagar, Sangli - MPCB",16-06-2024 22:00:00, 16.5038,74.3623,OZONE,5,49,36
India,Maharashtra,Solapur,"Solapur, Solapur - MPCB",16-06-2024 22:00:00,17.6599188,75.9063906,PM2.5,50,71,63
India,Maharashtra,Thane,"Kasarvadavali, Thane - MPCB",16-06-2024 22:00:00,19.26777,72.97182,SO2,4,6,5
India,Maharashtra,Thane,"Pimpleshwar Mandir, Thane - MPCB",16-06-2024 22:00:00,19.192056,72.9585188,SO2,1,27,5
India,Maharashtra,Thane,"Upvan Fort, Thane - MPCB",16-06-2024 22:00:00,19.222279,72.957979,SO2,3,7,5
India,Maharashtra,Ulhasnagar,"Sidhi Vinayak Nagar, Ulhasnagar - MPCB",16-06-2024 22:00:00,19.235581,73.159121,NO2,13,42,19
India,Maharashtra,Ulhasnagar,"Sidhi Vinayak Nagar, Ulhasnagar - MPCB",16-06-2024 22:00:00,19.235581,73.159121,NH3,1,2,2
India,Maharashtra,Ulhasnagar,"Sidhi Vinayak Nagar, Ulhasnagar - MPCB",16-06-2024 22:00:00,19.235581,73.159121,SO2,11,15,13
India,Maharashtra,Ulhasnagar,"Sidhi Vinayak Nagar, Ulhasnagar - MPCB",16-06-2024 22:00:00,19.235581,73.159121,OZONE,6,77,40
India,Maharashtra,Virar,"Bolinj, Virar - MPCB",16-06-2024 22:00:00,19.4458210,72.7988231,PM2.5,18,65,40
India,Maharashtra,Virar,"Bolinj, Virar - MPCB",16-06-2024 22:00:00,19.4458210,72.7988231,NO2,12,12,12
India,Manipur,Imphal,"DM College of Science, Imphal - Manipur PCB",16-06-2024 22:00:00,24.8207389,93.9423085,PM2.5,4,23,15
India,Manipur,Imphal,"DM College of Science, Imphal - Manipur PCB",16-06-2024 22:00:00,24.8207389,93.9423085,NO2,7,8,7
India,Manipur,Imphal,"Manipur University, Imphal - Manipur PCB",16-06-2024 22:00:00,24.7524239,93.9286218,PM2.5,4,52,32
India,Manipur,Imphal,"Manipur University, Imphal - Manipur PCB",16-06-2024 22:00:00,24.7524239,93.9286218,CO,8,16,11
India,Manipur,Imphal,"Manipur University, Imphal - Manipur PCB",16-06-2024 22:00:00,24.7524239,93.9286218,OZONE,1,39,22
India,Meghalaya,Shillong,"Lumpyngngad, Shillong - Meghalaya PCB",16-06-2024 22:00:00,25.5586,91.8985,PM10,NA,NA,NA
India,Mizoram,Aizawl,"Sikulpuikawn, Aizawl - Mizoram PCB",16-06-2024 22:00:00,23.7176342,92.7192841,OZONE,1,17,5
India,Nagaland,Kohima,"PWD Juction, Kohima - NPCB",16-06-2024 22:00:00,25.6635413,94.0989878,NH3,NA,NA,NA
India,Nagaland,Kohima,"PWD Juction, Kohima - NPCB",16-06-2024 22:00:00,25.6635413,94.0989878,CO,7,20,15
India,Odisha,Barbil,"Forest Office, Barbil - OSPCB",16-06-2024 22:00:00,22.1166054,85.3945546,NH3,2,3,3
India,Odisha,Baripada,"Meher Colony, Baripada - OSPCB",16-06-2024 22:00:00,21.941841,86.728318,PM10,50,90,63
India,Odisha,Baripada,"Meher Colony, Baripada - OSPCB",16-06-2024 22:00:00,21.941841,86.728318,NO2,NA,NA,NA
India,Odisha,Bileipada,"Tata Township, Bileipada - OSPCB",16-06-2024 22:00:00,22.06156703,85.47409613,OZONE,3,27,14
India,Odisha,Brajrajnagar,"GM Office, Brajrajnagar - OSPCB",16-06-2024 22:00:00,21.8004996,83.8396977,NO2,15,22,16
India,Odisha,Byasanagar,"Ferro Chrome Colony, Byasanagar - OSPCB",16-06-2024 22:00:00,20.94185,86.11510,SO2,4,100,26
India,Odisha,Cuttack,"CDA Area, Cuttack - OSPCB",16-06-2024 22:00:00,20.48891     ,85.84768     ,NO2,11,37,18
India,Odisha,Cuttack,"CDA Area, Cuttack - OSPCB",16-06-2024 22:00:00,20.48891     ,85.84768     ,CO,8,34,21
India,Odisha,Keonjhar,"Jagamohanpur, Keonjhar - OSPCB",16-06-2024 22:00:00,21.643900,85.599355,PM2.5,22,64,39
India,Odisha,Keonjhar,"Jagamohanpur, Keonjhar - OSPCB",16-06-2024 22:00:00,21.643900,85.599355,NO2,4,12,9
India,Odisha,Keonjhar,"Jagamohanpur, Keonjhar - OSPCB",16-06-2024 22:00:00,21.643900,85.599355,NH3,3,4,3
India,Odisha,Rairangpur,"Divisional Forest Office, Rairangpur - OSPCB",16-06-2024 22:00:00,22.265816,86.174829,NO2,2,3,2
India,Odisha,Rourkela,"Fertilizer Township, Rourkela - OSPCB",16-06-2024 22:00:00,22.18972222,84.86277778,PM2.5,NA,NA,NA
India,Odisha,Suakati,"OMC Colony, Suakati - OSPCB",16-06-2024 22:00:00,21.606865,85.510538,PM2.5,25,71,38
India,Odisha,Suakati,"OMC Colony, Suakati - OSPCB",16-06-2024 22:00:00,21.606865,85.510538,PM10,28,88,42
India,Odisha,Talcher,"Talcher Coalfields,Talcher - OSPCB",16-06-2024 22:00:00,20.9360711,85.1707021,NO2,17,22,20
India,Odisha,Talcher,"Talcher Coalfields,Talcher - OSPCB",16-06-2024 22:00:00,20.9360711,85.1707021,NH3,3,4,3
India,Odisha,Talcher,"Talcher Coalfields,Talcher - OSPCB",16-06-2024 22:00:00,20.9360711,85.1707021,OZONE,22,26,25
India,Odisha,Tensa,"Barsua Iron Ore Mines, Tensa - OSPCB",16-06-2024 22:00:00,21.869985,85.167016,NH3,NA,NA,NA
India,Odisha,Tensa,"Barsua Iron Ore Mines, Tensa - OSPCB",16-06-2024 22:00:00,21.869985,85.167016,OZONE,13,75,39
India,Puducherry,Puducherry,"Jawahar Nagar, Puducherry - PPCC",16-06-2024 22:00:00,11.9309,79.8027,SO2,7,16,11
India,Punjab,Bathinda,"Hardev Nagar, Bathinda - PPCB",16-06-2024 22:00:00,30.233011,74.907758,PM2.5,40,171,85
India,Punjab,Jalandhar,"Civil Line, Jalandhar - PPCB",16-06-2024 22:00:00,31.321907,75.578914,PM10,112,144,129
India,Punjab,Khanna,"Kalal Majra, Khanna - PPCB",16-06-2024 22:00:00,30.736056 ,76.209694,CO,13,34,18
India,Punjab,Mandi Gobindgarh,"RIMT University, Mandi Gobindgarh - PPCB",16-06-2024 22:00:00,30.649961,76.331442,NH3,7,7,7
India,Punjab,Patiala,"Model Town, Patiala - PPCB",16-06-2024 22:00:00,30.349388,76.366642,PM2.5,55,88,72
India,Punjab,Rupnagar,"Ratanpura, Rupnagar - Ambuja Cements",16-06-2024 22:00:00,31.0325454,76.5623046,PM10,80,247,116
India,Rajasthan,Ajmer,"Civil Lines,  Ajmer - RSPCB",16-06-2024 22:00:00,26.470859,74.646594,SO2,11,19,14
India,Rajasthan,Ajmer,"Civil Lines,  Ajmer - RSPCB",16-06-2024 22:00:00,26.470859,74.646594,OZONE,16,185,31
India,Rajasthan,Alwar,"Moti Doongri, Alwar - RSPCB",16-06-2024 22:00:00,27.554793,76.611536,OZONE,13,81,55
India,Rajasthan,Banswara,"Rati Talai, Banswara - RSPCB",16-06-2024 22:00:00,23.555190,74.440010,SO2,4,7,6
India,Rajasthan,Banswara,"Rati Talai, Banswara - RSPCB",16-06-2024 22:00:00,23.555190,74.440010,CO,28,44,37
India,Rajasthan,Baran,"Bamboliya, Baran - RSPCB",16-06-2024 22:00:00,25.106006,76.469948,PM10,27,120,79
India,Rajasthan,Baran,"Bamboliya, Baran - RSPCB",16-06-2024 22:00:00,25.106006,76.469948,SO2,5,21,7
India,Rajasthan,Barmer,"Railway Colony, Barmer - RSPCB",16-06-2024 22:00:00,25.747299,71.393989,PM10,70,111,90
India,Rajasthan,Bhilwara,"Pratap Nagar, Bhilwara - RSPCB",16-06-2024 22:00:00,25.339605,74.618883,CO,22,39,30
India,Rajasthan,Bhiwadi,"RIICO Ind. Area III, Bhiwadi - RSPCB",16-06-2024 22:00:00,28.194909,76.862296,PM10,102,285,136
India,Rajasthan,Bhiwadi,"RIICO Ind. Area III, Bhiwadi - RSPCB",16-06-2024 22:00:00,28.194909,76.862296,NO2,1,58,27
India,Rajasthan,Bhiwadi,"RIICO Ind. Area III, Bhiwadi - RSPCB",16-06-2024 22:00:00,28.194909,76.862296,OZONE,10,89,51
India,Rajasthan,Bhiwadi,"Vasundhara Nagar_UIT, Bhiwadi - RSPCB",16-06-2024 22:00:00,28.207266,76.829265,NO2,NA,NA,NA
India,Rajasthan,Bikaner,"MM Ground, Bikaner - RSPCB",16-06-2024 22:00:00,28.018792,73.292658,NO2,21,56,36
India,Rajasthan,Bundi,"New Colony, Bundi - RSPCB",16-06-2024 22:00:00,25.435774,75.644272,PM2.5,40,59,44
India,Rajasthan,Bundi,"New Colony, Bundi - RSPCB",16-06-2024 22:00:00,25.435774,75.644272,PM10,68,238,112
India,Rajasthan,Chittorgarh,"Shastri Nagar, Chittorgarh - RSPCB",16-06-2024 22:00:00,24.892047,74.623527,PM10,65,184,99
India,Rajasthan,Churu,"Subash Chowk, Churu - RSPCB",16-06-2024 22:00:00,28.296139,74.961696,PM2.5,17,47,30
India,Rajasthan,Churu,"Subash Chowk, Churu - RSPCB",16-06-2024 22:00:00,28.296139,74.961696,NH3,12,21,16
India,Rajasthan,Churu,"Subash Chowk, Churu - RSPCB",16-06-2024 22:00:00,28.296139,74.961696,SO2,2,4,2
India,Rajasthan,Churu,"Subash Chowk, Churu - RSPCB",16-06-2024 22:00:00,28.296139,74.961696,CO,16,22,20
India,Rajasthan,Dausa,"Khatikan Mohalla, Dausa - RSPCB",16-06-2024 22:00:00,26.895552,76.334753,NO2,9,50,22
India,Rajasthan,Dholpur,"Raja Ganj, Dholpur - RSPCB",16-06-2024 22:00:00,26.699557,77.898881,SO2,2,6,4
India,Rajasthan,Hanumangarh,"Housing Board, Hanumangarh - RSPCB",16-06-2024 22:00:00,29.610750,74.283608,PM10,NA,NA,NA
India,Rajasthan,Jaipur,"Adarsh Nagar, Jaipur - RSPCB",16-06-2024 22:00:00,26.902909,75.836858,PM10,60,122,93
India,Rajasthan,Jaipur,"Adarsh Nagar, Jaipur - RSPCB",16-06-2024 22:00:00,26.902909,75.836858,CO,22,62,32
India,Rajasthan,Jaipur,"Adarsh Nagar, Jaipur - RSPCB",16-06-2024 22:00:00,26.902909,75.836858,OZONE,12,43,34
India,Rajasthan,Jaipur,"Police Commissionerate, Jaipur - RSPCB",16-06-2024 22:00:00,26.9164092,75.7994901,CO,18,58,34
India,Rajasthan,Jaipur,"RIICO Sitapura, Jaipur - RSPCB",16-06-2024 22:00:00,26.786682,75.827928,NO2,NA,NA,NA
India,Rajasthan,Jaipur,"RIICO Sitapura, Jaipur - RSPCB",16-06-2024 22:00:00,26.786682,75.827928,OZONE,36,94,82
India,Rajasthan,Jaipur,"Sector-2 Murlipura, Jaipur - RSPCB",16-06-2024 22:00:00,26.960669,75.771817,OZONE,18,60,59
India,Rajasthan,Jaipur,"Shastri Nagar, Jaipur - RSPCB",16-06-2024 22:00:00,26.9502929,75.730943,NO2,14,95,29
India,Rajasthan,Jaisalmer,"Sadar Bazar, Jaisalmer - RSPCB",16-06-2024 22:00:00,26.912329,70.909168,CO,37,61,44
India,Rajasthan,Jalore,"Mudtra Sili, Jalore - RSPCB",16-06-2024 22:00:00,25.344694,72.626208,NO2,4,22,8
India,Rajasthan,Jhalawar,"Rajlaxmi Nagar, Jhalawar - RSPCB",16-06-2024 22:00:00,24.588397,76.172782,PM10,37,111,79
India,Rajasthan,Jhunjhunu,"Indra Nagar, Jhunjhunu - RSPCB",16-06-2024 22:00:00,28.108988,75.386577,CO,8,20,12
India,Rajasthan,Jhunjhunu,"Indra Nagar, Jhunjhunu - RSPCB",16-06-2024 22:00:00,28.108988,75.386577,OZONE,8,76,66
India,Rajasthan,Jodhpur,"Collectorate, Jodhpur - RSPCB",16-06-2024 22:00:00,26.268249,73.0193853,SO2,1,11,5
India,Rajasthan,Jodhpur,"Digari Kalan, Jodhpur - RSPCB",16-06-2024 22:00:00,26.295810,73.082283,PM10,87,137,102
India,Rajasthan,Jodhpur,"Digari Kalan, Jodhpur - RSPCB",16-06-2024 22:00:00,26.295810,73.082283,SO2,2,5,4
India,Rajasthan,Jodhpur,"Jhalamand, Jodhpur - RSPCB",16-06-2024 22:00:00,26.215415,73.070156,OZONE,17,59,53
India,Rajasthan,Jodhpur,"Mandor, Jodhpur - RSPCB",16-06-2024 22:00:00,26.358805,73.047444,NH3,3,4,3
India,Rajasthan,Jodhpur,"Mandor, Jodhpur - RSPCB",16-06-2024 22:00:00,26.358805,73.047444,CO,13,22,19
India,Rajasthan,Jodhpur,"Samrat Ashok Udhyan, Jodhpur - RSPCB",16-06-2024 22:00:00,26.253384,72.976571,PM10,61,113,90
India,Rajasthan,Karauli,"Satyawati Vihar, Karauli - RSPCB",16-06-2024 22:00:00,26.506177,77.025989,PM10,NA,NA,NA
India,Rajasthan,Karauli,"Satyawati Vihar, Karauli - RSPCB",16-06-2024 22:00:00,26.506177,77.025989,OZONE,24,68,24
India,Rajasthan,Kota,"Dhanmandi, Kota - RSPCB",16-06-2024 22:00:00,25.164090,75.858137,PM2.5,20,54,35
India,Rajasthan,Kota,"Dhanmandi, Kota - RSPCB",16-06-2024 22:00:00,25.164090,75.858137,SO2,4,33,12
India,Rajasthan,Kota,"Dhanmandi, Kota - RSPCB",16-06-2024 22:00:00,25.164090,75.858137,OZONE,20,127,70
India,Rajasthan,Kota,"Nayapura, Kota - RSPCB",16-06-2024 22:00:00,25.196024,75.855668,PM2.5,29,61,45
India,Rajasthan,Kota,"Shrinath Puram, Kota - RSPCB",16-06-2024 22:00:00,25.14389,75.821256,NO2,20,39,25
India,Rajasthan,Nagaur,"Karni Colony, Nagaur - RSPCB",16-06-2024 22:00:00,27.213494,73.734444,NO2,4,17,8
India,Rajasthan,Nagaur,"Karni Colony, Nagaur - RSPCB",16-06-2024 22:00:00,27.213494,73.734444,NH3,4,12,8
India,Rajasthan,Nagaur,"Karni Colony, Nagaur - RSPCB",16-06-2024 22:00:00,27.213494,73.734444,SO2,3,7,5
India,Rajasthan,Pali,"Indira Colony Vistar, Pali - RSPCB",16-06-2024 22:00:00,25.771061, 73.340227,PM2.5,31,166,91
India,Rajasthan,Pratapgarh,"Pragati Nagar, Pratapgarh - RSPCB",16-06-2024 22:00:00,24.041198,74.780702,PM2.5,7,37,19
India,Rajasthan,Pratapgarh,"Pragati Nagar, Pratapgarh - RSPCB",16-06-2024 22:00:00,24.041198,74.780702,SO2,1,6,3
India,Rajasthan,Sawai Madhopur,"Sahu Nagar, Sawai Madhopur - RSPCB",16-06-2024 22:00:00,26.031443,76.359327,SO2,6,10,7
India,Rajasthan,Sikar,"Radhakishan Pura, Sikar - RSPCB",16-06-2024 22:00:00,27.608912,75.153302,PM2.5,24,64,39
India,Rajasthan,Sikar,"Radhakishan Pura, Sikar - RSPCB",16-06-2024 22:00:00,27.608912,75.153302,NO2,9,38,17
India,Rajasthan,Sikar,"Radhakishan Pura, Sikar - RSPCB",16-06-2024 22:00:00,27.608912,75.153302,SO2,1,3,1
India,Rajasthan,Sikar,"Radhakishan Pura, Sikar - RSPCB",16-06-2024 22:00:00,27.608912,75.153302,OZONE,33,81,69
India,Rajasthan,Sirohi,"Vedhaynath Colony, Sirohi - RSPCB",16-06-2024 22:00:00,24.885261,72.857549,PM2.5,17,65,29
India,Rajasthan,Sirohi,"Vedhaynath Colony, Sirohi - RSPCB",16-06-2024 22:00:00,24.885261,72.857549,OZONE,16,84,65
India,Rajasthan,Sri Ganganagar,"Old City, Sri Ganganagar - RSPCB",16-06-2024 22:00:00,29.931624,73.864511,NO2,10,49,30
India,Rajasthan,Tonk,"Shastri Nagar, Tonk - RSPCB",16-06-2024 22:00:00,26.159933,75.780517,PM2.5,NA,NA,NA
India,Rajasthan,Tonk,"Shastri Nagar, Tonk - RSPCB",16-06-2024 22:00:00,26.159933,75.780517,PM10,NA,NA,NA
India,Rajasthan,Tonk,"Shastri Nagar, Tonk - RSPCB",16-06-2024 22:00:00,26.159933,75.780517,NO2,NA,NA,NA
India,Rajasthan,Tonk,"Shastri Nagar, Tonk - RSPCB",16-06-2024 22:00:00,26.159933,75.780517,NH3,NA,NA,NA
India,Rajasthan,Udaipur,"Ashok Nagar, Udaipur - RSPCB",16-06-2024 22:00:00,24.5886166,73.6321397,NO2,29,72,43
India,Rajasthan,Udaipur,"Ashok Nagar, Udaipur - RSPCB",16-06-2024 22:00:00,24.5886166,73.6321397,CO,1,75,42
India,TamilNadu,Chennai,"Arumbakkam, Chennai - TNPCB",16-06-2024 22:00:00,13.0664,80.2112 ,PM10,NA,NA,NA
India,TamilNadu,Chennai,"Perungudi, Chennai - TNPCB",16-06-2024 22:00:00,12.9533,80.2357,NO2,2,7,5
India,TamilNadu,Chennai,"Perungudi, Chennai - TNPCB",16-06-2024 22:00:00,12.9533,80.2357,OZONE,2,15,6
India,TamilNadu,Chennai,"Royapuram, Chennai - TNPCB",16-06-2024 22:00:00,13.1036,80.2909,SO2,1,13,4
India,TamilNadu,Chennai,"Velachery Res. Area, Chennai - CPCB",16-06-2024 22:00:00,13.0052189,80.2398125,NO2,15,25,19
India,TamilNadu,Chennai,"Velachery Res. Area, Chennai - CPCB",16-06-2024 22:00:00,13.0052189,80.2398125,NH3,9,16,13
India,TamilNadu,Chennai,"Velachery Res. Area, Chennai - CPCB",16-06-2024 22:00:00,13.0052189,80.2398125,OZONE,1,2,1
India,TamilNadu,Cuddalore,"Kudikadu, Cuddalore - TNPCB",16-06-2024 22:00:00,11.6829898,79.7532099,PM10,12,122,49
India,TamilNadu,Gummidipoondi,"Anthoni Pillai Nagar, Gummidipoondi - TNPCB",16-06-2024 22:00:00,13.4127,80.1081,PM10,29,147,81
India,TamilNadu,Ramanathapuram,"Chalai Bazaar, Ramanathapuram - TNPCB",16-06-2024 22:00:00,9.36399,78.831977,PM10,24,42,32
India,TamilNadu,Ramanathapuram,"Chalai Bazaar, Ramanathapuram - TNPCB",16-06-2024 22:00:00,9.36399,78.831977,SO2,9,10,9
India,TamilNadu,Thoothukudi,"Meelavittan, Thoothukudi - TNPCB",16-06-2024 22:00:00,8.816428 ,78.099039,SO2,2,15,8
India,TamilNadu,Tirupur,"Kumaran College, Tirupur - TNPCB",16-06-2024 22:00:00,11.0973603,77.3228673,PM2.5,NA,NA,NA
India,Telangana,Hyderabad,"Bollaram Industrial Area, Hyderabad - TSPCB",16-06-2024 22:00:00,17.540891,78.358528,NO2,25,45,31
India,Telangana,Hyderabad,"Bollaram Industrial Area, Hyderabad - TSPCB",16-06-2024 22:00:00,17.540891,78.358528,SO2,14,68,31
India,Telangana,Hyderabad,"Bollaram Industrial Area, Hyderabad - TSPCB",16-06-2024 22:00:00,17.540891,78.358528,OZONE,34,36,35
India,Telangana,Hyderabad,"ICRISAT Patancheru, Hyderabad - TSPCB",16-06-2024 22:00:00,17.518400,78.278777,PM2.5,3,19,8
India,Telangana,Hyderabad,"ICRISAT Patancheru, Hyderabad - TSPCB",16-06-2024 22:00:00,17.518400,78.278777,SO2,4,20,13
India,Telangana,Hyderabad,"ICRISAT Patancheru, Hyderabad - TSPCB",16-06-2024 22:00:00,17.518400,78.278777,CO,7,40,14
India,Telangana,Hyderabad,"Kokapet, Hyderabad - TSPCB",16-06-2024 22:00:00,17.393559,78.339194,NO2,6,12,11
India,Telangana,Hyderabad,"Kokapet, Hyderabad - TSPCB",16-06-2024 22:00:00,17.393559,78.339194,NH3,1,2,2
India,Telangana,Hyderabad,"Kokapet, Hyderabad - TSPCB",16-06-2024 22:00:00,17.393559,78.339194,CO,22,28,27
India,Telangana,Hyderabad,"Kompally Municipal Office, Hyderabad - TSPCB",16-06-2024 22:00:00,17.544899,78.486949,PM2.5,NA,NA,NA
India,Telangana,Hyderabad,"Nacharam_TSIIC IALA, Hyderabad - TSPCB",16-06-2024 22:00:00,17.429398,78.569354,SO2,NA,NA,NA
India,Telangana,Hyderabad,"New Malakpet, Hyderabad - TSPCB",16-06-2024 22:00:00,17.37206,78.50864,OZONE,23,39,34
India,Telangana,Hyderabad,"Sanathnagar, Hyderabad - TSPCB",16-06-2024 22:00:00,17.4559458,78.4332152,SO2,3,12,6
India,Telangana,Hyderabad,"Zoo Park, Hyderabad - TSPCB",16-06-2024 22:00:00,17.349694,78.451437,NO2,9,21,13
India,Telangana,Hyderabad,"Zoo Park, Hyderabad - TSPCB",16-06-2024 22:00:00,17.349694,78.451437,OZONE,17,23,20
India,Tripura,Agartala,"Bardowali, Agartala - Tripura SPCB",16-06-2024 22:00:00,23.8175497,91.2726974,NO2,3,6,4
India,Uttar_Pradesh,Agra,"Manoharpur, Agra - UPPCB",16-06-2024 22:00:00,27.23711,78.01936,PM10,11,50,25
India,Uttar_Pradesh,Agra,"Manoharpur, Agra - UPPCB",16-06-2024 22:00:00,27.23711,78.01936,SO2,21,37,27
India,Uttar_Pradesh,Agra,"Sanjay Palace, Agra - UPPCB",16-06-2024 22:00:00,27.19865833,78.00598056,PM2.5,10,27,15
India,Uttar_Pradesh,Agra,"Sanjay Palace, Agra - UPPCB",16-06-2024 22:00:00,27.19865833,78.00598056,CO,8,109,40
India,Uttar_Pradesh,Agra,"Sector-3B Avas Vikas Colony, Agra - UPPCB",16-06-2024 22:00:00,27.19412,77.96237,NH3,4,11,7
India,Uttar_Pradesh,Agra,"Shahjahan Garden, Agra - UPPCB",16-06-2024 22:00:00,27.169338,78.03582,PM2.5,24,46,34
India,Uttar_Pradesh,Agra,"Shahjahan Garden, Agra - UPPCB",16-06-2024 22:00:00,27.169338,78.03582,CO,10,34,14
India,Uttar_Pradesh,Agra,"Shastripuram, Agra - UPPCB",16-06-2024 22:00:00,27.19862,77.92066,PM2.5,11,41,30
India,Uttar_Pradesh,Baghpat,"Sardar Patel Inter College, Baghpat - UPPCB",16-06-2024 22:00:00,28.964949,77.278761,NO2,15,199,50
India,Uttar_Pradesh,Baghpat,"Sardar Patel Inter College, Baghpat - UPPCB",16-06-2024 22:00:00,28.964949,77.278761,SO2,4,81,31
India,Uttar_Pradesh,Baghpat,"Sardar Patel Inter College, Baghpat - UPPCB",16-06-2024 22:00:00,28.964949,77.278761,OZONE,2,100,28
India,Uttar_Pradesh,Bareilly,"Rajendra Nagar, Bareilly - UPPCB",16-06-2024 22:00:00,28.38910936,79.42963708,PM2.5,18,32,25
India,Uttar_Pradesh,Bulandshahr,"Yamunapuram, Bulandshahr - UPPCB",16-06-2024 22:00:00,28.406963,77.849831,SO2,1,50,19
India,Uttar_Pradesh,Firozabad,"Nagla Bhau, Firozabad - UPPCB",16-06-2024 22:00:00,27.168897,78.376960,PM2.5,13,63,38
India,Uttar_Pradesh,Ghaziabad,"Indirapuram, Ghaziabad - UPPCB",16-06-2024 22:00:00,28.646233,77.358075,PM2.5,36,106,67
India,Uttar_Pradesh,Ghaziabad,"Indirapuram, Ghaziabad - UPPCB",16-06-2024 22:00:00,28.646233,77.358075,PM10,146,254,190
India,Uttar_Pradesh,Ghaziabad,"Indirapuram, Ghaziabad - UPPCB",16-06-2024 22:00:00,28.646233,77.358075,CO,36,151,77
India,Uttar_Pradesh,Ghaziabad,"Loni, Ghaziabad - UPPCB",16-06-2024 22:00:00,28.757294,77.278792,CO,16,68,37
India,Uttar_Pradesh,Ghaziabad,"Sanjay Nagar, Ghaziabad - UPPCB",16-06-2024 22:00:00,28.685382,77.453839,NO2,19,81,39
India,Uttar_Pradesh,Ghaziabad,"Vasundhara, Ghaziabad - UPPCB",16-06-2024 22:00:00,28.6603346,77.3572563,PM2.5,18,60,37
India,Uttar_Pradesh,Gorakhpur,"Madan Mohan Malaviya University of Technology, Gorakhpur - UPPCB",16-06-2024 22:00:00,26.730136,83.433859,NH3,1,1,1
India,Uttar_Pradesh,Gorakhpur,"Madan Mohan Malaviya University of Technology, Gorakhpur - UPPCB",16-06-2024 22:00:00,26.730136,83.433859,SO2,21,22,21
India,Uttar_Pradesh,Gorakhpur,"Madan Mohan Malaviya University of Technology, Gorakhpur - UPPCB",16-06-2024 22:00:00,26.730136,83.433859,CO,7,20,14
India,Uttar_Pradesh,Greater Noida,"Knowledge Park - III, Greater Noida - UPPCB",16-06-2024 22:00:00,28.47272,77.482000,OZONE,2,102,84
India,Uttar_Pradesh,Hapur,"Anand Vihar, Hapur - UPPCB",16-06-2024 22:00:00,28.725645,77.749675,NH3,NA,NA,NA
India,Uttar_Pradesh,Kanpur,"FTI Kidwai Nagar, Kanpur - UPPCB",16-06-2024 22:00:00,26.428282,80.327067,PM10,35,179,121
India,Uttar_Pradesh,Kanpur,"FTI Kidwai Nagar, Kanpur - UPPCB",16-06-2024 22:00:00,26.428282,80.327067,CO,26,51,31
India,Uttar_Pradesh,Kanpur,"NSI Kalyanpur, Kanpur - UPPCB",16-06-2024 22:00:00,26.509954,80.249612,OZONE,3,31,7
India,Uttar_Pradesh,Khurja,"Kalindi Kunj, Khurja - UPPCB",16-06-2024 22:00:00,28.2348927,77.8683002,PM10,NA,NA,NA
India,Uttar_Pradesh,Khurja,"Kalindi Kunj, Khurja - UPPCB",16-06-2024 22:00:00,28.2348927,77.8683002,NH3,1,2,2
India,Uttar_Pradesh,Lucknow,"B R Ambedkar University, Lucknow - UPPCB",16-06-2024 22:00:00,26.766433,80.927299,CO,20,28,22
India,Uttar_Pradesh,Lucknow,"Gomti Nagar, Lucknow - UPPCB",16-06-2024 22:00:00,26.868120,81.005119,OZONE,48,58,56
India,Uttar_Pradesh,Lucknow,"Kendriya Vidyalaya, Lucknow - CPCB",16-06-2024 22:00:00,26.906111,80.948222,PM10,118,148,134
India,Uttar_Pradesh,Lucknow,"Lalbagh, Lucknow - CPCB",16-06-2024 22:00:00,26.8458805,80.9365541,NO2,39,79,50
India,Uttar_Pradesh,Lucknow,"Talkatora District Industries Center, Lucknow - CPCB",16-06-2024 22:00:00,26.83399722,80.8917361,NH3,4,5,5
India,Uttar_Pradesh,Lucknow,"Talkatora District Industries Center, Lucknow - CPCB",16-06-2024 22:00:00,26.83399722,80.8917361,OZONE,31,188,111
India,Uttar_Pradesh,Meerut,"Ganga Nagar, Meerut - UPPCB",16-06-2024 22:00:00,28.999264,77.7590354,CO,66,106,83
India,Uttar_Pradesh,Meerut,"Ganga Nagar, Meerut - UPPCB",16-06-2024 22:00:00,28.999264,77.7590354,OZONE,8,61,35
India,Uttar_Pradesh,Meerut,"Jai Bhim Nagar, Meerut - UPPCB",16-06-2024 22:00:00,28.9535882,77.7622941,PM10,177,360,233
India,Uttar_Pradesh,Meerut,"Jai Bhim Nagar, Meerut - UPPCB",16-06-2024 22:00:00,28.9535882,77.7622941,OZONE,29,80,65
India,Uttar_Pradesh,Meerut,"Pallavpuram Phase 2, Meerut - UPPCB",16-06-2024 22:00:00,29.063510,77.709723,PM2.5,24,79,51
India,Uttar_Pradesh,Meerut,"Pallavpuram Phase 2, Meerut - UPPCB",16-06-2024 22:00:00,29.063510,77.709723,NH3,7,10,9
India,Uttar_Pradesh,Moradabad,"Buddhi Vihar, Moradabad - UPPCB",16-06-2024 22:00:00,28.83526,78.74460,PM2.5,30,91,48
India,Uttar_Pradesh,Moradabad,"Buddhi Vihar, Moradabad - UPPCB",16-06-2024 22:00:00,28.83526,78.74460,NH3,3,3,3
India,Uttar_Pradesh,Moradabad,"Eco Herbal Park, Moradabad - UPPCB",16-06-2024 22:00:00,28.840739,78.697531,NH3,6,13,8
India,Uttar_Pradesh,Moradabad,"Eco Herbal Park, Moradabad - UPPCB",16-06-2024 22:00:00,28.840739,78.697531,CO,12,48,27
India,Uttar_Pradesh,Moradabad,"Eco Herbal Park, Moradabad - UPPCB",16-06-2024 22:00:00,28.840739,78.697531,OZONE,24,130,98
India,Uttar_Pradesh,Moradabad,"Employment Office, Moradabad - UPPCB",16-06-2024 22:00:00,28.88528,78.73880,PM2.5,31,365,60
India,Uttar_Pradesh,Moradabad,"Employment Office, Moradabad - UPPCB",16-06-2024 22:00:00,28.88528,78.73880,PM10,108,280,127
India,Uttar_Pradesh,Moradabad,"Employment Office, Moradabad - UPPCB",16-06-2024 22:00:00,28.88528,78.73880,NH3,4,4,4
India,Uttar_Pradesh,Moradabad,"Employment Office, Moradabad - UPPCB",16-06-2024 22:00:00,28.88528,78.73880,CO,19,71,32
India,Uttar_Pradesh,Moradabad,"Jigar Colony, Moradabad - UPPCB",16-06-2024 22:00:00,28.856664,78.772638,PM2.5,34,62,49
India,Uttar_Pradesh,Moradabad,"Jigar Colony, Moradabad - UPPCB",16-06-2024 22:00:00,28.856664,78.772638,SO2,24,28,26
India,Uttar_Pradesh,Moradabad,"Kashiram Nagar, Moradabad - UPPCB",16-06-2024 22:00:00,28.849399,78.742362,NH3,3,4,4
India,Uttar_Pradesh,Moradabad,"Kashiram Nagar, Moradabad - UPPCB",16-06-2024 22:00:00,28.849399,78.742362,SO2,39,67,53
India,Uttar_Pradesh,Moradabad,"Kashiram Nagar, Moradabad - UPPCB",16-06-2024 22:00:00,28.849399,78.742362,CO,13,32,22
India,Uttar_Pradesh,Moradabad,"Kashiram Nagar, Moradabad - UPPCB",16-06-2024 22:00:00,28.849399,78.742362,OZONE,8,121,54
India,Uttar_Pradesh,Muzaffarnagar,"New Mandi, Muzaffarnagar - UPPCB",16-06-2024 22:00:00,29.4723508,77.7194031,NO2,5,32,12
India,Uttar_Pradesh,Noida,"Sector - 125, Noida - UPPCB",16-06-2024 22:00:00,28.5447608,77.3231257,PM2.5,45,340,105
India,Uttar_Pradesh,Noida,"Sector-1, Noida - UPPCB",16-06-2024 22:00:00,28.5898,77.3101,PM2.5,33,156,70
India,Uttar_Pradesh,Noida,"Sector-116, Noida - UPPCB",16-06-2024 22:00:00,28.569230,77.393848,PM10,130,228,182
India,Uttar_Pradesh,Prayagraj,"Jhunsi, Prayagraj - UPPCB",16-06-2024 22:00:00,25.425602,81.917152,PM2.5,26,82,46
India,Uttar_Pradesh,Prayagraj,"Jhunsi, Prayagraj - UPPCB",16-06-2024 22:00:00,25.425602,81.917152,NO2,5,6,6
India,Uttar_Pradesh,Prayagraj,"Motilal Nehru NIT, Prayagraj - UPPCB",16-06-2024 22:00:00,25.494,81.863,NO2,12,12,12
India,Uttar_Pradesh,Prayagraj,"Motilal Nehru NIT, Prayagraj - UPPCB",16-06-2024 22:00:00,25.494,81.863,OZONE,3,54,42
India,Uttar_Pradesh,Prayagraj,"Nagar Nigam, Prayagraj - UPPCB",16-06-2024 22:00:00,25.44919916 ,81.82735986 ,NH3,3,5,4
India,Uttar_Pradesh,Prayagraj,"Nagar Nigam, Prayagraj - UPPCB",16-06-2024 22:00:00,25.44919916 ,81.82735986 ,OZONE,10,12,11
India,Uttar_Pradesh,Varanasi,"Ardhali Bazar, Varanasi - UPPCB",16-06-2024 22:00:00,25.3505986,82.9083074,CO,28,48,35
India,Uttar_Pradesh,Varanasi,"Ardhali Bazar, Varanasi - UPPCB",16-06-2024 22:00:00,25.3505986,82.9083074,OZONE,19,22,20
India,Uttar_Pradesh,Varanasi,"IESD Banaras Hindu University, Varanasi - UPPCB",16-06-2024 22:00:00,25.262326,82.995408,PM10,26,48,33
India,Uttar_Pradesh,Varanasi,"Maldahiya, Varanasi - UPPCB",16-06-2024 22:00:00,25.32393,82.99687,NH3,1,1,1
India,Uttar_Pradesh,Vrindavan,"Omex Eternity, Vrindavan - UPPCB",16-06-2024 22:00:00,27.5714090,77.6557570,PM2.5,17,42,27
India,Uttar_Pradesh,Vrindavan,"Omex Eternity, Vrindavan - UPPCB",16-06-2024 22:00:00,27.5714090,77.6557570,PM10,31,246,90
India,Uttarakhand,Dehradun,"Doon University, Dehradun - UKPCB",16-06-2024 22:00:00,30.269444,78.044167,PM10,112,184,143
India,Uttarakhand,Kashipur,"Govt. Girls Inter College, Kashipur - UKPCB",16-06-2024 22:00:00,29.2124114,78.9611753,CO,6,86,36
India,Uttarakhand,Rishikesh,"Shivaji Nagar, Rishikesh - UKPCB",16-06-2024 22:00:00,30.075911,78.2859547,PM2.5,NA,NA,NA
India,Uttarakhand,Rishikesh,"Shivaji Nagar, Rishikesh - UKPCB",16-06-2024 22:00:00,30.075911,78.2859547,CO,13,40,16
India,Uttarakhand,Rishikesh,"Shivaji Nagar, Rishikesh - UKPCB",16-06-2024 22:00:00,30.075911,78.2859547,OZONE,18,109,101
India,West_Bengal,Asansol,"Asansol Court Area, Asansol - WBPCB",16-06-2024 22:00:00,23.685297,86.945968,NO2,27,49,35
India,West_Bengal,Asansol,"Evelyn Lodge, Asansol - WBPCB",16-06-2024 22:00:00,23.6979360,86.9443950,CO,56,102,66
India,West_Bengal,Durgapur,"Sidhu Kanhu Indoor Stadium, Durgapur - WBPCB",16-06-2024 22:00:00,23.5404352,87.2892225,NO2,21,35,26
India,West_Bengal,Haldia,"Priyambada Housing Estate, Haldia - WBPCB",16-06-2024 22:00:00,22.06047,88.109737,OZONE,20,34,29
India,West_Bengal,Howrah,"Botanical Garden, Howrah - WBPCB",16-06-2024 22:00:00,22.554954,88.292568,NO2,5,30,12
India,West_Bengal,Howrah,"Botanical Garden, Howrah - WBPCB",16-06-2024 22:00:00,22.554954,88.292568,SO2,4,6,5
India,West_Bengal,Howrah,"Ghusuri, Howrah - WBPCB",16-06-2024 22:00:00,22.611968,88.347422,PM2.5,26,68,48
India,West_Bengal,Howrah,"Ghusuri, Howrah - WBPCB",16-06-2024 22:00:00,22.611968,88.347422,OZONE,18,29,24
India,West_Bengal,Kolkata,"Ballygunge, Kolkata - WBPCB",16-06-2024 22:00:00,22.5367507,88.3638022,PM10,42,58,49
India,West_Bengal,Kolkata,"Bidhannagar, Kolkata - WBPCB",16-06-2024 22:00:00,22.58157048,88.41002457,SO2,8,12,10
India,West_Bengal,Kolkata,"Rabindra Bharati University, Kolkata - WBPCB",16-06-2024 22:00:00,22.627847,88.380669,PM2.5,19,40,29
India,West_Bengal,Kolkata,"Rabindra Bharati University, Kolkata - WBPCB",16-06-2024 22:00:00,22.627847,88.380669,CO,26,30,27
India,West_Bengal,Kolkata,"Rabindra Sarobar, Kolkata - WBPCB",16-06-2024 22:00:00,22.51106,88.35142,NH3,11,14,12
India,West_Bengal,Kolkata,"Rabindra Sarobar, Kolkata - WBPCB",16-06-2024 22:00:00,22.51106,88.35142,SO2,7,8,7
India,West_Bengal,Kolkata,"Victoria, Kolkata - WBPCB",16-06-2024 22:00:00,22.5448082,88.3403691,NO2,25,32,28
India,West_Bengal,Siliguri,"Ward-32 Bapupara, Siliguri - WBPCB",16-06-2024 22:00:00,26.6879226,88.4152495,PM10,17,35,27
India,West_Bengal,Siliguri,"Ward-32 Bapupara, Siliguri - WBPCB",16-06-2024 22:00:00,26.6879226,88.4152495,NO2,23,31,25
India,Andhra_Pradesh,Amaravati,"Secretariat, Amaravati - APPCB",16-06-2024 22:00:00,16.5150833,80.5181667,OZONE,4,39,32
India,Andhra_Pradesh,Chittoor,"Gangineni Cheruvu, Chittoor - APPCB",16-06-2024 22:00:00,13.204880,79.097889,CO,14,23,18
India,Andhra_Pradesh,Kadapa,"Yerramukkapalli, Kadapa - APPCB",16-06-2024 22:00:00,14.465052,78.824187,OZONE,NA,NA,NA
India,Andhra_Pradesh,Rajamahendravaram,"Anand Kala Kshetram, Rajamahendravaram - APPCB",16-06-2024 22:00:00,16.9872867,81.7363176,SO2,11,12,11
India,Andhra_Pradesh,Rajamahendravaram,"Anand Kala Kshetram, Rajamahendravaram - APPCB",16-06-2024 22:00:00,16.9872867,81.7363176,CO,16,73,43
India,Andhra_Pradesh,Tirupati,"Tirumala, Tirupati - APPCB",16-06-2024 22:00:00,13.67,79.35,NO2,19,33,23
India,Andhra_Pradesh,Tirupati,"Tirumala, Tirupati - APPCB",16-06-2024 22:00:00,13.67,79.35,SO2,1,8,4
India,Andhra_Pradesh,Tirupati,"Vaikuntapuram, Tirupati - APPCB",16-06-2024 22:00:00,13.615387,79.409230,SO2,NA,NA,NA
India,Andhra_Pradesh,Vijayawada,"HB Colony, Vijayawada - APPCB",16-06-2024 22:00:00,16.536107,80.594233,PM2.5,39,68,51
India,Andhra_Pradesh,Vijayawada,"Kanuru, Vijayawada - APPCB",16-06-2024 22:00:00,16.486692,80.699436,PM2.5,NA,NA,NA
India,Andhra_Pradesh,Vijayawada,"Kanuru, Vijayawada - APPCB",16-06-2024 22:00:00,16.486692,80.699436,PM10,NA,NA,NA
India,Andhra_Pradesh,Vijayawada,"Kanuru, Vijayawada - APPCB",16-06-2024 22:00:00,16.486692,80.699436,OZONE,40,40,40
India,Andhra_Pradesh,Vijayawada,"Rajiv Gandhi Park, Vijayawada - APPCB",16-06-2024 22:00:00,16.509717,80.612222,PM10,44,65,52
India,Andhra_Pradesh,Vijayawada,"Rajiv Gandhi Park, Vijayawada - APPCB",16-06-2024 22:00:00,16.509717,80.612222,NO2,21,28,24
India,Andhra_Pradesh,Visakhapatnam,"GVM Corporation, Visakhapatnam - APPCB",16-06-2024 22:00:00,17.72,83.3,SO2,5,13,10
India,Assam,Guwahati,"LGBI Airport, Guwahati - PCBA",16-06-2024 22:00:00,26.10887,91.589544,NH3,1,3,1
India,Assam,Guwahati,"LGBI Airport, Guwahati - PCBA",16-06-2024 22:00:00,26.10887,91.589544,OZONE,22,25,24
India,Assam,Guwahati,"Railway Colony, Guwahati - PCBA",16-06-2024 22:00:00,26.181742,91.78063,CO,20,33,26
India,Assam,Nagaon,"Christianpatty, Nagaon - PCBA",16-06-2024 22:00:00,26.349082,92.68449,SO2,9,10,9
India,Assam,Nalbari,"Bata Chowk, Nalbari - PCBA",16-06-2024 22:00:00,26.446912,91.439057,NO2,12,20,15
India,Assam,Sivasagar,"Girls College, Sivasagar - PCBA",16-06-2024 22:00:00,26.987634,94.636574,PM10,44,62,55
India,Assam,Sivasagar,"Girls College, Sivasagar - PCBA",16-06-2024 22:00:00,26.987634,94.636574,NO2,8,11,10
India,Assam,Sivasagar,"Girls College, Sivasagar - PCBA",16-06-2024 22:00:00,26.987634,94.636574,SO2,2,4,3
India,Bihar,Arrah,"New DM Office, Arrah - BSPCB",16-06-2024 22:00:00,25.5626095,84.663264,OZONE,9,18,17
India,Bihar,Aurangabad,"Gurdeo Nagar, Aurangabad - BSPCB",16-06-2024 22:00:00,24.75746,84.366208,SO2,11,23,19
India,Bihar,Bettiah,"Kamalnath Nagar, Bettiah - BSPCB",16-06-2024 22:00:00,26.80365,84.51954,PM2.5,27,77,49
India,Bihar,Bettiah,"Kamalnath Nagar, Bettiah - BSPCB",16-06-2024 22:00:00,26.80365,84.51954,CO,28,56,42
India,Bihar,Bhagalpur,"Mayaganj, Bhagalpur - BSPCB",16-06-2024 22:00:00,25.265194,87.012947,PM2.5,82,315,147
India,Bihar,Bhagalpur,"Mayaganj, Bhagalpur - BSPCB",16-06-2024 22:00:00,25.265194,87.012947,NH3,9,10,10
India,Bihar,Bihar Sharif,"D M Colony, Bihar Sharif - BSPCB",16-06-2024 22:00:00,25.204762,85.514960,PM2.5,13,240,91
India,Bihar,Bihar Sharif,"D M Colony, Bihar Sharif - BSPCB",16-06-2024 22:00:00,25.204762,85.514960,SO2,3,3,3
India,Bihar,Gaya,"Collectorate, Gaya - BSPCB",16-06-2024 22:00:00,24.7955,84.9994,SO2,3,14,7
India,Bihar,Gaya,"Collectorate, Gaya - BSPCB",16-06-2024 22:00:00,24.7955,84.9994,CO,6,50,15
India,Bihar,Gaya,"SFTI Kusdihra, Gaya - BSPCB",16-06-2024 22:00:00,24.762518,84.982348,PM10,65,159,85
India,Bihar,Gaya,"SFTI Kusdihra, Gaya - BSPCB",16-06-2024 22:00:00,24.762518,84.982348,NO2,30,33,31
India,Bihar,Gaya,"SFTI Kusdihra, Gaya - BSPCB",16-06-2024 22:00:00,24.762518,84.982348,OZONE,23,47,39
India,Bihar,Hajipur,"Industrial Area, Hajipur - BSPCB",16-06-2024 22:00:00,25.697189,85.245900,NO2,9,31,18
India,Bihar,Hajipur,"Industrial Area, Hajipur - BSPCB",16-06-2024 22:00:00,25.697189,85.245900,NH3,10,15,13
India,Bihar,Katihar,"Mirchaibari, Katihar - BSPCB",16-06-2024 22:00:00,25.560083,87.553265,NO2,3,4,4
India,Bihar,Katihar,"Mirchaibari, Katihar - BSPCB",16-06-2024 22:00:00,25.560083,87.553265,SO2,6,13,9
India,Bihar,Kishanganj,"SDM Office_Khagra, Kishanganj - BSPCB",16-06-2024 22:00:00,26.0881305,87.93840336,NO2,72,75,73
India,Bihar,Kishanganj,"SDM Office_Khagra, Kishanganj - BSPCB",16-06-2024 22:00:00,26.0881305,87.93840336,NH3,6,7,6
India,Bihar,Munger,"Town Hall, Munger - BSPCB",16-06-2024 22:00:00,25.376776,86.471523,PM2.5,50,375,106
India,Bihar,Muzaffarpur,"Buddha Colony, Muzaffarpur - BSPCB",16-06-2024 22:00:00,26.11442,85.39813,PM10,NA,NA,NA
India,Bihar,Muzaffarpur,"Buddha Colony, Muzaffarpur - BSPCB",16-06-2024 22:00:00,26.11442,85.39813,OZONE,NA,NA,NA
India,Bihar,Muzaffarpur,"MIT-Daudpur Kothi, Muzaffarpur - BSPCB",16-06-2024 22:00:00,26.1403345,85.3650192,PM2.5,NA,NA,NA
India,Bihar,Muzaffarpur,"MIT-Daudpur Kothi, Muzaffarpur - BSPCB",16-06-2024 22:00:00,26.1403345,85.3650192,CO,9,80,39
India,Bihar,Patna,"DRM Office Danapur, Patna - BSPCB",16-06-2024 22:00:00,25.586562,85.043586,OZONE,11,67,57
India,Bihar,Patna,"Govt. High School Shikarpur, Patna - BSPCB",16-06-2024 22:00:00,25.592539,85.227158,NH3,4,5,5
India,Bihar,Patna,"IGSC Planetarium Complex, Patna - BSPCB",16-06-2024 22:00:00,25.610369,85.132568,PM2.5,NA,NA,NA
India,Bihar,Patna,"Muradpur, Patna - BSPCB",16-06-2024 22:00:00,25.619651,85.147382,NO2,1,76,19
India,Bihar,Patna,"Muradpur, Patna - BSPCB",16-06-2024 22:00:00,25.619651,85.147382,CO,51,72,57
India,Bihar,Patna,"Rajbansi Nagar, Patna - BSPCB",16-06-2024 22:00:00,25.599486,85.113666,NO2,6,20,11
India,Bihar,Patna,"Samanpura, Patna - BSPCB",16-06-2024 22:00:00,25.596727,85.085624,PM2.5,88,178,119
India,Bihar,Patna,"Samanpura, Patna - BSPCB",16-06-2024 22:00:00,25.596727,85.085624,NO2,NA,NA,NA
India,Bihar,Purnia,"Mariam Nagar, Purnia - BSPCB",16-06-2024 22:00:00,25.366336,87.117468,NO2,2,18,5
India,Bihar,Purnia,"Mariam Nagar, Purnia - BSPCB",16-06-2024 22:00:00,25.366336,87.117468,OZONE,6,38,22
India,Bihar,Rajgir,"Dangi Tola, Rajgir - BSPCB",16-06-2024 22:00:00,25.03280,85.41948,NH3,1,2,2
India,Bihar,Rajgir,"Dangi Tola, Rajgir - BSPCB",16-06-2024 22:00:00,25.03280,85.41948,SO2,4,4,4
India,Bihar,Rajgir,"Dangi Tola, Rajgir - BSPCB",16-06-2024 22:00:00,25.03280,85.41948,OZONE,24,45,34
India,Chandigarh,Chandigarh,"Sector-25, Chandigarh - CPCC",16-06-2024 22:00:00,30.751462,76.762879,PM10,159,196,176
India,Chandigarh,Chandigarh,"Sector-25, Chandigarh - CPCC",16-06-2024 22:00:00,30.751462,76.762879,NO2,6,18,12
India,Chandigarh,Chandigarh,"Sector-25, Chandigarh - CPCC",16-06-2024 22:00:00,30.751462,76.762879,NH3,9,17,13
India,Chandigarh,Chandigarh,"Sector-25, Chandigarh - CPCC",16-06-2024 22:00:00,30.751462,76.762879,SO2,16,27,19
India,Chandigarh,Chandigarh,"Sector-25, Chandigarh - CPCC",16-06-2024 22:00:00,30.751462,76.762879,CO,16,24,17
India,Chandigarh,Chandigarh,"Sector-53, Chandigarh - CPCC",16-06-2024 22:00:00,30.719859,76.738637,NO2,10,38,21
India,Chhattisgarh,Bhilai,"32Bungalows, Bhilai - CECB",16-06-2024 22:00:00,21.194815,81.314770,OZONE,11,53,41
India,Chhattisgarh,Bhilai,"Civic Center, Bhilai - Bhilai Steel Plant",16-06-2024 22:00:00,21.185571,81.343175,OZONE,13,68,44
India,Chhattisgarh,Bhilai,"Hathkhoj, Bhilai - CECB",16-06-2024 22:00:00,21.224231,81.408350,PM2.5,18,63,35
India,Chhattisgarh,Chhal,"Nawapara SECL Colony, Chhal - CECB",16-06-2024 22:00:00,22.118125,83.140608,NH3,2,2,2
India,Chhattisgarh,Chhal,"Nawapara SECL Colony, Chhal - CECB",16-06-2024 22:00:00,22.118125,83.140608,SO2,10,27,13
India,Chhattisgarh,Korba,"Urja Nagar, Korba - CECB",16-06-2024 22:00:00,22.348441,82.549611,PM10,NA,NA,NA
India,Chhattisgarh,Korba,"Urja Nagar, Korba - CECB",16-06-2024 22:00:00,22.348441,82.549611,CO,4,44,32
India,Chhattisgarh,Kunjemura,"OP Jindal School, Kunjemura - CECB",16-06-2024 22:00:00,22.126650,83.483212,PM10,13,158,60
India,Chhattisgarh,Kunjemura,"OP Jindal School, Kunjemura - CECB",16-06-2024 22:00:00,22.126650,83.483212,CO,24,44,33
India,Chhattisgarh,Milupara,"Govt. Higher Secondary School, Milupara - CECB",16-06-2024 22:00:00,22.1910172,83.5197009,PM2.5,NA,NA,NA
India,Chhattisgarh,Raipur,"AIIMS, Raipur - CECB",16-06-2024 22:00:00,21.258815,81.578979,PM10,38,108,58
India,Chhattisgarh,Raipur,"AIIMS, Raipur - CECB",16-06-2024 22:00:00,21.258815,81.578979,NO2,11,34,18
India,Chhattisgarh,Raipur,"AIIMS, Raipur - CECB",16-06-2024 22:00:00,21.258815,81.578979,SO2,4,10,6
India,Chhattisgarh,Raipur,"Bhatagaon New ISBT, Raipur - CECB",16-06-2024 22:00:00,21.219665,81.630094,PM2.5,23,79,44
India,Chhattisgarh,Raipur,"Bhatagaon New ISBT, Raipur - CECB",16-06-2024 22:00:00,21.219665,81.630094,NH3,2,2,2
India,Chhattisgarh,Raipur,"Bhatagaon New ISBT, Raipur - CECB",16-06-2024 22:00:00,21.219665,81.630094,SO2,4,7,6
India,Chhattisgarh,Raipur,"Bhatagaon New ISBT, Raipur - CECB",16-06-2024 22:00:00,21.219665,81.630094,OZONE,4,6,5
India,Chhattisgarh,Raipur,"Krishak Nagar, Raipur - CECB",16-06-2024 22:00:00,21.237755,81.705301,NO2,5,5,5
India,Chhattisgarh,Raipur,"Krishak Nagar, Raipur - CECB",16-06-2024 22:00:00,21.237755,81.705301,NH3,1,1,1
India,Chhattisgarh,Raipur,"Siltara Phase-II, Raipur - CECB",16-06-2024 22:00:00,21.371751,81.664929,NH3,3,3,3
India,Chhattisgarh,Raipur,"Siltara Phase-II, Raipur - CECB",16-06-2024 22:00:00,21.371751,81.664929,SO2,1,78,18
India,Chhattisgarh,Tumidih,"OP Jindal Industrial Park, Tumidih - CECB",16-06-2024 22:00:00,22.06631475,83.33820077,PM2.5,13,79,34
India,Chhattisgarh,Tumidih,"OP Jindal Industrial Park, Tumidih - CECB",16-06-2024 22:00:00,22.06631475,83.33820077,PM10,12,152,55
India,Delhi,Delhi,"Alipur, Delhi - DPCC",16-06-2024 22:00:00,28.815329,77.153010,NO2,22,47,34
India,Delhi,Delhi,"Ashok Vihar, Delhi - DPCC",16-06-2024 22:00:00,28.695381,77.181665,PM2.5,40,157,83
India,Delhi,Delhi,"Ashok Vihar, Delhi - DPCC",16-06-2024 22:00:00,28.695381,77.181665,SO2,9,39,21
India,Delhi,Delhi,"Aya Nagar, Delhi - IMD",16-06-2024 22:00:00,28.4706914,77.1099364,PM10,127,195,157
India,Delhi,Delhi,"CRRI Mathura Road, Delhi - IMD",16-06-2024 22:00:00,28.5512005,77.2735737,PM10,119,250,178
India,Delhi,Delhi,"DTU, Delhi - CPCB",16-06-2024 22:00:00,28.7500499,77.1112615,SO2,41,63,46
India,Delhi,Delhi,"Dr. Karni Singh Shooting Range, Delhi - DPCC",16-06-2024 22:00:00,28.498571,77.264840,NO2,18,91,39
India,Delhi,Delhi,"Dwarka-Sector 8, Delhi - DPCC ",16-06-2024 22:00:00,28.5710274,77.0719006,PM10,140,352,220
India,Delhi,Delhi,"Dwarka-Sector 8, Delhi - DPCC ",16-06-2024 22:00:00,28.5710274,77.0719006,NH3,4,8,6
India,Delhi,Delhi,"Dwarka-Sector 8, Delhi - DPCC ",16-06-2024 22:00:00,28.5710274,77.0719006,CO,2,124,19
India,Delhi,Delhi,"IGI Airport (T3), Delhi - IMD",16-06-2024 22:00:00,28.5627763,77.1180053,PM2.5,31,209,74
India,Delhi,Delhi,"IGI Airport (T3), Delhi - IMD",16-06-2024 22:00:00,28.5627763,77.1180053,NO2,15,47,26
India,Delhi,Delhi,"IGI Airport (T3), Delhi - IMD",16-06-2024 22:00:00,28.5627763,77.1180053,OZONE,2,34,21
India,Delhi,Delhi,"IHBAS, Dilshad Garden, Delhi - CPCB",16-06-2024 22:00:00,28.6811736,77.3025234,SO2,17,66,44
India,Delhi,Delhi,"ITO, Delhi - CPCB",16-06-2024 22:00:00,28.628624,77.241060,PM10,75,129,99
India,Delhi,Delhi,"ITO, Delhi - CPCB",16-06-2024 22:00:00,28.628624,77.241060,CO,54,92,64
India,Delhi,Delhi,"Jahangirpuri, Delhi - DPCC",16-06-2024 22:00:00,28.732820,77.170633,NO2,6,65,27
India,Delhi,Delhi,"Jahangirpuri, Delhi - DPCC",16-06-2024 22:00:00,28.732820,77.170633,OZONE,6,81,60
India,Delhi,Delhi,"Jawaharlal Nehru Stadium, Delhi - DPCC",16-06-2024 22:00:00,28.580280,77.233829,PM2.5,18,110,49
India,Delhi,Delhi,"Jawaharlal Nehru Stadium, Delhi - DPCC",16-06-2024 22:00:00,28.580280,77.233829,CO,19,84,43
India,Delhi,Delhi,"Lodhi Road, Delhi - IMD",16-06-2024 22:00:00,28.5918245,77.2273074,PM2.5,35,143,72
India,Delhi,Delhi,"Major Dhyan Chand National Stadium, Delhi - DPCC",16-06-2024 22:00:00,28.611281,77.237738,PM2.5,50,253,120
India,Delhi,Delhi,"Major Dhyan Chand National Stadium, Delhi - DPCC",16-06-2024 22:00:00,28.611281,77.237738,OZONE,4,113,84
India,Delhi,Delhi,"Mandir Marg, Delhi - DPCC",16-06-2024 22:00:00,28.636429,77.201067,PM10,NA,NA,NA
India,Delhi,Delhi,"Mundka, Delhi - DPCC",16-06-2024 22:00:00,28.684678,77.076574,NH3,7,15,9
India,Delhi,Delhi,"NSIT Dwarka, Delhi - CPCB",16-06-2024 22:00:00,28.60909,77.0325413,OZONE,5,49,28
India,Delhi,Delhi,"Najafgarh, Delhi - DPCC",16-06-2024 22:00:00,28.570173,76.933762,PM2.5,20,190,68
India,Delhi,Delhi,"Narela, Delhi - DPCC",16-06-2024 22:00:00,28.822836,77.101981,NO2,4,58,22
India,Delhi,Delhi,"Nehru Nagar, Delhi - DPCC",16-06-2024 22:00:00,28.567890,77.250515,PM2.5,28,220,87
India,Delhi,Delhi,"Nehru Nagar, Delhi - DPCC",16-06-2024 22:00:00,28.567890,77.250515,NO2,7,56,23
India,Delhi,Delhi,"Okhla Phase-2, Delhi - DPCC",16-06-2024 22:00:00,28.530785,77.271255,NO2,21,125,68
India,Delhi,Delhi,"Okhla Phase-2, Delhi - DPCC",16-06-2024 22:00:00,28.530785,77.271255,OZONE,3,75,48
India,Delhi,Delhi,"Patparganj, Delhi - DPCC",16-06-2024 22:00:00,28.623763,77.287209,OZONE,3,115,82
India,Delhi,Delhi,"Pusa, Delhi - DPCC",16-06-2024 22:00:00,28.639652,77.146275,PM10,141,332,212
India,Delhi,Delhi,"Pusa, Delhi - IMD",16-06-2024 22:00:00,28.636110,77.173332,CO,24,42,28
India,Delhi,Delhi,"R K Puram, Delhi - DPCC",16-06-2024 22:00:00,28.563262,77.186937,NH3,4,9,6
India,Delhi,Delhi,"R K Puram, Delhi - DPCC",16-06-2024 22:00:00,28.563262,77.186937,CO,9,102,32
India,Delhi,Delhi,"Shadipur, Delhi - CPCB",16-06-2024 22:00:00,28.6514781,77.1473105,PM2.5,255,364,304
India,Delhi,Delhi,"Shadipur, Delhi - CPCB",16-06-2024 22:00:00,28.6514781,77.1473105,NO2,81,146,113
India,Delhi,Delhi,"Sirifort, Delhi - CPCB",16-06-2024 22:00:00,28.5504249,77.2159377,NO2,30,69,49
India,Delhi,Delhi,"Sonia Vihar, Delhi - DPCC",16-06-2024 22:00:00,28.710508,77.249485,PM10,117,228,169
India,Delhi,Delhi,"Sonia Vihar, Delhi - DPCC",16-06-2024 22:00:00,28.710508,77.249485,SO2,4,23,14
India,Delhi,Delhi,"Sonia Vihar, Delhi - DPCC",16-06-2024 22:00:00,28.710508,77.249485,CO,4,24,10
India,Delhi,Delhi,"Sri Aurobindo Marg, Delhi - DPCC",16-06-2024 22:00:00,28.531346,77.190156,PM2.5,37,170,73
India,Delhi,Delhi,"Sri Aurobindo Marg, Delhi - DPCC",16-06-2024 22:00:00,28.531346,77.190156,PM10,127,236,181
India,Delhi,Delhi,"Wazirpur, Delhi - DPCC",16-06-2024 22:00:00,28.699793,77.165453,PM2.5,NA,NA,NA
India,Gujarat,Ahmedabad,"Chandkheda, Ahmedabad - IITM",16-06-2024 22:00:00,23.107969,72.574648,NO2,50,68,65
India,Gujarat,Ahmedabad,"Gyaspur, Ahmedabad - IITM",16-06-2024 22:00:00,22.977134,72.553024,PM2.5,70,247,112
India,Gujarat,Ahmedabad,"Gyaspur, Ahmedabad - IITM",16-06-2024 22:00:00,22.977134,72.553024,OZONE,3,75,54
India,Gujarat,Ahmedabad,"Maninagar, Ahmedabad - GPCB",16-06-2024 22:00:00,23.002657,72.591912,PM2.5,NA,NA,NA
India,Gujarat,Ahmedabad,"Maninagar, Ahmedabad - GPCB",16-06-2024 22:00:00,23.002657,72.591912,OZONE,25,74,53
India,Gujarat,Ahmedabad,"Raikhad, Ahmedabad - IITM",16-06-2024 22:00:00,23.020509,72.579261,PM2.5,42,320,135
India,Gujarat,Ahmedabad,"Rakhial, Ahmedabad - IITM",16-06-2024 22:00:00,23.016834,72.625775,NO2,29,368,184
India,Gujarat,Ahmedabad,"Rakhial, Ahmedabad - IITM",16-06-2024 22:00:00,23.016834,72.625775,SO2,15,30,23
India,Gujarat,Ahmedabad,"Sardar Vallabhbhai Patel Stadium, Ahmedabad - IITM",16-06-2024 22:00:00,23.043070,72.562968,PM2.5,46,93,60
India,Gujarat,Ahmedabad,"Sardar Vallabhbhai Patel Stadium, Ahmedabad - IITM",16-06-2024 22:00:00,23.043070,72.562968,PM10,52,112,71
India,Gujarat,Ahmedabad,"Sardar Vallabhbhai Patel Stadium, Ahmedabad - IITM",16-06-2024 22:00:00,23.043070,72.562968,CO,12,22,18
India,Gujarat,Ankleshwar,"GIDC, Ankleshwar - GPCB",16-06-2024 22:00:00,21.613267,73.010555,CO,30,78,45
India,Gujarat,Gandhinagar,"GIFT City, Gandhinagar - IITM",16-06-2024 22:00:00,23.163798,72.677768,CO,12,19,15
India,Gujarat,Gandhinagar,"Sector-10, Gandhinagar - GPCB",16-06-2024 22:00:00,23.221714,72.654328,PM2.5,17,43,29
India,Gujarat,Gandhinagar,"Sector-10, Gandhinagar - GPCB",16-06-2024 22:00:00,23.221714,72.654328,NO2,21,23,22
India,Gujarat,Gandhinagar,"Sector-10, Gandhinagar - GPCB",16-06-2024 22:00:00,23.221714,72.654328,NH3,2,2,2
India,Gujarat,Nandesari,"GIDC, Nandesari - Nandesari Ind. Association",16-06-2024 22:00:00,22.410802,73.097923,PM10,75,171,124
India,Gujarat,Surat,"Science Center, Surat - SMC",16-06-2024 22:00:00,21.170046,72.795405,SO2,10,12,11
India,Gujarat,Vapi,"Phase-1 GIDC, Vapi - GPCB",16-06-2024 22:00:00,20.362421,72.918013,PM2.5,11,36,22
India,Gujarat,Vapi,"Phase-1 GIDC, Vapi - GPCB",16-06-2024 22:00:00,20.362421,72.918013,NO2,6,7,6
India,Gujarat,Vatva,"Phase-4 GIDC, Vatva - GPCB",16-06-2024 22:00:00,22.969611,72.643500,CO,14,100,23
India,Haryana,Ambala,"Patti Mehar, Ambala - HSPCB",16-06-2024 22:00:00,30.379589,76.778328,NH3,5,12,9
India,Haryana,Ballabgarh,"Nathu Colony, Ballabgarh - HSPCB",16-06-2024 22:00:00,28.3419248,77.319699,PM10,154,246,189
India,Haryana,Ballabgarh,"Nathu Colony, Ballabgarh - HSPCB",16-06-2024 22:00:00,28.3419248,77.319699,NH3,1,3,2
India,Haryana,Charkhi Dadri,"Mini Secretariat, Charkhi Dadri - HSPCB",16-06-2024 22:00:00,28.593883,76.270653,PM2.5,54,196,106
India,Haryana,Charkhi Dadri,"Mini Secretariat, Charkhi Dadri - HSPCB",16-06-2024 22:00:00,28.593883,76.270653,NH3,6,8,7
India,Haryana,Charkhi Dadri,"Mini Secretariat, Charkhi Dadri - HSPCB",16-06-2024 22:00:00,28.593883,76.270653,OZONE,13,17,15
India,Haryana,Dharuhera,"Municipal Corporation Office, Dharuhera -  HSPCB",16-06-2024 22:00:00,28.206800,76.799700,PM10,38,94,64
India,Haryana,Dharuhera,"Municipal Corporation Office, Dharuhera -  HSPCB",16-06-2024 22:00:00,28.206800,76.799700,CO,8,46,19
India,Haryana,Faridabad,"Sector 11, Faridabad - HSPCB",16-06-2024 22:00:00,28.376058,77.315741,CO,22,50,37
India,Haryana,Faridabad,"Sector 30, Faridabad - HSPCB",16-06-2024 22:00:00,28.4417,77.3217,CO,18,50,24
India,Haryana,Faridabad,"Sector 30, Faridabad - HSPCB",16-06-2024 22:00:00,28.4417,77.3217,OZONE,2,34,27
India,Haryana,Fatehabad,"Huda Sector, Fatehabad - HSPCB",16-06-2024 22:00:00,29.503664,75.467934,CO,44,46,44
India,Haryana,Gurugram,"NISE Gwal Pahari, Gurugram - IMD",16-06-2024 22:00:00,28.422681,77.148944,CO,64,82,68
India,Haryana,Gurugram,"NISE Gwal Pahari, Gurugram - IMD",16-06-2024 22:00:00,28.422681,77.148944,OZONE,19,59,48
India,Haryana,Gurugram,"Sector-51, Gurugram - HSPCB",16-06-2024 22:00:00,28.4227,77.0667,PM10,152,338,214
India,Haryana,Gurugram,"Sector-51, Gurugram - HSPCB",16-06-2024 22:00:00,28.4227,77.0667,SO2,2,7,4
India,Haryana,Gurugram,"Sector-51, Gurugram - HSPCB",16-06-2024 22:00:00,28.4227,77.0667,OZONE,27,36,33
India,Haryana,Gurugram,"Teri Gram, Gurugram - HSPCB",16-06-2024 22:00:00,28.4275,77.1465,CO,12,56,36
India,Haryana,Gurugram,"Vikas Sadan, Gurugram - HSPCB",16-06-2024 22:00:00,28.4501238,77.0263051,PM2.5,85,304,191
India,Haryana,Jind,"Police Lines, Jind - HSPCB",16-06-2024 22:00:00,29.307814,76.337619,NO2,1,26,7
India,Haryana,Jind,"Police Lines, Jind - HSPCB",16-06-2024 22:00:00,29.307814,76.337619,SO2,2,93,14
India,Haryana,Jind,"Police Lines, Jind - HSPCB",16-06-2024 22:00:00,29.307814,76.337619,CO,2,72,34
India,Haryana,Kaithal,"Rishi Nagar, Kaithal - HSPCB",16-06-2024 22:00:00,29.8006,76.4155,NO2,NA,NA,NA
India,Haryana,Kaithal,"Rishi Nagar, Kaithal - HSPCB",16-06-2024 22:00:00,29.8006,76.4155,NH3,NA,NA,NA
India,Haryana,Karnal,"Sector-12, Karnal - HSPCB",16-06-2024 22:00:00,29.695300,77.002700,SO2,12,13,13
India,Haryana,Kurukshetra,"Sector-7, Kurukshetra - HSPCB",16-06-2024 22:00:00,29.966942,76.875879,PM2.5,84,158,109
India,Haryana,Manesar,"Sector-2 IMT, Manesar - HSPCB",16-06-2024 22:00:00,28.360699,76.936090,PM2.5,45,115,74
India,Haryana,Manesar,"Sector-2 IMT, Manesar - HSPCB",16-06-2024 22:00:00,28.360699,76.936090,NO2,20,27,24
India,Haryana,Manesar,"Sector-2 IMT, Manesar - HSPCB",16-06-2024 22:00:00,28.360699,76.936090,SO2,NA,NA,NA
India,Haryana,Palwal,"Shyam Nagar, Palwal - HSPCB",16-06-2024 22:00:00,28.1485564,77.3320667,PM10,70,108,89
India,Haryana,Panipat,"Sector-18, Panipat - HSPCB",16-06-2024 22:00:00,29.432304,76.972765,NO2,31,32,31
India,Haryana,Panipat,"Sector-18, Panipat - HSPCB",16-06-2024 22:00:00,29.432304,76.972765,NH3,2,3,3
India,Haryana,Rohtak,"MD University, Rohtak - HSPCB",16-06-2024 22:00:00,28.52123,76.37138,NO2,48,55,51
India,Haryana,Rohtak,"MD University, Rohtak - HSPCB",16-06-2024 22:00:00,28.52123,76.37138,SO2,5,7,6
India,Haryana,Sirsa,"F-Block, Sirsa - HSPCB",16-06-2024 22:00:00,29.536400,75.015800,SO2,18,24,22
India,Haryana,Sirsa,"F-Block, Sirsa - HSPCB",16-06-2024 22:00:00,29.536400,75.015800,OZONE,24,62,35
India,Haryana,Sonipat,"Murthal, Sonipat - HSPCB",16-06-2024 22:00:00,29.027200,77.062100,PM2.5,87,164,128
India,Haryana,Sonipat,"Murthal, Sonipat - HSPCB",16-06-2024 22:00:00,29.027200,77.062100,NH3,7,10,9
India,Haryana,Sonipat,"Murthal, Sonipat - HSPCB",16-06-2024 22:00:00,29.027200,77.062100,CO,24,26,25
India,Haryana,Yamuna Nagar,"Gobind Pura, Yamuna Nagar - HSPCB",16-06-2024 22:00:00,30.1480566,77.2893471,NO2,11,20,16
India,Haryana,Yamuna Nagar,"Gobind Pura, Yamuna Nagar - HSPCB",16-06-2024 22:00:00,30.1480566,77.2893471,SO2,1,8,5
India,Himachal Pradesh,Baddi,"HIMUDA Complex Phase-1, Baddi - HPPCB",16-06-2024 22:00:00,30.943887,76.801991,NO2,9,30,16
India,Himachal Pradesh,Baddi,"HIMUDA Complex Phase-1, Baddi - HPPCB",16-06-2024 22:00:00,30.943887,76.801991,NH3,4,7,6
India,Jharkhand,Dhanbad,"Kalakusuma, Dhanbad - DMC",16-06-2024 22:00:00,23.811548,86.481238,CO,130,134,131
India,Karnataka,Bagalkot,"Vidayagiri, Bagalkot - KSPCB",16-06-2024 22:00:00,16.172806,75.659694,OZONE,NA,NA,NA
India,Karnataka,Belgaum,"Ramteerth Nagar, Belgaum - KSPCB",16-06-2024 22:00:00,15.888653,74.541751,OZONE,19,20,19
India,Karnataka,Bengaluru,"Jayanagar 5th Block, Bengaluru - KSPCB",16-06-2024 22:00:00,12.920984,77.584908,NH3,2,2,2
India,Karnataka,Bengaluru,"Jigani, Bengaluru - KSPCB",16-06-2024 22:00:00,12.7816279,77.6299145,NH3,4,4,4
India,Karnataka,Bengaluru,"Jigani, Bengaluru - KSPCB",16-06-2024 22:00:00,12.7816279,77.6299145,CO,24,37,26
India,Karnataka,Bengaluru,"Peenya, Bengaluru - CPCB",16-06-2024 22:00:00,13.0270199,77.494094,NH3,3,4,3
India,Karnataka,Bengaluru,"Sanegurava Halli, Bengaluru - KSPCB",16-06-2024 22:00:00,12.990328,77.5431385,PM10,34,42,36
India,Karnataka,Bengaluru,"Shivapura_Peenya, Bengaluru - KSPCB",16-06-2024 22:00:00,13.0246342,77.5080115,PM10,25,75,46
India,Karnataka,Bengaluru,"Silk Board, Bengaluru - KSPCB",16-06-2024 22:00:00,12.917348,77.622813,PM2.5,8,35,20
India,Karnataka,Chamarajanagar,"Urban, Chamarajanagar - KSPCB",16-06-2024 22:00:00,11.55358,76.55521,PM2.5,26,42,31
India,Karnataka,Chamarajanagar,"Urban, Chamarajanagar - KSPCB",16-06-2024 22:00:00,11.55358,76.55521,NO2,23,35,29
India,Karnataka,Chikkaballapur,"Chikkaballapur Rural, Chikkaballapur - KSPCB",16-06-2024 22:00:00,13.428828,77.731418,NH3,1,1,1
India,Karnataka,Chikkamagaluru,"Kalyana Nagara, Chikkamagaluru - KSPCB",16-06-2024 22:00:00,13.328028,75.797056,PM10,23,79,44
India,Karnataka,Chikkamagaluru,"Kalyana Nagara, Chikkamagaluru - KSPCB",16-06-2024 22:00:00,13.328028,75.797056,NH3,2,4,3
India,Karnataka,Davanagere,"Devaraj Urs Badavane, Davanagere - KSPCB",16-06-2024 22:00:00,14.475800,75.905200,SO2,1,7,5
India,Karnataka,Gadag,"Panchal Nagar, Gadag - KSPCB",16-06-2024 22:00:00,15.411456,75.638133,PM2.5,3,15,9
India,Karnataka,Gadag,"Panchal Nagar, Gadag - KSPCB",16-06-2024 22:00:00,15.411456,75.638133,NO2,1,22,13
India,Karnataka,Hassan,"B.Katihalli, Hassan - KSPCB",16-06-2024 22:00:00,13.008556,76.125258,NO2,NA,NA,NA
India,Karnataka,Hassan,"B.Katihalli, Hassan - KSPCB",16-06-2024 22:00:00,13.008556,76.125258,CO,NA,NA,NA
India,Karnataka,Haveri,"Ashwini Nagar, Haveri - KSPCB",16-06-2024 22:00:00,14.791800,75.389600,PM2.5,NA,NA,NA
India,Karnataka,Haveri,"Ashwini Nagar, Haveri - KSPCB",16-06-2024 22:00:00,14.791800,75.389600,PM10,NA,NA,NA
India,Karnataka,Kalaburagi,"Lal Bahadur Shastri Nagar, Kalaburagi - KSPCB",16-06-2024 22:00:00,17.321993,76.822628,PM10,7,49,27
India,Karnataka,Kalaburagi,"Mahatma Basaveswar Colony, Kalaburgi - KSPCB",16-06-2024 22:00:00,17.336318,76.847397,CO,NA,NA,NA
India,Karnataka,Kalaburagi,"Mahatma Basaveswar Colony, Kalaburgi - KSPCB",16-06-2024 22:00:00,17.336318,76.847397,OZONE,NA,NA,NA
India,Karnataka,Kolar,"Tamaka Ind. Area, Kolar - KSPCB",16-06-2024 22:00:00,13.1276288,78.1570122,NO2,NA,NA,NA
India,Karnataka,Kolar,"Tamaka Ind. Area, Kolar - KSPCB",16-06-2024 22:00:00,13.1276288,78.1570122,NH3,NA,NA,NA
India,Karnataka,Madikeri,"Stuart Hill, Madikeri - KSPCB",16-06-2024 22:00:00,12.415911,75.735050,PM10,12,33,25
India,Karnataka,Mangalore,"Kadri, Mangalore - KSPCB",16-06-2024 22:00:00,12.889250,74.853000,SO2,10,10,10
India,Karnataka,Mangalore,"Kadri, Mangalore - KSPCB",16-06-2024 22:00:00,12.889250,74.853000,CO,34,41,35
India,Karnataka,Mangalore,"Kadri, Mangalore - KSPCB",16-06-2024 22:00:00,12.889250,74.853000,OZONE,31,32,31
India,Karnataka,Mysuru,"Hebbal 1st Stage, Mysuru - KSPCB",16-06-2024 22:00:00,12.21041,76.37376,SO2,1,4,2
India,Karnataka,Shivamogga,"Vinoba Nagara, Shivamogga - KSPCB",16-06-2024 22:00:00,13.940000,75.555917,PM2.5,13,69,28
India,Karnataka,Udupi,"Brahmagiri, Udupi - KSPCB",16-06-2024 22:00:00,13.34194444,74.74694444,PM2.5,NA,NA,NA
India,Karnataka,Udupi,"Brahmagiri, Udupi - KSPCB",16-06-2024 22:00:00,13.34194444,74.74694444,NH3,NA,NA,NA
India,Karnataka,Udupi,"Brahmagiri, Udupi - KSPCB",16-06-2024 22:00:00,13.34194444,74.74694444,OZONE,NA,NA,NA
India,Karnataka,Vijayapura,"Ibrahimpur, Vijayapura - KSPCB",16-06-2024 22:00:00,16.802639,75.722694,NO2,17,19,19
India,Karnataka,Yadgir,"Collector Office, Yadgir - KSPCB",16-06-2024 22:00:00,16.7602,77.1428,SO2,NA,NA,NA
India,Kerala,Eloor,"Udyogamandal, Eloor - Kerala PCB",16-06-2024 22:00:00,10.073232,76.302765,PM10,26,40,31
India,Kerala,Kollam,"Polayathode, Kollam - Kerala PCB",16-06-2024 22:00:00,8.8787,76.6073,OZONE,30,36,34
India,Madhya Pradesh,Bhopal,"Idgah Hills, Bhopal - MPPCB",16-06-2024 22:00:00,23.264759,77.381568,SO2,8,12,11
India,Madhya Pradesh,Bhopal,"Paryavaran Parisar, Bhopal - MPPCB",16-06-2024 22:00:00,23.210494,77.425409,CO,16,47,25
India,Madhya Pradesh,Bhopal,"T T Nagar, Bhopal - MPPCB",16-06-2024 22:00:00,23.233584,77.400574,NH3,5,8,6
India,Madhya Pradesh,Dewas,"Bhopal Chauraha, Dewas - MPPCB",16-06-2024 22:00:00,22.9682591,76.064118,OZONE,3,28,20
India,Madhya Pradesh,Gwalior,"City Center, Gwalior - MPPCB",16-06-2024 22:00:00,26.203442,78.193251,PM2.5,20,99,35
India,Madhya Pradesh,Gwalior,"City Center, Gwalior - MPPCB",16-06-2024 22:00:00,26.203442,78.193251,PM10,17,142,54
India,Madhya Pradesh,Gwalior,"City Center, Gwalior - MPPCB",16-06-2024 22:00:00,26.203442,78.193251,NH3,2,5,3
India,Madhya Pradesh,Gwalior,"Deen Dayal Nagar, Gwalior - MPPCB",16-06-2024 22:00:00,26.259242,78.216432,NH3,3,5,4
India,Madhya Pradesh,Gwalior,"Deen Dayal Nagar, Gwalior - MPPCB",16-06-2024 22:00:00,26.259242,78.216432,OZONE,38,114,89
India,Madhya Pradesh,Gwalior,"Maharaj Bada, Gwalior - MPPCB",16-06-2024 22:00:00,26.200388,78.147714,SO2,14,35,25
India,Madhya Pradesh,Indore,"Chhoti Gwaltoli, Indore - MPPCB",16-06-2024 22:00:00,22.4310,75.5213,NO2,34,93,50
India,Madhya Pradesh,Indore,"Chhoti Gwaltoli, Indore - MPPCB",16-06-2024 22:00:00,22.4310,75.5213,SO2,10,13,11
India,Madhya Pradesh,Jabalpur,"Govindh Bhavan Colony, Jabalpur - JMC",16-06-2024 22:00:00,23.163174,79.973061,PM2.5,NA,NA,NA
India,Madhya Pradesh,Jabalpur,"Gupteshwar, Jabalpur - JMC",16-06-2024 22:00:00,23.142888,79.916147,PM2.5,50,68,57
India,Madhya Pradesh,Jabalpur,"Marhatal, Jabalpur - MPPCB",16-06-2024 22:00:00,23.168606,79.932247,PM10,41,112,67
India,Madhya Pradesh,Jabalpur,"Marhatal, Jabalpur - MPPCB",16-06-2024 22:00:00,23.168606,79.932247,SO2,10,16,13
India,Madhya Pradesh,Katni,"Gole Bazar, Katni - MPPCB",16-06-2024 22:00:00,23.50016,80.23284,PM10,45,99,74
India,Madhya Pradesh,Katni,"Gole Bazar, Katni - MPPCB",16-06-2024 22:00:00,23.50016,80.23284,OZONE,15,91,60
India,Madhya Pradesh,Maihar,"Sahilara, Maihar - KJS Cements",16-06-2024 22:00:00,24.2613009,80.7231783,PM2.5,3,56,26
India,Madhya Pradesh,Mandideep,"Sector-D Industrial Area, Mandideep - MPPCB",16-06-2024 22:00:00,23.108440,77.511428,PM10,33,117,68
India,Madhya Pradesh,Mandideep,"Sector-D Industrial Area, Mandideep - MPPCB",16-06-2024 22:00:00,23.108440,77.511428,SO2,2,83,19
India,Madhya Pradesh,Pithampur,"Sector-2 Industrial Area, Pithampur - MPPCB",16-06-2024 22:00:00,22.624758,75.675238,NO2,4,39,15
India,Madhya Pradesh,Pithampur,"Sector-2 Industrial Area, Pithampur - MPPCB",16-06-2024 22:00:00,22.624758,75.675238,NH3,5,10,8
India,Madhya Pradesh,Ratlam,"Shasthri Nagar, Ratlam - IPCA Lab",16-06-2024 22:00:00,23.331731,75.045981,PM2.5,11,222,46
India,Madhya Pradesh,Ratlam,"Shasthri Nagar, Ratlam - IPCA Lab",16-06-2024 22:00:00,23.331731,75.045981,NO2,13,13,13
India,Madhya Pradesh,Ratlam,"Shasthri Nagar, Ratlam - IPCA Lab",16-06-2024 22:00:00,23.331731,75.045981,SO2,28,31,29
India,Madhya Pradesh,Ujjain,"Mahakaleshwar Temple, Ujjain - MPPCB",16-06-2024 22:00:00,23.182719 ,75.768218 ,PM2.5,29,82,54
India,Maharashtra,Ahmednagar,"Tarakpur, Ahmednagar - MPCB",16-06-2024 22:00:00,19.10122,74.73339,PM2.5,21,78,48
India,Maharashtra,Ahmednagar,"Tarakpur, Ahmednagar - MPCB",16-06-2024 22:00:00,19.10122,74.73339,OZONE,8,48,38
India,Maharashtra,Akola,"Ramdaspeth, Akola - MPCB",16-06-2024 22:00:00,20.719516,77.000253,CO,15,72,31
India,Maharashtra,Amravati,"Shivneri Colony, Amravati - MPCB",16-06-2024 22:00:00,20.9402359,77.7895248,PM2.5,18,67,37
India,Maharashtra,Amravati,"Shivneri Colony, Amravati - MPCB",16-06-2024 22:00:00,20.9402359,77.7895248,SO2,NA,NA,NA
India,Maharashtra,Amravati,"Shivneri Colony, Amravati - MPCB",16-06-2024 22:00:00,20.9402359,77.7895248,OZONE,20,65,55
India,Maharashtra,Amravati,"Shri Shivaji Science College, Amaravati - MPCB",16-06-2024 22:00:00,20.939198,77.765701,NH3,3,4,3
India,Maharashtra,Amravati,"Shri Shivaji Science College, Amaravati - MPCB",16-06-2024 22:00:00,20.939198,77.765701,SO2,1,3,1
India,Maharashtra,Aurangabad,"More Chowk Waluj, Aurangabad - MPCB",16-06-2024 22:00:00,19.8389439,75.244448,PM10,15,55,29
India,Maharashtra,Aurangabad,"More Chowk Waluj, Aurangabad - MPCB",16-06-2024 22:00:00,19.8389439,75.244448,NH3,1,1,1
India,Maharashtra,Belapur,"CBD Belapur, Belapur - MPCB",16-06-2024 22:00:00,19.0243902,73.0406721,CO,5,20,13
India,Maharashtra,Bhiwandi,"Gokul Nagar, Bhiwandi - MPCB",16-06-2024 22:00:00,19.309073,73.057223,PM2.5,23,73,48
India,Maharashtra,Bhiwandi,"Gokul Nagar, Bhiwandi - MPCB",16-06-2024 22:00:00,19.309073,73.057223,PM10,66,88,75
India,Maharashtra,Boisar,"Khaira, Boisar - MPCB",16-06-2024 22:00:00,19.786089,72.757971,PM10,31,105,59
India,Maharashtra,Chandrapur,"MIDC Khutala, Chandrapur - MPCB",16-06-2024 22:00:00,19.9775302,79.2337086,CO,NA,NA,NA
India,Maharashtra,Dhule,"Deopur, Dhule - MPCB",16-06-2024 22:00:00,20.918946,74.776388,PM2.5,13,50,33
India,Maharashtra,Dhule,"Deopur, Dhule - MPCB",16-06-2024 22:00:00,20.918946,74.776388,PM10,39,63,51
India,Maharashtra,Jalgaon,"Prabhat Colony, Jalgaon - MPCB",16-06-2024 22:00:00,21.001264,75.565602,NO2,5,25,9
India,Maharashtra,Kalyan,"Khadakpada, Kalyan - MPCB",16-06-2024 22:00:00,19.25292,73.142019,NO2,24,32,26
India,Maharashtra,Kalyan,"Khadakpada, Kalyan - MPCB",16-06-2024 22:00:00,19.25292,73.142019,SO2,21,28,23
India,Maharashtra,Kolhapur,"Sinchan Bhavan, Kolhapur - MPCB",16-06-2024 22:00:00,16.7143745,74.2426398,NO2,3,13,8
India,Maharashtra,Kolhapur,"Sinchan Bhavan, Kolhapur - MPCB",16-06-2024 22:00:00,16.7143745,74.2426398,CO,12,24,16
India,Maharashtra,Latur,"Sawe Wadi, Latur - MPCB",16-06-2024 22:00:00,18.39963,76.57452,NO2,5,71,17
India,Maharashtra,Latur,"Sawe Wadi, Latur - MPCB",16-06-2024 22:00:00,18.39963,76.57452,OZONE,7,60,38
India,Maharashtra,Mahad,"Kamble Tarf Birwadi, Mahad - MPCB",16-06-2024 22:00:00,18.1023399,73.4783687,NO2,5,30,14
India,Maharashtra,Mahad,"Kamble Tarf Birwadi, Mahad - MPCB",16-06-2024 22:00:00,18.1023399,73.4783687,CO,3,22,7
India,Maharashtra,Malegaon,"Mahesh Nagar, Malegaon - MPCB",16-06-2024 22:00:00,20.555712,74.529236,PM2.5,24,53,39
India,Maharashtra,Malegaon,"Mahesh Nagar, Malegaon - MPCB",16-06-2024 22:00:00,20.555712,74.529236,NH3,4,8,5
India,Maharashtra,Mumbai,"Bandra Kurla Complex, Mumbai - MPCB",16-06-2024 22:00:00,19.065931,72.862131,NH3,10,23,13
India,Maharashtra,Mumbai,"Bandra Kurla Complex, Mumbai - MPCB",16-06-2024 22:00:00,19.065931,72.862131,CO,20,43,28
India,Maharashtra,Mumbai,"Bandra Kurla Complex, Mumbai - MPCB",16-06-2024 22:00:00,19.065931,72.862131,OZONE,2,40,26
India,Maharashtra,Mumbai,"Borivali East, Mumbai - IITM",16-06-2024 22:00:00,19.23241,72.86895,PM2.5,18,35,24
India,Maharashtra,Mumbai,"Borivali East, Mumbai - IITM",16-06-2024 22:00:00,19.23241,72.86895,NO2,22,53,36
India,Maharashtra,Mumbai,"Borivali East, Mumbai - MPCB",16-06-2024 22:00:00,19.2243333,72.8658113,PM10,21,52,36
India,Maharashtra,Mumbai,"Borivali East, Mumbai - MPCB",16-06-2024 22:00:00,19.2243333,72.8658113,NH3,1,2,2
India,Maharashtra,Mumbai,"Byculla, Mumbai - BMC",16-06-2024 22:00:00,18.9767,72.8380,CO,10,34,17
India,Maharashtra,Mumbai,"Chakala-Andheri East, Mumbai - IITM",16-06-2024 22:00:00,19.11074,72.86084,PM10,33,64,46
India,Maharashtra,Mumbai,"Chakala-Andheri East, Mumbai - IITM",16-06-2024 22:00:00,19.11074,72.86084,NH3,4,13,8
India,Maharashtra,Mumbai,"Chembur, Mumbai - MPCB",16-06-2024 22:00:00,19.0364585,72.8954371,PM10,19,51,35
India,Maharashtra,Mumbai,"Chembur, Mumbai - MPCB",16-06-2024 22:00:00,19.0364585,72.8954371,CO,14,43,16
India,Maharashtra,Mumbai,"Chembur, Mumbai - MPCB",16-06-2024 22:00:00,19.0364585,72.8954371,OZONE,9,69,37
India,Maharashtra,Mumbai,"Chhatrapati Shivaji Intl. Airport (T2), Mumbai - MPCB",16-06-2024 22:00:00,19.10078,72.87462,SO2,16,21,18
