country,state,city,station,last_update,latitude,longitude,pollutant_id,pollutant_min,pollutant_max,pollutant_avg
India,Andhra_Pradesh,Amaravati,"Secretariat, Amaravati - APPCB",19-03-2024 23:00:00,16.5150833,80.5181667,CO,22,127,50
India,Andhra_Pradesh,Anantapur,"Gulzarpet, Anantapur - APPCB",19-03-2024 23:00:00,14.675886,77.593027,NH3,NA,NA,NA
India,Andhra_Pradesh,Chittoor,"Gangineni Cheruvu, Chittoor - APPCB",19-03-2024 23:00:00,13.204880,79.097889,SO2,NA,NA,NA
India,Andhra_Pradesh,Kadapa,"Yerramukkapalli, Kadapa - APPCB",19-03-2024 23:00:00,14.465052,78.824187,SO2,1,3,2
India,Andhra_Pradesh,Kadapa,"Yerramukkapalli, Kadapa - APPCB",19-03-2024 23:00:00,14.465052,78.824187,OZONE,17,85,65
India,Andhra_Pradesh,Rajamahendravaram,"Anand Kala Kshetram, Rajamahendravaram - APPCB",19-03-2024 23:00:00,16.9872867,81.7363176,PM2.5,16,75,47
India,Andhra_Pradesh,Rajamahendravaram,"Anand Kala Kshetram, Rajamahendravaram - APPCB",19-03-2024 23:00:00,16.9872867,81.7363176,SO2,10,12,11
India,Andhra_Pradesh,Tirupati,"Tirumala, Tirupati - APPCB",19-03-2024 23:00:00,13.67,79.35,CO,20,34,27
India,Andhra_Pradesh,Tirupati,"Vaikuntapuram, Tirupati - APPCB",19-03-2024 23:00:00,13.615387,79.409230,PM2.5,44,101,76
India,Andhra_Pradesh,Tirupati,"Vaikuntapuram, Tirupati - APPCB",19-03-2024 23:00:00,13.615387,79.409230,NO2,15,22,18
India,Andhra_Pradesh,Vijayawada,"HB Colony, Vijayawada - APPCB",19-03-2024 23:00:00,16.536107,80.594233,PM2.5,58,91,66
India,Andhra_Pradesh,Vijayawada,"HB Colony, Vijayawada - APPCB",19-03-2024 23:00:00,16.536107,80.594233,PM10,62,107,74
India,Andhra_Pradesh,Vijayawada,"Kanuru, Vijayawada - APPCB",19-03-2024 23:00:00,16.486692,80.699436,PM10,58,89,69
India,Andhra_Pradesh,Vijayawada,"Kanuru, Vijayawada - APPCB",19-03-2024 23:00:00,16.486692,80.699436,OZONE,28,33,28
India,Andhra_Pradesh,Vijayawada,"Rajiv Gandhi Park, Vijayawada - APPCB",19-03-2024 23:00:00,16.509717,80.612222,CO,33,54,40
India,Andhra_Pradesh,Vijayawada,"Rajiv Nagar, Vijayawada - APPCB",19-03-2024 23:00:00,16.554731,80.649110,PM2.5,45,62,54
India,Andhra_Pradesh,Vijayawada,"Rajiv Nagar, Vijayawada - APPCB",19-03-2024 23:00:00,16.554731,80.649110,NH3,1,1,1
India,Andhra_Pradesh,Vijayawada,"Rajiv Nagar, Vijayawada - APPCB",19-03-2024 23:00:00,16.554731,80.649110,SO2,10,17,14
India,Andhra_Pradesh,Vijayawada,"Rajiv Nagar, Vijayawada - APPCB",19-03-2024 23:00:00,16.554731,80.649110,CO,34,37,37
India,Andhra_Pradesh,Visakhapatnam,"GVM Corporation, Visakhapatnam - APPCB",19-03-2024 23:00:00,17.72,83.3,CO,8,68,15
India,Andhra_Pradesh,Visakhapatnam,"GVM Corporation, Visakhapatnam - APPCB",19-03-2024 23:00:00,17.72,83.3,OZONE,6,47,24
India,Arunachal_Pradesh,Naharlagun,"Naharlagun, Naharlagun - APSPCB",19-03-2024 23:00:00,27.103358,93.679645,NO2,3,3,3
India,Assam,Guwahati,"IITG, Guwahati - PCBA",19-03-2024 23:00:00,26.2028636,91.70046436,NH3,5,5,5
India,Assam,Guwahati,"IITG, Guwahati - PCBA",19-03-2024 23:00:00,26.2028636,91.70046436,OZONE,2,37,20
India,Assam,Guwahati,"LGBI Airport, Guwahati - PCBA",19-03-2024 23:00:00,26.10887,91.589544,PM2.5,309,406,353
India,Assam,Guwahati,"LGBI Airport, Guwahati - PCBA",19-03-2024 23:00:00,26.10887,91.589544,PM10,177,428,258
India,Assam,Guwahati,"LGBI Airport, Guwahati - PCBA",19-03-2024 23:00:00,26.10887,91.589544,NO2,14,57,37
India,Assam,Guwahati,"LGBI Airport, Guwahati - PCBA",19-03-2024 23:00:00,26.10887,91.589544,CO,7,100,50
India,Assam,Guwahati,"Pan Bazaar, Guwahati - PCBA",19-03-2024 23:00:00,26.187500,91.744194,PM10,179,305,236
India,Assam,Guwahati,"Railway Colony, Guwahati - PCBA",19-03-2024 23:00:00,26.181742,91.78063,PM10,143,479,255
India,Assam,Nagaon,"Christianpatty, Nagaon - PCBA",19-03-2024 23:00:00,26.349082,92.68449,PM2.5,28,153,86
India,Assam,Nagaon,"Christianpatty, Nagaon - PCBA",19-03-2024 23:00:00,26.349082,92.68449,PM10,26,109,73
India,Assam,Nagaon,"Christianpatty, Nagaon - PCBA",19-03-2024 23:00:00,26.349082,92.68449,NO2,14,96,41
India,Assam,Nagaon,"Christianpatty, Nagaon - PCBA",19-03-2024 23:00:00,26.349082,92.68449,NH3,15,27,19
India,Assam,Nalbari,"Bata Chowk, Nalbari - PCBA",19-03-2024 23:00:00,26.446912,91.439057,PM10,130,292,175
India,Assam,Nalbari,"Bata Chowk, Nalbari - PCBA",19-03-2024 23:00:00,26.446912,91.439057,CO,84,107,96
India,Assam,Nalbari,"Bata Chowk, Nalbari - PCBA",19-03-2024 23:00:00,26.446912,91.439057,OZONE,21,132,76
India,Assam,Silchar,"Tarapur, Silchar - PCBA",19-03-2024 23:00:00,24.82827,92.79525,SO2,4,25,10
India,Assam,Silchar,"Tarapur, Silchar - PCBA",19-03-2024 23:00:00,24.82827,92.79525,CO,28,68,62
India,Assam,Sivasagar,"Girls College, Sivasagar - PCBA",19-03-2024 23:00:00,26.987634,94.636574,PM2.5,37,55,48
India,Assam,Sivasagar,"Girls College, Sivasagar - PCBA",19-03-2024 23:00:00,26.987634,94.636574,PM10,43,94,64
India,Assam,Sivasagar,"Girls College, Sivasagar - PCBA",19-03-2024 23:00:00,26.987634,94.636574,CO,22,42,28
India,Bihar,Araria,"Kharahiya Basti, Araria - BSPCB",19-03-2024 23:00:00,26.146529,87.454184,OZONE,6,11,9
India,Bihar,Arrah,"New DM Office, Arrah - BSPCB",19-03-2024 23:00:00,25.5626095,84.663264,PM2.5,33,230,119
India,Bihar,Arrah,"New DM Office, Arrah - BSPCB",19-03-2024 23:00:00,25.5626095,84.663264,PM10,49,197,130
India,Bihar,Aurangabad,"Gurdeo Nagar, Aurangabad - BSPCB",19-03-2024 23:00:00,24.75746,84.366208,PM10,23,129,65
India,Bihar,Bhagalpur,"DM Office_Kachari Chowk, Bhagalpur - BSPCB",19-03-2024 23:00:00,25.251013,86.989001,NH3,9,16,12
India,Bihar,Bhagalpur,"DM Office_Kachari Chowk, Bhagalpur - BSPCB",19-03-2024 23:00:00,25.251013,86.989001,OZONE,38,59,45
India,Bihar,Bhagalpur,"Mayaganj, Bhagalpur - BSPCB",19-03-2024 23:00:00,25.265194,87.012947,NO2,7,14,11
India,Bihar,Bihar Sharif,"D M Colony, Bihar Sharif - BSPCB",19-03-2024 23:00:00,25.204762,85.514960,PM10,49,119,77
India,Bihar,Chhapra,"Darshan Nagar, Chhapra - BSPCB",19-03-2024 23:00:00,25.7808257,84.7446768,NH3,9,15,11
India,Bihar,Chhapra,"Darshan Nagar, Chhapra - BSPCB",19-03-2024 23:00:00,25.7808257,84.7446768,OZONE,4,23,12
India,Bihar,Gaya,"Collectorate, Gaya - BSPCB",19-03-2024 23:00:00,24.7955,84.9994,PM2.5,57,187,100
India,Bihar,Gaya,"Collectorate, Gaya - BSPCB",19-03-2024 23:00:00,24.7955,84.9994,NO2,1,3,2
India,Bihar,Gaya,"Kareemganj, Gaya - BSPCB",19-03-2024 23:00:00,24.792403,84.992416,CO,14,108,41
India,Bihar,Gaya,"SFTI Kusdihra, Gaya - BSPCB",19-03-2024 23:00:00,24.762518,84.982348,OZONE,2,84,45
India,Bihar,Hajipur,"Industrial Area, Hajipur - BSPCB",19-03-2024 23:00:00,25.697189,85.245900,NO2,45,72,55
India,Bihar,Hajipur,"Industrial Area, Hajipur - BSPCB",19-03-2024 23:00:00,25.697189,85.245900,NH3,7,12,9
India,Bihar,Hajipur,"Industrial Area, Hajipur - BSPCB",19-03-2024 23:00:00,25.697189,85.245900,CO,39,84,44
India,Bihar,Katihar,"Mirchaibari, Katihar - BSPCB",19-03-2024 23:00:00,25.560083,87.553265,PM10,92,216,134
India,Bihar,Katihar,"Mirchaibari, Katihar - BSPCB",19-03-2024 23:00:00,25.560083,87.553265,NO2,17,35,28
India,Bihar,Manguraha,"Forest Rest House, Manguraha - BSPCB",19-03-2024 23:00:00,27.308328,84.531742,CO,66,86,78
India,Bihar,Motihari,"Gandak Colony, Motihari - BSPCB",19-03-2024 23:00:00,26.63086,84.90051,NH3,10,15,13
India,Bihar,Motihari,"Gandak Colony, Motihari - BSPCB",19-03-2024 23:00:00,26.63086,84.90051,SO2,NA,NA,NA
India,Bihar,Motihari,"Gandak Colony, Motihari - BSPCB",19-03-2024 23:00:00,26.63086,84.90051,CO,10,136,129
India,Bihar,Munger,"Town Hall, Munger - BSPCB",19-03-2024 23:00:00,25.376776,86.471523,PM2.5,77,500,218
India,Bihar,Munger,"Town Hall, Munger - BSPCB",19-03-2024 23:00:00,25.376776,86.471523,NH3,1,2,2
India,Bihar,Munger,"Town Hall, Munger - BSPCB",19-03-2024 23:00:00,25.376776,86.471523,SO2,3,36,19
India,Bihar,Munger,"Town Hall, Munger - BSPCB",19-03-2024 23:00:00,25.376776,86.471523,OZONE,4,62,13
India,Bihar,Muzaffarpur,"Buddha Colony, Muzaffarpur - BSPCB",19-03-2024 23:00:00,26.11442,85.39813,PM10,169,301,234
India,Bihar,Muzaffarpur,"MIT-Daudpur Kothi, Muzaffarpur - BSPCB",19-03-2024 23:00:00,26.1403345,85.3650192,PM2.5,183,412,303
India,Bihar,Muzaffarpur,"MIT-Daudpur Kothi, Muzaffarpur - BSPCB",19-03-2024 23:00:00,26.1403345,85.3650192,OZONE,10,73,38
India,Bihar,Muzaffarpur,"Muzaffarpur Collectorate, Muzaffarpur - BSPCB",19-03-2024 23:00:00,26.1209,85.3647,SO2,6,16,10
India,Bihar,Muzaffarpur,"Muzaffarpur Collectorate, Muzaffarpur - BSPCB",19-03-2024 23:00:00,26.1209,85.3647,OZONE,10,83,42
India,Bihar,Patna,"DRM Office Danapur, Patna - BSPCB",19-03-2024 23:00:00,25.586562,85.043586,PM10,86,241,169
India,Bihar,Patna,"DRM Office Danapur, Patna - BSPCB",19-03-2024 23:00:00,25.586562,85.043586,NO2,17,90,45
India,Bihar,Patna,"Govt. High School Shikarpur, Patna - BSPCB",19-03-2024 23:00:00,25.592539,85.227158,PM10,89,378,182
India,Bihar,Patna,"Govt. High School Shikarpur, Patna - BSPCB",19-03-2024 23:00:00,25.592539,85.227158,NH3,4,5,5
India,Bihar,Patna,"Muradpur, Patna - BSPCB",19-03-2024 23:00:00,25.619651,85.147382,CO,26,105,55
India,Bihar,Patna,"Rajbansi Nagar, Patna - BSPCB",19-03-2024 23:00:00,25.599486,85.113666,PM2.5,55,304,197
India,Bihar,Patna,"Rajbansi Nagar, Patna - BSPCB",19-03-2024 23:00:00,25.599486,85.113666,OZONE,2,112,21
India,Bihar,Patna,"Samanpura, Patna - BSPCB",19-03-2024 23:00:00,25.596727,85.085624,CO,54,112,80
India,Bihar,Rajgir,"Dangi Tola, Rajgir - BSPCB",19-03-2024 23:00:00,25.03280,85.41948,PM10,11,119,60
India,Bihar,Rajgir,"Dangi Tola, Rajgir - BSPCB",19-03-2024 23:00:00,25.03280,85.41948,NH3,1,2,1
India,Bihar,Rajgir,"Dangi Tola, Rajgir - BSPCB",19-03-2024 23:00:00,25.03280,85.41948,SO2,NA,NA,NA
India,Bihar,Rajgir,"Dangi Tola, Rajgir - BSPCB",19-03-2024 23:00:00,25.03280,85.41948,OZONE,22,27,24
India,Bihar,Saharsa,"Police Line, Saharsa - BSPCB",19-03-2024 23:00:00,25.892357,86.590325,NH3,9,10,9
India,Bihar,Siwan,"Chitragupta Nagar, Siwan - BSPCB",19-03-2024 23:00:00,26.2271665,84.3570427,PM10,137,237,173
India,Chandigarh,Chandigarh,"Sector-25, Chandigarh - CPCC",19-03-2024 23:00:00,30.751462,76.762879,PM10,110,158,131
India,Chandigarh,Chandigarh,"Sector-25, Chandigarh - CPCC",19-03-2024 23:00:00,30.751462,76.762879,NO2,7,48,20
India,Chandigarh,Chandigarh,"Sector-25, Chandigarh - CPCC",19-03-2024 23:00:00,30.751462,76.762879,SO2,5,32,11
India,Chandigarh,Chandigarh,"Sector-25, Chandigarh - CPCC",19-03-2024 23:00:00,30.751462,76.762879,CO,15,62,32
India,Chandigarh,Chandigarh,"Sector-53, Chandigarh - CPCC",19-03-2024 23:00:00,30.719859,76.738637,NH3,3,5,4
India,Chhattisgarh,Bhilai,"32Bungalows, Bhilai - CECB",19-03-2024 23:00:00,21.194815,81.314770,NO2,36,39,37
India,Chhattisgarh,Bhilai,"32Bungalows, Bhilai - CECB",19-03-2024 23:00:00,21.194815,81.314770,SO2,3,5,4
India,Chhattisgarh,Bhilai,"32Bungalows, Bhilai - CECB",19-03-2024 23:00:00,21.194815,81.314770,CO,16,44,23
India,Chhattisgarh,Bhilai,"32Bungalows, Bhilai - CECB",19-03-2024 23:00:00,21.194815,81.314770,OZONE,4,6,5
India,Chhattisgarh,Bhilai,"Civic Center, Bhilai - Bhilai Steel Plant",19-03-2024 23:00:00,21.185571,81.343175,CO,34,50,42
India,Chhattisgarh,Bhilai,"Hathkhoj, Bhilai - CECB",19-03-2024 23:00:00,21.224231,81.408350,PM10,18,86,45
India,Chhattisgarh,Bhilai,"Hathkhoj, Bhilai - CECB",19-03-2024 23:00:00,21.224231,81.408350,OZONE,31,42,38
India,Chhattisgarh,Bilaspur,"Mangala, Bilaspur - NTPC",19-03-2024 23:00:00,22.08815,82.13737,PM10,NA,NA,NA
India,Chhattisgarh,Korba,"Rampur, Korba - CECB",19-03-2024 23:00:00,22.368195,82.746431,NH3,2,6,2
India,Chhattisgarh,Korba,"Urja Nagar, Korba - CECB",19-03-2024 23:00:00,22.348441,82.549611,NO2,66,75,71
India,Chhattisgarh,Kunjemura,"OP Jindal School, Kunjemura - CECB",19-03-2024 23:00:00,22.126650,83.483212,PM2.5,12,30,20
India,Chhattisgarh,Milupara,"Govt. Higher Secondary School, Milupara - CECB",19-03-2024 23:00:00,22.1910172,83.5197009,CO,5,32,22
India,Chhattisgarh,Milupara,"Govt. Higher Secondary School, Milupara - CECB",19-03-2024 23:00:00,22.1910172,83.5197009,OZONE,5,24,16
India,Chhattisgarh,Raipur,"AIIMS, Raipur - CECB",19-03-2024 23:00:00,21.258815,81.578979,NO2,42,54,49
India,Chhattisgarh,Raipur,"AIIMS, Raipur - CECB",19-03-2024 23:00:00,21.258815,81.578979,NH3,5,6,5
India,Chhattisgarh,Raipur,"Bhatagaon New ISBT, Raipur - CECB",19-03-2024 23:00:00,21.219665,81.630094,PM10,NA,NA,NA
India,Chhattisgarh,Raipur,"Siltara Phase-II, Raipur - CECB",19-03-2024 23:00:00,21.371751,81.664929,PM2.5,15,43,28
India,Chhattisgarh,Raipur,"Siltara Phase-II, Raipur - CECB",19-03-2024 23:00:00,21.371751,81.664929,PM10,18,83,51
India,Chhattisgarh,Raipur,"Siltara Phase-II, Raipur - CECB",19-03-2024 23:00:00,21.371751,81.664929,OZONE,3,4,3
India,Delhi,Delhi,"Alipur, Delhi - DPCC",19-03-2024 23:00:00,28.815329,77.153010,PM10,81,415,236
India,Delhi,Delhi,"Alipur, Delhi - DPCC",19-03-2024 23:00:00,28.815329,77.153010,NO2,10,110,55
India,Delhi,Delhi,"Aya Nagar, Delhi - IMD",19-03-2024 23:00:00,28.4706914,77.1099364,CO,52,91,57
India,Delhi,Delhi,"Bawana, Delhi - DPCC",19-03-2024 23:00:00,28.776200,77.051074,CO,26,96,58
India,Delhi,Delhi,"Burari Crossing, Delhi - IMD",19-03-2024 23:00:00,28.7256504,77.2011573,CO,42,81,46
India,Delhi,Delhi,"CRRI Mathura Road, Delhi - IMD",19-03-2024 23:00:00,28.5512005,77.2735737,CO,54,132,77
India,Delhi,Delhi,"Chandni Chowk, Delhi - IITM",19-03-2024 23:00:00,28.656756,77.227234,NO2,14,155,59
India,Delhi,Delhi,"Dwarka-Sector 8, Delhi - DPCC ",19-03-2024 23:00:00,28.5710274,77.0719006,CO,26,115,59
India,Delhi,Delhi,"Dwarka-Sector 8, Delhi - DPCC ",19-03-2024 23:00:00,28.5710274,77.0719006,OZONE,1,89,42
India,Delhi,Delhi,"IGI Airport (T3), Delhi - IMD",19-03-2024 23:00:00,28.5627763,77.1180053,OZONE,6,50,23
India,Delhi,Delhi,"IHBAS, Dilshad Garden, Delhi - CPCB",19-03-2024 23:00:00,28.6811736,77.3025234,NH3,1,7,4
India,Delhi,Delhi,"IHBAS, Dilshad Garden, Delhi - CPCB",19-03-2024 23:00:00,28.6811736,77.3025234,OZONE,7,40,26
India,Delhi,Delhi,"Jahangirpuri, Delhi - DPCC",19-03-2024 23:00:00,28.732820,77.170633,PM2.5,52,431,269
India,Delhi,Delhi,"Jawaharlal Nehru Stadium, Delhi - DPCC",19-03-2024 23:00:00,28.580280,77.233829,PM2.5,39,328,138
India,Delhi,Delhi,"Jawaharlal Nehru Stadium, Delhi - DPCC",19-03-2024 23:00:00,28.580280,77.233829,PM10,89,278,159
India,Delhi,Delhi,"Lodhi Road, Delhi - IITM",19-03-2024 23:00:00,28.588333,77.221667,OZONE,15,20,17
India,Delhi,Delhi,"Lodhi Road, Delhi - IMD",19-03-2024 23:00:00,28.5918245,77.2273074,PM10,87,194,120
India,Delhi,Delhi,"Major Dhyan Chand National Stadium, Delhi - DPCC",19-03-2024 23:00:00,28.611281,77.237738,NH3,6,11,8
India,Delhi,Delhi,"NSIT Dwarka, Delhi - CPCB",19-03-2024 23:00:00,28.60909,77.0325413,SO2,2,34,15
India,Delhi,Delhi,"Narela, Delhi - DPCC",19-03-2024 23:00:00,28.822836,77.101981,PM2.5,48,441,254
India,Delhi,Delhi,"Nehru Nagar, Delhi - DPCC",19-03-2024 23:00:00,28.567890,77.250515,CO,4,123,68
India,Delhi,Delhi,"Nehru Nagar, Delhi - DPCC",19-03-2024 23:00:00,28.567890,77.250515,OZONE,3,160,61
India,Delhi,Delhi,"North Campus, DU, Delhi - IMD",19-03-2024 23:00:00,28.6573814,77.1585447,PM2.5,75,388,212
India,Delhi,Delhi,"Okhla Phase-2, Delhi - DPCC",19-03-2024 23:00:00,28.530785,77.271255,CO,48,114,76
India,Delhi,Delhi,"Patparganj, Delhi - DPCC",19-03-2024 23:00:00,28.623763,77.287209,SO2,17,20,18
India,Delhi,Delhi,"Punjabi Bagh, Delhi - DPCC",19-03-2024 23:00:00,28.674045,77.131023,NO2,18,36,24
India,Delhi,Delhi,"Punjabi Bagh, Delhi - DPCC",19-03-2024 23:00:00,28.674045,77.131023,CO,8,77,37
India,Delhi,Delhi,"Pusa, Delhi - DPCC",19-03-2024 23:00:00,28.639652,77.146275,NO2,59,184,108
India,Delhi,Delhi,"Pusa, Delhi - DPCC",19-03-2024 23:00:00,28.639652,77.146275,NH3,7,12,10
India,Delhi,Delhi,"Pusa, Delhi - IMD",19-03-2024 23:00:00,28.636110,77.173332,CO,74,106,80
India,Delhi,Delhi,"R K Puram, Delhi - DPCC",19-03-2024 23:00:00,28.563262,77.186937,NO2,15,73,42
India,Delhi,Delhi,"Rohini, Delhi - DPCC",19-03-2024 23:00:00,28.732528,77.119920,NH3,7,14,9
India,Delhi,Delhi,"Shadipur, Delhi - CPCB",19-03-2024 23:00:00,28.6514781,77.1473105,NH3,NA,NA,NA
India,Delhi,Delhi,"Shadipur, Delhi - CPCB",19-03-2024 23:00:00,28.6514781,77.1473105,OZONE,12,179,42
India,Delhi,Delhi,"Sonia Vihar, Delhi - DPCC",19-03-2024 23:00:00,28.710508,77.249485,CO,50,109,66
India,Delhi,Delhi,"Sonia Vihar, Delhi - DPCC",19-03-2024 23:00:00,28.710508,77.249485,OZONE,21,197,112
India,Delhi,Delhi,"Sri Aurobindo Marg, Delhi - DPCC",19-03-2024 23:00:00,28.531346,77.190156,CO,10,69,26
India,Delhi,Delhi,"Wazirpur, Delhi - DPCC",19-03-2024 23:00:00,28.699793,77.165453,SO2,19,118,68
India,Gujarat,Ahmedabad,"Maninagar, Ahmedabad - GPCB",19-03-2024 23:00:00,23.002657,72.591912,PM2.5,27,306,92
India,Gujarat,Ahmedabad,"Raikhad, Ahmedabad - IITM",19-03-2024 23:00:00,23.020509,72.579261,NO2,23,182,76
India,Gujarat,Ahmedabad,"Raikhad, Ahmedabad - IITM",19-03-2024 23:00:00,23.020509,72.579261,NH3,NA,NA,NA
India,Gujarat,Ahmedabad,"Raikhad, Ahmedabad - IITM",19-03-2024 23:00:00,23.020509,72.579261,CO,22,160,88
India,Gujarat,Ahmedabad,"Rakhial, Ahmedabad - IITM",19-03-2024 23:00:00,23.016834,72.625775,NO2,16,87,45
India,Gujarat,Ahmedabad,"SAC ISRO Satellite, Ahmedabad - IITM",19-03-2024 23:00:00,23.023389,72.515201,PM2.5,129,159,151
India,Gujarat,Ahmedabad,"SAC ISRO Satellite, Ahmedabad - IITM",19-03-2024 23:00:00,23.023389,72.515201,NH3,3,4,3
India,Gujarat,Ahmedabad,"Sardar Vallabhbhai Patel Stadium, Ahmedabad - IITM",19-03-2024 23:00:00,23.043070,72.562968,PM2.5,76,324,135
India,Gujarat,Ahmedabad,"Sardar Vallabhbhai Patel Stadium, Ahmedabad - IITM",19-03-2024 23:00:00,23.043070,72.562968,SO2,1,28,13
India,Gujarat,Ankleshwar,"GIDC, Ankleshwar - GPCB",19-03-2024 23:00:00,21.613267,73.010555,PM2.5,46,139,80
India,Gujarat,Ankleshwar,"GIDC, Ankleshwar - GPCB",19-03-2024 23:00:00,21.613267,73.010555,CO,46,107,68
India,Gujarat,Gandhinagar,"IIPHG Lekawada, Gandhinagar - IITM",19-03-2024 23:00:00,23.243639,72.68994,NH3,6,7,7
India,Gujarat,Gandhinagar,"Sector-10, Gandhinagar - GPCB",19-03-2024 23:00:00,23.221714,72.654328,OZONE,3,33,8
India,Gujarat,Nandesari,"GIDC, Nandesari - Nandesari Ind. Association",19-03-2024 23:00:00,22.410802,73.097923,NO2,2,70,24
India,Gujarat,Nandesari,"GIDC, Nandesari - Nandesari Ind. Association",19-03-2024 23:00:00,22.410802,73.097923,SO2,2,15,9
India,Gujarat,Surat,"Science Center, Surat - SMC",19-03-2024 23:00:00,21.170046,72.795405,SO2,16,25,20
India,Gujarat,Vapi,"Phase-1 GIDC, Vapi - GPCB",19-03-2024 23:00:00,20.362421,72.918013,PM10,79,138,100
India,Gujarat,Vapi,"Phase-1 GIDC, Vapi - GPCB",19-03-2024 23:00:00,20.362421,72.918013,NH3,2,2,2
India,Gujarat,Vapi,"Phase-1 GIDC, Vapi - GPCB",19-03-2024 23:00:00,20.362421,72.918013,CO,60,197,92
India,Gujarat,Vapi,"Phase-1 GIDC, Vapi - GPCB",19-03-2024 23:00:00,20.362421,72.918013,OZONE,1,2,1
India,Gujarat,Vatva,"Phase-4 GIDC, Vatva - GPCB",19-03-2024 23:00:00,22.969611,72.643500,PM10,48,177,91
India,Haryana,Ambala,"Patti Mehar, Ambala - HSPCB",19-03-2024 23:00:00,30.379589,76.778328,PM10,37,155,60
India,Haryana,Bahadurgarh,"Arya Nagar, Bahadurgarh - HSPCB",19-03-2024 23:00:00,28.6701,76.9254,NO2,34,40,36
India,Haryana,Bahadurgarh,"Arya Nagar, Bahadurgarh - HSPCB",19-03-2024 23:00:00,28.6701,76.9254,OZONE,30,50,44
India,Haryana,Ballabgarh,"Nathu Colony, Ballabgarh - HSPCB",19-03-2024 23:00:00,28.3419248,77.319699,PM2.5,48,367,259
India,Haryana,Bhiwani,"H.B. Colony, Bhiwani - HSPCB",19-03-2024 23:00:00,28.806223,76.141105,CO,9,57,32
India,Haryana,Bhiwani,"H.B. Colony, Bhiwani - HSPCB",19-03-2024 23:00:00,28.806223,76.141105,OZONE,4,87,25
India,Haryana,Charkhi Dadri,"Mini Secretariat, Charkhi Dadri - HSPCB",19-03-2024 23:00:00,28.593883,76.270653,NO2,14,23,18
India,Haryana,Charkhi Dadri,"Mini Secretariat, Charkhi Dadri - HSPCB",19-03-2024 23:00:00,28.593883,76.270653,NH3,6,8,7
India,Haryana,Charkhi Dadri,"Mini Secretariat, Charkhi Dadri - HSPCB",19-03-2024 23:00:00,28.593883,76.270653,OZONE,12,17,15
India,Haryana,Faridabad,"New Industrial Town, Faridabad - HSPCB",19-03-2024 23:00:00,28.39072,77.30059,SO2,11,36,23
India,Haryana,Faridabad,"New Industrial Town, Faridabad - HSPCB",19-03-2024 23:00:00,28.39072,77.30059,CO,12,51,23
India,Haryana,Faridabad,"New Industrial Town, Faridabad - HSPCB",19-03-2024 23:00:00,28.39072,77.30059,OZONE,6,254,37
India,Haryana,Faridabad,"Sector 11, Faridabad - HSPCB",19-03-2024 23:00:00,28.376058,77.315741,SO2,6,118,21
India,Haryana,Faridabad,"Sector 30, Faridabad - HSPCB",19-03-2024 23:00:00,28.4417,77.3217,PM2.5,93,99,96
India,Haryana,Faridabad,"Sector 30, Faridabad - HSPCB",19-03-2024 23:00:00,28.4417,77.3217,SO2,2,29,6
India,Haryana,Faridabad,"Sector- 16A, Faridabad - HSPCB",19-03-2024 23:00:00,28.4088421,77.3099081,PM2.5,71,339,167
India,Haryana,Faridabad,"Sector- 16A, Faridabad - HSPCB",19-03-2024 23:00:00,28.4088421,77.3099081,CO,2,64,22
India,Haryana,Faridabad,"Sector- 16A, Faridabad - HSPCB",19-03-2024 23:00:00,28.4088421,77.3099081,OZONE,14,14,14
India,Haryana,Gurugram,"Teri Gram, Gurugram - HSPCB",19-03-2024 23:00:00,28.4275,77.1465,NO2,12,74,43
India,Haryana,Gurugram,"Teri Gram, Gurugram - HSPCB",19-03-2024 23:00:00,28.4275,77.1465,OZONE,13,18,15
India,Haryana,Jind,"Police Lines, Jind - HSPCB",19-03-2024 23:00:00,29.307814,76.337619,PM10,72,130,103
India,Haryana,Jind,"Police Lines, Jind - HSPCB",19-03-2024 23:00:00,29.307814,76.337619,SO2,12,60,23
India,Haryana,Kaithal,"Rishi Nagar, Kaithal - HSPCB",19-03-2024 23:00:00,29.8006,76.4155,NO2,24,26,25
India,Haryana,Kaithal,"Rishi Nagar, Kaithal - HSPCB",19-03-2024 23:00:00,29.8006,76.4155,CO,2,38,15
India,Haryana,Karnal,"Sector-12, Karnal - HSPCB",19-03-2024 23:00:00,29.695300,77.002700,PM2.5,72,126,94
India,Haryana,Karnal,"Sector-12, Karnal - HSPCB",19-03-2024 23:00:00,29.695300,77.002700,SO2,12,13,13
India,Haryana,Karnal,"Sector-12, Karnal - HSPCB",19-03-2024 23:00:00,29.695300,77.002700,OZONE,27,37,29
India,Haryana,Kurukshetra,"Sector-7, Kurukshetra - HSPCB",19-03-2024 23:00:00,29.966942,76.875879,NO2,10,11,10
India,Haryana,Mandikhera,"General Hospital, Mandikhera - HSPCB",19-03-2024 23:00:00,27.9002,76.9938,PM10,70,145,93
India,Haryana,Mandikhera,"General Hospital, Mandikhera - HSPCB",19-03-2024 23:00:00,27.9002,76.9938,NH3,18,22,20
India,Haryana,Mandikhera,"General Hospital, Mandikhera - HSPCB",19-03-2024 23:00:00,27.9002,76.9938,OZONE,23,31,27
India,Haryana,Manesar,"Sector-2 IMT, Manesar - HSPCB",19-03-2024 23:00:00,28.360699,76.936090,SO2,3,13,6
India,Haryana,Narnaul,"Shastri Nagar, Narnaul - HSPCB",19-03-2024 23:00:00,28.060249,76.113115,NH3,4,24,11
India,Haryana,Narnaul,"Shastri Nagar, Narnaul - HSPCB",19-03-2024 23:00:00,28.060249,76.113115,SO2,13,14,13
India,Haryana,Palwal,"Shyam Nagar, Palwal - HSPCB",19-03-2024 23:00:00,28.1485564,77.3320667,NO2,23,24,24
India,Haryana,Panipat,"Sector-18, Panipat - HSPCB",19-03-2024 23:00:00,29.497973,76.993331,PM2.5,114,154,133
India,Haryana,Panipat,"Sector-18, Panipat - HSPCB",19-03-2024 23:00:00,29.497973,76.993331,OZONE,30,30,30
India,Haryana,Rohtak,"MD University, Rohtak - HSPCB",19-03-2024 23:00:00,28.52123,76.37138,SO2,5,9,6
India,Haryana,Sonipat,"Murthal, Sonipat - HSPCB",19-03-2024 23:00:00,29.027200,77.062100,NH3,7,10,9
India,Haryana,Yamuna Nagar,"Gobind Pura, Yamuna Nagar - HSPCB",19-03-2024 23:00:00,30.1480566,77.2893471,PM2.5,66,176,109
India,Himachal Pradesh,Baddi,"HIMUDA Complex Phase-1, Baddi - HPPCB",19-03-2024 23:00:00,30.943887,76.801991,PM2.5,3,183,45
India,Himachal Pradesh,Baddi,"HIMUDA Complex Phase-1, Baddi - HPPCB",19-03-2024 23:00:00,30.943887,76.801991,NO2,7,60,17
India,Himachal Pradesh,Baddi,"HIMUDA Complex Phase-1, Baddi - HPPCB",19-03-2024 23:00:00,30.943887,76.801991,NH3,3,5,4
India,Jharkhand,Dhanbad,"Kalakusuma, Dhanbad - DMC",19-03-2024 23:00:00,23.811548,86.481238,CO,128,134,132
India,Jharkhand,Dhanbad,"Sardar Patel Nagar, Dhanbad - JSPCB",19-03-2024 23:00:00,23.80569,86.44268,PM2.5,2,118,48
India,Jharkhand,Pathardih,"Mohalbani Ghat, Pathardih - DMC",19-03-2024 23:00:00,23.669880,86.411725,CO,72,157,90
India,Karnataka,Bengaluru,"Bapuji Nagar, Bengaluru - KSPCB",19-03-2024 23:00:00,12.951913,77.539784,SO2,NA,NA,NA
India,Karnataka,Bengaluru,"Bapuji Nagar, Bengaluru - KSPCB",19-03-2024 23:00:00,12.951913,77.539784,OZONE,NA,NA,NA
India,Karnataka,Bengaluru,"Hebbal, Bengaluru - KSPCB",19-03-2024 23:00:00,13.029152,77.585901,SO2,NA,NA,NA
India,Karnataka,Bengaluru,"Hebbal, Bengaluru - KSPCB",19-03-2024 23:00:00,13.029152,77.585901,OZONE,12,141,28
India,Karnataka,Bengaluru,"Hombegowda Nagar, Bengaluru - KSPCB",19-03-2024 23:00:00,12.938539,77.590100,SO2,4,4,4
India,Karnataka,Bengaluru,"Jigani, Bengaluru - KSPCB",19-03-2024 23:00:00,12.7816279,77.6299145,PM2.5,NA,NA,NA
India,Karnataka,Bengaluru,"Jigani, Bengaluru - KSPCB",19-03-2024 23:00:00,12.7816279,77.6299145,PM10,NA,NA,NA
India,Karnataka,Bengaluru,"Jigani, Bengaluru - KSPCB",19-03-2024 23:00:00,12.7816279,77.6299145,NH3,NA,NA,NA
India,Karnataka,Bengaluru,"Kasturi Nagar, Bengaluru - KSPCB",19-03-2024 23:00:00,13.003872,77.664217,PM2.5,31,239,160
India,Karnataka,Bengaluru,"Peenya, Bengaluru - CPCB",19-03-2024 23:00:00,13.0270199,77.494094,PM10,58,105,77
India,Karnataka,Bengaluru,"Peenya, Bengaluru - CPCB",19-03-2024 23:00:00,13.0270199,77.494094,NO2,8,18,13
India,Karnataka,Bengaluru,"Peenya, Bengaluru - CPCB",19-03-2024 23:00:00,13.0270199,77.494094,OZONE,45,134,76
India,Karnataka,Bengaluru,"RVCE-Mailasandra, Bengaluru - KSPCB",19-03-2024 23:00:00,12.921418,77.502466,NO2,17,17,17
India,Karnataka,Bengaluru,"RVCE-Mailasandra, Bengaluru - KSPCB",19-03-2024 23:00:00,12.921418,77.502466,SO2,9,61,19
India,Karnataka,Bengaluru,"Sanegurava Halli, Bengaluru - KSPCB",19-03-2024 23:00:00,12.990328,77.5431385,NO2,22,31,26
India,Karnataka,Bengaluru,"Sanegurava Halli, Bengaluru - KSPCB",19-03-2024 23:00:00,12.990328,77.5431385,CO,8,32,20
India,Karnataka,Bengaluru,"Shivapura_Peenya, Bengaluru - KSPCB",19-03-2024 23:00:00,13.0246342,77.5080115,PM2.5,17,194,66
India,Karnataka,Bengaluru,"Shivapura_Peenya, Bengaluru - KSPCB",19-03-2024 23:00:00,13.0246342,77.5080115,PM10,77,116,93
India,Karnataka,Bengaluru,"Shivapura_Peenya, Bengaluru - KSPCB",19-03-2024 23:00:00,13.0246342,77.5080115,CO,26,62,40
India,Karnataka,Bengaluru,"Shivapura_Peenya, Bengaluru - KSPCB",19-03-2024 23:00:00,13.0246342,77.5080115,OZONE,53,56,55
India,Karnataka,Bengaluru,"Silk Board, Bengaluru - KSPCB",19-03-2024 23:00:00,12.917348,77.622813,PM2.5,50,192,89
India,Karnataka,Bengaluru,"Silk Board, Bengaluru - KSPCB",19-03-2024 23:00:00,12.917348,77.622813,NH3,6,9,7
India,Karnataka,Chamarajanagar,"Urban, Chamarajanagar - KSPCB",19-03-2024 23:00:00,11.55358,76.55521,NO2,24,40,31
India,Karnataka,Chikkaballapur,"Chikkaballapur Rural, Chikkaballapur - KSPCB",19-03-2024 23:00:00,13.428828,77.731418,OZONE,25,26,26
India,Karnataka,Chikkamagaluru,"Kalyana Nagara, Chikkamagaluru - KSPCB",19-03-2024 23:00:00,13.328028,75.797056,NO2,15,32,22
India,Karnataka,Chikkamagaluru,"Kalyana Nagara, Chikkamagaluru - KSPCB",19-03-2024 23:00:00,13.328028,75.797056,NH3,3,5,4
India,Karnataka,Davanagere,"Devaraj Urs Badavane, Davanagere - KSPCB",19-03-2024 23:00:00,14.475800,75.905200,NH3,NA,NA,NA
India,Karnataka,Davanagere,"Devaraj Urs Badavane, Davanagere - KSPCB",19-03-2024 23:00:00,14.475800,75.905200,CO,16,24,18
India,Karnataka,Gadag,"Panchal Nagar, Gadag - KSPCB",19-03-2024 23:00:00,15.411456,75.638133,PM2.5,9,80,42
India,Karnataka,Gadag,"Panchal Nagar, Gadag - KSPCB",19-03-2024 23:00:00,15.411456,75.638133,PM10,41,79,52
India,Karnataka,Hassan,"B.Katihalli, Hassan - KSPCB",19-03-2024 23:00:00,13.008556,76.125258,PM2.5,NA,NA,NA
India,Karnataka,Hassan,"B.Katihalli, Hassan - KSPCB",19-03-2024 23:00:00,13.008556,76.125258,PM10,NA,NA,NA
India,Karnataka,Hassan,"B.Katihalli, Hassan - KSPCB",19-03-2024 23:00:00,13.008556,76.125258,NO2,NA,NA,NA
India,Karnataka,Hassan,"B.Katihalli, Hassan - KSPCB",19-03-2024 23:00:00,13.008556,76.125258,NH3,NA,NA,NA
India,Karnataka,Hassan,"B.Katihalli, Hassan - KSPCB",19-03-2024 23:00:00,13.008556,76.125258,SO2,NA,NA,NA
India,Karnataka,Hubballi,"Deshpande Nagar, Hubballi - KSPCB",19-03-2024 23:00:00,15.351773,75.140726,CO,8,115,102
India,Karnataka,Kalaburagi,"Mahatma Basaveswar Colony, Kalaburgi - KSPCB",19-03-2024 23:00:00,17.336318,76.847397,NH3,NA,NA,NA
India,Karnataka,Kalaburagi,"Mahatma Basaveswar Colony, Kalaburgi - KSPCB",19-03-2024 23:00:00,17.336318,76.847397,OZONE,7,27,21
India,Karnataka,Karwar,"KHB Colony, Karwar - KSPCB",19-03-2024 23:00:00,14.816666,74.141003,OZONE,21,22,21
India,Karnataka,Koppal,"Diwator Nagar, Koppal - KSPCB",19-03-2024 23:00:00,15.347630,76.181767,PM10,28,65,40
India,Karnataka,Koppal,"Diwator Nagar, Koppal - KSPCB",19-03-2024 23:00:00,15.347630,76.181767,SO2,69,69,69
India,Karnataka,Koppal,"Diwator Nagar, Koppal - KSPCB",19-03-2024 23:00:00,15.347630,76.181767,OZONE,31,65,48
India,Karnataka,Madikeri,"Stuart Hill, Madikeri - KSPCB",19-03-2024 23:00:00,12.415911,75.735050,PM2.5,33,52,45
India,Karnataka,Madikeri,"Stuart Hill, Madikeri - KSPCB",19-03-2024 23:00:00,12.415911,75.735050,SO2,4,5,4
India,Karnataka,Madikeri,"Stuart Hill, Madikeri - KSPCB",19-03-2024 23:00:00,12.415911,75.735050,OZONE,24,51,43
India,Karnataka,Mangalore,"Kadri, Mangalore - KSPCB",19-03-2024 23:00:00,12.889250,74.853000,PM2.5,36,86,56
India,Karnataka,Mysuru,"Hebbal 1st Stage, Mysuru - KSPCB",19-03-2024 23:00:00,12.21041,76.37376,OZONE,5,97,50
India,Karnataka,Ramanagara,"Vijay Nagar, Ramanagara - KSPCB",19-03-2024 23:00:00,12.733409,77.298051,PM10,NA,NA,NA
India,Karnataka,Ramanagara,"Vijay Nagar, Ramanagara - KSPCB",19-03-2024 23:00:00,12.733409,77.298051,NO2,NA,NA,NA
India,Karnataka,Ramanagara,"Vijay Nagar, Ramanagara - KSPCB",19-03-2024 23:00:00,12.733409,77.298051,OZONE,28,30,29
India,Karnataka,Shivamogga,"Vinoba Nagara, Shivamogga - KSPCB",19-03-2024 23:00:00,13.940000,75.555917,SO2,4,17,9
India,Karnataka,Tumakuru,"Thimmalapura, Tumakuru - KSPCB",19-03-2024 23:00:00,13.377516,77.099072,NH3,NA,NA,NA
India,Karnataka,Udupi,"Brahmagiri, Udupi - KSPCB",19-03-2024 23:00:00,13.34194444,74.74694444,PM10,59,111,79
India,Karnataka,Udupi,"Brahmagiri, Udupi - KSPCB",19-03-2024 23:00:00,13.34194444,74.74694444,OZONE,23,24,23
India,Karnataka,Vijayapura,"Ibrahimpur, Vijayapura - KSPCB",19-03-2024 23:00:00,16.802639,75.722694,PM2.5,26,31,30
India,Karnataka,Vijayapura,"Ibrahimpur, Vijayapura - KSPCB",19-03-2024 23:00:00,16.802639,75.722694,OZONE,14,15,15
India,Karnataka,Yadgir,"Collector Office, Yadgir - KSPCB",19-03-2024 23:00:00,16.7602,77.1428,CO,9,30,22
India,Kerala,Kannur,"Thavakkara, Kannur - Kerala PCB",19-03-2024 23:00:00,11.875000,75.373200,CO,30,36,32
India,Kerala,Kannur,"Thavakkara, Kannur - Kerala PCB",19-03-2024 23:00:00,11.875000,75.373200,OZONE,31,36,32
India,Kerala,Kollam,"Polayathode, Kollam - Kerala PCB",19-03-2024 23:00:00,8.8787,76.6073,NH3,1,1,1
India,Kerala,Thiruvananthapuram,"Plammoodu, Thiruvananthapuram - Kerala PCB",19-03-2024 23:00:00,8.5149093,76.9435879,NH3,2,2,2
India,Kerala,Thiruvananthapuram,"Plammoodu, Thiruvananthapuram - Kerala PCB",19-03-2024 23:00:00,8.5149093,76.9435879,SO2,3,16,11
India,Madhya Pradesh,Bhopal,"Idgah Hills, Bhopal - MPPCB",19-03-2024 23:00:00,23.264759,77.381568,SO2,2,21,8
India,Madhya Pradesh,Bhopal,"Paryavaran Parisar, Bhopal - MPPCB",19-03-2024 23:00:00,23.210494,77.425409,PM2.5,13,98,54
India,Madhya Pradesh,Bhopal,"Paryavaran Parisar, Bhopal - MPPCB",19-03-2024 23:00:00,23.210494,77.425409,NH3,8,12,9
India,Madhya Pradesh,Bhopal,"Paryavaran Parisar, Bhopal - MPPCB",19-03-2024 23:00:00,23.210494,77.425409,SO2,19,28,24
India,Madhya Pradesh,Bhopal,"Paryavaran Parisar, Bhopal - MPPCB",19-03-2024 23:00:00,23.210494,77.425409,OZONE,18,80,47
India,Madhya Pradesh,Dewas,"Bhopal Chauraha, Dewas - MPPCB",19-03-2024 23:00:00,22.9682591,76.064118,PM10,NA,NA,NA
India,Madhya Pradesh,Dewas,"Bhopal Chauraha, Dewas - MPPCB",19-03-2024 23:00:00,22.9682591,76.064118,NH3,NA,NA,NA
India,Madhya Pradesh,Gwalior,"City Center, Gwalior - MPPCB",19-03-2024 23:00:00,26.203442,78.193251,PM2.5,43,225,112
India,Madhya Pradesh,Gwalior,"City Center, Gwalior - MPPCB",19-03-2024 23:00:00,26.203442,78.193251,NH3,7,13,11
India,Madhya Pradesh,Gwalior,"City Center, Gwalior - MPPCB",19-03-2024 23:00:00,26.203442,78.193251,SO2,20,70,40
India,Madhya Pradesh,Gwalior,"Deen Dayal Nagar, Gwalior - MPPCB",19-03-2024 23:00:00,26.259242,78.216432,NH3,3,10,5
India,Madhya Pradesh,Gwalior,"Maharaj Bada, Gwalior - MPPCB",19-03-2024 23:00:00,26.200388,78.147714,OZONE,18,209,119
India,Madhya Pradesh,Indore,"Chhoti Gwaltoli, Indore - MPPCB",19-03-2024 23:00:00,22.4310,75.5213,NO2,67,183,92
India,Madhya Pradesh,Indore,"Chhoti Gwaltoli, Indore - MPPCB",19-03-2024 23:00:00,22.4310,75.5213,SO2,16,98,30
India,Madhya Pradesh,Indore,"Maguda Nagar, Indore - IMC",19-03-2024 23:00:00,22.7524,75.8872,PM2.5,20,96,51
India,Madhya Pradesh,Indore,"Maguda Nagar, Indore - IMC",19-03-2024 23:00:00,22.7524,75.8872,PM10,28,104,59
India,Madhya Pradesh,Indore,"Maguda Nagar, Indore - IMC",19-03-2024 23:00:00,22.7524,75.8872,CO,25,36,28
India,Madhya Pradesh,Jabalpur,"Govindh Bhavan Colony, Jabalpur - JMC",19-03-2024 23:00:00,23.163174,79.973061,SO2,10,32,18
India,Madhya Pradesh,Jabalpur,"Govindh Bhavan Colony, Jabalpur - JMC",19-03-2024 23:00:00,23.163174,79.973061,CO,5,20,8
India,Madhya Pradesh,Jabalpur,"Gupteshwar, Jabalpur - JMC",19-03-2024 23:00:00,23.142888,79.916147,SO2,2,21,7
India,Madhya Pradesh,Jabalpur,"Marhatal, Jabalpur - MPPCB",19-03-2024 23:00:00,23.168606,79.932247,CO,7,64,20
India,Madhya Pradesh,Katni,"Gole Bazar, Katni - MPPCB",19-03-2024 23:00:00,23.50016,80.23284,PM2.5,41,76,59
India,Madhya Pradesh,Maihar,"Sahilara, Maihar - KJS Cements",19-03-2024 23:00:00,24.2613009,80.7231783,SO2,19,34,24
India,Madhya Pradesh,Mandideep,"Sector-D Industrial Area, Mandideep - MPPCB",19-03-2024 23:00:00,23.108440,77.511428,PM2.5,49,267,111
India,Madhya Pradesh,Pithampur,"Sector-2 Industrial Area, Pithampur - MPPCB",19-03-2024 23:00:00,22.624758,75.675238,OZONE,25,52,37
India,Madhya Pradesh,Ratlam,"Shasthri Nagar, Ratlam - IPCA Lab",19-03-2024 23:00:00,23.331731,75.045981,PM10,91,423,158
India,Madhya Pradesh,Ratlam,"Shasthri Nagar, Ratlam - IPCA Lab",19-03-2024 23:00:00,23.331731,75.045981,NO2,21,120,56
India,Madhya Pradesh,Sagar,"Civil Lines, Sagar - MPPCB",19-03-2024 23:00:00,23.838586,78.759431,PM10,49,140,90
India,Madhya Pradesh,Sagar,"Civil Lines, Sagar - MPPCB",19-03-2024 23:00:00,23.838586,78.759431,OZONE,33,132,63
India,Madhya Pradesh,Sagar,"Deen Dayal Nagar, Sagar - MPPCB",19-03-2024 23:00:00,23.8640158,78.80289321,PM2.5,10,46,22
India,Madhya Pradesh,Sagar,"Deen Dayal Nagar, Sagar - MPPCB",19-03-2024 23:00:00,23.8640158,78.80289321,CO,44,70,63
India,Madhya Pradesh,Satna,"Bandhavgar Colony, Satna - Birla Cement",19-03-2024 23:00:00,24.58434363,80.8549414,CO,30,100,56
India,Madhya Pradesh,Singrauli,"Suryakiran Bhawan NCL, Singrauli - MPPCB",19-03-2024 23:00:00,24.108970,82.645580,PM2.5,28,152,72
India,Madhya Pradesh,Singrauli,"Suryakiran Bhawan NCL, Singrauli - MPPCB",19-03-2024 23:00:00,24.108970,82.645580,CO,32,36,33
India,Madhya Pradesh,Ujjain,"Mahakaleshwar Temple, Ujjain - MPPCB",19-03-2024 23:00:00,23.182719 ,75.768218 ,PM10,56,140,93
India,Madhya Pradesh,Ujjain,"Mahakaleshwar Temple, Ujjain - MPPCB",19-03-2024 23:00:00,23.182719 ,75.768218 ,CO,10,112,60
India,Maharashtra,Ahmednagar,"Tarakpur, Ahmednagar - MPCB",19-03-2024 23:00:00,19.10122,74.73339,PM10,65,282,130
India,Maharashtra,Ahmednagar,"Tarakpur, Ahmednagar - MPCB",19-03-2024 23:00:00,19.10122,74.73339,NO2,18,170,61
India,Maharashtra,Ahmednagar,"Tarakpur, Ahmednagar - MPCB",19-03-2024 23:00:00,19.10122,74.73339,SO2,11,17,13
India,Maharashtra,Ahmednagar,"Tarakpur, Ahmednagar - MPCB",19-03-2024 23:00:00,19.10122,74.73339,CO,11,124,62
India,Maharashtra,Akola,"Ramdaspeth, Akola - MPCB",19-03-2024 23:00:00,20.719516,77.000253,SO2,9,22,14
India,Maharashtra,Akola,"Ramdaspeth, Akola - MPCB",19-03-2024 23:00:00,20.719516,77.000253,CO,24,106,44
India,Maharashtra,Akola,"Ramdaspeth, Akola - MPCB",19-03-2024 23:00:00,20.719516,77.000253,OZONE,13,93,56
India,Maharashtra,Amravati,"Shivneri Colony, Amravati - MPCB",19-03-2024 23:00:00,20.9402359,77.7895248,SO2,22,24,22
India,Maharashtra,Aurangabad,"MIDC Chilkalthana, Aurangabad - MPCB",19-03-2024 23:00:00,19.875620,75.387310,CO,44,92,80
India,Maharashtra,Aurangabad,"More Chowk Waluj, Aurangabad - MPCB",19-03-2024 23:00:00,19.8389439,75.244448,NO2,NA,NA,NA
India,Maharashtra,Aurangabad,"Rachnakar Colony, Aurangabad - MPCB",19-03-2024 23:00:00,19.863756,75.321188,PM2.5,68,350,193
India,Maharashtra,Aurangabad,"Rachnakar Colony, Aurangabad - MPCB",19-03-2024 23:00:00,19.863756,75.321188,CO,12,98,34
India,Maharashtra,Bhiwandi,"Gokul Nagar, Bhiwandi - MPCB",19-03-2024 23:00:00,19.309073,73.057223,PM2.5,71,317,151
India,Maharashtra,Bhiwandi,"Gokul Nagar, Bhiwandi - MPCB",19-03-2024 23:00:00,19.309073,73.057223,NO2,14,68,38
India,Maharashtra,Bhiwandi,"Gokul Nagar, Bhiwandi - MPCB",19-03-2024 23:00:00,19.309073,73.057223,CO,9,91,22
India,Maharashtra,Bhiwandi,"Gokul Nagar, Bhiwandi - MPCB",19-03-2024 23:00:00,19.309073,73.057223,OZONE,2,97,43
India,Maharashtra,Chandrapur,"Chauhan Colony, Chandrapur - MPCB",19-03-2024 23:00:00,19.962900,79.298714,PM10,33,99,55
India,Maharashtra,Chandrapur,"Chauhan Colony, Chandrapur - MPCB",19-03-2024 23:00:00,19.962900,79.298714,CO,23,24,24
India,Maharashtra,Dhule,"Deopur, Dhule - MPCB",19-03-2024 23:00:00,20.918946,74.776388,PM10,70,183,124
India,Maharashtra,Dhule,"Deopur, Dhule - MPCB",19-03-2024 23:00:00,20.918946,74.776388,SO2,16,27,22
India,Maharashtra,Jalgaon,"Prabhat Colony, Jalgaon - MPCB",19-03-2024 23:00:00,21.001264,75.565602,PM2.5,71,240,116
India,Maharashtra,Jalna,"Old MIDC, Jalna - MPCB",19-03-2024 23:00:00,19.854616,75.905894,PM2.5,62,318,170
India,Maharashtra,Kalyan,"Khadakpada, Kalyan - MPCB",19-03-2024 23:00:00,19.25292,73.142019,PM2.5,23,92,51
India,Maharashtra,Kalyan,"Khadakpada, Kalyan - MPCB",19-03-2024 23:00:00,19.25292,73.142019,NH3,1,2,1
India,Maharashtra,Kalyan,"Khadakpada, Kalyan - MPCB",19-03-2024 23:00:00,19.25292,73.142019,CO,16,34,20
India,Maharashtra,Kolhapur,"Shivaji University, Kolhapur - MPCB",19-03-2024 23:00:00,16.6870449,74.2505872,PM2.5,122,156,138
India,Maharashtra,Latur,"Sawe Wadi, Latur - MPCB",19-03-2024 23:00:00,18.39963,76.57452,PM2.5,61,148,86
India,Maharashtra,Latur,"Sawe Wadi, Latur - MPCB",19-03-2024 23:00:00,18.39963,76.57452,NH3,10,13,12
India,Maharashtra,Latur,"Sawe Wadi, Latur - MPCB",19-03-2024 23:00:00,18.39963,76.57452,CO,5,38,19
India,Maharashtra,Mahad,"Kamble Tarf Birwadi, Mahad - MPCB",19-03-2024 23:00:00,18.1023399,73.4783687,SO2,12,115,38
India,Maharashtra,Malegaon,"Mahesh Nagar, Malegaon - MPCB",19-03-2024 23:00:00,20.555712,74.529236,PM2.5,87,192,110
India,Maharashtra,Mira-Bhayandar,"Bhayandar West, Mira-Bhayandar - MPCB",19-03-2024 23:00:00,19.296481,72.840923,PM2.5,84,316,153
India,Maharashtra,Mumbai,"Bandra Kurla Complex, Mumbai - MPCB",19-03-2024 23:00:00,19.065931,72.862131,PM10,116,190,144
India,Maharashtra,Mumbai,"Bandra Kurla Complex, Mumbai - MPCB",19-03-2024 23:00:00,19.065931,72.862131,SO2,1,7,2
India,Maharashtra,Mumbai,"Borivali East, Mumbai - MPCB",19-03-2024 23:00:00,19.2243333,72.8658113,CO,NA,NA,NA
India,Maharashtra,Mumbai,"Byculla, Mumbai - BMC",19-03-2024 23:00:00,18.9767,72.8380,PM10,64,116,83
India,Maharashtra,Mumbai,"Chakala-Andheri East, Mumbai - IITM",19-03-2024 23:00:00,19.11074,72.86084,PM2.5,53,162,77
India,Maharashtra,Mumbai,"Chakala-Andheri East, Mumbai - IITM",19-03-2024 23:00:00,19.11074,72.86084,PM10,65,115,96
India,Maharashtra,Mumbai,"Chakala-Andheri East, Mumbai - IITM",19-03-2024 23:00:00,19.11074,72.86084,NO2,NA,NA,NA
India,Maharashtra,Mumbai,"Chembur, Mumbai - MPCB",19-03-2024 23:00:00,19.0364585,72.8954371,NO2,24,69,42
India,Maharashtra,Mumbai,"Chembur, Mumbai - MPCB",19-03-2024 23:00:00,19.0364585,72.8954371,CO,17,39,25
India,Maharashtra,Mumbai,"Chhatrapati Shivaji Intl. Airport (T2), Mumbai - MPCB",19-03-2024 23:00:00,19.10078,72.87462,PM2.5,24,48,33
India,Maharashtra,Mumbai,"Chhatrapati Shivaji Intl. Airport (T2), Mumbai - MPCB",19-03-2024 23:00:00,19.10078,72.87462,OZONE,5,19,12
India,Maharashtra,Mumbai,"Colaba, Mumbai - MPCB",19-03-2024 23:00:00,18.910000,72.820000,PM2.5,27,69,41
India,Maharashtra,Mumbai,"Colaba, Mumbai - MPCB",19-03-2024 23:00:00,18.910000,72.820000,NH3,1,1,1
India,Maharashtra,Mumbai,"Ghatkopar, Mumbai - BMC",19-03-2024 23:00:00,19.083694,72.920967,PM2.5,41,85,56
India,Maharashtra,Mumbai,"Ghatkopar, Mumbai - BMC",19-03-2024 23:00:00,19.083694,72.920967,NH3,1,5,3
India,Maharashtra,Mumbai,"Kandivali East, Mumbai - MPCB",19-03-2024 23:00:00,19.205800,72.868200,CO,84,102,92
India,Maharashtra,Mumbai,"Kherwadi_Bandra East, Mumbai - MPCB",19-03-2024 23:00:00,19.0632143,72.8456324,PM10,90,179,123
India,Maharashtra,Mumbai,"Kherwadi_Bandra East, Mumbai - MPCB",19-03-2024 23:00:00,19.0632143,72.8456324,SO2,8,29,14
India,Maharashtra,Mumbai,"Kurla, Mumbai - MPCB",19-03-2024 23:00:00,19.0863,72.8888,CO,12,26,17
India,Maharashtra,Mumbai,"Mazgaon, Mumbai - IITM",19-03-2024 23:00:00,18.96702,72.84214,NH3,20,33,24
India,Maharashtra,Mumbai,"Mazgaon, Mumbai - IITM",19-03-2024 23:00:00,18.96702,72.84214,CO,12,59,32
India,Maharashtra,Mumbai,"Mazgaon, Mumbai - IITM",19-03-2024 23:00:00,18.96702,72.84214,OZONE,10,161,83
India,Maharashtra,Mumbai,"Mulund West, Mumbai - MPCB",19-03-2024 23:00:00,19.1750,72.9419,NO2,20,24,22
India,Maharashtra,Mumbai,"Mulund West, Mumbai - MPCB",19-03-2024 23:00:00,19.1750,72.9419,SO2,13,13,13
India,Maharashtra,Mumbai,"Sewri, Mumbai - BMC",19-03-2024 23:00:00,19.000084,72.856730,PM10,73,117,94
India,Maharashtra,Mumbai,"Sewri, Mumbai - BMC",19-03-2024 23:00:00,19.000084,72.856730,NH3,5,10,8
India,Maharashtra,Mumbai,"Shivaji Nagar, Mumbai - BMC",19-03-2024 23:00:00,19.060498,72.923356,PM2.5,NA,NA,NA
India,Maharashtra,Mumbai,"Shivaji Nagar, Mumbai - BMC",19-03-2024 23:00:00,19.060498,72.923356,NO2,43,111,71
India,Maharashtra,Mumbai,"Shivaji Nagar, Mumbai - BMC",19-03-2024 23:00:00,19.060498,72.923356,NH3,4,10,7
India,Maharashtra,Mumbai,"Siddharth Nagar-Worli, Mumbai - IITM",19-03-2024 23:00:00,19.000083,72.813993,CO,16,28,23
India,Maharashtra,Mumbai,"Sion, Mumbai - MPCB",19-03-2024 23:00:00,19.047000,72.874600,PM2.5,36,93,52
India,Maharashtra,Mumbai,"Sion, Mumbai - MPCB",19-03-2024 23:00:00,19.047000,72.874600,PM10,111,199,144
India,Maharashtra,Mumbai,"Sion, Mumbai - MPCB",19-03-2024 23:00:00,19.047000,72.874600,CO,10,42,18
India,Maharashtra,Mumbai,"Vasai West, Mumbai - MPCB",19-03-2024 23:00:00,19.383200,72.820400,OZONE,16,99,60
India,Maharashtra,Mumbai,"Vile Parle West, Mumbai - MPCB",19-03-2024 23:00:00,19.10861,72.83622,NO2,1,9,4
India,Maharashtra,Mumbai,"Vile Parle West, Mumbai - MPCB",19-03-2024 23:00:00,19.10861,72.83622,NH3,9,11,11
India,Maharashtra,Nagpur,"Ambazari, Nagpur - MPCB",19-03-2024 23:00:00,21.121801,79.04952,OZONE,16,109,49
India,Maharashtra,Nagpur,"Mahal, Nagpur - MPCB",19-03-2024 23:00:00,21.14472,79.107595,PM10,51,121,92
India,Maharashtra,Nagpur,"Mahal, Nagpur - MPCB",19-03-2024 23:00:00,21.14472,79.107595,NH3,1,9,6
India,Maharashtra,Nagpur,"Opp GPO Civil Lines, Nagpur - MPCB",19-03-2024 23:00:00,21.152875,79.0517531,PM10,42,113,70
India,Maharashtra,Nagpur,"Opp GPO Civil Lines, Nagpur - MPCB",19-03-2024 23:00:00,21.152875,79.0517531,CO,9,97,57
India,Maharashtra,Nagpur,"Opp GPO Civil Lines, Nagpur - MPCB",19-03-2024 23:00:00,21.152875,79.0517531,OZONE,7,84,33
India,Maharashtra,Nagpur,"Ram Nagar, Nagpur - MPCB",19-03-2024 23:00:00,21.143383,79.048912,NH3,4,6,5
India,Maharashtra,Nagpur,"Ram Nagar, Nagpur - MPCB",19-03-2024 23:00:00,21.143383,79.048912,OZONE,14,82,48
India,Maharashtra,Nanded,"Sneh Nagar, Nanded - MPCB",19-03-2024 23:00:00,19.173852,77.296291,PM10,84,387,138
India,Maharashtra,Nanded,"Sneh Nagar, Nanded - MPCB",19-03-2024 23:00:00,19.173852,77.296291,NO2,24,126,41
India,Maharashtra,Nashik,"Gangapur Road, Nashik - MPCB",19-03-2024 23:00:00,20.0073285,73.7762427,PM2.5,56,123,78
India,Maharashtra,Nashik,"Gangapur Road, Nashik - MPCB",19-03-2024 23:00:00,20.0073285,73.7762427,PM10,53,115,78
India,Maharashtra,Nashik,"Gangapur Road, Nashik - MPCB",19-03-2024 23:00:00,20.0073285,73.7762427,NO2,10,23,15
India,Maharashtra,Nashik,"Gangapur Road, Nashik - MPCB",19-03-2024 23:00:00,20.0073285,73.7762427,NH3,1,2,1
India,Maharashtra,Nashik,"Hirawadi, Nashik - MPCB",19-03-2024 23:00:00,20.021503,73.813844,OZONE,40,66,59
India,Maharashtra,Nashik,"MIDC Ambad, Nashik - MPCB",19-03-2024 23:00:00,19.950220,73.731480,PM10,51,89,73
India,Maharashtra,Nashik,"MIDC Ambad, Nashik - MPCB",19-03-2024 23:00:00,19.950220,73.731480,NH3,2,3,2
India,Maharashtra,Nashik,"MIDC Ambad, Nashik - MPCB",19-03-2024 23:00:00,19.950220,73.731480,SO2,4,24,11
India,Maharashtra,Nashik,"Pandav Nagari, Nashik - MPCB",19-03-2024 23:00:00,19.9591346,73.7788008,CO,11,46,24
India,Maharashtra,Navi Mumbai,"Mahape, Navi Mumbai - MPCB",19-03-2024 23:00:00,19.1135051,73.008978,PM2.5,38,211,82
India,Maharashtra,Navi Mumbai,"Mahape, Navi Mumbai - MPCB",19-03-2024 23:00:00,19.1135051,73.008978,CO,36,74,49
India,Maharashtra,Navi Mumbai,"Nerul, Navi Mumbai - MPCB",19-03-2024 23:00:00,19.008751,73.016620,NO2,13,20,16
India,Maharashtra,Navi Mumbai,"Nerul, Navi Mumbai - MPCB",19-03-2024 23:00:00,19.008751,73.016620,OZONE,28,34,31
India,Maharashtra,Navi Mumbai,"Sanpada, Navi Mumbai - MPCB",19-03-2024 23:00:00,19.0575752,73.0151367,NH3,4,10,7
India,Maharashtra,Navi Mumbai,"Sector-2E Kalamboli, Navi Mumbai - MPCB",19-03-2024 23:00:00,19.02579,73.10297,NH3,2,6,4
India,Maharashtra,Navi Mumbai,"Tondare-Taloja, Navi Mumbai - MPCB",19-03-2024 23:00:00,19.0630,73.1209,NH3,4,6,4
India,Maharashtra,Parbhani,"Masoom Colony, Parbhani - MPCB",19-03-2024 23:00:00,19.265594,76.761463,PM10,122,159,139
India,Maharashtra,Pimpri-Chinchwad,"Park Street Wakad, Pimpri Chinchwad - MPCB",19-03-2024 23:00:00,18.59051,73.77946,PM2.5,81,193,141
India,Maharashtra,Pimpri-Chinchwad,"Park Street Wakad, Pimpri Chinchwad - MPCB",19-03-2024 23:00:00,18.59051,73.77946,NO2,52,108,78
India,Maharashtra,Pimpri-Chinchwad,"Park Street Wakad, Pimpri Chinchwad - MPCB",19-03-2024 23:00:00,18.59051,73.77946,OZONE,9,66,49
India,Maharashtra,Pimpri-Chinchwad,"Thergaon, Pimpri Chinchwad - MPCB",19-03-2024 23:00:00,18.616318,73.765797,NO2,20,136,68
India,Maharashtra,Pimpri-Chinchwad,"Thergaon, Pimpri Chinchwad - MPCB",19-03-2024 23:00:00,18.616318,73.765797,OZONE,4,130,84
India,Maharashtra,Pune,"Bhosari, Pune - IITM",19-03-2024 23:00:00,18.640051,73.848956,OZONE,21,98,63
India,Maharashtra,Pune,"Karve Road, Pune - MPCB",19-03-2024 23:00:00,18.5011743,73.8165527,CO,57,66,63
India,Maharashtra,Pune,"Karve Road, Pune - MPCB",19-03-2024 23:00:00,18.5011743,73.8165527,OZONE,5,6,6
India,Maharashtra,Pune,"Katraj Dairy, Pune - MPCB",19-03-2024 23:00:00,18.454450,73.854155,SO2,2,8,5
India,Maharashtra,Pune,"Katraj Dairy, Pune - MPCB",19-03-2024 23:00:00,18.454450,73.854155,CO,28,104,63
India,Maharashtra,Pune,"Katraj Dairy, Pune - MPCB",19-03-2024 23:00:00,18.454450,73.854155,OZONE,24,53,35
India,Maharashtra,Pune,"Mhada Colony, Pune - IITM",19-03-2024 23:00:00,18.573040,73.927715,PM2.5,25,112,64
India,Maharashtra,Pune,"Mhada Colony, Pune - IITM",19-03-2024 23:00:00,18.573040,73.927715,NO2,3,18,12
India,Maharashtra,Pune,"Mhada Colony, Pune - IITM",19-03-2024 23:00:00,18.573040,73.927715,OZONE,5,30,23
India,Maharashtra,Pune,"Revenue Colony-Shivajinagar, Pune - IITM",19-03-2024 23:00:00,18.530085,73.849598,NO2,59,163,109
India,Maharashtra,Pune,"Revenue Colony-Shivajinagar, Pune - IITM",19-03-2024 23:00:00,18.530085,73.849598,NH3,7,21,14
India,Maharashtra,Solapur,"Dnyaneshwar Nagar, Solapur - MPCB",19-03-2024 23:00:00,17.6336264,75.9132495,OZONE,40,112,83
India,Maharashtra,Solapur,"Ratandeep Housing Society, Solapur - MPCB",19-03-2024 23:00:00,17.65439,75.90649,SO2,2,11,6
India,Maharashtra,Solapur,"Solapur, Solapur - MPCB",19-03-2024 23:00:00,17.6599188,75.9063906,PM2.5,67,123,80
India,Maharashtra,Thane,"Kasarvadavali, Thane - MPCB",19-03-2024 23:00:00,19.26777,72.97182,SO2,NA,NA,NA
India,Maharashtra,Thane,"Pimpleshwar Mandir, Thane - MPCB",19-03-2024 23:00:00,19.192056,72.9585188,CO,12,132,69
India,Maharashtra,Ulhasnagar,"Sidhi Vinayak Nagar, Ulhasnagar - MPCB",19-03-2024 23:00:00,19.235581,73.159121,SO2,1,15,9
India,Maharashtra,Ulhasnagar,"Sidhi Vinayak Nagar, Ulhasnagar - MPCB",19-03-2024 23:00:00,19.235581,73.159121,CO,2,67,32
India,Manipur,Imphal,"DM College of Science, Imphal - Manipur PCB",19-03-2024 23:00:00,24.8207389,93.9423085,PM2.5,48,85,62
India,Manipur,Imphal,"DM College of Science, Imphal - Manipur PCB",19-03-2024 23:00:00,24.8207389,93.9423085,NH3,2,2,2
India,Manipur,Imphal,"DM College of Science, Imphal - Manipur PCB",19-03-2024 23:00:00,24.8207389,93.9423085,SO2,89,95,92
India,Manipur,Imphal,"Manipur University, Imphal - Manipur PCB",19-03-2024 23:00:00,24.7524239,93.9286218,NH3,1,1,1
India,Meghalaya,Shillong,"Lumpyngngad, Shillong - Meghalaya PCB",19-03-2024 23:00:00,25.5586,91.8985,PM10,52,126,82
India,Mizoram,Aizawl,"Sikulpuikawn, Aizawl - Mizoram PCB",19-03-2024 23:00:00,23.7176342,92.7192841,NH3,NA,NA,NA
India,Nagaland,Kohima,"PWD Juction, Kohima - NPCB",19-03-2024 23:00:00,25.6635413,94.0989878,SO2,29,31,30
India,Odisha,Angul,"Hakimapada, Angul - OSPCB",19-03-2024 23:00:00,20.832874,85.104082,PM2.5,10,461,89
India,Odisha,Angul,"Hakimapada, Angul - OSPCB",19-03-2024 23:00:00,20.832874,85.104082,OZONE,12,93,44
India,Odisha,Balasore,"Kalidaspur, Balasore - OSPCB",19-03-2024 23:00:00,21.51161,86.89088,NH3,4,7,5
India,Odisha,Barbil,"Forest Office, Barbil - OSPCB",19-03-2024 23:00:00,22.1166054,85.3945546,PM2.5,15,48,31
India,Odisha,Barbil,"Forest Office, Barbil - OSPCB",19-03-2024 23:00:00,22.1166054,85.3945546,OZONE,35,118,75
India,Odisha,Baripada,"Meher Colony, Baripada - OSPCB",19-03-2024 23:00:00,21.941841,86.728318,OZONE,20,66,44
India,Odisha,Bhubaneswar,"Patia, Bhubaneswar - OSPCB",19-03-2024 23:00:00,20.34652,85.81630,PM2.5,7,58,37
India,Odisha,Bhubaneswar,"Patia, Bhubaneswar - OSPCB",19-03-2024 23:00:00,20.34652,85.81630,NH3,1,3,2
India,Odisha,Bhubaneswar,"Patia, Bhubaneswar - OSPCB",19-03-2024 23:00:00,20.34652,85.81630,SO2,6,47,14
India,Odisha,Bhubaneswar,"Patia, Bhubaneswar - OSPCB",19-03-2024 23:00:00,20.34652,85.81630,CO,76,104,102
India,Odisha,Brajrajnagar,"GM Office, Brajrajnagar - OSPCB",19-03-2024 23:00:00,21.8004996,83.8396977,OZONE,15,24,20
India,Odisha,Byasanagar,"Ferro Chrome Colony, Byasanagar - OSPCB",19-03-2024 23:00:00,20.94185,86.11510,NH3,2,3,2
India,Odisha,Cuttack,"CDA Area, Cuttack - OSPCB",19-03-2024 23:00:00,20.48891     ,85.84768     ,PM2.5,12,73,44
India,Odisha,Keonjhar,"Jagamohanpur, Keonjhar - OSPCB",19-03-2024 23:00:00,21.643900,85.599355,PM2.5,NA,NA,NA
India,Odisha,Keonjhar,"Jagamohanpur, Keonjhar - OSPCB",19-03-2024 23:00:00,21.643900,85.599355,PM10,NA,NA,NA
India,Odisha,Keonjhar,"Jagamohanpur, Keonjhar - OSPCB",19-03-2024 23:00:00,21.643900,85.599355,NO2,NA,NA,NA
India,Odisha,Keonjhar,"Jagamohanpur, Keonjhar - OSPCB",19-03-2024 23:00:00,21.643900,85.599355,OZONE,1,21,7
India,Odisha,Nayagarh,"Dabuna, Nayagarh - OSPCB",19-03-2024 23:00:00,21.847279,85.416905,CO,22,30,24
India,Odisha,Rairangpur,"Divisional Forest Office, Rairangpur - OSPCB",19-03-2024 23:00:00,22.265816,86.174829,NO2,7,8,7
India,Odisha,Rairangpur,"Divisional Forest Office, Rairangpur - OSPCB",19-03-2024 23:00:00,22.265816,86.174829,SO2,2,3,2
India,Odisha,Rourkela,"Fertilizer Township, Rourkela - OSPCB",19-03-2024 23:00:00,22.18972222,84.86277778,NO2,NA,NA,NA
India,Odisha,Rourkela,"Raghunathpali, Rourkela - OSPCB",19-03-2024 23:00:00,22.220833,84.809444,PM2.5,20,39,27
India,Odisha,Rourkela,"Raghunathpali, Rourkela - OSPCB",19-03-2024 23:00:00,22.220833,84.809444,NH3,1,4,3
India,Odisha,Talcher,"Talcher Coalfields,Talcher - OSPCB",19-03-2024 23:00:00,20.9360711,85.1707021,CO,34,72,50
India,Odisha,Tensa,"Barsua Iron Ore Mines, Tensa - OSPCB",19-03-2024 23:00:00,21.869985,85.167016,NH3,NA,NA,NA
India,Odisha,Tensa,"Barsua Iron Ore Mines, Tensa - OSPCB",19-03-2024 23:00:00,21.869985,85.167016,OZONE,8,50,22
India,Puducherry,Puducherry,"Jawahar Nagar, Puducherry - PPCC",19-03-2024 23:00:00,11.9309,79.8027,PM2.5,7,250,61
India,Puducherry,Puducherry,"Jawahar Nagar, Puducherry - PPCC",19-03-2024 23:00:00,11.9309,79.8027,SO2,4,14,8
India,Punjab,Bathinda,"Hardev Nagar, Bathinda - PPCB",19-03-2024 23:00:00,30.233011,74.907758,PM2.5,25,134,63
India,Punjab,Bathinda,"Hardev Nagar, Bathinda - PPCB",19-03-2024 23:00:00,30.233011,74.907758,SO2,2,22,15
India,Punjab,Khanna,"Kalal Majra, Khanna - PPCB",19-03-2024 23:00:00,30.736056 ,76.209694,SO2,10,31,17
India,Punjab,Ludhiana,"Punjab Agricultural University, Ludhiana - PPCB",19-03-2024 23:00:00,30.9028,75.8086,NO2,19,23,22
India,Punjab,Mandi Gobindgarh,"RIMT University, Mandi Gobindgarh - PPCB",19-03-2024 23:00:00,30.649961,76.331442,PM10,47,198,119
India,Punjab,Patiala,"Model Town, Patiala - PPCB",19-03-2024 23:00:00,30.349388,76.366642,OZONE,21,120,77
India,Punjab,Rupnagar,"Ratanpura, Rupnagar - Ambuja Cements",19-03-2024 23:00:00,31.0325454,76.5623046,PM2.5,18,101,62
India,Punjab,Rupnagar,"Ratanpura, Rupnagar - Ambuja Cements",19-03-2024 23:00:00,31.0325454,76.5623046,PM10,35,402,163
India,Rajasthan,Ajmer,"Civil Lines,  Ajmer - RSPCB",19-03-2024 23:00:00,26.470859,74.646594,NH3,5,5,5
India,Rajasthan,Ajmer,"Civil Lines,  Ajmer - RSPCB",19-03-2024 23:00:00,26.470859,74.646594,CO,14,99,34
India,Rajasthan,Ajmer,"Civil Lines,  Ajmer - RSPCB",19-03-2024 23:00:00,26.470859,74.646594,OZONE,17,97,68
India,Rajasthan,Alwar,"Moti Doongri, Alwar - RSPCB",19-03-2024 23:00:00,27.554793,76.611536,SO2,9,72,32
India,Rajasthan,Alwar,"Moti Doongri, Alwar - RSPCB",19-03-2024 23:00:00,27.554793,76.611536,CO,2,63,43
India,Rajasthan,Banswara,"Rati Talai, Banswara - RSPCB",19-03-2024 23:00:00,23.555190,74.440010,PM2.5,19,208,73
India,Rajasthan,Banswara,"Rati Talai, Banswara - RSPCB",19-03-2024 23:00:00,23.555190,74.440010,NO2,22,121,49
India,Rajasthan,Banswara,"Rati Talai, Banswara - RSPCB",19-03-2024 23:00:00,23.555190,74.440010,NH3,4,8,6
India,Rajasthan,Banswara,"Rati Talai, Banswara - RSPCB",19-03-2024 23:00:00,23.555190,74.440010,CO,16,109,51
India,Rajasthan,Baran,"Bamboliya, Baran - RSPCB",19-03-2024 23:00:00,25.106006,76.469948,SO2,7,55,14
India,Rajasthan,Baran,"Bamboliya, Baran - RSPCB",19-03-2024 23:00:00,25.106006,76.469948,CO,8,60,27
India,Rajasthan,Barmer,"Railway Colony, Barmer - RSPCB",19-03-2024 23:00:00,25.747299,71.393989,PM2.5,8,67,29
India,Rajasthan,Barmer,"Railway Colony, Barmer - RSPCB",19-03-2024 23:00:00,25.747299,71.393989,PM10,41,211,86
India,Rajasthan,Bhilwara,"Pratap Nagar, Bhilwara - RSPCB",19-03-2024 23:00:00,25.339605,74.618883,NO2,16,93,42
India,Rajasthan,Bhilwara,"Pratap Nagar, Bhilwara - RSPCB",19-03-2024 23:00:00,25.339605,74.618883,SO2,7,39,20
India,Rajasthan,Bhiwadi,"RIICO Ind. Area III, Bhiwadi - RSPCB",19-03-2024 23:00:00,28.194909,76.862296,NO2,11,36,22
India,Rajasthan,Bhiwadi,"RIICO Ind. Area III, Bhiwadi - RSPCB",19-03-2024 23:00:00,28.194909,76.862296,CO,78,107,105
India,Rajasthan,Bhiwadi,"RIICO Ind. Area III, Bhiwadi - RSPCB",19-03-2024 23:00:00,28.194909,76.862296,OZONE,3,54,14
India,Rajasthan,Bhiwadi,"Vasundhara Nagar_UIT, Bhiwadi - RSPCB",19-03-2024 23:00:00,28.207266,76.829265,NO2,NA,NA,NA
India,Rajasthan,Bhiwadi,"Vasundhara Nagar_UIT, Bhiwadi - RSPCB",19-03-2024 23:00:00,28.207266,76.829265,OZONE,3,77,42
India,Rajasthan,Bikaner,"MM Ground, Bikaner - RSPCB",19-03-2024 23:00:00,28.018792,73.292658,PM2.5,26,136,58
India,Rajasthan,Bikaner,"MM Ground, Bikaner - RSPCB",19-03-2024 23:00:00,28.018792,73.292658,NO2,16,81,44
India,Rajasthan,Bikaner,"MM Ground, Bikaner - RSPCB",19-03-2024 23:00:00,28.018792,73.292658,SO2,1,6,3
India,Rajasthan,Bundi,"New Colony, Bundi - RSPCB",19-03-2024 23:00:00,25.435774,75.644272,PM10,54,332,98
India,Rajasthan,Chittorgarh,"Shastri Nagar, Chittorgarh - RSPCB",19-03-2024 23:00:00,24.892047,74.623527,PM2.5,7,287,94
India,Rajasthan,Churu,"Subash Chowk, Churu - RSPCB",19-03-2024 23:00:00,28.296139,74.961696,NO2,1,41,16
India,Rajasthan,Churu,"Subash Chowk, Churu - RSPCB",19-03-2024 23:00:00,28.296139,74.961696,OZONE,66,154,130
India,Rajasthan,Dausa,"Khatikan Mohalla, Dausa - RSPCB",19-03-2024 23:00:00,26.895552,76.334753,PM10,108,436,159
India,Rajasthan,Dholpur,"Raja Ganj, Dholpur - RSPCB",19-03-2024 23:00:00,26.699557,77.898881,PM2.5,52,367,204
India,Rajasthan,Dungarpur,"Bhoiwada, Dungarpur - RSPCB",19-03-2024 23:00:00,23.837789,73.714926,PM10,52,160,88
India,Rajasthan,Dungarpur,"Bhoiwada, Dungarpur - RSPCB",19-03-2024 23:00:00,23.837789,73.714926,SO2,8,11,9
India,Rajasthan,Dungarpur,"Bhoiwada, Dungarpur - RSPCB",19-03-2024 23:00:00,23.837789,73.714926,CO,34,104,41
India,Rajasthan,Hanumangarh,"Housing Board, Hanumangarh - RSPCB",19-03-2024 23:00:00,29.610750,74.283608,PM2.5,45,496,196
India,Rajasthan,Jaipur,"Mansarovar Sector-12, Jaipur - RSPCB",19-03-2024 23:00:00,26.843698,75.766894,PM2.5,19,164,61
India,Rajasthan,Jaipur,"Mansarovar Sector-12, Jaipur - RSPCB",19-03-2024 23:00:00,26.843698,75.766894,NO2,29,82,47
India,Rajasthan,Jaipur,"RIICO Sitapura, Jaipur - RSPCB",19-03-2024 23:00:00,26.786682,75.827928,PM10,65,288,143
India,Rajasthan,Jaipur,"RIICO Sitapura, Jaipur - RSPCB",19-03-2024 23:00:00,26.786682,75.827928,OZONE,25,97,74
India,Rajasthan,Jaipur,"Sector-2 Murlipura, Jaipur - RSPCB",19-03-2024 23:00:00,26.960669,75.771817,PM10,36,131,72
India,Rajasthan,Jaipur,"Shastri Nagar, Jaipur - RSPCB",19-03-2024 23:00:00,26.9502929,75.730943,NO2,2,95,35
India,Rajasthan,Jaipur,"Shastri Nagar, Jaipur - RSPCB",19-03-2024 23:00:00,26.9502929,75.730943,CO,5,102,26
India,Rajasthan,Jaisalmer,"Sadar Bazar, Jaisalmer - RSPCB",19-03-2024 23:00:00,26.912329,70.909168,PM2.5,24,286,76
India,Rajasthan,Jaisalmer,"Sadar Bazar, Jaisalmer - RSPCB",19-03-2024 23:00:00,26.912329,70.909168,PM10,71,401,137
India,Rajasthan,Jaisalmer,"Sadar Bazar, Jaisalmer - RSPCB",19-03-2024 23:00:00,26.912329,70.909168,NH3,5,8,4
India,Rajasthan,Jaisalmer,"Sadar Bazar, Jaisalmer - RSPCB",19-03-2024 23:00:00,26.912329,70.909168,SO2,4,15,7
India,Rajasthan,Jhalawar,"Rajlaxmi Nagar, Jhalawar - RSPCB",19-03-2024 23:00:00,24.588397,76.172782,SO2,7,139,16
India,Rajasthan,Jhalawar,"Rajlaxmi Nagar, Jhalawar - RSPCB",19-03-2024 23:00:00,24.588397,76.172782,CO,28,108,74
India,Rajasthan,Jhunjhunu,"Indra Nagar, Jhunjhunu - RSPCB",19-03-2024 23:00:00,28.108988,75.386577,PM2.5,29,237,70
India,Rajasthan,Jhunjhunu,"Indra Nagar, Jhunjhunu - RSPCB",19-03-2024 23:00:00,28.108988,75.386577,CO,6,45,12
India,Rajasthan,Jhunjhunu,"Indra Nagar, Jhunjhunu - RSPCB",19-03-2024 23:00:00,28.108988,75.386577,OZONE,37,98,84
India,Rajasthan,Jodhpur,"Collectorate, Jodhpur - RSPCB",19-03-2024 23:00:00,26.268249,73.0193853,NO2,35,39,38
India,Rajasthan,Jodhpur,"Digari Kalan, Jodhpur - RSPCB",19-03-2024 23:00:00,26.295810,73.082283,PM10,73,165,122
India,Rajasthan,Jodhpur,"Digari Kalan, Jodhpur - RSPCB",19-03-2024 23:00:00,26.295810,73.082283,NO2,6,80,42
India,Rajasthan,Jodhpur,"Digari Kalan, Jodhpur - RSPCB",19-03-2024 23:00:00,26.295810,73.082283,NH3,5,13,8
India,Rajasthan,Jodhpur,"Jhalamand, Jodhpur - RSPCB",19-03-2024 23:00:00,26.215415,73.070156,PM2.5,15,307,116
India,Rajasthan,Jodhpur,"Jhalamand, Jodhpur - RSPCB",19-03-2024 23:00:00,26.215415,73.070156,SO2,5,13,8
India,Rajasthan,Jodhpur,"Samrat Ashok Udhyan, Jodhpur - RSPCB",19-03-2024 23:00:00,26.253384,72.976571,SO2,1,36,8
India,Rajasthan,Karauli,"Satyawati Vihar, Karauli - RSPCB",19-03-2024 23:00:00,26.506177,77.025989,PM10,18,81,39
India,Rajasthan,Karauli,"Satyawati Vihar, Karauli - RSPCB",19-03-2024 23:00:00,26.506177,77.025989,NO2,11,40,22
India,Rajasthan,Kota,"Nayapura, Kota - RSPCB",19-03-2024 23:00:00,25.196024,75.855668,PM2.5,15,333,120
India,Rajasthan,Pali,"Indira Colony Vistar, Pali - RSPCB",19-03-2024 23:00:00,25.771061, 73.340227,SO2,8,13,10
India,Rajasthan,Pratapgarh,"Pragati Nagar, Pratapgarh - RSPCB",19-03-2024 23:00:00,24.041198,74.780702,NO2,5,64,21
India,Rajasthan,Pratapgarh,"Pragati Nagar, Pratapgarh - RSPCB",19-03-2024 23:00:00,24.041198,74.780702,NH3,4,12,7
India,Rajasthan,Sawai Madhopur,"Sahu Nagar, Sawai Madhopur - RSPCB",19-03-2024 23:00:00,26.031443,76.359327,NH3,1,13,7
India,Rajasthan,Sawai Madhopur,"Sahu Nagar, Sawai Madhopur - RSPCB",19-03-2024 23:00:00,26.031443,76.359327,SO2,9,22,14
India,Rajasthan,Sirohi,"Vedhaynath Colony, Sirohi - RSPCB",19-03-2024 23:00:00,24.885261,72.857549,NO2,7,90,36
India,Rajasthan,Sirohi,"Vedhaynath Colony, Sirohi - RSPCB",19-03-2024 23:00:00,24.885261,72.857549,SO2,4,52,11
India,Rajasthan,Tonk,"Shastri Nagar, Tonk - RSPCB",19-03-2024 23:00:00,26.159933,75.780517,NH3,3,41,10
India,Rajasthan,Tonk,"Shastri Nagar, Tonk - RSPCB",19-03-2024 23:00:00,26.159933,75.780517,CO,9,74,31
India,Rajasthan,Tonk,"Shastri Nagar, Tonk - RSPCB",19-03-2024 23:00:00,26.159933,75.780517,OZONE,6,88,54
India,Rajasthan,Udaipur,"Ashok Nagar, Udaipur - RSPCB",19-03-2024 23:00:00,24.5886166,73.6321397,PM2.5,54,214,114
India,Rajasthan,Udaipur,"Ashok Nagar, Udaipur - RSPCB",19-03-2024 23:00:00,24.5886166,73.6321397,PM10,55,142,100
India,Sikkim,Gangtok,"Zero Point GICI, Gangtok - SSPCB",19-03-2024 23:00:00,27.338530,88.614099,SO2,10,11,11
India,TamilNadu,Chennai,"Alandur Bus Depot, Chennai - CPCB",19-03-2024 23:00:00,12.9099161,80.1076538,NO2,4,23,8
India,TamilNadu,Chennai,"Alandur Bus Depot, Chennai - CPCB",19-03-2024 23:00:00,12.9099161,80.1076538,SO2,2,5,3
India,TamilNadu,Chennai,"Arumbakkam, Chennai - TNPCB",19-03-2024 23:00:00,13.0664,80.2112 ,PM2.5,10,65,40
India,TamilNadu,Chennai,"Kodungaiyur, Chennai - TNPCB",19-03-2024 23:00:00,13.1278,80.2642,SO2,1,9,4
India,TamilNadu,Chennai,"Manali, Chennai - CPCB",19-03-2024 23:00:00,13.164544,80.26285,PM10,22,74,44
India,TamilNadu,Chennai,"Manali, Chennai - CPCB",19-03-2024 23:00:00,13.164544,80.26285,OZONE,6,15,13
India,TamilNadu,Chennai,"Perungudi, Chennai - TNPCB",19-03-2024 23:00:00,12.9533,80.2357,OZONE,3,6,6
India,TamilNadu,Chennai,"Royapuram, Chennai - TNPCB",19-03-2024 23:00:00,13.1036,80.2909,PM2.5,8,71,38
India,TamilNadu,Chennai,"Royapuram, Chennai - TNPCB",19-03-2024 23:00:00,13.1036,80.2909,SO2,1,6,3
India,TamilNadu,Chennai,"Royapuram, Chennai - TNPCB",19-03-2024 23:00:00,13.1036,80.2909,CO,16,27,23
India,TamilNadu,Chennai,"Royapuram, Chennai - TNPCB",19-03-2024 23:00:00,13.1036,80.2909,OZONE,9,11,9
India,TamilNadu,Chennai,"Velachery Res. Area, Chennai - CPCB",19-03-2024 23:00:00,13.0052189,80.2398125,OZONE,4,10,6
India,TamilNadu,Cuddalore,"Semmandalam, Cuddalore - TNPCB",19-03-2024 23:00:00,11.7637683,79.7499835,PM10,2,74,42
India,TamilNadu,Gummidipoondi,"Anthoni Pillai Nagar, Gummidipoondi - TNPCB",19-03-2024 23:00:00,13.4127,80.1081,PM2.5,10,141,74
India,TamilNadu,Ooty,"Bombay Castel, Ooty - TNPCB",19-03-2024 23:00:00,11.4068288,76.7138973,NO2,4,113,29
India,TamilNadu,Ooty,"Bombay Castel, Ooty - TNPCB",19-03-2024 23:00:00,11.4068288,76.7138973,CO,18,22,22
India,TamilNadu,Ooty,"Bombay Castel, Ooty - TNPCB",19-03-2024 23:00:00,11.4068288,76.7138973,OZONE,4,6,5
India,TamilNadu,Palkalaiperur,"Bharathidasan University, Palkalaiperur - TNPCB",19-03-2024 23:00:00,10.681158,78.741746,PM2.5,NA,NA,NA
India,TamilNadu,Ramanathapuram,"Chalai Bazaar, Ramanathapuram - TNPCB",19-03-2024 23:00:00,9.36399,78.831977,CO,2,10,6
India,TamilNadu,Thoothukudi,"Meelavittan, Thoothukudi - TNPCB",19-03-2024 23:00:00,8.816428 ,78.099039,OZONE,10,103,50
India,TamilNadu,Tirupur,"Kumaran College, Tirupur - TNPCB",19-03-2024 23:00:00,11.0973603,77.3228673,PM10,59,192,117
India,TamilNadu,Vellore,"Vasanthapuram, Vellore - TNPCB",19-03-2024 23:00:00,12.909494,79.131861,PM2.5,13,80,56
India,TamilNadu,Vellore,"Vasanthapuram, Vellore - TNPCB",19-03-2024 23:00:00,12.909494,79.131861,PM10,26,94,78
India,TamilNadu,Vellore,"Vasanthapuram, Vellore - TNPCB",19-03-2024 23:00:00,12.909494,79.131861,CO,16,23,20
India,Telangana,Hyderabad,"Central University, Hyderabad - TSPCB",19-03-2024 23:00:00,17.460103,78.334361,PM2.5,20,52,36
India,Telangana,Hyderabad,"ICRISAT Patancheru, Hyderabad - TSPCB",19-03-2024 23:00:00,17.518400,78.278777,PM10,36,103,68
India,Telangana,Hyderabad,"ICRISAT Patancheru, Hyderabad - TSPCB",19-03-2024 23:00:00,17.518400,78.278777,SO2,18,31,23
India,Telangana,Hyderabad,"ICRISAT Patancheru, Hyderabad - TSPCB",19-03-2024 23:00:00,17.518400,78.278777,CO,25,61,45
India,Telangana,Hyderabad,"Kokapet, Hyderabad - TSPCB",19-03-2024 23:00:00,17.393559,78.339194,PM2.5,47,86,58
India,Telangana,Hyderabad,"Kompally Municipal Office, Hyderabad - TSPCB",19-03-2024 23:00:00,17.544899,78.486949,PM2.5,28,75,51
India,Telangana,Hyderabad,"Kompally Municipal Office, Hyderabad - TSPCB",19-03-2024 23:00:00,17.544899,78.486949,PM10,38,94,61
India,Telangana,Hyderabad,"Kompally Municipal Office, Hyderabad - TSPCB",19-03-2024 23:00:00,17.544899,78.486949,NH3,5,6,6
India,Telangana,Hyderabad,"Kompally Municipal Office, Hyderabad - TSPCB",19-03-2024 23:00:00,17.544899,78.486949,SO2,8,22,13
India,Telangana,Hyderabad,"Somajiguda, Hyderabad - TSPCB",19-03-2024 23:00:00,17.417094,78.457437,PM2.5,28,70,44
India,Telangana,Hyderabad,"Somajiguda, Hyderabad - TSPCB",19-03-2024 23:00:00,17.417094,78.457437,NH3,2,5,3
India,Telangana,Hyderabad,"Somajiguda, Hyderabad - TSPCB",19-03-2024 23:00:00,17.417094,78.457437,OZONE,10,31,22
India,Telangana,Hyderabad,"Zoo Park, Hyderabad - TSPCB",19-03-2024 23:00:00,17.349694,78.451437,NO2,17,42,28
India,Uttar_Pradesh,Agra,"Rohta, Agra - UPPCB",19-03-2024 23:00:00,27.106972,78.000111,NH3,1,1,1
India,Uttar_Pradesh,Agra,"Sector-3B Avas Vikas Colony, Agra - UPPCB",19-03-2024 23:00:00,27.19412,77.96237,OZONE,2,17,5
India,Uttar_Pradesh,Agra,"Shahjahan Garden, Agra - UPPCB",19-03-2024 23:00:00,27.169338,78.03582,PM10,42,133,93
India,Uttar_Pradesh,Agra,"Shastripuram, Agra - UPPCB",19-03-2024 23:00:00,27.19862,77.92066,NO2,38,51,40
India,Uttar_Pradesh,Agra,"Shastripuram, Agra - UPPCB",19-03-2024 23:00:00,27.19862,77.92066,OZONE,1,15,10
India,Uttar_Pradesh,Bareilly,"Civil Lines, Bareilly - UPPCB",19-03-2024 23:00:00,28.359581,79.414455,OZONE,2,65,9
India,Uttar_Pradesh,Bareilly,"Rajendra Nagar, Bareilly - UPPCB",19-03-2024 23:00:00,28.38910936,79.42963708,PM2.5,26,67,45
India,Uttar_Pradesh,Bulandshahr,"Yamunapuram, Bulandshahr - UPPCB",19-03-2024 23:00:00,28.406963,77.849831,PM10,72,168,122
India,Uttar_Pradesh,Firozabad,"Nagla Bhau, Firozabad - UPPCB",19-03-2024 23:00:00,27.168897,78.376960,PM2.5,21,187,64
India,Uttar_Pradesh,Firozabad,"Nagla Bhau, Firozabad - UPPCB",19-03-2024 23:00:00,27.168897,78.376960,SO2,16,35,26
India,Uttar_Pradesh,Firozabad,"Nagla Bhau, Firozabad - UPPCB",19-03-2024 23:00:00,27.168897,78.376960,CO,24,41,34
India,Uttar_Pradesh,Firozabad,"Vibhab Nagar, Firozabad - UPPCB",19-03-2024 23:00:00,27.1594,78.3953,PM10,49,102,69
India,Uttar_Pradesh,Ghaziabad,"Indirapuram, Ghaziabad - UPPCB",19-03-2024 23:00:00,28.646233,77.358075,PM2.5,37,307,130
India,Uttar_Pradesh,Ghaziabad,"Indirapuram, Ghaziabad - UPPCB",19-03-2024 23:00:00,28.646233,77.358075,NO2,42,117,81
India,Uttar_Pradesh,Ghaziabad,"Sanjay Nagar, Ghaziabad - UPPCB",19-03-2024 23:00:00,28.685382,77.453839,PM2.5,45,348,200
India,Uttar_Pradesh,Ghaziabad,"Sanjay Nagar, Ghaziabad - UPPCB",19-03-2024 23:00:00,28.685382,77.453839,PM10,90,292,166
India,Uttar_Pradesh,Ghaziabad,"Sanjay Nagar, Ghaziabad - UPPCB",19-03-2024 23:00:00,28.685382,77.453839,CO,NA,NA,NA
India,Uttar_Pradesh,Ghaziabad,"Vasundhara, Ghaziabad - UPPCB",19-03-2024 23:00:00,28.6603346,77.3572563,PM10,84,230,139
India,Uttar_Pradesh,Ghaziabad,"Vasundhara, Ghaziabad - UPPCB",19-03-2024 23:00:00,28.6603346,77.3572563,CO,16,174,59
India,Uttar_Pradesh,Gorakhpur,"Madan Mohan Malaviya University of Technology, Gorakhpur - UPPCB",19-03-2024 23:00:00,26.730136,83.433859,SO2,33,44,36
India,Uttar_Pradesh,Greater Noida,"Knowledge Park - III, Greater Noida - UPPCB",19-03-2024 23:00:00,28.47272,77.482000,PM10,133,432,241
India,Uttar_Pradesh,Greater Noida,"Knowledge Park - V, Greater Noida - UPPCB",19-03-2024 23:00:00,28.557054,77.453663,CO,4,69,20
India,Uttar_Pradesh,Greater Noida,"Knowledge Park - V, Greater Noida - UPPCB",19-03-2024 23:00:00,28.557054,77.453663,OZONE,1,253,111
India,Uttar_Pradesh,Hapur,"Anand Vihar, Hapur - UPPCB",19-03-2024 23:00:00,28.725645,77.749675,NH3,7,14,10
India,Uttar_Pradesh,Hapur,"Anand Vihar, Hapur - UPPCB",19-03-2024 23:00:00,28.725645,77.749675,SO2,41,134,83
India,Uttar_Pradesh,Jhansi,"Shivaji Nagar, Jhansi - UPPCB",19-03-2024 23:00:00,25.4547,78.6039,CO,10,50,13
India,Uttar_Pradesh,Jhansi,"Shivaji Nagar, Jhansi - UPPCB",19-03-2024 23:00:00,25.4547,78.6039,OZONE,1,15,10
India,Uttar_Pradesh,Kanpur,"NSI Kalyanpur, Kanpur - UPPCB",19-03-2024 23:00:00,26.509954,80.249612,SO2,NA,NA,NA
India,Uttar_Pradesh,Kanpur,"NSI Kalyanpur, Kanpur - UPPCB",19-03-2024 23:00:00,26.509954,80.249612,OZONE,34,59,41
India,Uttar_Pradesh,Khurja,"Kalindi Kunj, Khurja - UPPCB",19-03-2024 23:00:00,28.2348927,77.8683002,PM10,16,136,78
India,Uttar_Pradesh,Lucknow,"B R Ambedkar University, Lucknow - UPPCB",19-03-2024 23:00:00,26.766433,80.927299,CO,25,49,33
India,Uttar_Pradesh,Lucknow,"Kendriya Vidyalaya, Lucknow - CPCB",19-03-2024 23:00:00,26.906111,80.948222,PM2.5,48,207,104
India,Uttar_Pradesh,Lucknow,"Kendriya Vidyalaya, Lucknow - CPCB",19-03-2024 23:00:00,26.906111,80.948222,OZONE,7,57,34
India,Uttar_Pradesh,Lucknow,"Kukrail Picnic Spot-1, Lucknow - UPPCB",19-03-2024 23:00:00,26.90723,80.98579,SO2,32,40,35
India,Uttar_Pradesh,Lucknow,"Kukrail Picnic Spot-1, Lucknow - UPPCB",19-03-2024 23:00:00,26.90723,80.98579,CO,16,34,20
India,Uttar_Pradesh,Lucknow,"Lalbagh, Lucknow - CPCB",19-03-2024 23:00:00,26.8458805,80.9365541,NO2,3,26,11
India,Uttar_Pradesh,Lucknow,"Talkatora District Industries Center, Lucknow - CPCB",19-03-2024 23:00:00,26.83399722,80.8917361,NO2,38,114,74
India,Uttar_Pradesh,Lucknow,"Talkatora District Industries Center, Lucknow - CPCB",19-03-2024 23:00:00,26.83399722,80.8917361,CO,4,62,25
India,Uttar_Pradesh,Meerut,"Ganga Nagar, Meerut - UPPCB",19-03-2024 23:00:00,28.999264,77.7590354,NO2,4,58,34
India,Uttar_Pradesh,Meerut,"Jai Bhim Nagar, Meerut - UPPCB",19-03-2024 23:00:00,28.9535882,77.7622941,NO2,12,66,35
India,Uttar_Pradesh,Meerut,"Jai Bhim Nagar, Meerut - UPPCB",19-03-2024 23:00:00,28.9535882,77.7622941,NH3,5,9,6
India,Uttar_Pradesh,Meerut,"Pallavpuram Phase 2, Meerut - UPPCB",19-03-2024 23:00:00,29.063510,77.709723,NH3,12,16,14
India,Uttar_Pradesh,Moradabad,"Buddhi Vihar, Moradabad - UPPCB",19-03-2024 23:00:00,28.83526,78.74460,PM10,56,198,118
India,Uttar_Pradesh,Moradabad,"Buddhi Vihar, Moradabad - UPPCB",19-03-2024 23:00:00,28.83526,78.74460,NO2,23,23,23
India,Uttar_Pradesh,Moradabad,"Buddhi Vihar, Moradabad - UPPCB",19-03-2024 23:00:00,28.83526,78.74460,NH3,2,2,2
India,Uttar_Pradesh,Moradabad,"Buddhi Vihar, Moradabad - UPPCB",19-03-2024 23:00:00,28.83526,78.74460,SO2,24,35,27
India,Uttar_Pradesh,Moradabad,"Eco Herbal Park, Moradabad - UPPCB",19-03-2024 23:00:00,28.840739,78.697531,PM2.5,25,207,81
India,Uttar_Pradesh,Moradabad,"Eco Herbal Park, Moradabad - UPPCB",19-03-2024 23:00:00,28.840739,78.697531,PM10,44,133,84
India,Uttar_Pradesh,Moradabad,"Jigar Colony, Moradabad - UPPCB",19-03-2024 23:00:00,28.856664,78.772638,PM10,81,174,122
India,Uttar_Pradesh,Moradabad,"Jigar Colony, Moradabad - UPPCB",19-03-2024 23:00:00,28.856664,78.772638,NO2,21,25,24
India,Uttar_Pradesh,Moradabad,"Jigar Colony, Moradabad - UPPCB",19-03-2024 23:00:00,28.856664,78.772638,CO,22,46,29
India,Uttar_Pradesh,Moradabad,"Jigar Colony, Moradabad - UPPCB",19-03-2024 23:00:00,28.856664,78.772638,OZONE,18,74,33
India,Uttar_Pradesh,Moradabad,"Transport Nagar, Moradabad - UPPCB",19-03-2024 23:00:00,28.802625,78.753728,NH3,6,6,6
India,Uttar_Pradesh,Muzaffarnagar,"New Mandi, Muzaffarnagar - UPPCB",19-03-2024 23:00:00,29.4723508,77.7194031,PM10,117,258,174
India,Uttar_Pradesh,Muzaffarnagar,"New Mandi, Muzaffarnagar - UPPCB",19-03-2024 23:00:00,29.4723508,77.7194031,NO2,37,62,49
India,Uttar_Pradesh,Muzaffarnagar,"New Mandi, Muzaffarnagar - UPPCB",19-03-2024 23:00:00,29.4723508,77.7194031,SO2,13,63,33
India,Uttar_Pradesh,Muzaffarnagar,"New Mandi, Muzaffarnagar - UPPCB",19-03-2024 23:00:00,29.4723508,77.7194031,CO,32,76,49
India,Uttar_Pradesh,Noida,"Sector - 62, Noida - IMD",19-03-2024 23:00:00,28.6245479,77.3577104,NO2,31,62,42
India,Uttar_Pradesh,Prayagraj,"Jhunsi, Prayagraj - UPPCB",19-03-2024 23:00:00,25.425602,81.917152,NO2,6,6,6
India,Uttar_Pradesh,Prayagraj,"Jhunsi, Prayagraj - UPPCB",19-03-2024 23:00:00,25.425602,81.917152,NH3,5,5,5
India,Uttar_Pradesh,Prayagraj,"Jhunsi, Prayagraj - UPPCB",19-03-2024 23:00:00,25.425602,81.917152,CO,13,48,23
India,Uttar_Pradesh,Prayagraj,"Motilal Nehru NIT, Prayagraj - UPPCB",19-03-2024 23:00:00,25.494,81.863,PM2.5,24,146,60
India,Uttar_Pradesh,Prayagraj,"Motilal Nehru NIT, Prayagraj - UPPCB",19-03-2024 23:00:00,25.494,81.863,PM10,45,254,128
India,Uttar_Pradesh,Prayagraj,"Motilal Nehru NIT, Prayagraj - UPPCB",19-03-2024 23:00:00,25.494,81.863,SO2,21,23,22
India,Uttar_Pradesh,Prayagraj,"Motilal Nehru NIT, Prayagraj - UPPCB",19-03-2024 23:00:00,25.494,81.863,OZONE,5,41,20
India,Uttar_Pradesh,Prayagraj,"Nagar Nigam, Prayagraj - UPPCB",19-03-2024 23:00:00,25.44919916 ,81.82735986 ,NO2,5,5,5
India,Uttar_Pradesh,Varanasi,"Ardhali Bazar, Varanasi - UPPCB",19-03-2024 23:00:00,25.3505986,82.9083074,PM10,13,78,39
India,Uttar_Pradesh,Varanasi,"Bhelupur, Varanasi - UPPCB",19-03-2024 23:00:00,25.301778,82.996789,PM2.5,4,27,15
India,Uttar_Pradesh,Varanasi,"Bhelupur, Varanasi - UPPCB",19-03-2024 23:00:00,25.301778,82.996789,NO2,8,8,8
India,Uttar_Pradesh,Varanasi,"Bhelupur, Varanasi - UPPCB",19-03-2024 23:00:00,25.301778,82.996789,NH3,1,2,1
India,Uttar_Pradesh,Varanasi,"Bhelupur, Varanasi - UPPCB",19-03-2024 23:00:00,25.301778,82.996789,CO,14,44,23
India,Uttar_Pradesh,Varanasi,"IESD Banaras Hindu University, Varanasi - UPPCB",19-03-2024 23:00:00,25.262326,82.995408,NO2,2,3,2
India,Uttar_Pradesh,Varanasi,"IESD Banaras Hindu University, Varanasi - UPPCB",19-03-2024 23:00:00,25.262326,82.995408,CO,7,40,9
India,Uttar_Pradesh,Varanasi,"IESD Banaras Hindu University, Varanasi - UPPCB",19-03-2024 23:00:00,25.262326,82.995408,OZONE,NA,NA,NA
India,Uttarakhand,Dehradun,"Doon University, Dehradun - UKPCB",19-03-2024 23:00:00,30.269444,78.044167,PM2.5,48,81,71
India,Uttarakhand,Rishikesh,"Shivaji Nagar, Rishikesh - UKPCB",19-03-2024 23:00:00,30.075911,78.2859547,SO2,4,6,4
India,West_Bengal,Asansol,"Asansol Court Area, Asansol - WBPCB",19-03-2024 23:00:00,23.685297,86.945968,PM10,58,105,82
India,West_Bengal,Asansol,"Asansol Court Area, Asansol - WBPCB",19-03-2024 23:00:00,23.685297,86.945968,SO2,9,25,14
India,West_Bengal,Asansol,"Asansol Court Area, Asansol - WBPCB",19-03-2024 23:00:00,23.685297,86.945968,CO,21,86,42
India,West_Bengal,Barrackpore,"SVSPA Campus, Barrackpore - WBPCB",19-03-2024 23:00:00,22.7605581,88.3617589,SO2,3,15,8
India,West_Bengal,Barrackpore,"SVSPA Campus, Barrackpore - WBPCB",19-03-2024 23:00:00,22.7605581,88.3617589,CO,8,46,18
India,West_Bengal,Durgapur,"Sidhu Kanhu Indoor Stadium, Durgapur - WBPCB",19-03-2024 23:00:00,23.5404352,87.2892225,PM2.5,52,121,78
India,West_Bengal,Haldia,"Priyambada Housing Estate, Haldia - WBPCB",19-03-2024 23:00:00,22.06047,88.109737,NO2,19,53,30
India,West_Bengal,Howrah,"Belur Math, Howrah - WBPCB",19-03-2024 23:00:00,22.629801,88.352017,OZONE,6,57,34
India,West_Bengal,Howrah,"Ghusuri, Howrah - WBPCB",19-03-2024 23:00:00,22.611968,88.347422,PM2.5,89,317,158
India,West_Bengal,Howrah,"Padmapukur, Howrah - WBPCB",19-03-2024 23:00:00,22.5687319,88.2797276,CO,18,91,52
India,West_Bengal,Kolkata,"Ballygunge, Kolkata - WBPCB",19-03-2024 23:00:00,22.5367507,88.3638022,PM2.5,46,140,74
India,West_Bengal,Kolkata,"Ballygunge, Kolkata - WBPCB",19-03-2024 23:00:00,22.5367507,88.3638022,NH3,8,18,12
India,West_Bengal,Kolkata,"Bidhannagar, Kolkata - WBPCB",19-03-2024 23:00:00,22.58157048,88.41002457,OZONE,7,107,63
India,West_Bengal,Kolkata,"Fort William, Kolkata - WBPCB",19-03-2024 23:00:00,22.556640,88.342674,NH3,4,5,4
India,West_Bengal,Kolkata,"Fort William, Kolkata - WBPCB",19-03-2024 23:00:00,22.556640,88.342674,CO,12,53,25
India,West_Bengal,Kolkata,"Jadavpur, Kolkata - WBPCB",19-03-2024 23:00:00,22.49929,88.36917,PM10,61,110,83
India,West_Bengal,Kolkata,"Jadavpur, Kolkata - WBPCB",19-03-2024 23:00:00,22.49929,88.36917,NH3,7,7,7
India,West_Bengal,Kolkata,"Rabindra Sarobar, Kolkata - WBPCB",19-03-2024 23:00:00,22.51106,88.35142,CO,12,52,26
India,West_Bengal,Kolkata,"Victoria, Kolkata - WBPCB",19-03-2024 23:00:00,22.5448082,88.3403691,PM10,NA,NA,NA
India,West_Bengal,Kolkata,"Victoria, Kolkata - WBPCB",19-03-2024 23:00:00,22.5448082,88.3403691,CO,18,40,28
India,West_Bengal,Kolkata,"Victoria, Kolkata - WBPCB",19-03-2024 23:00:00,22.5448082,88.3403691,OZONE,32,89,52
India,West_Bengal,Siliguri,"Ward-32 Bapupara, Siliguri - WBPCB",19-03-2024 23:00:00,26.6879226,88.4152495,NO2,30,137,82
India,West_Bengal,Siliguri,"Ward-32 Bapupara, Siliguri - WBPCB",19-03-2024 23:00:00,26.6879226,88.4152495,NH3,6,17,13
India,Andhra_Pradesh,Amaravati,"Secretariat, Amaravati - APPCB",19-03-2024 23:00:00,16.5150833,80.5181667,PM10,22,111,46
India,Andhra_Pradesh,Amaravati,"Secretariat, Amaravati - APPCB",19-03-2024 23:00:00,16.5150833,80.5181667,NH3,4,5,4
India,Andhra_Pradesh,Amaravati,"Secretariat, Amaravati - APPCB",19-03-2024 23:00:00,16.5150833,80.5181667,OZONE,1,56,38
India,Andhra_Pradesh,Anantapur,"Gulzarpet, Anantapur - APPCB",19-03-2024 23:00:00,14.675886,77.593027,PM10,66,115,93
India,Andhra_Pradesh,Anantapur,"Gulzarpet, Anantapur - APPCB",19-03-2024 23:00:00,14.675886,77.593027,NO2,NA,NA,NA
India,Andhra_Pradesh,Anantapur,"Gulzarpet, Anantapur - APPCB",19-03-2024 23:00:00,14.675886,77.593027,CO,24,86,48
India,Andhra_Pradesh,Chittoor,"Gangineni Cheruvu, Chittoor - APPCB",19-03-2024 23:00:00,13.204880,79.097889,PM10,NA,NA,NA
India,Andhra_Pradesh,Kadapa,"Yerramukkapalli, Kadapa - APPCB",19-03-2024 23:00:00,14.465052,78.824187,CO,12,27,18
India,Andhra_Pradesh,Rajamahendravaram,"Anand Kala Kshetram, Rajamahendravaram - APPCB",19-03-2024 23:00:00,16.9872867,81.7363176,NH3,3,5,3
India,Andhra_Pradesh,Rajamahendravaram,"Anand Kala Kshetram, Rajamahendravaram - APPCB",19-03-2024 23:00:00,16.9872867,81.7363176,OZONE,11,29,21
India,Andhra_Pradesh,Tirupati,"Tirumala, Tirupati - APPCB",19-03-2024 23:00:00,13.67,79.35,PM2.5,23,88,52
India,Andhra_Pradesh,Tirupati,"Tirumala, Tirupati - APPCB",19-03-2024 23:00:00,13.67,79.35,OZONE,20,65,45
India,Andhra_Pradesh,Tirupati,"Vaikuntapuram, Tirupati - APPCB",19-03-2024 23:00:00,13.615387,79.409230,PM10,44,101,77
India,Andhra_Pradesh,Tirupati,"Vaikuntapuram, Tirupati - APPCB",19-03-2024 23:00:00,13.615387,79.409230,SO2,5,5,5
India,Andhra_Pradesh,Tirupati,"Vaikuntapuram, Tirupati - APPCB",19-03-2024 23:00:00,13.615387,79.409230,OZONE,8,48,35
India,Andhra_Pradesh,Vijayawada,"Rajiv Gandhi Park, Vijayawada - APPCB",19-03-2024 23:00:00,16.509717,80.612222,PM2.5,34,80,55
India,Andhra_Pradesh,Vijayawada,"Rajiv Gandhi Park, Vijayawada - APPCB",19-03-2024 23:00:00,16.509717,80.612222,SO2,7,10,8
India,Andhra_Pradesh,Vijayawada,"Rajiv Gandhi Park, Vijayawada - APPCB",19-03-2024 23:00:00,16.509717,80.612222,OZONE,7,64,31
India,Andhra_Pradesh,Vijayawada,"Rajiv Nagar, Vijayawada - APPCB",19-03-2024 23:00:00,16.554731,80.649110,PM10,62,73,68
India,Andhra_Pradesh,Vijayawada,"Rajiv Nagar, Vijayawada - APPCB",19-03-2024 23:00:00,16.554731,80.649110,OZONE,6,38,22
India,Arunachal_Pradesh,Naharlagun,"Naharlagun, Naharlagun - APSPCB",19-03-2024 23:00:00,27.103358,93.679645,PM2.5,44,365,139
India,Arunachal_Pradesh,Naharlagun,"Naharlagun, Naharlagun - APSPCB",19-03-2024 23:00:00,27.103358,93.679645,PM10,44,326,113
India,Arunachal_Pradesh,Naharlagun,"Naharlagun, Naharlagun - APSPCB",19-03-2024 23:00:00,27.103358,93.679645,SO2,4,4,4
India,Assam,Byrnihat,"Central Academy for SFS, Byrnihat - PCBA",19-03-2024 23:00:00,26.071318,91.87488,NO2,52,102,65
India,Assam,Byrnihat,"Central Academy for SFS, Byrnihat - PCBA",19-03-2024 23:00:00,26.071318,91.87488,SO2,10,17,12
India,Assam,Byrnihat,"Central Academy for SFS, Byrnihat - PCBA",19-03-2024 23:00:00,26.071318,91.87488,OZONE,12,15,14
India,Assam,Guwahati,"IITG, Guwahati - PCBA",19-03-2024 23:00:00,26.2028636,91.70046436,PM2.5,228,377,317
India,Assam,Guwahati,"IITG, Guwahati - PCBA",19-03-2024 23:00:00,26.2028636,91.70046436,CO,19,38,25
India,Assam,Guwahati,"LGBI Airport, Guwahati - PCBA",19-03-2024 23:00:00,26.10887,91.589544,SO2,9,13,13
India,Assam,Guwahati,"Pan Bazaar, Guwahati - PCBA",19-03-2024 23:00:00,26.187500,91.744194,SO2,84,105,94
India,Assam,Guwahati,"Pan Bazaar, Guwahati - PCBA",19-03-2024 23:00:00,26.187500,91.744194,OZONE,18,19,18
India,Assam,Guwahati,"Railway Colony, Guwahati - PCBA",19-03-2024 23:00:00,26.181742,91.78063,OZONE,1,32,15
India,Assam,Nagaon,"Christianpatty, Nagaon - PCBA",19-03-2024 23:00:00,26.349082,92.68449,SO2,3,21,12
India,Assam,Nagaon,"Christianpatty, Nagaon - PCBA",19-03-2024 23:00:00,26.349082,92.68449,CO,4,98,52
India,Assam,Silchar,"Tarapur, Silchar - PCBA",19-03-2024 23:00:00,24.82827,92.79525,NH3,1,1,1
India,Assam,Sivasagar,"Girls College, Sivasagar - PCBA",19-03-2024 23:00:00,26.987634,94.636574,NO2,12,33,19
India,Assam,Sivasagar,"Girls College, Sivasagar - PCBA",19-03-2024 23:00:00,26.987634,94.636574,OZONE,1,12,6
India,Bihar,Araria,"Kharahiya Basti, Araria - BSPCB",19-03-2024 23:00:00,26.146529,87.454184,PM2.5,64,313,180
India,Bihar,Araria,"Kharahiya Basti, Araria - BSPCB",19-03-2024 23:00:00,26.146529,87.454184,PM10,106,235,160
India,Bihar,Araria,"Kharahiya Basti, Araria - BSPCB",19-03-2024 23:00:00,26.146529,87.454184,CO,15,31,27
India,Bihar,Arrah,"New DM Office, Arrah - BSPCB",19-03-2024 23:00:00,25.5626095,84.663264,OZONE,14,42,15
India,Bihar,Aurangabad,"Gurdeo Nagar, Aurangabad - BSPCB",19-03-2024 23:00:00,24.75746,84.366208,NO2,3,6,5
India,Bihar,Aurangabad,"Gurdeo Nagar, Aurangabad - BSPCB",19-03-2024 23:00:00,24.75746,84.366208,OZONE,16,39,29
India,Bihar,Bettiah,"Kamalnath Nagar, Bettiah - BSPCB",19-03-2024 23:00:00,26.80365,84.51954,PM2.5,NA,NA,NA
India,Bihar,Bettiah,"Kamalnath Nagar, Bettiah - BSPCB",19-03-2024 23:00:00,26.80365,84.51954,NH3,3,3,3
India,Bihar,Bettiah,"Kamalnath Nagar, Bettiah - BSPCB",19-03-2024 23:00:00,26.80365,84.51954,CO,60,64,62
India,Bihar,Bhagalpur,"Mayaganj, Bhagalpur - BSPCB",19-03-2024 23:00:00,25.265194,87.012947,SO2,11,12,12
India,Bihar,Bhagalpur,"Mayaganj, Bhagalpur - BSPCB",19-03-2024 23:00:00,25.265194,87.012947,CO,8,10,9
India,Bihar,Bihar Sharif,"D M Colony, Bihar Sharif - BSPCB",19-03-2024 23:00:00,25.204762,85.514960,NO2,9,11,10
India,Bihar,Buxar,"Charitra Van, Buxar - BSPCB (Formerly known as Central Jail)",19-03-2024 23:00:00,25.567520,83.966379,OZONE,7,154,95
India,Bihar,Gaya,"Collectorate, Gaya - BSPCB",19-03-2024 23:00:00,24.7955,84.9994,CO,6,71,54
India,Bihar,Gaya,"Kareemganj, Gaya - BSPCB",19-03-2024 23:00:00,24.792403,84.992416,SO2,8,12,10
India,Bihar,Gaya,"SFTI Kusdihra, Gaya - BSPCB",19-03-2024 23:00:00,24.762518,84.982348,NH3,1,4,2
India,Bihar,Kishanganj,"SDM Office_Khagra, Kishanganj - BSPCB",19-03-2024 23:00:00,26.0881305,87.93840336,PM2.5,25,368,127
India,Bihar,Kishanganj,"SDM Office_Khagra, Kishanganj - BSPCB",19-03-2024 23:00:00,26.0881305,87.93840336,NO2,38,46,42
India,Bihar,Kishanganj,"SDM Office_Khagra, Kishanganj - BSPCB",19-03-2024 23:00:00,26.0881305,87.93840336,SO2,26,53,38
India,Bihar,Kishanganj,"SDM Office_Khagra, Kishanganj - BSPCB",19-03-2024 23:00:00,26.0881305,87.93840336,OZONE,27,47,28
India,Bihar,Manguraha,"Forest Rest House, Manguraha - BSPCB",19-03-2024 23:00:00,27.308328,84.531742,NO2,8,17,13
India,Bihar,Munger,"Town Hall, Munger - BSPCB",19-03-2024 23:00:00,25.376776,86.471523,CO,2,8,5
India,Bihar,Muzaffarpur,"Buddha Colony, Muzaffarpur - BSPCB",19-03-2024 23:00:00,26.11442,85.39813,NO2,26,54,38
India,Bihar,Muzaffarpur,"Buddha Colony, Muzaffarpur - BSPCB",19-03-2024 23:00:00,26.11442,85.39813,OZONE,52,107,63
India,Bihar,Patna,"DRM Office Danapur, Patna - BSPCB",19-03-2024 23:00:00,25.586562,85.043586,PM2.5,62,288,193
India,Bihar,Patna,"Govt. High School Shikarpur, Patna - BSPCB",19-03-2024 23:00:00,25.592539,85.227158,NO2,21,28,23
India,Bihar,Patna,"IGSC Planetarium Complex, Patna - BSPCB",19-03-2024 23:00:00,25.610369,85.132568,NO2,11,14,14
India,Bihar,Patna,"IGSC Planetarium Complex, Patna - BSPCB",19-03-2024 23:00:00,25.610369,85.132568,CO,8,13,12
India,Bihar,Patna,"IGSC Planetarium Complex, Patna - BSPCB",19-03-2024 23:00:00,25.610369,85.132568,OZONE,18,66,40
India,Bihar,Patna,"Muradpur, Patna - BSPCB",19-03-2024 23:00:00,25.619651,85.147382,NH3,3,5,4
India,Bihar,Patna,"Rajbansi Nagar, Patna - BSPCB",19-03-2024 23:00:00,25.599486,85.113666,NH3,3,4,4
India,Bihar,Patna,"Rajbansi Nagar, Patna - BSPCB",19-03-2024 23:00:00,25.599486,85.113666,SO2,6,32,15
India,Bihar,Patna,"Rajbansi Nagar, Patna - BSPCB",19-03-2024 23:00:00,25.599486,85.113666,CO,27,99,66
India,Bihar,Patna,"Samanpura, Patna - BSPCB",19-03-2024 23:00:00,25.596727,85.085624,PM10,114,425,262
India,Bihar,Patna,"Samanpura, Patna - BSPCB",19-03-2024 23:00:00,25.596727,85.085624,NO2,30,72,48
India,Bihar,Purnia,"Mariam Nagar, Purnia - BSPCB",19-03-2024 23:00:00,25.366336,87.117468,PM2.5,27,302,176
India,Bihar,Purnia,"Mariam Nagar, Purnia - BSPCB",19-03-2024 23:00:00,25.366336,87.117468,NH3,2,2,2
India,Bihar,Purnia,"Mariam Nagar, Purnia - BSPCB",19-03-2024 23:00:00,25.366336,87.117468,SO2,4,10,6
India,Bihar,Purnia,"Mariam Nagar, Purnia - BSPCB",19-03-2024 23:00:00,25.366336,87.117468,CO,39,106,50
India,Bihar,Saharsa,"Police Line, Saharsa - BSPCB",19-03-2024 23:00:00,25.892357,86.590325,CO,11,105,59
India,Bihar,Saharsa,"Police Line, Saharsa - BSPCB",19-03-2024 23:00:00,25.892357,86.590325,OZONE,7,45,24
India,Bihar,Samastipur,"DM Office_Kasipur, Samastipur - BSPCB",19-03-2024 23:00:00,25.859655,85.77944,OZONE,9,12,9
India,Bihar,Sasaram,"Dada Peer, Sasaram - BSPCB",19-03-2024 23:00:00,24.952822,84.002396,SO2,20,25,21
India,Bihar,Siwan,"Chitragupta Nagar, Siwan - BSPCB",19-03-2024 23:00:00,26.2271665,84.3570427,NO2,15,53,27
India,Bihar,Siwan,"Chitragupta Nagar, Siwan - BSPCB",19-03-2024 23:00:00,26.2271665,84.3570427,CO,13,141,74
India,Chandigarh,Chandigarh,"Sector 22, Chandigarh - CPCC",19-03-2024 23:00:00,30.735567,76.775714,CO,28,100,40
India,Chhattisgarh,Bhilai,"32Bungalows, Bhilai - CECB",19-03-2024 23:00:00,21.194815,81.314770,PM10,19,42,30
India,Chhattisgarh,Bhilai,"Civic Center, Bhilai - Bhilai Steel Plant",19-03-2024 23:00:00,21.185571,81.343175,PM2.5,15,26,20
India,Chhattisgarh,Bhilai,"Civic Center, Bhilai - Bhilai Steel Plant",19-03-2024 23:00:00,21.185571,81.343175,SO2,4,11,8
India,Chhattisgarh,Bhilai,"Hathkhoj, Bhilai - CECB",19-03-2024 23:00:00,21.224231,81.408350,CO,12,50,19
India,Chhattisgarh,Bilaspur,"Mangala, Bilaspur - NTPC",19-03-2024 23:00:00,22.08815,82.13737,SO2,NA,NA,NA
India,Chhattisgarh,Chhal,"Nawapara SECL Colony, Chhal - CECB",19-03-2024 23:00:00,22.118125,83.140608,SO2,NA,NA,NA
India,Chhattisgarh,Chhal,"Nawapara SECL Colony, Chhal - CECB",19-03-2024 23:00:00,22.118125,83.140608,CO,16,52,26
India,Chhattisgarh,Chhal,"Nawapara SECL Colony, Chhal - CECB",19-03-2024 23:00:00,22.118125,83.140608,OZONE,1,71,2
India,Chhattisgarh,Korba,"Rampur, Korba - CECB",19-03-2024 23:00:00,22.368195,82.746431,PM10,14,131,39
India,Chhattisgarh,Korba,"Rampur, Korba - CECB",19-03-2024 23:00:00,22.368195,82.746431,NO2,23,52,31
India,Chhattisgarh,Korba,"Rampur, Korba - CECB",19-03-2024 23:00:00,22.368195,82.746431,SO2,5,46,12
India,Chhattisgarh,Korba,"Rampur, Korba - CECB",19-03-2024 23:00:00,22.368195,82.746431,OZONE,2,16,7
India,Chhattisgarh,Korba,"Urja Nagar, Korba - CECB",19-03-2024 23:00:00,22.348441,82.549611,PM2.5,2,9,5
India,Chhattisgarh,Kunjemura,"OP Jindal School, Kunjemura - CECB",19-03-2024 23:00:00,22.126650,83.483212,OZONE,12,48,33
India,Chhattisgarh,Milupara,"Govt. Higher Secondary School, Milupara - CECB",19-03-2024 23:00:00,22.1910172,83.5197009,PM2.5,4,33,21
India,Chhattisgarh,Milupara,"Govt. Higher Secondary School, Milupara - CECB",19-03-2024 23:00:00,22.1910172,83.5197009,PM10,19,33,27
India,Chhattisgarh,Raipur,"Bhatagaon New ISBT, Raipur - CECB",19-03-2024 23:00:00,21.219665,81.630094,NH3,NA,NA,NA
India,Chhattisgarh,Raipur,"Bhatagaon New ISBT, Raipur - CECB",19-03-2024 23:00:00,21.219665,81.630094,SO2,NA,NA,NA
India,Chhattisgarh,Raipur,"Bhatagaon New ISBT, Raipur - CECB",19-03-2024 23:00:00,21.219665,81.630094,CO,12,26,23
India,Chhattisgarh,Raipur,"Bhatagaon New ISBT, Raipur - CECB",19-03-2024 23:00:00,21.219665,81.630094,OZONE,3,7,3
India,Chhattisgarh,Raipur,"Krishak Nagar, Raipur - CECB",19-03-2024 23:00:00,21.237755,81.705301,PM10,NA,NA,NA
India,Chhattisgarh,Raipur,"Krishak Nagar, Raipur - CECB",19-03-2024 23:00:00,21.237755,81.705301,NH3,NA,NA,NA
India,Chhattisgarh,Tumidih,"OP Jindal Industrial Park, Tumidih - CECB",19-03-2024 23:00:00,22.06631475,83.33820077,NO2,NA,NA,NA
India,Chhattisgarh,Tumidih,"OP Jindal Industrial Park, Tumidih - CECB",19-03-2024 23:00:00,22.06631475,83.33820077,CO,18,54,21
India,Delhi,Delhi,"Ashok Vihar, Delhi - DPCC",19-03-2024 23:00:00,28.695381,77.181665,PM10,117,406,233
India,Delhi,Delhi,"Aya Nagar, Delhi - IMD",19-03-2024 23:00:00,28.4706914,77.1099364,PM2.5,79,356,217
India,Delhi,Delhi,"Aya Nagar, Delhi - IMD",19-03-2024 23:00:00,28.4706914,77.1099364,PM10,104,301,183
India,Delhi,Delhi,"Aya Nagar, Delhi - IMD",19-03-2024 23:00:00,28.4706914,77.1099364,OZONE,4,40,24
India,Delhi,Delhi,"Bawana, Delhi - DPCC",19-03-2024 23:00:00,28.776200,77.051074,PM10,106,425,264
India,Delhi,Delhi,"Bawana, Delhi - DPCC",19-03-2024 23:00:00,28.776200,77.051074,OZONE,3,110,68
India,Delhi,Delhi,"Burari Crossing, Delhi - IMD",19-03-2024 23:00:00,28.7256504,77.2011573,PM10,96,409,236
India,Delhi,Delhi,"CRRI Mathura Road, Delhi - IMD",19-03-2024 23:00:00,28.5512005,77.2735737,PM2.5,4,358,173
India,Delhi,Delhi,"CRRI Mathura Road, Delhi - IMD",19-03-2024 23:00:00,28.5512005,77.2735737,OZONE,3,94,31
India,Delhi,Delhi,"Chandni Chowk, Delhi - IITM",19-03-2024 23:00:00,28.656756,77.227234,CO,42,114,101
India,Delhi,Delhi,"Dr. Karni Singh Shooting Range, Delhi - DPCC",19-03-2024 23:00:00,28.498571,77.264840,PM10,108,345,173
India,Delhi,Delhi,"Dr. Karni Singh Shooting Range, Delhi - DPCC",19-03-2024 23:00:00,28.498571,77.264840,NO2,33,160,95
India,Delhi,Delhi,"Dwarka-Sector 8, Delhi - DPCC ",19-03-2024 23:00:00,28.5710274,77.0719006,NO2,3,33,15
India,Delhi,Delhi,"Dwarka-Sector 8, Delhi - DPCC ",19-03-2024 23:00:00,28.5710274,77.0719006,NH3,2,6,3
India,Delhi,Delhi,"IGI Airport (T3), Delhi - IMD",19-03-2024 23:00:00,28.5627763,77.1180053,PM10,82,363,194
India,Delhi,Delhi,"IGI Airport (T3), Delhi - IMD",19-03-2024 23:00:00,28.5627763,77.1180053,NO2,28,72,51
India,Delhi,Delhi,"IGI Airport (T3), Delhi - IMD",19-03-2024 23:00:00,28.5627763,77.1180053,CO,34,108,51
India,Delhi,Delhi,"IHBAS, Dilshad Garden, Delhi - CPCB",19-03-2024 23:00:00,28.6811736,77.3025234,PM10,101,159,132
India,Delhi,Delhi,"IHBAS, Dilshad Garden, Delhi - CPCB",19-03-2024 23:00:00,28.6811736,77.3025234,SO2,1,23,12
India,Delhi,Delhi,"ITO, Delhi - CPCB",19-03-2024 23:00:00,28.628624,77.241060,PM10,86,303,159
India,Delhi,Delhi,"ITO, Delhi - CPCB",19-03-2024 23:00:00,28.628624,77.241060,NO2,12,165,83
India,Delhi,Delhi,"ITO, Delhi - CPCB",19-03-2024 23:00:00,28.628624,77.241060,CO,23,105,55
India,Delhi,Delhi,"Jahangirpuri, Delhi - DPCC",19-03-2024 23:00:00,28.732820,77.170633,CO,40,108,76
India,Delhi,Delhi,"Lodhi Road, Delhi - IITM",19-03-2024 23:00:00,28.588333,77.221667,CO,59,70,63
India,Delhi,Delhi,"Lodhi Road, Delhi - IMD",19-03-2024 23:00:00,28.5918245,77.2273074,CO,6,54,13
India,Delhi,Delhi,"Lodhi Road, Delhi - IMD",19-03-2024 23:00:00,28.5918245,77.2273074,OZONE,7,132,47
India,Delhi,Delhi,"Major Dhyan Chand National Stadium, Delhi - DPCC",19-03-2024 23:00:00,28.611281,77.237738,CO,38,116,63
India,Delhi,Delhi,"Mandir Marg, Delhi - DPCC",19-03-2024 23:00:00,28.636429,77.201067,NO2,87,197,156
India,Delhi,Delhi,"Mandir Marg, Delhi - DPCC",19-03-2024 23:00:00,28.636429,77.201067,OZONE,1,117,35
India,Delhi,Delhi,"Mundka, Delhi - DPCC",19-03-2024 23:00:00,28.684678,77.076574,CO,20,106,46
India,Delhi,Delhi,"NSIT Dwarka, Delhi - CPCB",19-03-2024 23:00:00,28.60909,77.0325413,PM2.5,96,407,278
India,Delhi,Delhi,"NSIT Dwarka, Delhi - CPCB",19-03-2024 23:00:00,28.60909,77.0325413,CO,28,98,51
India,Delhi,Delhi,"Najafgarh, Delhi - DPCC",19-03-2024 23:00:00,28.570173,76.933762,NO2,4,24,13
India,Delhi,Delhi,"Najafgarh, Delhi - DPCC",19-03-2024 23:00:00,28.570173,76.933762,OZONE,5,175,105
India,Delhi,Delhi,"Narela, Delhi - DPCC",19-03-2024 23:00:00,28.822836,77.101981,NH3,5,8,6
India,Delhi,Delhi,"Nehru Nagar, Delhi - DPCC",19-03-2024 23:00:00,28.567890,77.250515,NO2,11,32,22
India,Delhi,Delhi,"Nehru Nagar, Delhi - DPCC",19-03-2024 23:00:00,28.567890,77.250515,SO2,11,28,16
India,Delhi,Delhi,"Okhla Phase-2, Delhi - DPCC",19-03-2024 23:00:00,28.530785,77.271255,PM10,110,404,200
India,Delhi,Delhi,"Patparganj, Delhi - DPCC",19-03-2024 23:00:00,28.623763,77.287209,PM2.5,38,230,105
India,Delhi,Delhi,"Patparganj, Delhi - DPCC",19-03-2024 23:00:00,28.623763,77.287209,NH3,6,13,10
India,Delhi,Delhi,"Punjabi Bagh, Delhi - DPCC",19-03-2024 23:00:00,28.674045,77.131023,NH3,2,2,2
India,Delhi,Delhi,"Punjabi Bagh, Delhi - DPCC",19-03-2024 23:00:00,28.674045,77.131023,SO2,22,35,31
India,Delhi,Delhi,"Pusa, Delhi - DPCC",19-03-2024 23:00:00,28.639652,77.146275,PM2.5,57,329,159
India,Delhi,Delhi,"Pusa, Delhi - DPCC",19-03-2024 23:00:00,28.639652,77.146275,PM10,125,414,201
India,Delhi,Delhi,"Pusa, Delhi - DPCC",19-03-2024 23:00:00,28.639652,77.146275,OZONE,9,104,34
India,Delhi,Delhi,"R K Puram, Delhi - DPCC",19-03-2024 23:00:00,28.563262,77.186937,PM2.5,68,394,210
India,Delhi,Delhi,"Rohini, Delhi - DPCC",19-03-2024 23:00:00,28.732528,77.119920,CO,16,113,40
India,Delhi,Delhi,"Sirifort, Delhi - CPCB",19-03-2024 23:00:00,28.5504249,77.2159377,NO2,144,185,166
India,Delhi,Delhi,"Sirifort, Delhi - CPCB",19-03-2024 23:00:00,28.5504249,77.2159377,NH3,4,8,6
India,Delhi,Delhi,"Sirifort, Delhi - CPCB",19-03-2024 23:00:00,28.5504249,77.2159377,OZONE,4,91,25
India,Delhi,Delhi,"Sonia Vihar, Delhi - DPCC",19-03-2024 23:00:00,28.710508,77.249485,PM2.5,42,369,200
India,Delhi,Delhi,"Vivek Vihar, Delhi - DPCC",19-03-2024 23:00:00,28.672342,77.315260,PM2.5,54,389,198
India,Delhi,Delhi,"Vivek Vihar, Delhi - DPCC",19-03-2024 23:00:00,28.672342,77.315260,PM10,107,350,188
India,Delhi,Delhi,"Vivek Vihar, Delhi - DPCC",19-03-2024 23:00:00,28.672342,77.315260,CO,7,92,16
India,Delhi,Delhi,"Wazirpur, Delhi - DPCC",19-03-2024 23:00:00,28.699793,77.165453,CO,6,117,67
India,Gujarat,Ahmedabad,"Chandkheda, Ahmedabad - IITM",19-03-2024 23:00:00,23.107969,72.574648,PM2.5,67,269,141
India,Gujarat,Ahmedabad,"Chandkheda, Ahmedabad - IITM",19-03-2024 23:00:00,23.107969,72.574648,OZONE,4,64,33
India,Gujarat,Ahmedabad,"Gyaspur, Ahmedabad - IITM",19-03-2024 23:00:00,22.977134,72.553024,PM2.5,76,314,151
India,Gujarat,Ahmedabad,"Gyaspur, Ahmedabad - IITM",19-03-2024 23:00:00,22.977134,72.553024,NO2,47,77,61
India,Gujarat,Ahmedabad,"Gyaspur, Ahmedabad - IITM",19-03-2024 23:00:00,22.977134,72.553024,SO2,6,41,14
India,Gujarat,Ahmedabad,"Maninagar, Ahmedabad - GPCB",19-03-2024 23:00:00,23.002657,72.591912,CO,36,106,70
India,Gujarat,Ahmedabad,"Maninagar, Ahmedabad - GPCB",19-03-2024 23:00:00,23.002657,72.591912,OZONE,4,28,15
India,Gujarat,Ahmedabad,"Rakhial, Ahmedabad - IITM",19-03-2024 23:00:00,23.016834,72.625775,SO2,3,53,11
India,Gujarat,Ahmedabad,"Sardar Vallabhbhai Patel Stadium, Ahmedabad - IITM",19-03-2024 23:00:00,23.043070,72.562968,NO2,4,17,15
India,Gujarat,Ahmedabad,"Sardar Vallabhbhai Patel Stadium, Ahmedabad - IITM",19-03-2024 23:00:00,23.043070,72.562968,OZONE,11,32,25
India,Gujarat,Ankleshwar,"GIDC, Ankleshwar - GPCB",19-03-2024 23:00:00,21.613267,73.010555,PM10,60,118,86
India,Gujarat,Ankleshwar,"GIDC, Ankleshwar - GPCB",19-03-2024 23:00:00,21.613267,73.010555,NH3,7,7,7
India,Gujarat,Gandhinagar,"GIFT City, Gandhinagar - IITM",19-03-2024 23:00:00,23.163798,72.677768,NO2,14,53,34
India,Gujarat,Gandhinagar,"IIPHG Lekawada, Gandhinagar - IITM",19-03-2024 23:00:00,23.243639,72.68994,OZONE,10,52,31
India,Gujarat,Gandhinagar,"Sector-10, Gandhinagar - GPCB",19-03-2024 23:00:00,23.221714,72.654328,SO2,4,9,6
India,Gujarat,Nandesari,"GIDC, Nandesari - Nandesari Ind. Association",19-03-2024 23:00:00,22.410802,73.097923,PM2.5,50,429,179
India,Gujarat,Surat,"Science Center, Surat - SMC",19-03-2024 23:00:00,21.170046,72.795405,PM2.5,4,70,39
India,Gujarat,Surat,"Science Center, Surat - SMC",19-03-2024 23:00:00,21.170046,72.795405,NO2,29,45,34
India,Gujarat,Vapi,"Phase-1 GIDC, Vapi - GPCB",19-03-2024 23:00:00,20.362421,72.918013,PM2.5,46,108,78
India,Gujarat,Vapi,"Phase-1 GIDC, Vapi - GPCB",19-03-2024 23:00:00,20.362421,72.918013,NO2,6,7,6
India,Haryana,Bahadurgarh,"Arya Nagar, Bahadurgarh - HSPCB",19-03-2024 23:00:00,28.6701,76.9254,PM2.5,48,339,188
India,Haryana,Bhiwani,"H.B. Colony, Bhiwani - HSPCB",19-03-2024 23:00:00,28.806223,76.141105,NO2,6,13,9
India,Haryana,Bhiwani,"H.B. Colony, Bhiwani - HSPCB",19-03-2024 23:00:00,28.806223,76.141105,NH3,6,6,6
India,Haryana,Charkhi Dadri,"Mini Secretariat, Charkhi Dadri - HSPCB",19-03-2024 23:00:00,28.593883,76.270653,PM10,70,179,112
India,Haryana,Dharuhera,"Municipal Corporation Office, Dharuhera -  HSPCB",19-03-2024 23:00:00,28.206800,76.799700,PM2.5,78,324,200
India,Haryana,Dharuhera,"Municipal Corporation Office, Dharuhera -  HSPCB",19-03-2024 23:00:00,28.206800,76.799700,NO2,43,111,71
India,Haryana,Faridabad,"Sector 30, Faridabad - HSPCB",19-03-2024 23:00:00,28.4417,77.3217,PM10,140,147,144
India,Haryana,Fatehabad,"Huda Sector, Fatehabad - HSPCB",19-03-2024 23:00:00,29.503664,75.467934,PM2.5,37,165,86
India,Haryana,Fatehabad,"Huda Sector, Fatehabad - HSPCB",19-03-2024 23:00:00,29.503664,75.467934,NH3,12,14,13
India,Haryana,Gurugram,"Sector-51, Gurugram - HSPCB",19-03-2024 23:00:00,28.4227,77.0667,OZONE,27,67,56
India,Haryana,Gurugram,"Vikas Sadan, Gurugram - HSPCB",19-03-2024 23:00:00,28.4501238,77.0263051,NO2,5,26,14
India,Haryana,Hisar,"Urban Estate-II, Hisar - HSPCB",19-03-2024 23:00:00,29.140560,75.744941,NH3,8,18,11
India,Haryana,Hisar,"Urban Estate-II, Hisar - HSPCB",19-03-2024 23:00:00,29.140560,75.744941,SO2,3,90,49
India,Haryana,Jind,"Police Lines, Jind - HSPCB",19-03-2024 23:00:00,29.307814,76.337619,NO2,7,15,11
India,Haryana,Kaithal,"Rishi Nagar, Kaithal - HSPCB",19-03-2024 23:00:00,29.8006,76.4155,NH3,8,8,8
India,Haryana,Karnal,"Sector-12, Karnal - HSPCB",19-03-2024 23:00:00,29.695300,77.002700,NH3,10,13,11
India,Haryana,Karnal,"Sector-12, Karnal - HSPCB",19-03-2024 23:00:00,29.695300,77.002700,CO,15,90,48
India,Haryana,Kurukshetra,"Sector-7, Kurukshetra - HSPCB",19-03-2024 23:00:00,29.966942,76.875879,PM10,67,147,102
India,Haryana,Kurukshetra,"Sector-7, Kurukshetra - HSPCB",19-03-2024 23:00:00,29.966942,76.875879,SO2,1,88,23
India,Haryana,Mandikhera,"General Hospital, Mandikhera - HSPCB",19-03-2024 23:00:00,27.9002,76.9938,NO2,16,23,19
India,Haryana,Mandikhera,"General Hospital, Mandikhera - HSPCB",19-03-2024 23:00:00,27.9002,76.9938,CO,10,35,15
India,Haryana,Manesar,"Sector-2 IMT, Manesar - HSPCB",19-03-2024 23:00:00,28.360699,76.936090,PM2.5,47,198,110
India,Haryana,Manesar,"Sector-2 IMT, Manesar - HSPCB",19-03-2024 23:00:00,28.360699,76.936090,OZONE,1,43,27
India,Haryana,Panipat,"Sector-18, Panipat - HSPCB",19-03-2024 23:00:00,29.497973,76.993331,NH3,2,3,3
India,Haryana,Panipat,"Sector-18, Panipat - HSPCB",19-03-2024 23:00:00,29.497973,76.993331,CO,24,26,25
India,Haryana,Rohtak,"MD University, Rohtak - HSPCB",19-03-2024 23:00:00,28.52123,76.37138,PM2.5,9,360,221
India,Haryana,Rohtak,"MD University, Rohtak - HSPCB",19-03-2024 23:00:00,28.52123,76.37138,CO,5,102,43
India,Haryana,Sirsa,"F-Block, Sirsa - HSPCB",19-03-2024 23:00:00,29.536400,75.015800,PM2.5,34,294,105
India,Haryana,Sirsa,"F-Block, Sirsa - HSPCB",19-03-2024 23:00:00,29.536400,75.015800,PM10,69,330,119
India,Haryana,Sirsa,"F-Block, Sirsa - HSPCB",19-03-2024 23:00:00,29.536400,75.015800,CO,25,106,44
India,Haryana,Sonipat,"Murthal, Sonipat - HSPCB",19-03-2024 23:00:00,29.027200,77.062100,PM10,61,109,85
India,Haryana,Sonipat,"Murthal, Sonipat - HSPCB",19-03-2024 23:00:00,29.027200,77.062100,SO2,13,29,20
India,Himachal Pradesh,Baddi,"HIMUDA Complex Phase-1, Baddi - HPPCB",19-03-2024 23:00:00,30.943887,76.801991,PM10,17,187,82
India,Himachal Pradesh,Baddi,"HIMUDA Complex Phase-1, Baddi - HPPCB",19-03-2024 23:00:00,30.943887,76.801991,SO2,11,44,24
