country,state,city,station,last_update,latitude,longitude,pollutant_id,pollutant_min,pollutant_max,pollutant_avg
India,Andhra_Pradesh,Amaravati,"Secretariat, Amaravati - APPCB",15-02-2024 14:00:00,16.5150833,80.5181667,PM10,46,115,71
India,Andhra_Pradesh,Amaravati,"Secretariat, Amaravati - APPCB",15-02-2024 14:00:00,16.5150833,80.5181667,NO2,9,23,14
India,Andhra_Pradesh,Amaravati,"Secretariat, Amaravati - APPCB",15-02-2024 14:00:00,16.5150833,80.5181667,NH3,3,4,4
India,Andhra_Pradesh,Anantapur,"Gulzarpet, Anantapur - APPCB",15-02-2024 14:00:00,14.675886,77.593027,NO2,NA,NA,NA
India,Andhra_Pradesh,Anantapur,"Gulzarpet, Anantapur - APPCB",15-02-2024 14:00:00,14.675886,77.593027,NH3,NA,NA,NA
India,Andhra_Pradesh,Kadapa,"Yerramukkapalli, Kadapa - APPCB",15-02-2024 14:00:00,14.465052,78.824187,NO2,NA,NA,NA
India,Andhra_Pradesh,Rajamahendravaram,"Anand Kala Kshetram, Rajamahendravaram - APPCB",15-02-2024 14:00:00,16.9872867,81.7363176,PM2.5,63,158,86
India,Andhra_Pradesh,Rajamahendravaram,"Anand Kala Kshetram, Rajamahendravaram - APPCB",15-02-2024 14:00:00,16.9872867,81.7363176,NH3,3,5,4
India,Andhra_Pradesh,Tirupati,"Vaikuntapuram, Tirupati - APPCB",15-02-2024 14:00:00,13.615387,79.409230,NO2,NA,NA,NA
India,Andhra_Pradesh,Vijayawada,"HB Colony, Vijayawada - APPCB",15-02-2024 14:00:00,16.536107,80.594233,PM10,49,113,71
India,Andhra_Pradesh,Vijayawada,"Kanuru, Vijayawada - APPCB",15-02-2024 14:00:00,16.486692,80.699436,OZONE,25,25,25
India,Andhra_Pradesh,Vijayawada,"Rajiv Gandhi Park, Vijayawada - APPCB",15-02-2024 14:00:00,16.509717,80.612222,OZONE,2,65,38
India,Andhra_Pradesh,Visakhapatnam,"GVM Corporation, Visakhapatnam - APPCB",15-02-2024 14:00:00,17.72,83.3,NH3,2,15,7
India,Andhra_Pradesh,Visakhapatnam,"GVM Corporation, Visakhapatnam - APPCB",15-02-2024 14:00:00,17.72,83.3,SO2,8,14,11
India,Andhra_Pradesh,Visakhapatnam,"GVM Corporation, Visakhapatnam - APPCB",15-02-2024 14:00:00,17.72,83.3,OZONE,8,43,13
India,Assam,Byrnihat,"Central Academy for SFS, Byrnihat - PCBA",15-02-2024 14:00:00,26.071318,91.87488,PM2.5,103,407,305
India,Assam,Byrnihat,"Central Academy for SFS, Byrnihat - PCBA",15-02-2024 14:00:00,26.071318,91.87488,NO2,38,141,72
India,Assam,Byrnihat,"Central Academy for SFS, Byrnihat - PCBA",15-02-2024 14:00:00,26.071318,91.87488,NH3,2,8,6
India,Assam,Byrnihat,"Central Academy for SFS, Byrnihat - PCBA",15-02-2024 14:00:00,26.071318,91.87488,OZONE,12,19,15
India,Assam,Guwahati,"IITG, Guwahati - PCBA",15-02-2024 14:00:00,26.2028636,91.70046436,PM2.5,109,335,232
India,Assam,Guwahati,"IITG, Guwahati - PCBA",15-02-2024 14:00:00,26.2028636,91.70046436,NH3,5,5,5
India,Assam,Guwahati,"LGBI Airport, Guwahati - PCBA",15-02-2024 14:00:00,26.10887,91.589544,PM10,91,279,152
India,Assam,Guwahati,"LGBI Airport, Guwahati - PCBA",15-02-2024 14:00:00,26.10887,91.589544,CO,16,120,53
India,Assam,Guwahati,"Pan Bazaar, Guwahati - PCBA",15-02-2024 14:00:00,26.187500,91.744194,PM2.5,103,337,220
India,Assam,Guwahati,"Pan Bazaar, Guwahati - PCBA",15-02-2024 14:00:00,26.187500,91.744194,CO,32,111,46
India,Assam,Guwahati,"Railway Colony, Guwahati - PCBA",15-02-2024 14:00:00,26.181742,91.78063,PM10,96,426,237
India,Assam,Guwahati,"Railway Colony, Guwahati - PCBA",15-02-2024 14:00:00,26.181742,91.78063,SO2,20,37,24
India,Assam,Nagaon,"Christianpatty, Nagaon - PCBA",15-02-2024 14:00:00,26.349082,92.68449,PM2.5,130,468,311
India,Assam,Nagaon,"Christianpatty, Nagaon - PCBA",15-02-2024 14:00:00,26.349082,92.68449,PM10,99,431,196
India,Assam,Nalbari,"Bata Chowk, Nalbari - PCBA",15-02-2024 14:00:00,26.446912,91.439057,PM2.5,100,401,297
India,Assam,Silchar,"Tarapur, Silchar - PCBA",15-02-2024 14:00:00,24.82827,92.79525,SO2,4,10,6
India,Assam,Sivasagar,"Girls College, Sivasagar - PCBA",15-02-2024 14:00:00,26.987634,94.636574,NH3,2,2,2
India,Bihar,Araria,"Kharahiya Basti, Araria - BSPCB",15-02-2024 14:00:00,26.146529,87.454184,NH3,7,9,8
India,Bihar,Araria,"Kharahiya Basti, Araria - BSPCB",15-02-2024 14:00:00,26.146529,87.454184,OZONE,8,10,10
India,Bihar,Arrah,"New DM Office, Arrah - BSPCB",15-02-2024 14:00:00,25.5626095,84.663264,PM2.5,70,304,133
India,Bihar,Arrah,"New DM Office, Arrah - BSPCB",15-02-2024 14:00:00,25.5626095,84.663264,CO,1,50,10
India,Bihar,Bhagalpur,"DM Office_Kachari Chowk, Bhagalpur - BSPCB",15-02-2024 14:00:00,25.251013,86.989001,OZONE,25,300,78
India,Bihar,Bhagalpur,"Mayaganj, Bhagalpur - BSPCB",15-02-2024 14:00:00,25.265194,87.012947,OZONE,9,42,24
India,Bihar,Bihar Sharif,"D M Colony, Bihar Sharif - BSPCB",15-02-2024 14:00:00,25.204762,85.514960,PM10,2,112,49
India,Bihar,Buxar,"Charitra Van, Buxar - BSPCB (Formerly known as Central Jail)",15-02-2024 14:00:00,25.567520,83.966379,PM2.5,63,309,194
India,Bihar,Buxar,"Charitra Van, Buxar - BSPCB (Formerly known as Central Jail)",15-02-2024 14:00:00,25.567520,83.966379,NH3,NA,NA,NA
India,Bihar,Chhapra,"Darshan Nagar, Chhapra - BSPCB",15-02-2024 14:00:00,25.7808257,84.7446768,PM10,80,214,152
India,Bihar,Gaya,"Kareemganj, Gaya - BSPCB",15-02-2024 14:00:00,24.792403,84.992416,CO,19,60,32
India,Bihar,Gaya,"SFTI Kusdihra, Gaya - BSPCB",15-02-2024 14:00:00,24.762518,84.982348,OZONE,2,8,5
India,Bihar,Kishanganj,"SDM Office_Khagra, Kishanganj - BSPCB",15-02-2024 14:00:00,26.0881305,87.93840336,NO2,32,45,39
India,Bihar,Kishanganj,"SDM Office_Khagra, Kishanganj - BSPCB",15-02-2024 14:00:00,26.0881305,87.93840336,NH3,14,19,17
India,Bihar,Kishanganj,"SDM Office_Khagra, Kishanganj - BSPCB",15-02-2024 14:00:00,26.0881305,87.93840336,SO2,14,42,28
India,Bihar,Manguraha,"Forest Rest House, Manguraha - BSPCB",15-02-2024 14:00:00,27.308328,84.531742,PM2.5,53,321,160
India,Bihar,Manguraha,"Forest Rest House, Manguraha - BSPCB",15-02-2024 14:00:00,27.308328,84.531742,SO2,NA,NA,NA
India,Bihar,Motihari,"Gandak Colony, Motihari - BSPCB",15-02-2024 14:00:00,26.63086,84.90051,NO2,33,65,48
India,Bihar,Munger,"Town Hall, Munger - BSPCB",15-02-2024 14:00:00,25.376776,86.471523,PM10,34,111,78
India,Bihar,Munger,"Town Hall, Munger - BSPCB",15-02-2024 14:00:00,25.376776,86.471523,NH3,1,2,2
India,Bihar,Muzaffarpur,"Buddha Colony, Muzaffarpur - BSPCB",15-02-2024 14:00:00,26.11442,85.39813,NO2,21,54,35
India,Bihar,Muzaffarpur,"MIT-Daudpur Kothi, Muzaffarpur - BSPCB",15-02-2024 14:00:00,26.1403345,85.3650192,PM2.5,33,127,74
India,Bihar,Muzaffarpur,"MIT-Daudpur Kothi, Muzaffarpur - BSPCB",15-02-2024 14:00:00,26.1403345,85.3650192,NH3,12,20,16
India,Bihar,Muzaffarpur,"MIT-Daudpur Kothi, Muzaffarpur - BSPCB",15-02-2024 14:00:00,26.1403345,85.3650192,CO,16,90,49
India,Bihar,Patna,"DRM Office Danapur, Patna - BSPCB",15-02-2024 14:00:00,25.586562,85.043586,NO2,2,35,15
India,Bihar,Patna,"DRM Office Danapur, Patna - BSPCB",15-02-2024 14:00:00,25.586562,85.043586,CO,36,133,52
India,Bihar,Patna,"Govt. High School Shikarpur, Patna - BSPCB",15-02-2024 14:00:00,25.592539,85.227158,NO2,21,32,28
India,Bihar,Patna,"IGSC Planetarium Complex, Patna - BSPCB",15-02-2024 14:00:00,25.610369,85.132568,PM2.5,NA,NA,NA
India,Bihar,Patna,"Muradpur, Patna - BSPCB",15-02-2024 14:00:00,25.619651,85.147382,PM10,147,251,174
India,Bihar,Patna,"Muradpur, Patna - BSPCB",15-02-2024 14:00:00,25.619651,85.147382,SO2,9,28,13
India,Bihar,Patna,"Rajbansi Nagar, Patna - BSPCB",15-02-2024 14:00:00,25.599486,85.113666,PM10,116,173,142
India,Bihar,Patna,"Samanpura, Patna - BSPCB",15-02-2024 14:00:00,25.596727,85.085624,PM2.5,184,343,257
India,Bihar,Patna,"Samanpura, Patna - BSPCB",15-02-2024 14:00:00,25.596727,85.085624,PM10,159,343,218
India,Bihar,Purnia,"Mariam Nagar, Purnia - BSPCB",15-02-2024 14:00:00,25.366336,87.117468,PM10,96,211,152
India,Bihar,Saharsa,"Police Line, Saharsa - BSPCB",15-02-2024 14:00:00,25.892357,86.590325,SO2,NA,NA,NA
India,Bihar,Saharsa,"Police Line, Saharsa - BSPCB",15-02-2024 14:00:00,25.892357,86.590325,CO,8,32,16
India,Bihar,Samastipur,"DM Office_Kasipur, Samastipur - BSPCB",15-02-2024 14:00:00,25.859655,85.77944,NH3,3,10,5
India,Bihar,Samastipur,"DM Office_Kasipur, Samastipur - BSPCB",15-02-2024 14:00:00,25.859655,85.77944,CO,2,30,23
India,Bihar,Sasaram,"Dada Peer, Sasaram - BSPCB",15-02-2024 14:00:00,24.952822,84.002396,NO2,1,10,5
India,Bihar,Siwan,"Chitragupta Nagar, Siwan - BSPCB",15-02-2024 14:00:00,26.2271665,84.3570427,PM2.5,NA,NA,NA
India,Bihar,Siwan,"Chitragupta Nagar, Siwan - BSPCB",15-02-2024 14:00:00,26.2271665,84.3570427,PM10,NA,NA,NA
India,Chandigarh,Chandigarh,"Sector 22, Chandigarh - CPCC",15-02-2024 14:00:00,30.735567,76.775714,CO,34,70,53
India,Chandigarh,Chandigarh,"Sector 22, Chandigarh - CPCC",15-02-2024 14:00:00,30.735567,76.775714,OZONE,3,158,60
India,Chandigarh,Chandigarh,"Sector-53, Chandigarh - CPCC",15-02-2024 14:00:00,30.719859,76.738637,NH3,5,7,6
India,Chhattisgarh,Bhilai,"32Bungalows, Bhilai - CECB",15-02-2024 14:00:00,21.194815,81.314770,CO,17,44,37
India,Chhattisgarh,Bhilai,"Civic Center, Bhilai - Bhilai Steel Plant",15-02-2024 14:00:00,21.185571,81.343175,PM10,NA,NA,NA
India,Chhattisgarh,Bhilai,"Civic Center, Bhilai - Bhilai Steel Plant",15-02-2024 14:00:00,21.185571,81.343175,SO2,NA,NA,NA
India,Chhattisgarh,Bhilai,"Civic Center, Bhilai - Bhilai Steel Plant",15-02-2024 14:00:00,21.185571,81.343175,OZONE,9,43,20
India,Chhattisgarh,Bhilai,"Hathkhoj, Bhilai - CECB",15-02-2024 14:00:00,21.224231,81.408350,SO2,12,28,16
India,Chhattisgarh,Bilaspur,"Mangala, Bilaspur - NTPC",15-02-2024 14:00:00,22.08815,82.13737,SO2,1,36,18
India,Chhattisgarh,Chhal,"Nawapara SECL Colony, Chhal - CECB",15-02-2024 14:00:00,22.118125,83.140608,SO2,9,20,14
India,Chhattisgarh,Korba,"Rampur, Korba - CECB",15-02-2024 14:00:00,22.368195,82.746431,NO2,33,50,39
India,Chhattisgarh,Korba,"Urja Nagar, Korba - CECB",15-02-2024 14:00:00,22.348441,82.549611,CO,24,41,24
India,Chhattisgarh,Kunjemura,"OP Jindal School, Kunjemura - CECB",15-02-2024 14:00:00,22.126650,83.483212,PM10,54,238,125
India,Chhattisgarh,Kunjemura,"OP Jindal School, Kunjemura - CECB",15-02-2024 14:00:00,22.126650,83.483212,SO2,2,19,9
India,Chhattisgarh,Raipur,"AIIMS, Raipur - CECB",15-02-2024 14:00:00,21.258815,81.578979,PM10,51,180,80
India,Chhattisgarh,Raipur,"Krishak Nagar, Raipur - CECB",15-02-2024 14:00:00,21.237755,81.705301,PM2.5,13,61,44
India,Chhattisgarh,Raipur,"Krishak Nagar, Raipur - CECB",15-02-2024 14:00:00,21.237755,81.705301,NH3,1,1,1
India,Chhattisgarh,Raipur,"Krishak Nagar, Raipur - CECB",15-02-2024 14:00:00,21.237755,81.705301,CO,32,54,48
India,Chhattisgarh,Raipur,"Siltara Phase-II, Raipur - CECB",15-02-2024 14:00:00,21.371751,81.664929,SO2,7,33,11
India,Chhattisgarh,Tumidih,"OP Jindal Industrial Park, Tumidih - CECB",15-02-2024 14:00:00,22.06631475,83.33820077,PM2.5,17,327,54
India,Chhattisgarh,Tumidih,"OP Jindal Industrial Park, Tumidih - CECB",15-02-2024 14:00:00,22.06631475,83.33820077,PM10,38,407,88
India,Chhattisgarh,Tumidih,"OP Jindal Industrial Park, Tumidih - CECB",15-02-2024 14:00:00,22.06631475,83.33820077,OZONE,5,70,38
India,Delhi,Delhi,"Anand Vihar, Delhi - DPCC",15-02-2024 14:00:00,28.647622,77.3158090,PM2.5,147,392,309
India,Delhi,Delhi,"Anand Vihar, Delhi - DPCC",15-02-2024 14:00:00,28.647622,77.3158090,PM10,162,479,308
India,Delhi,Delhi,"Aya Nagar, Delhi - IMD",15-02-2024 14:00:00,28.4706914,77.1099364,PM10,NA,NA,NA
India,Delhi,Delhi,"Bawana, Delhi - DPCC",15-02-2024 14:00:00,28.776200,77.051074,PM10,135,382,205
India,Delhi,Delhi,"Bawana, Delhi - DPCC",15-02-2024 14:00:00,28.776200,77.051074,OZONE,3,109,33
India,Delhi,Delhi,"Dr. Karni Singh Shooting Range, Delhi - DPCC",15-02-2024 14:00:00,28.498571,77.264840,PM2.5,207,356,312
India,Delhi,Delhi,"Dwarka-Sector 8, Delhi - DPCC ",15-02-2024 14:00:00,28.5710274,77.0719006,NO2,5,17,12
India,Delhi,Delhi,"IGI Airport (T3), Delhi - IMD",15-02-2024 14:00:00,28.5627763,77.1180053,CO,11,66,27
India,Delhi,Delhi,"IHBAS, Dilshad Garden, Delhi - CPCB",15-02-2024 14:00:00,28.6811736,77.3025234,PM2.5,102,306,218
India,Delhi,Delhi,"IHBAS, Dilshad Garden, Delhi - CPCB",15-02-2024 14:00:00,28.6811736,77.3025234,NO2,9,26,18
India,Delhi,Delhi,"IHBAS, Dilshad Garden, Delhi - CPCB",15-02-2024 14:00:00,28.6811736,77.3025234,NH3,11,18,15
India,Delhi,Delhi,"ITO, Delhi - CPCB",15-02-2024 14:00:00,28.628624,77.241060,CO,16,118,67
India,Delhi,Delhi,"ITO, Delhi - CPCB",15-02-2024 14:00:00,28.628624,77.241060,OZONE,16,198,50
India,Delhi,Delhi,"Jahangirpuri, Delhi - DPCC",15-02-2024 14:00:00,28.732820,77.170633,PM10,164,470,289
India,Delhi,Delhi,"Jawaharlal Nehru Stadium, Delhi - DPCC",15-02-2024 14:00:00,28.580280,77.233829,PM2.5,157,354,285
India,Delhi,Delhi,"Jawaharlal Nehru Stadium, Delhi - DPCC",15-02-2024 14:00:00,28.580280,77.233829,CO,34,119,53
India,Delhi,Delhi,"Jawaharlal Nehru Stadium, Delhi - DPCC",15-02-2024 14:00:00,28.580280,77.233829,OZONE,1,165,157
India,Delhi,Delhi,"Lodhi Road, Delhi - IITM",15-02-2024 14:00:00,28.588333,77.221667,NH3,8,14,10
India,Delhi,Delhi,"Lodhi Road, Delhi - IITM",15-02-2024 14:00:00,28.588333,77.221667,SO2,17,38,31
India,Delhi,Delhi,"Lodhi Road, Delhi - IITM",15-02-2024 14:00:00,28.588333,77.221667,CO,62,70,67
India,Delhi,Delhi,"Major Dhyan Chand National Stadium, Delhi - DPCC",15-02-2024 14:00:00,28.611281,77.237738,PM10,NA,NA,NA
India,Delhi,Delhi,"Major Dhyan Chand National Stadium, Delhi - DPCC",15-02-2024 14:00:00,28.611281,77.237738,NO2,NA,NA,NA
India,Delhi,Delhi,"Mandir Marg, Delhi - DPCC",15-02-2024 14:00:00,28.636429,77.201067,OZONE,6,63,14
India,Delhi,Delhi,"NSIT Dwarka, Delhi - CPCB",15-02-2024 14:00:00,28.60909,77.0325413,PM10,159,317,228
India,Delhi,Delhi,"NSIT Dwarka, Delhi - CPCB",15-02-2024 14:00:00,28.60909,77.0325413,NH3,9,12,11
India,Delhi,Delhi,"NSIT Dwarka, Delhi - CPCB",15-02-2024 14:00:00,28.60909,77.0325413,CO,32,94,51
India,Delhi,Delhi,"NSIT Dwarka, Delhi - CPCB",15-02-2024 14:00:00,28.60909,77.0325413,OZONE,10,103,39
India,Delhi,Delhi,"Najafgarh, Delhi - DPCC",15-02-2024 14:00:00,28.570173,76.933762,OZONE,6,166,54
India,Delhi,Delhi,"Narela, Delhi - DPCC",15-02-2024 14:00:00,28.822836,77.101981,PM2.5,242,354,314
India,Delhi,Delhi,"Nehru Nagar, Delhi - DPCC",15-02-2024 14:00:00,28.567890,77.250515,SO2,4,24,13
India,Delhi,Delhi,"Nehru Nagar, Delhi - DPCC",15-02-2024 14:00:00,28.567890,77.250515,CO,20,107,71
India,Delhi,Delhi,"New Moti Bagh, Delhi - MHUA",15-02-2024 14:00:00,28.57834,77.18400,PM2.5,210,370,311
India,Delhi,Delhi,"New Moti Bagh, Delhi - MHUA",15-02-2024 14:00:00,28.57834,77.18400,CO,26,110,49
India,Delhi,Delhi,"North Campus, DU, Delhi - IMD",15-02-2024 14:00:00,28.6573814,77.1585447,PM2.5,NA,NA,NA
India,Delhi,Delhi,"North Campus, DU, Delhi - IMD",15-02-2024 14:00:00,28.6573814,77.1585447,PM10,NA,NA,NA
India,Delhi,Delhi,"Patparganj, Delhi - DPCC",15-02-2024 14:00:00,28.623763,77.287209,NH3,7,15,11
India,Delhi,Delhi,"Patparganj, Delhi - DPCC",15-02-2024 14:00:00,28.623763,77.287209,CO,14,119,33
India,Delhi,Delhi,"R K Puram, Delhi - DPCC",15-02-2024 14:00:00,28.563262,77.186937,PM2.5,210,392,322
India,Delhi,Delhi,"R K Puram, Delhi - DPCC",15-02-2024 14:00:00,28.563262,77.186937,PM10,156,293,203
India,Delhi,Delhi,"Rohini, Delhi - DPCC",15-02-2024 14:00:00,28.732528,77.119920,PM2.5,212,384,330
India,Delhi,Delhi,"Shadipur, Delhi - CPCB",15-02-2024 14:00:00,28.6514781,77.1473105,PM10,179,347,229
India,Delhi,Delhi,"Shadipur, Delhi - CPCB",15-02-2024 14:00:00,28.6514781,77.1473105,CO,37,94,59
India,Delhi,Delhi,"Sirifort, Delhi - CPCB",15-02-2024 14:00:00,28.5504249,77.2159377,SO2,35,40,38
India,Delhi,Delhi,"Sirifort, Delhi - CPCB",15-02-2024 14:00:00,28.5504249,77.2159377,OZONE,10,26,17
India,Delhi,Delhi,"Sonia Vihar, Delhi - DPCC",15-02-2024 14:00:00,28.710508,77.249485,PM10,146,464,266
India,Delhi,Delhi,"Sonia Vihar, Delhi - DPCC",15-02-2024 14:00:00,28.710508,77.249485,OZONE,4,163,163
India,Delhi,Delhi,"Sri Aurobindo Marg, Delhi - DPCC",15-02-2024 14:00:00,28.531346,77.190156,NH3,7,9,8
India,Delhi,Delhi,"Vivek Vihar, Delhi - DPCC",15-02-2024 14:00:00,28.672342,77.315260,PM2.5,223,386,321
India,Delhi,Delhi,"Vivek Vihar, Delhi - DPCC",15-02-2024 14:00:00,28.672342,77.315260,SO2,22,24,23
India,Delhi,Delhi,"Wazirpur, Delhi - DPCC",15-02-2024 14:00:00,28.699793,77.165453,CO,20,110,50
India,Gujarat,Ahmedabad,"Chandkheda, Ahmedabad - IITM",15-02-2024 14:00:00,23.107969,72.574648,PM10,17,63,35
India,Gujarat,Ahmedabad,"Maninagar, Ahmedabad - GPCB",15-02-2024 14:00:00,23.002657,72.591912,PM2.5,39,95,72
India,Gujarat,Ahmedabad,"Rakhial, Ahmedabad - IITM",15-02-2024 14:00:00,23.016834,72.625775,NH3,5,13,9
India,Gujarat,Ahmedabad,"SAC ISRO Bopal, Ahmedabad - IITM",15-02-2024 14:00:00,23.041137,72.456691,PM2.5,133,409,203
India,Gujarat,Ahmedabad,"SAC ISRO Bopal, Ahmedabad - IITM",15-02-2024 14:00:00,23.041137,72.456691,PM10,108,413,143
India,Gujarat,Ahmedabad,"SAC ISRO Bopal, Ahmedabad - IITM",15-02-2024 14:00:00,23.041137,72.456691,SO2,11,12,12
India,Gujarat,Ahmedabad,"SAC ISRO Bopal, Ahmedabad - IITM",15-02-2024 14:00:00,23.041137,72.456691,CO,33,34,34
India,Gujarat,Ahmedabad,"SAC ISRO Satellite, Ahmedabad - IITM",15-02-2024 14:00:00,23.023389,72.515201,PM10,87,120,96
India,Gujarat,Ahmedabad,"Sardar Vallabhbhai Patel Stadium, Ahmedabad - IITM",15-02-2024 14:00:00,23.043070,72.562968,PM2.5,86,211,119
India,Gujarat,Ahmedabad,"Sardar Vallabhbhai Patel Stadium, Ahmedabad - IITM",15-02-2024 14:00:00,23.043070,72.562968,NO2,12,14,13
India,Gujarat,Ankleshwar,"GIDC, Ankleshwar - GPCB",15-02-2024 14:00:00,21.613267,73.010555,PM2.5,75,280,120
India,Gujarat,Ankleshwar,"GIDC, Ankleshwar - GPCB",15-02-2024 14:00:00,21.613267,73.010555,NO2,34,35,34
India,Gujarat,Ankleshwar,"GIDC, Ankleshwar - GPCB",15-02-2024 14:00:00,21.613267,73.010555,NH3,6,7,6
India,Gujarat,Ankleshwar,"GIDC, Ankleshwar - GPCB",15-02-2024 14:00:00,21.613267,73.010555,SO2,12,137,46
India,Gujarat,Gandhinagar,"GIFT City, Gandhinagar - IITM",15-02-2024 14:00:00,23.163798,72.677768,SO2,4,6,5
India,Gujarat,Gandhinagar,"IIPHG Lekawada, Gandhinagar - IITM",15-02-2024 14:00:00,23.243639,72.68994,PM2.5,58,134,93
India,Gujarat,Surat,"Science Center, Surat - SMC",15-02-2024 14:00:00,21.170046,72.795405,CO,52,86,67
India,Gujarat,Vatva,"Phase-4 GIDC, Vatva - GPCB",15-02-2024 14:00:00,22.969611,72.643500,NH3,1,1,1
India,Gujarat,Vatva,"Phase-4 GIDC, Vatva - GPCB",15-02-2024 14:00:00,22.969611,72.643500,SO2,17,18,17
India,Haryana,Ambala,"Patti Mehar, Ambala - HSPCB",15-02-2024 14:00:00,30.379589,76.778328,PM2.5,26,156,94
India,Haryana,Ballabgarh,"Nathu Colony, Ballabgarh - HSPCB",15-02-2024 14:00:00,28.3419248,77.319699,PM2.5,71,368,248
India,Haryana,Ballabgarh,"Nathu Colony, Ballabgarh - HSPCB",15-02-2024 14:00:00,28.3419248,77.319699,NH3,1,2,2
India,Haryana,Ballabgarh,"Nathu Colony, Ballabgarh - HSPCB",15-02-2024 14:00:00,28.3419248,77.319699,SO2,7,32,18
India,Haryana,Ballabgarh,"Nathu Colony, Ballabgarh - HSPCB",15-02-2024 14:00:00,28.3419248,77.319699,CO,12,112,65
India,Haryana,Ballabgarh,"Nathu Colony, Ballabgarh - HSPCB",15-02-2024 14:00:00,28.3419248,77.319699,OZONE,7,28,14
India,Haryana,Bhiwani,"H.B. Colony, Bhiwani - HSPCB",15-02-2024 14:00:00,28.806223,76.141105,SO2,8,14,11
India,Haryana,Charkhi Dadri,"Mini Secretariat, Charkhi Dadri - HSPCB",15-02-2024 14:00:00,28.593883,76.270653,SO2,17,28,20
India,Haryana,Faridabad,"New Industrial Town, Faridabad - HSPCB",15-02-2024 14:00:00,28.39072,77.30059,PM10,165,266,208
India,Haryana,Faridabad,"Sector 11, Faridabad - HSPCB",15-02-2024 14:00:00,28.376058,77.315741,PM2.5,64,168,113
India,Haryana,Faridabad,"Sector 11, Faridabad - HSPCB",15-02-2024 14:00:00,28.376058,77.315741,PM10,71,150,109
India,Haryana,Faridabad,"Sector 11, Faridabad - HSPCB",15-02-2024 14:00:00,28.376058,77.315741,NH3,6,6,6
India,Haryana,Fatehabad,"Huda Sector, Fatehabad - HSPCB",15-02-2024 14:00:00,29.503664,75.467934,NH3,8,9,9
India,Haryana,Fatehabad,"Huda Sector, Fatehabad - HSPCB",15-02-2024 14:00:00,29.503664,75.467934,OZONE,20,39,26
India,Haryana,Gurugram,"Sector-51, Gurugram - HSPCB",15-02-2024 14:00:00,28.4227,77.0667,OZONE,27,67,50
India,Haryana,Gurugram,"Vikas Sadan, Gurugram - HSPCB",15-02-2024 14:00:00,28.4501238,77.0263051,SO2,11,41,26
India,Haryana,Hisar,"Urban Estate-II, Hisar - HSPCB",15-02-2024 14:00:00,29.140560,75.744941,OZONE,33,186,180
India,Haryana,Jind,"Police Lines, Jind - HSPCB",15-02-2024 14:00:00,29.307814,76.337619,PM2.5,88,228,139
India,Haryana,Jind,"Police Lines, Jind - HSPCB",15-02-2024 14:00:00,29.307814,76.337619,PM10,90,238,116
India,Haryana,Kaithal,"Rishi Nagar, Kaithal - HSPCB",15-02-2024 14:00:00,29.8006,76.4155,SO2,5,44,20
India,Haryana,Karnal,"Sector-12, Karnal - HSPCB",15-02-2024 14:00:00,29.695300,77.002700,CO,32,56,47
India,Haryana,Karnal,"Sector-12, Karnal - HSPCB",15-02-2024 14:00:00,29.695300,77.002700,OZONE,31,36,33
India,Haryana,Kurukshetra,"Sector-7, Kurukshetra - HSPCB",15-02-2024 14:00:00,29.966942,76.875879,PM10,103,158,118
India,Haryana,Kurukshetra,"Sector-7, Kurukshetra - HSPCB",15-02-2024 14:00:00,29.966942,76.875879,NH3,3,5,5
India,Haryana,Mandikhera,"General Hospital, Mandikhera - HSPCB",15-02-2024 14:00:00,27.9002,76.9938,NO2,17,21,19
India,Haryana,Mandikhera,"General Hospital, Mandikhera - HSPCB",15-02-2024 14:00:00,27.9002,76.9938,NH3,18,23,20
India,Haryana,Manesar,"Sector-2 IMT, Manesar - HSPCB",15-02-2024 14:00:00,28.360699,76.936090,SO2,1,40,15
India,Haryana,Manesar,"Sector-2 IMT, Manesar - HSPCB",15-02-2024 14:00:00,28.360699,76.936090,CO,10,107,45
India,Haryana,Manesar,"Sector-2 IMT, Manesar - HSPCB",15-02-2024 14:00:00,28.360699,76.936090,OZONE,8,55,30
India,Haryana,Narnaul,"Shastri Nagar, Narnaul - HSPCB",15-02-2024 14:00:00,28.060249,76.113115,NO2,16,58,35
India,Haryana,Narnaul,"Shastri Nagar, Narnaul - HSPCB",15-02-2024 14:00:00,28.060249,76.113115,CO,2,16,10
India,Haryana,Palwal,"Shyam Nagar, Palwal - HSPCB",15-02-2024 14:00:00,28.1485564,77.3320667,NH3,8,9,9
India,Haryana,Palwal,"Shyam Nagar, Palwal - HSPCB",15-02-2024 14:00:00,28.1485564,77.3320667,CO,10,18,16
India,Haryana,Sirsa,"F-Block, Sirsa - HSPCB",15-02-2024 14:00:00,29.536400,75.015800,PM10,51,114,91
India,Haryana,Sirsa,"F-Block, Sirsa - HSPCB",15-02-2024 14:00:00,29.536400,75.015800,CO,58,86,75
India,Haryana,Sirsa,"F-Block, Sirsa - HSPCB",15-02-2024 14:00:00,29.536400,75.015800,OZONE,20,101,47
India,Haryana,Sonipat,"Murthal, Sonipat - HSPCB",15-02-2024 14:00:00,29.027200,77.062100,SO2,12,29,20
India,Haryana,Sonipat,"Murthal, Sonipat - HSPCB",15-02-2024 14:00:00,29.027200,77.062100,OZONE,17,36,27
India,Jharkhand,Dhanbad,"Kalakusuma, Dhanbad - DMC",15-02-2024 14:00:00,23.811548,86.481238,PM2.5,NA,NA,NA
India,Jharkhand,Dhanbad,"Kalakusuma, Dhanbad - DMC",15-02-2024 14:00:00,23.811548,86.481238,PM10,NA,NA,NA
India,Jharkhand,Dhanbad,"Kalakusuma, Dhanbad - DMC",15-02-2024 14:00:00,23.811548,86.481238,SO2,NA,NA,NA
India,Jharkhand,Dhanbad,"Sardar Patel Nagar, Dhanbad - JSPCB",15-02-2024 14:00:00,23.80569,86.44268,PM2.5,NA,NA,NA
India,Jharkhand,Pathardih,"Mohalbani Ghat, Pathardih - DMC",15-02-2024 14:00:00,23.669880,86.411725,NO2,29,303,162
India,Jharkhand,Pathardih,"Mohalbani Ghat, Pathardih - DMC",15-02-2024 14:00:00,23.669880,86.411725,SO2,18,23,20
India,Karnataka,Bagalkot,"Vidayagiri, Bagalkot - KSPCB",15-02-2024 14:00:00,16.172806,75.659694,NO2,9,10,9
India,Karnataka,Bagalkot,"Vidayagiri, Bagalkot - KSPCB",15-02-2024 14:00:00,16.172806,75.659694,SO2,NA,NA,NA
India,Karnataka,Belgaum,"Ramteerth Nagar, Belgaum - KSPCB",15-02-2024 14:00:00,15.888653,74.541751,PM10,42,101,62
India,Karnataka,Belgaum,"Ramteerth Nagar, Belgaum - KSPCB",15-02-2024 14:00:00,15.888653,74.541751,NH3,33,34,34
India,Karnataka,Belgaum,"Ramteerth Nagar, Belgaum - KSPCB",15-02-2024 14:00:00,15.888653,74.541751,OZONE,19,20,20
India,Karnataka,Bengaluru,"BTM Layout, Bengaluru - CPCB",15-02-2024 14:00:00,12.9135218,77.5950804,PM10,34,68,53
India,Karnataka,Bengaluru,"BTM Layout, Bengaluru - CPCB",15-02-2024 14:00:00,12.9135218,77.5950804,NO2,35,42,37
India,Karnataka,Bengaluru,"Bapuji Nagar, Bengaluru - KSPCB",15-02-2024 14:00:00,12.951913,77.539784,PM2.5,63,163,94
India,Karnataka,Bengaluru,"City Railway Station, Bengaluru - KSPCB",15-02-2024 14:00:00,12.9756843,77.5660749,NO2,23,34,29
India,Karnataka,Bengaluru,"City Railway Station, Bengaluru - KSPCB",15-02-2024 14:00:00,12.9756843,77.5660749,SO2,13,13,13
India,Karnataka,Bengaluru,"City Railway Station, Bengaluru - KSPCB",15-02-2024 14:00:00,12.9756843,77.5660749,CO,54,96,70
India,Karnataka,Bengaluru,"Hebbal, Bengaluru - KSPCB",15-02-2024 14:00:00,13.029152,77.585901,PM2.5,NA,NA,NA
India,Karnataka,Bengaluru,"Jayanagar 5th Block, Bengaluru - KSPCB",15-02-2024 14:00:00,12.920984,77.584908,CO,4,32,14
India,Karnataka,Bengaluru,"Jigani, Bengaluru - KSPCB",15-02-2024 14:00:00,12.7816279,77.6299145,OZONE,11,62,39
India,Karnataka,Bengaluru,"Peenya, Bengaluru - CPCB",15-02-2024 14:00:00,13.0270199,77.494094,NO2,17,24,22
India,Karnataka,Bengaluru,"Peenya, Bengaluru - CPCB",15-02-2024 14:00:00,13.0270199,77.494094,OZONE,30,86,57
India,Karnataka,Bengaluru,"Sanegurava Halli, Bengaluru - KSPCB",15-02-2024 14:00:00,12.990328,77.5431385,SO2,1,3,2
India,Karnataka,Bengaluru,"Sanegurava Halli, Bengaluru - KSPCB",15-02-2024 14:00:00,12.990328,77.5431385,CO,8,36,23
India,Karnataka,Bengaluru,"Shivapura_Peenya, Bengaluru - KSPCB",15-02-2024 14:00:00,13.0246342,77.5080115,PM10,54,101,76
India,Karnataka,Bengaluru,"Silk Board, Bengaluru - KSPCB",15-02-2024 14:00:00,12.917348,77.622813,PM2.5,25,85,51
India,Karnataka,Bengaluru,"Silk Board, Bengaluru - KSPCB",15-02-2024 14:00:00,12.917348,77.622813,SO2,10,16,14
India,Karnataka,Bidar,"Naubad, Bidar - KSPCB",15-02-2024 14:00:00,17.930306,77.482194,PM10,64,115,86
India,Karnataka,Chamarajanagar,"Urban, Chamarajanagar - KSPCB",15-02-2024 14:00:00,11.55358,76.55521,PM2.5,20,48,28
India,Karnataka,Chikkaballapur,"Chikkaballapur Rural, Chikkaballapur - KSPCB",15-02-2024 14:00:00,13.428828,77.731418,NO2,2,12,4
India,Karnataka,Davanagere,"Devaraj Urs Badavane, Davanagere - KSPCB",15-02-2024 14:00:00,14.475800,75.905200,SO2,3,8,4
India,Karnataka,Gadag,"Panchal Nagar, Gadag - KSPCB",15-02-2024 14:00:00,15.411456,75.638133,PM10,NA,NA,NA
India,Karnataka,Gadag,"Panchal Nagar, Gadag - KSPCB",15-02-2024 14:00:00,15.411456,75.638133,SO2,NA,NA,NA
India,Karnataka,Haveri,"Ashwini Nagar, Haveri - KSPCB",15-02-2024 14:00:00,14.791800,75.389600,SO2,13,14,14
India,Karnataka,Kalaburagi,"Lal Bahadur Shastri Nagar, Kalaburagi - KSPCB",15-02-2024 14:00:00,17.321993,76.822628,PM10,NA,NA,NA
India,Karnataka,Kalaburagi,"Lal Bahadur Shastri Nagar, Kalaburagi - KSPCB",15-02-2024 14:00:00,17.321993,76.822628,NO2,12,12,12
India,Karnataka,Kalaburagi,"Lal Bahadur Shastri Nagar, Kalaburagi - KSPCB",15-02-2024 14:00:00,17.321993,76.822628,NH3,2,2,2
India,Karnataka,Kalaburagi,"Lal Bahadur Shastri Nagar, Kalaburagi - KSPCB",15-02-2024 14:00:00,17.321993,76.822628,OZONE,4,76,30
India,Karnataka,Kalaburagi,"Mahatma Basaveswar Colony, Kalaburgi - KSPCB",15-02-2024 14:00:00,17.336318,76.847397,SO2,5,26,9
India,Karnataka,Karwar,"KHB Colony, Karwar - KSPCB",15-02-2024 14:00:00,14.816666,74.141003,PM10,53,160,81
India,Karnataka,Karwar,"KHB Colony, Karwar - KSPCB",15-02-2024 14:00:00,14.816666,74.141003,NH3,2,3,2
India,Karnataka,Kolar,"Tamaka Ind. Area, Kolar - KSPCB",15-02-2024 14:00:00,13.1276288,78.1570122,PM10,49,149,86
India,Karnataka,Kolar,"Tamaka Ind. Area, Kolar - KSPCB",15-02-2024 14:00:00,13.1276288,78.1570122,NH3,7,11,8
India,Karnataka,Koppal,"Diwator Nagar, Koppal - KSPCB",15-02-2024 14:00:00,15.347630,76.181767,CO,23,44,28
India,Karnataka,Koppal,"Diwator Nagar, Koppal - KSPCB",15-02-2024 14:00:00,15.347630,76.181767,OZONE,2,39,20
India,Karnataka,Madikeri,"Stuart Hill, Madikeri - KSPCB",15-02-2024 14:00:00,12.415911,75.735050,SO2,4,4,4
India,Karnataka,Mangalore,"Kadri, Mangalore - KSPCB",15-02-2024 14:00:00,12.889250,74.853000,PM2.5,NA,NA,NA
India,Karnataka,Mangalore,"Kadri, Mangalore - KSPCB",15-02-2024 14:00:00,12.889250,74.853000,PM10,NA,NA,NA
India,Karnataka,Mangalore,"Kadri, Mangalore - KSPCB",15-02-2024 14:00:00,12.889250,74.853000,SO2,NA,NA,NA
India,Karnataka,Mangalore,"Kadri, Mangalore - KSPCB",15-02-2024 14:00:00,12.889250,74.853000,OZONE,31,34,32
India,Karnataka,Mysuru,"Hebbal 1st Stage, Mysuru - KSPCB",15-02-2024 14:00:00,12.21041,76.37376,PM10,36,54,44
India,Karnataka,Raichur,"Haji Colony, Raichur - KSPCB",15-02-2024 14:00:00,16.208139,77.348417,SO2,62,73,66
India,Karnataka,Ramanagara,"Vijay Nagar, Ramanagara - KSPCB",15-02-2024 14:00:00,12.733409,77.298051,SO2,21,32,25
India,Karnataka,Ramanagara,"Vijay Nagar, Ramanagara - KSPCB",15-02-2024 14:00:00,12.733409,77.298051,CO,3,27,19
India,Karnataka,Shivamogga,"Vinoba Nagara, Shivamogga - KSPCB",15-02-2024 14:00:00,13.940000,75.555917,PM10,53,71,63
India,Karnataka,Tumakuru,"Thimmalapura, Tumakuru - KSPCB",15-02-2024 14:00:00,13.377516,77.099072,SO2,8,11,10
India,Karnataka,Udupi,"Brahmagiri, Udupi - KSPCB",15-02-2024 14:00:00,13.34194444,74.74694444,PM10,37,73,49
India,Karnataka,Udupi,"Brahmagiri, Udupi - KSPCB",15-02-2024 14:00:00,13.34194444,74.74694444,SO2,20,23,21
India,Karnataka,Vijayapura,"Ibrahimpur, Vijayapura - KSPCB",15-02-2024 14:00:00,16.802639,75.722694,NO2,17,19,19
India,Karnataka,Vijayapura,"Ibrahimpur, Vijayapura - KSPCB",15-02-2024 14:00:00,16.802639,75.722694,NH3,2,2,2
India,Kerala,Kannur,"Thavakkara, Kannur - Kerala PCB",15-02-2024 14:00:00,11.875000,75.373200,SO2,4,6,5
India,Kerala,Kochi,"Vyttila, Kochi - Kerala PCB",15-02-2024 14:00:00,9.969447,76.321186,CO,60,66,62
India,Kerala,Kollam,"Polayathode, Kollam - Kerala PCB",15-02-2024 14:00:00,8.8787,76.6073,PM10,59,89,71
India,Kerala,Kollam,"Polayathode, Kollam - Kerala PCB",15-02-2024 14:00:00,8.8787,76.6073,CO,12,48,20
India,Kerala,Kollam,"Polayathode, Kollam - Kerala PCB",15-02-2024 14:00:00,8.8787,76.6073,OZONE,31,39,34
India,Kerala,Thiruvananthapuram,"Kariavattom, Thiruvananthapuram - Kerala PCB",15-02-2024 14:00:00,8.563700,76.886500,NH3,1,1,1
India,Kerala,Thiruvananthapuram,"Plammoodu, Thiruvananthapuram - Kerala PCB",15-02-2024 14:00:00,8.5149093,76.9435879,OZONE,11,66,17
India,Kerala,Thrissur,"Corporation Ground, Thrissur - Kerala PCB",15-02-2024 14:00:00,10.532400,76.215900,PM2.5,NA,NA,NA
India,Kerala,Thrissur,"Corporation Ground, Thrissur - Kerala PCB",15-02-2024 14:00:00,10.532400,76.215900,NO2,NA,NA,NA
India,Madhya Pradesh,Bhopal,"Idgah Hills, Bhopal - MPPCB",15-02-2024 14:00:00,23.264759,77.381568,NO2,12,61,30
India,Madhya Pradesh,Bhopal,"Idgah Hills, Bhopal - MPPCB",15-02-2024 14:00:00,23.264759,77.381568,NH3,3,3,3
India,Madhya Pradesh,Bhopal,"Idgah Hills, Bhopal - MPPCB",15-02-2024 14:00:00,23.264759,77.381568,OZONE,27,117,64
India,Madhya Pradesh,Bhopal,"Paryavaran Parisar, Bhopal - MPPCB",15-02-2024 14:00:00,23.210494,77.425409,PM2.5,98,247,176
India,Madhya Pradesh,Bhopal,"Paryavaran Parisar, Bhopal - MPPCB",15-02-2024 14:00:00,23.210494,77.425409,CO,23,72,34
India,Madhya Pradesh,Gwalior,"Deen Dayal Nagar, Gwalior - MPPCB",15-02-2024 14:00:00,26.259242,78.216432,CO,30,116,65
India,Madhya Pradesh,Gwalior,"Deen Dayal Nagar, Gwalior - MPPCB",15-02-2024 14:00:00,26.259242,78.216432,OZONE,57,210,162
India,Madhya Pradesh,Gwalior,"Maharaj Bada, Gwalior - MPPCB",15-02-2024 14:00:00,26.200388,78.147714,NO2,24,101,53
India,Madhya Pradesh,Indore,"Chhoti Gwaltoli, Indore - MPPCB",15-02-2024 14:00:00,22.4310,75.5213,PM2.5,130,280,201
India,Madhya Pradesh,Indore,"Chhoti Gwaltoli, Indore - MPPCB",15-02-2024 14:00:00,22.4310,75.5213,CO,46,100,51
India,Madhya Pradesh,Indore,"Maguda Nagar, Indore - IMC",15-02-2024 14:00:00,22.7524,75.8872,PM10,54,97,71
India,Madhya Pradesh,Indore,"Regional Park, Indore - IMC",15-02-2024 14:00:00,22.6780,75.8559,PM10,42,100,61
India,Madhya Pradesh,Indore,"Regional Park, Indore - IMC",15-02-2024 14:00:00,22.6780,75.8559,OZONE,6,17,10
India,Madhya Pradesh,Indore,"Residency Area, Indore - IMC",15-02-2024 14:00:00,22.7084,75.8815,PM10,67,107,82
India,Madhya Pradesh,Jabalpur,"Gupteshwar, Jabalpur - JMC",15-02-2024 14:00:00,23.142888,79.916147,PM10,77,125,97
India,Madhya Pradesh,Jabalpur,"Gupteshwar, Jabalpur - JMC",15-02-2024 14:00:00,23.142888,79.916147,SO2,6,11,8
India,Madhya Pradesh,Jabalpur,"Marhatal, Jabalpur - MPPCB",15-02-2024 14:00:00,23.168606,79.932247,SO2,19,26,21
India,Madhya Pradesh,Jabalpur,"Marhatal, Jabalpur - MPPCB",15-02-2024 14:00:00,23.168606,79.932247,OZONE,16,51,37
India,Madhya Pradesh,Jabalpur,"Suhagi, Jabalpur - JMC",15-02-2024 14:00:00,23.218135,79.957770,OZONE,9,86,47
India,Madhya Pradesh,Maihar,"Sahilara, Maihar - KJS Cements",15-02-2024 14:00:00,24.2613009,80.7231783,PM10,41,71,59
India,Madhya Pradesh,Maihar,"Sahilara, Maihar - KJS Cements",15-02-2024 14:00:00,24.2613009,80.7231783,NO2,14,14,14
India,Madhya Pradesh,Mandideep,"Sector-D Industrial Area, Mandideep - MPPCB",15-02-2024 14:00:00,23.108440,77.511428,SO2,34,125,90
India,Madhya Pradesh,Mandideep,"Sector-D Industrial Area, Mandideep - MPPCB",15-02-2024 14:00:00,23.108440,77.511428,OZONE,39,51,43
India,Madhya Pradesh,Pithampur,"Sector-2 Industrial Area, Pithampur - MPPCB",15-02-2024 14:00:00,22.624758,75.675238,CO,36,80,39
India,Madhya Pradesh,Pithampur,"Sector-2 Industrial Area, Pithampur - MPPCB",15-02-2024 14:00:00,22.624758,75.675238,OZONE,37,77,52
India,Madhya Pradesh,Ratlam,"Shasthri Nagar, Ratlam - IPCA Lab",15-02-2024 14:00:00,23.331731,75.045981,PM2.5,57,170,105
India,Madhya Pradesh,Sagar,"Deen Dayal Nagar, Sagar - MPPCB",15-02-2024 14:00:00,23.8640158,78.80289321,SO2,3,9,4
India,Madhya Pradesh,Satna,"Bandhavgar Colony, Satna - Birla Cement",15-02-2024 14:00:00,24.58434363,80.8549414,NO2,6,14,9
India,Madhya Pradesh,Singrauli,"Suryakiran Bhawan NCL, Singrauli - MPPCB",15-02-2024 14:00:00,24.108970,82.645580,SO2,39,107,55
India,Madhya Pradesh,Singrauli,"Suryakiran Bhawan NCL, Singrauli - MPPCB",15-02-2024 14:00:00,24.108970,82.645580,CO,60,127,91
India,Maharashtra,Ahmednagar,"Tarakpur, Ahmednagar - MPCB",15-02-2024 14:00:00,19.10122,74.73339,PM2.5,50,166,83
India,Maharashtra,Ahmednagar,"Tarakpur, Ahmednagar - MPCB",15-02-2024 14:00:00,19.10122,74.73339,PM10,52,379,136
India,Maharashtra,Ahmednagar,"Tarakpur, Ahmednagar - MPCB",15-02-2024 14:00:00,19.10122,74.73339,CO,8,129,25
India,Maharashtra,Akola,"Ramdaspeth, Akola - MPCB",15-02-2024 14:00:00,20.719516,77.000253,NO2,12,94,34
India,Maharashtra,Akola,"Ramdaspeth, Akola - MPCB",15-02-2024 14:00:00,20.719516,77.000253,OZONE,9,91,50
India,Maharashtra,Amravati,"Shri Shivaji Science College, Amaravati - MPCB",15-02-2024 14:00:00,20.939198,77.765701,NO2,10,104,26
India,Maharashtra,Amravati,"Shri Shivaji Science College, Amaravati - MPCB",15-02-2024 14:00:00,20.939198,77.765701,SO2,2,13,5
India,Maharashtra,Amravati,"Shri Shivaji Science College, Amaravati - MPCB",15-02-2024 14:00:00,20.939198,77.765701,OZONE,6,108,61
India,Maharashtra,Aurangabad,"MIDC Chilkalthana, Aurangabad - MPCB",15-02-2024 14:00:00,19.875620,75.387310,NH3,3,4,4
India,Maharashtra,Aurangabad,"More Chowk Waluj, Aurangabad - MPCB",15-02-2024 14:00:00,19.8389439,75.244448,OZONE,1,5,2
India,Maharashtra,Aurangabad,"Rachnakar Colony, Aurangabad - MPCB",15-02-2024 14:00:00,19.863756,75.321188,SO2,14,51,29
India,Maharashtra,Aurangabad,"Rachnakar Colony, Aurangabad - MPCB",15-02-2024 14:00:00,19.863756,75.321188,OZONE,11,85,40
India,Maharashtra,Badlapur,"Katrap, Badlapur - MPCB",15-02-2024 14:00:00,19.16485,73.23409,PM10,62,185,114
India,Maharashtra,Belapur,"CBD Belapur, Belapur - MPCB",15-02-2024 14:00:00,19.0243902,73.0406721,NO2,15,88,55
India,Maharashtra,Belapur,"CBD Belapur, Belapur - MPCB",15-02-2024 14:00:00,19.0243902,73.0406721,CO,15,60,44
India,Maharashtra,Belapur,"CBD Belapur, Belapur - MPCB",15-02-2024 14:00:00,19.0243902,73.0406721,OZONE,NA,NA,NA
India,Maharashtra,Bhiwandi,"Gokul Nagar, Bhiwandi - MPCB",15-02-2024 14:00:00,19.309073,73.057223,PM2.5,30,132,79
India,Maharashtra,Bhiwandi,"Gokul Nagar, Bhiwandi - MPCB",15-02-2024 14:00:00,19.309073,73.057223,CO,16,103,55
India,Maharashtra,Boisar,"Khaira, Boisar - MPCB",15-02-2024 14:00:00,19.786089,72.757971,CO,NA,NA,NA
India,Maharashtra,Chandrapur,"Chauhan Colony, Chandrapur - MPCB",15-02-2024 14:00:00,19.962900,79.298714,NO2,16,50,24
India,Maharashtra,Chandrapur,"Chauhan Colony, Chandrapur - MPCB",15-02-2024 14:00:00,19.962900,79.298714,SO2,7,40,21
India,Maharashtra,Chandrapur,"Chauhan Colony, Chandrapur - MPCB",15-02-2024 14:00:00,19.962900,79.298714,CO,22,27,24
India,Maharashtra,Chandrapur,"Chauhan Colony, Chandrapur - MPCB",15-02-2024 14:00:00,19.962900,79.298714,OZONE,6,32,17
India,Maharashtra,Chandrapur,"MIDC Khutala, Chandrapur - MPCB",15-02-2024 14:00:00,19.9775302,79.2337086,SO2,NA,NA,NA
India,Maharashtra,Dhule,"Deopur, Dhule - MPCB",15-02-2024 14:00:00,20.918946,74.776388,PM2.5,73,282,156
India,Maharashtra,Dhule,"Deopur, Dhule - MPCB",15-02-2024 14:00:00,20.918946,74.776388,PM10,80,231,117
India,Maharashtra,Dhule,"Deopur, Dhule - MPCB",15-02-2024 14:00:00,20.918946,74.776388,NO2,11,79,24
India,Maharashtra,Dhule,"Deopur, Dhule - MPCB",15-02-2024 14:00:00,20.918946,74.776388,NH3,2,6,4
India,Maharashtra,Dhule,"Deopur, Dhule - MPCB",15-02-2024 14:00:00,20.918946,74.776388,OZONE,4,76,37
India,Maharashtra,Jalna,"Old MIDC, Jalna - MPCB",15-02-2024 14:00:00,19.854616,75.905894,PM10,82,500,170
India,Maharashtra,Jalna,"Old MIDC, Jalna - MPCB",15-02-2024 14:00:00,19.854616,75.905894,NO2,12,55,37
India,Maharashtra,Kalyan,"Khadakpada, Kalyan - MPCB",15-02-2024 14:00:00,19.25292,73.142019,PM2.5,23,97,56
India,Maharashtra,Kalyan,"Khadakpada, Kalyan - MPCB",15-02-2024 14:00:00,19.25292,73.142019,CO,16,24,20
India,Maharashtra,Kolhapur,"Shivaji University, Kolhapur - MPCB",15-02-2024 14:00:00,16.6870449,74.2505872,SO2,3,24,10
India,Maharashtra,Kolhapur,"Shivaji University, Kolhapur - MPCB",15-02-2024 14:00:00,16.6870449,74.2505872,CO,44,111,72
India,Maharashtra,Kolhapur,"Sinchan Bhavan, Kolhapur - MPCB",15-02-2024 14:00:00,16.7143745,74.2426398,PM2.5,75,324,192
India,Maharashtra,Kolhapur,"Sinchan Bhavan, Kolhapur - MPCB",15-02-2024 14:00:00,16.7143745,74.2426398,OZONE,15,161,58
India,Maharashtra,Latur,"Sawe Wadi, Latur - MPCB",15-02-2024 14:00:00,18.39963,76.57452,PM2.5,54,168,82
India,Maharashtra,Mahad,"Kamble Tarf Birwadi, Mahad - MPCB",15-02-2024 14:00:00,18.1023399,73.4783687,PM10,109,182,139
India,Maharashtra,Malegaon,"Mahesh Nagar, Malegaon - MPCB",15-02-2024 14:00:00,20.555712,74.529236,PM10,62,171,104
India,Maharashtra,Mumbai,"Bandra Kurla Complex, Mumbai - MPCB",15-02-2024 14:00:00,19.065931,72.862131,PM2.5,79,324,158
India,Maharashtra,Mumbai,"Bandra Kurla Complex, Mumbai - MPCB",15-02-2024 14:00:00,19.065931,72.862131,CO,20,82,51
India,Maharashtra,Mumbai,"Byculla, Mumbai - BMC",15-02-2024 14:00:00,18.9767,72.8380,OZONE,1,135,46
India,Maharashtra,Mumbai,"Chakala-Andheri East, Mumbai - IITM",15-02-2024 14:00:00,19.11074,72.86084,PM2.5,68,167,106
India,Maharashtra,Mumbai,"Chakala-Andheri East, Mumbai - IITM",15-02-2024 14:00:00,19.11074,72.86084,NH3,NA,NA,NA
India,Maharashtra,Mumbai,"Chembur, Mumbai - MPCB",15-02-2024 14:00:00,19.0364585,72.8954371,NH3,4,5,4
India,Maharashtra,Mumbai,"Chembur, Mumbai - MPCB",15-02-2024 14:00:00,19.0364585,72.8954371,SO2,8,31,16
India,Maharashtra,Mumbai,"Chhatrapati Shivaji Intl. Airport (T2), Mumbai - MPCB",15-02-2024 14:00:00,19.10078,72.87462,SO2,21,36,24
India,Maharashtra,Mumbai,"Colaba, Mumbai - MPCB",15-02-2024 14:00:00,18.910000,72.820000,NO2,18,35,24
India,Maharashtra,Mumbai,"Colaba, Mumbai - MPCB",15-02-2024 14:00:00,18.910000,72.820000,SO2,11,13,12
India,Maharashtra,Mumbai,"Ghatkopar, Mumbai - BMC",15-02-2024 14:00:00,19.083694,72.920967,PM2.5,68,148,91
India,Maharashtra,Mumbai,"Kandivali East, Mumbai - MPCB",15-02-2024 14:00:00,19.205800,72.868200,NO2,60,174,98
India,Maharashtra,Mumbai,"Kandivali East, Mumbai - MPCB",15-02-2024 14:00:00,19.205800,72.868200,NH3,6,11,7
India,Maharashtra,Mumbai,"Kandivali East, Mumbai - MPCB",15-02-2024 14:00:00,19.205800,72.868200,SO2,64,69,66
India,Maharashtra,Mumbai,"Kandivali East, Mumbai - MPCB",15-02-2024 14:00:00,19.205800,72.868200,OZONE,29,31,30
India,Maharashtra,Mumbai,"Kandivali West, Mumbai - BMC",15-02-2024 14:00:00,19.215859,72.831718,PM10,84,115,98
India,Maharashtra,Mumbai,"Kandivali West, Mumbai - BMC",15-02-2024 14:00:00,19.215859,72.831718,CO,16,34,30
India,Maharashtra,Mumbai,"Kherwadi_Bandra East, Mumbai - MPCB",15-02-2024 14:00:00,19.0632143,72.8456324,CO,16,92,56
India,Maharashtra,Mumbai,"Khindipada-Bhandup West, Mumbai - IITM",15-02-2024 14:00:00,19.1653323,72.922099,PM2.5,69,192,114
India,Maharashtra,Mumbai,"Kurla, Mumbai - MPCB",15-02-2024 14:00:00,19.0863,72.8888,NO2,15,42,29
India,Maharashtra,Mumbai,"Malad West, Mumbai - IITM",15-02-2024 14:00:00,19.19709,72.82204,PM10,95,169,126
India,Maharashtra,Mumbai,"Mazgaon, Mumbai - IITM",15-02-2024 14:00:00,18.96702,72.84214,NO2,28,209,135
India,Maharashtra,Mumbai,"Mindspace-Malad West, Mumbai - MPCB",15-02-2024 14:00:00,19.1878657,72.8304069,SO2,7,21,12
India,Maharashtra,Mumbai,"Mulund West, Mumbai - MPCB",15-02-2024 14:00:00,19.1750,72.9419,PM2.5,23,237,63
India,Maharashtra,Mumbai,"Mulund West, Mumbai - MPCB",15-02-2024 14:00:00,19.1750,72.9419,PM10,39,121,92
India,Maharashtra,Mumbai,"Mulund West, Mumbai - MPCB",15-02-2024 14:00:00,19.1750,72.9419,CO,30,30,30
India,Maharashtra,Mumbai,"Powai, Mumbai - MPCB",15-02-2024 14:00:00,19.137500,72.915056,NH3,1,1,1
India,Maharashtra,Mumbai,"Powai, Mumbai - MPCB",15-02-2024 14:00:00,19.137500,72.915056,CO,37,44,41
India,Maharashtra,Mumbai,"Sewri, Mumbai - BMC",15-02-2024 14:00:00,19.000084,72.856730,SO2,10,28,16
India,Maharashtra,Mumbai,"Sewri, Mumbai - BMC",15-02-2024 14:00:00,19.000084,72.856730,CO,12,72,38
India,Maharashtra,Mumbai,"Sewri, Mumbai - BMC",15-02-2024 14:00:00,19.000084,72.856730,OZONE,1,93,36
India,Maharashtra,Mumbai,"Shivaji Nagar, Mumbai - BMC",15-02-2024 14:00:00,19.060498,72.923356,NH3,3,8,5
India,Maharashtra,Mumbai,"Shivaji Nagar, Mumbai - BMC",15-02-2024 14:00:00,19.060498,72.923356,SO2,11,34,22
India,Maharashtra,Mumbai,"Siddharth Nagar-Worli, Mumbai - IITM",15-02-2024 14:00:00,19.000083,72.813993,PM2.5,NA,NA,NA
India,Maharashtra,Mumbai,"Sion, Mumbai - MPCB",15-02-2024 14:00:00,19.047000,72.874600,PM10,98,157,111
India,Maharashtra,Mumbai,"Vasai West, Mumbai - MPCB",15-02-2024 14:00:00,19.383200,72.820400,PM2.5,22,62,36
India,Maharashtra,Mumbai,"Vasai West, Mumbai - MPCB",15-02-2024 14:00:00,19.383200,72.820400,NO2,26,29,27
India,Maharashtra,Mumbai,"Vile Parle West, Mumbai - MPCB",15-02-2024 14:00:00,19.10861,72.83622,SO2,13,14,14
India,Maharashtra,Mumbai,"Worli, Mumbai - MPCB",15-02-2024 14:00:00,18.9936162,72.8128113,PM10,78,158,108
India,Maharashtra,Mumbai,"Worli, Mumbai - MPCB",15-02-2024 14:00:00,18.9936162,72.8128113,CO,32,34,33
India,Maharashtra,Nagpur,"Ambazari, Nagpur - MPCB",15-02-2024 14:00:00,21.121801,79.04952,SO2,9,78,24
India,Maharashtra,Nagpur,"Opp GPO Civil Lines, Nagpur - MPCB",15-02-2024 14:00:00,21.152875,79.0517531,PM10,66,177,118
India,Maharashtra,Nagpur,"Ram Nagar, Nagpur - MPCB",15-02-2024 14:00:00,21.143383,79.048912,SO2,8,43,16
India,Maharashtra,Nashik,"Gangapur Road, Nashik - MPCB",15-02-2024 14:00:00,20.0073285,73.7762427,SO2,1,21,6
India,Maharashtra,Nashik,"Hirawadi, Nashik - MPCB",15-02-2024 14:00:00,20.021503,73.813844,PM10,48,109,76
India,Maharashtra,Nashik,"Hirawadi, Nashik - MPCB",15-02-2024 14:00:00,20.021503,73.813844,NO2,7,83,39
India,Maharashtra,Nashik,"Hirawadi, Nashik - MPCB",15-02-2024 14:00:00,20.021503,73.813844,SO2,1,37,6
India,Maharashtra,Nashik,"MIDC Ambad, Nashik - MPCB",15-02-2024 14:00:00,19.950220,73.731480,PM10,68,109,84
India,Maharashtra,Nashik,"Pandav Nagari, Nashik - MPCB",15-02-2024 14:00:00,19.9591346,73.7788008,CO,18,70,36
India,Maharashtra,Navi Mumbai,"Sanpada, Navi Mumbai - MPCB",15-02-2024 14:00:00,19.0575752,73.0151367,PM2.5,57,197,142
India,Maharashtra,Navi Mumbai,"Sector-19A Nerul, Navi Mumbai - IITM",15-02-2024 14:00:00,19.044,73.0325,CO,NA,NA,NA
India,Maharashtra,Navi Mumbai,"Sector-19A Nerul, Navi Mumbai - IITM",15-02-2024 14:00:00,19.044,73.0325,OZONE,1,167,161
India,Maharashtra,Navi Mumbai,"Tondare-Taloja, Navi Mumbai - MPCB",15-02-2024 14:00:00,19.0630,73.1209,PM2.5,56,226,107
India,Maharashtra,Navi Mumbai,"Tondare-Taloja, Navi Mumbai - MPCB",15-02-2024 14:00:00,19.0630,73.1209,PM10,97,164,123
India,Maharashtra,Navi Mumbai,"Tondare-Taloja, Navi Mumbai - MPCB",15-02-2024 14:00:00,19.0630,73.1209,NO2,21,113,56
India,Maharashtra,Navi Mumbai,"Tondare-Taloja, Navi Mumbai - MPCB",15-02-2024 14:00:00,19.0630,73.1209,NH3,NA,NA,NA
India,Maharashtra,Navi Mumbai,"Tondare-Taloja, Navi Mumbai - MPCB",15-02-2024 14:00:00,19.0630,73.1209,CO,4,110,46
India,Maharashtra,Navi Mumbai,"Tondare-Taloja, Navi Mumbai - MPCB",15-02-2024 14:00:00,19.0630,73.1209,OZONE,22,134,73
India,Maharashtra,Pimpri-Chinchwad,"Gavalinagar, Pimpri Chinchwad - MPCB",15-02-2024 14:00:00,18.63673,73.82487,NO2,6,104,61
India,Maharashtra,Pimpri-Chinchwad,"Gavalinagar, Pimpri Chinchwad - MPCB",15-02-2024 14:00:00,18.63673,73.82487,NH3,1,23,7
India,Maharashtra,Pimpri-Chinchwad,"Park Street Wakad, Pimpri Chinchwad - MPCB",15-02-2024 14:00:00,18.59051,73.77946,NO2,66,151,108
India,Maharashtra,Pimpri-Chinchwad,"Park Street Wakad, Pimpri Chinchwad - MPCB",15-02-2024 14:00:00,18.59051,73.77946,SO2,4,20,10
India,Maharashtra,Pimpri-Chinchwad,"Park Street Wakad, Pimpri Chinchwad - MPCB",15-02-2024 14:00:00,18.59051,73.77946,CO,21,122,59
India,Maharashtra,Pimpri-Chinchwad,"Thergaon, Pimpri Chinchwad - MPCB",15-02-2024 14:00:00,18.616318,73.765797,PM10,104,362,165
India,Maharashtra,Pimpri-Chinchwad,"Thergaon, Pimpri Chinchwad - MPCB",15-02-2024 14:00:00,18.616318,73.765797,SO2,3,20,8
India,Maharashtra,Pune,"Katraj Dairy, Pune - MPCB",15-02-2024 14:00:00,18.454450,73.854155,NO2,34,71,51
India,Maharashtra,Pune,"Katraj Dairy, Pune - MPCB",15-02-2024 14:00:00,18.454450,73.854155,SO2,1,18,8
India,Maharashtra,Pune,"Mhada Colony, Pune - IITM",15-02-2024 14:00:00,18.573040,73.927715,PM10,85,136,114
India,Maharashtra,Pune,"Mhada Colony, Pune - IITM",15-02-2024 14:00:00,18.573040,73.927715,CO,12,94,65
India,Maharashtra,Pune,"Mhada Colony, Pune - IITM",15-02-2024 14:00:00,18.573040,73.927715,OZONE,12,33,21
India,Maharashtra,Pune,"Revenue Colony-Shivajinagar, Pune - IITM",15-02-2024 14:00:00,18.530085,73.849598,SO2,83,121,106
India,Maharashtra,Pune,"Savitribai Phule Pune University, Pune - MPCB",15-02-2024 14:00:00,18.547056,73.826908,PM10,107,189,151
India,Maharashtra,Pune,"Transport Nagar-Nigdi, Pune - IITM",15-02-2024 14:00:00,18.664282,73.763966,PM10,59,204,120
India,Maharashtra,Sangli,"Vijay Nagar, Sangli - MPCB",15-02-2024 14:00:00, 16.5038,74.3623,PM2.5,60,317,198
India,Maharashtra,Sangli,"Vijay Nagar, Sangli - MPCB",15-02-2024 14:00:00, 16.5038,74.3623,NO2,4,137,56
India,Maharashtra,Sangli,"Vijay Nagar, Sangli - MPCB",15-02-2024 14:00:00, 16.5038,74.3623,NH3,1,5,3
India,Maharashtra,Sangli,"Vijay Nagar, Sangli - MPCB",15-02-2024 14:00:00, 16.5038,74.3623,OZONE,30,41,31
India,Maharashtra,Solapur,"Ratandeep Housing Society, Solapur - MPCB",15-02-2024 14:00:00,17.65439,75.90649,PM2.5,52,168,88
India,Maharashtra,Solapur,"Ratandeep Housing Society, Solapur - MPCB",15-02-2024 14:00:00,17.65439,75.90649,NH3,1,9,4
India,Maharashtra,Solapur,"Ratandeep Housing Society, Solapur - MPCB",15-02-2024 14:00:00,17.65439,75.90649,OZONE,3,135,71
India,Maharashtra,Thane,"Kasarvadavali, Thane - MPCB",15-02-2024 14:00:00,19.26777,72.97182,PM10,93,102,99
India,Maharashtra,Thane,"Pimpleshwar Mandir, Thane - MPCB",15-02-2024 14:00:00,19.192056,72.9585188,CO,44,116,100
India,Maharashtra,Thane,"Upvan Fort, Thane - MPCB",15-02-2024 14:00:00,19.222279,72.957979,PM2.5,65,186,104
India,Maharashtra,Thane,"Upvan Fort, Thane - MPCB",15-02-2024 14:00:00,19.222279,72.957979,PM10,83,150,122
India,Maharashtra,Ulhasnagar,"Sidhi Vinayak Nagar, Ulhasnagar - MPCB",15-02-2024 14:00:00,19.235581,73.159121,NO2,9,47,23
India,Maharashtra,Ulhasnagar,"Sidhi Vinayak Nagar, Ulhasnagar - MPCB",15-02-2024 14:00:00,19.235581,73.159121,OZONE,12,100,59
India,Maharashtra,Virar,"Bolinj, Virar - MPCB",15-02-2024 14:00:00,19.4458210,72.7988231,PM10,111,151,129
India,Manipur,Imphal,"DM College of Science, Imphal - Manipur PCB",15-02-2024 14:00:00,24.8207389,93.9423085,SO2,80,85,83
India,Manipur,Imphal,"Manipur University, Imphal - Manipur PCB",15-02-2024 14:00:00,24.7524239,93.9286218,CO,12,74,25
India,Meghalaya,Shillong,"Lumpyngngad, Shillong - Meghalaya PCB",15-02-2024 14:00:00,25.5586,91.8985,SO2,43,47,45
India,Mizoram,Aizawl,"Sikulpuikawn, Aizawl - Mizoram PCB",15-02-2024 14:00:00,23.7176342,92.7192841,OZONE,12,48,27
India,Odisha,Barbil,"Forest Office, Barbil - OSPCB",15-02-2024 14:00:00,22.1166054,85.3945546,PM2.5,35,333,117
India,Odisha,Baripada,"Meher Colony, Baripada - OSPCB",15-02-2024 14:00:00,21.941841,86.728318,NO2,NA,NA,NA
India,Odisha,Baripada,"Meher Colony, Baripada - OSPCB",15-02-2024 14:00:00,21.941841,86.728318,NH3,NA,NA,NA
India,Odisha,Baripada,"Meher Colony, Baripada - OSPCB",15-02-2024 14:00:00,21.941841,86.728318,SO2,NA,NA,NA
India,Odisha,Bhubaneswar,"Lingraj Mandir, Bhubaneswar - OSPCB",15-02-2024 14:00:00,20.240790,85.836784,PM2.5,83,167,127
India,Odisha,Bhubaneswar,"Lingraj Mandir, Bhubaneswar - OSPCB",15-02-2024 14:00:00,20.240790,85.836784,CO,18,64,50
India,Odisha,Bhubaneswar,"Patia, Bhubaneswar - OSPCB",15-02-2024 14:00:00,20.34652,85.81630,NO2,7,31,17
India,Odisha,Brajrajnagar,"GM Office, Brajrajnagar - OSPCB",15-02-2024 14:00:00,21.8004996,83.8396977,PM2.5,31,234,74
India,Odisha,Brajrajnagar,"GM Office, Brajrajnagar - OSPCB",15-02-2024 14:00:00,21.8004996,83.8396977,NO2,16,21,19
India,Odisha,Byasanagar,"Ferro Chrome Colony, Byasanagar - OSPCB",15-02-2024 14:00:00,20.94185,86.11510,SO2,4,20,9
India,Odisha,Byasanagar,"Ferro Chrome Colony, Byasanagar - OSPCB",15-02-2024 14:00:00,20.94185,86.11510,OZONE,50,163,101
India,Odisha,Cuttack,"CDA Area, Cuttack - OSPCB",15-02-2024 14:00:00,20.48891     ,85.84768     ,CO,36,60,41
India,Odisha,Rourkela,"Fertilizer Township, Rourkela - OSPCB",15-02-2024 14:00:00,22.18972222,84.86277778,NO2,5,68,25
India,Odisha,Rourkela,"Fertilizer Township, Rourkela - OSPCB",15-02-2024 14:00:00,22.18972222,84.86277778,SO2,12,14,12
India,Odisha,Rourkela,"Fertilizer Township, Rourkela - OSPCB",15-02-2024 14:00:00,22.18972222,84.86277778,CO,15,23,21
India,Odisha,Rourkela,"Raghunathpali, Rourkela - OSPCB",15-02-2024 14:00:00,22.220833,84.809444,NO2,20,133,53
India,Odisha,Rourkela,"Sector-2, Rourkela - OSPCB",15-02-2024 14:00:00,22.24500000,84.88111111,PM10,104,135,117
India,Odisha,Suakati,"OMC Colony, Suakati - OSPCB",15-02-2024 14:00:00,21.606865,85.510538,PM10,74,169,109
India,Odisha,Suakati,"OMC Colony, Suakati - OSPCB",15-02-2024 14:00:00,21.606865,85.510538,SO2,1,7,4
India,Odisha,Talcher,"Talcher Coalfields,Talcher - OSPCB",15-02-2024 14:00:00,20.9360711,85.1707021,PM10,58,142,93
India,Odisha,Talcher,"Talcher Coalfields,Talcher - OSPCB",15-02-2024 14:00:00,20.9360711,85.1707021,SO2,9,100,33
India,Puducherry,Puducherry,"Jawahar Nagar, Puducherry - PPCC",15-02-2024 14:00:00,11.9309,79.8027,PM10,36,85,55
India,Puducherry,Puducherry,"Jawahar Nagar, Puducherry - PPCC",15-02-2024 14:00:00,11.9309,79.8027,OZONE,13,55,34
India,Punjab,Amritsar,"Golden Temple, Amritsar - PPCB",15-02-2024 14:00:00,31.620000,74.876512,PM2.5,62,319,170
India,Punjab,Amritsar,"Golden Temple, Amritsar - PPCB",15-02-2024 14:00:00,31.620000,74.876512,NH3,4,6,5
India,Punjab,Amritsar,"Golden Temple, Amritsar - PPCB",15-02-2024 14:00:00,31.620000,74.876512,SO2,11,65,25
India,Punjab,Amritsar,"Golden Temple, Amritsar - PPCB",15-02-2024 14:00:00,31.620000,74.876512,OZONE,25,34,29
India,Punjab,Bathinda,"Hardev Nagar, Bathinda - PPCB",15-02-2024 14:00:00,30.233011,74.907758,SO2,5,102,34
India,Punjab,Jalandhar,"Civil Line, Jalandhar - PPCB",15-02-2024 14:00:00,31.321907,75.578914,PM10,71,147,116
India,Punjab,Jalandhar,"Civil Line, Jalandhar - PPCB",15-02-2024 14:00:00,31.321907,75.578914,NH3,2,2,2
India,Punjab,Khanna,"Kalal Majra, Khanna - PPCB",15-02-2024 14:00:00,30.736056 ,76.209694,PM10,50,230,116
India,Punjab,Khanna,"Kalal Majra, Khanna - PPCB",15-02-2024 14:00:00,30.736056 ,76.209694,OZONE,4,104,24
India,Punjab,Ludhiana,"Punjab Agricultural University, Ludhiana - PPCB",15-02-2024 14:00:00,30.9028,75.8086,CO,12,109,67
India,Punjab,Ludhiana,"Punjab Agricultural University, Ludhiana - PPCB",15-02-2024 14:00:00,30.9028,75.8086,OZONE,11,60,21
India,Punjab,Mandi Gobindgarh,"RIMT University, Mandi Gobindgarh - PPCB",15-02-2024 14:00:00,30.649961,76.331442,SO2,6,52,18
India,Punjab,Mandi Gobindgarh,"RIMT University, Mandi Gobindgarh - PPCB",15-02-2024 14:00:00,30.649961,76.331442,OZONE,29,33,33
India,Punjab,Patiala,"Model Town, Patiala - PPCB",15-02-2024 14:00:00,30.349388,76.366642,OZONE,4,100,39
India,Punjab,Rupnagar,"Ratanpura, Rupnagar - Ambuja Cements",15-02-2024 14:00:00,31.0325454,76.5623046,PM10,33,229,104
India,Rajasthan,Ajmer,"Civil Lines,  Ajmer - RSPCB",15-02-2024 14:00:00,26.470859,74.646594,PM2.5,55,136,78
India,Rajasthan,Alwar,"Moti Doongri, Alwar - RSPCB",15-02-2024 14:00:00,27.554793,76.611536,CO,28,106,61
India,Rajasthan,Bhiwadi,"RIICO Ind. Area III, Bhiwadi - RSPCB",15-02-2024 14:00:00,28.194909,76.862296,PM2.5,195,390,325
India,Rajasthan,Bhiwadi,"RIICO Ind. Area III, Bhiwadi - RSPCB",15-02-2024 14:00:00,28.194909,76.862296,PM10,133,287,216
India,Rajasthan,Bhiwadi,"RIICO Ind. Area III, Bhiwadi - RSPCB",15-02-2024 14:00:00,28.194909,76.862296,CO,2,107,69
India,Rajasthan,Bhiwadi,"RIICO Ind. Area III, Bhiwadi - RSPCB",15-02-2024 14:00:00,28.194909,76.862296,OZONE,9,45,30
India,Rajasthan,Dholpur,"Raja Ganj, Dholpur - RSPCB",15-02-2024 14:00:00,26.699557,77.898881,PM10,NA,NA,NA
India,Rajasthan,Dholpur,"Raja Ganj, Dholpur - RSPCB",15-02-2024 14:00:00,26.699557,77.898881,NO2,NA,NA,NA
India,Rajasthan,Dholpur,"Raja Ganj, Dholpur - RSPCB",15-02-2024 14:00:00,26.699557,77.898881,NH3,NA,NA,NA
India,Rajasthan,Dholpur,"Raja Ganj, Dholpur - RSPCB",15-02-2024 14:00:00,26.699557,77.898881,CO,40,40,40
India,Rajasthan,Hanumangarh,"Housing Board, Hanumangarh - RSPCB",15-02-2024 14:00:00,29.610750,74.283608,PM10,174,494,320
India,Rajasthan,Hanumangarh,"Housing Board, Hanumangarh - RSPCB",15-02-2024 14:00:00,29.610750,74.283608,OZONE,1,47,14
India,Rajasthan,Jaipur,"Adarsh Nagar, Jaipur - RSPCB",15-02-2024 14:00:00,26.902909,75.836858,NH3,3,12,6
India,Rajasthan,Jaipur,"Adarsh Nagar, Jaipur - RSPCB",15-02-2024 14:00:00,26.902909,75.836858,SO2,4,23,12
India,Rajasthan,Jaipur,"Adarsh Nagar, Jaipur - RSPCB",15-02-2024 14:00:00,26.902909,75.836858,OZONE,12,78,51
India,Rajasthan,Jaipur,"Police Commissionerate, Jaipur - RSPCB",15-02-2024 14:00:00,26.9164092,75.7994901,CO,24,88,39
India,Rajasthan,Jaipur,"Police Commissionerate, Jaipur - RSPCB",15-02-2024 14:00:00,26.9164092,75.7994901,OZONE,12,136,79
India,Rajasthan,Jaipur,"Shastri Nagar, Jaipur - RSPCB",15-02-2024 14:00:00,26.9502929,75.730943,SO2,8,37,22
India,Rajasthan,Jalore,"Mudtra Sili, Jalore - RSPCB",15-02-2024 14:00:00,25.344694,72.626208,NH3,NA,NA,NA
India,Rajasthan,Jalore,"Mudtra Sili, Jalore - RSPCB",15-02-2024 14:00:00,25.344694,72.626208,SO2,NA,NA,NA
India,Rajasthan,Jodhpur,"Collectorate, Jodhpur - RSPCB",15-02-2024 14:00:00,26.268249,73.0193853,PM2.5,49,171,98
India,Rajasthan,Kota,"Shrinath Puram, Kota - RSPCB",15-02-2024 14:00:00,25.14389,75.821256,CO,2,52,19
India,Rajasthan,Pali,"Indira Colony Vistar, Pali - RSPCB",15-02-2024 14:00:00,25.771061, 73.340227,NO2,18,71,41
India,Rajasthan,Rajsamand,"Dhoinda, Rajsamand - RSPCB",15-02-2024 14:00:00,25.036360,73.883502,NO2,NA,NA,NA
India,Sikkim,Gangtok,"Zero Point GICI, Gangtok - SSPCB",15-02-2024 14:00:00,27.338530,88.614099,NH3,1,1,1
India,Sikkim,Gangtok,"Zero Point GICI, Gangtok - SSPCB",15-02-2024 14:00:00,27.338530,88.614099,SO2,9,10,10
India,TamilNadu,Chengalpattu,"Crescent University, Chengalpattu - TNPCB",15-02-2024 14:00:00,12.8777316,80.0834807,SO2,24,25,25
India,TamilNadu,Chennai,"Arumbakkam, Chennai - TNPCB",15-02-2024 14:00:00,13.0664,80.2112 ,PM10,NA,NA,NA
India,TamilNadu,Chennai,"Gandhi Nagar_Ennore, Chennai - TNPCB",15-02-2024 14:00:00,13.218341,80.32027,NO2,NA,NA,NA
India,TamilNadu,Chennai,"Gandhi Nagar_Ennore, Chennai - TNPCB",15-02-2024 14:00:00,13.218341,80.32027,NH3,NA,NA,NA
India,TamilNadu,Chennai,"Kodungaiyur, Chennai - TNPCB",15-02-2024 14:00:00,13.1278,80.2642,PM2.5,15,75,38
India,TamilNadu,Chennai,"Kodungaiyur, Chennai - TNPCB",15-02-2024 14:00:00,13.1278,80.2642,PM10,68,152,91
India,TamilNadu,Chennai,"Kodungaiyur, Chennai - TNPCB",15-02-2024 14:00:00,13.1278,80.2642,NO2,6,24,14
India,TamilNadu,Chennai,"Kodungaiyur, Chennai - TNPCB",15-02-2024 14:00:00,13.1278,80.2642,CO,26,42,33
India,TamilNadu,Chennai,"Manali, Chennai - CPCB",15-02-2024 14:00:00,13.164544,80.26285,PM10,53,106,77
India,TamilNadu,Chennai,"Manali, Chennai - CPCB",15-02-2024 14:00:00,13.164544,80.26285,OZONE,10,29,20
India,TamilNadu,Chennai,"Perungudi, Chennai - TNPCB",15-02-2024 14:00:00,12.9533,80.2357,NO2,2,13,5
India,TamilNadu,Chennai,"Perungudi, Chennai - TNPCB",15-02-2024 14:00:00,12.9533,80.2357,CO,4,48,27
India,TamilNadu,Chennai,"Perungudi, Chennai - TNPCB",15-02-2024 14:00:00,12.9533,80.2357,OZONE,3,9,5
India,TamilNadu,Chennai,"Royapuram, Chennai - TNPCB",15-02-2024 14:00:00,13.1036,80.2909,PM10,41,146,74
India,TamilNadu,Coimbatore,"PSG College of Arts and Science, Coimbatore - TNPCB",15-02-2024 14:00:00,11.0328,77.0349,CO,76,78,77
India,TamilNadu,Cuddalore,"Kudikadu, Cuddalore - TNPCB",15-02-2024 14:00:00,11.6829898,79.7532099,PM2.5,24,96,65
India,TamilNadu,Cuddalore,"Kudikadu, Cuddalore - TNPCB",15-02-2024 14:00:00,11.6829898,79.7532099,NH3,4,5,4
India,TamilNadu,Gummidipoondi,"Anthoni Pillai Nagar, Gummidipoondi - TNPCB",15-02-2024 14:00:00,13.4127,80.1081,PM10,50,170,98
India,TamilNadu,Ooty,"Bombay Castel, Ooty - TNPCB",15-02-2024 14:00:00,11.4068288,76.7138973,PM10,NA,NA,NA
India,TamilNadu,Palkalaiperur,"Bharathidasan University, Palkalaiperur - TNPCB",15-02-2024 14:00:00,10.681158,78.741746,CO,1,10,4
India,TamilNadu,Ramanathapuram,"Chalai Bazaar, Ramanathapuram - TNPCB",15-02-2024 14:00:00,9.36399,78.831977,SO2,3,19,7
India,TamilNadu,Ramanathapuram,"Chalai Bazaar, Ramanathapuram - TNPCB",15-02-2024 14:00:00,9.36399,78.831977,CO,4,14,11
India,TamilNadu,Ramanathapuram,"Chalai Bazaar, Ramanathapuram - TNPCB",15-02-2024 14:00:00,9.36399,78.831977,OZONE,13,14,13
India,TamilNadu,Salem,"Sona College of Technology, Salem - TNPCB",15-02-2024 14:00:00,11.679111,78.125052,PM10,NA,NA,NA
India,TamilNadu,Tirupur,"Kumaran College, Tirupur - TNPCB",15-02-2024 14:00:00,11.0973603,77.3228673,PM2.5,21,61,37
India,TamilNadu,Tirupur,"Kumaran College, Tirupur - TNPCB",15-02-2024 14:00:00,11.0973603,77.3228673,SO2,16,18,18
India,TamilNadu,Tirupur,"Kumaran College, Tirupur - TNPCB",15-02-2024 14:00:00,11.0973603,77.3228673,CO,27,108,44
India,TamilNadu,Tirupur,"Kumaran College, Tirupur - TNPCB",15-02-2024 14:00:00,11.0973603,77.3228673,OZONE,6,7,7
India,TamilNadu,Vellore,"Vasanthapuram, Vellore - TNPCB",15-02-2024 14:00:00,12.909494,79.131861,PM10,NA,NA,NA
India,TamilNadu,Vellore,"Vasanthapuram, Vellore - TNPCB",15-02-2024 14:00:00,12.909494,79.131861,SO2,NA,NA,NA
India,Telangana,Hyderabad,"ECIL Kapra, Hyderabad - TSPCB",15-02-2024 14:00:00,17.470431,78.566959,NO2,9,11,10
India,Telangana,Hyderabad,"ECIL Kapra, Hyderabad - TSPCB",15-02-2024 14:00:00,17.470431,78.566959,SO2,2,18,9
India,Telangana,Hyderabad,"ICRISAT Patancheru, Hyderabad - TSPCB",15-02-2024 14:00:00,17.518400,78.278777,NO2,16,18,17
India,Telangana,Hyderabad,"IITH Kandi, Hyderabad - TSPCB",15-02-2024 14:00:00,17.585705,78.126199,NO2,11,13,11
India,Telangana,Hyderabad,"IITH Kandi, Hyderabad - TSPCB",15-02-2024 14:00:00,17.585705,78.126199,SO2,14,16,15
India,Telangana,Hyderabad,"IITH Kandi, Hyderabad - TSPCB",15-02-2024 14:00:00,17.585705,78.126199,CO,7,28,21
India,Telangana,Hyderabad,"Kokapet, Hyderabad - TSPCB",15-02-2024 14:00:00,17.393559,78.339194,PM2.5,46,58,50
India,Telangana,Hyderabad,"Kokapet, Hyderabad - TSPCB",15-02-2024 14:00:00,17.393559,78.339194,CO,12,12,12
India,Telangana,Hyderabad,"Kompally Municipal Office, Hyderabad - TSPCB",15-02-2024 14:00:00,17.544899,78.486949,NH3,6,7,6
India,Telangana,Hyderabad,"Kompally Municipal Office, Hyderabad - TSPCB",15-02-2024 14:00:00,17.544899,78.486949,SO2,3,14,6
India,Telangana,Hyderabad,"Nacharam_TSIIC IALA, Hyderabad - TSPCB",15-02-2024 14:00:00,17.429398,78.569354,CO,30,34,32
India,Telangana,Hyderabad,"New Malakpet, Hyderabad - TSPCB",15-02-2024 14:00:00,17.37206,78.50864,PM2.5,18,57,32
India,Telangana,Hyderabad,"New Malakpet, Hyderabad - TSPCB",15-02-2024 14:00:00,17.37206,78.50864,PM10,56,86,63
India,Telangana,Hyderabad,"Sanathnagar, Hyderabad - TSPCB",15-02-2024 14:00:00,17.4559458,78.4332152,SO2,2,8,6
India,Telangana,Hyderabad,"Somajiguda, Hyderabad - TSPCB",15-02-2024 14:00:00,17.417094,78.457437,NH3,5,5,5
India,Telangana,Hyderabad,"Somajiguda, Hyderabad - TSPCB",15-02-2024 14:00:00,17.417094,78.457437,SO2,8,15,11
India,Telangana,Hyderabad,"Zoo Park, Hyderabad - TSPCB",15-02-2024 14:00:00,17.349694,78.451437,SO2,1,7,4
India,Tripura,Agartala,"Bardowali, Agartala - Tripura SPCB",15-02-2024 14:00:00,23.8175497,91.2726974,PM2.5,103,341,252
India,Tripura,Agartala,"Bardowali, Agartala - Tripura SPCB",15-02-2024 14:00:00,23.8175497,91.2726974,NH3,3,4,4
India,Tripura,Agartala,"Bardowali, Agartala - Tripura SPCB",15-02-2024 14:00:00,23.8175497,91.2726974,OZONE,1,16,7
India,Uttar_Pradesh,Agra,"Manoharpur, Agra - UPPCB",15-02-2024 14:00:00,27.23711,78.01936,PM2.5,45,79,61
India,Uttar_Pradesh,Agra,"Manoharpur, Agra - UPPCB",15-02-2024 14:00:00,27.23711,78.01936,CO,12,18,16
India,Uttar_Pradesh,Agra,"Rohta, Agra - UPPCB",15-02-2024 14:00:00,27.106972,78.000111,PM10,8,146,90
India,Uttar_Pradesh,Agra,"Rohta, Agra - UPPCB",15-02-2024 14:00:00,27.106972,78.000111,CO,11,40,18
India,Uttar_Pradesh,Agra,"Rohta, Agra - UPPCB",15-02-2024 14:00:00,27.106972,78.000111,OZONE,21,22,22
India,Uttar_Pradesh,Agra,"Sanjay Palace, Agra - UPPCB",15-02-2024 14:00:00,27.19865833,78.00598056,OZONE,1,17,12
India,Uttar_Pradesh,Agra,"Sector-3B Avas Vikas Colony, Agra - UPPCB",15-02-2024 14:00:00,27.19412,77.96237,SO2,15,22,16
India,Uttar_Pradesh,Agra,"Shahjahan Garden, Agra - UPPCB",15-02-2024 14:00:00,27.169338,78.03582,NH3,1,14,12
India,Uttar_Pradesh,Agra,"Shahjahan Garden, Agra - UPPCB",15-02-2024 14:00:00,27.169338,78.03582,CO,10,42,16
India,Uttar_Pradesh,Baghpat,"Sardar Patel Inter College, Baghpat - UPPCB",15-02-2024 14:00:00,28.964949,77.278761,OZONE,2,36,15
India,Uttar_Pradesh,Bareilly,"Civil Lines, Bareilly - UPPCB",15-02-2024 14:00:00,28.359581,79.414455,CO,16,49,44
India,Uttar_Pradesh,Bareilly,"Rajendra Nagar, Bareilly - UPPCB",15-02-2024 14:00:00,28.38910936,79.42963708,NH3,1,1,1
India,Uttar_Pradesh,Bulandshahr,"Yamunapuram, Bulandshahr - UPPCB",15-02-2024 14:00:00,28.406963,77.849831,PM10,129,254,177
India,Uttar_Pradesh,Firozabad,"Nagla Bhau, Firozabad - UPPCB",15-02-2024 14:00:00,27.168897,78.376960,CO,2,26,17
India,Uttar_Pradesh,Ghaziabad,"Indirapuram, Ghaziabad - UPPCB",15-02-2024 14:00:00,28.646233,77.358075,NO2,97,163,128
India,Uttar_Pradesh,Ghaziabad,"Indirapuram, Ghaziabad - UPPCB",15-02-2024 14:00:00,28.646233,77.358075,CO,14,88,30
India,Uttar_Pradesh,Ghaziabad,"Indirapuram, Ghaziabad - UPPCB",15-02-2024 14:00:00,28.646233,77.358075,OZONE,5,30,14
India,Uttar_Pradesh,Ghaziabad,"Loni, Ghaziabad - UPPCB",15-02-2024 14:00:00,28.757294,77.278792,SO2,NA,NA,NA
India,Uttar_Pradesh,Ghaziabad,"Sanjay Nagar, Ghaziabad - UPPCB",15-02-2024 14:00:00,28.685382,77.453839,PM2.5,166,323,247
India,Uttar_Pradesh,Ghaziabad,"Vasundhara, Ghaziabad - UPPCB",15-02-2024 14:00:00,28.6603346,77.3572563,NO2,36,158,86
India,Uttar_Pradesh,Ghaziabad,"Vasundhara, Ghaziabad - UPPCB",15-02-2024 14:00:00,28.6603346,77.3572563,CO,9,102,51
India,Uttar_Pradesh,Gorakhpur,"Madan Mohan Malaviya University of Technology, Gorakhpur - UPPCB",15-02-2024 14:00:00,26.730136,83.433859,OZONE,2,32,10
India,Uttar_Pradesh,Greater Noida,"Knowledge Park - III, Greater Noida - UPPCB",15-02-2024 14:00:00,28.47272,77.482000,PM2.5,304,366,337
India,Uttar_Pradesh,Greater Noida,"Knowledge Park - V, Greater Noida - UPPCB",15-02-2024 14:00:00,28.557054,77.453663,NH3,4,9,5
India,Uttar_Pradesh,Greater Noida,"Knowledge Park - V, Greater Noida - UPPCB",15-02-2024 14:00:00,28.557054,77.453663,CO,2,192,97
India,Uttar_Pradesh,Greater Noida,"Knowledge Park - V, Greater Noida - UPPCB",15-02-2024 14:00:00,28.557054,77.453663,OZONE,4,219,180
India,Uttar_Pradesh,Hapur,"Anand Vihar, Hapur - UPPCB",15-02-2024 14:00:00,28.725645,77.749675,CO,38,80,51
India,Uttar_Pradesh,Hapur,"Anand Vihar, Hapur - UPPCB",15-02-2024 14:00:00,28.725645,77.749675,OZONE,12,176,175
India,Uttar_Pradesh,Jhansi,"Shivaji Nagar, Jhansi - UPPCB",15-02-2024 14:00:00,25.4547,78.6039,PM10,91,186,126
India,Uttar_Pradesh,Jhansi,"Shivaji Nagar, Jhansi - UPPCB",15-02-2024 14:00:00,25.4547,78.6039,SO2,11,12,11
India,Uttar_Pradesh,Jhansi,"Shivaji Nagar, Jhansi - UPPCB",15-02-2024 14:00:00,25.4547,78.6039,CO,22,66,35
India,Uttar_Pradesh,Kanpur,"FTI Kidwai Nagar, Kanpur - UPPCB",15-02-2024 14:00:00,26.428282,80.327067,PM2.5,37,261,143
India,Uttar_Pradesh,Kanpur,"FTI Kidwai Nagar, Kanpur - UPPCB",15-02-2024 14:00:00,26.428282,80.327067,PM10,55,279,152
India,Uttar_Pradesh,Kanpur,"FTI Kidwai Nagar, Kanpur - UPPCB",15-02-2024 14:00:00,26.428282,80.327067,SO2,23,27,25
India,Uttar_Pradesh,Kanpur,"NSI Kalyanpur, Kanpur - UPPCB",15-02-2024 14:00:00,26.509954,80.249612,NH3,2,3,2
India,Uttar_Pradesh,Kanpur,"Nehru Nagar, Kanpur - UPPCB",15-02-2024 14:00:00,26.4703136,80.3229863,CO,24,108,49
India,Uttar_Pradesh,Khurja,"Kalindi Kunj, Khurja - UPPCB",15-02-2024 14:00:00,28.2348927,77.8683002,PM2.5,20,186,99
India,Uttar_Pradesh,Khurja,"Kalindi Kunj, Khurja - UPPCB",15-02-2024 14:00:00,28.2348927,77.8683002,NO2,22,54,34
India,Uttar_Pradesh,Lucknow,"B R Ambedkar University, Lucknow - UPPCB",15-02-2024 14:00:00,26.766433,80.927299,PM2.5,64,223,116
India,Uttar_Pradesh,Lucknow,"Gomti Nagar, Lucknow - UPPCB",15-02-2024 14:00:00,26.868120,81.005119,PM2.5,30,97,56
India,Uttar_Pradesh,Lucknow,"Kendriya Vidyalaya, Lucknow - CPCB",15-02-2024 14:00:00,26.906111,80.948222,PM2.5,77,319,210
India,Uttar_Pradesh,Lucknow,"Kendriya Vidyalaya, Lucknow - CPCB",15-02-2024 14:00:00,26.906111,80.948222,NH3,3,20,14
India,Uttar_Pradesh,Lucknow,"Kendriya Vidyalaya, Lucknow - CPCB",15-02-2024 14:00:00,26.906111,80.948222,OZONE,2,68,25
India,Uttar_Pradesh,Lucknow,"Kukrail Picnic Spot-1, Lucknow - UPPCB",15-02-2024 14:00:00,26.90723,80.98579,CO,29,49,44
India,Uttar_Pradesh,Lucknow,"Lalbagh, Lucknow - CPCB",15-02-2024 14:00:00,26.8458805,80.9365541,PM2.5,145,320,244
India,Uttar_Pradesh,Meerut,"Ganga Nagar, Meerut - UPPCB",15-02-2024 14:00:00,28.999264,77.7590354,PM10,110,188,141
India,Uttar_Pradesh,Meerut,"Ganga Nagar, Meerut - UPPCB",15-02-2024 14:00:00,28.999264,77.7590354,NH3,13,22,17
India,Uttar_Pradesh,Meerut,"Jai Bhim Nagar, Meerut - UPPCB",15-02-2024 14:00:00,28.9535882,77.7622941,PM2.5,98,234,155
India,Uttar_Pradesh,Moradabad,"Buddhi Vihar, Moradabad - UPPCB",15-02-2024 14:00:00,28.83526,78.74460,PM2.5,34,149,90
India,Uttar_Pradesh,Moradabad,"Buddhi Vihar, Moradabad - UPPCB",15-02-2024 14:00:00,28.83526,78.74460,NH3,2,2,2
India,Uttar_Pradesh,Moradabad,"Buddhi Vihar, Moradabad - UPPCB",15-02-2024 14:00:00,28.83526,78.74460,SO2,15,25,18
India,Uttar_Pradesh,Moradabad,"Employment Office, Moradabad - UPPCB",15-02-2024 14:00:00,28.88528,78.73880,PM10,59,193,141
India,Uttar_Pradesh,Moradabad,"Employment Office, Moradabad - UPPCB",15-02-2024 14:00:00,28.88528,78.73880,OZONE,12,27,14
India,Uttar_Pradesh,Moradabad,"Jigar Colony, Moradabad - UPPCB",15-02-2024 14:00:00,28.856664,78.772638,OZONE,20,32,23
India,Uttar_Pradesh,Moradabad,"Kashiram Nagar, Moradabad - UPPCB",15-02-2024 14:00:00,28.849399,78.742362,OZONE,15,64,24
India,Uttar_Pradesh,Moradabad,"Transport Nagar, Moradabad - UPPCB",15-02-2024 14:00:00,28.802625,78.753728,NH3,6,6,6
India,Uttar_Pradesh,Muzaffarnagar,"New Mandi, Muzaffarnagar - UPPCB",15-02-2024 14:00:00,29.4723508,77.7194031,CO,36,82,59
India,Uttar_Pradesh,Noida,"Sector - 125, Noida - UPPCB",15-02-2024 14:00:00,28.5447608,77.3231257,NH3,4,14,10
India,Uttar_Pradesh,Noida,"Sector-116, Noida - UPPCB",15-02-2024 14:00:00,28.569230,77.393848,OZONE,4,65,18
India,Uttar_Pradesh,Prayagraj,"Jhunsi, Prayagraj - UPPCB",15-02-2024 14:00:00,25.425602,81.917152,PM10,51,129,77
India,Uttar_Pradesh,Prayagraj,"Motilal Nehru NIT, Prayagraj - UPPCB",15-02-2024 14:00:00,25.494,81.863,SO2,21,23,22
India,Uttar_Pradesh,Prayagraj,"Motilal Nehru NIT, Prayagraj - UPPCB",15-02-2024 14:00:00,25.494,81.863,CO,19,57,27
India,Uttar_Pradesh,Prayagraj,"Nagar Nigam, Prayagraj - UPPCB",15-02-2024 14:00:00,25.44919916 ,81.82735986 ,PM2.5,64,120,79
India,Uttar_Pradesh,Prayagraj,"Nagar Nigam, Prayagraj - UPPCB",15-02-2024 14:00:00,25.44919916 ,81.82735986 ,NO2,8,12,11
India,Uttar_Pradesh,Varanasi,"Bhelupur, Varanasi - UPPCB",15-02-2024 14:00:00,25.301778,82.996789,PM2.5,12,23,16
India,Uttar_Pradesh,Varanasi,"Bhelupur, Varanasi - UPPCB",15-02-2024 14:00:00,25.301778,82.996789,NH3,1,1,1
India,Uttar_Pradesh,Varanasi,"Bhelupur, Varanasi - UPPCB",15-02-2024 14:00:00,25.301778,82.996789,CO,22,105,25
India,Uttar_Pradesh,Varanasi,"IESD Banaras Hindu University, Varanasi - UPPCB",15-02-2024 14:00:00,25.262326,82.995408,PM10,18,38,26
India,Uttar_Pradesh,Varanasi,"Maldahiya, Varanasi - UPPCB",15-02-2024 14:00:00,25.32393,82.99687,SO2,NA,NA,NA
India,Uttar_Pradesh,Vrindavan,"Omex Eternity, Vrindavan - UPPCB",15-02-2024 14:00:00,27.5714090,77.6557570,NO2,2,3,2
India,Uttarakhand,Dehradun,"Doon University, Dehradun - UKPCB",15-02-2024 14:00:00,30.269444,78.044167,PM2.5,37,275,109
India,Uttarakhand,Dehradun,"Doon University, Dehradun - UKPCB",15-02-2024 14:00:00,30.269444,78.044167,NO2,1,9,3
India,Uttarakhand,Dehradun,"Doon University, Dehradun - UKPCB",15-02-2024 14:00:00,30.269444,78.044167,OZONE,3,6,4
India,Uttarakhand,Kashipur,"Govt. Girls Inter College, Kashipur - UKPCB",15-02-2024 14:00:00,29.2124114,78.9611753,NH3,9,13,11
India,Uttarakhand,Kashipur,"Govt. Girls Inter College, Kashipur - UKPCB",15-02-2024 14:00:00,29.2124114,78.9611753,OZONE,3,46,17
India,Uttarakhand,Rishikesh,"Shivaji Nagar, Rishikesh - UKPCB",15-02-2024 14:00:00,30.075911,78.2859547,PM10,48,84,65
India,Uttarakhand,Rishikesh,"Shivaji Nagar, Rishikesh - UKPCB",15-02-2024 14:00:00,30.075911,78.2859547,CO,19,43,27
India,West_Bengal,Asansol,"Asansol Court Area, Asansol - WBPCB",15-02-2024 14:00:00,23.685297,86.945968,NO2,22,60,35
India,West_Bengal,Durgapur,"Sidhu Kanhu Indoor Stadium, Durgapur - WBPCB",15-02-2024 14:00:00,23.5404352,87.2892225,CO,32,56,40
India,West_Bengal,Haldia,"Priyambada Housing Estate, Haldia - WBPCB",15-02-2024 14:00:00,22.06047,88.109737,CO,66,92,90
India,West_Bengal,Haldia,"Priyambada Housing Estate, Haldia - WBPCB",15-02-2024 14:00:00,22.06047,88.109737,OZONE,13,96,35
India,West_Bengal,Howrah,"Ghusuri, Howrah - WBPCB",15-02-2024 14:00:00,22.611968,88.347422,PM10,92,146,123
India,West_Bengal,Howrah,"Ghusuri, Howrah - WBPCB",15-02-2024 14:00:00,22.611968,88.347422,OZONE,15,30,24
India,West_Bengal,Kolkata,"Ballygunge, Kolkata - WBPCB",15-02-2024 14:00:00,22.5367507,88.3638022,PM10,92,188,145
India,West_Bengal,Kolkata,"Ballygunge, Kolkata - WBPCB",15-02-2024 14:00:00,22.5367507,88.3638022,OZONE,6,59,27
India,West_Bengal,Kolkata,"Bidhannagar, Kolkata - WBPCB",15-02-2024 14:00:00,22.58157048,88.41002457,NH3,10,16,13
India,West_Bengal,Kolkata,"Bidhannagar, Kolkata - WBPCB",15-02-2024 14:00:00,22.58157048,88.41002457,OZONE,6,81,22
India,West_Bengal,Kolkata,"Fort William, Kolkata - WBPCB",15-02-2024 14:00:00,22.556640,88.342674,OZONE,12,85,45
India,West_Bengal,Kolkata,"Rabindra Bharati University, Kolkata - WBPCB",15-02-2024 14:00:00,22.627847,88.380669,SO2,6,20,12
India,West_Bengal,Kolkata,"Rabindra Sarobar, Kolkata - WBPCB",15-02-2024 14:00:00,22.51106,88.35142,CO,7,72,38
India,West_Bengal,Kolkata,"Rabindra Sarobar, Kolkata - WBPCB",15-02-2024 14:00:00,22.51106,88.35142,OZONE,3,90,42
India,West_Bengal,Kolkata,"Victoria, Kolkata - WBPCB",15-02-2024 14:00:00,22.5448082,88.3403691,OZONE,5,127,48
India,Andhra_Pradesh,Amaravati,"Secretariat, Amaravati - APPCB",15-02-2024 14:00:00,16.5150833,80.5181667,PM2.5,30,82,60
India,Andhra_Pradesh,Amaravati,"Secretariat, Amaravati - APPCB",15-02-2024 14:00:00,16.5150833,80.5181667,CO,10,69,40
India,Andhra_Pradesh,Chittoor,"Gangineni Cheruvu, Chittoor - APPCB",15-02-2024 14:00:00,13.204880,79.097889,NO2,4,23,12
India,Andhra_Pradesh,Kadapa,"Yerramukkapalli, Kadapa - APPCB",15-02-2024 14:00:00,14.465052,78.824187,SO2,NA,NA,NA
India,Andhra_Pradesh,Tirupati,"Tirumala, Tirupati - APPCB",15-02-2024 14:00:00,13.67,79.35,PM2.5,40,91,58
India,Andhra_Pradesh,Tirupati,"Tirumala, Tirupati - APPCB",15-02-2024 14:00:00,13.67,79.35,NH3,1,3,1
India,Andhra_Pradesh,Tirupati,"Tirumala, Tirupati - APPCB",15-02-2024 14:00:00,13.67,79.35,CO,34,58,45
India,Andhra_Pradesh,Tirupati,"Vaikuntapuram, Tirupati - APPCB",15-02-2024 14:00:00,13.615387,79.409230,PM2.5,NA,NA,NA
India,Andhra_Pradesh,Tirupati,"Vaikuntapuram, Tirupati - APPCB",15-02-2024 14:00:00,13.615387,79.409230,CO,10,14,12
India,Andhra_Pradesh,Vijayawada,"HB Colony, Vijayawada - APPCB",15-02-2024 14:00:00,16.536107,80.594233,NO2,9,26,18
India,Andhra_Pradesh,Vijayawada,"Kanuru, Vijayawada - APPCB",15-02-2024 14:00:00,16.486692,80.699436,CO,22,55,22
India,Andhra_Pradesh,Vijayawada,"Rajiv Gandhi Park, Vijayawada - APPCB",15-02-2024 14:00:00,16.509717,80.612222,PM10,43,94,67
India,Andhra_Pradesh,Visakhapatnam,"GVM Corporation, Visakhapatnam - APPCB",15-02-2024 14:00:00,17.72,83.3,CO,17,70,51
India,Arunachal_Pradesh,Naharlagun,"Naharlagun, Naharlagun - APSPCB",15-02-2024 14:00:00,27.103358,93.679645,OZONE,2,2,2
India,Assam,Guwahati,"IITG, Guwahati - PCBA",15-02-2024 14:00:00,26.2028636,91.70046436,PM10,97,234,153
India,Assam,Guwahati,"IITG, Guwahati - PCBA",15-02-2024 14:00:00,26.2028636,91.70046436,NO2,2,19,10
India,Assam,Guwahati,"IITG, Guwahati - PCBA",15-02-2024 14:00:00,26.2028636,91.70046436,SO2,12,17,13
India,Assam,Guwahati,"IITG, Guwahati - PCBA",15-02-2024 14:00:00,26.2028636,91.70046436,OZONE,2,30,20
India,Assam,Guwahati,"LGBI Airport, Guwahati - PCBA",15-02-2024 14:00:00,26.10887,91.589544,NH3,1,10,3
India,Assam,Guwahati,"LGBI Airport, Guwahati - PCBA",15-02-2024 14:00:00,26.10887,91.589544,OZONE,2,97,54
India,Assam,Guwahati,"Railway Colony, Guwahati - PCBA",15-02-2024 14:00:00,26.181742,91.78063,NO2,3,3,3
India,Assam,Nagaon,"Christianpatty, Nagaon - PCBA",15-02-2024 14:00:00,26.349082,92.68449,NO2,15,29,20
India,Assam,Nagaon,"Christianpatty, Nagaon - PCBA",15-02-2024 14:00:00,26.349082,92.68449,SO2,1,65,20
India,Assam,Nalbari,"Bata Chowk, Nalbari - PCBA",15-02-2024 14:00:00,26.446912,91.439057,NH3,1,6,2
India,Assam,Silchar,"Tarapur, Silchar - PCBA",15-02-2024 14:00:00,24.82827,92.79525,PM2.5,34,50,43
India,Assam,Sivasagar,"Girls College, Sivasagar - PCBA",15-02-2024 14:00:00,26.987634,94.636574,SO2,4,4,4
India,Assam,Sivasagar,"Girls College, Sivasagar - PCBA",15-02-2024 14:00:00,26.987634,94.636574,CO,12,44,25
India,Bihar,Araria,"Kharahiya Basti, Araria - BSPCB",15-02-2024 14:00:00,26.146529,87.454184,PM2.5,301,449,354
India,Bihar,Araria,"Kharahiya Basti, Araria - BSPCB",15-02-2024 14:00:00,26.146529,87.454184,SO2,13,17,15
India,Bihar,Aurangabad,"Gurdeo Nagar, Aurangabad - BSPCB",15-02-2024 14:00:00,24.75746,84.366208,SO2,NA,NA,NA
India,Bihar,Aurangabad,"Gurdeo Nagar, Aurangabad - BSPCB",15-02-2024 14:00:00,24.75746,84.366208,OZONE,1,6,3
India,Bihar,Bettiah,"Kamalnath Nagar, Bettiah - BSPCB",15-02-2024 14:00:00,26.80365,84.51954,PM10,28,86,52
India,Bihar,Bhagalpur,"DM Office_Kachari Chowk, Bhagalpur - BSPCB",15-02-2024 14:00:00,25.251013,86.989001,PM2.5,67,332,168
India,Bihar,Bhagalpur,"DM Office_Kachari Chowk, Bhagalpur - BSPCB",15-02-2024 14:00:00,25.251013,86.989001,NH3,4,9,6
India,Bihar,Bhagalpur,"DM Office_Kachari Chowk, Bhagalpur - BSPCB",15-02-2024 14:00:00,25.251013,86.989001,CO,24,90,36
India,Bihar,Bhagalpur,"Mayaganj, Bhagalpur - BSPCB",15-02-2024 14:00:00,25.265194,87.012947,PM10,31,140,82
India,Bihar,Bhagalpur,"Mayaganj, Bhagalpur - BSPCB",15-02-2024 14:00:00,25.265194,87.012947,NO2,4,20,9
India,Bihar,Bihar Sharif,"D M Colony, Bihar Sharif - BSPCB",15-02-2024 14:00:00,25.204762,85.514960,NO2,9,10,9
India,Bihar,Bihar Sharif,"D M Colony, Bihar Sharif - BSPCB",15-02-2024 14:00:00,25.204762,85.514960,NH3,2,2,2
India,Bihar,Bihar Sharif,"D M Colony, Bihar Sharif - BSPCB",15-02-2024 14:00:00,25.204762,85.514960,CO,12,66,35
India,Bihar,Buxar,"Charitra Van, Buxar - BSPCB (Formerly known as Central Jail)",15-02-2024 14:00:00,25.567520,83.966379,SO2,15,17,16
India,Bihar,Chhapra,"Darshan Nagar, Chhapra - BSPCB",15-02-2024 14:00:00,25.7808257,84.7446768,OZONE,1,13,6
India,Bihar,Gaya,"Collectorate, Gaya - BSPCB",15-02-2024 14:00:00,24.7955,84.9994,OZONE,51,85,80
India,Bihar,Gaya,"Kareemganj, Gaya - BSPCB",15-02-2024 14:00:00,24.792403,84.992416,PM2.5,NA,NA,NA
India,Bihar,Gaya,"Kareemganj, Gaya - BSPCB",15-02-2024 14:00:00,24.792403,84.992416,PM10,NA,NA,NA
India,Bihar,Gaya,"Kareemganj, Gaya - BSPCB",15-02-2024 14:00:00,24.792403,84.992416,SO2,8,11,9
India,Bihar,Gaya,"SFTI Kusdihra, Gaya - BSPCB",15-02-2024 14:00:00,24.762518,84.982348,SO2,8,10,9
India,Bihar,Gaya,"SFTI Kusdihra, Gaya - BSPCB",15-02-2024 14:00:00,24.762518,84.982348,CO,34,101,62
India,Bihar,Hajipur,"Industrial Area, Hajipur - BSPCB",15-02-2024 14:00:00,25.697189,85.245900,PM2.5,18,80,61
India,Bihar,Hajipur,"Industrial Area, Hajipur - BSPCB",15-02-2024 14:00:00,25.697189,85.245900,CO,22,42,32
India,Bihar,Katihar,"Mirchaibari, Katihar - BSPCB",15-02-2024 14:00:00,25.560083,87.553265,PM2.5,67,183,99
India,Bihar,Katihar,"Mirchaibari, Katihar - BSPCB",15-02-2024 14:00:00,25.560083,87.553265,CO,16,24,20
India,Bihar,Manguraha,"Forest Rest House, Manguraha - BSPCB",15-02-2024 14:00:00,27.308328,84.531742,PM10,62,160,110
India,Bihar,Manguraha,"Forest Rest House, Manguraha - BSPCB",15-02-2024 14:00:00,27.308328,84.531742,NH3,2,3,2
India,Bihar,Motihari,"Gandak Colony, Motihari - BSPCB",15-02-2024 14:00:00,26.63086,84.90051,PM2.5,95,302,205
India,Bihar,Motihari,"Gandak Colony, Motihari - BSPCB",15-02-2024 14:00:00,26.63086,84.90051,NH3,6,11,8
India,Bihar,Muzaffarpur,"Buddha Colony, Muzaffarpur - BSPCB",15-02-2024 14:00:00,26.11442,85.39813,NH3,11,18,13
India,Bihar,Muzaffarpur,"Buddha Colony, Muzaffarpur - BSPCB",15-02-2024 14:00:00,26.11442,85.39813,OZONE,41,84,71
India,Bihar,Muzaffarpur,"Muzaffarpur Collectorate, Muzaffarpur - BSPCB",15-02-2024 14:00:00,26.1209,85.3647,CO,11,90,38
India,Bihar,Patna,"DRM Office Danapur, Patna - BSPCB",15-02-2024 14:00:00,25.586562,85.043586,PM10,98,158,120
India,Bihar,Patna,"DRM Office Danapur, Patna - BSPCB",15-02-2024 14:00:00,25.586562,85.043586,NH3,3,4,3
India,Bihar,Patna,"DRM Office Danapur, Patna - BSPCB",15-02-2024 14:00:00,25.586562,85.043586,SO2,6,9,7
India,Bihar,Patna,"DRM Office Danapur, Patna - BSPCB",15-02-2024 14:00:00,25.586562,85.043586,OZONE,1,40,19
India,Bihar,Patna,"IGSC Planetarium Complex, Patna - BSPCB",15-02-2024 14:00:00,25.610369,85.132568,SO2,7,8,7
India,Bihar,Patna,"IGSC Planetarium Complex, Patna - BSPCB",15-02-2024 14:00:00,25.610369,85.132568,OZONE,4,50,17
India,Bihar,Patna,"Muradpur, Patna - BSPCB",15-02-2024 14:00:00,25.619651,85.147382,OZONE,18,58,48
India,Bihar,Patna,"Rajbansi Nagar, Patna - BSPCB",15-02-2024 14:00:00,25.599486,85.113666,NO2,24,40,30
India,Bihar,Purnia,"Mariam Nagar, Purnia - BSPCB",15-02-2024 14:00:00,25.366336,87.117468,NO2,12,14,13
India,Bihar,Rajgir,"Dangi Tola, Rajgir - BSPCB",15-02-2024 14:00:00,25.03280,85.41948,NO2,1,1,1
India,Bihar,Rajgir,"Dangi Tola, Rajgir - BSPCB",15-02-2024 14:00:00,25.03280,85.41948,SO2,3,5,4
India,Bihar,Rajgir,"Dangi Tola, Rajgir - BSPCB",15-02-2024 14:00:00,25.03280,85.41948,OZONE,17,26,23
India,Bihar,Samastipur,"DM Office_Kasipur, Samastipur - BSPCB",15-02-2024 14:00:00,25.859655,85.77944,OZONE,9,26,15
India,Bihar,Siwan,"Chitragupta Nagar, Siwan - BSPCB",15-02-2024 14:00:00,26.2271665,84.3570427,SO2,15,35,31
India,Chandigarh,Chandigarh,"Sector-25, Chandigarh - CPCC",15-02-2024 14:00:00,30.751462,76.762879,PM2.5,135,234,187
India,Chandigarh,Chandigarh,"Sector-25, Chandigarh - CPCC",15-02-2024 14:00:00,30.751462,76.762879,PM10,126,159,140
India,Chandigarh,Chandigarh,"Sector-25, Chandigarh - CPCC",15-02-2024 14:00:00,30.751462,76.762879,NO2,11,41,24
India,Chandigarh,Chandigarh,"Sector-25, Chandigarh - CPCC",15-02-2024 14:00:00,30.751462,76.762879,NH3,18,64,33
India,Chandigarh,Chandigarh,"Sector-53, Chandigarh - CPCC",15-02-2024 14:00:00,30.719859,76.738637,PM10,103,197,151
India,Chandigarh,Chandigarh,"Sector-53, Chandigarh - CPCC",15-02-2024 14:00:00,30.719859,76.738637,SO2,12,72,21
India,Chhattisgarh,Bhilai,"Civic Center, Bhilai - Bhilai Steel Plant",15-02-2024 14:00:00,21.185571,81.343175,PM2.5,NA,NA,NA
India,Chhattisgarh,Bhilai,"Civic Center, Bhilai - Bhilai Steel Plant",15-02-2024 14:00:00,21.185571,81.343175,NO2,NA,NA,NA
India,Chhattisgarh,Bhilai,"Hathkhoj, Bhilai - CECB",15-02-2024 14:00:00,21.224231,81.408350,PM2.5,23,123,71
India,Chhattisgarh,Chhal,"Nawapara SECL Colony, Chhal - CECB",15-02-2024 14:00:00,22.118125,83.140608,PM10,40,176,79
India,Chhattisgarh,Chhal,"Nawapara SECL Colony, Chhal - CECB",15-02-2024 14:00:00,22.118125,83.140608,CO,56,112,66
India,Chhattisgarh,Korba,"Rampur, Korba - CECB",15-02-2024 14:00:00,22.368195,82.746431,PM2.5,24,35,32
India,Chhattisgarh,Korba,"Rampur, Korba - CECB",15-02-2024 14:00:00,22.368195,82.746431,CO,22,34,26
India,Chhattisgarh,Korba,"Rampur, Korba - CECB",15-02-2024 14:00:00,22.368195,82.746431,OZONE,2,73,19
India,Chhattisgarh,Korba,"Urja Nagar, Korba - CECB",15-02-2024 14:00:00,22.348441,82.549611,PM2.5,25,69,47
India,Chhattisgarh,Korba,"Urja Nagar, Korba - CECB",15-02-2024 14:00:00,22.348441,82.549611,NO2,72,93,84
India,Chhattisgarh,Kunjemura,"OP Jindal School, Kunjemura - CECB",15-02-2024 14:00:00,22.126650,83.483212,NO2,37,113,69
India,Chhattisgarh,Kunjemura,"OP Jindal School, Kunjemura - CECB",15-02-2024 14:00:00,22.126650,83.483212,CO,28,48,40
India,Chhattisgarh,Milupara,"Govt. Higher Secondary School, Milupara - CECB",15-02-2024 14:00:00,22.1910172,83.5197009,PM10,NA,NA,NA
India,Chhattisgarh,Milupara,"Govt. Higher Secondary School, Milupara - CECB",15-02-2024 14:00:00,22.1910172,83.5197009,NO2,NA,NA,NA
India,Chhattisgarh,Milupara,"Govt. Higher Secondary School, Milupara - CECB",15-02-2024 14:00:00,22.1910172,83.5197009,OZONE,40,43,41
India,Chhattisgarh,Raipur,"AIIMS, Raipur - CECB",15-02-2024 14:00:00,21.258815,81.578979,PM2.5,18,81,45
India,Chhattisgarh,Raipur,"AIIMS, Raipur - CECB",15-02-2024 14:00:00,21.258815,81.578979,NO2,47,70,51
India,Chhattisgarh,Raipur,"AIIMS, Raipur - CECB",15-02-2024 14:00:00,21.258815,81.578979,CO,32,44,39
India,Chhattisgarh,Raipur,"Krishak Nagar, Raipur - CECB",15-02-2024 14:00:00,21.237755,81.705301,PM10,25,101,70
India,Chhattisgarh,Raipur,"Krishak Nagar, Raipur - CECB",15-02-2024 14:00:00,21.237755,81.705301,OZONE,3,5,4
India,Delhi,Delhi,"Alipur, Delhi - DPCC",15-02-2024 14:00:00,28.815329,77.153010,PM10,113,257,159
India,Delhi,Delhi,"Alipur, Delhi - DPCC",15-02-2024 14:00:00,28.815329,77.153010,OZONE,6,169,169
India,Delhi,Delhi,"Ashok Vihar, Delhi - DPCC",15-02-2024 14:00:00,28.695381,77.181665,PM2.5,188,345,297
India,Delhi,Delhi,"Ashok Vihar, Delhi - DPCC",15-02-2024 14:00:00,28.695381,77.181665,NH3,8,12,10
India,Delhi,Delhi,"Ashok Vihar, Delhi - DPCC",15-02-2024 14:00:00,28.695381,77.181665,CO,19,104,36
India,Delhi,Delhi,"Aya Nagar, Delhi - IMD",15-02-2024 14:00:00,28.4706914,77.1099364,PM2.5,NA,NA,NA
India,Delhi,Delhi,"Bawana, Delhi - DPCC",15-02-2024 14:00:00,28.776200,77.051074,NH3,7,12,9
India,Delhi,Delhi,"Bawana, Delhi - DPCC",15-02-2024 14:00:00,28.776200,77.051074,SO2,4,19,7
India,Delhi,Delhi,"Burari Crossing, Delhi - IMD",15-02-2024 14:00:00,28.7256504,77.2011573,PM2.5,36,339,214
India,Delhi,Delhi,"Burari Crossing, Delhi - IMD",15-02-2024 14:00:00,28.7256504,77.2011573,PM10,99,414,227
India,Delhi,Delhi,"CRRI Mathura Road, Delhi - IMD",15-02-2024 14:00:00,28.5512005,77.2735737,PM2.5,87,330,260
India,Delhi,Delhi,"CRRI Mathura Road, Delhi - IMD",15-02-2024 14:00:00,28.5512005,77.2735737,NO2,41,56,50
India,Delhi,Delhi,"CRRI Mathura Road, Delhi - IMD",15-02-2024 14:00:00,28.5512005,77.2735737,CO,1,1,1
India,Delhi,Delhi,"CRRI Mathura Road, Delhi - IMD",15-02-2024 14:00:00,28.5512005,77.2735737,OZONE,3,65,18
India,Delhi,Delhi,"DTU, Delhi - CPCB",15-02-2024 14:00:00,28.7500499,77.1112615,SO2,28,30,29
India,Delhi,Delhi,"IGI Airport (T3), Delhi - IMD",15-02-2024 14:00:00,28.5627763,77.1180053,NO2,37,66,49
India,Delhi,Delhi,"IGI Airport (T3), Delhi - IMD",15-02-2024 14:00:00,28.5627763,77.1180053,OZONE,11,61,25
India,Delhi,Delhi,"Jahangirpuri, Delhi - DPCC",15-02-2024 14:00:00,28.732820,77.170633,SO2,12,26,17
India,Delhi,Delhi,"Jahangirpuri, Delhi - DPCC",15-02-2024 14:00:00,28.732820,77.170633,OZONE,5,184,184
India,Delhi,Delhi,"Jawaharlal Nehru Stadium, Delhi - DPCC",15-02-2024 14:00:00,28.580280,77.233829,PM10,125,276,182
India,Delhi,Delhi,"Jawaharlal Nehru Stadium, Delhi - DPCC",15-02-2024 14:00:00,28.580280,77.233829,NH3,9,14,12
India,Delhi,Delhi,"Jawaharlal Nehru Stadium, Delhi - DPCC",15-02-2024 14:00:00,28.580280,77.233829,SO2,12,50,24
India,Delhi,Delhi,"Lodhi Road, Delhi - IITM",15-02-2024 14:00:00,28.588333,77.221667,PM10,96,464,143
India,Delhi,Delhi,"Lodhi Road, Delhi - IMD",15-02-2024 14:00:00,28.5918245,77.2273074,PM10,124,189,146
India,Delhi,Delhi,"Lodhi Road, Delhi - IMD",15-02-2024 14:00:00,28.5918245,77.2273074,CO,50,102,62
India,Delhi,Delhi,"Lodhi Road, Delhi - IMD",15-02-2024 14:00:00,28.5918245,77.2273074,OZONE,13,96,38
India,Delhi,Delhi,"Mandir Marg, Delhi - DPCC",15-02-2024 14:00:00,28.636429,77.201067,PM2.5,208,352,303
India,Delhi,Delhi,"Mandir Marg, Delhi - DPCC",15-02-2024 14:00:00,28.636429,77.201067,NO2,75,138,108
India,Delhi,Delhi,"Mandir Marg, Delhi - DPCC",15-02-2024 14:00:00,28.636429,77.201067,SO2,6,10,8
India,Delhi,Delhi,"Mandir Marg, Delhi - DPCC",15-02-2024 14:00:00,28.636429,77.201067,CO,26,124,46
India,Delhi,Delhi,"Mundka, Delhi - DPCC",15-02-2024 14:00:00,28.684678,77.076574,PM2.5,234,439,333
India,Delhi,Delhi,"Mundka, Delhi - DPCC",15-02-2024 14:00:00,28.684678,77.076574,SO2,1,28,8
India,Delhi,Delhi,"Mundka, Delhi - DPCC",15-02-2024 14:00:00,28.684678,77.076574,CO,18,80,50
India,Delhi,Delhi,"Mundka, Delhi - DPCC",15-02-2024 14:00:00,28.684678,77.076574,OZONE,1,5,3
India,Delhi,Delhi,"NSIT Dwarka, Delhi - CPCB",15-02-2024 14:00:00,28.60909,77.0325413,NO2,41,77,54
India,Delhi,Delhi,"Najafgarh, Delhi - DPCC",15-02-2024 14:00:00,28.570173,76.933762,NO2,12,53,27
India,Delhi,Delhi,"Nehru Nagar, Delhi - DPCC",15-02-2024 14:00:00,28.567890,77.250515,PM10,144,339,218
India,Delhi,Delhi,"Nehru Nagar, Delhi - DPCC",15-02-2024 14:00:00,28.567890,77.250515,OZONE,1,181,173
India,Delhi,Delhi,"Patparganj, Delhi - DPCC",15-02-2024 14:00:00,28.623763,77.287209,NO2,41,79,58
India,Delhi,Delhi,"Patparganj, Delhi - DPCC",15-02-2024 14:00:00,28.623763,77.287209,SO2,6,14,11
India,Delhi,Delhi,"Punjabi Bagh, Delhi - DPCC",15-02-2024 14:00:00,28.674045,77.131023,PM2.5,213,374,330
India,Delhi,Delhi,"Punjabi Bagh, Delhi - DPCC",15-02-2024 14:00:00,28.674045,77.131023,PM10,129,281,209
India,Delhi,Delhi,"Punjabi Bagh, Delhi - DPCC",15-02-2024 14:00:00,28.674045,77.131023,NO2,26,84,52
India,Delhi,Delhi,"Pusa, Delhi - DPCC",15-02-2024 14:00:00,28.639652,77.146275,OZONE,16,65,34
India,Delhi,Delhi,"Pusa, Delhi - IMD",15-02-2024 14:00:00,28.636110,77.173332,PM2.5,NA,NA,NA
India,Delhi,Delhi,"Rohini, Delhi - DPCC",15-02-2024 14:00:00,28.732528,77.119920,CO,24,108,50
India,Delhi,Delhi,"Shadipur, Delhi - CPCB",15-02-2024 14:00:00,28.6514781,77.1473105,PM2.5,129,345,272
India,Delhi,Delhi,"Shadipur, Delhi - CPCB",15-02-2024 14:00:00,28.6514781,77.1473105,NH3,11,27,17
India,Delhi,Delhi,"Shadipur, Delhi - CPCB",15-02-2024 14:00:00,28.6514781,77.1473105,OZONE,15,30,24
India,Delhi,Delhi,"Sirifort, Delhi - CPCB",15-02-2024 14:00:00,28.5504249,77.2159377,NO2,135,181,160
India,Delhi,Delhi,"Sirifort, Delhi - CPCB",15-02-2024 14:00:00,28.5504249,77.2159377,CO,25,102,61
India,Delhi,Delhi,"Vivek Vihar, Delhi - DPCC",15-02-2024 14:00:00,28.672342,77.315260,NH3,5,11,8
India,Delhi,Delhi,"Wazirpur, Delhi - DPCC",15-02-2024 14:00:00,28.699793,77.165453,PM10,179,420,293
India,Delhi,Delhi,"Wazirpur, Delhi - DPCC",15-02-2024 14:00:00,28.699793,77.165453,SO2,9,53,30
India,Gujarat,Ahmedabad,"Gyaspur, Ahmedabad - IITM",15-02-2024 14:00:00,22.977134,72.553024,PM2.5,44,97,70
India,Gujarat,Ahmedabad,"Maninagar, Ahmedabad - GPCB",15-02-2024 14:00:00,23.002657,72.591912,PM10,53,102,80
India,Gujarat,Ahmedabad,"Maninagar, Ahmedabad - GPCB",15-02-2024 14:00:00,23.002657,72.591912,NO2,19,51,26
India,Gujarat,Ahmedabad,"Maninagar, Ahmedabad - GPCB",15-02-2024 14:00:00,23.002657,72.591912,SO2,28,51,36
India,Gujarat,Ahmedabad,"Rakhial, Ahmedabad - IITM",15-02-2024 14:00:00,23.016834,72.625775,NO2,65,80,73
India,Gujarat,Ahmedabad,"Rakhial, Ahmedabad - IITM",15-02-2024 14:00:00,23.016834,72.625775,CO,29,74,32
India,Gujarat,Ahmedabad,"SAC ISRO Satellite, Ahmedabad - IITM",15-02-2024 14:00:00,23.023389,72.515201,PM2.5,116,201,140
India,Gujarat,Ahmedabad,"SAC ISRO Satellite, Ahmedabad - IITM",15-02-2024 14:00:00,23.023389,72.515201,NO2,17,17,17
India,Gujarat,Ahmedabad,"SAC ISRO Satellite, Ahmedabad - IITM",15-02-2024 14:00:00,23.023389,72.515201,NH3,3,3,3
India,Gujarat,Ahmedabad,"SAC ISRO Satellite, Ahmedabad - IITM",15-02-2024 14:00:00,23.023389,72.515201,CO,48,49,48
India,Gujarat,Ahmedabad,"SAC ISRO Satellite, Ahmedabad - IITM",15-02-2024 14:00:00,23.023389,72.515201,OZONE,9,18,14
India,Gujarat,Ahmedabad,"SVPI Airport Hansol, Ahmedabad - IITM",15-02-2024 14:00:00,23.076793,72.627874,PM2.5,60,118,85
India,Gujarat,Ahmedabad,"SVPI Airport Hansol, Ahmedabad - IITM",15-02-2024 14:00:00,23.076793,72.627874,NO2,1,16,4
India,Gujarat,Gandhinagar,"GIFT City, Gandhinagar - IITM",15-02-2024 14:00:00,23.163798,72.677768,PM10,72,166,110
India,Gujarat,Gandhinagar,"GIFT City, Gandhinagar - IITM",15-02-2024 14:00:00,23.163798,72.677768,NO2,19,21,20
India,Gujarat,Gandhinagar,"GIFT City, Gandhinagar - IITM",15-02-2024 14:00:00,23.163798,72.677768,NH3,6,6,6
India,Gujarat,Gandhinagar,"GIFT City, Gandhinagar - IITM",15-02-2024 14:00:00,23.163798,72.677768,OZONE,1,15,4
India,Gujarat,Gandhinagar,"IIPHG Lekawada, Gandhinagar - IITM",15-02-2024 14:00:00,23.243639,72.68994,CO,8,28,16
India,Gujarat,Gandhinagar,"Sector-10, Gandhinagar - GPCB",15-02-2024 14:00:00,23.221714,72.654328,PM2.5,31,57,44
India,Gujarat,Surat,"Science Center, Surat - SMC",15-02-2024 14:00:00,21.170046,72.795405,PM2.5,8,84,42
India,Gujarat,Vapi,"Phase-1 GIDC, Vapi - GPCB",15-02-2024 14:00:00,20.362421,72.918013,PM2.5,92,332,214
India,Gujarat,Vapi,"Phase-1 GIDC, Vapi - GPCB",15-02-2024 14:00:00,20.362421,72.918013,SO2,45,46,45
India,Gujarat,Vapi,"Phase-1 GIDC, Vapi - GPCB",15-02-2024 14:00:00,20.362421,72.918013,OZONE,54,68,61
India,Gujarat,Vatva,"Phase-4 GIDC, Vatva - GPCB",15-02-2024 14:00:00,22.969611,72.643500,NO2,26,107,52
India,Haryana,Ambala,"Patti Mehar, Ambala - HSPCB",15-02-2024 14:00:00,30.379589,76.778328,NH3,NA,NA,NA
India,Haryana,Bahadurgarh,"Arya Nagar, Bahadurgarh - HSPCB",15-02-2024 14:00:00,28.6701,76.9254,PM2.5,91,280,166
India,Haryana,Bahadurgarh,"Arya Nagar, Bahadurgarh - HSPCB",15-02-2024 14:00:00,28.6701,76.9254,PM10,77,156,126
India,Haryana,Bahadurgarh,"Arya Nagar, Bahadurgarh - HSPCB",15-02-2024 14:00:00,28.6701,76.9254,NO2,34,42,36
India,Haryana,Bahadurgarh,"Arya Nagar, Bahadurgarh - HSPCB",15-02-2024 14:00:00,28.6701,76.9254,OZONE,39,48,44
India,Haryana,Bhiwani,"H.B. Colony, Bhiwani - HSPCB",15-02-2024 14:00:00,28.806223,76.141105,NO2,5,10,9
India,Haryana,Charkhi Dadri,"Mini Secretariat, Charkhi Dadri - HSPCB",15-02-2024 14:00:00,28.593883,76.270653,NH3,5,7,6
India,Haryana,Dharuhera,"Municipal Corporation Office, Dharuhera -  HSPCB",15-02-2024 14:00:00,28.206800,76.799700,PM10,147,328,250
India,Haryana,Dharuhera,"Municipal Corporation Office, Dharuhera -  HSPCB",15-02-2024 14:00:00,28.206800,76.799700,NO2,43,111,78
India,Haryana,Dharuhera,"Municipal Corporation Office, Dharuhera -  HSPCB",15-02-2024 14:00:00,28.206800,76.799700,OZONE,14,97,55
India,Haryana,Faridabad,"New Industrial Town, Faridabad - HSPCB",15-02-2024 14:00:00,28.39072,77.30059,SO2,NA,NA,NA
India,Haryana,Faridabad,"Sector 11, Faridabad - HSPCB",15-02-2024 14:00:00,28.376058,77.315741,CO,16,60,41
India,Haryana,Faridabad,"Sector 30, Faridabad - HSPCB",15-02-2024 14:00:00,28.4417,77.3217,NO2,29,33,31
India,Haryana,Faridabad,"Sector 30, Faridabad - HSPCB",15-02-2024 14:00:00,28.4417,77.3217,NH3,9,9,9
India,Haryana,Fatehabad,"Huda Sector, Fatehabad - HSPCB",15-02-2024 14:00:00,29.503664,75.467934,NO2,24,25,25
India,Haryana,Gurugram,"Teri Gram, Gurugram - HSPCB",15-02-2024 14:00:00,28.4275,77.1465,PM10,NA,NA,NA
India,Haryana,Gurugram,"Teri Gram, Gurugram - HSPCB",15-02-2024 14:00:00,28.4275,77.1465,NH3,NA,NA,NA
India,Haryana,Gurugram,"Vikas Sadan, Gurugram - HSPCB",15-02-2024 14:00:00,28.4501238,77.0263051,NO2,5,25,14
India,Haryana,Jind,"Police Lines, Jind - HSPCB",15-02-2024 14:00:00,29.307814,76.337619,OZONE,12,22,16
India,Haryana,Kaithal,"Rishi Nagar, Kaithal - HSPCB",15-02-2024 14:00:00,29.8006,76.4155,PM2.5,82,233,140
India,Haryana,Kaithal,"Rishi Nagar, Kaithal - HSPCB",15-02-2024 14:00:00,29.8006,76.4155,PM10,109,151,127
India,Haryana,Kaithal,"Rishi Nagar, Kaithal - HSPCB",15-02-2024 14:00:00,29.8006,76.4155,OZONE,8,15,10
India,Haryana,Manesar,"Sector-2 IMT, Manesar - HSPCB",15-02-2024 14:00:00,28.360699,76.936090,PM10,98,150,116
India,Haryana,Palwal,"Shyam Nagar, Palwal - HSPCB",15-02-2024 14:00:00,28.1485564,77.3320667,PM2.5,71,150,100
India,Haryana,Palwal,"Shyam Nagar, Palwal - HSPCB",15-02-2024 14:00:00,28.1485564,77.3320667,NO2,23,24,24
India,Haryana,Palwal,"Shyam Nagar, Palwal - HSPCB",15-02-2024 14:00:00,28.1485564,77.3320667,SO2,11,28,22
India,Haryana,Sirsa,"F-Block, Sirsa - HSPCB",15-02-2024 14:00:00,29.536400,75.015800,SO2,2,50,36
India,Haryana,Sonipat,"Murthal, Sonipat - HSPCB",15-02-2024 14:00:00,29.027200,77.062100,PM2.5,122,233,168
India,Haryana,Yamuna Nagar,"Gobind Pura, Yamuna Nagar - HSPCB",15-02-2024 14:00:00,30.1480566,77.2893471,NO2,NA,NA,NA
India,Haryana,Yamuna Nagar,"Gobind Pura, Yamuna Nagar - HSPCB",15-02-2024 14:00:00,30.1480566,77.2893471,CO,38,76,56
India,Jharkhand,Dhanbad,"Kalakusuma, Dhanbad - DMC",15-02-2024 14:00:00,23.811548,86.481238,NO2,NA,NA,NA
India,Jharkhand,Dhanbad,"Sardar Patel Nagar, Dhanbad - JSPCB",15-02-2024 14:00:00,23.80569,86.44268,CO,102,198,96
India,Jharkhand,Pathardih,"Mohalbani Ghat, Pathardih - DMC",15-02-2024 14:00:00,23.669880,86.411725,CO,147,171,171
India,Jharkhand,Pathardih,"Mohalbani Ghat, Pathardih - DMC",15-02-2024 14:00:00,23.669880,86.411725,OZONE,4,22,13
India,Karnataka,Bengaluru,"Bapuji Nagar, Bengaluru - KSPCB",15-02-2024 14:00:00,12.951913,77.539784,CO,30,49,43
India,Karnataka,Bengaluru,"Hebbal, Bengaluru - KSPCB",15-02-2024 14:00:00,13.029152,77.585901,SO2,NA,NA,NA
India,Karnataka,Bengaluru,"Hombegowda Nagar, Bengaluru - KSPCB",15-02-2024 14:00:00,12.938539,77.590100,SO2,3,6,5
India,Karnataka,Bengaluru,"Jayanagar 5th Block, Bengaluru - KSPCB",15-02-2024 14:00:00,12.920984,77.584908,PM10,59,120,83
India,Karnataka,Bengaluru,"Jigani, Bengaluru - KSPCB",15-02-2024 14:00:00,12.7816279,77.6299145,PM2.5,NA,NA,NA
India,Karnataka,Bengaluru,"Kasturi Nagar, Bengaluru - KSPCB",15-02-2024 14:00:00,13.003872,77.664217,SO2,10,10,10
India,Karnataka,Bengaluru,"Kasturi Nagar, Bengaluru - KSPCB",15-02-2024 14:00:00,13.003872,77.664217,CO,21,27,26
India,Karnataka,Bengaluru,"Kasturi Nagar, Bengaluru - KSPCB",15-02-2024 14:00:00,13.003872,77.664217,OZONE,14,85,51
India,Karnataka,Bengaluru,"Peenya, Bengaluru - CPCB",15-02-2024 14:00:00,13.0270199,77.494094,PM10,47,72,56
India,Karnataka,Bengaluru,"Sanegurava Halli, Bengaluru - KSPCB",15-02-2024 14:00:00,12.990328,77.5431385,PM10,28,56,37
India,Karnataka,Bengaluru,"Shivapura_Peenya, Bengaluru - KSPCB",15-02-2024 14:00:00,13.0246342,77.5080115,PM2.5,1,121,39
India,Karnataka,Bengaluru,"Shivapura_Peenya, Bengaluru - KSPCB",15-02-2024 14:00:00,13.0246342,77.5080115,CO,18,80,32
India,Karnataka,Bengaluru,"Silk Board, Bengaluru - KSPCB",15-02-2024 14:00:00,12.917348,77.622813,PM10,71,114,86
India,Karnataka,Bengaluru,"Silk Board, Bengaluru - KSPCB",15-02-2024 14:00:00,12.917348,77.622813,CO,33,42,36
India,Karnataka,Bidar,"Naubad, Bidar - KSPCB",15-02-2024 14:00:00,17.930306,77.482194,NH3,2,3,3
India,Karnataka,Chamarajanagar,"Urban, Chamarajanagar - KSPCB",15-02-2024 14:00:00,11.55358,76.55521,PM10,34,58,44
India,Karnataka,Chamarajanagar,"Urban, Chamarajanagar - KSPCB",15-02-2024 14:00:00,11.55358,76.55521,SO2,2,8,5
India,Karnataka,Chikkamagaluru,"Kalyana Nagara, Chikkamagaluru - KSPCB",15-02-2024 14:00:00,13.328028,75.797056,NO2,NA,NA,NA
India,Karnataka,Chikkamagaluru,"Kalyana Nagara, Chikkamagaluru - KSPCB",15-02-2024 14:00:00,13.328028,75.797056,SO2,NA,NA,NA
India,Karnataka,Chikkamagaluru,"Kalyana Nagara, Chikkamagaluru - KSPCB",15-02-2024 14:00:00,13.328028,75.797056,OZONE,19,72,45
India,Karnataka,Davanagere,"Devaraj Urs Badavane, Davanagere - KSPCB",15-02-2024 14:00:00,14.475800,75.905200,NH3,1,3,1
India,Karnataka,Davanagere,"Devaraj Urs Badavane, Davanagere - KSPCB",15-02-2024 14:00:00,14.475800,75.905200,CO,14,22,16
India,Karnataka,Dharwad,"Kalabhavan, Dharwad - KSPCB",15-02-2024 14:00:00,15.459706,75.008381,NH3,2,3,3
India,Karnataka,Hassan,"B.Katihalli, Hassan - KSPCB",15-02-2024 14:00:00,13.008556,76.125258,NO2,7,8,8
India,Karnataka,Hassan,"B.Katihalli, Hassan - KSPCB",15-02-2024 14:00:00,13.008556,76.125258,CO,3,12,5
India,Karnataka,Hassan,"B.Katihalli, Hassan - KSPCB",15-02-2024 14:00:00,13.008556,76.125258,OZONE,5,36,25
India,Karnataka,Haveri,"Ashwini Nagar, Haveri - KSPCB",15-02-2024 14:00:00,14.791800,75.389600,NH3,2,4,3
India,Karnataka,Haveri,"Ashwini Nagar, Haveri - KSPCB",15-02-2024 14:00:00,14.791800,75.389600,OZONE,18,38,25
India,Karnataka,Hubballi,"Lingaraj Nagar, Hubballi - KSPCB",15-02-2024 14:00:00,15.3714823,75.1160168,PM2.5,24,61,37
India,Karnataka,Hubballi,"Lingaraj Nagar, Hubballi - KSPCB",15-02-2024 14:00:00,15.3714823,75.1160168,NH3,2,2,2
India,Karnataka,Hubballi,"Lingaraj Nagar, Hubballi - KSPCB",15-02-2024 14:00:00,15.3714823,75.1160168,SO2,1,7,3
India,Karnataka,Kalaburagi,"Lal Bahadur Shastri Nagar, Kalaburagi - KSPCB",15-02-2024 14:00:00,17.321993,76.822628,PM2.5,NA,NA,NA
India,Karnataka,Kalaburagi,"Mahatma Basaveswar Colony, Kalaburgi - KSPCB",15-02-2024 14:00:00,17.336318,76.847397,PM10,33,92,48
India,Karnataka,Kalaburagi,"Mahatma Basaveswar Colony, Kalaburgi - KSPCB",15-02-2024 14:00:00,17.336318,76.847397,NH3,2,4,3
India,Karnataka,Karwar,"KHB Colony, Karwar - KSPCB",15-02-2024 14:00:00,14.816666,74.141003,SO2,18,18,18
India,Karnataka,Kolar,"Tamaka Ind. Area, Kolar - KSPCB",15-02-2024 14:00:00,13.1276288,78.1570122,SO2,9,12,10
India,Karnataka,Kolar,"Tamaka Ind. Area, Kolar - KSPCB",15-02-2024 14:00:00,13.1276288,78.1570122,OZONE,8,12,10
India,Karnataka,Koppal,"Diwator Nagar, Koppal - KSPCB",15-02-2024 14:00:00,15.347630,76.181767,SO2,56,62,58
India,Karnataka,Madikeri,"Stuart Hill, Madikeri - KSPCB",15-02-2024 14:00:00,12.415911,75.735050,CO,6,40,22
India,Karnataka,Madikeri,"Stuart Hill, Madikeri - KSPCB",15-02-2024 14:00:00,12.415911,75.735050,OZONE,30,42,35
India,Karnataka,Mangalore,"Kadri, Mangalore - KSPCB",15-02-2024 14:00:00,12.889250,74.853000,NO2,NA,NA,NA
India,Karnataka,Mangalore,"Kadri, Mangalore - KSPCB",15-02-2024 14:00:00,12.889250,74.853000,CO,38,52,45
India,Karnataka,Raichur,"Haji Colony, Raichur - KSPCB",15-02-2024 14:00:00,16.208139,77.348417,PM10,32,173,80
India,Karnataka,Raichur,"Haji Colony, Raichur - KSPCB",15-02-2024 14:00:00,16.208139,77.348417,NO2,11,46,25
India,Karnataka,Raichur,"Haji Colony, Raichur - KSPCB",15-02-2024 14:00:00,16.208139,77.348417,NH3,1,3,2
India,Karnataka,Ramanagara,"Vijay Nagar, Ramanagara - KSPCB",15-02-2024 14:00:00,12.733409,77.298051,PM10,29,69,43
India,Karnataka,Shivamogga,"Vinoba Nagara, Shivamogga - KSPCB",15-02-2024 14:00:00,13.940000,75.555917,NH3,2,4,3
India,Karnataka,Tumakuru,"Thimmalapura, Tumakuru - KSPCB",15-02-2024 14:00:00,13.377516,77.099072,NO2,NA,NA,NA
India,Karnataka,Tumakuru,"Thimmalapura, Tumakuru - KSPCB",15-02-2024 14:00:00,13.377516,77.099072,NH3,NA,NA,NA
India,Karnataka,Udupi,"Brahmagiri, Udupi - KSPCB",15-02-2024 14:00:00,13.34194444,74.74694444,OZONE,23,24,23
