country,state,city,station,last_update,latitude,longitude,pollutant_id,pollutant_min,pollutant_max,pollutant_avg
India,Andhra_Pradesh,Amaravati,"Secretariat, Amaravati - APPCB",28-05-2024 11:00:00,16.5150833,80.5181667,NO2,5,13,8
India,Andhra_Pradesh,Amaravati,"Secretariat, Amaravati - APPCB",28-05-2024 11:00:00,16.5150833,80.5181667,CO,11,111,24
India,Andhra_Pradesh,Amaravati,"Secretariat, Amaravati - APPCB",28-05-2024 11:00:00,16.5150833,80.5181667,OZONE,17,70,22
India,Andhra_Pradesh,Anantapur,"Gulzarpet, Anantapur - APPCB",28-05-2024 11:00:00,14.675886,77.593027,PM2.5,20,128,31
India,Andhra_Pradesh,Anantapur,"Gulzarpet, Anantapur - APPCB",28-05-2024 11:00:00,14.675886,77.593027,NH3,4,4,4
India,Andhra_Pradesh,Chittoor,"Gangineni Cheruvu, Chittoor - APPCB",28-05-2024 11:00:00,13.204880,79.097889,PM10,30,112,72
India,Andhra_Pradesh,Kadapa,"Yerramukkapalli, Kadapa - APPCB",28-05-2024 11:00:00,14.465052,78.824187,SO2,2,2,2
India,Andhra_Pradesh,Rajamahendravaram,"Anand Kala Kshetram, Rajamahendravaram - APPCB",28-05-2024 11:00:00,16.9872867,81.7363176,PM10,43,134,86
India,Andhra_Pradesh,Rajamahendravaram,"Anand Kala Kshetram, Rajamahendravaram - APPCB",28-05-2024 11:00:00,16.9872867,81.7363176,OZONE,28,188,70
India,Andhra_Pradesh,Tirupati,"Tirumala, Tirupati - APPCB",28-05-2024 11:00:00,13.67,79.35,OZONE,18,40,23
India,Andhra_Pradesh,Tirupati,"Vaikuntapuram, Tirupati - APPCB",28-05-2024 11:00:00,13.615387,79.409230,PM10,9,52,32
India,Andhra_Pradesh,Vijayawada,"HB Colony, Vijayawada - APPCB",28-05-2024 11:00:00,16.536107,80.594233,NH3,5,5,5
India,Andhra_Pradesh,Vijayawada,"HB Colony, Vijayawada - APPCB",28-05-2024 11:00:00,16.536107,80.594233,CO,32,38,34
India,Andhra_Pradesh,Vijayawada,"Kanuru, Vijayawada - APPCB",28-05-2024 11:00:00,16.486692,80.699436,PM10,70,88,78
India,Andhra_Pradesh,Vijayawada,"Rajiv Nagar, Vijayawada - APPCB",28-05-2024 11:00:00,16.554731,80.649110,PM2.5,35,79,40
India,Andhra_Pradesh,Visakhapatnam,"GVM Corporation, Visakhapatnam - APPCB",28-05-2024 11:00:00,17.72,83.3,OZONE,3,50,25
India,Arunachal_Pradesh,Naharlagun,"Naharlagun, Naharlagun - APSPCB",28-05-2024 11:00:00,27.103358,93.679645,OZONE,2,3,2
India,Assam,Guwahati,"IITG, Guwahati - PCBA",28-05-2024 11:00:00,26.2028636,91.70046436,PM2.5,NA,NA,NA
India,Assam,Guwahati,"IITG, Guwahati - PCBA",28-05-2024 11:00:00,26.2028636,91.70046436,PM10,2,16,9
India,Assam,Guwahati,"IITG, Guwahati - PCBA",28-05-2024 11:00:00,26.2028636,91.70046436,CO,4,6,5
India,Assam,Guwahati,"IITG, Guwahati - PCBA",28-05-2024 11:00:00,26.2028636,91.70046436,OZONE,14,39,33
India,Assam,Guwahati,"LGBI Airport, Guwahati - PCBA",28-05-2024 11:00:00,26.10887,91.589544,CO,38,46,45
India,Assam,Guwahati,"Railway Colony, Guwahati - PCBA",28-05-2024 11:00:00,26.181742,91.78063,SO2,17,30,22
India,Assam,Guwahati,"Railway Colony, Guwahati - PCBA",28-05-2024 11:00:00,26.181742,91.78063,CO,14,24,16
India,Assam,Nagaon,"Christianpatty, Nagaon - PCBA",28-05-2024 11:00:00,26.349082,92.68449,PM2.5,NA,NA,NA
India,Assam,Nagaon,"Christianpatty, Nagaon - PCBA",28-05-2024 11:00:00,26.349082,92.68449,NO2,NA,NA,NA
India,Assam,Nagaon,"Christianpatty, Nagaon - PCBA",28-05-2024 11:00:00,26.349082,92.68449,NH3,1,1,1
India,Assam,Nagaon,"Christianpatty, Nagaon - PCBA",28-05-2024 11:00:00,26.349082,92.68449,SO2,3,45,23
India,Assam,Nalbari,"Bata Chowk, Nalbari - PCBA",28-05-2024 11:00:00,26.446912,91.439057,PM10,NA,NA,NA
India,Assam,Nalbari,"Bata Chowk, Nalbari - PCBA",28-05-2024 11:00:00,26.446912,91.439057,NO2,5,11,8
India,Assam,Silchar,"Tarapur, Silchar - PCBA",28-05-2024 11:00:00,24.82827,92.79525,NO2,NA,NA,NA
India,Assam,Silchar,"Tarapur, Silchar - PCBA",28-05-2024 11:00:00,24.82827,92.79525,CO,18,35,35
India,Assam,Silchar,"Tarapur, Silchar - PCBA",28-05-2024 11:00:00,24.82827,92.79525,OZONE,1,11,6
India,Bihar,Aurangabad,"Gurdeo Nagar, Aurangabad - BSPCB",28-05-2024 11:00:00,24.75746,84.366208,CO,8,20,14
India,Bihar,Aurangabad,"Gurdeo Nagar, Aurangabad - BSPCB",28-05-2024 11:00:00,24.75746,84.366208,OZONE,19,85,40
India,Bihar,Bettiah,"Kamalnath Nagar, Bettiah - BSPCB",28-05-2024 11:00:00,26.80365,84.51954,NO2,NA,NA,NA
India,Bihar,Bhagalpur,"Mayaganj, Bhagalpur - BSPCB",28-05-2024 11:00:00,25.265194,87.012947,PM10,19,108,42
India,Bihar,Bhagalpur,"Mayaganj, Bhagalpur - BSPCB",28-05-2024 11:00:00,25.265194,87.012947,NH3,7,9,8
India,Bihar,Bhagalpur,"Mayaganj, Bhagalpur - BSPCB",28-05-2024 11:00:00,25.265194,87.012947,OZONE,8,33,15
India,Bihar,Bihar Sharif,"D M Colony, Bihar Sharif - BSPCB",28-05-2024 11:00:00,25.204762,85.514960,NH3,3,5,4
India,Bihar,Buxar,"Charitra Van, Buxar - BSPCB (Formerly known as Central Jail)",28-05-2024 11:00:00,25.567520,83.966379,PM2.5,NA,NA,NA
India,Bihar,Buxar,"Charitra Van, Buxar - BSPCB (Formerly known as Central Jail)",28-05-2024 11:00:00,25.567520,83.966379,PM10,NA,NA,NA
India,Bihar,Buxar,"Charitra Van, Buxar - BSPCB (Formerly known as Central Jail)",28-05-2024 11:00:00,25.567520,83.966379,NO2,NA,NA,NA
India,Bihar,Gaya,"Kareemganj, Gaya - BSPCB",28-05-2024 11:00:00,24.792403,84.992416,PM10,8,74,35
India,Bihar,Gaya,"SFTI Kusdihra, Gaya - BSPCB",28-05-2024 11:00:00,24.762518,84.982348,OZONE,15,78,34
India,Bihar,Hajipur,"Industrial Area, Hajipur - BSPCB",28-05-2024 11:00:00,25.697189,85.245900,PM2.5,56,103,75
India,Bihar,Hajipur,"Industrial Area, Hajipur - BSPCB",28-05-2024 11:00:00,25.697189,85.245900,NH3,10,15,12
India,Bihar,Hajipur,"Industrial Area, Hajipur - BSPCB",28-05-2024 11:00:00,25.697189,85.245900,OZONE,19,133,48
India,Bihar,Katihar,"Mirchaibari, Katihar - BSPCB",28-05-2024 11:00:00,25.560083,87.553265,OZONE,2,18,8
India,Bihar,Kishanganj,"SDM Office_Khagra, Kishanganj - BSPCB",28-05-2024 11:00:00,26.0881305,87.93840336,OZONE,24,46,26
India,Bihar,Manguraha,"Forest Rest House, Manguraha - BSPCB",28-05-2024 11:00:00,27.308328,84.531742,PM2.5,NA,NA,NA
India,Bihar,Motihari,"Gandak Colony, Motihari - BSPCB",28-05-2024 11:00:00,26.63086,84.90051,NH3,NA,NA,NA
India,Bihar,Motihari,"Gandak Colony, Motihari - BSPCB",28-05-2024 11:00:00,26.63086,84.90051,CO,4,16,8
India,Bihar,Motihari,"Gandak Colony, Motihari - BSPCB",28-05-2024 11:00:00,26.63086,84.90051,OZONE,21,60,38
India,Bihar,Munger,"Town Hall, Munger - BSPCB",28-05-2024 11:00:00,25.376776,86.471523,PM10,22,175,74
India,Bihar,Munger,"Town Hall, Munger - BSPCB",28-05-2024 11:00:00,25.376776,86.471523,SO2,17,34,25
India,Bihar,Munger,"Town Hall, Munger - BSPCB",28-05-2024 11:00:00,25.376776,86.471523,CO,14,96,41
India,Bihar,Muzaffarpur,"Buddha Colony, Muzaffarpur - BSPCB",28-05-2024 11:00:00,26.11442,85.39813,PM10,44,93,67
India,Bihar,Muzaffarpur,"Buddha Colony, Muzaffarpur - BSPCB",28-05-2024 11:00:00,26.11442,85.39813,OZONE,37,93,58
India,Bihar,Muzaffarpur,"MIT-Daudpur Kothi, Muzaffarpur - BSPCB",28-05-2024 11:00:00,26.1403345,85.3650192,PM10,NA,NA,NA
India,Bihar,Muzaffarpur,"Muzaffarpur Collectorate, Muzaffarpur - BSPCB",28-05-2024 11:00:00,26.1209,85.3647,PM2.5,24,103,47
India,Bihar,Muzaffarpur,"Muzaffarpur Collectorate, Muzaffarpur - BSPCB",28-05-2024 11:00:00,26.1209,85.3647,CO,28,54,50
India,Bihar,Patna,"DRM Office Danapur, Patna - BSPCB",28-05-2024 11:00:00,25.586562,85.043586,SO2,1,4,3
India,Bihar,Patna,"DRM Office Danapur, Patna - BSPCB",28-05-2024 11:00:00,25.586562,85.043586,CO,19,32,23
India,Bihar,Patna,"DRM Office Danapur, Patna - BSPCB",28-05-2024 11:00:00,25.586562,85.043586,OZONE,21,50,31
India,Bihar,Patna,"Govt. High School Shikarpur, Patna - BSPCB",28-05-2024 11:00:00,25.592539,85.227158,PM2.5,37,78,48
India,Bihar,Patna,"Govt. High School Shikarpur, Patna - BSPCB",28-05-2024 11:00:00,25.592539,85.227158,PM10,68,142,90
India,Bihar,Patna,"Govt. High School Shikarpur, Patna - BSPCB",28-05-2024 11:00:00,25.592539,85.227158,OZONE,1,59,14
India,Bihar,Patna,"IGSC Planetarium Complex, Patna - BSPCB",28-05-2024 11:00:00,25.610369,85.132568,NO2,9,10,10
India,Bihar,Patna,"Muradpur, Patna - BSPCB",28-05-2024 11:00:00,25.619651,85.147382,NO2,13,87,36
India,Bihar,Patna,"Rajbansi Nagar, Patna - BSPCB",28-05-2024 11:00:00,25.599486,85.113666,PM2.5,64,132,83
India,Bihar,Patna,"Rajbansi Nagar, Patna - BSPCB",28-05-2024 11:00:00,25.599486,85.113666,PM10,57,98,76
India,Bihar,Patna,"Rajbansi Nagar, Patna - BSPCB",28-05-2024 11:00:00,25.599486,85.113666,NH3,2,5,4
India,Bihar,Patna,"Rajbansi Nagar, Patna - BSPCB",28-05-2024 11:00:00,25.599486,85.113666,OZONE,25,53,33
India,Bihar,Patna,"Samanpura, Patna - BSPCB",28-05-2024 11:00:00,25.596727,85.085624,PM2.5,NA,NA,NA
India,Bihar,Patna,"Samanpura, Patna - BSPCB",28-05-2024 11:00:00,25.596727,85.085624,PM10,NA,NA,NA
India,Bihar,Patna,"Samanpura, Patna - BSPCB",28-05-2024 11:00:00,25.596727,85.085624,SO2,NA,NA,NA
India,Bihar,Patna,"Samanpura, Patna - BSPCB",28-05-2024 11:00:00,25.596727,85.085624,CO,30,42,42
India,Bihar,Patna,"Samanpura, Patna - BSPCB",28-05-2024 11:00:00,25.596727,85.085624,OZONE,62,86,86
India,Bihar,Purnia,"Mariam Nagar, Purnia - BSPCB",28-05-2024 11:00:00,25.366336,87.117468,PM2.5,NA,NA,NA
India,Bihar,Purnia,"Mariam Nagar, Purnia - BSPCB",28-05-2024 11:00:00,25.366336,87.117468,NO2,5,6,6
India,Bihar,Rajgir,"Dangi Tola, Rajgir - BSPCB",28-05-2024 11:00:00,25.03280,85.41948,PM2.5,NA,NA,NA
India,Bihar,Rajgir,"Dangi Tola, Rajgir - BSPCB",28-05-2024 11:00:00,25.03280,85.41948,PM10,NA,NA,NA
India,Bihar,Rajgir,"Dangi Tola, Rajgir - BSPCB",28-05-2024 11:00:00,25.03280,85.41948,NO2,14,15,14
India,Bihar,Rajgir,"Dangi Tola, Rajgir - BSPCB",28-05-2024 11:00:00,25.03280,85.41948,NH3,2,2,2
India,Bihar,Saharsa,"Police Line, Saharsa - BSPCB",28-05-2024 11:00:00,25.892357,86.590325,PM10,24,132,57
India,Bihar,Saharsa,"Police Line, Saharsa - BSPCB",28-05-2024 11:00:00,25.892357,86.590325,SO2,16,17,17
India,Bihar,Saharsa,"Police Line, Saharsa - BSPCB",28-05-2024 11:00:00,25.892357,86.590325,CO,54,56,55
India,Bihar,Saharsa,"Police Line, Saharsa - BSPCB",28-05-2024 11:00:00,25.892357,86.590325,OZONE,6,65,28
India,Bihar,Sasaram,"Dada Peer, Sasaram - BSPCB",28-05-2024 11:00:00,24.952822,84.002396,SO2,NA,NA,NA
India,Chandigarh,Chandigarh,"Sector 22, Chandigarh - CPCC",28-05-2024 11:00:00,30.735567,76.775714,OZONE,4,267,75
India,Chandigarh,Chandigarh,"Sector-25, Chandigarh - CPCC",28-05-2024 11:00:00,30.751462,76.762879,PM10,120,170,139
India,Chandigarh,Chandigarh,"Sector-25, Chandigarh - CPCC",28-05-2024 11:00:00,30.751462,76.762879,NH3,8,34,16
India,Chandigarh,Chandigarh,"Sector-53, Chandigarh - CPCC",28-05-2024 11:00:00,30.719859,76.738637,PM10,79,215,144
India,Chandigarh,Chandigarh,"Sector-53, Chandigarh - CPCC",28-05-2024 11:00:00,30.719859,76.738637,NO2,5,121,49
India,Chhattisgarh,Bhilai,"Civic Center, Bhilai - Bhilai Steel Plant",28-05-2024 11:00:00,21.185571,81.343175,CO,2,74,42
India,Chhattisgarh,Bilaspur,"Mangala, Bilaspur - NTPC",28-05-2024 11:00:00,22.08815,82.13737,PM2.5,43,101,73
India,Chhattisgarh,Korba,"Urja Nagar, Korba - CECB",28-05-2024 11:00:00,22.348441,82.549611,PM2.5,NA,NA,NA
India,Chhattisgarh,Korba,"Urja Nagar, Korba - CECB",28-05-2024 11:00:00,22.348441,82.549611,NH3,NA,NA,NA
India,Chhattisgarh,Kunjemura,"OP Jindal School, Kunjemura - CECB",28-05-2024 11:00:00,22.126650,83.483212,PM10,42,247,99
India,Chhattisgarh,Milupara,"Govt. Higher Secondary School, Milupara - CECB",28-05-2024 11:00:00,22.1910172,83.5197009,NH3,NA,NA,NA
India,Chhattisgarh,Milupara,"Govt. Higher Secondary School, Milupara - CECB",28-05-2024 11:00:00,22.1910172,83.5197009,CO,NA,NA,NA
India,Chhattisgarh,Raipur,"AIIMS, Raipur - CECB",28-05-2024 11:00:00,21.258815,81.578979,PM2.5,36,87,61
India,Chhattisgarh,Raipur,"AIIMS, Raipur - CECB",28-05-2024 11:00:00,21.258815,81.578979,SO2,6,16,10
India,Chhattisgarh,Raipur,"AIIMS, Raipur - CECB",28-05-2024 11:00:00,21.258815,81.578979,CO,18,40,25
India,Chhattisgarh,Raipur,"Bhatagaon New ISBT, Raipur - CECB",28-05-2024 11:00:00,21.219665,81.630094,NO2,1,7,2
India,Chhattisgarh,Raipur,"Bhatagaon New ISBT, Raipur - CECB",28-05-2024 11:00:00,21.219665,81.630094,NH3,2,3,2
India,Chhattisgarh,Raipur,"Bhatagaon New ISBT, Raipur - CECB",28-05-2024 11:00:00,21.219665,81.630094,CO,17,48,25
India,Chhattisgarh,Raipur,"Siltara Phase-II, Raipur - CECB",28-05-2024 11:00:00,21.371751,81.664929,PM2.5,47,126,88
India,Chhattisgarh,Raipur,"Siltara Phase-II, Raipur - CECB",28-05-2024 11:00:00,21.371751,81.664929,NH3,3,3,3
India,Chhattisgarh,Tumidih,"OP Jindal Industrial Park, Tumidih - CECB",28-05-2024 11:00:00,22.06631475,83.33820077,PM2.5,36,151,83
India,Chhattisgarh,Tumidih,"OP Jindal Industrial Park, Tumidih - CECB",28-05-2024 11:00:00,22.06631475,83.33820077,PM10,34,292,136
India,Chhattisgarh,Tumidih,"OP Jindal Industrial Park, Tumidih - CECB",28-05-2024 11:00:00,22.06631475,83.33820077,NO2,10,89,42
India,Delhi,Delhi,"Alipur, Delhi - DPCC",28-05-2024 11:00:00,28.815329,77.153010,PM2.5,45,349,210
India,Delhi,Delhi,"Alipur, Delhi - DPCC",28-05-2024 11:00:00,28.815329,77.153010,PM10,133,444,279
India,Delhi,Delhi,"Anand Vihar, Delhi - DPCC",28-05-2024 11:00:00,28.647622,77.3158090,PM2.5,150,388,292
India,Delhi,Delhi,"Anand Vihar, Delhi - DPCC",28-05-2024 11:00:00,28.647622,77.3158090,NO2,65,154,118
India,Delhi,Delhi,"Anand Vihar, Delhi - DPCC",28-05-2024 11:00:00,28.647622,77.3158090,NH3,4,13,9
India,Delhi,Delhi,"Anand Vihar, Delhi - DPCC",28-05-2024 11:00:00,28.647622,77.3158090,OZONE,2,143,27
India,Delhi,Delhi,"Ashok Vihar, Delhi - DPCC",28-05-2024 11:00:00,28.695381,77.181665,SO2,22,72,36
India,Delhi,Delhi,"Ashok Vihar, Delhi - DPCC",28-05-2024 11:00:00,28.695381,77.181665,CO,12,124,40
India,Delhi,Delhi,"Bawana, Delhi - DPCC",28-05-2024 11:00:00,28.776200,77.051074,PM10,153,463,293
India,Delhi,Delhi,"Bawana, Delhi - DPCC",28-05-2024 11:00:00,28.776200,77.051074,NO2,10,147,84
India,Delhi,Delhi,"Bawana, Delhi - DPCC",28-05-2024 11:00:00,28.776200,77.051074,CO,30,104,77
India,Delhi,Delhi,"Bawana, Delhi - DPCC",28-05-2024 11:00:00,28.776200,77.051074,OZONE,4,246,239
India,Delhi,Delhi,"Burari Crossing, Delhi - IMD",28-05-2024 11:00:00,28.7256504,77.2011573,PM2.5,56,316,179
India,Delhi,Delhi,"CRRI Mathura Road, Delhi - IMD",28-05-2024 11:00:00,28.5512005,77.2735737,PM10,133,421,238
India,Delhi,Delhi,"Chandni Chowk, Delhi - IITM",28-05-2024 11:00:00,28.656756,77.227234,PM10,NA,NA,NA
India,Delhi,Delhi,"Dr. Karni Singh Shooting Range, Delhi - DPCC",28-05-2024 11:00:00,28.498571,77.264840,NO2,23,131,51
India,Delhi,Delhi,"Dwarka-Sector 8, Delhi - DPCC ",28-05-2024 11:00:00,28.5710274,77.0719006,PM10,127,480,296
India,Delhi,Delhi,"Dwarka-Sector 8, Delhi - DPCC ",28-05-2024 11:00:00,28.5710274,77.0719006,NO2,26,183,101
India,Delhi,Delhi,"Dwarka-Sector 8, Delhi - DPCC ",28-05-2024 11:00:00,28.5710274,77.0719006,CO,32,174,80
India,Delhi,Delhi,"Dwarka-Sector 8, Delhi - DPCC ",28-05-2024 11:00:00,28.5710274,77.0719006,OZONE,5,196,196
India,Delhi,Delhi,"IGI Airport (T3), Delhi - IMD",28-05-2024 11:00:00,28.5627763,77.1180053,NO2,22,92,55
India,Delhi,Delhi,"IHBAS, Dilshad Garden, Delhi - CPCB",28-05-2024 11:00:00,28.6811736,77.3025234,SO2,3,34,20
India,Delhi,Delhi,"IHBAS, Dilshad Garden, Delhi - CPCB",28-05-2024 11:00:00,28.6811736,77.3025234,CO,8,101,17
India,Delhi,Delhi,"Jahangirpuri, Delhi - DPCC",28-05-2024 11:00:00,28.732820,77.170633,NH3,1,10,6
India,Delhi,Delhi,"Lodhi Road, Delhi - IITM",28-05-2024 11:00:00,28.588333,77.221667,PM10,57,165,94
India,Delhi,Delhi,"Lodhi Road, Delhi - IITM",28-05-2024 11:00:00,28.588333,77.221667,NO2,5,153,59
India,Delhi,Delhi,"Lodhi Road, Delhi - IMD",28-05-2024 11:00:00,28.5918245,77.2273074,NO2,7,53,30
India,Delhi,Delhi,"Major Dhyan Chand National Stadium, Delhi - DPCC",28-05-2024 11:00:00,28.611281,77.237738,PM2.5,97,332,240
India,Delhi,Delhi,"Mandir Marg, Delhi - DPCC",28-05-2024 11:00:00,28.636429,77.201067,NH3,3,7,5
India,Delhi,Delhi,"Mundka, Delhi - DPCC",28-05-2024 11:00:00,28.684678,77.076574,PM10,159,500,324
India,Delhi,Delhi,"Mundka, Delhi - DPCC",28-05-2024 11:00:00,28.684678,77.076574,CO,36,113,80
India,Delhi,Delhi,"NSIT Dwarka, Delhi - CPCB",28-05-2024 11:00:00,28.60909,77.0325413,PM2.5,128,371,273
India,Delhi,Delhi,"Najafgarh, Delhi - DPCC",28-05-2024 11:00:00,28.570173,76.933762,OZONE,16,135,51
India,Delhi,Delhi,"Narela, Delhi - DPCC",28-05-2024 11:00:00,28.822836,77.101981,OZONE,9,253,253
India,Delhi,Delhi,"North Campus, DU, Delhi - IMD",28-05-2024 11:00:00,28.6573814,77.1585447,NO2,8,45,31
India,Delhi,Delhi,"Okhla Phase-2, Delhi - DPCC",28-05-2024 11:00:00,28.530785,77.271255,PM10,135,416,239
India,Delhi,Delhi,"Okhla Phase-2, Delhi - DPCC",28-05-2024 11:00:00,28.530785,77.271255,OZONE,4,200,164
India,Delhi,Delhi,"Patparganj, Delhi - DPCC",28-05-2024 11:00:00,28.623763,77.287209,NO2,5,63,34
India,Delhi,Delhi,"Punjabi Bagh, Delhi - DPCC",28-05-2024 11:00:00,28.674045,77.131023,PM2.5,45,336,208
India,Delhi,Delhi,"Rohini, Delhi - DPCC",28-05-2024 11:00:00,28.732528,77.119920,PM2.5,68,317,217
India,Delhi,Delhi,"Rohini, Delhi - DPCC",28-05-2024 11:00:00,28.732528,77.119920,NH3,6,11,9
India,Delhi,Delhi,"Shadipur, Delhi - CPCB",28-05-2024 11:00:00,28.6514781,77.1473105,CO,45,77,55
India,Delhi,Delhi,"Sirifort, Delhi - CPCB",28-05-2024 11:00:00,28.5504249,77.2159377,CO,20,124,82
India,Delhi,Delhi,"Sonia Vihar, Delhi - DPCC",28-05-2024 11:00:00,28.710508,77.249485,PM10,129,412,267
India,Delhi,Delhi,"Sri Aurobindo Marg, Delhi - DPCC",28-05-2024 11:00:00,28.531346,77.190156,PM2.5,48,292,149
India,Delhi,Delhi,"Sri Aurobindo Marg, Delhi - DPCC",28-05-2024 11:00:00,28.531346,77.190156,PM10,143,253,176
India,Delhi,Delhi,"Sri Aurobindo Marg, Delhi - DPCC",28-05-2024 11:00:00,28.531346,77.190156,OZONE,1,243,201
India,Delhi,Delhi,"Vivek Vihar, Delhi - DPCC",28-05-2024 11:00:00,28.672342,77.315260,OZONE,2,270,270
India,Gujarat,Ahmedabad,"Chandkheda, Ahmedabad - IITM",28-05-2024 11:00:00,23.107969,72.574648,PM2.5,59,196,102
India,Gujarat,Ahmedabad,"Chandkheda, Ahmedabad - IITM",28-05-2024 11:00:00,23.107969,72.574648,CO,34,76,41
India,Gujarat,Ahmedabad,"Chandkheda, Ahmedabad - IITM",28-05-2024 11:00:00,23.107969,72.574648,OZONE,18,129,58
India,Gujarat,Ahmedabad,"Gyaspur, Ahmedabad - IITM",28-05-2024 11:00:00,22.977134,72.553024,PM2.5,59,341,160
India,Gujarat,Ahmedabad,"Gyaspur, Ahmedabad - IITM",28-05-2024 11:00:00,22.977134,72.553024,PM10,63,285,135
India,Gujarat,Ahmedabad,"Gyaspur, Ahmedabad - IITM",28-05-2024 11:00:00,22.977134,72.553024,CO,32,41,34
India,Gujarat,Ahmedabad,"Maninagar, Ahmedabad - GPCB",28-05-2024 11:00:00,23.002657,72.591912,SO2,NA,NA,NA
India,Gujarat,Ahmedabad,"Raikhad, Ahmedabad - IITM",28-05-2024 11:00:00,23.020509,72.579261,SO2,NA,NA,NA
India,Gujarat,Ahmedabad,"Raikhad, Ahmedabad - IITM",28-05-2024 11:00:00,23.020509,72.579261,CO,6,32,14
India,Gujarat,Ahmedabad,"SVPI Airport Hansol, Ahmedabad - IITM",28-05-2024 11:00:00,23.076793,72.627874,OZONE,31,65,34
India,Gujarat,Ankleshwar,"GIDC, Ankleshwar - GPCB",28-05-2024 11:00:00,21.613267,73.010555,NO2,18,29,23
India,Gujarat,Ankleshwar,"GIDC, Ankleshwar - GPCB",28-05-2024 11:00:00,21.613267,73.010555,SO2,1,39,15
India,Gujarat,Ankleshwar,"GIDC, Ankleshwar - GPCB",28-05-2024 11:00:00,21.613267,73.010555,OZONE,24,29,26
India,Gujarat,Gandhinagar,"Sector-10, Gandhinagar - GPCB",28-05-2024 11:00:00,23.221714,72.654328,NH3,1,3,2
India,Gujarat,Gandhinagar,"Sector-10, Gandhinagar - GPCB",28-05-2024 11:00:00,23.221714,72.654328,SO2,3,4,4
India,Gujarat,Surat,"Science Center, Surat - SMC",28-05-2024 11:00:00,21.170046,72.795405,PM10,NA,NA,NA
India,Gujarat,Surat,"Science Center, Surat - SMC",28-05-2024 11:00:00,21.170046,72.795405,CO,65,75,69
India,Gujarat,Vapi,"Phase-1 GIDC, Vapi - GPCB",28-05-2024 11:00:00,20.362421,72.918013,SO2,44,48,46
India,Gujarat,Vatva,"Phase-4 GIDC, Vatva - GPCB",28-05-2024 11:00:00,22.969611,72.643500,PM10,NA,NA,NA
India,Haryana,Ballabgarh,"Nathu Colony, Ballabgarh - HSPCB",28-05-2024 11:00:00,28.3419248,77.319699,CO,16,68,65
India,Haryana,Bhiwani,"H.B. Colony, Bhiwani - HSPCB",28-05-2024 11:00:00,28.806223,76.141105,NO2,1,13,8
India,Haryana,Bhiwani,"H.B. Colony, Bhiwani - HSPCB",28-05-2024 11:00:00,28.806223,76.141105,NH3,3,6,6
India,Haryana,Charkhi Dadri,"Mini Secretariat, Charkhi Dadri - HSPCB",28-05-2024 11:00:00,28.593883,76.270653,PM2.5,53,200,103
India,Haryana,Charkhi Dadri,"Mini Secretariat, Charkhi Dadri - HSPCB",28-05-2024 11:00:00,28.593883,76.270653,PM10,42,113,74
India,Haryana,Charkhi Dadri,"Mini Secretariat, Charkhi Dadri - HSPCB",28-05-2024 11:00:00,28.593883,76.270653,NO2,15,23,18
India,Haryana,Dharuhera,"Municipal Corporation Office, Dharuhera -  HSPCB",28-05-2024 11:00:00,28.206800,76.799700,NH3,NA,NA,NA
India,Haryana,Dharuhera,"Municipal Corporation Office, Dharuhera -  HSPCB",28-05-2024 11:00:00,28.206800,76.799700,SO2,NA,NA,NA
India,Haryana,Faridabad,"Sector 11, Faridabad - HSPCB",28-05-2024 11:00:00,28.376058,77.315741,NH3,6,6,6
India,Haryana,Faridabad,"Sector 11, Faridabad - HSPCB",28-05-2024 11:00:00,28.376058,77.315741,SO2,3,116,25
India,Haryana,Faridabad,"Sector 30, Faridabad - HSPCB",28-05-2024 11:00:00,28.4417,77.3217,PM10,NA,NA,NA
India,Haryana,Faridabad,"Sector- 16A, Faridabad - HSPCB",28-05-2024 11:00:00,28.4088421,77.3099081,NO2,1,22,10
India,Haryana,Fatehabad,"Huda Sector, Fatehabad - HSPCB",28-05-2024 11:00:00,29.503664,75.467934,PM10,104,140,117
India,Haryana,Fatehabad,"Huda Sector, Fatehabad - HSPCB",28-05-2024 11:00:00,29.503664,75.467934,NO2,29,31,30
India,Haryana,Fatehabad,"Huda Sector, Fatehabad - HSPCB",28-05-2024 11:00:00,29.503664,75.467934,CO,5,14,8
India,Haryana,Gurugram,"Sector-51, Gurugram - HSPCB",28-05-2024 11:00:00,28.4227,77.0667,PM2.5,86,357,214
India,Haryana,Gurugram,"Sector-51, Gurugram - HSPCB",28-05-2024 11:00:00,28.4227,77.0667,OZONE,29,66,32
India,Haryana,Gurugram,"Teri Gram, Gurugram - HSPCB",28-05-2024 11:00:00,28.4275,77.1465,PM2.5,88,226,147
India,Haryana,Gurugram,"Teri Gram, Gurugram - HSPCB",28-05-2024 11:00:00,28.4275,77.1465,OZONE,29,76,65
India,Haryana,Gurugram,"Vikas Sadan, Gurugram - HSPCB",28-05-2024 11:00:00,28.4501238,77.0263051,PM2.5,32,449,73
India,Haryana,Gurugram,"Vikas Sadan, Gurugram - HSPCB",28-05-2024 11:00:00,28.4501238,77.0263051,NO2,5,25,13
India,Haryana,Gurugram,"Vikas Sadan, Gurugram - HSPCB",28-05-2024 11:00:00,28.4501238,77.0263051,SO2,9,104,40
India,Haryana,Gurugram,"Vikas Sadan, Gurugram - HSPCB",28-05-2024 11:00:00,28.4501238,77.0263051,CO,65,146,112
India,Haryana,Hisar,"Urban Estate-II, Hisar - HSPCB",28-05-2024 11:00:00,29.140560,75.744941,SO2,13,65,23
India,Haryana,Karnal,"Sector-12, Karnal - HSPCB",28-05-2024 11:00:00,29.695300,77.002700,SO2,12,13,13
India,Haryana,Mandikhera,"General Hospital, Mandikhera - HSPCB",28-05-2024 11:00:00,27.9002,76.9938,SO2,29,38,33
India,Haryana,Manesar,"Sector-2 IMT, Manesar - HSPCB",28-05-2024 11:00:00,28.360699,76.936090,OZONE,2,158,158
India,Haryana,Narnaul,"Shastri Nagar, Narnaul - HSPCB",28-05-2024 11:00:00,28.060249,76.113115,PM2.5,110,346,195
India,Haryana,Palwal,"Shyam Nagar, Palwal - HSPCB",28-05-2024 11:00:00,28.1485564,77.3320667,PM10,98,144,115
India,Haryana,Panipat,"Sector-18, Panipat - HSPCB",28-05-2024 11:00:00,29.432304,76.972765,PM2.5,108,116,113
India,Haryana,Panipat,"Sector-18, Panipat - HSPCB",28-05-2024 11:00:00,29.432304,76.972765,CO,24,26,25
India,Haryana,Rohtak,"MD University, Rohtak - HSPCB",28-05-2024 11:00:00,28.52123,76.37138,NO2,47,54,51
India,Haryana,Sirsa,"F-Block, Sirsa - HSPCB",28-05-2024 11:00:00,29.536400,75.015800,NO2,9,11,10
India,Haryana,Sirsa,"F-Block, Sirsa - HSPCB",28-05-2024 11:00:00,29.536400,75.015800,NH3,11,13,13
India,Haryana,Yamuna Nagar,"Gobind Pura, Yamuna Nagar - HSPCB",28-05-2024 11:00:00,30.1480566,77.2893471,PM10,92,128,112
India,Haryana,Yamuna Nagar,"Gobind Pura, Yamuna Nagar - HSPCB",28-05-2024 11:00:00,30.1480566,77.2893471,NO2,11,21,17
India,Himachal Pradesh,Baddi,"HIMUDA Complex Phase-1, Baddi - HPPCB",28-05-2024 11:00:00,30.943887,76.801991,NO2,9,103,26
India,Himachal Pradesh,Baddi,"HIMUDA Complex Phase-1, Baddi - HPPCB",28-05-2024 11:00:00,30.943887,76.801991,NH3,3,4,4
India,Himachal Pradesh,Baddi,"HIMUDA Complex Phase-1, Baddi - HPPCB",28-05-2024 11:00:00,30.943887,76.801991,SO2,12,124,48
India,Jharkhand,Dhanbad,"Kalakusuma, Dhanbad - DMC",28-05-2024 11:00:00,23.811548,86.481238,PM10,NA,NA,NA
India,Jharkhand,Dhanbad,"Sardar Patel Nagar, Dhanbad - JSPCB",28-05-2024 11:00:00,23.80569,86.44268,PM10,18,103,41
India,Karnataka,Belgaum,"Ramteerth Nagar, Belgaum - KSPCB",28-05-2024 11:00:00,15.888653,74.541751,NO2,17,42,29
India,Karnataka,Bengaluru,"Bapuji Nagar, Bengaluru - KSPCB",28-05-2024 11:00:00,12.951913,77.539784,SO2,6,8,8
India,Karnataka,Bengaluru,"Hombegowda Nagar, Bengaluru - KSPCB",28-05-2024 11:00:00,12.938539,77.590100,NH3,1,2,1
India,Karnataka,Bengaluru,"Hombegowda Nagar, Bengaluru - KSPCB",28-05-2024 11:00:00,12.938539,77.590100,SO2,3,5,4
India,Karnataka,Bengaluru,"Hombegowda Nagar, Bengaluru - KSPCB",28-05-2024 11:00:00,12.938539,77.590100,OZONE,16,43,20
India,Karnataka,Bengaluru,"Jayanagar 5th Block, Bengaluru - KSPCB",28-05-2024 11:00:00,12.920984,77.584908,NH3,1,2,2
India,Karnataka,Bengaluru,"Jayanagar 5th Block, Bengaluru - KSPCB",28-05-2024 11:00:00,12.920984,77.584908,CO,20,23,22
India,Karnataka,Bengaluru,"Kasturi Nagar, Bengaluru - KSPCB",28-05-2024 11:00:00,13.003872,77.664217,PM10,14,490,64
India,Karnataka,Bengaluru,"Peenya, Bengaluru - CPCB",28-05-2024 11:00:00,13.0270199,77.494094,PM2.5,33,45,37
India,Karnataka,Bengaluru,"RVCE-Mailasandra, Bengaluru - KSPCB",28-05-2024 11:00:00,12.921418,77.502466,PM2.5,10,58,36
India,Karnataka,Bengaluru,"Shivapura_Peenya, Bengaluru - KSPCB",28-05-2024 11:00:00,13.0246342,77.5080115,PM10,50,122,88
India,Karnataka,Bengaluru,"Shivapura_Peenya, Bengaluru - KSPCB",28-05-2024 11:00:00,13.0246342,77.5080115,NO2,15,16,16
India,Karnataka,Bengaluru,"Shivapura_Peenya, Bengaluru - KSPCB",28-05-2024 11:00:00,13.0246342,77.5080115,OZONE,53,55,54
India,Karnataka,Bengaluru,"Silk Board, Bengaluru - KSPCB",28-05-2024 11:00:00,12.917348,77.622813,PM2.5,28,52,44
India,Karnataka,Bengaluru,"Silk Board, Bengaluru - KSPCB",28-05-2024 11:00:00,12.917348,77.622813,CO,10,16,14
India,Karnataka,Bidar,"Naubad, Bidar - KSPCB",28-05-2024 11:00:00,17.930306,77.482194,NH3,3,3,3
India,Karnataka,Chamarajanagar,"Urban, Chamarajanagar - KSPCB",28-05-2024 11:00:00,11.55358,76.55521,SO2,4,8,5
India,Karnataka,Chikkaballapur,"Chikkaballapur Rural, Chikkaballapur - KSPCB",28-05-2024 11:00:00,13.428828,77.731418,NH3,1,2,1
India,Karnataka,Chikkamagaluru,"Kalyana Nagara, Chikkamagaluru - KSPCB",28-05-2024 11:00:00,13.328028,75.797056,NO2,15,30,20
India,Karnataka,Davanagere,"Devaraj Urs Badavane, Davanagere - KSPCB",28-05-2024 11:00:00,14.475800,75.905200,OZONE,19,20,19
India,Karnataka,Dharwad,"Kalabhavan, Dharwad - KSPCB",28-05-2024 11:00:00,15.459706,75.008381,NO2,5,16,11
India,Karnataka,Dharwad,"Kalabhavan, Dharwad - KSPCB",28-05-2024 11:00:00,15.459706,75.008381,NH3,2,3,3
India,Karnataka,Dharwad,"Kalabhavan, Dharwad - KSPCB",28-05-2024 11:00:00,15.459706,75.008381,CO,2,85,39
India,Karnataka,Hassan,"B.Katihalli, Hassan - KSPCB",28-05-2024 11:00:00,13.008556,76.125258,PM2.5,25,67,36
India,Karnataka,Hassan,"B.Katihalli, Hassan - KSPCB",28-05-2024 11:00:00,13.008556,76.125258,OZONE,1,35,2
India,Karnataka,Haveri,"Ashwini Nagar, Haveri - KSPCB",28-05-2024 11:00:00,14.791800,75.389600,PM2.5,23,50,36
India,Karnataka,Haveri,"Ashwini Nagar, Haveri - KSPCB",28-05-2024 11:00:00,14.791800,75.389600,NO2,NA,NA,NA
India,Karnataka,Kalaburagi,"Lal Bahadur Shastri Nagar, Kalaburagi - KSPCB",28-05-2024 11:00:00,17.321993,76.822628,NO2,10,12,11
India,Karnataka,Kalaburagi,"Lal Bahadur Shastri Nagar, Kalaburagi - KSPCB",28-05-2024 11:00:00,17.321993,76.822628,SO2,NA,NA,NA
India,Karnataka,Kalaburagi,"Lal Bahadur Shastri Nagar, Kalaburagi - KSPCB",28-05-2024 11:00:00,17.321993,76.822628,CO,44,50,50
India,Karnataka,Kalaburagi,"Mahatma Basaveswar Colony, Kalaburgi - KSPCB",28-05-2024 11:00:00,17.336318,76.847397,NO2,10,16,13
India,Karnataka,Kalaburagi,"Mahatma Basaveswar Colony, Kalaburgi - KSPCB",28-05-2024 11:00:00,17.336318,76.847397,CO,23,51,25
India,Karnataka,Kolar,"Tamaka Ind. Area, Kolar - KSPCB",28-05-2024 11:00:00,13.1276288,78.1570122,PM10,NA,NA,NA
India,Karnataka,Kolar,"Tamaka Ind. Area, Kolar - KSPCB",28-05-2024 11:00:00,13.1276288,78.1570122,SO2,NA,NA,NA
India,Karnataka,Koppal,"Diwator Nagar, Koppal - KSPCB",28-05-2024 11:00:00,15.347630,76.181767,NO2,35,65,46
India,Karnataka,Koppal,"Diwator Nagar, Koppal - KSPCB",28-05-2024 11:00:00,15.347630,76.181767,NH3,5,10,8
India,Karnataka,Koppal,"Diwator Nagar, Koppal - KSPCB",28-05-2024 11:00:00,15.347630,76.181767,CO,10,12,11
India,Karnataka,Madikeri,"Stuart Hill, Madikeri - KSPCB",28-05-2024 11:00:00,12.415911,75.735050,SO2,4,4,4
India,Karnataka,Mangalore,"Kadri, Mangalore - KSPCB",28-05-2024 11:00:00,12.889250,74.853000,SO2,23,26,25
India,Karnataka,Raichur,"Haji Colony, Raichur - KSPCB",28-05-2024 11:00:00,16.208139,77.348417,OZONE,3,5,4
India,Karnataka,Tumakuru,"Thimmalapura, Tumakuru - KSPCB",28-05-2024 11:00:00,13.377516,77.099072,PM2.5,25,59,44
India,Karnataka,Tumakuru,"Thimmalapura, Tumakuru - KSPCB",28-05-2024 11:00:00,13.377516,77.099072,NO2,NA,NA,NA
India,Karnataka,Udupi,"Brahmagiri, Udupi - KSPCB",28-05-2024 11:00:00,13.34194444,74.74694444,SO2,16,18,17
India,Karnataka,Vijayapura,"Ibrahimpur, Vijayapura - KSPCB",28-05-2024 11:00:00,16.802639,75.722694,PM2.5,25,31,30
India,Karnataka,Vijayapura,"Ibrahimpur, Vijayapura - KSPCB",28-05-2024 11:00:00,16.802639,75.722694,OZONE,13,16,15
India,Karnataka,Yadgir,"Collector Office, Yadgir - KSPCB",28-05-2024 11:00:00,16.7602,77.1428,PM10,55,90,73
India,Karnataka,Yadgir,"Collector Office, Yadgir - KSPCB",28-05-2024 11:00:00,16.7602,77.1428,NH3,1,5,3
India,Karnataka,Yadgir,"Collector Office, Yadgir - KSPCB",28-05-2024 11:00:00,16.7602,77.1428,SO2,7,101,25
India,Kerala,Eloor,"Udyogamandal, Eloor - Kerala PCB",28-05-2024 11:00:00,10.073232,76.302765,NO2,4,5,4
India,Kerala,Eloor,"Udyogamandal, Eloor - Kerala PCB",28-05-2024 11:00:00,10.073232,76.302765,OZONE,11,14,12
India,Kerala,Kollam,"Polayathode, Kollam - Kerala PCB",28-05-2024 11:00:00,8.8787,76.6073,PM10,NA,NA,NA
India,Kerala,Kollam,"Polayathode, Kollam - Kerala PCB",28-05-2024 11:00:00,8.8787,76.6073,OZONE,29,34,29
India,Kerala,Thiruvananthapuram,"Plammoodu, Thiruvananthapuram - Kerala PCB",28-05-2024 11:00:00,8.5149093,76.9435879,CO,14,26,19
India,Kerala,Thrissur,"Corporation Ground, Thrissur - Kerala PCB",28-05-2024 11:00:00,10.532400,76.215900,SO2,NA,NA,NA
India,Madhya Pradesh,Bhopal,"Idgah Hills, Bhopal - MPPCB",28-05-2024 11:00:00,23.264759,77.381568,NO2,7,78,23
India,Madhya Pradesh,Bhopal,"Idgah Hills, Bhopal - MPPCB",28-05-2024 11:00:00,23.264759,77.381568,CO,4,90,5
India,Madhya Pradesh,Bhopal,"Idgah Hills, Bhopal - MPPCB",28-05-2024 11:00:00,23.264759,77.381568,OZONE,12,95,31
India,Madhya Pradesh,Bhopal,"Paryavaran Parisar, Bhopal - MPPCB",28-05-2024 11:00:00,23.210494,77.425409,PM2.5,37,78,51
India,Madhya Pradesh,Bhopal,"Paryavaran Parisar, Bhopal - MPPCB",28-05-2024 11:00:00,23.210494,77.425409,NO2,10,141,25
India,Madhya Pradesh,Bhopal,"Paryavaran Parisar, Bhopal - MPPCB",28-05-2024 11:00:00,23.210494,77.425409,SO2,8,11,9
India,Madhya Pradesh,Bhopal,"T T Nagar, Bhopal - MPPCB",28-05-2024 11:00:00,23.233584,77.400574,PM2.5,30,62,43
India,Madhya Pradesh,Bhopal,"T T Nagar, Bhopal - MPPCB",28-05-2024 11:00:00,23.233584,77.400574,OZONE,17,82,35
India,Madhya Pradesh,Dewas,"Bhopal Chauraha, Dewas - MPPCB",28-05-2024 11:00:00,22.9682591,76.064118,PM2.5,22,64,42
India,Madhya Pradesh,Dewas,"Bhopal Chauraha, Dewas - MPPCB",28-05-2024 11:00:00,22.9682591,76.064118,SO2,25,35,29
India,Madhya Pradesh,Dewas,"Bhopal Chauraha, Dewas - MPPCB",28-05-2024 11:00:00,22.9682591,76.064118,OZONE,1,51,11
India,Madhya Pradesh,Gwalior,"Deen Dayal Nagar, Gwalior - MPPCB",28-05-2024 11:00:00,26.259242,78.216432,NH3,8,12,10
India,Madhya Pradesh,Gwalior,"Deen Dayal Nagar, Gwalior - MPPCB",28-05-2024 11:00:00,26.259242,78.216432,SO2,3,111,21
India,Madhya Pradesh,Gwalior,"Phool Bagh, Gwalior - Mondelez Ind. Food",28-05-2024 11:00:00,26.210536,78.171,SO2,24,36,30
India,Madhya Pradesh,Indore,"Chhoti Gwaltoli, Indore - MPPCB",28-05-2024 11:00:00,22.4310,75.5213,PM10,79,153,118
India,Madhya Pradesh,Indore,"Maguda Nagar, Indore - IMC",28-05-2024 11:00:00,22.7524,75.8872,NH3,2,4,3
India,Madhya Pradesh,Indore,"Regional Park, Indore - IMC",28-05-2024 11:00:00,22.6780,75.8559,CO,15,25,21
India,Madhya Pradesh,Indore,"Residency Area, Indore - IMC",28-05-2024 11:00:00,22.7084,75.8815,NO2,28,42,36
India,Madhya Pradesh,Jabalpur,"Govindh Bhavan Colony, Jabalpur - JMC",28-05-2024 11:00:00,23.163174,79.973061,PM2.5,50,87,71
India,Madhya Pradesh,Jabalpur,"Govindh Bhavan Colony, Jabalpur - JMC",28-05-2024 11:00:00,23.163174,79.973061,CO,14,32,19
India,Madhya Pradesh,Jabalpur,"Govindh Bhavan Colony, Jabalpur - JMC",28-05-2024 11:00:00,23.163174,79.973061,OZONE,17,160,58
India,Madhya Pradesh,Jabalpur,"Gupteshwar, Jabalpur - JMC",28-05-2024 11:00:00,23.142888,79.916147,NO2,7,33,14
India,Madhya Pradesh,Jabalpur,"Gupteshwar, Jabalpur - JMC",28-05-2024 11:00:00,23.142888,79.916147,CO,23,53,25
India,Madhya Pradesh,Jabalpur,"Marhatal, Jabalpur - MPPCB",28-05-2024 11:00:00,23.168606,79.932247,PM2.5,43,83,60
India,Madhya Pradesh,Jabalpur,"Marhatal, Jabalpur - MPPCB",28-05-2024 11:00:00,23.168606,79.932247,PM10,91,164,123
India,Madhya Pradesh,Jabalpur,"Marhatal, Jabalpur - MPPCB",28-05-2024 11:00:00,23.168606,79.932247,NO2,10,88,34
India,Madhya Pradesh,Jabalpur,"Suhagi, Jabalpur - JMC",28-05-2024 11:00:00,23.218135,79.957770,PM2.5,33,95,60
India,Madhya Pradesh,Jabalpur,"Suhagi, Jabalpur - JMC",28-05-2024 11:00:00,23.218135,79.957770,PM10,75,163,109
India,Madhya Pradesh,Jabalpur,"Suhagi, Jabalpur - JMC",28-05-2024 11:00:00,23.218135,79.957770,SO2,13,17,15
India,Madhya Pradesh,Jabalpur,"Suhagi, Jabalpur - JMC",28-05-2024 11:00:00,23.218135,79.957770,CO,40,78,42
India,Madhya Pradesh,Mandideep,"Sector-D Industrial Area, Mandideep - MPPCB",28-05-2024 11:00:00,23.108440,77.511428,NO2,NA,NA,NA
India,Madhya Pradesh,Pithampur,"Sector-2 Industrial Area, Pithampur - MPPCB",28-05-2024 11:00:00,22.624758,75.675238,PM2.5,25,77,46
India,Madhya Pradesh,Pithampur,"Sector-2 Industrial Area, Pithampur - MPPCB",28-05-2024 11:00:00,22.624758,75.675238,NO2,5,17,11
India,Madhya Pradesh,Sagar,"Deen Dayal Nagar, Sagar - MPPCB",28-05-2024 11:00:00,23.8640158,78.80289321,PM10,122,276,179
India,Madhya Pradesh,Sagar,"Deen Dayal Nagar, Sagar - MPPCB",28-05-2024 11:00:00,23.8640158,78.80289321,CO,55,69,60
India,Madhya Pradesh,Satna,"Bandhavgar Colony, Satna - Birla Cement",28-05-2024 11:00:00,24.58434363,80.8549414,PM10,36,79,58
India,Madhya Pradesh,Satna,"Bandhavgar Colony, Satna - Birla Cement",28-05-2024 11:00:00,24.58434363,80.8549414,OZONE,18,59,27
India,Madhya Pradesh,Singrauli,"Suryakiran Bhawan NCL, Singrauli - MPPCB",28-05-2024 11:00:00,24.108970,82.645580,PM2.5,29,325,88
India,Madhya Pradesh,Ujjain,"Mahakaleshwar Temple, Ujjain - MPPCB",28-05-2024 11:00:00,23.182719 ,75.768218 ,OZONE,NA,NA,NA
India,Maharashtra,Ahmednagar,"Tarakpur, Ahmednagar - MPCB",28-05-2024 11:00:00,19.10122,74.73339,PM10,57,112,81
India,Maharashtra,Ahmednagar,"Tarakpur, Ahmednagar - MPCB",28-05-2024 11:00:00,19.10122,74.73339,OZONE,28,84,38
India,Maharashtra,Akola,"Ramdaspeth, Akola - MPCB",28-05-2024 11:00:00,20.719516,77.000253,PM2.5,35,79,54
India,Maharashtra,Akola,"Ramdaspeth, Akola - MPCB",28-05-2024 11:00:00,20.719516,77.000253,NO2,7,48,14
India,Maharashtra,Akola,"Ramdaspeth, Akola - MPCB",28-05-2024 11:00:00,20.719516,77.000253,SO2,10,21,15
India,Maharashtra,Akola,"Ramdaspeth, Akola - MPCB",28-05-2024 11:00:00,20.719516,77.000253,CO,26,78,27
India,Maharashtra,Amravati,"Shivneri Colony, Amravati - MPCB",28-05-2024 11:00:00,20.9402359,77.7895248,CO,10,36,15
India,Maharashtra,Aurangabad,"More Chowk Waluj, Aurangabad - MPCB",28-05-2024 11:00:00,19.8389439,75.244448,CO,4,104,27
India,Maharashtra,Aurangabad,"Rachnakar Colony, Aurangabad - MPCB",28-05-2024 11:00:00,19.863756,75.321188,NO2,14,29,20
India,Maharashtra,Aurangabad,"Rachnakar Colony, Aurangabad - MPCB",28-05-2024 11:00:00,19.863756,75.321188,NH3,1,3,2
India,Maharashtra,Badlapur,"Katrap, Badlapur - MPCB",28-05-2024 11:00:00,19.16485,73.23409,PM10,71,87,79
India,Maharashtra,Bhiwandi,"Gokul Nagar, Bhiwandi - MPCB",28-05-2024 11:00:00,19.309073,73.057223,PM2.5,44,84,60
India,Maharashtra,Bhiwandi,"Gokul Nagar, Bhiwandi - MPCB",28-05-2024 11:00:00,19.309073,73.057223,NO2,6,36,12
India,Maharashtra,Bhiwandi,"Gokul Nagar, Bhiwandi - MPCB",28-05-2024 11:00:00,19.309073,73.057223,NH3,1,4,3
India,Maharashtra,Chandrapur,"Chauhan Colony, Chandrapur - MPCB",28-05-2024 11:00:00,19.962900,79.298714,PM10,82,111,95
India,Maharashtra,Chandrapur,"Chauhan Colony, Chandrapur - MPCB",28-05-2024 11:00:00,19.962900,79.298714,SO2,3,30,9
India,Maharashtra,Chandrapur,"MIDC Khutala, Chandrapur - MPCB",28-05-2024 11:00:00,19.9775302,79.2337086,PM10,52,94,76
India,Maharashtra,Chandrapur,"MIDC Khutala, Chandrapur - MPCB",28-05-2024 11:00:00,19.9775302,79.2337086,NO2,9,39,19
India,Maharashtra,Chandrapur,"MIDC Khutala, Chandrapur - MPCB",28-05-2024 11:00:00,19.9775302,79.2337086,SO2,7,55,22
India,Maharashtra,Chandrapur,"MIDC Khutala, Chandrapur - MPCB",28-05-2024 11:00:00,19.9775302,79.2337086,CO,18,52,33
India,Maharashtra,Chandrapur,"MIDC Khutala, Chandrapur - MPCB",28-05-2024 11:00:00,19.9775302,79.2337086,OZONE,21,68,28
India,Maharashtra,Dhule,"Deopur, Dhule - MPCB",28-05-2024 11:00:00,20.918946,74.776388,NH3,4,17,8
India,Maharashtra,Dhule,"Deopur, Dhule - MPCB",28-05-2024 11:00:00,20.918946,74.776388,SO2,9,22,16
India,Maharashtra,Jalgaon,"Prabhat Colony, Jalgaon - MPCB",28-05-2024 11:00:00,21.001264,75.565602,PM2.5,45,122,70
India,Maharashtra,Jalgaon,"Prabhat Colony, Jalgaon - MPCB",28-05-2024 11:00:00,21.001264,75.565602,PM10,90,151,122
India,Maharashtra,Jalna,"Old MIDC, Jalna - MPCB",28-05-2024 11:00:00,19.854616,75.905894,NH3,1,2,1
India,Maharashtra,Jalna,"Old MIDC, Jalna - MPCB",28-05-2024 11:00:00,19.854616,75.905894,SO2,5,11,6
India,Maharashtra,Latur,"Sawe Wadi, Latur - MPCB",28-05-2024 11:00:00,18.39963,76.57452,NH3,2,5,4
India,Maharashtra,Latur,"Sawe Wadi, Latur - MPCB",28-05-2024 11:00:00,18.39963,76.57452,SO2,2,8,4
India,Maharashtra,Mahad,"Kamble Tarf Birwadi, Mahad - MPCB",28-05-2024 11:00:00,18.1023399,73.4783687,NO2,10,31,18
India,Maharashtra,Mahad,"Kamble Tarf Birwadi, Mahad - MPCB",28-05-2024 11:00:00,18.1023399,73.4783687,SO2,1,19,12
India,Maharashtra,Malegaon,"Mahesh Nagar, Malegaon - MPCB",28-05-2024 11:00:00,20.555712,74.529236,NH3,3,5,3
India,Maharashtra,Malegaon,"Mahesh Nagar, Malegaon - MPCB",28-05-2024 11:00:00,20.555712,74.529236,SO2,8,19,14
India,Maharashtra,Mira-Bhayandar,"Bhayandar West, Mira-Bhayandar - MPCB",28-05-2024 11:00:00,19.296481,72.840923,CO,10,20,10
India,Maharashtra,Mumbai,"Bandra Kurla Complex, Mumbai - MPCB",28-05-2024 11:00:00,19.065931,72.862131,PM2.5,58,75,65
India,Maharashtra,Mumbai,"Bandra Kurla Complex, Mumbai - MPCB",28-05-2024 11:00:00,19.065931,72.862131,NO2,4,14,8
India,Maharashtra,Mumbai,"Borivali East, Mumbai - IITM",28-05-2024 11:00:00,19.23241,72.86895,PM10,46,88,73
India,Maharashtra,Mumbai,"Borivali East, Mumbai - IITM",28-05-2024 11:00:00,19.23241,72.86895,CO,3,52,11
India,Maharashtra,Mumbai,"Byculla, Mumbai - BMC",28-05-2024 11:00:00,18.9767,72.8380,NO2,22,39,28
India,Maharashtra,Mumbai,"Chakala-Andheri East, Mumbai - IITM",28-05-2024 11:00:00,19.11074,72.86084,PM10,19,55,32
India,Maharashtra,Mumbai,"Chakala-Andheri East, Mumbai - IITM",28-05-2024 11:00:00,19.11074,72.86084,NO2,27,37,32
India,Maharashtra,Mumbai,"Chakala-Andheri East, Mumbai - IITM",28-05-2024 11:00:00,19.11074,72.86084,SO2,1,26,13
India,Maharashtra,Mumbai,"Chembur, Mumbai - MPCB",28-05-2024 11:00:00,19.0364585,72.8954371,PM2.5,26,52,36
India,Maharashtra,Mumbai,"Chembur, Mumbai - MPCB",28-05-2024 11:00:00,19.0364585,72.8954371,NH3,6,13,9
India,Maharashtra,Mumbai,"Deonar, Mumbai - IITM",28-05-2024 11:00:00,19.04946,72.9230,NH3,6,7,7
India,Maharashtra,Mumbai,"Ghatkopar, Mumbai - BMC",28-05-2024 11:00:00,19.083694,72.920967,NH3,1,6,3
India,Maharashtra,Mumbai,"Ghatkopar, Mumbai - BMC",28-05-2024 11:00:00,19.083694,72.920967,CO,4,12,6
India,Maharashtra,Mumbai,"Kandivali East, Mumbai - MPCB",28-05-2024 11:00:00,19.205800,72.868200,PM10,60,232,123
India,Maharashtra,Mumbai,"Kandivali East, Mumbai - MPCB",28-05-2024 11:00:00,19.205800,72.868200,CO,29,32,30
India,Maharashtra,Mumbai,"Kandivali West, Mumbai - BMC",28-05-2024 11:00:00,19.215859,72.831718,OZONE,10,18,14
India,Maharashtra,Mumbai,"Kherwadi_Bandra East, Mumbai - MPCB",28-05-2024 11:00:00,19.0632143,72.8456324,PM2.5,24,59,43
India,Maharashtra,Mumbai,"Kherwadi_Bandra East, Mumbai - MPCB",28-05-2024 11:00:00,19.0632143,72.8456324,NO2,3,12,6
India,Maharashtra,Mumbai,"Khindipada-Bhandup West, Mumbai - IITM",28-05-2024 11:00:00,19.1653323,72.922099,CO,10,15,13
India,Maharashtra,Mumbai,"Mindspace-Malad West, Mumbai - MPCB",28-05-2024 11:00:00,19.1878657,72.8304069,NH3,6,8,7
India,Maharashtra,Mumbai,"Mindspace-Malad West, Mumbai - MPCB",28-05-2024 11:00:00,19.1878657,72.8304069,CO,20,26,21
India,Maharashtra,Mumbai,"Navy Nagar-Colaba, Mumbai - IITM",28-05-2024 11:00:00,18.897756,72.813320,SO2,1,6,2
India,Maharashtra,Mumbai,"Powai, Mumbai - MPCB",28-05-2024 11:00:00,19.137500,72.915056,PM2.5,20,36,27
India,Maharashtra,Mumbai,"Sewri, Mumbai - BMC",28-05-2024 11:00:00,19.000084,72.856730,NO2,8,67,15
India,Maharashtra,Mumbai,"Sewri, Mumbai - BMC",28-05-2024 11:00:00,19.000084,72.856730,OZONE,15,32,27
India,Maharashtra,Mumbai,"Siddharth Nagar-Worli, Mumbai - IITM",28-05-2024 11:00:00,19.000083,72.813993,NO2,30,38,33
India,Maharashtra,Mumbai,"Vile Parle West, Mumbai - MPCB",28-05-2024 11:00:00,19.10861,72.83622,PM10,NA,NA,NA
India,Maharashtra,Mumbai,"Vile Parle West, Mumbai - MPCB",28-05-2024 11:00:00,19.10861,72.83622,CO,4,4,4
India,Maharashtra,Mumbai,"Worli, Mumbai - MPCB",28-05-2024 11:00:00,18.9936162,72.8128113,CO,24,25,24
India,Maharashtra,Nagpur,"Mahal, Nagpur - MPCB",28-05-2024 11:00:00,21.14472,79.107595,PM10,69,109,97
India,Maharashtra,Nagpur,"Mahal, Nagpur - MPCB",28-05-2024 11:00:00,21.14472,79.107595,OZONE,26,117,48
India,Maharashtra,Nagpur,"Opp GPO Civil Lines, Nagpur - MPCB",28-05-2024 11:00:00,21.152875,79.0517531,NO2,11,106,28
India,Maharashtra,Nashik,"Gangapur Road, Nashik - MPCB",28-05-2024 11:00:00,20.0073285,73.7762427,PM2.5,31,64,46
India,Maharashtra,Nashik,"MIDC Ambad, Nashik - MPCB",28-05-2024 11:00:00,19.950220,73.731480,PM2.5,30,62,48
India,Maharashtra,Nashik,"MIDC Ambad, Nashik - MPCB",28-05-2024 11:00:00,19.950220,73.731480,CO,14,50,18
India,Maharashtra,Nashik,"Pandav Nagari, Nashik - MPCB",28-05-2024 11:00:00,19.9591346,73.7788008,SO2,4,15,7
India,Maharashtra,Navi Mumbai,"Mahape, Navi Mumbai - MPCB",28-05-2024 11:00:00,19.1135051,73.008978,NO2,41,44,42
India,Maharashtra,Navi Mumbai,"Mahape, Navi Mumbai - MPCB",28-05-2024 11:00:00,19.1135051,73.008978,SO2,23,23,23
India,Maharashtra,Navi Mumbai,"Nerul, Navi Mumbai - MPCB",28-05-2024 11:00:00,19.008751,73.016620,NO2,12,18,15
India,Maharashtra,Navi Mumbai,"Sanpada, Navi Mumbai - MPCB",28-05-2024 11:00:00,19.0575752,73.0151367,PM2.5,13,46,30
India,Maharashtra,Navi Mumbai,"Sanpada, Navi Mumbai - MPCB",28-05-2024 11:00:00,19.0575752,73.0151367,NH3,8,12,9
India,Maharashtra,Navi Mumbai,"Sector-2E Kalamboli, Navi Mumbai - MPCB",28-05-2024 11:00:00,19.02579,73.10297,SO2,1,9,2
India,Maharashtra,Navi Mumbai,"Tondare-Taloja, Navi Mumbai - MPCB",28-05-2024 11:00:00,19.0630,73.1209,NO2,17,34,27
India,Maharashtra,Navi Mumbai,"Tondare-Taloja, Navi Mumbai - MPCB",28-05-2024 11:00:00,19.0630,73.1209,NH3,3,9,6
India,Maharashtra,Parbhani,"Masoom Colony, Parbhani - MPCB",28-05-2024 11:00:00,19.265594,76.761463,SO2,1,3,2
India,Maharashtra,Pimpri-Chinchwad,"Gavalinagar, Pimpri Chinchwad - MPCB",28-05-2024 11:00:00,18.63673,73.82487,PM10,51,70,60
India,Maharashtra,Pimpri-Chinchwad,"Thergaon, Pimpri Chinchwad - MPCB",28-05-2024 11:00:00,18.616318,73.765797,SO2,NA,NA,NA
India,Maharashtra,Pune,"Alandi, Pune - IITM",28-05-2024 11:00:00,18.675076,73.892743,PM10,35,74,55
India,Maharashtra,Pune,"Alandi, Pune - IITM",28-05-2024 11:00:00,18.675076,73.892743,CO,36,46,43
India,Maharashtra,Pune,"Bhosari, Pune - IITM",28-05-2024 11:00:00,18.640051,73.848956,PM2.5,4,64,29
India,Maharashtra,Pune,"Karve Road, Pune - MPCB",28-05-2024 11:00:00,18.5011743,73.8165527,OZONE,21,58,42
India,Maharashtra,Pune,"Revenue Colony-Shivajinagar, Pune - IITM",28-05-2024 11:00:00,18.530085,73.849598,OZONE,12,28,21
India,Maharashtra,Pune,"Savitribai Phule Pune University, Pune - MPCB",28-05-2024 11:00:00,18.547056,73.826908,PM2.5,37,67,50
India,Maharashtra,Pune,"Savitribai Phule Pune University, Pune - MPCB",28-05-2024 11:00:00,18.547056,73.826908,PM10,56,99,79
India,Maharashtra,Pune,"Savitribai Phule Pune University, Pune - MPCB",28-05-2024 11:00:00,18.547056,73.826908,SO2,2,4,3
India,Maharashtra,Pune,"Savitribai Phule Pune University, Pune - MPCB",28-05-2024 11:00:00,18.547056,73.826908,OZONE,26,52,39
India,Maharashtra,Solapur,"Dnyaneshwar Nagar, Solapur - MPCB",28-05-2024 11:00:00,17.6336264,75.9132495,CO,20,30,22
India,Maharashtra,Solapur,"Ratandeep Housing Society, Solapur - MPCB",28-05-2024 11:00:00,17.65439,75.90649,PM2.5,42,64,51
India,Maharashtra,Solapur,"Ratandeep Housing Society, Solapur - MPCB",28-05-2024 11:00:00,17.65439,75.90649,PM10,78,107,93
India,Maharashtra,Solapur,"Ratandeep Housing Society, Solapur - MPCB",28-05-2024 11:00:00,17.65439,75.90649,SO2,1,2,1
India,Maharashtra,Thane,"Kasarvadavali, Thane - MPCB",28-05-2024 11:00:00,19.26777,72.97182,NH3,3,5,4
India,Maharashtra,Thane,"Upvan Fort, Thane - MPCB",28-05-2024 11:00:00,19.222279,72.957979,PM2.5,NA,NA,NA
India,Maharashtra,Thane,"Upvan Fort, Thane - MPCB",28-05-2024 11:00:00,19.222279,72.957979,NO2,NA,NA,NA
India,Maharashtra,Thane,"Upvan Fort, Thane - MPCB",28-05-2024 11:00:00,19.222279,72.957979,SO2,NA,NA,NA
India,Maharashtra,Thane,"Upvan Fort, Thane - MPCB",28-05-2024 11:00:00,19.222279,72.957979,CO,NA,NA,NA
India,Maharashtra,Thane,"Upvan Fort, Thane - MPCB",28-05-2024 11:00:00,19.222279,72.957979,OZONE,NA,NA,NA
India,Maharashtra,Ulhasnagar,"Sidhi Vinayak Nagar, Ulhasnagar - MPCB",28-05-2024 11:00:00,19.235581,73.159121,PM2.5,33,85,50
India,Maharashtra,Ulhasnagar,"Sidhi Vinayak Nagar, Ulhasnagar - MPCB",28-05-2024 11:00:00,19.235581,73.159121,CO,13,36,14
India,Maharashtra,Virar,"Bolinj, Virar - MPCB",28-05-2024 11:00:00,19.4458210,72.7988231,PM10,58,108,83
India,Maharashtra,Virar,"Bolinj, Virar - MPCB",28-05-2024 11:00:00,19.4458210,72.7988231,NH3,9,9,9
India,Manipur,Imphal,"DM College of Science, Imphal - Manipur PCB",28-05-2024 11:00:00,24.8207389,93.9423085,NO2,7,8,7
India,Mizoram,Aizawl,"Sikulpuikawn, Aizawl - Mizoram PCB",28-05-2024 11:00:00,23.7176342,92.7192841,PM10,3,17,9
India,Mizoram,Aizawl,"Sikulpuikawn, Aizawl - Mizoram PCB",28-05-2024 11:00:00,23.7176342,92.7192841,NO2,NA,NA,NA
India,Mizoram,Aizawl,"Sikulpuikawn, Aizawl - Mizoram PCB",28-05-2024 11:00:00,23.7176342,92.7192841,OZONE,6,26,20
India,Odisha,Angul,"Hakimapada, Angul - OSPCB",28-05-2024 11:00:00,20.832874,85.104082,PM2.5,52,388,97
India,Odisha,Balasore,"Kalidaspur, Balasore - OSPCB",28-05-2024 11:00:00,21.51161,86.89088,CO,26,90,35
India,Odisha,Barbil,"Forest Office, Barbil - OSPCB",28-05-2024 11:00:00,22.1166054,85.3945546,PM10,41,392,136
India,Odisha,Barbil,"Forest Office, Barbil - OSPCB",28-05-2024 11:00:00,22.1166054,85.3945546,NO2,5,16,10
India,Odisha,Baripada,"Meher Colony, Baripada - OSPCB",28-05-2024 11:00:00,21.941841,86.728318,NO2,2,14,7
India,Odisha,Baripada,"Meher Colony, Baripada - OSPCB",28-05-2024 11:00:00,21.941841,86.728318,SO2,1,22,15
India,Odisha,Baripada,"Meher Colony, Baripada - OSPCB",28-05-2024 11:00:00,21.941841,86.728318,CO,11,86,20
India,Odisha,Bhubaneswar,"Lingraj Mandir, Bhubaneswar - OSPCB",28-05-2024 11:00:00,20.240790,85.836784,NH3,2,3,2
India,Odisha,Bhubaneswar,"Patia, Bhubaneswar - OSPCB",28-05-2024 11:00:00,20.34652,85.81630,PM2.5,NA,NA,NA
India,Odisha,Bhubaneswar,"Patia, Bhubaneswar - OSPCB",28-05-2024 11:00:00,20.34652,85.81630,NO2,4,5,4
India,Odisha,Bileipada,"Tata Township, Bileipada - OSPCB",28-05-2024 11:00:00,22.06156703,85.47409613,PM10,NA,NA,NA
India,Odisha,Bileipada,"Tata Township, Bileipada - OSPCB",28-05-2024 11:00:00,22.06156703,85.47409613,OZONE,15,111,55
India,Odisha,Brajrajnagar,"GM Office, Brajrajnagar - OSPCB",28-05-2024 11:00:00,21.8004996,83.8396977,SO2,13,16,14
India,Odisha,Byasanagar,"Ferro Chrome Colony, Byasanagar - OSPCB",28-05-2024 11:00:00,20.94185,86.11510,PM10,23,133,78
India,Odisha,Byasanagar,"Ferro Chrome Colony, Byasanagar - OSPCB",28-05-2024 11:00:00,20.94185,86.11510,CO,44,102,69
India,Odisha,Cuttack,"CDA Area, Cuttack - OSPCB",28-05-2024 11:00:00,20.48891     ,85.84768     ,PM10,60,94,73
India,Odisha,Cuttack,"CDA Area, Cuttack - OSPCB",28-05-2024 11:00:00,20.48891     ,85.84768     ,NH3,1,1,1
India,Odisha,Keonjhar,"Jagamohanpur, Keonjhar - OSPCB",28-05-2024 11:00:00,21.643900,85.599355,PM10,44,82,62
India,Odisha,Keonjhar,"Jagamohanpur, Keonjhar - OSPCB",28-05-2024 11:00:00,21.643900,85.599355,NH3,1,2,1
India,Odisha,Nayagarh,"Dabuna, Nayagarh - OSPCB",28-05-2024 11:00:00,21.847279,85.416905,NH3,NA,NA,NA
India,Odisha,Nayagarh,"Dabuna, Nayagarh - OSPCB",28-05-2024 11:00:00,21.847279,85.416905,CO,10,25,21
India,Odisha,Rairangpur,"Divisional Forest Office, Rairangpur - OSPCB",28-05-2024 11:00:00,22.265816,86.174829,PM10,22,67,46
India,Odisha,Rourkela,"Raghunathpali, Rourkela - OSPCB",28-05-2024 11:00:00,22.220833,84.809444,PM2.5,17,82,44
India,Odisha,Talcher,"Talcher Coalfields,Talcher - OSPCB",28-05-2024 11:00:00,20.9360711,85.1707021,PM10,30,155,70
India,Odisha,Talcher,"Talcher Coalfields,Talcher - OSPCB",28-05-2024 11:00:00,20.9360711,85.1707021,OZONE,21,26,24
India,Odisha,Tensa,"Barsua Iron Ore Mines, Tensa - OSPCB",28-05-2024 11:00:00,21.869985,85.167016,PM10,42,100,69
India,Odisha,Tensa,"Barsua Iron Ore Mines, Tensa - OSPCB",28-05-2024 11:00:00,21.869985,85.167016,SO2,1,25,13
India,Odisha,Tensa,"Barsua Iron Ore Mines, Tensa - OSPCB",28-05-2024 11:00:00,21.869985,85.167016,CO,6,24,21
India,Puducherry,Puducherry,"Jawahar Nagar, Puducherry - PPCC",28-05-2024 11:00:00,11.9309,79.8027,SO2,4,13,9
India,Punjab,Amritsar,"Golden Temple, Amritsar - PPCB",28-05-2024 11:00:00,31.620000,74.876512,PM2.5,110,305,191
India,Punjab,Amritsar,"Golden Temple, Amritsar - PPCB",28-05-2024 11:00:00,31.620000,74.876512,PM10,115,271,141
India,Punjab,Bathinda,"Hardev Nagar, Bathinda - PPCB",28-05-2024 11:00:00,30.233011,74.907758,NO2,16,26,20
India,Punjab,Jalandhar,"Civil Line, Jalandhar - PPCB",28-05-2024 11:00:00,31.321907,75.578914,SO2,9,16,11
India,Punjab,Patiala,"Model Town, Patiala - PPCB",28-05-2024 11:00:00,30.349388,76.366642,PM10,107,142,123
India,Punjab,Patiala,"Model Town, Patiala - PPCB",28-05-2024 11:00:00,30.349388,76.366642,NH3,6,7,7
India,Punjab,Patiala,"Model Town, Patiala - PPCB",28-05-2024 11:00:00,30.349388,76.366642,SO2,8,102,38
India,Rajasthan,Ajmer,"Civil Lines,  Ajmer - RSPCB",28-05-2024 11:00:00,26.470859,74.646594,NO2,25,27,26
India,Rajasthan,Ajmer,"Civil Lines,  Ajmer - RSPCB",28-05-2024 11:00:00,26.470859,74.646594,SO2,4,47,24
India,Rajasthan,Alwar,"Moti Doongri, Alwar - RSPCB",28-05-2024 11:00:00,27.554793,76.611536,PM2.5,62,143,100
India,Rajasthan,Alwar,"Moti Doongri, Alwar - RSPCB",28-05-2024 11:00:00,27.554793,76.611536,CO,24,42,29
India,Rajasthan,Banswara,"Rati Talai, Banswara - RSPCB",28-05-2024 11:00:00,23.555190,74.440010,NO2,8,15,12
India,Rajasthan,Banswara,"Rati Talai, Banswara - RSPCB",28-05-2024 11:00:00,23.555190,74.440010,SO2,1,13,3
India,Rajasthan,Banswara,"Rati Talai, Banswara - RSPCB",28-05-2024 11:00:00,23.555190,74.440010,OZONE,9,168,17
India,Rajasthan,Baran,"Bamboliya, Baran - RSPCB",28-05-2024 11:00:00,25.106006,76.469948,SO2,5,16,8
India,Rajasthan,Baran,"Bamboliya, Baran - RSPCB",28-05-2024 11:00:00,25.106006,76.469948,OZONE,24,116,49
India,Rajasthan,Barmer,"Railway Colony, Barmer - RSPCB",28-05-2024 11:00:00,25.747299,71.393989,PM10,92,416,170
India,Rajasthan,Barmer,"Railway Colony, Barmer - RSPCB",28-05-2024 11:00:00,25.747299,71.393989,SO2,3,32,5
India,Rajasthan,Bharatpur,"Krishna Nagar, Bharatpur - RSPCB",28-05-2024 11:00:00,27.215415,77.50873,CO,18,105,50
India,Rajasthan,Bhilwara,"Pratap Nagar, Bhilwara - RSPCB",28-05-2024 11:00:00,25.339605,74.618883,PM2.5,29,79,50
India,Rajasthan,Bhilwara,"Pratap Nagar, Bhilwara - RSPCB",28-05-2024 11:00:00,25.339605,74.618883,CO,17,49,24
India,Rajasthan,Bhiwadi,"RIICO Ind. Area III, Bhiwadi - RSPCB",28-05-2024 11:00:00,28.194909,76.862296,OZONE,9,91,28
India,Rajasthan,Bikaner,"MM Ground, Bikaner - RSPCB",28-05-2024 11:00:00,28.018792,73.292658,PM10,92,226,148
India,Rajasthan,Bikaner,"MM Ground, Bikaner - RSPCB",28-05-2024 11:00:00,28.018792,73.292658,NH3,5,10,9
India,Rajasthan,Chittorgarh,"Shastri Nagar, Chittorgarh - RSPCB",28-05-2024 11:00:00,24.892047,74.623527,PM2.5,60,187,109
India,Rajasthan,Chittorgarh,"Shastri Nagar, Chittorgarh - RSPCB",28-05-2024 11:00:00,24.892047,74.623527,NO2,5,20,15
India,Rajasthan,Chittorgarh,"Shastri Nagar, Chittorgarh - RSPCB",28-05-2024 11:00:00,24.892047,74.623527,SO2,1,8,3
India,Rajasthan,Chittorgarh,"Shastri Nagar, Chittorgarh - RSPCB",28-05-2024 11:00:00,24.892047,74.623527,CO,11,46,23
India,Rajasthan,Churu,"Subash Chowk, Churu - RSPCB",28-05-2024 11:00:00,28.296139,74.961696,CO,4,63,28
India,Rajasthan,Dholpur,"Raja Ganj, Dholpur - RSPCB",28-05-2024 11:00:00,26.699557,77.898881,NH3,NA,NA,NA
India,Rajasthan,Dungarpur,"Bhoiwada, Dungarpur - RSPCB",28-05-2024 11:00:00,23.837789,73.714926,PM10,100,185,122
India,Rajasthan,Hanumangarh,"Housing Board, Hanumangarh - RSPCB",28-05-2024 11:00:00,29.610750,74.283608,PM2.5,33,338,162
India,Rajasthan,Hanumangarh,"Housing Board, Hanumangarh - RSPCB",28-05-2024 11:00:00,29.610750,74.283608,SO2,4,71,21
India,Rajasthan,Jaipur,"Adarsh Nagar, Jaipur - RSPCB",28-05-2024 11:00:00,26.902909,75.836858,NO2,23,155,61
India,Rajasthan,Jaipur,"Mansarovar Sector-12, Jaipur - RSPCB",28-05-2024 11:00:00,26.843698,75.766894,PM10,119,474,198
India,Rajasthan,Jaipur,"Police Commissionerate, Jaipur - RSPCB",28-05-2024 11:00:00,26.9164092,75.7994901,NH3,2,9,6
India,Rajasthan,Jaipur,"Police Commissionerate, Jaipur - RSPCB",28-05-2024 11:00:00,26.9164092,75.7994901,OZONE,12,136,45
India,Rajasthan,Jaipur,"RIICO Sitapura, Jaipur - RSPCB",28-05-2024 11:00:00,26.786682,75.827928,PM2.5,23,306,88
India,Rajasthan,Jaipur,"RIICO Sitapura, Jaipur - RSPCB",28-05-2024 11:00:00,26.786682,75.827928,PM10,36,261,103
India,Rajasthan,Jaipur,"RIICO Sitapura, Jaipur - RSPCB",28-05-2024 11:00:00,26.786682,75.827928,CO,24,142,47
India,Rajasthan,Jaipur,"Sector-2 Murlipura, Jaipur - RSPCB",28-05-2024 11:00:00,26.960669,75.771817,NH3,1,20,5
India,Rajasthan,Jaipur,"Sector-2 Murlipura, Jaipur - RSPCB",28-05-2024 11:00:00,26.960669,75.771817,CO,28,134,45
India,Rajasthan,Jaipur,"Sector-2 Murlipura, Jaipur - RSPCB",28-05-2024 11:00:00,26.960669,75.771817,OZONE,10,140,42
India,Rajasthan,Jaipur,"Shastri Nagar, Jaipur - RSPCB",28-05-2024 11:00:00,26.9502929,75.730943,OZONE,9,72,31
India,Rajasthan,Jaisalmer,"Sadar Bazar, Jaisalmer - RSPCB",28-05-2024 11:00:00,26.912329,70.909168,NH3,1,22,9
India,Rajasthan,Jaisalmer,"Sadar Bazar, Jaisalmer - RSPCB",28-05-2024 11:00:00,26.912329,70.909168,CO,2,42,7
India,Rajasthan,Jhalawar,"Rajlaxmi Nagar, Jhalawar - RSPCB",28-05-2024 11:00:00,24.588397,76.172782,CO,11,56,21
India,Rajasthan,Jhunjhunu,"Indra Nagar, Jhunjhunu - RSPCB",28-05-2024 11:00:00,28.108988,75.386577,NH3,16,45,31
India,Rajasthan,Jodhpur,"Collectorate, Jodhpur - RSPCB",28-05-2024 11:00:00,26.268249,73.0193853,PM2.5,59,218,133
India,Rajasthan,Jodhpur,"Collectorate, Jodhpur - RSPCB",28-05-2024 11:00:00,26.268249,73.0193853,CO,4,102,23
India,Rajasthan,Jodhpur,"Digari Kalan, Jodhpur - RSPCB",28-05-2024 11:00:00,26.295810,73.082283,PM10,110,467,167
India,Rajasthan,Jodhpur,"Digari Kalan, Jodhpur - RSPCB",28-05-2024 11:00:00,26.295810,73.082283,SO2,3,4,3
India,Rajasthan,Jodhpur,"Jhalamand, Jodhpur - RSPCB",28-05-2024 11:00:00,26.215415,73.070156,PM10,71,172,105
India,Rajasthan,Jodhpur,"Mandor, Jodhpur - RSPCB",28-05-2024 11:00:00,26.358805,73.047444,PM2.5,17,58,35
India,Rajasthan,Jodhpur,"Mandor, Jodhpur - RSPCB",28-05-2024 11:00:00,26.358805,73.047444,NO2,16,26,20
India,Rajasthan,Jodhpur,"Samrat Ashok Udhyan, Jodhpur - RSPCB",28-05-2024 11:00:00,26.253384,72.976571,PM2.5,19,83,38
India,Rajasthan,Jodhpur,"Samrat Ashok Udhyan, Jodhpur - RSPCB",28-05-2024 11:00:00,26.253384,72.976571,NH3,3,29,7
India,Rajasthan,Kota,"Dhanmandi, Kota - RSPCB",28-05-2024 11:00:00,25.164090,75.858137,CO,4,78,20
India,Rajasthan,Kota,"Nayapura, Kota - RSPCB",28-05-2024 11:00:00,25.196024,75.855668,NO2,14,81,28
India,Rajasthan,Kota,"Nayapura, Kota - RSPCB",28-05-2024 11:00:00,25.196024,75.855668,NH3,2,6,3
India,Rajasthan,Kota,"Nayapura, Kota - RSPCB",28-05-2024 11:00:00,25.196024,75.855668,OZONE,26,115,51
India,Rajasthan,Kota,"Shrinath Puram, Kota - RSPCB",28-05-2024 11:00:00,25.14389,75.821256,NO2,15,57,25
India,Rajasthan,Nagaur,"Karni Colony, Nagaur - RSPCB",28-05-2024 11:00:00,27.213494,73.734444,NO2,9,38,16
India,Rajasthan,Pratapgarh,"Pragati Nagar, Pratapgarh - RSPCB",28-05-2024 11:00:00,24.041198,74.780702,NH3,8,13,10
India,Rajasthan,Pratapgarh,"Pragati Nagar, Pratapgarh - RSPCB",28-05-2024 11:00:00,24.041198,74.780702,SO2,3,8,4
India,Rajasthan,Rajsamand,"Dhoinda, Rajsamand - RSPCB",28-05-2024 11:00:00,25.036360,73.883502,PM2.5,7,30,18
India,Rajasthan,Rajsamand,"Dhoinda, Rajsamand - RSPCB",28-05-2024 11:00:00,25.036360,73.883502,NH3,1,2,1
India,Rajasthan,Sawai Madhopur,"Sahu Nagar, Sawai Madhopur - RSPCB",28-05-2024 11:00:00,26.031443,76.359327,PM2.5,50,353,130
India,Rajasthan,Sawai Madhopur,"Sahu Nagar, Sawai Madhopur - RSPCB",28-05-2024 11:00:00,26.031443,76.359327,SO2,1,14,6
India,Rajasthan,Sikar,"Radhakishan Pura, Sikar - RSPCB",28-05-2024 11:00:00,27.608912,75.153302,NO2,9,118,37
India,Rajasthan,Sikar,"Radhakishan Pura, Sikar - RSPCB",28-05-2024 11:00:00,27.608912,75.153302,SO2,3,8,6
India,Rajasthan,Sikar,"Radhakishan Pura, Sikar - RSPCB",28-05-2024 11:00:00,27.608912,75.153302,OZONE,15,118,59
India,Rajasthan,Udaipur,"Ashok Nagar, Udaipur - RSPCB",28-05-2024 11:00:00,24.5886166,73.6321397,SO2,1,27,8
India,Sikkim,Gangtok,"Zero Point GICI, Gangtok - SSPCB",28-05-2024 11:00:00,27.338530,88.614099,CO,3,13,7
India,TamilNadu,Ariyalur,"Keelapalur, Ariyalur - TNPCB",28-05-2024 11:00:00,11.06825,79.07033,NO2,6,8,7
India,TamilNadu,Chennai,"Arumbakkam, Chennai - TNPCB",28-05-2024 11:00:00,13.0664,80.2112 ,PM10,62,120,82
India,TamilNadu,Chennai,"Kodungaiyur, Chennai - TNPCB",28-05-2024 11:00:00,13.1278,80.2642,PM2.5,22,53,31
India,TamilNadu,Chennai,"Manali, Chennai - CPCB",28-05-2024 11:00:00,13.164544,80.26285,PM2.5,73,270,118
India,TamilNadu,Chennai,"Manali, Chennai - CPCB",28-05-2024 11:00:00,13.164544,80.26285,NH3,3,4,4
India,TamilNadu,Chennai,"Perungudi, Chennai - TNPCB",28-05-2024 11:00:00,12.9533,80.2357,PM10,38,146,86
India,TamilNadu,Chennai,"Perungudi, Chennai - TNPCB",28-05-2024 11:00:00,12.9533,80.2357,SO2,1,5,4
India,TamilNadu,Chennai,"Perungudi, Chennai - TNPCB",28-05-2024 11:00:00,12.9533,80.2357,CO,10,118,34
India,TamilNadu,Chennai,"Perungudi, Chennai - TNPCB",28-05-2024 11:00:00,12.9533,80.2357,OZONE,3,14,3
India,TamilNadu,Chennai,"Royapuram, Chennai - TNPCB",28-05-2024 11:00:00,13.1036,80.2909,PM2.5,28,82,49
India,TamilNadu,Chennai,"Royapuram, Chennai - TNPCB",28-05-2024 11:00:00,13.1036,80.2909,NH3,1,4,2
India,TamilNadu,Chennai,"Velachery Res. Area, Chennai - CPCB",28-05-2024 11:00:00,13.0052189,80.2398125,PM10,23,68,35
India,TamilNadu,Coimbatore,"PSG College of Arts and Science, Coimbatore - TNPCB",28-05-2024 11:00:00,11.0328,77.0349,CO,50,57,54
India,TamilNadu,Cuddalore,"Kudikadu, Cuddalore - TNPCB",28-05-2024 11:00:00,11.6829898,79.7532099,NH3,3,3,3
India,TamilNadu,Cuddalore,"Semmandalam, Cuddalore - TNPCB",28-05-2024 11:00:00,11.7637683,79.7499835,OZONE,1,2,1
India,TamilNadu,Gummidipoondi,"Anthoni Pillai Nagar, Gummidipoondi - TNPCB",28-05-2024 11:00:00,13.4127,80.1081,SO2,4,85,25
India,TamilNadu,Ooty,"Bombay Castel, Ooty - TNPCB",28-05-2024 11:00:00,11.4068288,76.7138973,NO2,NA,NA,NA
India,TamilNadu,Palkalaiperur,"Bharathidasan University, Palkalaiperur - TNPCB",28-05-2024 11:00:00,10.681158,78.741746,OZONE,1,24,1
India,TamilNadu,Ramanathapuram,"Chalai Bazaar, Ramanathapuram - TNPCB",28-05-2024 11:00:00,9.36399,78.831977,SO2,7,11,9
India,TamilNadu,Salem,"Sona College of Technology, Salem - TNPCB",28-05-2024 11:00:00,11.679111,78.125052,OZONE,3,3,3
India,TamilNadu,Thoothukudi,"Meelavittan, Thoothukudi - TNPCB",28-05-2024 11:00:00,8.816428 ,78.099039,PM10,22,115,49
India,TamilNadu,Thoothukudi,"Meelavittan, Thoothukudi - TNPCB",28-05-2024 11:00:00,8.816428 ,78.099039,NO2,19,35,24
India,Telangana,Hyderabad,"Bollaram Industrial Area, Hyderabad - TSPCB",28-05-2024 11:00:00,17.540891,78.358528,NO2,16,29,21
India,Telangana,Hyderabad,"Bollaram Industrial Area, Hyderabad - TSPCB",28-05-2024 11:00:00,17.540891,78.358528,CO,1,96,7
India,Telangana,Hyderabad,"Central University, Hyderabad - TSPCB",28-05-2024 11:00:00,17.460103,78.334361,NO2,16,34,27
India,Telangana,Hyderabad,"Central University, Hyderabad - TSPCB",28-05-2024 11:00:00,17.460103,78.334361,OZONE,3,4,4
India,Telangana,Hyderabad,"Kompally Municipal Office, Hyderabad - TSPCB",28-05-2024 11:00:00,17.544899,78.486949,NH3,5,5,5
India,Telangana,Hyderabad,"Kompally Municipal Office, Hyderabad - TSPCB",28-05-2024 11:00:00,17.544899,78.486949,OZONE,1,46,6
India,Telangana,Hyderabad,"Nacharam_TSIIC IALA, Hyderabad - TSPCB",28-05-2024 11:00:00,17.429398,78.569354,NO2,11,15,12
India,Telangana,Hyderabad,"Sanathnagar, Hyderabad - TSPCB",28-05-2024 11:00:00,17.4559458,78.4332152,OZONE,14,18,16
India,Telangana,Hyderabad,"Zoo Park, Hyderabad - TSPCB",28-05-2024 11:00:00,17.349694,78.451437,OZONE,16,24,17
India,Uttar_Pradesh,Agra,"Rohta, Agra - UPPCB",28-05-2024 11:00:00,27.106972,78.000111,SO2,3,14,8
India,Uttar_Pradesh,Agra,"Sanjay Palace, Agra - UPPCB",28-05-2024 11:00:00,27.19865833,78.00598056,NO2,11,28,15
India,Uttar_Pradesh,Agra,"Shastripuram, Agra - UPPCB",28-05-2024 11:00:00,27.19862,77.92066,PM2.5,NA,NA,NA
India,Uttar_Pradesh,Baghpat,"Sardar Patel Inter College, Baghpat - UPPCB",28-05-2024 11:00:00,28.964949,77.278761,NH3,2,11,5
India,Uttar_Pradesh,Bareilly,"Civil Lines, Bareilly - UPPCB",28-05-2024 11:00:00,28.359581,79.414455,CO,7,64,28
India,Uttar_Pradesh,Bulandshahr,"Yamunapuram, Bulandshahr - UPPCB",28-05-2024 11:00:00,28.406963,77.849831,PM2.5,38,314,119
India,Uttar_Pradesh,Firozabad,"Nagla Bhau, Firozabad - UPPCB",28-05-2024 11:00:00,27.168897,78.376960,PM10,44,199,86
India,Uttar_Pradesh,Firozabad,"Nagla Bhau, Firozabad - UPPCB",28-05-2024 11:00:00,27.168897,78.376960,NO2,15,17,17
India,Uttar_Pradesh,Firozabad,"Nagla Bhau, Firozabad - UPPCB",28-05-2024 11:00:00,27.168897,78.376960,CO,8,28,21
India,Uttar_Pradesh,Firozabad,"Nagla Bhau, Firozabad - UPPCB",28-05-2024 11:00:00,27.168897,78.376960,OZONE,17,21,18
India,Uttar_Pradesh,Ghaziabad,"Indirapuram, Ghaziabad - UPPCB",28-05-2024 11:00:00,28.646233,77.358075,NO2,33,89,59
India,Uttar_Pradesh,Ghaziabad,"Sanjay Nagar, Ghaziabad - UPPCB",28-05-2024 11:00:00,28.685382,77.453839,NH3,8,17,12
India,Uttar_Pradesh,Ghaziabad,"Vasundhara, Ghaziabad - UPPCB",28-05-2024 11:00:00,28.6603346,77.3572563,NH3,5,13,9
India,Uttar_Pradesh,Gorakhpur,"Madan Mohan Malaviya University of Technology, Gorakhpur - UPPCB",28-05-2024 11:00:00,26.730136,83.433859,PM10,18,116,48
India,Uttar_Pradesh,Gorakhpur,"Madan Mohan Malaviya University of Technology, Gorakhpur - UPPCB",28-05-2024 11:00:00,26.730136,83.433859,SO2,21,23,22
India,Uttar_Pradesh,Greater Noida,"Knowledge Park - III, Greater Noida - UPPCB",28-05-2024 11:00:00,28.47272,77.482000,PM10,157,416,292
India,Uttar_Pradesh,Greater Noida,"Knowledge Park - III, Greater Noida - UPPCB",28-05-2024 11:00:00,28.47272,77.482000,SO2,13,56,31
India,Uttar_Pradesh,Greater Noida,"Knowledge Park - V, Greater Noida - UPPCB",28-05-2024 11:00:00,28.557054,77.453663,NH3,3,7,5
India,Uttar_Pradesh,Hapur,"Anand Vihar, Hapur - UPPCB",28-05-2024 11:00:00,28.725645,77.749675,PM2.5,33,243,113
India,Uttar_Pradesh,Jhansi,"Shivaji Nagar, Jhansi - UPPCB",28-05-2024 11:00:00,25.4547,78.6039,NH3,5,6,6
India,Uttar_Pradesh,Jhansi,"Shivaji Nagar, Jhansi - UPPCB",28-05-2024 11:00:00,25.4547,78.6039,SO2,18,40,23
India,Uttar_Pradesh,Jhansi,"Shivaji Nagar, Jhansi - UPPCB",28-05-2024 11:00:00,25.4547,78.6039,OZONE,2,55,9
India,Uttar_Pradesh,Kanpur,"FTI Kidwai Nagar, Kanpur - UPPCB",28-05-2024 11:00:00,26.428282,80.327067,PM10,NA,NA,NA
India,Uttar_Pradesh,Kanpur,"FTI Kidwai Nagar, Kanpur - UPPCB",28-05-2024 11:00:00,26.428282,80.327067,CO,NA,NA,NA
India,Uttar_Pradesh,Kanpur,"NSI Kalyanpur, Kanpur - UPPCB",28-05-2024 11:00:00,26.509954,80.249612,PM10,23,126,99
India,Uttar_Pradesh,Kanpur,"NSI Kalyanpur, Kanpur - UPPCB",28-05-2024 11:00:00,26.509954,80.249612,CO,20,66,49
India,Uttar_Pradesh,Khurja,"Kalindi Kunj, Khurja - UPPCB",28-05-2024 11:00:00,28.2348927,77.8683002,CO,36,74,59
India,Uttar_Pradesh,Lucknow,"Kukrail Picnic Spot-1, Lucknow - UPPCB",28-05-2024 11:00:00,26.90723,80.98579,PM10,50,149,73
India,Uttar_Pradesh,Lucknow,"Kukrail Picnic Spot-1, Lucknow - UPPCB",28-05-2024 11:00:00,26.90723,80.98579,SO2,33,37,34
India,Uttar_Pradesh,Lucknow,"Talkatora District Industries Center, Lucknow - CPCB",28-05-2024 11:00:00,26.83399722,80.8917361,NH3,6,50,16
India,Uttar_Pradesh,Meerut,"Ganga Nagar, Meerut - UPPCB",28-05-2024 11:00:00,28.999264,77.7590354,NH3,7,19,12
India,Uttar_Pradesh,Meerut,"Ganga Nagar, Meerut - UPPCB",28-05-2024 11:00:00,28.999264,77.7590354,OZONE,4,200,40
India,Uttar_Pradesh,Meerut,"Jai Bhim Nagar, Meerut - UPPCB",28-05-2024 11:00:00,28.9535882,77.7622941,PM2.5,99,368,246
India,Uttar_Pradesh,Meerut,"Jai Bhim Nagar, Meerut - UPPCB",28-05-2024 11:00:00,28.9535882,77.7622941,CO,24,92,74
India,Uttar_Pradesh,Meerut,"Jai Bhim Nagar, Meerut - UPPCB",28-05-2024 11:00:00,28.9535882,77.7622941,OZONE,14,149,29
India,Uttar_Pradesh,Meerut,"Pallavpuram Phase 2, Meerut - UPPCB",28-05-2024 11:00:00,29.063510,77.709723,PM10,102,272,178
India,Uttar_Pradesh,Moradabad,"Buddhi Vihar, Moradabad - UPPCB",28-05-2024 11:00:00,28.83526,78.74460,SO2,7,19,11
India,Uttar_Pradesh,Moradabad,"Eco Herbal Park, Moradabad - UPPCB",28-05-2024 11:00:00,28.840739,78.697531,SO2,13,103,37
India,Uttar_Pradesh,Moradabad,"Eco Herbal Park, Moradabad - UPPCB",28-05-2024 11:00:00,28.840739,78.697531,OZONE,6,302,32
India,Uttar_Pradesh,Moradabad,"Employment Office, Moradabad - UPPCB",28-05-2024 11:00:00,28.88528,78.73880,PM2.5,35,94,59
India,Uttar_Pradesh,Moradabad,"Jigar Colony, Moradabad - UPPCB",28-05-2024 11:00:00,28.856664,78.772638,PM10,72,159,121
India,Uttar_Pradesh,Moradabad,"Jigar Colony, Moradabad - UPPCB",28-05-2024 11:00:00,28.856664,78.772638,NO2,15,17,17
India,Uttar_Pradesh,Moradabad,"Jigar Colony, Moradabad - UPPCB",28-05-2024 11:00:00,28.856664,78.772638,SO2,14,21,18
India,Uttar_Pradesh,Moradabad,"Kashiram Nagar, Moradabad - UPPCB",28-05-2024 11:00:00,28.849399,78.742362,PM2.5,59,166,91
India,Uttar_Pradesh,Moradabad,"Kashiram Nagar, Moradabad - UPPCB",28-05-2024 11:00:00,28.849399,78.742362,OZONE,12,148,25
India,Uttar_Pradesh,Moradabad,"Transport Nagar, Moradabad - UPPCB",28-05-2024 11:00:00,28.802625,78.753728,NO2,4,5,4
India,Uttar_Pradesh,Moradabad,"Transport Nagar, Moradabad - UPPCB",28-05-2024 11:00:00,28.802625,78.753728,NH3,5,5,5
India,Uttar_Pradesh,Moradabad,"Transport Nagar, Moradabad - UPPCB",28-05-2024 11:00:00,28.802625,78.753728,OZONE,8,73,22
India,Uttar_Pradesh,Noida,"Sector-1, Noida - UPPCB",28-05-2024 11:00:00,28.5898,77.3101,NH3,2,18,8
India,Uttar_Pradesh,Noida,"Sector-116, Noida - UPPCB",28-05-2024 11:00:00,28.569230,77.393848,NO2,22,219,92
India,Uttar_Pradesh,Noida,"Sector-116, Noida - UPPCB",28-05-2024 11:00:00,28.569230,77.393848,NH3,6,12,9
India,Uttar_Pradesh,Prayagraj,"Jhunsi, Prayagraj - UPPCB",28-05-2024 11:00:00,25.425602,81.917152,CO,6,24,10
India,Uttar_Pradesh,Prayagraj,"Jhunsi, Prayagraj - UPPCB",28-05-2024 11:00:00,25.425602,81.917152,OZONE,4,79,24
India,Uttar_Pradesh,Prayagraj,"Motilal Nehru NIT, Prayagraj - UPPCB",28-05-2024 11:00:00,25.494,81.863,CO,18,42,27
India,Uttar_Pradesh,Prayagraj,"Nagar Nigam, Prayagraj - UPPCB",28-05-2024 11:00:00,25.44919916 ,81.82735986 ,NO2,5,5,5
India,Uttar_Pradesh,Varanasi,"Ardhali Bazar, Varanasi - UPPCB",28-05-2024 11:00:00,25.3505986,82.9083074,OZONE,24,36,32
India,Uttar_Pradesh,Varanasi,"Bhelupur, Varanasi - UPPCB",28-05-2024 11:00:00,25.301778,82.996789,PM10,9,32,15
India,Uttar_Pradesh,Varanasi,"Bhelupur, Varanasi - UPPCB",28-05-2024 11:00:00,25.301778,82.996789,NO2,8,10,8
India,Uttarakhand,Dehradun,"Doon University, Dehradun - UKPCB",28-05-2024 11:00:00,30.269444,78.044167,PM2.5,22,164,95
India,Uttarakhand,Dehradun,"Doon University, Dehradun - UKPCB",28-05-2024 11:00:00,30.269444,78.044167,PM10,30,136,101
India,West_Bengal,Asansol,"Asansol Court Area, Asansol - WBPCB",28-05-2024 11:00:00,23.685297,86.945968,CO,10,30,23
India,West_Bengal,Barrackpore,"SVSPA Campus, Barrackpore - WBPCB",28-05-2024 11:00:00,22.7605581,88.3617589,PM2.5,4,45,24
India,West_Bengal,Barrackpore,"SVSPA Campus, Barrackpore - WBPCB",28-05-2024 11:00:00,22.7605581,88.3617589,NO2,1,14,6
India,West_Bengal,Barrackpore,"SVSPA Campus, Barrackpore - WBPCB",28-05-2024 11:00:00,22.7605581,88.3617589,SO2,9,12,11
India,West_Bengal,Barrackpore,"SVSPA Campus, Barrackpore - WBPCB",28-05-2024 11:00:00,22.7605581,88.3617589,CO,16,38,28
India,West_Bengal,Durgapur,"PCBL Residential Complex, Durgapur - WBPCB",28-05-2024 11:00:00,23.5087640,87.3544400,PM10,13,264,67
India,West_Bengal,Durgapur,"PCBL Residential Complex, Durgapur - WBPCB",28-05-2024 11:00:00,23.5087640,87.3544400,NO2,4,67,22
India,West_Bengal,Durgapur,"PCBL Residential Complex, Durgapur - WBPCB",28-05-2024 11:00:00,23.5087640,87.3544400,SO2,7,10,8
India,West_Bengal,Durgapur,"Sidhu Kanhu Indoor Stadium, Durgapur - WBPCB",28-05-2024 11:00:00,23.5404352,87.2892225,NH3,4,5,5
India,West_Bengal,Haldia,"Priyambada Housing Estate, Haldia - WBPCB",28-05-2024 11:00:00,22.06047,88.109737,NH3,3,6,5
India,West_Bengal,Haldia,"Priyambada Housing Estate, Haldia - WBPCB",28-05-2024 11:00:00,22.06047,88.109737,SO2,8,124,21
India,West_Bengal,Howrah,"Belur Math, Howrah - WBPCB",28-05-2024 11:00:00,22.629801,88.352017,CO,4,22,10
India,West_Bengal,Howrah,"Ghusuri, Howrah - WBPCB",28-05-2024 11:00:00,22.611968,88.347422,PM2.5,13,58,39
India,West_Bengal,Howrah,"Ghusuri, Howrah - WBPCB",28-05-2024 11:00:00,22.611968,88.347422,NO2,21,27,23
India,West_Bengal,Howrah,"Padmapukur, Howrah - WBPCB",28-05-2024 11:00:00,22.5687319,88.2797276,SO2,5,27,10
India,West_Bengal,Howrah,"Padmapukur, Howrah - WBPCB",28-05-2024 11:00:00,22.5687319,88.2797276,OZONE,20,35,25
India,West_Bengal,Kolkata,"Fort William, Kolkata - WBPCB",28-05-2024 11:00:00,22.556640,88.342674,PM10,19,52,30
India,West_Bengal,Kolkata,"Jadavpur, Kolkata - WBPCB",28-05-2024 11:00:00,22.49929,88.36917,NH3,NA,NA,NA
India,West_Bengal,Kolkata,"Rabindra Bharati University, Kolkata - WBPCB",28-05-2024 11:00:00,22.627847,88.380669,OZONE,178,178,178
India,West_Bengal,Kolkata,"Rabindra Sarobar, Kolkata - WBPCB",28-05-2024 11:00:00,22.51106,88.35142,NO2,10,20,15
India,West_Bengal,Kolkata,"Rabindra Sarobar, Kolkata - WBPCB",28-05-2024 11:00:00,22.51106,88.35142,SO2,6,7,6
India,West_Bengal,Kolkata,"Rabindra Sarobar, Kolkata - WBPCB",28-05-2024 11:00:00,22.51106,88.35142,CO,20,28,25
India,West_Bengal,Kolkata,"Rabindra Sarobar, Kolkata - WBPCB",28-05-2024 11:00:00,22.51106,88.35142,OZONE,11,36,18
India,West_Bengal,Kolkata,"Victoria, Kolkata - WBPCB",28-05-2024 11:00:00,22.5448082,88.3403691,PM2.5,10,50,22
India,West_Bengal,Kolkata,"Victoria, Kolkata - WBPCB",28-05-2024 11:00:00,22.5448082,88.3403691,NO2,21,28,25
India,West_Bengal,Kolkata,"Victoria, Kolkata - WBPCB",28-05-2024 11:00:00,22.5448082,88.3403691,NH3,5,6,6
India,Andhra_Pradesh,Anantapur,"Gulzarpet, Anantapur - APPCB",28-05-2024 11:00:00,14.675886,77.593027,CO,24,37,29
India,Andhra_Pradesh,Chittoor,"Gangineni Cheruvu, Chittoor - APPCB",28-05-2024 11:00:00,13.204880,79.097889,CO,20,30,20
India,Andhra_Pradesh,Chittoor,"Gangineni Cheruvu, Chittoor - APPCB",28-05-2024 11:00:00,13.204880,79.097889,OZONE,25,25,25
India,Andhra_Pradesh,Tirupati,"Tirumala, Tirupati - APPCB",28-05-2024 11:00:00,13.67,79.35,NO2,14,36,26
India,Andhra_Pradesh,Tirupati,"Tirumala, Tirupati - APPCB",28-05-2024 11:00:00,13.67,79.35,NH3,1,1,1
India,Andhra_Pradesh,Tirupati,"Vaikuntapuram, Tirupati - APPCB",28-05-2024 11:00:00,13.615387,79.409230,PM2.5,9,52,32
India,Andhra_Pradesh,Tirupati,"Vaikuntapuram, Tirupati - APPCB",28-05-2024 11:00:00,13.615387,79.409230,NO2,14,32,17
India,Andhra_Pradesh,Tirupati,"Vaikuntapuram, Tirupati - APPCB",28-05-2024 11:00:00,13.615387,79.409230,OZONE,10,29,16
India,Andhra_Pradesh,Vijayawada,"HB Colony, Vijayawada - APPCB",28-05-2024 11:00:00,16.536107,80.594233,SO2,6,7,6
India,Andhra_Pradesh,Vijayawada,"HB Colony, Vijayawada - APPCB",28-05-2024 11:00:00,16.536107,80.594233,OZONE,7,50,12
India,Andhra_Pradesh,Vijayawada,"Kanuru, Vijayawada - APPCB",28-05-2024 11:00:00,16.486692,80.699436,NO2,15,32,24
India,Andhra_Pradesh,Vijayawada,"Kanuru, Vijayawada - APPCB",28-05-2024 11:00:00,16.486692,80.699436,OZONE,33,36,34
India,Andhra_Pradesh,Vijayawada,"Rajiv Gandhi Park, Vijayawada - APPCB",28-05-2024 11:00:00,16.509717,80.612222,PM2.5,49,68,59
India,Andhra_Pradesh,Vijayawada,"Rajiv Gandhi Park, Vijayawada - APPCB",28-05-2024 11:00:00,16.509717,80.612222,PM10,52,72,62
India,Andhra_Pradesh,Vijayawada,"Rajiv Gandhi Park, Vijayawada - APPCB",28-05-2024 11:00:00,16.509717,80.612222,OZONE,13,78,19
India,Andhra_Pradesh,Vijayawada,"Rajiv Nagar, Vijayawada - APPCB",28-05-2024 11:00:00,16.554731,80.649110,CO,34,36,34
India,Andhra_Pradesh,Visakhapatnam,"GVM Corporation, Visakhapatnam - APPCB",28-05-2024 11:00:00,17.72,83.3,PM10,119,223,152
India,Andhra_Pradesh,Visakhapatnam,"GVM Corporation, Visakhapatnam - APPCB",28-05-2024 11:00:00,17.72,83.3,NH3,3,4,3
India,Assam,Byrnihat,"Central Academy for SFS, Byrnihat - PCBA",28-05-2024 11:00:00,26.071318,91.87488,NH3,NA,NA,NA
India,Assam,Guwahati,"LGBI Airport, Guwahati - PCBA",28-05-2024 11:00:00,26.10887,91.589544,NH3,1,2,1
India,Assam,Nalbari,"Bata Chowk, Nalbari - PCBA",28-05-2024 11:00:00,26.446912,91.439057,CO,12,94,41
India,Assam,Silchar,"Tarapur, Silchar - PCBA",28-05-2024 11:00:00,24.82827,92.79525,PM10,NA,NA,NA
India,Assam,Sivasagar,"Girls College, Sivasagar - PCBA",28-05-2024 11:00:00,26.987634,94.636574,SO2,4,7,5
India,Assam,Sivasagar,"Girls College, Sivasagar - PCBA",28-05-2024 11:00:00,26.987634,94.636574,CO,6,10,7
India,Bihar,Araria,"Kharahiya Basti, Araria - BSPCB",28-05-2024 11:00:00,26.146529,87.454184,PM2.5,NA,NA,NA
India,Bihar,Araria,"Kharahiya Basti, Araria - BSPCB",28-05-2024 11:00:00,26.146529,87.454184,OZONE,1,11,9
India,Bihar,Arrah,"New DM Office, Arrah - BSPCB",28-05-2024 11:00:00,25.5626095,84.663264,CO,12,26,19
India,Bihar,Aurangabad,"Gurdeo Nagar, Aurangabad - BSPCB",28-05-2024 11:00:00,24.75746,84.366208,NH3,NA,NA,NA
India,Bihar,Aurangabad,"Gurdeo Nagar, Aurangabad - BSPCB",28-05-2024 11:00:00,24.75746,84.366208,SO2,NA,NA,NA
India,Bihar,Bettiah,"Kamalnath Nagar, Bettiah - BSPCB",28-05-2024 11:00:00,26.80365,84.51954,PM2.5,NA,NA,NA
India,Bihar,Bhagalpur,"DM Office_Kachari Chowk, Bhagalpur - BSPCB",28-05-2024 11:00:00,25.251013,86.989001,PM10,23,157,71
India,Bihar,Bhagalpur,"DM Office_Kachari Chowk, Bhagalpur - BSPCB",28-05-2024 11:00:00,25.251013,86.989001,SO2,7,87,37
India,Bihar,Bhagalpur,"DM Office_Kachari Chowk, Bhagalpur - BSPCB",28-05-2024 11:00:00,25.251013,86.989001,OZONE,43,55,47
India,Bihar,Bhagalpur,"Mayaganj, Bhagalpur - BSPCB",28-05-2024 11:00:00,25.265194,87.012947,SO2,11,12,12
India,Bihar,Bihar Sharif,"D M Colony, Bihar Sharif - BSPCB",28-05-2024 11:00:00,25.204762,85.514960,OZONE,13,29,22
India,Bihar,Buxar,"Charitra Van, Buxar - BSPCB (Formerly known as Central Jail)",28-05-2024 11:00:00,25.567520,83.966379,OZONE,7,111,29
India,Bihar,Gaya,"Collectorate, Gaya - BSPCB",28-05-2024 11:00:00,24.7955,84.9994,PM2.5,16,69,34
India,Bihar,Gaya,"Kareemganj, Gaya - BSPCB",28-05-2024 11:00:00,24.792403,84.992416,NH3,1,8,4
India,Bihar,Hajipur,"Industrial Area, Hajipur - BSPCB",28-05-2024 11:00:00,25.697189,85.245900,PM10,72,146,109
India,Bihar,Hajipur,"Industrial Area, Hajipur - BSPCB",28-05-2024 11:00:00,25.697189,85.245900,NO2,17,41,27
India,Bihar,Hajipur,"Industrial Area, Hajipur - BSPCB",28-05-2024 11:00:00,25.697189,85.245900,SO2,6,8,7
India,Bihar,Hajipur,"Industrial Area, Hajipur - BSPCB",28-05-2024 11:00:00,25.697189,85.245900,CO,14,36,30
India,Bihar,Katihar,"Mirchaibari, Katihar - BSPCB",28-05-2024 11:00:00,25.560083,87.553265,PM10,2,27,14
India,Bihar,Katihar,"Mirchaibari, Katihar - BSPCB",28-05-2024 11:00:00,25.560083,87.553265,SO2,5,24,14
India,Bihar,Kishanganj,"SDM Office_Khagra, Kishanganj - BSPCB",28-05-2024 11:00:00,26.0881305,87.93840336,NO2,39,41,40
India,Bihar,Manguraha,"Forest Rest House, Manguraha - BSPCB",28-05-2024 11:00:00,27.308328,84.531742,NH3,NA,NA,NA
India,Bihar,Motihari,"Gandak Colony, Motihari - BSPCB",28-05-2024 11:00:00,26.63086,84.90051,NO2,NA,NA,NA
India,Bihar,Muzaffarpur,"Buddha Colony, Muzaffarpur - BSPCB",28-05-2024 11:00:00,26.11442,85.39813,PM2.5,41,79,59
India,Bihar,Muzaffarpur,"Buddha Colony, Muzaffarpur - BSPCB",28-05-2024 11:00:00,26.11442,85.39813,NH3,4,9,6
India,Bihar,Muzaffarpur,"Buddha Colony, Muzaffarpur - BSPCB",28-05-2024 11:00:00,26.11442,85.39813,CO,8,24,14
India,Bihar,Muzaffarpur,"Muzaffarpur Collectorate, Muzaffarpur - BSPCB",28-05-2024 11:00:00,26.1209,85.3647,SO2,5,8,8
India,Bihar,Patna,"DRM Office Danapur, Patna - BSPCB",28-05-2024 11:00:00,25.586562,85.043586,PM10,43,86,70
India,Bihar,Patna,"Govt. High School Shikarpur, Patna - BSPCB",28-05-2024 11:00:00,25.592539,85.227158,SO2,9,12,10
India,Bihar,Patna,"Muradpur, Patna - BSPCB",28-05-2024 11:00:00,25.619651,85.147382,PM2.5,60,296,144
India,Bihar,Patna,"Muradpur, Patna - BSPCB",28-05-2024 11:00:00,25.619651,85.147382,NH3,1,6,5
India,Bihar,Patna,"Muradpur, Patna - BSPCB",28-05-2024 11:00:00,25.619651,85.147382,CO,22,58,39
India,Bihar,Patna,"Muradpur, Patna - BSPCB",28-05-2024 11:00:00,25.619651,85.147382,OZONE,5,62,11
India,Bihar,Patna,"Rajbansi Nagar, Patna - BSPCB",28-05-2024 11:00:00,25.599486,85.113666,SO2,1,6,3
India,Bihar,Patna,"Samanpura, Patna - BSPCB",28-05-2024 11:00:00,25.596727,85.085624,NH3,NA,NA,NA
India,Bihar,Purnia,"Mariam Nagar, Purnia - BSPCB",28-05-2024 11:00:00,25.366336,87.117468,NH3,6,9,8
India,Bihar,Purnia,"Mariam Nagar, Purnia - BSPCB",28-05-2024 11:00:00,25.366336,87.117468,SO2,7,13,9
India,Bihar,Purnia,"Mariam Nagar, Purnia - BSPCB",28-05-2024 11:00:00,25.366336,87.117468,OZONE,2,21,9
India,Bihar,Rajgir,"Dangi Tola, Rajgir - BSPCB",28-05-2024 11:00:00,25.03280,85.41948,SO2,4,5,4
India,Bihar,Rajgir,"Dangi Tola, Rajgir - BSPCB",28-05-2024 11:00:00,25.03280,85.41948,OZONE,31,37,34
India,Bihar,Saharsa,"Police Line, Saharsa - BSPCB",28-05-2024 11:00:00,25.892357,86.590325,NO2,6,8,7
India,Bihar,Saharsa,"Police Line, Saharsa - BSPCB",28-05-2024 11:00:00,25.892357,86.590325,NH3,9,9,9
India,Bihar,Samastipur,"DM Office_Kasipur, Samastipur - BSPCB",28-05-2024 11:00:00,25.859655,85.77944,NO2,4,5,4
India,Bihar,Samastipur,"DM Office_Kasipur, Samastipur - BSPCB",28-05-2024 11:00:00,25.859655,85.77944,SO2,34,66,55
India,Bihar,Sasaram,"Dada Peer, Sasaram - BSPCB",28-05-2024 11:00:00,24.952822,84.002396,CO,47,80,74
India,Bihar,Sasaram,"Dada Peer, Sasaram - BSPCB",28-05-2024 11:00:00,24.952822,84.002396,OZONE,8,44,35
India,Chandigarh,Chandigarh,"Sector 22, Chandigarh - CPCC",28-05-2024 11:00:00,30.735567,76.775714,PM2.5,45,243,130
India,Chandigarh,Chandigarh,"Sector 22, Chandigarh - CPCC",28-05-2024 11:00:00,30.735567,76.775714,SO2,9,71,28
India,Chhattisgarh,Bhilai,"32Bungalows, Bhilai - CECB",28-05-2024 11:00:00,21.194815,81.314770,PM10,69,103,87
India,Chhattisgarh,Bhilai,"32Bungalows, Bhilai - CECB",28-05-2024 11:00:00,21.194815,81.314770,SO2,10,17,11
India,Chhattisgarh,Bhilai,"Hathkhoj, Bhilai - CECB",28-05-2024 11:00:00,21.224231,81.408350,NO2,7,43,14
India,Chhattisgarh,Bilaspur,"Mangala, Bilaspur - NTPC",28-05-2024 11:00:00,22.08815,82.13737,NO2,17,21,19
India,Chhattisgarh,Bilaspur,"Mangala, Bilaspur - NTPC",28-05-2024 11:00:00,22.08815,82.13737,SO2,8,16,12
India,Chhattisgarh,Bilaspur,"Mangala, Bilaspur - NTPC",28-05-2024 11:00:00,22.08815,82.13737,CO,30,41,38
India,Chhattisgarh,Chhal,"Nawapara SECL Colony, Chhal - CECB",28-05-2024 11:00:00,22.118125,83.140608,PM2.5,50,149,99
India,Chhattisgarh,Chhal,"Nawapara SECL Colony, Chhal - CECB",28-05-2024 11:00:00,22.118125,83.140608,SO2,9,20,14
India,Chhattisgarh,Chhal,"Nawapara SECL Colony, Chhal - CECB",28-05-2024 11:00:00,22.118125,83.140608,OZONE,24,158,52
India,Chhattisgarh,Korba,"Rampur, Korba - CECB",28-05-2024 11:00:00,22.368195,82.746431,PM2.5,36,74,58
India,Chhattisgarh,Korba,"Rampur, Korba - CECB",28-05-2024 11:00:00,22.368195,82.746431,CO,17,32,27
India,Chhattisgarh,Korba,"Urja Nagar, Korba - CECB",28-05-2024 11:00:00,22.348441,82.549611,SO2,NA,NA,NA
India,Chhattisgarh,Korba,"Urja Nagar, Korba - CECB",28-05-2024 11:00:00,22.348441,82.549611,CO,NA,NA,NA
India,Chhattisgarh,Korba,"Urja Nagar, Korba - CECB",28-05-2024 11:00:00,22.348441,82.549611,OZONE,NA,NA,NA
India,Chhattisgarh,Raipur,"AIIMS, Raipur - CECB",28-05-2024 11:00:00,21.258815,81.578979,NO2,14,47,25
India,Chhattisgarh,Raipur,"Krishak Nagar, Raipur - CECB",28-05-2024 11:00:00,21.237755,81.705301,PM2.5,21,51,37
India,Chhattisgarh,Raipur,"Krishak Nagar, Raipur - CECB",28-05-2024 11:00:00,21.237755,81.705301,NH3,1,1,1
India,Chhattisgarh,Raipur,"Krishak Nagar, Raipur - CECB",28-05-2024 11:00:00,21.237755,81.705301,CO,24,43,27
India,Chhattisgarh,Raipur,"Siltara Phase-II, Raipur - CECB",28-05-2024 11:00:00,21.371751,81.664929,SO2,20,83,40
India,Chhattisgarh,Raipur,"Siltara Phase-II, Raipur - CECB",28-05-2024 11:00:00,21.371751,81.664929,CO,17,79,39
India,Chhattisgarh,Tumidih,"OP Jindal Industrial Park, Tumidih - CECB",28-05-2024 11:00:00,22.06631475,83.33820077,OZONE,11,69,26
India,Delhi,Delhi,"Alipur, Delhi - DPCC",28-05-2024 11:00:00,28.815329,77.153010,NO2,6,101,45
India,Delhi,Delhi,"Alipur, Delhi - DPCC",28-05-2024 11:00:00,28.815329,77.153010,OZONE,3,271,42
India,Delhi,Delhi,"Ashok Vihar, Delhi - DPCC",28-05-2024 11:00:00,28.695381,77.181665,PM10,149,424,229
India,Delhi,Delhi,"Ashok Vihar, Delhi - DPCC",28-05-2024 11:00:00,28.695381,77.181665,NH3,3,18,11
India,Delhi,Delhi,"Ashok Vihar, Delhi - DPCC",28-05-2024 11:00:00,28.695381,77.181665,OZONE,7,278,278
India,Delhi,Delhi,"Bawana, Delhi - DPCC",28-05-2024 11:00:00,28.776200,77.051074,PM2.5,47,434,240
India,Delhi,Delhi,"CRRI Mathura Road, Delhi - IMD",28-05-2024 11:00:00,28.5512005,77.2735737,NO2,10,33,24
India,Delhi,Delhi,"Chandni Chowk, Delhi - IITM",28-05-2024 11:00:00,28.656756,77.227234,NH3,NA,NA,NA
India,Delhi,Delhi,"Chandni Chowk, Delhi - IITM",28-05-2024 11:00:00,28.656756,77.227234,SO2,NA,NA,NA
India,Delhi,Delhi,"DTU, Delhi - CPCB",28-05-2024 11:00:00,28.7500499,77.1112615,PM2.5,114,350,279
India,Delhi,Delhi,"Dwarka-Sector 8, Delhi - DPCC ",28-05-2024 11:00:00,28.5710274,77.0719006,SO2,4,41,16
India,Delhi,Delhi,"IGI Airport (T3), Delhi - IMD",28-05-2024 11:00:00,28.5627763,77.1180053,PM2.5,37,301,152
India,Delhi,Delhi,"IGI Airport (T3), Delhi - IMD",28-05-2024 11:00:00,28.5627763,77.1180053,CO,20,102,61
India,Delhi,Delhi,"IGI Airport (T3), Delhi - IMD",28-05-2024 11:00:00,28.5627763,77.1180053,OZONE,4,78,20
India,Delhi,Delhi,"IHBAS, Dilshad Garden, Delhi - CPCB",28-05-2024 11:00:00,28.6811736,77.3025234,PM2.5,75,234,132
India,Delhi,Delhi,"ITO, Delhi - CPCB",28-05-2024 11:00:00,28.628624,77.241060,NH3,3,8,5
India,Delhi,Delhi,"Jahangirpuri, Delhi - DPCC",28-05-2024 11:00:00,28.732820,77.170633,PM2.5,67,335,224
India,Delhi,Delhi,"Jahangirpuri, Delhi - DPCC",28-05-2024 11:00:00,28.732820,77.170633,CO,28,146,92
India,Delhi,Delhi,"Jawaharlal Nehru Stadium, Delhi - DPCC",28-05-2024 11:00:00,28.580280,77.233829,NH3,6,8,7
India,Delhi,Delhi,"Jawaharlal Nehru Stadium, Delhi - DPCC",28-05-2024 11:00:00,28.580280,77.233829,SO2,18,71,42
India,Delhi,Delhi,"Lodhi Road, Delhi - IITM",28-05-2024 11:00:00,28.588333,77.221667,PM2.5,62,279,131
India,Delhi,Delhi,"Lodhi Road, Delhi - IMD",28-05-2024 11:00:00,28.5918245,77.2273074,OZONE,13,82,31
India,Delhi,Delhi,"Major Dhyan Chand National Stadium, Delhi - DPCC",28-05-2024 11:00:00,28.611281,77.237738,OZONE,1,271,29
India,Delhi,Delhi,"Mandir Marg, Delhi - DPCC",28-05-2024 11:00:00,28.636429,77.201067,OZONE,8,185,176
India,Delhi,Delhi,"Mundka, Delhi - DPCC",28-05-2024 11:00:00,28.684678,77.076574,PM2.5,70,465,244
India,Delhi,Delhi,"Mundka, Delhi - DPCC",28-05-2024 11:00:00,28.684678,77.076574,NH3,4,11,6
India,Delhi,Delhi,"Najafgarh, Delhi - DPCC",28-05-2024 11:00:00,28.570173,76.933762,NO2,8,53,26
India,Delhi,Delhi,"Najafgarh, Delhi - DPCC",28-05-2024 11:00:00,28.570173,76.933762,NH3,4,9,6
India,Delhi,Delhi,"Narela, Delhi - DPCC",28-05-2024 11:00:00,28.822836,77.101981,NO2,11,152,71
India,Delhi,Delhi,"Nehru Nagar, Delhi - DPCC",28-05-2024 11:00:00,28.567890,77.250515,SO2,6,16,9
India,Delhi,Delhi,"North Campus, DU, Delhi - IMD",28-05-2024 11:00:00,28.6573814,77.1585447,PM2.5,79,322,208
India,Delhi,Delhi,"North Campus, DU, Delhi - IMD",28-05-2024 11:00:00,28.6573814,77.1585447,PM10,85,335,213
India,Delhi,Delhi,"Okhla Phase-2, Delhi - DPCC",28-05-2024 11:00:00,28.530785,77.271255,PM2.5,57,315,171
India,Delhi,Delhi,"Patparganj, Delhi - DPCC",28-05-2024 11:00:00,28.623763,77.287209,PM2.5,78,338,188
India,Delhi,Delhi,"Patparganj, Delhi - DPCC",28-05-2024 11:00:00,28.623763,77.287209,PM10,165,500,281
India,Delhi,Delhi,"Patparganj, Delhi - DPCC",28-05-2024 11:00:00,28.623763,77.287209,SO2,2,13,6
India,Delhi,Delhi,"Patparganj, Delhi - DPCC",28-05-2024 11:00:00,28.623763,77.287209,CO,28,57,36
India,Delhi,Delhi,"Pusa, Delhi - DPCC",28-05-2024 11:00:00,28.639652,77.146275,PM10,139,455,203
India,Delhi,Delhi,"Pusa, Delhi - IMD",28-05-2024 11:00:00,28.636110,77.173332,PM2.5,NA,NA,NA
India,Delhi,Delhi,"Pusa, Delhi - IMD",28-05-2024 11:00:00,28.636110,77.173332,NO2,NA,NA,NA
India,Delhi,Delhi,"R K Puram, Delhi - DPCC",28-05-2024 11:00:00,28.563262,77.186937,NO2,30,194,102
India,Delhi,Delhi,"Rohini, Delhi - DPCC",28-05-2024 11:00:00,28.732528,77.119920,CO,19,135,77
India,Delhi,Delhi,"Shadipur, Delhi - CPCB",28-05-2024 11:00:00,28.6514781,77.1473105,PM10,167,500,323
India,Delhi,Delhi,"Shadipur, Delhi - CPCB",28-05-2024 11:00:00,28.6514781,77.1473105,NH3,6,14,8
India,Delhi,Delhi,"Sirifort, Delhi - CPCB",28-05-2024 11:00:00,28.5504249,77.2159377,PM10,158,500,283
India,Delhi,Delhi,"Sirifort, Delhi - CPCB",28-05-2024 11:00:00,28.5504249,77.2159377,OZONE,4,99,25
India,Delhi,Delhi,"Sonia Vihar, Delhi - DPCC",28-05-2024 11:00:00,28.710508,77.249485,SO2,14,53,25
India,Delhi,Delhi,"Sri Aurobindo Marg, Delhi - DPCC",28-05-2024 11:00:00,28.531346,77.190156,NO2,8,110,49
India,Delhi,Delhi,"Vivek Vihar, Delhi - DPCC",28-05-2024 11:00:00,28.672342,77.315260,PM2.5,80,304,186
India,Delhi,Delhi,"Vivek Vihar, Delhi - DPCC",28-05-2024 11:00:00,28.672342,77.315260,PM10,160,413,260
India,Delhi,Delhi,"Vivek Vihar, Delhi - DPCC",28-05-2024 11:00:00,28.672342,77.315260,NH3,14,16,15
India,Gujarat,Ahmedabad,"Chandkheda, Ahmedabad - IITM",28-05-2024 11:00:00,23.107969,72.574648,PM10,59,144,95
India,Gujarat,Ahmedabad,"Chandkheda, Ahmedabad - IITM",28-05-2024 11:00:00,23.107969,72.574648,NH3,8,9,9
India,Gujarat,Ahmedabad,"Gyaspur, Ahmedabad - IITM",28-05-2024 11:00:00,22.977134,72.553024,NO2,41,50,46
India,Gujarat,Ahmedabad,"Gyaspur, Ahmedabad - IITM",28-05-2024 11:00:00,22.977134,72.553024,OZONE,89,116,114
India,Gujarat,Ahmedabad,"Maninagar, Ahmedabad - GPCB",28-05-2024 11:00:00,23.002657,72.591912,OZONE,71,97,71
India,Gujarat,Ahmedabad,"SVPI Airport Hansol, Ahmedabad - IITM",28-05-2024 11:00:00,23.076793,72.627874,PM2.5,75,272,157
India,Gujarat,Ahmedabad,"Sardar Vallabhbhai Patel Stadium, Ahmedabad - IITM",28-05-2024 11:00:00,23.043070,72.562968,PM10,23,136,96
India,Gujarat,Ahmedabad,"Sardar Vallabhbhai Patel Stadium, Ahmedabad - IITM",28-05-2024 11:00:00,23.043070,72.562968,NO2,NA,NA,NA
India,Gujarat,Ahmedabad,"Sardar Vallabhbhai Patel Stadium, Ahmedabad - IITM",28-05-2024 11:00:00,23.043070,72.562968,OZONE,25,103,44
India,Gujarat,Gandhinagar,"Sector-10, Gandhinagar - GPCB",28-05-2024 11:00:00,23.221714,72.654328,PM2.5,15,83,53
India,Gujarat,Nandesari,"GIDC, Nandesari - Nandesari Ind. Association",28-05-2024 11:00:00,22.410802,73.097923,PM10,90,171,126
India,Gujarat,Surat,"Science Center, Surat - SMC",28-05-2024 11:00:00,21.170046,72.795405,SO2,11,12,12
India,Gujarat,Vatva,"Phase-4 GIDC, Vatva - GPCB",28-05-2024 11:00:00,22.969611,72.643500,NH3,NA,NA,NA
India,Haryana,Ambala,"Patti Mehar, Ambala - HSPCB",28-05-2024 11:00:00,30.379589,76.778328,NH3,5,12,8
India,Haryana,Ambala,"Patti Mehar, Ambala - HSPCB",28-05-2024 11:00:00,30.379589,76.778328,SO2,11,18,14
India,Haryana,Bahadurgarh,"Arya Nagar, Bahadurgarh - HSPCB",28-05-2024 11:00:00,28.6701,76.9254,PM10,109,416,249
India,Haryana,Bahadurgarh,"Arya Nagar, Bahadurgarh - HSPCB",28-05-2024 11:00:00,28.6701,76.9254,NO2,20,25,22
India,Haryana,Bahadurgarh,"Arya Nagar, Bahadurgarh - HSPCB",28-05-2024 11:00:00,28.6701,76.9254,CO,93,104,97
India,Haryana,Bahadurgarh,"Arya Nagar, Bahadurgarh - HSPCB",28-05-2024 11:00:00,28.6701,76.9254,OZONE,34,45,37
India,Haryana,Ballabgarh,"Nathu Colony, Ballabgarh - HSPCB",28-05-2024 11:00:00,28.3419248,77.319699,PM10,122,311,211
India,Haryana,Ballabgarh,"Nathu Colony, Ballabgarh - HSPCB",28-05-2024 11:00:00,28.3419248,77.319699,NO2,5,14,12
India,Haryana,Bhiwani,"H.B. Colony, Bhiwani - HSPCB",28-05-2024 11:00:00,28.806223,76.141105,SO2,NA,NA,NA
India,Haryana,Bhiwani,"H.B. Colony, Bhiwani - HSPCB",28-05-2024 11:00:00,28.806223,76.141105,OZONE,8,100,12
India,Haryana,Charkhi Dadri,"Mini Secretariat, Charkhi Dadri - HSPCB",28-05-2024 11:00:00,28.593883,76.270653,SO2,6,47,19
India,Haryana,Faridabad,"New Industrial Town, Faridabad - HSPCB",28-05-2024 11:00:00,28.39072,77.30059,SO2,1,21,12
India,Haryana,Faridabad,"New Industrial Town, Faridabad - HSPCB",28-05-2024 11:00:00,28.39072,77.30059,CO,4,112,12
India,Haryana,Faridabad,"Sector 11, Faridabad - HSPCB",28-05-2024 11:00:00,28.376058,77.315741,OZONE,7,56,11
India,Haryana,Faridabad,"Sector 30, Faridabad - HSPCB",28-05-2024 11:00:00,28.4417,77.3217,NH3,NA,NA,NA
India,Haryana,Faridabad,"Sector- 16A, Faridabad - HSPCB",28-05-2024 11:00:00,28.4088421,77.3099081,SO2,20,31,25
India,Haryana,Faridabad,"Sector- 16A, Faridabad - HSPCB",28-05-2024 11:00:00,28.4088421,77.3099081,CO,12,104,31
India,Haryana,Fatehabad,"Huda Sector, Fatehabad - HSPCB",28-05-2024 11:00:00,29.503664,75.467934,OZONE,71,100,86
India,Haryana,Gurugram,"NISE Gwal Pahari, Gurugram - IMD",28-05-2024 11:00:00,28.422681,77.148944,NO2,NA,NA,NA
India,Haryana,Gurugram,"NISE Gwal Pahari, Gurugram - IMD",28-05-2024 11:00:00,28.422681,77.148944,CO,99,114,109
India,Haryana,Gurugram,"Sector-51, Gurugram - HSPCB",28-05-2024 11:00:00,28.4227,77.0667,NO2,13,29,23
India,Haryana,Gurugram,"Teri Gram, Gurugram - HSPCB",28-05-2024 11:00:00,28.4275,77.1465,NO2,29,124,83
India,Haryana,Gurugram,"Teri Gram, Gurugram - HSPCB",28-05-2024 11:00:00,28.4275,77.1465,SO2,NA,NA,NA
India,Haryana,Hisar,"Urban Estate-II, Hisar - HSPCB",28-05-2024 11:00:00,29.140560,75.744941,PM10,105,118,111
India,Haryana,Hisar,"Urban Estate-II, Hisar - HSPCB",28-05-2024 11:00:00,29.140560,75.744941,CO,25,46,28
India,Haryana,Jind,"Police Lines, Jind - HSPCB",28-05-2024 11:00:00,29.307814,76.337619,NO2,1,179,32
India,Haryana,Jind,"Police Lines, Jind - HSPCB",28-05-2024 11:00:00,29.307814,76.337619,NH3,NA,NA,NA
India,Haryana,Jind,"Police Lines, Jind - HSPCB",28-05-2024 11:00:00,29.307814,76.337619,CO,2,104,42
India,Haryana,Kaithal,"Rishi Nagar, Kaithal - HSPCB",28-05-2024 11:00:00,29.8006,76.4155,PM10,NA,NA,NA
India,Haryana,Kaithal,"Rishi Nagar, Kaithal - HSPCB",28-05-2024 11:00:00,29.8006,76.4155,OZONE,20,32,22
India,Haryana,Kurukshetra,"Sector-7, Kurukshetra - HSPCB",28-05-2024 11:00:00,29.966942,76.875879,CO,1,54,29
India,Haryana,Narnaul,"Shastri Nagar, Narnaul - HSPCB",28-05-2024 11:00:00,28.060249,76.113115,NO2,15,87,47
India,Haryana,Narnaul,"Shastri Nagar, Narnaul - HSPCB",28-05-2024 11:00:00,28.060249,76.113115,NH3,5,28,15
India,Haryana,Palwal,"Shyam Nagar, Palwal - HSPCB",28-05-2024 11:00:00,28.1485564,77.3320667,OZONE,16,70,31
India,Haryana,Panchkula,"Sector-6, Panchkula - HSPCB ",28-05-2024 11:00:00,30.7057778,76.8531805555555,NO2,10,11,10
India,Haryana,Panchkula,"Sector-6, Panchkula - HSPCB ",28-05-2024 11:00:00,30.7057778,76.8531805555555,SO2,2,22,7
India,Haryana,Panipat,"Sector-18, Panipat - HSPCB",28-05-2024 11:00:00,29.432304,76.972765,PM10,94,96,94
India,Haryana,Panipat,"Sector-18, Panipat - HSPCB",28-05-2024 11:00:00,29.432304,76.972765,OZONE,30,30,30
India,Haryana,Rohtak,"MD University, Rohtak - HSPCB",28-05-2024 11:00:00,28.52123,76.37138,PM2.5,18,305,124
India,Haryana,Rohtak,"MD University, Rohtak - HSPCB",28-05-2024 11:00:00,28.52123,76.37138,CO,20,88,41
India,Haryana,Sirsa,"F-Block, Sirsa - HSPCB",28-05-2024 11:00:00,29.536400,75.015800,PM10,67,100,80
India,Haryana,Sirsa,"F-Block, Sirsa - HSPCB",28-05-2024 11:00:00,29.536400,75.015800,OZONE,9,80,23
India,Haryana,Sonipat,"Murthal, Sonipat - HSPCB",28-05-2024 11:00:00,29.027200,77.062100,CO,24,26,25
India,Jharkhand,Dhanbad,"Kalakusuma, Dhanbad - DMC",28-05-2024 11:00:00,23.811548,86.481238,PM2.5,NA,NA,NA
India,Jharkhand,Dhanbad,"Kalakusuma, Dhanbad - DMC",28-05-2024 11:00:00,23.811548,86.481238,NO2,NA,NA,NA
India,Jharkhand,Dhanbad,"Kalakusuma, Dhanbad - DMC",28-05-2024 11:00:00,23.811548,86.481238,SO2,NA,NA,NA
India,Jharkhand,Dhanbad,"Kalakusuma, Dhanbad - DMC",28-05-2024 11:00:00,23.811548,86.481238,OZONE,NA,NA,NA
India,Karnataka,Belgaum,"Ramteerth Nagar, Belgaum - KSPCB",28-05-2024 11:00:00,15.888653,74.541751,PM10,22,50,36
India,Karnataka,Belgaum,"Ramteerth Nagar, Belgaum - KSPCB",28-05-2024 11:00:00,15.888653,74.541751,CO,28,50,46
India,Karnataka,Bengaluru,"Bapuji Nagar, Bengaluru - KSPCB",28-05-2024 11:00:00,12.951913,77.539784,PM2.5,36,73,49
India,Karnataka,Bengaluru,"Bapuji Nagar, Bengaluru - KSPCB",28-05-2024 11:00:00,12.951913,77.539784,PM10,55,106,73
India,Karnataka,Bengaluru,"Bapuji Nagar, Bengaluru - KSPCB",28-05-2024 11:00:00,12.951913,77.539784,NH3,1,1,1
India,Karnataka,Bengaluru,"Bapuji Nagar, Bengaluru - KSPCB",28-05-2024 11:00:00,12.951913,77.539784,OZONE,19,27,25
India,Karnataka,Bengaluru,"Hebbal, Bengaluru - KSPCB",28-05-2024 11:00:00,13.029152,77.585901,NH3,1,1,1
India,Karnataka,Bengaluru,"Hebbal, Bengaluru - KSPCB",28-05-2024 11:00:00,13.029152,77.585901,SO2,18,28,23
India,Karnataka,Bengaluru,"Hebbal, Bengaluru - KSPCB",28-05-2024 11:00:00,13.029152,77.585901,OZONE,8,56,12
India,Karnataka,Bengaluru,"Hombegowda Nagar, Bengaluru - KSPCB",28-05-2024 11:00:00,12.938539,77.590100,NO2,8,17,12
India,Karnataka,Bengaluru,"Hombegowda Nagar, Bengaluru - KSPCB",28-05-2024 11:00:00,12.938539,77.590100,CO,10,23,15
India,Karnataka,Bengaluru,"Jayanagar 5th Block, Bengaluru - KSPCB",28-05-2024 11:00:00,12.920984,77.584908,OZONE,18,19,18
India,Karnataka,Bengaluru,"Peenya, Bengaluru - CPCB",28-05-2024 11:00:00,13.0270199,77.494094,CO,74,89,77
India,Karnataka,Bengaluru,"RVCE-Mailasandra, Bengaluru - KSPCB",28-05-2024 11:00:00,12.921418,77.502466,SO2,8,10,8
India,Karnataka,Bengaluru,"Sanegurava Halli, Bengaluru - KSPCB",28-05-2024 11:00:00,12.990328,77.5431385,NO2,20,27,22
India,Karnataka,Bengaluru,"Sanegurava Halli, Bengaluru - KSPCB",28-05-2024 11:00:00,12.990328,77.5431385,SO2,2,3,3
India,Karnataka,Bengaluru,"Shivapura_Peenya, Bengaluru - KSPCB",28-05-2024 11:00:00,13.0246342,77.5080115,PM2.5,48,153,88
India,Karnataka,Bengaluru,"Shivapura_Peenya, Bengaluru - KSPCB",28-05-2024 11:00:00,13.0246342,77.5080115,SO2,2,7,4
India,Karnataka,Bengaluru,"Shivapura_Peenya, Bengaluru - KSPCB",28-05-2024 11:00:00,13.0246342,77.5080115,CO,20,32,25
India,Karnataka,Bengaluru,"Silk Board, Bengaluru - KSPCB",28-05-2024 11:00:00,12.917348,77.622813,NO2,NA,NA,NA
India,Karnataka,Bidar,"Naubad, Bidar - KSPCB",28-05-2024 11:00:00,17.930306,77.482194,PM2.5,36,100,57
India,Karnataka,Bidar,"Naubad, Bidar - KSPCB",28-05-2024 11:00:00,17.930306,77.482194,OZONE,15,43,17
India,Karnataka,Chikkaballapur,"Chikkaballapur Rural, Chikkaballapur - KSPCB",28-05-2024 11:00:00,13.428828,77.731418,NO2,5,10,7
India,Karnataka,Chikkamagaluru,"Kalyana Nagara, Chikkamagaluru - KSPCB",28-05-2024 11:00:00,13.328028,75.797056,SO2,2,5,3
India,Karnataka,Davanagere,"Devaraj Urs Badavane, Davanagere - KSPCB",28-05-2024 11:00:00,14.475800,75.905200,PM2.5,26,60,45
India,Karnataka,Davanagere,"Devaraj Urs Badavane, Davanagere - KSPCB",28-05-2024 11:00:00,14.475800,75.905200,SO2,4,7,6
India,Karnataka,Dharwad,"Kalabhavan, Dharwad - KSPCB",28-05-2024 11:00:00,15.459706,75.008381,SO2,1,118,31
India,Karnataka,Gadag,"Panchal Nagar, Gadag - KSPCB",28-05-2024 11:00:00,15.411456,75.638133,NO2,5,23,14
India,Karnataka,Gadag,"Panchal Nagar, Gadag - KSPCB",28-05-2024 11:00:00,15.411456,75.638133,SO2,12,15,13
India,Karnataka,Hassan,"B.Katihalli, Hassan - KSPCB",28-05-2024 11:00:00,13.008556,76.125258,PM10,24,121,62
India,Karnataka,Hassan,"B.Katihalli, Hassan - KSPCB",28-05-2024 11:00:00,13.008556,76.125258,NO2,8,31,15
India,Karnataka,Haveri,"Ashwini Nagar, Haveri - KSPCB",28-05-2024 11:00:00,14.791800,75.389600,NH3,NA,NA,NA
India,Karnataka,Haveri,"Ashwini Nagar, Haveri - KSPCB",28-05-2024 11:00:00,14.791800,75.389600,CO,38,38,38
India,Karnataka,Hubballi,"Lingaraj Nagar, Hubballi - KSPCB",28-05-2024 11:00:00,15.3714823,75.1160168,PM10,48,104,70
India,Karnataka,Hubballi,"Lingaraj Nagar, Hubballi - KSPCB",28-05-2024 11:00:00,15.3714823,75.1160168,NO2,11,16,13
India,Karnataka,Hubballi,"Lingaraj Nagar, Hubballi - KSPCB",28-05-2024 11:00:00,15.3714823,75.1160168,SO2,1,2,1
India,Karnataka,Hubballi,"Lingaraj Nagar, Hubballi - KSPCB",28-05-2024 11:00:00,15.3714823,75.1160168,CO,12,20,10
India,Karnataka,Kalaburagi,"Lal Bahadur Shastri Nagar, Kalaburagi - KSPCB",28-05-2024 11:00:00,17.321993,76.822628,PM2.5,8,163,43
India,Karnataka,Kalaburagi,"Lal Bahadur Shastri Nagar, Kalaburagi - KSPCB",28-05-2024 11:00:00,17.321993,76.822628,OZONE,2,35,4
India,Karnataka,Kalaburagi,"Mahatma Basaveswar Colony, Kalaburgi - KSPCB",28-05-2024 11:00:00,17.336318,76.847397,NH3,3,4,3
India,Karnataka,Kolar,"Tamaka Ind. Area, Kolar - KSPCB",28-05-2024 11:00:00,13.1276288,78.1570122,NH3,NA,NA,NA
India,Karnataka,Kolar,"Tamaka Ind. Area, Kolar - KSPCB",28-05-2024 11:00:00,13.1276288,78.1570122,OZONE,34,34,34
India,Karnataka,Koppal,"Diwator Nagar, Koppal - KSPCB",28-05-2024 11:00:00,15.347630,76.181767,PM2.5,13,27,17
India,Karnataka,Mangalore,"Kadri, Mangalore - KSPCB",28-05-2024 11:00:00,12.889250,74.853000,PM2.5,25,45,34
India,Karnataka,Mangalore,"Kadri, Mangalore - KSPCB",28-05-2024 11:00:00,12.889250,74.853000,PM10,57,99,78
India,Karnataka,Mysuru,"Hebbal 1st Stage, Mysuru - KSPCB",28-05-2024 11:00:00,12.21041,76.37376,NO2,7,35,20
India,Karnataka,Mysuru,"Hebbal 1st Stage, Mysuru - KSPCB",28-05-2024 11:00:00,12.21041,76.37376,OZONE,8,57,17
India,Karnataka,Raichur,"Haji Colony, Raichur - KSPCB",28-05-2024 11:00:00,16.208139,77.348417,NO2,11,32,21
India,Karnataka,Ramanagara,"Vijay Nagar, Ramanagara - KSPCB",28-05-2024 11:00:00,12.733409,77.298051,PM2.5,34,73,45
India,Karnataka,Ramanagara,"Vijay Nagar, Ramanagara - KSPCB",28-05-2024 11:00:00,12.733409,77.298051,CO,12,27,22
India,Karnataka,Shivamogga,"Vinoba Nagara, Shivamogga - KSPCB",28-05-2024 11:00:00,13.940000,75.555917,PM2.5,20,54,32
India,Karnataka,Shivamogga,"Vinoba Nagara, Shivamogga - KSPCB",28-05-2024 11:00:00,13.940000,75.555917,PM10,38,76,53
India,Karnataka,Shivamogga,"Vinoba Nagara, Shivamogga - KSPCB",28-05-2024 11:00:00,13.940000,75.555917,NH3,2,34,15
India,Karnataka,Shivamogga,"Vinoba Nagara, Shivamogga - KSPCB",28-05-2024 11:00:00,13.940000,75.555917,CO,18,58,41
India,Karnataka,Tumakuru,"Thimmalapura, Tumakuru - KSPCB",28-05-2024 11:00:00,13.377516,77.099072,PM10,35,400,140
India,Karnataka,Tumakuru,"Thimmalapura, Tumakuru - KSPCB",28-05-2024 11:00:00,13.377516,77.099072,CO,28,36,32
India,Karnataka,Udupi,"Brahmagiri, Udupi - KSPCB",28-05-2024 11:00:00,13.34194444,74.74694444,NO2,27,28,27
