country,state,city,station,last_update,latitude,longitude,pollutant_id,pollutant_min,pollutant_max,pollutant_avg
India,Andhra_Pradesh,Amaravati,"Secretariat, Amaravati - APPCB",27-03-2024 20:00:00,16.5150833,80.5181667,PM2.5,2,31,18
India,Andhra_Pradesh,Amaravati,"Secretariat, Amaravati - APPCB",27-03-2024 20:00:00,16.5150833,80.5181667,SO2,4,20,16
India,Andhra_Pradesh,Amaravati,"Secretariat, Amaravati - APPCB",27-03-2024 20:00:00,16.5150833,80.5181667,CO,5,114,51
India,Andhra_Pradesh,Anantapur,"Gulzarpet, Anantapur - APPCB",27-03-2024 20:00:00,14.675886,77.593027,OZONE,7,60,52
India,Andhra_Pradesh,Chittoor,"Gangineni Cheruvu, Chittoor - APPCB",27-03-2024 20:00:00,13.204880,79.097889,NH3,1,3,1
India,Andhra_Pradesh,Kadapa,"Yerramukkapalli, Kadapa - APPCB",27-03-2024 20:00:00,14.465052,78.824187,PM2.5,12,61,24
India,Andhra_Pradesh,Kadapa,"Yerramukkapalli, Kadapa - APPCB",27-03-2024 20:00:00,14.465052,78.824187,OZONE,14,67,60
India,Andhra_Pradesh,Vijayawada,"HB Colony, Vijayawada - APPCB",27-03-2024 20:00:00,16.536107,80.594233,PM2.5,47,66,54
India,Andhra_Pradesh,Vijayawada,"HB Colony, Vijayawada - APPCB",27-03-2024 20:00:00,16.536107,80.594233,NO2,5,15,8
India,Andhra_Pradesh,Vijayawada,"HB Colony, Vijayawada - APPCB",27-03-2024 20:00:00,16.536107,80.594233,SO2,3,5,4
India,Andhra_Pradesh,Vijayawada,"Kanuru, Vijayawada - APPCB",27-03-2024 20:00:00,16.486692,80.699436,PM2.5,49,67,60
India,Andhra_Pradesh,Vijayawada,"Kanuru, Vijayawada - APPCB",27-03-2024 20:00:00,16.486692,80.699436,SO2,5,7,6
India,Andhra_Pradesh,Vijayawada,"Rajiv Gandhi Park, Vijayawada - APPCB",27-03-2024 20:00:00,16.509717,80.612222,NH3,4,7,6
India,Andhra_Pradesh,Vijayawada,"Rajiv Nagar, Vijayawada - APPCB",27-03-2024 20:00:00,16.554731,80.649110,PM2.5,44,46,45
India,Andhra_Pradesh,Vijayawada,"Rajiv Nagar, Vijayawada - APPCB",27-03-2024 20:00:00,16.554731,80.649110,PM10,61,64,63
India,Andhra_Pradesh,Visakhapatnam,"GVM Corporation, Visakhapatnam - APPCB",27-03-2024 20:00:00,17.72,83.3,NO2,34,56,42
India,Arunachal_Pradesh,Naharlagun,"Naharlagun, Naharlagun - APSPCB",27-03-2024 20:00:00,27.103358,93.679645,OZONE,2,2,2
India,Assam,Byrnihat,"Central Academy for SFS, Byrnihat - PCBA",27-03-2024 20:00:00,26.071318,91.87488,PM10,22,131,60
India,Assam,Byrnihat,"Central Academy for SFS, Byrnihat - PCBA",27-03-2024 20:00:00,26.071318,91.87488,NO2,41,116,69
India,Assam,Byrnihat,"Central Academy for SFS, Byrnihat - PCBA",27-03-2024 20:00:00,26.071318,91.87488,SO2,6,18,12
India,Assam,Byrnihat,"Central Academy for SFS, Byrnihat - PCBA",27-03-2024 20:00:00,26.071318,91.87488,CO,30,90,51
India,Assam,Guwahati,"LGBI Airport, Guwahati - PCBA",27-03-2024 20:00:00,26.10887,91.589544,SO2,3,12,5
India,Assam,Guwahati,"Railway Colony, Guwahati - PCBA",27-03-2024 20:00:00,26.181742,91.78063,PM2.5,13,88,38
India,Assam,Guwahati,"Railway Colony, Guwahati - PCBA",27-03-2024 20:00:00,26.181742,91.78063,NO2,3,4,3
India,Assam,Guwahati,"Railway Colony, Guwahati - PCBA",27-03-2024 20:00:00,26.181742,91.78063,OZONE,1,51,24
India,Assam,Nagaon,"Christianpatty, Nagaon - PCBA",27-03-2024 20:00:00,26.349082,92.68449,NH3,6,9,7
India,Assam,Nagaon,"Christianpatty, Nagaon - PCBA",27-03-2024 20:00:00,26.349082,92.68449,OZONE,12,61,41
India,Assam,Nalbari,"Bata Chowk, Nalbari - PCBA",27-03-2024 20:00:00,26.446912,91.439057,NO2,4,25,10
India,Assam,Sivasagar,"Girls College, Sivasagar - PCBA",27-03-2024 20:00:00,26.987634,94.636574,PM10,43,64,50
India,Assam,Sivasagar,"Girls College, Sivasagar - PCBA",27-03-2024 20:00:00,26.987634,94.636574,NO2,9,18,12
India,Assam,Sivasagar,"Girls College, Sivasagar - PCBA",27-03-2024 20:00:00,26.987634,94.636574,NH3,1,1,1
India,Bihar,Araria,"Kharahiya Basti, Araria - BSPCB",27-03-2024 20:00:00,26.146529,87.454184,NO2,4,9,7
India,Bihar,Arrah,"New DM Office, Arrah - BSPCB",27-03-2024 20:00:00,25.5626095,84.663264,NO2,2,55,15
India,Bihar,Arrah,"New DM Office, Arrah - BSPCB",27-03-2024 20:00:00,25.5626095,84.663264,NH3,5,8,6
India,Bihar,Aurangabad,"Gurdeo Nagar, Aurangabad - BSPCB",27-03-2024 20:00:00,24.75746,84.366208,PM2.5,NA,NA,NA
India,Bihar,Bettiah,"Kamalnath Nagar, Bettiah - BSPCB",27-03-2024 20:00:00,26.80365,84.51954,PM10,45,205,90
India,Bihar,Bihar Sharif,"D M Colony, Bihar Sharif - BSPCB",27-03-2024 20:00:00,25.204762,85.514960,PM10,36,125,65
India,Bihar,Buxar,"Charitra Van, Buxar - BSPCB (Formerly known as Central Jail)",27-03-2024 20:00:00,25.567520,83.966379,PM10,NA,NA,NA
India,Bihar,Buxar,"Charitra Van, Buxar - BSPCB (Formerly known as Central Jail)",27-03-2024 20:00:00,25.567520,83.966379,OZONE,16,161,107
India,Bihar,Gaya,"Collectorate, Gaya - BSPCB",27-03-2024 20:00:00,24.7955,84.9994,NO2,2,4,3
India,Bihar,Gaya,"Kareemganj, Gaya - BSPCB",27-03-2024 20:00:00,24.792403,84.992416,PM2.5,7,90,34
India,Bihar,Gaya,"Kareemganj, Gaya - BSPCB",27-03-2024 20:00:00,24.792403,84.992416,NO2,30,31,30
India,Bihar,Gaya,"SFTI Kusdihra, Gaya - BSPCB",27-03-2024 20:00:00,24.762518,84.982348,PM10,52,77,63
India,Bihar,Gaya,"SFTI Kusdihra, Gaya - BSPCB",27-03-2024 20:00:00,24.762518,84.982348,OZONE,14,100,77
India,Bihar,Hajipur,"Industrial Area, Hajipur - BSPCB",27-03-2024 20:00:00,25.697189,85.245900,PM2.5,24,76,42
India,Bihar,Katihar,"Mirchaibari, Katihar - BSPCB",27-03-2024 20:00:00,25.560083,87.553265,PM10,45,155,79
India,Bihar,Katihar,"Mirchaibari, Katihar - BSPCB",27-03-2024 20:00:00,25.560083,87.553265,NH3,5,7,6
India,Bihar,Katihar,"Mirchaibari, Katihar - BSPCB",27-03-2024 20:00:00,25.560083,87.553265,SO2,17,22,20
India,Bihar,Katihar,"Mirchaibari, Katihar - BSPCB",27-03-2024 20:00:00,25.560083,87.553265,OZONE,11,14,13
India,Bihar,Manguraha,"Forest Rest House, Manguraha - BSPCB",27-03-2024 20:00:00,27.308328,84.531742,CO,24,78,50
India,Bihar,Motihari,"Gandak Colony, Motihari - BSPCB",27-03-2024 20:00:00,26.63086,84.90051,PM2.5,13,130,36
India,Bihar,Motihari,"Gandak Colony, Motihari - BSPCB",27-03-2024 20:00:00,26.63086,84.90051,NO2,40,63,52
India,Bihar,Motihari,"Gandak Colony, Motihari - BSPCB",27-03-2024 20:00:00,26.63086,84.90051,NH3,7,11,9
India,Bihar,Munger,"Town Hall, Munger - BSPCB",27-03-2024 20:00:00,25.376776,86.471523,PM10,36,111,80
India,Bihar,Munger,"Town Hall, Munger - BSPCB",27-03-2024 20:00:00,25.376776,86.471523,NH3,1,2,2
India,Bihar,Muzaffarpur,"Buddha Colony, Muzaffarpur - BSPCB",27-03-2024 20:00:00,26.11442,85.39813,PM2.5,49,139,75
India,Bihar,Muzaffarpur,"Buddha Colony, Muzaffarpur - BSPCB",27-03-2024 20:00:00,26.11442,85.39813,NH3,14,26,18
India,Bihar,Muzaffarpur,"MIT-Daudpur Kothi, Muzaffarpur - BSPCB",27-03-2024 20:00:00,26.1403345,85.3650192,CO,25,134,112
India,Bihar,Patna,"Govt. High School Shikarpur, Patna - BSPCB",27-03-2024 20:00:00,25.592539,85.227158,CO,34,60,41
India,Bihar,Patna,"IGSC Planetarium Complex, Patna - BSPCB",27-03-2024 20:00:00,25.610369,85.132568,NO2,14,14,14
India,Bihar,Patna,"IGSC Planetarium Complex, Patna - BSPCB",27-03-2024 20:00:00,25.610369,85.132568,OZONE,9,53,33
India,Bihar,Patna,"Rajbansi Nagar, Patna - BSPCB",27-03-2024 20:00:00,25.599486,85.113666,PM10,89,149,109
India,Bihar,Patna,"Rajbansi Nagar, Patna - BSPCB",27-03-2024 20:00:00,25.599486,85.113666,CO,4,102,36
India,Bihar,Patna,"Rajbansi Nagar, Patna - BSPCB",27-03-2024 20:00:00,25.599486,85.113666,OZONE,5,87,63
India,Bihar,Purnia,"Mariam Nagar, Purnia - BSPCB",27-03-2024 20:00:00,25.366336,87.117468,NH3,2,2,2
India,Bihar,Purnia,"Mariam Nagar, Purnia - BSPCB",27-03-2024 20:00:00,25.366336,87.117468,OZONE,3,18,12
India,Bihar,Rajgir,"Dangi Tola, Rajgir - BSPCB",27-03-2024 20:00:00,25.03280,85.41948,NO2,1,1,1
India,Bihar,Rajgir,"Dangi Tola, Rajgir - BSPCB",27-03-2024 20:00:00,25.03280,85.41948,NH3,1,4,1
India,Bihar,Rajgir,"Dangi Tola, Rajgir - BSPCB",27-03-2024 20:00:00,25.03280,85.41948,CO,9,11,10
India,Bihar,Samastipur,"DM Office_Kasipur, Samastipur - BSPCB",27-03-2024 20:00:00,25.859655,85.77944,NO2,28,67,41
India,Bihar,Sasaram,"Dada Peer, Sasaram - BSPCB",27-03-2024 20:00:00,24.952822,84.002396,PM10,28,82,51
India,Bihar,Sasaram,"Dada Peer, Sasaram - BSPCB",27-03-2024 20:00:00,24.952822,84.002396,NO2,7,28,16
India,Bihar,Siwan,"Chitragupta Nagar, Siwan - BSPCB",27-03-2024 20:00:00,26.2271665,84.3570427,SO2,15,35,31
India,Chhattisgarh,Bhilai,"Civic Center, Bhilai - Bhilai Steel Plant",27-03-2024 20:00:00,21.185571,81.343175,NO2,15,18,16
India,Chhattisgarh,Bhilai,"Hathkhoj, Bhilai - CECB",27-03-2024 20:00:00,21.224231,81.408350,NH3,7,8,8
India,Chhattisgarh,Bilaspur,"Mangala, Bilaspur - NTPC",27-03-2024 20:00:00,22.08815,82.13737,PM2.5,42,82,58
India,Chhattisgarh,Bilaspur,"Mangala, Bilaspur - NTPC",27-03-2024 20:00:00,22.08815,82.13737,NO2,16,20,18
India,Chhattisgarh,Chhal,"Nawapara SECL Colony, Chhal - CECB",27-03-2024 20:00:00,22.118125,83.140608,NH3,2,2,2
India,Chhattisgarh,Chhal,"Nawapara SECL Colony, Chhal - CECB",27-03-2024 20:00:00,22.118125,83.140608,CO,30,62,38
India,Chhattisgarh,Korba,"Rampur, Korba - CECB",27-03-2024 20:00:00,22.368195,82.746431,CO,20,28,24
India,Chhattisgarh,Korba,"Urja Nagar, Korba - CECB",27-03-2024 20:00:00,22.348441,82.549611,NO2,22,78,60
India,Chhattisgarh,Korba,"Urja Nagar, Korba - CECB",27-03-2024 20:00:00,22.348441,82.549611,CO,14,54,24
India,Chhattisgarh,Milupara,"Govt. Higher Secondary School, Milupara - CECB",27-03-2024 20:00:00,22.1910172,83.5197009,PM2.5,40,59,50
India,Chhattisgarh,Milupara,"Govt. Higher Secondary School, Milupara - CECB",27-03-2024 20:00:00,22.1910172,83.5197009,SO2,10,60,19
India,Chhattisgarh,Raipur,"AIIMS, Raipur - CECB",27-03-2024 20:00:00,21.258815,81.578979,PM2.5,35,96,57
India,Chhattisgarh,Raipur,"AIIMS, Raipur - CECB",27-03-2024 20:00:00,21.258815,81.578979,CO,26,52,36
India,Chhattisgarh,Raipur,"Krishak Nagar, Raipur - CECB",27-03-2024 20:00:00,21.237755,81.705301,PM2.5,47,59,54
India,Chhattisgarh,Raipur,"Krishak Nagar, Raipur - CECB",27-03-2024 20:00:00,21.237755,81.705301,SO2,10,27,15
India,Chhattisgarh,Raipur,"Krishak Nagar, Raipur - CECB",27-03-2024 20:00:00,21.237755,81.705301,CO,33,44,42
India,Chhattisgarh,Raipur,"Krishak Nagar, Raipur - CECB",27-03-2024 20:00:00,21.237755,81.705301,OZONE,3,28,14
India,Chhattisgarh,Raipur,"Siltara Phase-II, Raipur - CECB",27-03-2024 20:00:00,21.371751,81.664929,PM10,54,173,96
India,Chhattisgarh,Raipur,"Siltara Phase-II, Raipur - CECB",27-03-2024 20:00:00,21.371751,81.664929,NH3,3,3,3
India,Chhattisgarh,Tumidih,"OP Jindal Industrial Park, Tumidih - CECB",27-03-2024 20:00:00,22.06631475,83.33820077,PM2.5,35,138,71
India,Chhattisgarh,Tumidih,"OP Jindal Industrial Park, Tumidih - CECB",27-03-2024 20:00:00,22.06631475,83.33820077,PM10,54,230,103
India,Chhattisgarh,Tumidih,"OP Jindal Industrial Park, Tumidih - CECB",27-03-2024 20:00:00,22.06631475,83.33820077,OZONE,6,106,85
India,Delhi,Delhi,"Alipur, Delhi - DPCC",27-03-2024 20:00:00,28.815329,77.153010,CO,34,73,39
India,Delhi,Delhi,"Alipur, Delhi - DPCC",27-03-2024 20:00:00,28.815329,77.153010,OZONE,4,69,51
India,Delhi,Delhi,"Ashok Vihar, Delhi - DPCC",27-03-2024 20:00:00,28.695381,77.181665,CO,12,76,24
India,Delhi,Delhi,"Aya Nagar, Delhi - IMD",27-03-2024 20:00:00,28.4706914,77.1099364,CO,2,38,16
India,Delhi,Delhi,"Bawana, Delhi - DPCC",27-03-2024 20:00:00,28.776200,77.051074,PM2.5,37,416,202
India,Delhi,Delhi,"Bawana, Delhi - DPCC",27-03-2024 20:00:00,28.776200,77.051074,CO,34,78,46
India,Delhi,Delhi,"Burari Crossing, Delhi - IMD",27-03-2024 20:00:00,28.7256504,77.2011573,OZONE,23,49,42
India,Delhi,Delhi,"Chandni Chowk, Delhi - IITM",27-03-2024 20:00:00,28.656756,77.227234,NO2,NA,NA,NA
India,Delhi,Delhi,"DTU, Delhi - CPCB",27-03-2024 20:00:00,28.7500499,77.1112615,SO2,29,32,29
India,Delhi,Delhi,"Dr. Karni Singh Shooting Range, Delhi - DPCC",27-03-2024 20:00:00,28.498571,77.264840,NO2,30,142,84
India,Delhi,Delhi,"Dr. Karni Singh Shooting Range, Delhi - DPCC",27-03-2024 20:00:00,28.498571,77.264840,SO2,18,34,22
India,Delhi,Delhi,"Dr. Karni Singh Shooting Range, Delhi - DPCC",27-03-2024 20:00:00,28.498571,77.264840,CO,26,101,39
India,Delhi,Delhi,"Dwarka-Sector 8, Delhi - DPCC ",27-03-2024 20:00:00,28.5710274,77.0719006,PM10,116,470,276
India,Delhi,Delhi,"Dwarka-Sector 8, Delhi - DPCC ",27-03-2024 20:00:00,28.5710274,77.0719006,NH3,5,9,7
India,Delhi,Delhi,"IHBAS, Dilshad Garden, Delhi - CPCB",27-03-2024 20:00:00,28.6811736,77.3025234,NH3,2,7,4
India,Delhi,Delhi,"ITO, Delhi - CPCB",27-03-2024 20:00:00,28.628624,77.241060,PM2.5,17,302,189
India,Delhi,Delhi,"Jahangirpuri, Delhi - DPCC",27-03-2024 20:00:00,28.732820,77.170633,PM2.5,35,332,157
India,Delhi,Delhi,"Jahangirpuri, Delhi - DPCC",27-03-2024 20:00:00,28.732820,77.170633,CO,42,104,69
India,Delhi,Delhi,"Jahangirpuri, Delhi - DPCC",27-03-2024 20:00:00,28.732820,77.170633,OZONE,1,38,23
India,Delhi,Delhi,"Jawaharlal Nehru Stadium, Delhi - DPCC",27-03-2024 20:00:00,28.580280,77.233829,NO2,33,147,85
India,Delhi,Delhi,"Lodhi Road, Delhi - IITM",27-03-2024 20:00:00,28.588333,77.221667,NH3,8,13,10
India,Delhi,Delhi,"Major Dhyan Chand National Stadium, Delhi - DPCC",27-03-2024 20:00:00,28.611281,77.237738,SO2,9,16,13
India,Delhi,Delhi,"Mandir Marg, Delhi - DPCC",27-03-2024 20:00:00,28.636429,77.201067,NH3,7,7,7
India,Delhi,Delhi,"Mandir Marg, Delhi - DPCC",27-03-2024 20:00:00,28.636429,77.201067,SO2,5,13,8
India,Delhi,Delhi,"Mundka, Delhi - DPCC",27-03-2024 20:00:00,28.684678,77.076574,NH3,4,7,5
India,Delhi,Delhi,"Mundka, Delhi - DPCC",27-03-2024 20:00:00,28.684678,77.076574,CO,28,78,36
India,Delhi,Delhi,"NSIT Dwarka, Delhi - CPCB",27-03-2024 20:00:00,28.60909,77.0325413,PM10,128,359,232
India,Delhi,Delhi,"NSIT Dwarka, Delhi - CPCB",27-03-2024 20:00:00,28.60909,77.0325413,NH3,9,19,13
India,Delhi,Delhi,"Najafgarh, Delhi - DPCC",27-03-2024 20:00:00,28.570173,76.933762,PM2.5,23,378,132
India,Delhi,Delhi,"Narela, Delhi - DPCC",27-03-2024 20:00:00,28.822836,77.101981,PM10,60,379,170
India,Delhi,Delhi,"Narela, Delhi - DPCC",27-03-2024 20:00:00,28.822836,77.101981,NH3,6,10,8
India,Delhi,Delhi,"Narela, Delhi - DPCC",27-03-2024 20:00:00,28.822836,77.101981,CO,46,92,58
India,Delhi,Delhi,"Narela, Delhi - DPCC",27-03-2024 20:00:00,28.822836,77.101981,OZONE,7,70,51
India,Delhi,Delhi,"Nehru Nagar, Delhi - DPCC",27-03-2024 20:00:00,28.567890,77.250515,NH3,6,15,11
India,Delhi,Delhi,"Nehru Nagar, Delhi - DPCC",27-03-2024 20:00:00,28.567890,77.250515,CO,38,94,63
India,Delhi,Delhi,"New Moti Bagh, Delhi - MHUA",27-03-2024 20:00:00,28.57834,77.18400,CO,15,107,20
India,Delhi,Delhi,"North Campus, DU, Delhi - IMD",27-03-2024 20:00:00,28.6573814,77.1585447,NO2,15,51,28
India,Delhi,Delhi,"Okhla Phase-2, Delhi - DPCC",27-03-2024 20:00:00,28.530785,77.271255,PM2.5,42,222,112
India,Delhi,Delhi,"Okhla Phase-2, Delhi - DPCC",27-03-2024 20:00:00,28.530785,77.271255,OZONE,9,154,91
India,Delhi,Delhi,"Patparganj, Delhi - DPCC",27-03-2024 20:00:00,28.623763,77.287209,NH3,5,11,8
India,Delhi,Delhi,"Punjabi Bagh, Delhi - DPCC",27-03-2024 20:00:00,28.674045,77.131023,PM10,97,198,154
India,Delhi,Delhi,"Pusa, Delhi - DPCC",27-03-2024 20:00:00,28.639652,77.146275,SO2,9,37,21
India,Delhi,Delhi,"Pusa, Delhi - DPCC",27-03-2024 20:00:00,28.639652,77.146275,OZONE,10,86,54
India,Delhi,Delhi,"Pusa, Delhi - IMD",27-03-2024 20:00:00,28.636110,77.173332,PM10,99,215,157
India,Delhi,Delhi,"Pusa, Delhi - IMD",27-03-2024 20:00:00,28.636110,77.173332,OZONE,1,38,30
India,Delhi,Delhi,"R K Puram, Delhi - DPCC",27-03-2024 20:00:00,28.563262,77.186937,PM10,103,202,140
India,Delhi,Delhi,"R K Puram, Delhi - DPCC",27-03-2024 20:00:00,28.563262,77.186937,OZONE,10,177,122
India,Delhi,Delhi,"Rohini, Delhi - DPCC",27-03-2024 20:00:00,28.732528,77.119920,OZONE,3,65,46
India,Delhi,Delhi,"Shadipur, Delhi - CPCB",27-03-2024 20:00:00,28.6514781,77.1473105,NH3,3,12,7
India,Delhi,Delhi,"Shadipur, Delhi - CPCB",27-03-2024 20:00:00,28.6514781,77.1473105,SO2,2,29,17
India,Delhi,Delhi,"Sirifort, Delhi - CPCB",27-03-2024 20:00:00,28.5504249,77.2159377,NO2,NA,NA,NA
India,Delhi,Delhi,"Sonia Vihar, Delhi - DPCC",27-03-2024 20:00:00,28.710508,77.249485,NH3,5,7,6
India,Delhi,Delhi,"Sonia Vihar, Delhi - DPCC",27-03-2024 20:00:00,28.710508,77.249485,CO,50,106,62
India,Delhi,Delhi,"Sri Aurobindo Marg, Delhi - DPCC",27-03-2024 20:00:00,28.531346,77.190156,PM2.5,37,273,103
India,Delhi,Delhi,"Vivek Vihar, Delhi - DPCC",27-03-2024 20:00:00,28.672342,77.315260,SO2,31,85,43
India,Delhi,Delhi,"Wazirpur, Delhi - DPCC",27-03-2024 20:00:00,28.699793,77.165453,NH3,9,10,9
India,Gujarat,Ahmedabad,"Chandkheda, Ahmedabad - IITM",27-03-2024 20:00:00,23.107969,72.574648,OZONE,2,43,40
India,Gujarat,Ahmedabad,"Gyaspur, Ahmedabad - IITM",27-03-2024 20:00:00,22.977134,72.553024,CO,20,66,26
India,Gujarat,Ahmedabad,"Maninagar, Ahmedabad - GPCB",27-03-2024 20:00:00,23.002657,72.591912,SO2,NA,NA,NA
India,Gujarat,Ahmedabad,"Maninagar, Ahmedabad - GPCB",27-03-2024 20:00:00,23.002657,72.591912,OZONE,9,142,83
India,Gujarat,Ahmedabad,"Rakhial, Ahmedabad - IITM",27-03-2024 20:00:00,23.016834,72.625775,SO2,5,21,11
India,Gujarat,Ahmedabad,"SVPI Airport Hansol, Ahmedabad - IITM",27-03-2024 20:00:00,23.076793,72.627874,PM2.5,NA,NA,NA
India,Gujarat,Ahmedabad,"SVPI Airport Hansol, Ahmedabad - IITM",27-03-2024 20:00:00,23.076793,72.627874,NO2,NA,NA,NA
India,Gujarat,Ahmedabad,"SVPI Airport Hansol, Ahmedabad - IITM",27-03-2024 20:00:00,23.076793,72.627874,CO,32,42,35
India,Gujarat,Ahmedabad,"Sardar Vallabhbhai Patel Stadium, Ahmedabad - IITM",27-03-2024 20:00:00,23.043070,72.562968,NO2,7,35,31
India,Gujarat,Ankleshwar,"GIDC, Ankleshwar - GPCB",27-03-2024 20:00:00,21.613267,73.010555,NO2,35,37,36
India,Gujarat,Gandhinagar,"GIFT City, Gandhinagar - IITM",27-03-2024 20:00:00,23.163798,72.677768,PM10,59,138,98
India,Gujarat,Gandhinagar,"GIFT City, Gandhinagar - IITM",27-03-2024 20:00:00,23.163798,72.677768,NO2,15,15,15
India,Gujarat,Gandhinagar,"GIFT City, Gandhinagar - IITM",27-03-2024 20:00:00,23.163798,72.677768,SO2,8,23,12
India,Gujarat,Gandhinagar,"GIFT City, Gandhinagar - IITM",27-03-2024 20:00:00,23.163798,72.677768,CO,6,26,8
India,Gujarat,Gandhinagar,"IIPHG Lekawada, Gandhinagar - IITM",27-03-2024 20:00:00,23.243639,72.68994,PM2.5,62,228,136
India,Gujarat,Gandhinagar,"IIPHG Lekawada, Gandhinagar - IITM",27-03-2024 20:00:00,23.243639,72.68994,NO2,37,50,42
India,Gujarat,Gandhinagar,"IIPHG Lekawada, Gandhinagar - IITM",27-03-2024 20:00:00,23.243639,72.68994,NH3,6,7,7
India,Gujarat,Gandhinagar,"IIPHG Lekawada, Gandhinagar - IITM",27-03-2024 20:00:00,23.243639,72.68994,SO2,3,35,12
India,Gujarat,Gandhinagar,"Sector-10, Gandhinagar - GPCB",27-03-2024 20:00:00,23.221714,72.654328,NH3,1,1,1
India,Gujarat,Nandesari,"GIDC, Nandesari - Nandesari Ind. Association",27-03-2024 20:00:00,22.410802,73.097923,PM2.5,81,409,258
India,Gujarat,Surat,"Science Center, Surat - SMC",27-03-2024 20:00:00,21.170046,72.795405,PM10,26,469,107
India,Gujarat,Surat,"Science Center, Surat - SMC",27-03-2024 20:00:00,21.170046,72.795405,SO2,2,27,7
India,Gujarat,Vapi,"Phase-1 GIDC, Vapi - GPCB",27-03-2024 20:00:00,20.362421,72.918013,NO2,4,7,6
India,Gujarat,Vapi,"Phase-1 GIDC, Vapi - GPCB",27-03-2024 20:00:00,20.362421,72.918013,NH3,2,2,2
India,Gujarat,Vatva,"Phase-4 GIDC, Vatva - GPCB",27-03-2024 20:00:00,22.969611,72.643500,PM2.5,63,235,110
India,Gujarat,Vatva,"Phase-4 GIDC, Vatva - GPCB",27-03-2024 20:00:00,22.969611,72.643500,CO,3,105,10
India,Haryana,Ballabgarh,"Nathu Colony, Ballabgarh - HSPCB",27-03-2024 20:00:00,28.3419248,77.319699,SO2,9,34,20
India,Haryana,Bhiwani,"H.B. Colony, Bhiwani - HSPCB",27-03-2024 20:00:00,28.806223,76.141105,SO2,1,85,15
India,Haryana,Charkhi Dadri,"Mini Secretariat, Charkhi Dadri - HSPCB",27-03-2024 20:00:00,28.593883,76.270653,CO,14,97,21
India,Haryana,Charkhi Dadri,"Mini Secretariat, Charkhi Dadri - HSPCB",27-03-2024 20:00:00,28.593883,76.270653,OZONE,13,17,15
India,Haryana,Dharuhera,"Municipal Corporation Office, Dharuhera -  HSPCB",27-03-2024 20:00:00,28.206800,76.799700,OZONE,43,65,62
India,Haryana,Faridabad,"Sector 11, Faridabad - HSPCB",27-03-2024 20:00:00,28.376058,77.315741,OZONE,4,27,17
India,Haryana,Faridabad,"Sector 30, Faridabad - HSPCB",27-03-2024 20:00:00,28.4417,77.3217,PM10,136,148,143
India,Haryana,Faridabad,"Sector 30, Faridabad - HSPCB",27-03-2024 20:00:00,28.4417,77.3217,NO2,29,33,31
India,Haryana,Faridabad,"Sector 30, Faridabad - HSPCB",27-03-2024 20:00:00,28.4417,77.3217,NH3,9,9,9
India,Haryana,Faridabad,"Sector 30, Faridabad - HSPCB",27-03-2024 20:00:00,28.4417,77.3217,SO2,3,10,5
India,Haryana,Faridabad,"Sector 30, Faridabad - HSPCB",27-03-2024 20:00:00,28.4417,77.3217,CO,16,110,27
India,Haryana,Faridabad,"Sector- 16A, Faridabad - HSPCB",27-03-2024 20:00:00,28.4088421,77.3099081,PM2.5,54,306,142
India,Haryana,Fatehabad,"Huda Sector, Fatehabad - HSPCB",27-03-2024 20:00:00,29.503664,75.467934,PM10,38,85,64
India,Haryana,Fatehabad,"Huda Sector, Fatehabad - HSPCB",27-03-2024 20:00:00,29.503664,75.467934,SO2,10,11,11
India,Haryana,Fatehabad,"Huda Sector, Fatehabad - HSPCB",27-03-2024 20:00:00,29.503664,75.467934,CO,6,15,6
India,Haryana,Gurugram,"Sector-51, Gurugram - HSPCB",27-03-2024 20:00:00,28.4227,77.0667,PM2.5,32,393,193
India,Haryana,Gurugram,"Teri Gram, Gurugram - HSPCB",27-03-2024 20:00:00,28.4275,77.1465,PM2.5,40,277,153
India,Haryana,Gurugram,"Teri Gram, Gurugram - HSPCB",27-03-2024 20:00:00,28.4275,77.1465,PM10,148,351,205
India,Haryana,Gurugram,"Vikas Sadan, Gurugram - HSPCB",27-03-2024 20:00:00,28.4501238,77.0263051,PM2.5,52,500,148
India,Haryana,Hisar,"Urban Estate-II, Hisar - HSPCB",27-03-2024 20:00:00,29.140560,75.744941,NO2,21,25,22
India,Haryana,Hisar,"Urban Estate-II, Hisar - HSPCB",27-03-2024 20:00:00,29.140560,75.744941,SO2,13,64,35
India,Haryana,Jind,"Police Lines, Jind - HSPCB",27-03-2024 20:00:00,29.307814,76.337619,PM2.5,28,82,56
India,Haryana,Jind,"Police Lines, Jind - HSPCB",27-03-2024 20:00:00,29.307814,76.337619,CO,2,129,37
India,Haryana,Jind,"Police Lines, Jind - HSPCB",27-03-2024 20:00:00,29.307814,76.337619,OZONE,14,25,23
India,Haryana,Kaithal,"Rishi Nagar, Kaithal - HSPCB",27-03-2024 20:00:00,29.8006,76.4155,SO2,1,41,18
India,Haryana,Karnal,"Sector-12, Karnal - HSPCB",27-03-2024 20:00:00,29.695300,77.002700,PM2.5,58,75,66
India,Haryana,Karnal,"Sector-12, Karnal - HSPCB",27-03-2024 20:00:00,29.695300,77.002700,CO,22,40,32
India,Haryana,Kurukshetra,"Sector-7, Kurukshetra - HSPCB",27-03-2024 20:00:00,29.966942,76.875879,SO2,3,132,40
India,Haryana,Kurukshetra,"Sector-7, Kurukshetra - HSPCB",27-03-2024 20:00:00,29.966942,76.875879,OZONE,17,83,45
India,Haryana,Mandikhera,"General Hospital, Mandikhera - HSPCB",27-03-2024 20:00:00,27.9002,76.9938,NO2,19,24,22
India,Haryana,Mandikhera,"General Hospital, Mandikhera - HSPCB",27-03-2024 20:00:00,27.9002,76.9938,SO2,29,36,33
India,Haryana,Manesar,"Sector-2 IMT, Manesar - HSPCB",27-03-2024 20:00:00,28.360699,76.936090,OZONE,1,43,35
India,Haryana,Narnaul,"Shastri Nagar, Narnaul - HSPCB",27-03-2024 20:00:00,28.060249,76.113115,CO,8,34,9
India,Haryana,Palwal,"Shyam Nagar, Palwal - HSPCB",27-03-2024 20:00:00,28.1485564,77.3320667,NO2,23,24,24
India,Haryana,Panipat,"Sector-18, Panipat - HSPCB",27-03-2024 20:00:00,29.497973,76.993331,SO2,18,19,19
India,Haryana,Panipat,"Sector-18, Panipat - HSPCB",27-03-2024 20:00:00,29.497973,76.993331,OZONE,30,30,30
India,Haryana,Rohtak,"MD University, Rohtak - HSPCB",27-03-2024 20:00:00,28.52123,76.37138,PM2.5,1,35,11
India,Haryana,Sirsa,"F-Block, Sirsa - HSPCB",27-03-2024 20:00:00,29.536400,75.015800,PM2.5,32,110,65
India,Haryana,Sirsa,"F-Block, Sirsa - HSPCB",27-03-2024 20:00:00,29.536400,75.015800,NO2,10,18,11
India,Haryana,Sonipat,"Murthal, Sonipat - HSPCB",27-03-2024 20:00:00,29.027200,77.062100,OZONE,17,35,33
India,Haryana,Yamuna Nagar,"Gobind Pura, Yamuna Nagar - HSPCB",27-03-2024 20:00:00,30.1480566,77.2893471,PM2.5,NA,NA,NA
India,Himachal Pradesh,Baddi,"HIMUDA Complex Phase-1, Baddi - HPPCB",27-03-2024 20:00:00,30.943887,76.801991,NO2,10,45,25
India,Himachal Pradesh,Baddi,"HIMUDA Complex Phase-1, Baddi - HPPCB",27-03-2024 20:00:00,30.943887,76.801991,SO2,13,68,35
India,Jharkhand,Dhanbad,"Kalakusuma, Dhanbad - DMC",27-03-2024 20:00:00,23.811548,86.481238,NO2,13,34,15
India,Jharkhand,Dhanbad,"Kalakusuma, Dhanbad - DMC",27-03-2024 20:00:00,23.811548,86.481238,SO2,13,35,18
India,Jharkhand,Dhanbad,"Kalakusuma, Dhanbad - DMC",27-03-2024 20:00:00,23.811548,86.481238,OZONE,23,88,55
India,Jharkhand,Dhanbad,"Sardar Patel Nagar, Dhanbad - JSPCB",27-03-2024 20:00:00,23.80569,86.44268,PM2.5,NA,NA,NA
India,Jharkhand,Dhanbad,"Sardar Patel Nagar, Dhanbad - JSPCB",27-03-2024 20:00:00,23.80569,86.44268,SO2,NA,NA,NA
India,Karnataka,Bagalkot,"Vidayagiri, Bagalkot - KSPCB",27-03-2024 20:00:00,16.172806,75.659694,PM2.5,20,37,36
India,Karnataka,Bengaluru,"BTM Layout, Bengaluru - CPCB",27-03-2024 20:00:00,12.9135218,77.5950804,SO2,9,9,9
India,Karnataka,Bengaluru,"Bapuji Nagar, Bengaluru - KSPCB",27-03-2024 20:00:00,12.951913,77.539784,NH3,1,1,1
India,Karnataka,Bengaluru,"Hebbal, Bengaluru - KSPCB",27-03-2024 20:00:00,13.029152,77.585901,PM2.5,NA,NA,NA
India,Karnataka,Bengaluru,"Jayanagar 5th Block, Bengaluru - KSPCB",27-03-2024 20:00:00,12.920984,77.584908,PM2.5,39,93,66
India,Karnataka,Bengaluru,"Jigani, Bengaluru - KSPCB",27-03-2024 20:00:00,12.7816279,77.6299145,NO2,31,32,32
India,Karnataka,Bengaluru,"Kasturi Nagar, Bengaluru - KSPCB",27-03-2024 20:00:00,13.003872,77.664217,PM2.5,77,130,100
India,Karnataka,Bengaluru,"Kasturi Nagar, Bengaluru - KSPCB",27-03-2024 20:00:00,13.003872,77.664217,NH3,3,4,4
India,Karnataka,Bengaluru,"Peenya, Bengaluru - CPCB",27-03-2024 20:00:00,13.0270199,77.494094,PM2.5,29,62,44
India,Karnataka,Bengaluru,"Peenya, Bengaluru - CPCB",27-03-2024 20:00:00,13.0270199,77.494094,NH3,2,4,3
India,Karnataka,Bengaluru,"Peenya, Bengaluru - CPCB",27-03-2024 20:00:00,13.0270199,77.494094,OZONE,22,97,75
India,Karnataka,Bengaluru,"RVCE-Mailasandra, Bengaluru - KSPCB",27-03-2024 20:00:00,12.921418,77.502466,PM10,67,186,93
India,Karnataka,Bengaluru,"RVCE-Mailasandra, Bengaluru - KSPCB",27-03-2024 20:00:00,12.921418,77.502466,SO2,8,19,10
India,Karnataka,Bengaluru,"Sanegurava Halli, Bengaluru - KSPCB",27-03-2024 20:00:00,12.990328,77.5431385,CO,6,42,16
India,Karnataka,Bengaluru,"Shivapura_Peenya, Bengaluru - KSPCB",27-03-2024 20:00:00,13.0246342,77.5080115,PM2.5,21,106,62
India,Karnataka,Bengaluru,"Shivapura_Peenya, Bengaluru - KSPCB",27-03-2024 20:00:00,13.0246342,77.5080115,SO2,2,26,11
India,Karnataka,Bengaluru,"Silk Board, Bengaluru - KSPCB",27-03-2024 20:00:00,12.917348,77.622813,NH3,6,8,7
India,Karnataka,Bidar,"Naubad, Bidar - KSPCB",27-03-2024 20:00:00,17.930306,77.482194,OZONE,15,49,44
India,Karnataka,Chikkaballapur,"Chikkaballapur Rural, Chikkaballapur - KSPCB",27-03-2024 20:00:00,13.428828,77.731418,PM10,51,118,68
India,Karnataka,Chikkaballapur,"Chikkaballapur Rural, Chikkaballapur - KSPCB",27-03-2024 20:00:00,13.428828,77.731418,CO,12,20,15
India,Karnataka,Davanagere,"Devaraj Urs Badavane, Davanagere - KSPCB",27-03-2024 20:00:00,14.475800,75.905200,NH3,NA,NA,NA
India,Karnataka,Davanagere,"Devaraj Urs Badavane, Davanagere - KSPCB",27-03-2024 20:00:00,14.475800,75.905200,CO,18,24,18
India,Karnataka,Davanagere,"Devaraj Urs Badavane, Davanagere - KSPCB",27-03-2024 20:00:00,14.475800,75.905200,OZONE,21,29,27
India,Karnataka,Hassan,"B.Katihalli, Hassan - KSPCB",27-03-2024 20:00:00,13.008556,76.125258,NO2,9,43,22
India,Karnataka,Haveri,"Ashwini Nagar, Haveri - KSPCB",27-03-2024 20:00:00,14.791800,75.389600,NH3,3,3,3
India,Karnataka,Hubballi,"Deshpande Nagar, Hubballi - KSPCB",27-03-2024 20:00:00,15.351773,75.140726,NH3,NA,NA,NA
India,Karnataka,Kalaburagi,"Lal Bahadur Shastri Nagar, Kalaburagi - KSPCB",27-03-2024 20:00:00,17.321993,76.822628,CO,42,47,43
India,Karnataka,Kalaburagi,"Mahatma Basaveswar Colony, Kalaburgi - KSPCB",27-03-2024 20:00:00,17.336318,76.847397,PM10,20,89,49
India,Karnataka,Kalaburagi,"Mahatma Basaveswar Colony, Kalaburgi - KSPCB",27-03-2024 20:00:00,17.336318,76.847397,SO2,6,30,11
India,Karnataka,Karwar,"KHB Colony, Karwar - KSPCB",27-03-2024 20:00:00,14.816666,74.141003,NH3,1,41,9
India,Karnataka,Karwar,"KHB Colony, Karwar - KSPCB",27-03-2024 20:00:00,14.816666,74.141003,OZONE,20,22,21
India,Karnataka,Kolar,"Tamaka Ind. Area, Kolar - KSPCB",27-03-2024 20:00:00,13.1276288,78.1570122,PM10,17,67,56
India,Karnataka,Kolar,"Tamaka Ind. Area, Kolar - KSPCB",27-03-2024 20:00:00,13.1276288,78.1570122,NO2,7,10,9
India,Karnataka,Kolar,"Tamaka Ind. Area, Kolar - KSPCB",27-03-2024 20:00:00,13.1276288,78.1570122,SO2,13,21,17
India,Karnataka,Koppal,"Diwator Nagar, Koppal - KSPCB",27-03-2024 20:00:00,15.347630,76.181767,NO2,NA,NA,NA
India,Karnataka,Madikeri,"Stuart Hill, Madikeri - KSPCB",27-03-2024 20:00:00,12.415911,75.735050,SO2,4,4,4
India,Karnataka,Madikeri,"Stuart Hill, Madikeri - KSPCB",27-03-2024 20:00:00,12.415911,75.735050,CO,3,62,27
India,Karnataka,Mangalore,"Kadri, Mangalore - KSPCB",27-03-2024 20:00:00,12.889250,74.853000,PM2.5,32,90,49
India,Karnataka,Mangalore,"Kadri, Mangalore - KSPCB",27-03-2024 20:00:00,12.889250,74.853000,PM10,37,63,50
India,Karnataka,Mangalore,"Kadri, Mangalore - KSPCB",27-03-2024 20:00:00,12.889250,74.853000,SO2,20,23,22
India,Karnataka,Raichur,"Haji Colony, Raichur - KSPCB",27-03-2024 20:00:00,16.208139,77.348417,NO2,17,48,33
India,Karnataka,Raichur,"Haji Colony, Raichur - KSPCB",27-03-2024 20:00:00,16.208139,77.348417,SO2,67,86,75
India,Karnataka,Ramanagara,"Vijay Nagar, Ramanagara - KSPCB",27-03-2024 20:00:00,12.733409,77.298051,PM2.5,21,41,29
India,Karnataka,Ramanagara,"Vijay Nagar, Ramanagara - KSPCB",27-03-2024 20:00:00,12.733409,77.298051,NO2,2,12,5
India,Karnataka,Udupi,"Brahmagiri, Udupi - KSPCB",27-03-2024 20:00:00,13.34194444,74.74694444,SO2,12,18,15
India,Karnataka,Udupi,"Brahmagiri, Udupi - KSPCB",27-03-2024 20:00:00,13.34194444,74.74694444,OZONE,23,24,23
India,Karnataka,Yadgir,"Collector Office, Yadgir - KSPCB",27-03-2024 20:00:00,16.7602,77.1428,OZONE,18,20,19
India,Kerala,Eloor,"Udyogamandal, Eloor - Kerala PCB",27-03-2024 20:00:00,10.073232,76.302765,NO2,4,4,4
India,Kerala,Eloor,"Udyogamandal, Eloor - Kerala PCB",27-03-2024 20:00:00,10.073232,76.302765,NH3,1,1,1
India,Kerala,Kannur,"Thavakkara, Kannur - Kerala PCB",27-03-2024 20:00:00,11.875000,75.373200,CO,30,36,34
India,Kerala,Thiruvananthapuram,"Kariavattom, Thiruvananthapuram - Kerala PCB",27-03-2024 20:00:00,8.563700,76.886500,OZONE,27,33,30
India,Kerala,Thrissur,"Corporation Ground, Thrissur - Kerala PCB",27-03-2024 20:00:00,10.532400,76.215900,PM10,61,70,65
India,Kerala,Thrissur,"Corporation Ground, Thrissur - Kerala PCB",27-03-2024 20:00:00,10.532400,76.215900,OZONE,28,32,30
India,Madhya Pradesh,Bhopal,"Idgah Hills, Bhopal - MPPCB",27-03-2024 20:00:00,23.264759,77.381568,OZONE,33,116,96
India,Madhya Pradesh,Bhopal,"Paryavaran Parisar, Bhopal - MPPCB",27-03-2024 20:00:00,23.210494,77.425409,PM2.5,25,190,71
India,Madhya Pradesh,Bhopal,"Paryavaran Parisar, Bhopal - MPPCB",27-03-2024 20:00:00,23.210494,77.425409,SO2,2,19,8
India,Madhya Pradesh,Bhopal,"T T Nagar, Bhopal - MPPCB",27-03-2024 20:00:00,23.233584,77.400574,NH3,1,6,5
India,Madhya Pradesh,Bhopal,"T T Nagar, Bhopal - MPPCB",27-03-2024 20:00:00,23.233584,77.400574,CO,9,122,51
India,Madhya Pradesh,Dewas,"Bhopal Chauraha, Dewas - MPPCB",27-03-2024 20:00:00,22.9682591,76.064118,PM10,92,174,115
India,Madhya Pradesh,Gwalior,"City Center, Gwalior - MPPCB",27-03-2024 20:00:00,26.203442,78.193251,PM2.5,29,147,79
India,Madhya Pradesh,Gwalior,"City Center, Gwalior - MPPCB",27-03-2024 20:00:00,26.203442,78.193251,PM10,76,246,114
India,Madhya Pradesh,Gwalior,"Deen Dayal Nagar, Gwalior - MPPCB",27-03-2024 20:00:00,26.259242,78.216432,PM2.5,32,224,102
India,Madhya Pradesh,Gwalior,"Maharaj Bada, Gwalior - MPPCB",27-03-2024 20:00:00,26.200388,78.147714,CO,42,136,81
India,Madhya Pradesh,Indore,"Chhoti Gwaltoli, Indore - MPPCB",27-03-2024 20:00:00,22.4310,75.5213,NO2,39,211,95
India,Madhya Pradesh,Indore,"Chhoti Gwaltoli, Indore - MPPCB",27-03-2024 20:00:00,22.4310,75.5213,NH3,5,9,7
India,Madhya Pradesh,Jabalpur,"Govindh Bhavan Colony, Jabalpur - JMC",27-03-2024 20:00:00,23.163174,79.973061,PM2.5,25,78,46
India,Madhya Pradesh,Jabalpur,"Govindh Bhavan Colony, Jabalpur - JMC",27-03-2024 20:00:00,23.163174,79.973061,OZONE,16,98,80
India,Madhya Pradesh,Jabalpur,"Gupteshwar, Jabalpur - JMC",27-03-2024 20:00:00,23.142888,79.916147,PM10,45,164,81
India,Madhya Pradesh,Jabalpur,"Marhatal, Jabalpur - MPPCB",27-03-2024 20:00:00,23.168606,79.932247,CO,28,126,77
India,Madhya Pradesh,Jabalpur,"Suhagi, Jabalpur - JMC",27-03-2024 20:00:00,23.218135,79.957770,CO,36,128,65
India,Madhya Pradesh,Katni,"Gole Bazar, Katni - MPPCB",27-03-2024 20:00:00,23.50016,80.23284,PM2.5,23,88,54
India,Madhya Pradesh,Pithampur,"Sector-2 Industrial Area, Pithampur - MPPCB",27-03-2024 20:00:00,22.624758,75.675238,PM10,87,181,127
India,Madhya Pradesh,Sagar,"Deen Dayal Nagar, Sagar - MPPCB",27-03-2024 20:00:00,23.8640158,78.80289321,PM10,24,58,40
India,Madhya Pradesh,Satna,"Bandhavgar Colony, Satna - Birla Cement",27-03-2024 20:00:00,24.58434363,80.8549414,PM2.5,3,33,17
India,Madhya Pradesh,Satna,"Bandhavgar Colony, Satna - Birla Cement",27-03-2024 20:00:00,24.58434363,80.8549414,OZONE,57,87,67
India,Madhya Pradesh,Singrauli,"Suryakiran Bhawan NCL, Singrauli - MPPCB",27-03-2024 20:00:00,24.108970,82.645580,NO2,9,62,30
India,Madhya Pradesh,Singrauli,"Suryakiran Bhawan NCL, Singrauli - MPPCB",27-03-2024 20:00:00,24.108970,82.645580,NH3,3,4,4
India,Madhya Pradesh,Ujjain,"Mahakaleshwar Temple, Ujjain - MPPCB",27-03-2024 20:00:00,23.182719 ,75.768218 ,OZONE,121,144,134
India,Maharashtra,Amravati,"Shivneri Colony, Amravati - MPCB",27-03-2024 20:00:00,20.9402359,77.7895248,NH3,1,3,2
India,Maharashtra,Amravati,"Shivneri Colony, Amravati - MPCB",27-03-2024 20:00:00,20.9402359,77.7895248,SO2,22,23,23
India,Maharashtra,Aurangabad,"MIDC Chilkalthana, Aurangabad - MPCB",27-03-2024 20:00:00,19.875620,75.387310,PM10,104,193,129
India,Maharashtra,Aurangabad,"MIDC Chilkalthana, Aurangabad - MPCB",27-03-2024 20:00:00,19.875620,75.387310,CO,109,123,112
India,Maharashtra,Aurangabad,"Rachnakar Colony, Aurangabad - MPCB",27-03-2024 20:00:00,19.863756,75.321188,NH3,1,2,1
India,Maharashtra,Aurangabad,"Rachnakar Colony, Aurangabad - MPCB",27-03-2024 20:00:00,19.863756,75.321188,OZONE,21,124,93
India,Maharashtra,Badlapur,"Katrap, Badlapur - MPCB",27-03-2024 20:00:00,19.16485,73.23409,CO,16,78,23
India,Maharashtra,Badlapur,"Katrap, Badlapur - MPCB",27-03-2024 20:00:00,19.16485,73.23409,OZONE,3,170,110
India,Maharashtra,Belapur,"CBD Belapur, Belapur - MPCB",27-03-2024 20:00:00,19.0243902,73.0406721,PM10,68,141,95
India,Maharashtra,Belapur,"CBD Belapur, Belapur - MPCB",27-03-2024 20:00:00,19.0243902,73.0406721,NO2,16,43,25
India,Maharashtra,Boisar,"Khaira, Boisar - MPCB",27-03-2024 20:00:00,19.786089,72.757971,PM2.5,30,307,122
India,Maharashtra,Boisar,"Khaira, Boisar - MPCB",27-03-2024 20:00:00,19.786089,72.757971,NH3,1,34,5
India,Maharashtra,Boisar,"Khaira, Boisar - MPCB",27-03-2024 20:00:00,19.786089,72.757971,SO2,2,87,15
India,Maharashtra,Dhule,"Deopur, Dhule - MPCB",27-03-2024 20:00:00,20.918946,74.776388,CO,20,67,31
India,Maharashtra,Jalgaon,"Prabhat Colony, Jalgaon - MPCB",27-03-2024 20:00:00,21.001264,75.565602,SO2,6,42,16
India,Maharashtra,Kolhapur,"Sinchan Bhavan, Kolhapur - MPCB",27-03-2024 20:00:00,16.7143745,74.2426398,NO2,12,56,26
India,Maharashtra,Latur,"Sawe Wadi, Latur - MPCB",27-03-2024 20:00:00,18.39963,76.57452,PM2.5,80,207,118
India,Maharashtra,Latur,"Sawe Wadi, Latur - MPCB",27-03-2024 20:00:00,18.39963,76.57452,PM10,76,156,108
India,Maharashtra,Malegaon,"Mahesh Nagar, Malegaon - MPCB",27-03-2024 20:00:00,20.555712,74.529236,CO,16,114,38
India,Maharashtra,Mumbai,"Bandra Kurla Complex, Mumbai - MPCB",27-03-2024 20:00:00,19.065931,72.862131,PM2.5,42,73,63
India,Maharashtra,Mumbai,"Bandra Kurla Complex, Mumbai - MPCB",27-03-2024 20:00:00,19.065931,72.862131,OZONE,8,51,47
India,Maharashtra,Mumbai,"Byculla, Mumbai - BMC",27-03-2024 20:00:00,18.9767,72.8380,OZONE,1,50,39
India,Maharashtra,Mumbai,"Chakala-Andheri East, Mumbai - IITM",27-03-2024 20:00:00,19.11074,72.86084,NO2,66,133,94
India,Maharashtra,Mumbai,"Colaba, Mumbai - MPCB",27-03-2024 20:00:00,18.910000,72.820000,PM2.5,11,53,23
India,Maharashtra,Mumbai,"Colaba, Mumbai - MPCB",27-03-2024 20:00:00,18.910000,72.820000,NH3,1,1,1
India,Maharashtra,Mumbai,"Colaba, Mumbai - MPCB",27-03-2024 20:00:00,18.910000,72.820000,OZONE,6,12,11
India,Maharashtra,Mumbai,"Ghatkopar, Mumbai - BMC",27-03-2024 20:00:00,19.083694,72.920967,PM10,49,89,68
India,Maharashtra,Mumbai,"Kandivali East, Mumbai - MPCB",27-03-2024 20:00:00,19.205800,72.868200,CO,41,108,43
India,Maharashtra,Mumbai,"Kandivali West, Mumbai - BMC",27-03-2024 20:00:00,19.215859,72.831718,PM2.5,6,58,38
India,Maharashtra,Mumbai,"Kherwadi_Bandra East, Mumbai - MPCB",27-03-2024 20:00:00,19.0632143,72.8456324,SO2,2,4,3
India,Maharashtra,Mumbai,"Khindipada-Bhandup West, Mumbai - IITM",27-03-2024 20:00:00,19.1653323,72.922099,PM10,47,107,74
India,Maharashtra,Mumbai,"Khindipada-Bhandup West, Mumbai - IITM",27-03-2024 20:00:00,19.1653323,72.922099,NO2,18,44,34
India,Maharashtra,Mumbai,"Khindipada-Bhandup West, Mumbai - IITM",27-03-2024 20:00:00,19.1653323,72.922099,NH3,3,6,5
India,Maharashtra,Mumbai,"Kurla, Mumbai - MPCB",27-03-2024 20:00:00,19.0863,72.8888,SO2,32,32,32
India,Maharashtra,Mumbai,"Mazgaon, Mumbai - IITM",27-03-2024 20:00:00,18.96702,72.84214,PM2.5,44,330,110
India,Maharashtra,Mumbai,"Mazgaon, Mumbai - IITM",27-03-2024 20:00:00,18.96702,72.84214,CO,6,114,11
India,Maharashtra,Mumbai,"Mazgaon, Mumbai - IITM",27-03-2024 20:00:00,18.96702,72.84214,OZONE,2,41,27
India,Maharashtra,Mumbai,"Mindspace-Malad West, Mumbai - MPCB",27-03-2024 20:00:00,19.1878657,72.8304069,PM2.5,34,78,53
India,Maharashtra,Mumbai,"Mindspace-Malad West, Mumbai - MPCB",27-03-2024 20:00:00,19.1878657,72.8304069,CO,10,45,12
India,Maharashtra,Mumbai,"Mulund West, Mumbai - MPCB",27-03-2024 20:00:00,19.1750,72.9419,PM2.5,18,57,31
India,Maharashtra,Mumbai,"Mulund West, Mumbai - MPCB",27-03-2024 20:00:00,19.1750,72.9419,CO,35,36,36
India,Maharashtra,Mumbai,"Navy Nagar-Colaba, Mumbai - IITM",27-03-2024 20:00:00,18.897756,72.813320,NO2,12,52,25
India,Maharashtra,Mumbai,"Navy Nagar-Colaba, Mumbai - IITM",27-03-2024 20:00:00,18.897756,72.813320,CO,16,40,31
India,Maharashtra,Mumbai,"Navy Nagar-Colaba, Mumbai - IITM",27-03-2024 20:00:00,18.897756,72.813320,OZONE,29,88,55
India,Maharashtra,Mumbai,"Powai, Mumbai - MPCB",27-03-2024 20:00:00,19.137500,72.915056,SO2,32,42,36
India,Maharashtra,Mumbai,"Shivaji Nagar, Mumbai - BMC",27-03-2024 20:00:00,19.060498,72.923356,NH3,6,12,9
India,Maharashtra,Mumbai,"Shivaji Nagar, Mumbai - BMC",27-03-2024 20:00:00,19.060498,72.923356,CO,8,86,45
India,Maharashtra,Mumbai,"Shivaji Nagar, Mumbai - BMC",27-03-2024 20:00:00,19.060498,72.923356,OZONE,1,30,20
India,Maharashtra,Mumbai,"Vasai West, Mumbai - MPCB",27-03-2024 20:00:00,19.383200,72.820400,PM2.5,15,64,37
India,Maharashtra,Mumbai,"Vasai West, Mumbai - MPCB",27-03-2024 20:00:00,19.383200,72.820400,PM10,40,106,74
India,Maharashtra,Mumbai,"Vasai West, Mumbai - MPCB",27-03-2024 20:00:00,19.383200,72.820400,NO2,26,28,27
India,Maharashtra,Mumbai,"Vasai West, Mumbai - MPCB",27-03-2024 20:00:00,19.383200,72.820400,OZONE,10,27,22
India,Maharashtra,Mumbai,"Vile Parle West, Mumbai - MPCB",27-03-2024 20:00:00,19.10861,72.83622,PM10,56,123,78
India,Maharashtra,Mumbai,"Vile Parle West, Mumbai - MPCB",27-03-2024 20:00:00,19.10861,72.83622,OZONE,2,23,3
India,Maharashtra,Mumbai,"Worli, Mumbai - MPCB",27-03-2024 20:00:00,18.9936162,72.8128113,PM2.5,6,13,9
India,Maharashtra,Mumbai,"Worli, Mumbai - MPCB",27-03-2024 20:00:00,18.9936162,72.8128113,NO2,14,15,14
India,Maharashtra,Nagpur,"Mahal, Nagpur - MPCB",27-03-2024 20:00:00,21.14472,79.107595,NH3,NA,NA,NA
India,Maharashtra,Nagpur,"Mahal, Nagpur - MPCB",27-03-2024 20:00:00,21.14472,79.107595,CO,36,46,46
India,Maharashtra,Nagpur,"Opp GPO Civil Lines, Nagpur - MPCB",27-03-2024 20:00:00,21.152875,79.0517531,NH3,5,17,8
India,Maharashtra,Nagpur,"Ram Nagar, Nagpur - MPCB",27-03-2024 20:00:00,21.143383,79.048912,NO2,4,145,37
India,Maharashtra,Nagpur,"Ram Nagar, Nagpur - MPCB",27-03-2024 20:00:00,21.143383,79.048912,CO,4,115,23
India,Maharashtra,Nanded,"Sneh Nagar, Nanded - MPCB",27-03-2024 20:00:00,19.173852,77.296291,OZONE,28,139,114
India,Maharashtra,Nashik,"Hirawadi, Nashik - MPCB",27-03-2024 20:00:00,20.021503,73.813844,PM2.5,39,86,64
India,Maharashtra,Nashik,"Hirawadi, Nashik - MPCB",27-03-2024 20:00:00,20.021503,73.813844,OZONE,44,97,86
India,Maharashtra,Nashik,"MIDC Ambad, Nashik - MPCB",27-03-2024 20:00:00,19.950220,73.731480,PM10,70,92,80
India,Maharashtra,Nashik,"MIDC Ambad, Nashik - MPCB",27-03-2024 20:00:00,19.950220,73.731480,OZONE,9,75,53
India,Maharashtra,Nashik,"Pandav Nagari, Nashik - MPCB",27-03-2024 20:00:00,19.9591346,73.7788008,PM10,75,109,88
India,Maharashtra,Nashik,"Pandav Nagari, Nashik - MPCB",27-03-2024 20:00:00,19.9591346,73.7788008,OZONE,19,75,60
India,Maharashtra,Navi Mumbai,"Kopripada-Vashi, Navi Mumbai - MPCB",27-03-2024 20:00:00,19.090337,73.014232,NO2,30,76,54
India,Maharashtra,Navi Mumbai,"Kopripada-Vashi, Navi Mumbai - MPCB",27-03-2024 20:00:00,19.090337,73.014232,NH3,6,17,9
India,Maharashtra,Navi Mumbai,"Mahape, Navi Mumbai - MPCB",27-03-2024 20:00:00,19.1135051,73.008978,PM10,86,212,117
India,Maharashtra,Navi Mumbai,"Mahape, Navi Mumbai - MPCB",27-03-2024 20:00:00,19.1135051,73.008978,NH3,3,4,3
India,Maharashtra,Navi Mumbai,"Mahape, Navi Mumbai - MPCB",27-03-2024 20:00:00,19.1135051,73.008978,SO2,26,27,27
India,Maharashtra,Navi Mumbai,"Mahape, Navi Mumbai - MPCB",27-03-2024 20:00:00,19.1135051,73.008978,OZONE,15,45,37
India,Maharashtra,Navi Mumbai,"Nerul, Navi Mumbai - MPCB",27-03-2024 20:00:00,19.008751,73.016620,PM2.5,37,115,68
India,Maharashtra,Navi Mumbai,"Nerul, Navi Mumbai - MPCB",27-03-2024 20:00:00,19.008751,73.016620,NH3,2,3,3
India,Maharashtra,Navi Mumbai,"Sanpada, Navi Mumbai - MPCB",27-03-2024 20:00:00,19.0575752,73.0151367,PM2.5,32,82,55
India,Maharashtra,Navi Mumbai,"Sanpada, Navi Mumbai - MPCB",27-03-2024 20:00:00,19.0575752,73.0151367,NH3,9,29,14
India,Maharashtra,Navi Mumbai,"Sanpada, Navi Mumbai - MPCB",27-03-2024 20:00:00,19.0575752,73.0151367,OZONE,3,126,48
India,Maharashtra,Navi Mumbai,"Sector-19A Nerul, Navi Mumbai - IITM",27-03-2024 20:00:00,19.044,73.0325,PM10,69,126,94
India,Maharashtra,Navi Mumbai,"Sector-19A Nerul, Navi Mumbai - IITM",27-03-2024 20:00:00,19.044,73.0325,CO,34,89,47
India,Maharashtra,Navi Mumbai,"Sector-2E Kalamboli, Navi Mumbai - MPCB",27-03-2024 20:00:00,19.02579,73.10297,PM2.5,29,54,39
India,Maharashtra,Navi Mumbai,"Sector-2E Kalamboli, Navi Mumbai - MPCB",27-03-2024 20:00:00,19.02579,73.10297,PM10,56,83,73
India,Maharashtra,Navi Mumbai,"Sector-2E Kalamboli, Navi Mumbai - MPCB",27-03-2024 20:00:00,19.02579,73.10297,NO2,30,59,45
India,Maharashtra,Pimpri-Chinchwad,"Gavalinagar, Pimpri Chinchwad - MPCB",27-03-2024 20:00:00,18.63673,73.82487,NO2,17,86,42
India,Maharashtra,Pimpri-Chinchwad,"Park Street Wakad, Pimpri Chinchwad - MPCB",27-03-2024 20:00:00,18.59051,73.77946,CO,22,66,27
India,Maharashtra,Pimpri-Chinchwad,"Thergaon, Pimpri Chinchwad - MPCB",27-03-2024 20:00:00,18.616318,73.765797,NH3,3,11,6
India,Maharashtra,Pimpri-Chinchwad,"Thergaon, Pimpri Chinchwad - MPCB",27-03-2024 20:00:00,18.616318,73.765797,CO,20,70,31
India,Maharashtra,Pimpri-Chinchwad,"Thergaon, Pimpri Chinchwad - MPCB",27-03-2024 20:00:00,18.616318,73.765797,OZONE,13,242,171
India,Maharashtra,Pune,"Karve Road, Pune - MPCB",27-03-2024 20:00:00,18.5011743,73.8165527,PM2.5,67,71,71
India,Maharashtra,Pune,"Katraj Dairy, Pune - MPCB",27-03-2024 20:00:00,18.454450,73.854155,PM10,62,104,82
India,Maharashtra,Pune,"Katraj Dairy, Pune - MPCB",27-03-2024 20:00:00,18.454450,73.854155,NH3,2,5,3
India,Maharashtra,Pune,"Katraj Dairy, Pune - MPCB",27-03-2024 20:00:00,18.454450,73.854155,CO,30,82,51
India,Maharashtra,Pune,"Mhada Colony, Pune - IITM",27-03-2024 20:00:00,18.573040,73.927715,OZONE,19,32,28
India,Maharashtra,Pune,"Savitribai Phule Pune University, Pune - MPCB",27-03-2024 20:00:00,18.547056,73.826908,SO2,6,19,10
India,Maharashtra,Pune,"Transport Nagar-Nigdi, Pune - IITM",27-03-2024 20:00:00,18.664282,73.763966,NO2,15,18,17
India,Maharashtra,Pune,"Transport Nagar-Nigdi, Pune - IITM",27-03-2024 20:00:00,18.664282,73.763966,OZONE,12,97,69
India,Maharashtra,Sangli,"Vijay Nagar, Sangli - MPCB",27-03-2024 20:00:00, 16.5038,74.3623,PM2.5,46,119,72
India,Maharashtra,Sangli,"Vijay Nagar, Sangli - MPCB",27-03-2024 20:00:00, 16.5038,74.3623,CO,17,75,22
India,Maharashtra,Solapur,"Dnyaneshwar Nagar, Solapur - MPCB",27-03-2024 20:00:00,17.6336264,75.9132495,PM2.5,80,157,111
India,Maharashtra,Solapur,"Dnyaneshwar Nagar, Solapur - MPCB",27-03-2024 20:00:00,17.6336264,75.9132495,NH3,11,22,15
India,Maharashtra,Solapur,"Dnyaneshwar Nagar, Solapur - MPCB",27-03-2024 20:00:00,17.6336264,75.9132495,SO2,3,35,13
India,Maharashtra,Solapur,"Ratandeep Housing Society, Solapur - MPCB",27-03-2024 20:00:00,17.65439,75.90649,CO,18,39,28
India,Maharashtra,Thane,"Kasarvadavali, Thane - MPCB",27-03-2024 20:00:00,19.26777,72.97182,PM2.5,52,103,74
India,Maharashtra,Thane,"Kasarvadavali, Thane - MPCB",27-03-2024 20:00:00,19.26777,72.97182,NH3,7,12,9
India,Maharashtra,Thane,"Upvan Fort, Thane - MPCB",27-03-2024 20:00:00,19.222279,72.957979,NO2,12,81,34
India,Maharashtra,Thane,"Upvan Fort, Thane - MPCB",27-03-2024 20:00:00,19.222279,72.957979,SO2,5,29,11
India,Maharashtra,Virar,"Bolinj, Virar - MPCB",27-03-2024 20:00:00,19.4458210,72.7988231,OZONE,4,64,44
India,Manipur,Imphal,"DM College of Science, Imphal - Manipur PCB",27-03-2024 20:00:00,24.8207389,93.9423085,PM2.5,8,44,20
India,Manipur,Imphal,"DM College of Science, Imphal - Manipur PCB",27-03-2024 20:00:00,24.8207389,93.9423085,NH3,2,2,2
India,Manipur,Imphal,"DM College of Science, Imphal - Manipur PCB",27-03-2024 20:00:00,24.8207389,93.9423085,SO2,88,94,91
India,Manipur,Imphal,"DM College of Science, Imphal - Manipur PCB",27-03-2024 20:00:00,24.8207389,93.9423085,OZONE,1,4,2
India,Manipur,Imphal,"Manipur University, Imphal - Manipur PCB",27-03-2024 20:00:00,24.7524239,93.9286218,PM2.5,30,243,60
India,Meghalaya,Shillong,"Lumpyngngad, Shillong - Meghalaya PCB",27-03-2024 20:00:00,25.5586,91.8985,PM2.5,45,94,74
India,Meghalaya,Shillong,"Lumpyngngad, Shillong - Meghalaya PCB",27-03-2024 20:00:00,25.5586,91.8985,SO2,37,40,38
India,Meghalaya,Shillong,"Lumpyngngad, Shillong - Meghalaya PCB",27-03-2024 20:00:00,25.5586,91.8985,CO,6,24,19
India,Mizoram,Aizawl,"Sikulpuikawn, Aizawl - Mizoram PCB",27-03-2024 20:00:00,23.7176342,92.7192841,PM2.5,39,85,61
India,Mizoram,Aizawl,"Sikulpuikawn, Aizawl - Mizoram PCB",27-03-2024 20:00:00,23.7176342,92.7192841,CO,13,22,18
India,Nagaland,Kohima,"PWD Juction, Kohima - NPCB",27-03-2024 20:00:00,25.6635413,94.0989878,PM10,24,106,58
India,Odisha,Angul,"Hakimapada, Angul - OSPCB",27-03-2024 20:00:00,20.832874,85.104082,CO,14,103,40
India,Odisha,Bhubaneswar,"Patia, Bhubaneswar - OSPCB",27-03-2024 20:00:00,20.34652,85.81630,PM2.5,12,35,22
India,Odisha,Bhubaneswar,"Patia, Bhubaneswar - OSPCB",27-03-2024 20:00:00,20.34652,85.81630,PM10,25,161,73
India,Odisha,Bhubaneswar,"Patia, Bhubaneswar - OSPCB",27-03-2024 20:00:00,20.34652,85.81630,NH3,1,3,2
India,Odisha,Byasanagar,"Ferro Chrome Colony, Byasanagar - OSPCB",27-03-2024 20:00:00,20.94185,86.11510,PM10,29,105,63
India,Odisha,Byasanagar,"Ferro Chrome Colony, Byasanagar - OSPCB",27-03-2024 20:00:00,20.94185,86.11510,SO2,3,26,11
India,Odisha,Byasanagar,"Ferro Chrome Colony, Byasanagar - OSPCB",27-03-2024 20:00:00,20.94185,86.11510,OZONE,9,145,122
India,Odisha,Keonjhar,"Jagamohanpur, Keonjhar - OSPCB",27-03-2024 20:00:00,21.643900,85.599355,PM2.5,98,157,129
India,Odisha,Keonjhar,"Jagamohanpur, Keonjhar - OSPCB",27-03-2024 20:00:00,21.643900,85.599355,PM10,96,114,105
India,Odisha,Keonjhar,"Jagamohanpur, Keonjhar - OSPCB",27-03-2024 20:00:00,21.643900,85.599355,SO2,4,12,5
India,Odisha,Rairangpur,"Divisional Forest Office, Rairangpur - OSPCB",27-03-2024 20:00:00,22.265816,86.174829,PM2.5,60,142,88
India,Odisha,Rairangpur,"Divisional Forest Office, Rairangpur - OSPCB",27-03-2024 20:00:00,22.265816,86.174829,SO2,2,7,4
India,Odisha,Rairangpur,"Divisional Forest Office, Rairangpur - OSPCB",27-03-2024 20:00:00,22.265816,86.174829,OZONE,2,52,36
India,Odisha,Rourkela,"Fertilizer Township, Rourkela - OSPCB",27-03-2024 20:00:00,22.18972222,84.86277778,PM2.5,NA,NA,NA
India,Odisha,Rourkela,"Fertilizer Township, Rourkela - OSPCB",27-03-2024 20:00:00,22.18972222,84.86277778,SO2,NA,NA,NA
India,Odisha,Rourkela,"Raghunathpali, Rourkela - OSPCB",27-03-2024 20:00:00,22.220833,84.809444,SO2,1,24,6
India,Odisha,Rourkela,"Raghunathpali, Rourkela - OSPCB",27-03-2024 20:00:00,22.220833,84.809444,CO,29,88,46
India,Odisha,Suakati,"OMC Colony, Suakati - OSPCB",27-03-2024 20:00:00,21.606865,85.510538,PM2.5,101,201,141
India,Odisha,Suakati,"OMC Colony, Suakati - OSPCB",27-03-2024 20:00:00,21.606865,85.510538,PM10,105,178,133
India,Odisha,Talcher,"Talcher Coalfields,Talcher - OSPCB",27-03-2024 20:00:00,20.9360711,85.1707021,NH3,4,5,5
India,Odisha,Talcher,"Talcher Coalfields,Talcher - OSPCB",27-03-2024 20:00:00,20.9360711,85.1707021,CO,8,56,44
India,Odisha,Tensa,"Barsua Iron Ore Mines, Tensa - OSPCB",27-03-2024 20:00:00,21.869985,85.167016,SO2,NA,NA,NA
India,Odisha,Tensa,"Barsua Iron Ore Mines, Tensa - OSPCB",27-03-2024 20:00:00,21.869985,85.167016,CO,22,31,26
India,Puducherry,Puducherry,"Jawahar Nagar, Puducherry - PPCC",27-03-2024 20:00:00,11.9309,79.8027,NO2,2,23,9
India,Punjab,Amritsar,"Golden Temple, Amritsar - PPCB",27-03-2024 20:00:00,31.620000,74.876512,NO2,9,46,16
India,Punjab,Amritsar,"Golden Temple, Amritsar - PPCB",27-03-2024 20:00:00,31.620000,74.876512,NH3,4,5,5
India,Punjab,Amritsar,"Golden Temple, Amritsar - PPCB",27-03-2024 20:00:00,31.620000,74.876512,OZONE,46,62,53
India,Punjab,Jalandhar,"Civil Line, Jalandhar - PPCB",27-03-2024 20:00:00,31.321907,75.578914,SO2,9,13,11
India,Punjab,Khanna,"Kalal Majra, Khanna - PPCB",27-03-2024 20:00:00,30.736056 ,76.209694,OZONE,4,81,49
India,Punjab,Ludhiana,"Punjab Agricultural University, Ludhiana - PPCB",27-03-2024 20:00:00,30.9028,75.8086,PM2.5,49,159,98
India,Punjab,Ludhiana,"Punjab Agricultural University, Ludhiana - PPCB",27-03-2024 20:00:00,30.9028,75.8086,NH3,4,5,4
India,Punjab,Ludhiana,"Punjab Agricultural University, Ludhiana - PPCB",27-03-2024 20:00:00,30.9028,75.8086,CO,14,63,29
India,Punjab,Patiala,"Model Town, Patiala - PPCB",27-03-2024 20:00:00,30.349388,76.366642,SO2,4,24,13
India,Rajasthan,Ajmer,"Civil Lines,  Ajmer - RSPCB",27-03-2024 20:00:00,26.470859,74.646594,PM2.5,53,188,91
India,Rajasthan,Alwar,"Moti Doongri, Alwar - RSPCB",27-03-2024 20:00:00,27.554793,76.611536,PM2.5,49,105,81
India,Rajasthan,Alwar,"Moti Doongri, Alwar - RSPCB",27-03-2024 20:00:00,27.554793,76.611536,NH3,4,9,6
India,Rajasthan,Alwar,"Moti Doongri, Alwar - RSPCB",27-03-2024 20:00:00,27.554793,76.611536,SO2,16,46,30
India,Rajasthan,Alwar,"Moti Doongri, Alwar - RSPCB",27-03-2024 20:00:00,27.554793,76.611536,CO,10,107,51
India,Rajasthan,Alwar,"Moti Doongri, Alwar - RSPCB",27-03-2024 20:00:00,27.554793,76.611536,OZONE,7,29,19
India,Rajasthan,Banswara,"Rati Talai, Banswara - RSPCB",27-03-2024 20:00:00,23.555190,74.440010,PM2.5,41,182,78
India,Rajasthan,Banswara,"Rati Talai, Banswara - RSPCB",27-03-2024 20:00:00,23.555190,74.440010,PM10,93,245,136
India,Rajasthan,Banswara,"Rati Talai, Banswara - RSPCB",27-03-2024 20:00:00,23.555190,74.440010,NO2,3,124,28
India,Rajasthan,Bharatpur,"Krishna Nagar, Bharatpur - RSPCB",27-03-2024 20:00:00,27.215415,77.50873,PM10,93,198,129
India,Rajasthan,Bharatpur,"Krishna Nagar, Bharatpur - RSPCB",27-03-2024 20:00:00,27.215415,77.50873,OZONE,5,146,108
India,Rajasthan,Bhilwara,"Pratap Nagar, Bhilwara - RSPCB",27-03-2024 20:00:00,25.339605,74.618883,PM2.5,NA,NA,NA
India,Rajasthan,Bhilwara,"Pratap Nagar, Bhilwara - RSPCB",27-03-2024 20:00:00,25.339605,74.618883,NO2,NA,NA,NA
India,Rajasthan,Bhilwara,"Pratap Nagar, Bhilwara - RSPCB",27-03-2024 20:00:00,25.339605,74.618883,SO2,NA,NA,NA
India,Rajasthan,Bhilwara,"Pratap Nagar, Bhilwara - RSPCB",27-03-2024 20:00:00,25.339605,74.618883,OZONE,15,80,64
India,Rajasthan,Bhiwadi,"RIICO Ind. Area III, Bhiwadi - RSPCB",27-03-2024 20:00:00,28.194909,76.862296,NH3,NA,NA,NA
India,Rajasthan,Bhiwadi,"RIICO Ind. Area III, Bhiwadi - RSPCB",27-03-2024 20:00:00,28.194909,76.862296,CO,71,74,72
India,Rajasthan,Bhiwadi,"Vasundhara Nagar_UIT, Bhiwadi - RSPCB",27-03-2024 20:00:00,28.207266,76.829265,NH3,1,4,3
India,Rajasthan,Bhiwadi,"Vasundhara Nagar_UIT, Bhiwadi - RSPCB",27-03-2024 20:00:00,28.207266,76.829265,OZONE,5,95,70
India,Rajasthan,Bikaner,"MM Ground, Bikaner - RSPCB",27-03-2024 20:00:00,28.018792,73.292658,CO,19,110,39
India,Rajasthan,Chittorgarh,"Shastri Nagar, Chittorgarh - RSPCB",27-03-2024 20:00:00,24.892047,74.623527,PM2.5,3,187,65
India,Rajasthan,Chittorgarh,"Shastri Nagar, Chittorgarh - RSPCB",27-03-2024 20:00:00,24.892047,74.623527,CO,5,92,14
India,Rajasthan,Churu,"Subash Chowk, Churu - RSPCB",27-03-2024 20:00:00,28.296139,74.961696,NH3,12,16,14
India,Rajasthan,Dausa,"Khatikan Mohalla, Dausa - RSPCB",27-03-2024 20:00:00,26.895552,76.334753,NH3,4,5,5
India,Rajasthan,Dholpur,"Raja Ganj, Dholpur - RSPCB",27-03-2024 20:00:00,26.699557,77.898881,PM2.5,27,164,63
India,Rajasthan,Dholpur,"Raja Ganj, Dholpur - RSPCB",27-03-2024 20:00:00,26.699557,77.898881,PM10,98,244,136
India,Rajasthan,Dungarpur,"Bhoiwada, Dungarpur - RSPCB",27-03-2024 20:00:00,23.837789,73.714926,OZONE,14,82,72
India,Rajasthan,Jaipur,"Adarsh Nagar, Jaipur - RSPCB",27-03-2024 20:00:00,26.902909,75.836858,NO2,16,118,40
India,Rajasthan,Jaipur,"Mansarovar Sector-12, Jaipur - RSPCB",27-03-2024 20:00:00,26.843698,75.766894,PM2.5,33,335,86
India,Rajasthan,Jaipur,"Mansarovar Sector-12, Jaipur - RSPCB",27-03-2024 20:00:00,26.843698,75.766894,SO2,3,11,7
India,Rajasthan,Jaipur,"Mansarovar Sector-12, Jaipur - RSPCB",27-03-2024 20:00:00,26.843698,75.766894,OZONE,59,93,70
India,Rajasthan,Jaipur,"Police Commissionerate, Jaipur - RSPCB",27-03-2024 20:00:00,26.9164092,75.7994901,PM2.5,57,155,90
India,Rajasthan,Jaipur,"RIICO Sitapura, Jaipur - RSPCB",27-03-2024 20:00:00,26.786682,75.827928,NO2,13,134,52
India,Rajasthan,Jaipur,"RIICO Sitapura, Jaipur - RSPCB",27-03-2024 20:00:00,26.786682,75.827928,SO2,15,34,21
India,Rajasthan,Jaipur,"Sector-2 Murlipura, Jaipur - RSPCB",27-03-2024 20:00:00,26.960669,75.771817,PM2.5,37,149,64
India,Rajasthan,Jaipur,"Sector-2 Murlipura, Jaipur - RSPCB",27-03-2024 20:00:00,26.960669,75.771817,OZONE,8,51,28
India,Rajasthan,Jaipur,"Shastri Nagar, Jaipur - RSPCB",27-03-2024 20:00:00,26.9502929,75.730943,PM10,97,252,136
India,Rajasthan,Jaipur,"Shastri Nagar, Jaipur - RSPCB",27-03-2024 20:00:00,26.9502929,75.730943,OZONE,11,84,72
India,Rajasthan,Jaisalmer,"Sadar Bazar, Jaisalmer - RSPCB",27-03-2024 20:00:00,26.912329,70.909168,PM2.5,20,59,35
India,Rajasthan,Jaisalmer,"Sadar Bazar, Jaisalmer - RSPCB",27-03-2024 20:00:00,26.912329,70.909168,PM10,79,169,112
India,Rajasthan,Jaisalmer,"Sadar Bazar, Jaisalmer - RSPCB",27-03-2024 20:00:00,26.912329,70.909168,OZONE,19,69,62
India,Rajasthan,Jalore,"Mudtra Sili, Jalore - RSPCB",27-03-2024 20:00:00,25.344694,72.626208,PM10,72,307,118
India,Rajasthan,Jalore,"Mudtra Sili, Jalore - RSPCB",27-03-2024 20:00:00,25.344694,72.626208,NO2,7,104,24
India,Rajasthan,Jalore,"Mudtra Sili, Jalore - RSPCB",27-03-2024 20:00:00,25.344694,72.626208,NH3,6,17,8
India,Rajasthan,Jhalawar,"Rajlaxmi Nagar, Jhalawar - RSPCB",27-03-2024 20:00:00,24.588397,76.172782,PM10,78,149,107
India,Rajasthan,Jhalawar,"Rajlaxmi Nagar, Jhalawar - RSPCB",27-03-2024 20:00:00,24.588397,76.172782,SO2,1,25,8
India,Rajasthan,Jhunjhunu,"Indra Nagar, Jhunjhunu - RSPCB",27-03-2024 20:00:00,28.108988,75.386577,PM2.5,28,164,60
India,Rajasthan,Jhunjhunu,"Indra Nagar, Jhunjhunu - RSPCB",27-03-2024 20:00:00,28.108988,75.386577,NH3,18,36,27
India,Rajasthan,Jhunjhunu,"Indra Nagar, Jhunjhunu - RSPCB",27-03-2024 20:00:00,28.108988,75.386577,CO,12,36,27
India,Rajasthan,Jodhpur,"Collectorate, Jodhpur - RSPCB",27-03-2024 20:00:00,26.268249,73.0193853,SO2,1,54,19
India,Rajasthan,Jodhpur,"Mandor, Jodhpur - RSPCB",27-03-2024 20:00:00,26.358805,73.047444,CO,14,70,18
India,Rajasthan,Jodhpur,"Samrat Ashok Udhyan, Jodhpur - RSPCB",27-03-2024 20:00:00,26.253384,72.976571,PM2.5,27,187,62
India,Rajasthan,Jodhpur,"Samrat Ashok Udhyan, Jodhpur - RSPCB",27-03-2024 20:00:00,26.253384,72.976571,NO2,3,120,27
India,Rajasthan,Karauli,"Satyawati Vihar, Karauli - RSPCB",27-03-2024 20:00:00,26.506177,77.025989,NH3,2,6,3
India,Rajasthan,Karauli,"Satyawati Vihar, Karauli - RSPCB",27-03-2024 20:00:00,26.506177,77.025989,SO2,4,14,8
India,Rajasthan,Kota,"Nayapura, Kota - RSPCB",27-03-2024 20:00:00,25.196024,75.855668,PM2.5,29,174,80
India,Rajasthan,Kota,"Shrinath Puram, Kota - RSPCB",27-03-2024 20:00:00,25.14389,75.821256,PM2.5,61,209,121
India,Rajasthan,Nagaur,"Karni Colony, Nagaur - RSPCB",27-03-2024 20:00:00,27.213494,73.734444,OZONE,NA,NA,NA
India,Rajasthan,Pali,"Indira Colony Vistar, Pali - RSPCB",27-03-2024 20:00:00,25.771061, 73.340227,NH3,1,8,3
India,Rajasthan,Pratapgarh,"Pragati Nagar, Pratapgarh - RSPCB",27-03-2024 20:00:00,24.041198,74.780702,PM2.5,39,123,64
India,Rajasthan,Pratapgarh,"Pragati Nagar, Pratapgarh - RSPCB",27-03-2024 20:00:00,24.041198,74.780702,CO,12,54,17
India,Rajasthan,Rajsamand,"Dhoinda, Rajsamand - RSPCB",27-03-2024 20:00:00,25.036360,73.883502,NO2,6,50,22
India,Rajasthan,Rajsamand,"Dhoinda, Rajsamand - RSPCB",27-03-2024 20:00:00,25.036360,73.883502,NH3,5,7,6
India,Rajasthan,Rajsamand,"Dhoinda, Rajsamand - RSPCB",27-03-2024 20:00:00,25.036360,73.883502,SO2,8,41,11
India,Rajasthan,Rajsamand,"Dhoinda, Rajsamand - RSPCB",27-03-2024 20:00:00,25.036360,73.883502,CO,50,100,56
India,Rajasthan,Rajsamand,"Dhoinda, Rajsamand - RSPCB",27-03-2024 20:00:00,25.036360,73.883502,OZONE,17,76,67
India,Rajasthan,Sikar,"Radhakishan Pura, Sikar - RSPCB",27-03-2024 20:00:00,27.608912,75.153302,NO2,NA,NA,NA
India,Rajasthan,Sikar,"Radhakishan Pura, Sikar - RSPCB",27-03-2024 20:00:00,27.608912,75.153302,OZONE,14,133,92
India,Rajasthan,Sirohi,"Vedhaynath Colony, Sirohi - RSPCB",27-03-2024 20:00:00,24.885261,72.857549,NH3,3,7,5
India,Rajasthan,Sirohi,"Vedhaynath Colony, Sirohi - RSPCB",27-03-2024 20:00:00,24.885261,72.857549,SO2,4,10,8
India,Rajasthan,Sirohi,"Vedhaynath Colony, Sirohi - RSPCB",27-03-2024 20:00:00,24.885261,72.857549,OZONE,27,94,83
India,Rajasthan,Sri Ganganagar,"Old City, Sri Ganganagar - RSPCB",27-03-2024 20:00:00,29.931624,73.864511,SO2,2,12,7
India,Rajasthan,Tonk,"Shastri Nagar, Tonk - RSPCB",27-03-2024 20:00:00,26.159933,75.780517,SO2,2,10,6
India,Sikkim,Gangtok,"Zero Point GICI, Gangtok - SSPCB",27-03-2024 20:00:00,27.338530,88.614099,PM10,NA,NA,NA
India,TamilNadu,Ariyalur,"Keelapalur, Ariyalur - TNPCB",27-03-2024 20:00:00,11.06825,79.07033,PM2.5,25,63,43
India,TamilNadu,Ariyalur,"Keelapalur, Ariyalur - TNPCB",27-03-2024 20:00:00,11.06825,79.07033,NO2,35,57,49
India,TamilNadu,Chennai,"Alandur Bus Depot, Chennai - CPCB",27-03-2024 20:00:00,12.9099161,80.1076538,PM2.5,46,65,53
India,TamilNadu,Chennai,"Alandur Bus Depot, Chennai - CPCB",27-03-2024 20:00:00,12.9099161,80.1076538,SO2,2,12,5
India,TamilNadu,Chennai,"Kodungaiyur, Chennai - TNPCB",27-03-2024 20:00:00,13.1278,80.2642,NH3,2,4,3
India,TamilNadu,Chennai,"Kodungaiyur, Chennai - TNPCB",27-03-2024 20:00:00,13.1278,80.2642,CO,6,45,28
India,TamilNadu,Chennai,"Manali, Chennai - CPCB",27-03-2024 20:00:00,13.164544,80.26285,PM10,29,85,46
India,TamilNadu,Chennai,"Perungudi, Chennai - TNPCB",27-03-2024 20:00:00,12.9533,80.2357,NH3,1,2,2
India,TamilNadu,Chennai,"Royapuram, Chennai - TNPCB",27-03-2024 20:00:00,13.1036,80.2909,NH3,1,2,1
India,TamilNadu,Chennai,"Royapuram, Chennai - TNPCB",27-03-2024 20:00:00,13.1036,80.2909,CO,16,55,24
India,TamilNadu,Chennai,"Velachery Res. Area, Chennai - CPCB",27-03-2024 20:00:00,13.0052189,80.2398125,NH3,7,12,10
India,TamilNadu,Chennai,"Velachery Res. Area, Chennai - CPCB",27-03-2024 20:00:00,13.0052189,80.2398125,SO2,11,11,11
India,TamilNadu,Cuddalore,"Kudikadu, Cuddalore - TNPCB",27-03-2024 20:00:00,11.6829898,79.7532099,NO2,13,30,23
India,TamilNadu,Cuddalore,"Semmandalam, Cuddalore - TNPCB",27-03-2024 20:00:00,11.7637683,79.7499835,NH3,1,3,2
India,TamilNadu,Cuddalore,"Semmandalam, Cuddalore - TNPCB",27-03-2024 20:00:00,11.7637683,79.7499835,OZONE,1,3,2
India,TamilNadu,Gummidipoondi,"Anthoni Pillai Nagar, Gummidipoondi - TNPCB",27-03-2024 20:00:00,13.4127,80.1081,PM2.5,27,418,121
India,TamilNadu,Gummidipoondi,"Anthoni Pillai Nagar, Gummidipoondi - TNPCB",27-03-2024 20:00:00,13.4127,80.1081,SO2,3,109,46
India,TamilNadu,Kanchipuram,"Kilambi, Kanchipuram - TNPCB",27-03-2024 20:00:00,12.864618,79.659968,NH3,NA,NA,NA
India,TamilNadu,Ooty,"Bombay Castel, Ooty - TNPCB",27-03-2024 20:00:00,11.4068288,76.7138973,SO2,NA,NA,NA
India,TamilNadu,Ooty,"Bombay Castel, Ooty - TNPCB",27-03-2024 20:00:00,11.4068288,76.7138973,CO,19,20,19
India,TamilNadu,Palkalaiperur,"Bharathidasan University, Palkalaiperur - TNPCB",27-03-2024 20:00:00,10.681158,78.741746,PM2.5,1,42,24
India,TamilNadu,Palkalaiperur,"Bharathidasan University, Palkalaiperur - TNPCB",27-03-2024 20:00:00,10.681158,78.741746,SO2,27,29,28
India,TamilNadu,Ramanathapuram,"Chalai Bazaar, Ramanathapuram - TNPCB",27-03-2024 20:00:00,9.36399,78.831977,CO,2,10,5
India,TamilNadu,Salem,"Sona College of Technology, Salem - TNPCB",27-03-2024 20:00:00,11.679111,78.125052,NO2,NA,NA,NA
India,TamilNadu,Vellore,"Vasanthapuram, Vellore - TNPCB",27-03-2024 20:00:00,12.909494,79.131861,NH3,1,1,1
India,TamilNadu,Virudhunagar,"Collectorate Office, Virudhunagar - TNPCB",27-03-2024 20:00:00,9.559382,77.948828,SO2,NA,NA,NA
India,Telangana,Hyderabad,"Bollaram Industrial Area, Hyderabad - TSPCB",27-03-2024 20:00:00,17.540891,78.358528,NO2,28,42,34
India,Telangana,Hyderabad,"Central University, Hyderabad - TSPCB",27-03-2024 20:00:00,17.460103,78.334361,PM10,40,104,72
India,Telangana,Hyderabad,"ECIL Kapra, Hyderabad - TSPCB",27-03-2024 20:00:00,17.470431,78.566959,NH3,5,7,6
India,Telangana,Hyderabad,"ECIL Kapra, Hyderabad - TSPCB",27-03-2024 20:00:00,17.470431,78.566959,CO,20,44,24
India,Telangana,Hyderabad,"ICRISAT Patancheru, Hyderabad - TSPCB",27-03-2024 20:00:00,17.518400,78.278777,PM2.5,13,72,36
India,Telangana,Hyderabad,"Kokapet, Hyderabad - TSPCB",27-03-2024 20:00:00,17.393559,78.339194,NH3,NA,NA,NA
India,Telangana,Hyderabad,"Kokapet, Hyderabad - TSPCB",27-03-2024 20:00:00,17.393559,78.339194,OZONE,4,9,7
India,Telangana,Hyderabad,"Kompally Municipal Office, Hyderabad - TSPCB",27-03-2024 20:00:00,17.544899,78.486949,PM10,39,55,46
India,Telangana,Hyderabad,"Kompally Municipal Office, Hyderabad - TSPCB",27-03-2024 20:00:00,17.544899,78.486949,OZONE,6,142,79
India,Telangana,Hyderabad,"Nacharam_TSIIC IALA, Hyderabad - TSPCB",27-03-2024 20:00:00,17.429398,78.569354,CO,24,48,37
India,Telangana,Hyderabad,"New Malakpet, Hyderabad - TSPCB",27-03-2024 20:00:00,17.37206,78.50864,SO2,8,20,15
India,Telangana,Hyderabad,"Ramachandrapuram, Hyderabad - TSPCB",27-03-2024 20:00:00,17.528544,78.286195,NO2,NA,NA,NA
India,Telangana,Hyderabad,"Ramachandrapuram, Hyderabad - TSPCB",27-03-2024 20:00:00,17.528544,78.286195,OZONE,18,73,51
India,Telangana,Hyderabad,"Sanathnagar, Hyderabad - TSPCB",27-03-2024 20:00:00,17.4559458,78.4332152,CO,34,42,38
India,Telangana,Hyderabad,"Zoo Park, Hyderabad - TSPCB",27-03-2024 20:00:00,17.349694,78.451437,PM2.5,35,95,59
India,Telangana,Hyderabad,"Zoo Park, Hyderabad - TSPCB",27-03-2024 20:00:00,17.349694,78.451437,NO2,29,44,33
India,Telangana,Hyderabad,"Zoo Park, Hyderabad - TSPCB",27-03-2024 20:00:00,17.349694,78.451437,NH3,1,1,1
India,Tripura,Agartala,"Bardowali, Agartala - Tripura SPCB",27-03-2024 20:00:00,23.8175497,91.2726974,OZONE,1,27,12
India,Uttar_Pradesh,Agra,"Rohta, Agra - UPPCB",27-03-2024 20:00:00,27.106972,78.000111,NO2,2,2,2
India,Uttar_Pradesh,Agra,"Rohta, Agra - UPPCB",27-03-2024 20:00:00,27.106972,78.000111,NH3,1,1,1
India,Uttar_Pradesh,Agra,"Sanjay Palace, Agra - UPPCB",27-03-2024 20:00:00,27.19865833,78.00598056,NO2,24,79,41
India,Uttar_Pradesh,Agra,"Sanjay Palace, Agra - UPPCB",27-03-2024 20:00:00,27.19865833,78.00598056,CO,2,105,26
India,Uttar_Pradesh,Agra,"Sector-3B Avas Vikas Colony, Agra - UPPCB",27-03-2024 20:00:00,27.19412,77.96237,PM2.5,5,56,33
India,Uttar_Pradesh,Agra,"Sector-3B Avas Vikas Colony, Agra - UPPCB",27-03-2024 20:00:00,27.19412,77.96237,PM10,17,120,71
India,Uttar_Pradesh,Agra,"Sector-3B Avas Vikas Colony, Agra - UPPCB",27-03-2024 20:00:00,27.19412,77.96237,NO2,NA,NA,NA
India,Uttar_Pradesh,Agra,"Sector-3B Avas Vikas Colony, Agra - UPPCB",27-03-2024 20:00:00,27.19412,77.96237,SO2,22,26,24
India,Uttar_Pradesh,Agra,"Sector-3B Avas Vikas Colony, Agra - UPPCB",27-03-2024 20:00:00,27.19412,77.96237,OZONE,2,12,9
India,Uttar_Pradesh,Agra,"Shahjahan Garden, Agra - UPPCB",27-03-2024 20:00:00,27.169338,78.03582,PM10,NA,NA,NA
India,Uttar_Pradesh,Agra,"Shahjahan Garden, Agra - UPPCB",27-03-2024 20:00:00,27.169338,78.03582,OZONE,9,33,17
India,Uttar_Pradesh,Baghpat,"Sardar Patel Inter College, Baghpat - UPPCB",27-03-2024 20:00:00,28.964949,77.278761,NH3,2,3,3
India,Uttar_Pradesh,Baghpat,"Sardar Patel Inter College, Baghpat - UPPCB",27-03-2024 20:00:00,28.964949,77.278761,OZONE,1,70,51
India,Uttar_Pradesh,Bareilly,"Rajendra Nagar, Bareilly - UPPCB",27-03-2024 20:00:00,28.38910936,79.42963708,NH3,1,1,1
India,Uttar_Pradesh,Bulandshahr,"Yamunapuram, Bulandshahr - UPPCB",27-03-2024 20:00:00,28.406963,77.849831,PM10,77,148,104
India,Uttar_Pradesh,Bulandshahr,"Yamunapuram, Bulandshahr - UPPCB",27-03-2024 20:00:00,28.406963,77.849831,SO2,22,102,41
India,Uttar_Pradesh,Bulandshahr,"Yamunapuram, Bulandshahr - UPPCB",27-03-2024 20:00:00,28.406963,77.849831,OZONE,5,82,63
India,Uttar_Pradesh,Firozabad,"Vibhab Nagar, Firozabad - UPPCB",27-03-2024 20:00:00,27.1594,78.3953,PM10,22,73,44
India,Uttar_Pradesh,Firozabad,"Vibhab Nagar, Firozabad - UPPCB",27-03-2024 20:00:00,27.1594,78.3953,NO2,13,14,14
India,Uttar_Pradesh,Ghaziabad,"Loni, Ghaziabad - UPPCB",27-03-2024 20:00:00,28.757294,77.278792,SO2,7,43,20
India,Uttar_Pradesh,Ghaziabad,"Vasundhara, Ghaziabad - UPPCB",27-03-2024 20:00:00,28.6603346,77.3572563,SO2,10,109,38
India,Uttar_Pradesh,Ghaziabad,"Vasundhara, Ghaziabad - UPPCB",27-03-2024 20:00:00,28.6603346,77.3572563,CO,10,120,45
India,Uttar_Pradesh,Gorakhpur,"Madan Mohan Malaviya University of Technology, Gorakhpur - UPPCB",27-03-2024 20:00:00,26.730136,83.433859,NH3,1,2,2
India,Uttar_Pradesh,Greater Noida,"Knowledge Park - III, Greater Noida - UPPCB",27-03-2024 20:00:00,28.47272,77.482000,NO2,36,114,63
India,Uttar_Pradesh,Greater Noida,"Knowledge Park - III, Greater Noida - UPPCB",27-03-2024 20:00:00,28.47272,77.482000,OZONE,5,131,95
India,Uttar_Pradesh,Greater Noida,"Knowledge Park - V, Greater Noida - UPPCB",27-03-2024 20:00:00,28.557054,77.453663,SO2,9,37,23
India,Uttar_Pradesh,Hapur,"Anand Vihar, Hapur - UPPCB",27-03-2024 20:00:00,28.725645,77.749675,PM10,69,114,92
India,Uttar_Pradesh,Hapur,"Anand Vihar, Hapur - UPPCB",27-03-2024 20:00:00,28.725645,77.749675,SO2,NA,NA,NA
India,Uttar_Pradesh,Hapur,"Anand Vihar, Hapur - UPPCB",27-03-2024 20:00:00,28.725645,77.749675,CO,26,80,69
India,Uttar_Pradesh,Hapur,"Anand Vihar, Hapur - UPPCB",27-03-2024 20:00:00,28.725645,77.749675,OZONE,12,150,88
India,Uttar_Pradesh,Jhansi,"Shivaji Nagar, Jhansi - UPPCB",27-03-2024 20:00:00,25.4547,78.6039,OZONE,1,22,14
India,Uttar_Pradesh,Kanpur,"FTI Kidwai Nagar, Kanpur - UPPCB",27-03-2024 20:00:00,26.428282,80.327067,PM2.5,45,154,90
India,Uttar_Pradesh,Kanpur,"FTI Kidwai Nagar, Kanpur - UPPCB",27-03-2024 20:00:00,26.428282,80.327067,NH3,3,4,3
India,Uttar_Pradesh,Kanpur,"FTI Kidwai Nagar, Kanpur - UPPCB",27-03-2024 20:00:00,26.428282,80.327067,SO2,22,23,22
India,Uttar_Pradesh,Kanpur,"FTI Kidwai Nagar, Kanpur - UPPCB",27-03-2024 20:00:00,26.428282,80.327067,OZONE,3,14,8
India,Uttar_Pradesh,Kanpur,"NSI Kalyanpur, Kanpur - UPPCB",27-03-2024 20:00:00,26.509954,80.249612,NH3,1,2,1
India,Uttar_Pradesh,Kanpur,"Nehru Nagar, Kanpur - UPPCB",27-03-2024 20:00:00,26.4703136,80.3229863,PM10,21,100,55
India,Uttar_Pradesh,Kanpur,"Nehru Nagar, Kanpur - UPPCB",27-03-2024 20:00:00,26.4703136,80.3229863,CO,32,58,50
India,Uttar_Pradesh,Kanpur,"Nehru Nagar, Kanpur - UPPCB",27-03-2024 20:00:00,26.4703136,80.3229863,OZONE,1,12,2
India,Uttar_Pradesh,Khurja,"Kalindi Kunj, Khurja - UPPCB",27-03-2024 20:00:00,28.2348927,77.8683002,OZONE,26,32,29
India,Uttar_Pradesh,Lucknow,"Kendriya Vidyalaya, Lucknow - CPCB",27-03-2024 20:00:00,26.906111,80.948222,PM10,87,141,110
India,Uttar_Pradesh,Lucknow,"Kendriya Vidyalaya, Lucknow - CPCB",27-03-2024 20:00:00,26.906111,80.948222,CO,4,102,35
India,Uttar_Pradesh,Lucknow,"Kukrail Picnic Spot-1, Lucknow - UPPCB",27-03-2024 20:00:00,26.90723,80.98579,PM10,64,147,94
India,Uttar_Pradesh,Lucknow,"Lalbagh, Lucknow - CPCB",27-03-2024 20:00:00,26.8458805,80.9365541,NH3,11,15,13
India,Uttar_Pradesh,Lucknow,"Lalbagh, Lucknow - CPCB",27-03-2024 20:00:00,26.8458805,80.9365541,CO,62,109,77
India,Uttar_Pradesh,Lucknow,"Talkatora District Industries Center, Lucknow - CPCB",27-03-2024 20:00:00,26.83399722,80.8917361,CO,1,82,24
India,Uttar_Pradesh,Lucknow,"Talkatora District Industries Center, Lucknow - CPCB",27-03-2024 20:00:00,26.83399722,80.8917361,OZONE,2,80,48
India,Uttar_Pradesh,Meerut,"Ganga Nagar, Meerut - UPPCB",27-03-2024 20:00:00,28.999264,77.7590354,OZONE,4,47,38
India,Uttar_Pradesh,Meerut,"Pallavpuram Phase 2, Meerut - UPPCB",27-03-2024 20:00:00,29.063510,77.709723,SO2,13,43,27
India,Uttar_Pradesh,Meerut,"Pallavpuram Phase 2, Meerut - UPPCB",27-03-2024 20:00:00,29.063510,77.709723,OZONE,2,83,70
India,Uttar_Pradesh,Moradabad,"Buddhi Vihar, Moradabad - UPPCB",27-03-2024 20:00:00,28.83526,78.74460,PM10,87,171,120
India,Uttar_Pradesh,Moradabad,"Buddhi Vihar, Moradabad - UPPCB",27-03-2024 20:00:00,28.83526,78.74460,OZONE,12,36,28
India,Uttar_Pradesh,Moradabad,"Eco Herbal Park, Moradabad - UPPCB",27-03-2024 20:00:00,28.840739,78.697531,PM2.5,38,98,72
India,Uttar_Pradesh,Moradabad,"Eco Herbal Park, Moradabad - UPPCB",27-03-2024 20:00:00,28.840739,78.697531,NH3,3,17,6
India,Uttar_Pradesh,Moradabad,"Employment Office, Moradabad - UPPCB",27-03-2024 20:00:00,28.88528,78.73880,NO2,17,19,19
India,Uttar_Pradesh,Moradabad,"Jigar Colony, Moradabad - UPPCB",27-03-2024 20:00:00,28.856664,78.772638,NH3,4,7,5
India,Uttar_Pradesh,Moradabad,"Jigar Colony, Moradabad - UPPCB",27-03-2024 20:00:00,28.856664,78.772638,SO2,1,18,5
India,Uttar_Pradesh,Moradabad,"Kashiram Nagar, Moradabad - UPPCB",27-03-2024 20:00:00,28.849399,78.742362,SO2,27,42,34
India,Uttar_Pradesh,Moradabad,"Transport Nagar, Moradabad - UPPCB",27-03-2024 20:00:00,28.802625,78.753728,NO2,13,27,20
India,Uttar_Pradesh,Muzaffarnagar,"New Mandi, Muzaffarnagar - UPPCB",27-03-2024 20:00:00,29.4723508,77.7194031,OZONE,29,94,72
India,Uttar_Pradesh,Noida,"Sector - 125, Noida - UPPCB",27-03-2024 20:00:00,28.5447608,77.3231257,NH3,4,20,9
India,Uttar_Pradesh,Noida,"Sector - 125, Noida - UPPCB",27-03-2024 20:00:00,28.5447608,77.3231257,CO,36,102,45
India,Uttar_Pradesh,Noida,"Sector - 62, Noida - IMD",27-03-2024 20:00:00,28.6245479,77.3577104,PM10,74,190,131
India,Uttar_Pradesh,Noida,"Sector-1, Noida - UPPCB",27-03-2024 20:00:00,28.5898,77.3101,PM10,113,261,178
India,Uttar_Pradesh,Noida,"Sector-1, Noida - UPPCB",27-03-2024 20:00:00,28.5898,77.3101,NO2,33,103,69
India,Uttar_Pradesh,Noida,"Sector-1, Noida - UPPCB",27-03-2024 20:00:00,28.5898,77.3101,OZONE,1,173,99
India,Uttar_Pradesh,Noida,"Sector-116, Noida - UPPCB",27-03-2024 20:00:00,28.569230,77.393848,OZONE,1,37,22
India,Uttar_Pradesh,Prayagraj,"Jhunsi, Prayagraj - UPPCB",27-03-2024 20:00:00,25.425602,81.917152,CO,9,56,15
India,Uttar_Pradesh,Prayagraj,"Motilal Nehru NIT, Prayagraj - UPPCB",27-03-2024 20:00:00,25.494,81.863,PM10,39,249,102
India,Uttar_Pradesh,Prayagraj,"Motilal Nehru NIT, Prayagraj - UPPCB",27-03-2024 20:00:00,25.494,81.863,SO2,22,28,24
India,Uttar_Pradesh,Prayagraj,"Nagar Nigam, Prayagraj - UPPCB",27-03-2024 20:00:00,25.44919916 ,81.82735986 ,NH3,4,9,7
India,Uttar_Pradesh,Prayagraj,"Nagar Nigam, Prayagraj - UPPCB",27-03-2024 20:00:00,25.44919916 ,81.82735986 ,CO,12,64,17
India,Uttar_Pradesh,Varanasi,"Ardhali Bazar, Varanasi - UPPCB",27-03-2024 20:00:00,25.3505986,82.9083074,PM2.5,8,241,35
India,Uttar_Pradesh,Varanasi,"Ardhali Bazar, Varanasi - UPPCB",27-03-2024 20:00:00,25.3505986,82.9083074,PM10,10,177,39
India,Uttar_Pradesh,Varanasi,"Ardhali Bazar, Varanasi - UPPCB",27-03-2024 20:00:00,25.3505986,82.9083074,SO2,2,19,8
India,Uttar_Pradesh,Varanasi,"Maldahiya, Varanasi - UPPCB",27-03-2024 20:00:00,25.32393,82.99687,PM10,15,56,33
India,Uttar_Pradesh,Varanasi,"Maldahiya, Varanasi - UPPCB",27-03-2024 20:00:00,25.32393,82.99687,NH3,1,2,1
India,Uttar_Pradesh,Vrindavan,"Omex Eternity, Vrindavan - UPPCB",27-03-2024 20:00:00,27.5714090,77.6557570,PM10,26,202,114
India,Uttar_Pradesh,Vrindavan,"Omex Eternity, Vrindavan - UPPCB",27-03-2024 20:00:00,27.5714090,77.6557570,NH3,2,4,3
India,Uttar_Pradesh,Vrindavan,"Omex Eternity, Vrindavan - UPPCB",27-03-2024 20:00:00,27.5714090,77.6557570,SO2,40,44,41
India,Uttarakhand,Kashipur,"Govt. Girls Inter College, Kashipur - UKPCB",27-03-2024 20:00:00,29.2124114,78.9611753,SO2,7,9,8
India,Uttarakhand,Rishikesh,"Shivaji Nagar, Rishikesh - UKPCB",27-03-2024 20:00:00,30.075911,78.2859547,NH3,2,3,3
India,Uttarakhand,Rishikesh,"Shivaji Nagar, Rishikesh - UKPCB",27-03-2024 20:00:00,30.075911,78.2859547,CO,16,56,30
India,Uttarakhand,Rishikesh,"Shivaji Nagar, Rishikesh - UKPCB",27-03-2024 20:00:00,30.075911,78.2859547,OZONE,16,115,90
India,West_Bengal,Asansol,"Asansol Court Area, Asansol - WBPCB",27-03-2024 20:00:00,23.685297,86.945968,NO2,19,36,29
India,West_Bengal,Barrackpore,"SVSPA Campus, Barrackpore - WBPCB",27-03-2024 20:00:00,22.7605581,88.3617589,PM2.5,34,176,70
India,West_Bengal,Barrackpore,"SVSPA Campus, Barrackpore - WBPCB",27-03-2024 20:00:00,22.7605581,88.3617589,CO,4,30,15
India,West_Bengal,Durgapur,"Sidhu Kanhu Indoor Stadium, Durgapur - WBPCB",27-03-2024 20:00:00,23.5404352,87.2892225,NH3,3,4,4
India,West_Bengal,Durgapur,"Sidhu Kanhu Indoor Stadium, Durgapur - WBPCB",27-03-2024 20:00:00,23.5404352,87.2892225,CO,24,78,36
India,West_Bengal,Haldia,"Priyambada Housing Estate, Haldia - WBPCB",27-03-2024 20:00:00,22.06047,88.109737,NO2,10,18,13
India,West_Bengal,Haldia,"Priyambada Housing Estate, Haldia - WBPCB",27-03-2024 20:00:00,22.06047,88.109737,CO,16,32,19
India,West_Bengal,Howrah,"Belur Math, Howrah - WBPCB",27-03-2024 20:00:00,22.629801,88.352017,SO2,3,9,7
India,West_Bengal,Howrah,"Ghusuri, Howrah - WBPCB",27-03-2024 20:00:00,22.611968,88.347422,NO2,1,11,6
India,West_Bengal,Howrah,"Padmapukur, Howrah - WBPCB",27-03-2024 20:00:00,22.5687319,88.2797276,SO2,7,97,29
India,West_Bengal,Kolkata,"Ballygunge, Kolkata - WBPCB",27-03-2024 20:00:00,22.5367507,88.3638022,SO2,1,24,7
India,West_Bengal,Kolkata,"Ballygunge, Kolkata - WBPCB",27-03-2024 20:00:00,22.5367507,88.3638022,CO,16,46,30
India,West_Bengal,Kolkata,"Bidhannagar, Kolkata - WBPCB",27-03-2024 20:00:00,22.58157048,88.41002457,PM10,43,101,66
India,West_Bengal,Kolkata,"Bidhannagar, Kolkata - WBPCB",27-03-2024 20:00:00,22.58157048,88.41002457,SO2,12,22,15
India,West_Bengal,Kolkata,"Fort William, Kolkata - WBPCB",27-03-2024 20:00:00,22.556640,88.342674,PM2.5,31,94,52
India,West_Bengal,Kolkata,"Jadavpur, Kolkata - WBPCB",27-03-2024 20:00:00,22.49929,88.36917,NH3,2,3,3
India,West_Bengal,Kolkata,"Jadavpur, Kolkata - WBPCB",27-03-2024 20:00:00,22.49929,88.36917,CO,13,32,23
India,West_Bengal,Kolkata,"Jadavpur, Kolkata - WBPCB",27-03-2024 20:00:00,22.49929,88.36917,OZONE,16,96,66
India,West_Bengal,Kolkata,"Rabindra Bharati University, Kolkata - WBPCB",27-03-2024 20:00:00,22.627847,88.380669,PM2.5,22,95,46
India,West_Bengal,Kolkata,"Rabindra Bharati University, Kolkata - WBPCB",27-03-2024 20:00:00,22.627847,88.380669,NH3,6,7,7
India,West_Bengal,Kolkata,"Victoria, Kolkata - WBPCB",27-03-2024 20:00:00,22.5448082,88.3403691,CO,13,32,28
India,West_Bengal,Siliguri,"Ward-32 Bapupara, Siliguri - WBPCB",27-03-2024 20:00:00,26.6879226,88.4152495,NH3,6,16,11
India,Andhra_Pradesh,Amaravati,"Secretariat, Amaravati - APPCB",27-03-2024 20:00:00,16.5150833,80.5181667,NO2,5,10,7
India,Andhra_Pradesh,Chittoor,"Gangineni Cheruvu, Chittoor - APPCB",27-03-2024 20:00:00,13.204880,79.097889,CO,NA,NA,NA
India,Andhra_Pradesh,Rajamahendravaram,"Anand Kala Kshetram, Rajamahendravaram - APPCB",27-03-2024 20:00:00,16.9872867,81.7363176,PM2.5,15,62,37
India,Andhra_Pradesh,Rajamahendravaram,"Anand Kala Kshetram, Rajamahendravaram - APPCB",27-03-2024 20:00:00,16.9872867,81.7363176,PM10,28,87,49
India,Andhra_Pradesh,Tirupati,"Tirumala, Tirupati - APPCB",27-03-2024 20:00:00,13.67,79.35,PM10,25,100,49
India,Andhra_Pradesh,Tirupati,"Vaikuntapuram, Tirupati - APPCB",27-03-2024 20:00:00,13.615387,79.409230,PM2.5,13,83,42
India,Andhra_Pradesh,Tirupati,"Vaikuntapuram, Tirupati - APPCB",27-03-2024 20:00:00,13.615387,79.409230,OZONE,1,42,32
India,Andhra_Pradesh,Vijayawada,"HB Colony, Vijayawada - APPCB",27-03-2024 20:00:00,16.536107,80.594233,NH3,4,4,4
India,Andhra_Pradesh,Vijayawada,"HB Colony, Vijayawada - APPCB",27-03-2024 20:00:00,16.536107,80.594233,CO,36,54,49
India,Andhra_Pradesh,Vijayawada,"Kanuru, Vijayawada - APPCB",27-03-2024 20:00:00,16.486692,80.699436,PM10,54,77,67
India,Andhra_Pradesh,Vijayawada,"Rajiv Gandhi Park, Vijayawada - APPCB",27-03-2024 20:00:00,16.509717,80.612222,CO,36,52,42
India,Andhra_Pradesh,Vijayawada,"Rajiv Nagar, Vijayawada - APPCB",27-03-2024 20:00:00,16.554731,80.649110,NO2,NA,NA,NA
India,Andhra_Pradesh,Visakhapatnam,"GVM Corporation, Visakhapatnam - APPCB",27-03-2024 20:00:00,17.72,83.3,PM2.5,22,143,60
India,Andhra_Pradesh,Visakhapatnam,"GVM Corporation, Visakhapatnam - APPCB",27-03-2024 20:00:00,17.72,83.3,PM10,47,193,97
India,Andhra_Pradesh,Visakhapatnam,"GVM Corporation, Visakhapatnam - APPCB",27-03-2024 20:00:00,17.72,83.3,CO,9,77,19
India,Arunachal_Pradesh,Naharlagun,"Naharlagun, Naharlagun - APSPCB",27-03-2024 20:00:00,27.103358,93.679645,CO,10,30,14
India,Assam,Byrnihat,"Central Academy for SFS, Byrnihat - PCBA",27-03-2024 20:00:00,26.071318,91.87488,PM2.5,25,227,80
India,Assam,Byrnihat,"Central Academy for SFS, Byrnihat - PCBA",27-03-2024 20:00:00,26.071318,91.87488,OZONE,8,28,12
India,Assam,Guwahati,"IITG, Guwahati - PCBA",27-03-2024 20:00:00,26.2028636,91.70046436,NO2,1,2,1
India,Assam,Guwahati,"IITG, Guwahati - PCBA",27-03-2024 20:00:00,26.2028636,91.70046436,OZONE,6,27,18
India,Assam,Guwahati,"Pan Bazaar, Guwahati - PCBA",27-03-2024 20:00:00,26.187500,91.744194,PM2.5,NA,NA,NA
India,Assam,Guwahati,"Railway Colony, Guwahati - PCBA",27-03-2024 20:00:00,26.181742,91.78063,SO2,39,46,42
India,Assam,Nagaon,"Christianpatty, Nagaon - PCBA",27-03-2024 20:00:00,26.349082,92.68449,PM2.5,52,98,65
India,Assam,Nagaon,"Christianpatty, Nagaon - PCBA",27-03-2024 20:00:00,26.349082,92.68449,NO2,10,47,18
India,Assam,Nalbari,"Bata Chowk, Nalbari - PCBA",27-03-2024 20:00:00,26.446912,91.439057,PM2.5,17,82,37
India,Assam,Nalbari,"Bata Chowk, Nalbari - PCBA",27-03-2024 20:00:00,26.446912,91.439057,NH3,1,2,2
India,Assam,Nalbari,"Bata Chowk, Nalbari - PCBA",27-03-2024 20:00:00,26.446912,91.439057,CO,5,135,65
India,Assam,Nalbari,"Bata Chowk, Nalbari - PCBA",27-03-2024 20:00:00,26.446912,91.439057,OZONE,36,71,56
India,Assam,Silchar,"Tarapur, Silchar - PCBA",27-03-2024 20:00:00,24.82827,92.79525,NH3,1,1,1
India,Assam,Silchar,"Tarapur, Silchar - PCBA",27-03-2024 20:00:00,24.82827,92.79525,OZONE,3,13,5
India,Assam,Sivasagar,"Girls College, Sivasagar - PCBA",27-03-2024 20:00:00,26.987634,94.636574,OZONE,1,34,6
India,Bihar,Araria,"Kharahiya Basti, Araria - BSPCB",27-03-2024 20:00:00,26.146529,87.454184,PM2.5,13,29,19
India,Bihar,Araria,"Kharahiya Basti, Araria - BSPCB",27-03-2024 20:00:00,26.146529,87.454184,CO,20,29,27
India,Bihar,Arrah,"New DM Office, Arrah - BSPCB",27-03-2024 20:00:00,25.5626095,84.663264,CO,2,16,8
India,Bihar,Aurangabad,"Gurdeo Nagar, Aurangabad - BSPCB",27-03-2024 20:00:00,24.75746,84.366208,SO2,2,9,6
India,Bihar,Aurangabad,"Gurdeo Nagar, Aurangabad - BSPCB",27-03-2024 20:00:00,24.75746,84.366208,OZONE,1,103,53
India,Bihar,Bettiah,"Kamalnath Nagar, Bettiah - BSPCB",27-03-2024 20:00:00,26.80365,84.51954,PM2.5,40,250,80
India,Bihar,Bettiah,"Kamalnath Nagar, Bettiah - BSPCB",27-03-2024 20:00:00,26.80365,84.51954,NH3,3,6,3
India,Bihar,Bettiah,"Kamalnath Nagar, Bettiah - BSPCB",27-03-2024 20:00:00,26.80365,84.51954,OZONE,3,11,9
India,Bihar,Bhagalpur,"DM Office_Kachari Chowk, Bhagalpur - BSPCB",27-03-2024 20:00:00,25.251013,86.989001,PM2.5,NA,NA,NA
India,Bihar,Bhagalpur,"DM Office_Kachari Chowk, Bhagalpur - BSPCB",27-03-2024 20:00:00,25.251013,86.989001,PM10,NA,NA,NA
India,Bihar,Bihar Sharif,"D M Colony, Bihar Sharif - BSPCB",27-03-2024 20:00:00,25.204762,85.514960,NO2,8,10,9
India,Bihar,Bihar Sharif,"D M Colony, Bihar Sharif - BSPCB",27-03-2024 20:00:00,25.204762,85.514960,CO,4,64,26
India,Bihar,Bihar Sharif,"D M Colony, Bihar Sharif - BSPCB",27-03-2024 20:00:00,25.204762,85.514960,OZONE,2,2,2
India,Bihar,Gaya,"Collectorate, Gaya - BSPCB",27-03-2024 20:00:00,24.7955,84.9994,OZONE,49,81,65
India,Bihar,Gaya,"Kareemganj, Gaya - BSPCB",27-03-2024 20:00:00,24.792403,84.992416,SO2,7,10,9
India,Bihar,Gaya,"SFTI Kusdihra, Gaya - BSPCB",27-03-2024 20:00:00,24.762518,84.982348,PM2.5,20,84,50
India,Bihar,Gaya,"SFTI Kusdihra, Gaya - BSPCB",27-03-2024 20:00:00,24.762518,84.982348,NO2,10,61,28
India,Bihar,Hajipur,"Industrial Area, Hajipur - BSPCB",27-03-2024 20:00:00,25.697189,85.245900,NH3,5,6,6
India,Bihar,Katihar,"Mirchaibari, Katihar - BSPCB",27-03-2024 20:00:00,25.560083,87.553265,NO2,13,26,17
India,Bihar,Kishanganj,"SDM Office_Khagra, Kishanganj - BSPCB",27-03-2024 20:00:00,26.0881305,87.93840336,PM2.5,NA,NA,NA
India,Bihar,Kishanganj,"SDM Office_Khagra, Kishanganj - BSPCB",27-03-2024 20:00:00,26.0881305,87.93840336,PM10,NA,NA,NA
India,Bihar,Kishanganj,"SDM Office_Khagra, Kishanganj - BSPCB",27-03-2024 20:00:00,26.0881305,87.93840336,SO2,37,44,40
India,Bihar,Manguraha,"Forest Rest House, Manguraha - BSPCB",27-03-2024 20:00:00,27.308328,84.531742,PM2.5,20,203,61
India,Bihar,Manguraha,"Forest Rest House, Manguraha - BSPCB",27-03-2024 20:00:00,27.308328,84.531742,SO2,5,7,7
India,Bihar,Motihari,"Gandak Colony, Motihari - BSPCB",27-03-2024 20:00:00,26.63086,84.90051,SO2,1,11,5
India,Bihar,Motihari,"Gandak Colony, Motihari - BSPCB",27-03-2024 20:00:00,26.63086,84.90051,CO,2,53,16
India,Bihar,Munger,"Town Hall, Munger - BSPCB",27-03-2024 20:00:00,25.376776,86.471523,OZONE,27,31,29
India,Bihar,Patna,"DRM Office Danapur, Patna - BSPCB",27-03-2024 20:00:00,25.586562,85.043586,NH3,2,3,3
India,Bihar,Patna,"DRM Office Danapur, Patna - BSPCB",27-03-2024 20:00:00,25.586562,85.043586,SO2,6,8,7
India,Bihar,Patna,"Govt. High School Shikarpur, Patna - BSPCB",27-03-2024 20:00:00,25.592539,85.227158,PM10,88,162,115
India,Bihar,Patna,"IGSC Planetarium Complex, Patna - BSPCB",27-03-2024 20:00:00,25.610369,85.132568,PM2.5,52,199,84
India,Bihar,Patna,"Muradpur, Patna - BSPCB",27-03-2024 20:00:00,25.619651,85.147382,NH3,2,4,3
India,Bihar,Patna,"Rajbansi Nagar, Patna - BSPCB",27-03-2024 20:00:00,25.599486,85.113666,PM2.5,43,94,72
India,Bihar,Patna,"Rajbansi Nagar, Patna - BSPCB",27-03-2024 20:00:00,25.599486,85.113666,NO2,11,39,16
India,Bihar,Patna,"Rajbansi Nagar, Patna - BSPCB",27-03-2024 20:00:00,25.599486,85.113666,NH3,4,11,5
India,Bihar,Patna,"Samanpura, Patna - BSPCB",27-03-2024 20:00:00,25.596727,85.085624,PM10,109,430,141
India,Bihar,Purnia,"Mariam Nagar, Purnia - BSPCB",27-03-2024 20:00:00,25.366336,87.117468,NO2,5,7,6
India,Bihar,Purnia,"Mariam Nagar, Purnia - BSPCB",27-03-2024 20:00:00,25.366336,87.117468,SO2,4,10,7
India,Bihar,Purnia,"Mariam Nagar, Purnia - BSPCB",27-03-2024 20:00:00,25.366336,87.117468,CO,20,43,30
India,Bihar,Saharsa,"Police Line, Saharsa - BSPCB",27-03-2024 20:00:00,25.892357,86.590325,NH3,9,9,9
India,Bihar,Saharsa,"Police Line, Saharsa - BSPCB",27-03-2024 20:00:00,25.892357,86.590325,CO,17,44,33
India,Bihar,Sasaram,"Dada Peer, Sasaram - BSPCB",27-03-2024 20:00:00,24.952822,84.002396,PM2.5,18,83,39
India,Bihar,Sasaram,"Dada Peer, Sasaram - BSPCB",27-03-2024 20:00:00,24.952822,84.002396,NH3,7,12,9
India,Bihar,Siwan,"Chitragupta Nagar, Siwan - BSPCB",27-03-2024 20:00:00,26.2271665,84.3570427,PM10,37,208,94
India,Bihar,Siwan,"Chitragupta Nagar, Siwan - BSPCB",27-03-2024 20:00:00,26.2271665,84.3570427,NH3,1,4,2
India,Bihar,Siwan,"Chitragupta Nagar, Siwan - BSPCB",27-03-2024 20:00:00,26.2271665,84.3570427,CO,11,112,46
India,Chandigarh,Chandigarh,"Sector 22, Chandigarh - CPCC",27-03-2024 20:00:00,30.735567,76.775714,OZONE,39,135,92
India,Chandigarh,Chandigarh,"Sector-25, Chandigarh - CPCC",27-03-2024 20:00:00,30.751462,76.762879,PM10,106,147,133
India,Chandigarh,Chandigarh,"Sector-25, Chandigarh - CPCC",27-03-2024 20:00:00,30.751462,76.762879,SO2,8,16,10
India,Chandigarh,Chandigarh,"Sector-53, Chandigarh - CPCC",27-03-2024 20:00:00,30.719859,76.738637,NO2,9,35,22
India,Chandigarh,Chandigarh,"Sector-53, Chandigarh - CPCC",27-03-2024 20:00:00,30.719859,76.738637,OZONE,21,56,43
India,Chhattisgarh,Bhilai,"32Bungalows, Bhilai - CECB",27-03-2024 20:00:00,21.194815,81.314770,NH3,6,6,6
India,Chhattisgarh,Bhilai,"Civic Center, Bhilai - Bhilai Steel Plant",27-03-2024 20:00:00,21.185571,81.343175,PM2.5,35,85,57
India,Chhattisgarh,Bhilai,"Civic Center, Bhilai - Bhilai Steel Plant",27-03-2024 20:00:00,21.185571,81.343175,CO,14,57,34
India,Chhattisgarh,Bhilai,"Hathkhoj, Bhilai - CECB",27-03-2024 20:00:00,21.224231,81.408350,PM10,75,135,112
India,Chhattisgarh,Chhal,"Nawapara SECL Colony, Chhal - CECB",27-03-2024 20:00:00,22.118125,83.140608,SO2,1,87,16
India,Chhattisgarh,Korba,"Rampur, Korba - CECB",27-03-2024 20:00:00,22.368195,82.746431,OZONE,2,13,9
India,Chhattisgarh,Kunjemura,"OP Jindal School, Kunjemura - CECB",27-03-2024 20:00:00,22.126650,83.483212,PM2.5,60,130,81
India,Chhattisgarh,Kunjemura,"OP Jindal School, Kunjemura - CECB",27-03-2024 20:00:00,22.126650,83.483212,PM10,70,294,142
India,Chhattisgarh,Kunjemura,"OP Jindal School, Kunjemura - CECB",27-03-2024 20:00:00,22.126650,83.483212,NH3,1,5,2
India,Chhattisgarh,Kunjemura,"OP Jindal School, Kunjemura - CECB",27-03-2024 20:00:00,22.126650,83.483212,CO,26,57,36
India,Chhattisgarh,Milupara,"Govt. Higher Secondary School, Milupara - CECB",27-03-2024 20:00:00,22.1910172,83.5197009,NO2,17,48,30
India,Chhattisgarh,Milupara,"Govt. Higher Secondary School, Milupara - CECB",27-03-2024 20:00:00,22.1910172,83.5197009,NH3,1,2,1
India,Chhattisgarh,Milupara,"Govt. Higher Secondary School, Milupara - CECB",27-03-2024 20:00:00,22.1910172,83.5197009,CO,20,49,23
India,Chhattisgarh,Milupara,"Govt. Higher Secondary School, Milupara - CECB",27-03-2024 20:00:00,22.1910172,83.5197009,OZONE,1,34,30
India,Chhattisgarh,Raipur,"AIIMS, Raipur - CECB",27-03-2024 20:00:00,21.258815,81.578979,NH3,5,5,5
India,Chhattisgarh,Raipur,"AIIMS, Raipur - CECB",27-03-2024 20:00:00,21.258815,81.578979,SO2,5,19,10
India,Chhattisgarh,Raipur,"Bhatagaon New ISBT, Raipur - CECB",27-03-2024 20:00:00,21.219665,81.630094,PM10,39,117,76
India,Chhattisgarh,Raipur,"Krishak Nagar, Raipur - CECB",27-03-2024 20:00:00,21.237755,81.705301,NO2,22,35,28
India,Chhattisgarh,Tumidih,"OP Jindal Industrial Park, Tumidih - CECB",27-03-2024 20:00:00,22.06631475,83.33820077,NO2,10,45,20
India,Delhi,Delhi,"Anand Vihar, Delhi - DPCC",27-03-2024 20:00:00,28.647622,77.3158090,PM10,NA,NA,NA
India,Delhi,Delhi,"Anand Vihar, Delhi - DPCC",27-03-2024 20:00:00,28.647622,77.3158090,NO2,NA,NA,NA
India,Delhi,Delhi,"Anand Vihar, Delhi - DPCC",27-03-2024 20:00:00,28.647622,77.3158090,CO,6,68,27
India,Delhi,Delhi,"Anand Vihar, Delhi - DPCC",27-03-2024 20:00:00,28.647622,77.3158090,OZONE,6,15,10
India,Delhi,Delhi,"Ashok Vihar, Delhi - DPCC",27-03-2024 20:00:00,28.695381,77.181665,SO2,20,47,29
India,Delhi,Delhi,"Aya Nagar, Delhi - IMD",27-03-2024 20:00:00,28.4706914,77.1099364,PM10,96,187,143
India,Delhi,Delhi,"Aya Nagar, Delhi - IMD",27-03-2024 20:00:00,28.4706914,77.1099364,OZONE,2,26,20
India,Delhi,Delhi,"Bawana, Delhi - DPCC",27-03-2024 20:00:00,28.776200,77.051074,NO2,14,65,35
India,Delhi,Delhi,"Bawana, Delhi - DPCC",27-03-2024 20:00:00,28.776200,77.051074,OZONE,5,58,41
India,Delhi,Delhi,"Burari Crossing, Delhi - IMD",27-03-2024 20:00:00,28.7256504,77.2011573,PM10,81,267,140
India,Delhi,Delhi,"Burari Crossing, Delhi - IMD",27-03-2024 20:00:00,28.7256504,77.2011573,CO,44,62,50
India,Delhi,Delhi,"Chandni Chowk, Delhi - IITM",27-03-2024 20:00:00,28.656756,77.227234,NH3,NA,NA,NA
India,Delhi,Delhi,"DTU, Delhi - CPCB",27-03-2024 20:00:00,28.7500499,77.1112615,NO2,4,42,27
India,Delhi,Delhi,"Dr. Karni Singh Shooting Range, Delhi - DPCC",27-03-2024 20:00:00,28.498571,77.264840,PM2.5,38,167,88
India,Delhi,Delhi,"Dwarka-Sector 8, Delhi - DPCC ",27-03-2024 20:00:00,28.5710274,77.0719006,NO2,12,91,48
India,Delhi,Delhi,"Dwarka-Sector 8, Delhi - DPCC ",27-03-2024 20:00:00,28.5710274,77.0719006,SO2,3,18,10
India,Delhi,Delhi,"Dwarka-Sector 8, Delhi - DPCC ",27-03-2024 20:00:00,28.5710274,77.0719006,OZONE,2,73,39
India,Delhi,Delhi,"IGI Airport (T3), Delhi - IMD",27-03-2024 20:00:00,28.5627763,77.1180053,PM2.5,30,278,120
India,Delhi,Delhi,"IGI Airport (T3), Delhi - IMD",27-03-2024 20:00:00,28.5627763,77.1180053,PM10,62,291,146
India,Delhi,Delhi,"IHBAS, Dilshad Garden, Delhi - CPCB",27-03-2024 20:00:00,28.6811736,77.3025234,PM2.5,80,304,195
India,Delhi,Delhi,"IHBAS, Dilshad Garden, Delhi - CPCB",27-03-2024 20:00:00,28.6811736,77.3025234,NO2,14,92,30
India,Delhi,Delhi,"ITO, Delhi - CPCB",27-03-2024 20:00:00,28.628624,77.241060,SO2,9,30,19
India,Delhi,Delhi,"Jahangirpuri, Delhi - DPCC",27-03-2024 20:00:00,28.732820,77.170633,PM10,115,442,217
India,Delhi,Delhi,"Jawaharlal Nehru Stadium, Delhi - DPCC",27-03-2024 20:00:00,28.580280,77.233829,NH3,5,8,7
India,Delhi,Delhi,"Jawaharlal Nehru Stadium, Delhi - DPCC",27-03-2024 20:00:00,28.580280,77.233829,CO,30,115,38
India,Delhi,Delhi,"Lodhi Road, Delhi - IITM",27-03-2024 20:00:00,28.588333,77.221667,CO,58,67,60
India,Delhi,Delhi,"Lodhi Road, Delhi - IITM",27-03-2024 20:00:00,28.588333,77.221667,OZONE,15,29,22
India,Delhi,Delhi,"Lodhi Road, Delhi - IMD",27-03-2024 20:00:00,28.5918245,77.2273074,PM10,70,155,115
India,Delhi,Delhi,"Major Dhyan Chand National Stadium, Delhi - DPCC",27-03-2024 20:00:00,28.611281,77.237738,PM2.5,47,234,122
India,Delhi,Delhi,"Major Dhyan Chand National Stadium, Delhi - DPCC",27-03-2024 20:00:00,28.611281,77.237738,OZONE,2,208,107
India,Delhi,Delhi,"Mandir Marg, Delhi - DPCC",27-03-2024 20:00:00,28.636429,77.201067,PM10,65,143,100
India,Delhi,Delhi,"Mandir Marg, Delhi - DPCC",27-03-2024 20:00:00,28.636429,77.201067,NO2,117,140,127
India,Delhi,Delhi,"Mundka, Delhi - DPCC",27-03-2024 20:00:00,28.684678,77.076574,NO2,21,98,61
India,Delhi,Delhi,"NSIT Dwarka, Delhi - CPCB",27-03-2024 20:00:00,28.60909,77.0325413,PM2.5,92,353,259
India,Delhi,Delhi,"NSIT Dwarka, Delhi - CPCB",27-03-2024 20:00:00,28.60909,77.0325413,OZONE,4,60,46
India,Delhi,Delhi,"Najafgarh, Delhi - DPCC",27-03-2024 20:00:00,28.570173,76.933762,NO2,3,22,12
India,Delhi,Delhi,"Nehru Nagar, Delhi - DPCC",27-03-2024 20:00:00,28.567890,77.250515,SO2,8,24,13
India,Delhi,Delhi,"Nehru Nagar, Delhi - DPCC",27-03-2024 20:00:00,28.567890,77.250515,OZONE,2,174,105
India,Delhi,Delhi,"New Moti Bagh, Delhi - MHUA",27-03-2024 20:00:00,28.57834,77.18400,NO2,1,24,7
India,Delhi,Delhi,"Okhla Phase-2, Delhi - DPCC",27-03-2024 20:00:00,28.530785,77.271255,PM10,108,411,186
India,Delhi,Delhi,"Patparganj, Delhi - DPCC",27-03-2024 20:00:00,28.623763,77.287209,PM10,103,424,179
India,Delhi,Delhi,"Patparganj, Delhi - DPCC",27-03-2024 20:00:00,28.623763,77.287209,CO,27,102,38
India,Delhi,Delhi,"Punjabi Bagh, Delhi - DPCC",27-03-2024 20:00:00,28.674045,77.131023,NO2,35,75,51
India,Delhi,Delhi,"Punjabi Bagh, Delhi - DPCC",27-03-2024 20:00:00,28.674045,77.131023,SO2,20,28,24
India,Delhi,Delhi,"R K Puram, Delhi - DPCC",27-03-2024 20:00:00,28.563262,77.186937,SO2,8,34,20
India,Delhi,Delhi,"Rohini, Delhi - DPCC",27-03-2024 20:00:00,28.732528,77.119920,PM10,65,276,162
India,Delhi,Delhi,"Sri Aurobindo Marg, Delhi - DPCC",27-03-2024 20:00:00,28.531346,77.190156,SO2,8,27,15
India,Delhi,Delhi,"Wazirpur, Delhi - DPCC",27-03-2024 20:00:00,28.699793,77.165453,SO2,8,74,34
India,Gujarat,Ahmedabad,"Chandkheda, Ahmedabad - IITM",27-03-2024 20:00:00,23.107969,72.574648,NO2,1,203,130
India,Gujarat,Ahmedabad,"Chandkheda, Ahmedabad - IITM",27-03-2024 20:00:00,23.107969,72.574648,NH3,1,19,3
India,Gujarat,Ahmedabad,"Gyaspur, Ahmedabad - IITM",27-03-2024 20:00:00,22.977134,72.553024,NO2,17,46,33
India,Gujarat,Ahmedabad,"Gyaspur, Ahmedabad - IITM",27-03-2024 20:00:00,22.977134,72.553024,SO2,4,7,5
India,Gujarat,Ahmedabad,"Maninagar, Ahmedabad - GPCB",27-03-2024 20:00:00,23.002657,72.591912,PM2.5,57,332,136
India,Gujarat,Ahmedabad,"Raikhad, Ahmedabad - IITM",27-03-2024 20:00:00,23.020509,72.579261,PM10,45,198,115
India,Gujarat,Ahmedabad,"Rakhial, Ahmedabad - IITM",27-03-2024 20:00:00,23.016834,72.625775,NH3,2,26,21
India,Gujarat,Ahmedabad,"Rakhial, Ahmedabad - IITM",27-03-2024 20:00:00,23.016834,72.625775,CO,2,83,9
India,Gujarat,Ahmedabad,"Rakhial, Ahmedabad - IITM",27-03-2024 20:00:00,23.016834,72.625775,OZONE,8,84,49
India,Gujarat,Ahmedabad,"SAC ISRO Satellite, Ahmedabad - IITM",27-03-2024 20:00:00,23.023389,72.515201,NH3,3,3,3
India,Gujarat,Ahmedabad,"SAC ISRO Satellite, Ahmedabad - IITM",27-03-2024 20:00:00,23.023389,72.515201,SO2,3,26,9
India,Gujarat,Ahmedabad,"SAC ISRO Satellite, Ahmedabad - IITM",27-03-2024 20:00:00,23.023389,72.515201,OZONE,10,24,21
India,Gujarat,Ahmedabad,"Sardar Vallabhbhai Patel Stadium, Ahmedabad - IITM",27-03-2024 20:00:00,23.043070,72.562968,NH3,6,6,6
India,Gujarat,Ahmedabad,"Sardar Vallabhbhai Patel Stadium, Ahmedabad - IITM",27-03-2024 20:00:00,23.043070,72.562968,OZONE,17,29,26
India,Gujarat,Ankleshwar,"GIDC, Ankleshwar - GPCB",27-03-2024 20:00:00,21.613267,73.010555,PM2.5,56,74,65
India,Gujarat,Gandhinagar,"IIPHG Lekawada, Gandhinagar - IITM",27-03-2024 20:00:00,23.243639,72.68994,CO,22,25,23
India,Gujarat,Gandhinagar,"Sector-10, Gandhinagar - GPCB",27-03-2024 20:00:00,23.221714,72.654328,PM2.5,20,70,44
India,Gujarat,Gandhinagar,"Sector-10, Gandhinagar - GPCB",27-03-2024 20:00:00,23.221714,72.654328,PM10,58,106,78
India,Gujarat,Gandhinagar,"Sector-10, Gandhinagar - GPCB",27-03-2024 20:00:00,23.221714,72.654328,NO2,16,22,18
India,Gujarat,Nandesari,"GIDC, Nandesari - Nandesari Ind. Association",27-03-2024 20:00:00,22.410802,73.097923,PM10,105,436,241
India,Gujarat,Vatva,"Phase-4 GIDC, Vatva - GPCB",27-03-2024 20:00:00,22.969611,72.643500,SO2,14,63,28
India,Haryana,Ambala,"Patti Mehar, Ambala - HSPCB",27-03-2024 20:00:00,30.379589,76.778328,PM10,42,64,51
India,Haryana,Ambala,"Patti Mehar, Ambala - HSPCB",27-03-2024 20:00:00,30.379589,76.778328,NO2,8,22,15
India,Haryana,Ambala,"Patti Mehar, Ambala - HSPCB",27-03-2024 20:00:00,30.379589,76.778328,SO2,5,105,31
India,Haryana,Ambala,"Patti Mehar, Ambala - HSPCB",27-03-2024 20:00:00,30.379589,76.778328,CO,30,60,40
India,Haryana,Bahadurgarh,"Arya Nagar, Bahadurgarh - HSPCB",27-03-2024 20:00:00,28.6701,76.9254,PM2.5,20,148,82
India,Haryana,Bahadurgarh,"Arya Nagar, Bahadurgarh - HSPCB",27-03-2024 20:00:00,28.6701,76.9254,PM10,86,210,147
India,Haryana,Bahadurgarh,"Arya Nagar, Bahadurgarh - HSPCB",27-03-2024 20:00:00,28.6701,76.9254,CO,40,63,53
India,Haryana,Bhiwani,"H.B. Colony, Bhiwani - HSPCB",27-03-2024 20:00:00,28.806223,76.141105,CO,2,52,11
India,Haryana,Dharuhera,"Municipal Corporation Office, Dharuhera -  HSPCB",27-03-2024 20:00:00,28.206800,76.799700,PM2.5,50,241,111
India,Haryana,Faridabad,"New Industrial Town, Faridabad - HSPCB",27-03-2024 20:00:00,28.39072,77.30059,CO,5,46,13
India,Haryana,Faridabad,"Sector 11, Faridabad - HSPCB",27-03-2024 20:00:00,28.376058,77.315741,SO2,6,119,22
India,Haryana,Faridabad,"Sector 11, Faridabad - HSPCB",27-03-2024 20:00:00,28.376058,77.315741,CO,35,64,41
India,Haryana,Faridabad,"Sector 30, Faridabad - HSPCB",27-03-2024 20:00:00,28.4417,77.3217,PM2.5,89,100,96
India,Haryana,Fatehabad,"Huda Sector, Fatehabad - HSPCB",27-03-2024 20:00:00,29.503664,75.467934,OZONE,82,122,97
India,Haryana,Gurugram,"Sector-51, Gurugram - HSPCB",27-03-2024 20:00:00,28.4227,77.0667,PM10,99,457,232
India,Haryana,Gurugram,"Sector-51, Gurugram - HSPCB",27-03-2024 20:00:00,28.4227,77.0667,OZONE,27,67,56
India,Haryana,Gurugram,"Teri Gram, Gurugram - HSPCB",27-03-2024 20:00:00,28.4275,77.1465,NO2,27,48,38
India,Haryana,Gurugram,"Teri Gram, Gurugram - HSPCB",27-03-2024 20:00:00,28.4275,77.1465,SO2,3,5,4
India,Haryana,Gurugram,"Vikas Sadan, Gurugram - HSPCB",27-03-2024 20:00:00,28.4501238,77.0263051,SO2,29,53,40
India,Haryana,Hisar,"Urban Estate-II, Hisar - HSPCB",27-03-2024 20:00:00,29.140560,75.744941,PM10,70,148,99
India,Haryana,Hisar,"Urban Estate-II, Hisar - HSPCB",27-03-2024 20:00:00,29.140560,75.744941,NH3,8,10,9
India,Haryana,Hisar,"Urban Estate-II, Hisar - HSPCB",27-03-2024 20:00:00,29.140560,75.744941,CO,40,102,55
India,Haryana,Jind,"Police Lines, Jind - HSPCB",27-03-2024 20:00:00,29.307814,76.337619,SO2,3,16,7
India,Haryana,Kaithal,"Rishi Nagar, Kaithal - HSPCB",27-03-2024 20:00:00,29.8006,76.4155,PM2.5,43,93,62
India,Haryana,Kaithal,"Rishi Nagar, Kaithal - HSPCB",27-03-2024 20:00:00,29.8006,76.4155,PM10,61,110,86
India,Haryana,Kaithal,"Rishi Nagar, Kaithal - HSPCB",27-03-2024 20:00:00,29.8006,76.4155,NO2,24,26,25
India,Haryana,Karnal,"Sector-12, Karnal - HSPCB",27-03-2024 20:00:00,29.695300,77.002700,PM10,44,74,60
India,Haryana,Mandikhera,"General Hospital, Mandikhera - HSPCB",27-03-2024 20:00:00,27.9002,76.9938,CO,18,96,34
India,Haryana,Mandikhera,"General Hospital, Mandikhera - HSPCB",27-03-2024 20:00:00,27.9002,76.9938,OZONE,21,30,27
India,Haryana,Manesar,"Sector-2 IMT, Manesar - HSPCB",27-03-2024 20:00:00,28.360699,76.936090,PM10,42,127,84
India,Haryana,Narnaul,"Shastri Nagar, Narnaul - HSPCB",27-03-2024 20:00:00,28.060249,76.113115,PM10,34,100,54
India,Haryana,Palwal,"Shyam Nagar, Palwal - HSPCB",27-03-2024 20:00:00,28.1485564,77.3320667,PM2.5,53,83,68
India,Haryana,Palwal,"Shyam Nagar, Palwal - HSPCB",27-03-2024 20:00:00,28.1485564,77.3320667,NH3,9,9,9
India,Haryana,Panipat,"Sector-18, Panipat - HSPCB",27-03-2024 20:00:00,29.497973,76.993331,NH3,2,3,2
India,Haryana,Sirsa,"F-Block, Sirsa - HSPCB",27-03-2024 20:00:00,29.536400,75.015800,SO2,1,75,20
India,Haryana,Sirsa,"F-Block, Sirsa - HSPCB",27-03-2024 20:00:00,29.536400,75.015800,OZONE,32,94,56
India,Haryana,Sonipat,"Murthal, Sonipat - HSPCB",27-03-2024 20:00:00,29.027200,77.062100,NO2,37,44,40
India,Haryana,Yamuna Nagar,"Gobind Pura, Yamuna Nagar - HSPCB",27-03-2024 20:00:00,30.1480566,77.2893471,SO2,NA,NA,NA
India,Himachal Pradesh,Baddi,"HIMUDA Complex Phase-1, Baddi - HPPCB",27-03-2024 20:00:00,30.943887,76.801991,OZONE,20,120,95
India,Jharkhand,Dhanbad,"Sardar Patel Nagar, Dhanbad - JSPCB",27-03-2024 20:00:00,23.80569,86.44268,OZONE,13,78,45
India,Karnataka,Bagalkot,"Vidayagiri, Bagalkot - KSPCB",27-03-2024 20:00:00,16.172806,75.659694,SO2,NA,NA,NA
India,Karnataka,Bengaluru,"BTM Layout, Bengaluru - CPCB",27-03-2024 20:00:00,12.9135218,77.5950804,NH3,4,4,4
India,Karnataka,Bengaluru,"BTM Layout, Bengaluru - CPCB",27-03-2024 20:00:00,12.9135218,77.5950804,CO,43,44,44
India,Karnataka,Bengaluru,"Hebbal, Bengaluru - KSPCB",27-03-2024 20:00:00,13.029152,77.585901,SO2,NA,NA,NA
India,Karnataka,Bengaluru,"Hombegowda Nagar, Bengaluru - KSPCB",27-03-2024 20:00:00,12.938539,77.590100,OZONE,4,5,4
India,Karnataka,Bengaluru,"Jayanagar 5th Block, Bengaluru - KSPCB",27-03-2024 20:00:00,12.920984,77.584908,OZONE,27,28,27
India,Karnataka,Bengaluru,"Jigani, Bengaluru - KSPCB",27-03-2024 20:00:00,12.7816279,77.6299145,PM2.5,41,134,85
India,Karnataka,Bengaluru,"Peenya, Bengaluru - CPCB",27-03-2024 20:00:00,13.0270199,77.494094,PM10,36,77,56
India,Karnataka,Bengaluru,"Peenya, Bengaluru - CPCB",27-03-2024 20:00:00,13.0270199,77.494094,NO2,8,25,14
India,Karnataka,Bengaluru,"Sanegurava Halli, Bengaluru - KSPCB",27-03-2024 20:00:00,12.990328,77.5431385,SO2,2,3,3
India,Karnataka,Bengaluru,"Shivapura_Peenya, Bengaluru - KSPCB",27-03-2024 20:00:00,13.0246342,77.5080115,PM10,53,114,74
India,Karnataka,Bengaluru,"Shivapura_Peenya, Bengaluru - KSPCB",27-03-2024 20:00:00,13.0246342,77.5080115,NO2,15,16,16
