country,state,city,station,last_update,latitude,longitude,pollutant_id,pollutant_min,pollutant_max,pollutant_avg
India,Andhra_Pradesh,Amaravati,"Secretariat, Amaravati - APPCB",25-06-2024 22:00:00,16.5150833,80.5181667,PM2.5,15,40,24
India,Andhra_Pradesh,Amaravati,"Secretariat, Amaravati - APPCB",25-06-2024 22:00:00,16.5150833,80.5181667,SO2,14,41,22
India,Andhra_Pradesh,Anantapur,"Gulzarpet, Anantapur - APPCB",25-06-2024 22:00:00,14.675886,77.593027,PM2.5,NA,NA,NA
India,Andhra_Pradesh,Chittoor,"Gangineni Cheruvu, Chittoor - APPCB",25-06-2024 22:00:00,13.204880,79.097889,PM10,35,102,56
India,Andhra_Pradesh,Chittoor,"Gangineni Cheruvu, Chittoor - APPCB",25-06-2024 22:00:00,13.204880,79.097889,SO2,4,8,6
India,Andhra_Pradesh,Chittoor,"Gangineni Cheruvu, Chittoor - APPCB",25-06-2024 22:00:00,13.204880,79.097889,CO,12,26,18
India,Andhra_Pradesh,Kadapa,"Yerramukkapalli, Kadapa - APPCB",25-06-2024 22:00:00,14.465052,78.824187,PM2.5,NA,NA,NA
India,Andhra_Pradesh,Rajamahendravaram,"Anand Kala Kshetram, Rajamahendravaram - APPCB",25-06-2024 22:00:00,16.9872867,81.7363176,SO2,10,13,12
India,Andhra_Pradesh,Tirupati,"Vaikuntapuram, Tirupati - APPCB",25-06-2024 22:00:00,13.615387,79.409230,PM2.5,37,500,102
India,Andhra_Pradesh,Tirupati,"Vaikuntapuram, Tirupati - APPCB",25-06-2024 22:00:00,13.615387,79.409230,NO2,14,21,16
India,Andhra_Pradesh,Tirupati,"Vaikuntapuram, Tirupati - APPCB",25-06-2024 22:00:00,13.615387,79.409230,NH3,2,3,2
India,Andhra_Pradesh,Tirupati,"Vaikuntapuram, Tirupati - APPCB",25-06-2024 22:00:00,13.615387,79.409230,OZONE,5,29,16
India,Andhra_Pradesh,Vijayawada,"HB Colony, Vijayawada - APPCB",25-06-2024 22:00:00,16.536107,80.594233,PM10,39,64,51
India,Andhra_Pradesh,Vijayawada,"Kanuru, Vijayawada - APPCB",25-06-2024 22:00:00,16.486692,80.699436,PM10,48,63,56
India,Andhra_Pradesh,Vijayawada,"Kanuru, Vijayawada - APPCB",25-06-2024 22:00:00,16.486692,80.699436,SO2,7,9,8
India,Andhra_Pradesh,Vijayawada,"Rajiv Gandhi Park, Vijayawada - APPCB",25-06-2024 22:00:00,16.509717,80.612222,NH3,4,6,5
India,Andhra_Pradesh,Vijayawada,"Rajiv Nagar, Vijayawada - APPCB",25-06-2024 22:00:00,16.554731,80.649110,NO2,10,10,10
India,Andhra_Pradesh,Vijayawada,"Rajiv Nagar, Vijayawada - APPCB",25-06-2024 22:00:00,16.554731,80.649110,CO,38,38,38
India,Andhra_Pradesh,Visakhapatnam,"GVM Corporation, Visakhapatnam - APPCB",25-06-2024 22:00:00,17.72,83.3,SO2,6,15,11
India,Arunachal_Pradesh,Naharlagun,"Naharlagun, Naharlagun - APSPCB",25-06-2024 22:00:00,27.103358,93.679645,PM10,NA,NA,NA
India,Arunachal_Pradesh,Naharlagun,"Naharlagun, Naharlagun - APSPCB",25-06-2024 22:00:00,27.103358,93.679645,CO,2,14,10
India,Arunachal_Pradesh,Naharlagun,"Naharlagun, Naharlagun - APSPCB",25-06-2024 22:00:00,27.103358,93.679645,OZONE,2,3,3
India,Assam,Byrnihat,"Central Academy for SFS, Byrnihat - PCBA",25-06-2024 22:00:00,26.071318,91.87488,NO2,14,27,16
India,Assam,Byrnihat,"Central Academy for SFS, Byrnihat - PCBA",25-06-2024 22:00:00,26.071318,91.87488,NH3,14,21,16
India,Assam,Byrnihat,"Central Academy for SFS, Byrnihat - PCBA",25-06-2024 22:00:00,26.071318,91.87488,CO,10,20,12
India,Assam,Guwahati,"IITG, Guwahati - PCBA",25-06-2024 22:00:00,26.2028636,91.70046436,NO2,NA,NA,NA
India,Assam,Guwahati,"IITG, Guwahati - PCBA",25-06-2024 22:00:00,26.2028636,91.70046436,SO2,NA,NA,NA
India,Assam,Guwahati,"LGBI Airport, Guwahati - PCBA",25-06-2024 22:00:00,26.10887,91.589544,PM2.5,7,349,113
India,Assam,Guwahati,"LGBI Airport, Guwahati - PCBA",25-06-2024 22:00:00,26.10887,91.589544,NH3,1,3,2
India,Assam,Guwahati,"LGBI Airport, Guwahati - PCBA",25-06-2024 22:00:00,26.10887,91.589544,OZONE,21,32,25
India,Assam,Guwahati,"Pan Bazaar, Guwahati - PCBA",25-06-2024 22:00:00,26.187500,91.744194,PM2.5,24,56,38
India,Assam,Guwahati,"Pan Bazaar, Guwahati - PCBA",25-06-2024 22:00:00,26.187500,91.744194,CO,15,48,28
India,Assam,Guwahati,"Railway Colony, Guwahati - PCBA",25-06-2024 22:00:00,26.181742,91.78063,PM2.5,20,83,51
India,Assam,Guwahati,"Railway Colony, Guwahati - PCBA",25-06-2024 22:00:00,26.181742,91.78063,OZONE,1,20,4
India,Assam,Nagaon,"Christianpatty, Nagaon - PCBA",25-06-2024 22:00:00,26.349082,92.68449,PM2.5,23,39,27
India,Assam,Nalbari,"Bata Chowk, Nalbari - PCBA",25-06-2024 22:00:00,26.446912,91.439057,PM10,NA,NA,NA
India,Assam,Silchar,"Tarapur, Silchar - PCBA",25-06-2024 22:00:00,24.82827,92.79525,NH3,1,1,1
India,Assam,Silchar,"Tarapur, Silchar - PCBA",25-06-2024 22:00:00,24.82827,92.79525,CO,16,32,21
India,Assam,Sivasagar,"Girls College, Sivasagar - PCBA",25-06-2024 22:00:00,26.987634,94.636574,NH3,1,2,2
India,Assam,Sivasagar,"Girls College, Sivasagar - PCBA",25-06-2024 22:00:00,26.987634,94.636574,CO,2,10,9
India,Bihar,Araria,"Kharahiya Basti, Araria - BSPCB",25-06-2024 22:00:00,26.146529,87.454184,PM2.5,NA,NA,NA
India,Bihar,Arrah,"New DM Office, Arrah - BSPCB",25-06-2024 22:00:00,25.5626095,84.663264,PM10,NA,NA,NA
India,Bihar,Aurangabad,"Gurdeo Nagar, Aurangabad - BSPCB",25-06-2024 22:00:00,24.75746,84.366208,PM2.5,NA,NA,NA
India,Bihar,Aurangabad,"Gurdeo Nagar, Aurangabad - BSPCB",25-06-2024 22:00:00,24.75746,84.366208,NO2,2,14,7
India,Bihar,Aurangabad,"Gurdeo Nagar, Aurangabad - BSPCB",25-06-2024 22:00:00,24.75746,84.366208,NH3,4,40,15
India,Bihar,Bettiah,"Kamalnath Nagar, Bettiah - BSPCB",25-06-2024 22:00:00,26.80365,84.51954,NH3,NA,NA,NA
India,Bihar,Bhagalpur,"DM Office_Kachari Chowk, Bhagalpur - BSPCB",25-06-2024 22:00:00,25.251013,86.989001,PM2.5,18,365,112
India,Bihar,Bhagalpur,"DM Office_Kachari Chowk, Bhagalpur - BSPCB",25-06-2024 22:00:00,25.251013,86.989001,PM10,72,335,125
India,Bihar,Bhagalpur,"DM Office_Kachari Chowk, Bhagalpur - BSPCB",25-06-2024 22:00:00,25.251013,86.989001,NH3,2,9,7
India,Bihar,Bhagalpur,"Mayaganj, Bhagalpur - BSPCB",25-06-2024 22:00:00,25.265194,87.012947,PM2.5,53,349,143
India,Bihar,Buxar,"Charitra Van, Buxar - BSPCB (Formerly known as Central Jail)",25-06-2024 22:00:00,25.567520,83.966379,PM10,NA,NA,NA
India,Bihar,Buxar,"Charitra Van, Buxar - BSPCB (Formerly known as Central Jail)",25-06-2024 22:00:00,25.567520,83.966379,OZONE,6,76,38
India,Bihar,Chhapra,"Darshan Nagar, Chhapra - BSPCB",25-06-2024 22:00:00,25.7808257,84.7446768,SO2,NA,NA,NA
India,Bihar,Chhapra,"Darshan Nagar, Chhapra - BSPCB",25-06-2024 22:00:00,25.7808257,84.7446768,CO,32,56,44
India,Bihar,Gaya,"Collectorate, Gaya - BSPCB",25-06-2024 22:00:00,24.7955,84.9994,PM2.5,37,341,134
India,Bihar,Gaya,"Collectorate, Gaya - BSPCB",25-06-2024 22:00:00,24.7955,84.9994,NO2,2,5,4
India,Bihar,Gaya,"Collectorate, Gaya - BSPCB",25-06-2024 22:00:00,24.7955,84.9994,SO2,2,23,9
India,Bihar,Gaya,"Collectorate, Gaya - BSPCB",25-06-2024 22:00:00,24.7955,84.9994,CO,20,38,25
India,Bihar,Gaya,"Kareemganj, Gaya - BSPCB",25-06-2024 22:00:00,24.792403,84.992416,NO2,29,32,31
India,Bihar,Gaya,"SFTI Kusdihra, Gaya - BSPCB",25-06-2024 22:00:00,24.762518,84.982348,SO2,4,12,9
India,Bihar,Gaya,"SFTI Kusdihra, Gaya - BSPCB",25-06-2024 22:00:00,24.762518,84.982348,OZONE,40,87,66
India,Bihar,Katihar,"Mirchaibari, Katihar - BSPCB",25-06-2024 22:00:00,25.560083,87.553265,NH3,1,1,1
India,Bihar,Kishanganj,"SDM Office_Khagra, Kishanganj - BSPCB",25-06-2024 22:00:00,26.0881305,87.93840336,NH3,6,10,6
India,Bihar,Kishanganj,"SDM Office_Khagra, Kishanganj - BSPCB",25-06-2024 22:00:00,26.0881305,87.93840336,OZONE,16,67,45
India,Bihar,Manguraha,"Forest Rest House, Manguraha - BSPCB",25-06-2024 22:00:00,27.308328,84.531742,NH3,2,3,2
India,Bihar,Manguraha,"Forest Rest House, Manguraha - BSPCB",25-06-2024 22:00:00,27.308328,84.531742,SO2,NA,NA,NA
India,Bihar,Motihari,"Gandak Colony, Motihari - BSPCB",25-06-2024 22:00:00,26.63086,84.90051,PM10,16,81,46
India,Bihar,Motihari,"Gandak Colony, Motihari - BSPCB",25-06-2024 22:00:00,26.63086,84.90051,NO2,10,27,18
India,Bihar,Muzaffarpur,"Buddha Colony, Muzaffarpur - BSPCB",25-06-2024 22:00:00,26.11442,85.39813,PM10,67,101,83
India,Bihar,Muzaffarpur,"Buddha Colony, Muzaffarpur - BSPCB",25-06-2024 22:00:00,26.11442,85.39813,NH3,3,8,5
India,Bihar,Patna,"DRM Office Danapur, Patna - BSPCB",25-06-2024 22:00:00,25.586562,85.043586,PM2.5,60,121,80
India,Bihar,Patna,"DRM Office Danapur, Patna - BSPCB",25-06-2024 22:00:00,25.586562,85.043586,SO2,1,7,3
India,Bihar,Patna,"DRM Office Danapur, Patna - BSPCB",25-06-2024 22:00:00,25.586562,85.043586,CO,25,46,36
India,Bihar,Patna,"Govt. High School Shikarpur, Patna - BSPCB",25-06-2024 22:00:00,25.592539,85.227158,SO2,9,11,10
India,Bihar,Patna,"IGSC Planetarium Complex, Patna - BSPCB",25-06-2024 22:00:00,25.610369,85.132568,CO,12,18,14
India,Bihar,Patna,"Rajbansi Nagar, Patna - BSPCB",25-06-2024 22:00:00,25.599486,85.113666,PM10,87,122,105
India,Bihar,Patna,"Samanpura, Patna - BSPCB",25-06-2024 22:00:00,25.596727,85.085624,SO2,2,3,3
India,Bihar,Purnia,"Mariam Nagar, Purnia - BSPCB",25-06-2024 22:00:00,25.366336,87.117468,PM2.5,NA,NA,NA
India,Bihar,Rajgir,"Dangi Tola, Rajgir - BSPCB",25-06-2024 22:00:00,25.03280,85.41948,NO2,14,16,15
India,Bihar,Rajgir,"Dangi Tola, Rajgir - BSPCB",25-06-2024 22:00:00,25.03280,85.41948,NH3,2,2,2
India,Bihar,Rajgir,"Dangi Tola, Rajgir - BSPCB",25-06-2024 22:00:00,25.03280,85.41948,OZONE,28,48,35
India,Bihar,Saharsa,"Police Line, Saharsa - BSPCB",25-06-2024 22:00:00,25.892357,86.590325,NO2,6,8,7
India,Bihar,Siwan,"Chitragupta Nagar, Siwan - BSPCB",25-06-2024 22:00:00,26.2271665,84.3570427,PM2.5,NA,NA,NA
India,Bihar,Siwan,"Chitragupta Nagar, Siwan - BSPCB",25-06-2024 22:00:00,26.2271665,84.3570427,PM10,NA,NA,NA
India,Bihar,Siwan,"Chitragupta Nagar, Siwan - BSPCB",25-06-2024 22:00:00,26.2271665,84.3570427,OZONE,4,160,17
India,Chandigarh,Chandigarh,"Sector 22, Chandigarh - CPCC",25-06-2024 22:00:00,30.735567,76.775714,NO2,19,59,34
India,Chandigarh,Chandigarh,"Sector 22, Chandigarh - CPCC",25-06-2024 22:00:00,30.735567,76.775714,SO2,3,52,15
India,Chandigarh,Chandigarh,"Sector 22, Chandigarh - CPCC",25-06-2024 22:00:00,30.735567,76.775714,CO,32,46,36
India,Chandigarh,Chandigarh,"Sector-25, Chandigarh - CPCC",25-06-2024 22:00:00,30.751462,76.762879,SO2,1,6,3
India,Chandigarh,Chandigarh,"Sector-25, Chandigarh - CPCC",25-06-2024 22:00:00,30.751462,76.762879,OZONE,7,44,34
India,Chandigarh,Chandigarh,"Sector-53, Chandigarh - CPCC",25-06-2024 22:00:00,30.719859,76.738637,OZONE,9,81,62
India,Chhattisgarh,Bhilai,"32Bungalows, Bhilai - CECB",25-06-2024 22:00:00,21.194815,81.314770,PM2.5,13,34,24
India,Chhattisgarh,Bhilai,"32Bungalows, Bhilai - CECB",25-06-2024 22:00:00,21.194815,81.314770,PM10,24,43,35
India,Chhattisgarh,Bhilai,"32Bungalows, Bhilai - CECB",25-06-2024 22:00:00,21.194815,81.314770,CO,8,19,12
India,Chhattisgarh,Bhilai,"Hathkhoj, Bhilai - CECB",25-06-2024 22:00:00,21.224231,81.408350,CO,8,76,19
India,Chhattisgarh,Chhal,"Nawapara SECL Colony, Chhal - CECB",25-06-2024 22:00:00,22.118125,83.140608,PM10,20,78,40
India,Chhattisgarh,Chhal,"Nawapara SECL Colony, Chhal - CECB",25-06-2024 22:00:00,22.118125,83.140608,NO2,7,20,12
India,Chhattisgarh,Chhal,"Nawapara SECL Colony, Chhal - CECB",25-06-2024 22:00:00,22.118125,83.140608,SO2,9,15,12
India,Chhattisgarh,Korba,"Rampur, Korba - CECB",25-06-2024 22:00:00,22.368195,82.746431,NO2,24,27,26
India,Chhattisgarh,Kunjemura,"OP Jindal School, Kunjemura - CECB",25-06-2024 22:00:00,22.126650,83.483212,NH3,2,5,2
India,Chhattisgarh,Kunjemura,"OP Jindal School, Kunjemura - CECB",25-06-2024 22:00:00,22.126650,83.483212,SO2,1,7,4
India,Chhattisgarh,Milupara,"Govt. Higher Secondary School, Milupara - CECB",25-06-2024 22:00:00,22.1910172,83.5197009,PM10,NA,NA,NA
India,Chhattisgarh,Milupara,"Govt. Higher Secondary School, Milupara - CECB",25-06-2024 22:00:00,22.1910172,83.5197009,OZONE,70,90,78
India,Chhattisgarh,Raipur,"AIIMS, Raipur - CECB",25-06-2024 22:00:00,21.258815,81.578979,NO2,12,23,16
India,Chhattisgarh,Raipur,"AIIMS, Raipur - CECB",25-06-2024 22:00:00,21.258815,81.578979,NH3,6,6,6
India,Chhattisgarh,Raipur,"Bhatagaon New ISBT, Raipur - CECB",25-06-2024 22:00:00,21.219665,81.630094,SO2,5,7,5
India,Chhattisgarh,Raipur,"Krishak Nagar, Raipur - CECB",25-06-2024 22:00:00,21.237755,81.705301,PM10,12,30,19
India,Chhattisgarh,Raipur,"Krishak Nagar, Raipur - CECB",25-06-2024 22:00:00,21.237755,81.705301,OZONE,6,52,33
India,Chhattisgarh,Raipur,"Siltara Phase-II, Raipur - CECB",25-06-2024 22:00:00,21.371751,81.664929,PM2.5,50,74,61
India,Chhattisgarh,Raipur,"Siltara Phase-II, Raipur - CECB",25-06-2024 22:00:00,21.371751,81.664929,NH3,3,3,3
India,Chhattisgarh,Raipur,"Siltara Phase-II, Raipur - CECB",25-06-2024 22:00:00,21.371751,81.664929,SO2,NA,NA,NA
India,Chhattisgarh,Tumidih,"OP Jindal Industrial Park, Tumidih - CECB",25-06-2024 22:00:00,22.06631475,83.33820077,SO2,NA,NA,NA
India,Delhi,Delhi,"Anand Vihar, Delhi - DPCC",25-06-2024 22:00:00,28.647622,77.3158090,NO2,46,83,66
India,Delhi,Delhi,"Ashok Vihar, Delhi - DPCC",25-06-2024 22:00:00,28.695381,77.181665,NO2,26,90,47
India,Delhi,Delhi,"Ashok Vihar, Delhi - DPCC",25-06-2024 22:00:00,28.695381,77.181665,OZONE,2,247,85
India,Delhi,Delhi,"Bawana, Delhi - DPCC",25-06-2024 22:00:00,28.776200,77.051074,PM2.5,79,323,190
India,Delhi,Delhi,"Bawana, Delhi - DPCC",25-06-2024 22:00:00,28.776200,77.051074,PM10,86,209,147
India,Delhi,Delhi,"Bawana, Delhi - DPCC",25-06-2024 22:00:00,28.776200,77.051074,OZONE,8,107,46
India,Delhi,Delhi,"CRRI Mathura Road, Delhi - IMD",25-06-2024 22:00:00,28.5512005,77.2735737,CO,24,43,28
India,Delhi,Delhi,"Chandni Chowk, Delhi - IITM",25-06-2024 22:00:00,28.656756,77.227234,NO2,24,24,24
India,Delhi,Delhi,"DTU, Delhi - CPCB",25-06-2024 22:00:00,28.7500499,77.1112615,SO2,41,44,42
India,Delhi,Delhi,"DTU, Delhi - CPCB",25-06-2024 22:00:00,28.7500499,77.1112615,OZONE,28,120,83
India,Delhi,Delhi,"Dr. Karni Singh Shooting Range, Delhi - DPCC",25-06-2024 22:00:00,28.498571,77.264840,CO,36,54,37
India,Delhi,Delhi,"Dwarka-Sector 8, Delhi - DPCC ",25-06-2024 22:00:00,28.5710274,77.0719006,PM2.5,67,197,119
India,Delhi,Delhi,"Dwarka-Sector 8, Delhi - DPCC ",25-06-2024 22:00:00,28.5710274,77.0719006,SO2,9,13,11
India,Delhi,Delhi,"IGI Airport (T3), Delhi - IMD",25-06-2024 22:00:00,28.5627763,77.1180053,NO2,22,39,31
India,Delhi,Delhi,"ITO, Delhi - CPCB",25-06-2024 22:00:00,28.628624,77.241060,NH3,3,5,4
India,Delhi,Delhi,"ITO, Delhi - CPCB",25-06-2024 22:00:00,28.628624,77.241060,CO,26,94,52
India,Delhi,Delhi,"Jahangirpuri, Delhi - DPCC",25-06-2024 22:00:00,28.732820,77.170633,NH3,2,4,3
India,Delhi,Delhi,"Jahangirpuri, Delhi - DPCC",25-06-2024 22:00:00,28.732820,77.170633,CO,55,102,68
India,Delhi,Delhi,"Jahangirpuri, Delhi - DPCC",25-06-2024 22:00:00,28.732820,77.170633,OZONE,2,99,62
India,Delhi,Delhi,"NSIT Dwarka, Delhi - CPCB",25-06-2024 22:00:00,28.60909,77.0325413,PM2.5,NA,NA,NA
India,Delhi,Delhi,"NSIT Dwarka, Delhi - CPCB",25-06-2024 22:00:00,28.60909,77.0325413,SO2,2,35,16
India,Delhi,Delhi,"NSIT Dwarka, Delhi - CPCB",25-06-2024 22:00:00,28.60909,77.0325413,CO,44,88,62
India,Delhi,Delhi,"NSIT Dwarka, Delhi - CPCB",25-06-2024 22:00:00,28.60909,77.0325413,OZONE,2,37,27
India,Delhi,Delhi,"Najafgarh, Delhi - DPCC",25-06-2024 22:00:00,28.570173,76.933762,PM2.5,66,140,92
India,Delhi,Delhi,"Najafgarh, Delhi - DPCC",25-06-2024 22:00:00,28.570173,76.933762,NH3,8,29,16
India,Delhi,Delhi,"Najafgarh, Delhi - DPCC",25-06-2024 22:00:00,28.570173,76.933762,SO2,7,23,14
India,Delhi,Delhi,"Najafgarh, Delhi - DPCC",25-06-2024 22:00:00,28.570173,76.933762,CO,44,80,47
India,Delhi,Delhi,"Narela, Delhi - DPCC",25-06-2024 22:00:00,28.822836,77.101981,SO2,2,4,3
India,Delhi,Delhi,"Nehru Nagar, Delhi - DPCC",25-06-2024 22:00:00,28.567890,77.250515,NO2,6,43,22
India,Delhi,Delhi,"Nehru Nagar, Delhi - DPCC",25-06-2024 22:00:00,28.567890,77.250515,NH3,2,3,3
India,Delhi,Delhi,"Nehru Nagar, Delhi - DPCC",25-06-2024 22:00:00,28.567890,77.250515,OZONE,7,105,75
India,Delhi,Delhi,"New Moti Bagh, Delhi - MHUA",25-06-2024 22:00:00,28.57834,77.18400,PM2.5,NA,NA,NA
India,Delhi,Delhi,"Patparganj, Delhi - DPCC",25-06-2024 22:00:00,28.623763,77.287209,PM2.5,27,110,61
India,Delhi,Delhi,"Patparganj, Delhi - DPCC",25-06-2024 22:00:00,28.623763,77.287209,CO,20,108,58
India,Delhi,Delhi,"Punjabi Bagh, Delhi - DPCC",25-06-2024 22:00:00,28.674045,77.131023,PM2.5,NA,NA,NA
India,Delhi,Delhi,"Punjabi Bagh, Delhi - DPCC",25-06-2024 22:00:00,28.674045,77.131023,OZONE,10,133,81
India,Delhi,Delhi,"Pusa, Delhi - DPCC",25-06-2024 22:00:00,28.639652,77.146275,PM2.5,70,177,104
India,Delhi,Delhi,"Pusa, Delhi - DPCC",25-06-2024 22:00:00,28.639652,77.146275,PM10,101,197,132
India,Delhi,Delhi,"Pusa, Delhi - DPCC",25-06-2024 22:00:00,28.639652,77.146275,OZONE,1,11,5
India,Delhi,Delhi,"R K Puram, Delhi - DPCC",25-06-2024 22:00:00,28.563262,77.186937,NO2,10,30,18
India,Delhi,Delhi,"R K Puram, Delhi - DPCC",25-06-2024 22:00:00,28.563262,77.186937,SO2,12,19,14
India,Delhi,Delhi,"Shadipur, Delhi - CPCB",25-06-2024 22:00:00,28.6514781,77.1473105,PM2.5,48,174,79
India,Delhi,Delhi,"Shadipur, Delhi - CPCB",25-06-2024 22:00:00,28.6514781,77.1473105,PM10,68,161,100
India,Delhi,Delhi,"Shadipur, Delhi - CPCB",25-06-2024 22:00:00,28.6514781,77.1473105,NO2,45,142,64
India,Delhi,Delhi,"Sirifort, Delhi - CPCB",25-06-2024 22:00:00,28.5504249,77.2159377,PM10,86,159,115
India,Delhi,Delhi,"Sirifort, Delhi - CPCB",25-06-2024 22:00:00,28.5504249,77.2159377,NO2,42,56,50
India,Delhi,Delhi,"Sonia Vihar, Delhi - DPCC",25-06-2024 22:00:00,28.710508,77.249485,PM10,91,212,131
India,Delhi,Delhi,"Sonia Vihar, Delhi - DPCC",25-06-2024 22:00:00,28.710508,77.249485,CO,14,40,21
India,Delhi,Delhi,"Sri Aurobindo Marg, Delhi - DPCC",25-06-2024 22:00:00,28.531346,77.190156,CO,46,70,59
India,Delhi,Delhi,"Vivek Vihar, Delhi - DPCC",25-06-2024 22:00:00,28.672342,77.315260,NH3,7,18,14
India,Delhi,Delhi,"Vivek Vihar, Delhi - DPCC",25-06-2024 22:00:00,28.672342,77.315260,CO,65,98,83
India,Delhi,Delhi,"Wazirpur, Delhi - DPCC",25-06-2024 22:00:00,28.699793,77.165453,SO2,10,42,20
India,Delhi,Delhi,"Wazirpur, Delhi - DPCC",25-06-2024 22:00:00,28.699793,77.165453,OZONE,2,19,12
India,Gujarat,Ahmedabad,"Chandkheda, Ahmedabad - IITM",25-06-2024 22:00:00,23.107969,72.574648,SO2,7,15,11
India,Gujarat,Ahmedabad,"Gyaspur, Ahmedabad - IITM",25-06-2024 22:00:00,22.977134,72.553024,PM10,NA,NA,NA
India,Gujarat,Ahmedabad,"Maninagar, Ahmedabad - GPCB",25-06-2024 22:00:00,23.002657,72.591912,NO2,18,76,37
India,Gujarat,Ahmedabad,"Maninagar, Ahmedabad - GPCB",25-06-2024 22:00:00,23.002657,72.591912,OZONE,77,165,138
India,Gujarat,Ahmedabad,"Raikhad, Ahmedabad - IITM",25-06-2024 22:00:00,23.020509,72.579261,PM2.5,NA,NA,NA
India,Gujarat,Ahmedabad,"Rakhial, Ahmedabad - IITM",25-06-2024 22:00:00,23.016834,72.625775,NO2,12,59,23
India,Gujarat,Ahmedabad,"Rakhial, Ahmedabad - IITM",25-06-2024 22:00:00,23.016834,72.625775,CO,14,32,21
India,Gujarat,Ahmedabad,"SVPI Airport Hansol, Ahmedabad - IITM",25-06-2024 22:00:00,23.076793,72.627874,PM10,NA,NA,NA
India,Gujarat,Ahmedabad,"SVPI Airport Hansol, Ahmedabad - IITM",25-06-2024 22:00:00,23.076793,72.627874,SO2,NA,NA,NA
India,Gujarat,Ahmedabad,"SVPI Airport Hansol, Ahmedabad - IITM",25-06-2024 22:00:00,23.076793,72.627874,OZONE,NA,NA,NA
India,Gujarat,Ahmedabad,"Sardar Vallabhbhai Patel Stadium, Ahmedabad - IITM",25-06-2024 22:00:00,23.043070,72.562968,NO2,16,54,31
India,Gujarat,Ahmedabad,"Sardar Vallabhbhai Patel Stadium, Ahmedabad - IITM",25-06-2024 22:00:00,23.043070,72.562968,NH3,4,7,6
India,Gujarat,Ahmedabad,"Sardar Vallabhbhai Patel Stadium, Ahmedabad - IITM",25-06-2024 22:00:00,23.043070,72.562968,OZONE,11,26,20
India,Gujarat,Gandhinagar,"Sector-10, Gandhinagar - GPCB",25-06-2024 22:00:00,23.221714,72.654328,NH3,2,2,2
India,Gujarat,Nandesari,"GIDC, Nandesari - Nandesari Ind. Association",25-06-2024 22:00:00,22.410802,73.097923,PM10,101,272,158
India,Gujarat,Vapi,"Phase-1 GIDC, Vapi - GPCB",25-06-2024 22:00:00,20.362421,72.918013,PM10,20,82,48
India,Gujarat,Vapi,"Phase-1 GIDC, Vapi - GPCB",25-06-2024 22:00:00,20.362421,72.918013,NO2,6,7,6
India,Gujarat,Vatva,"Phase-4 GIDC, Vatva - GPCB",25-06-2024 22:00:00,22.969611,72.643500,NO2,28,109,58
India,Haryana,Ambala,"Patti Mehar, Ambala - HSPCB",25-06-2024 22:00:00,30.379589,76.778328,PM10,30,95,47
India,Haryana,Ambala,"Patti Mehar, Ambala - HSPCB",25-06-2024 22:00:00,30.379589,76.778328,NH3,5,12,9
India,Haryana,Ambala,"Patti Mehar, Ambala - HSPCB",25-06-2024 22:00:00,30.379589,76.778328,CO,29,61,41
India,Haryana,Bahadurgarh,"Arya Nagar, Bahadurgarh - HSPCB",25-06-2024 22:00:00,28.6701,76.9254,SO2,2,3,2
India,Haryana,Bahadurgarh,"Arya Nagar, Bahadurgarh - HSPCB",25-06-2024 22:00:00,28.6701,76.9254,OZONE,31,42,36
India,Haryana,Ballabgarh,"Nathu Colony, Ballabgarh - HSPCB",25-06-2024 22:00:00,28.3419248,77.319699,NH3,1,2,2
India,Haryana,Ballabgarh,"Nathu Colony, Ballabgarh - HSPCB",25-06-2024 22:00:00,28.3419248,77.319699,SO2,1,2,2
India,Haryana,Charkhi Dadri,"Mini Secretariat, Charkhi Dadri - HSPCB",25-06-2024 22:00:00,28.593883,76.270653,PM2.5,6,500,172
India,Haryana,Charkhi Dadri,"Mini Secretariat, Charkhi Dadri - HSPCB",25-06-2024 22:00:00,28.593883,76.270653,NO2,14,24,18
India,Haryana,Charkhi Dadri,"Mini Secretariat, Charkhi Dadri - HSPCB",25-06-2024 22:00:00,28.593883,76.270653,NH3,6,8,7
India,Haryana,Dharuhera,"Municipal Corporation Office, Dharuhera -  HSPCB",25-06-2024 22:00:00,28.206800,76.799700,PM10,NA,NA,NA
India,Haryana,Faridabad,"New Industrial Town, Faridabad - HSPCB",25-06-2024 22:00:00,28.39072,77.30059,CO,10,32,17
India,Haryana,Faridabad,"Sector 30, Faridabad - HSPCB",25-06-2024 22:00:00,28.4417,77.3217,OZONE,5,24,7
India,Haryana,Faridabad,"Sector- 16A, Faridabad - HSPCB",25-06-2024 22:00:00,28.4088421,77.3099081,CO,40,62,53
India,Haryana,Fatehabad,"Huda Sector, Fatehabad - HSPCB",25-06-2024 22:00:00,29.503664,75.467934,SO2,9,18,13
India,Haryana,Gurugram,"NISE Gwal Pahari, Gurugram - IMD",25-06-2024 22:00:00,28.422681,77.148944,PM2.5,11,92,55
India,Haryana,Gurugram,"Sector-51, Gurugram - HSPCB",25-06-2024 22:00:00,28.4227,77.0667,NO2,13,29,23
India,Haryana,Gurugram,"Sector-51, Gurugram - HSPCB",25-06-2024 22:00:00,28.4227,77.0667,SO2,2,4,3
India,Haryana,Gurugram,"Teri Gram, Gurugram - HSPCB",25-06-2024 22:00:00,28.4275,77.1465,SO2,2,5,4
India,Haryana,Hisar,"Urban Estate-II, Hisar - HSPCB",25-06-2024 22:00:00,29.140560,75.744941,NO2,9,13,10
India,Haryana,Jind,"Police Lines, Jind - HSPCB",25-06-2024 22:00:00,29.307814,76.337619,PM2.5,43,63,53
India,Haryana,Jind,"Police Lines, Jind - HSPCB",25-06-2024 22:00:00,29.307814,76.337619,PM10,36,238,84
India,Haryana,Kaithal,"Rishi Nagar, Kaithal - HSPCB",25-06-2024 22:00:00,29.8006,76.4155,NO2,24,26,25
India,Haryana,Karnal,"Sector-12, Karnal - HSPCB",25-06-2024 22:00:00,29.695300,77.002700,NO2,7,12,10
India,Haryana,Kurukshetra,"Sector-7, Kurukshetra - HSPCB",25-06-2024 22:00:00,29.966942,76.875879,PM2.5,55,123,83
India,Haryana,Kurukshetra,"Sector-7, Kurukshetra - HSPCB",25-06-2024 22:00:00,29.966942,76.875879,OZONE,73,91,84
India,Haryana,Manesar,"Sector-2 IMT, Manesar - HSPCB",25-06-2024 22:00:00,28.360699,76.936090,PM2.5,51,125,79
India,Haryana,Manesar,"Sector-2 IMT, Manesar - HSPCB",25-06-2024 22:00:00,28.360699,76.936090,NO2,21,28,24
India,Haryana,Manesar,"Sector-2 IMT, Manesar - HSPCB",25-06-2024 22:00:00,28.360699,76.936090,OZONE,6,39,34
India,Haryana,Narnaul,"Shastri Nagar, Narnaul - HSPCB",25-06-2024 22:00:00,28.060249,76.113115,PM10,31,76,45
India,Haryana,Narnaul,"Shastri Nagar, Narnaul - HSPCB",25-06-2024 22:00:00,28.060249,76.113115,CO,16,32,18
India,Haryana,Narnaul,"Shastri Nagar, Narnaul - HSPCB",25-06-2024 22:00:00,28.060249,76.113115,OZONE,24,75,59
India,Haryana,Palwal,"Shyam Nagar, Palwal - HSPCB",25-06-2024 22:00:00,28.1485564,77.3320667,PM2.5,46,84,63
India,Haryana,Panipat,"Sector-18, Panipat - HSPCB",25-06-2024 22:00:00,29.432304,76.972765,CO,24,26,25
India,Haryana,Rohtak,"MD University, Rohtak - HSPCB",25-06-2024 22:00:00,28.52123,76.37138,NO2,46,56,51
India,Haryana,Sirsa,"F-Block, Sirsa - HSPCB",25-06-2024 22:00:00,29.536400,75.015800,PM10,87,189,107
India,Haryana,Sonipat,"Murthal, Sonipat - HSPCB",25-06-2024 22:00:00,29.027200,77.062100,SO2,13,29,20
India,Haryana,Sonipat,"Murthal, Sonipat - HSPCB",25-06-2024 22:00:00,29.027200,77.062100,CO,24,26,25
India,Himachal Pradesh,Baddi,"HIMUDA Complex Phase-1, Baddi - HPPCB",25-06-2024 22:00:00,30.943887,76.801991,CO,17,46,23
India,Jammu_and_Kashmir,Srinagar,"Rajbagh, Srinagar - JKSPCB",25-06-2024 22:00:00,34.066206,74.819820,NH3,NA,NA,NA
India,Jharkhand,Dhanbad,"Kalakusuma, Dhanbad - DMC",25-06-2024 22:00:00,23.811548,86.481238,PM10,12,91,57
India,Jharkhand,Dhanbad,"Kalakusuma, Dhanbad - DMC",25-06-2024 22:00:00,23.811548,86.481238,SO2,NA,NA,NA
India,Jharkhand,Dhanbad,"Kalakusuma, Dhanbad - DMC",25-06-2024 22:00:00,23.811548,86.481238,OZONE,27,88,61
India,Jharkhand,Dhanbad,"Sardar Patel Nagar, Dhanbad - JSPCB",25-06-2024 22:00:00,23.80569,86.44268,PM10,29,105,69
India,Jharkhand,Pathardih,"Mohalbani Ghat, Pathardih - DMC",25-06-2024 22:00:00,23.669880,86.411725,PM10,10,111,79
India,Karnataka,Bagalkot,"Vidayagiri, Bagalkot - KSPCB",25-06-2024 22:00:00,16.172806,75.659694,PM2.5,25,37,36
India,Karnataka,Bagalkot,"Vidayagiri, Bagalkot - KSPCB",25-06-2024 22:00:00,16.172806,75.659694,CO,18,48,38
India,Karnataka,Belgaum,"Ramteerth Nagar, Belgaum - KSPCB",25-06-2024 22:00:00,15.888653,74.541751,NH3,6,10,8
India,Karnataka,Belgaum,"Ramteerth Nagar, Belgaum - KSPCB",25-06-2024 22:00:00,15.888653,74.541751,CO,48,59,52
India,Karnataka,Bengaluru,"Bapuji Nagar, Bengaluru - KSPCB",25-06-2024 22:00:00,12.951913,77.539784,PM2.5,20,123,34
India,Karnataka,Bengaluru,"Bapuji Nagar, Bengaluru - KSPCB",25-06-2024 22:00:00,12.951913,77.539784,OZONE,29,43,37
India,Karnataka,Bengaluru,"City Railway Station, Bengaluru - KSPCB",25-06-2024 22:00:00,12.9756843,77.5660749,SO2,20,21,21
India,Karnataka,Bengaluru,"Hebbal, Bengaluru - KSPCB",25-06-2024 22:00:00,13.029152,77.585901,NO2,6,7,7
India,Karnataka,Bengaluru,"Hombegowda Nagar, Bengaluru - KSPCB",25-06-2024 22:00:00,12.938539,77.590100,NO2,8,16,12
India,Karnataka,Bengaluru,"Jayanagar 5th Block, Bengaluru - KSPCB",25-06-2024 22:00:00,12.920984,77.584908,NH3,1,2,2
India,Karnataka,Bengaluru,"Jigani, Bengaluru - KSPCB",25-06-2024 22:00:00,12.7816279,77.6299145,NH3,NA,NA,NA
India,Karnataka,Bengaluru,"Kasturi Nagar, Bengaluru - KSPCB",25-06-2024 22:00:00,13.003872,77.664217,NH3,3,4,4
India,Karnataka,Bengaluru,"Kasturi Nagar, Bengaluru - KSPCB",25-06-2024 22:00:00,13.003872,77.664217,SO2,9,10,10
India,Karnataka,Bengaluru,"Peenya, Bengaluru - CPCB",25-06-2024 22:00:00,13.0270199,77.494094,SO2,13,16,15
India,Karnataka,Bengaluru,"Sanegurava Halli, Bengaluru - KSPCB",25-06-2024 22:00:00,12.990328,77.5431385,PM10,34,70,45
India,Karnataka,Bengaluru,"Sanegurava Halli, Bengaluru - KSPCB",25-06-2024 22:00:00,12.990328,77.5431385,CO,13,90,23
India,Karnataka,Bengaluru,"Shivapura_Peenya, Bengaluru - KSPCB",25-06-2024 22:00:00,13.0246342,77.5080115,PM10,32,66,44
India,Karnataka,Bengaluru,"Shivapura_Peenya, Bengaluru - KSPCB",25-06-2024 22:00:00,13.0246342,77.5080115,NH3,4,4,4
India,Karnataka,Bengaluru,"Silk Board, Bengaluru - KSPCB",25-06-2024 22:00:00,12.917348,77.622813,SO2,2,16,9
India,Karnataka,Bidar,"Naubad, Bidar - KSPCB",25-06-2024 22:00:00,17.930306,77.482194,SO2,NA,NA,NA
India,Karnataka,Bidar,"Naubad, Bidar - KSPCB",25-06-2024 22:00:00,17.930306,77.482194,CO,70,86,77
India,Karnataka,Bidar,"Naubad, Bidar - KSPCB",25-06-2024 22:00:00,17.930306,77.482194,OZONE,6,10,9
India,Karnataka,Chamarajanagar,"Urban, Chamarajanagar - KSPCB",25-06-2024 22:00:00,11.55358,76.55521,SO2,2,6,4
India,Karnataka,Chamarajanagar,"Urban, Chamarajanagar - KSPCB",25-06-2024 22:00:00,11.55358,76.55521,OZONE,14,35,26
India,Karnataka,Chikkamagaluru,"Kalyana Nagara, Chikkamagaluru - KSPCB",25-06-2024 22:00:00,13.328028,75.797056,PM2.5,14,77,29
India,Karnataka,Chikkamagaluru,"Kalyana Nagara, Chikkamagaluru - KSPCB",25-06-2024 22:00:00,13.328028,75.797056,OZONE,15,19,18
India,Karnataka,Davanagere,"Devaraj Urs Badavane, Davanagere - KSPCB",25-06-2024 22:00:00,14.475800,75.905200,PM2.5,NA,NA,NA
India,Karnataka,Davanagere,"Devaraj Urs Badavane, Davanagere - KSPCB",25-06-2024 22:00:00,14.475800,75.905200,NO2,NA,NA,NA
India,Karnataka,Davanagere,"Devaraj Urs Badavane, Davanagere - KSPCB",25-06-2024 22:00:00,14.475800,75.905200,OZONE,18,22,22
India,Karnataka,Dharwad,"Kalabhavan, Dharwad - KSPCB",25-06-2024 22:00:00,15.459706,75.008381,PM2.5,18,73,41
India,Karnataka,Dharwad,"Kalabhavan, Dharwad - KSPCB",25-06-2024 22:00:00,15.459706,75.008381,CO,16,72,56
India,Karnataka,Gadag,"Panchal Nagar, Gadag - KSPCB",25-06-2024 22:00:00,15.411456,75.638133,SO2,10,16,13
India,Karnataka,Hassan,"B.Katihalli, Hassan - KSPCB",25-06-2024 22:00:00,13.008556,76.125258,PM2.5,8,48,35
India,Karnataka,Hassan,"B.Katihalli, Hassan - KSPCB",25-06-2024 22:00:00,13.008556,76.125258,PM10,25,68,47
India,Karnataka,Hassan,"B.Katihalli, Hassan - KSPCB",25-06-2024 22:00:00,13.008556,76.125258,OZONE,9,20,15
India,Karnataka,Haveri,"Ashwini Nagar, Haveri - KSPCB",25-06-2024 22:00:00,14.791800,75.389600,PM10,NA,NA,NA
India,Karnataka,Hubballi,"Lingaraj Nagar, Hubballi - KSPCB",25-06-2024 22:00:00,15.3714823,75.1160168,PM2.5,33,46,39
India,Karnataka,Hubballi,"Lingaraj Nagar, Hubballi - KSPCB",25-06-2024 22:00:00,15.3714823,75.1160168,OZONE,16,30,18
India,Karnataka,Kalaburagi,"Mahatma Basaveswar Colony, Kalaburgi - KSPCB",25-06-2024 22:00:00,17.336318,76.847397,CO,24,36,31
India,Karnataka,Karwar,"KHB Colony, Karwar - KSPCB",25-06-2024 22:00:00,14.816666,74.141003,PM10,18,62,31
India,Karnataka,Kolar,"Tamaka Ind. Area, Kolar - KSPCB",25-06-2024 22:00:00,13.1276288,78.1570122,SO2,10,12,10
India,Karnataka,Koppal,"Diwator Nagar, Koppal - KSPCB",25-06-2024 22:00:00,15.347630,76.181767,NO2,37,68,50
India,Karnataka,Madikeri,"Stuart Hill, Madikeri - KSPCB",25-06-2024 22:00:00,12.415911,75.735050,PM2.5,14,28,22
India,Karnataka,Madikeri,"Stuart Hill, Madikeri - KSPCB",25-06-2024 22:00:00,12.415911,75.735050,NH3,NA,NA,NA
India,Karnataka,Madikeri,"Stuart Hill, Madikeri - KSPCB",25-06-2024 22:00:00,12.415911,75.735050,CO,2,26,12
India,Karnataka,Mangalore,"Kadri, Mangalore - KSPCB",25-06-2024 22:00:00,12.889250,74.853000,NH3,1,2,2
India,Karnataka,Mysuru,"Hebbal 1st Stage, Mysuru - KSPCB",25-06-2024 22:00:00,12.21041,76.37376,PM2.5,8,49,19
India,Karnataka,Mysuru,"Hebbal 1st Stage, Mysuru - KSPCB",25-06-2024 22:00:00,12.21041,76.37376,PM10,19,65,33
India,Karnataka,Mysuru,"Hebbal 1st Stage, Mysuru - KSPCB",25-06-2024 22:00:00,12.21041,76.37376,SO2,NA,NA,NA
India,Karnataka,Raichur,"Haji Colony, Raichur - KSPCB",25-06-2024 22:00:00,16.208139,77.348417,CO,98,105,103
India,Karnataka,Raichur,"Haji Colony, Raichur - KSPCB",25-06-2024 22:00:00,16.208139,77.348417,OZONE,1,19,6
India,Karnataka,Ramanagara,"Vijay Nagar, Ramanagara - KSPCB",25-06-2024 22:00:00,12.733409,77.298051,PM10,6,28,18
India,Karnataka,Tumakuru,"Thimmalapura, Tumakuru - KSPCB",25-06-2024 22:00:00,13.377516,77.099072,SO2,6,10,7
India,Karnataka,Udupi,"Brahmagiri, Udupi - KSPCB",25-06-2024 22:00:00,13.34194444,74.74694444,PM2.5,NA,NA,NA
India,Karnataka,Udupi,"Brahmagiri, Udupi - KSPCB",25-06-2024 22:00:00,13.34194444,74.74694444,NO2,NA,NA,NA
India,Karnataka,Udupi,"Brahmagiri, Udupi - KSPCB",25-06-2024 22:00:00,13.34194444,74.74694444,SO2,NA,NA,NA
India,Kerala,Kannur,"Thavakkara, Kannur - Kerala PCB",25-06-2024 22:00:00,11.875000,75.373200,OZONE,29,30,29
India,Kerala,Kollam,"Polayathode, Kollam - Kerala PCB",25-06-2024 22:00:00,8.8787,76.6073,SO2,NA,NA,NA
India,Kerala,Thiruvananthapuram,"Kariavattom, Thiruvananthapuram - Kerala PCB",25-06-2024 22:00:00,8.563700,76.886500,PM2.5,30,38,34
India,Kerala,Thiruvananthapuram,"Kariavattom, Thiruvananthapuram - Kerala PCB",25-06-2024 22:00:00,8.563700,76.886500,SO2,1,10,5
India,Kerala,Thrissur,"Corporation Ground, Thrissur - Kerala PCB",25-06-2024 22:00:00,10.532400,76.215900,NH3,NA,NA,NA
India,Kerala,Thrissur,"Corporation Ground, Thrissur - Kerala PCB",25-06-2024 22:00:00,10.532400,76.215900,SO2,NA,NA,NA
India,Kerala,Thrissur,"Corporation Ground, Thrissur - Kerala PCB",25-06-2024 22:00:00,10.532400,76.215900,CO,88,183,183
India,Kerala,Thrissur,"Corporation Ground, Thrissur - Kerala PCB",25-06-2024 22:00:00,10.532400,76.215900,OZONE,27,32,29
India,Madhya Pradesh,Bhopal,"Idgah Hills, Bhopal - MPPCB",25-06-2024 22:00:00,23.264759,77.381568,NO2,8,28,16
India,Madhya Pradesh,Bhopal,"Idgah Hills, Bhopal - MPPCB",25-06-2024 22:00:00,23.264759,77.381568,NH3,3,5,3
India,Madhya Pradesh,Bhopal,"Idgah Hills, Bhopal - MPPCB",25-06-2024 22:00:00,23.264759,77.381568,SO2,6,11,10
India,Madhya Pradesh,Bhopal,"Paryavaran Parisar, Bhopal - MPPCB",25-06-2024 22:00:00,23.210494,77.425409,SO2,7,8,7
India,Madhya Pradesh,Bhopal,"T T Nagar, Bhopal - MPPCB",25-06-2024 22:00:00,23.233584,77.400574,PM2.5,11,37,21
India,Madhya Pradesh,Bhopal,"T T Nagar, Bhopal - MPPCB",25-06-2024 22:00:00,23.233584,77.400574,OZONE,7,27,20
India,Madhya Pradesh,Dewas,"Bhopal Chauraha, Dewas - MPPCB",25-06-2024 22:00:00,22.9682591,76.064118,PM10,NA,NA,NA
India,Madhya Pradesh,Dewas,"Bhopal Chauraha, Dewas - MPPCB",25-06-2024 22:00:00,22.9682591,76.064118,CO,24,46,37
India,Madhya Pradesh,Gwalior,"City Center, Gwalior - MPPCB",25-06-2024 22:00:00,26.203442,78.193251,NH3,2,2,2
India,Madhya Pradesh,Gwalior,"Phool Bagh, Gwalior - Mondelez Ind. Food",25-06-2024 22:00:00,26.210536,78.171,NO2,3,5,4
India,Madhya Pradesh,Indore,"Maguda Nagar, Indore - IMC",25-06-2024 22:00:00,22.7524,75.8872,OZONE,1,4,3
India,Madhya Pradesh,Indore,"Regional Park, Indore - IMC",25-06-2024 22:00:00,22.6780,75.8559,PM2.5,11,42,26
India,Madhya Pradesh,Indore,"Residency Area, Indore - IMC",25-06-2024 22:00:00,22.7084,75.8815,NO2,25,31,29
India,Madhya Pradesh,Jabalpur,"Govindh Bhavan Colony, Jabalpur - JMC",25-06-2024 22:00:00,23.163174,79.973061,PM10,37,66,51
India,Madhya Pradesh,Jabalpur,"Govindh Bhavan Colony, Jabalpur - JMC",25-06-2024 22:00:00,23.163174,79.973061,NO2,7,12,10
India,Madhya Pradesh,Jabalpur,"Govindh Bhavan Colony, Jabalpur - JMC",25-06-2024 22:00:00,23.163174,79.973061,SO2,NA,NA,NA
India,Madhya Pradesh,Jabalpur,"Gupteshwar, Jabalpur - JMC",25-06-2024 22:00:00,23.142888,79.916147,PM10,43,57,51
India,Madhya Pradesh,Jabalpur,"Gupteshwar, Jabalpur - JMC",25-06-2024 22:00:00,23.142888,79.916147,SO2,6,15,9
India,Madhya Pradesh,Jabalpur,"Gupteshwar, Jabalpur - JMC",25-06-2024 22:00:00,23.142888,79.916147,CO,9,34,23
India,Madhya Pradesh,Jabalpur,"Marhatal, Jabalpur - MPPCB",25-06-2024 22:00:00,23.168606,79.932247,CO,41,68,56
India,Madhya Pradesh,Katni,"Gole Bazar, Katni - MPPCB",25-06-2024 22:00:00,23.50016,80.23284,NH3,3,4,3
India,Madhya Pradesh,Katni,"Gole Bazar, Katni - MPPCB",25-06-2024 22:00:00,23.50016,80.23284,SO2,12,58,24
India,Madhya Pradesh,Maihar,"Sahilara, Maihar - KJS Cements",25-06-2024 22:00:00,24.2613009,80.7231783,CO,9,33,30
India,Madhya Pradesh,Mandideep,"Sector-D Industrial Area, Mandideep - MPPCB",25-06-2024 22:00:00,23.108440,77.511428,PM10,15,101,39
India,Madhya Pradesh,Mandideep,"Sector-D Industrial Area, Mandideep - MPPCB",25-06-2024 22:00:00,23.108440,77.511428,NO2,11,36,18
India,Madhya Pradesh,Mandideep,"Sector-D Industrial Area, Mandideep - MPPCB",25-06-2024 22:00:00,23.108440,77.511428,SO2,3,83,24
India,Madhya Pradesh,Pithampur,"Sector-2 Industrial Area, Pithampur - MPPCB",25-06-2024 22:00:00,22.624758,75.675238,PM2.5,21,124,64
India,Madhya Pradesh,Pithampur,"Sector-2 Industrial Area, Pithampur - MPPCB",25-06-2024 22:00:00,22.624758,75.675238,NH3,3,5,4
India,Madhya Pradesh,Ratlam,"Shasthri Nagar, Ratlam - IPCA Lab",25-06-2024 22:00:00,23.331731,75.045981,SO2,33,35,34
India,Madhya Pradesh,Sagar,"Civil Lines, Sagar - MPPCB",25-06-2024 22:00:00,23.838586,78.759431,PM2.5,26,208,62
India,Madhya Pradesh,Singrauli,"Suryakiran Bhawan NCL, Singrauli - MPPCB",25-06-2024 22:00:00,24.108970,82.645580,SO2,NA,NA,NA
India,Madhya Pradesh,Ujjain,"Mahakaleshwar Temple, Ujjain - MPPCB",25-06-2024 22:00:00,23.182719 ,75.768218 ,PM2.5,20,54,39
India,Madhya Pradesh,Ujjain,"Mahakaleshwar Temple, Ujjain - MPPCB",25-06-2024 22:00:00,23.182719 ,75.768218 ,PM10,40,62,49
India,Madhya Pradesh,Ujjain,"Mahakaleshwar Temple, Ujjain - MPPCB",25-06-2024 22:00:00,23.182719 ,75.768218 ,NO2,12,20,15
India,Maharashtra,Amravati,"Shivneri Colony, Amravati - MPCB",25-06-2024 22:00:00,20.9402359,77.7895248,NH3,3,4,4
India,Maharashtra,Amravati,"Shivneri Colony, Amravati - MPCB",25-06-2024 22:00:00,20.9402359,77.7895248,CO,14,20,16
India,Maharashtra,Amravati,"Shri Shivaji Science College, Amaravati - MPCB",25-06-2024 22:00:00,20.939198,77.765701,NO2,6,27,13
India,Maharashtra,Badlapur,"Katrap, Badlapur - MPCB",25-06-2024 22:00:00,19.16485,73.23409,NH3,1,3,2
India,Maharashtra,Bhiwandi,"Gokul Nagar, Bhiwandi - MPCB",25-06-2024 22:00:00,19.309073,73.057223,SO2,10,13,10
India,Maharashtra,Chandrapur,"MIDC Khutala, Chandrapur - MPCB",25-06-2024 22:00:00,19.9775302,79.2337086,CO,12,35,29
India,Maharashtra,Jalgaon,"Prabhat Colony, Jalgaon - MPCB",25-06-2024 22:00:00,21.001264,75.565602,NO2,6,20,11
India,Maharashtra,Jalgaon,"Prabhat Colony, Jalgaon - MPCB",25-06-2024 22:00:00,21.001264,75.565602,NH3,5,19,14
India,Maharashtra,Jalna,"Old MIDC, Jalna - MPCB",25-06-2024 22:00:00,19.854616,75.905894,PM10,14,123,36
India,Maharashtra,Jalna,"Old MIDC, Jalna - MPCB",25-06-2024 22:00:00,19.854616,75.905894,NH3,1,1,1
India,Maharashtra,Kolhapur,"Shivaji University, Kolhapur - MPCB",25-06-2024 22:00:00,16.6870449,74.2505872,OZONE,23,44,40
India,Maharashtra,Kolhapur,"Sinchan Bhavan, Kolhapur - MPCB",25-06-2024 22:00:00,16.7143745,74.2426398,PM10,20,96,67
India,Maharashtra,Latur,"Sawe Wadi, Latur - MPCB",25-06-2024 22:00:00,18.39963,76.57452,SO2,2,6,4
India,Maharashtra,Mahad,"Kamble Tarf Birwadi, Mahad - MPCB",25-06-2024 22:00:00,18.1023399,73.4783687,CO,4,25,11
India,Maharashtra,Malegaon,"Mahesh Nagar, Malegaon - MPCB",25-06-2024 22:00:00,20.555712,74.529236,CO,6,58,24
India,Maharashtra,Mira-Bhayandar,"Bhayandar West, Mira-Bhayandar - MPCB",25-06-2024 22:00:00,19.296481,72.840923,NH3,5,7,6
India,Maharashtra,Mira-Bhayandar,"Bhayandar West, Mira-Bhayandar - MPCB",25-06-2024 22:00:00,19.296481,72.840923,SO2,3,5,4
India,Maharashtra,Mira-Bhayandar,"Bhayandar West, Mira-Bhayandar - MPCB",25-06-2024 22:00:00,19.296481,72.840923,CO,19,44,25
India,Maharashtra,Mumbai,"Bandra Kurla Complex, Mumbai - MPCB",25-06-2024 22:00:00,19.065931,72.862131,SO2,1,2,2
India,Maharashtra,Mumbai,"Bandra Kurla Complex, Mumbai - MPCB",25-06-2024 22:00:00,19.065931,72.862131,OZONE,2,39,24
India,Maharashtra,Mumbai,"Borivali East, Mumbai - MPCB",25-06-2024 22:00:00,19.2243333,72.8658113,PM10,10,37,23
India,Maharashtra,Mumbai,"Borivali East, Mumbai - MPCB",25-06-2024 22:00:00,19.2243333,72.8658113,SO2,10,12,11
India,Maharashtra,Mumbai,"Byculla, Mumbai - BMC",25-06-2024 22:00:00,18.9767,72.8380,SO2,1,6,1
India,Maharashtra,Mumbai,"Chakala-Andheri East, Mumbai - IITM",25-06-2024 22:00:00,19.11074,72.86084,OZONE,7,49,34
India,Maharashtra,Mumbai,"Chembur, Mumbai - MPCB",25-06-2024 22:00:00,19.0364585,72.8954371,NO2,11,43,30
India,Maharashtra,Mumbai,"Chhatrapati Shivaji Intl. Airport (T2), Mumbai - MPCB",25-06-2024 22:00:00,19.10078,72.87462,SO2,18,21,19
India,Maharashtra,Mumbai,"Colaba, Mumbai - MPCB",25-06-2024 22:00:00,18.910000,72.820000,PM2.5,6,36,16
India,Maharashtra,Mumbai,"Colaba, Mumbai - MPCB",25-06-2024 22:00:00,18.910000,72.820000,CO,12,18,13
India,Maharashtra,Mumbai,"Ghatkopar, Mumbai - BMC",25-06-2024 22:00:00,19.083694,72.920967,PM2.5,4,23,11
India,Maharashtra,Mumbai,"Ghatkopar, Mumbai - BMC",25-06-2024 22:00:00,19.083694,72.920967,SO2,1,3,1
India,Maharashtra,Mumbai,"Ghatkopar, Mumbai - BMC",25-06-2024 22:00:00,19.083694,72.920967,CO,2,32,9
India,Maharashtra,Mumbai,"Kandivali East, Mumbai - MPCB",25-06-2024 22:00:00,19.205800,72.868200,PM2.5,3,17,9
India,Maharashtra,Mumbai,"Kandivali East, Mumbai - MPCB",25-06-2024 22:00:00,19.205800,72.868200,NH3,1,30,4
India,Maharashtra,Mumbai,"Kandivali East, Mumbai - MPCB",25-06-2024 22:00:00,19.205800,72.868200,SO2,7,9,8
India,Maharashtra,Mumbai,"Kandivali West, Mumbai - BMC",25-06-2024 22:00:00,19.215859,72.831718,NO2,13,38,24
India,Maharashtra,Mumbai,"Kandivali West, Mumbai - BMC",25-06-2024 22:00:00,19.215859,72.831718,SO2,1,2,1
India,Maharashtra,Mumbai,"Kandivali West, Mumbai - BMC",25-06-2024 22:00:00,19.215859,72.831718,OZONE,18,29,25
India,Maharashtra,Mumbai,"Kherwadi_Bandra East, Mumbai - MPCB",25-06-2024 22:00:00,19.0632143,72.8456324,PM10,51,89,70
India,Maharashtra,Mumbai,"Kherwadi_Bandra East, Mumbai - MPCB",25-06-2024 22:00:00,19.0632143,72.8456324,NO2,13,45,21
India,Maharashtra,Mumbai,"Kherwadi_Bandra East, Mumbai - MPCB",25-06-2024 22:00:00,19.0632143,72.8456324,NH3,2,6,3
India,Maharashtra,Mumbai,"Khindipada-Bhandup West, Mumbai - IITM",25-06-2024 22:00:00,19.1653323,72.922099,PM2.5,8,24,17
India,Maharashtra,Mumbai,"Khindipada-Bhandup West, Mumbai - IITM",25-06-2024 22:00:00,19.1653323,72.922099,OZONE,6,28,17
India,Maharashtra,Mumbai,"Kurla, Mumbai - MPCB",25-06-2024 22:00:00,19.0863,72.8888,NO2,10,12,11
India,Maharashtra,Mumbai,"Malad West, Mumbai - IITM",25-06-2024 22:00:00,19.19709,72.82204,CO,2,2,2
India,Maharashtra,Mumbai,"Mazgaon, Mumbai - IITM",25-06-2024 22:00:00,18.96702,72.84214,NO2,5,59,30
India,Maharashtra,Mumbai,"Mindspace-Malad West, Mumbai - MPCB",25-06-2024 22:00:00,19.1878657,72.8304069,NH3,5,6,5
India,Maharashtra,Mumbai,"Navy Nagar-Colaba, Mumbai - IITM",25-06-2024 22:00:00,18.897756,72.813320,PM10,19,36,28
India,Maharashtra,Mumbai,"Navy Nagar-Colaba, Mumbai - IITM",25-06-2024 22:00:00,18.897756,72.813320,CO,24,37,28
India,Maharashtra,Mumbai,"Powai, Mumbai - MPCB",25-06-2024 22:00:00,19.137500,72.915056,NO2,10,26,17
India,Maharashtra,Mumbai,"Powai, Mumbai - MPCB",25-06-2024 22:00:00,19.137500,72.915056,OZONE,5,8,7
India,Maharashtra,Mumbai,"Sewri, Mumbai - BMC",25-06-2024 22:00:00,19.000084,72.856730,SO2,1,8,2
India,Maharashtra,Mumbai,"Shivaji Nagar, Mumbai - BMC",25-06-2024 22:00:00,19.060498,72.923356,NO2,NA,NA,NA
India,Maharashtra,Mumbai,"Shivaji Nagar, Mumbai - BMC",25-06-2024 22:00:00,19.060498,72.923356,OZONE,10,13,11
India,Maharashtra,Mumbai,"Siddharth Nagar-Worli, Mumbai - IITM",25-06-2024 22:00:00,19.000083,72.813993,NO2,16,44,26
India,Maharashtra,Mumbai,"Vile Parle West, Mumbai - MPCB",25-06-2024 22:00:00,19.10861,72.83622,PM2.5,3,34,15
India,Maharashtra,Nagpur,"Opp GPO Civil Lines, Nagpur - MPCB",25-06-2024 22:00:00,21.152875,79.0517531,PM10,18,76,41
India,Maharashtra,Nagpur,"Opp GPO Civil Lines, Nagpur - MPCB",25-06-2024 22:00:00,21.152875,79.0517531,NO2,11,44,21
India,Maharashtra,Nagpur,"Opp GPO Civil Lines, Nagpur - MPCB",25-06-2024 22:00:00,21.152875,79.0517531,OZONE,4,15,11
India,Maharashtra,Nagpur,"Ram Nagar, Nagpur - MPCB",25-06-2024 22:00:00,21.143383,79.048912,PM10,36,58,45
India,Maharashtra,Nagpur,"Ram Nagar, Nagpur - MPCB",25-06-2024 22:00:00,21.143383,79.048912,NH3,3,5,4
India,Maharashtra,Nanded,"Sneh Nagar, Nanded - MPCB",25-06-2024 22:00:00,19.173852,77.296291,NO2,4,17,7
India,Maharashtra,Nanded,"Sneh Nagar, Nanded - MPCB",25-06-2024 22:00:00,19.173852,77.296291,SO2,14,19,18
India,Maharashtra,Nashik,"Gangapur Road, Nashik - MPCB",25-06-2024 22:00:00,20.0073285,73.7762427,OZONE,21,45,31
India,Maharashtra,Nashik,"Hirawadi, Nashik - MPCB",25-06-2024 22:00:00,20.021503,73.813844,PM2.5,14,45,26
India,Maharashtra,Nashik,"Hirawadi, Nashik - MPCB",25-06-2024 22:00:00,20.021503,73.813844,SO2,8,17,12
India,Maharashtra,Nashik,"Pandav Nagari, Nashik - MPCB",25-06-2024 22:00:00,19.9591346,73.7788008,CO,9,15,13
India,Maharashtra,Nashik,"Pandav Nagari, Nashik - MPCB",25-06-2024 22:00:00,19.9591346,73.7788008,OZONE,22,59,37
India,Maharashtra,Navi Mumbai,"Kopripada-Vashi, Navi Mumbai - MPCB",25-06-2024 22:00:00,19.090337,73.014232,PM2.5,12,22,16
India,Maharashtra,Navi Mumbai,"Mahape, Navi Mumbai - MPCB",25-06-2024 22:00:00,19.1135051,73.008978,PM10,35,56,45
India,Maharashtra,Navi Mumbai,"Nerul, Navi Mumbai - MPCB",25-06-2024 22:00:00,19.008751,73.016620,CO,14,26,17
India,Maharashtra,Navi Mumbai,"Sanpada, Navi Mumbai - MPCB",25-06-2024 22:00:00,19.0575752,73.0151367,OZONE,10,73,50
India,Maharashtra,Navi Mumbai,"Sector-19A Nerul, Navi Mumbai - IITM",25-06-2024 22:00:00,19.044,73.0325,SO2,1,8,6
India,Maharashtra,Navi Mumbai,"Tondare-Taloja, Navi Mumbai - MPCB",25-06-2024 22:00:00,19.0630,73.1209,NO2,NA,NA,NA
India,Maharashtra,Navi Mumbai,"Tondare-Taloja, Navi Mumbai - MPCB",25-06-2024 22:00:00,19.0630,73.1209,OZONE,3,11,7
India,Maharashtra,Pimpri-Chinchwad,"Gavalinagar, Pimpri Chinchwad - MPCB",25-06-2024 22:00:00,18.63673,73.82487,OZONE,12,51,31
India,Maharashtra,Pune,"Bhosari, Pune - IITM",25-06-2024 22:00:00,18.640051,73.848956,OZONE,19,71,43
India,Maharashtra,Pune,"Bhumkar Nagar, Pune - IITM",25-06-2024 22:00:00,18.605770,73.749976,PM10,10,78,25
India,Maharashtra,Pune,"Bhumkar Nagar, Pune - IITM",25-06-2024 22:00:00,18.605770,73.749976,NO2,35,53,43
India,Maharashtra,Pune,"Hadapsar, Pune - IITM",25-06-2024 22:00:00,18.501793,73.927532,NO2,19,36,25
India,Maharashtra,Pune,"Mhada Colony, Pune - IITM",25-06-2024 22:00:00,18.573040,73.927715,CO,50,106,100
India,Maharashtra,Pune,"Savitribai Phule Pune University, Pune - MPCB",25-06-2024 22:00:00,18.547056,73.826908,PM2.5,8,47,24
India,Maharashtra,Pune,"Savitribai Phule Pune University, Pune - MPCB",25-06-2024 22:00:00,18.547056,73.826908,NO2,16,26,21
India,Maharashtra,Pune,"Savitribai Phule Pune University, Pune - MPCB",25-06-2024 22:00:00,18.547056,73.826908,CO,4,22,15
India,Maharashtra,Sangli,"Vijay Nagar, Sangli - MPCB",25-06-2024 22:00:00, 16.5038,74.3623,PM10,11,31,19
India,Maharashtra,Solapur,"Dnyaneshwar Nagar, Solapur - MPCB",25-06-2024 22:00:00,17.6336264,75.9132495,CO,7,15,11
India,Maharashtra,Solapur,"Dnyaneshwar Nagar, Solapur - MPCB",25-06-2024 22:00:00,17.6336264,75.9132495,OZONE,21,39,36
India,Maharashtra,Solapur,"Ratandeep Housing Society, Solapur - MPCB",25-06-2024 22:00:00,17.65439,75.90649,PM2.5,13,56,30
India,Maharashtra,Solapur,"Ratandeep Housing Society, Solapur - MPCB",25-06-2024 22:00:00,17.65439,75.90649,NO2,1,6,4
India,Maharashtra,Solapur,"Ratandeep Housing Society, Solapur - MPCB",25-06-2024 22:00:00,17.65439,75.90649,SO2,2,3,3
India,Maharashtra,Solapur,"Ratandeep Housing Society, Solapur - MPCB",25-06-2024 22:00:00,17.65439,75.90649,CO,8,38,30
India,Maharashtra,Solapur,"Solapur, Solapur - MPCB",25-06-2024 22:00:00,17.6599188,75.9063906,NO2,55,55,55
India,Maharashtra,Thane,"Pimpleshwar Mandir, Thane - MPCB",25-06-2024 22:00:00,19.192056,72.9585188,PM10,30,75,50
India,Maharashtra,Thane,"Upvan Fort, Thane - MPCB",25-06-2024 22:00:00,19.222279,72.957979,PM2.5,11,38,23
India,Maharashtra,Thane,"Upvan Fort, Thane - MPCB",25-06-2024 22:00:00,19.222279,72.957979,NO2,11,28,18
India,Maharashtra,Thane,"Upvan Fort, Thane - MPCB",25-06-2024 22:00:00,19.222279,72.957979,NH3,1,2,2
India,Maharashtra,Thane,"Upvan Fort, Thane - MPCB",25-06-2024 22:00:00,19.222279,72.957979,OZONE,23,53,43
India,Maharashtra,Ulhasnagar,"Sidhi Vinayak Nagar, Ulhasnagar - MPCB",25-06-2024 22:00:00,19.235581,73.159121,NO2,4,19,14
India,Maharashtra,Ulhasnagar,"Sidhi Vinayak Nagar, Ulhasnagar - MPCB",25-06-2024 22:00:00,19.235581,73.159121,NH3,2,3,2
India,Maharashtra,Ulhasnagar,"Sidhi Vinayak Nagar, Ulhasnagar - MPCB",25-06-2024 22:00:00,19.235581,73.159121,CO,16,39,27
India,Maharashtra,Virar,"Bolinj, Virar - MPCB",25-06-2024 22:00:00,19.4458210,72.7988231,PM10,46,112,80
India,Maharashtra,Virar,"Bolinj, Virar - MPCB",25-06-2024 22:00:00,19.4458210,72.7988231,NO2,17,56,28
India,Manipur,Imphal,"Manipur University, Imphal - Manipur PCB",25-06-2024 22:00:00,24.7524239,93.9286218,NO2,6,13,8
India,Meghalaya,Shillong,"Lumpyngngad, Shillong - Meghalaya PCB",25-06-2024 22:00:00,25.5586,91.8985,PM10,NA,NA,NA
India,Meghalaya,Shillong,"Lumpyngngad, Shillong - Meghalaya PCB",25-06-2024 22:00:00,25.5586,91.8985,NO2,NA,NA,NA
India,Odisha,Angul,"Hakimapada, Angul - OSPCB",25-06-2024 22:00:00,20.832874,85.104082,PM2.5,10,342,72
India,Odisha,Balasore,"Kalidaspur, Balasore - OSPCB",25-06-2024 22:00:00,21.51161,86.89088,PM2.5,8,42,25
India,Odisha,Balasore,"Kalidaspur, Balasore - OSPCB",25-06-2024 22:00:00,21.51161,86.89088,NO2,7,19,12
India,Odisha,Balasore,"Kalidaspur, Balasore - OSPCB",25-06-2024 22:00:00,21.51161,86.89088,SO2,15,18,16
India,Odisha,Barbil,"Forest Office, Barbil - OSPCB",25-06-2024 22:00:00,22.1166054,85.3945546,PM2.5,18,78,40
India,Odisha,Baripada,"Meher Colony, Baripada - OSPCB",25-06-2024 22:00:00,21.941841,86.728318,NH3,1,2,2
India,Odisha,Bhubaneswar,"Lingraj Mandir, Bhubaneswar - OSPCB",25-06-2024 22:00:00,20.240790,85.836784,PM2.5,8,73,34
India,Odisha,Bhubaneswar,"Lingraj Mandir, Bhubaneswar - OSPCB",25-06-2024 22:00:00,20.240790,85.836784,SO2,3,15,10
India,Odisha,Bhubaneswar,"Lingraj Mandir, Bhubaneswar - OSPCB",25-06-2024 22:00:00,20.240790,85.836784,OZONE,25,54,41
India,Odisha,Bhubaneswar,"Patia, Bhubaneswar - OSPCB",25-06-2024 22:00:00,20.34652,85.81630,PM2.5,7,67,24
India,Odisha,Bileipada,"Tata Township, Bileipada - OSPCB",25-06-2024 22:00:00,22.06156703,85.47409613,CO,11,32,17
India,Odisha,Brajrajnagar,"GM Office, Brajrajnagar - OSPCB",25-06-2024 22:00:00,21.8004996,83.8396977,NO2,NA,NA,NA
India,Odisha,Nayagarh,"Dabuna, Nayagarh - OSPCB",25-06-2024 22:00:00,21.847279,85.416905,PM10,NA,NA,NA
India,Odisha,Rairangpur,"Divisional Forest Office, Rairangpur - OSPCB",25-06-2024 22:00:00,22.265816,86.174829,PM10,49,71,61
India,Odisha,Rourkela,"Raghunathpali, Rourkela - OSPCB",25-06-2024 22:00:00,22.220833,84.809444,CO,18,44,29
India,Odisha,Suakati,"OMC Colony, Suakati - OSPCB",25-06-2024 22:00:00,21.606865,85.510538,NH3,5,5,5
India,Odisha,Suakati,"OMC Colony, Suakati - OSPCB",25-06-2024 22:00:00,21.606865,85.510538,CO,15,18,16
India,Odisha,Talcher,"Talcher Coalfields,Talcher - OSPCB",25-06-2024 22:00:00,20.9360711,85.1707021,NH3,3,4,4
India,Odisha,Talcher,"Talcher Coalfields,Talcher - OSPCB",25-06-2024 22:00:00,20.9360711,85.1707021,SO2,18,28,22
India,Odisha,Talcher,"Talcher Coalfields,Talcher - OSPCB",25-06-2024 22:00:00,20.9360711,85.1707021,CO,20,106,80
India,Puducherry,Puducherry,"Jawahar Nagar, Puducherry - PPCC",25-06-2024 22:00:00,11.9309,79.8027,OZONE,26,75,57
India,Punjab,Jalandhar,"Civil Line, Jalandhar - PPCB",25-06-2024 22:00:00,31.321907,75.578914,SO2,12,16,13
India,Punjab,Jalandhar,"Civil Line, Jalandhar - PPCB",25-06-2024 22:00:00,31.321907,75.578914,CO,32,64,49
India,Punjab,Khanna,"Kalal Majra, Khanna - PPCB",25-06-2024 22:00:00,30.736056 ,76.209694,PM10,101,123,111
India,Punjab,Khanna,"Kalal Majra, Khanna - PPCB",25-06-2024 22:00:00,30.736056 ,76.209694,NO2,29,31,31
India,Punjab,Khanna,"Kalal Majra, Khanna - PPCB",25-06-2024 22:00:00,30.736056 ,76.209694,SO2,3,14,8
India,Punjab,Khanna,"Kalal Majra, Khanna - PPCB",25-06-2024 22:00:00,30.736056 ,76.209694,CO,36,46,43
India,Punjab,Ludhiana,"Punjab Agricultural University, Ludhiana - PPCB",25-06-2024 22:00:00,30.9028,75.8086,NH3,4,5,5
India,Punjab,Ludhiana,"Punjab Agricultural University, Ludhiana - PPCB",25-06-2024 22:00:00,30.9028,75.8086,SO2,7,11,9
India,Punjab,Patiala,"Model Town, Patiala - PPCB",25-06-2024 22:00:00,30.349388,76.366642,CO,26,36,30
India,Punjab,Rupnagar,"Ratanpura, Rupnagar - Ambuja Cements",25-06-2024 22:00:00,31.0325454,76.5623046,CO,14,50,34
India,Rajasthan,Ajmer,"Civil Lines,  Ajmer - RSPCB",25-06-2024 22:00:00,26.470859,74.646594,OZONE,15,92,62
India,Rajasthan,Banswara,"Rati Talai, Banswara - RSPCB",25-06-2024 22:00:00,23.555190,74.440010,PM2.5,4,61,27
India,Rajasthan,Baran,"Bamboliya, Baran - RSPCB",25-06-2024 22:00:00,25.106006,76.469948,NO2,8,24,13
India,Rajasthan,Baran,"Bamboliya, Baran - RSPCB",25-06-2024 22:00:00,25.106006,76.469948,CO,16,30,23
India,Rajasthan,Barmer,"Railway Colony, Barmer - RSPCB",25-06-2024 22:00:00,25.747299,71.393989,PM10,101,133,116
India,Rajasthan,Barmer,"Railway Colony, Barmer - RSPCB",25-06-2024 22:00:00,25.747299,71.393989,NO2,6,32,10
India,Rajasthan,Bharatpur,"Krishna Nagar, Bharatpur - RSPCB",25-06-2024 22:00:00,27.215415,77.50873,PM10,28,101,69
India,Rajasthan,Bhilwara,"Pratap Nagar, Bhilwara - RSPCB",25-06-2024 22:00:00,25.339605,74.618883,PM10,11,53,32
India,Rajasthan,Bhilwara,"Pratap Nagar, Bhilwara - RSPCB",25-06-2024 22:00:00,25.339605,74.618883,SO2,6,9,7
India,Rajasthan,Bhiwadi,"RIICO Ind. Area III, Bhiwadi - RSPCB",25-06-2024 22:00:00,28.194909,76.862296,OZONE,10,86,54
India,Rajasthan,Bhiwadi,"Vasundhara Nagar_UIT, Bhiwadi - RSPCB",25-06-2024 22:00:00,28.207266,76.829265,OZONE,1,90,51
India,Rajasthan,Bikaner,"MM Ground, Bikaner - RSPCB",25-06-2024 22:00:00,28.018792,73.292658,SO2,1,6,6
India,Rajasthan,Bundi,"New Colony, Bundi - RSPCB",25-06-2024 22:00:00,25.435774,75.644272,PM2.5,13,33,20
India,Rajasthan,Bundi,"New Colony, Bundi - RSPCB",25-06-2024 22:00:00,25.435774,75.644272,PM10,26,87,53
India,Rajasthan,Bundi,"New Colony, Bundi - RSPCB",25-06-2024 22:00:00,25.435774,75.644272,NH3,4,8,5
India,Rajasthan,Chittorgarh,"Shastri Nagar, Chittorgarh - RSPCB",25-06-2024 22:00:00,24.892047,74.623527,PM10,NA,NA,NA
India,Rajasthan,Chittorgarh,"Shastri Nagar, Chittorgarh - RSPCB",25-06-2024 22:00:00,24.892047,74.623527,NH3,NA,NA,NA
India,Rajasthan,Churu,"Subash Chowk, Churu - RSPCB",25-06-2024 22:00:00,28.296139,74.961696,NH3,15,25,19
India,Rajasthan,Churu,"Subash Chowk, Churu - RSPCB",25-06-2024 22:00:00,28.296139,74.961696,CO,20,48,32
India,Rajasthan,Churu,"Subash Chowk, Churu - RSPCB",25-06-2024 22:00:00,28.296139,74.961696,OZONE,29,107,87
India,Rajasthan,Dausa,"Khatikan Mohalla, Dausa - RSPCB",25-06-2024 22:00:00,26.895552,76.334753,SO2,3,7,4
India,Rajasthan,Dholpur,"Raja Ganj, Dholpur - RSPCB",25-06-2024 22:00:00,26.699557,77.898881,NO2,NA,NA,NA
India,Rajasthan,Dholpur,"Raja Ganj, Dholpur - RSPCB",25-06-2024 22:00:00,26.699557,77.898881,SO2,NA,NA,NA
India,Rajasthan,Dungarpur,"Bhoiwada, Dungarpur - RSPCB",25-06-2024 22:00:00,23.837789,73.714926,NH3,1,2,2
India,Rajasthan,Hanumangarh,"Housing Board, Hanumangarh - RSPCB",25-06-2024 22:00:00,29.610750,74.283608,PM10,94,475,168
India,Rajasthan,Hanumangarh,"Housing Board, Hanumangarh - RSPCB",25-06-2024 22:00:00,29.610750,74.283608,NO2,NA,NA,NA
India,Rajasthan,Jaipur,"Adarsh Nagar, Jaipur - RSPCB",25-06-2024 22:00:00,26.902909,75.836858,PM10,26,77,51
India,Rajasthan,Jaipur,"Adarsh Nagar, Jaipur - RSPCB",25-06-2024 22:00:00,26.902909,75.836858,NH3,4,8,6
India,Rajasthan,Jaipur,"Adarsh Nagar, Jaipur - RSPCB",25-06-2024 22:00:00,26.902909,75.836858,CO,28,69,50
India,Rajasthan,Jaipur,"Mansarovar Sector-12, Jaipur - RSPCB",25-06-2024 22:00:00,26.843698,75.766894,PM10,22,92,57
India,Rajasthan,Jaipur,"Mansarovar Sector-12, Jaipur - RSPCB",25-06-2024 22:00:00,26.843698,75.766894,SO2,4,7,5
India,Rajasthan,Jaipur,"Police Commissionerate, Jaipur - RSPCB",25-06-2024 22:00:00,26.9164092,75.7994901,NO2,11,29,18
India,Rajasthan,Jaipur,"Police Commissionerate, Jaipur - RSPCB",25-06-2024 22:00:00,26.9164092,75.7994901,SO2,19,24,21
India,Rajasthan,Jaipur,"RIICO Sitapura, Jaipur - RSPCB",25-06-2024 22:00:00,26.786682,75.827928,NO2,3,20,9
India,Rajasthan,Jaipur,"RIICO Sitapura, Jaipur - RSPCB",25-06-2024 22:00:00,26.786682,75.827928,CO,49,74,62
India,Rajasthan,Jaipur,"Sector-2 Murlipura, Jaipur - RSPCB",25-06-2024 22:00:00,26.960669,75.771817,SO2,7,10,8
India,Rajasthan,Jaipur,"Shastri Nagar, Jaipur - RSPCB",25-06-2024 22:00:00,26.9502929,75.730943,PM10,50,107,82
India,Rajasthan,Jaipur,"Shastri Nagar, Jaipur - RSPCB",25-06-2024 22:00:00,26.9502929,75.730943,NO2,14,46,29
India,Rajasthan,Jaipur,"Shastri Nagar, Jaipur - RSPCB",25-06-2024 22:00:00,26.9502929,75.730943,NH3,4,10,7
India,Rajasthan,Jaipur,"Shastri Nagar, Jaipur - RSPCB",25-06-2024 22:00:00,26.9502929,75.730943,SO2,5,50,23
India,Rajasthan,Jaisalmer,"Sadar Bazar, Jaisalmer - RSPCB",25-06-2024 22:00:00,26.912329,70.909168,PM2.5,26,367,53
India,Rajasthan,Jhalawar,"Rajlaxmi Nagar, Jhalawar - RSPCB",25-06-2024 22:00:00,24.588397,76.172782,PM2.5,16,77,40
India,Rajasthan,Jhalawar,"Rajlaxmi Nagar, Jhalawar - RSPCB",25-06-2024 22:00:00,24.588397,76.172782,SO2,6,8,7
India,Rajasthan,Jhunjhunu,"Indra Nagar, Jhunjhunu - RSPCB",25-06-2024 22:00:00,28.108988,75.386577,CO,24,38,33
India,Rajasthan,Jodhpur,"Digari Kalan, Jodhpur - RSPCB",25-06-2024 22:00:00,26.295810,73.082283,CO,16,32,25
India,Rajasthan,Jodhpur,"Digari Kalan, Jodhpur - RSPCB",25-06-2024 22:00:00,26.295810,73.082283,OZONE,72,165,144
India,Rajasthan,Jodhpur,"Mandor, Jodhpur - RSPCB",25-06-2024 22:00:00,26.358805,73.047444,PM10,19,96,53
India,Rajasthan,Jodhpur,"Mandor, Jodhpur - RSPCB",25-06-2024 22:00:00,26.358805,73.047444,SO2,1,3,1
India,Rajasthan,Jodhpur,"Samrat Ashok Udhyan, Jodhpur - RSPCB",25-06-2024 22:00:00,26.253384,72.976571,PM2.5,NA,NA,NA
India,Rajasthan,Jodhpur,"Samrat Ashok Udhyan, Jodhpur - RSPCB",25-06-2024 22:00:00,26.253384,72.976571,NO2,NA,NA,NA
India,Rajasthan,Jodhpur,"Samrat Ashok Udhyan, Jodhpur - RSPCB",25-06-2024 22:00:00,26.253384,72.976571,CO,16,23,19
India,Rajasthan,Kota,"Dhanmandi, Kota - RSPCB",25-06-2024 22:00:00,25.164090,75.858137,CO,2,95,33
India,Rajasthan,Kota,"Nayapura, Kota - RSPCB",25-06-2024 22:00:00,25.196024,75.855668,SO2,7,32,15
India,Rajasthan,Kota,"Shrinath Puram, Kota - RSPCB",25-06-2024 22:00:00,25.14389,75.821256,NH3,4,29,8
India,Rajasthan,Kota,"Shrinath Puram, Kota - RSPCB",25-06-2024 22:00:00,25.14389,75.821256,SO2,6,25,11
India,Rajasthan,Pali,"Indira Colony Vistar, Pali - RSPCB",25-06-2024 22:00:00,25.771061, 73.340227,SO2,2,10,8
India,Rajasthan,Pali,"Indira Colony Vistar, Pali - RSPCB",25-06-2024 22:00:00,25.771061, 73.340227,CO,2,75,41
India,Rajasthan,Pratapgarh,"Pragati Nagar, Pratapgarh - RSPCB",25-06-2024 22:00:00,24.041198,74.780702,CO,8,38,27
India,Rajasthan,Rajsamand,"Dhoinda, Rajsamand - RSPCB",25-06-2024 22:00:00,25.036360,73.883502,SO2,3,14,7
India,Rajasthan,Sirohi,"Vedhaynath Colony, Sirohi - RSPCB",25-06-2024 22:00:00,24.885261,72.857549,NH3,2,19,5
India,Rajasthan,Sirohi,"Vedhaynath Colony, Sirohi - RSPCB",25-06-2024 22:00:00,24.885261,72.857549,CO,5,81,22
India,Rajasthan,Sri Ganganagar,"Old City, Sri Ganganagar - RSPCB",25-06-2024 22:00:00,29.931624,73.864511,NH3,21,30,23
India,Rajasthan,Udaipur,"Ashok Nagar, Udaipur - RSPCB",25-06-2024 22:00:00,24.5886166,73.6321397,CO,17,107,46
India,Sikkim,Gangtok,"Zero Point GICI, Gangtok - SSPCB",25-06-2024 22:00:00,27.338530,88.614099,PM10,7,18,13
India,Sikkim,Gangtok,"Zero Point GICI, Gangtok - SSPCB",25-06-2024 22:00:00,27.338530,88.614099,NO2,NA,NA,NA
India,TamilNadu,Ariyalur,"Keelapalur, Ariyalur - TNPCB",25-06-2024 22:00:00,11.06825,79.07033,SO2,27,55,34
India,TamilNadu,Chennai,"Alandur Bus Depot, Chennai - CPCB",25-06-2024 22:00:00,12.9099161,80.1076538,NH3,3,5,4
India,TamilNadu,Chennai,"Alandur Bus Depot, Chennai - CPCB",25-06-2024 22:00:00,12.9099161,80.1076538,CO,60,64,62
India,TamilNadu,Chennai,"Manali, Chennai - CPCB",25-06-2024 22:00:00,13.164544,80.26285,PM10,42,111,71
India,TamilNadu,Chennai,"Manali, Chennai - CPCB",25-06-2024 22:00:00,13.164544,80.26285,NO2,6,8,7
India,TamilNadu,Chennai,"Manali, Chennai - CPCB",25-06-2024 22:00:00,13.164544,80.26285,NH3,4,6,5
India,TamilNadu,Chennai,"Manali, Chennai - CPCB",25-06-2024 22:00:00,13.164544,80.26285,CO,36,119,93
India,TamilNadu,Chennai,"Perungudi, Chennai - TNPCB",25-06-2024 22:00:00,12.9533,80.2357,NO2,3,13,8
India,TamilNadu,Chennai,"Perungudi, Chennai - TNPCB",25-06-2024 22:00:00,12.9533,80.2357,SO2,3,9,5
India,TamilNadu,Chennai,"Perungudi, Chennai - TNPCB",25-06-2024 22:00:00,12.9533,80.2357,OZONE,3,16,8
India,TamilNadu,Chennai,"Royapuram, Chennai - TNPCB",25-06-2024 22:00:00,13.1036,80.2909,PM10,39,80,54
India,TamilNadu,Chennai,"Royapuram, Chennai - TNPCB",25-06-2024 22:00:00,13.1036,80.2909,OZONE,5,8,8
India,TamilNadu,Cuddalore,"Kudikadu, Cuddalore - TNPCB",25-06-2024 22:00:00,11.6829898,79.7532099,NO2,NA,NA,NA
India,TamilNadu,Cuddalore,"Semmandalam, Cuddalore - TNPCB",25-06-2024 22:00:00,11.7637683,79.7499835,PM2.5,NA,NA,NA
India,TamilNadu,Ooty,"Bombay Castel, Ooty - TNPCB",25-06-2024 22:00:00,11.4068288,76.7138973,OZONE,5,6,5
India,TamilNadu,Ramanathapuram,"Chalai Bazaar, Ramanathapuram - TNPCB",25-06-2024 22:00:00,9.36399,78.831977,NH3,NA,NA,NA
India,TamilNadu,Ramanathapuram,"Chalai Bazaar, Ramanathapuram - TNPCB",25-06-2024 22:00:00,9.36399,78.831977,SO2,NA,NA,NA
India,TamilNadu,Ramanathapuram,"Chalai Bazaar, Ramanathapuram - TNPCB",25-06-2024 22:00:00,9.36399,78.831977,CO,6,8,7
India,TamilNadu,Thoothukudi,"Meelavittan, Thoothukudi - TNPCB",25-06-2024 22:00:00,8.816428 ,78.099039,PM10,27,86,48
India,Telangana,Hyderabad,"Central University, Hyderabad - TSPCB",25-06-2024 22:00:00,17.460103,78.334361,SO2,2,10,6
India,Telangana,Hyderabad,"ICRISAT Patancheru, Hyderabad - TSPCB",25-06-2024 22:00:00,17.518400,78.278777,PM10,NA,NA,NA
India,Telangana,Hyderabad,"ICRISAT Patancheru, Hyderabad - TSPCB",25-06-2024 22:00:00,17.518400,78.278777,NO2,NA,NA,NA
India,Telangana,Hyderabad,"IDA Pashamylaram, Hyderabad - TSPCB",25-06-2024 22:00:00,17.5316895,78.218939,PM2.5,10,49,25
India,Telangana,Hyderabad,"IITH Kandi, Hyderabad - TSPCB",25-06-2024 22:00:00,17.585705,78.126199,CO,15,22,21
India,Telangana,Hyderabad,"Kokapet, Hyderabad - TSPCB",25-06-2024 22:00:00,17.393559,78.339194,PM10,73,98,80
India,Telangana,Hyderabad,"Kokapet, Hyderabad - TSPCB",25-06-2024 22:00:00,17.393559,78.339194,SO2,9,13,10
India,Telangana,Hyderabad,"Kokapet, Hyderabad - TSPCB",25-06-2024 22:00:00,17.393559,78.339194,CO,20,26,23
India,Telangana,Hyderabad,"Kompally Municipal Office, Hyderabad - TSPCB",25-06-2024 22:00:00,17.544899,78.486949,NH3,3,4,3
India,Telangana,Hyderabad,"Kompally Municipal Office, Hyderabad - TSPCB",25-06-2024 22:00:00,17.544899,78.486949,OZONE,23,30,30
India,Telangana,Hyderabad,"Nacharam_TSIIC IALA, Hyderabad - TSPCB",25-06-2024 22:00:00,17.429398,78.569354,PM2.5,51,74,67
India,Telangana,Hyderabad,"Nacharam_TSIIC IALA, Hyderabad - TSPCB",25-06-2024 22:00:00,17.429398,78.569354,PM10,80,92,85
India,Telangana,Hyderabad,"New Malakpet, Hyderabad - TSPCB",25-06-2024 22:00:00,17.37206,78.50864,NO2,10,14,12
India,Telangana,Hyderabad,"Ramachandrapuram, Hyderabad - TSPCB",25-06-2024 22:00:00,17.528544,78.286195,CO,20,32,29
India,Telangana,Hyderabad,"Sanathnagar, Hyderabad - TSPCB",25-06-2024 22:00:00,17.4559458,78.4332152,PM2.5,16,48,29
India,Telangana,Hyderabad,"Zoo Park, Hyderabad - TSPCB",25-06-2024 22:00:00,17.349694,78.451437,SO2,1,6,2
India,Tripura,Agartala,"Bardowali, Agartala - Tripura SPCB",25-06-2024 22:00:00,23.8175497,91.2726974,PM2.5,18,61,43
India,Tripura,Agartala,"Bardowali, Agartala - Tripura SPCB",25-06-2024 22:00:00,23.8175497,91.2726974,NH3,9,10,9
India,Uttar_Pradesh,Agra,"Manoharpur, Agra - UPPCB",25-06-2024 22:00:00,27.23711,78.01936,OZONE,14,50,44
India,Uttar_Pradesh,Agra,"Rohta, Agra - UPPCB",25-06-2024 22:00:00,27.106972,78.000111,NO2,5,6,6
India,Uttar_Pradesh,Agra,"Rohta, Agra - UPPCB",25-06-2024 22:00:00,27.106972,78.000111,NH3,2,2,2
India,Uttar_Pradesh,Agra,"Sanjay Palace, Agra - UPPCB",25-06-2024 22:00:00,27.19865833,78.00598056,OZONE,69,199,82
India,Uttar_Pradesh,Agra,"Shahjahan Garden, Agra - UPPCB",25-06-2024 22:00:00,27.169338,78.03582,PM2.5,24,78,48
India,Uttar_Pradesh,Agra,"Shahjahan Garden, Agra - UPPCB",25-06-2024 22:00:00,27.169338,78.03582,NH3,1,1,1
India,Uttar_Pradesh,Agra,"Shahjahan Garden, Agra - UPPCB",25-06-2024 22:00:00,27.169338,78.03582,SO2,40,66,53
India,Uttar_Pradesh,Agra,"Shahjahan Garden, Agra - UPPCB",25-06-2024 22:00:00,27.169338,78.03582,OZONE,2,13,6
India,Uttar_Pradesh,Agra,"Shastripuram, Agra - UPPCB",25-06-2024 22:00:00,27.19862,77.92066,SO2,15,16,15
India,Uttar_Pradesh,Baghpat,"Sardar Patel Inter College, Baghpat - UPPCB",25-06-2024 22:00:00,28.964949,77.278761,PM2.5,16,42,29
India,Uttar_Pradesh,Baghpat,"Sardar Patel Inter College, Baghpat - UPPCB",25-06-2024 22:00:00,28.964949,77.278761,SO2,12,101,38
India,Uttar_Pradesh,Baghpat,"Sardar Patel Inter College, Baghpat - UPPCB",25-06-2024 22:00:00,28.964949,77.278761,CO,52,86,67
India,Uttar_Pradesh,Bareilly,"Civil Lines, Bareilly - UPPCB",25-06-2024 22:00:00,28.359581,79.414455,CO,8,39,24
India,Uttar_Pradesh,Bareilly,"Rajendra Nagar, Bareilly - UPPCB",25-06-2024 22:00:00,28.38910936,79.42963708,NO2,2,5,2
India,Uttar_Pradesh,Bulandshahr,"Yamunapuram, Bulandshahr - UPPCB",25-06-2024 22:00:00,28.406963,77.849831,PM10,58,135,86
India,Uttar_Pradesh,Bulandshahr,"Yamunapuram, Bulandshahr - UPPCB",25-06-2024 22:00:00,28.406963,77.849831,NO2,2,27,11
India,Uttar_Pradesh,Firozabad,"Vibhab Nagar, Firozabad - UPPCB",25-06-2024 22:00:00,27.1594,78.3953,PM2.5,24,57,37
India,Uttar_Pradesh,Firozabad,"Vibhab Nagar, Firozabad - UPPCB",25-06-2024 22:00:00,27.1594,78.3953,NH3,2,2,2
India,Uttar_Pradesh,Ghaziabad,"Indirapuram, Ghaziabad - UPPCB",25-06-2024 22:00:00,28.646233,77.358075,CO,22,52,26
India,Uttar_Pradesh,Ghaziabad,"Indirapuram, Ghaziabad - UPPCB",25-06-2024 22:00:00,28.646233,77.358075,OZONE,6,91,68
India,Uttar_Pradesh,Ghaziabad,"Loni, Ghaziabad - UPPCB",25-06-2024 22:00:00,28.757294,77.278792,CO,8,105,33
India,Uttar_Pradesh,Ghaziabad,"Sanjay Nagar, Ghaziabad - UPPCB",25-06-2024 22:00:00,28.685382,77.453839,NO2,18,63,33
India,Uttar_Pradesh,Gorakhpur,"Madan Mohan Malaviya University of Technology, Gorakhpur - UPPCB",25-06-2024 22:00:00,26.730136,83.433859,NO2,11,11,11
India,Uttar_Pradesh,Gorakhpur,"Madan Mohan Malaviya University of Technology, Gorakhpur - UPPCB",25-06-2024 22:00:00,26.730136,83.433859,OZONE,10,12,11
India,Uttar_Pradesh,Greater Noida,"Knowledge Park - III, Greater Noida - UPPCB",25-06-2024 22:00:00,28.47272,77.482000,SO2,2,9,7
India,Uttar_Pradesh,Greater Noida,"Knowledge Park - V, Greater Noida - UPPCB",25-06-2024 22:00:00,28.557054,77.453663,CO,24,66,35
India,Uttar_Pradesh,Greater Noida,"Knowledge Park - V, Greater Noida - UPPCB",25-06-2024 22:00:00,28.557054,77.453663,OZONE,7,267,157
India,Uttar_Pradesh,Hapur,"Anand Vihar, Hapur - UPPCB",25-06-2024 22:00:00,28.725645,77.749675,SO2,1,28,11
India,Uttar_Pradesh,Jhansi,"Shivaji Nagar, Jhansi - UPPCB",25-06-2024 22:00:00,25.4547,78.6039,PM2.5,57,175,88
India,Uttar_Pradesh,Jhansi,"Shivaji Nagar, Jhansi - UPPCB",25-06-2024 22:00:00,25.4547,78.6039,CO,5,13,9
India,Uttar_Pradesh,Jhansi,"Shivaji Nagar, Jhansi - UPPCB",25-06-2024 22:00:00,25.4547,78.6039,OZONE,3,72,20
India,Uttar_Pradesh,Kanpur,"FTI Kidwai Nagar, Kanpur - UPPCB",25-06-2024 22:00:00,26.428282,80.327067,NO2,19,72,23
India,Uttar_Pradesh,Kanpur,"FTI Kidwai Nagar, Kanpur - UPPCB",25-06-2024 22:00:00,26.428282,80.327067,OZONE,3,27,19
India,Uttar_Pradesh,Kanpur,"Nehru Nagar, Kanpur - UPPCB",25-06-2024 22:00:00,26.4703136,80.3229863,PM10,50,91,71
India,Uttar_Pradesh,Lucknow,"B R Ambedkar University, Lucknow - UPPCB",25-06-2024 22:00:00,26.766433,80.927299,NH3,9,11,10
India,Uttar_Pradesh,Lucknow,"Gomti Nagar, Lucknow - UPPCB",25-06-2024 22:00:00,26.868120,81.005119,CO,40,44,42
India,Uttar_Pradesh,Lucknow,"Kukrail Picnic Spot-1, Lucknow - UPPCB",25-06-2024 22:00:00,26.90723,80.98579,PM10,37,75,54
India,Uttar_Pradesh,Lucknow,"Kukrail Picnic Spot-1, Lucknow - UPPCB",25-06-2024 22:00:00,26.90723,80.98579,SO2,26,33,31
India,Uttar_Pradesh,Lucknow,"Lalbagh, Lucknow - CPCB",25-06-2024 22:00:00,26.8458805,80.9365541,PM10,53,126,87
India,Uttar_Pradesh,Lucknow,"Lalbagh, Lucknow - CPCB",25-06-2024 22:00:00,26.8458805,80.9365541,NH3,NA,NA,NA
India,Uttar_Pradesh,Lucknow,"Talkatora District Industries Center, Lucknow - CPCB",25-06-2024 22:00:00,26.83399722,80.8917361,NO2,11,13,12
India,Uttar_Pradesh,Lucknow,"Talkatora District Industries Center, Lucknow - CPCB",25-06-2024 22:00:00,26.83399722,80.8917361,NH3,4,5,5
India,Uttar_Pradesh,Meerut,"Ganga Nagar, Meerut - UPPCB",25-06-2024 22:00:00,28.999264,77.7590354,NO2,13,34,20
India,Uttar_Pradesh,Moradabad,"Buddhi Vihar, Moradabad - UPPCB",25-06-2024 22:00:00,28.83526,78.74460,PM2.5,33,225,59
India,Uttar_Pradesh,Moradabad,"Eco Herbal Park, Moradabad - UPPCB",25-06-2024 22:00:00,28.840739,78.697531,NH3,7,16,10
India,Uttar_Pradesh,Moradabad,"Eco Herbal Park, Moradabad - UPPCB",25-06-2024 22:00:00,28.840739,78.697531,CO,20,52,29
India,Uttar_Pradesh,Moradabad,"Employment Office, Moradabad - UPPCB",25-06-2024 22:00:00,28.88528,78.73880,NH3,4,4,4
India,Uttar_Pradesh,Moradabad,"Employment Office, Moradabad - UPPCB",25-06-2024 22:00:00,28.88528,78.73880,SO2,20,24,21
India,Uttar_Pradesh,Moradabad,"Employment Office, Moradabad - UPPCB",25-06-2024 22:00:00,28.88528,78.73880,CO,10,42,26
India,Uttar_Pradesh,Moradabad,"Jigar Colony, Moradabad - UPPCB",25-06-2024 22:00:00,28.856664,78.772638,NO2,12,18,13
India,Uttar_Pradesh,Moradabad,"Kashiram Nagar, Moradabad - UPPCB",25-06-2024 22:00:00,28.849399,78.742362,NO2,11,13,12
India,Uttar_Pradesh,Muzaffarnagar,"New Mandi, Muzaffarnagar - UPPCB",25-06-2024 22:00:00,29.4723508,77.7194031,CO,32,67,53
India,Uttar_Pradesh,Noida,"Sector - 125, Noida - UPPCB",25-06-2024 22:00:00,28.5447608,77.3231257,NO2,4,35,20
India,Uttar_Pradesh,Noida,"Sector - 125, Noida - UPPCB",25-06-2024 22:00:00,28.5447608,77.3231257,SO2,19,26,23
India,Uttar_Pradesh,Noida,"Sector - 125, Noida - UPPCB",25-06-2024 22:00:00,28.5447608,77.3231257,CO,22,42,32
India,Uttar_Pradesh,Noida,"Sector - 125, Noida - UPPCB",25-06-2024 22:00:00,28.5447608,77.3231257,OZONE,3,42,28
India,Uttar_Pradesh,Noida,"Sector - 62, Noida - IMD",25-06-2024 22:00:00,28.6245479,77.3577104,PM10,NA,NA,NA
India,Uttar_Pradesh,Noida,"Sector - 62, Noida - IMD",25-06-2024 22:00:00,28.6245479,77.3577104,NO2,NA,NA,NA
India,Uttar_Pradesh,Noida,"Sector-1, Noida - UPPCB",25-06-2024 22:00:00,28.5898,77.3101,PM2.5,68,266,118
India,Uttar_Pradesh,Noida,"Sector-1, Noida - UPPCB",25-06-2024 22:00:00,28.5898,77.3101,NO2,12,46,26
India,Uttar_Pradesh,Noida,"Sector-116, Noida - UPPCB",25-06-2024 22:00:00,28.569230,77.393848,NH3,10,14,13
India,Uttar_Pradesh,Prayagraj,"Jhunsi, Prayagraj - UPPCB",25-06-2024 22:00:00,25.425602,81.917152,PM10,30,101,57
India,Uttar_Pradesh,Prayagraj,"Motilal Nehru NIT, Prayagraj - UPPCB",25-06-2024 22:00:00,25.494,81.863,SO2,9,50,22
India,Uttar_Pradesh,Prayagraj,"Motilal Nehru NIT, Prayagraj - UPPCB",25-06-2024 22:00:00,25.494,81.863,OZONE,19,60,40
India,Uttar_Pradesh,Prayagraj,"Nagar Nigam, Prayagraj - UPPCB",25-06-2024 22:00:00,25.44919916 ,81.82735986 ,PM10,27,120,55
India,Uttar_Pradesh,Prayagraj,"Nagar Nigam, Prayagraj - UPPCB",25-06-2024 22:00:00,25.44919916 ,81.82735986 ,NO2,5,5,5
India,Uttar_Pradesh,Prayagraj,"Nagar Nigam, Prayagraj - UPPCB",25-06-2024 22:00:00,25.44919916 ,81.82735986 ,SO2,24,119,65
India,Uttar_Pradesh,Varanasi,"Ardhali Bazar, Varanasi - UPPCB",25-06-2024 22:00:00,25.3505986,82.9083074,CO,25,44,34
India,Uttar_Pradesh,Varanasi,"Bhelupur, Varanasi - UPPCB",25-06-2024 22:00:00,25.301778,82.996789,NO2,8,8,8
India,Uttar_Pradesh,Varanasi,"Bhelupur, Varanasi - UPPCB",25-06-2024 22:00:00,25.301778,82.996789,OZONE,4,18,14
India,Uttar_Pradesh,Varanasi,"IESD Banaras Hindu University, Varanasi - UPPCB",25-06-2024 22:00:00,25.262326,82.995408,PM2.5,5,17,10
India,Uttar_Pradesh,Varanasi,"IESD Banaras Hindu University, Varanasi - UPPCB",25-06-2024 22:00:00,25.262326,82.995408,NO2,2,2,2
India,Uttar_Pradesh,Varanasi,"Maldahiya, Varanasi - UPPCB",25-06-2024 22:00:00,25.32393,82.99687,NH3,1,1,1
India,Uttarakhand,Dehradun,"Doon University, Dehradun - UKPCB",25-06-2024 22:00:00,30.269444,78.044167,PM2.5,22,88,49
India,Uttarakhand,Kashipur,"Govt. Girls Inter College, Kashipur - UKPCB",25-06-2024 22:00:00,29.2124114,78.9611753,SO2,7,9,8
India,Uttarakhand,Rishikesh,"Shivaji Nagar, Rishikesh - UKPCB",25-06-2024 22:00:00,30.075911,78.2859547,NH3,2,7,5
India,West_Bengal,Asansol,"Asansol Court Area, Asansol - WBPCB",25-06-2024 22:00:00,23.685297,86.945968,SO2,11,14,12
India,West_Bengal,Asansol,"Evelyn Lodge, Asansol - WBPCB",25-06-2024 22:00:00,23.6979360,86.9443950,PM2.5,30,79,51
India,West_Bengal,Asansol,"Evelyn Lodge, Asansol - WBPCB",25-06-2024 22:00:00,23.6979360,86.9443950,PM10,36,103,66
India,West_Bengal,Asansol,"Evelyn Lodge, Asansol - WBPCB",25-06-2024 22:00:00,23.6979360,86.9443950,NO2,20,42,28
India,West_Bengal,Barrackpore,"SVSPA Campus, Barrackpore - WBPCB",25-06-2024 22:00:00,22.7605581,88.3617589,NH3,1,1,1
India,West_Bengal,Durgapur,"PCBL Residential Complex, Durgapur - WBPCB",25-06-2024 22:00:00,23.5087640,87.3544400,PM10,57,164,106
India,West_Bengal,Howrah,"Belur Math, Howrah - WBPCB",25-06-2024 22:00:00,22.629801,88.352017,CO,2,11,5
India,West_Bengal,Howrah,"Ghusuri, Howrah - WBPCB",25-06-2024 22:00:00,22.611968,88.347422,PM10,47,88,67
India,West_Bengal,Howrah,"Ghusuri, Howrah - WBPCB",25-06-2024 22:00:00,22.611968,88.347422,NH3,6,6,6
India,West_Bengal,Howrah,"Ghusuri, Howrah - WBPCB",25-06-2024 22:00:00,22.611968,88.347422,OZONE,14,24,17
India,West_Bengal,Howrah,"Padmapukur, Howrah - WBPCB",25-06-2024 22:00:00,22.5687319,88.2797276,PM2.5,36,60,48
India,West_Bengal,Howrah,"Padmapukur, Howrah - WBPCB",25-06-2024 22:00:00,22.5687319,88.2797276,NO2,27,50,37
India,West_Bengal,Howrah,"Padmapukur, Howrah - WBPCB",25-06-2024 22:00:00,22.5687319,88.2797276,OZONE,21,38,28
India,West_Bengal,Kolkata,"Ballygunge, Kolkata - WBPCB",25-06-2024 22:00:00,22.5367507,88.3638022,OZONE,15,33,20
India,West_Bengal,Kolkata,"Bidhannagar, Kolkata - WBPCB",25-06-2024 22:00:00,22.58157048,88.41002457,PM2.5,21,40,30
India,West_Bengal,Kolkata,"Bidhannagar, Kolkata - WBPCB",25-06-2024 22:00:00,22.58157048,88.41002457,PM10,28,71,46
India,West_Bengal,Kolkata,"Fort William, Kolkata - WBPCB",25-06-2024 22:00:00,22.556640,88.342674,PM2.5,21,78,51
India,West_Bengal,Kolkata,"Fort William, Kolkata - WBPCB",25-06-2024 22:00:00,22.556640,88.342674,SO2,3,5,4
India,West_Bengal,Kolkata,"Jadavpur, Kolkata - WBPCB",25-06-2024 22:00:00,22.49929,88.36917,PM2.5,31,70,40
India,West_Bengal,Kolkata,"Jadavpur, Kolkata - WBPCB",25-06-2024 22:00:00,22.49929,88.36917,NO2,11,156,20
India,West_Bengal,Kolkata,"Jadavpur, Kolkata - WBPCB",25-06-2024 22:00:00,22.49929,88.36917,CO,18,24,21
India,West_Bengal,Kolkata,"Rabindra Bharati University, Kolkata - WBPCB",25-06-2024 22:00:00,22.627847,88.380669,PM10,30,50,39
India,West_Bengal,Kolkata,"Rabindra Bharati University, Kolkata - WBPCB",25-06-2024 22:00:00,22.627847,88.380669,SO2,10,16,13
India,West_Bengal,Kolkata,"Rabindra Bharati University, Kolkata - WBPCB",25-06-2024 22:00:00,22.627847,88.380669,CO,21,26,24
India,West_Bengal,Kolkata,"Victoria, Kolkata - WBPCB",25-06-2024 22:00:00,22.5448082,88.3403691,PM2.5,20,56,31
India,West_Bengal,Kolkata,"Victoria, Kolkata - WBPCB",25-06-2024 22:00:00,22.5448082,88.3403691,SO2,4,7,6
India,West_Bengal,Siliguri,"Ward-32 Bapupara, Siliguri - WBPCB",25-06-2024 22:00:00,26.6879226,88.4152495,NO2,22,31,24
India,West_Bengal,Siliguri,"Ward-32 Bapupara, Siliguri - WBPCB",25-06-2024 22:00:00,26.6879226,88.4152495,NH3,9,11,10
India,Andhra_Pradesh,Amaravati,"Secretariat, Amaravati - APPCB",25-06-2024 22:00:00,16.5150833,80.5181667,NO2,2,18,8
India,Andhra_Pradesh,Anantapur,"Gulzarpet, Anantapur - APPCB",25-06-2024 22:00:00,14.675886,77.593027,CO,20,34,23
India,Andhra_Pradesh,Chittoor,"Gangineni Cheruvu, Chittoor - APPCB",25-06-2024 22:00:00,13.204880,79.097889,PM2.5,38,128,62
India,Andhra_Pradesh,Tirupati,"Vaikuntapuram, Tirupati - APPCB",25-06-2024 22:00:00,13.615387,79.409230,PM10,43,320,81
India,Andhra_Pradesh,Vijayawada,"Rajiv Gandhi Park, Vijayawada - APPCB",25-06-2024 22:00:00,16.509717,80.612222,PM2.5,30,61,49
India,Andhra_Pradesh,Vijayawada,"Rajiv Gandhi Park, Vijayawada - APPCB",25-06-2024 22:00:00,16.509717,80.612222,CO,38,42,39
India,Andhra_Pradesh,Vijayawada,"Rajiv Nagar, Vijayawada - APPCB",25-06-2024 22:00:00,16.554731,80.649110,PM2.5,47,71,50
India,Andhra_Pradesh,Vijayawada,"Rajiv Nagar, Vijayawada - APPCB",25-06-2024 22:00:00,16.554731,80.649110,SO2,26,26,26
India,Andhra_Pradesh,Visakhapatnam,"GVM Corporation, Visakhapatnam - APPCB",25-06-2024 22:00:00,17.72,83.3,PM10,52,123,83
India,Andhra_Pradesh,Visakhapatnam,"GVM Corporation, Visakhapatnam - APPCB",25-06-2024 22:00:00,17.72,83.3,NH3,2,4,3
India,Arunachal_Pradesh,Naharlagun,"Naharlagun, Naharlagun - APSPCB",25-06-2024 22:00:00,27.103358,93.679645,NO2,NA,NA,NA
India,Assam,Byrnihat,"Central Academy for SFS, Byrnihat - PCBA",25-06-2024 22:00:00,26.071318,91.87488,SO2,10,67,38
India,Assam,Guwahati,"IITG, Guwahati - PCBA",25-06-2024 22:00:00,26.2028636,91.70046436,CO,6,17,10
India,Assam,Guwahati,"LGBI Airport, Guwahati - PCBA",25-06-2024 22:00:00,26.10887,91.589544,NO2,6,23,13
India,Assam,Guwahati,"LGBI Airport, Guwahati - PCBA",25-06-2024 22:00:00,26.10887,91.589544,CO,45,65,56
India,Assam,Nagaon,"Christianpatty, Nagaon - PCBA",25-06-2024 22:00:00,26.349082,92.68449,SO2,10,10,10
India,Assam,Silchar,"Tarapur, Silchar - PCBA",25-06-2024 22:00:00,24.82827,92.79525,SO2,1,5,3
India,Assam,Sivasagar,"Girls College, Sivasagar - PCBA",25-06-2024 22:00:00,26.987634,94.636574,PM10,52,63,56
India,Bihar,Araria,"Kharahiya Basti, Araria - BSPCB",25-06-2024 22:00:00,26.146529,87.454184,NO2,4,18,8
India,Bihar,Araria,"Kharahiya Basti, Araria - BSPCB",25-06-2024 22:00:00,26.146529,87.454184,OZONE,28,34,33
India,Bihar,Arrah,"New DM Office, Arrah - BSPCB",25-06-2024 22:00:00,25.5626095,84.663264,CO,8,28,20
India,Bihar,Aurangabad,"Gurdeo Nagar, Aurangabad - BSPCB",25-06-2024 22:00:00,24.75746,84.366208,PM10,NA,NA,NA
India,Bihar,Bettiah,"Kamalnath Nagar, Bettiah - BSPCB",25-06-2024 22:00:00,26.80365,84.51954,PM2.5,NA,NA,NA
India,Bihar,Bhagalpur,"DM Office_Kachari Chowk, Bhagalpur - BSPCB",25-06-2024 22:00:00,25.251013,86.989001,NO2,19,62,47
India,Bihar,Bhagalpur,"DM Office_Kachari Chowk, Bhagalpur - BSPCB",25-06-2024 22:00:00,25.251013,86.989001,OZONE,43,53,47
India,Bihar,Bhagalpur,"Mayaganj, Bhagalpur - BSPCB",25-06-2024 22:00:00,25.265194,87.012947,NH3,NA,NA,NA
India,Bihar,Buxar,"Charitra Van, Buxar - BSPCB (Formerly known as Central Jail)",25-06-2024 22:00:00,25.567520,83.966379,NO2,NA,NA,NA
India,Bihar,Gaya,"Kareemganj, Gaya - BSPCB",25-06-2024 22:00:00,24.792403,84.992416,SO2,13,13,13
India,Bihar,Gaya,"Kareemganj, Gaya - BSPCB",25-06-2024 22:00:00,24.792403,84.992416,OZONE,3,121,32
India,Bihar,Gaya,"SFTI Kusdihra, Gaya - BSPCB",25-06-2024 22:00:00,24.762518,84.982348,NO2,17,29,21
India,Bihar,Hajipur,"Industrial Area, Hajipur - BSPCB",25-06-2024 22:00:00,25.697189,85.245900,NO2,9,24,15
India,Bihar,Katihar,"Mirchaibari, Katihar - BSPCB",25-06-2024 22:00:00,25.560083,87.553265,NO2,3,4,4
India,Bihar,Katihar,"Mirchaibari, Katihar - BSPCB",25-06-2024 22:00:00,25.560083,87.553265,SO2,8,12,10
India,Bihar,Katihar,"Mirchaibari, Katihar - BSPCB",25-06-2024 22:00:00,25.560083,87.553265,CO,23,34,30
India,Bihar,Kishanganj,"SDM Office_Khagra, Kishanganj - BSPCB",25-06-2024 22:00:00,26.0881305,87.93840336,NO2,28,31,30
India,Bihar,Kishanganj,"SDM Office_Khagra, Kishanganj - BSPCB",25-06-2024 22:00:00,26.0881305,87.93840336,SO2,1,28,14
India,Bihar,Munger,"Town Hall, Munger - BSPCB",25-06-2024 22:00:00,25.376776,86.471523,PM10,43,114,75
India,Bihar,Munger,"Town Hall, Munger - BSPCB",25-06-2024 22:00:00,25.376776,86.471523,SO2,13,41,26
India,Bihar,Muzaffarpur,"Buddha Colony, Muzaffarpur - BSPCB",25-06-2024 22:00:00,26.11442,85.39813,CO,20,36,26
India,Bihar,Muzaffarpur,"MIT-Daudpur Kothi, Muzaffarpur - BSPCB",25-06-2024 22:00:00,26.1403345,85.3650192,PM2.5,NA,NA,NA
India,Bihar,Muzaffarpur,"MIT-Daudpur Kothi, Muzaffarpur - BSPCB",25-06-2024 22:00:00,26.1403345,85.3650192,NO2,4,6,5
India,Bihar,Muzaffarpur,"MIT-Daudpur Kothi, Muzaffarpur - BSPCB",25-06-2024 22:00:00,26.1403345,85.3650192,NH3,12,19,13
India,Bihar,Patna,"DRM Office Danapur, Patna - BSPCB",25-06-2024 22:00:00,25.586562,85.043586,PM10,52,109,83
India,Bihar,Patna,"Govt. High School Shikarpur, Patna - BSPCB",25-06-2024 22:00:00,25.592539,85.227158,PM2.5,88,144,115
India,Bihar,Patna,"Govt. High School Shikarpur, Patna - BSPCB",25-06-2024 22:00:00,25.592539,85.227158,NO2,33,35,34
India,Bihar,Patna,"Govt. High School Shikarpur, Patna - BSPCB",25-06-2024 22:00:00,25.592539,85.227158,CO,34,59,49
India,Bihar,Patna,"Muradpur, Patna - BSPCB",25-06-2024 22:00:00,25.619651,85.147382,PM2.5,93,198,141
India,Bihar,Patna,"Samanpura, Patna - BSPCB",25-06-2024 22:00:00,25.596727,85.085624,CO,38,62,52
India,Bihar,Saharsa,"Police Line, Saharsa - BSPCB",25-06-2024 22:00:00,25.892357,86.590325,NH3,9,9,9
India,Bihar,Saharsa,"Police Line, Saharsa - BSPCB",25-06-2024 22:00:00,25.892357,86.590325,OZONE,8,43,28
India,Bihar,Samastipur,"DM Office_Kasipur, Samastipur - BSPCB",25-06-2024 22:00:00,25.859655,85.77944,SO2,41,52,47
India,Bihar,Samastipur,"DM Office_Kasipur, Samastipur - BSPCB",25-06-2024 22:00:00,25.859655,85.77944,OZONE,1,5,3
India,Bihar,Sasaram,"Dada Peer, Sasaram - BSPCB",25-06-2024 22:00:00,24.952822,84.002396,PM10,81,235,145
India,Chandigarh,Chandigarh,"Sector 22, Chandigarh - CPCC",25-06-2024 22:00:00,30.735567,76.775714,NH3,6,20,12
India,Chandigarh,Chandigarh,"Sector-25, Chandigarh - CPCC",25-06-2024 22:00:00,30.751462,76.762879,PM2.5,86,131,106
India,Chandigarh,Chandigarh,"Sector-25, Chandigarh - CPCC",25-06-2024 22:00:00,30.751462,76.762879,PM10,92,121,105
India,Chhattisgarh,Bhilai,"32Bungalows, Bhilai - CECB",25-06-2024 22:00:00,21.194815,81.314770,NO2,3,9,6
India,Chhattisgarh,Bhilai,"32Bungalows, Bhilai - CECB",25-06-2024 22:00:00,21.194815,81.314770,SO2,9,13,10
India,Chhattisgarh,Bhilai,"32Bungalows, Bhilai - CECB",25-06-2024 22:00:00,21.194815,81.314770,OZONE,8,57,39
India,Chhattisgarh,Bhilai,"Civic Center, Bhilai - Bhilai Steel Plant",25-06-2024 22:00:00,21.185571,81.343175,CO,32,47,43
India,Chhattisgarh,Bhilai,"Hathkhoj, Bhilai - CECB",25-06-2024 22:00:00,21.224231,81.408350,NO2,3,29,10
India,Chhattisgarh,Bhilai,"Hathkhoj, Bhilai - CECB",25-06-2024 22:00:00,21.224231,81.408350,SO2,9,27,11
India,Chhattisgarh,Korba,"Rampur, Korba - CECB",25-06-2024 22:00:00,22.368195,82.746431,CO,8,34,23
India,Chhattisgarh,Korba,"Urja Nagar, Korba - CECB",25-06-2024 22:00:00,22.348441,82.549611,SO2,6,9,7
India,Chhattisgarh,Kunjemura,"OP Jindal School, Kunjemura - CECB",25-06-2024 22:00:00,22.126650,83.483212,NO2,10,102,40
India,Chhattisgarh,Kunjemura,"OP Jindal School, Kunjemura - CECB",25-06-2024 22:00:00,22.126650,83.483212,CO,20,34,25
India,Chhattisgarh,Milupara,"Govt. Higher Secondary School, Milupara - CECB",25-06-2024 22:00:00,22.1910172,83.5197009,PM2.5,NA,NA,NA
India,Chhattisgarh,Raipur,"AIIMS, Raipur - CECB",25-06-2024 22:00:00,21.258815,81.578979,OZONE,2,29,20
India,Chhattisgarh,Raipur,"Bhatagaon New ISBT, Raipur - CECB",25-06-2024 22:00:00,21.219665,81.630094,PM10,22,63,38
India,Chhattisgarh,Raipur,"Bhatagaon New ISBT, Raipur - CECB",25-06-2024 22:00:00,21.219665,81.630094,OZONE,3,5,4
India,Chhattisgarh,Raipur,"Krishak Nagar, Raipur - CECB",25-06-2024 22:00:00,21.237755,81.705301,CO,12,24,20
India,Chhattisgarh,Raipur,"Siltara Phase-II, Raipur - CECB",25-06-2024 22:00:00,21.371751,81.664929,CO,10,38,20
India,Chhattisgarh,Raipur,"Siltara Phase-II, Raipur - CECB",25-06-2024 22:00:00,21.371751,81.664929,OZONE,3,27,16
India,Chhattisgarh,Tumidih,"OP Jindal Industrial Park, Tumidih - CECB",25-06-2024 22:00:00,22.06631475,83.33820077,PM10,NA,NA,NA
India,Chhattisgarh,Tumidih,"OP Jindal Industrial Park, Tumidih - CECB",25-06-2024 22:00:00,22.06631475,83.33820077,NO2,NA,NA,NA
India,Delhi,Delhi,"Alipur, Delhi - DPCC",25-06-2024 22:00:00,28.815329,77.153010,PM10,95,185,128
India,Delhi,Delhi,"Alipur, Delhi - DPCC",25-06-2024 22:00:00,28.815329,77.153010,SO2,11,30,21
India,Delhi,Delhi,"Alipur, Delhi - DPCC",25-06-2024 22:00:00,28.815329,77.153010,CO,38,52,45
India,Delhi,Delhi,"Alipur, Delhi - DPCC",25-06-2024 22:00:00,28.815329,77.153010,OZONE,4,129,93
India,Delhi,Delhi,"Ashok Vihar, Delhi - DPCC",25-06-2024 22:00:00,28.695381,77.181665,PM10,66,187,120
India,Delhi,Delhi,"Ashok Vihar, Delhi - DPCC",25-06-2024 22:00:00,28.695381,77.181665,SO2,6,15,11
India,Delhi,Delhi,"Aya Nagar, Delhi - IMD",25-06-2024 22:00:00,28.4706914,77.1099364,PM2.5,28,278,121
India,Delhi,Delhi,"Bawana, Delhi - DPCC",25-06-2024 22:00:00,28.776200,77.051074,NO2,13,69,36
India,Delhi,Delhi,"Bawana, Delhi - DPCC",25-06-2024 22:00:00,28.776200,77.051074,NH3,4,49,12
India,Delhi,Delhi,"CRRI Mathura Road, Delhi - IMD",25-06-2024 22:00:00,28.5512005,77.2735737,OZONE,5,66,35
India,Delhi,Delhi,"DTU, Delhi - CPCB",25-06-2024 22:00:00,28.7500499,77.1112615,PM10,74,260,132
India,Delhi,Delhi,"Dr. Karni Singh Shooting Range, Delhi - DPCC",25-06-2024 22:00:00,28.498571,77.264840,NH3,8,19,12
India,Delhi,Delhi,"IGI Airport (T3), Delhi - IMD",25-06-2024 22:00:00,28.5627763,77.1180053,OZONE,2,58,39
India,Delhi,Delhi,"IHBAS, Dilshad Garden, Delhi - CPCB",25-06-2024 22:00:00,28.6811736,77.3025234,NO2,32,77,48
India,Delhi,Delhi,"IHBAS, Dilshad Garden, Delhi - CPCB",25-06-2024 22:00:00,28.6811736,77.3025234,NH3,1,6,4
India,Delhi,Delhi,"IHBAS, Dilshad Garden, Delhi - CPCB",25-06-2024 22:00:00,28.6811736,77.3025234,SO2,10,31,21
India,Delhi,Delhi,"IHBAS, Dilshad Garden, Delhi - CPCB",25-06-2024 22:00:00,28.6811736,77.3025234,CO,8,77,25
India,Delhi,Delhi,"ITO, Delhi - CPCB",25-06-2024 22:00:00,28.628624,77.241060,OZONE,12,43,17
India,Delhi,Delhi,"Jahangirpuri, Delhi - DPCC",25-06-2024 22:00:00,28.732820,77.170633,NO2,14,65,30
India,Delhi,Delhi,"Jawaharlal Nehru Stadium, Delhi - DPCC",25-06-2024 22:00:00,28.580280,77.233829,OZONE,6,145,88
India,Delhi,Delhi,"Lodhi Road, Delhi - IMD",25-06-2024 22:00:00,28.5918245,77.2273074,NO2,1,6,2
India,Delhi,Delhi,"Lodhi Road, Delhi - IMD",25-06-2024 22:00:00,28.5918245,77.2273074,CO,32,40,39
India,Delhi,Delhi,"Major Dhyan Chand National Stadium, Delhi - DPCC",25-06-2024 22:00:00,28.611281,77.237738,NH3,NA,NA,NA
India,Delhi,Delhi,"Major Dhyan Chand National Stadium, Delhi - DPCC",25-06-2024 22:00:00,28.611281,77.237738,CO,28,58,43
India,Delhi,Delhi,"Major Dhyan Chand National Stadium, Delhi - DPCC",25-06-2024 22:00:00,28.611281,77.237738,OZONE,1,82,53
India,Delhi,Delhi,"Mandir Marg, Delhi - DPCC",25-06-2024 22:00:00,28.636429,77.201067,PM2.5,47,160,95
India,Delhi,Delhi,"Mandir Marg, Delhi - DPCC",25-06-2024 22:00:00,28.636429,77.201067,PM10,41,149,97
India,Delhi,Delhi,"Mandir Marg, Delhi - DPCC",25-06-2024 22:00:00,28.636429,77.201067,CO,33,60,44
India,Delhi,Delhi,"Mundka, Delhi - DPCC",25-06-2024 22:00:00,28.684678,77.076574,PM10,115,440,172
India,Delhi,Delhi,"Mundka, Delhi - DPCC",25-06-2024 22:00:00,28.684678,77.076574,CO,50,78,58
India,Delhi,Delhi,"NSIT Dwarka, Delhi - CPCB",25-06-2024 22:00:00,28.60909,77.0325413,PM10,NA,NA,NA
India,Delhi,Delhi,"Najafgarh, Delhi - DPCC",25-06-2024 22:00:00,28.570173,76.933762,NO2,12,38,20
India,Delhi,Delhi,"Narela, Delhi - DPCC",25-06-2024 22:00:00,28.822836,77.101981,PM2.5,82,211,123
India,Delhi,Delhi,"Narela, Delhi - DPCC",25-06-2024 22:00:00,28.822836,77.101981,PM10,122,473,233
India,Delhi,Delhi,"Narela, Delhi - DPCC",25-06-2024 22:00:00,28.822836,77.101981,NO2,10,45,25
India,Delhi,Delhi,"Narela, Delhi - DPCC",25-06-2024 22:00:00,28.822836,77.101981,OZONE,35,123,39
India,Delhi,Delhi,"Nehru Nagar, Delhi - DPCC",25-06-2024 22:00:00,28.567890,77.250515,PM10,84,139,109
India,Delhi,Delhi,"Nehru Nagar, Delhi - DPCC",25-06-2024 22:00:00,28.567890,77.250515,SO2,4,9,6
India,Delhi,Delhi,"New Moti Bagh, Delhi - MHUA",25-06-2024 22:00:00,28.57834,77.18400,NO2,6,28,9
India,Delhi,Delhi,"North Campus, DU, Delhi - IMD",25-06-2024 22:00:00,28.6573814,77.1585447,CO,36,57,44
India,Delhi,Delhi,"Okhla Phase-2, Delhi - DPCC",25-06-2024 22:00:00,28.530785,77.271255,CO,50,93,77
India,Delhi,Delhi,"Patparganj, Delhi - DPCC",25-06-2024 22:00:00,28.623763,77.287209,OZONE,3,113,79
India,Delhi,Delhi,"Pusa, Delhi - DPCC",25-06-2024 22:00:00,28.639652,77.146275,SO2,1,7,2
India,Delhi,Delhi,"Pusa, Delhi - IMD",25-06-2024 22:00:00,28.636110,77.173332,NO2,16,30,22
India,Delhi,Delhi,"Rohini, Delhi - DPCC",25-06-2024 22:00:00,28.732528,77.119920,PM10,111,255,159
India,Delhi,Delhi,"Rohini, Delhi - DPCC",25-06-2024 22:00:00,28.732528,77.119920,CO,32,59,40
India,Delhi,Delhi,"Sonia Vihar, Delhi - DPCC",25-06-2024 22:00:00,28.710508,77.249485,PM2.5,78,361,201
India,Delhi,Delhi,"Sonia Vihar, Delhi - DPCC",25-06-2024 22:00:00,28.710508,77.249485,OZONE,4,146,51
India,Delhi,Delhi,"Sri Aurobindo Marg, Delhi - DPCC",25-06-2024 22:00:00,28.531346,77.190156,PM10,NA,NA,NA
India,Delhi,Delhi,"Sri Aurobindo Marg, Delhi - DPCC",25-06-2024 22:00:00,28.531346,77.190156,NH3,10,47,27
India,Delhi,Delhi,"Sri Aurobindo Marg, Delhi - DPCC",25-06-2024 22:00:00,28.531346,77.190156,SO2,9,15,12
India,Delhi,Delhi,"Vivek Vihar, Delhi - DPCC",25-06-2024 22:00:00,28.672342,77.315260,PM2.5,62,184,118
India,Delhi,Delhi,"Vivek Vihar, Delhi - DPCC",25-06-2024 22:00:00,28.672342,77.315260,OZONE,3,81,52
India,Delhi,Delhi,"Wazirpur, Delhi - DPCC",25-06-2024 22:00:00,28.699793,77.165453,NH3,4,10,8
India,Gujarat,Ahmedabad,"Gyaspur, Ahmedabad - IITM",25-06-2024 22:00:00,22.977134,72.553024,CO,16,52,45
India,Gujarat,Ahmedabad,"Maninagar, Ahmedabad - GPCB",25-06-2024 22:00:00,23.002657,72.591912,SO2,17,23,20
India,Gujarat,Ahmedabad,"Raikhad, Ahmedabad - IITM",25-06-2024 22:00:00,23.020509,72.579261,NO2,NA,NA,NA
India,Gujarat,Ahmedabad,"Rakhial, Ahmedabad - IITM",25-06-2024 22:00:00,23.016834,72.625775,PM10,4,41,19
India,Gujarat,Ahmedabad,"SVPI Airport Hansol, Ahmedabad - IITM",25-06-2024 22:00:00,23.076793,72.627874,CO,NA,NA,NA
India,Gujarat,Ahmedabad,"Sardar Vallabhbhai Patel Stadium, Ahmedabad - IITM",25-06-2024 22:00:00,23.043070,72.562968,PM2.5,3,143,59
India,Gujarat,Ahmedabad,"Sardar Vallabhbhai Patel Stadium, Ahmedabad - IITM",25-06-2024 22:00:00,23.043070,72.562968,PM10,4,124,67
India,Gujarat,Ankleshwar,"GIDC, Ankleshwar - GPCB",25-06-2024 22:00:00,21.613267,73.010555,SO2,1,65,23
India,Gujarat,Gandhinagar,"GIFT City, Gandhinagar - IITM",25-06-2024 22:00:00,23.163798,72.677768,CO,12,32,19
India,Gujarat,Gandhinagar,"Sector-10, Gandhinagar - GPCB",25-06-2024 22:00:00,23.221714,72.654328,PM2.5,8,406,60
India,Gujarat,Gandhinagar,"Sector-10, Gandhinagar - GPCB",25-06-2024 22:00:00,23.221714,72.654328,NO2,22,24,23
India,Gujarat,Surat,"Science Center, Surat - SMC",25-06-2024 22:00:00,21.170046,72.795405,SO2,10,13,12
India,Gujarat,Vapi,"Phase-1 GIDC, Vapi - GPCB",25-06-2024 22:00:00,20.362421,72.918013,PM2.5,11,44,25
India,Gujarat,Vatva,"Phase-4 GIDC, Vatva - GPCB",25-06-2024 22:00:00,22.969611,72.643500,NH3,6,19,12
India,Haryana,Ambala,"Patti Mehar, Ambala - HSPCB",25-06-2024 22:00:00,30.379589,76.778328,PM2.5,3,30,14
India,Haryana,Bahadurgarh,"Arya Nagar, Bahadurgarh - HSPCB",25-06-2024 22:00:00,28.6701,76.9254,PM10,77,117,98
India,Haryana,Bahadurgarh,"Arya Nagar, Bahadurgarh - HSPCB",25-06-2024 22:00:00,28.6701,76.9254,CO,86,102,95
India,Haryana,Bhiwani,"H.B. Colony, Bhiwani - HSPCB",25-06-2024 22:00:00,28.806223,76.141105,NO2,3,11,8
India,Haryana,Bhiwani,"H.B. Colony, Bhiwani - HSPCB",25-06-2024 22:00:00,28.806223,76.141105,CO,25,68,36
India,Haryana,Faridabad,"Sector- 16A, Faridabad - HSPCB",25-06-2024 22:00:00,28.4088421,77.3099081,SO2,16,64,29
India,Haryana,Faridabad,"Sector- 16A, Faridabad - HSPCB",25-06-2024 22:00:00,28.4088421,77.3099081,OZONE,14,14,14
India,Haryana,Fatehabad,"Huda Sector, Fatehabad - HSPCB",25-06-2024 22:00:00,29.503664,75.467934,NO2,29,32,30
India,Haryana,Fatehabad,"Huda Sector, Fatehabad - HSPCB",25-06-2024 22:00:00,29.503664,75.467934,CO,76,87,77
India,Haryana,Gurugram,"NISE Gwal Pahari, Gurugram - IMD",25-06-2024 22:00:00,28.422681,77.148944,NO2,17,24,21
India,Haryana,Gurugram,"Sector-51, Gurugram - HSPCB",25-06-2024 22:00:00,28.4227,77.0667,PM2.5,74,214,132
India,Haryana,Gurugram,"Sector-51, Gurugram - HSPCB",25-06-2024 22:00:00,28.4227,77.0667,NH3,6,14,9
India,Haryana,Gurugram,"Sector-51, Gurugram - HSPCB",25-06-2024 22:00:00,28.4227,77.0667,OZONE,28,77,48
India,Haryana,Gurugram,"Teri Gram, Gurugram - HSPCB",25-06-2024 22:00:00,28.4275,77.1465,PM2.5,73,226,151
India,Haryana,Gurugram,"Teri Gram, Gurugram - HSPCB",25-06-2024 22:00:00,28.4275,77.1465,PM10,56,358,150
India,Haryana,Gurugram,"Teri Gram, Gurugram - HSPCB",25-06-2024 22:00:00,28.4275,77.1465,CO,6,91,55
India,Haryana,Gurugram,"Vikas Sadan, Gurugram - HSPCB",25-06-2024 22:00:00,28.4501238,77.0263051,OZONE,8,68,40
India,Haryana,Hisar,"Urban Estate-II, Hisar - HSPCB",25-06-2024 22:00:00,29.140560,75.744941,PM10,71,120,91
India,Haryana,Jind,"Police Lines, Jind - HSPCB",25-06-2024 22:00:00,29.307814,76.337619,SO2,1,16,6
India,Haryana,Kaithal,"Rishi Nagar, Kaithal - HSPCB",25-06-2024 22:00:00,29.8006,76.4155,PM10,77,111,94
India,Haryana,Kaithal,"Rishi Nagar, Kaithal - HSPCB",25-06-2024 22:00:00,29.8006,76.4155,NH3,8,8,8
India,Haryana,Kaithal,"Rishi Nagar, Kaithal - HSPCB",25-06-2024 22:00:00,29.8006,76.4155,CO,8,51,20
India,Haryana,Karnal,"Sector-12, Karnal - HSPCB",25-06-2024 22:00:00,29.695300,77.002700,PM10,50,70,58
India,Haryana,Kurukshetra,"Sector-7, Kurukshetra - HSPCB",25-06-2024 22:00:00,29.966942,76.875879,PM10,53,105,78
India,Haryana,Mandikhera,"General Hospital, Mandikhera - HSPCB",25-06-2024 22:00:00,27.9002,76.9938,PM10,NA,NA,NA
India,Haryana,Mandikhera,"General Hospital, Mandikhera - HSPCB",25-06-2024 22:00:00,27.9002,76.9938,SO2,30,40,34
India,Haryana,Manesar,"Sector-2 IMT, Manesar - HSPCB",25-06-2024 22:00:00,28.360699,76.936090,PM10,50,108,77
India,Haryana,Narnaul,"Shastri Nagar, Narnaul - HSPCB",25-06-2024 22:00:00,28.060249,76.113115,NO2,15,86,45
India,Haryana,Palwal,"Shyam Nagar, Palwal - HSPCB",25-06-2024 22:00:00,28.1485564,77.3320667,CO,19,30,26
India,Haryana,Panchkula,"Sector-6, Panchkula - HSPCB ",25-06-2024 22:00:00,30.7057778,76.8531805555555,NO2,10,11,10
India,Haryana,Panchkula,"Sector-6, Panchkula - HSPCB ",25-06-2024 22:00:00,30.7057778,76.8531805555555,CO,1,23,18
India,Haryana,Panchkula,"Sector-6, Panchkula - HSPCB ",25-06-2024 22:00:00,30.7057778,76.8531805555555,OZONE,26,55,44
India,Haryana,Sirsa,"F-Block, Sirsa - HSPCB",25-06-2024 22:00:00,29.536400,75.015800,CO,75,114,108
India,Haryana,Sonipat,"Murthal, Sonipat - HSPCB",25-06-2024 22:00:00,29.027200,77.062100,NO2,37,44,40
India,Haryana,Yamuna Nagar,"Gobind Pura, Yamuna Nagar - HSPCB",25-06-2024 22:00:00,30.1480566,77.2893471,PM10,70,112,93
India,Haryana,Yamuna Nagar,"Gobind Pura, Yamuna Nagar - HSPCB",25-06-2024 22:00:00,30.1480566,77.2893471,NO2,11,21,16
India,Haryana,Yamuna Nagar,"Gobind Pura, Yamuna Nagar - HSPCB",25-06-2024 22:00:00,30.1480566,77.2893471,SO2,1,84,15
India,Himachal Pradesh,Baddi,"HIMUDA Complex Phase-1, Baddi - HPPCB",25-06-2024 22:00:00,30.943887,76.801991,SO2,18,117,57
India,Jammu_and_Kashmir,Srinagar,"Rajbagh, Srinagar - JKSPCB",25-06-2024 22:00:00,34.066206,74.819820,PM2.5,NA,NA,NA
India,Jammu_and_Kashmir,Srinagar,"Rajbagh, Srinagar - JKSPCB",25-06-2024 22:00:00,34.066206,74.819820,NO2,NA,NA,NA
India,Jammu_and_Kashmir,Srinagar,"Rajbagh, Srinagar - JKSPCB",25-06-2024 22:00:00,34.066206,74.819820,CO,NA,NA,NA
India,Jharkhand,Dhanbad,"Sardar Patel Nagar, Dhanbad - JSPCB",25-06-2024 22:00:00,23.80569,86.44268,NO2,108,380,158
India,Jharkhand,Pathardih,"Mohalbani Ghat, Pathardih - DMC",25-06-2024 22:00:00,23.669880,86.411725,SO2,NA,NA,NA
India,Karnataka,Bagalkot,"Vidayagiri, Bagalkot - KSPCB",25-06-2024 22:00:00,16.172806,75.659694,PM10,42,42,42
India,Karnataka,Bagalkot,"Vidayagiri, Bagalkot - KSPCB",25-06-2024 22:00:00,16.172806,75.659694,SO2,NA,NA,NA
India,Karnataka,Bengaluru,"Bapuji Nagar, Bengaluru - KSPCB",25-06-2024 22:00:00,12.951913,77.539784,PM10,30,146,49
India,Karnataka,Bengaluru,"Bapuji Nagar, Bengaluru - KSPCB",25-06-2024 22:00:00,12.951913,77.539784,SO2,5,7,6
India,Karnataka,Bengaluru,"Bapuji Nagar, Bengaluru - KSPCB",25-06-2024 22:00:00,12.951913,77.539784,CO,19,24,22
India,Karnataka,Bengaluru,"City Railway Station, Bengaluru - KSPCB",25-06-2024 22:00:00,12.9756843,77.5660749,CO,52,94,73
India,Karnataka,Bengaluru,"Hebbal, Bengaluru - KSPCB",25-06-2024 22:00:00,13.029152,77.585901,PM10,19,40,28
India,Karnataka,Bengaluru,"Hebbal, Bengaluru - KSPCB",25-06-2024 22:00:00,13.029152,77.585901,CO,12,24,20
India,Karnataka,Bengaluru,"Jayanagar 5th Block, Bengaluru - KSPCB",25-06-2024 22:00:00,12.920984,77.584908,PM10,13,56,30
India,Karnataka,Bengaluru,"Jayanagar 5th Block, Bengaluru - KSPCB",25-06-2024 22:00:00,12.920984,77.584908,NO2,7,16,9
India,Karnataka,Bengaluru,"Jayanagar 5th Block, Bengaluru - KSPCB",25-06-2024 22:00:00,12.920984,77.584908,CO,20,23,21
India,Karnataka,Bengaluru,"Jayanagar 5th Block, Bengaluru - KSPCB",25-06-2024 22:00:00,12.920984,77.584908,OZONE,14,16,15
India,Karnataka,Bengaluru,"Jigani, Bengaluru - KSPCB",25-06-2024 22:00:00,12.7816279,77.6299145,PM10,NA,NA,NA
India,Karnataka,Bengaluru,"Kasturi Nagar, Bengaluru - KSPCB",25-06-2024 22:00:00,13.003872,77.664217,PM2.5,32,42,37
India,Karnataka,Bengaluru,"Peenya, Bengaluru - CPCB",25-06-2024 22:00:00,13.0270199,77.494094,NO2,17,27,22
India,Karnataka,Bengaluru,"Sanegurava Halli, Bengaluru - KSPCB",25-06-2024 22:00:00,12.990328,77.5431385,NO2,20,27,22
India,Karnataka,Bengaluru,"Shivapura_Peenya, Bengaluru - KSPCB",25-06-2024 22:00:00,13.0246342,77.5080115,PM2.5,31,63,41
India,Karnataka,Bengaluru,"Shivapura_Peenya, Bengaluru - KSPCB",25-06-2024 22:00:00,13.0246342,77.5080115,NO2,15,16,15
India,Karnataka,Bengaluru,"Shivapura_Peenya, Bengaluru - KSPCB",25-06-2024 22:00:00,13.0246342,77.5080115,CO,16,25,20
India,Karnataka,Bengaluru,"Silk Board, Bengaluru - KSPCB",25-06-2024 22:00:00,12.917348,77.622813,PM2.5,8,30,18
India,Karnataka,Bengaluru,"Silk Board, Bengaluru - KSPCB",25-06-2024 22:00:00,12.917348,77.622813,PM10,35,106,70
India,Karnataka,Bengaluru,"Silk Board, Bengaluru - KSPCB",25-06-2024 22:00:00,12.917348,77.622813,CO,2,20,14
India,Karnataka,Chikkaballapur,"Chikkaballapur Rural, Chikkaballapur - KSPCB",25-06-2024 22:00:00,13.428828,77.731418,SO2,16,27,20
India,Karnataka,Chikkamagaluru,"Kalyana Nagara, Chikkamagaluru - KSPCB",25-06-2024 22:00:00,13.328028,75.797056,PM10,24,81,42
India,Karnataka,Chikkamagaluru,"Kalyana Nagara, Chikkamagaluru - KSPCB",25-06-2024 22:00:00,13.328028,75.797056,NH3,2,5,3
India,Karnataka,Davanagere,"Devaraj Urs Badavane, Davanagere - KSPCB",25-06-2024 22:00:00,14.475800,75.905200,NH3,NA,NA,NA
India,Karnataka,Davanagere,"Devaraj Urs Badavane, Davanagere - KSPCB",25-06-2024 22:00:00,14.475800,75.905200,CO,16,24,22
India,Karnataka,Dharwad,"Kalabhavan, Dharwad - KSPCB",25-06-2024 22:00:00,15.459706,75.008381,OZONE,24,35,26
India,Karnataka,Hassan,"B.Katihalli, Hassan - KSPCB",25-06-2024 22:00:00,13.008556,76.125258,NO2,8,36,19
India,Karnataka,Hassan,"B.Katihalli, Hassan - KSPCB",25-06-2024 22:00:00,13.008556,76.125258,NH3,1,3,2
India,Karnataka,Hassan,"B.Katihalli, Hassan - KSPCB",25-06-2024 22:00:00,13.008556,76.125258,CO,8,56,20
India,Karnataka,Haveri,"Ashwini Nagar, Haveri - KSPCB",25-06-2024 22:00:00,14.791800,75.389600,SO2,12,13,12
India,Karnataka,Hubballi,"Lingaraj Nagar, Hubballi - KSPCB",25-06-2024 22:00:00,15.3714823,75.1160168,NO2,9,19,14
India,Karnataka,Hubballi,"Lingaraj Nagar, Hubballi - KSPCB",25-06-2024 22:00:00,15.3714823,75.1160168,CO,1,17,11
India,Karnataka,Kalaburagi,"Mahatma Basaveswar Colony, Kalaburgi - KSPCB",25-06-2024 22:00:00,17.336318,76.847397,PM10,14,43,24
India,Karnataka,Kalaburagi,"Mahatma Basaveswar Colony, Kalaburgi - KSPCB",25-06-2024 22:00:00,17.336318,76.847397,NH3,2,4,3
India,Karnataka,Kalaburagi,"Mahatma Basaveswar Colony, Kalaburgi - KSPCB",25-06-2024 22:00:00,17.336318,76.847397,OZONE,9,20,16
India,Karnataka,Karwar,"KHB Colony, Karwar - KSPCB",25-06-2024 22:00:00,14.816666,74.141003,CO,8,8,8
India,Karnataka,Kolar,"Tamaka Ind. Area, Kolar - KSPCB",25-06-2024 22:00:00,13.1276288,78.1570122,PM10,NA,NA,NA
India,Karnataka,Kolar,"Tamaka Ind. Area, Kolar - KSPCB",25-06-2024 22:00:00,13.1276288,78.1570122,NO2,20,42,25
India,Karnataka,Kolar,"Tamaka Ind. Area, Kolar - KSPCB",25-06-2024 22:00:00,13.1276288,78.1570122,NH3,4,9,7
India,Karnataka,Koppal,"Diwator Nagar, Koppal - KSPCB",25-06-2024 22:00:00,15.347630,76.181767,PM10,5,15,10
India,Karnataka,Koppal,"Diwator Nagar, Koppal - KSPCB",25-06-2024 22:00:00,15.347630,76.181767,SO2,30,35,30
India,Karnataka,Koppal,"Diwator Nagar, Koppal - KSPCB",25-06-2024 22:00:00,15.347630,76.181767,OZONE,10,21,16
India,Karnataka,Madikeri,"Stuart Hill, Madikeri - KSPCB",25-06-2024 22:00:00,12.415911,75.735050,OZONE,14,22,17
India,Karnataka,Mangalore,"Kadri, Mangalore - KSPCB",25-06-2024 22:00:00,12.889250,74.853000,OZONE,31,32,32
India,Karnataka,Mysuru,"Hebbal 1st Stage, Mysuru - KSPCB",25-06-2024 22:00:00,12.21041,76.37376,CO,1,31,14
India,Karnataka,Ramanagara,"Vijay Nagar, Ramanagara - KSPCB",25-06-2024 22:00:00,12.733409,77.298051,NO2,5,15,8
India,Karnataka,Ramanagara,"Vijay Nagar, Ramanagara - KSPCB",25-06-2024 22:00:00,12.733409,77.298051,CO,8,39,29
India,Karnataka,Tumakuru,"Thimmalapura, Tumakuru - KSPCB",25-06-2024 22:00:00,13.377516,77.099072,PM10,48,136,93
