country,state,city,station,last_update,latitude,longitude,pollutant_id,pollutant_min,pollutant_max,pollutant_avg
India,Andhra_Pradesh,Anantapur,"Gulzarpet, Anantapur - APPCB",23-02-2024 21:00:00,14.675886,77.593027,PM10,35,234,85
India,Andhra_Pradesh,Anantapur,"Gulzarpet, Anantapur - APPCB",23-02-2024 21:00:00,14.675886,77.593027,NH3,NA,NA,NA
India,Andhra_Pradesh,Anantapur,"Gulzarpet, Anantapur - APPCB",23-02-2024 21:00:00,14.675886,77.593027,OZONE,1,78,74
India,Andhra_Pradesh,Kadapa,"Yerramukkapalli, Kadapa - APPCB",23-02-2024 21:00:00,14.465052,78.824187,PM10,21,103,54
India,Andhra_Pradesh,Rajamahendravaram,"Anand Kala Kshetram, Rajamahendravaram - APPCB",23-02-2024 21:00:00,16.9872867,81.7363176,PM10,51,151,74
India,Andhra_Pradesh,Tirupati,"Vaikuntapuram, Tirupati - APPCB",23-02-2024 21:00:00,13.615387,79.409230,PM10,19,214,62
India,Andhra_Pradesh,Vijayawada,"Kanuru, Vijayawada - APPCB",23-02-2024 21:00:00,16.486692,80.699436,NH3,1,1,1
India,Andhra_Pradesh,Vijayawada,"Rajiv Nagar, Vijayawada - APPCB",23-02-2024 21:00:00,16.554731,80.649110,PM10,29,130,59
India,Andhra_Pradesh,Vijayawada,"Rajiv Nagar, Vijayawada - APPCB",23-02-2024 21:00:00,16.554731,80.649110,SO2,3,17,12
India,Assam,Byrnihat,"Central Academy for SFS, Byrnihat - PCBA",23-02-2024 21:00:00,26.071318,91.87488,PM2.5,73,395,226
India,Assam,Byrnihat,"Central Academy for SFS, Byrnihat - PCBA",23-02-2024 21:00:00,26.071318,91.87488,PM10,54,443,189
India,Assam,Byrnihat,"Central Academy for SFS, Byrnihat - PCBA",23-02-2024 21:00:00,26.071318,91.87488,NH3,4,8,7
India,Assam,Byrnihat,"Central Academy for SFS, Byrnihat - PCBA",23-02-2024 21:00:00,26.071318,91.87488,CO,1,174,13
India,Assam,Guwahati,"LGBI Airport, Guwahati - PCBA",23-02-2024 21:00:00,26.10887,91.589544,NH3,1,4,2
India,Assam,Guwahati,"LGBI Airport, Guwahati - PCBA",23-02-2024 21:00:00,26.10887,91.589544,OZONE,10,46,31
India,Assam,Guwahati,"Pan Bazaar, Guwahati - PCBA",23-02-2024 21:00:00,26.187500,91.744194,SO2,58,96,69
India,Assam,Guwahati,"Pan Bazaar, Guwahati - PCBA",23-02-2024 21:00:00,26.187500,91.744194,CO,20,110,48
India,Assam,Guwahati,"Railway Colony, Guwahati - PCBA",23-02-2024 21:00:00,26.181742,91.78063,PM10,71,310,133
India,Assam,Guwahati,"Railway Colony, Guwahati - PCBA",23-02-2024 21:00:00,26.181742,91.78063,OZONE,1,51,25
India,Assam,Nagaon,"Christianpatty, Nagaon - PCBA",23-02-2024 21:00:00,26.349082,92.68449,PM10,53,316,108
India,Bihar,Araria,"Kharahiya Basti, Araria - BSPCB",23-02-2024 21:00:00,26.146529,87.454184,PM2.5,54,305,155
India,Bihar,Arrah,"New DM Office, Arrah - BSPCB",23-02-2024 21:00:00,25.5626095,84.663264,SO2,17,22,19
India,Bihar,Aurangabad,"Gurdeo Nagar, Aurangabad - BSPCB",23-02-2024 21:00:00,24.75746,84.366208,NO2,NA,NA,NA
India,Bihar,Aurangabad,"Gurdeo Nagar, Aurangabad - BSPCB",23-02-2024 21:00:00,24.75746,84.366208,NH3,6,9,8
India,Bihar,Bettiah,"Kamalnath Nagar, Bettiah - BSPCB",23-02-2024 21:00:00,26.80365,84.51954,PM2.5,10,68,27
India,Bihar,Bettiah,"Kamalnath Nagar, Bettiah - BSPCB",23-02-2024 21:00:00,26.80365,84.51954,NH3,3,4,3
India,Bihar,Bettiah,"Kamalnath Nagar, Bettiah - BSPCB",23-02-2024 21:00:00,26.80365,84.51954,CO,62,69,64
India,Bihar,Bhagalpur,"DM Office_Kachari Chowk, Bhagalpur - BSPCB",23-02-2024 21:00:00,25.251013,86.989001,PM2.5,60,197,115
India,Bihar,Bhagalpur,"DM Office_Kachari Chowk, Bhagalpur - BSPCB",23-02-2024 21:00:00,25.251013,86.989001,PM10,70,165,119
India,Bihar,Bhagalpur,"Mayaganj, Bhagalpur - BSPCB",23-02-2024 21:00:00,25.265194,87.012947,CO,8,10,9
India,Bihar,Bihar Sharif,"D M Colony, Bihar Sharif - BSPCB",23-02-2024 21:00:00,25.204762,85.514960,PM2.5,23,98,59
India,Bihar,Bihar Sharif,"D M Colony, Bihar Sharif - BSPCB",23-02-2024 21:00:00,25.204762,85.514960,SO2,2,10,6
India,Bihar,Buxar,"Charitra Van, Buxar - BSPCB (Formerly known as Central Jail)",23-02-2024 21:00:00,25.567520,83.966379,OZONE,9,109,103
India,Bihar,Chhapra,"Darshan Nagar, Chhapra - BSPCB",23-02-2024 21:00:00,25.7808257,84.7446768,OZONE,3,41,31
India,Bihar,Gaya,"Collectorate, Gaya - BSPCB",23-02-2024 21:00:00,24.7955,84.9994,OZONE,38,79,61
India,Bihar,Gaya,"Kareemganj, Gaya - BSPCB",23-02-2024 21:00:00,24.792403,84.992416,NO2,29,31,30
India,Bihar,Gaya,"SFTI Kusdihra, Gaya - BSPCB",23-02-2024 21:00:00,24.762518,84.982348,PM10,38,76,56
India,Bihar,Gaya,"SFTI Kusdihra, Gaya - BSPCB",23-02-2024 21:00:00,24.762518,84.982348,NO2,24,63,40
India,Bihar,Hajipur,"Industrial Area, Hajipur - BSPCB",23-02-2024 21:00:00,25.697189,85.245900,PM2.5,55,140,91
India,Bihar,Hajipur,"Industrial Area, Hajipur - BSPCB",23-02-2024 21:00:00,25.697189,85.245900,NO2,24,70,41
India,Bihar,Hajipur,"Industrial Area, Hajipur - BSPCB",23-02-2024 21:00:00,25.697189,85.245900,SO2,2,6,4
India,Bihar,Katihar,"Mirchaibari, Katihar - BSPCB",23-02-2024 21:00:00,25.560083,87.553265,SO2,17,22,19
India,Bihar,Katihar,"Mirchaibari, Katihar - BSPCB",23-02-2024 21:00:00,25.560083,87.553265,OZONE,19,24,22
India,Bihar,Kishanganj,"SDM Office_Khagra, Kishanganj - BSPCB",23-02-2024 21:00:00,26.0881305,87.93840336,PM2.5,NA,NA,NA
India,Bihar,Kishanganj,"SDM Office_Khagra, Kishanganj - BSPCB",23-02-2024 21:00:00,26.0881305,87.93840336,PM10,97,195,129
India,Bihar,Kishanganj,"SDM Office_Khagra, Kishanganj - BSPCB",23-02-2024 21:00:00,26.0881305,87.93840336,NH3,11,13,12
India,Bihar,Kishanganj,"SDM Office_Khagra, Kishanganj - BSPCB",23-02-2024 21:00:00,26.0881305,87.93840336,CO,3,17,3
India,Bihar,Manguraha,"Forest Rest House, Manguraha - BSPCB",23-02-2024 21:00:00,27.308328,84.531742,NH3,NA,NA,NA
India,Bihar,Motihari,"Gandak Colony, Motihari - BSPCB",23-02-2024 21:00:00,26.63086,84.90051,SO2,1,14,7
India,Bihar,Munger,"Town Hall, Munger - BSPCB",23-02-2024 21:00:00,25.376776,86.471523,PM2.5,23,73,45
India,Bihar,Muzaffarpur,"Buddha Colony, Muzaffarpur - BSPCB",23-02-2024 21:00:00,26.11442,85.39813,SO2,2,8,4
India,Bihar,Muzaffarpur,"MIT-Daudpur Kothi, Muzaffarpur - BSPCB",23-02-2024 21:00:00,26.1403345,85.3650192,PM2.5,43,140,73
India,Bihar,Muzaffarpur,"MIT-Daudpur Kothi, Muzaffarpur - BSPCB",23-02-2024 21:00:00,26.1403345,85.3650192,PM10,103,238,149
India,Bihar,Patna,"Govt. High School Shikarpur, Patna - BSPCB",23-02-2024 21:00:00,25.592539,85.227158,NH3,4,4,4
India,Bihar,Patna,"Govt. High School Shikarpur, Patna - BSPCB",23-02-2024 21:00:00,25.592539,85.227158,CO,26,50,36
India,Bihar,Patna,"IGSC Planetarium Complex, Patna - BSPCB",23-02-2024 21:00:00,25.610369,85.132568,PM2.5,42,90,65
India,Bihar,Patna,"Muradpur, Patna - BSPCB",23-02-2024 21:00:00,25.619651,85.147382,PM10,149,400,210
India,Bihar,Patna,"Muradpur, Patna - BSPCB",23-02-2024 21:00:00,25.619651,85.147382,OZONE,4,69,48
India,Bihar,Patna,"Samanpura, Patna - BSPCB",23-02-2024 21:00:00,25.596727,85.085624,PM10,130,457,199
India,Bihar,Patna,"Samanpura, Patna - BSPCB",23-02-2024 21:00:00,25.596727,85.085624,SO2,16,17,16
India,Bihar,Rajgir,"Dangi Tola, Rajgir - BSPCB",23-02-2024 21:00:00,25.03280,85.41948,SO2,NA,NA,NA
India,Bihar,Saharsa,"Police Line, Saharsa - BSPCB",23-02-2024 21:00:00,25.892357,86.590325,OZONE,17,98,63
India,Bihar,Samastipur,"DM Office_Kasipur, Samastipur - BSPCB",23-02-2024 21:00:00,25.859655,85.77944,PM10,56,239,115
India,Bihar,Sasaram,"Dada Peer, Sasaram - BSPCB",23-02-2024 21:00:00,24.952822,84.002396,PM10,32,116,74
India,Bihar,Siwan,"Chitragupta Nagar, Siwan - BSPCB",23-02-2024 21:00:00,26.2271665,84.3570427,OZONE,4,70,47
India,Chandigarh,Chandigarh,"Sector 22, Chandigarh - CPCC",23-02-2024 21:00:00,30.735567,76.775714,PM2.5,18,308,76
India,Chandigarh,Chandigarh,"Sector-53, Chandigarh - CPCC",23-02-2024 21:00:00,30.719859,76.738637,CO,36,102,56
India,Chhattisgarh,Bhilai,"32Bungalows, Bhilai - CECB",23-02-2024 21:00:00,21.194815,81.314770,SO2,2,7,4
India,Chhattisgarh,Bhilai,"32Bungalows, Bhilai - CECB",23-02-2024 21:00:00,21.194815,81.314770,OZONE,4,8,6
India,Chhattisgarh,Bhilai,"Civic Center, Bhilai - Bhilai Steel Plant",23-02-2024 21:00:00,21.185571,81.343175,PM2.5,NA,NA,NA
India,Chhattisgarh,Bhilai,"Civic Center, Bhilai - Bhilai Steel Plant",23-02-2024 21:00:00,21.185571,81.343175,PM10,NA,NA,NA
India,Chhattisgarh,Bhilai,"Civic Center, Bhilai - Bhilai Steel Plant",23-02-2024 21:00:00,21.185571,81.343175,NO2,NA,NA,NA
India,Chhattisgarh,Bhilai,"Civic Center, Bhilai - Bhilai Steel Plant",23-02-2024 21:00:00,21.185571,81.343175,CO,24,47,37
India,Chhattisgarh,Bhilai,"Hathkhoj, Bhilai - CECB",23-02-2024 21:00:00,21.224231,81.408350,PM2.5,19,84,40
India,Chhattisgarh,Bhilai,"Hathkhoj, Bhilai - CECB",23-02-2024 21:00:00,21.224231,81.408350,PM10,58,138,84
India,Chhattisgarh,Bhilai,"Hathkhoj, Bhilai - CECB",23-02-2024 21:00:00,21.224231,81.408350,SO2,11,42,19
India,Chhattisgarh,Bilaspur,"Mangala, Bilaspur - NTPC",23-02-2024 21:00:00,22.08815,82.13737,PM2.5,26,76,45
India,Chhattisgarh,Bilaspur,"Mangala, Bilaspur - NTPC",23-02-2024 21:00:00,22.08815,82.13737,CO,36,42,38
India,Chhattisgarh,Chhal,"Nawapara SECL Colony, Chhal - CECB",23-02-2024 21:00:00,22.118125,83.140608,SO2,12,21,16
India,Chhattisgarh,Korba,"Urja Nagar, Korba - CECB",23-02-2024 21:00:00,22.348441,82.549611,NH3,5,7,6
India,Chhattisgarh,Kunjemura,"OP Jindal School, Kunjemura - CECB",23-02-2024 21:00:00,22.126650,83.483212,NH3,1,3,2
India,Chhattisgarh,Kunjemura,"OP Jindal School, Kunjemura - CECB",23-02-2024 21:00:00,22.126650,83.483212,SO2,1,11,5
India,Chhattisgarh,Milupara,"Govt. Higher Secondary School, Milupara - CECB",23-02-2024 21:00:00,22.1910172,83.5197009,PM2.5,17,41,27
India,Chhattisgarh,Milupara,"Govt. Higher Secondary School, Milupara - CECB",23-02-2024 21:00:00,22.1910172,83.5197009,NH3,1,2,2
India,Chhattisgarh,Raipur,"AIIMS, Raipur - CECB",23-02-2024 21:00:00,21.258815,81.578979,CO,16,41,23
India,Chhattisgarh,Raipur,"Bhatagaon New ISBT, Raipur - CECB",23-02-2024 21:00:00,21.219665,81.630094,NH3,1,1,1
India,Chhattisgarh,Raipur,"Siltara Phase-II, Raipur - CECB",23-02-2024 21:00:00,21.371751,81.664929,CO,12,64,16
India,Chhattisgarh,Tumidih,"OP Jindal Industrial Park, Tumidih - CECB",23-02-2024 21:00:00,22.06631475,83.33820077,NO2,5,46,14
India,Chhattisgarh,Tumidih,"OP Jindal Industrial Park, Tumidih - CECB",23-02-2024 21:00:00,22.06631475,83.33820077,NH3,1,3,2
India,Delhi,Delhi,"Anand Vihar, Delhi - DPCC",23-02-2024 21:00:00,28.647622,77.3158090,PM2.5,12,308,111
India,Delhi,Delhi,"Anand Vihar, Delhi - DPCC",23-02-2024 21:00:00,28.647622,77.3158090,NH3,2,12,6
India,Delhi,Delhi,"Burari Crossing, Delhi - IMD",23-02-2024 21:00:00,28.7256504,77.2011573,PM10,81,413,172
India,Delhi,Delhi,"Chandni Chowk, Delhi - IITM",23-02-2024 21:00:00,28.656756,77.227234,OZONE,24,29,28
India,Delhi,Delhi,"DTU, Delhi - CPCB",23-02-2024 21:00:00,28.7500499,77.1112615,PM2.5,27,113,65
India,Delhi,Delhi,"DTU, Delhi - CPCB",23-02-2024 21:00:00,28.7500499,77.1112615,NH3,11,15,12
India,Delhi,Delhi,"DTU, Delhi - CPCB",23-02-2024 21:00:00,28.7500499,77.1112615,SO2,29,34,31
India,Delhi,Delhi,"Dr. Karni Singh Shooting Range, Delhi - DPCC",23-02-2024 21:00:00,28.498571,77.264840,PM10,75,169,121
India,Delhi,Delhi,"IHBAS, Dilshad Garden, Delhi - CPCB",23-02-2024 21:00:00,28.6811736,77.3025234,SO2,3,52,16
India,Delhi,Delhi,"ITO, Delhi - CPCB",23-02-2024 21:00:00,28.628624,77.241060,CO,10,98,41
India,Delhi,Delhi,"Jahangirpuri, Delhi - DPCC",23-02-2024 21:00:00,28.732820,77.170633,PM10,104,401,191
India,Delhi,Delhi,"Jahangirpuri, Delhi - DPCC",23-02-2024 21:00:00,28.732820,77.170633,SO2,5,18,12
India,Delhi,Delhi,"Jawaharlal Nehru Stadium, Delhi - DPCC",23-02-2024 21:00:00,28.580280,77.233829,PM10,69,163,111
India,Delhi,Delhi,"Jawaharlal Nehru Stadium, Delhi - DPCC",23-02-2024 21:00:00,28.580280,77.233829,SO2,1,20,7
India,Delhi,Delhi,"Lodhi Road, Delhi - IITM",23-02-2024 21:00:00,28.588333,77.221667,OZONE,15,18,17
India,Delhi,Delhi,"Lodhi Road, Delhi - IMD",23-02-2024 21:00:00,28.5918245,77.2273074,CO,4,15,7
India,Delhi,Delhi,"Major Dhyan Chand National Stadium, Delhi - DPCC",23-02-2024 21:00:00,28.611281,77.237738,PM2.5,45,248,103
India,Delhi,Delhi,"Major Dhyan Chand National Stadium, Delhi - DPCC",23-02-2024 21:00:00,28.611281,77.237738,OZONE,2,135,87
India,Delhi,Delhi,"Mandir Marg, Delhi - DPCC",23-02-2024 21:00:00,28.636429,77.201067,NO2,103,124,114
India,Delhi,Delhi,"Mundka, Delhi - DPCC",23-02-2024 21:00:00,28.684678,77.076574,PM2.5,40,375,186
India,Delhi,Delhi,"Mundka, Delhi - DPCC",23-02-2024 21:00:00,28.684678,77.076574,PM10,116,417,200
India,Delhi,Delhi,"Mundka, Delhi - DPCC",23-02-2024 21:00:00,28.684678,77.076574,NH3,5,7,6
India,Delhi,Delhi,"NSIT Dwarka, Delhi - CPCB",23-02-2024 21:00:00,28.60909,77.0325413,OZONE,18,87,66
India,Delhi,Delhi,"Najafgarh, Delhi - DPCC",23-02-2024 21:00:00,28.570173,76.933762,OZONE,13,166,123
India,Delhi,Delhi,"Narela, Delhi - DPCC",23-02-2024 21:00:00,28.822836,77.101981,PM10,69,185,129
India,Delhi,Delhi,"Narela, Delhi - DPCC",23-02-2024 21:00:00,28.822836,77.101981,CO,37,56,42
India,Delhi,Delhi,"Nehru Nagar, Delhi - DPCC",23-02-2024 21:00:00,28.567890,77.250515,PM2.5,40,324,122
India,Delhi,Delhi,"North Campus, DU, Delhi - IMD",23-02-2024 21:00:00,28.6573814,77.1585447,PM10,100,165,139
India,Delhi,Delhi,"Okhla Phase-2, Delhi - DPCC",23-02-2024 21:00:00,28.530785,77.271255,NO2,40,145,90
India,Delhi,Delhi,"Okhla Phase-2, Delhi - DPCC",23-02-2024 21:00:00,28.530785,77.271255,OZONE,9,107,72
India,Delhi,Delhi,"Patparganj, Delhi - DPCC",23-02-2024 21:00:00,28.623763,77.287209,NO2,33,74,50
India,Delhi,Delhi,"Patparganj, Delhi - DPCC",23-02-2024 21:00:00,28.623763,77.287209,NH3,7,13,10
India,Delhi,Delhi,"Patparganj, Delhi - DPCC",23-02-2024 21:00:00,28.623763,77.287209,CO,11,59,24
India,Delhi,Delhi,"Punjabi Bagh, Delhi - DPCC",23-02-2024 21:00:00,28.674045,77.131023,OZONE,7,56,31
India,Delhi,Delhi,"Pusa, Delhi - DPCC",23-02-2024 21:00:00,28.639652,77.146275,SO2,13,26,17
India,Delhi,Delhi,"R K Puram, Delhi - DPCC",23-02-2024 21:00:00,28.563262,77.186937,NH3,1,1,1
India,Delhi,Delhi,"Rohini, Delhi - DPCC",23-02-2024 21:00:00,28.732528,77.119920,SO2,7,28,14
India,Delhi,Delhi,"Shadipur, Delhi - CPCB",23-02-2024 21:00:00,28.6514781,77.1473105,PM10,125,204,158
India,Delhi,Delhi,"Shadipur, Delhi - CPCB",23-02-2024 21:00:00,28.6514781,77.1473105,NO2,38,64,55
India,Delhi,Delhi,"Shadipur, Delhi - CPCB",23-02-2024 21:00:00,28.6514781,77.1473105,CO,1,104,50
India,Delhi,Delhi,"Sirifort, Delhi - CPCB",23-02-2024 21:00:00,28.5504249,77.2159377,OZONE,15,23,19
India,Delhi,Delhi,"Sonia Vihar, Delhi - DPCC",23-02-2024 21:00:00,28.710508,77.249485,NO2,23,82,53
India,Delhi,Delhi,"Sonia Vihar, Delhi - DPCC",23-02-2024 21:00:00,28.710508,77.249485,SO2,5,21,11
India,Delhi,Delhi,"Sonia Vihar, Delhi - DPCC",23-02-2024 21:00:00,28.710508,77.249485,OZONE,11,127,96
India,Delhi,Delhi,"Vivek Vihar, Delhi - DPCC",23-02-2024 21:00:00,28.672342,77.315260,PM2.5,38,222,109
India,Delhi,Delhi,"Vivek Vihar, Delhi - DPCC",23-02-2024 21:00:00,28.672342,77.315260,NO2,32,85,55
India,Delhi,Delhi,"Vivek Vihar, Delhi - DPCC",23-02-2024 21:00:00,28.672342,77.315260,NH3,3,6,5
India,Gujarat,Ahmedabad,"Maninagar, Ahmedabad - GPCB",23-02-2024 21:00:00,23.002657,72.591912,PM2.5,NA,NA,NA
India,Gujarat,Ahmedabad,"Maninagar, Ahmedabad - GPCB",23-02-2024 21:00:00,23.002657,72.591912,SO2,NA,NA,NA
India,Gujarat,Ahmedabad,"Maninagar, Ahmedabad - GPCB",23-02-2024 21:00:00,23.002657,72.591912,OZONE,9,45,34
India,Gujarat,Ahmedabad,"Raikhad, Ahmedabad - IITM",23-02-2024 21:00:00,23.020509,72.579261,NO2,19,60,33
India,Gujarat,Ahmedabad,"Raikhad, Ahmedabad - IITM",23-02-2024 21:00:00,23.020509,72.579261,NH3,2,3,2
India,Gujarat,Ahmedabad,"Rakhial, Ahmedabad - IITM",23-02-2024 21:00:00,23.016834,72.625775,NO2,67,92,75
India,Gujarat,Ahmedabad,"SAC ISRO Bopal, Ahmedabad - IITM",23-02-2024 21:00:00,23.041137,72.456691,PM2.5,81,233,134
India,Gujarat,Ahmedabad,"SAC ISRO Bopal, Ahmedabad - IITM",23-02-2024 21:00:00,23.041137,72.456691,CO,18,34,34
India,Gujarat,Ahmedabad,"SAC ISRO Satellite, Ahmedabad - IITM",23-02-2024 21:00:00,23.023389,72.515201,PM10,99,115,110
India,Gujarat,Ahmedabad,"SAC ISRO Satellite, Ahmedabad - IITM",23-02-2024 21:00:00,23.023389,72.515201,OZONE,3,20,15
India,Gujarat,Ahmedabad,"Sardar Vallabhbhai Patel Stadium, Ahmedabad - IITM",23-02-2024 21:00:00,23.043070,72.562968,NH3,1,2,1
India,Gujarat,Ahmedabad,"Sardar Vallabhbhai Patel Stadium, Ahmedabad - IITM",23-02-2024 21:00:00,23.043070,72.562968,CO,8,68,21
India,Gujarat,Gandhinagar,"IIPHG Lekawada, Gandhinagar - IITM",23-02-2024 21:00:00,23.243639,72.68994,PM10,68,126,93
India,Gujarat,Gandhinagar,"Sector-10, Gandhinagar - GPCB",23-02-2024 21:00:00,23.221714,72.654328,CO,29,119,53
India,Gujarat,Surat,"Science Center, Surat - SMC",23-02-2024 21:00:00,21.170046,72.795405,PM2.5,NA,NA,NA
India,Gujarat,Surat,"Science Center, Surat - SMC",23-02-2024 21:00:00,21.170046,72.795405,NO2,7,75,25
India,Gujarat,Surat,"Science Center, Surat - SMC",23-02-2024 21:00:00,21.170046,72.795405,SO2,18,76,36
India,Gujarat,Vapi,"Phase-1 GIDC, Vapi - GPCB",23-02-2024 21:00:00,20.362421,72.918013,SO2,46,47,46
India,Gujarat,Vatva,"Phase-4 GIDC, Vatva - GPCB",23-02-2024 21:00:00,22.969611,72.643500,OZONE,6,6,6
India,Haryana,Ambala,"Patti Mehar, Ambala - HSPCB",23-02-2024 21:00:00,30.379589,76.778328,NH3,7,8,7
India,Haryana,Bahadurgarh,"Arya Nagar, Bahadurgarh - HSPCB",23-02-2024 21:00:00,28.6701,76.9254,PM10,NA,NA,NA
India,Haryana,Bhiwani,"H.B. Colony, Bhiwani - HSPCB",23-02-2024 21:00:00,28.806223,76.141105,NO2,7,11,9
India,Haryana,Charkhi Dadri,"Mini Secretariat, Charkhi Dadri - HSPCB",23-02-2024 21:00:00,28.593883,76.270653,NO2,9,9,9
India,Haryana,Charkhi Dadri,"Mini Secretariat, Charkhi Dadri - HSPCB",23-02-2024 21:00:00,28.593883,76.270653,CO,9,14,11
India,Haryana,Faridabad,"New Industrial Town, Faridabad - HSPCB",23-02-2024 21:00:00,28.39072,77.30059,NH3,NA,NA,NA
India,Haryana,Faridabad,"New Industrial Town, Faridabad - HSPCB",23-02-2024 21:00:00,28.39072,77.30059,CO,12,21,16
India,Haryana,Faridabad,"Sector 11, Faridabad - HSPCB",23-02-2024 21:00:00,28.376058,77.315741,NO2,30,32,31
India,Haryana,Faridabad,"Sector 30, Faridabad - HSPCB",23-02-2024 21:00:00,28.4417,77.3217,PM10,107,119,112
India,Haryana,Faridabad,"Sector 30, Faridabad - HSPCB",23-02-2024 21:00:00,28.4417,77.3217,CO,26,94,43
India,Haryana,Faridabad,"Sector- 16A, Faridabad - HSPCB",23-02-2024 21:00:00,28.4088421,77.3099081,PM2.5,34,256,95
India,Haryana,Faridabad,"Sector- 16A, Faridabad - HSPCB",23-02-2024 21:00:00,28.4088421,77.3099081,OZONE,14,14,14
India,Haryana,Fatehabad,"Huda Sector, Fatehabad - HSPCB",23-02-2024 21:00:00,29.503664,75.467934,PM10,61,157,87
India,Haryana,Fatehabad,"Huda Sector, Fatehabad - HSPCB",23-02-2024 21:00:00,29.503664,75.467934,NO2,29,31,30
India,Haryana,Gurugram,"Sector-51, Gurugram - HSPCB",23-02-2024 21:00:00,28.4227,77.0667,NO2,13,29,23
India,Haryana,Gurugram,"Sector-51, Gurugram - HSPCB",23-02-2024 21:00:00,28.4227,77.0667,OZONE,27,67,56
India,Haryana,Gurugram,"Vikas Sadan, Gurugram - HSPCB",23-02-2024 21:00:00,28.4501238,77.0263051,NO2,5,26,14
India,Haryana,Jind,"Police Lines, Jind - HSPCB",23-02-2024 21:00:00,29.307814,76.337619,NH3,2,5,4
India,Haryana,Karnal,"Sector-12, Karnal - HSPCB",23-02-2024 21:00:00,29.695300,77.002700,PM2.5,18,56,33
India,Haryana,Karnal,"Sector-12, Karnal - HSPCB",23-02-2024 21:00:00,29.695300,77.002700,PM10,41,96,65
India,Haryana,Karnal,"Sector-12, Karnal - HSPCB",23-02-2024 21:00:00,29.695300,77.002700,CO,15,43,26
India,Haryana,Kurukshetra,"Sector-7, Kurukshetra - HSPCB",23-02-2024 21:00:00,29.966942,76.875879,CO,8,26,14
India,Haryana,Kurukshetra,"Sector-7, Kurukshetra - HSPCB",23-02-2024 21:00:00,29.966942,76.875879,OZONE,24,82,67
India,Haryana,Mandikhera,"General Hospital, Mandikhera - HSPCB",23-02-2024 21:00:00,27.9002,76.9938,PM10,43,97,67
India,Haryana,Mandikhera,"General Hospital, Mandikhera - HSPCB",23-02-2024 21:00:00,27.9002,76.9938,NO2,16,22,19
India,Haryana,Mandikhera,"General Hospital, Mandikhera - HSPCB",23-02-2024 21:00:00,27.9002,76.9938,OZONE,23,29,27
India,Haryana,Manesar,"Sector-2 IMT, Manesar - HSPCB",23-02-2024 21:00:00,28.360699,76.936090,CO,18,36,21
India,Haryana,Palwal,"Shyam Nagar, Palwal - HSPCB",23-02-2024 21:00:00,28.1485564,77.3320667,OZONE,24,54,39
India,Haryana,Panchkula,"Sector-6, Panchkula - HSPCB ",23-02-2024 21:00:00,30.7057778,76.8531805555555,NO2,28,30,29
India,Haryana,Rohtak,"MD University, Rohtak - HSPCB",23-02-2024 21:00:00,28.52123,76.37138,PM2.5,4,357,77
India,Haryana,Sonipat,"Murthal, Sonipat - HSPCB",23-02-2024 21:00:00,29.027200,77.062100,PM2.5,23,57,40
India,Haryana,Sonipat,"Murthal, Sonipat - HSPCB",23-02-2024 21:00:00,29.027200,77.062100,NH3,7,10,9
India,Haryana,Sonipat,"Murthal, Sonipat - HSPCB",23-02-2024 21:00:00,29.027200,77.062100,SO2,13,29,20
India,Haryana,Yamuna Nagar,"Gobind Pura, Yamuna Nagar - HSPCB",23-02-2024 21:00:00,30.1480566,77.2893471,NO2,11,30,19
India,Himachal Pradesh,Baddi,"HIMUDA Complex Phase-1, Baddi - HPPCB",23-02-2024 21:00:00,30.943887,76.801991,NO2,9,52,28
India,Himachal Pradesh,Baddi,"HIMUDA Complex Phase-1, Baddi - HPPCB",23-02-2024 21:00:00,30.943887,76.801991,NH3,3,5,4
India,Himachal Pradesh,Baddi,"HIMUDA Complex Phase-1, Baddi - HPPCB",23-02-2024 21:00:00,30.943887,76.801991,OZONE,22,112,93
India,Jammu_and_Kashmir,Srinagar,"Rajbagh, Srinagar - JKSPCB",23-02-2024 21:00:00,34.066206,74.819820,PM2.5,NA,NA,NA
India,Jammu_and_Kashmir,Srinagar,"Rajbagh, Srinagar - JKSPCB",23-02-2024 21:00:00,34.066206,74.819820,PM10,NA,NA,NA
India,Jammu_and_Kashmir,Srinagar,"Rajbagh, Srinagar - JKSPCB",23-02-2024 21:00:00,34.066206,74.819820,CO,NA,NA,NA
India,Jharkhand,Dhanbad,"Kalakusuma, Dhanbad - DMC",23-02-2024 21:00:00,23.811548,86.481238,PM2.5,1,73,24
India,Jharkhand,Dhanbad,"Kalakusuma, Dhanbad - DMC",23-02-2024 21:00:00,23.811548,86.481238,NO2,14,197,96
India,Jharkhand,Dhanbad,"Sardar Patel Nagar, Dhanbad - JSPCB",23-02-2024 21:00:00,23.80569,86.44268,PM2.5,13,67,36
India,Jharkhand,Dhanbad,"Sardar Patel Nagar, Dhanbad - JSPCB",23-02-2024 21:00:00,23.80569,86.44268,NO2,1,191,100
India,Jharkhand,Dhanbad,"Sardar Patel Nagar, Dhanbad - JSPCB",23-02-2024 21:00:00,23.80569,86.44268,SO2,7,12,10
India,Karnataka,Bagalkot,"Vidayagiri, Bagalkot - KSPCB",23-02-2024 21:00:00,16.172806,75.659694,PM10,42,42,42
India,Karnataka,Bagalkot,"Vidayagiri, Bagalkot - KSPCB",23-02-2024 21:00:00,16.172806,75.659694,CO,20,54,32
India,Karnataka,Belgaum,"Ramteerth Nagar, Belgaum - KSPCB",23-02-2024 21:00:00,15.888653,74.541751,CO,33,56,38
India,Karnataka,Bengaluru,"BTM Layout, Bengaluru - CPCB",23-02-2024 21:00:00,12.9135218,77.5950804,PM2.5,31,69,46
India,Karnataka,Bengaluru,"BTM Layout, Bengaluru - CPCB",23-02-2024 21:00:00,12.9135218,77.5950804,PM10,53,106,69
India,Karnataka,Bengaluru,"Bapuji Nagar, Bengaluru - KSPCB",23-02-2024 21:00:00,12.951913,77.539784,PM10,69,153,104
India,Karnataka,Bengaluru,"Bapuji Nagar, Bengaluru - KSPCB",23-02-2024 21:00:00,12.951913,77.539784,NO2,10,18,12
India,Karnataka,Bengaluru,"City Railway Station, Bengaluru - KSPCB",23-02-2024 21:00:00,12.9756843,77.5660749,PM10,60,92,71
India,Karnataka,Bengaluru,"Hebbal, Bengaluru - KSPCB",23-02-2024 21:00:00,13.029152,77.585901,PM10,28,162,78
India,Karnataka,Bengaluru,"Hebbal, Bengaluru - KSPCB",23-02-2024 21:00:00,13.029152,77.585901,CO,5,51,20
India,Karnataka,Bengaluru,"Jayanagar 5th Block, Bengaluru - KSPCB",23-02-2024 21:00:00,12.920984,77.584908,NH3,2,4,3
India,Karnataka,Bengaluru,"Jayanagar 5th Block, Bengaluru - KSPCB",23-02-2024 21:00:00,12.920984,77.584908,CO,8,87,30
India,Karnataka,Bengaluru,"Kasturi Nagar, Bengaluru - KSPCB",23-02-2024 21:00:00,13.003872,77.664217,SO2,10,10,10
India,Karnataka,Bengaluru,"Kasturi Nagar, Bengaluru - KSPCB",23-02-2024 21:00:00,13.003872,77.664217,CO,20,28,23
India,Karnataka,Bengaluru,"Peenya, Bengaluru - CPCB",23-02-2024 21:00:00,13.0270199,77.494094,PM2.5,22,293,93
India,Karnataka,Bengaluru,"RVCE-Mailasandra, Bengaluru - KSPCB",23-02-2024 21:00:00,12.921418,77.502466,NO2,53,54,53
India,Karnataka,Bengaluru,"RVCE-Mailasandra, Bengaluru - KSPCB",23-02-2024 21:00:00,12.921418,77.502466,SO2,7,12,9
India,Karnataka,Bengaluru,"Sanegurava Halli, Bengaluru - KSPCB",23-02-2024 21:00:00,12.990328,77.5431385,NO2,20,33,23
India,Karnataka,Bengaluru,"Shivapura_Peenya, Bengaluru - KSPCB",23-02-2024 21:00:00,13.0246342,77.5080115,PM2.5,7,290,74
India,Karnataka,Bengaluru,"Shivapura_Peenya, Bengaluru - KSPCB",23-02-2024 21:00:00,13.0246342,77.5080115,SO2,3,12,7
India,Karnataka,Bengaluru,"Shivapura_Peenya, Bengaluru - KSPCB",23-02-2024 21:00:00,13.0246342,77.5080115,CO,22,103,31
India,Karnataka,Chamarajanagar,"Urban, Chamarajanagar - KSPCB",23-02-2024 21:00:00,11.55358,76.55521,CO,19,28,25
India,Karnataka,Davanagere,"Devaraj Urs Badavane, Davanagere - KSPCB",23-02-2024 21:00:00,14.475800,75.905200,PM10,33,122,56
India,Karnataka,Dharwad,"Kalabhavan, Dharwad - KSPCB",23-02-2024 21:00:00,15.459706,75.008381,NO2,11,33,19
India,Karnataka,Haveri,"Ashwini Nagar, Haveri - KSPCB",23-02-2024 21:00:00,14.791800,75.389600,PM2.5,22,60,32
India,Karnataka,Haveri,"Ashwini Nagar, Haveri - KSPCB",23-02-2024 21:00:00,14.791800,75.389600,NH3,3,4,3
India,Karnataka,Hubballi,"Deshpande Nagar, Hubballi - KSPCB",23-02-2024 21:00:00,15.351773,75.140726,PM2.5,40,86,58
India,Karnataka,Hubballi,"Deshpande Nagar, Hubballi - KSPCB",23-02-2024 21:00:00,15.351773,75.140726,NH3,6,9,7
India,Karnataka,Hubballi,"Deshpande Nagar, Hubballi - KSPCB",23-02-2024 21:00:00,15.351773,75.140726,OZONE,16,54,43
India,Karnataka,Kalaburagi,"Lal Bahadur Shastri Nagar, Kalaburagi - KSPCB",23-02-2024 21:00:00,17.321993,76.822628,PM2.5,6,41,15
India,Karnataka,Kalaburagi,"Mahatma Basaveswar Colony, Kalaburgi - KSPCB",23-02-2024 21:00:00,17.336318,76.847397,NH3,3,4,3
India,Karnataka,Kalaburagi,"Mahatma Basaveswar Colony, Kalaburgi - KSPCB",23-02-2024 21:00:00,17.336318,76.847397,CO,36,74,45
India,Karnataka,Karwar,"KHB Colony, Karwar - KSPCB",23-02-2024 21:00:00,14.816666,74.141003,SO2,18,18,18
India,Karnataka,Kolar,"Tamaka Ind. Area, Kolar - KSPCB",23-02-2024 21:00:00,13.1276288,78.1570122,CO,17,74,30
India,Karnataka,Koppal,"Diwator Nagar, Koppal - KSPCB",23-02-2024 21:00:00,15.347630,76.181767,PM10,23,88,37
India,Karnataka,Koppal,"Diwator Nagar, Koppal - KSPCB",23-02-2024 21:00:00,15.347630,76.181767,CO,32,48,34
India,Karnataka,Madikeri,"Stuart Hill, Madikeri - KSPCB",23-02-2024 21:00:00,12.415911,75.735050,NO2,4,9,6
India,Karnataka,Mangalore,"Kadri, Mangalore - KSPCB",23-02-2024 21:00:00,12.889250,74.853000,NO2,5,7,6
India,Karnataka,Mangalore,"Kadri, Mangalore - KSPCB",23-02-2024 21:00:00,12.889250,74.853000,CO,30,37,34
India,Karnataka,Mysuru,"Hebbal 1st Stage, Mysuru - KSPCB",23-02-2024 21:00:00,12.21041,76.37376,NO2,3,50,25
India,Karnataka,Mysuru,"Hebbal 1st Stage, Mysuru - KSPCB",23-02-2024 21:00:00,12.21041,76.37376,OZONE,5,95,66
India,Karnataka,Raichur,"Haji Colony, Raichur - KSPCB",23-02-2024 21:00:00,16.208139,77.348417,PM2.5,12,73,34
India,Karnataka,Raichur,"Haji Colony, Raichur - KSPCB",23-02-2024 21:00:00,16.208139,77.348417,NO2,19,74,38
India,Karnataka,Raichur,"Haji Colony, Raichur - KSPCB",23-02-2024 21:00:00,16.208139,77.348417,NH3,1,3,2
India,Karnataka,Raichur,"Haji Colony, Raichur - KSPCB",23-02-2024 21:00:00,16.208139,77.348417,SO2,63,77,70
India,Karnataka,Raichur,"Haji Colony, Raichur - KSPCB",23-02-2024 21:00:00,16.208139,77.348417,CO,92,144,98
India,Karnataka,Shivamogga,"Vinoba Nagara, Shivamogga - KSPCB",23-02-2024 21:00:00,13.940000,75.555917,PM2.5,33,67,50
India,Karnataka,Shivamogga,"Vinoba Nagara, Shivamogga - KSPCB",23-02-2024 21:00:00,13.940000,75.555917,SO2,2,19,10
India,Karnataka,Tumakuru,"Thimmalapura, Tumakuru - KSPCB",23-02-2024 21:00:00,13.377516,77.099072,OZONE,5,41,31
India,Karnataka,Udupi,"Brahmagiri, Udupi - KSPCB",23-02-2024 21:00:00,13.34194444,74.74694444,PM10,20,53,35
India,Karnataka,Udupi,"Brahmagiri, Udupi - KSPCB",23-02-2024 21:00:00,13.34194444,74.74694444,SO2,NA,NA,NA
India,Karnataka,Yadgir,"Collector Office, Yadgir - KSPCB",23-02-2024 21:00:00,16.7602,77.1428,OZONE,18,20,19
India,Kerala,Eloor,"Udyogamandal, Eloor - Kerala PCB",23-02-2024 21:00:00,10.073232,76.302765,NH3,1,1,1
India,Kerala,Eloor,"Udyogamandal, Eloor - Kerala PCB",23-02-2024 21:00:00,10.073232,76.302765,SO2,1,11,3
India,Kerala,Kannur,"Thavakkara, Kannur - Kerala PCB",23-02-2024 21:00:00,11.875000,75.373200,NH3,1,1,1
India,Kerala,Kollam,"Polayathode, Kollam - Kerala PCB",23-02-2024 21:00:00,8.8787,76.6073,NO2,NA,NA,NA
India,Kerala,Kollam,"Polayathode, Kollam - Kerala PCB",23-02-2024 21:00:00,8.8787,76.6073,SO2,NA,NA,NA
India,Kerala,Thiruvananthapuram,"Kariavattom, Thiruvananthapuram - Kerala PCB",23-02-2024 21:00:00,8.563700,76.886500,NO2,8,9,9
India,Kerala,Thiruvananthapuram,"Kariavattom, Thiruvananthapuram - Kerala PCB",23-02-2024 21:00:00,8.563700,76.886500,SO2,2,17,8
India,Kerala,Thiruvananthapuram,"Kariavattom, Thiruvananthapuram - Kerala PCB",23-02-2024 21:00:00,8.563700,76.886500,OZONE,26,31,28
India,Kerala,Thiruvananthapuram,"Plammoodu, Thiruvananthapuram - Kerala PCB",23-02-2024 21:00:00,8.5149093,76.9435879,PM10,36,60,49
India,Kerala,Thiruvananthapuram,"Plammoodu, Thiruvananthapuram - Kerala PCB",23-02-2024 21:00:00,8.5149093,76.9435879,NO2,9,11,10
India,Madhya Pradesh,Bhopal,"Paryavaran Parisar, Bhopal - MPPCB",23-02-2024 21:00:00,23.210494,77.425409,PM2.5,37,210,74
India,Madhya Pradesh,Bhopal,"Paryavaran Parisar, Bhopal - MPPCB",23-02-2024 21:00:00,23.210494,77.425409,NO2,19,80,38
India,Madhya Pradesh,Bhopal,"Paryavaran Parisar, Bhopal - MPPCB",23-02-2024 21:00:00,23.210494,77.425409,NH3,7,12,10
India,Madhya Pradesh,Gwalior,"City Center, Gwalior - MPPCB",23-02-2024 21:00:00,26.203442,78.193251,PM2.5,16,193,61
India,Madhya Pradesh,Gwalior,"City Center, Gwalior - MPPCB",23-02-2024 21:00:00,26.203442,78.193251,NO2,16,83,32
India,Madhya Pradesh,Gwalior,"Deen Dayal Nagar, Gwalior - MPPCB",23-02-2024 21:00:00,26.259242,78.216432,NO2,24,115,55
India,Madhya Pradesh,Gwalior,"Maharaj Bada, Gwalior - MPPCB",23-02-2024 21:00:00,26.200388,78.147714,NH3,6,15,10
India,Madhya Pradesh,Gwalior,"Maharaj Bada, Gwalior - MPPCB",23-02-2024 21:00:00,26.200388,78.147714,CO,31,123,67
India,Madhya Pradesh,Gwalior,"Maharaj Bada, Gwalior - MPPCB",23-02-2024 21:00:00,26.200388,78.147714,OZONE,13,133,91
India,Madhya Pradesh,Indore,"Chhoti Gwaltoli, Indore - MPPCB",23-02-2024 21:00:00,22.4310,75.5213,NO2,41,141,78
India,Madhya Pradesh,Indore,"Chhoti Gwaltoli, Indore - MPPCB",23-02-2024 21:00:00,22.4310,75.5213,NH3,2,4,3
India,Madhya Pradesh,Indore,"Maguda Nagar, Indore - IMC",23-02-2024 21:00:00,22.7524,75.8872,NO2,NA,NA,NA
India,Madhya Pradesh,Indore,"Maguda Nagar, Indore - IMC",23-02-2024 21:00:00,22.7524,75.8872,NH3,NA,NA,NA
India,Madhya Pradesh,Indore,"Residency Area, Indore - IMC",23-02-2024 21:00:00,22.7084,75.8815,PM2.5,53,181,83
India,Madhya Pradesh,Indore,"Residency Area, Indore - IMC",23-02-2024 21:00:00,22.7084,75.8815,SO2,22,30,24
India,Madhya Pradesh,Jabalpur,"Govindh Bhavan Colony, Jabalpur - JMC",23-02-2024 21:00:00,23.163174,79.973061,SO2,9,55,16
India,Madhya Pradesh,Jabalpur,"Gupteshwar, Jabalpur - JMC",23-02-2024 21:00:00,23.142888,79.916147,PM10,55,106,67
India,Madhya Pradesh,Jabalpur,"Gupteshwar, Jabalpur - JMC",23-02-2024 21:00:00,23.142888,79.916147,CO,4,54,35
India,Madhya Pradesh,Jabalpur,"Marhatal, Jabalpur - MPPCB",23-02-2024 21:00:00,23.168606,79.932247,PM2.5,35,85,64
India,Madhya Pradesh,Jabalpur,"Marhatal, Jabalpur - MPPCB",23-02-2024 21:00:00,23.168606,79.932247,NO2,17,39,24
India,Madhya Pradesh,Jabalpur,"Marhatal, Jabalpur - MPPCB",23-02-2024 21:00:00,23.168606,79.932247,OZONE,32,54,49
India,Madhya Pradesh,Jabalpur,"Suhagi, Jabalpur - JMC",23-02-2024 21:00:00,23.218135,79.957770,NH3,5,5,5
India,Madhya Pradesh,Maihar,"Sahilara, Maihar - KJS Cements",23-02-2024 21:00:00,24.2613009,80.7231783,PM10,6,47,25
India,Madhya Pradesh,Mandideep,"Sector-D Industrial Area, Mandideep - MPPCB",23-02-2024 21:00:00,23.108440,77.511428,CO,11,116,23
India,Madhya Pradesh,Pithampur,"Sector-2 Industrial Area, Pithampur - MPPCB",23-02-2024 21:00:00,22.624758,75.675238,NO2,10,25,13
India,Madhya Pradesh,Ratlam,"Shasthri Nagar, Ratlam - IPCA Lab",23-02-2024 21:00:00,23.331731,75.045981,PM2.5,1,104,65
India,Madhya Pradesh,Ratlam,"Shasthri Nagar, Ratlam - IPCA Lab",23-02-2024 21:00:00,23.331731,75.045981,SO2,37,40,38
India,Madhya Pradesh,Satna,"Bandhavgar Colony, Satna - Birla Cement",23-02-2024 21:00:00,24.58434363,80.8549414,PM10,25,84,48
India,Madhya Pradesh,Satna,"Bandhavgar Colony, Satna - Birla Cement",23-02-2024 21:00:00,24.58434363,80.8549414,CO,10,50,12
India,Madhya Pradesh,Ujjain,"Mahakaleshwar Temple, Ujjain - MPPCB",23-02-2024 21:00:00,23.182719 ,75.768218 ,PM2.5,28,101,55
India,Madhya Pradesh,Ujjain,"Mahakaleshwar Temple, Ujjain - MPPCB",23-02-2024 21:00:00,23.182719 ,75.768218 ,NO2,6,33,17
India,Madhya Pradesh,Ujjain,"Mahakaleshwar Temple, Ujjain - MPPCB",23-02-2024 21:00:00,23.182719 ,75.768218 ,CO,26,65,33
India,Maharashtra,Ahmednagar,"Tarakpur, Ahmednagar - MPCB",23-02-2024 21:00:00,19.10122,74.73339,NH3,3,3,3
India,Maharashtra,Ahmednagar,"Tarakpur, Ahmednagar - MPCB",23-02-2024 21:00:00,19.10122,74.73339,SO2,7,15,10
India,Maharashtra,Akola,"Ramdaspeth, Akola - MPCB",23-02-2024 21:00:00,20.719516,77.000253,PM2.5,29,243,84
India,Maharashtra,Akola,"Ramdaspeth, Akola - MPCB",23-02-2024 21:00:00,20.719516,77.000253,NH3,5,8,7
India,Maharashtra,Amravati,"Shivneri Colony, Amravati - MPCB",23-02-2024 21:00:00,20.9402359,77.7895248,NO2,11,74,36
India,Maharashtra,Amravati,"Shivneri Colony, Amravati - MPCB",23-02-2024 21:00:00,20.9402359,77.7895248,NH3,1,1,1
India,Maharashtra,Amravati,"Shivneri Colony, Amravati - MPCB",23-02-2024 21:00:00,20.9402359,77.7895248,OZONE,6,119,90
India,Maharashtra,Amravati,"Shri Shivaji Science College, Amaravati - MPCB",23-02-2024 21:00:00,20.939198,77.765701,NO2,8,40,19
India,Maharashtra,Aurangabad,"MIDC Chilkalthana, Aurangabad - MPCB",23-02-2024 21:00:00,19.875620,75.387310,NH3,3,4,4
India,Maharashtra,Aurangabad,"More Chowk Waluj, Aurangabad - MPCB",23-02-2024 21:00:00,19.8389439,75.244448,SO2,2,12,9
India,Maharashtra,Aurangabad,"More Chowk Waluj, Aurangabad - MPCB",23-02-2024 21:00:00,19.8389439,75.244448,OZONE,5,244,11
India,Maharashtra,Aurangabad,"Rachnakar Colony, Aurangabad - MPCB",23-02-2024 21:00:00,19.863756,75.321188,NO2,10,69,29
India,Maharashtra,Belapur,"CBD Belapur, Belapur - MPCB",23-02-2024 21:00:00,19.0243902,73.0406721,PM10,81,160,105
India,Maharashtra,Bhiwandi,"Gokul Nagar, Bhiwandi - MPCB",23-02-2024 21:00:00,19.309073,73.057223,NO2,NA,NA,NA
India,Maharashtra,Bhiwandi,"Gokul Nagar, Bhiwandi - MPCB",23-02-2024 21:00:00,19.309073,73.057223,CO,8,31,16
India,Maharashtra,Chandrapur,"Chauhan Colony, Chandrapur - MPCB",23-02-2024 21:00:00,19.962900,79.298714,PM10,35,141,75
India,Maharashtra,Chandrapur,"Chauhan Colony, Chandrapur - MPCB",23-02-2024 21:00:00,19.962900,79.298714,NO2,19,81,36
India,Maharashtra,Jalgaon,"Prabhat Colony, Jalgaon - MPCB",23-02-2024 21:00:00,21.001264,75.565602,NO2,9,123,33
India,Maharashtra,Jalgaon,"Prabhat Colony, Jalgaon - MPCB",23-02-2024 21:00:00,21.001264,75.565602,OZONE,7,86,64
India,Maharashtra,Kalyan,"Khadakpada, Kalyan - MPCB",23-02-2024 21:00:00,19.25292,73.142019,NO2,25,38,32
India,Maharashtra,Kolhapur,"Shivaji University, Kolhapur - MPCB",23-02-2024 21:00:00,16.6870449,74.2505872,PM10,65,151,106
India,Maharashtra,Kolhapur,"Shivaji University, Kolhapur - MPCB",23-02-2024 21:00:00,16.6870449,74.2505872,OZONE,3,94,60
India,Maharashtra,Kolhapur,"Sinchan Bhavan, Kolhapur - MPCB",23-02-2024 21:00:00,16.7143745,74.2426398,CO,2,66,23
India,Maharashtra,Mira-Bhayandar,"Bhayandar West, Mira-Bhayandar - MPCB",23-02-2024 21:00:00,19.296481,72.840923,OZONE,NA,NA,NA
India,Maharashtra,Mumbai,"Bandra Kurla Complex, Mumbai - MPCB",23-02-2024 21:00:00,19.065931,72.862131,PM10,100,150,131
India,Maharashtra,Mumbai,"Byculla, Mumbai - BMC",23-02-2024 21:00:00,18.9767,72.8380,OZONE,1,66,58
India,Maharashtra,Mumbai,"Chakala-Andheri East, Mumbai - IITM",23-02-2024 21:00:00,19.11074,72.86084,NO2,68,149,106
India,Maharashtra,Mumbai,"Chakala-Andheri East, Mumbai - IITM",23-02-2024 21:00:00,19.11074,72.86084,SO2,5,31,15
India,Maharashtra,Mumbai,"Chembur, Mumbai - MPCB",23-02-2024 21:00:00,19.0364585,72.8954371,PM2.5,23,84,47
India,Maharashtra,Mumbai,"Chembur, Mumbai - MPCB",23-02-2024 21:00:00,19.0364585,72.8954371,PM10,54,122,90
India,Maharashtra,Mumbai,"Chembur, Mumbai - MPCB",23-02-2024 21:00:00,19.0364585,72.8954371,SO2,1,13,5
India,Maharashtra,Mumbai,"Chhatrapati Shivaji Intl. Airport (T2), Mumbai - MPCB",23-02-2024 21:00:00,19.10078,72.87462,PM10,47,117,75
India,Maharashtra,Mumbai,"Chhatrapati Shivaji Intl. Airport (T2), Mumbai - MPCB",23-02-2024 21:00:00,19.10078,72.87462,NO2,3,63,31
India,Maharashtra,Mumbai,"Chhatrapati Shivaji Intl. Airport (T2), Mumbai - MPCB",23-02-2024 21:00:00,19.10078,72.87462,NH3,1,5,3
India,Maharashtra,Mumbai,"Chhatrapati Shivaji Intl. Airport (T2), Mumbai - MPCB",23-02-2024 21:00:00,19.10078,72.87462,SO2,18,24,22
India,Maharashtra,Mumbai,"Chhatrapati Shivaji Intl. Airport (T2), Mumbai - MPCB",23-02-2024 21:00:00,19.10078,72.87462,OZONE,4,15,12
India,Maharashtra,Mumbai,"Colaba, Mumbai - MPCB",23-02-2024 21:00:00,18.910000,72.820000,PM2.5,12,40,22
India,Maharashtra,Mumbai,"Ghatkopar, Mumbai - BMC",23-02-2024 21:00:00,19.083694,72.920967,PM2.5,22,87,47
India,Maharashtra,Mumbai,"Ghatkopar, Mumbai - BMC",23-02-2024 21:00:00,19.083694,72.920967,NO2,NA,NA,NA
India,Maharashtra,Mumbai,"Kandivali East, Mumbai - MPCB",23-02-2024 21:00:00,19.205800,72.868200,SO2,66,73,70
India,Maharashtra,Mumbai,"Kandivali West, Mumbai - BMC",23-02-2024 21:00:00,19.215859,72.831718,PM2.5,23,46,34
India,Maharashtra,Mumbai,"Kurla, Mumbai - MPCB",23-02-2024 21:00:00,19.0863,72.8888,PM2.5,46,166,74
India,Maharashtra,Mumbai,"Kurla, Mumbai - MPCB",23-02-2024 21:00:00,19.0863,72.8888,SO2,32,32,32
India,Maharashtra,Mumbai,"Mazgaon, Mumbai - IITM",23-02-2024 21:00:00,18.96702,72.84214,NH3,34,44,38
India,Maharashtra,Mumbai,"Mindspace-Malad West, Mumbai - MPCB",23-02-2024 21:00:00,19.1878657,72.8304069,NH3,2,3,2
India,Maharashtra,Mumbai,"Mulund West, Mumbai - MPCB",23-02-2024 21:00:00,19.1750,72.9419,PM10,44,100,65
India,Maharashtra,Mumbai,"Mulund West, Mumbai - MPCB",23-02-2024 21:00:00,19.1750,72.9419,NO2,21,25,22
India,Maharashtra,Mumbai,"Mulund West, Mumbai - MPCB",23-02-2024 21:00:00,19.1750,72.9419,SO2,14,15,15
India,Maharashtra,Mumbai,"Mulund West, Mumbai - MPCB",23-02-2024 21:00:00,19.1750,72.9419,CO,30,30,30
India,Maharashtra,Mumbai,"Powai, Mumbai - MPCB",23-02-2024 21:00:00,19.137500,72.915056,PM2.5,NA,NA,NA
India,Maharashtra,Mumbai,"Powai, Mumbai - MPCB",23-02-2024 21:00:00,19.137500,72.915056,NH3,1,2,1
India,Maharashtra,Mumbai,"Sewri, Mumbai - BMC",23-02-2024 21:00:00,19.000084,72.856730,NO2,31,75,57
India,Maharashtra,Mumbai,"Sewri, Mumbai - BMC",23-02-2024 21:00:00,19.000084,72.856730,CO,13,22,16
India,Maharashtra,Mumbai,"Sion, Mumbai - MPCB",23-02-2024 21:00:00,19.047000,72.874600,NH3,NA,NA,NA
India,Maharashtra,Mumbai,"Vasai West, Mumbai - MPCB",23-02-2024 21:00:00,19.383200,72.820400,OZONE,8,67,40
India,Maharashtra,Mumbai,"Vile Parle West, Mumbai - MPCB",23-02-2024 21:00:00,19.10861,72.83622,PM10,37,71,53
India,Maharashtra,Mumbai,"Vile Parle West, Mumbai - MPCB",23-02-2024 21:00:00,19.10861,72.83622,NH3,9,11,10
India,Maharashtra,Mumbai,"Vile Parle West, Mumbai - MPCB",23-02-2024 21:00:00,19.10861,72.83622,OZONE,4,5,4
India,Maharashtra,Nagpur,"Ambazari, Nagpur - MPCB",23-02-2024 21:00:00,21.121801,79.04952,OZONE,20,137,97
India,Maharashtra,Nagpur,"Opp GPO Civil Lines, Nagpur - MPCB",23-02-2024 21:00:00,21.152875,79.0517531,PM2.5,51,141,81
India,Maharashtra,Nagpur,"Opp GPO Civil Lines, Nagpur - MPCB",23-02-2024 21:00:00,21.152875,79.0517531,NH3,2,3,2
India,Maharashtra,Nagpur,"Opp GPO Civil Lines, Nagpur - MPCB",23-02-2024 21:00:00,21.152875,79.0517531,SO2,2,110,25
India,Maharashtra,Nagpur,"Ram Nagar, Nagpur - MPCB",23-02-2024 21:00:00,21.143383,79.048912,SO2,13,133,38
India,Maharashtra,Nanded,"Sneh Nagar, Nanded - MPCB",23-02-2024 21:00:00,19.173852,77.296291,PM2.5,29,335,124
India,Maharashtra,Nanded,"Sneh Nagar, Nanded - MPCB",23-02-2024 21:00:00,19.173852,77.296291,NO2,16,48,30
India,Maharashtra,Nanded,"Sneh Nagar, Nanded - MPCB",23-02-2024 21:00:00,19.173852,77.296291,NH3,1,2,1
India,Maharashtra,Nanded,"Sneh Nagar, Nanded - MPCB",23-02-2024 21:00:00,19.173852,77.296291,SO2,14,21,17
India,Maharashtra,Nanded,"Sneh Nagar, Nanded - MPCB",23-02-2024 21:00:00,19.173852,77.296291,OZONE,12,113,93
India,Maharashtra,Nashik,"Gangapur Road, Nashik - MPCB",23-02-2024 21:00:00,20.0073285,73.7762427,OZONE,12,50,37
India,Maharashtra,Nashik,"Hirawadi, Nashik - MPCB",23-02-2024 21:00:00,20.021503,73.813844,SO2,1,7,4
India,Maharashtra,Nashik,"Hirawadi, Nashik - MPCB",23-02-2024 21:00:00,20.021503,73.813844,CO,2,40,11
India,Maharashtra,Nashik,"MIDC Ambad, Nashik - MPCB",23-02-2024 21:00:00,19.950220,73.731480,PM2.5,40,80,54
India,Maharashtra,Nashik,"MIDC Ambad, Nashik - MPCB",23-02-2024 21:00:00,19.950220,73.731480,NH3,2,2,2
India,Maharashtra,Nashik,"MIDC Ambad, Nashik - MPCB",23-02-2024 21:00:00,19.950220,73.731480,SO2,7,13,10
India,Maharashtra,Nashik,"MIDC Ambad, Nashik - MPCB",23-02-2024 21:00:00,19.950220,73.731480,OZONE,8,69,45
India,Maharashtra,Nashik,"Pandav Nagari, Nashik - MPCB",23-02-2024 21:00:00,19.9591346,73.7788008,NH3,4,6,5
India,Maharashtra,Nashik,"Pandav Nagari, Nashik - MPCB",23-02-2024 21:00:00,19.9591346,73.7788008,SO2,1,24,6
India,Maharashtra,Nashik,"Pandav Nagari, Nashik - MPCB",23-02-2024 21:00:00,19.9591346,73.7788008,CO,9,34,16
India,Maharashtra,Navi Mumbai,"Kopripada-Vashi, Navi Mumbai - MPCB",23-02-2024 21:00:00,19.090337,73.014232,NO2,22,110,49
India,Maharashtra,Navi Mumbai,"Kopripada-Vashi, Navi Mumbai - MPCB",23-02-2024 21:00:00,19.090337,73.014232,NH3,2,26,9
India,Maharashtra,Navi Mumbai,"Mahape, Navi Mumbai - MPCB",23-02-2024 21:00:00,19.1135051,73.008978,PM2.5,32,305,96
India,Maharashtra,Navi Mumbai,"Mahape, Navi Mumbai - MPCB",23-02-2024 21:00:00,19.1135051,73.008978,CO,32,57,37
India,Maharashtra,Navi Mumbai,"Nerul, Navi Mumbai - MPCB",23-02-2024 21:00:00,19.008751,73.016620,CO,30,54,33
India,Maharashtra,Navi Mumbai,"Nerul, Navi Mumbai - MPCB",23-02-2024 21:00:00,19.008751,73.016620,OZONE,31,41,32
India,Maharashtra,Navi Mumbai,"Sanpada, Navi Mumbai - MPCB",23-02-2024 21:00:00,19.0575752,73.0151367,NO2,9,43,22
India,Maharashtra,Navi Mumbai,"Sector-19A Nerul, Navi Mumbai - IITM",23-02-2024 21:00:00,19.044,73.0325,PM10,73,121,103
India,Maharashtra,Navi Mumbai,"Tondare-Taloja, Navi Mumbai - MPCB",23-02-2024 21:00:00,19.0630,73.1209,NH3,4,11,6
India,Maharashtra,Parbhani,"Masoom Colony, Parbhani - MPCB",23-02-2024 21:00:00,19.265594,76.761463,PM2.5,49,90,66
India,Maharashtra,Parbhani,"Masoom Colony, Parbhani - MPCB",23-02-2024 21:00:00,19.265594,76.761463,PM10,94,108,100
India,Maharashtra,Pimpri-Chinchwad,"Gavalinagar, Pimpri Chinchwad - MPCB",23-02-2024 21:00:00,18.63673,73.82487,NO2,6,60,31
India,Maharashtra,Pimpri-Chinchwad,"Gavalinagar, Pimpri Chinchwad - MPCB",23-02-2024 21:00:00,18.63673,73.82487,SO2,3,14,7
India,Maharashtra,Pimpri-Chinchwad,"Thergaon, Pimpri Chinchwad - MPCB",23-02-2024 21:00:00,18.616318,73.765797,PM10,NA,NA,NA
India,Maharashtra,Pune,"Bhosari, Pune - IITM",23-02-2024 21:00:00,18.640051,73.848956,PM2.5,24,160,62
India,Maharashtra,Pune,"Bhosari, Pune - IITM",23-02-2024 21:00:00,18.640051,73.848956,CO,60,92,67
India,Maharashtra,Pune,"Bhosari, Pune - IITM",23-02-2024 21:00:00,18.640051,73.848956,OZONE,2,118,99
India,Maharashtra,Pune,"Katraj Dairy, Pune - MPCB",23-02-2024 21:00:00,18.454450,73.854155,NO2,23,43,33
India,Maharashtra,Pune,"Katraj Dairy, Pune - MPCB",23-02-2024 21:00:00,18.454450,73.854155,NH3,1,7,3
India,Maharashtra,Pune,"Katraj Dairy, Pune - MPCB",23-02-2024 21:00:00,18.454450,73.854155,SO2,1,18,7
India,Maharashtra,Pune,"Mhada Colony, Pune - IITM",23-02-2024 21:00:00,18.573040,73.927715,NO2,1,19,8
India,Maharashtra,Pune,"Mhada Colony, Pune - IITM",23-02-2024 21:00:00,18.573040,73.927715,CO,36,60,48
India,Maharashtra,Pune,"Savitribai Phule Pune University, Pune - MPCB",23-02-2024 21:00:00,18.547056,73.826908,NO2,10,27,15
India,Maharashtra,Sangli,"Vijay Nagar, Sangli - MPCB",23-02-2024 21:00:00, 16.5038,74.3623,NO2,43,127,61
India,Maharashtra,Sangli,"Vijay Nagar, Sangli - MPCB",23-02-2024 21:00:00, 16.5038,74.3623,OZONE,2,52,36
India,Maharashtra,Solapur,"Dnyaneshwar Nagar, Solapur - MPCB",23-02-2024 21:00:00,17.6336264,75.9132495,PM10,92,277,133
India,Maharashtra,Solapur,"Dnyaneshwar Nagar, Solapur - MPCB",23-02-2024 21:00:00,17.6336264,75.9132495,CO,9,106,20
India,Maharashtra,Solapur,"Dnyaneshwar Nagar, Solapur - MPCB",23-02-2024 21:00:00,17.6336264,75.9132495,OZONE,7,98,81
India,Maharashtra,Solapur,"Ratandeep Housing Society, Solapur - MPCB",23-02-2024 21:00:00,17.65439,75.90649,PM2.5,79,309,138
India,Maharashtra,Solapur,"Solapur, Solapur - MPCB",23-02-2024 21:00:00,17.6599188,75.9063906,NO2,54,55,55
India,Maharashtra,Solapur,"Solapur, Solapur - MPCB",23-02-2024 21:00:00,17.6599188,75.9063906,OZONE,48,85,66
India,Maharashtra,Thane,"Kasarvadavali, Thane - MPCB",23-02-2024 21:00:00,19.26777,72.97182,NH3,5,12,8
India,Maharashtra,Thane,"Kasarvadavali, Thane - MPCB",23-02-2024 21:00:00,19.26777,72.97182,OZONE,1,93,71
India,Maharashtra,Thane,"Pimpleshwar Mandir, Thane - MPCB",23-02-2024 21:00:00,19.192056,72.9585188,NH3,3,3,3
India,Maharashtra,Thane,"Upvan Fort, Thane - MPCB",23-02-2024 21:00:00,19.222279,72.957979,CO,2,27,6
India,Maharashtra,Ulhasnagar,"Sidhi Vinayak Nagar, Ulhasnagar - MPCB",23-02-2024 21:00:00,19.235581,73.159121,PM10,81,106,93
India,Maharashtra,Virar,"Bolinj, Virar - MPCB",23-02-2024 21:00:00,19.4458210,72.7988231,NH3,4,9,6
India,Maharashtra,Virar,"Bolinj, Virar - MPCB",23-02-2024 21:00:00,19.4458210,72.7988231,CO,9,110,14
India,Manipur,Imphal,"DM College of Science, Imphal - Manipur PCB",23-02-2024 21:00:00,24.8207389,93.9423085,PM10,NA,NA,NA
India,Manipur,Imphal,"DM College of Science, Imphal - Manipur PCB",23-02-2024 21:00:00,24.8207389,93.9423085,CO,6,6,6
India,Manipur,Imphal,"DM College of Science, Imphal - Manipur PCB",23-02-2024 21:00:00,24.8207389,93.9423085,OZONE,8,8,8
India,Meghalaya,Shillong,"Lumpyngngad, Shillong - Meghalaya PCB",23-02-2024 21:00:00,25.5586,91.8985,PM2.5,17,71,33
India,Meghalaya,Shillong,"Lumpyngngad, Shillong - Meghalaya PCB",23-02-2024 21:00:00,25.5586,91.8985,PM10,24,71,42
India,Meghalaya,Shillong,"Lumpyngngad, Shillong - Meghalaya PCB",23-02-2024 21:00:00,25.5586,91.8985,OZONE,53,100,64
India,Mizoram,Aizawl,"Sikulpuikawn, Aizawl - Mizoram PCB",23-02-2024 21:00:00,23.7176342,92.7192841,NH3,NA,NA,NA
India,Nagaland,Kohima,"PWD Juction, Kohima - NPCB",23-02-2024 21:00:00,25.6635413,94.0989878,OZONE,10,36,13
India,Odisha,Balasore,"Kalidaspur, Balasore - OSPCB",23-02-2024 21:00:00,21.51161,86.89088,NO2,8,45,15
India,Odisha,Balasore,"Kalidaspur, Balasore - OSPCB",23-02-2024 21:00:00,21.51161,86.89088,CO,42,106,66
India,Odisha,Balasore,"Kalidaspur, Balasore - OSPCB",23-02-2024 21:00:00,21.51161,86.89088,OZONE,35,78,68
India,Odisha,Barbil,"Forest Office, Barbil - OSPCB",23-02-2024 21:00:00,22.1166054,85.3945546,NO2,6,12,8
India,Odisha,Baripada,"Meher Colony, Baripada - OSPCB",23-02-2024 21:00:00,21.941841,86.728318,PM2.5,98,348,188
India,Odisha,Baripada,"Meher Colony, Baripada - OSPCB",23-02-2024 21:00:00,21.941841,86.728318,SO2,5,6,6
India,Odisha,Bileipada,"Tata Township, Bileipada - OSPCB",23-02-2024 21:00:00,22.06156703,85.47409613,NO2,7,11,9
India,Odisha,Bileipada,"Tata Township, Bileipada - OSPCB",23-02-2024 21:00:00,22.06156703,85.47409613,NH3,11,11,11
India,Odisha,Brajrajnagar,"GM Office, Brajrajnagar - OSPCB",23-02-2024 21:00:00,21.8004996,83.8396977,PM10,29,194,57
India,Odisha,Brajrajnagar,"GM Office, Brajrajnagar - OSPCB",23-02-2024 21:00:00,21.8004996,83.8396977,NH3,1,2,2
India,Odisha,Brajrajnagar,"GM Office, Brajrajnagar - OSPCB",23-02-2024 21:00:00,21.8004996,83.8396977,SO2,15,15,15
India,Odisha,Byasanagar,"Ferro Chrome Colony, Byasanagar - OSPCB",23-02-2024 21:00:00,20.94185,86.11510,NO2,14,29,18
India,Odisha,Byasanagar,"Ferro Chrome Colony, Byasanagar - OSPCB",23-02-2024 21:00:00,20.94185,86.11510,CO,44,111,99
India,Odisha,Cuttack,"CDA Area, Cuttack - OSPCB",23-02-2024 21:00:00,20.48891     ,85.84768     ,SO2,4,22,9
India,Odisha,Cuttack,"CDA Area, Cuttack - OSPCB",23-02-2024 21:00:00,20.48891     ,85.84768     ,CO,20,50,38
India,Odisha,Keonjhar,"Jagamohanpur, Keonjhar - OSPCB",23-02-2024 21:00:00,21.643900,85.599355,PM2.5,73,157,114
India,Odisha,Keonjhar,"Jagamohanpur, Keonjhar - OSPCB",23-02-2024 21:00:00,21.643900,85.599355,NO2,29,99,54
India,Odisha,Nayagarh,"Dabuna, Nayagarh - OSPCB",23-02-2024 21:00:00,21.847279,85.416905,NO2,NA,NA,NA
India,Odisha,Nayagarh,"Dabuna, Nayagarh - OSPCB",23-02-2024 21:00:00,21.847279,85.416905,NH3,NA,NA,NA
India,Odisha,Rairangpur,"Divisional Forest Office, Rairangpur - OSPCB",23-02-2024 21:00:00,22.265816,86.174829,NH3,5,5,5
India,Odisha,Rourkela,"Sector-2, Rourkela - OSPCB",23-02-2024 21:00:00,22.24500000,84.88111111,PM2.5,NA,NA,NA
India,Odisha,Rourkela,"Sector-2, Rourkela - OSPCB",23-02-2024 21:00:00,22.24500000,84.88111111,CO,8,71,14
India,Odisha,Suakati,"OMC Colony, Suakati - OSPCB",23-02-2024 21:00:00,21.606865,85.510538,NH3,9,72,23
India,Odisha,Suakati,"OMC Colony, Suakati - OSPCB",23-02-2024 21:00:00,21.606865,85.510538,CO,12,18,14
India,Odisha,Suakati,"OMC Colony, Suakati - OSPCB",23-02-2024 21:00:00,21.606865,85.510538,OZONE,51,328,112
India,Odisha,Talcher,"Talcher Coalfields,Talcher - OSPCB",23-02-2024 21:00:00,20.9360711,85.1707021,NH3,7,24,9
India,Odisha,Tensa,"Barsua Iron Ore Mines, Tensa - OSPCB",23-02-2024 21:00:00,21.869985,85.167016,PM2.5,47,105,73
India,Odisha,Tensa,"Barsua Iron Ore Mines, Tensa - OSPCB",23-02-2024 21:00:00,21.869985,85.167016,NO2,35,64,48
India,Odisha,Tensa,"Barsua Iron Ore Mines, Tensa - OSPCB",23-02-2024 21:00:00,21.869985,85.167016,SO2,2,16,6
India,Odisha,Tensa,"Barsua Iron Ore Mines, Tensa - OSPCB",23-02-2024 21:00:00,21.869985,85.167016,OZONE,4,33,18
India,Punjab,Jalandhar,"Civil Line, Jalandhar - PPCB",23-02-2024 21:00:00,31.321907,75.578914,PM2.5,31,95,47
India,Punjab,Jalandhar,"Civil Line, Jalandhar - PPCB",23-02-2024 21:00:00,31.321907,75.578914,PM10,38,115,78
India,Punjab,Khanna,"Kalal Majra, Khanna - PPCB",23-02-2024 21:00:00,30.736056 ,76.209694,PM2.5,26,122,80
India,Punjab,Khanna,"Kalal Majra, Khanna - PPCB",23-02-2024 21:00:00,30.736056 ,76.209694,PM10,71,181,110
India,Punjab,Ludhiana,"Punjab Agricultural University, Ludhiana - PPCB",23-02-2024 21:00:00,30.9028,75.8086,NO2,15,28,22
India,Punjab,Mandi Gobindgarh,"RIMT University, Mandi Gobindgarh - PPCB",23-02-2024 21:00:00,30.649961,76.331442,SO2,3,36,13
India,Punjab,Mandi Gobindgarh,"RIMT University, Mandi Gobindgarh - PPCB",23-02-2024 21:00:00,30.649961,76.331442,OZONE,28,33,32
India,Rajasthan,Alwar,"Moti Doongri, Alwar - RSPCB",23-02-2024 21:00:00,27.554793,76.611536,NO2,38,75,47
India,Rajasthan,Alwar,"Moti Doongri, Alwar - RSPCB",23-02-2024 21:00:00,27.554793,76.611536,CO,13,39,27
India,Rajasthan,Alwar,"Moti Doongri, Alwar - RSPCB",23-02-2024 21:00:00,27.554793,76.611536,OZONE,8,29,21
India,Rajasthan,Banswara,"Rati Talai, Banswara - RSPCB",23-02-2024 21:00:00,23.555190,74.440010,PM2.5,24,137,66
India,Rajasthan,Banswara,"Rati Talai, Banswara - RSPCB",23-02-2024 21:00:00,23.555190,74.440010,PM10,25,113,65
India,Rajasthan,Banswara,"Rati Talai, Banswara - RSPCB",23-02-2024 21:00:00,23.555190,74.440010,NH3,5,7,6
India,Rajasthan,Banswara,"Rati Talai, Banswara - RSPCB",23-02-2024 21:00:00,23.555190,74.440010,SO2,NA,NA,NA
India,Rajasthan,Baran,"Bamboliya, Baran - RSPCB",23-02-2024 21:00:00,25.106006,76.469948,NO2,9,32,15
India,Rajasthan,Barmer,"Railway Colony, Barmer - RSPCB",23-02-2024 21:00:00,25.747299,71.393989,PM2.5,10,52,29
India,Rajasthan,Barmer,"Railway Colony, Barmer - RSPCB",23-02-2024 21:00:00,25.747299,71.393989,NO2,9,30,15
India,Rajasthan,Bharatpur,"Krishna Nagar, Bharatpur - RSPCB",23-02-2024 21:00:00,27.215415,77.50873,PM10,44,200,126
India,Rajasthan,Bharatpur,"Krishna Nagar, Bharatpur - RSPCB",23-02-2024 21:00:00,27.215415,77.50873,CO,4,69,33
India,Rajasthan,Bharatpur,"Krishna Nagar, Bharatpur - RSPCB",23-02-2024 21:00:00,27.215415,77.50873,OZONE,25,107,74
India,Rajasthan,Bhiwadi,"RIICO Ind. Area III, Bhiwadi - RSPCB",23-02-2024 21:00:00,28.194909,76.862296,PM2.5,65,208,140
India,Rajasthan,Bhiwadi,"RIICO Ind. Area III, Bhiwadi - RSPCB",23-02-2024 21:00:00,28.194909,76.862296,PM10,105,220,154
India,Rajasthan,Bikaner,"MM Ground, Bikaner - RSPCB",23-02-2024 21:00:00,28.018792,73.292658,OZONE,3,93,58
India,Rajasthan,Bundi,"New Colony, Bundi - RSPCB",23-02-2024 21:00:00,25.435774,75.644272,PM10,71,181,110
India,Rajasthan,Bundi,"New Colony, Bundi - RSPCB",23-02-2024 21:00:00,25.435774,75.644272,OZONE,21,124,100
India,Rajasthan,Churu,"Subash Chowk, Churu - RSPCB",23-02-2024 21:00:00,28.296139,74.961696,PM10,26,183,77
India,Rajasthan,Churu,"Subash Chowk, Churu - RSPCB",23-02-2024 21:00:00,28.296139,74.961696,SO2,5,26,11
India,Rajasthan,Churu,"Subash Chowk, Churu - RSPCB",23-02-2024 21:00:00,28.296139,74.961696,CO,10,60,19
India,Rajasthan,Dausa,"Khatikan Mohalla, Dausa - RSPCB",23-02-2024 21:00:00,26.895552,76.334753,PM10,68,198,115
India,Rajasthan,Dholpur,"Raja Ganj, Dholpur - RSPCB",23-02-2024 21:00:00,26.699557,77.898881,NO2,6,34,18
India,Rajasthan,Dholpur,"Raja Ganj, Dholpur - RSPCB",23-02-2024 21:00:00,26.699557,77.898881,NH3,1,5,3
India,Rajasthan,Dholpur,"Raja Ganj, Dholpur - RSPCB",23-02-2024 21:00:00,26.699557,77.898881,CO,12,36,20
India,Rajasthan,Hanumangarh,"Housing Board, Hanumangarh - RSPCB",23-02-2024 21:00:00,29.610750,74.283608,NH3,8,24,13
India,Rajasthan,Hanumangarh,"Housing Board, Hanumangarh - RSPCB",23-02-2024 21:00:00,29.610750,74.283608,CO,28,102,67
India,Rajasthan,Jaipur,"Adarsh Nagar, Jaipur - RSPCB",23-02-2024 21:00:00,26.902909,75.836858,CO,6,106,32
India,Rajasthan,Jaipur,"Mansarovar Sector-12, Jaipur - RSPCB",23-02-2024 21:00:00,26.843698,75.766894,PM2.5,24,139,47
India,Rajasthan,Jaipur,"Mansarovar Sector-12, Jaipur - RSPCB",23-02-2024 21:00:00,26.843698,75.766894,NO2,25,58,35
India,Rajasthan,Jaipur,"Police Commissionerate, Jaipur - RSPCB",23-02-2024 21:00:00,26.9164092,75.7994901,NH3,5,9,7
India,Rajasthan,Jaipur,"Police Commissionerate, Jaipur - RSPCB",23-02-2024 21:00:00,26.9164092,75.7994901,CO,12,70,43
India,Rajasthan,Jaipur,"RIICO Sitapura, Jaipur - RSPCB",23-02-2024 21:00:00,26.786682,75.827928,PM10,55,194,106
India,Rajasthan,Jaipur,"RIICO Sitapura, Jaipur - RSPCB",23-02-2024 21:00:00,26.786682,75.827928,NH3,2,7,3
India,Rajasthan,Jaipur,"Sector-2 Murlipura, Jaipur - RSPCB",23-02-2024 21:00:00,26.960669,75.771817,NH3,2,17,6
India,Rajasthan,Jaipur,"Shastri Nagar, Jaipur - RSPCB",23-02-2024 21:00:00,26.9502929,75.730943,PM2.5,53,108,74
India,Rajasthan,Jalore,"Mudtra Sili, Jalore - RSPCB",23-02-2024 21:00:00,25.344694,72.626208,NO2,12,116,50
India,Rajasthan,Jalore,"Mudtra Sili, Jalore - RSPCB",23-02-2024 21:00:00,25.344694,72.626208,OZONE,8,124,100
India,Rajasthan,Jhalawar,"Rajlaxmi Nagar, Jhalawar - RSPCB",23-02-2024 21:00:00,24.588397,76.172782,SO2,1,21,6
India,Rajasthan,Jhunjhunu,"Indra Nagar, Jhunjhunu - RSPCB",23-02-2024 21:00:00,28.108988,75.386577,SO2,2,9,4
India,Rajasthan,Jhunjhunu,"Indra Nagar, Jhunjhunu - RSPCB",23-02-2024 21:00:00,28.108988,75.386577,OZONE,10,85,75
India,Rajasthan,Jodhpur,"Collectorate, Jodhpur - RSPCB",23-02-2024 21:00:00,26.268249,73.0193853,PM10,NA,NA,NA
India,Rajasthan,Jodhpur,"Jhalamand, Jodhpur - RSPCB",23-02-2024 21:00:00,26.215415,73.070156,SO2,4,14,7
India,Rajasthan,Jodhpur,"Mandor, Jodhpur - RSPCB",23-02-2024 21:00:00,26.358805,73.047444,NO2,18,55,28
India,Rajasthan,Jodhpur,"Samrat Ashok Udhyan, Jodhpur - RSPCB",23-02-2024 21:00:00,26.253384,72.976571,PM10,49,157,91
India,Rajasthan,Jodhpur,"Samrat Ashok Udhyan, Jodhpur - RSPCB",23-02-2024 21:00:00,26.253384,72.976571,NO2,7,138,32
India,Rajasthan,Jodhpur,"Samrat Ashok Udhyan, Jodhpur - RSPCB",23-02-2024 21:00:00,26.253384,72.976571,CO,14,112,40
India,Rajasthan,Karauli,"Satyawati Vihar, Karauli - RSPCB",23-02-2024 21:00:00,26.506177,77.025989,NH3,2,9,4
India,Rajasthan,Karauli,"Satyawati Vihar, Karauli - RSPCB",23-02-2024 21:00:00,26.506177,77.025989,OZONE,11,38,26
India,Rajasthan,Kota,"Dhanmandi, Kota - RSPCB",23-02-2024 21:00:00,25.164090,75.858137,NO2,NA,NA,NA
India,Rajasthan,Kota,"Dhanmandi, Kota - RSPCB",23-02-2024 21:00:00,25.164090,75.858137,SO2,NA,NA,NA
India,Rajasthan,Kota,"Nayapura, Kota - RSPCB",23-02-2024 21:00:00,25.196024,75.855668,SO2,3,9,5
India,Rajasthan,Kota,"Shrinath Puram, Kota - RSPCB",23-02-2024 21:00:00,25.14389,75.821256,PM2.5,90,319,160
India,Rajasthan,Kota,"Shrinath Puram, Kota - RSPCB",23-02-2024 21:00:00,25.14389,75.821256,NH3,5,11,8
India,Rajasthan,Nagaur,"Karni Colony, Nagaur - RSPCB",23-02-2024 21:00:00,27.213494,73.734444,PM10,61,168,101
India,Rajasthan,Nagaur,"Karni Colony, Nagaur - RSPCB",23-02-2024 21:00:00,27.213494,73.734444,SO2,2,7,4
India,Rajasthan,Nagaur,"Karni Colony, Nagaur - RSPCB",23-02-2024 21:00:00,27.213494,73.734444,OZONE,44,69,59
India,Rajasthan,Pratapgarh,"Pragati Nagar, Pratapgarh - RSPCB",23-02-2024 21:00:00,24.041198,74.780702,PM10,64,129,94
India,Rajasthan,Sawai Madhopur,"Sahu Nagar, Sawai Madhopur - RSPCB",23-02-2024 21:00:00,26.031443,76.359327,PM10,46,128,74
India,Rajasthan,Sawai Madhopur,"Sahu Nagar, Sawai Madhopur - RSPCB",23-02-2024 21:00:00,26.031443,76.359327,NO2,11,37,18
India,Rajasthan,Sawai Madhopur,"Sahu Nagar, Sawai Madhopur - RSPCB",23-02-2024 21:00:00,26.031443,76.359327,NH3,12,33,23
India,Rajasthan,Sikar,"Radhakishan Pura, Sikar - RSPCB",23-02-2024 21:00:00,27.608912,75.153302,NH3,4,7,5
India,Rajasthan,Sirohi,"Vedhaynath Colony, Sirohi - RSPCB",23-02-2024 21:00:00,24.885261,72.857549,NH3,2,8,4
India,Rajasthan,Sirohi,"Vedhaynath Colony, Sirohi - RSPCB",23-02-2024 21:00:00,24.885261,72.857549,SO2,4,22,9
India,Rajasthan,Sirohi,"Vedhaynath Colony, Sirohi - RSPCB",23-02-2024 21:00:00,24.885261,72.857549,OZONE,15,143,113
India,Rajasthan,Sri Ganganagar,"Old City, Sri Ganganagar - RSPCB",23-02-2024 21:00:00,29.931624,73.864511,NO2,31,174,97
India,Rajasthan,Sri Ganganagar,"Old City, Sri Ganganagar - RSPCB",23-02-2024 21:00:00,29.931624,73.864511,NH3,6,30,14
India,Rajasthan,Tonk,"Shastri Nagar, Tonk - RSPCB",23-02-2024 21:00:00,26.159933,75.780517,PM2.5,45,403,139
India,Rajasthan,Udaipur,"Ashok Nagar, Udaipur - RSPCB",23-02-2024 21:00:00,24.5886166,73.6321397,OZONE,6,77,50
India,Sikkim,Gangtok,"Zero Point GICI, Gangtok - SSPCB",23-02-2024 21:00:00,27.338530,88.614099,NH3,1,1,1
India,TamilNadu,Ariyalur,"Keelapalur, Ariyalur - TNPCB",23-02-2024 21:00:00,11.06825,79.07033,PM2.5,13,89,52
India,TamilNadu,Chennai,"Alandur Bus Depot, Chennai - CPCB",23-02-2024 21:00:00,12.9099161,80.1076538,CO,62,64,62
India,TamilNadu,Chennai,"Gandhi Nagar_Ennore, Chennai - TNPCB",23-02-2024 21:00:00,13.218341,80.32027,SO2,NA,NA,NA
India,TamilNadu,Chennai,"Perungudi, Chennai - TNPCB",23-02-2024 21:00:00,12.9533,80.2357,PM2.5,37,85,56
India,TamilNadu,Chennai,"Perungudi, Chennai - TNPCB",23-02-2024 21:00:00,12.9533,80.2357,PM10,45,114,70
India,TamilNadu,Chennai,"Royapuram, Chennai - TNPCB",23-02-2024 21:00:00,13.1036,80.2909,PM2.5,32,68,49
India,TamilNadu,Chennai,"Velachery Res. Area, Chennai - CPCB",23-02-2024 21:00:00,13.0052189,80.2398125,NH3,7,13,9
India,TamilNadu,Chennai,"Velachery Res. Area, Chennai - CPCB",23-02-2024 21:00:00,13.0052189,80.2398125,SO2,26,81,30
India,TamilNadu,Coimbatore,"PSG College of Arts and Science, Coimbatore - TNPCB",23-02-2024 21:00:00,11.0328,77.0349,NO2,4,7,5
India,TamilNadu,Cuddalore,"Semmandalam, Cuddalore - TNPCB",23-02-2024 21:00:00,11.7637683,79.7499835,PM10,35,92,48
India,TamilNadu,Cuddalore,"Semmandalam, Cuddalore - TNPCB",23-02-2024 21:00:00,11.7637683,79.7499835,NO2,2,10,6
India,TamilNadu,Gummidipoondi,"Anthoni Pillai Nagar, Gummidipoondi - TNPCB",23-02-2024 21:00:00,13.4127,80.1081,NO2,9,19,12
India,TamilNadu,Gummidipoondi,"Anthoni Pillai Nagar, Gummidipoondi - TNPCB",23-02-2024 21:00:00,13.4127,80.1081,SO2,1,108,17
India,TamilNadu,Kanchipuram,"Kilambi, Kanchipuram - TNPCB",23-02-2024 21:00:00,12.864618,79.659968,SO2,2,13,7
India,TamilNadu,Ooty,"Bombay Castel, Ooty - TNPCB",23-02-2024 21:00:00,11.4068288,76.7138973,PM10,NA,NA,NA
India,TamilNadu,Ooty,"Bombay Castel, Ooty - TNPCB",23-02-2024 21:00:00,11.4068288,76.7138973,SO2,NA,NA,NA
India,TamilNadu,Palkalaiperur,"Bharathidasan University, Palkalaiperur - TNPCB",23-02-2024 21:00:00,10.681158,78.741746,SO2,27,29,28
India,TamilNadu,Ramanathapuram,"Chalai Bazaar, Ramanathapuram - TNPCB",23-02-2024 21:00:00,9.36399,78.831977,PM10,34,112,51
India,TamilNadu,Ramanathapuram,"Chalai Bazaar, Ramanathapuram - TNPCB",23-02-2024 21:00:00,9.36399,78.831977,CO,2,6,3
India,TamilNadu,Ramanathapuram,"Chalai Bazaar, Ramanathapuram - TNPCB",23-02-2024 21:00:00,9.36399,78.831977,OZONE,14,14,14
India,TamilNadu,Salem,"Sona College of Technology, Salem - TNPCB",23-02-2024 21:00:00,11.679111,78.125052,SO2,21,23,22
India,TamilNadu,Thoothukudi,"Meelavittan, Thoothukudi - TNPCB",23-02-2024 21:00:00,8.816428 ,78.099039,NO2,15,31,21
India,TamilNadu,Tirupur,"Kumaran College, Tirupur - TNPCB",23-02-2024 21:00:00,11.0973603,77.3228673,PM10,39,271,110
India,TamilNadu,Tirupur,"Kumaran College, Tirupur - TNPCB",23-02-2024 21:00:00,11.0973603,77.3228673,NO2,5,72,19
India,TamilNadu,Vellore,"Vasanthapuram, Vellore - TNPCB",23-02-2024 21:00:00,12.909494,79.131861,PM2.5,52,142,84
India,TamilNadu,Vellore,"Vasanthapuram, Vellore - TNPCB",23-02-2024 21:00:00,12.909494,79.131861,PM10,47,120,85
India,TamilNadu,Vellore,"Vasanthapuram, Vellore - TNPCB",23-02-2024 21:00:00,12.909494,79.131861,OZONE,1,2,2
India,TamilNadu,Virudhunagar,"Collectorate Office, Virudhunagar - TNPCB",23-02-2024 21:00:00,9.559382,77.948828,SO2,15,16,16
India,Telangana,Hyderabad,"Central University, Hyderabad - TSPCB",23-02-2024 21:00:00,17.460103,78.334361,SO2,6,18,12
India,Telangana,Hyderabad,"IITH Kandi, Hyderabad - TSPCB",23-02-2024 21:00:00,17.585705,78.126199,NO2,NA,NA,NA
India,Telangana,Hyderabad,"IITH Kandi, Hyderabad - TSPCB",23-02-2024 21:00:00,17.585705,78.126199,SO2,NA,NA,NA
India,Telangana,Hyderabad,"Kokapet, Hyderabad - TSPCB",23-02-2024 21:00:00,17.393559,78.339194,PM2.5,45,261,86
India,Telangana,Hyderabad,"Kokapet, Hyderabad - TSPCB",23-02-2024 21:00:00,17.393559,78.339194,NH3,1,2,2
India,Telangana,Hyderabad,"Kompally Municipal Office, Hyderabad - TSPCB",23-02-2024 21:00:00,17.544899,78.486949,PM10,40,114,64
India,Telangana,Hyderabad,"Kompally Municipal Office, Hyderabad - TSPCB",23-02-2024 21:00:00,17.544899,78.486949,CO,8,46,17
India,Telangana,Hyderabad,"New Malakpet, Hyderabad - TSPCB",23-02-2024 21:00:00,17.37206,78.50864,PM2.5,20,43,30
India,Telangana,Hyderabad,"New Malakpet, Hyderabad - TSPCB",23-02-2024 21:00:00,17.37206,78.50864,SO2,10,26,19
India,Telangana,Hyderabad,"New Malakpet, Hyderabad - TSPCB",23-02-2024 21:00:00,17.37206,78.50864,OZONE,4,29,22
India,Telangana,Hyderabad,"Ramachandrapuram, Hyderabad - TSPCB",23-02-2024 21:00:00,17.528544,78.286195,NO2,4,4,4
India,Telangana,Hyderabad,"Ramachandrapuram, Hyderabad - TSPCB",23-02-2024 21:00:00,17.528544,78.286195,NH3,4,4,4
India,Telangana,Hyderabad,"Ramachandrapuram, Hyderabad - TSPCB",23-02-2024 21:00:00,17.528544,78.286195,CO,10,61,17
India,Telangana,Hyderabad,"Sanathnagar, Hyderabad - TSPCB",23-02-2024 21:00:00,17.4559458,78.4332152,CO,32,43,33
India,Telangana,Hyderabad,"Sanathnagar, Hyderabad - TSPCB",23-02-2024 21:00:00,17.4559458,78.4332152,OZONE,9,137,15
India,Telangana,Hyderabad,"Somajiguda, Hyderabad - TSPCB",23-02-2024 21:00:00,17.417094,78.457437,CO,11,42,28
India,Uttar_Pradesh,Agra,"Manoharpur, Agra - UPPCB",23-02-2024 21:00:00,27.23711,78.01936,PM10,8,52,30
India,Uttar_Pradesh,Agra,"Manoharpur, Agra - UPPCB",23-02-2024 21:00:00,27.23711,78.01936,NO2,19,21,20
India,Uttar_Pradesh,Agra,"Manoharpur, Agra - UPPCB",23-02-2024 21:00:00,27.23711,78.01936,NH3,NA,NA,NA
India,Uttar_Pradesh,Agra,"Rohta, Agra - UPPCB",23-02-2024 21:00:00,27.106972,78.000111,PM2.5,3,81,37
India,Uttar_Pradesh,Agra,"Rohta, Agra - UPPCB",23-02-2024 21:00:00,27.106972,78.000111,PM10,3,73,34
India,Uttar_Pradesh,Agra,"Rohta, Agra - UPPCB",23-02-2024 21:00:00,27.106972,78.000111,NO2,10,11,11
India,Uttar_Pradesh,Agra,"Sanjay Palace, Agra - UPPCB",23-02-2024 21:00:00,27.19865833,78.00598056,OZONE,1,12,8
India,Uttar_Pradesh,Agra,"Sector-3B Avas Vikas Colony, Agra - UPPCB",23-02-2024 21:00:00,27.19412,77.96237,SO2,12,14,13
India,Uttar_Pradesh,Agra,"Shastripuram, Agra - UPPCB",23-02-2024 21:00:00,27.19862,77.92066,PM10,36,121,65
India,Uttar_Pradesh,Agra,"Shastripuram, Agra - UPPCB",23-02-2024 21:00:00,27.19862,77.92066,OZONE,1,8,6
India,Uttar_Pradesh,Baghpat,"Sardar Patel Inter College, Baghpat - UPPCB",23-02-2024 21:00:00,28.964949,77.278761,CO,20,40,24
India,Uttar_Pradesh,Bareilly,"Civil Lines, Bareilly - UPPCB",23-02-2024 21:00:00,28.359581,79.414455,PM2.5,21,77,48
India,Uttar_Pradesh,Bareilly,"Civil Lines, Bareilly - UPPCB",23-02-2024 21:00:00,28.359581,79.414455,PM10,NA,NA,NA
India,Uttar_Pradesh,Bareilly,"Rajendra Nagar, Bareilly - UPPCB",23-02-2024 21:00:00,28.38910936,79.42963708,NO2,23,66,47
India,Uttar_Pradesh,Bulandshahr,"Yamunapuram, Bulandshahr - UPPCB",23-02-2024 21:00:00,28.406963,77.849831,OZONE,3,70,37
India,Uttar_Pradesh,Firozabad,"Nagla Bhau, Firozabad - UPPCB",23-02-2024 21:00:00,27.168897,78.376960,PM10,12,65,30
India,Uttar_Pradesh,Firozabad,"Vibhab Nagar, Firozabad - UPPCB",23-02-2024 21:00:00,27.1594,78.3953,CO,18,23,20
India,Uttar_Pradesh,Ghaziabad,"Indirapuram, Ghaziabad - UPPCB",23-02-2024 21:00:00,28.646233,77.358075,NH3,6,8,7
India,Uttar_Pradesh,Ghaziabad,"Indirapuram, Ghaziabad - UPPCB",23-02-2024 21:00:00,28.646233,77.358075,SO2,5,18,13
India,Uttar_Pradesh,Ghaziabad,"Loni, Ghaziabad - UPPCB",23-02-2024 21:00:00,28.757294,77.278792,NH3,1,4,1
India,Uttar_Pradesh,Ghaziabad,"Loni, Ghaziabad - UPPCB",23-02-2024 21:00:00,28.757294,77.278792,OZONE,5,84,68
India,Uttar_Pradesh,Ghaziabad,"Sanjay Nagar, Ghaziabad - UPPCB",23-02-2024 21:00:00,28.685382,77.453839,NH3,7,11,9
India,Uttar_Pradesh,Ghaziabad,"Sanjay Nagar, Ghaziabad - UPPCB",23-02-2024 21:00:00,28.685382,77.453839,CO,5,69,21
India,Uttar_Pradesh,Ghaziabad,"Vasundhara, Ghaziabad - UPPCB",23-02-2024 21:00:00,28.6603346,77.3572563,NH3,5,11,8
India,Uttar_Pradesh,Ghaziabad,"Vasundhara, Ghaziabad - UPPCB",23-02-2024 21:00:00,28.6603346,77.3572563,SO2,1,30,13
India,Uttar_Pradesh,Ghaziabad,"Vasundhara, Ghaziabad - UPPCB",23-02-2024 21:00:00,28.6603346,77.3572563,OZONE,11,79,60
India,Uttar_Pradesh,Gorakhpur,"Madan Mohan Malaviya University of Technology, Gorakhpur - UPPCB",23-02-2024 21:00:00,26.730136,83.433859,PM10,43,132,89
India,Uttar_Pradesh,Gorakhpur,"Madan Mohan Malaviya University of Technology, Gorakhpur - UPPCB",23-02-2024 21:00:00,26.730136,83.433859,NH3,1,3,2
India,Uttar_Pradesh,Gorakhpur,"Madan Mohan Malaviya University of Technology, Gorakhpur - UPPCB",23-02-2024 21:00:00,26.730136,83.433859,OZONE,3,57,40
India,Uttar_Pradesh,Greater Noida,"Knowledge Park - III, Greater Noida - UPPCB",23-02-2024 21:00:00,28.47272,77.482000,NH3,1,3,2
India,Uttar_Pradesh,Greater Noida,"Knowledge Park - V, Greater Noida - UPPCB",23-02-2024 21:00:00,28.557054,77.453663,NO2,19,45,30
India,Uttar_Pradesh,Hapur,"Anand Vihar, Hapur - UPPCB",23-02-2024 21:00:00,28.725645,77.749675,SO2,14,51,33
India,Uttar_Pradesh,Hapur,"Anand Vihar, Hapur - UPPCB",23-02-2024 21:00:00,28.725645,77.749675,OZONE,22,131,68
India,Uttar_Pradesh,Jhansi,"Shivaji Nagar, Jhansi - UPPCB",23-02-2024 21:00:00,25.4547,78.6039,PM2.5,4,31,22
India,Uttar_Pradesh,Jhansi,"Shivaji Nagar, Jhansi - UPPCB",23-02-2024 21:00:00,25.4547,78.6039,SO2,10,13,11
India,Uttar_Pradesh,Kanpur,"FTI Kidwai Nagar, Kanpur - UPPCB",23-02-2024 21:00:00,26.428282,80.327067,NO2,15,17,16
India,Uttar_Pradesh,Kanpur,"NSI Kalyanpur, Kanpur - UPPCB",23-02-2024 21:00:00,26.509954,80.249612,PM2.5,18,91,50
India,Uttar_Pradesh,Kanpur,"NSI Kalyanpur, Kanpur - UPPCB",23-02-2024 21:00:00,26.509954,80.249612,NH3,1,2,2
India,Uttar_Pradesh,Kanpur,"NSI Kalyanpur, Kanpur - UPPCB",23-02-2024 21:00:00,26.509954,80.249612,CO,30,50,36
India,Uttar_Pradesh,Kanpur,"Nehru Nagar, Kanpur - UPPCB",23-02-2024 21:00:00,26.4703136,80.3229863,PM2.5,20,135,58
India,Uttar_Pradesh,Khurja,"Kalindi Kunj, Khurja - UPPCB",23-02-2024 21:00:00,28.2348927,77.8683002,PM10,1,66,29
India,Uttar_Pradesh,Lucknow,"B R Ambedkar University, Lucknow - UPPCB",23-02-2024 21:00:00,26.766433,80.927299,PM10,49,153,83
India,Uttar_Pradesh,Lucknow,"B R Ambedkar University, Lucknow - UPPCB",23-02-2024 21:00:00,26.766433,80.927299,NO2,11,12,12
India,Uttar_Pradesh,Lucknow,"Gomti Nagar, Lucknow - UPPCB",23-02-2024 21:00:00,26.868120,81.005119,PM2.5,2,63,27
India,Uttar_Pradesh,Lucknow,"Kendriya Vidyalaya, Lucknow - CPCB",23-02-2024 21:00:00,26.906111,80.948222,NO2,10,67,26
India,Uttar_Pradesh,Lucknow,"Kukrail Picnic Spot-1, Lucknow - UPPCB",23-02-2024 21:00:00,26.90723,80.98579,PM10,NA,NA,NA
India,Uttar_Pradesh,Lucknow,"Lalbagh, Lucknow - CPCB",23-02-2024 21:00:00,26.8458805,80.9365541,PM2.5,29,182,87
India,Uttar_Pradesh,Lucknow,"Lalbagh, Lucknow - CPCB",23-02-2024 21:00:00,26.8458805,80.9365541,PM10,76,145,116
India,Uttar_Pradesh,Lucknow,"Lalbagh, Lucknow - CPCB",23-02-2024 21:00:00,26.8458805,80.9365541,NH3,9,12,10
India,Uttar_Pradesh,Lucknow,"Lalbagh, Lucknow - CPCB",23-02-2024 21:00:00,26.8458805,80.9365541,CO,10,110,80
India,Uttar_Pradesh,Lucknow,"Talkatora District Industries Center, Lucknow - CPCB",23-02-2024 21:00:00,26.83399722,80.8917361,NH3,11,32,17
India,Uttar_Pradesh,Lucknow,"Talkatora District Industries Center, Lucknow - CPCB",23-02-2024 21:00:00,26.83399722,80.8917361,OZONE,2,81,44
India,Uttar_Pradesh,Meerut,"Ganga Nagar, Meerut - UPPCB",23-02-2024 21:00:00,28.999264,77.7590354,PM2.5,9,87,49
India,Uttar_Pradesh,Meerut,"Ganga Nagar, Meerut - UPPCB",23-02-2024 21:00:00,28.999264,77.7590354,PM10,60,145,92
India,Uttar_Pradesh,Meerut,"Ganga Nagar, Meerut - UPPCB",23-02-2024 21:00:00,28.999264,77.7590354,CO,21,57,28
India,Uttar_Pradesh,Meerut,"Jai Bhim Nagar, Meerut - UPPCB",23-02-2024 21:00:00,28.9535882,77.7622941,SO2,1,18,8
India,Uttar_Pradesh,Meerut,"Pallavpuram Phase 2, Meerut - UPPCB",23-02-2024 21:00:00,29.063510,77.709723,PM10,56,148,100
India,Uttar_Pradesh,Meerut,"Pallavpuram Phase 2, Meerut - UPPCB",23-02-2024 21:00:00,29.063510,77.709723,CO,2,57,33
India,Uttar_Pradesh,Moradabad,"Buddhi Vihar, Moradabad - UPPCB",23-02-2024 21:00:00,28.83526,78.74460,PM2.5,14,105,44
India,Uttar_Pradesh,Moradabad,"Buddhi Vihar, Moradabad - UPPCB",23-02-2024 21:00:00,28.83526,78.74460,NH3,2,2,2
India,Uttar_Pradesh,Moradabad,"Buddhi Vihar, Moradabad - UPPCB",23-02-2024 21:00:00,28.83526,78.74460,CO,23,40,27
India,Uttar_Pradesh,Moradabad,"Employment Office, Moradabad - UPPCB",23-02-2024 21:00:00,28.88528,78.73880,SO2,24,27,25
India,Uttar_Pradesh,Moradabad,"Jigar Colony, Moradabad - UPPCB",23-02-2024 21:00:00,28.856664,78.772638,SO2,19,23,21
India,Uttar_Pradesh,Moradabad,"Jigar Colony, Moradabad - UPPCB",23-02-2024 21:00:00,28.856664,78.772638,CO,14,32,20
India,Uttar_Pradesh,Moradabad,"Kashiram Nagar, Moradabad - UPPCB",23-02-2024 21:00:00,28.849399,78.742362,PM2.5,14,100,45
India,Uttar_Pradesh,Moradabad,"Kashiram Nagar, Moradabad - UPPCB",23-02-2024 21:00:00,28.849399,78.742362,NH3,4,4,4
India,Uttar_Pradesh,Moradabad,"Kashiram Nagar, Moradabad - UPPCB",23-02-2024 21:00:00,28.849399,78.742362,OZONE,14,30,18
India,Uttar_Pradesh,Moradabad,"Transport Nagar, Moradabad - UPPCB",23-02-2024 21:00:00,28.802625,78.753728,CO,39,42,41
India,Uttar_Pradesh,Muzaffarnagar,"New Mandi, Muzaffarnagar - UPPCB",23-02-2024 21:00:00,29.4723508,77.7194031,OZONE,24,78,73
India,Uttar_Pradesh,Noida,"Sector - 125, Noida - UPPCB",23-02-2024 21:00:00,28.5447608,77.3231257,CO,2,54,11
India,Uttar_Pradesh,Noida,"Sector-116, Noida - UPPCB",23-02-2024 21:00:00,28.569230,77.393848,OZONE,3,21,12
India,Uttar_Pradesh,Prayagraj,"Motilal Nehru NIT, Prayagraj - UPPCB",23-02-2024 21:00:00,25.494,81.863,OZONE,5,25,17
India,Uttar_Pradesh,Prayagraj,"Nagar Nigam, Prayagraj - UPPCB",23-02-2024 21:00:00,25.44919916 ,81.82735986 ,NO2,5,5,5
India,Uttar_Pradesh,Prayagraj,"Nagar Nigam, Prayagraj - UPPCB",23-02-2024 21:00:00,25.44919916 ,81.82735986 ,CO,6,52,19
India,Uttar_Pradesh,Varanasi,"Ardhali Bazar, Varanasi - UPPCB",23-02-2024 21:00:00,25.3505986,82.9083074,PM10,9,34,20
India,Uttar_Pradesh,Varanasi,"IESD Banaras Hindu University, Varanasi - UPPCB",23-02-2024 21:00:00,25.262326,82.995408,NH3,1,2,2
India,Uttar_Pradesh,Varanasi,"Maldahiya, Varanasi - UPPCB",23-02-2024 21:00:00,25.32393,82.99687,PM2.5,11,34,22
India,Uttar_Pradesh,Varanasi,"Maldahiya, Varanasi - UPPCB",23-02-2024 21:00:00,25.32393,82.99687,NO2,1,3,2
India,Uttar_Pradesh,Varanasi,"Maldahiya, Varanasi - UPPCB",23-02-2024 21:00:00,25.32393,82.99687,SO2,18,24,23
India,Uttar_Pradesh,Varanasi,"Maldahiya, Varanasi - UPPCB",23-02-2024 21:00:00,25.32393,82.99687,CO,2,40,12
India,Uttar_Pradesh,Vrindavan,"Omex Eternity, Vrindavan - UPPCB",23-02-2024 21:00:00,27.5714090,77.6557570,CO,27,60,31
India,Uttarakhand,Dehradun,"Doon University, Dehradun - UKPCB",23-02-2024 21:00:00,30.269444,78.044167,PM10,28,139,69
India,Uttarakhand,Rishikesh,"Shivaji Nagar, Rishikesh - UKPCB",23-02-2024 21:00:00,30.075911,78.2859547,NH3,2,3,3
India,West_Bengal,Asansol,"Asansol Court Area, Asansol - WBPCB",23-02-2024 21:00:00,23.685297,86.945968,PM10,61,111,84
India,West_Bengal,Asansol,"Asansol Court Area, Asansol - WBPCB",23-02-2024 21:00:00,23.685297,86.945968,SO2,6,17,12
India,West_Bengal,Asansol,"Asansol Court Area, Asansol - WBPCB",23-02-2024 21:00:00,23.685297,86.945968,CO,12,56,24
India,West_Bengal,Barrackpore,"SVSPA Campus, Barrackpore - WBPCB",23-02-2024 21:00:00,22.7605581,88.3617589,PM2.5,11,301,102
India,West_Bengal,Barrackpore,"SVSPA Campus, Barrackpore - WBPCB",23-02-2024 21:00:00,22.7605581,88.3617589,NH3,2,5,4
India,West_Bengal,Haldia,"Priyambada Housing Estate, Haldia - WBPCB",23-02-2024 21:00:00,22.06047,88.109737,PM2.5,19,61,40
India,West_Bengal,Haldia,"Priyambada Housing Estate, Haldia - WBPCB",23-02-2024 21:00:00,22.06047,88.109737,PM10,40,133,84
India,West_Bengal,Haldia,"Priyambada Housing Estate, Haldia - WBPCB",23-02-2024 21:00:00,22.06047,88.109737,SO2,6,107,16
India,West_Bengal,Howrah,"Ghusuri, Howrah - WBPCB",23-02-2024 21:00:00,22.611968,88.347422,OZONE,13,21,16
India,West_Bengal,Kolkata,"Ballygunge, Kolkata - WBPCB",23-02-2024 21:00:00,22.5367507,88.3638022,PM2.5,37,195,89
India,West_Bengal,Kolkata,"Ballygunge, Kolkata - WBPCB",23-02-2024 21:00:00,22.5367507,88.3638022,CO,4,52,18
India,West_Bengal,Kolkata,"Ballygunge, Kolkata - WBPCB",23-02-2024 21:00:00,22.5367507,88.3638022,OZONE,8,45,30
India,West_Bengal,Kolkata,"Bidhannagar, Kolkata - WBPCB",23-02-2024 21:00:00,22.58157048,88.41002457,NH3,9,10,10
India,West_Bengal,Kolkata,"Bidhannagar, Kolkata - WBPCB",23-02-2024 21:00:00,22.58157048,88.41002457,CO,13,42,21
India,West_Bengal,Kolkata,"Fort William, Kolkata - WBPCB",23-02-2024 21:00:00,22.556640,88.342674,NO2,22,125,44
India,West_Bengal,Kolkata,"Rabindra Bharati University, Kolkata - WBPCB",23-02-2024 21:00:00,22.627847,88.380669,PM10,52,138,80
India,West_Bengal,Kolkata,"Rabindra Sarobar, Kolkata - WBPCB",23-02-2024 21:00:00,22.51106,88.35142,PM2.5,32,158,72
India,West_Bengal,Kolkata,"Rabindra Sarobar, Kolkata - WBPCB",23-02-2024 21:00:00,22.51106,88.35142,PM10,63,104,80
India,West_Bengal,Kolkata,"Victoria, Kolkata - WBPCB",23-02-2024 21:00:00,22.5448082,88.3403691,PM2.5,42,250,102
India,West_Bengal,Kolkata,"Victoria, Kolkata - WBPCB",23-02-2024 21:00:00,22.5448082,88.3403691,NH3,2,3,3
India,West_Bengal,Kolkata,"Victoria, Kolkata - WBPCB",23-02-2024 21:00:00,22.5448082,88.3403691,CO,23,74,36
India,West_Bengal,Siliguri,"Ward-32 Bapupara, Siliguri - WBPCB",23-02-2024 21:00:00,26.6879226,88.4152495,PM10,93,137,113
India,Andhra_Pradesh,Anantapur,"Gulzarpet, Anantapur - APPCB",23-02-2024 21:00:00,14.675886,77.593027,SO2,5,12,8
India,Andhra_Pradesh,Chittoor,"Gangineni Cheruvu, Chittoor - APPCB",23-02-2024 21:00:00,13.204880,79.097889,PM2.5,47,66,56
India,Andhra_Pradesh,Chittoor,"Gangineni Cheruvu, Chittoor - APPCB",23-02-2024 21:00:00,13.204880,79.097889,OZONE,21,146,113
India,Andhra_Pradesh,Kadapa,"Yerramukkapalli, Kadapa - APPCB",23-02-2024 21:00:00,14.465052,78.824187,SO2,2,3,2
India,Andhra_Pradesh,Tirupati,"Tirumala, Tirupati - APPCB",23-02-2024 21:00:00,13.67,79.35,NO2,17,46,28
India,Andhra_Pradesh,Tirupati,"Tirumala, Tirupati - APPCB",23-02-2024 21:00:00,13.67,79.35,SO2,4,9,6
India,Andhra_Pradesh,Tirupati,"Vaikuntapuram, Tirupati - APPCB",23-02-2024 21:00:00,13.615387,79.409230,NO2,16,25,19
India,Andhra_Pradesh,Vijayawada,"HB Colony, Vijayawada - APPCB",23-02-2024 21:00:00,16.536107,80.594233,PM2.5,48,69,58
India,Andhra_Pradesh,Vijayawada,"HB Colony, Vijayawada - APPCB",23-02-2024 21:00:00,16.536107,80.594233,NH3,4,5,4
India,Andhra_Pradesh,Vijayawada,"HB Colony, Vijayawada - APPCB",23-02-2024 21:00:00,16.536107,80.594233,CO,18,18,18
India,Andhra_Pradesh,Vijayawada,"HB Colony, Vijayawada - APPCB",23-02-2024 21:00:00,16.536107,80.594233,OZONE,6,37,24
India,Andhra_Pradesh,Vijayawada,"Rajiv Nagar, Vijayawada - APPCB",23-02-2024 21:00:00,16.554731,80.649110,CO,21,56,29
India,Andhra_Pradesh,Vijayawada,"Rajiv Nagar, Vijayawada - APPCB",23-02-2024 21:00:00,16.554731,80.649110,OZONE,3,31,18
India,Andhra_Pradesh,Visakhapatnam,"GVM Corporation, Visakhapatnam - APPCB",23-02-2024 21:00:00,17.72,83.3,SO2,11,17,13
India,Andhra_Pradesh,Visakhapatnam,"GVM Corporation, Visakhapatnam - APPCB",23-02-2024 21:00:00,17.72,83.3,CO,8,76,17
India,Andhra_Pradesh,Visakhapatnam,"GVM Corporation, Visakhapatnam - APPCB",23-02-2024 21:00:00,17.72,83.3,OZONE,2,213,20
India,Assam,Guwahati,"IITG, Guwahati - PCBA",23-02-2024 21:00:00,26.2028636,91.70046436,SO2,12,13,13
India,Assam,Guwahati,"IITG, Guwahati - PCBA",23-02-2024 21:00:00,26.2028636,91.70046436,CO,9,28,13
India,Assam,Guwahati,"LGBI Airport, Guwahati - PCBA",23-02-2024 21:00:00,26.10887,91.589544,PM10,89,339,204
India,Assam,Guwahati,"LGBI Airport, Guwahati - PCBA",23-02-2024 21:00:00,26.10887,91.589544,CO,30,45,37
India,Assam,Guwahati,"Pan Bazaar, Guwahati - PCBA",23-02-2024 21:00:00,26.187500,91.744194,OZONE,17,18,18
India,Assam,Guwahati,"Railway Colony, Guwahati - PCBA",23-02-2024 21:00:00,26.181742,91.78063,SO2,7,15,10
India,Assam,Nagaon,"Christianpatty, Nagaon - PCBA",23-02-2024 21:00:00,26.349082,92.68449,NO2,14,86,24
India,Assam,Nalbari,"Bata Chowk, Nalbari - PCBA",23-02-2024 21:00:00,26.446912,91.439057,PM2.5,87,283,148
India,Assam,Silchar,"Tarapur, Silchar - PCBA",23-02-2024 21:00:00,24.82827,92.79525,PM10,47,53,48
India,Assam,Silchar,"Tarapur, Silchar - PCBA",23-02-2024 21:00:00,24.82827,92.79525,NH3,1,1,1
India,Assam,Sivasagar,"Girls College, Sivasagar - PCBA",23-02-2024 21:00:00,26.987634,94.636574,PM2.5,14,51,26
India,Assam,Sivasagar,"Girls College, Sivasagar - PCBA",23-02-2024 21:00:00,26.987634,94.636574,NO2,6,26,16
India,Assam,Sivasagar,"Girls College, Sivasagar - PCBA",23-02-2024 21:00:00,26.987634,94.636574,SO2,5,5,5
India,Bihar,Araria,"Kharahiya Basti, Araria - BSPCB",23-02-2024 21:00:00,26.146529,87.454184,PM10,111,267,156
India,Bihar,Araria,"Kharahiya Basti, Araria - BSPCB",23-02-2024 21:00:00,26.146529,87.454184,NO2,6,7,7
India,Bihar,Bihar Sharif,"D M Colony, Bihar Sharif - BSPCB",23-02-2024 21:00:00,25.204762,85.514960,PM10,25,105,64
India,Bihar,Bihar Sharif,"D M Colony, Bihar Sharif - BSPCB",23-02-2024 21:00:00,25.204762,85.514960,OZONE,2,4,3
India,Bihar,Gaya,"Kareemganj, Gaya - BSPCB",23-02-2024 21:00:00,24.792403,84.992416,CO,12,107,40
India,Bihar,Gaya,"Kareemganj, Gaya - BSPCB",23-02-2024 21:00:00,24.792403,84.992416,OZONE,3,43,12
India,Bihar,Hajipur,"Industrial Area, Hajipur - BSPCB",23-02-2024 21:00:00,25.697189,85.245900,NH3,9,13,11
India,Bihar,Katihar,"Mirchaibari, Katihar - BSPCB",23-02-2024 21:00:00,25.560083,87.553265,PM2.5,NA,NA,NA
India,Bihar,Katihar,"Mirchaibari, Katihar - BSPCB",23-02-2024 21:00:00,25.560083,87.553265,PM10,NA,NA,NA
India,Bihar,Katihar,"Mirchaibari, Katihar - BSPCB",23-02-2024 21:00:00,25.560083,87.553265,NO2,15,26,21
India,Bihar,Manguraha,"Forest Rest House, Manguraha - BSPCB",23-02-2024 21:00:00,27.308328,84.531742,PM10,NA,NA,NA
India,Bihar,Manguraha,"Forest Rest House, Manguraha - BSPCB",23-02-2024 21:00:00,27.308328,84.531742,NO2,5,14,9
India,Bihar,Manguraha,"Forest Rest House, Manguraha - BSPCB",23-02-2024 21:00:00,27.308328,84.531742,CO,36,54,44
India,Bihar,Motihari,"Gandak Colony, Motihari - BSPCB",23-02-2024 21:00:00,26.63086,84.90051,NO2,27,87,60
India,Bihar,Muzaffarpur,"Buddha Colony, Muzaffarpur - BSPCB",23-02-2024 21:00:00,26.11442,85.39813,PM2.5,148,306,187
India,Bihar,Muzaffarpur,"Buddha Colony, Muzaffarpur - BSPCB",23-02-2024 21:00:00,26.11442,85.39813,PM10,133,211,150
India,Bihar,Muzaffarpur,"Buddha Colony, Muzaffarpur - BSPCB",23-02-2024 21:00:00,26.11442,85.39813,CO,10,65,23
India,Bihar,Muzaffarpur,"Buddha Colony, Muzaffarpur - BSPCB",23-02-2024 21:00:00,26.11442,85.39813,OZONE,48,78,58
India,Bihar,Muzaffarpur,"MIT-Daudpur Kothi, Muzaffarpur - BSPCB",23-02-2024 21:00:00,26.1403345,85.3650192,NO2,7,11,8
India,Bihar,Muzaffarpur,"Muzaffarpur Collectorate, Muzaffarpur - BSPCB",23-02-2024 21:00:00,26.1209,85.3647,PM2.5,52,211,104
India,Bihar,Patna,"DRM Office Danapur, Patna - BSPCB",23-02-2024 21:00:00,25.586562,85.043586,PM10,136,198,154
India,Bihar,Patna,"DRM Office Danapur, Patna - BSPCB",23-02-2024 21:00:00,25.586562,85.043586,NH3,3,4,3
India,Bihar,Patna,"DRM Office Danapur, Patna - BSPCB",23-02-2024 21:00:00,25.586562,85.043586,OZONE,1,67,40
India,Bihar,Patna,"Govt. High School Shikarpur, Patna - BSPCB",23-02-2024 21:00:00,25.592539,85.227158,PM2.5,91,154,123
India,Bihar,Patna,"Govt. High School Shikarpur, Patna - BSPCB",23-02-2024 21:00:00,25.592539,85.227158,OZONE,47,63,52
India,Bihar,Patna,"IGSC Planetarium Complex, Patna - BSPCB",23-02-2024 21:00:00,25.610369,85.132568,NO2,12,12,12
India,Bihar,Patna,"Muradpur, Patna - BSPCB",23-02-2024 21:00:00,25.619651,85.147382,NH3,2,4,3
India,Bihar,Patna,"Muradpur, Patna - BSPCB",23-02-2024 21:00:00,25.619651,85.147382,CO,23,106,57
India,Bihar,Patna,"Rajbansi Nagar, Patna - BSPCB",23-02-2024 21:00:00,25.599486,85.113666,PM10,108,143,124
India,Bihar,Patna,"Rajbansi Nagar, Patna - BSPCB",23-02-2024 21:00:00,25.599486,85.113666,NO2,32,62,42
India,Bihar,Patna,"Rajbansi Nagar, Patna - BSPCB",23-02-2024 21:00:00,25.599486,85.113666,NH3,2,3,3
India,Bihar,Patna,"Samanpura, Patna - BSPCB",23-02-2024 21:00:00,25.596727,85.085624,NO2,50,80,61
India,Bihar,Patna,"Samanpura, Patna - BSPCB",23-02-2024 21:00:00,25.596727,85.085624,OZONE,8,36,25
India,Bihar,Purnia,"Mariam Nagar, Purnia - BSPCB",23-02-2024 21:00:00,25.366336,87.117468,PM10,88,193,124
India,Bihar,Purnia,"Mariam Nagar, Purnia - BSPCB",23-02-2024 21:00:00,25.366336,87.117468,NO2,10,13,12
India,Bihar,Rajgir,"Dangi Tola, Rajgir - BSPCB",23-02-2024 21:00:00,25.03280,85.41948,PM2.5,22,103,55
India,Bihar,Rajgir,"Dangi Tola, Rajgir - BSPCB",23-02-2024 21:00:00,25.03280,85.41948,OZONE,21,24,23
India,Bihar,Saharsa,"Police Line, Saharsa - BSPCB",23-02-2024 21:00:00,25.892357,86.590325,NO2,6,9,7
India,Bihar,Samastipur,"DM Office_Kasipur, Samastipur - BSPCB",23-02-2024 21:00:00,25.859655,85.77944,SO2,2,14,8
India,Bihar,Siwan,"Chitragupta Nagar, Siwan - BSPCB",23-02-2024 21:00:00,26.2271665,84.3570427,PM2.5,45,306,199
India,Chandigarh,Chandigarh,"Sector 22, Chandigarh - CPCC",23-02-2024 21:00:00,30.735567,76.775714,NH3,3,5,4
India,Chandigarh,Chandigarh,"Sector 22, Chandigarh - CPCC",23-02-2024 21:00:00,30.735567,76.775714,OZONE,3,147,94
India,Chhattisgarh,Bhilai,"Hathkhoj, Bhilai - CECB",23-02-2024 21:00:00,21.224231,81.408350,NH3,8,9,8
India,Chhattisgarh,Bhilai,"Hathkhoj, Bhilai - CECB",23-02-2024 21:00:00,21.224231,81.408350,OZONE,11,19,17
India,Chhattisgarh,Bilaspur,"Mangala, Bilaspur - NTPC",23-02-2024 21:00:00,22.08815,82.13737,SO2,4,25,11
India,Chhattisgarh,Korba,"Rampur, Korba - CECB",23-02-2024 21:00:00,22.368195,82.746431,OZONE,2,42,3
India,Chhattisgarh,Korba,"Urja Nagar, Korba - CECB",23-02-2024 21:00:00,22.348441,82.549611,PM10,28,106,48
India,Chhattisgarh,Korba,"Urja Nagar, Korba - CECB",23-02-2024 21:00:00,22.348441,82.549611,SO2,3,9,4
India,Chhattisgarh,Korba,"Urja Nagar, Korba - CECB",23-02-2024 21:00:00,22.348441,82.549611,OZONE,1,1,1
India,Chhattisgarh,Kunjemura,"OP Jindal School, Kunjemura - CECB",23-02-2024 21:00:00,22.126650,83.483212,PM2.5,18,50,29
India,Chhattisgarh,Kunjemura,"OP Jindal School, Kunjemura - CECB",23-02-2024 21:00:00,22.126650,83.483212,OZONE,7,60,45
India,Chhattisgarh,Milupara,"Govt. Higher Secondary School, Milupara - CECB",23-02-2024 21:00:00,22.1910172,83.5197009,SO2,4,13,10
India,Chhattisgarh,Milupara,"Govt. Higher Secondary School, Milupara - CECB",23-02-2024 21:00:00,22.1910172,83.5197009,OZONE,11,39,30
India,Chhattisgarh,Raipur,"AIIMS, Raipur - CECB",23-02-2024 21:00:00,21.258815,81.578979,SO2,NA,NA,NA
India,Chhattisgarh,Raipur,"Bhatagaon New ISBT, Raipur - CECB",23-02-2024 21:00:00,21.219665,81.630094,PM10,47,76,59
India,Chhattisgarh,Raipur,"Siltara Phase-II, Raipur - CECB",23-02-2024 21:00:00,21.371751,81.664929,SO2,1,14,5
India,Chhattisgarh,Tumidih,"OP Jindal Industrial Park, Tumidih - CECB",23-02-2024 21:00:00,22.06631475,83.33820077,OZONE,4,59,40
India,Delhi,Delhi,"Alipur, Delhi - DPCC",23-02-2024 21:00:00,28.815329,77.153010,CO,28,56,35
India,Delhi,Delhi,"Anand Vihar, Delhi - DPCC",23-02-2024 21:00:00,28.647622,77.3158090,CO,56,106,74
India,Delhi,Delhi,"Ashok Vihar, Delhi - DPCC",23-02-2024 21:00:00,28.695381,77.181665,PM10,91,199,133
India,Delhi,Delhi,"Ashok Vihar, Delhi - DPCC",23-02-2024 21:00:00,28.695381,77.181665,SO2,17,32,26
India,Delhi,Delhi,"Ashok Vihar, Delhi - DPCC",23-02-2024 21:00:00,28.695381,77.181665,OZONE,4,56,17
India,Delhi,Delhi,"Aya Nagar, Delhi - IMD",23-02-2024 21:00:00,28.4706914,77.1099364,OZONE,NA,NA,NA
India,Delhi,Delhi,"Bawana, Delhi - DPCC",23-02-2024 21:00:00,28.776200,77.051074,PM10,107,296,161
India,Delhi,Delhi,"Bawana, Delhi - DPCC",23-02-2024 21:00:00,28.776200,77.051074,NO2,11,96,40
India,Delhi,Delhi,"Bawana, Delhi - DPCC",23-02-2024 21:00:00,28.776200,77.051074,NH3,5,8,6
India,Delhi,Delhi,"Burari Crossing, Delhi - IMD",23-02-2024 21:00:00,28.7256504,77.2011573,CO,34,56,41
India,Delhi,Delhi,"CRRI Mathura Road, Delhi - IMD",23-02-2024 21:00:00,28.5512005,77.2735737,PM2.5,29,207,106
India,Delhi,Delhi,"CRRI Mathura Road, Delhi - IMD",23-02-2024 21:00:00,28.5512005,77.2735737,OZONE,8,63,38
India,Delhi,Delhi,"Chandni Chowk, Delhi - IITM",23-02-2024 21:00:00,28.656756,77.227234,NH3,7,8,8
India,Delhi,Delhi,"Chandni Chowk, Delhi - IITM",23-02-2024 21:00:00,28.656756,77.227234,SO2,5,43,18
India,Delhi,Delhi,"DTU, Delhi - CPCB",23-02-2024 21:00:00,28.7500499,77.1112615,PM10,78,205,137
India,Delhi,Delhi,"DTU, Delhi - CPCB",23-02-2024 21:00:00,28.7500499,77.1112615,NO2,32,54,42
India,Delhi,Delhi,"Dr. Karni Singh Shooting Range, Delhi - DPCC",23-02-2024 21:00:00,28.498571,77.264840,SO2,4,16,8
India,Delhi,Delhi,"Dwarka-Sector 8, Delhi - DPCC ",23-02-2024 21:00:00,28.5710274,77.0719006,CO,14,90,33
India,Delhi,Delhi,"IHBAS, Dilshad Garden, Delhi - CPCB",23-02-2024 21:00:00,28.6811736,77.3025234,PM10,70,143,107
India,Delhi,Delhi,"IHBAS, Dilshad Garden, Delhi - CPCB",23-02-2024 21:00:00,28.6811736,77.3025234,CO,8,82,31
India,Delhi,Delhi,"ITO, Delhi - CPCB",23-02-2024 21:00:00,28.628624,77.241060,NH3,1,7,3
India,Delhi,Delhi,"Jahangirpuri, Delhi - DPCC",23-02-2024 21:00:00,28.732820,77.170633,PM2.5,34,361,180
India,Delhi,Delhi,"Jawaharlal Nehru Stadium, Delhi - DPCC",23-02-2024 21:00:00,28.580280,77.233829,CO,24,66,38
India,Delhi,Delhi,"Lodhi Road, Delhi - IITM",23-02-2024 21:00:00,28.588333,77.221667,PM2.5,6,350,67
India,Delhi,Delhi,"Lodhi Road, Delhi - IMD",23-02-2024 21:00:00,28.5918245,77.2273074,PM2.5,41,96,66
India,Delhi,Delhi,"Lodhi Road, Delhi - IMD",23-02-2024 21:00:00,28.5918245,77.2273074,PM10,71,121,93
India,Delhi,Delhi,"Major Dhyan Chand National Stadium, Delhi - DPCC",23-02-2024 21:00:00,28.611281,77.237738,CO,74,115,86
India,Delhi,Delhi,"Mandir Marg, Delhi - DPCC",23-02-2024 21:00:00,28.636429,77.201067,PM2.5,37,185,91
India,Delhi,Delhi,"Mandir Marg, Delhi - DPCC",23-02-2024 21:00:00,28.636429,77.201067,PM10,57,124,85
India,Delhi,Delhi,"Mandir Marg, Delhi - DPCC",23-02-2024 21:00:00,28.636429,77.201067,NH3,15,16,16
India,Delhi,Delhi,"Mandir Marg, Delhi - DPCC",23-02-2024 21:00:00,28.636429,77.201067,OZONE,7,26,20
India,Delhi,Delhi,"Mundka, Delhi - DPCC",23-02-2024 21:00:00,28.684678,77.076574,NO2,21,70,49
India,Delhi,Delhi,"Mundka, Delhi - DPCC",23-02-2024 21:00:00,28.684678,77.076574,SO2,8,105,24
India,Delhi,Delhi,"Mundka, Delhi - DPCC",23-02-2024 21:00:00,28.684678,77.076574,OZONE,2,24,19
India,Delhi,Delhi,"Najafgarh, Delhi - DPCC",23-02-2024 21:00:00,28.570173,76.933762,PM2.5,33,177,92
India,Delhi,Delhi,"Najafgarh, Delhi - DPCC",23-02-2024 21:00:00,28.570173,76.933762,PM10,61,147,102
India,Delhi,Delhi,"Najafgarh, Delhi - DPCC",23-02-2024 21:00:00,28.570173,76.933762,CO,4,49,10
India,Delhi,Delhi,"Okhla Phase-2, Delhi - DPCC",23-02-2024 21:00:00,28.530785,77.271255,PM2.5,37,221,89
India,Delhi,Delhi,"Okhla Phase-2, Delhi - DPCC",23-02-2024 21:00:00,28.530785,77.271255,PM10,90,178,124
India,Delhi,Delhi,"Patparganj, Delhi - DPCC",23-02-2024 21:00:00,28.623763,77.287209,PM2.5,37,148,76
India,Delhi,Delhi,"Patparganj, Delhi - DPCC",23-02-2024 21:00:00,28.623763,77.287209,SO2,6,11,8
India,Delhi,Delhi,"Punjabi Bagh, Delhi - DPCC",23-02-2024 21:00:00,28.674045,77.131023,SO2,3,31,17
India,Delhi,Delhi,"Sirifort, Delhi - CPCB",23-02-2024 21:00:00,28.5504249,77.2159377,SO2,32,36,34
India,Delhi,Delhi,"Sonia Vihar, Delhi - DPCC",23-02-2024 21:00:00,28.710508,77.249485,PM10,68,256,136
India,Delhi,Delhi,"Sonia Vihar, Delhi - DPCC",23-02-2024 21:00:00,28.710508,77.249485,NH3,4,9,6
India,Delhi,Delhi,"Vivek Vihar, Delhi - DPCC",23-02-2024 21:00:00,28.672342,77.315260,PM10,83,178,126
India,Delhi,Delhi,"Vivek Vihar, Delhi - DPCC",23-02-2024 21:00:00,28.672342,77.315260,OZONE,7,49,38
India,Delhi,Delhi,"Wazirpur, Delhi - DPCC",23-02-2024 21:00:00,28.699793,77.165453,PM2.5,48,240,119
India,Delhi,Delhi,"Wazirpur, Delhi - DPCC",23-02-2024 21:00:00,28.699793,77.165453,CO,36,112,71
India,Gujarat,Ahmedabad,"Chandkheda, Ahmedabad - IITM",23-02-2024 21:00:00,23.107969,72.574648,PM10,54,231,118
India,Gujarat,Ahmedabad,"Maninagar, Ahmedabad - GPCB",23-02-2024 21:00:00,23.002657,72.591912,NO2,NA,NA,NA
India,Gujarat,Ahmedabad,"Raikhad, Ahmedabad - IITM",23-02-2024 21:00:00,23.020509,72.579261,PM10,94,163,122
India,Gujarat,Ahmedabad,"Raikhad, Ahmedabad - IITM",23-02-2024 21:00:00,23.020509,72.579261,SO2,4,14,7
India,Gujarat,Ahmedabad,"Raikhad, Ahmedabad - IITM",23-02-2024 21:00:00,23.020509,72.579261,CO,2,49,17
India,Gujarat,Ahmedabad,"Rakhial, Ahmedabad - IITM",23-02-2024 21:00:00,23.016834,72.625775,NH3,2,11,4
India,Gujarat,Ahmedabad,"Rakhial, Ahmedabad - IITM",23-02-2024 21:00:00,23.016834,72.625775,SO2,2,43,10
India,Gujarat,Ahmedabad,"Rakhial, Ahmedabad - IITM",23-02-2024 21:00:00,23.016834,72.625775,CO,28,64,37
India,Gujarat,Ahmedabad,"Rakhial, Ahmedabad - IITM",23-02-2024 21:00:00,23.016834,72.625775,OZONE,4,48,35
India,Gujarat,Ahmedabad,"SAC ISRO Bopal, Ahmedabad - IITM",23-02-2024 21:00:00,23.041137,72.456691,PM10,78,139,104
India,Gujarat,Ahmedabad,"SAC ISRO Bopal, Ahmedabad - IITM",23-02-2024 21:00:00,23.041137,72.456691,NO2,12,13,12
India,Gujarat,Ahmedabad,"SAC ISRO Bopal, Ahmedabad - IITM",23-02-2024 21:00:00,23.041137,72.456691,NH3,3,4,4
India,Gujarat,Ahmedabad,"SAC ISRO Satellite, Ahmedabad - IITM",23-02-2024 21:00:00,23.023389,72.515201,PM2.5,126,170,148
India,Gujarat,Ahmedabad,"SAC ISRO Satellite, Ahmedabad - IITM",23-02-2024 21:00:00,23.023389,72.515201,NO2,17,17,17
India,Gujarat,Ahmedabad,"SVPI Airport Hansol, Ahmedabad - IITM",23-02-2024 21:00:00,23.076793,72.627874,SO2,3,4,3
India,Gujarat,Ankleshwar,"GIDC, Ankleshwar - GPCB",23-02-2024 21:00:00,21.613267,73.010555,PM2.5,39,90,59
India,Gujarat,Ankleshwar,"GIDC, Ankleshwar - GPCB",23-02-2024 21:00:00,21.613267,73.010555,PM10,51,112,75
India,Gujarat,Ankleshwar,"GIDC, Ankleshwar - GPCB",23-02-2024 21:00:00,21.613267,73.010555,NO2,37,37,37
India,Gujarat,Ankleshwar,"GIDC, Ankleshwar - GPCB",23-02-2024 21:00:00,21.613267,73.010555,OZONE,21,33,28
India,Gujarat,Gandhinagar,"Sector-10, Gandhinagar - GPCB",23-02-2024 21:00:00,23.221714,72.654328,NO2,5,16,10
India,Gujarat,Gandhinagar,"Sector-10, Gandhinagar - GPCB",23-02-2024 21:00:00,23.221714,72.654328,NH3,1,2,2
India,Gujarat,Vatva,"Phase-4 GIDC, Vatva - GPCB",23-02-2024 21:00:00,22.969611,72.643500,NH3,1,2,1
India,Gujarat,Vatva,"Phase-4 GIDC, Vatva - GPCB",23-02-2024 21:00:00,22.969611,72.643500,CO,48,50,49
India,Haryana,Ambala,"Patti Mehar, Ambala - HSPCB",23-02-2024 21:00:00,30.379589,76.778328,PM2.5,16,46,30
India,Haryana,Ambala,"Patti Mehar, Ambala - HSPCB",23-02-2024 21:00:00,30.379589,76.778328,NO2,7,9,8
India,Haryana,Bahadurgarh,"Arya Nagar, Bahadurgarh - HSPCB",23-02-2024 21:00:00,28.6701,76.9254,NO2,NA,NA,NA
India,Haryana,Bahadurgarh,"Arya Nagar, Bahadurgarh - HSPCB",23-02-2024 21:00:00,28.6701,76.9254,CO,46,60,51
India,Haryana,Bahadurgarh,"Arya Nagar, Bahadurgarh - HSPCB",23-02-2024 21:00:00,28.6701,76.9254,OZONE,42,50,45
India,Haryana,Ballabgarh,"Nathu Colony, Ballabgarh - HSPCB",23-02-2024 21:00:00,28.3419248,77.319699,PM2.5,91,323,219
India,Haryana,Ballabgarh,"Nathu Colony, Ballabgarh - HSPCB",23-02-2024 21:00:00,28.3419248,77.319699,NO2,8,14,12
India,Haryana,Bhiwani,"H.B. Colony, Bhiwani - HSPCB",23-02-2024 21:00:00,28.806223,76.141105,PM2.5,21,98,50
India,Haryana,Bhiwani,"H.B. Colony, Bhiwani - HSPCB",23-02-2024 21:00:00,28.806223,76.141105,CO,4,30,10
India,Haryana,Charkhi Dadri,"Mini Secretariat, Charkhi Dadri - HSPCB",23-02-2024 21:00:00,28.593883,76.270653,PM10,71,140,94
India,Haryana,Charkhi Dadri,"Mini Secretariat, Charkhi Dadri - HSPCB",23-02-2024 21:00:00,28.593883,76.270653,SO2,49,54,52
India,Haryana,Dharuhera,"Municipal Corporation Office, Dharuhera -  HSPCB",23-02-2024 21:00:00,28.206800,76.799700,PM10,NA,NA,NA
India,Haryana,Dharuhera,"Municipal Corporation Office, Dharuhera -  HSPCB",23-02-2024 21:00:00,28.206800,76.799700,SO2,NA,NA,NA
India,Haryana,Faridabad,"Sector 11, Faridabad - HSPCB",23-02-2024 21:00:00,28.376058,77.315741,CO,10,30,17
India,Haryana,Faridabad,"Sector 11, Faridabad - HSPCB",23-02-2024 21:00:00,28.376058,77.315741,OZONE,3,32,11
India,Haryana,Faridabad,"Sector 30, Faridabad - HSPCB",23-02-2024 21:00:00,28.4417,77.3217,NO2,30,33,31
India,Haryana,Fatehabad,"Huda Sector, Fatehabad - HSPCB",23-02-2024 21:00:00,29.503664,75.467934,SO2,3,9,6
India,Haryana,Fatehabad,"Huda Sector, Fatehabad - HSPCB",23-02-2024 21:00:00,29.503664,75.467934,OZONE,21,62,23
India,Haryana,Gurugram,"Sector-51, Gurugram - HSPCB",23-02-2024 21:00:00,28.4227,77.0667,PM2.5,38,253,132
India,Haryana,Gurugram,"Teri Gram, Gurugram - HSPCB",23-02-2024 21:00:00,28.4275,77.1465,SO2,3,4,3
India,Haryana,Gurugram,"Vikas Sadan, Gurugram - HSPCB",23-02-2024 21:00:00,28.4501238,77.0263051,PM2.5,18,85,42
India,Haryana,Hisar,"Urban Estate-II, Hisar - HSPCB",23-02-2024 21:00:00,29.140560,75.744941,PM10,NA,NA,NA
India,Haryana,Hisar,"Urban Estate-II, Hisar - HSPCB",23-02-2024 21:00:00,29.140560,75.744941,NH3,2,5,3
India,Haryana,Jind,"Police Lines, Jind - HSPCB",23-02-2024 21:00:00,29.307814,76.337619,PM10,51,98,70
India,Haryana,Jind,"Police Lines, Jind - HSPCB",23-02-2024 21:00:00,29.307814,76.337619,CO,2,114,28
India,Haryana,Kaithal,"Rishi Nagar, Kaithal - HSPCB",23-02-2024 21:00:00,29.8006,76.4155,NH3,8,8,8
India,Haryana,Kaithal,"Rishi Nagar, Kaithal - HSPCB",23-02-2024 21:00:00,29.8006,76.4155,OZONE,6,14,12
India,Haryana,Karnal,"Sector-12, Karnal - HSPCB",23-02-2024 21:00:00,29.695300,77.002700,NO2,7,12,10
India,Haryana,Karnal,"Sector-12, Karnal - HSPCB",23-02-2024 21:00:00,29.695300,77.002700,NH3,10,13,11
India,Haryana,Kurukshetra,"Sector-7, Kurukshetra - HSPCB",23-02-2024 21:00:00,29.966942,76.875879,PM10,59,98,79
India,Haryana,Kurukshetra,"Sector-7, Kurukshetra - HSPCB",23-02-2024 21:00:00,29.966942,76.875879,NH3,5,5,5
India,Haryana,Kurukshetra,"Sector-7, Kurukshetra - HSPCB",23-02-2024 21:00:00,29.966942,76.875879,SO2,1,57,29
India,Haryana,Mandikhera,"General Hospital, Mandikhera - HSPCB",23-02-2024 21:00:00,27.9002,76.9938,SO2,30,36,33
India,Haryana,Narnaul,"Shastri Nagar, Narnaul - HSPCB",23-02-2024 21:00:00,28.060249,76.113115,PM2.5,6,87,42
India,Haryana,Palwal,"Shyam Nagar, Palwal - HSPCB",23-02-2024 21:00:00,28.1485564,77.3320667,CO,13,25,22
India,Haryana,Rohtak,"MD University, Rohtak - HSPCB",23-02-2024 21:00:00,28.52123,76.37138,SO2,6,8,7
India,Haryana,Sirsa,"F-Block, Sirsa - HSPCB",23-02-2024 21:00:00,29.536400,75.015800,CO,38,63,43
India,Haryana,Sonipat,"Murthal, Sonipat - HSPCB",23-02-2024 21:00:00,29.027200,77.062100,OZONE,16,36,31
India,Haryana,Yamuna Nagar,"Gobind Pura, Yamuna Nagar - HSPCB",23-02-2024 21:00:00,30.1480566,77.2893471,PM2.5,43,83,58
India,Haryana,Yamuna Nagar,"Gobind Pura, Yamuna Nagar - HSPCB",23-02-2024 21:00:00,30.1480566,77.2893471,PM10,57,107,77
India,Himachal Pradesh,Baddi,"HIMUDA Complex Phase-1, Baddi - HPPCB",23-02-2024 21:00:00,30.943887,76.801991,PM10,45,241,108
India,Jammu_and_Kashmir,Srinagar,"Rajbagh, Srinagar - JKSPCB",23-02-2024 21:00:00,34.066206,74.819820,SO2,NA,NA,NA
India,Jammu_and_Kashmir,Srinagar,"Rajbagh, Srinagar - JKSPCB",23-02-2024 21:00:00,34.066206,74.819820,OZONE,NA,NA,NA
India,Jharkhand,Dhanbad,"Sardar Patel Nagar, Dhanbad - JSPCB",23-02-2024 21:00:00,23.80569,86.44268,CO,134,197,184
India,Jharkhand,Dhanbad,"Sardar Patel Nagar, Dhanbad - JSPCB",23-02-2024 21:00:00,23.80569,86.44268,OZONE,6,24,15
India,Jharkhand,Pathardih,"Mohalbani Ghat, Pathardih - DMC",23-02-2024 21:00:00,23.669880,86.411725,NO2,13,203,100
India,Karnataka,Bagalkot,"Vidayagiri, Bagalkot - KSPCB",23-02-2024 21:00:00,16.172806,75.659694,PM2.5,20,37,36
India,Karnataka,Belgaum,"Ramteerth Nagar, Belgaum - KSPCB",23-02-2024 21:00:00,15.888653,74.541751,NH3,33,34,34
India,Karnataka,Bengaluru,"BTM Layout, Bengaluru - CPCB",23-02-2024 21:00:00,12.9135218,77.5950804,SO2,7,8,8
India,Karnataka,Bengaluru,"City Railway Station, Bengaluru - KSPCB",23-02-2024 21:00:00,12.9756843,77.5660749,CO,52,106,69
India,Karnataka,Bengaluru,"Hebbal, Bengaluru - KSPCB",23-02-2024 21:00:00,13.029152,77.585901,PM2.5,19,157,59
India,Karnataka,Bengaluru,"Hebbal, Bengaluru - KSPCB",23-02-2024 21:00:00,13.029152,77.585901,NH3,1,1,1
India,Karnataka,Bengaluru,"Hombegowda Nagar, Bengaluru - KSPCB",23-02-2024 21:00:00,12.938539,77.590100,PM10,39,142,78
India,Karnataka,Bengaluru,"Hombegowda Nagar, Bengaluru - KSPCB",23-02-2024 21:00:00,12.938539,77.590100,NO2,36,50,42
India,Karnataka,Bengaluru,"Jayanagar 5th Block, Bengaluru - KSPCB",23-02-2024 21:00:00,12.920984,77.584908,PM2.5,42,142,77
India,Karnataka,Bengaluru,"Jigani, Bengaluru - KSPCB",23-02-2024 21:00:00,12.7816279,77.6299145,OZONE,13,84,73
India,Karnataka,Bengaluru,"Kasturi Nagar, Bengaluru - KSPCB",23-02-2024 21:00:00,13.003872,77.664217,NO2,16,17,17
India,Karnataka,Bengaluru,"Peenya, Bengaluru - CPCB",23-02-2024 21:00:00,13.0270199,77.494094,SO2,12,19,16
India,Karnataka,Bengaluru,"Peenya, Bengaluru - CPCB",23-02-2024 21:00:00,13.0270199,77.494094,CO,18,48,35
India,Karnataka,Bengaluru,"Sanegurava Halli, Bengaluru - KSPCB",23-02-2024 21:00:00,12.990328,77.5431385,PM10,36,81,47
India,Karnataka,Bengaluru,"Shivapura_Peenya, Bengaluru - KSPCB",23-02-2024 21:00:00,13.0246342,77.5080115,PM10,47,168,96
India,Karnataka,Bengaluru,"Shivapura_Peenya, Bengaluru - KSPCB",23-02-2024 21:00:00,13.0246342,77.5080115,NO2,15,16,15
India,Karnataka,Bengaluru,"Shivapura_Peenya, Bengaluru - KSPCB",23-02-2024 21:00:00,13.0246342,77.5080115,NH3,4,4,4
India,Karnataka,Bengaluru,"Silk Board, Bengaluru - KSPCB",23-02-2024 21:00:00,12.917348,77.622813,NO2,NA,NA,NA
India,Karnataka,Bidar,"Naubad, Bidar - KSPCB",23-02-2024 21:00:00,17.930306,77.482194,PM10,77,221,112
India,Karnataka,Bidar,"Naubad, Bidar - KSPCB",23-02-2024 21:00:00,17.930306,77.482194,NO2,7,10,8
India,Karnataka,Bidar,"Naubad, Bidar - KSPCB",23-02-2024 21:00:00,17.930306,77.482194,OZONE,13,40,38
India,Karnataka,Chamarajanagar,"Urban, Chamarajanagar - KSPCB",23-02-2024 21:00:00,11.55358,76.55521,NO2,23,40,30
