country,state,city,station,last_update,latitude,longitude,pollutant_id,pollutant_min,pollutant_max,pollutant_avg
India,Andhra_Pradesh,Amaravati,"Secretariat, Amaravati - APPCB",04-02-2024 19:00:00,16.5150833,80.5181667,PM2.5,25,73,40
India,Andhra_Pradesh,Amaravati,"Secretariat, Amaravati - APPCB",04-02-2024 19:00:00,16.5150833,80.5181667,NO2,9,25,17
India,Andhra_Pradesh,Anantapur,"Gulzarpet, Anantapur - APPCB",04-02-2024 19:00:00,14.675886,77.593027,CO,26,60,29
India,Andhra_Pradesh,Chittoor,"Gangineni Cheruvu, Chittoor - APPCB",04-02-2024 19:00:00,13.204880,79.097889,PM2.5,36,92,66
India,Andhra_Pradesh,Chittoor,"Gangineni Cheruvu, Chittoor - APPCB",04-02-2024 19:00:00,13.204880,79.097889,PM10,34,84,61
India,Andhra_Pradesh,Kadapa,"Yerramukkapalli, Kadapa - APPCB",04-02-2024 19:00:00,14.465052,78.824187,NO2,8,8,8
India,Andhra_Pradesh,Kadapa,"Yerramukkapalli, Kadapa - APPCB",04-02-2024 19:00:00,14.465052,78.824187,CO,12,20,14
India,Andhra_Pradesh,Rajamahendravaram,"Anand Kala Kshetram, Rajamahendravaram - APPCB",04-02-2024 19:00:00,16.9872867,81.7363176,PM2.5,45,89,60
India,Andhra_Pradesh,Rajamahendravaram,"Anand Kala Kshetram, Rajamahendravaram - APPCB",04-02-2024 19:00:00,16.9872867,81.7363176,CO,8,40,14
India,Andhra_Pradesh,Rajamahendravaram,"Anand Kala Kshetram, Rajamahendravaram - APPCB",04-02-2024 19:00:00,16.9872867,81.7363176,OZONE,3,6,5
India,Andhra_Pradesh,Tirupati,"Tirumala, Tirupati - APPCB",04-02-2024 19:00:00,13.67,79.35,PM2.5,58,97,71
India,Andhra_Pradesh,Tirupati,"Tirumala, Tirupati - APPCB",04-02-2024 19:00:00,13.67,79.35,CO,35,60,39
India,Andhra_Pradesh,Tirupati,"Vaikuntapuram, Tirupati - APPCB",04-02-2024 19:00:00,13.615387,79.409230,NO2,17,22,19
India,Andhra_Pradesh,Tirupati,"Vaikuntapuram, Tirupati - APPCB",04-02-2024 19:00:00,13.615387,79.409230,NH3,2,4,3
India,Andhra_Pradesh,Tirupati,"Vaikuntapuram, Tirupati - APPCB",04-02-2024 19:00:00,13.615387,79.409230,SO2,NA,NA,NA
India,Andhra_Pradesh,Vijayawada,"HB Colony, Vijayawada - APPCB",04-02-2024 19:00:00,16.536107,80.594233,PM10,36,52,43
India,Andhra_Pradesh,Vijayawada,"HB Colony, Vijayawada - APPCB",04-02-2024 19:00:00,16.536107,80.594233,NH3,4,5,4
India,Andhra_Pradesh,Vijayawada,"HB Colony, Vijayawada - APPCB",04-02-2024 19:00:00,16.536107,80.594233,CO,30,32,31
India,Andhra_Pradesh,Vijayawada,"Kanuru, Vijayawada - APPCB",04-02-2024 19:00:00,16.486692,80.699436,PM2.5,46,85,68
India,Andhra_Pradesh,Vijayawada,"Rajiv Gandhi Park, Vijayawada - APPCB",04-02-2024 19:00:00,16.509717,80.612222,PM2.5,47,81,63
India,Andhra_Pradesh,Vijayawada,"Rajiv Gandhi Park, Vijayawada - APPCB",04-02-2024 19:00:00,16.509717,80.612222,NO2,2,77,32
India,Andhra_Pradesh,Vijayawada,"Rajiv Nagar, Vijayawada - APPCB",04-02-2024 19:00:00,16.554731,80.649110,NH3,2,3,2
India,Andhra_Pradesh,Vijayawada,"Rajiv Nagar, Vijayawada - APPCB",04-02-2024 19:00:00,16.554731,80.649110,CO,22,68,27
India,Andhra_Pradesh,Visakhapatnam,"GVM Corporation, Visakhapatnam - APPCB",04-02-2024 19:00:00,17.72,83.3,PM2.5,46,187,77
India,Andhra_Pradesh,Visakhapatnam,"GVM Corporation, Visakhapatnam - APPCB",04-02-2024 19:00:00,17.72,83.3,OZONE,8,34,24
India,Arunachal_Pradesh,Naharlagun,"Naharlagun, Naharlagun - APSPCB",04-02-2024 19:00:00,27.103358,93.679645,SO2,3,3,3
India,Assam,Byrnihat,"Central Academy for SFS, Byrnihat - PCBA",04-02-2024 19:00:00,26.071318,91.87488,PM2.5,113,500,348
India,Assam,Byrnihat,"Central Academy for SFS, Byrnihat - PCBA",04-02-2024 19:00:00,26.071318,91.87488,NH3,3,9,6
India,Assam,Byrnihat,"Central Academy for SFS, Byrnihat - PCBA",04-02-2024 19:00:00,26.071318,91.87488,CO,32,188,13
India,Assam,Guwahati,"Pan Bazaar, Guwahati - PCBA",04-02-2024 19:00:00,26.187500,91.744194,PM2.5,70,234,131
India,Assam,Guwahati,"Pan Bazaar, Guwahati - PCBA",04-02-2024 19:00:00,26.187500,91.744194,PM10,67,149,104
India,Assam,Guwahati,"Pan Bazaar, Guwahati - PCBA",04-02-2024 19:00:00,26.187500,91.744194,CO,24,70,31
India,Assam,Guwahati,"Railway Colony, Guwahati - PCBA",04-02-2024 19:00:00,26.181742,91.78063,SO2,19,25,22
India,Assam,Guwahati,"Railway Colony, Guwahati - PCBA",04-02-2024 19:00:00,26.181742,91.78063,OZONE,8,39,24
India,Assam,Nalbari,"Bata Chowk, Nalbari - PCBA",04-02-2024 19:00:00,26.446912,91.439057,SO2,4,13,8
India,Assam,Nalbari,"Bata Chowk, Nalbari - PCBA",04-02-2024 19:00:00,26.446912,91.439057,OZONE,3,104,76
India,Assam,Sivasagar,"Girls College, Sivasagar - PCBA",04-02-2024 19:00:00,26.987634,94.636574,SO2,5,5,5
India,Bihar,Araria,"Kharahiya Basti, Araria - BSPCB",04-02-2024 19:00:00,26.146529,87.454184,PM10,143,500,309
India,Bihar,Araria,"Kharahiya Basti, Araria - BSPCB",04-02-2024 19:00:00,26.146529,87.454184,NH3,6,8,7
India,Bihar,Araria,"Kharahiya Basti, Araria - BSPCB",04-02-2024 19:00:00,26.146529,87.454184,CO,14,30,25
India,Bihar,Arrah,"New DM Office, Arrah - BSPCB",04-02-2024 19:00:00,25.5626095,84.663264,PM2.5,47,143,74
India,Bihar,Aurangabad,"Gurdeo Nagar, Aurangabad - BSPCB",04-02-2024 19:00:00,24.75746,84.366208,PM2.5,37,233,123
India,Bihar,Aurangabad,"Gurdeo Nagar, Aurangabad - BSPCB",04-02-2024 19:00:00,24.75746,84.366208,PM10,36,145,95
India,Bihar,Aurangabad,"Gurdeo Nagar, Aurangabad - BSPCB",04-02-2024 19:00:00,24.75746,84.366208,NO2,6,9,7
India,Bihar,Aurangabad,"Gurdeo Nagar, Aurangabad - BSPCB",04-02-2024 19:00:00,24.75746,84.366208,NH3,3,6,4
India,Bihar,Bettiah,"Kamalnath Nagar, Bettiah - BSPCB",04-02-2024 19:00:00,26.80365,84.51954,NH3,3,4,3
India,Bihar,Bettiah,"Kamalnath Nagar, Bettiah - BSPCB",04-02-2024 19:00:00,26.80365,84.51954,CO,76,78,77
India,Bihar,Bhagalpur,"DM Office_Kachari Chowk, Bhagalpur - BSPCB",04-02-2024 19:00:00,25.251013,86.989001,PM10,111,312,154
India,Bihar,Bihar Sharif,"D M Colony, Bihar Sharif - BSPCB",04-02-2024 19:00:00,25.204762,85.514960,SO2,2,15,7
India,Bihar,Chhapra,"Darshan Nagar, Chhapra - BSPCB",04-02-2024 19:00:00,25.7808257,84.7446768,PM2.5,107,345,192
India,Bihar,Chhapra,"Darshan Nagar, Chhapra - BSPCB",04-02-2024 19:00:00,25.7808257,84.7446768,PM10,101,240,133
India,Bihar,Chhapra,"Darshan Nagar, Chhapra - BSPCB",04-02-2024 19:00:00,25.7808257,84.7446768,SO2,NA,NA,NA
India,Bihar,Chhapra,"Darshan Nagar, Chhapra - BSPCB",04-02-2024 19:00:00,25.7808257,84.7446768,OZONE,1,18,13
India,Bihar,Gaya,"Kareemganj, Gaya - BSPCB",04-02-2024 19:00:00,24.792403,84.992416,PM10,63,193,109
India,Bihar,Gaya,"SFTI Kusdihra, Gaya - BSPCB",04-02-2024 19:00:00,24.762518,84.982348,PM10,30,65,48
India,Bihar,Gaya,"SFTI Kusdihra, Gaya - BSPCB",04-02-2024 19:00:00,24.762518,84.982348,NO2,23,35,30
India,Bihar,Gaya,"SFTI Kusdihra, Gaya - BSPCB",04-02-2024 19:00:00,24.762518,84.982348,CO,56,102,74
India,Bihar,Hajipur,"Industrial Area, Hajipur - BSPCB",04-02-2024 19:00:00,25.697189,85.245900,NH3,3,9,7
India,Bihar,Hajipur,"Industrial Area, Hajipur - BSPCB",04-02-2024 19:00:00,25.697189,85.245900,OZONE,1,2,2
India,Bihar,Katihar,"Mirchaibari, Katihar - BSPCB",04-02-2024 19:00:00,25.560083,87.553265,PM2.5,58,302,151
India,Bihar,Kishanganj,"SDM Office_Khagra, Kishanganj - BSPCB",04-02-2024 19:00:00,26.0881305,87.93840336,PM2.5,NA,NA,NA
India,Bihar,Manguraha,"Forest Rest House, Manguraha - BSPCB",04-02-2024 19:00:00,27.308328,84.531742,CO,2,10,7
India,Bihar,Motihari,"Gandak Colony, Motihari - BSPCB",04-02-2024 19:00:00,26.63086,84.90051,PM10,77,166,128
India,Bihar,Munger,"Town Hall, Munger - BSPCB",04-02-2024 19:00:00,25.376776,86.471523,PM2.5,57,343,168
India,Bihar,Munger,"Town Hall, Munger - BSPCB",04-02-2024 19:00:00,25.376776,86.471523,SO2,36,55,47
India,Bihar,Muzaffarpur,"Buddha Colony, Muzaffarpur - BSPCB",04-02-2024 19:00:00,26.11442,85.39813,SO2,6,22,10
India,Bihar,Muzaffarpur,"MIT-Daudpur Kothi, Muzaffarpur - BSPCB",04-02-2024 19:00:00,26.1403345,85.3650192,PM2.5,103,484,369
India,Bihar,Muzaffarpur,"MIT-Daudpur Kothi, Muzaffarpur - BSPCB",04-02-2024 19:00:00,26.1403345,85.3650192,CO,70,150,109
India,Bihar,Muzaffarpur,"Muzaffarpur Collectorate, Muzaffarpur - BSPCB",04-02-2024 19:00:00,26.1209,85.3647,PM2.5,157,351,278
India,Bihar,Muzaffarpur,"Muzaffarpur Collectorate, Muzaffarpur - BSPCB",04-02-2024 19:00:00,26.1209,85.3647,OZONE,21,73,52
India,Bihar,Patna,"Govt. High School Shikarpur, Patna - BSPCB",04-02-2024 19:00:00,25.592539,85.227158,PM10,110,177,149
India,Bihar,Patna,"Govt. High School Shikarpur, Patna - BSPCB",04-02-2024 19:00:00,25.592539,85.227158,OZONE,5,50,31
India,Bihar,Patna,"IGSC Planetarium Complex, Patna - BSPCB",04-02-2024 19:00:00,25.610369,85.132568,NO2,12,15,14
India,Bihar,Patna,"IGSC Planetarium Complex, Patna - BSPCB",04-02-2024 19:00:00,25.610369,85.132568,SO2,4,8,5
India,Bihar,Patna,"IGSC Planetarium Complex, Patna - BSPCB",04-02-2024 19:00:00,25.610369,85.132568,OZONE,4,15,12
India,Bihar,Patna,"Muradpur, Patna - BSPCB",04-02-2024 19:00:00,25.619651,85.147382,NO2,9,19,13
India,Bihar,Patna,"Rajbansi Nagar, Patna - BSPCB",04-02-2024 19:00:00,25.599486,85.113666,NH3,NA,NA,NA
India,Bihar,Patna,"Rajbansi Nagar, Patna - BSPCB",04-02-2024 19:00:00,25.599486,85.113666,OZONE,3,54,54
India,Bihar,Patna,"Samanpura, Patna - BSPCB",04-02-2024 19:00:00,25.596727,85.085624,NH3,4,8,6
India,Bihar,Purnia,"Mariam Nagar, Purnia - BSPCB",04-02-2024 19:00:00,25.366336,87.117468,NH3,1,1,1
India,Bihar,Rajgir,"Dangi Tola, Rajgir - BSPCB",04-02-2024 19:00:00,25.03280,85.41948,NO2,1,1,1
India,Bihar,Saharsa,"Police Line, Saharsa - BSPCB",04-02-2024 19:00:00,25.892357,86.590325,PM10,117,197,161
India,Bihar,Saharsa,"Police Line, Saharsa - BSPCB",04-02-2024 19:00:00,25.892357,86.590325,NO2,5,8,7
India,Bihar,Samastipur,"DM Office_Kasipur, Samastipur - BSPCB",04-02-2024 19:00:00,25.859655,85.77944,NH3,3,5,5
India,Bihar,Samastipur,"DM Office_Kasipur, Samastipur - BSPCB",04-02-2024 19:00:00,25.859655,85.77944,CO,3,30,22
India,Chandigarh,Chandigarh,"Sector 22, Chandigarh - CPCC",04-02-2024 19:00:00,30.735567,76.775714,SO2,6,15,10
India,Chandigarh,Chandigarh,"Sector 22, Chandigarh - CPCC",04-02-2024 19:00:00,30.735567,76.775714,CO,41,85,48
India,Chandigarh,Chandigarh,"Sector-25, Chandigarh - CPCC",04-02-2024 19:00:00,30.751462,76.762879,PM2.5,90,223,150
India,Chandigarh,Chandigarh,"Sector-25, Chandigarh - CPCC",04-02-2024 19:00:00,30.751462,76.762879,SO2,8,11,9
India,Chhattisgarh,Bhilai,"32Bungalows, Bhilai - CECB",04-02-2024 19:00:00,21.194815,81.314770,NH3,6,6,6
India,Chhattisgarh,Bhilai,"Civic Center, Bhilai - Bhilai Steel Plant",04-02-2024 19:00:00,21.185571,81.343175,PM2.5,29,74,46
India,Chhattisgarh,Bhilai,"Civic Center, Bhilai - Bhilai Steel Plant",04-02-2024 19:00:00,21.185571,81.343175,CO,20,68,44
India,Chhattisgarh,Bhilai,"Hathkhoj, Bhilai - CECB",04-02-2024 19:00:00,21.224231,81.408350,NH3,4,8,7
India,Chhattisgarh,Bhilai,"Hathkhoj, Bhilai - CECB",04-02-2024 19:00:00,21.224231,81.408350,CO,22,112,38
India,Chhattisgarh,Bilaspur,"Mangala, Bilaspur - NTPC",04-02-2024 19:00:00,22.08815,82.13737,PM2.5,23,90,47
India,Chhattisgarh,Bilaspur,"Mangala, Bilaspur - NTPC",04-02-2024 19:00:00,22.08815,82.13737,CO,32,40,37
India,Chhattisgarh,Kunjemura,"OP Jindal School, Kunjemura - CECB",04-02-2024 19:00:00,22.126650,83.483212,PM2.5,27,87,50
India,Chhattisgarh,Milupara,"Govt. Higher Secondary School, Milupara - CECB",04-02-2024 19:00:00,22.1910172,83.5197009,PM2.5,16,62,31
India,Chhattisgarh,Milupara,"Govt. Higher Secondary School, Milupara - CECB",04-02-2024 19:00:00,22.1910172,83.5197009,NO2,7,51,22
India,Chhattisgarh,Milupara,"Govt. Higher Secondary School, Milupara - CECB",04-02-2024 19:00:00,22.1910172,83.5197009,CO,5,38,16
India,Chhattisgarh,Raipur,"AIIMS, Raipur - CECB",04-02-2024 19:00:00,21.258815,81.578979,PM10,NA,NA,NA
India,Chhattisgarh,Raipur,"Bhatagaon New ISBT, Raipur - CECB",04-02-2024 19:00:00,21.219665,81.630094,PM2.5,35,99,69
India,Chhattisgarh,Raipur,"Bhatagaon New ISBT, Raipur - CECB",04-02-2024 19:00:00,21.219665,81.630094,NH3,1,6,4
India,Chhattisgarh,Raipur,"Krishak Nagar, Raipur - CECB",04-02-2024 19:00:00,21.237755,81.705301,SO2,8,11,9
India,Chhattisgarh,Raipur,"Siltara Phase-II, Raipur - CECB",04-02-2024 19:00:00,21.371751,81.664929,CO,32,86,44
India,Delhi,Delhi,"Alipur, Delhi - DPCC",04-02-2024 19:00:00,28.815329,77.153010,OZONE,4,60,39
India,Delhi,Delhi,"Anand Vihar, Delhi - DPCC",04-02-2024 19:00:00,28.647622,77.3158090,NO2,81,206,120
India,Delhi,Delhi,"Anand Vihar, Delhi - DPCC",04-02-2024 19:00:00,28.647622,77.3158090,OZONE,17,55,19
India,Delhi,Delhi,"Ashok Vihar, Delhi - DPCC",04-02-2024 19:00:00,28.695381,77.181665,PM2.5,214,390,309
India,Delhi,Delhi,"Ashok Vihar, Delhi - DPCC",04-02-2024 19:00:00,28.695381,77.181665,PM10,130,405,222
India,Delhi,Delhi,"Bawana, Delhi - DPCC",04-02-2024 19:00:00,28.776200,77.051074,NH3,6,12,9
India,Delhi,Delhi,"CRRI Mathura Road, Delhi - IMD",04-02-2024 19:00:00,28.5512005,77.2735737,NO2,23,48,38
India,Delhi,Delhi,"DTU, Delhi - CPCB",04-02-2024 19:00:00,28.7500499,77.1112615,PM10,125,444,210
India,Delhi,Delhi,"DTU, Delhi - CPCB",04-02-2024 19:00:00,28.7500499,77.1112615,SO2,26,28,27
India,Delhi,Delhi,"IGI Airport (T3), Delhi - IMD",04-02-2024 19:00:00,28.5627763,77.1180053,OZONE,11,28,19
India,Delhi,Delhi,"Jahangirpuri, Delhi - DPCC",04-02-2024 19:00:00,28.732820,77.170633,OZONE,7,85,19
India,Delhi,Delhi,"Jawaharlal Nehru Stadium, Delhi - DPCC",04-02-2024 19:00:00,28.580280,77.233829,OZONE,1,25,16
India,Delhi,Delhi,"Lodhi Road, Delhi - IITM",04-02-2024 19:00:00,28.588333,77.221667,NO2,NA,NA,NA
India,Delhi,Delhi,"Lodhi Road, Delhi - IITM",04-02-2024 19:00:00,28.588333,77.221667,SO2,NA,NA,NA
India,Delhi,Delhi,"Major Dhyan Chand National Stadium, Delhi - DPCC",04-02-2024 19:00:00,28.611281,77.237738,NH3,8,14,12
India,Delhi,Delhi,"NSIT Dwarka, Delhi - CPCB",04-02-2024 19:00:00,28.60909,77.0325413,OZONE,20,38,29
India,Delhi,Delhi,"Najafgarh, Delhi - DPCC",04-02-2024 19:00:00,28.570173,76.933762,SO2,7,14,10
India,Delhi,Delhi,"Najafgarh, Delhi - DPCC",04-02-2024 19:00:00,28.570173,76.933762,OZONE,2,86,50
India,Delhi,Delhi,"Narela, Delhi - DPCC",04-02-2024 19:00:00,28.822836,77.101981,NH3,NA,NA,NA
India,Delhi,Delhi,"Nehru Nagar, Delhi - DPCC",04-02-2024 19:00:00,28.567890,77.250515,SO2,5,21,10
India,Delhi,Delhi,"Nehru Nagar, Delhi - DPCC",04-02-2024 19:00:00,28.567890,77.250515,CO,24,131,57
India,Delhi,Delhi,"New Moti Bagh, Delhi - MHUA",04-02-2024 19:00:00,28.57834,77.18400,CO,47,121,61
India,Delhi,Delhi,"Patparganj, Delhi - DPCC",04-02-2024 19:00:00,28.623763,77.287209,NH3,10,15,12
India,Delhi,Delhi,"Punjabi Bagh, Delhi - DPCC",04-02-2024 19:00:00,28.674045,77.131023,NH3,5,10,8
India,Delhi,Delhi,"Pusa, Delhi - DPCC",04-02-2024 19:00:00,28.639652,77.146275,CO,4,135,23
India,Delhi,Delhi,"Pusa, Delhi - IMD",04-02-2024 19:00:00,28.636110,77.173332,NO2,46,96,68
India,Delhi,Delhi,"Sonia Vihar, Delhi - DPCC",04-02-2024 19:00:00,28.710508,77.249485,NH3,7,11,9
India,Delhi,Delhi,"Sonia Vihar, Delhi - DPCC",04-02-2024 19:00:00,28.710508,77.249485,SO2,6,15,10
India,Delhi,Delhi,"Sri Aurobindo Marg, Delhi - DPCC",04-02-2024 19:00:00,28.531346,77.190156,PM2.5,65,346,267
India,Delhi,Delhi,"Sri Aurobindo Marg, Delhi - DPCC",04-02-2024 19:00:00,28.531346,77.190156,NH3,10,15,13
India,Delhi,Delhi,"Sri Aurobindo Marg, Delhi - DPCC",04-02-2024 19:00:00,28.531346,77.190156,CO,32,101,48
India,Delhi,Delhi,"Sri Aurobindo Marg, Delhi - DPCC",04-02-2024 19:00:00,28.531346,77.190156,OZONE,1,12,7
India,Delhi,Delhi,"Vivek Vihar, Delhi - DPCC",04-02-2024 19:00:00,28.672342,77.315260,PM2.5,251,406,324
India,Delhi,Delhi,"Vivek Vihar, Delhi - DPCC",04-02-2024 19:00:00,28.672342,77.315260,NO2,44,120,72
India,Delhi,Delhi,"Vivek Vihar, Delhi - DPCC",04-02-2024 19:00:00,28.672342,77.315260,NH3,4,14,9
India,Delhi,Delhi,"Vivek Vihar, Delhi - DPCC",04-02-2024 19:00:00,28.672342,77.315260,CO,36,153,44
India,Delhi,Delhi,"Vivek Vihar, Delhi - DPCC",04-02-2024 19:00:00,28.672342,77.315260,OZONE,3,36,9
India,Delhi,Delhi,"Wazirpur, Delhi - DPCC",04-02-2024 19:00:00,28.699793,77.165453,PM2.5,305,401,348
India,Gujarat,Ahmedabad,"Chandkheda, Ahmedabad - IITM",04-02-2024 19:00:00,23.107969,72.574648,PM10,91,310,151
India,Gujarat,Ahmedabad,"Chandkheda, Ahmedabad - IITM",04-02-2024 19:00:00,23.107969,72.574648,NO2,26,41,33
India,Gujarat,Ahmedabad,"Chandkheda, Ahmedabad - IITM",04-02-2024 19:00:00,23.107969,72.574648,OZONE,14,27,24
India,Gujarat,Ahmedabad,"Gyaspur, Ahmedabad - IITM",04-02-2024 19:00:00,22.977134,72.553024,PM2.5,70,409,236
India,Gujarat,Ahmedabad,"Rakhial, Ahmedabad - IITM",04-02-2024 19:00:00,23.016834,72.625775,PM2.5,66,328,162
India,Gujarat,Ahmedabad,"SAC ISRO Bopal, Ahmedabad - IITM",04-02-2024 19:00:00,23.041137,72.456691,PM2.5,72,335,182
India,Gujarat,Ahmedabad,"SAC ISRO Bopal, Ahmedabad - IITM",04-02-2024 19:00:00,23.041137,72.456691,PM10,66,194,117
India,Gujarat,Ahmedabad,"SAC ISRO Satellite, Ahmedabad - IITM",04-02-2024 19:00:00,23.023389,72.515201,OZONE,1,58,32
India,Gujarat,Ahmedabad,"Sardar Vallabhbhai Patel Stadium, Ahmedabad - IITM",04-02-2024 19:00:00,23.043070,72.562968,PM2.5,96,321,218
India,Gujarat,Ahmedabad,"Sardar Vallabhbhai Patel Stadium, Ahmedabad - IITM",04-02-2024 19:00:00,23.043070,72.562968,CO,28,137,40
India,Gujarat,Ankleshwar,"GIDC, Ankleshwar - GPCB",04-02-2024 19:00:00,21.613267,73.010555,NH3,6,6,6
India,Gujarat,Ankleshwar,"GIDC, Ankleshwar - GPCB",04-02-2024 19:00:00,21.613267,73.010555,OZONE,15,32,28
India,Gujarat,Gandhinagar,"GIFT City, Gandhinagar - IITM",04-02-2024 19:00:00,23.163798,72.677768,NH3,2,3,2
India,Gujarat,Gandhinagar,"IIPHG Lekawada, Gandhinagar - IITM",04-02-2024 19:00:00,23.243639,72.68994,PM2.5,87,183,128
India,Gujarat,Gandhinagar,"IIPHG Lekawada, Gandhinagar - IITM",04-02-2024 19:00:00,23.243639,72.68994,NO2,12,14,13
India,Gujarat,Gandhinagar,"IIPHG Lekawada, Gandhinagar - IITM",04-02-2024 19:00:00,23.243639,72.68994,SO2,14,21,16
India,Gujarat,Gandhinagar,"IIPHG Lekawada, Gandhinagar - IITM",04-02-2024 19:00:00,23.243639,72.68994,OZONE,14,25,22
India,Gujarat,Surat,"Science Center, Surat - SMC",04-02-2024 19:00:00,21.170046,72.795405,PM2.5,14,58,35
India,Gujarat,Surat,"Science Center, Surat - SMC",04-02-2024 19:00:00,21.170046,72.795405,NO2,8,22,14
India,Gujarat,Vapi,"Phase-1 GIDC, Vapi - GPCB",04-02-2024 19:00:00,20.362421,72.918013,PM2.5,72,349,228
India,Gujarat,Vapi,"Phase-1 GIDC, Vapi - GPCB",04-02-2024 19:00:00,20.362421,72.918013,OZONE,7,13,12
India,Gujarat,Vatva,"Phase-4 GIDC, Vatva - GPCB",04-02-2024 19:00:00,22.969611,72.643500,PM2.5,78,296,178
India,Gujarat,Vatva,"Phase-4 GIDC, Vatva - GPCB",04-02-2024 19:00:00,22.969611,72.643500,PM10,83,182,122
India,Gujarat,Vatva,"Phase-4 GIDC, Vatva - GPCB",04-02-2024 19:00:00,22.969611,72.643500,NO2,50,353,163
India,Gujarat,Vatva,"Phase-4 GIDC, Vatva - GPCB",04-02-2024 19:00:00,22.969611,72.643500,CO,38,40,39
India,Haryana,Bahadurgarh,"Arya Nagar, Bahadurgarh - HSPCB",04-02-2024 19:00:00,28.6701,76.9254,PM10,101,226,140
India,Haryana,Ballabgarh,"Nathu Colony, Ballabgarh - HSPCB",04-02-2024 19:00:00,28.3419248,77.319699,PM10,93,500,207
India,Haryana,Ballabgarh,"Nathu Colony, Ballabgarh - HSPCB",04-02-2024 19:00:00,28.3419248,77.319699,NH3,1,2,2
India,Haryana,Ballabgarh,"Nathu Colony, Ballabgarh - HSPCB",04-02-2024 19:00:00,28.3419248,77.319699,OZONE,5,35,11
India,Haryana,Bhiwani,"H.B. Colony, Bhiwani - HSPCB",04-02-2024 19:00:00,28.806223,76.141105,OZONE,7,61,20
India,Haryana,Dharuhera,"Municipal Corporation Office, Dharuhera -  HSPCB",04-02-2024 19:00:00,28.206800,76.799700,SO2,12,20,14
India,Haryana,Faridabad,"New Industrial Town, Faridabad - HSPCB",04-02-2024 19:00:00,28.39072,77.30059,SO2,10,18,15
India,Haryana,Faridabad,"New Industrial Town, Faridabad - HSPCB",04-02-2024 19:00:00,28.39072,77.30059,CO,33,106,39
India,Haryana,Faridabad,"Sector 11, Faridabad - HSPCB",04-02-2024 19:00:00,28.376058,77.315741,OZONE,3,12,7
India,Haryana,Faridabad,"Sector 30, Faridabad - HSPCB",04-02-2024 19:00:00,28.4417,77.3217,NO2,30,32,31
India,Haryana,Faridabad,"Sector 30, Faridabad - HSPCB",04-02-2024 19:00:00,28.4417,77.3217,NH3,9,9,9
India,Haryana,Faridabad,"Sector- 16A, Faridabad - HSPCB",04-02-2024 19:00:00,28.4088421,77.3099081,OZONE,14,14,14
India,Haryana,Fatehabad,"Huda Sector, Fatehabad - HSPCB",04-02-2024 19:00:00,29.503664,75.467934,NH3,NA,NA,NA
India,Haryana,Gurugram,"NISE Gwal Pahari, Gurugram - IMD",04-02-2024 19:00:00,28.422681,77.148944,NO2,10,34,24
India,Haryana,Gurugram,"NISE Gwal Pahari, Gurugram - IMD",04-02-2024 19:00:00,28.422681,77.148944,CO,61,93,72
India,Haryana,Gurugram,"Sector-51, Gurugram - HSPCB",04-02-2024 19:00:00,28.4227,77.0667,PM10,40,500,276
India,Haryana,Gurugram,"Sector-51, Gurugram - HSPCB",04-02-2024 19:00:00,28.4227,77.0667,SO2,1,136,15
India,Haryana,Gurugram,"Teri Gram, Gurugram - HSPCB",04-02-2024 19:00:00,28.4275,77.1465,PM10,140,299,198
India,Haryana,Gurugram,"Teri Gram, Gurugram - HSPCB",04-02-2024 19:00:00,28.4275,77.1465,NO2,29,44,36
India,Haryana,Gurugram,"Vikas Sadan, Gurugram - HSPCB",04-02-2024 19:00:00,28.4501238,77.0263051,OZONE,8,69,51
India,Haryana,Hisar,"Urban Estate-II, Hisar - HSPCB",04-02-2024 19:00:00,29.140560,75.744941,PM2.5,39,495,187
India,Haryana,Karnal,"Sector-12, Karnal - HSPCB",04-02-2024 19:00:00,29.695300,77.002700,PM10,31,117,62
India,Haryana,Karnal,"Sector-12, Karnal - HSPCB",04-02-2024 19:00:00,29.695300,77.002700,SO2,12,13,12
India,Haryana,Karnal,"Sector-12, Karnal - HSPCB",04-02-2024 19:00:00,29.695300,77.002700,OZONE,30,33,32
India,Haryana,Kurukshetra,"Sector-7, Kurukshetra - HSPCB",04-02-2024 19:00:00,29.966942,76.875879,NO2,10,11,10
India,Haryana,Kurukshetra,"Sector-7, Kurukshetra - HSPCB",04-02-2024 19:00:00,29.966942,76.875879,NH3,3,5,5
India,Haryana,Mandikhera,"General Hospital, Mandikhera - HSPCB",04-02-2024 19:00:00,27.9002,76.9938,NO2,17,22,19
India,Haryana,Mandikhera,"General Hospital, Mandikhera - HSPCB",04-02-2024 19:00:00,27.9002,76.9938,SO2,28,39,33
India,Haryana,Manesar,"Sector-2 IMT, Manesar - HSPCB",04-02-2024 19:00:00,28.360699,76.936090,NH3,NA,NA,NA
India,Haryana,Manesar,"Sector-2 IMT, Manesar - HSPCB",04-02-2024 19:00:00,28.360699,76.936090,CO,NA,NA,NA
India,Haryana,Manesar,"Sector-2 IMT, Manesar - HSPCB",04-02-2024 19:00:00,28.360699,76.936090,OZONE,NA,NA,NA
India,Haryana,Palwal,"Shyam Nagar, Palwal - HSPCB",04-02-2024 19:00:00,28.1485564,77.3320667,NO2,5,5,5
India,Haryana,Panipat,"Sector-18, Panipat - HSPCB",04-02-2024 19:00:00,29.497973,76.993331,PM10,84,93,89
India,Haryana,Rohtak,"MD University, Rohtak - HSPCB",04-02-2024 19:00:00,28.52123,76.37138,SO2,5,8,7
India,Haryana,Sirsa,"F-Block, Sirsa - HSPCB",04-02-2024 19:00:00,29.536400,75.015800,PM2.5,50,105,72
India,Haryana,Sonipat,"Murthal, Sonipat - HSPCB",04-02-2024 19:00:00,29.027200,77.062100,PM10,71,109,86
India,Haryana,Sonipat,"Murthal, Sonipat - HSPCB",04-02-2024 19:00:00,29.027200,77.062100,NO2,37,44,40
India,Haryana,Yamuna Nagar,"Gobind Pura, Yamuna Nagar - HSPCB",04-02-2024 19:00:00,30.1480566,77.2893471,NH3,1,4,3
India,Haryana,Yamuna Nagar,"Gobind Pura, Yamuna Nagar - HSPCB",04-02-2024 19:00:00,30.1480566,77.2893471,CO,2,102,29
India,Himachal Pradesh,Baddi,"HIMUDA Complex Phase-1, Baddi - HPPCB",04-02-2024 19:00:00,30.943887,76.801991,NO2,5,27,19
India,Jharkhand,Dhanbad,"Kalakusuma, Dhanbad - DMC",04-02-2024 19:00:00,23.811548,86.481238,CO,1,2,1
India,Karnataka,Belgaum,"Ramteerth Nagar, Belgaum - KSPCB",04-02-2024 19:00:00,15.888653,74.541751,OZONE,19,20,20
India,Karnataka,Bengaluru,"BTM Layout, Bengaluru - CPCB",04-02-2024 19:00:00,12.9135218,77.5950804,SO2,13,13,13
India,Karnataka,Bengaluru,"Bapuji Nagar, Bengaluru - KSPCB",04-02-2024 19:00:00,12.951913,77.539784,NO2,9,12,10
India,Karnataka,Bengaluru,"Hebbal, Bengaluru - KSPCB",04-02-2024 19:00:00,13.029152,77.585901,NO2,5,5,5
India,Karnataka,Bengaluru,"Hebbal, Bengaluru - KSPCB",04-02-2024 19:00:00,13.029152,77.585901,SO2,11,16,14
India,Karnataka,Bengaluru,"Hebbal, Bengaluru - KSPCB",04-02-2024 19:00:00,13.029152,77.585901,OZONE,7,16,13
India,Karnataka,Bengaluru,"Jayanagar 5th Block, Bengaluru - KSPCB",04-02-2024 19:00:00,12.920984,77.584908,PM10,70,163,101
India,Karnataka,Bengaluru,"Jayanagar 5th Block, Bengaluru - KSPCB",04-02-2024 19:00:00,12.920984,77.584908,NH3,2,3,2
India,Karnataka,Bengaluru,"Jigani, Bengaluru - KSPCB",04-02-2024 19:00:00,12.7816279,77.6299145,PM2.5,19,116,60
India,Karnataka,Bengaluru,"Jigani, Bengaluru - KSPCB",04-02-2024 19:00:00,12.7816279,77.6299145,NO2,35,36,35
India,Karnataka,Bengaluru,"Jigani, Bengaluru - KSPCB",04-02-2024 19:00:00,12.7816279,77.6299145,NH3,3,3,3
India,Karnataka,Bengaluru,"Peenya, Bengaluru - CPCB",04-02-2024 19:00:00,13.0270199,77.494094,PM2.5,58,83,67
India,Karnataka,Bengaluru,"Peenya, Bengaluru - CPCB",04-02-2024 19:00:00,13.0270199,77.494094,NO2,8,12,10
India,Karnataka,Bengaluru,"Peenya, Bengaluru - CPCB",04-02-2024 19:00:00,13.0270199,77.494094,SO2,10,19,15
India,Karnataka,Bengaluru,"RVCE-Mailasandra, Bengaluru - KSPCB",04-02-2024 19:00:00,12.921418,77.502466,CO,42,76,48
India,Karnataka,Bengaluru,"Sanegurava Halli, Bengaluru - KSPCB",04-02-2024 19:00:00,12.990328,77.5431385,NO2,NA,NA,NA
India,Karnataka,Bengaluru,"Shivapura_Peenya, Bengaluru - KSPCB",04-02-2024 19:00:00,13.0246342,77.5080115,PM2.5,28,102,67
India,Karnataka,Bidar,"Naubad, Bidar - KSPCB",04-02-2024 19:00:00,17.930306,77.482194,SO2,13,23,17
India,Karnataka,Chamarajanagar,"Urban, Chamarajanagar - KSPCB",04-02-2024 19:00:00,11.55358,76.55521,NO2,23,43,33
India,Karnataka,Chamarajanagar,"Urban, Chamarajanagar - KSPCB",04-02-2024 19:00:00,11.55358,76.55521,NH3,2,3,2
India,Karnataka,Chamarajanagar,"Urban, Chamarajanagar - KSPCB",04-02-2024 19:00:00,11.55358,76.55521,SO2,4,8,5
India,Karnataka,Chikkaballapur,"Chikkaballapur Rural, Chikkaballapur - KSPCB",04-02-2024 19:00:00,13.428828,77.731418,OZONE,24,26,24
India,Karnataka,Chikkamagaluru,"Kalyana Nagara, Chikkamagaluru - KSPCB",04-02-2024 19:00:00,13.328028,75.797056,NO2,NA,NA,NA
India,Karnataka,Chikkamagaluru,"Kalyana Nagara, Chikkamagaluru - KSPCB",04-02-2024 19:00:00,13.328028,75.797056,OZONE,31,57,44
India,Karnataka,Davanagere,"Devaraj Urs Badavane, Davanagere - KSPCB",04-02-2024 19:00:00,14.475800,75.905200,SO2,1,5,4
India,Karnataka,Dharwad,"Kalabhavan, Dharwad - KSPCB",04-02-2024 19:00:00,15.459706,75.008381,PM10,54,261,110
India,Karnataka,Dharwad,"Kalabhavan, Dharwad - KSPCB",04-02-2024 19:00:00,15.459706,75.008381,CO,42,163,63
India,Karnataka,Gadag,"Panchal Nagar, Gadag - KSPCB",04-02-2024 19:00:00,15.411456,75.638133,PM2.5,42,114,59
India,Karnataka,Haveri,"Ashwini Nagar, Haveri - KSPCB",04-02-2024 19:00:00,14.791800,75.389600,NH3,3,4,3
India,Karnataka,Haveri,"Ashwini Nagar, Haveri - KSPCB",04-02-2024 19:00:00,14.791800,75.389600,SO2,13,14,14
India,Karnataka,Haveri,"Ashwini Nagar, Haveri - KSPCB",04-02-2024 19:00:00,14.791800,75.389600,CO,33,45,34
India,Karnataka,Hubballi,"Lingaraj Nagar, Hubballi - KSPCB",04-02-2024 19:00:00,15.3714823,75.1160168,SO2,1,14,5
India,Karnataka,Kalaburagi,"Lal Bahadur Shastri Nagar, Kalaburagi - KSPCB",04-02-2024 19:00:00,17.321993,76.822628,PM10,NA,NA,NA
India,Karnataka,Kalaburagi,"Mahatma Basaveswar Colony, Kalaburgi - KSPCB",04-02-2024 19:00:00,17.336318,76.847397,PM10,20,108,43
India,Karnataka,Karwar,"KHB Colony, Karwar - KSPCB",04-02-2024 19:00:00,14.816666,74.141003,NH3,1,4,2
India,Karnataka,Kolar,"Tamaka Ind. Area, Kolar - KSPCB",04-02-2024 19:00:00,13.1276288,78.1570122,SO2,NA,NA,NA
India,Karnataka,Madikeri,"Stuart Hill, Madikeri - KSPCB",04-02-2024 19:00:00,12.415911,75.735050,CO,5,38,12
India,Karnataka,Mangalore,"Kadri, Mangalore - KSPCB",04-02-2024 19:00:00,12.889250,74.853000,SO2,18,21,20
India,Karnataka,Mysuru,"Hebbal 1st Stage, Mysuru - KSPCB",04-02-2024 19:00:00,12.21041,76.37376,PM10,53,74,68
India,Karnataka,Mysuru,"Hebbal 1st Stage, Mysuru - KSPCB",04-02-2024 19:00:00,12.21041,76.37376,NO2,6,44,22
India,Karnataka,Mysuru,"Hebbal 1st Stage, Mysuru - KSPCB",04-02-2024 19:00:00,12.21041,76.37376,SO2,1,5,2
India,Karnataka,Mysuru,"Hebbal 1st Stage, Mysuru - KSPCB",04-02-2024 19:00:00,12.21041,76.37376,CO,10,62,17
India,Karnataka,Raichur,"Haji Colony, Raichur - KSPCB",04-02-2024 19:00:00,16.208139,77.348417,NO2,NA,NA,NA
India,Karnataka,Raichur,"Haji Colony, Raichur - KSPCB",04-02-2024 19:00:00,16.208139,77.348417,CO,92,102,99
India,Karnataka,Ramanagara,"Vijay Nagar, Ramanagara - KSPCB",04-02-2024 19:00:00,12.733409,77.298051,PM10,38,60,48
India,Karnataka,Ramanagara,"Vijay Nagar, Ramanagara - KSPCB",04-02-2024 19:00:00,12.733409,77.298051,SO2,18,32,25
India,Karnataka,Ramanagara,"Vijay Nagar, Ramanagara - KSPCB",04-02-2024 19:00:00,12.733409,77.298051,CO,2,18,12
India,Karnataka,Shivamogga,"Vinoba Nagara, Shivamogga - KSPCB",04-02-2024 19:00:00,13.940000,75.555917,PM2.5,39,64,58
India,Karnataka,Shivamogga,"Vinoba Nagara, Shivamogga - KSPCB",04-02-2024 19:00:00,13.940000,75.555917,OZONE,7,82,53
India,Karnataka,Tumakuru,"Thimmalapura, Tumakuru - KSPCB",04-02-2024 19:00:00,13.377516,77.099072,PM10,89,338,137
India,Karnataka,Tumakuru,"Thimmalapura, Tumakuru - KSPCB",04-02-2024 19:00:00,13.377516,77.099072,OZONE,11,56,50
India,Karnataka,Udupi,"Brahmagiri, Udupi - KSPCB",04-02-2024 19:00:00,13.34194444,74.74694444,SO2,21,23,22
India,Karnataka,Udupi,"Brahmagiri, Udupi - KSPCB",04-02-2024 19:00:00,13.34194444,74.74694444,OZONE,23,23,23
India,Karnataka,Vijayapura,"Ibrahimpur, Vijayapura - KSPCB",04-02-2024 19:00:00,16.802639,75.722694,NH3,2,2,2
India,Karnataka,Vijayapura,"Ibrahimpur, Vijayapura - KSPCB",04-02-2024 19:00:00,16.802639,75.722694,CO,NA,NA,NA
India,Karnataka,Yadgir,"Collector Office, Yadgir - KSPCB",04-02-2024 19:00:00,16.7602,77.1428,PM2.5,NA,NA,NA
India,Karnataka,Yadgir,"Collector Office, Yadgir - KSPCB",04-02-2024 19:00:00,16.7602,77.1428,NH3,NA,NA,NA
India,Kerala,Eloor,"Udyogamandal, Eloor - Kerala PCB",04-02-2024 19:00:00,10.073232,76.302765,NO2,4,4,4
India,Kerala,Eloor,"Udyogamandal, Eloor - Kerala PCB",04-02-2024 19:00:00,10.073232,76.302765,SO2,1,4,2
India,Kerala,Eloor,"Udyogamandal, Eloor - Kerala PCB",04-02-2024 19:00:00,10.073232,76.302765,OZONE,10,18,15
India,Kerala,Kannur,"Thavakkara, Kannur - Kerala PCB",04-02-2024 19:00:00,11.875000,75.373200,NO2,6,7,6
India,Kerala,Kochi,"Vyttila, Kochi - Kerala PCB",04-02-2024 19:00:00,9.969447,76.321186,SO2,14,65,34
India,Kerala,Kollam,"Polayathode, Kollam - Kerala PCB",04-02-2024 19:00:00,8.8787,76.6073,PM2.5,50,198,101
India,Kerala,Thiruvananthapuram,"Kariavattom, Thiruvananthapuram - Kerala PCB",04-02-2024 19:00:00,8.563700,76.886500,CO,12,48,18
India,Kerala,Thiruvananthapuram,"Plammoodu, Thiruvananthapuram - Kerala PCB",04-02-2024 19:00:00,8.5149093,76.9435879,PM2.5,23,58,38
India,Kerala,Thiruvananthapuram,"Plammoodu, Thiruvananthapuram - Kerala PCB",04-02-2024 19:00:00,8.5149093,76.9435879,PM10,27,61,42
India,Kerala,Thiruvananthapuram,"Plammoodu, Thiruvananthapuram - Kerala PCB",04-02-2024 19:00:00,8.5149093,76.9435879,CO,8,38,22
India,Kerala,Thrissur,"Corporation Ground, Thrissur - Kerala PCB",04-02-2024 19:00:00,10.532400,76.215900,OZONE,36,41,38
India,Madhya Pradesh,Bhopal,"Idgah Hills, Bhopal - MPPCB",04-02-2024 19:00:00,23.264759,77.381568,NO2,15,107,46
India,Madhya Pradesh,Bhopal,"T T Nagar, Bhopal - MPPCB",04-02-2024 19:00:00,23.233584,77.400574,PM2.5,41,271,114
India,Madhya Pradesh,Bhopal,"T T Nagar, Bhopal - MPPCB",04-02-2024 19:00:00,23.233584,77.400574,SO2,18,47,35
India,Madhya Pradesh,Bhopal,"T T Nagar, Bhopal - MPPCB",04-02-2024 19:00:00,23.233584,77.400574,CO,28,109,35
India,Madhya Pradesh,Gwalior,"Deen Dayal Nagar, Gwalior - MPPCB",04-02-2024 19:00:00,26.259242,78.216432,CO,26,132,65
India,Madhya Pradesh,Gwalior,"Maharaj Bada, Gwalior - MPPCB",04-02-2024 19:00:00,26.200388,78.147714,CO,10,166,40
India,Madhya Pradesh,Gwalior,"Phool Bagh, Gwalior - Mondelez Ind. Food",04-02-2024 19:00:00,26.210536,78.171,SO2,9,18,13
India,Madhya Pradesh,Indore,"Chhoti Gwaltoli, Indore - MPPCB",04-02-2024 19:00:00,22.4310,75.5213,PM2.5,40,323,149
India,Madhya Pradesh,Indore,"Chhoti Gwaltoli, Indore - MPPCB",04-02-2024 19:00:00,22.4310,75.5213,PM10,60,338,140
India,Madhya Pradesh,Indore,"Maguda Nagar, Indore - IMC",04-02-2024 19:00:00,22.7524,75.8872,NH3,1,1,1
India,Madhya Pradesh,Indore,"Regional Park, Indore - IMC",04-02-2024 19:00:00,22.6780,75.8559,NH3,1,2,1
India,Madhya Pradesh,Indore,"Regional Park, Indore - IMC",04-02-2024 19:00:00,22.6780,75.8559,SO2,39,42,41
India,Madhya Pradesh,Indore,"Residency Area, Indore - IMC",04-02-2024 19:00:00,22.7084,75.8815,PM10,32,153,88
India,Madhya Pradesh,Indore,"Residency Area, Indore - IMC",04-02-2024 19:00:00,22.7084,75.8815,CO,6,16,9
India,Madhya Pradesh,Indore,"Residency Area, Indore - IMC",04-02-2024 19:00:00,22.7084,75.8815,OZONE,10,13,12
India,Madhya Pradesh,Jabalpur,"Govindh Bhavan Colony, Jabalpur - JMC",04-02-2024 19:00:00,23.163174,79.973061,PM2.5,23,85,49
India,Madhya Pradesh,Jabalpur,"Govindh Bhavan Colony, Jabalpur - JMC",04-02-2024 19:00:00,23.163174,79.973061,NO2,9,31,15
India,Madhya Pradesh,Jabalpur,"Gupteshwar, Jabalpur - JMC",04-02-2024 19:00:00,23.142888,79.916147,PM10,38,137,67
India,Madhya Pradesh,Jabalpur,"Gupteshwar, Jabalpur - JMC",04-02-2024 19:00:00,23.142888,79.916147,NO2,7,114,32
India,Madhya Pradesh,Jabalpur,"Gupteshwar, Jabalpur - JMC",04-02-2024 19:00:00,23.142888,79.916147,CO,20,128,37
India,Madhya Pradesh,Jabalpur,"Marhatal, Jabalpur - MPPCB",04-02-2024 19:00:00,23.168606,79.932247,PM10,64,298,115
India,Madhya Pradesh,Jabalpur,"Marhatal, Jabalpur - MPPCB",04-02-2024 19:00:00,23.168606,79.932247,CO,22,146,47
India,Madhya Pradesh,Ratlam,"Shasthri Nagar, Ratlam - IPCA Lab",04-02-2024 19:00:00,23.331731,75.045981,SO2,13,14,14
India,Madhya Pradesh,Sagar,"Civil Lines, Sagar - MPPCB",04-02-2024 19:00:00,23.838586,78.759431,PM10,59,153,89
India,Madhya Pradesh,Singrauli,"Suryakiran Bhawan NCL, Singrauli - MPPCB",04-02-2024 19:00:00,24.108970,82.645580,CO,38,90,40
India,Madhya Pradesh,Ujjain,"Mahakaleshwar Temple, Ujjain - MPPCB",04-02-2024 19:00:00,23.182719 ,75.768218 ,PM2.5,27,216,109
India,Maharashtra,Ahmednagar,"Tarakpur, Ahmednagar - MPCB",04-02-2024 19:00:00,19.10122,74.73339,SO2,NA,NA,NA
India,Maharashtra,Ahmednagar,"Tarakpur, Ahmednagar - MPCB",04-02-2024 19:00:00,19.10122,74.73339,CO,20,86,32
India,Maharashtra,Ahmednagar,"Tarakpur, Ahmednagar - MPCB",04-02-2024 19:00:00,19.10122,74.73339,OZONE,10,132,109
India,Maharashtra,Amravati,"Shivneri Colony, Amravati - MPCB",04-02-2024 19:00:00,20.9402359,77.7895248,PM2.5,62,99,80
India,Maharashtra,Amravati,"Shivneri Colony, Amravati - MPCB",04-02-2024 19:00:00,20.9402359,77.7895248,OZONE,4,119,101
India,Maharashtra,Amravati,"Shri Shivaji Science College, Amaravati - MPCB",04-02-2024 19:00:00,20.939198,77.765701,CO,46,122,48
India,Maharashtra,Aurangabad,"MIDC Chilkalthana, Aurangabad - MPCB",04-02-2024 19:00:00,19.875620,75.387310,NO2,7,128,47
India,Maharashtra,Aurangabad,"More Chowk Waluj, Aurangabad - MPCB",04-02-2024 19:00:00,19.8389439,75.244448,NH3,1,1,1
India,Maharashtra,Aurangabad,"Rachnakar Colony, Aurangabad - MPCB",04-02-2024 19:00:00,19.863756,75.321188,NO2,14,128,55
India,Maharashtra,Aurangabad,"Rachnakar Colony, Aurangabad - MPCB",04-02-2024 19:00:00,19.863756,75.321188,NH3,1,1,1
India,Maharashtra,Badlapur,"Katrap, Badlapur - MPCB",04-02-2024 19:00:00,19.16485,73.23409,OZONE,1,123,54
India,Maharashtra,Bhiwandi,"Gokul Nagar, Bhiwandi - MPCB",04-02-2024 19:00:00,19.309073,73.057223,CO,NA,NA,NA
India,Maharashtra,Chandrapur,"Chauhan Colony, Chandrapur - MPCB",04-02-2024 19:00:00,19.962900,79.298714,PM10,76,181,98
India,Maharashtra,Chandrapur,"Chauhan Colony, Chandrapur - MPCB",04-02-2024 19:00:00,19.962900,79.298714,NH3,2,2,2
India,Maharashtra,Dhule,"Deopur, Dhule - MPCB",04-02-2024 19:00:00,20.918946,74.776388,PM2.5,108,225,175
India,Maharashtra,Dhule,"Deopur, Dhule - MPCB",04-02-2024 19:00:00,20.918946,74.776388,NO2,5,41,15
India,Maharashtra,Jalgaon,"Prabhat Colony, Jalgaon - MPCB",04-02-2024 19:00:00,21.001264,75.565602,PM2.5,58,126,83
India,Maharashtra,Kalyan,"Khadakpada, Kalyan - MPCB",04-02-2024 19:00:00,19.25292,73.142019,NH3,1,3,1
India,Maharashtra,Kolhapur,"Shivaji University, Kolhapur - MPCB",04-02-2024 19:00:00,16.6870449,74.2505872,PM10,95,237,138
India,Maharashtra,Kolhapur,"Shivaji University, Kolhapur - MPCB",04-02-2024 19:00:00,16.6870449,74.2505872,NO2,13,98,34
India,Maharashtra,Kolhapur,"Shivaji University, Kolhapur - MPCB",04-02-2024 19:00:00,16.6870449,74.2505872,SO2,2,19,7
India,Maharashtra,Kolhapur,"Sinchan Bhavan, Kolhapur - MPCB",04-02-2024 19:00:00,16.7143745,74.2426398,NH3,7,8,8
India,Maharashtra,Kolhapur,"Sinchan Bhavan, Kolhapur - MPCB",04-02-2024 19:00:00,16.7143745,74.2426398,CO,3,100,41
India,Maharashtra,Kolhapur,"Sinchan Bhavan, Kolhapur - MPCB",04-02-2024 19:00:00,16.7143745,74.2426398,OZONE,9,148,104
India,Maharashtra,Mumbai,"Bandra Kurla Complex, Mumbai - MPCB",04-02-2024 19:00:00,19.065931,72.862131,OZONE,1,103,60
India,Maharashtra,Mumbai,"Byculla, Mumbai - BMC",04-02-2024 19:00:00,18.9767,72.8380,PM10,76,138,118
India,Maharashtra,Mumbai,"Byculla, Mumbai - BMC",04-02-2024 19:00:00,18.9767,72.8380,NH3,2,5,3
India,Maharashtra,Mumbai,"Byculla, Mumbai - BMC",04-02-2024 19:00:00,18.9767,72.8380,OZONE,1,304,158
India,Maharashtra,Mumbai,"Chembur, Mumbai - MPCB",04-02-2024 19:00:00,19.0364585,72.8954371,PM2.5,67,166,113
India,Maharashtra,Mumbai,"Chembur, Mumbai - MPCB",04-02-2024 19:00:00,19.0364585,72.8954371,PM10,113,153,133
India,Maharashtra,Mumbai,"Chembur, Mumbai - MPCB",04-02-2024 19:00:00,19.0364585,72.8954371,OZONE,2,205,112
India,Maharashtra,Mumbai,"Chhatrapati Shivaji Intl. Airport (T2), Mumbai - MPCB",04-02-2024 19:00:00,19.10078,72.87462,PM2.5,31,67,46
India,Maharashtra,Mumbai,"Chhatrapati Shivaji Intl. Airport (T2), Mumbai - MPCB",04-02-2024 19:00:00,19.10078,72.87462,PM10,82,162,111
India,Maharashtra,Mumbai,"Chhatrapati Shivaji Intl. Airport (T2), Mumbai - MPCB",04-02-2024 19:00:00,19.10078,72.87462,NH3,4,7,6
India,Maharashtra,Mumbai,"Colaba, Mumbai - MPCB",04-02-2024 19:00:00,18.910000,72.820000,PM2.5,49,134,79
India,Maharashtra,Mumbai,"Ghatkopar, Mumbai - BMC",04-02-2024 19:00:00,19.083694,72.920967,NO2,9,46,32
India,Maharashtra,Mumbai,"Ghatkopar, Mumbai - BMC",04-02-2024 19:00:00,19.083694,72.920967,SO2,1,3,2
India,Maharashtra,Mumbai,"Kandivali West, Mumbai - BMC",04-02-2024 19:00:00,19.215859,72.831718,NO2,23,96,52
India,Maharashtra,Mumbai,"Kandivali West, Mumbai - BMC",04-02-2024 19:00:00,19.215859,72.831718,OZONE,1,78,54
India,Maharashtra,Mumbai,"Kherwadi_Bandra East, Mumbai - MPCB",04-02-2024 19:00:00,19.0632143,72.8456324,PM10,121,244,186
India,Maharashtra,Mumbai,"Kherwadi_Bandra East, Mumbai - MPCB",04-02-2024 19:00:00,19.0632143,72.8456324,NH3,3,12,7
India,Maharashtra,Mumbai,"Kherwadi_Bandra East, Mumbai - MPCB",04-02-2024 19:00:00,19.0632143,72.8456324,SO2,13,58,28
India,Maharashtra,Mumbai,"Kherwadi_Bandra East, Mumbai - MPCB",04-02-2024 19:00:00,19.0632143,72.8456324,OZONE,1,80,56
India,Maharashtra,Mumbai,"Khindipada-Bhandup West, Mumbai - IITM",04-02-2024 19:00:00,19.1653323,72.922099,PM10,106,149,127
India,Maharashtra,Mumbai,"Khindipada-Bhandup West, Mumbai - IITM",04-02-2024 19:00:00,19.1653323,72.922099,NO2,NA,NA,NA
India,Maharashtra,Mumbai,"Kurla, Mumbai - MPCB",04-02-2024 19:00:00,19.0863,72.8888,PM10,73,129,102
India,Maharashtra,Mumbai,"Kurla, Mumbai - MPCB",04-02-2024 19:00:00,19.0863,72.8888,NH3,3,4,4
India,Maharashtra,Mumbai,"Malad West, Mumbai - IITM",04-02-2024 19:00:00,19.19709,72.82204,SO2,NA,NA,NA
India,Maharashtra,Mumbai,"Mazgaon, Mumbai - IITM",04-02-2024 19:00:00,18.96702,72.84214,NO2,110,264,184
India,Maharashtra,Mumbai,"Mazgaon, Mumbai - IITM",04-02-2024 19:00:00,18.96702,72.84214,SO2,6,48,21
India,Maharashtra,Mumbai,"Powai, Mumbai - MPCB",04-02-2024 19:00:00,19.137500,72.915056,NO2,20,47,30
India,Maharashtra,Mumbai,"Shivaji Nagar, Mumbai - BMC",04-02-2024 19:00:00,19.060498,72.923356,NO2,64,154,105
India,Maharashtra,Mumbai,"Shivaji Nagar, Mumbai - BMC",04-02-2024 19:00:00,19.060498,72.923356,NH3,2,7,5
India,Maharashtra,Mumbai,"Shivaji Nagar, Mumbai - BMC",04-02-2024 19:00:00,19.060498,72.923356,OZONE,1,161,108
India,Maharashtra,Mumbai,"Siddharth Nagar-Worli, Mumbai - IITM",04-02-2024 19:00:00,19.000083,72.813993,NO2,31,200,97
India,Maharashtra,Mumbai,"Siddharth Nagar-Worli, Mumbai - IITM",04-02-2024 19:00:00,19.000083,72.813993,OZONE,2,270,137
India,Maharashtra,Mumbai,"Sion, Mumbai - MPCB",04-02-2024 19:00:00,19.047000,72.874600,PM10,78,195,121
India,Maharashtra,Mumbai,"Sion, Mumbai - MPCB",04-02-2024 19:00:00,19.047000,72.874600,SO2,34,40,37
India,Maharashtra,Mumbai,"Vasai West, Mumbai - MPCB",04-02-2024 19:00:00,19.383200,72.820400,NH3,4,4,4
India,Maharashtra,Mumbai,"Vile Parle West, Mumbai - MPCB",04-02-2024 19:00:00,19.10861,72.83622,NO2,1,35,15
India,Maharashtra,Mumbai,"Worli, Mumbai - MPCB",04-02-2024 19:00:00,18.9936162,72.8128113,PM2.5,41,84,65
India,Maharashtra,Mumbai,"Worli, Mumbai - MPCB",04-02-2024 19:00:00,18.9936162,72.8128113,PM10,86,181,135
India,Maharashtra,Mumbai,"Worli, Mumbai - MPCB",04-02-2024 19:00:00,18.9936162,72.8128113,CO,30,38,37
India,Maharashtra,Nagpur,"Ambazari, Nagpur - MPCB",04-02-2024 19:00:00,21.121801,79.04952,NH3,1,14,4
India,Maharashtra,Nagpur,"Mahal, Nagpur - MPCB",04-02-2024 19:00:00,21.14472,79.107595,SO2,28,72,44
India,Maharashtra,Nagpur,"Mahal, Nagpur - MPCB",04-02-2024 19:00:00,21.14472,79.107595,CO,44,135,70
India,Maharashtra,Nagpur,"Opp GPO Civil Lines, Nagpur - MPCB",04-02-2024 19:00:00,21.152875,79.0517531,NO2,17,128,58
India,Maharashtra,Nagpur,"Opp GPO Civil Lines, Nagpur - MPCB",04-02-2024 19:00:00,21.152875,79.0517531,NH3,2,17,6
India,Maharashtra,Nagpur,"Opp GPO Civil Lines, Nagpur - MPCB",04-02-2024 19:00:00,21.152875,79.0517531,SO2,6,100,26
India,Maharashtra,Nanded,"Sneh Nagar, Nanded - MPCB",04-02-2024 19:00:00,19.173852,77.296291,PM2.5,76,284,132
India,Maharashtra,Nanded,"Sneh Nagar, Nanded - MPCB",04-02-2024 19:00:00,19.173852,77.296291,PM10,93,177,120
India,Maharashtra,Nashik,"Hirawadi, Nashik - MPCB",04-02-2024 19:00:00,20.021503,73.813844,PM2.5,67,119,85
India,Maharashtra,Nashik,"Hirawadi, Nashik - MPCB",04-02-2024 19:00:00,20.021503,73.813844,SO2,1,10,5
India,Maharashtra,Nashik,"Hirawadi, Nashik - MPCB",04-02-2024 19:00:00,20.021503,73.813844,CO,11,88,22
India,Maharashtra,Nashik,"MIDC Ambad, Nashik - MPCB",04-02-2024 19:00:00,19.950220,73.731480,PM10,85,149,130
India,Maharashtra,Nashik,"MIDC Ambad, Nashik - MPCB",04-02-2024 19:00:00,19.950220,73.731480,SO2,9,43,17
India,Maharashtra,Nashik,"MIDC Ambad, Nashik - MPCB",04-02-2024 19:00:00,19.950220,73.731480,OZONE,21,76,67
India,Maharashtra,Nashik,"Pandav Nagari, Nashik - MPCB",04-02-2024 19:00:00,19.9591346,73.7788008,PM2.5,61,154,95
India,Maharashtra,Navi Mumbai,"Mahape, Navi Mumbai - MPCB",04-02-2024 19:00:00,19.1135051,73.008978,CO,35,56,40
India,Maharashtra,Navi Mumbai,"Nerul, Navi Mumbai - MPCB",04-02-2024 19:00:00,19.008751,73.016620,CO,48,90,71
India,Maharashtra,Navi Mumbai,"Sanpada, Navi Mumbai - MPCB",04-02-2024 19:00:00,19.0575752,73.0151367,PM10,104,160,129
India,Maharashtra,Navi Mumbai,"Sanpada, Navi Mumbai - MPCB",04-02-2024 19:00:00,19.0575752,73.0151367,NO2,8,205,85
India,Maharashtra,Navi Mumbai,"Sector-19A Nerul, Navi Mumbai - IITM",04-02-2024 19:00:00,19.044,73.0325,SO2,14,60,30
India,Maharashtra,Navi Mumbai,"Sector-19A Nerul, Navi Mumbai - IITM",04-02-2024 19:00:00,19.044,73.0325,CO,68,113,82
India,Maharashtra,Navi Mumbai,"Sector-2E Kalamboli, Navi Mumbai - MPCB",04-02-2024 19:00:00,19.02579,73.10297,PM10,103,500,188
India,Maharashtra,Navi Mumbai,"Sector-2E Kalamboli, Navi Mumbai - MPCB",04-02-2024 19:00:00,19.02579,73.10297,NO2,89,370,239
India,Maharashtra,Navi Mumbai,"Sector-2E Kalamboli, Navi Mumbai - MPCB",04-02-2024 19:00:00,19.02579,73.10297,SO2,13,87,37
India,Maharashtra,Navi Mumbai,"Sector-2E Kalamboli, Navi Mumbai - MPCB",04-02-2024 19:00:00,19.02579,73.10297,CO,18,86,31
India,Maharashtra,Parbhani,"Masoom Colony, Parbhani - MPCB",04-02-2024 19:00:00,19.265594,76.761463,SO2,12,84,43
India,Maharashtra,Pimpri-Chinchwad,"Gavalinagar, Pimpri Chinchwad - MPCB",04-02-2024 19:00:00,18.63673,73.82487,OZONE,1,222,154
India,Maharashtra,Pimpri-Chinchwad,"Park Street Wakad, Pimpri Chinchwad - MPCB",04-02-2024 19:00:00,18.59051,73.77946,OZONE,1,157,118
India,Maharashtra,Pimpri-Chinchwad,"Thergaon, Pimpri Chinchwad - MPCB",04-02-2024 19:00:00,18.616318,73.765797,OZONE,1,253,159
India,Maharashtra,Pune,"Alandi, Pune - IITM",04-02-2024 19:00:00,18.675076,73.892743,PM10,64,158,122
India,Maharashtra,Pune,"Bhosari, Pune - IITM",04-02-2024 19:00:00,18.640051,73.848956,CO,38,64,42
India,Maharashtra,Pune,"Karve Road, Pune - MPCB",04-02-2024 19:00:00,18.5011743,73.8165527,SO2,21,22,21
India,Maharashtra,Pune,"Katraj Dairy, Pune - MPCB",04-02-2024 19:00:00,18.454450,73.854155,CO,44,105,58
India,Maharashtra,Pune,"Mhada Colony, Pune - IITM",04-02-2024 19:00:00,18.573040,73.927715,PM2.5,64,295,161
India,Maharashtra,Pune,"Mhada Colony, Pune - IITM",04-02-2024 19:00:00,18.573040,73.927715,CO,31,114,73
India,Maharashtra,Pune,"Revenue Colony-Shivajinagar, Pune - IITM",04-02-2024 19:00:00,18.530085,73.849598,PM10,92,197,136
India,Maharashtra,Sangli,"Vijay Nagar, Sangli - MPCB",04-02-2024 19:00:00, 16.5038,74.3623,NO2,12,98,43
India,Maharashtra,Solapur,"Dnyaneshwar Nagar, Solapur - MPCB",04-02-2024 19:00:00,17.6336264,75.9132495,PM2.5,112,320,178
India,Maharashtra,Solapur,"Dnyaneshwar Nagar, Solapur - MPCB",04-02-2024 19:00:00,17.6336264,75.9132495,OZONE,5,85,69
India,Maharashtra,Solapur,"Ratandeep Housing Society, Solapur - MPCB",04-02-2024 19:00:00,17.65439,75.90649,NO2,14,141,41
India,Maharashtra,Solapur,"Solapur, Solapur - MPCB",04-02-2024 19:00:00,17.6599188,75.9063906,PM2.5,44,136,74
India,Maharashtra,Thane,"Kasarvadavali, Thane - MPCB",04-02-2024 19:00:00,19.26777,72.97182,PM10,138,284,166
India,Maharashtra,Thane,"Kasarvadavali, Thane - MPCB",04-02-2024 19:00:00,19.26777,72.97182,NO2,22,97,51
India,Maharashtra,Thane,"Upvan Fort, Thane - MPCB",04-02-2024 19:00:00,19.222279,72.957979,PM2.5,90,292,183
India,Maharashtra,Thane,"Upvan Fort, Thane - MPCB",04-02-2024 19:00:00,19.222279,72.957979,SO2,34,74,51
India,Maharashtra,Thane,"Upvan Fort, Thane - MPCB",04-02-2024 19:00:00,19.222279,72.957979,CO,5,43,19
India,Maharashtra,Ulhasnagar,"Sidhi Vinayak Nagar, Ulhasnagar - MPCB",04-02-2024 19:00:00,19.235581,73.159121,NO2,10,97,31
India,Maharashtra,Ulhasnagar,"Sidhi Vinayak Nagar, Ulhasnagar - MPCB",04-02-2024 19:00:00,19.235581,73.159121,OZONE,1,244,161
India,Maharashtra,Virar,"Bolinj, Virar - MPCB",04-02-2024 19:00:00,19.4458210,72.7988231,OZONE,2,109,89
India,Manipur,Imphal,"DM College of Science, Imphal - Manipur PCB",04-02-2024 19:00:00,24.8207389,93.9423085,PM2.5,23,72,38
India,Manipur,Imphal,"DM College of Science, Imphal - Manipur PCB",04-02-2024 19:00:00,24.8207389,93.9423085,PM10,20,81,40
India,Manipur,Imphal,"DM College of Science, Imphal - Manipur PCB",04-02-2024 19:00:00,24.8207389,93.9423085,NO2,7,8,8
India,Meghalaya,Shillong,"Lumpyngngad, Shillong - Meghalaya PCB",04-02-2024 19:00:00,25.5586,91.8985,PM2.5,30,182,88
India,Meghalaya,Shillong,"Lumpyngngad, Shillong - Meghalaya PCB",04-02-2024 19:00:00,25.5586,91.8985,PM10,33,110,77
India,Meghalaya,Shillong,"Lumpyngngad, Shillong - Meghalaya PCB",04-02-2024 19:00:00,25.5586,91.8985,NO2,6,6,6
India,Mizoram,Aizawl,"Sikulpuikawn, Aizawl - Mizoram PCB",04-02-2024 19:00:00,23.7176342,92.7192841,CO,12,15,13
India,Nagaland,Kohima,"PWD Juction, Kohima - NPCB",04-02-2024 19:00:00,25.6635413,94.0989878,PM2.5,84,311,142
India,Nagaland,Kohima,"PWD Juction, Kohima - NPCB",04-02-2024 19:00:00,25.6635413,94.0989878,SO2,90,104,98
India,Nagaland,Kohima,"PWD Juction, Kohima - NPCB",04-02-2024 19:00:00,25.6635413,94.0989878,CO,12,67,26
India,Odisha,Balasore,"Kalidaspur, Balasore - OSPCB",04-02-2024 19:00:00,21.51161,86.89088,NO2,7,35,17
India,Odisha,Barbil,"Forest Office, Barbil - OSPCB",04-02-2024 19:00:00,22.1166054,85.3945546,CO,36,101,42
India,Odisha,Barbil,"Forest Office, Barbil - OSPCB",04-02-2024 19:00:00,22.1166054,85.3945546,OZONE,4,108,86
India,Odisha,Baripada,"Meher Colony, Baripada - OSPCB",04-02-2024 19:00:00,21.941841,86.728318,CO,13,50,22
India,Odisha,Bhubaneswar,"Patia, Bhubaneswar - OSPCB",04-02-2024 19:00:00,20.34652,85.81630,PM2.5,85,227,130
India,Odisha,Bhubaneswar,"Patia, Bhubaneswar - OSPCB",04-02-2024 19:00:00,20.34652,85.81630,NH3,2,5,4
India,Odisha,Byasanagar,"Ferro Chrome Colony, Byasanagar - OSPCB",04-02-2024 19:00:00,20.94185,86.11510,PM10,37,163,101
India,Odisha,Cuttack,"CDA Area, Cuttack - OSPCB",04-02-2024 19:00:00,20.48891     ,85.84768     ,PM10,85,245,122
India,Odisha,Keonjhar,"Jagamohanpur, Keonjhar - OSPCB",04-02-2024 19:00:00,21.643900,85.599355,PM2.5,56,145,89
India,Odisha,Nayagarh,"Dabuna, Nayagarh - OSPCB",04-02-2024 19:00:00,21.847279,85.416905,PM2.5,64,171,113
India,Odisha,Rourkela,"Fertilizer Township, Rourkela - OSPCB",04-02-2024 19:00:00,22.18972222,84.86277778,PM2.5,NA,NA,NA
India,Odisha,Rourkela,"Raghunathpali, Rourkela - OSPCB",04-02-2024 19:00:00,22.220833,84.809444,PM2.5,70,247,162
India,Odisha,Suakati,"OMC Colony, Suakati - OSPCB",04-02-2024 19:00:00,21.606865,85.510538,PM10,99,130,110
India,Odisha,Suakati,"OMC Colony, Suakati - OSPCB",04-02-2024 19:00:00,21.606865,85.510538,NO2,48,82,59
India,Odisha,Suakati,"OMC Colony, Suakati - OSPCB",04-02-2024 19:00:00,21.606865,85.510538,SO2,8,23,12
India,Odisha,Talcher,"Talcher Coalfields,Talcher - OSPCB",04-02-2024 19:00:00,20.9360711,85.1707021,CO,34,114,73
India,Puducherry,Puducherry,"Jawahar Nagar, Puducherry - PPCC",04-02-2024 19:00:00,11.9309,79.8027,PM2.5,9,45,21
India,Puducherry,Puducherry,"Jawahar Nagar, Puducherry - PPCC",04-02-2024 19:00:00,11.9309,79.8027,PM10,16,55,30
India,Puducherry,Puducherry,"Jawahar Nagar, Puducherry - PPCC",04-02-2024 19:00:00,11.9309,79.8027,SO2,4,7,6
India,Punjab,Bathinda,"Hardev Nagar, Bathinda - PPCB",04-02-2024 19:00:00,30.233011,74.907758,SO2,9,67,30
India,Punjab,Jalandhar,"Civil Line, Jalandhar - PPCB",04-02-2024 19:00:00,31.321907,75.578914,PM10,42,103,70
India,Punjab,Jalandhar,"Civil Line, Jalandhar - PPCB",04-02-2024 19:00:00,31.321907,75.578914,CO,20,107,27
India,Punjab,Mandi Gobindgarh,"RIMT University, Mandi Gobindgarh - PPCB",04-02-2024 19:00:00,30.649961,76.331442,OZONE,30,34,32
India,Rajasthan,Alwar,"Moti Doongri, Alwar - RSPCB",04-02-2024 19:00:00,27.554793,76.611536,NO2,45,69,57
India,Rajasthan,Banswara,"Rati Talai, Banswara - RSPCB",04-02-2024 19:00:00,23.555190,74.440010,NO2,8,117,28
India,Rajasthan,Baran,"Bamboliya, Baran - RSPCB",04-02-2024 19:00:00,25.106006,76.469948,SO2,5,15,9
India,Rajasthan,Baran,"Bamboliya, Baran - RSPCB",04-02-2024 19:00:00,25.106006,76.469948,OZONE,14,70,58
India,Rajasthan,Barmer,"Railway Colony, Barmer - RSPCB",04-02-2024 19:00:00,25.747299,71.393989,SO2,NA,NA,NA
India,Rajasthan,Bharatpur,"Krishna Nagar, Bharatpur - RSPCB",04-02-2024 19:00:00,27.215415,77.50873,PM2.5,31,65,46
India,Rajasthan,Bhilwara,"Pratap Nagar, Bhilwara - RSPCB",04-02-2024 19:00:00,25.339605,74.618883,PM10,58,179,99
India,Rajasthan,Bhilwara,"Pratap Nagar, Bhilwara - RSPCB",04-02-2024 19:00:00,25.339605,74.618883,NH3,NA,NA,NA
India,Rajasthan,Churu,"Subash Chowk, Churu - RSPCB",04-02-2024 19:00:00,28.296139,74.961696,NO2,18,40,27
India,Rajasthan,Dausa,"Khatikan Mohalla, Dausa - RSPCB",04-02-2024 19:00:00,26.895552,76.334753,SO2,3,24,10
India,Rajasthan,Dungarpur,"Bhoiwada, Dungarpur - RSPCB",04-02-2024 19:00:00,23.837789,73.714926,PM10,81,165,114
India,Rajasthan,Jaipur,"Adarsh Nagar, Jaipur - RSPCB",04-02-2024 19:00:00,26.902909,75.836858,PM10,64,146,97
India,Rajasthan,Jaipur,"Police Commissionerate, Jaipur - RSPCB",04-02-2024 19:00:00,26.9164092,75.7994901,NO2,35,95,59
India,Rajasthan,Jaipur,"Police Commissionerate, Jaipur - RSPCB",04-02-2024 19:00:00,26.9164092,75.7994901,CO,32,103,42
India,Rajasthan,Jaipur,"Police Commissionerate, Jaipur - RSPCB",04-02-2024 19:00:00,26.9164092,75.7994901,OZONE,11,60,39
India,Rajasthan,Jaipur,"Shastri Nagar, Jaipur - RSPCB",04-02-2024 19:00:00,26.9502929,75.730943,OZONE,13,66,52
India,Rajasthan,Jaisalmer,"Sadar Bazar, Jaisalmer - RSPCB",04-02-2024 19:00:00,26.912329,70.909168,NO2,4,46,15
India,Rajasthan,Jaisalmer,"Sadar Bazar, Jaisalmer - RSPCB",04-02-2024 19:00:00,26.912329,70.909168,NH3,11,22,15
India,Rajasthan,Jaisalmer,"Sadar Bazar, Jaisalmer - RSPCB",04-02-2024 19:00:00,26.912329,70.909168,OZONE,17,70,54
India,Rajasthan,Jalore,"Mudtra Sili, Jalore - RSPCB",04-02-2024 19:00:00,25.344694,72.626208,PM10,78,280,129
India,Rajasthan,Jalore,"Mudtra Sili, Jalore - RSPCB",04-02-2024 19:00:00,25.344694,72.626208,NH3,4,8,6
India,Rajasthan,Jalore,"Mudtra Sili, Jalore - RSPCB",04-02-2024 19:00:00,25.344694,72.626208,OZONE,8,92,54
India,Rajasthan,Jhunjhunu,"Indra Nagar, Jhunjhunu - RSPCB",04-02-2024 19:00:00,28.108988,75.386577,NH3,15,29,22
India,Rajasthan,Jhunjhunu,"Indra Nagar, Jhunjhunu - RSPCB",04-02-2024 19:00:00,28.108988,75.386577,OZONE,2,61,50
India,Rajasthan,Jodhpur,"Collectorate, Jodhpur - RSPCB",04-02-2024 19:00:00,26.268249,73.0193853,PM10,62,406,203
India,Rajasthan,Jodhpur,"Collectorate, Jodhpur - RSPCB",04-02-2024 19:00:00,26.268249,73.0193853,NO2,21,30,26
India,Rajasthan,Jodhpur,"Collectorate, Jodhpur - RSPCB",04-02-2024 19:00:00,26.268249,73.0193853,OZONE,29,74,56
India,Rajasthan,Jodhpur,"Digari Kalan, Jodhpur - RSPCB",04-02-2024 19:00:00,26.295810,73.082283,NO2,10,88,46
India,Rajasthan,Jodhpur,"Jhalamand, Jodhpur - RSPCB",04-02-2024 19:00:00,26.215415,73.070156,PM10,43,425,158
India,Rajasthan,Jodhpur,"Jhalamand, Jodhpur - RSPCB",04-02-2024 19:00:00,26.215415,73.070156,NO2,15,95,48
India,Rajasthan,Jodhpur,"Jhalamand, Jodhpur - RSPCB",04-02-2024 19:00:00,26.215415,73.070156,CO,16,100,23
India,Rajasthan,Jodhpur,"Jhalamand, Jodhpur - RSPCB",04-02-2024 19:00:00,26.215415,73.070156,OZONE,2,56,39
India,Rajasthan,Jodhpur,"Mandor, Jodhpur - RSPCB",04-02-2024 19:00:00,26.358805,73.047444,CO,19,109,33
India,Rajasthan,Jodhpur,"Mandor, Jodhpur - RSPCB",04-02-2024 19:00:00,26.358805,73.047444,OZONE,3,51,41
India,Rajasthan,Karauli,"Satyawati Vihar, Karauli - RSPCB",04-02-2024 19:00:00,26.506177,77.025989,CO,10,39,28
India,Rajasthan,Kota,"Dhanmandi, Kota - RSPCB",04-02-2024 19:00:00,25.164090,75.858137,NO2,34,127,71
India,Rajasthan,Kota,"Nayapura, Kota - RSPCB",04-02-2024 19:00:00,25.196024,75.855668,OZONE,2,53,35
India,Rajasthan,Kota,"Shrinath Puram, Kota - RSPCB",04-02-2024 19:00:00,25.14389,75.821256,OZONE,33,65,56
India,Rajasthan,Nagaur,"Karni Colony, Nagaur - RSPCB",04-02-2024 19:00:00,27.213494,73.734444,NO2,12,46,21
India,Rajasthan,Pratapgarh,"Pragati Nagar, Pratapgarh - RSPCB",04-02-2024 19:00:00,24.041198,74.780702,PM10,80,289,161
India,Rajasthan,Sawai Madhopur,"Sahu Nagar, Sawai Madhopur - RSPCB",04-02-2024 19:00:00,26.031443,76.359327,CO,12,95,22
India,Rajasthan,Sikar,"Radhakishan Pura, Sikar - RSPCB",04-02-2024 19:00:00,27.608912,75.153302,NH3,9,16,11
India,Rajasthan,Sikar,"Radhakishan Pura, Sikar - RSPCB",04-02-2024 19:00:00,27.608912,75.153302,CO,22,105,27
India,Rajasthan,Sri Ganganagar,"Old City, Sri Ganganagar - RSPCB",04-02-2024 19:00:00,29.931624,73.864511,PM2.5,100,197,143
India,Rajasthan,Sri Ganganagar,"Old City, Sri Ganganagar - RSPCB",04-02-2024 19:00:00,29.931624,73.864511,OZONE,12,64,40
India,Rajasthan,Tonk,"Shastri Nagar, Tonk - RSPCB",04-02-2024 19:00:00,26.159933,75.780517,PM10,98,243,133
India,Rajasthan,Tonk,"Shastri Nagar, Tonk - RSPCB",04-02-2024 19:00:00,26.159933,75.780517,NO2,16,84,30
India,Rajasthan,Udaipur,"Ashok Nagar, Udaipur - RSPCB",04-02-2024 19:00:00,24.5886166,73.6321397,OZONE,6,77,59
India,TamilNadu,Chengalpattu,"Crescent University, Chengalpattu - TNPCB",04-02-2024 19:00:00,12.8777316,80.0834807,PM10,NA,NA,NA
India,TamilNadu,Chengalpattu,"Crescent University, Chengalpattu - TNPCB",04-02-2024 19:00:00,12.8777316,80.0834807,SO2,NA,NA,NA
India,TamilNadu,Chennai,"Alandur Bus Depot, Chennai - CPCB",04-02-2024 19:00:00,12.9099161,80.1076538,SO2,1,2,1
India,TamilNadu,Chennai,"Arumbakkam, Chennai - TNPCB",04-02-2024 19:00:00,13.0664,80.2112 ,PM2.5,10,89,34
India,TamilNadu,Chennai,"Gandhi Nagar_Ennore, Chennai - TNPCB",04-02-2024 19:00:00,13.218341,80.32027,NH3,2,5,4
India,TamilNadu,Chennai,"Kodungaiyur, Chennai - TNPCB",04-02-2024 19:00:00,13.1278,80.2642,PM10,20,115,43
India,TamilNadu,Chennai,"Kodungaiyur, Chennai - TNPCB",04-02-2024 19:00:00,13.1278,80.2642,SO2,1,8,4
India,TamilNadu,Chennai,"Manali, Chennai - CPCB",04-02-2024 19:00:00,13.164544,80.26285,PM2.5,22,55,40
India,TamilNadu,Chennai,"Manali, Chennai - CPCB",04-02-2024 19:00:00,13.164544,80.26285,OZONE,15,29,20
India,TamilNadu,Chennai,"Perungudi, Chennai - TNPCB",04-02-2024 19:00:00,12.9533,80.2357,NO2,24,39,32
India,TamilNadu,Chennai,"Royapuram, Chennai - TNPCB",04-02-2024 19:00:00,13.1036,80.2909,CO,16,58,19
India,TamilNadu,Chennai,"Velachery Res. Area, Chennai - CPCB",04-02-2024 19:00:00,13.0052189,80.2398125,NH3,4,10,7
India,TamilNadu,Chennai,"Velachery Res. Area, Chennai - CPCB",04-02-2024 19:00:00,13.0052189,80.2398125,SO2,2,32,9
India,TamilNadu,Coimbatore,"PSG College of Arts and Science, Coimbatore - TNPCB",04-02-2024 19:00:00,11.0328,77.0349,NO2,1,17,3
India,TamilNadu,Cuddalore,"Kudikadu, Cuddalore - TNPCB",04-02-2024 19:00:00,11.6829898,79.7532099,PM2.5,17,62,34
India,TamilNadu,Gummidipoondi,"Anthoni Pillai Nagar, Gummidipoondi - TNPCB",04-02-2024 19:00:00,13.4127,80.1081,PM2.5,15,413,98
India,TamilNadu,Palkalaiperur,"Bharathidasan University, Palkalaiperur - TNPCB",04-02-2024 19:00:00,10.681158,78.741746,CO,4,45,15
India,TamilNadu,Salem,"Sona College of Technology, Salem - TNPCB",04-02-2024 19:00:00,11.679111,78.125052,SO2,21,22,21
India,TamilNadu,Salem,"Sona College of Technology, Salem - TNPCB",04-02-2024 19:00:00,11.679111,78.125052,OZONE,3,3,3
India,TamilNadu,Thoothukudi,"Meelavittan, Thoothukudi - TNPCB",04-02-2024 19:00:00,8.816428 ,78.099039,CO,6,27,17
India,TamilNadu,Vellore,"Vasanthapuram, Vellore - TNPCB",04-02-2024 19:00:00,12.909494,79.131861,OZONE,1,2,2
India,TamilNadu,Virudhunagar,"Collectorate Office, Virudhunagar - TNPCB",04-02-2024 19:00:00,9.559382,77.948828,NO2,13,53,22
India,Telangana,Hyderabad,"Bollaram Industrial Area, Hyderabad - TSPCB",04-02-2024 19:00:00,17.540891,78.358528,PM2.5,60,157,90
India,Telangana,Hyderabad,"Central University, Hyderabad - TSPCB",04-02-2024 19:00:00,17.460103,78.334361,NO2,10,38,25
India,Telangana,Hyderabad,"Central University, Hyderabad - TSPCB",04-02-2024 19:00:00,17.460103,78.334361,OZONE,3,4,4
India,Telangana,Hyderabad,"ICRISAT Patancheru, Hyderabad - TSPCB",04-02-2024 19:00:00,17.518400,78.278777,NO2,15,17,16
India,Telangana,Hyderabad,"IITH Kandi, Hyderabad - TSPCB",04-02-2024 19:00:00,17.585705,78.126199,PM2.5,11,36,23
India,Telangana,Hyderabad,"IITH Kandi, Hyderabad - TSPCB",04-02-2024 19:00:00,17.585705,78.126199,NH3,3,3,3
India,Telangana,Hyderabad,"IITH Kandi, Hyderabad - TSPCB",04-02-2024 19:00:00,17.585705,78.126199,SO2,12,12,12
India,Telangana,Hyderabad,"Kokapet, Hyderabad - TSPCB",04-02-2024 19:00:00,17.393559,78.339194,PM10,NA,NA,NA
India,Telangana,Hyderabad,"Kompally Municipal Office, Hyderabad - TSPCB",04-02-2024 19:00:00,17.544899,78.486949,PM2.5,NA,NA,NA
India,Telangana,Hyderabad,"Kompally Municipal Office, Hyderabad - TSPCB",04-02-2024 19:00:00,17.544899,78.486949,CO,22,46,46
India,Telangana,Hyderabad,"New Malakpet, Hyderabad - TSPCB",04-02-2024 19:00:00,17.37206,78.50864,SO2,17,29,21
India,Telangana,Hyderabad,"New Malakpet, Hyderabad - TSPCB",04-02-2024 19:00:00,17.37206,78.50864,OZONE,1,27,24
India,Telangana,Hyderabad,"Ramachandrapuram, Hyderabad - TSPCB",04-02-2024 19:00:00,17.528544,78.286195,SO2,NA,NA,NA
India,Telangana,Hyderabad,"Somajiguda, Hyderabad - TSPCB",04-02-2024 19:00:00,17.417094,78.457437,SO2,9,19,12
India,Telangana,Hyderabad,"Zoo Park, Hyderabad - TSPCB",04-02-2024 19:00:00,17.349694,78.451437,SO2,1,9,4
India,Telangana,Hyderabad,"Zoo Park, Hyderabad - TSPCB",04-02-2024 19:00:00,17.349694,78.451437,OZONE,16,28,26
India,Tripura,Agartala,"Bardowali, Agartala - Tripura SPCB",04-02-2024 19:00:00,23.8175497,91.2726974,SO2,23,26,24
India,Uttar_Pradesh,Agra,"Rohta, Agra - UPPCB",04-02-2024 19:00:00,27.106972,78.000111,PM2.5,49,139,84
India,Uttar_Pradesh,Agra,"Rohta, Agra - UPPCB",04-02-2024 19:00:00,27.106972,78.000111,PM10,44,105,74
India,Uttar_Pradesh,Agra,"Rohta, Agra - UPPCB",04-02-2024 19:00:00,27.106972,78.000111,NO2,NA,NA,NA
India,Uttar_Pradesh,Agra,"Rohta, Agra - UPPCB",04-02-2024 19:00:00,27.106972,78.000111,SO2,5,19,11
India,Uttar_Pradesh,Agra,"Sanjay Palace, Agra - UPPCB",04-02-2024 19:00:00,27.19865833,78.00598056,CO,19,124,42
India,Uttar_Pradesh,Agra,"Sanjay Palace, Agra - UPPCB",04-02-2024 19:00:00,27.19865833,78.00598056,OZONE,13,45,28
India,Uttar_Pradesh,Agra,"Sector-3B Avas Vikas Colony, Agra - UPPCB",04-02-2024 19:00:00,27.19412,77.96237,PM10,48,141,80
India,Uttar_Pradesh,Agra,"Shahjahan Garden, Agra - UPPCB",04-02-2024 19:00:00,27.169338,78.03582,PM2.5,38,102,66
India,Uttar_Pradesh,Agra,"Shahjahan Garden, Agra - UPPCB",04-02-2024 19:00:00,27.169338,78.03582,PM10,32,123,72
India,Uttar_Pradesh,Agra,"Shahjahan Garden, Agra - UPPCB",04-02-2024 19:00:00,27.169338,78.03582,CO,5,57,9
India,Uttar_Pradesh,Agra,"Shastripuram, Agra - UPPCB",04-02-2024 19:00:00,27.19862,77.92066,NH3,1,3,2
India,Uttar_Pradesh,Agra,"Shastripuram, Agra - UPPCB",04-02-2024 19:00:00,27.19862,77.92066,SO2,17,19,18
India,Uttar_Pradesh,Bareilly,"Civil Lines, Bareilly - UPPCB",04-02-2024 19:00:00,28.359581,79.414455,PM2.5,NA,NA,NA
India,Uttar_Pradesh,Bareilly,"Civil Lines, Bareilly - UPPCB",04-02-2024 19:00:00,28.359581,79.414455,PM10,NA,NA,NA
India,Uttar_Pradesh,Bareilly,"Rajendra Nagar, Bareilly - UPPCB",04-02-2024 19:00:00,28.38910936,79.42963708,PM2.5,28,61,40
India,Uttar_Pradesh,Bareilly,"Rajendra Nagar, Bareilly - UPPCB",04-02-2024 19:00:00,28.38910936,79.42963708,CO,12,28,24
India,Uttar_Pradesh,Bulandshahr,"Yamunapuram, Bulandshahr - UPPCB",04-02-2024 19:00:00,28.406963,77.849831,PM10,72,197,133
India,Uttar_Pradesh,Bulandshahr,"Yamunapuram, Bulandshahr - UPPCB",04-02-2024 19:00:00,28.406963,77.849831,CO,6,114,24
India,Uttar_Pradesh,Firozabad,"Nagla Bhau, Firozabad - UPPCB",04-02-2024 19:00:00,27.168897,78.376960,PM2.5,41,79,56
India,Uttar_Pradesh,Firozabad,"Nagla Bhau, Firozabad - UPPCB",04-02-2024 19:00:00,27.168897,78.376960,CO,10,20,13
India,Uttar_Pradesh,Firozabad,"Nagla Bhau, Firozabad - UPPCB",04-02-2024 19:00:00,27.168897,78.376960,OZONE,18,24,20
India,Uttar_Pradesh,Firozabad,"Vibhab Nagar, Firozabad - UPPCB",04-02-2024 19:00:00,27.1594,78.3953,OZONE,19,24,20
India,Uttar_Pradesh,Ghaziabad,"Loni, Ghaziabad - UPPCB",04-02-2024 19:00:00,28.757294,77.278792,CO,30,133,64
India,Uttar_Pradesh,Ghaziabad,"Sanjay Nagar, Ghaziabad - UPPCB",04-02-2024 19:00:00,28.685382,77.453839,PM10,64,459,183
India,Uttar_Pradesh,Ghaziabad,"Vasundhara, Ghaziabad - UPPCB",04-02-2024 19:00:00,28.6603346,77.3572563,PM10,75,384,159
India,Uttar_Pradesh,Ghaziabad,"Vasundhara, Ghaziabad - UPPCB",04-02-2024 19:00:00,28.6603346,77.3572563,NO2,40,132,70
India,Uttar_Pradesh,Ghaziabad,"Vasundhara, Ghaziabad - UPPCB",04-02-2024 19:00:00,28.6603346,77.3572563,SO2,2,49,14
India,Uttar_Pradesh,Gorakhpur,"Madan Mohan Malaviya University of Technology, Gorakhpur - UPPCB",04-02-2024 19:00:00,26.730136,83.433859,SO2,37,38,37
India,Uttar_Pradesh,Gorakhpur,"Madan Mohan Malaviya University of Technology, Gorakhpur - UPPCB",04-02-2024 19:00:00,26.730136,83.433859,OZONE,2,28,16
India,Uttar_Pradesh,Greater Noida,"Knowledge Park - V, Greater Noida - UPPCB",04-02-2024 19:00:00,28.557054,77.453663,NH3,4,9,5
India,Uttar_Pradesh,Hapur,"Anand Vihar, Hapur - UPPCB",04-02-2024 19:00:00,28.725645,77.749675,NO2,22,132,57
India,Uttar_Pradesh,Hapur,"Anand Vihar, Hapur - UPPCB",04-02-2024 19:00:00,28.725645,77.749675,SO2,20,55,33
India,Uttar_Pradesh,Jhansi,"Shivaji Nagar, Jhansi - UPPCB",04-02-2024 19:00:00,25.4547,78.6039,PM2.5,39,86,66
India,Uttar_Pradesh,Jhansi,"Shivaji Nagar, Jhansi - UPPCB",04-02-2024 19:00:00,25.4547,78.6039,NO2,20,45,30
India,Uttar_Pradesh,Jhansi,"Shivaji Nagar, Jhansi - UPPCB",04-02-2024 19:00:00,25.4547,78.6039,NH3,6,6,6
India,Uttar_Pradesh,Jhansi,"Shivaji Nagar, Jhansi - UPPCB",04-02-2024 19:00:00,25.4547,78.6039,CO,24,48,27
India,Uttar_Pradesh,Kanpur,"FTI Kidwai Nagar, Kanpur - UPPCB",04-02-2024 19:00:00,26.428282,80.327067,PM10,66,168,105
India,Uttar_Pradesh,Kanpur,"NSI Kalyanpur, Kanpur - UPPCB",04-02-2024 19:00:00,26.509954,80.249612,PM2.5,NA,NA,NA
India,Uttar_Pradesh,Kanpur,"NSI Kalyanpur, Kanpur - UPPCB",04-02-2024 19:00:00,26.509954,80.249612,PM10,NA,NA,NA
India,Uttar_Pradesh,Kanpur,"NSI Kalyanpur, Kanpur - UPPCB",04-02-2024 19:00:00,26.509954,80.249612,OZONE,27,53,35
India,Uttar_Pradesh,Kanpur,"Nehru Nagar, Kanpur - UPPCB",04-02-2024 19:00:00,26.4703136,80.3229863,PM2.5,52,90,71
India,Uttar_Pradesh,Khurja,"Kalindi Kunj, Khurja - UPPCB",04-02-2024 19:00:00,28.2348927,77.8683002,PM10,9,81,43
India,Uttar_Pradesh,Khurja,"Kalindi Kunj, Khurja - UPPCB",04-02-2024 19:00:00,28.2348927,77.8683002,CO,8,31,26
India,Uttar_Pradesh,Lucknow,"Kendriya Vidyalaya, Lucknow - CPCB",04-02-2024 19:00:00,26.906111,80.948222,NH3,3,20,14
India,Uttar_Pradesh,Lucknow,"Kukrail Picnic Spot-1, Lucknow - UPPCB",04-02-2024 19:00:00,26.90723,80.98579,SO2,28,33,29
India,Uttar_Pradesh,Lucknow,"Talkatora District Industries Center, Lucknow - CPCB",04-02-2024 19:00:00,26.83399722,80.8917361,NO2,44,54,48
India,Uttar_Pradesh,Meerut,"Ganga Nagar, Meerut - UPPCB",04-02-2024 19:00:00,28.999264,77.7590354,NO2,24,113,49
India,Uttar_Pradesh,Meerut,"Pallavpuram Phase 2, Meerut - UPPCB",04-02-2024 19:00:00,29.063510,77.709723,NH3,7,10,8
India,Uttar_Pradesh,Moradabad,"Buddhi Vihar, Moradabad - UPPCB",04-02-2024 19:00:00,28.83526,78.74460,NH3,2,2,2
India,Uttar_Pradesh,Moradabad,"Buddhi Vihar, Moradabad - UPPCB",04-02-2024 19:00:00,28.83526,78.74460,SO2,13,20,15
India,Uttar_Pradesh,Moradabad,"Eco Herbal Park, Moradabad - UPPCB",04-02-2024 19:00:00,28.840739,78.697531,OZONE,9,16,11
India,Uttar_Pradesh,Moradabad,"Employment Office, Moradabad - UPPCB",04-02-2024 19:00:00,28.88528,78.73880,PM10,NA,NA,NA
India,Uttar_Pradesh,Moradabad,"Employment Office, Moradabad - UPPCB",04-02-2024 19:00:00,28.88528,78.73880,NO2,NA,NA,NA
India,Uttar_Pradesh,Moradabad,"Employment Office, Moradabad - UPPCB",04-02-2024 19:00:00,28.88528,78.73880,NH3,NA,NA,NA
India,Uttar_Pradesh,Moradabad,"Employment Office, Moradabad - UPPCB",04-02-2024 19:00:00,28.88528,78.73880,CO,10,20,16
India,Uttar_Pradesh,Moradabad,"Jigar Colony, Moradabad - UPPCB",04-02-2024 19:00:00,28.856664,78.772638,PM10,44,119,80
India,Uttar_Pradesh,Moradabad,"Jigar Colony, Moradabad - UPPCB",04-02-2024 19:00:00,28.856664,78.772638,NH3,5,6,5
India,Uttar_Pradesh,Moradabad,"Transport Nagar, Moradabad - UPPCB",04-02-2024 19:00:00,28.802625,78.753728,PM2.5,34,114,61
India,Uttar_Pradesh,Moradabad,"Transport Nagar, Moradabad - UPPCB",04-02-2024 19:00:00,28.802625,78.753728,NH3,6,6,6
India,Uttar_Pradesh,Noida,"Sector - 125, Noida - UPPCB",04-02-2024 19:00:00,28.5447608,77.3231257,PM2.5,94,355,208
India,Uttar_Pradesh,Noida,"Sector - 125, Noida - UPPCB",04-02-2024 19:00:00,28.5447608,77.3231257,CO,34,152,53
India,Uttar_Pradesh,Noida,"Sector-1, Noida - UPPCB",04-02-2024 19:00:00,28.5898,77.3101,PM10,128,403,217
India,Uttar_Pradesh,Noida,"Sector-116, Noida - UPPCB",04-02-2024 19:00:00,28.569230,77.393848,NH3,7,16,11
India,Uttar_Pradesh,Prayagraj,"Jhunsi, Prayagraj - UPPCB",04-02-2024 19:00:00,25.425602,81.917152,PM10,26,116,71
India,Uttar_Pradesh,Prayagraj,"Jhunsi, Prayagraj - UPPCB",04-02-2024 19:00:00,25.425602,81.917152,CO,10,25,16
India,Uttar_Pradesh,Prayagraj,"Motilal Nehru NIT, Prayagraj - UPPCB",04-02-2024 19:00:00,25.494,81.863,CO,14,25,21
India,Uttar_Pradesh,Varanasi,"Ardhali Bazar, Varanasi - UPPCB",04-02-2024 19:00:00,25.3505986,82.9083074,PM10,12,30,18
India,Uttar_Pradesh,Varanasi,"IESD Banaras Hindu University, Varanasi - UPPCB",04-02-2024 19:00:00,25.262326,82.995408,PM10,15,69,28
India,Uttar_Pradesh,Varanasi,"Maldahiya, Varanasi - UPPCB",04-02-2024 19:00:00,25.32393,82.99687,PM2.5,26,83,46
India,Uttar_Pradesh,Varanasi,"Maldahiya, Varanasi - UPPCB",04-02-2024 19:00:00,25.32393,82.99687,PM10,22,70,39
India,Uttar_Pradesh,Varanasi,"Maldahiya, Varanasi - UPPCB",04-02-2024 19:00:00,25.32393,82.99687,NO2,1,6,2
India,Uttar_Pradesh,Vrindavan,"Omex Eternity, Vrindavan - UPPCB",04-02-2024 19:00:00,27.5714090,77.6557570,NO2,2,3,3
India,Uttarakhand,Kashipur,"Govt. Girls Inter College, Kashipur - UKPCB",04-02-2024 19:00:00,29.2124114,78.9611753,PM10,27,92,63
India,Uttarakhand,Kashipur,"Govt. Girls Inter College, Kashipur - UKPCB",04-02-2024 19:00:00,29.2124114,78.9611753,NH3,3,5,4
India,Uttarakhand,Rishikesh,"Shivaji Nagar, Rishikesh - UKPCB",04-02-2024 19:00:00,30.075911,78.2859547,SO2,3,5,4
India,Uttarakhand,Rishikesh,"Shivaji Nagar, Rishikesh - UKPCB",04-02-2024 19:00:00,30.075911,78.2859547,CO,19,42,22
India,West_Bengal,Asansol,"Asansol Court Area, Asansol - WBPCB",04-02-2024 19:00:00,23.685297,86.945968,OZONE,7,51,38
India,West_Bengal,Durgapur,"Sidhu Kanhu Indoor Stadium, Durgapur - WBPCB",04-02-2024 19:00:00,23.5404352,87.2892225,PM2.5,77,294,164
India,West_Bengal,Haldia,"Priyambada Housing Estate, Haldia - WBPCB",04-02-2024 19:00:00,22.06047,88.109737,SO2,9,35,14
India,West_Bengal,Haldia,"Priyambada Housing Estate, Haldia - WBPCB",04-02-2024 19:00:00,22.06047,88.109737,OZONE,16,56,34
India,West_Bengal,Howrah,"Belur Math, Howrah - WBPCB",04-02-2024 19:00:00,22.629801,88.352017,OZONE,9,82,56
India,West_Bengal,Kolkata,"Bidhannagar, Kolkata - WBPCB",04-02-2024 19:00:00,22.58157048,88.41002457,CO,23,58,29
India,West_Bengal,Kolkata,"Bidhannagar, Kolkata - WBPCB",04-02-2024 19:00:00,22.58157048,88.41002457,OZONE,7,13,11
India,West_Bengal,Kolkata,"Fort William, Kolkata - WBPCB",04-02-2024 19:00:00,22.556640,88.342674,NO2,24,172,74
India,West_Bengal,Kolkata,"Rabindra Bharati University, Kolkata - WBPCB",04-02-2024 19:00:00,22.627847,88.380669,NO2,20,22,21
India,West_Bengal,Kolkata,"Rabindra Bharati University, Kolkata - WBPCB",04-02-2024 19:00:00,22.627847,88.380669,NH3,7,9,8
India,West_Bengal,Kolkata,"Victoria, Kolkata - WBPCB",04-02-2024 19:00:00,22.5448082,88.3403691,SO2,7,26,13
India,West_Bengal,Kolkata,"Victoria, Kolkata - WBPCB",04-02-2024 19:00:00,22.5448082,88.3403691,CO,34,101,42
India,Andhra_Pradesh,Amaravati,"Secretariat, Amaravati - APPCB",04-02-2024 19:00:00,16.5150833,80.5181667,PM10,36,96,55
India,Andhra_Pradesh,Chittoor,"Gangineni Cheruvu, Chittoor - APPCB",04-02-2024 19:00:00,13.204880,79.097889,CO,16,26,20
India,Andhra_Pradesh,Rajamahendravaram,"Anand Kala Kshetram, Rajamahendravaram - APPCB",04-02-2024 19:00:00,16.9872867,81.7363176,PM10,54,116,76
India,Andhra_Pradesh,Tirupati,"Tirumala, Tirupati - APPCB",04-02-2024 19:00:00,13.67,79.35,SO2,4,11,8
India,Andhra_Pradesh,Vijayawada,"HB Colony, Vijayawada - APPCB",04-02-2024 19:00:00,16.536107,80.594233,SO2,4,7,5
India,Andhra_Pradesh,Vijayawada,"Rajiv Gandhi Park, Vijayawada - APPCB",04-02-2024 19:00:00,16.509717,80.612222,SO2,4,7,6
India,Andhra_Pradesh,Vijayawada,"Rajiv Nagar, Vijayawada - APPCB",04-02-2024 19:00:00,16.554731,80.649110,PM10,48,109,85
India,Andhra_Pradesh,Vijayawada,"Rajiv Nagar, Vijayawada - APPCB",04-02-2024 19:00:00,16.554731,80.649110,SO2,3,30,13
India,Andhra_Pradesh,Vijayawada,"Rajiv Nagar, Vijayawada - APPCB",04-02-2024 19:00:00,16.554731,80.649110,OZONE,3,41,32
India,Andhra_Pradesh,Visakhapatnam,"GVM Corporation, Visakhapatnam - APPCB",04-02-2024 19:00:00,17.72,83.3,NH3,3,7,5
India,Assam,Byrnihat,"Central Academy for SFS, Byrnihat - PCBA",04-02-2024 19:00:00,26.071318,91.87488,OZONE,12,15,14
India,Assam,Guwahati,"IITG, Guwahati - PCBA",04-02-2024 19:00:00,26.2028636,91.70046436,OZONE,5,27,23
India,Assam,Guwahati,"LGBI Airport, Guwahati - PCBA",04-02-2024 19:00:00,26.10887,91.589544,NH3,NA,NA,NA
India,Assam,Guwahati,"Railway Colony, Guwahati - PCBA",04-02-2024 19:00:00,26.181742,91.78063,NO2,3,3,3
India,Assam,Nagaon,"Christianpatty, Nagaon - PCBA",04-02-2024 19:00:00,26.349082,92.68449,PM2.5,NA,NA,NA
India,Assam,Nagaon,"Christianpatty, Nagaon - PCBA",04-02-2024 19:00:00,26.349082,92.68449,PM10,NA,NA,NA
India,Assam,Nagaon,"Christianpatty, Nagaon - PCBA",04-02-2024 19:00:00,26.349082,92.68449,NO2,8,16,12
India,Assam,Nagaon,"Christianpatty, Nagaon - PCBA",04-02-2024 19:00:00,26.349082,92.68449,NH3,1,2,1
India,Assam,Nagaon,"Christianpatty, Nagaon - PCBA",04-02-2024 19:00:00,26.349082,92.68449,OZONE,8,86,71
India,Assam,Nalbari,"Bata Chowk, Nalbari - PCBA",04-02-2024 19:00:00,26.446912,91.439057,NO2,NA,NA,NA
India,Assam,Silchar,"Tarapur, Silchar - PCBA",04-02-2024 19:00:00,24.82827,92.79525,CO,26,36,30
India,Assam,Silchar,"Tarapur, Silchar - PCBA",04-02-2024 19:00:00,24.82827,92.79525,OZONE,1,2,1
India,Assam,Sivasagar,"Girls College, Sivasagar - PCBA",04-02-2024 19:00:00,26.987634,94.636574,PM10,38,97,64
India,Bihar,Araria,"Kharahiya Basti, Araria - BSPCB",04-02-2024 19:00:00,26.146529,87.454184,OZONE,6,10,9
India,Bihar,Arrah,"New DM Office, Arrah - BSPCB",04-02-2024 19:00:00,25.5626095,84.663264,NH3,5,6,5
India,Bihar,Arrah,"New DM Office, Arrah - BSPCB",04-02-2024 19:00:00,25.5626095,84.663264,SO2,16,20,18
India,Bihar,Bettiah,"Kamalnath Nagar, Bettiah - BSPCB",04-02-2024 19:00:00,26.80365,84.51954,NO2,13,18,15
India,Bihar,Bhagalpur,"Mayaganj, Bhagalpur - BSPCB",04-02-2024 19:00:00,25.265194,87.012947,PM10,75,191,139
India,Bihar,Bhagalpur,"Mayaganj, Bhagalpur - BSPCB",04-02-2024 19:00:00,25.265194,87.012947,NH3,7,9,9
India,Bihar,Bhagalpur,"Mayaganj, Bhagalpur - BSPCB",04-02-2024 19:00:00,25.265194,87.012947,OZONE,23,58,49
India,Bihar,Bihar Sharif,"D M Colony, Bihar Sharif - BSPCB",04-02-2024 19:00:00,25.204762,85.514960,NO2,9,10,9
India,Bihar,Bihar Sharif,"D M Colony, Bihar Sharif - BSPCB",04-02-2024 19:00:00,25.204762,85.514960,OZONE,5,59,43
India,Bihar,Buxar,"Charitra Van, Buxar - BSPCB (Formerly known as Central Jail)",04-02-2024 19:00:00,25.567520,83.966379,PM10,159,385,214
India,Bihar,Buxar,"Charitra Van, Buxar - BSPCB (Formerly known as Central Jail)",04-02-2024 19:00:00,25.567520,83.966379,NH3,1,3,2
India,Bihar,Buxar,"Charitra Van, Buxar - BSPCB (Formerly known as Central Jail)",04-02-2024 19:00:00,25.567520,83.966379,CO,39,75,58
India,Bihar,Gaya,"Collectorate, Gaya - BSPCB",04-02-2024 19:00:00,24.7955,84.9994,NO2,16,19,18
India,Bihar,Gaya,"Collectorate, Gaya - BSPCB",04-02-2024 19:00:00,24.7955,84.9994,CO,27,40,36
India,Bihar,Gaya,"Collectorate, Gaya - BSPCB",04-02-2024 19:00:00,24.7955,84.9994,OZONE,50,76,64
India,Bihar,Gaya,"Kareemganj, Gaya - BSPCB",04-02-2024 19:00:00,24.792403,84.992416,NH3,1,5,3
India,Bihar,Gaya,"Kareemganj, Gaya - BSPCB",04-02-2024 19:00:00,24.792403,84.992416,OZONE,8,23,15
India,Bihar,Gaya,"SFTI Kusdihra, Gaya - BSPCB",04-02-2024 19:00:00,24.762518,84.982348,PM2.5,14,90,57
India,Bihar,Gaya,"SFTI Kusdihra, Gaya - BSPCB",04-02-2024 19:00:00,24.762518,84.982348,NH3,5,6,5
India,Bihar,Hajipur,"Industrial Area, Hajipur - BSPCB",04-02-2024 19:00:00,25.697189,85.245900,NO2,46,65,53
India,Bihar,Katihar,"Mirchaibari, Katihar - BSPCB",04-02-2024 19:00:00,25.560083,87.553265,SO2,17,22,19
India,Bihar,Katihar,"Mirchaibari, Katihar - BSPCB",04-02-2024 19:00:00,25.560083,87.553265,OZONE,19,24,21
India,Bihar,Manguraha,"Forest Rest House, Manguraha - BSPCB",04-02-2024 19:00:00,27.308328,84.531742,PM2.5,60,127,84
India,Bihar,Manguraha,"Forest Rest House, Manguraha - BSPCB",04-02-2024 19:00:00,27.308328,84.531742,PM10,75,118,95
India,Bihar,Munger,"Town Hall, Munger - BSPCB",04-02-2024 19:00:00,25.376776,86.471523,CO,8,181,151
India,Bihar,Muzaffarpur,"Buddha Colony, Muzaffarpur - BSPCB",04-02-2024 19:00:00,26.11442,85.39813,PM10,182,453,281
India,Bihar,Muzaffarpur,"Buddha Colony, Muzaffarpur - BSPCB",04-02-2024 19:00:00,26.11442,85.39813,NO2,33,106,58
India,Bihar,Patna,"DRM Office Danapur, Patna - BSPCB",04-02-2024 19:00:00,25.586562,85.043586,NO2,16,73,38
India,Bihar,Patna,"Govt. High School Shikarpur, Patna - BSPCB",04-02-2024 19:00:00,25.592539,85.227158,NO2,19,25,23
India,Bihar,Patna,"Govt. High School Shikarpur, Patna - BSPCB",04-02-2024 19:00:00,25.592539,85.227158,SO2,3,6,5
India,Bihar,Patna,"IGSC Planetarium Complex, Patna - BSPCB",04-02-2024 19:00:00,25.610369,85.132568,CO,9,16,13
India,Bihar,Patna,"Muradpur, Patna - BSPCB",04-02-2024 19:00:00,25.619651,85.147382,NH3,2,4,3
India,Bihar,Patna,"Muradpur, Patna - BSPCB",04-02-2024 19:00:00,25.619651,85.147382,OZONE,17,94,82
India,Bihar,Patna,"Rajbansi Nagar, Patna - BSPCB",04-02-2024 19:00:00,25.599486,85.113666,PM10,NA,NA,NA
India,Bihar,Patna,"Rajbansi Nagar, Patna - BSPCB",04-02-2024 19:00:00,25.599486,85.113666,CO,30,36,36
India,Bihar,Purnia,"Mariam Nagar, Purnia - BSPCB",04-02-2024 19:00:00,25.366336,87.117468,OZONE,9,26,20
India,Bihar,Rajgir,"Dangi Tola, Rajgir - BSPCB",04-02-2024 19:00:00,25.03280,85.41948,PM10,58,131,92
India,Bihar,Rajgir,"Dangi Tola, Rajgir - BSPCB",04-02-2024 19:00:00,25.03280,85.41948,SO2,4,4,4
India,Bihar,Saharsa,"Police Line, Saharsa - BSPCB",04-02-2024 19:00:00,25.892357,86.590325,SO2,NA,NA,NA
India,Bihar,Saharsa,"Police Line, Saharsa - BSPCB",04-02-2024 19:00:00,25.892357,86.590325,CO,4,66,4
India,Bihar,Saharsa,"Police Line, Saharsa - BSPCB",04-02-2024 19:00:00,25.892357,86.590325,OZONE,10,72,57
India,Bihar,Samastipur,"DM Office_Kasipur, Samastipur - BSPCB",04-02-2024 19:00:00,25.859655,85.77944,NO2,2,7,4
India,Bihar,Samastipur,"DM Office_Kasipur, Samastipur - BSPCB",04-02-2024 19:00:00,25.859655,85.77944,OZONE,9,42,26
India,Bihar,Sasaram,"Dada Peer, Sasaram - BSPCB",04-02-2024 19:00:00,24.952822,84.002396,SO2,19,23,21
India,Bihar,Sasaram,"Dada Peer, Sasaram - BSPCB",04-02-2024 19:00:00,24.952822,84.002396,OZONE,4,6,4
India,Bihar,Siwan,"Chitragupta Nagar, Siwan - BSPCB",04-02-2024 19:00:00,26.2271665,84.3570427,NH3,1,6,2
India,Bihar,Siwan,"Chitragupta Nagar, Siwan - BSPCB",04-02-2024 19:00:00,26.2271665,84.3570427,CO,16,133,108
India,Chandigarh,Chandigarh,"Sector 22, Chandigarh - CPCC",04-02-2024 19:00:00,30.735567,76.775714,PM10,44,226,121
India,Chandigarh,Chandigarh,"Sector 22, Chandigarh - CPCC",04-02-2024 19:00:00,30.735567,76.775714,NO2,31,102,55
India,Chandigarh,Chandigarh,"Sector-25, Chandigarh - CPCC",04-02-2024 19:00:00,30.751462,76.762879,PM10,86,150,122
India,Chandigarh,Chandigarh,"Sector-53, Chandigarh - CPCC",04-02-2024 19:00:00,30.719859,76.738637,PM10,50,185,114
India,Chandigarh,Chandigarh,"Sector-53, Chandigarh - CPCC",04-02-2024 19:00:00,30.719859,76.738637,NH3,5,8,7
India,Chandigarh,Chandigarh,"Sector-53, Chandigarh - CPCC",04-02-2024 19:00:00,30.719859,76.738637,OZONE,3,20,13
India,Chhattisgarh,Bhilai,"32Bungalows, Bhilai - CECB",04-02-2024 19:00:00,21.194815,81.314770,PM10,38,113,72
India,Chhattisgarh,Bhilai,"32Bungalows, Bhilai - CECB",04-02-2024 19:00:00,21.194815,81.314770,SO2,4,6,5
India,Chhattisgarh,Bhilai,"Civic Center, Bhilai - Bhilai Steel Plant",04-02-2024 19:00:00,21.185571,81.343175,PM10,51,96,70
India,Chhattisgarh,Bhilai,"Hathkhoj, Bhilai - CECB",04-02-2024 19:00:00,21.224231,81.408350,PM10,54,168,110
India,Chhattisgarh,Bhilai,"Hathkhoj, Bhilai - CECB",04-02-2024 19:00:00,21.224231,81.408350,NO2,10,65,35
India,Chhattisgarh,Bhilai,"Hathkhoj, Bhilai - CECB",04-02-2024 19:00:00,21.224231,81.408350,OZONE,6,22,19
India,Chhattisgarh,Chhal,"Nawapara SECL Colony, Chhal - CECB",04-02-2024 19:00:00,22.118125,83.140608,NO2,12,58,24
India,Chhattisgarh,Chhal,"Nawapara SECL Colony, Chhal - CECB",04-02-2024 19:00:00,22.118125,83.140608,CO,50,112,66
India,Chhattisgarh,Raipur,"AIIMS, Raipur - CECB",04-02-2024 19:00:00,21.258815,81.578979,SO2,NA,NA,NA
India,Chhattisgarh,Raipur,"Bhatagaon New ISBT, Raipur - CECB",04-02-2024 19:00:00,21.219665,81.630094,NO2,67,96,80
India,Chhattisgarh,Raipur,"Bhatagaon New ISBT, Raipur - CECB",04-02-2024 19:00:00,21.219665,81.630094,OZONE,3,5,4
India,Chhattisgarh,Raipur,"Krishak Nagar, Raipur - CECB",04-02-2024 19:00:00,21.237755,81.705301,NO2,17,36,30
India,Chhattisgarh,Raipur,"Krishak Nagar, Raipur - CECB",04-02-2024 19:00:00,21.237755,81.705301,NH3,1,1,1
India,Chhattisgarh,Raipur,"Siltara Phase-II, Raipur - CECB",04-02-2024 19:00:00,21.371751,81.664929,PM10,48,167,116
India,Delhi,Delhi,"Alipur, Delhi - DPCC",04-02-2024 19:00:00,28.815329,77.153010,NH3,8,11,9
India,Delhi,Delhi,"Alipur, Delhi - DPCC",04-02-2024 19:00:00,28.815329,77.153010,CO,44,88,50
India,Delhi,Delhi,"CRRI Mathura Road, Delhi - IMD",04-02-2024 19:00:00,28.5512005,77.2735737,OZONE,3,11,7
India,Delhi,Delhi,"DTU, Delhi - CPCB",04-02-2024 19:00:00,28.7500499,77.1112615,NO2,1,73,32
India,Delhi,Delhi,"Dr. Karni Singh Shooting Range, Delhi - DPCC",04-02-2024 19:00:00,28.498571,77.264840,OZONE,1,62,42
India,Delhi,Delhi,"Dwarka-Sector 8, Delhi - DPCC ",04-02-2024 19:00:00,28.5710274,77.0719006,PM2.5,206,431,315
India,Delhi,Delhi,"IGI Airport (T3), Delhi - IMD",04-02-2024 19:00:00,28.5627763,77.1180053,PM10,121,500,249
India,Delhi,Delhi,"IGI Airport (T3), Delhi - IMD",04-02-2024 19:00:00,28.5627763,77.1180053,CO,90,136,99
India,Delhi,Delhi,"IHBAS, Dilshad Garden, Delhi - CPCB",04-02-2024 19:00:00,28.6811736,77.3025234,NO2,6,30,16
India,Delhi,Delhi,"IHBAS, Dilshad Garden, Delhi - CPCB",04-02-2024 19:00:00,28.6811736,77.3025234,SO2,4,33,16
India,Delhi,Delhi,"ITO, Delhi - CPCB",04-02-2024 19:00:00,28.628624,77.241060,PM2.5,137,367,258
India,Delhi,Delhi,"ITO, Delhi - CPCB",04-02-2024 19:00:00,28.628624,77.241060,NH3,4,11,7
India,Delhi,Delhi,"Jawaharlal Nehru Stadium, Delhi - DPCC",04-02-2024 19:00:00,28.580280,77.233829,PM10,124,369,206
India,Delhi,Delhi,"Lodhi Road, Delhi - IITM",04-02-2024 19:00:00,28.588333,77.221667,OZONE,15,16,15
India,Delhi,Delhi,"Lodhi Road, Delhi - IMD",04-02-2024 19:00:00,28.5918245,77.2273074,PM2.5,51,301,167
India,Delhi,Delhi,"Lodhi Road, Delhi - IMD",04-02-2024 19:00:00,28.5918245,77.2273074,NO2,5,5,5
India,Delhi,Delhi,"Major Dhyan Chand National Stadium, Delhi - DPCC",04-02-2024 19:00:00,28.611281,77.237738,PM10,117,290,178
India,Delhi,Delhi,"Major Dhyan Chand National Stadium, Delhi - DPCC",04-02-2024 19:00:00,28.611281,77.237738,NO2,45,125,87
India,Delhi,Delhi,"Major Dhyan Chand National Stadium, Delhi - DPCC",04-02-2024 19:00:00,28.611281,77.237738,SO2,1,26,8
India,Delhi,Delhi,"Mundka, Delhi - DPCC",04-02-2024 19:00:00,28.684678,77.076574,PM2.5,314,393,345
India,Delhi,Delhi,"Mundka, Delhi - DPCC",04-02-2024 19:00:00,28.684678,77.076574,NH3,9,20,14
India,Delhi,Delhi,"NSIT Dwarka, Delhi - CPCB",04-02-2024 19:00:00,28.60909,77.0325413,PM2.5,134,392,260
India,Delhi,Delhi,"NSIT Dwarka, Delhi - CPCB",04-02-2024 19:00:00,28.60909,77.0325413,NO2,22,49,34
India,Delhi,Delhi,"NSIT Dwarka, Delhi - CPCB",04-02-2024 19:00:00,28.60909,77.0325413,NH3,7,10,8
India,Delhi,Delhi,"NSIT Dwarka, Delhi - CPCB",04-02-2024 19:00:00,28.60909,77.0325413,SO2,10,24,15
India,Delhi,Delhi,"Najafgarh, Delhi - DPCC",04-02-2024 19:00:00,28.570173,76.933762,NO2,22,72,40
India,Delhi,Delhi,"Narela, Delhi - DPCC",04-02-2024 19:00:00,28.822836,77.101981,SO2,NA,NA,NA
India,Delhi,Delhi,"New Moti Bagh, Delhi - MHUA",04-02-2024 19:00:00,28.57834,77.18400,NO2,1,6,3
India,Delhi,Delhi,"Okhla Phase-2, Delhi - DPCC",04-02-2024 19:00:00,28.530785,77.271255,SO2,3,18,9
India,Delhi,Delhi,"Okhla Phase-2, Delhi - DPCC",04-02-2024 19:00:00,28.530785,77.271255,CO,42,136,62
India,Delhi,Delhi,"Okhla Phase-2, Delhi - DPCC",04-02-2024 19:00:00,28.530785,77.271255,OZONE,9,34,25
India,Delhi,Delhi,"Patparganj, Delhi - DPCC",04-02-2024 19:00:00,28.623763,77.287209,CO,4,127,27
India,Delhi,Delhi,"Patparganj, Delhi - DPCC",04-02-2024 19:00:00,28.623763,77.287209,OZONE,2,9,3
India,Delhi,Delhi,"Punjabi Bagh, Delhi - DPCC",04-02-2024 19:00:00,28.674045,77.131023,PM10,132,500,265
India,Delhi,Delhi,"Punjabi Bagh, Delhi - DPCC",04-02-2024 19:00:00,28.674045,77.131023,SO2,18,26,22
India,Delhi,Delhi,"Pusa, Delhi - DPCC",04-02-2024 19:00:00,28.639652,77.146275,NH3,21,43,33
India,Delhi,Delhi,"R K Puram, Delhi - DPCC",04-02-2024 19:00:00,28.563262,77.186937,NO2,50,107,69
India,Delhi,Delhi,"Rohini, Delhi - DPCC",04-02-2024 19:00:00,28.732528,77.119920,OZONE,2,39,24
India,Delhi,Delhi,"Shadipur, Delhi - CPCB",04-02-2024 19:00:00,28.6514781,77.1473105,NO2,38,429,114
India,Delhi,Delhi,"Shadipur, Delhi - CPCB",04-02-2024 19:00:00,28.6514781,77.1473105,CO,37,84,60
India,Delhi,Delhi,"Sirifort, Delhi - CPCB",04-02-2024 19:00:00,28.5504249,77.2159377,PM10,34,114,65
India,Delhi,Delhi,"Sirifort, Delhi - CPCB",04-02-2024 19:00:00,28.5504249,77.2159377,CO,25,115,41
India,Delhi,Delhi,"Sonia Vihar, Delhi - DPCC",04-02-2024 19:00:00,28.710508,77.249485,PM2.5,211,379,318
India,Delhi,Delhi,"Sonia Vihar, Delhi - DPCC",04-02-2024 19:00:00,28.710508,77.249485,CO,42,133,76
India,Delhi,Delhi,"Sonia Vihar, Delhi - DPCC",04-02-2024 19:00:00,28.710508,77.249485,OZONE,4,33,21
India,Delhi,Delhi,"Sri Aurobindo Marg, Delhi - DPCC",04-02-2024 19:00:00,28.531346,77.190156,SO2,6,13,9
India,Delhi,Delhi,"Vivek Vihar, Delhi - DPCC",04-02-2024 19:00:00,28.672342,77.315260,SO2,6,13,9
India,Delhi,Delhi,"Wazirpur, Delhi - DPCC",04-02-2024 19:00:00,28.699793,77.165453,NH3,4,7,5
India,Delhi,Delhi,"Wazirpur, Delhi - DPCC",04-02-2024 19:00:00,28.699793,77.165453,SO2,9,69,42
India,Gujarat,Ahmedabad,"Chandkheda, Ahmedabad - IITM",04-02-2024 19:00:00,23.107969,72.574648,SO2,10,55,17
India,Gujarat,Ahmedabad,"Chandkheda, Ahmedabad - IITM",04-02-2024 19:00:00,23.107969,72.574648,CO,15,128,56
India,Gujarat,Ahmedabad,"Gyaspur, Ahmedabad - IITM",04-02-2024 19:00:00,22.977134,72.553024,PM10,79,408,176
India,Gujarat,Ahmedabad,"Gyaspur, Ahmedabad - IITM",04-02-2024 19:00:00,22.977134,72.553024,NH3,4,5,4
India,Gujarat,Ahmedabad,"Gyaspur, Ahmedabad - IITM",04-02-2024 19:00:00,22.977134,72.553024,SO2,14,29,19
India,Gujarat,Ahmedabad,"Gyaspur, Ahmedabad - IITM",04-02-2024 19:00:00,22.977134,72.553024,CO,24,96,55
India,Gujarat,Ahmedabad,"Gyaspur, Ahmedabad - IITM",04-02-2024 19:00:00,22.977134,72.553024,OZONE,11,28,24
India,Gujarat,Ahmedabad,"Maninagar, Ahmedabad - GPCB",04-02-2024 19:00:00,23.002657,72.591912,CO,8,106,23
India,Gujarat,Ahmedabad,"Raikhad, Ahmedabad - IITM",04-02-2024 19:00:00,23.020509,72.579261,PM2.5,60,297,144
India,Gujarat,Ahmedabad,"Raikhad, Ahmedabad - IITM",04-02-2024 19:00:00,23.020509,72.579261,SO2,17,23,19
India,Gujarat,Ahmedabad,"Rakhial, Ahmedabad - IITM",04-02-2024 19:00:00,23.016834,72.625775,PM10,82,253,137
India,Gujarat,Ahmedabad,"Rakhial, Ahmedabad - IITM",04-02-2024 19:00:00,23.016834,72.625775,NH3,1,10,6
India,Gujarat,Ahmedabad,"Rakhial, Ahmedabad - IITM",04-02-2024 19:00:00,23.016834,72.625775,SO2,6,25,11
India,Gujarat,Ahmedabad,"Rakhial, Ahmedabad - IITM",04-02-2024 19:00:00,23.016834,72.625775,OZONE,1,64,45
India,Gujarat,Ahmedabad,"SAC ISRO Bopal, Ahmedabad - IITM",04-02-2024 19:00:00,23.041137,72.456691,CO,20,48,36
India,Gujarat,Ahmedabad,"SAC ISRO Bopal, Ahmedabad - IITM",04-02-2024 19:00:00,23.041137,72.456691,OZONE,11,21,18
India,Gujarat,Ahmedabad,"SAC ISRO Satellite, Ahmedabad - IITM",04-02-2024 19:00:00,23.023389,72.515201,SO2,12,28,15
India,Gujarat,Ahmedabad,"SVPI Airport Hansol, Ahmedabad - IITM",04-02-2024 19:00:00,23.076793,72.627874,NO2,13,18,15
India,Gujarat,Ahmedabad,"Sardar Vallabhbhai Patel Stadium, Ahmedabad - IITM",04-02-2024 19:00:00,23.043070,72.562968,SO2,14,18,16
India,Gujarat,Ankleshwar,"GIDC, Ankleshwar - GPCB",04-02-2024 19:00:00,21.613267,73.010555,CO,37,158,101
India,Gujarat,Gandhinagar,"IIPHG Lekawada, Gandhinagar - IITM",04-02-2024 19:00:00,23.243639,72.68994,NH3,3,3,3
India,Gujarat,Gandhinagar,"IIPHG Lekawada, Gandhinagar - IITM",04-02-2024 19:00:00,23.243639,72.68994,CO,40,84,50
India,Gujarat,Gandhinagar,"Sector-10, Gandhinagar - GPCB",04-02-2024 19:00:00,23.221714,72.654328,PM2.5,25,76,54
India,Gujarat,Gandhinagar,"Sector-10, Gandhinagar - GPCB",04-02-2024 19:00:00,23.221714,72.654328,NO2,9,13,10
India,Gujarat,Vapi,"Phase-1 GIDC, Vapi - GPCB",04-02-2024 19:00:00,20.362421,72.918013,PM10,95,275,169
India,Gujarat,Vatva,"Phase-4 GIDC, Vatva - GPCB",04-02-2024 19:00:00,22.969611,72.643500,NH3,1,2,1
India,Haryana,Bahadurgarh,"Arya Nagar, Bahadurgarh - HSPCB",04-02-2024 19:00:00,28.6701,76.9254,PM2.5,87,276,186
India,Haryana,Bahadurgarh,"Arya Nagar, Bahadurgarh - HSPCB",04-02-2024 19:00:00,28.6701,76.9254,SO2,14,28,17
India,Haryana,Bahadurgarh,"Arya Nagar, Bahadurgarh - HSPCB",04-02-2024 19:00:00,28.6701,76.9254,OZONE,41,52,44
India,Haryana,Ballabgarh,"Nathu Colony, Ballabgarh - HSPCB",04-02-2024 19:00:00,28.3419248,77.319699,NO2,12,14,13
India,Haryana,Bhiwani,"H.B. Colony, Bhiwani - HSPCB",04-02-2024 19:00:00,28.806223,76.141105,PM10,48,82,68
India,Haryana,Bhiwani,"H.B. Colony, Bhiwani - HSPCB",04-02-2024 19:00:00,28.806223,76.141105,NO2,7,12,9
India,Haryana,Dharuhera,"Municipal Corporation Office, Dharuhera -  HSPCB",04-02-2024 19:00:00,28.206800,76.799700,CO,101,102,101
India,Haryana,Dharuhera,"Municipal Corporation Office, Dharuhera -  HSPCB",04-02-2024 19:00:00,28.206800,76.799700,OZONE,12,45,33
India,Haryana,Faridabad,"Sector 11, Faridabad - HSPCB",04-02-2024 19:00:00,28.376058,77.315741,PM2.5,91,309,185
India,Haryana,Faridabad,"Sector 11, Faridabad - HSPCB",04-02-2024 19:00:00,28.376058,77.315741,NO2,30,32,31
India,Haryana,Faridabad,"Sector 11, Faridabad - HSPCB",04-02-2024 19:00:00,28.376058,77.315741,SO2,8,21,12
India,Haryana,Faridabad,"Sector 11, Faridabad - HSPCB",04-02-2024 19:00:00,28.376058,77.315741,CO,40,102,45
India,Haryana,Faridabad,"Sector 30, Faridabad - HSPCB",04-02-2024 19:00:00,28.4417,77.3217,PM10,129,147,137
India,Haryana,Faridabad,"Sector- 16A, Faridabad - HSPCB",04-02-2024 19:00:00,28.4088421,77.3099081,NO2,23,84,52
India,Haryana,Fatehabad,"Huda Sector, Fatehabad - HSPCB",04-02-2024 19:00:00,29.503664,75.467934,PM2.5,NA,NA,NA
India,Haryana,Fatehabad,"Huda Sector, Fatehabad - HSPCB",04-02-2024 19:00:00,29.503664,75.467934,PM10,NA,NA,NA
India,Haryana,Fatehabad,"Huda Sector, Fatehabad - HSPCB",04-02-2024 19:00:00,29.503664,75.467934,SO2,NA,NA,NA
India,Haryana,Fatehabad,"Huda Sector, Fatehabad - HSPCB",04-02-2024 19:00:00,29.503664,75.467934,CO,NA,NA,NA
India,Haryana,Gurugram,"NISE Gwal Pahari, Gurugram - IMD",04-02-2024 19:00:00,28.422681,77.148944,PM2.5,41,307,175
India,Haryana,Gurugram,"NISE Gwal Pahari, Gurugram - IMD",04-02-2024 19:00:00,28.422681,77.148944,OZONE,1,35,24
India,Haryana,Gurugram,"Sector-51, Gurugram - HSPCB",04-02-2024 19:00:00,28.4227,77.0667,PM2.5,17,446,336
India,Haryana,Gurugram,"Sector-51, Gurugram - HSPCB",04-02-2024 19:00:00,28.4227,77.0667,OZONE,27,56,56
India,Haryana,Gurugram,"Teri Gram, Gurugram - HSPCB",04-02-2024 19:00:00,28.4275,77.1465,OZONE,10,24,10
India,Haryana,Hisar,"Urban Estate-II, Hisar - HSPCB",04-02-2024 19:00:00,29.140560,75.744941,NO2,5,21,9
India,Haryana,Hisar,"Urban Estate-II, Hisar - HSPCB",04-02-2024 19:00:00,29.140560,75.744941,OZONE,22,67,50
India,Haryana,Jind,"Police Lines, Jind - HSPCB",04-02-2024 19:00:00,29.307814,76.337619,NO2,8,18,13
India,Haryana,Jind,"Police Lines, Jind - HSPCB",04-02-2024 19:00:00,29.307814,76.337619,SO2,3,9,6
India,Haryana,Jind,"Police Lines, Jind - HSPCB",04-02-2024 19:00:00,29.307814,76.337619,OZONE,1,18,15
India,Haryana,Kaithal,"Rishi Nagar, Kaithal - HSPCB",04-02-2024 19:00:00,29.8006,76.4155,PM2.5,62,168,90
India,Haryana,Kaithal,"Rishi Nagar, Kaithal - HSPCB",04-02-2024 19:00:00,29.8006,76.4155,CO,10,44,14
India,Haryana,Karnal,"Sector-12, Karnal - HSPCB",04-02-2024 19:00:00,29.695300,77.002700,CO,24,56,30
India,Haryana,Kurukshetra,"Sector-7, Kurukshetra - HSPCB",04-02-2024 19:00:00,29.966942,76.875879,SO2,1,57,19
India,Haryana,Kurukshetra,"Sector-7, Kurukshetra - HSPCB",04-02-2024 19:00:00,29.966942,76.875879,OZONE,3,42,34
India,Haryana,Mandikhera,"General Hospital, Mandikhera - HSPCB",04-02-2024 19:00:00,27.9002,76.9938,CO,30,54,34
India,Haryana,Narnaul,"Shastri Nagar, Narnaul - HSPCB",04-02-2024 19:00:00,28.060249,76.113115,NO2,16,58,37
India,Haryana,Narnaul,"Shastri Nagar, Narnaul - HSPCB",04-02-2024 19:00:00,28.060249,76.113115,CO,6,28,13
India,Haryana,Palwal,"Shyam Nagar, Palwal - HSPCB",04-02-2024 19:00:00,28.1485564,77.3320667,PM2.5,NA,NA,NA
India,Haryana,Palwal,"Shyam Nagar, Palwal - HSPCB",04-02-2024 19:00:00,28.1485564,77.3320667,OZONE,2,43,13
India,Haryana,Panipat,"Sector-18, Panipat - HSPCB",04-02-2024 19:00:00,29.497973,76.993331,NO2,27,31,30
India,Haryana,Panipat,"Sector-18, Panipat - HSPCB",04-02-2024 19:00:00,29.497973,76.993331,SO2,12,13,12
India,Haryana,Panipat,"Sector-18, Panipat - HSPCB",04-02-2024 19:00:00,29.497973,76.993331,CO,22,26,25
India,Haryana,Rohtak,"MD University, Rohtak - HSPCB",04-02-2024 19:00:00,28.52123,76.37138,PM2.5,66,188,115
India,Haryana,Rohtak,"MD University, Rohtak - HSPCB",04-02-2024 19:00:00,28.52123,76.37138,OZONE,46,55,50
India,Haryana,Sirsa,"F-Block, Sirsa - HSPCB",04-02-2024 19:00:00,29.536400,75.015800,NH3,10,13,13
India,Haryana,Sirsa,"F-Block, Sirsa - HSPCB",04-02-2024 19:00:00,29.536400,75.015800,OZONE,17,32,22
India,Haryana,Yamuna Nagar,"Gobind Pura, Yamuna Nagar - HSPCB",04-02-2024 19:00:00,30.1480566,77.2893471,PM2.5,1,355,95
India,Haryana,Yamuna Nagar,"Gobind Pura, Yamuna Nagar - HSPCB",04-02-2024 19:00:00,30.1480566,77.2893471,NO2,3,5,5
India,Haryana,Yamuna Nagar,"Gobind Pura, Yamuna Nagar - HSPCB",04-02-2024 19:00:00,30.1480566,77.2893471,SO2,2,100,16
India,Himachal Pradesh,Baddi,"HIMUDA Complex Phase-1, Baddi - HPPCB",04-02-2024 19:00:00,30.943887,76.801991,CO,10,28,16
India,Jharkhand,Dhanbad,"Kalakusuma, Dhanbad - DMC",04-02-2024 19:00:00,23.811548,86.481238,PM2.5,NA,NA,NA
India,Jharkhand,Dhanbad,"Kalakusuma, Dhanbad - DMC",04-02-2024 19:00:00,23.811548,86.481238,OZONE,33,44,37
India,Karnataka,Bagalkot,"Vidayagiri, Bagalkot - KSPCB",04-02-2024 19:00:00,16.172806,75.659694,NH3,1,2,1
India,Karnataka,Bagalkot,"Vidayagiri, Bagalkot - KSPCB",04-02-2024 19:00:00,16.172806,75.659694,SO2,9,10,9
India,Karnataka,Bagalkot,"Vidayagiri, Bagalkot - KSPCB",04-02-2024 19:00:00,16.172806,75.659694,OZONE,16,34,30
India,Karnataka,Belgaum,"Ramteerth Nagar, Belgaum - KSPCB",04-02-2024 19:00:00,15.888653,74.541751,NO2,26,34,29
India,Karnataka,Bengaluru,"Bapuji Nagar, Bengaluru - KSPCB",04-02-2024 19:00:00,12.951913,77.539784,NH3,1,1,1
India,Karnataka,Bengaluru,"Bapuji Nagar, Bengaluru - KSPCB",04-02-2024 19:00:00,12.951913,77.539784,OZONE,11,12,12
India,Karnataka,Bengaluru,"Hebbal, Bengaluru - KSPCB",04-02-2024 19:00:00,13.029152,77.585901,CO,4,50,25
India,Karnataka,Bengaluru,"Hombegowda Nagar, Bengaluru - KSPCB",04-02-2024 19:00:00,12.938539,77.590100,SO2,4,5,4
India,Karnataka,Bengaluru,"Jigani, Bengaluru - KSPCB",04-02-2024 19:00:00,12.7816279,77.6299145,OZONE,30,81,72
India,Karnataka,Bengaluru,"Kasturi Nagar, Bengaluru - KSPCB",04-02-2024 19:00:00,13.003872,77.664217,PM10,81,156,124
India,Karnataka,Bengaluru,"RVCE-Mailasandra, Bengaluru - KSPCB",04-02-2024 19:00:00,12.921418,77.502466,PM10,119,154,133
India,Karnataka,Bengaluru,"RVCE-Mailasandra, Bengaluru - KSPCB",04-02-2024 19:00:00,12.921418,77.502466,NO2,31,31,31
India,Karnataka,Bengaluru,"RVCE-Mailasandra, Bengaluru - KSPCB",04-02-2024 19:00:00,12.921418,77.502466,SO2,4,5,4
India,Karnataka,Bengaluru,"Sanegurava Halli, Bengaluru - KSPCB",04-02-2024 19:00:00,12.990328,77.5431385,PM10,NA,NA,NA
India,Karnataka,Bengaluru,"Silk Board, Bengaluru - KSPCB",04-02-2024 19:00:00,12.917348,77.622813,NO2,20,26,22
India,Karnataka,Bidar,"Naubad, Bidar - KSPCB",04-02-2024 19:00:00,17.930306,77.482194,PM2.5,85,174,111
India,Karnataka,Bidar,"Naubad, Bidar - KSPCB",04-02-2024 19:00:00,17.930306,77.482194,NO2,7,9,8
India,Karnataka,Chikkaballapur,"Chikkaballapur Rural, Chikkaballapur - KSPCB",04-02-2024 19:00:00,13.428828,77.731418,NO2,9,22,11
India,Karnataka,Chikkaballapur,"Chikkaballapur Rural, Chikkaballapur - KSPCB",04-02-2024 19:00:00,13.428828,77.731418,CO,8,10,10
India,Karnataka,Davanagere,"Devaraj Urs Badavane, Davanagere - KSPCB",04-02-2024 19:00:00,14.475800,75.905200,PM10,49,101,72
India,Karnataka,Dharwad,"Kalabhavan, Dharwad - KSPCB",04-02-2024 19:00:00,15.459706,75.008381,NO2,5,35,25
India,Karnataka,Dharwad,"Kalabhavan, Dharwad - KSPCB",04-02-2024 19:00:00,15.459706,75.008381,SO2,5,12,7
India,Karnataka,Dharwad,"Kalabhavan, Dharwad - KSPCB",04-02-2024 19:00:00,15.459706,75.008381,OZONE,2,39,29
India,Karnataka,Gadag,"Panchal Nagar, Gadag - KSPCB",04-02-2024 19:00:00,15.411456,75.638133,NH3,2,3,2
India,Karnataka,Hubballi,"Lingaraj Nagar, Hubballi - KSPCB",04-02-2024 19:00:00,15.3714823,75.1160168,PM10,46,60,52
India,Karnataka,Hubballi,"Lingaraj Nagar, Hubballi - KSPCB",04-02-2024 19:00:00,15.3714823,75.1160168,OZONE,5,41,38
India,Karnataka,Kalaburagi,"Lal Bahadur Shastri Nagar, Kalaburagi - KSPCB",04-02-2024 19:00:00,17.321993,76.822628,NO2,NA,NA,NA
India,Karnataka,Kalaburagi,"Lal Bahadur Shastri Nagar, Kalaburagi - KSPCB",04-02-2024 19:00:00,17.321993,76.822628,NH3,NA,NA,NA
India,Karnataka,Kalaburagi,"Mahatma Basaveswar Colony, Kalaburgi - KSPCB",04-02-2024 19:00:00,17.336318,76.847397,NH3,2,3,3
India,Karnataka,Kalaburagi,"Mahatma Basaveswar Colony, Kalaburgi - KSPCB",04-02-2024 19:00:00,17.336318,76.847397,CO,36,68,39
India,Karnataka,Kalaburagi,"Mahatma Basaveswar Colony, Kalaburgi - KSPCB",04-02-2024 19:00:00,17.336318,76.847397,OZONE,8,29,24
India,Karnataka,Karwar,"KHB Colony, Karwar - KSPCB",04-02-2024 19:00:00,14.816666,74.141003,SO2,18,18,18
India,Karnataka,Karwar,"KHB Colony, Karwar - KSPCB",04-02-2024 19:00:00,14.816666,74.141003,OZONE,21,22,21
India,Karnataka,Kolar,"Tamaka Ind. Area, Kolar - KSPCB",04-02-2024 19:00:00,13.1276288,78.1570122,NO2,NA,NA,NA
India,Karnataka,Koppal,"Diwator Nagar, Koppal - KSPCB",04-02-2024 19:00:00,15.347630,76.181767,PM2.5,33,80,44
India,Karnataka,Koppal,"Diwator Nagar, Koppal - KSPCB",04-02-2024 19:00:00,15.347630,76.181767,NO2,2,20,8
India,Karnataka,Koppal,"Diwator Nagar, Koppal - KSPCB",04-02-2024 19:00:00,15.347630,76.181767,CO,102,119,105
India,Karnataka,Madikeri,"Stuart Hill, Madikeri - KSPCB",04-02-2024 19:00:00,12.415911,75.735050,NH3,1,1,1
India,Karnataka,Madikeri,"Stuart Hill, Madikeri - KSPCB",04-02-2024 19:00:00,12.415911,75.735050,SO2,4,4,4
India,Karnataka,Mangalore,"Kadri, Mangalore - KSPCB",04-02-2024 19:00:00,12.889250,74.853000,PM10,27,61,38
India,Karnataka,Mangalore,"Kadri, Mangalore - KSPCB",04-02-2024 19:00:00,12.889250,74.853000,CO,28,46,30
India,Karnataka,Mysuru,"Hebbal 1st Stage, Mysuru - KSPCB",04-02-2024 19:00:00,12.21041,76.37376,OZONE,5,86,65
India,Karnataka,Ramanagara,"Vijay Nagar, Ramanagara - KSPCB",04-02-2024 19:00:00,12.733409,77.298051,NO2,2,8,5
India,Karnataka,Shivamogga,"Vinoba Nagara, Shivamogga - KSPCB",04-02-2024 19:00:00,13.940000,75.555917,CO,8,37,20
India,Karnataka,Udupi,"Brahmagiri, Udupi - KSPCB",04-02-2024 19:00:00,13.34194444,74.74694444,NO2,13,14,14
India,Karnataka,Vijayapura,"Ibrahimpur, Vijayapura - KSPCB",04-02-2024 19:00:00,16.802639,75.722694,PM10,38,40,39
India,Karnataka,Vijayapura,"Ibrahimpur, Vijayapura - KSPCB",04-02-2024 19:00:00,16.802639,75.722694,SO2,1,2,1
India,Karnataka,Yadgir,"Collector Office, Yadgir - KSPCB",04-02-2024 19:00:00,16.7602,77.1428,PM10,NA,NA,NA
India,Karnataka,Yadgir,"Collector Office, Yadgir - KSPCB",04-02-2024 19:00:00,16.7602,77.1428,OZONE,NA,NA,NA
India,Kerala,Eloor,"Udyogamandal, Eloor - Kerala PCB",04-02-2024 19:00:00,10.073232,76.302765,NH3,1,1,1
India,Kerala,Eloor,"Udyogamandal, Eloor - Kerala PCB",04-02-2024 19:00:00,10.073232,76.302765,CO,9,103,71
India,Kerala,Kochi,"Vyttila, Kochi - Kerala PCB",04-02-2024 19:00:00,9.969447,76.321186,PM10,44,267,94
India,Kerala,Kochi,"Vyttila, Kochi - Kerala PCB",04-02-2024 19:00:00,9.969447,76.321186,NH3,3,3,3
India,Kerala,Kollam,"Polayathode, Kollam - Kerala PCB",04-02-2024 19:00:00,8.8787,76.6073,PM10,52,108,79
India,Kerala,Kollam,"Polayathode, Kollam - Kerala PCB",04-02-2024 19:00:00,8.8787,76.6073,NO2,8,9,8
India,Kerala,Kollam,"Polayathode, Kollam - Kerala PCB",04-02-2024 19:00:00,8.8787,76.6073,NH3,1,1,1
India,Kerala,Kollam,"Polayathode, Kollam - Kerala PCB",04-02-2024 19:00:00,8.8787,76.6073,CO,10,33,22
India,Kerala,Thiruvananthapuram,"Kariavattom, Thiruvananthapuram - Kerala PCB",04-02-2024 19:00:00,8.563700,76.886500,PM10,72,86,80
India,Kerala,Thrissur,"Corporation Ground, Thrissur - Kerala PCB",04-02-2024 19:00:00,10.532400,76.215900,PM2.5,47,54,51
India,Kerala,Thrissur,"Corporation Ground, Thrissur - Kerala PCB",04-02-2024 19:00:00,10.532400,76.215900,NO2,9,11,10
India,Kerala,Thrissur,"Corporation Ground, Thrissur - Kerala PCB",04-02-2024 19:00:00,10.532400,76.215900,SO2,1,82,23
India,Kerala,Thrissur,"Corporation Ground, Thrissur - Kerala PCB",04-02-2024 19:00:00,10.532400,76.215900,CO,14,40,21
India,Madhya Pradesh,Bhopal,"Idgah Hills, Bhopal - MPPCB",04-02-2024 19:00:00,23.264759,77.381568,NH3,2,4,4
