country,state,city,station,last_update,latitude,longitude,pollutant_id,pollutant_min,pollutant_max,pollutant_avg
India,Andhra_Pradesh,Amaravati,"Secretariat, Amaravati - APPCB",24-02-2024 09:00:00,16.5150833,80.5181667,NH3,4,5,4
India,Andhra_Pradesh,Amaravati,"Secretariat, Amaravati - APPCB",24-02-2024 09:00:00,16.5150833,80.5181667,SO2,10,16,13
India,Andhra_Pradesh,Chittoor,"Gangineni Cheruvu, Chittoor - APPCB",24-02-2024 09:00:00,13.204880,79.097889,OZONE,30,146,34
India,Andhra_Pradesh,Kadapa,"Yerramukkapalli, Kadapa - APPCB",24-02-2024 09:00:00,14.465052,78.824187,PM10,35,73,59
India,Andhra_Pradesh,Rajamahendravaram,"Anand Kala Kshetram, Rajamahendravaram - APPCB",24-02-2024 09:00:00,16.9872867,81.7363176,CO,NA,NA,NA
India,Andhra_Pradesh,Tirupati,"Tirumala, Tirupati - APPCB",24-02-2024 09:00:00,13.67,79.35,PM2.5,61,132,81
India,Andhra_Pradesh,Tirupati,"Tirumala, Tirupati - APPCB",24-02-2024 09:00:00,13.67,79.35,NO2,16,46,30
India,Andhra_Pradesh,Tirupati,"Vaikuntapuram, Tirupati - APPCB",24-02-2024 09:00:00,13.615387,79.409230,PM2.5,19,332,77
India,Andhra_Pradesh,Tirupati,"Vaikuntapuram, Tirupati - APPCB",24-02-2024 09:00:00,13.615387,79.409230,SO2,4,5,5
India,Andhra_Pradesh,Vijayawada,"HB Colony, Vijayawada - APPCB",24-02-2024 09:00:00,16.536107,80.594233,PM2.5,51,69,58
India,Andhra_Pradesh,Vijayawada,"HB Colony, Vijayawada - APPCB",24-02-2024 09:00:00,16.536107,80.594233,NH3,4,5,4
India,Andhra_Pradesh,Vijayawada,"Kanuru, Vijayawada - APPCB",24-02-2024 09:00:00,16.486692,80.699436,PM10,63,76,69
India,Andhra_Pradesh,Vijayawada,"Rajiv Gandhi Park, Vijayawada - APPCB",24-02-2024 09:00:00,16.509717,80.612222,PM10,40,83,54
India,Andhra_Pradesh,Vijayawada,"Rajiv Nagar, Vijayawada - APPCB",24-02-2024 09:00:00,16.554731,80.649110,PM2.5,27,257,103
India,Andhra_Pradesh,Vijayawada,"Rajiv Nagar, Vijayawada - APPCB",24-02-2024 09:00:00,16.554731,80.649110,PM10,29,150,89
India,Andhra_Pradesh,Vijayawada,"Rajiv Nagar, Vijayawada - APPCB",24-02-2024 09:00:00,16.554731,80.649110,NO2,12,38,20
India,Andhra_Pradesh,Visakhapatnam,"GVM Corporation, Visakhapatnam - APPCB",24-02-2024 09:00:00,17.72,83.3,CO,8,76,19
India,Andhra_Pradesh,Visakhapatnam,"GVM Corporation, Visakhapatnam - APPCB",24-02-2024 09:00:00,17.72,83.3,OZONE,10,213,12
India,Arunachal_Pradesh,Naharlagun,"Naharlagun, Naharlagun - APSPCB",24-02-2024 09:00:00,27.103358,93.679645,NO2,2,3,3
India,Arunachal_Pradesh,Naharlagun,"Naharlagun, Naharlagun - APSPCB",24-02-2024 09:00:00,27.103358,93.679645,SO2,3,4,4
India,Arunachal_Pradesh,Naharlagun,"Naharlagun, Naharlagun - APSPCB",24-02-2024 09:00:00,27.103358,93.679645,OZONE,2,2,2
India,Assam,Guwahati,"LGBI Airport, Guwahati - PCBA",24-02-2024 09:00:00,26.10887,91.589544,NO2,NA,NA,NA
India,Assam,Guwahati,"Pan Bazaar, Guwahati - PCBA",24-02-2024 09:00:00,26.187500,91.744194,PM2.5,67,322,158
India,Assam,Guwahati,"Pan Bazaar, Guwahati - PCBA",24-02-2024 09:00:00,26.187500,91.744194,PM10,84,309,144
India,Assam,Guwahati,"Pan Bazaar, Guwahati - PCBA",24-02-2024 09:00:00,26.187500,91.744194,NH3,4,6,5
India,Assam,Nagaon,"Christianpatty, Nagaon - PCBA",24-02-2024 09:00:00,26.349082,92.68449,NO2,12,86,24
India,Assam,Nagaon,"Christianpatty, Nagaon - PCBA",24-02-2024 09:00:00,26.349082,92.68449,SO2,1,138,78
India,Assam,Nalbari,"Bata Chowk, Nalbari - PCBA",24-02-2024 09:00:00,26.446912,91.439057,PM10,87,310,139
India,Assam,Silchar,"Tarapur, Silchar - PCBA",24-02-2024 09:00:00,24.82827,92.79525,NH3,1,1,1
India,Assam,Silchar,"Tarapur, Silchar - PCBA",24-02-2024 09:00:00,24.82827,92.79525,SO2,3,9,4
India,Assam,Sivasagar,"Girls College, Sivasagar - PCBA",24-02-2024 09:00:00,26.987634,94.636574,NH3,3,3,3
India,Bihar,Araria,"Kharahiya Basti, Araria - BSPCB",24-02-2024 09:00:00,26.146529,87.454184,PM10,111,220,154
India,Bihar,Araria,"Kharahiya Basti, Araria - BSPCB",24-02-2024 09:00:00,26.146529,87.454184,NO2,6,7,7
India,Bihar,Araria,"Kharahiya Basti, Araria - BSPCB",24-02-2024 09:00:00,26.146529,87.454184,NH3,8,10,9
India,Bihar,Arrah,"New DM Office, Arrah - BSPCB",24-02-2024 09:00:00,25.5626095,84.663264,SO2,16,20,18
India,Bihar,Arrah,"New DM Office, Arrah - BSPCB",24-02-2024 09:00:00,25.5626095,84.663264,CO,6,19,10
India,Bihar,Aurangabad,"Gurdeo Nagar, Aurangabad - BSPCB",24-02-2024 09:00:00,24.75746,84.366208,NH3,6,9,8
India,Bihar,Bettiah,"Kamalnath Nagar, Bettiah - BSPCB",24-02-2024 09:00:00,26.80365,84.51954,NH3,3,4,3
India,Bihar,Bettiah,"Kamalnath Nagar, Bettiah - BSPCB",24-02-2024 09:00:00,26.80365,84.51954,OZONE,1,7,4
India,Bihar,Bhagalpur,"DM Office_Kachari Chowk, Bhagalpur - BSPCB",24-02-2024 09:00:00,25.251013,86.989001,PM10,98,203,131
India,Bihar,Bhagalpur,"DM Office_Kachari Chowk, Bhagalpur - BSPCB",24-02-2024 09:00:00,25.251013,86.989001,CO,20,69,26
India,Bihar,Bhagalpur,"Mayaganj, Bhagalpur - BSPCB",24-02-2024 09:00:00,25.265194,87.012947,SO2,3,13,11
India,Bihar,Bhagalpur,"Mayaganj, Bhagalpur - BSPCB",24-02-2024 09:00:00,25.265194,87.012947,CO,8,10,9
India,Bihar,Bihar Sharif,"D M Colony, Bihar Sharif - BSPCB",24-02-2024 09:00:00,25.204762,85.514960,NO2,9,10,10
India,Bihar,Buxar,"Charitra Van, Buxar - BSPCB (Formerly known as Central Jail)",24-02-2024 09:00:00,25.567520,83.966379,SO2,NA,NA,NA
India,Bihar,Gaya,"Collectorate, Gaya - BSPCB",24-02-2024 09:00:00,24.7955,84.9994,NO2,1,4,2
India,Bihar,Gaya,"Kareemganj, Gaya - BSPCB",24-02-2024 09:00:00,24.792403,84.992416,PM2.5,5,307,104
India,Bihar,Gaya,"Kareemganj, Gaya - BSPCB",24-02-2024 09:00:00,24.792403,84.992416,CO,12,107,44
India,Bihar,Hajipur,"Industrial Area, Hajipur - BSPCB",24-02-2024 09:00:00,25.697189,85.245900,NH3,6,13,10
India,Bihar,Hajipur,"Industrial Area, Hajipur - BSPCB",24-02-2024 09:00:00,25.697189,85.245900,OZONE,6,49,7
India,Bihar,Manguraha,"Forest Rest House, Manguraha - BSPCB",24-02-2024 09:00:00,27.308328,84.531742,PM10,NA,NA,NA
India,Bihar,Manguraha,"Forest Rest House, Manguraha - BSPCB",24-02-2024 09:00:00,27.308328,84.531742,NO2,5,14,9
India,Bihar,Motihari,"Gandak Colony, Motihari - BSPCB",24-02-2024 09:00:00,26.63086,84.90051,PM2.5,43,177,100
India,Bihar,Motihari,"Gandak Colony, Motihari - BSPCB",24-02-2024 09:00:00,26.63086,84.90051,NO2,27,72,54
India,Bihar,Motihari,"Gandak Colony, Motihari - BSPCB",24-02-2024 09:00:00,26.63086,84.90051,OZONE,32,163,60
India,Bihar,Munger,"Town Hall, Munger - BSPCB",24-02-2024 09:00:00,25.376776,86.471523,PM10,36,227,105
India,Bihar,Munger,"Town Hall, Munger - BSPCB",24-02-2024 09:00:00,25.376776,86.471523,SO2,29,57,41
India,Bihar,Muzaffarpur,"Buddha Colony, Muzaffarpur - BSPCB",24-02-2024 09:00:00,26.11442,85.39813,OZONE,42,73,53
India,Bihar,Muzaffarpur,"MIT-Daudpur Kothi, Muzaffarpur - BSPCB",24-02-2024 09:00:00,26.1403345,85.3650192,PM2.5,43,157,84
India,Bihar,Muzaffarpur,"Muzaffarpur Collectorate, Muzaffarpur - BSPCB",24-02-2024 09:00:00,26.1209,85.3647,NO2,4,12,9
India,Bihar,Patna,"DRM Office Danapur, Patna - BSPCB",24-02-2024 09:00:00,25.586562,85.043586,SO2,6,8,7
India,Bihar,Patna,"Govt. High School Shikarpur, Patna - BSPCB",24-02-2024 09:00:00,25.592539,85.227158,NO2,23,26,24
India,Bihar,Patna,"Govt. High School Shikarpur, Patna - BSPCB",24-02-2024 09:00:00,25.592539,85.227158,NH3,4,4,4
India,Bihar,Patna,"IGSC Planetarium Complex, Patna - BSPCB",24-02-2024 09:00:00,25.610369,85.132568,PM2.5,42,123,76
India,Bihar,Patna,"IGSC Planetarium Complex, Patna - BSPCB",24-02-2024 09:00:00,25.610369,85.132568,NO2,12,12,12
India,Bihar,Patna,"Muradpur, Patna - BSPCB",24-02-2024 09:00:00,25.619651,85.147382,PM2.5,50,226,141
India,Bihar,Patna,"Samanpura, Patna - BSPCB",24-02-2024 09:00:00,25.596727,85.085624,NO2,50,92,68
India,Bihar,Patna,"Samanpura, Patna - BSPCB",24-02-2024 09:00:00,25.596727,85.085624,OZONE,16,37,26
India,Bihar,Purnia,"Mariam Nagar, Purnia - BSPCB",24-02-2024 09:00:00,25.366336,87.117468,PM2.5,52,197,104
India,Bihar,Purnia,"Mariam Nagar, Purnia - BSPCB",24-02-2024 09:00:00,25.366336,87.117468,PM10,85,129,105
India,Bihar,Rajgir,"Dangi Tola, Rajgir - BSPCB",24-02-2024 09:00:00,25.03280,85.41948,CO,10,11,10
India,Bihar,Saharsa,"Police Line, Saharsa - BSPCB",24-02-2024 09:00:00,25.892357,86.590325,PM2.5,35,140,89
India,Bihar,Samastipur,"DM Office_Kasipur, Samastipur - BSPCB",24-02-2024 09:00:00,25.859655,85.77944,SO2,2,13,8
India,Bihar,Sasaram,"Dada Peer, Sasaram - BSPCB",24-02-2024 09:00:00,24.952822,84.002396,NO2,11,30,20
India,Bihar,Sasaram,"Dada Peer, Sasaram - BSPCB",24-02-2024 09:00:00,24.952822,84.002396,NH3,8,17,11
India,Bihar,Siwan,"Chitragupta Nagar, Siwan - BSPCB",24-02-2024 09:00:00,26.2271665,84.3570427,OZONE,16,70,37
India,Chandigarh,Chandigarh,"Sector 22, Chandigarh - CPCC",24-02-2024 09:00:00,30.735567,76.775714,PM2.5,18,177,91
India,Chandigarh,Chandigarh,"Sector-53, Chandigarh - CPCC",24-02-2024 09:00:00,30.719859,76.738637,PM2.5,22,336,163
India,Chandigarh,Chandigarh,"Sector-53, Chandigarh - CPCC",24-02-2024 09:00:00,30.719859,76.738637,NO2,29,115,61
India,Chhattisgarh,Bhilai,"32Bungalows, Bhilai - CECB",24-02-2024 09:00:00,21.194815,81.314770,CO,18,40,30
India,Chhattisgarh,Bhilai,"Civic Center, Bhilai - Bhilai Steel Plant",24-02-2024 09:00:00,21.185571,81.343175,NH3,2,2,2
India,Chhattisgarh,Bhilai,"Hathkhoj, Bhilai - CECB",24-02-2024 09:00:00,21.224231,81.408350,NH3,8,9,8
India,Chhattisgarh,Bilaspur,"Mangala, Bilaspur - NTPC",24-02-2024 09:00:00,22.08815,82.13737,PM2.5,23,86,49
India,Chhattisgarh,Bilaspur,"Mangala, Bilaspur - NTPC",24-02-2024 09:00:00,22.08815,82.13737,SO2,2,25,10
India,Chhattisgarh,Chhal,"Nawapara SECL Colony, Chhal - CECB",24-02-2024 09:00:00,22.118125,83.140608,SO2,11,21,14
India,Chhattisgarh,Chhal,"Nawapara SECL Colony, Chhal - CECB",24-02-2024 09:00:00,22.118125,83.140608,OZONE,4,58,10
India,Chhattisgarh,Korba,"Rampur, Korba - CECB",24-02-2024 09:00:00,22.368195,82.746431,SO2,6,17,10
India,Chhattisgarh,Korba,"Rampur, Korba - CECB",24-02-2024 09:00:00,22.368195,82.746431,CO,18,26,20
India,Chhattisgarh,Korba,"Urja Nagar, Korba - CECB",24-02-2024 09:00:00,22.348441,82.549611,OZONE,1,1,1
India,Chhattisgarh,Kunjemura,"OP Jindal School, Kunjemura - CECB",24-02-2024 09:00:00,22.126650,83.483212,NO2,8,106,39
India,Chhattisgarh,Raipur,"AIIMS, Raipur - CECB",24-02-2024 09:00:00,21.258815,81.578979,SO2,8,78,17
India,Chhattisgarh,Raipur,"Bhatagaon New ISBT, Raipur - CECB",24-02-2024 09:00:00,21.219665,81.630094,NO2,60,74,67
India,Chhattisgarh,Raipur,"Siltara Phase-II, Raipur - CECB",24-02-2024 09:00:00,21.371751,81.664929,PM10,NA,NA,NA
India,Chhattisgarh,Raipur,"Siltara Phase-II, Raipur - CECB",24-02-2024 09:00:00,21.371751,81.664929,OZONE,NA,NA,NA
India,Delhi,Delhi,"Alipur, Delhi - DPCC",24-02-2024 09:00:00,28.815329,77.153010,PM2.5,29,284,121
India,Delhi,Delhi,"Alipur, Delhi - DPCC",24-02-2024 09:00:00,28.815329,77.153010,CO,28,78,64
India,Delhi,Delhi,"Alipur, Delhi - DPCC",24-02-2024 09:00:00,28.815329,77.153010,OZONE,3,128,7
India,Delhi,Delhi,"Anand Vihar, Delhi - DPCC",24-02-2024 09:00:00,28.647622,77.3158090,PM2.5,12,364,184
India,Delhi,Delhi,"Anand Vihar, Delhi - DPCC",24-02-2024 09:00:00,28.647622,77.3158090,NO2,65,260,143
India,Delhi,Delhi,"Anand Vihar, Delhi - DPCC",24-02-2024 09:00:00,28.647622,77.3158090,NH3,2,17,7
India,Delhi,Delhi,"Anand Vihar, Delhi - DPCC",24-02-2024 09:00:00,28.647622,77.3158090,SO2,28,61,39
India,Delhi,Delhi,"Anand Vihar, Delhi - DPCC",24-02-2024 09:00:00,28.647622,77.3158090,CO,62,122,107
India,Delhi,Delhi,"Anand Vihar, Delhi - DPCC",24-02-2024 09:00:00,28.647622,77.3158090,OZONE,18,24,19
India,Delhi,Delhi,"Ashok Vihar, Delhi - DPCC",24-02-2024 09:00:00,28.695381,77.181665,NO2,15,121,68
India,Delhi,Delhi,"Aya Nagar, Delhi - IMD",24-02-2024 09:00:00,28.4706914,77.1099364,NO2,NA,NA,NA
India,Delhi,Delhi,"Bawana, Delhi - DPCC",24-02-2024 09:00:00,28.776200,77.051074,PM2.5,50,394,200
India,Delhi,Delhi,"Burari Crossing, Delhi - IMD",24-02-2024 09:00:00,28.7256504,77.2011573,NO2,2,15,5
India,Delhi,Delhi,"CRRI Mathura Road, Delhi - IMD",24-02-2024 09:00:00,28.5512005,77.2735737,PM10,70,260,151
India,Delhi,Delhi,"Chandni Chowk, Delhi - IITM",24-02-2024 09:00:00,28.656756,77.227234,PM10,9,500,163
India,Delhi,Delhi,"Dr. Karni Singh Shooting Range, Delhi - DPCC",24-02-2024 09:00:00,28.498571,77.264840,NO2,37,147,91
India,Delhi,Delhi,"Dr. Karni Singh Shooting Range, Delhi - DPCC",24-02-2024 09:00:00,28.498571,77.264840,SO2,4,16,8
India,Delhi,Delhi,"IHBAS, Dilshad Garden, Delhi - CPCB",24-02-2024 09:00:00,28.6811736,77.3025234,NO2,15,43,32
India,Delhi,Delhi,"IHBAS, Dilshad Garden, Delhi - CPCB",24-02-2024 09:00:00,28.6811736,77.3025234,NH3,8,15,12
India,Delhi,Delhi,"Jahangirpuri, Delhi - DPCC",24-02-2024 09:00:00,28.732820,77.170633,PM10,104,418,223
India,Delhi,Delhi,"Jahangirpuri, Delhi - DPCC",24-02-2024 09:00:00,28.732820,77.170633,NO2,28,108,76
India,Delhi,Delhi,"Jahangirpuri, Delhi - DPCC",24-02-2024 09:00:00,28.732820,77.170633,OZONE,3,47,5
India,Delhi,Delhi,"Jawaharlal Nehru Stadium, Delhi - DPCC",24-02-2024 09:00:00,28.580280,77.233829,SO2,1,28,13
India,Delhi,Delhi,"Lodhi Road, Delhi - IITM",24-02-2024 09:00:00,28.588333,77.221667,PM2.5,NA,NA,NA
India,Delhi,Delhi,"Lodhi Road, Delhi - IITM",24-02-2024 09:00:00,28.588333,77.221667,SO2,NA,NA,NA
India,Delhi,Delhi,"Mandir Marg, Delhi - DPCC",24-02-2024 09:00:00,28.636429,77.201067,PM10,57,124,94
India,Delhi,Delhi,"NSIT Dwarka, Delhi - CPCB",24-02-2024 09:00:00,28.60909,77.0325413,NH3,5,11,8
India,Delhi,Delhi,"NSIT Dwarka, Delhi - CPCB",24-02-2024 09:00:00,28.60909,77.0325413,OZONE,16,87,21
India,Delhi,Delhi,"North Campus, DU, Delhi - IMD",24-02-2024 09:00:00,28.6573814,77.1585447,NO2,6,25,16
India,Delhi,Delhi,"Okhla Phase-2, Delhi - DPCC",24-02-2024 09:00:00,28.530785,77.271255,PM10,90,348,175
India,Delhi,Delhi,"Patparganj, Delhi - DPCC",24-02-2024 09:00:00,28.623763,77.287209,NO2,33,75,51
India,Delhi,Delhi,"Punjabi Bagh, Delhi - DPCC",24-02-2024 09:00:00,28.674045,77.131023,SO2,2,31,11
India,Delhi,Delhi,"Pusa, Delhi - DPCC",24-02-2024 09:00:00,28.639652,77.146275,SO2,9,26,16
India,Delhi,Delhi,"R K Puram, Delhi - DPCC",24-02-2024 09:00:00,28.563262,77.186937,PM10,97,226,148
India,Delhi,Delhi,"Rohini, Delhi - DPCC",24-02-2024 09:00:00,28.732528,77.119920,SO2,7,64,15
India,Delhi,Delhi,"Sirifort, Delhi - CPCB",24-02-2024 09:00:00,28.5504249,77.2159377,SO2,32,40,36
India,Delhi,Delhi,"Sonia Vihar, Delhi - DPCC",24-02-2024 09:00:00,28.710508,77.249485,PM2.5,30,251,130
India,Delhi,Delhi,"Sonia Vihar, Delhi - DPCC",24-02-2024 09:00:00,28.710508,77.249485,PM10,68,295,159
India,Delhi,Delhi,"Sri Aurobindo Marg, Delhi - DPCC",24-02-2024 09:00:00,28.531346,77.190156,NO2,18,90,46
India,Delhi,Delhi,"Sri Aurobindo Marg, Delhi - DPCC",24-02-2024 09:00:00,28.531346,77.190156,CO,12,88,58
India,Delhi,Delhi,"Vivek Vihar, Delhi - DPCC",24-02-2024 09:00:00,28.672342,77.315260,PM2.5,38,329,145
India,Delhi,Delhi,"Vivek Vihar, Delhi - DPCC",24-02-2024 09:00:00,28.672342,77.315260,NH3,3,6,5
India,Delhi,Delhi,"Vivek Vihar, Delhi - DPCC",24-02-2024 09:00:00,28.672342,77.315260,OZONE,5,49,8
India,Delhi,Delhi,"Wazirpur, Delhi - DPCC",24-02-2024 09:00:00,28.699793,77.165453,PM2.5,48,308,154
India,Delhi,Delhi,"Wazirpur, Delhi - DPCC",24-02-2024 09:00:00,28.699793,77.165453,SO2,19,50,32
India,Gujarat,Ahmedabad,"Gyaspur, Ahmedabad - IITM",24-02-2024 09:00:00,22.977134,72.553024,NO2,18,22,21
India,Gujarat,Ahmedabad,"Maninagar, Ahmedabad - GPCB",24-02-2024 09:00:00,23.002657,72.591912,SO2,NA,NA,NA
India,Gujarat,Ahmedabad,"Raikhad, Ahmedabad - IITM",24-02-2024 09:00:00,23.020509,72.579261,PM2.5,98,314,204
India,Gujarat,Ahmedabad,"Raikhad, Ahmedabad - IITM",24-02-2024 09:00:00,23.020509,72.579261,NO2,15,74,32
India,Gujarat,Ahmedabad,"Raikhad, Ahmedabad - IITM",24-02-2024 09:00:00,23.020509,72.579261,CO,2,104,46
India,Gujarat,Ahmedabad,"Rakhial, Ahmedabad - IITM",24-02-2024 09:00:00,23.016834,72.625775,NO2,65,79,72
India,Gujarat,Ahmedabad,"SAC ISRO Bopal, Ahmedabad - IITM",24-02-2024 09:00:00,23.041137,72.456691,PM2.5,91,305,180
India,Gujarat,Ahmedabad,"SAC ISRO Bopal, Ahmedabad - IITM",24-02-2024 09:00:00,23.041137,72.456691,NH3,3,4,4
India,Gujarat,Ahmedabad,"SAC ISRO Bopal, Ahmedabad - IITM",24-02-2024 09:00:00,23.041137,72.456691,SO2,12,13,12
India,Gujarat,Ahmedabad,"SAC ISRO Satellite, Ahmedabad - IITM",24-02-2024 09:00:00,23.023389,72.515201,NO2,17,17,17
India,Gujarat,Ahmedabad,"SVPI Airport Hansol, Ahmedabad - IITM",24-02-2024 09:00:00,23.076793,72.627874,PM10,75,209,132
India,Gujarat,Ahmedabad,"SVPI Airport Hansol, Ahmedabad - IITM",24-02-2024 09:00:00,23.076793,72.627874,SO2,3,5,4
India,Gujarat,Gandhinagar,"IIPHG Lekawada, Gandhinagar - IITM",24-02-2024 09:00:00,23.243639,72.68994,PM10,68,120,91
India,Gujarat,Gandhinagar,"IIPHG Lekawada, Gandhinagar - IITM",24-02-2024 09:00:00,23.243639,72.68994,NH3,3,3,3
India,Gujarat,Gandhinagar,"IIPHG Lekawada, Gandhinagar - IITM",24-02-2024 09:00:00,23.243639,72.68994,SO2,13,14,13
India,Gujarat,Gandhinagar,"Sector-10, Gandhinagar - GPCB",24-02-2024 09:00:00,23.221714,72.654328,PM2.5,16,64,36
India,Gujarat,Gandhinagar,"Sector-10, Gandhinagar - GPCB",24-02-2024 09:00:00,23.221714,72.654328,CO,29,121,53
India,Gujarat,Vapi,"Phase-1 GIDC, Vapi - GPCB",24-02-2024 09:00:00,20.362421,72.918013,PM10,95,332,165
India,Gujarat,Vapi,"Phase-1 GIDC, Vapi - GPCB",24-02-2024 09:00:00,20.362421,72.918013,SO2,46,47,46
India,Gujarat,Vapi,"Phase-1 GIDC, Vapi - GPCB",24-02-2024 09:00:00,20.362421,72.918013,CO,1,184,75
India,Gujarat,Vatva,"Phase-4 GIDC, Vatva - GPCB",24-02-2024 09:00:00,22.969611,72.643500,PM2.5,61,279,116
India,Gujarat,Vatva,"Phase-4 GIDC, Vatva - GPCB",24-02-2024 09:00:00,22.969611,72.643500,PM10,41,115,66
India,Gujarat,Vatva,"Phase-4 GIDC, Vatva - GPCB",24-02-2024 09:00:00,22.969611,72.643500,NO2,13,195,50
India,Gujarat,Vatva,"Phase-4 GIDC, Vatva - GPCB",24-02-2024 09:00:00,22.969611,72.643500,CO,48,50,49
India,Haryana,Ambala,"Patti Mehar, Ambala - HSPCB",24-02-2024 09:00:00,30.379589,76.778328,NO2,7,8,8
India,Haryana,Bahadurgarh,"Arya Nagar, Bahadurgarh - HSPCB",24-02-2024 09:00:00,28.6701,76.9254,NO2,32,39,36
India,Haryana,Bahadurgarh,"Arya Nagar, Bahadurgarh - HSPCB",24-02-2024 09:00:00,28.6701,76.9254,OZONE,37,50,43
India,Haryana,Ballabgarh,"Nathu Colony, Ballabgarh - HSPCB",24-02-2024 09:00:00,28.3419248,77.319699,PM2.5,91,362,237
India,Haryana,Ballabgarh,"Nathu Colony, Ballabgarh - HSPCB",24-02-2024 09:00:00,28.3419248,77.319699,SO2,3,16,8
India,Haryana,Ballabgarh,"Nathu Colony, Ballabgarh - HSPCB",24-02-2024 09:00:00,28.3419248,77.319699,CO,14,105,68
India,Haryana,Bhiwani,"H.B. Colony, Bhiwani - HSPCB",24-02-2024 09:00:00,28.806223,76.141105,OZONE,5,47,6
India,Haryana,Charkhi Dadri,"Mini Secretariat, Charkhi Dadri - HSPCB",24-02-2024 09:00:00,28.593883,76.270653,PM10,71,140,93
India,Haryana,Charkhi Dadri,"Mini Secretariat, Charkhi Dadri - HSPCB",24-02-2024 09:00:00,28.593883,76.270653,SO2,50,54,52
India,Haryana,Faridabad,"New Industrial Town, Faridabad - HSPCB",24-02-2024 09:00:00,28.39072,77.30059,NO2,10,22,16
India,Haryana,Faridabad,"Sector 11, Faridabad - HSPCB",24-02-2024 09:00:00,28.376058,77.315741,PM2.5,37,317,137
India,Haryana,Faridabad,"Sector 11, Faridabad - HSPCB",24-02-2024 09:00:00,28.376058,77.315741,SO2,8,9,8
India,Haryana,Faridabad,"Sector 30, Faridabad - HSPCB",24-02-2024 09:00:00,28.4417,77.3217,OZONE,8,45,8
India,Haryana,Faridabad,"Sector- 16A, Faridabad - HSPCB",24-02-2024 09:00:00,28.4088421,77.3099081,OZONE,14,14,14
India,Haryana,Fatehabad,"Huda Sector, Fatehabad - HSPCB",24-02-2024 09:00:00,29.503664,75.467934,NO2,29,31,30
India,Haryana,Fatehabad,"Huda Sector, Fatehabad - HSPCB",24-02-2024 09:00:00,29.503664,75.467934,OZONE,21,25,23
India,Haryana,Gurugram,"Sector-51, Gurugram - HSPCB",24-02-2024 09:00:00,28.4227,77.0667,PM2.5,38,326,181
India,Haryana,Gurugram,"Sector-51, Gurugram - HSPCB",24-02-2024 09:00:00,28.4227,77.0667,NO2,13,29,23
India,Haryana,Gurugram,"Sector-51, Gurugram - HSPCB",24-02-2024 09:00:00,28.4227,77.0667,NH3,6,14,9
India,Haryana,Gurugram,"Teri Gram, Gurugram - HSPCB",24-02-2024 09:00:00,28.4275,77.1465,NO2,20,46,36
India,Haryana,Gurugram,"Vikas Sadan, Gurugram - HSPCB",24-02-2024 09:00:00,28.4501238,77.0263051,NO2,5,25,14
India,Haryana,Hisar,"Urban Estate-II, Hisar - HSPCB",24-02-2024 09:00:00,29.140560,75.744941,NO2,7,13,8
India,Haryana,Jind,"Police Lines, Jind - HSPCB",24-02-2024 09:00:00,29.307814,76.337619,CO,2,111,47
India,Haryana,Kaithal,"Rishi Nagar, Kaithal - HSPCB",24-02-2024 09:00:00,29.8006,76.4155,PM2.5,35,99,65
India,Haryana,Kaithal,"Rishi Nagar, Kaithal - HSPCB",24-02-2024 09:00:00,29.8006,76.4155,SO2,13,43,25
India,Haryana,Karnal,"Sector-12, Karnal - HSPCB",24-02-2024 09:00:00,29.695300,77.002700,PM2.5,15,56,28
India,Haryana,Karnal,"Sector-12, Karnal - HSPCB",24-02-2024 09:00:00,29.695300,77.002700,NO2,7,12,10
India,Haryana,Karnal,"Sector-12, Karnal - HSPCB",24-02-2024 09:00:00,29.695300,77.002700,OZONE,28,34,30
India,Haryana,Kurukshetra,"Sector-7, Kurukshetra - HSPCB",24-02-2024 09:00:00,29.966942,76.875879,PM10,59,98,79
India,Haryana,Kurukshetra,"Sector-7, Kurukshetra - HSPCB",24-02-2024 09:00:00,29.966942,76.875879,NO2,10,10,10
India,Haryana,Mandikhera,"General Hospital, Mandikhera - HSPCB",24-02-2024 09:00:00,27.9002,76.9938,PM10,43,158,83
India,Haryana,Manesar,"Sector-2 IMT, Manesar - HSPCB",24-02-2024 09:00:00,28.360699,76.936090,PM2.5,46,241,97
India,Haryana,Manesar,"Sector-2 IMT, Manesar - HSPCB",24-02-2024 09:00:00,28.360699,76.936090,NH3,7,17,11
India,Haryana,Narnaul,"Shastri Nagar, Narnaul - HSPCB",24-02-2024 09:00:00,28.060249,76.113115,OZONE,47,88,84
India,Haryana,Palwal,"Shyam Nagar, Palwal - HSPCB",24-02-2024 09:00:00,28.1485564,77.3320667,OZONE,21,54,28
India,Haryana,Sirsa,"F-Block, Sirsa - HSPCB",24-02-2024 09:00:00,29.536400,75.015800,PM10,26,125,55
India,Haryana,Sonipat,"Murthal, Sonipat - HSPCB",24-02-2024 09:00:00,29.027200,77.062100,SO2,13,29,20
India,Haryana,Yamuna Nagar,"Gobind Pura, Yamuna Nagar - HSPCB",24-02-2024 09:00:00,30.1480566,77.2893471,OZONE,19,32,21
India,Himachal Pradesh,Baddi,"HIMUDA Complex Phase-1, Baddi - HPPCB",24-02-2024 09:00:00,30.943887,76.801991,NH3,3,5,4
India,Jharkhand,Dhanbad,"Kalakusuma, Dhanbad - DMC",24-02-2024 09:00:00,23.811548,86.481238,PM10,60,151,95
India,Jharkhand,Dhanbad,"Kalakusuma, Dhanbad - DMC",24-02-2024 09:00:00,23.811548,86.481238,SO2,14,17,15
India,Jharkhand,Dhanbad,"Kalakusuma, Dhanbad - DMC",24-02-2024 09:00:00,23.811548,86.481238,CO,128,134,131
India,Jharkhand,Dhanbad,"Sardar Patel Nagar, Dhanbad - JSPCB",24-02-2024 09:00:00,23.80569,86.44268,OZONE,8,24,9
India,Jharkhand,Pathardih,"Mohalbani Ghat, Pathardih - DMC",24-02-2024 09:00:00,23.669880,86.411725,PM10,56,150,93
India,Jharkhand,Pathardih,"Mohalbani Ghat, Pathardih - DMC",24-02-2024 09:00:00,23.669880,86.411725,SO2,18,21,19
India,Karnataka,Bagalkot,"Vidayagiri, Bagalkot - KSPCB",24-02-2024 09:00:00,16.172806,75.659694,NO2,9,10,9
India,Karnataka,Bagalkot,"Vidayagiri, Bagalkot - KSPCB",24-02-2024 09:00:00,16.172806,75.659694,SO2,NA,NA,NA
India,Karnataka,Belgaum,"Ramteerth Nagar, Belgaum - KSPCB",24-02-2024 09:00:00,15.888653,74.541751,PM10,44,103,63
India,Karnataka,Belgaum,"Ramteerth Nagar, Belgaum - KSPCB",24-02-2024 09:00:00,15.888653,74.541751,CO,33,53,49
India,Karnataka,Belgaum,"Ramteerth Nagar, Belgaum - KSPCB",24-02-2024 09:00:00,15.888653,74.541751,OZONE,19,19,19
India,Karnataka,Bengaluru,"BTM Layout, Bengaluru - CPCB",24-02-2024 09:00:00,12.9135218,77.5950804,CO,NA,NA,NA
India,Karnataka,Bengaluru,"Bapuji Nagar, Bengaluru - KSPCB",24-02-2024 09:00:00,12.951913,77.539784,PM2.5,37,153,68
India,Karnataka,Bengaluru,"City Railway Station, Bengaluru - KSPCB",24-02-2024 09:00:00,12.9756843,77.5660749,SO2,13,13,13
India,Karnataka,Bengaluru,"Hebbal, Bengaluru - KSPCB",24-02-2024 09:00:00,13.029152,77.585901,NH3,NA,NA,NA
India,Karnataka,Bengaluru,"Hombegowda Nagar, Bengaluru - KSPCB",24-02-2024 09:00:00,12.938539,77.590100,PM2.5,30,101,53
India,Karnataka,Bengaluru,"Hombegowda Nagar, Bengaluru - KSPCB",24-02-2024 09:00:00,12.938539,77.590100,NO2,36,48,42
India,Karnataka,Bengaluru,"Jayanagar 5th Block, Bengaluru - KSPCB",24-02-2024 09:00:00,12.920984,77.584908,CO,8,62,19
India,Karnataka,Bengaluru,"Jigani, Bengaluru - KSPCB",24-02-2024 09:00:00,12.7816279,77.6299145,NH3,4,4,4
India,Karnataka,Bengaluru,"Jigani, Bengaluru - KSPCB",24-02-2024 09:00:00,12.7816279,77.6299145,CO,43,90,64
India,Karnataka,Bengaluru,"Kasturi Nagar, Bengaluru - KSPCB",24-02-2024 09:00:00,13.003872,77.664217,NH3,3,4,4
India,Karnataka,Bengaluru,"Kasturi Nagar, Bengaluru - KSPCB",24-02-2024 09:00:00,13.003872,77.664217,OZONE,4,226,37
India,Karnataka,Bengaluru,"RVCE-Mailasandra, Bengaluru - KSPCB",24-02-2024 09:00:00,12.921418,77.502466,CO,36,100,41
India,Karnataka,Bengaluru,"Shivapura_Peenya, Bengaluru - KSPCB",24-02-2024 09:00:00,13.0246342,77.5080115,NH3,4,4,4
India,Karnataka,Bengaluru,"Shivapura_Peenya, Bengaluru - KSPCB",24-02-2024 09:00:00,13.0246342,77.5080115,CO,22,70,35
India,Karnataka,Bengaluru,"Silk Board, Bengaluru - KSPCB",24-02-2024 09:00:00,12.917348,77.622813,PM2.5,37,119,64
India,Karnataka,Bengaluru,"Silk Board, Bengaluru - KSPCB",24-02-2024 09:00:00,12.917348,77.622813,NO2,NA,NA,NA
India,Karnataka,Bengaluru,"Silk Board, Bengaluru - KSPCB",24-02-2024 09:00:00,12.917348,77.622813,SO2,4,11,8
India,Karnataka,Bengaluru,"Silk Board, Bengaluru - KSPCB",24-02-2024 09:00:00,12.917348,77.622813,OZONE,28,32,30
India,Karnataka,Bidar,"Naubad, Bidar - KSPCB",24-02-2024 09:00:00,17.930306,77.482194,CO,NA,NA,NA
India,Karnataka,Chamarajanagar,"Urban, Chamarajanagar - KSPCB",24-02-2024 09:00:00,11.55358,76.55521,PM10,35,62,48
India,Karnataka,Chamarajanagar,"Urban, Chamarajanagar - KSPCB",24-02-2024 09:00:00,11.55358,76.55521,NO2,23,40,30
India,Karnataka,Chikkaballapur,"Chikkaballapur Rural, Chikkaballapur - KSPCB",24-02-2024 09:00:00,13.428828,77.731418,PM10,61,140,99
India,Karnataka,Chikkaballapur,"Chikkaballapur Rural, Chikkaballapur - KSPCB",24-02-2024 09:00:00,13.428828,77.731418,NO2,3,25,8
India,Karnataka,Chikkamagaluru,"Kalyana Nagara, Chikkamagaluru - KSPCB",24-02-2024 09:00:00,13.328028,75.797056,PM10,26,47,34
India,Karnataka,Chikkamagaluru,"Kalyana Nagara, Chikkamagaluru - KSPCB",24-02-2024 09:00:00,13.328028,75.797056,OZONE,13,54,30
India,Karnataka,Davanagere,"Devaraj Urs Badavane, Davanagere - KSPCB",24-02-2024 09:00:00,14.475800,75.905200,PM10,42,155,68
India,Karnataka,Davanagere,"Devaraj Urs Badavane, Davanagere - KSPCB",24-02-2024 09:00:00,14.475800,75.905200,NH3,1,1,1
India,Karnataka,Dharwad,"Kalabhavan, Dharwad - KSPCB",24-02-2024 09:00:00,15.459706,75.008381,NO2,7,30,18
India,Karnataka,Gadag,"Panchal Nagar, Gadag - KSPCB",24-02-2024 09:00:00,15.411456,75.638133,PM10,33,66,45
India,Karnataka,Hassan,"B.Katihalli, Hassan - KSPCB",24-02-2024 09:00:00,13.008556,76.125258,PM2.5,NA,NA,NA
India,Karnataka,Hassan,"B.Katihalli, Hassan - KSPCB",24-02-2024 09:00:00,13.008556,76.125258,CO,NA,NA,NA
India,Karnataka,Hubballi,"Deshpande Nagar, Hubballi - KSPCB",24-02-2024 09:00:00,15.351773,75.140726,NH3,7,9,8
India,Karnataka,Hubballi,"Lingaraj Nagar, Hubballi - KSPCB",24-02-2024 09:00:00,15.3714823,75.1160168,NH3,2,2,2
India,Karnataka,Kalaburagi,"Lal Bahadur Shastri Nagar, Kalaburagi - KSPCB",24-02-2024 09:00:00,17.321993,76.822628,PM2.5,NA,NA,NA
India,Karnataka,Kalaburagi,"Lal Bahadur Shastri Nagar, Kalaburagi - KSPCB",24-02-2024 09:00:00,17.321993,76.822628,NO2,11,11,11
India,Karnataka,Kalaburagi,"Lal Bahadur Shastri Nagar, Kalaburagi - KSPCB",24-02-2024 09:00:00,17.321993,76.822628,NH3,2,2,2
India,Karnataka,Kalaburagi,"Lal Bahadur Shastri Nagar, Kalaburagi - KSPCB",24-02-2024 09:00:00,17.321993,76.822628,SO2,12,13,12
India,Karnataka,Karwar,"KHB Colony, Karwar - KSPCB",24-02-2024 09:00:00,14.816666,74.141003,PM10,38,113,57
India,Karnataka,Karwar,"KHB Colony, Karwar - KSPCB",24-02-2024 09:00:00,14.816666,74.141003,SO2,17,18,18
India,Karnataka,Kolar,"Tamaka Ind. Area, Kolar - KSPCB",24-02-2024 09:00:00,13.1276288,78.1570122,OZONE,8,14,13
India,Karnataka,Madikeri,"Stuart Hill, Madikeri - KSPCB",24-02-2024 09:00:00,12.415911,75.735050,OZONE,18,31,27
India,Karnataka,Ramanagara,"Vijay Nagar, Ramanagara - KSPCB",24-02-2024 09:00:00,12.733409,77.298051,CO,6,48,19
India,Karnataka,Shivamogga,"Vinoba Nagara, Shivamogga - KSPCB",24-02-2024 09:00:00,13.940000,75.555917,NH3,2,3,3
India,Karnataka,Shivamogga,"Vinoba Nagara, Shivamogga - KSPCB",24-02-2024 09:00:00,13.940000,75.555917,CO,28,47,42
India,Karnataka,Shivamogga,"Vinoba Nagara, Shivamogga - KSPCB",24-02-2024 09:00:00,13.940000,75.555917,OZONE,35,78,40
India,Karnataka,Tumakuru,"Thimmalapura, Tumakuru - KSPCB",24-02-2024 09:00:00,13.377516,77.099072,PM10,13,38,22
India,Karnataka,Tumakuru,"Thimmalapura, Tumakuru - KSPCB",24-02-2024 09:00:00,13.377516,77.099072,SO2,8,16,10
India,Karnataka,Udupi,"Brahmagiri, Udupi - KSPCB",24-02-2024 09:00:00,13.34194444,74.74694444,PM10,NA,NA,NA
India,Karnataka,Udupi,"Brahmagiri, Udupi - KSPCB",24-02-2024 09:00:00,13.34194444,74.74694444,SO2,NA,NA,NA
India,Karnataka,Udupi,"Brahmagiri, Udupi - KSPCB",24-02-2024 09:00:00,13.34194444,74.74694444,OZONE,NA,NA,NA
India,Karnataka,Vijayapura,"Ibrahimpur, Vijayapura - KSPCB",24-02-2024 09:00:00,16.802639,75.722694,PM2.5,25,31,30
India,Karnataka,Vijayapura,"Ibrahimpur, Vijayapura - KSPCB",24-02-2024 09:00:00,16.802639,75.722694,NH3,2,2,2
India,Karnataka,Vijayapura,"Ibrahimpur, Vijayapura - KSPCB",24-02-2024 09:00:00,16.802639,75.722694,SO2,9,55,32
India,Karnataka,Yadgir,"Collector Office, Yadgir - KSPCB",24-02-2024 09:00:00,16.7602,77.1428,SO2,13,31,23
India,Kerala,Eloor,"Udyogamandal, Eloor - Kerala PCB",24-02-2024 09:00:00,10.073232,76.302765,PM10,36,56,41
India,Kerala,Eloor,"Udyogamandal, Eloor - Kerala PCB",24-02-2024 09:00:00,10.073232,76.302765,CO,7,103,18
India,Kerala,Kannur,"Thavakkara, Kannur - Kerala PCB",24-02-2024 09:00:00,11.875000,75.373200,OZONE,31,36,32
India,Kerala,Kollam,"Polayathode, Kollam - Kerala PCB",24-02-2024 09:00:00,8.8787,76.6073,NH3,1,1,1
India,Kerala,Kollam,"Polayathode, Kollam - Kerala PCB",24-02-2024 09:00:00,8.8787,76.6073,CO,15,56,33
India,Madhya Pradesh,Bhopal,"Idgah Hills, Bhopal - MPPCB",24-02-2024 09:00:00,23.264759,77.381568,CO,24,55,26
India,Madhya Pradesh,Bhopal,"Idgah Hills, Bhopal - MPPCB",24-02-2024 09:00:00,23.264759,77.381568,OZONE,40,91,57
India,Madhya Pradesh,Bhopal,"Paryavaran Parisar, Bhopal - MPPCB",24-02-2024 09:00:00,23.210494,77.425409,OZONE,14,71,47
India,Madhya Pradesh,Dewas,"Bhopal Chauraha, Dewas - MPPCB",24-02-2024 09:00:00,22.9682591,76.064118,PM10,96,176,124
India,Madhya Pradesh,Dewas,"Bhopal Chauraha, Dewas - MPPCB",24-02-2024 09:00:00,22.9682591,76.064118,NH3,3,3,3
India,Madhya Pradesh,Gwalior,"City Center, Gwalior - MPPCB",24-02-2024 09:00:00,26.203442,78.193251,PM2.5,16,249,129
India,Madhya Pradesh,Gwalior,"City Center, Gwalior - MPPCB",24-02-2024 09:00:00,26.203442,78.193251,NO2,16,83,42
India,Madhya Pradesh,Gwalior,"Deen Dayal Nagar, Gwalior - MPPCB",24-02-2024 09:00:00,26.259242,78.216432,NO2,31,115,67
India,Madhya Pradesh,Gwalior,"Maharaj Bada, Gwalior - MPPCB",24-02-2024 09:00:00,26.200388,78.147714,NH3,5,15,9
India,Madhya Pradesh,Gwalior,"Maharaj Bada, Gwalior - MPPCB",24-02-2024 09:00:00,26.200388,78.147714,CO,22,136,31
India,Madhya Pradesh,Indore,"Maguda Nagar, Indore - IMC",24-02-2024 09:00:00,22.7524,75.8872,NO2,5,7,6
India,Madhya Pradesh,Indore,"Maguda Nagar, Indore - IMC",24-02-2024 09:00:00,22.7524,75.8872,SO2,12,19,15
India,Madhya Pradesh,Indore,"Regional Park, Indore - IMC",24-02-2024 09:00:00,22.6780,75.8559,PM2.5,44,165,76
India,Madhya Pradesh,Indore,"Regional Park, Indore - IMC",24-02-2024 09:00:00,22.6780,75.8559,CO,20,48,29
India,Madhya Pradesh,Indore,"Residency Area, Indore - IMC",24-02-2024 09:00:00,22.7084,75.8815,SO2,22,25,23
India,Madhya Pradesh,Jabalpur,"Govindh Bhavan Colony, Jabalpur - JMC",24-02-2024 09:00:00,23.163174,79.973061,NO2,8,14,9
India,Madhya Pradesh,Jabalpur,"Govindh Bhavan Colony, Jabalpur - JMC",24-02-2024 09:00:00,23.163174,79.973061,OZONE,35,105,64
India,Madhya Pradesh,Jabalpur,"Gupteshwar, Jabalpur - JMC",24-02-2024 09:00:00,23.142888,79.916147,PM10,43,94,65
India,Madhya Pradesh,Jabalpur,"Marhatal, Jabalpur - MPPCB",24-02-2024 09:00:00,23.168606,79.932247,SO2,6,12,8
India,Madhya Pradesh,Jabalpur,"Suhagi, Jabalpur - JMC",24-02-2024 09:00:00,23.218135,79.957770,SO2,9,10,9
India,Madhya Pradesh,Katni,"Gole Bazar, Katni - MPPCB",24-02-2024 09:00:00,23.50016,80.23284,PM2.5,NA,NA,NA
India,Madhya Pradesh,Maihar,"Sahilara, Maihar - KJS Cements",24-02-2024 09:00:00,24.2613009,80.7231783,SO2,13,16,14
India,Madhya Pradesh,Mandideep,"Sector-D Industrial Area, Mandideep - MPPCB",24-02-2024 09:00:00,23.108440,77.511428,CO,11,68,39
India,Madhya Pradesh,Pithampur,"Sector-2 Industrial Area, Pithampur - MPPCB",24-02-2024 09:00:00,22.624758,75.675238,SO2,9,17,12
India,Madhya Pradesh,Ratlam,"Shasthri Nagar, Ratlam - IPCA Lab",24-02-2024 09:00:00,23.331731,75.045981,NO2,2,97,24
India,Madhya Pradesh,Sagar,"Deen Dayal Nagar, Sagar - MPPCB",24-02-2024 09:00:00,23.8640158,78.80289321,PM2.5,8,27,17
India,Madhya Pradesh,Satna,"Bandhavgar Colony, Satna - Birla Cement",24-02-2024 09:00:00,24.58434363,80.8549414,CO,10,22,14
India,Madhya Pradesh,Satna,"Bandhavgar Colony, Satna - Birla Cement",24-02-2024 09:00:00,24.58434363,80.8549414,OZONE,63,91,66
India,Madhya Pradesh,Singrauli,"Suryakiran Bhawan NCL, Singrauli - MPPCB",24-02-2024 09:00:00,24.108970,82.645580,NO2,17,71,44
India,Madhya Pradesh,Singrauli,"Suryakiran Bhawan NCL, Singrauli - MPPCB",24-02-2024 09:00:00,24.108970,82.645580,CO,69,130,86
India,Madhya Pradesh,Ujjain,"Mahakaleshwar Temple, Ujjain - MPPCB",24-02-2024 09:00:00,23.182719 ,75.768218 ,NH3,3,6,4
India,Madhya Pradesh,Ujjain,"Mahakaleshwar Temple, Ujjain - MPPCB",24-02-2024 09:00:00,23.182719 ,75.768218 ,SO2,3,14,9
India,Madhya Pradesh,Ujjain,"Mahakaleshwar Temple, Ujjain - MPPCB",24-02-2024 09:00:00,23.182719 ,75.768218 ,OZONE,86,158,151
India,Maharashtra,Ahmednagar,"Tarakpur, Ahmednagar - MPCB",24-02-2024 09:00:00,19.10122,74.73339,CO,6,117,21
India,Maharashtra,Akola,"Ramdaspeth, Akola - MPCB",24-02-2024 09:00:00,20.719516,77.000253,PM10,83,332,134
India,Maharashtra,Akola,"Ramdaspeth, Akola - MPCB",24-02-2024 09:00:00,20.719516,77.000253,NO2,10,55,27
India,Maharashtra,Akola,"Ramdaspeth, Akola - MPCB",24-02-2024 09:00:00,20.719516,77.000253,OZONE,9,89,15
India,Maharashtra,Aurangabad,"Rachnakar Colony, Aurangabad - MPCB",24-02-2024 09:00:00,19.863756,75.321188,NH3,2,2,2
India,Maharashtra,Aurangabad,"Rachnakar Colony, Aurangabad - MPCB",24-02-2024 09:00:00,19.863756,75.321188,SO2,15,41,28
India,Maharashtra,Badlapur,"Katrap, Badlapur - MPCB",24-02-2024 09:00:00,19.16485,73.23409,NH3,3,5,4
India,Maharashtra,Belapur,"CBD Belapur, Belapur - MPCB",24-02-2024 09:00:00,19.0243902,73.0406721,PM10,91,160,119
India,Maharashtra,Belapur,"CBD Belapur, Belapur - MPCB",24-02-2024 09:00:00,19.0243902,73.0406721,NO2,10,71,41
India,Maharashtra,Belapur,"CBD Belapur, Belapur - MPCB",24-02-2024 09:00:00,19.0243902,73.0406721,SO2,3,7,5
India,Maharashtra,Bhiwandi,"Gokul Nagar, Bhiwandi - MPCB",24-02-2024 09:00:00,19.309073,73.057223,PM2.5,3,249,89
India,Maharashtra,Bhiwandi,"Gokul Nagar, Bhiwandi - MPCB",24-02-2024 09:00:00,19.309073,73.057223,NO2,12,57,37
India,Maharashtra,Jalgaon,"Prabhat Colony, Jalgaon - MPCB",24-02-2024 09:00:00,21.001264,75.565602,NH3,1,2,1
India,Maharashtra,Jalna,"Old MIDC, Jalna - MPCB",24-02-2024 09:00:00,19.854616,75.905894,SO2,8,12,9
India,Maharashtra,Jalna,"Old MIDC, Jalna - MPCB",24-02-2024 09:00:00,19.854616,75.905894,CO,22,34,30
India,Maharashtra,Kalyan,"Khadakpada, Kalyan - MPCB",24-02-2024 09:00:00,19.25292,73.142019,NH3,1,1,1
India,Maharashtra,Kolhapur,"Shivaji University, Kolhapur - MPCB",24-02-2024 09:00:00,16.6870449,74.2505872,PM2.5,65,79,71
India,Maharashtra,Kolhapur,"Shivaji University, Kolhapur - MPCB",24-02-2024 09:00:00,16.6870449,74.2505872,NO2,22,67,36
India,Maharashtra,Kolhapur,"Sinchan Bhavan, Kolhapur - MPCB",24-02-2024 09:00:00,16.7143745,74.2426398,SO2,1,9,3
India,Maharashtra,Kolhapur,"Sinchan Bhavan, Kolhapur - MPCB",24-02-2024 09:00:00,16.7143745,74.2426398,CO,4,66,20
India,Maharashtra,Malegaon,"Mahesh Nagar, Malegaon - MPCB",24-02-2024 09:00:00,20.555712,74.529236,PM2.5,64,306,124
India,Maharashtra,Malegaon,"Mahesh Nagar, Malegaon - MPCB",24-02-2024 09:00:00,20.555712,74.529236,NO2,3,26,10
India,Maharashtra,Malegaon,"Mahesh Nagar, Malegaon - MPCB",24-02-2024 09:00:00,20.555712,74.529236,SO2,8,15,11
India,Maharashtra,Mumbai,"Bandra Kurla Complex, Mumbai - MPCB",24-02-2024 09:00:00,19.065931,72.862131,NO2,13,50,31
India,Maharashtra,Mumbai,"Bandra Kurla Complex, Mumbai - MPCB",24-02-2024 09:00:00,19.065931,72.862131,SO2,1,5,2
India,Maharashtra,Mumbai,"Bandra Kurla Complex, Mumbai - MPCB",24-02-2024 09:00:00,19.065931,72.862131,CO,2,60,28
India,Maharashtra,Mumbai,"Byculla, Mumbai - BMC",24-02-2024 09:00:00,18.9767,72.8380,NO2,20,81,37
India,Maharashtra,Mumbai,"Byculla, Mumbai - BMC",24-02-2024 09:00:00,18.9767,72.8380,SO2,1,7,2
India,Maharashtra,Mumbai,"Chembur, Mumbai - MPCB",24-02-2024 09:00:00,19.0364585,72.8954371,PM10,79,122,100
India,Maharashtra,Mumbai,"Chembur, Mumbai - MPCB",24-02-2024 09:00:00,19.0364585,72.8954371,NO2,18,116,63
India,Maharashtra,Mumbai,"Chembur, Mumbai - MPCB",24-02-2024 09:00:00,19.0364585,72.8954371,SO2,2,13,7
India,Maharashtra,Mumbai,"Chembur, Mumbai - MPCB",24-02-2024 09:00:00,19.0364585,72.8954371,CO,14,52,39
India,Maharashtra,Mumbai,"Chhatrapati Shivaji Intl. Airport (T2), Mumbai - MPCB",24-02-2024 09:00:00,19.10078,72.87462,PM2.5,19,33,26
India,Maharashtra,Mumbai,"Chhatrapati Shivaji Intl. Airport (T2), Mumbai - MPCB",24-02-2024 09:00:00,19.10078,72.87462,NH3,1,5,3
India,Maharashtra,Mumbai,"Colaba, Mumbai - MPCB",24-02-2024 09:00:00,18.910000,72.820000,PM2.5,12,40,24
India,Maharashtra,Mumbai,"Colaba, Mumbai - MPCB",24-02-2024 09:00:00,18.910000,72.820000,PM10,46,101,73
India,Maharashtra,Mumbai,"Ghatkopar, Mumbai - BMC",24-02-2024 09:00:00,19.083694,72.920967,PM2.5,22,87,52
India,Maharashtra,Mumbai,"Ghatkopar, Mumbai - BMC",24-02-2024 09:00:00,19.083694,72.920967,SO2,1,2,1
India,Maharashtra,Mumbai,"Kandivali East, Mumbai - MPCB",24-02-2024 09:00:00,19.205800,72.868200,CO,62,104,83
India,Maharashtra,Mumbai,"Kandivali East, Mumbai - MPCB",24-02-2024 09:00:00,19.205800,72.868200,OZONE,30,31,30
India,Maharashtra,Mumbai,"Kandivali West, Mumbai - BMC",24-02-2024 09:00:00,19.215859,72.831718,NO2,8,28,18
India,Maharashtra,Mumbai,"Kherwadi_Bandra East, Mumbai - MPCB",24-02-2024 09:00:00,19.0632143,72.8456324,PM2.5,24,92,63
India,Maharashtra,Mumbai,"Khindipada-Bhandup West, Mumbai - IITM",24-02-2024 09:00:00,19.1653323,72.922099,PM2.5,60,161,84
India,Maharashtra,Mumbai,"Khindipada-Bhandup West, Mumbai - IITM",24-02-2024 09:00:00,19.1653323,72.922099,NO2,4,19,8
India,Maharashtra,Mumbai,"Khindipada-Bhandup West, Mumbai - IITM",24-02-2024 09:00:00,19.1653323,72.922099,SO2,1,7,3
India,Maharashtra,Mumbai,"Mazgaon, Mumbai - IITM",24-02-2024 09:00:00,18.96702,72.84214,NH3,35,41,38
India,Maharashtra,Mumbai,"Mazgaon, Mumbai - IITM",24-02-2024 09:00:00,18.96702,72.84214,SO2,NA,NA,NA
India,Maharashtra,Mumbai,"Mindspace-Malad West, Mumbai - MPCB",24-02-2024 09:00:00,19.1878657,72.8304069,PM2.5,31,81,57
India,Maharashtra,Mumbai,"Mindspace-Malad West, Mumbai - MPCB",24-02-2024 09:00:00,19.1878657,72.8304069,NO2,11,23,18
India,Maharashtra,Mumbai,"Mindspace-Malad West, Mumbai - MPCB",24-02-2024 09:00:00,19.1878657,72.8304069,CO,18,40,32
India,Maharashtra,Mumbai,"Mulund West, Mumbai - MPCB",24-02-2024 09:00:00,19.1750,72.9419,PM2.5,15,59,28
India,Maharashtra,Mumbai,"Navy Nagar-Colaba, Mumbai - IITM",24-02-2024 09:00:00,18.897756,72.813320,PM2.5,28,67,43
India,Maharashtra,Mumbai,"Navy Nagar-Colaba, Mumbai - IITM",24-02-2024 09:00:00,18.897756,72.813320,CO,18,38,31
India,Maharashtra,Mumbai,"Powai, Mumbai - MPCB",24-02-2024 09:00:00,19.137500,72.915056,PM2.5,19,46,30
India,Maharashtra,Mumbai,"Sewri, Mumbai - BMC",24-02-2024 09:00:00,19.000084,72.856730,CO,13,57,40
India,Maharashtra,Mumbai,"Sewri, Mumbai - BMC",24-02-2024 09:00:00,19.000084,72.856730,OZONE,2,54,17
India,Maharashtra,Mumbai,"Shivaji Nagar, Mumbai - BMC",24-02-2024 09:00:00,19.060498,72.923356,NO2,29,131,76
India,Maharashtra,Mumbai,"Siddharth Nagar-Worli, Mumbai - IITM",24-02-2024 09:00:00,19.000083,72.813993,NO2,32,77,48
India,Maharashtra,Mumbai,"Siddharth Nagar-Worli, Mumbai - IITM",24-02-2024 09:00:00,19.000083,72.813993,OZONE,NA,NA,NA
India,Maharashtra,Mumbai,"Sion, Mumbai - MPCB",24-02-2024 09:00:00,19.047000,72.874600,PM2.5,NA,NA,NA
India,Maharashtra,Mumbai,"Sion, Mumbai - MPCB",24-02-2024 09:00:00,19.047000,72.874600,CO,2,40,32
India,Maharashtra,Mumbai,"Vile Parle West, Mumbai - MPCB",24-02-2024 09:00:00,19.10861,72.83622,NO2,2,71,16
India,Maharashtra,Mumbai,"Worli, Mumbai - MPCB",24-02-2024 09:00:00,18.9936162,72.8128113,SO2,10,11,10
India,Maharashtra,Nagpur,"Ambazari, Nagpur - MPCB",24-02-2024 09:00:00,21.121801,79.04952,PM2.5,70,164,105
India,Maharashtra,Nagpur,"Ambazari, Nagpur - MPCB",24-02-2024 09:00:00,21.121801,79.04952,PM10,78,136,108
India,Maharashtra,Nagpur,"Mahal, Nagpur - MPCB",24-02-2024 09:00:00,21.14472,79.107595,NH3,3,11,6
India,Maharashtra,Nagpur,"Mahal, Nagpur - MPCB",24-02-2024 09:00:00,21.14472,79.107595,OZONE,3,121,51
India,Maharashtra,Nashik,"Gangapur Road, Nashik - MPCB",24-02-2024 09:00:00,20.0073285,73.7762427,SO2,1,6,3
India,Maharashtra,Nashik,"Hirawadi, Nashik - MPCB",24-02-2024 09:00:00,20.021503,73.813844,PM10,51,103,72
India,Maharashtra,Nashik,"Hirawadi, Nashik - MPCB",24-02-2024 09:00:00,20.021503,73.813844,NO2,3,63,24
India,Maharashtra,Nashik,"Hirawadi, Nashik - MPCB",24-02-2024 09:00:00,20.021503,73.813844,SO2,1,10,4
India,Maharashtra,Nashik,"MIDC Ambad, Nashik - MPCB",24-02-2024 09:00:00,19.950220,73.731480,SO2,9,26,13
India,Maharashtra,Navi Mumbai,"Kopripada-Vashi, Navi Mumbai - MPCB",24-02-2024 09:00:00,19.090337,73.014232,PM10,66,138,98
India,Maharashtra,Navi Mumbai,"Kopripada-Vashi, Navi Mumbai - MPCB",24-02-2024 09:00:00,19.090337,73.014232,NH3,2,27,9
India,Maharashtra,Navi Mumbai,"Kopripada-Vashi, Navi Mumbai - MPCB",24-02-2024 09:00:00,19.090337,73.014232,OZONE,9,77,26
India,Maharashtra,Navi Mumbai,"Mahape, Navi Mumbai - MPCB",24-02-2024 09:00:00,19.1135051,73.008978,CO,32,63,51
India,Maharashtra,Navi Mumbai,"Nerul, Navi Mumbai - MPCB",24-02-2024 09:00:00,19.008751,73.016620,OZONE,31,42,40
India,Maharashtra,Navi Mumbai,"Sanpada, Navi Mumbai - MPCB",24-02-2024 09:00:00,19.0575752,73.0151367,CO,1,38,17
India,Maharashtra,Navi Mumbai,"Sector-19A Nerul, Navi Mumbai - IITM",24-02-2024 09:00:00,19.044,73.0325,PM2.5,73,309,135
India,Maharashtra,Navi Mumbai,"Sector-2E Kalamboli, Navi Mumbai - MPCB",24-02-2024 09:00:00,19.02579,73.10297,PM2.5,46,118,76
India,Maharashtra,Navi Mumbai,"Sector-2E Kalamboli, Navi Mumbai - MPCB",24-02-2024 09:00:00,19.02579,73.10297,NO2,18,85,50
India,Maharashtra,Navi Mumbai,"Sector-2E Kalamboli, Navi Mumbai - MPCB",24-02-2024 09:00:00,19.02579,73.10297,OZONE,1,74,5
India,Maharashtra,Navi Mumbai,"Tondare-Taloja, Navi Mumbai - MPCB",24-02-2024 09:00:00,19.0630,73.1209,PM2.5,27,210,83
India,Maharashtra,Navi Mumbai,"Tondare-Taloja, Navi Mumbai - MPCB",24-02-2024 09:00:00,19.0630,73.1209,PM10,95,161,124
India,Maharashtra,Parbhani,"Masoom Colony, Parbhani - MPCB",24-02-2024 09:00:00,19.265594,76.761463,PM2.5,49,108,80
India,Maharashtra,Parbhani,"Masoom Colony, Parbhani - MPCB",24-02-2024 09:00:00,19.265594,76.761463,NO2,8,65,25
India,Maharashtra,Parbhani,"Masoom Colony, Parbhani - MPCB",24-02-2024 09:00:00,19.265594,76.761463,NH3,2,3,3
India,Maharashtra,Pimpri-Chinchwad,"Gavalinagar, Pimpri Chinchwad - MPCB",24-02-2024 09:00:00,18.63673,73.82487,NO2,6,54,27
India,Maharashtra,Pimpri-Chinchwad,"Gavalinagar, Pimpri Chinchwad - MPCB",24-02-2024 09:00:00,18.63673,73.82487,SO2,6,14,9
India,Maharashtra,Pimpri-Chinchwad,"Gavalinagar, Pimpri Chinchwad - MPCB",24-02-2024 09:00:00,18.63673,73.82487,CO,14,83,37
India,Maharashtra,Pimpri-Chinchwad,"Park Street Wakad, Pimpri Chinchwad - MPCB",24-02-2024 09:00:00,18.59051,73.77946,SO2,5,15,9
India,Maharashtra,Pune,"Bhosari, Pune - IITM",24-02-2024 09:00:00,18.640051,73.848956,NO2,NA,NA,NA
India,Maharashtra,Pune,"Karve Road, Pune - MPCB",24-02-2024 09:00:00,18.5011743,73.8165527,SO2,2,67,21
India,Maharashtra,Pune,"Karve Road, Pune - MPCB",24-02-2024 09:00:00,18.5011743,73.8165527,OZONE,1,18,6
India,Maharashtra,Pune,"Savitribai Phule Pune University, Pune - MPCB",24-02-2024 09:00:00,18.547056,73.826908,NO2,10,37,20
India,Maharashtra,Pune,"Savitribai Phule Pune University, Pune - MPCB",24-02-2024 09:00:00,18.547056,73.826908,OZONE,1,220,8
India,Maharashtra,Pune,"Transport Nagar-Nigdi, Pune - IITM",24-02-2024 09:00:00,18.664282,73.763966,CO,48,73,56
India,Maharashtra,Sangli,"Vijay Nagar, Sangli - MPCB",24-02-2024 09:00:00, 16.5038,74.3623,CO,16,104,45
India,Maharashtra,Solapur,"Dnyaneshwar Nagar, Solapur - MPCB",24-02-2024 09:00:00,17.6336264,75.9132495,NO2,15,142,49
India,Maharashtra,Solapur,"Dnyaneshwar Nagar, Solapur - MPCB",24-02-2024 09:00:00,17.6336264,75.9132495,CO,9,101,28
India,Maharashtra,Solapur,"Ratandeep Housing Society, Solapur - MPCB",24-02-2024 09:00:00,17.65439,75.90649,CO,6,148,39
India,Maharashtra,Solapur,"Solapur, Solapur - MPCB",24-02-2024 09:00:00,17.6599188,75.9063906,PM10,109,156,143
India,Maharashtra,Solapur,"Solapur, Solapur - MPCB",24-02-2024 09:00:00,17.6599188,75.9063906,OZONE,48,85,48
India,Maharashtra,Thane,"Kasarvadavali, Thane - MPCB",24-02-2024 09:00:00,19.26777,72.97182,CO,12,53,35
India,Maharashtra,Thane,"Pimpleshwar Mandir, Thane - MPCB",24-02-2024 09:00:00,19.192056,72.9585188,NO2,13,15,14
India,Maharashtra,Thane,"Pimpleshwar Mandir, Thane - MPCB",24-02-2024 09:00:00,19.192056,72.9585188,CO,52,112,77
India,Maharashtra,Ulhasnagar,"Sidhi Vinayak Nagar, Ulhasnagar - MPCB",24-02-2024 09:00:00,19.235581,73.159121,NO2,10,67,30
India,Manipur,Imphal,"Manipur University, Imphal - Manipur PCB",24-02-2024 09:00:00,24.7524239,93.9286218,SO2,65,68,67
India,Manipur,Imphal,"Manipur University, Imphal - Manipur PCB",24-02-2024 09:00:00,24.7524239,93.9286218,CO,8,32,13
India,Manipur,Imphal,"Manipur University, Imphal - Manipur PCB",24-02-2024 09:00:00,24.7524239,93.9286218,OZONE,2,19,2
India,Meghalaya,Shillong,"Lumpyngngad, Shillong - Meghalaya PCB",24-02-2024 09:00:00,25.5586,91.8985,PM2.5,20,71,39
India,Mizoram,Aizawl,"Sikulpuikawn, Aizawl - Mizoram PCB",24-02-2024 09:00:00,23.7176342,92.7192841,PM10,21,67,49
India,Mizoram,Aizawl,"Sikulpuikawn, Aizawl - Mizoram PCB",24-02-2024 09:00:00,23.7176342,92.7192841,CO,8,16,8
India,Nagaland,Kohima,"PWD Juction, Kohima - NPCB",24-02-2024 09:00:00,25.6635413,94.0989878,NO2,3,4,3
India,Nagaland,Kohima,"PWD Juction, Kohima - NPCB",24-02-2024 09:00:00,25.6635413,94.0989878,CO,8,42,11
India,Odisha,Angul,"Hakimapada, Angul - OSPCB",24-02-2024 09:00:00,20.832874,85.104082,PM2.5,73,481,209
India,Odisha,Balasore,"Kalidaspur, Balasore - OSPCB",24-02-2024 09:00:00,21.51161,86.89088,NH3,3,8,5
India,Odisha,Barbil,"Forest Office, Barbil - OSPCB",24-02-2024 09:00:00,22.1166054,85.3945546,NO2,6,14,8
India,Odisha,Barbil,"Forest Office, Barbil - OSPCB",24-02-2024 09:00:00,22.1166054,85.3945546,SO2,1,32,8
India,Odisha,Baripada,"Meher Colony, Baripada - OSPCB",24-02-2024 09:00:00,21.941841,86.728318,SO2,5,6,6
India,Odisha,Bhubaneswar,"Lingraj Mandir, Bhubaneswar - OSPCB",24-02-2024 09:00:00,20.240790,85.836784,CO,52,69,56
India,Odisha,Bhubaneswar,"Lingraj Mandir, Bhubaneswar - OSPCB",24-02-2024 09:00:00,20.240790,85.836784,OZONE,56,141,66
India,Odisha,Bileipada,"Tata Township, Bileipada - OSPCB",24-02-2024 09:00:00,22.06156703,85.47409613,SO2,NA,NA,NA
India,Odisha,Brajrajnagar,"GM Office, Brajrajnagar - OSPCB",24-02-2024 09:00:00,21.8004996,83.8396977,CO,44,105,47
India,Odisha,Byasanagar,"Ferro Chrome Colony, Byasanagar - OSPCB",24-02-2024 09:00:00,20.94185,86.11510,PM10,90,125,106
India,Odisha,Byasanagar,"Ferro Chrome Colony, Byasanagar - OSPCB",24-02-2024 09:00:00,20.94185,86.11510,NO2,14,29,20
India,Odisha,Byasanagar,"Ferro Chrome Colony, Byasanagar - OSPCB",24-02-2024 09:00:00,20.94185,86.11510,OZONE,32,134,47
India,Odisha,Cuttack,"CDA Area, Cuttack - OSPCB",24-02-2024 09:00:00,20.48891     ,85.84768     ,NH3,3,5,4
India,Odisha,Cuttack,"CDA Area, Cuttack - OSPCB",24-02-2024 09:00:00,20.48891     ,85.84768     ,SO2,9,42,13
India,Odisha,Keonjhar,"Jagamohanpur, Keonjhar - OSPCB",24-02-2024 09:00:00,21.643900,85.599355,PM10,NA,NA,NA
India,Odisha,Keonjhar,"Jagamohanpur, Keonjhar - OSPCB",24-02-2024 09:00:00,21.643900,85.599355,OZONE,NA,NA,NA
India,Odisha,Rairangpur,"Divisional Forest Office, Rairangpur - OSPCB",24-02-2024 09:00:00,22.265816,86.174829,CO,13,28,16
India,Odisha,Rourkela,"Fertilizer Township, Rourkela - OSPCB",24-02-2024 09:00:00,22.18972222,84.86277778,PM10,NA,NA,NA
India,Odisha,Rourkela,"Raghunathpali, Rourkela - OSPCB",24-02-2024 09:00:00,22.220833,84.809444,NH3,1,3,2
India,Odisha,Rourkela,"Raghunathpali, Rourkela - OSPCB",24-02-2024 09:00:00,22.220833,84.809444,SO2,3,8,6
India,Odisha,Rourkela,"Raghunathpali, Rourkela - OSPCB",24-02-2024 09:00:00,22.220833,84.809444,OZONE,21,87,55
India,Odisha,Suakati,"OMC Colony, Suakati - OSPCB",24-02-2024 09:00:00,21.606865,85.510538,NO2,94,427,196
India,Odisha,Suakati,"OMC Colony, Suakati - OSPCB",24-02-2024 09:00:00,21.606865,85.510538,SO2,7,58,19
India,Odisha,Talcher,"Talcher Coalfields,Talcher - OSPCB",24-02-2024 09:00:00,20.9360711,85.1707021,NH3,NA,NA,NA
India,Odisha,Tensa,"Barsua Iron Ore Mines, Tensa - OSPCB",24-02-2024 09:00:00,21.869985,85.167016,OZONE,4,33,9
India,Puducherry,Puducherry,"Jawahar Nagar, Puducherry - PPCC",24-02-2024 09:00:00,11.9309,79.8027,OZONE,11,52,22
India,Punjab,Amritsar,"Golden Temple, Amritsar - PPCB",24-02-2024 09:00:00,31.620000,74.876512,NH3,7,11,8
India,Punjab,Amritsar,"Golden Temple, Amritsar - PPCB",24-02-2024 09:00:00,31.620000,74.876512,SO2,12,27,22
India,Punjab,Amritsar,"Golden Temple, Amritsar - PPCB",24-02-2024 09:00:00,31.620000,74.876512,OZONE,25,32,30
India,Punjab,Jalandhar,"Civil Line, Jalandhar - PPCB",24-02-2024 09:00:00,31.321907,75.578914,PM10,38,120,99
India,Punjab,Khanna,"Kalal Majra, Khanna - PPCB",24-02-2024 09:00:00,30.736056 ,76.209694,NO2,30,34,31
India,Punjab,Khanna,"Kalal Majra, Khanna - PPCB",24-02-2024 09:00:00,30.736056 ,76.209694,CO,40,52,48
India,Punjab,Ludhiana,"Punjab Agricultural University, Ludhiana - PPCB",24-02-2024 09:00:00,30.9028,75.8086,NH3,4,12,8
India,Punjab,Ludhiana,"Punjab Agricultural University, Ludhiana - PPCB",24-02-2024 09:00:00,30.9028,75.8086,OZONE,11,54,15
India,Punjab,Mandi Gobindgarh,"RIMT University, Mandi Gobindgarh - PPCB",24-02-2024 09:00:00,30.649961,76.331442,NH3,2,2,2
India,Punjab,Patiala,"Model Town, Patiala - PPCB",24-02-2024 09:00:00,30.349388,76.366642,NH3,3,3,3
India,Punjab,Patiala,"Model Town, Patiala - PPCB",24-02-2024 09:00:00,30.349388,76.366642,CO,34,58,52
India,Punjab,Rupnagar,"Ratanpura, Rupnagar - Ambuja Cements",24-02-2024 09:00:00,31.0325454,76.5623046,CO,27,58,45
India,Rajasthan,Alwar,"Moti Doongri, Alwar - RSPCB",24-02-2024 09:00:00,27.554793,76.611536,PM2.5,21,49,34
India,Rajasthan,Banswara,"Rati Talai, Banswara - RSPCB",24-02-2024 09:00:00,23.555190,74.440010,PM10,25,113,67
India,Rajasthan,Banswara,"Rati Talai, Banswara - RSPCB",24-02-2024 09:00:00,23.555190,74.440010,CO,18,78,28
India,Rajasthan,Barmer,"Railway Colony, Barmer - RSPCB",24-02-2024 09:00:00,25.747299,71.393989,PM2.5,10,52,22
India,Rajasthan,Barmer,"Railway Colony, Barmer - RSPCB",24-02-2024 09:00:00,25.747299,71.393989,NO2,7,30,14
India,Rajasthan,Barmer,"Railway Colony, Barmer - RSPCB",24-02-2024 09:00:00,25.747299,71.393989,NH3,3,8,5
India,Rajasthan,Barmer,"Railway Colony, Barmer - RSPCB",24-02-2024 09:00:00,25.747299,71.393989,CO,10,38,12
India,Rajasthan,Barmer,"Railway Colony, Barmer - RSPCB",24-02-2024 09:00:00,25.747299,71.393989,OZONE,74,115,89
India,Rajasthan,Bhilwara,"Pratap Nagar, Bhilwara - RSPCB",24-02-2024 09:00:00,25.339605,74.618883,PM10,42,168,92
India,Rajasthan,Bhilwara,"Pratap Nagar, Bhilwara - RSPCB",24-02-2024 09:00:00,25.339605,74.618883,NH3,1,2,1
India,Rajasthan,Bhilwara,"Pratap Nagar, Bhilwara - RSPCB",24-02-2024 09:00:00,25.339605,74.618883,OZONE,3,88,18
India,Rajasthan,Bikaner,"MM Ground, Bikaner - RSPCB",24-02-2024 09:00:00,28.018792,73.292658,OZONE,3,93,54
India,Rajasthan,Dausa,"Khatikan Mohalla, Dausa - RSPCB",24-02-2024 09:00:00,26.895552,76.334753,NH3,4,10,6
India,Rajasthan,Dungarpur,"Bhoiwada, Dungarpur - RSPCB",24-02-2024 09:00:00,23.837789,73.714926,PM2.5,13,93,50
India,Rajasthan,Dungarpur,"Bhoiwada, Dungarpur - RSPCB",24-02-2024 09:00:00,23.837789,73.714926,SO2,7,12,8
India,Rajasthan,Hanumangarh,"Housing Board, Hanumangarh - RSPCB",24-02-2024 09:00:00,29.610750,74.283608,PM2.5,55,469,147
India,Rajasthan,Hanumangarh,"Housing Board, Hanumangarh - RSPCB",24-02-2024 09:00:00,29.610750,74.283608,NO2,14,89,35
India,Rajasthan,Hanumangarh,"Housing Board, Hanumangarh - RSPCB",24-02-2024 09:00:00,29.610750,74.283608,SO2,1,16,7
India,Rajasthan,Hanumangarh,"Housing Board, Hanumangarh - RSPCB",24-02-2024 09:00:00,29.610750,74.283608,CO,20,101,28
India,Rajasthan,Jaipur,"Adarsh Nagar, Jaipur - RSPCB",24-02-2024 09:00:00,26.902909,75.836858,PM10,43,125,74
India,Rajasthan,Jaipur,"Adarsh Nagar, Jaipur - RSPCB",24-02-2024 09:00:00,26.902909,75.836858,CO,8,106,26
India,Rajasthan,Jaipur,"Mansarovar Sector-12, Jaipur - RSPCB",24-02-2024 09:00:00,26.843698,75.766894,NH3,10,14,12
India,Rajasthan,Jaipur,"RIICO Sitapura, Jaipur - RSPCB",24-02-2024 09:00:00,26.786682,75.827928,NO2,25,173,59
India,Rajasthan,Jaipur,"RIICO Sitapura, Jaipur - RSPCB",24-02-2024 09:00:00,26.786682,75.827928,CO,28,112,45
India,Rajasthan,Jaipur,"Sector-2 Murlipura, Jaipur - RSPCB",24-02-2024 09:00:00,26.960669,75.771817,PM2.5,6,78,25
India,Rajasthan,Jaipur,"Sector-2 Murlipura, Jaipur - RSPCB",24-02-2024 09:00:00,26.960669,75.771817,PM10,54,263,107
India,Rajasthan,Jaipur,"Sector-2 Murlipura, Jaipur - RSPCB",24-02-2024 09:00:00,26.960669,75.771817,NO2,4,38,13
India,Rajasthan,Jaipur,"Sector-2 Murlipura, Jaipur - RSPCB",24-02-2024 09:00:00,26.960669,75.771817,OZONE,7,92,80
India,Rajasthan,Jaisalmer,"Sadar Bazar, Jaisalmer - RSPCB",24-02-2024 09:00:00,26.912329,70.909168,PM10,46,481,173
India,Rajasthan,Jaisalmer,"Sadar Bazar, Jaisalmer - RSPCB",24-02-2024 09:00:00,26.912329,70.909168,NH3,5,52,14
India,Rajasthan,Jaisalmer,"Sadar Bazar, Jaisalmer - RSPCB",24-02-2024 09:00:00,26.912329,70.909168,SO2,6,16,8
India,Rajasthan,Jaisalmer,"Sadar Bazar, Jaisalmer - RSPCB",24-02-2024 09:00:00,26.912329,70.909168,CO,7,116,23
India,Rajasthan,Jalore,"Mudtra Sili, Jalore - RSPCB",24-02-2024 09:00:00,25.344694,72.626208,NO2,12,102,43
India,Rajasthan,Jalore,"Mudtra Sili, Jalore - RSPCB",24-02-2024 09:00:00,25.344694,72.626208,NH3,4,8,5
India,Rajasthan,Jhunjhunu,"Indra Nagar, Jhunjhunu - RSPCB",24-02-2024 09:00:00,28.108988,75.386577,PM2.5,10,228,82
India,Rajasthan,Jhunjhunu,"Indra Nagar, Jhunjhunu - RSPCB",24-02-2024 09:00:00,28.108988,75.386577,SO2,2,12,7
India,Rajasthan,Jodhpur,"Collectorate, Jodhpur - RSPCB",24-02-2024 09:00:00,26.268249,73.0193853,PM10,NA,NA,NA
India,Rajasthan,Jodhpur,"Collectorate, Jodhpur - RSPCB",24-02-2024 09:00:00,26.268249,73.0193853,SO2,2,54,19
India,Rajasthan,Jodhpur,"Collectorate, Jodhpur - RSPCB",24-02-2024 09:00:00,26.268249,73.0193853,CO,24,91,61
India,Rajasthan,Jodhpur,"Collectorate, Jodhpur - RSPCB",24-02-2024 09:00:00,26.268249,73.0193853,OZONE,43,158,84
India,Rajasthan,Jodhpur,"Digari Kalan, Jodhpur - RSPCB",24-02-2024 09:00:00,26.295810,73.082283,PM2.5,4,69,35
India,Rajasthan,Jodhpur,"Digari Kalan, Jodhpur - RSPCB",24-02-2024 09:00:00,26.295810,73.082283,PM10,43,217,86
India,Rajasthan,Jodhpur,"Jhalamand, Jodhpur - RSPCB",24-02-2024 09:00:00,26.215415,73.070156,PM2.5,13,361,103
India,Rajasthan,Jodhpur,"Jhalamand, Jodhpur - RSPCB",24-02-2024 09:00:00,26.215415,73.070156,PM10,46,338,109
India,Rajasthan,Jodhpur,"Jhalamand, Jodhpur - RSPCB",24-02-2024 09:00:00,26.215415,73.070156,NH3,4,13,7
India,Rajasthan,Jodhpur,"Jhalamand, Jodhpur - RSPCB",24-02-2024 09:00:00,26.215415,73.070156,SO2,5,14,8
India,Rajasthan,Jodhpur,"Jhalamand, Jodhpur - RSPCB",24-02-2024 09:00:00,26.215415,73.070156,CO,8,96,20
India,Rajasthan,Jodhpur,"Mandor, Jodhpur - RSPCB",24-02-2024 09:00:00,26.358805,73.047444,SO2,3,86,10
India,Rajasthan,Karauli,"Satyawati Vihar, Karauli - RSPCB",24-02-2024 09:00:00,26.506177,77.025989,CO,56,101,81
India,Rajasthan,Kota,"Dhanmandi, Kota - RSPCB",24-02-2024 09:00:00,25.164090,75.858137,OZONE,NA,NA,NA
India,Rajasthan,Kota,"Nayapura, Kota - RSPCB",24-02-2024 09:00:00,25.196024,75.855668,NO2,21,129,52
India,Rajasthan,Kota,"Nayapura, Kota - RSPCB",24-02-2024 09:00:00,25.196024,75.855668,SO2,4,9,5
India,Rajasthan,Kota,"Shrinath Puram, Kota - RSPCB",24-02-2024 09:00:00,25.14389,75.821256,PM2.5,94,315,168
India,Rajasthan,Kota,"Shrinath Puram, Kota - RSPCB",24-02-2024 09:00:00,25.14389,75.821256,NH3,5,10,8
India,Rajasthan,Kota,"Shrinath Puram, Kota - RSPCB",24-02-2024 09:00:00,25.14389,75.821256,SO2,5,43,14
India,Rajasthan,Kota,"Shrinath Puram, Kota - RSPCB",24-02-2024 09:00:00,25.14389,75.821256,OZONE,14,80,46
India,Rajasthan,Nagaur,"Karni Colony, Nagaur - RSPCB",24-02-2024 09:00:00,27.213494,73.734444,PM2.5,15,97,37
India,Rajasthan,Nagaur,"Karni Colony, Nagaur - RSPCB",24-02-2024 09:00:00,27.213494,73.734444,SO2,2,10,4
India,Rajasthan,Sawai Madhopur,"Sahu Nagar, Sawai Madhopur - RSPCB",24-02-2024 09:00:00,26.031443,76.359327,OZONE,13,103,49
India,Rajasthan,Sikar,"Radhakishan Pura, Sikar - RSPCB",24-02-2024 09:00:00,27.608912,75.153302,PM2.5,26,306,90
India,Rajasthan,Sikar,"Radhakishan Pura, Sikar - RSPCB",24-02-2024 09:00:00,27.608912,75.153302,NO2,6,30,12
India,Rajasthan,Sirohi,"Vedhaynath Colony, Sirohi - RSPCB",24-02-2024 09:00:00,24.885261,72.857549,CO,14,63,24
India,Rajasthan,Sri Ganganagar,"Old City, Sri Ganganagar - RSPCB",24-02-2024 09:00:00,29.931624,73.864511,OZONE,1,99,14
India,Rajasthan,Tonk,"Shastri Nagar, Tonk - RSPCB",24-02-2024 09:00:00,26.159933,75.780517,PM2.5,39,403,110
India,Rajasthan,Udaipur,"Ashok Nagar, Udaipur - RSPCB",24-02-2024 09:00:00,24.5886166,73.6321397,NH3,2,5,3
India,Rajasthan,Udaipur,"Ashok Nagar, Udaipur - RSPCB",24-02-2024 09:00:00,24.5886166,73.6321397,CO,50,112,57
India,Sikkim,Gangtok,"Zero Point GICI, Gangtok - SSPCB",24-02-2024 09:00:00,27.338530,88.614099,NH3,1,1,1
India,TamilNadu,Ariyalur,"Keelapalur, Ariyalur - TNPCB",24-02-2024 09:00:00,11.06825,79.07033,PM10,35,75,57
India,TamilNadu,Chengalpattu,"Crescent University, Chengalpattu - TNPCB",24-02-2024 09:00:00,12.8777316,80.0834807,CO,24,28,26
India,TamilNadu,Chennai,"Alandur Bus Depot, Chennai - CPCB",24-02-2024 09:00:00,12.9099161,80.1076538,NO2,11,86,24
India,TamilNadu,Chennai,"Alandur Bus Depot, Chennai - CPCB",24-02-2024 09:00:00,12.9099161,80.1076538,NH3,7,14,8
India,TamilNadu,Chennai,"Kodungaiyur, Chennai - TNPCB",24-02-2024 09:00:00,13.1278,80.2642,PM2.5,14,41,25
India,TamilNadu,Chennai,"Manali, Chennai - CPCB",24-02-2024 09:00:00,13.164544,80.26285,OZONE,10,21,17
India,TamilNadu,Chennai,"Perungudi, Chennai - TNPCB",24-02-2024 09:00:00,12.9533,80.2357,SO2,1,5,3
India,TamilNadu,Chennai,"Royapuram, Chennai - TNPCB",24-02-2024 09:00:00,13.1036,80.2909,SO2,1,5,3
India,TamilNadu,Chennai,"Velachery Res. Area, Chennai - CPCB",24-02-2024 09:00:00,13.0052189,80.2398125,NO2,16,55,30
India,TamilNadu,Chennai,"Velachery Res. Area, Chennai - CPCB",24-02-2024 09:00:00,13.0052189,80.2398125,OZONE,11,26,18
India,TamilNadu,Coimbatore,"PSG College of Arts and Science, Coimbatore - TNPCB",24-02-2024 09:00:00,11.0328,77.0349,CO,5,5,5
India,TamilNadu,Cuddalore,"Kudikadu, Cuddalore - TNPCB",24-02-2024 09:00:00,11.6829898,79.7532099,SO2,10,12,11
India,TamilNadu,Gummidipoondi,"Anthoni Pillai Nagar, Gummidipoondi - TNPCB",24-02-2024 09:00:00,13.4127,80.1081,NH3,1,2,2
India,TamilNadu,Kanchipuram,"Kilambi, Kanchipuram - TNPCB",24-02-2024 09:00:00,12.864618,79.659968,SO2,4,13,9
India,TamilNadu,Kanchipuram,"Kilambi, Kanchipuram - TNPCB",24-02-2024 09:00:00,12.864618,79.659968,OZONE,NA,NA,NA
India,TamilNadu,Ooty,"Bombay Castel, Ooty - TNPCB",24-02-2024 09:00:00,11.4068288,76.7138973,PM10,NA,NA,NA
India,TamilNadu,Tirupur,"Kumaran College, Tirupur - TNPCB",24-02-2024 09:00:00,11.0973603,77.3228673,CO,19,101,30
India,TamilNadu,Vellore,"Vasanthapuram, Vellore - TNPCB",24-02-2024 09:00:00,12.909494,79.131861,PM10,44,120,76
India,TamilNadu,Vellore,"Vasanthapuram, Vellore - TNPCB",24-02-2024 09:00:00,12.909494,79.131861,SO2,NA,NA,NA
India,TamilNadu,Vellore,"Vasanthapuram, Vellore - TNPCB",24-02-2024 09:00:00,12.909494,79.131861,OZONE,1,2,2
India,TamilNadu,Virudhunagar,"Collectorate Office, Virudhunagar - TNPCB",24-02-2024 09:00:00,9.559382,77.948828,CO,19,26,23
India,Telangana,Hyderabad,"Bollaram Industrial Area, Hyderabad - TSPCB",24-02-2024 09:00:00,17.540891,78.358528,PM10,85,134,113
India,Telangana,Hyderabad,"ECIL Kapra, Hyderabad - TSPCB",24-02-2024 09:00:00,17.470431,78.566959,PM2.5,37,41,39
India,Telangana,Hyderabad,"ECIL Kapra, Hyderabad - TSPCB",24-02-2024 09:00:00,17.470431,78.566959,OZONE,6,67,16
India,Telangana,Hyderabad,"ICRISAT Patancheru, Hyderabad - TSPCB",24-02-2024 09:00:00,17.518400,78.278777,NH3,2,2,2
India,Telangana,Hyderabad,"ICRISAT Patancheru, Hyderabad - TSPCB",24-02-2024 09:00:00,17.518400,78.278777,CO,26,94,63
India,Telangana,Hyderabad,"ICRISAT Patancheru, Hyderabad - TSPCB",24-02-2024 09:00:00,17.518400,78.278777,OZONE,6,152,35
India,Telangana,Hyderabad,"IITH Kandi, Hyderabad - TSPCB",24-02-2024 09:00:00,17.585705,78.126199,PM10,NA,NA,NA
India,Telangana,Hyderabad,"IITH Kandi, Hyderabad - TSPCB",24-02-2024 09:00:00,17.585705,78.126199,CO,NA,NA,NA
India,Telangana,Hyderabad,"Kokapet, Hyderabad - TSPCB",24-02-2024 09:00:00,17.393559,78.339194,OZONE,2,11,3
India,Telangana,Hyderabad,"Kompally Municipal Office, Hyderabad - TSPCB",24-02-2024 09:00:00,17.544899,78.486949,SO2,2,17,6
India,Telangana,Hyderabad,"Nacharam_TSIIC IALA, Hyderabad - TSPCB",24-02-2024 09:00:00,17.429398,78.569354,PM10,62,80,71
India,Telangana,Hyderabad,"Nacharam_TSIIC IALA, Hyderabad - TSPCB",24-02-2024 09:00:00,17.429398,78.569354,CO,17,23,18
India,Telangana,Hyderabad,"Nacharam_TSIIC IALA, Hyderabad - TSPCB",24-02-2024 09:00:00,17.429398,78.569354,OZONE,17,49,30
India,Telangana,Hyderabad,"New Malakpet, Hyderabad - TSPCB",24-02-2024 09:00:00,17.37206,78.50864,SO2,7,25,16
India,Telangana,Hyderabad,"Ramachandrapuram, Hyderabad - TSPCB",24-02-2024 09:00:00,17.528544,78.286195,PM2.5,44,46,45
India,Telangana,Hyderabad,"Ramachandrapuram, Hyderabad - TSPCB",24-02-2024 09:00:00,17.528544,78.286195,PM10,81,85,82
India,Telangana,Hyderabad,"Ramachandrapuram, Hyderabad - TSPCB",24-02-2024 09:00:00,17.528544,78.286195,SO2,1,33,14
India,Telangana,Hyderabad,"Sanathnagar, Hyderabad - TSPCB",24-02-2024 09:00:00,17.4559458,78.4332152,OZONE,14,50,15
India,Telangana,Hyderabad,"Zoo Park, Hyderabad - TSPCB",24-02-2024 09:00:00,17.349694,78.451437,NO2,14,44,31
India,Telangana,Hyderabad,"Zoo Park, Hyderabad - TSPCB",24-02-2024 09:00:00,17.349694,78.451437,CO,24,75,47
India,Tripura,Agartala,"Bardowali, Agartala - Tripura SPCB",24-02-2024 09:00:00,23.8175497,91.2726974,PM10,76,171,122
India,Tripura,Agartala,"Bardowali, Agartala - Tripura SPCB",24-02-2024 09:00:00,23.8175497,91.2726974,SO2,25,27,26
India,Tripura,Agartala,"Bardowali, Agartala - Tripura SPCB",24-02-2024 09:00:00,23.8175497,91.2726974,OZONE,NA,NA,NA
India,Uttar_Pradesh,Agra,"Rohta, Agra - UPPCB",24-02-2024 09:00:00,27.106972,78.000111,PM2.5,15,81,47
India,Uttar_Pradesh,Agra,"Rohta, Agra - UPPCB",24-02-2024 09:00:00,27.106972,78.000111,NH3,2,2,2
India,Uttar_Pradesh,Agra,"Rohta, Agra - UPPCB",24-02-2024 09:00:00,27.106972,78.000111,SO2,1,9,5
India,Uttar_Pradesh,Agra,"Sanjay Palace, Agra - UPPCB",24-02-2024 09:00:00,27.19865833,78.00598056,PM2.5,5,47,28
India,Uttar_Pradesh,Agra,"Sanjay Palace, Agra - UPPCB",24-02-2024 09:00:00,27.19865833,78.00598056,PM10,23,68,41
India,Uttar_Pradesh,Agra,"Sanjay Palace, Agra - UPPCB",24-02-2024 09:00:00,27.19865833,78.00598056,NO2,43,79,61
India,Uttar_Pradesh,Agra,"Sanjay Palace, Agra - UPPCB",24-02-2024 09:00:00,27.19865833,78.00598056,SO2,5,9,8
India,Uttar_Pradesh,Agra,"Sector-3B Avas Vikas Colony, Agra - UPPCB",24-02-2024 09:00:00,27.19412,77.96237,NH3,3,6,5
India,Uttar_Pradesh,Agra,"Shahjahan Garden, Agra - UPPCB",24-02-2024 09:00:00,27.169338,78.03582,PM10,22,79,47
India,Uttar_Pradesh,Agra,"Shahjahan Garden, Agra - UPPCB",24-02-2024 09:00:00,27.169338,78.03582,NO2,26,27,26
India,Uttar_Pradesh,Agra,"Shahjahan Garden, Agra - UPPCB",24-02-2024 09:00:00,27.169338,78.03582,OZONE,1,4,2
India,Uttar_Pradesh,Agra,"Shastripuram, Agra - UPPCB",24-02-2024 09:00:00,27.19862,77.92066,PM2.5,31,109,60
India,Uttar_Pradesh,Baghpat,"Sardar Patel Inter College, Baghpat - UPPCB",24-02-2024 09:00:00,28.964949,77.278761,PM2.5,15,193,73
India,Uttar_Pradesh,Baghpat,"Sardar Patel Inter College, Baghpat - UPPCB",24-02-2024 09:00:00,28.964949,77.278761,SO2,13,57,28
India,Uttar_Pradesh,Bareilly,"Civil Lines, Bareilly - UPPCB",24-02-2024 09:00:00,28.359581,79.414455,PM2.5,21,71,46
India,Uttar_Pradesh,Bareilly,"Civil Lines, Bareilly - UPPCB",24-02-2024 09:00:00,28.359581,79.414455,PM10,NA,NA,NA
India,Uttar_Pradesh,Bareilly,"Rajendra Nagar, Bareilly - UPPCB",24-02-2024 09:00:00,28.38910936,79.42963708,NO2,23,65,43
India,Uttar_Pradesh,Bulandshahr,"Yamunapuram, Bulandshahr - UPPCB",24-02-2024 09:00:00,28.406963,77.849831,NO2,9,63,38
India,Uttar_Pradesh,Bulandshahr,"Yamunapuram, Bulandshahr - UPPCB",24-02-2024 09:00:00,28.406963,77.849831,OZONE,1,70,5
India,Uttar_Pradesh,Firozabad,"Nagla Bhau, Firozabad - UPPCB",24-02-2024 09:00:00,27.168897,78.376960,NH3,2,2,2
India,Uttar_Pradesh,Firozabad,"Nagla Bhau, Firozabad - UPPCB",24-02-2024 09:00:00,27.168897,78.376960,CO,13,28,25
India,Uttar_Pradesh,Ghaziabad,"Loni, Ghaziabad - UPPCB",24-02-2024 09:00:00,28.757294,77.278792,PM2.5,27,289,98
India,Uttar_Pradesh,Ghaziabad,"Vasundhara, Ghaziabad - UPPCB",24-02-2024 09:00:00,28.6603346,77.3572563,PM2.5,20,172,80
India,Uttar_Pradesh,Ghaziabad,"Vasundhara, Ghaziabad - UPPCB",24-02-2024 09:00:00,28.6603346,77.3572563,NO2,13,131,66
India,Uttar_Pradesh,Ghaziabad,"Vasundhara, Ghaziabad - UPPCB",24-02-2024 09:00:00,28.6603346,77.3572563,NH3,5,11,8
India,Uttar_Pradesh,Gorakhpur,"Madan Mohan Malaviya University of Technology, Gorakhpur - UPPCB",24-02-2024 09:00:00,26.730136,83.433859,NH3,1,2,2
India,Uttar_Pradesh,Gorakhpur,"Madan Mohan Malaviya University of Technology, Gorakhpur - UPPCB",24-02-2024 09:00:00,26.730136,83.433859,SO2,23,47,26
India,Uttar_Pradesh,Greater Noida,"Knowledge Park - III, Greater Noida - UPPCB",24-02-2024 09:00:00,28.47272,77.482000,CO,26,102,56
India,Uttar_Pradesh,Greater Noida,"Knowledge Park - V, Greater Noida - UPPCB",24-02-2024 09:00:00,28.557054,77.453663,SO2,4,38,20
India,Uttar_Pradesh,Hapur,"Anand Vihar, Hapur - UPPCB",24-02-2024 09:00:00,28.725645,77.749675,SO2,14,51,30
India,Uttar_Pradesh,Jhansi,"Shivaji Nagar, Jhansi - UPPCB",24-02-2024 09:00:00,25.4547,78.6039,OZONE,1,27,1
India,Uttar_Pradesh,Kanpur,"FTI Kidwai Nagar, Kanpur - UPPCB",24-02-2024 09:00:00,26.428282,80.327067,NH3,2,4,3
India,Uttar_Pradesh,Kanpur,"NSI Kalyanpur, Kanpur - UPPCB",24-02-2024 09:00:00,26.509954,80.249612,OZONE,19,37,23
India,Uttar_Pradesh,Kanpur,"Nehru Nagar, Kanpur - UPPCB",24-02-2024 09:00:00,26.4703136,80.3229863,CO,3,104,33
India,Uttar_Pradesh,Kanpur,"Nehru Nagar, Kanpur - UPPCB",24-02-2024 09:00:00,26.4703136,80.3229863,OZONE,24,213,84
India,Uttar_Pradesh,Khurja,"Kalindi Kunj, Khurja - UPPCB",24-02-2024 09:00:00,28.2348927,77.8683002,CO,2,20,18
India,Uttar_Pradesh,Lucknow,"B R Ambedkar University, Lucknow - UPPCB",24-02-2024 09:00:00,26.766433,80.927299,SO2,26,32,28
India,Uttar_Pradesh,Lucknow,"Gomti Nagar, Lucknow - UPPCB",24-02-2024 09:00:00,26.868120,81.005119,PM2.5,2,63,29
India,Uttar_Pradesh,Lucknow,"Gomti Nagar, Lucknow - UPPCB",24-02-2024 09:00:00,26.868120,81.005119,SO2,2,25,10
India,Uttar_Pradesh,Lucknow,"Kukrail Picnic Spot-1, Lucknow - UPPCB",24-02-2024 09:00:00,26.90723,80.98579,PM2.5,11,72,46
India,Uttar_Pradesh,Lucknow,"Kukrail Picnic Spot-1, Lucknow - UPPCB",24-02-2024 09:00:00,26.90723,80.98579,PM10,22,87,56
India,Uttar_Pradesh,Lucknow,"Kukrail Picnic Spot-1, Lucknow - UPPCB",24-02-2024 09:00:00,26.90723,80.98579,CO,10,31,27
India,Uttar_Pradesh,Lucknow,"Kukrail Picnic Spot-1, Lucknow - UPPCB",24-02-2024 09:00:00,26.90723,80.98579,OZONE,1,80,3
India,Uttar_Pradesh,Lucknow,"Lalbagh, Lucknow - CPCB",24-02-2024 09:00:00,26.8458805,80.9365541,SO2,1,12,5
India,Uttar_Pradesh,Lucknow,"Lalbagh, Lucknow - CPCB",24-02-2024 09:00:00,26.8458805,80.9365541,OZONE,8,95,16
India,Uttar_Pradesh,Lucknow,"Talkatora District Industries Center, Lucknow - CPCB",24-02-2024 09:00:00,26.83399722,80.8917361,PM2.5,34,339,153
India,Uttar_Pradesh,Lucknow,"Talkatora District Industries Center, Lucknow - CPCB",24-02-2024 09:00:00,26.83399722,80.8917361,NH3,11,29,20
India,Uttar_Pradesh,Meerut,"Ganga Nagar, Meerut - UPPCB",24-02-2024 09:00:00,28.999264,77.7590354,PM2.5,9,126,59
India,Uttar_Pradesh,Meerut,"Ganga Nagar, Meerut - UPPCB",24-02-2024 09:00:00,28.999264,77.7590354,SO2,10,33,21
India,Uttar_Pradesh,Meerut,"Jai Bhim Nagar, Meerut - UPPCB",24-02-2024 09:00:00,28.9535882,77.7622941,PM10,39,178,76
India,Uttar_Pradesh,Meerut,"Jai Bhim Nagar, Meerut - UPPCB",24-02-2024 09:00:00,28.9535882,77.7622941,CO,44,104,74
India,Uttar_Pradesh,Meerut,"Jai Bhim Nagar, Meerut - UPPCB",24-02-2024 09:00:00,28.9535882,77.7622941,OZONE,1,77,17
India,Uttar_Pradesh,Meerut,"Pallavpuram Phase 2, Meerut - UPPCB",24-02-2024 09:00:00,29.063510,77.709723,NO2,22,116,71
India,Uttar_Pradesh,Meerut,"Pallavpuram Phase 2, Meerut - UPPCB",24-02-2024 09:00:00,29.063510,77.709723,NH3,1,10,7
India,Uttar_Pradesh,Moradabad,"Buddhi Vihar, Moradabad - UPPCB",24-02-2024 09:00:00,28.83526,78.74460,PM10,20,137,75
India,Uttar_Pradesh,Moradabad,"Buddhi Vihar, Moradabad - UPPCB",24-02-2024 09:00:00,28.83526,78.74460,NH3,2,2,2
India,Uttar_Pradesh,Moradabad,"Eco Herbal Park, Moradabad - UPPCB",24-02-2024 09:00:00,28.840739,78.697531,NO2,13,64,29
India,Uttar_Pradesh,Moradabad,"Employment Office, Moradabad - UPPCB",24-02-2024 09:00:00,28.88528,78.73880,PM10,39,144,101
India,Uttar_Pradesh,Moradabad,"Transport Nagar, Moradabad - UPPCB",24-02-2024 09:00:00,28.802625,78.753728,SO2,41,47,44
India,Uttar_Pradesh,Moradabad,"Transport Nagar, Moradabad - UPPCB",24-02-2024 09:00:00,28.802625,78.753728,OZONE,14,38,15
India,Uttar_Pradesh,Muzaffarnagar,"New Mandi, Muzaffarnagar - UPPCB",24-02-2024 09:00:00,29.4723508,77.7194031,CO,NA,NA,NA
India,Uttar_Pradesh,Noida,"Sector - 125, Noida - UPPCB",24-02-2024 09:00:00,28.5447608,77.3231257,NH3,3,12,8
India,Uttar_Pradesh,Noida,"Sector - 62, Noida - IMD",24-02-2024 09:00:00,28.6245479,77.3577104,PM2.5,36,168,89
India,Uttar_Pradesh,Noida,"Sector - 62, Noida - IMD",24-02-2024 09:00:00,28.6245479,77.3577104,PM10,76,234,139
India,Uttar_Pradesh,Noida,"Sector-1, Noida - UPPCB",24-02-2024 09:00:00,28.5898,77.3101,SO2,3,19,7
India,Uttar_Pradesh,Prayagraj,"Motilal Nehru NIT, Prayagraj - UPPCB",24-02-2024 09:00:00,25.494,81.863,PM2.5,16,61,31
India,Uttar_Pradesh,Prayagraj,"Motilal Nehru NIT, Prayagraj - UPPCB",24-02-2024 09:00:00,25.494,81.863,NH3,5,7,6
India,Uttar_Pradesh,Prayagraj,"Nagar Nigam, Prayagraj - UPPCB",24-02-2024 09:00:00,25.44919916 ,81.82735986 ,PM2.5,20,72,42
India,Uttar_Pradesh,Varanasi,"Ardhali Bazar, Varanasi - UPPCB",24-02-2024 09:00:00,25.3505986,82.9083074,SO2,10,28,18
India,Uttar_Pradesh,Varanasi,"Ardhali Bazar, Varanasi - UPPCB",24-02-2024 09:00:00,25.3505986,82.9083074,OZONE,19,37,27
India,Uttar_Pradesh,Varanasi,"Bhelupur, Varanasi - UPPCB",24-02-2024 09:00:00,25.301778,82.996789,OZONE,1,43,1
India,Uttar_Pradesh,Varanasi,"IESD Banaras Hindu University, Varanasi - UPPCB",24-02-2024 09:00:00,25.262326,82.995408,SO2,15,15,15
India,Uttar_Pradesh,Vrindavan,"Omex Eternity, Vrindavan - UPPCB",24-02-2024 09:00:00,27.5714090,77.6557570,NO2,2,3,3
India,Uttar_Pradesh,Vrindavan,"Omex Eternity, Vrindavan - UPPCB",24-02-2024 09:00:00,27.5714090,77.6557570,OZONE,29,32,31
India,Uttarakhand,Kashipur,"Govt. Girls Inter College, Kashipur - UKPCB",24-02-2024 09:00:00,29.2124114,78.9611753,PM10,39,108,74
India,Uttarakhand,Kashipur,"Govt. Girls Inter College, Kashipur - UKPCB",24-02-2024 09:00:00,29.2124114,78.9611753,OZONE,8,30,10
India,Uttarakhand,Rishikesh,"Shivaji Nagar, Rishikesh - UKPCB",24-02-2024 09:00:00,30.075911,78.2859547,PM2.5,14,38,28
India,Uttarakhand,Rishikesh,"Shivaji Nagar, Rishikesh - UKPCB",24-02-2024 09:00:00,30.075911,78.2859547,SO2,3,5,4
India,West_Bengal,Asansol,"Asansol Court Area, Asansol - WBPCB",24-02-2024 09:00:00,23.685297,86.945968,NH3,6,11,7
India,West_Bengal,Howrah,"Ghusuri, Howrah - WBPCB",24-02-2024 09:00:00,22.611968,88.347422,SO2,3,7,6
India,West_Bengal,Howrah,"Padmapukur, Howrah - WBPCB",24-02-2024 09:00:00,22.5687319,88.2797276,PM2.5,36,92,64
India,West_Bengal,Howrah,"Padmapukur, Howrah - WBPCB",24-02-2024 09:00:00,22.5687319,88.2797276,CO,39,114,85
India,West_Bengal,Kolkata,"Bidhannagar, Kolkata - WBPCB",24-02-2024 09:00:00,22.58157048,88.41002457,PM2.5,57,122,84
India,West_Bengal,Kolkata,"Bidhannagar, Kolkata - WBPCB",24-02-2024 09:00:00,22.58157048,88.41002457,SO2,5,15,10
India,West_Bengal,Kolkata,"Bidhannagar, Kolkata - WBPCB",24-02-2024 09:00:00,22.58157048,88.41002457,CO,13,46,33
India,West_Bengal,Kolkata,"Fort William, Kolkata - WBPCB",24-02-2024 09:00:00,22.556640,88.342674,PM2.5,9,128,75
India,West_Bengal,Kolkata,"Fort William, Kolkata - WBPCB",24-02-2024 09:00:00,22.556640,88.342674,SO2,4,64,14
India,West_Bengal,Kolkata,"Jadavpur, Kolkata - WBPCB",24-02-2024 09:00:00,22.49929,88.36917,NO2,2,16,4
India,West_Bengal,Kolkata,"Jadavpur, Kolkata - WBPCB",24-02-2024 09:00:00,22.49929,88.36917,OZONE,14,56,17
India,West_Bengal,Kolkata,"Rabindra Bharati University, Kolkata - WBPCB",24-02-2024 09:00:00,22.627847,88.380669,NO2,21,23,22
India,West_Bengal,Kolkata,"Rabindra Bharati University, Kolkata - WBPCB",24-02-2024 09:00:00,22.627847,88.380669,NH3,6,8,7
India,West_Bengal,Kolkata,"Rabindra Sarobar, Kolkata - WBPCB",24-02-2024 09:00:00,22.51106,88.35142,PM2.5,32,86,61
India,West_Bengal,Kolkata,"Rabindra Sarobar, Kolkata - WBPCB",24-02-2024 09:00:00,22.51106,88.35142,NO2,32,137,68
India,West_Bengal,Kolkata,"Rabindra Sarobar, Kolkata - WBPCB",24-02-2024 09:00:00,22.51106,88.35142,SO2,10,72,21
India,West_Bengal,Kolkata,"Victoria, Kolkata - WBPCB",24-02-2024 09:00:00,22.5448082,88.3403691,PM2.5,42,134,80
India,West_Bengal,Kolkata,"Victoria, Kolkata - WBPCB",24-02-2024 09:00:00,22.5448082,88.3403691,CO,23,74,41
India,West_Bengal,Siliguri,"Ward-32 Bapupara, Siliguri - WBPCB",24-02-2024 09:00:00,26.6879226,88.4152495,PM10,NA,NA,NA
India,West_Bengal,Siliguri,"Ward-32 Bapupara, Siliguri - WBPCB",24-02-2024 09:00:00,26.6879226,88.4152495,NO2,NA,NA,NA
India,Andhra_Pradesh,Amaravati,"Secretariat, Amaravati - APPCB",24-02-2024 09:00:00,16.5150833,80.5181667,NO2,6,13,9
India,Andhra_Pradesh,Amaravati,"Secretariat, Amaravati - APPCB",24-02-2024 09:00:00,16.5150833,80.5181667,OZONE,8,45,10
India,Andhra_Pradesh,Kadapa,"Yerramukkapalli, Kadapa - APPCB",24-02-2024 09:00:00,14.465052,78.824187,OZONE,11,102,18
India,Andhra_Pradesh,Rajamahendravaram,"Anand Kala Kshetram, Rajamahendravaram - APPCB",24-02-2024 09:00:00,16.9872867,81.7363176,PM2.5,NA,NA,NA
India,Andhra_Pradesh,Rajamahendravaram,"Anand Kala Kshetram, Rajamahendravaram - APPCB",24-02-2024 09:00:00,16.9872867,81.7363176,NH3,NA,NA,NA
India,Andhra_Pradesh,Rajamahendravaram,"Anand Kala Kshetram, Rajamahendravaram - APPCB",24-02-2024 09:00:00,16.9872867,81.7363176,OZONE,NA,NA,NA
India,Andhra_Pradesh,Tirupati,"Tirumala, Tirupati - APPCB",24-02-2024 09:00:00,13.67,79.35,OZONE,16,53,23
India,Andhra_Pradesh,Tirupati,"Vaikuntapuram, Tirupati - APPCB",24-02-2024 09:00:00,13.615387,79.409230,CO,9,16,13
India,Andhra_Pradesh,Vijayawada,"HB Colony, Vijayawada - APPCB",24-02-2024 09:00:00,16.536107,80.594233,NO2,6,15,9
India,Andhra_Pradesh,Vijayawada,"HB Colony, Vijayawada - APPCB",24-02-2024 09:00:00,16.536107,80.594233,SO2,3,5,4
India,Andhra_Pradesh,Vijayawada,"HB Colony, Vijayawada - APPCB",24-02-2024 09:00:00,16.536107,80.594233,CO,18,18,18
India,Andhra_Pradesh,Vijayawada,"Kanuru, Vijayawada - APPCB",24-02-2024 09:00:00,16.486692,80.699436,SO2,5,7,5
India,Andhra_Pradesh,Vijayawada,"Rajiv Gandhi Park, Vijayawada - APPCB",24-02-2024 09:00:00,16.509717,80.612222,CO,31,31,31
India,Andhra_Pradesh,Visakhapatnam,"GVM Corporation, Visakhapatnam - APPCB",24-02-2024 09:00:00,17.72,83.3,NH3,3,5,4
India,Arunachal_Pradesh,Naharlagun,"Naharlagun, Naharlagun - APSPCB",24-02-2024 09:00:00,27.103358,93.679645,CO,10,36,20
India,Assam,Byrnihat,"Central Academy for SFS, Byrnihat - PCBA",24-02-2024 09:00:00,26.071318,91.87488,NO2,38,102,55
India,Assam,Byrnihat,"Central Academy for SFS, Byrnihat - PCBA",24-02-2024 09:00:00,26.071318,91.87488,CO,1,174,43
India,Assam,Guwahati,"LGBI Airport, Guwahati - PCBA",24-02-2024 09:00:00,26.10887,91.589544,CO,NA,NA,NA
India,Assam,Guwahati,"Railway Colony, Guwahati - PCBA",24-02-2024 09:00:00,26.181742,91.78063,PM2.5,50,371,177
India,Assam,Guwahati,"Railway Colony, Guwahati - PCBA",24-02-2024 09:00:00,26.181742,91.78063,PM10,71,310,150
India,Assam,Guwahati,"Railway Colony, Guwahati - PCBA",24-02-2024 09:00:00,26.181742,91.78063,SO2,8,15,10
India,Assam,Nalbari,"Bata Chowk, Nalbari - PCBA",24-02-2024 09:00:00,26.446912,91.439057,OZONE,14,84,40
India,Assam,Silchar,"Tarapur, Silchar - PCBA",24-02-2024 09:00:00,24.82827,92.79525,PM2.5,41,56,48
India,Bihar,Araria,"Kharahiya Basti, Araria - BSPCB",24-02-2024 09:00:00,26.146529,87.454184,SO2,14,17,15
India,Bihar,Arrah,"New DM Office, Arrah - BSPCB",24-02-2024 09:00:00,25.5626095,84.663264,NH3,5,7,5
India,Bihar,Arrah,"New DM Office, Arrah - BSPCB",24-02-2024 09:00:00,25.5626095,84.663264,OZONE,12,54,15
India,Bihar,Aurangabad,"Gurdeo Nagar, Aurangabad - BSPCB",24-02-2024 09:00:00,24.75746,84.366208,PM2.5,NA,NA,NA
India,Bihar,Aurangabad,"Gurdeo Nagar, Aurangabad - BSPCB",24-02-2024 09:00:00,24.75746,84.366208,SO2,1,9,6
India,Bihar,Bettiah,"Kamalnath Nagar, Bettiah - BSPCB",24-02-2024 09:00:00,26.80365,84.51954,PM2.5,12,68,41
India,Bihar,Bhagalpur,"Mayaganj, Bhagalpur - BSPCB",24-02-2024 09:00:00,25.265194,87.012947,PM2.5,75,301,153
India,Bihar,Bhagalpur,"Mayaganj, Bhagalpur - BSPCB",24-02-2024 09:00:00,25.265194,87.012947,NH3,7,9,8
India,Bihar,Bhagalpur,"Mayaganj, Bhagalpur - BSPCB",24-02-2024 09:00:00,25.265194,87.012947,OZONE,15,54,36
India,Bihar,Bihar Sharif,"D M Colony, Bihar Sharif - BSPCB",24-02-2024 09:00:00,25.204762,85.514960,PM10,38,103,68
India,Bihar,Chhapra,"Darshan Nagar, Chhapra - BSPCB",24-02-2024 09:00:00,25.7808257,84.7446768,NO2,16,26,21
India,Bihar,Gaya,"Kareemganj, Gaya - BSPCB",24-02-2024 09:00:00,24.792403,84.992416,OZONE,3,43,20
India,Bihar,Gaya,"SFTI Kusdihra, Gaya - BSPCB",24-02-2024 09:00:00,24.762518,84.982348,NH3,1,3,2
India,Bihar,Gaya,"SFTI Kusdihra, Gaya - BSPCB",24-02-2024 09:00:00,24.762518,84.982348,SO2,7,9,8
India,Bihar,Gaya,"SFTI Kusdihra, Gaya - BSPCB",24-02-2024 09:00:00,24.762518,84.982348,CO,18,48,37
India,Bihar,Gaya,"SFTI Kusdihra, Gaya - BSPCB",24-02-2024 09:00:00,24.762518,84.982348,OZONE,1,54,3
India,Bihar,Hajipur,"Industrial Area, Hajipur - BSPCB",24-02-2024 09:00:00,25.697189,85.245900,PM2.5,55,179,93
India,Bihar,Manguraha,"Forest Rest House, Manguraha - BSPCB",24-02-2024 09:00:00,27.308328,84.531742,SO2,3,3,3
India,Bihar,Motihari,"Gandak Colony, Motihari - BSPCB",24-02-2024 09:00:00,26.63086,84.90051,NH3,2,12,9
India,Bihar,Muzaffarpur,"Buddha Colony, Muzaffarpur - BSPCB",24-02-2024 09:00:00,26.11442,85.39813,PM2.5,148,283,194
India,Bihar,Muzaffarpur,"Buddha Colony, Muzaffarpur - BSPCB",24-02-2024 09:00:00,26.11442,85.39813,NO2,21,57,37
India,Bihar,Patna,"DRM Office Danapur, Patna - BSPCB",24-02-2024 09:00:00,25.586562,85.043586,PM2.5,78,178,139
India,Bihar,Patna,"DRM Office Danapur, Patna - BSPCB",24-02-2024 09:00:00,25.586562,85.043586,PM10,136,199,161
India,Bihar,Patna,"DRM Office Danapur, Patna - BSPCB",24-02-2024 09:00:00,25.586562,85.043586,CO,24,97,37
India,Bihar,Patna,"Govt. High School Shikarpur, Patna - BSPCB",24-02-2024 09:00:00,25.592539,85.227158,CO,26,51,36
India,Bihar,Patna,"Govt. High School Shikarpur, Patna - BSPCB",24-02-2024 09:00:00,25.592539,85.227158,OZONE,46,61,54
India,Bihar,Patna,"Muradpur, Patna - BSPCB",24-02-2024 09:00:00,25.619651,85.147382,NH3,2,4,3
India,Bihar,Patna,"Muradpur, Patna - BSPCB",24-02-2024 09:00:00,25.619651,85.147382,SO2,5,9,6
India,Bihar,Patna,"Muradpur, Patna - BSPCB",24-02-2024 09:00:00,25.619651,85.147382,OZONE,7,69,24
India,Bihar,Patna,"Rajbansi Nagar, Patna - BSPCB",24-02-2024 09:00:00,25.599486,85.113666,OZONE,1,55,9
India,Bihar,Patna,"Samanpura, Patna - BSPCB",24-02-2024 09:00:00,25.596727,85.085624,PM2.5,132,483,274
India,Bihar,Rajgir,"Dangi Tola, Rajgir - BSPCB",24-02-2024 09:00:00,25.03280,85.41948,NH3,1,2,1
India,Bihar,Samastipur,"DM Office_Kasipur, Samastipur - BSPCB",24-02-2024 09:00:00,25.859655,85.77944,NO2,3,47,15
India,Bihar,Sasaram,"Dada Peer, Sasaram - BSPCB",24-02-2024 09:00:00,24.952822,84.002396,PM2.5,37,149,79
India,Chandigarh,Chandigarh,"Sector-53, Chandigarh - CPCC",24-02-2024 09:00:00,30.719859,76.738637,OZONE,5,71,24
India,Chhattisgarh,Bhilai,"Hathkhoj, Bhilai - CECB",24-02-2024 09:00:00,21.224231,81.408350,NO2,18,50,29
India,Chhattisgarh,Bilaspur,"Mangala, Bilaspur - NTPC",24-02-2024 09:00:00,22.08815,82.13737,NO2,13,15,14
India,Chhattisgarh,Chhal,"Nawapara SECL Colony, Chhal - CECB",24-02-2024 09:00:00,22.118125,83.140608,PM10,35,104,59
India,Chhattisgarh,Korba,"Urja Nagar, Korba - CECB",24-02-2024 09:00:00,22.348441,82.549611,NO2,67,89,76
India,Chhattisgarh,Kunjemura,"OP Jindal School, Kunjemura - CECB",24-02-2024 09:00:00,22.126650,83.483212,OZONE,9,60,24
India,Chhattisgarh,Milupara,"Govt. Higher Secondary School, Milupara - CECB",24-02-2024 09:00:00,22.1910172,83.5197009,PM10,28,83,50
India,Chhattisgarh,Milupara,"Govt. Higher Secondary School, Milupara - CECB",24-02-2024 09:00:00,22.1910172,83.5197009,CO,5,25,9
India,Chhattisgarh,Raipur,"AIIMS, Raipur - CECB",24-02-2024 09:00:00,21.258815,81.578979,PM10,49,192,107
India,Chhattisgarh,Raipur,"Siltara Phase-II, Raipur - CECB",24-02-2024 09:00:00,21.371751,81.664929,SO2,NA,NA,NA
India,Chhattisgarh,Tumidih,"OP Jindal Industrial Park, Tumidih - CECB",24-02-2024 09:00:00,22.06631475,83.33820077,PM2.5,13,57,32
India,Delhi,Delhi,"Alipur, Delhi - DPCC",24-02-2024 09:00:00,28.815329,77.153010,PM10,57,224,133
India,Delhi,Delhi,"Ashok Vihar, Delhi - DPCC",24-02-2024 09:00:00,28.695381,77.181665,NH3,1,4,3
India,Delhi,Delhi,"Burari Crossing, Delhi - IMD",24-02-2024 09:00:00,28.7256504,77.2011573,PM2.5,25,339,165
India,Delhi,Delhi,"Burari Crossing, Delhi - IMD",24-02-2024 09:00:00,28.7256504,77.2011573,CO,36,66,51
India,Delhi,Delhi,"Chandni Chowk, Delhi - IITM",24-02-2024 09:00:00,28.656756,77.227234,CO,101,111,107
India,Delhi,Delhi,"DTU, Delhi - CPCB",24-02-2024 09:00:00,28.7500499,77.1112615,PM2.5,27,209,79
India,Delhi,Delhi,"Dwarka-Sector 8, Delhi - DPCC ",24-02-2024 09:00:00,28.5710274,77.0719006,PM10,100,438,201
India,Delhi,Delhi,"Dwarka-Sector 8, Delhi - DPCC ",24-02-2024 09:00:00,28.5710274,77.0719006,NO2,7,94,44
India,Delhi,Delhi,"Dwarka-Sector 8, Delhi - DPCC ",24-02-2024 09:00:00,28.5710274,77.0719006,SO2,3,11,6
India,Delhi,Delhi,"IGI Airport (T3), Delhi - IMD",24-02-2024 09:00:00,28.5627763,77.1180053,PM10,74,402,171
India,Delhi,Delhi,"IGI Airport (T3), Delhi - IMD",24-02-2024 09:00:00,28.5627763,77.1180053,CO,2,103,78
India,Delhi,Delhi,"IHBAS, Dilshad Garden, Delhi - CPCB",24-02-2024 09:00:00,28.6811736,77.3025234,PM2.5,44,233,123
India,Delhi,Delhi,"Jahangirpuri, Delhi - DPCC",24-02-2024 09:00:00,28.732820,77.170633,SO2,5,23,13
India,Delhi,Delhi,"Jawaharlal Nehru Stadium, Delhi - DPCC",24-02-2024 09:00:00,28.580280,77.233829,NO2,31,136,84
India,Delhi,Delhi,"Major Dhyan Chand National Stadium, Delhi - DPCC",24-02-2024 09:00:00,28.611281,77.237738,PM2.5,45,209,128
India,Delhi,Delhi,"Major Dhyan Chand National Stadium, Delhi - DPCC",24-02-2024 09:00:00,28.611281,77.237738,OZONE,2,135,3
India,Delhi,Delhi,"Mandir Marg, Delhi - DPCC",24-02-2024 09:00:00,28.636429,77.201067,NH3,14,16,15
India,Delhi,Delhi,"Mundka, Delhi - DPCC",24-02-2024 09:00:00,28.684678,77.076574,PM10,116,437,239
India,Delhi,Delhi,"Mundka, Delhi - DPCC",24-02-2024 09:00:00,28.684678,77.076574,NO2,21,111,62
India,Delhi,Delhi,"Mundka, Delhi - DPCC",24-02-2024 09:00:00,28.684678,77.076574,SO2,8,76,21
India,Delhi,Delhi,"NSIT Dwarka, Delhi - CPCB",24-02-2024 09:00:00,28.60909,77.0325413,PM10,107,218,161
India,Delhi,Delhi,"NSIT Dwarka, Delhi - CPCB",24-02-2024 09:00:00,28.60909,77.0325413,CO,38,78,47
India,Delhi,Delhi,"Najafgarh, Delhi - DPCC",24-02-2024 09:00:00,28.570173,76.933762,OZONE,4,166,15
India,Delhi,Delhi,"Narela, Delhi - DPCC",24-02-2024 09:00:00,28.822836,77.101981,PM2.5,37,430,175
India,Delhi,Delhi,"Narela, Delhi - DPCC",24-02-2024 09:00:00,28.822836,77.101981,NH3,5,9,6
India,Delhi,Delhi,"Okhla Phase-2, Delhi - DPCC",24-02-2024 09:00:00,28.530785,77.271255,NO2,40,242,131
India,Delhi,Delhi,"Patparganj, Delhi - DPCC",24-02-2024 09:00:00,28.623763,77.287209,OZONE,1,83,2
India,Delhi,Delhi,"Punjabi Bagh, Delhi - DPCC",24-02-2024 09:00:00,28.674045,77.131023,PM2.5,39,332,171
India,Delhi,Delhi,"Punjabi Bagh, Delhi - DPCC",24-02-2024 09:00:00,28.674045,77.131023,NH3,2,3,3
India,Delhi,Delhi,"Punjabi Bagh, Delhi - DPCC",24-02-2024 09:00:00,28.674045,77.131023,OZONE,7,56,8
India,Delhi,Delhi,"R K Puram, Delhi - DPCC",24-02-2024 09:00:00,28.563262,77.186937,NH3,1,1,1
India,Delhi,Delhi,"Rohini, Delhi - DPCC",24-02-2024 09:00:00,28.732528,77.119920,OZONE,2,123,4
India,Delhi,Delhi,"Shadipur, Delhi - CPCB",24-02-2024 09:00:00,28.6514781,77.1473105,SO2,3,25,13
India,Delhi,Delhi,"Sirifort, Delhi - CPCB",24-02-2024 09:00:00,28.5504249,77.2159377,PM10,30,78,59
India,Delhi,Delhi,"Sirifort, Delhi - CPCB",24-02-2024 09:00:00,28.5504249,77.2159377,CO,10,88,79
India,Delhi,Delhi,"Sonia Vihar, Delhi - DPCC",24-02-2024 09:00:00,28.710508,77.249485,NO2,23,105,59
India,Delhi,Delhi,"Sonia Vihar, Delhi - DPCC",24-02-2024 09:00:00,28.710508,77.249485,CO,37,90,70
India,Delhi,Delhi,"Sri Aurobindo Marg, Delhi - DPCC",24-02-2024 09:00:00,28.531346,77.190156,OZONE,1,36,2
India,Delhi,Delhi,"Wazirpur, Delhi - DPCC",24-02-2024 09:00:00,28.699793,77.165453,OZONE,13,87,16
India,Gujarat,Ahmedabad,"Chandkheda, Ahmedabad - IITM",24-02-2024 09:00:00,23.107969,72.574648,PM2.5,53,310,134
India,Gujarat,Ahmedabad,"Chandkheda, Ahmedabad - IITM",24-02-2024 09:00:00,23.107969,72.574648,PM10,61,191,110
India,Gujarat,Ahmedabad,"Chandkheda, Ahmedabad - IITM",24-02-2024 09:00:00,23.107969,72.574648,CO,78,114,91
India,Gujarat,Ahmedabad,"Gyaspur, Ahmedabad - IITM",24-02-2024 09:00:00,22.977134,72.553024,PM2.5,26,91,48
India,Gujarat,Ahmedabad,"Maninagar, Ahmedabad - GPCB",24-02-2024 09:00:00,23.002657,72.591912,NO2,10,11,11
India,Gujarat,Ahmedabad,"Raikhad, Ahmedabad - IITM",24-02-2024 09:00:00,23.020509,72.579261,PM10,94,163,124
India,Gujarat,Ahmedabad,"Rakhial, Ahmedabad - IITM",24-02-2024 09:00:00,23.016834,72.625775,SO2,2,11,6
India,Gujarat,Ahmedabad,"Rakhial, Ahmedabad - IITM",24-02-2024 09:00:00,23.016834,72.625775,CO,21,68,30
India,Gujarat,Ahmedabad,"SAC ISRO Bopal, Ahmedabad - IITM",24-02-2024 09:00:00,23.041137,72.456691,PM10,87,167,121
India,Gujarat,Ahmedabad,"SAC ISRO Satellite, Ahmedabad - IITM",24-02-2024 09:00:00,23.023389,72.515201,NH3,3,3,3
India,Gujarat,Ahmedabad,"SAC ISRO Satellite, Ahmedabad - IITM",24-02-2024 09:00:00,23.023389,72.515201,CO,37,39,38
India,Gujarat,Ahmedabad,"Sardar Vallabhbhai Patel Stadium, Ahmedabad - IITM",24-02-2024 09:00:00,23.043070,72.562968,PM2.5,56,271,120
India,Gujarat,Ahmedabad,"Sardar Vallabhbhai Patel Stadium, Ahmedabad - IITM",24-02-2024 09:00:00,23.043070,72.562968,OZONE,13,26,18
India,Gujarat,Gandhinagar,"IIPHG Lekawada, Gandhinagar - IITM",24-02-2024 09:00:00,23.243639,72.68994,NO2,32,33,32
India,Gujarat,Gandhinagar,"Sector-10, Gandhinagar - GPCB",24-02-2024 09:00:00,23.221714,72.654328,NH3,1,2,2
India,Gujarat,Surat,"Science Center, Surat - SMC",24-02-2024 09:00:00,21.170046,72.795405,NO2,NA,NA,NA
India,Gujarat,Surat,"Science Center, Surat - SMC",24-02-2024 09:00:00,21.170046,72.795405,CO,NA,NA,NA
India,Gujarat,Vatva,"Phase-4 GIDC, Vatva - GPCB",24-02-2024 09:00:00,22.969611,72.643500,SO2,17,18,17
India,Haryana,Ambala,"Patti Mehar, Ambala - HSPCB",24-02-2024 09:00:00,30.379589,76.778328,PM10,37,61,50
India,Haryana,Ambala,"Patti Mehar, Ambala - HSPCB",24-02-2024 09:00:00,30.379589,76.778328,SO2,3,19,9
India,Haryana,Ballabgarh,"Nathu Colony, Ballabgarh - HSPCB",24-02-2024 09:00:00,28.3419248,77.319699,OZONE,1,23,2
India,Haryana,Bhiwani,"H.B. Colony, Bhiwani - HSPCB",24-02-2024 09:00:00,28.806223,76.141105,PM10,35,91,71
India,Haryana,Bhiwani,"H.B. Colony, Bhiwani - HSPCB",24-02-2024 09:00:00,28.806223,76.141105,NO2,7,11,9
India,Haryana,Bhiwani,"H.B. Colony, Bhiwani - HSPCB",24-02-2024 09:00:00,28.806223,76.141105,SO2,5,95,23
India,Haryana,Charkhi Dadri,"Mini Secretariat, Charkhi Dadri - HSPCB",24-02-2024 09:00:00,28.593883,76.270653,NO2,9,9,9
India,Haryana,Charkhi Dadri,"Mini Secretariat, Charkhi Dadri - HSPCB",24-02-2024 09:00:00,28.593883,76.270653,NH3,5,5,5
India,Haryana,Dharuhera,"Municipal Corporation Office, Dharuhera -  HSPCB",24-02-2024 09:00:00,28.206800,76.799700,NO2,45,112,72
India,Haryana,Dharuhera,"Municipal Corporation Office, Dharuhera -  HSPCB",24-02-2024 09:00:00,28.206800,76.799700,SO2,3,41,16
India,Haryana,Faridabad,"Sector 11, Faridabad - HSPCB",24-02-2024 09:00:00,28.376058,77.315741,CO,10,66,54
India,Haryana,Faridabad,"Sector- 16A, Faridabad - HSPCB",24-02-2024 09:00:00,28.4088421,77.3099081,NO2,3,39,21
India,Haryana,Faridabad,"Sector- 16A, Faridabad - HSPCB",24-02-2024 09:00:00,28.4088421,77.3099081,CO,2,168,82
India,Haryana,Fatehabad,"Huda Sector, Fatehabad - HSPCB",24-02-2024 09:00:00,29.503664,75.467934,PM2.5,46,229,88
India,Haryana,Fatehabad,"Huda Sector, Fatehabad - HSPCB",24-02-2024 09:00:00,29.503664,75.467934,PM10,61,157,86
India,Haryana,Gurugram,"Sector-51, Gurugram - HSPCB",24-02-2024 09:00:00,28.4227,77.0667,SO2,1,5,4
India,Haryana,Gurugram,"Teri Gram, Gurugram - HSPCB",24-02-2024 09:00:00,28.4275,77.1465,PM2.5,91,148,108
India,Haryana,Gurugram,"Teri Gram, Gurugram - HSPCB",24-02-2024 09:00:00,28.4275,77.1465,PM10,125,226,168
India,Haryana,Gurugram,"Vikas Sadan, Gurugram - HSPCB",24-02-2024 09:00:00,28.4501238,77.0263051,PM2.5,18,91,53
India,Haryana,Jind,"Police Lines, Jind - HSPCB",24-02-2024 09:00:00,29.307814,76.337619,PM2.5,30,93,61
India,Haryana,Kaithal,"Rishi Nagar, Kaithal - HSPCB",24-02-2024 09:00:00,29.8006,76.4155,PM10,59,124,95
India,Haryana,Kaithal,"Rishi Nagar, Kaithal - HSPCB",24-02-2024 09:00:00,29.8006,76.4155,NO2,24,26,25
India,Haryana,Kaithal,"Rishi Nagar, Kaithal - HSPCB",24-02-2024 09:00:00,29.8006,76.4155,CO,1,45,15
India,Haryana,Karnal,"Sector-12, Karnal - HSPCB",24-02-2024 09:00:00,29.695300,77.002700,PM10,41,96,66
India,Haryana,Kurukshetra,"Sector-7, Kurukshetra - HSPCB",24-02-2024 09:00:00,29.966942,76.875879,SO2,8,58,23
India,Haryana,Manesar,"Sector-2 IMT, Manesar - HSPCB",24-02-2024 09:00:00,28.360699,76.936090,NO2,11,29,21
India,Haryana,Narnaul,"Shastri Nagar, Narnaul - HSPCB",24-02-2024 09:00:00,28.060249,76.113115,PM10,7,129,88
India,Haryana,Narnaul,"Shastri Nagar, Narnaul - HSPCB",24-02-2024 09:00:00,28.060249,76.113115,NH3,5,18,11
India,Haryana,Narnaul,"Shastri Nagar, Narnaul - HSPCB",24-02-2024 09:00:00,28.060249,76.113115,CO,8,13,10
India,Haryana,Palwal,"Shyam Nagar, Palwal - HSPCB",24-02-2024 09:00:00,28.1485564,77.3320667,PM10,79,143,115
India,Haryana,Panchkula,"Sector-6, Panchkula - HSPCB ",24-02-2024 09:00:00,30.7057778,76.8531805555555,PM2.5,6,42,20
India,Haryana,Rohtak,"MD University, Rohtak - HSPCB",24-02-2024 09:00:00,28.52123,76.37138,NO2,46,58,51
India,Haryana,Rohtak,"MD University, Rohtak - HSPCB",24-02-2024 09:00:00,28.52123,76.37138,SO2,6,8,7
India,Haryana,Sirsa,"F-Block, Sirsa - HSPCB",24-02-2024 09:00:00,29.536400,75.015800,PM2.5,34,135,54
India,Haryana,Sirsa,"F-Block, Sirsa - HSPCB",24-02-2024 09:00:00,29.536400,75.015800,NO2,10,10,10
India,Haryana,Sirsa,"F-Block, Sirsa - HSPCB",24-02-2024 09:00:00,29.536400,75.015800,NH3,12,13,13
India,Haryana,Sonipat,"Murthal, Sonipat - HSPCB",24-02-2024 09:00:00,29.027200,77.062100,PM2.5,23,90,54
India,Haryana,Sonipat,"Murthal, Sonipat - HSPCB",24-02-2024 09:00:00,29.027200,77.062100,PM10,45,118,88
India,Haryana,Sonipat,"Murthal, Sonipat - HSPCB",24-02-2024 09:00:00,29.027200,77.062100,CO,9,22,20
India,Haryana,Yamuna Nagar,"Gobind Pura, Yamuna Nagar - HSPCB",24-02-2024 09:00:00,30.1480566,77.2893471,PM2.5,50,139,75
India,Haryana,Yamuna Nagar,"Gobind Pura, Yamuna Nagar - HSPCB",24-02-2024 09:00:00,30.1480566,77.2893471,SO2,1,11,5
India,Himachal Pradesh,Baddi,"HIMUDA Complex Phase-1, Baddi - HPPCB",24-02-2024 09:00:00,30.943887,76.801991,NO2,9,69,26
India,Himachal Pradesh,Baddi,"HIMUDA Complex Phase-1, Baddi - HPPCB",24-02-2024 09:00:00,30.943887,76.801991,SO2,10,101,38
India,Jharkhand,Dhanbad,"Kalakusuma, Dhanbad - DMC",24-02-2024 09:00:00,23.811548,86.481238,NO2,14,167,74
India,Jharkhand,Dhanbad,"Sardar Patel Nagar, Dhanbad - JSPCB",24-02-2024 09:00:00,23.80569,86.44268,NO2,1,160,75
India,Jharkhand,Dhanbad,"Sardar Patel Nagar, Dhanbad - JSPCB",24-02-2024 09:00:00,23.80569,86.44268,SO2,7,10,8
India,Karnataka,Bengaluru,"Bapuji Nagar, Bengaluru - KSPCB",24-02-2024 09:00:00,12.951913,77.539784,SO2,4,6,5
India,Karnataka,Bengaluru,"Bapuji Nagar, Bengaluru - KSPCB",24-02-2024 09:00:00,12.951913,77.539784,CO,24,36,30
India,Karnataka,Bengaluru,"City Railway Station, Bengaluru - KSPCB",24-02-2024 09:00:00,12.9756843,77.5660749,CO,52,103,66
India,Karnataka,Bengaluru,"Hebbal, Bengaluru - KSPCB",24-02-2024 09:00:00,13.029152,77.585901,OZONE,NA,NA,NA
India,Karnataka,Bengaluru,"Hombegowda Nagar, Bengaluru - KSPCB",24-02-2024 09:00:00,12.938539,77.590100,PM10,46,134,78
India,Karnataka,Bengaluru,"Hombegowda Nagar, Bengaluru - KSPCB",24-02-2024 09:00:00,12.938539,77.590100,NH3,2,2,2
India,Karnataka,Bengaluru,"Hombegowda Nagar, Bengaluru - KSPCB",24-02-2024 09:00:00,12.938539,77.590100,SO2,3,4,3
India,Karnataka,Bengaluru,"Hombegowda Nagar, Bengaluru - KSPCB",24-02-2024 09:00:00,12.938539,77.590100,OZONE,4,5,4
India,Karnataka,Bengaluru,"Jayanagar 5th Block, Bengaluru - KSPCB",24-02-2024 09:00:00,12.920984,77.584908,PM10,60,183,121
India,Karnataka,Bengaluru,"Jigani, Bengaluru - KSPCB",24-02-2024 09:00:00,12.7816279,77.6299145,OZONE,17,84,31
India,Karnataka,Bengaluru,"Kasturi Nagar, Bengaluru - KSPCB",24-02-2024 09:00:00,13.003872,77.664217,NO2,16,17,17
India,Karnataka,Bengaluru,"Kasturi Nagar, Bengaluru - KSPCB",24-02-2024 09:00:00,13.003872,77.664217,CO,20,28,26
India,Karnataka,Bengaluru,"Peenya, Bengaluru - CPCB",24-02-2024 09:00:00,13.0270199,77.494094,NH3,2,4,3
India,Karnataka,Bengaluru,"Peenya, Bengaluru - CPCB",24-02-2024 09:00:00,13.0270199,77.494094,OZONE,21,82,45
India,Karnataka,Bengaluru,"RVCE-Mailasandra, Bengaluru - KSPCB",24-02-2024 09:00:00,12.921418,77.502466,NO2,53,54,53
India,Karnataka,Bengaluru,"Sanegurava Halli, Bengaluru - KSPCB",24-02-2024 09:00:00,12.990328,77.5431385,CO,6,52,11
India,Karnataka,Bengaluru,"Shivapura_Peenya, Bengaluru - KSPCB",24-02-2024 09:00:00,13.0246342,77.5080115,NO2,15,16,16
India,Karnataka,Bengaluru,"Silk Board, Bengaluru - KSPCB",24-02-2024 09:00:00,12.917348,77.622813,CO,24,104,39
India,Karnataka,Bidar,"Naubad, Bidar - KSPCB",24-02-2024 09:00:00,17.930306,77.482194,PM10,NA,NA,NA
India,Karnataka,Bidar,"Naubad, Bidar - KSPCB",24-02-2024 09:00:00,17.930306,77.482194,OZONE,NA,NA,NA
India,Karnataka,Chamarajanagar,"Urban, Chamarajanagar - KSPCB",24-02-2024 09:00:00,11.55358,76.55521,PM2.5,23,50,34
India,Karnataka,Chamarajanagar,"Urban, Chamarajanagar - KSPCB",24-02-2024 09:00:00,11.55358,76.55521,CO,22,120,33
India,Karnataka,Chikkaballapur,"Chikkaballapur Rural, Chikkaballapur - KSPCB",24-02-2024 09:00:00,13.428828,77.731418,SO2,12,20,15
India,Karnataka,Chikkaballapur,"Chikkaballapur Rural, Chikkaballapur - KSPCB",24-02-2024 09:00:00,13.428828,77.731418,CO,4,24,21
India,Karnataka,Chikkamagaluru,"Kalyana Nagara, Chikkamagaluru - KSPCB",24-02-2024 09:00:00,13.328028,75.797056,SO2,3,5,4
India,Karnataka,Davanagere,"Devaraj Urs Badavane, Davanagere - KSPCB",24-02-2024 09:00:00,14.475800,75.905200,PM2.5,25,96,48
India,Karnataka,Dharwad,"Kalabhavan, Dharwad - KSPCB",24-02-2024 09:00:00,15.459706,75.008381,SO2,3,25,7
India,Karnataka,Gadag,"Panchal Nagar, Gadag - KSPCB",24-02-2024 09:00:00,15.411456,75.638133,SO2,15,26,16
India,Karnataka,Hassan,"B.Katihalli, Hassan - KSPCB",24-02-2024 09:00:00,13.008556,76.125258,NO2,NA,NA,NA
India,Karnataka,Hassan,"B.Katihalli, Hassan - KSPCB",24-02-2024 09:00:00,13.008556,76.125258,NH3,NA,NA,NA
India,Karnataka,Haveri,"Ashwini Nagar, Haveri - KSPCB",24-02-2024 09:00:00,14.791800,75.389600,PM2.5,26,60,38
India,Karnataka,Haveri,"Ashwini Nagar, Haveri - KSPCB",24-02-2024 09:00:00,14.791800,75.389600,PM10,40,93,89
India,Karnataka,Haveri,"Ashwini Nagar, Haveri - KSPCB",24-02-2024 09:00:00,14.791800,75.389600,NO2,26,40,32
India,Karnataka,Haveri,"Ashwini Nagar, Haveri - KSPCB",24-02-2024 09:00:00,14.791800,75.389600,OZONE,18,24,19
India,Karnataka,Hubballi,"Deshpande Nagar, Hubballi - KSPCB",24-02-2024 09:00:00,15.351773,75.140726,PM2.5,40,222,75
India,Karnataka,Hubballi,"Lingaraj Nagar, Hubballi - KSPCB",24-02-2024 09:00:00,15.3714823,75.1160168,PM2.5,28,55,39
India,Karnataka,Hubballi,"Lingaraj Nagar, Hubballi - KSPCB",24-02-2024 09:00:00,15.3714823,75.1160168,SO2,1,13,5
India,Karnataka,Hubballi,"Lingaraj Nagar, Hubballi - KSPCB",24-02-2024 09:00:00,15.3714823,75.1160168,OZONE,12,50,16
India,Karnataka,Kalaburagi,"Lal Bahadur Shastri Nagar, Kalaburagi - KSPCB",24-02-2024 09:00:00,17.321993,76.822628,PM10,13,82,35
India,Karnataka,Kalaburagi,"Lal Bahadur Shastri Nagar, Kalaburagi - KSPCB",24-02-2024 09:00:00,17.321993,76.822628,CO,38,50,43
India,Karnataka,Kalaburagi,"Lal Bahadur Shastri Nagar, Kalaburagi - KSPCB",24-02-2024 09:00:00,17.321993,76.822628,OZONE,7,69,24
India,Karnataka,Kalaburagi,"Mahatma Basaveswar Colony, Kalaburgi - KSPCB",24-02-2024 09:00:00,17.336318,76.847397,PM10,33,93,56
India,Karnataka,Kalaburagi,"Mahatma Basaveswar Colony, Kalaburgi - KSPCB",24-02-2024 09:00:00,17.336318,76.847397,NO2,8,26,22
India,Karnataka,Kalaburagi,"Mahatma Basaveswar Colony, Kalaburgi - KSPCB",24-02-2024 09:00:00,17.336318,76.847397,NH3,3,4,4
India,Karnataka,Karwar,"KHB Colony, Karwar - KSPCB",24-02-2024 09:00:00,14.816666,74.141003,NO2,5,29,9
India,Karnataka,Karwar,"KHB Colony, Karwar - KSPCB",24-02-2024 09:00:00,14.816666,74.141003,NH3,2,12,3
India,Karnataka,Karwar,"KHB Colony, Karwar - KSPCB",24-02-2024 09:00:00,14.816666,74.141003,OZONE,21,22,22
India,Karnataka,Kolar,"Tamaka Ind. Area, Kolar - KSPCB",24-02-2024 09:00:00,13.1276288,78.1570122,NO2,4,32,11
India,Karnataka,Koppal,"Diwator Nagar, Koppal - KSPCB",24-02-2024 09:00:00,15.347630,76.181767,OZONE,4,44,10
India,Karnataka,Madikeri,"Stuart Hill, Madikeri - KSPCB",24-02-2024 09:00:00,12.415911,75.735050,CO,2,66,18
India,Karnataka,Mangalore,"Kadri, Mangalore - KSPCB",24-02-2024 09:00:00,12.889250,74.853000,NO2,5,7,6
India,Karnataka,Mangalore,"Kadri, Mangalore - KSPCB",24-02-2024 09:00:00,12.889250,74.853000,SO2,18,21,20
India,Karnataka,Mangalore,"Kadri, Mangalore - KSPCB",24-02-2024 09:00:00,12.889250,74.853000,CO,32,38,34
India,Karnataka,Raichur,"Haji Colony, Raichur - KSPCB",24-02-2024 09:00:00,16.208139,77.348417,PM2.5,18,77,36
India,Karnataka,Raichur,"Haji Colony, Raichur - KSPCB",24-02-2024 09:00:00,16.208139,77.348417,CO,92,130,104
India,Karnataka,Raichur,"Haji Colony, Raichur - KSPCB",24-02-2024 09:00:00,16.208139,77.348417,OZONE,3,84,41
India,Karnataka,Ramanagara,"Vijay Nagar, Ramanagara - KSPCB",24-02-2024 09:00:00,12.733409,77.298051,NH3,1,2,1
India,Karnataka,Shivamogga,"Vinoba Nagara, Shivamogga - KSPCB",24-02-2024 09:00:00,13.940000,75.555917,PM10,68,84,82
India,Karnataka,Vijayapura,"Ibrahimpur, Vijayapura - KSPCB",24-02-2024 09:00:00,16.802639,75.722694,NO2,17,19,19
India,Karnataka,Vijayapura,"Ibrahimpur, Vijayapura - KSPCB",24-02-2024 09:00:00,16.802639,75.722694,OZONE,13,16,15
India,Karnataka,Yadgir,"Collector Office, Yadgir - KSPCB",24-02-2024 09:00:00,16.7602,77.1428,NH3,1,1,1
