country,state,city,station,last_update,latitude,longitude,pollutant_id,pollutant_min,pollutant_max,pollutant_avg
India,Andhra_Pradesh,Amaravati,"Secretariat, Amaravati - APPCB",17-04-2024 03:00:00,16.5150833,80.5181667,NO2,4,14,7
India,Andhra_Pradesh,Amaravati,"Secretariat, Amaravati - APPCB",17-04-2024 03:00:00,16.5150833,80.5181667,OZONE,4,70,37
India,Andhra_Pradesh,Anantapur,"Gulzarpet, Anantapur - APPCB",17-04-2024 03:00:00,14.675886,77.593027,NO2,NA,NA,NA
India,Andhra_Pradesh,Anantapur,"Gulzarpet, Anantapur - APPCB",17-04-2024 03:00:00,14.675886,77.593027,SO2,5,30,10
India,Andhra_Pradesh,Chittoor,"Gangineni Cheruvu, Chittoor - APPCB",17-04-2024 03:00:00,13.204880,79.097889,PM2.5,41,239,76
India,Andhra_Pradesh,Chittoor,"Gangineni Cheruvu, Chittoor - APPCB",17-04-2024 03:00:00,13.204880,79.097889,PM10,44,153,72
India,Andhra_Pradesh,Chittoor,"Gangineni Cheruvu, Chittoor - APPCB",17-04-2024 03:00:00,13.204880,79.097889,OZONE,18,148,53
India,Andhra_Pradesh,Kadapa,"Yerramukkapalli, Kadapa - APPCB",17-04-2024 03:00:00,14.465052,78.824187,PM10,NA,NA,NA
India,Andhra_Pradesh,Kadapa,"Yerramukkapalli, Kadapa - APPCB",17-04-2024 03:00:00,14.465052,78.824187,NO2,NA,NA,NA
India,Andhra_Pradesh,Kadapa,"Yerramukkapalli, Kadapa - APPCB",17-04-2024 03:00:00,14.465052,78.824187,SO2,NA,NA,NA
India,Andhra_Pradesh,Tirupati,"Tirumala, Tirupati - APPCB",17-04-2024 03:00:00,13.67,79.35,NH3,1,2,1
India,Andhra_Pradesh,Vijayawada,"HB Colony, Vijayawada - APPCB",17-04-2024 03:00:00,16.536107,80.594233,OZONE,NA,NA,NA
India,Andhra_Pradesh,Visakhapatnam,"GVM Corporation, Visakhapatnam - APPCB",17-04-2024 03:00:00,17.72,83.3,PM10,93,145,114
India,Assam,Guwahati,"IITG, Guwahati - PCBA",17-04-2024 03:00:00,26.2028636,91.70046436,PM2.5,NA,NA,NA
India,Assam,Guwahati,"IITG, Guwahati - PCBA",17-04-2024 03:00:00,26.2028636,91.70046436,NO2,1,3,1
India,Assam,Guwahati,"IITG, Guwahati - PCBA",17-04-2024 03:00:00,26.2028636,91.70046436,NH3,5,6,5
India,Assam,Guwahati,"LGBI Airport, Guwahati - PCBA",17-04-2024 03:00:00,26.10887,91.589544,PM2.5,43,378,170
India,Assam,Guwahati,"LGBI Airport, Guwahati - PCBA",17-04-2024 03:00:00,26.10887,91.589544,OZONE,5,35,19
India,Assam,Guwahati,"Pan Bazaar, Guwahati - PCBA",17-04-2024 03:00:00,26.187500,91.744194,NO2,1,5,1
India,Assam,Guwahati,"Pan Bazaar, Guwahati - PCBA",17-04-2024 03:00:00,26.187500,91.744194,CO,27,74,38
India,Assam,Guwahati,"Railway Colony, Guwahati - PCBA",17-04-2024 03:00:00,26.181742,91.78063,CO,26,55,33
India,Assam,Nalbari,"Bata Chowk, Nalbari - PCBA",17-04-2024 03:00:00,26.446912,91.439057,NH3,1,2,1
India,Assam,Silchar,"Tarapur, Silchar - PCBA",17-04-2024 03:00:00,24.82827,92.79525,CO,28,30,29
India,Assam,Silchar,"Tarapur, Silchar - PCBA",17-04-2024 03:00:00,24.82827,92.79525,OZONE,1,15,1
India,Bihar,Araria,"Kharahiya Basti, Araria - BSPCB",17-04-2024 03:00:00,26.146529,87.454184,CO,2,34,26
India,Bihar,Arrah,"New DM Office, Arrah - BSPCB",17-04-2024 03:00:00,25.5626095,84.663264,PM2.5,38,100,66
India,Bihar,Aurangabad,"Gurdeo Nagar, Aurangabad - BSPCB",17-04-2024 03:00:00,24.75746,84.366208,PM2.5,NA,NA,NA
India,Bihar,Aurangabad,"Gurdeo Nagar, Aurangabad - BSPCB",17-04-2024 03:00:00,24.75746,84.366208,CO,70,76,76
India,Bihar,Bettiah,"Kamalnath Nagar, Bettiah - BSPCB",17-04-2024 03:00:00,26.80365,84.51954,PM10,57,421,140
India,Bihar,Bhagalpur,"Mayaganj, Bhagalpur - BSPCB",17-04-2024 03:00:00,25.265194,87.012947,NO2,3,10,7
India,Bihar,Bhagalpur,"Mayaganj, Bhagalpur - BSPCB",17-04-2024 03:00:00,25.265194,87.012947,OZONE,13,78,26
India,Bihar,Bihar Sharif,"D M Colony, Bihar Sharif - BSPCB",17-04-2024 03:00:00,25.204762,85.514960,PM2.5,37,120,58
India,Bihar,Bihar Sharif,"D M Colony, Bihar Sharif - BSPCB",17-04-2024 03:00:00,25.204762,85.514960,SO2,1,16,10
India,Bihar,Bihar Sharif,"D M Colony, Bihar Sharif - BSPCB",17-04-2024 03:00:00,25.204762,85.514960,CO,48,62,60
India,Bihar,Chhapra,"Darshan Nagar, Chhapra - BSPCB",17-04-2024 03:00:00,25.7808257,84.7446768,PM10,140,187,160
India,Bihar,Chhapra,"Darshan Nagar, Chhapra - BSPCB",17-04-2024 03:00:00,25.7808257,84.7446768,OZONE,1,10,1
India,Bihar,Gaya,"Collectorate, Gaya - BSPCB",17-04-2024 03:00:00,24.7955,84.9994,OZONE,52,79,58
India,Bihar,Gaya,"Kareemganj, Gaya - BSPCB",17-04-2024 03:00:00,24.792403,84.992416,NO2,30,31,30
India,Bihar,Gaya,"SFTI Kusdihra, Gaya - BSPCB",17-04-2024 03:00:00,24.762518,84.982348,NO2,NA,NA,NA
India,Bihar,Hajipur,"Industrial Area, Hajipur - BSPCB",17-04-2024 03:00:00,25.697189,85.245900,PM2.5,57,148,91
India,Bihar,Hajipur,"Industrial Area, Hajipur - BSPCB",17-04-2024 03:00:00,25.697189,85.245900,PM10,177,347,251
India,Bihar,Hajipur,"Industrial Area, Hajipur - BSPCB",17-04-2024 03:00:00,25.697189,85.245900,CO,10,48,36
India,Bihar,Hajipur,"Industrial Area, Hajipur - BSPCB",17-04-2024 03:00:00,25.697189,85.245900,OZONE,13,76,22
India,Bihar,Katihar,"Mirchaibari, Katihar - BSPCB",17-04-2024 03:00:00,25.560083,87.553265,NH3,5,10,7
India,Bihar,Kishanganj,"SDM Office_Khagra, Kishanganj - BSPCB",17-04-2024 03:00:00,26.0881305,87.93840336,PM2.5,43,113,70
India,Bihar,Motihari,"Gandak Colony, Motihari - BSPCB",17-04-2024 03:00:00,26.63086,84.90051,CO,2,12,7
India,Bihar,Munger,"Town Hall, Munger - BSPCB",17-04-2024 03:00:00,25.376776,86.471523,OZONE,27,101,33
India,Bihar,Muzaffarpur,"Buddha Colony, Muzaffarpur - BSPCB",17-04-2024 03:00:00,26.11442,85.39813,NH3,20,25,23
India,Bihar,Muzaffarpur,"MIT-Daudpur Kothi, Muzaffarpur - BSPCB",17-04-2024 03:00:00,26.1403345,85.3650192,NH3,3,4,4
India,Bihar,Muzaffarpur,"MIT-Daudpur Kothi, Muzaffarpur - BSPCB",17-04-2024 03:00:00,26.1403345,85.3650192,SO2,14,24,17
India,Bihar,Muzaffarpur,"MIT-Daudpur Kothi, Muzaffarpur - BSPCB",17-04-2024 03:00:00,26.1403345,85.3650192,OZONE,17,51,33
India,Bihar,Muzaffarpur,"Muzaffarpur Collectorate, Muzaffarpur - BSPCB",17-04-2024 03:00:00,26.1209,85.3647,OZONE,44,155,58
India,Bihar,Patna,"DRM Office Danapur, Patna - BSPCB",17-04-2024 03:00:00,25.586562,85.043586,PM2.5,92,310,167
India,Bihar,Patna,"DRM Office Danapur, Patna - BSPCB",17-04-2024 03:00:00,25.586562,85.043586,NH3,3,3,3
India,Bihar,Patna,"Govt. High School Shikarpur, Patna - BSPCB",17-04-2024 03:00:00,25.592539,85.227158,NH3,5,5,5
India,Bihar,Patna,"IGSC Planetarium Complex, Patna - BSPCB",17-04-2024 03:00:00,25.610369,85.132568,CO,12,12,12
India,Bihar,Patna,"Muradpur, Patna - BSPCB",17-04-2024 03:00:00,25.619651,85.147382,OZONE,19,83,35
India,Bihar,Patna,"Rajbansi Nagar, Patna - BSPCB",17-04-2024 03:00:00,25.599486,85.113666,NO2,15,34,22
India,Bihar,Patna,"Rajbansi Nagar, Patna - BSPCB",17-04-2024 03:00:00,25.599486,85.113666,NH3,5,9,6
India,Bihar,Patna,"Rajbansi Nagar, Patna - BSPCB",17-04-2024 03:00:00,25.599486,85.113666,OZONE,9,91,23
India,Bihar,Patna,"Samanpura, Patna - BSPCB",17-04-2024 03:00:00,25.596727,85.085624,NO2,11,77,34
India,Bihar,Purnia,"Mariam Nagar, Purnia - BSPCB",17-04-2024 03:00:00,25.366336,87.117468,NH3,6,28,9
India,Bihar,Purnia,"Mariam Nagar, Purnia - BSPCB",17-04-2024 03:00:00,25.366336,87.117468,CO,10,69,46
India,Bihar,Rajgir,"Dangi Tola, Rajgir - BSPCB",17-04-2024 03:00:00,25.03280,85.41948,PM2.5,25,77,49
India,Bihar,Rajgir,"Dangi Tola, Rajgir - BSPCB",17-04-2024 03:00:00,25.03280,85.41948,OZONE,31,37,34
India,Bihar,Saharsa,"Police Line, Saharsa - BSPCB",17-04-2024 03:00:00,25.892357,86.590325,NH3,9,9,9
India,Bihar,Saharsa,"Police Line, Saharsa - BSPCB",17-04-2024 03:00:00,25.892357,86.590325,CO,NA,NA,NA
India,Bihar,Sasaram,"Dada Peer, Sasaram - BSPCB",17-04-2024 03:00:00,24.952822,84.002396,CO,NA,NA,NA
India,Bihar,Siwan,"Chitragupta Nagar, Siwan - BSPCB",17-04-2024 03:00:00,26.2271665,84.3570427,PM10,89,172,111
India,Chandigarh,Chandigarh,"Sector-25, Chandigarh - CPCC",17-04-2024 03:00:00,30.751462,76.762879,OZONE,2,42,23
India,Chhattisgarh,Bhilai,"32Bungalows, Bhilai - CECB",17-04-2024 03:00:00,21.194815,81.314770,NO2,17,29,24
India,Chhattisgarh,Bhilai,"32Bungalows, Bhilai - CECB",17-04-2024 03:00:00,21.194815,81.314770,SO2,4,8,6
India,Chhattisgarh,Bhilai,"32Bungalows, Bhilai - CECB",17-04-2024 03:00:00,21.194815,81.314770,OZONE,4,36,7
India,Chhattisgarh,Bhilai,"Civic Center, Bhilai - Bhilai Steel Plant",17-04-2024 03:00:00,21.185571,81.343175,CO,21,66,52
India,Chhattisgarh,Bhilai,"Hathkhoj, Bhilai - CECB",17-04-2024 03:00:00,21.224231,81.408350,PM2.5,52,141,83
India,Chhattisgarh,Bhilai,"Hathkhoj, Bhilai - CECB",17-04-2024 03:00:00,21.224231,81.408350,CO,14,101,53
India,Chhattisgarh,Bilaspur,"Mangala, Bilaspur - NTPC",17-04-2024 03:00:00,22.08815,82.13737,PM2.5,9,46,27
India,Chhattisgarh,Korba,"Urja Nagar, Korba - CECB",17-04-2024 03:00:00,22.348441,82.549611,NO2,50,66,59
India,Chhattisgarh,Kunjemura,"OP Jindal School, Kunjemura - CECB",17-04-2024 03:00:00,22.126650,83.483212,PM2.5,42,128,82
India,Chhattisgarh,Kunjemura,"OP Jindal School, Kunjemura - CECB",17-04-2024 03:00:00,22.126650,83.483212,SO2,5,19,10
India,Chhattisgarh,Raipur,"AIIMS, Raipur - CECB",17-04-2024 03:00:00,21.258815,81.578979,NO2,16,49,25
India,Chhattisgarh,Raipur,"Bhatagaon New ISBT, Raipur - CECB",17-04-2024 03:00:00,21.219665,81.630094,PM10,42,122,69
India,Chhattisgarh,Raipur,"Bhatagaon New ISBT, Raipur - CECB",17-04-2024 03:00:00,21.219665,81.630094,CO,24,61,53
India,Chhattisgarh,Raipur,"Krishak Nagar, Raipur - CECB",17-04-2024 03:00:00,21.237755,81.705301,PM2.5,29,50,38
India,Chhattisgarh,Raipur,"Krishak Nagar, Raipur - CECB",17-04-2024 03:00:00,21.237755,81.705301,NH3,1,1,1
India,Chhattisgarh,Raipur,"Krishak Nagar, Raipur - CECB",17-04-2024 03:00:00,21.237755,81.705301,OZONE,3,69,4
India,Chhattisgarh,Raipur,"Siltara Phase-II, Raipur - CECB",17-04-2024 03:00:00,21.371751,81.664929,OZONE,3,49,4
India,Chhattisgarh,Tumidih,"OP Jindal Industrial Park, Tumidih - CECB",17-04-2024 03:00:00,22.06631475,83.33820077,PM2.5,NA,NA,NA
India,Chhattisgarh,Tumidih,"OP Jindal Industrial Park, Tumidih - CECB",17-04-2024 03:00:00,22.06631475,83.33820077,NO2,NA,NA,NA
India,Chhattisgarh,Tumidih,"OP Jindal Industrial Park, Tumidih - CECB",17-04-2024 03:00:00,22.06631475,83.33820077,CO,20,36,29
India,Delhi,Delhi,"Alipur, Delhi - DPCC",17-04-2024 03:00:00,28.815329,77.153010,PM2.5,15,408,135
India,Delhi,Delhi,"Anand Vihar, Delhi - DPCC",17-04-2024 03:00:00,28.647622,77.3158090,PM10,NA,NA,NA
India,Delhi,Delhi,"Anand Vihar, Delhi - DPCC",17-04-2024 03:00:00,28.647622,77.3158090,NO2,NA,NA,NA
India,Delhi,Delhi,"Anand Vihar, Delhi - DPCC",17-04-2024 03:00:00,28.647622,77.3158090,SO2,NA,NA,NA
India,Delhi,Delhi,"Ashok Vihar, Delhi - DPCC",17-04-2024 03:00:00,28.695381,77.181665,NH3,12,19,16
India,Delhi,Delhi,"Bawana, Delhi - DPCC",17-04-2024 03:00:00,28.776200,77.051074,PM2.5,38,500,191
India,Delhi,Delhi,"Bawana, Delhi - DPCC",17-04-2024 03:00:00,28.776200,77.051074,NO2,11,83,33
India,Delhi,Delhi,"Bawana, Delhi - DPCC",17-04-2024 03:00:00,28.776200,77.051074,CO,2,78,16
India,Delhi,Delhi,"Chandni Chowk, Delhi - IITM",17-04-2024 03:00:00,28.656756,77.227234,PM2.5,94,361,220
India,Delhi,Delhi,"DTU, Delhi - CPCB",17-04-2024 03:00:00,28.7500499,77.1112615,PM10,92,500,274
India,Delhi,Delhi,"Dwarka-Sector 8, Delhi - DPCC ",17-04-2024 03:00:00,28.5710274,77.0719006,NO2,8,50,20
India,Delhi,Delhi,"Dwarka-Sector 8, Delhi - DPCC ",17-04-2024 03:00:00,28.5710274,77.0719006,CO,35,89,49
India,Delhi,Delhi,"ITO, Delhi - CPCB",17-04-2024 03:00:00,28.628624,77.241060,PM10,29,216,103
India,Delhi,Delhi,"ITO, Delhi - CPCB",17-04-2024 03:00:00,28.628624,77.241060,CO,27,53,42
India,Delhi,Delhi,"ITO, Delhi - CPCB",17-04-2024 03:00:00,28.628624,77.241060,OZONE,12,44,28
India,Delhi,Delhi,"Jahangirpuri, Delhi - DPCC",17-04-2024 03:00:00,28.732820,77.170633,SO2,10,105,36
India,Delhi,Delhi,"Jahangirpuri, Delhi - DPCC",17-04-2024 03:00:00,28.732820,77.170633,CO,35,114,82
India,Delhi,Delhi,"Lodhi Road, Delhi - IITM",17-04-2024 03:00:00,28.588333,77.221667,PM2.5,NA,NA,NA
India,Delhi,Delhi,"Lodhi Road, Delhi - IITM",17-04-2024 03:00:00,28.588333,77.221667,PM10,NA,NA,NA
India,Delhi,Delhi,"Lodhi Road, Delhi - IITM",17-04-2024 03:00:00,28.588333,77.221667,OZONE,16,19,16
India,Delhi,Delhi,"Major Dhyan Chand National Stadium, Delhi - DPCC",17-04-2024 03:00:00,28.611281,77.237738,PM2.5,33,353,131
India,Delhi,Delhi,"Major Dhyan Chand National Stadium, Delhi - DPCC",17-04-2024 03:00:00,28.611281,77.237738,CO,22,88,36
India,Delhi,Delhi,"Mandir Marg, Delhi - DPCC",17-04-2024 03:00:00,28.636429,77.201067,PM2.5,16,338,114
India,Delhi,Delhi,"Mundka, Delhi - DPCC",17-04-2024 03:00:00,28.684678,77.076574,PM2.5,23,472,182
India,Delhi,Delhi,"Mundka, Delhi - DPCC",17-04-2024 03:00:00,28.684678,77.076574,SO2,6,74,29
India,Delhi,Delhi,"NSIT Dwarka, Delhi - CPCB",17-04-2024 03:00:00,28.60909,77.0325413,PM10,132,329,186
India,Delhi,Delhi,"NSIT Dwarka, Delhi - CPCB",17-04-2024 03:00:00,28.60909,77.0325413,SO2,2,44,21
India,Delhi,Delhi,"Najafgarh, Delhi - DPCC",17-04-2024 03:00:00,28.570173,76.933762,PM2.5,8,345,123
India,Delhi,Delhi,"Najafgarh, Delhi - DPCC",17-04-2024 03:00:00,28.570173,76.933762,OZONE,7,168,65
India,Delhi,Delhi,"Nehru Nagar, Delhi - DPCC",17-04-2024 03:00:00,28.567890,77.250515,NO2,8,14,10
India,Delhi,Delhi,"Nehru Nagar, Delhi - DPCC",17-04-2024 03:00:00,28.567890,77.250515,NH3,2,3,3
India,Delhi,Delhi,"New Moti Bagh, Delhi - MHUA",17-04-2024 03:00:00,28.57834,77.18400,CO,16,102,41
India,Delhi,Delhi,"Okhla Phase-2, Delhi - DPCC",17-04-2024 03:00:00,28.530785,77.271255,PM10,93,255,159
India,Delhi,Delhi,"Okhla Phase-2, Delhi - DPCC",17-04-2024 03:00:00,28.530785,77.271255,OZONE,9,73,36
India,Delhi,Delhi,"Patparganj, Delhi - DPCC",17-04-2024 03:00:00,28.623763,77.287209,PM2.5,16,354,117
India,Delhi,Delhi,"Patparganj, Delhi - DPCC",17-04-2024 03:00:00,28.623763,77.287209,NO2,28,87,54
India,Delhi,Delhi,"Patparganj, Delhi - DPCC",17-04-2024 03:00:00,28.623763,77.287209,NH3,7,11,10
India,Delhi,Delhi,"Rohini, Delhi - DPCC",17-04-2024 03:00:00,28.732528,77.119920,PM2.5,22,464,155
India,Delhi,Delhi,"Rohini, Delhi - DPCC",17-04-2024 03:00:00,28.732528,77.119920,PM10,82,465,189
India,Delhi,Delhi,"Shadipur, Delhi - CPCB",17-04-2024 03:00:00,28.6514781,77.1473105,OZONE,32,171,160
India,Delhi,Delhi,"Sirifort, Delhi - CPCB",17-04-2024 03:00:00,28.5504249,77.2159377,OZONE,7,36,15
India,Delhi,Delhi,"Sonia Vihar, Delhi - DPCC",17-04-2024 03:00:00,28.710508,77.249485,NO2,10,82,33
India,Delhi,Delhi,"Sonia Vihar, Delhi - DPCC",17-04-2024 03:00:00,28.710508,77.249485,NH3,6,11,8
India,Delhi,Delhi,"Sri Aurobindo Marg, Delhi - DPCC",17-04-2024 03:00:00,28.531346,77.190156,NH3,7,13,10
India,Delhi,Delhi,"Vivek Vihar, Delhi - DPCC",17-04-2024 03:00:00,28.672342,77.315260,PM2.5,10,401,149
India,Delhi,Delhi,"Vivek Vihar, Delhi - DPCC",17-04-2024 03:00:00,28.672342,77.315260,PM10,92,406,188
India,Delhi,Delhi,"Vivek Vihar, Delhi - DPCC",17-04-2024 03:00:00,28.672342,77.315260,NH3,14,16,15
India,Delhi,Delhi,"Wazirpur, Delhi - DPCC",17-04-2024 03:00:00,28.699793,77.165453,NO2,24,93,51
India,Delhi,Delhi,"Wazirpur, Delhi - DPCC",17-04-2024 03:00:00,28.699793,77.165453,SO2,9,56,19
India,Gujarat,Ahmedabad,"Chandkheda, Ahmedabad - IITM",17-04-2024 03:00:00,23.107969,72.574648,PM2.5,54,264,96
India,Gujarat,Ahmedabad,"Chandkheda, Ahmedabad - IITM",17-04-2024 03:00:00,23.107969,72.574648,PM10,58,162,90
India,Gujarat,Ahmedabad,"Chandkheda, Ahmedabad - IITM",17-04-2024 03:00:00,23.107969,72.574648,NO2,30,53,39
India,Gujarat,Ahmedabad,"Chandkheda, Ahmedabad - IITM",17-04-2024 03:00:00,23.107969,72.574648,NH3,4,5,5
India,Gujarat,Ahmedabad,"Gyaspur, Ahmedabad - IITM",17-04-2024 03:00:00,22.977134,72.553024,PM10,61,129,82
India,Gujarat,Ahmedabad,"Gyaspur, Ahmedabad - IITM",17-04-2024 03:00:00,22.977134,72.553024,CO,1,16,6
India,Gujarat,Ahmedabad,"Maninagar, Ahmedabad - GPCB",17-04-2024 03:00:00,23.002657,72.591912,PM10,51,98,68
India,Gujarat,Ahmedabad,"Maninagar, Ahmedabad - GPCB",17-04-2024 03:00:00,23.002657,72.591912,CO,26,100,74
India,Gujarat,Ahmedabad,"Maninagar, Ahmedabad - GPCB",17-04-2024 03:00:00,23.002657,72.591912,OZONE,23,74,32
India,Gujarat,Ahmedabad,"Rakhial, Ahmedabad - IITM",17-04-2024 03:00:00,23.016834,72.625775,PM2.5,37,84,57
India,Gujarat,Ahmedabad,"Rakhial, Ahmedabad - IITM",17-04-2024 03:00:00,23.016834,72.625775,NO2,5,24,11
India,Gujarat,Ahmedabad,"SAC ISRO Satellite, Ahmedabad - IITM",17-04-2024 03:00:00,23.023389,72.515201,SO2,2,18,7
India,Gujarat,Ahmedabad,"SAC ISRO Satellite, Ahmedabad - IITM",17-04-2024 03:00:00,23.023389,72.515201,CO,22,38,34
India,Gujarat,Ahmedabad,"SVPI Airport Hansol, Ahmedabad - IITM",17-04-2024 03:00:00,23.076793,72.627874,NO2,12,17,15
India,Gujarat,Ahmedabad,"SVPI Airport Hansol, Ahmedabad - IITM",17-04-2024 03:00:00,23.076793,72.627874,NH3,1,2,2
India,Gujarat,Ahmedabad,"SVPI Airport Hansol, Ahmedabad - IITM",17-04-2024 03:00:00,23.076793,72.627874,SO2,3,7,5
India,Gujarat,Ankleshwar,"GIDC, Ankleshwar - GPCB",17-04-2024 03:00:00,21.613267,73.010555,PM2.5,31,78,56
India,Gujarat,Ankleshwar,"GIDC, Ankleshwar - GPCB",17-04-2024 03:00:00,21.613267,73.010555,PM10,38,91,62
India,Gujarat,Gandhinagar,"IIPHG Lekawada, Gandhinagar - IITM",17-04-2024 03:00:00,23.243639,72.68994,NH3,6,7,6
India,Gujarat,Gandhinagar,"Sector-10, Gandhinagar - GPCB",17-04-2024 03:00:00,23.221714,72.654328,PM2.5,1,43,29
India,Gujarat,Vapi,"Phase-1 GIDC, Vapi - GPCB",17-04-2024 03:00:00,20.362421,72.918013,PM10,62,127,93
India,Haryana,Ambala,"Patti Mehar, Ambala - HSPCB",17-04-2024 03:00:00,30.379589,76.778328,SO2,1,104,26
India,Haryana,Bahadurgarh,"Arya Nagar, Bahadurgarh - HSPCB",17-04-2024 03:00:00,28.6701,76.9254,CO,41,59,50
India,Haryana,Ballabgarh,"Nathu Colony, Ballabgarh - HSPCB",17-04-2024 03:00:00,28.3419248,77.319699,SO2,1,54,20
India,Haryana,Ballabgarh,"Nathu Colony, Ballabgarh - HSPCB",17-04-2024 03:00:00,28.3419248,77.319699,OZONE,5,23,10
India,Haryana,Bhiwani,"H.B. Colony, Bhiwani - HSPCB",17-04-2024 03:00:00,28.806223,76.141105,PM2.5,49,117,75
India,Haryana,Bhiwani,"H.B. Colony, Bhiwani - HSPCB",17-04-2024 03:00:00,28.806223,76.141105,CO,25,102,75
India,Haryana,Dharuhera,"Municipal Corporation Office, Dharuhera -  HSPCB",17-04-2024 03:00:00,28.206800,76.799700,PM10,102,250,156
India,Haryana,Dharuhera,"Municipal Corporation Office, Dharuhera -  HSPCB",17-04-2024 03:00:00,28.206800,76.799700,CO,8,49,23
India,Haryana,Dharuhera,"Municipal Corporation Office, Dharuhera -  HSPCB",17-04-2024 03:00:00,28.206800,76.799700,OZONE,22,51,35
India,Haryana,Faridabad,"New Industrial Town, Faridabad - HSPCB",17-04-2024 03:00:00,28.39072,77.30059,PM10,102,361,193
India,Haryana,Faridabad,"Sector 11, Faridabad - HSPCB",17-04-2024 03:00:00,28.376058,77.315741,NH3,6,6,6
India,Haryana,Faridabad,"Sector 11, Faridabad - HSPCB",17-04-2024 03:00:00,28.376058,77.315741,CO,49,52,50
India,Haryana,Faridabad,"Sector 30, Faridabad - HSPCB",17-04-2024 03:00:00,28.4417,77.3217,PM2.5,93,103,96
India,Haryana,Fatehabad,"Huda Sector, Fatehabad - HSPCB",17-04-2024 03:00:00,29.503664,75.467934,NH3,10,11,10
India,Haryana,Gurugram,"Vikas Sadan, Gurugram - HSPCB",17-04-2024 03:00:00,28.4501238,77.0263051,PM2.5,32,428,222
India,Haryana,Gurugram,"Vikas Sadan, Gurugram - HSPCB",17-04-2024 03:00:00,28.4501238,77.0263051,CO,54,149,104
India,Haryana,Kaithal,"Rishi Nagar, Kaithal - HSPCB",17-04-2024 03:00:00,29.8006,76.4155,PM2.5,16,90,50
India,Haryana,Kaithal,"Rishi Nagar, Kaithal - HSPCB",17-04-2024 03:00:00,29.8006,76.4155,NH3,8,9,8
India,Haryana,Karnal,"Sector-12, Karnal - HSPCB",17-04-2024 03:00:00,29.695300,77.002700,OZONE,27,35,34
India,Haryana,Mandikhera,"General Hospital, Mandikhera - HSPCB",17-04-2024 03:00:00,27.9002,76.9938,PM10,47,120,74
India,Haryana,Mandikhera,"General Hospital, Mandikhera - HSPCB",17-04-2024 03:00:00,27.9002,76.9938,NH3,16,20,18
India,Haryana,Narnaul,"Shastri Nagar, Narnaul - HSPCB",17-04-2024 03:00:00,28.060249,76.113115,NH3,4,16,8
India,Haryana,Narnaul,"Shastri Nagar, Narnaul - HSPCB",17-04-2024 03:00:00,28.060249,76.113115,SO2,12,42,23
India,Haryana,Narnaul,"Shastri Nagar, Narnaul - HSPCB",17-04-2024 03:00:00,28.060249,76.113115,CO,20,30,25
India,Haryana,Palwal,"Shyam Nagar, Palwal - HSPCB",17-04-2024 03:00:00,28.1485564,77.3320667,PM10,NA,NA,NA
India,Haryana,Panipat,"Sector-18, Panipat - HSPCB",17-04-2024 03:00:00,29.497973,76.993331,PM10,87,89,88
India,Haryana,Rohtak,"MD University, Rohtak - HSPCB",17-04-2024 03:00:00,28.52123,76.37138,CO,22,54,49
India,Haryana,Sirsa,"F-Block, Sirsa - HSPCB",17-04-2024 03:00:00,29.536400,75.015800,PM10,40,155,89
India,Haryana,Sonipat,"Murthal, Sonipat - HSPCB",17-04-2024 03:00:00,29.027200,77.062100,PM10,106,109,107
India,Haryana,Sonipat,"Murthal, Sonipat - HSPCB",17-04-2024 03:00:00,29.027200,77.062100,NH3,7,10,9
India,Haryana,Sonipat,"Murthal, Sonipat - HSPCB",17-04-2024 03:00:00,29.027200,77.062100,SO2,13,29,20
India,Himachal Pradesh,Baddi,"HIMUDA Complex Phase-1, Baddi - HPPCB",17-04-2024 03:00:00,30.943887,76.801991,SO2,13,66,33
India,Jharkhand,Dhanbad,"Kalakusuma, Dhanbad - DMC",17-04-2024 03:00:00,23.811548,86.481238,CO,130,134,132
India,Jharkhand,Dhanbad,"Sardar Patel Nagar, Dhanbad - JSPCB",17-04-2024 03:00:00,23.80569,86.44268,CO,31,187,187
India,Karnataka,Belgaum,"Ramteerth Nagar, Belgaum - KSPCB",17-04-2024 03:00:00,15.888653,74.541751,PM10,26,71,48
India,Karnataka,Belgaum,"Ramteerth Nagar, Belgaum - KSPCB",17-04-2024 03:00:00,15.888653,74.541751,NH3,3,33,16
India,Karnataka,Belgaum,"Ramteerth Nagar, Belgaum - KSPCB",17-04-2024 03:00:00,15.888653,74.541751,OZONE,19,20,19
India,Karnataka,Bengaluru,"BTM Layout, Bengaluru - CPCB",17-04-2024 03:00:00,12.9135218,77.5950804,NO2,26,27,27
India,Karnataka,Bengaluru,"Hebbal, Bengaluru - KSPCB",17-04-2024 03:00:00,13.029152,77.585901,PM2.5,17,99,46
India,Karnataka,Bengaluru,"Hebbal, Bengaluru - KSPCB",17-04-2024 03:00:00,13.029152,77.585901,CO,2,38,18
India,Karnataka,Bengaluru,"Hombegowda Nagar, Bengaluru - KSPCB",17-04-2024 03:00:00,12.938539,77.590100,PM2.5,24,62,39
India,Karnataka,Bengaluru,"Hombegowda Nagar, Bengaluru - KSPCB",17-04-2024 03:00:00,12.938539,77.590100,PM10,36,92,59
India,Karnataka,Bengaluru,"Hombegowda Nagar, Bengaluru - KSPCB",17-04-2024 03:00:00,12.938539,77.590100,NO2,13,25,19
India,Karnataka,Bengaluru,"Hombegowda Nagar, Bengaluru - KSPCB",17-04-2024 03:00:00,12.938539,77.590100,CO,11,14,12
India,Karnataka,Bengaluru,"Jayanagar 5th Block, Bengaluru - KSPCB",17-04-2024 03:00:00,12.920984,77.584908,CO,5,8,6
India,Karnataka,Bengaluru,"Kasturi Nagar, Bengaluru - KSPCB",17-04-2024 03:00:00,13.003872,77.664217,PM2.5,39,500,139
India,Karnataka,Bengaluru,"Kasturi Nagar, Bengaluru - KSPCB",17-04-2024 03:00:00,13.003872,77.664217,SO2,10,10,10
India,Karnataka,Bengaluru,"Kasturi Nagar, Bengaluru - KSPCB",17-04-2024 03:00:00,13.003872,77.664217,CO,21,26,24
India,Karnataka,Bengaluru,"RVCE-Mailasandra, Bengaluru - KSPCB",17-04-2024 03:00:00,12.921418,77.502466,NO2,16,17,17
India,Karnataka,Bengaluru,"Shivapura_Peenya, Bengaluru - KSPCB",17-04-2024 03:00:00,13.0246342,77.5080115,PM10,39,73,55
India,Karnataka,Bengaluru,"Shivapura_Peenya, Bengaluru - KSPCB",17-04-2024 03:00:00,13.0246342,77.5080115,NH3,4,4,4
India,Karnataka,Bengaluru,"Silk Board, Bengaluru - KSPCB",17-04-2024 03:00:00,12.917348,77.622813,NO2,NA,NA,NA
India,Karnataka,Bengaluru,"Silk Board, Bengaluru - KSPCB",17-04-2024 03:00:00,12.917348,77.622813,NH3,NA,NA,NA
India,Karnataka,Bidar,"Naubad, Bidar - KSPCB",17-04-2024 03:00:00,17.930306,77.482194,OZONE,23,51,39
India,Karnataka,Chamarajanagar,"Urban, Chamarajanagar - KSPCB",17-04-2024 03:00:00,11.55358,76.55521,PM10,34,58,42
India,Karnataka,Chamarajanagar,"Urban, Chamarajanagar - KSPCB",17-04-2024 03:00:00,11.55358,76.55521,SO2,2,8,4
India,Karnataka,Chikkaballapur,"Chikkaballapur Rural, Chikkaballapur - KSPCB",17-04-2024 03:00:00,13.428828,77.731418,NH3,1,1,1
India,Karnataka,Chikkaballapur,"Chikkaballapur Rural, Chikkaballapur - KSPCB",17-04-2024 03:00:00,13.428828,77.731418,CO,13,18,16
India,Karnataka,Chikkamagaluru,"Kalyana Nagara, Chikkamagaluru - KSPCB",17-04-2024 03:00:00,13.328028,75.797056,PM10,27,199,50
India,Karnataka,Chikkamagaluru,"Kalyana Nagara, Chikkamagaluru - KSPCB",17-04-2024 03:00:00,13.328028,75.797056,OZONE,12,42,19
India,Karnataka,Davanagere,"Devaraj Urs Badavane, Davanagere - KSPCB",17-04-2024 03:00:00,14.475800,75.905200,NH3,1,1,1
India,Karnataka,Davanagere,"Devaraj Urs Badavane, Davanagere - KSPCB",17-04-2024 03:00:00,14.475800,75.905200,CO,18,27,24
India,Karnataka,Dharwad,"Kalabhavan, Dharwad - KSPCB",17-04-2024 03:00:00,15.459706,75.008381,PM10,11,228,99
India,Karnataka,Gadag,"Panchal Nagar, Gadag - KSPCB",17-04-2024 03:00:00,15.411456,75.638133,PM10,NA,NA,NA
India,Karnataka,Gadag,"Panchal Nagar, Gadag - KSPCB",17-04-2024 03:00:00,15.411456,75.638133,NH3,NA,NA,NA
India,Karnataka,Gadag,"Panchal Nagar, Gadag - KSPCB",17-04-2024 03:00:00,15.411456,75.638133,SO2,NA,NA,NA
India,Karnataka,Hassan,"B.Katihalli, Hassan - KSPCB",17-04-2024 03:00:00,13.008556,76.125258,SO2,9,37,26
India,Karnataka,Hubballi,"Deshpande Nagar, Hubballi - KSPCB",17-04-2024 03:00:00,15.351773,75.140726,CO,8,76,20
India,Karnataka,Kalaburagi,"Lal Bahadur Shastri Nagar, Kalaburagi - KSPCB",17-04-2024 03:00:00,17.321993,76.822628,PM10,23,159,60
India,Karnataka,Kalaburagi,"Mahatma Basaveswar Colony, Kalaburgi - KSPCB",17-04-2024 03:00:00,17.336318,76.847397,NH3,3,4,3
India,Karnataka,Kalaburagi,"Mahatma Basaveswar Colony, Kalaburgi - KSPCB",17-04-2024 03:00:00,17.336318,76.847397,SO2,4,64,19
India,Karnataka,Karwar,"KHB Colony, Karwar - KSPCB",17-04-2024 03:00:00,14.816666,74.141003,PM2.5,33,67,45
India,Karnataka,Karwar,"KHB Colony, Karwar - KSPCB",17-04-2024 03:00:00,14.816666,74.141003,PM10,40,77,53
India,Karnataka,Karwar,"KHB Colony, Karwar - KSPCB",17-04-2024 03:00:00,14.816666,74.141003,SO2,19,20,19
India,Karnataka,Kolar,"Tamaka Ind. Area, Kolar - KSPCB",17-04-2024 03:00:00,13.1276288,78.1570122,NO2,NA,NA,NA
India,Karnataka,Kolar,"Tamaka Ind. Area, Kolar - KSPCB",17-04-2024 03:00:00,13.1276288,78.1570122,OZONE,13,15,14
India,Karnataka,Koppal,"Diwator Nagar, Koppal - KSPCB",17-04-2024 03:00:00,15.347630,76.181767,NO2,38,69,50
India,Karnataka,Madikeri,"Stuart Hill, Madikeri - KSPCB",17-04-2024 03:00:00,12.415911,75.735050,PM10,29,58,42
India,Karnataka,Madikeri,"Stuart Hill, Madikeri - KSPCB",17-04-2024 03:00:00,12.415911,75.735050,CO,2,81,33
India,Karnataka,Mangalore,"Kadri, Mangalore - KSPCB",17-04-2024 03:00:00,12.889250,74.853000,PM2.5,24,60,39
India,Karnataka,Mangalore,"Kadri, Mangalore - KSPCB",17-04-2024 03:00:00,12.889250,74.853000,PM10,50,95,68
India,Karnataka,Mangalore,"Kadri, Mangalore - KSPCB",17-04-2024 03:00:00,12.889250,74.853000,SO2,12,17,14
India,Karnataka,Mangalore,"Kadri, Mangalore - KSPCB",17-04-2024 03:00:00,12.889250,74.853000,OZONE,30,34,31
India,Karnataka,Ramanagara,"Vijay Nagar, Ramanagara - KSPCB",17-04-2024 03:00:00,12.733409,77.298051,PM2.5,16,104,44
India,Karnataka,Shivamogga,"Vinoba Nagara, Shivamogga - KSPCB",17-04-2024 03:00:00,13.940000,75.555917,PM2.5,35,60,46
India,Karnataka,Shivamogga,"Vinoba Nagara, Shivamogga - KSPCB",17-04-2024 03:00:00,13.940000,75.555917,OZONE,16,92,65
India,Karnataka,Tumakuru,"Thimmalapura, Tumakuru - KSPCB",17-04-2024 03:00:00,13.377516,77.099072,SO2,8,13,9
India,Karnataka,Tumakuru,"Thimmalapura, Tumakuru - KSPCB",17-04-2024 03:00:00,13.377516,77.099072,CO,29,34,32
India,Karnataka,Vijayapura,"Ibrahimpur, Vijayapura - KSPCB",17-04-2024 03:00:00,16.802639,75.722694,PM10,42,44,42
India,Karnataka,Yadgir,"Collector Office, Yadgir - KSPCB",17-04-2024 03:00:00,16.7602,77.1428,NO2,5,9,6
India,Karnataka,Yadgir,"Collector Office, Yadgir - KSPCB",17-04-2024 03:00:00,16.7602,77.1428,SO2,3,39,16
India,Kerala,Eloor,"Udyogamandal, Eloor - Kerala PCB",17-04-2024 03:00:00,10.073232,76.302765,NO2,4,4,4
India,Kerala,Eloor,"Udyogamandal, Eloor - Kerala PCB",17-04-2024 03:00:00,10.073232,76.302765,OZONE,12,28,16
India,Kerala,Kollam,"Polayathode, Kollam - Kerala PCB",17-04-2024 03:00:00,8.8787,76.6073,NH3,1,1,1
India,Kerala,Kollam,"Polayathode, Kollam - Kerala PCB",17-04-2024 03:00:00,8.8787,76.6073,SO2,1,11,3
India,Kerala,Kollam,"Polayathode, Kollam - Kerala PCB",17-04-2024 03:00:00,8.8787,76.6073,OZONE,32,37,34
India,Kerala,Thiruvananthapuram,"Kariavattom, Thiruvananthapuram - Kerala PCB",17-04-2024 03:00:00,8.563700,76.886500,PM10,78,95,86
India,Kerala,Thiruvananthapuram,"Kariavattom, Thiruvananthapuram - Kerala PCB",17-04-2024 03:00:00,8.563700,76.886500,SO2,2,14,6
India,Kerala,Thiruvananthapuram,"Kariavattom, Thiruvananthapuram - Kerala PCB",17-04-2024 03:00:00,8.563700,76.886500,OZONE,27,33,30
India,Kerala,Thiruvananthapuram,"Plammoodu, Thiruvananthapuram - Kerala PCB",17-04-2024 03:00:00,8.5149093,76.9435879,SO2,3,12,9
India,Madhya Pradesh,Bhopal,"Idgah Hills, Bhopal - MPPCB",17-04-2024 03:00:00,23.264759,77.381568,PM2.5,17,68,39
India,Madhya Pradesh,Bhopal,"Idgah Hills, Bhopal - MPPCB",17-04-2024 03:00:00,23.264759,77.381568,NO2,15,36,24
India,Madhya Pradesh,Bhopal,"Idgah Hills, Bhopal - MPPCB",17-04-2024 03:00:00,23.264759,77.381568,SO2,15,26,19
India,Madhya Pradesh,Bhopal,"Idgah Hills, Bhopal - MPPCB",17-04-2024 03:00:00,23.264759,77.381568,CO,18,40,24
India,Madhya Pradesh,Bhopal,"Paryavaran Parisar, Bhopal - MPPCB",17-04-2024 03:00:00,23.210494,77.425409,NH3,6,8,7
India,Madhya Pradesh,Bhopal,"Paryavaran Parisar, Bhopal - MPPCB",17-04-2024 03:00:00,23.210494,77.425409,CO,14,58,32
India,Madhya Pradesh,Bhopal,"T T Nagar, Bhopal - MPPCB",17-04-2024 03:00:00,23.233584,77.400574,PM2.5,14,84,50
India,Madhya Pradesh,Bhopal,"T T Nagar, Bhopal - MPPCB",17-04-2024 03:00:00,23.233584,77.400574,PM10,53,129,87
India,Madhya Pradesh,Bhopal,"T T Nagar, Bhopal - MPPCB",17-04-2024 03:00:00,23.233584,77.400574,SO2,11,31,21
India,Madhya Pradesh,Dewas,"Bhopal Chauraha, Dewas - MPPCB",17-04-2024 03:00:00,22.9682591,76.064118,OZONE,10,39,22
India,Madhya Pradesh,Gwalior,"Deen Dayal Nagar, Gwalior - MPPCB",17-04-2024 03:00:00,26.259242,78.216432,NH3,4,10,6
India,Madhya Pradesh,Gwalior,"Maharaj Bada, Gwalior - MPPCB",17-04-2024 03:00:00,26.200388,78.147714,NH3,NA,NA,NA
India,Madhya Pradesh,Gwalior,"Maharaj Bada, Gwalior - MPPCB",17-04-2024 03:00:00,26.200388,78.147714,SO2,NA,NA,NA
India,Madhya Pradesh,Gwalior,"Maharaj Bada, Gwalior - MPPCB",17-04-2024 03:00:00,26.200388,78.147714,CO,NA,NA,NA
India,Madhya Pradesh,Gwalior,"Maharaj Bada, Gwalior - MPPCB",17-04-2024 03:00:00,26.200388,78.147714,OZONE,NA,NA,NA
India,Madhya Pradesh,Indore,"Chhoti Gwaltoli, Indore - MPPCB",17-04-2024 03:00:00,22.4310,75.5213,PM10,50,176,114
India,Madhya Pradesh,Indore,"Chhoti Gwaltoli, Indore - MPPCB",17-04-2024 03:00:00,22.4310,75.5213,OZONE,12,104,20
India,Madhya Pradesh,Indore,"Maguda Nagar, Indore - IMC",17-04-2024 03:00:00,22.7524,75.8872,NH3,1,2,2
India,Madhya Pradesh,Indore,"Regional Park, Indore - IMC",17-04-2024 03:00:00,22.6780,75.8559,PM10,16,78,49
India,Madhya Pradesh,Indore,"Regional Park, Indore - IMC",17-04-2024 03:00:00,22.6780,75.8559,NH3,1,4,2
India,Madhya Pradesh,Indore,"Residency Area, Indore - IMC",17-04-2024 03:00:00,22.7084,75.8815,PM2.5,17,93,56
India,Madhya Pradesh,Indore,"Residency Area, Indore - IMC",17-04-2024 03:00:00,22.7084,75.8815,NO2,30,57,42
India,Madhya Pradesh,Jabalpur,"Govindh Bhavan Colony, Jabalpur - JMC",17-04-2024 03:00:00,23.163174,79.973061,SO2,7,51,39
India,Madhya Pradesh,Jabalpur,"Marhatal, Jabalpur - MPPCB",17-04-2024 03:00:00,23.168606,79.932247,PM10,44,122,78
India,Madhya Pradesh,Jabalpur,"Suhagi, Jabalpur - JMC",17-04-2024 03:00:00,23.218135,79.957770,PM10,NA,NA,NA
India,Madhya Pradesh,Jabalpur,"Suhagi, Jabalpur - JMC",17-04-2024 03:00:00,23.218135,79.957770,SO2,7,12,11
India,Madhya Pradesh,Mandideep,"Sector-D Industrial Area, Mandideep - MPPCB",17-04-2024 03:00:00,23.108440,77.511428,NO2,13,72,44
India,Madhya Pradesh,Mandideep,"Sector-D Industrial Area, Mandideep - MPPCB",17-04-2024 03:00:00,23.108440,77.511428,NH3,5,5,5
India,Madhya Pradesh,Mandideep,"Sector-D Industrial Area, Mandideep - MPPCB",17-04-2024 03:00:00,23.108440,77.511428,CO,11,66,43
India,Madhya Pradesh,Sagar,"Civil Lines, Sagar - MPPCB",17-04-2024 03:00:00,23.838586,78.759431,PM2.5,28,139,53
India,Madhya Pradesh,Sagar,"Civil Lines, Sagar - MPPCB",17-04-2024 03:00:00,23.838586,78.759431,SO2,1,8,4
India,Madhya Pradesh,Sagar,"Civil Lines, Sagar - MPPCB",17-04-2024 03:00:00,23.838586,78.759431,CO,14,42,23
India,Madhya Pradesh,Sagar,"Deen Dayal Nagar, Sagar - MPPCB",17-04-2024 03:00:00,23.8640158,78.80289321,SO2,6,19,12
India,Madhya Pradesh,Satna,"Bandhavgar Colony, Satna - Birla Cement",17-04-2024 03:00:00,24.58434363,80.8549414,PM2.5,2,133,52
India,Madhya Pradesh,Satna,"Bandhavgar Colony, Satna - Birla Cement",17-04-2024 03:00:00,24.58434363,80.8549414,PM10,5,127,66
India,Maharashtra,Ahmednagar,"Tarakpur, Ahmednagar - MPCB",17-04-2024 03:00:00,19.10122,74.73339,PM2.5,33,127,72
India,Maharashtra,Ahmednagar,"Tarakpur, Ahmednagar - MPCB",17-04-2024 03:00:00,19.10122,74.73339,SO2,5,15,9
India,Maharashtra,Amravati,"Shri Shivaji Science College, Amaravati - MPCB",17-04-2024 03:00:00,20.939198,77.765701,PM10,40,135,75
India,Maharashtra,Amravati,"Shri Shivaji Science College, Amaravati - MPCB",17-04-2024 03:00:00,20.939198,77.765701,NO2,8,124,39
India,Maharashtra,Aurangabad,"MIDC Chilkalthana, Aurangabad - MPCB",17-04-2024 03:00:00,19.875620,75.387310,NO2,6,26,14
India,Maharashtra,Aurangabad,"MIDC Chilkalthana, Aurangabad - MPCB",17-04-2024 03:00:00,19.875620,75.387310,CO,22,32,27
India,Maharashtra,Aurangabad,"More Chowk Waluj, Aurangabad - MPCB",17-04-2024 03:00:00,19.8389439,75.244448,NO2,39,48,44
India,Maharashtra,Aurangabad,"More Chowk Waluj, Aurangabad - MPCB",17-04-2024 03:00:00,19.8389439,75.244448,SO2,1,3,1
India,Maharashtra,Aurangabad,"Rachnakar Colony, Aurangabad - MPCB",17-04-2024 03:00:00,19.863756,75.321188,SO2,4,12,7
India,Maharashtra,Aurangabad,"Rachnakar Colony, Aurangabad - MPCB",17-04-2024 03:00:00,19.863756,75.321188,OZONE,24,108,43
India,Maharashtra,Badlapur,"Katrap, Badlapur - MPCB",17-04-2024 03:00:00,19.16485,73.23409,CO,9,36,10
India,Maharashtra,Belapur,"CBD Belapur, Belapur - MPCB",17-04-2024 03:00:00,19.0243902,73.0406721,SO2,2,11,5
India,Maharashtra,Belapur,"CBD Belapur, Belapur - MPCB",17-04-2024 03:00:00,19.0243902,73.0406721,CO,25,58,37
India,Maharashtra,Bhiwandi,"Gokul Nagar, Bhiwandi - MPCB",17-04-2024 03:00:00,19.309073,73.057223,PM10,94,158,124
India,Maharashtra,Bhiwandi,"Gokul Nagar, Bhiwandi - MPCB",17-04-2024 03:00:00,19.309073,73.057223,NH3,3,6,4
India,Maharashtra,Boisar,"Khaira, Boisar - MPCB",17-04-2024 03:00:00,19.786089,72.757971,OZONE,8,134,37
India,Maharashtra,Chandrapur,"Chauhan Colony, Chandrapur - MPCB",17-04-2024 03:00:00,19.962900,79.298714,CO,24,28,26
India,Maharashtra,Chandrapur,"MIDC Khutala, Chandrapur - MPCB",17-04-2024 03:00:00,19.9775302,79.2337086,PM2.5,42,136,80
India,Maharashtra,Chandrapur,"MIDC Khutala, Chandrapur - MPCB",17-04-2024 03:00:00,19.9775302,79.2337086,CO,16,112,46
India,Maharashtra,Jalgaon,"Prabhat Colony, Jalgaon - MPCB",17-04-2024 03:00:00,21.001264,75.565602,NH3,11,29,17
India,Maharashtra,Jalgaon,"Prabhat Colony, Jalgaon - MPCB",17-04-2024 03:00:00,21.001264,75.565602,OZONE,8,131,30
India,Maharashtra,Jalna,"Old MIDC, Jalna - MPCB",17-04-2024 03:00:00,19.854616,75.905894,NO2,1,15,12
India,Maharashtra,Jalna,"Old MIDC, Jalna - MPCB",17-04-2024 03:00:00,19.854616,75.905894,NH3,6,8,7
India,Maharashtra,Kalyan,"Khadakpada, Kalyan - MPCB",17-04-2024 03:00:00,19.25292,73.142019,OZONE,7,32,10
India,Maharashtra,Kolhapur,"Sinchan Bhavan, Kolhapur - MPCB",17-04-2024 03:00:00,16.7143745,74.2426398,SO2,1,8,3
India,Maharashtra,Mahad,"Kamble Tarf Birwadi, Mahad - MPCB",17-04-2024 03:00:00,18.1023399,73.4783687,PM2.5,70,277,140
India,Maharashtra,Mahad,"Kamble Tarf Birwadi, Mahad - MPCB",17-04-2024 03:00:00,18.1023399,73.4783687,CO,22,74,24
India,Maharashtra,Malegaon,"Mahesh Nagar, Malegaon - MPCB",17-04-2024 03:00:00,20.555712,74.529236,CO,18,48,35
India,Maharashtra,Mumbai,"Bandra Kurla Complex, Mumbai - MPCB",17-04-2024 03:00:00,19.065931,72.862131,PM2.5,74,117,94
India,Maharashtra,Mumbai,"Bandra Kurla Complex, Mumbai - MPCB",17-04-2024 03:00:00,19.065931,72.862131,NO2,8,41,20
India,Maharashtra,Mumbai,"Bandra Kurla Complex, Mumbai - MPCB",17-04-2024 03:00:00,19.065931,72.862131,SO2,1,3,2
India,Maharashtra,Mumbai,"Borivali East, Mumbai - IITM",17-04-2024 03:00:00,19.23241,72.86895,NH3,1,3,1
India,Maharashtra,Mumbai,"Borivali East, Mumbai - MPCB",17-04-2024 03:00:00,19.2243333,72.8658113,SO2,6,16,9
India,Maharashtra,Mumbai,"Chembur, Mumbai - MPCB",17-04-2024 03:00:00,19.0364585,72.8954371,NO2,16,108,50
India,Maharashtra,Mumbai,"Chembur, Mumbai - MPCB",17-04-2024 03:00:00,19.0364585,72.8954371,NH3,4,6,5
India,Maharashtra,Mumbai,"Chhatrapati Shivaji Intl. Airport (T2), Mumbai - MPCB",17-04-2024 03:00:00,19.10078,72.87462,OZONE,4,13,6
India,Maharashtra,Mumbai,"Colaba, Mumbai - MPCB",17-04-2024 03:00:00,18.910000,72.820000,NO2,NA,NA,NA
India,Maharashtra,Mumbai,"Ghatkopar, Mumbai - BMC",17-04-2024 03:00:00,19.083694,72.920967,PM10,NA,NA,NA
India,Maharashtra,Mumbai,"Ghatkopar, Mumbai - BMC",17-04-2024 03:00:00,19.083694,72.920967,CO,6,30,16
India,Maharashtra,Mumbai,"Kandivali East, Mumbai - MPCB",17-04-2024 03:00:00,19.205800,72.868200,SO2,7,8,8
India,Maharashtra,Mumbai,"Kandivali East, Mumbai - MPCB",17-04-2024 03:00:00,19.205800,72.868200,CO,30,36,34
India,Maharashtra,Mumbai,"Kherwadi_Bandra East, Mumbai - MPCB",17-04-2024 03:00:00,19.0632143,72.8456324,PM2.5,56,100,80
India,Maharashtra,Mumbai,"Kurla, Mumbai - MPCB",17-04-2024 03:00:00,19.0863,72.8888,PM2.5,22,97,57
India,Maharashtra,Mumbai,"Kurla, Mumbai - MPCB",17-04-2024 03:00:00,19.0863,72.8888,OZONE,28,64,30
India,Maharashtra,Mumbai,"Mazgaon, Mumbai - IITM",17-04-2024 03:00:00,18.96702,72.84214,NH3,NA,NA,NA
India,Maharashtra,Mumbai,"Mazgaon, Mumbai - IITM",17-04-2024 03:00:00,18.96702,72.84214,SO2,NA,NA,NA
India,Maharashtra,Mumbai,"Mazgaon, Mumbai - IITM",17-04-2024 03:00:00,18.96702,72.84214,CO,13,110,59
India,Maharashtra,Mumbai,"Mulund West, Mumbai - MPCB",17-04-2024 03:00:00,19.1750,72.9419,PM2.5,81,185,112
India,Maharashtra,Mumbai,"Mulund West, Mumbai - MPCB",17-04-2024 03:00:00,19.1750,72.9419,NO2,20,27,24
India,Maharashtra,Mumbai,"Mulund West, Mumbai - MPCB",17-04-2024 03:00:00,19.1750,72.9419,SO2,13,14,13
India,Maharashtra,Mumbai,"Navy Nagar-Colaba, Mumbai - IITM",17-04-2024 03:00:00,18.897756,72.813320,SO2,1,5,2
India,Maharashtra,Mumbai,"Powai, Mumbai - MPCB",17-04-2024 03:00:00,19.137500,72.915056,PM2.5,47,84,65
India,Maharashtra,Mumbai,"Sewri, Mumbai - BMC",17-04-2024 03:00:00,19.000084,72.856730,NO2,23,96,51
India,Maharashtra,Mumbai,"Sewri, Mumbai - BMC",17-04-2024 03:00:00,19.000084,72.856730,CO,14,72,37
India,Maharashtra,Mumbai,"Sewri, Mumbai - BMC",17-04-2024 03:00:00,19.000084,72.856730,OZONE,7,124,69
India,Maharashtra,Mumbai,"Shivaji Nagar, Mumbai - BMC",17-04-2024 03:00:00,19.060498,72.923356,NH3,NA,NA,NA
India,Maharashtra,Mumbai,"Sion, Mumbai - MPCB",17-04-2024 03:00:00,19.047000,72.874600,NH3,1,1,1
India,Maharashtra,Mumbai,"Vasai West, Mumbai - MPCB",17-04-2024 03:00:00,19.383200,72.820400,NH3,4,7,4
India,Maharashtra,Mumbai,"Vile Parle West, Mumbai - MPCB",17-04-2024 03:00:00,19.10861,72.83622,NO2,7,36,14
India,Maharashtra,Mumbai,"Worli, Mumbai - MPCB",17-04-2024 03:00:00,18.9936162,72.8128113,PM2.5,34,68,50
India,Maharashtra,Mumbai,"Worli, Mumbai - MPCB",17-04-2024 03:00:00,18.9936162,72.8128113,NO2,15,15,15
India,Maharashtra,Nagpur,"Ambazari, Nagpur - MPCB",17-04-2024 03:00:00,21.121801,79.04952,PM2.5,42,106,70
India,Maharashtra,Nagpur,"Ambazari, Nagpur - MPCB",17-04-2024 03:00:00,21.121801,79.04952,NH3,3,7,4
India,Maharashtra,Nagpur,"Ambazari, Nagpur - MPCB",17-04-2024 03:00:00,21.121801,79.04952,CO,12,52,36
India,Maharashtra,Nagpur,"Mahal, Nagpur - MPCB",17-04-2024 03:00:00,21.14472,79.107595,PM2.5,43,95,66
India,Maharashtra,Nagpur,"Mahal, Nagpur - MPCB",17-04-2024 03:00:00,21.14472,79.107595,PM10,53,129,85
India,Maharashtra,Nagpur,"Mahal, Nagpur - MPCB",17-04-2024 03:00:00,21.14472,79.107595,SO2,1,60,24
India,Maharashtra,Nagpur,"Mahal, Nagpur - MPCB",17-04-2024 03:00:00,21.14472,79.107595,CO,13,134,82
India,Maharashtra,Nanded,"Sneh Nagar, Nanded - MPCB",17-04-2024 03:00:00,19.173852,77.296291,SO2,6,8,7
India,Maharashtra,Nanded,"Sneh Nagar, Nanded - MPCB",17-04-2024 03:00:00,19.173852,77.296291,OZONE,31,120,52
India,Maharashtra,Nashik,"Gangapur Road, Nashik - MPCB",17-04-2024 03:00:00,20.0073285,73.7762427,SO2,1,9,4
India,Maharashtra,Nashik,"Gangapur Road, Nashik - MPCB",17-04-2024 03:00:00,20.0073285,73.7762427,CO,24,143,80
India,Maharashtra,Nashik,"Hirawadi, Nashik - MPCB",17-04-2024 03:00:00,20.021503,73.813844,PM10,68,92,76
India,Maharashtra,Nashik,"Hirawadi, Nashik - MPCB",17-04-2024 03:00:00,20.021503,73.813844,CO,10,37,18
India,Maharashtra,Nashik,"MIDC Ambad, Nashik - MPCB",17-04-2024 03:00:00,19.950220,73.731480,PM2.5,42,72,59
India,Maharashtra,Nashik,"MIDC Ambad, Nashik - MPCB",17-04-2024 03:00:00,19.950220,73.731480,PM10,42,77,62
India,Maharashtra,Nashik,"MIDC Ambad, Nashik - MPCB",17-04-2024 03:00:00,19.950220,73.731480,CO,37,121,67
India,Maharashtra,Nashik,"Pandav Nagari, Nashik - MPCB",17-04-2024 03:00:00,19.9591346,73.7788008,CO,14,35,22
India,Maharashtra,Navi Mumbai,"Kopripada-Vashi, Navi Mumbai - MPCB",17-04-2024 03:00:00,19.090337,73.014232,PM2.5,65,315,133
India,Maharashtra,Navi Mumbai,"Kopripada-Vashi, Navi Mumbai - MPCB",17-04-2024 03:00:00,19.090337,73.014232,NH3,7,19,10
India,Maharashtra,Navi Mumbai,"Mahape, Navi Mumbai - MPCB",17-04-2024 03:00:00,19.1135051,73.008978,PM10,86,435,177
India,Maharashtra,Navi Mumbai,"Mahape, Navi Mumbai - MPCB",17-04-2024 03:00:00,19.1135051,73.008978,NH3,1,4,2
India,Maharashtra,Navi Mumbai,"Mahape, Navi Mumbai - MPCB",17-04-2024 03:00:00,19.1135051,73.008978,SO2,24,25,24
India,Maharashtra,Navi Mumbai,"Mahape, Navi Mumbai - MPCB",17-04-2024 03:00:00,19.1135051,73.008978,OZONE,38,76,44
India,Maharashtra,Navi Mumbai,"Nerul, Navi Mumbai - MPCB",17-04-2024 03:00:00,19.008751,73.016620,SO2,16,21,18
India,Maharashtra,Navi Mumbai,"Nerul, Navi Mumbai - MPCB",17-04-2024 03:00:00,19.008751,73.016620,OZONE,48,88,54
India,Maharashtra,Navi Mumbai,"Sanpada, Navi Mumbai - MPCB",17-04-2024 03:00:00,19.0575752,73.0151367,SO2,NA,NA,NA
India,Maharashtra,Navi Mumbai,"Sector-2E Kalamboli, Navi Mumbai - MPCB",17-04-2024 03:00:00,19.02579,73.10297,PM2.5,62,112,86
India,Maharashtra,Navi Mumbai,"Sector-2E Kalamboli, Navi Mumbai - MPCB",17-04-2024 03:00:00,19.02579,73.10297,NH3,1,9,2
India,Maharashtra,Navi Mumbai,"Tondare-Taloja, Navi Mumbai - MPCB",17-04-2024 03:00:00,19.0630,73.1209,NO2,23,124,72
India,Maharashtra,Navi Mumbai,"Tondare-Taloja, Navi Mumbai - MPCB",17-04-2024 03:00:00,19.0630,73.1209,CO,12,66,24
India,Maharashtra,Navi Mumbai,"Tondare-Taloja, Navi Mumbai - MPCB",17-04-2024 03:00:00,19.0630,73.1209,OZONE,4,120,19
India,Maharashtra,Parbhani,"Masoom Colony, Parbhani - MPCB",17-04-2024 03:00:00,19.265594,76.761463,SO2,1,9,3
India,Maharashtra,Pimpri-Chinchwad,"Gavalinagar, Pimpri Chinchwad - MPCB",17-04-2024 03:00:00,18.63673,73.82487,NH3,2,7,4
India,Maharashtra,Pimpri-Chinchwad,"Park Street Wakad, Pimpri Chinchwad - MPCB",17-04-2024 03:00:00,18.59051,73.77946,PM2.5,9,232,90
India,Maharashtra,Pimpri-Chinchwad,"Park Street Wakad, Pimpri Chinchwad - MPCB",17-04-2024 03:00:00,18.59051,73.77946,PM10,46,194,105
India,Maharashtra,Pimpri-Chinchwad,"Park Street Wakad, Pimpri Chinchwad - MPCB",17-04-2024 03:00:00,18.59051,73.77946,NO2,29,133,90
India,Maharashtra,Pimpri-Chinchwad,"Park Street Wakad, Pimpri Chinchwad - MPCB",17-04-2024 03:00:00,18.59051,73.77946,CO,17,80,54
India,Maharashtra,Pimpri-Chinchwad,"Thergaon, Pimpri Chinchwad - MPCB",17-04-2024 03:00:00,18.616318,73.765797,PM2.5,NA,NA,NA
India,Maharashtra,Pimpri-Chinchwad,"Thergaon, Pimpri Chinchwad - MPCB",17-04-2024 03:00:00,18.616318,73.765797,SO2,NA,NA,NA
India,Maharashtra,Pune,"Bhosari, Pune - IITM",17-04-2024 03:00:00,18.640051,73.848956,NO2,11,16,14
India,Maharashtra,Pune,"Bhosari, Pune - IITM",17-04-2024 03:00:00,18.640051,73.848956,OZONE,6,98,31
India,Maharashtra,Pune,"Mhada Colony, Pune - IITM",17-04-2024 03:00:00,18.573040,73.927715,PM2.5,NA,NA,NA
India,Maharashtra,Pune,"Mhada Colony, Pune - IITM",17-04-2024 03:00:00,18.573040,73.927715,NO2,NA,NA,NA
India,Maharashtra,Pune,"Mhada Colony, Pune - IITM",17-04-2024 03:00:00,18.573040,73.927715,CO,2,18,18
India,Maharashtra,Pune,"Revenue Colony-Shivajinagar, Pune - IITM",17-04-2024 03:00:00,18.530085,73.849598,PM2.5,42,124,76
India,Maharashtra,Pune,"Revenue Colony-Shivajinagar, Pune - IITM",17-04-2024 03:00:00,18.530085,73.849598,NH3,12,30,20
India,Maharashtra,Pune,"Revenue Colony-Shivajinagar, Pune - IITM",17-04-2024 03:00:00,18.530085,73.849598,SO2,86,133,110
India,Maharashtra,Pune,"Transport Nagar-Nigdi, Pune - IITM",17-04-2024 03:00:00,18.664282,73.763966,OZONE,7,92,41
India,Maharashtra,Sangli,"Vijay Nagar, Sangli - MPCB",17-04-2024 03:00:00, 16.5038,74.3623,NH3,1,3,2
India,Maharashtra,Solapur,"Ratandeep Housing Society, Solapur - MPCB",17-04-2024 03:00:00,17.65439,75.90649,NH3,9,33,16
India,Maharashtra,Thane,"Pimpleshwar Mandir, Thane - MPCB",17-04-2024 03:00:00,19.192056,72.9585188,PM10,62,323,121
India,Maharashtra,Thane,"Upvan Fort, Thane - MPCB",17-04-2024 03:00:00,19.222279,72.957979,NO2,11,95,40
India,Maharashtra,Virar,"Bolinj, Virar - MPCB",17-04-2024 03:00:00,19.4458210,72.7988231,PM10,77,117,98
India,Maharashtra,Virar,"Bolinj, Virar - MPCB",17-04-2024 03:00:00,19.4458210,72.7988231,NH3,7,13,8
India,Meghalaya,Shillong,"Lumpyngngad, Shillong - Meghalaya PCB",17-04-2024 03:00:00,25.5586,91.8985,PM2.5,NA,NA,NA
India,Meghalaya,Shillong,"Lumpyngngad, Shillong - Meghalaya PCB",17-04-2024 03:00:00,25.5586,91.8985,PM10,NA,NA,NA
India,Mizoram,Aizawl,"Sikulpuikawn, Aizawl - Mizoram PCB",17-04-2024 03:00:00,23.7176342,92.7192841,NH3,1,3,2
India,Mizoram,Aizawl,"Sikulpuikawn, Aizawl - Mizoram PCB",17-04-2024 03:00:00,23.7176342,92.7192841,CO,20,30,25
India,Nagaland,Kohima,"PWD Juction, Kohima - NPCB",17-04-2024 03:00:00,25.6635413,94.0989878,PM10,78,192,133
India,Nagaland,Kohima,"PWD Juction, Kohima - NPCB",17-04-2024 03:00:00,25.6635413,94.0989878,CO,14,42,35
India,Nagaland,Kohima,"PWD Juction, Kohima - NPCB",17-04-2024 03:00:00,25.6635413,94.0989878,OZONE,8,97,24
India,Odisha,Angul,"Hakimapada, Angul - OSPCB",17-04-2024 03:00:00,20.832874,85.104082,NO2,1,28,2
India,Odisha,Barbil,"Forest Office, Barbil - OSPCB",17-04-2024 03:00:00,22.1166054,85.3945546,SO2,11,30,18
India,Odisha,Baripada,"Meher Colony, Baripada - OSPCB",17-04-2024 03:00:00,21.941841,86.728318,CO,27,52,35
India,Odisha,Bhubaneswar,"Lingraj Mandir, Bhubaneswar - OSPCB",17-04-2024 03:00:00,20.240790,85.836784,PM2.5,93,250,121
India,Odisha,Bhubaneswar,"Lingraj Mandir, Bhubaneswar - OSPCB",17-04-2024 03:00:00,20.240790,85.836784,NH3,2,5,3
India,Odisha,Bhubaneswar,"Patia, Bhubaneswar - OSPCB",17-04-2024 03:00:00,20.34652,85.81630,OZONE,25,220,50
India,Odisha,Brajrajnagar,"GM Office, Brajrajnagar - OSPCB",17-04-2024 03:00:00,21.8004996,83.8396977,NO2,15,22,17
India,Odisha,Cuttack,"CDA Area, Cuttack - OSPCB",17-04-2024 03:00:00,20.48891     ,85.84768     ,PM10,70,270,118
India,Odisha,Keonjhar,"Jagamohanpur, Keonjhar - OSPCB",17-04-2024 03:00:00,21.643900,85.599355,PM2.5,79,153,108
India,Odisha,Keonjhar,"Jagamohanpur, Keonjhar - OSPCB",17-04-2024 03:00:00,21.643900,85.599355,CO,27,72,51
India,Odisha,Rourkela,"Fertilizer Township, Rourkela - OSPCB",17-04-2024 03:00:00,22.18972222,84.86277778,SO2,11,14,12
India,Odisha,Rourkela,"Raghunathpali, Rourkela - OSPCB",17-04-2024 03:00:00,22.220833,84.809444,NO2,19,132,62
India,Odisha,Rourkela,"Sector-2, Rourkela - OSPCB",17-04-2024 03:00:00,22.24500000,84.88111111,NO2,33,34,34
India,Odisha,Rourkela,"Sector-2, Rourkela - OSPCB",17-04-2024 03:00:00,22.24500000,84.88111111,CO,12,64,33
India,Odisha,Suakati,"OMC Colony, Suakati - OSPCB",17-04-2024 03:00:00,21.606865,85.510538,PM10,93,132,105
India,Odisha,Talcher,"Talcher Coalfields,Talcher - OSPCB",17-04-2024 03:00:00,20.9360711,85.1707021,SO2,81,103,93
India,Odisha,Talcher,"Talcher Coalfields,Talcher - OSPCB",17-04-2024 03:00:00,20.9360711,85.1707021,CO,18,113,69
India,Odisha,Tensa,"Barsua Iron Ore Mines, Tensa - OSPCB",17-04-2024 03:00:00,21.869985,85.167016,OZONE,47,133,98
India,Puducherry,Puducherry,"Jawahar Nagar, Puducherry - PPCC",17-04-2024 03:00:00,11.9309,79.8027,PM10,13,78,36
India,Puducherry,Puducherry,"Jawahar Nagar, Puducherry - PPCC",17-04-2024 03:00:00,11.9309,79.8027,CO,21,40,27
India,Punjab,Amritsar,"Golden Temple, Amritsar - PPCB",17-04-2024 03:00:00,31.620000,74.876512,PM2.5,64,112,79
India,Punjab,Amritsar,"Golden Temple, Amritsar - PPCB",17-04-2024 03:00:00,31.620000,74.876512,CO,4,107,24
India,Punjab,Jalandhar,"Civil Line, Jalandhar - PPCB",17-04-2024 03:00:00,31.321907,75.578914,NO2,32,37,34
India,Punjab,Khanna,"Kalal Majra, Khanna - PPCB",17-04-2024 03:00:00,30.736056 ,76.209694,PM2.5,56,127,82
India,Punjab,Khanna,"Kalal Majra, Khanna - PPCB",17-04-2024 03:00:00,30.736056 ,76.209694,NO2,30,30,30
India,Punjab,Ludhiana,"Punjab Agricultural University, Ludhiana - PPCB",17-04-2024 03:00:00,30.9028,75.8086,PM2.5,37,75,51
India,Punjab,Mandi Gobindgarh,"RIMT University, Mandi Gobindgarh - PPCB",17-04-2024 03:00:00,30.649961,76.331442,PM2.5,77,372,248
India,Punjab,Mandi Gobindgarh,"RIMT University, Mandi Gobindgarh - PPCB",17-04-2024 03:00:00,30.649961,76.331442,NH3,6,6,6
India,Punjab,Mandi Gobindgarh,"RIMT University, Mandi Gobindgarh - PPCB",17-04-2024 03:00:00,30.649961,76.331442,SO2,3,57,35
India,Punjab,Patiala,"Model Town, Patiala - PPCB",17-04-2024 03:00:00,30.349388,76.366642,SO2,3,19,6
India,Punjab,Patiala,"Model Town, Patiala - PPCB",17-04-2024 03:00:00,30.349388,76.366642,OZONE,13,67,30
India,Punjab,Rupnagar,"Ratanpura, Rupnagar - Ambuja Cements",17-04-2024 03:00:00,31.0325454,76.5623046,PM10,16,129,64
India,Rajasthan,Ajmer,"Civil Lines,  Ajmer - RSPCB",17-04-2024 03:00:00,26.470859,74.646594,CO,10,39,23
India,Rajasthan,Alwar,"Moti Doongri, Alwar - RSPCB",17-04-2024 03:00:00,27.554793,76.611536,NO2,30,53,43
India,Rajasthan,Banswara,"Rati Talai, Banswara - RSPCB",17-04-2024 03:00:00,23.555190,74.440010,OZONE,2,108,16
India,Rajasthan,Baran,"Bamboliya, Baran - RSPCB",17-04-2024 03:00:00,25.106006,76.469948,OZONE,8,74,62
India,Rajasthan,Bharatpur,"Krishna Nagar, Bharatpur - RSPCB",17-04-2024 03:00:00,27.215415,77.50873,PM10,119,220,153
India,Rajasthan,Bhilwara,"Pratap Nagar, Bhilwara - RSPCB",17-04-2024 03:00:00,25.339605,74.618883,PM2.5,7,56,26
India,Rajasthan,Bhiwadi,"RIICO Ind. Area III, Bhiwadi - RSPCB",17-04-2024 03:00:00,28.194909,76.862296,PM2.5,49,210,127
India,Rajasthan,Bhiwadi,"RIICO Ind. Area III, Bhiwadi - RSPCB",17-04-2024 03:00:00,28.194909,76.862296,NH3,7,17,11
India,Rajasthan,Bhiwadi,"Vasundhara Nagar_UIT, Bhiwadi - RSPCB",17-04-2024 03:00:00,28.207266,76.829265,PM2.5,19,343,95
India,Rajasthan,Bikaner,"MM Ground, Bikaner - RSPCB",17-04-2024 03:00:00,28.018792,73.292658,SO2,2,7,5
India,Rajasthan,Bikaner,"MM Ground, Bikaner - RSPCB",17-04-2024 03:00:00,28.018792,73.292658,CO,12,55,27
India,Rajasthan,Bundi,"New Colony, Bundi - RSPCB",17-04-2024 03:00:00,25.435774,75.644272,NH3,3,4,3
India,Rajasthan,Dausa,"Khatikan Mohalla, Dausa - RSPCB",17-04-2024 03:00:00,26.895552,76.334753,PM10,12,104,49
India,Rajasthan,Dausa,"Khatikan Mohalla, Dausa - RSPCB",17-04-2024 03:00:00,26.895552,76.334753,NO2,24,89,47
India,Rajasthan,Dholpur,"Raja Ganj, Dholpur - RSPCB",17-04-2024 03:00:00,26.699557,77.898881,CO,6,40,21
India,Rajasthan,Dungarpur,"Bhoiwada, Dungarpur - RSPCB",17-04-2024 03:00:00,23.837789,73.714926,PM2.5,5,48,20
India,Rajasthan,Dungarpur,"Bhoiwada, Dungarpur - RSPCB",17-04-2024 03:00:00,23.837789,73.714926,SO2,2,3,2
India,Rajasthan,Hanumangarh,"Housing Board, Hanumangarh - RSPCB",17-04-2024 03:00:00,29.610750,74.283608,PM10,43,272,134
India,Rajasthan,Hanumangarh,"Housing Board, Hanumangarh - RSPCB",17-04-2024 03:00:00,29.610750,74.283608,OZONE,16,63,23
India,Rajasthan,Jaipur,"Mansarovar Sector-12, Jaipur - RSPCB",17-04-2024 03:00:00,26.843698,75.766894,NH3,2,6,4
India,Rajasthan,Jaipur,"Police Commissionerate, Jaipur - RSPCB",17-04-2024 03:00:00,26.9164092,75.7994901,PM2.5,NA,NA,NA
India,Rajasthan,Jaipur,"Police Commissionerate, Jaipur - RSPCB",17-04-2024 03:00:00,26.9164092,75.7994901,NO2,20,81,40
India,Rajasthan,Jaipur,"RIICO Sitapura, Jaipur - RSPCB",17-04-2024 03:00:00,26.786682,75.827928,NH3,14,22,17
India,Rajasthan,Jaipur,"Shastri Nagar, Jaipur - RSPCB",17-04-2024 03:00:00,26.9502929,75.730943,NH3,1,16,7
India,Rajasthan,Jaipur,"Shastri Nagar, Jaipur - RSPCB",17-04-2024 03:00:00,26.9502929,75.730943,SO2,1,39,18
India,Rajasthan,Jaipur,"Shastri Nagar, Jaipur - RSPCB",17-04-2024 03:00:00,26.9502929,75.730943,CO,16,40,30
India,Rajasthan,Jaisalmer,"Sadar Bazar, Jaisalmer - RSPCB",17-04-2024 03:00:00,26.912329,70.909168,PM2.5,2,63,27
India,Rajasthan,Jaisalmer,"Sadar Bazar, Jaisalmer - RSPCB",17-04-2024 03:00:00,26.912329,70.909168,OZONE,35,115,90
India,Rajasthan,Jalore,"Mudtra Sili, Jalore - RSPCB",17-04-2024 03:00:00,25.344694,72.626208,PM10,60,345,123
India,Rajasthan,Jalore,"Mudtra Sili, Jalore - RSPCB",17-04-2024 03:00:00,25.344694,72.626208,OZONE,7,83,33
India,Rajasthan,Jhalawar,"Rajlaxmi Nagar, Jhalawar - RSPCB",17-04-2024 03:00:00,24.588397,76.172782,CO,11,51,32
India,Rajasthan,Jodhpur,"Collectorate, Jodhpur - RSPCB",17-04-2024 03:00:00,26.268249,73.0193853,PM2.5,3,480,153
India,Rajasthan,Jodhpur,"Collectorate, Jodhpur - RSPCB",17-04-2024 03:00:00,26.268249,73.0193853,CO,45,100,62
India,Rajasthan,Jodhpur,"Digari Kalan, Jodhpur - RSPCB",17-04-2024 03:00:00,26.295810,73.082283,PM2.5,3,108,31
India,Rajasthan,Jodhpur,"Digari Kalan, Jodhpur - RSPCB",17-04-2024 03:00:00,26.295810,73.082283,SO2,3,5,4
India,Rajasthan,Jodhpur,"Jhalamand, Jodhpur - RSPCB",17-04-2024 03:00:00,26.215415,73.070156,PM2.5,5,92,32
India,Rajasthan,Jodhpur,"Jhalamand, Jodhpur - RSPCB",17-04-2024 03:00:00,26.215415,73.070156,PM10,24,174,75
India,Rajasthan,Jodhpur,"Mandor, Jodhpur - RSPCB",17-04-2024 03:00:00,26.358805,73.047444,OZONE,10,96,74
India,Rajasthan,Karauli,"Satyawati Vihar, Karauli - RSPCB",17-04-2024 03:00:00,26.506177,77.025989,NH3,9,13,11
India,Rajasthan,Karauli,"Satyawati Vihar, Karauli - RSPCB",17-04-2024 03:00:00,26.506177,77.025989,SO2,16,25,21
India,Rajasthan,Kota,"Dhanmandi, Kota - RSPCB",17-04-2024 03:00:00,25.164090,75.858137,NO2,12,117,46
India,Rajasthan,Kota,"Dhanmandi, Kota - RSPCB",17-04-2024 03:00:00,25.164090,75.858137,OZONE,6,66,17
India,Rajasthan,Kota,"Shrinath Puram, Kota - RSPCB",17-04-2024 03:00:00,25.14389,75.821256,PM2.5,36,175,74
India,Rajasthan,Kota,"Shrinath Puram, Kota - RSPCB",17-04-2024 03:00:00,25.14389,75.821256,NO2,21,87,37
India,Rajasthan,Kota,"Shrinath Puram, Kota - RSPCB",17-04-2024 03:00:00,25.14389,75.821256,CO,12,50,28
India,Rajasthan,Nagaur,"Karni Colony, Nagaur - RSPCB",17-04-2024 03:00:00,27.213494,73.734444,NH3,6,14,9
India,Rajasthan,Nagaur,"Karni Colony, Nagaur - RSPCB",17-04-2024 03:00:00,27.213494,73.734444,SO2,3,5,4
India,Rajasthan,Pali,"Indira Colony Vistar, Pali - RSPCB",17-04-2024 03:00:00,25.771061, 73.340227,PM2.5,22,117,64
India,Rajasthan,Pali,"Indira Colony Vistar, Pali - RSPCB",17-04-2024 03:00:00,25.771061, 73.340227,PM10,47,166,90
India,Rajasthan,Pali,"Indira Colony Vistar, Pali - RSPCB",17-04-2024 03:00:00,25.771061, 73.340227,CO,20,78,56
India,Rajasthan,Pali,"Indira Colony Vistar, Pali - RSPCB",17-04-2024 03:00:00,25.771061, 73.340227,OZONE,13,82,39
India,Rajasthan,Pratapgarh,"Pragati Nagar, Pratapgarh - RSPCB",17-04-2024 03:00:00,24.041198,74.780702,CO,10,24,13
India,Rajasthan,Rajsamand,"Dhoinda, Rajsamand - RSPCB",17-04-2024 03:00:00,25.036360,73.883502,PM10,20,81,41
India,Rajasthan,Sikar,"Radhakishan Pura, Sikar - RSPCB",17-04-2024 03:00:00,27.608912,75.153302,OZONE,36,125,87
India,Rajasthan,Sirohi,"Vedhaynath Colony, Sirohi - RSPCB",17-04-2024 03:00:00,24.885261,72.857549,PM10,24,124,55
India,Rajasthan,Sirohi,"Vedhaynath Colony, Sirohi - RSPCB",17-04-2024 03:00:00,24.885261,72.857549,OZONE,4,82,24
India,Rajasthan,Sri Ganganagar,"Old City, Sri Ganganagar - RSPCB",17-04-2024 03:00:00,29.931624,73.864511,PM2.5,52,273,130
India,Rajasthan,Tonk,"Shastri Nagar, Tonk - RSPCB",17-04-2024 03:00:00,26.159933,75.780517,PM2.5,8,80,34
India,Rajasthan,Tonk,"Shastri Nagar, Tonk - RSPCB",17-04-2024 03:00:00,26.159933,75.780517,PM10,26,146,80
India,Sikkim,Gangtok,"Zero Point GICI, Gangtok - SSPCB",17-04-2024 03:00:00,27.338530,88.614099,PM10,13,73,40
India,Sikkim,Gangtok,"Zero Point GICI, Gangtok - SSPCB",17-04-2024 03:00:00,27.338530,88.614099,SO2,11,11,11
India,TamilNadu,Ariyalur,"Keelapalur, Ariyalur - TNPCB",17-04-2024 03:00:00,11.06825,79.07033,SO2,25,29,28
India,TamilNadu,Chengalpattu,"Crescent University, Chengalpattu - TNPCB",17-04-2024 03:00:00,12.8777316,80.0834807,NO2,NA,NA,NA
India,TamilNadu,Chengalpattu,"Crescent University, Chengalpattu - TNPCB",17-04-2024 03:00:00,12.8777316,80.0834807,SO2,NA,NA,NA
India,TamilNadu,Chennai,"Alandur Bus Depot, Chennai - CPCB",17-04-2024 03:00:00,12.9099161,80.1076538,NH3,NA,NA,NA
India,TamilNadu,Chennai,"Arumbakkam, Chennai - TNPCB",17-04-2024 03:00:00,13.0664,80.2112 ,PM2.5,13,52,33
India,TamilNadu,Chennai,"Arumbakkam, Chennai - TNPCB",17-04-2024 03:00:00,13.0664,80.2112 ,SO2,1,6,3
India,TamilNadu,Chennai,"Kodungaiyur, Chennai - TNPCB",17-04-2024 03:00:00,13.1278,80.2642,CO,16,41,35
India,TamilNadu,Chennai,"Manali, Chennai - CPCB",17-04-2024 03:00:00,13.164544,80.26285,PM2.5,47,98,75
India,TamilNadu,Chennai,"Manali, Chennai - CPCB",17-04-2024 03:00:00,13.164544,80.26285,NH3,4,5,4
India,TamilNadu,Chennai,"Manali, Chennai - CPCB",17-04-2024 03:00:00,13.164544,80.26285,OZONE,12,44,19
India,TamilNadu,Chennai,"Perungudi, Chennai - TNPCB",17-04-2024 03:00:00,12.9533,80.2357,NO2,3,11,7
India,TamilNadu,Chennai,"Perungudi, Chennai - TNPCB",17-04-2024 03:00:00,12.9533,80.2357,NH3,2,3,2
India,TamilNadu,Chennai,"Perungudi, Chennai - TNPCB",17-04-2024 03:00:00,12.9533,80.2357,SO2,1,7,3
India,TamilNadu,Chennai,"Velachery Res. Area, Chennai - CPCB",17-04-2024 03:00:00,13.0052189,80.2398125,SO2,10,11,11
India,TamilNadu,Chennai,"Velachery Res. Area, Chennai - CPCB",17-04-2024 03:00:00,13.0052189,80.2398125,CO,1,121,90
India,TamilNadu,Coimbatore,"PSG College of Arts and Science, Coimbatore - TNPCB",17-04-2024 03:00:00,11.0328,77.0349,OZONE,3,5,4
India,TamilNadu,Cuddalore,"Kudikadu, Cuddalore - TNPCB",17-04-2024 03:00:00,11.6829898,79.7532099,PM2.5,57,301,116
India,TamilNadu,Cuddalore,"Kudikadu, Cuddalore - TNPCB",17-04-2024 03:00:00,11.6829898,79.7532099,SO2,7,9,8
India,TamilNadu,Gummidipoondi,"Anthoni Pillai Nagar, Gummidipoondi - TNPCB",17-04-2024 03:00:00,13.4127,80.1081,NO2,11,15,13
India,TamilNadu,Gummidipoondi,"Anthoni Pillai Nagar, Gummidipoondi - TNPCB",17-04-2024 03:00:00,13.4127,80.1081,SO2,3,77,26
India,TamilNadu,Kanchipuram,"Kilambi, Kanchipuram - TNPCB",17-04-2024 03:00:00,12.864618,79.659968,PM2.5,9,80,46
India,TamilNadu,Kanchipuram,"Kilambi, Kanchipuram - TNPCB",17-04-2024 03:00:00,12.864618,79.659968,NH3,3,4,4
India,TamilNadu,Ooty,"Bombay Castel, Ooty - TNPCB",17-04-2024 03:00:00,11.4068288,76.7138973,NO2,8,62,22
India,TamilNadu,Palkalaiperur,"Bharathidasan University, Palkalaiperur - TNPCB",17-04-2024 03:00:00,10.681158,78.741746,SO2,NA,NA,NA
India,TamilNadu,Palkalaiperur,"Bharathidasan University, Palkalaiperur - TNPCB",17-04-2024 03:00:00,10.681158,78.741746,OZONE,NA,NA,NA
India,TamilNadu,Ramanathapuram,"Chalai Bazaar, Ramanathapuram - TNPCB",17-04-2024 03:00:00,9.36399,78.831977,PM2.5,17,43,29
India,TamilNadu,Salem,"Sona College of Technology, Salem - TNPCB",17-04-2024 03:00:00,11.679111,78.125052,NO2,7,11,8
India,TamilNadu,Thoothukudi,"Meelavittan, Thoothukudi - TNPCB",17-04-2024 03:00:00,8.816428 ,78.099039,CO,2,53,30
India,TamilNadu,Tirupur,"Kumaran College, Tirupur - TNPCB",17-04-2024 03:00:00,11.0973603,77.3228673,PM2.5,9,84,23
India,TamilNadu,Tirupur,"Kumaran College, Tirupur - TNPCB",17-04-2024 03:00:00,11.0973603,77.3228673,NO2,6,83,20
India,TamilNadu,Tirupur,"Kumaran College, Tirupur - TNPCB",17-04-2024 03:00:00,11.0973603,77.3228673,OZONE,6,7,7
India,Telangana,Hyderabad,"Bollaram Industrial Area, Hyderabad - TSPCB",17-04-2024 03:00:00,17.540891,78.358528,OZONE,34,36,35
India,Telangana,Hyderabad,"Central University, Hyderabad - TSPCB",17-04-2024 03:00:00,17.460103,78.334361,PM2.5,28,59,41
India,Telangana,Hyderabad,"Central University, Hyderabad - TSPCB",17-04-2024 03:00:00,17.460103,78.334361,NO2,21,42,31
India,Telangana,Hyderabad,"ECIL Kapra, Hyderabad - TSPCB",17-04-2024 03:00:00,17.470431,78.566959,CO,23,56,31
India,Telangana,Hyderabad,"ICRISAT Patancheru, Hyderabad - TSPCB",17-04-2024 03:00:00,17.518400,78.278777,NO2,16,17,16
India,Telangana,Hyderabad,"ICRISAT Patancheru, Hyderabad - TSPCB",17-04-2024 03:00:00,17.518400,78.278777,SO2,16,54,25
India,Telangana,Hyderabad,"IITH Kandi, Hyderabad - TSPCB",17-04-2024 03:00:00,17.585705,78.126199,OZONE,43,43,43
India,Telangana,Hyderabad,"Kokapet, Hyderabad - TSPCB",17-04-2024 03:00:00,17.393559,78.339194,SO2,NA,NA,NA
India,Telangana,Hyderabad,"Kompally Municipal Office, Hyderabad - TSPCB",17-04-2024 03:00:00,17.544899,78.486949,SO2,NA,NA,NA
India,Telangana,Hyderabad,"Kompally Municipal Office, Hyderabad - TSPCB",17-04-2024 03:00:00,17.544899,78.486949,OZONE,NA,NA,NA
India,Telangana,Hyderabad,"Nacharam_TSIIC IALA, Hyderabad - TSPCB",17-04-2024 03:00:00,17.429398,78.569354,PM10,NA,NA,NA
India,Telangana,Hyderabad,"Nacharam_TSIIC IALA, Hyderabad - TSPCB",17-04-2024 03:00:00,17.429398,78.569354,CO,38,44,40
India,Telangana,Hyderabad,"New Malakpet, Hyderabad - TSPCB",17-04-2024 03:00:00,17.37206,78.50864,NO2,16,34,23
India,Telangana,Hyderabad,"Ramachandrapuram, Hyderabad - TSPCB",17-04-2024 03:00:00,17.528544,78.286195,PM10,NA,NA,NA
India,Telangana,Hyderabad,"Ramachandrapuram, Hyderabad - TSPCB",17-04-2024 03:00:00,17.528544,78.286195,NO2,NA,NA,NA
India,Telangana,Hyderabad,"Ramachandrapuram, Hyderabad - TSPCB",17-04-2024 03:00:00,17.528544,78.286195,SO2,NA,NA,NA
India,Telangana,Hyderabad,"Somajiguda, Hyderabad - TSPCB",17-04-2024 03:00:00,17.417094,78.457437,PM2.5,29,67,48
India,Tripura,Agartala,"Bardowali, Agartala - Tripura SPCB",17-04-2024 03:00:00,23.8175497,91.2726974,PM2.5,61,268,144
India,Uttar_Pradesh,Agra,"Manoharpur, Agra - UPPCB",17-04-2024 03:00:00,27.23711,78.01936,PM10,16,62,35
India,Uttar_Pradesh,Agra,"Manoharpur, Agra - UPPCB",17-04-2024 03:00:00,27.23711,78.01936,NO2,31,31,31
India,Uttar_Pradesh,Agra,"Manoharpur, Agra - UPPCB",17-04-2024 03:00:00,27.23711,78.01936,OZONE,1,38,24
India,Uttar_Pradesh,Agra,"Rohta, Agra - UPPCB",17-04-2024 03:00:00,27.106972,78.000111,PM2.5,14,105,40
India,Uttar_Pradesh,Agra,"Rohta, Agra - UPPCB",17-04-2024 03:00:00,27.106972,78.000111,PM10,11,85,33
India,Uttar_Pradesh,Agra,"Sanjay Palace, Agra - UPPCB",17-04-2024 03:00:00,27.19865833,78.00598056,PM10,NA,NA,NA
India,Uttar_Pradesh,Agra,"Sector-3B Avas Vikas Colony, Agra - UPPCB",17-04-2024 03:00:00,27.19412,77.96237,CO,6,16,10
India,Uttar_Pradesh,Agra,"Shastripuram, Agra - UPPCB",17-04-2024 03:00:00,27.19862,77.92066,SO2,14,16,15
India,Uttar_Pradesh,Bareilly,"Civil Lines, Bareilly - UPPCB",17-04-2024 03:00:00,28.359581,79.414455,PM2.5,4,10,8
India,Uttar_Pradesh,Firozabad,"Nagla Bhau, Firozabad - UPPCB",17-04-2024 03:00:00,27.168897,78.376960,SO2,23,28,25
India,Uttar_Pradesh,Firozabad,"Nagla Bhau, Firozabad - UPPCB",17-04-2024 03:00:00,27.168897,78.376960,OZONE,16,21,17
India,Uttar_Pradesh,Firozabad,"Vibhab Nagar, Firozabad - UPPCB",17-04-2024 03:00:00,27.1594,78.3953,PM2.5,44,134,73
India,Uttar_Pradesh,Firozabad,"Vibhab Nagar, Firozabad - UPPCB",17-04-2024 03:00:00,27.1594,78.3953,NH3,2,2,2
India,Uttar_Pradesh,Firozabad,"Vibhab Nagar, Firozabad - UPPCB",17-04-2024 03:00:00,27.1594,78.3953,OZONE,19,51,36
India,Uttar_Pradesh,Ghaziabad,"Indirapuram, Ghaziabad - UPPCB",17-04-2024 03:00:00,28.646233,77.358075,SO2,12,27,16
India,Uttar_Pradesh,Ghaziabad,"Indirapuram, Ghaziabad - UPPCB",17-04-2024 03:00:00,28.646233,77.358075,CO,12,85,32
India,Uttar_Pradesh,Ghaziabad,"Loni, Ghaziabad - UPPCB",17-04-2024 03:00:00,28.757294,77.278792,PM2.5,24,385,126
India,Uttar_Pradesh,Ghaziabad,"Sanjay Nagar, Ghaziabad - UPPCB",17-04-2024 03:00:00,28.685382,77.453839,PM2.5,12,395,136
India,Uttar_Pradesh,Ghaziabad,"Vasundhara, Ghaziabad - UPPCB",17-04-2024 03:00:00,28.6603346,77.3572563,CO,4,108,33
India,Uttar_Pradesh,Greater Noida,"Knowledge Park - III, Greater Noida - UPPCB",17-04-2024 03:00:00,28.47272,77.482000,NO2,15,224,78
India,Uttar_Pradesh,Greater Noida,"Knowledge Park - III, Greater Noida - UPPCB",17-04-2024 03:00:00,28.47272,77.482000,SO2,3,52,24
India,Uttar_Pradesh,Hapur,"Anand Vihar, Hapur - UPPCB",17-04-2024 03:00:00,28.725645,77.749675,OZONE,11,67,44
India,Uttar_Pradesh,Kanpur,"NSI Kalyanpur, Kanpur - UPPCB",17-04-2024 03:00:00,26.509954,80.249612,PM2.5,9,151,74
India,Uttar_Pradesh,Kanpur,"NSI Kalyanpur, Kanpur - UPPCB",17-04-2024 03:00:00,26.509954,80.249612,SO2,19,25,22
India,Uttar_Pradesh,Kanpur,"Nehru Nagar, Kanpur - UPPCB",17-04-2024 03:00:00,26.4703136,80.3229863,CO,32,56,42
India,Uttar_Pradesh,Kanpur,"Nehru Nagar, Kanpur - UPPCB",17-04-2024 03:00:00,26.4703136,80.3229863,OZONE,26,163,31
India,Uttar_Pradesh,Lucknow,"B R Ambedkar University, Lucknow - UPPCB",17-04-2024 03:00:00,26.766433,80.927299,SO2,32,37,34
India,Uttar_Pradesh,Lucknow,"B R Ambedkar University, Lucknow - UPPCB",17-04-2024 03:00:00,26.766433,80.927299,OZONE,21,87,59
India,Uttar_Pradesh,Lucknow,"Kendriya Vidyalaya, Lucknow - CPCB",17-04-2024 03:00:00,26.906111,80.948222,PM10,103,165,131
India,Uttar_Pradesh,Lucknow,"Kendriya Vidyalaya, Lucknow - CPCB",17-04-2024 03:00:00,26.906111,80.948222,CO,12,52,33
India,Uttar_Pradesh,Lucknow,"Kukrail Picnic Spot-1, Lucknow - UPPCB",17-04-2024 03:00:00,26.90723,80.98579,CO,13,26,16
India,Uttar_Pradesh,Lucknow,"Lalbagh, Lucknow - CPCB",17-04-2024 03:00:00,26.8458805,80.9365541,PM2.5,67,182,94
India,Uttar_Pradesh,Meerut,"Ganga Nagar, Meerut - UPPCB",17-04-2024 03:00:00,28.999264,77.7590354,PM2.5,13,253,64
India,Uttar_Pradesh,Meerut,"Ganga Nagar, Meerut - UPPCB",17-04-2024 03:00:00,28.999264,77.7590354,OZONE,5,107,76
India,Uttar_Pradesh,Meerut,"Jai Bhim Nagar, Meerut - UPPCB",17-04-2024 03:00:00,28.9535882,77.7622941,SO2,8,63,24
India,Uttar_Pradesh,Meerut,"Pallavpuram Phase 2, Meerut - UPPCB",17-04-2024 03:00:00,29.063510,77.709723,SO2,10,48,20
India,Uttar_Pradesh,Moradabad,"Buddhi Vihar, Moradabad - UPPCB",17-04-2024 03:00:00,28.83526,78.74460,PM10,47,126,91
India,Uttar_Pradesh,Moradabad,"Employment Office, Moradabad - UPPCB",17-04-2024 03:00:00,28.88528,78.73880,NO2,17,20,19
India,Uttar_Pradesh,Moradabad,"Employment Office, Moradabad - UPPCB",17-04-2024 03:00:00,28.88528,78.73880,SO2,28,32,30
India,Uttar_Pradesh,Moradabad,"Jigar Colony, Moradabad - UPPCB",17-04-2024 03:00:00,28.856664,78.772638,PM10,54,124,89
India,Uttar_Pradesh,Moradabad,"Jigar Colony, Moradabad - UPPCB",17-04-2024 03:00:00,28.856664,78.772638,NH3,4,6,4
India,Uttar_Pradesh,Moradabad,"Transport Nagar, Moradabad - UPPCB",17-04-2024 03:00:00,28.802625,78.753728,NO2,1,23,7
India,Uttar_Pradesh,Moradabad,"Transport Nagar, Moradabad - UPPCB",17-04-2024 03:00:00,28.802625,78.753728,NH3,5,5,5
India,Uttar_Pradesh,Muzaffarnagar,"New Mandi, Muzaffarnagar - UPPCB",17-04-2024 03:00:00,29.4723508,77.7194031,PM2.5,43,347,144
India,Uttar_Pradesh,Muzaffarnagar,"New Mandi, Muzaffarnagar - UPPCB",17-04-2024 03:00:00,29.4723508,77.7194031,CO,18,54,32
India,Uttar_Pradesh,Noida,"Sector - 125, Noida - UPPCB",17-04-2024 03:00:00,28.5447608,77.3231257,PM2.5,NA,NA,NA
India,Uttar_Pradesh,Noida,"Sector - 125, Noida - UPPCB",17-04-2024 03:00:00,28.5447608,77.3231257,PM10,NA,NA,NA
India,Uttar_Pradesh,Noida,"Sector - 125, Noida - UPPCB",17-04-2024 03:00:00,28.5447608,77.3231257,NO2,NA,NA,NA
India,Uttar_Pradesh,Noida,"Sector-116, Noida - UPPCB",17-04-2024 03:00:00,28.569230,77.393848,PM2.5,30,341,129
India,Uttar_Pradesh,Noida,"Sector-116, Noida - UPPCB",17-04-2024 03:00:00,28.569230,77.393848,OZONE,2,142,73
India,Uttar_Pradesh,Prayagraj,"Jhunsi, Prayagraj - UPPCB",17-04-2024 03:00:00,25.425602,81.917152,NH3,5,5,5
India,Uttar_Pradesh,Prayagraj,"Motilal Nehru NIT, Prayagraj - UPPCB",17-04-2024 03:00:00,25.494,81.863,NO2,NA,NA,NA
India,Uttar_Pradesh,Prayagraj,"Motilal Nehru NIT, Prayagraj - UPPCB",17-04-2024 03:00:00,25.494,81.863,OZONE,7,69,12
India,Uttar_Pradesh,Varanasi,"Bhelupur, Varanasi - UPPCB",17-04-2024 03:00:00,25.301778,82.996789,SO2,27,29,28
India,Uttar_Pradesh,Varanasi,"Bhelupur, Varanasi - UPPCB",17-04-2024 03:00:00,25.301778,82.996789,OZONE,2,42,11
India,Uttar_Pradesh,Varanasi,"IESD Banaras Hindu University, Varanasi - UPPCB",17-04-2024 03:00:00,25.262326,82.995408,OZONE,NA,NA,NA
India,Uttar_Pradesh,Varanasi,"Maldahiya, Varanasi - UPPCB",17-04-2024 03:00:00,25.32393,82.99687,CO,2,34,21
India,Uttar_Pradesh,Vrindavan,"Omex Eternity, Vrindavan - UPPCB",17-04-2024 03:00:00,27.5714090,77.6557570,NO2,2,3,3
India,Uttar_Pradesh,Vrindavan,"Omex Eternity, Vrindavan - UPPCB",17-04-2024 03:00:00,27.5714090,77.6557570,CO,22,64,35
India,Uttarakhand,Dehradun,"Doon University, Dehradun - UKPCB",17-04-2024 03:00:00,30.269444,78.044167,PM10,34,124,79
India,Uttarakhand,Dehradun,"Doon University, Dehradun - UKPCB",17-04-2024 03:00:00,30.269444,78.044167,NO2,1,4,2
India,Uttarakhand,Dehradun,"Doon University, Dehradun - UKPCB",17-04-2024 03:00:00,30.269444,78.044167,SO2,2,5,2
India,Uttarakhand,Dehradun,"Doon University, Dehradun - UKPCB",17-04-2024 03:00:00,30.269444,78.044167,CO,10,60,15
India,Uttarakhand,Rishikesh,"Shivaji Nagar, Rishikesh - UKPCB",17-04-2024 03:00:00,30.075911,78.2859547,PM10,50,106,70
India,Uttarakhand,Rishikesh,"Shivaji Nagar, Rishikesh - UKPCB",17-04-2024 03:00:00,30.075911,78.2859547,SO2,3,5,4
India,West_Bengal,Asansol,"Asansol Court Area, Asansol - WBPCB",17-04-2024 03:00:00,23.685297,86.945968,PM2.5,120,308,209
India,West_Bengal,Asansol,"Asansol Court Area, Asansol - WBPCB",17-04-2024 03:00:00,23.685297,86.945968,PM10,110,197,150
India,West_Bengal,Asansol,"Asansol Court Area, Asansol - WBPCB",17-04-2024 03:00:00,23.685297,86.945968,NO2,22,113,48
India,West_Bengal,Barrackpore,"SVSPA Campus, Barrackpore - WBPCB",17-04-2024 03:00:00,22.7605581,88.3617589,PM2.5,71,238,127
India,West_Bengal,Barrackpore,"SVSPA Campus, Barrackpore - WBPCB",17-04-2024 03:00:00,22.7605581,88.3617589,NO2,7,35,20
India,West_Bengal,Barrackpore,"SVSPA Campus, Barrackpore - WBPCB",17-04-2024 03:00:00,22.7605581,88.3617589,SO2,8,16,12
India,West_Bengal,Durgapur,"Sidhu Kanhu Indoor Stadium, Durgapur - WBPCB",17-04-2024 03:00:00,23.5404352,87.2892225,CO,30,101,76
India,West_Bengal,Durgapur,"Sidhu Kanhu Indoor Stadium, Durgapur - WBPCB",17-04-2024 03:00:00,23.5404352,87.2892225,OZONE,3,111,9
India,West_Bengal,Haldia,"Priyambada Housing Estate, Haldia - WBPCB",17-04-2024 03:00:00,22.06047,88.109737,CO,24,32,25
India,West_Bengal,Howrah,"Belur Math, Howrah - WBPCB",17-04-2024 03:00:00,22.629801,88.352017,NO2,12,39,21
India,West_Bengal,Howrah,"Ghusuri, Howrah - WBPCB",17-04-2024 03:00:00,22.611968,88.347422,NO2,10,22,17
India,West_Bengal,Howrah,"Padmapukur, Howrah - WBPCB",17-04-2024 03:00:00,22.5687319,88.2797276,NO2,7,9,8
India,West_Bengal,Kolkata,"Bidhannagar, Kolkata - WBPCB",17-04-2024 03:00:00,22.58157048,88.41002457,NO2,9,50,25
India,West_Bengal,Kolkata,"Bidhannagar, Kolkata - WBPCB",17-04-2024 03:00:00,22.58157048,88.41002457,NH3,7,10,8
India,West_Bengal,Kolkata,"Fort William, Kolkata - WBPCB",17-04-2024 03:00:00,22.556640,88.342674,NH3,4,4,4
India,West_Bengal,Kolkata,"Rabindra Bharati University, Kolkata - WBPCB",17-04-2024 03:00:00,22.627847,88.380669,SO2,5,8,7
India,West_Bengal,Kolkata,"Rabindra Bharati University, Kolkata - WBPCB",17-04-2024 03:00:00,22.627847,88.380669,CO,24,53,40
India,West_Bengal,Kolkata,"Rabindra Sarobar, Kolkata - WBPCB",17-04-2024 03:00:00,22.51106,88.35142,NH3,3,6,5
India,West_Bengal,Kolkata,"Rabindra Sarobar, Kolkata - WBPCB",17-04-2024 03:00:00,22.51106,88.35142,SO2,9,77,25
India,West_Bengal,Kolkata,"Rabindra Sarobar, Kolkata - WBPCB",17-04-2024 03:00:00,22.51106,88.35142,CO,14,40,30
India,West_Bengal,Kolkata,"Victoria, Kolkata - WBPCB",17-04-2024 03:00:00,22.5448082,88.3403691,NH3,1,2,2
India,West_Bengal,Kolkata,"Victoria, Kolkata - WBPCB",17-04-2024 03:00:00,22.5448082,88.3403691,SO2,9,32,15
India,West_Bengal,Siliguri,"Ward-32 Bapupara, Siliguri - WBPCB",17-04-2024 03:00:00,26.6879226,88.4152495,NH3,5,12,9
India,West_Bengal,Siliguri,"Ward-32 Bapupara, Siliguri - WBPCB",17-04-2024 03:00:00,26.6879226,88.4152495,SO2,6,8,7
India,Andhra_Pradesh,Amaravati,"Secretariat, Amaravati - APPCB",17-04-2024 03:00:00,16.5150833,80.5181667,PM10,33,74,54
India,Andhra_Pradesh,Amaravati,"Secretariat, Amaravati - APPCB",17-04-2024 03:00:00,16.5150833,80.5181667,CO,18,50,27
India,Andhra_Pradesh,Chittoor,"Gangineni Cheruvu, Chittoor - APPCB",17-04-2024 03:00:00,13.204880,79.097889,NO2,3,20,8
India,Andhra_Pradesh,Kadapa,"Yerramukkapalli, Kadapa - APPCB",17-04-2024 03:00:00,14.465052,78.824187,OZONE,NA,NA,NA
India,Andhra_Pradesh,Rajamahendravaram,"Anand Kala Kshetram, Rajamahendravaram - APPCB",17-04-2024 03:00:00,16.9872867,81.7363176,PM2.5,36,71,52
India,Andhra_Pradesh,Tirupati,"Tirumala, Tirupati - APPCB",17-04-2024 03:00:00,13.67,79.35,SO2,2,18,7
India,Andhra_Pradesh,Tirupati,"Vaikuntapuram, Tirupati - APPCB",17-04-2024 03:00:00,13.615387,79.409230,PM2.5,21,61,34
India,Andhra_Pradesh,Tirupati,"Vaikuntapuram, Tirupati - APPCB",17-04-2024 03:00:00,13.615387,79.409230,PM10,21,62,35
India,Andhra_Pradesh,Tirupati,"Vaikuntapuram, Tirupati - APPCB",17-04-2024 03:00:00,13.615387,79.409230,SO2,4,5,5
India,Andhra_Pradesh,Vijayawada,"HB Colony, Vijayawada - APPCB",17-04-2024 03:00:00,16.536107,80.594233,NO2,NA,NA,NA
India,Andhra_Pradesh,Vijayawada,"Rajiv Nagar, Vijayawada - APPCB",17-04-2024 03:00:00,16.554731,80.649110,PM10,NA,NA,NA
India,Andhra_Pradesh,Vijayawada,"Rajiv Nagar, Vijayawada - APPCB",17-04-2024 03:00:00,16.554731,80.649110,CO,NA,NA,NA
India,Andhra_Pradesh,Visakhapatnam,"GVM Corporation, Visakhapatnam - APPCB",17-04-2024 03:00:00,17.72,83.3,SO2,10,16,13
India,Assam,Byrnihat,"Central Academy for SFS, Byrnihat - PCBA",17-04-2024 03:00:00,26.071318,91.87488,SO2,4,9,7
India,Assam,Guwahati,"LGBI Airport, Guwahati - PCBA",17-04-2024 03:00:00,26.10887,91.589544,SO2,2,15,8
India,Assam,Guwahati,"Pan Bazaar, Guwahati - PCBA",17-04-2024 03:00:00,26.187500,91.744194,PM2.5,NA,NA,NA
India,Assam,Guwahati,"Pan Bazaar, Guwahati - PCBA",17-04-2024 03:00:00,26.187500,91.744194,PM10,NA,NA,NA
India,Assam,Guwahati,"Railway Colony, Guwahati - PCBA",17-04-2024 03:00:00,26.181742,91.78063,PM2.5,67,280,104
India,Assam,Nagaon,"Christianpatty, Nagaon - PCBA",17-04-2024 03:00:00,26.349082,92.68449,NH3,4,6,5
India,Assam,Nalbari,"Bata Chowk, Nalbari - PCBA",17-04-2024 03:00:00,26.446912,91.439057,PM10,47,165,98
India,Assam,Nalbari,"Bata Chowk, Nalbari - PCBA",17-04-2024 03:00:00,26.446912,91.439057,NO2,8,17,12
India,Assam,Nalbari,"Bata Chowk, Nalbari - PCBA",17-04-2024 03:00:00,26.446912,91.439057,OZONE,5,130,59
India,Assam,Silchar,"Tarapur, Silchar - PCBA",17-04-2024 03:00:00,24.82827,92.79525,PM10,39,78,52
India,Assam,Silchar,"Tarapur, Silchar - PCBA",17-04-2024 03:00:00,24.82827,92.79525,NO2,13,13,13
India,Bihar,Araria,"Kharahiya Basti, Araria - BSPCB",17-04-2024 03:00:00,26.146529,87.454184,PM2.5,58,131,93
India,Bihar,Araria,"Kharahiya Basti, Araria - BSPCB",17-04-2024 03:00:00,26.146529,87.454184,PM10,71,158,105
India,Bihar,Araria,"Kharahiya Basti, Araria - BSPCB",17-04-2024 03:00:00,26.146529,87.454184,NH3,5,8,6
India,Bihar,Araria,"Kharahiya Basti, Araria - BSPCB",17-04-2024 03:00:00,26.146529,87.454184,SO2,1,20,15
India,Bihar,Aurangabad,"Gurdeo Nagar, Aurangabad - BSPCB",17-04-2024 03:00:00,24.75746,84.366208,PM10,47,157,78
India,Bihar,Bettiah,"Kamalnath Nagar, Bettiah - BSPCB",17-04-2024 03:00:00,26.80365,84.51954,CO,61,74,69
India,Bihar,Bettiah,"Kamalnath Nagar, Bettiah - BSPCB",17-04-2024 03:00:00,26.80365,84.51954,OZONE,2,13,6
India,Bihar,Bhagalpur,"DM Office_Kachari Chowk, Bhagalpur - BSPCB",17-04-2024 03:00:00,25.251013,86.989001,PM10,129,202,159
India,Bihar,Bhagalpur,"DM Office_Kachari Chowk, Bhagalpur - BSPCB",17-04-2024 03:00:00,25.251013,86.989001,OZONE,41,48,46
India,Bihar,Bhagalpur,"Mayaganj, Bhagalpur - BSPCB",17-04-2024 03:00:00,25.265194,87.012947,PM10,45,127,82
India,Bihar,Bihar Sharif,"D M Colony, Bihar Sharif - BSPCB",17-04-2024 03:00:00,25.204762,85.514960,OZONE,17,69,53
India,Bihar,Chhapra,"Darshan Nagar, Chhapra - BSPCB",17-04-2024 03:00:00,25.7808257,84.7446768,NO2,18,26,22
India,Bihar,Gaya,"Kareemganj, Gaya - BSPCB",17-04-2024 03:00:00,24.792403,84.992416,SO2,4,12,9
India,Bihar,Gaya,"SFTI Kusdihra, Gaya - BSPCB",17-04-2024 03:00:00,24.762518,84.982348,NH3,NA,NA,NA
India,Bihar,Gaya,"SFTI Kusdihra, Gaya - BSPCB",17-04-2024 03:00:00,24.762518,84.982348,CO,NA,NA,NA
India,Bihar,Kishanganj,"SDM Office_Khagra, Kishanganj - BSPCB",17-04-2024 03:00:00,26.0881305,87.93840336,NO2,26,31,29
India,Bihar,Manguraha,"Forest Rest House, Manguraha - BSPCB",17-04-2024 03:00:00,27.308328,84.531742,PM2.5,NA,NA,NA
India,Bihar,Manguraha,"Forest Rest House, Manguraha - BSPCB",17-04-2024 03:00:00,27.308328,84.531742,CO,12,51,33
India,Bihar,Manguraha,"Forest Rest House, Manguraha - BSPCB",17-04-2024 03:00:00,27.308328,84.531742,OZONE,15,63,35
India,Bihar,Motihari,"Gandak Colony, Motihari - BSPCB",17-04-2024 03:00:00,26.63086,84.90051,NO2,46,116,82
India,Bihar,Motihari,"Gandak Colony, Motihari - BSPCB",17-04-2024 03:00:00,26.63086,84.90051,NH3,8,19,13
India,Bihar,Motihari,"Gandak Colony, Motihari - BSPCB",17-04-2024 03:00:00,26.63086,84.90051,SO2,1,8,3
India,Bihar,Muzaffarpur,"Buddha Colony, Muzaffarpur - BSPCB",17-04-2024 03:00:00,26.11442,85.39813,PM10,309,414,364
India,Bihar,Muzaffarpur,"Buddha Colony, Muzaffarpur - BSPCB",17-04-2024 03:00:00,26.11442,85.39813,NO2,26,57,38
India,Bihar,Muzaffarpur,"Muzaffarpur Collectorate, Muzaffarpur - BSPCB",17-04-2024 03:00:00,26.1209,85.3647,PM2.5,67,305,136
India,Bihar,Patna,"DRM Office Danapur, Patna - BSPCB",17-04-2024 03:00:00,25.586562,85.043586,NO2,6,82,40
India,Bihar,Patna,"DRM Office Danapur, Patna - BSPCB",17-04-2024 03:00:00,25.586562,85.043586,SO2,5,8,7
India,Bihar,Patna,"Govt. High School Shikarpur, Patna - BSPCB",17-04-2024 03:00:00,25.592539,85.227158,PM10,132,442,196
India,Bihar,Patna,"Govt. High School Shikarpur, Patna - BSPCB",17-04-2024 03:00:00,25.592539,85.227158,OZONE,1,59,5
India,Bihar,Patna,"IGSC Planetarium Complex, Patna - BSPCB",17-04-2024 03:00:00,25.610369,85.132568,SO2,5,5,5
India,Bihar,Patna,"IGSC Planetarium Complex, Patna - BSPCB",17-04-2024 03:00:00,25.610369,85.132568,OZONE,12,54,23
India,Bihar,Patna,"Rajbansi Nagar, Patna - BSPCB",17-04-2024 03:00:00,25.599486,85.113666,PM2.5,105,282,185
India,Bihar,Patna,"Samanpura, Patna - BSPCB",17-04-2024 03:00:00,25.596727,85.085624,NH3,13,29,22
India,Bihar,Patna,"Samanpura, Patna - BSPCB",17-04-2024 03:00:00,25.596727,85.085624,SO2,7,16,10
India,Bihar,Patna,"Samanpura, Patna - BSPCB",17-04-2024 03:00:00,25.596727,85.085624,CO,18,124,78
India,Bihar,Purnia,"Mariam Nagar, Purnia - BSPCB",17-04-2024 03:00:00,25.366336,87.117468,PM2.5,NA,NA,NA
India,Bihar,Purnia,"Mariam Nagar, Purnia - BSPCB",17-04-2024 03:00:00,25.366336,87.117468,SO2,5,14,9
India,Bihar,Rajgir,"Dangi Tola, Rajgir - BSPCB",17-04-2024 03:00:00,25.03280,85.41948,CO,17,50,39
India,Bihar,Samastipur,"DM Office_Kasipur, Samastipur - BSPCB",17-04-2024 03:00:00,25.859655,85.77944,CO,1,100,31
India,Bihar,Sasaram,"Dada Peer, Sasaram - BSPCB",17-04-2024 03:00:00,24.952822,84.002396,NH3,7,11,9
India,Chandigarh,Chandigarh,"Sector 22, Chandigarh - CPCC",17-04-2024 03:00:00,30.735567,76.775714,PM10,53,180,95
India,Chandigarh,Chandigarh,"Sector 22, Chandigarh - CPCC",17-04-2024 03:00:00,30.735567,76.775714,NO2,15,77,30
India,Chandigarh,Chandigarh,"Sector-25, Chandigarh - CPCC",17-04-2024 03:00:00,30.751462,76.762879,NH3,8,16,11
India,Chandigarh,Chandigarh,"Sector-25, Chandigarh - CPCC",17-04-2024 03:00:00,30.751462,76.762879,SO2,7,40,12
India,Chandigarh,Chandigarh,"Sector-53, Chandigarh - CPCC",17-04-2024 03:00:00,30.719859,76.738637,NO2,11,54,24
India,Chhattisgarh,Bhilai,"32Bungalows, Bhilai - CECB",17-04-2024 03:00:00,21.194815,81.314770,PM10,20,44,31
India,Chhattisgarh,Bhilai,"32Bungalows, Bhilai - CECB",17-04-2024 03:00:00,21.194815,81.314770,CO,17,61,51
India,Chhattisgarh,Bhilai,"Civic Center, Bhilai - Bhilai Steel Plant",17-04-2024 03:00:00,21.185571,81.343175,PM2.5,24,53,40
India,Chhattisgarh,Bhilai,"Civic Center, Bhilai - Bhilai Steel Plant",17-04-2024 03:00:00,21.185571,81.343175,SO2,8,15,10
India,Chhattisgarh,Bhilai,"Civic Center, Bhilai - Bhilai Steel Plant",17-04-2024 03:00:00,21.185571,81.343175,OZONE,7,54,9
India,Chhattisgarh,Bhilai,"Hathkhoj, Bhilai - CECB",17-04-2024 03:00:00,21.224231,81.408350,SO2,9,11,10
India,Chhattisgarh,Bilaspur,"Mangala, Bilaspur - NTPC",17-04-2024 03:00:00,22.08815,82.13737,NO2,15,17,16
India,Chhattisgarh,Chhal,"Nawapara SECL Colony, Chhal - CECB",17-04-2024 03:00:00,22.118125,83.140608,SO2,8,49,23
India,Chhattisgarh,Kunjemura,"OP Jindal School, Kunjemura - CECB",17-04-2024 03:00:00,22.126650,83.483212,NO2,11,93,53
India,Chhattisgarh,Kunjemura,"OP Jindal School, Kunjemura - CECB",17-04-2024 03:00:00,22.126650,83.483212,NH3,1,7,3
India,Chhattisgarh,Kunjemura,"OP Jindal School, Kunjemura - CECB",17-04-2024 03:00:00,22.126650,83.483212,OZONE,3,78,17
India,Chhattisgarh,Raipur,"Siltara Phase-II, Raipur - CECB",17-04-2024 03:00:00,21.371751,81.664929,SO2,1,86,38
India,Chhattisgarh,Raipur,"Siltara Phase-II, Raipur - CECB",17-04-2024 03:00:00,21.371751,81.664929,CO,2,56,48
India,Chhattisgarh,Tumidih,"OP Jindal Industrial Park, Tumidih - CECB",17-04-2024 03:00:00,22.06631475,83.33820077,NH3,NA,NA,NA
India,Delhi,Delhi,"Alipur, Delhi - DPCC",17-04-2024 03:00:00,28.815329,77.153010,PM10,69,424,169
India,Delhi,Delhi,"Alipur, Delhi - DPCC",17-04-2024 03:00:00,28.815329,77.153010,NO2,8,96,35
India,Delhi,Delhi,"Alipur, Delhi - DPCC",17-04-2024 03:00:00,28.815329,77.153010,SO2,9,51,20
India,Delhi,Delhi,"Anand Vihar, Delhi - DPCC",17-04-2024 03:00:00,28.647622,77.3158090,NH3,NA,NA,NA
India,Delhi,Delhi,"Ashok Vihar, Delhi - DPCC",17-04-2024 03:00:00,28.695381,77.181665,OZONE,2,40,13
India,Delhi,Delhi,"Bawana, Delhi - DPCC",17-04-2024 03:00:00,28.776200,77.051074,PM10,120,488,224
India,Delhi,Delhi,"DTU, Delhi - CPCB",17-04-2024 03:00:00,28.7500499,77.1112615,NO2,9,19,12
India,Delhi,Delhi,"Dr. Karni Singh Shooting Range, Delhi - DPCC",17-04-2024 03:00:00,28.498571,77.264840,PM2.5,13,304,124
India,Delhi,Delhi,"Dr. Karni Singh Shooting Range, Delhi - DPCC",17-04-2024 03:00:00,28.498571,77.264840,NH3,6,13,10
India,Delhi,Delhi,"Dr. Karni Singh Shooting Range, Delhi - DPCC",17-04-2024 03:00:00,28.498571,77.264840,OZONE,8,168,71
India,Delhi,Delhi,"Dwarka-Sector 8, Delhi - DPCC ",17-04-2024 03:00:00,28.5710274,77.0719006,PM2.5,22,381,147
India,Delhi,Delhi,"IHBAS, Dilshad Garden, Delhi - CPCB",17-04-2024 03:00:00,28.6811736,77.3025234,NH3,1,9,7
India,Delhi,Delhi,"IHBAS, Dilshad Garden, Delhi - CPCB",17-04-2024 03:00:00,28.6811736,77.3025234,SO2,3,30,20
India,Delhi,Delhi,"IHBAS, Dilshad Garden, Delhi - CPCB",17-04-2024 03:00:00,28.6811736,77.3025234,CO,10,63,30
India,Delhi,Delhi,"Jahangirpuri, Delhi - DPCC",17-04-2024 03:00:00,28.732820,77.170633,PM10,109,437,235
India,Delhi,Delhi,"Jahangirpuri, Delhi - DPCC",17-04-2024 03:00:00,28.732820,77.170633,NO2,15,121,60
India,Delhi,Delhi,"Jahangirpuri, Delhi - DPCC",17-04-2024 03:00:00,28.732820,77.170633,OZONE,7,54,25
India,Delhi,Delhi,"Jawaharlal Nehru Stadium, Delhi - DPCC",17-04-2024 03:00:00,28.580280,77.233829,NH3,6,15,11
India,Delhi,Delhi,"Lodhi Road, Delhi - IITM",17-04-2024 03:00:00,28.588333,77.221667,SO2,NA,NA,NA
India,Delhi,Delhi,"Lodhi Road, Delhi - IITM",17-04-2024 03:00:00,28.588333,77.221667,CO,42,68,59
India,Delhi,Delhi,"Major Dhyan Chand National Stadium, Delhi - DPCC",17-04-2024 03:00:00,28.611281,77.237738,PM10,59,248,129
India,Delhi,Delhi,"Major Dhyan Chand National Stadium, Delhi - DPCC",17-04-2024 03:00:00,28.611281,77.237738,NO2,22,134,62
India,Delhi,Delhi,"Major Dhyan Chand National Stadium, Delhi - DPCC",17-04-2024 03:00:00,28.611281,77.237738,NH3,7,14,10
India,Delhi,Delhi,"NSIT Dwarka, Delhi - CPCB",17-04-2024 03:00:00,28.60909,77.0325413,CO,22,50,38
India,Delhi,Delhi,"Najafgarh, Delhi - DPCC",17-04-2024 03:00:00,28.570173,76.933762,PM10,61,311,140
India,Delhi,Delhi,"Narela, Delhi - DPCC",17-04-2024 03:00:00,28.822836,77.101981,NH3,6,14,9
India,Delhi,Delhi,"Narela, Delhi - DPCC",17-04-2024 03:00:00,28.822836,77.101981,SO2,6,97,28
India,Delhi,Delhi,"Narela, Delhi - DPCC",17-04-2024 03:00:00,28.822836,77.101981,OZONE,4,112,63
India,Delhi,Delhi,"New Moti Bagh, Delhi - MHUA",17-04-2024 03:00:00,28.57834,77.18400,PM2.5,19,333,156
India,Delhi,Delhi,"Okhla Phase-2, Delhi - DPCC",17-04-2024 03:00:00,28.530785,77.271255,SO2,2,18,14
India,Delhi,Delhi,"Okhla Phase-2, Delhi - DPCC",17-04-2024 03:00:00,28.530785,77.271255,CO,22,102,83
India,Delhi,Delhi,"Patparganj, Delhi - DPCC",17-04-2024 03:00:00,28.623763,77.287209,OZONE,5,83,39
India,Delhi,Delhi,"Punjabi Bagh, Delhi - DPCC",17-04-2024 03:00:00,28.674045,77.131023,PM2.5,10,417,167
India,Delhi,Delhi,"Punjabi Bagh, Delhi - DPCC",17-04-2024 03:00:00,28.674045,77.131023,PM10,93,395,180
India,Delhi,Delhi,"Punjabi Bagh, Delhi - DPCC",17-04-2024 03:00:00,28.674045,77.131023,CO,6,48,34
India,Delhi,Delhi,"Pusa, Delhi - DPCC",17-04-2024 03:00:00,28.639652,77.146275,PM10,115,412,193
India,Delhi,Delhi,"Pusa, Delhi - DPCC",17-04-2024 03:00:00,28.639652,77.146275,NO2,55,137,93
India,Delhi,Delhi,"Pusa, Delhi - DPCC",17-04-2024 03:00:00,28.639652,77.146275,NH3,4,15,9
India,Delhi,Delhi,"R K Puram, Delhi - DPCC",17-04-2024 03:00:00,28.563262,77.186937,PM2.5,42,363,150
India,Delhi,Delhi,"R K Puram, Delhi - DPCC",17-04-2024 03:00:00,28.563262,77.186937,NO2,22,133,64
India,Delhi,Delhi,"R K Puram, Delhi - DPCC",17-04-2024 03:00:00,28.563262,77.186937,NH3,7,15,10
India,Delhi,Delhi,"Rohini, Delhi - DPCC",17-04-2024 03:00:00,28.732528,77.119920,CO,12,92,20
India,Delhi,Delhi,"Sri Aurobindo Marg, Delhi - DPCC",17-04-2024 03:00:00,28.531346,77.190156,PM2.5,27,329,127
India,Delhi,Delhi,"Sri Aurobindo Marg, Delhi - DPCC",17-04-2024 03:00:00,28.531346,77.190156,PM10,79,250,148
India,Delhi,Delhi,"Sri Aurobindo Marg, Delhi - DPCC",17-04-2024 03:00:00,28.531346,77.190156,NO2,9,95,40
India,Delhi,Delhi,"Sri Aurobindo Marg, Delhi - DPCC",17-04-2024 03:00:00,28.531346,77.190156,SO2,11,51,20
India,Delhi,Delhi,"Vivek Vihar, Delhi - DPCC",17-04-2024 03:00:00,28.672342,77.315260,NO2,22,103,50
India,Delhi,Delhi,"Wazirpur, Delhi - DPCC",17-04-2024 03:00:00,28.699793,77.165453,NH3,12,13,13
India,Delhi,Delhi,"Wazirpur, Delhi - DPCC",17-04-2024 03:00:00,28.699793,77.165453,CO,24,115,61
India,Gujarat,Ahmedabad,"Chandkheda, Ahmedabad - IITM",17-04-2024 03:00:00,23.107969,72.574648,CO,26,110,89
India,Gujarat,Ahmedabad,"Chandkheda, Ahmedabad - IITM",17-04-2024 03:00:00,23.107969,72.574648,OZONE,9,43,21
India,Gujarat,Ahmedabad,"Gyaspur, Ahmedabad - IITM",17-04-2024 03:00:00,22.977134,72.553024,NH3,11,11,11
India,Gujarat,Ahmedabad,"Maninagar, Ahmedabad - GPCB",17-04-2024 03:00:00,23.002657,72.591912,PM2.5,18,66,40
India,Gujarat,Ahmedabad,"Raikhad, Ahmedabad - IITM",17-04-2024 03:00:00,23.020509,72.579261,SO2,NA,NA,NA
India,Gujarat,Ahmedabad,"Raikhad, Ahmedabad - IITM",17-04-2024 03:00:00,23.020509,72.579261,CO,14,78,44
India,Gujarat,Ahmedabad,"Sardar Vallabhbhai Patel Stadium, Ahmedabad - IITM",17-04-2024 03:00:00,23.043070,72.562968,PM2.5,42,76,63
India,Gujarat,Ahmedabad,"Sardar Vallabhbhai Patel Stadium, Ahmedabad - IITM",17-04-2024 03:00:00,23.043070,72.562968,SO2,5,37,13
India,Gujarat,Ahmedabad,"Sardar Vallabhbhai Patel Stadium, Ahmedabad - IITM",17-04-2024 03:00:00,23.043070,72.562968,OZONE,12,20,14
India,Gujarat,Ankleshwar,"GIDC, Ankleshwar - GPCB",17-04-2024 03:00:00,21.613267,73.010555,SO2,1,119,37
India,Gujarat,Gandhinagar,"IIPHG Lekawada, Gandhinagar - IITM",17-04-2024 03:00:00,23.243639,72.68994,PM10,38,108,60
India,Gujarat,Gandhinagar,"IIPHG Lekawada, Gandhinagar - IITM",17-04-2024 03:00:00,23.243639,72.68994,NO2,32,39,34
India,Gujarat,Gandhinagar,"Sector-10, Gandhinagar - GPCB",17-04-2024 03:00:00,23.221714,72.654328,NH3,1,1,1
India,Gujarat,Surat,"Science Center, Surat - SMC",17-04-2024 03:00:00,21.170046,72.795405,PM10,6,31,19
India,Gujarat,Vapi,"Phase-1 GIDC, Vapi - GPCB",17-04-2024 03:00:00,20.362421,72.918013,NO2,6,7,6
India,Gujarat,Vatva,"Phase-4 GIDC, Vatva - GPCB",17-04-2024 03:00:00,22.969611,72.643500,CO,34,36,35
India,Gujarat,Vatva,"Phase-4 GIDC, Vatva - GPCB",17-04-2024 03:00:00,22.969611,72.643500,OZONE,NA,NA,NA
India,Haryana,Ambala,"Patti Mehar, Ambala - HSPCB",17-04-2024 03:00:00,30.379589,76.778328,NH3,8,8,8
India,Haryana,Bahadurgarh,"Arya Nagar, Bahadurgarh - HSPCB",17-04-2024 03:00:00,28.6701,76.9254,NO2,34,40,36
India,Haryana,Bahadurgarh,"Arya Nagar, Bahadurgarh - HSPCB",17-04-2024 03:00:00,28.6701,76.9254,OZONE,39,50,44
India,Haryana,Ballabgarh,"Nathu Colony, Ballabgarh - HSPCB",17-04-2024 03:00:00,28.3419248,77.319699,PM10,127,314,185
India,Haryana,Ballabgarh,"Nathu Colony, Ballabgarh - HSPCB",17-04-2024 03:00:00,28.3419248,77.319699,CO,6,70,32
India,Haryana,Bhiwani,"H.B. Colony, Bhiwani - HSPCB",17-04-2024 03:00:00,28.806223,76.141105,PM10,74,125,99
India,Haryana,Bhiwani,"H.B. Colony, Bhiwani - HSPCB",17-04-2024 03:00:00,28.806223,76.141105,NO2,2,12,8
India,Haryana,Charkhi Dadri,"Mini Secretariat, Charkhi Dadri - HSPCB",17-04-2024 03:00:00,28.593883,76.270653,PM10,51,115,81
India,Haryana,Charkhi Dadri,"Mini Secretariat, Charkhi Dadri - HSPCB",17-04-2024 03:00:00,28.593883,76.270653,NO2,14,23,18
India,Haryana,Dharuhera,"Municipal Corporation Office, Dharuhera -  HSPCB",17-04-2024 03:00:00,28.206800,76.799700,PM2.5,26,205,86
India,Haryana,Dharuhera,"Municipal Corporation Office, Dharuhera -  HSPCB",17-04-2024 03:00:00,28.206800,76.799700,NO2,46,110,71
India,Haryana,Faridabad,"New Industrial Town, Faridabad - HSPCB",17-04-2024 03:00:00,28.39072,77.30059,OZONE,21,72,57
India,Haryana,Faridabad,"Sector 11, Faridabad - HSPCB",17-04-2024 03:00:00,28.376058,77.315741,NO2,30,33,31
India,Haryana,Faridabad,"Sector 11, Faridabad - HSPCB",17-04-2024 03:00:00,28.376058,77.315741,SO2,4,74,10
India,Haryana,Faridabad,"Sector 30, Faridabad - HSPCB",17-04-2024 03:00:00,28.4417,77.3217,PM10,140,149,144
India,Haryana,Fatehabad,"Huda Sector, Fatehabad - HSPCB",17-04-2024 03:00:00,29.503664,75.467934,PM2.5,18,81,38
India,Haryana,Fatehabad,"Huda Sector, Fatehabad - HSPCB",17-04-2024 03:00:00,29.503664,75.467934,OZONE,33,79,53
India,Haryana,Gurugram,"Teri Gram, Gurugram - HSPCB",17-04-2024 03:00:00,28.4275,77.1465,PM10,126,351,214
India,Haryana,Gurugram,"Teri Gram, Gurugram - HSPCB",17-04-2024 03:00:00,28.4275,77.1465,NH3,42,73,55
India,Haryana,Gurugram,"Vikas Sadan, Gurugram - HSPCB",17-04-2024 03:00:00,28.4501238,77.0263051,SO2,9,46,28
India,Haryana,Hisar,"Urban Estate-II, Hisar - HSPCB",17-04-2024 03:00:00,29.140560,75.744941,NO2,22,26,23
India,Haryana,Hisar,"Urban Estate-II, Hisar - HSPCB",17-04-2024 03:00:00,29.140560,75.744941,NH3,9,10,10
India,Haryana,Hisar,"Urban Estate-II, Hisar - HSPCB",17-04-2024 03:00:00,29.140560,75.744941,CO,25,38,30
India,Haryana,Hisar,"Urban Estate-II, Hisar - HSPCB",17-04-2024 03:00:00,29.140560,75.744941,OZONE,47,137,87
India,Haryana,Jind,"Police Lines, Jind - HSPCB",17-04-2024 03:00:00,29.307814,76.337619,NH3,3,6,4
India,Haryana,Kaithal,"Rishi Nagar, Kaithal - HSPCB",17-04-2024 03:00:00,29.8006,76.4155,SO2,3,18,8
India,Haryana,Karnal,"Sector-12, Karnal - HSPCB",17-04-2024 03:00:00,29.695300,77.002700,NH3,10,13,11
India,Haryana,Karnal,"Sector-12, Karnal - HSPCB",17-04-2024 03:00:00,29.695300,77.002700,SO2,12,13,12
India,Haryana,Kurukshetra,"Sector-7, Kurukshetra - HSPCB",17-04-2024 03:00:00,29.966942,76.875879,NO2,9,12,10
India,Haryana,Mandikhera,"General Hospital, Mandikhera - HSPCB",17-04-2024 03:00:00,27.9002,76.9938,PM2.5,11,52,27
India,Haryana,Mandikhera,"General Hospital, Mandikhera - HSPCB",17-04-2024 03:00:00,27.9002,76.9938,NO2,19,23,21
India,Haryana,Mandikhera,"General Hospital, Mandikhera - HSPCB",17-04-2024 03:00:00,27.9002,76.9938,CO,10,34,12
India,Haryana,Manesar,"Sector-2 IMT, Manesar - HSPCB",17-04-2024 03:00:00,28.360699,76.936090,PM2.5,27,168,67
India,Haryana,Narnaul,"Shastri Nagar, Narnaul - HSPCB",17-04-2024 03:00:00,28.060249,76.113115,PM2.5,45,55,52
India,Haryana,Narnaul,"Shastri Nagar, Narnaul - HSPCB",17-04-2024 03:00:00,28.060249,76.113115,PM10,45,55,52
India,Haryana,Palwal,"Shyam Nagar, Palwal - HSPCB",17-04-2024 03:00:00,28.1485564,77.3320667,NO2,NA,NA,NA
India,Haryana,Palwal,"Shyam Nagar, Palwal - HSPCB",17-04-2024 03:00:00,28.1485564,77.3320667,SO2,NA,NA,NA
India,Haryana,Panchkula,"Sector-6, Panchkula - HSPCB ",17-04-2024 03:00:00,30.7057778,76.8531805555555,PM2.5,49,153,89
India,Haryana,Panchkula,"Sector-6, Panchkula - HSPCB ",17-04-2024 03:00:00,30.7057778,76.8531805555555,NO2,9,11,10
India,Haryana,Panipat,"Sector-18, Panipat - HSPCB",17-04-2024 03:00:00,29.497973,76.993331,PM2.5,72,80,78
India,Haryana,Panipat,"Sector-18, Panipat - HSPCB",17-04-2024 03:00:00,29.497973,76.993331,NH3,2,3,2
India,Haryana,Panipat,"Sector-18, Panipat - HSPCB",17-04-2024 03:00:00,29.497973,76.993331,SO2,18,19,19
India,Haryana,Sirsa,"F-Block, Sirsa - HSPCB",17-04-2024 03:00:00,29.536400,75.015800,CO,51,110,65
India,Haryana,Sonipat,"Murthal, Sonipat - HSPCB",17-04-2024 03:00:00,29.027200,77.062100,CO,5,39,12
India,Haryana,Yamuna Nagar,"Gobind Pura, Yamuna Nagar - HSPCB",17-04-2024 03:00:00,30.1480566,77.2893471,SO2,1,14,6
India,Haryana,Yamuna Nagar,"Gobind Pura, Yamuna Nagar - HSPCB",17-04-2024 03:00:00,30.1480566,77.2893471,CO,27,48,46
India,Himachal Pradesh,Baddi,"HIMUDA Complex Phase-1, Baddi - HPPCB",17-04-2024 03:00:00,30.943887,76.801991,OZONE,29,129,74
India,Jharkhand,Dhanbad,"Kalakusuma, Dhanbad - DMC",17-04-2024 03:00:00,23.811548,86.481238,PM2.5,3,117,36
India,Jharkhand,Dhanbad,"Sardar Patel Nagar, Dhanbad - JSPCB",17-04-2024 03:00:00,23.80569,86.44268,PM10,81,185,121
India,Jharkhand,Dhanbad,"Sardar Patel Nagar, Dhanbad - JSPCB",17-04-2024 03:00:00,23.80569,86.44268,OZONE,11,18,13
India,Karnataka,Bagalkot,"Vidayagiri, Bagalkot - KSPCB",17-04-2024 03:00:00,16.172806,75.659694,NO2,9,11,9
India,Karnataka,Belgaum,"Ramteerth Nagar, Belgaum - KSPCB",17-04-2024 03:00:00,15.888653,74.541751,NO2,11,85,34
India,Karnataka,Bengaluru,"BTM Layout, Bengaluru - CPCB",17-04-2024 03:00:00,12.9135218,77.5950804,PM2.5,17,23,20
India,Karnataka,Bengaluru,"Bapuji Nagar, Bengaluru - KSPCB",17-04-2024 03:00:00,12.951913,77.539784,SO2,7,9,8
India,Karnataka,Bengaluru,"Bapuji Nagar, Bengaluru - KSPCB",17-04-2024 03:00:00,12.951913,77.539784,CO,40,54,46
India,Karnataka,Bengaluru,"Hombegowda Nagar, Bengaluru - KSPCB",17-04-2024 03:00:00,12.938539,77.590100,SO2,3,4,3
India,Karnataka,Bengaluru,"Kasturi Nagar, Bengaluru - KSPCB",17-04-2024 03:00:00,13.003872,77.664217,PM10,50,500,141
India,Karnataka,Bengaluru,"Kasturi Nagar, Bengaluru - KSPCB",17-04-2024 03:00:00,13.003872,77.664217,OZONE,18,96,54
India,Karnataka,Bengaluru,"Peenya, Bengaluru - CPCB",17-04-2024 03:00:00,13.0270199,77.494094,PM2.5,19,85,53
India,Karnataka,Bengaluru,"Peenya, Bengaluru - CPCB",17-04-2024 03:00:00,13.0270199,77.494094,OZONE,NA,NA,NA
India,Karnataka,Bengaluru,"RVCE-Mailasandra, Bengaluru - KSPCB",17-04-2024 03:00:00,12.921418,77.502466,PM2.5,37,188,82
India,Karnataka,Bengaluru,"RVCE-Mailasandra, Bengaluru - KSPCB",17-04-2024 03:00:00,12.921418,77.502466,PM10,56,261,92
India,Karnataka,Bengaluru,"RVCE-Mailasandra, Bengaluru - KSPCB",17-04-2024 03:00:00,12.921418,77.502466,CO,34,60,47
India,Karnataka,Bengaluru,"Shivapura_Peenya, Bengaluru - KSPCB",17-04-2024 03:00:00,13.0246342,77.5080115,CO,22,49,30
India,Karnataka,Bengaluru,"Silk Board, Bengaluru - KSPCB",17-04-2024 03:00:00,12.917348,77.622813,PM10,30,107,54
India,Karnataka,Bidar,"Naubad, Bidar - KSPCB",17-04-2024 03:00:00,17.930306,77.482194,NO2,7,9,8
India,Karnataka,Chikkaballapur,"Chikkaballapur Rural, Chikkaballapur - KSPCB",17-04-2024 03:00:00,13.428828,77.731418,PM10,35,122,71
India,Karnataka,Chikkaballapur,"Chikkaballapur Rural, Chikkaballapur - KSPCB",17-04-2024 03:00:00,13.428828,77.731418,NO2,6,17,9
India,Karnataka,Chikkaballapur,"Chikkaballapur Rural, Chikkaballapur - KSPCB",17-04-2024 03:00:00,13.428828,77.731418,SO2,14,70,26
India,Karnataka,Chikkaballapur,"Chikkaballapur Rural, Chikkaballapur - KSPCB",17-04-2024 03:00:00,13.428828,77.731418,OZONE,25,27,26
India,Karnataka,Davanagere,"Devaraj Urs Badavane, Davanagere - KSPCB",17-04-2024 03:00:00,14.475800,75.905200,NO2,10,16,13
India,Karnataka,Davanagere,"Devaraj Urs Badavane, Davanagere - KSPCB",17-04-2024 03:00:00,14.475800,75.905200,OZONE,18,28,23
India,Karnataka,Dharwad,"Kalabhavan, Dharwad - KSPCB",17-04-2024 03:00:00,15.459706,75.008381,NO2,5,23,15
India,Karnataka,Gadag,"Panchal Nagar, Gadag - KSPCB",17-04-2024 03:00:00,15.411456,75.638133,NO2,NA,NA,NA
India,Karnataka,Gadag,"Panchal Nagar, Gadag - KSPCB",17-04-2024 03:00:00,15.411456,75.638133,CO,NA,NA,NA
India,Karnataka,Gadag,"Panchal Nagar, Gadag - KSPCB",17-04-2024 03:00:00,15.411456,75.638133,OZONE,NA,NA,NA
India,Karnataka,Haveri,"Ashwini Nagar, Haveri - KSPCB",17-04-2024 03:00:00,14.791800,75.389600,CO,36,38,36
India,Karnataka,Hubballi,"Deshpande Nagar, Hubballi - KSPCB",17-04-2024 03:00:00,15.351773,75.140726,NH3,4,6,5
India,Karnataka,Hubballi,"Deshpande Nagar, Hubballi - KSPCB",17-04-2024 03:00:00,15.351773,75.140726,OZONE,3,30,8
India,Karnataka,Kalaburagi,"Lal Bahadur Shastri Nagar, Kalaburagi - KSPCB",17-04-2024 03:00:00,17.321993,76.822628,PM2.5,13,257,58
India,Karnataka,Kalaburagi,"Lal Bahadur Shastri Nagar, Kalaburagi - KSPCB",17-04-2024 03:00:00,17.321993,76.822628,SO2,10,12,11
India,Karnataka,Kalaburagi,"Lal Bahadur Shastri Nagar, Kalaburagi - KSPCB",17-04-2024 03:00:00,17.321993,76.822628,CO,43,84,57
India,Karnataka,Kalaburagi,"Mahatma Basaveswar Colony, Kalaburgi - KSPCB",17-04-2024 03:00:00,17.336318,76.847397,OZONE,10,29,15
India,Karnataka,Karwar,"KHB Colony, Karwar - KSPCB",17-04-2024 03:00:00,14.816666,74.141003,CO,8,8,8
India,Karnataka,Kolar,"Tamaka Ind. Area, Kolar - KSPCB",17-04-2024 03:00:00,13.1276288,78.1570122,NH3,NA,NA,NA
India,Karnataka,Kolar,"Tamaka Ind. Area, Kolar - KSPCB",17-04-2024 03:00:00,13.1276288,78.1570122,SO2,NA,NA,NA
India,Karnataka,Koppal,"Diwator Nagar, Koppal - KSPCB",17-04-2024 03:00:00,15.347630,76.181767,NH3,5,9,8
India,Karnataka,Koppal,"Diwator Nagar, Koppal - KSPCB",17-04-2024 03:00:00,15.347630,76.181767,SO2,28,28,28
India,Karnataka,Mangalore,"Kadri, Mangalore - KSPCB",17-04-2024 03:00:00,12.889250,74.853000,NO2,5,6,6
India,Karnataka,Mangalore,"Kadri, Mangalore - KSPCB",17-04-2024 03:00:00,12.889250,74.853000,NH3,1,2,2
India,Karnataka,Mangalore,"Kadri, Mangalore - KSPCB",17-04-2024 03:00:00,12.889250,74.853000,CO,46,52,49
India,Karnataka,Mysuru,"Hebbal 1st Stage, Mysuru - KSPCB",17-04-2024 03:00:00,12.21041,76.37376,SO2,1,7,3
India,Karnataka,Ramanagara,"Vijay Nagar, Ramanagara - KSPCB",17-04-2024 03:00:00,12.733409,77.298051,PM10,21,72,38
India,Karnataka,Ramanagara,"Vijay Nagar, Ramanagara - KSPCB",17-04-2024 03:00:00,12.733409,77.298051,NH3,1,2,1
India,Karnataka,Shivamogga,"Vinoba Nagara, Shivamogga - KSPCB",17-04-2024 03:00:00,13.940000,75.555917,NO2,8,29,14
India,Karnataka,Tumakuru,"Thimmalapura, Tumakuru - KSPCB",17-04-2024 03:00:00,13.377516,77.099072,PM10,30,52,40
India,Karnataka,Tumakuru,"Thimmalapura, Tumakuru - KSPCB",17-04-2024 03:00:00,13.377516,77.099072,NH3,3,5,3
India,Karnataka,Vijayapura,"Ibrahimpur, Vijayapura - KSPCB",17-04-2024 03:00:00,16.802639,75.722694,NO2,17,19,19
India,Kerala,Eloor,"Udyogamandal, Eloor - Kerala PCB",17-04-2024 03:00:00,10.073232,76.302765,PM2.5,28,47,37
India,Kerala,Eloor,"Udyogamandal, Eloor - Kerala PCB",17-04-2024 03:00:00,10.073232,76.302765,PM10,32,44,37
India,Kerala,Eloor,"Udyogamandal, Eloor - Kerala PCB",17-04-2024 03:00:00,10.073232,76.302765,SO2,1,4,2
India,Kerala,Eloor,"Udyogamandal, Eloor - Kerala PCB",17-04-2024 03:00:00,10.073232,76.302765,CO,10,76,27
India,Kerala,Kollam,"Polayathode, Kollam - Kerala PCB",17-04-2024 03:00:00,8.8787,76.6073,PM10,29,79,54
India,Kerala,Thiruvananthapuram,"Plammoodu, Thiruvananthapuram - Kerala PCB",17-04-2024 03:00:00,8.5149093,76.9435879,NO2,8,10,9
