country,state,city,station,last_update,latitude,longitude,pollutant_id,pollutant_min,pollutant_max,pollutant_avg
India,Andhra_Pradesh,Amaravati,"Secretariat, Amaravati - APPCB",02-03-2024 10:00:00,16.5150833,80.5181667,PM2.5,42,67,56
India,Andhra_Pradesh,Amaravati,"Secretariat, Amaravati - APPCB",02-03-2024 10:00:00,16.5150833,80.5181667,NO2,7,23,14
India,Andhra_Pradesh,Chittoor,"Gangineni Cheruvu, Chittoor - APPCB",02-03-2024 10:00:00,13.204880,79.097889,NO2,NA,NA,NA
India,Andhra_Pradesh,Chittoor,"Gangineni Cheruvu, Chittoor - APPCB",02-03-2024 10:00:00,13.204880,79.097889,SO2,NA,NA,NA
India,Andhra_Pradesh,Kadapa,"Yerramukkapalli, Kadapa - APPCB",02-03-2024 10:00:00,14.465052,78.824187,PM10,28,55,42
India,Andhra_Pradesh,Kadapa,"Yerramukkapalli, Kadapa - APPCB",02-03-2024 10:00:00,14.465052,78.824187,OZONE,10,58,23
India,Andhra_Pradesh,Rajamahendravaram,"Anand Kala Kshetram, Rajamahendravaram - APPCB",02-03-2024 10:00:00,16.9872867,81.7363176,PM10,75,110,92
India,Andhra_Pradesh,Rajamahendravaram,"Anand Kala Kshetram, Rajamahendravaram - APPCB",02-03-2024 10:00:00,16.9872867,81.7363176,CO,25,54,38
India,Andhra_Pradesh,Rajamahendravaram,"Anand Kala Kshetram, Rajamahendravaram - APPCB",02-03-2024 10:00:00,16.9872867,81.7363176,OZONE,19,57,27
India,Andhra_Pradesh,Tirupati,"Tirumala, Tirupati - APPCB",02-03-2024 10:00:00,13.67,79.35,NO2,23,54,38
India,Andhra_Pradesh,Tirupati,"Tirumala, Tirupati - APPCB",02-03-2024 10:00:00,13.67,79.35,CO,34,62,38
India,Andhra_Pradesh,Vijayawada,"HB Colony, Vijayawada - APPCB",02-03-2024 10:00:00,16.536107,80.594233,PM10,48,80,67
India,Andhra_Pradesh,Vijayawada,"HB Colony, Vijayawada - APPCB",02-03-2024 10:00:00,16.536107,80.594233,NH3,4,5,4
India,Andhra_Pradesh,Vijayawada,"Kanuru, Vijayawada - APPCB",02-03-2024 10:00:00,16.486692,80.699436,SO2,5,10,7
India,Andhra_Pradesh,Vijayawada,"Rajiv Gandhi Park, Vijayawada - APPCB",02-03-2024 10:00:00,16.509717,80.612222,NH3,4,7,6
India,Andhra_Pradesh,Vijayawada,"Rajiv Gandhi Park, Vijayawada - APPCB",02-03-2024 10:00:00,16.509717,80.612222,OZONE,1,55,12
India,Andhra_Pradesh,Vijayawada,"Rajiv Nagar, Vijayawada - APPCB",02-03-2024 10:00:00,16.554731,80.649110,PM10,67,114,75
India,Andhra_Pradesh,Vijayawada,"Rajiv Nagar, Vijayawada - APPCB",02-03-2024 10:00:00,16.554731,80.649110,OZONE,23,47,26
India,Andhra_Pradesh,Visakhapatnam,"GVM Corporation, Visakhapatnam - APPCB",02-03-2024 10:00:00,17.72,83.3,PM2.5,67,207,120
India,Assam,Byrnihat,"Central Academy for SFS, Byrnihat - PCBA",02-03-2024 10:00:00,26.071318,91.87488,SO2,NA,NA,NA
India,Assam,Guwahati,"IITG, Guwahati - PCBA",02-03-2024 10:00:00,26.2028636,91.70046436,NO2,2,16,8
India,Assam,Guwahati,"IITG, Guwahati - PCBA",02-03-2024 10:00:00,26.2028636,91.70046436,OZONE,1,31,4
India,Assam,Guwahati,"LGBI Airport, Guwahati - PCBA",02-03-2024 10:00:00,26.10887,91.589544,PM2.5,140,336,248
India,Assam,Guwahati,"LGBI Airport, Guwahati - PCBA",02-03-2024 10:00:00,26.10887,91.589544,NH3,1,6,3
India,Assam,Guwahati,"LGBI Airport, Guwahati - PCBA",02-03-2024 10:00:00,26.10887,91.589544,SO2,5,14,13
India,Assam,Guwahati,"LGBI Airport, Guwahati - PCBA",02-03-2024 10:00:00,26.10887,91.589544,OZONE,1,82,13
India,Assam,Nalbari,"Bata Chowk, Nalbari - PCBA",02-03-2024 10:00:00,26.446912,91.439057,CO,67,135,75
India,Assam,Silchar,"Tarapur, Silchar - PCBA",02-03-2024 10:00:00,24.82827,92.79525,PM2.5,40,70,51
India,Assam,Silchar,"Tarapur, Silchar - PCBA",02-03-2024 10:00:00,24.82827,92.79525,SO2,1,10,6
India,Assam,Sivasagar,"Girls College, Sivasagar - PCBA",02-03-2024 10:00:00,26.987634,94.636574,PM2.5,31,56,43
India,Assam,Sivasagar,"Girls College, Sivasagar - PCBA",02-03-2024 10:00:00,26.987634,94.636574,PM10,38,100,61
India,Assam,Sivasagar,"Girls College, Sivasagar - PCBA",02-03-2024 10:00:00,26.987634,94.636574,OZONE,1,11,2
India,Bihar,Araria,"Kharahiya Basti, Araria - BSPCB",02-03-2024 10:00:00,26.146529,87.454184,PM2.5,53,329,173
India,Bihar,Araria,"Kharahiya Basti, Araria - BSPCB",02-03-2024 10:00:00,26.146529,87.454184,PM10,114,400,186
India,Bihar,Araria,"Kharahiya Basti, Araria - BSPCB",02-03-2024 10:00:00,26.146529,87.454184,CO,24,30,29
India,Bihar,Arrah,"New DM Office, Arrah - BSPCB",02-03-2024 10:00:00,25.5626095,84.663264,PM2.5,43,307,129
India,Bihar,Arrah,"New DM Office, Arrah - BSPCB",02-03-2024 10:00:00,25.5626095,84.663264,PM10,71,212,121
India,Bihar,Arrah,"New DM Office, Arrah - BSPCB",02-03-2024 10:00:00,25.5626095,84.663264,NH3,4,7,5
India,Bihar,Arrah,"New DM Office, Arrah - BSPCB",02-03-2024 10:00:00,25.5626095,84.663264,CO,4,20,11
India,Bihar,Aurangabad,"Gurdeo Nagar, Aurangabad - BSPCB",02-03-2024 10:00:00,24.75746,84.366208,PM2.5,35,310,110
India,Bihar,Aurangabad,"Gurdeo Nagar, Aurangabad - BSPCB",02-03-2024 10:00:00,24.75746,84.366208,OZONE,2,77,10
India,Bihar,Bettiah,"Kamalnath Nagar, Bettiah - BSPCB",02-03-2024 10:00:00,26.80365,84.51954,PM2.5,42,352,230
India,Bihar,Bettiah,"Kamalnath Nagar, Bettiah - BSPCB",02-03-2024 10:00:00,26.80365,84.51954,PM10,64,201,147
India,Bihar,Bettiah,"Kamalnath Nagar, Bettiah - BSPCB",02-03-2024 10:00:00,26.80365,84.51954,NH3,3,6,3
India,Bihar,Bhagalpur,"Mayaganj, Bhagalpur - BSPCB",02-03-2024 10:00:00,25.265194,87.012947,PM2.5,60,325,203
India,Bihar,Bhagalpur,"Mayaganj, Bhagalpur - BSPCB",02-03-2024 10:00:00,25.265194,87.012947,NO2,6,17,10
India,Bihar,Bhagalpur,"Mayaganj, Bhagalpur - BSPCB",02-03-2024 10:00:00,25.265194,87.012947,SO2,10,13,12
India,Bihar,Gaya,"Collectorate, Gaya - BSPCB",02-03-2024 10:00:00,24.7955,84.9994,CO,13,109,42
India,Bihar,Gaya,"Collectorate, Gaya - BSPCB",02-03-2024 10:00:00,24.7955,84.9994,OZONE,49,77,57
India,Bihar,Gaya,"Kareemganj, Gaya - BSPCB",02-03-2024 10:00:00,24.792403,84.992416,CO,19,109,48
India,Bihar,Gaya,"SFTI Kusdihra, Gaya - BSPCB",02-03-2024 10:00:00,24.762518,84.982348,SO2,5,9,6
India,Bihar,Katihar,"Mirchaibari, Katihar - BSPCB",02-03-2024 10:00:00,25.560083,87.553265,NH3,3,6,5
India,Bihar,Kishanganj,"SDM Office_Khagra, Kishanganj - BSPCB",02-03-2024 10:00:00,26.0881305,87.93840336,PM2.5,NA,NA,NA
India,Bihar,Kishanganj,"SDM Office_Khagra, Kishanganj - BSPCB",02-03-2024 10:00:00,26.0881305,87.93840336,PM10,104,485,221
India,Bihar,Motihari,"Gandak Colony, Motihari - BSPCB",02-03-2024 10:00:00,26.63086,84.90051,NO2,61,102,79
India,Bihar,Motihari,"Gandak Colony, Motihari - BSPCB",02-03-2024 10:00:00,26.63086,84.90051,SO2,1,12,3
India,Bihar,Munger,"Town Hall, Munger - BSPCB",02-03-2024 10:00:00,25.376776,86.471523,PM2.5,53,500,238
India,Bihar,Munger,"Town Hall, Munger - BSPCB",02-03-2024 10:00:00,25.376776,86.471523,NH3,1,2,2
India,Bihar,Munger,"Town Hall, Munger - BSPCB",02-03-2024 10:00:00,25.376776,86.471523,OZONE,9,128,11
India,Bihar,Muzaffarpur,"Buddha Colony, Muzaffarpur - BSPCB",02-03-2024 10:00:00,26.11442,85.39813,PM2.5,NA,NA,NA
India,Bihar,Muzaffarpur,"Buddha Colony, Muzaffarpur - BSPCB",02-03-2024 10:00:00,26.11442,85.39813,NH3,NA,NA,NA
India,Bihar,Muzaffarpur,"MIT-Daudpur Kothi, Muzaffarpur - BSPCB",02-03-2024 10:00:00,26.1403345,85.3650192,NO2,4,9,7
India,Bihar,Muzaffarpur,"MIT-Daudpur Kothi, Muzaffarpur - BSPCB",02-03-2024 10:00:00,26.1403345,85.3650192,NH3,1,9,3
India,Bihar,Muzaffarpur,"MIT-Daudpur Kothi, Muzaffarpur - BSPCB",02-03-2024 10:00:00,26.1403345,85.3650192,SO2,10,16,12
India,Bihar,Muzaffarpur,"Muzaffarpur Collectorate, Muzaffarpur - BSPCB",02-03-2024 10:00:00,26.1209,85.3647,NO2,11,39,16
India,Bihar,Patna,"DRM Office Danapur, Patna - BSPCB",02-03-2024 10:00:00,25.586562,85.043586,NO2,11,90,42
India,Bihar,Patna,"DRM Office Danapur, Patna - BSPCB",02-03-2024 10:00:00,25.586562,85.043586,SO2,6,9,8
India,Bihar,Patna,"Govt. High School Shikarpur, Patna - BSPCB",02-03-2024 10:00:00,25.592539,85.227158,NH3,4,4,4
India,Bihar,Patna,"Govt. High School Shikarpur, Patna - BSPCB",02-03-2024 10:00:00,25.592539,85.227158,CO,25,88,68
India,Bihar,Patna,"Govt. High School Shikarpur, Patna - BSPCB",02-03-2024 10:00:00,25.592539,85.227158,OZONE,55,93,65
India,Bihar,Patna,"IGSC Planetarium Complex, Patna - BSPCB",02-03-2024 10:00:00,25.610369,85.132568,SO2,5,7,6
India,Bihar,Purnia,"Mariam Nagar, Purnia - BSPCB",02-03-2024 10:00:00,25.366336,87.117468,CO,32,109,80
India,Bihar,Rajgir,"Dangi Tola, Rajgir - BSPCB",02-03-2024 10:00:00,25.03280,85.41948,PM2.5,32,197,65
India,Bihar,Rajgir,"Dangi Tola, Rajgir - BSPCB",02-03-2024 10:00:00,25.03280,85.41948,NO2,NA,NA,NA
India,Bihar,Rajgir,"Dangi Tola, Rajgir - BSPCB",02-03-2024 10:00:00,25.03280,85.41948,NH3,1,1,1
India,Bihar,Saharsa,"Police Line, Saharsa - BSPCB",02-03-2024 10:00:00,25.892357,86.590325,CO,6,92,17
India,Bihar,Samastipur,"DM Office_Kasipur, Samastipur - BSPCB",02-03-2024 10:00:00,25.859655,85.77944,PM2.5,28,335,184
India,Bihar,Sasaram,"Dada Peer, Sasaram - BSPCB",02-03-2024 10:00:00,24.952822,84.002396,PM2.5,36,152,77
India,Bihar,Sasaram,"Dada Peer, Sasaram - BSPCB",02-03-2024 10:00:00,24.952822,84.002396,NH3,7,16,12
India,Bihar,Sasaram,"Dada Peer, Sasaram - BSPCB",02-03-2024 10:00:00,24.952822,84.002396,CO,74,110,103
India,Chandigarh,Chandigarh,"Sector 22, Chandigarh - CPCC",02-03-2024 10:00:00,30.735567,76.775714,NO2,14,109,42
India,Chandigarh,Chandigarh,"Sector-25, Chandigarh - CPCC",02-03-2024 10:00:00,30.751462,76.762879,CO,23,93,27
India,Chhattisgarh,Bhilai,"Civic Center, Bhilai - Bhilai Steel Plant",02-03-2024 10:00:00,21.185571,81.343175,NO2,16,20,18
India,Chhattisgarh,Bhilai,"Civic Center, Bhilai - Bhilai Steel Plant",02-03-2024 10:00:00,21.185571,81.343175,NH3,2,2,2
India,Chhattisgarh,Bhilai,"Civic Center, Bhilai - Bhilai Steel Plant",02-03-2024 10:00:00,21.185571,81.343175,OZONE,8,33,14
India,Chhattisgarh,Bhilai,"Hathkhoj, Bhilai - CECB",02-03-2024 10:00:00,21.224231,81.408350,NO2,15,76,44
India,Chhattisgarh,Chhal,"Nawapara SECL Colony, Chhal - CECB",02-03-2024 10:00:00,22.118125,83.140608,PM2.5,24,179,72
India,Chhattisgarh,Chhal,"Nawapara SECL Colony, Chhal - CECB",02-03-2024 10:00:00,22.118125,83.140608,PM10,35,274,86
India,Chhattisgarh,Chhal,"Nawapara SECL Colony, Chhal - CECB",02-03-2024 10:00:00,22.118125,83.140608,NO2,16,73,27
India,Chhattisgarh,Korba,"Rampur, Korba - CECB",02-03-2024 10:00:00,22.368195,82.746431,OZONE,2,7,2
India,Chhattisgarh,Korba,"Urja Nagar, Korba - CECB",02-03-2024 10:00:00,22.348441,82.549611,PM2.5,18,115,50
India,Chhattisgarh,Korba,"Urja Nagar, Korba - CECB",02-03-2024 10:00:00,22.348441,82.549611,OZONE,1,33,2
India,Chhattisgarh,Milupara,"Govt. Higher Secondary School, Milupara - CECB",02-03-2024 10:00:00,22.1910172,83.5197009,NO2,NA,NA,NA
India,Chhattisgarh,Milupara,"Govt. Higher Secondary School, Milupara - CECB",02-03-2024 10:00:00,22.1910172,83.5197009,CO,NA,NA,NA
India,Chhattisgarh,Raipur,"AIIMS, Raipur - CECB",02-03-2024 10:00:00,21.258815,81.578979,PM10,23,129,76
India,Chhattisgarh,Raipur,"AIIMS, Raipur - CECB",02-03-2024 10:00:00,21.258815,81.578979,CO,22,65,50
India,Chhattisgarh,Tumidih,"OP Jindal Industrial Park, Tumidih - CECB",02-03-2024 10:00:00,22.06631475,83.33820077,OZONE,7,71,18
India,Delhi,Delhi,"Alipur, Delhi - DPCC",02-03-2024 10:00:00,28.815329,77.153010,SO2,8,33,16
India,Delhi,Delhi,"Anand Vihar, Delhi - DPCC",02-03-2024 10:00:00,28.647622,77.3158090,PM2.5,53,351,151
India,Delhi,Delhi,"Ashok Vihar, Delhi - DPCC",02-03-2024 10:00:00,28.695381,77.181665,PM2.5,25,262,87
India,Delhi,Delhi,"Aya Nagar, Delhi - IMD",02-03-2024 10:00:00,28.4706914,77.1099364,CO,23,36,27
India,Delhi,Delhi,"Aya Nagar, Delhi - IMD",02-03-2024 10:00:00,28.4706914,77.1099364,OZONE,17,81,19
India,Delhi,Delhi,"Bawana, Delhi - DPCC",02-03-2024 10:00:00,28.776200,77.051074,NH3,5,8,7
India,Delhi,Delhi,"Bawana, Delhi - DPCC",02-03-2024 10:00:00,28.776200,77.051074,CO,22,77,26
India,Delhi,Delhi,"Burari Crossing, Delhi - IMD",02-03-2024 10:00:00,28.7256504,77.2011573,PM10,41,199,121
India,Delhi,Delhi,"Burari Crossing, Delhi - IMD",02-03-2024 10:00:00,28.7256504,77.2011573,OZONE,4,63,9
India,Delhi,Delhi,"DTU, Delhi - CPCB",02-03-2024 10:00:00,28.7500499,77.1112615,PM2.5,22,247,86
India,Delhi,Delhi,"DTU, Delhi - CPCB",02-03-2024 10:00:00,28.7500499,77.1112615,PM10,52,313,146
India,Delhi,Delhi,"Dr. Karni Singh Shooting Range, Delhi - DPCC",02-03-2024 10:00:00,28.498571,77.264840,PM10,31,212,116
India,Delhi,Delhi,"IGI Airport (T3), Delhi - IMD",02-03-2024 10:00:00,28.5627763,77.1180053,CO,22,52,28
India,Delhi,Delhi,"ITO, Delhi - CPCB",02-03-2024 10:00:00,28.628624,77.241060,NO2,34,121,73
India,Delhi,Delhi,"Jahangirpuri, Delhi - DPCC",02-03-2024 10:00:00,28.732820,77.170633,PM10,69,354,180
India,Delhi,Delhi,"Jahangirpuri, Delhi - DPCC",02-03-2024 10:00:00,28.732820,77.170633,CO,56,110,67
India,Delhi,Delhi,"Jawaharlal Nehru Stadium, Delhi - DPCC",02-03-2024 10:00:00,28.580280,77.233829,SO2,7,47,19
India,Delhi,Delhi,"Lodhi Road, Delhi - IITM",02-03-2024 10:00:00,28.588333,77.221667,PM2.5,NA,NA,NA
India,Delhi,Delhi,"Lodhi Road, Delhi - IITM",02-03-2024 10:00:00,28.588333,77.221667,NH3,NA,NA,NA
India,Delhi,Delhi,"Major Dhyan Chand National Stadium, Delhi - DPCC",02-03-2024 10:00:00,28.611281,77.237738,NO2,44,145,77
India,Delhi,Delhi,"Mandir Marg, Delhi - DPCC",02-03-2024 10:00:00,28.636429,77.201067,PM10,37,140,95
India,Delhi,Delhi,"Mandir Marg, Delhi - DPCC",02-03-2024 10:00:00,28.636429,77.201067,NH3,8,17,10
India,Delhi,Delhi,"NSIT Dwarka, Delhi - CPCB",02-03-2024 10:00:00,28.60909,77.0325413,SO2,13,18,15
India,Delhi,Delhi,"Najafgarh, Delhi - DPCC",02-03-2024 10:00:00,28.570173,76.933762,PM2.5,32,256,78
India,Delhi,Delhi,"Najafgarh, Delhi - DPCC",02-03-2024 10:00:00,28.570173,76.933762,OZONE,42,236,61
India,Delhi,Delhi,"Narela, Delhi - DPCC",02-03-2024 10:00:00,28.822836,77.101981,PM10,61,408,181
India,Delhi,Delhi,"Nehru Nagar, Delhi - DPCC",02-03-2024 10:00:00,28.567890,77.250515,NH3,8,14,11
India,Delhi,Delhi,"Nehru Nagar, Delhi - DPCC",02-03-2024 10:00:00,28.567890,77.250515,CO,22,94,57
India,Delhi,Delhi,"Nehru Nagar, Delhi - DPCC",02-03-2024 10:00:00,28.567890,77.250515,OZONE,10,252,21
India,Delhi,Delhi,"New Moti Bagh, Delhi - MHUA",02-03-2024 10:00:00,28.57834,77.18400,NO2,1,7,2
India,Delhi,Delhi,"New Moti Bagh, Delhi - MHUA",02-03-2024 10:00:00,28.57834,77.18400,CO,20,68,24
India,Delhi,Delhi,"North Campus, DU, Delhi - IMD",02-03-2024 10:00:00,28.6573814,77.1585447,CO,2,78,6
India,Delhi,Delhi,"Okhla Phase-2, Delhi - DPCC",02-03-2024 10:00:00,28.530785,77.271255,NH3,7,11,9
India,Delhi,Delhi,"Patparganj, Delhi - DPCC",02-03-2024 10:00:00,28.623763,77.287209,NH3,7,15,10
India,Delhi,Delhi,"Patparganj, Delhi - DPCC",02-03-2024 10:00:00,28.623763,77.287209,OZONE,18,194,24
India,Delhi,Delhi,"Pusa, Delhi - IMD",02-03-2024 10:00:00,28.636110,77.173332,PM2.5,NA,NA,NA
India,Delhi,Delhi,"R K Puram, Delhi - DPCC",02-03-2024 10:00:00,28.563262,77.186937,PM2.5,46,248,116
India,Delhi,Delhi,"R K Puram, Delhi - DPCC",02-03-2024 10:00:00,28.563262,77.186937,PM10,57,168,123
India,Delhi,Delhi,"Rohini, Delhi - DPCC",02-03-2024 10:00:00,28.732528,77.119920,NO2,36,114,74
India,Delhi,Delhi,"Rohini, Delhi - DPCC",02-03-2024 10:00:00,28.732528,77.119920,CO,14,79,21
India,Delhi,Delhi,"Shadipur, Delhi - CPCB",02-03-2024 10:00:00,28.6514781,77.1473105,PM10,45,246,157
India,Delhi,Delhi,"Sirifort, Delhi - CPCB",02-03-2024 10:00:00,28.5504249,77.2159377,SO2,36,59,41
India,Delhi,Delhi,"Sirifort, Delhi - CPCB",02-03-2024 10:00:00,28.5504249,77.2159377,CO,10,60,14
India,Delhi,Delhi,"Sonia Vihar, Delhi - DPCC",02-03-2024 10:00:00,28.710508,77.249485,PM2.5,33,242,136
India,Delhi,Delhi,"Sonia Vihar, Delhi - DPCC",02-03-2024 10:00:00,28.710508,77.249485,PM10,61,300,178
India,Delhi,Delhi,"Sonia Vihar, Delhi - DPCC",02-03-2024 10:00:00,28.710508,77.249485,NO2,41,108,75
India,Delhi,Delhi,"Sonia Vihar, Delhi - DPCC",02-03-2024 10:00:00,28.710508,77.249485,CO,48,103,53
India,Delhi,Delhi,"Sri Aurobindo Marg, Delhi - DPCC",02-03-2024 10:00:00,28.531346,77.190156,NO2,32,108,58
India,Delhi,Delhi,"Vivek Vihar, Delhi - DPCC",02-03-2024 10:00:00,28.672342,77.315260,PM10,47,273,132
India,Delhi,Delhi,"Vivek Vihar, Delhi - DPCC",02-03-2024 10:00:00,28.672342,77.315260,NH3,5,12,7
India,Delhi,Delhi,"Wazirpur, Delhi - DPCC",02-03-2024 10:00:00,28.699793,77.165453,OZONE,22,206,34
India,Gujarat,Ahmedabad,"Chandkheda, Ahmedabad - IITM",02-03-2024 10:00:00,23.107969,72.574648,CO,36,74,43
India,Gujarat,Ahmedabad,"Maninagar, Ahmedabad - GPCB",02-03-2024 10:00:00,23.002657,72.591912,OZONE,31,119,75
India,Gujarat,Ahmedabad,"Raikhad, Ahmedabad - IITM",02-03-2024 10:00:00,23.020509,72.579261,SO2,5,23,10
India,Gujarat,Ahmedabad,"Rakhial, Ahmedabad - IITM",02-03-2024 10:00:00,23.016834,72.625775,NO2,67,184,127
India,Gujarat,Ahmedabad,"Rakhial, Ahmedabad - IITM",02-03-2024 10:00:00,23.016834,72.625775,NH3,NA,NA,NA
India,Gujarat,Ahmedabad,"SVPI Airport Hansol, Ahmedabad - IITM",02-03-2024 10:00:00,23.076793,72.627874,PM10,101,182,123
India,Gujarat,Ahmedabad,"SVPI Airport Hansol, Ahmedabad - IITM",02-03-2024 10:00:00,23.076793,72.627874,SO2,5,9,7
India,Gujarat,Ahmedabad,"Sardar Vallabhbhai Patel Stadium, Ahmedabad - IITM",02-03-2024 10:00:00,23.043070,72.562968,OZONE,15,24,19
India,Gujarat,Ankleshwar,"GIDC, Ankleshwar - GPCB",02-03-2024 10:00:00,21.613267,73.010555,PM10,38,113,72
India,Gujarat,Ankleshwar,"GIDC, Ankleshwar - GPCB",02-03-2024 10:00:00,21.613267,73.010555,CO,12,94,82
India,Gujarat,Gandhinagar,"IIPHG Lekawada, Gandhinagar - IITM",02-03-2024 10:00:00,23.243639,72.68994,NO2,32,33,33
India,Gujarat,Gandhinagar,"Sector-10, Gandhinagar - GPCB",02-03-2024 10:00:00,23.221714,72.654328,PM10,54,126,90
India,Gujarat,Surat,"Science Center, Surat - SMC",02-03-2024 10:00:00,21.170046,72.795405,NO2,24,36,30
India,Gujarat,Vapi,"Phase-1 GIDC, Vapi - GPCB",02-03-2024 10:00:00,20.362421,72.918013,PM2.5,32,203,60
India,Gujarat,Vatva,"Phase-4 GIDC, Vatva - GPCB",02-03-2024 10:00:00,22.969611,72.643500,PM2.5,83,303,162
India,Gujarat,Vatva,"Phase-4 GIDC, Vatva - GPCB",02-03-2024 10:00:00,22.969611,72.643500,OZONE,11,42,13
India,Haryana,Ambala,"Patti Mehar, Ambala - HSPCB",02-03-2024 10:00:00,30.379589,76.778328,NO2,6,9,8
India,Haryana,Bahadurgarh,"Arya Nagar, Bahadurgarh - HSPCB",02-03-2024 10:00:00,28.6701,76.9254,SO2,13,16,14
India,Haryana,Ballabgarh,"Nathu Colony, Ballabgarh - HSPCB",02-03-2024 10:00:00,28.3419248,77.319699,PM2.5,52,327,127
India,Haryana,Ballabgarh,"Nathu Colony, Ballabgarh - HSPCB",02-03-2024 10:00:00,28.3419248,77.319699,NH3,1,2,1
India,Haryana,Ballabgarh,"Nathu Colony, Ballabgarh - HSPCB",02-03-2024 10:00:00,28.3419248,77.319699,SO2,3,32,13
India,Haryana,Ballabgarh,"Nathu Colony, Ballabgarh - HSPCB",02-03-2024 10:00:00,28.3419248,77.319699,OZONE,5,33,10
India,Haryana,Bhiwani,"H.B. Colony, Bhiwani - HSPCB",02-03-2024 10:00:00,28.806223,76.141105,PM10,28,122,61
India,Haryana,Bhiwani,"H.B. Colony, Bhiwani - HSPCB",02-03-2024 10:00:00,28.806223,76.141105,NH3,5,6,6
India,Haryana,Charkhi Dadri,"Mini Secretariat, Charkhi Dadri - HSPCB",02-03-2024 10:00:00,28.593883,76.270653,PM10,26,134,68
India,Haryana,Charkhi Dadri,"Mini Secretariat, Charkhi Dadri - HSPCB",02-03-2024 10:00:00,28.593883,76.270653,OZONE,12,17,15
India,Haryana,Dharuhera,"Municipal Corporation Office, Dharuhera -  HSPCB",02-03-2024 10:00:00,28.206800,76.799700,SO2,NA,NA,NA
India,Haryana,Faridabad,"Sector 11, Faridabad - HSPCB",02-03-2024 10:00:00,28.376058,77.315741,PM10,86,274,130
India,Haryana,Faridabad,"Sector 30, Faridabad - HSPCB",02-03-2024 10:00:00,28.4417,77.3217,CO,19,62,29
India,Haryana,Fatehabad,"Huda Sector, Fatehabad - HSPCB",02-03-2024 10:00:00,29.503664,75.467934,SO2,1,18,9
India,Haryana,Gurugram,"Sector-51, Gurugram - HSPCB",02-03-2024 10:00:00,28.4227,77.0667,SO2,3,5,4
India,Haryana,Gurugram,"Vikas Sadan, Gurugram - HSPCB",02-03-2024 10:00:00,28.4501238,77.0263051,PM2.5,35,342,89
India,Haryana,Gurugram,"Vikas Sadan, Gurugram - HSPCB",02-03-2024 10:00:00,28.4501238,77.0263051,NO2,5,26,14
India,Haryana,Jind,"Police Lines, Jind - HSPCB",02-03-2024 10:00:00,29.307814,76.337619,PM2.5,40,173,79
India,Haryana,Jind,"Police Lines, Jind - HSPCB",02-03-2024 10:00:00,29.307814,76.337619,CO,1,112,46
India,Haryana,Kaithal,"Rishi Nagar, Kaithal - HSPCB",02-03-2024 10:00:00,29.8006,76.4155,SO2,8,38,23
India,Haryana,Kaithal,"Rishi Nagar, Kaithal - HSPCB",02-03-2024 10:00:00,29.8006,76.4155,CO,8,72,10
India,Haryana,Karnal,"Sector-12, Karnal - HSPCB",02-03-2024 10:00:00,29.695300,77.002700,SO2,12,13,13
India,Haryana,Kurukshetra,"Sector-7, Kurukshetra - HSPCB",02-03-2024 10:00:00,29.966942,76.875879,PM2.5,53,188,124
India,Haryana,Kurukshetra,"Sector-7, Kurukshetra - HSPCB",02-03-2024 10:00:00,29.966942,76.875879,NH3,5,5,5
India,Haryana,Mandikhera,"General Hospital, Mandikhera - HSPCB",02-03-2024 10:00:00,27.9002,76.9938,NO2,17,22,19
India,Haryana,Narnaul,"Shastri Nagar, Narnaul - HSPCB",02-03-2024 10:00:00,28.060249,76.113115,PM2.5,18,82,35
India,Haryana,Narnaul,"Shastri Nagar, Narnaul - HSPCB",02-03-2024 10:00:00,28.060249,76.113115,PM10,22,98,42
India,Haryana,Narnaul,"Shastri Nagar, Narnaul - HSPCB",02-03-2024 10:00:00,28.060249,76.113115,CO,8,16,12
India,Haryana,Narnaul,"Shastri Nagar, Narnaul - HSPCB",02-03-2024 10:00:00,28.060249,76.113115,OZONE,14,45,41
India,Haryana,Palwal,"Shyam Nagar, Palwal - HSPCB",02-03-2024 10:00:00,28.1485564,77.3320667,PM10,38,180,87
India,Haryana,Palwal,"Shyam Nagar, Palwal - HSPCB",02-03-2024 10:00:00,28.1485564,77.3320667,NH3,8,9,9
India,Haryana,Palwal,"Shyam Nagar, Palwal - HSPCB",02-03-2024 10:00:00,28.1485564,77.3320667,OZONE,6,57,12
India,Haryana,Rohtak,"MD University, Rohtak - HSPCB",02-03-2024 10:00:00,28.52123,76.37138,OZONE,44,53,49
India,Haryana,Sirsa,"F-Block, Sirsa - HSPCB",02-03-2024 10:00:00,29.536400,75.015800,NH3,8,13,13
India,Haryana,Yamuna Nagar,"Gobind Pura, Yamuna Nagar - HSPCB",02-03-2024 10:00:00,30.1480566,77.2893471,NO2,13,28,15
India,Himachal Pradesh,Baddi,"HIMUDA Complex Phase-1, Baddi - HPPCB",02-03-2024 10:00:00,30.943887,76.801991,PM2.5,8,322,97
India,Himachal Pradesh,Baddi,"HIMUDA Complex Phase-1, Baddi - HPPCB",02-03-2024 10:00:00,30.943887,76.801991,PM10,32,320,113
India,Himachal Pradesh,Baddi,"HIMUDA Complex Phase-1, Baddi - HPPCB",02-03-2024 10:00:00,30.943887,76.801991,NO2,6,60,22
India,Jharkhand,Dhanbad,"Sardar Patel Nagar, Dhanbad - JSPCB",02-03-2024 10:00:00,23.80569,86.44268,SO2,6,122,33
India,Jharkhand,Pathardih,"Mohalbani Ghat, Pathardih - DMC",02-03-2024 10:00:00,23.669880,86.411725,PM2.5,11,208,70
India,Karnataka,Bagalkot,"Vidayagiri, Bagalkot - KSPCB",02-03-2024 10:00:00,16.172806,75.659694,PM2.5,25,38,36
India,Karnataka,Bagalkot,"Vidayagiri, Bagalkot - KSPCB",02-03-2024 10:00:00,16.172806,75.659694,CO,23,53,36
India,Karnataka,Belgaum,"Ramteerth Nagar, Belgaum - KSPCB",02-03-2024 10:00:00,15.888653,74.541751,NH3,34,34,34
India,Karnataka,Bengaluru,"BTM Layout, Bengaluru - CPCB",02-03-2024 10:00:00,12.9135218,77.5950804,PM2.5,26,52,39
India,Karnataka,Bengaluru,"BTM Layout, Bengaluru - CPCB",02-03-2024 10:00:00,12.9135218,77.5950804,PM10,37,63,51
India,Karnataka,Bengaluru,"BTM Layout, Bengaluru - CPCB",02-03-2024 10:00:00,12.9135218,77.5950804,SO2,8,8,8
India,Karnataka,Bengaluru,"Bapuji Nagar, Bengaluru - KSPCB",02-03-2024 10:00:00,12.951913,77.539784,NO2,8,13,11
India,Karnataka,Bengaluru,"City Railway Station, Bengaluru - KSPCB",02-03-2024 10:00:00,12.9756843,77.5660749,SO2,12,13,13
India,Karnataka,Bengaluru,"Hebbal, Bengaluru - KSPCB",02-03-2024 10:00:00,13.029152,77.585901,OZONE,8,16,9
India,Karnataka,Bengaluru,"Hombegowda Nagar, Bengaluru - KSPCB",02-03-2024 10:00:00,12.938539,77.590100,NH3,2,2,2
India,Karnataka,Bengaluru,"Jayanagar 5th Block, Bengaluru - KSPCB",02-03-2024 10:00:00,12.920984,77.584908,PM2.5,49,98,69
India,Karnataka,Bengaluru,"Jigani, Bengaluru - KSPCB",02-03-2024 10:00:00,12.7816279,77.6299145,NO2,31,32,32
India,Karnataka,Bengaluru,"Kasturi Nagar, Bengaluru - KSPCB",02-03-2024 10:00:00,13.003872,77.664217,PM2.5,72,95,81
India,Karnataka,Bengaluru,"Kasturi Nagar, Bengaluru - KSPCB",02-03-2024 10:00:00,13.003872,77.664217,NH3,3,4,4
India,Karnataka,Bengaluru,"Peenya, Bengaluru - CPCB",02-03-2024 10:00:00,13.0270199,77.494094,NH3,2,3,3
India,Karnataka,Bengaluru,"RVCE-Mailasandra, Bengaluru - KSPCB",02-03-2024 10:00:00,12.921418,77.502466,NO2,38,69,45
India,Karnataka,Bengaluru,"RVCE-Mailasandra, Bengaluru - KSPCB",02-03-2024 10:00:00,12.921418,77.502466,OZONE,42,70,58
India,Karnataka,Bengaluru,"Sanegurava Halli, Bengaluru - KSPCB",02-03-2024 10:00:00,12.990328,77.5431385,SO2,2,3,3
India,Karnataka,Bengaluru,"Shivapura_Peenya, Bengaluru - KSPCB",02-03-2024 10:00:00,13.0246342,77.5080115,PM10,55,75,63
India,Karnataka,Bengaluru,"Shivapura_Peenya, Bengaluru - KSPCB",02-03-2024 10:00:00,13.0246342,77.5080115,SO2,5,26,10
India,Karnataka,Bengaluru,"Silk Board, Bengaluru - KSPCB",02-03-2024 10:00:00,12.917348,77.622813,SO2,6,12,9
India,Karnataka,Bengaluru,"Silk Board, Bengaluru - KSPCB",02-03-2024 10:00:00,12.917348,77.622813,OZONE,29,32,30
India,Karnataka,Bidar,"Naubad, Bidar - KSPCB",02-03-2024 10:00:00,17.930306,77.482194,NO2,7,8,8
India,Karnataka,Chamarajanagar,"Urban, Chamarajanagar - KSPCB",02-03-2024 10:00:00,11.55358,76.55521,CO,19,34,22
India,Karnataka,Chikkamagaluru,"Kalyana Nagara, Chikkamagaluru - KSPCB",02-03-2024 10:00:00,13.328028,75.797056,SO2,2,6,4
India,Karnataka,Chikkamagaluru,"Kalyana Nagara, Chikkamagaluru - KSPCB",02-03-2024 10:00:00,13.328028,75.797056,CO,11,86,12
India,Karnataka,Davanagere,"Devaraj Urs Badavane, Davanagere - KSPCB",02-03-2024 10:00:00,14.475800,75.905200,NH3,1,1,1
India,Karnataka,Dharwad,"Kalabhavan, Dharwad - KSPCB",02-03-2024 10:00:00,15.459706,75.008381,NH3,2,3,3
India,Karnataka,Gadag,"Panchal Nagar, Gadag - KSPCB",02-03-2024 10:00:00,15.411456,75.638133,NH3,1,3,2
India,Karnataka,Gadag,"Panchal Nagar, Gadag - KSPCB",02-03-2024 10:00:00,15.411456,75.638133,CO,40,46,44
India,Karnataka,Haveri,"Ashwini Nagar, Haveri - KSPCB",02-03-2024 10:00:00,14.791800,75.389600,PM10,61,62,62
India,Karnataka,Haveri,"Ashwini Nagar, Haveri - KSPCB",02-03-2024 10:00:00,14.791800,75.389600,NH3,3,4,3
India,Karnataka,Hubballi,"Deshpande Nagar, Hubballi - KSPCB",02-03-2024 10:00:00,15.351773,75.140726,PM2.5,28,141,70
India,Karnataka,Hubballi,"Deshpande Nagar, Hubballi - KSPCB",02-03-2024 10:00:00,15.351773,75.140726,NH3,4,6,5
India,Karnataka,Hubballi,"Deshpande Nagar, Hubballi - KSPCB",02-03-2024 10:00:00,15.351773,75.140726,SO2,17,20,19
India,Karnataka,Hubballi,"Lingaraj Nagar, Hubballi - KSPCB",02-03-2024 10:00:00,15.3714823,75.1160168,NH3,2,2,2
India,Karnataka,Kalaburagi,"Lal Bahadur Shastri Nagar, Kalaburagi - KSPCB",02-03-2024 10:00:00,17.321993,76.822628,PM10,24,107,47
India,Karnataka,Kalaburagi,"Mahatma Basaveswar Colony, Kalaburgi - KSPCB",02-03-2024 10:00:00,17.336318,76.847397,NO2,15,32,24
India,Karnataka,Karwar,"KHB Colony, Karwar - KSPCB",02-03-2024 10:00:00,14.816666,74.141003,NH3,2,9,3
India,Karnataka,Karwar,"KHB Colony, Karwar - KSPCB",02-03-2024 10:00:00,14.816666,74.141003,SO2,18,18,18
India,Karnataka,Kolar,"Tamaka Ind. Area, Kolar - KSPCB",02-03-2024 10:00:00,13.1276288,78.1570122,PM2.5,30,471,275
India,Karnataka,Kolar,"Tamaka Ind. Area, Kolar - KSPCB",02-03-2024 10:00:00,13.1276288,78.1570122,NO2,17,34,24
India,Karnataka,Kolar,"Tamaka Ind. Area, Kolar - KSPCB",02-03-2024 10:00:00,13.1276288,78.1570122,SO2,8,15,11
India,Karnataka,Koppal,"Diwator Nagar, Koppal - KSPCB",02-03-2024 10:00:00,15.347630,76.181767,OZONE,13,61,33
India,Karnataka,Madikeri,"Stuart Hill, Madikeri - KSPCB",02-03-2024 10:00:00,12.415911,75.735050,PM10,23,62,41
India,Karnataka,Mangalore,"Kadri, Mangalore - KSPCB",02-03-2024 10:00:00,12.889250,74.853000,PM2.5,45,86,64
India,Karnataka,Mangalore,"Kadri, Mangalore - KSPCB",02-03-2024 10:00:00,12.889250,74.853000,PM10,89,109,97
India,Karnataka,Mangalore,"Kadri, Mangalore - KSPCB",02-03-2024 10:00:00,12.889250,74.853000,OZONE,30,32,31
India,Karnataka,Mysuru,"Hebbal 1st Stage, Mysuru - KSPCB",02-03-2024 10:00:00,12.21041,76.37376,OZONE,6,101,20
India,Karnataka,Raichur,"Haji Colony, Raichur - KSPCB",02-03-2024 10:00:00,16.208139,77.348417,PM10,51,270,97
India,Karnataka,Raichur,"Haji Colony, Raichur - KSPCB",02-03-2024 10:00:00,16.208139,77.348417,NO2,18,58,30
India,Karnataka,Raichur,"Haji Colony, Raichur - KSPCB",02-03-2024 10:00:00,16.208139,77.348417,SO2,63,78,69
India,Karnataka,Ramanagara,"Vijay Nagar, Ramanagara - KSPCB",02-03-2024 10:00:00,12.733409,77.298051,NO2,2,18,5
India,Karnataka,Shivamogga,"Vinoba Nagara, Shivamogga - KSPCB",02-03-2024 10:00:00,13.940000,75.555917,CO,10,48,43
India,Karnataka,Udupi,"Brahmagiri, Udupi - KSPCB",02-03-2024 10:00:00,13.34194444,74.74694444,NO2,28,32,30
India,Karnataka,Udupi,"Brahmagiri, Udupi - KSPCB",02-03-2024 10:00:00,13.34194444,74.74694444,CO,44,50,46
India,Karnataka,Yadgir,"Collector Office, Yadgir - KSPCB",02-03-2024 10:00:00,16.7602,77.1428,PM10,40,96,60
India,Karnataka,Yadgir,"Collector Office, Yadgir - KSPCB",02-03-2024 10:00:00,16.7602,77.1428,NH3,1,1,1
India,Karnataka,Yadgir,"Collector Office, Yadgir - KSPCB",02-03-2024 10:00:00,16.7602,77.1428,OZONE,18,19,19
India,Kerala,Eloor,"Udyogamandal, Eloor - Kerala PCB",02-03-2024 10:00:00,10.073232,76.302765,PM2.5,44,68,52
India,Kerala,Eloor,"Udyogamandal, Eloor - Kerala PCB",02-03-2024 10:00:00,10.073232,76.302765,SO2,1,8,2
India,Kerala,Kannur,"Thavakkara, Kannur - Kerala PCB",02-03-2024 10:00:00,11.875000,75.373200,PM2.5,52,61,56
India,Kerala,Kannur,"Thavakkara, Kannur - Kerala PCB",02-03-2024 10:00:00,11.875000,75.373200,OZONE,31,36,32
India,Kerala,Kochi,"Vyttila, Kochi - Kerala PCB",02-03-2024 10:00:00,9.969447,76.321186,NO2,2,5,3
India,Kerala,Kollam,"Polayathode, Kollam - Kerala PCB",02-03-2024 10:00:00,8.8787,76.6073,OZONE,30,38,33
India,Kerala,Thiruvananthapuram,"Kariavattom, Thiruvananthapuram - Kerala PCB",02-03-2024 10:00:00,8.563700,76.886500,PM10,80,86,83
India,Kerala,Thiruvananthapuram,"Kariavattom, Thiruvananthapuram - Kerala PCB",02-03-2024 10:00:00,8.563700,76.886500,NH3,1,1,1
India,Kerala,Thiruvananthapuram,"Plammoodu, Thiruvananthapuram - Kerala PCB",02-03-2024 10:00:00,8.5149093,76.9435879,PM2.5,23,97,58
India,Kerala,Thiruvananthapuram,"Plammoodu, Thiruvananthapuram - Kerala PCB",02-03-2024 10:00:00,8.5149093,76.9435879,PM10,34,109,65
India,Kerala,Thrissur,"Corporation Ground, Thrissur - Kerala PCB",02-03-2024 10:00:00,10.532400,76.215900,PM2.5,45,50,48
India,Kerala,Thrissur,"Corporation Ground, Thrissur - Kerala PCB",02-03-2024 10:00:00,10.532400,76.215900,NO2,7,8,7
India,Madhya Pradesh,Bhopal,"Idgah Hills, Bhopal - MPPCB",02-03-2024 10:00:00,23.264759,77.381568,NO2,10,47,27
India,Madhya Pradesh,Bhopal,"Idgah Hills, Bhopal - MPPCB",02-03-2024 10:00:00,23.264759,77.381568,OZONE,26,77,39
India,Madhya Pradesh,Bhopal,"T T Nagar, Bhopal - MPPCB",02-03-2024 10:00:00,23.233584,77.400574,NO2,22,45,30
India,Madhya Pradesh,Dewas,"Bhopal Chauraha, Dewas - MPPCB",02-03-2024 10:00:00,22.9682591,76.064118,CO,15,32,18
India,Madhya Pradesh,Gwalior,"City Center, Gwalior - MPPCB",02-03-2024 10:00:00,26.203442,78.193251,SO2,1,33,18
India,Madhya Pradesh,Gwalior,"Deen Dayal Nagar, Gwalior - MPPCB",02-03-2024 10:00:00,26.259242,78.216432,PM2.5,21,112,46
India,Madhya Pradesh,Gwalior,"Deen Dayal Nagar, Gwalior - MPPCB",02-03-2024 10:00:00,26.259242,78.216432,NH3,3,13,8
India,Madhya Pradesh,Gwalior,"Deen Dayal Nagar, Gwalior - MPPCB",02-03-2024 10:00:00,26.259242,78.216432,CO,14,123,88
India,Madhya Pradesh,Indore,"Chhoti Gwaltoli, Indore - MPPCB",02-03-2024 10:00:00,22.4310,75.5213,CO,30,95,42
India,Madhya Pradesh,Indore,"Chhoti Gwaltoli, Indore - MPPCB",02-03-2024 10:00:00,22.4310,75.5213,OZONE,26,90,53
India,Madhya Pradesh,Indore,"Residency Area, Indore - IMC",02-03-2024 10:00:00,22.7084,75.8815,PM2.5,24,70,41
India,Madhya Pradesh,Indore,"Residency Area, Indore - IMC",02-03-2024 10:00:00,22.7084,75.8815,CO,12,14,12
India,Madhya Pradesh,Indore,"Residency Area, Indore - IMC",02-03-2024 10:00:00,22.7084,75.8815,OZONE,8,17,12
India,Madhya Pradesh,Jabalpur,"Govindh Bhavan Colony, Jabalpur - JMC",02-03-2024 10:00:00,23.163174,79.973061,NO2,NA,NA,NA
India,Madhya Pradesh,Jabalpur,"Gupteshwar, Jabalpur - JMC",02-03-2024 10:00:00,23.142888,79.916147,SO2,1,9,5
India,Madhya Pradesh,Jabalpur,"Marhatal, Jabalpur - MPPCB",02-03-2024 10:00:00,23.168606,79.932247,PM2.5,39,149,64
India,Madhya Pradesh,Jabalpur,"Marhatal, Jabalpur - MPPCB",02-03-2024 10:00:00,23.168606,79.932247,NH3,3,5,4
India,Madhya Pradesh,Jabalpur,"Marhatal, Jabalpur - MPPCB",02-03-2024 10:00:00,23.168606,79.932247,CO,16,107,22
India,Madhya Pradesh,Jabalpur,"Suhagi, Jabalpur - JMC",02-03-2024 10:00:00,23.218135,79.957770,NO2,43,50,47
India,Madhya Pradesh,Jabalpur,"Suhagi, Jabalpur - JMC",02-03-2024 10:00:00,23.218135,79.957770,CO,14,106,31
India,Madhya Pradesh,Katni,"Gole Bazar, Katni - MPPCB",02-03-2024 10:00:00,23.50016,80.23284,NO2,34,65,48
India,Madhya Pradesh,Katni,"Gole Bazar, Katni - MPPCB",02-03-2024 10:00:00,23.50016,80.23284,SO2,9,27,20
India,Madhya Pradesh,Pithampur,"Sector-2 Industrial Area, Pithampur - MPPCB",02-03-2024 10:00:00,22.624758,75.675238,PM10,36,139,74
India,Madhya Pradesh,Pithampur,"Sector-2 Industrial Area, Pithampur - MPPCB",02-03-2024 10:00:00,22.624758,75.675238,CO,44,77,55
India,Madhya Pradesh,Sagar,"Civil Lines, Sagar - MPPCB",02-03-2024 10:00:00,23.838586,78.759431,OZONE,41,66,45
India,Madhya Pradesh,Satna,"Bandhavgar Colony, Satna - Birla Cement",02-03-2024 10:00:00,24.58434363,80.8549414,NO2,2,68,32
India,Madhya Pradesh,Ujjain,"Mahakaleshwar Temple, Ujjain - MPPCB",02-03-2024 10:00:00,23.182719 ,75.768218 ,PM2.5,20,55,40
India,Maharashtra,Ahmednagar,"Tarakpur, Ahmednagar - MPCB",02-03-2024 10:00:00,19.10122,74.73339,PM10,46,236,107
India,Maharashtra,Ahmednagar,"Tarakpur, Ahmednagar - MPCB",02-03-2024 10:00:00,19.10122,74.73339,SO2,3,18,13
India,Maharashtra,Akola,"Ramdaspeth, Akola - MPCB",02-03-2024 10:00:00,20.719516,77.000253,CO,16,47,23
India,Maharashtra,Amravati,"Shivneri Colony, Amravati - MPCB",02-03-2024 10:00:00,20.9402359,77.7895248,PM10,49,134,88
India,Maharashtra,Amravati,"Shri Shivaji Science College, Amaravati - MPCB",02-03-2024 10:00:00,20.939198,77.765701,PM2.5,30,359,98
India,Maharashtra,Amravati,"Shri Shivaji Science College, Amaravati - MPCB",02-03-2024 10:00:00,20.939198,77.765701,NH3,2,17,6
India,Maharashtra,Aurangabad,"MIDC Chilkalthana, Aurangabad - MPCB",02-03-2024 10:00:00,19.875620,75.387310,PM10,66,180,105
India,Maharashtra,Aurangabad,"MIDC Chilkalthana, Aurangabad - MPCB",02-03-2024 10:00:00,19.875620,75.387310,NO2,18,22,20
India,Maharashtra,Aurangabad,"More Chowk Waluj, Aurangabad - MPCB",02-03-2024 10:00:00,19.8389439,75.244448,PM10,36,129,78
India,Maharashtra,Aurangabad,"More Chowk Waluj, Aurangabad - MPCB",02-03-2024 10:00:00,19.8389439,75.244448,CO,10,111,23
India,Maharashtra,Aurangabad,"Rachnakar Colony, Aurangabad - MPCB",02-03-2024 10:00:00,19.863756,75.321188,CO,14,127,26
India,Maharashtra,Badlapur,"Katrap, Badlapur - MPCB",02-03-2024 10:00:00,19.16485,73.23409,CO,22,101,58
India,Maharashtra,Belapur,"CBD Belapur, Belapur - MPCB",02-03-2024 10:00:00,19.0243902,73.0406721,CO,22,62,32
India,Maharashtra,Boisar,"Khaira, Boisar - MPCB",02-03-2024 10:00:00,19.786089,72.757971,PM2.5,NA,NA,NA
India,Maharashtra,Chandrapur,"Chauhan Colony, Chandrapur - MPCB",02-03-2024 10:00:00,19.962900,79.298714,CO,22,26,24
India,Maharashtra,Dhule,"Deopur, Dhule - MPCB",02-03-2024 10:00:00,20.918946,74.776388,NO2,12,47,21
India,Maharashtra,Dhule,"Deopur, Dhule - MPCB",02-03-2024 10:00:00,20.918946,74.776388,CO,20,37,27
India,Maharashtra,Jalgaon,"Prabhat Colony, Jalgaon - MPCB",02-03-2024 10:00:00,21.001264,75.565602,SO2,3,11,6
India,Maharashtra,Jalgaon,"Prabhat Colony, Jalgaon - MPCB",02-03-2024 10:00:00,21.001264,75.565602,CO,12,24,16
India,Maharashtra,Kolhapur,"Shivaji University, Kolhapur - MPCB",02-03-2024 10:00:00,16.6870449,74.2505872,NH3,2,8,4
India,Maharashtra,Kolhapur,"Shivaji University, Kolhapur - MPCB",02-03-2024 10:00:00,16.6870449,74.2505872,OZONE,1,123,2
India,Maharashtra,Kolhapur,"Sinchan Bhavan, Kolhapur - MPCB",02-03-2024 10:00:00,16.7143745,74.2426398,PM2.5,50,251,84
India,Maharashtra,Latur,"Sawe Wadi, Latur - MPCB",02-03-2024 10:00:00,18.39963,76.57452,SO2,3,11,6
India,Maharashtra,Malegaon,"Mahesh Nagar, Malegaon - MPCB",02-03-2024 10:00:00,20.555712,74.529236,NH3,2,7,3
India,Maharashtra,Malegaon,"Mahesh Nagar, Malegaon - MPCB",02-03-2024 10:00:00,20.555712,74.529236,SO2,5,17,10
India,Maharashtra,Malegaon,"Mahesh Nagar, Malegaon - MPCB",02-03-2024 10:00:00,20.555712,74.529236,CO,20,52,24
India,Maharashtra,Mira-Bhayandar,"Bhayandar West, Mira-Bhayandar - MPCB",02-03-2024 10:00:00,19.296481,72.840923,NH3,4,7,5
India,Maharashtra,Mira-Bhayandar,"Bhayandar West, Mira-Bhayandar - MPCB",02-03-2024 10:00:00,19.296481,72.840923,OZONE,1,94,5
India,Maharashtra,Mumbai,"Bandra Kurla Complex, Mumbai - MPCB",02-03-2024 10:00:00,19.065931,72.862131,NO2,9,33,18
India,Maharashtra,Mumbai,"Bandra Kurla Complex, Mumbai - MPCB",02-03-2024 10:00:00,19.065931,72.862131,NH3,10,17,15
India,Maharashtra,Mumbai,"Bandra Kurla Complex, Mumbai - MPCB",02-03-2024 10:00:00,19.065931,72.862131,SO2,1,10,3
India,Maharashtra,Mumbai,"Bandra Kurla Complex, Mumbai - MPCB",02-03-2024 10:00:00,19.065931,72.862131,CO,14,34,20
India,Maharashtra,Mumbai,"Bandra Kurla Complex, Mumbai - MPCB",02-03-2024 10:00:00,19.065931,72.862131,OZONE,2,76,12
India,Maharashtra,Mumbai,"Borivali East, Mumbai - IITM",02-03-2024 10:00:00,19.23241,72.86895,PM10,57,139,93
India,Maharashtra,Mumbai,"Borivali East, Mumbai - IITM",02-03-2024 10:00:00,19.23241,72.86895,CO,8,54,30
India,Maharashtra,Mumbai,"Borivali East, Mumbai - MPCB",02-03-2024 10:00:00,19.2243333,72.8658113,PM10,30,164,62
India,Maharashtra,Mumbai,"Chakala-Andheri East, Mumbai - IITM",02-03-2024 10:00:00,19.11074,72.86084,NO2,74,158,114
India,Maharashtra,Mumbai,"Chhatrapati Shivaji Intl. Airport (T2), Mumbai - MPCB",02-03-2024 10:00:00,19.10078,72.87462,CO,44,103,67
India,Maharashtra,Mumbai,"Colaba, Mumbai - MPCB",02-03-2024 10:00:00,18.910000,72.820000,SO2,NA,NA,NA
India,Maharashtra,Mumbai,"Ghatkopar, Mumbai - BMC",02-03-2024 10:00:00,19.083694,72.920967,PM2.5,10,131,46
India,Maharashtra,Mumbai,"Ghatkopar, Mumbai - BMC",02-03-2024 10:00:00,19.083694,72.920967,PM10,55,132,89
India,Maharashtra,Mumbai,"Ghatkopar, Mumbai - BMC",02-03-2024 10:00:00,19.083694,72.920967,NO2,28,64,50
India,Maharashtra,Mumbai,"Kandivali West, Mumbai - BMC",02-03-2024 10:00:00,19.215859,72.831718,PM2.5,56,146,82
India,Maharashtra,Mumbai,"Kandivali West, Mumbai - BMC",02-03-2024 10:00:00,19.215859,72.831718,PM10,43,104,64
India,Maharashtra,Mumbai,"Kandivali West, Mumbai - BMC",02-03-2024 10:00:00,19.215859,72.831718,NO2,6,25,12
India,Maharashtra,Mumbai,"Kandivali West, Mumbai - BMC",02-03-2024 10:00:00,19.215859,72.831718,CO,8,28,13
India,Maharashtra,Mumbai,"Kherwadi_Bandra East, Mumbai - MPCB",02-03-2024 10:00:00,19.0632143,72.8456324,PM10,48,127,77
India,Maharashtra,Mumbai,"Kherwadi_Bandra East, Mumbai - MPCB",02-03-2024 10:00:00,19.0632143,72.8456324,SO2,3,28,8
India,Maharashtra,Mumbai,"Khindipada-Bhandup West, Mumbai - IITM",02-03-2024 10:00:00,19.1653323,72.922099,NO2,NA,NA,NA
India,Maharashtra,Mumbai,"Khindipada-Bhandup West, Mumbai - IITM",02-03-2024 10:00:00,19.1653323,72.922099,NH3,9,20,11
India,Maharashtra,Mumbai,"Khindipada-Bhandup West, Mumbai - IITM",02-03-2024 10:00:00,19.1653323,72.922099,SO2,2,4,2
India,Maharashtra,Mumbai,"Mazgaon, Mumbai - IITM",02-03-2024 10:00:00,18.96702,72.84214,NH3,24,45,31
India,Maharashtra,Mumbai,"Mulund West, Mumbai - MPCB",02-03-2024 10:00:00,19.1750,72.9419,PM2.5,NA,NA,NA
India,Maharashtra,Mumbai,"Mulund West, Mumbai - MPCB",02-03-2024 10:00:00,19.1750,72.9419,NH3,NA,NA,NA
India,Maharashtra,Mumbai,"Navy Nagar-Colaba, Mumbai - IITM",02-03-2024 10:00:00,18.897756,72.813320,SO2,3,25,15
India,Maharashtra,Mumbai,"Powai, Mumbai - MPCB",02-03-2024 10:00:00,19.137500,72.915056,CO,26,44,29
India,Maharashtra,Mumbai,"Shivaji Nagar, Mumbai - BMC",02-03-2024 10:00:00,19.060498,72.923356,PM2.5,35,129,69
India,Maharashtra,Mumbai,"Shivaji Nagar, Mumbai - BMC",02-03-2024 10:00:00,19.060498,72.923356,PM10,45,157,100
India,Maharashtra,Mumbai,"Vasai West, Mumbai - MPCB",02-03-2024 10:00:00,19.383200,72.820400,SO2,15,16,16
India,Maharashtra,Mumbai,"Worli, Mumbai - MPCB",02-03-2024 10:00:00,18.9936162,72.8128113,PM2.5,33,56,43
India,Maharashtra,Mumbai,"Worli, Mumbai - MPCB",02-03-2024 10:00:00,18.9936162,72.8128113,NH3,1,1,1
India,Maharashtra,Nagpur,"Ambazari, Nagpur - MPCB",02-03-2024 10:00:00,21.121801,79.04952,NH3,3,14,5
India,Maharashtra,Nagpur,"Ambazari, Nagpur - MPCB",02-03-2024 10:00:00,21.121801,79.04952,OZONE,6,127,27
India,Maharashtra,Nagpur,"Mahal, Nagpur - MPCB",02-03-2024 10:00:00,21.14472,79.107595,NH3,4,12,7
India,Maharashtra,Nagpur,"Mahal, Nagpur - MPCB",02-03-2024 10:00:00,21.14472,79.107595,SO2,42,74,56
India,Maharashtra,Nagpur,"Mahal, Nagpur - MPCB",02-03-2024 10:00:00,21.14472,79.107595,OZONE,1,150,25
India,Maharashtra,Nagpur,"Opp GPO Civil Lines, Nagpur - MPCB",02-03-2024 10:00:00,21.152875,79.0517531,CO,8,131,39
India,Maharashtra,Nagpur,"Ram Nagar, Nagpur - MPCB",02-03-2024 10:00:00,21.143383,79.048912,PM2.5,NA,NA,NA
India,Maharashtra,Nanded,"Sneh Nagar, Nanded - MPCB",02-03-2024 10:00:00,19.173852,77.296291,PM2.5,26,111,59
India,Maharashtra,Nashik,"Hirawadi, Nashik - MPCB",02-03-2024 10:00:00,20.021503,73.813844,NH3,1,2,1
India,Maharashtra,Nashik,"MIDC Ambad, Nashik - MPCB",02-03-2024 10:00:00,19.950220,73.731480,NO2,8,54,23
India,Maharashtra,Nashik,"MIDC Ambad, Nashik - MPCB",02-03-2024 10:00:00,19.950220,73.731480,OZONE,22,100,34
India,Maharashtra,Nashik,"Pandav Nagari, Nashik - MPCB",02-03-2024 10:00:00,19.9591346,73.7788008,NH3,4,9,5
India,Maharashtra,Navi Mumbai,"Mahape, Navi Mumbai - MPCB",02-03-2024 10:00:00,19.1135051,73.008978,CO,37,54,48
India,Maharashtra,Navi Mumbai,"Sanpada, Navi Mumbai - MPCB",02-03-2024 10:00:00,19.0575752,73.0151367,SO2,3,18,8
India,Maharashtra,Navi Mumbai,"Sanpada, Navi Mumbai - MPCB",02-03-2024 10:00:00,19.0575752,73.0151367,CO,6,51,21
India,Maharashtra,Navi Mumbai,"Sector-19A Nerul, Navi Mumbai - IITM",02-03-2024 10:00:00,19.044,73.0325,PM2.5,48,320,166
India,Maharashtra,Navi Mumbai,"Sector-19A Nerul, Navi Mumbai - IITM",02-03-2024 10:00:00,19.044,73.0325,SO2,18,40,31
India,Maharashtra,Navi Mumbai,"Sector-19A Nerul, Navi Mumbai - IITM",02-03-2024 10:00:00,19.044,73.0325,OZONE,1,199,2
India,Maharashtra,Navi Mumbai,"Sector-2E Kalamboli, Navi Mumbai - MPCB",02-03-2024 10:00:00,19.02579,73.10297,NO2,NA,NA,NA
India,Maharashtra,Navi Mumbai,"Tondare-Taloja, Navi Mumbai - MPCB",02-03-2024 10:00:00,19.0630,73.1209,NH3,2,11,8
India,Maharashtra,Parbhani,"Masoom Colony, Parbhani - MPCB",02-03-2024 10:00:00,19.265594,76.761463,SO2,7,39,18
India,Maharashtra,Pimpri-Chinchwad,"Gavalinagar, Pimpri Chinchwad - MPCB",02-03-2024 10:00:00,18.63673,73.82487,NH3,1,10,3
India,Maharashtra,Pimpri-Chinchwad,"Park Street Wakad, Pimpri Chinchwad - MPCB",02-03-2024 10:00:00,18.59051,73.77946,NH3,7,13,10
India,Maharashtra,Pimpri-Chinchwad,"Thergaon, Pimpri Chinchwad - MPCB",02-03-2024 10:00:00,18.616318,73.765797,PM2.5,78,181,137
India,Maharashtra,Pimpri-Chinchwad,"Thergaon, Pimpri Chinchwad - MPCB",02-03-2024 10:00:00,18.616318,73.765797,NH3,3,8,5
India,Maharashtra,Pune,"Karve Road, Pune - MPCB",02-03-2024 10:00:00,18.5011743,73.8165527,OZONE,2,10,4
India,Maharashtra,Pune,"Katraj Dairy, Pune - MPCB",02-03-2024 10:00:00,18.454450,73.854155,PM10,48,98,68
India,Maharashtra,Pune,"Katraj Dairy, Pune - MPCB",02-03-2024 10:00:00,18.454450,73.854155,NO2,19,50,34
India,Maharashtra,Pune,"Katraj Dairy, Pune - MPCB",02-03-2024 10:00:00,18.454450,73.854155,SO2,3,11,7
India,Maharashtra,Pune,"Katraj Dairy, Pune - MPCB",02-03-2024 10:00:00,18.454450,73.854155,CO,24,89,38
India,Maharashtra,Pune,"Revenue Colony-Shivajinagar, Pune - IITM",02-03-2024 10:00:00,18.530085,73.849598,PM10,43,131,88
India,Maharashtra,Pune,"Revenue Colony-Shivajinagar, Pune - IITM",02-03-2024 10:00:00,18.530085,73.849598,NO2,74,201,143
India,Maharashtra,Pune,"Revenue Colony-Shivajinagar, Pune - IITM",02-03-2024 10:00:00,18.530085,73.849598,OZONE,1,30,11
India,Maharashtra,Pune,"Savitribai Phule Pune University, Pune - MPCB",02-03-2024 10:00:00,18.547056,73.826908,PM10,63,278,116
India,Maharashtra,Pune,"Savitribai Phule Pune University, Pune - MPCB",02-03-2024 10:00:00,18.547056,73.826908,NH3,3,6,4
India,Maharashtra,Solapur,"Dnyaneshwar Nagar, Solapur - MPCB",02-03-2024 10:00:00,17.6336264,75.9132495,SO2,5,21,12
India,Maharashtra,Solapur,"Ratandeep Housing Society, Solapur - MPCB",02-03-2024 10:00:00,17.65439,75.90649,NH3,9,13,10
India,Maharashtra,Solapur,"Solapur, Solapur - MPCB",02-03-2024 10:00:00,17.6599188,75.9063906,PM10,108,159,134
India,Maharashtra,Thane,"Kasarvadavali, Thane - MPCB",02-03-2024 10:00:00,19.26777,72.97182,NO2,38,88,61
India,Maharashtra,Thane,"Kasarvadavali, Thane - MPCB",02-03-2024 10:00:00,19.26777,72.97182,OZONE,1,142,5
India,Maharashtra,Thane,"Pimpleshwar Mandir, Thane - MPCB",02-03-2024 10:00:00,19.192056,72.9585188,OZONE,1,63,3
India,Maharashtra,Ulhasnagar,"Sidhi Vinayak Nagar, Ulhasnagar - MPCB",02-03-2024 10:00:00,19.235581,73.159121,PM10,60,256,106
India,Maharashtra,Ulhasnagar,"Sidhi Vinayak Nagar, Ulhasnagar - MPCB",02-03-2024 10:00:00,19.235581,73.159121,SO2,2,53,16
India,Maharashtra,Ulhasnagar,"Sidhi Vinayak Nagar, Ulhasnagar - MPCB",02-03-2024 10:00:00,19.235581,73.159121,CO,19,60,35
India,Maharashtra,Virar,"Bolinj, Virar - MPCB",02-03-2024 10:00:00,19.4458210,72.7988231,PM2.5,82,165,98
India,Manipur,Imphal,"DM College of Science, Imphal - Manipur PCB",02-03-2024 10:00:00,24.8207389,93.9423085,PM2.5,14,82,32
India,Manipur,Imphal,"Manipur University, Imphal - Manipur PCB",02-03-2024 10:00:00,24.7524239,93.9286218,PM2.5,42,198,95
India,Meghalaya,Shillong,"Lumpyngngad, Shillong - Meghalaya PCB",02-03-2024 10:00:00,25.5586,91.8985,NO2,6,7,6
India,Mizoram,Aizawl,"Sikulpuikawn, Aizawl - Mizoram PCB",02-03-2024 10:00:00,23.7176342,92.7192841,CO,14,20,15
India,Nagaland,Kohima,"PWD Juction, Kohima - NPCB",02-03-2024 10:00:00,25.6635413,94.0989878,PM2.5,73,257,136
India,Odisha,Angul,"Hakimapada, Angul - OSPCB",02-03-2024 10:00:00,20.832874,85.104082,OZONE,4,217,21
India,Odisha,Balasore,"Kalidaspur, Balasore - OSPCB",02-03-2024 10:00:00,21.51161,86.89088,OZONE,4,93,14
India,Odisha,Baripada,"Meher Colony, Baripada - OSPCB",02-03-2024 10:00:00,21.941841,86.728318,SO2,1,5,2
India,Odisha,Baripada,"Meher Colony, Baripada - OSPCB",02-03-2024 10:00:00,21.941841,86.728318,CO,30,42,36
India,Odisha,Bhubaneswar,"Lingraj Mandir, Bhubaneswar - OSPCB",02-03-2024 10:00:00,20.240790,85.836784,PM2.5,62,157,97
India,Odisha,Bileipada,"Tata Township, Bileipada - OSPCB",02-03-2024 10:00:00,22.06156703,85.47409613,PM10,92,469,194
India,Odisha,Brajrajnagar,"GM Office, Brajrajnagar - OSPCB",02-03-2024 10:00:00,21.8004996,83.8396977,SO2,15,15,15
India,Odisha,Byasanagar,"Ferro Chrome Colony, Byasanagar - OSPCB",02-03-2024 10:00:00,20.94185,86.11510,OZONE,7,134,21
India,Odisha,Cuttack,"CDA Area, Cuttack - OSPCB",02-03-2024 10:00:00,20.48891     ,85.84768     ,PM2.5,70,133,96
India,Odisha,Cuttack,"CDA Area, Cuttack - OSPCB",02-03-2024 10:00:00,20.48891     ,85.84768     ,PM10,80,127,104
India,Odisha,Cuttack,"CDA Area, Cuttack - OSPCB",02-03-2024 10:00:00,20.48891     ,85.84768     ,CO,24,38,31
India,Odisha,Nayagarh,"Dabuna, Nayagarh - OSPCB",02-03-2024 10:00:00,21.847279,85.416905,SO2,3,10,4
India,Odisha,Rairangpur,"Divisional Forest Office, Rairangpur - OSPCB",02-03-2024 10:00:00,22.265816,86.174829,PM2.5,52,137,88
India,Odisha,Rairangpur,"Divisional Forest Office, Rairangpur - OSPCB",02-03-2024 10:00:00,22.265816,86.174829,CO,14,38,20
India,Odisha,Rourkela,"Fertilizer Township, Rourkela - OSPCB",02-03-2024 10:00:00,22.18972222,84.86277778,PM10,63,187,105
India,Odisha,Talcher,"Talcher Coalfields,Talcher - OSPCB",02-03-2024 10:00:00,20.9360711,85.1707021,NO2,33,51,44
India,Odisha,Tensa,"Barsua Iron Ore Mines, Tensa - OSPCB",02-03-2024 10:00:00,21.869985,85.167016,PM2.5,45,82,62
India,Odisha,Tensa,"Barsua Iron Ore Mines, Tensa - OSPCB",02-03-2024 10:00:00,21.869985,85.167016,NH3,6,10,8
India,Puducherry,Puducherry,"Jawahar Nagar, Puducherry - PPCC",02-03-2024 10:00:00,11.9309,79.8027,SO2,4,11,7
India,Punjab,Amritsar,"Golden Temple, Amritsar - PPCB",02-03-2024 10:00:00,31.620000,74.876512,NO2,18,57,28
India,Punjab,Amritsar,"Golden Temple, Amritsar - PPCB",02-03-2024 10:00:00,31.620000,74.876512,OZONE,26,33,28
India,Punjab,Bathinda,"Hardev Nagar, Bathinda - PPCB",02-03-2024 10:00:00,30.233011,74.907758,SO2,1,18,7
India,Punjab,Jalandhar,"Civil Line, Jalandhar - PPCB",02-03-2024 10:00:00,31.321907,75.578914,CO,25,72,32
India,Punjab,Khanna,"Kalal Majra, Khanna - PPCB",02-03-2024 10:00:00,30.736056 ,76.209694,NO2,NA,NA,NA
India,Punjab,Khanna,"Kalal Majra, Khanna - PPCB",02-03-2024 10:00:00,30.736056 ,76.209694,NH3,NA,NA,NA
India,Punjab,Khanna,"Kalal Majra, Khanna - PPCB",02-03-2024 10:00:00,30.736056 ,76.209694,CO,12,46,22
India,Punjab,Ludhiana,"Punjab Agricultural University, Ludhiana - PPCB",02-03-2024 10:00:00,30.9028,75.8086,NO2,20,29,22
India,Punjab,Ludhiana,"Punjab Agricultural University, Ludhiana - PPCB",02-03-2024 10:00:00,30.9028,75.8086,NH3,4,7,5
India,Punjab,Ludhiana,"Punjab Agricultural University, Ludhiana - PPCB",02-03-2024 10:00:00,30.9028,75.8086,CO,2,107,39
India,Punjab,Mandi Gobindgarh,"RIMT University, Mandi Gobindgarh - PPCB",02-03-2024 10:00:00,30.649961,76.331442,CO,12,36,19
India,Punjab,Patiala,"Model Town, Patiala - PPCB",02-03-2024 10:00:00,30.349388,76.366642,PM2.5,46,212,97
India,Punjab,Rupnagar,"Ratanpura, Rupnagar - Ambuja Cements",02-03-2024 10:00:00,31.0325454,76.5623046,PM2.5,16,373,137
India,Rajasthan,Ajmer,"Civil Lines,  Ajmer - RSPCB",02-03-2024 10:00:00,26.470859,74.646594,CO,14,84,28
India,Rajasthan,Ajmer,"Civil Lines,  Ajmer - RSPCB",02-03-2024 10:00:00,26.470859,74.646594,OZONE,12,44,30
India,Rajasthan,Alwar,"Moti Doongri, Alwar - RSPCB",02-03-2024 10:00:00,27.554793,76.611536,PM2.5,22,89,44
India,Rajasthan,Alwar,"Moti Doongri, Alwar - RSPCB",02-03-2024 10:00:00,27.554793,76.611536,NO2,38,53,46
India,Rajasthan,Alwar,"Moti Doongri, Alwar - RSPCB",02-03-2024 10:00:00,27.554793,76.611536,NH3,5,8,6
India,Rajasthan,Alwar,"Moti Doongri, Alwar - RSPCB",02-03-2024 10:00:00,27.554793,76.611536,OZONE,10,22,13
India,Rajasthan,Baran,"Bamboliya, Baran - RSPCB",02-03-2024 10:00:00,25.106006,76.469948,PM10,34,128,64
India,Rajasthan,Baran,"Bamboliya, Baran - RSPCB",02-03-2024 10:00:00,25.106006,76.469948,NO2,6,19,12
India,Rajasthan,Barmer,"Railway Colony, Barmer - RSPCB",02-03-2024 10:00:00,25.747299,71.393989,PM2.5,2,92,48
India,Rajasthan,Barmer,"Railway Colony, Barmer - RSPCB",02-03-2024 10:00:00,25.747299,71.393989,SO2,6,20,12
India,Rajasthan,Bharatpur,"Krishna Nagar, Bharatpur - RSPCB",02-03-2024 10:00:00,27.215415,77.50873,PM10,14,173,68
India,Rajasthan,Bhiwadi,"RIICO Ind. Area III, Bhiwadi - RSPCB",02-03-2024 10:00:00,28.194909,76.862296,NO2,15,28,21
India,Rajasthan,Bhiwadi,"RIICO Ind. Area III, Bhiwadi - RSPCB",02-03-2024 10:00:00,28.194909,76.862296,OZONE,23,88,41
India,Rajasthan,Bhiwadi,"Vasundhara Nagar_UIT, Bhiwadi - RSPCB",02-03-2024 10:00:00,28.207266,76.829265,PM2.5,22,391,102
India,Rajasthan,Bhiwadi,"Vasundhara Nagar_UIT, Bhiwadi - RSPCB",02-03-2024 10:00:00,28.207266,76.829265,NH3,10,18,12
India,Rajasthan,Bikaner,"MM Ground, Bikaner - RSPCB",02-03-2024 10:00:00,28.018792,73.292658,NO2,15,80,39
India,Rajasthan,Bundi,"New Colony, Bundi - RSPCB",02-03-2024 10:00:00,25.435774,75.644272,PM10,31,134,75
India,Rajasthan,Bundi,"New Colony, Bundi - RSPCB",02-03-2024 10:00:00,25.435774,75.644272,NO2,3,29,10
India,Rajasthan,Chittorgarh,"Shastri Nagar, Chittorgarh - RSPCB",02-03-2024 10:00:00,24.892047,74.623527,PM10,36,164,86
India,Rajasthan,Chittorgarh,"Shastri Nagar, Chittorgarh - RSPCB",02-03-2024 10:00:00,24.892047,74.623527,OZONE,17,139,28
India,Rajasthan,Churu,"Subash Chowk, Churu - RSPCB",02-03-2024 10:00:00,28.296139,74.961696,OZONE,39,129,59
India,Rajasthan,Dausa,"Khatikan Mohalla, Dausa - RSPCB",02-03-2024 10:00:00,26.895552,76.334753,SO2,7,18,12
India,Rajasthan,Dholpur,"Raja Ganj, Dholpur - RSPCB",02-03-2024 10:00:00,26.699557,77.898881,PM2.5,27,79,42
India,Rajasthan,Dholpur,"Raja Ganj, Dholpur - RSPCB",02-03-2024 10:00:00,26.699557,77.898881,SO2,4,8,6
India,Rajasthan,Dholpur,"Raja Ganj, Dholpur - RSPCB",02-03-2024 10:00:00,26.699557,77.898881,CO,12,28,16
India,Rajasthan,Dungarpur,"Bhoiwada, Dungarpur - RSPCB",02-03-2024 10:00:00,23.837789,73.714926,NO2,21,21,21
India,Rajasthan,Dungarpur,"Bhoiwada, Dungarpur - RSPCB",02-03-2024 10:00:00,23.837789,73.714926,NH3,8,15,11
India,Rajasthan,Hanumangarh,"Housing Board, Hanumangarh - RSPCB",02-03-2024 10:00:00,29.610750,74.283608,PM2.5,60,312,177
India,Rajasthan,Hanumangarh,"Housing Board, Hanumangarh - RSPCB",02-03-2024 10:00:00,29.610750,74.283608,NO2,14,53,29
India,Rajasthan,Hanumangarh,"Housing Board, Hanumangarh - RSPCB",02-03-2024 10:00:00,29.610750,74.283608,CO,17,60,30
India,Rajasthan,Jaipur,"Adarsh Nagar, Jaipur - RSPCB",02-03-2024 10:00:00,26.902909,75.836858,NO2,22,53,34
India,Rajasthan,Jaipur,"Mansarovar Sector-12, Jaipur - RSPCB",02-03-2024 10:00:00,26.843698,75.766894,NO2,25,34,30
India,Rajasthan,Jaipur,"RIICO Sitapura, Jaipur - RSPCB",02-03-2024 10:00:00,26.786682,75.827928,CO,12,72,29
India,Rajasthan,Jaipur,"Sector-2 Murlipura, Jaipur - RSPCB",02-03-2024 10:00:00,26.960669,75.771817,PM2.5,4,36,18
India,Rajasthan,Jaipur,"Shastri Nagar, Jaipur - RSPCB",02-03-2024 10:00:00,26.9502929,75.730943,NO2,15,49,31
India,Rajasthan,Jalore,"Mudtra Sili, Jalore - RSPCB",02-03-2024 10:00:00,25.344694,72.626208,NO2,7,61,20
India,Rajasthan,Jhalawar,"Rajlaxmi Nagar, Jhalawar - RSPCB",02-03-2024 10:00:00,24.588397,76.172782,PM10,24,143,61
India,Rajasthan,Jhalawar,"Rajlaxmi Nagar, Jhalawar - RSPCB",02-03-2024 10:00:00,24.588397,76.172782,SO2,4,14,7
India,Rajasthan,Jhalawar,"Rajlaxmi Nagar, Jhalawar - RSPCB",02-03-2024 10:00:00,24.588397,76.172782,OZONE,37,94,46
India,Rajasthan,Jhunjhunu,"Indra Nagar, Jhunjhunu - RSPCB",02-03-2024 10:00:00,28.108988,75.386577,NH3,40,80,52
India,Rajasthan,Jhunjhunu,"Indra Nagar, Jhunjhunu - RSPCB",02-03-2024 10:00:00,28.108988,75.386577,CO,10,27,16
India,Rajasthan,Jhunjhunu,"Indra Nagar, Jhunjhunu - RSPCB",02-03-2024 10:00:00,28.108988,75.386577,OZONE,34,72,38
India,Rajasthan,Jodhpur,"Collectorate, Jodhpur - RSPCB",02-03-2024 10:00:00,26.268249,73.0193853,PM2.5,24,257,109
India,Rajasthan,Jodhpur,"Collectorate, Jodhpur - RSPCB",02-03-2024 10:00:00,26.268249,73.0193853,PM10,32,283,141
India,Rajasthan,Jodhpur,"Digari Kalan, Jodhpur - RSPCB",02-03-2024 10:00:00,26.295810,73.082283,SO2,1,11,4
India,Rajasthan,Jodhpur,"Digari Kalan, Jodhpur - RSPCB",02-03-2024 10:00:00,26.295810,73.082283,CO,16,41,21
India,Rajasthan,Karauli,"Satyawati Vihar, Karauli - RSPCB",02-03-2024 10:00:00,26.506177,77.025989,NO2,1,33,11
India,Rajasthan,Karauli,"Satyawati Vihar, Karauli - RSPCB",02-03-2024 10:00:00,26.506177,77.025989,NH3,2,7,4
India,Rajasthan,Kota,"Dhanmandi, Kota - RSPCB",02-03-2024 10:00:00,25.164090,75.858137,CO,15,108,24
India,Rajasthan,Kota,"Nayapura, Kota - RSPCB",02-03-2024 10:00:00,25.196024,75.855668,NO2,15,42,27
India,Rajasthan,Kota,"Nayapura, Kota - RSPCB",02-03-2024 10:00:00,25.196024,75.855668,CO,15,40,24
India,Rajasthan,Kota,"Shrinath Puram, Kota - RSPCB",02-03-2024 10:00:00,25.14389,75.821256,NH3,8,15,13
India,Rajasthan,Nagaur,"Karni Colony, Nagaur - RSPCB",02-03-2024 10:00:00,27.213494,73.734444,PM2.5,10,159,56
India,Rajasthan,Pratapgarh,"Pragati Nagar, Pratapgarh - RSPCB",02-03-2024 10:00:00,24.041198,74.780702,SO2,8,24,16
India,Rajasthan,Rajsamand,"Dhoinda, Rajsamand - RSPCB",02-03-2024 10:00:00,25.036360,73.883502,PM2.5,17,95,52
India,Rajasthan,Rajsamand,"Dhoinda, Rajsamand - RSPCB",02-03-2024 10:00:00,25.036360,73.883502,PM10,26,95,66
India,Rajasthan,Rajsamand,"Dhoinda, Rajsamand - RSPCB",02-03-2024 10:00:00,25.036360,73.883502,NO2,8,32,18
India,Rajasthan,Rajsamand,"Dhoinda, Rajsamand - RSPCB",02-03-2024 10:00:00,25.036360,73.883502,NH3,4,5,5
India,Rajasthan,Sawai Madhopur,"Sahu Nagar, Sawai Madhopur - RSPCB",02-03-2024 10:00:00,26.031443,76.359327,NH3,7,38,25
India,Rajasthan,Sirohi,"Vedhaynath Colony, Sirohi - RSPCB",02-03-2024 10:00:00,24.885261,72.857549,PM2.5,34,120,67
India,Rajasthan,Sri Ganganagar,"Old City, Sri Ganganagar - RSPCB",02-03-2024 10:00:00,29.931624,73.864511,PM2.5,52,308,115
India,Rajasthan,Sri Ganganagar,"Old City, Sri Ganganagar - RSPCB",02-03-2024 10:00:00,29.931624,73.864511,PM10,99,500,257
India,Rajasthan,Sri Ganganagar,"Old City, Sri Ganganagar - RSPCB",02-03-2024 10:00:00,29.931624,73.864511,NH3,4,21,10
India,Rajasthan,Tonk,"Shastri Nagar, Tonk - RSPCB",02-03-2024 10:00:00,26.159933,75.780517,NO2,11,32,20
India,Rajasthan,Udaipur,"Ashok Nagar, Udaipur - RSPCB",02-03-2024 10:00:00,24.5886166,73.6321397,NO2,83,125,105
India,Sikkim,Gangtok,"Zero Point GICI, Gangtok - SSPCB",02-03-2024 10:00:00,27.338530,88.614099,SO2,9,10,10
India,Sikkim,Gangtok,"Zero Point GICI, Gangtok - SSPCB",02-03-2024 10:00:00,27.338530,88.614099,OZONE,16,66,21
India,TamilNadu,Ariyalur,"Keelapalur, Ariyalur - TNPCB",02-03-2024 10:00:00,11.06825,79.07033,PM2.5,40,170,72
India,TamilNadu,Chennai,"Alandur Bus Depot, Chennai - CPCB",02-03-2024 10:00:00,12.9099161,80.1076538,OZONE,1,7,3
India,TamilNadu,Chennai,"Arumbakkam, Chennai - TNPCB",02-03-2024 10:00:00,13.0664,80.2112 ,PM2.5,61,149,90
India,TamilNadu,Chennai,"Arumbakkam, Chennai - TNPCB",02-03-2024 10:00:00,13.0664,80.2112 ,PM10,62,135,98
India,TamilNadu,Chennai,"Arumbakkam, Chennai - TNPCB",02-03-2024 10:00:00,13.0664,80.2112 ,NO2,9,42,21
India,TamilNadu,Chennai,"Gandhi Nagar_Ennore, Chennai - TNPCB",02-03-2024 10:00:00,13.218341,80.32027,PM10,54,147,89
India,TamilNadu,Chennai,"Gandhi Nagar_Ennore, Chennai - TNPCB",02-03-2024 10:00:00,13.218341,80.32027,OZONE,27,29,27
India,TamilNadu,Chennai,"Kodungaiyur, Chennai - TNPCB",02-03-2024 10:00:00,13.1278,80.2642,PM2.5,15,42,31
India,TamilNadu,Chennai,"Manali, Chennai - CPCB",02-03-2024 10:00:00,13.164544,80.26285,OZONE,8,29,9
India,TamilNadu,Chennai,"Perungudi, Chennai - TNPCB",02-03-2024 10:00:00,12.9533,80.2357,PM2.5,49,220,112
India,TamilNadu,Chennai,"Perungudi, Chennai - TNPCB",02-03-2024 10:00:00,12.9533,80.2357,PM10,69,248,120
India,TamilNadu,Chennai,"Perungudi, Chennai - TNPCB",02-03-2024 10:00:00,12.9533,80.2357,NO2,4,22,10
India,TamilNadu,Chennai,"Royapuram, Chennai - TNPCB",02-03-2024 10:00:00,13.1036,80.2909,NO2,11,48,22
India,TamilNadu,Chennai,"Royapuram, Chennai - TNPCB",02-03-2024 10:00:00,13.1036,80.2909,SO2,1,12,2
India,TamilNadu,Chennai,"Velachery Res. Area, Chennai - CPCB",02-03-2024 10:00:00,13.0052189,80.2398125,OZONE,2,29,6
India,TamilNadu,Coimbatore,"PSG College of Arts and Science, Coimbatore - TNPCB",02-03-2024 10:00:00,11.0328,77.0349,OZONE,3,5,4
India,TamilNadu,Cuddalore,"Kudikadu, Cuddalore - TNPCB",02-03-2024 10:00:00,11.6829898,79.7532099,PM2.5,55,142,77
India,TamilNadu,Gummidipoondi,"Anthoni Pillai Nagar, Gummidipoondi - TNPCB",02-03-2024 10:00:00,13.4127,80.1081,NO2,8,15,11
India,TamilNadu,Gummidipoondi,"Anthoni Pillai Nagar, Gummidipoondi - TNPCB",02-03-2024 10:00:00,13.4127,80.1081,NH3,2,2,2
India,TamilNadu,Kanchipuram,"Kilambi, Kanchipuram - TNPCB",02-03-2024 10:00:00,12.864618,79.659968,PM10,NA,NA,NA
India,TamilNadu,Ooty,"Bombay Castel, Ooty - TNPCB",02-03-2024 10:00:00,11.4068288,76.7138973,PM10,17,83,34
India,TamilNadu,Ramanathapuram,"Chalai Bazaar, Ramanathapuram - TNPCB",02-03-2024 10:00:00,9.36399,78.831977,OZONE,14,14,14
India,TamilNadu,Tirupur,"Kumaran College, Tirupur - TNPCB",02-03-2024 10:00:00,11.0973603,77.3228673,PM2.5,23,66,38
India,TamilNadu,Tirupur,"Kumaran College, Tirupur - TNPCB",02-03-2024 10:00:00,11.0973603,77.3228673,SO2,15,30,18
India,TamilNadu,Virudhunagar,"Collectorate Office, Virudhunagar - TNPCB",02-03-2024 10:00:00,9.559382,77.948828,NO2,12,26,16
India,TamilNadu,Virudhunagar,"Collectorate Office, Virudhunagar - TNPCB",02-03-2024 10:00:00,9.559382,77.948828,SO2,4,7,5
India,Telangana,Hyderabad,"Central University, Hyderabad - TSPCB",02-03-2024 10:00:00,17.460103,78.334361,CO,10,31,15
India,Telangana,Hyderabad,"ECIL Kapra, Hyderabad - TSPCB",02-03-2024 10:00:00,17.470431,78.566959,NO2,12,13,13
India,Telangana,Hyderabad,"ECIL Kapra, Hyderabad - TSPCB",02-03-2024 10:00:00,17.470431,78.566959,OZONE,4,96,11
India,Telangana,Hyderabad,"ICRISAT Patancheru, Hyderabad - TSPCB",02-03-2024 10:00:00,17.518400,78.278777,NH3,2,2,2
India,Telangana,Hyderabad,"IITH Kandi, Hyderabad - TSPCB",02-03-2024 10:00:00,17.585705,78.126199,NO2,6,12,11
India,Telangana,Hyderabad,"IITH Kandi, Hyderabad - TSPCB",02-03-2024 10:00:00,17.585705,78.126199,NH3,2,2,2
India,Telangana,Hyderabad,"IITH Kandi, Hyderabad - TSPCB",02-03-2024 10:00:00,17.585705,78.126199,OZONE,26,27,26
India,Telangana,Hyderabad,"Kokapet, Hyderabad - TSPCB",02-03-2024 10:00:00,17.393559,78.339194,PM2.5,NA,NA,NA
India,Telangana,Hyderabad,"Kokapet, Hyderabad - TSPCB",02-03-2024 10:00:00,17.393559,78.339194,NO2,NA,NA,NA
India,Telangana,Hyderabad,"Kokapet, Hyderabad - TSPCB",02-03-2024 10:00:00,17.393559,78.339194,CO,24,25,24
India,Telangana,Hyderabad,"Kompally Municipal Office, Hyderabad - TSPCB",02-03-2024 10:00:00,17.544899,78.486949,PM2.5,29,87,54
India,Telangana,Hyderabad,"Nacharam_TSIIC IALA, Hyderabad - TSPCB",02-03-2024 10:00:00,17.429398,78.569354,PM2.5,56,72,61
India,Telangana,Hyderabad,"Nacharam_TSIIC IALA, Hyderabad - TSPCB",02-03-2024 10:00:00,17.429398,78.569354,CO,13,31,23
India,Telangana,Hyderabad,"Ramachandrapuram, Hyderabad - TSPCB",02-03-2024 10:00:00,17.528544,78.286195,NH3,NA,NA,NA
India,Telangana,Hyderabad,"Sanathnagar, Hyderabad - TSPCB",02-03-2024 10:00:00,17.4559458,78.4332152,NO2,19,189,81
India,Telangana,Hyderabad,"Sanathnagar, Hyderabad - TSPCB",02-03-2024 10:00:00,17.4559458,78.4332152,SO2,3,9,6
India,Telangana,Hyderabad,"Sanathnagar, Hyderabad - TSPCB",02-03-2024 10:00:00,17.4559458,78.4332152,CO,32,47,40
India,Telangana,Hyderabad,"Zoo Park, Hyderabad - TSPCB",02-03-2024 10:00:00,17.349694,78.451437,PM10,40,155,114
India,Telangana,Hyderabad,"Zoo Park, Hyderabad - TSPCB",02-03-2024 10:00:00,17.349694,78.451437,OZONE,17,25,19
India,Tripura,Agartala,"Bardowali, Agartala - Tripura SPCB",02-03-2024 10:00:00,23.8175497,91.2726974,SO2,26,29,27
India,Uttar_Pradesh,Agra,"Manoharpur, Agra - UPPCB",02-03-2024 10:00:00,27.23711,78.01936,CO,3,20,4
India,Uttar_Pradesh,Agra,"Rohta, Agra - UPPCB",02-03-2024 10:00:00,27.106972,78.000111,CO,1,12,3
India,Uttar_Pradesh,Agra,"Sanjay Palace, Agra - UPPCB",02-03-2024 10:00:00,27.19865833,78.00598056,OZONE,34,81,53
India,Uttar_Pradesh,Agra,"Sector-3B Avas Vikas Colony, Agra - UPPCB",02-03-2024 10:00:00,27.19412,77.96237,PM2.5,10,50,21
India,Uttar_Pradesh,Agra,"Sector-3B Avas Vikas Colony, Agra - UPPCB",02-03-2024 10:00:00,27.19412,77.96237,SO2,16,19,17
India,Uttar_Pradesh,Agra,"Shahjahan Garden, Agra - UPPCB",02-03-2024 10:00:00,27.169338,78.03582,SO2,41,46,43
India,Uttar_Pradesh,Agra,"Shastripuram, Agra - UPPCB",02-03-2024 10:00:00,27.19862,77.92066,SO2,14,17,15
India,Uttar_Pradesh,Baghpat,"Sardar Patel Inter College, Baghpat - UPPCB",02-03-2024 10:00:00,28.964949,77.278761,NO2,17,59,30
India,Uttar_Pradesh,Baghpat,"Sardar Patel Inter College, Baghpat - UPPCB",02-03-2024 10:00:00,28.964949,77.278761,CO,23,74,37
India,Uttar_Pradesh,Bareilly,"Civil Lines, Bareilly - UPPCB",02-03-2024 10:00:00,28.359581,79.414455,SO2,41,43,42
India,Uttar_Pradesh,Bareilly,"Civil Lines, Bareilly - UPPCB",02-03-2024 10:00:00,28.359581,79.414455,OZONE,2,25,15
India,Uttar_Pradesh,Bareilly,"Rajendra Nagar, Bareilly - UPPCB",02-03-2024 10:00:00,28.38910936,79.42963708,PM10,28,103,54
India,Uttar_Pradesh,Bareilly,"Rajendra Nagar, Bareilly - UPPCB",02-03-2024 10:00:00,28.38910936,79.42963708,NO2,18,40,30
India,Uttar_Pradesh,Bareilly,"Rajendra Nagar, Bareilly - UPPCB",02-03-2024 10:00:00,28.38910936,79.42963708,OZONE,9,30,11
India,Uttar_Pradesh,Bulandshahr,"Yamunapuram, Bulandshahr - UPPCB",02-03-2024 10:00:00,28.406963,77.849831,PM10,32,170,85
India,Uttar_Pradesh,Bulandshahr,"Yamunapuram, Bulandshahr - UPPCB",02-03-2024 10:00:00,28.406963,77.849831,SO2,25,58,40
India,Uttar_Pradesh,Firozabad,"Nagla Bhau, Firozabad - UPPCB",02-03-2024 10:00:00,27.168897,78.376960,PM2.5,17,50,30
India,Uttar_Pradesh,Firozabad,"Nagla Bhau, Firozabad - UPPCB",02-03-2024 10:00:00,27.168897,78.376960,PM10,14,49,27
India,Uttar_Pradesh,Firozabad,"Nagla Bhau, Firozabad - UPPCB",02-03-2024 10:00:00,27.168897,78.376960,OZONE,16,46,16
India,Uttar_Pradesh,Firozabad,"Vibhab Nagar, Firozabad - UPPCB",02-03-2024 10:00:00,27.1594,78.3953,NO2,12,14,14
India,Uttar_Pradesh,Ghaziabad,"Loni, Ghaziabad - UPPCB",02-03-2024 10:00:00,28.757294,77.278792,NH3,2,5,3
India,Uttar_Pradesh,Ghaziabad,"Loni, Ghaziabad - UPPCB",02-03-2024 10:00:00,28.757294,77.278792,SO2,13,45,26
India,Uttar_Pradesh,Ghaziabad,"Sanjay Nagar, Ghaziabad - UPPCB",02-03-2024 10:00:00,28.685382,77.453839,SO2,21,69,35
India,Uttar_Pradesh,Ghaziabad,"Sanjay Nagar, Ghaziabad - UPPCB",02-03-2024 10:00:00,28.685382,77.453839,CO,4,93,27
India,Uttar_Pradesh,Ghaziabad,"Vasundhara, Ghaziabad - UPPCB",02-03-2024 10:00:00,28.6603346,77.3572563,NO2,13,133,46
India,Uttar_Pradesh,Ghaziabad,"Vasundhara, Ghaziabad - UPPCB",02-03-2024 10:00:00,28.6603346,77.3572563,SO2,2,42,14
India,Uttar_Pradesh,Gorakhpur,"Madan Mohan Malaviya University of Technology, Gorakhpur - UPPCB",02-03-2024 10:00:00,26.730136,83.433859,OZONE,1,59,7
India,Uttar_Pradesh,Greater Noida,"Knowledge Park - III, Greater Noida - UPPCB",02-03-2024 10:00:00,28.47272,77.482000,PM2.5,32,317,101
India,Uttar_Pradesh,Greater Noida,"Knowledge Park - III, Greater Noida - UPPCB",02-03-2024 10:00:00,28.47272,77.482000,NH3,9,13,11
India,Uttar_Pradesh,Greater Noida,"Knowledge Park - V, Greater Noida - UPPCB",02-03-2024 10:00:00,28.557054,77.453663,PM2.5,37,301,104
India,Uttar_Pradesh,Greater Noida,"Knowledge Park - V, Greater Noida - UPPCB",02-03-2024 10:00:00,28.557054,77.453663,SO2,8,62,22
India,Uttar_Pradesh,Hapur,"Anand Vihar, Hapur - UPPCB",02-03-2024 10:00:00,28.725645,77.749675,PM2.5,35,177,72
India,Uttar_Pradesh,Hapur,"Anand Vihar, Hapur - UPPCB",02-03-2024 10:00:00,28.725645,77.749675,SO2,22,62,34
India,Uttar_Pradesh,Hapur,"Anand Vihar, Hapur - UPPCB",02-03-2024 10:00:00,28.725645,77.749675,CO,26,102,29
India,Uttar_Pradesh,Kanpur,"FTI Kidwai Nagar, Kanpur - UPPCB",02-03-2024 10:00:00,26.428282,80.327067,NO2,14,16,15
India,Uttar_Pradesh,Kanpur,"FTI Kidwai Nagar, Kanpur - UPPCB",02-03-2024 10:00:00,26.428282,80.327067,SO2,22,23,23
India,Uttar_Pradesh,Kanpur,"FTI Kidwai Nagar, Kanpur - UPPCB",02-03-2024 10:00:00,26.428282,80.327067,CO,26,44,27
India,Uttar_Pradesh,Kanpur,"FTI Kidwai Nagar, Kanpur - UPPCB",02-03-2024 10:00:00,26.428282,80.327067,OZONE,3,10,4
India,Uttar_Pradesh,Khurja,"Kalindi Kunj, Khurja - UPPCB",02-03-2024 10:00:00,28.2348927,77.8683002,PM2.5,24,107,49
India,Uttar_Pradesh,Khurja,"Kalindi Kunj, Khurja - UPPCB",02-03-2024 10:00:00,28.2348927,77.8683002,CO,1,24,1
India,Uttar_Pradesh,Lucknow,"B R Ambedkar University, Lucknow - UPPCB",02-03-2024 10:00:00,26.766433,80.927299,PM10,55,132,84
India,Uttar_Pradesh,Lucknow,"B R Ambedkar University, Lucknow - UPPCB",02-03-2024 10:00:00,26.766433,80.927299,NO2,11,12,12
India,Uttar_Pradesh,Lucknow,"B R Ambedkar University, Lucknow - UPPCB",02-03-2024 10:00:00,26.766433,80.927299,SO2,28,34,30
India,Uttar_Pradesh,Lucknow,"B R Ambedkar University, Lucknow - UPPCB",02-03-2024 10:00:00,26.766433,80.927299,CO,25,36,27
India,Uttar_Pradesh,Lucknow,"B R Ambedkar University, Lucknow - UPPCB",02-03-2024 10:00:00,26.766433,80.927299,OZONE,13,106,20
India,Uttar_Pradesh,Lucknow,"Gomti Nagar, Lucknow - UPPCB",02-03-2024 10:00:00,26.868120,81.005119,PM10,24,116,53
India,Uttar_Pradesh,Lucknow,"Gomti Nagar, Lucknow - UPPCB",02-03-2024 10:00:00,26.868120,81.005119,CO,36,44,37
India,Uttar_Pradesh,Lucknow,"Kendriya Vidyalaya, Lucknow - CPCB",02-03-2024 10:00:00,26.906111,80.948222,CO,1,102,6
India,Uttar_Pradesh,Lucknow,"Lalbagh, Lucknow - CPCB",02-03-2024 10:00:00,26.8458805,80.9365541,PM2.5,37,166,84
India,Uttar_Pradesh,Lucknow,"Lalbagh, Lucknow - CPCB",02-03-2024 10:00:00,26.8458805,80.9365541,NO2,10,79,25
India,Uttar_Pradesh,Lucknow,"Talkatora District Industries Center, Lucknow - CPCB",02-03-2024 10:00:00,26.83399722,80.8917361,OZONE,2,81,9
India,Uttar_Pradesh,Meerut,"Jai Bhim Nagar, Meerut - UPPCB",02-03-2024 10:00:00,28.9535882,77.7622941,PM2.5,35,161,66
India,Uttar_Pradesh,Meerut,"Jai Bhim Nagar, Meerut - UPPCB",02-03-2024 10:00:00,28.9535882,77.7622941,NO2,18,46,27
India,Uttar_Pradesh,Meerut,"Jai Bhim Nagar, Meerut - UPPCB",02-03-2024 10:00:00,28.9535882,77.7622941,SO2,13,26,16
India,Uttar_Pradesh,Moradabad,"Buddhi Vihar, Moradabad - UPPCB",02-03-2024 10:00:00,28.83526,78.74460,CO,30,51,35
India,Uttar_Pradesh,Moradabad,"Eco Herbal Park, Moradabad - UPPCB",02-03-2024 10:00:00,28.840739,78.697531,NO2,19,67,34
India,Uttar_Pradesh,Moradabad,"Employment Office, Moradabad - UPPCB",02-03-2024 10:00:00,28.88528,78.73880,PM2.5,NA,NA,NA
India,Uttar_Pradesh,Moradabad,"Employment Office, Moradabad - UPPCB",02-03-2024 10:00:00,28.88528,78.73880,PM10,NA,NA,NA
India,Uttar_Pradesh,Moradabad,"Employment Office, Moradabad - UPPCB",02-03-2024 10:00:00,28.88528,78.73880,NO2,NA,NA,NA
India,Uttar_Pradesh,Moradabad,"Kashiram Nagar, Moradabad - UPPCB",02-03-2024 10:00:00,28.849399,78.742362,NO2,23,37,30
India,Uttar_Pradesh,Moradabad,"Transport Nagar, Moradabad - UPPCB",02-03-2024 10:00:00,28.802625,78.753728,PM10,55,115,77
India,Uttar_Pradesh,Noida,"Sector-1, Noida - UPPCB",02-03-2024 10:00:00,28.5898,77.3101,NH3,4,6,5
India,Uttar_Pradesh,Prayagraj,"Jhunsi, Prayagraj - UPPCB",02-03-2024 10:00:00,25.425602,81.917152,NH3,5,5,5
India,Uttar_Pradesh,Prayagraj,"Motilal Nehru NIT, Prayagraj - UPPCB",02-03-2024 10:00:00,25.494,81.863,NO2,12,12,12
India,Uttar_Pradesh,Prayagraj,"Motilal Nehru NIT, Prayagraj - UPPCB",02-03-2024 10:00:00,25.494,81.863,SO2,18,22,20
India,Uttar_Pradesh,Prayagraj,"Motilal Nehru NIT, Prayagraj - UPPCB",02-03-2024 10:00:00,25.494,81.863,CO,11,53,30
India,Uttar_Pradesh,Prayagraj,"Motilal Nehru NIT, Prayagraj - UPPCB",02-03-2024 10:00:00,25.494,81.863,OZONE,5,30,8
India,Uttar_Pradesh,Varanasi,"Ardhali Bazar, Varanasi - UPPCB",02-03-2024 10:00:00,25.3505986,82.9083074,PM2.5,12,53,32
India,Uttar_Pradesh,Varanasi,"Ardhali Bazar, Varanasi - UPPCB",02-03-2024 10:00:00,25.3505986,82.9083074,NO2,13,42,26
India,Uttar_Pradesh,Varanasi,"IESD Banaras Hindu University, Varanasi - UPPCB",02-03-2024 10:00:00,25.262326,82.995408,NO2,2,2,2
India,Uttar_Pradesh,Varanasi,"IESD Banaras Hindu University, Varanasi - UPPCB",02-03-2024 10:00:00,25.262326,82.995408,SO2,21,24,22
India,Uttar_Pradesh,Varanasi,"Maldahiya, Varanasi - UPPCB",02-03-2024 10:00:00,25.32393,82.99687,PM10,18,72,38
India,Uttar_Pradesh,Vrindavan,"Omex Eternity, Vrindavan - UPPCB",02-03-2024 10:00:00,27.5714090,77.6557570,PM10,11,500,99
India,Uttar_Pradesh,Vrindavan,"Omex Eternity, Vrindavan - UPPCB",02-03-2024 10:00:00,27.5714090,77.6557570,NO2,2,3,3
India,Uttar_Pradesh,Vrindavan,"Omex Eternity, Vrindavan - UPPCB",02-03-2024 10:00:00,27.5714090,77.6557570,NH3,2,3,3
India,Uttar_Pradesh,Vrindavan,"Omex Eternity, Vrindavan - UPPCB",02-03-2024 10:00:00,27.5714090,77.6557570,CO,28,77,30
India,Uttarakhand,Dehradun,"Doon University, Dehradun - UKPCB",02-03-2024 10:00:00,30.269444,78.044167,PM2.5,12,231,74
India,Uttarakhand,Dehradun,"Doon University, Dehradun - UKPCB",02-03-2024 10:00:00,30.269444,78.044167,SO2,1,2,1
India,Uttarakhand,Kashipur,"Govt. Girls Inter College, Kashipur - UKPCB",02-03-2024 10:00:00,29.2124114,78.9611753,PM2.5,42,206,116
India,Uttarakhand,Kashipur,"Govt. Girls Inter College, Kashipur - UKPCB",02-03-2024 10:00:00,29.2124114,78.9611753,NH3,4,10,8
India,Uttarakhand,Kashipur,"Govt. Girls Inter College, Kashipur - UKPCB",02-03-2024 10:00:00,29.2124114,78.9611753,SO2,8,9,8
India,Uttarakhand,Rishikesh,"Shivaji Nagar, Rishikesh - UKPCB",02-03-2024 10:00:00,30.075911,78.2859547,PM2.5,6,82,33
India,Uttarakhand,Rishikesh,"Shivaji Nagar, Rishikesh - UKPCB",02-03-2024 10:00:00,30.075911,78.2859547,NH3,2,4,3
India,West_Bengal,Asansol,"Asansol Court Area, Asansol - WBPCB",02-03-2024 10:00:00,23.685297,86.945968,CO,18,106,45
India,West_Bengal,Asansol,"Asansol Court Area, Asansol - WBPCB",02-03-2024 10:00:00,23.685297,86.945968,OZONE,3,35,15
India,West_Bengal,Barrackpore,"SVSPA Campus, Barrackpore - WBPCB",02-03-2024 10:00:00,22.7605581,88.3617589,NO2,12,77,37
India,West_Bengal,Barrackpore,"SVSPA Campus, Barrackpore - WBPCB",02-03-2024 10:00:00,22.7605581,88.3617589,CO,48,96,69
India,West_Bengal,Barrackpore,"SVSPA Campus, Barrackpore - WBPCB",02-03-2024 10:00:00,22.7605581,88.3617589,OZONE,8,156,21
India,West_Bengal,Howrah,"Ghusuri, Howrah - WBPCB",02-03-2024 10:00:00,22.611968,88.347422,NH3,7,12,9
India,West_Bengal,Howrah,"Padmapukur, Howrah - WBPCB",02-03-2024 10:00:00,22.5687319,88.2797276,PM2.5,47,94,76
India,West_Bengal,Howrah,"Padmapukur, Howrah - WBPCB",02-03-2024 10:00:00,22.5687319,88.2797276,NH3,8,41,18
India,West_Bengal,Kolkata,"Ballygunge, Kolkata - WBPCB",02-03-2024 10:00:00,22.5367507,88.3638022,OZONE,6,72,12
India,West_Bengal,Kolkata,"Fort William, Kolkata - WBPCB",02-03-2024 10:00:00,22.556640,88.342674,CO,20,80,60
India,West_Bengal,Kolkata,"Jadavpur, Kolkata - WBPCB",02-03-2024 10:00:00,22.49929,88.36917,PM10,91,154,128
India,West_Bengal,Kolkata,"Jadavpur, Kolkata - WBPCB",02-03-2024 10:00:00,22.49929,88.36917,OZONE,12,99,17
India,West_Bengal,Kolkata,"Rabindra Bharati University, Kolkata - WBPCB",02-03-2024 10:00:00,22.627847,88.380669,NO2,20,22,21
India,West_Bengal,Kolkata,"Rabindra Bharati University, Kolkata - WBPCB",02-03-2024 10:00:00,22.627847,88.380669,SO2,9,25,16
India,West_Bengal,Kolkata,"Rabindra Sarobar, Kolkata - WBPCB",02-03-2024 10:00:00,22.51106,88.35142,PM2.5,86,175,121
India,West_Bengal,Kolkata,"Rabindra Sarobar, Kolkata - WBPCB",02-03-2024 10:00:00,22.51106,88.35142,NH3,4,15,8
India,West_Bengal,Kolkata,"Victoria, Kolkata - WBPCB",02-03-2024 10:00:00,22.5448082,88.3403691,NO2,7,32,19
India,West_Bengal,Kolkata,"Victoria, Kolkata - WBPCB",02-03-2024 10:00:00,22.5448082,88.3403691,SO2,6,24,14
India,West_Bengal,Kolkata,"Victoria, Kolkata - WBPCB",02-03-2024 10:00:00,22.5448082,88.3403691,OZONE,5,140,11
India,West_Bengal,Siliguri,"Ward-32 Bapupara, Siliguri - WBPCB",02-03-2024 10:00:00,26.6879226,88.4152495,OZONE,10,73,14
India,Andhra_Pradesh,Amaravati,"Secretariat, Amaravati - APPCB",02-03-2024 10:00:00,16.5150833,80.5181667,NH3,2,5,4
India,Andhra_Pradesh,Amaravati,"Secretariat, Amaravati - APPCB",02-03-2024 10:00:00,16.5150833,80.5181667,OZONE,1,37,7
India,Andhra_Pradesh,Anantapur,"Gulzarpet, Anantapur - APPCB",02-03-2024 10:00:00,14.675886,77.593027,PM2.5,29,52,40
India,Andhra_Pradesh,Chittoor,"Gangineni Cheruvu, Chittoor - APPCB",02-03-2024 10:00:00,13.204880,79.097889,PM2.5,NA,NA,NA
India,Andhra_Pradesh,Chittoor,"Gangineni Cheruvu, Chittoor - APPCB",02-03-2024 10:00:00,13.204880,79.097889,OZONE,NA,NA,NA
India,Andhra_Pradesh,Kadapa,"Yerramukkapalli, Kadapa - APPCB",02-03-2024 10:00:00,14.465052,78.824187,PM2.5,27,52,40
India,Andhra_Pradesh,Kadapa,"Yerramukkapalli, Kadapa - APPCB",02-03-2024 10:00:00,14.465052,78.824187,NO2,7,8,8
India,Andhra_Pradesh,Rajamahendravaram,"Anand Kala Kshetram, Rajamahendravaram - APPCB",02-03-2024 10:00:00,16.9872867,81.7363176,SO2,11,13,12
India,Andhra_Pradesh,Tirupati,"Tirumala, Tirupati - APPCB",02-03-2024 10:00:00,13.67,79.35,PM2.5,20,80,44
India,Andhra_Pradesh,Tirupati,"Vaikuntapuram, Tirupati - APPCB",02-03-2024 10:00:00,13.615387,79.409230,PM2.5,16,217,70
India,Andhra_Pradesh,Vijayawada,"HB Colony, Vijayawada - APPCB",02-03-2024 10:00:00,16.536107,80.594233,PM2.5,50,83,69
India,Andhra_Pradesh,Vijayawada,"Kanuru, Vijayawada - APPCB",02-03-2024 10:00:00,16.486692,80.699436,CO,48,48,48
India,Andhra_Pradesh,Vijayawada,"Rajiv Gandhi Park, Vijayawada - APPCB",02-03-2024 10:00:00,16.509717,80.612222,SO2,5,7,6
India,Andhra_Pradesh,Vijayawada,"Rajiv Nagar, Vijayawada - APPCB",02-03-2024 10:00:00,16.554731,80.649110,NH3,1,7,2
India,Andhra_Pradesh,Vijayawada,"Rajiv Nagar, Vijayawada - APPCB",02-03-2024 10:00:00,16.554731,80.649110,SO2,13,42,22
India,Andhra_Pradesh,Visakhapatnam,"GVM Corporation, Visakhapatnam - APPCB",02-03-2024 10:00:00,17.72,83.3,NH3,3,9,5
India,Assam,Byrnihat,"Central Academy for SFS, Byrnihat - PCBA",02-03-2024 10:00:00,26.071318,91.87488,NO2,NA,NA,NA
India,Assam,Byrnihat,"Central Academy for SFS, Byrnihat - PCBA",02-03-2024 10:00:00,26.071318,91.87488,CO,28,80,70
India,Assam,Byrnihat,"Central Academy for SFS, Byrnihat - PCBA",02-03-2024 10:00:00,26.071318,91.87488,OZONE,11,20,14
India,Assam,Guwahati,"IITG, Guwahati - PCBA",02-03-2024 10:00:00,26.2028636,91.70046436,NH3,5,5,5
India,Assam,Guwahati,"Pan Bazaar, Guwahati - PCBA",02-03-2024 10:00:00,26.187500,91.744194,NO2,2,16,7
India,Assam,Guwahati,"Railway Colony, Guwahati - PCBA",02-03-2024 10:00:00,26.181742,91.78063,PM10,89,307,175
India,Assam,Guwahati,"Railway Colony, Guwahati - PCBA",02-03-2024 10:00:00,26.181742,91.78063,CO,22,120,67
India,Assam,Guwahati,"Railway Colony, Guwahati - PCBA",02-03-2024 10:00:00,26.181742,91.78063,OZONE,2,29,19
India,Assam,Nagaon,"Christianpatty, Nagaon - PCBA",02-03-2024 10:00:00,26.349082,92.68449,PM2.5,60,452,197
India,Assam,Nagaon,"Christianpatty, Nagaon - PCBA",02-03-2024 10:00:00,26.349082,92.68449,PM10,69,476,172
India,Assam,Nagaon,"Christianpatty, Nagaon - PCBA",02-03-2024 10:00:00,26.349082,92.68449,CO,2,129,2
India,Assam,Nalbari,"Bata Chowk, Nalbari - PCBA",02-03-2024 10:00:00,26.446912,91.439057,SO2,3,8,6
India,Assam,Nalbari,"Bata Chowk, Nalbari - PCBA",02-03-2024 10:00:00,26.446912,91.439057,OZONE,4,125,20
India,Assam,Silchar,"Tarapur, Silchar - PCBA",02-03-2024 10:00:00,24.82827,92.79525,NO2,22,43,31
India,Bihar,Araria,"Kharahiya Basti, Araria - BSPCB",02-03-2024 10:00:00,26.146529,87.454184,NH3,8,10,9
India,Bihar,Araria,"Kharahiya Basti, Araria - BSPCB",02-03-2024 10:00:00,26.146529,87.454184,SO2,14,17,15
India,Bihar,Bettiah,"Kamalnath Nagar, Bettiah - BSPCB",02-03-2024 10:00:00,26.80365,84.51954,CO,62,69,64
India,Bihar,Bhagalpur,"DM Office_Kachari Chowk, Bhagalpur - BSPCB",02-03-2024 10:00:00,25.251013,86.989001,PM2.5,45,328,190
India,Bihar,Bhagalpur,"DM Office_Kachari Chowk, Bhagalpur - BSPCB",02-03-2024 10:00:00,25.251013,86.989001,OZONE,5,24,15
India,Bihar,Bihar Sharif,"D M Colony, Bihar Sharif - BSPCB",02-03-2024 10:00:00,25.204762,85.514960,PM2.5,22,120,67
India,Bihar,Bihar Sharif,"D M Colony, Bihar Sharif - BSPCB",02-03-2024 10:00:00,25.204762,85.514960,NO2,8,10,9
India,Bihar,Bihar Sharif,"D M Colony, Bihar Sharif - BSPCB",02-03-2024 10:00:00,25.204762,85.514960,NH3,2,2,2
India,Bihar,Chhapra,"Darshan Nagar, Chhapra - BSPCB",02-03-2024 10:00:00,25.7808257,84.7446768,PM2.5,68,353,213
India,Bihar,Chhapra,"Darshan Nagar, Chhapra - BSPCB",02-03-2024 10:00:00,25.7808257,84.7446768,SO2,24,106,58
India,Bihar,Chhapra,"Darshan Nagar, Chhapra - BSPCB",02-03-2024 10:00:00,25.7808257,84.7446768,OZONE,1,47,8
India,Bihar,Gaya,"Kareemganj, Gaya - BSPCB",02-03-2024 10:00:00,24.792403,84.992416,NH3,1,5,3
India,Bihar,Gaya,"SFTI Kusdihra, Gaya - BSPCB",02-03-2024 10:00:00,24.762518,84.982348,CO,16,70,39
India,Bihar,Hajipur,"Industrial Area, Hajipur - BSPCB",02-03-2024 10:00:00,25.697189,85.245900,PM2.5,31,170,88
India,Bihar,Hajipur,"Industrial Area, Hajipur - BSPCB",02-03-2024 10:00:00,25.697189,85.245900,NO2,2,161,98
India,Bihar,Katihar,"Mirchaibari, Katihar - BSPCB",02-03-2024 10:00:00,25.560083,87.553265,CO,13,13,13
India,Bihar,Kishanganj,"SDM Office_Khagra, Kishanganj - BSPCB",02-03-2024 10:00:00,26.0881305,87.93840336,NO2,38,47,42
India,Bihar,Kishanganj,"SDM Office_Khagra, Kishanganj - BSPCB",02-03-2024 10:00:00,26.0881305,87.93840336,CO,2,25,6
India,Bihar,Kishanganj,"SDM Office_Khagra, Kishanganj - BSPCB",02-03-2024 10:00:00,26.0881305,87.93840336,OZONE,20,47,37
India,Bihar,Manguraha,"Forest Rest House, Manguraha - BSPCB",02-03-2024 10:00:00,27.308328,84.531742,PM2.5,48,183,75
India,Bihar,Manguraha,"Forest Rest House, Manguraha - BSPCB",02-03-2024 10:00:00,27.308328,84.531742,NH3,1,1,1
India,Bihar,Manguraha,"Forest Rest House, Manguraha - BSPCB",02-03-2024 10:00:00,27.308328,84.531742,SO2,3,3,3
India,Bihar,Motihari,"Gandak Colony, Motihari - BSPCB",02-03-2024 10:00:00,26.63086,84.90051,PM2.5,33,306,143
India,Bihar,Motihari,"Gandak Colony, Motihari - BSPCB",02-03-2024 10:00:00,26.63086,84.90051,OZONE,24,88,49
India,Bihar,Muzaffarpur,"Buddha Colony, Muzaffarpur - BSPCB",02-03-2024 10:00:00,26.11442,85.39813,NO2,NA,NA,NA
India,Bihar,Muzaffarpur,"MIT-Daudpur Kothi, Muzaffarpur - BSPCB",02-03-2024 10:00:00,26.1403345,85.3650192,CO,5,126,5
India,Bihar,Patna,"DRM Office Danapur, Patna - BSPCB",02-03-2024 10:00:00,25.586562,85.043586,PM2.5,91,287,180
India,Bihar,Patna,"Govt. High School Shikarpur, Patna - BSPCB",02-03-2024 10:00:00,25.592539,85.227158,NO2,23,28,25
India,Bihar,Patna,"Muradpur, Patna - BSPCB",02-03-2024 10:00:00,25.619651,85.147382,PM10,112,448,240
India,Bihar,Patna,"Rajbansi Nagar, Patna - BSPCB",02-03-2024 10:00:00,25.599486,85.113666,PM10,111,500,197
India,Bihar,Patna,"Samanpura, Patna - BSPCB",02-03-2024 10:00:00,25.596727,85.085624,PM10,121,495,297
India,Bihar,Patna,"Samanpura, Patna - BSPCB",02-03-2024 10:00:00,25.596727,85.085624,SO2,15,16,16
India,Bihar,Patna,"Samanpura, Patna - BSPCB",02-03-2024 10:00:00,25.596727,85.085624,OZONE,2,106,22
India,Bihar,Purnia,"Mariam Nagar, Purnia - BSPCB",02-03-2024 10:00:00,25.366336,87.117468,NH3,1,1,1
India,Bihar,Purnia,"Mariam Nagar, Purnia - BSPCB",02-03-2024 10:00:00,25.366336,87.117468,SO2,15,23,19
India,Bihar,Rajgir,"Dangi Tola, Rajgir - BSPCB",02-03-2024 10:00:00,25.03280,85.41948,SO2,NA,NA,NA
India,Bihar,Rajgir,"Dangi Tola, Rajgir - BSPCB",02-03-2024 10:00:00,25.03280,85.41948,OZONE,20,27,23
India,Bihar,Saharsa,"Police Line, Saharsa - BSPCB",02-03-2024 10:00:00,25.892357,86.590325,OZONE,19,76,26
India,Bihar,Sasaram,"Dada Peer, Sasaram - BSPCB",02-03-2024 10:00:00,24.952822,84.002396,PM10,48,133,87
India,Bihar,Siwan,"Chitragupta Nagar, Siwan - BSPCB",02-03-2024 10:00:00,26.2271665,84.3570427,PM2.5,22,344,204
India,Bihar,Siwan,"Chitragupta Nagar, Siwan - BSPCB",02-03-2024 10:00:00,26.2271665,84.3570427,CO,4,177,84
India,Chandigarh,Chandigarh,"Sector 22, Chandigarh - CPCC",02-03-2024 10:00:00,30.735567,76.775714,PM2.5,42,349,170
India,Chandigarh,Chandigarh,"Sector 22, Chandigarh - CPCC",02-03-2024 10:00:00,30.735567,76.775714,PM10,32,500,151
India,Chandigarh,Chandigarh,"Sector-25, Chandigarh - CPCC",02-03-2024 10:00:00,30.751462,76.762879,PM2.5,95,298,206
India,Chandigarh,Chandigarh,"Sector-25, Chandigarh - CPCC",02-03-2024 10:00:00,30.751462,76.762879,NO2,15,51,29
India,Chandigarh,Chandigarh,"Sector-25, Chandigarh - CPCC",02-03-2024 10:00:00,30.751462,76.762879,NH3,18,51,25
India,Chandigarh,Chandigarh,"Sector-25, Chandigarh - CPCC",02-03-2024 10:00:00,30.751462,76.762879,OZONE,1,52,17
India,Chandigarh,Chandigarh,"Sector-53, Chandigarh - CPCC",02-03-2024 10:00:00,30.719859,76.738637,PM10,35,292,142
India,Chandigarh,Chandigarh,"Sector-53, Chandigarh - CPCC",02-03-2024 10:00:00,30.719859,76.738637,NH3,5,8,6
India,Chandigarh,Chandigarh,"Sector-53, Chandigarh - CPCC",02-03-2024 10:00:00,30.719859,76.738637,SO2,10,38,21
India,Chhattisgarh,Bhilai,"32Bungalows, Bhilai - CECB",02-03-2024 10:00:00,21.194815,81.314770,NO2,26,38,33
India,Chhattisgarh,Bhilai,"32Bungalows, Bhilai - CECB",02-03-2024 10:00:00,21.194815,81.314770,SO2,5,7,5
India,Chhattisgarh,Bhilai,"Civic Center, Bhilai - Bhilai Steel Plant",02-03-2024 10:00:00,21.185571,81.343175,CO,31,64,37
India,Chhattisgarh,Bhilai,"Hathkhoj, Bhilai - CECB",02-03-2024 10:00:00,21.224231,81.408350,NH3,7,9,8
India,Chhattisgarh,Bhilai,"Hathkhoj, Bhilai - CECB",02-03-2024 10:00:00,21.224231,81.408350,CO,14,77,41
India,Chhattisgarh,Bilaspur,"Mangala, Bilaspur - NTPC",02-03-2024 10:00:00,22.08815,82.13737,CO,NA,NA,NA
India,Chhattisgarh,Chhal,"Nawapara SECL Colony, Chhal - CECB",02-03-2024 10:00:00,22.118125,83.140608,CO,21,51,37
India,Chhattisgarh,Korba,"Rampur, Korba - CECB",02-03-2024 10:00:00,22.368195,82.746431,PM2.5,16,51,31
India,Chhattisgarh,Korba,"Rampur, Korba - CECB",02-03-2024 10:00:00,22.368195,82.746431,SO2,6,16,9
India,Chhattisgarh,Korba,"Urja Nagar, Korba - CECB",02-03-2024 10:00:00,22.348441,82.549611,SO2,3,17,5
India,Chhattisgarh,Milupara,"Govt. Higher Secondary School, Milupara - CECB",02-03-2024 10:00:00,22.1910172,83.5197009,PM2.5,NA,NA,NA
India,Chhattisgarh,Milupara,"Govt. Higher Secondary School, Milupara - CECB",02-03-2024 10:00:00,22.1910172,83.5197009,PM10,NA,NA,NA
India,Chhattisgarh,Raipur,"AIIMS, Raipur - CECB",02-03-2024 10:00:00,21.258815,81.578979,PM2.5,5,72,42
India,Chhattisgarh,Raipur,"Bhatagaon New ISBT, Raipur - CECB",02-03-2024 10:00:00,21.219665,81.630094,PM2.5,27,66,44
India,Chhattisgarh,Raipur,"Bhatagaon New ISBT, Raipur - CECB",02-03-2024 10:00:00,21.219665,81.630094,NH3,2,3,2
India,Chhattisgarh,Raipur,"Krishak Nagar, Raipur - CECB",02-03-2024 10:00:00,21.237755,81.705301,PM2.5,31,55,44
India,Chhattisgarh,Raipur,"Krishak Nagar, Raipur - CECB",02-03-2024 10:00:00,21.237755,81.705301,CO,30,42,36
India,Chhattisgarh,Raipur,"Krishak Nagar, Raipur - CECB",02-03-2024 10:00:00,21.237755,81.705301,OZONE,4,15,5
India,Chhattisgarh,Raipur,"Siltara Phase-II, Raipur - CECB",02-03-2024 10:00:00,21.371751,81.664929,PM10,81,182,127
India,Chhattisgarh,Raipur,"Siltara Phase-II, Raipur - CECB",02-03-2024 10:00:00,21.371751,81.664929,NH3,3,3,3
India,Chhattisgarh,Raipur,"Siltara Phase-II, Raipur - CECB",02-03-2024 10:00:00,21.371751,81.664929,CO,26,74,59
India,Chhattisgarh,Tumidih,"OP Jindal Industrial Park, Tumidih - CECB",02-03-2024 10:00:00,22.06631475,83.33820077,PM10,25,201,87
India,Chhattisgarh,Tumidih,"OP Jindal Industrial Park, Tumidih - CECB",02-03-2024 10:00:00,22.06631475,83.33820077,SO2,5,20,8
India,Delhi,Delhi,"Anand Vihar, Delhi - DPCC",02-03-2024 10:00:00,28.647622,77.3158090,CO,26,92,63
India,Delhi,Delhi,"Bawana, Delhi - DPCC",02-03-2024 10:00:00,28.776200,77.051074,NO2,19,88,46
India,Delhi,Delhi,"Bawana, Delhi - DPCC",02-03-2024 10:00:00,28.776200,77.051074,OZONE,8,197,18
India,Delhi,Delhi,"CRRI Mathura Road, Delhi - IMD",02-03-2024 10:00:00,28.5512005,77.2735737,PM10,30,148,94
India,Delhi,Delhi,"Chandni Chowk, Delhi - IITM",02-03-2024 10:00:00,28.656756,77.227234,NO2,NA,NA,NA
India,Delhi,Delhi,"DTU, Delhi - CPCB",02-03-2024 10:00:00,28.7500499,77.1112615,CO,20,52,24
India,Delhi,Delhi,"Dr. Karni Singh Shooting Range, Delhi - DPCC",02-03-2024 10:00:00,28.498571,77.264840,NH3,7,10,8
India,Delhi,Delhi,"Dr. Karni Singh Shooting Range, Delhi - DPCC",02-03-2024 10:00:00,28.498571,77.264840,CO,26,54,32
India,Delhi,Delhi,"Dwarka-Sector 8, Delhi - DPCC ",02-03-2024 10:00:00,28.5710274,77.0719006,SO2,3,12,7
India,Delhi,Delhi,"IGI Airport (T3), Delhi - IMD",02-03-2024 10:00:00,28.5627763,77.1180053,OZONE,7,82,13
India,Delhi,Delhi,"IHBAS, Dilshad Garden, Delhi - CPCB",02-03-2024 10:00:00,28.6811736,77.3025234,PM10,46,173,118
India,Delhi,Delhi,"IHBAS, Dilshad Garden, Delhi - CPCB",02-03-2024 10:00:00,28.6811736,77.3025234,CO,54,93,68
India,Delhi,Delhi,"IHBAS, Dilshad Garden, Delhi - CPCB",02-03-2024 10:00:00,28.6811736,77.3025234,OZONE,20,42,25
India,Delhi,Delhi,"ITO, Delhi - CPCB",02-03-2024 10:00:00,28.628624,77.241060,PM10,60,171,118
India,Delhi,Delhi,"ITO, Delhi - CPCB",02-03-2024 10:00:00,28.628624,77.241060,NH3,3,8,4
India,Delhi,Delhi,"Jahangirpuri, Delhi - DPCC",02-03-2024 10:00:00,28.732820,77.170633,NO2,58,149,96
India,Delhi,Delhi,"Jahangirpuri, Delhi - DPCC",02-03-2024 10:00:00,28.732820,77.170633,NH3,28,41,34
India,Delhi,Delhi,"Jahangirpuri, Delhi - DPCC",02-03-2024 10:00:00,28.732820,77.170633,OZONE,5,7,6
India,Delhi,Delhi,"Jawaharlal Nehru Stadium, Delhi - DPCC",02-03-2024 10:00:00,28.580280,77.233829,NO2,41,140,79
India,Delhi,Delhi,"Lodhi Road, Delhi - IITM",02-03-2024 10:00:00,28.588333,77.221667,SO2,NA,NA,NA
India,Delhi,Delhi,"Lodhi Road, Delhi - IITM",02-03-2024 10:00:00,28.588333,77.221667,CO,64,67,66
India,Delhi,Delhi,"Lodhi Road, Delhi - IMD",02-03-2024 10:00:00,28.5918245,77.2273074,CO,16,60,25
India,Delhi,Delhi,"Lodhi Road, Delhi - IMD",02-03-2024 10:00:00,28.5918245,77.2273074,OZONE,12,151,15
India,Delhi,Delhi,"Major Dhyan Chand National Stadium, Delhi - DPCC",02-03-2024 10:00:00,28.611281,77.237738,SO2,8,45,18
India,Delhi,Delhi,"Major Dhyan Chand National Stadium, Delhi - DPCC",02-03-2024 10:00:00,28.611281,77.237738,CO,76,106,83
India,Delhi,Delhi,"Mandir Marg, Delhi - DPCC",02-03-2024 10:00:00,28.636429,77.201067,PM2.5,23,207,96
India,Delhi,Delhi,"Mundka, Delhi - DPCC",02-03-2024 10:00:00,28.684678,77.076574,PM2.5,33,243,114
India,Delhi,Delhi,"NSIT Dwarka, Delhi - CPCB",02-03-2024 10:00:00,28.60909,77.0325413,NH3,10,13,12
India,Delhi,Delhi,"Najafgarh, Delhi - DPCC",02-03-2024 10:00:00,28.570173,76.933762,PM10,39,161,99
India,Delhi,Delhi,"Najafgarh, Delhi - DPCC",02-03-2024 10:00:00,28.570173,76.933762,NH3,1,1,1
India,Delhi,Delhi,"Najafgarh, Delhi - DPCC",02-03-2024 10:00:00,28.570173,76.933762,SO2,8,17,12
India,Delhi,Delhi,"Najafgarh, Delhi - DPCC",02-03-2024 10:00:00,28.570173,76.933762,CO,8,42,19
India,Delhi,Delhi,"Narela, Delhi - DPCC",02-03-2024 10:00:00,28.822836,77.101981,NH3,4,18,9
India,Delhi,Delhi,"North Campus, DU, Delhi - IMD",02-03-2024 10:00:00,28.6573814,77.1585447,OZONE,1,47,3
India,Delhi,Delhi,"Okhla Phase-2, Delhi - DPCC",02-03-2024 10:00:00,28.530785,77.271255,PM2.5,48,238,106
India,Delhi,Delhi,"Okhla Phase-2, Delhi - DPCC",02-03-2024 10:00:00,28.530785,77.271255,SO2,7,13,10
India,Delhi,Delhi,"Patparganj, Delhi - DPCC",02-03-2024 10:00:00,28.623763,77.287209,PM10,47,202,126
India,Delhi,Delhi,"Pusa, Delhi - DPCC",02-03-2024 10:00:00,28.639652,77.146275,PM2.5,NA,NA,NA
India,Delhi,Delhi,"Pusa, Delhi - DPCC",02-03-2024 10:00:00,28.639652,77.146275,NO2,NA,NA,NA
India,Delhi,Delhi,"Pusa, Delhi - DPCC",02-03-2024 10:00:00,28.639652,77.146275,SO2,NA,NA,NA
India,Delhi,Delhi,"R K Puram, Delhi - DPCC",02-03-2024 10:00:00,28.563262,77.186937,NO2,11,58,23
India,Delhi,Delhi,"Rohini, Delhi - DPCC",02-03-2024 10:00:00,28.732528,77.119920,NH3,9,16,11
India,Delhi,Delhi,"Shadipur, Delhi - CPCB",02-03-2024 10:00:00,28.6514781,77.1473105,PM2.5,55,310,175
India,Delhi,Delhi,"Sirifort, Delhi - CPCB",02-03-2024 10:00:00,28.5504249,77.2159377,NH3,6,15,10
India,Delhi,Delhi,"Sirifort, Delhi - CPCB",02-03-2024 10:00:00,28.5504249,77.2159377,OZONE,19,244,24
India,Delhi,Delhi,"Sonia Vihar, Delhi - DPCC",02-03-2024 10:00:00,28.710508,77.249485,NH3,5,14,8
India,Delhi,Delhi,"Sonia Vihar, Delhi - DPCC",02-03-2024 10:00:00,28.710508,77.249485,OZONE,17,201,23
India,Delhi,Delhi,"Sri Aurobindo Marg, Delhi - DPCC",02-03-2024 10:00:00,28.531346,77.190156,SO2,10,40,18
India,Delhi,Delhi,"Sri Aurobindo Marg, Delhi - DPCC",02-03-2024 10:00:00,28.531346,77.190156,OZONE,1,51,3
India,Delhi,Delhi,"Wazirpur, Delhi - DPCC",02-03-2024 10:00:00,28.699793,77.165453,PM2.5,40,331,135
India,Delhi,Delhi,"Wazirpur, Delhi - DPCC",02-03-2024 10:00:00,28.699793,77.165453,PM10,64,352,177
India,Delhi,Delhi,"Wazirpur, Delhi - DPCC",02-03-2024 10:00:00,28.699793,77.165453,SO2,3,51,21
India,Gujarat,Ahmedabad,"Chandkheda, Ahmedabad - IITM",02-03-2024 10:00:00,23.107969,72.574648,PM2.5,62,254,129
India,Gujarat,Ahmedabad,"Gyaspur, Ahmedabad - IITM",02-03-2024 10:00:00,22.977134,72.553024,PM2.5,25,318,81
India,Gujarat,Ahmedabad,"Gyaspur, Ahmedabad - IITM",02-03-2024 10:00:00,22.977134,72.553024,SO2,4,12,7
India,Gujarat,Ahmedabad,"Gyaspur, Ahmedabad - IITM",02-03-2024 10:00:00,22.977134,72.553024,CO,23,26,24
India,Gujarat,Ahmedabad,"Raikhad, Ahmedabad - IITM",02-03-2024 10:00:00,23.020509,72.579261,PM2.5,71,460,186
India,Gujarat,Ahmedabad,"Raikhad, Ahmedabad - IITM",02-03-2024 10:00:00,23.020509,72.579261,PM10,67,393,126
India,Gujarat,Ahmedabad,"Raikhad, Ahmedabad - IITM",02-03-2024 10:00:00,23.020509,72.579261,OZONE,5,42,16
India,Gujarat,Ahmedabad,"SAC ISRO Bopal, Ahmedabad - IITM",02-03-2024 10:00:00,23.041137,72.456691,CO,22,44,26
India,Gujarat,Ahmedabad,"SAC ISRO Satellite, Ahmedabad - IITM",02-03-2024 10:00:00,23.023389,72.515201,PM2.5,85,129,116
India,Gujarat,Ahmedabad,"SAC ISRO Satellite, Ahmedabad - IITM",02-03-2024 10:00:00,23.023389,72.515201,PM10,78,107,99
India,Gujarat,Ahmedabad,"Sardar Vallabhbhai Patel Stadium, Ahmedabad - IITM",02-03-2024 10:00:00,23.043070,72.562968,PM2.5,64,345,133
India,Gujarat,Ahmedabad,"Sardar Vallabhbhai Patel Stadium, Ahmedabad - IITM",02-03-2024 10:00:00,23.043070,72.562968,NO2,12,15,13
India,Gujarat,Ahmedabad,"Sardar Vallabhbhai Patel Stadium, Ahmedabad - IITM",02-03-2024 10:00:00,23.043070,72.562968,SO2,2,12,9
India,Gujarat,Ahmedabad,"Sardar Vallabhbhai Patel Stadium, Ahmedabad - IITM",02-03-2024 10:00:00,23.043070,72.562968,CO,15,28,28
India,Gujarat,Ankleshwar,"GIDC, Ankleshwar - GPCB",02-03-2024 10:00:00,21.613267,73.010555,NH3,7,7,7
India,Gujarat,Gandhinagar,"IIPHG Lekawada, Gandhinagar - IITM",02-03-2024 10:00:00,23.243639,72.68994,NH3,3,3,3
India,Gujarat,Nandesari,"GIDC, Nandesari - Nandesari Ind. Association",02-03-2024 10:00:00,22.410802,73.097923,SO2,61,72,67
India,Gujarat,Vapi,"Phase-1 GIDC, Vapi - GPCB",02-03-2024 10:00:00,20.362421,72.918013,NH3,8,9,8
India,Gujarat,Vapi,"Phase-1 GIDC, Vapi - GPCB",02-03-2024 10:00:00,20.362421,72.918013,SO2,46,48,47
India,Gujarat,Vatva,"Phase-4 GIDC, Vatva - GPCB",02-03-2024 10:00:00,22.969611,72.643500,CO,39,130,67
India,Haryana,Ambala,"Patti Mehar, Ambala - HSPCB",02-03-2024 10:00:00,30.379589,76.778328,NH3,6,8,8
India,Haryana,Ambala,"Patti Mehar, Ambala - HSPCB",02-03-2024 10:00:00,30.379589,76.778328,OZONE,1,6,3
India,Haryana,Bahadurgarh,"Arya Nagar, Bahadurgarh - HSPCB",02-03-2024 10:00:00,28.6701,76.9254,OZONE,38,48,44
India,Haryana,Ballabgarh,"Nathu Colony, Ballabgarh - HSPCB",02-03-2024 10:00:00,28.3419248,77.319699,PM10,52,210,98
India,Haryana,Bhiwani,"H.B. Colony, Bhiwani - HSPCB",02-03-2024 10:00:00,28.806223,76.141105,NO2,1,12,9
India,Haryana,Charkhi Dadri,"Mini Secretariat, Charkhi Dadri - HSPCB",02-03-2024 10:00:00,28.593883,76.270653,PM2.5,26,201,72
India,Haryana,Charkhi Dadri,"Mini Secretariat, Charkhi Dadri - HSPCB",02-03-2024 10:00:00,28.593883,76.270653,NO2,8,9,9
India,Haryana,Charkhi Dadri,"Mini Secretariat, Charkhi Dadri - HSPCB",02-03-2024 10:00:00,28.593883,76.270653,NH3,5,5,5
India,Haryana,Charkhi Dadri,"Mini Secretariat, Charkhi Dadri - HSPCB",02-03-2024 10:00:00,28.593883,76.270653,CO,9,17,10
India,Haryana,Dharuhera,"Municipal Corporation Office, Dharuhera -  HSPCB",02-03-2024 10:00:00,28.206800,76.799700,OZONE,15,72,15
India,Haryana,Faridabad,"New Industrial Town, Faridabad - HSPCB",02-03-2024 10:00:00,28.39072,77.30059,NO2,12,38,21
India,Haryana,Faridabad,"Sector 11, Faridabad - HSPCB",02-03-2024 10:00:00,28.376058,77.315741,PM2.5,25,328,96
India,Haryana,Faridabad,"Sector 11, Faridabad - HSPCB",02-03-2024 10:00:00,28.376058,77.315741,NO2,30,33,31
India,Haryana,Faridabad,"Sector 11, Faridabad - HSPCB",02-03-2024 10:00:00,28.376058,77.315741,OZONE,3,9,4
India,Haryana,Faridabad,"Sector 30, Faridabad - HSPCB",02-03-2024 10:00:00,28.4417,77.3217,OZONE,7,59,10
India,Haryana,Fatehabad,"Huda Sector, Fatehabad - HSPCB",02-03-2024 10:00:00,29.503664,75.467934,PM2.5,68,236,115
India,Haryana,Fatehabad,"Huda Sector, Fatehabad - HSPCB",02-03-2024 10:00:00,29.503664,75.467934,NO2,29,32,30
India,Haryana,Fatehabad,"Huda Sector, Fatehabad - HSPCB",02-03-2024 10:00:00,29.503664,75.467934,OZONE,20,40,34
India,Haryana,Gurugram,"Sector-51, Gurugram - HSPCB",02-03-2024 10:00:00,28.4227,77.0667,PM2.5,54,320,162
India,Haryana,Gurugram,"Sector-51, Gurugram - HSPCB",02-03-2024 10:00:00,28.4227,77.0667,CO,28,70,31
India,Haryana,Gurugram,"Teri Gram, Gurugram - HSPCB",02-03-2024 10:00:00,28.4275,77.1465,PM10,97,274,166
India,Haryana,Gurugram,"Teri Gram, Gurugram - HSPCB",02-03-2024 10:00:00,28.4275,77.1465,NO2,33,57,44
India,Haryana,Gurugram,"Vikas Sadan, Gurugram - HSPCB",02-03-2024 10:00:00,28.4501238,77.0263051,SO2,14,46,38
India,Haryana,Hisar,"Urban Estate-II, Hisar - HSPCB",02-03-2024 10:00:00,29.140560,75.744941,PM10,37,115,79
India,Haryana,Karnal,"Sector-12, Karnal - HSPCB",02-03-2024 10:00:00,29.695300,77.002700,PM2.5,8,36,17
India,Haryana,Karnal,"Sector-12, Karnal - HSPCB",02-03-2024 10:00:00,29.695300,77.002700,PM10,36,206,94
India,Haryana,Karnal,"Sector-12, Karnal - HSPCB",02-03-2024 10:00:00,29.695300,77.002700,NO2,7,12,10
India,Haryana,Karnal,"Sector-12, Karnal - HSPCB",02-03-2024 10:00:00,29.695300,77.002700,CO,26,63,30
India,Haryana,Kurukshetra,"Sector-7, Kurukshetra - HSPCB",02-03-2024 10:00:00,29.966942,76.875879,PM10,54,156,120
India,Haryana,Kurukshetra,"Sector-7, Kurukshetra - HSPCB",02-03-2024 10:00:00,29.966942,76.875879,CO,14,52,19
India,Haryana,Manesar,"Sector-2 IMT, Manesar - HSPCB",02-03-2024 10:00:00,28.360699,76.936090,OZONE,7,31,10
India,Haryana,Narnaul,"Shastri Nagar, Narnaul - HSPCB",02-03-2024 10:00:00,28.060249,76.113115,SO2,13,52,16
India,Haryana,Palwal,"Shyam Nagar, Palwal - HSPCB",02-03-2024 10:00:00,28.1485564,77.3320667,NO2,23,24,24
India,Haryana,Panipat,"Sector-18, Panipat - HSPCB",02-03-2024 10:00:00,29.497973,76.993331,PM10,88,92,90
India,Haryana,Panipat,"Sector-18, Panipat - HSPCB",02-03-2024 10:00:00,29.497973,76.993331,NH3,2,3,2
India,Haryana,Sirsa,"F-Block, Sirsa - HSPCB",02-03-2024 10:00:00,29.536400,75.015800,CO,44,76,51
India,Himachal Pradesh,Baddi,"HIMUDA Complex Phase-1, Baddi - HPPCB",02-03-2024 10:00:00,30.943887,76.801991,CO,12,50,21
India,Himachal Pradesh,Baddi,"HIMUDA Complex Phase-1, Baddi - HPPCB",02-03-2024 10:00:00,30.943887,76.801991,OZONE,23,63,49
India,Jammu_and_Kashmir,Srinagar,"Rajbagh, Srinagar - JKSPCB",02-03-2024 10:00:00,34.066206,74.819820,CO,20,24,20
India,Jharkhand,Dhanbad,"Kalakusuma, Dhanbad - DMC",02-03-2024 10:00:00,23.811548,86.481238,PM10,70,196,114
India,Jharkhand,Dhanbad,"Kalakusuma, Dhanbad - DMC",02-03-2024 10:00:00,23.811548,86.481238,SO2,15,123,93
India,Jharkhand,Dhanbad,"Sardar Patel Nagar, Dhanbad - JSPCB",02-03-2024 10:00:00,23.80569,86.44268,OZONE,8,71,11
India,Jharkhand,Pathardih,"Mohalbani Ghat, Pathardih - DMC",02-03-2024 10:00:00,23.669880,86.411725,SO2,15,125,42
India,Karnataka,Bagalkot,"Vidayagiri, Bagalkot - KSPCB",02-03-2024 10:00:00,16.172806,75.659694,NO2,9,10,9
India,Karnataka,Bengaluru,"Bapuji Nagar, Bengaluru - KSPCB",02-03-2024 10:00:00,12.951913,77.539784,SO2,4,6,5
India,Karnataka,Bengaluru,"Bapuji Nagar, Bengaluru - KSPCB",02-03-2024 10:00:00,12.951913,77.539784,CO,20,34,27
India,Karnataka,Bengaluru,"Hebbal, Bengaluru - KSPCB",02-03-2024 10:00:00,13.029152,77.585901,PM10,37,102,75
India,Karnataka,Bengaluru,"Hebbal, Bengaluru - KSPCB",02-03-2024 10:00:00,13.029152,77.585901,SO2,15,20,17
India,Karnataka,Bengaluru,"Hebbal, Bengaluru - KSPCB",02-03-2024 10:00:00,13.029152,77.585901,CO,12,42,18
India,Karnataka,Bengaluru,"Hombegowda Nagar, Bengaluru - KSPCB",02-03-2024 10:00:00,12.938539,77.590100,PM2.5,32,63,43
India,Karnataka,Bengaluru,"Jayanagar 5th Block, Bengaluru - KSPCB",02-03-2024 10:00:00,12.920984,77.584908,PM10,60,205,99
India,Karnataka,Bengaluru,"Jayanagar 5th Block, Bengaluru - KSPCB",02-03-2024 10:00:00,12.920984,77.584908,NO2,11,405,125
India,Karnataka,Bengaluru,"Jigani, Bengaluru - KSPCB",02-03-2024 10:00:00,12.7816279,77.6299145,PM10,NA,NA,NA
India,Karnataka,Bengaluru,"Jigani, Bengaluru - KSPCB",02-03-2024 10:00:00,12.7816279,77.6299145,NH3,4,4,4
India,Karnataka,Bengaluru,"Jigani, Bengaluru - KSPCB",02-03-2024 10:00:00,12.7816279,77.6299145,SO2,16,16,16
India,Karnataka,Bengaluru,"Jigani, Bengaluru - KSPCB",02-03-2024 10:00:00,12.7816279,77.6299145,CO,50,80,61
India,Karnataka,Bengaluru,"Kasturi Nagar, Bengaluru - KSPCB",02-03-2024 10:00:00,13.003872,77.664217,SO2,10,10,10
India,Karnataka,Bengaluru,"Peenya, Bengaluru - CPCB",02-03-2024 10:00:00,13.0270199,77.494094,PM2.5,30,52,42
India,Karnataka,Bengaluru,"RVCE-Mailasandra, Bengaluru - KSPCB",02-03-2024 10:00:00,12.921418,77.502466,CO,34,58,38
India,Karnataka,Bengaluru,"Silk Board, Bengaluru - KSPCB",02-03-2024 10:00:00,12.917348,77.622813,NH3,1,2,2
India,Karnataka,Bidar,"Naubad, Bidar - KSPCB",02-03-2024 10:00:00,17.930306,77.482194,NH3,3,3,3
India,Karnataka,Bidar,"Naubad, Bidar - KSPCB",02-03-2024 10:00:00,17.930306,77.482194,CO,48,74,54
India,Karnataka,Bidar,"Naubad, Bidar - KSPCB",02-03-2024 10:00:00,17.930306,77.482194,OZONE,23,50,25
