country,state,city,station,last_update,latitude,longitude,pollutant_id,pollutant_min,pollutant_max,pollutant_avg
India,Andhra_Pradesh,Amaravati,"Secretariat, Amaravati - APPCB",12-03-2024 22:00:00,16.5150833,80.5181667,CO,26,48,35
India,Andhra_Pradesh,Tirupati,"Tirumala, Tirupati - APPCB",12-03-2024 22:00:00,13.67,79.35,PM2.5,48,96,71
India,Andhra_Pradesh,Tirupati,"Tirumala, Tirupati - APPCB",12-03-2024 22:00:00,13.67,79.35,PM10,48,118,81
India,Andhra_Pradesh,Tirupati,"Tirumala, Tirupati - APPCB",12-03-2024 22:00:00,13.67,79.35,CO,20,30,26
India,Andhra_Pradesh,Tirupati,"Tirumala, Tirupati - APPCB",12-03-2024 22:00:00,13.67,79.35,OZONE,24,70,50
India,Andhra_Pradesh,Vijayawada,"HB Colony, Vijayawada - APPCB",12-03-2024 22:00:00,16.536107,80.594233,PM10,61,82,72
India,Andhra_Pradesh,Vijayawada,"Kanuru, Vijayawada - APPCB",12-03-2024 22:00:00,16.486692,80.699436,PM2.5,64,79,70
India,Andhra_Pradesh,Vijayawada,"Rajiv Gandhi Park, Vijayawada - APPCB",12-03-2024 22:00:00,16.509717,80.612222,PM10,45,75,61
India,Andhra_Pradesh,Vijayawada,"Rajiv Nagar, Vijayawada - APPCB",12-03-2024 22:00:00,16.554731,80.649110,OZONE,9,41,29
India,Andhra_Pradesh,Visakhapatnam,"GVM Corporation, Visakhapatnam - APPCB",12-03-2024 22:00:00,17.72,83.3,SO2,9,14,12
India,Arunachal_Pradesh,Naharlagun,"Naharlagun, Naharlagun - APSPCB",12-03-2024 22:00:00,27.103358,93.679645,PM10,NA,NA,NA
India,Arunachal_Pradesh,Naharlagun,"Naharlagun, Naharlagun - APSPCB",12-03-2024 22:00:00,27.103358,93.679645,CO,14,42,25
India,Assam,Byrnihat,"Central Academy for SFS, Byrnihat - PCBA",12-03-2024 22:00:00,26.071318,91.87488,PM10,70,484,258
India,Assam,Guwahati,"IITG, Guwahati - PCBA",12-03-2024 22:00:00,26.2028636,91.70046436,NO2,NA,NA,NA
India,Assam,Guwahati,"LGBI Airport, Guwahati - PCBA",12-03-2024 22:00:00,26.10887,91.589544,PM2.5,113,322,242
India,Assam,Guwahati,"LGBI Airport, Guwahati - PCBA",12-03-2024 22:00:00,26.10887,91.589544,NH3,1,8,3
India,Assam,Guwahati,"Pan Bazaar, Guwahati - PCBA",12-03-2024 22:00:00,26.187500,91.744194,NO2,3,21,11
India,Assam,Nagaon,"Christianpatty, Nagaon - PCBA",12-03-2024 22:00:00,26.349082,92.68449,NH3,2,12,4
India,Assam,Nagaon,"Christianpatty, Nagaon - PCBA",12-03-2024 22:00:00,26.349082,92.68449,OZONE,26,168,100
India,Assam,Silchar,"Tarapur, Silchar - PCBA",12-03-2024 22:00:00,24.82827,92.79525,PM10,49,58,53
India,Assam,Sivasagar,"Girls College, Sivasagar - PCBA",12-03-2024 22:00:00,26.987634,94.636574,CO,24,46,26
India,Bihar,Araria,"Kharahiya Basti, Araria - BSPCB",12-03-2024 22:00:00,26.146529,87.454184,PM10,90,228,147
India,Bihar,Araria,"Kharahiya Basti, Araria - BSPCB",12-03-2024 22:00:00,26.146529,87.454184,NH3,7,8,8
India,Bihar,Araria,"Kharahiya Basti, Araria - BSPCB",12-03-2024 22:00:00,26.146529,87.454184,SO2,11,21,16
India,Bihar,Araria,"Kharahiya Basti, Araria - BSPCB",12-03-2024 22:00:00,26.146529,87.454184,CO,18,36,24
India,Bihar,Aurangabad,"Gurdeo Nagar, Aurangabad - BSPCB",12-03-2024 22:00:00,24.75746,84.366208,PM10,NA,NA,NA
India,Bihar,Bettiah,"Kamalnath Nagar, Bettiah - BSPCB",12-03-2024 22:00:00,26.80365,84.51954,NO2,20,47,41
India,Bihar,Bettiah,"Kamalnath Nagar, Bettiah - BSPCB",12-03-2024 22:00:00,26.80365,84.51954,NH3,3,6,3
India,Bihar,Bhagalpur,"Mayaganj, Bhagalpur - BSPCB",12-03-2024 22:00:00,25.265194,87.012947,SO2,11,12,12
India,Bihar,Bhagalpur,"Mayaganj, Bhagalpur - BSPCB",12-03-2024 22:00:00,25.265194,87.012947,CO,8,10,9
India,Bihar,Bihar Sharif,"D M Colony, Bihar Sharif - BSPCB",12-03-2024 22:00:00,25.204762,85.514960,PM2.5,43,304,109
India,Bihar,Bihar Sharif,"D M Colony, Bihar Sharif - BSPCB",12-03-2024 22:00:00,25.204762,85.514960,SO2,1,12,6
India,Bihar,Buxar,"Charitra Van, Buxar - BSPCB (Formerly known as Central Jail)",12-03-2024 22:00:00,25.567520,83.966379,PM10,NA,NA,NA
India,Bihar,Buxar,"Charitra Van, Buxar - BSPCB (Formerly known as Central Jail)",12-03-2024 22:00:00,25.567520,83.966379,NH3,1,3,2
India,Bihar,Gaya,"Collectorate, Gaya - BSPCB",12-03-2024 22:00:00,24.7955,84.9994,PM2.5,48,248,124
India,Bihar,Gaya,"Collectorate, Gaya - BSPCB",12-03-2024 22:00:00,24.7955,84.9994,NO2,1,3,2
India,Bihar,Gaya,"Collectorate, Gaya - BSPCB",12-03-2024 22:00:00,24.7955,84.9994,SO2,2,23,11
India,Bihar,Gaya,"Kareemganj, Gaya - BSPCB",12-03-2024 22:00:00,24.792403,84.992416,NO2,30,31,30
India,Bihar,Gaya,"SFTI Kusdihra, Gaya - BSPCB",12-03-2024 22:00:00,24.762518,84.982348,SO2,6,11,7
India,Bihar,Hajipur,"Industrial Area, Hajipur - BSPCB",12-03-2024 22:00:00,25.697189,85.245900,PM2.5,67,159,86
India,Bihar,Hajipur,"Industrial Area, Hajipur - BSPCB",12-03-2024 22:00:00,25.697189,85.245900,NO2,39,61,50
India,Bihar,Hajipur,"Industrial Area, Hajipur - BSPCB",12-03-2024 22:00:00,25.697189,85.245900,CO,32,55,39
India,Bihar,Kishanganj,"SDM Office_Khagra, Kishanganj - BSPCB",12-03-2024 22:00:00,26.0881305,87.93840336,PM2.5,25,374,91
India,Bihar,Manguraha,"Forest Rest House, Manguraha - BSPCB",12-03-2024 22:00:00,27.308328,84.531742,NH3,1,2,1
India,Bihar,Manguraha,"Forest Rest House, Manguraha - BSPCB",12-03-2024 22:00:00,27.308328,84.531742,SO2,2,3,3
India,Bihar,Manguraha,"Forest Rest House, Manguraha - BSPCB",12-03-2024 22:00:00,27.308328,84.531742,OZONE,10,82,58
India,Bihar,Motihari,"Gandak Colony, Motihari - BSPCB",12-03-2024 22:00:00,26.63086,84.90051,OZONE,34,168,100
India,Bihar,Munger,"Town Hall, Munger - BSPCB",12-03-2024 22:00:00,25.376776,86.471523,PM10,99,464,148
India,Bihar,Munger,"Town Hall, Munger - BSPCB",12-03-2024 22:00:00,25.376776,86.471523,SO2,12,42,29
India,Bihar,Munger,"Town Hall, Munger - BSPCB",12-03-2024 22:00:00,25.376776,86.471523,OZONE,9,307,70
India,Bihar,Muzaffarpur,"MIT-Daudpur Kothi, Muzaffarpur - BSPCB",12-03-2024 22:00:00,26.1403345,85.3650192,SO2,18,21,20
India,Bihar,Muzaffarpur,"MIT-Daudpur Kothi, Muzaffarpur - BSPCB",12-03-2024 22:00:00,26.1403345,85.3650192,CO,6,139,116
India,Bihar,Patna,"DRM Office Danapur, Patna - BSPCB",12-03-2024 22:00:00,25.586562,85.043586,PM2.5,75,174,107
India,Bihar,Patna,"DRM Office Danapur, Patna - BSPCB",12-03-2024 22:00:00,25.586562,85.043586,NH3,2,3,3
India,Bihar,Patna,"DRM Office Danapur, Patna - BSPCB",12-03-2024 22:00:00,25.586562,85.043586,SO2,7,9,8
India,Bihar,Patna,"DRM Office Danapur, Patna - BSPCB",12-03-2024 22:00:00,25.586562,85.043586,CO,34,100,48
India,Bihar,Patna,"IGSC Planetarium Complex, Patna - BSPCB",12-03-2024 22:00:00,25.610369,85.132568,PM2.5,67,236,142
India,Bihar,Patna,"Muradpur, Patna - BSPCB",12-03-2024 22:00:00,25.619651,85.147382,CO,15,82,36
India,Bihar,Patna,"Rajbansi Nagar, Patna - BSPCB",12-03-2024 22:00:00,25.599486,85.113666,SO2,1,16,8
India,Bihar,Purnia,"Mariam Nagar, Purnia - BSPCB",12-03-2024 22:00:00,25.366336,87.117468,NO2,12,13,13
India,Bihar,Purnia,"Mariam Nagar, Purnia - BSPCB",12-03-2024 22:00:00,25.366336,87.117468,OZONE,11,64,41
India,Bihar,Rajgir,"Dangi Tola, Rajgir - BSPCB",12-03-2024 22:00:00,25.03280,85.41948,NH3,1,4,1
India,Bihar,Saharsa,"Police Line, Saharsa - BSPCB",12-03-2024 22:00:00,25.892357,86.590325,OZONE,17,58,46
India,Bihar,Samastipur,"DM Office_Kasipur, Samastipur - BSPCB",12-03-2024 22:00:00,25.859655,85.77944,NO2,2,37,12
India,Bihar,Sasaram,"Dada Peer, Sasaram - BSPCB",12-03-2024 22:00:00,24.952822,84.002396,PM10,41,115,67
India,Bihar,Sasaram,"Dada Peer, Sasaram - BSPCB",12-03-2024 22:00:00,24.952822,84.002396,OZONE,24,89,64
India,Chandigarh,Chandigarh,"Sector 22, Chandigarh - CPCC",12-03-2024 22:00:00,30.735567,76.775714,PM10,53,169,121
India,Chandigarh,Chandigarh,"Sector 22, Chandigarh - CPCC",12-03-2024 22:00:00,30.735567,76.775714,NH3,4,8,6
India,Chandigarh,Chandigarh,"Sector-25, Chandigarh - CPCC",12-03-2024 22:00:00,30.751462,76.762879,NO2,4,41,17
India,Chandigarh,Chandigarh,"Sector-53, Chandigarh - CPCC",12-03-2024 22:00:00,30.719859,76.738637,OZONE,7,69,51
India,Chhattisgarh,Korba,"Rampur, Korba - CECB",12-03-2024 22:00:00,22.368195,82.746431,NO2,NA,NA,NA
India,Chhattisgarh,Korba,"Rampur, Korba - CECB",12-03-2024 22:00:00,22.368195,82.746431,OZONE,3,23,5
India,Chhattisgarh,Milupara,"Govt. Higher Secondary School, Milupara - CECB",12-03-2024 22:00:00,22.1910172,83.5197009,NH3,NA,NA,NA
India,Chhattisgarh,Raipur,"Bhatagaon New ISBT, Raipur - CECB",12-03-2024 22:00:00,21.219665,81.630094,NO2,32,54,45
India,Chhattisgarh,Raipur,"Bhatagaon New ISBT, Raipur - CECB",12-03-2024 22:00:00,21.219665,81.630094,CO,26,60,37
India,Chhattisgarh,Raipur,"Krishak Nagar, Raipur - CECB",12-03-2024 22:00:00,21.237755,81.705301,SO2,8,19,13
India,Chhattisgarh,Raipur,"Krishak Nagar, Raipur - CECB",12-03-2024 22:00:00,21.237755,81.705301,CO,24,51,33
India,Chhattisgarh,Tumidih,"OP Jindal Industrial Park, Tumidih - CECB",12-03-2024 22:00:00,22.06631475,83.33820077,NO2,NA,NA,NA
India,Delhi,Delhi,"Ashok Vihar, Delhi - DPCC",12-03-2024 22:00:00,28.695381,77.181665,OZONE,4,18,12
India,Delhi,Delhi,"Aya Nagar, Delhi - IMD",12-03-2024 22:00:00,28.4706914,77.1099364,OZONE,2,91,22
India,Delhi,Delhi,"Burari Crossing, Delhi - IMD",12-03-2024 22:00:00,28.7256504,77.2011573,PM10,97,402,177
India,Delhi,Delhi,"CRRI Mathura Road, Delhi - IMD",12-03-2024 22:00:00,28.5512005,77.2735737,CO,30,86,46
India,Delhi,Delhi,"Chandni Chowk, Delhi - IITM",12-03-2024 22:00:00,28.656756,77.227234,CO,122,136,126
India,Delhi,Delhi,"DTU, Delhi - CPCB",12-03-2024 22:00:00,28.7500499,77.1112615,NH3,9,13,11
India,Delhi,Delhi,"DTU, Delhi - CPCB",12-03-2024 22:00:00,28.7500499,77.1112615,SO2,26,29,27
India,Delhi,Delhi,"Dwarka-Sector 8, Delhi - DPCC ",12-03-2024 22:00:00,28.5710274,77.0719006,NO2,6,50,21
India,Delhi,Delhi,"IHBAS, Dilshad Garden, Delhi - CPCB",12-03-2024 22:00:00,28.6811736,77.3025234,PM2.5,72,273,147
India,Delhi,Delhi,"ITO, Delhi - CPCB",12-03-2024 22:00:00,28.628624,77.241060,OZONE,12,69,46
India,Delhi,Delhi,"Jahangirpuri, Delhi - DPCC",12-03-2024 22:00:00,28.732820,77.170633,NO2,28,113,50
India,Delhi,Delhi,"Jahangirpuri, Delhi - DPCC",12-03-2024 22:00:00,28.732820,77.170633,NH3,8,18,11
India,Delhi,Delhi,"Jahangirpuri, Delhi - DPCC",12-03-2024 22:00:00,28.732820,77.170633,CO,40,113,69
India,Delhi,Delhi,"Jawaharlal Nehru Stadium, Delhi - DPCC",12-03-2024 22:00:00,28.580280,77.233829,SO2,1,46,15
India,Delhi,Delhi,"Jawaharlal Nehru Stadium, Delhi - DPCC",12-03-2024 22:00:00,28.580280,77.233829,OZONE,1,200,111
India,Delhi,Delhi,"Lodhi Road, Delhi - IITM",12-03-2024 22:00:00,28.588333,77.221667,PM10,53,338,113
India,Delhi,Delhi,"Lodhi Road, Delhi - IITM",12-03-2024 22:00:00,28.588333,77.221667,NO2,81,104,88
India,Delhi,Delhi,"Lodhi Road, Delhi - IITM",12-03-2024 22:00:00,28.588333,77.221667,OZONE,15,19,18
India,Delhi,Delhi,"Mandir Marg, Delhi - DPCC",12-03-2024 22:00:00,28.636429,77.201067,PM10,62,256,129
India,Delhi,Delhi,"Mandir Marg, Delhi - DPCC",12-03-2024 22:00:00,28.636429,77.201067,SO2,3,15,9
India,Delhi,Delhi,"Mundka, Delhi - DPCC",12-03-2024 22:00:00,28.684678,77.076574,NO2,18,119,56
India,Delhi,Delhi,"NSIT Dwarka, Delhi - CPCB",12-03-2024 22:00:00,28.60909,77.0325413,NO2,38,65,50
India,Delhi,Delhi,"Narela, Delhi - DPCC",12-03-2024 22:00:00,28.822836,77.101981,NO2,11,88,43
India,Delhi,Delhi,"New Moti Bagh, Delhi - MHUA",12-03-2024 22:00:00,28.57834,77.18400,CO,22,62,28
India,Delhi,Delhi,"North Campus, DU, Delhi - IMD",12-03-2024 22:00:00,28.6573814,77.1585447,PM2.5,NA,NA,NA
India,Delhi,Delhi,"North Campus, DU, Delhi - IMD",12-03-2024 22:00:00,28.6573814,77.1585447,CO,34,80,50
India,Delhi,Delhi,"Patparganj, Delhi - DPCC",12-03-2024 22:00:00,28.623763,77.287209,PM2.5,40,200,94
India,Delhi,Delhi,"Patparganj, Delhi - DPCC",12-03-2024 22:00:00,28.623763,77.287209,CO,10,54,29
India,Delhi,Delhi,"Patparganj, Delhi - DPCC",12-03-2024 22:00:00,28.623763,77.287209,OZONE,4,105,65
India,Delhi,Delhi,"Punjabi Bagh, Delhi - DPCC",12-03-2024 22:00:00,28.674045,77.131023,NH3,2,2,2
India,Delhi,Delhi,"Pusa, Delhi - DPCC",12-03-2024 22:00:00,28.639652,77.146275,NH3,8,13,10
India,Delhi,Delhi,"Pusa, Delhi - IMD",12-03-2024 22:00:00,28.636110,77.173332,PM10,119,234,152
India,Delhi,Delhi,"Pusa, Delhi - IMD",12-03-2024 22:00:00,28.636110,77.173332,CO,56,90,58
India,Delhi,Delhi,"R K Puram, Delhi - DPCC",12-03-2024 22:00:00,28.563262,77.186937,SO2,7,43,22
India,Delhi,Delhi,"Rohini, Delhi - DPCC",12-03-2024 22:00:00,28.732528,77.119920,PM2.5,45,379,190
India,Delhi,Delhi,"Rohini, Delhi - DPCC",12-03-2024 22:00:00,28.732528,77.119920,CO,21,102,31
India,Delhi,Delhi,"Shadipur, Delhi - CPCB",12-03-2024 22:00:00,28.6514781,77.1473105,CO,28,72,38
India,Delhi,Delhi,"Shadipur, Delhi - CPCB",12-03-2024 22:00:00,28.6514781,77.1473105,OZONE,17,73,35
India,Delhi,Delhi,"Sirifort, Delhi - CPCB",12-03-2024 22:00:00,28.5504249,77.2159377,PM10,91,242,143
India,Delhi,Delhi,"Sirifort, Delhi - CPCB",12-03-2024 22:00:00,28.5504249,77.2159377,SO2,40,49,43
India,Delhi,Delhi,"Sirifort, Delhi - CPCB",12-03-2024 22:00:00,28.5504249,77.2159377,CO,10,45,18
India,Delhi,Delhi,"Sirifort, Delhi - CPCB",12-03-2024 22:00:00,28.5504249,77.2159377,OZONE,4,89,48
India,Delhi,Delhi,"Sonia Vihar, Delhi - DPCC",12-03-2024 22:00:00,28.710508,77.249485,NH3,5,7,6
India,Delhi,Delhi,"Sri Aurobindo Marg, Delhi - DPCC",12-03-2024 22:00:00,28.531346,77.190156,PM2.5,52,369,156
India,Delhi,Delhi,"Sri Aurobindo Marg, Delhi - DPCC",12-03-2024 22:00:00,28.531346,77.190156,NH3,6,9,7
India,Delhi,Delhi,"Sri Aurobindo Marg, Delhi - DPCC",12-03-2024 22:00:00,28.531346,77.190156,OZONE,1,50,29
India,Delhi,Delhi,"Wazirpur, Delhi - DPCC",12-03-2024 22:00:00,28.699793,77.165453,SO2,22,52,34
India,Gujarat,Ahmedabad,"Chandkheda, Ahmedabad - IITM",12-03-2024 22:00:00,23.107969,72.574648,PM2.5,49,222,95
India,Gujarat,Ahmedabad,"Chandkheda, Ahmedabad - IITM",12-03-2024 22:00:00,23.107969,72.574648,CO,12,92,42
India,Gujarat,Ahmedabad,"Gyaspur, Ahmedabad - IITM",12-03-2024 22:00:00,22.977134,72.553024,PM2.5,29,383,131
India,Gujarat,Ahmedabad,"Gyaspur, Ahmedabad - IITM",12-03-2024 22:00:00,22.977134,72.553024,NO2,21,22,21
India,Gujarat,Ahmedabad,"Gyaspur, Ahmedabad - IITM",12-03-2024 22:00:00,22.977134,72.553024,NH3,4,4,4
India,Gujarat,Ahmedabad,"Raikhad, Ahmedabad - IITM",12-03-2024 22:00:00,23.020509,72.579261,PM10,2,250,62
India,Gujarat,Ahmedabad,"Raikhad, Ahmedabad - IITM",12-03-2024 22:00:00,23.020509,72.579261,NO2,5,148,72
India,Gujarat,Ahmedabad,"Rakhial, Ahmedabad - IITM",12-03-2024 22:00:00,23.016834,72.625775,PM2.5,13,249,51
India,Gujarat,Ahmedabad,"Rakhial, Ahmedabad - IITM",12-03-2024 22:00:00,23.016834,72.625775,OZONE,1,31,20
India,Gujarat,Ahmedabad,"SAC ISRO Satellite, Ahmedabad - IITM",12-03-2024 22:00:00,23.023389,72.515201,PM10,90,106,100
India,Gujarat,Ahmedabad,"SAC ISRO Satellite, Ahmedabad - IITM",12-03-2024 22:00:00,23.023389,72.515201,NO2,17,18,17
India,Gujarat,Ahmedabad,"Sardar Vallabhbhai Patel Stadium, Ahmedabad - IITM",12-03-2024 22:00:00,23.043070,72.562968,PM2.5,44,187,75
India,Gujarat,Ahmedabad,"Sardar Vallabhbhai Patel Stadium, Ahmedabad - IITM",12-03-2024 22:00:00,23.043070,72.562968,PM10,57,145,87
India,Gujarat,Ankleshwar,"GIDC, Ankleshwar - GPCB",12-03-2024 22:00:00,21.613267,73.010555,PM10,33,120,72
India,Gujarat,Ankleshwar,"GIDC, Ankleshwar - GPCB",12-03-2024 22:00:00,21.613267,73.010555,NH3,7,7,7
India,Gujarat,Ankleshwar,"GIDC, Ankleshwar - GPCB",12-03-2024 22:00:00,21.613267,73.010555,SO2,2,118,45
India,Gujarat,Gandhinagar,"GIFT City, Gandhinagar - IITM",12-03-2024 22:00:00,23.163798,72.677768,NO2,24,25,25
India,Gujarat,Gandhinagar,"GIFT City, Gandhinagar - IITM",12-03-2024 22:00:00,23.163798,72.677768,OZONE,1,32,22
India,Gujarat,Gandhinagar,"IIPHG Lekawada, Gandhinagar - IITM",12-03-2024 22:00:00,23.243639,72.68994,CO,22,24,23
India,Gujarat,Gandhinagar,"IIPHG Lekawada, Gandhinagar - IITM",12-03-2024 22:00:00,23.243639,72.68994,OZONE,5,35,22
India,Gujarat,Gandhinagar,"Sector-10, Gandhinagar - GPCB",12-03-2024 22:00:00,23.221714,72.654328,CO,40,116,66
India,Gujarat,Nandesari,"GIDC, Nandesari - Nandesari Ind. Association",12-03-2024 22:00:00,22.410802,73.097923,SO2,1,14,8
India,Gujarat,Surat,"Science Center, Surat - SMC",12-03-2024 22:00:00,21.170046,72.795405,NO2,29,54,39
India,Gujarat,Vapi,"Phase-1 GIDC, Vapi - GPCB",12-03-2024 22:00:00,20.362421,72.918013,NH3,2,21,8
India,Haryana,Ambala,"Patti Mehar, Ambala - HSPCB",12-03-2024 22:00:00,30.379589,76.778328,PM2.5,39,109,68
India,Haryana,Ambala,"Patti Mehar, Ambala - HSPCB",12-03-2024 22:00:00,30.379589,76.778328,CO,30,60,40
India,Haryana,Bahadurgarh,"Arya Nagar, Bahadurgarh - HSPCB",12-03-2024 22:00:00,28.6701,76.9254,NO2,33,41,36
India,Haryana,Ballabgarh,"Nathu Colony, Ballabgarh - HSPCB",12-03-2024 22:00:00,28.3419248,77.319699,SO2,4,36,18
India,Haryana,Bhiwani,"H.B. Colony, Bhiwani - HSPCB",12-03-2024 22:00:00,28.806223,76.141105,PM10,19,105,81
India,Haryana,Bhiwani,"H.B. Colony, Bhiwani - HSPCB",12-03-2024 22:00:00,28.806223,76.141105,CO,2,39,29
India,Haryana,Charkhi Dadri,"Mini Secretariat, Charkhi Dadri - HSPCB",12-03-2024 22:00:00,28.593883,76.270653,NO2,12,17,13
India,Haryana,Charkhi Dadri,"Mini Secretariat, Charkhi Dadri - HSPCB",12-03-2024 22:00:00,28.593883,76.270653,NH3,6,7,6
India,Haryana,Faridabad,"New Industrial Town, Faridabad - HSPCB",12-03-2024 22:00:00,28.39072,77.30059,CO,15,38,21
India,Haryana,Faridabad,"Sector 11, Faridabad - HSPCB",12-03-2024 22:00:00,28.376058,77.315741,PM2.5,23,281,163
India,Haryana,Faridabad,"Sector 30, Faridabad - HSPCB",12-03-2024 22:00:00,28.4417,77.3217,PM2.5,NA,NA,NA
India,Haryana,Gurugram,"Sector-51, Gurugram - HSPCB",12-03-2024 22:00:00,28.4227,77.0667,PM10,105,425,169
India,Haryana,Gurugram,"Sector-51, Gurugram - HSPCB",12-03-2024 22:00:00,28.4227,77.0667,NH3,7,14,9
India,Haryana,Gurugram,"Teri Gram, Gurugram - HSPCB",12-03-2024 22:00:00,28.4275,77.1465,NO2,26,55,45
India,Haryana,Gurugram,"Vikas Sadan, Gurugram - HSPCB",12-03-2024 22:00:00,28.4501238,77.0263051,SO2,31,54,42
India,Haryana,Hisar,"Urban Estate-II, Hisar - HSPCB",12-03-2024 22:00:00,29.140560,75.744941,NO2,21,34,24
India,Haryana,Hisar,"Urban Estate-II, Hisar - HSPCB",12-03-2024 22:00:00,29.140560,75.744941,SO2,13,94,59
India,Haryana,Hisar,"Urban Estate-II, Hisar - HSPCB",12-03-2024 22:00:00,29.140560,75.744941,OZONE,41,123,105
India,Haryana,Jind,"Police Lines, Jind - HSPCB",12-03-2024 22:00:00,29.307814,76.337619,PM2.5,34,96,63
India,Haryana,Jind,"Police Lines, Jind - HSPCB",12-03-2024 22:00:00,29.307814,76.337619,CO,1,104,24
India,Haryana,Jind,"Police Lines, Jind - HSPCB",12-03-2024 22:00:00,29.307814,76.337619,OZONE,10,21,20
India,Haryana,Kaithal,"Rishi Nagar, Kaithal - HSPCB",12-03-2024 22:00:00,29.8006,76.4155,OZONE,10,24,19
India,Haryana,Kurukshetra,"Sector-7, Kurukshetra - HSPCB",12-03-2024 22:00:00,29.966942,76.875879,NH3,4,18,5
India,Haryana,Kurukshetra,"Sector-7, Kurukshetra - HSPCB",12-03-2024 22:00:00,29.966942,76.875879,OZONE,21,61,45
India,Haryana,Manesar,"Sector-2 IMT, Manesar - HSPCB",12-03-2024 22:00:00,28.360699,76.936090,OZONE,1,51,13
India,Haryana,Narnaul,"Shastri Nagar, Narnaul - HSPCB",12-03-2024 22:00:00,28.060249,76.113115,PM2.5,30,90,51
India,Haryana,Narnaul,"Shastri Nagar, Narnaul - HSPCB",12-03-2024 22:00:00,28.060249,76.113115,OZONE,16,52,41
India,Haryana,Palwal,"Shyam Nagar, Palwal - HSPCB",12-03-2024 22:00:00,28.1485564,77.3320667,CO,25,38,29
India,Haryana,Panchkula,"Sector-6, Panchkula - HSPCB ",12-03-2024 22:00:00,30.7057778,76.8531805555555,SO2,11,12,12
India,Haryana,Rohtak,"MD University, Rohtak - HSPCB",12-03-2024 22:00:00,28.52123,76.37138,PM2.5,3,309,165
India,Haryana,Rohtak,"MD University, Rohtak - HSPCB",12-03-2024 22:00:00,28.52123,76.37138,CO,2,60,43
India,Haryana,Yamuna Nagar,"Gobind Pura, Yamuna Nagar - HSPCB",12-03-2024 22:00:00,30.1480566,77.2893471,PM10,69,180,108
India,Himachal Pradesh,Baddi,"HIMUDA Complex Phase-1, Baddi - HPPCB",12-03-2024 22:00:00,30.943887,76.801991,NO2,9,70,34
India,Jharkhand,Dhanbad,"Sardar Patel Nagar, Dhanbad - JSPCB",12-03-2024 22:00:00,23.80569,86.44268,SO2,NA,NA,NA
India,Jharkhand,Dhanbad,"Sardar Patel Nagar, Dhanbad - JSPCB",12-03-2024 22:00:00,23.80569,86.44268,CO,133,159,146
India,Jharkhand,Pathardih,"Mohalbani Ghat, Pathardih - DMC",12-03-2024 22:00:00,23.669880,86.411725,NO2,NA,NA,NA
India,Jharkhand,Pathardih,"Mohalbani Ghat, Pathardih - DMC",12-03-2024 22:00:00,23.669880,86.411725,CO,71,114,100
India,Jharkhand,Pathardih,"Mohalbani Ghat, Pathardih - DMC",12-03-2024 22:00:00,23.669880,86.411725,OZONE,9,32,21
India,Karnataka,Bagalkot,"Vidayagiri, Bagalkot - KSPCB",12-03-2024 22:00:00,16.172806,75.659694,OZONE,2,2,2
India,Karnataka,Bengaluru,"BTM Layout, Bengaluru - CPCB",12-03-2024 22:00:00,12.9135218,77.5950804,PM10,57,83,69
India,Karnataka,Bengaluru,"Bapuji Nagar, Bengaluru - KSPCB",12-03-2024 22:00:00,12.951913,77.539784,NO2,9,11,10
India,Karnataka,Bengaluru,"Hombegowda Nagar, Bengaluru - KSPCB",12-03-2024 22:00:00,12.938539,77.590100,NH3,2,3,3
India,Karnataka,Bengaluru,"Hombegowda Nagar, Bengaluru - KSPCB",12-03-2024 22:00:00,12.938539,77.590100,OZONE,4,5,4
India,Karnataka,Bengaluru,"Jayanagar 5th Block, Bengaluru - KSPCB",12-03-2024 22:00:00,12.920984,77.584908,NO2,9,16,11
India,Karnataka,Bengaluru,"Jigani, Bengaluru - KSPCB",12-03-2024 22:00:00,12.7816279,77.6299145,PM10,NA,NA,NA
India,Karnataka,Bengaluru,"Peenya, Bengaluru - CPCB",12-03-2024 22:00:00,13.0270199,77.494094,PM2.5,30,80,45
India,Karnataka,Bengaluru,"RVCE-Mailasandra, Bengaluru - KSPCB",12-03-2024 22:00:00,12.921418,77.502466,PM2.5,NA,NA,NA
India,Karnataka,Bengaluru,"RVCE-Mailasandra, Bengaluru - KSPCB",12-03-2024 22:00:00,12.921418,77.502466,SO2,8,14,11
India,Karnataka,Bengaluru,"Silk Board, Bengaluru - KSPCB",12-03-2024 22:00:00,12.917348,77.622813,SO2,8,22,13
India,Karnataka,Bidar,"Naubad, Bidar - KSPCB",12-03-2024 22:00:00,17.930306,77.482194,OZONE,17,46,43
India,Karnataka,Chikkaballapur,"Chikkaballapur Rural, Chikkaballapur - KSPCB",12-03-2024 22:00:00,13.428828,77.731418,SO2,15,34,22
India,Karnataka,Chikkaballapur,"Chikkaballapur Rural, Chikkaballapur - KSPCB",12-03-2024 22:00:00,13.428828,77.731418,CO,18,40,32
India,Karnataka,Chikkamagaluru,"Kalyana Nagara, Chikkamagaluru - KSPCB",12-03-2024 22:00:00,13.328028,75.797056,OZONE,28,63,41
India,Karnataka,Davanagere,"Devaraj Urs Badavane, Davanagere - KSPCB",12-03-2024 22:00:00,14.475800,75.905200,NH3,1,1,1
India,Karnataka,Davanagere,"Devaraj Urs Badavane, Davanagere - KSPCB",12-03-2024 22:00:00,14.475800,75.905200,SO2,2,9,6
India,Karnataka,Davanagere,"Devaraj Urs Badavane, Davanagere - KSPCB",12-03-2024 22:00:00,14.475800,75.905200,CO,10,24,18
India,Karnataka,Dharwad,"Kalabhavan, Dharwad - KSPCB",12-03-2024 22:00:00,15.459706,75.008381,NH3,2,3,2
India,Karnataka,Dharwad,"Kalabhavan, Dharwad - KSPCB",12-03-2024 22:00:00,15.459706,75.008381,OZONE,2,54,18
India,Karnataka,Gadag,"Panchal Nagar, Gadag - KSPCB",12-03-2024 22:00:00,15.411456,75.638133,NO2,5,26,13
India,Karnataka,Gadag,"Panchal Nagar, Gadag - KSPCB",12-03-2024 22:00:00,15.411456,75.638133,SO2,14,28,17
India,Karnataka,Gadag,"Panchal Nagar, Gadag - KSPCB",12-03-2024 22:00:00,15.411456,75.638133,CO,42,49,45
India,Karnataka,Haveri,"Ashwini Nagar, Haveri - KSPCB",12-03-2024 22:00:00,14.791800,75.389600,NO2,7,35,23
India,Karnataka,Haveri,"Ashwini Nagar, Haveri - KSPCB",12-03-2024 22:00:00,14.791800,75.389600,NH3,2,3,3
India,Karnataka,Hubballi,"Deshpande Nagar, Hubballi - KSPCB",12-03-2024 22:00:00,15.351773,75.140726,NO2,26,27,27
India,Karnataka,Kalaburagi,"Lal Bahadur Shastri Nagar, Kalaburagi - KSPCB",12-03-2024 22:00:00,17.321993,76.822628,PM2.5,NA,NA,NA
India,Karnataka,Kalaburagi,"Lal Bahadur Shastri Nagar, Kalaburagi - KSPCB",12-03-2024 22:00:00,17.321993,76.822628,OZONE,6,74,51
India,Karnataka,Kalaburagi,"Mahatma Basaveswar Colony, Kalaburgi - KSPCB",12-03-2024 22:00:00,17.336318,76.847397,NO2,8,31,20
India,Karnataka,Kolar,"Tamaka Ind. Area, Kolar - KSPCB",12-03-2024 22:00:00,13.1276288,78.1570122,NO2,18,35,23
India,Karnataka,Kolar,"Tamaka Ind. Area, Kolar - KSPCB",12-03-2024 22:00:00,13.1276288,78.1570122,NH3,3,20,11
India,Karnataka,Kolar,"Tamaka Ind. Area, Kolar - KSPCB",12-03-2024 22:00:00,13.1276288,78.1570122,OZONE,7,12,8
India,Karnataka,Koppal,"Diwator Nagar, Koppal - KSPCB",12-03-2024 22:00:00,15.347630,76.181767,OZONE,30,65,53
India,Karnataka,Madikeri,"Stuart Hill, Madikeri - KSPCB",12-03-2024 22:00:00,12.415911,75.735050,PM2.5,32,55,49
India,Karnataka,Mangalore,"Kadri, Mangalore - KSPCB",12-03-2024 22:00:00,12.889250,74.853000,PM10,71,110,86
India,Karnataka,Mangalore,"Kadri, Mangalore - KSPCB",12-03-2024 22:00:00,12.889250,74.853000,NO2,6,6,6
India,Karnataka,Mysuru,"Hebbal 1st Stage, Mysuru - KSPCB",12-03-2024 22:00:00,12.21041,76.37376,PM2.5,25,67,43
India,Karnataka,Mysuru,"Hebbal 1st Stage, Mysuru - KSPCB",12-03-2024 22:00:00,12.21041,76.37376,CO,2,70,27
India,Karnataka,Raichur,"Haji Colony, Raichur - KSPCB",12-03-2024 22:00:00,16.208139,77.348417,NO2,19,42,30
India,Karnataka,Ramanagara,"Vijay Nagar, Ramanagara - KSPCB",12-03-2024 22:00:00,12.733409,77.298051,NO2,2,16,7
India,Karnataka,Ramanagara,"Vijay Nagar, Ramanagara - KSPCB",12-03-2024 22:00:00,12.733409,77.298051,CO,4,36,19
India,Karnataka,Tumakuru,"Thimmalapura, Tumakuru - KSPCB",12-03-2024 22:00:00,13.377516,77.099072,SO2,8,18,10
India,Karnataka,Udupi,"Brahmagiri, Udupi - KSPCB",12-03-2024 22:00:00,13.34194444,74.74694444,CO,44,48,45
India,Karnataka,Vijayapura,"Ibrahimpur, Vijayapura - KSPCB",12-03-2024 22:00:00,16.802639,75.722694,PM10,38,39,39
India,Karnataka,Vijayapura,"Ibrahimpur, Vijayapura - KSPCB",12-03-2024 22:00:00,16.802639,75.722694,NO2,17,19,19
India,Kerala,Kannur,"Thavakkara, Kannur - Kerala PCB",12-03-2024 22:00:00,11.875000,75.373200,PM2.5,51,61,56
India,Kerala,Kannur,"Thavakkara, Kannur - Kerala PCB",12-03-2024 22:00:00,11.875000,75.373200,OZONE,32,36,33
India,Kerala,Kochi,"Vyttila, Kochi - Kerala PCB",12-03-2024 22:00:00,9.969447,76.321186,NH3,3,3,3
India,Kerala,Kollam,"Polayathode, Kollam - Kerala PCB",12-03-2024 22:00:00,8.8787,76.6073,PM2.5,100,278,160
India,Kerala,Kollam,"Polayathode, Kollam - Kerala PCB",12-03-2024 22:00:00,8.8787,76.6073,PM10,82,124,98
India,Kerala,Kollam,"Polayathode, Kollam - Kerala PCB",12-03-2024 22:00:00,8.8787,76.6073,NO2,8,9,8
India,Kerala,Thiruvananthapuram,"Kariavattom, Thiruvananthapuram - Kerala PCB",12-03-2024 22:00:00,8.563700,76.886500,CO,18,38,20
India,Kerala,Thiruvananthapuram,"Kariavattom, Thiruvananthapuram - Kerala PCB",12-03-2024 22:00:00,8.563700,76.886500,OZONE,27,32,30
India,Kerala,Thiruvananthapuram,"Plammoodu, Thiruvananthapuram - Kerala PCB",12-03-2024 22:00:00,8.5149093,76.9435879,OZONE,11,34,20
India,Kerala,Thrissur,"Corporation Ground, Thrissur - Kerala PCB",12-03-2024 22:00:00,10.532400,76.215900,PM10,62,70,65
India,Madhya Pradesh,Bhopal,"Idgah Hills, Bhopal - MPPCB",12-03-2024 22:00:00,23.264759,77.381568,PM10,63,141,99
India,Madhya Pradesh,Bhopal,"Paryavaran Parisar, Bhopal - MPPCB",12-03-2024 22:00:00,23.210494,77.425409,NO2,13,91,45
India,Madhya Pradesh,Bhopal,"T T Nagar, Bhopal - MPPCB",12-03-2024 22:00:00,23.233584,77.400574,PM10,56,160,112
India,Madhya Pradesh,Bhopal,"T T Nagar, Bhopal - MPPCB",12-03-2024 22:00:00,23.233584,77.400574,OZONE,4,88,55
India,Madhya Pradesh,Gwalior,"City Center, Gwalior - MPPCB",12-03-2024 22:00:00,26.203442,78.193251,NO2,15,79,39
India,Madhya Pradesh,Gwalior,"Deen Dayal Nagar, Gwalior - MPPCB",12-03-2024 22:00:00,26.259242,78.216432,CO,39,121,45
India,Madhya Pradesh,Gwalior,"Maharaj Bada, Gwalior - MPPCB",12-03-2024 22:00:00,26.200388,78.147714,PM10,96,233,145
India,Madhya Pradesh,Gwalior,"Maharaj Bada, Gwalior - MPPCB",12-03-2024 22:00:00,26.200388,78.147714,NO2,13,113,46
India,Madhya Pradesh,Gwalior,"Maharaj Bada, Gwalior - MPPCB",12-03-2024 22:00:00,26.200388,78.147714,CO,5,114,40
India,Madhya Pradesh,Indore,"Chhoti Gwaltoli, Indore - MPPCB",12-03-2024 22:00:00,22.4310,75.5213,SO2,11,39,17
India,Madhya Pradesh,Indore,"Maguda Nagar, Indore - IMC",12-03-2024 22:00:00,22.7524,75.8872,PM2.5,NA,NA,NA
India,Madhya Pradesh,Indore,"Regional Park, Indore - IMC",12-03-2024 22:00:00,22.6780,75.8559,NH3,1,1,1
India,Madhya Pradesh,Jabalpur,"Gupteshwar, Jabalpur - JMC",12-03-2024 22:00:00,23.142888,79.916147,SO2,2,83,17
India,Madhya Pradesh,Jabalpur,"Gupteshwar, Jabalpur - JMC",12-03-2024 22:00:00,23.142888,79.916147,OZONE,17,181,95
India,Madhya Pradesh,Jabalpur,"Suhagi, Jabalpur - JMC",12-03-2024 22:00:00,23.218135,79.957770,OZONE,3,150,77
India,Madhya Pradesh,Katni,"Gole Bazar, Katni - MPPCB",12-03-2024 22:00:00,23.50016,80.23284,NO2,30,84,48
India,Madhya Pradesh,Katni,"Gole Bazar, Katni - MPPCB",12-03-2024 22:00:00,23.50016,80.23284,NH3,2,5,4
India,Madhya Pradesh,Katni,"Gole Bazar, Katni - MPPCB",12-03-2024 22:00:00,23.50016,80.23284,CO,12,27,18
India,Madhya Pradesh,Maihar,"Sahilara, Maihar - KJS Cements",12-03-2024 22:00:00,24.2613009,80.7231783,NO2,14,14,14
India,Madhya Pradesh,Mandideep,"Sector-D Industrial Area, Mandideep - MPPCB",12-03-2024 22:00:00,23.108440,77.511428,NH3,NA,NA,NA
India,Madhya Pradesh,Mandideep,"Sector-D Industrial Area, Mandideep - MPPCB",12-03-2024 22:00:00,23.108440,77.511428,SO2,NA,NA,NA
India,Madhya Pradesh,Mandideep,"Sector-D Industrial Area, Mandideep - MPPCB",12-03-2024 22:00:00,23.108440,77.511428,CO,12,110,33
India,Madhya Pradesh,Pithampur,"Sector-2 Industrial Area, Pithampur - MPPCB",12-03-2024 22:00:00,22.624758,75.675238,PM2.5,19,77,50
India,Madhya Pradesh,Pithampur,"Sector-2 Industrial Area, Pithampur - MPPCB",12-03-2024 22:00:00,22.624758,75.675238,SO2,12,15,14
India,Madhya Pradesh,Ratlam,"Shasthri Nagar, Ratlam - IPCA Lab",12-03-2024 22:00:00,23.331731,75.045981,PM2.5,16,115,45
India,Madhya Pradesh,Sagar,"Civil Lines, Sagar - MPPCB",12-03-2024 22:00:00,23.838586,78.759431,NH3,5,17,7
India,Madhya Pradesh,Sagar,"Civil Lines, Sagar - MPPCB",12-03-2024 22:00:00,23.838586,78.759431,CO,21,45,36
India,Madhya Pradesh,Satna,"Bandhavgar Colony, Satna - Birla Cement",12-03-2024 22:00:00,24.58434363,80.8549414,CO,24,76,38
India,Madhya Pradesh,Ujjain,"Mahakaleshwar Temple, Ujjain - MPPCB",12-03-2024 22:00:00,23.182719 ,75.768218 ,NO2,9,36,21
India,Maharashtra,Ahmednagar,"Tarakpur, Ahmednagar - MPCB",12-03-2024 22:00:00,19.10122,74.73339,NO2,26,151,60
India,Maharashtra,Ahmednagar,"Tarakpur, Ahmednagar - MPCB",12-03-2024 22:00:00,19.10122,74.73339,OZONE,7,168,99
India,Maharashtra,Akola,"Ramdaspeth, Akola - MPCB",12-03-2024 22:00:00,20.719516,77.000253,SO2,6,46,15
India,Maharashtra,Akola,"Ramdaspeth, Akola - MPCB",12-03-2024 22:00:00,20.719516,77.000253,OZONE,2,91,47
India,Maharashtra,Amravati,"Shivneri Colony, Amravati - MPCB",12-03-2024 22:00:00,20.9402359,77.7895248,PM10,75,119,99
India,Maharashtra,Amravati,"Shivneri Colony, Amravati - MPCB",12-03-2024 22:00:00,20.9402359,77.7895248,NO2,13,60,34
India,Maharashtra,Amravati,"Shivneri Colony, Amravati - MPCB",12-03-2024 22:00:00,20.9402359,77.7895248,NH3,1,2,1
India,Maharashtra,Amravati,"Shivneri Colony, Amravati - MPCB",12-03-2024 22:00:00,20.9402359,77.7895248,OZONE,2,127,75
India,Maharashtra,Amravati,"Shri Shivaji Science College, Amaravati - MPCB",12-03-2024 22:00:00,20.939198,77.765701,CO,14,74,28
India,Maharashtra,Aurangabad,"More Chowk Waluj, Aurangabad - MPCB",12-03-2024 22:00:00,19.8389439,75.244448,PM10,20,108,65
India,Maharashtra,Aurangabad,"More Chowk Waluj, Aurangabad - MPCB",12-03-2024 22:00:00,19.8389439,75.244448,NH3,1,1,1
India,Maharashtra,Aurangabad,"Rachnakar Colony, Aurangabad - MPCB",12-03-2024 22:00:00,19.863756,75.321188,SO2,17,56,40
India,Maharashtra,Aurangabad,"Rachnakar Colony, Aurangabad - MPCB",12-03-2024 22:00:00,19.863756,75.321188,CO,10,75,28
India,Maharashtra,Badlapur,"Katrap, Badlapur - MPCB",12-03-2024 22:00:00,19.16485,73.23409,PM10,63,277,118
India,Maharashtra,Belapur,"CBD Belapur, Belapur - MPCB",12-03-2024 22:00:00,19.0243902,73.0406721,NO2,10,67,38
India,Maharashtra,Bhiwandi,"Gokul Nagar, Bhiwandi - MPCB",12-03-2024 22:00:00,19.309073,73.057223,SO2,3,30,10
India,Maharashtra,Boisar,"Khaira, Boisar - MPCB",12-03-2024 22:00:00,19.786089,72.757971,OZONE,1,95,32
India,Maharashtra,Chandrapur,"Chauhan Colony, Chandrapur - MPCB",12-03-2024 22:00:00,19.962900,79.298714,PM2.5,77,314,135
India,Maharashtra,Chandrapur,"Chauhan Colony, Chandrapur - MPCB",12-03-2024 22:00:00,19.962900,79.298714,NH3,3,4,3
India,Maharashtra,Chandrapur,"MIDC Khutala, Chandrapur - MPCB",12-03-2024 22:00:00,19.9775302,79.2337086,CO,23,95,55
India,Maharashtra,Dhule,"Deopur, Dhule - MPCB",12-03-2024 22:00:00,20.918946,74.776388,PM10,72,194,107
India,Maharashtra,Dhule,"Deopur, Dhule - MPCB",12-03-2024 22:00:00,20.918946,74.776388,CO,9,46,11
India,Maharashtra,Jalgaon,"Prabhat Colony, Jalgaon - MPCB",12-03-2024 22:00:00,21.001264,75.565602,PM2.5,46,187,104
India,Maharashtra,Jalgaon,"Prabhat Colony, Jalgaon - MPCB",12-03-2024 22:00:00,21.001264,75.565602,NO2,13,126,41
India,Maharashtra,Kalyan,"Khadakpada, Kalyan - MPCB",12-03-2024 22:00:00,19.25292,73.142019,NH3,1,2,1
India,Maharashtra,Kalyan,"Khadakpada, Kalyan - MPCB",12-03-2024 22:00:00,19.25292,73.142019,SO2,28,57,35
India,Maharashtra,Kolhapur,"Shivaji University, Kolhapur - MPCB",12-03-2024 22:00:00,16.6870449,74.2505872,PM10,107,230,135
India,Maharashtra,Kolhapur,"Shivaji University, Kolhapur - MPCB",12-03-2024 22:00:00,16.6870449,74.2505872,NH3,4,10,6
India,Maharashtra,Kolhapur,"Shivaji University, Kolhapur - MPCB",12-03-2024 22:00:00,16.6870449,74.2505872,SO2,4,19,11
India,Maharashtra,Kolhapur,"Sinchan Bhavan, Kolhapur - MPCB",12-03-2024 22:00:00,16.7143745,74.2426398,NH3,7,8,8
India,Maharashtra,Kolhapur,"Sinchan Bhavan, Kolhapur - MPCB",12-03-2024 22:00:00,16.7143745,74.2426398,SO2,1,15,7
India,Maharashtra,Kolhapur,"Sinchan Bhavan, Kolhapur - MPCB",12-03-2024 22:00:00,16.7143745,74.2426398,CO,28,76,33
India,Maharashtra,Latur,"Sawe Wadi, Latur - MPCB",12-03-2024 22:00:00,18.39963,76.57452,PM2.5,79,223,122
India,Maharashtra,Latur,"Sawe Wadi, Latur - MPCB",12-03-2024 22:00:00,18.39963,76.57452,PM10,80,128,98
India,Maharashtra,Latur,"Sawe Wadi, Latur - MPCB",12-03-2024 22:00:00,18.39963,76.57452,NO2,10,74,27
India,Maharashtra,Latur,"Sawe Wadi, Latur - MPCB",12-03-2024 22:00:00,18.39963,76.57452,SO2,3,12,8
India,Maharashtra,Latur,"Sawe Wadi, Latur - MPCB",12-03-2024 22:00:00,18.39963,76.57452,CO,8,51,22
India,Maharashtra,Mahad,"Kamble Tarf Birwadi, Mahad - MPCB",12-03-2024 22:00:00,18.1023399,73.4783687,NO2,22,70,37
India,Maharashtra,Malegaon,"Mahesh Nagar, Malegaon - MPCB",12-03-2024 22:00:00,20.555712,74.529236,NO2,3,17,8
India,Maharashtra,Mira-Bhayandar,"Bhayandar West, Mira-Bhayandar - MPCB",12-03-2024 22:00:00,19.296481,72.840923,PM10,45,230,148
India,Maharashtra,Mira-Bhayandar,"Bhayandar West, Mira-Bhayandar - MPCB",12-03-2024 22:00:00,19.296481,72.840923,SO2,5,23,12
India,Maharashtra,Mumbai,"Bandra Kurla Complex, Mumbai - MPCB",12-03-2024 22:00:00,19.065931,72.862131,OZONE,2,74,55
India,Maharashtra,Mumbai,"Borivali East, Mumbai - IITM",12-03-2024 22:00:00,19.23241,72.86895,PM2.5,77,217,103
India,Maharashtra,Mumbai,"Borivali East, Mumbai - MPCB",12-03-2024 22:00:00,19.2243333,72.8658113,PM2.5,NA,NA,NA
India,Maharashtra,Mumbai,"Byculla, Mumbai - BMC",12-03-2024 22:00:00,18.9767,72.8380,SO2,5,29,13
India,Maharashtra,Mumbai,"Byculla, Mumbai - BMC",12-03-2024 22:00:00,18.9767,72.8380,CO,17,32,23
India,Maharashtra,Mumbai,"Byculla, Mumbai - BMC",12-03-2024 22:00:00,18.9767,72.8380,OZONE,40,147,109
India,Maharashtra,Mumbai,"Chakala-Andheri East, Mumbai - IITM",12-03-2024 22:00:00,19.11074,72.86084,PM2.5,78,132,100
India,Maharashtra,Mumbai,"Chakala-Andheri East, Mumbai - IITM",12-03-2024 22:00:00,19.11074,72.86084,NH3,2,23,10
India,Maharashtra,Mumbai,"Chakala-Andheri East, Mumbai - IITM",12-03-2024 22:00:00,19.11074,72.86084,CO,13,91,45
India,Maharashtra,Mumbai,"Chembur, Mumbai - MPCB",12-03-2024 22:00:00,19.0364585,72.8954371,NH3,3,5,4
India,Maharashtra,Mumbai,"Chembur, Mumbai - MPCB",12-03-2024 22:00:00,19.0364585,72.8954371,CO,17,62,31
India,Maharashtra,Mumbai,"Chhatrapati Shivaji Intl. Airport (T2), Mumbai - MPCB",12-03-2024 22:00:00,19.10078,72.87462,PM2.5,28,49,38
India,Maharashtra,Mumbai,"Chhatrapati Shivaji Intl. Airport (T2), Mumbai - MPCB",12-03-2024 22:00:00,19.10078,72.87462,NO2,15,63,40
India,Maharashtra,Mumbai,"Chhatrapati Shivaji Intl. Airport (T2), Mumbai - MPCB",12-03-2024 22:00:00,19.10078,72.87462,CO,54,96,66
India,Maharashtra,Mumbai,"Colaba, Mumbai - MPCB",12-03-2024 22:00:00,18.910000,72.820000,NH3,1,1,1
India,Maharashtra,Mumbai,"Ghatkopar, Mumbai - BMC",12-03-2024 22:00:00,19.083694,72.920967,NH3,2,9,4
India,Maharashtra,Mumbai,"Kandivali West, Mumbai - BMC",12-03-2024 22:00:00,19.215859,72.831718,PM10,NA,NA,NA
India,Maharashtra,Mumbai,"Khindipada-Bhandup West, Mumbai - IITM",12-03-2024 22:00:00,19.1653323,72.922099,CO,2,30,19
India,Maharashtra,Mumbai,"Kurla, Mumbai - MPCB",12-03-2024 22:00:00,19.0863,72.8888,NH3,2,5,3
India,Maharashtra,Mumbai,"Mulund West, Mumbai - MPCB",12-03-2024 22:00:00,19.1750,72.9419,PM2.5,27,54,36
India,Maharashtra,Mumbai,"Navy Nagar-Colaba, Mumbai - IITM",12-03-2024 22:00:00,18.897756,72.813320,OZONE,73,266,162
India,Maharashtra,Mumbai,"Powai, Mumbai - MPCB",12-03-2024 22:00:00,19.137500,72.915056,NO2,20,62,29
India,Maharashtra,Mumbai,"Powai, Mumbai - MPCB",12-03-2024 22:00:00,19.137500,72.915056,SO2,30,40,33
India,Maharashtra,Mumbai,"Shivaji Nagar, Mumbai - BMC",12-03-2024 22:00:00,19.060498,72.923356,PM2.5,NA,NA,NA
India,Maharashtra,Mumbai,"Shivaji Nagar, Mumbai - BMC",12-03-2024 22:00:00,19.060498,72.923356,PM10,NA,NA,NA
India,Maharashtra,Mumbai,"Shivaji Nagar, Mumbai - BMC",12-03-2024 22:00:00,19.060498,72.923356,NO2,37,136,81
India,Maharashtra,Mumbai,"Shivaji Nagar, Mumbai - BMC",12-03-2024 22:00:00,19.060498,72.923356,NH3,4,8,6
India,Maharashtra,Mumbai,"Siddharth Nagar-Worli, Mumbai - IITM",12-03-2024 22:00:00,19.000083,72.813993,PM2.5,NA,NA,NA
India,Maharashtra,Mumbai,"Sion, Mumbai - MPCB",12-03-2024 22:00:00,19.047000,72.874600,PM10,89,176,133
India,Maharashtra,Mumbai,"Sion, Mumbai - MPCB",12-03-2024 22:00:00,19.047000,72.874600,NO2,23,81,42
India,Maharashtra,Mumbai,"Sion, Mumbai - MPCB",12-03-2024 22:00:00,19.047000,72.874600,NH3,1,2,1
India,Maharashtra,Mumbai,"Vasai West, Mumbai - MPCB",12-03-2024 22:00:00,19.383200,72.820400,PM2.5,43,86,58
India,Maharashtra,Mumbai,"Vasai West, Mumbai - MPCB",12-03-2024 22:00:00,19.383200,72.820400,PM10,NA,NA,NA
India,Maharashtra,Mumbai,"Vasai West, Mumbai - MPCB",12-03-2024 22:00:00,19.383200,72.820400,NO2,25,29,27
India,Maharashtra,Mumbai,"Vasai West, Mumbai - MPCB",12-03-2024 22:00:00,19.383200,72.820400,CO,39,60,44
India,Maharashtra,Mumbai,"Vile Parle West, Mumbai - MPCB",12-03-2024 22:00:00,19.10861,72.83622,SO2,13,14,14
India,Maharashtra,Mumbai,"Vile Parle West, Mumbai - MPCB",12-03-2024 22:00:00,19.10861,72.83622,CO,71,74,73
India,Maharashtra,Nagpur,"Ambazari, Nagpur - MPCB",12-03-2024 22:00:00,21.121801,79.04952,PM10,75,118,97
India,Maharashtra,Nagpur,"Ambazari, Nagpur - MPCB",12-03-2024 22:00:00,21.121801,79.04952,NO2,18,77,34
India,Maharashtra,Nagpur,"Ambazari, Nagpur - MPCB",12-03-2024 22:00:00,21.121801,79.04952,CO,15,70,42
India,Maharashtra,Nagpur,"Mahal, Nagpur - MPCB",12-03-2024 22:00:00,21.14472,79.107595,PM2.5,62,112,85
India,Maharashtra,Nagpur,"Mahal, Nagpur - MPCB",12-03-2024 22:00:00,21.14472,79.107595,CO,20,134,73
India,Maharashtra,Nagpur,"Mahal, Nagpur - MPCB",12-03-2024 22:00:00,21.14472,79.107595,OZONE,1,139,50
India,Maharashtra,Nagpur,"Opp GPO Civil Lines, Nagpur - MPCB",12-03-2024 22:00:00,21.152875,79.0517531,PM10,69,135,98
India,Maharashtra,Nagpur,"Ram Nagar, Nagpur - MPCB",12-03-2024 22:00:00,21.143383,79.048912,NO2,6,46,23
India,Maharashtra,Nanded,"Sneh Nagar, Nanded - MPCB",12-03-2024 22:00:00,19.173852,77.296291,NO2,NA,NA,NA
India,Maharashtra,Nanded,"Sneh Nagar, Nanded - MPCB",12-03-2024 22:00:00,19.173852,77.296291,NH3,NA,NA,NA
India,Maharashtra,Nashik,"Gangapur Road, Nashik - MPCB",12-03-2024 22:00:00,20.0073285,73.7762427,PM2.5,55,133,85
India,Maharashtra,Nashik,"Gangapur Road, Nashik - MPCB",12-03-2024 22:00:00,20.0073285,73.7762427,PM10,60,122,89
India,Maharashtra,Nashik,"Gangapur Road, Nashik - MPCB",12-03-2024 22:00:00,20.0073285,73.7762427,SO2,1,9,4
India,Maharashtra,Nashik,"Hirawadi, Nashik - MPCB",12-03-2024 22:00:00,20.021503,73.813844,NH3,1,1,1
India,Maharashtra,Nashik,"MIDC Ambad, Nashik - MPCB",12-03-2024 22:00:00,19.950220,73.731480,CO,7,109,13
India,Maharashtra,Nashik,"Pandav Nagari, Nashik - MPCB",12-03-2024 22:00:00,19.9591346,73.7788008,PM10,NA,NA,NA
India,Maharashtra,Nashik,"Pandav Nagari, Nashik - MPCB",12-03-2024 22:00:00,19.9591346,73.7788008,CO,18,31,25
India,Maharashtra,Navi Mumbai,"Kopripada-Vashi, Navi Mumbai - MPCB",12-03-2024 22:00:00,19.090337,73.014232,PM2.5,48,358,141
India,Maharashtra,Navi Mumbai,"Kopripada-Vashi, Navi Mumbai - MPCB",12-03-2024 22:00:00,19.090337,73.014232,NO2,33,130,81
India,Maharashtra,Navi Mumbai,"Mahape, Navi Mumbai - MPCB",12-03-2024 22:00:00,19.1135051,73.008978,NO2,37,41,38
India,Maharashtra,Navi Mumbai,"Mahape, Navi Mumbai - MPCB",12-03-2024 22:00:00,19.1135051,73.008978,SO2,26,27,26
India,Maharashtra,Navi Mumbai,"Mahape, Navi Mumbai - MPCB",12-03-2024 22:00:00,19.1135051,73.008978,OZONE,26,70,50
India,Maharashtra,Navi Mumbai,"Sanpada, Navi Mumbai - MPCB",12-03-2024 22:00:00,19.0575752,73.0151367,PM10,93,196,140
India,Maharashtra,Navi Mumbai,"Sanpada, Navi Mumbai - MPCB",12-03-2024 22:00:00,19.0575752,73.0151367,NH3,9,29,16
India,Maharashtra,Navi Mumbai,"Sector-2E Kalamboli, Navi Mumbai - MPCB",12-03-2024 22:00:00,19.02579,73.10297,PM2.5,48,118,79
India,Maharashtra,Navi Mumbai,"Sector-2E Kalamboli, Navi Mumbai - MPCB",12-03-2024 22:00:00,19.02579,73.10297,OZONE,1,134,53
India,Maharashtra,Navi Mumbai,"Tondare-Taloja, Navi Mumbai - MPCB",12-03-2024 22:00:00,19.0630,73.1209,NH3,3,9,5
India,Maharashtra,Navi Mumbai,"Tondare-Taloja, Navi Mumbai - MPCB",12-03-2024 22:00:00,19.0630,73.1209,SO2,11,65,40
India,Maharashtra,Parbhani,"Masoom Colony, Parbhani - MPCB",12-03-2024 22:00:00,19.265594,76.761463,PM2.5,92,302,209
India,Maharashtra,Parbhani,"Masoom Colony, Parbhani - MPCB",12-03-2024 22:00:00,19.265594,76.761463,NO2,19,61,31
India,Maharashtra,Parbhani,"Masoom Colony, Parbhani - MPCB",12-03-2024 22:00:00,19.265594,76.761463,CO,10,58,20
India,Maharashtra,Parbhani,"Masoom Colony, Parbhani - MPCB",12-03-2024 22:00:00,19.265594,76.761463,OZONE,16,138,114
India,Maharashtra,Pimpri-Chinchwad,"Gavalinagar, Pimpri Chinchwad - MPCB",12-03-2024 22:00:00,18.63673,73.82487,SO2,8,30,18
India,Maharashtra,Pimpri-Chinchwad,"Park Street Wakad, Pimpri Chinchwad - MPCB",12-03-2024 22:00:00,18.59051,73.77946,PM10,97,193,154
India,Maharashtra,Pimpri-Chinchwad,"Park Street Wakad, Pimpri Chinchwad - MPCB",12-03-2024 22:00:00,18.59051,73.77946,NO2,55,165,94
India,Maharashtra,Pimpri-Chinchwad,"Park Street Wakad, Pimpri Chinchwad - MPCB",12-03-2024 22:00:00,18.59051,73.77946,SO2,9,30,17
India,Maharashtra,Pimpri-Chinchwad,"Park Street Wakad, Pimpri Chinchwad - MPCB",12-03-2024 22:00:00,18.59051,73.77946,CO,18,100,28
India,Maharashtra,Pimpri-Chinchwad,"Thergaon, Pimpri Chinchwad - MPCB",12-03-2024 22:00:00,18.616318,73.765797,OZONE,3,165,122
India,Maharashtra,Pune,"Bhosari, Pune - IITM",12-03-2024 22:00:00,18.640051,73.848956,CO,40,48,45
India,Maharashtra,Pune,"Karve Road, Pune - MPCB",12-03-2024 22:00:00,18.5011743,73.8165527,PM10,127,127,127
India,Maharashtra,Pune,"Katraj Dairy, Pune - MPCB",12-03-2024 22:00:00,18.454450,73.854155,PM2.5,NA,NA,NA
India,Maharashtra,Pune,"Savitribai Phule Pune University, Pune - MPCB",12-03-2024 22:00:00,18.547056,73.826908,SO2,13,24,17
India,Maharashtra,Sangli,"Vijay Nagar, Sangli - MPCB",12-03-2024 22:00:00, 16.5038,74.3623,NH3,1,3,2
India,Maharashtra,Sangli,"Vijay Nagar, Sangli - MPCB",12-03-2024 22:00:00, 16.5038,74.3623,SO2,14,38,25
India,Maharashtra,Solapur,"Dnyaneshwar Nagar, Solapur - MPCB",12-03-2024 22:00:00,17.6336264,75.9132495,NO2,8,76,29
India,Maharashtra,Solapur,"Dnyaneshwar Nagar, Solapur - MPCB",12-03-2024 22:00:00,17.6336264,75.9132495,NH3,11,37,19
India,Maharashtra,Solapur,"Ratandeep Housing Society, Solapur - MPCB",12-03-2024 22:00:00,17.65439,75.90649,OZONE,9,154,93
India,Maharashtra,Thane,"Kasarvadavali, Thane - MPCB",12-03-2024 22:00:00,19.26777,72.97182,SO2,9,22,16
India,Maharashtra,Thane,"Pimpleshwar Mandir, Thane - MPCB",12-03-2024 22:00:00,19.192056,72.9585188,OZONE,1,60,40
India,Maharashtra,Thane,"Upvan Fort, Thane - MPCB",12-03-2024 22:00:00,19.222279,72.957979,OZONE,29,102,84
India,Maharashtra,Ulhasnagar,"Sidhi Vinayak Nagar, Ulhasnagar - MPCB",12-03-2024 22:00:00,19.235581,73.159121,PM10,99,194,129
India,Maharashtra,Ulhasnagar,"Sidhi Vinayak Nagar, Ulhasnagar - MPCB",12-03-2024 22:00:00,19.235581,73.159121,NH3,2,3,3
India,Maharashtra,Ulhasnagar,"Sidhi Vinayak Nagar, Ulhasnagar - MPCB",12-03-2024 22:00:00,19.235581,73.159121,SO2,11,50,20
India,Maharashtra,Ulhasnagar,"Sidhi Vinayak Nagar, Ulhasnagar - MPCB",12-03-2024 22:00:00,19.235581,73.159121,OZONE,2,88,57
India,Maharashtra,Virar,"Bolinj, Virar - MPCB",12-03-2024 22:00:00,19.4458210,72.7988231,PM2.5,66,128,93
India,Maharashtra,Virar,"Bolinj, Virar - MPCB",12-03-2024 22:00:00,19.4458210,72.7988231,PM10,93,116,108
India,Manipur,Imphal,"Manipur University, Imphal - Manipur PCB",12-03-2024 22:00:00,24.7524239,93.9286218,PM2.5,73,272,138
India,Manipur,Imphal,"Manipur University, Imphal - Manipur PCB",12-03-2024 22:00:00,24.7524239,93.9286218,SO2,73,80,76
India,Meghalaya,Shillong,"Lumpyngngad, Shillong - Meghalaya PCB",12-03-2024 22:00:00,25.5586,91.8985,SO2,38,51,41
India,Meghalaya,Shillong,"Lumpyngngad, Shillong - Meghalaya PCB",12-03-2024 22:00:00,25.5586,91.8985,CO,10,22,16
India,Meghalaya,Shillong,"Lumpyngngad, Shillong - Meghalaya PCB",12-03-2024 22:00:00,25.5586,91.8985,OZONE,63,233,233
India,Mizoram,Aizawl,"Sikulpuikawn, Aizawl - Mizoram PCB",12-03-2024 22:00:00,23.7176342,92.7192841,PM10,71,123,99
India,Odisha,Angul,"Hakimapada, Angul - OSPCB",12-03-2024 22:00:00,20.832874,85.104082,PM10,88,500,194
India,Odisha,Balasore,"Kalidaspur, Balasore - OSPCB",12-03-2024 22:00:00,21.51161,86.89088,NO2,1,9,3
India,Odisha,Balasore,"Kalidaspur, Balasore - OSPCB",12-03-2024 22:00:00,21.51161,86.89088,OZONE,12,172,73
India,Odisha,Barbil,"Forest Office, Barbil - OSPCB",12-03-2024 22:00:00,22.1166054,85.3945546,PM10,94,421,185
India,Odisha,Barbil,"Forest Office, Barbil - OSPCB",12-03-2024 22:00:00,22.1166054,85.3945546,OZONE,8,159,88
India,Odisha,Baripada,"Meher Colony, Baripada - OSPCB",12-03-2024 22:00:00,21.941841,86.728318,NH3,4,4,4
India,Odisha,Bileipada,"Tata Township, Bileipada - OSPCB",12-03-2024 22:00:00,22.06156703,85.47409613,CO,14,36,19
India,Odisha,Byasanagar,"Ferro Chrome Colony, Byasanagar - OSPCB",12-03-2024 22:00:00,20.94185,86.11510,PM10,58,181,104
India,Odisha,Byasanagar,"Ferro Chrome Colony, Byasanagar - OSPCB",12-03-2024 22:00:00,20.94185,86.11510,CO,67,116,80
India,Odisha,Cuttack,"CDA Area, Cuttack - OSPCB",12-03-2024 22:00:00,20.48891     ,85.84768     ,CO,24,35,30
India,Odisha,Cuttack,"CDA Area, Cuttack - OSPCB",12-03-2024 22:00:00,20.48891     ,85.84768     ,OZONE,28,190,103
India,Odisha,Keonjhar,"Jagamohanpur, Keonjhar - OSPCB",12-03-2024 22:00:00,21.643900,85.599355,PM10,102,134,118
India,Odisha,Keonjhar,"Jagamohanpur, Keonjhar - OSPCB",12-03-2024 22:00:00,21.643900,85.599355,SO2,12,35,18
India,Odisha,Keonjhar,"Jagamohanpur, Keonjhar - OSPCB",12-03-2024 22:00:00,21.643900,85.599355,CO,12,66,46
India,Odisha,Keonjhar,"Jagamohanpur, Keonjhar - OSPCB",12-03-2024 22:00:00,21.643900,85.599355,OZONE,1,48,18
India,Odisha,Rairangpur,"Divisional Forest Office, Rairangpur - OSPCB",12-03-2024 22:00:00,22.265816,86.174829,CO,16,39,26
India,Odisha,Suakati,"OMC Colony, Suakati - OSPCB",12-03-2024 22:00:00,21.606865,85.510538,PM10,115,238,140
India,Puducherry,Puducherry,"Jawahar Nagar, Puducherry - PPCC",12-03-2024 22:00:00,11.9309,79.8027,PM10,34,100,55
India,Puducherry,Puducherry,"Jawahar Nagar, Puducherry - PPCC",12-03-2024 22:00:00,11.9309,79.8027,NO2,2,31,9
India,Puducherry,Puducherry,"Jawahar Nagar, Puducherry - PPCC",12-03-2024 22:00:00,11.9309,79.8027,CO,15,54,23
India,Punjab,Amritsar,"Golden Temple, Amritsar - PPCB",12-03-2024 22:00:00,31.620000,74.876512,PM2.5,40,255,133
India,Punjab,Amritsar,"Golden Temple, Amritsar - PPCB",12-03-2024 22:00:00,31.620000,74.876512,SO2,1,46,19
India,Punjab,Bathinda,"Hardev Nagar, Bathinda - PPCB",12-03-2024 22:00:00,30.233011,74.907758,PM2.5,21,103,55
India,Punjab,Bathinda,"Hardev Nagar, Bathinda - PPCB",12-03-2024 22:00:00,30.233011,74.907758,SO2,1,22,11
India,Punjab,Jalandhar,"Civil Line, Jalandhar - PPCB",12-03-2024 22:00:00,31.321907,75.578914,PM10,68,120,95
India,Punjab,Jalandhar,"Civil Line, Jalandhar - PPCB",12-03-2024 22:00:00,31.321907,75.578914,OZONE,4,140,80
India,Punjab,Khanna,"Kalal Majra, Khanna - PPCB",12-03-2024 22:00:00,30.736056 ,76.209694,NH3,14,14,14
India,Punjab,Khanna,"Kalal Majra, Khanna - PPCB",12-03-2024 22:00:00,30.736056 ,76.209694,SO2,9,31,17
India,Punjab,Khanna,"Kalal Majra, Khanna - PPCB",12-03-2024 22:00:00,30.736056 ,76.209694,CO,3,38,34
India,Punjab,Ludhiana,"Punjab Agricultural University, Ludhiana - PPCB",12-03-2024 22:00:00,30.9028,75.8086,SO2,7,24,12
India,Punjab,Ludhiana,"Punjab Agricultural University, Ludhiana - PPCB",12-03-2024 22:00:00,30.9028,75.8086,OZONE,11,55,33
India,Punjab,Mandi Gobindgarh,"RIMT University, Mandi Gobindgarh - PPCB",12-03-2024 22:00:00,30.649961,76.331442,SO2,5,46,18
India,Punjab,Rupnagar,"Ratanpura, Rupnagar - Ambuja Cements",12-03-2024 22:00:00,31.0325454,76.5623046,PM2.5,29,245,120
India,Rajasthan,Ajmer,"Civil Lines,  Ajmer - RSPCB",12-03-2024 22:00:00,26.470859,74.646594,PM2.5,36,186,87
India,Rajasthan,Ajmer,"Civil Lines,  Ajmer - RSPCB",12-03-2024 22:00:00,26.470859,74.646594,NH3,4,5,5
India,Rajasthan,Alwar,"Moti Doongri, Alwar - RSPCB",12-03-2024 22:00:00,27.554793,76.611536,OZONE,19,31,28
India,Rajasthan,Banswara,"Rati Talai, Banswara - RSPCB",12-03-2024 22:00:00,23.555190,74.440010,SO2,22,43,30
India,Rajasthan,Baran,"Bamboliya, Baran - RSPCB",12-03-2024 22:00:00,25.106006,76.469948,SO2,8,34,16
India,Rajasthan,Baran,"Bamboliya, Baran - RSPCB",12-03-2024 22:00:00,25.106006,76.469948,OZONE,3,122,67
India,Rajasthan,Barmer,"Railway Colony, Barmer - RSPCB",12-03-2024 22:00:00,25.747299,71.393989,CO,6,112,43
India,Rajasthan,Bharatpur,"Krishna Nagar, Bharatpur - RSPCB",12-03-2024 22:00:00,27.215415,77.50873,PM2.5,76,307,164
India,Rajasthan,Bharatpur,"Krishna Nagar, Bharatpur - RSPCB",12-03-2024 22:00:00,27.215415,77.50873,PM10,133,257,175
India,Rajasthan,Bhilwara,"Pratap Nagar, Bhilwara - RSPCB",12-03-2024 22:00:00,25.339605,74.618883,PM2.5,29,197,64
India,Rajasthan,Bhilwara,"Pratap Nagar, Bhilwara - RSPCB",12-03-2024 22:00:00,25.339605,74.618883,CO,16,42,25
India,Rajasthan,Bhiwadi,"RIICO Ind. Area III, Bhiwadi - RSPCB",12-03-2024 22:00:00,28.194909,76.862296,NH3,5,16,10
India,Rajasthan,Bhiwadi,"RIICO Ind. Area III, Bhiwadi - RSPCB",12-03-2024 22:00:00,28.194909,76.862296,CO,1,131,26
India,Rajasthan,Bhiwadi,"Vasundhara Nagar_UIT, Bhiwadi - RSPCB",12-03-2024 22:00:00,28.207266,76.829265,PM10,95,292,174
India,Rajasthan,Bikaner,"MM Ground, Bikaner - RSPCB",12-03-2024 22:00:00,28.018792,73.292658,PM2.5,37,258,103
India,Rajasthan,Bikaner,"MM Ground, Bikaner - RSPCB",12-03-2024 22:00:00,28.018792,73.292658,SO2,2,9,5
India,Rajasthan,Bundi,"New Colony, Bundi - RSPCB",12-03-2024 22:00:00,25.435774,75.644272,NH3,NA,NA,NA
India,Rajasthan,Bundi,"New Colony, Bundi - RSPCB",12-03-2024 22:00:00,25.435774,75.644272,SO2,NA,NA,NA
India,Rajasthan,Churu,"Subash Chowk, Churu - RSPCB",12-03-2024 22:00:00,28.296139,74.961696,PM2.5,27,198,83
India,Rajasthan,Churu,"Subash Chowk, Churu - RSPCB",12-03-2024 22:00:00,28.296139,74.961696,NO2,3,32,12
India,Rajasthan,Churu,"Subash Chowk, Churu - RSPCB",12-03-2024 22:00:00,28.296139,74.961696,OZONE,60,163,127
India,Rajasthan,Dausa,"Khatikan Mohalla, Dausa - RSPCB",12-03-2024 22:00:00,26.895552,76.334753,NO2,21,57,38
India,Rajasthan,Hanumangarh,"Housing Board, Hanumangarh - RSPCB",12-03-2024 22:00:00,29.610750,74.283608,PM10,52,407,147
India,Rajasthan,Hanumangarh,"Housing Board, Hanumangarh - RSPCB",12-03-2024 22:00:00,29.610750,74.283608,CO,42,100,62
India,Rajasthan,Jaipur,"Adarsh Nagar, Jaipur - RSPCB",12-03-2024 22:00:00,26.902909,75.836858,PM10,58,109,90
India,Rajasthan,Jaipur,"Mansarovar Sector-12, Jaipur - RSPCB",12-03-2024 22:00:00,26.843698,75.766894,PM10,41,119,86
India,Rajasthan,Jaipur,"Mansarovar Sector-12, Jaipur - RSPCB",12-03-2024 22:00:00,26.843698,75.766894,NH3,5,13,6
India,Rajasthan,Jaipur,"Mansarovar Sector-12, Jaipur - RSPCB",12-03-2024 22:00:00,26.843698,75.766894,CO,25,34,27
India,Rajasthan,Jaipur,"RIICO Sitapura, Jaipur - RSPCB",12-03-2024 22:00:00,26.786682,75.827928,PM2.5,39,315,154
India,Rajasthan,Jaipur,"Sector-2 Murlipura, Jaipur - RSPCB",12-03-2024 22:00:00,26.960669,75.771817,NO2,4,40,14
India,Rajasthan,Jaipur,"Sector-2 Murlipura, Jaipur - RSPCB",12-03-2024 22:00:00,26.960669,75.771817,SO2,8,82,19
India,Rajasthan,Jaisalmer,"Sadar Bazar, Jaisalmer - RSPCB",12-03-2024 22:00:00,26.912329,70.909168,CO,16,39,22
India,Rajasthan,Jalore,"Mudtra Sili, Jalore - RSPCB",12-03-2024 22:00:00,25.344694,72.626208,PM2.5,21,272,55
India,Rajasthan,Jhalawar,"Rajlaxmi Nagar, Jhalawar - RSPCB",12-03-2024 22:00:00,24.588397,76.172782,NH3,4,6,5
India,Rajasthan,Jhunjhunu,"Indra Nagar, Jhunjhunu - RSPCB",12-03-2024 22:00:00,28.108988,75.386577,PM10,61,226,118
India,Rajasthan,Jhunjhunu,"Indra Nagar, Jhunjhunu - RSPCB",12-03-2024 22:00:00,28.108988,75.386577,NH3,20,35,29
India,Rajasthan,Jodhpur,"Collectorate, Jodhpur - RSPCB",12-03-2024 22:00:00,26.268249,73.0193853,PM2.5,25,240,117
India,Rajasthan,Jodhpur,"Digari Kalan, Jodhpur - RSPCB",12-03-2024 22:00:00,26.295810,73.082283,OZONE,1,124,69
India,Rajasthan,Jodhpur,"Jhalamand, Jodhpur - RSPCB",12-03-2024 22:00:00,26.215415,73.070156,OZONE,17,97,65
India,Rajasthan,Jodhpur,"Mandor, Jodhpur - RSPCB",12-03-2024 22:00:00,26.358805,73.047444,PM2.5,17,72,44
India,Rajasthan,Jodhpur,"Mandor, Jodhpur - RSPCB",12-03-2024 22:00:00,26.358805,73.047444,OZONE,56,99,83
India,Rajasthan,Jodhpur,"Samrat Ashok Udhyan, Jodhpur - RSPCB",12-03-2024 22:00:00,26.253384,72.976571,PM2.5,9,91,45
India,Rajasthan,Jodhpur,"Samrat Ashok Udhyan, Jodhpur - RSPCB",12-03-2024 22:00:00,26.253384,72.976571,NO2,4,60,21
India,Rajasthan,Jodhpur,"Samrat Ashok Udhyan, Jodhpur - RSPCB",12-03-2024 22:00:00,26.253384,72.976571,CO,24,64,37
India,Rajasthan,Karauli,"Satyawati Vihar, Karauli - RSPCB",12-03-2024 22:00:00,26.506177,77.025989,PM10,23,109,56
India,Rajasthan,Karauli,"Satyawati Vihar, Karauli - RSPCB",12-03-2024 22:00:00,26.506177,77.025989,CO,26,72,38
India,Rajasthan,Kota,"Dhanmandi, Kota - RSPCB",12-03-2024 22:00:00,25.164090,75.858137,PM2.5,14,321,120
India,Rajasthan,Kota,"Dhanmandi, Kota - RSPCB",12-03-2024 22:00:00,25.164090,75.858137,PM10,65,289,137
India,Rajasthan,Kota,"Dhanmandi, Kota - RSPCB",12-03-2024 22:00:00,25.164090,75.858137,NO2,22,146,71
India,Rajasthan,Kota,"Nayapura, Kota - RSPCB",12-03-2024 22:00:00,25.196024,75.855668,NO2,21,115,56
India,Rajasthan,Nagaur,"Karni Colony, Nagaur - RSPCB",12-03-2024 22:00:00,27.213494,73.734444,SO2,NA,NA,NA
India,Rajasthan,Nagaur,"Karni Colony, Nagaur - RSPCB",12-03-2024 22:00:00,27.213494,73.734444,CO,18,58,41
India,Rajasthan,Pali,"Indira Colony Vistar, Pali - RSPCB",12-03-2024 22:00:00,25.771061, 73.340227,PM2.5,38,336,121
India,Rajasthan,Pali,"Indira Colony Vistar, Pali - RSPCB",12-03-2024 22:00:00,25.771061, 73.340227,CO,42,113,73
India,Rajasthan,Pratapgarh,"Pragati Nagar, Pratapgarh - RSPCB",12-03-2024 22:00:00,24.041198,74.780702,PM2.5,7,84,31
India,Rajasthan,Pratapgarh,"Pragati Nagar, Pratapgarh - RSPCB",12-03-2024 22:00:00,24.041198,74.780702,CO,8,30,16
India,Rajasthan,Rajsamand,"Dhoinda, Rajsamand - RSPCB",12-03-2024 22:00:00,25.036360,73.883502,PM2.5,7,123,34
India,Rajasthan,Rajsamand,"Dhoinda, Rajsamand - RSPCB",12-03-2024 22:00:00,25.036360,73.883502,NO2,6,32,14
India,Rajasthan,Rajsamand,"Dhoinda, Rajsamand - RSPCB",12-03-2024 22:00:00,25.036360,73.883502,NH3,1,4,4
India,Rajasthan,Sirohi,"Vedhaynath Colony, Sirohi - RSPCB",12-03-2024 22:00:00,24.885261,72.857549,PM10,28,168,62
India,Rajasthan,Tonk,"Shastri Nagar, Tonk - RSPCB",12-03-2024 22:00:00,26.159933,75.780517,NH3,5,38,10
India,Rajasthan,Tonk,"Shastri Nagar, Tonk - RSPCB",12-03-2024 22:00:00,26.159933,75.780517,SO2,2,9,4
India,Rajasthan,Tonk,"Shastri Nagar, Tonk - RSPCB",12-03-2024 22:00:00,26.159933,75.780517,CO,10,102,34
India,Rajasthan,Tonk,"Shastri Nagar, Tonk - RSPCB",12-03-2024 22:00:00,26.159933,75.780517,OZONE,6,43,20
India,Rajasthan,Udaipur,"Ashok Nagar, Udaipur - RSPCB",12-03-2024 22:00:00,24.5886166,73.6321397,PM2.5,42,127,65
India,Rajasthan,Udaipur,"Ashok Nagar, Udaipur - RSPCB",12-03-2024 22:00:00,24.5886166,73.6321397,SO2,6,9,8
India,TamilNadu,Ariyalur,"Keelapalur, Ariyalur - TNPCB",12-03-2024 22:00:00,11.06825,79.07033,PM10,48,82,63
India,TamilNadu,Chengalpattu,"Crescent University, Chengalpattu - TNPCB",12-03-2024 22:00:00,12.8777316,80.0834807,SO2,20,21,21
India,TamilNadu,Chengalpattu,"Crescent University, Chengalpattu - TNPCB",12-03-2024 22:00:00,12.8777316,80.0834807,CO,28,30,28
India,TamilNadu,Chennai,"Alandur Bus Depot, Chennai - CPCB",12-03-2024 22:00:00,12.9099161,80.1076538,PM2.5,35,63,41
India,TamilNadu,Chennai,"Arumbakkam, Chennai - TNPCB",12-03-2024 22:00:00,13.0664,80.2112 ,PM10,44,114,78
India,TamilNadu,Chennai,"Arumbakkam, Chennai - TNPCB",12-03-2024 22:00:00,13.0664,80.2112 ,NO2,9,29,17
India,TamilNadu,Chennai,"Arumbakkam, Chennai - TNPCB",12-03-2024 22:00:00,13.0664,80.2112 ,NH3,1,5,4
India,TamilNadu,Chennai,"Manali, Chennai - CPCB",12-03-2024 22:00:00,13.164544,80.26285,NO2,7,9,8
India,TamilNadu,Chennai,"Manali, Chennai - CPCB",12-03-2024 22:00:00,13.164544,80.26285,NH3,4,5,4
India,TamilNadu,Chennai,"Manali, Chennai - CPCB",12-03-2024 22:00:00,13.164544,80.26285,SO2,4,33,9
India,TamilNadu,Chennai,"Perungudi, Chennai - TNPCB",12-03-2024 22:00:00,12.9533,80.2357,PM10,45,114,76
India,TamilNadu,Chennai,"Royapuram, Chennai - TNPCB",12-03-2024 22:00:00,13.1036,80.2909,PM2.5,31,52,43
India,TamilNadu,Chennai,"Royapuram, Chennai - TNPCB",12-03-2024 22:00:00,13.1036,80.2909,NH3,1,1,1
India,TamilNadu,Chennai,"Velachery Res. Area, Chennai - CPCB",12-03-2024 22:00:00,13.0052189,80.2398125,NO2,9,31,16
India,TamilNadu,Chennai,"Velachery Res. Area, Chennai - CPCB",12-03-2024 22:00:00,13.0052189,80.2398125,NH3,8,14,11
India,TamilNadu,Chennai,"Velachery Res. Area, Chennai - CPCB",12-03-2024 22:00:00,13.0052189,80.2398125,CO,1,149,20
India,TamilNadu,Coimbatore,"PSG College of Arts and Science, Coimbatore - TNPCB",12-03-2024 22:00:00,11.0328,77.0349,NO2,3,10,6
India,TamilNadu,Cuddalore,"Kudikadu, Cuddalore - TNPCB",12-03-2024 22:00:00,11.6829898,79.7532099,PM10,52,104,75
India,TamilNadu,Gummidipoondi,"Anthoni Pillai Nagar, Gummidipoondi - TNPCB",12-03-2024 22:00:00,13.4127,80.1081,PM2.5,53,202,95
India,TamilNadu,Gummidipoondi,"Anthoni Pillai Nagar, Gummidipoondi - TNPCB",12-03-2024 22:00:00,13.4127,80.1081,NH3,1,2,2
India,TamilNadu,Ooty,"Bombay Castel, Ooty - TNPCB",12-03-2024 22:00:00,11.4068288,76.7138973,SO2,NA,NA,NA
India,TamilNadu,Ooty,"Bombay Castel, Ooty - TNPCB",12-03-2024 22:00:00,11.4068288,76.7138973,OZONE,5,6,5
India,TamilNadu,Salem,"Sona College of Technology, Salem - TNPCB",12-03-2024 22:00:00,11.679111,78.125052,OZONE,2,3,3
India,Telangana,Hyderabad,"Central University, Hyderabad - TSPCB",12-03-2024 22:00:00,17.460103,78.334361,PM2.5,41,75,51
India,Telangana,Hyderabad,"Central University, Hyderabad - TSPCB",12-03-2024 22:00:00,17.460103,78.334361,PM10,78,133,91
India,Telangana,Hyderabad,"ICRISAT Patancheru, Hyderabad - TSPCB",12-03-2024 22:00:00,17.518400,78.278777,SO2,14,22,17
India,Telangana,Hyderabad,"IITH Kandi, Hyderabad - TSPCB",12-03-2024 22:00:00,17.585705,78.126199,NH3,NA,NA,NA
India,Telangana,Hyderabad,"IITH Kandi, Hyderabad - TSPCB",12-03-2024 22:00:00,17.585705,78.126199,CO,8,24,14
India,Telangana,Hyderabad,"Kokapet, Hyderabad - TSPCB",12-03-2024 22:00:00,17.393559,78.339194,SO2,9,12,11
India,Telangana,Hyderabad,"Kokapet, Hyderabad - TSPCB",12-03-2024 22:00:00,17.393559,78.339194,CO,23,29,28
India,Telangana,Hyderabad,"Kompally Municipal Office, Hyderabad - TSPCB",12-03-2024 22:00:00,17.544899,78.486949,PM10,42,121,65
India,Telangana,Hyderabad,"Kompally Municipal Office, Hyderabad - TSPCB",12-03-2024 22:00:00,17.544899,78.486949,NO2,9,12,11
India,Telangana,Hyderabad,"Kompally Municipal Office, Hyderabad - TSPCB",12-03-2024 22:00:00,17.544899,78.486949,NH3,5,7,6
India,Telangana,Hyderabad,"Kompally Municipal Office, Hyderabad - TSPCB",12-03-2024 22:00:00,17.544899,78.486949,CO,16,84,27
India,Telangana,Hyderabad,"Nacharam_TSIIC IALA, Hyderabad - TSPCB",12-03-2024 22:00:00,17.429398,78.569354,OZONE,12,30,30
India,Telangana,Hyderabad,"New Malakpet, Hyderabad - TSPCB",12-03-2024 22:00:00,17.37206,78.50864,SO2,11,21,14
India,Telangana,Hyderabad,"New Malakpet, Hyderabad - TSPCB",12-03-2024 22:00:00,17.37206,78.50864,OZONE,2,30,21
India,Telangana,Hyderabad,"Sanathnagar, Hyderabad - TSPCB",12-03-2024 22:00:00,17.4559458,78.4332152,NO2,15,159,39
India,Telangana,Hyderabad,"Zoo Park, Hyderabad - TSPCB",12-03-2024 22:00:00,17.349694,78.451437,SO2,1,8,3
India,Telangana,Hyderabad,"Zoo Park, Hyderabad - TSPCB",12-03-2024 22:00:00,17.349694,78.451437,CO,24,78,41
India,Tripura,Agartala,"Bardowali, Agartala - Tripura SPCB",12-03-2024 22:00:00,23.8175497,91.2726974,NO2,9,28,14
India,Tripura,Agartala,"Bardowali, Agartala - Tripura SPCB",12-03-2024 22:00:00,23.8175497,91.2726974,NH3,2,4,3
India,Tripura,Agartala,"Bardowali, Agartala - Tripura SPCB",12-03-2024 22:00:00,23.8175497,91.2726974,SO2,27,29,28
India,Uttar_Pradesh,Agra,"Rohta, Agra - UPPCB",12-03-2024 22:00:00,27.106972,78.000111,OZONE,14,15,14
India,Uttar_Pradesh,Agra,"Sanjay Palace, Agra - UPPCB",12-03-2024 22:00:00,27.19865833,78.00598056,NO2,37,61,47
India,Uttar_Pradesh,Agra,"Sanjay Palace, Agra - UPPCB",12-03-2024 22:00:00,27.19865833,78.00598056,SO2,5,9,8
India,Uttar_Pradesh,Agra,"Sector-3B Avas Vikas Colony, Agra - UPPCB",12-03-2024 22:00:00,27.19412,77.96237,PM2.5,21,65,39
India,Uttar_Pradesh,Agra,"Sector-3B Avas Vikas Colony, Agra - UPPCB",12-03-2024 22:00:00,27.19412,77.96237,SO2,22,24,23
India,Uttar_Pradesh,Agra,"Shahjahan Garden, Agra - UPPCB",12-03-2024 22:00:00,27.169338,78.03582,OZONE,3,15,2
India,Uttar_Pradesh,Agra,"Shastripuram, Agra - UPPCB",12-03-2024 22:00:00,27.19862,77.92066,PM2.5,6,145,84
India,Uttar_Pradesh,Baghpat,"Sardar Patel Inter College, Baghpat - UPPCB",12-03-2024 22:00:00,28.964949,77.278761,PM2.5,33,223,93
India,Uttar_Pradesh,Baghpat,"Sardar Patel Inter College, Baghpat - UPPCB",12-03-2024 22:00:00,28.964949,77.278761,PM10,61,151,102
India,Uttar_Pradesh,Bareilly,"Civil Lines, Bareilly - UPPCB",12-03-2024 22:00:00,28.359581,79.414455,PM2.5,22,66,46
India,Uttar_Pradesh,Bareilly,"Civil Lines, Bareilly - UPPCB",12-03-2024 22:00:00,28.359581,79.414455,NH3,1,4,2
India,Uttar_Pradesh,Bareilly,"Civil Lines, Bareilly - UPPCB",12-03-2024 22:00:00,28.359581,79.414455,CO,26,60,33
India,Uttar_Pradesh,Bareilly,"Rajendra Nagar, Bareilly - UPPCB",12-03-2024 22:00:00,28.38910936,79.42963708,NH3,1,1,1
India,Uttar_Pradesh,Bulandshahr,"Yamunapuram, Bulandshahr - UPPCB",12-03-2024 22:00:00,28.406963,77.849831,NH3,12,37,22
India,Uttar_Pradesh,Bulandshahr,"Yamunapuram, Bulandshahr - UPPCB",12-03-2024 22:00:00,28.406963,77.849831,CO,26,80,36
India,Uttar_Pradesh,Firozabad,"Nagla Bhau, Firozabad - UPPCB",12-03-2024 22:00:00,27.168897,78.376960,NH3,2,2,2
India,Uttar_Pradesh,Firozabad,"Vibhab Nagar, Firozabad - UPPCB",12-03-2024 22:00:00,27.1594,78.3953,PM2.5,53,190,81
India,Uttar_Pradesh,Firozabad,"Vibhab Nagar, Firozabad - UPPCB",12-03-2024 22:00:00,27.1594,78.3953,PM10,40,106,59
India,Uttar_Pradesh,Ghaziabad,"Indirapuram, Ghaziabad - UPPCB",12-03-2024 22:00:00,28.646233,77.358075,NH3,8,10,9
India,Uttar_Pradesh,Ghaziabad,"Loni, Ghaziabad - UPPCB",12-03-2024 22:00:00,28.757294,77.278792,PM10,80,226,130
India,Uttar_Pradesh,Ghaziabad,"Loni, Ghaziabad - UPPCB",12-03-2024 22:00:00,28.757294,77.278792,NH3,1,3,2
India,Uttar_Pradesh,Ghaziabad,"Sanjay Nagar, Ghaziabad - UPPCB",12-03-2024 22:00:00,28.685382,77.453839,SO2,19,69,37
India,Uttar_Pradesh,Ghaziabad,"Sanjay Nagar, Ghaziabad - UPPCB",12-03-2024 22:00:00,28.685382,77.453839,OZONE,4,105,69
India,Uttar_Pradesh,Gorakhpur,"Madan Mohan Malaviya University of Technology, Gorakhpur - UPPCB",12-03-2024 22:00:00,26.730136,83.433859,PM2.5,44,301,168
India,Uttar_Pradesh,Gorakhpur,"Madan Mohan Malaviya University of Technology, Gorakhpur - UPPCB",12-03-2024 22:00:00,26.730136,83.433859,NO2,2,2,2
India,Uttar_Pradesh,Greater Noida,"Knowledge Park - III, Greater Noida - UPPCB",12-03-2024 22:00:00,28.47272,77.482000,CO,38,97,55
India,Uttar_Pradesh,Greater Noida,"Knowledge Park - III, Greater Noida - UPPCB",12-03-2024 22:00:00,28.47272,77.482000,OZONE,1,237,120
India,Uttar_Pradesh,Greater Noida,"Knowledge Park - V, Greater Noida - UPPCB",12-03-2024 22:00:00,28.557054,77.453663,PM10,110,341,195
India,Uttar_Pradesh,Greater Noida,"Knowledge Park - V, Greater Noida - UPPCB",12-03-2024 22:00:00,28.557054,77.453663,NH3,3,7,4
India,Uttar_Pradesh,Greater Noida,"Knowledge Park - V, Greater Noida - UPPCB",12-03-2024 22:00:00,28.557054,77.453663,SO2,2,49,20
India,Uttar_Pradesh,Greater Noida,"Knowledge Park - V, Greater Noida - UPPCB",12-03-2024 22:00:00,28.557054,77.453663,OZONE,1,91,45
India,Uttar_Pradesh,Jhansi,"Shivaji Nagar, Jhansi - UPPCB",12-03-2024 22:00:00,25.4547,78.6039,NO2,7,31,17
India,Uttar_Pradesh,Kanpur,"NSI Kalyanpur, Kanpur - UPPCB",12-03-2024 22:00:00,26.509954,80.249612,PM10,85,158,114
India,Uttar_Pradesh,Khurja,"Kalindi Kunj, Khurja - UPPCB",12-03-2024 22:00:00,28.2348927,77.8683002,OZONE,16,36,24
India,Uttar_Pradesh,Lucknow,"B R Ambedkar University, Lucknow - UPPCB",12-03-2024 22:00:00,26.766433,80.927299,CO,26,42,32
India,Uttar_Pradesh,Lucknow,"Kukrail Picnic Spot-1, Lucknow - UPPCB",12-03-2024 22:00:00,26.90723,80.98579,PM2.5,35,71,54
India,Uttar_Pradesh,Lucknow,"Kukrail Picnic Spot-1, Lucknow - UPPCB",12-03-2024 22:00:00,26.90723,80.98579,OZONE,8,87,60
India,Uttar_Pradesh,Lucknow,"Lalbagh, Lucknow - CPCB",12-03-2024 22:00:00,26.8458805,80.9365541,PM2.5,5,166,92
India,Uttar_Pradesh,Lucknow,"Talkatora District Industries Center, Lucknow - CPCB",12-03-2024 22:00:00,26.83399722,80.8917361,PM2.5,79,187,127
India,Uttar_Pradesh,Meerut,"Jai Bhim Nagar, Meerut - UPPCB",12-03-2024 22:00:00,28.9535882,77.7622941,PM10,58,159,91
India,Uttar_Pradesh,Moradabad,"Buddhi Vihar, Moradabad - UPPCB",12-03-2024 22:00:00,28.83526,78.74460,PM2.5,41,206,101
India,Uttar_Pradesh,Moradabad,"Buddhi Vihar, Moradabad - UPPCB",12-03-2024 22:00:00,28.83526,78.74460,OZONE,16,42,29
India,Uttar_Pradesh,Moradabad,"Eco Herbal Park, Moradabad - UPPCB",12-03-2024 22:00:00,28.840739,78.697531,OZONE,4,15,8
India,Uttar_Pradesh,Moradabad,"Employment Office, Moradabad - UPPCB",12-03-2024 22:00:00,28.88528,78.73880,PM10,66,361,123
India,Uttar_Pradesh,Moradabad,"Employment Office, Moradabad - UPPCB",12-03-2024 22:00:00,28.88528,78.73880,NO2,15,19,17
India,Uttar_Pradesh,Moradabad,"Employment Office, Moradabad - UPPCB",12-03-2024 22:00:00,28.88528,78.73880,OZONE,14,79,45
India,Uttar_Pradesh,Moradabad,"Jigar Colony, Moradabad - UPPCB",12-03-2024 22:00:00,28.856664,78.772638,PM2.5,35,207,80
India,Uttar_Pradesh,Moradabad,"Jigar Colony, Moradabad - UPPCB",12-03-2024 22:00:00,28.856664,78.772638,NH3,5,16,5
India,Uttar_Pradesh,Moradabad,"Kashiram Nagar, Moradabad - UPPCB",12-03-2024 22:00:00,28.849399,78.742362,NO2,13,46,26
India,Uttar_Pradesh,Moradabad,"Kashiram Nagar, Moradabad - UPPCB",12-03-2024 22:00:00,28.849399,78.742362,OZONE,16,57,32
India,Uttar_Pradesh,Moradabad,"Transport Nagar, Moradabad - UPPCB",12-03-2024 22:00:00,28.802625,78.753728,NH3,6,6,6
India,Uttar_Pradesh,Muzaffarnagar,"New Mandi, Muzaffarnagar - UPPCB",12-03-2024 22:00:00,29.4723508,77.7194031,PM10,98,219,156
India,Uttar_Pradesh,Muzaffarnagar,"New Mandi, Muzaffarnagar - UPPCB",12-03-2024 22:00:00,29.4723508,77.7194031,NH3,4,4,4
India,Uttar_Pradesh,Noida,"Sector - 62, Noida - IMD",12-03-2024 22:00:00,28.6245479,77.3577104,CO,20,29,21
India,Uttar_Pradesh,Noida,"Sector-1, Noida - UPPCB",12-03-2024 22:00:00,28.5898,77.3101,PM10,114,297,172
India,Uttar_Pradesh,Noida,"Sector-1, Noida - UPPCB",12-03-2024 22:00:00,28.5898,77.3101,NO2,35,102,62
India,Uttar_Pradesh,Noida,"Sector-1, Noida - UPPCB",12-03-2024 22:00:00,28.5898,77.3101,CO,18,66,30
India,Uttar_Pradesh,Noida,"Sector-1, Noida - UPPCB",12-03-2024 22:00:00,28.5898,77.3101,OZONE,1,159,97
India,Uttar_Pradesh,Noida,"Sector-116, Noida - UPPCB",12-03-2024 22:00:00,28.569230,77.393848,PM10,95,209,141
India,Uttar_Pradesh,Noida,"Sector-116, Noida - UPPCB",12-03-2024 22:00:00,28.569230,77.393848,OZONE,2,27,15
India,Uttar_Pradesh,Prayagraj,"Jhunsi, Prayagraj - UPPCB",12-03-2024 22:00:00,25.425602,81.917152,NH3,5,5,5
India,Uttar_Pradesh,Prayagraj,"Jhunsi, Prayagraj - UPPCB",12-03-2024 22:00:00,25.425602,81.917152,SO2,30,32,31
India,Uttar_Pradesh,Prayagraj,"Jhunsi, Prayagraj - UPPCB",12-03-2024 22:00:00,25.425602,81.917152,OZONE,1,59,16
India,Uttar_Pradesh,Prayagraj,"Motilal Nehru NIT, Prayagraj - UPPCB",12-03-2024 22:00:00,25.494,81.863,PM10,33,175,92
India,Uttar_Pradesh,Prayagraj,"Motilal Nehru NIT, Prayagraj - UPPCB",12-03-2024 22:00:00,25.494,81.863,OZONE,5,28,18
India,Uttar_Pradesh,Prayagraj,"Nagar Nigam, Prayagraj - UPPCB",12-03-2024 22:00:00,25.44919916 ,81.82735986 ,NO2,5,5,5
India,Uttar_Pradesh,Prayagraj,"Nagar Nigam, Prayagraj - UPPCB",12-03-2024 22:00:00,25.44919916 ,81.82735986 ,NH3,3,10,6
India,Uttar_Pradesh,Prayagraj,"Nagar Nigam, Prayagraj - UPPCB",12-03-2024 22:00:00,25.44919916 ,81.82735986 ,SO2,41,103,66
India,Uttar_Pradesh,Varanasi,"Bhelupur, Varanasi - UPPCB",12-03-2024 22:00:00,25.301778,82.996789,NO2,7,8,8
India,Uttar_Pradesh,Varanasi,"IESD Banaras Hindu University, Varanasi - UPPCB",12-03-2024 22:00:00,25.262326,82.995408,CO,17,42,20
India,Uttar_Pradesh,Varanasi,"Maldahiya, Varanasi - UPPCB",12-03-2024 22:00:00,25.32393,82.99687,PM10,16,52,35
India,Uttar_Pradesh,Varanasi,"Maldahiya, Varanasi - UPPCB",12-03-2024 22:00:00,25.32393,82.99687,NH3,1,1,1
India,Uttar_Pradesh,Vrindavan,"Omex Eternity, Vrindavan - UPPCB",12-03-2024 22:00:00,27.5714090,77.6557570,SO2,39,40,39
India,Uttarakhand,Dehradun,"Doon University, Dehradun - UKPCB",12-03-2024 22:00:00,30.269444,78.044167,PM2.5,31,209,94
India,Uttarakhand,Dehradun,"Doon University, Dehradun - UKPCB",12-03-2024 22:00:00,30.269444,78.044167,PM10,63,122,91
India,Uttarakhand,Dehradun,"Doon University, Dehradun - UKPCB",12-03-2024 22:00:00,30.269444,78.044167,OZONE,35,112,92
India,West_Bengal,Asansol,"Asansol Court Area, Asansol - WBPCB",12-03-2024 22:00:00,23.685297,86.945968,SO2,12,32,20
India,West_Bengal,Durgapur,"Sidhu Kanhu Indoor Stadium, Durgapur - WBPCB",12-03-2024 22:00:00,23.5404352,87.2892225,NO2,23,32,27
India,West_Bengal,Durgapur,"Sidhu Kanhu Indoor Stadium, Durgapur - WBPCB",12-03-2024 22:00:00,23.5404352,87.2892225,OZONE,4,82,39
India,West_Bengal,Haldia,"Priyambada Housing Estate, Haldia - WBPCB",12-03-2024 22:00:00,22.06047,88.109737,OZONE,7,196,63
India,West_Bengal,Howrah,"Belur Math, Howrah - WBPCB",12-03-2024 22:00:00,22.629801,88.352017,NO2,11,39,24
India,West_Bengal,Howrah,"Belur Math, Howrah - WBPCB",12-03-2024 22:00:00,22.629801,88.352017,CO,4,22,14
India,West_Bengal,Howrah,"Padmapukur, Howrah - WBPCB",12-03-2024 22:00:00,22.5687319,88.2797276,NO2,20,21,20
India,West_Bengal,Kolkata,"Ballygunge, Kolkata - WBPCB",12-03-2024 22:00:00,22.5367507,88.3638022,NO2,27,45,36
India,West_Bengal,Kolkata,"Ballygunge, Kolkata - WBPCB",12-03-2024 22:00:00,22.5367507,88.3638022,OZONE,12,81,52
India,West_Bengal,Kolkata,"Bidhannagar, Kolkata - WBPCB",12-03-2024 22:00:00,22.58157048,88.41002457,CO,92,118,105
India,West_Bengal,Kolkata,"Fort William, Kolkata - WBPCB",12-03-2024 22:00:00,22.556640,88.342674,PM10,68,136,105
India,West_Bengal,Kolkata,"Fort William, Kolkata - WBPCB",12-03-2024 22:00:00,22.556640,88.342674,SO2,4,32,14
India,West_Bengal,Kolkata,"Rabindra Bharati University, Kolkata - WBPCB",12-03-2024 22:00:00,22.627847,88.380669,PM10,79,131,102
India,West_Bengal,Kolkata,"Rabindra Sarobar, Kolkata - WBPCB",12-03-2024 22:00:00,22.51106,88.35142,OZONE,3,90,44
India,West_Bengal,Siliguri,"Ward-32 Bapupara, Siliguri - WBPCB",12-03-2024 22:00:00,26.6879226,88.4152495,PM2.5,90,297,166
India,West_Bengal,Siliguri,"Ward-32 Bapupara, Siliguri - WBPCB",12-03-2024 22:00:00,26.6879226,88.4152495,PM10,110,214,148
India,Andhra_Pradesh,Amaravati,"Secretariat, Amaravati - APPCB",12-03-2024 22:00:00,16.5150833,80.5181667,PM10,57,86,68
India,Andhra_Pradesh,Amaravati,"Secretariat, Amaravati - APPCB",12-03-2024 22:00:00,16.5150833,80.5181667,OZONE,15,68,55
India,Andhra_Pradesh,Chittoor,"Gangineni Cheruvu, Chittoor - APPCB",12-03-2024 22:00:00,13.204880,79.097889,PM10,NA,NA,NA
India,Andhra_Pradesh,Chittoor,"Gangineni Cheruvu, Chittoor - APPCB",12-03-2024 22:00:00,13.204880,79.097889,NH3,NA,NA,NA
India,Andhra_Pradesh,Chittoor,"Gangineni Cheruvu, Chittoor - APPCB",12-03-2024 22:00:00,13.204880,79.097889,SO2,NA,NA,NA
India,Andhra_Pradesh,Chittoor,"Gangineni Cheruvu, Chittoor - APPCB",12-03-2024 22:00:00,13.204880,79.097889,OZONE,76,167,124
India,Andhra_Pradesh,Rajamahendravaram,"Anand Kala Kshetram, Rajamahendravaram - APPCB",12-03-2024 22:00:00,16.9872867,81.7363176,PM2.5,45,97,56
India,Andhra_Pradesh,Rajamahendravaram,"Anand Kala Kshetram, Rajamahendravaram - APPCB",12-03-2024 22:00:00,16.9872867,81.7363176,PM10,56,105,71
India,Andhra_Pradesh,Rajamahendravaram,"Anand Kala Kshetram, Rajamahendravaram - APPCB",12-03-2024 22:00:00,16.9872867,81.7363176,NO2,7,39,14
India,Andhra_Pradesh,Tirupati,"Tirumala, Tirupati - APPCB",12-03-2024 22:00:00,13.67,79.35,NO2,17,56,30
India,Andhra_Pradesh,Tirupati,"Tirumala, Tirupati - APPCB",12-03-2024 22:00:00,13.67,79.35,SO2,3,16,9
India,Andhra_Pradesh,Tirupati,"Vaikuntapuram, Tirupati - APPCB",12-03-2024 22:00:00,13.615387,79.409230,PM10,31,127,74
India,Andhra_Pradesh,Tirupati,"Vaikuntapuram, Tirupati - APPCB",12-03-2024 22:00:00,13.615387,79.409230,SO2,4,5,5
India,Andhra_Pradesh,Tirupati,"Vaikuntapuram, Tirupati - APPCB",12-03-2024 22:00:00,13.615387,79.409230,CO,8,14,10
India,Andhra_Pradesh,Tirupati,"Vaikuntapuram, Tirupati - APPCB",12-03-2024 22:00:00,13.615387,79.409230,OZONE,16,61,60
India,Andhra_Pradesh,Vijayawada,"HB Colony, Vijayawada - APPCB",12-03-2024 22:00:00,16.536107,80.594233,PM2.5,63,84,75
India,Andhra_Pradesh,Vijayawada,"Kanuru, Vijayawada - APPCB",12-03-2024 22:00:00,16.486692,80.699436,NH3,1,1,1
India,Andhra_Pradesh,Vijayawada,"Rajiv Gandhi Park, Vijayawada - APPCB",12-03-2024 22:00:00,16.509717,80.612222,NH3,4,7,6
India,Andhra_Pradesh,Vijayawada,"Rajiv Gandhi Park, Vijayawada - APPCB",12-03-2024 22:00:00,16.509717,80.612222,OZONE,2,62,41
India,Andhra_Pradesh,Vijayawada,"Rajiv Nagar, Vijayawada - APPCB",12-03-2024 22:00:00,16.554731,80.649110,NO2,5,36,14
India,Andhra_Pradesh,Vijayawada,"Rajiv Nagar, Vijayawada - APPCB",12-03-2024 22:00:00,16.554731,80.649110,SO2,10,20,14
India,Andhra_Pradesh,Visakhapatnam,"GVM Corporation, Visakhapatnam - APPCB",12-03-2024 22:00:00,17.72,83.3,OZONE,8,12,10
India,Arunachal_Pradesh,Naharlagun,"Naharlagun, Naharlagun - APSPCB",12-03-2024 22:00:00,27.103358,93.679645,NO2,NA,NA,NA
India,Assam,Byrnihat,"Central Academy for SFS, Byrnihat - PCBA",12-03-2024 22:00:00,26.071318,91.87488,NO2,42,95,58
India,Assam,Byrnihat,"Central Academy for SFS, Byrnihat - PCBA",12-03-2024 22:00:00,26.071318,91.87488,SO2,11,19,12
India,Assam,Guwahati,"IITG, Guwahati - PCBA",12-03-2024 22:00:00,26.2028636,91.70046436,NH3,NA,NA,NA
India,Assam,Guwahati,"LGBI Airport, Guwahati - PCBA",12-03-2024 22:00:00,26.10887,91.589544,PM10,135,421,212
India,Assam,Guwahati,"Pan Bazaar, Guwahati - PCBA",12-03-2024 22:00:00,26.187500,91.744194,CO,26,86,45
India,Assam,Guwahati,"Railway Colony, Guwahati - PCBA",12-03-2024 22:00:00,26.181742,91.78063,CO,22,122,62
India,Assam,Nagaon,"Christianpatty, Nagaon - PCBA",12-03-2024 22:00:00,26.349082,92.68449,SO2,1,22,12
India,Assam,Nalbari,"Bata Chowk, Nalbari - PCBA",12-03-2024 22:00:00,26.446912,91.439057,PM2.5,117,332,240
India,Assam,Silchar,"Tarapur, Silchar - PCBA",12-03-2024 22:00:00,24.82827,92.79525,NO2,14,43,32
India,Assam,Silchar,"Tarapur, Silchar - PCBA",12-03-2024 22:00:00,24.82827,92.79525,NH3,1,1,1
India,Assam,Silchar,"Tarapur, Silchar - PCBA",12-03-2024 22:00:00,24.82827,92.79525,SO2,6,26,10
India,Assam,Silchar,"Tarapur, Silchar - PCBA",12-03-2024 22:00:00,24.82827,92.79525,CO,13,45,36
India,Assam,Sivasagar,"Girls College, Sivasagar - PCBA",12-03-2024 22:00:00,26.987634,94.636574,PM10,37,91,63
India,Assam,Sivasagar,"Girls College, Sivasagar - PCBA",12-03-2024 22:00:00,26.987634,94.636574,SO2,5,11,7
India,Assam,Sivasagar,"Girls College, Sivasagar - PCBA",12-03-2024 22:00:00,26.987634,94.636574,OZONE,1,17,9
India,Bihar,Aurangabad,"Gurdeo Nagar, Aurangabad - BSPCB",12-03-2024 22:00:00,24.75746,84.366208,CO,NA,NA,NA
India,Bihar,Bettiah,"Kamalnath Nagar, Bettiah - BSPCB",12-03-2024 22:00:00,26.80365,84.51954,PM2.5,40,307,171
India,Bihar,Bettiah,"Kamalnath Nagar, Bettiah - BSPCB",12-03-2024 22:00:00,26.80365,84.51954,CO,62,66,64
India,Bihar,Bhagalpur,"DM Office_Kachari Chowk, Bhagalpur - BSPCB",12-03-2024 22:00:00,25.251013,86.989001,PM2.5,72,345,140
India,Bihar,Bhagalpur,"Mayaganj, Bhagalpur - BSPCB",12-03-2024 22:00:00,25.265194,87.012947,PM10,64,154,100
India,Bihar,Buxar,"Charitra Van, Buxar - BSPCB (Formerly known as Central Jail)",12-03-2024 22:00:00,25.567520,83.966379,SO2,10,19,17
India,Bihar,Chhapra,"Darshan Nagar, Chhapra - BSPCB",12-03-2024 22:00:00,25.7808257,84.7446768,CO,30,58,51
India,Bihar,Gaya,"SFTI Kusdihra, Gaya - BSPCB",12-03-2024 22:00:00,24.762518,84.982348,OZONE,2,63,32
India,Bihar,Hajipur,"Industrial Area, Hajipur - BSPCB",12-03-2024 22:00:00,25.697189,85.245900,PM10,133,203,172
India,Bihar,Katihar,"Mirchaibari, Katihar - BSPCB",12-03-2024 22:00:00,25.560083,87.553265,PM2.5,77,338,165
India,Bihar,Katihar,"Mirchaibari, Katihar - BSPCB",12-03-2024 22:00:00,25.560083,87.553265,SO2,16,23,20
India,Bihar,Katihar,"Mirchaibari, Katihar - BSPCB",12-03-2024 22:00:00,25.560083,87.553265,CO,4,88,36
India,Bihar,Katihar,"Mirchaibari, Katihar - BSPCB",12-03-2024 22:00:00,25.560083,87.553265,OZONE,18,25,20
India,Bihar,Kishanganj,"SDM Office_Khagra, Kishanganj - BSPCB",12-03-2024 22:00:00,26.0881305,87.93840336,PM10,93,305,179
India,Bihar,Kishanganj,"SDM Office_Khagra, Kishanganj - BSPCB",12-03-2024 22:00:00,26.0881305,87.93840336,CO,1,12,8
India,Bihar,Motihari,"Gandak Colony, Motihari - BSPCB",12-03-2024 22:00:00,26.63086,84.90051,PM10,NA,NA,NA
India,Bihar,Motihari,"Gandak Colony, Motihari - BSPCB",12-03-2024 22:00:00,26.63086,84.90051,NO2,NA,NA,NA
India,Bihar,Munger,"Town Hall, Munger - BSPCB",12-03-2024 22:00:00,25.376776,86.471523,NO2,7,10,9
India,Bihar,Munger,"Town Hall, Munger - BSPCB",12-03-2024 22:00:00,25.376776,86.471523,NH3,1,2,2
India,Bihar,Munger,"Town Hall, Munger - BSPCB",12-03-2024 22:00:00,25.376776,86.471523,CO,4,14,6
India,Bihar,Muzaffarpur,"Buddha Colony, Muzaffarpur - BSPCB",12-03-2024 22:00:00,26.11442,85.39813,PM2.5,NA,NA,NA
India,Bihar,Muzaffarpur,"Buddha Colony, Muzaffarpur - BSPCB",12-03-2024 22:00:00,26.11442,85.39813,NH3,NA,NA,NA
India,Bihar,Muzaffarpur,"Buddha Colony, Muzaffarpur - BSPCB",12-03-2024 22:00:00,26.11442,85.39813,CO,15,32,15
India,Bihar,Muzaffarpur,"Buddha Colony, Muzaffarpur - BSPCB",12-03-2024 22:00:00,26.11442,85.39813,OZONE,20,65,60
India,Bihar,Muzaffarpur,"MIT-Daudpur Kothi, Muzaffarpur - BSPCB",12-03-2024 22:00:00,26.1403345,85.3650192,PM2.5,98,310,199
India,Bihar,Muzaffarpur,"MIT-Daudpur Kothi, Muzaffarpur - BSPCB",12-03-2024 22:00:00,26.1403345,85.3650192,OZONE,16,67,52
India,Bihar,Muzaffarpur,"Muzaffarpur Collectorate, Muzaffarpur - BSPCB",12-03-2024 22:00:00,26.1209,85.3647,NO2,8,14,11
India,Bihar,Patna,"DRM Office Danapur, Patna - BSPCB",12-03-2024 22:00:00,25.586562,85.043586,OZONE,1,54,38
India,Bihar,Patna,"Govt. High School Shikarpur, Patna - BSPCB",12-03-2024 22:00:00,25.592539,85.227158,PM2.5,NA,NA,NA
India,Bihar,Patna,"Govt. High School Shikarpur, Patna - BSPCB",12-03-2024 22:00:00,25.592539,85.227158,PM10,NA,NA,NA
India,Bihar,Patna,"Govt. High School Shikarpur, Patna - BSPCB",12-03-2024 22:00:00,25.592539,85.227158,NO2,NA,NA,NA
India,Bihar,Patna,"Govt. High School Shikarpur, Patna - BSPCB",12-03-2024 22:00:00,25.592539,85.227158,SO2,NA,NA,NA
India,Bihar,Patna,"Govt. High School Shikarpur, Patna - BSPCB",12-03-2024 22:00:00,25.592539,85.227158,OZONE,5,6,6
India,Bihar,Patna,"IGSC Planetarium Complex, Patna - BSPCB",12-03-2024 22:00:00,25.610369,85.132568,SO2,5,6,5
India,Bihar,Patna,"Muradpur, Patna - BSPCB",12-03-2024 22:00:00,25.619651,85.147382,PM10,179,294,214
India,Bihar,Patna,"Muradpur, Patna - BSPCB",12-03-2024 22:00:00,25.619651,85.147382,NO2,6,22,16
India,Bihar,Patna,"Muradpur, Patna - BSPCB",12-03-2024 22:00:00,25.619651,85.147382,SO2,8,15,12
India,Bihar,Patna,"Rajbansi Nagar, Patna - BSPCB",12-03-2024 22:00:00,25.599486,85.113666,PM10,106,165,143
India,Bihar,Patna,"Rajbansi Nagar, Patna - BSPCB",12-03-2024 22:00:00,25.599486,85.113666,NH3,3,4,3
India,Bihar,Patna,"Rajbansi Nagar, Patna - BSPCB",12-03-2024 22:00:00,25.599486,85.113666,CO,46,96,65
India,Bihar,Patna,"Samanpura, Patna - BSPCB",12-03-2024 22:00:00,25.596727,85.085624,NO2,26,65,47
India,Bihar,Patna,"Samanpura, Patna - BSPCB",12-03-2024 22:00:00,25.596727,85.085624,NH3,3,8,5
India,Bihar,Patna,"Samanpura, Patna - BSPCB",12-03-2024 22:00:00,25.596727,85.085624,CO,73,132,95
India,Bihar,Purnia,"Mariam Nagar, Purnia - BSPCB",12-03-2024 22:00:00,25.366336,87.117468,SO2,18,23,20
India,Bihar,Purnia,"Mariam Nagar, Purnia - BSPCB",12-03-2024 22:00:00,25.366336,87.117468,CO,20,68,40
India,Bihar,Rajgir,"Dangi Tola, Rajgir - BSPCB",12-03-2024 22:00:00,25.03280,85.41948,PM2.5,37,349,75
India,Bihar,Rajgir,"Dangi Tola, Rajgir - BSPCB",12-03-2024 22:00:00,25.03280,85.41948,NO2,1,1,1
India,Bihar,Rajgir,"Dangi Tola, Rajgir - BSPCB",12-03-2024 22:00:00,25.03280,85.41948,CO,10,11,10
India,Bihar,Saharsa,"Police Line, Saharsa - BSPCB",12-03-2024 22:00:00,25.892357,86.590325,NO2,5,8,7
India,Bihar,Saharsa,"Police Line, Saharsa - BSPCB",12-03-2024 22:00:00,25.892357,86.590325,CO,16,48,30
India,Bihar,Samastipur,"DM Office_Kasipur, Samastipur - BSPCB",12-03-2024 22:00:00,25.859655,85.77944,PM2.5,37,103,74
India,Bihar,Samastipur,"DM Office_Kasipur, Samastipur - BSPCB",12-03-2024 22:00:00,25.859655,85.77944,PM10,56,171,90
India,Bihar,Sasaram,"Dada Peer, Sasaram - BSPCB",12-03-2024 22:00:00,24.952822,84.002396,PM2.5,9,134,52
India,Bihar,Sasaram,"Dada Peer, Sasaram - BSPCB",12-03-2024 22:00:00,24.952822,84.002396,CO,103,107,105
India,Bihar,Siwan,"Chitragupta Nagar, Siwan - BSPCB",12-03-2024 22:00:00,26.2271665,84.3570427,PM10,86,161,118
India,Bihar,Siwan,"Chitragupta Nagar, Siwan - BSPCB",12-03-2024 22:00:00,26.2271665,84.3570427,NH3,1,4,2
India,Chandigarh,Chandigarh,"Sector 22, Chandigarh - CPCC",12-03-2024 22:00:00,30.735567,76.775714,OZONE,10,156,95
India,Chandigarh,Chandigarh,"Sector-25, Chandigarh - CPCC",12-03-2024 22:00:00,30.751462,76.762879,PM10,106,151,132
India,Chandigarh,Chandigarh,"Sector-25, Chandigarh - CPCC",12-03-2024 22:00:00,30.751462,76.762879,CO,14,42,21
India,Chandigarh,Chandigarh,"Sector-25, Chandigarh - CPCC",12-03-2024 22:00:00,30.751462,76.762879,OZONE,1,45,28
India,Chhattisgarh,Bhilai,"Hathkhoj, Bhilai - CECB",12-03-2024 22:00:00,21.224231,81.408350,NO2,16,71,38
India,Chhattisgarh,Bhilai,"Hathkhoj, Bhilai - CECB",12-03-2024 22:00:00,21.224231,81.408350,CO,10,76,31
India,Chhattisgarh,Bilaspur,"Mangala, Bilaspur - NTPC",12-03-2024 22:00:00,22.08815,82.13737,NO2,12,15,13
India,Chhattisgarh,Chhal,"Nawapara SECL Colony, Chhal - CECB",12-03-2024 22:00:00,22.118125,83.140608,PM10,46,191,93
India,Chhattisgarh,Chhal,"Nawapara SECL Colony, Chhal - CECB",12-03-2024 22:00:00,22.118125,83.140608,NO2,11,42,21
India,Chhattisgarh,Chhal,"Nawapara SECL Colony, Chhal - CECB",12-03-2024 22:00:00,22.118125,83.140608,NH3,2,2,2
India,Chhattisgarh,Korba,"Rampur, Korba - CECB",12-03-2024 22:00:00,22.368195,82.746431,SO2,NA,NA,NA
India,Chhattisgarh,Korba,"Urja Nagar, Korba - CECB",12-03-2024 22:00:00,22.348441,82.549611,OZONE,1,6,1
India,Chhattisgarh,Kunjemura,"OP Jindal School, Kunjemura - CECB",12-03-2024 22:00:00,22.126650,83.483212,NO2,14,111,53
India,Chhattisgarh,Kunjemura,"OP Jindal School, Kunjemura - CECB",12-03-2024 22:00:00,22.126650,83.483212,NH3,1,4,2
India,Chhattisgarh,Kunjemura,"OP Jindal School, Kunjemura - CECB",12-03-2024 22:00:00,22.126650,83.483212,CO,16,49,20
India,Chhattisgarh,Milupara,"Govt. Higher Secondary School, Milupara - CECB",12-03-2024 22:00:00,22.1910172,83.5197009,PM10,NA,NA,NA
India,Chhattisgarh,Milupara,"Govt. Higher Secondary School, Milupara - CECB",12-03-2024 22:00:00,22.1910172,83.5197009,NO2,NA,NA,NA
India,Chhattisgarh,Raipur,"AIIMS, Raipur - CECB",12-03-2024 22:00:00,21.258815,81.578979,PM10,43,112,65
India,Chhattisgarh,Raipur,"AIIMS, Raipur - CECB",12-03-2024 22:00:00,21.258815,81.578979,SO2,5,12,8
India,Chhattisgarh,Raipur,"Krishak Nagar, Raipur - CECB",12-03-2024 22:00:00,21.237755,81.705301,NH3,1,1,1
India,Chhattisgarh,Raipur,"Krishak Nagar, Raipur - CECB",12-03-2024 22:00:00,21.237755,81.705301,OZONE,4,20,11
India,Chhattisgarh,Raipur,"Siltara Phase-II, Raipur - CECB",12-03-2024 22:00:00,21.371751,81.664929,PM10,NA,NA,NA
India,Chhattisgarh,Tumidih,"OP Jindal Industrial Park, Tumidih - CECB",12-03-2024 22:00:00,22.06631475,83.33820077,NH3,NA,NA,NA
India,Delhi,Delhi,"Alipur, Delhi - DPCC",12-03-2024 22:00:00,28.815329,77.153010,SO2,NA,NA,NA
India,Delhi,Delhi,"Ashok Vihar, Delhi - DPCC",12-03-2024 22:00:00,28.695381,77.181665,SO2,26,51,34
India,Delhi,Delhi,"Ashok Vihar, Delhi - DPCC",12-03-2024 22:00:00,28.695381,77.181665,CO,18,60,29
India,Delhi,Delhi,"Aya Nagar, Delhi - IMD",12-03-2024 22:00:00,28.4706914,77.1099364,PM2.5,46,387,218
India,Delhi,Delhi,"Bawana, Delhi - DPCC",12-03-2024 22:00:00,28.776200,77.051074,NO2,13,64,34
India,Delhi,Delhi,"Bawana, Delhi - DPCC",12-03-2024 22:00:00,28.776200,77.051074,SO2,9,32,16
India,Delhi,Delhi,"Bawana, Delhi - DPCC",12-03-2024 22:00:00,28.776200,77.051074,OZONE,4,123,77
India,Delhi,Delhi,"Burari Crossing, Delhi - IMD",12-03-2024 22:00:00,28.7256504,77.2011573,OZONE,4,34,20
India,Delhi,Delhi,"CRRI Mathura Road, Delhi - IMD",12-03-2024 22:00:00,28.5512005,77.2735737,NO2,4,22,14
India,Delhi,Delhi,"Chandni Chowk, Delhi - IITM",12-03-2024 22:00:00,28.656756,77.227234,PM10,105,248,151
India,Delhi,Delhi,"Dr. Karni Singh Shooting Range, Delhi - DPCC",12-03-2024 22:00:00,28.498571,77.264840,SO2,15,52,26
India,Delhi,Delhi,"Dwarka-Sector 8, Delhi - DPCC ",12-03-2024 22:00:00,28.5710274,77.0719006,SO2,3,24,9
India,Delhi,Delhi,"Dwarka-Sector 8, Delhi - DPCC ",12-03-2024 22:00:00,28.5710274,77.0719006,CO,18,96,29
India,Delhi,Delhi,"IGI Airport (T3), Delhi - IMD",12-03-2024 22:00:00,28.5627763,77.1180053,PM2.5,18,428,146
India,Delhi,Delhi,"IHBAS, Dilshad Garden, Delhi - CPCB",12-03-2024 22:00:00,28.6811736,77.3025234,PM10,90,234,144
India,Delhi,Delhi,"IHBAS, Dilshad Garden, Delhi - CPCB",12-03-2024 22:00:00,28.6811736,77.3025234,SO2,3,22,11
India,Delhi,Delhi,"Jahangirpuri, Delhi - DPCC",12-03-2024 22:00:00,28.732820,77.170633,PM2.5,57,404,227
India,Delhi,Delhi,"Jawaharlal Nehru Stadium, Delhi - DPCC",12-03-2024 22:00:00,28.580280,77.233829,PM10,92,247,138
India,Delhi,Delhi,"Jawaharlal Nehru Stadium, Delhi - DPCC",12-03-2024 22:00:00,28.580280,77.233829,NO2,33,122,81
India,Delhi,Delhi,"Lodhi Road, Delhi - IITM",12-03-2024 22:00:00,28.588333,77.221667,NH3,7,10,9
India,Delhi,Delhi,"Lodhi Road, Delhi - IMD",12-03-2024 22:00:00,28.5918245,77.2273074,PM10,88,245,118
India,Delhi,Delhi,"Lodhi Road, Delhi - IMD",12-03-2024 22:00:00,28.5918245,77.2273074,CO,18,39,25
India,Delhi,Delhi,"Major Dhyan Chand National Stadium, Delhi - DPCC",12-03-2024 22:00:00,28.611281,77.237738,NH3,7,11,8
India,Delhi,Delhi,"Mundka, Delhi - DPCC",12-03-2024 22:00:00,28.684678,77.076574,OZONE,14,14,14
India,Delhi,Delhi,"NSIT Dwarka, Delhi - CPCB",12-03-2024 22:00:00,28.60909,77.0325413,PM10,NA,NA,NA
India,Delhi,Delhi,"NSIT Dwarka, Delhi - CPCB",12-03-2024 22:00:00,28.60909,77.0325413,CO,28,99,47
India,Delhi,Delhi,"Najafgarh, Delhi - DPCC",12-03-2024 22:00:00,28.570173,76.933762,PM10,58,334,145
India,Delhi,Delhi,"Najafgarh, Delhi - DPCC",12-03-2024 22:00:00,28.570173,76.933762,NO2,6,22,13
India,Delhi,Delhi,"Najafgarh, Delhi - DPCC",12-03-2024 22:00:00,28.570173,76.933762,NH3,10,13,12
India,Delhi,Delhi,"Najafgarh, Delhi - DPCC",12-03-2024 22:00:00,28.570173,76.933762,SO2,8,16,12
India,Delhi,Delhi,"Najafgarh, Delhi - DPCC",12-03-2024 22:00:00,28.570173,76.933762,OZONE,7,169,110
India,Delhi,Delhi,"Narela, Delhi - DPCC",12-03-2024 22:00:00,28.822836,77.101981,PM2.5,50,423,197
India,Delhi,Delhi,"Narela, Delhi - DPCC",12-03-2024 22:00:00,28.822836,77.101981,NH3,6,9,7
India,Delhi,Delhi,"Nehru Nagar, Delhi - DPCC",12-03-2024 22:00:00,28.567890,77.250515,PM2.5,53,352,196
India,Delhi,Delhi,"North Campus, DU, Delhi - IMD",12-03-2024 22:00:00,28.6573814,77.1585447,PM10,NA,NA,NA
India,Delhi,Delhi,"North Campus, DU, Delhi - IMD",12-03-2024 22:00:00,28.6573814,77.1585447,NO2,NA,NA,NA
India,Delhi,Delhi,"Okhla Phase-2, Delhi - DPCC",12-03-2024 22:00:00,28.530785,77.271255,PM2.5,52,327,179
India,Delhi,Delhi,"Okhla Phase-2, Delhi - DPCC",12-03-2024 22:00:00,28.530785,77.271255,CO,40,88,60
India,Delhi,Delhi,"Okhla Phase-2, Delhi - DPCC",12-03-2024 22:00:00,28.530785,77.271255,OZONE,9,131,70
India,Delhi,Delhi,"Patparganj, Delhi - DPCC",12-03-2024 22:00:00,28.623763,77.287209,NO2,33,77,49
India,Delhi,Delhi,"Patparganj, Delhi - DPCC",12-03-2024 22:00:00,28.623763,77.287209,SO2,16,20,18
India,Delhi,Delhi,"Pusa, Delhi - IMD",12-03-2024 22:00:00,28.636110,77.173332,PM2.5,97,322,224
India,Delhi,Delhi,"R K Puram, Delhi - DPCC",12-03-2024 22:00:00,28.563262,77.186937,PM2.5,81,358,182
India,Delhi,Delhi,"Shadipur, Delhi - CPCB",12-03-2024 22:00:00,28.6514781,77.1473105,SO2,9,25,18
India,Delhi,Delhi,"Sonia Vihar, Delhi - DPCC",12-03-2024 22:00:00,28.710508,77.249485,PM2.5,59,354,191
India,Delhi,Delhi,"Vivek Vihar, Delhi - DPCC",12-03-2024 22:00:00,28.672342,77.315260,NH3,NA,NA,NA
India,Delhi,Delhi,"Vivek Vihar, Delhi - DPCC",12-03-2024 22:00:00,28.672342,77.315260,SO2,NA,NA,NA
India,Delhi,Delhi,"Wazirpur, Delhi - DPCC",12-03-2024 22:00:00,28.699793,77.165453,NO2,54,146,104
India,Delhi,Delhi,"Wazirpur, Delhi - DPCC",12-03-2024 22:00:00,28.699793,77.165453,OZONE,13,65,41
India,Gujarat,Ahmedabad,"Chandkheda, Ahmedabad - IITM",12-03-2024 22:00:00,23.107969,72.574648,NO2,57,66,62
India,Gujarat,Ahmedabad,"Gyaspur, Ahmedabad - IITM",12-03-2024 22:00:00,22.977134,72.553024,PM10,33,381,127
India,Gujarat,Ahmedabad,"Rakhial, Ahmedabad - IITM",12-03-2024 22:00:00,23.016834,72.625775,CO,13,80,61
India,Gujarat,Ahmedabad,"SAC ISRO Satellite, Ahmedabad - IITM",12-03-2024 22:00:00,23.023389,72.515201,OZONE,10,23,17
India,Gujarat,Gandhinagar,"GIFT City, Gandhinagar - IITM",12-03-2024 22:00:00,23.163798,72.677768,CO,20,38,27
India,Gujarat,Gandhinagar,"IIPHG Lekawada, Gandhinagar - IITM",12-03-2024 22:00:00,23.243639,72.68994,NO2,28,33,30
India,Gujarat,Gandhinagar,"IIPHG Lekawada, Gandhinagar - IITM",12-03-2024 22:00:00,23.243639,72.68994,SO2,11,12,11
India,Gujarat,Nandesari,"GIDC, Nandesari - Nandesari Ind. Association",12-03-2024 22:00:00,22.410802,73.097923,PM2.5,51,388,155
India,Gujarat,Surat,"Science Center, Surat - SMC",12-03-2024 22:00:00,21.170046,72.795405,PM2.5,NA,NA,NA
India,Gujarat,Surat,"Science Center, Surat - SMC",12-03-2024 22:00:00,21.170046,72.795405,CO,46,102,55
India,Gujarat,Vapi,"Phase-1 GIDC, Vapi - GPCB",12-03-2024 22:00:00,20.362421,72.918013,PM2.5,38,119,74
India,Gujarat,Vapi,"Phase-1 GIDC, Vapi - GPCB",12-03-2024 22:00:00,20.362421,72.918013,NO2,6,32,23
India,Gujarat,Vapi,"Phase-1 GIDC, Vapi - GPCB",12-03-2024 22:00:00,20.362421,72.918013,SO2,47,48,48
India,Haryana,Ambala,"Patti Mehar, Ambala - HSPCB",12-03-2024 22:00:00,30.379589,76.778328,PM10,41,76,59
India,Haryana,Ambala,"Patti Mehar, Ambala - HSPCB",12-03-2024 22:00:00,30.379589,76.778328,NO2,7,9,8
India,Haryana,Ambala,"Patti Mehar, Ambala - HSPCB",12-03-2024 22:00:00,30.379589,76.778328,NH3,8,8,8
India,Haryana,Ambala,"Patti Mehar, Ambala - HSPCB",12-03-2024 22:00:00,30.379589,76.778328,OZONE,34,56,41
India,Haryana,Bahadurgarh,"Arya Nagar, Bahadurgarh - HSPCB",12-03-2024 22:00:00,28.6701,76.9254,NH3,10,12,11
India,Haryana,Bahadurgarh,"Arya Nagar, Bahadurgarh - HSPCB",12-03-2024 22:00:00,28.6701,76.9254,CO,40,54,47
India,Haryana,Ballabgarh,"Nathu Colony, Ballabgarh - HSPCB",12-03-2024 22:00:00,28.3419248,77.319699,NH3,1,2,2
India,Haryana,Ballabgarh,"Nathu Colony, Ballabgarh - HSPCB",12-03-2024 22:00:00,28.3419248,77.319699,OZONE,1,29,18
India,Haryana,Charkhi Dadri,"Mini Secretariat, Charkhi Dadri - HSPCB",12-03-2024 22:00:00,28.593883,76.270653,OZONE,14,18,16
India,Haryana,Dharuhera,"Municipal Corporation Office, Dharuhera -  HSPCB",12-03-2024 22:00:00,28.206800,76.799700,PM2.5,42,212,108
India,Haryana,Dharuhera,"Municipal Corporation Office, Dharuhera -  HSPCB",12-03-2024 22:00:00,28.206800,76.799700,PM10,100,217,164
India,Haryana,Dharuhera,"Municipal Corporation Office, Dharuhera -  HSPCB",12-03-2024 22:00:00,28.206800,76.799700,NO2,46,111,77
India,Haryana,Dharuhera,"Municipal Corporation Office, Dharuhera -  HSPCB",12-03-2024 22:00:00,28.206800,76.799700,SO2,31,54,39
India,Haryana,Dharuhera,"Municipal Corporation Office, Dharuhera -  HSPCB",12-03-2024 22:00:00,28.206800,76.799700,CO,18,59,30
India,Haryana,Dharuhera,"Municipal Corporation Office, Dharuhera -  HSPCB",12-03-2024 22:00:00,28.206800,76.799700,OZONE,10,72,40
India,Haryana,Faridabad,"Sector 11, Faridabad - HSPCB",12-03-2024 22:00:00,28.376058,77.315741,NH3,6,6,6
India,Haryana,Faridabad,"Sector 11, Faridabad - HSPCB",12-03-2024 22:00:00,28.376058,77.315741,SO2,1,9,6
India,Haryana,Faridabad,"Sector 30, Faridabad - HSPCB",12-03-2024 22:00:00,28.4417,77.3217,NH3,NA,NA,NA
India,Haryana,Faridabad,"Sector 30, Faridabad - HSPCB",12-03-2024 22:00:00,28.4417,77.3217,SO2,NA,NA,NA
India,Haryana,Fatehabad,"Huda Sector, Fatehabad - HSPCB",12-03-2024 22:00:00,29.503664,75.467934,NO2,37,80,39
India,Haryana,Fatehabad,"Huda Sector, Fatehabad - HSPCB",12-03-2024 22:00:00,29.503664,75.467934,NH3,12,19,13
India,Haryana,Fatehabad,"Huda Sector, Fatehabad - HSPCB",12-03-2024 22:00:00,29.503664,75.467934,CO,6,17,9
India,Haryana,Gurugram,"Sector-51, Gurugram - HSPCB",12-03-2024 22:00:00,28.4227,77.0667,PM2.5,93,414,226
India,Haryana,Gurugram,"Sector-51, Gurugram - HSPCB",12-03-2024 22:00:00,28.4227,77.0667,CO,30,70,35
India,Haryana,Gurugram,"Sector-51, Gurugram - HSPCB",12-03-2024 22:00:00,28.4227,77.0667,OZONE,27,67,56
India,Haryana,Gurugram,"Teri Gram, Gurugram - HSPCB",12-03-2024 22:00:00,28.4275,77.1465,PM2.5,63,382,203
India,Haryana,Gurugram,"Teri Gram, Gurugram - HSPCB",12-03-2024 22:00:00,28.4275,77.1465,PM10,148,430,250
India,Haryana,Gurugram,"Vikas Sadan, Gurugram - HSPCB",12-03-2024 22:00:00,28.4501238,77.0263051,PM2.5,85,246,164
India,Haryana,Gurugram,"Vikas Sadan, Gurugram - HSPCB",12-03-2024 22:00:00,28.4501238,77.0263051,OZONE,7,69,40
India,Haryana,Hisar,"Urban Estate-II, Hisar - HSPCB",12-03-2024 22:00:00,29.140560,75.744941,PM2.5,45,108,70
India,Haryana,Kaithal,"Rishi Nagar, Kaithal - HSPCB",12-03-2024 22:00:00,29.8006,76.4155,SO2,1,113,21
India,Haryana,Kurukshetra,"Sector-7, Kurukshetra - HSPCB",12-03-2024 22:00:00,29.966942,76.875879,NO2,10,25,11
India,Haryana,Mandikhera,"General Hospital, Mandikhera - HSPCB",12-03-2024 22:00:00,27.9002,76.9938,NH3,18,21,20
India,Haryana,Manesar,"Sector-2 IMT, Manesar - HSPCB",12-03-2024 22:00:00,28.360699,76.936090,PM2.5,72,308,131
India,Haryana,Manesar,"Sector-2 IMT, Manesar - HSPCB",12-03-2024 22:00:00,28.360699,76.936090,SO2,6,16,12
India,Haryana,Narnaul,"Shastri Nagar, Narnaul - HSPCB",12-03-2024 22:00:00,28.060249,76.113115,PM10,36,105,61
India,Haryana,Narnaul,"Shastri Nagar, Narnaul - HSPCB",12-03-2024 22:00:00,28.060249,76.113115,SO2,13,54,20
India,Haryana,Narnaul,"Shastri Nagar, Narnaul - HSPCB",12-03-2024 22:00:00,28.060249,76.113115,CO,4,19,10
India,Haryana,Palwal,"Shyam Nagar, Palwal - HSPCB",12-03-2024 22:00:00,28.1485564,77.3320667,PM2.5,54,92,71
India,Haryana,Palwal,"Shyam Nagar, Palwal - HSPCB",12-03-2024 22:00:00,28.1485564,77.3320667,NO2,23,25,24
India,Haryana,Rohtak,"MD University, Rohtak - HSPCB",12-03-2024 22:00:00,28.52123,76.37138,NO2,45,55,51
India,Haryana,Rohtak,"MD University, Rohtak - HSPCB",12-03-2024 22:00:00,28.52123,76.37138,SO2,5,8,7
India,Haryana,Sirsa,"F-Block, Sirsa - HSPCB",12-03-2024 22:00:00,29.536400,75.015800,NH3,12,13,13
India,Haryana,Yamuna Nagar,"Gobind Pura, Yamuna Nagar - HSPCB",12-03-2024 22:00:00,30.1480566,77.2893471,SO2,2,12,7
India,Himachal Pradesh,Baddi,"HIMUDA Complex Phase-1, Baddi - HPPCB",12-03-2024 22:00:00,30.943887,76.801991,PM2.5,27,352,212
India,Himachal Pradesh,Baddi,"HIMUDA Complex Phase-1, Baddi - HPPCB",12-03-2024 22:00:00,30.943887,76.801991,PM10,58,378,175
India,Himachal Pradesh,Baddi,"HIMUDA Complex Phase-1, Baddi - HPPCB",12-03-2024 22:00:00,30.943887,76.801991,NH3,4,9,7
India,Jharkhand,Dhanbad,"Kalakusuma, Dhanbad - DMC",12-03-2024 22:00:00,23.811548,86.481238,NO2,13,22,14
India,Karnataka,Bagalkot,"Vidayagiri, Bagalkot - KSPCB",12-03-2024 22:00:00,16.172806,75.659694,PM2.5,19,37,36
India,Karnataka,Belgaum,"Ramteerth Nagar, Belgaum - KSPCB",12-03-2024 22:00:00,15.888653,74.541751,NO2,25,31,28
India,Karnataka,Bengaluru,"BTM Layout, Bengaluru - CPCB",12-03-2024 22:00:00,12.9135218,77.5950804,PM2.5,42,68,53
India,Karnataka,Bengaluru,"BTM Layout, Bengaluru - CPCB",12-03-2024 22:00:00,12.9135218,77.5950804,SO2,8,10,9
India,Karnataka,Bengaluru,"BTM Layout, Bengaluru - CPCB",12-03-2024 22:00:00,12.9135218,77.5950804,CO,37,46,38
India,Karnataka,Bengaluru,"BTM Layout, Bengaluru - CPCB",12-03-2024 22:00:00,12.9135218,77.5950804,OZONE,53,107,66
India,Karnataka,Bengaluru,"Bapuji Nagar, Bengaluru - KSPCB",12-03-2024 22:00:00,12.951913,77.539784,NH3,1,1,1
India,Karnataka,Bengaluru,"Bapuji Nagar, Bengaluru - KSPCB",12-03-2024 22:00:00,12.951913,77.539784,SO2,6,9,7
India,Karnataka,Bengaluru,"Bapuji Nagar, Bengaluru - KSPCB",12-03-2024 22:00:00,12.951913,77.539784,CO,32,50,43
India,Karnataka,Bengaluru,"Hebbal, Bengaluru - KSPCB",12-03-2024 22:00:00,13.029152,77.585901,PM10,101,148,122
India,Karnataka,Bengaluru,"Hombegowda Nagar, Bengaluru - KSPCB",12-03-2024 22:00:00,12.938539,77.590100,PM10,79,124,93
India,Karnataka,Bengaluru,"Jayanagar 5th Block, Bengaluru - KSPCB",12-03-2024 22:00:00,12.920984,77.584908,PM10,80,146,110
India,Karnataka,Bengaluru,"Jayanagar 5th Block, Bengaluru - KSPCB",12-03-2024 22:00:00,12.920984,77.584908,OZONE,28,28,28
India,Karnataka,Bengaluru,"Jigani, Bengaluru - KSPCB",12-03-2024 22:00:00,12.7816279,77.6299145,PM2.5,NA,NA,NA
India,Karnataka,Bengaluru,"Kasturi Nagar, Bengaluru - KSPCB",12-03-2024 22:00:00,13.003872,77.664217,CO,20,28,23
India,Karnataka,Bengaluru,"RVCE-Mailasandra, Bengaluru - KSPCB",12-03-2024 22:00:00,12.921418,77.502466,OZONE,37,37,37
India,Karnataka,Bengaluru,"Sanegurava Halli, Bengaluru - KSPCB",12-03-2024 22:00:00,12.990328,77.5431385,NO2,NA,NA,NA
India,Karnataka,Bengaluru,"Shivapura_Peenya, Bengaluru - KSPCB",12-03-2024 22:00:00,13.0246342,77.5080115,NO2,15,16,16
India,Karnataka,Bengaluru,"Silk Board, Bengaluru - KSPCB",12-03-2024 22:00:00,12.917348,77.622813,PM2.5,58,98,75
India,Karnataka,Bengaluru,"Silk Board, Bengaluru - KSPCB",12-03-2024 22:00:00,12.917348,77.622813,NH3,2,3,2
India,Karnataka,Bidar,"Naubad, Bidar - KSPCB",12-03-2024 22:00:00,17.930306,77.482194,PM2.5,70,106,85
India,Karnataka,Bidar,"Naubad, Bidar - KSPCB",12-03-2024 22:00:00,17.930306,77.482194,NH3,3,3,3
India,Karnataka,Bidar,"Naubad, Bidar - KSPCB",12-03-2024 22:00:00,17.930306,77.482194,SO2,17,22,18
India,Karnataka,Bidar,"Naubad, Bidar - KSPCB",12-03-2024 22:00:00,17.930306,77.482194,CO,64,77,68
India,Karnataka,Chamarajanagar,"Urban, Chamarajanagar - KSPCB",12-03-2024 22:00:00,11.55358,76.55521,NH3,1,2,1
India,Karnataka,Chikkaballapur,"Chikkaballapur Rural, Chikkaballapur - KSPCB",12-03-2024 22:00:00,13.428828,77.731418,PM10,71,156,96
India,Karnataka,Chikkamagaluru,"Kalyana Nagara, Chikkamagaluru - KSPCB",12-03-2024 22:00:00,13.328028,75.797056,NO2,NA,NA,NA
India,Karnataka,Chikkamagaluru,"Kalyana Nagara, Chikkamagaluru - KSPCB",12-03-2024 22:00:00,13.328028,75.797056,NH3,NA,NA,NA
