country,state,city,station,last_update,latitude,longitude,pollutant_id,pollutant_min,pollutant_max,pollutant_avg
India,Andhra_Pradesh,Amaravati,"Secretariat, Amaravati - APPCB",17-06-2024 02:00:00,16.5150833,80.5181667,CO,5,127,26
India,Andhra_Pradesh,Anantapur,"Gulzarpet, Anantapur - APPCB",17-06-2024 02:00:00,14.675886,77.593027,NO2,12,13,12
India,Andhra_Pradesh,Anantapur,"Gulzarpet, Anantapur - APPCB",17-06-2024 02:00:00,14.675886,77.593027,CO,19,40,26
India,Andhra_Pradesh,Anantapur,"Gulzarpet, Anantapur - APPCB",17-06-2024 02:00:00,14.675886,77.593027,OZONE,2,24,13
India,Andhra_Pradesh,Tirupati,"Tirumala, Tirupati - APPCB",17-06-2024 02:00:00,13.67,79.35,PM10,25,67,41
India,Andhra_Pradesh,Tirupati,"Vaikuntapuram, Tirupati - APPCB",17-06-2024 02:00:00,13.615387,79.409230,PM10,NA,NA,NA
India,Andhra_Pradesh,Tirupati,"Vaikuntapuram, Tirupati - APPCB",17-06-2024 02:00:00,13.615387,79.409230,NH3,NA,NA,NA
India,Andhra_Pradesh,Vijayawada,"HB Colony, Vijayawada - APPCB",17-06-2024 02:00:00,16.536107,80.594233,PM10,50,97,63
India,Andhra_Pradesh,Vijayawada,"HB Colony, Vijayawada - APPCB",17-06-2024 02:00:00,16.536107,80.594233,SO2,5,6,5
India,Andhra_Pradesh,Vijayawada,"Kanuru, Vijayawada - APPCB",17-06-2024 02:00:00,16.486692,80.699436,CO,36,36,36
India,Andhra_Pradesh,Vijayawada,"Kanuru, Vijayawada - APPCB",17-06-2024 02:00:00,16.486692,80.699436,OZONE,40,40,40
India,Andhra_Pradesh,Vijayawada,"Rajiv Gandhi Park, Vijayawada - APPCB",17-06-2024 02:00:00,16.509717,80.612222,PM2.5,41,62,48
India,Andhra_Pradesh,Vijayawada,"Rajiv Nagar, Vijayawada - APPCB",17-06-2024 02:00:00,16.554731,80.649110,PM10,53,118,65
India,Andhra_Pradesh,Vijayawada,"Rajiv Nagar, Vijayawada - APPCB",17-06-2024 02:00:00,16.554731,80.649110,NH3,1,2,2
India,Andhra_Pradesh,Visakhapatnam,"GVM Corporation, Visakhapatnam - APPCB",17-06-2024 02:00:00,17.72,83.3,CO,8,50,29
India,Assam,Guwahati,"LGBI Airport, Guwahati - PCBA",17-06-2024 02:00:00,26.10887,91.589544,CO,32,52,39
India,Assam,Guwahati,"LGBI Airport, Guwahati - PCBA",17-06-2024 02:00:00,26.10887,91.589544,OZONE,22,25,24
India,Assam,Guwahati,"Pan Bazaar, Guwahati - PCBA",17-06-2024 02:00:00,26.187500,91.744194,PM2.5,5,20,12
India,Assam,Guwahati,"Railway Colony, Guwahati - PCBA",17-06-2024 02:00:00,26.181742,91.78063,SO2,1,2,2
India,Assam,Nagaon,"Christianpatty, Nagaon - PCBA",17-06-2024 02:00:00,26.349082,92.68449,SO2,9,10,9
India,Assam,Nagaon,"Christianpatty, Nagaon - PCBA",17-06-2024 02:00:00,26.349082,92.68449,OZONE,4,41,18
India,Assam,Nalbari,"Bata Chowk, Nalbari - PCBA",17-06-2024 02:00:00,26.446912,91.439057,PM2.5,3,25,11
India,Assam,Nalbari,"Bata Chowk, Nalbari - PCBA",17-06-2024 02:00:00,26.446912,91.439057,OZONE,29,50,45
India,Assam,Sivasagar,"Girls College, Sivasagar - PCBA",17-06-2024 02:00:00,26.987634,94.636574,PM2.5,26,78,36
India,Assam,Sivasagar,"Girls College, Sivasagar - PCBA",17-06-2024 02:00:00,26.987634,94.636574,NH3,2,3,3
India,Bihar,Arrah,"New DM Office, Arrah - BSPCB",17-06-2024 02:00:00,25.5626095,84.663264,PM2.5,42,80,55
India,Bihar,Arrah,"New DM Office, Arrah - BSPCB",17-06-2024 02:00:00,25.5626095,84.663264,PM10,42,121,75
India,Bihar,Arrah,"New DM Office, Arrah - BSPCB",17-06-2024 02:00:00,25.5626095,84.663264,NO2,9,13,11
India,Bihar,Bhagalpur,"DM Office_Kachari Chowk, Bhagalpur - BSPCB",17-06-2024 02:00:00,25.251013,86.989001,PM10,84,175,118
India,Bihar,Bhagalpur,"DM Office_Kachari Chowk, Bhagalpur - BSPCB",17-06-2024 02:00:00,25.251013,86.989001,SO2,19,26,24
India,Bihar,Bhagalpur,"Mayaganj, Bhagalpur - BSPCB",17-06-2024 02:00:00,25.265194,87.012947,PM10,65,155,95
India,Bihar,Bhagalpur,"Mayaganj, Bhagalpur - BSPCB",17-06-2024 02:00:00,25.265194,87.012947,CO,24,35,30
India,Bihar,Bihar Sharif,"D M Colony, Bihar Sharif - BSPCB",17-06-2024 02:00:00,25.204762,85.514960,NO2,8,10,9
India,Bihar,Bihar Sharif,"D M Colony, Bihar Sharif - BSPCB",17-06-2024 02:00:00,25.204762,85.514960,NH3,1,1,1
India,Bihar,Chhapra,"Darshan Nagar, Chhapra - BSPCB",17-06-2024 02:00:00,25.7808257,84.7446768,CO,23,48,38
India,Bihar,Chhapra,"Darshan Nagar, Chhapra - BSPCB",17-06-2024 02:00:00,25.7808257,84.7446768,OZONE,1,15,3
India,Bihar,Gaya,"Collectorate, Gaya - BSPCB",17-06-2024 02:00:00,24.7955,84.9994,OZONE,55,78,70
India,Bihar,Gaya,"Kareemganj, Gaya - BSPCB",17-06-2024 02:00:00,24.792403,84.992416,NH3,1,9,2
India,Bihar,Gaya,"SFTI Kusdihra, Gaya - BSPCB",17-06-2024 02:00:00,24.762518,84.982348,CO,12,40,29
India,Bihar,Hajipur,"Industrial Area, Hajipur - BSPCB",17-06-2024 02:00:00,25.697189,85.245900,PM10,94,185,129
India,Bihar,Hajipur,"Industrial Area, Hajipur - BSPCB",17-06-2024 02:00:00,25.697189,85.245900,SO2,4,6,5
India,Bihar,Hajipur,"Industrial Area, Hajipur - BSPCB",17-06-2024 02:00:00,25.697189,85.245900,CO,24,29,24
India,Bihar,Kishanganj,"SDM Office_Khagra, Kishanganj - BSPCB",17-06-2024 02:00:00,26.0881305,87.93840336,OZONE,18,25,20
India,Bihar,Manguraha,"Forest Rest House, Manguraha - BSPCB",17-06-2024 02:00:00,27.308328,84.531742,CO,18,40,23
India,Bihar,Motihari,"Gandak Colony, Motihari - BSPCB",17-06-2024 02:00:00,26.63086,84.90051,NO2,NA,NA,NA
India,Bihar,Munger,"Town Hall, Munger - BSPCB",17-06-2024 02:00:00,25.376776,86.471523,NH3,3,3,3
India,Bihar,Muzaffarpur,"Buddha Colony, Muzaffarpur - BSPCB",17-06-2024 02:00:00,26.11442,85.39813,NH3,NA,NA,NA
India,Bihar,Muzaffarpur,"MIT-Daudpur Kothi, Muzaffarpur - BSPCB",17-06-2024 02:00:00,26.1403345,85.3650192,SO2,9,9,9
India,Bihar,Patna,"DRM Office Danapur, Patna - BSPCB",17-06-2024 02:00:00,25.586562,85.043586,SO2,1,10,5
India,Bihar,Patna,"DRM Office Danapur, Patna - BSPCB",17-06-2024 02:00:00,25.586562,85.043586,OZONE,11,67,48
India,Bihar,Patna,"Govt. High School Shikarpur, Patna - BSPCB",17-06-2024 02:00:00,25.592539,85.227158,SO2,8,11,10
India,Bihar,Patna,"Muradpur, Patna - BSPCB",17-06-2024 02:00:00,25.619651,85.147382,SO2,3,14,6
India,Bihar,Patna,"Muradpur, Patna - BSPCB",17-06-2024 02:00:00,25.619651,85.147382,CO,44,72,52
India,Bihar,Patna,"Rajbansi Nagar, Patna - BSPCB",17-06-2024 02:00:00,25.599486,85.113666,NO2,6,27,12
India,Bihar,Patna,"Rajbansi Nagar, Patna - BSPCB",17-06-2024 02:00:00,25.599486,85.113666,NH3,3,7,5
India,Bihar,Patna,"Rajbansi Nagar, Patna - BSPCB",17-06-2024 02:00:00,25.599486,85.113666,SO2,6,17,13
India,Bihar,Patna,"Rajbansi Nagar, Patna - BSPCB",17-06-2024 02:00:00,25.599486,85.113666,CO,28,39,34
India,Bihar,Patna,"Rajbansi Nagar, Patna - BSPCB",17-06-2024 02:00:00,25.599486,85.113666,OZONE,8,66,37
India,Bihar,Patna,"Samanpura, Patna - BSPCB",17-06-2024 02:00:00,25.596727,85.085624,NH3,1,17,6
India,Bihar,Purnia,"Mariam Nagar, Purnia - BSPCB",17-06-2024 02:00:00,25.366336,87.117468,NO2,2,18,5
India,Bihar,Purnia,"Mariam Nagar, Purnia - BSPCB",17-06-2024 02:00:00,25.366336,87.117468,NH3,1,2,1
India,Bihar,Rajgir,"Dangi Tola, Rajgir - BSPCB",17-06-2024 02:00:00,25.03280,85.41948,SO2,4,4,4
India,Bihar,Rajgir,"Dangi Tola, Rajgir - BSPCB",17-06-2024 02:00:00,25.03280,85.41948,OZONE,24,45,35
India,Bihar,Sasaram,"Dada Peer, Sasaram - BSPCB",17-06-2024 02:00:00,24.952822,84.002396,OZONE,1,58,20
India,Bihar,Siwan,"Chitragupta Nagar, Siwan - BSPCB",17-06-2024 02:00:00,26.2271665,84.3570427,PM2.5,NA,NA,NA
India,Bihar,Siwan,"Chitragupta Nagar, Siwan - BSPCB",17-06-2024 02:00:00,26.2271665,84.3570427,NO2,NA,NA,NA
India,Chandigarh,Chandigarh,"Sector 22, Chandigarh - CPCC",17-06-2024 02:00:00,30.735567,76.775714,SO2,9,68,25
India,Chandigarh,Chandigarh,"Sector-25, Chandigarh - CPCC",17-06-2024 02:00:00,30.751462,76.762879,PM2.5,147,236,183
India,Chandigarh,Chandigarh,"Sector-25, Chandigarh - CPCC",17-06-2024 02:00:00,30.751462,76.762879,PM10,159,196,175
India,Chandigarh,Chandigarh,"Sector-53, Chandigarh - CPCC",17-06-2024 02:00:00,30.719859,76.738637,NH3,5,7,6
India,Chhattisgarh,Bhilai,"32Bungalows, Bhilai - CECB",17-06-2024 02:00:00,21.194815,81.314770,SO2,9,15,11
India,Chhattisgarh,Bhilai,"Civic Center, Bhilai - Bhilai Steel Plant",17-06-2024 02:00:00,21.185571,81.343175,PM10,25,83,45
India,Chhattisgarh,Bilaspur,"Mangala, Bilaspur - NTPC",17-06-2024 02:00:00,22.08815,82.13737,SO2,12,20,17
India,Chhattisgarh,Chhal,"Nawapara SECL Colony, Chhal - CECB",17-06-2024 02:00:00,22.118125,83.140608,PM10,21,76,42
India,Chhattisgarh,Chhal,"Nawapara SECL Colony, Chhal - CECB",17-06-2024 02:00:00,22.118125,83.140608,SO2,10,16,12
India,Chhattisgarh,Chhal,"Nawapara SECL Colony, Chhal - CECB",17-06-2024 02:00:00,22.118125,83.140608,OZONE,3,55,16
India,Chhattisgarh,Korba,"Urja Nagar, Korba - CECB",17-06-2024 02:00:00,22.348441,82.549611,PM2.5,10,189,76
India,Chhattisgarh,Korba,"Urja Nagar, Korba - CECB",17-06-2024 02:00:00,22.348441,82.549611,CO,22,52,41
India,Chhattisgarh,Korba,"Urja Nagar, Korba - CECB",17-06-2024 02:00:00,22.348441,82.549611,OZONE,1,3,1
India,Chhattisgarh,Kunjemura,"OP Jindal School, Kunjemura - CECB",17-06-2024 02:00:00,22.126650,83.483212,PM10,13,315,69
India,Chhattisgarh,Kunjemura,"OP Jindal School, Kunjemura - CECB",17-06-2024 02:00:00,22.126650,83.483212,OZONE,4,11,6
India,Chhattisgarh,Milupara,"Govt. Higher Secondary School, Milupara - CECB",17-06-2024 02:00:00,22.1910172,83.5197009,NH3,NA,NA,NA
India,Chhattisgarh,Milupara,"Govt. Higher Secondary School, Milupara - CECB",17-06-2024 02:00:00,22.1910172,83.5197009,OZONE,10,38,18
India,Chhattisgarh,Raipur,"AIIMS, Raipur - CECB",17-06-2024 02:00:00,21.258815,81.578979,PM2.5,24,67,38
India,Chhattisgarh,Raipur,"AIIMS, Raipur - CECB",17-06-2024 02:00:00,21.258815,81.578979,NH3,6,6,6
India,Chhattisgarh,Raipur,"Bhatagaon New ISBT, Raipur - CECB",17-06-2024 02:00:00,21.219665,81.630094,PM2.5,23,83,48
India,Chhattisgarh,Raipur,"Bhatagaon New ISBT, Raipur - CECB",17-06-2024 02:00:00,21.219665,81.630094,SO2,4,7,6
India,Chhattisgarh,Raipur,"Krishak Nagar, Raipur - CECB",17-06-2024 02:00:00,21.237755,81.705301,PM2.5,18,64,39
India,Chhattisgarh,Raipur,"Krishak Nagar, Raipur - CECB",17-06-2024 02:00:00,21.237755,81.705301,PM10,32,108,65
India,Chhattisgarh,Raipur,"Krishak Nagar, Raipur - CECB",17-06-2024 02:00:00,21.237755,81.705301,NH3,1,1,1
India,Chhattisgarh,Raipur,"Siltara Phase-II, Raipur - CECB",17-06-2024 02:00:00,21.371751,81.664929,PM2.5,58,179,92
India,Chhattisgarh,Tumidih,"OP Jindal Industrial Park, Tumidih - CECB",17-06-2024 02:00:00,22.06631475,83.33820077,PM10,12,152,70
India,Delhi,Delhi,"Alipur, Delhi - DPCC",17-06-2024 02:00:00,28.815329,77.153010,NO2,22,80,38
India,Delhi,Delhi,"Alipur, Delhi - DPCC",17-06-2024 02:00:00,28.815329,77.153010,OZONE,11,115,69
India,Delhi,Delhi,"Anand Vihar, Delhi - DPCC",17-06-2024 02:00:00,28.647622,77.3158090,PM10,NA,NA,NA
India,Delhi,Delhi,"Ashok Vihar, Delhi - DPCC",17-06-2024 02:00:00,28.695381,77.181665,PM2.5,40,157,86
India,Delhi,Delhi,"Ashok Vihar, Delhi - DPCC",17-06-2024 02:00:00,28.695381,77.181665,NH3,3,11,8
India,Delhi,Delhi,"Aya Nagar, Delhi - IMD",17-06-2024 02:00:00,28.4706914,77.1099364,NO2,9,15,11
India,Delhi,Delhi,"Bawana, Delhi - DPCC",17-06-2024 02:00:00,28.776200,77.051074,PM10,127,334,203
India,Delhi,Delhi,"Bawana, Delhi - DPCC",17-06-2024 02:00:00,28.776200,77.051074,NH3,5,9,7
India,Delhi,Delhi,"Bawana, Delhi - DPCC",17-06-2024 02:00:00,28.776200,77.051074,SO2,10,115,42
India,Delhi,Delhi,"Bawana, Delhi - DPCC",17-06-2024 02:00:00,28.776200,77.051074,CO,20,52,37
India,Delhi,Delhi,"Bawana, Delhi - DPCC",17-06-2024 02:00:00,28.776200,77.051074,OZONE,8,91,52
India,Delhi,Delhi,"CRRI Mathura Road, Delhi - IMD",17-06-2024 02:00:00,28.5512005,77.2735737,PM10,119,213,172
India,Delhi,Delhi,"Chandni Chowk, Delhi - IITM",17-06-2024 02:00:00,28.656756,77.227234,CO,52,74,68
India,Delhi,Delhi,"DTU, Delhi - CPCB",17-06-2024 02:00:00,28.7500499,77.1112615,OZONE,31,93,65
India,Delhi,Delhi,"Dr. Karni Singh Shooting Range, Delhi - DPCC",17-06-2024 02:00:00,28.498571,77.264840,CO,22,84,52
India,Delhi,Delhi,"Dr. Karni Singh Shooting Range, Delhi - DPCC",17-06-2024 02:00:00,28.498571,77.264840,OZONE,14,173,76
India,Delhi,Delhi,"Dwarka-Sector 8, Delhi - DPCC ",17-06-2024 02:00:00,28.5710274,77.0719006,PM2.5,38,290,104
India,Delhi,Delhi,"Dwarka-Sector 8, Delhi - DPCC ",17-06-2024 02:00:00,28.5710274,77.0719006,PM10,140,335,220
India,Delhi,Delhi,"Dwarka-Sector 8, Delhi - DPCC ",17-06-2024 02:00:00,28.5710274,77.0719006,NO2,12,87,38
India,Delhi,Delhi,"Dwarka-Sector 8, Delhi - DPCC ",17-06-2024 02:00:00,28.5710274,77.0719006,OZONE,6,76,37
India,Delhi,Delhi,"IHBAS, Dilshad Garden, Delhi - CPCB",17-06-2024 02:00:00,28.6811736,77.3025234,NO2,8,41,31
India,Delhi,Delhi,"ITO, Delhi - CPCB",17-06-2024 02:00:00,28.628624,77.241060,PM2.5,68,147,89
India,Delhi,Delhi,"Jahangirpuri, Delhi - DPCC",17-06-2024 02:00:00,28.732820,77.170633,NO2,6,65,28
India,Delhi,Delhi,"Lodhi Road, Delhi - IMD",17-06-2024 02:00:00,28.5918245,77.2273074,PM2.5,35,143,72
India,Delhi,Delhi,"Lodhi Road, Delhi - IMD",17-06-2024 02:00:00,28.5918245,77.2273074,CO,26,37,29
India,Delhi,Delhi,"Lodhi Road, Delhi - IMD",17-06-2024 02:00:00,28.5918245,77.2273074,OZONE,2,14,8
India,Delhi,Delhi,"Major Dhyan Chand National Stadium, Delhi - DPCC",17-06-2024 02:00:00,28.611281,77.237738,CO,22,98,55
India,Delhi,Delhi,"Major Dhyan Chand National Stadium, Delhi - DPCC",17-06-2024 02:00:00,28.611281,77.237738,OZONE,1,113,49
India,Delhi,Delhi,"Mundka, Delhi - DPCC",17-06-2024 02:00:00,28.684678,77.076574,NO2,36,103,60
India,Delhi,Delhi,"Mundka, Delhi - DPCC",17-06-2024 02:00:00,28.684678,77.076574,SO2,9,81,27
India,Delhi,Delhi,"NSIT Dwarka, Delhi - CPCB",17-06-2024 02:00:00,28.60909,77.0325413,NO2,25,52,35
India,Delhi,Delhi,"NSIT Dwarka, Delhi - CPCB",17-06-2024 02:00:00,28.60909,77.0325413,NH3,7,9,8
India,Delhi,Delhi,"Najafgarh, Delhi - DPCC",17-06-2024 02:00:00,28.570173,76.933762,PM2.5,20,162,67
India,Delhi,Delhi,"Najafgarh, Delhi - DPCC",17-06-2024 02:00:00,28.570173,76.933762,PM10,123,248,179
India,Delhi,Delhi,"Narela, Delhi - DPCC",17-06-2024 02:00:00,28.822836,77.101981,NO2,4,72,24
India,Delhi,Delhi,"Narela, Delhi - DPCC",17-06-2024 02:00:00,28.822836,77.101981,NH3,5,7,6
India,Delhi,Delhi,"Nehru Nagar, Delhi - DPCC",17-06-2024 02:00:00,28.567890,77.250515,CO,52,86,68
India,Delhi,Delhi,"North Campus, DU, Delhi - IMD",17-06-2024 02:00:00,28.6573814,77.1585447,CO,56,104,86
India,Delhi,Delhi,"Punjabi Bagh, Delhi - DPCC",17-06-2024 02:00:00,28.674045,77.131023,PM2.5,28,309,121
India,Delhi,Delhi,"Punjabi Bagh, Delhi - DPCC",17-06-2024 02:00:00,28.674045,77.131023,PM10,105,261,166
India,Delhi,Delhi,"Punjabi Bagh, Delhi - DPCC",17-06-2024 02:00:00,28.674045,77.131023,NH3,4,7,5
India,Delhi,Delhi,"Punjabi Bagh, Delhi - DPCC",17-06-2024 02:00:00,28.674045,77.131023,CO,34,68,53
India,Delhi,Delhi,"R K Puram, Delhi - DPCC",17-06-2024 02:00:00,28.563262,77.186937,PM10,129,287,186
India,Delhi,Delhi,"R K Puram, Delhi - DPCC",17-06-2024 02:00:00,28.563262,77.186937,NO2,11,127,58
India,Delhi,Delhi,"R K Puram, Delhi - DPCC",17-06-2024 02:00:00,28.563262,77.186937,OZONE,11,111,45
India,Delhi,Delhi,"Rohini, Delhi - DPCC",17-06-2024 02:00:00,28.732528,77.119920,SO2,10,75,28
India,Delhi,Delhi,"Rohini, Delhi - DPCC",17-06-2024 02:00:00,28.732528,77.119920,OZONE,10,116,61
India,Delhi,Delhi,"Shadipur, Delhi - CPCB",17-06-2024 02:00:00,28.6514781,77.1473105,OZONE,2,57,14
India,Delhi,Delhi,"Sirifort, Delhi - CPCB",17-06-2024 02:00:00,28.5504249,77.2159377,PM2.5,45,194,92
India,Delhi,Delhi,"Sirifort, Delhi - CPCB",17-06-2024 02:00:00,28.5504249,77.2159377,SO2,49,54,51
India,Delhi,Delhi,"Sonia Vihar, Delhi - DPCC",17-06-2024 02:00:00,28.710508,77.249485,OZONE,8,116,70
India,Delhi,Delhi,"Vivek Vihar, Delhi - DPCC",17-06-2024 02:00:00,28.672342,77.315260,PM2.5,40,150,77
India,Delhi,Delhi,"Vivek Vihar, Delhi - DPCC",17-06-2024 02:00:00,28.672342,77.315260,SO2,10,26,16
India,Delhi,Delhi,"Vivek Vihar, Delhi - DPCC",17-06-2024 02:00:00,28.672342,77.315260,CO,56,100,83
India,Delhi,Delhi,"Wazirpur, Delhi - DPCC",17-06-2024 02:00:00,28.699793,77.165453,PM2.5,NA,NA,NA
India,Gujarat,Ahmedabad,"Chandkheda, Ahmedabad - IITM",17-06-2024 02:00:00,23.107969,72.574648,NH3,4,5,5
India,Gujarat,Ahmedabad,"Chandkheda, Ahmedabad - IITM",17-06-2024 02:00:00,23.107969,72.574648,OZONE,10,61,21
India,Gujarat,Ahmedabad,"Raikhad, Ahmedabad - IITM",17-06-2024 02:00:00,23.020509,72.579261,PM2.5,42,320,170
India,Gujarat,Ahmedabad,"Raikhad, Ahmedabad - IITM",17-06-2024 02:00:00,23.020509,72.579261,OZONE,13,73,30
India,Gujarat,Ahmedabad,"Rakhial, Ahmedabad - IITM",17-06-2024 02:00:00,23.016834,72.625775,SO2,15,30,23
India,Gujarat,Ankleshwar,"GIDC, Ankleshwar - GPCB",17-06-2024 02:00:00,21.613267,73.010555,NH3,3,3,3
India,Gujarat,Gandhinagar,"GIFT City, Gandhinagar - IITM",17-06-2024 02:00:00,23.163798,72.677768,PM2.5,34,77,51
India,Gujarat,Gandhinagar,"GIFT City, Gandhinagar - IITM",17-06-2024 02:00:00,23.163798,72.677768,SO2,8,16,11
India,Gujarat,Gandhinagar,"GIFT City, Gandhinagar - IITM",17-06-2024 02:00:00,23.163798,72.677768,CO,11,19,14
India,Gujarat,Gandhinagar,"Sector-10, Gandhinagar - GPCB",17-06-2024 02:00:00,23.221714,72.654328,NH3,2,2,2
India,Gujarat,Gandhinagar,"Sector-10, Gandhinagar - GPCB",17-06-2024 02:00:00,23.221714,72.654328,CO,17,24,17
India,Gujarat,Nandesari,"GIDC, Nandesari - Nandesari Ind. Association",17-06-2024 02:00:00,22.410802,73.097923,PM10,75,233,130
India,Gujarat,Surat,"Science Center, Surat - SMC",17-06-2024 02:00:00,21.170046,72.795405,PM10,NA,NA,NA
India,Gujarat,Vatva,"Phase-4 GIDC, Vatva - GPCB",17-06-2024 02:00:00,22.969611,72.643500,NO2,40,147,77
India,Gujarat,Vatva,"Phase-4 GIDC, Vatva - GPCB",17-06-2024 02:00:00,22.969611,72.643500,NH3,5,15,10
India,Gujarat,Vatva,"Phase-4 GIDC, Vatva - GPCB",17-06-2024 02:00:00,22.969611,72.643500,CO,14,100,29
India,Haryana,Ambala,"Patti Mehar, Ambala - HSPCB",17-06-2024 02:00:00,30.379589,76.778328,PM10,69,107,94
India,Haryana,Ambala,"Patti Mehar, Ambala - HSPCB",17-06-2024 02:00:00,30.379589,76.778328,NH3,5,12,9
India,Haryana,Bahadurgarh,"Arya Nagar, Bahadurgarh - HSPCB",17-06-2024 02:00:00,28.6701,76.9254,PM2.5,94,228,150
India,Haryana,Bahadurgarh,"Arya Nagar, Bahadurgarh - HSPCB",17-06-2024 02:00:00,28.6701,76.9254,SO2,2,79,20
India,Haryana,Bahadurgarh,"Arya Nagar, Bahadurgarh - HSPCB",17-06-2024 02:00:00,28.6701,76.9254,CO,88,102,96
India,Haryana,Bhiwani,"H.B. Colony, Bhiwani - HSPCB",17-06-2024 02:00:00,28.806223,76.141105,NO2,2,11,8
India,Haryana,Charkhi Dadri,"Mini Secretariat, Charkhi Dadri - HSPCB",17-06-2024 02:00:00,28.593883,76.270653,PM2.5,54,149,95
India,Haryana,Charkhi Dadri,"Mini Secretariat, Charkhi Dadri - HSPCB",17-06-2024 02:00:00,28.593883,76.270653,NO2,15,22,18
India,Haryana,Dharuhera,"Municipal Corporation Office, Dharuhera -  HSPCB",17-06-2024 02:00:00,28.206800,76.799700,CO,8,46,25
India,Haryana,Faridabad,"Sector 11, Faridabad - HSPCB",17-06-2024 02:00:00,28.376058,77.315741,CO,22,50,41
India,Haryana,Faridabad,"Sector 30, Faridabad - HSPCB",17-06-2024 02:00:00,28.4417,77.3217,PM2.5,NA,NA,NA
India,Haryana,Faridabad,"Sector 30, Faridabad - HSPCB",17-06-2024 02:00:00,28.4417,77.3217,NH3,NA,NA,NA
India,Haryana,Faridabad,"Sector- 16A, Faridabad - HSPCB",17-06-2024 02:00:00,28.4088421,77.3099081,NO2,10,47,24
India,Haryana,Faridabad,"Sector- 16A, Faridabad - HSPCB",17-06-2024 02:00:00,28.4088421,77.3099081,OZONE,14,14,14
India,Haryana,Gurugram,"NISE Gwal Pahari, Gurugram - IMD",17-06-2024 02:00:00,28.422681,77.148944,OZONE,6,59,33
India,Haryana,Gurugram,"Teri Gram, Gurugram - HSPCB",17-06-2024 02:00:00,28.4275,77.1465,PM2.5,225,338,288
India,Haryana,Gurugram,"Teri Gram, Gurugram - HSPCB",17-06-2024 02:00:00,28.4275,77.1465,CO,12,56,36
India,Haryana,Gurugram,"Teri Gram, Gurugram - HSPCB",17-06-2024 02:00:00,28.4275,77.1465,OZONE,60,148,73
India,Haryana,Gurugram,"Vikas Sadan, Gurugram - HSPCB",17-06-2024 02:00:00,28.4501238,77.0263051,CO,50,131,82
India,Haryana,Gurugram,"Vikas Sadan, Gurugram - HSPCB",17-06-2024 02:00:00,28.4501238,77.0263051,OZONE,8,68,19
India,Haryana,Hisar,"Urban Estate-II, Hisar - HSPCB",17-06-2024 02:00:00,29.140560,75.744941,PM10,100,120,109
India,Haryana,Hisar,"Urban Estate-II, Hisar - HSPCB",17-06-2024 02:00:00,29.140560,75.744941,CO,25,42,32
India,Haryana,Jind,"Police Lines, Jind - HSPCB",17-06-2024 02:00:00,29.307814,76.337619,NH3,NA,NA,NA
India,Haryana,Karnal,"Sector-12, Karnal - HSPCB",17-06-2024 02:00:00,29.695300,77.002700,PM10,95,133,117
India,Haryana,Karnal,"Sector-12, Karnal - HSPCB",17-06-2024 02:00:00,29.695300,77.002700,NO2,7,12,10
India,Haryana,Karnal,"Sector-12, Karnal - HSPCB",17-06-2024 02:00:00,29.695300,77.002700,NH3,10,13,11
India,Haryana,Kurukshetra,"Sector-7, Kurukshetra - HSPCB",17-06-2024 02:00:00,29.966942,76.875879,PM2.5,84,158,109
India,Haryana,Manesar,"Sector-2 IMT, Manesar - HSPCB",17-06-2024 02:00:00,28.360699,76.936090,NO2,20,30,25
India,Haryana,Narnaul,"Shastri Nagar, Narnaul - HSPCB",17-06-2024 02:00:00,28.060249,76.113115,PM10,23,50,37
India,Haryana,Palwal,"Shyam Nagar, Palwal - HSPCB",17-06-2024 02:00:00,28.1485564,77.3320667,NO2,23,24,24
India,Haryana,Panipat,"Sector-18, Panipat - HSPCB",17-06-2024 02:00:00,29.432304,76.972765,PM10,103,105,104
India,Haryana,Panipat,"Sector-18, Panipat - HSPCB",17-06-2024 02:00:00,29.432304,76.972765,SO2,18,20,19
India,Haryana,Sirsa,"F-Block, Sirsa - HSPCB",17-06-2024 02:00:00,29.536400,75.015800,PM10,62,93,74
India,Haryana,Sirsa,"F-Block, Sirsa - HSPCB",17-06-2024 02:00:00,29.536400,75.015800,SO2,20,25,23
India,Haryana,Sonipat,"Murthal, Sonipat - HSPCB",17-06-2024 02:00:00,29.027200,77.062100,NO2,37,44,40
India,Haryana,Sonipat,"Murthal, Sonipat - HSPCB",17-06-2024 02:00:00,29.027200,77.062100,SO2,12,29,20
India,Haryana,Sonipat,"Murthal, Sonipat - HSPCB",17-06-2024 02:00:00,29.027200,77.062100,CO,24,26,25
India,Haryana,Yamuna Nagar,"Gobind Pura, Yamuna Nagar - HSPCB",17-06-2024 02:00:00,30.1480566,77.2893471,PM10,127,148,137
India,Haryana,Yamuna Nagar,"Gobind Pura, Yamuna Nagar - HSPCB",17-06-2024 02:00:00,30.1480566,77.2893471,NH3,1,6,4
India,Jharkhand,Dhanbad,"Kalakusuma, Dhanbad - DMC",17-06-2024 02:00:00,23.811548,86.481238,PM10,103,151,147
India,Jharkhand,Dhanbad,"Kalakusuma, Dhanbad - DMC",17-06-2024 02:00:00,23.811548,86.481238,CO,130,135,131
India,Karnataka,Belgaum,"Ramteerth Nagar, Belgaum - KSPCB",17-06-2024 02:00:00,15.888653,74.541751,NO2,10,30,20
India,Karnataka,Bengaluru,"Bapuji Nagar, Bengaluru - KSPCB",17-06-2024 02:00:00,12.951913,77.539784,PM2.5,12,72,30
India,Karnataka,Bengaluru,"Bapuji Nagar, Bengaluru - KSPCB",17-06-2024 02:00:00,12.951913,77.539784,PM10,17,105,44
India,Karnataka,Bengaluru,"Bapuji Nagar, Bengaluru - KSPCB",17-06-2024 02:00:00,12.951913,77.539784,SO2,4,7,6
India,Karnataka,Bengaluru,"City Railway Station, Bengaluru - KSPCB",17-06-2024 02:00:00,12.9756843,77.5660749,NO2,37,47,42
India,Karnataka,Bengaluru,"City Railway Station, Bengaluru - KSPCB",17-06-2024 02:00:00,12.9756843,77.5660749,CO,52,78,66
India,Karnataka,Bengaluru,"Hebbal, Bengaluru - KSPCB",17-06-2024 02:00:00,13.029152,77.585901,NH3,1,1,1
India,Karnataka,Bengaluru,"Hebbal, Bengaluru - KSPCB",17-06-2024 02:00:00,13.029152,77.585901,CO,14,27,20
India,Karnataka,Bengaluru,"Hombegowda Nagar, Bengaluru - KSPCB",17-06-2024 02:00:00,12.938539,77.590100,PM2.5,8,25,16
India,Karnataka,Bengaluru,"Hombegowda Nagar, Bengaluru - KSPCB",17-06-2024 02:00:00,12.938539,77.590100,NO2,9,18,13
India,Karnataka,Bengaluru,"Jayanagar 5th Block, Bengaluru - KSPCB",17-06-2024 02:00:00,12.920984,77.584908,NO2,8,10,9
India,Karnataka,Bengaluru,"Jigani, Bengaluru - KSPCB",17-06-2024 02:00:00,12.7816279,77.6299145,PM2.5,37,38,37
India,Karnataka,Bengaluru,"Jigani, Bengaluru - KSPCB",17-06-2024 02:00:00,12.7816279,77.6299145,NO2,41,43,42
India,Karnataka,Bengaluru,"Jigani, Bengaluru - KSPCB",17-06-2024 02:00:00,12.7816279,77.6299145,NH3,4,4,4
India,Karnataka,Bengaluru,"Kasturi Nagar, Bengaluru - KSPCB",17-06-2024 02:00:00,13.003872,77.664217,PM2.5,30,38,34
India,Karnataka,Bengaluru,"Kasturi Nagar, Bengaluru - KSPCB",17-06-2024 02:00:00,13.003872,77.664217,SO2,10,10,10
India,Karnataka,Bengaluru,"Peenya, Bengaluru - CPCB",17-06-2024 02:00:00,13.0270199,77.494094,CO,77,88,82
India,Karnataka,Bengaluru,"Sanegurava Halli, Bengaluru - KSPCB",17-06-2024 02:00:00,12.990328,77.5431385,CO,12,26,17
India,Karnataka,Bengaluru,"Shivapura_Peenya, Bengaluru - KSPCB",17-06-2024 02:00:00,13.0246342,77.5080115,NO2,15,16,15
India,Karnataka,Bengaluru,"Shivapura_Peenya, Bengaluru - KSPCB",17-06-2024 02:00:00,13.0246342,77.5080115,OZONE,53,56,55
India,Karnataka,Bengaluru,"Silk Board, Bengaluru - KSPCB",17-06-2024 02:00:00,12.917348,77.622813,CO,11,37,25
India,Karnataka,Chamarajanagar,"Urban, Chamarajanagar - KSPCB",17-06-2024 02:00:00,11.55358,76.55521,PM2.5,20,42,30
India,Karnataka,Chamarajanagar,"Urban, Chamarajanagar - KSPCB",17-06-2024 02:00:00,11.55358,76.55521,PM10,34,52,44
India,Karnataka,Chamarajanagar,"Urban, Chamarajanagar - KSPCB",17-06-2024 02:00:00,11.55358,76.55521,NH3,1,3,3
India,Karnataka,Chikkaballapur,"Chikkaballapur Rural, Chikkaballapur - KSPCB",17-06-2024 02:00:00,13.428828,77.731418,NH3,1,1,1
India,Karnataka,Chikkaballapur,"Chikkaballapur Rural, Chikkaballapur - KSPCB",17-06-2024 02:00:00,13.428828,77.731418,OZONE,24,33,32
India,Karnataka,Chikkamagaluru,"Kalyana Nagara, Chikkamagaluru - KSPCB",17-06-2024 02:00:00,13.328028,75.797056,NH3,2,4,3
India,Karnataka,Davanagere,"Devaraj Urs Badavane, Davanagere - KSPCB",17-06-2024 02:00:00,14.475800,75.905200,PM10,10,70,33
India,Karnataka,Gadag,"Panchal Nagar, Gadag - KSPCB",17-06-2024 02:00:00,15.411456,75.638133,PM10,25,154,32
India,Karnataka,Gadag,"Panchal Nagar, Gadag - KSPCB",17-06-2024 02:00:00,15.411456,75.638133,NO2,1,20,12
India,Karnataka,Hassan,"B.Katihalli, Hassan - KSPCB",17-06-2024 02:00:00,13.008556,76.125258,SO2,NA,NA,NA
India,Karnataka,Haveri,"Ashwini Nagar, Haveri - KSPCB",17-06-2024 02:00:00,14.791800,75.389600,SO2,NA,NA,NA
India,Karnataka,Hubballi,"Lingaraj Nagar, Hubballi - KSPCB",17-06-2024 02:00:00,15.3714823,75.1160168,NO2,11,20,16
India,Karnataka,Hubballi,"Lingaraj Nagar, Hubballi - KSPCB",17-06-2024 02:00:00,15.3714823,75.1160168,OZONE,13,19,16
India,Karnataka,Kalaburagi,"Lal Bahadur Shastri Nagar, Kalaburagi - KSPCB",17-06-2024 02:00:00,17.321993,76.822628,CO,33,35,34
India,Karnataka,Kolar,"Tamaka Ind. Area, Kolar - KSPCB",17-06-2024 02:00:00,13.1276288,78.1570122,NH3,NA,NA,NA
India,Karnataka,Madikeri,"Stuart Hill, Madikeri - KSPCB",17-06-2024 02:00:00,12.415911,75.735050,SO2,4,4,4
India,Karnataka,Madikeri,"Stuart Hill, Madikeri - KSPCB",17-06-2024 02:00:00,12.415911,75.735050,OZONE,9,18,15
India,Karnataka,Mangalore,"Kadri, Mangalore - KSPCB",17-06-2024 02:00:00,12.889250,74.853000,PM2.5,18,60,33
India,Karnataka,Mysuru,"Hebbal 1st Stage, Mysuru - KSPCB",17-06-2024 02:00:00,12.21041,76.37376,CO,2,24,14
India,Karnataka,Mysuru,"Hebbal 1st Stage, Mysuru - KSPCB",17-06-2024 02:00:00,12.21041,76.37376,OZONE,10,53,25
India,Karnataka,Raichur,"Haji Colony, Raichur - KSPCB",17-06-2024 02:00:00,16.208139,77.348417,PM10,18,72,43
India,Kerala,Eloor,"Udyogamandal, Eloor - Kerala PCB",17-06-2024 02:00:00,10.073232,76.302765,OZONE,10,11,10
India,Kerala,Thiruvananthapuram,"Kariavattom, Thiruvananthapuram - Kerala PCB",17-06-2024 02:00:00,8.563700,76.886500,PM2.5,37,41,39
India,Kerala,Thiruvananthapuram,"Plammoodu, Thiruvananthapuram - Kerala PCB",17-06-2024 02:00:00,8.5149093,76.9435879,CO,2,36,27
India,Kerala,Thiruvananthapuram,"Plammoodu, Thiruvananthapuram - Kerala PCB",17-06-2024 02:00:00,8.5149093,76.9435879,OZONE,5,60,14
India,Kerala,Thrissur,"Corporation Ground, Thrissur - Kerala PCB",17-06-2024 02:00:00,10.532400,76.215900,SO2,NA,NA,NA
India,Madhya Pradesh,Bhopal,"Idgah Hills, Bhopal - MPPCB",17-06-2024 02:00:00,23.264759,77.381568,PM2.5,35,68,45
India,Madhya Pradesh,Bhopal,"Idgah Hills, Bhopal - MPPCB",17-06-2024 02:00:00,23.264759,77.381568,PM10,35,98,65
India,Madhya Pradesh,Bhopal,"Idgah Hills, Bhopal - MPPCB",17-06-2024 02:00:00,23.264759,77.381568,OZONE,24,86,78
India,Madhya Pradesh,Bhopal,"Paryavaran Parisar, Bhopal - MPPCB",17-06-2024 02:00:00,23.210494,77.425409,PM2.5,15,42,28
India,Madhya Pradesh,Bhopal,"Paryavaran Parisar, Bhopal - MPPCB",17-06-2024 02:00:00,23.210494,77.425409,NH3,3,4,4
India,Madhya Pradesh,Bhopal,"T T Nagar, Bhopal - MPPCB",17-06-2024 02:00:00,23.233584,77.400574,PM10,28,120,73
India,Madhya Pradesh,Bhopal,"T T Nagar, Bhopal - MPPCB",17-06-2024 02:00:00,23.233584,77.400574,NO2,20,45,27
India,Madhya Pradesh,Gwalior,"City Center, Gwalior - MPPCB",17-06-2024 02:00:00,26.203442,78.193251,OZONE,47,91,79
India,Madhya Pradesh,Gwalior,"Maharaj Bada, Gwalior - MPPCB",17-06-2024 02:00:00,26.200388,78.147714,PM10,24,113,63
India,Madhya Pradesh,Gwalior,"Maharaj Bada, Gwalior - MPPCB",17-06-2024 02:00:00,26.200388,78.147714,SO2,14,34,25
India,Madhya Pradesh,Gwalior,"Phool Bagh, Gwalior - Mondelez Ind. Food",17-06-2024 02:00:00,26.210536,78.171,PM10,49,133,96
India,Madhya Pradesh,Indore,"Residency Area, Indore - IMC",17-06-2024 02:00:00,22.7084,75.8815,PM10,32,80,49
India,Madhya Pradesh,Jabalpur,"Gupteshwar, Jabalpur - JMC",17-06-2024 02:00:00,23.142888,79.916147,NO2,10,28,16
India,Madhya Pradesh,Jabalpur,"Gupteshwar, Jabalpur - JMC",17-06-2024 02:00:00,23.142888,79.916147,CO,12,33,24
India,Madhya Pradesh,Jabalpur,"Marhatal, Jabalpur - MPPCB",17-06-2024 02:00:00,23.168606,79.932247,CO,28,96,74
India,Madhya Pradesh,Maihar,"Sahilara, Maihar - KJS Cements",17-06-2024 02:00:00,24.2613009,80.7231783,PM2.5,3,56,25
India,Madhya Pradesh,Mandideep,"Sector-D Industrial Area, Mandideep - MPPCB",17-06-2024 02:00:00,23.108440,77.511428,OZONE,5,25,14
India,Madhya Pradesh,Sagar,"Civil Lines, Sagar - MPPCB",17-06-2024 02:00:00,23.838586,78.759431,NO2,6,14,10
India,Madhya Pradesh,Sagar,"Deen Dayal Nagar, Sagar - MPPCB",17-06-2024 02:00:00,23.8640158,78.80289321,PM2.5,6,49,19
India,Madhya Pradesh,Satna,"Bandhavgar Colony, Satna - Birla Cement",17-06-2024 02:00:00,24.58434363,80.8549414,PM2.5,42,42,42
India,Madhya Pradesh,Satna,"Bandhavgar Colony, Satna - Birla Cement",17-06-2024 02:00:00,24.58434363,80.8549414,CO,34,88,46
India,Madhya Pradesh,Satna,"Bandhavgar Colony, Satna - Birla Cement",17-06-2024 02:00:00,24.58434363,80.8549414,OZONE,21,53,41
India,Madhya Pradesh,Singrauli,"Suryakiran Bhawan NCL, Singrauli - MPPCB",17-06-2024 02:00:00,24.108970,82.645580,PM10,NA,NA,NA
India,Madhya Pradesh,Singrauli,"Suryakiran Bhawan NCL, Singrauli - MPPCB",17-06-2024 02:00:00,24.108970,82.645580,NO2,NA,NA,NA
India,Madhya Pradesh,Ujjain,"Mahakaleshwar Temple, Ujjain - MPPCB",17-06-2024 02:00:00,23.182719 ,75.768218 ,PM2.5,40,90,60
India,Madhya Pradesh,Ujjain,"Mahakaleshwar Temple, Ujjain - MPPCB",17-06-2024 02:00:00,23.182719 ,75.768218 ,NO2,10,23,16
India,Madhya Pradesh,Ujjain,"Mahakaleshwar Temple, Ujjain - MPPCB",17-06-2024 02:00:00,23.182719 ,75.768218 ,SO2,4,10,7
India,Maharashtra,Ahmednagar,"Tarakpur, Ahmednagar - MPCB",17-06-2024 02:00:00,19.10122,74.73339,PM10,29,92,54
India,Maharashtra,Ahmednagar,"Tarakpur, Ahmednagar - MPCB",17-06-2024 02:00:00,19.10122,74.73339,CO,24,52,36
India,Maharashtra,Ahmednagar,"Tarakpur, Ahmednagar - MPCB",17-06-2024 02:00:00,19.10122,74.73339,OZONE,8,48,35
India,Maharashtra,Akola,"Ramdaspeth, Akola - MPCB",17-06-2024 02:00:00,20.719516,77.000253,NO2,8,42,17
India,Maharashtra,Akola,"Ramdaspeth, Akola - MPCB",17-06-2024 02:00:00,20.719516,77.000253,NH3,3,15,9
India,Maharashtra,Akola,"Ramdaspeth, Akola - MPCB",17-06-2024 02:00:00,20.719516,77.000253,OZONE,13,41,29
India,Maharashtra,Amravati,"Shri Shivaji Science College, Amaravati - MPCB",17-06-2024 02:00:00,20.939198,77.765701,PM10,33,65,46
India,Maharashtra,Amravati,"Shri Shivaji Science College, Amaravati - MPCB",17-06-2024 02:00:00,20.939198,77.765701,NO2,6,54,13
India,Maharashtra,Amravati,"Shri Shivaji Science College, Amaravati - MPCB",17-06-2024 02:00:00,20.939198,77.765701,CO,15,57,26
India,Maharashtra,Aurangabad,"MIDC Chilkalthana, Aurangabad - MPCB",17-06-2024 02:00:00,19.875620,75.387310,PM2.5,7,41,22
India,Maharashtra,Aurangabad,"More Chowk Waluj, Aurangabad - MPCB",17-06-2024 02:00:00,19.8389439,75.244448,NH3,1,1,1
India,Maharashtra,Aurangabad,"More Chowk Waluj, Aurangabad - MPCB",17-06-2024 02:00:00,19.8389439,75.244448,CO,2,110,26
India,Maharashtra,Badlapur,"Katrap, Badlapur - MPCB",17-06-2024 02:00:00,19.16485,73.23409,PM2.5,27,97,58
India,Maharashtra,Badlapur,"Katrap, Badlapur - MPCB",17-06-2024 02:00:00,19.16485,73.23409,SO2,11,33,17
India,Maharashtra,Badlapur,"Katrap, Badlapur - MPCB",17-06-2024 02:00:00,19.16485,73.23409,CO,2,25,13
India,Maharashtra,Bhiwandi,"Gokul Nagar, Bhiwandi - MPCB",17-06-2024 02:00:00,19.309073,73.057223,CO,6,62,33
India,Maharashtra,Boisar,"Khaira, Boisar - MPCB",17-06-2024 02:00:00,19.786089,72.757971,PM2.5,9,125,45
India,Maharashtra,Boisar,"Khaira, Boisar - MPCB",17-06-2024 02:00:00,19.786089,72.757971,OZONE,39,47,42
India,Maharashtra,Chandrapur,"Chauhan Colony, Chandrapur - MPCB",17-06-2024 02:00:00,19.962900,79.298714,SO2,2,5,3
India,Maharashtra,Chandrapur,"Chauhan Colony, Chandrapur - MPCB",17-06-2024 02:00:00,19.962900,79.298714,CO,24,27,26
India,Maharashtra,Chandrapur,"Chauhan Colony, Chandrapur - MPCB",17-06-2024 02:00:00,19.962900,79.298714,OZONE,16,17,17
India,Maharashtra,Jalgaon,"Prabhat Colony, Jalgaon - MPCB",17-06-2024 02:00:00,21.001264,75.565602,CO,9,36,22
India,Maharashtra,Kalyan,"Khadakpada, Kalyan - MPCB",17-06-2024 02:00:00,19.25292,73.142019,PM2.5,7,31,19
India,Maharashtra,Kalyan,"Khadakpada, Kalyan - MPCB",17-06-2024 02:00:00,19.25292,73.142019,OZONE,6,11,8
India,Maharashtra,Kolhapur,"Sinchan Bhavan, Kolhapur - MPCB",17-06-2024 02:00:00,16.7143745,74.2426398,PM2.5,20,38,30
India,Maharashtra,Kolhapur,"Sinchan Bhavan, Kolhapur - MPCB",17-06-2024 02:00:00,16.7143745,74.2426398,CO,12,20,15
India,Maharashtra,Mahad,"Kamble Tarf Birwadi, Mahad - MPCB",17-06-2024 02:00:00,18.1023399,73.4783687,OZONE,8,33,19
India,Maharashtra,Malegaon,"Mahesh Nagar, Malegaon - MPCB",17-06-2024 02:00:00,20.555712,74.529236,PM2.5,24,54,40
India,Maharashtra,Mumbai,"Bandra Kurla Complex, Mumbai - MPCB",17-06-2024 02:00:00,19.065931,72.862131,NO2,7,22,15
India,Maharashtra,Mumbai,"Bandra Kurla Complex, Mumbai - MPCB",17-06-2024 02:00:00,19.065931,72.862131,NH3,9,23,13
India,Maharashtra,Mumbai,"Bandra Kurla Complex, Mumbai - MPCB",17-06-2024 02:00:00,19.065931,72.862131,OZONE,2,40,13
India,Maharashtra,Mumbai,"Borivali East, Mumbai - IITM",17-06-2024 02:00:00,19.23241,72.86895,PM2.5,16,35,24
India,Maharashtra,Mumbai,"Borivali East, Mumbai - MPCB",17-06-2024 02:00:00,19.2243333,72.8658113,NO2,2,6,4
India,Maharashtra,Mumbai,"Byculla, Mumbai - BMC",17-06-2024 02:00:00,18.9767,72.8380,NH3,NA,NA,NA
India,Maharashtra,Mumbai,"Deonar, Mumbai - IITM",17-06-2024 02:00:00,19.04946,72.9230,OZONE,1,34,8
India,Maharashtra,Mumbai,"Ghatkopar, Mumbai - BMC",17-06-2024 02:00:00,19.083694,72.920967,PM2.5,2,13,8
India,Maharashtra,Mumbai,"Ghatkopar, Mumbai - BMC",17-06-2024 02:00:00,19.083694,72.920967,PM10,5,47,21
India,Maharashtra,Mumbai,"Ghatkopar, Mumbai - BMC",17-06-2024 02:00:00,19.083694,72.920967,OZONE,1,10,3
India,Maharashtra,Mumbai,"Kandivali West, Mumbai - BMC",17-06-2024 02:00:00,19.215859,72.831718,PM10,18,38,25
India,Maharashtra,Mumbai,"Kandivali West, Mumbai - BMC",17-06-2024 02:00:00,19.215859,72.831718,SO2,1,2,1
India,Maharashtra,Mumbai,"Kherwadi_Bandra East, Mumbai - MPCB",17-06-2024 02:00:00,19.0632143,72.8456324,PM2.5,27,51,38
India,Maharashtra,Mumbai,"Kherwadi_Bandra East, Mumbai - MPCB",17-06-2024 02:00:00,19.0632143,72.8456324,OZONE,1,49,23
India,Maharashtra,Mumbai,"Khindipada-Bhandup West, Mumbai - IITM",17-06-2024 02:00:00,19.1653323,72.922099,PM2.5,11,35,22
India,Maharashtra,Mumbai,"Khindipada-Bhandup West, Mumbai - IITM",17-06-2024 02:00:00,19.1653323,72.922099,NH3,1,4,2
India,Maharashtra,Mumbai,"Kurla, Mumbai - MPCB",17-06-2024 02:00:00,19.0863,72.8888,SO2,NA,NA,NA
India,Maharashtra,Mumbai,"Kurla, Mumbai - MPCB",17-06-2024 02:00:00,19.0863,72.8888,OZONE,26,28,28
India,Maharashtra,Mumbai,"Malad West, Mumbai - IITM",17-06-2024 02:00:00,19.19709,72.82204,PM2.5,8,28,15
India,Maharashtra,Mumbai,"Mindspace-Malad West, Mumbai - MPCB",17-06-2024 02:00:00,19.1878657,72.8304069,PM2.5,15,47,30
India,Maharashtra,Mumbai,"Mindspace-Malad West, Mumbai - MPCB",17-06-2024 02:00:00,19.1878657,72.8304069,NH3,6,7,6
India,Maharashtra,Mumbai,"Mulund West, Mumbai - MPCB",17-06-2024 02:00:00,19.1750,72.9419,PM10,NA,NA,NA
India,Maharashtra,Mumbai,"Mulund West, Mumbai - MPCB",17-06-2024 02:00:00,19.1750,72.9419,NO2,NA,NA,NA
India,Maharashtra,Mumbai,"Mulund West, Mumbai - MPCB",17-06-2024 02:00:00,19.1750,72.9419,NH3,NA,NA,NA
India,Maharashtra,Mumbai,"Mulund West, Mumbai - MPCB",17-06-2024 02:00:00,19.1750,72.9419,SO2,NA,NA,NA
India,Maharashtra,Mumbai,"Navy Nagar-Colaba, Mumbai - IITM",17-06-2024 02:00:00,18.897756,72.813320,PM10,13,62,37
India,Maharashtra,Mumbai,"Navy Nagar-Colaba, Mumbai - IITM",17-06-2024 02:00:00,18.897756,72.813320,NO2,41,71,49
India,Maharashtra,Mumbai,"Navy Nagar-Colaba, Mumbai - IITM",17-06-2024 02:00:00,18.897756,72.813320,NH3,9,13,12
India,Maharashtra,Mumbai,"Navy Nagar-Colaba, Mumbai - IITM",17-06-2024 02:00:00,18.897756,72.813320,SO2,7,15,10
India,Maharashtra,Mumbai,"Powai, Mumbai - MPCB",17-06-2024 02:00:00,19.137500,72.915056,SO2,14,15,14
India,Maharashtra,Mumbai,"Powai, Mumbai - MPCB",17-06-2024 02:00:00,19.137500,72.915056,OZONE,1,6,1
India,Maharashtra,Mumbai,"Sewri, Mumbai - BMC",17-06-2024 02:00:00,19.000084,72.856730,PM2.5,7,29,18
India,Maharashtra,Mumbai,"Sewri, Mumbai - BMC",17-06-2024 02:00:00,19.000084,72.856730,NH3,2,4,3
India,Maharashtra,Mumbai,"Sewri, Mumbai - BMC",17-06-2024 02:00:00,19.000084,72.856730,OZONE,8,45,22
India,Maharashtra,Mumbai,"Vile Parle West, Mumbai - MPCB",17-06-2024 02:00:00,19.10861,72.83622,PM10,22,106,57
India,Maharashtra,Mumbai,"Vile Parle West, Mumbai - MPCB",17-06-2024 02:00:00,19.10861,72.83622,SO2,14,15,15
India,Maharashtra,Nagpur,"Mahal, Nagpur - MPCB",17-06-2024 02:00:00,21.14472,79.107595,NO2,6,51,17
India,Maharashtra,Nagpur,"Mahal, Nagpur - MPCB",17-06-2024 02:00:00,21.14472,79.107595,CO,20,118,64
India,Maharashtra,Nagpur,"Opp GPO Civil Lines, Nagpur - MPCB",17-06-2024 02:00:00,21.152875,79.0517531,NO2,8,52,17
India,Maharashtra,Nagpur,"Opp GPO Civil Lines, Nagpur - MPCB",17-06-2024 02:00:00,21.152875,79.0517531,SO2,3,18,6
India,Maharashtra,Nagpur,"Opp GPO Civil Lines, Nagpur - MPCB",17-06-2024 02:00:00,21.152875,79.0517531,CO,2,33,18
India,Maharashtra,Nagpur,"Opp GPO Civil Lines, Nagpur - MPCB",17-06-2024 02:00:00,21.152875,79.0517531,OZONE,12,47,27
India,Maharashtra,Nashik,"Gangapur Road, Nashik - MPCB",17-06-2024 02:00:00,20.0073285,73.7762427,NO2,16,28,20
India,Maharashtra,Nashik,"Hirawadi, Nashik - MPCB",17-06-2024 02:00:00,20.021503,73.813844,SO2,11,23,17
India,Maharashtra,Nashik,"MIDC Ambad, Nashik - MPCB",17-06-2024 02:00:00,19.950220,73.731480,SO2,15,24,20
India,Maharashtra,Nashik,"Pandav Nagari, Nashik - MPCB",17-06-2024 02:00:00,19.9591346,73.7788008,PM10,18,38,29
India,Maharashtra,Nashik,"Pandav Nagari, Nashik - MPCB",17-06-2024 02:00:00,19.9591346,73.7788008,SO2,5,8,6
India,Maharashtra,Nashik,"Pandav Nagari, Nashik - MPCB",17-06-2024 02:00:00,19.9591346,73.7788008,OZONE,18,49,27
India,Maharashtra,Navi Mumbai,"Kopripada-Vashi, Navi Mumbai - MPCB",17-06-2024 02:00:00,19.090337,73.014232,SO2,7,8,8
India,Maharashtra,Navi Mumbai,"Mahape, Navi Mumbai - MPCB",17-06-2024 02:00:00,19.1135051,73.008978,SO2,14,15,15
India,Maharashtra,Navi Mumbai,"Nerul, Navi Mumbai - MPCB",17-06-2024 02:00:00,19.008751,73.016620,NH3,3,5,4
India,Maharashtra,Navi Mumbai,"Sector-19A Nerul, Navi Mumbai - IITM",17-06-2024 02:00:00,19.044,73.0325,NH3,2,3,2
India,Maharashtra,Navi Mumbai,"Sector-19A Nerul, Navi Mumbai - IITM",17-06-2024 02:00:00,19.044,73.0325,SO2,4,9,7
India,Maharashtra,Navi Mumbai,"Sector-19A Nerul, Navi Mumbai - IITM",17-06-2024 02:00:00,19.044,73.0325,CO,11,28,20
India,Maharashtra,Navi Mumbai,"Sector-2E Kalamboli, Navi Mumbai - MPCB",17-06-2024 02:00:00,19.02579,73.10297,OZONE,2,45,11
India,Maharashtra,Navi Mumbai,"Tondare-Taloja, Navi Mumbai - MPCB",17-06-2024 02:00:00,19.0630,73.1209,OZONE,1,43,5
India,Maharashtra,Pimpri-Chinchwad,"Gavalinagar, Pimpri Chinchwad - MPCB",17-06-2024 02:00:00,18.63673,73.82487,PM2.5,12,34,23
India,Maharashtra,Pimpri-Chinchwad,"Gavalinagar, Pimpri Chinchwad - MPCB",17-06-2024 02:00:00,18.63673,73.82487,SO2,2,4,3
India,Maharashtra,Pune,"Bhosari, Pune - IITM",17-06-2024 02:00:00,18.640051,73.848956,PM10,15,39,29
India,Maharashtra,Pune,"Bhumkar Nagar, Pune - IITM",17-06-2024 02:00:00,18.605770,73.749976,PM10,13,49,34
India,Maharashtra,Pune,"Hadapsar, Pune - IITM",17-06-2024 02:00:00,18.501793,73.927532,OZONE,12,40,16
India,Maharashtra,Pune,"Karve Road, Pune - MPCB",17-06-2024 02:00:00,18.5011743,73.8165527,PM10,3,76,33
India,Maharashtra,Pune,"Karve Road, Pune - MPCB",17-06-2024 02:00:00,18.5011743,73.8165527,SO2,1,12,5
India,Maharashtra,Pune,"Mhada Colony, Pune - IITM",17-06-2024 02:00:00,18.573040,73.927715,PM2.5,25,48,36
India,Maharashtra,Pune,"Mhada Colony, Pune - IITM",17-06-2024 02:00:00,18.573040,73.927715,NO2,31,66,43
India,Maharashtra,Pune,"Mhada Colony, Pune - IITM",17-06-2024 02:00:00,18.573040,73.927715,OZONE,1,55,10
India,Maharashtra,Pune,"Transport Nagar-Nigdi, Pune - IITM",17-06-2024 02:00:00,18.664282,73.763966,PM2.5,14,45,25
India,Maharashtra,Pune,"Transport Nagar-Nigdi, Pune - IITM",17-06-2024 02:00:00,18.664282,73.763966,NO2,28,35,31
India,Maharashtra,Sangli,"Vijay Nagar, Sangli - MPCB",17-06-2024 02:00:00, 16.5038,74.3623,PM2.5,12,34,21
India,Maharashtra,Sangli,"Vijay Nagar, Sangli - MPCB",17-06-2024 02:00:00, 16.5038,74.3623,NO2,2,25,9
India,Maharashtra,Sangli,"Vijay Nagar, Sangli - MPCB",17-06-2024 02:00:00, 16.5038,74.3623,OZONE,5,49,26
India,Maharashtra,Solapur,"Ratandeep Housing Society, Solapur - MPCB",17-06-2024 02:00:00,17.65439,75.90649,PM2.5,14,55,27
India,Maharashtra,Solapur,"Ratandeep Housing Society, Solapur - MPCB",17-06-2024 02:00:00,17.65439,75.90649,OZONE,9,43,27
India,Maharashtra,Solapur,"Solapur, Solapur - MPCB",17-06-2024 02:00:00,17.6599188,75.9063906,PM2.5,50,71,60
India,Maharashtra,Thane,"Kasarvadavali, Thane - MPCB",17-06-2024 02:00:00,19.26777,72.97182,OZONE,1,12,5
India,Maharashtra,Thane,"Pimpleshwar Mandir, Thane - MPCB",17-06-2024 02:00:00,19.192056,72.9585188,NH3,4,4,4
India,Maharashtra,Thane,"Upvan Fort, Thane - MPCB",17-06-2024 02:00:00,19.222279,72.957979,NO2,9,38,24
India,Maharashtra,Thane,"Upvan Fort, Thane - MPCB",17-06-2024 02:00:00,19.222279,72.957979,SO2,3,7,5
India,Maharashtra,Ulhasnagar,"Sidhi Vinayak Nagar, Ulhasnagar - MPCB",17-06-2024 02:00:00,19.235581,73.159121,NO2,13,42,19
India,Manipur,Imphal,"DM College of Science, Imphal - Manipur PCB",17-06-2024 02:00:00,24.8207389,93.9423085,PM10,11,37,21
India,Manipur,Imphal,"Manipur University, Imphal - Manipur PCB",17-06-2024 02:00:00,24.7524239,93.9286218,PM2.5,4,52,32
India,Meghalaya,Shillong,"Lumpyngngad, Shillong - Meghalaya PCB",17-06-2024 02:00:00,25.5586,91.8985,PM2.5,NA,NA,NA
India,Meghalaya,Shillong,"Lumpyngngad, Shillong - Meghalaya PCB",17-06-2024 02:00:00,25.5586,91.8985,NO2,1,2,1
India,Odisha,Angul,"Hakimapada, Angul - OSPCB",17-06-2024 02:00:00,20.832874,85.104082,OZONE,36,130,63
India,Odisha,Barbil,"Forest Office, Barbil - OSPCB",17-06-2024 02:00:00,22.1166054,85.3945546,PM10,13,151,62
India,Odisha,Barbil,"Forest Office, Barbil - OSPCB",17-06-2024 02:00:00,22.1166054,85.3945546,CO,21,46,41
India,Odisha,Bhubaneswar,"Lingraj Mandir, Bhubaneswar - OSPCB",17-06-2024 02:00:00,20.240790,85.836784,NO2,7,30,17
India,Odisha,Bhubaneswar,"Lingraj Mandir, Bhubaneswar - OSPCB",17-06-2024 02:00:00,20.240790,85.836784,NH3,1,2,1
India,Odisha,Bhubaneswar,"Lingraj Mandir, Bhubaneswar - OSPCB",17-06-2024 02:00:00,20.240790,85.836784,OZONE,34,88,58
India,Odisha,Bhubaneswar,"Patia, Bhubaneswar - OSPCB",17-06-2024 02:00:00,20.34652,85.81630,SO2,2,42,12
India,Odisha,Bileipada,"Tata Township, Bileipada - OSPCB",17-06-2024 02:00:00,22.06156703,85.47409613,SO2,39,61,45
India,Odisha,Brajrajnagar,"GM Office, Brajrajnagar - OSPCB",17-06-2024 02:00:00,21.8004996,83.8396977,PM10,NA,NA,NA
India,Odisha,Brajrajnagar,"GM Office, Brajrajnagar - OSPCB",17-06-2024 02:00:00,21.8004996,83.8396977,NH3,11,13,11
India,Odisha,Byasanagar,"Ferro Chrome Colony, Byasanagar - OSPCB",17-06-2024 02:00:00,20.94185,86.11510,CO,24,61,32
India,Odisha,Cuttack,"CDA Area, Cuttack - OSPCB",17-06-2024 02:00:00,20.48891     ,85.84768     ,NO2,10,37,17
India,Odisha,Keonjhar,"Jagamohanpur, Keonjhar - OSPCB",17-06-2024 02:00:00,21.643900,85.599355,PM10,25,63,41
India,Odisha,Keonjhar,"Jagamohanpur, Keonjhar - OSPCB",17-06-2024 02:00:00,21.643900,85.599355,SO2,11,13,12
India,Odisha,Keonjhar,"Jagamohanpur, Keonjhar - OSPCB",17-06-2024 02:00:00,21.643900,85.599355,OZONE,6,19,8
India,Odisha,Nayagarh,"Dabuna, Nayagarh - OSPCB",17-06-2024 02:00:00,21.847279,85.416905,PM10,26,70,47
India,Odisha,Nayagarh,"Dabuna, Nayagarh - OSPCB",17-06-2024 02:00:00,21.847279,85.416905,NH3,4,5,5
India,Odisha,Rairangpur,"Divisional Forest Office, Rairangpur - OSPCB",17-06-2024 02:00:00,22.265816,86.174829,PM10,41,89,61
India,Odisha,Rairangpur,"Divisional Forest Office, Rairangpur - OSPCB",17-06-2024 02:00:00,22.265816,86.174829,CO,9,44,33
India,Odisha,Rourkela,"Fertilizer Township, Rourkela - OSPCB",17-06-2024 02:00:00,22.18972222,84.86277778,PM2.5,87,166,111
India,Odisha,Rourkela,"Fertilizer Township, Rourkela - OSPCB",17-06-2024 02:00:00,22.18972222,84.86277778,CO,8,29,20
India,Odisha,Rourkela,"Sector-2, Rourkela - OSPCB",17-06-2024 02:00:00,22.24500000,84.88111111,NO2,31,71,45
India,Odisha,Suakati,"OMC Colony, Suakati - OSPCB",17-06-2024 02:00:00,21.606865,85.510538,NO2,13,15,14
India,Odisha,Suakati,"OMC Colony, Suakati - OSPCB",17-06-2024 02:00:00,21.606865,85.510538,SO2,7,14,9
India,Odisha,Tensa,"Barsua Iron Ore Mines, Tensa - OSPCB",17-06-2024 02:00:00,21.869985,85.167016,PM10,37,468,93
India,Odisha,Tensa,"Barsua Iron Ore Mines, Tensa - OSPCB",17-06-2024 02:00:00,21.869985,85.167016,OZONE,18,49,38
India,Puducherry,Puducherry,"Jawahar Nagar, Puducherry - PPCC",17-06-2024 02:00:00,11.9309,79.8027,PM2.5,8,38,25
India,Puducherry,Puducherry,"Jawahar Nagar, Puducherry - PPCC",17-06-2024 02:00:00,11.9309,79.8027,NO2,3,15,8
India,Puducherry,Puducherry,"Jawahar Nagar, Puducherry - PPCC",17-06-2024 02:00:00,11.9309,79.8027,SO2,7,16,12
India,Punjab,Khanna,"Kalal Majra, Khanna - PPCB",17-06-2024 02:00:00,30.736056 ,76.209694,PM2.5,53,110,87
India,Punjab,Khanna,"Kalal Majra, Khanna - PPCB",17-06-2024 02:00:00,30.736056 ,76.209694,NH3,12,12,12
India,Punjab,Ludhiana,"Punjab Agricultural University, Ludhiana - PPCB",17-06-2024 02:00:00,30.9028,75.8086,PM2.5,75,361,199
India,Punjab,Patiala,"Model Town, Patiala - PPCB",17-06-2024 02:00:00,30.349388,76.366642,OZONE,32,73,53
India,Punjab,Rupnagar,"Ratanpura, Rupnagar - Ambuja Cements",17-06-2024 02:00:00,31.0325454,76.5623046,SO2,7,7,7
India,Rajasthan,Ajmer,"Civil Lines,  Ajmer - RSPCB",17-06-2024 02:00:00,26.470859,74.646594,PM2.5,42,89,66
India,Rajasthan,Alwar,"Moti Doongri, Alwar - RSPCB",17-06-2024 02:00:00,27.554793,76.611536,NH3,2,4,3
India,Rajasthan,Alwar,"Moti Doongri, Alwar - RSPCB",17-06-2024 02:00:00,27.554793,76.611536,SO2,20,48,32
India,Rajasthan,Banswara,"Rati Talai, Banswara - RSPCB",17-06-2024 02:00:00,23.555190,74.440010,PM2.5,38,92,63
India,Rajasthan,Banswara,"Rati Talai, Banswara - RSPCB",17-06-2024 02:00:00,23.555190,74.440010,NH3,2,8,4
India,Rajasthan,Banswara,"Rati Talai, Banswara - RSPCB",17-06-2024 02:00:00,23.555190,74.440010,SO2,4,7,6
India,Rajasthan,Baran,"Bamboliya, Baran - RSPCB",17-06-2024 02:00:00,25.106006,76.469948,PM2.5,9,54,37
India,Rajasthan,Barmer,"Railway Colony, Barmer - RSPCB",17-06-2024 02:00:00,25.747299,71.393989,OZONE,9,69,57
India,Rajasthan,Bharatpur,"Krishna Nagar, Bharatpur - RSPCB",17-06-2024 02:00:00,27.215415,77.50873,OZONE,18,228,81
India,Rajasthan,Bhiwadi,"RIICO Ind. Area III, Bhiwadi - RSPCB",17-06-2024 02:00:00,28.194909,76.862296,PM2.5,67,158,115
India,Rajasthan,Bhiwadi,"RIICO Ind. Area III, Bhiwadi - RSPCB",17-06-2024 02:00:00,28.194909,76.862296,NH3,15,57,30
India,Rajasthan,Bhiwadi,"RIICO Ind. Area III, Bhiwadi - RSPCB",17-06-2024 02:00:00,28.194909,76.862296,SO2,10,17,13
India,Rajasthan,Bhiwadi,"Vasundhara Nagar_UIT, Bhiwadi - RSPCB",17-06-2024 02:00:00,28.207266,76.829265,NO2,NA,NA,NA
India,Rajasthan,Bhiwadi,"Vasundhara Nagar_UIT, Bhiwadi - RSPCB",17-06-2024 02:00:00,28.207266,76.829265,OZONE,19,70,45
India,Rajasthan,Bikaner,"MM Ground, Bikaner - RSPCB",17-06-2024 02:00:00,28.018792,73.292658,NH3,7,8,7
India,Rajasthan,Bikaner,"MM Ground, Bikaner - RSPCB",17-06-2024 02:00:00,28.018792,73.292658,CO,12,60,33
India,Rajasthan,Bundi,"New Colony, Bundi - RSPCB",17-06-2024 02:00:00,25.435774,75.644272,PM2.5,40,59,44
India,Rajasthan,Bundi,"New Colony, Bundi - RSPCB",17-06-2024 02:00:00,25.435774,75.644272,CO,12,28,21
India,Rajasthan,Churu,"Subash Chowk, Churu - RSPCB",17-06-2024 02:00:00,28.296139,74.961696,CO,17,22,20
India,Rajasthan,Dausa,"Khatikan Mohalla, Dausa - RSPCB",17-06-2024 02:00:00,26.895552,76.334753,NO2,9,50,21
India,Rajasthan,Dausa,"Khatikan Mohalla, Dausa - RSPCB",17-06-2024 02:00:00,26.895552,76.334753,CO,2,47,26
India,Rajasthan,Dholpur,"Raja Ganj, Dholpur - RSPCB",17-06-2024 02:00:00,26.699557,77.898881,SO2,2,6,4
India,Rajasthan,Hanumangarh,"Housing Board, Hanumangarh - RSPCB",17-06-2024 02:00:00,29.610750,74.283608,PM10,NA,NA,NA
India,Rajasthan,Hanumangarh,"Housing Board, Hanumangarh - RSPCB",17-06-2024 02:00:00,29.610750,74.283608,NH3,NA,NA,NA
India,Rajasthan,Hanumangarh,"Housing Board, Hanumangarh - RSPCB",17-06-2024 02:00:00,29.610750,74.283608,OZONE,2,19,14
India,Rajasthan,Jaipur,"Adarsh Nagar, Jaipur - RSPCB",17-06-2024 02:00:00,26.902909,75.836858,PM2.5,50,111,74
India,Rajasthan,Jaipur,"Adarsh Nagar, Jaipur - RSPCB",17-06-2024 02:00:00,26.902909,75.836858,SO2,8,30,18
India,Rajasthan,Jaipur,"Adarsh Nagar, Jaipur - RSPCB",17-06-2024 02:00:00,26.902909,75.836858,OZONE,15,43,25
India,Rajasthan,Jaipur,"RIICO Sitapura, Jaipur - RSPCB",17-06-2024 02:00:00,26.786682,75.827928,NO2,14,46,24
India,Rajasthan,Jaipur,"Sector-2 Murlipura, Jaipur - RSPCB",17-06-2024 02:00:00,26.960669,75.771817,SO2,NA,NA,NA
India,Rajasthan,Jaipur,"Shastri Nagar, Jaipur - RSPCB",17-06-2024 02:00:00,26.9502929,75.730943,CO,10,48,28
India,Rajasthan,Jaisalmer,"Sadar Bazar, Jaisalmer - RSPCB",17-06-2024 02:00:00,26.912329,70.909168,SO2,3,7,6
India,Rajasthan,Jalore,"Mudtra Sili, Jalore - RSPCB",17-06-2024 02:00:00,25.344694,72.626208,OZONE,29,87,79
India,Rajasthan,Jhalawar,"Rajlaxmi Nagar, Jhalawar - RSPCB",17-06-2024 02:00:00,24.588397,76.172782,PM2.5,21,56,37
India,Rajasthan,Jhunjhunu,"Indra Nagar, Jhunjhunu - RSPCB",17-06-2024 02:00:00,28.108988,75.386577,PM2.5,20,70,39
India,Rajasthan,Jhunjhunu,"Indra Nagar, Jhunjhunu - RSPCB",17-06-2024 02:00:00,28.108988,75.386577,PM10,71,138,103
India,Rajasthan,Jhunjhunu,"Indra Nagar, Jhunjhunu - RSPCB",17-06-2024 02:00:00,28.108988,75.386577,NO2,9,28,14
India,Rajasthan,Jhunjhunu,"Indra Nagar, Jhunjhunu - RSPCB",17-06-2024 02:00:00,28.108988,75.386577,OZONE,8,76,58
India,Rajasthan,Jodhpur,"Digari Kalan, Jodhpur - RSPCB",17-06-2024 02:00:00,26.295810,73.082283,NH3,2,4,2
India,Rajasthan,Jodhpur,"Digari Kalan, Jodhpur - RSPCB",17-06-2024 02:00:00,26.295810,73.082283,CO,10,23,17
India,Rajasthan,Jodhpur,"Jhalamand, Jodhpur - RSPCB",17-06-2024 02:00:00,26.215415,73.070156,PM10,42,83,66
India,Rajasthan,Jodhpur,"Jhalamand, Jodhpur - RSPCB",17-06-2024 02:00:00,26.215415,73.070156,NO2,1,10,5
India,Rajasthan,Jodhpur,"Mandor, Jodhpur - RSPCB",17-06-2024 02:00:00,26.358805,73.047444,CO,17,22,19
India,Rajasthan,Jodhpur,"Samrat Ashok Udhyan, Jodhpur - RSPCB",17-06-2024 02:00:00,26.253384,72.976571,NO2,1,10,4
India,Rajasthan,Jodhpur,"Samrat Ashok Udhyan, Jodhpur - RSPCB",17-06-2024 02:00:00,26.253384,72.976571,CO,11,18,15
India,Rajasthan,Karauli,"Satyawati Vihar, Karauli - RSPCB",17-06-2024 02:00:00,26.506177,77.025989,PM2.5,NA,NA,NA
India,Rajasthan,Kota,"Dhanmandi, Kota - RSPCB",17-06-2024 02:00:00,25.164090,75.858137,PM10,44,118,79
India,Rajasthan,Kota,"Dhanmandi, Kota - RSPCB",17-06-2024 02:00:00,25.164090,75.858137,SO2,3,33,12
India,Rajasthan,Kota,"Dhanmandi, Kota - RSPCB",17-06-2024 02:00:00,25.164090,75.858137,OZONE,20,127,60
India,Rajasthan,Kota,"Nayapura, Kota - RSPCB",17-06-2024 02:00:00,25.196024,75.855668,CO,14,32,22
India,Rajasthan,Kota,"Shrinath Puram, Kota - RSPCB",17-06-2024 02:00:00,25.14389,75.821256,NH3,3,6,4
India,Rajasthan,Kota,"Shrinath Puram, Kota - RSPCB",17-06-2024 02:00:00,25.14389,75.821256,OZONE,23,40,32
India,Rajasthan,Nagaur,"Karni Colony, Nagaur - RSPCB",17-06-2024 02:00:00,27.213494,73.734444,PM2.5,16,48,32
India,Rajasthan,Nagaur,"Karni Colony, Nagaur - RSPCB",17-06-2024 02:00:00,27.213494,73.734444,SO2,3,7,5
India,Rajasthan,Pali,"Indira Colony Vistar, Pali - RSPCB",17-06-2024 02:00:00,25.771061, 73.340227,CO,6,100,60
India,Rajasthan,Pali,"Indira Colony Vistar, Pali - RSPCB",17-06-2024 02:00:00,25.771061, 73.340227,OZONE,11,45,32
India,Rajasthan,Pratapgarh,"Pragati Nagar, Pratapgarh - RSPCB",17-06-2024 02:00:00,24.041198,74.780702,PM10,28,176,64
India,Rajasthan,Pratapgarh,"Pragati Nagar, Pratapgarh - RSPCB",17-06-2024 02:00:00,24.041198,74.780702,NO2,6,17,11
India,Rajasthan,Rajsamand,"Dhoinda, Rajsamand - RSPCB",17-06-2024 02:00:00,25.036360,73.883502,OZONE,12,91,40
India,Rajasthan,Sawai Madhopur,"Sahu Nagar, Sawai Madhopur - RSPCB",17-06-2024 02:00:00,26.031443,76.359327,SO2,4,9,6
India,Rajasthan,Sawai Madhopur,"Sahu Nagar, Sawai Madhopur - RSPCB",17-06-2024 02:00:00,26.031443,76.359327,CO,38,56,48
India,Rajasthan,Sikar,"Radhakishan Pura, Sikar - RSPCB",17-06-2024 02:00:00,27.608912,75.153302,PM10,74,164,108
India,Rajasthan,Sikar,"Radhakishan Pura, Sikar - RSPCB",17-06-2024 02:00:00,27.608912,75.153302,SO2,NA,NA,NA
India,Rajasthan,Sirohi,"Vedhaynath Colony, Sirohi - RSPCB",17-06-2024 02:00:00,24.885261,72.857549,PM2.5,17,50,28
India,Rajasthan,Tonk,"Shastri Nagar, Tonk - RSPCB",17-06-2024 02:00:00,26.159933,75.780517,PM2.5,NA,NA,NA
India,Rajasthan,Tonk,"Shastri Nagar, Tonk - RSPCB",17-06-2024 02:00:00,26.159933,75.780517,OZONE,NA,NA,NA
India,Sikkim,Gangtok,"Zero Point GICI, Gangtok - SSPCB",17-06-2024 02:00:00,27.338530,88.614099,NO2,NA,NA,NA
India,Sikkim,Gangtok,"Zero Point GICI, Gangtok - SSPCB",17-06-2024 02:00:00,27.338530,88.614099,CO,11,18,14
India,TamilNadu,Chennai,"Alandur Bus Depot, Chennai - CPCB",17-06-2024 02:00:00,12.9099161,80.1076538,NH3,4,11,5
India,TamilNadu,Chennai,"Alandur Bus Depot, Chennai - CPCB",17-06-2024 02:00:00,12.9099161,80.1076538,CO,60,64,62
India,TamilNadu,Chennai,"Kodungaiyur, Chennai - TNPCB",17-06-2024 02:00:00,13.1278,80.2642,NH3,3,5,4
India,TamilNadu,Chennai,"Royapuram, Chennai - TNPCB",17-06-2024 02:00:00,13.1036,80.2909,NH3,1,7,3
India,TamilNadu,Chennai,"Velachery Res. Area, Chennai - CPCB",17-06-2024 02:00:00,13.0052189,80.2398125,NO2,15,23,19
India,TamilNadu,Cuddalore,"Kudikadu, Cuddalore - TNPCB",17-06-2024 02:00:00,11.6829898,79.7532099,PM10,12,122,49
India,TamilNadu,Gummidipoondi,"Anthoni Pillai Nagar, Gummidipoondi - TNPCB",17-06-2024 02:00:00,13.4127,80.1081,PM2.5,10,187,59
India,TamilNadu,Gummidipoondi,"Anthoni Pillai Nagar, Gummidipoondi - TNPCB",17-06-2024 02:00:00,13.4127,80.1081,NO2,10,28,18
India,TamilNadu,Gummidipoondi,"Anthoni Pillai Nagar, Gummidipoondi - TNPCB",17-06-2024 02:00:00,13.4127,80.1081,SO2,1,31,9
India,TamilNadu,Ooty,"Bombay Castel, Ooty - TNPCB",17-06-2024 02:00:00,11.4068288,76.7138973,PM10,15,84,43
India,TamilNadu,Ooty,"Bombay Castel, Ooty - TNPCB",17-06-2024 02:00:00,11.4068288,76.7138973,SO2,16,17,16
India,TamilNadu,Ooty,"Bombay Castel, Ooty - TNPCB",17-06-2024 02:00:00,11.4068288,76.7138973,CO,24,24,24
India,TamilNadu,Thoothukudi,"Meelavittan, Thoothukudi - TNPCB",17-06-2024 02:00:00,8.816428 ,78.099039,OZONE,1,10,5
India,TamilNadu,Tirupur,"Kumaran College, Tirupur - TNPCB",17-06-2024 02:00:00,11.0973603,77.3228673,PM10,NA,NA,NA
India,Telangana,Hyderabad,"Bollaram Industrial Area, Hyderabad - TSPCB",17-06-2024 02:00:00,17.540891,78.358528,PM10,23,81,48
India,Telangana,Hyderabad,"Bollaram Industrial Area, Hyderabad - TSPCB",17-06-2024 02:00:00,17.540891,78.358528,NO2,24,45,31
India,Telangana,Hyderabad,"Bollaram Industrial Area, Hyderabad - TSPCB",17-06-2024 02:00:00,17.540891,78.358528,OZONE,34,36,35
India,Telangana,Hyderabad,"Central University, Hyderabad - TSPCB",17-06-2024 02:00:00,17.460103,78.334361,PM10,14,50,25
India,Telangana,Hyderabad,"Central University, Hyderabad - TSPCB",17-06-2024 02:00:00,17.460103,78.334361,NO2,8,41,28
India,Telangana,Hyderabad,"ICRISAT Patancheru, Hyderabad - TSPCB",17-06-2024 02:00:00,17.518400,78.278777,NO2,1,11,6
India,Telangana,Hyderabad,"ICRISAT Patancheru, Hyderabad - TSPCB",17-06-2024 02:00:00,17.518400,78.278777,NH3,1,2,1
India,Telangana,Hyderabad,"ICRISAT Patancheru, Hyderabad - TSPCB",17-06-2024 02:00:00,17.518400,78.278777,SO2,4,20,13
India,Telangana,Hyderabad,"Kokapet, Hyderabad - TSPCB",17-06-2024 02:00:00,17.393559,78.339194,CO,22,28,25
India,Telangana,Hyderabad,"Kompally Municipal Office, Hyderabad - TSPCB",17-06-2024 02:00:00,17.544899,78.486949,NH3,NA,NA,NA
India,Telangana,Hyderabad,"New Malakpet, Hyderabad - TSPCB",17-06-2024 02:00:00,17.37206,78.50864,NO2,19,20,19
India,Telangana,Hyderabad,"New Malakpet, Hyderabad - TSPCB",17-06-2024 02:00:00,17.37206,78.50864,CO,8,59,31
India,Telangana,Hyderabad,"Sanathnagar, Hyderabad - TSPCB",17-06-2024 02:00:00,17.4559458,78.4332152,SO2,3,12,6
India,Telangana,Hyderabad,"Zoo Park, Hyderabad - TSPCB",17-06-2024 02:00:00,17.349694,78.451437,NH3,1,1,1
India,Telangana,Hyderabad,"Zoo Park, Hyderabad - TSPCB",17-06-2024 02:00:00,17.349694,78.451437,OZONE,17,23,20
India,Uttar_Pradesh,Agra,"Manoharpur, Agra - UPPCB",17-06-2024 02:00:00,27.23711,78.01936,CO,5,17,11
India,Uttar_Pradesh,Agra,"Rohta, Agra - UPPCB",17-06-2024 02:00:00,27.106972,78.000111,SO2,4,17,6
India,Uttar_Pradesh,Agra,"Rohta, Agra - UPPCB",17-06-2024 02:00:00,27.106972,78.000111,OZONE,20,22,22
India,Uttar_Pradesh,Agra,"Sanjay Palace, Agra - UPPCB",17-06-2024 02:00:00,27.19865833,78.00598056,PM10,10,65,35
India,Uttar_Pradesh,Agra,"Sanjay Palace, Agra - UPPCB",17-06-2024 02:00:00,27.19865833,78.00598056,SO2,2,14,8
India,Uttar_Pradesh,Agra,"Sanjay Palace, Agra - UPPCB",17-06-2024 02:00:00,27.19865833,78.00598056,CO,8,109,48
India,Uttar_Pradesh,Agra,"Sector-3B Avas Vikas Colony, Agra - UPPCB",17-06-2024 02:00:00,27.19412,77.96237,PM2.5,12,46,22
India,Uttar_Pradesh,Agra,"Sector-3B Avas Vikas Colony, Agra - UPPCB",17-06-2024 02:00:00,27.19412,77.96237,PM10,33,110,57
India,Uttar_Pradesh,Agra,"Shahjahan Garden, Agra - UPPCB",17-06-2024 02:00:00,27.169338,78.03582,NO2,18,24,19
India,Uttar_Pradesh,Agra,"Shastripuram, Agra - UPPCB",17-06-2024 02:00:00,27.19862,77.92066,NO2,32,33,33
India,Uttar_Pradesh,Agra,"Shastripuram, Agra - UPPCB",17-06-2024 02:00:00,27.19862,77.92066,SO2,13,30,19
India,Uttar_Pradesh,Baghpat,"Sardar Patel Inter College, Baghpat - UPPCB",17-06-2024 02:00:00,28.964949,77.278761,OZONE,2,100,29
India,Uttar_Pradesh,Bareilly,"Civil Lines, Bareilly - UPPCB",17-06-2024 02:00:00,28.359581,79.414455,PM10,17,34,24
India,Uttar_Pradesh,Bareilly,"Civil Lines, Bareilly - UPPCB",17-06-2024 02:00:00,28.359581,79.414455,NO2,2,3,2
India,Uttar_Pradesh,Bareilly,"Civil Lines, Bareilly - UPPCB",17-06-2024 02:00:00,28.359581,79.414455,SO2,19,22,21
India,Uttar_Pradesh,Bareilly,"Civil Lines, Bareilly - UPPCB",17-06-2024 02:00:00,28.359581,79.414455,OZONE,NA,NA,NA
India,Uttar_Pradesh,Bareilly,"Rajendra Nagar, Bareilly - UPPCB",17-06-2024 02:00:00,28.38910936,79.42963708,NH3,1,6,1
India,Uttar_Pradesh,Bareilly,"Rajendra Nagar, Bareilly - UPPCB",17-06-2024 02:00:00,28.38910936,79.42963708,SO2,19,24,21
India,Uttar_Pradesh,Bulandshahr,"Yamunapuram, Bulandshahr - UPPCB",17-06-2024 02:00:00,28.406963,77.849831,CO,16,58,42
India,Uttar_Pradesh,Firozabad,"Nagla Bhau, Firozabad - UPPCB",17-06-2024 02:00:00,27.168897,78.376960,PM2.5,13,63,38
India,Uttar_Pradesh,Firozabad,"Nagla Bhau, Firozabad - UPPCB",17-06-2024 02:00:00,27.168897,78.376960,NO2,17,17,17
India,Uttar_Pradesh,Firozabad,"Nagla Bhau, Firozabad - UPPCB",17-06-2024 02:00:00,27.168897,78.376960,SO2,18,24,19
India,Uttar_Pradesh,Firozabad,"Nagla Bhau, Firozabad - UPPCB",17-06-2024 02:00:00,27.168897,78.376960,OZONE,15,18,16
India,Uttar_Pradesh,Ghaziabad,"Indirapuram, Ghaziabad - UPPCB",17-06-2024 02:00:00,28.646233,77.358075,OZONE,9,72,38
India,Uttar_Pradesh,Ghaziabad,"Loni, Ghaziabad - UPPCB",17-06-2024 02:00:00,28.757294,77.278792,PM2.5,32,302,154
India,Uttar_Pradesh,Ghaziabad,"Vasundhara, Ghaziabad - UPPCB",17-06-2024 02:00:00,28.6603346,77.3572563,CO,32,90,65
India,Uttar_Pradesh,Gorakhpur,"Madan Mohan Malaviya University of Technology, Gorakhpur - UPPCB",17-06-2024 02:00:00,26.730136,83.433859,CO,7,20,9
India,Uttar_Pradesh,Greater Noida,"Knowledge Park - III, Greater Noida - UPPCB",17-06-2024 02:00:00,28.47272,77.482000,NO2,14,111,51
India,Uttar_Pradesh,Greater Noida,"Knowledge Park - III, Greater Noida - UPPCB",17-06-2024 02:00:00,28.47272,77.482000,NH3,6,14,10
India,Uttar_Pradesh,Greater Noida,"Knowledge Park - III, Greater Noida - UPPCB",17-06-2024 02:00:00,28.47272,77.482000,CO,2,95,48
India,Uttar_Pradesh,Greater Noida,"Knowledge Park - V, Greater Noida - UPPCB",17-06-2024 02:00:00,28.557054,77.453663,PM2.5,52,167,92
India,Uttar_Pradesh,Greater Noida,"Knowledge Park - V, Greater Noida - UPPCB",17-06-2024 02:00:00,28.557054,77.453663,PM10,183,478,268
India,Uttar_Pradesh,Greater Noida,"Knowledge Park - V, Greater Noida - UPPCB",17-06-2024 02:00:00,28.557054,77.453663,NO2,35,68,53
India,Uttar_Pradesh,Kanpur,"FTI Kidwai Nagar, Kanpur - UPPCB",17-06-2024 02:00:00,26.428282,80.327067,SO2,14,15,14
India,Uttar_Pradesh,Kanpur,"FTI Kidwai Nagar, Kanpur - UPPCB",17-06-2024 02:00:00,26.428282,80.327067,CO,26,72,47
India,Uttar_Pradesh,Kanpur,"NSI Kalyanpur, Kanpur - UPPCB",17-06-2024 02:00:00,26.509954,80.249612,SO2,19,25,21
India,Uttar_Pradesh,Kanpur,"Nehru Nagar, Kanpur - UPPCB",17-06-2024 02:00:00,26.4703136,80.3229863,PM2.5,22,127,64
India,Uttar_Pradesh,Kanpur,"Nehru Nagar, Kanpur - UPPCB",17-06-2024 02:00:00,26.4703136,80.3229863,PM10,20,101,57
India,Uttar_Pradesh,Kanpur,"Nehru Nagar, Kanpur - UPPCB",17-06-2024 02:00:00,26.4703136,80.3229863,NO2,12,60,33
India,Uttar_Pradesh,Khurja,"Kalindi Kunj, Khurja - UPPCB",17-06-2024 02:00:00,28.2348927,77.8683002,PM10,NA,NA,NA
India,Uttar_Pradesh,Lucknow,"B R Ambedkar University, Lucknow - UPPCB",17-06-2024 02:00:00,26.766433,80.927299,CO,20,32,26
India,Uttar_Pradesh,Lucknow,"Gomti Nagar, Lucknow - UPPCB",17-06-2024 02:00:00,26.868120,81.005119,PM2.5,15,238,112
India,Uttar_Pradesh,Lucknow,"Gomti Nagar, Lucknow - UPPCB",17-06-2024 02:00:00,26.868120,81.005119,NO2,11,13,12
India,Uttar_Pradesh,Lucknow,"Kendriya Vidyalaya, Lucknow - CPCB",17-06-2024 02:00:00,26.906111,80.948222,OZONE,16,126,50
India,Uttar_Pradesh,Lucknow,"Kukrail Picnic Spot-1, Lucknow - UPPCB",17-06-2024 02:00:00,26.90723,80.98579,NO2,13,13,13
India,Uttar_Pradesh,Lucknow,"Talkatora District Industries Center, Lucknow - CPCB",17-06-2024 02:00:00,26.83399722,80.8917361,NO2,12,14,13
India,Uttar_Pradesh,Meerut,"Ganga Nagar, Meerut - UPPCB",17-06-2024 02:00:00,28.999264,77.7590354,PM2.5,18,48,32
India,Uttar_Pradesh,Meerut,"Ganga Nagar, Meerut - UPPCB",17-06-2024 02:00:00,28.999264,77.7590354,SO2,26,56,37
India,Uttar_Pradesh,Meerut,"Jai Bhim Nagar, Meerut - UPPCB",17-06-2024 02:00:00,28.9535882,77.7622941,PM2.5,26,100,58
India,Uttar_Pradesh,Meerut,"Jai Bhim Nagar, Meerut - UPPCB",17-06-2024 02:00:00,28.9535882,77.7622941,NH3,6,12,8
India,Uttar_Pradesh,Meerut,"Jai Bhim Nagar, Meerut - UPPCB",17-06-2024 02:00:00,28.9535882,77.7622941,SO2,7,27,13
India,Uttar_Pradesh,Meerut,"Pallavpuram Phase 2, Meerut - UPPCB",17-06-2024 02:00:00,29.063510,77.709723,NO2,11,64,29
India,Uttar_Pradesh,Meerut,"Pallavpuram Phase 2, Meerut - UPPCB",17-06-2024 02:00:00,29.063510,77.709723,SO2,2,54,26
India,Uttar_Pradesh,Meerut,"Pallavpuram Phase 2, Meerut - UPPCB",17-06-2024 02:00:00,29.063510,77.709723,CO,21,55,43
India,Uttar_Pradesh,Moradabad,"Buddhi Vihar, Moradabad - UPPCB",17-06-2024 02:00:00,28.83526,78.74460,PM2.5,30,91,48
India,Uttar_Pradesh,Moradabad,"Buddhi Vihar, Moradabad - UPPCB",17-06-2024 02:00:00,28.83526,78.74460,PM10,98,158,125
India,Uttar_Pradesh,Moradabad,"Buddhi Vihar, Moradabad - UPPCB",17-06-2024 02:00:00,28.83526,78.74460,OZONE,20,84,51
India,Uttar_Pradesh,Moradabad,"Eco Herbal Park, Moradabad - UPPCB",17-06-2024 02:00:00,28.840739,78.697531,NH3,6,13,8
India,Uttar_Pradesh,Moradabad,"Eco Herbal Park, Moradabad - UPPCB",17-06-2024 02:00:00,28.840739,78.697531,SO2,6,55,29
India,Uttar_Pradesh,Moradabad,"Employment Office, Moradabad - UPPCB",17-06-2024 02:00:00,28.88528,78.73880,PM10,106,280,127
India,Uttar_Pradesh,Moradabad,"Jigar Colony, Moradabad - UPPCB",17-06-2024 02:00:00,28.856664,78.772638,NH3,6,6,6
India,Uttar_Pradesh,Moradabad,"Jigar Colony, Moradabad - UPPCB",17-06-2024 02:00:00,28.856664,78.772638,SO2,24,28,26
India,Uttar_Pradesh,Moradabad,"Kashiram Nagar, Moradabad - UPPCB",17-06-2024 02:00:00,28.849399,78.742362,PM2.5,NA,NA,NA
India,Uttar_Pradesh,Moradabad,"Kashiram Nagar, Moradabad - UPPCB",17-06-2024 02:00:00,28.849399,78.742362,CO,13,32,27
India,Uttar_Pradesh,Moradabad,"Kashiram Nagar, Moradabad - UPPCB",17-06-2024 02:00:00,28.849399,78.742362,OZONE,7,121,36
India,Uttar_Pradesh,Muzaffarnagar,"New Mandi, Muzaffarnagar - UPPCB",17-06-2024 02:00:00,29.4723508,77.7194031,CO,32,56,42
India,Uttar_Pradesh,Noida,"Sector - 125, Noida - UPPCB",17-06-2024 02:00:00,28.5447608,77.3231257,PM2.5,45,340,111
India,Uttar_Pradesh,Noida,"Sector - 125, Noida - UPPCB",17-06-2024 02:00:00,28.5447608,77.3231257,CO,10,94,53
India,Uttar_Pradesh,Noida,"Sector-1, Noida - UPPCB",17-06-2024 02:00:00,28.5898,77.3101,SO2,9,43,23
India,Uttar_Pradesh,Noida,"Sector-116, Noida - UPPCB",17-06-2024 02:00:00,28.569230,77.393848,NO2,16,142,63
India,Uttar_Pradesh,Noida,"Sector-116, Noida - UPPCB",17-06-2024 02:00:00,28.569230,77.393848,SO2,6,43,20
India,Uttar_Pradesh,Noida,"Sector-116, Noida - UPPCB",17-06-2024 02:00:00,28.569230,77.393848,OZONE,1,83,28
India,Uttar_Pradesh,Prayagraj,"Jhunsi, Prayagraj - UPPCB",17-06-2024 02:00:00,25.425602,81.917152,PM2.5,26,82,45
India,Uttar_Pradesh,Prayagraj,"Motilal Nehru NIT, Prayagraj - UPPCB",17-06-2024 02:00:00,25.494,81.863,CO,18,57,40
India,Uttar_Pradesh,Prayagraj,"Nagar Nigam, Prayagraj - UPPCB",17-06-2024 02:00:00,25.44919916 ,81.82735986 ,CO,13,58,34
India,Uttar_Pradesh,Varanasi,"Bhelupur, Varanasi - UPPCB",17-06-2024 02:00:00,25.301778,82.996789,PM2.5,6,14,9
India,Uttar_Pradesh,Varanasi,"Bhelupur, Varanasi - UPPCB",17-06-2024 02:00:00,25.301778,82.996789,SO2,32,32,32
India,Uttar_Pradesh,Varanasi,"Bhelupur, Varanasi - UPPCB",17-06-2024 02:00:00,25.301778,82.996789,OZONE,5,37,19
India,Uttar_Pradesh,Varanasi,"IESD Banaras Hindu University, Varanasi - UPPCB",17-06-2024 02:00:00,25.262326,82.995408,CO,2,26,15
India,Uttar_Pradesh,Varanasi,"Maldahiya, Varanasi - UPPCB",17-06-2024 02:00:00,25.32393,82.99687,OZONE,2,12,5
India,Uttar_Pradesh,Vrindavan,"Omex Eternity, Vrindavan - UPPCB",17-06-2024 02:00:00,27.5714090,77.6557570,PM2.5,17,48,28
India,Uttar_Pradesh,Vrindavan,"Omex Eternity, Vrindavan - UPPCB",17-06-2024 02:00:00,27.5714090,77.6557570,PM10,31,246,90
India,Uttar_Pradesh,Vrindavan,"Omex Eternity, Vrindavan - UPPCB",17-06-2024 02:00:00,27.5714090,77.6557570,NO2,12,12,12
India,Uttarakhand,Dehradun,"Doon University, Dehradun - UKPCB",17-06-2024 02:00:00,30.269444,78.044167,PM2.5,60,217,90
India,Uttarakhand,Kashipur,"Govt. Girls Inter College, Kashipur - UKPCB",17-06-2024 02:00:00,29.2124114,78.9611753,PM2.5,42,122,82
India,Uttarakhand,Kashipur,"Govt. Girls Inter College, Kashipur - UKPCB",17-06-2024 02:00:00,29.2124114,78.9611753,CO,6,86,43
India,Uttarakhand,Rishikesh,"Shivaji Nagar, Rishikesh - UKPCB",17-06-2024 02:00:00,30.075911,78.2859547,PM2.5,NA,NA,NA
India,Uttarakhand,Rishikesh,"Shivaji Nagar, Rishikesh - UKPCB",17-06-2024 02:00:00,30.075911,78.2859547,PM10,NA,NA,NA
India,Uttarakhand,Rishikesh,"Shivaji Nagar, Rishikesh - UKPCB",17-06-2024 02:00:00,30.075911,78.2859547,SO2,NA,NA,NA
India,Uttarakhand,Rishikesh,"Shivaji Nagar, Rishikesh - UKPCB",17-06-2024 02:00:00,30.075911,78.2859547,CO,NA,NA,NA
India,West_Bengal,Asansol,"Asansol Court Area, Asansol - WBPCB",17-06-2024 02:00:00,23.685297,86.945968,PM2.5,62,162,99
India,West_Bengal,Asansol,"Asansol Court Area, Asansol - WBPCB",17-06-2024 02:00:00,23.685297,86.945968,CO,12,120,21
India,West_Bengal,Asansol,"Evelyn Lodge, Asansol - WBPCB",17-06-2024 02:00:00,23.6979360,86.9443950,CO,56,102,62
India,West_Bengal,Barrackpore,"SVSPA Campus, Barrackpore - WBPCB",17-06-2024 02:00:00,22.7605581,88.3617589,PM2.5,38,69,56
India,West_Bengal,Barrackpore,"SVSPA Campus, Barrackpore - WBPCB",17-06-2024 02:00:00,22.7605581,88.3617589,CO,20,30,25
India,West_Bengal,Durgapur,"Sidhu Kanhu Indoor Stadium, Durgapur - WBPCB",17-06-2024 02:00:00,23.5404352,87.2892225,NO2,16,35,25
India,West_Bengal,Haldia,"Priyambada Housing Estate, Haldia - WBPCB",17-06-2024 02:00:00,22.06047,88.109737,PM10,41,85,65
India,West_Bengal,Howrah,"Botanical Garden, Howrah - WBPCB",17-06-2024 02:00:00,22.554954,88.292568,PM2.5,22,87,57
India,West_Bengal,Howrah,"Botanical Garden, Howrah - WBPCB",17-06-2024 02:00:00,22.554954,88.292568,SO2,4,6,5
India,West_Bengal,Kolkata,"Ballygunge, Kolkata - WBPCB",17-06-2024 02:00:00,22.5367507,88.3638022,PM2.5,35,53,42
India,West_Bengal,Kolkata,"Fort William, Kolkata - WBPCB",17-06-2024 02:00:00,22.556640,88.342674,NO2,10,21,14
India,West_Bengal,Kolkata,"Fort William, Kolkata - WBPCB",17-06-2024 02:00:00,22.556640,88.342674,SO2,4,6,5
India,West_Bengal,Kolkata,"Jadavpur, Kolkata - WBPCB",17-06-2024 02:00:00,22.49929,88.36917,PM10,31,48,40
India,West_Bengal,Kolkata,"Jadavpur, Kolkata - WBPCB",17-06-2024 02:00:00,22.49929,88.36917,CO,25,27,26
India,West_Bengal,Kolkata,"Rabindra Sarobar, Kolkata - WBPCB",17-06-2024 02:00:00,22.51106,88.35142,PM2.5,27,37,31
India,West_Bengal,Kolkata,"Victoria, Kolkata - WBPCB",17-06-2024 02:00:00,22.5448082,88.3403691,SO2,6,8,6
India,West_Bengal,Siliguri,"Ward-32 Bapupara, Siliguri - WBPCB",17-06-2024 02:00:00,26.6879226,88.4152495,PM2.5,21,38,28
India,West_Bengal,Siliguri,"Ward-32 Bapupara, Siliguri - WBPCB",17-06-2024 02:00:00,26.6879226,88.4152495,NO2,23,29,24
India,Andhra_Pradesh,Amaravati,"Secretariat, Amaravati - APPCB",17-06-2024 02:00:00,16.5150833,80.5181667,PM10,16,54,32
India,Andhra_Pradesh,Anantapur,"Gulzarpet, Anantapur - APPCB",17-06-2024 02:00:00,14.675886,77.593027,PM2.5,26,73,44
India,Andhra_Pradesh,Anantapur,"Gulzarpet, Anantapur - APPCB",17-06-2024 02:00:00,14.675886,77.593027,PM10,60,193,85
India,Andhra_Pradesh,Chittoor,"Gangineni Cheruvu, Chittoor - APPCB",17-06-2024 02:00:00,13.204880,79.097889,PM10,52,86,69
India,Andhra_Pradesh,Chittoor,"Gangineni Cheruvu, Chittoor - APPCB",17-06-2024 02:00:00,13.204880,79.097889,SO2,1,8,3
India,Andhra_Pradesh,Rajamahendravaram,"Anand Kala Kshetram, Rajamahendravaram - APPCB",17-06-2024 02:00:00,16.9872867,81.7363176,OZONE,27,173,103
India,Andhra_Pradesh,Tirupati,"Tirumala, Tirupati - APPCB",17-06-2024 02:00:00,13.67,79.35,NO2,14,33,23
India,Andhra_Pradesh,Tirupati,"Tirumala, Tirupati - APPCB",17-06-2024 02:00:00,13.67,79.35,SO2,1,8,5
India,Andhra_Pradesh,Tirupati,"Tirumala, Tirupati - APPCB",17-06-2024 02:00:00,13.67,79.35,CO,34,48,41
India,Andhra_Pradesh,Tirupati,"Vaikuntapuram, Tirupati - APPCB",17-06-2024 02:00:00,13.615387,79.409230,PM2.5,NA,NA,NA
India,Andhra_Pradesh,Vijayawada,"HB Colony, Vijayawada - APPCB",17-06-2024 02:00:00,16.536107,80.594233,PM2.5,39,85,53
India,Andhra_Pradesh,Vijayawada,"Rajiv Gandhi Park, Vijayawada - APPCB",17-06-2024 02:00:00,16.509717,80.612222,SO2,2,13,11
India,Andhra_Pradesh,Vijayawada,"Rajiv Gandhi Park, Vijayawada - APPCB",17-06-2024 02:00:00,16.509717,80.612222,CO,37,37,37
India,Andhra_Pradesh,Vijayawada,"Rajiv Nagar, Vijayawada - APPCB",17-06-2024 02:00:00,16.554731,80.649110,PM2.5,47,117,57
India,Andhra_Pradesh,Vijayawada,"Rajiv Nagar, Vijayawada - APPCB",17-06-2024 02:00:00,16.554731,80.649110,CO,38,38,38
India,Andhra_Pradesh,Visakhapatnam,"GVM Corporation, Visakhapatnam - APPCB",17-06-2024 02:00:00,17.72,83.3,PM2.5,34,72,50
India,Andhra_Pradesh,Visakhapatnam,"GVM Corporation, Visakhapatnam - APPCB",17-06-2024 02:00:00,17.72,83.3,SO2,5,13,10
India,Assam,Guwahati,"LGBI Airport, Guwahati - PCBA",17-06-2024 02:00:00,26.10887,91.589544,NO2,4,28,11
India,Assam,Guwahati,"LGBI Airport, Guwahati - PCBA",17-06-2024 02:00:00,26.10887,91.589544,NH3,1,3,1
India,Assam,Guwahati,"Pan Bazaar, Guwahati - PCBA",17-06-2024 02:00:00,26.187500,91.744194,SO2,32,35,34
India,Assam,Guwahati,"Railway Colony, Guwahati - PCBA",17-06-2024 02:00:00,26.181742,91.78063,PM10,9,32,21
India,Assam,Nagaon,"Christianpatty, Nagaon - PCBA",17-06-2024 02:00:00,26.349082,92.68449,NO2,1,27,7
India,Assam,Nalbari,"Bata Chowk, Nalbari - PCBA",17-06-2024 02:00:00,26.446912,91.439057,CO,18,36,26
India,Assam,Silchar,"Tarapur, Silchar - PCBA",17-06-2024 02:00:00,24.82827,92.79525,PM2.5,33,40,36
India,Assam,Silchar,"Tarapur, Silchar - PCBA",17-06-2024 02:00:00,24.82827,92.79525,NO2,16,16,16
India,Assam,Sivasagar,"Girls College, Sivasagar - PCBA",17-06-2024 02:00:00,26.987634,94.636574,NO2,8,11,9
India,Assam,Sivasagar,"Girls College, Sivasagar - PCBA",17-06-2024 02:00:00,26.987634,94.636574,SO2,3,4,3
India,Bihar,Aurangabad,"Gurdeo Nagar, Aurangabad - BSPCB",17-06-2024 02:00:00,24.75746,84.366208,NO2,2,13,6
India,Bihar,Bettiah,"Kamalnath Nagar, Bettiah - BSPCB",17-06-2024 02:00:00,26.80365,84.51954,NH3,36,51,43
India,Bihar,Bettiah,"Kamalnath Nagar, Bettiah - BSPCB",17-06-2024 02:00:00,26.80365,84.51954,SO2,11,20,16
India,Bihar,Bhagalpur,"Mayaganj, Bhagalpur - BSPCB",17-06-2024 02:00:00,25.265194,87.012947,NH3,9,10,10
India,Bihar,Bihar Sharif,"D M Colony, Bihar Sharif - BSPCB",17-06-2024 02:00:00,25.204762,85.514960,OZONE,21,100,35
India,Bihar,Chhapra,"Darshan Nagar, Chhapra - BSPCB",17-06-2024 02:00:00,25.7808257,84.7446768,PM10,53,121,85
India,Bihar,Chhapra,"Darshan Nagar, Chhapra - BSPCB",17-06-2024 02:00:00,25.7808257,84.7446768,NH3,6,11,8
India,Bihar,Gaya,"Collectorate, Gaya - BSPCB",17-06-2024 02:00:00,24.7955,84.9994,PM2.5,30,114,80
India,Bihar,Gaya,"Kareemganj, Gaya - BSPCB",17-06-2024 02:00:00,24.792403,84.992416,PM10,42,129,78
India,Bihar,Gaya,"Kareemganj, Gaya - BSPCB",17-06-2024 02:00:00,24.792403,84.992416,SO2,9,10,10
India,Bihar,Gaya,"Kareemganj, Gaya - BSPCB",17-06-2024 02:00:00,24.792403,84.992416,CO,12,23,22
India,Bihar,Hajipur,"Industrial Area, Hajipur - BSPCB",17-06-2024 02:00:00,25.697189,85.245900,NO2,9,31,18
India,Bihar,Katihar,"Mirchaibari, Katihar - BSPCB",17-06-2024 02:00:00,25.560083,87.553265,NO2,3,4,4
India,Bihar,Katihar,"Mirchaibari, Katihar - BSPCB",17-06-2024 02:00:00,25.560083,87.553265,NH3,1,1,1
India,Bihar,Katihar,"Mirchaibari, Katihar - BSPCB",17-06-2024 02:00:00,25.560083,87.553265,CO,19,39,34
India,Bihar,Katihar,"Mirchaibari, Katihar - BSPCB",17-06-2024 02:00:00,25.560083,87.553265,OZONE,3,7,4
India,Bihar,Kishanganj,"SDM Office_Khagra, Kishanganj - BSPCB",17-06-2024 02:00:00,26.0881305,87.93840336,PM10,13,103,37
India,Bihar,Kishanganj,"SDM Office_Khagra, Kishanganj - BSPCB",17-06-2024 02:00:00,26.0881305,87.93840336,NO2,72,75,73
India,Bihar,Manguraha,"Forest Rest House, Manguraha - BSPCB",17-06-2024 02:00:00,27.308328,84.531742,SO2,1,3,2
India,Bihar,Munger,"Town Hall, Munger - BSPCB",17-06-2024 02:00:00,25.376776,86.471523,PM10,74,440,148
India,Bihar,Munger,"Town Hall, Munger - BSPCB",17-06-2024 02:00:00,25.376776,86.471523,SO2,24,43,33
India,Bihar,Muzaffarpur,"Buddha Colony, Muzaffarpur - BSPCB",17-06-2024 02:00:00,26.11442,85.39813,PM2.5,NA,NA,NA
India,Bihar,Muzaffarpur,"Buddha Colony, Muzaffarpur - BSPCB",17-06-2024 02:00:00,26.11442,85.39813,PM10,NA,NA,NA
India,Bihar,Muzaffarpur,"Buddha Colony, Muzaffarpur - BSPCB",17-06-2024 02:00:00,26.11442,85.39813,SO2,NA,NA,NA
India,Bihar,Muzaffarpur,"MIT-Daudpur Kothi, Muzaffarpur - BSPCB",17-06-2024 02:00:00,26.1403345,85.3650192,NO2,3,6,5
India,Bihar,Muzaffarpur,"MIT-Daudpur Kothi, Muzaffarpur - BSPCB",17-06-2024 02:00:00,26.1403345,85.3650192,CO,8,80,23
India,Bihar,Muzaffarpur,"MIT-Daudpur Kothi, Muzaffarpur - BSPCB",17-06-2024 02:00:00,26.1403345,85.3650192,OZONE,5,42,26
India,Bihar,Patna,"DRM Office Danapur, Patna - BSPCB",17-06-2024 02:00:00,25.586562,85.043586,NH3,2,3,3
India,Bihar,Patna,"DRM Office Danapur, Patna - BSPCB",17-06-2024 02:00:00,25.586562,85.043586,CO,20,39,25
India,Bihar,Patna,"Govt. High School Shikarpur, Patna - BSPCB",17-06-2024 02:00:00,25.592539,85.227158,OZONE,1,59,8
India,Bihar,Patna,"IGSC Planetarium Complex, Patna - BSPCB",17-06-2024 02:00:00,25.610369,85.132568,PM2.5,81,190,128
India,Bihar,Patna,"Muradpur, Patna - BSPCB",17-06-2024 02:00:00,25.619651,85.147382,PM10,142,324,202
India,Bihar,Patna,"Muradpur, Patna - BSPCB",17-06-2024 02:00:00,25.619651,85.147382,OZONE,5,63,14
India,Bihar,Purnia,"Mariam Nagar, Purnia - BSPCB",17-06-2024 02:00:00,25.366336,87.117468,SO2,5,15,10
India,Bihar,Rajgir,"Dangi Tola, Rajgir - BSPCB",17-06-2024 02:00:00,25.03280,85.41948,PM2.5,NA,NA,NA
India,Bihar,Sasaram,"Dada Peer, Sasaram - BSPCB",17-06-2024 02:00:00,24.952822,84.002396,PM10,32,147,65
India,Bihar,Sasaram,"Dada Peer, Sasaram - BSPCB",17-06-2024 02:00:00,24.952822,84.002396,NO2,1,37,19
India,Bihar,Siwan,"Chitragupta Nagar, Siwan - BSPCB",17-06-2024 02:00:00,26.2271665,84.3570427,NH3,NA,NA,NA
India,Chandigarh,Chandigarh,"Sector 22, Chandigarh - CPCC",17-06-2024 02:00:00,30.735567,76.775714,OZONE,59,304,155
India,Chhattisgarh,Bhilai,"32Bungalows, Bhilai - CECB",17-06-2024 02:00:00,21.194815,81.314770,NO2,10,17,12
India,Chhattisgarh,Bhilai,"Hathkhoj, Bhilai - CECB",17-06-2024 02:00:00,21.224231,81.408350,SO2,9,11,10
India,Chhattisgarh,Bhilai,"Hathkhoj, Bhilai - CECB",17-06-2024 02:00:00,21.224231,81.408350,OZONE,17,48,32
India,Chhattisgarh,Chhal,"Nawapara SECL Colony, Chhal - CECB",17-06-2024 02:00:00,22.118125,83.140608,PM2.5,30,70,45
India,Chhattisgarh,Korba,"Rampur, Korba - CECB",17-06-2024 02:00:00,22.368195,82.746431,NO2,27,38,33
India,Chhattisgarh,Korba,"Rampur, Korba - CECB",17-06-2024 02:00:00,22.368195,82.746431,OZONE,4,7,6
India,Chhattisgarh,Korba,"Urja Nagar, Korba - CECB",17-06-2024 02:00:00,22.348441,82.549611,PM10,46,132,73
India,Chhattisgarh,Milupara,"Govt. Higher Secondary School, Milupara - CECB",17-06-2024 02:00:00,22.1910172,83.5197009,PM10,20,60,46
India,Chhattisgarh,Milupara,"Govt. Higher Secondary School, Milupara - CECB",17-06-2024 02:00:00,22.1910172,83.5197009,CO,5,44,36
India,Chhattisgarh,Raipur,"AIIMS, Raipur - CECB",17-06-2024 02:00:00,21.258815,81.578979,NO2,12,34,19
India,Chhattisgarh,Raipur,"AIIMS, Raipur - CECB",17-06-2024 02:00:00,21.258815,81.578979,OZONE,4,40,24
India,Chhattisgarh,Raipur,"Krishak Nagar, Raipur - CECB",17-06-2024 02:00:00,21.237755,81.705301,NO2,5,5,5
India,Chhattisgarh,Raipur,"Krishak Nagar, Raipur - CECB",17-06-2024 02:00:00,21.237755,81.705301,OZONE,5,46,19
India,Chhattisgarh,Raipur,"Siltara Phase-II, Raipur - CECB",17-06-2024 02:00:00,21.371751,81.664929,PM10,73,160,130
India,Chhattisgarh,Raipur,"Siltara Phase-II, Raipur - CECB",17-06-2024 02:00:00,21.371751,81.664929,NO2,22,76,39
India,Chhattisgarh,Raipur,"Siltara Phase-II, Raipur - CECB",17-06-2024 02:00:00,21.371751,81.664929,NH3,3,3,3
India,Chhattisgarh,Tumidih,"OP Jindal Industrial Park, Tumidih - CECB",17-06-2024 02:00:00,22.06631475,83.33820077,NH3,1,2,1
India,Chhattisgarh,Tumidih,"OP Jindal Industrial Park, Tumidih - CECB",17-06-2024 02:00:00,22.06631475,83.33820077,CO,16,64,36
India,Delhi,Delhi,"Alipur, Delhi - DPCC",17-06-2024 02:00:00,28.815329,77.153010,PM10,118,277,185
India,Delhi,Delhi,"Ashok Vihar, Delhi - DPCC",17-06-2024 02:00:00,28.695381,77.181665,CO,30,65,49
India,Delhi,Delhi,"Aya Nagar, Delhi - IMD",17-06-2024 02:00:00,28.4706914,77.1099364,PM10,127,189,153
India,Delhi,Delhi,"Aya Nagar, Delhi - IMD",17-06-2024 02:00:00,28.4706914,77.1099364,CO,88,102,94
India,Delhi,Delhi,"Bawana, Delhi - DPCC",17-06-2024 02:00:00,28.776200,77.051074,PM2.5,40,245,119
India,Delhi,Delhi,"CRRI Mathura Road, Delhi - IMD",17-06-2024 02:00:00,28.5512005,77.2735737,OZONE,3,29,11
India,Delhi,Delhi,"DTU, Delhi - CPCB",17-06-2024 02:00:00,28.7500499,77.1112615,SO2,41,70,47
India,Delhi,Delhi,"DTU, Delhi - CPCB",17-06-2024 02:00:00,28.7500499,77.1112615,CO,28,64,42
India,Delhi,Delhi,"Dr. Karni Singh Shooting Range, Delhi - DPCC",17-06-2024 02:00:00,28.498571,77.264840,NO2,18,91,40
India,Delhi,Delhi,"Dwarka-Sector 8, Delhi - DPCC ",17-06-2024 02:00:00,28.5710274,77.0719006,CO,2,103,42
India,Delhi,Delhi,"IGI Airport (T3), Delhi - IMD",17-06-2024 02:00:00,28.5627763,77.1180053,PM2.5,31,158,76
India,Delhi,Delhi,"IHBAS, Dilshad Garden, Delhi - CPCB",17-06-2024 02:00:00,28.6811736,77.3025234,PM10,125,159,143
India,Delhi,Delhi,"IHBAS, Dilshad Garden, Delhi - CPCB",17-06-2024 02:00:00,28.6811736,77.3025234,SO2,17,66,44
India,Delhi,Delhi,"IHBAS, Dilshad Garden, Delhi - CPCB",17-06-2024 02:00:00,28.6811736,77.3025234,CO,10,102,69
India,Delhi,Delhi,"IHBAS, Dilshad Garden, Delhi - CPCB",17-06-2024 02:00:00,28.6811736,77.3025234,OZONE,22,38,34
India,Delhi,Delhi,"Jawaharlal Nehru Stadium, Delhi - DPCC",17-06-2024 02:00:00,28.580280,77.233829,PM10,118,210,156
India,Delhi,Delhi,"Jawaharlal Nehru Stadium, Delhi - DPCC",17-06-2024 02:00:00,28.580280,77.233829,SO2,6,50,24
India,Delhi,Delhi,"Lodhi Road, Delhi - IMD",17-06-2024 02:00:00,28.5918245,77.2273074,PM10,104,170,135
India,Delhi,Delhi,"Lodhi Road, Delhi - IMD",17-06-2024 02:00:00,28.5918245,77.2273074,NO2,1,2,2
India,Delhi,Delhi,"Major Dhyan Chand National Stadium, Delhi - DPCC",17-06-2024 02:00:00,28.611281,77.237738,NO2,8,119,48
India,Delhi,Delhi,"Major Dhyan Chand National Stadium, Delhi - DPCC",17-06-2024 02:00:00,28.611281,77.237738,NH3,5,8,6
India,Delhi,Delhi,"Mandir Marg, Delhi - DPCC",17-06-2024 02:00:00,28.636429,77.201067,NO2,NA,NA,NA
India,Delhi,Delhi,"Mundka, Delhi - DPCC",17-06-2024 02:00:00,28.684678,77.076574,PM10,142,418,246
India,Delhi,Delhi,"Mundka, Delhi - DPCC",17-06-2024 02:00:00,28.684678,77.076574,OZONE,33,148,102
India,Delhi,Delhi,"NSIT Dwarka, Delhi - CPCB",17-06-2024 02:00:00,28.60909,77.0325413,PM2.5,67,235,127
India,Delhi,Delhi,"NSIT Dwarka, Delhi - CPCB",17-06-2024 02:00:00,28.60909,77.0325413,SO2,6,36,16
India,Delhi,Delhi,"NSIT Dwarka, Delhi - CPCB",17-06-2024 02:00:00,28.60909,77.0325413,CO,43,75,61
India,Delhi,Delhi,"Najafgarh, Delhi - DPCC",17-06-2024 02:00:00,28.570173,76.933762,CO,32,58,48
India,Delhi,Delhi,"Najafgarh, Delhi - DPCC",17-06-2024 02:00:00,28.570173,76.933762,OZONE,13,68,45
India,Delhi,Delhi,"Nehru Nagar, Delhi - DPCC",17-06-2024 02:00:00,28.567890,77.250515,PM2.5,28,220,88
India,Delhi,Delhi,"Nehru Nagar, Delhi - DPCC",17-06-2024 02:00:00,28.567890,77.250515,NH3,2,7,4
India,Delhi,Delhi,"North Campus, DU, Delhi - IMD",17-06-2024 02:00:00,28.6573814,77.1585447,NO2,6,37,15
India,Delhi,Delhi,"Okhla Phase-2, Delhi - DPCC",17-06-2024 02:00:00,28.530785,77.271255,NO2,21,125,68
India,Delhi,Delhi,"Okhla Phase-2, Delhi - DPCC",17-06-2024 02:00:00,28.530785,77.271255,SO2,7,13,10
India,Delhi,Delhi,"Okhla Phase-2, Delhi - DPCC",17-06-2024 02:00:00,28.530785,77.271255,OZONE,2,75,27
India,Delhi,Delhi,"Patparganj, Delhi - DPCC",17-06-2024 02:00:00,28.623763,77.287209,NO2,20,130,60
India,Delhi,Delhi,"Patparganj, Delhi - DPCC",17-06-2024 02:00:00,28.623763,77.287209,SO2,4,25,10
India,Delhi,Delhi,"Patparganj, Delhi - DPCC",17-06-2024 02:00:00,28.623763,77.287209,CO,19,102,73
India,Delhi,Delhi,"Punjabi Bagh, Delhi - DPCC",17-06-2024 02:00:00,28.674045,77.131023,SO2,2,64,33
India,Delhi,Delhi,"Punjabi Bagh, Delhi - DPCC",17-06-2024 02:00:00,28.674045,77.131023,OZONE,8,72,30
India,Delhi,Delhi,"Pusa, Delhi - DPCC",17-06-2024 02:00:00,28.639652,77.146275,PM2.5,27,133,67
India,Delhi,Delhi,"Pusa, Delhi - DPCC",17-06-2024 02:00:00,28.639652,77.146275,NH3,5,7,6
India,Delhi,Delhi,"Pusa, Delhi - DPCC",17-06-2024 02:00:00,28.639652,77.146275,CO,29,107,76
India,Delhi,Delhi,"Pusa, Delhi - IMD",17-06-2024 02:00:00,28.636110,77.173332,OZONE,4,29,18
India,Delhi,Delhi,"R K Puram, Delhi - DPCC",17-06-2024 02:00:00,28.563262,77.186937,PM2.5,60,243,130
India,Delhi,Delhi,"Rohini, Delhi - DPCC",17-06-2024 02:00:00,28.732528,77.119920,PM2.5,40,243,91
India,Delhi,Delhi,"Rohini, Delhi - DPCC",17-06-2024 02:00:00,28.732528,77.119920,PM10,138,315,203
India,Delhi,Delhi,"Shadipur, Delhi - CPCB",17-06-2024 02:00:00,28.6514781,77.1473105,NH3,8,10,8
India,Delhi,Delhi,"Sirifort, Delhi - CPCB",17-06-2024 02:00:00,28.5504249,77.2159377,PM10,139,322,185
India,Delhi,Delhi,"Sirifort, Delhi - CPCB",17-06-2024 02:00:00,28.5504249,77.2159377,CO,8,82,41
India,Delhi,Delhi,"Sonia Vihar, Delhi - DPCC",17-06-2024 02:00:00,28.710508,77.249485,PM2.5,65,65,65
India,Delhi,Delhi,"Sonia Vihar, Delhi - DPCC",17-06-2024 02:00:00,28.710508,77.249485,NH3,4,10,6
India,Delhi,Delhi,"Sonia Vihar, Delhi - DPCC",17-06-2024 02:00:00,28.710508,77.249485,CO,4,94,30
India,Delhi,Delhi,"Sri Aurobindo Marg, Delhi - DPCC",17-06-2024 02:00:00,28.531346,77.190156,PM2.5,37,170,71
India,Delhi,Delhi,"Sri Aurobindo Marg, Delhi - DPCC",17-06-2024 02:00:00,28.531346,77.190156,CO,35,68,49
India,Gujarat,Ahmedabad,"Chandkheda, Ahmedabad - IITM",17-06-2024 02:00:00,23.107969,72.574648,SO2,3,7,5
India,Gujarat,Ahmedabad,"Gyaspur, Ahmedabad - IITM",17-06-2024 02:00:00,22.977134,72.553024,NH3,4,8,7
India,Gujarat,Ahmedabad,"Gyaspur, Ahmedabad - IITM",17-06-2024 02:00:00,22.977134,72.553024,CO,40,54,50
India,Gujarat,Ahmedabad,"Maninagar, Ahmedabad - GPCB",17-06-2024 02:00:00,23.002657,72.591912,PM10,NA,NA,NA
India,Gujarat,Ahmedabad,"Maninagar, Ahmedabad - GPCB",17-06-2024 02:00:00,23.002657,72.591912,SO2,NA,NA,NA
India,Gujarat,Ahmedabad,"Raikhad, Ahmedabad - IITM",17-06-2024 02:00:00,23.020509,72.579261,PM10,52,238,129
India,Gujarat,Ahmedabad,"Raikhad, Ahmedabad - IITM",17-06-2024 02:00:00,23.020509,72.579261,CO,14,30,20
India,Gujarat,Ahmedabad,"Rakhial, Ahmedabad - IITM",17-06-2024 02:00:00,23.016834,72.625775,PM10,56,102,82
India,Gujarat,Ahmedabad,"Sardar Vallabhbhai Patel Stadium, Ahmedabad - IITM",17-06-2024 02:00:00,23.043070,72.562968,SO2,35,37,36
India,Gujarat,Gandhinagar,"GIFT City, Gandhinagar - IITM",17-06-2024 02:00:00,23.163798,72.677768,NH3,7,8,7
India,Gujarat,Gandhinagar,"Sector-10, Gandhinagar - GPCB",17-06-2024 02:00:00,23.221714,72.654328,NO2,21,23,22
India,Gujarat,Nandesari,"GIDC, Nandesari - Nandesari Ind. Association",17-06-2024 02:00:00,22.410802,73.097923,NO2,3,17,8
India,Gujarat,Surat,"Science Center, Surat - SMC",17-06-2024 02:00:00,21.170046,72.795405,PM2.5,NA,NA,NA
India,Gujarat,Vapi,"Phase-1 GIDC, Vapi - GPCB",17-06-2024 02:00:00,20.362421,72.918013,NH3,2,2,2
India,Haryana,Ambala,"Patti Mehar, Ambala - HSPCB",17-06-2024 02:00:00,30.379589,76.778328,PM2.5,48,88,70
India,Haryana,Ambala,"Patti Mehar, Ambala - HSPCB",17-06-2024 02:00:00,30.379589,76.778328,CO,30,58,38
India,Haryana,Bahadurgarh,"Arya Nagar, Bahadurgarh - HSPCB",17-06-2024 02:00:00,28.6701,76.9254,NO2,18,25,22
India,Haryana,Bahadurgarh,"Arya Nagar, Bahadurgarh - HSPCB",17-06-2024 02:00:00,28.6701,76.9254,NH3,8,10,9
India,Haryana,Ballabgarh,"Nathu Colony, Ballabgarh - HSPCB",17-06-2024 02:00:00,28.3419248,77.319699,NO2,11,14,12
India,Haryana,Ballabgarh,"Nathu Colony, Ballabgarh - HSPCB",17-06-2024 02:00:00,28.3419248,77.319699,SO2,4,18,8
India,Haryana,Bhiwani,"H.B. Colony, Bhiwani - HSPCB",17-06-2024 02:00:00,28.806223,76.141105,SO2,1,12,6
India,Haryana,Bhiwani,"H.B. Colony, Bhiwani - HSPCB",17-06-2024 02:00:00,28.806223,76.141105,OZONE,5,146,12
India,Haryana,Charkhi Dadri,"Mini Secretariat, Charkhi Dadri - HSPCB",17-06-2024 02:00:00,28.593883,76.270653,SO2,NA,NA,NA
India,Haryana,Faridabad,"New Industrial Town, Faridabad - HSPCB",17-06-2024 02:00:00,28.39072,77.30059,NO2,4,4,4
India,Haryana,Faridabad,"New Industrial Town, Faridabad - HSPCB",17-06-2024 02:00:00,28.39072,77.30059,SO2,9,14,11
India,Haryana,Faridabad,"Sector 11, Faridabad - HSPCB",17-06-2024 02:00:00,28.376058,77.315741,NO2,29,33,31
India,Haryana,Faridabad,"Sector 30, Faridabad - HSPCB",17-06-2024 02:00:00,28.4417,77.3217,PM10,NA,NA,NA
India,Haryana,Faridabad,"Sector- 16A, Faridabad - HSPCB",17-06-2024 02:00:00,28.4088421,77.3099081,PM2.5,32,75,47
India,Haryana,Faridabad,"Sector- 16A, Faridabad - HSPCB",17-06-2024 02:00:00,28.4088421,77.3099081,SO2,20,30,24
India,Haryana,Fatehabad,"Huda Sector, Fatehabad - HSPCB",17-06-2024 02:00:00,29.503664,75.467934,OZONE,10,24,14
India,Haryana,Gurugram,"NISE Gwal Pahari, Gurugram - IMD",17-06-2024 02:00:00,28.422681,77.148944,PM2.5,56,110,79
India,Haryana,Gurugram,"Sector-51, Gurugram - HSPCB",17-06-2024 02:00:00,28.4227,77.0667,PM10,152,338,210
India,Haryana,Gurugram,"Sector-51, Gurugram - HSPCB",17-06-2024 02:00:00,28.4227,77.0667,NO2,13,29,23
India,Haryana,Gurugram,"Teri Gram, Gurugram - HSPCB",17-06-2024 02:00:00,28.4275,77.1465,PM10,134,230,167
India,Haryana,Kaithal,"Rishi Nagar, Kaithal - HSPCB",17-06-2024 02:00:00,29.8006,76.4155,NO2,NA,NA,NA
India,Haryana,Kaithal,"Rishi Nagar, Kaithal - HSPCB",17-06-2024 02:00:00,29.8006,76.4155,SO2,NA,NA,NA
India,Haryana,Karnal,"Sector-12, Karnal - HSPCB",17-06-2024 02:00:00,29.695300,77.002700,CO,12,34,29
India,Haryana,Kurukshetra,"Sector-7, Kurukshetra - HSPCB",17-06-2024 02:00:00,29.966942,76.875879,SO2,2,3,3
India,Haryana,Mandikhera,"General Hospital, Mandikhera - HSPCB",17-06-2024 02:00:00,27.9002,76.9938,NO2,18,24,21
India,Haryana,Mandikhera,"General Hospital, Mandikhera - HSPCB",17-06-2024 02:00:00,27.9002,76.9938,NH3,17,20,18
India,Haryana,Mandikhera,"General Hospital, Mandikhera - HSPCB",17-06-2024 02:00:00,27.9002,76.9938,SO2,31,38,34
India,Haryana,Manesar,"Sector-2 IMT, Manesar - HSPCB",17-06-2024 02:00:00,28.360699,76.936090,CO,4,24,12
India,Haryana,Palwal,"Shyam Nagar, Palwal - HSPCB",17-06-2024 02:00:00,28.1485564,77.3320667,PM10,70,104,87
India,Haryana,Palwal,"Shyam Nagar, Palwal - HSPCB",17-06-2024 02:00:00,28.1485564,77.3320667,NH3,8,9,9
India,Haryana,Panipat,"Sector-18, Panipat - HSPCB",17-06-2024 02:00:00,29.432304,76.972765,PM2.5,96,99,97
India,Haryana,Panipat,"Sector-18, Panipat - HSPCB",17-06-2024 02:00:00,29.432304,76.972765,NO2,31,32,31
India,Haryana,Panipat,"Sector-18, Panipat - HSPCB",17-06-2024 02:00:00,29.432304,76.972765,CO,24,26,25
India,Jharkhand,Dhanbad,"Kalakusuma, Dhanbad - DMC",17-06-2024 02:00:00,23.811548,86.481238,NO2,356,356,356
India,Karnataka,Bagalkot,"Vidayagiri, Bagalkot - KSPCB",17-06-2024 02:00:00,16.172806,75.659694,NH3,1,2,1
India,Karnataka,Belgaum,"Ramteerth Nagar, Belgaum - KSPCB",17-06-2024 02:00:00,15.888653,74.541751,PM2.5,6,14,10
India,Karnataka,Belgaum,"Ramteerth Nagar, Belgaum - KSPCB",17-06-2024 02:00:00,15.888653,74.541751,SO2,9,10,9
India,Karnataka,Belgaum,"Ramteerth Nagar, Belgaum - KSPCB",17-06-2024 02:00:00,15.888653,74.541751,CO,37,46,39
India,Karnataka,Bengaluru,"City Railway Station, Bengaluru - KSPCB",17-06-2024 02:00:00,12.9756843,77.5660749,PM10,68,102,85
India,Karnataka,Bengaluru,"Hebbal, Bengaluru - KSPCB",17-06-2024 02:00:00,13.029152,77.585901,PM10,8,34,24
India,Karnataka,Bengaluru,"Hebbal, Bengaluru - KSPCB",17-06-2024 02:00:00,13.029152,77.585901,SO2,18,27,21
India,Karnataka,Bengaluru,"Hombegowda Nagar, Bengaluru - KSPCB",17-06-2024 02:00:00,12.938539,77.590100,PM10,11,38,24
India,Karnataka,Bengaluru,"Hombegowda Nagar, Bengaluru - KSPCB",17-06-2024 02:00:00,12.938539,77.590100,OZONE,11,26,20
India,Karnataka,Bengaluru,"Jayanagar 5th Block, Bengaluru - KSPCB",17-06-2024 02:00:00,12.920984,77.584908,PM2.5,13,45,24
India,Karnataka,Bengaluru,"Jayanagar 5th Block, Bengaluru - KSPCB",17-06-2024 02:00:00,12.920984,77.584908,NH3,2,2,2
India,Karnataka,Bengaluru,"Jayanagar 5th Block, Bengaluru - KSPCB",17-06-2024 02:00:00,12.920984,77.584908,OZONE,18,19,18
India,Karnataka,Bengaluru,"Kasturi Nagar, Bengaluru - KSPCB",17-06-2024 02:00:00,13.003872,77.664217,NO2,16,17,17
India,Karnataka,Bengaluru,"Peenya, Bengaluru - CPCB",17-06-2024 02:00:00,13.0270199,77.494094,SO2,12,17,15
India,Karnataka,Bengaluru,"RVCE-Mailasandra, Bengaluru - KSPCB",17-06-2024 02:00:00,12.921418,77.502466,NO2,16,17,17
India,Karnataka,Bengaluru,"RVCE-Mailasandra, Bengaluru - KSPCB",17-06-2024 02:00:00,12.921418,77.502466,OZONE,39,39,39
India,Karnataka,Bengaluru,"Sanegurava Halli, Bengaluru - KSPCB",17-06-2024 02:00:00,12.990328,77.5431385,SO2,2,3,3
India,Karnataka,Bengaluru,"Shivapura_Peenya, Bengaluru - KSPCB",17-06-2024 02:00:00,13.0246342,77.5080115,NH3,4,4,4
India,Karnataka,Bengaluru,"Silk Board, Bengaluru - KSPCB",17-06-2024 02:00:00,12.917348,77.622813,PM2.5,6,32,17
India,Karnataka,Chamarajanagar,"Urban, Chamarajanagar - KSPCB",17-06-2024 02:00:00,11.55358,76.55521,SO2,2,8,4
India,Karnataka,Chamarajanagar,"Urban, Chamarajanagar - KSPCB",17-06-2024 02:00:00,11.55358,76.55521,OZONE,14,27,16
India,Karnataka,Chikkamagaluru,"Kalyana Nagara, Chikkamagaluru - KSPCB",17-06-2024 02:00:00,13.328028,75.797056,PM2.5,10,63,24
India,Karnataka,Chikkamagaluru,"Kalyana Nagara, Chikkamagaluru - KSPCB",17-06-2024 02:00:00,13.328028,75.797056,SO2,1,7,4
India,Karnataka,Davanagere,"Devaraj Urs Badavane, Davanagere - KSPCB",17-06-2024 02:00:00,14.475800,75.905200,PM2.5,3,75,21
India,Karnataka,Davanagere,"Devaraj Urs Badavane, Davanagere - KSPCB",17-06-2024 02:00:00,14.475800,75.905200,NH3,1,2,1
India,Karnataka,Davanagere,"Devaraj Urs Badavane, Davanagere - KSPCB",17-06-2024 02:00:00,14.475800,75.905200,CO,16,18,16
India,Karnataka,Gadag,"Panchal Nagar, Gadag - KSPCB",17-06-2024 02:00:00,15.411456,75.638133,NH3,1,4,2
India,Karnataka,Hassan,"B.Katihalli, Hassan - KSPCB",17-06-2024 02:00:00,13.008556,76.125258,NH3,NA,NA,NA
India,Karnataka,Hassan,"B.Katihalli, Hassan - KSPCB",17-06-2024 02:00:00,13.008556,76.125258,CO,NA,NA,NA
India,Karnataka,Haveri,"Ashwini Nagar, Haveri - KSPCB",17-06-2024 02:00:00,14.791800,75.389600,NH3,NA,NA,NA
India,Karnataka,Haveri,"Ashwini Nagar, Haveri - KSPCB",17-06-2024 02:00:00,14.791800,75.389600,CO,NA,NA,NA
India,Karnataka,Hubballi,"Lingaraj Nagar, Hubballi - KSPCB",17-06-2024 02:00:00,15.3714823,75.1160168,PM2.5,50,51,50
India,Karnataka,Kolar,"Tamaka Ind. Area, Kolar - KSPCB",17-06-2024 02:00:00,13.1276288,78.1570122,PM10,NA,NA,NA
India,Karnataka,Kolar,"Tamaka Ind. Area, Kolar - KSPCB",17-06-2024 02:00:00,13.1276288,78.1570122,CO,6,6,6
India,Karnataka,Kolar,"Tamaka Ind. Area, Kolar - KSPCB",17-06-2024 02:00:00,13.1276288,78.1570122,OZONE,14,16,15
India,Karnataka,Madikeri,"Stuart Hill, Madikeri - KSPCB",17-06-2024 02:00:00,12.415911,75.735050,PM2.5,15,33,25
India,Karnataka,Madikeri,"Stuart Hill, Madikeri - KSPCB",17-06-2024 02:00:00,12.415911,75.735050,PM10,12,30,24
India,Karnataka,Mangalore,"Kadri, Mangalore - KSPCB",17-06-2024 02:00:00,12.889250,74.853000,PM10,40,86,57
India,Karnataka,Mangalore,"Kadri, Mangalore - KSPCB",17-06-2024 02:00:00,12.889250,74.853000,CO,34,38,36
India,Karnataka,Mysuru,"Hebbal 1st Stage, Mysuru - KSPCB",17-06-2024 02:00:00,12.21041,76.37376,PM10,20,45,33
India,Karnataka,Mysuru,"Hebbal 1st Stage, Mysuru - KSPCB",17-06-2024 02:00:00,12.21041,76.37376,NO2,9,36,21
India,Karnataka,Mysuru,"Hebbal 1st Stage, Mysuru - KSPCB",17-06-2024 02:00:00,12.21041,76.37376,NH3,1,2,2
India,Karnataka,Mysuru,"Hebbal 1st Stage, Mysuru - KSPCB",17-06-2024 02:00:00,12.21041,76.37376,SO2,1,4,2
India,Karnataka,Raichur,"Haji Colony, Raichur - KSPCB",17-06-2024 02:00:00,16.208139,77.348417,CO,94,120,109
India,Karnataka,Ramanagara,"Vijay Nagar, Ramanagara - KSPCB",17-06-2024 02:00:00,12.733409,77.298051,PM10,5,60,23
India,Karnataka,Ramanagara,"Vijay Nagar, Ramanagara - KSPCB",17-06-2024 02:00:00,12.733409,77.298051,NO2,8,27,12
India,Karnataka,Shivamogga,"Vinoba Nagara, Shivamogga - KSPCB",17-06-2024 02:00:00,13.940000,75.555917,PM10,30,69,46
India,Karnataka,Shivamogga,"Vinoba Nagara, Shivamogga - KSPCB",17-06-2024 02:00:00,13.940000,75.555917,OZONE,26,45,36
India,Karnataka,Tumakuru,"Thimmalapura, Tumakuru - KSPCB",17-06-2024 02:00:00,13.377516,77.099072,PM2.5,22,49,33
India,Karnataka,Yadgir,"Collector Office, Yadgir - KSPCB",17-06-2024 02:00:00,16.7602,77.1428,NH3,NA,NA,NA
India,Kerala,Eloor,"Udyogamandal, Eloor - Kerala PCB",17-06-2024 02:00:00,10.073232,76.302765,NO2,5,6,5
India,Kerala,Eloor,"Udyogamandal, Eloor - Kerala PCB",17-06-2024 02:00:00,10.073232,76.302765,SO2,1,2,1
India,Kerala,Eloor,"Udyogamandal, Eloor - Kerala PCB",17-06-2024 02:00:00,10.073232,76.302765,CO,12,107,32
India,Kerala,Kollam,"Polayathode, Kollam - Kerala PCB",17-06-2024 02:00:00,8.8787,76.6073,OZONE,30,36,33
India,Kerala,Thiruvananthapuram,"Plammoodu, Thiruvananthapuram - Kerala PCB",17-06-2024 02:00:00,8.5149093,76.9435879,PM10,7,58,28
India,Kerala,Thrissur,"Corporation Ground, Thrissur - Kerala PCB",17-06-2024 02:00:00,10.532400,76.215900,NO2,7,8,7
India,Madhya Pradesh,Bhopal,"T T Nagar, Bhopal - MPPCB",17-06-2024 02:00:00,23.233584,77.400574,PM2.5,11,47,27
India,Madhya Pradesh,Bhopal,"T T Nagar, Bhopal - MPPCB",17-06-2024 02:00:00,23.233584,77.400574,SO2,6,38,18
India,Madhya Pradesh,Dewas,"Bhopal Chauraha, Dewas - MPPCB",17-06-2024 02:00:00,22.9682591,76.064118,SO2,22,28,24
India,Madhya Pradesh,Dewas,"Bhopal Chauraha, Dewas - MPPCB",17-06-2024 02:00:00,22.9682591,76.064118,CO,24,50,42
India,Madhya Pradesh,Dewas,"Bhopal Chauraha, Dewas - MPPCB",17-06-2024 02:00:00,22.9682591,76.064118,OZONE,3,28,16
India,Madhya Pradesh,Gwalior,"City Center, Gwalior - MPPCB",17-06-2024 02:00:00,26.203442,78.193251,NO2,5,25,9
India,Madhya Pradesh,Gwalior,"Deen Dayal Nagar, Gwalior - MPPCB",17-06-2024 02:00:00,26.259242,78.216432,NO2,3,46,13
India,Madhya Pradesh,Gwalior,"Deen Dayal Nagar, Gwalior - MPPCB",17-06-2024 02:00:00,26.259242,78.216432,SO2,11,30,17
India,Madhya Pradesh,Gwalior,"Deen Dayal Nagar, Gwalior - MPPCB",17-06-2024 02:00:00,26.259242,78.216432,OZONE,51,114,79
India,Madhya Pradesh,Gwalior,"Maharaj Bada, Gwalior - MPPCB",17-06-2024 02:00:00,26.200388,78.147714,NO2,12,37,19
India,Madhya Pradesh,Indore,"Maguda Nagar, Indore - IMC",17-06-2024 02:00:00,22.7524,75.8872,PM10,NA,NA,NA
India,Madhya Pradesh,Indore,"Maguda Nagar, Indore - IMC",17-06-2024 02:00:00,22.7524,75.8872,NH3,1,1,1
India,Madhya Pradesh,Indore,"Maguda Nagar, Indore - IMC",17-06-2024 02:00:00,22.7524,75.8872,SO2,27,38,32
India,Madhya Pradesh,Indore,"Maguda Nagar, Indore - IMC",17-06-2024 02:00:00,22.7524,75.8872,CO,18,29,21
India,Madhya Pradesh,Indore,"Maguda Nagar, Indore - IMC",17-06-2024 02:00:00,22.7524,75.8872,OZONE,1,6,3
India,Madhya Pradesh,Indore,"Regional Park, Indore - IMC",17-06-2024 02:00:00,22.6780,75.8559,PM10,19,63,32
India,Madhya Pradesh,Indore,"Residency Area, Indore - IMC",17-06-2024 02:00:00,22.7084,75.8815,SO2,19,22,21
India,Madhya Pradesh,Jabalpur,"Govindh Bhavan Colony, Jabalpur - JMC",17-06-2024 02:00:00,23.163174,79.973061,OZONE,NA,NA,NA
India,Madhya Pradesh,Jabalpur,"Marhatal, Jabalpur - MPPCB",17-06-2024 02:00:00,23.168606,79.932247,OZONE,23,49,35
India,Madhya Pradesh,Katni,"Gole Bazar, Katni - MPPCB",17-06-2024 02:00:00,23.50016,80.23284,PM10,55,108,80
India,Madhya Pradesh,Maihar,"Sahilara, Maihar - KJS Cements",17-06-2024 02:00:00,24.2613009,80.7231783,PM10,14,67,34
India,Madhya Pradesh,Maihar,"Sahilara, Maihar - KJS Cements",17-06-2024 02:00:00,24.2613009,80.7231783,CO,32,39,37
India,Madhya Pradesh,Pithampur,"Sector-2 Industrial Area, Pithampur - MPPCB",17-06-2024 02:00:00,22.624758,75.675238,CO,34,56,46
India,Madhya Pradesh,Sagar,"Civil Lines, Sagar - MPPCB",17-06-2024 02:00:00,23.838586,78.759431,SO2,1,5,2
India,Madhya Pradesh,Satna,"Bandhavgar Colony, Satna - Birla Cement",17-06-2024 02:00:00,24.58434363,80.8549414,PM10,28,54,38
India,Madhya Pradesh,Ujjain,"Mahakaleshwar Temple, Ujjain - MPPCB",17-06-2024 02:00:00,23.182719 ,75.768218 ,PM10,50,107,84
India,Madhya Pradesh,Ujjain,"Mahakaleshwar Temple, Ujjain - MPPCB",17-06-2024 02:00:00,23.182719 ,75.768218 ,NH3,3,20,8
India,Madhya Pradesh,Ujjain,"Mahakaleshwar Temple, Ujjain - MPPCB",17-06-2024 02:00:00,23.182719 ,75.768218 ,OZONE,67,75,73
India,Maharashtra,Ahmednagar,"Tarakpur, Ahmednagar - MPCB",17-06-2024 02:00:00,19.10122,74.73339,NO2,9,32,17
India,Maharashtra,Akola,"Ramdaspeth, Akola - MPCB",17-06-2024 02:00:00,20.719516,77.000253,PM2.5,14,72,30
India,Maharashtra,Akola,"Ramdaspeth, Akola - MPCB",17-06-2024 02:00:00,20.719516,77.000253,PM10,24,99,50
India,Maharashtra,Amravati,"Shivneri Colony, Amravati - MPCB",17-06-2024 02:00:00,20.9402359,77.7895248,PM10,30,90,47
