country,state,city,station,last_update,latitude,longitude,pollutant_id,pollutant_min,pollutant_max,pollutant_avg
India,Andhra_Pradesh,Amaravati,"Secretariat, Amaravati - APPCB",21-05-2024 10:00:00,16.5150833,80.5181667,NO2,4,11,8
India,Andhra_Pradesh,Anantapur,"Gulzarpet, Anantapur - APPCB",21-05-2024 10:00:00,14.675886,77.593027,CO,20,54,20
India,Andhra_Pradesh,Kadapa,"Yerramukkapalli, Kadapa - APPCB",21-05-2024 10:00:00,14.465052,78.824187,SO2,NA,NA,NA
India,Andhra_Pradesh,Kadapa,"Yerramukkapalli, Kadapa - APPCB",21-05-2024 10:00:00,14.465052,78.824187,OZONE,10,10,10
India,Andhra_Pradesh,Rajamahendravaram,"Anand Kala Kshetram, Rajamahendravaram - APPCB",21-05-2024 10:00:00,16.9872867,81.7363176,NH3,2,4,3
India,Andhra_Pradesh,Rajamahendravaram,"Anand Kala Kshetram, Rajamahendravaram - APPCB",21-05-2024 10:00:00,16.9872867,81.7363176,OZONE,2,35,21
India,Andhra_Pradesh,Tirupati,"Tirumala, Tirupati - APPCB",21-05-2024 10:00:00,13.67,79.35,PM10,16,76,45
India,Andhra_Pradesh,Tirupati,"Tirumala, Tirupati - APPCB",21-05-2024 10:00:00,13.67,79.35,SO2,1,13,7
India,Andhra_Pradesh,Tirupati,"Tirumala, Tirupati - APPCB",21-05-2024 10:00:00,13.67,79.35,OZONE,6,30,10
India,Andhra_Pradesh,Tirupati,"Vaikuntapuram, Tirupati - APPCB",21-05-2024 10:00:00,13.615387,79.409230,OZONE,3,30,14
India,Andhra_Pradesh,Vijayawada,"HB Colony, Vijayawada - APPCB",21-05-2024 10:00:00,16.536107,80.594233,CO,34,35,34
India,Andhra_Pradesh,Vijayawada,"Rajiv Gandhi Park, Vijayawada - APPCB",21-05-2024 10:00:00,16.509717,80.612222,NO2,28,37,33
India,Andhra_Pradesh,Vijayawada,"Rajiv Gandhi Park, Vijayawada - APPCB",21-05-2024 10:00:00,16.509717,80.612222,NH3,4,5,5
India,Andhra_Pradesh,Vijayawada,"Rajiv Nagar, Vijayawada - APPCB",21-05-2024 10:00:00,16.554731,80.649110,SO2,13,18,15
India,Arunachal_Pradesh,Naharlagun,"Naharlagun, Naharlagun - APSPCB",21-05-2024 10:00:00,27.103358,93.679645,SO2,NA,NA,NA
India,Assam,Byrnihat,"Central Academy for SFS, Byrnihat - PCBA",21-05-2024 10:00:00,26.071318,91.87488,NH3,16,22,18
India,Assam,Guwahati,"IITG, Guwahati - PCBA",21-05-2024 10:00:00,26.2028636,91.70046436,CO,8,14,11
India,Assam,Guwahati,"IITG, Guwahati - PCBA",21-05-2024 10:00:00,26.2028636,91.70046436,OZONE,7,35,13
India,Assam,Guwahati,"LGBI Airport, Guwahati - PCBA",21-05-2024 10:00:00,26.10887,91.589544,PM2.5,3,485,123
India,Assam,Guwahati,"LGBI Airport, Guwahati - PCBA",21-05-2024 10:00:00,26.10887,91.589544,NO2,10,60,28
India,Assam,Guwahati,"LGBI Airport, Guwahati - PCBA",21-05-2024 10:00:00,26.10887,91.589544,NH3,1,5,3
India,Assam,Nagaon,"Christianpatty, Nagaon - PCBA",21-05-2024 10:00:00,26.349082,92.68449,PM2.5,55,137,79
India,Assam,Nagaon,"Christianpatty, Nagaon - PCBA",21-05-2024 10:00:00,26.349082,92.68449,NH3,1,2,2
India,Assam,Nagaon,"Christianpatty, Nagaon - PCBA",21-05-2024 10:00:00,26.349082,92.68449,OZONE,3,98,35
India,Bihar,Aurangabad,"Gurdeo Nagar, Aurangabad - BSPCB",21-05-2024 10:00:00,24.75746,84.366208,NO2,2,11,5
India,Bihar,Bhagalpur,"DM Office_Kachari Chowk, Bhagalpur - BSPCB",21-05-2024 10:00:00,25.251013,86.989001,SO2,31,59,48
India,Bihar,Bhagalpur,"DM Office_Kachari Chowk, Bhagalpur - BSPCB",21-05-2024 10:00:00,25.251013,86.989001,CO,36,82,52
India,Bihar,Buxar,"Charitra Van, Buxar - BSPCB (Formerly known as Central Jail)",21-05-2024 10:00:00,25.567520,83.966379,PM2.5,NA,NA,NA
India,Bihar,Buxar,"Charitra Van, Buxar - BSPCB (Formerly known as Central Jail)",21-05-2024 10:00:00,25.567520,83.966379,NH3,3,3,3
India,Bihar,Gaya,"Collectorate, Gaya - BSPCB",21-05-2024 10:00:00,24.7955,84.9994,CO,50,118,94
India,Bihar,Gaya,"Kareemganj, Gaya - BSPCB",21-05-2024 10:00:00,24.792403,84.992416,NO2,16,17,16
India,Bihar,Gaya,"Kareemganj, Gaya - BSPCB",21-05-2024 10:00:00,24.792403,84.992416,CO,10,22,19
India,Bihar,Gaya,"SFTI Kusdihra, Gaya - BSPCB",21-05-2024 10:00:00,24.762518,84.982348,NO2,16,32,22
India,Bihar,Gaya,"SFTI Kusdihra, Gaya - BSPCB",21-05-2024 10:00:00,24.762518,84.982348,CO,16,36,27
India,Bihar,Hajipur,"Industrial Area, Hajipur - BSPCB",21-05-2024 10:00:00,25.697189,85.245900,PM10,54,410,95
India,Bihar,Hajipur,"Industrial Area, Hajipur - BSPCB",21-05-2024 10:00:00,25.697189,85.245900,NH3,16,20,18
India,Bihar,Hajipur,"Industrial Area, Hajipur - BSPCB",21-05-2024 10:00:00,25.697189,85.245900,CO,18,35,32
India,Bihar,Katihar,"Mirchaibari, Katihar - BSPCB",21-05-2024 10:00:00,25.560083,87.553265,PM2.5,13,38,24
India,Bihar,Katihar,"Mirchaibari, Katihar - BSPCB",21-05-2024 10:00:00,25.560083,87.553265,OZONE,4,16,6
India,Bihar,Kishanganj,"SDM Office_Khagra, Kishanganj - BSPCB",21-05-2024 10:00:00,26.0881305,87.93840336,CO,12,12,12
India,Bihar,Motihari,"Gandak Colony, Motihari - BSPCB",21-05-2024 10:00:00,26.63086,84.90051,CO,1,64,5
India,Bihar,Munger,"Town Hall, Munger - BSPCB",21-05-2024 10:00:00,25.376776,86.471523,NO2,NA,NA,NA
India,Bihar,Muzaffarpur,"Buddha Colony, Muzaffarpur - BSPCB",21-05-2024 10:00:00,26.11442,85.39813,PM2.5,44,84,58
India,Bihar,Muzaffarpur,"Buddha Colony, Muzaffarpur - BSPCB",21-05-2024 10:00:00,26.11442,85.39813,PM10,47,99,65
India,Bihar,Muzaffarpur,"Buddha Colony, Muzaffarpur - BSPCB",21-05-2024 10:00:00,26.11442,85.39813,NH3,8,11,9
India,Bihar,Muzaffarpur,"MIT-Daudpur Kothi, Muzaffarpur - BSPCB",21-05-2024 10:00:00,26.1403345,85.3650192,OZONE,6,29,13
India,Bihar,Patna,"DRM Office Danapur, Patna - BSPCB",21-05-2024 10:00:00,25.586562,85.043586,PM2.5,23,249,100
India,Bihar,Patna,"DRM Office Danapur, Patna - BSPCB",21-05-2024 10:00:00,25.586562,85.043586,PM10,56,207,109
India,Bihar,Patna,"DRM Office Danapur, Patna - BSPCB",21-05-2024 10:00:00,25.586562,85.043586,NO2,10,19,13
India,Bihar,Patna,"Govt. High School Shikarpur, Patna - BSPCB",21-05-2024 10:00:00,25.592539,85.227158,CO,34,45,39
India,Bihar,Patna,"Muradpur, Patna - BSPCB",21-05-2024 10:00:00,25.619651,85.147382,OZONE,NA,NA,NA
India,Bihar,Patna,"Samanpura, Patna - BSPCB",21-05-2024 10:00:00,25.596727,85.085624,PM10,69,336,146
India,Bihar,Purnia,"Mariam Nagar, Purnia - BSPCB",21-05-2024 10:00:00,25.366336,87.117468,NH3,NA,NA,NA
India,Bihar,Purnia,"Mariam Nagar, Purnia - BSPCB",21-05-2024 10:00:00,25.366336,87.117468,OZONE,NA,NA,NA
India,Bihar,Samastipur,"DM Office_Kasipur, Samastipur - BSPCB",21-05-2024 10:00:00,25.859655,85.77944,PM10,NA,NA,NA
India,Bihar,Samastipur,"DM Office_Kasipur, Samastipur - BSPCB",21-05-2024 10:00:00,25.859655,85.77944,NO2,NA,NA,NA
India,Bihar,Sasaram,"Dada Peer, Sasaram - BSPCB",21-05-2024 10:00:00,24.952822,84.002396,OZONE,25,93,43
India,Chandigarh,Chandigarh,"Sector-25, Chandigarh - CPCC",21-05-2024 10:00:00,30.751462,76.762879,OZONE,1,50,17
India,Chhattisgarh,Bhilai,"32Bungalows, Bhilai - CECB",21-05-2024 10:00:00,21.194815,81.314770,PM2.5,2,62,36
India,Chhattisgarh,Bhilai,"Civic Center, Bhilai - Bhilai Steel Plant",21-05-2024 10:00:00,21.185571,81.343175,SO2,8,12,10
India,Chhattisgarh,Bhilai,"Hathkhoj, Bhilai - CECB",21-05-2024 10:00:00,21.224231,81.408350,SO2,10,17,13
India,Chhattisgarh,Bilaspur,"Mangala, Bilaspur - NTPC",21-05-2024 10:00:00,22.08815,82.13737,NO2,15,18,17
India,Chhattisgarh,Bilaspur,"Mangala, Bilaspur - NTPC",21-05-2024 10:00:00,22.08815,82.13737,SO2,3,39,10
India,Chhattisgarh,Korba,"Rampur, Korba - CECB",21-05-2024 10:00:00,22.368195,82.746431,CO,NA,NA,NA
India,Chhattisgarh,Korba,"Urja Nagar, Korba - CECB",21-05-2024 10:00:00,22.348441,82.549611,NO2,55,71,63
India,Chhattisgarh,Korba,"Urja Nagar, Korba - CECB",21-05-2024 10:00:00,22.348441,82.549611,CO,NA,NA,NA
India,Chhattisgarh,Kunjemura,"OP Jindal School, Kunjemura - CECB",21-05-2024 10:00:00,22.126650,83.483212,NH3,1,4,3
India,Chhattisgarh,Kunjemura,"OP Jindal School, Kunjemura - CECB",21-05-2024 10:00:00,22.126650,83.483212,CO,24,48,37
India,Chhattisgarh,Raipur,"AIIMS, Raipur - CECB",21-05-2024 10:00:00,21.258815,81.578979,SO2,NA,NA,NA
India,Chhattisgarh,Raipur,"Bhatagaon New ISBT, Raipur - CECB",21-05-2024 10:00:00,21.219665,81.630094,PM10,18,74,36
India,Chhattisgarh,Raipur,"Krishak Nagar, Raipur - CECB",21-05-2024 10:00:00,21.237755,81.705301,CO,20,44,22
India,Chhattisgarh,Tumidih,"OP Jindal Industrial Park, Tumidih - CECB",21-05-2024 10:00:00,22.06631475,83.33820077,NO2,NA,NA,NA
India,Delhi,Delhi,"Alipur, Delhi - DPCC",21-05-2024 10:00:00,28.815329,77.153010,CO,38,74,59
India,Delhi,Delhi,"Alipur, Delhi - DPCC",21-05-2024 10:00:00,28.815329,77.153010,OZONE,17,181,40
India,Delhi,Delhi,"Anand Vihar, Delhi - DPCC",21-05-2024 10:00:00,28.647622,77.3158090,NO2,35,123,75
India,Delhi,Delhi,"Anand Vihar, Delhi - DPCC",21-05-2024 10:00:00,28.647622,77.3158090,OZONE,8,88,17
India,Delhi,Delhi,"Ashok Vihar, Delhi - DPCC",21-05-2024 10:00:00,28.695381,77.181665,NH3,7,21,17
India,Delhi,Delhi,"Aya Nagar, Delhi - IMD",21-05-2024 10:00:00,28.4706914,77.1099364,NO2,NA,NA,NA
India,Delhi,Delhi,"Bawana, Delhi - DPCC",21-05-2024 10:00:00,28.776200,77.051074,NO2,4,44,21
India,Delhi,Delhi,"CRRI Mathura Road, Delhi - IMD",21-05-2024 10:00:00,28.5512005,77.2735737,NO2,3,22,12
India,Delhi,Delhi,"Chandni Chowk, Delhi - IITM",21-05-2024 10:00:00,28.656756,77.227234,PM10,155,464,254
India,Delhi,Delhi,"Chandni Chowk, Delhi - IITM",21-05-2024 10:00:00,28.656756,77.227234,SO2,12,75,37
India,Delhi,Delhi,"DTU, Delhi - CPCB",21-05-2024 10:00:00,28.7500499,77.1112615,CO,6,57,41
India,Delhi,Delhi,"DTU, Delhi - CPCB",21-05-2024 10:00:00,28.7500499,77.1112615,OZONE,26,58,29
India,Delhi,Delhi,"Dr. Karni Singh Shooting Range, Delhi - DPCC",21-05-2024 10:00:00,28.498571,77.264840,SO2,20,57,31
India,Delhi,Delhi,"Dwarka-Sector 8, Delhi - DPCC ",21-05-2024 10:00:00,28.5710274,77.0719006,PM10,157,435,249
India,Delhi,Delhi,"IGI Airport (T3), Delhi - IMD",21-05-2024 10:00:00,28.5627763,77.1180053,CO,20,80,47
India,Delhi,Delhi,"IGI Airport (T3), Delhi - IMD",21-05-2024 10:00:00,28.5627763,77.1180053,OZONE,4,53,13
India,Delhi,Delhi,"IHBAS, Dilshad Garden, Delhi - CPCB",21-05-2024 10:00:00,28.6811736,77.3025234,NH3,2,7,4
India,Delhi,Delhi,"ITO, Delhi - CPCB",21-05-2024 10:00:00,28.628624,77.241060,NO2,7,112,55
India,Delhi,Delhi,"Jahangirpuri, Delhi - DPCC",21-05-2024 10:00:00,28.732820,77.170633,PM2.5,52,348,194
India,Delhi,Delhi,"Jawaharlal Nehru Stadium, Delhi - DPCC",21-05-2024 10:00:00,28.580280,77.233829,PM2.5,23,280,97
India,Delhi,Delhi,"Jawaharlal Nehru Stadium, Delhi - DPCC",21-05-2024 10:00:00,28.580280,77.233829,PM10,126,312,193
India,Delhi,Delhi,"Jawaharlal Nehru Stadium, Delhi - DPCC",21-05-2024 10:00:00,28.580280,77.233829,SO2,12,54,26
India,Delhi,Delhi,"Jawaharlal Nehru Stadium, Delhi - DPCC",21-05-2024 10:00:00,28.580280,77.233829,CO,34,103,58
India,Delhi,Delhi,"Lodhi Road, Delhi - IITM",21-05-2024 10:00:00,28.588333,77.221667,PM2.5,61,214,125
India,Delhi,Delhi,"Lodhi Road, Delhi - IMD",21-05-2024 10:00:00,28.5918245,77.2273074,OZONE,3,59,11
India,Delhi,Delhi,"Major Dhyan Chand National Stadium, Delhi - DPCC",21-05-2024 10:00:00,28.611281,77.237738,NO2,18,147,66
India,Delhi,Delhi,"Major Dhyan Chand National Stadium, Delhi - DPCC",21-05-2024 10:00:00,28.611281,77.237738,NH3,8,12,10
India,Delhi,Delhi,"Major Dhyan Chand National Stadium, Delhi - DPCC",21-05-2024 10:00:00,28.611281,77.237738,OZONE,2,246,22
India,Delhi,Delhi,"Mundka, Delhi - DPCC",21-05-2024 10:00:00,28.684678,77.076574,PM10,177,424,270
India,Delhi,Delhi,"Mundka, Delhi - DPCC",21-05-2024 10:00:00,28.684678,77.076574,NH3,4,7,6
India,Delhi,Delhi,"Mundka, Delhi - DPCC",21-05-2024 10:00:00,28.684678,77.076574,SO2,7,45,20
India,Delhi,Delhi,"Mundka, Delhi - DPCC",21-05-2024 10:00:00,28.684678,77.076574,CO,31,82,68
India,Delhi,Delhi,"Najafgarh, Delhi - DPCC",21-05-2024 10:00:00,28.570173,76.933762,PM10,101,289,168
India,Delhi,Delhi,"Narela, Delhi - DPCC",21-05-2024 10:00:00,28.822836,77.101981,CO,26,84,56
India,Delhi,Delhi,"North Campus, DU, Delhi - IMD",21-05-2024 10:00:00,28.6573814,77.1585447,CO,18,112,65
India,Delhi,Delhi,"Okhla Phase-2, Delhi - DPCC",21-05-2024 10:00:00,28.530785,77.271255,NO2,27,152,77
India,Delhi,Delhi,"Punjabi Bagh, Delhi - DPCC",21-05-2024 10:00:00,28.674045,77.131023,OZONE,4,52,9
India,Delhi,Delhi,"Pusa, Delhi - DPCC",21-05-2024 10:00:00,28.639652,77.146275,NO2,40,150,90
India,Delhi,Delhi,"Pusa, Delhi - DPCC",21-05-2024 10:00:00,28.639652,77.146275,OZONE,8,99,15
India,Delhi,Delhi,"Pusa, Delhi - IMD",21-05-2024 10:00:00,28.636110,77.173332,CO,30,88,72
India,Delhi,Delhi,"Rohini, Delhi - DPCC",21-05-2024 10:00:00,28.732528,77.119920,SO2,14,53,30
India,Delhi,Delhi,"Sirifort, Delhi - CPCB",21-05-2024 10:00:00,28.5504249,77.2159377,NO2,30,61,46
India,Delhi,Delhi,"Sri Aurobindo Marg, Delhi - DPCC",21-05-2024 10:00:00,28.531346,77.190156,NO2,6,80,32
India,Delhi,Delhi,"Vivek Vihar, Delhi - DPCC",21-05-2024 10:00:00,28.672342,77.315260,OZONE,1,182,14
India,Gujarat,Ahmedabad,"Chandkheda, Ahmedabad - IITM",21-05-2024 10:00:00,23.107969,72.574648,NH3,11,18,16
India,Gujarat,Ahmedabad,"Raikhad, Ahmedabad - IITM",21-05-2024 10:00:00,23.020509,72.579261,OZONE,12,78,21
India,Gujarat,Ahmedabad,"Rakhial, Ahmedabad - IITM",21-05-2024 10:00:00,23.016834,72.625775,PM2.5,45,202,72
India,Gujarat,Ahmedabad,"SVPI Airport Hansol, Ahmedabad - IITM",21-05-2024 10:00:00,23.076793,72.627874,OZONE,13,51,18
India,Gujarat,Ahmedabad,"Sardar Vallabhbhai Patel Stadium, Ahmedabad - IITM",21-05-2024 10:00:00,23.043070,72.562968,SO2,11,27,18
India,Gujarat,Ankleshwar,"GIDC, Ankleshwar - GPCB",21-05-2024 10:00:00,21.613267,73.010555,PM10,NA,NA,NA
India,Gujarat,Gandhinagar,"Sector-10, Gandhinagar - GPCB",21-05-2024 10:00:00,23.221714,72.654328,NO2,13,14,14
India,Gujarat,Vapi,"Phase-1 GIDC, Vapi - GPCB",21-05-2024 10:00:00,20.362421,72.918013,NO2,6,7,7
India,Haryana,Ambala,"Patti Mehar, Ambala - HSPCB",21-05-2024 10:00:00,30.379589,76.778328,OZONE,38,78,46
India,Haryana,Bahadurgarh,"Arya Nagar, Bahadurgarh - HSPCB",21-05-2024 10:00:00,28.6701,76.9254,PM10,NA,NA,NA
India,Haryana,Ballabgarh,"Nathu Colony, Ballabgarh - HSPCB",21-05-2024 10:00:00,28.3419248,77.319699,PM10,138,357,219
India,Haryana,Ballabgarh,"Nathu Colony, Ballabgarh - HSPCB",21-05-2024 10:00:00,28.3419248,77.319699,NO2,7,13,12
India,Haryana,Ballabgarh,"Nathu Colony, Ballabgarh - HSPCB",21-05-2024 10:00:00,28.3419248,77.319699,NH3,1,2,2
India,Haryana,Ballabgarh,"Nathu Colony, Ballabgarh - HSPCB",21-05-2024 10:00:00,28.3419248,77.319699,SO2,5,133,34
India,Haryana,Bhiwani,"H.B. Colony, Bhiwani - HSPCB",21-05-2024 10:00:00,28.806223,76.141105,NH3,3,6,6
India,Haryana,Bhiwani,"H.B. Colony, Bhiwani - HSPCB",21-05-2024 10:00:00,28.806223,76.141105,CO,6,119,37
India,Haryana,Charkhi Dadri,"Mini Secretariat, Charkhi Dadri - HSPCB",21-05-2024 10:00:00,28.593883,76.270653,PM10,46,425,95
India,Haryana,Dharuhera,"Municipal Corporation Office, Dharuhera -  HSPCB",21-05-2024 10:00:00,28.206800,76.799700,CO,15,62,50
India,Haryana,Faridabad,"New Industrial Town, Faridabad - HSPCB",21-05-2024 10:00:00,28.39072,77.30059,PM10,182,471,307
India,Haryana,Faridabad,"New Industrial Town, Faridabad - HSPCB",21-05-2024 10:00:00,28.39072,77.30059,CO,2,112,11
India,Haryana,Faridabad,"Sector 11, Faridabad - HSPCB",21-05-2024 10:00:00,28.376058,77.315741,OZONE,10,192,18
India,Haryana,Faridabad,"Sector 30, Faridabad - HSPCB",21-05-2024 10:00:00,28.4417,77.3217,SO2,5,6,6
India,Haryana,Faridabad,"Sector- 16A, Faridabad - HSPCB",21-05-2024 10:00:00,28.4088421,77.3099081,OZONE,14,14,14
India,Haryana,Fatehabad,"Huda Sector, Fatehabad - HSPCB",21-05-2024 10:00:00,29.503664,75.467934,NH3,NA,NA,NA
India,Haryana,Fatehabad,"Huda Sector, Fatehabad - HSPCB",21-05-2024 10:00:00,29.503664,75.467934,SO2,NA,NA,NA
India,Haryana,Gurugram,"NISE Gwal Pahari, Gurugram - IMD",21-05-2024 10:00:00,28.422681,77.148944,NO2,NA,NA,NA
India,Haryana,Gurugram,"NISE Gwal Pahari, Gurugram - IMD",21-05-2024 10:00:00,28.422681,77.148944,CO,64,96,95
India,Haryana,Gurugram,"Sector-51, Gurugram - HSPCB",21-05-2024 10:00:00,28.4227,77.0667,SO2,2,105,8
India,Haryana,Gurugram,"Sector-51, Gurugram - HSPCB",21-05-2024 10:00:00,28.4227,77.0667,OZONE,15,87,31
India,Haryana,Gurugram,"Teri Gram, Gurugram - HSPCB",21-05-2024 10:00:00,28.4275,77.1465,SO2,4,9,6
India,Haryana,Gurugram,"Teri Gram, Gurugram - HSPCB",21-05-2024 10:00:00,28.4275,77.1465,CO,6,42,34
India,Haryana,Gurugram,"Vikas Sadan, Gurugram - HSPCB",21-05-2024 10:00:00,28.4501238,77.0263051,SO2,6,77,27
India,Haryana,Hisar,"Urban Estate-II, Hisar - HSPCB",21-05-2024 10:00:00,29.140560,75.744941,PM2.5,93,306,225
India,Haryana,Hisar,"Urban Estate-II, Hisar - HSPCB",21-05-2024 10:00:00,29.140560,75.744941,PM10,105,191,132
India,Haryana,Hisar,"Urban Estate-II, Hisar - HSPCB",21-05-2024 10:00:00,29.140560,75.744941,NO2,18,32,25
India,Haryana,Kaithal,"Rishi Nagar, Kaithal - HSPCB",21-05-2024 10:00:00,29.8006,76.4155,PM10,143,259,184
India,Haryana,Kaithal,"Rishi Nagar, Kaithal - HSPCB",21-05-2024 10:00:00,29.8006,76.4155,NO2,24,27,25
India,Haryana,Kaithal,"Rishi Nagar, Kaithal - HSPCB",21-05-2024 10:00:00,29.8006,76.4155,SO2,2,122,31
India,Haryana,Kurukshetra,"Sector-7, Kurukshetra - HSPCB",21-05-2024 10:00:00,29.966942,76.875879,NO2,16,20,19
India,Haryana,Kurukshetra,"Sector-7, Kurukshetra - HSPCB",21-05-2024 10:00:00,29.966942,76.875879,SO2,2,3,2
India,Haryana,Manesar,"Sector-2 IMT, Manesar - HSPCB",21-05-2024 10:00:00,28.360699,76.936090,NO2,15,22,19
India,Haryana,Manesar,"Sector-2 IMT, Manesar - HSPCB",21-05-2024 10:00:00,28.360699,76.936090,NH3,1,4,3
India,Haryana,Manesar,"Sector-2 IMT, Manesar - HSPCB",21-05-2024 10:00:00,28.360699,76.936090,SO2,1,24,7
India,Haryana,Narnaul,"Shastri Nagar, Narnaul - HSPCB",21-05-2024 10:00:00,28.060249,76.113115,PM2.5,84,194,117
India,Haryana,Palwal,"Shyam Nagar, Palwal - HSPCB",21-05-2024 10:00:00,28.1485564,77.3320667,PM10,94,159,122
India,Haryana,Panipat,"Sector-18, Panipat - HSPCB",21-05-2024 10:00:00,29.432304,76.972765,CO,24,26,25
India,Haryana,Sirsa,"F-Block, Sirsa - HSPCB",21-05-2024 10:00:00,29.536400,75.015800,SO2,7,100,88
India,Haryana,Sonipat,"Murthal, Sonipat - HSPCB",21-05-2024 10:00:00,29.027200,77.062100,NO2,37,44,40
India,Haryana,Yamuna Nagar,"Gobind Pura, Yamuna Nagar - HSPCB",21-05-2024 10:00:00,30.1480566,77.2893471,CO,27,62,35
India,Himachal Pradesh,Baddi,"HIMUDA Complex Phase-1, Baddi - HPPCB",21-05-2024 10:00:00,30.943887,76.801991,OZONE,82,237,153
India,Jharkhand,Dhanbad,"Kalakusuma, Dhanbad - DMC",21-05-2024 10:00:00,23.811548,86.481238,NO2,NA,NA,NA
India,Jharkhand,Dhanbad,"Kalakusuma, Dhanbad - DMC",21-05-2024 10:00:00,23.811548,86.481238,SO2,NA,NA,NA
India,Jharkhand,Dhanbad,"Sardar Patel Nagar, Dhanbad - JSPCB",21-05-2024 10:00:00,23.80569,86.44268,PM2.5,NA,NA,NA
India,Jharkhand,Dhanbad,"Sardar Patel Nagar, Dhanbad - JSPCB",21-05-2024 10:00:00,23.80569,86.44268,SO2,2,22,8
India,Jharkhand,Dhanbad,"Sardar Patel Nagar, Dhanbad - JSPCB",21-05-2024 10:00:00,23.80569,86.44268,OZONE,48,115,59
India,Jharkhand,Jorapokhar,"Tata Stadium, Jorapokhar - JSPCB",21-05-2024 10:00:00,23.707909,86.414670,CO,10,139,74
India,Karnataka,Bagalkot,"Vidayagiri, Bagalkot - KSPCB",21-05-2024 10:00:00,16.172806,75.659694,NH3,1,2,1
India,Karnataka,Bengaluru,"Hebbal, Bengaluru - KSPCB",21-05-2024 10:00:00,13.029152,77.585901,OZONE,7,66,8
India,Karnataka,Bengaluru,"Hombegowda Nagar, Bengaluru - KSPCB",21-05-2024 10:00:00,12.938539,77.590100,SO2,2,4,3
India,Karnataka,Bengaluru,"Jayanagar 5th Block, Bengaluru - KSPCB",21-05-2024 10:00:00,12.920984,77.584908,NH3,2,3,2
India,Karnataka,Bengaluru,"Kasturi Nagar, Bengaluru - KSPCB",21-05-2024 10:00:00,13.003872,77.664217,OZONE,8,37,15
India,Karnataka,Bengaluru,"RVCE-Mailasandra, Bengaluru - KSPCB",21-05-2024 10:00:00,12.921418,77.502466,PM10,6,152,38
India,Karnataka,Bengaluru,"RVCE-Mailasandra, Bengaluru - KSPCB",21-05-2024 10:00:00,12.921418,77.502466,NO2,16,17,17
India,Karnataka,Bengaluru,"RVCE-Mailasandra, Bengaluru - KSPCB",21-05-2024 10:00:00,12.921418,77.502466,OZONE,39,39,39
India,Karnataka,Bengaluru,"Sanegurava Halli, Bengaluru - KSPCB",21-05-2024 10:00:00,12.990328,77.5431385,PM10,33,101,42
India,Karnataka,Bengaluru,"Shivapura_Peenya, Bengaluru - KSPCB",21-05-2024 10:00:00,13.0246342,77.5080115,NO2,15,16,15
India,Karnataka,Bengaluru,"Shivapura_Peenya, Bengaluru - KSPCB",21-05-2024 10:00:00,13.0246342,77.5080115,OZONE,53,56,55
India,Karnataka,Bengaluru,"Silk Board, Bengaluru - KSPCB",21-05-2024 10:00:00,12.917348,77.622813,NH3,1,1,1
India,Karnataka,Bengaluru,"Silk Board, Bengaluru - KSPCB",21-05-2024 10:00:00,12.917348,77.622813,CO,10,14,12
India,Karnataka,Bidar,"Naubad, Bidar - KSPCB",21-05-2024 10:00:00,17.930306,77.482194,NH3,3,3,3
India,Karnataka,Bidar,"Naubad, Bidar - KSPCB",21-05-2024 10:00:00,17.930306,77.482194,OZONE,14,36,17
India,Karnataka,Chikkaballapur,"Chikkaballapur Rural, Chikkaballapur - KSPCB",21-05-2024 10:00:00,13.428828,77.731418,CO,12,38,19
India,Karnataka,Davanagere,"Devaraj Urs Badavane, Davanagere - KSPCB",21-05-2024 10:00:00,14.475800,75.905200,PM2.5,NA,NA,NA
India,Karnataka,Dharwad,"Kalabhavan, Dharwad - KSPCB",21-05-2024 10:00:00,15.459706,75.008381,OZONE,2,39,17
India,Karnataka,Gadag,"Panchal Nagar, Gadag - KSPCB",21-05-2024 10:00:00,15.411456,75.638133,NO2,5,30,15
India,Karnataka,Hassan,"B.Katihalli, Hassan - KSPCB",21-05-2024 10:00:00,13.008556,76.125258,PM2.5,9,48,21
India,Karnataka,Hassan,"B.Katihalli, Hassan - KSPCB",21-05-2024 10:00:00,13.008556,76.125258,CO,1,4,1
India,Karnataka,Hubballi,"Deshpande Nagar, Hubballi - KSPCB",21-05-2024 10:00:00,15.351773,75.140726,NO2,25,27,26
India,Karnataka,Hubballi,"Deshpande Nagar, Hubballi - KSPCB",21-05-2024 10:00:00,15.351773,75.140726,NH3,4,5,5
India,Karnataka,Hubballi,"Deshpande Nagar, Hubballi - KSPCB",21-05-2024 10:00:00,15.351773,75.140726,CO,1,4,1
India,Karnataka,Hubballi,"Lingaraj Nagar, Hubballi - KSPCB",21-05-2024 10:00:00,15.3714823,75.1160168,PM2.5,33,56,42
India,Karnataka,Hubballi,"Lingaraj Nagar, Hubballi - KSPCB",21-05-2024 10:00:00,15.3714823,75.1160168,OZONE,17,49,25
India,Karnataka,Kalaburagi,"Mahatma Basaveswar Colony, Kalaburgi - KSPCB",21-05-2024 10:00:00,17.336318,76.847397,SO2,NA,NA,NA
India,Karnataka,Koppal,"Diwator Nagar, Koppal - KSPCB",21-05-2024 10:00:00,15.347630,76.181767,CO,57,58,58
India,Karnataka,Madikeri,"Stuart Hill, Madikeri - KSPCB",21-05-2024 10:00:00,12.415911,75.735050,SO2,4,4,4
India,Karnataka,Mangalore,"Kadri, Mangalore - KSPCB",21-05-2024 10:00:00,12.889250,74.853000,NH3,NA,NA,NA
India,Karnataka,Mysuru,"Hebbal 1st Stage, Mysuru - KSPCB",21-05-2024 10:00:00,12.21041,76.37376,PM10,16,56,31
India,Karnataka,Mysuru,"Hebbal 1st Stage, Mysuru - KSPCB",21-05-2024 10:00:00,12.21041,76.37376,SO2,1,4,2
India,Karnataka,Mysuru,"Hebbal 1st Stage, Mysuru - KSPCB",21-05-2024 10:00:00,12.21041,76.37376,OZONE,19,40,22
India,Karnataka,Raichur,"Haji Colony, Raichur - KSPCB",21-05-2024 10:00:00,16.208139,77.348417,PM2.5,2,25,14
India,Karnataka,Raichur,"Haji Colony, Raichur - KSPCB",21-05-2024 10:00:00,16.208139,77.348417,NO2,6,28,20
India,Karnataka,Raichur,"Haji Colony, Raichur - KSPCB",21-05-2024 10:00:00,16.208139,77.348417,NH3,1,3,2
India,Karnataka,Raichur,"Haji Colony, Raichur - KSPCB",21-05-2024 10:00:00,16.208139,77.348417,SO2,73,87,78
India,Karnataka,Ramanagara,"Vijay Nagar, Ramanagara - KSPCB",21-05-2024 10:00:00,12.733409,77.298051,SO2,31,49,42
India,Karnataka,Shivamogga,"Vinoba Nagara, Shivamogga - KSPCB",21-05-2024 10:00:00,13.940000,75.555917,PM10,40,65,56
India,Karnataka,Shivamogga,"Vinoba Nagara, Shivamogga - KSPCB",21-05-2024 10:00:00,13.940000,75.555917,CO,9,24,19
India,Karnataka,Udupi,"Brahmagiri, Udupi - KSPCB",21-05-2024 10:00:00,13.34194444,74.74694444,PM10,NA,NA,NA
India,Karnataka,Yadgir,"Collector Office, Yadgir - KSPCB",21-05-2024 10:00:00,16.7602,77.1428,NH3,1,10,3
India,Kerala,Thiruvananthapuram,"Kariavattom, Thiruvananthapuram - Kerala PCB",21-05-2024 10:00:00,8.563700,76.886500,PM10,83,96,88
India,Kerala,Thiruvananthapuram,"Kariavattom, Thiruvananthapuram - Kerala PCB",21-05-2024 10:00:00,8.563700,76.886500,NH3,1,1,1
India,Kerala,Thiruvananthapuram,"Plammoodu, Thiruvananthapuram - Kerala PCB",21-05-2024 10:00:00,8.5149093,76.9435879,CO,11,33,26
India,Kerala,Thrissur,"Corporation Ground, Thrissur - Kerala PCB",21-05-2024 10:00:00,10.532400,76.215900,NO2,7,8,7
India,Madhya Pradesh,Bhopal,"Idgah Hills, Bhopal - MPPCB",21-05-2024 10:00:00,23.264759,77.381568,NH3,3,5,4
India,Madhya Pradesh,Bhopal,"Idgah Hills, Bhopal - MPPCB",21-05-2024 10:00:00,23.264759,77.381568,OZONE,56,100,80
India,Madhya Pradesh,Bhopal,"Paryavaran Parisar, Bhopal - MPPCB",21-05-2024 10:00:00,23.210494,77.425409,NO2,10,145,29
India,Madhya Pradesh,Bhopal,"Paryavaran Parisar, Bhopal - MPPCB",21-05-2024 10:00:00,23.210494,77.425409,SO2,8,13,11
India,Madhya Pradesh,Bhopal,"Paryavaran Parisar, Bhopal - MPPCB",21-05-2024 10:00:00,23.210494,77.425409,OZONE,11,96,80
India,Madhya Pradesh,Bhopal,"T T Nagar, Bhopal - MPPCB",21-05-2024 10:00:00,23.233584,77.400574,NH3,1,5,3
India,Madhya Pradesh,Bhopal,"T T Nagar, Bhopal - MPPCB",21-05-2024 10:00:00,23.233584,77.400574,OZONE,44,99,85
India,Madhya Pradesh,Gwalior,"City Center, Gwalior - MPPCB",21-05-2024 10:00:00,26.203442,78.193251,PM10,81,188,121
India,Madhya Pradesh,Gwalior,"City Center, Gwalior - MPPCB",21-05-2024 10:00:00,26.203442,78.193251,NH3,2,6,4
India,Madhya Pradesh,Gwalior,"Deen Dayal Nagar, Gwalior - MPPCB",21-05-2024 10:00:00,26.259242,78.216432,NO2,9,98,39
India,Madhya Pradesh,Gwalior,"Deen Dayal Nagar, Gwalior - MPPCB",21-05-2024 10:00:00,26.259242,78.216432,NH3,5,9,7
India,Madhya Pradesh,Gwalior,"Deen Dayal Nagar, Gwalior - MPPCB",21-05-2024 10:00:00,26.259242,78.216432,CO,6,68,42
India,Madhya Pradesh,Gwalior,"Maharaj Bada, Gwalior - MPPCB",21-05-2024 10:00:00,26.200388,78.147714,OZONE,45,178,76
India,Madhya Pradesh,Indore,"Chhoti Gwaltoli, Indore - MPPCB",21-05-2024 10:00:00,22.4310,75.5213,PM2.5,42,180,70
India,Madhya Pradesh,Indore,"Chhoti Gwaltoli, Indore - MPPCB",21-05-2024 10:00:00,22.4310,75.5213,NO2,43,162,70
India,Madhya Pradesh,Indore,"Chhoti Gwaltoli, Indore - MPPCB",21-05-2024 10:00:00,22.4310,75.5213,CO,40,116,60
India,Madhya Pradesh,Indore,"Maguda Nagar, Indore - IMC",21-05-2024 10:00:00,22.7524,75.8872,CO,24,40,31
India,Madhya Pradesh,Indore,"Maguda Nagar, Indore - IMC",21-05-2024 10:00:00,22.7524,75.8872,OZONE,36,57,37
India,Madhya Pradesh,Indore,"Regional Park, Indore - IMC",21-05-2024 10:00:00,22.6780,75.8559,OZONE,11,27,12
India,Madhya Pradesh,Indore,"Residency Area, Indore - IMC",21-05-2024 10:00:00,22.7084,75.8815,NO2,34,60,42
India,Madhya Pradesh,Indore,"Residency Area, Indore - IMC",21-05-2024 10:00:00,22.7084,75.8815,SO2,26,33,30
India,Madhya Pradesh,Jabalpur,"Govindh Bhavan Colony, Jabalpur - JMC",21-05-2024 10:00:00,23.163174,79.973061,PM2.5,30,63,48
India,Madhya Pradesh,Jabalpur,"Govindh Bhavan Colony, Jabalpur - JMC",21-05-2024 10:00:00,23.163174,79.973061,CO,20,31,27
India,Madhya Pradesh,Jabalpur,"Gupteshwar, Jabalpur - JMC",21-05-2024 10:00:00,23.142888,79.916147,OZONE,68,170,88
India,Madhya Pradesh,Jabalpur,"Marhatal, Jabalpur - MPPCB",21-05-2024 10:00:00,23.168606,79.932247,PM2.5,35,80,45
India,Madhya Pradesh,Jabalpur,"Marhatal, Jabalpur - MPPCB",21-05-2024 10:00:00,23.168606,79.932247,CO,18,78,37
India,Madhya Pradesh,Katni,"Gole Bazar, Katni - MPPCB",21-05-2024 10:00:00,23.50016,80.23284,NO2,30,116,54
India,Madhya Pradesh,Katni,"Gole Bazar, Katni - MPPCB",21-05-2024 10:00:00,23.50016,80.23284,SO2,17,106,38
India,Madhya Pradesh,Maihar,"Sahilara, Maihar - KJS Cements",21-05-2024 10:00:00,24.2613009,80.7231783,CO,38,63,56
India,Madhya Pradesh,Mandideep,"Sector-D Industrial Area, Mandideep - MPPCB",21-05-2024 10:00:00,23.108440,77.511428,PM2.5,35,310,104
India,Madhya Pradesh,Mandideep,"Sector-D Industrial Area, Mandideep - MPPCB",21-05-2024 10:00:00,23.108440,77.511428,NH3,5,8,6
India,Madhya Pradesh,Mandideep,"Sector-D Industrial Area, Mandideep - MPPCB",21-05-2024 10:00:00,23.108440,77.511428,SO2,7,115,37
India,Madhya Pradesh,Pithampur,"Sector-2 Industrial Area, Pithampur - MPPCB",21-05-2024 10:00:00,22.624758,75.675238,CO,42,60,51
India,Madhya Pradesh,Sagar,"Civil Lines, Sagar - MPPCB",21-05-2024 10:00:00,23.838586,78.759431,CO,20,31,26
India,Madhya Pradesh,Sagar,"Civil Lines, Sagar - MPPCB",21-05-2024 10:00:00,23.838586,78.759431,OZONE,17,129,41
India,Madhya Pradesh,Sagar,"Deen Dayal Nagar, Sagar - MPPCB",21-05-2024 10:00:00,23.8640158,78.80289321,CO,52,66,59
India,Madhya Pradesh,Singrauli,"Suryakiran Bhawan NCL, Singrauli - MPPCB",21-05-2024 10:00:00,24.108970,82.645580,PM2.5,40,355,160
India,Madhya Pradesh,Singrauli,"Suryakiran Bhawan NCL, Singrauli - MPPCB",21-05-2024 10:00:00,24.108970,82.645580,NO2,11,96,41
India,Madhya Pradesh,Ujjain,"Mahakaleshwar Temple, Ujjain - MPPCB",21-05-2024 10:00:00,23.182719 ,75.768218 ,PM2.5,NA,NA,NA
India,Maharashtra,Akola,"Ramdaspeth, Akola - MPCB",21-05-2024 10:00:00,20.719516,77.000253,NO2,8,53,19
India,Maharashtra,Amravati,"Shivneri Colony, Amravati - MPCB",21-05-2024 10:00:00,20.9402359,77.7895248,CO,6,36,15
India,Maharashtra,Amravati,"Shivneri Colony, Amravati - MPCB",21-05-2024 10:00:00,20.9402359,77.7895248,OZONE,29,98,45
India,Maharashtra,Amravati,"Shri Shivaji Science College, Amaravati - MPCB",21-05-2024 10:00:00,20.939198,77.765701,PM10,20,115,66
India,Maharashtra,Amravati,"Shri Shivaji Science College, Amaravati - MPCB",21-05-2024 10:00:00,20.939198,77.765701,NH3,2,4,3
India,Maharashtra,Aurangabad,"MIDC Chilkalthana, Aurangabad - MPCB",21-05-2024 10:00:00,19.875620,75.387310,SO2,1,9,3
India,Maharashtra,Aurangabad,"More Chowk Waluj, Aurangabad - MPCB",21-05-2024 10:00:00,19.8389439,75.244448,NH3,9,10,9
India,Maharashtra,Aurangabad,"More Chowk Waluj, Aurangabad - MPCB",21-05-2024 10:00:00,19.8389439,75.244448,OZONE,22,140,42
India,Maharashtra,Aurangabad,"Rachnakar Colony, Aurangabad - MPCB",21-05-2024 10:00:00,19.863756,75.321188,PM10,113,222,145
India,Maharashtra,Belapur,"CBD Belapur, Belapur - MPCB",21-05-2024 10:00:00,19.0243902,73.0406721,PM2.5,17,44,36
India,Maharashtra,Belapur,"CBD Belapur, Belapur - MPCB",21-05-2024 10:00:00,19.0243902,73.0406721,SO2,4,8,6
India,Maharashtra,Belapur,"CBD Belapur, Belapur - MPCB",21-05-2024 10:00:00,19.0243902,73.0406721,OZONE,19,73,28
India,Maharashtra,Boisar,"Khaira, Boisar - MPCB",21-05-2024 10:00:00,19.786089,72.757971,PM2.5,4,160,39
India,Maharashtra,Boisar,"Khaira, Boisar - MPCB",21-05-2024 10:00:00,19.786089,72.757971,NO2,6,49,18
India,Maharashtra,Chandrapur,"Chauhan Colony, Chandrapur - MPCB",21-05-2024 10:00:00,19.962900,79.298714,PM10,9,60,33
India,Maharashtra,Dhule,"Deopur, Dhule - MPCB",21-05-2024 10:00:00,20.918946,74.776388,PM10,114,135,124
India,Maharashtra,Dhule,"Deopur, Dhule - MPCB",21-05-2024 10:00:00,20.918946,74.776388,OZONE,23,89,31
India,Maharashtra,Jalgaon,"Prabhat Colony, Jalgaon - MPCB",21-05-2024 10:00:00,21.001264,75.565602,NO2,10,129,25
India,Maharashtra,Jalgaon,"Prabhat Colony, Jalgaon - MPCB",21-05-2024 10:00:00,21.001264,75.565602,NH3,2,13,10
India,Maharashtra,Jalgaon,"Prabhat Colony, Jalgaon - MPCB",21-05-2024 10:00:00,21.001264,75.565602,OZONE,20,125,26
India,Maharashtra,Jalna,"Old MIDC, Jalna - MPCB",21-05-2024 10:00:00,19.854616,75.905894,PM2.5,29,68,46
India,Maharashtra,Jalna,"Old MIDC, Jalna - MPCB",21-05-2024 10:00:00,19.854616,75.905894,CO,20,32,29
India,Maharashtra,Kalyan,"Khadakpada, Kalyan - MPCB",21-05-2024 10:00:00,19.25292,73.142019,PM10,60,126,90
India,Maharashtra,Kalyan,"Khadakpada, Kalyan - MPCB",21-05-2024 10:00:00,19.25292,73.142019,OZONE,6,14,6
India,Maharashtra,Kolhapur,"Shivaji University, Kolhapur - MPCB",21-05-2024 10:00:00,16.6870449,74.2505872,NH3,3,5,4
India,Maharashtra,Kolhapur,"Sinchan Bhavan, Kolhapur - MPCB",21-05-2024 10:00:00,16.7143745,74.2426398,PM10,NA,NA,NA
India,Maharashtra,Latur,"Sawe Wadi, Latur - MPCB",21-05-2024 10:00:00,18.39963,76.57452,OZONE,19,114,49
India,Maharashtra,Mahad,"Kamble Tarf Birwadi, Mahad - MPCB",21-05-2024 10:00:00,18.1023399,73.4783687,CO,NA,NA,NA
India,Maharashtra,Malegaon,"Mahesh Nagar, Malegaon - MPCB",21-05-2024 10:00:00,20.555712,74.529236,CO,8,28,19
India,Maharashtra,Mumbai,"Borivali East, Mumbai - IITM",21-05-2024 10:00:00,19.23241,72.86895,OZONE,53,176,91
India,Maharashtra,Mumbai,"Borivali East, Mumbai - MPCB",21-05-2024 10:00:00,19.2243333,72.8658113,PM10,19,64,42
India,Maharashtra,Mumbai,"Byculla, Mumbai - BMC",21-05-2024 10:00:00,18.9767,72.8380,OZONE,14,47,19
India,Maharashtra,Mumbai,"Chembur, Mumbai - MPCB",21-05-2024 10:00:00,19.0364585,72.8954371,NO2,15,30,22
India,Maharashtra,Mumbai,"Chembur, Mumbai - MPCB",21-05-2024 10:00:00,19.0364585,72.8954371,CO,10,26,20
India,Maharashtra,Mumbai,"Chhatrapati Shivaji Intl. Airport (T2), Mumbai - MPCB",21-05-2024 10:00:00,19.10078,72.87462,NH3,1,4,1
India,Maharashtra,Mumbai,"Colaba, Mumbai - MPCB",21-05-2024 10:00:00,18.910000,72.820000,PM2.5,14,37,26
India,Maharashtra,Mumbai,"Colaba, Mumbai - MPCB",21-05-2024 10:00:00,18.910000,72.820000,PM10,38,92,54
India,Maharashtra,Mumbai,"Colaba, Mumbai - MPCB",21-05-2024 10:00:00,18.910000,72.820000,NO2,19,21,20
India,Maharashtra,Mumbai,"Colaba, Mumbai - MPCB",21-05-2024 10:00:00,18.910000,72.820000,OZONE,10,11,10
India,Maharashtra,Mumbai,"Deonar, Mumbai - IITM",21-05-2024 10:00:00,19.04946,72.9230,PM10,52,83,68
India,Maharashtra,Mumbai,"Ghatkopar, Mumbai - BMC",21-05-2024 10:00:00,19.083694,72.920967,CO,5,10,7
India,Maharashtra,Mumbai,"Kandivali East, Mumbai - MPCB",21-05-2024 10:00:00,19.205800,72.868200,NH3,6,58,10
India,Maharashtra,Mumbai,"Kandivali East, Mumbai - MPCB",21-05-2024 10:00:00,19.205800,72.868200,OZONE,30,142,74
India,Maharashtra,Mumbai,"Kandivali West, Mumbai - BMC",21-05-2024 10:00:00,19.215859,72.831718,PM2.5,7,22,14
India,Maharashtra,Mumbai,"Kherwadi_Bandra East, Mumbai - MPCB",21-05-2024 10:00:00,19.0632143,72.8456324,PM2.5,10,34,22
India,Maharashtra,Mumbai,"Kherwadi_Bandra East, Mumbai - MPCB",21-05-2024 10:00:00,19.0632143,72.8456324,SO2,NA,NA,NA
India,Maharashtra,Mumbai,"Khindipada-Bhandup West, Mumbai - IITM",21-05-2024 10:00:00,19.1653323,72.922099,NH3,2,7,4
India,Maharashtra,Mumbai,"Khindipada-Bhandup West, Mumbai - IITM",21-05-2024 10:00:00,19.1653323,72.922099,SO2,2,10,6
India,Maharashtra,Mumbai,"Khindipada-Bhandup West, Mumbai - IITM",21-05-2024 10:00:00,19.1653323,72.922099,CO,2,31,25
India,Maharashtra,Mumbai,"Kurla, Mumbai - MPCB",21-05-2024 10:00:00,19.0863,72.8888,PM10,28,239,75
India,Maharashtra,Mumbai,"Kurla, Mumbai - MPCB",21-05-2024 10:00:00,19.0863,72.8888,OZONE,27,30,28
India,Maharashtra,Mumbai,"Mindspace-Malad West, Mumbai - MPCB",21-05-2024 10:00:00,19.1878657,72.8304069,PM10,21,64,53
India,Maharashtra,Mumbai,"Mindspace-Malad West, Mumbai - MPCB",21-05-2024 10:00:00,19.1878657,72.8304069,NH3,6,7,6
India,Maharashtra,Mumbai,"Mindspace-Malad West, Mumbai - MPCB",21-05-2024 10:00:00,19.1878657,72.8304069,SO2,3,7,5
India,Maharashtra,Mumbai,"Mindspace-Malad West, Mumbai - MPCB",21-05-2024 10:00:00,19.1878657,72.8304069,OZONE,6,12,8
India,Maharashtra,Mumbai,"Mulund West, Mumbai - MPCB",21-05-2024 10:00:00,19.1750,72.9419,OZONE,NA,NA,NA
India,Maharashtra,Mumbai,"Siddharth Nagar-Worli, Mumbai - IITM",21-05-2024 10:00:00,19.000083,72.813993,CO,25,88,70
India,Maharashtra,Mumbai,"Sion, Mumbai - MPCB",21-05-2024 10:00:00,19.047000,72.874600,PM2.5,NA,NA,NA
India,Maharashtra,Mumbai,"Sion, Mumbai - MPCB",21-05-2024 10:00:00,19.047000,72.874600,PM10,NA,NA,NA
India,Maharashtra,Mumbai,"Vasai West, Mumbai - MPCB",21-05-2024 10:00:00,19.383200,72.820400,PM2.5,16,50,30
India,Maharashtra,Mumbai,"Vasai West, Mumbai - MPCB",21-05-2024 10:00:00,19.383200,72.820400,SO2,17,74,21
India,Maharashtra,Mumbai,"Vasai West, Mumbai - MPCB",21-05-2024 10:00:00,19.383200,72.820400,CO,8,22,13
India,Maharashtra,Mumbai,"Vasai West, Mumbai - MPCB",21-05-2024 10:00:00,19.383200,72.820400,OZONE,5,26,10
India,Maharashtra,Mumbai,"Vile Parle West, Mumbai - MPCB",21-05-2024 10:00:00,19.10861,72.83622,OZONE,2,3,3
India,Maharashtra,Nagpur,"Mahal, Nagpur - MPCB",21-05-2024 10:00:00,21.14472,79.107595,PM2.5,22,91,57
India,Maharashtra,Nagpur,"Mahal, Nagpur - MPCB",21-05-2024 10:00:00,21.14472,79.107595,NO2,7,50,17
India,Maharashtra,Nagpur,"Mahal, Nagpur - MPCB",21-05-2024 10:00:00,21.14472,79.107595,NH3,5,9,7
India,Maharashtra,Nagpur,"Mahal, Nagpur - MPCB",21-05-2024 10:00:00,21.14472,79.107595,CO,17,119,25
India,Maharashtra,Nashik,"Gangapur Road, Nashik - MPCB",21-05-2024 10:00:00,20.0073285,73.7762427,PM2.5,48,72,61
India,Maharashtra,Nashik,"Hirawadi, Nashik - MPCB",21-05-2024 10:00:00,20.021503,73.813844,CO,12,25,20
India,Maharashtra,Nashik,"MIDC Ambad, Nashik - MPCB",21-05-2024 10:00:00,19.950220,73.731480,CO,10,62,61
India,Maharashtra,Nashik,"Pandav Nagari, Nashik - MPCB",21-05-2024 10:00:00,19.9591346,73.7788008,PM2.5,32,97,50
India,Maharashtra,Nashik,"Pandav Nagari, Nashik - MPCB",21-05-2024 10:00:00,19.9591346,73.7788008,NH3,4,12,5
India,Maharashtra,Navi Mumbai,"Kopripada-Vashi, Navi Mumbai - MPCB",21-05-2024 10:00:00,19.090337,73.014232,PM2.5,15,41,32
India,Maharashtra,Navi Mumbai,"Mahape, Navi Mumbai - MPCB",21-05-2024 10:00:00,19.1135051,73.008978,PM2.5,25,54,36
India,Maharashtra,Navi Mumbai,"Nerul, Navi Mumbai - MPCB",21-05-2024 10:00:00,19.008751,73.016620,PM10,49,159,78
India,Maharashtra,Navi Mumbai,"Nerul, Navi Mumbai - MPCB",21-05-2024 10:00:00,19.008751,73.016620,SO2,26,27,27
India,Maharashtra,Navi Mumbai,"Sanpada, Navi Mumbai - MPCB",21-05-2024 10:00:00,19.0575752,73.0151367,PM2.5,20,37,28
India,Maharashtra,Navi Mumbai,"Sector-19A Nerul, Navi Mumbai - IITM",21-05-2024 10:00:00,19.044,73.0325,PM2.5,NA,NA,NA
India,Maharashtra,Navi Mumbai,"Sector-19A Nerul, Navi Mumbai - IITM",21-05-2024 10:00:00,19.044,73.0325,CO,2,107,49
India,Maharashtra,Navi Mumbai,"Sector-2E Kalamboli, Navi Mumbai - MPCB",21-05-2024 10:00:00,19.02579,73.10297,PM10,68,109,91
India,Maharashtra,Navi Mumbai,"Sector-2E Kalamboli, Navi Mumbai - MPCB",21-05-2024 10:00:00,19.02579,73.10297,CO,5,16,6
India,Maharashtra,Navi Mumbai,"Sector-2E Kalamboli, Navi Mumbai - MPCB",21-05-2024 10:00:00,19.02579,73.10297,OZONE,3,41,10
India,Maharashtra,Parbhani,"Masoom Colony, Parbhani - MPCB",21-05-2024 10:00:00,19.265594,76.761463,NH3,4,8,6
India,Maharashtra,Pimpri-Chinchwad,"Thergaon, Pimpri Chinchwad - MPCB",21-05-2024 10:00:00,18.616318,73.765797,PM2.5,NA,NA,NA
India,Maharashtra,Pimpri-Chinchwad,"Thergaon, Pimpri Chinchwad - MPCB",21-05-2024 10:00:00,18.616318,73.765797,PM10,NA,NA,NA
India,Maharashtra,Pimpri-Chinchwad,"Thergaon, Pimpri Chinchwad - MPCB",21-05-2024 10:00:00,18.616318,73.765797,OZONE,NA,NA,NA
India,Maharashtra,Pune,"Alandi, Pune - IITM",21-05-2024 10:00:00,18.675076,73.892743,NO2,NA,NA,NA
India,Maharashtra,Pune,"Hadapsar, Pune - IITM",21-05-2024 10:00:00,18.501793,73.927532,OZONE,NA,NA,NA
India,Maharashtra,Pune,"Karve Road, Pune - MPCB",21-05-2024 10:00:00,18.5011743,73.8165527,NO2,3,101,12
India,Maharashtra,Pune,"Karve Road, Pune - MPCB",21-05-2024 10:00:00,18.5011743,73.8165527,CO,16,195,25
India,Maharashtra,Pune,"Revenue Colony-Shivajinagar, Pune - IITM",21-05-2024 10:00:00,18.530085,73.849598,SO2,1,42,19
India,Maharashtra,Pune,"Savitribai Phule Pune University, Pune - MPCB",21-05-2024 10:00:00,18.547056,73.826908,NH3,2,4,3
India,Maharashtra,Sangli,"Vijay Nagar, Sangli - MPCB",21-05-2024 10:00:00, 16.5038,74.3623,PM2.5,25,50,36
India,Maharashtra,Sangli,"Vijay Nagar, Sangli - MPCB",21-05-2024 10:00:00, 16.5038,74.3623,NO2,10,47,19
India,Maharashtra,Solapur,"Dnyaneshwar Nagar, Solapur - MPCB",21-05-2024 10:00:00,17.6336264,75.9132495,PM10,71,108,86
India,Maharashtra,Solapur,"Solapur, Solapur - MPCB",21-05-2024 10:00:00,17.6599188,75.9063906,PM10,106,124,115
India,Maharashtra,Solapur,"Solapur, Solapur - MPCB",21-05-2024 10:00:00,17.6599188,75.9063906,NO2,53,55,55
India,Maharashtra,Thane,"Kasarvadavali, Thane - MPCB",21-05-2024 10:00:00,19.26777,72.97182,NH3,3,5,3
India,Maharashtra,Thane,"Pimpleshwar Mandir, Thane - MPCB",21-05-2024 10:00:00,19.192056,72.9585188,SO2,NA,NA,NA
India,Maharashtra,Thane,"Upvan Fort, Thane - MPCB",21-05-2024 10:00:00,19.222279,72.957979,SO2,NA,NA,NA
India,Maharashtra,Thane,"Upvan Fort, Thane - MPCB",21-05-2024 10:00:00,19.222279,72.957979,CO,2,24,5
India,Maharashtra,Ulhasnagar,"Sidhi Vinayak Nagar, Ulhasnagar - MPCB",21-05-2024 10:00:00,19.235581,73.159121,PM2.5,33,82,56
India,Maharashtra,Ulhasnagar,"Sidhi Vinayak Nagar, Ulhasnagar - MPCB",21-05-2024 10:00:00,19.235581,73.159121,OZONE,5,112,9
India,Maharashtra,Virar,"Bolinj, Virar - MPCB",21-05-2024 10:00:00,19.4458210,72.7988231,NO2,6,22,14
India,Maharashtra,Virar,"Bolinj, Virar - MPCB",21-05-2024 10:00:00,19.4458210,72.7988231,NH3,9,9,9
India,Maharashtra,Virar,"Bolinj, Virar - MPCB",21-05-2024 10:00:00,19.4458210,72.7988231,OZONE,11,45,18
India,Manipur,Imphal,"Manipur University, Imphal - Manipur PCB",21-05-2024 10:00:00,24.7524239,93.9286218,CO,10,18,13
India,Meghalaya,Shillong,"Lumpyngngad, Shillong - Meghalaya PCB",21-05-2024 10:00:00,25.5586,91.8985,PM2.5,NA,NA,NA
India,Mizoram,Aizawl,"Sikulpuikawn, Aizawl - Mizoram PCB",21-05-2024 10:00:00,23.7176342,92.7192841,PM10,42,89,63
India,Mizoram,Aizawl,"Sikulpuikawn, Aizawl - Mizoram PCB",21-05-2024 10:00:00,23.7176342,92.7192841,NH3,1,3,1
India,Nagaland,Kohima,"PWD Juction, Kohima - NPCB",21-05-2024 10:00:00,25.6635413,94.0989878,CO,4,20,10
India,Odisha,Angul,"Hakimapada, Angul - OSPCB",21-05-2024 10:00:00,20.832874,85.104082,PM10,19,420,115
India,Odisha,Angul,"Hakimapada, Angul - OSPCB",21-05-2024 10:00:00,20.832874,85.104082,NH3,NA,NA,NA
India,Odisha,Angul,"Hakimapada, Angul - OSPCB",21-05-2024 10:00:00,20.832874,85.104082,SO2,9,120,49
India,Odisha,Balasore,"Kalidaspur, Balasore - OSPCB",21-05-2024 10:00:00,21.51161,86.89088,OZONE,17,65,26
India,Odisha,Barbil,"Forest Office, Barbil - OSPCB",21-05-2024 10:00:00,22.1166054,85.3945546,SO2,4,17,7
India,Odisha,Barbil,"Forest Office, Barbil - OSPCB",21-05-2024 10:00:00,22.1166054,85.3945546,OZONE,42,159,68
India,Odisha,Baripada,"Meher Colony, Baripada - OSPCB",21-05-2024 10:00:00,21.941841,86.728318,PM10,33,79,51
India,Odisha,Bhubaneswar,"Lingraj Mandir, Bhubaneswar - OSPCB",21-05-2024 10:00:00,20.240790,85.836784,PM10,5,79,25
India,Odisha,Bhubaneswar,"Lingraj Mandir, Bhubaneswar - OSPCB",21-05-2024 10:00:00,20.240790,85.836784,NO2,6,29,14
India,Odisha,Bhubaneswar,"Patia, Bhubaneswar - OSPCB",21-05-2024 10:00:00,20.34652,85.81630,PM10,8,70,30
India,Odisha,Brajrajnagar,"GM Office, Brajrajnagar - OSPCB",21-05-2024 10:00:00,21.8004996,83.8396977,SO2,14,14,14
India,Odisha,Brajrajnagar,"GM Office, Brajrajnagar - OSPCB",21-05-2024 10:00:00,21.8004996,83.8396977,CO,84,86,84
India,Odisha,Byasanagar,"Ferro Chrome Colony, Byasanagar - OSPCB",21-05-2024 10:00:00,20.94185,86.11510,PM2.5,7,75,24
India,Odisha,Byasanagar,"Ferro Chrome Colony, Byasanagar - OSPCB",21-05-2024 10:00:00,20.94185,86.11510,NO2,5,24,11
India,Odisha,Cuttack,"CDA Area, Cuttack - OSPCB",21-05-2024 10:00:00,20.48891     ,85.84768     ,PM2.5,2,47,18
India,Odisha,Cuttack,"CDA Area, Cuttack - OSPCB",21-05-2024 10:00:00,20.48891     ,85.84768     ,PM10,2,70,26
India,Odisha,Cuttack,"CDA Area, Cuttack - OSPCB",21-05-2024 10:00:00,20.48891     ,85.84768     ,CO,13,36,17
India,Odisha,Cuttack,"CDA Area, Cuttack - OSPCB",21-05-2024 10:00:00,20.48891     ,85.84768     ,OZONE,5,69,28
India,Odisha,Keonjhar,"Jagamohanpur, Keonjhar - OSPCB",21-05-2024 10:00:00,21.643900,85.599355,NH3,NA,NA,NA
India,Odisha,Nayagarh,"Dabuna, Nayagarh - OSPCB",21-05-2024 10:00:00,21.847279,85.416905,PM10,33,74,50
India,Odisha,Nayagarh,"Dabuna, Nayagarh - OSPCB",21-05-2024 10:00:00,21.847279,85.416905,NO2,7,7,7
India,Odisha,Nayagarh,"Dabuna, Nayagarh - OSPCB",21-05-2024 10:00:00,21.847279,85.416905,OZONE,8,31,13
India,Odisha,Rairangpur,"Divisional Forest Office, Rairangpur - OSPCB",21-05-2024 10:00:00,22.265816,86.174829,SO2,13,15,13
India,Odisha,Rairangpur,"Divisional Forest Office, Rairangpur - OSPCB",21-05-2024 10:00:00,22.265816,86.174829,OZONE,1,25,4
India,Odisha,Rourkela,"Fertilizer Township, Rourkela - OSPCB",21-05-2024 10:00:00,22.18972222,84.86277778,SO2,12,14,13
India,Odisha,Rourkela,"Raghunathpali, Rourkela - OSPCB",21-05-2024 10:00:00,22.220833,84.809444,PM10,34,84,59
India,Odisha,Rourkela,"Raghunathpali, Rourkela - OSPCB",21-05-2024 10:00:00,22.220833,84.809444,OZONE,46,133,60
India,Odisha,Rourkela,"Sector-2, Rourkela - OSPCB",21-05-2024 10:00:00,22.24500000,84.88111111,PM2.5,NA,NA,NA
India,Odisha,Suakati,"OMC Colony, Suakati - OSPCB",21-05-2024 10:00:00,21.606865,85.510538,CO,19,22,19
India,Odisha,Talcher,"Talcher Coalfields,Talcher - OSPCB",21-05-2024 10:00:00,20.9360711,85.1707021,PM10,38,191,95
India,Odisha,Talcher,"Talcher Coalfields,Talcher - OSPCB",21-05-2024 10:00:00,20.9360711,85.1707021,NO2,16,25,19
India,Odisha,Talcher,"Talcher Coalfields,Talcher - OSPCB",21-05-2024 10:00:00,20.9360711,85.1707021,CO,24,117,76
India,Odisha,Tensa,"Barsua Iron Ore Mines, Tensa - OSPCB",21-05-2024 10:00:00,21.869985,85.167016,OZONE,62,140,104
India,Punjab,Amritsar,"Golden Temple, Amritsar - PPCB",21-05-2024 10:00:00,31.620000,74.876512,PM2.5,58,131,86
India,Punjab,Amritsar,"Golden Temple, Amritsar - PPCB",21-05-2024 10:00:00,31.620000,74.876512,SO2,2,112,34
India,Punjab,Amritsar,"Golden Temple, Amritsar - PPCB",21-05-2024 10:00:00,31.620000,74.876512,CO,4,177,40
India,Punjab,Jalandhar,"Civil Line, Jalandhar - PPCB",21-05-2024 10:00:00,31.321907,75.578914,PM2.5,68,230,143
India,Punjab,Jalandhar,"Civil Line, Jalandhar - PPCB",21-05-2024 10:00:00,31.321907,75.578914,NO2,38,47,44
India,Punjab,Jalandhar,"Civil Line, Jalandhar - PPCB",21-05-2024 10:00:00,31.321907,75.578914,CO,8,64,38
India,Punjab,Khanna,"Kalal Majra, Khanna - PPCB",21-05-2024 10:00:00,30.736056 ,76.209694,OZONE,38,48,44
India,Punjab,Ludhiana,"Punjab Agricultural University, Ludhiana - PPCB",21-05-2024 10:00:00,30.9028,75.8086,SO2,6,102,24
India,Punjab,Mandi Gobindgarh,"RIMT University, Mandi Gobindgarh - PPCB",21-05-2024 10:00:00,30.649961,76.331442,PM2.5,130,340,249
India,Punjab,Mandi Gobindgarh,"RIMT University, Mandi Gobindgarh - PPCB",21-05-2024 10:00:00,30.649961,76.331442,NH3,6,6,6
India,Punjab,Rupnagar,"Ratanpura, Rupnagar - Ambuja Cements",21-05-2024 10:00:00,31.0325454,76.5623046,PM2.5,49,134,87
India,Rajasthan,Ajmer,"Civil Lines,  Ajmer - RSPCB",21-05-2024 10:00:00,26.470859,74.646594,PM10,56,178,91
India,Rajasthan,Ajmer,"Civil Lines,  Ajmer - RSPCB",21-05-2024 10:00:00,26.470859,74.646594,NH3,6,6,6
India,Rajasthan,Ajmer,"Civil Lines,  Ajmer - RSPCB",21-05-2024 10:00:00,26.470859,74.646594,OZONE,24,98,44
India,Rajasthan,Alwar,"Moti Doongri, Alwar - RSPCB",21-05-2024 10:00:00,27.554793,76.611536,PM10,64,476,159
India,Rajasthan,Alwar,"Moti Doongri, Alwar - RSPCB",21-05-2024 10:00:00,27.554793,76.611536,NH3,2,7,4
India,Rajasthan,Alwar,"Moti Doongri, Alwar - RSPCB",21-05-2024 10:00:00,27.554793,76.611536,SO2,9,47,31
India,Rajasthan,Banswara,"Rati Talai, Banswara - RSPCB",21-05-2024 10:00:00,23.555190,74.440010,NO2,19,112,45
India,Rajasthan,Baran,"Bamboliya, Baran - RSPCB",21-05-2024 10:00:00,25.106006,76.469948,NO2,8,57,18
India,Rajasthan,Baran,"Bamboliya, Baran - RSPCB",21-05-2024 10:00:00,25.106006,76.469948,NH3,3,9,4
India,Rajasthan,Barmer,"Railway Colony, Barmer - RSPCB",21-05-2024 10:00:00,25.747299,71.393989,PM10,67,157,116
India,Rajasthan,Barmer,"Railway Colony, Barmer - RSPCB",21-05-2024 10:00:00,25.747299,71.393989,CO,64,82,71
India,Rajasthan,Barmer,"Railway Colony, Barmer - RSPCB",21-05-2024 10:00:00,25.747299,71.393989,OZONE,21,97,38
India,Rajasthan,Bharatpur,"Krishna Nagar, Bharatpur - RSPCB",21-05-2024 10:00:00,27.215415,77.50873,NO2,6,74,26
India,Rajasthan,Bharatpur,"Krishna Nagar, Bharatpur - RSPCB",21-05-2024 10:00:00,27.215415,77.50873,NH3,2,4,3
India,Rajasthan,Bharatpur,"Krishna Nagar, Bharatpur - RSPCB",21-05-2024 10:00:00,27.215415,77.50873,SO2,1,11,5
India,Rajasthan,Bhilwara,"Pratap Nagar, Bhilwara - RSPCB",21-05-2024 10:00:00,25.339605,74.618883,NH3,2,5,3
India,Rajasthan,Bhilwara,"Pratap Nagar, Bhilwara - RSPCB",21-05-2024 10:00:00,25.339605,74.618883,OZONE,16,91,32
India,Rajasthan,Bhiwadi,"Vasundhara Nagar_UIT, Bhiwadi - RSPCB",21-05-2024 10:00:00,28.207266,76.829265,CO,8,57,50
India,Rajasthan,Bikaner,"MM Ground, Bikaner - RSPCB",21-05-2024 10:00:00,28.018792,73.292658,PM10,79,206,122
India,Rajasthan,Bikaner,"MM Ground, Bikaner - RSPCB",21-05-2024 10:00:00,28.018792,73.292658,NO2,21,74,39
India,Rajasthan,Bundi,"New Colony, Bundi - RSPCB",21-05-2024 10:00:00,25.435774,75.644272,PM2.5,22,87,41
India,Rajasthan,Chittorgarh,"Shastri Nagar, Chittorgarh - RSPCB",21-05-2024 10:00:00,24.892047,74.623527,CO,7,36,21
India,Rajasthan,Churu,"Subash Chowk, Churu - RSPCB",21-05-2024 10:00:00,28.296139,74.961696,PM2.5,25,77,47
India,Rajasthan,Dausa,"Khatikan Mohalla, Dausa - RSPCB",21-05-2024 10:00:00,26.895552,76.334753,PM2.5,37,171,67
India,Rajasthan,Dausa,"Khatikan Mohalla, Dausa - RSPCB",21-05-2024 10:00:00,26.895552,76.334753,PM10,125,180,150
India,Rajasthan,Dholpur,"Raja Ganj, Dholpur - RSPCB",21-05-2024 10:00:00,26.699557,77.898881,NH3,6,12,8
India,Rajasthan,Dholpur,"Raja Ganj, Dholpur - RSPCB",21-05-2024 10:00:00,26.699557,77.898881,OZONE,28,93,46
India,Rajasthan,Dungarpur,"Bhoiwada, Dungarpur - RSPCB",21-05-2024 10:00:00,23.837789,73.714926,PM2.5,28,93,46
India,Rajasthan,Dungarpur,"Bhoiwada, Dungarpur - RSPCB",21-05-2024 10:00:00,23.837789,73.714926,NO2,11,22,16
India,Rajasthan,Dungarpur,"Bhoiwada, Dungarpur - RSPCB",21-05-2024 10:00:00,23.837789,73.714926,NH3,2,3,2
India,Rajasthan,Dungarpur,"Bhoiwada, Dungarpur - RSPCB",21-05-2024 10:00:00,23.837789,73.714926,OZONE,20,82,34
India,Rajasthan,Jaipur,"Adarsh Nagar, Jaipur - RSPCB",21-05-2024 10:00:00,26.902909,75.836858,CO,2,66,29
India,Rajasthan,Jaipur,"Adarsh Nagar, Jaipur - RSPCB",21-05-2024 10:00:00,26.902909,75.836858,OZONE,12,80,39
India,Rajasthan,Jaipur,"Mansarovar Sector-12, Jaipur - RSPCB",21-05-2024 10:00:00,26.843698,75.766894,PM2.5,22,203,61
India,Rajasthan,Jaipur,"Mansarovar Sector-12, Jaipur - RSPCB",21-05-2024 10:00:00,26.843698,75.766894,CO,9,93,19
India,Rajasthan,Jaipur,"Police Commissionerate, Jaipur - RSPCB",21-05-2024 10:00:00,26.9164092,75.7994901,PM2.5,86,258,153
India,Rajasthan,Jaipur,"Police Commissionerate, Jaipur - RSPCB",21-05-2024 10:00:00,26.9164092,75.7994901,PM10,104,219,148
India,Rajasthan,Jaipur,"Police Commissionerate, Jaipur - RSPCB",21-05-2024 10:00:00,26.9164092,75.7994901,CO,24,70,39
India,Rajasthan,Jaipur,"Police Commissionerate, Jaipur - RSPCB",21-05-2024 10:00:00,26.9164092,75.7994901,OZONE,26,166,66
India,Rajasthan,Jaipur,"Sector-2 Murlipura, Jaipur - RSPCB",21-05-2024 10:00:00,26.960669,75.771817,NO2,8,48,23
India,Rajasthan,Jaipur,"Shastri Nagar, Jaipur - RSPCB",21-05-2024 10:00:00,26.9502929,75.730943,PM2.5,26,196,109
India,Rajasthan,Jaipur,"Shastri Nagar, Jaipur - RSPCB",21-05-2024 10:00:00,26.9502929,75.730943,SO2,4,29,21
India,Rajasthan,Jaisalmer,"Sadar Bazar, Jaisalmer - RSPCB",21-05-2024 10:00:00,26.912329,70.909168,PM2.5,NA,NA,NA
India,Rajasthan,Jaisalmer,"Sadar Bazar, Jaisalmer - RSPCB",21-05-2024 10:00:00,26.912329,70.909168,PM10,NA,NA,NA
India,Rajasthan,Jaisalmer,"Sadar Bazar, Jaisalmer - RSPCB",21-05-2024 10:00:00,26.912329,70.909168,NO2,5,26,18
India,Rajasthan,Jaisalmer,"Sadar Bazar, Jaisalmer - RSPCB",21-05-2024 10:00:00,26.912329,70.909168,SO2,3,6,4
India,Rajasthan,Jaisalmer,"Sadar Bazar, Jaisalmer - RSPCB",21-05-2024 10:00:00,26.912329,70.909168,CO,3,26,7
India,Rajasthan,Jaisalmer,"Sadar Bazar, Jaisalmer - RSPCB",21-05-2024 10:00:00,26.912329,70.909168,OZONE,2,90,44
India,Rajasthan,Jodhpur,"Collectorate, Jodhpur - RSPCB",21-05-2024 10:00:00,26.268249,73.0193853,PM2.5,26,216,118
India,Rajasthan,Jodhpur,"Collectorate, Jodhpur - RSPCB",21-05-2024 10:00:00,26.268249,73.0193853,SO2,1,18,11
India,Rajasthan,Jodhpur,"Digari Kalan, Jodhpur - RSPCB",21-05-2024 10:00:00,26.295810,73.082283,NO2,6,36,18
India,Rajasthan,Jodhpur,"Digari Kalan, Jodhpur - RSPCB",21-05-2024 10:00:00,26.295810,73.082283,NH3,3,11,4
India,Rajasthan,Jodhpur,"Jhalamand, Jodhpur - RSPCB",21-05-2024 10:00:00,26.215415,73.070156,PM2.5,17,78,41
India,Rajasthan,Jodhpur,"Jhalamand, Jodhpur - RSPCB",21-05-2024 10:00:00,26.215415,73.070156,PM10,53,146,91
India,Rajasthan,Jodhpur,"Mandor, Jodhpur - RSPCB",21-05-2024 10:00:00,26.358805,73.047444,PM10,53,120,78
India,Rajasthan,Jodhpur,"Mandor, Jodhpur - RSPCB",21-05-2024 10:00:00,26.358805,73.047444,OZONE,48,93,51
India,Rajasthan,Karauli,"Satyawati Vihar, Karauli - RSPCB",21-05-2024 10:00:00,26.506177,77.025989,PM2.5,28,83,50
India,Rajasthan,Kota,"Dhanmandi, Kota - RSPCB",21-05-2024 10:00:00,25.164090,75.858137,PM2.5,19,251,75
India,Rajasthan,Kota,"Dhanmandi, Kota - RSPCB",21-05-2024 10:00:00,25.164090,75.858137,PM10,105,193,136
India,Rajasthan,Kota,"Nayapura, Kota - RSPCB",21-05-2024 10:00:00,25.196024,75.855668,SO2,4,83,10
India,Rajasthan,Kota,"Shrinath Puram, Kota - RSPCB",21-05-2024 10:00:00,25.14389,75.821256,NO2,9,102,38
India,Rajasthan,Kota,"Shrinath Puram, Kota - RSPCB",21-05-2024 10:00:00,25.14389,75.821256,OZONE,6,78,28
India,Rajasthan,Nagaur,"Karni Colony, Nagaur - RSPCB",21-05-2024 10:00:00,27.213494,73.734444,NH3,12,20,15
India,Rajasthan,Nagaur,"Karni Colony, Nagaur - RSPCB",21-05-2024 10:00:00,27.213494,73.734444,OZONE,40,90,48
India,Rajasthan,Pali,"Indira Colony Vistar, Pali - RSPCB",21-05-2024 10:00:00,25.771061, 73.340227,CO,16,76,45
India,Rajasthan,Rajsamand,"Dhoinda, Rajsamand - RSPCB",21-05-2024 10:00:00,25.036360,73.883502,PM10,NA,NA,NA
India,Rajasthan,Rajsamand,"Dhoinda, Rajsamand - RSPCB",21-05-2024 10:00:00,25.036360,73.883502,NH3,NA,NA,NA
India,Rajasthan,Sawai Madhopur,"Sahu Nagar, Sawai Madhopur - RSPCB",21-05-2024 10:00:00,26.031443,76.359327,NO2,6,50,20
India,Rajasthan,Sawai Madhopur,"Sahu Nagar, Sawai Madhopur - RSPCB",21-05-2024 10:00:00,26.031443,76.359327,SO2,1,44,5
India,Rajasthan,Sikar,"Radhakishan Pura, Sikar - RSPCB",21-05-2024 10:00:00,27.608912,75.153302,PM2.5,23,88,47
India,Rajasthan,Sikar,"Radhakishan Pura, Sikar - RSPCB",21-05-2024 10:00:00,27.608912,75.153302,NO2,10,59,26
India,Rajasthan,Sikar,"Radhakishan Pura, Sikar - RSPCB",21-05-2024 10:00:00,27.608912,75.153302,NH3,2,8,3
India,Rajasthan,Sirohi,"Vedhaynath Colony, Sirohi - RSPCB",21-05-2024 10:00:00,24.885261,72.857549,CO,5,13,9
India,Rajasthan,Sirohi,"Vedhaynath Colony, Sirohi - RSPCB",21-05-2024 10:00:00,24.885261,72.857549,OZONE,12,114,25
India,Sikkim,Gangtok,"Zero Point GICI, Gangtok - SSPCB",21-05-2024 10:00:00,27.338530,88.614099,NH3,NA,NA,NA
India,TamilNadu,Chennai,"Manali, Chennai - CPCB",21-05-2024 10:00:00,13.164544,80.26285,PM2.5,3,200,24
India,TamilNadu,Chennai,"Perungudi, Chennai - TNPCB",21-05-2024 10:00:00,12.9533,80.2357,SO2,1,7,3
India,TamilNadu,Chennai,"Perungudi, Chennai - TNPCB",21-05-2024 10:00:00,12.9533,80.2357,CO,15,32,22
India,TamilNadu,Chennai,"Velachery Res. Area, Chennai - CPCB",21-05-2024 10:00:00,13.0052189,80.2398125,NO2,19,32,22
India,TamilNadu,Chennai,"Velachery Res. Area, Chennai - CPCB",21-05-2024 10:00:00,13.0052189,80.2398125,SO2,11,11,11
India,TamilNadu,Coimbatore,"PSG College of Arts and Science, Coimbatore - TNPCB",21-05-2024 10:00:00,11.0328,77.0349,NH3,1,1,1
India,TamilNadu,Cuddalore,"Semmandalam, Cuddalore - TNPCB",21-05-2024 10:00:00,11.7637683,79.7499835,NO2,2,14,6
India,TamilNadu,Gummidipoondi,"Anthoni Pillai Nagar, Gummidipoondi - TNPCB",21-05-2024 10:00:00,13.4127,80.1081,NH3,2,5,4
India,TamilNadu,Ooty,"Bombay Castel, Ooty - TNPCB",21-05-2024 10:00:00,11.4068288,76.7138973,PM2.5,NA,NA,NA
India,TamilNadu,Ooty,"Bombay Castel, Ooty - TNPCB",21-05-2024 10:00:00,11.4068288,76.7138973,PM10,NA,NA,NA
India,TamilNadu,Ooty,"Bombay Castel, Ooty - TNPCB",21-05-2024 10:00:00,11.4068288,76.7138973,NO2,1,38,14
India,TamilNadu,Ramanathapuram,"Chalai Bazaar, Ramanathapuram - TNPCB",21-05-2024 10:00:00,9.36399,78.831977,SO2,8,11,10
India,TamilNadu,Ramanathapuram,"Chalai Bazaar, Ramanathapuram - TNPCB",21-05-2024 10:00:00,9.36399,78.831977,CO,6,17,10
India,TamilNadu,Salem,"Sona College of Technology, Salem - TNPCB",21-05-2024 10:00:00,11.679111,78.125052,SO2,94,96,95
India,TamilNadu,Thoothukudi,"Meelavittan, Thoothukudi - TNPCB",21-05-2024 10:00:00,8.816428 ,78.099039,NO2,16,29,21
India,TamilNadu,Thoothukudi,"Meelavittan, Thoothukudi - TNPCB",21-05-2024 10:00:00,8.816428 ,78.099039,CO,2,188,54
India,TamilNadu,Vellore,"Vasanthapuram, Vellore - TNPCB",21-05-2024 10:00:00,12.909494,79.131861,NO2,5,19,13
India,Telangana,Hyderabad,"Bollaram Industrial Area, Hyderabad - TSPCB",21-05-2024 10:00:00,17.540891,78.358528,PM10,30,100,54
India,Telangana,Hyderabad,"Central University, Hyderabad - TSPCB",21-05-2024 10:00:00,17.460103,78.334361,SO2,4,11,7
India,Telangana,Hyderabad,"ECIL Kapra, Hyderabad - TSPCB",21-05-2024 10:00:00,17.470431,78.566959,NO2,12,86,45
India,Telangana,Hyderabad,"ECIL Kapra, Hyderabad - TSPCB",21-05-2024 10:00:00,17.470431,78.566959,OZONE,12,83,33
India,Telangana,Hyderabad,"ICRISAT Patancheru, Hyderabad - TSPCB",21-05-2024 10:00:00,17.518400,78.278777,NH3,2,2,2
India,Telangana,Hyderabad,"IITH Kandi, Hyderabad - TSPCB",21-05-2024 10:00:00,17.585705,78.126199,PM10,NA,NA,NA
India,Telangana,Hyderabad,"IITH Kandi, Hyderabad - TSPCB",21-05-2024 10:00:00,17.585705,78.126199,NH3,NA,NA,NA
India,Telangana,Hyderabad,"Kokapet, Hyderabad - TSPCB",21-05-2024 10:00:00,17.393559,78.339194,PM2.5,NA,NA,NA
India,Telangana,Hyderabad,"Kompally Municipal Office, Hyderabad - TSPCB",21-05-2024 10:00:00,17.544899,78.486949,CO,16,94,18
India,Telangana,Hyderabad,"Nacharam_TSIIC IALA, Hyderabad - TSPCB",21-05-2024 10:00:00,17.429398,78.569354,PM10,64,71,64
India,Telangana,Hyderabad,"Nacharam_TSIIC IALA, Hyderabad - TSPCB",21-05-2024 10:00:00,17.429398,78.569354,OZONE,31,61,32
India,Telangana,Hyderabad,"New Malakpet, Hyderabad - TSPCB",21-05-2024 10:00:00,17.37206,78.50864,NH3,3,3,3
India,Telangana,Hyderabad,"Ramachandrapuram, Hyderabad - TSPCB",21-05-2024 10:00:00,17.528544,78.286195,PM10,NA,NA,NA
India,Telangana,Hyderabad,"Ramachandrapuram, Hyderabad - TSPCB",21-05-2024 10:00:00,17.528544,78.286195,CO,NA,NA,NA
India,Telangana,Hyderabad,"Ramachandrapuram, Hyderabad - TSPCB",21-05-2024 10:00:00,17.528544,78.286195,OZONE,11,11,11
India,Telangana,Hyderabad,"Somajiguda, Hyderabad - TSPCB",21-05-2024 10:00:00,17.417094,78.457437,PM2.5,25,57,39
India,Telangana,Hyderabad,"Somajiguda, Hyderabad - TSPCB",21-05-2024 10:00:00,17.417094,78.457437,NH3,5,8,7
India,Telangana,Hyderabad,"Zoo Park, Hyderabad - TSPCB",21-05-2024 10:00:00,17.349694,78.451437,PM10,NA,NA,NA
India,Telangana,Hyderabad,"Zoo Park, Hyderabad - TSPCB",21-05-2024 10:00:00,17.349694,78.451437,SO2,1,5,3
India,Telangana,Hyderabad,"Zoo Park, Hyderabad - TSPCB",21-05-2024 10:00:00,17.349694,78.451437,CO,26,60,36
India,Tripura,Agartala,"Bardowali, Agartala - Tripura SPCB",21-05-2024 10:00:00,23.8175497,91.2726974,NH3,2,10,3
India,Uttar_Pradesh,Agra,"Manoharpur, Agra - UPPCB",21-05-2024 10:00:00,27.23711,78.01936,PM2.5,28,74,50
India,Uttar_Pradesh,Agra,"Manoharpur, Agra - UPPCB",21-05-2024 10:00:00,27.23711,78.01936,CO,6,12,11
India,Uttar_Pradesh,Agra,"Rohta, Agra - UPPCB",21-05-2024 10:00:00,27.106972,78.000111,NH3,4,4,4
India,Uttar_Pradesh,Agra,"Rohta, Agra - UPPCB",21-05-2024 10:00:00,27.106972,78.000111,CO,6,28,16
India,Uttar_Pradesh,Agra,"Sanjay Palace, Agra - UPPCB",21-05-2024 10:00:00,27.19865833,78.00598056,OZONE,NA,NA,NA
India,Uttar_Pradesh,Agra,"Sector-3B Avas Vikas Colony, Agra - UPPCB",21-05-2024 10:00:00,27.19412,77.96237,SO2,12,20,14
India,Uttar_Pradesh,Agra,"Shahjahan Garden, Agra - UPPCB",21-05-2024 10:00:00,27.169338,78.03582,PM2.5,23,68,45
India,Uttar_Pradesh,Agra,"Shahjahan Garden, Agra - UPPCB",21-05-2024 10:00:00,27.169338,78.03582,PM10,46,174,116
India,Uttar_Pradesh,Agra,"Shahjahan Garden, Agra - UPPCB",21-05-2024 10:00:00,27.169338,78.03582,CO,14,41,25
India,Uttar_Pradesh,Agra,"Shahjahan Garden, Agra - UPPCB",21-05-2024 10:00:00,27.169338,78.03582,OZONE,1,13,2
India,Uttar_Pradesh,Agra,"Shastripuram, Agra - UPPCB",21-05-2024 10:00:00,27.19862,77.92066,NO2,38,125,44
India,Uttar_Pradesh,Agra,"Shastripuram, Agra - UPPCB",21-05-2024 10:00:00,27.19862,77.92066,SO2,14,17,15
India,Uttar_Pradesh,Agra,"Shastripuram, Agra - UPPCB",21-05-2024 10:00:00,27.19862,77.92066,CO,8,14,12
India,Uttar_Pradesh,Baghpat,"Sardar Patel Inter College, Baghpat - UPPCB",21-05-2024 10:00:00,28.964949,77.278761,NO2,20,39,26
India,Uttar_Pradesh,Baghpat,"Sardar Patel Inter College, Baghpat - UPPCB",21-05-2024 10:00:00,28.964949,77.278761,NH3,2,3,2
India,Uttar_Pradesh,Baghpat,"Sardar Patel Inter College, Baghpat - UPPCB",21-05-2024 10:00:00,28.964949,77.278761,OZONE,27,97,36
India,Uttar_Pradesh,Bareilly,"Civil Lines, Bareilly - UPPCB",21-05-2024 10:00:00,28.359581,79.414455,PM2.5,7,26,16
India,Uttar_Pradesh,Bareilly,"Civil Lines, Bareilly - UPPCB",21-05-2024 10:00:00,28.359581,79.414455,NO2,2,3,2
India,Uttar_Pradesh,Bareilly,"Civil Lines, Bareilly - UPPCB",21-05-2024 10:00:00,28.359581,79.414455,SO2,22,35,25
India,Uttar_Pradesh,Firozabad,"Nagla Bhau, Firozabad - UPPCB",21-05-2024 10:00:00,27.168897,78.376960,PM2.5,22,72,41
India,Uttar_Pradesh,Firozabad,"Nagla Bhau, Firozabad - UPPCB",21-05-2024 10:00:00,27.168897,78.376960,NH3,2,2,2
India,Uttar_Pradesh,Firozabad,"Nagla Bhau, Firozabad - UPPCB",21-05-2024 10:00:00,27.168897,78.376960,CO,26,48,29
India,Uttar_Pradesh,Ghaziabad,"Indirapuram, Ghaziabad - UPPCB",21-05-2024 10:00:00,28.646233,77.358075,NO2,61,125,86
India,Uttar_Pradesh,Ghaziabad,"Loni, Ghaziabad - UPPCB",21-05-2024 10:00:00,28.757294,77.278792,NO2,13,68,32
India,Uttar_Pradesh,Ghaziabad,"Loni, Ghaziabad - UPPCB",21-05-2024 10:00:00,28.757294,77.278792,NH3,1,5,3
India,Uttar_Pradesh,Ghaziabad,"Sanjay Nagar, Ghaziabad - UPPCB",21-05-2024 10:00:00,28.685382,77.453839,PM2.5,55,237,102
India,Uttar_Pradesh,Ghaziabad,"Sanjay Nagar, Ghaziabad - UPPCB",21-05-2024 10:00:00,28.685382,77.453839,NH3,9,22,13
India,Uttar_Pradesh,Gorakhpur,"Madan Mohan Malaviya University of Technology, Gorakhpur - UPPCB",21-05-2024 10:00:00,26.730136,83.433859,NH3,1,1,1
India,Uttar_Pradesh,Gorakhpur,"Madan Mohan Malaviya University of Technology, Gorakhpur - UPPCB",21-05-2024 10:00:00,26.730136,83.433859,OZONE,2,9,8
India,Uttar_Pradesh,Greater Noida,"Knowledge Park - V, Greater Noida - UPPCB",21-05-2024 10:00:00,28.557054,77.453663,CO,2,117,69
India,Uttar_Pradesh,Hapur,"Anand Vihar, Hapur - UPPCB",21-05-2024 10:00:00,28.725645,77.749675,NO2,6,25,10
India,Uttar_Pradesh,Hapur,"Anand Vihar, Hapur - UPPCB",21-05-2024 10:00:00,28.725645,77.749675,CO,24,40,26
India,Uttar_Pradesh,Kanpur,"FTI Kidwai Nagar, Kanpur - UPPCB",21-05-2024 10:00:00,26.428282,80.327067,NO2,12,13,13
India,Uttar_Pradesh,Kanpur,"NSI Kalyanpur, Kanpur - UPPCB",21-05-2024 10:00:00,26.509954,80.249612,PM2.5,22,308,100
India,Uttar_Pradesh,Kanpur,"NSI Kalyanpur, Kanpur - UPPCB",21-05-2024 10:00:00,26.509954,80.249612,NO2,16,18,17
India,Uttar_Pradesh,Kanpur,"NSI Kalyanpur, Kanpur - UPPCB",21-05-2024 10:00:00,26.509954,80.249612,OZONE,7,97,40
India,Uttar_Pradesh,Khurja,"Kalindi Kunj, Khurja - UPPCB",21-05-2024 10:00:00,28.2348927,77.8683002,SO2,53,86,58
India,Uttar_Pradesh,Lucknow,"B R Ambedkar University, Lucknow - UPPCB",21-05-2024 10:00:00,26.766433,80.927299,NH3,5,9,7
India,Uttar_Pradesh,Lucknow,"B R Ambedkar University, Lucknow - UPPCB",21-05-2024 10:00:00,26.766433,80.927299,CO,24,33,25
India,Uttar_Pradesh,Lucknow,"Gomti Nagar, Lucknow - UPPCB",21-05-2024 10:00:00,26.868120,81.005119,PM10,40,418,110
India,Uttar_Pradesh,Lucknow,"Gomti Nagar, Lucknow - UPPCB",21-05-2024 10:00:00,26.868120,81.005119,NO2,9,12,10
India,Uttar_Pradesh,Lucknow,"Gomti Nagar, Lucknow - UPPCB",21-05-2024 10:00:00,26.868120,81.005119,OZONE,33,43,34
India,Uttar_Pradesh,Lucknow,"Kendriya Vidyalaya, Lucknow - CPCB",21-05-2024 10:00:00,26.906111,80.948222,PM10,80,415,138
India,Uttar_Pradesh,Lucknow,"Lalbagh, Lucknow - CPCB",21-05-2024 10:00:00,26.8458805,80.9365541,NO2,14,15,15
India,Uttar_Pradesh,Lucknow,"Lalbagh, Lucknow - CPCB",21-05-2024 10:00:00,26.8458805,80.9365541,SO2,1,12,7
India,Uttar_Pradesh,Lucknow,"Lalbagh, Lucknow - CPCB",21-05-2024 10:00:00,26.8458805,80.9365541,CO,6,105,52
India,Uttar_Pradesh,Lucknow,"Talkatora District Industries Center, Lucknow - CPCB",21-05-2024 10:00:00,26.83399722,80.8917361,OZONE,2,80,9
India,Uttar_Pradesh,Meerut,"Jai Bhim Nagar, Meerut - UPPCB",21-05-2024 10:00:00,28.9535882,77.7622941,PM2.5,47,195,109
India,Uttar_Pradesh,Moradabad,"Buddhi Vihar, Moradabad - UPPCB",21-05-2024 10:00:00,28.83526,78.74460,OZONE,1,62,16
India,Uttar_Pradesh,Moradabad,"Eco Herbal Park, Moradabad - UPPCB",21-05-2024 10:00:00,28.840739,78.697531,PM2.5,22,75,48
India,Uttar_Pradesh,Moradabad,"Eco Herbal Park, Moradabad - UPPCB",21-05-2024 10:00:00,28.840739,78.697531,SO2,16,101,30
India,Uttar_Pradesh,Moradabad,"Employment Office, Moradabad - UPPCB",21-05-2024 10:00:00,28.88528,78.73880,PM2.5,31,88,49
India,Uttar_Pradesh,Moradabad,"Jigar Colony, Moradabad - UPPCB",21-05-2024 10:00:00,28.856664,78.772638,NO2,16,18,17
India,Uttar_Pradesh,Moradabad,"Jigar Colony, Moradabad - UPPCB",21-05-2024 10:00:00,28.856664,78.772638,CO,5,40,32
India,Uttar_Pradesh,Moradabad,"Kashiram Nagar, Moradabad - UPPCB",21-05-2024 10:00:00,28.849399,78.742362,PM2.5,37,128,70
India,Uttar_Pradesh,Moradabad,"Transport Nagar, Moradabad - UPPCB",21-05-2024 10:00:00,28.802625,78.753728,NO2,4,5,4
India,Uttar_Pradesh,Muzaffarnagar,"New Mandi, Muzaffarnagar - UPPCB",21-05-2024 10:00:00,29.4723508,77.7194031,PM10,127,236,174
India,Uttar_Pradesh,Muzaffarnagar,"New Mandi, Muzaffarnagar - UPPCB",21-05-2024 10:00:00,29.4723508,77.7194031,NO2,13,50,24
India,Uttar_Pradesh,Muzaffarnagar,"New Mandi, Muzaffarnagar - UPPCB",21-05-2024 10:00:00,29.4723508,77.7194031,CO,34,62,36
India,Uttar_Pradesh,Muzaffarnagar,"New Mandi, Muzaffarnagar - UPPCB",21-05-2024 10:00:00,29.4723508,77.7194031,OZONE,31,82,41
India,Uttar_Pradesh,Noida,"Sector - 125, Noida - UPPCB",21-05-2024 10:00:00,28.5447608,77.3231257,PM2.5,47,417,187
India,Uttar_Pradesh,Noida,"Sector - 125, Noida - UPPCB",21-05-2024 10:00:00,28.5447608,77.3231257,OZONE,2,75,4
India,Uttar_Pradesh,Noida,"Sector - 62, Noida - IMD",21-05-2024 10:00:00,28.6245479,77.3577104,PM2.5,62,222,151
India,Uttar_Pradesh,Noida,"Sector-1, Noida - UPPCB",21-05-2024 10:00:00,28.5898,77.3101,PM2.5,35,278,119
India,Uttar_Pradesh,Noida,"Sector-1, Noida - UPPCB",21-05-2024 10:00:00,28.5898,77.3101,NO2,15,139,47
India,Uttar_Pradesh,Noida,"Sector-116, Noida - UPPCB",21-05-2024 10:00:00,28.569230,77.393848,NO2,13,126,38
India,Uttar_Pradesh,Noida,"Sector-116, Noida - UPPCB",21-05-2024 10:00:00,28.569230,77.393848,OZONE,15,197,30
India,Uttar_Pradesh,Prayagraj,"Jhunsi, Prayagraj - UPPCB",21-05-2024 10:00:00,25.425602,81.917152,SO2,31,32,31
India,Uttar_Pradesh,Prayagraj,"Motilal Nehru NIT, Prayagraj - UPPCB",21-05-2024 10:00:00,25.494,81.863,PM2.5,19,49,27
India,Uttar_Pradesh,Prayagraj,"Motilal Nehru NIT, Prayagraj - UPPCB",21-05-2024 10:00:00,25.494,81.863,NO2,11,12,12
India,Uttar_Pradesh,Prayagraj,"Nagar Nigam, Prayagraj - UPPCB",21-05-2024 10:00:00,25.44919916 ,81.82735986 ,PM10,27,86,42
India,Uttar_Pradesh,Varanasi,"Bhelupur, Varanasi - UPPCB",21-05-2024 10:00:00,25.301778,82.996789,CO,12,26,13
India,Uttar_Pradesh,Varanasi,"IESD Banaras Hindu University, Varanasi - UPPCB",21-05-2024 10:00:00,25.262326,82.995408,CO,4,10,5
India,Uttar_Pradesh,Varanasi,"IESD Banaras Hindu University, Varanasi - UPPCB",21-05-2024 10:00:00,25.262326,82.995408,OZONE,1,19,1
India,Uttar_Pradesh,Varanasi,"Maldahiya, Varanasi - UPPCB",21-05-2024 10:00:00,25.32393,82.99687,NH3,1,1,1
India,Uttar_Pradesh,Vrindavan,"Omex Eternity, Vrindavan - UPPCB",21-05-2024 10:00:00,27.5714090,77.6557570,NO2,2,11,3
India,Uttarakhand,Dehradun,"Doon University, Dehradun - UKPCB",21-05-2024 10:00:00,30.269444,78.044167,SO2,1,4,2
India,Uttarakhand,Dehradun,"Doon University, Dehradun - UKPCB",21-05-2024 10:00:00,30.269444,78.044167,OZONE,47,147,70
India,Uttarakhand,Kashipur,"Govt. Girls Inter College, Kashipur - UKPCB",21-05-2024 10:00:00,29.2124114,78.9611753,NO2,16,35,24
India,Uttarakhand,Kashipur,"Govt. Girls Inter College, Kashipur - UKPCB",21-05-2024 10:00:00,29.2124114,78.9611753,SO2,6,10,8
India,Uttarakhand,Kashipur,"Govt. Girls Inter College, Kashipur - UKPCB",21-05-2024 10:00:00,29.2124114,78.9611753,OZONE,42,111,53
India,Uttarakhand,Rishikesh,"Shivaji Nagar, Rishikesh - UKPCB",21-05-2024 10:00:00,30.075911,78.2859547,NO2,6,27,13
India,West_Bengal,Asansol,"Asansol Court Area, Asansol - WBPCB",21-05-2024 10:00:00,23.685297,86.945968,OZONE,86,216,111
India,West_Bengal,Barrackpore,"SVSPA Campus, Barrackpore - WBPCB",21-05-2024 10:00:00,22.7605581,88.3617589,NO2,7,17,10
India,West_Bengal,Barrackpore,"SVSPA Campus, Barrackpore - WBPCB",21-05-2024 10:00:00,22.7605581,88.3617589,NH3,1,1,1
India,West_Bengal,Barrackpore,"SVSPA Campus, Barrackpore - WBPCB",21-05-2024 10:00:00,22.7605581,88.3617589,SO2,7,9,8
India,West_Bengal,Barrackpore,"SVSPA Campus, Barrackpore - WBPCB",21-05-2024 10:00:00,22.7605581,88.3617589,CO,4,12,10
India,West_Bengal,Barrackpore,"SVSPA Campus, Barrackpore - WBPCB",21-05-2024 10:00:00,22.7605581,88.3617589,OZONE,1,40,4
India,West_Bengal,Haldia,"Priyambada Housing Estate, Haldia - WBPCB",21-05-2024 10:00:00,22.06047,88.109737,NH3,4,5,4
India,West_Bengal,Howrah,"Belur Math, Howrah - WBPCB",21-05-2024 10:00:00,22.629801,88.352017,PM10,16,67,39
India,West_Bengal,Howrah,"Belur Math, Howrah - WBPCB",21-05-2024 10:00:00,22.629801,88.352017,OZONE,11,42,16
India,West_Bengal,Howrah,"Padmapukur, Howrah - WBPCB",21-05-2024 10:00:00,22.5687319,88.2797276,NO2,19,45,29
India,West_Bengal,Howrah,"Padmapukur, Howrah - WBPCB",21-05-2024 10:00:00,22.5687319,88.2797276,SO2,7,51,17
India,West_Bengal,Howrah,"Padmapukur, Howrah - WBPCB",21-05-2024 10:00:00,22.5687319,88.2797276,CO,6,56,30
India,West_Bengal,Kolkata,"Ballygunge, Kolkata - WBPCB",21-05-2024 10:00:00,22.5367507,88.3638022,PM10,20,49,32
India,West_Bengal,Kolkata,"Ballygunge, Kolkata - WBPCB",21-05-2024 10:00:00,22.5367507,88.3638022,NH3,3,7,5
India,West_Bengal,Kolkata,"Bidhannagar, Kolkata - WBPCB",21-05-2024 10:00:00,22.58157048,88.41002457,PM10,16,39,26
India,West_Bengal,Kolkata,"Bidhannagar, Kolkata - WBPCB",21-05-2024 10:00:00,22.58157048,88.41002457,NO2,18,38,22
India,West_Bengal,Kolkata,"Bidhannagar, Kolkata - WBPCB",21-05-2024 10:00:00,22.58157048,88.41002457,CO,20,28,26
India,West_Bengal,Kolkata,"Fort William, Kolkata - WBPCB",21-05-2024 10:00:00,22.556640,88.342674,SO2,6,8,7
India,West_Bengal,Kolkata,"Fort William, Kolkata - WBPCB",21-05-2024 10:00:00,22.556640,88.342674,CO,15,26,23
India,West_Bengal,Kolkata,"Jadavpur, Kolkata - WBPCB",21-05-2024 10:00:00,22.49929,88.36917,PM2.5,8,39,21
India,West_Bengal,Kolkata,"Rabindra Bharati University, Kolkata - WBPCB",21-05-2024 10:00:00,22.627847,88.380669,PM10,19,40,31
India,West_Bengal,Kolkata,"Rabindra Bharati University, Kolkata - WBPCB",21-05-2024 10:00:00,22.627847,88.380669,CO,22,36,27
India,West_Bengal,Kolkata,"Rabindra Sarobar, Kolkata - WBPCB",21-05-2024 10:00:00,22.51106,88.35142,PM2.5,12,30,18
India,West_Bengal,Kolkata,"Rabindra Sarobar, Kolkata - WBPCB",21-05-2024 10:00:00,22.51106,88.35142,PM10,25,52,35
India,West_Bengal,Kolkata,"Rabindra Sarobar, Kolkata - WBPCB",21-05-2024 10:00:00,22.51106,88.35142,NO2,17,37,27
India,West_Bengal,Kolkata,"Victoria, Kolkata - WBPCB",21-05-2024 10:00:00,22.5448082,88.3403691,PM2.5,25,42,32
India,West_Bengal,Kolkata,"Victoria, Kolkata - WBPCB",21-05-2024 10:00:00,22.5448082,88.3403691,PM10,27,62,42
India,West_Bengal,Siliguri,"Ward-32 Bapupara, Siliguri - WBPCB",21-05-2024 10:00:00,26.6879226,88.4152495,CO,18,62,23
India,Andhra_Pradesh,Amaravati,"Secretariat, Amaravati - APPCB",21-05-2024 10:00:00,16.5150833,80.5181667,OZONE,1,14,6
India,Andhra_Pradesh,Anantapur,"Gulzarpet, Anantapur - APPCB",21-05-2024 10:00:00,14.675886,77.593027,NO2,NA,NA,NA
India,Andhra_Pradesh,Anantapur,"Gulzarpet, Anantapur - APPCB",21-05-2024 10:00:00,14.675886,77.593027,OZONE,1,24,1
India,Andhra_Pradesh,Kadapa,"Yerramukkapalli, Kadapa - APPCB",21-05-2024 10:00:00,14.465052,78.824187,NO2,NA,NA,NA
India,Andhra_Pradesh,Kadapa,"Yerramukkapalli, Kadapa - APPCB",21-05-2024 10:00:00,14.465052,78.824187,CO,10,22,16
India,Andhra_Pradesh,Rajamahendravaram,"Anand Kala Kshetram, Rajamahendravaram - APPCB",21-05-2024 10:00:00,16.9872867,81.7363176,PM10,7,34,20
India,Andhra_Pradesh,Rajamahendravaram,"Anand Kala Kshetram, Rajamahendravaram - APPCB",21-05-2024 10:00:00,16.9872867,81.7363176,NO2,9,35,20
India,Andhra_Pradesh,Tirupati,"Vaikuntapuram, Tirupati - APPCB",21-05-2024 10:00:00,13.615387,79.409230,PM10,13,46,15
India,Andhra_Pradesh,Tirupati,"Vaikuntapuram, Tirupati - APPCB",21-05-2024 10:00:00,13.615387,79.409230,NH3,2,4,3
India,Andhra_Pradesh,Tirupati,"Vaikuntapuram, Tirupati - APPCB",21-05-2024 10:00:00,13.615387,79.409230,SO2,4,5,5
India,Andhra_Pradesh,Tirupati,"Vaikuntapuram, Tirupati - APPCB",21-05-2024 10:00:00,13.615387,79.409230,CO,10,14,12
India,Andhra_Pradesh,Vijayawada,"Kanuru, Vijayawada - APPCB",21-05-2024 10:00:00,16.486692,80.699436,PM10,48,55,52
India,Andhra_Pradesh,Vijayawada,"Kanuru, Vijayawada - APPCB",21-05-2024 10:00:00,16.486692,80.699436,NH3,1,1,1
India,Andhra_Pradesh,Vijayawada,"Rajiv Gandhi Park, Vijayawada - APPCB",21-05-2024 10:00:00,16.509717,80.612222,PM2.5,32,73,47
India,Andhra_Pradesh,Vijayawada,"Rajiv Gandhi Park, Vijayawada - APPCB",21-05-2024 10:00:00,16.509717,80.612222,SO2,5,9,6
India,Andhra_Pradesh,Vijayawada,"Rajiv Nagar, Vijayawada - APPCB",21-05-2024 10:00:00,16.554731,80.649110,PM10,59,129,67
India,Andhra_Pradesh,Visakhapatnam,"GVM Corporation, Visakhapatnam - APPCB",21-05-2024 10:00:00,17.72,83.3,PM2.5,3,48,24
India,Assam,Byrnihat,"Central Academy for SFS, Byrnihat - PCBA",21-05-2024 10:00:00,26.071318,91.87488,NO2,19,44,27
India,Assam,Guwahati,"IITG, Guwahati - PCBA",21-05-2024 10:00:00,26.2028636,91.70046436,PM10,28,154,61
India,Assam,Guwahati,"IITG, Guwahati - PCBA",21-05-2024 10:00:00,26.2028636,91.70046436,NO2,1,4,2
India,Assam,Guwahati,"LGBI Airport, Guwahati - PCBA",21-05-2024 10:00:00,26.10887,91.589544,OZONE,9,49,31
India,Assam,Guwahati,"Railway Colony, Guwahati - PCBA",21-05-2024 10:00:00,26.181742,91.78063,PM10,29,119,72
India,Assam,Guwahati,"Railway Colony, Guwahati - PCBA",21-05-2024 10:00:00,26.181742,91.78063,OZONE,1,43,11
India,Assam,Nalbari,"Bata Chowk, Nalbari - PCBA",21-05-2024 10:00:00,26.446912,91.439057,PM10,24,277,100
India,Assam,Nalbari,"Bata Chowk, Nalbari - PCBA",21-05-2024 10:00:00,26.446912,91.439057,CO,17,109,69
India,Assam,Silchar,"Tarapur, Silchar - PCBA",21-05-2024 10:00:00,24.82827,92.79525,CO,34,56,49
India,Assam,Silchar,"Tarapur, Silchar - PCBA",21-05-2024 10:00:00,24.82827,92.79525,OZONE,NA,NA,NA
India,Assam,Sivasagar,"Girls College, Sivasagar - PCBA",21-05-2024 10:00:00,26.987634,94.636574,PM10,43,70,59
India,Assam,Sivasagar,"Girls College, Sivasagar - PCBA",21-05-2024 10:00:00,26.987634,94.636574,NO2,8,14,10
India,Bihar,Arrah,"New DM Office, Arrah - BSPCB",21-05-2024 10:00:00,25.5626095,84.663264,CO,8,24,16
India,Bihar,Aurangabad,"Gurdeo Nagar, Aurangabad - BSPCB",21-05-2024 10:00:00,24.75746,84.366208,PM10,32,118,67
India,Bihar,Aurangabad,"Gurdeo Nagar, Aurangabad - BSPCB",21-05-2024 10:00:00,24.75746,84.366208,CO,10,46,33
India,Bihar,Bettiah,"Kamalnath Nagar, Bettiah - BSPCB",21-05-2024 10:00:00,26.80365,84.51954,OZONE,2,9,3
India,Bihar,Bhagalpur,"DM Office_Kachari Chowk, Bhagalpur - BSPCB",21-05-2024 10:00:00,25.251013,86.989001,OZONE,40,49,46
India,Bihar,Bihar Sharif,"D M Colony, Bihar Sharif - BSPCB",21-05-2024 10:00:00,25.204762,85.514960,PM10,30,139,79
India,Bihar,Gaya,"Collectorate, Gaya - BSPCB",21-05-2024 10:00:00,24.7955,84.9994,SO2,7,24,13
India,Bihar,Gaya,"Collectorate, Gaya - BSPCB",21-05-2024 10:00:00,24.7955,84.9994,OZONE,52,82,62
India,Bihar,Gaya,"Kareemganj, Gaya - BSPCB",21-05-2024 10:00:00,24.792403,84.992416,NH3,3,4,4
India,Bihar,Gaya,"Kareemganj, Gaya - BSPCB",21-05-2024 10:00:00,24.792403,84.992416,OZONE,5,63,21
India,Bihar,Hajipur,"Industrial Area, Hajipur - BSPCB",21-05-2024 10:00:00,25.697189,85.245900,OZONE,3,17,12
India,Bihar,Katihar,"Mirchaibari, Katihar - BSPCB",21-05-2024 10:00:00,25.560083,87.553265,NH3,1,6,2
India,Bihar,Katihar,"Mirchaibari, Katihar - BSPCB",21-05-2024 10:00:00,25.560083,87.553265,CO,22,29,25
India,Bihar,Kishanganj,"SDM Office_Khagra, Kishanganj - BSPCB",21-05-2024 10:00:00,26.0881305,87.93840336,PM10,17,98,54
India,Bihar,Manguraha,"Forest Rest House, Manguraha - BSPCB",21-05-2024 10:00:00,27.308328,84.531742,NO2,22,30,27
India,Bihar,Muzaffarpur,"Buddha Colony, Muzaffarpur - BSPCB",21-05-2024 10:00:00,26.11442,85.39813,OZONE,29,62,36
India,Bihar,Muzaffarpur,"MIT-Daudpur Kothi, Muzaffarpur - BSPCB",21-05-2024 10:00:00,26.1403345,85.3650192,PM10,36,90,56
India,Bihar,Muzaffarpur,"Muzaffarpur Collectorate, Muzaffarpur - BSPCB",21-05-2024 10:00:00,26.1209,85.3647,SO2,6,12,8
India,Bihar,Patna,"DRM Office Danapur, Patna - BSPCB",21-05-2024 10:00:00,25.586562,85.043586,OZONE,16,68,25
India,Bihar,Patna,"IGSC Planetarium Complex, Patna - BSPCB",21-05-2024 10:00:00,25.610369,85.132568,PM2.5,62,124,78
India,Bihar,Patna,"IGSC Planetarium Complex, Patna - BSPCB",21-05-2024 10:00:00,25.610369,85.132568,NO2,9,10,10
India,Bihar,Patna,"IGSC Planetarium Complex, Patna - BSPCB",21-05-2024 10:00:00,25.610369,85.132568,OZONE,43,45,44
India,Bihar,Patna,"Muradpur, Patna - BSPCB",21-05-2024 10:00:00,25.619651,85.147382,NH3,4,6,5
India,Bihar,Patna,"Muradpur, Patna - BSPCB",21-05-2024 10:00:00,25.619651,85.147382,SO2,5,10,6
India,Bihar,Patna,"Muradpur, Patna - BSPCB",21-05-2024 10:00:00,25.619651,85.147382,CO,33,60,45
India,Bihar,Patna,"Rajbansi Nagar, Patna - BSPCB",21-05-2024 10:00:00,25.599486,85.113666,NO2,5,19,11
India,Bihar,Purnia,"Mariam Nagar, Purnia - BSPCB",21-05-2024 10:00:00,25.366336,87.117468,PM2.5,NA,NA,NA
India,Bihar,Purnia,"Mariam Nagar, Purnia - BSPCB",21-05-2024 10:00:00,25.366336,87.117468,PM10,NA,NA,NA
India,Bihar,Purnia,"Mariam Nagar, Purnia - BSPCB",21-05-2024 10:00:00,25.366336,87.117468,CO,NA,NA,NA
India,Bihar,Rajgir,"Dangi Tola, Rajgir - BSPCB",21-05-2024 10:00:00,25.03280,85.41948,NO2,16,17,17
India,Bihar,Rajgir,"Dangi Tola, Rajgir - BSPCB",21-05-2024 10:00:00,25.03280,85.41948,OZONE,28,53,36
India,Bihar,Saharsa,"Police Line, Saharsa - BSPCB",21-05-2024 10:00:00,25.892357,86.590325,PM10,26,77,43
India,Bihar,Saharsa,"Police Line, Saharsa - BSPCB",21-05-2024 10:00:00,25.892357,86.590325,CO,54,55,54
India,Bihar,Samastipur,"DM Office_Kasipur, Samastipur - BSPCB",21-05-2024 10:00:00,25.859655,85.77944,NH3,NA,NA,NA
India,Bihar,Samastipur,"DM Office_Kasipur, Samastipur - BSPCB",21-05-2024 10:00:00,25.859655,85.77944,CO,NA,NA,NA
India,Bihar,Samastipur,"DM Office_Kasipur, Samastipur - BSPCB",21-05-2024 10:00:00,25.859655,85.77944,OZONE,4,10,4
India,Bihar,Sasaram,"Dada Peer, Sasaram - BSPCB",21-05-2024 10:00:00,24.952822,84.002396,NO2,7,85,39
India,Bihar,Sasaram,"Dada Peer, Sasaram - BSPCB",21-05-2024 10:00:00,24.952822,84.002396,SO2,NA,NA,NA
India,Bihar,Siwan,"Chitragupta Nagar, Siwan - BSPCB",21-05-2024 10:00:00,26.2271665,84.3570427,NH3,1,2,1
India,Chandigarh,Chandigarh,"Sector 22, Chandigarh - CPCC",21-05-2024 10:00:00,30.735567,76.775714,PM10,59,203,126
India,Chandigarh,Chandigarh,"Sector 22, Chandigarh - CPCC",21-05-2024 10:00:00,30.735567,76.775714,CO,30,77,47
India,Chandigarh,Chandigarh,"Sector 22, Chandigarh - CPCC",21-05-2024 10:00:00,30.735567,76.775714,OZONE,5,242,100
India,Chandigarh,Chandigarh,"Sector-25, Chandigarh - CPCC",21-05-2024 10:00:00,30.751462,76.762879,PM10,121,166,137
India,Chandigarh,Chandigarh,"Sector-25, Chandigarh - CPCC",21-05-2024 10:00:00,30.751462,76.762879,NO2,5,47,19
India,Chandigarh,Chandigarh,"Sector-25, Chandigarh - CPCC",21-05-2024 10:00:00,30.751462,76.762879,SO2,7,19,11
India,Chandigarh,Chandigarh,"Sector-53, Chandigarh - CPCC",21-05-2024 10:00:00,30.719859,76.738637,CO,36,113,50
India,Chhattisgarh,Bhilai,"32Bungalows, Bhilai - CECB",21-05-2024 10:00:00,21.194815,81.314770,NH3,6,6,6
India,Chhattisgarh,Bhilai,"Civic Center, Bhilai - Bhilai Steel Plant",21-05-2024 10:00:00,21.185571,81.343175,CO,18,56,38
India,Chhattisgarh,Bhilai,"Hathkhoj, Bhilai - CECB",21-05-2024 10:00:00,21.224231,81.408350,OZONE,28,42,35
India,Chhattisgarh,Bilaspur,"Mangala, Bilaspur - NTPC",21-05-2024 10:00:00,22.08815,82.13737,PM10,26,119,48
India,Chhattisgarh,Chhal,"Nawapara SECL Colony, Chhal - CECB",21-05-2024 10:00:00,22.118125,83.140608,PM10,NA,NA,NA
India,Chhattisgarh,Chhal,"Nawapara SECL Colony, Chhal - CECB",21-05-2024 10:00:00,22.118125,83.140608,NO2,NA,NA,NA
India,Chhattisgarh,Chhal,"Nawapara SECL Colony, Chhal - CECB",21-05-2024 10:00:00,22.118125,83.140608,NH3,NA,NA,NA
India,Chhattisgarh,Korba,"Rampur, Korba - CECB",21-05-2024 10:00:00,22.368195,82.746431,PM10,23,256,69
India,Chhattisgarh,Kunjemura,"OP Jindal School, Kunjemura - CECB",21-05-2024 10:00:00,22.126650,83.483212,PM10,22,164,75
India,Chhattisgarh,Raipur,"Bhatagaon New ISBT, Raipur - CECB",21-05-2024 10:00:00,21.219665,81.630094,NH3,2,2,2
India,Chhattisgarh,Raipur,"Bhatagaon New ISBT, Raipur - CECB",21-05-2024 10:00:00,21.219665,81.630094,OZONE,3,6,5
India,Chhattisgarh,Raipur,"Krishak Nagar, Raipur - CECB",21-05-2024 10:00:00,21.237755,81.705301,PM10,15,82,33
India,Chhattisgarh,Raipur,"Krishak Nagar, Raipur - CECB",21-05-2024 10:00:00,21.237755,81.705301,NO2,16,16,16
India,Chhattisgarh,Raipur,"Krishak Nagar, Raipur - CECB",21-05-2024 10:00:00,21.237755,81.705301,OZONE,7,43,11
India,Chhattisgarh,Raipur,"Siltara Phase-II, Raipur - CECB",21-05-2024 10:00:00,21.371751,81.664929,PM10,26,147,68
India,Chhattisgarh,Tumidih,"OP Jindal Industrial Park, Tumidih - CECB",21-05-2024 10:00:00,22.06631475,83.33820077,NH3,NA,NA,NA
India,Delhi,Delhi,"Anand Vihar, Delhi - DPCC",21-05-2024 10:00:00,28.647622,77.3158090,PM2.5,113,350,242
India,Delhi,Delhi,"Ashok Vihar, Delhi - DPCC",21-05-2024 10:00:00,28.695381,77.181665,OZONE,10,178,33
India,Delhi,Delhi,"Aya Nagar, Delhi - IMD",21-05-2024 10:00:00,28.4706914,77.1099364,PM2.5,NA,NA,NA
India,Delhi,Delhi,"Aya Nagar, Delhi - IMD",21-05-2024 10:00:00,28.4706914,77.1099364,PM10,NA,NA,NA
India,Delhi,Delhi,"Bawana, Delhi - DPCC",21-05-2024 10:00:00,28.776200,77.051074,PM10,147,403,243
India,Delhi,Delhi,"Burari Crossing, Delhi - IMD",21-05-2024 10:00:00,28.7256504,77.2011573,PM2.5,NA,NA,NA
India,Delhi,Delhi,"Chandni Chowk, Delhi - IITM",21-05-2024 10:00:00,28.656756,77.227234,PM2.5,146,331,245
India,Delhi,Delhi,"Chandni Chowk, Delhi - IITM",21-05-2024 10:00:00,28.656756,77.227234,NO2,10,52,18
India,Delhi,Delhi,"DTU, Delhi - CPCB",21-05-2024 10:00:00,28.7500499,77.1112615,NH3,34,78,58
India,Delhi,Delhi,"DTU, Delhi - CPCB",21-05-2024 10:00:00,28.7500499,77.1112615,SO2,37,42,39
India,Delhi,Delhi,"Dr. Karni Singh Shooting Range, Delhi - DPCC",21-05-2024 10:00:00,28.498571,77.264840,NO2,21,134,58
India,Delhi,Delhi,"Dr. Karni Singh Shooting Range, Delhi - DPCC",21-05-2024 10:00:00,28.498571,77.264840,NH3,6,12,7
India,Delhi,Delhi,"Dwarka-Sector 8, Delhi - DPCC ",21-05-2024 10:00:00,28.5710274,77.0719006,SO2,1,29,11
India,Delhi,Delhi,"Dwarka-Sector 8, Delhi - DPCC ",21-05-2024 10:00:00,28.5710274,77.0719006,CO,32,127,56
India,Delhi,Delhi,"IHBAS, Dilshad Garden, Delhi - CPCB",21-05-2024 10:00:00,28.6811736,77.3025234,PM10,130,276,184
India,Delhi,Delhi,"IHBAS, Dilshad Garden, Delhi - CPCB",21-05-2024 10:00:00,28.6811736,77.3025234,NO2,7,30,20
India,Delhi,Delhi,"IHBAS, Dilshad Garden, Delhi - CPCB",21-05-2024 10:00:00,28.6811736,77.3025234,OZONE,20,23,22
India,Delhi,Delhi,"ITO, Delhi - CPCB",21-05-2024 10:00:00,28.628624,77.241060,NH3,3,9,6
India,Delhi,Delhi,"Jahangirpuri, Delhi - DPCC",21-05-2024 10:00:00,28.732820,77.170633,NH3,3,12,6
India,Delhi,Delhi,"Jahangirpuri, Delhi - DPCC",21-05-2024 10:00:00,28.732820,77.170633,CO,32,105,77
India,Delhi,Delhi,"Jawaharlal Nehru Stadium, Delhi - DPCC",21-05-2024 10:00:00,28.580280,77.233829,OZONE,2,209,30
India,Delhi,Delhi,"Major Dhyan Chand National Stadium, Delhi - DPCC",21-05-2024 10:00:00,28.611281,77.237738,PM10,105,405,206
India,Delhi,Delhi,"Major Dhyan Chand National Stadium, Delhi - DPCC",21-05-2024 10:00:00,28.611281,77.237738,CO,28,106,72
India,Delhi,Delhi,"Mundka, Delhi - DPCC",21-05-2024 10:00:00,28.684678,77.076574,NO2,39,126,73
India,Delhi,Delhi,"Mundka, Delhi - DPCC",21-05-2024 10:00:00,28.684678,77.076574,OZONE,2,133,15
India,Delhi,Delhi,"NSIT Dwarka, Delhi - CPCB",21-05-2024 10:00:00,28.60909,77.0325413,SO2,2,25,17
India,Delhi,Delhi,"Najafgarh, Delhi - DPCC",21-05-2024 10:00:00,28.570173,76.933762,NH3,5,8,7
India,Delhi,Delhi,"Najafgarh, Delhi - DPCC",21-05-2024 10:00:00,28.570173,76.933762,SO2,10,19,13
India,Delhi,Delhi,"Narela, Delhi - DPCC",21-05-2024 10:00:00,28.822836,77.101981,PM2.5,57,325,194
India,Delhi,Delhi,"Narela, Delhi - DPCC",21-05-2024 10:00:00,28.822836,77.101981,PM10,171,446,288
India,Delhi,Delhi,"Narela, Delhi - DPCC",21-05-2024 10:00:00,28.822836,77.101981,NO2,11,106,43
India,Delhi,Delhi,"Nehru Nagar, Delhi - DPCC",21-05-2024 10:00:00,28.567890,77.250515,PM2.5,48,322,154
India,Delhi,Delhi,"Nehru Nagar, Delhi - DPCC",21-05-2024 10:00:00,28.567890,77.250515,PM10,124,385,225
India,Delhi,Delhi,"Nehru Nagar, Delhi - DPCC",21-05-2024 10:00:00,28.567890,77.250515,NH3,4,7,5
India,Delhi,Delhi,"Nehru Nagar, Delhi - DPCC",21-05-2024 10:00:00,28.567890,77.250515,CO,36,100,52
India,Delhi,Delhi,"Nehru Nagar, Delhi - DPCC",21-05-2024 10:00:00,28.567890,77.250515,OZONE,3,227,45
India,Delhi,Delhi,"New Moti Bagh, Delhi - MHUA",21-05-2024 10:00:00,28.57834,77.18400,PM2.5,46,346,182
India,Delhi,Delhi,"North Campus, DU, Delhi - IMD",21-05-2024 10:00:00,28.6573814,77.1585447,NO2,12,72,32
India,Delhi,Delhi,"Okhla Phase-2, Delhi - DPCC",21-05-2024 10:00:00,28.530785,77.271255,SO2,5,15,10
India,Delhi,Delhi,"Patparganj, Delhi - DPCC",21-05-2024 10:00:00,28.623763,77.287209,SO2,3,8,5
India,Delhi,Delhi,"Patparganj, Delhi - DPCC",21-05-2024 10:00:00,28.623763,77.287209,CO,22,52,24
India,Delhi,Delhi,"Punjabi Bagh, Delhi - DPCC",21-05-2024 10:00:00,28.674045,77.131023,PM10,125,404,225
India,Delhi,Delhi,"Punjabi Bagh, Delhi - DPCC",21-05-2024 10:00:00,28.674045,77.131023,CO,33,86,42
India,Delhi,Delhi,"Pusa, Delhi - DPCC",21-05-2024 10:00:00,28.639652,77.146275,PM10,151,395,228
India,Delhi,Delhi,"Pusa, Delhi - IMD",21-05-2024 10:00:00,28.636110,77.173332,PM10,1,313,192
India,Delhi,Delhi,"Pusa, Delhi - IMD",21-05-2024 10:00:00,28.636110,77.173332,NO2,4,16,8
India,Delhi,Delhi,"R K Puram, Delhi - DPCC",21-05-2024 10:00:00,28.563262,77.186937,CO,16,170,67
India,Delhi,Delhi,"Rohini, Delhi - DPCC",21-05-2024 10:00:00,28.732528,77.119920,PM10,133,424,258
India,Delhi,Delhi,"Rohini, Delhi - DPCC",21-05-2024 10:00:00,28.732528,77.119920,CO,16,108,46
India,Delhi,Delhi,"Sonia Vihar, Delhi - DPCC",21-05-2024 10:00:00,28.710508,77.249485,NO2,15,83,39
India,Delhi,Delhi,"Sonia Vihar, Delhi - DPCC",21-05-2024 10:00:00,28.710508,77.249485,CO,51,102,77
India,Delhi,Delhi,"Sri Aurobindo Marg, Delhi - DPCC",21-05-2024 10:00:00,28.531346,77.190156,PM10,124,399,211
India,Delhi,Delhi,"Sri Aurobindo Marg, Delhi - DPCC",21-05-2024 10:00:00,28.531346,77.190156,OZONE,1,99,18
India,Delhi,Delhi,"Vivek Vihar, Delhi - DPCC",21-05-2024 10:00:00,28.672342,77.315260,NO2,28,130,58
India,Delhi,Delhi,"Wazirpur, Delhi - DPCC",21-05-2024 10:00:00,28.699793,77.165453,PM10,140,400,237
India,Gujarat,Ahmedabad,"Gyaspur, Ahmedabad - IITM",21-05-2024 10:00:00,22.977134,72.553024,SO2,20,27,24
India,Gujarat,Ahmedabad,"Maninagar, Ahmedabad - GPCB",21-05-2024 10:00:00,23.002657,72.591912,PM2.5,22,77,37
India,Gujarat,Ahmedabad,"Rakhial, Ahmedabad - IITM",21-05-2024 10:00:00,23.016834,72.625775,SO2,NA,NA,NA
India,Gujarat,Ahmedabad,"Rakhial, Ahmedabad - IITM",21-05-2024 10:00:00,23.016834,72.625775,CO,33,117,94
India,Gujarat,Ahmedabad,"SVPI Airport Hansol, Ahmedabad - IITM",21-05-2024 10:00:00,23.076793,72.627874,SO2,4,12,7
India,Gujarat,Ahmedabad,"Sardar Vallabhbhai Patel Stadium, Ahmedabad - IITM",21-05-2024 10:00:00,23.043070,72.562968,PM2.5,56,112,75
India,Gujarat,Ahmedabad,"Sardar Vallabhbhai Patel Stadium, Ahmedabad - IITM",21-05-2024 10:00:00,23.043070,72.562968,NO2,28,70,34
India,Gujarat,Ankleshwar,"GIDC, Ankleshwar - GPCB",21-05-2024 10:00:00,21.613267,73.010555,NH3,NA,NA,NA
India,Gujarat,Ankleshwar,"GIDC, Ankleshwar - GPCB",21-05-2024 10:00:00,21.613267,73.010555,SO2,NA,NA,NA
India,Gujarat,Ankleshwar,"GIDC, Ankleshwar - GPCB",21-05-2024 10:00:00,21.613267,73.010555,CO,NA,NA,NA
India,Gujarat,Gandhinagar,"Sector-10, Gandhinagar - GPCB",21-05-2024 10:00:00,23.221714,72.654328,NH3,3,3,3
India,Gujarat,Gandhinagar,"Sector-10, Gandhinagar - GPCB",21-05-2024 10:00:00,23.221714,72.654328,CO,22,36,25
India,Gujarat,Vatva,"Phase-4 GIDC, Vatva - GPCB",21-05-2024 10:00:00,22.969611,72.643500,PM2.5,15,42,27
India,Gujarat,Vatva,"Phase-4 GIDC, Vatva - GPCB",21-05-2024 10:00:00,22.969611,72.643500,PM10,47,76,62
India,Haryana,Ambala,"Patti Mehar, Ambala - HSPCB",21-05-2024 10:00:00,30.379589,76.778328,PM2.5,52,113,69
India,Haryana,Ambala,"Patti Mehar, Ambala - HSPCB",21-05-2024 10:00:00,30.379589,76.778328,NH3,5,12,9
India,Haryana,Bahadurgarh,"Arya Nagar, Bahadurgarh - HSPCB",21-05-2024 10:00:00,28.6701,76.9254,PM2.5,NA,NA,NA
India,Haryana,Bahadurgarh,"Arya Nagar, Bahadurgarh - HSPCB",21-05-2024 10:00:00,28.6701,76.9254,SO2,NA,NA,NA
India,Haryana,Ballabgarh,"Nathu Colony, Ballabgarh - HSPCB",21-05-2024 10:00:00,28.3419248,77.319699,PM2.5,96,310,223
India,Haryana,Ballabgarh,"Nathu Colony, Ballabgarh - HSPCB",21-05-2024 10:00:00,28.3419248,77.319699,CO,6,112,25
India,Haryana,Bhiwani,"H.B. Colony, Bhiwani - HSPCB",21-05-2024 10:00:00,28.806223,76.141105,OZONE,8,47,13
India,Haryana,Charkhi Dadri,"Mini Secretariat, Charkhi Dadri - HSPCB",21-05-2024 10:00:00,28.593883,76.270653,SO2,6,25,16
India,Haryana,Dharuhera,"Municipal Corporation Office, Dharuhera -  HSPCB",21-05-2024 10:00:00,28.206800,76.799700,PM2.5,NA,NA,NA
India,Haryana,Dharuhera,"Municipal Corporation Office, Dharuhera -  HSPCB",21-05-2024 10:00:00,28.206800,76.799700,NO2,44,111,80
India,Haryana,Dharuhera,"Municipal Corporation Office, Dharuhera -  HSPCB",21-05-2024 10:00:00,28.206800,76.799700,OZONE,7,38,20
India,Haryana,Faridabad,"New Industrial Town, Faridabad - HSPCB",21-05-2024 10:00:00,28.39072,77.30059,SO2,NA,NA,NA
India,Haryana,Faridabad,"Sector 30, Faridabad - HSPCB",21-05-2024 10:00:00,28.4417,77.3217,NO2,29,33,31
India,Haryana,Faridabad,"Sector- 16A, Faridabad - HSPCB",21-05-2024 10:00:00,28.4088421,77.3099081,PM2.5,33,296,129
India,Haryana,Fatehabad,"Huda Sector, Fatehabad - HSPCB",21-05-2024 10:00:00,29.503664,75.467934,PM10,NA,NA,NA
India,Haryana,Fatehabad,"Huda Sector, Fatehabad - HSPCB",21-05-2024 10:00:00,29.503664,75.467934,CO,NA,NA,NA
India,Haryana,Gurugram,"NISE Gwal Pahari, Gurugram - IMD",21-05-2024 10:00:00,28.422681,77.148944,OZONE,41,80,48
India,Haryana,Gurugram,"Sector-51, Gurugram - HSPCB",21-05-2024 10:00:00,28.4227,77.0667,NO2,2,29,22
India,Haryana,Gurugram,"Teri Gram, Gurugram - HSPCB",21-05-2024 10:00:00,28.4275,77.1465,NH3,16,43,24
India,Haryana,Gurugram,"Vikas Sadan, Gurugram - HSPCB",21-05-2024 10:00:00,28.4501238,77.0263051,CO,54,148,101
India,Haryana,Gurugram,"Vikas Sadan, Gurugram - HSPCB",21-05-2024 10:00:00,28.4501238,77.0263051,OZONE,7,69,14
India,Haryana,Hisar,"Urban Estate-II, Hisar - HSPCB",21-05-2024 10:00:00,29.140560,75.744941,SO2,4,59,13
India,Haryana,Jind,"Police Lines, Jind - HSPCB",21-05-2024 10:00:00,29.307814,76.337619,PM2.5,22,115,73
India,Haryana,Jind,"Police Lines, Jind - HSPCB",21-05-2024 10:00:00,29.307814,76.337619,CO,2,92,37
India,Haryana,Kaithal,"Rishi Nagar, Kaithal - HSPCB",21-05-2024 10:00:00,29.8006,76.4155,PM2.5,45,168,82
India,Haryana,Kaithal,"Rishi Nagar, Kaithal - HSPCB",21-05-2024 10:00:00,29.8006,76.4155,NH3,8,8,8
India,Haryana,Kaithal,"Rishi Nagar, Kaithal - HSPCB",21-05-2024 10:00:00,29.8006,76.4155,OZONE,13,35,21
India,Haryana,Karnal,"Sector-12, Karnal - HSPCB",21-05-2024 10:00:00,29.695300,77.002700,PM10,86,116,105
India,Haryana,Karnal,"Sector-12, Karnal - HSPCB",21-05-2024 10:00:00,29.695300,77.002700,SO2,12,13,12
India,Haryana,Karnal,"Sector-12, Karnal - HSPCB",21-05-2024 10:00:00,29.695300,77.002700,CO,16,41,29
India,Haryana,Kurukshetra,"Sector-7, Kurukshetra - HSPCB",21-05-2024 10:00:00,29.966942,76.875879,NH3,6,6,6
India,Haryana,Kurukshetra,"Sector-7, Kurukshetra - HSPCB",21-05-2024 10:00:00,29.966942,76.875879,CO,16,47,20
India,Haryana,Kurukshetra,"Sector-7, Kurukshetra - HSPCB",21-05-2024 10:00:00,29.966942,76.875879,OZONE,58,96,75
India,Haryana,Mandikhera,"General Hospital, Mandikhera - HSPCB",21-05-2024 10:00:00,27.9002,76.9938,SO2,32,37,34
India,Haryana,Manesar,"Sector-2 IMT, Manesar - HSPCB",21-05-2024 10:00:00,28.360699,76.936090,PM2.5,54,231,125
India,Haryana,Manesar,"Sector-2 IMT, Manesar - HSPCB",21-05-2024 10:00:00,28.360699,76.936090,OZONE,2,85,13
India,Haryana,Palwal,"Shyam Nagar, Palwal - HSPCB",21-05-2024 10:00:00,28.1485564,77.3320667,CO,20,38,31
India,Haryana,Panipat,"Sector-18, Panipat - HSPCB",21-05-2024 10:00:00,29.432304,76.972765,PM10,91,97,95
India,Haryana,Panipat,"Sector-18, Panipat - HSPCB",21-05-2024 10:00:00,29.432304,76.972765,SO2,18,20,19
India,Haryana,Rohtak,"MD University, Rohtak - HSPCB",21-05-2024 10:00:00,28.52123,76.37138,PM2.5,66,500,199
India,Haryana,Rohtak,"MD University, Rohtak - HSPCB",21-05-2024 10:00:00,28.52123,76.37138,SO2,6,9,7
India,Haryana,Sirsa,"F-Block, Sirsa - HSPCB",21-05-2024 10:00:00,29.536400,75.015800,OZONE,17,79,37
India,Haryana,Sonipat,"Murthal, Sonipat - HSPCB",21-05-2024 10:00:00,29.027200,77.062100,SO2,12,29,21
India,Haryana,Sonipat,"Murthal, Sonipat - HSPCB",21-05-2024 10:00:00,29.027200,77.062100,CO,10,94,26
India,Haryana,Yamuna Nagar,"Gobind Pura, Yamuna Nagar - HSPCB",21-05-2024 10:00:00,30.1480566,77.2893471,NH3,1,6,4
India,Haryana,Yamuna Nagar,"Gobind Pura, Yamuna Nagar - HSPCB",21-05-2024 10:00:00,30.1480566,77.2893471,OZONE,38,63,40
India,Jharkhand,Dhanbad,"Kalakusuma, Dhanbad - DMC",21-05-2024 10:00:00,23.811548,86.481238,PM2.5,NA,NA,NA
India,Jharkhand,Dhanbad,"Kalakusuma, Dhanbad - DMC",21-05-2024 10:00:00,23.811548,86.481238,CO,130,134,131
India,Jharkhand,Jorapokhar,"Tata Stadium, Jorapokhar - JSPCB",21-05-2024 10:00:00,23.707909,86.414670,NH3,NA,NA,NA
India,Karnataka,Bagalkot,"Vidayagiri, Bagalkot - KSPCB",21-05-2024 10:00:00,16.172806,75.659694,PM2.5,25,37,36
India,Karnataka,Bengaluru,"Bapuji Nagar, Bengaluru - KSPCB",21-05-2024 10:00:00,12.951913,77.539784,NO2,12,16,15
India,Karnataka,Bengaluru,"Bapuji Nagar, Bengaluru - KSPCB",21-05-2024 10:00:00,12.951913,77.539784,CO,18,100,35
India,Karnataka,Bengaluru,"Hebbal, Bengaluru - KSPCB",21-05-2024 10:00:00,13.029152,77.585901,PM2.5,3,55,26
India,Karnataka,Bengaluru,"Hebbal, Bengaluru - KSPCB",21-05-2024 10:00:00,13.029152,77.585901,CO,6,36,25
India,Karnataka,Bengaluru,"Hombegowda Nagar, Bengaluru - KSPCB",21-05-2024 10:00:00,12.938539,77.590100,NH3,1,2,2
India,Karnataka,Bengaluru,"Jayanagar 5th Block, Bengaluru - KSPCB",21-05-2024 10:00:00,12.920984,77.584908,PM2.5,5,60,31
India,Karnataka,Bengaluru,"Jayanagar 5th Block, Bengaluru - KSPCB",21-05-2024 10:00:00,12.920984,77.584908,CO,20,22,21
India,Karnataka,Bengaluru,"Jayanagar 5th Block, Bengaluru - KSPCB",21-05-2024 10:00:00,12.920984,77.584908,OZONE,22,28,23
India,Karnataka,Bengaluru,"Kasturi Nagar, Bengaluru - KSPCB",21-05-2024 10:00:00,13.003872,77.664217,NH3,3,4,4
India,Karnataka,Bengaluru,"Kasturi Nagar, Bengaluru - KSPCB",21-05-2024 10:00:00,13.003872,77.664217,SO2,10,10,10
India,Karnataka,Bengaluru,"Peenya, Bengaluru - CPCB",21-05-2024 10:00:00,13.0270199,77.494094,PM2.5,30,40,34
India,Karnataka,Bengaluru,"Sanegurava Halli, Bengaluru - KSPCB",21-05-2024 10:00:00,12.990328,77.5431385,CO,4,26,13
India,Karnataka,Bengaluru,"Shivapura_Peenya, Bengaluru - KSPCB",21-05-2024 10:00:00,13.0246342,77.5080115,NH3,4,4,4
India,Karnataka,Bengaluru,"Silk Board, Bengaluru - KSPCB",21-05-2024 10:00:00,12.917348,77.622813,PM10,14,149,54
India,Karnataka,Bidar,"Naubad, Bidar - KSPCB",21-05-2024 10:00:00,17.930306,77.482194,NO2,6,8,7
India,Karnataka,Bidar,"Naubad, Bidar - KSPCB",21-05-2024 10:00:00,17.930306,77.482194,SO2,17,22,19
India,Karnataka,Chamarajanagar,"Urban, Chamarajanagar - KSPCB",21-05-2024 10:00:00,11.55358,76.55521,NO2,22,30,27
India,Karnataka,Chamarajanagar,"Urban, Chamarajanagar - KSPCB",21-05-2024 10:00:00,11.55358,76.55521,SO2,4,7,4
India,Karnataka,Chikkaballapur,"Chikkaballapur Rural, Chikkaballapur - KSPCB",21-05-2024 10:00:00,13.428828,77.731418,OZONE,24,26,24
India,Karnataka,Chikkamagaluru,"Kalyana Nagara, Chikkamagaluru - KSPCB",21-05-2024 10:00:00,13.328028,75.797056,PM10,NA,NA,NA
India,Karnataka,Davanagere,"Devaraj Urs Badavane, Davanagere - KSPCB",21-05-2024 10:00:00,14.475800,75.905200,SO2,NA,NA,NA
India,Karnataka,Davanagere,"Devaraj Urs Badavane, Davanagere - KSPCB",21-05-2024 10:00:00,14.475800,75.905200,CO,NA,NA,NA
India,Karnataka,Dharwad,"Kalabhavan, Dharwad - KSPCB",21-05-2024 10:00:00,15.459706,75.008381,PM2.5,16,54,34
India,Karnataka,Gadag,"Panchal Nagar, Gadag - KSPCB",21-05-2024 10:00:00,15.411456,75.638133,PM2.5,5,30,14
India,Karnataka,Gadag,"Panchal Nagar, Gadag - KSPCB",21-05-2024 10:00:00,15.411456,75.638133,OZONE,NA,NA,NA
India,Karnataka,Haveri,"Ashwini Nagar, Haveri - KSPCB",21-05-2024 10:00:00,14.791800,75.389600,NO2,21,55,33
India,Karnataka,Haveri,"Ashwini Nagar, Haveri - KSPCB",21-05-2024 10:00:00,14.791800,75.389600,SO2,14,15,14
India,Karnataka,Kalaburagi,"Lal Bahadur Shastri Nagar, Kalaburagi - KSPCB",21-05-2024 10:00:00,17.321993,76.822628,PM10,1,128,50
India,Karnataka,Kalaburagi,"Lal Bahadur Shastri Nagar, Kalaburagi - KSPCB",21-05-2024 10:00:00,17.321993,76.822628,CO,42,52,44
India,Karnataka,Kalaburagi,"Lal Bahadur Shastri Nagar, Kalaburagi - KSPCB",21-05-2024 10:00:00,17.321993,76.822628,OZONE,7,81,16
India,Karnataka,Kalaburagi,"Mahatma Basaveswar Colony, Kalaburgi - KSPCB",21-05-2024 10:00:00,17.336318,76.847397,NO2,8,17,14
India,Karnataka,Kalaburagi,"Mahatma Basaveswar Colony, Kalaburgi - KSPCB",21-05-2024 10:00:00,17.336318,76.847397,NH3,2,4,3
India,Karnataka,Karwar,"KHB Colony, Karwar - KSPCB",21-05-2024 10:00:00,14.816666,74.141003,PM2.5,10,97,23
India,Karnataka,Karwar,"KHB Colony, Karwar - KSPCB",21-05-2024 10:00:00,14.816666,74.141003,SO2,22,24,23
India,Karnataka,Karwar,"KHB Colony, Karwar - KSPCB",21-05-2024 10:00:00,14.816666,74.141003,CO,9,10,9
India,Karnataka,Koppal,"Diwator Nagar, Koppal - KSPCB",21-05-2024 10:00:00,15.347630,76.181767,PM10,4,46,14
India,Karnataka,Koppal,"Diwator Nagar, Koppal - KSPCB",21-05-2024 10:00:00,15.347630,76.181767,SO2,27,29,27
India,Karnataka,Madikeri,"Stuart Hill, Madikeri - KSPCB",21-05-2024 10:00:00,12.415911,75.735050,PM2.5,2,11,6
India,Karnataka,Madikeri,"Stuart Hill, Madikeri - KSPCB",21-05-2024 10:00:00,12.415911,75.735050,CO,2,86,36
India,Karnataka,Mangalore,"Kadri, Mangalore - KSPCB",21-05-2024 10:00:00,12.889250,74.853000,CO,36,44,36
India,Karnataka,Ramanagara,"Vijay Nagar, Ramanagara - KSPCB",21-05-2024 10:00:00,12.733409,77.298051,OZONE,26,30,29
India,Karnataka,Shivamogga,"Vinoba Nagara, Shivamogga - KSPCB",21-05-2024 10:00:00,13.940000,75.555917,NO2,7,64,17
India,Karnataka,Shivamogga,"Vinoba Nagara, Shivamogga - KSPCB",21-05-2024 10:00:00,13.940000,75.555917,NH3,1,15,4
India,Karnataka,Tumakuru,"Thimmalapura, Tumakuru - KSPCB",21-05-2024 10:00:00,13.377516,77.099072,PM2.5,16,93,44
India,Karnataka,Tumakuru,"Thimmalapura, Tumakuru - KSPCB",21-05-2024 10:00:00,13.377516,77.099072,CO,29,34,32
India,Karnataka,Udupi,"Brahmagiri, Udupi - KSPCB",21-05-2024 10:00:00,13.34194444,74.74694444,PM2.5,NA,NA,NA
India,Karnataka,Vijayapura,"Ibrahimpur, Vijayapura - KSPCB",21-05-2024 10:00:00,16.802639,75.722694,PM2.5,26,31,30
India,Karnataka,Vijayapura,"Ibrahimpur, Vijayapura - KSPCB",21-05-2024 10:00:00,16.802639,75.722694,NO2,17,19,19
India,Karnataka,Vijayapura,"Ibrahimpur, Vijayapura - KSPCB",21-05-2024 10:00:00,16.802639,75.722694,NH3,2,2,2
India,Karnataka,Vijayapura,"Ibrahimpur, Vijayapura - KSPCB",21-05-2024 10:00:00,16.802639,75.722694,OZONE,14,16,15
India,Karnataka,Yadgir,"Collector Office, Yadgir - KSPCB",21-05-2024 10:00:00,16.7602,77.1428,PM2.5,10,40,25
India,Karnataka,Yadgir,"Collector Office, Yadgir - KSPCB",21-05-2024 10:00:00,16.7602,77.1428,PM10,28,55,39
India,Karnataka,Yadgir,"Collector Office, Yadgir - KSPCB",21-05-2024 10:00:00,16.7602,77.1428,NO2,11,38,22
India,Karnataka,Yadgir,"Collector Office, Yadgir - KSPCB",21-05-2024 10:00:00,16.7602,77.1428,CO,16,34,23
India,Kerala,Kollam,"Polayathode, Kollam - Kerala PCB",21-05-2024 10:00:00,8.8787,76.6073,NH3,NA,NA,NA
