country,state,city,station,last_update,latitude,longitude,pollutant_id,pollutant_min,pollutant_max,pollutant_avg
India,Andhra_Pradesh,Anantapur,"Gulzarpet, Anantapur - APPCB",11-03-2024 21:00:00,14.675886,77.593027,SO2,4,14,7
India,Andhra_Pradesh,Anantapur,"Gulzarpet, Anantapur - APPCB",11-03-2024 21:00:00,14.675886,77.593027,OZONE,8,57,50
India,Andhra_Pradesh,Kadapa,"Yerramukkapalli, Kadapa - APPCB",11-03-2024 21:00:00,14.465052,78.824187,PM10,34,57,42
India,Andhra_Pradesh,Tirupati,"Tirumala, Tirupati - APPCB",11-03-2024 21:00:00,13.67,79.35,NO2,16,47,29
India,Andhra_Pradesh,Tirupati,"Tirumala, Tirupati - APPCB",11-03-2024 21:00:00,13.67,79.35,NH3,1,2,1
India,Andhra_Pradesh,Tirupati,"Tirumala, Tirupati - APPCB",11-03-2024 21:00:00,13.67,79.35,OZONE,12,47,37
India,Andhra_Pradesh,Tirupati,"Vaikuntapuram, Tirupati - APPCB",11-03-2024 21:00:00,13.615387,79.409230,NO2,17,27,20
India,Andhra_Pradesh,Vijayawada,"HB Colony, Vijayawada - APPCB",11-03-2024 21:00:00,16.536107,80.594233,PM2.5,66,86,78
India,Andhra_Pradesh,Vijayawada,"HB Colony, Vijayawada - APPCB",11-03-2024 21:00:00,16.536107,80.594233,PM10,64,84,75
India,Andhra_Pradesh,Vijayawada,"HB Colony, Vijayawada - APPCB",11-03-2024 21:00:00,16.536107,80.594233,NO2,4,12,8
India,Andhra_Pradesh,Vijayawada,"HB Colony, Vijayawada - APPCB",11-03-2024 21:00:00,16.536107,80.594233,SO2,3,5,4
India,Andhra_Pradesh,Vijayawada,"HB Colony, Vijayawada - APPCB",11-03-2024 21:00:00,16.536107,80.594233,OZONE,2,32,25
India,Andhra_Pradesh,Vijayawada,"Kanuru, Vijayawada - APPCB",11-03-2024 21:00:00,16.486692,80.699436,NO2,14,19,15
India,Andhra_Pradesh,Vijayawada,"Kanuru, Vijayawada - APPCB",11-03-2024 21:00:00,16.486692,80.699436,NH3,1,1,1
India,Andhra_Pradesh,Vijayawada,"Rajiv Gandhi Park, Vijayawada - APPCB",11-03-2024 21:00:00,16.509717,80.612222,PM10,49,81,66
India,Andhra_Pradesh,Vijayawada,"Rajiv Gandhi Park, Vijayawada - APPCB",11-03-2024 21:00:00,16.509717,80.612222,SO2,5,9,7
India,Andhra_Pradesh,Vijayawada,"Rajiv Nagar, Vijayawada - APPCB",11-03-2024 21:00:00,16.554731,80.649110,PM10,69,108,79
India,Andhra_Pradesh,Vijayawada,"Rajiv Nagar, Vijayawada - APPCB",11-03-2024 21:00:00,16.554731,80.649110,CO,34,34,34
India,Andhra_Pradesh,Visakhapatnam,"GVM Corporation, Visakhapatnam - APPCB",11-03-2024 21:00:00,17.72,83.3,NH3,3,7,4
India,Assam,Byrnihat,"Central Academy for SFS, Byrnihat - PCBA",11-03-2024 21:00:00,26.071318,91.87488,PM10,65,475,274
India,Assam,Guwahati,"LGBI Airport, Guwahati - PCBA",11-03-2024 21:00:00,26.10887,91.589544,PM2.5,177,365,285
India,Assam,Guwahati,"Pan Bazaar, Guwahati - PCBA",11-03-2024 21:00:00,26.187500,91.744194,SO2,68,97,83
India,Assam,Nalbari,"Bata Chowk, Nalbari - PCBA",11-03-2024 21:00:00,26.446912,91.439057,CO,32,128,120
India,Assam,Silchar,"Tarapur, Silchar - PCBA",11-03-2024 21:00:00,24.82827,92.79525,OZONE,1,29,15
India,Bihar,Araria,"Kharahiya Basti, Araria - BSPCB",11-03-2024 21:00:00,26.146529,87.454184,PM2.5,49,307,161
India,Bihar,Araria,"Kharahiya Basti, Araria - BSPCB",11-03-2024 21:00:00,26.146529,87.454184,OZONE,7,10,8
India,Bihar,Aurangabad,"Gurdeo Nagar, Aurangabad - BSPCB",11-03-2024 21:00:00,24.75746,84.366208,NO2,3,6,5
India,Bihar,Aurangabad,"Gurdeo Nagar, Aurangabad - BSPCB",11-03-2024 21:00:00,24.75746,84.366208,SO2,3,14,9
India,Bihar,Bettiah,"Kamalnath Nagar, Bettiah - BSPCB",11-03-2024 21:00:00,26.80365,84.51954,PM2.5,47,397,216
India,Bihar,Bettiah,"Kamalnath Nagar, Bettiah - BSPCB",11-03-2024 21:00:00,26.80365,84.51954,CO,62,64,63
India,Bihar,Bhagalpur,"Mayaganj, Bhagalpur - BSPCB",11-03-2024 21:00:00,25.265194,87.012947,CO,8,10,9
India,Bihar,Bihar Sharif,"D M Colony, Bihar Sharif - BSPCB",11-03-2024 21:00:00,25.204762,85.514960,NO2,NA,NA,NA
India,Bihar,Buxar,"Charitra Van, Buxar - BSPCB (Formerly known as Central Jail)",11-03-2024 21:00:00,25.567520,83.966379,PM10,NA,NA,NA
India,Bihar,Chhapra,"Darshan Nagar, Chhapra - BSPCB",11-03-2024 21:00:00,25.7808257,84.7446768,NH3,NA,NA,NA
India,Bihar,Gaya,"Kareemganj, Gaya - BSPCB",11-03-2024 21:00:00,24.792403,84.992416,PM2.5,13,190,82
India,Bihar,Gaya,"Kareemganj, Gaya - BSPCB",11-03-2024 21:00:00,24.792403,84.992416,SO2,4,10,7
India,Bihar,Gaya,"SFTI Kusdihra, Gaya - BSPCB",11-03-2024 21:00:00,24.762518,84.982348,PM2.5,25,114,68
India,Bihar,Gaya,"SFTI Kusdihra, Gaya - BSPCB",11-03-2024 21:00:00,24.762518,84.982348,SO2,6,8,6
India,Bihar,Kishanganj,"SDM Office_Khagra, Kishanganj - BSPCB",11-03-2024 21:00:00,26.0881305,87.93840336,PM2.5,25,416,105
India,Bihar,Kishanganj,"SDM Office_Khagra, Kishanganj - BSPCB",11-03-2024 21:00:00,26.0881305,87.93840336,SO2,31,47,37
India,Bihar,Manguraha,"Forest Rest House, Manguraha - BSPCB",11-03-2024 21:00:00,27.308328,84.531742,PM2.5,NA,NA,NA
India,Bihar,Motihari,"Gandak Colony, Motihari - BSPCB",11-03-2024 21:00:00,26.63086,84.90051,NO2,NA,NA,NA
India,Bihar,Munger,"Town Hall, Munger - BSPCB",11-03-2024 21:00:00,25.376776,86.471523,NH3,1,2,2
India,Bihar,Munger,"Town Hall, Munger - BSPCB",11-03-2024 21:00:00,25.376776,86.471523,OZONE,10,17,13
India,Bihar,Muzaffarpur,"Buddha Colony, Muzaffarpur - BSPCB",11-03-2024 21:00:00,26.11442,85.39813,PM10,140,372,228
India,Bihar,Muzaffarpur,"Buddha Colony, Muzaffarpur - BSPCB",11-03-2024 21:00:00,26.11442,85.39813,SO2,8,91,16
India,Bihar,Muzaffarpur,"Buddha Colony, Muzaffarpur - BSPCB",11-03-2024 21:00:00,26.11442,85.39813,CO,20,103,21
India,Bihar,Muzaffarpur,"MIT-Daudpur Kothi, Muzaffarpur - BSPCB",11-03-2024 21:00:00,26.1403345,85.3650192,NO2,4,8,7
India,Bihar,Muzaffarpur,"MIT-Daudpur Kothi, Muzaffarpur - BSPCB",11-03-2024 21:00:00,26.1403345,85.3650192,NH3,1,3,1
India,Bihar,Patna,"DRM Office Danapur, Patna - BSPCB",11-03-2024 21:00:00,25.586562,85.043586,SO2,7,10,9
India,Bihar,Patna,"Govt. High School Shikarpur, Patna - BSPCB",11-03-2024 21:00:00,25.592539,85.227158,PM2.5,NA,NA,NA
India,Bihar,Patna,"Muradpur, Patna - BSPCB",11-03-2024 21:00:00,25.619651,85.147382,PM2.5,71,349,241
India,Bihar,Patna,"Muradpur, Patna - BSPCB",11-03-2024 21:00:00,25.619651,85.147382,NH3,2,6,3
India,Bihar,Patna,"Rajbansi Nagar, Patna - BSPCB",11-03-2024 21:00:00,25.599486,85.113666,PM2.5,71,252,160
India,Bihar,Patna,"Rajbansi Nagar, Patna - BSPCB",11-03-2024 21:00:00,25.599486,85.113666,CO,55,104,78
India,Bihar,Patna,"Samanpura, Patna - BSPCB",11-03-2024 21:00:00,25.596727,85.085624,CO,69,146,91
India,Bihar,Purnia,"Mariam Nagar, Purnia - BSPCB",11-03-2024 21:00:00,25.366336,87.117468,PM2.5,25,293,124
India,Bihar,Purnia,"Mariam Nagar, Purnia - BSPCB",11-03-2024 21:00:00,25.366336,87.117468,SO2,17,23,19
India,Bihar,Rajgir,"Dangi Tola, Rajgir - BSPCB",11-03-2024 21:00:00,25.03280,85.41948,NO2,1,1,1
India,Bihar,Saharsa,"Police Line, Saharsa - BSPCB",11-03-2024 21:00:00,25.892357,86.590325,PM2.5,33,314,142
India,Bihar,Samastipur,"DM Office_Kasipur, Samastipur - BSPCB",11-03-2024 21:00:00,25.859655,85.77944,NH3,4,6,4
India,Bihar,Siwan,"Chitragupta Nagar, Siwan - BSPCB",11-03-2024 21:00:00,26.2271665,84.3570427,CO,38,148,125
India,Chandigarh,Chandigarh,"Sector 22, Chandigarh - CPCC",11-03-2024 21:00:00,30.735567,76.775714,NH3,6,8,7
India,Chandigarh,Chandigarh,"Sector 22, Chandigarh - CPCC",11-03-2024 21:00:00,30.735567,76.775714,CO,33,86,40
India,Chandigarh,Chandigarh,"Sector 22, Chandigarh - CPCC",11-03-2024 21:00:00,30.735567,76.775714,OZONE,3,269,163
India,Chandigarh,Chandigarh,"Sector-25, Chandigarh - CPCC",11-03-2024 21:00:00,30.751462,76.762879,NO2,9,41,19
India,Chandigarh,Chandigarh,"Sector-53, Chandigarh - CPCC",11-03-2024 21:00:00,30.719859,76.738637,NO2,34,110,64
India,Chandigarh,Chandigarh,"Sector-53, Chandigarh - CPCC",11-03-2024 21:00:00,30.719859,76.738637,OZONE,3,90,69
India,Chhattisgarh,Bhilai,"Hathkhoj, Bhilai - CECB",11-03-2024 21:00:00,21.224231,81.408350,PM10,79,171,108
India,Chhattisgarh,Bhilai,"Hathkhoj, Bhilai - CECB",11-03-2024 21:00:00,21.224231,81.408350,NH3,7,8,8
India,Chhattisgarh,Bilaspur,"Mangala, Bilaspur - NTPC",11-03-2024 21:00:00,22.08815,82.13737,NO2,11,22,18
India,Chhattisgarh,Chhal,"Nawapara SECL Colony, Chhal - CECB",11-03-2024 21:00:00,22.118125,83.140608,NO2,15,45,24
India,Chhattisgarh,Chhal,"Nawapara SECL Colony, Chhal - CECB",11-03-2024 21:00:00,22.118125,83.140608,NH3,2,2,2
India,Chhattisgarh,Chhal,"Nawapara SECL Colony, Chhal - CECB",11-03-2024 21:00:00,22.118125,83.140608,SO2,13,34,19
India,Chhattisgarh,Chhal,"Nawapara SECL Colony, Chhal - CECB",11-03-2024 21:00:00,22.118125,83.140608,CO,34,47,39
India,Chhattisgarh,Korba,"Urja Nagar, Korba - CECB",11-03-2024 21:00:00,22.348441,82.549611,PM2.5,32,301,89
India,Chhattisgarh,Korba,"Urja Nagar, Korba - CECB",11-03-2024 21:00:00,22.348441,82.549611,OZONE,1,3,1
India,Chhattisgarh,Kunjemura,"OP Jindal School, Kunjemura - CECB",11-03-2024 21:00:00,22.126650,83.483212,PM10,49,389,164
India,Chhattisgarh,Milupara,"Govt. Higher Secondary School, Milupara - CECB",11-03-2024 21:00:00,22.1910172,83.5197009,PM10,NA,NA,NA
India,Chhattisgarh,Milupara,"Govt. Higher Secondary School, Milupara - CECB",11-03-2024 21:00:00,22.1910172,83.5197009,NO2,NA,NA,NA
India,Chhattisgarh,Milupara,"Govt. Higher Secondary School, Milupara - CECB",11-03-2024 21:00:00,22.1910172,83.5197009,SO2,NA,NA,NA
India,Chhattisgarh,Raipur,"AIIMS, Raipur - CECB",11-03-2024 21:00:00,21.258815,81.578979,PM10,48,179,91
India,Chhattisgarh,Raipur,"Bhatagaon New ISBT, Raipur - CECB",11-03-2024 21:00:00,21.219665,81.630094,NH3,3,3,3
India,Chhattisgarh,Raipur,"Krishak Nagar, Raipur - CECB",11-03-2024 21:00:00,21.237755,81.705301,PM2.5,39,85,59
India,Chhattisgarh,Raipur,"Krishak Nagar, Raipur - CECB",11-03-2024 21:00:00,21.237755,81.705301,OZONE,5,16,12
India,Chhattisgarh,Raipur,"Siltara Phase-II, Raipur - CECB",11-03-2024 21:00:00,21.371751,81.664929,PM10,73,161,106
India,Delhi,Delhi,"Alipur, Delhi - DPCC",11-03-2024 21:00:00,28.815329,77.153010,OZONE,4,191,125
India,Delhi,Delhi,"Ashok Vihar, Delhi - DPCC",11-03-2024 21:00:00,28.695381,77.181665,CO,16,72,25
India,Delhi,Delhi,"Bawana, Delhi - DPCC",11-03-2024 21:00:00,28.776200,77.051074,PM2.5,68,338,216
India,Delhi,Delhi,"Bawana, Delhi - DPCC",11-03-2024 21:00:00,28.776200,77.051074,NH3,5,8,6
India,Delhi,Delhi,"Bawana, Delhi - DPCC",11-03-2024 21:00:00,28.776200,77.051074,CO,16,64,25
India,Delhi,Delhi,"Burari Crossing, Delhi - IMD",11-03-2024 21:00:00,28.7256504,77.2011573,PM2.5,57,373,152
India,Delhi,Delhi,"CRRI Mathura Road, Delhi - IMD",11-03-2024 21:00:00,28.5512005,77.2735737,CO,18,105,29
India,Delhi,Delhi,"DTU, Delhi - CPCB",11-03-2024 21:00:00,28.7500499,77.1112615,NO2,28,71,43
India,Delhi,Delhi,"DTU, Delhi - CPCB",11-03-2024 21:00:00,28.7500499,77.1112615,OZONE,26,68,48
India,Delhi,Delhi,"Dr. Karni Singh Shooting Range, Delhi - DPCC",11-03-2024 21:00:00,28.498571,77.264840,PM2.5,54,316,187
India,Delhi,Delhi,"Dr. Karni Singh Shooting Range, Delhi - DPCC",11-03-2024 21:00:00,28.498571,77.264840,PM10,104,264,177
India,Delhi,Delhi,"Dwarka-Sector 8, Delhi - DPCC ",11-03-2024 21:00:00,28.5710274,77.0719006,NO2,13,75,40
India,Delhi,Delhi,"IHBAS, Dilshad Garden, Delhi - CPCB",11-03-2024 21:00:00,28.6811736,77.3025234,SO2,8,26,18
India,Delhi,Delhi,"Jahangirpuri, Delhi - DPCC",11-03-2024 21:00:00,28.732820,77.170633,SO2,2,19,10
India,Delhi,Delhi,"Jawaharlal Nehru Stadium, Delhi - DPCC",11-03-2024 21:00:00,28.580280,77.233829,SO2,1,48,20
India,Delhi,Delhi,"Lodhi Road, Delhi - IITM",11-03-2024 21:00:00,28.588333,77.221667,PM10,NA,NA,NA
India,Delhi,Delhi,"Lodhi Road, Delhi - IITM",11-03-2024 21:00:00,28.588333,77.221667,OZONE,15,20,18
India,Delhi,Delhi,"Lodhi Road, Delhi - IMD",11-03-2024 21:00:00,28.5918245,77.2273074,PM2.5,46,282,158
India,Delhi,Delhi,"Major Dhyan Chand National Stadium, Delhi - DPCC",11-03-2024 21:00:00,28.611281,77.237738,NO2,36,166,97
India,Delhi,Delhi,"Major Dhyan Chand National Stadium, Delhi - DPCC",11-03-2024 21:00:00,28.611281,77.237738,SO2,10,33,19
India,Delhi,Delhi,"Mandir Marg, Delhi - DPCC",11-03-2024 21:00:00,28.636429,77.201067,NO2,157,206,180
India,Delhi,Delhi,"NSIT Dwarka, Delhi - CPCB",11-03-2024 21:00:00,28.60909,77.0325413,NH3,6,21,11
India,Delhi,Delhi,"NSIT Dwarka, Delhi - CPCB",11-03-2024 21:00:00,28.60909,77.0325413,SO2,17,30,22
India,Delhi,Delhi,"Najafgarh, Delhi - DPCC",11-03-2024 21:00:00,28.570173,76.933762,CO,4,60,40
India,Delhi,Delhi,"Narela, Delhi - DPCC",11-03-2024 21:00:00,28.822836,77.101981,PM2.5,55,333,226
India,Delhi,Delhi,"Narela, Delhi - DPCC",11-03-2024 21:00:00,28.822836,77.101981,NH3,5,8,6
India,Delhi,Delhi,"Nehru Nagar, Delhi - DPCC",11-03-2024 21:00:00,28.567890,77.250515,PM2.5,73,354,214
India,Delhi,Delhi,"Nehru Nagar, Delhi - DPCC",11-03-2024 21:00:00,28.567890,77.250515,SO2,9,21,12
India,Delhi,Delhi,"Nehru Nagar, Delhi - DPCC",11-03-2024 21:00:00,28.567890,77.250515,CO,50,96,69
India,Delhi,Delhi,"North Campus, DU, Delhi - IMD",11-03-2024 21:00:00,28.6573814,77.1585447,PM2.5,94,312,205
India,Delhi,Delhi,"Okhla Phase-2, Delhi - DPCC",11-03-2024 21:00:00,28.530785,77.271255,PM2.5,61,313,194
India,Delhi,Delhi,"Patparganj, Delhi - DPCC",11-03-2024 21:00:00,28.623763,77.287209,OZONE,6,273,133
India,Delhi,Delhi,"Punjabi Bagh, Delhi - DPCC",11-03-2024 21:00:00,28.674045,77.131023,PM2.5,70,317,213
India,Delhi,Delhi,"Punjabi Bagh, Delhi - DPCC",11-03-2024 21:00:00,28.674045,77.131023,CO,26,86,36
India,Delhi,Delhi,"Pusa, Delhi - IMD",11-03-2024 21:00:00,28.636110,77.173332,PM2.5,NA,NA,NA
India,Delhi,Delhi,"Pusa, Delhi - IMD",11-03-2024 21:00:00,28.636110,77.173332,NO2,NA,NA,NA
India,Delhi,Delhi,"Pusa, Delhi - IMD",11-03-2024 21:00:00,28.636110,77.173332,CO,68,102,71
India,Delhi,Delhi,"R K Puram, Delhi - DPCC",11-03-2024 21:00:00,28.563262,77.186937,PM10,118,284,181
India,Delhi,Delhi,"Sonia Vihar, Delhi - DPCC",11-03-2024 21:00:00,28.710508,77.249485,NO2,23,111,52
India,Delhi,Delhi,"Sonia Vihar, Delhi - DPCC",11-03-2024 21:00:00,28.710508,77.249485,NH3,5,6,6
India,Delhi,Delhi,"Sri Aurobindo Marg, Delhi - DPCC",11-03-2024 21:00:00,28.531346,77.190156,PM2.5,60,311,179
India,Delhi,Delhi,"Sri Aurobindo Marg, Delhi - DPCC",11-03-2024 21:00:00,28.531346,77.190156,SO2,10,28,17
India,Delhi,Delhi,"Wazirpur, Delhi - DPCC",11-03-2024 21:00:00,28.699793,77.165453,PM10,131,368,194
India,Gujarat,Ahmedabad,"Chandkheda, Ahmedabad - IITM",11-03-2024 21:00:00,23.107969,72.574648,PM2.5,58,311,153
India,Gujarat,Ahmedabad,"Maninagar, Ahmedabad - GPCB",11-03-2024 21:00:00,23.002657,72.591912,CO,16,88,59
India,Gujarat,Ahmedabad,"Maninagar, Ahmedabad - GPCB",11-03-2024 21:00:00,23.002657,72.591912,OZONE,9,55,41
India,Gujarat,Ahmedabad,"Rakhial, Ahmedabad - IITM",11-03-2024 21:00:00,23.016834,72.625775,SO2,3,36,9
India,Gujarat,Ahmedabad,"SAC ISRO Satellite, Ahmedabad - IITM",11-03-2024 21:00:00,23.023389,72.515201,SO2,1,8,4
India,Gujarat,Ahmedabad,"SVPI Airport Hansol, Ahmedabad - IITM",11-03-2024 21:00:00,23.076793,72.627874,PM2.5,56,307,144
India,Gujarat,Ahmedabad,"SVPI Airport Hansol, Ahmedabad - IITM",11-03-2024 21:00:00,23.076793,72.627874,PM10,68,212,129
India,Gujarat,Ahmedabad,"SVPI Airport Hansol, Ahmedabad - IITM",11-03-2024 21:00:00,23.076793,72.627874,NH3,4,5,4
India,Gujarat,Ahmedabad,"SVPI Airport Hansol, Ahmedabad - IITM",11-03-2024 21:00:00,23.076793,72.627874,OZONE,14,54,40
India,Gujarat,Ankleshwar,"GIDC, Ankleshwar - GPCB",11-03-2024 21:00:00,21.613267,73.010555,PM10,43,109,86
India,Gujarat,Ankleshwar,"GIDC, Ankleshwar - GPCB",11-03-2024 21:00:00,21.613267,73.010555,SO2,2,122,52
India,Gujarat,Gandhinagar,"GIFT City, Gandhinagar - IITM",11-03-2024 21:00:00,23.163798,72.677768,PM10,72,126,103
India,Gujarat,Gandhinagar,"IIPHG Lekawada, Gandhinagar - IITM",11-03-2024 21:00:00,23.243639,72.68994,PM2.5,105,343,248
India,Gujarat,Gandhinagar,"IIPHG Lekawada, Gandhinagar - IITM",11-03-2024 21:00:00,23.243639,72.68994,PM10,81,181,131
India,Gujarat,Gandhinagar,"Sector-10, Gandhinagar - GPCB",11-03-2024 21:00:00,23.221714,72.654328,PM10,29,117,85
India,Gujarat,Gandhinagar,"Sector-10, Gandhinagar - GPCB",11-03-2024 21:00:00,23.221714,72.654328,OZONE,2,33,16
India,Gujarat,Nandesari,"GIDC, Nandesari - Nandesari Ind. Association",11-03-2024 21:00:00,22.410802,73.097923,SO2,2,14,8
India,Gujarat,Surat,"Science Center, Surat - SMC",11-03-2024 21:00:00,21.170046,72.795405,PM2.5,27,104,45
India,Haryana,Bahadurgarh,"Arya Nagar, Bahadurgarh - HSPCB",11-03-2024 21:00:00,28.6701,76.9254,PM2.5,63,322,203
India,Haryana,Bahadurgarh,"Arya Nagar, Bahadurgarh - HSPCB",11-03-2024 21:00:00,28.6701,76.9254,SO2,13,44,18
India,Haryana,Bahadurgarh,"Arya Nagar, Bahadurgarh - HSPCB",11-03-2024 21:00:00,28.6701,76.9254,OZONE,36,51,45
India,Haryana,Ballabgarh,"Nathu Colony, Ballabgarh - HSPCB",11-03-2024 21:00:00,28.3419248,77.319699,SO2,3,21,12
India,Haryana,Charkhi Dadri,"Mini Secretariat, Charkhi Dadri - HSPCB",11-03-2024 21:00:00,28.593883,76.270653,PM2.5,79,340,163
India,Haryana,Charkhi Dadri,"Mini Secretariat, Charkhi Dadri - HSPCB",11-03-2024 21:00:00,28.593883,76.270653,PM10,82,236,123
India,Haryana,Dharuhera,"Municipal Corporation Office, Dharuhera -  HSPCB",11-03-2024 21:00:00,28.206800,76.799700,PM2.5,30,265,114
India,Haryana,Faridabad,"New Industrial Town, Faridabad - HSPCB",11-03-2024 21:00:00,28.39072,77.30059,NO2,13,43,22
India,Haryana,Faridabad,"New Industrial Town, Faridabad - HSPCB",11-03-2024 21:00:00,28.39072,77.30059,SO2,23,28,25
India,Haryana,Faridabad,"New Industrial Town, Faridabad - HSPCB",11-03-2024 21:00:00,28.39072,77.30059,OZONE,5,258,85
India,Haryana,Faridabad,"Sector 11, Faridabad - HSPCB",11-03-2024 21:00:00,28.376058,77.315741,PM2.5,200,361,289
India,Haryana,Faridabad,"Sector 30, Faridabad - HSPCB",11-03-2024 21:00:00,28.4417,77.3217,SO2,NA,NA,NA
India,Haryana,Gurugram,"Sector-51, Gurugram - HSPCB",11-03-2024 21:00:00,28.4227,77.0667,NH3,6,14,9
India,Haryana,Gurugram,"Teri Gram, Gurugram - HSPCB",11-03-2024 21:00:00,28.4275,77.1465,PM10,124,380,217
India,Haryana,Gurugram,"Vikas Sadan, Gurugram - HSPCB",11-03-2024 21:00:00,28.4501238,77.0263051,PM2.5,23,269,138
India,Haryana,Gurugram,"Vikas Sadan, Gurugram - HSPCB",11-03-2024 21:00:00,28.4501238,77.0263051,OZONE,8,68,41
India,Haryana,Hisar,"Urban Estate-II, Hisar - HSPCB",11-03-2024 21:00:00,29.140560,75.744941,PM2.5,18,241,97
India,Haryana,Hisar,"Urban Estate-II, Hisar - HSPCB",11-03-2024 21:00:00,29.140560,75.744941,NO2,21,67,30
India,Haryana,Jind,"Police Lines, Jind - HSPCB",11-03-2024 21:00:00,29.307814,76.337619,SO2,6,32,14
India,Haryana,Kaithal,"Rishi Nagar, Kaithal - HSPCB",11-03-2024 21:00:00,29.8006,76.4155,PM10,87,146,110
India,Haryana,Kaithal,"Rishi Nagar, Kaithal - HSPCB",11-03-2024 21:00:00,29.8006,76.4155,OZONE,6,22,17
India,Haryana,Karnal,"Sector-12, Karnal - HSPCB",11-03-2024 21:00:00,29.695300,77.002700,PM2.5,83,163,113
India,Haryana,Karnal,"Sector-12, Karnal - HSPCB",11-03-2024 21:00:00,29.695300,77.002700,PM10,60,104,75
India,Haryana,Karnal,"Sector-12, Karnal - HSPCB",11-03-2024 21:00:00,29.695300,77.002700,CO,30,100,39
India,Haryana,Karnal,"Sector-12, Karnal - HSPCB",11-03-2024 21:00:00,29.695300,77.002700,OZONE,31,60,35
India,Haryana,Kurukshetra,"Sector-7, Kurukshetra - HSPCB",11-03-2024 21:00:00,29.966942,76.875879,SO2,1,74,37
India,Haryana,Mandikhera,"General Hospital, Mandikhera - HSPCB",11-03-2024 21:00:00,27.9002,76.9938,NO2,17,21,19
India,Haryana,Mandikhera,"General Hospital, Mandikhera - HSPCB",11-03-2024 21:00:00,27.9002,76.9938,CO,20,79,24
India,Haryana,Manesar,"Sector-2 IMT, Manesar - HSPCB",11-03-2024 21:00:00,28.360699,76.936090,PM10,49,132,89
India,Haryana,Manesar,"Sector-2 IMT, Manesar - HSPCB",11-03-2024 21:00:00,28.360699,76.936090,NH3,2,4,3
India,Haryana,Manesar,"Sector-2 IMT, Manesar - HSPCB",11-03-2024 21:00:00,28.360699,76.936090,CO,16,60,21
India,Haryana,Palwal,"Shyam Nagar, Palwal - HSPCB",11-03-2024 21:00:00,28.1485564,77.3320667,CO,26,44,30
India,Haryana,Panipat,"Sector-18, Panipat - HSPCB",11-03-2024 21:00:00,29.497973,76.993331,PM2.5,145,156,149
India,Haryana,Rohtak,"MD University, Rohtak - HSPCB",11-03-2024 21:00:00,28.52123,76.37138,SO2,6,8,7
India,Haryana,Rohtak,"MD University, Rohtak - HSPCB",11-03-2024 21:00:00,28.52123,76.37138,OZONE,43,54,48
India,Haryana,Sirsa,"F-Block, Sirsa - HSPCB",11-03-2024 21:00:00,29.536400,75.015800,NO2,10,10,10
India,Haryana,Yamuna Nagar,"Gobind Pura, Yamuna Nagar - HSPCB",11-03-2024 21:00:00,30.1480566,77.2893471,PM2.5,10,167,83
India,Haryana,Yamuna Nagar,"Gobind Pura, Yamuna Nagar - HSPCB",11-03-2024 21:00:00,30.1480566,77.2893471,PM10,14,152,99
India,Haryana,Yamuna Nagar,"Gobind Pura, Yamuna Nagar - HSPCB",11-03-2024 21:00:00,30.1480566,77.2893471,SO2,2,104,12
India,Himachal Pradesh,Baddi,"HIMUDA Complex Phase-1, Baddi - HPPCB",11-03-2024 21:00:00,30.943887,76.801991,NO2,15,59,30
India,Jharkhand,Dhanbad,"Kalakusuma, Dhanbad - DMC",11-03-2024 21:00:00,23.811548,86.481238,CO,128,134,132
India,Jharkhand,Pathardih,"Mohalbani Ghat, Pathardih - DMC",11-03-2024 21:00:00,23.669880,86.411725,OZONE,10,51,33
India,Karnataka,Bagalkot,"Vidayagiri, Bagalkot - KSPCB",11-03-2024 21:00:00,16.172806,75.659694,CO,19,50,38
India,Karnataka,Belgaum,"Ramteerth Nagar, Belgaum - KSPCB",11-03-2024 21:00:00,15.888653,74.541751,PM2.5,28,62,40
India,Karnataka,Bengaluru,"BTM Layout, Bengaluru - CPCB",11-03-2024 21:00:00,12.9135218,77.5950804,CO,44,45,44
India,Karnataka,Bengaluru,"Bapuji Nagar, Bengaluru - KSPCB",11-03-2024 21:00:00,12.951913,77.539784,PM10,60,117,91
India,Karnataka,Bengaluru,"Bapuji Nagar, Bengaluru - KSPCB",11-03-2024 21:00:00,12.951913,77.539784,SO2,5,9,8
India,Karnataka,Bengaluru,"Hebbal, Bengaluru - KSPCB",11-03-2024 21:00:00,13.029152,77.585901,PM2.5,50,223,93
India,Karnataka,Bengaluru,"Hombegowda Nagar, Bengaluru - KSPCB",11-03-2024 21:00:00,12.938539,77.590100,PM10,63,118,93
India,Karnataka,Bengaluru,"Hombegowda Nagar, Bengaluru - KSPCB",11-03-2024 21:00:00,12.938539,77.590100,OZONE,3,5,4
India,Karnataka,Bengaluru,"Jayanagar 5th Block, Bengaluru - KSPCB",11-03-2024 21:00:00,12.920984,77.584908,PM10,73,132,109
India,Karnataka,Bengaluru,"Kasturi Nagar, Bengaluru - KSPCB",11-03-2024 21:00:00,13.003872,77.664217,OZONE,27,117,90
India,Karnataka,Bengaluru,"Peenya, Bengaluru - CPCB",11-03-2024 21:00:00,13.0270199,77.494094,NH3,3,4,3
India,Karnataka,Bengaluru,"Silk Board, Bengaluru - KSPCB",11-03-2024 21:00:00,12.917348,77.622813,OZONE,29,32,30
India,Karnataka,Bidar,"Naubad, Bidar - KSPCB",11-03-2024 21:00:00,17.930306,77.482194,CO,60,89,69
India,Karnataka,Chamarajanagar,"Urban, Chamarajanagar - KSPCB",11-03-2024 21:00:00,11.55358,76.55521,NO2,24,53,34
India,Karnataka,Chikkaballapur,"Chikkaballapur Rural, Chikkaballapur - KSPCB",11-03-2024 21:00:00,13.428828,77.731418,NO2,6,10,8
India,Karnataka,Chikkaballapur,"Chikkaballapur Rural, Chikkaballapur - KSPCB",11-03-2024 21:00:00,13.428828,77.731418,SO2,10,23,14
India,Karnataka,Chikkamagaluru,"Kalyana Nagara, Chikkamagaluru - KSPCB",11-03-2024 21:00:00,13.328028,75.797056,NH3,NA,NA,NA
India,Karnataka,Chikkamagaluru,"Kalyana Nagara, Chikkamagaluru - KSPCB",11-03-2024 21:00:00,13.328028,75.797056,OZONE,20,84,60
India,Karnataka,Dharwad,"Kalabhavan, Dharwad - KSPCB",11-03-2024 21:00:00,15.459706,75.008381,PM2.5,47,82,64
India,Karnataka,Dharwad,"Kalabhavan, Dharwad - KSPCB",11-03-2024 21:00:00,15.459706,75.008381,NO2,16,16,16
India,Karnataka,Gadag,"Panchal Nagar, Gadag - KSPCB",11-03-2024 21:00:00,15.411456,75.638133,PM10,40,66,51
India,Karnataka,Gadag,"Panchal Nagar, Gadag - KSPCB",11-03-2024 21:00:00,15.411456,75.638133,NH3,1,3,2
India,Karnataka,Gadag,"Panchal Nagar, Gadag - KSPCB",11-03-2024 21:00:00,15.411456,75.638133,OZONE,38,77,68
India,Karnataka,Hassan,"B.Katihalli, Hassan - KSPCB",11-03-2024 21:00:00,13.008556,76.125258,PM2.5,NA,NA,NA
India,Karnataka,Hassan,"B.Katihalli, Hassan - KSPCB",11-03-2024 21:00:00,13.008556,76.125258,NH3,NA,NA,NA
India,Karnataka,Hassan,"B.Katihalli, Hassan - KSPCB",11-03-2024 21:00:00,13.008556,76.125258,CO,8,15,12
India,Karnataka,Hubballi,"Deshpande Nagar, Hubballi - KSPCB",11-03-2024 21:00:00,15.351773,75.140726,NO2,26,27,27
India,Karnataka,Hubballi,"Deshpande Nagar, Hubballi - KSPCB",11-03-2024 21:00:00,15.351773,75.140726,CO,10,101,92
India,Karnataka,Hubballi,"Deshpande Nagar, Hubballi - KSPCB",11-03-2024 21:00:00,15.351773,75.140726,OZONE,4,41,37
India,Karnataka,Hubballi,"Lingaraj Nagar, Hubballi - KSPCB",11-03-2024 21:00:00,15.3714823,75.1160168,PM10,46,162,64
India,Karnataka,Kalaburagi,"Mahatma Basaveswar Colony, Kalaburgi - KSPCB",11-03-2024 21:00:00,17.336318,76.847397,OZONE,4,17,15
India,Karnataka,Karwar,"KHB Colony, Karwar - KSPCB",11-03-2024 21:00:00,14.816666,74.141003,PM10,57,117,76
India,Karnataka,Kolar,"Tamaka Ind. Area, Kolar - KSPCB",11-03-2024 21:00:00,13.1276288,78.1570122,PM10,54,118,81
India,Karnataka,Kolar,"Tamaka Ind. Area, Kolar - KSPCB",11-03-2024 21:00:00,13.1276288,78.1570122,NO2,18,35,22
India,Karnataka,Kolar,"Tamaka Ind. Area, Kolar - KSPCB",11-03-2024 21:00:00,13.1276288,78.1570122,NH3,5,21,11
India,Karnataka,Kolar,"Tamaka Ind. Area, Kolar - KSPCB",11-03-2024 21:00:00,13.1276288,78.1570122,SO2,8,17,11
India,Karnataka,Koppal,"Diwator Nagar, Koppal - KSPCB",11-03-2024 21:00:00,15.347630,76.181767,SO2,63,65,64
India,Karnataka,Madikeri,"Stuart Hill, Madikeri - KSPCB",11-03-2024 21:00:00,12.415911,75.735050,OZONE,26,53,40
India,Karnataka,Mangalore,"Kadri, Mangalore - KSPCB",11-03-2024 21:00:00,12.889250,74.853000,NO2,5,7,6
India,Karnataka,Mangalore,"Kadri, Mangalore - KSPCB",11-03-2024 21:00:00,12.889250,74.853000,NH3,1,2,2
India,Karnataka,Mysuru,"Hebbal 1st Stage, Mysuru - KSPCB",11-03-2024 21:00:00,12.21041,76.37376,PM2.5,28,81,51
India,Karnataka,Mysuru,"Hebbal 1st Stage, Mysuru - KSPCB",11-03-2024 21:00:00,12.21041,76.37376,OZONE,10,117,69
India,Karnataka,Raichur,"Haji Colony, Raichur - KSPCB",11-03-2024 21:00:00,16.208139,77.348417,PM2.5,17,65,31
India,Karnataka,Raichur,"Haji Colony, Raichur - KSPCB",11-03-2024 21:00:00,16.208139,77.348417,NO2,14,47,30
India,Karnataka,Raichur,"Haji Colony, Raichur - KSPCB",11-03-2024 21:00:00,16.208139,77.348417,SO2,65,81,72
India,Karnataka,Ramanagara,"Vijay Nagar, Ramanagara - KSPCB",11-03-2024 21:00:00,12.733409,77.298051,NO2,4,10,5
India,Karnataka,Tumakuru,"Thimmalapura, Tumakuru - KSPCB",11-03-2024 21:00:00,13.377516,77.099072,NO2,NA,NA,NA
India,Karnataka,Udupi,"Brahmagiri, Udupi - KSPCB",11-03-2024 21:00:00,13.34194444,74.74694444,OZONE,23,24,23
India,Karnataka,Vijayapura,"Ibrahimpur, Vijayapura - KSPCB",11-03-2024 21:00:00,16.802639,75.722694,PM10,38,40,39
India,Karnataka,Vijayapura,"Ibrahimpur, Vijayapura - KSPCB",11-03-2024 21:00:00,16.802639,75.722694,NO2,17,19,19
India,Karnataka,Yadgir,"Collector Office, Yadgir - KSPCB",11-03-2024 21:00:00,16.7602,77.1428,PM10,42,91,69
India,Kerala,Eloor,"Udyogamandal, Eloor - Kerala PCB",11-03-2024 21:00:00,10.073232,76.302765,PM2.5,26,37,32
India,Kerala,Eloor,"Udyogamandal, Eloor - Kerala PCB",11-03-2024 21:00:00,10.073232,76.302765,CO,20,148,71
India,Kerala,Eloor,"Udyogamandal, Eloor - Kerala PCB",11-03-2024 21:00:00,10.073232,76.302765,OZONE,11,19,15
India,Kerala,Kochi,"Vyttila, Kochi - Kerala PCB",11-03-2024 21:00:00,9.969447,76.321186,PM2.5,28,83,50
India,Kerala,Kochi,"Vyttila, Kochi - Kerala PCB",11-03-2024 21:00:00,9.969447,76.321186,NO2,1,3,2
India,Kerala,Kollam,"Polayathode, Kollam - Kerala PCB",11-03-2024 21:00:00,8.8787,76.6073,OZONE,31,38,36
India,Kerala,Thiruvananthapuram,"Kariavattom, Thiruvananthapuram - Kerala PCB",11-03-2024 21:00:00,8.563700,76.886500,PM2.5,71,81,76
India,Kerala,Thiruvananthapuram,"Kariavattom, Thiruvananthapuram - Kerala PCB",11-03-2024 21:00:00,8.563700,76.886500,NH3,1,1,1
India,Kerala,Thiruvananthapuram,"Plammoodu, Thiruvananthapuram - Kerala PCB",11-03-2024 21:00:00,8.5149093,76.9435879,OZONE,7,59,15
India,Kerala,Thrissur,"Corporation Ground, Thrissur - Kerala PCB",11-03-2024 21:00:00,10.532400,76.215900,PM2.5,43,51,48
India,Kerala,Thrissur,"Corporation Ground, Thrissur - Kerala PCB",11-03-2024 21:00:00,10.532400,76.215900,SO2,1,28,11
India,Madhya Pradesh,Bhopal,"Idgah Hills, Bhopal - MPPCB",11-03-2024 21:00:00,23.264759,77.381568,NH3,2,9,3
India,Madhya Pradesh,Bhopal,"Idgah Hills, Bhopal - MPPCB",11-03-2024 21:00:00,23.264759,77.381568,OZONE,19,114,81
India,Madhya Pradesh,Bhopal,"Paryavaran Parisar, Bhopal - MPPCB",11-03-2024 21:00:00,23.210494,77.425409,CO,22,116,49
India,Madhya Pradesh,Bhopal,"T T Nagar, Bhopal - MPPCB",11-03-2024 21:00:00,23.233584,77.400574,PM10,84,204,109
India,Madhya Pradesh,Bhopal,"T T Nagar, Bhopal - MPPCB",11-03-2024 21:00:00,23.233584,77.400574,NH3,3,7,5
India,Madhya Pradesh,Bhopal,"T T Nagar, Bhopal - MPPCB",11-03-2024 21:00:00,23.233584,77.400574,OZONE,2,134,89
India,Madhya Pradesh,Dewas,"Bhopal Chauraha, Dewas - MPPCB",11-03-2024 21:00:00,22.9682591,76.064118,NH3,3,3,3
India,Madhya Pradesh,Dewas,"Bhopal Chauraha, Dewas - MPPCB",11-03-2024 21:00:00,22.9682591,76.064118,OZONE,20,78,36
India,Madhya Pradesh,Gwalior,"City Center, Gwalior - MPPCB",11-03-2024 21:00:00,26.203442,78.193251,NH3,4,13,10
India,Madhya Pradesh,Gwalior,"Deen Dayal Nagar, Gwalior - MPPCB",11-03-2024 21:00:00,26.259242,78.216432,NO2,42,124,86
India,Madhya Pradesh,Gwalior,"Maharaj Bada, Gwalior - MPPCB",11-03-2024 21:00:00,26.200388,78.147714,SO2,12,22,17
India,Madhya Pradesh,Gwalior,"Maharaj Bada, Gwalior - MPPCB",11-03-2024 21:00:00,26.200388,78.147714,CO,2,130,44
India,Madhya Pradesh,Indore,"Chhoti Gwaltoli, Indore - MPPCB",11-03-2024 21:00:00,22.4310,75.5213,CO,48,106,70
India,Madhya Pradesh,Indore,"Chhoti Gwaltoli, Indore - MPPCB",11-03-2024 21:00:00,22.4310,75.5213,OZONE,21,115,65
India,Madhya Pradesh,Indore,"Maguda Nagar, Indore - IMC",11-03-2024 21:00:00,22.7524,75.8872,PM2.5,NA,NA,NA
India,Madhya Pradesh,Indore,"Maguda Nagar, Indore - IMC",11-03-2024 21:00:00,22.7524,75.8872,PM10,NA,NA,NA
India,Madhya Pradesh,Indore,"Maguda Nagar, Indore - IMC",11-03-2024 21:00:00,22.7524,75.8872,CO,20,27,24
India,Madhya Pradesh,Indore,"Residency Area, Indore - IMC",11-03-2024 21:00:00,22.7084,75.8815,NO2,37,61,50
India,Madhya Pradesh,Indore,"Residency Area, Indore - IMC",11-03-2024 21:00:00,22.7084,75.8815,CO,12,16,14
India,Madhya Pradesh,Jabalpur,"Govindh Bhavan Colony, Jabalpur - JMC",11-03-2024 21:00:00,23.163174,79.973061,PM10,NA,NA,NA
India,Madhya Pradesh,Jabalpur,"Gupteshwar, Jabalpur - JMC",11-03-2024 21:00:00,23.142888,79.916147,PM2.5,63,302,120
India,Madhya Pradesh,Jabalpur,"Marhatal, Jabalpur - MPPCB",11-03-2024 21:00:00,23.168606,79.932247,NO2,22,117,44
India,Madhya Pradesh,Jabalpur,"Suhagi, Jabalpur - JMC",11-03-2024 21:00:00,23.218135,79.957770,PM2.5,28,302,115
India,Madhya Pradesh,Jabalpur,"Suhagi, Jabalpur - JMC",11-03-2024 21:00:00,23.218135,79.957770,NO2,34,41,38
India,Madhya Pradesh,Jabalpur,"Suhagi, Jabalpur - JMC",11-03-2024 21:00:00,23.218135,79.957770,OZONE,3,114,73
India,Madhya Pradesh,Katni,"Gole Bazar, Katni - MPPCB",11-03-2024 21:00:00,23.50016,80.23284,OZONE,74,163,124
India,Madhya Pradesh,Mandideep,"Sector-D Industrial Area, Mandideep - MPPCB",11-03-2024 21:00:00,23.108440,77.511428,PM2.5,55,332,129
India,Madhya Pradesh,Mandideep,"Sector-D Industrial Area, Mandideep - MPPCB",11-03-2024 21:00:00,23.108440,77.511428,CO,23,75,25
India,Madhya Pradesh,Pithampur,"Sector-2 Industrial Area, Pithampur - MPPCB",11-03-2024 21:00:00,22.624758,75.675238,PM10,74,131,104
India,Madhya Pradesh,Pithampur,"Sector-2 Industrial Area, Pithampur - MPPCB",11-03-2024 21:00:00,22.624758,75.675238,SO2,14,17,15
India,Madhya Pradesh,Ratlam,"Shasthri Nagar, Ratlam - IPCA Lab",11-03-2024 21:00:00,23.331731,75.045981,PM2.5,36,181,69
India,Madhya Pradesh,Sagar,"Civil Lines, Sagar - MPPCB",11-03-2024 21:00:00,23.838586,78.759431,NH3,5,8,6
India,Madhya Pradesh,Sagar,"Civil Lines, Sagar - MPPCB",11-03-2024 21:00:00,23.838586,78.759431,CO,16,44,25
India,Madhya Pradesh,Sagar,"Civil Lines, Sagar - MPPCB",11-03-2024 21:00:00,23.838586,78.759431,OZONE,47,141,52
India,Madhya Pradesh,Sagar,"Deen Dayal Nagar, Sagar - MPPCB",11-03-2024 21:00:00,23.8640158,78.80289321,PM2.5,14,54,27
India,Madhya Pradesh,Singrauli,"Suryakiran Bhawan NCL, Singrauli - MPPCB",11-03-2024 21:00:00,24.108970,82.645580,PM2.5,50,302,92
India,Madhya Pradesh,Singrauli,"Suryakiran Bhawan NCL, Singrauli - MPPCB",11-03-2024 21:00:00,24.108970,82.645580,PM10,114,227,149
India,Madhya Pradesh,Singrauli,"Suryakiran Bhawan NCL, Singrauli - MPPCB",11-03-2024 21:00:00,24.108970,82.645580,NO2,37,96,64
India,Madhya Pradesh,Ujjain,"Mahakaleshwar Temple, Ujjain - MPPCB",11-03-2024 21:00:00,23.182719 ,75.768218 ,PM10,56,144,87
India,Madhya Pradesh,Ujjain,"Mahakaleshwar Temple, Ujjain - MPPCB",11-03-2024 21:00:00,23.182719 ,75.768218 ,NH3,5,7,6
India,Maharashtra,Ahmednagar,"Tarakpur, Ahmednagar - MPCB",11-03-2024 21:00:00,19.10122,74.73339,PM10,79,148,109
India,Maharashtra,Amravati,"Shri Shivaji Science College, Amaravati - MPCB",11-03-2024 21:00:00,20.939198,77.765701,NH3,3,12,5
India,Maharashtra,Amravati,"Shri Shivaji Science College, Amaravati - MPCB",11-03-2024 21:00:00,20.939198,77.765701,SO2,1,16,5
India,Maharashtra,Aurangabad,"More Chowk Waluj, Aurangabad - MPCB",11-03-2024 21:00:00,19.8389439,75.244448,NO2,3,13,6
India,Maharashtra,Aurangabad,"Rachnakar Colony, Aurangabad - MPCB",11-03-2024 21:00:00,19.863756,75.321188,PM2.5,NA,NA,NA
India,Maharashtra,Aurangabad,"Rachnakar Colony, Aurangabad - MPCB",11-03-2024 21:00:00,19.863756,75.321188,PM10,NA,NA,NA
India,Maharashtra,Belapur,"CBD Belapur, Belapur - MPCB",11-03-2024 21:00:00,19.0243902,73.0406721,NH3,17,53,29
India,Maharashtra,Bhiwandi,"Gokul Nagar, Bhiwandi - MPCB",11-03-2024 21:00:00,19.309073,73.057223,SO2,2,46,12
India,Maharashtra,Boisar,"Khaira, Boisar - MPCB",11-03-2024 21:00:00,19.786089,72.757971,CO,18,64,29
India,Maharashtra,Chandrapur,"MIDC Khutala, Chandrapur - MPCB",11-03-2024 21:00:00,19.9775302,79.2337086,OZONE,1,1,1
India,Maharashtra,Dhule,"Deopur, Dhule - MPCB",11-03-2024 21:00:00,20.918946,74.776388,PM10,76,248,135
India,Maharashtra,Dhule,"Deopur, Dhule - MPCB",11-03-2024 21:00:00,20.918946,74.776388,NO2,6,43,13
India,Maharashtra,Jalgaon,"Prabhat Colony, Jalgaon - MPCB",11-03-2024 21:00:00,21.001264,75.565602,SO2,9,86,25
India,Maharashtra,Jalna,"Old MIDC, Jalna - MPCB",11-03-2024 21:00:00,19.854616,75.905894,NO2,5,33,21
India,Maharashtra,Jalna,"Old MIDC, Jalna - MPCB",11-03-2024 21:00:00,19.854616,75.905894,SO2,2,16,6
India,Maharashtra,Kalyan,"Khadakpada, Kalyan - MPCB",11-03-2024 21:00:00,19.25292,73.142019,PM10,NA,NA,NA
India,Maharashtra,Kalyan,"Khadakpada, Kalyan - MPCB",11-03-2024 21:00:00,19.25292,73.142019,NH3,NA,NA,NA
India,Maharashtra,Kalyan,"Khadakpada, Kalyan - MPCB",11-03-2024 21:00:00,19.25292,73.142019,SO2,NA,NA,NA
India,Maharashtra,Kalyan,"Khadakpada, Kalyan - MPCB",11-03-2024 21:00:00,19.25292,73.142019,CO,18,26,22
India,Maharashtra,Kolhapur,"Shivaji University, Kolhapur - MPCB",11-03-2024 21:00:00,16.6870449,74.2505872,OZONE,1,131,111
India,Maharashtra,Latur,"Sawe Wadi, Latur - MPCB",11-03-2024 21:00:00,18.39963,76.57452,CO,15,52,25
India,Maharashtra,Malegaon,"Mahesh Nagar, Malegaon - MPCB",11-03-2024 21:00:00,20.555712,74.529236,SO2,13,47,17
India,Maharashtra,Mira-Bhayandar,"Bhayandar West, Mira-Bhayandar - MPCB",11-03-2024 21:00:00,19.296481,72.840923,PM2.5,81,247,165
India,Maharashtra,Mumbai,"Bandra Kurla Complex, Mumbai - MPCB",11-03-2024 21:00:00,19.065931,72.862131,NO2,11,52,24
India,Maharashtra,Mumbai,"Borivali East, Mumbai - MPCB",11-03-2024 21:00:00,19.2243333,72.8658113,NO2,9,62,19
India,Maharashtra,Mumbai,"Borivali East, Mumbai - MPCB",11-03-2024 21:00:00,19.2243333,72.8658113,NH3,1,2,2
India,Maharashtra,Mumbai,"Borivali East, Mumbai - MPCB",11-03-2024 21:00:00,19.2243333,72.8658113,CO,1,77,67
India,Maharashtra,Mumbai,"Byculla, Mumbai - BMC",11-03-2024 21:00:00,18.9767,72.8380,PM2.5,22,64,40
India,Maharashtra,Mumbai,"Byculla, Mumbai - BMC",11-03-2024 21:00:00,18.9767,72.8380,PM10,52,119,77
India,Maharashtra,Mumbai,"Chakala-Andheri East, Mumbai - IITM",11-03-2024 21:00:00,19.11074,72.86084,NO2,108,186,139
India,Maharashtra,Mumbai,"Chakala-Andheri East, Mumbai - IITM",11-03-2024 21:00:00,19.11074,72.86084,NH3,5,42,13
India,Maharashtra,Mumbai,"Chembur, Mumbai - MPCB",11-03-2024 21:00:00,19.0364585,72.8954371,CO,21,42,29
India,Maharashtra,Mumbai,"Chembur, Mumbai - MPCB",11-03-2024 21:00:00,19.0364585,72.8954371,OZONE,49,185,132
India,Maharashtra,Mumbai,"Ghatkopar, Mumbai - BMC",11-03-2024 21:00:00,19.083694,72.920967,NH3,3,12,5
India,Maharashtra,Mumbai,"Kandivali East, Mumbai - MPCB",11-03-2024 21:00:00,19.205800,72.868200,PM2.5,14,55,36
India,Maharashtra,Mumbai,"Kandivali East, Mumbai - MPCB",11-03-2024 21:00:00,19.205800,72.868200,CO,79,107,87
India,Maharashtra,Mumbai,"Kandivali West, Mumbai - BMC",11-03-2024 21:00:00,19.215859,72.831718,OZONE,66,66,66
India,Maharashtra,Mumbai,"Khindipada-Bhandup West, Mumbai - IITM",11-03-2024 21:00:00,19.1653323,72.922099,PM10,48,155,106
India,Maharashtra,Mumbai,"Khindipada-Bhandup West, Mumbai - IITM",11-03-2024 21:00:00,19.1653323,72.922099,SO2,2,22,4
India,Maharashtra,Mumbai,"Khindipada-Bhandup West, Mumbai - IITM",11-03-2024 21:00:00,19.1653323,72.922099,CO,4,39,27
India,Maharashtra,Mumbai,"Kurla, Mumbai - MPCB",11-03-2024 21:00:00,19.0863,72.8888,OZONE,28,68,50
India,Maharashtra,Mumbai,"Mazgaon, Mumbai - IITM",11-03-2024 21:00:00,18.96702,72.84214,PM10,74,188,118
India,Maharashtra,Mumbai,"Mazgaon, Mumbai - IITM",11-03-2024 21:00:00,18.96702,72.84214,NH3,21,37,28
India,Maharashtra,Mumbai,"Mulund West, Mumbai - MPCB",11-03-2024 21:00:00,19.1750,72.9419,PM2.5,23,78,41
India,Maharashtra,Mumbai,"Mulund West, Mumbai - MPCB",11-03-2024 21:00:00,19.1750,72.9419,PM10,47,165,88
India,Maharashtra,Mumbai,"Navy Nagar-Colaba, Mumbai - IITM",11-03-2024 21:00:00,18.897756,72.813320,NO2,NA,NA,NA
India,Maharashtra,Mumbai,"Navy Nagar-Colaba, Mumbai - IITM",11-03-2024 21:00:00,18.897756,72.813320,NH3,NA,NA,NA
India,Maharashtra,Mumbai,"Powai, Mumbai - MPCB",11-03-2024 21:00:00,19.137500,72.915056,CO,28,45,39
India,Maharashtra,Mumbai,"Siddharth Nagar-Worli, Mumbai - IITM",11-03-2024 21:00:00,19.000083,72.813993,PM2.5,54,317,185
India,Maharashtra,Mumbai,"Siddharth Nagar-Worli, Mumbai - IITM",11-03-2024 21:00:00,19.000083,72.813993,PM10,77,145,119
India,Maharashtra,Mumbai,"Siddharth Nagar-Worli, Mumbai - IITM",11-03-2024 21:00:00,19.000083,72.813993,OZONE,16,179,128
India,Maharashtra,Mumbai,"Sion, Mumbai - MPCB",11-03-2024 21:00:00,19.047000,72.874600,OZONE,14,50,27
India,Maharashtra,Mumbai,"Vasai West, Mumbai - MPCB",11-03-2024 21:00:00,19.383200,72.820400,CO,40,99,49
India,Maharashtra,Mumbai,"Vasai West, Mumbai - MPCB",11-03-2024 21:00:00,19.383200,72.820400,OZONE,13,138,80
India,Maharashtra,Mumbai,"Vile Parle West, Mumbai - MPCB",11-03-2024 21:00:00,19.10861,72.83622,PM10,50,124,75
India,Maharashtra,Mumbai,"Vile Parle West, Mumbai - MPCB",11-03-2024 21:00:00,19.10861,72.83622,CO,74,76,75
India,Maharashtra,Mumbai,"Worli, Mumbai - MPCB",11-03-2024 21:00:00,18.9936162,72.8128113,OZONE,5,10,9
India,Maharashtra,Nagpur,"Ambazari, Nagpur - MPCB",11-03-2024 21:00:00,21.121801,79.04952,PM2.5,78,285,139
India,Maharashtra,Nagpur,"Ambazari, Nagpur - MPCB",11-03-2024 21:00:00,21.121801,79.04952,PM10,94,177,122
India,Maharashtra,Nagpur,"Ambazari, Nagpur - MPCB",11-03-2024 21:00:00,21.121801,79.04952,CO,12,115,38
India,Maharashtra,Nagpur,"Mahal, Nagpur - MPCB",11-03-2024 21:00:00,21.14472,79.107595,OZONE,1,106,72
India,Maharashtra,Nagpur,"Opp GPO Civil Lines, Nagpur - MPCB",11-03-2024 21:00:00,21.152875,79.0517531,NH3,4,5,4
India,Maharashtra,Nagpur,"Ram Nagar, Nagpur - MPCB",11-03-2024 21:00:00,21.143383,79.048912,PM10,101,156,129
India,Maharashtra,Nagpur,"Ram Nagar, Nagpur - MPCB",11-03-2024 21:00:00,21.143383,79.048912,SO2,19,51,32
India,Maharashtra,Nanded,"Sneh Nagar, Nanded - MPCB",11-03-2024 21:00:00,19.173852,77.296291,CO,32,38,36
India,Maharashtra,Nanded,"Sneh Nagar, Nanded - MPCB",11-03-2024 21:00:00,19.173852,77.296291,OZONE,14,133,99
India,Maharashtra,Nashik,"Hirawadi, Nashik - MPCB",11-03-2024 21:00:00,20.021503,73.813844,PM10,58,97,76
India,Maharashtra,Nashik,"Hirawadi, Nashik - MPCB",11-03-2024 21:00:00,20.021503,73.813844,NO2,1,68,24
India,Maharashtra,Nashik,"Hirawadi, Nashik - MPCB",11-03-2024 21:00:00,20.021503,73.813844,CO,3,44,11
India,Maharashtra,Nashik,"MIDC Ambad, Nashik - MPCB",11-03-2024 21:00:00,19.950220,73.731480,PM2.5,34,82,59
India,Maharashtra,Nashik,"MIDC Ambad, Nashik - MPCB",11-03-2024 21:00:00,19.950220,73.731480,CO,10,109,16
India,Maharashtra,Navi Mumbai,"Kopripada-Vashi, Navi Mumbai - MPCB",11-03-2024 21:00:00,19.090337,73.014232,OZONE,8,98,68
India,Maharashtra,Navi Mumbai,"Mahape, Navi Mumbai - MPCB",11-03-2024 21:00:00,19.1135051,73.008978,OZONE,22,54,31
India,Maharashtra,Navi Mumbai,"Sanpada, Navi Mumbai - MPCB",11-03-2024 21:00:00,19.0575752,73.0151367,PM2.5,NA,NA,NA
India,Maharashtra,Navi Mumbai,"Sanpada, Navi Mumbai - MPCB",11-03-2024 21:00:00,19.0575752,73.0151367,NO2,NA,NA,NA
India,Maharashtra,Navi Mumbai,"Sanpada, Navi Mumbai - MPCB",11-03-2024 21:00:00,19.0575752,73.0151367,SO2,NA,NA,NA
India,Maharashtra,Navi Mumbai,"Sanpada, Navi Mumbai - MPCB",11-03-2024 21:00:00,19.0575752,73.0151367,OZONE,92,100,99
India,Maharashtra,Navi Mumbai,"Sector-19A Nerul, Navi Mumbai - IITM",11-03-2024 21:00:00,19.044,73.0325,PM10,16,240,149
India,Maharashtra,Navi Mumbai,"Sector-19A Nerul, Navi Mumbai - IITM",11-03-2024 21:00:00,19.044,73.0325,NO2,35,116,70
India,Maharashtra,Navi Mumbai,"Sector-19A Nerul, Navi Mumbai - IITM",11-03-2024 21:00:00,19.044,73.0325,OZONE,1,198,118
India,Maharashtra,Navi Mumbai,"Sector-2E Kalamboli, Navi Mumbai - MPCB",11-03-2024 21:00:00,19.02579,73.10297,NH3,1,5,2
India,Maharashtra,Pimpri-Chinchwad,"Gavalinagar, Pimpri Chinchwad - MPCB",11-03-2024 21:00:00,18.63673,73.82487,PM10,67,190,115
India,Maharashtra,Pimpri-Chinchwad,"Gavalinagar, Pimpri Chinchwad - MPCB",11-03-2024 21:00:00,18.63673,73.82487,NO2,16,95,42
India,Maharashtra,Pimpri-Chinchwad,"Gavalinagar, Pimpri Chinchwad - MPCB",11-03-2024 21:00:00,18.63673,73.82487,OZONE,1,172,167
India,Maharashtra,Pimpri-Chinchwad,"Park Street Wakad, Pimpri Chinchwad - MPCB",11-03-2024 21:00:00,18.59051,73.77946,PM2.5,83,283,151
India,Maharashtra,Pimpri-Chinchwad,"Park Street Wakad, Pimpri Chinchwad - MPCB",11-03-2024 21:00:00,18.59051,73.77946,PM10,91,191,131
India,Maharashtra,Pimpri-Chinchwad,"Thergaon, Pimpri Chinchwad - MPCB",11-03-2024 21:00:00,18.616318,73.765797,PM10,NA,NA,NA
India,Maharashtra,Pimpri-Chinchwad,"Thergaon, Pimpri Chinchwad - MPCB",11-03-2024 21:00:00,18.616318,73.765797,NO2,40,139,91
India,Maharashtra,Pimpri-Chinchwad,"Thergaon, Pimpri Chinchwad - MPCB",11-03-2024 21:00:00,18.616318,73.765797,SO2,4,7,5
India,Maharashtra,Pune,"Katraj Dairy, Pune - MPCB",11-03-2024 21:00:00,18.454450,73.854155,PM2.5,39,260,78
India,Maharashtra,Pune,"Katraj Dairy, Pune - MPCB",11-03-2024 21:00:00,18.454450,73.854155,NO2,17,21,19
India,Maharashtra,Pune,"Transport Nagar-Nigdi, Pune - IITM",11-03-2024 21:00:00,18.664282,73.763966,NO2,15,21,17
India,Maharashtra,Sangli,"Vijay Nagar, Sangli - MPCB",11-03-2024 21:00:00, 16.5038,74.3623,PM10,85,172,111
India,Maharashtra,Sangli,"Vijay Nagar, Sangli - MPCB",11-03-2024 21:00:00, 16.5038,74.3623,SO2,12,44,21
India,Maharashtra,Sangli,"Vijay Nagar, Sangli - MPCB",11-03-2024 21:00:00, 16.5038,74.3623,CO,23,76,40
India,Maharashtra,Solapur,"Ratandeep Housing Society, Solapur - MPCB",11-03-2024 21:00:00,17.65439,75.90649,NO2,NA,NA,NA
India,Maharashtra,Solapur,"Ratandeep Housing Society, Solapur - MPCB",11-03-2024 21:00:00,17.65439,75.90649,OZONE,28,144,94
India,Maharashtra,Solapur,"Solapur, Solapur - MPCB",11-03-2024 21:00:00,17.6599188,75.9063906,PM10,122,142,137
India,Maharashtra,Thane,"Kasarvadavali, Thane - MPCB",11-03-2024 21:00:00,19.26777,72.97182,PM2.5,52,169,92
India,Maharashtra,Ulhasnagar,"Sidhi Vinayak Nagar, Ulhasnagar - MPCB",11-03-2024 21:00:00,19.235581,73.159121,NO2,6,49,26
India,Maharashtra,Ulhasnagar,"Sidhi Vinayak Nagar, Ulhasnagar - MPCB",11-03-2024 21:00:00,19.235581,73.159121,SO2,7,69,20
India,Maharashtra,Virar,"Bolinj, Virar - MPCB",11-03-2024 21:00:00,19.4458210,72.7988231,PM10,79,175,120
India,Maharashtra,Virar,"Bolinj, Virar - MPCB",11-03-2024 21:00:00,19.4458210,72.7988231,CO,22,124,23
India,Manipur,Imphal,"DM College of Science, Imphal - Manipur PCB",11-03-2024 21:00:00,24.8207389,93.9423085,NO2,NA,NA,NA
India,Manipur,Imphal,"Manipur University, Imphal - Manipur PCB",11-03-2024 21:00:00,24.7524239,93.9286218,NH3,NA,NA,NA
India,Manipur,Imphal,"Manipur University, Imphal - Manipur PCB",11-03-2024 21:00:00,24.7524239,93.9286218,OZONE,1,40,29
India,Meghalaya,Shillong,"Lumpyngngad, Shillong - Meghalaya PCB",11-03-2024 21:00:00,25.5586,91.8985,PM10,92,157,118
India,Meghalaya,Shillong,"Lumpyngngad, Shillong - Meghalaya PCB",11-03-2024 21:00:00,25.5586,91.8985,OZONE,55,137,86
India,Mizoram,Aizawl,"Sikulpuikawn, Aizawl - Mizoram PCB",11-03-2024 21:00:00,23.7176342,92.7192841,NH3,NA,NA,NA
India,Nagaland,Kohima,"PWD Juction, Kohima - NPCB",11-03-2024 21:00:00,25.6635413,94.0989878,PM10,80,154,115
India,Nagaland,Kohima,"PWD Juction, Kohima - NPCB",11-03-2024 21:00:00,25.6635413,94.0989878,NO2,3,4,3
India,Odisha,Angul,"Hakimapada, Angul - OSPCB",11-03-2024 21:00:00,20.832874,85.104082,NH3,1,1,1
India,Odisha,Balasore,"Kalidaspur, Balasore - OSPCB",11-03-2024 21:00:00,21.51161,86.89088,PM10,88,159,121
India,Odisha,Barbil,"Forest Office, Barbil - OSPCB",11-03-2024 21:00:00,22.1166054,85.3945546,SO2,2,11,6
India,Odisha,Barbil,"Forest Office, Barbil - OSPCB",11-03-2024 21:00:00,22.1166054,85.3945546,OZONE,3,160,120
India,Odisha,Baripada,"Meher Colony, Baripada - OSPCB",11-03-2024 21:00:00,21.941841,86.728318,PM2.5,96,307,157
India,Odisha,Baripada,"Meher Colony, Baripada - OSPCB",11-03-2024 21:00:00,21.941841,86.728318,PM10,88,148,111
India,Odisha,Bhubaneswar,"Lingraj Mandir, Bhubaneswar - OSPCB",11-03-2024 21:00:00,20.240790,85.836784,PM2.5,NA,NA,NA
India,Odisha,Bhubaneswar,"Lingraj Mandir, Bhubaneswar - OSPCB",11-03-2024 21:00:00,20.240790,85.836784,PM10,NA,NA,NA
India,Odisha,Bileipada,"Tata Township, Bileipada - OSPCB",11-03-2024 21:00:00,22.06156703,85.47409613,SO2,11,28,18
India,Odisha,Brajrajnagar,"GM Office, Brajrajnagar - OSPCB",11-03-2024 21:00:00,21.8004996,83.8396977,SO2,15,17,15
India,Odisha,Brajrajnagar,"GM Office, Brajrajnagar - OSPCB",11-03-2024 21:00:00,21.8004996,83.8396977,OZONE,14,20,19
India,Odisha,Byasanagar,"Ferro Chrome Colony, Byasanagar - OSPCB",11-03-2024 21:00:00,20.94185,86.11510,PM2.5,62,173,90
India,Odisha,Keonjhar,"Jagamohanpur, Keonjhar - OSPCB",11-03-2024 21:00:00,21.643900,85.599355,CO,12,57,42
India,Odisha,Nayagarh,"Dabuna, Nayagarh - OSPCB",11-03-2024 21:00:00,21.847279,85.416905,OZONE,1,16,9
India,Odisha,Rairangpur,"Divisional Forest Office, Rairangpur - OSPCB",11-03-2024 21:00:00,22.265816,86.174829,PM10,36,131,99
India,Odisha,Rairangpur,"Divisional Forest Office, Rairangpur - OSPCB",11-03-2024 21:00:00,22.265816,86.174829,NH3,5,5,5
India,Odisha,Rourkela,"Fertilizer Township, Rourkela - OSPCB",11-03-2024 21:00:00,22.18972222,84.86277778,PM2.5,23,334,125
India,Odisha,Rourkela,"Fertilizer Township, Rourkela - OSPCB",11-03-2024 21:00:00,22.18972222,84.86277778,PM10,46,500,179
India,Odisha,Suakati,"OMC Colony, Suakati - OSPCB",11-03-2024 21:00:00,21.606865,85.510538,NO2,NA,NA,NA
India,Odisha,Suakati,"OMC Colony, Suakati - OSPCB",11-03-2024 21:00:00,21.606865,85.510538,SO2,3,29,11
India,Odisha,Suakati,"OMC Colony, Suakati - OSPCB",11-03-2024 21:00:00,21.606865,85.510538,OZONE,5,330,114
India,Odisha,Talcher,"Talcher Coalfields,Talcher - OSPCB",11-03-2024 21:00:00,20.9360711,85.1707021,PM10,37,225,89
India,Odisha,Talcher,"Talcher Coalfields,Talcher - OSPCB",11-03-2024 21:00:00,20.9360711,85.1707021,OZONE,2,18,12
India,Odisha,Tensa,"Barsua Iron Ore Mines, Tensa - OSPCB",11-03-2024 21:00:00,21.869985,85.167016,SO2,11,24,17
India,Puducherry,Puducherry,"Jawahar Nagar, Puducherry - PPCC",11-03-2024 21:00:00,11.9309,79.8027,PM2.5,38,220,63
India,Puducherry,Puducherry,"Jawahar Nagar, Puducherry - PPCC",11-03-2024 21:00:00,11.9309,79.8027,PM10,44,114,60
India,Puducherry,Puducherry,"Jawahar Nagar, Puducherry - PPCC",11-03-2024 21:00:00,11.9309,79.8027,NO2,1,23,8
India,Puducherry,Puducherry,"Jawahar Nagar, Puducherry - PPCC",11-03-2024 21:00:00,11.9309,79.8027,NH3,2,4,3
India,Punjab,Bathinda,"Hardev Nagar, Bathinda - PPCB",11-03-2024 21:00:00,30.233011,74.907758,NO2,29,31,31
India,Punjab,Jalandhar,"Civil Line, Jalandhar - PPCB",11-03-2024 21:00:00,31.321907,75.578914,SO2,10,16,12
India,Punjab,Jalandhar,"Civil Line, Jalandhar - PPCB",11-03-2024 21:00:00,31.321907,75.578914,CO,32,92,49
India,Punjab,Khanna,"Kalal Majra, Khanna - PPCB",11-03-2024 21:00:00,30.736056 ,76.209694,OZONE,9,100,76
India,Punjab,Mandi Gobindgarh,"RIMT University, Mandi Gobindgarh - PPCB",11-03-2024 21:00:00,30.649961,76.331442,CO,7,68,28
India,Punjab,Patiala,"Model Town, Patiala - PPCB",11-03-2024 21:00:00,30.349388,76.366642,PM10,85,154,104
India,Rajasthan,Ajmer,"Civil Lines,  Ajmer - RSPCB",11-03-2024 21:00:00,26.470859,74.646594,CO,21,93,39
India,Rajasthan,Banswara,"Rati Talai, Banswara - RSPCB",11-03-2024 21:00:00,23.555190,74.440010,PM2.5,33,159,73
India,Rajasthan,Banswara,"Rati Talai, Banswara - RSPCB",11-03-2024 21:00:00,23.555190,74.440010,CO,17,48,27
India,Rajasthan,Banswara,"Rati Talai, Banswara - RSPCB",11-03-2024 21:00:00,23.555190,74.440010,OZONE,30,147,98
India,Rajasthan,Baran,"Bamboliya, Baran - RSPCB",11-03-2024 21:00:00,25.106006,76.469948,PM2.5,NA,NA,NA
India,Rajasthan,Baran,"Bamboliya, Baran - RSPCB",11-03-2024 21:00:00,25.106006,76.469948,CO,29,36,32
India,Rajasthan,Barmer,"Railway Colony, Barmer - RSPCB",11-03-2024 21:00:00,25.747299,71.393989,PM2.5,6,66,24
India,Rajasthan,Bharatpur,"Krishna Nagar, Bharatpur - RSPCB",11-03-2024 21:00:00,27.215415,77.50873,PM2.5,17,92,38
India,Rajasthan,Bharatpur,"Krishna Nagar, Bharatpur - RSPCB",11-03-2024 21:00:00,27.215415,77.50873,NO2,43,68,55
India,Rajasthan,Bharatpur,"Krishna Nagar, Bharatpur - RSPCB",11-03-2024 21:00:00,27.215415,77.50873,NH3,11,18,13
India,Rajasthan,Bharatpur,"Krishna Nagar, Bharatpur - RSPCB",11-03-2024 21:00:00,27.215415,77.50873,SO2,1,10,6
India,Rajasthan,Bhilwara,"Pratap Nagar, Bhilwara - RSPCB",11-03-2024 21:00:00,25.339605,74.618883,PM2.5,41,381,201
India,Rajasthan,Bhiwadi,"RIICO Ind. Area III, Bhiwadi - RSPCB",11-03-2024 21:00:00,28.194909,76.862296,PM2.5,73,118,94
India,Rajasthan,Bhiwadi,"RIICO Ind. Area III, Bhiwadi - RSPCB",11-03-2024 21:00:00,28.194909,76.862296,CO,16,117,80
India,Rajasthan,Bhiwadi,"Vasundhara Nagar_UIT, Bhiwadi - RSPCB",11-03-2024 21:00:00,28.207266,76.829265,SO2,6,91,20
India,Rajasthan,Bikaner,"MM Ground, Bikaner - RSPCB",11-03-2024 21:00:00,28.018792,73.292658,PM10,86,259,141
India,Rajasthan,Bikaner,"MM Ground, Bikaner - RSPCB",11-03-2024 21:00:00,28.018792,73.292658,NO2,22,105,48
India,Rajasthan,Bundi,"New Colony, Bundi - RSPCB",11-03-2024 21:00:00,25.435774,75.644272,PM2.5,42,187,86
India,Rajasthan,Bundi,"New Colony, Bundi - RSPCB",11-03-2024 21:00:00,25.435774,75.644272,SO2,4,93,17
India,Rajasthan,Chittorgarh,"Shastri Nagar, Chittorgarh - RSPCB",11-03-2024 21:00:00,24.892047,74.623527,PM10,51,300,129
India,Rajasthan,Chittorgarh,"Shastri Nagar, Chittorgarh - RSPCB",11-03-2024 21:00:00,24.892047,74.623527,CO,8,76,25
India,Rajasthan,Dausa,"Khatikan Mohalla, Dausa - RSPCB",11-03-2024 21:00:00,26.895552,76.334753,NH3,7,9,8
India,Rajasthan,Dholpur,"Raja Ganj, Dholpur - RSPCB",11-03-2024 21:00:00,26.699557,77.898881,NH3,9,14,11
India,Rajasthan,Dungarpur,"Bhoiwada, Dungarpur - RSPCB",11-03-2024 21:00:00,23.837789,73.714926,NH3,4,5,5
India,Rajasthan,Dungarpur,"Bhoiwada, Dungarpur - RSPCB",11-03-2024 21:00:00,23.837789,73.714926,SO2,9,19,11
India,Rajasthan,Hanumangarh,"Housing Board, Hanumangarh - RSPCB",11-03-2024 21:00:00,29.610750,74.283608,PM2.5,58,358,198
India,Rajasthan,Hanumangarh,"Housing Board, Hanumangarh - RSPCB",11-03-2024 21:00:00,29.610750,74.283608,NO2,15,74,34
India,Rajasthan,Hanumangarh,"Housing Board, Hanumangarh - RSPCB",11-03-2024 21:00:00,29.610750,74.283608,CO,13,84,43
India,Rajasthan,Jaipur,"Police Commissionerate, Jaipur - RSPCB",11-03-2024 21:00:00,26.9164092,75.7994901,SO2,15,21,18
India,Rajasthan,Jaipur,"Sector-2 Murlipura, Jaipur - RSPCB",11-03-2024 21:00:00,26.960669,75.771817,SO2,11,28,15
India,Rajasthan,Jaipur,"Sector-2 Murlipura, Jaipur - RSPCB",11-03-2024 21:00:00,26.960669,75.771817,CO,2,105,40
India,Rajasthan,Jaipur,"Shastri Nagar, Jaipur - RSPCB",11-03-2024 21:00:00,26.9502929,75.730943,PM2.5,57,158,91
India,Rajasthan,Jaipur,"Shastri Nagar, Jaipur - RSPCB",11-03-2024 21:00:00,26.9502929,75.730943,NO2,7,136,44
India,Rajasthan,Jaipur,"Shastri Nagar, Jaipur - RSPCB",11-03-2024 21:00:00,26.9502929,75.730943,SO2,2,111,28
India,Rajasthan,Jaisalmer,"Sadar Bazar, Jaisalmer - RSPCB",11-03-2024 21:00:00,26.912329,70.909168,NH3,5,41,12
India,Rajasthan,Jalore,"Mudtra Sili, Jalore - RSPCB",11-03-2024 21:00:00,25.344694,72.626208,PM2.5,26,334,72
India,Rajasthan,Jalore,"Mudtra Sili, Jalore - RSPCB",11-03-2024 21:00:00,25.344694,72.626208,NH3,5,10,7
India,Rajasthan,Jhalawar,"Rajlaxmi Nagar, Jhalawar - RSPCB",11-03-2024 21:00:00,24.588397,76.172782,SO2,4,23,8
India,Rajasthan,Jhalawar,"Rajlaxmi Nagar, Jhalawar - RSPCB",11-03-2024 21:00:00,24.588397,76.172782,CO,2,103,61
India,Rajasthan,Jhunjhunu,"Indra Nagar, Jhunjhunu - RSPCB",11-03-2024 21:00:00,28.108988,75.386577,NH3,12,18,14
India,Rajasthan,Jodhpur,"Collectorate, Jodhpur - RSPCB",11-03-2024 21:00:00,26.268249,73.0193853,SO2,2,56,20
India,Rajasthan,Jodhpur,"Digari Kalan, Jodhpur - RSPCB",11-03-2024 21:00:00,26.295810,73.082283,PM10,38,166,84
India,Rajasthan,Jodhpur,"Digari Kalan, Jodhpur - RSPCB",11-03-2024 21:00:00,26.295810,73.082283,NH3,5,10,6
India,Rajasthan,Jodhpur,"Digari Kalan, Jodhpur - RSPCB",11-03-2024 21:00:00,26.295810,73.082283,CO,16,54,32
India,Rajasthan,Jodhpur,"Jhalamand, Jodhpur - RSPCB",11-03-2024 21:00:00,26.215415,73.070156,PM10,33,144,80
India,Rajasthan,Karauli,"Satyawati Vihar, Karauli - RSPCB",11-03-2024 21:00:00,26.506177,77.025989,NO2,8,40,17
India,Rajasthan,Kota,"Dhanmandi, Kota - RSPCB",11-03-2024 21:00:00,25.164090,75.858137,NO2,51,190,83
India,Rajasthan,Kota,"Nayapura, Kota - RSPCB",11-03-2024 21:00:00,25.196024,75.855668,NH3,5,10,7
India,Rajasthan,Kota,"Nayapura, Kota - RSPCB",11-03-2024 21:00:00,25.196024,75.855668,CO,26,108,58
India,Rajasthan,Kota,"Shrinath Puram, Kota - RSPCB",11-03-2024 21:00:00,25.14389,75.821256,NH3,15,32,20
India,Rajasthan,Nagaur,"Karni Colony, Nagaur - RSPCB",11-03-2024 21:00:00,27.213494,73.734444,PM10,70,198,112
India,Rajasthan,Nagaur,"Karni Colony, Nagaur - RSPCB",11-03-2024 21:00:00,27.213494,73.734444,NO2,11,30,18
India,Rajasthan,Nagaur,"Karni Colony, Nagaur - RSPCB",11-03-2024 21:00:00,27.213494,73.734444,NH3,5,10,7
India,Rajasthan,Pali,"Indira Colony Vistar, Pali - RSPCB",11-03-2024 21:00:00,25.771061, 73.340227,SO2,12,35,15
India,Rajasthan,Pali,"Indira Colony Vistar, Pali - RSPCB",11-03-2024 21:00:00,25.771061, 73.340227,CO,14,200,130
India,Rajasthan,Pratapgarh,"Pragati Nagar, Pratapgarh - RSPCB",11-03-2024 21:00:00,24.041198,74.780702,NH3,5,9,6
India,Rajasthan,Pratapgarh,"Pragati Nagar, Pratapgarh - RSPCB",11-03-2024 21:00:00,24.041198,74.780702,OZONE,12,130,53
India,Rajasthan,Rajsamand,"Dhoinda, Rajsamand - RSPCB",11-03-2024 21:00:00,25.036360,73.883502,SO2,6,16,9
India,Rajasthan,Rajsamand,"Dhoinda, Rajsamand - RSPCB",11-03-2024 21:00:00,25.036360,73.883502,OZONE,38,83,55
India,Rajasthan,Sawai Madhopur,"Sahu Nagar, Sawai Madhopur - RSPCB",11-03-2024 21:00:00,26.031443,76.359327,PM2.5,57,233,99
India,Rajasthan,Sawai Madhopur,"Sahu Nagar, Sawai Madhopur - RSPCB",11-03-2024 21:00:00,26.031443,76.359327,PM10,49,154,86
India,Rajasthan,Sikar,"Radhakishan Pura, Sikar - RSPCB",11-03-2024 21:00:00,27.608912,75.153302,OZONE,6,72,52
India,Rajasthan,Udaipur,"Ashok Nagar, Udaipur - RSPCB",11-03-2024 21:00:00,24.5886166,73.6321397,PM2.5,60,235,104
India,Sikkim,Gangtok,"Zero Point GICI, Gangtok - SSPCB",11-03-2024 21:00:00,27.338530,88.614099,CO,16,48,33
India,TamilNadu,Ariyalur,"Keelapalur, Ariyalur - TNPCB",11-03-2024 21:00:00,11.06825,79.07033,NH3,NA,NA,NA
India,TamilNadu,Chennai,"Manali, Chennai - CPCB",11-03-2024 21:00:00,13.164544,80.26285,NO2,6,10,8
India,TamilNadu,Chennai,"Perungudi, Chennai - TNPCB",11-03-2024 21:00:00,12.9533,80.2357,NO2,2,9,4
India,TamilNadu,Chennai,"Perungudi, Chennai - TNPCB",11-03-2024 21:00:00,12.9533,80.2357,CO,4,74,16
India,TamilNadu,Chennai,"Royapuram, Chennai - TNPCB",11-03-2024 21:00:00,13.1036,80.2909,NH3,1,1,1
India,TamilNadu,Chennai,"Velachery Res. Area, Chennai - CPCB",11-03-2024 21:00:00,13.0052189,80.2398125,NO2,5,35,11
India,TamilNadu,Cuddalore,"Kudikadu, Cuddalore - TNPCB",11-03-2024 21:00:00,11.6829898,79.7532099,NH3,5,6,5
India,TamilNadu,Cuddalore,"Semmandalam, Cuddalore - TNPCB",11-03-2024 21:00:00,11.7637683,79.7499835,NO2,2,25,13
India,TamilNadu,Cuddalore,"Semmandalam, Cuddalore - TNPCB",11-03-2024 21:00:00,11.7637683,79.7499835,NH3,1,3,2
India,TamilNadu,Gummidipoondi,"Anthoni Pillai Nagar, Gummidipoondi - TNPCB",11-03-2024 21:00:00,13.4127,80.1081,PM2.5,35,300,111
India,TamilNadu,Gummidipoondi,"Anthoni Pillai Nagar, Gummidipoondi - TNPCB",11-03-2024 21:00:00,13.4127,80.1081,NH3,1,2,2
India,TamilNadu,Kanchipuram,"Kilambi, Kanchipuram - TNPCB",11-03-2024 21:00:00,12.864618,79.659968,NH3,NA,NA,NA
India,TamilNadu,Kanchipuram,"Kilambi, Kanchipuram - TNPCB",11-03-2024 21:00:00,12.864618,79.659968,SO2,NA,NA,NA
India,TamilNadu,Ooty,"Bombay Castel, Ooty - TNPCB",11-03-2024 21:00:00,11.4068288,76.7138973,CO,18,18,18
India,TamilNadu,Ooty,"Bombay Castel, Ooty - TNPCB",11-03-2024 21:00:00,11.4068288,76.7138973,OZONE,5,6,5
India,TamilNadu,Ramanathapuram,"Chalai Bazaar, Ramanathapuram - TNPCB",11-03-2024 21:00:00,9.36399,78.831977,PM10,NA,NA,NA
India,TamilNadu,Ramanathapuram,"Chalai Bazaar, Ramanathapuram - TNPCB",11-03-2024 21:00:00,9.36399,78.831977,CO,2,2,2
India,TamilNadu,Salem,"Sona College of Technology, Salem - TNPCB",11-03-2024 21:00:00,11.679111,78.125052,PM10,NA,NA,NA
India,TamilNadu,Salem,"Sona College of Technology, Salem - TNPCB",11-03-2024 21:00:00,11.679111,78.125052,CO,40,46,43
India,TamilNadu,Salem,"Sona College of Technology, Salem - TNPCB",11-03-2024 21:00:00,11.679111,78.125052,OZONE,2,3,3
India,TamilNadu,Tirupur,"Kumaran College, Tirupur - TNPCB",11-03-2024 21:00:00,11.0973603,77.3228673,PM10,96,234,147
India,TamilNadu,Tirupur,"Kumaran College, Tirupur - TNPCB",11-03-2024 21:00:00,11.0973603,77.3228673,NH3,NA,NA,NA
India,TamilNadu,Tirupur,"Kumaran College, Tirupur - TNPCB",11-03-2024 21:00:00,11.0973603,77.3228673,CO,22,101,48
India,TamilNadu,Tirupur,"Kumaran College, Tirupur - TNPCB",11-03-2024 21:00:00,11.0973603,77.3228673,OZONE,6,7,7
India,TamilNadu,Vellore,"Vasanthapuram, Vellore - TNPCB",11-03-2024 21:00:00,12.909494,79.131861,NH3,1,1,1
India,TamilNadu,Vellore,"Vasanthapuram, Vellore - TNPCB",11-03-2024 21:00:00,12.909494,79.131861,CO,17,20,19
India,Telangana,Hyderabad,"Bollaram Industrial Area, Hyderabad - TSPCB",11-03-2024 21:00:00,17.540891,78.358528,PM2.5,32,79,56
India,Telangana,Hyderabad,"Bollaram Industrial Area, Hyderabad - TSPCB",11-03-2024 21:00:00,17.540891,78.358528,OZONE,36,39,37
India,Telangana,Hyderabad,"Central University, Hyderabad - TSPCB",11-03-2024 21:00:00,17.460103,78.334361,NO2,13,39,28
India,Telangana,Hyderabad,"ECIL Kapra, Hyderabad - TSPCB",11-03-2024 21:00:00,17.470431,78.566959,OZONE,7,50,36
India,Telangana,Hyderabad,"ICRISAT Patancheru, Hyderabad - TSPCB",11-03-2024 21:00:00,17.518400,78.278777,PM2.5,30,75,43
India,Telangana,Hyderabad,"ICRISAT Patancheru, Hyderabad - TSPCB",11-03-2024 21:00:00,17.518400,78.278777,PM10,43,112,62
India,Telangana,Hyderabad,"ICRISAT Patancheru, Hyderabad - TSPCB",11-03-2024 21:00:00,17.518400,78.278777,SO2,14,25,19
India,Telangana,Hyderabad,"IITH Kandi, Hyderabad - TSPCB",11-03-2024 21:00:00,17.585705,78.126199,NO2,11,12,12
India,Telangana,Hyderabad,"IITH Kandi, Hyderabad - TSPCB",11-03-2024 21:00:00,17.585705,78.126199,NH3,2,2,2
India,Telangana,Hyderabad,"Kokapet, Hyderabad - TSPCB",11-03-2024 21:00:00,17.393559,78.339194,CO,NA,NA,NA
India,Telangana,Hyderabad,"Kokapet, Hyderabad - TSPCB",11-03-2024 21:00:00,17.393559,78.339194,OZONE,NA,NA,NA
India,Telangana,Hyderabad,"Kompally Municipal Office, Hyderabad - TSPCB",11-03-2024 21:00:00,17.544899,78.486949,NO2,NA,NA,NA
India,Telangana,Hyderabad,"New Malakpet, Hyderabad - TSPCB",11-03-2024 21:00:00,17.37206,78.50864,NH3,4,5,4
India,Telangana,Hyderabad,"Somajiguda, Hyderabad - TSPCB",11-03-2024 21:00:00,17.417094,78.457437,PM2.5,NA,NA,NA
India,Telangana,Hyderabad,"Zoo Park, Hyderabad - TSPCB",11-03-2024 21:00:00,17.349694,78.451437,NO2,22,44,30
India,Telangana,Hyderabad,"Zoo Park, Hyderabad - TSPCB",11-03-2024 21:00:00,17.349694,78.451437,NH3,1,1,1
India,Tripura,Agartala,"Bardowali, Agartala - Tripura SPCB",11-03-2024 21:00:00,23.8175497,91.2726974,PM2.5,NA,NA,NA
India,Tripura,Agartala,"Bardowali, Agartala - Tripura SPCB",11-03-2024 21:00:00,23.8175497,91.2726974,PM10,NA,NA,NA
India,Tripura,Agartala,"Bardowali, Agartala - Tripura SPCB",11-03-2024 21:00:00,23.8175497,91.2726974,NH3,NA,NA,NA
India,Tripura,Agartala,"Bardowali, Agartala - Tripura SPCB",11-03-2024 21:00:00,23.8175497,91.2726974,SO2,NA,NA,NA
India,Uttar_Pradesh,Agra,"Manoharpur, Agra - UPPCB",11-03-2024 21:00:00,27.23711,78.01936,PM2.5,36,301,93
India,Uttar_Pradesh,Agra,"Manoharpur, Agra - UPPCB",11-03-2024 21:00:00,27.23711,78.01936,CO,8,20,11
India,Uttar_Pradesh,Agra,"Manoharpur, Agra - UPPCB",11-03-2024 21:00:00,27.23711,78.01936,OZONE,1,39,31
India,Uttar_Pradesh,Agra,"Rohta, Agra - UPPCB",11-03-2024 21:00:00,27.106972,78.000111,SO2,2,8,5
India,Uttar_Pradesh,Agra,"Rohta, Agra - UPPCB",11-03-2024 21:00:00,27.106972,78.000111,OZONE,11,16,15
India,Uttar_Pradesh,Agra,"Sanjay Palace, Agra - UPPCB",11-03-2024 21:00:00,27.19865833,78.00598056,CO,30,72,42
India,Uttar_Pradesh,Agra,"Sector-3B Avas Vikas Colony, Agra - UPPCB",11-03-2024 21:00:00,27.19412,77.96237,PM2.5,20,62,36
India,Uttar_Pradesh,Agra,"Shahjahan Garden, Agra - UPPCB",11-03-2024 21:00:00,27.169338,78.03582,NO2,23,23,23
India,Uttar_Pradesh,Agra,"Shastripuram, Agra - UPPCB",11-03-2024 21:00:00,27.19862,77.92066,PM2.5,39,103,61
India,Uttar_Pradesh,Agra,"Shastripuram, Agra - UPPCB",11-03-2024 21:00:00,27.19862,77.92066,PM10,49,119,76
India,Uttar_Pradesh,Agra,"Shastripuram, Agra - UPPCB",11-03-2024 21:00:00,27.19862,77.92066,NO2,27,149,38
India,Uttar_Pradesh,Baghpat,"Sardar Patel Inter College, Baghpat - UPPCB",11-03-2024 21:00:00,28.964949,77.278761,NH3,1,4,2
India,Uttar_Pradesh,Baghpat,"Sardar Patel Inter College, Baghpat - UPPCB",11-03-2024 21:00:00,28.964949,77.278761,SO2,19,87,49
India,Uttar_Pradesh,Baghpat,"Sardar Patel Inter College, Baghpat - UPPCB",11-03-2024 21:00:00,28.964949,77.278761,OZONE,4,118,67
India,Uttar_Pradesh,Bareilly,"Civil Lines, Bareilly - UPPCB",11-03-2024 21:00:00,28.359581,79.414455,PM10,37,160,95
India,Uttar_Pradesh,Bareilly,"Civil Lines, Bareilly - UPPCB",11-03-2024 21:00:00,28.359581,79.414455,NO2,16,144,32
India,Uttar_Pradesh,Bareilly,"Civil Lines, Bareilly - UPPCB",11-03-2024 21:00:00,28.359581,79.414455,CO,16,64,36
India,Uttar_Pradesh,Bareilly,"Rajendra Nagar, Bareilly - UPPCB",11-03-2024 21:00:00,28.38910936,79.42963708,NH3,1,1,1
India,Uttar_Pradesh,Bulandshahr,"Yamunapuram, Bulandshahr - UPPCB",11-03-2024 21:00:00,28.406963,77.849831,NH3,12,34,15
India,Uttar_Pradesh,Bulandshahr,"Yamunapuram, Bulandshahr - UPPCB",11-03-2024 21:00:00,28.406963,77.849831,OZONE,2,133,100
India,Uttar_Pradesh,Firozabad,"Nagla Bhau, Firozabad - UPPCB",11-03-2024 21:00:00,27.168897,78.376960,NH3,2,2,2
India,Uttar_Pradesh,Firozabad,"Nagla Bhau, Firozabad - UPPCB",11-03-2024 21:00:00,27.168897,78.376960,SO2,19,36,28
India,Uttar_Pradesh,Firozabad,"Nagla Bhau, Firozabad - UPPCB",11-03-2024 21:00:00,27.168897,78.376960,OZONE,17,21,18
India,Uttar_Pradesh,Firozabad,"Vibhab Nagar, Firozabad - UPPCB",11-03-2024 21:00:00,27.1594,78.3953,PM2.5,48,138,67
India,Uttar_Pradesh,Firozabad,"Vibhab Nagar, Firozabad - UPPCB",11-03-2024 21:00:00,27.1594,78.3953,OZONE,20,37,32
India,Uttar_Pradesh,Ghaziabad,"Indirapuram, Ghaziabad - UPPCB",11-03-2024 21:00:00,28.646233,77.358075,PM2.5,51,189,98
India,Uttar_Pradesh,Ghaziabad,"Loni, Ghaziabad - UPPCB",11-03-2024 21:00:00,28.757294,77.278792,PM2.5,36,328,156
India,Uttar_Pradesh,Ghaziabad,"Loni, Ghaziabad - UPPCB",11-03-2024 21:00:00,28.757294,77.278792,PM10,90,290,153
India,Uttar_Pradesh,Ghaziabad,"Sanjay Nagar, Ghaziabad - UPPCB",11-03-2024 21:00:00,28.685382,77.453839,CO,3,102,40
India,Uttar_Pradesh,Ghaziabad,"Vasundhara, Ghaziabad - UPPCB",11-03-2024 21:00:00,28.6603346,77.3572563,SO2,1,31,15
India,Uttar_Pradesh,Ghaziabad,"Vasundhara, Ghaziabad - UPPCB",11-03-2024 21:00:00,28.6603346,77.3572563,OZONE,12,157,96
India,Uttar_Pradesh,Greater Noida,"Knowledge Park - III, Greater Noida - UPPCB",11-03-2024 21:00:00,28.47272,77.482000,PM2.5,90,374,255
India,Uttar_Pradesh,Greater Noida,"Knowledge Park - V, Greater Noida - UPPCB",11-03-2024 21:00:00,28.557054,77.453663,PM2.5,81,338,210
India,Uttar_Pradesh,Greater Noida,"Knowledge Park - V, Greater Noida - UPPCB",11-03-2024 21:00:00,28.557054,77.453663,OZONE,1,253,98
India,Uttar_Pradesh,Jhansi,"Shivaji Nagar, Jhansi - UPPCB",11-03-2024 21:00:00,25.4547,78.6039,PM2.5,29,61,41
India,Uttar_Pradesh,Jhansi,"Shivaji Nagar, Jhansi - UPPCB",11-03-2024 21:00:00,25.4547,78.6039,PM10,24,51,35
India,Uttar_Pradesh,Kanpur,"FTI Kidwai Nagar, Kanpur - UPPCB",11-03-2024 21:00:00,26.428282,80.327067,PM2.5,54,135,77
India,Uttar_Pradesh,Kanpur,"FTI Kidwai Nagar, Kanpur - UPPCB",11-03-2024 21:00:00,26.428282,80.327067,NH3,1,1,1
India,Uttar_Pradesh,Kanpur,"NSI Kalyanpur, Kanpur - UPPCB",11-03-2024 21:00:00,26.509954,80.249612,PM10,77,141,109
India,Uttar_Pradesh,Kanpur,"Nehru Nagar, Kanpur - UPPCB",11-03-2024 21:00:00,26.4703136,80.3229863,PM2.5,41,236,102
India,Uttar_Pradesh,Kanpur,"Nehru Nagar, Kanpur - UPPCB",11-03-2024 21:00:00,26.4703136,80.3229863,NO2,3,17,10
India,Uttar_Pradesh,Kanpur,"Nehru Nagar, Kanpur - UPPCB",11-03-2024 21:00:00,26.4703136,80.3229863,OZONE,31,46,37
India,Uttar_Pradesh,Lucknow,"B R Ambedkar University, Lucknow - UPPCB",11-03-2024 21:00:00,26.766433,80.927299,PM10,65,146,106
India,Uttar_Pradesh,Lucknow,"B R Ambedkar University, Lucknow - UPPCB",11-03-2024 21:00:00,26.766433,80.927299,CO,26,68,30
India,Uttar_Pradesh,Lucknow,"Kendriya Vidyalaya, Lucknow - CPCB",11-03-2024 21:00:00,26.906111,80.948222,NO2,10,73,36
India,Uttar_Pradesh,Lucknow,"Kukrail Picnic Spot-1, Lucknow - UPPCB",11-03-2024 21:00:00,26.90723,80.98579,NO2,8,9,8
India,Uttar_Pradesh,Lucknow,"Talkatora District Industries Center, Lucknow - CPCB",11-03-2024 21:00:00,26.83399722,80.8917361,PM2.5,7,323,191
India,Uttar_Pradesh,Lucknow,"Talkatora District Industries Center, Lucknow - CPCB",11-03-2024 21:00:00,26.83399722,80.8917361,SO2,1,31,10
India,Uttar_Pradesh,Lucknow,"Talkatora District Industries Center, Lucknow - CPCB",11-03-2024 21:00:00,26.83399722,80.8917361,OZONE,2,59,33
India,Uttar_Pradesh,Meerut,"Ganga Nagar, Meerut - UPPCB",11-03-2024 21:00:00,28.999264,77.7590354,SO2,17,57,35
India,Uttar_Pradesh,Meerut,"Pallavpuram Phase 2, Meerut - UPPCB",11-03-2024 21:00:00,29.063510,77.709723,CO,10,90,21
India,Uttar_Pradesh,Moradabad,"Buddhi Vihar, Moradabad - UPPCB",11-03-2024 21:00:00,28.83526,78.74460,NH3,2,2,2
India,Uttar_Pradesh,Moradabad,"Buddhi Vihar, Moradabad - UPPCB",11-03-2024 21:00:00,28.83526,78.74460,OZONE,11,34,29
India,Uttar_Pradesh,Moradabad,"Eco Herbal Park, Moradabad - UPPCB",11-03-2024 21:00:00,28.840739,78.697531,PM10,74,145,113
India,Uttar_Pradesh,Moradabad,"Eco Herbal Park, Moradabad - UPPCB",11-03-2024 21:00:00,28.840739,78.697531,NO2,13,85,46
India,Uttar_Pradesh,Moradabad,"Eco Herbal Park, Moradabad - UPPCB",11-03-2024 21:00:00,28.840739,78.697531,SO2,2,42,14
India,Uttar_Pradesh,Moradabad,"Employment Office, Moradabad - UPPCB",11-03-2024 21:00:00,28.88528,78.73880,PM2.5,50,313,181
India,Uttar_Pradesh,Moradabad,"Employment Office, Moradabad - UPPCB",11-03-2024 21:00:00,28.88528,78.73880,PM10,71,340,169
India,Uttar_Pradesh,Moradabad,"Employment Office, Moradabad - UPPCB",11-03-2024 21:00:00,28.88528,78.73880,NH3,4,4,4
India,Uttar_Pradesh,Moradabad,"Employment Office, Moradabad - UPPCB",11-03-2024 21:00:00,28.88528,78.73880,OZONE,4,111,40
India,Uttar_Pradesh,Moradabad,"Jigar Colony, Moradabad - UPPCB",11-03-2024 21:00:00,28.856664,78.772638,NH3,5,5,5
India,Uttar_Pradesh,Moradabad,"Jigar Colony, Moradabad - UPPCB",11-03-2024 21:00:00,28.856664,78.772638,CO,32,58,38
India,Uttar_Pradesh,Moradabad,"Kashiram Nagar, Moradabad - UPPCB",11-03-2024 21:00:00,28.849399,78.742362,PM2.5,45,303,161
India,Uttar_Pradesh,Moradabad,"Transport Nagar, Moradabad - UPPCB",11-03-2024 21:00:00,28.802625,78.753728,PM2.5,35,144,84
India,Uttar_Pradesh,Moradabad,"Transport Nagar, Moradabad - UPPCB",11-03-2024 21:00:00,28.802625,78.753728,OZONE,13,29,23
India,Uttar_Pradesh,Muzaffarnagar,"New Mandi, Muzaffarnagar - UPPCB",11-03-2024 21:00:00,29.4723508,77.7194031,CO,46,104,58
India,Uttar_Pradesh,Muzaffarnagar,"New Mandi, Muzaffarnagar - UPPCB",11-03-2024 21:00:00,29.4723508,77.7194031,OZONE,25,101,85
India,Uttar_Pradesh,Noida,"Sector - 125, Noida - UPPCB",11-03-2024 21:00:00,28.5447608,77.3231257,OZONE,6,233,143
India,Uttar_Pradesh,Noida,"Sector - 62, Noida - IMD",11-03-2024 21:00:00,28.6245479,77.3577104,PM10,127,245,166
India,Uttar_Pradesh,Noida,"Sector - 62, Noida - IMD",11-03-2024 21:00:00,28.6245479,77.3577104,NO2,1,10,5
India,Uttar_Pradesh,Noida,"Sector-1, Noida - UPPCB",11-03-2024 21:00:00,28.5898,77.3101,NH3,2,5,4
India,Uttar_Pradesh,Prayagraj,"Jhunsi, Prayagraj - UPPCB",11-03-2024 21:00:00,25.425602,81.917152,PM2.5,27,78,48
India,Uttar_Pradesh,Prayagraj,"Jhunsi, Prayagraj - UPPCB",11-03-2024 21:00:00,25.425602,81.917152,PM10,42,226,104
India,Uttar_Pradesh,Prayagraj,"Jhunsi, Prayagraj - UPPCB",11-03-2024 21:00:00,25.425602,81.917152,NO2,6,6,6
India,Uttar_Pradesh,Prayagraj,"Motilal Nehru NIT, Prayagraj - UPPCB",11-03-2024 21:00:00,25.494,81.863,NH3,5,7,7
India,Uttar_Pradesh,Prayagraj,"Motilal Nehru NIT, Prayagraj - UPPCB",11-03-2024 21:00:00,25.494,81.863,SO2,20,22,21
India,Uttar_Pradesh,Prayagraj,"Nagar Nigam, Prayagraj - UPPCB",11-03-2024 21:00:00,25.44919916 ,81.82735986 ,SO2,36,102,63
India,Uttar_Pradesh,Varanasi,"Ardhali Bazar, Varanasi - UPPCB",11-03-2024 21:00:00,25.3505986,82.9083074,OZONE,21,24,22
India,Uttar_Pradesh,Varanasi,"Bhelupur, Varanasi - UPPCB",11-03-2024 21:00:00,25.301778,82.996789,PM10,27,60,40
India,Uttar_Pradesh,Varanasi,"Bhelupur, Varanasi - UPPCB",11-03-2024 21:00:00,25.301778,82.996789,SO2,24,26,25
India,Uttar_Pradesh,Varanasi,"IESD Banaras Hindu University, Varanasi - UPPCB",11-03-2024 21:00:00,25.262326,82.995408,PM10,23,55,37
India,Uttar_Pradesh,Varanasi,"Maldahiya, Varanasi - UPPCB",11-03-2024 21:00:00,25.32393,82.99687,NO2,1,13,2
India,Uttarakhand,Dehradun,"Doon University, Dehradun - UKPCB",11-03-2024 21:00:00,30.269444,78.044167,OZONE,19,122,106
India,Uttarakhand,Kashipur,"Govt. Girls Inter College, Kashipur - UKPCB",11-03-2024 21:00:00,29.2124114,78.9611753,PM10,62,166,108
India,Uttarakhand,Rishikesh,"Shivaji Nagar, Rishikesh - UKPCB",11-03-2024 21:00:00,30.075911,78.2859547,NH3,2,4,3
India,Uttarakhand,Rishikesh,"Shivaji Nagar, Rishikesh - UKPCB",11-03-2024 21:00:00,30.075911,78.2859547,SO2,3,5,4
India,West_Bengal,Asansol,"Asansol Court Area, Asansol - WBPCB",11-03-2024 21:00:00,23.685297,86.945968,PM2.5,88,236,152
India,West_Bengal,Asansol,"Asansol Court Area, Asansol - WBPCB",11-03-2024 21:00:00,23.685297,86.945968,NO2,20,104,36
India,West_Bengal,Asansol,"Asansol Court Area, Asansol - WBPCB",11-03-2024 21:00:00,23.685297,86.945968,OZONE,11,38,27
India,West_Bengal,Barrackpore,"SVSPA Campus, Barrackpore - WBPCB",11-03-2024 21:00:00,22.7605581,88.3617589,PM10,107,168,133
India,West_Bengal,Barrackpore,"SVSPA Campus, Barrackpore - WBPCB",11-03-2024 21:00:00,22.7605581,88.3617589,OZONE,7,315,69
India,West_Bengal,Haldia,"Priyambada Housing Estate, Haldia - WBPCB",11-03-2024 21:00:00,22.06047,88.109737,NH3,3,5,4
India,West_Bengal,Howrah,"Belur Math, Howrah - WBPCB",11-03-2024 21:00:00,22.629801,88.352017,PM2.5,53,346,126
India,West_Bengal,Howrah,"Ghusuri, Howrah - WBPCB",11-03-2024 21:00:00,22.611968,88.347422,PM2.5,192,310,239
India,West_Bengal,Howrah,"Ghusuri, Howrah - WBPCB",11-03-2024 21:00:00,22.611968,88.347422,SO2,6,7,7
India,West_Bengal,Howrah,"Padmapukur, Howrah - WBPCB",11-03-2024 21:00:00,22.5687319,88.2797276,NO2,18,21,19
India,West_Bengal,Kolkata,"Ballygunge, Kolkata - WBPCB",11-03-2024 21:00:00,22.5367507,88.3638022,SO2,10,68,26
India,West_Bengal,Kolkata,"Bidhannagar, Kolkata - WBPCB",11-03-2024 21:00:00,22.58157048,88.41002457,PM2.5,77,309,165
India,West_Bengal,Kolkata,"Bidhannagar, Kolkata - WBPCB",11-03-2024 21:00:00,22.58157048,88.41002457,SO2,5,37,14
India,West_Bengal,Kolkata,"Bidhannagar, Kolkata - WBPCB",11-03-2024 21:00:00,22.58157048,88.41002457,CO,102,135,114
India,West_Bengal,Kolkata,"Fort William, Kolkata - WBPCB",11-03-2024 21:00:00,22.556640,88.342674,PM2.5,78,239,132
India,West_Bengal,Kolkata,"Jadavpur, Kolkata - WBPCB",11-03-2024 21:00:00,22.49929,88.36917,NH3,7,9,8
India,West_Bengal,Kolkata,"Jadavpur, Kolkata - WBPCB",11-03-2024 21:00:00,22.49929,88.36917,OZONE,11,152,106
India,West_Bengal,Kolkata,"Rabindra Sarobar, Kolkata - WBPCB",11-03-2024 21:00:00,22.51106,88.35142,NO2,40,131,86
India,West_Bengal,Siliguri,"Ward-32 Bapupara, Siliguri - WBPCB",11-03-2024 21:00:00,26.6879226,88.4152495,CO,18,92,34
India,Andhra_Pradesh,Amaravati,"Secretariat, Amaravati - APPCB",11-03-2024 21:00:00,16.5150833,80.5181667,OZONE,1,62,54
India,Andhra_Pradesh,Chittoor,"Gangineni Cheruvu, Chittoor - APPCB",11-03-2024 21:00:00,13.204880,79.097889,PM2.5,NA,NA,NA
India,Andhra_Pradesh,Chittoor,"Gangineni Cheruvu, Chittoor - APPCB",11-03-2024 21:00:00,13.204880,79.097889,PM10,NA,NA,NA
India,Andhra_Pradesh,Chittoor,"Gangineni Cheruvu, Chittoor - APPCB",11-03-2024 21:00:00,13.204880,79.097889,OZONE,109,110,110
India,Andhra_Pradesh,Kadapa,"Yerramukkapalli, Kadapa - APPCB",11-03-2024 21:00:00,14.465052,78.824187,PM2.5,32,54,40
India,Andhra_Pradesh,Kadapa,"Yerramukkapalli, Kadapa - APPCB",11-03-2024 21:00:00,14.465052,78.824187,NO2,8,8,8
India,Andhra_Pradesh,Kadapa,"Yerramukkapalli, Kadapa - APPCB",11-03-2024 21:00:00,14.465052,78.824187,SO2,2,2,2
India,Andhra_Pradesh,Kadapa,"Yerramukkapalli, Kadapa - APPCB",11-03-2024 21:00:00,14.465052,78.824187,OZONE,15,80,63
India,Andhra_Pradesh,Rajamahendravaram,"Anand Kala Kshetram, Rajamahendravaram - APPCB",11-03-2024 21:00:00,16.9872867,81.7363176,NO2,6,31,15
India,Andhra_Pradesh,Rajamahendravaram,"Anand Kala Kshetram, Rajamahendravaram - APPCB",11-03-2024 21:00:00,16.9872867,81.7363176,CO,11,48,32
India,Andhra_Pradesh,Rajamahendravaram,"Anand Kala Kshetram, Rajamahendravaram - APPCB",11-03-2024 21:00:00,16.9872867,81.7363176,OZONE,15,34,29
India,Andhra_Pradesh,Tirupati,"Tirumala, Tirupati - APPCB",11-03-2024 21:00:00,13.67,79.35,CO,28,58,35
India,Andhra_Pradesh,Tirupati,"Vaikuntapuram, Tirupati - APPCB",11-03-2024 21:00:00,13.615387,79.409230,NH3,2,3,2
India,Andhra_Pradesh,Vijayawada,"Rajiv Gandhi Park, Vijayawada - APPCB",11-03-2024 21:00:00,16.509717,80.612222,PM2.5,48,76,63
India,Andhra_Pradesh,Vijayawada,"Rajiv Gandhi Park, Vijayawada - APPCB",11-03-2024 21:00:00,16.509717,80.612222,NO2,5,53,28
India,Andhra_Pradesh,Vijayawada,"Rajiv Nagar, Vijayawada - APPCB",11-03-2024 21:00:00,16.554731,80.649110,PM2.5,59,95,68
India,Andhra_Pradesh,Vijayawada,"Rajiv Nagar, Vijayawada - APPCB",11-03-2024 21:00:00,16.554731,80.649110,NO2,5,10,7
India,Andhra_Pradesh,Visakhapatnam,"GVM Corporation, Visakhapatnam - APPCB",11-03-2024 21:00:00,17.72,83.3,PM10,74,149,105
India,Andhra_Pradesh,Visakhapatnam,"GVM Corporation, Visakhapatnam - APPCB",11-03-2024 21:00:00,17.72,83.3,CO,14,86,21
India,Assam,Byrnihat,"Central Academy for SFS, Byrnihat - PCBA",11-03-2024 21:00:00,26.071318,91.87488,OZONE,6,16,14
India,Assam,Guwahati,"IITG, Guwahati - PCBA",11-03-2024 21:00:00,26.2028636,91.70046436,PM10,NA,NA,NA
India,Assam,Guwahati,"IITG, Guwahati - PCBA",11-03-2024 21:00:00,26.2028636,91.70046436,CO,16,16,16
India,Assam,Guwahati,"Pan Bazaar, Guwahati - PCBA",11-03-2024 21:00:00,26.187500,91.744194,NO2,3,21,10
India,Assam,Guwahati,"Pan Bazaar, Guwahati - PCBA",11-03-2024 21:00:00,26.187500,91.744194,CO,32,101,51
India,Assam,Guwahati,"Pan Bazaar, Guwahati - PCBA",11-03-2024 21:00:00,26.187500,91.744194,OZONE,18,19,18
India,Assam,Guwahati,"Railway Colony, Guwahati - PCBA",11-03-2024 21:00:00,26.181742,91.78063,NO2,3,4,3
India,Assam,Guwahati,"Railway Colony, Guwahati - PCBA",11-03-2024 21:00:00,26.181742,91.78063,SO2,6,18,9
India,Assam,Guwahati,"Railway Colony, Guwahati - PCBA",11-03-2024 21:00:00,26.181742,91.78063,OZONE,2,29,19
India,Assam,Nagaon,"Christianpatty, Nagaon - PCBA",11-03-2024 21:00:00,26.349082,92.68449,SO2,2,32,17
India,Assam,Nagaon,"Christianpatty, Nagaon - PCBA",11-03-2024 21:00:00,26.349082,92.68449,CO,2,79,46
India,Assam,Nalbari,"Bata Chowk, Nalbari - PCBA",11-03-2024 21:00:00,26.446912,91.439057,NO2,13,69,30
India,Assam,Nalbari,"Bata Chowk, Nalbari - PCBA",11-03-2024 21:00:00,26.446912,91.439057,SO2,3,8,5
India,Assam,Sivasagar,"Girls College, Sivasagar - PCBA",11-03-2024 21:00:00,26.987634,94.636574,OZONE,1,16,8
India,Bihar,Arrah,"New DM Office, Arrah - BSPCB",11-03-2024 21:00:00,25.5626095,84.663264,NO2,8,45,25
India,Bihar,Arrah,"New DM Office, Arrah - BSPCB",11-03-2024 21:00:00,25.5626095,84.663264,CO,3,24,9
India,Bihar,Bhagalpur,"Mayaganj, Bhagalpur - BSPCB",11-03-2024 21:00:00,25.265194,87.012947,PM2.5,50,345,230
India,Bihar,Bhagalpur,"Mayaganj, Bhagalpur - BSPCB",11-03-2024 21:00:00,25.265194,87.012947,NO2,3,16,10
India,Bihar,Bihar Sharif,"D M Colony, Bihar Sharif - BSPCB",11-03-2024 21:00:00,25.204762,85.514960,OZONE,NA,NA,NA
India,Bihar,Chhapra,"Darshan Nagar, Chhapra - BSPCB",11-03-2024 21:00:00,25.7808257,84.7446768,PM10,NA,NA,NA
India,Bihar,Chhapra,"Darshan Nagar, Chhapra - BSPCB",11-03-2024 21:00:00,25.7808257,84.7446768,CO,36,68,56
India,Bihar,Gaya,"Collectorate, Gaya - BSPCB",11-03-2024 21:00:00,24.7955,84.9994,NO2,1,4,2
India,Bihar,Gaya,"Collectorate, Gaya - BSPCB",11-03-2024 21:00:00,24.7955,84.9994,CO,6,93,44
India,Bihar,Gaya,"SFTI Kusdihra, Gaya - BSPCB",11-03-2024 21:00:00,24.762518,84.982348,NH3,1,4,3
India,Bihar,Gaya,"SFTI Kusdihra, Gaya - BSPCB",11-03-2024 21:00:00,24.762518,84.982348,CO,24,60,28
India,Bihar,Hajipur,"Industrial Area, Hajipur - BSPCB",11-03-2024 21:00:00,25.697189,85.245900,PM10,102,437,216
India,Bihar,Hajipur,"Industrial Area, Hajipur - BSPCB",11-03-2024 21:00:00,25.697189,85.245900,NO2,40,75,52
India,Bihar,Hajipur,"Industrial Area, Hajipur - BSPCB",11-03-2024 21:00:00,25.697189,85.245900,OZONE,5,56,41
India,Bihar,Katihar,"Mirchaibari, Katihar - BSPCB",11-03-2024 21:00:00,25.560083,87.553265,PM10,62,213,126
India,Bihar,Katihar,"Mirchaibari, Katihar - BSPCB",11-03-2024 21:00:00,25.560083,87.553265,NO2,12,37,24
India,Bihar,Katihar,"Mirchaibari, Katihar - BSPCB",11-03-2024 21:00:00,25.560083,87.553265,NH3,3,5,4
India,Bihar,Manguraha,"Forest Rest House, Manguraha - BSPCB",11-03-2024 21:00:00,27.308328,84.531742,NO2,8,17,13
India,Bihar,Motihari,"Gandak Colony, Motihari - BSPCB",11-03-2024 21:00:00,26.63086,84.90051,PM10,NA,NA,NA
India,Bihar,Munger,"Town Hall, Munger - BSPCB",11-03-2024 21:00:00,25.376776,86.471523,PM2.5,58,447,200
India,Bihar,Muzaffarpur,"Muzaffarpur Collectorate, Muzaffarpur - BSPCB",11-03-2024 21:00:00,26.1209,85.3647,NO2,10,25,13
India,Bihar,Muzaffarpur,"Muzaffarpur Collectorate, Muzaffarpur - BSPCB",11-03-2024 21:00:00,26.1209,85.3647,SO2,6,19,9
India,Bihar,Patna,"DRM Office Danapur, Patna - BSPCB",11-03-2024 21:00:00,25.586562,85.043586,PM10,104,251,169
India,Bihar,Patna,"Govt. High School Shikarpur, Patna - BSPCB",11-03-2024 21:00:00,25.592539,85.227158,SO2,NA,NA,NA
India,Bihar,Patna,"Govt. High School Shikarpur, Patna - BSPCB",11-03-2024 21:00:00,25.592539,85.227158,OZONE,NA,NA,NA
India,Bihar,Patna,"Muradpur, Patna - BSPCB",11-03-2024 21:00:00,25.619651,85.147382,CO,5,134,34
India,Bihar,Patna,"Muradpur, Patna - BSPCB",11-03-2024 21:00:00,25.619651,85.147382,OZONE,1,37,21
India,Bihar,Patna,"Rajbansi Nagar, Patna - BSPCB",11-03-2024 21:00:00,25.599486,85.113666,NH3,2,3,3
India,Bihar,Patna,"Samanpura, Patna - BSPCB",11-03-2024 21:00:00,25.596727,85.085624,SO2,15,16,15
India,Bihar,Rajgir,"Dangi Tola, Rajgir - BSPCB",11-03-2024 21:00:00,25.03280,85.41948,PM2.5,28,153,76
India,Bihar,Rajgir,"Dangi Tola, Rajgir - BSPCB",11-03-2024 21:00:00,25.03280,85.41948,PM10,31,127,79
India,Bihar,Rajgir,"Dangi Tola, Rajgir - BSPCB",11-03-2024 21:00:00,25.03280,85.41948,NH3,1,2,1
India,Bihar,Rajgir,"Dangi Tola, Rajgir - BSPCB",11-03-2024 21:00:00,25.03280,85.41948,SO2,4,4,4
India,Bihar,Rajgir,"Dangi Tola, Rajgir - BSPCB",11-03-2024 21:00:00,25.03280,85.41948,OZONE,20,25,23
India,Bihar,Saharsa,"Police Line, Saharsa - BSPCB",11-03-2024 21:00:00,25.892357,86.590325,NO2,5,8,7
India,Bihar,Saharsa,"Police Line, Saharsa - BSPCB",11-03-2024 21:00:00,25.892357,86.590325,SO2,16,17,16
India,Bihar,Saharsa,"Police Line, Saharsa - BSPCB",11-03-2024 21:00:00,25.892357,86.590325,OZONE,14,60,46
India,Bihar,Samastipur,"DM Office_Kasipur, Samastipur - BSPCB",11-03-2024 21:00:00,25.859655,85.77944,CO,10,33,25
India,Bihar,Sasaram,"Dada Peer, Sasaram - BSPCB",11-03-2024 21:00:00,24.952822,84.002396,OZONE,4,101,69
India,Chandigarh,Chandigarh,"Sector 22, Chandigarh - CPCC",11-03-2024 21:00:00,30.735567,76.775714,SO2,10,51,24
India,Chandigarh,Chandigarh,"Sector-53, Chandigarh - CPCC",11-03-2024 21:00:00,30.719859,76.738637,PM10,93,306,156
India,Chhattisgarh,Bhilai,"32Bungalows, Bhilai - CECB",11-03-2024 21:00:00,21.194815,81.314770,CO,17,56,20
India,Chhattisgarh,Bhilai,"32Bungalows, Bhilai - CECB",11-03-2024 21:00:00,21.194815,81.314770,OZONE,4,36,12
India,Chhattisgarh,Bhilai,"Hathkhoj, Bhilai - CECB",11-03-2024 21:00:00,21.224231,81.408350,CO,18,61,31
India,Chhattisgarh,Bilaspur,"Mangala, Bilaspur - NTPC",11-03-2024 21:00:00,22.08815,82.13737,PM2.5,26,58,40
India,Chhattisgarh,Korba,"Urja Nagar, Korba - CECB",11-03-2024 21:00:00,22.348441,82.549611,NH3,3,12,7
India,Chhattisgarh,Korba,"Urja Nagar, Korba - CECB",11-03-2024 21:00:00,22.348441,82.549611,CO,30,60,34
India,Chhattisgarh,Kunjemura,"OP Jindal School, Kunjemura - CECB",11-03-2024 21:00:00,22.126650,83.483212,CO,32,62,35
India,Chhattisgarh,Kunjemura,"OP Jindal School, Kunjemura - CECB",11-03-2024 21:00:00,22.126650,83.483212,OZONE,4,95,73
India,Chhattisgarh,Milupara,"Govt. Higher Secondary School, Milupara - CECB",11-03-2024 21:00:00,22.1910172,83.5197009,CO,24,52,35
India,Chhattisgarh,Milupara,"Govt. Higher Secondary School, Milupara - CECB",11-03-2024 21:00:00,22.1910172,83.5197009,OZONE,5,51,30
India,Chhattisgarh,Raipur,"AIIMS, Raipur - CECB",11-03-2024 21:00:00,21.258815,81.578979,NO2,32,80,54
India,Chhattisgarh,Raipur,"AIIMS, Raipur - CECB",11-03-2024 21:00:00,21.258815,81.578979,NH3,NA,NA,NA
India,Chhattisgarh,Raipur,"AIIMS, Raipur - CECB",11-03-2024 21:00:00,21.258815,81.578979,OZONE,1,23,16
India,Chhattisgarh,Raipur,"Bhatagaon New ISBT, Raipur - CECB",11-03-2024 21:00:00,21.219665,81.630094,PM2.5,1,122,47
India,Chhattisgarh,Raipur,"Bhatagaon New ISBT, Raipur - CECB",11-03-2024 21:00:00,21.219665,81.630094,SO2,3,5,4
India,Chhattisgarh,Raipur,"Bhatagaon New ISBT, Raipur - CECB",11-03-2024 21:00:00,21.219665,81.630094,CO,24,54,31
India,Chhattisgarh,Raipur,"Siltara Phase-II, Raipur - CECB",11-03-2024 21:00:00,21.371751,81.664929,NO2,41,78,57
India,Chhattisgarh,Raipur,"Siltara Phase-II, Raipur - CECB",11-03-2024 21:00:00,21.371751,81.664929,SO2,15,60,27
India,Delhi,Delhi,"Alipur, Delhi - DPCC",11-03-2024 21:00:00,28.815329,77.153010,NO2,15,55,35
India,Delhi,Delhi,"Alipur, Delhi - DPCC",11-03-2024 21:00:00,28.815329,77.153010,SO2,5,27,14
India,Delhi,Delhi,"Ashok Vihar, Delhi - DPCC",11-03-2024 21:00:00,28.695381,77.181665,PM2.5,61,316,155
India,Delhi,Delhi,"Aya Nagar, Delhi - IMD",11-03-2024 21:00:00,28.4706914,77.1099364,PM2.5,95,360,235
India,Delhi,Delhi,"Aya Nagar, Delhi - IMD",11-03-2024 21:00:00,28.4706914,77.1099364,PM10,119,269,175
India,Delhi,Delhi,"Bawana, Delhi - DPCC",11-03-2024 21:00:00,28.776200,77.051074,PM10,107,276,182
India,Delhi,Delhi,"Burari Crossing, Delhi - IMD",11-03-2024 21:00:00,28.7256504,77.2011573,PM10,105,413,161
India,Delhi,Delhi,"Burari Crossing, Delhi - IMD",11-03-2024 21:00:00,28.7256504,77.2011573,OZONE,2,84,54
India,Delhi,Delhi,"Chandni Chowk, Delhi - IITM",11-03-2024 21:00:00,28.656756,77.227234,OZONE,11,78,30
India,Delhi,Delhi,"Dr. Karni Singh Shooting Range, Delhi - DPCC",11-03-2024 21:00:00,28.498571,77.264840,SO2,2,39,18
India,Delhi,Delhi,"Dr. Karni Singh Shooting Range, Delhi - DPCC",11-03-2024 21:00:00,28.498571,77.264840,CO,23,106,46
India,Delhi,Delhi,"Dr. Karni Singh Shooting Range, Delhi - DPCC",11-03-2024 21:00:00,28.498571,77.264840,OZONE,1,235,138
India,Delhi,Delhi,"Dwarka-Sector 8, Delhi - DPCC ",11-03-2024 21:00:00,28.5710274,77.0719006,PM10,139,500,243
India,Delhi,Delhi,"IGI Airport (T3), Delhi - IMD",11-03-2024 21:00:00,28.5627763,77.1180053,PM2.5,57,303,133
India,Delhi,Delhi,"IGI Airport (T3), Delhi - IMD",11-03-2024 21:00:00,28.5627763,77.1180053,CO,32,100,38
India,Delhi,Delhi,"IGI Airport (T3), Delhi - IMD",11-03-2024 21:00:00,28.5627763,77.1180053,OZONE,1,78,53
India,Delhi,Delhi,"IHBAS, Dilshad Garden, Delhi - CPCB",11-03-2024 21:00:00,28.6811736,77.3025234,PM10,107,219,151
India,Delhi,Delhi,"IHBAS, Dilshad Garden, Delhi - CPCB",11-03-2024 21:00:00,28.6811736,77.3025234,NO2,23,52,37
India,Delhi,Delhi,"ITO, Delhi - CPCB",11-03-2024 21:00:00,28.628624,77.241060,NO2,36,205,91
India,Delhi,Delhi,"ITO, Delhi - CPCB",11-03-2024 21:00:00,28.628624,77.241060,SO2,5,38,15
India,Delhi,Delhi,"ITO, Delhi - CPCB",11-03-2024 21:00:00,28.628624,77.241060,OZONE,13,98,54
India,Delhi,Delhi,"Jahangirpuri, Delhi - DPCC",11-03-2024 21:00:00,28.732820,77.170633,NO2,19,67,47
India,Delhi,Delhi,"Jahangirpuri, Delhi - DPCC",11-03-2024 21:00:00,28.732820,77.170633,NH3,8,16,11
India,Delhi,Delhi,"Jahangirpuri, Delhi - DPCC",11-03-2024 21:00:00,28.732820,77.170633,CO,42,110,75
India,Delhi,Delhi,"Jahangirpuri, Delhi - DPCC",11-03-2024 21:00:00,28.732820,77.170633,OZONE,1,46,31
India,Delhi,Delhi,"Jawaharlal Nehru Stadium, Delhi - DPCC",11-03-2024 21:00:00,28.580280,77.233829,PM2.5,NA,NA,NA
India,Delhi,Delhi,"Jawaharlal Nehru Stadium, Delhi - DPCC",11-03-2024 21:00:00,28.580280,77.233829,PM10,100,215,150
India,Delhi,Delhi,"Jawaharlal Nehru Stadium, Delhi - DPCC",11-03-2024 21:00:00,28.580280,77.233829,NH3,5,8,7
India,Delhi,Delhi,"Lodhi Road, Delhi - IITM",11-03-2024 21:00:00,28.588333,77.221667,NH3,NA,NA,NA
India,Delhi,Delhi,"Lodhi Road, Delhi - IMD",11-03-2024 21:00:00,28.5918245,77.2273074,NO2,3,15,9
India,Delhi,Delhi,"Major Dhyan Chand National Stadium, Delhi - DPCC",11-03-2024 21:00:00,28.611281,77.237738,PM10,96,202,144
India,Delhi,Delhi,"Major Dhyan Chand National Stadium, Delhi - DPCC",11-03-2024 21:00:00,28.611281,77.237738,CO,78,122,88
India,Delhi,Delhi,"Mandir Marg, Delhi - DPCC",11-03-2024 21:00:00,28.636429,77.201067,NH3,10,12,11
India,Delhi,Delhi,"Mundka, Delhi - DPCC",11-03-2024 21:00:00,28.684678,77.076574,PM10,131,341,206
India,Delhi,Delhi,"Mundka, Delhi - DPCC",11-03-2024 21:00:00,28.684678,77.076574,NO2,21,111,64
India,Delhi,Delhi,"Mundka, Delhi - DPCC",11-03-2024 21:00:00,28.684678,77.076574,CO,22,78,38
India,Delhi,Delhi,"NSIT Dwarka, Delhi - CPCB",11-03-2024 21:00:00,28.60909,77.0325413,PM10,131,270,187
India,Delhi,Delhi,"NSIT Dwarka, Delhi - CPCB",11-03-2024 21:00:00,28.60909,77.0325413,NO2,30,70,50
India,Delhi,Delhi,"Najafgarh, Delhi - DPCC",11-03-2024 21:00:00,28.570173,76.933762,PM2.5,67,279,166
India,Delhi,Delhi,"Najafgarh, Delhi - DPCC",11-03-2024 21:00:00,28.570173,76.933762,OZONE,2,245,179
India,Delhi,Delhi,"Narela, Delhi - DPCC",11-03-2024 21:00:00,28.822836,77.101981,SO2,13,38,23
India,Delhi,Delhi,"Narela, Delhi - DPCC",11-03-2024 21:00:00,28.822836,77.101981,CO,33,99,55
India,Delhi,Delhi,"Nehru Nagar, Delhi - DPCC",11-03-2024 21:00:00,28.567890,77.250515,PM10,109,235,169
India,Delhi,Delhi,"Nehru Nagar, Delhi - DPCC",11-03-2024 21:00:00,28.567890,77.250515,NH3,5,10,8
India,Delhi,Delhi,"Nehru Nagar, Delhi - DPCC",11-03-2024 21:00:00,28.567890,77.250515,OZONE,3,183,117
India,Delhi,Delhi,"New Moti Bagh, Delhi - MHUA",11-03-2024 21:00:00,28.57834,77.18400,NO2,1,5,3
India,Delhi,Delhi,"New Moti Bagh, Delhi - MHUA",11-03-2024 21:00:00,28.57834,77.18400,CO,18,101,25
India,Delhi,Delhi,"Okhla Phase-2, Delhi - DPCC",11-03-2024 21:00:00,28.530785,77.271255,PM10,NA,NA,NA
India,Delhi,Delhi,"Okhla Phase-2, Delhi - DPCC",11-03-2024 21:00:00,28.530785,77.271255,SO2,11,18,13
India,Delhi,Delhi,"Patparganj, Delhi - DPCC",11-03-2024 21:00:00,28.623763,77.287209,PM10,126,279,194
India,Delhi,Delhi,"Patparganj, Delhi - DPCC",11-03-2024 21:00:00,28.623763,77.287209,CO,16,64,24
India,Delhi,Delhi,"Punjabi Bagh, Delhi - DPCC",11-03-2024 21:00:00,28.674045,77.131023,PM10,114,238,168
India,Delhi,Delhi,"Punjabi Bagh, Delhi - DPCC",11-03-2024 21:00:00,28.674045,77.131023,NO2,12,38,25
India,Delhi,Delhi,"Punjabi Bagh, Delhi - DPCC",11-03-2024 21:00:00,28.674045,77.131023,NH3,1,2,2
India,Delhi,Delhi,"Pusa, Delhi - IMD",11-03-2024 21:00:00,28.636110,77.173332,PM10,NA,NA,NA
India,Delhi,Delhi,"R K Puram, Delhi - DPCC",11-03-2024 21:00:00,28.563262,77.186937,NO2,4,66,34
India,Delhi,Delhi,"Rohini, Delhi - DPCC",11-03-2024 21:00:00,28.732528,77.119920,PM2.5,55,336,204
India,Delhi,Delhi,"Rohini, Delhi - DPCC",11-03-2024 21:00:00,28.732528,77.119920,PM10,108,396,197
India,Delhi,Delhi,"Rohini, Delhi - DPCC",11-03-2024 21:00:00,28.732528,77.119920,NO2,20,101,58
India,Delhi,Delhi,"Rohini, Delhi - DPCC",11-03-2024 21:00:00,28.732528,77.119920,CO,22,100,30
India,Delhi,Delhi,"Shadipur, Delhi - CPCB",11-03-2024 21:00:00,28.6514781,77.1473105,PM10,110,413,215
India,Delhi,Delhi,"Shadipur, Delhi - CPCB",11-03-2024 21:00:00,28.6514781,77.1473105,NO2,34,60,47
India,Delhi,Delhi,"Shadipur, Delhi - CPCB",11-03-2024 21:00:00,28.6514781,77.1473105,NH3,1,7,5
India,Delhi,Delhi,"Shadipur, Delhi - CPCB",11-03-2024 21:00:00,28.6514781,77.1473105,SO2,6,27,17
India,Delhi,Delhi,"Shadipur, Delhi - CPCB",11-03-2024 21:00:00,28.6514781,77.1473105,CO,28,73,36
India,Delhi,Delhi,"Shadipur, Delhi - CPCB",11-03-2024 21:00:00,28.6514781,77.1473105,OZONE,17,39,30
India,Delhi,Delhi,"Sirifort, Delhi - CPCB",11-03-2024 21:00:00,28.5504249,77.2159377,NO2,136,240,198
India,Delhi,Delhi,"Sirifort, Delhi - CPCB",11-03-2024 21:00:00,28.5504249,77.2159377,SO2,41,46,43
India,Delhi,Delhi,"Sirifort, Delhi - CPCB",11-03-2024 21:00:00,28.5504249,77.2159377,CO,14,85,26
India,Delhi,Delhi,"Sonia Vihar, Delhi - DPCC",11-03-2024 21:00:00,28.710508,77.249485,PM2.5,54,352,198
India,Delhi,Delhi,"Sonia Vihar, Delhi - DPCC",11-03-2024 21:00:00,28.710508,77.249485,CO,51,107,59
India,Delhi,Delhi,"Vivek Vihar, Delhi - DPCC",11-03-2024 21:00:00,28.672342,77.315260,NH3,5,8,6
India,Delhi,Delhi,"Vivek Vihar, Delhi - DPCC",11-03-2024 21:00:00,28.672342,77.315260,SO2,29,59,42
India,Delhi,Delhi,"Wazirpur, Delhi - DPCC",11-03-2024 21:00:00,28.699793,77.165453,NO2,63,159,109
India,Gujarat,Ahmedabad,"Gyaspur, Ahmedabad - IITM",11-03-2024 21:00:00,22.977134,72.553024,PM10,70,323,126
India,Gujarat,Ahmedabad,"Gyaspur, Ahmedabad - IITM",11-03-2024 21:00:00,22.977134,72.553024,NH3,4,4,4
India,Gujarat,Ahmedabad,"Raikhad, Ahmedabad - IITM",11-03-2024 21:00:00,23.020509,72.579261,SO2,5,16,8
India,Gujarat,Ahmedabad,"Rakhial, Ahmedabad - IITM",11-03-2024 21:00:00,23.016834,72.625775,PM10,40,500,175
India,Gujarat,Ahmedabad,"SAC ISRO Satellite, Ahmedabad - IITM",11-03-2024 21:00:00,23.023389,72.515201,NH3,3,3,3
India,Gujarat,Ahmedabad,"SAC ISRO Satellite, Ahmedabad - IITM",11-03-2024 21:00:00,23.023389,72.515201,CO,19,22,20
India,Gujarat,Ahmedabad,"SAC ISRO Satellite, Ahmedabad - IITM",11-03-2024 21:00:00,23.023389,72.515201,OZONE,12,22,18
India,Gujarat,Ankleshwar,"GIDC, Ankleshwar - GPCB",11-03-2024 21:00:00,21.613267,73.010555,CO,30,110,59
India,Gujarat,Gandhinagar,"IIPHG Lekawada, Gandhinagar - IITM",11-03-2024 21:00:00,23.243639,72.68994,NH3,8,8,8
India,Gujarat,Gandhinagar,"IIPHG Lekawada, Gandhinagar - IITM",11-03-2024 21:00:00,23.243639,72.68994,OZONE,7,46,34
India,Gujarat,Gandhinagar,"Sector-10, Gandhinagar - GPCB",11-03-2024 21:00:00,23.221714,72.654328,NO2,5,18,13
India,Gujarat,Nandesari,"GIDC, Nandesari - Nandesari Ind. Association",11-03-2024 21:00:00,22.410802,73.097923,PM10,93,429,230
India,Gujarat,Nandesari,"GIDC, Nandesari - Nandesari Ind. Association",11-03-2024 21:00:00,22.410802,73.097923,NO2,6,99,31
India,Gujarat,Vapi,"Phase-1 GIDC, Vapi - GPCB",11-03-2024 21:00:00,20.362421,72.918013,NO2,28,33,30
India,Gujarat,Vapi,"Phase-1 GIDC, Vapi - GPCB",11-03-2024 21:00:00,20.362421,72.918013,CO,1,192,167
India,Gujarat,Vapi,"Phase-1 GIDC, Vapi - GPCB",11-03-2024 21:00:00,20.362421,72.918013,OZONE,1,8,4
India,Haryana,Ambala,"Patti Mehar, Ambala - HSPCB",11-03-2024 21:00:00,30.379589,76.778328,NH3,8,8,8
India,Haryana,Ambala,"Patti Mehar, Ambala - HSPCB",11-03-2024 21:00:00,30.379589,76.778328,CO,30,60,40
India,Haryana,Bahadurgarh,"Arya Nagar, Bahadurgarh - HSPCB",11-03-2024 21:00:00,28.6701,76.9254,NH3,11,12,11
India,Haryana,Ballabgarh,"Nathu Colony, Ballabgarh - HSPCB",11-03-2024 21:00:00,28.3419248,77.319699,PM2.5,69,335,225
India,Haryana,Faridabad,"New Industrial Town, Faridabad - HSPCB",11-03-2024 21:00:00,28.39072,77.30059,CO,8,92,24
India,Haryana,Faridabad,"Sector 30, Faridabad - HSPCB",11-03-2024 21:00:00,28.4417,77.3217,NO2,NA,NA,NA
India,Haryana,Faridabad,"Sector 30, Faridabad - HSPCB",11-03-2024 21:00:00,28.4417,77.3217,OZONE,8,51,37
India,Haryana,Fatehabad,"Huda Sector, Fatehabad - HSPCB",11-03-2024 21:00:00,29.503664,75.467934,OZONE,82,96,88
India,Haryana,Gurugram,"Sector-51, Gurugram - HSPCB",11-03-2024 21:00:00,28.4227,77.0667,SO2,3,5,4
India,Haryana,Gurugram,"Teri Gram, Gurugram - HSPCB",11-03-2024 21:00:00,28.4275,77.1465,SO2,3,4,4
India,Haryana,Gurugram,"Teri Gram, Gurugram - HSPCB",11-03-2024 21:00:00,28.4275,77.1465,OZONE,10,33,24
India,Haryana,Gurugram,"Vikas Sadan, Gurugram - HSPCB",11-03-2024 21:00:00,28.4501238,77.0263051,NO2,5,25,14
India,Haryana,Hisar,"Urban Estate-II, Hisar - HSPCB",11-03-2024 21:00:00,29.140560,75.744941,NH3,8,27,12
India,Haryana,Hisar,"Urban Estate-II, Hisar - HSPCB",11-03-2024 21:00:00,29.140560,75.744941,SO2,5,90,35
India,Haryana,Jind,"Police Lines, Jind - HSPCB",11-03-2024 21:00:00,29.307814,76.337619,PM2.5,42,94,63
India,Haryana,Jind,"Police Lines, Jind - HSPCB",11-03-2024 21:00:00,29.307814,76.337619,NH3,2,5,3
India,Haryana,Kaithal,"Rishi Nagar, Kaithal - HSPCB",11-03-2024 21:00:00,29.8006,76.4155,NH3,8,8,8
India,Haryana,Karnal,"Sector-12, Karnal - HSPCB",11-03-2024 21:00:00,29.695300,77.002700,NH3,10,13,11
India,Haryana,Kurukshetra,"Sector-7, Kurukshetra - HSPCB",11-03-2024 21:00:00,29.966942,76.875879,NO2,10,11,10
India,Haryana,Kurukshetra,"Sector-7, Kurukshetra - HSPCB",11-03-2024 21:00:00,29.966942,76.875879,CO,6,34,14
India,Haryana,Mandikhera,"General Hospital, Mandikhera - HSPCB",11-03-2024 21:00:00,27.9002,76.9938,OZONE,23,32,27
India,Haryana,Manesar,"Sector-2 IMT, Manesar - HSPCB",11-03-2024 21:00:00,28.360699,76.936090,PM2.5,49,193,104
India,Haryana,Manesar,"Sector-2 IMT, Manesar - HSPCB",11-03-2024 21:00:00,28.360699,76.936090,OZONE,1,69,51
India,Haryana,Narnaul,"Shastri Nagar, Narnaul - HSPCB",11-03-2024 21:00:00,28.060249,76.113115,PM10,46,277,97
India,Haryana,Narnaul,"Shastri Nagar, Narnaul - HSPCB",11-03-2024 21:00:00,28.060249,76.113115,OZONE,25,51,36
India,Haryana,Palwal,"Shyam Nagar, Palwal - HSPCB",11-03-2024 21:00:00,28.1485564,77.3320667,OZONE,9,44,25
India,Haryana,Panchkula,"Sector-6, Panchkula - HSPCB ",11-03-2024 21:00:00,30.7057778,76.8531805555555,CO,5,14,8
India,Haryana,Panipat,"Sector-18, Panipat - HSPCB",11-03-2024 21:00:00,29.497973,76.993331,SO2,18,19,19
India,Haryana,Sirsa,"F-Block, Sirsa - HSPCB",11-03-2024 21:00:00,29.536400,75.015800,NH3,12,13,13
India,Haryana,Sirsa,"F-Block, Sirsa - HSPCB",11-03-2024 21:00:00,29.536400,75.015800,OZONE,42,126,100
India,Haryana,Yamuna Nagar,"Gobind Pura, Yamuna Nagar - HSPCB",11-03-2024 21:00:00,30.1480566,77.2893471,NH3,1,6,3
India,Haryana,Yamuna Nagar,"Gobind Pura, Yamuna Nagar - HSPCB",11-03-2024 21:00:00,30.1480566,77.2893471,OZONE,21,35,33
India,Himachal Pradesh,Baddi,"HIMUDA Complex Phase-1, Baddi - HPPCB",11-03-2024 21:00:00,30.943887,76.801991,PM10,109,416,188
India,Himachal Pradesh,Baddi,"HIMUDA Complex Phase-1, Baddi - HPPCB",11-03-2024 21:00:00,30.943887,76.801991,NH3,5,8,6
India,Jharkhand,Dhanbad,"Kalakusuma, Dhanbad - DMC",11-03-2024 21:00:00,23.811548,86.481238,NO2,13,17,14
India,Jharkhand,Dhanbad,"Sardar Patel Nagar, Dhanbad - JSPCB",11-03-2024 21:00:00,23.80569,86.44268,SO2,NA,NA,NA
India,Jharkhand,Dhanbad,"Sardar Patel Nagar, Dhanbad - JSPCB",11-03-2024 21:00:00,23.80569,86.44268,OZONE,11,52,34
India,Karnataka,Bagalkot,"Vidayagiri, Bagalkot - KSPCB",11-03-2024 21:00:00,16.172806,75.659694,PM2.5,25,37,36
India,Karnataka,Bagalkot,"Vidayagiri, Bagalkot - KSPCB",11-03-2024 21:00:00,16.172806,75.659694,PM10,45,46,46
India,Karnataka,Belgaum,"Ramteerth Nagar, Belgaum - KSPCB",11-03-2024 21:00:00,15.888653,74.541751,NH3,33,34,34
India,Karnataka,Belgaum,"Ramteerth Nagar, Belgaum - KSPCB",11-03-2024 21:00:00,15.888653,74.541751,CO,33,47,34
India,Karnataka,Bengaluru,"BTM Layout, Bengaluru - CPCB",11-03-2024 21:00:00,12.9135218,77.5950804,PM2.5,37,81,52
India,Karnataka,Bengaluru,"BTM Layout, Bengaluru - CPCB",11-03-2024 21:00:00,12.9135218,77.5950804,SO2,10,10,10
India,Karnataka,Bengaluru,"BTM Layout, Bengaluru - CPCB",11-03-2024 21:00:00,12.9135218,77.5950804,OZONE,28,86,66
India,Karnataka,Bengaluru,"Bapuji Nagar, Bengaluru - KSPCB",11-03-2024 21:00:00,12.951913,77.539784,PM2.5,85,191,136
India,Karnataka,Bengaluru,"Hebbal, Bengaluru - KSPCB",11-03-2024 21:00:00,13.029152,77.585901,PM10,75,195,119
India,Karnataka,Bengaluru,"Hebbal, Bengaluru - KSPCB",11-03-2024 21:00:00,13.029152,77.585901,CO,8,51,28
India,Karnataka,Bengaluru,"Hombegowda Nagar, Bengaluru - KSPCB",11-03-2024 21:00:00,12.938539,77.590100,NO2,32,40,35
India,Karnataka,Bengaluru,"Jigani, Bengaluru - KSPCB",11-03-2024 21:00:00,12.7816279,77.6299145,PM2.5,65,171,122
India,Karnataka,Bengaluru,"Kasturi Nagar, Bengaluru - KSPCB",11-03-2024 21:00:00,13.003872,77.664217,CO,22,28,25
India,Karnataka,Bengaluru,"Peenya, Bengaluru - CPCB",11-03-2024 21:00:00,13.0270199,77.494094,PM10,39,81,65
India,Karnataka,Bengaluru,"Peenya, Bengaluru - CPCB",11-03-2024 21:00:00,13.0270199,77.494094,OZONE,28,115,85
India,Karnataka,Bengaluru,"RVCE-Mailasandra, Bengaluru - KSPCB",11-03-2024 21:00:00,12.921418,77.502466,OZONE,21,37,37
India,Karnataka,Bengaluru,"Shivapura_Peenya, Bengaluru - KSPCB",11-03-2024 21:00:00,13.0246342,77.5080115,PM2.5,5,202,75
India,Karnataka,Bengaluru,"Silk Board, Bengaluru - KSPCB",11-03-2024 21:00:00,12.917348,77.622813,SO2,7,25,13
India,Karnataka,Chamarajanagar,"Urban, Chamarajanagar - KSPCB",11-03-2024 21:00:00,11.55358,76.55521,PM10,35,66,46
India,Karnataka,Chikkaballapur,"Chikkaballapur Rural, Chikkaballapur - KSPCB",11-03-2024 21:00:00,13.428828,77.731418,CO,15,26,21
India,Karnataka,Chikkaballapur,"Chikkaballapur Rural, Chikkaballapur - KSPCB",11-03-2024 21:00:00,13.428828,77.731418,OZONE,24,26,25
India,Karnataka,Chikkamagaluru,"Kalyana Nagara, Chikkamagaluru - KSPCB",11-03-2024 21:00:00,13.328028,75.797056,PM2.5,NA,NA,NA
India,Karnataka,Chikkamagaluru,"Kalyana Nagara, Chikkamagaluru - KSPCB",11-03-2024 21:00:00,13.328028,75.797056,NO2,NA,NA,NA
India,Karnataka,Dharwad,"Kalabhavan, Dharwad - KSPCB",11-03-2024 21:00:00,15.459706,75.008381,OZONE,8,52,42
India,Karnataka,Haveri,"Ashwini Nagar, Haveri - KSPCB",11-03-2024 21:00:00,14.791800,75.389600,OZONE,19,19,19
India,Karnataka,Kalaburagi,"Lal Bahadur Shastri Nagar, Kalaburagi - KSPCB",11-03-2024 21:00:00,17.321993,76.822628,PM2.5,17,112,61
India,Karnataka,Kalaburagi,"Lal Bahadur Shastri Nagar, Kalaburagi - KSPCB",11-03-2024 21:00:00,17.321993,76.822628,OZONE,4,77,56
India,Karnataka,Kalaburagi,"Mahatma Basaveswar Colony, Kalaburgi - KSPCB",11-03-2024 21:00:00,17.336318,76.847397,SO2,5,20,9
India,Karnataka,Karwar,"KHB Colony, Karwar - KSPCB",11-03-2024 21:00:00,14.816666,74.141003,PM2.5,48,120,67
India,Karnataka,Madikeri,"Stuart Hill, Madikeri - KSPCB",11-03-2024 21:00:00,12.415911,75.735050,SO2,4,4,4
