country,state,city,station,last_update,latitude,longitude,pollutant_id,pollutant_min,pollutant_max,pollutant_avg
India,Andhra_Pradesh,Amaravati,"Secretariat, Amaravati - APPCB",14-06-2024 17:00:00,16.5150833,80.5181667,SO2,19,36,26
India,Andhra_Pradesh,Anantapur,"Gulzarpet, Anantapur - APPCB",14-06-2024 17:00:00,14.675886,77.593027,PM10,58,73,65
India,Andhra_Pradesh,Chittoor,"Gangineni Cheruvu, Chittoor - APPCB",14-06-2024 17:00:00,13.204880,79.097889,SO2,1,4,1
India,Andhra_Pradesh,Kadapa,"Yerramukkapalli, Kadapa - APPCB",14-06-2024 17:00:00,14.465052,78.824187,SO2,NA,NA,NA
India,Andhra_Pradesh,Kadapa,"Yerramukkapalli, Kadapa - APPCB",14-06-2024 17:00:00,14.465052,78.824187,CO,14,25,14
India,Andhra_Pradesh,Rajamahendravaram,"Anand Kala Kshetram, Rajamahendravaram - APPCB",14-06-2024 17:00:00,16.9872867,81.7363176,NO2,11,37,19
India,Andhra_Pradesh,Tirupati,"Vaikuntapuram, Tirupati - APPCB",14-06-2024 17:00:00,13.615387,79.409230,NO2,15,19,16
India,Andhra_Pradesh,Tirupati,"Vaikuntapuram, Tirupati - APPCB",14-06-2024 17:00:00,13.615387,79.409230,SO2,7,8,8
India,Andhra_Pradesh,Tirupati,"Vaikuntapuram, Tirupati - APPCB",14-06-2024 17:00:00,13.615387,79.409230,CO,10,14,12
India,Andhra_Pradesh,Vijayawada,"Kanuru, Vijayawada - APPCB",14-06-2024 17:00:00,16.486692,80.699436,OZONE,40,40,40
India,Andhra_Pradesh,Vijayawada,"Rajiv Gandhi Park, Vijayawada - APPCB",14-06-2024 17:00:00,16.509717,80.612222,CO,34,40,36
India,Andhra_Pradesh,Vijayawada,"Rajiv Nagar, Vijayawada - APPCB",14-06-2024 17:00:00,16.554731,80.649110,NH3,1,2,2
India,Andhra_Pradesh,Vijayawada,"Rajiv Nagar, Vijayawada - APPCB",14-06-2024 17:00:00,16.554731,80.649110,OZONE,20,76,36
India,Assam,Byrnihat,"Central Academy for SFS, Byrnihat - PCBA",14-06-2024 17:00:00,26.071318,91.87488,PM2.5,42,317,155
India,Assam,Byrnihat,"Central Academy for SFS, Byrnihat - PCBA",14-06-2024 17:00:00,26.071318,91.87488,NH3,16,20,17
India,Assam,Guwahati,"IITG, Guwahati - PCBA",14-06-2024 17:00:00,26.2028636,91.70046436,NH3,NA,NA,NA
India,Assam,Guwahati,"IITG, Guwahati - PCBA",14-06-2024 17:00:00,26.2028636,91.70046436,CO,8,10,8
India,Assam,Guwahati,"IITG, Guwahati - PCBA",14-06-2024 17:00:00,26.2028636,91.70046436,OZONE,19,30,26
India,Assam,Guwahati,"LGBI Airport, Guwahati - PCBA",14-06-2024 17:00:00,26.10887,91.589544,OZONE,20,28,23
India,Assam,Guwahati,"Pan Bazaar, Guwahati - PCBA",14-06-2024 17:00:00,26.187500,91.744194,SO2,28,41,36
India,Assam,Guwahati,"Railway Colony, Guwahati - PCBA",14-06-2024 17:00:00,26.181742,91.78063,PM10,18,100,43
India,Assam,Guwahati,"Railway Colony, Guwahati - PCBA",14-06-2024 17:00:00,26.181742,91.78063,SO2,2,2,2
India,Assam,Guwahati,"Railway Colony, Guwahati - PCBA",14-06-2024 17:00:00,26.181742,91.78063,CO,26,57,29
India,Assam,Nagaon,"Christianpatty, Nagaon - PCBA",14-06-2024 17:00:00,26.349082,92.68449,PM2.5,23,94,28
India,Assam,Nagaon,"Christianpatty, Nagaon - PCBA",14-06-2024 17:00:00,26.349082,92.68449,PM10,15,72,19
India,Assam,Nagaon,"Christianpatty, Nagaon - PCBA",14-06-2024 17:00:00,26.349082,92.68449,NH3,NA,NA,NA
India,Assam,Silchar,"Tarapur, Silchar - PCBA",14-06-2024 17:00:00,24.82827,92.79525,NO2,16,16,16
India,Bihar,Arrah,"New DM Office, Arrah - BSPCB",14-06-2024 17:00:00,25.5626095,84.663264,NH3,2,3,2
India,Bihar,Aurangabad,"Gurdeo Nagar, Aurangabad - BSPCB",14-06-2024 17:00:00,24.75746,84.366208,PM2.5,NA,NA,NA
India,Bihar,Aurangabad,"Gurdeo Nagar, Aurangabad - BSPCB",14-06-2024 17:00:00,24.75746,84.366208,NH3,NA,NA,NA
India,Bihar,Bettiah,"Kamalnath Nagar, Bettiah - BSPCB",14-06-2024 17:00:00,26.80365,84.51954,CO,36,60,47
India,Bihar,Bhagalpur,"DM Office_Kachari Chowk, Bhagalpur - BSPCB",14-06-2024 17:00:00,25.251013,86.989001,PM10,64,176,127
India,Bihar,Bhagalpur,"DM Office_Kachari Chowk, Bhagalpur - BSPCB",14-06-2024 17:00:00,25.251013,86.989001,CO,38,84,61
India,Bihar,Bihar Sharif,"D M Colony, Bihar Sharif - BSPCB",14-06-2024 17:00:00,25.204762,85.514960,NO2,7,10,9
India,Bihar,Bihar Sharif,"D M Colony, Bihar Sharif - BSPCB",14-06-2024 17:00:00,25.204762,85.514960,NH3,1,1,1
India,Bihar,Bihar Sharif,"D M Colony, Bihar Sharif - BSPCB",14-06-2024 17:00:00,25.204762,85.514960,SO2,2,3,3
India,Bihar,Gaya,"Kareemganj, Gaya - BSPCB",14-06-2024 17:00:00,24.792403,84.992416,PM10,59,114,83
India,Bihar,Gaya,"Kareemganj, Gaya - BSPCB",14-06-2024 17:00:00,24.792403,84.992416,CO,22,22,22
India,Bihar,Gaya,"Kareemganj, Gaya - BSPCB",14-06-2024 17:00:00,24.792403,84.992416,OZONE,4,31,25
India,Bihar,Gaya,"SFTI Kusdihra, Gaya - BSPCB",14-06-2024 17:00:00,24.762518,84.982348,NO2,13,41,24
India,Bihar,Hajipur,"Industrial Area, Hajipur - BSPCB",14-06-2024 17:00:00,25.697189,85.245900,PM10,77,301,125
India,Bihar,Hajipur,"Industrial Area, Hajipur - BSPCB",14-06-2024 17:00:00,25.697189,85.245900,NH3,7,14,11
India,Bihar,Hajipur,"Industrial Area, Hajipur - BSPCB",14-06-2024 17:00:00,25.697189,85.245900,CO,22,34,31
India,Bihar,Katihar,"Mirchaibari, Katihar - BSPCB",14-06-2024 17:00:00,25.560083,87.553265,PM2.5,15,65,38
India,Bihar,Katihar,"Mirchaibari, Katihar - BSPCB",14-06-2024 17:00:00,25.560083,87.553265,OZONE,3,6,5
India,Bihar,Kishanganj,"SDM Office_Khagra, Kishanganj - BSPCB",14-06-2024 17:00:00,26.0881305,87.93840336,SO2,6,10,9
India,Bihar,Manguraha,"Forest Rest House, Manguraha - BSPCB",14-06-2024 17:00:00,27.308328,84.531742,PM10,37,111,77
India,Bihar,Muzaffarpur,"MIT-Daudpur Kothi, Muzaffarpur - BSPCB",14-06-2024 17:00:00,26.1403345,85.3650192,NO2,4,6,5
India,Bihar,Muzaffarpur,"MIT-Daudpur Kothi, Muzaffarpur - BSPCB",14-06-2024 17:00:00,26.1403345,85.3650192,NH3,11,16,12
India,Bihar,Muzaffarpur,"MIT-Daudpur Kothi, Muzaffarpur - BSPCB",14-06-2024 17:00:00,26.1403345,85.3650192,OZONE,12,37,26
India,Bihar,Patna,"Govt. High School Shikarpur, Patna - BSPCB",14-06-2024 17:00:00,25.592539,85.227158,SO2,6,16,10
India,Bihar,Patna,"IGSC Planetarium Complex, Patna - BSPCB",14-06-2024 17:00:00,25.610369,85.132568,CO,9,15,12
India,Bihar,Patna,"IGSC Planetarium Complex, Patna - BSPCB",14-06-2024 17:00:00,25.610369,85.132568,OZONE,79,154,116
India,Bihar,Patna,"Muradpur, Patna - BSPCB",14-06-2024 17:00:00,25.619651,85.147382,NO2,10,56,28
India,Bihar,Patna,"Rajbansi Nagar, Patna - BSPCB",14-06-2024 17:00:00,25.599486,85.113666,NO2,7,26,13
India,Bihar,Rajgir,"Dangi Tola, Rajgir - BSPCB",14-06-2024 17:00:00,25.03280,85.41948,NO2,14,16,15
India,Bihar,Rajgir,"Dangi Tola, Rajgir - BSPCB",14-06-2024 17:00:00,25.03280,85.41948,CO,38,38,38
India,Bihar,Rajgir,"Dangi Tola, Rajgir - BSPCB",14-06-2024 17:00:00,25.03280,85.41948,OZONE,26,38,33
India,Bihar,Saharsa,"Police Line, Saharsa - BSPCB",14-06-2024 17:00:00,25.892357,86.590325,SO2,16,17,16
India,Bihar,Samastipur,"DM Office_Kasipur, Samastipur - BSPCB",14-06-2024 17:00:00,25.859655,85.77944,PM2.5,NA,NA,NA
India,Bihar,Sasaram,"Dada Peer, Sasaram - BSPCB",14-06-2024 17:00:00,24.952822,84.002396,PM10,42,82,59
India,Bihar,Siwan,"Chitragupta Nagar, Siwan - BSPCB",14-06-2024 17:00:00,26.2271665,84.3570427,NO2,4,131,23
India,Chandigarh,Chandigarh,"Sector 22, Chandigarh - CPCC",14-06-2024 17:00:00,30.735567,76.775714,PM10,111,351,142
India,Chandigarh,Chandigarh,"Sector-25, Chandigarh - CPCC",14-06-2024 17:00:00,30.751462,76.762879,NH3,10,20,14
India,Chandigarh,Chandigarh,"Sector-53, Chandigarh - CPCC",14-06-2024 17:00:00,30.719859,76.738637,NH3,4,6,5
India,Chhattisgarh,Bhilai,"32Bungalows, Bhilai - CECB",14-06-2024 17:00:00,21.194815,81.314770,PM2.5,32,66,47
India,Chhattisgarh,Bhilai,"Civic Center, Bhilai - Bhilai Steel Plant",14-06-2024 17:00:00,21.185571,81.343175,PM10,21,58,39
India,Chhattisgarh,Bhilai,"Civic Center, Bhilai - Bhilai Steel Plant",14-06-2024 17:00:00,21.185571,81.343175,SO2,9,12,10
India,Chhattisgarh,Bilaspur,"Mangala, Bilaspur - NTPC",14-06-2024 17:00:00,22.08815,82.13737,PM2.5,28,72,47
India,Chhattisgarh,Bilaspur,"Mangala, Bilaspur - NTPC",14-06-2024 17:00:00,22.08815,82.13737,NO2,14,20,16
India,Chhattisgarh,Chhal,"Nawapara SECL Colony, Chhal - CECB",14-06-2024 17:00:00,22.118125,83.140608,PM2.5,41,320,75
India,Chhattisgarh,Chhal,"Nawapara SECL Colony, Chhal - CECB",14-06-2024 17:00:00,22.118125,83.140608,OZONE,50,168,112
India,Chhattisgarh,Korba,"Rampur, Korba - CECB",14-06-2024 17:00:00,22.368195,82.746431,SO2,NA,NA,NA
India,Chhattisgarh,Kunjemura,"OP Jindal School, Kunjemura - CECB",14-06-2024 17:00:00,22.126650,83.483212,SO2,1,5,3
India,Chhattisgarh,Milupara,"Govt. Higher Secondary School, Milupara - CECB",14-06-2024 17:00:00,22.1910172,83.5197009,PM2.5,28,58,42
India,Chhattisgarh,Raipur,"Bhatagaon New ISBT, Raipur - CECB",14-06-2024 17:00:00,21.219665,81.630094,SO2,4,6,5
India,Chhattisgarh,Raipur,"Siltara Phase-II, Raipur - CECB",14-06-2024 17:00:00,21.371751,81.664929,NO2,19,49,30
India,Chhattisgarh,Tumidih,"OP Jindal Industrial Park, Tumidih - CECB",14-06-2024 17:00:00,22.06631475,83.33820077,PM2.5,NA,NA,NA
India,Chhattisgarh,Tumidih,"OP Jindal Industrial Park, Tumidih - CECB",14-06-2024 17:00:00,22.06631475,83.33820077,NO2,NA,NA,NA
India,Chhattisgarh,Tumidih,"OP Jindal Industrial Park, Tumidih - CECB",14-06-2024 17:00:00,22.06631475,83.33820077,NH3,NA,NA,NA
India,Chhattisgarh,Tumidih,"OP Jindal Industrial Park, Tumidih - CECB",14-06-2024 17:00:00,22.06631475,83.33820077,OZONE,36,36,36
India,Delhi,Delhi,"Alipur, Delhi - DPCC",14-06-2024 17:00:00,28.815329,77.153010,NO2,22,54,31
India,Delhi,Delhi,"Alipur, Delhi - DPCC",14-06-2024 17:00:00,28.815329,77.153010,NH3,4,7,5
India,Delhi,Delhi,"Alipur, Delhi - DPCC",14-06-2024 17:00:00,28.815329,77.153010,CO,30,44,33
India,Delhi,Delhi,"Anand Vihar, Delhi - DPCC",14-06-2024 17:00:00,28.647622,77.3158090,PM10,151,500,298
India,Delhi,Delhi,"Anand Vihar, Delhi - DPCC",14-06-2024 17:00:00,28.647622,77.3158090,NH3,4,9,6
India,Delhi,Delhi,"Ashok Vihar, Delhi - DPCC",14-06-2024 17:00:00,28.695381,77.181665,PM2.5,42,107,68
India,Delhi,Delhi,"Ashok Vihar, Delhi - DPCC",14-06-2024 17:00:00,28.695381,77.181665,NH3,10,18,15
India,Delhi,Delhi,"Aya Nagar, Delhi - IMD",14-06-2024 17:00:00,28.4706914,77.1099364,PM2.5,19,110,58
India,Delhi,Delhi,"Aya Nagar, Delhi - IMD",14-06-2024 17:00:00,28.4706914,77.1099364,PM10,99,220,143
India,Delhi,Delhi,"Bawana, Delhi - DPCC",14-06-2024 17:00:00,28.776200,77.051074,PM2.5,43,171,73
India,Delhi,Delhi,"Burari Crossing, Delhi - IMD",14-06-2024 17:00:00,28.7256504,77.2011573,PM10,119,461,214
India,Delhi,Delhi,"CRRI Mathura Road, Delhi - IMD",14-06-2024 17:00:00,28.5512005,77.2735737,PM2.5,44,97,72
India,Delhi,Delhi,"CRRI Mathura Road, Delhi - IMD",14-06-2024 17:00:00,28.5512005,77.2735737,PM10,112,281,171
India,Delhi,Delhi,"Chandni Chowk, Delhi - IITM",14-06-2024 17:00:00,28.656756,77.227234,SO2,10,51,28
India,Delhi,Delhi,"DTU, Delhi - CPCB",14-06-2024 17:00:00,28.7500499,77.1112615,PM2.5,93,302,182
India,Delhi,Delhi,"DTU, Delhi - CPCB",14-06-2024 17:00:00,28.7500499,77.1112615,CO,28,46,32
India,Delhi,Delhi,"Dr. Karni Singh Shooting Range, Delhi - DPCC",14-06-2024 17:00:00,28.498571,77.264840,NH3,5,6,6
India,Delhi,Delhi,"Dwarka-Sector 8, Delhi - DPCC ",14-06-2024 17:00:00,28.5710274,77.0719006,NH3,4,7,5
India,Delhi,Delhi,"Dwarka-Sector 8, Delhi - DPCC ",14-06-2024 17:00:00,28.5710274,77.0719006,OZONE,24,100,55
India,Delhi,Delhi,"Jahangirpuri, Delhi - DPCC",14-06-2024 17:00:00,28.732820,77.170633,NH3,4,8,5
India,Delhi,Delhi,"Jawaharlal Nehru Stadium, Delhi - DPCC",14-06-2024 17:00:00,28.580280,77.233829,PM2.5,18,50,33
India,Delhi,Delhi,"Major Dhyan Chand National Stadium, Delhi - DPCC",14-06-2024 17:00:00,28.611281,77.237738,PM10,103,301,156
India,Delhi,Delhi,"Major Dhyan Chand National Stadium, Delhi - DPCC",14-06-2024 17:00:00,28.611281,77.237738,CO,28,70,31
India,Delhi,Delhi,"Mandir Marg, Delhi - DPCC",14-06-2024 17:00:00,28.636429,77.201067,PM10,81,200,133
India,Delhi,Delhi,"Mundka, Delhi - DPCC",14-06-2024 17:00:00,28.684678,77.076574,NO2,25,93,58
India,Delhi,Delhi,"NSIT Dwarka, Delhi - CPCB",14-06-2024 17:00:00,28.60909,77.0325413,OZONE,20,70,42
India,Delhi,Delhi,"Najafgarh, Delhi - DPCC",14-06-2024 17:00:00,28.570173,76.933762,PM10,88,332,159
India,Delhi,Delhi,"Najafgarh, Delhi - DPCC",14-06-2024 17:00:00,28.570173,76.933762,OZONE,31,89,53
India,Delhi,Delhi,"Narela, Delhi - DPCC",14-06-2024 17:00:00,28.822836,77.101981,CO,17,50,34
India,Delhi,Delhi,"Nehru Nagar, Delhi - DPCC",14-06-2024 17:00:00,28.567890,77.250515,PM2.5,27,78,48
India,Delhi,Delhi,"New Moti Bagh, Delhi - MHUA",14-06-2024 17:00:00,28.57834,77.18400,NO2,5,27,11
India,Delhi,Delhi,"New Moti Bagh, Delhi - MHUA",14-06-2024 17:00:00,28.57834,77.18400,CO,16,62,22
India,Delhi,Delhi,"North Campus, DU, Delhi - IMD",14-06-2024 17:00:00,28.6573814,77.1585447,PM2.5,1,190,58
India,Delhi,Delhi,"North Campus, DU, Delhi - IMD",14-06-2024 17:00:00,28.6573814,77.1585447,NO2,8,27,12
India,Delhi,Delhi,"North Campus, DU, Delhi - IMD",14-06-2024 17:00:00,28.6573814,77.1585447,OZONE,23,54,35
India,Delhi,Delhi,"Patparganj, Delhi - DPCC",14-06-2024 17:00:00,28.623763,77.287209,NO2,18,154,51
India,Delhi,Delhi,"Punjabi Bagh, Delhi - DPCC",14-06-2024 17:00:00,28.674045,77.131023,PM2.5,30,120,75
India,Delhi,Delhi,"Punjabi Bagh, Delhi - DPCC",14-06-2024 17:00:00,28.674045,77.131023,NO2,8,79,19
India,Delhi,Delhi,"Pusa, Delhi - DPCC",14-06-2024 17:00:00,28.639652,77.146275,NO2,41,134,67
India,Delhi,Delhi,"Pusa, Delhi - IMD",14-06-2024 17:00:00,28.636110,77.173332,PM2.5,4,384,136
India,Delhi,Delhi,"R K Puram, Delhi - DPCC",14-06-2024 17:00:00,28.563262,77.186937,PM2.5,48,110,77
India,Delhi,Delhi,"Rohini, Delhi - DPCC",14-06-2024 17:00:00,28.732528,77.119920,CO,11,38,16
India,Delhi,Delhi,"Shadipur, Delhi - CPCB",14-06-2024 17:00:00,28.6514781,77.1473105,NH3,7,9,8
India,Delhi,Delhi,"Shadipur, Delhi - CPCB",14-06-2024 17:00:00,28.6514781,77.1473105,CO,32,73,52
India,Delhi,Delhi,"Sirifort, Delhi - CPCB",14-06-2024 17:00:00,28.5504249,77.2159377,SO2,49,50,49
India,Delhi,Delhi,"Sonia Vihar, Delhi - DPCC",14-06-2024 17:00:00,28.710508,77.249485,NO2,14,76,32
India,Delhi,Delhi,"Vivek Vihar, Delhi - DPCC",14-06-2024 17:00:00,28.672342,77.315260,PM10,130,420,235
India,Delhi,Delhi,"Vivek Vihar, Delhi - DPCC",14-06-2024 17:00:00,28.672342,77.315260,OZONE,15,111,55
India,Delhi,Delhi,"Wazirpur, Delhi - DPCC",14-06-2024 17:00:00,28.699793,77.165453,SO2,11,35,20
India,Gujarat,Ahmedabad,"Chandkheda, Ahmedabad - IITM",14-06-2024 17:00:00,23.107969,72.574648,NO2,50,94,88
India,Gujarat,Ahmedabad,"Chandkheda, Ahmedabad - IITM",14-06-2024 17:00:00,23.107969,72.574648,CO,24,70,51
India,Gujarat,Ahmedabad,"Gyaspur, Ahmedabad - IITM",14-06-2024 17:00:00,22.977134,72.553024,PM2.5,49,328,104
India,Gujarat,Ahmedabad,"Gyaspur, Ahmedabad - IITM",14-06-2024 17:00:00,22.977134,72.553024,NO2,31,63,45
India,Gujarat,Ahmedabad,"Raikhad, Ahmedabad - IITM",14-06-2024 17:00:00,23.020509,72.579261,PM10,55,193,98
India,Gujarat,Ahmedabad,"Raikhad, Ahmedabad - IITM",14-06-2024 17:00:00,23.020509,72.579261,NO2,68,69,69
India,Gujarat,Ahmedabad,"Raikhad, Ahmedabad - IITM",14-06-2024 17:00:00,23.020509,72.579261,NH3,6,6,6
India,Gujarat,Ahmedabad,"Raikhad, Ahmedabad - IITM",14-06-2024 17:00:00,23.020509,72.579261,SO2,18,20,19
India,Gujarat,Ahmedabad,"Rakhial, Ahmedabad - IITM",14-06-2024 17:00:00,23.016834,72.625775,NH3,NA,NA,NA
India,Gujarat,Ahmedabad,"Rakhial, Ahmedabad - IITM",14-06-2024 17:00:00,23.016834,72.625775,OZONE,53,61,57
India,Gujarat,Ankleshwar,"GIDC, Ankleshwar - GPCB",14-06-2024 17:00:00,21.613267,73.010555,PM10,NA,NA,NA
India,Gujarat,Ankleshwar,"GIDC, Ankleshwar - GPCB",14-06-2024 17:00:00,21.613267,73.010555,OZONE,29,31,29
India,Gujarat,Gandhinagar,"GIFT City, Gandhinagar - IITM",14-06-2024 17:00:00,23.163798,72.677768,CO,20,24,24
India,Gujarat,Gandhinagar,"Sector-10, Gandhinagar - GPCB",14-06-2024 17:00:00,23.221714,72.654328,PM10,40,109,66
India,Gujarat,Nandesari,"GIDC, Nandesari - Nandesari Ind. Association",14-06-2024 17:00:00,22.410802,73.097923,PM2.5,48,298,121
India,Gujarat,Nandesari,"GIDC, Nandesari - Nandesari Ind. Association",14-06-2024 17:00:00,22.410802,73.097923,PM10,67,184,120
India,Gujarat,Surat,"Science Center, Surat - SMC",14-06-2024 17:00:00,21.170046,72.795405,PM2.5,NA,NA,NA
India,Gujarat,Surat,"Science Center, Surat - SMC",14-06-2024 17:00:00,21.170046,72.795405,SO2,NA,NA,NA
India,Gujarat,Vapi,"Phase-1 GIDC, Vapi - GPCB",14-06-2024 17:00:00,20.362421,72.918013,OZONE,NA,NA,NA
India,Gujarat,Vatva,"Phase-4 GIDC, Vatva - GPCB",14-06-2024 17:00:00,22.969611,72.643500,CO,21,22,22
India,Haryana,Ambala,"Patti Mehar, Ambala - HSPCB",14-06-2024 17:00:00,30.379589,76.778328,CO,30,60,47
India,Haryana,Ballabgarh,"Nathu Colony, Ballabgarh - HSPCB",14-06-2024 17:00:00,28.3419248,77.319699,NH3,1,2,2
India,Haryana,Ballabgarh,"Nathu Colony, Ballabgarh - HSPCB",14-06-2024 17:00:00,28.3419248,77.319699,SO2,5,16,9
India,Haryana,Ballabgarh,"Nathu Colony, Ballabgarh - HSPCB",14-06-2024 17:00:00,28.3419248,77.319699,OZONE,12,75,41
India,Haryana,Dharuhera,"Municipal Corporation Office, Dharuhera -  HSPCB",14-06-2024 17:00:00,28.206800,76.799700,OZONE,8,34,21
India,Haryana,Faridabad,"Sector 11, Faridabad - HSPCB",14-06-2024 17:00:00,28.376058,77.315741,OZONE,5,21,8
India,Haryana,Faridabad,"Sector 30, Faridabad - HSPCB",14-06-2024 17:00:00,28.4417,77.3217,OZONE,21,35,26
India,Haryana,Faridabad,"Sector- 16A, Faridabad - HSPCB",14-06-2024 17:00:00,28.4088421,77.3099081,PM2.5,17,83,33
India,Haryana,Faridabad,"Sector- 16A, Faridabad - HSPCB",14-06-2024 17:00:00,28.4088421,77.3099081,SO2,16,30,25
India,Haryana,Faridabad,"Sector- 16A, Faridabad - HSPCB",14-06-2024 17:00:00,28.4088421,77.3099081,OZONE,14,14,14
India,Haryana,Fatehabad,"Huda Sector, Fatehabad - HSPCB",14-06-2024 17:00:00,29.503664,75.467934,PM10,95,183,131
India,Haryana,Gurugram,"NISE Gwal Pahari, Gurugram - IMD",14-06-2024 17:00:00,28.422681,77.148944,PM2.5,14,244,59
India,Haryana,Gurugram,"NISE Gwal Pahari, Gurugram - IMD",14-06-2024 17:00:00,28.422681,77.148944,NO2,6,77,33
India,Haryana,Gurugram,"Sector-51, Gurugram - HSPCB",14-06-2024 17:00:00,28.4227,77.0667,PM10,110,303,199
India,Haryana,Gurugram,"Sector-51, Gurugram - HSPCB",14-06-2024 17:00:00,28.4227,77.0667,NH3,7,14,8
India,Haryana,Gurugram,"Teri Gram, Gurugram - HSPCB",14-06-2024 17:00:00,28.4275,77.1465,PM10,108,359,213
India,Haryana,Gurugram,"Teri Gram, Gurugram - HSPCB",14-06-2024 17:00:00,28.4275,77.1465,OZONE,50,63,50
India,Haryana,Hisar,"Urban Estate-II, Hisar - HSPCB",14-06-2024 17:00:00,29.140560,75.744941,PM2.5,50,291,88
India,Haryana,Hisar,"Urban Estate-II, Hisar - HSPCB",14-06-2024 17:00:00,29.140560,75.744941,PM10,77,158,112
India,Haryana,Hisar,"Urban Estate-II, Hisar - HSPCB",14-06-2024 17:00:00,29.140560,75.744941,NH3,4,4,4
India,Haryana,Jind,"Police Lines, Jind - HSPCB",14-06-2024 17:00:00,29.307814,76.337619,PM10,102,218,134
India,Haryana,Jind,"Police Lines, Jind - HSPCB",14-06-2024 17:00:00,29.307814,76.337619,NO2,1,44,6
India,Haryana,Jind,"Police Lines, Jind - HSPCB",14-06-2024 17:00:00,29.307814,76.337619,SO2,2,120,26
India,Haryana,Kaithal,"Rishi Nagar, Kaithal - HSPCB",14-06-2024 17:00:00,29.8006,76.4155,NO2,24,26,25
India,Haryana,Kaithal,"Rishi Nagar, Kaithal - HSPCB",14-06-2024 17:00:00,29.8006,76.4155,CO,6,81,16
India,Haryana,Kaithal,"Rishi Nagar, Kaithal - HSPCB",14-06-2024 17:00:00,29.8006,76.4155,OZONE,13,24,19
India,Haryana,Karnal,"Sector-12, Karnal - HSPCB",14-06-2024 17:00:00,29.695300,77.002700,PM2.5,1,97,77
India,Haryana,Karnal,"Sector-12, Karnal - HSPCB",14-06-2024 17:00:00,29.695300,77.002700,CO,12,32,23
India,Haryana,Kurukshetra,"Sector-7, Kurukshetra - HSPCB",14-06-2024 17:00:00,29.966942,76.875879,NH3,4,5,5
India,Haryana,Kurukshetra,"Sector-7, Kurukshetra - HSPCB",14-06-2024 17:00:00,29.966942,76.875879,OZONE,54,109,77
India,Haryana,Mandikhera,"General Hospital, Mandikhera - HSPCB",14-06-2024 17:00:00,27.9002,76.9938,PM10,69,153,111
India,Haryana,Manesar,"Sector-2 IMT, Manesar - HSPCB",14-06-2024 17:00:00,28.360699,76.936090,NO2,22,28,25
India,Haryana,Manesar,"Sector-2 IMT, Manesar - HSPCB",14-06-2024 17:00:00,28.360699,76.936090,CO,6,12,9
India,Haryana,Narnaul,"Shastri Nagar, Narnaul - HSPCB",14-06-2024 17:00:00,28.060249,76.113115,PM10,32,52,43
India,Haryana,Palwal,"Shyam Nagar, Palwal - HSPCB",14-06-2024 17:00:00,28.1485564,77.3320667,SO2,4,107,14
India,Haryana,Palwal,"Shyam Nagar, Palwal - HSPCB",14-06-2024 17:00:00,28.1485564,77.3320667,CO,16,29,20
India,Haryana,Palwal,"Shyam Nagar, Palwal - HSPCB",14-06-2024 17:00:00,28.1485564,77.3320667,OZONE,19,48,31
India,Haryana,Panchkula,"Sector-6, Panchkula - HSPCB ",14-06-2024 17:00:00,30.7057778,76.8531805555555,PM2.5,143,278,209
India,Haryana,Panipat,"Sector-18, Panipat - HSPCB",14-06-2024 17:00:00,29.432304,76.972765,PM2.5,96,188,154
India,Haryana,Panipat,"Sector-18, Panipat - HSPCB",14-06-2024 17:00:00,29.432304,76.972765,NO2,31,32,31
India,Haryana,Panipat,"Sector-18, Panipat - HSPCB",14-06-2024 17:00:00,29.432304,76.972765,NH3,2,3,3
India,Haryana,Rohtak,"MD University, Rohtak - HSPCB",14-06-2024 17:00:00,28.52123,76.37138,NO2,48,54,51
India,Haryana,Rohtak,"MD University, Rohtak - HSPCB",14-06-2024 17:00:00,28.52123,76.37138,SO2,5,8,7
India,Haryana,Sirsa,"F-Block, Sirsa - HSPCB",14-06-2024 17:00:00,29.536400,75.015800,PM2.5,71,156,113
India,Haryana,Sirsa,"F-Block, Sirsa - HSPCB",14-06-2024 17:00:00,29.536400,75.015800,PM10,96,134,110
India,Haryana,Sonipat,"Murthal, Sonipat - HSPCB",14-06-2024 17:00:00,29.027200,77.062100,SO2,13,29,20
India,Haryana,Sonipat,"Murthal, Sonipat - HSPCB",14-06-2024 17:00:00,29.027200,77.062100,OZONE,17,36,30
India,Haryana,Yamuna Nagar,"Gobind Pura, Yamuna Nagar - HSPCB",14-06-2024 17:00:00,30.1480566,77.2893471,NO2,11,20,16
India,Haryana,Yamuna Nagar,"Gobind Pura, Yamuna Nagar - HSPCB",14-06-2024 17:00:00,30.1480566,77.2893471,SO2,1,76,9
India,Himachal Pradesh,Baddi,"HIMUDA Complex Phase-1, Baddi - HPPCB",14-06-2024 17:00:00,30.943887,76.801991,PM2.5,42,230,79
India,Jharkhand,Dhanbad,"Sardar Patel Nagar, Dhanbad - JSPCB",14-06-2024 17:00:00,23.80569,86.44268,PM10,67,152,102
India,Jharkhand,Dhanbad,"Sardar Patel Nagar, Dhanbad - JSPCB",14-06-2024 17:00:00,23.80569,86.44268,NO2,76,363,199
India,Jharkhand,Dhanbad,"Sardar Patel Nagar, Dhanbad - JSPCB",14-06-2024 17:00:00,23.80569,86.44268,CO,86,176,144
India,Jharkhand,Dhanbad,"Sardar Patel Nagar, Dhanbad - JSPCB",14-06-2024 17:00:00,23.80569,86.44268,OZONE,15,37,21
India,Karnataka,Bagalkot,"Vidayagiri, Bagalkot - KSPCB",14-06-2024 17:00:00,16.172806,75.659694,PM2.5,25,37,36
India,Karnataka,Bagalkot,"Vidayagiri, Bagalkot - KSPCB",14-06-2024 17:00:00,16.172806,75.659694,NO2,9,10,9
India,Karnataka,Belgaum,"Ramteerth Nagar, Belgaum - KSPCB",14-06-2024 17:00:00,15.888653,74.541751,SO2,9,9,9
India,Karnataka,Belgaum,"Ramteerth Nagar, Belgaum - KSPCB",14-06-2024 17:00:00,15.888653,74.541751,CO,35,46,43
India,Karnataka,Bengaluru,"Bapuji Nagar, Bengaluru - KSPCB",14-06-2024 17:00:00,12.951913,77.539784,PM2.5,10,40,27
India,Karnataka,Bengaluru,"Bapuji Nagar, Bengaluru - KSPCB",14-06-2024 17:00:00,12.951913,77.539784,PM10,14,60,40
India,Karnataka,Bengaluru,"Bapuji Nagar, Bengaluru - KSPCB",14-06-2024 17:00:00,12.951913,77.539784,OZONE,23,30,25
India,Karnataka,Bengaluru,"City Railway Station, Bengaluru - KSPCB",14-06-2024 17:00:00,12.9756843,77.5660749,NO2,NA,NA,NA
India,Karnataka,Bengaluru,"Hebbal, Bengaluru - KSPCB",14-06-2024 17:00:00,13.029152,77.585901,OZONE,6,54,19
India,Karnataka,Bengaluru,"Hombegowda Nagar, Bengaluru - KSPCB",14-06-2024 17:00:00,12.938539,77.590100,CO,9,44,15
India,Karnataka,Bengaluru,"Jigani, Bengaluru - KSPCB",14-06-2024 17:00:00,12.7816279,77.6299145,NH3,NA,NA,NA
India,Karnataka,Bengaluru,"Kasturi Nagar, Bengaluru - KSPCB",14-06-2024 17:00:00,13.003872,77.664217,NH3,3,4,4
India,Karnataka,Bengaluru,"RVCE-Mailasandra, Bengaluru - KSPCB",14-06-2024 17:00:00,12.921418,77.502466,SO2,6,10,8
India,Karnataka,Bengaluru,"RVCE-Mailasandra, Bengaluru - KSPCB",14-06-2024 17:00:00,12.921418,77.502466,OZONE,39,39,39
India,Karnataka,Bengaluru,"Sanegurava Halli, Bengaluru - KSPCB",14-06-2024 17:00:00,12.990328,77.5431385,CO,9,26,18
India,Karnataka,Bengaluru,"Shivapura_Peenya, Bengaluru - KSPCB",14-06-2024 17:00:00,13.0246342,77.5080115,NH3,4,4,4
India,Karnataka,Bengaluru,"Shivapura_Peenya, Bengaluru - KSPCB",14-06-2024 17:00:00,13.0246342,77.5080115,OZONE,53,56,54
India,Karnataka,Bengaluru,"Silk Board, Bengaluru - KSPCB",14-06-2024 17:00:00,12.917348,77.622813,CO,8,36,23
India,Karnataka,Bidar,"Naubad, Bidar - KSPCB",14-06-2024 17:00:00,17.930306,77.482194,NO2,7,9,7
India,Karnataka,Bidar,"Naubad, Bidar - KSPCB",14-06-2024 17:00:00,17.930306,77.482194,NH3,3,3,3
India,Karnataka,Bidar,"Naubad, Bidar - KSPCB",14-06-2024 17:00:00,17.930306,77.482194,OZONE,26,26,26
India,Karnataka,Chikkaballapur,"Chikkaballapur Rural, Chikkaballapur - KSPCB",14-06-2024 17:00:00,13.428828,77.731418,CO,12,26,21
India,Karnataka,Davanagere,"Devaraj Urs Badavane, Davanagere - KSPCB",14-06-2024 17:00:00,14.475800,75.905200,CO,10,26,22
India,Karnataka,Dharwad,"Kalabhavan, Dharwad - KSPCB",14-06-2024 17:00:00,15.459706,75.008381,PM10,35,87,48
India,Karnataka,Gadag,"Panchal Nagar, Gadag - KSPCB",14-06-2024 17:00:00,15.411456,75.638133,NH3,1,4,2
India,Karnataka,Hassan,"B.Katihalli, Hassan - KSPCB",14-06-2024 17:00:00,13.008556,76.125258,PM2.5,15,51,28
India,Karnataka,Hassan,"B.Katihalli, Hassan - KSPCB",14-06-2024 17:00:00,13.008556,76.125258,OZONE,1,2,2
India,Karnataka,Haveri,"Ashwini Nagar, Haveri - KSPCB",14-06-2024 17:00:00,14.791800,75.389600,CO,36,38,37
India,Karnataka,Hubballi,"Lingaraj Nagar, Hubballi - KSPCB",14-06-2024 17:00:00,15.3714823,75.1160168,PM2.5,29,45,34
India,Karnataka,Kalaburagi,"Lal Bahadur Shastri Nagar, Kalaburagi - KSPCB",14-06-2024 17:00:00,17.321993,76.822628,CO,34,36,35
India,Karnataka,Kalaburagi,"Mahatma Basaveswar Colony, Kalaburgi - KSPCB",14-06-2024 17:00:00,17.336318,76.847397,NH3,2,3,2
India,Karnataka,Karwar,"KHB Colony, Karwar - KSPCB",14-06-2024 17:00:00,14.816666,74.141003,PM2.5,NA,NA,NA
India,Karnataka,Karwar,"KHB Colony, Karwar - KSPCB",14-06-2024 17:00:00,14.816666,74.141003,SO2,NA,NA,NA
India,Karnataka,Koppal,"Diwator Nagar, Koppal - KSPCB",14-06-2024 17:00:00,15.347630,76.181767,CO,6,6,6
India,Karnataka,Madikeri,"Stuart Hill, Madikeri - KSPCB",14-06-2024 17:00:00,12.415911,75.735050,PM10,13,38,25
India,Karnataka,Madikeri,"Stuart Hill, Madikeri - KSPCB",14-06-2024 17:00:00,12.415911,75.735050,NH3,NA,NA,NA
India,Karnataka,Madikeri,"Stuart Hill, Madikeri - KSPCB",14-06-2024 17:00:00,12.415911,75.735050,CO,4,68,20
India,Karnataka,Mangalore,"Kadri, Mangalore - KSPCB",14-06-2024 17:00:00,12.889250,74.853000,SO2,9,10,10
India,Karnataka,Raichur,"Haji Colony, Raichur - KSPCB",14-06-2024 17:00:00,16.208139,77.348417,PM10,16,69,37
India,Karnataka,Raichur,"Haji Colony, Raichur - KSPCB",14-06-2024 17:00:00,16.208139,77.348417,OZONE,3,4,3
India,Karnataka,Ramanagara,"Vijay Nagar, Ramanagara - KSPCB",14-06-2024 17:00:00,12.733409,77.298051,PM2.5,4,32,16
India,Karnataka,Ramanagara,"Vijay Nagar, Ramanagara - KSPCB",14-06-2024 17:00:00,12.733409,77.298051,NH3,1,3,2
India,Karnataka,Ramanagara,"Vijay Nagar, Ramanagara - KSPCB",14-06-2024 17:00:00,12.733409,77.298051,CO,6,30,21
India,Karnataka,Tumakuru,"Thimmalapura, Tumakuru - KSPCB",14-06-2024 17:00:00,13.377516,77.099072,PM2.5,16,34,24
India,Karnataka,Udupi,"Brahmagiri, Udupi - KSPCB",14-06-2024 17:00:00,13.34194444,74.74694444,SO2,17,20,18
India,Karnataka,Udupi,"Brahmagiri, Udupi - KSPCB",14-06-2024 17:00:00,13.34194444,74.74694444,OZONE,23,23,23
India,Karnataka,Vijayapura,"Ibrahimpur, Vijayapura - KSPCB",14-06-2024 17:00:00,16.802639,75.722694,PM10,42,43,42
India,Karnataka,Vijayapura,"Ibrahimpur, Vijayapura - KSPCB",14-06-2024 17:00:00,16.802639,75.722694,NO2,17,19,19
India,Karnataka,Yadgir,"Collector Office, Yadgir - KSPCB",14-06-2024 17:00:00,16.7602,77.1428,PM10,13,42,27
India,Karnataka,Yadgir,"Collector Office, Yadgir - KSPCB",14-06-2024 17:00:00,16.7602,77.1428,CO,8,18,15
India,Kerala,Eloor,"Udyogamandal, Eloor - Kerala PCB",14-06-2024 17:00:00,10.073232,76.302765,NO2,5,6,5
India,Kerala,Kollam,"Polayathode, Kollam - Kerala PCB",14-06-2024 17:00:00,8.8787,76.6073,SO2,NA,NA,NA
India,Kerala,Kollam,"Polayathode, Kollam - Kerala PCB",14-06-2024 17:00:00,8.8787,76.6073,OZONE,34,36,35
India,Kerala,Thiruvananthapuram,"Plammoodu, Thiruvananthapuram - Kerala PCB",14-06-2024 17:00:00,8.5149093,76.9435879,PM2.5,2,17,9
India,Kerala,Thiruvananthapuram,"Plammoodu, Thiruvananthapuram - Kerala PCB",14-06-2024 17:00:00,8.5149093,76.9435879,NH3,1,1,1
India,Madhya Pradesh,Bhopal,"Paryavaran Parisar, Bhopal - MPPCB",14-06-2024 17:00:00,23.210494,77.425409,CO,10,90,21
India,Madhya Pradesh,Bhopal,"T T Nagar, Bhopal - MPPCB",14-06-2024 17:00:00,23.233584,77.400574,PM2.5,15,39,31
India,Madhya Pradesh,Bhopal,"T T Nagar, Bhopal - MPPCB",14-06-2024 17:00:00,23.233584,77.400574,NO2,17,38,25
India,Madhya Pradesh,Gwalior,"City Center, Gwalior - MPPCB",14-06-2024 17:00:00,26.203442,78.193251,PM2.5,26,57,37
India,Madhya Pradesh,Gwalior,"City Center, Gwalior - MPPCB",14-06-2024 17:00:00,26.203442,78.193251,PM10,27,119,64
India,Madhya Pradesh,Gwalior,"Deen Dayal Nagar, Gwalior - MPPCB",14-06-2024 17:00:00,26.259242,78.216432,NO2,4,45,13
India,Madhya Pradesh,Gwalior,"Maharaj Bada, Gwalior - MPPCB",14-06-2024 17:00:00,26.200388,78.147714,SO2,16,29,21
India,Madhya Pradesh,Gwalior,"Maharaj Bada, Gwalior - MPPCB",14-06-2024 17:00:00,26.200388,78.147714,CO,6,69,45
India,Madhya Pradesh,Gwalior,"Maharaj Bada, Gwalior - MPPCB",14-06-2024 17:00:00,26.200388,78.147714,OZONE,69,147,102
India,Madhya Pradesh,Gwalior,"Phool Bagh, Gwalior - Mondelez Ind. Food",14-06-2024 17:00:00,26.210536,78.171,PM10,26,139,86
India,Madhya Pradesh,Indore,"Chhoti Gwaltoli, Indore - MPPCB",14-06-2024 17:00:00,22.4310,75.5213,NO2,33,77,46
India,Madhya Pradesh,Indore,"Chhoti Gwaltoli, Indore - MPPCB",14-06-2024 17:00:00,22.4310,75.5213,NH3,3,6,5
India,Madhya Pradesh,Indore,"Chhoti Gwaltoli, Indore - MPPCB",14-06-2024 17:00:00,22.4310,75.5213,OZONE,22,67,50
India,Madhya Pradesh,Indore,"Maguda Nagar, Indore - IMC",14-06-2024 17:00:00,22.7524,75.8872,PM2.5,31,112,48
India,Madhya Pradesh,Indore,"Maguda Nagar, Indore - IMC",14-06-2024 17:00:00,22.7524,75.8872,NO2,3,4,4
India,Madhya Pradesh,Indore,"Maguda Nagar, Indore - IMC",14-06-2024 17:00:00,22.7524,75.8872,CO,18,26,20
India,Madhya Pradesh,Indore,"Regional Park, Indore - IMC",14-06-2024 17:00:00,22.6780,75.8559,SO2,48,52,50
India,Madhya Pradesh,Jabalpur,"Govindh Bhavan Colony, Jabalpur - JMC",14-06-2024 17:00:00,23.163174,79.973061,PM2.5,38,160,66
India,Madhya Pradesh,Jabalpur,"Govindh Bhavan Colony, Jabalpur - JMC",14-06-2024 17:00:00,23.163174,79.973061,PM10,61,148,91
India,Madhya Pradesh,Jabalpur,"Govindh Bhavan Colony, Jabalpur - JMC",14-06-2024 17:00:00,23.163174,79.973061,NH3,3,3,3
India,Madhya Pradesh,Jabalpur,"Suhagi, Jabalpur - JMC",14-06-2024 17:00:00,23.218135,79.957770,PM2.5,32,180,73
India,Madhya Pradesh,Jabalpur,"Suhagi, Jabalpur - JMC",14-06-2024 17:00:00,23.218135,79.957770,NO2,39,42,41
India,Madhya Pradesh,Maihar,"Sahilara, Maihar - KJS Cements",14-06-2024 17:00:00,24.2613009,80.7231783,CO,15,34,25
India,Madhya Pradesh,Mandideep,"Sector-D Industrial Area, Mandideep - MPPCB",14-06-2024 17:00:00,23.108440,77.511428,SO2,8,32,23
India,Madhya Pradesh,Mandideep,"Sector-D Industrial Area, Mandideep - MPPCB",14-06-2024 17:00:00,23.108440,77.511428,OZONE,14,45,23
India,Madhya Pradesh,Pithampur,"Sector-2 Industrial Area, Pithampur - MPPCB",14-06-2024 17:00:00,22.624758,75.675238,OZONE,9,44,32
India,Madhya Pradesh,Sagar,"Deen Dayal Nagar, Sagar - MPPCB",14-06-2024 17:00:00,23.8640158,78.80289321,NO2,22,181,60
India,Madhya Pradesh,Satna,"Bandhavgar Colony, Satna - Birla Cement",14-06-2024 17:00:00,24.58434363,80.8549414,PM2.5,42,42,42
India,Madhya Pradesh,Satna,"Bandhavgar Colony, Satna - Birla Cement",14-06-2024 17:00:00,24.58434363,80.8549414,SO2,2,4,3
India,Madhya Pradesh,Singrauli,"Suryakiran Bhawan NCL, Singrauli - MPPCB",14-06-2024 17:00:00,24.108970,82.645580,PM2.5,29,213,73
India,Maharashtra,Ahmednagar,"Tarakpur, Ahmednagar - MPCB",14-06-2024 17:00:00,19.10122,74.73339,NH3,1,13,7
India,Maharashtra,Akola,"Ramdaspeth, Akola - MPCB",14-06-2024 17:00:00,20.719516,77.000253,NO2,7,150,25
India,Maharashtra,Amravati,"Shivneri Colony, Amravati - MPCB",14-06-2024 17:00:00,20.9402359,77.7895248,PM10,38,103,64
India,Maharashtra,Amravati,"Shivneri Colony, Amravati - MPCB",14-06-2024 17:00:00,20.9402359,77.7895248,NH3,4,5,5
India,Maharashtra,Amravati,"Shivneri Colony, Amravati - MPCB",14-06-2024 17:00:00,20.9402359,77.7895248,SO2,1,6,1
India,Maharashtra,Amravati,"Shri Shivaji Science College, Amaravati - MPCB",14-06-2024 17:00:00,20.939198,77.765701,PM10,44,81,60
India,Maharashtra,Amravati,"Shri Shivaji Science College, Amaravati - MPCB",14-06-2024 17:00:00,20.939198,77.765701,SO2,2,3,2
India,Maharashtra,Aurangabad,"MIDC Chilkalthana, Aurangabad - MPCB",14-06-2024 17:00:00,19.875620,75.387310,PM2.5,8,117,50
India,Maharashtra,Aurangabad,"MIDC Chilkalthana, Aurangabad - MPCB",14-06-2024 17:00:00,19.875620,75.387310,CO,22,112,25
India,Maharashtra,Aurangabad,"Rachnakar Colony, Aurangabad - MPCB",14-06-2024 17:00:00,19.863756,75.321188,NO2,NA,NA,NA
India,Maharashtra,Badlapur,"Katrap, Badlapur - MPCB",14-06-2024 17:00:00,19.16485,73.23409,PM2.5,15,90,46
India,Maharashtra,Badlapur,"Katrap, Badlapur - MPCB",14-06-2024 17:00:00,19.16485,73.23409,CO,15,68,26
India,Maharashtra,Belapur,"CBD Belapur, Belapur - MPCB",14-06-2024 17:00:00,19.0243902,73.0406721,PM10,31,69,46
India,Maharashtra,Bhiwandi,"Gokul Nagar, Bhiwandi - MPCB",14-06-2024 17:00:00,19.309073,73.057223,OZONE,11,83,48
India,Maharashtra,Boisar,"Khaira, Boisar - MPCB",14-06-2024 17:00:00,19.786089,72.757971,OZONE,1,5,2
India,Maharashtra,Dhule,"Deopur, Dhule - MPCB",14-06-2024 17:00:00,20.918946,74.776388,PM10,NA,NA,NA
India,Maharashtra,Dhule,"Deopur, Dhule - MPCB",14-06-2024 17:00:00,20.918946,74.776388,NH3,NA,NA,NA
India,Maharashtra,Dhule,"Deopur, Dhule - MPCB",14-06-2024 17:00:00,20.918946,74.776388,OZONE,28,31,30
India,Maharashtra,Jalgaon,"Prabhat Colony, Jalgaon - MPCB",14-06-2024 17:00:00,21.001264,75.565602,NO2,6,32,14
India,Maharashtra,Jalgaon,"Prabhat Colony, Jalgaon - MPCB",14-06-2024 17:00:00,21.001264,75.565602,OZONE,10,214,70
India,Maharashtra,Kalyan,"Khadakpada, Kalyan - MPCB",14-06-2024 17:00:00,19.25292,73.142019,NH3,NA,NA,NA
India,Maharashtra,Kolhapur,"Shivaji University, Kolhapur - MPCB",14-06-2024 17:00:00,16.6870449,74.2505872,PM2.5,NA,NA,NA
India,Maharashtra,Kolhapur,"Shivaji University, Kolhapur - MPCB",14-06-2024 17:00:00,16.6870449,74.2505872,PM10,NA,NA,NA
India,Maharashtra,Kolhapur,"Sinchan Bhavan, Kolhapur - MPCB",14-06-2024 17:00:00,16.7143745,74.2426398,CO,8,14,12
India,Maharashtra,Latur,"Sawe Wadi, Latur - MPCB",14-06-2024 17:00:00,18.39963,76.57452,SO2,3,5,4
India,Maharashtra,Latur,"Sawe Wadi, Latur - MPCB",14-06-2024 17:00:00,18.39963,76.57452,CO,8,54,17
India,Maharashtra,Mahad,"Kamble Tarf Birwadi, Mahad - MPCB",14-06-2024 17:00:00,18.1023399,73.4783687,PM10,11,124,40
India,Maharashtra,Malegaon,"Mahesh Nagar, Malegaon - MPCB",14-06-2024 17:00:00,20.555712,74.529236,SO2,3,12,7
India,Maharashtra,Malegaon,"Mahesh Nagar, Malegaon - MPCB",14-06-2024 17:00:00,20.555712,74.529236,OZONE,9,79,56
India,Maharashtra,Mumbai,"Borivali East, Mumbai - IITM",14-06-2024 17:00:00,19.23241,72.86895,PM10,20,39,32
India,Maharashtra,Mumbai,"Borivali East, Mumbai - MPCB",14-06-2024 17:00:00,19.2243333,72.8658113,SO2,8,11,10
India,Maharashtra,Mumbai,"Borivali East, Mumbai - MPCB",14-06-2024 17:00:00,19.2243333,72.8658113,CO,34,38,36
India,Maharashtra,Mumbai,"Borivali East, Mumbai - MPCB",14-06-2024 17:00:00,19.2243333,72.8658113,OZONE,15,16,16
India,Maharashtra,Mumbai,"Byculla, Mumbai - BMC",14-06-2024 17:00:00,18.9767,72.8380,OZONE,1,32,18
India,Maharashtra,Mumbai,"Chakala-Andheri East, Mumbai - IITM",14-06-2024 17:00:00,19.11074,72.86084,NO2,26,78,32
India,Maharashtra,Mumbai,"Chakala-Andheri East, Mumbai - IITM",14-06-2024 17:00:00,19.11074,72.86084,SO2,1,31,13
India,Maharashtra,Mumbai,"Chakala-Andheri East, Mumbai - IITM",14-06-2024 17:00:00,19.11074,72.86084,CO,2,47,27
India,Maharashtra,Mumbai,"Chembur, Mumbai - MPCB",14-06-2024 17:00:00,19.0364585,72.8954371,PM2.5,13,47,21
India,Maharashtra,Mumbai,"Chembur, Mumbai - MPCB",14-06-2024 17:00:00,19.0364585,72.8954371,PM10,16,36,24
India,Maharashtra,Mumbai,"Chembur, Mumbai - MPCB",14-06-2024 17:00:00,19.0364585,72.8954371,NO2,25,47,33
India,Maharashtra,Mumbai,"Chhatrapati Shivaji Intl. Airport (T2), Mumbai - MPCB",14-06-2024 17:00:00,19.10078,72.87462,SO2,17,20,18
India,Maharashtra,Mumbai,"Colaba, Mumbai - MPCB",14-06-2024 17:00:00,18.910000,72.820000,SO2,10,11,10
India,Maharashtra,Mumbai,"Deonar, Mumbai - IITM",14-06-2024 17:00:00,19.04946,72.9230,OZONE,1,31,12
India,Maharashtra,Mumbai,"Ghatkopar, Mumbai - BMC",14-06-2024 17:00:00,19.083694,72.920967,PM10,11,24,18
India,Maharashtra,Mumbai,"Ghatkopar, Mumbai - BMC",14-06-2024 17:00:00,19.083694,72.920967,CO,2,26,10
India,Maharashtra,Mumbai,"Kandivali West, Mumbai - BMC",14-06-2024 17:00:00,19.215859,72.831718,NH3,1,2,1
India,Maharashtra,Mumbai,"Kandivali West, Mumbai - BMC",14-06-2024 17:00:00,19.215859,72.831718,CO,6,30,18
India,Maharashtra,Mumbai,"Kherwadi_Bandra East, Mumbai - MPCB",14-06-2024 17:00:00,19.0632143,72.8456324,NO2,6,22,13
India,Maharashtra,Mumbai,"Kherwadi_Bandra East, Mumbai - MPCB",14-06-2024 17:00:00,19.0632143,72.8456324,SO2,4,7,5
India,Maharashtra,Mumbai,"Kherwadi_Bandra East, Mumbai - MPCB",14-06-2024 17:00:00,19.0632143,72.8456324,CO,10,49,27
India,Maharashtra,Mumbai,"Khindipada-Bhandup West, Mumbai - IITM",14-06-2024 17:00:00,19.1653323,72.922099,NH3,3,4,4
India,Maharashtra,Mumbai,"Mindspace-Malad West, Mumbai - MPCB",14-06-2024 17:00:00,19.1878657,72.8304069,PM10,32,50,38
India,Maharashtra,Mumbai,"Mulund West, Mumbai - MPCB",14-06-2024 17:00:00,19.1750,72.9419,PM10,8,98,56
India,Maharashtra,Mumbai,"Mulund West, Mumbai - MPCB",14-06-2024 17:00:00,19.1750,72.9419,NO2,19,21,20
India,Maharashtra,Mumbai,"Mulund West, Mumbai - MPCB",14-06-2024 17:00:00,19.1750,72.9419,NH3,10,10,10
India,Maharashtra,Mumbai,"Mulund West, Mumbai - MPCB",14-06-2024 17:00:00,19.1750,72.9419,SO2,17,18,18
India,Maharashtra,Mumbai,"Navy Nagar-Colaba, Mumbai - IITM",14-06-2024 17:00:00,18.897756,72.813320,NO2,39,91,56
India,Maharashtra,Mumbai,"Powai, Mumbai - MPCB",14-06-2024 17:00:00,19.137500,72.915056,NO2,9,31,17
India,Maharashtra,Mumbai,"Powai, Mumbai - MPCB",14-06-2024 17:00:00,19.137500,72.915056,NH3,2,3,3
India,Maharashtra,Mumbai,"Powai, Mumbai - MPCB",14-06-2024 17:00:00,19.137500,72.915056,CO,39,47,43
India,Maharashtra,Mumbai,"Siddharth Nagar-Worli, Mumbai - IITM",14-06-2024 17:00:00,19.000083,72.813993,NH3,NA,NA,NA
India,Maharashtra,Mumbai,"Sion, Mumbai - MPCB",14-06-2024 17:00:00,19.047000,72.874600,PM2.5,7,51,25
India,Maharashtra,Mumbai,"Vasai West, Mumbai - MPCB",14-06-2024 17:00:00,19.383200,72.820400,PM10,21,117,54
India,Maharashtra,Mumbai,"Vile Parle West, Mumbai - MPCB",14-06-2024 17:00:00,19.10861,72.83622,PM2.5,3,26,12
India,Maharashtra,Mumbai,"Worli, Mumbai - MPCB",14-06-2024 17:00:00,18.9936162,72.8128113,PM10,12,64,33
India,Maharashtra,Nagpur,"Ambazari, Nagpur - MPCB",14-06-2024 17:00:00,21.121801,79.04952,PM10,53,76,65
India,Maharashtra,Nagpur,"Ambazari, Nagpur - MPCB",14-06-2024 17:00:00,21.121801,79.04952,SO2,8,22,16
India,Maharashtra,Nagpur,"Opp GPO Civil Lines, Nagpur - MPCB",14-06-2024 17:00:00,21.152875,79.0517531,OZONE,12,54,35
India,Maharashtra,Nanded,"Sneh Nagar, Nanded - MPCB",14-06-2024 17:00:00,19.173852,77.296291,PM2.5,13,46,24
India,Maharashtra,Nanded,"Sneh Nagar, Nanded - MPCB",14-06-2024 17:00:00,19.173852,77.296291,PM10,27,67,42
India,Maharashtra,Nanded,"Sneh Nagar, Nanded - MPCB",14-06-2024 17:00:00,19.173852,77.296291,SO2,2,21,18
India,Maharashtra,Nashik,"Hirawadi, Nashik - MPCB",14-06-2024 17:00:00,20.021503,73.813844,OZONE,14,76,46
India,Maharashtra,Nashik,"MIDC Ambad, Nashik - MPCB",14-06-2024 17:00:00,19.950220,73.731480,NO2,6,11,8
India,Maharashtra,Nashik,"MIDC Ambad, Nashik - MPCB",14-06-2024 17:00:00,19.950220,73.731480,NH3,3,5,4
India,Maharashtra,Nashik,"MIDC Ambad, Nashik - MPCB",14-06-2024 17:00:00,19.950220,73.731480,SO2,14,24,20
India,Maharashtra,Nashik,"MIDC Ambad, Nashik - MPCB",14-06-2024 17:00:00,19.950220,73.731480,OZONE,17,40,30
India,Maharashtra,Nashik,"Pandav Nagari, Nashik - MPCB",14-06-2024 17:00:00,19.9591346,73.7788008,PM10,15,42,26
India,Maharashtra,Nashik,"Pandav Nagari, Nashik - MPCB",14-06-2024 17:00:00,19.9591346,73.7788008,NO2,16,67,34
India,Maharashtra,Navi Mumbai,"Nerul, Navi Mumbai - MPCB",14-06-2024 17:00:00,19.008751,73.016620,PM10,17,83,44
India,Maharashtra,Navi Mumbai,"Sanpada, Navi Mumbai - MPCB",14-06-2024 17:00:00,19.0575752,73.0151367,NO2,13,34,22
India,Maharashtra,Navi Mumbai,"Sector-19A Nerul, Navi Mumbai - IITM",14-06-2024 17:00:00,19.044,73.0325,CO,11,70,27
India,Maharashtra,Navi Mumbai,"Tondare-Taloja, Navi Mumbai - MPCB",14-06-2024 17:00:00,19.0630,73.1209,PM2.5,26,64,44
India,Maharashtra,Navi Mumbai,"Tondare-Taloja, Navi Mumbai - MPCB",14-06-2024 17:00:00,19.0630,73.1209,PM10,25,107,71
India,Maharashtra,Navi Mumbai,"Tondare-Taloja, Navi Mumbai - MPCB",14-06-2024 17:00:00,19.0630,73.1209,NO2,8,71,24
India,Maharashtra,Pimpri-Chinchwad,"Gavalinagar, Pimpri Chinchwad - MPCB",14-06-2024 17:00:00,18.63673,73.82487,NO2,32,33,32
India,Maharashtra,Pune,"Alandi, Pune - IITM",14-06-2024 17:00:00,18.675076,73.892743,PM2.5,8,28,14
India,Maharashtra,Pune,"Alandi, Pune - IITM",14-06-2024 17:00:00,18.675076,73.892743,PM10,11,36,24
India,Maharashtra,Pune,"Bhosari, Pune - IITM",14-06-2024 17:00:00,18.640051,73.848956,NO2,8,11,9
India,Maharashtra,Pune,"Bhosari, Pune - IITM",14-06-2024 17:00:00,18.640051,73.848956,OZONE,9,48,41
India,Maharashtra,Pune,"Bhumkar Nagar, Pune - IITM",14-06-2024 17:00:00,18.605770,73.749976,NO2,35,48,39
India,Maharashtra,Pune,"Hadapsar, Pune - IITM",14-06-2024 17:00:00,18.501793,73.927532,PM2.5,25,79,53
India,Maharashtra,Pune,"Hadapsar, Pune - IITM",14-06-2024 17:00:00,18.501793,73.927532,NO2,20,42,30
India,Maharashtra,Pune,"Karve Road, Pune - MPCB",14-06-2024 17:00:00,18.5011743,73.8165527,CO,2,64,11
India,Maharashtra,Pune,"Mhada Colony, Pune - IITM",14-06-2024 17:00:00,18.573040,73.927715,NO2,26,48,36
India,Maharashtra,Pune,"Revenue Colony-Shivajinagar, Pune - IITM",14-06-2024 17:00:00,18.530085,73.849598,SO2,5,42,34
India,Maharashtra,Pune,"Savitribai Phule Pune University, Pune - MPCB",14-06-2024 17:00:00,18.547056,73.826908,NH3,1,6,4
India,Maharashtra,Pune,"Transport Nagar-Nigdi, Pune - IITM",14-06-2024 17:00:00,18.664282,73.763966,PM2.5,1,40,19
India,Maharashtra,Pune,"Transport Nagar-Nigdi, Pune - IITM",14-06-2024 17:00:00,18.664282,73.763966,CO,6,32,24
India,Maharashtra,Sangli,"Vijay Nagar, Sangli - MPCB",14-06-2024 17:00:00, 16.5038,74.3623,SO2,NA,NA,NA
India,Maharashtra,Solapur,"Dnyaneshwar Nagar, Solapur - MPCB",14-06-2024 17:00:00,17.6336264,75.9132495,NH3,13,19,16
India,Maharashtra,Solapur,"Ratandeep Housing Society, Solapur - MPCB",14-06-2024 17:00:00,17.65439,75.90649,PM2.5,6,31,17
India,Maharashtra,Solapur,"Solapur, Solapur - MPCB",14-06-2024 17:00:00,17.6599188,75.9063906,PM2.5,43,65,56
India,Maharashtra,Thane,"Upvan Fort, Thane - MPCB",14-06-2024 17:00:00,19.222279,72.957979,NH3,2,5,3
India,Maharashtra,Thane,"Upvan Fort, Thane - MPCB",14-06-2024 17:00:00,19.222279,72.957979,SO2,4,6,5
India,Maharashtra,Ulhasnagar,"Sidhi Vinayak Nagar, Ulhasnagar - MPCB",14-06-2024 17:00:00,19.235581,73.159121,OZONE,2,69,34
India,Manipur,Imphal,"DM College of Science, Imphal - Manipur PCB",14-06-2024 17:00:00,24.8207389,93.9423085,PM2.5,5,23,15
India,Mizoram,Aizawl,"Sikulpuikawn, Aizawl - Mizoram PCB",14-06-2024 17:00:00,23.7176342,92.7192841,PM2.5,5,20,12
India,Mizoram,Aizawl,"Sikulpuikawn, Aizawl - Mizoram PCB",14-06-2024 17:00:00,23.7176342,92.7192841,SO2,2,3,2
India,Mizoram,Aizawl,"Sikulpuikawn, Aizawl - Mizoram PCB",14-06-2024 17:00:00,23.7176342,92.7192841,CO,8,16,14
India,Nagaland,Kohima,"PWD Juction, Kohima - NPCB",14-06-2024 17:00:00,25.6635413,94.0989878,PM10,11,81,36
India,Nagaland,Kohima,"PWD Juction, Kohima - NPCB",14-06-2024 17:00:00,25.6635413,94.0989878,SO2,36,40,37
India,Odisha,Angul,"Hakimapada, Angul - OSPCB",14-06-2024 17:00:00,20.832874,85.104082,OZONE,48,92,73
India,Odisha,Barbil,"Forest Office, Barbil - OSPCB",14-06-2024 17:00:00,22.1166054,85.3945546,PM10,62,441,125
India,Odisha,Baripada,"Meher Colony, Baripada - OSPCB",14-06-2024 17:00:00,21.941841,86.728318,PM2.5,NA,NA,NA
India,Odisha,Baripada,"Meher Colony, Baripada - OSPCB",14-06-2024 17:00:00,21.941841,86.728318,NO2,NA,NA,NA
India,Odisha,Bhubaneswar,"Lingraj Mandir, Bhubaneswar - OSPCB",14-06-2024 17:00:00,20.240790,85.836784,NO2,7,31,17
India,Odisha,Bhubaneswar,"Lingraj Mandir, Bhubaneswar - OSPCB",14-06-2024 17:00:00,20.240790,85.836784,NH3,1,1,1
India,Odisha,Bhubaneswar,"Lingraj Mandir, Bhubaneswar - OSPCB",14-06-2024 17:00:00,20.240790,85.836784,CO,NA,NA,NA
India,Odisha,Brajrajnagar,"GM Office, Brajrajnagar - OSPCB",14-06-2024 17:00:00,21.8004996,83.8396977,OZONE,2,191,174
India,Odisha,Byasanagar,"Ferro Chrome Colony, Byasanagar - OSPCB",14-06-2024 17:00:00,20.94185,86.11510,SO2,5,87,27
India,Odisha,Cuttack,"CDA Area, Cuttack - OSPCB",14-06-2024 17:00:00,20.48891     ,85.84768     ,CO,16,33,26
India,Odisha,Keonjhar,"Jagamohanpur, Keonjhar - OSPCB",14-06-2024 17:00:00,21.643900,85.599355,PM10,45,108,67
India,Odisha,Keonjhar,"Jagamohanpur, Keonjhar - OSPCB",14-06-2024 17:00:00,21.643900,85.599355,CO,14,37,25
India,Odisha,Nayagarh,"Dabuna, Nayagarh - OSPCB",14-06-2024 17:00:00,21.847279,85.416905,NO2,4,5,4
India,Odisha,Nayagarh,"Dabuna, Nayagarh - OSPCB",14-06-2024 17:00:00,21.847279,85.416905,NH3,5,5,5
India,Odisha,Nayagarh,"Dabuna, Nayagarh - OSPCB",14-06-2024 17:00:00,21.847279,85.416905,CO,10,16,12
India,Odisha,Nayagarh,"Dabuna, Nayagarh - OSPCB",14-06-2024 17:00:00,21.847279,85.416905,OZONE,17,46,31
India,Odisha,Rourkela,"Raghunathpali, Rourkela - OSPCB",14-06-2024 17:00:00,22.220833,84.809444,PM10,78,137,103
India,Odisha,Rourkela,"Sector-2, Rourkela - OSPCB",14-06-2024 17:00:00,22.24500000,84.88111111,PM10,NA,NA,NA
India,Odisha,Rourkela,"Sector-2, Rourkela - OSPCB",14-06-2024 17:00:00,22.24500000,84.88111111,NO2,33,35,33
India,Odisha,Suakati,"OMC Colony, Suakati - OSPCB",14-06-2024 17:00:00,21.606865,85.510538,NH3,NA,NA,NA
India,Odisha,Suakati,"OMC Colony, Suakati - OSPCB",14-06-2024 17:00:00,21.606865,85.510538,OZONE,26,42,34
India,Odisha,Talcher,"Talcher Coalfields,Talcher - OSPCB",14-06-2024 17:00:00,20.9360711,85.1707021,PM10,15,195,88
India,Odisha,Talcher,"Talcher Coalfields,Talcher - OSPCB",14-06-2024 17:00:00,20.9360711,85.1707021,OZONE,22,26,24
India,Odisha,Tensa,"Barsua Iron Ore Mines, Tensa - OSPCB",14-06-2024 17:00:00,21.869985,85.167016,NH3,NA,NA,NA
India,Punjab,Bathinda,"Hardev Nagar, Bathinda - PPCB",14-06-2024 17:00:00,30.233011,74.907758,PM2.5,53,318,173
India,Punjab,Jalandhar,"Civil Line, Jalandhar - PPCB",14-06-2024 17:00:00,31.321907,75.578914,OZONE,6,82,65
India,Punjab,Khanna,"Kalal Majra, Khanna - PPCB",14-06-2024 17:00:00,30.736056 ,76.209694,OZONE,5,41,22
India,Punjab,Ludhiana,"Punjab Agricultural University, Ludhiana - PPCB",14-06-2024 17:00:00,30.9028,75.8086,PM2.5,98,454,221
India,Punjab,Mandi Gobindgarh,"RIMT University, Mandi Gobindgarh - PPCB",14-06-2024 17:00:00,30.649961,76.331442,PM10,NA,NA,NA
India,Punjab,Patiala,"Model Town, Patiala - PPCB",14-06-2024 17:00:00,30.349388,76.366642,NH3,5,5,5
India,Rajasthan,Ajmer,"Civil Lines,  Ajmer - RSPCB",14-06-2024 17:00:00,26.470859,74.646594,NO2,15,17,16
India,Rajasthan,Alwar,"Moti Doongri, Alwar - RSPCB",14-06-2024 17:00:00,27.554793,76.611536,NO2,19,30,25
India,Rajasthan,Banswara,"Rati Talai, Banswara - RSPCB",14-06-2024 17:00:00,23.555190,74.440010,NO2,9,21,14
India,Rajasthan,Baran,"Bamboliya, Baran - RSPCB",14-06-2024 17:00:00,25.106006,76.469948,PM10,46,134,84
India,Rajasthan,Baran,"Bamboliya, Baran - RSPCB",14-06-2024 17:00:00,25.106006,76.469948,NH3,3,6,5
India,Rajasthan,Baran,"Bamboliya, Baran - RSPCB",14-06-2024 17:00:00,25.106006,76.469948,OZONE,15,87,51
India,Rajasthan,Bharatpur,"Krishna Nagar, Bharatpur - RSPCB",14-06-2024 17:00:00,27.215415,77.50873,PM10,42,369,94
India,Rajasthan,Bharatpur,"Krishna Nagar, Bharatpur - RSPCB",14-06-2024 17:00:00,27.215415,77.50873,NO2,7,42,16
India,Rajasthan,Bhilwara,"Pratap Nagar, Bhilwara - RSPCB",14-06-2024 17:00:00,25.339605,74.618883,NO2,8,53,19
India,Rajasthan,Bhilwara,"Pratap Nagar, Bhilwara - RSPCB",14-06-2024 17:00:00,25.339605,74.618883,SO2,6,37,14
India,Rajasthan,Bhiwadi,"RIICO Ind. Area III, Bhiwadi - RSPCB",14-06-2024 17:00:00,28.194909,76.862296,NH3,1,76,13
India,Rajasthan,Bhiwadi,"RIICO Ind. Area III, Bhiwadi - RSPCB",14-06-2024 17:00:00,28.194909,76.862296,CO,18,108,72
India,Rajasthan,Bhiwadi,"RIICO Ind. Area III, Bhiwadi - RSPCB",14-06-2024 17:00:00,28.194909,76.862296,OZONE,30,87,64
India,Rajasthan,Bhiwadi,"Vasundhara Nagar_UIT, Bhiwadi - RSPCB",14-06-2024 17:00:00,28.207266,76.829265,NO2,11,60,24
India,Rajasthan,Bhiwadi,"Vasundhara Nagar_UIT, Bhiwadi - RSPCB",14-06-2024 17:00:00,28.207266,76.829265,NH3,10,21,14
India,Rajasthan,Bikaner,"MM Ground, Bikaner - RSPCB",14-06-2024 17:00:00,28.018792,73.292658,PM2.5,27,57,41
India,Rajasthan,Bikaner,"MM Ground, Bikaner - RSPCB",14-06-2024 17:00:00,28.018792,73.292658,PM10,101,197,138
India,Rajasthan,Bikaner,"MM Ground, Bikaner - RSPCB",14-06-2024 17:00:00,28.018792,73.292658,SO2,1,4,3
India,Rajasthan,Bikaner,"MM Ground, Bikaner - RSPCB",14-06-2024 17:00:00,28.018792,73.292658,CO,9,27,15
India,Rajasthan,Bikaner,"MM Ground, Bikaner - RSPCB",14-06-2024 17:00:00,28.018792,73.292658,OZONE,28,64,41
India,Rajasthan,Chittorgarh,"Shastri Nagar, Chittorgarh - RSPCB",14-06-2024 17:00:00,24.892047,74.623527,PM2.5,60,110,77
India,Rajasthan,Churu,"Subash Chowk, Churu - RSPCB",14-06-2024 17:00:00,28.296139,74.961696,OZONE,35,94,53
India,Rajasthan,Dausa,"Khatikan Mohalla, Dausa - RSPCB",14-06-2024 17:00:00,26.895552,76.334753,CO,21,123,107
India,Rajasthan,Dausa,"Khatikan Mohalla, Dausa - RSPCB",14-06-2024 17:00:00,26.895552,76.334753,OZONE,21,77,41
India,Rajasthan,Dholpur,"Raja Ganj, Dholpur - RSPCB",14-06-2024 17:00:00,26.699557,77.898881,PM2.5,NA,NA,NA
India,Rajasthan,Dholpur,"Raja Ganj, Dholpur - RSPCB",14-06-2024 17:00:00,26.699557,77.898881,CO,5,26,14
India,Rajasthan,Dungarpur,"Bhoiwada, Dungarpur - RSPCB",14-06-2024 17:00:00,23.837789,73.714926,NO2,7,11,9
India,Rajasthan,Hanumangarh,"Housing Board, Hanumangarh - RSPCB",14-06-2024 17:00:00,29.610750,74.283608,SO2,4,24,12
India,Rajasthan,Hanumangarh,"Housing Board, Hanumangarh - RSPCB",14-06-2024 17:00:00,29.610750,74.283608,CO,22,76,34
India,Rajasthan,Jaipur,"Adarsh Nagar, Jaipur - RSPCB",14-06-2024 17:00:00,26.902909,75.836858,PM2.5,40,125,79
India,Rajasthan,Jaipur,"Adarsh Nagar, Jaipur - RSPCB",14-06-2024 17:00:00,26.902909,75.836858,NO2,21,72,36
India,Rajasthan,Jaipur,"Mansarovar Sector-12, Jaipur - RSPCB",14-06-2024 17:00:00,26.843698,75.766894,NH3,NA,NA,NA
India,Rajasthan,Jaipur,"Mansarovar Sector-12, Jaipur - RSPCB",14-06-2024 17:00:00,26.843698,75.766894,OZONE,14,105,72
India,Rajasthan,Jaipur,"Police Commissionerate, Jaipur - RSPCB",14-06-2024 17:00:00,26.9164092,75.7994901,NO2,21,48,27
India,Rajasthan,Jaipur,"RIICO Sitapura, Jaipur - RSPCB",14-06-2024 17:00:00,26.786682,75.827928,NH3,4,29,15
India,Rajasthan,Jaipur,"RIICO Sitapura, Jaipur - RSPCB",14-06-2024 17:00:00,26.786682,75.827928,CO,8,103,15
India,Rajasthan,Jaipur,"Shastri Nagar, Jaipur - RSPCB",14-06-2024 17:00:00,26.9502929,75.730943,PM2.5,66,312,138
India,Rajasthan,Jaipur,"Shastri Nagar, Jaipur - RSPCB",14-06-2024 17:00:00,26.9502929,75.730943,CO,16,68,25
India,Rajasthan,Jaipur,"Shastri Nagar, Jaipur - RSPCB",14-06-2024 17:00:00,26.9502929,75.730943,OZONE,14,56,24
India,Rajasthan,Jalore,"Mudtra Sili, Jalore - RSPCB",14-06-2024 17:00:00,25.344694,72.626208,PM10,58,110,81
India,Rajasthan,Jalore,"Mudtra Sili, Jalore - RSPCB",14-06-2024 17:00:00,25.344694,72.626208,NH3,2,3,2
India,Rajasthan,Jhalawar,"Rajlaxmi Nagar, Jhalawar - RSPCB",14-06-2024 17:00:00,24.588397,76.172782,NH3,2,3,2
India,Rajasthan,Jhunjhunu,"Indra Nagar, Jhunjhunu - RSPCB",14-06-2024 17:00:00,28.108988,75.386577,PM10,50,487,132
India,Rajasthan,Jodhpur,"Jhalamand, Jodhpur - RSPCB",14-06-2024 17:00:00,26.215415,73.070156,PM10,55,87,67
India,Rajasthan,Jodhpur,"Jhalamand, Jodhpur - RSPCB",14-06-2024 17:00:00,26.215415,73.070156,NO2,1,15,6
India,Rajasthan,Jodhpur,"Mandor, Jodhpur - RSPCB",14-06-2024 17:00:00,26.358805,73.047444,PM10,57,76,66
India,Rajasthan,Jodhpur,"Mandor, Jodhpur - RSPCB",14-06-2024 17:00:00,26.358805,73.047444,NH3,3,6,5
India,Rajasthan,Jodhpur,"Mandor, Jodhpur - RSPCB",14-06-2024 17:00:00,26.358805,73.047444,SO2,3,13,6
India,Rajasthan,Kota,"Dhanmandi, Kota - RSPCB",14-06-2024 17:00:00,25.164090,75.858137,NH3,4,6,5
India,Rajasthan,Kota,"Shrinath Puram, Kota - RSPCB",14-06-2024 17:00:00,25.14389,75.821256,NH3,5,10,6
India,Rajasthan,Nagaur,"Karni Colony, Nagaur - RSPCB",14-06-2024 17:00:00,27.213494,73.734444,PM2.5,13,48,26
India,Rajasthan,Pali,"Indira Colony Vistar, Pali - RSPCB",14-06-2024 17:00:00,25.771061, 73.340227,PM2.5,31,132,73
India,Rajasthan,Rajsamand,"Dhoinda, Rajsamand - RSPCB",14-06-2024 17:00:00,25.036360,73.883502,PM10,29,71,45
India,Rajasthan,Rajsamand,"Dhoinda, Rajsamand - RSPCB",14-06-2024 17:00:00,25.036360,73.883502,SO2,2,5,4
India,Rajasthan,Rajsamand,"Dhoinda, Rajsamand - RSPCB",14-06-2024 17:00:00,25.036360,73.883502,CO,4,27,18
India,Rajasthan,Sawai Madhopur,"Sahu Nagar, Sawai Madhopur - RSPCB",14-06-2024 17:00:00,26.031443,76.359327,SO2,5,8,6
India,Rajasthan,Tonk,"Shastri Nagar, Tonk - RSPCB",14-06-2024 17:00:00,26.159933,75.780517,SO2,1,10,6
India,Rajasthan,Tonk,"Shastri Nagar, Tonk - RSPCB",14-06-2024 17:00:00,26.159933,75.780517,OZONE,13,68,46
India,Rajasthan,Udaipur,"Ashok Nagar, Udaipur - RSPCB",14-06-2024 17:00:00,24.5886166,73.6321397,OZONE,22,64,50
India,Sikkim,Gangtok,"Zero Point GICI, Gangtok - SSPCB",14-06-2024 17:00:00,27.338530,88.614099,SO2,12,12,12
India,TamilNadu,Chennai,"Alandur Bus Depot, Chennai - CPCB",14-06-2024 17:00:00,12.9099161,80.1076538,NH3,4,7,5
India,TamilNadu,Chennai,"Alandur Bus Depot, Chennai - CPCB",14-06-2024 17:00:00,12.9099161,80.1076538,SO2,1,13,7
India,TamilNadu,Chennai,"Arumbakkam, Chennai - TNPCB",14-06-2024 17:00:00,13.0664,80.2112 ,PM2.5,7,39,17
India,TamilNadu,Chennai,"Kodungaiyur, Chennai - TNPCB",14-06-2024 17:00:00,13.1278,80.2642,PM2.5,10,35,20
India,TamilNadu,Chennai,"Kodungaiyur, Chennai - TNPCB",14-06-2024 17:00:00,13.1278,80.2642,PM10,28,90,51
India,TamilNadu,Chennai,"Kodungaiyur, Chennai - TNPCB",14-06-2024 17:00:00,13.1278,80.2642,NO2,11,41,23
India,TamilNadu,Chennai,"Kodungaiyur, Chennai - TNPCB",14-06-2024 17:00:00,13.1278,80.2642,CO,18,56,41
India,TamilNadu,Chennai,"Kodungaiyur, Chennai - TNPCB",14-06-2024 17:00:00,13.1278,80.2642,OZONE,24,50,37
India,TamilNadu,Chennai,"Manali, Chennai - CPCB",14-06-2024 17:00:00,13.164544,80.26285,NO2,7,8,7
India,TamilNadu,Chennai,"Manali, Chennai - CPCB",14-06-2024 17:00:00,13.164544,80.26285,CO,64,130,85
India,TamilNadu,Chennai,"Manali, Chennai - CPCB",14-06-2024 17:00:00,13.164544,80.26285,OZONE,6,7,6
India,TamilNadu,Chennai,"Perungudi, Chennai - TNPCB",14-06-2024 17:00:00,12.9533,80.2357,PM10,17,112,50
India,TamilNadu,Chennai,"Perungudi, Chennai - TNPCB",14-06-2024 17:00:00,12.9533,80.2357,NO2,4,19,8
India,TamilNadu,Chennai,"Velachery Res. Area, Chennai - CPCB",14-06-2024 17:00:00,13.0052189,80.2398125,OZONE,35,132,90
India,TamilNadu,Coimbatore,"PSG College of Arts and Science, Coimbatore - TNPCB",14-06-2024 17:00:00,11.0328,77.0349,SO2,NA,NA,NA
India,TamilNadu,Coimbatore,"PSG College of Arts and Science, Coimbatore - TNPCB",14-06-2024 17:00:00,11.0328,77.0349,CO,6,12,10
India,TamilNadu,Gummidipoondi,"Anthoni Pillai Nagar, Gummidipoondi - TNPCB",14-06-2024 17:00:00,13.4127,80.1081,SO2,6,125,40
India,TamilNadu,Ooty,"Bombay Castel, Ooty - TNPCB",14-06-2024 17:00:00,11.4068288,76.7138973,SO2,16,17,17
India,TamilNadu,Ooty,"Bombay Castel, Ooty - TNPCB",14-06-2024 17:00:00,11.4068288,76.7138973,OZONE,4,5,5
India,TamilNadu,Ramanathapuram,"Chalai Bazaar, Ramanathapuram - TNPCB",14-06-2024 17:00:00,9.36399,78.831977,PM10,22,54,34
India,TamilNadu,Ramanathapuram,"Chalai Bazaar, Ramanathapuram - TNPCB",14-06-2024 17:00:00,9.36399,78.831977,CO,3,6,4
India,TamilNadu,Salem,"Sona College of Technology, Salem - TNPCB",14-06-2024 17:00:00,11.679111,78.125052,PM2.5,NA,NA,NA
India,TamilNadu,Salem,"Sona College of Technology, Salem - TNPCB",14-06-2024 17:00:00,11.679111,78.125052,PM10,NA,NA,NA
India,TamilNadu,Salem,"Sona College of Technology, Salem - TNPCB",14-06-2024 17:00:00,11.679111,78.125052,SO2,NA,NA,NA
India,TamilNadu,Thoothukudi,"Meelavittan, Thoothukudi - TNPCB",14-06-2024 17:00:00,8.816428 ,78.099039,NO2,27,43,34
India,TamilNadu,Thoothukudi,"Meelavittan, Thoothukudi - TNPCB",14-06-2024 17:00:00,8.816428 ,78.099039,OZONE,1,4,1
India,TamilNadu,Vellore,"Vasanthapuram, Vellore - TNPCB",14-06-2024 17:00:00,12.909494,79.131861,OZONE,45,48,45
India,TamilNadu,Virudhunagar,"Collectorate Office, Virudhunagar - TNPCB",14-06-2024 17:00:00,9.559382,77.948828,PM10,NA,NA,NA
India,TamilNadu,Virudhunagar,"Collectorate Office, Virudhunagar - TNPCB",14-06-2024 17:00:00,9.559382,77.948828,NO2,NA,NA,NA
India,Telangana,Hyderabad,"Bollaram Industrial Area, Hyderabad - TSPCB",14-06-2024 17:00:00,17.540891,78.358528,NO2,23,41,30
India,Telangana,Hyderabad,"Central University, Hyderabad - TSPCB",14-06-2024 17:00:00,17.460103,78.334361,PM2.5,5,35,13
India,Telangana,Hyderabad,"IITH Kandi, Hyderabad - TSPCB",14-06-2024 17:00:00,17.585705,78.126199,SO2,NA,NA,NA
India,Telangana,Hyderabad,"New Malakpet, Hyderabad - TSPCB",14-06-2024 17:00:00,17.37206,78.50864,PM2.5,25,54,37
India,Telangana,Hyderabad,"Sanathnagar, Hyderabad - TSPCB",14-06-2024 17:00:00,17.4559458,78.4332152,NO2,28,32,30
India,Telangana,Hyderabad,"Somajiguda, Hyderabad - TSPCB",14-06-2024 17:00:00,17.417094,78.457437,PM2.5,37,76,52
India,Telangana,Hyderabad,"Somajiguda, Hyderabad - TSPCB",14-06-2024 17:00:00,17.417094,78.457437,NO2,18,40,25
India,Telangana,Hyderabad,"Somajiguda, Hyderabad - TSPCB",14-06-2024 17:00:00,17.417094,78.457437,NH3,4,6,5
India,Tripura,Agartala,"Bardowali, Agartala - Tripura SPCB",14-06-2024 17:00:00,23.8175497,91.2726974,PM10,23,84,46
India,Tripura,Agartala,"Bardowali, Agartala - Tripura SPCB",14-06-2024 17:00:00,23.8175497,91.2726974,CO,12,19,17
India,Uttar_Pradesh,Agra,"Rohta, Agra - UPPCB",14-06-2024 17:00:00,27.106972,78.000111,NO2,5,6,6
India,Uttar_Pradesh,Agra,"Sanjay Palace, Agra - UPPCB",14-06-2024 17:00:00,27.19865833,78.00598056,NO2,9,14,12
India,Uttar_Pradesh,Agra,"Sanjay Palace, Agra - UPPCB",14-06-2024 17:00:00,27.19865833,78.00598056,SO2,4,13,9
India,Uttar_Pradesh,Agra,"Sector-3B Avas Vikas Colony, Agra - UPPCB",14-06-2024 17:00:00,27.19412,77.96237,PM10,30,178,60
India,Uttar_Pradesh,Agra,"Sector-3B Avas Vikas Colony, Agra - UPPCB",14-06-2024 17:00:00,27.19412,77.96237,OZONE,11,15,13
India,Uttar_Pradesh,Agra,"Shahjahan Garden, Agra - UPPCB",14-06-2024 17:00:00,27.169338,78.03582,NO2,18,19,19
India,Uttar_Pradesh,Agra,"Shastripuram, Agra - UPPCB",14-06-2024 17:00:00,27.19862,77.92066,OZONE,1,6,3
India,Uttar_Pradesh,Baghpat,"Sardar Patel Inter College, Baghpat - UPPCB",14-06-2024 17:00:00,28.964949,77.278761,PM10,134,406,213
India,Uttar_Pradesh,Baghpat,"Sardar Patel Inter College, Baghpat - UPPCB",14-06-2024 17:00:00,28.964949,77.278761,CO,32,66,56
India,Uttar_Pradesh,Bareilly,"Civil Lines, Bareilly - UPPCB",14-06-2024 17:00:00,28.359581,79.414455,NH3,NA,NA,NA
India,Uttar_Pradesh,Bareilly,"Civil Lines, Bareilly - UPPCB",14-06-2024 17:00:00,28.359581,79.414455,SO2,19,24,21
India,Uttar_Pradesh,Bulandshahr,"Yamunapuram, Bulandshahr - UPPCB",14-06-2024 17:00:00,28.406963,77.849831,SO2,18,33,23
India,Uttar_Pradesh,Bulandshahr,"Yamunapuram, Bulandshahr - UPPCB",14-06-2024 17:00:00,28.406963,77.849831,OZONE,11,108,57
India,Uttar_Pradesh,Firozabad,"Nagla Bhau, Firozabad - UPPCB",14-06-2024 17:00:00,27.168897,78.376960,NO2,17,17,17
India,Uttar_Pradesh,Firozabad,"Nagla Bhau, Firozabad - UPPCB",14-06-2024 17:00:00,27.168897,78.376960,SO2,17,23,18
India,Uttar_Pradesh,Firozabad,"Nagla Bhau, Firozabad - UPPCB",14-06-2024 17:00:00,27.168897,78.376960,CO,14,34,27
India,Uttar_Pradesh,Firozabad,"Nagla Bhau, Firozabad - UPPCB",14-06-2024 17:00:00,27.168897,78.376960,OZONE,15,22,16
India,Uttar_Pradesh,Firozabad,"Vibhab Nagar, Firozabad - UPPCB",14-06-2024 17:00:00,27.1594,78.3953,CO,11,16,13
India,Uttar_Pradesh,Ghaziabad,"Indirapuram, Ghaziabad - UPPCB",14-06-2024 17:00:00,28.646233,77.358075,NO2,28,107,51
India,Uttar_Pradesh,Ghaziabad,"Indirapuram, Ghaziabad - UPPCB",14-06-2024 17:00:00,28.646233,77.358075,NH3,8,23,12
India,Uttar_Pradesh,Ghaziabad,"Loni, Ghaziabad - UPPCB",14-06-2024 17:00:00,28.757294,77.278792,PM10,149,426,243
India,Uttar_Pradesh,Ghaziabad,"Sanjay Nagar, Ghaziabad - UPPCB",14-06-2024 17:00:00,28.685382,77.453839,PM10,108,400,188
India,Uttar_Pradesh,Ghaziabad,"Sanjay Nagar, Ghaziabad - UPPCB",14-06-2024 17:00:00,28.685382,77.453839,OZONE,3,115,57
India,Uttar_Pradesh,Ghaziabad,"Vasundhara, Ghaziabad - UPPCB",14-06-2024 17:00:00,28.6603346,77.3572563,PM2.5,18,56,33
India,Uttar_Pradesh,Ghaziabad,"Vasundhara, Ghaziabad - UPPCB",14-06-2024 17:00:00,28.6603346,77.3572563,NH3,7,17,11
India,Uttar_Pradesh,Gorakhpur,"Madan Mohan Malaviya University of Technology, Gorakhpur - UPPCB",14-06-2024 17:00:00,26.730136,83.433859,NH3,1,1,1
India,Uttar_Pradesh,Gorakhpur,"Madan Mohan Malaviya University of Technology, Gorakhpur - UPPCB",14-06-2024 17:00:00,26.730136,83.433859,SO2,21,22,21
India,Uttar_Pradesh,Greater Noida,"Knowledge Park - V, Greater Noida - UPPCB",14-06-2024 17:00:00,28.557054,77.453663,SO2,4,24,17
India,Uttar_Pradesh,Hapur,"Anand Vihar, Hapur - UPPCB",14-06-2024 17:00:00,28.725645,77.749675,NH3,12,22,15
India,Uttar_Pradesh,Hapur,"Anand Vihar, Hapur - UPPCB",14-06-2024 17:00:00,28.725645,77.749675,SO2,4,30,12
India,Uttar_Pradesh,Jhansi,"Shivaji Nagar, Jhansi - UPPCB",14-06-2024 17:00:00,25.4547,78.6039,OZONE,16,58,37
India,Uttar_Pradesh,Khurja,"Kalindi Kunj, Khurja - UPPCB",14-06-2024 17:00:00,28.2348927,77.8683002,NO2,15,22,18
India,Uttar_Pradesh,Khurja,"Kalindi Kunj, Khurja - UPPCB",14-06-2024 17:00:00,28.2348927,77.8683002,CO,18,32,23
India,Uttar_Pradesh,Lucknow,"B R Ambedkar University, Lucknow - UPPCB",14-06-2024 17:00:00,26.766433,80.927299,PM2.5,36,88,52
India,Uttar_Pradesh,Lucknow,"Kendriya Vidyalaya, Lucknow - CPCB",14-06-2024 17:00:00,26.906111,80.948222,NH3,3,17,12
India,Uttar_Pradesh,Lucknow,"Kendriya Vidyalaya, Lucknow - CPCB",14-06-2024 17:00:00,26.906111,80.948222,CO,4,48,27
India,Uttar_Pradesh,Lucknow,"Kendriya Vidyalaya, Lucknow - CPCB",14-06-2024 17:00:00,26.906111,80.948222,OZONE,36,124,85
India,Uttar_Pradesh,Lucknow,"Kukrail Picnic Spot-1, Lucknow - UPPCB",14-06-2024 17:00:00,26.90723,80.98579,PM2.5,26,57,44
India,Uttar_Pradesh,Lucknow,"Kukrail Picnic Spot-1, Lucknow - UPPCB",14-06-2024 17:00:00,26.90723,80.98579,SO2,34,37,35
India,Uttar_Pradesh,Lucknow,"Lalbagh, Lucknow - CPCB",14-06-2024 17:00:00,26.8458805,80.9365541,PM10,127,224,158
India,Uttar_Pradesh,Lucknow,"Lalbagh, Lucknow - CPCB",14-06-2024 17:00:00,26.8458805,80.9365541,NH3,16,17,17
India,Uttar_Pradesh,Lucknow,"Lalbagh, Lucknow - CPCB",14-06-2024 17:00:00,26.8458805,80.9365541,OZONE,6,36,21
India,Uttar_Pradesh,Lucknow,"Talkatora District Industries Center, Lucknow - CPCB",14-06-2024 17:00:00,26.83399722,80.8917361,PM2.5,88,204,151
India,Uttar_Pradesh,Meerut,"Jai Bhim Nagar, Meerut - UPPCB",14-06-2024 17:00:00,28.9535882,77.7622941,PM2.5,39,114,62
India,Uttar_Pradesh,Meerut,"Jai Bhim Nagar, Meerut - UPPCB",14-06-2024 17:00:00,28.9535882,77.7622941,PM10,156,500,295
India,Uttar_Pradesh,Meerut,"Pallavpuram Phase 2, Meerut - UPPCB",14-06-2024 17:00:00,29.063510,77.709723,PM10,104,294,173
India,Uttar_Pradesh,Moradabad,"Buddhi Vihar, Moradabad - UPPCB",14-06-2024 17:00:00,28.83526,78.74460,NH3,3,3,3
India,Uttar_Pradesh,Moradabad,"Eco Herbal Park, Moradabad - UPPCB",14-06-2024 17:00:00,28.840739,78.697531,PM10,85,141,119
India,Uttar_Pradesh,Moradabad,"Eco Herbal Park, Moradabad - UPPCB",14-06-2024 17:00:00,28.840739,78.697531,NO2,9,52,24
India,Uttar_Pradesh,Moradabad,"Eco Herbal Park, Moradabad - UPPCB",14-06-2024 17:00:00,28.840739,78.697531,NH3,6,19,9
India,Uttar_Pradesh,Moradabad,"Employment Office, Moradabad - UPPCB",14-06-2024 17:00:00,28.88528,78.73880,CO,15,54,23
India,Uttar_Pradesh,Moradabad,"Jigar Colony, Moradabad - UPPCB",14-06-2024 17:00:00,28.856664,78.772638,PM2.5,29,69,53
India,Uttar_Pradesh,Moradabad,"Jigar Colony, Moradabad - UPPCB",14-06-2024 17:00:00,28.856664,78.772638,NH3,6,6,6
India,Uttar_Pradesh,Moradabad,"Jigar Colony, Moradabad - UPPCB",14-06-2024 17:00:00,28.856664,78.772638,CO,14,40,30
India,Uttar_Pradesh,Moradabad,"Kashiram Nagar, Moradabad - UPPCB",14-06-2024 17:00:00,28.849399,78.742362,PM10,78,151,124
India,Uttar_Pradesh,Moradabad,"Transport Nagar, Moradabad - UPPCB",14-06-2024 17:00:00,28.802625,78.753728,NO2,4,5,4
India,Uttar_Pradesh,Muzaffarnagar,"New Mandi, Muzaffarnagar - UPPCB",14-06-2024 17:00:00,29.4723508,77.7194031,SO2,10,51,28
India,Uttar_Pradesh,Noida,"Sector - 125, Noida - UPPCB",14-06-2024 17:00:00,28.5447608,77.3231257,PM2.5,35,155,62
India,Uttar_Pradesh,Noida,"Sector - 125, Noida - UPPCB",14-06-2024 17:00:00,28.5447608,77.3231257,CO,7,56,39
India,Uttar_Pradesh,Noida,"Sector-1, Noida - UPPCB",14-06-2024 17:00:00,28.5898,77.3101,NO2,14,125,38
India,Uttar_Pradesh,Noida,"Sector-1, Noida - UPPCB",14-06-2024 17:00:00,28.5898,77.3101,OZONE,10,114,64
India,Uttar_Pradesh,Noida,"Sector-116, Noida - UPPCB",14-06-2024 17:00:00,28.569230,77.393848,PM10,113,305,194
India,Uttar_Pradesh,Noida,"Sector-116, Noida - UPPCB",14-06-2024 17:00:00,28.569230,77.393848,CO,12,138,51
India,Uttar_Pradesh,Noida,"Sector-116, Noida - UPPCB",14-06-2024 17:00:00,28.569230,77.393848,OZONE,9,108,60
India,Uttar_Pradesh,Prayagraj,"Jhunsi, Prayagraj - UPPCB",14-06-2024 17:00:00,25.425602,81.917152,CO,1,6,1
India,Uttar_Pradesh,Prayagraj,"Nagar Nigam, Prayagraj - UPPCB",14-06-2024 17:00:00,25.44919916 ,81.82735986 ,NH3,3,4,4
India,Uttar_Pradesh,Varanasi,"Ardhali Bazar, Varanasi - UPPCB",14-06-2024 17:00:00,25.3505986,82.9083074,OZONE,20,22,21
India,Uttar_Pradesh,Varanasi,"Bhelupur, Varanasi - UPPCB",14-06-2024 17:00:00,25.301778,82.996789,PM2.5,5,14,8
India,Uttar_Pradesh,Varanasi,"Maldahiya, Varanasi - UPPCB",14-06-2024 17:00:00,25.32393,82.99687,NO2,1,2,2
India,Uttar_Pradesh,Varanasi,"Maldahiya, Varanasi - UPPCB",14-06-2024 17:00:00,25.32393,82.99687,NH3,1,1,1
India,Uttar_Pradesh,Varanasi,"Maldahiya, Varanasi - UPPCB",14-06-2024 17:00:00,25.32393,82.99687,SO2,28,40,30
India,Uttar_Pradesh,Varanasi,"Maldahiya, Varanasi - UPPCB",14-06-2024 17:00:00,25.32393,82.99687,OZONE,1,14,10
India,Uttarakhand,Dehradun,"Doon University, Dehradun - UKPCB",14-06-2024 17:00:00,30.269444,78.044167,SO2,3,11,5
India,Uttarakhand,Dehradun,"Doon University, Dehradun - UKPCB",14-06-2024 17:00:00,30.269444,78.044167,CO,22,41,31
India,Uttarakhand,Kashipur,"Govt. Girls Inter College, Kashipur - UKPCB",14-06-2024 17:00:00,29.2124114,78.9611753,NH3,3,5,4
India,Uttarakhand,Rishikesh,"Shivaji Nagar, Rishikesh - UKPCB",14-06-2024 17:00:00,30.075911,78.2859547,SO2,2,7,4
India,West_Bengal,Asansol,"Asansol Court Area, Asansol - WBPCB",14-06-2024 17:00:00,23.685297,86.945968,NO2,33,63,42
India,West_Bengal,Asansol,"Asansol Court Area, Asansol - WBPCB",14-06-2024 17:00:00,23.685297,86.945968,CO,18,48,37
India,West_Bengal,Asansol,"Asansol Court Area, Asansol - WBPCB",14-06-2024 17:00:00,23.685297,86.945968,OZONE,11,86,56
India,West_Bengal,Asansol,"Evelyn Lodge, Asansol - WBPCB",14-06-2024 17:00:00,23.6979360,86.9443950,PM10,65,175,113
India,West_Bengal,Barrackpore,"SVSPA Campus, Barrackpore - WBPCB",14-06-2024 17:00:00,22.7605581,88.3617589,PM10,62,125,89
India,West_Bengal,Durgapur,"PCBL Residential Complex, Durgapur - WBPCB",14-06-2024 17:00:00,23.5087640,87.3544400,NO2,NA,NA,NA
India,West_Bengal,Durgapur,"PCBL Residential Complex, Durgapur - WBPCB",14-06-2024 17:00:00,23.5087640,87.3544400,OZONE,78,110,100
India,West_Bengal,Durgapur,"Sidhu Kanhu Indoor Stadium, Durgapur - WBPCB",14-06-2024 17:00:00,23.5404352,87.2892225,NO2,16,40,24
India,West_Bengal,Durgapur,"Sidhu Kanhu Indoor Stadium, Durgapur - WBPCB",14-06-2024 17:00:00,23.5404352,87.2892225,SO2,16,83,38
India,West_Bengal,Haldia,"Priyambada Housing Estate, Haldia - WBPCB",14-06-2024 17:00:00,22.06047,88.109737,PM2.5,18,42,28
India,West_Bengal,Howrah,"Belur Math, Howrah - WBPCB",14-06-2024 17:00:00,22.629801,88.352017,PM2.5,26,93,47
India,West_Bengal,Howrah,"Belur Math, Howrah - WBPCB",14-06-2024 17:00:00,22.629801,88.352017,NO2,1,14,7
India,West_Bengal,Howrah,"Belur Math, Howrah - WBPCB",14-06-2024 17:00:00,22.629801,88.352017,CO,2,24,16
India,West_Bengal,Howrah,"Belur Math, Howrah - WBPCB",14-06-2024 17:00:00,22.629801,88.352017,OZONE,25,65,46
India,West_Bengal,Howrah,"Botanical Garden, Howrah - WBPCB",14-06-2024 17:00:00,22.554954,88.292568,PM2.5,NA,NA,NA
India,West_Bengal,Howrah,"Botanical Garden, Howrah - WBPCB",14-06-2024 17:00:00,22.554954,88.292568,OZONE,69,108,100
India,West_Bengal,Howrah,"Ghusuri, Howrah - WBPCB",14-06-2024 17:00:00,22.611968,88.347422,NO2,22,23,23
India,West_Bengal,Howrah,"Ghusuri, Howrah - WBPCB",14-06-2024 17:00:00,22.611968,88.347422,NH3,6,6,6
India,West_Bengal,Howrah,"Ghusuri, Howrah - WBPCB",14-06-2024 17:00:00,22.611968,88.347422,SO2,3,6,5
India,West_Bengal,Howrah,"Ghusuri, Howrah - WBPCB",14-06-2024 17:00:00,22.611968,88.347422,CO,14,28,24
India,West_Bengal,Howrah,"Padmapukur, Howrah - WBPCB",14-06-2024 17:00:00,22.5687319,88.2797276,NO2,23,39,28
India,West_Bengal,Howrah,"Padmapukur, Howrah - WBPCB",14-06-2024 17:00:00,22.5687319,88.2797276,CO,3,66,29
India,West_Bengal,Kolkata,"Ballygunge, Kolkata - WBPCB",14-06-2024 17:00:00,22.5367507,88.3638022,NH3,6,7,6
India,West_Bengal,Kolkata,"Ballygunge, Kolkata - WBPCB",14-06-2024 17:00:00,22.5367507,88.3638022,CO,14,32,28
India,West_Bengal,Kolkata,"Bidhannagar, Kolkata - WBPCB",14-06-2024 17:00:00,22.58157048,88.41002457,PM2.5,27,74,44
India,West_Bengal,Kolkata,"Fort William, Kolkata - WBPCB",14-06-2024 17:00:00,22.556640,88.342674,PM2.5,NA,NA,NA
India,West_Bengal,Kolkata,"Fort William, Kolkata - WBPCB",14-06-2024 17:00:00,22.556640,88.342674,NH3,1,1,1
India,West_Bengal,Kolkata,"Jadavpur, Kolkata - WBPCB",14-06-2024 17:00:00,22.49929,88.36917,NO2,12,14,13
India,West_Bengal,Kolkata,"Rabindra Bharati University, Kolkata - WBPCB",14-06-2024 17:00:00,22.627847,88.380669,NO2,9,14,12
India,West_Bengal,Kolkata,"Rabindra Sarobar, Kolkata - WBPCB",14-06-2024 17:00:00,22.51106,88.35142,SO2,6,9,8
India,West_Bengal,Kolkata,"Rabindra Sarobar, Kolkata - WBPCB",14-06-2024 17:00:00,22.51106,88.35142,CO,19,31,28
India,West_Bengal,Kolkata,"Rabindra Sarobar, Kolkata - WBPCB",14-06-2024 17:00:00,22.51106,88.35142,OZONE,25,71,51
India,West_Bengal,Kolkata,"Victoria, Kolkata - WBPCB",14-06-2024 17:00:00,22.5448082,88.3403691,NO2,NA,NA,NA
India,West_Bengal,Kolkata,"Victoria, Kolkata - WBPCB",14-06-2024 17:00:00,22.5448082,88.3403691,CO,21,29,24
India,West_Bengal,Siliguri,"Ward-32 Bapupara, Siliguri - WBPCB",14-06-2024 17:00:00,26.6879226,88.4152495,PM10,20,51,34
India,Andhra_Pradesh,Amaravati,"Secretariat, Amaravati - APPCB",14-06-2024 17:00:00,16.5150833,80.5181667,NO2,5,26,9
India,Andhra_Pradesh,Amaravati,"Secretariat, Amaravati - APPCB",14-06-2024 17:00:00,16.5150833,80.5181667,CO,9,64,37
India,Andhra_Pradesh,Amaravati,"Secretariat, Amaravati - APPCB",14-06-2024 17:00:00,16.5150833,80.5181667,OZONE,3,35,22
India,Andhra_Pradesh,Chittoor,"Gangineni Cheruvu, Chittoor - APPCB",14-06-2024 17:00:00,13.204880,79.097889,PM2.5,17,75,41
India,Andhra_Pradesh,Chittoor,"Gangineni Cheruvu, Chittoor - APPCB",14-06-2024 17:00:00,13.204880,79.097889,CO,20,30,26
India,Andhra_Pradesh,Kadapa,"Yerramukkapalli, Kadapa - APPCB",14-06-2024 17:00:00,14.465052,78.824187,PM2.5,NA,NA,NA
India,Andhra_Pradesh,Tirupati,"Tirumala, Tirupati - APPCB",14-06-2024 17:00:00,13.67,79.35,NO2,11,23,18
India,Andhra_Pradesh,Tirupati,"Tirumala, Tirupati - APPCB",14-06-2024 17:00:00,13.67,79.35,CO,30,50,42
India,Andhra_Pradesh,Vijayawada,"HB Colony, Vijayawada - APPCB",14-06-2024 17:00:00,16.536107,80.594233,SO2,6,7,6
India,Andhra_Pradesh,Vijayawada,"Rajiv Gandhi Park, Vijayawada - APPCB",14-06-2024 17:00:00,16.509717,80.612222,PM2.5,40,61,52
India,Andhra_Pradesh,Vijayawada,"Rajiv Gandhi Park, Vijayawada - APPCB",14-06-2024 17:00:00,16.509717,80.612222,NO2,22,72,34
India,Andhra_Pradesh,Vijayawada,"Rajiv Gandhi Park, Vijayawada - APPCB",14-06-2024 17:00:00,16.509717,80.612222,OZONE,3,56,32
India,Andhra_Pradesh,Vijayawada,"Rajiv Nagar, Vijayawada - APPCB",14-06-2024 17:00:00,16.554731,80.649110,PM2.5,47,140,58
India,Andhra_Pradesh,Visakhapatnam,"GVM Corporation, Visakhapatnam - APPCB",14-06-2024 17:00:00,17.72,83.3,PM2.5,32,82,57
India,Andhra_Pradesh,Visakhapatnam,"GVM Corporation, Visakhapatnam - APPCB",14-06-2024 17:00:00,17.72,83.3,NO2,27,69,49
India,Andhra_Pradesh,Visakhapatnam,"GVM Corporation, Visakhapatnam - APPCB",14-06-2024 17:00:00,17.72,83.3,CO,13,72,22
India,Andhra_Pradesh,Visakhapatnam,"GVM Corporation, Visakhapatnam - APPCB",14-06-2024 17:00:00,17.72,83.3,OZONE,1,39,29
India,Assam,Byrnihat,"Central Academy for SFS, Byrnihat - PCBA",14-06-2024 17:00:00,26.071318,91.87488,NO2,5,18,9
India,Assam,Guwahati,"LGBI Airport, Guwahati - PCBA",14-06-2024 17:00:00,26.10887,91.589544,PM10,5,365,84
India,Assam,Guwahati,"Pan Bazaar, Guwahati - PCBA",14-06-2024 17:00:00,26.187500,91.744194,NO2,NA,NA,NA
India,Assam,Nagaon,"Christianpatty, Nagaon - PCBA",14-06-2024 17:00:00,26.349082,92.68449,SO2,7,13,10
India,Assam,Nalbari,"Bata Chowk, Nalbari - PCBA",14-06-2024 17:00:00,26.446912,91.439057,OZONE,21,37,29
India,Assam,Silchar,"Tarapur, Silchar - PCBA",14-06-2024 17:00:00,24.82827,92.79525,PM2.5,26,33,27
India,Assam,Silchar,"Tarapur, Silchar - PCBA",14-06-2024 17:00:00,24.82827,92.79525,SO2,1,6,3
India,Bihar,Arrah,"New DM Office, Arrah - BSPCB",14-06-2024 17:00:00,25.5626095,84.663264,NO2,9,12,10
India,Bihar,Aurangabad,"Gurdeo Nagar, Aurangabad - BSPCB",14-06-2024 17:00:00,24.75746,84.366208,SO2,3,19,15
India,Bihar,Bettiah,"Kamalnath Nagar, Bettiah - BSPCB",14-06-2024 17:00:00,26.80365,84.51954,PM2.5,NA,NA,NA
India,Bihar,Bettiah,"Kamalnath Nagar, Bettiah - BSPCB",14-06-2024 17:00:00,26.80365,84.51954,PM10,NA,NA,NA
India,Bihar,Bhagalpur,"DM Office_Kachari Chowk, Bhagalpur - BSPCB",14-06-2024 17:00:00,25.251013,86.989001,SO2,18,20,19
India,Bihar,Bhagalpur,"DM Office_Kachari Chowk, Bhagalpur - BSPCB",14-06-2024 17:00:00,25.251013,86.989001,OZONE,44,49,47
India,Bihar,Bhagalpur,"Mayaganj, Bhagalpur - BSPCB",14-06-2024 17:00:00,25.265194,87.012947,PM2.5,75,325,191
India,Bihar,Bhagalpur,"Mayaganj, Bhagalpur - BSPCB",14-06-2024 17:00:00,25.265194,87.012947,CO,18,58,25
India,Bihar,Chhapra,"Darshan Nagar, Chhapra - BSPCB",14-06-2024 17:00:00,25.7808257,84.7446768,NO2,1,1,1
India,Bihar,Chhapra,"Darshan Nagar, Chhapra - BSPCB",14-06-2024 17:00:00,25.7808257,84.7446768,SO2,1,1,1
India,Bihar,Chhapra,"Darshan Nagar, Chhapra - BSPCB",14-06-2024 17:00:00,25.7808257,84.7446768,CO,28,50,39
India,Bihar,Gaya,"SFTI Kusdihra, Gaya - BSPCB",14-06-2024 17:00:00,24.762518,84.982348,SO2,6,9,7
India,Bihar,Katihar,"Mirchaibari, Katihar - BSPCB",14-06-2024 17:00:00,25.560083,87.553265,NO2,3,4,4
India,Bihar,Manguraha,"Forest Rest House, Manguraha - BSPCB",14-06-2024 17:00:00,27.308328,84.531742,PM2.5,28,93,46
India,Bihar,Manguraha,"Forest Rest House, Manguraha - BSPCB",14-06-2024 17:00:00,27.308328,84.531742,SO2,2,3,3
India,Bihar,Manguraha,"Forest Rest House, Manguraha - BSPCB",14-06-2024 17:00:00,27.308328,84.531742,OZONE,8,39,23
India,Bihar,Motihari,"Gandak Colony, Motihari - BSPCB",14-06-2024 17:00:00,26.63086,84.90051,PM10,42,111,87
India,Bihar,Motihari,"Gandak Colony, Motihari - BSPCB",14-06-2024 17:00:00,26.63086,84.90051,CO,4,20,12
India,Bihar,Motihari,"Gandak Colony, Motihari - BSPCB",14-06-2024 17:00:00,26.63086,84.90051,OZONE,17,56,32
India,Bihar,Munger,"Town Hall, Munger - BSPCB",14-06-2024 17:00:00,25.376776,86.471523,PM10,54,500,208
India,Bihar,Munger,"Town Hall, Munger - BSPCB",14-06-2024 17:00:00,25.376776,86.471523,SO2,12,36,22
India,Bihar,Munger,"Town Hall, Munger - BSPCB",14-06-2024 17:00:00,25.376776,86.471523,OZONE,26,34,30
India,Bihar,Muzaffarpur,"Buddha Colony, Muzaffarpur - BSPCB",14-06-2024 17:00:00,26.11442,85.39813,NH3,6,11,8
India,Bihar,Muzaffarpur,"Buddha Colony, Muzaffarpur - BSPCB",14-06-2024 17:00:00,26.11442,85.39813,CO,15,27,25
India,Bihar,Patna,"DRM Office Danapur, Patna - BSPCB",14-06-2024 17:00:00,25.586562,85.043586,NH3,2,3,3
India,Bihar,Patna,"Govt. High School Shikarpur, Patna - BSPCB",14-06-2024 17:00:00,25.592539,85.227158,PM2.5,30,84,61
India,Bihar,Patna,"Muradpur, Patna - BSPCB",14-06-2024 17:00:00,25.619651,85.147382,PM2.5,98,307,189
India,Bihar,Patna,"Muradpur, Patna - BSPCB",14-06-2024 17:00:00,25.619651,85.147382,PM10,136,276,182
India,Bihar,Patna,"Muradpur, Patna - BSPCB",14-06-2024 17:00:00,25.619651,85.147382,CO,36,78,69
India,Bihar,Saharsa,"Police Line, Saharsa - BSPCB",14-06-2024 17:00:00,25.892357,86.590325,PM2.5,30,70,46
India,Bihar,Saharsa,"Police Line, Saharsa - BSPCB",14-06-2024 17:00:00,25.892357,86.590325,NO2,6,9,7
India,Bihar,Samastipur,"DM Office_Kasipur, Samastipur - BSPCB",14-06-2024 17:00:00,25.859655,85.77944,PM10,48,134,91
India,Bihar,Samastipur,"DM Office_Kasipur, Samastipur - BSPCB",14-06-2024 17:00:00,25.859655,85.77944,NO2,4,5,4
India,Bihar,Sasaram,"Dada Peer, Sasaram - BSPCB",14-06-2024 17:00:00,24.952822,84.002396,NO2,1,50,17
India,Chandigarh,Chandigarh,"Sector 22, Chandigarh - CPCC",14-06-2024 17:00:00,30.735567,76.775714,PM2.5,43,167,89
India,Chandigarh,Chandigarh,"Sector 22, Chandigarh - CPCC",14-06-2024 17:00:00,30.735567,76.775714,NO2,22,71,37
India,Chandigarh,Chandigarh,"Sector 22, Chandigarh - CPCC",14-06-2024 17:00:00,30.735567,76.775714,NH3,4,24,10
India,Chandigarh,Chandigarh,"Sector-25, Chandigarh - CPCC",14-06-2024 17:00:00,30.751462,76.762879,CO,12,52,18
India,Chandigarh,Chandigarh,"Sector-25, Chandigarh - CPCC",14-06-2024 17:00:00,30.751462,76.762879,OZONE,10,54,37
India,Chandigarh,Chandigarh,"Sector-53, Chandigarh - CPCC",14-06-2024 17:00:00,30.719859,76.738637,PM2.5,40,233,79
India,Chandigarh,Chandigarh,"Sector-53, Chandigarh - CPCC",14-06-2024 17:00:00,30.719859,76.738637,SO2,6,20,12
India,Chandigarh,Chandigarh,"Sector-53, Chandigarh - CPCC",14-06-2024 17:00:00,30.719859,76.738637,CO,35,75,38
India,Chhattisgarh,Bhilai,"32Bungalows, Bhilai - CECB",14-06-2024 17:00:00,21.194815,81.314770,PM10,40,86,66
India,Chhattisgarh,Bhilai,"32Bungalows, Bhilai - CECB",14-06-2024 17:00:00,21.194815,81.314770,OZONE,9,56,31
India,Chhattisgarh,Bhilai,"Civic Center, Bhilai - Bhilai Steel Plant",14-06-2024 17:00:00,21.185571,81.343175,PM2.5,23,39,29
India,Chhattisgarh,Bhilai,"Civic Center, Bhilai - Bhilai Steel Plant",14-06-2024 17:00:00,21.185571,81.343175,NO2,7,8,8
India,Chhattisgarh,Bhilai,"Hathkhoj, Bhilai - CECB",14-06-2024 17:00:00,21.224231,81.408350,NO2,4,21,8
India,Chhattisgarh,Bhilai,"Hathkhoj, Bhilai - CECB",14-06-2024 17:00:00,21.224231,81.408350,SO2,9,12,11
India,Chhattisgarh,Bilaspur,"Mangala, Bilaspur - NTPC",14-06-2024 17:00:00,22.08815,82.13737,PM10,44,62,53
India,Chhattisgarh,Korba,"Rampur, Korba - CECB",14-06-2024 17:00:00,22.368195,82.746431,NH3,NA,NA,NA
India,Chhattisgarh,Korba,"Urja Nagar, Korba - CECB",14-06-2024 17:00:00,22.348441,82.549611,PM2.5,NA,NA,NA
India,Chhattisgarh,Kunjemura,"OP Jindal School, Kunjemura - CECB",14-06-2024 17:00:00,22.126650,83.483212,CO,26,94,32
India,Chhattisgarh,Milupara,"Govt. Higher Secondary School, Milupara - CECB",14-06-2024 17:00:00,22.1910172,83.5197009,NH3,NA,NA,NA
India,Chhattisgarh,Milupara,"Govt. Higher Secondary School, Milupara - CECB",14-06-2024 17:00:00,22.1910172,83.5197009,SO2,2,34,15
India,Chhattisgarh,Raipur,"Bhatagaon New ISBT, Raipur - CECB",14-06-2024 17:00:00,21.219665,81.630094,PM2.5,30,68,48
India,Chhattisgarh,Raipur,"Bhatagaon New ISBT, Raipur - CECB",14-06-2024 17:00:00,21.219665,81.630094,OZONE,4,10,6
India,Chhattisgarh,Raipur,"Krishak Nagar, Raipur - CECB",14-06-2024 17:00:00,21.237755,81.705301,CO,15,30,20
India,Chhattisgarh,Raipur,"Krishak Nagar, Raipur - CECB",14-06-2024 17:00:00,21.237755,81.705301,OZONE,10,47,32
India,Chhattisgarh,Tumidih,"OP Jindal Industrial Park, Tumidih - CECB",14-06-2024 17:00:00,22.06631475,83.33820077,PM10,NA,NA,NA
India,Delhi,Delhi,"Alipur, Delhi - DPCC",14-06-2024 17:00:00,28.815329,77.153010,SO2,3,36,16
India,Delhi,Delhi,"Anand Vihar, Delhi - DPCC",14-06-2024 17:00:00,28.647622,77.3158090,PM2.5,50,310,155
India,Delhi,Delhi,"Anand Vihar, Delhi - DPCC",14-06-2024 17:00:00,28.647622,77.3158090,NO2,51,116,78
India,Delhi,Delhi,"Anand Vihar, Delhi - DPCC",14-06-2024 17:00:00,28.647622,77.3158090,SO2,6,33,18
India,Delhi,Delhi,"Anand Vihar, Delhi - DPCC",14-06-2024 17:00:00,28.647622,77.3158090,OZONE,79,140,100
India,Delhi,Delhi,"Ashok Vihar, Delhi - DPCC",14-06-2024 17:00:00,28.695381,77.181665,OZONE,34,128,65
India,Delhi,Delhi,"Aya Nagar, Delhi - IMD",14-06-2024 17:00:00,28.4706914,77.1099364,OZONE,13,44,26
India,Delhi,Delhi,"Bawana, Delhi - DPCC",14-06-2024 17:00:00,28.776200,77.051074,NH3,2,7,3
India,Delhi,Delhi,"Burari Crossing, Delhi - IMD",14-06-2024 17:00:00,28.7256504,77.2011573,PM2.5,45,166,81
India,Delhi,Delhi,"Burari Crossing, Delhi - IMD",14-06-2024 17:00:00,28.7256504,77.2011573,CO,16,42,17
India,Delhi,Delhi,"CRRI Mathura Road, Delhi - IMD",14-06-2024 17:00:00,28.5512005,77.2735737,CO,19,66,25
India,Delhi,Delhi,"DTU, Delhi - CPCB",14-06-2024 17:00:00,28.7500499,77.1112615,OZONE,43,131,72
India,Delhi,Delhi,"Dr. Karni Singh Shooting Range, Delhi - DPCC",14-06-2024 17:00:00,28.498571,77.264840,NO2,20,58,30
India,Delhi,Delhi,"Dr. Karni Singh Shooting Range, Delhi - DPCC",14-06-2024 17:00:00,28.498571,77.264840,OZONE,59,239,161
India,Delhi,Delhi,"Dwarka-Sector 8, Delhi - DPCC ",14-06-2024 17:00:00,28.5710274,77.0719006,NO2,12,70,27
India,Delhi,Delhi,"Dwarka-Sector 8, Delhi - DPCC ",14-06-2024 17:00:00,28.5710274,77.0719006,SO2,10,27,15
India,Delhi,Delhi,"Dwarka-Sector 8, Delhi - DPCC ",14-06-2024 17:00:00,28.5710274,77.0719006,CO,22,52,28
India,Delhi,Delhi,"IGI Airport (T3), Delhi - IMD",14-06-2024 17:00:00,28.5627763,77.1180053,PM10,78,180,125
India,Delhi,Delhi,"IHBAS, Dilshad Garden, Delhi - CPCB",14-06-2024 17:00:00,28.6811736,77.3025234,PM2.5,80,303,169
India,Delhi,Delhi,"ITO, Delhi - CPCB",14-06-2024 17:00:00,28.628624,77.241060,PM2.5,52,133,80
India,Delhi,Delhi,"ITO, Delhi - CPCB",14-06-2024 17:00:00,28.628624,77.241060,NH3,4,6,5
India,Delhi,Delhi,"ITO, Delhi - CPCB",14-06-2024 17:00:00,28.628624,77.241060,SO2,6,19,11
India,Delhi,Delhi,"ITO, Delhi - CPCB",14-06-2024 17:00:00,28.628624,77.241060,CO,32,84,47
India,Delhi,Delhi,"Lodhi Road, Delhi - IMD",14-06-2024 17:00:00,28.5918245,77.2273074,NO2,3,16,6
India,Delhi,Delhi,"Lodhi Road, Delhi - IMD",14-06-2024 17:00:00,28.5918245,77.2273074,OZONE,8,38,22
India,Delhi,Delhi,"Major Dhyan Chand National Stadium, Delhi - DPCC",14-06-2024 17:00:00,28.611281,77.237738,PM2.5,47,120,74
India,Delhi,Delhi,"Mandir Marg, Delhi - DPCC",14-06-2024 17:00:00,28.636429,77.201067,NO2,56,96,73
India,Delhi,Delhi,"Mandir Marg, Delhi - DPCC",14-06-2024 17:00:00,28.636429,77.201067,CO,25,44,37
India,Delhi,Delhi,"Mundka, Delhi - DPCC",14-06-2024 17:00:00,28.684678,77.076574,PM10,123,402,249
India,Delhi,Delhi,"NSIT Dwarka, Delhi - CPCB",14-06-2024 17:00:00,28.60909,77.0325413,NH3,5,6,5
India,Delhi,Delhi,"NSIT Dwarka, Delhi - CPCB",14-06-2024 17:00:00,28.60909,77.0325413,SO2,12,51,23
India,Delhi,Delhi,"Najafgarh, Delhi - DPCC",14-06-2024 17:00:00,28.570173,76.933762,SO2,14,22,18
India,Delhi,Delhi,"Nehru Nagar, Delhi - DPCC",14-06-2024 17:00:00,28.567890,77.250515,NH3,3,9,5
India,Delhi,Delhi,"Okhla Phase-2, Delhi - DPCC",14-06-2024 17:00:00,28.530785,77.271255,CO,34,104,64
India,Delhi,Delhi,"Patparganj, Delhi - DPCC",14-06-2024 17:00:00,28.623763,77.287209,NH3,6,9,7
India,Delhi,Delhi,"Pusa, Delhi - DPCC",14-06-2024 17:00:00,28.639652,77.146275,NH3,5,8,6
India,Delhi,Delhi,"R K Puram, Delhi - DPCC",14-06-2024 17:00:00,28.563262,77.186937,NO2,16,118,42
India,Delhi,Delhi,"R K Puram, Delhi - DPCC",14-06-2024 17:00:00,28.563262,77.186937,SO2,2,21,12
India,Delhi,Delhi,"Rohini, Delhi - DPCC",14-06-2024 17:00:00,28.732528,77.119920,SO2,11,30,19
India,Delhi,Delhi,"Shadipur, Delhi - CPCB",14-06-2024 17:00:00,28.6514781,77.1473105,NO2,76,161,109
India,Delhi,Delhi,"Sirifort, Delhi - CPCB",14-06-2024 17:00:00,28.5504249,77.2159377,NO2,29,80,55
India,Delhi,Delhi,"Sri Aurobindo Marg, Delhi - DPCC",14-06-2024 17:00:00,28.531346,77.190156,PM10,111,311,184
India,Delhi,Delhi,"Vivek Vihar, Delhi - DPCC",14-06-2024 17:00:00,28.672342,77.315260,NO2,9,106,32
India,Delhi,Delhi,"Wazirpur, Delhi - DPCC",14-06-2024 17:00:00,28.699793,77.165453,CO,4,102,28
India,Gujarat,Ahmedabad,"Chandkheda, Ahmedabad - IITM",14-06-2024 17:00:00,23.107969,72.574648,PM10,21,123,57
India,Gujarat,Ahmedabad,"Chandkheda, Ahmedabad - IITM",14-06-2024 17:00:00,23.107969,72.574648,OZONE,50,73,51
India,Gujarat,Ahmedabad,"Raikhad, Ahmedabad - IITM",14-06-2024 17:00:00,23.020509,72.579261,PM2.5,45,231,94
India,Gujarat,Ahmedabad,"SVPI Airport Hansol, Ahmedabad - IITM",14-06-2024 17:00:00,23.076793,72.627874,CO,11,36,25
India,Gujarat,Ahmedabad,"Sardar Vallabhbhai Patel Stadium, Ahmedabad - IITM",14-06-2024 17:00:00,23.043070,72.562968,PM2.5,32,134,66
India,Gujarat,Ahmedabad,"Sardar Vallabhbhai Patel Stadium, Ahmedabad - IITM",14-06-2024 17:00:00,23.043070,72.562968,SO2,NA,NA,NA
India,Gujarat,Ahmedabad,"Sardar Vallabhbhai Patel Stadium, Ahmedabad - IITM",14-06-2024 17:00:00,23.043070,72.562968,OZONE,41,72,53
India,Gujarat,Ankleshwar,"GIDC, Ankleshwar - GPCB",14-06-2024 17:00:00,21.613267,73.010555,PM2.5,NA,NA,NA
India,Gujarat,Ankleshwar,"GIDC, Ankleshwar - GPCB",14-06-2024 17:00:00,21.613267,73.010555,CO,12,44,21
India,Gujarat,Gandhinagar,"GIFT City, Gandhinagar - IITM",14-06-2024 17:00:00,23.163798,72.677768,SO2,NA,NA,NA
India,Gujarat,Gandhinagar,"GIFT City, Gandhinagar - IITM",14-06-2024 17:00:00,23.163798,72.677768,OZONE,35,76,36
India,Gujarat,Gandhinagar,"Sector-10, Gandhinagar - GPCB",14-06-2024 17:00:00,23.221714,72.654328,PM2.5,20,41,30
India,Gujarat,Gandhinagar,"Sector-10, Gandhinagar - GPCB",14-06-2024 17:00:00,23.221714,72.654328,CO,17,17,17
India,Gujarat,Nandesari,"GIDC, Nandesari - Nandesari Ind. Association",14-06-2024 17:00:00,22.410802,73.097923,SO2,1,23,11
India,Gujarat,Surat,"Science Center, Surat - SMC",14-06-2024 17:00:00,21.170046,72.795405,PM10,NA,NA,NA
India,Gujarat,Surat,"Science Center, Surat - SMC",14-06-2024 17:00:00,21.170046,72.795405,NO2,NA,NA,NA
India,Gujarat,Surat,"Science Center, Surat - SMC",14-06-2024 17:00:00,21.170046,72.795405,CO,45,64,56
India,Gujarat,Vapi,"Phase-1 GIDC, Vapi - GPCB",14-06-2024 17:00:00,20.362421,72.918013,PM2.5,7,36,21
India,Gujarat,Vatva,"Phase-4 GIDC, Vatva - GPCB",14-06-2024 17:00:00,22.969611,72.643500,NH3,7,22,16
India,Haryana,Bahadurgarh,"Arya Nagar, Bahadurgarh - HSPCB",14-06-2024 17:00:00,28.6701,76.9254,NH3,8,10,9
India,Haryana,Bahadurgarh,"Arya Nagar, Bahadurgarh - HSPCB",14-06-2024 17:00:00,28.6701,76.9254,OZONE,34,41,39
India,Haryana,Ballabgarh,"Nathu Colony, Ballabgarh - HSPCB",14-06-2024 17:00:00,28.3419248,77.319699,PM10,123,419,192
India,Haryana,Bhiwani,"H.B. Colony, Bhiwani - HSPCB",14-06-2024 17:00:00,28.806223,76.141105,PM10,81,163,120
India,Haryana,Bhiwani,"H.B. Colony, Bhiwani - HSPCB",14-06-2024 17:00:00,28.806223,76.141105,CO,25,64,34
India,Haryana,Charkhi Dadri,"Mini Secretariat, Charkhi Dadri - HSPCB",14-06-2024 17:00:00,28.593883,76.270653,PM2.5,183,305,254
India,Haryana,Dharuhera,"Municipal Corporation Office, Dharuhera -  HSPCB",14-06-2024 17:00:00,28.206800,76.799700,PM10,NA,NA,NA
India,Haryana,Dharuhera,"Municipal Corporation Office, Dharuhera -  HSPCB",14-06-2024 17:00:00,28.206800,76.799700,SO2,NA,NA,NA
India,Haryana,Faridabad,"New Industrial Town, Faridabad - HSPCB",14-06-2024 17:00:00,28.39072,77.30059,PM2.5,107,500,286
India,Haryana,Faridabad,"New Industrial Town, Faridabad - HSPCB",14-06-2024 17:00:00,28.39072,77.30059,NO2,3,17,9
India,Haryana,Faridabad,"Sector 11, Faridabad - HSPCB",14-06-2024 17:00:00,28.376058,77.315741,PM10,111,316,157
India,Haryana,Faridabad,"Sector 11, Faridabad - HSPCB",14-06-2024 17:00:00,28.376058,77.315741,NO2,29,32,31
India,Haryana,Faridabad,"Sector 11, Faridabad - HSPCB",14-06-2024 17:00:00,28.376058,77.315741,CO,10,42,28
India,Haryana,Faridabad,"Sector 30, Faridabad - HSPCB",14-06-2024 17:00:00,28.4417,77.3217,PM2.5,NA,NA,NA
India,Haryana,Faridabad,"Sector 30, Faridabad - HSPCB",14-06-2024 17:00:00,28.4417,77.3217,NO2,NA,NA,NA
India,Haryana,Faridabad,"Sector 30, Faridabad - HSPCB",14-06-2024 17:00:00,28.4417,77.3217,CO,18,30,18
India,Haryana,Fatehabad,"Huda Sector, Fatehabad - HSPCB",14-06-2024 17:00:00,29.503664,75.467934,SO2,9,17,14
India,Haryana,Gurugram,"NISE Gwal Pahari, Gurugram - IMD",14-06-2024 17:00:00,28.422681,77.148944,PM10,123,252,166
India,Haryana,Gurugram,"Sector-51, Gurugram - HSPCB",14-06-2024 17:00:00,28.4227,77.0667,CO,16,32,20
India,Haryana,Gurugram,"Teri Gram, Gurugram - HSPCB",14-06-2024 17:00:00,28.4275,77.1465,NO2,1,62,31
India,Haryana,Gurugram,"Vikas Sadan, Gurugram - HSPCB",14-06-2024 17:00:00,28.4501238,77.0263051,OZONE,8,68,46
India,Haryana,Hisar,"Urban Estate-II, Hisar - HSPCB",14-06-2024 17:00:00,29.140560,75.744941,SO2,4,23,11
India,Haryana,Hisar,"Urban Estate-II, Hisar - HSPCB",14-06-2024 17:00:00,29.140560,75.744941,OZONE,40,97,59
India,Haryana,Karnal,"Sector-12, Karnal - HSPCB",14-06-2024 17:00:00,29.695300,77.002700,NH3,10,13,11
India,Haryana,Karnal,"Sector-12, Karnal - HSPCB",14-06-2024 17:00:00,29.695300,77.002700,OZONE,1,29,27
India,Haryana,Kurukshetra,"Sector-7, Kurukshetra - HSPCB",14-06-2024 17:00:00,29.966942,76.875879,PM2.5,78,160,115
India,Haryana,Kurukshetra,"Sector-7, Kurukshetra - HSPCB",14-06-2024 17:00:00,29.966942,76.875879,PM10,116,169,140
India,Haryana,Kurukshetra,"Sector-7, Kurukshetra - HSPCB",14-06-2024 17:00:00,29.966942,76.875879,NO2,10,10,10
India,Haryana,Kurukshetra,"Sector-7, Kurukshetra - HSPCB",14-06-2024 17:00:00,29.966942,76.875879,SO2,2,3,2
India,Haryana,Kurukshetra,"Sector-7, Kurukshetra - HSPCB",14-06-2024 17:00:00,29.966942,76.875879,CO,2,22,12
India,Haryana,Mandikhera,"General Hospital, Mandikhera - HSPCB",14-06-2024 17:00:00,27.9002,76.9938,NO2,18,24,21
India,Haryana,Manesar,"Sector-2 IMT, Manesar - HSPCB",14-06-2024 17:00:00,28.360699,76.936090,NH3,2,3,2
India,Haryana,Narnaul,"Shastri Nagar, Narnaul - HSPCB",14-06-2024 17:00:00,28.060249,76.113115,OZONE,29,55,42
India,Haryana,Palwal,"Shyam Nagar, Palwal - HSPCB",14-06-2024 17:00:00,28.1485564,77.3320667,PM10,43,213,102
India,Haryana,Panchkula,"Sector-6, Panchkula - HSPCB ",14-06-2024 17:00:00,30.7057778,76.8531805555555,CO,4,17,11
India,Haryana,Panipat,"Sector-18, Panipat - HSPCB",14-06-2024 17:00:00,29.432304,76.972765,PM10,104,104,104
India,Haryana,Panipat,"Sector-18, Panipat - HSPCB",14-06-2024 17:00:00,29.432304,76.972765,SO2,18,19,19
India,Haryana,Panipat,"Sector-18, Panipat - HSPCB",14-06-2024 17:00:00,29.432304,76.972765,OZONE,30,30,30
India,Haryana,Rohtak,"MD University, Rohtak - HSPCB",14-06-2024 17:00:00,28.52123,76.37138,PM2.5,71,325,211
India,Haryana,Rohtak,"MD University, Rohtak - HSPCB",14-06-2024 17:00:00,28.52123,76.37138,CO,32,51,44
India,Haryana,Sirsa,"F-Block, Sirsa - HSPCB",14-06-2024 17:00:00,29.536400,75.015800,NH3,12,14,13
India,Haryana,Sonipat,"Murthal, Sonipat - HSPCB",14-06-2024 17:00:00,29.027200,77.062100,NH3,7,10,9
India,Haryana,Sonipat,"Murthal, Sonipat - HSPCB",14-06-2024 17:00:00,29.027200,77.062100,CO,24,26,25
India,Haryana,Yamuna Nagar,"Gobind Pura, Yamuna Nagar - HSPCB",14-06-2024 17:00:00,30.1480566,77.2893471,PM10,110,148,125
India,Haryana,Yamuna Nagar,"Gobind Pura, Yamuna Nagar - HSPCB",14-06-2024 17:00:00,30.1480566,77.2893471,OZONE,24,44,36
India,Himachal Pradesh,Baddi,"HIMUDA Complex Phase-1, Baddi - HPPCB",14-06-2024 17:00:00,30.943887,76.801991,PM10,86,236,136
India,Himachal Pradesh,Baddi,"HIMUDA Complex Phase-1, Baddi - HPPCB",14-06-2024 17:00:00,30.943887,76.801991,NO2,10,40,18
India,Jharkhand,Dhanbad,"Sardar Patel Nagar, Dhanbad - JSPCB",14-06-2024 17:00:00,23.80569,86.44268,SO2,NA,NA,NA
India,Karnataka,Bagalkot,"Vidayagiri, Bagalkot - KSPCB",14-06-2024 17:00:00,16.172806,75.659694,CO,24,52,38
India,Karnataka,Bagalkot,"Vidayagiri, Bagalkot - KSPCB",14-06-2024 17:00:00,16.172806,75.659694,OZONE,23,31,26
India,Karnataka,Belgaum,"Ramteerth Nagar, Belgaum - KSPCB",14-06-2024 17:00:00,15.888653,74.541751,NO2,14,40,23
India,Karnataka,Belgaum,"Ramteerth Nagar, Belgaum - KSPCB",14-06-2024 17:00:00,15.888653,74.541751,OZONE,19,20,19
India,Karnataka,Bengaluru,"City Railway Station, Bengaluru - KSPCB",14-06-2024 17:00:00,12.9756843,77.5660749,PM10,NA,NA,NA
India,Karnataka,Bengaluru,"City Railway Station, Bengaluru - KSPCB",14-06-2024 17:00:00,12.9756843,77.5660749,SO2,NA,NA,NA
India,Karnataka,Bengaluru,"Hebbal, Bengaluru - KSPCB",14-06-2024 17:00:00,13.029152,77.585901,PM2.5,3,35,14
India,Karnataka,Bengaluru,"Hebbal, Bengaluru - KSPCB",14-06-2024 17:00:00,13.029152,77.585901,SO2,16,23,19
India,Karnataka,Bengaluru,"Hombegowda Nagar, Bengaluru - KSPCB",14-06-2024 17:00:00,12.938539,77.590100,NH3,1,1,1
India,Karnataka,Bengaluru,"Kasturi Nagar, Bengaluru - KSPCB",14-06-2024 17:00:00,13.003872,77.664217,PM10,42,52,47
India,Karnataka,Bengaluru,"Kasturi Nagar, Bengaluru - KSPCB",14-06-2024 17:00:00,13.003872,77.664217,NO2,16,17,17
India,Karnataka,Bengaluru,"Kasturi Nagar, Bengaluru - KSPCB",14-06-2024 17:00:00,13.003872,77.664217,CO,25,26,26
India,Karnataka,Bengaluru,"Kasturi Nagar, Bengaluru - KSPCB",14-06-2024 17:00:00,13.003872,77.664217,OZONE,39,39,39
India,Karnataka,Bengaluru,"Peenya, Bengaluru - CPCB",14-06-2024 17:00:00,13.0270199,77.494094,SO2,12,16,14
India,Karnataka,Bengaluru,"RVCE-Mailasandra, Bengaluru - KSPCB",14-06-2024 17:00:00,12.921418,77.502466,CO,33,68,59
India,Karnataka,Bengaluru,"Shivapura_Peenya, Bengaluru - KSPCB",14-06-2024 17:00:00,13.0246342,77.5080115,PM2.5,24,69,46
India,Karnataka,Bengaluru,"Shivapura_Peenya, Bengaluru - KSPCB",14-06-2024 17:00:00,13.0246342,77.5080115,PM10,25,73,49
India,Karnataka,Bidar,"Naubad, Bidar - KSPCB",14-06-2024 17:00:00,17.930306,77.482194,PM10,30,73,42
India,Karnataka,Chamarajanagar,"Urban, Chamarajanagar - KSPCB",14-06-2024 17:00:00,11.55358,76.55521,NH3,2,3,2
India,Karnataka,Chikkaballapur,"Chikkaballapur Rural, Chikkaballapur - KSPCB",14-06-2024 17:00:00,13.428828,77.731418,PM2.5,3,33,17
India,Karnataka,Chikkaballapur,"Chikkaballapur Rural, Chikkaballapur - KSPCB",14-06-2024 17:00:00,13.428828,77.731418,SO2,12,24,16
India,Karnataka,Chikkamagaluru,"Kalyana Nagara, Chikkamagaluru - KSPCB",14-06-2024 17:00:00,13.328028,75.797056,NH3,2,4,3
India,Karnataka,Chikkamagaluru,"Kalyana Nagara, Chikkamagaluru - KSPCB",14-06-2024 17:00:00,13.328028,75.797056,CO,11,105,27
India,Karnataka,Davanagere,"Devaraj Urs Badavane, Davanagere - KSPCB",14-06-2024 17:00:00,14.475800,75.905200,PM10,17,41,21
India,Karnataka,Davanagere,"Devaraj Urs Badavane, Davanagere - KSPCB",14-06-2024 17:00:00,14.475800,75.905200,NH3,1,1,1
India,Karnataka,Davanagere,"Devaraj Urs Badavane, Davanagere - KSPCB",14-06-2024 17:00:00,14.475800,75.905200,OZONE,17,22,20
India,Karnataka,Dharwad,"Kalabhavan, Dharwad - KSPCB",14-06-2024 17:00:00,15.459706,75.008381,NH3,2,3,2
India,Karnataka,Dharwad,"Kalabhavan, Dharwad - KSPCB",14-06-2024 17:00:00,15.459706,75.008381,CO,10,46,39
India,Karnataka,Gadag,"Panchal Nagar, Gadag - KSPCB",14-06-2024 17:00:00,15.411456,75.638133,PM2.5,3,17,8
India,Karnataka,Hassan,"B.Katihalli, Hassan - KSPCB",14-06-2024 17:00:00,13.008556,76.125258,NO2,10,13,12
India,Karnataka,Hassan,"B.Katihalli, Hassan - KSPCB",14-06-2024 17:00:00,13.008556,76.125258,NH3,4,8,5
India,Karnataka,Hassan,"B.Katihalli, Hassan - KSPCB",14-06-2024 17:00:00,13.008556,76.125258,CO,2,4,4
India,Karnataka,Haveri,"Ashwini Nagar, Haveri - KSPCB",14-06-2024 17:00:00,14.791800,75.389600,NO2,27,51,33
India,Karnataka,Haveri,"Ashwini Nagar, Haveri - KSPCB",14-06-2024 17:00:00,14.791800,75.389600,OZONE,27,40,31
India,Karnataka,Kalaburagi,"Lal Bahadur Shastri Nagar, Kalaburagi - KSPCB",14-06-2024 17:00:00,17.321993,76.822628,NH3,2,2,2
India,Karnataka,Kalaburagi,"Lal Bahadur Shastri Nagar, Kalaburagi - KSPCB",14-06-2024 17:00:00,17.321993,76.822628,OZONE,4,16,8
India,Karnataka,Kalaburagi,"Mahatma Basaveswar Colony, Kalaburgi - KSPCB",14-06-2024 17:00:00,17.336318,76.847397,NO2,8,13,10
India,Karnataka,Karwar,"KHB Colony, Karwar - KSPCB",14-06-2024 17:00:00,14.816666,74.141003,PM10,NA,NA,NA
India,Karnataka,Karwar,"KHB Colony, Karwar - KSPCB",14-06-2024 17:00:00,14.816666,74.141003,NO2,NA,NA,NA
India,Karnataka,Karwar,"KHB Colony, Karwar - KSPCB",14-06-2024 17:00:00,14.816666,74.141003,NH3,NA,NA,NA
India,Karnataka,Kolar,"Tamaka Ind. Area, Kolar - KSPCB",14-06-2024 17:00:00,13.1276288,78.1570122,PM10,NA,NA,NA
India,Karnataka,Kolar,"Tamaka Ind. Area, Kolar - KSPCB",14-06-2024 17:00:00,13.1276288,78.1570122,SO2,NA,NA,NA
India,Karnataka,Koppal,"Diwator Nagar, Koppal - KSPCB",14-06-2024 17:00:00,15.347630,76.181767,PM2.5,NA,NA,NA
India,Karnataka,Koppal,"Diwator Nagar, Koppal - KSPCB",14-06-2024 17:00:00,15.347630,76.181767,NO2,NA,NA,NA
India,Karnataka,Mangalore,"Kadri, Mangalore - KSPCB",14-06-2024 17:00:00,12.889250,74.853000,PM2.5,23,51,35
India,Karnataka,Mangalore,"Kadri, Mangalore - KSPCB",14-06-2024 17:00:00,12.889250,74.853000,PM10,41,81,64
India,Karnataka,Mangalore,"Kadri, Mangalore - KSPCB",14-06-2024 17:00:00,12.889250,74.853000,NH3,1,2,2
India,Karnataka,Mysuru,"Hebbal 1st Stage, Mysuru - KSPCB",14-06-2024 17:00:00,12.21041,76.37376,CO,4,28,19
India,Karnataka,Mysuru,"Hebbal 1st Stage, Mysuru - KSPCB",14-06-2024 17:00:00,12.21041,76.37376,OZONE,9,51,37
India,Karnataka,Shivamogga,"Vinoba Nagara, Shivamogga - KSPCB",14-06-2024 17:00:00,13.940000,75.555917,PM10,30,50,41
India,Karnataka,Tumakuru,"Thimmalapura, Tumakuru - KSPCB",14-06-2024 17:00:00,13.377516,77.099072,PM10,50,118,77
India,Karnataka,Tumakuru,"Thimmalapura, Tumakuru - KSPCB",14-06-2024 17:00:00,13.377516,77.099072,NO2,10,26,15
India,Karnataka,Udupi,"Brahmagiri, Udupi - KSPCB",14-06-2024 17:00:00,13.34194444,74.74694444,NO2,26,27,27
India,Karnataka,Yadgir,"Collector Office, Yadgir - KSPCB",14-06-2024 17:00:00,16.7602,77.1428,NO2,4,12,9
India,Karnataka,Yadgir,"Collector Office, Yadgir - KSPCB",14-06-2024 17:00:00,16.7602,77.1428,SO2,1,39,16
India,Kerala,Eloor,"Udyogamandal, Eloor - Kerala PCB",14-06-2024 17:00:00,10.073232,76.302765,NH3,1,1,1
India,Kerala,Kollam,"Polayathode, Kollam - Kerala PCB",14-06-2024 17:00:00,8.8787,76.6073,PM2.5,NA,NA,NA
India,Kerala,Kollam,"Polayathode, Kollam - Kerala PCB",14-06-2024 17:00:00,8.8787,76.6073,NO2,NA,NA,NA
India,Kerala,Thiruvananthapuram,"Kariavattom, Thiruvananthapuram - Kerala PCB",14-06-2024 17:00:00,8.563700,76.886500,SO2,1,10,4
India,Kerala,Thiruvananthapuram,"Kariavattom, Thiruvananthapuram - Kerala PCB",14-06-2024 17:00:00,8.563700,76.886500,CO,17,58,30
India,Kerala,Thiruvananthapuram,"Plammoodu, Thiruvananthapuram - Kerala PCB",14-06-2024 17:00:00,8.5149093,76.9435879,CO,15,30,25
India,Kerala,Thiruvananthapuram,"Plammoodu, Thiruvananthapuram - Kerala PCB",14-06-2024 17:00:00,8.5149093,76.9435879,OZONE,9,21,16
India,Kerala,Thrissur,"Corporation Ground, Thrissur - Kerala PCB",14-06-2024 17:00:00,10.532400,76.215900,OZONE,28,31,30
India,Madhya Pradesh,Bhopal,"Idgah Hills, Bhopal - MPPCB",14-06-2024 17:00:00,23.264759,77.381568,PM10,46,104,82
India,Madhya Pradesh,Bhopal,"Idgah Hills, Bhopal - MPPCB",14-06-2024 17:00:00,23.264759,77.381568,NO2,12,53,21
India,Madhya Pradesh,Bhopal,"Paryavaran Parisar, Bhopal - MPPCB",14-06-2024 17:00:00,23.210494,77.425409,PM2.5,18,45,29
India,Madhya Pradesh,Bhopal,"Paryavaran Parisar, Bhopal - MPPCB",14-06-2024 17:00:00,23.210494,77.425409,NH3,2,7,5
India,Madhya Pradesh,Dewas,"Bhopal Chauraha, Dewas - MPPCB",14-06-2024 17:00:00,22.9682591,76.064118,PM2.5,NA,NA,NA
India,Madhya Pradesh,Dewas,"Bhopal Chauraha, Dewas - MPPCB",14-06-2024 17:00:00,22.9682591,76.064118,NO2,NA,NA,NA
