country,state,city,station,last_update,latitude,longitude,pollutant_id,pollutant_min,pollutant_max,pollutant_avg
India,Andhra_Pradesh,Anantapur,"Gulzarpet, Anantapur - APPCB",31-03-2024 01:00:00,14.675886,77.593027,OZONE,13,63,44
India,Andhra_Pradesh,Chittoor,"Gangineni Cheruvu, Chittoor - APPCB",31-03-2024 01:00:00,13.204880,79.097889,SO2,4,111,27
India,Andhra_Pradesh,Rajamahendravaram,"Anand Kala Kshetram, Rajamahendravaram - APPCB",31-03-2024 01:00:00,16.9872867,81.7363176,SO2,11,12,12
India,Andhra_Pradesh,Tirupati,"Tirumala, Tirupati - APPCB",31-03-2024 01:00:00,13.67,79.35,NO2,14,44,27
India,Andhra_Pradesh,Tirupati,"Vaikuntapuram, Tirupati - APPCB",31-03-2024 01:00:00,13.615387,79.409230,PM10,16,91,53
India,Andhra_Pradesh,Tirupati,"Vaikuntapuram, Tirupati - APPCB",31-03-2024 01:00:00,13.615387,79.409230,NO2,15,27,20
India,Andhra_Pradesh,Tirupati,"Vaikuntapuram, Tirupati - APPCB",31-03-2024 01:00:00,13.615387,79.409230,CO,8,16,15
India,Andhra_Pradesh,Vijayawada,"HB Colony, Vijayawada - APPCB",31-03-2024 01:00:00,16.536107,80.594233,PM2.5,47,56,52
India,Andhra_Pradesh,Vijayawada,"Kanuru, Vijayawada - APPCB",31-03-2024 01:00:00,16.486692,80.699436,CO,22,22,22
India,Andhra_Pradesh,Vijayawada,"Rajiv Gandhi Park, Vijayawada - APPCB",31-03-2024 01:00:00,16.509717,80.612222,SO2,5,19,8
India,Andhra_Pradesh,Vijayawada,"Rajiv Nagar, Vijayawada - APPCB",31-03-2024 01:00:00,16.554731,80.649110,PM2.5,44,46,45
India,Andhra_Pradesh,Vijayawada,"Rajiv Nagar, Vijayawada - APPCB",31-03-2024 01:00:00,16.554731,80.649110,SO2,15,19,18
India,Andhra_Pradesh,Vijayawada,"Rajiv Nagar, Vijayawada - APPCB",31-03-2024 01:00:00,16.554731,80.649110,OZONE,7,42,19
India,Assam,Guwahati,"IITG, Guwahati - PCBA",31-03-2024 01:00:00,26.2028636,91.70046436,NH3,5,5,5
India,Assam,Guwahati,"LGBI Airport, Guwahati - PCBA",31-03-2024 01:00:00,26.10887,91.589544,SO2,1,16,7
India,Assam,Guwahati,"LGBI Airport, Guwahati - PCBA",31-03-2024 01:00:00,26.10887,91.589544,OZONE,16,19,17
India,Assam,Guwahati,"Railway Colony, Guwahati - PCBA",31-03-2024 01:00:00,26.181742,91.78063,NO2,3,3,3
India,Assam,Guwahati,"Railway Colony, Guwahati - PCBA",31-03-2024 01:00:00,26.181742,91.78063,SO2,44,52,47
India,Assam,Nagaon,"Christianpatty, Nagaon - PCBA",31-03-2024 01:00:00,26.349082,92.68449,PM2.5,78,257,111
India,Assam,Nalbari,"Bata Chowk, Nalbari - PCBA",31-03-2024 01:00:00,26.446912,91.439057,NH3,1,7,2
India,Assam,Nalbari,"Bata Chowk, Nalbari - PCBA",31-03-2024 01:00:00,26.446912,91.439057,SO2,3,11,5
India,Assam,Nalbari,"Bata Chowk, Nalbari - PCBA",31-03-2024 01:00:00,26.446912,91.439057,CO,4,103,60
India,Assam,Sivasagar,"Girls College, Sivasagar - PCBA",31-03-2024 01:00:00,26.987634,94.636574,PM10,31,92,52
India,Bihar,Araria,"Kharahiya Basti, Araria - BSPCB",31-03-2024 01:00:00,26.146529,87.454184,PM2.5,47,320,116
India,Bihar,Araria,"Kharahiya Basti, Araria - BSPCB",31-03-2024 01:00:00,26.146529,87.454184,OZONE,7,11,9
India,Bihar,Aurangabad,"Gurdeo Nagar, Aurangabad - BSPCB",31-03-2024 01:00:00,24.75746,84.366208,NO2,2,6,5
India,Bihar,Aurangabad,"Gurdeo Nagar, Aurangabad - BSPCB",31-03-2024 01:00:00,24.75746,84.366208,SO2,1,11,5
India,Bihar,Bettiah,"Kamalnath Nagar, Bettiah - BSPCB",31-03-2024 01:00:00,26.80365,84.51954,PM2.5,67,301,187
India,Bihar,Bettiah,"Kamalnath Nagar, Bettiah - BSPCB",31-03-2024 01:00:00,26.80365,84.51954,PM10,75,184,139
India,Bihar,Bettiah,"Kamalnath Nagar, Bettiah - BSPCB",31-03-2024 01:00:00,26.80365,84.51954,OZONE,1,10,4
India,Bihar,Bhagalpur,"Mayaganj, Bhagalpur - BSPCB",31-03-2024 01:00:00,25.265194,87.012947,NO2,2,10,7
India,Bihar,Bihar Sharif,"D M Colony, Bihar Sharif - BSPCB",31-03-2024 01:00:00,25.204762,85.514960,CO,9,64,30
India,Bihar,Buxar,"Charitra Van, Buxar - BSPCB (Formerly known as Central Jail)",31-03-2024 01:00:00,25.567520,83.966379,PM2.5,77,325,206
India,Bihar,Chhapra,"Darshan Nagar, Chhapra - BSPCB",31-03-2024 01:00:00,25.7808257,84.7446768,PM2.5,117,331,254
India,Bihar,Gaya,"Kareemganj, Gaya - BSPCB",31-03-2024 01:00:00,24.792403,84.992416,PM2.5,27,273,103
India,Bihar,Gaya,"Kareemganj, Gaya - BSPCB",31-03-2024 01:00:00,24.792403,84.992416,PM10,56,187,105
India,Bihar,Gaya,"SFTI Kusdihra, Gaya - BSPCB",31-03-2024 01:00:00,24.762518,84.982348,NH3,5,6,6
India,Bihar,Gaya,"SFTI Kusdihra, Gaya - BSPCB",31-03-2024 01:00:00,24.762518,84.982348,OZONE,16,107,43
India,Bihar,Hajipur,"Industrial Area, Hajipur - BSPCB",31-03-2024 01:00:00,25.697189,85.245900,PM10,112,192,155
India,Bihar,Hajipur,"Industrial Area, Hajipur - BSPCB",31-03-2024 01:00:00,25.697189,85.245900,OZONE,2,56,27
India,Bihar,Katihar,"Mirchaibari, Katihar - BSPCB",31-03-2024 01:00:00,25.560083,87.553265,CO,52,64,56
India,Bihar,Kishanganj,"SDM Office_Khagra, Kishanganj - BSPCB",31-03-2024 01:00:00,26.0881305,87.93840336,SO2,34,85,45
India,Bihar,Manguraha,"Forest Rest House, Manguraha - BSPCB",31-03-2024 01:00:00,27.308328,84.531742,PM2.5,45,77,62
India,Bihar,Manguraha,"Forest Rest House, Manguraha - BSPCB",31-03-2024 01:00:00,27.308328,84.531742,NO2,19,24,21
India,Bihar,Motihari,"Gandak Colony, Motihari - BSPCB",31-03-2024 01:00:00,26.63086,84.90051,PM2.5,28,113,67
India,Bihar,Motihari,"Gandak Colony, Motihari - BSPCB",31-03-2024 01:00:00,26.63086,84.90051,PM10,28,103,65
India,Bihar,Motihari,"Gandak Colony, Motihari - BSPCB",31-03-2024 01:00:00,26.63086,84.90051,CO,5,36,28
India,Bihar,Munger,"Town Hall, Munger - BSPCB",31-03-2024 01:00:00,25.376776,86.471523,CO,2,7,5
India,Bihar,Muzaffarpur,"Buddha Colony, Muzaffarpur - BSPCB",31-03-2024 01:00:00,26.11442,85.39813,SO2,6,31,15
India,Bihar,Muzaffarpur,"Buddha Colony, Muzaffarpur - BSPCB",31-03-2024 01:00:00,26.11442,85.39813,CO,2,52,26
India,Bihar,Muzaffarpur,"Buddha Colony, Muzaffarpur - BSPCB",31-03-2024 01:00:00,26.11442,85.39813,OZONE,17,130,51
India,Bihar,Muzaffarpur,"Muzaffarpur Collectorate, Muzaffarpur - BSPCB",31-03-2024 01:00:00,26.1209,85.3647,NO2,2,18,10
India,Bihar,Muzaffarpur,"Muzaffarpur Collectorate, Muzaffarpur - BSPCB",31-03-2024 01:00:00,26.1209,85.3647,OZONE,12,65,27
India,Bihar,Patna,"Govt. High School Shikarpur, Patna - BSPCB",31-03-2024 01:00:00,25.592539,85.227158,NO2,20,23,22
India,Bihar,Patna,"Govt. High School Shikarpur, Patna - BSPCB",31-03-2024 01:00:00,25.592539,85.227158,SO2,8,11,10
India,Bihar,Patna,"Govt. High School Shikarpur, Patna - BSPCB",31-03-2024 01:00:00,25.592539,85.227158,OZONE,1,59,14
India,Bihar,Patna,"Muradpur, Patna - BSPCB",31-03-2024 01:00:00,25.619651,85.147382,PM10,188,401,301
India,Bihar,Patna,"Muradpur, Patna - BSPCB",31-03-2024 01:00:00,25.619651,85.147382,NH3,2,5,3
India,Bihar,Patna,"Muradpur, Patna - BSPCB",31-03-2024 01:00:00,25.619651,85.147382,OZONE,1,40,14
India,Bihar,Patna,"Rajbansi Nagar, Patna - BSPCB",31-03-2024 01:00:00,25.599486,85.113666,PM10,146,232,176
India,Bihar,Patna,"Rajbansi Nagar, Patna - BSPCB",31-03-2024 01:00:00,25.599486,85.113666,NO2,13,48,23
India,Bihar,Purnia,"Mariam Nagar, Purnia - BSPCB",31-03-2024 01:00:00,25.366336,87.117468,PM2.5,25,263,100
India,Bihar,Purnia,"Mariam Nagar, Purnia - BSPCB",31-03-2024 01:00:00,25.366336,87.117468,NH3,2,2,2
India,Bihar,Purnia,"Mariam Nagar, Purnia - BSPCB",31-03-2024 01:00:00,25.366336,87.117468,CO,36,106,86
India,Bihar,Rajgir,"Dangi Tola, Rajgir - BSPCB",31-03-2024 01:00:00,25.03280,85.41948,NO2,1,1,1
India,Bihar,Saharsa,"Police Line, Saharsa - BSPCB",31-03-2024 01:00:00,25.892357,86.590325,PM2.5,53,425,222
India,Bihar,Saharsa,"Police Line, Saharsa - BSPCB",31-03-2024 01:00:00,25.892357,86.590325,SO2,16,16,16
India,Bihar,Samastipur,"DM Office_Kasipur, Samastipur - BSPCB",31-03-2024 01:00:00,25.859655,85.77944,PM2.5,48,323,179
India,Bihar,Samastipur,"DM Office_Kasipur, Samastipur - BSPCB",31-03-2024 01:00:00,25.859655,85.77944,PM10,56,184,124
India,Bihar,Samastipur,"DM Office_Kasipur, Samastipur - BSPCB",31-03-2024 01:00:00,25.859655,85.77944,CO,6,33,20
India,Bihar,Sasaram,"Dada Peer, Sasaram - BSPCB",31-03-2024 01:00:00,24.952822,84.002396,NO2,9,22,16
India,Bihar,Sasaram,"Dada Peer, Sasaram - BSPCB",31-03-2024 01:00:00,24.952822,84.002396,OZONE,9,89,43
India,Chandigarh,Chandigarh,"Sector-53, Chandigarh - CPCC",31-03-2024 01:00:00,30.719859,76.738637,CO,16,129,88
India,Chhattisgarh,Bhilai,"32Bungalows, Bhilai - CECB",31-03-2024 01:00:00,21.194815,81.314770,NH3,6,6,6
India,Chhattisgarh,Bhilai,"Hathkhoj, Bhilai - CECB",31-03-2024 01:00:00,21.224231,81.408350,PM2.5,35,98,67
India,Chhattisgarh,Bhilai,"Hathkhoj, Bhilai - CECB",31-03-2024 01:00:00,21.224231,81.408350,PM10,69,119,95
India,Chhattisgarh,Bhilai,"Hathkhoj, Bhilai - CECB",31-03-2024 01:00:00,21.224231,81.408350,CO,20,54,36
India,Chhattisgarh,Chhal,"Nawapara SECL Colony, Chhal - CECB",31-03-2024 01:00:00,22.118125,83.140608,PM10,103,138,120
India,Chhattisgarh,Korba,"Rampur, Korba - CECB",31-03-2024 01:00:00,22.368195,82.746431,SO2,6,15,9
India,Chhattisgarh,Raipur,"AIIMS, Raipur - CECB",31-03-2024 01:00:00,21.258815,81.578979,PM10,NA,NA,NA
India,Chhattisgarh,Raipur,"AIIMS, Raipur - CECB",31-03-2024 01:00:00,21.258815,81.578979,CO,26,46,35
India,Chhattisgarh,Raipur,"Bhatagaon New ISBT, Raipur - CECB",31-03-2024 01:00:00,21.219665,81.630094,SO2,1,3,2
India,Chhattisgarh,Raipur,"Krishak Nagar, Raipur - CECB",31-03-2024 01:00:00,21.237755,81.705301,PM2.5,43,59,52
India,Chhattisgarh,Raipur,"Krishak Nagar, Raipur - CECB",31-03-2024 01:00:00,21.237755,81.705301,NH3,1,1,1
India,Chhattisgarh,Raipur,"Siltara Phase-II, Raipur - CECB",31-03-2024 01:00:00,21.371751,81.664929,NO2,38,82,58
India,Chhattisgarh,Tumidih,"OP Jindal Industrial Park, Tumidih - CECB",31-03-2024 01:00:00,22.06631475,83.33820077,PM10,NA,NA,NA
India,Chhattisgarh,Tumidih,"OP Jindal Industrial Park, Tumidih - CECB",31-03-2024 01:00:00,22.06631475,83.33820077,CO,50,62,56
India,Delhi,Delhi,"Alipur, Delhi - DPCC",31-03-2024 01:00:00,28.815329,77.153010,NO2,6,58,29
India,Delhi,Delhi,"Alipur, Delhi - DPCC",31-03-2024 01:00:00,28.815329,77.153010,NH3,7,10,8
India,Delhi,Delhi,"Alipur, Delhi - DPCC",31-03-2024 01:00:00,28.815329,77.153010,SO2,14,34,20
India,Delhi,Delhi,"Alipur, Delhi - DPCC",31-03-2024 01:00:00,28.815329,77.153010,CO,32,77,52
India,Delhi,Delhi,"Alipur, Delhi - DPCC",31-03-2024 01:00:00,28.815329,77.153010,OZONE,3,108,39
India,Delhi,Delhi,"Anand Vihar, Delhi - DPCC",31-03-2024 01:00:00,28.647622,77.3158090,PM10,139,500,256
India,Delhi,Delhi,"Ashok Vihar, Delhi - DPCC",31-03-2024 01:00:00,28.695381,77.181665,NO2,10,136,54
India,Delhi,Delhi,"Ashok Vihar, Delhi - DPCC",31-03-2024 01:00:00,28.695381,77.181665,SO2,26,35,30
India,Delhi,Delhi,"Ashok Vihar, Delhi - DPCC",31-03-2024 01:00:00,28.695381,77.181665,OZONE,2,90,15
India,Delhi,Delhi,"Bawana, Delhi - DPCC",31-03-2024 01:00:00,28.776200,77.051074,PM2.5,98,332,214
India,Delhi,Delhi,"Bawana, Delhi - DPCC",31-03-2024 01:00:00,28.776200,77.051074,SO2,9,19,13
India,Delhi,Delhi,"Bawana, Delhi - DPCC",31-03-2024 01:00:00,28.776200,77.051074,CO,43,101,74
India,Delhi,Delhi,"Burari Crossing, Delhi - IMD",31-03-2024 01:00:00,28.7256504,77.2011573,OZONE,16,69,34
India,Delhi,Delhi,"CRRI Mathura Road, Delhi - IMD",31-03-2024 01:00:00,28.5512005,77.2735737,PM10,52,247,128
India,Delhi,Delhi,"CRRI Mathura Road, Delhi - IMD",31-03-2024 01:00:00,28.5512005,77.2735737,CO,30,112,67
India,Delhi,Delhi,"CRRI Mathura Road, Delhi - IMD",31-03-2024 01:00:00,28.5512005,77.2735737,OZONE,2,82,37
India,Delhi,Delhi,"Chandni Chowk, Delhi - IITM",31-03-2024 01:00:00,28.656756,77.227234,NH3,7,20,14
India,Delhi,Delhi,"Chandni Chowk, Delhi - IITM",31-03-2024 01:00:00,28.656756,77.227234,OZONE,5,7,6
India,Delhi,Delhi,"DTU, Delhi - CPCB",31-03-2024 01:00:00,28.7500499,77.1112615,PM2.5,98,302,184
India,Delhi,Delhi,"DTU, Delhi - CPCB",31-03-2024 01:00:00,28.7500499,77.1112615,SO2,32,34,33
India,Delhi,Delhi,"Dwarka-Sector 8, Delhi - DPCC ",31-03-2024 01:00:00,28.5710274,77.0719006,PM2.5,69,332,179
India,Delhi,Delhi,"Dwarka-Sector 8, Delhi - DPCC ",31-03-2024 01:00:00,28.5710274,77.0719006,OZONE,2,86,21
India,Delhi,Delhi,"ITO, Delhi - CPCB",31-03-2024 01:00:00,28.628624,77.241060,OZONE,13,109,30
India,Delhi,Delhi,"Jahangirpuri, Delhi - DPCC",31-03-2024 01:00:00,28.732820,77.170633,PM2.5,88,356,211
India,Delhi,Delhi,"Jahangirpuri, Delhi - DPCC",31-03-2024 01:00:00,28.732820,77.170633,SO2,3,58,20
India,Delhi,Delhi,"Jawaharlal Nehru Stadium, Delhi - DPCC",31-03-2024 01:00:00,28.580280,77.233829,PM10,106,270,170
India,Delhi,Delhi,"Jawaharlal Nehru Stadium, Delhi - DPCC",31-03-2024 01:00:00,28.580280,77.233829,SO2,4,48,24
India,Delhi,Delhi,"Jawaharlal Nehru Stadium, Delhi - DPCC",31-03-2024 01:00:00,28.580280,77.233829,CO,38,134,86
India,Delhi,Delhi,"Lodhi Road, Delhi - IITM",31-03-2024 01:00:00,28.588333,77.221667,NO2,58,136,88
India,Delhi,Delhi,"Lodhi Road, Delhi - IMD",31-03-2024 01:00:00,28.5918245,77.2273074,PM10,95,197,141
India,Delhi,Delhi,"Lodhi Road, Delhi - IMD",31-03-2024 01:00:00,28.5918245,77.2273074,NO2,2,13,5
India,Delhi,Delhi,"Major Dhyan Chand National Stadium, Delhi - DPCC",31-03-2024 01:00:00,28.611281,77.237738,PM10,119,239,162
India,Delhi,Delhi,"Major Dhyan Chand National Stadium, Delhi - DPCC",31-03-2024 01:00:00,28.611281,77.237738,NH3,9,13,11
India,Delhi,Delhi,"Major Dhyan Chand National Stadium, Delhi - DPCC",31-03-2024 01:00:00,28.611281,77.237738,OZONE,1,208,56
India,Delhi,Delhi,"Mandir Marg, Delhi - DPCC",31-03-2024 01:00:00,28.636429,77.201067,PM10,83,173,129
India,Delhi,Delhi,"Mandir Marg, Delhi - DPCC",31-03-2024 01:00:00,28.636429,77.201067,NH3,7,8,8
India,Delhi,Delhi,"Mandir Marg, Delhi - DPCC",31-03-2024 01:00:00,28.636429,77.201067,OZONE,9,31,17
India,Delhi,Delhi,"Mundka, Delhi - DPCC",31-03-2024 01:00:00,28.684678,77.076574,PM2.5,70,318,150
India,Delhi,Delhi,"Narela, Delhi - DPCC",31-03-2024 01:00:00,28.822836,77.101981,NO2,14,111,59
India,Delhi,Delhi,"Narela, Delhi - DPCC",31-03-2024 01:00:00,28.822836,77.101981,NH3,7,12,10
India,Delhi,Delhi,"Nehru Nagar, Delhi - DPCC",31-03-2024 01:00:00,28.567890,77.250515,NO2,NA,NA,NA
India,Delhi,Delhi,"New Moti Bagh, Delhi - MHUA",31-03-2024 01:00:00,28.57834,77.18400,PM2.5,71,334,188
India,Delhi,Delhi,"New Moti Bagh, Delhi - MHUA",31-03-2024 01:00:00,28.57834,77.18400,CO,18,108,66
India,Delhi,Delhi,"North Campus, DU, Delhi - IMD",31-03-2024 01:00:00,28.6573814,77.1585447,PM2.5,100,317,194
India,Delhi,Delhi,"Okhla Phase-2, Delhi - DPCC",31-03-2024 01:00:00,28.530785,77.271255,NH3,10,15,12
India,Delhi,Delhi,"Punjabi Bagh, Delhi - DPCC",31-03-2024 01:00:00,28.674045,77.131023,PM10,113,426,199
India,Delhi,Delhi,"Punjabi Bagh, Delhi - DPCC",31-03-2024 01:00:00,28.674045,77.131023,NH3,4,6,5
India,Delhi,Delhi,"Pusa, Delhi - IMD",31-03-2024 01:00:00,28.636110,77.173332,OZONE,1,50,17
India,Delhi,Delhi,"Sirifort, Delhi - CPCB",31-03-2024 01:00:00,28.5504249,77.2159377,NH3,7,16,9
India,Delhi,Delhi,"Sirifort, Delhi - CPCB",31-03-2024 01:00:00,28.5504249,77.2159377,CO,20,147,89
India,Delhi,Delhi,"Sri Aurobindo Marg, Delhi - DPCC",31-03-2024 01:00:00,28.531346,77.190156,NH3,NA,NA,NA
India,Delhi,Delhi,"Sri Aurobindo Marg, Delhi - DPCC",31-03-2024 01:00:00,28.531346,77.190156,SO2,NA,NA,NA
India,Delhi,Delhi,"Vivek Vihar, Delhi - DPCC",31-03-2024 01:00:00,28.672342,77.315260,OZONE,2,113,47
India,Delhi,Delhi,"Wazirpur, Delhi - DPCC",31-03-2024 01:00:00,28.699793,77.165453,NH3,9,11,10
India,Delhi,Delhi,"Wazirpur, Delhi - DPCC",31-03-2024 01:00:00,28.699793,77.165453,OZONE,4,77,23
India,Gujarat,Ahmedabad,"Gyaspur, Ahmedabad - IITM",31-03-2024 01:00:00,22.977134,72.553024,NH3,8,13,10
India,Gujarat,Ahmedabad,"Maninagar, Ahmedabad - GPCB",31-03-2024 01:00:00,23.002657,72.591912,OZONE,12,79,24
India,Gujarat,Ahmedabad,"Raikhad, Ahmedabad - IITM",31-03-2024 01:00:00,23.020509,72.579261,PM10,23,94,68
India,Gujarat,Ahmedabad,"Raikhad, Ahmedabad - IITM",31-03-2024 01:00:00,23.020509,72.579261,NH3,1,7,4
India,Gujarat,Ahmedabad,"Raikhad, Ahmedabad - IITM",31-03-2024 01:00:00,23.020509,72.579261,OZONE,8,29,16
India,Gujarat,Ahmedabad,"SVPI Airport Hansol, Ahmedabad - IITM",31-03-2024 01:00:00,23.076793,72.627874,PM2.5,37,90,61
India,Gujarat,Ahmedabad,"SVPI Airport Hansol, Ahmedabad - IITM",31-03-2024 01:00:00,23.076793,72.627874,OZONE,10,33,17
India,Gujarat,Ankleshwar,"GIDC, Ankleshwar - GPCB",31-03-2024 01:00:00,21.613267,73.010555,PM2.5,NA,NA,NA
India,Gujarat,Ankleshwar,"GIDC, Ankleshwar - GPCB",31-03-2024 01:00:00,21.613267,73.010555,PM10,NA,NA,NA
India,Gujarat,Gandhinagar,"GIFT City, Gandhinagar - IITM",31-03-2024 01:00:00,23.163798,72.677768,PM2.5,54,304,113
India,Gujarat,Gandhinagar,"IIPHG Lekawada, Gandhinagar - IITM",31-03-2024 01:00:00,23.243639,72.68994,PM10,45,104,71
India,Gujarat,Gandhinagar,"IIPHG Lekawada, Gandhinagar - IITM",31-03-2024 01:00:00,23.243639,72.68994,OZONE,10,38,21
India,Gujarat,Gandhinagar,"Sector-10, Gandhinagar - GPCB",31-03-2024 01:00:00,23.221714,72.654328,SO2,3,11,6
India,Gujarat,Vapi,"Phase-1 GIDC, Vapi - GPCB",31-03-2024 01:00:00,20.362421,72.918013,NH3,2,2,2
India,Gujarat,Vapi,"Phase-1 GIDC, Vapi - GPCB",31-03-2024 01:00:00,20.362421,72.918013,OZONE,1,2,1
India,Haryana,Ambala,"Patti Mehar, Ambala - HSPCB",31-03-2024 01:00:00,30.379589,76.778328,PM10,21,175,82
India,Haryana,Ballabgarh,"Nathu Colony, Ballabgarh - HSPCB",31-03-2024 01:00:00,28.3419248,77.319699,NO2,9,13,12
India,Haryana,Ballabgarh,"Nathu Colony, Ballabgarh - HSPCB",31-03-2024 01:00:00,28.3419248,77.319699,CO,13,120,76
India,Haryana,Bhiwani,"H.B. Colony, Bhiwani - HSPCB",31-03-2024 01:00:00,28.806223,76.141105,OZONE,12,103,28
India,Haryana,Charkhi Dadri,"Mini Secretariat, Charkhi Dadri - HSPCB",31-03-2024 01:00:00,28.593883,76.270653,SO2,1,29,15
India,Haryana,Charkhi Dadri,"Mini Secretariat, Charkhi Dadri - HSPCB",31-03-2024 01:00:00,28.593883,76.270653,CO,21,70,50
India,Haryana,Dharuhera,"Municipal Corporation Office, Dharuhera -  HSPCB",31-03-2024 01:00:00,28.206800,76.799700,SO2,NA,NA,NA
India,Haryana,Faridabad,"Sector 11, Faridabad - HSPCB",31-03-2024 01:00:00,28.376058,77.315741,PM2.5,154,386,292
India,Haryana,Faridabad,"Sector 30, Faridabad - HSPCB",31-03-2024 01:00:00,28.4417,77.3217,PM10,138,152,144
India,Haryana,Faridabad,"Sector- 16A, Faridabad - HSPCB",31-03-2024 01:00:00,28.4088421,77.3099081,SO2,6,25,18
India,Haryana,Fatehabad,"Huda Sector, Fatehabad - HSPCB",31-03-2024 01:00:00,29.503664,75.467934,NH3,12,14,13
India,Haryana,Fatehabad,"Huda Sector, Fatehabad - HSPCB",31-03-2024 01:00:00,29.503664,75.467934,OZONE,72,112,90
India,Haryana,Gurugram,"Teri Gram, Gurugram - HSPCB",31-03-2024 01:00:00,28.4275,77.1465,PM2.5,95,300,196
India,Haryana,Gurugram,"Teri Gram, Gurugram - HSPCB",31-03-2024 01:00:00,28.4275,77.1465,NO2,27,36,32
India,Haryana,Gurugram,"Teri Gram, Gurugram - HSPCB",31-03-2024 01:00:00,28.4275,77.1465,SO2,4,5,4
India,Haryana,Hisar,"Urban Estate-II, Hisar - HSPCB",31-03-2024 01:00:00,29.140560,75.744941,PM2.5,27,321,130
India,Haryana,Jind,"Police Lines, Jind - HSPCB",31-03-2024 01:00:00,29.307814,76.337619,PM2.5,42,92,63
India,Haryana,Jind,"Police Lines, Jind - HSPCB",31-03-2024 01:00:00,29.307814,76.337619,PM10,78,123,101
India,Haryana,Jind,"Police Lines, Jind - HSPCB",31-03-2024 01:00:00,29.307814,76.337619,CO,2,84,26
India,Haryana,Kaithal,"Rishi Nagar, Kaithal - HSPCB",31-03-2024 01:00:00,29.8006,76.4155,NH3,8,8,8
India,Haryana,Karnal,"Sector-12, Karnal - HSPCB",31-03-2024 01:00:00,29.695300,77.002700,SO2,12,13,12
India,Haryana,Karnal,"Sector-12, Karnal - HSPCB",31-03-2024 01:00:00,29.695300,77.002700,OZONE,19,33,29
India,Haryana,Kurukshetra,"Sector-7, Kurukshetra - HSPCB",31-03-2024 01:00:00,29.966942,76.875879,OZONE,2,65,34
India,Haryana,Mandikhera,"General Hospital, Mandikhera - HSPCB",31-03-2024 01:00:00,27.9002,76.9938,PM10,33,173,102
India,Haryana,Mandikhera,"General Hospital, Mandikhera - HSPCB",31-03-2024 01:00:00,27.9002,76.9938,NH3,16,19,18
India,Haryana,Manesar,"Sector-2 IMT, Manesar - HSPCB",31-03-2024 01:00:00,28.360699,76.936090,CO,8,42,26
India,Haryana,Palwal,"Shyam Nagar, Palwal - HSPCB",31-03-2024 01:00:00,28.1485564,77.3320667,PM10,81,136,104
India,Haryana,Palwal,"Shyam Nagar, Palwal - HSPCB",31-03-2024 01:00:00,28.1485564,77.3320667,SO2,3,21,12
India,Haryana,Panipat,"Sector-18, Panipat - HSPCB",31-03-2024 01:00:00,29.497973,76.993331,PM10,64,66,65
India,Haryana,Panipat,"Sector-18, Panipat - HSPCB",31-03-2024 01:00:00,29.497973,76.993331,SO2,18,19,19
India,Haryana,Rohtak,"MD University, Rohtak - HSPCB",31-03-2024 01:00:00,28.52123,76.37138,NO2,47,55,51
India,Haryana,Sirsa,"F-Block, Sirsa - HSPCB",31-03-2024 01:00:00,29.536400,75.015800,OZONE,42,95,64
India,Haryana,Sonipat,"Murthal, Sonipat - HSPCB",31-03-2024 01:00:00,29.027200,77.062100,SO2,12,29,20
India,Haryana,Sonipat,"Murthal, Sonipat - HSPCB",31-03-2024 01:00:00,29.027200,77.062100,OZONE,16,36,23
India,Himachal Pradesh,Baddi,"HIMUDA Complex Phase-1, Baddi - HPPCB",31-03-2024 01:00:00,30.943887,76.801991,PM2.5,NA,NA,NA
India,Himachal Pradesh,Baddi,"HIMUDA Complex Phase-1, Baddi - HPPCB",31-03-2024 01:00:00,30.943887,76.801991,CO,16,28,20
India,Jharkhand,Dhanbad,"Sardar Patel Nagar, Dhanbad - JSPCB",31-03-2024 01:00:00,23.80569,86.44268,PM10,84,200,130
India,Jharkhand,Dhanbad,"Sardar Patel Nagar, Dhanbad - JSPCB",31-03-2024 01:00:00,23.80569,86.44268,NO2,1,392,98
India,Jharkhand,Pathardih,"Mohalbani Ghat, Pathardih - DMC",31-03-2024 01:00:00,23.669880,86.411725,CO,NA,NA,NA
India,Jharkhand,Pathardih,"Mohalbani Ghat, Pathardih - DMC",31-03-2024 01:00:00,23.669880,86.411725,OZONE,NA,NA,NA
India,Karnataka,Bagalkot,"Vidayagiri, Bagalkot - KSPCB",31-03-2024 01:00:00,16.172806,75.659694,NO2,9,11,9
India,Karnataka,Bengaluru,"BTM Layout, Bengaluru - CPCB",31-03-2024 01:00:00,12.9135218,77.5950804,NH3,NA,NA,NA
India,Karnataka,Bengaluru,"BTM Layout, Bengaluru - CPCB",31-03-2024 01:00:00,12.9135218,77.5950804,CO,NA,NA,NA
India,Karnataka,Bengaluru,"Hebbal, Bengaluru - KSPCB",31-03-2024 01:00:00,13.029152,77.585901,SO2,NA,NA,NA
India,Karnataka,Bengaluru,"Hebbal, Bengaluru - KSPCB",31-03-2024 01:00:00,13.029152,77.585901,OZONE,8,60,9
India,Karnataka,Bengaluru,"Hombegowda Nagar, Bengaluru - KSPCB",31-03-2024 01:00:00,12.938539,77.590100,NO2,11,28,17
India,Karnataka,Bengaluru,"Jayanagar 5th Block, Bengaluru - KSPCB",31-03-2024 01:00:00,12.920984,77.584908,NO2,8,19,11
India,Karnataka,Bengaluru,"Jigani, Bengaluru - KSPCB",31-03-2024 01:00:00,12.7816279,77.6299145,NH3,4,4,4
India,Karnataka,Bengaluru,"Kasturi Nagar, Bengaluru - KSPCB",31-03-2024 01:00:00,13.003872,77.664217,CO,20,25,24
India,Karnataka,Bengaluru,"Kasturi Nagar, Bengaluru - KSPCB",31-03-2024 01:00:00,13.003872,77.664217,OZONE,5,111,65
India,Karnataka,Bengaluru,"Shivapura_Peenya, Bengaluru - KSPCB",31-03-2024 01:00:00,13.0246342,77.5080115,PM2.5,8,289,62
India,Karnataka,Bengaluru,"Silk Board, Bengaluru - KSPCB",31-03-2024 01:00:00,12.917348,77.622813,PM10,44,96,74
India,Karnataka,Bengaluru,"Silk Board, Bengaluru - KSPCB",31-03-2024 01:00:00,12.917348,77.622813,CO,6,44,18
India,Karnataka,Bidar,"Naubad, Bidar - KSPCB",31-03-2024 01:00:00,17.930306,77.482194,CO,62,96,71
India,Karnataka,Chamarajanagar,"Urban, Chamarajanagar - KSPCB",31-03-2024 01:00:00,11.55358,76.55521,PM2.5,20,49,30
India,Karnataka,Chamarajanagar,"Urban, Chamarajanagar - KSPCB",31-03-2024 01:00:00,11.55358,76.55521,PM10,35,60,46
India,Karnataka,Chamarajanagar,"Urban, Chamarajanagar - KSPCB",31-03-2024 01:00:00,11.55358,76.55521,NO2,23,36,30
India,Karnataka,Chamarajanagar,"Urban, Chamarajanagar - KSPCB",31-03-2024 01:00:00,11.55358,76.55521,CO,19,32,22
India,Karnataka,Chikkaballapur,"Chikkaballapur Rural, Chikkaballapur - KSPCB",31-03-2024 01:00:00,13.428828,77.731418,PM10,70,136,90
India,Karnataka,Davanagere,"Devaraj Urs Badavane, Davanagere - KSPCB",31-03-2024 01:00:00,14.475800,75.905200,CO,17,20,19
India,Karnataka,Dharwad,"Kalabhavan, Dharwad - KSPCB",31-03-2024 01:00:00,15.459706,75.008381,PM10,31,71,45
India,Karnataka,Dharwad,"Kalabhavan, Dharwad - KSPCB",31-03-2024 01:00:00,15.459706,75.008381,NO2,5,33,16
India,Karnataka,Gadag,"Panchal Nagar, Gadag - KSPCB",31-03-2024 01:00:00,15.411456,75.638133,NO2,1,24,13
India,Karnataka,Gadag,"Panchal Nagar, Gadag - KSPCB",31-03-2024 01:00:00,15.411456,75.638133,SO2,NA,NA,NA
India,Karnataka,Hassan,"B.Katihalli, Hassan - KSPCB",31-03-2024 01:00:00,13.008556,76.125258,PM10,NA,NA,NA
India,Karnataka,Hubballi,"Deshpande Nagar, Hubballi - KSPCB",31-03-2024 01:00:00,15.351773,75.140726,PM10,47,108,76
India,Karnataka,Hubballi,"Deshpande Nagar, Hubballi - KSPCB",31-03-2024 01:00:00,15.351773,75.140726,OZONE,2,35,13
India,Karnataka,Hubballi,"Lingaraj Nagar, Hubballi - KSPCB",31-03-2024 01:00:00,15.3714823,75.1160168,OZONE,10,40,21
India,Karnataka,Kalaburagi,"Lal Bahadur Shastri Nagar, Kalaburagi - KSPCB",31-03-2024 01:00:00,17.321993,76.822628,CO,42,47,45
India,Karnataka,Kalaburagi,"Lal Bahadur Shastri Nagar, Kalaburagi - KSPCB",31-03-2024 01:00:00,17.321993,76.822628,OZONE,16,87,60
India,Karnataka,Kalaburagi,"Mahatma Basaveswar Colony, Kalaburgi - KSPCB",31-03-2024 01:00:00,17.336318,76.847397,PM10,35,86,51
India,Karnataka,Kolar,"Tamaka Ind. Area, Kolar - KSPCB",31-03-2024 01:00:00,13.1276288,78.1570122,PM10,61,187,99
India,Karnataka,Kolar,"Tamaka Ind. Area, Kolar - KSPCB",31-03-2024 01:00:00,13.1276288,78.1570122,CO,6,6,6
India,Karnataka,Madikeri,"Stuart Hill, Madikeri - KSPCB",31-03-2024 01:00:00,12.415911,75.735050,PM10,22,46,31
India,Karnataka,Mangalore,"Kadri, Mangalore - KSPCB",31-03-2024 01:00:00,12.889250,74.853000,PM10,27,37,32
India,Karnataka,Mangalore,"Kadri, Mangalore - KSPCB",31-03-2024 01:00:00,12.889250,74.853000,NH3,2,2,2
India,Karnataka,Mangalore,"Kadri, Mangalore - KSPCB",31-03-2024 01:00:00,12.889250,74.853000,OZONE,30,32,31
India,Karnataka,Mysuru,"Hebbal 1st Stage, Mysuru - KSPCB",31-03-2024 01:00:00,12.21041,76.37376,SO2,1,6,3
India,Karnataka,Raichur,"Haji Colony, Raichur - KSPCB",31-03-2024 01:00:00,16.208139,77.348417,PM10,NA,NA,NA
India,Karnataka,Raichur,"Haji Colony, Raichur - KSPCB",31-03-2024 01:00:00,16.208139,77.348417,NH3,NA,NA,NA
India,Karnataka,Raichur,"Haji Colony, Raichur - KSPCB",31-03-2024 01:00:00,16.208139,77.348417,OZONE,5,31,23
India,Karnataka,Ramanagara,"Vijay Nagar, Ramanagara - KSPCB",31-03-2024 01:00:00,12.733409,77.298051,PM2.5,17,368,44
India,Karnataka,Shivamogga,"Vinoba Nagara, Shivamogga - KSPCB",31-03-2024 01:00:00,13.940000,75.555917,CO,8,35,27
India,Karnataka,Shivamogga,"Vinoba Nagara, Shivamogga - KSPCB",31-03-2024 01:00:00,13.940000,75.555917,OZONE,14,78,58
India,Karnataka,Tumakuru,"Thimmalapura, Tumakuru - KSPCB",31-03-2024 01:00:00,13.377516,77.099072,OZONE,13,63,42
India,Karnataka,Vijayapura,"Ibrahimpur, Vijayapura - KSPCB",31-03-2024 01:00:00,16.802639,75.722694,PM2.5,26,31,30
India,Karnataka,Vijayapura,"Ibrahimpur, Vijayapura - KSPCB",31-03-2024 01:00:00,16.802639,75.722694,PM10,41,43,42
India,Karnataka,Yadgir,"Collector Office, Yadgir - KSPCB",31-03-2024 01:00:00,16.7602,77.1428,PM10,65,101,80
India,Karnataka,Yadgir,"Collector Office, Yadgir - KSPCB",31-03-2024 01:00:00,16.7602,77.1428,CO,8,19,16
India,Karnataka,Yadgir,"Collector Office, Yadgir - KSPCB",31-03-2024 01:00:00,16.7602,77.1428,OZONE,18,19,19
India,Kerala,Eloor,"Udyogamandal, Eloor - Kerala PCB",31-03-2024 01:00:00,10.073232,76.302765,NO2,4,5,4
India,Kerala,Kollam,"Polayathode, Kollam - Kerala PCB",31-03-2024 01:00:00,8.8787,76.6073,CO,8,30,15
India,Kerala,Thiruvananthapuram,"Kariavattom, Thiruvananthapuram - Kerala PCB",31-03-2024 01:00:00,8.563700,76.886500,CO,18,31,22
India,Kerala,Thiruvananthapuram,"Plammoodu, Thiruvananthapuram - Kerala PCB",31-03-2024 01:00:00,8.5149093,76.9435879,PM10,NA,NA,NA
India,Kerala,Thiruvananthapuram,"Plammoodu, Thiruvananthapuram - Kerala PCB",31-03-2024 01:00:00,8.5149093,76.9435879,SO2,7,14,11
India,Kerala,Thiruvananthapuram,"Plammoodu, Thiruvananthapuram - Kerala PCB",31-03-2024 01:00:00,8.5149093,76.9435879,CO,15,30,25
India,Kerala,Thrissur,"Corporation Ground, Thrissur - Kerala PCB",31-03-2024 01:00:00,10.532400,76.215900,SO2,1,25,7
India,Madhya Pradesh,Bhopal,"Paryavaran Parisar, Bhopal - MPPCB",31-03-2024 01:00:00,23.210494,77.425409,PM10,67,152,103
India,Madhya Pradesh,Bhopal,"Paryavaran Parisar, Bhopal - MPPCB",31-03-2024 01:00:00,23.210494,77.425409,OZONE,6,72,43
India,Madhya Pradesh,Bhopal,"T T Nagar, Bhopal - MPPCB",31-03-2024 01:00:00,23.233584,77.400574,CO,26,76,46
India,Madhya Pradesh,Dewas,"Bhopal Chauraha, Dewas - MPPCB",31-03-2024 01:00:00,22.9682591,76.064118,NH3,3,3,3
India,Madhya Pradesh,Gwalior,"Deen Dayal Nagar, Gwalior - MPPCB",31-03-2024 01:00:00,26.259242,78.216432,PM10,59,188,117
India,Madhya Pradesh,Gwalior,"Maharaj Bada, Gwalior - MPPCB",31-03-2024 01:00:00,26.200388,78.147714,PM2.5,20,92,39
India,Madhya Pradesh,Gwalior,"Maharaj Bada, Gwalior - MPPCB",31-03-2024 01:00:00,26.200388,78.147714,PM10,55,172,112
India,Madhya Pradesh,Gwalior,"Maharaj Bada, Gwalior - MPPCB",31-03-2024 01:00:00,26.200388,78.147714,NO2,8,94,25
India,Madhya Pradesh,Indore,"Chhoti Gwaltoli, Indore - MPPCB",31-03-2024 01:00:00,22.4310,75.5213,PM2.5,82,318,129
India,Madhya Pradesh,Indore,"Chhoti Gwaltoli, Indore - MPPCB",31-03-2024 01:00:00,22.4310,75.5213,NO2,55,90,68
India,Madhya Pradesh,Indore,"Chhoti Gwaltoli, Indore - MPPCB",31-03-2024 01:00:00,22.4310,75.5213,NH3,4,8,6
India,Madhya Pradesh,Indore,"Maguda Nagar, Indore - IMC",31-03-2024 01:00:00,22.7524,75.8872,PM2.5,NA,NA,NA
India,Madhya Pradesh,Indore,"Regional Park, Indore - IMC",31-03-2024 01:00:00,22.6780,75.8559,PM2.5,NA,NA,NA
India,Madhya Pradesh,Indore,"Regional Park, Indore - IMC",31-03-2024 01:00:00,22.6780,75.8559,PM10,NA,NA,NA
India,Madhya Pradesh,Jabalpur,"Gupteshwar, Jabalpur - JMC",31-03-2024 01:00:00,23.142888,79.916147,PM2.5,NA,NA,NA
India,Madhya Pradesh,Jabalpur,"Gupteshwar, Jabalpur - JMC",31-03-2024 01:00:00,23.142888,79.916147,NO2,NA,NA,NA
India,Madhya Pradesh,Jabalpur,"Gupteshwar, Jabalpur - JMC",31-03-2024 01:00:00,23.142888,79.916147,SO2,NA,NA,NA
India,Madhya Pradesh,Jabalpur,"Marhatal, Jabalpur - MPPCB",31-03-2024 01:00:00,23.168606,79.932247,NH3,3,4,4
India,Madhya Pradesh,Katni,"Gole Bazar, Katni - MPPCB",31-03-2024 01:00:00,23.50016,80.23284,NH3,2,8,4
India,Madhya Pradesh,Katni,"Gole Bazar, Katni - MPPCB",31-03-2024 01:00:00,23.50016,80.23284,OZONE,20,86,41
India,Madhya Pradesh,Maihar,"Sahilara, Maihar - KJS Cements",31-03-2024 01:00:00,24.2613009,80.7231783,PM2.5,NA,NA,NA
India,Madhya Pradesh,Sagar,"Deen Dayal Nagar, Sagar - MPPCB",31-03-2024 01:00:00,23.8640158,78.80289321,CO,22,102,62
India,Madhya Pradesh,Singrauli,"Suryakiran Bhawan NCL, Singrauli - MPPCB",31-03-2024 01:00:00,24.108970,82.645580,PM2.5,45,282,118
India,Madhya Pradesh,Singrauli,"Suryakiran Bhawan NCL, Singrauli - MPPCB",31-03-2024 01:00:00,24.108970,82.645580,CO,28,36,30
India,Madhya Pradesh,Ujjain,"Mahakaleshwar Temple, Ujjain - MPPCB",31-03-2024 01:00:00,23.182719 ,75.768218 ,NO2,11,32,22
India,Maharashtra,Ahmednagar,"Tarakpur, Ahmednagar - MPCB",31-03-2024 01:00:00,19.10122,74.73339,PM10,61,152,108
India,Maharashtra,Ahmednagar,"Tarakpur, Ahmednagar - MPCB",31-03-2024 01:00:00,19.10122,74.73339,NH3,3,5,4
India,Maharashtra,Ahmednagar,"Tarakpur, Ahmednagar - MPCB",31-03-2024 01:00:00,19.10122,74.73339,OZONE,8,157,79
India,Maharashtra,Akola,"Ramdaspeth, Akola - MPCB",31-03-2024 01:00:00,20.719516,77.000253,SO2,10,25,15
India,Maharashtra,Akola,"Ramdaspeth, Akola - MPCB",31-03-2024 01:00:00,20.719516,77.000253,OZONE,3,116,32
India,Maharashtra,Amravati,"Shivneri Colony, Amravati - MPCB",31-03-2024 01:00:00,20.9402359,77.7895248,NO2,11,83,36
India,Maharashtra,Aurangabad,"MIDC Chilkalthana, Aurangabad - MPCB",31-03-2024 01:00:00,19.875620,75.387310,NH3,3,4,4
India,Maharashtra,Aurangabad,"More Chowk Waluj, Aurangabad - MPCB",31-03-2024 01:00:00,19.8389439,75.244448,PM10,62,138,93
India,Maharashtra,Aurangabad,"More Chowk Waluj, Aurangabad - MPCB",31-03-2024 01:00:00,19.8389439,75.244448,SO2,NA,NA,NA
India,Maharashtra,Aurangabad,"Rachnakar Colony, Aurangabad - MPCB",31-03-2024 01:00:00,19.863756,75.321188,OZONE,21,105,37
India,Maharashtra,Belapur,"CBD Belapur, Belapur - MPCB",31-03-2024 01:00:00,19.0243902,73.0406721,NH3,9,18,12
India,Maharashtra,Bhiwandi,"Gokul Nagar, Bhiwandi - MPCB",31-03-2024 01:00:00,19.309073,73.057223,NO2,16,80,32
India,Maharashtra,Bhiwandi,"Gokul Nagar, Bhiwandi - MPCB",31-03-2024 01:00:00,19.309073,73.057223,NH3,1,3,1
India,Maharashtra,Bhiwandi,"Gokul Nagar, Bhiwandi - MPCB",31-03-2024 01:00:00,19.309073,73.057223,SO2,2,18,6
India,Maharashtra,Bhiwandi,"Gokul Nagar, Bhiwandi - MPCB",31-03-2024 01:00:00,19.309073,73.057223,CO,14,74,21
India,Maharashtra,Boisar,"Khaira, Boisar - MPCB",31-03-2024 01:00:00,19.786089,72.757971,NH3,2,10,4
India,Maharashtra,Boisar,"Khaira, Boisar - MPCB",31-03-2024 01:00:00,19.786089,72.757971,OZONE,35,42,39
India,Maharashtra,Chandrapur,"Chauhan Colony, Chandrapur - MPCB",31-03-2024 01:00:00,19.962900,79.298714,PM10,68,107,90
India,Maharashtra,Chandrapur,"Chauhan Colony, Chandrapur - MPCB",31-03-2024 01:00:00,19.962900,79.298714,CO,24,26,24
India,Maharashtra,Chandrapur,"MIDC Khutala, Chandrapur - MPCB",31-03-2024 01:00:00,19.9775302,79.2337086,NO2,16,36,26
India,Maharashtra,Chandrapur,"MIDC Khutala, Chandrapur - MPCB",31-03-2024 01:00:00,19.9775302,79.2337086,CO,22,70,42
India,Maharashtra,Jalgaon,"Prabhat Colony, Jalgaon - MPCB",31-03-2024 01:00:00,21.001264,75.565602,PM2.5,71,164,105
India,Maharashtra,Jalgaon,"Prabhat Colony, Jalgaon - MPCB",31-03-2024 01:00:00,21.001264,75.565602,NH3,3,11,8
India,Maharashtra,Jalgaon,"Prabhat Colony, Jalgaon - MPCB",31-03-2024 01:00:00,21.001264,75.565602,CO,10,38,19
India,Maharashtra,Jalna,"Old MIDC, Jalna - MPCB",31-03-2024 01:00:00,19.854616,75.905894,PM10,55,104,74
India,Maharashtra,Jalna,"Old MIDC, Jalna - MPCB",31-03-2024 01:00:00,19.854616,75.905894,NO2,12,26,19
India,Maharashtra,Jalna,"Old MIDC, Jalna - MPCB",31-03-2024 01:00:00,19.854616,75.905894,OZONE,5,87,64
India,Maharashtra,Kalyan,"Khadakpada, Kalyan - MPCB",31-03-2024 01:00:00,19.25292,73.142019,OZONE,12,19,13
India,Maharashtra,Kolhapur,"Shivaji University, Kolhapur - MPCB",31-03-2024 01:00:00,16.6870449,74.2505872,SO2,2,10,5
India,Maharashtra,Latur,"Sawe Wadi, Latur - MPCB",31-03-2024 01:00:00,18.39963,76.57452,NO2,8,72,25
India,Maharashtra,Latur,"Sawe Wadi, Latur - MPCB",31-03-2024 01:00:00,18.39963,76.57452,NH3,10,11,11
India,Maharashtra,Mahad,"Kamble Tarf Birwadi, Mahad - MPCB",31-03-2024 01:00:00,18.1023399,73.4783687,NO2,15,45,25
India,Maharashtra,Mahad,"Kamble Tarf Birwadi, Mahad - MPCB",31-03-2024 01:00:00,18.1023399,73.4783687,SO2,19,94,33
India,Maharashtra,Malegaon,"Mahesh Nagar, Malegaon - MPCB",31-03-2024 01:00:00,20.555712,74.529236,OZONE,16,112,39
India,Maharashtra,Mira-Bhayandar,"Bhayandar West, Mira-Bhayandar - MPCB",31-03-2024 01:00:00,19.296481,72.840923,PM10,44,157,99
India,Maharashtra,Mira-Bhayandar,"Bhayandar West, Mira-Bhayandar - MPCB",31-03-2024 01:00:00,19.296481,72.840923,CO,10,18,10
India,Maharashtra,Mira-Bhayandar,"Bhayandar West, Mira-Bhayandar - MPCB",31-03-2024 01:00:00,19.296481,72.840923,OZONE,5,187,128
India,Maharashtra,Mumbai,"Bandra Kurla Complex, Mumbai - MPCB",31-03-2024 01:00:00,19.065931,72.862131,PM10,97,187,125
India,Maharashtra,Mumbai,"Bandra Kurla Complex, Mumbai - MPCB",31-03-2024 01:00:00,19.065931,72.862131,OZONE,21,91,65
India,Maharashtra,Mumbai,"Borivali East, Mumbai - IITM",31-03-2024 01:00:00,19.23241,72.86895,PM10,63,116,90
India,Maharashtra,Mumbai,"Borivali East, Mumbai - IITM",31-03-2024 01:00:00,19.23241,72.86895,NO2,38,59,48
India,Maharashtra,Mumbai,"Byculla, Mumbai - BMC",31-03-2024 01:00:00,18.9767,72.8380,NO2,12,20,15
India,Maharashtra,Mumbai,"Byculla, Mumbai - BMC",31-03-2024 01:00:00,18.9767,72.8380,NH3,4,5,4
India,Maharashtra,Mumbai,"Chakala-Andheri East, Mumbai - IITM",31-03-2024 01:00:00,19.11074,72.86084,SO2,25,62,40
India,Maharashtra,Mumbai,"Chhatrapati Shivaji Intl. Airport (T2), Mumbai - MPCB",31-03-2024 01:00:00,19.10078,72.87462,NO2,2,46,20
India,Maharashtra,Mumbai,"Chhatrapati Shivaji Intl. Airport (T2), Mumbai - MPCB",31-03-2024 01:00:00,19.10078,72.87462,SO2,20,25,23
India,Maharashtra,Mumbai,"Colaba, Mumbai - MPCB",31-03-2024 01:00:00,18.910000,72.820000,PM10,49,85,66
India,Maharashtra,Mumbai,"Kandivali East, Mumbai - MPCB",31-03-2024 01:00:00,19.205800,72.868200,NO2,22,106,46
India,Maharashtra,Mumbai,"Kandivali West, Mumbai - BMC",31-03-2024 01:00:00,19.215859,72.831718,NH3,1,3,2
India,Maharashtra,Mumbai,"Khindipada-Bhandup West, Mumbai - IITM",31-03-2024 01:00:00,19.1653323,72.922099,CO,14,44,24
India,Maharashtra,Mumbai,"Kurla, Mumbai - MPCB",31-03-2024 01:00:00,19.0863,72.8888,NO2,16,34,24
India,Maharashtra,Mumbai,"Kurla, Mumbai - MPCB",31-03-2024 01:00:00,19.0863,72.8888,SO2,32,32,32
India,Maharashtra,Mumbai,"Kurla, Mumbai - MPCB",31-03-2024 01:00:00,19.0863,72.8888,OZONE,27,29,28
India,Maharashtra,Mumbai,"Mindspace-Malad West, Mumbai - MPCB",31-03-2024 01:00:00,19.1878657,72.8304069,NO2,12,19,17
India,Maharashtra,Mumbai,"Mindspace-Malad West, Mumbai - MPCB",31-03-2024 01:00:00,19.1878657,72.8304069,OZONE,5,86,63
India,Maharashtra,Mumbai,"Mulund West, Mumbai - MPCB",31-03-2024 01:00:00,19.1750,72.9419,PM2.5,51,164,81
India,Maharashtra,Mumbai,"Mulund West, Mumbai - MPCB",31-03-2024 01:00:00,19.1750,72.9419,NH3,10,11,10
India,Maharashtra,Mumbai,"Mulund West, Mumbai - MPCB",31-03-2024 01:00:00,19.1750,72.9419,SO2,13,13,13
India,Maharashtra,Mumbai,"Navy Nagar-Colaba, Mumbai - IITM",31-03-2024 01:00:00,18.897756,72.813320,NH3,9,14,11
India,Maharashtra,Mumbai,"Navy Nagar-Colaba, Mumbai - IITM",31-03-2024 01:00:00,18.897756,72.813320,CO,18,45,33
India,Maharashtra,Mumbai,"Powai, Mumbai - MPCB",31-03-2024 01:00:00,19.137500,72.915056,PM10,76,148,120
India,Maharashtra,Mumbai,"Powai, Mumbai - MPCB",31-03-2024 01:00:00,19.137500,72.915056,NO2,19,40,26
India,Maharashtra,Mumbai,"Powai, Mumbai - MPCB",31-03-2024 01:00:00,19.137500,72.915056,SO2,31,41,35
India,Maharashtra,Mumbai,"Powai, Mumbai - MPCB",31-03-2024 01:00:00,19.137500,72.915056,CO,32,39,35
India,Maharashtra,Mumbai,"Sewri, Mumbai - BMC",31-03-2024 01:00:00,19.000084,72.856730,OZONE,1,41,31
India,Maharashtra,Mumbai,"Shivaji Nagar, Mumbai - BMC",31-03-2024 01:00:00,19.060498,72.923356,PM10,85,119,104
India,Maharashtra,Mumbai,"Shivaji Nagar, Mumbai - BMC",31-03-2024 01:00:00,19.060498,72.923356,NH3,5,8,7
India,Maharashtra,Mumbai,"Siddharth Nagar-Worli, Mumbai - IITM",31-03-2024 01:00:00,19.000083,72.813993,NH3,1,2,2
India,Maharashtra,Mumbai,"Sion, Mumbai - MPCB",31-03-2024 01:00:00,19.047000,72.874600,PM2.5,48,91,70
India,Maharashtra,Mumbai,"Vasai West, Mumbai - MPCB",31-03-2024 01:00:00,19.383200,72.820400,PM2.5,33,142,70
India,Maharashtra,Mumbai,"Vasai West, Mumbai - MPCB",31-03-2024 01:00:00,19.383200,72.820400,NH3,4,4,4
India,Maharashtra,Mumbai,"Vile Parle West, Mumbai - MPCB",31-03-2024 01:00:00,19.10861,72.83622,PM10,80,156,111
India,Maharashtra,Mumbai,"Worli, Mumbai - MPCB",31-03-2024 01:00:00,18.9936162,72.8128113,PM10,63,125,98
India,Maharashtra,Mumbai,"Worli, Mumbai - MPCB",31-03-2024 01:00:00,18.9936162,72.8128113,SO2,11,11,11
India,Maharashtra,Mumbai,"Worli, Mumbai - MPCB",31-03-2024 01:00:00,18.9936162,72.8128113,CO,26,27,26
India,Maharashtra,Nagpur,"Ambazari, Nagpur - MPCB",31-03-2024 01:00:00,21.121801,79.04952,NO2,14,93,35
India,Maharashtra,Nagpur,"Mahal, Nagpur - MPCB",31-03-2024 01:00:00,21.14472,79.107595,PM10,84,161,106
India,Maharashtra,Nagpur,"Opp GPO Civil Lines, Nagpur - MPCB",31-03-2024 01:00:00,21.152875,79.0517531,NO2,25,150,51
India,Maharashtra,Nashik,"Gangapur Road, Nashik - MPCB",31-03-2024 01:00:00,20.0073285,73.7762427,NO2,8,14,10
India,Maharashtra,Nashik,"Hirawadi, Nashik - MPCB",31-03-2024 01:00:00,20.021503,73.813844,NH3,2,3,2
India,Maharashtra,Nashik,"MIDC Ambad, Nashik - MPCB",31-03-2024 01:00:00,19.950220,73.731480,OZONE,12,38,20
India,Maharashtra,Nashik,"Pandav Nagari, Nashik - MPCB",31-03-2024 01:00:00,19.9591346,73.7788008,SO2,9,25,15
India,Maharashtra,Navi Mumbai,"Kopripada-Vashi, Navi Mumbai - MPCB",31-03-2024 01:00:00,19.090337,73.014232,PM10,75,285,139
India,Maharashtra,Navi Mumbai,"Kopripada-Vashi, Navi Mumbai - MPCB",31-03-2024 01:00:00,19.090337,73.014232,NH3,6,21,9
India,Maharashtra,Navi Mumbai,"Kopripada-Vashi, Navi Mumbai - MPCB",31-03-2024 01:00:00,19.090337,73.014232,OZONE,9,88,31
India,Maharashtra,Navi Mumbai,"Mahape, Navi Mumbai - MPCB",31-03-2024 01:00:00,19.1135051,73.008978,NO2,37,39,38
India,Maharashtra,Navi Mumbai,"Mahape, Navi Mumbai - MPCB",31-03-2024 01:00:00,19.1135051,73.008978,NH3,3,4,3
India,Maharashtra,Navi Mumbai,"Nerul, Navi Mumbai - MPCB",31-03-2024 01:00:00,19.008751,73.016620,PM2.5,45,134,79
India,Maharashtra,Navi Mumbai,"Nerul, Navi Mumbai - MPCB",31-03-2024 01:00:00,19.008751,73.016620,SO2,10,10,10
India,Maharashtra,Navi Mumbai,"Sanpada, Navi Mumbai - MPCB",31-03-2024 01:00:00,19.0575752,73.0151367,SO2,1,6,3
India,Maharashtra,Navi Mumbai,"Sanpada, Navi Mumbai - MPCB",31-03-2024 01:00:00,19.0575752,73.0151367,OZONE,3,100,34
India,Maharashtra,Navi Mumbai,"Sector-19A Nerul, Navi Mumbai - IITM",31-03-2024 01:00:00,19.044,73.0325,SO2,11,22,18
India,Maharashtra,Navi Mumbai,"Sector-2E Kalamboli, Navi Mumbai - MPCB",31-03-2024 01:00:00,19.02579,73.10297,PM2.5,37,83,52
India,Maharashtra,Navi Mumbai,"Sector-2E Kalamboli, Navi Mumbai - MPCB",31-03-2024 01:00:00,19.02579,73.10297,PM10,52,119,88
India,Maharashtra,Navi Mumbai,"Sector-2E Kalamboli, Navi Mumbai - MPCB",31-03-2024 01:00:00,19.02579,73.10297,NH3,3,6,4
India,Maharashtra,Navi Mumbai,"Sector-2E Kalamboli, Navi Mumbai - MPCB",31-03-2024 01:00:00,19.02579,73.10297,SO2,1,22,8
India,Maharashtra,Parbhani,"Masoom Colony, Parbhani - MPCB",31-03-2024 01:00:00,19.265594,76.761463,PM10,92,199,117
India,Maharashtra,Pimpri-Chinchwad,"Gavalinagar, Pimpri Chinchwad - MPCB",31-03-2024 01:00:00,18.63673,73.82487,NH3,1,4,2
India,Maharashtra,Pimpri-Chinchwad,"Gavalinagar, Pimpri Chinchwad - MPCB",31-03-2024 01:00:00,18.63673,73.82487,SO2,10,22,14
India,Maharashtra,Pimpri-Chinchwad,"Gavalinagar, Pimpri Chinchwad - MPCB",31-03-2024 01:00:00,18.63673,73.82487,OZONE,26,167,99
India,Maharashtra,Pimpri-Chinchwad,"Park Street Wakad, Pimpri Chinchwad - MPCB",31-03-2024 01:00:00,18.59051,73.77946,PM10,65,175,102
India,Maharashtra,Pimpri-Chinchwad,"Park Street Wakad, Pimpri Chinchwad - MPCB",31-03-2024 01:00:00,18.59051,73.77946,NH3,7,12,9
India,Maharashtra,Pune,"Bhosari, Pune - IITM",31-03-2024 01:00:00,18.640051,73.848956,CO,40,45,43
India,Maharashtra,Pune,"Bhosari, Pune - IITM",31-03-2024 01:00:00,18.640051,73.848956,OZONE,21,96,69
India,Maharashtra,Pune,"Karve Road, Pune - MPCB",31-03-2024 01:00:00,18.5011743,73.8165527,PM10,107,151,125
India,Maharashtra,Pune,"Karve Road, Pune - MPCB",31-03-2024 01:00:00,18.5011743,73.8165527,OZONE,5,8,5
India,Maharashtra,Pune,"Mhada Colony, Pune - IITM",31-03-2024 01:00:00,18.573040,73.927715,PM2.5,44,127,71
India,Maharashtra,Pune,"Revenue Colony-Shivajinagar, Pune - IITM",31-03-2024 01:00:00,18.530085,73.849598,CO,96,117,114
India,Maharashtra,Pune,"Transport Nagar-Nigdi, Pune - IITM",31-03-2024 01:00:00,18.664282,73.763966,NO2,15,18,17
India,Maharashtra,Sangli,"Vijay Nagar, Sangli - MPCB",31-03-2024 01:00:00, 16.5038,74.3623,PM10,41,115,91
India,Maharashtra,Solapur,"Dnyaneshwar Nagar, Solapur - MPCB",31-03-2024 01:00:00,17.6336264,75.9132495,PM2.5,93,198,137
India,Maharashtra,Solapur,"Solapur, Solapur - MPCB",31-03-2024 01:00:00,17.6599188,75.9063906,PM2.5,56,94,74
India,Maharashtra,Solapur,"Solapur, Solapur - MPCB",31-03-2024 01:00:00,17.6599188,75.9063906,PM10,118,142,131
India,Maharashtra,Thane,"Upvan Fort, Thane - MPCB",31-03-2024 01:00:00,19.222279,72.957979,SO2,1,12,5
India,Maharashtra,Ulhasnagar,"Sidhi Vinayak Nagar, Ulhasnagar - MPCB",31-03-2024 01:00:00,19.235581,73.159121,SO2,2,18,7
India,Maharashtra,Virar,"Bolinj, Virar - MPCB",31-03-2024 01:00:00,19.4458210,72.7988231,PM10,89,167,111
India,Manipur,Imphal,"Manipur University, Imphal - Manipur PCB",31-03-2024 01:00:00,24.7524239,93.9286218,PM2.5,70,227,129
India,Manipur,Imphal,"Manipur University, Imphal - Manipur PCB",31-03-2024 01:00:00,24.7524239,93.9286218,NH3,NA,NA,NA
India,Meghalaya,Shillong,"Lumpyngngad, Shillong - Meghalaya PCB",31-03-2024 01:00:00,25.5586,91.8985,PM2.5,64,136,89
India,Meghalaya,Shillong,"Lumpyngngad, Shillong - Meghalaya PCB",31-03-2024 01:00:00,25.5586,91.8985,CO,10,18,14
India,Mizoram,Aizawl,"Sikulpuikawn, Aizawl - Mizoram PCB",31-03-2024 01:00:00,23.7176342,92.7192841,PM10,56,101,77
India,Mizoram,Aizawl,"Sikulpuikawn, Aizawl - Mizoram PCB",31-03-2024 01:00:00,23.7176342,92.7192841,OZONE,1,63,26
India,Nagaland,Kohima,"PWD Juction, Kohima - NPCB",31-03-2024 01:00:00,25.6635413,94.0989878,NH3,1,1,1
India,Odisha,Angul,"Hakimapada, Angul - OSPCB",31-03-2024 01:00:00,20.832874,85.104082,NH3,1,1,1
India,Odisha,Barbil,"Forest Office, Barbil - OSPCB",31-03-2024 01:00:00,22.1166054,85.3945546,NO2,6,81,18
India,Odisha,Baripada,"Meher Colony, Baripada - OSPCB",31-03-2024 01:00:00,21.941841,86.728318,PM2.5,80,198,129
India,Odisha,Baripada,"Meher Colony, Baripada - OSPCB",31-03-2024 01:00:00,21.941841,86.728318,NO2,1,1,1
India,Odisha,Bhubaneswar,"Patia, Bhubaneswar - OSPCB",31-03-2024 01:00:00,20.34652,85.81630,PM2.5,3,52,24
India,Odisha,Bhubaneswar,"Patia, Bhubaneswar - OSPCB",31-03-2024 01:00:00,20.34652,85.81630,PM10,20,231,89
India,Odisha,Bhubaneswar,"Patia, Bhubaneswar - OSPCB",31-03-2024 01:00:00,20.34652,85.81630,SO2,3,11,7
India,Odisha,Bhubaneswar,"Patia, Bhubaneswar - OSPCB",31-03-2024 01:00:00,20.34652,85.81630,CO,52,84,64
India,Odisha,Bileipada,"Tata Township, Bileipada - OSPCB",31-03-2024 01:00:00,22.06156703,85.47409613,OZONE,29,42,35
India,Odisha,Brajrajnagar,"GM Office, Brajrajnagar - OSPCB",31-03-2024 01:00:00,21.8004996,83.8396977,CO,100,103,101
India,Odisha,Byasanagar,"Ferro Chrome Colony, Byasanagar - OSPCB",31-03-2024 01:00:00,20.94185,86.11510,PM10,39,137,91
India,Odisha,Cuttack,"CDA Area, Cuttack - OSPCB",31-03-2024 01:00:00,20.48891     ,85.84768     ,NO2,14,29,19
India,Odisha,Cuttack,"CDA Area, Cuttack - OSPCB",31-03-2024 01:00:00,20.48891     ,85.84768     ,SO2,1,20,4
India,Odisha,Cuttack,"CDA Area, Cuttack - OSPCB",31-03-2024 01:00:00,20.48891     ,85.84768     ,CO,16,36,26
India,Odisha,Keonjhar,"Jagamohanpur, Keonjhar - OSPCB",31-03-2024 01:00:00,21.643900,85.599355,NH3,7,14,9
India,Odisha,Nayagarh,"Dabuna, Nayagarh - OSPCB",31-03-2024 01:00:00,21.847279,85.416905,PM2.5,158,321,256
India,Odisha,Rairangpur,"Divisional Forest Office, Rairangpur - OSPCB",31-03-2024 01:00:00,22.265816,86.174829,NO2,7,8,7
India,Odisha,Rairangpur,"Divisional Forest Office, Rairangpur - OSPCB",31-03-2024 01:00:00,22.265816,86.174829,NH3,5,5,5
India,Odisha,Rairangpur,"Divisional Forest Office, Rairangpur - OSPCB",31-03-2024 01:00:00,22.265816,86.174829,SO2,2,8,4
India,Odisha,Rourkela,"Raghunathpali, Rourkela - OSPCB",31-03-2024 01:00:00,22.220833,84.809444,SO2,1,7,2
India,Odisha,Tensa,"Barsua Iron Ore Mines, Tensa - OSPCB",31-03-2024 01:00:00,21.869985,85.167016,OZONE,14,99,62
India,Puducherry,Puducherry,"Jawahar Nagar, Puducherry - PPCC",31-03-2024 01:00:00,11.9309,79.8027,OZONE,1,34,18
India,Punjab,Amritsar,"Golden Temple, Amritsar - PPCB",31-03-2024 01:00:00,31.620000,74.876512,CO,8,112,21
India,Punjab,Jalandhar,"Civil Line, Jalandhar - PPCB",31-03-2024 01:00:00,31.321907,75.578914,CO,4,103,47
India,Punjab,Mandi Gobindgarh,"RIMT University, Mandi Gobindgarh - PPCB",31-03-2024 01:00:00,30.649961,76.331442,CO,8,52,16
India,Punjab,Rupnagar,"Ratanpura, Rupnagar - Ambuja Cements",31-03-2024 01:00:00,31.0325454,76.5623046,PM10,20,321,146
India,Rajasthan,Ajmer,"Civil Lines,  Ajmer - RSPCB",31-03-2024 01:00:00,26.470859,74.646594,NO2,11,13,12
India,Rajasthan,Alwar,"Moti Doongri, Alwar - RSPCB",31-03-2024 01:00:00,27.554793,76.611536,PM2.5,70,207,108
India,Rajasthan,Baran,"Bamboliya, Baran - RSPCB",31-03-2024 01:00:00,25.106006,76.469948,OZONE,20,113,63
India,Rajasthan,Barmer,"Railway Colony, Barmer - RSPCB",31-03-2024 01:00:00,25.747299,71.393989,OZONE,70,82,74
India,Rajasthan,Bharatpur,"Krishna Nagar, Bharatpur - RSPCB",31-03-2024 01:00:00,27.215415,77.50873,PM2.5,50,382,192
India,Rajasthan,Bharatpur,"Krishna Nagar, Bharatpur - RSPCB",31-03-2024 01:00:00,27.215415,77.50873,OZONE,13,138,91
India,Rajasthan,Bhilwara,"Pratap Nagar, Bhilwara - RSPCB",31-03-2024 01:00:00,25.339605,74.618883,PM10,42,103,69
India,Rajasthan,Bhiwadi,"Vasundhara Nagar_UIT, Bhiwadi - RSPCB",31-03-2024 01:00:00,28.207266,76.829265,NO2,NA,NA,NA
India,Rajasthan,Bikaner,"MM Ground, Bikaner - RSPCB",31-03-2024 01:00:00,28.018792,73.292658,PM10,114,266,159
India,Rajasthan,Bikaner,"MM Ground, Bikaner - RSPCB",31-03-2024 01:00:00,28.018792,73.292658,NO2,23,44,34
India,Rajasthan,Bundi,"New Colony, Bundi - RSPCB",31-03-2024 01:00:00,25.435774,75.644272,PM2.5,17,70,36
India,Rajasthan,Bundi,"New Colony, Bundi - RSPCB",31-03-2024 01:00:00,25.435774,75.644272,PM10,52,213,112
India,Rajasthan,Bundi,"New Colony, Bundi - RSPCB",31-03-2024 01:00:00,25.435774,75.644272,CO,8,50,21
India,Rajasthan,Bundi,"New Colony, Bundi - RSPCB",31-03-2024 01:00:00,25.435774,75.644272,OZONE,20,91,63
India,Rajasthan,Chittorgarh,"Shastri Nagar, Chittorgarh - RSPCB",31-03-2024 01:00:00,24.892047,74.623527,PM2.5,7,58,35
India,Rajasthan,Chittorgarh,"Shastri Nagar, Chittorgarh - RSPCB",31-03-2024 01:00:00,24.892047,74.623527,NO2,15,57,30
India,Rajasthan,Churu,"Subash Chowk, Churu - RSPCB",31-03-2024 01:00:00,28.296139,74.961696,NO2,16,45,29
India,Rajasthan,Churu,"Subash Chowk, Churu - RSPCB",31-03-2024 01:00:00,28.296139,74.961696,OZONE,39,112,64
India,Rajasthan,Dausa,"Khatikan Mohalla, Dausa - RSPCB",31-03-2024 01:00:00,26.895552,76.334753,NO2,24,90,54
India,Rajasthan,Dausa,"Khatikan Mohalla, Dausa - RSPCB",31-03-2024 01:00:00,26.895552,76.334753,OZONE,6,114,47
India,Rajasthan,Dholpur,"Raja Ganj, Dholpur - RSPCB",31-03-2024 01:00:00,26.699557,77.898881,NH3,NA,NA,NA
India,Rajasthan,Dholpur,"Raja Ganj, Dholpur - RSPCB",31-03-2024 01:00:00,26.699557,77.898881,SO2,4,21,6
India,Rajasthan,Dungarpur,"Bhoiwada, Dungarpur - RSPCB",31-03-2024 01:00:00,23.837789,73.714926,NH3,2,5,3
India,Rajasthan,Hanumangarh,"Housing Board, Hanumangarh - RSPCB",31-03-2024 01:00:00,29.610750,74.283608,SO2,1,11,4
India,Rajasthan,Hanumangarh,"Housing Board, Hanumangarh - RSPCB",31-03-2024 01:00:00,29.610750,74.283608,CO,45,80,69
India,Rajasthan,Jaipur,"Adarsh Nagar, Jaipur - RSPCB",31-03-2024 01:00:00,26.902909,75.836858,NH3,3,9,6
India,Rajasthan,Jaipur,"Mansarovar Sector-12, Jaipur - RSPCB",31-03-2024 01:00:00,26.843698,75.766894,SO2,2,12,5
India,Rajasthan,Jaipur,"Police Commissionerate, Jaipur - RSPCB",31-03-2024 01:00:00,26.9164092,75.7994901,PM2.5,35,101,68
India,Rajasthan,Jaipur,"Police Commissionerate, Jaipur - RSPCB",31-03-2024 01:00:00,26.9164092,75.7994901,NH3,2,10,6
India,Rajasthan,Jaipur,"Police Commissionerate, Jaipur - RSPCB",31-03-2024 01:00:00,26.9164092,75.7994901,SO2,6,25,17
India,Rajasthan,Jaipur,"RIICO Sitapura, Jaipur - RSPCB",31-03-2024 01:00:00,26.786682,75.827928,NH3,2,10,6
India,Rajasthan,Jaipur,"RIICO Sitapura, Jaipur - RSPCB",31-03-2024 01:00:00,26.786682,75.827928,CO,16,75,43
India,Rajasthan,Jaipur,"Sector-2 Murlipura, Jaipur - RSPCB",31-03-2024 01:00:00,26.960669,75.771817,OZONE,11,50,23
India,Rajasthan,Jaipur,"Shastri Nagar, Jaipur - RSPCB",31-03-2024 01:00:00,26.9502929,75.730943,SO2,5,47,22
India,Rajasthan,Jaisalmer,"Sadar Bazar, Jaisalmer - RSPCB",31-03-2024 01:00:00,26.912329,70.909168,PM2.5,11,37,23
India,Rajasthan,Jaisalmer,"Sadar Bazar, Jaisalmer - RSPCB",31-03-2024 01:00:00,26.912329,70.909168,NO2,9,46,20
India,Rajasthan,Jodhpur,"Collectorate, Jodhpur - RSPCB",31-03-2024 01:00:00,26.268249,73.0193853,PM2.5,36,177,92
India,Rajasthan,Jodhpur,"Jhalamand, Jodhpur - RSPCB",31-03-2024 01:00:00,26.215415,73.070156,PM2.5,2,65,24
India,Rajasthan,Jodhpur,"Mandor, Jodhpur - RSPCB",31-03-2024 01:00:00,26.358805,73.047444,NO2,13,45,26
India,Rajasthan,Jodhpur,"Mandor, Jodhpur - RSPCB",31-03-2024 01:00:00,26.358805,73.047444,NH3,4,8,6
India,Rajasthan,Jodhpur,"Mandor, Jodhpur - RSPCB",31-03-2024 01:00:00,26.358805,73.047444,SO2,1,4,2
India,Rajasthan,Karauli,"Satyawati Vihar, Karauli - RSPCB",31-03-2024 01:00:00,26.506177,77.025989,NH3,6,19,9
India,Rajasthan,Karauli,"Satyawati Vihar, Karauli - RSPCB",31-03-2024 01:00:00,26.506177,77.025989,SO2,20,32,25
India,Rajasthan,Kota,"Dhanmandi, Kota - RSPCB",31-03-2024 01:00:00,25.164090,75.858137,NO2,5,95,29
India,Rajasthan,Kota,"Dhanmandi, Kota - RSPCB",31-03-2024 01:00:00,25.164090,75.858137,OZONE,10,127,54
India,Rajasthan,Kota,"Nayapura, Kota - RSPCB",31-03-2024 01:00:00,25.196024,75.855668,NH3,6,29,10
India,Rajasthan,Kota,"Nayapura, Kota - RSPCB",31-03-2024 01:00:00,25.196024,75.855668,CO,17,102,55
India,Rajasthan,Kota,"Shrinath Puram, Kota - RSPCB",31-03-2024 01:00:00,25.14389,75.821256,PM10,NA,NA,NA
India,Rajasthan,Pali,"Indira Colony Vistar, Pali - RSPCB",31-03-2024 01:00:00,25.771061, 73.340227,PM10,63,130,98
India,Rajasthan,Pali,"Indira Colony Vistar, Pali - RSPCB",31-03-2024 01:00:00,25.771061, 73.340227,NO2,16,30,22
India,Rajasthan,Pali,"Indira Colony Vistar, Pali - RSPCB",31-03-2024 01:00:00,25.771061, 73.340227,NH3,1,4,2
India,Rajasthan,Pratapgarh,"Pragati Nagar, Pratapgarh - RSPCB",31-03-2024 01:00:00,24.041198,74.780702,NH3,NA,NA,NA
India,Rajasthan,Pratapgarh,"Pragati Nagar, Pratapgarh - RSPCB",31-03-2024 01:00:00,24.041198,74.780702,OZONE,36,77,61
India,Rajasthan,Rajsamand,"Dhoinda, Rajsamand - RSPCB",31-03-2024 01:00:00,25.036360,73.883502,OZONE,36,56,54
India,Rajasthan,Sikar,"Radhakishan Pura, Sikar - RSPCB",31-03-2024 01:00:00,27.608912,75.153302,NH3,4,8,6
India,Rajasthan,Sirohi,"Vedhaynath Colony, Sirohi - RSPCB",31-03-2024 01:00:00,24.885261,72.857549,PM10,30,69,47
India,Rajasthan,Sirohi,"Vedhaynath Colony, Sirohi - RSPCB",31-03-2024 01:00:00,24.885261,72.857549,SO2,3,14,6
India,Rajasthan,Sri Ganganagar,"Old City, Sri Ganganagar - RSPCB",31-03-2024 01:00:00,29.931624,73.864511,PM10,29,464,189
India,Rajasthan,Sri Ganganagar,"Old City, Sri Ganganagar - RSPCB",31-03-2024 01:00:00,29.931624,73.864511,OZONE,17,60,28
India,Rajasthan,Udaipur,"Ashok Nagar, Udaipur - RSPCB",31-03-2024 01:00:00,24.5886166,73.6321397,SO2,5,14,9
India,Sikkim,Gangtok,"Zero Point GICI, Gangtok - SSPCB",31-03-2024 01:00:00,27.338530,88.614099,CO,10,18,16
India,TamilNadu,Chennai,"Alandur Bus Depot, Chennai - CPCB",31-03-2024 01:00:00,12.9099161,80.1076538,NH3,1,12,4
India,TamilNadu,Chennai,"Alandur Bus Depot, Chennai - CPCB",31-03-2024 01:00:00,12.9099161,80.1076538,CO,56,103,79
India,TamilNadu,Chennai,"Alandur Bus Depot, Chennai - CPCB",31-03-2024 01:00:00,12.9099161,80.1076538,OZONE,1,9,5
India,TamilNadu,Chennai,"Arumbakkam, Chennai - TNPCB",31-03-2024 01:00:00,13.0664,80.2112 ,PM2.5,5,42,18
India,TamilNadu,Chennai,"Kodungaiyur, Chennai - TNPCB",31-03-2024 01:00:00,13.1278,80.2642,NH3,3,4,3
India,TamilNadu,Chennai,"Kodungaiyur, Chennai - TNPCB",31-03-2024 01:00:00,13.1278,80.2642,CO,13,62,34
India,TamilNadu,Chennai,"Kodungaiyur, Chennai - TNPCB",31-03-2024 01:00:00,13.1278,80.2642,OZONE,5,6,6
India,TamilNadu,Chennai,"Perungudi, Chennai - TNPCB",31-03-2024 01:00:00,12.9533,80.2357,NO2,NA,NA,NA
India,TamilNadu,Chennai,"Perungudi, Chennai - TNPCB",31-03-2024 01:00:00,12.9533,80.2357,NH3,NA,NA,NA
India,TamilNadu,Chennai,"Royapuram, Chennai - TNPCB",31-03-2024 01:00:00,13.1036,80.2909,PM2.5,5,49,19
India,TamilNadu,Chennai,"Velachery Res. Area, Chennai - CPCB",31-03-2024 01:00:00,13.0052189,80.2398125,PM2.5,19,37,30
India,TamilNadu,Chennai,"Velachery Res. Area, Chennai - CPCB",31-03-2024 01:00:00,13.0052189,80.2398125,NH3,7,14,11
India,TamilNadu,Chennai,"Velachery Res. Area, Chennai - CPCB",31-03-2024 01:00:00,13.0052189,80.2398125,CO,5,102,31
India,TamilNadu,Coimbatore,"PSG College of Arts and Science, Coimbatore - TNPCB",31-03-2024 01:00:00,11.0328,77.0349,PM2.5,NA,NA,NA
India,TamilNadu,Cuddalore,"Kudikadu, Cuddalore - TNPCB",31-03-2024 01:00:00,11.6829898,79.7532099,PM10,24,100,58
India,TamilNadu,Cuddalore,"Kudikadu, Cuddalore - TNPCB",31-03-2024 01:00:00,11.6829898,79.7532099,NO2,NA,NA,NA
India,TamilNadu,Ooty,"Bombay Castel, Ooty - TNPCB",31-03-2024 01:00:00,11.4068288,76.7138973,PM2.5,NA,NA,NA
India,TamilNadu,Ooty,"Bombay Castel, Ooty - TNPCB",31-03-2024 01:00:00,11.4068288,76.7138973,PM10,NA,NA,NA
India,TamilNadu,Ooty,"Bombay Castel, Ooty - TNPCB",31-03-2024 01:00:00,11.4068288,76.7138973,OZONE,NA,NA,NA
India,TamilNadu,Ramanathapuram,"Chalai Bazaar, Ramanathapuram - TNPCB",31-03-2024 01:00:00,9.36399,78.831977,PM10,20,88,51
India,Telangana,Hyderabad,"Bollaram Industrial Area, Hyderabad - TSPCB",31-03-2024 01:00:00,17.540891,78.358528,NH3,2,5,3
India,Telangana,Hyderabad,"Central University, Hyderabad - TSPCB",31-03-2024 01:00:00,17.460103,78.334361,NO2,27,49,34
India,Telangana,Hyderabad,"Central University, Hyderabad - TSPCB",31-03-2024 01:00:00,17.460103,78.334361,CO,8,36,23
India,Telangana,Hyderabad,"ECIL Kapra, Hyderabad - TSPCB",31-03-2024 01:00:00,17.470431,78.566959,PM10,60,89,67
India,Telangana,Hyderabad,"ECIL Kapra, Hyderabad - TSPCB",31-03-2024 01:00:00,17.470431,78.566959,SO2,9,27,16
India,Telangana,Hyderabad,"ICRISAT Patancheru, Hyderabad - TSPCB",31-03-2024 01:00:00,17.518400,78.278777,SO2,10,25,18
India,Telangana,Hyderabad,"IITH Kandi, Hyderabad - TSPCB",31-03-2024 01:00:00,17.585705,78.126199,NO2,8,15,12
India,Telangana,Hyderabad,"IITH Kandi, Hyderabad - TSPCB",31-03-2024 01:00:00,17.585705,78.126199,OZONE,46,53,52
India,Telangana,Hyderabad,"Kompally Municipal Office, Hyderabad - TSPCB",31-03-2024 01:00:00,17.544899,78.486949,PM10,NA,NA,NA
India,Telangana,Hyderabad,"Nacharam_TSIIC IALA, Hyderabad - TSPCB",31-03-2024 01:00:00,17.429398,78.569354,NO2,12,12,12
India,Telangana,Hyderabad,"New Malakpet, Hyderabad - TSPCB",31-03-2024 01:00:00,17.37206,78.50864,PM10,63,83,71
India,Telangana,Hyderabad,"New Malakpet, Hyderabad - TSPCB",31-03-2024 01:00:00,17.37206,78.50864,NO2,16,28,21
India,Telangana,Hyderabad,"New Malakpet, Hyderabad - TSPCB",31-03-2024 01:00:00,17.37206,78.50864,NH3,3,4,4
India,Telangana,Hyderabad,"Somajiguda, Hyderabad - TSPCB",31-03-2024 01:00:00,17.417094,78.457437,NH3,NA,NA,NA
India,Tripura,Agartala,"Bardowali, Agartala - Tripura SPCB",31-03-2024 01:00:00,23.8175497,91.2726974,PM10,46,113,86
India,Uttar_Pradesh,Agra,"Manoharpur, Agra - UPPCB",31-03-2024 01:00:00,27.23711,78.01936,SO2,6,13,8
India,Uttar_Pradesh,Agra,"Rohta, Agra - UPPCB",31-03-2024 01:00:00,27.106972,78.000111,OZONE,16,17,16
India,Uttar_Pradesh,Agra,"Sanjay Palace, Agra - UPPCB",31-03-2024 01:00:00,27.19865833,78.00598056,NO2,27,54,41
India,Uttar_Pradesh,Agra,"Sector-3B Avas Vikas Colony, Agra - UPPCB",31-03-2024 01:00:00,27.19412,77.96237,PM10,28,104,65
India,Uttar_Pradesh,Agra,"Shahjahan Garden, Agra - UPPCB",31-03-2024 01:00:00,27.169338,78.03582,CO,13,38,21
India,Uttar_Pradesh,Baghpat,"Sardar Patel Inter College, Baghpat - UPPCB",31-03-2024 01:00:00,28.964949,77.278761,NO2,27,55,44
India,Uttar_Pradesh,Bareilly,"Civil Lines, Bareilly - UPPCB",31-03-2024 01:00:00,28.359581,79.414455,PM2.5,7,15,11
India,Uttar_Pradesh,Bareilly,"Civil Lines, Bareilly - UPPCB",31-03-2024 01:00:00,28.359581,79.414455,NH3,NA,NA,NA
India,Uttar_Pradesh,Bareilly,"Rajendra Nagar, Bareilly - UPPCB",31-03-2024 01:00:00,28.38910936,79.42963708,SO2,43,49,45
India,Uttar_Pradesh,Bulandshahr,"Yamunapuram, Bulandshahr - UPPCB",31-03-2024 01:00:00,28.406963,77.849831,SO2,7,40,16
India,Uttar_Pradesh,Bulandshahr,"Yamunapuram, Bulandshahr - UPPCB",31-03-2024 01:00:00,28.406963,77.849831,OZONE,2,93,40
India,Uttar_Pradesh,Ghaziabad,"Indirapuram, Ghaziabad - UPPCB",31-03-2024 01:00:00,28.646233,77.358075,PM10,92,353,172
India,Uttar_Pradesh,Ghaziabad,"Indirapuram, Ghaziabad - UPPCB",31-03-2024 01:00:00,28.646233,77.358075,NH3,7,12,9
India,Uttar_Pradesh,Ghaziabad,"Indirapuram, Ghaziabad - UPPCB",31-03-2024 01:00:00,28.646233,77.358075,SO2,3,10,8
India,Uttar_Pradesh,Ghaziabad,"Vasundhara, Ghaziabad - UPPCB",31-03-2024 01:00:00,28.6603346,77.3572563,NO2,23,155,63
India,Uttar_Pradesh,Greater Noida,"Knowledge Park - III, Greater Noida - UPPCB",31-03-2024 01:00:00,28.47272,77.482000,NH3,NA,NA,NA
India,Uttar_Pradesh,Greater Noida,"Knowledge Park - V, Greater Noida - UPPCB",31-03-2024 01:00:00,28.557054,77.453663,PM2.5,61,337,198
India,Uttar_Pradesh,Jhansi,"Shivaji Nagar, Jhansi - UPPCB",31-03-2024 01:00:00,25.4547,78.6039,OZONE,1,29,11
India,Uttar_Pradesh,Kanpur,"FTI Kidwai Nagar, Kanpur - UPPCB",31-03-2024 01:00:00,26.428282,80.327067,PM2.5,58,244,110
India,Uttar_Pradesh,Kanpur,"FTI Kidwai Nagar, Kanpur - UPPCB",31-03-2024 01:00:00,26.428282,80.327067,NO2,17,18,17
India,Uttar_Pradesh,Kanpur,"FTI Kidwai Nagar, Kanpur - UPPCB",31-03-2024 01:00:00,26.428282,80.327067,NH3,3,4,3
India,Uttar_Pradesh,Kanpur,"FTI Kidwai Nagar, Kanpur - UPPCB",31-03-2024 01:00:00,26.428282,80.327067,SO2,22,23,22
India,Uttar_Pradesh,Kanpur,"FTI Kidwai Nagar, Kanpur - UPPCB",31-03-2024 01:00:00,26.428282,80.327067,CO,29,64,46
India,Uttar_Pradesh,Kanpur,"NSI Kalyanpur, Kanpur - UPPCB",31-03-2024 01:00:00,26.509954,80.249612,OZONE,11,56,40
India,Uttar_Pradesh,Kanpur,"Nehru Nagar, Kanpur - UPPCB",31-03-2024 01:00:00,26.4703136,80.3229863,OZONE,16,45,24
India,Uttar_Pradesh,Khurja,"Kalindi Kunj, Khurja - UPPCB",31-03-2024 01:00:00,28.2348927,77.8683002,PM2.5,47,140,80
India,Uttar_Pradesh,Khurja,"Kalindi Kunj, Khurja - UPPCB",31-03-2024 01:00:00,28.2348927,77.8683002,PM10,45,110,74
India,Uttar_Pradesh,Khurja,"Kalindi Kunj, Khurja - UPPCB",31-03-2024 01:00:00,28.2348927,77.8683002,NH3,1,1,1
India,Uttar_Pradesh,Khurja,"Kalindi Kunj, Khurja - UPPCB",31-03-2024 01:00:00,28.2348927,77.8683002,OZONE,30,42,34
India,Uttar_Pradesh,Lucknow,"B R Ambedkar University, Lucknow - UPPCB",31-03-2024 01:00:00,26.766433,80.927299,CO,26,45,36
India,Uttar_Pradesh,Lucknow,"Gomti Nagar, Lucknow - UPPCB",31-03-2024 01:00:00,26.868120,81.005119,OZONE,46,56,51
India,Uttar_Pradesh,Lucknow,"Kendriya Vidyalaya, Lucknow - CPCB",31-03-2024 01:00:00,26.906111,80.948222,NO2,9,64,28
India,Uttar_Pradesh,Lucknow,"Kukrail Picnic Spot-1, Lucknow - UPPCB",31-03-2024 01:00:00,26.90723,80.98579,CO,20,40,25
India,Uttar_Pradesh,Lucknow,"Kukrail Picnic Spot-1, Lucknow - UPPCB",31-03-2024 01:00:00,26.90723,80.98579,OZONE,2,42,20
India,Uttar_Pradesh,Lucknow,"Lalbagh, Lucknow - CPCB",31-03-2024 01:00:00,26.8458805,80.9365541,CO,60,105,88
India,Uttar_Pradesh,Lucknow,"Talkatora District Industries Center, Lucknow - CPCB",31-03-2024 01:00:00,26.83399722,80.8917361,CO,2,76,28
India,Uttar_Pradesh,Meerut,"Ganga Nagar, Meerut - UPPCB",31-03-2024 01:00:00,28.999264,77.7590354,PM2.5,23,180,94
India,Uttar_Pradesh,Meerut,"Jai Bhim Nagar, Meerut - UPPCB",31-03-2024 01:00:00,28.9535882,77.7622941,SO2,6,18,11
India,Uttar_Pradesh,Meerut,"Jai Bhim Nagar, Meerut - UPPCB",31-03-2024 01:00:00,28.9535882,77.7622941,CO,36,107,83
India,Uttar_Pradesh,Moradabad,"Buddhi Vihar, Moradabad - UPPCB",31-03-2024 01:00:00,28.83526,78.74460,NH3,2,2,2
India,Uttar_Pradesh,Moradabad,"Eco Herbal Park, Moradabad - UPPCB",31-03-2024 01:00:00,28.840739,78.697531,CO,29,62,48
India,Uttar_Pradesh,Moradabad,"Employment Office, Moradabad - UPPCB",31-03-2024 01:00:00,28.88528,78.73880,CO,12,46,32
India,Uttar_Pradesh,Moradabad,"Kashiram Nagar, Moradabad - UPPCB",31-03-2024 01:00:00,28.849399,78.742362,PM10,76,343,134
India,Uttar_Pradesh,Moradabad,"Transport Nagar, Moradabad - UPPCB",31-03-2024 01:00:00,28.802625,78.753728,SO2,46,55,51
India,Uttar_Pradesh,Noida,"Sector - 125, Noida - UPPCB",31-03-2024 01:00:00,28.5447608,77.3231257,SO2,8,29,17
India,Uttar_Pradesh,Noida,"Sector - 125, Noida - UPPCB",31-03-2024 01:00:00,28.5447608,77.3231257,CO,42,109,80
India,Uttar_Pradesh,Noida,"Sector - 62, Noida - IMD",31-03-2024 01:00:00,28.6245479,77.3577104,PM10,58,314,193
India,Uttar_Pradesh,Noida,"Sector - 62, Noida - IMD",31-03-2024 01:00:00,28.6245479,77.3577104,CO,58,100,72
India,Uttar_Pradesh,Noida,"Sector-1, Noida - UPPCB",31-03-2024 01:00:00,28.5898,77.3101,NO2,26,101,48
India,Uttar_Pradesh,Noida,"Sector-1, Noida - UPPCB",31-03-2024 01:00:00,28.5898,77.3101,NH3,1,6,4
India,Uttar_Pradesh,Prayagraj,"Jhunsi, Prayagraj - UPPCB",31-03-2024 01:00:00,25.425602,81.917152,PM10,47,145,100
India,Uttar_Pradesh,Prayagraj,"Jhunsi, Prayagraj - UPPCB",31-03-2024 01:00:00,25.425602,81.917152,NO2,5,6,6
India,Uttar_Pradesh,Prayagraj,"Jhunsi, Prayagraj - UPPCB",31-03-2024 01:00:00,25.425602,81.917152,NH3,5,5,5
India,Uttar_Pradesh,Prayagraj,"Motilal Nehru NIT, Prayagraj - UPPCB",31-03-2024 01:00:00,25.494,81.863,PM10,40,100,73
India,Uttar_Pradesh,Prayagraj,"Motilal Nehru NIT, Prayagraj - UPPCB",31-03-2024 01:00:00,25.494,81.863,SO2,24,27,25
India,Uttar_Pradesh,Prayagraj,"Nagar Nigam, Prayagraj - UPPCB",31-03-2024 01:00:00,25.44919916 ,81.82735986 ,NO2,5,5,5
India,Uttar_Pradesh,Prayagraj,"Nagar Nigam, Prayagraj - UPPCB",31-03-2024 01:00:00,25.44919916 ,81.82735986 ,CO,16,48,34
India,Uttar_Pradesh,Varanasi,"Ardhali Bazar, Varanasi - UPPCB",31-03-2024 01:00:00,25.3505986,82.9083074,SO2,4,29,14
India,Uttar_Pradesh,Varanasi,"Bhelupur, Varanasi - UPPCB",31-03-2024 01:00:00,25.301778,82.996789,PM10,25,75,48
India,Uttar_Pradesh,Varanasi,"Bhelupur, Varanasi - UPPCB",31-03-2024 01:00:00,25.301778,82.996789,NH3,1,2,2
India,Uttar_Pradesh,Varanasi,"IESD Banaras Hindu University, Varanasi - UPPCB",31-03-2024 01:00:00,25.262326,82.995408,PM10,24,73,48
India,Uttar_Pradesh,Varanasi,"Maldahiya, Varanasi - UPPCB",31-03-2024 01:00:00,25.32393,82.99687,SO2,26,28,26
India,Uttarakhand,Dehradun,"Doon University, Dehradun - UKPCB",31-03-2024 01:00:00,30.269444,78.044167,OZONE,NA,NA,NA
India,Uttarakhand,Kashipur,"Govt. Girls Inter College, Kashipur - UKPCB",31-03-2024 01:00:00,29.2124114,78.9611753,NH3,NA,NA,NA
India,Uttarakhand,Kashipur,"Govt. Girls Inter College, Kashipur - UKPCB",31-03-2024 01:00:00,29.2124114,78.9611753,SO2,6,8,8
India,Uttarakhand,Kashipur,"Govt. Girls Inter College, Kashipur - UKPCB",31-03-2024 01:00:00,29.2124114,78.9611753,CO,23,81,50
India,Uttarakhand,Rishikesh,"Shivaji Nagar, Rishikesh - UKPCB",31-03-2024 01:00:00,30.075911,78.2859547,OZONE,15,69,32
India,West_Bengal,Asansol,"Asansol Court Area, Asansol - WBPCB",31-03-2024 01:00:00,23.685297,86.945968,NH3,2,9,6
India,West_Bengal,Barrackpore,"SVSPA Campus, Barrackpore - WBPCB",31-03-2024 01:00:00,22.7605581,88.3617589,NH3,1,1,1
India,West_Bengal,Barrackpore,"SVSPA Campus, Barrackpore - WBPCB",31-03-2024 01:00:00,22.7605581,88.3617589,OZONE,3,74,29
India,West_Bengal,Durgapur,"Sidhu Kanhu Indoor Stadium, Durgapur - WBPCB",31-03-2024 01:00:00,23.5404352,87.2892225,SO2,16,42,27
India,West_Bengal,Durgapur,"Sidhu Kanhu Indoor Stadium, Durgapur - WBPCB",31-03-2024 01:00:00,23.5404352,87.2892225,OZONE,6,83,27
India,West_Bengal,Haldia,"Priyambada Housing Estate, Haldia - WBPCB",31-03-2024 01:00:00,22.06047,88.109737,NO2,10,33,16
India,West_Bengal,Haldia,"Priyambada Housing Estate, Haldia - WBPCB",31-03-2024 01:00:00,22.06047,88.109737,NH3,3,4,3
India,West_Bengal,Haldia,"Priyambada Housing Estate, Haldia - WBPCB",31-03-2024 01:00:00,22.06047,88.109737,CO,14,26,17
India,West_Bengal,Haldia,"Priyambada Housing Estate, Haldia - WBPCB",31-03-2024 01:00:00,22.06047,88.109737,OZONE,23,193,26
India,West_Bengal,Howrah,"Belur Math, Howrah - WBPCB",31-03-2024 01:00:00,22.629801,88.352017,CO,2,22,9
India,West_Bengal,Howrah,"Belur Math, Howrah - WBPCB",31-03-2024 01:00:00,22.629801,88.352017,OZONE,7,70,24
India,West_Bengal,Howrah,"Ghusuri, Howrah - WBPCB",31-03-2024 01:00:00,22.611968,88.347422,PM2.5,39,125,81
India,West_Bengal,Howrah,"Ghusuri, Howrah - WBPCB",31-03-2024 01:00:00,22.611968,88.347422,PM10,25,149,92
India,West_Bengal,Howrah,"Ghusuri, Howrah - WBPCB",31-03-2024 01:00:00,22.611968,88.347422,NO2,4,9,6
India,West_Bengal,Howrah,"Ghusuri, Howrah - WBPCB",31-03-2024 01:00:00,22.611968,88.347422,SO2,4,6,5
India,West_Bengal,Howrah,"Padmapukur, Howrah - WBPCB",31-03-2024 01:00:00,22.5687319,88.2797276,CO,4,64,27
India,West_Bengal,Kolkata,"Ballygunge, Kolkata - WBPCB",31-03-2024 01:00:00,22.5367507,88.3638022,NH3,3,4,4
India,West_Bengal,Kolkata,"Jadavpur, Kolkata - WBPCB",31-03-2024 01:00:00,22.49929,88.36917,OZONE,10,107,32
India,West_Bengal,Kolkata,"Rabindra Bharati University, Kolkata - WBPCB",31-03-2024 01:00:00,22.627847,88.380669,OZONE,10,76,32
India,West_Bengal,Kolkata,"Rabindra Sarobar, Kolkata - WBPCB",31-03-2024 01:00:00,22.51106,88.35142,NH3,4,7,6
India,West_Bengal,Kolkata,"Victoria, Kolkata - WBPCB",31-03-2024 01:00:00,22.5448082,88.3403691,OZONE,17,90,39
India,West_Bengal,Siliguri,"Ward-32 Bapupara, Siliguri - WBPCB",31-03-2024 01:00:00,26.6879226,88.4152495,PM10,75,179,107
India,Andhra_Pradesh,Amaravati,"Secretariat, Amaravati - APPCB",31-03-2024 01:00:00,16.5150833,80.5181667,PM10,NA,NA,NA
India,Andhra_Pradesh,Amaravati,"Secretariat, Amaravati - APPCB",31-03-2024 01:00:00,16.5150833,80.5181667,NO2,NA,NA,NA
India,Andhra_Pradesh,Amaravati,"Secretariat, Amaravati - APPCB",31-03-2024 01:00:00,16.5150833,80.5181667,SO2,NA,NA,NA
India,Andhra_Pradesh,Amaravati,"Secretariat, Amaravati - APPCB",31-03-2024 01:00:00,16.5150833,80.5181667,CO,4,108,76
India,Andhra_Pradesh,Amaravati,"Secretariat, Amaravati - APPCB",31-03-2024 01:00:00,16.5150833,80.5181667,OZONE,12,72,31
India,Andhra_Pradesh,Anantapur,"Gulzarpet, Anantapur - APPCB",31-03-2024 01:00:00,14.675886,77.593027,PM2.5,NA,NA,NA
India,Andhra_Pradesh,Anantapur,"Gulzarpet, Anantapur - APPCB",31-03-2024 01:00:00,14.675886,77.593027,PM10,NA,NA,NA
India,Andhra_Pradesh,Anantapur,"Gulzarpet, Anantapur - APPCB",31-03-2024 01:00:00,14.675886,77.593027,SO2,8,14,10
India,Andhra_Pradesh,Chittoor,"Gangineni Cheruvu, Chittoor - APPCB",31-03-2024 01:00:00,13.204880,79.097889,NO2,5,20,8
India,Andhra_Pradesh,Chittoor,"Gangineni Cheruvu, Chittoor - APPCB",31-03-2024 01:00:00,13.204880,79.097889,NH3,1,3,1
India,Andhra_Pradesh,Kadapa,"Yerramukkapalli, Kadapa - APPCB",31-03-2024 01:00:00,14.465052,78.824187,SO2,1,2,2
India,Andhra_Pradesh,Rajamahendravaram,"Anand Kala Kshetram, Rajamahendravaram - APPCB",31-03-2024 01:00:00,16.9872867,81.7363176,PM10,19,72,39
India,Andhra_Pradesh,Rajamahendravaram,"Anand Kala Kshetram, Rajamahendravaram - APPCB",31-03-2024 01:00:00,16.9872867,81.7363176,CO,2,38,31
India,Andhra_Pradesh,Rajamahendravaram,"Anand Kala Kshetram, Rajamahendravaram - APPCB",31-03-2024 01:00:00,16.9872867,81.7363176,OZONE,16,28,19
India,Andhra_Pradesh,Tirupati,"Tirumala, Tirupati - APPCB",31-03-2024 01:00:00,13.67,79.35,PM10,36,97,65
India,Andhra_Pradesh,Tirupati,"Tirumala, Tirupati - APPCB",31-03-2024 01:00:00,13.67,79.35,NH3,1,1,1
India,Andhra_Pradesh,Tirupati,"Vaikuntapuram, Tirupati - APPCB",31-03-2024 01:00:00,13.615387,79.409230,NH3,2,4,3
India,Andhra_Pradesh,Tirupati,"Vaikuntapuram, Tirupati - APPCB",31-03-2024 01:00:00,13.615387,79.409230,SO2,4,5,5
India,Andhra_Pradesh,Vijayawada,"HB Colony, Vijayawada - APPCB",31-03-2024 01:00:00,16.536107,80.594233,NO2,6,12,8
India,Andhra_Pradesh,Vijayawada,"HB Colony, Vijayawada - APPCB",31-03-2024 01:00:00,16.536107,80.594233,SO2,3,4,4
India,Andhra_Pradesh,Vijayawada,"HB Colony, Vijayawada - APPCB",31-03-2024 01:00:00,16.536107,80.594233,CO,32,53,36
India,Andhra_Pradesh,Vijayawada,"Kanuru, Vijayawada - APPCB",31-03-2024 01:00:00,16.486692,80.699436,OZONE,28,28,28
India,Andhra_Pradesh,Vijayawada,"Rajiv Gandhi Park, Vijayawada - APPCB",31-03-2024 01:00:00,16.509717,80.612222,PM2.5,35,73,53
India,Andhra_Pradesh,Vijayawada,"Rajiv Nagar, Vijayawada - APPCB",31-03-2024 01:00:00,16.554731,80.649110,PM10,61,64,62
India,Arunachal_Pradesh,Naharlagun,"Naharlagun, Naharlagun - APSPCB",31-03-2024 01:00:00,27.103358,93.679645,PM10,45,125,82
India,Arunachal_Pradesh,Naharlagun,"Naharlagun, Naharlagun - APSPCB",31-03-2024 01:00:00,27.103358,93.679645,NO2,3,3,3
India,Assam,Byrnihat,"Central Academy for SFS, Byrnihat - PCBA",31-03-2024 01:00:00,26.071318,91.87488,PM10,177,500,331
India,Assam,Byrnihat,"Central Academy for SFS, Byrnihat - PCBA",31-03-2024 01:00:00,26.071318,91.87488,NO2,15,55,36
India,Assam,Byrnihat,"Central Academy for SFS, Byrnihat - PCBA",31-03-2024 01:00:00,26.071318,91.87488,NH3,6,9,8
India,Assam,Byrnihat,"Central Academy for SFS, Byrnihat - PCBA",31-03-2024 01:00:00,26.071318,91.87488,CO,12,40,16
India,Assam,Guwahati,"IITG, Guwahati - PCBA",31-03-2024 01:00:00,26.2028636,91.70046436,PM2.5,74,420,211
India,Assam,Guwahati,"IITG, Guwahati - PCBA",31-03-2024 01:00:00,26.2028636,91.70046436,NO2,1,13,6
India,Assam,Guwahati,"LGBI Airport, Guwahati - PCBA",31-03-2024 01:00:00,26.10887,91.589544,NH3,1,9,4
India,Assam,Guwahati,"Pan Bazaar, Guwahati - PCBA",31-03-2024 01:00:00,26.187500,91.744194,PM2.5,84,270,157
India,Assam,Guwahati,"Pan Bazaar, Guwahati - PCBA",31-03-2024 01:00:00,26.187500,91.744194,NO2,1,11,3
India,Assam,Guwahati,"Pan Bazaar, Guwahati - PCBA",31-03-2024 01:00:00,26.187500,91.744194,NH3,5,10,6
India,Assam,Guwahati,"Pan Bazaar, Guwahati - PCBA",31-03-2024 01:00:00,26.187500,91.744194,OZONE,17,17,17
India,Assam,Guwahati,"Railway Colony, Guwahati - PCBA",31-03-2024 01:00:00,26.181742,91.78063,OZONE,2,38,23
India,Assam,Nagaon,"Christianpatty, Nagaon - PCBA",31-03-2024 01:00:00,26.349082,92.68449,NH3,8,29,13
India,Assam,Nagaon,"Christianpatty, Nagaon - PCBA",31-03-2024 01:00:00,26.349082,92.68449,CO,13,103,55
India,Assam,Silchar,"Tarapur, Silchar - PCBA",31-03-2024 01:00:00,24.82827,92.79525,PM10,31,74,48
India,Assam,Silchar,"Tarapur, Silchar - PCBA",31-03-2024 01:00:00,24.82827,92.79525,NH3,1,1,1
India,Assam,Silchar,"Tarapur, Silchar - PCBA",31-03-2024 01:00:00,24.82827,92.79525,SO2,8,14,10
India,Assam,Silchar,"Tarapur, Silchar - PCBA",31-03-2024 01:00:00,24.82827,92.79525,OZONE,1,3,3
India,Assam,Sivasagar,"Girls College, Sivasagar - PCBA",31-03-2024 01:00:00,26.987634,94.636574,PM2.5,42,62,48
India,Assam,Sivasagar,"Girls College, Sivasagar - PCBA",31-03-2024 01:00:00,26.987634,94.636574,NO2,6,18,12
India,Assam,Sivasagar,"Girls College, Sivasagar - PCBA",31-03-2024 01:00:00,26.987634,94.636574,SO2,2,7,6
India,Assam,Sivasagar,"Girls College, Sivasagar - PCBA",31-03-2024 01:00:00,26.987634,94.636574,OZONE,1,43,3
India,Bihar,Araria,"Kharahiya Basti, Araria - BSPCB",31-03-2024 01:00:00,26.146529,87.454184,NO2,6,8,7
India,Bihar,Arrah,"New DM Office, Arrah - BSPCB",31-03-2024 01:00:00,25.5626095,84.663264,PM10,92,188,128
India,Bihar,Arrah,"New DM Office, Arrah - BSPCB",31-03-2024 01:00:00,25.5626095,84.663264,SO2,15,24,18
India,Bihar,Arrah,"New DM Office, Arrah - BSPCB",31-03-2024 01:00:00,25.5626095,84.663264,CO,4,15,10
India,Bihar,Aurangabad,"Gurdeo Nagar, Aurangabad - BSPCB",31-03-2024 01:00:00,24.75746,84.366208,PM2.5,NA,NA,NA
India,Bihar,Aurangabad,"Gurdeo Nagar, Aurangabad - BSPCB",31-03-2024 01:00:00,24.75746,84.366208,NH3,4,11,6
India,Bihar,Aurangabad,"Gurdeo Nagar, Aurangabad - BSPCB",31-03-2024 01:00:00,24.75746,84.366208,OZONE,1,50,23
India,Bihar,Bettiah,"Kamalnath Nagar, Bettiah - BSPCB",31-03-2024 01:00:00,26.80365,84.51954,NH3,3,3,3
India,Bihar,Bhagalpur,"DM Office_Kachari Chowk, Bhagalpur - BSPCB",31-03-2024 01:00:00,25.251013,86.989001,NH3,8,13,10
India,Bihar,Bhagalpur,"DM Office_Kachari Chowk, Bhagalpur - BSPCB",31-03-2024 01:00:00,25.251013,86.989001,SO2,36,105,66
India,Bihar,Bhagalpur,"Mayaganj, Bhagalpur - BSPCB",31-03-2024 01:00:00,25.265194,87.012947,PM2.5,47,379,286
India,Bihar,Bhagalpur,"Mayaganj, Bhagalpur - BSPCB",31-03-2024 01:00:00,25.265194,87.012947,PM10,40,225,159
India,Bihar,Bhagalpur,"Mayaganj, Bhagalpur - BSPCB",31-03-2024 01:00:00,25.265194,87.012947,NH3,5,7,6
India,Bihar,Bihar Sharif,"D M Colony, Bihar Sharif - BSPCB",31-03-2024 01:00:00,25.204762,85.514960,SO2,2,15,7
India,Bihar,Chhapra,"Darshan Nagar, Chhapra - BSPCB",31-03-2024 01:00:00,25.7808257,84.7446768,OZONE,1,11,2
India,Bihar,Gaya,"Collectorate, Gaya - BSPCB",31-03-2024 01:00:00,24.7955,84.9994,NO2,1,3,2
India,Bihar,Gaya,"Kareemganj, Gaya - BSPCB",31-03-2024 01:00:00,24.792403,84.992416,SO2,4,10,8
India,Bihar,Gaya,"SFTI Kusdihra, Gaya - BSPCB",31-03-2024 01:00:00,24.762518,84.982348,NO2,20,57,37
India,Bihar,Hajipur,"Industrial Area, Hajipur - BSPCB",31-03-2024 01:00:00,25.697189,85.245900,SO2,6,7,7
India,Bihar,Katihar,"Mirchaibari, Katihar - BSPCB",31-03-2024 01:00:00,25.560083,87.553265,PM2.5,55,153,77
India,Bihar,Katihar,"Mirchaibari, Katihar - BSPCB",31-03-2024 01:00:00,25.560083,87.553265,NO2,19,25,22
India,Bihar,Katihar,"Mirchaibari, Katihar - BSPCB",31-03-2024 01:00:00,25.560083,87.553265,OZONE,10,16,12
India,Bihar,Kishanganj,"SDM Office_Khagra, Kishanganj - BSPCB",31-03-2024 01:00:00,26.0881305,87.93840336,PM2.5,62,325,164
India,Bihar,Kishanganj,"SDM Office_Khagra, Kishanganj - BSPCB",31-03-2024 01:00:00,26.0881305,87.93840336,NO2,28,31,29
India,Bihar,Kishanganj,"SDM Office_Khagra, Kishanganj - BSPCB",31-03-2024 01:00:00,26.0881305,87.93840336,NH3,10,13,11
India,Bihar,Munger,"Town Hall, Munger - BSPCB",31-03-2024 01:00:00,25.376776,86.471523,SO2,24,51,39
India,Bihar,Muzaffarpur,"MIT-Daudpur Kothi, Muzaffarpur - BSPCB",31-03-2024 01:00:00,26.1403345,85.3650192,NO2,5,8,7
India,Bihar,Muzaffarpur,"MIT-Daudpur Kothi, Muzaffarpur - BSPCB",31-03-2024 01:00:00,26.1403345,85.3650192,SO2,8,24,13
India,Bihar,Muzaffarpur,"Muzaffarpur Collectorate, Muzaffarpur - BSPCB",31-03-2024 01:00:00,26.1209,85.3647,CO,22,102,37
India,Bihar,Patna,"DRM Office Danapur, Patna - BSPCB",31-03-2024 01:00:00,25.586562,85.043586,PM2.5,96,224,141
India,Bihar,Patna,"DRM Office Danapur, Patna - BSPCB",31-03-2024 01:00:00,25.586562,85.043586,NO2,7,78,26
India,Bihar,Patna,"Govt. High School Shikarpur, Patna - BSPCB",31-03-2024 01:00:00,25.592539,85.227158,PM10,153,222,184
India,Bihar,Patna,"IGSC Planetarium Complex, Patna - BSPCB",31-03-2024 01:00:00,25.610369,85.132568,SO2,NA,NA,NA
India,Bihar,Patna,"Muradpur, Patna - BSPCB",31-03-2024 01:00:00,25.619651,85.147382,SO2,8,14,10
India,Bihar,Patna,"Samanpura, Patna - BSPCB",31-03-2024 01:00:00,25.596727,85.085624,OZONE,45,54,46
India,Bihar,Purnia,"Mariam Nagar, Purnia - BSPCB",31-03-2024 01:00:00,25.366336,87.117468,NO2,4,9,6
India,Bihar,Rajgir,"Dangi Tola, Rajgir - BSPCB",31-03-2024 01:00:00,25.03280,85.41948,PM10,6,275,114
India,Bihar,Rajgir,"Dangi Tola, Rajgir - BSPCB",31-03-2024 01:00:00,25.03280,85.41948,OZONE,20,27,23
India,Bihar,Saharsa,"Police Line, Saharsa - BSPCB",31-03-2024 01:00:00,25.892357,86.590325,NH3,9,9,9
India,Bihar,Saharsa,"Police Line, Saharsa - BSPCB",31-03-2024 01:00:00,25.892357,86.590325,OZONE,10,89,34
India,Bihar,Sasaram,"Dada Peer, Sasaram - BSPCB",31-03-2024 01:00:00,24.952822,84.002396,CO,49,111,97
India,Bihar,Siwan,"Chitragupta Nagar, Siwan - BSPCB",31-03-2024 01:00:00,26.2271665,84.3570427,PM2.5,NA,NA,NA
India,Bihar,Siwan,"Chitragupta Nagar, Siwan - BSPCB",31-03-2024 01:00:00,26.2271665,84.3570427,NO2,14,41,21
India,Bihar,Siwan,"Chitragupta Nagar, Siwan - BSPCB",31-03-2024 01:00:00,26.2271665,84.3570427,NH3,1,4,2
India,Chandigarh,Chandigarh,"Sector-25, Chandigarh - CPCC",31-03-2024 01:00:00,30.751462,76.762879,PM2.5,2,216,118
India,Chandigarh,Chandigarh,"Sector-53, Chandigarh - CPCC",31-03-2024 01:00:00,30.719859,76.738637,PM10,14,229,97
India,Chhattisgarh,Bhilai,"32Bungalows, Bhilai - CECB",31-03-2024 01:00:00,21.194815,81.314770,NO2,21,34,30
India,Chhattisgarh,Bhilai,"32Bungalows, Bhilai - CECB",31-03-2024 01:00:00,21.194815,81.314770,CO,24,40,32
India,Chhattisgarh,Bhilai,"Civic Center, Bhilai - Bhilai Steel Plant",31-03-2024 01:00:00,21.185571,81.343175,PM10,42,68,54
India,Chhattisgarh,Bhilai,"Civic Center, Bhilai - Bhilai Steel Plant",31-03-2024 01:00:00,21.185571,81.343175,NO2,17,17,17
India,Chhattisgarh,Bhilai,"Civic Center, Bhilai - Bhilai Steel Plant",31-03-2024 01:00:00,21.185571,81.343175,SO2,4,23,11
India,Chhattisgarh,Bhilai,"Civic Center, Bhilai - Bhilai Steel Plant",31-03-2024 01:00:00,21.185571,81.343175,OZONE,20,74,36
India,Chhattisgarh,Bhilai,"Hathkhoj, Bhilai - CECB",31-03-2024 01:00:00,21.224231,81.408350,NO2,17,44,28
India,Chhattisgarh,Bilaspur,"Mangala, Bilaspur - NTPC",31-03-2024 01:00:00,22.08815,82.13737,PM2.5,36,85,62
India,Chhattisgarh,Bilaspur,"Mangala, Bilaspur - NTPC",31-03-2024 01:00:00,22.08815,82.13737,PM10,38,94,63
India,Chhattisgarh,Bilaspur,"Mangala, Bilaspur - NTPC",31-03-2024 01:00:00,22.08815,82.13737,SO2,15,24,18
India,Chhattisgarh,Chhal,"Nawapara SECL Colony, Chhal - CECB",31-03-2024 01:00:00,22.118125,83.140608,NH3,2,2,2
India,Chhattisgarh,Korba,"Rampur, Korba - CECB",31-03-2024 01:00:00,22.368195,82.746431,NO2,27,42,32
India,Chhattisgarh,Korba,"Rampur, Korba - CECB",31-03-2024 01:00:00,22.368195,82.746431,NH3,2,3,2
India,Chhattisgarh,Korba,"Rampur, Korba - CECB",31-03-2024 01:00:00,22.368195,82.746431,CO,24,36,29
India,Chhattisgarh,Raipur,"AIIMS, Raipur - CECB",31-03-2024 01:00:00,21.258815,81.578979,NO2,NA,NA,NA
India,Chhattisgarh,Raipur,"AIIMS, Raipur - CECB",31-03-2024 01:00:00,21.258815,81.578979,OZONE,7,113,21
India,Chhattisgarh,Raipur,"Bhatagaon New ISBT, Raipur - CECB",31-03-2024 01:00:00,21.219665,81.630094,PM2.5,33,76,53
India,Chhattisgarh,Raipur,"Krishak Nagar, Raipur - CECB",31-03-2024 01:00:00,21.237755,81.705301,PM10,54,81,65
India,Chhattisgarh,Raipur,"Krishak Nagar, Raipur - CECB",31-03-2024 01:00:00,21.237755,81.705301,NO2,21,32,27
India,Chhattisgarh,Raipur,"Siltara Phase-II, Raipur - CECB",31-03-2024 01:00:00,21.371751,81.664929,PM2.5,54,199,106
India,Chhattisgarh,Raipur,"Siltara Phase-II, Raipur - CECB",31-03-2024 01:00:00,21.371751,81.664929,PM10,79,187,129
India,Chhattisgarh,Raipur,"Siltara Phase-II, Raipur - CECB",31-03-2024 01:00:00,21.371751,81.664929,OZONE,4,75,20
India,Delhi,Delhi,"Anand Vihar, Delhi - DPCC",31-03-2024 01:00:00,28.647622,77.3158090,NH3,1,9,4
India,Delhi,Delhi,"Anand Vihar, Delhi - DPCC",31-03-2024 01:00:00,28.647622,77.3158090,OZONE,2,199,77
India,Delhi,Delhi,"Ashok Vihar, Delhi - DPCC",31-03-2024 01:00:00,28.695381,77.181665,PM2.5,79,339,176
India,Delhi,Delhi,"Aya Nagar, Delhi - IMD",31-03-2024 01:00:00,28.4706914,77.1099364,PM10,117,496,212
India,Delhi,Delhi,"Aya Nagar, Delhi - IMD",31-03-2024 01:00:00,28.4706914,77.1099364,NO2,17,66,39
India,Delhi,Delhi,"Burari Crossing, Delhi - IMD",31-03-2024 01:00:00,28.7256504,77.2011573,PM2.5,71,326,163
India,Delhi,Delhi,"Burari Crossing, Delhi - IMD",31-03-2024 01:00:00,28.7256504,77.2011573,PM10,114,346,168
India,Delhi,Delhi,"Chandni Chowk, Delhi - IITM",31-03-2024 01:00:00,28.656756,77.227234,PM10,126,212,148
India,Delhi,Delhi,"Chandni Chowk, Delhi - IITM",31-03-2024 01:00:00,28.656756,77.227234,NO2,4,190,60
India,Delhi,Delhi,"DTU, Delhi - CPCB",31-03-2024 01:00:00,28.7500499,77.1112615,PM10,109,290,171
India,Delhi,Delhi,"Dr. Karni Singh Shooting Range, Delhi - DPCC",31-03-2024 01:00:00,28.498571,77.264840,OZONE,6,261,49
India,Delhi,Delhi,"Dwarka-Sector 8, Delhi - DPCC ",31-03-2024 01:00:00,28.5710274,77.0719006,PM10,119,500,254
India,Delhi,Delhi,"IGI Airport (T3), Delhi - IMD",31-03-2024 01:00:00,28.5627763,77.1180053,PM10,100,242,145
India,Delhi,Delhi,"ITO, Delhi - CPCB",31-03-2024 01:00:00,28.628624,77.241060,SO2,6,26,16
India,Delhi,Delhi,"Lodhi Road, Delhi - IITM",31-03-2024 01:00:00,28.588333,77.221667,SO2,16,34,25
India,Delhi,Delhi,"Lodhi Road, Delhi - IMD",31-03-2024 01:00:00,28.5918245,77.2273074,CO,16,37,23
India,Delhi,Delhi,"Lodhi Road, Delhi - IMD",31-03-2024 01:00:00,28.5918245,77.2273074,OZONE,9,37,15
India,Delhi,Delhi,"Major Dhyan Chand National Stadium, Delhi - DPCC",31-03-2024 01:00:00,28.611281,77.237738,SO2,16,24,20
India,Delhi,Delhi,"Mandir Marg, Delhi - DPCC",31-03-2024 01:00:00,28.636429,77.201067,SO2,4,13,9
India,Delhi,Delhi,"Mundka, Delhi - DPCC",31-03-2024 01:00:00,28.684678,77.076574,PM10,127,384,198
India,Delhi,Delhi,"Najafgarh, Delhi - DPCC",31-03-2024 01:00:00,28.570173,76.933762,NO2,5,65,26
India,Delhi,Delhi,"Narela, Delhi - DPCC",31-03-2024 01:00:00,28.822836,77.101981,PM2.5,68,350,189
India,Delhi,Delhi,"Narela, Delhi - DPCC",31-03-2024 01:00:00,28.822836,77.101981,CO,41,104,84
India,Delhi,Delhi,"Nehru Nagar, Delhi - DPCC",31-03-2024 01:00:00,28.567890,77.250515,PM10,124,427,201
India,Delhi,Delhi,"Nehru Nagar, Delhi - DPCC",31-03-2024 01:00:00,28.567890,77.250515,CO,12,139,100
India,Delhi,Delhi,"North Campus, DU, Delhi - IMD",31-03-2024 01:00:00,28.6573814,77.1585447,NO2,15,47,30
India,Delhi,Delhi,"North Campus, DU, Delhi - IMD",31-03-2024 01:00:00,28.6573814,77.1585447,CO,44,140,110
India,Delhi,Delhi,"Okhla Phase-2, Delhi - DPCC",31-03-2024 01:00:00,28.530785,77.271255,PM2.5,94,326,195
India,Delhi,Delhi,"Patparganj, Delhi - DPCC",31-03-2024 01:00:00,28.623763,77.287209,SO2,18,21,19
India,Delhi,Delhi,"Patparganj, Delhi - DPCC",31-03-2024 01:00:00,28.623763,77.287209,CO,9,104,66
India,Delhi,Delhi,"Patparganj, Delhi - DPCC",31-03-2024 01:00:00,28.623763,77.287209,OZONE,6,136,58
India,Delhi,Delhi,"Punjabi Bagh, Delhi - DPCC",31-03-2024 01:00:00,28.674045,77.131023,SO2,22,30,26
India,Delhi,Delhi,"Punjabi Bagh, Delhi - DPCC",31-03-2024 01:00:00,28.674045,77.131023,CO,30,128,81
India,Delhi,Delhi,"Pusa, Delhi - DPCC",31-03-2024 01:00:00,28.639652,77.146275,OZONE,9,108,25
India,Delhi,Delhi,"R K Puram, Delhi - DPCC",31-03-2024 01:00:00,28.563262,77.186937,PM2.5,83,350,218
India,Delhi,Delhi,"R K Puram, Delhi - DPCC",31-03-2024 01:00:00,28.563262,77.186937,NO2,11,60,29
India,Delhi,Delhi,"R K Puram, Delhi - DPCC",31-03-2024 01:00:00,28.563262,77.186937,NH3,2,4,3
India,Delhi,Delhi,"R K Puram, Delhi - DPCC",31-03-2024 01:00:00,28.563262,77.186937,SO2,18,55,32
India,Delhi,Delhi,"R K Puram, Delhi - DPCC",31-03-2024 01:00:00,28.563262,77.186937,CO,26,139,95
India,Delhi,Delhi,"Rohini, Delhi - DPCC",31-03-2024 01:00:00,28.732528,77.119920,PM10,128,416,205
India,Delhi,Delhi,"Rohini, Delhi - DPCC",31-03-2024 01:00:00,28.732528,77.119920,NO2,15,104,53
India,Delhi,Delhi,"Sirifort, Delhi - CPCB",31-03-2024 01:00:00,28.5504249,77.2159377,NO2,46,65,53
India,Delhi,Delhi,"Sonia Vihar, Delhi - DPCC",31-03-2024 01:00:00,28.710508,77.249485,PM2.5,84,321,174
India,Delhi,Delhi,"Sonia Vihar, Delhi - DPCC",31-03-2024 01:00:00,28.710508,77.249485,NH3,7,9,8
India,Delhi,Delhi,"Sonia Vihar, Delhi - DPCC",31-03-2024 01:00:00,28.710508,77.249485,SO2,14,26,18
India,Delhi,Delhi,"Sri Aurobindo Marg, Delhi - DPCC",31-03-2024 01:00:00,28.531346,77.190156,PM2.5,NA,NA,NA
India,Delhi,Delhi,"Sri Aurobindo Marg, Delhi - DPCC",31-03-2024 01:00:00,28.531346,77.190156,OZONE,8,16,10
India,Delhi,Delhi,"Vivek Vihar, Delhi - DPCC",31-03-2024 01:00:00,28.672342,77.315260,SO2,32,47,38
India,Delhi,Delhi,"Vivek Vihar, Delhi - DPCC",31-03-2024 01:00:00,28.672342,77.315260,CO,22,122,86
India,Gujarat,Ahmedabad,"Chandkheda, Ahmedabad - IITM",31-03-2024 01:00:00,23.107969,72.574648,OZONE,8,40,19
India,Gujarat,Ahmedabad,"Maninagar, Ahmedabad - GPCB",31-03-2024 01:00:00,23.002657,72.591912,PM10,48,118,90
India,Gujarat,Ahmedabad,"Raikhad, Ahmedabad - IITM",31-03-2024 01:00:00,23.020509,72.579261,CO,13,117,49
India,Gujarat,Ahmedabad,"Rakhial, Ahmedabad - IITM",31-03-2024 01:00:00,23.016834,72.625775,NH3,15,25,23
India,Gujarat,Ahmedabad,"Rakhial, Ahmedabad - IITM",31-03-2024 01:00:00,23.016834,72.625775,SO2,3,10,6
India,Gujarat,Ahmedabad,"SAC ISRO Satellite, Ahmedabad - IITM",31-03-2024 01:00:00,23.023389,72.515201,PM10,106,130,111
India,Gujarat,Ahmedabad,"SAC ISRO Satellite, Ahmedabad - IITM",31-03-2024 01:00:00,23.023389,72.515201,OZONE,12,20,15
India,Gujarat,Ahmedabad,"SVPI Airport Hansol, Ahmedabad - IITM",31-03-2024 01:00:00,23.076793,72.627874,NH3,4,5,4
India,Gujarat,Ahmedabad,"SVPI Airport Hansol, Ahmedabad - IITM",31-03-2024 01:00:00,23.076793,72.627874,SO2,4,12,7
India,Gujarat,Ahmedabad,"Sardar Vallabhbhai Patel Stadium, Ahmedabad - IITM",31-03-2024 01:00:00,23.043070,72.562968,PM10,58,108,81
India,Gujarat,Ahmedabad,"Sardar Vallabhbhai Patel Stadium, Ahmedabad - IITM",31-03-2024 01:00:00,23.043070,72.562968,NH3,6,6,6
India,Gujarat,Ankleshwar,"GIDC, Ankleshwar - GPCB",31-03-2024 01:00:00,21.613267,73.010555,NH3,NA,NA,NA
India,Gujarat,Gandhinagar,"GIFT City, Gandhinagar - IITM",31-03-2024 01:00:00,23.163798,72.677768,PM10,60,181,100
India,Gujarat,Gandhinagar,"GIFT City, Gandhinagar - IITM",31-03-2024 01:00:00,23.163798,72.677768,OZONE,6,32,14
India,Gujarat,Gandhinagar,"Sector-10, Gandhinagar - GPCB",31-03-2024 01:00:00,23.221714,72.654328,PM2.5,20,48,34
India,Gujarat,Gandhinagar,"Sector-10, Gandhinagar - GPCB",31-03-2024 01:00:00,23.221714,72.654328,OZONE,18,18,18
India,Gujarat,Nandesari,"GIDC, Nandesari - Nandesari Ind. Association",31-03-2024 01:00:00,22.410802,73.097923,PM2.5,58,352,188
India,Gujarat,Nandesari,"GIDC, Nandesari - Nandesari Ind. Association",31-03-2024 01:00:00,22.410802,73.097923,PM10,94,370,188
India,Gujarat,Vapi,"Phase-1 GIDC, Vapi - GPCB",31-03-2024 01:00:00,20.362421,72.918013,SO2,50,52,51
India,Gujarat,Vatva,"Phase-4 GIDC, Vatva - GPCB",31-03-2024 01:00:00,22.969611,72.643500,PM2.5,44,167,82
India,Gujarat,Vatva,"Phase-4 GIDC, Vatva - GPCB",31-03-2024 01:00:00,22.969611,72.643500,NO2,37,159,71
India,Gujarat,Vatva,"Phase-4 GIDC, Vatva - GPCB",31-03-2024 01:00:00,22.969611,72.643500,NH3,1,11,7
India,Gujarat,Vatva,"Phase-4 GIDC, Vatva - GPCB",31-03-2024 01:00:00,22.969611,72.643500,SO2,11,63,27
India,Haryana,Ambala,"Patti Mehar, Ambala - HSPCB",31-03-2024 01:00:00,30.379589,76.778328,PM2.5,NA,NA,NA
India,Haryana,Ambala,"Patti Mehar, Ambala - HSPCB",31-03-2024 01:00:00,30.379589,76.778328,NH3,5,12,8
India,Haryana,Ambala,"Patti Mehar, Ambala - HSPCB",31-03-2024 01:00:00,30.379589,76.778328,SO2,NA,NA,NA
India,Haryana,Bahadurgarh,"Arya Nagar, Bahadurgarh - HSPCB",31-03-2024 01:00:00,28.6701,76.9254,PM10,88,294,163
India,Haryana,Ballabgarh,"Nathu Colony, Ballabgarh - HSPCB",31-03-2024 01:00:00,28.3419248,77.319699,PM2.5,102,405,195
India,Haryana,Ballabgarh,"Nathu Colony, Ballabgarh - HSPCB",31-03-2024 01:00:00,28.3419248,77.319699,SO2,4,76,16
India,Haryana,Ballabgarh,"Nathu Colony, Ballabgarh - HSPCB",31-03-2024 01:00:00,28.3419248,77.319699,OZONE,7,49,23
India,Haryana,Bhiwani,"H.B. Colony, Bhiwani - HSPCB",31-03-2024 01:00:00,28.806223,76.141105,NH3,6,6,6
India,Haryana,Bhiwani,"H.B. Colony, Bhiwani - HSPCB",31-03-2024 01:00:00,28.806223,76.141105,CO,16,46,26
India,Haryana,Charkhi Dadri,"Mini Secretariat, Charkhi Dadri - HSPCB",31-03-2024 01:00:00,28.593883,76.270653,PM2.5,76,223,142
India,Haryana,Charkhi Dadri,"Mini Secretariat, Charkhi Dadri - HSPCB",31-03-2024 01:00:00,28.593883,76.270653,OZONE,13,18,16
India,Haryana,Dharuhera,"Municipal Corporation Office, Dharuhera -  HSPCB",31-03-2024 01:00:00,28.206800,76.799700,CO,80,105,105
India,Haryana,Faridabad,"New Industrial Town, Faridabad - HSPCB",31-03-2024 01:00:00,28.39072,77.30059,CO,16,94,54
India,Haryana,Faridabad,"Sector 11, Faridabad - HSPCB",31-03-2024 01:00:00,28.376058,77.315741,NH3,6,6,6
India,Haryana,Faridabad,"Sector 11, Faridabad - HSPCB",31-03-2024 01:00:00,28.376058,77.315741,SO2,5,116,20
India,Haryana,Faridabad,"Sector 30, Faridabad - HSPCB",31-03-2024 01:00:00,28.4417,77.3217,NH3,9,9,9
India,Haryana,Faridabad,"Sector- 16A, Faridabad - HSPCB",31-03-2024 01:00:00,28.4088421,77.3099081,OZONE,14,14,14
India,Haryana,Fatehabad,"Huda Sector, Fatehabad - HSPCB",31-03-2024 01:00:00,29.503664,75.467934,PM2.5,11,92,36
India,Haryana,Gurugram,"Sector-51, Gurugram - HSPCB",31-03-2024 01:00:00,28.4227,77.0667,PM2.5,55,332,221
India,Haryana,Gurugram,"Sector-51, Gurugram - HSPCB",31-03-2024 01:00:00,28.4227,77.0667,NH3,7,14,9
India,Haryana,Gurugram,"Sector-51, Gurugram - HSPCB",31-03-2024 01:00:00,28.4227,77.0667,CO,37,103,67
India,Haryana,Gurugram,"Teri Gram, Gurugram - HSPCB",31-03-2024 01:00:00,28.4275,77.1465,OZONE,13,18,15
India,Haryana,Gurugram,"Vikas Sadan, Gurugram - HSPCB",31-03-2024 01:00:00,28.4501238,77.0263051,CO,54,151,110
India,Haryana,Jind,"Police Lines, Jind - HSPCB",31-03-2024 01:00:00,29.307814,76.337619,NO2,7,17,11
India,Haryana,Kaithal,"Rishi Nagar, Kaithal - HSPCB",31-03-2024 01:00:00,29.8006,76.4155,NO2,24,26,25
India,Haryana,Kaithal,"Rishi Nagar, Kaithal - HSPCB",31-03-2024 01:00:00,29.8006,76.4155,SO2,NA,NA,NA
India,Haryana,Kaithal,"Rishi Nagar, Kaithal - HSPCB",31-03-2024 01:00:00,29.8006,76.4155,CO,4,44,20
India,Haryana,Karnal,"Sector-12, Karnal - HSPCB",31-03-2024 01:00:00,29.695300,77.002700,NO2,7,12,10
India,Haryana,Karnal,"Sector-12, Karnal - HSPCB",31-03-2024 01:00:00,29.695300,77.002700,NH3,10,13,11
India,Haryana,Karnal,"Sector-12, Karnal - HSPCB",31-03-2024 01:00:00,29.695300,77.002700,CO,12,59,36
India,Haryana,Kurukshetra,"Sector-7, Kurukshetra - HSPCB",31-03-2024 01:00:00,29.966942,76.875879,SO2,1,121,27
India,Haryana,Kurukshetra,"Sector-7, Kurukshetra - HSPCB",31-03-2024 01:00:00,29.966942,76.875879,CO,2,43,22
India,Haryana,Mandikhera,"General Hospital, Mandikhera - HSPCB",31-03-2024 01:00:00,27.9002,76.9938,SO2,30,37,34
India,Haryana,Manesar,"Sector-2 IMT, Manesar - HSPCB",31-03-2024 01:00:00,28.360699,76.936090,PM10,53,129,80
India,Haryana,Manesar,"Sector-2 IMT, Manesar - HSPCB",31-03-2024 01:00:00,28.360699,76.936090,NO2,18,26,22
India,Haryana,Narnaul,"Shastri Nagar, Narnaul - HSPCB",31-03-2024 01:00:00,28.060249,76.113115,OZONE,28,52,43
India,Haryana,Palwal,"Shyam Nagar, Palwal - HSPCB",31-03-2024 01:00:00,28.1485564,77.3320667,PM2.5,46,115,69
India,Haryana,Palwal,"Shyam Nagar, Palwal - HSPCB",31-03-2024 01:00:00,28.1485564,77.3320667,NO2,23,25,24
India,Haryana,Palwal,"Shyam Nagar, Palwal - HSPCB",31-03-2024 01:00:00,28.1485564,77.3320667,NH3,8,9,9
India,Haryana,Panchkula,"Sector-6, Panchkula - HSPCB ",31-03-2024 01:00:00,30.7057778,76.8531805555555,PM2.5,10,83,35
India,Haryana,Panchkula,"Sector-6, Panchkula - HSPCB ",31-03-2024 01:00:00,30.7057778,76.8531805555555,NO2,28,30,29
India,Haryana,Rohtak,"MD University, Rohtak - HSPCB",31-03-2024 01:00:00,28.52123,76.37138,SO2,6,8,7
India,Haryana,Rohtak,"MD University, Rohtak - HSPCB",31-03-2024 01:00:00,28.52123,76.37138,CO,10,87,47
India,Haryana,Sirsa,"F-Block, Sirsa - HSPCB",31-03-2024 01:00:00,29.536400,75.015800,NO2,10,10,10
India,Haryana,Sirsa,"F-Block, Sirsa - HSPCB",31-03-2024 01:00:00,29.536400,75.015800,CO,31,43,37
India,Haryana,Yamuna Nagar,"Gobind Pura, Yamuna Nagar - HSPCB",31-03-2024 01:00:00,30.1480566,77.2893471,SO2,2,88,17
India,Himachal Pradesh,Baddi,"HIMUDA Complex Phase-1, Baddi - HPPCB",31-03-2024 01:00:00,30.943887,76.801991,OZONE,3,80,57
India,Jharkhand,Dhanbad,"Kalakusuma, Dhanbad - DMC",31-03-2024 01:00:00,23.811548,86.481238,PM10,87,108,105
India,Jharkhand,Pathardih,"Mohalbani Ghat, Pathardih - DMC",31-03-2024 01:00:00,23.669880,86.411725,SO2,NA,NA,NA
India,Karnataka,Bengaluru,"BTM Layout, Bengaluru - CPCB",31-03-2024 01:00:00,12.9135218,77.5950804,PM2.5,NA,NA,NA
India,Karnataka,Bengaluru,"BTM Layout, Bengaluru - CPCB",31-03-2024 01:00:00,12.9135218,77.5950804,PM10,NA,NA,NA
India,Karnataka,Bengaluru,"BTM Layout, Bengaluru - CPCB",31-03-2024 01:00:00,12.9135218,77.5950804,SO2,NA,NA,NA
India,Karnataka,Bengaluru,"BTM Layout, Bengaluru - CPCB",31-03-2024 01:00:00,12.9135218,77.5950804,OZONE,NA,NA,NA
India,Karnataka,Bengaluru,"Bapuji Nagar, Bengaluru - KSPCB",31-03-2024 01:00:00,12.951913,77.539784,NH3,1,1,1
India,Karnataka,Bengaluru,"Bapuji Nagar, Bengaluru - KSPCB",31-03-2024 01:00:00,12.951913,77.539784,SO2,4,8,6
India,Karnataka,Bengaluru,"Hebbal, Bengaluru - KSPCB",31-03-2024 01:00:00,13.029152,77.585901,PM2.5,NA,NA,NA
India,Karnataka,Bengaluru,"Hebbal, Bengaluru - KSPCB",31-03-2024 01:00:00,13.029152,77.585901,PM10,NA,NA,NA
India,Karnataka,Bengaluru,"Hebbal, Bengaluru - KSPCB",31-03-2024 01:00:00,13.029152,77.585901,CO,12,35,24
India,Karnataka,Bengaluru,"Hombegowda Nagar, Bengaluru - KSPCB",31-03-2024 01:00:00,12.938539,77.590100,PM2.5,34,82,60
India,Karnataka,Bengaluru,"Jayanagar 5th Block, Bengaluru - KSPCB",31-03-2024 01:00:00,12.920984,77.584908,NH3,3,5,4
India,Karnataka,Bengaluru,"Jayanagar 5th Block, Bengaluru - KSPCB",31-03-2024 01:00:00,12.920984,77.584908,SO2,12,36,21
India,Karnataka,Bengaluru,"Jayanagar 5th Block, Bengaluru - KSPCB",31-03-2024 01:00:00,12.920984,77.584908,CO,3,32,23
India,Karnataka,Bengaluru,"Jayanagar 5th Block, Bengaluru - KSPCB",31-03-2024 01:00:00,12.920984,77.584908,OZONE,18,22,18
India,Karnataka,Bengaluru,"Jigani, Bengaluru - KSPCB",31-03-2024 01:00:00,12.7816279,77.6299145,PM2.5,18,301,94
India,Karnataka,Bengaluru,"Jigani, Bengaluru - KSPCB",31-03-2024 01:00:00,12.7816279,77.6299145,SO2,16,16,16
India,Karnataka,Bengaluru,"Kasturi Nagar, Bengaluru - KSPCB",31-03-2024 01:00:00,13.003872,77.664217,PM2.5,52,322,133
India,Karnataka,Bengaluru,"Peenya, Bengaluru - CPCB",31-03-2024 01:00:00,13.0270199,77.494094,PM10,NA,NA,NA
India,Karnataka,Bengaluru,"Peenya, Bengaluru - CPCB",31-03-2024 01:00:00,13.0270199,77.494094,OZONE,11,33,20
India,Karnataka,Bengaluru,"RVCE-Mailasandra, Bengaluru - KSPCB",31-03-2024 01:00:00,12.921418,77.502466,PM2.5,64,145,98
India,Karnataka,Bengaluru,"RVCE-Mailasandra, Bengaluru - KSPCB",31-03-2024 01:00:00,12.921418,77.502466,PM10,87,130,105
India,Karnataka,Bengaluru,"RVCE-Mailasandra, Bengaluru - KSPCB",31-03-2024 01:00:00,12.921418,77.502466,CO,33,60,48
India,Karnataka,Bengaluru,"Sanegurava Halli, Bengaluru - KSPCB",31-03-2024 01:00:00,12.990328,77.5431385,SO2,1,3,3
India,Karnataka,Bengaluru,"Shivapura_Peenya, Bengaluru - KSPCB",31-03-2024 01:00:00,13.0246342,77.5080115,NO2,15,16,15
India,Karnataka,Bengaluru,"Shivapura_Peenya, Bengaluru - KSPCB",31-03-2024 01:00:00,13.0246342,77.5080115,CO,27,52,36
India,Karnataka,Bengaluru,"Silk Board, Bengaluru - KSPCB",31-03-2024 01:00:00,12.917348,77.622813,NO2,22,25,23
India,Karnataka,Bengaluru,"Silk Board, Bengaluru - KSPCB",31-03-2024 01:00:00,12.917348,77.622813,OZONE,29,31,30
India,Karnataka,Bidar,"Naubad, Bidar - KSPCB",31-03-2024 01:00:00,17.930306,77.482194,SO2,16,24,18
India,Karnataka,Chikkaballapur,"Chikkaballapur Rural, Chikkaballapur - KSPCB",31-03-2024 01:00:00,13.428828,77.731418,PM2.5,40,108,75
India,Karnataka,Chikkaballapur,"Chikkaballapur Rural, Chikkaballapur - KSPCB",31-03-2024 01:00:00,13.428828,77.731418,NO2,7,25,12
India,Karnataka,Chikkaballapur,"Chikkaballapur Rural, Chikkaballapur - KSPCB",31-03-2024 01:00:00,13.428828,77.731418,CO,14,32,20
India,Karnataka,Chikkamagaluru,"Kalyana Nagara, Chikkamagaluru - KSPCB",31-03-2024 01:00:00,13.328028,75.797056,NH3,NA,NA,NA
India,Karnataka,Chikkamagaluru,"Kalyana Nagara, Chikkamagaluru - KSPCB",31-03-2024 01:00:00,13.328028,75.797056,CO,11,126,32
India,Karnataka,Chikkamagaluru,"Kalyana Nagara, Chikkamagaluru - KSPCB",31-03-2024 01:00:00,13.328028,75.797056,OZONE,27,47,36
India,Karnataka,Davanagere,"Devaraj Urs Badavane, Davanagere - KSPCB",31-03-2024 01:00:00,14.475800,75.905200,PM10,NA,NA,NA
India,Karnataka,Davanagere,"Devaraj Urs Badavane, Davanagere - KSPCB",31-03-2024 01:00:00,14.475800,75.905200,SO2,4,6,5
India,Karnataka,Dharwad,"Kalabhavan, Dharwad - KSPCB",31-03-2024 01:00:00,15.459706,75.008381,OZONE,2,25,5
India,Karnataka,Hassan,"B.Katihalli, Hassan - KSPCB",31-03-2024 01:00:00,13.008556,76.125258,NH3,NA,NA,NA
India,Karnataka,Hassan,"B.Katihalli, Hassan - KSPCB",31-03-2024 01:00:00,13.008556,76.125258,SO2,NA,NA,NA
India,Karnataka,Hassan,"B.Katihalli, Hassan - KSPCB",31-03-2024 01:00:00,13.008556,76.125258,OZONE,6,6,6
India,Karnataka,Hubballi,"Deshpande Nagar, Hubballi - KSPCB",31-03-2024 01:00:00,15.351773,75.140726,NO2,24,27,26
India,Karnataka,Hubballi,"Deshpande Nagar, Hubballi - KSPCB",31-03-2024 01:00:00,15.351773,75.140726,CO,5,88,32
India,Karnataka,Hubballi,"Lingaraj Nagar, Hubballi - KSPCB",31-03-2024 01:00:00,15.3714823,75.1160168,NO2,16,16,16
India,Karnataka,Hubballi,"Lingaraj Nagar, Hubballi - KSPCB",31-03-2024 01:00:00,15.3714823,75.1160168,CO,8,48,40
India,Karnataka,Kalaburagi,"Lal Bahadur Shastri Nagar, Kalaburagi - KSPCB",31-03-2024 01:00:00,17.321993,76.822628,PM2.5,43,88,60
India,Karnataka,Kalaburagi,"Lal Bahadur Shastri Nagar, Kalaburagi - KSPCB",31-03-2024 01:00:00,17.321993,76.822628,NH3,2,2,2
India,Karnataka,Kalaburagi,"Lal Bahadur Shastri Nagar, Kalaburagi - KSPCB",31-03-2024 01:00:00,17.321993,76.822628,SO2,11,28,13
India,Karnataka,Kalaburagi,"Mahatma Basaveswar Colony, Kalaburgi - KSPCB",31-03-2024 01:00:00,17.336318,76.847397,SO2,6,28,10
India,Karnataka,Kalaburagi,"Mahatma Basaveswar Colony, Kalaburgi - KSPCB",31-03-2024 01:00:00,17.336318,76.847397,CO,34,45,40
India,Karnataka,Kolar,"Tamaka Ind. Area, Kolar - KSPCB",31-03-2024 01:00:00,13.1276288,78.1570122,NH3,14,28,22
India,Karnataka,Koppal,"Diwator Nagar, Koppal - KSPCB",31-03-2024 01:00:00,15.347630,76.181767,PM10,NA,NA,NA
India,Karnataka,Madikeri,"Stuart Hill, Madikeri - KSPCB",31-03-2024 01:00:00,12.415911,75.735050,NO2,2,13,5
India,Karnataka,Madikeri,"Stuart Hill, Madikeri - KSPCB",31-03-2024 01:00:00,12.415911,75.735050,CO,4,105,36
