country,state,city,station,last_update,latitude,longitude,pollutant_id,pollutant_min,pollutant_max,pollutant_avg
India,Andhra_Pradesh,Amaravati,"Secretariat, Amaravati - APPCB",20-02-2024 19:00:00,16.5150833,80.5181667,PM10,32,82,49
India,Andhra_Pradesh,Anantapur,"Gulzarpet, Anantapur - APPCB",20-02-2024 19:00:00,14.675886,77.593027,CO,24,81,31
India,Andhra_Pradesh,Chittoor,"Gangineni Cheruvu, Chittoor - APPCB",20-02-2024 19:00:00,13.204880,79.097889,NO2,2,27,11
India,Andhra_Pradesh,Kadapa,"Yerramukkapalli, Kadapa - APPCB",20-02-2024 19:00:00,14.465052,78.824187,SO2,1,2,2
India,Andhra_Pradesh,Rajamahendravaram,"Anand Kala Kshetram, Rajamahendravaram - APPCB",20-02-2024 19:00:00,16.9872867,81.7363176,NO2,11,38,22
India,Andhra_Pradesh,Rajamahendravaram,"Anand Kala Kshetram, Rajamahendravaram - APPCB",20-02-2024 19:00:00,16.9872867,81.7363176,OZONE,18,39,35
India,Andhra_Pradesh,Tirupati,"Tirumala, Tirupati - APPCB",20-02-2024 19:00:00,13.67,79.35,PM10,36,102,59
India,Andhra_Pradesh,Tirupati,"Tirumala, Tirupati - APPCB",20-02-2024 19:00:00,13.67,79.35,NO2,29,63,40
India,Andhra_Pradesh,Tirupati,"Tirumala, Tirupati - APPCB",20-02-2024 19:00:00,13.67,79.35,OZONE,21,55,42
India,Andhra_Pradesh,Tirupati,"Vaikuntapuram, Tirupati - APPCB",20-02-2024 19:00:00,13.615387,79.409230,CO,10,14,12
India,Andhra_Pradesh,Vijayawada,"Kanuru, Vijayawada - APPCB",20-02-2024 19:00:00,16.486692,80.699436,PM10,NA,NA,NA
India,Andhra_Pradesh,Vijayawada,"Kanuru, Vijayawada - APPCB",20-02-2024 19:00:00,16.486692,80.699436,NO2,NA,NA,NA
India,Andhra_Pradesh,Vijayawada,"Kanuru, Vijayawada - APPCB",20-02-2024 19:00:00,16.486692,80.699436,CO,36,70,43
India,Andhra_Pradesh,Vijayawada,"Rajiv Gandhi Park, Vijayawada - APPCB",20-02-2024 19:00:00,16.509717,80.612222,SO2,2,8,4
India,Andhra_Pradesh,Vijayawada,"Rajiv Gandhi Park, Vijayawada - APPCB",20-02-2024 19:00:00,16.509717,80.612222,CO,31,38,34
India,Andhra_Pradesh,Vijayawada,"Rajiv Nagar, Vijayawada - APPCB",20-02-2024 19:00:00,16.554731,80.649110,OZONE,3,50,29
India,Arunachal_Pradesh,Naharlagun,"Naharlagun, Naharlagun - APSPCB",20-02-2024 19:00:00,27.103358,93.679645,PM10,37,115,67
India,Assam,Byrnihat,"Central Academy for SFS, Byrnihat - PCBA",20-02-2024 19:00:00,26.071318,91.87488,PM2.5,153,500,346
India,Assam,Byrnihat,"Central Academy for SFS, Byrnihat - PCBA",20-02-2024 19:00:00,26.071318,91.87488,PM10,97,500,314
India,Assam,Guwahati,"LGBI Airport, Guwahati - PCBA",20-02-2024 19:00:00,26.10887,91.589544,PM2.5,123,342,221
India,Assam,Guwahati,"LGBI Airport, Guwahati - PCBA",20-02-2024 19:00:00,26.10887,91.589544,CO,NA,NA,NA
India,Assam,Guwahati,"LGBI Airport, Guwahati - PCBA",20-02-2024 19:00:00,26.10887,91.589544,OZONE,1,53,37
India,Assam,Guwahati,"Pan Bazaar, Guwahati - PCBA",20-02-2024 19:00:00,26.187500,91.744194,PM10,126,398,200
India,Assam,Guwahati,"Railway Colony, Guwahati - PCBA",20-02-2024 19:00:00,26.181742,91.78063,PM2.5,163,382,308
India,Assam,Nagaon,"Christianpatty, Nagaon - PCBA",20-02-2024 19:00:00,26.349082,92.68449,NO2,16,25,20
India,Assam,Nagaon,"Christianpatty, Nagaon - PCBA",20-02-2024 19:00:00,26.349082,92.68449,SO2,1,30,9
India,Assam,Nagaon,"Christianpatty, Nagaon - PCBA",20-02-2024 19:00:00,26.349082,92.68449,CO,10,124,31
India,Assam,Silchar,"Tarapur, Silchar - PCBA",20-02-2024 19:00:00,24.82827,92.79525,PM2.5,33,51,44
India,Assam,Silchar,"Tarapur, Silchar - PCBA",20-02-2024 19:00:00,24.82827,92.79525,CO,27,42,38
India,Assam,Sivasagar,"Girls College, Sivasagar - PCBA",20-02-2024 19:00:00,26.987634,94.636574,CO,20,44,24
India,Bihar,Araria,"Kharahiya Basti, Araria - BSPCB",20-02-2024 19:00:00,26.146529,87.454184,OZONE,1,10,9
India,Bihar,Arrah,"New DM Office, Arrah - BSPCB",20-02-2024 19:00:00,25.5626095,84.663264,NH3,5,8,7
India,Bihar,Aurangabad,"Gurdeo Nagar, Aurangabad - BSPCB",20-02-2024 19:00:00,24.75746,84.366208,PM10,86,188,118
India,Bihar,Aurangabad,"Gurdeo Nagar, Aurangabad - BSPCB",20-02-2024 19:00:00,24.75746,84.366208,SO2,1,10,6
India,Bihar,Bettiah,"Kamalnath Nagar, Bettiah - BSPCB",20-02-2024 19:00:00,26.80365,84.51954,NO2,25,44,34
India,Bihar,Bettiah,"Kamalnath Nagar, Bettiah - BSPCB",20-02-2024 19:00:00,26.80365,84.51954,CO,64,76,66
India,Bihar,Bihar Sharif,"D M Colony, Bihar Sharif - BSPCB",20-02-2024 19:00:00,25.204762,85.514960,PM2.5,23,332,105
India,Bihar,Bihar Sharif,"D M Colony, Bihar Sharif - BSPCB",20-02-2024 19:00:00,25.204762,85.514960,PM10,20,189,75
India,Bihar,Chhapra,"Darshan Nagar, Chhapra - BSPCB",20-02-2024 19:00:00,25.7808257,84.7446768,OZONE,5,29,22
India,Bihar,Gaya,"Collectorate, Gaya - BSPCB",20-02-2024 19:00:00,24.7955,84.9994,PM2.5,58,327,263
India,Bihar,Gaya,"Collectorate, Gaya - BSPCB",20-02-2024 19:00:00,24.7955,84.9994,CO,18,104,52
India,Bihar,Gaya,"Kareemganj, Gaya - BSPCB",20-02-2024 19:00:00,24.792403,84.992416,NO2,30,31,30
India,Bihar,Gaya,"Kareemganj, Gaya - BSPCB",20-02-2024 19:00:00,24.792403,84.992416,CO,12,109,42
India,Bihar,Gaya,"SFTI Kusdihra, Gaya - BSPCB",20-02-2024 19:00:00,24.762518,84.982348,PM2.5,89,195,136
India,Bihar,Hajipur,"Industrial Area, Hajipur - BSPCB",20-02-2024 19:00:00,25.697189,85.245900,NO2,32,56,40
India,Bihar,Katihar,"Mirchaibari, Katihar - BSPCB",20-02-2024 19:00:00,25.560083,87.553265,NH3,2,4,3
India,Bihar,Manguraha,"Forest Rest House, Manguraha - BSPCB",20-02-2024 19:00:00,27.308328,84.531742,PM10,73,163,103
India,Bihar,Manguraha,"Forest Rest House, Manguraha - BSPCB",20-02-2024 19:00:00,27.308328,84.531742,NO2,7,16,12
India,Bihar,Motihari,"Gandak Colony, Motihari - BSPCB",20-02-2024 19:00:00,26.63086,84.90051,NH3,10,15,12
India,Bihar,Munger,"Town Hall, Munger - BSPCB",20-02-2024 19:00:00,25.376776,86.471523,CO,3,124,30
India,Bihar,Muzaffarpur,"Buddha Colony, Muzaffarpur - BSPCB",20-02-2024 19:00:00,26.11442,85.39813,NH3,10,24,15
India,Bihar,Muzaffarpur,"MIT-Daudpur Kothi, Muzaffarpur - BSPCB",20-02-2024 19:00:00,26.1403345,85.3650192,NH3,1,3,1
India,Bihar,Muzaffarpur,"MIT-Daudpur Kothi, Muzaffarpur - BSPCB",20-02-2024 19:00:00,26.1403345,85.3650192,CO,28,101,63
India,Bihar,Muzaffarpur,"Muzaffarpur Collectorate, Muzaffarpur - BSPCB",20-02-2024 19:00:00,26.1209,85.3647,NO2,3,74,10
India,Bihar,Muzaffarpur,"Muzaffarpur Collectorate, Muzaffarpur - BSPCB",20-02-2024 19:00:00,26.1209,85.3647,SO2,4,10,6
India,Bihar,Muzaffarpur,"Muzaffarpur Collectorate, Muzaffarpur - BSPCB",20-02-2024 19:00:00,26.1209,85.3647,OZONE,16,90,62
India,Bihar,Patna,"DRM Office Danapur, Patna - BSPCB",20-02-2024 19:00:00,25.586562,85.043586,PM2.5,168,327,251
India,Bihar,Patna,"DRM Office Danapur, Patna - BSPCB",20-02-2024 19:00:00,25.586562,85.043586,CO,19,167,52
India,Bihar,Patna,"Govt. High School Shikarpur, Patna - BSPCB",20-02-2024 19:00:00,25.592539,85.227158,PM10,143,181,162
India,Bihar,Patna,"Govt. High School Shikarpur, Patna - BSPCB",20-02-2024 19:00:00,25.592539,85.227158,NO2,27,35,32
India,Bihar,Patna,"Govt. High School Shikarpur, Patna - BSPCB",20-02-2024 19:00:00,25.592539,85.227158,CO,34,102,51
India,Bihar,Patna,"IGSC Planetarium Complex, Patna - BSPCB",20-02-2024 19:00:00,25.610369,85.132568,PM2.5,122,282,197
India,Bihar,Patna,"IGSC Planetarium Complex, Patna - BSPCB",20-02-2024 19:00:00,25.610369,85.132568,NO2,12,12,12
India,Bihar,Patna,"IGSC Planetarium Complex, Patna - BSPCB",20-02-2024 19:00:00,25.610369,85.132568,OZONE,2,36,24
India,Bihar,Patna,"Muradpur, Patna - BSPCB",20-02-2024 19:00:00,25.619651,85.147382,PM2.5,142,318,250
India,Bihar,Patna,"Muradpur, Patna - BSPCB",20-02-2024 19:00:00,25.619651,85.147382,CO,34,116,53
India,Bihar,Patna,"Rajbansi Nagar, Patna - BSPCB",20-02-2024 19:00:00,25.599486,85.113666,NH3,1,3,2
India,Bihar,Patna,"Samanpura, Patna - BSPCB",20-02-2024 19:00:00,25.596727,85.085624,PM10,207,500,315
India,Bihar,Purnia,"Mariam Nagar, Purnia - BSPCB",20-02-2024 19:00:00,25.366336,87.117468,PM10,103,250,163
India,Bihar,Purnia,"Mariam Nagar, Purnia - BSPCB",20-02-2024 19:00:00,25.366336,87.117468,NO2,12,13,13
India,Bihar,Purnia,"Mariam Nagar, Purnia - BSPCB",20-02-2024 19:00:00,25.366336,87.117468,NH3,1,1,1
India,Bihar,Saharsa,"Police Line, Saharsa - BSPCB",20-02-2024 19:00:00,25.892357,86.590325,NH3,9,9,9
India,Bihar,Saharsa,"Police Line, Saharsa - BSPCB",20-02-2024 19:00:00,25.892357,86.590325,OZONE,11,86,75
India,Bihar,Sasaram,"Dada Peer, Sasaram - BSPCB",20-02-2024 19:00:00,24.952822,84.002396,PM2.5,72,323,199
India,Bihar,Sasaram,"Dada Peer, Sasaram - BSPCB",20-02-2024 19:00:00,24.952822,84.002396,CO,89,111,98
India,Bihar,Siwan,"Chitragupta Nagar, Siwan - BSPCB",20-02-2024 19:00:00,26.2271665,84.3570427,SO2,16,37,32
India,Bihar,Siwan,"Chitragupta Nagar, Siwan - BSPCB",20-02-2024 19:00:00,26.2271665,84.3570427,CO,38,162,125
India,Chandigarh,Chandigarh,"Sector-25, Chandigarh - CPCC",20-02-2024 19:00:00,30.751462,76.762879,NH3,20,29,23
India,Chandigarh,Chandigarh,"Sector-25, Chandigarh - CPCC",20-02-2024 19:00:00,30.751462,76.762879,OZONE,9,191,48
India,Chandigarh,Chandigarh,"Sector-53, Chandigarh - CPCC",20-02-2024 19:00:00,30.719859,76.738637,OZONE,30,58,52
India,Chhattisgarh,Bhilai,"32Bungalows, Bhilai - CECB",20-02-2024 19:00:00,21.194815,81.314770,NO2,13,25,18
India,Chhattisgarh,Bhilai,"32Bungalows, Bhilai - CECB",20-02-2024 19:00:00,21.194815,81.314770,NH3,6,6,6
India,Chhattisgarh,Bhilai,"Civic Center, Bhilai - Bhilai Steel Plant",20-02-2024 19:00:00,21.185571,81.343175,PM10,NA,NA,NA
India,Chhattisgarh,Bhilai,"Hathkhoj, Bhilai - CECB",20-02-2024 19:00:00,21.224231,81.408350,PM10,49,175,111
India,Chhattisgarh,Bhilai,"Hathkhoj, Bhilai - CECB",20-02-2024 19:00:00,21.224231,81.408350,NH3,7,8,8
India,Chhattisgarh,Bilaspur,"Mangala, Bilaspur - NTPC",20-02-2024 19:00:00,22.08815,82.13737,PM2.5,26,79,54
India,Chhattisgarh,Bilaspur,"Mangala, Bilaspur - NTPC",20-02-2024 19:00:00,22.08815,82.13737,NO2,21,24,23
India,Chhattisgarh,Korba,"Rampur, Korba - CECB",20-02-2024 19:00:00,22.368195,82.746431,PM2.5,22,43,32
India,Chhattisgarh,Kunjemura,"OP Jindal School, Kunjemura - CECB",20-02-2024 19:00:00,22.126650,83.483212,PM2.5,33,71,57
India,Chhattisgarh,Kunjemura,"OP Jindal School, Kunjemura - CECB",20-02-2024 19:00:00,22.126650,83.483212,OZONE,4,83,66
India,Chhattisgarh,Milupara,"Govt. Higher Secondary School, Milupara - CECB",20-02-2024 19:00:00,22.1910172,83.5197009,PM2.5,40,74,55
India,Chhattisgarh,Milupara,"Govt. Higher Secondary School, Milupara - CECB",20-02-2024 19:00:00,22.1910172,83.5197009,NH3,1,2,2
India,Chhattisgarh,Milupara,"Govt. Higher Secondary School, Milupara - CECB",20-02-2024 19:00:00,22.1910172,83.5197009,SO2,7,55,17
India,Chhattisgarh,Milupara,"Govt. Higher Secondary School, Milupara - CECB",20-02-2024 19:00:00,22.1910172,83.5197009,CO,5,74,24
India,Chhattisgarh,Raipur,"AIIMS, Raipur - CECB",20-02-2024 19:00:00,21.258815,81.578979,NH3,4,4,4
India,Chhattisgarh,Raipur,"AIIMS, Raipur - CECB",20-02-2024 19:00:00,21.258815,81.578979,OZONE,1,13,7
India,Chhattisgarh,Raipur,"Krishak Nagar, Raipur - CECB",20-02-2024 19:00:00,21.237755,81.705301,PM10,NA,NA,NA
India,Chhattisgarh,Raipur,"Krishak Nagar, Raipur - CECB",20-02-2024 19:00:00,21.237755,81.705301,NO2,NA,NA,NA
India,Delhi,Delhi,"Alipur, Delhi - DPCC",20-02-2024 19:00:00,28.815329,77.153010,NH3,11,15,13
India,Delhi,Delhi,"Anand Vihar, Delhi - DPCC",20-02-2024 19:00:00,28.647622,77.3158090,PM2.5,120,321,232
India,Delhi,Delhi,"Anand Vihar, Delhi - DPCC",20-02-2024 19:00:00,28.647622,77.3158090,SO2,18,36,27
India,Delhi,Delhi,"Anand Vihar, Delhi - DPCC",20-02-2024 19:00:00,28.647622,77.3158090,CO,96,109,104
India,Delhi,Delhi,"Ashok Vihar, Delhi - DPCC",20-02-2024 19:00:00,28.695381,77.181665,SO2,24,36,30
India,Delhi,Delhi,"Ashok Vihar, Delhi - DPCC",20-02-2024 19:00:00,28.695381,77.181665,CO,30,62,45
India,Delhi,Delhi,"Bawana, Delhi - DPCC",20-02-2024 19:00:00,28.776200,77.051074,SO2,5,14,8
India,Delhi,Delhi,"Bawana, Delhi - DPCC",20-02-2024 19:00:00,28.776200,77.051074,OZONE,6,90,55
India,Delhi,Delhi,"CRRI Mathura Road, Delhi - IMD",20-02-2024 19:00:00,28.5512005,77.2735737,OZONE,4,68,23
India,Delhi,Delhi,"Chandni Chowk, Delhi - IITM",20-02-2024 19:00:00,28.656756,77.227234,NH3,8,8,8
India,Delhi,Delhi,"Chandni Chowk, Delhi - IITM",20-02-2024 19:00:00,28.656756,77.227234,SO2,4,43,25
India,Delhi,Delhi,"Chandni Chowk, Delhi - IITM",20-02-2024 19:00:00,28.656756,77.227234,CO,103,110,106
India,Delhi,Delhi,"DTU, Delhi - CPCB",20-02-2024 19:00:00,28.7500499,77.1112615,NO2,NA,NA,NA
India,Delhi,Delhi,"DTU, Delhi - CPCB",20-02-2024 19:00:00,28.7500499,77.1112615,NH3,NA,NA,NA
India,Delhi,Delhi,"DTU, Delhi - CPCB",20-02-2024 19:00:00,28.7500499,77.1112615,CO,26,35,33
India,Delhi,Delhi,"Dr. Karni Singh Shooting Range, Delhi - DPCC",20-02-2024 19:00:00,28.498571,77.264840,PM2.5,154,314,261
India,Delhi,Delhi,"Dr. Karni Singh Shooting Range, Delhi - DPCC",20-02-2024 19:00:00,28.498571,77.264840,NO2,35,106,43
India,Delhi,Delhi,"Dwarka-Sector 8, Delhi - DPCC ",20-02-2024 19:00:00,28.5710274,77.0719006,NO2,2,119,27
India,Delhi,Delhi,"Dwarka-Sector 8, Delhi - DPCC ",20-02-2024 19:00:00,28.5710274,77.0719006,NH3,6,15,10
India,Delhi,Delhi,"Jawaharlal Nehru Stadium, Delhi - DPCC",20-02-2024 19:00:00,28.580280,77.233829,PM2.5,161,302,236
India,Delhi,Delhi,"Jawaharlal Nehru Stadium, Delhi - DPCC",20-02-2024 19:00:00,28.580280,77.233829,NO2,57,138,86
India,Delhi,Delhi,"Jawaharlal Nehru Stadium, Delhi - DPCC",20-02-2024 19:00:00,28.580280,77.233829,SO2,2,11,6
India,Delhi,Delhi,"Lodhi Road, Delhi - IITM",20-02-2024 19:00:00,28.588333,77.221667,OZONE,15,18,17
India,Delhi,Delhi,"Major Dhyan Chand National Stadium, Delhi - DPCC",20-02-2024 19:00:00,28.611281,77.237738,PM10,123,237,160
India,Delhi,Delhi,"Major Dhyan Chand National Stadium, Delhi - DPCC",20-02-2024 19:00:00,28.611281,77.237738,SO2,4,17,11
India,Delhi,Delhi,"Mandir Marg, Delhi - DPCC",20-02-2024 19:00:00,28.636429,77.201067,NO2,107,139,124
India,Delhi,Delhi,"Mundka, Delhi - DPCC",20-02-2024 19:00:00,28.684678,77.076574,NO2,36,88,68
India,Delhi,Delhi,"NSIT Dwarka, Delhi - CPCB",20-02-2024 19:00:00,28.60909,77.0325413,PM2.5,34,271,114
India,Delhi,Delhi,"Nehru Nagar, Delhi - DPCC",20-02-2024 19:00:00,28.567890,77.250515,PM2.5,178,331,300
India,Delhi,Delhi,"New Moti Bagh, Delhi - MHUA",20-02-2024 19:00:00,28.57834,77.18400,CO,9,50,35
India,Delhi,Delhi,"Okhla Phase-2, Delhi - DPCC",20-02-2024 19:00:00,28.530785,77.271255,NO2,33,233,74
India,Delhi,Delhi,"Patparganj, Delhi - DPCC",20-02-2024 19:00:00,28.623763,77.287209,CO,20,44,35
India,Delhi,Delhi,"Punjabi Bagh, Delhi - DPCC",20-02-2024 19:00:00,28.674045,77.131023,SO2,23,46,38
India,Delhi,Delhi,"R K Puram, Delhi - DPCC",20-02-2024 19:00:00,28.563262,77.186937,NH3,2,3,2
India,Delhi,Delhi,"R K Puram, Delhi - DPCC",20-02-2024 19:00:00,28.563262,77.186937,SO2,13,29,20
India,Delhi,Delhi,"Rohini, Delhi - DPCC",20-02-2024 19:00:00,28.732528,77.119920,PM2.5,111,327,254
India,Delhi,Delhi,"Rohini, Delhi - DPCC",20-02-2024 19:00:00,28.732528,77.119920,NH3,11,16,13
India,Delhi,Delhi,"Shadipur, Delhi - CPCB",20-02-2024 19:00:00,28.6514781,77.1473105,SO2,8,36,12
India,Delhi,Delhi,"Sonia Vihar, Delhi - DPCC",20-02-2024 19:00:00,28.710508,77.249485,PM10,124,265,183
India,Delhi,Delhi,"Sri Aurobindo Marg, Delhi - DPCC",20-02-2024 19:00:00,28.531346,77.190156,PM2.5,75,320,248
India,Delhi,Delhi,"Sri Aurobindo Marg, Delhi - DPCC",20-02-2024 19:00:00,28.531346,77.190156,OZONE,1,25,16
India,Delhi,Delhi,"Vivek Vihar, Delhi - DPCC",20-02-2024 19:00:00,28.672342,77.315260,SO2,23,25,24
India,Delhi,Delhi,"Wazirpur, Delhi - DPCC",20-02-2024 19:00:00,28.699793,77.165453,CO,40,102,64
India,Delhi,Delhi,"Wazirpur, Delhi - DPCC",20-02-2024 19:00:00,28.699793,77.165453,OZONE,16,80,54
India,Gujarat,Ahmedabad,"Chandkheda, Ahmedabad - IITM",20-02-2024 19:00:00,23.107969,72.574648,NO2,40,71,64
India,Gujarat,Ahmedabad,"Maninagar, Ahmedabad - GPCB",20-02-2024 19:00:00,23.002657,72.591912,NO2,14,26,17
India,Gujarat,Ahmedabad,"Rakhial, Ahmedabad - IITM",20-02-2024 19:00:00,23.016834,72.625775,SO2,2,33,9
India,Gujarat,Ahmedabad,"SAC ISRO Bopal, Ahmedabad - IITM",20-02-2024 19:00:00,23.041137,72.456691,PM10,61,119,86
India,Gujarat,Ahmedabad,"SAC ISRO Bopal, Ahmedabad - IITM",20-02-2024 19:00:00,23.041137,72.456691,NO2,12,13,12
India,Gujarat,Ahmedabad,"SAC ISRO Bopal, Ahmedabad - IITM",20-02-2024 19:00:00,23.041137,72.456691,OZONE,7,30,25
India,Gujarat,Ahmedabad,"SAC ISRO Satellite, Ahmedabad - IITM",20-02-2024 19:00:00,23.023389,72.515201,PM2.5,131,167,161
India,Gujarat,Ahmedabad,"SVPI Airport Hansol, Ahmedabad - IITM",20-02-2024 19:00:00,23.076793,72.627874,PM10,75,113,92
India,Gujarat,Ahmedabad,"SVPI Airport Hansol, Ahmedabad - IITM",20-02-2024 19:00:00,23.076793,72.627874,NO2,14,20,16
India,Gujarat,Ahmedabad,"Sardar Vallabhbhai Patel Stadium, Ahmedabad - IITM",20-02-2024 19:00:00,23.043070,72.562968,NO2,12,15,13
India,Gujarat,Ankleshwar,"GIDC, Ankleshwar - GPCB",20-02-2024 19:00:00,21.613267,73.010555,OZONE,20,39,32
India,Gujarat,Gandhinagar,"Sector-10, Gandhinagar - GPCB",20-02-2024 19:00:00,23.221714,72.654328,PM2.5,20,39,28
India,Gujarat,Gandhinagar,"Sector-10, Gandhinagar - GPCB",20-02-2024 19:00:00,23.221714,72.654328,PM10,30,81,64
India,Gujarat,Gandhinagar,"Sector-10, Gandhinagar - GPCB",20-02-2024 19:00:00,23.221714,72.654328,NH3,1,2,2
India,Gujarat,Surat,"Science Center, Surat - SMC",20-02-2024 19:00:00,21.170046,72.795405,NO2,6,19,11
India,Gujarat,Vapi,"Phase-1 GIDC, Vapi - GPCB",20-02-2024 19:00:00,20.362421,72.918013,PM10,52,365,121
India,Gujarat,Vatva,"Phase-4 GIDC, Vatva - GPCB",20-02-2024 19:00:00,22.969611,72.643500,NO2,22,63,38
India,Gujarat,Vatva,"Phase-4 GIDC, Vatva - GPCB",20-02-2024 19:00:00,22.969611,72.643500,OZONE,4,73,11
India,Haryana,Ambala,"Patti Mehar, Ambala - HSPCB",20-02-2024 19:00:00,30.379589,76.778328,CO,30,60,44
India,Haryana,Bahadurgarh,"Arya Nagar, Bahadurgarh - HSPCB",20-02-2024 19:00:00,28.6701,76.9254,CO,32,62,47
India,Haryana,Ballabgarh,"Nathu Colony, Ballabgarh - HSPCB",20-02-2024 19:00:00,28.3419248,77.319699,NO2,11,14,13
India,Haryana,Ballabgarh,"Nathu Colony, Ballabgarh - HSPCB",20-02-2024 19:00:00,28.3419248,77.319699,CO,12,48,23
India,Haryana,Bhiwani,"H.B. Colony, Bhiwani - HSPCB",20-02-2024 19:00:00,28.806223,76.141105,CO,22,50,26
India,Haryana,Charkhi Dadri,"Mini Secretariat, Charkhi Dadri - HSPCB",20-02-2024 19:00:00,28.593883,76.270653,PM2.5,70,152,112
India,Haryana,Charkhi Dadri,"Mini Secretariat, Charkhi Dadri - HSPCB",20-02-2024 19:00:00,28.593883,76.270653,SO2,15,21,19
India,Haryana,Dharuhera,"Municipal Corporation Office, Dharuhera -  HSPCB",20-02-2024 19:00:00,28.206800,76.799700,PM2.5,85,239,142
India,Haryana,Dharuhera,"Municipal Corporation Office, Dharuhera -  HSPCB",20-02-2024 19:00:00,28.206800,76.799700,PM10,158,178,170
India,Haryana,Dharuhera,"Municipal Corporation Office, Dharuhera -  HSPCB",20-02-2024 19:00:00,28.206800,76.799700,CO,35,59,35
India,Haryana,Faridabad,"Sector- 16A, Faridabad - HSPCB",20-02-2024 19:00:00,28.4088421,77.3099081,PM2.5,102,333,278
India,Haryana,Fatehabad,"Huda Sector, Fatehabad - HSPCB",20-02-2024 19:00:00,29.503664,75.467934,PM10,NA,NA,NA
India,Haryana,Fatehabad,"Huda Sector, Fatehabad - HSPCB",20-02-2024 19:00:00,29.503664,75.467934,NO2,23,25,25
India,Haryana,Gurugram,"Sector-51, Gurugram - HSPCB",20-02-2024 19:00:00,28.4227,77.0667,PM2.5,117,343,272
India,Haryana,Gurugram,"Vikas Sadan, Gurugram - HSPCB",20-02-2024 19:00:00,28.4501238,77.0263051,CO,54,138,100
India,Haryana,Hisar,"Urban Estate-II, Hisar - HSPCB",20-02-2024 19:00:00,29.140560,75.744941,NO2,6,45,10
India,Haryana,Jind,"Police Lines, Jind - HSPCB",20-02-2024 19:00:00,29.307814,76.337619,NH3,2,6,3
India,Haryana,Karnal,"Sector-12, Karnal - HSPCB",20-02-2024 19:00:00,29.695300,77.002700,NH3,10,13,11
India,Haryana,Karnal,"Sector-12, Karnal - HSPCB",20-02-2024 19:00:00,29.695300,77.002700,CO,12,52,40
India,Haryana,Mandikhera,"General Hospital, Mandikhera - HSPCB",20-02-2024 19:00:00,27.9002,76.9938,SO2,26,37,34
India,Haryana,Manesar,"Sector-2 IMT, Manesar - HSPCB",20-02-2024 19:00:00,28.360699,76.936090,NO2,11,31,21
India,Haryana,Manesar,"Sector-2 IMT, Manesar - HSPCB",20-02-2024 19:00:00,28.360699,76.936090,SO2,6,38,12
India,Haryana,Manesar,"Sector-2 IMT, Manesar - HSPCB",20-02-2024 19:00:00,28.360699,76.936090,OZONE,10,50,36
India,Haryana,Narnaul,"Shastri Nagar, Narnaul - HSPCB",20-02-2024 19:00:00,28.060249,76.113115,PM10,34,80,50
India,Haryana,Narnaul,"Shastri Nagar, Narnaul - HSPCB",20-02-2024 19:00:00,28.060249,76.113115,CO,8,13,10
India,Haryana,Palwal,"Shyam Nagar, Palwal - HSPCB",20-02-2024 19:00:00,28.1485564,77.3320667,PM2.5,35,69,44
India,Haryana,Palwal,"Shyam Nagar, Palwal - HSPCB",20-02-2024 19:00:00,28.1485564,77.3320667,SO2,9,29,20
India,Haryana,Palwal,"Shyam Nagar, Palwal - HSPCB",20-02-2024 19:00:00,28.1485564,77.3320667,OZONE,22,48,41
India,Haryana,Panchkula,"Sector-6, Panchkula - HSPCB ",20-02-2024 19:00:00,30.7057778,76.8531805555555,PM2.5,28,124,57
India,Haryana,Sirsa,"F-Block, Sirsa - HSPCB",20-02-2024 19:00:00,29.536400,75.015800,PM2.5,29,63,44
India,Haryana,Sirsa,"F-Block, Sirsa - HSPCB",20-02-2024 19:00:00,29.536400,75.015800,PM10,18,195,89
India,Haryana,Sirsa,"F-Block, Sirsa - HSPCB",20-02-2024 19:00:00,29.536400,75.015800,NH3,10,14,13
India,Haryana,Sirsa,"F-Block, Sirsa - HSPCB",20-02-2024 19:00:00,29.536400,75.015800,SO2,NA,NA,NA
India,Haryana,Yamuna Nagar,"Gobind Pura, Yamuna Nagar - HSPCB",20-02-2024 19:00:00,30.1480566,77.2893471,OZONE,21,47,31
India,Himachal Pradesh,Baddi,"HIMUDA Complex Phase-1, Baddi - HPPCB",20-02-2024 19:00:00,30.943887,76.801991,PM10,65,152,112
India,Himachal Pradesh,Baddi,"HIMUDA Complex Phase-1, Baddi - HPPCB",20-02-2024 19:00:00,30.943887,76.801991,CO,18,32,24
India,Jharkhand,Dhanbad,"Kalakusuma, Dhanbad - DMC",20-02-2024 19:00:00,23.811548,86.481238,PM2.5,NA,NA,NA
India,Jharkhand,Dhanbad,"Kalakusuma, Dhanbad - DMC",20-02-2024 19:00:00,23.811548,86.481238,OZONE,42,42,42
India,Jharkhand,Dhanbad,"Sardar Patel Nagar, Dhanbad - JSPCB",20-02-2024 19:00:00,23.80569,86.44268,PM2.5,NA,NA,NA
India,Jharkhand,Dhanbad,"Sardar Patel Nagar, Dhanbad - JSPCB",20-02-2024 19:00:00,23.80569,86.44268,CO,136,180,180
India,Jharkhand,Jorapokhar,"Tata Stadium, Jorapokhar - JSPCB",20-02-2024 19:00:00,23.707909,86.414670,SO2,5,71,21
India,Jharkhand,Jorapokhar,"Tata Stadium, Jorapokhar - JSPCB",20-02-2024 19:00:00,23.707909,86.414670,OZONE,1,31,20
India,Karnataka,Bagalkot,"Vidayagiri, Bagalkot - KSPCB",20-02-2024 19:00:00,16.172806,75.659694,CO,22,48,34
India,Karnataka,Belgaum,"Ramteerth Nagar, Belgaum - KSPCB",20-02-2024 19:00:00,15.888653,74.541751,PM10,34,84,60
India,Karnataka,Belgaum,"Ramteerth Nagar, Belgaum - KSPCB",20-02-2024 19:00:00,15.888653,74.541751,NH3,33,34,34
India,Karnataka,Belgaum,"Ramteerth Nagar, Belgaum - KSPCB",20-02-2024 19:00:00,15.888653,74.541751,OZONE,19,20,19
India,Karnataka,Bengaluru,"Bapuji Nagar, Bengaluru - KSPCB",20-02-2024 19:00:00,12.951913,77.539784,OZONE,10,18,15
India,Karnataka,Bengaluru,"City Railway Station, Bengaluru - KSPCB",20-02-2024 19:00:00,12.9756843,77.5660749,PM10,60,84,70
India,Karnataka,Bengaluru,"Hebbal, Bengaluru - KSPCB",20-02-2024 19:00:00,13.029152,77.585901,CO,11,42,22
India,Karnataka,Bengaluru,"Jayanagar 5th Block, Bengaluru - KSPCB",20-02-2024 19:00:00,12.920984,77.584908,PM10,57,162,99
India,Karnataka,Bengaluru,"Jigani, Bengaluru - KSPCB",20-02-2024 19:00:00,12.7816279,77.6299145,CO,38,92,59
India,Karnataka,Bengaluru,"Kasturi Nagar, Bengaluru - KSPCB",20-02-2024 19:00:00,13.003872,77.664217,PM10,97,150,115
India,Karnataka,Bengaluru,"Kasturi Nagar, Bengaluru - KSPCB",20-02-2024 19:00:00,13.003872,77.664217,CO,22,26,23
India,Karnataka,Bengaluru,"Peenya, Bengaluru - CPCB",20-02-2024 19:00:00,13.0270199,77.494094,PM10,39,102,63
India,Karnataka,Bengaluru,"Peenya, Bengaluru - CPCB",20-02-2024 19:00:00,13.0270199,77.494094,OZONE,11,129,104
India,Karnataka,Bengaluru,"Shivapura_Peenya, Bengaluru - KSPCB",20-02-2024 19:00:00,13.0246342,77.5080115,PM10,58,111,74
India,Karnataka,Bengaluru,"Shivapura_Peenya, Bengaluru - KSPCB",20-02-2024 19:00:00,13.0246342,77.5080115,NH3,4,4,4
India,Karnataka,Bengaluru,"Silk Board, Bengaluru - KSPCB",20-02-2024 19:00:00,12.917348,77.622813,PM2.5,38,86,54
India,Karnataka,Bengaluru,"Silk Board, Bengaluru - KSPCB",20-02-2024 19:00:00,12.917348,77.622813,NO2,24,30,27
India,Karnataka,Chamarajanagar,"Urban, Chamarajanagar - KSPCB",20-02-2024 19:00:00,11.55358,76.55521,PM2.5,19,55,31
India,Karnataka,Chamarajanagar,"Urban, Chamarajanagar - KSPCB",20-02-2024 19:00:00,11.55358,76.55521,PM10,34,64,43
India,Karnataka,Chamarajanagar,"Urban, Chamarajanagar - KSPCB",20-02-2024 19:00:00,11.55358,76.55521,NH3,2,3,2
India,Karnataka,Chamarajanagar,"Urban, Chamarajanagar - KSPCB",20-02-2024 19:00:00,11.55358,76.55521,CO,19,54,31
India,Karnataka,Chikkaballapur,"Chikkaballapur Rural, Chikkaballapur - KSPCB",20-02-2024 19:00:00,13.428828,77.731418,SO2,17,34,23
India,Karnataka,Dharwad,"Kalabhavan, Dharwad - KSPCB",20-02-2024 19:00:00,15.459706,75.008381,PM2.5,62,80,72
India,Karnataka,Gadag,"Panchal Nagar, Gadag - KSPCB",20-02-2024 19:00:00,15.411456,75.638133,PM2.5,24,50,42
India,Karnataka,Gadag,"Panchal Nagar, Gadag - KSPCB",20-02-2024 19:00:00,15.411456,75.638133,NO2,5,22,13
India,Karnataka,Gadag,"Panchal Nagar, Gadag - KSPCB",20-02-2024 19:00:00,15.411456,75.638133,NH3,2,3,2
India,Karnataka,Gadag,"Panchal Nagar, Gadag - KSPCB",20-02-2024 19:00:00,15.411456,75.638133,OZONE,26,72,65
India,Karnataka,Hassan,"B.Katihalli, Hassan - KSPCB",20-02-2024 19:00:00,13.008556,76.125258,NH3,1,9,1
India,Karnataka,Haveri,"Ashwini Nagar, Haveri - KSPCB",20-02-2024 19:00:00,14.791800,75.389600,PM10,NA,NA,NA
India,Karnataka,Hubballi,"Lingaraj Nagar, Hubballi - KSPCB",20-02-2024 19:00:00,15.3714823,75.1160168,PM10,48,63,55
India,Karnataka,Hubballi,"Lingaraj Nagar, Hubballi - KSPCB",20-02-2024 19:00:00,15.3714823,75.1160168,OZONE,14,57,50
India,Karnataka,Kalaburagi,"Lal Bahadur Shastri Nagar, Kalaburagi - KSPCB",20-02-2024 19:00:00,17.321993,76.822628,CO,40,62,41
India,Karnataka,Kalaburagi,"Mahatma Basaveswar Colony, Kalaburgi - KSPCB",20-02-2024 19:00:00,17.336318,76.847397,SO2,6,37,11
India,Karnataka,Kalaburagi,"Mahatma Basaveswar Colony, Kalaburgi - KSPCB",20-02-2024 19:00:00,17.336318,76.847397,CO,38,70,41
India,Karnataka,Karwar,"KHB Colony, Karwar - KSPCB",20-02-2024 19:00:00,14.816666,74.141003,NH3,2,4,3
India,Karnataka,Karwar,"KHB Colony, Karwar - KSPCB",20-02-2024 19:00:00,14.816666,74.141003,CO,7,8,7
India,Karnataka,Karwar,"KHB Colony, Karwar - KSPCB",20-02-2024 19:00:00,14.816666,74.141003,OZONE,21,23,21
India,Karnataka,Koppal,"Diwator Nagar, Koppal - KSPCB",20-02-2024 19:00:00,15.347630,76.181767,SO2,54,88,60
India,Karnataka,Madikeri,"Stuart Hill, Madikeri - KSPCB",20-02-2024 19:00:00,12.415911,75.735050,NH3,1,1,1
India,Karnataka,Ramanagara,"Vijay Nagar, Ramanagara - KSPCB",20-02-2024 19:00:00,12.733409,77.298051,SO2,22,29,24
India,Karnataka,Shivamogga,"Vinoba Nagara, Shivamogga - KSPCB",20-02-2024 19:00:00,13.940000,75.555917,PM2.5,28,61,51
India,Karnataka,Shivamogga,"Vinoba Nagara, Shivamogga - KSPCB",20-02-2024 19:00:00,13.940000,75.555917,NO2,10,14,12
India,Karnataka,Shivamogga,"Vinoba Nagara, Shivamogga - KSPCB",20-02-2024 19:00:00,13.940000,75.555917,SO2,3,18,8
India,Karnataka,Shivamogga,"Vinoba Nagara, Shivamogga - KSPCB",20-02-2024 19:00:00,13.940000,75.555917,OZONE,23,94,75
India,Karnataka,Tumakuru,"Thimmalapura, Tumakuru - KSPCB",20-02-2024 19:00:00,13.377516,77.099072,PM10,16,39,26
India,Karnataka,Udupi,"Brahmagiri, Udupi - KSPCB",20-02-2024 19:00:00,13.34194444,74.74694444,OZONE,23,24,23
India,Karnataka,Vijayapura,"Ibrahimpur, Vijayapura - KSPCB",20-02-2024 19:00:00,16.802639,75.722694,SO2,19,85,53
India,Kerala,Eloor,"Udyogamandal, Eloor - Kerala PCB",20-02-2024 19:00:00,10.073232,76.302765,PM10,39,54,46
India,Kerala,Eloor,"Udyogamandal, Eloor - Kerala PCB",20-02-2024 19:00:00,10.073232,76.302765,OZONE,11,23,18
India,Kerala,Kannur,"Thavakkara, Kannur - Kerala PCB",20-02-2024 19:00:00,11.875000,75.373200,OZONE,31,36,34
India,Kerala,Kochi,"Vyttila, Kochi - Kerala PCB",20-02-2024 19:00:00,9.969447,76.321186,SO2,3,121,21
India,Kerala,Kollam,"Polayathode, Kollam - Kerala PCB",20-02-2024 19:00:00,8.8787,76.6073,NO2,8,9,8
India,Kerala,Kollam,"Polayathode, Kollam - Kerala PCB",20-02-2024 19:00:00,8.8787,76.6073,NH3,1,1,1
India,Kerala,Thiruvananthapuram,"Kariavattom, Thiruvananthapuram - Kerala PCB",20-02-2024 19:00:00,8.563700,76.886500,NH3,1,1,1
India,Kerala,Thiruvananthapuram,"Plammoodu, Thiruvananthapuram - Kerala PCB",20-02-2024 19:00:00,8.5149093,76.9435879,SO2,6,14,10
India,Kerala,Thiruvananthapuram,"Plammoodu, Thiruvananthapuram - Kerala PCB",20-02-2024 19:00:00,8.5149093,76.9435879,OZONE,10,66,16
India,Madhya Pradesh,Bhopal,"Paryavaran Parisar, Bhopal - MPPCB",20-02-2024 19:00:00,23.210494,77.425409,NO2,16,62,29
India,Madhya Pradesh,Bhopal,"Paryavaran Parisar, Bhopal - MPPCB",20-02-2024 19:00:00,23.210494,77.425409,SO2,23,28,25
India,Madhya Pradesh,Bhopal,"T T Nagar, Bhopal - MPPCB",20-02-2024 19:00:00,23.233584,77.400574,PM2.5,20,166,63
India,Madhya Pradesh,Bhopal,"T T Nagar, Bhopal - MPPCB",20-02-2024 19:00:00,23.233584,77.400574,NH3,5,7,6
India,Madhya Pradesh,Bhopal,"T T Nagar, Bhopal - MPPCB",20-02-2024 19:00:00,23.233584,77.400574,OZONE,49,99,89
India,Madhya Pradesh,Gwalior,"City Center, Gwalior - MPPCB",20-02-2024 19:00:00,26.203442,78.193251,NO2,19,37,24
India,Madhya Pradesh,Gwalior,"City Center, Gwalior - MPPCB",20-02-2024 19:00:00,26.203442,78.193251,NH3,3,16,4
India,Madhya Pradesh,Gwalior,"City Center, Gwalior - MPPCB",20-02-2024 19:00:00,26.203442,78.193251,SO2,16,71,24
India,Madhya Pradesh,Gwalior,"City Center, Gwalior - MPPCB",20-02-2024 19:00:00,26.203442,78.193251,CO,34,65,46
India,Madhya Pradesh,Gwalior,"City Center, Gwalior - MPPCB",20-02-2024 19:00:00,26.203442,78.193251,OZONE,39,78,73
India,Madhya Pradesh,Gwalior,"Deen Dayal Nagar, Gwalior - MPPCB",20-02-2024 19:00:00,26.259242,78.216432,PM10,44,146,99
India,Madhya Pradesh,Gwalior,"Deen Dayal Nagar, Gwalior - MPPCB",20-02-2024 19:00:00,26.259242,78.216432,NH3,4,10,6
India,Madhya Pradesh,Gwalior,"Deen Dayal Nagar, Gwalior - MPPCB",20-02-2024 19:00:00,26.259242,78.216432,CO,28,113,50
India,Madhya Pradesh,Gwalior,"Phool Bagh, Gwalior - Mondelez Ind. Food",20-02-2024 19:00:00,26.210536,78.171,SO2,11,13,11
India,Madhya Pradesh,Gwalior,"Phool Bagh, Gwalior - Mondelez Ind. Food",20-02-2024 19:00:00,26.210536,78.171,CO,33,41,34
India,Madhya Pradesh,Indore,"Chhoti Gwaltoli, Indore - MPPCB",20-02-2024 19:00:00,22.4310,75.5213,NH3,3,6,5
India,Madhya Pradesh,Indore,"Regional Park, Indore - IMC",20-02-2024 19:00:00,22.6780,75.8559,CO,17,26,17
India,Madhya Pradesh,Jabalpur,"Govindh Bhavan Colony, Jabalpur - JMC",20-02-2024 19:00:00,23.163174,79.973061,NO2,10,22,14
India,Madhya Pradesh,Jabalpur,"Gupteshwar, Jabalpur - JMC",20-02-2024 19:00:00,23.142888,79.916147,NH3,3,10,7
India,Madhya Pradesh,Jabalpur,"Marhatal, Jabalpur - MPPCB",20-02-2024 19:00:00,23.168606,79.932247,NO2,20,104,44
India,Madhya Pradesh,Jabalpur,"Suhagi, Jabalpur - JMC",20-02-2024 19:00:00,23.218135,79.957770,PM10,16,103,54
India,Madhya Pradesh,Maihar,"Sahilara, Maihar - KJS Cements",20-02-2024 19:00:00,24.2613009,80.7231783,PM2.5,4,54,31
India,Madhya Pradesh,Pithampur,"Sector-2 Industrial Area, Pithampur - MPPCB",20-02-2024 19:00:00,22.624758,75.675238,PM10,63,188,111
India,Madhya Pradesh,Pithampur,"Sector-2 Industrial Area, Pithampur - MPPCB",20-02-2024 19:00:00,22.624758,75.675238,SO2,11,17,14
India,Madhya Pradesh,Pithampur,"Sector-2 Industrial Area, Pithampur - MPPCB",20-02-2024 19:00:00,22.624758,75.675238,OZONE,18,74,59
India,Madhya Pradesh,Sagar,"Civil Lines, Sagar - MPPCB",20-02-2024 19:00:00,23.838586,78.759431,PM2.5,22,131,53
India,Madhya Pradesh,Sagar,"Civil Lines, Sagar - MPPCB",20-02-2024 19:00:00,23.838586,78.759431,CO,21,50,26
India,Madhya Pradesh,Sagar,"Deen Dayal Nagar, Sagar - MPPCB",20-02-2024 19:00:00,23.8640158,78.80289321,PM2.5,8,46,20
India,Madhya Pradesh,Sagar,"Deen Dayal Nagar, Sagar - MPPCB",20-02-2024 19:00:00,23.8640158,78.80289321,NO2,23,24,24
India,Madhya Pradesh,Singrauli,"Suryakiran Bhawan NCL, Singrauli - MPPCB",20-02-2024 19:00:00,24.108970,82.645580,NH3,3,5,4
India,Madhya Pradesh,Ujjain,"Mahakaleshwar Temple, Ujjain - MPPCB",20-02-2024 19:00:00,23.182719 ,75.768218 ,PM10,46,101,75
India,Madhya Pradesh,Ujjain,"Mahakaleshwar Temple, Ujjain - MPPCB",20-02-2024 19:00:00,23.182719 ,75.768218 ,SO2,6,18,11
India,Maharashtra,Ahmednagar,"Tarakpur, Ahmednagar - MPCB",20-02-2024 19:00:00,19.10122,74.73339,PM2.5,57,301,119
India,Maharashtra,Ahmednagar,"Tarakpur, Ahmednagar - MPCB",20-02-2024 19:00:00,19.10122,74.73339,NH3,2,3,3
India,Maharashtra,Ahmednagar,"Tarakpur, Ahmednagar - MPCB",20-02-2024 19:00:00,19.10122,74.73339,OZONE,8,135,100
India,Maharashtra,Amravati,"Shivneri Colony, Amravati - MPCB",20-02-2024 19:00:00,20.9402359,77.7895248,OZONE,4,138,114
India,Maharashtra,Amravati,"Shri Shivaji Science College, Amaravati - MPCB",20-02-2024 19:00:00,20.939198,77.765701,PM10,71,117,98
India,Maharashtra,Aurangabad,"MIDC Chilkalthana, Aurangabad - MPCB",20-02-2024 19:00:00,19.875620,75.387310,PM2.5,41,166,88
India,Maharashtra,Aurangabad,"MIDC Chilkalthana, Aurangabad - MPCB",20-02-2024 19:00:00,19.875620,75.387310,NH3,3,4,4
India,Maharashtra,Aurangabad,"Rachnakar Colony, Aurangabad - MPCB",20-02-2024 19:00:00,19.863756,75.321188,PM10,98,297,154
India,Maharashtra,Badlapur,"Katrap, Badlapur - MPCB",20-02-2024 19:00:00,19.16485,73.23409,OZONE,2,86,55
India,Maharashtra,Belapur,"CBD Belapur, Belapur - MPCB",20-02-2024 19:00:00,19.0243902,73.0406721,OZONE,3,52,29
India,Maharashtra,Bhiwandi,"Gokul Nagar, Bhiwandi - MPCB",20-02-2024 19:00:00,19.309073,73.057223,PM10,51,176,109
India,Maharashtra,Bhiwandi,"Gokul Nagar, Bhiwandi - MPCB",20-02-2024 19:00:00,19.309073,73.057223,NO2,16,57,48
India,Maharashtra,Boisar,"Khaira, Boisar - MPCB",20-02-2024 19:00:00,19.786089,72.757971,NH3,10,27,15
India,Maharashtra,Boisar,"Khaira, Boisar - MPCB",20-02-2024 19:00:00,19.786089,72.757971,CO,6,100,11
India,Maharashtra,Dhule,"Deopur, Dhule - MPCB",20-02-2024 19:00:00,20.918946,74.776388,NH3,2,7,5
India,Maharashtra,Jalna,"Old MIDC, Jalna - MPCB",20-02-2024 19:00:00,19.854616,75.905894,NO2,7,42,31
India,Maharashtra,Jalna,"Old MIDC, Jalna - MPCB",20-02-2024 19:00:00,19.854616,75.905894,CO,22,36,27
India,Maharashtra,Kalyan,"Khadakpada, Kalyan - MPCB",20-02-2024 19:00:00,19.25292,73.142019,PM2.5,18,137,54
India,Maharashtra,Kolhapur,"Shivaji University, Kolhapur - MPCB",20-02-2024 19:00:00,16.6870449,74.2505872,NH3,3,10,6
India,Maharashtra,Kolhapur,"Shivaji University, Kolhapur - MPCB",20-02-2024 19:00:00,16.6870449,74.2505872,CO,20,106,40
India,Maharashtra,Kolhapur,"Sinchan Bhavan, Kolhapur - MPCB",20-02-2024 19:00:00,16.7143745,74.2426398,OZONE,12,152,152
India,Maharashtra,Latur,"Sawe Wadi, Latur - MPCB",20-02-2024 19:00:00,18.39963,76.57452,CO,NA,NA,NA
India,Maharashtra,Mahad,"Kamble Tarf Birwadi, Mahad - MPCB",20-02-2024 19:00:00,18.1023399,73.4783687,OZONE,7,76,62
India,Maharashtra,Malegaon,"Mahesh Nagar, Malegaon - MPCB",20-02-2024 19:00:00,20.555712,74.529236,PM10,96,164,134
India,Maharashtra,Mira-Bhayandar,"Bhayandar West, Mira-Bhayandar - MPCB",20-02-2024 19:00:00,19.296481,72.840923,SO2,2,10,6
India,Maharashtra,Mumbai,"Bandra Kurla Complex, Mumbai - MPCB",20-02-2024 19:00:00,19.065931,72.862131,SO2,1,5,2
India,Maharashtra,Mumbai,"Bandra Kurla Complex, Mumbai - MPCB",20-02-2024 19:00:00,19.065931,72.862131,OZONE,1,23,18
India,Maharashtra,Mumbai,"Byculla, Mumbai - BMC",20-02-2024 19:00:00,18.9767,72.8380,PM2.5,20,56,35
India,Maharashtra,Mumbai,"Byculla, Mumbai - BMC",20-02-2024 19:00:00,18.9767,72.8380,OZONE,1,46,39
India,Maharashtra,Mumbai,"Chakala-Andheri East, Mumbai - IITM",20-02-2024 19:00:00,19.11074,72.86084,CO,50,105,58
India,Maharashtra,Mumbai,"Chhatrapati Shivaji Intl. Airport (T2), Mumbai - MPCB",20-02-2024 19:00:00,19.10078,72.87462,NO2,NA,NA,NA
India,Maharashtra,Mumbai,"Colaba, Mumbai - MPCB",20-02-2024 19:00:00,18.910000,72.820000,NH3,NA,NA,NA
India,Maharashtra,Mumbai,"Ghatkopar, Mumbai - BMC",20-02-2024 19:00:00,19.083694,72.920967,PM2.5,23,85,46
India,Maharashtra,Mumbai,"Ghatkopar, Mumbai - BMC",20-02-2024 19:00:00,19.083694,72.920967,CO,1,25,6
India,Maharashtra,Mumbai,"Kandivali East, Mumbai - MPCB",20-02-2024 19:00:00,19.205800,72.868200,PM10,48,122,76
India,Maharashtra,Mumbai,"Kandivali East, Mumbai - MPCB",20-02-2024 19:00:00,19.205800,72.868200,SO2,66,72,68
India,Maharashtra,Mumbai,"Kherwadi_Bandra East, Mumbai - MPCB",20-02-2024 19:00:00,19.0632143,72.8456324,NO2,8,82,44
India,Maharashtra,Mumbai,"Kherwadi_Bandra East, Mumbai - MPCB",20-02-2024 19:00:00,19.0632143,72.8456324,OZONE,1,79,40
India,Maharashtra,Mumbai,"Khindipada-Bhandup West, Mumbai - IITM",20-02-2024 19:00:00,19.1653323,72.922099,NO2,3,24,9
India,Maharashtra,Mumbai,"Kurla, Mumbai - MPCB",20-02-2024 19:00:00,19.0863,72.8888,PM2.5,25,244,100
India,Maharashtra,Mumbai,"Kurla, Mumbai - MPCB",20-02-2024 19:00:00,19.0863,72.8888,PM10,25,157,82
India,Maharashtra,Mumbai,"Kurla, Mumbai - MPCB",20-02-2024 19:00:00,19.0863,72.8888,NO2,16,41,25
India,Maharashtra,Mumbai,"Mazgaon, Mumbai - IITM",20-02-2024 19:00:00,18.96702,72.84214,CO,13,40,20
India,Maharashtra,Mumbai,"Mindspace-Malad West, Mumbai - MPCB",20-02-2024 19:00:00,19.1878657,72.8304069,PM10,35,56,46
India,Maharashtra,Mumbai,"Mindspace-Malad West, Mumbai - MPCB",20-02-2024 19:00:00,19.1878657,72.8304069,NO2,23,45,30
India,Maharashtra,Mumbai,"Mulund West, Mumbai - MPCB",20-02-2024 19:00:00,19.1750,72.9419,SO2,14,15,14
India,Maharashtra,Mumbai,"Mulund West, Mumbai - MPCB",20-02-2024 19:00:00,19.1750,72.9419,CO,31,32,31
India,Maharashtra,Mumbai,"Powai, Mumbai - MPCB",20-02-2024 19:00:00,19.137500,72.915056,NO2,20,49,28
India,Maharashtra,Mumbai,"Powai, Mumbai - MPCB",20-02-2024 19:00:00,19.137500,72.915056,NH3,1,2,1
India,Maharashtra,Mumbai,"Powai, Mumbai - MPCB",20-02-2024 19:00:00,19.137500,72.915056,SO2,17,19,18
India,Maharashtra,Mumbai,"Sewri, Mumbai - BMC",20-02-2024 19:00:00,19.000084,72.856730,PM10,48,206,79
India,Maharashtra,Mumbai,"Shivaji Nagar, Mumbai - BMC",20-02-2024 19:00:00,19.060498,72.923356,OZONE,1,67,37
India,Maharashtra,Mumbai,"Sion, Mumbai - MPCB",20-02-2024 19:00:00,19.047000,72.874600,NH3,1,1,1
India,Maharashtra,Mumbai,"Sion, Mumbai - MPCB",20-02-2024 19:00:00,19.047000,72.874600,CO,5,45,13
India,Maharashtra,Mumbai,"Vasai West, Mumbai - MPCB",20-02-2024 19:00:00,19.383200,72.820400,PM2.5,5,58,29
India,Maharashtra,Mumbai,"Vile Parle West, Mumbai - MPCB",20-02-2024 19:00:00,19.10861,72.83622,NH3,7,10,9
India,Maharashtra,Mumbai,"Worli, Mumbai - MPCB",20-02-2024 19:00:00,18.9936162,72.8128113,PM2.5,11,37,19
India,Maharashtra,Mumbai,"Worli, Mumbai - MPCB",20-02-2024 19:00:00,18.9936162,72.8128113,NH3,1,1,1
India,Maharashtra,Nagpur,"Ambazari, Nagpur - MPCB",20-02-2024 19:00:00,21.121801,79.04952,PM2.5,44,121,78
India,Maharashtra,Nagpur,"Ambazari, Nagpur - MPCB",20-02-2024 19:00:00,21.121801,79.04952,NH3,1,9,4
India,Maharashtra,Nagpur,"Ambazari, Nagpur - MPCB",20-02-2024 19:00:00,21.121801,79.04952,CO,10,100,26
India,Maharashtra,Nagpur,"Ambazari, Nagpur - MPCB",20-02-2024 19:00:00,21.121801,79.04952,OZONE,9,114,86
India,Maharashtra,Nagpur,"Opp GPO Civil Lines, Nagpur - MPCB",20-02-2024 19:00:00,21.152875,79.0517531,CO,10,121,34
India,Maharashtra,Nagpur,"Ram Nagar, Nagpur - MPCB",20-02-2024 19:00:00,21.143383,79.048912,OZONE,26,110,85
India,Maharashtra,Nanded,"Sneh Nagar, Nanded - MPCB",20-02-2024 19:00:00,19.173852,77.296291,NO2,NA,NA,NA
India,Maharashtra,Nashik,"Gangapur Road, Nashik - MPCB",20-02-2024 19:00:00,20.0073285,73.7762427,PM10,21,265,87
India,Maharashtra,Nashik,"Hirawadi, Nashik - MPCB",20-02-2024 19:00:00,20.021503,73.813844,PM2.5,13,43,27
India,Maharashtra,Nashik,"Hirawadi, Nashik - MPCB",20-02-2024 19:00:00,20.021503,73.813844,CO,6,32,7
India,Maharashtra,Nashik,"MIDC Ambad, Nashik - MPCB",20-02-2024 19:00:00,19.950220,73.731480,PM2.5,22,44,32
India,Maharashtra,Nashik,"MIDC Ambad, Nashik - MPCB",20-02-2024 19:00:00,19.950220,73.731480,PM10,23,48,39
India,Maharashtra,Nashik,"MIDC Ambad, Nashik - MPCB",20-02-2024 19:00:00,19.950220,73.731480,OZONE,11,48,43
India,Maharashtra,Nashik,"Pandav Nagari, Nashik - MPCB",20-02-2024 19:00:00,19.9591346,73.7788008,PM10,25,168,68
India,Maharashtra,Navi Mumbai,"Kopripada-Vashi, Navi Mumbai - MPCB",20-02-2024 19:00:00,19.090337,73.014232,CO,1,102,7
India,Maharashtra,Navi Mumbai,"Mahape, Navi Mumbai - MPCB",20-02-2024 19:00:00,19.1135051,73.008978,PM10,40,441,139
India,Maharashtra,Navi Mumbai,"Mahape, Navi Mumbai - MPCB",20-02-2024 19:00:00,19.1135051,73.008978,SO2,26,27,26
India,Maharashtra,Navi Mumbai,"Nerul, Navi Mumbai - MPCB",20-02-2024 19:00:00,19.008751,73.016620,NO2,17,41,30
India,Maharashtra,Navi Mumbai,"Nerul, Navi Mumbai - MPCB",20-02-2024 19:00:00,19.008751,73.016620,CO,32,78,50
India,Maharashtra,Navi Mumbai,"Nerul, Navi Mumbai - MPCB",20-02-2024 19:00:00,19.008751,73.016620,OZONE,32,51,39
India,Maharashtra,Navi Mumbai,"Tondare-Taloja, Navi Mumbai - MPCB",20-02-2024 19:00:00,19.0630,73.1209,PM2.5,NA,NA,NA
India,Maharashtra,Navi Mumbai,"Tondare-Taloja, Navi Mumbai - MPCB",20-02-2024 19:00:00,19.0630,73.1209,SO2,1,116,29
India,Maharashtra,Parbhani,"Masoom Colony, Parbhani - MPCB",20-02-2024 19:00:00,19.265594,76.761463,SO2,9,83,40
India,Maharashtra,Pimpri-Chinchwad,"Gavalinagar, Pimpri Chinchwad - MPCB",20-02-2024 19:00:00,18.63673,73.82487,PM10,31,166,93
India,Maharashtra,Pimpri-Chinchwad,"Park Street Wakad, Pimpri Chinchwad - MPCB",20-02-2024 19:00:00,18.59051,73.77946,SO2,3,19,9
India,Maharashtra,Pimpri-Chinchwad,"Thergaon, Pimpri Chinchwad - MPCB",20-02-2024 19:00:00,18.616318,73.765797,PM2.5,NA,NA,NA
India,Maharashtra,Pune,"Bhosari, Pune - IITM",20-02-2024 19:00:00,18.640051,73.848956,PM2.5,10,128,57
India,Maharashtra,Pune,"Bhosari, Pune - IITM",20-02-2024 19:00:00,18.640051,73.848956,NO2,6,14,10
India,Maharashtra,Pune,"Bhosari, Pune - IITM",20-02-2024 19:00:00,18.640051,73.848956,OZONE,3,10,8
India,Maharashtra,Pune,"Karve Road, Pune - MPCB",20-02-2024 19:00:00,18.5011743,73.8165527,NO2,2,2,2
India,Maharashtra,Pune,"Karve Road, Pune - MPCB",20-02-2024 19:00:00,18.5011743,73.8165527,OZONE,1,10,5
India,Maharashtra,Pune,"Mhada Colony, Pune - IITM",20-02-2024 19:00:00,18.573040,73.927715,PM10,53,112,84
India,Maharashtra,Pune,"Savitribai Phule Pune University, Pune - MPCB",20-02-2024 19:00:00,18.547056,73.826908,PM2.5,36,83,64
India,Maharashtra,Pune,"Savitribai Phule Pune University, Pune - MPCB",20-02-2024 19:00:00,18.547056,73.826908,SO2,7,16,11
India,Maharashtra,Pune,"Savitribai Phule Pune University, Pune - MPCB",20-02-2024 19:00:00,18.547056,73.826908,OZONE,7,160,107
India,Maharashtra,Sangli,"Vijay Nagar, Sangli - MPCB",20-02-2024 19:00:00, 16.5038,74.3623,CO,18,74,24
India,Maharashtra,Solapur,"Dnyaneshwar Nagar, Solapur - MPCB",20-02-2024 19:00:00,17.6336264,75.9132495,CO,14,78,17
India,Maharashtra,Solapur,"Solapur, Solapur - MPCB",20-02-2024 19:00:00,17.6599188,75.9063906,PM2.5,56,121,102
India,Maharashtra,Solapur,"Solapur, Solapur - MPCB",20-02-2024 19:00:00,17.6599188,75.9063906,NO2,55,55,55
India,Maharashtra,Thane,"Kasarvadavali, Thane - MPCB",20-02-2024 19:00:00,19.26777,72.97182,PM10,83,128,100
India,Maharashtra,Thane,"Kasarvadavali, Thane - MPCB",20-02-2024 19:00:00,19.26777,72.97182,NO2,22,91,55
India,Maharashtra,Thane,"Kasarvadavali, Thane - MPCB",20-02-2024 19:00:00,19.26777,72.97182,NH3,4,11,8
India,Maharashtra,Thane,"Pimpleshwar Mandir, Thane - MPCB",20-02-2024 19:00:00,19.192056,72.9585188,OZONE,2,45,24
India,Maharashtra,Thane,"Upvan Fort, Thane - MPCB",20-02-2024 19:00:00,19.222279,72.957979,PM2.5,25,121,53
India,Maharashtra,Thane,"Upvan Fort, Thane - MPCB",20-02-2024 19:00:00,19.222279,72.957979,CO,4,55,11
India,Maharashtra,Ulhasnagar,"Sidhi Vinayak Nagar, Ulhasnagar - MPCB",20-02-2024 19:00:00,19.235581,73.159121,PM10,57,150,110
India,Maharashtra,Ulhasnagar,"Sidhi Vinayak Nagar, Ulhasnagar - MPCB",20-02-2024 19:00:00,19.235581,73.159121,CO,1,119,8
India,Maharashtra,Virar,"Bolinj, Virar - MPCB",20-02-2024 19:00:00,19.4458210,72.7988231,CO,12,108,15
India,Manipur,Imphal,"DM College of Science, Imphal - Manipur PCB",20-02-2024 19:00:00,24.8207389,93.9423085,PM2.5,17,67,36
India,Manipur,Imphal,"Manipur University, Imphal - Manipur PCB",20-02-2024 19:00:00,24.7524239,93.9286218,NH3,NA,NA,NA
India,Manipur,Imphal,"Manipur University, Imphal - Manipur PCB",20-02-2024 19:00:00,24.7524239,93.9286218,SO2,67,73,70
India,Manipur,Imphal,"Manipur University, Imphal - Manipur PCB",20-02-2024 19:00:00,24.7524239,93.9286218,OZONE,1,55,38
India,Mizoram,Aizawl,"Sikulpuikawn, Aizawl - Mizoram PCB",20-02-2024 19:00:00,23.7176342,92.7192841,NH3,NA,NA,NA
India,Nagaland,Kohima,"PWD Juction, Kohima - NPCB",20-02-2024 19:00:00,25.6635413,94.0989878,CO,13,51,23
India,Nagaland,Kohima,"PWD Juction, Kohima - NPCB",20-02-2024 19:00:00,25.6635413,94.0989878,OZONE,10,30,19
India,Odisha,Angul,"Hakimapada, Angul - OSPCB",20-02-2024 19:00:00,20.832874,85.104082,NO2,8,42,21
India,Odisha,Angul,"Hakimapada, Angul - OSPCB",20-02-2024 19:00:00,20.832874,85.104082,NH3,1,3,2
India,Odisha,Balasore,"Kalidaspur, Balasore - OSPCB",20-02-2024 19:00:00,21.51161,86.89088,PM10,67,154,100
India,Odisha,Balasore,"Kalidaspur, Balasore - OSPCB",20-02-2024 19:00:00,21.51161,86.89088,NO2,5,28,12
India,Odisha,Balasore,"Kalidaspur, Balasore - OSPCB",20-02-2024 19:00:00,21.51161,86.89088,SO2,15,36,21
India,Odisha,Barbil,"Forest Office, Barbil - OSPCB",20-02-2024 19:00:00,22.1166054,85.3945546,OZONE,3,166,132
India,Odisha,Baripada,"Meher Colony, Baripada - OSPCB",20-02-2024 19:00:00,21.941841,86.728318,PM10,71,130,101
India,Odisha,Bhubaneswar,"Lingraj Mandir, Bhubaneswar - OSPCB",20-02-2024 19:00:00,20.240790,85.836784,PM10,57,165,103
India,Odisha,Bhubaneswar,"Patia, Bhubaneswar - OSPCB",20-02-2024 19:00:00,20.34652,85.81630,SO2,2,13,5
India,Odisha,Bhubaneswar,"Patia, Bhubaneswar - OSPCB",20-02-2024 19:00:00,20.34652,85.81630,CO,60,100,73
India,Odisha,Bileipada,"Tata Township, Bileipada - OSPCB",20-02-2024 19:00:00,22.06156703,85.47409613,PM2.5,NA,NA,NA
India,Odisha,Bileipada,"Tata Township, Bileipada - OSPCB",20-02-2024 19:00:00,22.06156703,85.47409613,PM10,NA,NA,NA
India,Odisha,Bileipada,"Tata Township, Bileipada - OSPCB",20-02-2024 19:00:00,22.06156703,85.47409613,OZONE,NA,NA,NA
India,Odisha,Brajrajnagar,"GM Office, Brajrajnagar - OSPCB",20-02-2024 19:00:00,21.8004996,83.8396977,PM10,50,170,106
India,Odisha,Cuttack,"CDA Area, Cuttack - OSPCB",20-02-2024 19:00:00,20.48891     ,85.84768     ,NH3,3,4,3
India,Odisha,Cuttack,"CDA Area, Cuttack - OSPCB",20-02-2024 19:00:00,20.48891     ,85.84768     ,CO,27,61,39
India,Odisha,Nayagarh,"Dabuna, Nayagarh - OSPCB",20-02-2024 19:00:00,21.847279,85.416905,PM2.5,8,259,142
India,Odisha,Nayagarh,"Dabuna, Nayagarh - OSPCB",20-02-2024 19:00:00,21.847279,85.416905,NH3,4,5,4
India,Odisha,Nayagarh,"Dabuna, Nayagarh - OSPCB",20-02-2024 19:00:00,21.847279,85.416905,CO,15,26,19
India,Odisha,Rairangpur,"Divisional Forest Office, Rairangpur - OSPCB",20-02-2024 19:00:00,22.265816,86.174829,NH3,5,5,5
India,Odisha,Rairangpur,"Divisional Forest Office, Rairangpur - OSPCB",20-02-2024 19:00:00,22.265816,86.174829,SO2,5,58,13
India,Odisha,Rourkela,"Fertilizer Township, Rourkela - OSPCB",20-02-2024 19:00:00,22.18972222,84.86277778,CO,12,26,20
India,Odisha,Rourkela,"Raghunathpali, Rourkela - OSPCB",20-02-2024 19:00:00,22.220833,84.809444,OZONE,18,141,96
India,Odisha,Suakati,"OMC Colony, Suakati - OSPCB",20-02-2024 19:00:00,21.606865,85.510538,PM10,98,130,112
India,Odisha,Talcher,"Talcher Coalfields,Talcher - OSPCB",20-02-2024 19:00:00,20.9360711,85.1707021,OZONE,1,21,10
India,Odisha,Tensa,"Barsua Iron Ore Mines, Tensa - OSPCB",20-02-2024 19:00:00,21.869985,85.167016,CO,18,25,19
India,Puducherry,Puducherry,"Jawahar Nagar, Puducherry - PPCC",20-02-2024 19:00:00,11.9309,79.8027,PM2.5,32,314,73
India,Puducherry,Puducherry,"Jawahar Nagar, Puducherry - PPCC",20-02-2024 19:00:00,11.9309,79.8027,NH3,2,3,3
India,Puducherry,Puducherry,"Jawahar Nagar, Puducherry - PPCC",20-02-2024 19:00:00,11.9309,79.8027,CO,18,47,22
India,Punjab,Amritsar,"Golden Temple, Amritsar - PPCB",20-02-2024 19:00:00,31.620000,74.876512,NH3,4,5,5
India,Punjab,Amritsar,"Golden Temple, Amritsar - PPCB",20-02-2024 19:00:00,31.620000,74.876512,SO2,11,33,24
India,Punjab,Jalandhar,"Civil Line, Jalandhar - PPCB",20-02-2024 19:00:00,31.321907,75.578914,PM10,58,140,98
India,Punjab,Jalandhar,"Civil Line, Jalandhar - PPCB",20-02-2024 19:00:00,31.321907,75.578914,NH3,2,5,5
India,Punjab,Jalandhar,"Civil Line, Jalandhar - PPCB",20-02-2024 19:00:00,31.321907,75.578914,SO2,3,6,5
India,Punjab,Khanna,"Kalal Majra, Khanna - PPCB",20-02-2024 19:00:00,30.736056 ,76.209694,PM10,82,140,109
India,Punjab,Khanna,"Kalal Majra, Khanna - PPCB",20-02-2024 19:00:00,30.736056 ,76.209694,NO2,26,65,32
India,Punjab,Mandi Gobindgarh,"RIMT University, Mandi Gobindgarh - PPCB",20-02-2024 19:00:00,30.649961,76.331442,NH3,NA,NA,NA
India,Punjab,Patiala,"Model Town, Patiala - PPCB",20-02-2024 19:00:00,30.349388,76.366642,NO2,20,25,22
India,Rajasthan,Ajmer,"Civil Lines,  Ajmer - RSPCB",20-02-2024 19:00:00,26.470859,74.646594,PM10,70,172,111
India,Rajasthan,Ajmer,"Civil Lines,  Ajmer - RSPCB",20-02-2024 19:00:00,26.470859,74.646594,SO2,13,20,15
India,Rajasthan,Alwar,"Moti Doongri, Alwar - RSPCB",20-02-2024 19:00:00,27.554793,76.611536,PM10,94,157,117
India,Rajasthan,Alwar,"Moti Doongri, Alwar - RSPCB",20-02-2024 19:00:00,27.554793,76.611536,SO2,5,51,29
India,Rajasthan,Alwar,"Moti Doongri, Alwar - RSPCB",20-02-2024 19:00:00,27.554793,76.611536,CO,26,110,40
India,Rajasthan,Alwar,"Moti Doongri, Alwar - RSPCB",20-02-2024 19:00:00,27.554793,76.611536,OZONE,8,26,20
India,Rajasthan,Banswara,"Rati Talai, Banswara - RSPCB",20-02-2024 19:00:00,23.555190,74.440010,PM2.5,23,127,68
India,Rajasthan,Banswara,"Rati Talai, Banswara - RSPCB",20-02-2024 19:00:00,23.555190,74.440010,NO2,12,90,33
India,Rajasthan,Baran,"Bamboliya, Baran - RSPCB",20-02-2024 19:00:00,25.106006,76.469948,CO,18,52,25
India,Rajasthan,Barmer,"Railway Colony, Barmer - RSPCB",20-02-2024 19:00:00,25.747299,71.393989,PM2.5,17,106,46
India,Rajasthan,Bharatpur,"Krishna Nagar, Bharatpur - RSPCB",20-02-2024 19:00:00,27.215415,77.50873,PM10,92,283,158
India,Rajasthan,Bikaner,"MM Ground, Bikaner - RSPCB",20-02-2024 19:00:00,28.018792,73.292658,PM2.5,39,121,70
India,Rajasthan,Bikaner,"MM Ground, Bikaner - RSPCB",20-02-2024 19:00:00,28.018792,73.292658,OZONE,35,84,73
India,Rajasthan,Bundi,"New Colony, Bundi - RSPCB",20-02-2024 19:00:00,25.435774,75.644272,PM10,73,149,112
India,Rajasthan,Churu,"Subash Chowk, Churu - RSPCB",20-02-2024 19:00:00,28.296139,74.961696,OZONE,16,101,91
India,Rajasthan,Dausa,"Khatikan Mohalla, Dausa - RSPCB",20-02-2024 19:00:00,26.895552,76.334753,CO,48,132,115
India,Rajasthan,Dholpur,"Raja Ganj, Dholpur - RSPCB",20-02-2024 19:00:00,26.699557,77.898881,PM2.5,22,154,58
India,Rajasthan,Dholpur,"Raja Ganj, Dholpur - RSPCB",20-02-2024 19:00:00,26.699557,77.898881,NO2,22,50,33
India,Rajasthan,Dholpur,"Raja Ganj, Dholpur - RSPCB",20-02-2024 19:00:00,26.699557,77.898881,NH3,3,5,4
India,Rajasthan,Dholpur,"Raja Ganj, Dholpur - RSPCB",20-02-2024 19:00:00,26.699557,77.898881,OZONE,19,75,70
India,Rajasthan,Dungarpur,"Bhoiwada, Dungarpur - RSPCB",20-02-2024 19:00:00,23.837789,73.714926,NO2,3,5,4
India,Rajasthan,Hanumangarh,"Housing Board, Hanumangarh - RSPCB",20-02-2024 19:00:00,29.610750,74.283608,PM2.5,88,351,219
India,Rajasthan,Hanumangarh,"Housing Board, Hanumangarh - RSPCB",20-02-2024 19:00:00,29.610750,74.283608,PM10,157,405,242
India,Rajasthan,Hanumangarh,"Housing Board, Hanumangarh - RSPCB",20-02-2024 19:00:00,29.610750,74.283608,SO2,1,8,3
India,Rajasthan,Hanumangarh,"Housing Board, Hanumangarh - RSPCB",20-02-2024 19:00:00,29.610750,74.283608,OZONE,5,42,34
India,Rajasthan,Jaipur,"Mansarovar Sector-12, Jaipur - RSPCB",20-02-2024 19:00:00,26.843698,75.766894,CO,46,70,53
India,Rajasthan,Jaipur,"Sector-2 Murlipura, Jaipur - RSPCB",20-02-2024 19:00:00,26.960669,75.771817,OZONE,6,57,45
India,Rajasthan,Jaipur,"Shastri Nagar, Jaipur - RSPCB",20-02-2024 19:00:00,26.9502929,75.730943,PM2.5,22,167,79
India,Rajasthan,Jaipur,"Shastri Nagar, Jaipur - RSPCB",20-02-2024 19:00:00,26.9502929,75.730943,NH3,6,18,9
India,Rajasthan,Jaipur,"Shastri Nagar, Jaipur - RSPCB",20-02-2024 19:00:00,26.9502929,75.730943,SO2,6,41,20
India,Rajasthan,Jalore,"Mudtra Sili, Jalore - RSPCB",20-02-2024 19:00:00,25.344694,72.626208,OZONE,46,77,68
India,Rajasthan,Jhalawar,"Rajlaxmi Nagar, Jhalawar - RSPCB",20-02-2024 19:00:00,24.588397,76.172782,PM2.5,7,81,30
India,Rajasthan,Jhalawar,"Rajlaxmi Nagar, Jhalawar - RSPCB",20-02-2024 19:00:00,24.588397,76.172782,NH3,4,6,5
India,Rajasthan,Jhalawar,"Rajlaxmi Nagar, Jhalawar - RSPCB",20-02-2024 19:00:00,24.588397,76.172782,OZONE,29,80,62
India,Rajasthan,Jodhpur,"Collectorate, Jodhpur - RSPCB",20-02-2024 19:00:00,26.268249,73.0193853,PM2.5,79,322,162
India,Rajasthan,Jodhpur,"Digari Kalan, Jodhpur - RSPCB",20-02-2024 19:00:00,26.295810,73.082283,PM2.5,21,83,40
India,Rajasthan,Jodhpur,"Digari Kalan, Jodhpur - RSPCB",20-02-2024 19:00:00,26.295810,73.082283,NH3,6,9,7
India,Rajasthan,Jodhpur,"Digari Kalan, Jodhpur - RSPCB",20-02-2024 19:00:00,26.295810,73.082283,SO2,2,5,3
India,Rajasthan,Jodhpur,"Jhalamand, Jodhpur - RSPCB",20-02-2024 19:00:00,26.215415,73.070156,NO2,11,21,13
India,Rajasthan,Jodhpur,"Jhalamand, Jodhpur - RSPCB",20-02-2024 19:00:00,26.215415,73.070156,CO,8,24,15
India,Rajasthan,Jodhpur,"Jhalamand, Jodhpur - RSPCB",20-02-2024 19:00:00,26.215415,73.070156,OZONE,34,82,70
India,Rajasthan,Jodhpur,"Mandor, Jodhpur - RSPCB",20-02-2024 19:00:00,26.358805,73.047444,PM2.5,15,76,34
India,Rajasthan,Jodhpur,"Samrat Ashok Udhyan, Jodhpur - RSPCB",20-02-2024 19:00:00,26.253384,72.976571,PM10,61,296,121
India,Rajasthan,Jodhpur,"Samrat Ashok Udhyan, Jodhpur - RSPCB",20-02-2024 19:00:00,26.253384,72.976571,CO,20,30,24
India,Rajasthan,Karauli,"Satyawati Vihar, Karauli - RSPCB",20-02-2024 19:00:00,26.506177,77.025989,OZONE,22,44,37
India,Rajasthan,Kota,"Dhanmandi, Kota - RSPCB",20-02-2024 19:00:00,25.164090,75.858137,PM2.5,NA,NA,NA
India,Rajasthan,Kota,"Nayapura, Kota - RSPCB",20-02-2024 19:00:00,25.196024,75.855668,OZONE,40,89,77
India,Rajasthan,Nagaur,"Karni Colony, Nagaur - RSPCB",20-02-2024 19:00:00,27.213494,73.734444,NH3,8,22,11
India,Rajasthan,Nagaur,"Karni Colony, Nagaur - RSPCB",20-02-2024 19:00:00,27.213494,73.734444,SO2,2,6,4
India,Rajasthan,Pali,"Indira Colony Vistar, Pali - RSPCB",20-02-2024 19:00:00,25.771061, 73.340227,SO2,18,20,19
India,Rajasthan,Pratapgarh,"Pragati Nagar, Pratapgarh - RSPCB",20-02-2024 19:00:00,24.041198,74.780702,NO2,5,57,27
India,Rajasthan,Pratapgarh,"Pragati Nagar, Pratapgarh - RSPCB",20-02-2024 19:00:00,24.041198,74.780702,OZONE,37,96,75
India,Rajasthan,Rajsamand,"Dhoinda, Rajsamand - RSPCB",20-02-2024 19:00:00,25.036360,73.883502,NO2,6,13,9
India,Rajasthan,Rajsamand,"Dhoinda, Rajsamand - RSPCB",20-02-2024 19:00:00,25.036360,73.883502,NH3,1,2,2
India,Rajasthan,Rajsamand,"Dhoinda, Rajsamand - RSPCB",20-02-2024 19:00:00,25.036360,73.883502,CO,36,81,52
India,Rajasthan,Rajsamand,"Dhoinda, Rajsamand - RSPCB",20-02-2024 19:00:00,25.036360,73.883502,OZONE,12,28,27
India,Rajasthan,Sawai Madhopur,"Sahu Nagar, Sawai Madhopur - RSPCB",20-02-2024 19:00:00,26.031443,76.359327,NO2,13,49,23
India,Rajasthan,Sikar,"Radhakishan Pura, Sikar - RSPCB",20-02-2024 19:00:00,27.608912,75.153302,SO2,5,9,6
India,Rajasthan,Sikar,"Radhakishan Pura, Sikar - RSPCB",20-02-2024 19:00:00,27.608912,75.153302,CO,9,55,21
India,Rajasthan,Sirohi,"Vedhaynath Colony, Sirohi - RSPCB",20-02-2024 19:00:00,24.885261,72.857549,PM2.5,13,48,31
India,Rajasthan,Sri Ganganagar,"Old City, Sri Ganganagar - RSPCB",20-02-2024 19:00:00,29.931624,73.864511,OZONE,2,64,37
India,Rajasthan,Tonk,"Shastri Nagar, Tonk - RSPCB",20-02-2024 19:00:00,26.159933,75.780517,NO2,15,44,25
India,Rajasthan,Udaipur,"Ashok Nagar, Udaipur - RSPCB",20-02-2024 19:00:00,24.5886166,73.6321397,PM10,66,134,91
India,Rajasthan,Udaipur,"Ashok Nagar, Udaipur - RSPCB",20-02-2024 19:00:00,24.5886166,73.6321397,CO,24,73,51
India,TamilNadu,Chengalpattu,"Crescent University, Chengalpattu - TNPCB",20-02-2024 19:00:00,12.8777316,80.0834807,PM2.5,NA,NA,NA
India,TamilNadu,Chennai,"Alandur Bus Depot, Chennai - CPCB",20-02-2024 19:00:00,12.9099161,80.1076538,NO2,12,34,21
India,TamilNadu,Chennai,"Arumbakkam, Chennai - TNPCB",20-02-2024 19:00:00,13.0664,80.2112 ,NH3,1,5,4
India,TamilNadu,Chennai,"Gandhi Nagar_Ennore, Chennai - TNPCB",20-02-2024 19:00:00,13.218341,80.32027,NH3,NA,NA,NA
India,TamilNadu,Chennai,"Kodungaiyur, Chennai - TNPCB",20-02-2024 19:00:00,13.1278,80.2642,PM10,47,140,84
India,TamilNadu,Chennai,"Kodungaiyur, Chennai - TNPCB",20-02-2024 19:00:00,13.1278,80.2642,OZONE,5,6,6
India,TamilNadu,Chennai,"Manali, Chennai - CPCB",20-02-2024 19:00:00,13.164544,80.26285,PM10,6,190,72
India,TamilNadu,Chennai,"Manali, Chennai - CPCB",20-02-2024 19:00:00,13.164544,80.26285,NO2,8,16,12
India,TamilNadu,Chennai,"Manali, Chennai - CPCB",20-02-2024 19:00:00,13.164544,80.26285,CO,34,102,78
India,TamilNadu,Chennai,"Perungudi, Chennai - TNPCB",20-02-2024 19:00:00,12.9533,80.2357,SO2,1,5,2
India,TamilNadu,Chennai,"Royapuram, Chennai - TNPCB",20-02-2024 19:00:00,13.1036,80.2909,NO2,NA,NA,NA
India,TamilNadu,Chennai,"Velachery Res. Area, Chennai - CPCB",20-02-2024 19:00:00,13.0052189,80.2398125,CO,2,80,58
India,TamilNadu,Coimbatore,"PSG College of Arts and Science, Coimbatore - TNPCB",20-02-2024 19:00:00,11.0328,77.0349,PM2.5,48,82,64
India,TamilNadu,Coimbatore,"PSG College of Arts and Science, Coimbatore - TNPCB",20-02-2024 19:00:00,11.0328,77.0349,OZONE,3,5,4
India,TamilNadu,Cuddalore,"Kudikadu, Cuddalore - TNPCB",20-02-2024 19:00:00,11.6829898,79.7532099,NO2,18,25,22
India,TamilNadu,Cuddalore,"Semmandalam, Cuddalore - TNPCB",20-02-2024 19:00:00,11.7637683,79.7499835,NO2,6,36,19
India,TamilNadu,Gummidipoondi,"Anthoni Pillai Nagar, Gummidipoondi - TNPCB",20-02-2024 19:00:00,13.4127,80.1081,NO2,8,15,12
India,TamilNadu,Kanchipuram,"Kilambi, Kanchipuram - TNPCB",20-02-2024 19:00:00,12.864618,79.659968,PM2.5,NA,NA,NA
India,TamilNadu,Palkalaiperur,"Bharathidasan University, Palkalaiperur - TNPCB",20-02-2024 19:00:00,10.681158,78.741746,CO,1,8,4
India,TamilNadu,Ramanathapuram,"Chalai Bazaar, Ramanathapuram - TNPCB",20-02-2024 19:00:00,9.36399,78.831977,CO,2,16,10
India,TamilNadu,Salem,"Sona College of Technology, Salem - TNPCB",20-02-2024 19:00:00,11.679111,78.125052,SO2,NA,NA,NA
India,TamilNadu,Thoothukudi,"Meelavittan, Thoothukudi - TNPCB",20-02-2024 19:00:00,8.816428 ,78.099039,PM10,42,102,57
India,TamilNadu,Thoothukudi,"Meelavittan, Thoothukudi - TNPCB",20-02-2024 19:00:00,8.816428 ,78.099039,CO,4,51,18
India,TamilNadu,Tirupur,"Kumaran College, Tirupur - TNPCB",20-02-2024 19:00:00,11.0973603,77.3228673,NO2,5,48,16
India,TamilNadu,Tirupur,"Kumaran College, Tirupur - TNPCB",20-02-2024 19:00:00,11.0973603,77.3228673,NH3,NA,NA,NA
India,TamilNadu,Vellore,"Vasanthapuram, Vellore - TNPCB",20-02-2024 19:00:00,12.909494,79.131861,PM2.5,NA,NA,NA
India,Telangana,Hyderabad,"Bollaram Industrial Area, Hyderabad - TSPCB",20-02-2024 19:00:00,17.540891,78.358528,NH3,2,4,3
India,Telangana,Hyderabad,"Central University, Hyderabad - TSPCB",20-02-2024 19:00:00,17.460103,78.334361,NO2,17,58,30
India,Telangana,Hyderabad,"ECIL Kapra, Hyderabad - TSPCB",20-02-2024 19:00:00,17.470431,78.566959,PM2.5,49,63,54
India,Telangana,Hyderabad,"ECIL Kapra, Hyderabad - TSPCB",20-02-2024 19:00:00,17.470431,78.566959,OZONE,3,58,47
India,Telangana,Hyderabad,"ICRISAT Patancheru, Hyderabad - TSPCB",20-02-2024 19:00:00,17.518400,78.278777,NO2,15,18,17
India,Telangana,Hyderabad,"ICRISAT Patancheru, Hyderabad - TSPCB",20-02-2024 19:00:00,17.518400,78.278777,NH3,2,2,2
India,Telangana,Hyderabad,"ICRISAT Patancheru, Hyderabad - TSPCB",20-02-2024 19:00:00,17.518400,78.278777,SO2,9,40,24
India,Telangana,Hyderabad,"Kompally Municipal Office, Hyderabad - TSPCB",20-02-2024 19:00:00,17.544899,78.486949,NO2,9,12,11
India,Telangana,Hyderabad,"Nacharam_TSIIC IALA, Hyderabad - TSPCB",20-02-2024 19:00:00,17.429398,78.569354,CO,16,23,18
India,Telangana,Hyderabad,"New Malakpet, Hyderabad - TSPCB",20-02-2024 19:00:00,17.37206,78.50864,PM2.5,18,64,35
India,Telangana,Hyderabad,"New Malakpet, Hyderabad - TSPCB",20-02-2024 19:00:00,17.37206,78.50864,PM10,58,85,68
India,Telangana,Hyderabad,"New Malakpet, Hyderabad - TSPCB",20-02-2024 19:00:00,17.37206,78.50864,NH3,2,3,2
India,Telangana,Hyderabad,"Sanathnagar, Hyderabad - TSPCB",20-02-2024 19:00:00,17.4559458,78.4332152,NO2,24,290,41
India,Telangana,Hyderabad,"Somajiguda, Hyderabad - TSPCB",20-02-2024 19:00:00,17.417094,78.457437,PM10,NA,NA,NA
India,Telangana,Hyderabad,"Zoo Park, Hyderabad - TSPCB",20-02-2024 19:00:00,17.349694,78.451437,PM10,34,156,104
India,Telangana,Hyderabad,"Zoo Park, Hyderabad - TSPCB",20-02-2024 19:00:00,17.349694,78.451437,OZONE,16,37,34
India,Tripura,Agartala,"Bardowali, Agartala - Tripura SPCB",20-02-2024 19:00:00,23.8175497,91.2726974,PM2.5,178,348,273
India,Tripura,Agartala,"Bardowali, Agartala - Tripura SPCB",20-02-2024 19:00:00,23.8175497,91.2726974,SO2,26,28,27
India,Uttar_Pradesh,Agra,"Manoharpur, Agra - UPPCB",20-02-2024 19:00:00,27.23711,78.01936,PM10,21,76,47
India,Uttar_Pradesh,Agra,"Sanjay Palace, Agra - UPPCB",20-02-2024 19:00:00,27.19865833,78.00598056,SO2,4,8,7
India,Uttar_Pradesh,Agra,"Sanjay Palace, Agra - UPPCB",20-02-2024 19:00:00,27.19865833,78.00598056,CO,10,60,28
India,Uttar_Pradesh,Agra,"Shahjahan Garden, Agra - UPPCB",20-02-2024 19:00:00,27.169338,78.03582,CO,1,8,2
India,Uttar_Pradesh,Agra,"Shahjahan Garden, Agra - UPPCB",20-02-2024 19:00:00,27.169338,78.03582,OZONE,11,13,11
India,Uttar_Pradesh,Agra,"Shastripuram, Agra - UPPCB",20-02-2024 19:00:00,27.19862,77.92066,CO,8,14,9
India,Uttar_Pradesh,Baghpat,"Sardar Patel Inter College, Baghpat - UPPCB",20-02-2024 19:00:00,28.964949,77.278761,NO2,30,49,37
India,Uttar_Pradesh,Bareilly,"Rajendra Nagar, Bareilly - UPPCB",20-02-2024 19:00:00,28.38910936,79.42963708,PM10,47,88,70
India,Uttar_Pradesh,Bareilly,"Rajendra Nagar, Bareilly - UPPCB",20-02-2024 19:00:00,28.38910936,79.42963708,NO2,31,52,39
India,Uttar_Pradesh,Bareilly,"Rajendra Nagar, Bareilly - UPPCB",20-02-2024 19:00:00,28.38910936,79.42963708,NH3,1,1,1
India,Uttar_Pradesh,Bulandshahr,"Yamunapuram, Bulandshahr - UPPCB",20-02-2024 19:00:00,28.406963,77.849831,PM2.5,158,242,196
India,Uttar_Pradesh,Bulandshahr,"Yamunapuram, Bulandshahr - UPPCB",20-02-2024 19:00:00,28.406963,77.849831,PM10,107,167,133
India,Uttar_Pradesh,Bulandshahr,"Yamunapuram, Bulandshahr - UPPCB",20-02-2024 19:00:00,28.406963,77.849831,NO2,5,18,11
India,Uttar_Pradesh,Bulandshahr,"Yamunapuram, Bulandshahr - UPPCB",20-02-2024 19:00:00,28.406963,77.849831,NH3,9,12,11
India,Uttar_Pradesh,Bulandshahr,"Yamunapuram, Bulandshahr - UPPCB",20-02-2024 19:00:00,28.406963,77.849831,CO,NA,NA,NA
India,Uttar_Pradesh,Bulandshahr,"Yamunapuram, Bulandshahr - UPPCB",20-02-2024 19:00:00,28.406963,77.849831,OZONE,1,65,34
India,Uttar_Pradesh,Firozabad,"Vibhab Nagar, Firozabad - UPPCB",20-02-2024 19:00:00,27.1594,78.3953,NH3,2,2,2
India,Uttar_Pradesh,Ghaziabad,"Indirapuram, Ghaziabad - UPPCB",20-02-2024 19:00:00,28.646233,77.358075,PM2.5,82,231,122
India,Uttar_Pradesh,Ghaziabad,"Loni, Ghaziabad - UPPCB",20-02-2024 19:00:00,28.757294,77.278792,PM2.5,111,269,198
India,Uttar_Pradesh,Ghaziabad,"Loni, Ghaziabad - UPPCB",20-02-2024 19:00:00,28.757294,77.278792,SO2,10,30,17
India,Uttar_Pradesh,Ghaziabad,"Loni, Ghaziabad - UPPCB",20-02-2024 19:00:00,28.757294,77.278792,OZONE,9,92,66
India,Uttar_Pradesh,Ghaziabad,"Sanjay Nagar, Ghaziabad - UPPCB",20-02-2024 19:00:00,28.685382,77.453839,SO2,19,46,30
India,Uttar_Pradesh,Ghaziabad,"Vasundhara, Ghaziabad - UPPCB",20-02-2024 19:00:00,28.6603346,77.3572563,PM10,82,132,108
India,Uttar_Pradesh,Greater Noida,"Knowledge Park - III, Greater Noida - UPPCB",20-02-2024 19:00:00,28.47272,77.482000,NO2,2,10,4
India,Uttar_Pradesh,Greater Noida,"Knowledge Park - III, Greater Noida - UPPCB",20-02-2024 19:00:00,28.47272,77.482000,NH3,1,1,1
India,Uttar_Pradesh,Greater Noida,"Knowledge Park - V, Greater Noida - UPPCB",20-02-2024 19:00:00,28.557054,77.453663,NO2,10,28,17
India,Uttar_Pradesh,Greater Noida,"Knowledge Park - V, Greater Noida - UPPCB",20-02-2024 19:00:00,28.557054,77.453663,CO,16,127,84
India,Uttar_Pradesh,Greater Noida,"Knowledge Park - V, Greater Noida - UPPCB",20-02-2024 19:00:00,28.557054,77.453663,OZONE,9,118,70
India,Uttar_Pradesh,Hapur,"Anand Vihar, Hapur - UPPCB",20-02-2024 19:00:00,28.725645,77.749675,PM2.5,119,242,177
India,Uttar_Pradesh,Jhansi,"Shivaji Nagar, Jhansi - UPPCB",20-02-2024 19:00:00,25.4547,78.6039,PM10,17,79,33
India,Uttar_Pradesh,Jhansi,"Shivaji Nagar, Jhansi - UPPCB",20-02-2024 19:00:00,25.4547,78.6039,NO2,12,42,23
India,Uttar_Pradesh,Jhansi,"Shivaji Nagar, Jhansi - UPPCB",20-02-2024 19:00:00,25.4547,78.6039,SO2,10,13,11
India,Uttar_Pradesh,Jhansi,"Shivaji Nagar, Jhansi - UPPCB",20-02-2024 19:00:00,25.4547,78.6039,CO,14,36,16
India,Uttar_Pradesh,Kanpur,"FTI Kidwai Nagar, Kanpur - UPPCB",20-02-2024 19:00:00,26.428282,80.327067,PM2.5,40,85,62
India,Uttar_Pradesh,Kanpur,"FTI Kidwai Nagar, Kanpur - UPPCB",20-02-2024 19:00:00,26.428282,80.327067,NO2,19,19,19
India,Uttar_Pradesh,Kanpur,"FTI Kidwai Nagar, Kanpur - UPPCB",20-02-2024 19:00:00,26.428282,80.327067,SO2,22,23,23
India,Uttar_Pradesh,Kanpur,"NSI Kalyanpur, Kanpur - UPPCB",20-02-2024 19:00:00,26.509954,80.249612,NO2,12,13,13
India,Uttar_Pradesh,Khurja,"Kalindi Kunj, Khurja - UPPCB",20-02-2024 19:00:00,28.2348927,77.8683002,NO2,16,21,18
India,Uttar_Pradesh,Khurja,"Kalindi Kunj, Khurja - UPPCB",20-02-2024 19:00:00,28.2348927,77.8683002,CO,10,25,20
India,Uttar_Pradesh,Khurja,"Kalindi Kunj, Khurja - UPPCB",20-02-2024 19:00:00,28.2348927,77.8683002,OZONE,18,31,21
India,Uttar_Pradesh,Lucknow,"B R Ambedkar University, Lucknow - UPPCB",20-02-2024 19:00:00,26.766433,80.927299,NH3,6,8,7
India,Uttar_Pradesh,Lucknow,"B R Ambedkar University, Lucknow - UPPCB",20-02-2024 19:00:00,26.766433,80.927299,SO2,27,31,28
India,Uttar_Pradesh,Lucknow,"Gomti Nagar, Lucknow - UPPCB",20-02-2024 19:00:00,26.868120,81.005119,PM10,61,90,73
India,Uttar_Pradesh,Lucknow,"Gomti Nagar, Lucknow - UPPCB",20-02-2024 19:00:00,26.868120,81.005119,SO2,1,21,11
India,Uttar_Pradesh,Lucknow,"Gomti Nagar, Lucknow - UPPCB",20-02-2024 19:00:00,26.868120,81.005119,CO,32,40,39
India,Uttar_Pradesh,Lucknow,"Kendriya Vidyalaya, Lucknow - CPCB",20-02-2024 19:00:00,26.906111,80.948222,PM10,132,151,140
India,Uttar_Pradesh,Lucknow,"Kendriya Vidyalaya, Lucknow - CPCB",20-02-2024 19:00:00,26.906111,80.948222,NH3,3,20,14
India,Uttar_Pradesh,Lucknow,"Kendriya Vidyalaya, Lucknow - CPCB",20-02-2024 19:00:00,26.906111,80.948222,OZONE,9,66,21
India,Uttar_Pradesh,Lucknow,"Kukrail Picnic Spot-1, Lucknow - UPPCB",20-02-2024 19:00:00,26.90723,80.98579,NH3,2,2,2
India,Uttar_Pradesh,Lucknow,"Lalbagh, Lucknow - CPCB",20-02-2024 19:00:00,26.8458805,80.9365541,NH3,10,13,11
India,Uttar_Pradesh,Meerut,"Ganga Nagar, Meerut - UPPCB",20-02-2024 19:00:00,28.999264,77.7590354,PM2.5,68,214,114
India,Uttar_Pradesh,Meerut,"Ganga Nagar, Meerut - UPPCB",20-02-2024 19:00:00,28.999264,77.7590354,PM10,75,155,104
India,Uttar_Pradesh,Meerut,"Ganga Nagar, Meerut - UPPCB",20-02-2024 19:00:00,28.999264,77.7590354,SO2,13,27,19
India,Uttar_Pradesh,Meerut,"Ganga Nagar, Meerut - UPPCB",20-02-2024 19:00:00,28.999264,77.7590354,CO,46,90,53
India,Uttar_Pradesh,Meerut,"Jai Bhim Nagar, Meerut - UPPCB",20-02-2024 19:00:00,28.9535882,77.7622941,NO2,8,46,15
India,Uttar_Pradesh,Meerut,"Pallavpuram Phase 2, Meerut - UPPCB",20-02-2024 19:00:00,29.063510,77.709723,CO,30,86,45
India,Uttar_Pradesh,Moradabad,"Buddhi Vihar, Moradabad - UPPCB",20-02-2024 19:00:00,28.83526,78.74460,SO2,NA,NA,NA
India,Uttar_Pradesh,Moradabad,"Eco Herbal Park, Moradabad - UPPCB",20-02-2024 19:00:00,28.840739,78.697531,CO,17,52,39
India,Uttar_Pradesh,Moradabad,"Employment Office, Moradabad - UPPCB",20-02-2024 19:00:00,28.88528,78.73880,PM10,69,157,106
India,Uttar_Pradesh,Moradabad,"Employment Office, Moradabad - UPPCB",20-02-2024 19:00:00,28.88528,78.73880,SO2,25,27,26
India,Uttar_Pradesh,Moradabad,"Jigar Colony, Moradabad - UPPCB",20-02-2024 19:00:00,28.856664,78.772638,PM10,59,128,95
India,Uttar_Pradesh,Moradabad,"Jigar Colony, Moradabad - UPPCB",20-02-2024 19:00:00,28.856664,78.772638,NH3,5,5,5
India,Uttar_Pradesh,Moradabad,"Kashiram Nagar, Moradabad - UPPCB",20-02-2024 19:00:00,28.849399,78.742362,SO2,30,37,33
India,Uttar_Pradesh,Moradabad,"Transport Nagar, Moradabad - UPPCB",20-02-2024 19:00:00,28.802625,78.753728,CO,40,42,41
India,Uttar_Pradesh,Noida,"Sector - 125, Noida - UPPCB",20-02-2024 19:00:00,28.5447608,77.3231257,PM10,96,156,118
India,Uttar_Pradesh,Noida,"Sector - 125, Noida - UPPCB",20-02-2024 19:00:00,28.5447608,77.3231257,SO2,2,22,10
India,Uttar_Pradesh,Noida,"Sector - 62, Noida - IMD",20-02-2024 19:00:00,28.6245479,77.3577104,PM2.5,150,285,212
India,Uttar_Pradesh,Noida,"Sector-1, Noida - UPPCB",20-02-2024 19:00:00,28.5898,77.3101,PM2.5,169,336,279
India,Uttar_Pradesh,Noida,"Sector-116, Noida - UPPCB",20-02-2024 19:00:00,28.569230,77.393848,NO2,18,83,30
India,Uttar_Pradesh,Noida,"Sector-116, Noida - UPPCB",20-02-2024 19:00:00,28.569230,77.393848,NH3,10,16,12
India,Uttar_Pradesh,Noida,"Sector-116, Noida - UPPCB",20-02-2024 19:00:00,28.569230,77.393848,CO,16,106,53
India,Uttar_Pradesh,Prayagraj,"Jhunsi, Prayagraj - UPPCB",20-02-2024 19:00:00,25.425602,81.917152,PM2.5,10,98,53
India,Uttar_Pradesh,Prayagraj,"Motilal Nehru NIT, Prayagraj - UPPCB",20-02-2024 19:00:00,25.494,81.863,NO2,11,13,12
India,Uttar_Pradesh,Prayagraj,"Motilal Nehru NIT, Prayagraj - UPPCB",20-02-2024 19:00:00,25.494,81.863,NH3,6,7,7
India,Uttar_Pradesh,Prayagraj,"Motilal Nehru NIT, Prayagraj - UPPCB",20-02-2024 19:00:00,25.494,81.863,CO,10,36,19
India,Uttar_Pradesh,Prayagraj,"Nagar Nigam, Prayagraj - UPPCB",20-02-2024 19:00:00,25.44919916 ,81.82735986 ,PM10,87,197,116
India,Uttar_Pradesh,Prayagraj,"Nagar Nigam, Prayagraj - UPPCB",20-02-2024 19:00:00,25.44919916 ,81.82735986 ,NO2,5,5,5
India,Uttar_Pradesh,Prayagraj,"Nagar Nigam, Prayagraj - UPPCB",20-02-2024 19:00:00,25.44919916 ,81.82735986 ,NH3,6,12,9
India,Uttar_Pradesh,Varanasi,"Ardhali Bazar, Varanasi - UPPCB",20-02-2024 19:00:00,25.3505986,82.9083074,PM2.5,13,45,30
India,Uttar_Pradesh,Varanasi,"Ardhali Bazar, Varanasi - UPPCB",20-02-2024 19:00:00,25.3505986,82.9083074,PM10,14,48,32
India,Uttar_Pradesh,Varanasi,"Bhelupur, Varanasi - UPPCB",20-02-2024 19:00:00,25.301778,82.996789,NO2,7,8,8
India,Uttar_Pradesh,Varanasi,"IESD Banaras Hindu University, Varanasi - UPPCB",20-02-2024 19:00:00,25.262326,82.995408,NH3,1,2,2
India,Uttar_Pradesh,Varanasi,"Maldahiya, Varanasi - UPPCB",20-02-2024 19:00:00,25.32393,82.99687,NH3,1,1,1
India,Uttar_Pradesh,Vrindavan,"Omex Eternity, Vrindavan - UPPCB",20-02-2024 19:00:00,27.5714090,77.6557570,PM10,67,274,126
India,Uttar_Pradesh,Vrindavan,"Omex Eternity, Vrindavan - UPPCB",20-02-2024 19:00:00,27.5714090,77.6557570,NH3,3,4,3
India,Uttar_Pradesh,Vrindavan,"Omex Eternity, Vrindavan - UPPCB",20-02-2024 19:00:00,27.5714090,77.6557570,OZONE,31,36,32
India,Uttarakhand,Dehradun,"Doon University, Dehradun - UKPCB",20-02-2024 19:00:00,30.269444,78.044167,OZONE,1,3,2
India,West_Bengal,Asansol,"Asansol Court Area, Asansol - WBPCB",20-02-2024 19:00:00,23.685297,86.945968,PM2.5,178,347,271
India,West_Bengal,Asansol,"Asansol Court Area, Asansol - WBPCB",20-02-2024 19:00:00,23.685297,86.945968,SO2,8,21,15
India,West_Bengal,Asansol,"Asansol Court Area, Asansol - WBPCB",20-02-2024 19:00:00,23.685297,86.945968,CO,8,114,41
India,West_Bengal,Barrackpore,"SVSPA Campus, Barrackpore - WBPCB",20-02-2024 19:00:00,22.7605581,88.3617589,NO2,NA,NA,NA
India,West_Bengal,Barrackpore,"SVSPA Campus, Barrackpore - WBPCB",20-02-2024 19:00:00,22.7605581,88.3617589,OZONE,NA,NA,NA
India,West_Bengal,Haldia,"Priyambada Housing Estate, Haldia - WBPCB",20-02-2024 19:00:00,22.06047,88.109737,PM10,54,110,80
India,West_Bengal,Howrah,"Belur Math, Howrah - WBPCB",20-02-2024 19:00:00,22.629801,88.352017,PM2.5,67,155,89
India,West_Bengal,Howrah,"Ghusuri, Howrah - WBPCB",20-02-2024 19:00:00,22.611968,88.347422,PM2.5,82,164,111
India,West_Bengal,Howrah,"Ghusuri, Howrah - WBPCB",20-02-2024 19:00:00,22.611968,88.347422,PM10,100,144,117
India,West_Bengal,Howrah,"Ghusuri, Howrah - WBPCB",20-02-2024 19:00:00,22.611968,88.347422,NH3,7,13,9
India,West_Bengal,Howrah,"Padmapukur, Howrah - WBPCB",20-02-2024 19:00:00,22.5687319,88.2797276,NH3,2,3,2
India,West_Bengal,Kolkata,"Ballygunge, Kolkata - WBPCB",20-02-2024 19:00:00,22.5367507,88.3638022,PM2.5,56,88,73
India,West_Bengal,Kolkata,"Ballygunge, Kolkata - WBPCB",20-02-2024 19:00:00,22.5367507,88.3638022,SO2,3,81,18
India,West_Bengal,Kolkata,"Ballygunge, Kolkata - WBPCB",20-02-2024 19:00:00,22.5367507,88.3638022,CO,1,28,14
India,West_Bengal,Kolkata,"Bidhannagar, Kolkata - WBPCB",20-02-2024 19:00:00,22.58157048,88.41002457,NH3,10,11,10
India,West_Bengal,Kolkata,"Bidhannagar, Kolkata - WBPCB",20-02-2024 19:00:00,22.58157048,88.41002457,CO,22,32,25
India,West_Bengal,Kolkata,"Fort William, Kolkata - WBPCB",20-02-2024 19:00:00,22.556640,88.342674,OZONE,12,85,65
India,West_Bengal,Kolkata,"Rabindra Bharati University, Kolkata - WBPCB",20-02-2024 19:00:00,22.627847,88.380669,PM2.5,57,163,89
India,West_Bengal,Kolkata,"Rabindra Bharati University, Kolkata - WBPCB",20-02-2024 19:00:00,22.627847,88.380669,NH3,7,8,7
India,West_Bengal,Kolkata,"Rabindra Sarobar, Kolkata - WBPCB",20-02-2024 19:00:00,22.51106,88.35142,PM10,57,85,72
India,West_Bengal,Kolkata,"Victoria, Kolkata - WBPCB",20-02-2024 19:00:00,22.5448082,88.3403691,PM10,81,112,98
India,West_Bengal,Kolkata,"Victoria, Kolkata - WBPCB",20-02-2024 19:00:00,22.5448082,88.3403691,NO2,3,11,6
India,West_Bengal,Kolkata,"Victoria, Kolkata - WBPCB",20-02-2024 19:00:00,22.5448082,88.3403691,CO,22,44,25
India,West_Bengal,Siliguri,"Ward-32 Bapupara, Siliguri - WBPCB",20-02-2024 19:00:00,26.6879226,88.4152495,CO,22,98,36
India,Andhra_Pradesh,Amaravati,"Secretariat, Amaravati - APPCB",20-02-2024 19:00:00,16.5150833,80.5181667,NH3,3,4,4
India,Andhra_Pradesh,Amaravati,"Secretariat, Amaravati - APPCB",20-02-2024 19:00:00,16.5150833,80.5181667,CO,8,46,25
India,Andhra_Pradesh,Kadapa,"Yerramukkapalli, Kadapa - APPCB",20-02-2024 19:00:00,14.465052,78.824187,NO2,8,8,8
India,Andhra_Pradesh,Rajamahendravaram,"Anand Kala Kshetram, Rajamahendravaram - APPCB",20-02-2024 19:00:00,16.9872867,81.7363176,PM10,45,120,78
India,Andhra_Pradesh,Rajamahendravaram,"Anand Kala Kshetram, Rajamahendravaram - APPCB",20-02-2024 19:00:00,16.9872867,81.7363176,NH3,3,6,5
India,Andhra_Pradesh,Tirupati,"Tirumala, Tirupati - APPCB",20-02-2024 19:00:00,13.67,79.35,NH3,1,2,1
India,Andhra_Pradesh,Tirupati,"Tirumala, Tirupati - APPCB",20-02-2024 19:00:00,13.67,79.35,CO,30,60,41
India,Andhra_Pradesh,Tirupati,"Vaikuntapuram, Tirupati - APPCB",20-02-2024 19:00:00,13.615387,79.409230,NH3,NA,NA,NA
India,Andhra_Pradesh,Vijayawada,"HB Colony, Vijayawada - APPCB",20-02-2024 19:00:00,16.536107,80.594233,PM10,38,159,69
India,Andhra_Pradesh,Vijayawada,"Rajiv Nagar, Vijayawada - APPCB",20-02-2024 19:00:00,16.554731,80.649110,PM10,18,231,85
India,Andhra_Pradesh,Vijayawada,"Rajiv Nagar, Vijayawada - APPCB",20-02-2024 19:00:00,16.554731,80.649110,SO2,7,24,15
India,Andhra_Pradesh,Visakhapatnam,"GVM Corporation, Visakhapatnam - APPCB",20-02-2024 19:00:00,17.72,83.3,PM10,92,180,126
India,Andhra_Pradesh,Visakhapatnam,"GVM Corporation, Visakhapatnam - APPCB",20-02-2024 19:00:00,17.72,83.3,OZONE,6,20,8
India,Arunachal_Pradesh,Naharlagun,"Naharlagun, Naharlagun - APSPCB",20-02-2024 19:00:00,27.103358,93.679645,CO,14,46,19
India,Assam,Byrnihat,"Central Academy for SFS, Byrnihat - PCBA",20-02-2024 19:00:00,26.071318,91.87488,NO2,51,162,92
India,Assam,Byrnihat,"Central Academy for SFS, Byrnihat - PCBA",20-02-2024 19:00:00,26.071318,91.87488,SO2,6,14,11
India,Assam,Guwahati,"IITG, Guwahati - PCBA",20-02-2024 19:00:00,26.2028636,91.70046436,PM2.5,266,444,328
India,Assam,Guwahati,"LGBI Airport, Guwahati - PCBA",20-02-2024 19:00:00,26.10887,91.589544,NO2,13,53,30
India,Assam,Guwahati,"Railway Colony, Guwahati - PCBA",20-02-2024 19:00:00,26.181742,91.78063,SO2,12,25,20
India,Assam,Guwahati,"Railway Colony, Guwahati - PCBA",20-02-2024 19:00:00,26.181742,91.78063,OZONE,1,94,30
India,Assam,Nagaon,"Christianpatty, Nagaon - PCBA",20-02-2024 19:00:00,26.349082,92.68449,NH3,2,9,4
India,Assam,Nalbari,"Bata Chowk, Nalbari - PCBA",20-02-2024 19:00:00,26.446912,91.439057,PM10,142,466,262
India,Assam,Silchar,"Tarapur, Silchar - PCBA",20-02-2024 19:00:00,24.82827,92.79525,PM10,42,63,45
India,Assam,Silchar,"Tarapur, Silchar - PCBA",20-02-2024 19:00:00,24.82827,92.79525,SO2,4,16,9
India,Assam,Sivasagar,"Girls College, Sivasagar - PCBA",20-02-2024 19:00:00,26.987634,94.636574,PM2.5,16,39,29
India,Bihar,Arrah,"New DM Office, Arrah - BSPCB",20-02-2024 19:00:00,25.5626095,84.663264,PM10,105,236,154
India,Bihar,Arrah,"New DM Office, Arrah - BSPCB",20-02-2024 19:00:00,25.5626095,84.663264,NO2,22,72,39
India,Bihar,Aurangabad,"Gurdeo Nagar, Aurangabad - BSPCB",20-02-2024 19:00:00,24.75746,84.366208,NO2,1,3,2
India,Bihar,Bettiah,"Kamalnath Nagar, Bettiah - BSPCB",20-02-2024 19:00:00,26.80365,84.51954,OZONE,1,13,9
India,Bihar,Bhagalpur,"DM Office_Kachari Chowk, Bhagalpur - BSPCB",20-02-2024 19:00:00,25.251013,86.989001,PM10,156,315,208
India,Bihar,Bhagalpur,"DM Office_Kachari Chowk, Bhagalpur - BSPCB",20-02-2024 19:00:00,25.251013,86.989001,CO,39,76,58
India,Bihar,Bhagalpur,"DM Office_Kachari Chowk, Bhagalpur - BSPCB",20-02-2024 19:00:00,25.251013,86.989001,OZONE,23,38,26
India,Bihar,Bhagalpur,"Mayaganj, Bhagalpur - BSPCB",20-02-2024 19:00:00,25.265194,87.012947,PM2.5,90,406,335
India,Bihar,Bihar Sharif,"D M Colony, Bihar Sharif - BSPCB",20-02-2024 19:00:00,25.204762,85.514960,NH3,2,2,2
India,Bihar,Bihar Sharif,"D M Colony, Bihar Sharif - BSPCB",20-02-2024 19:00:00,25.204762,85.514960,CO,4,52,40
India,Bihar,Bihar Sharif,"D M Colony, Bihar Sharif - BSPCB",20-02-2024 19:00:00,25.204762,85.514960,OZONE,2,3,2
India,Bihar,Buxar,"Charitra Van, Buxar - BSPCB (Formerly known as Central Jail)",20-02-2024 19:00:00,25.567520,83.966379,PM10,103,346,171
India,Bihar,Buxar,"Charitra Van, Buxar - BSPCB (Formerly known as Central Jail)",20-02-2024 19:00:00,25.567520,83.966379,OZONE,6,161,126
India,Bihar,Gaya,"Kareemganj, Gaya - BSPCB",20-02-2024 19:00:00,24.792403,84.992416,PM2.5,32,243,115
India,Bihar,Gaya,"Kareemganj, Gaya - BSPCB",20-02-2024 19:00:00,24.792403,84.992416,PM10,68,251,132
India,Bihar,Gaya,"Kareemganj, Gaya - BSPCB",20-02-2024 19:00:00,24.792403,84.992416,NH3,1,5,3
India,Bihar,Gaya,"SFTI Kusdihra, Gaya - BSPCB",20-02-2024 19:00:00,24.762518,84.982348,OZONE,2,61,36
India,Bihar,Hajipur,"Industrial Area, Hajipur - BSPCB",20-02-2024 19:00:00,25.697189,85.245900,CO,38,60,45
India,Bihar,Katihar,"Mirchaibari, Katihar - BSPCB",20-02-2024 19:00:00,25.560083,87.553265,SO2,17,21,19
India,Bihar,Katihar,"Mirchaibari, Katihar - BSPCB",20-02-2024 19:00:00,25.560083,87.553265,OZONE,20,23,22
India,Bihar,Kishanganj,"SDM Office_Khagra, Kishanganj - BSPCB",20-02-2024 19:00:00,26.0881305,87.93840336,PM10,134,489,270
India,Bihar,Kishanganj,"SDM Office_Khagra, Kishanganj - BSPCB",20-02-2024 19:00:00,26.0881305,87.93840336,OZONE,17,27,17
India,Bihar,Manguraha,"Forest Rest House, Manguraha - BSPCB",20-02-2024 19:00:00,27.308328,84.531742,CO,24,62,38
India,Bihar,Motihari,"Gandak Colony, Motihari - BSPCB",20-02-2024 19:00:00,26.63086,84.90051,PM2.5,62,307,180
India,Bihar,Motihari,"Gandak Colony, Motihari - BSPCB",20-02-2024 19:00:00,26.63086,84.90051,OZONE,25,89,70
India,Bihar,Munger,"Town Hall, Munger - BSPCB",20-02-2024 19:00:00,25.376776,86.471523,PM10,88,271,146
India,Bihar,Munger,"Town Hall, Munger - BSPCB",20-02-2024 19:00:00,25.376776,86.471523,SO2,22,45,36
India,Bihar,Muzaffarpur,"Buddha Colony, Muzaffarpur - BSPCB",20-02-2024 19:00:00,26.11442,85.39813,PM10,146,229,187
India,Bihar,Muzaffarpur,"MIT-Daudpur Kothi, Muzaffarpur - BSPCB",20-02-2024 19:00:00,26.1403345,85.3650192,PM2.5,55,230,139
India,Bihar,Muzaffarpur,"MIT-Daudpur Kothi, Muzaffarpur - BSPCB",20-02-2024 19:00:00,26.1403345,85.3650192,OZONE,7,92,66
India,Bihar,Patna,"Govt. High School Shikarpur, Patna - BSPCB",20-02-2024 19:00:00,25.592539,85.227158,SO2,3,7,5
India,Bihar,Rajgir,"Dangi Tola, Rajgir - BSPCB",20-02-2024 19:00:00,25.03280,85.41948,OZONE,20,25,23
India,Bihar,Saharsa,"Police Line, Saharsa - BSPCB",20-02-2024 19:00:00,25.892357,86.590325,SO2,4,80,32
India,Bihar,Samastipur,"DM Office_Kasipur, Samastipur - BSPCB",20-02-2024 19:00:00,25.859655,85.77944,PM2.5,77,332,223
India,Bihar,Samastipur,"DM Office_Kasipur, Samastipur - BSPCB",20-02-2024 19:00:00,25.859655,85.77944,PM10,91,291,180
India,Bihar,Samastipur,"DM Office_Kasipur, Samastipur - BSPCB",20-02-2024 19:00:00,25.859655,85.77944,NH3,1,9,4
India,Bihar,Samastipur,"DM Office_Kasipur, Samastipur - BSPCB",20-02-2024 19:00:00,25.859655,85.77944,OZONE,9,47,35
India,Bihar,Sasaram,"Dada Peer, Sasaram - BSPCB",20-02-2024 19:00:00,24.952822,84.002396,SO2,22,23,23
India,Bihar,Sasaram,"Dada Peer, Sasaram - BSPCB",20-02-2024 19:00:00,24.952822,84.002396,OZONE,5,80,71
India,Bihar,Siwan,"Chitragupta Nagar, Siwan - BSPCB",20-02-2024 19:00:00,26.2271665,84.3570427,PM10,44,135,98
India,Chandigarh,Chandigarh,"Sector 22, Chandigarh - CPCC",20-02-2024 19:00:00,30.735567,76.775714,OZONE,65,148,126
India,Chandigarh,Chandigarh,"Sector-25, Chandigarh - CPCC",20-02-2024 19:00:00,30.751462,76.762879,PM10,80,144,113
India,Chandigarh,Chandigarh,"Sector-25, Chandigarh - CPCC",20-02-2024 19:00:00,30.751462,76.762879,CO,16,28,22
India,Chandigarh,Chandigarh,"Sector-53, Chandigarh - CPCC",20-02-2024 19:00:00,30.719859,76.738637,NO2,29,58,41
India,Chandigarh,Chandigarh,"Sector-53, Chandigarh - CPCC",20-02-2024 19:00:00,30.719859,76.738637,SO2,11,45,27
India,Chhattisgarh,Bhilai,"32Bungalows, Bhilai - CECB",20-02-2024 19:00:00,21.194815,81.314770,SO2,5,31,11
India,Chhattisgarh,Bhilai,"32Bungalows, Bhilai - CECB",20-02-2024 19:00:00,21.194815,81.314770,CO,16,54,17
India,Chhattisgarh,Bhilai,"Hathkhoj, Bhilai - CECB",20-02-2024 19:00:00,21.224231,81.408350,CO,16,119,23
India,Chhattisgarh,Bilaspur,"Mangala, Bilaspur - NTPC",20-02-2024 19:00:00,22.08815,82.13737,CO,28,42,33
India,Chhattisgarh,Chhal,"Nawapara SECL Colony, Chhal - CECB",20-02-2024 19:00:00,22.118125,83.140608,NH3,2,2,2
India,Chhattisgarh,Korba,"Rampur, Korba - CECB",20-02-2024 19:00:00,22.368195,82.746431,SO2,6,10,8
India,Chhattisgarh,Korba,"Rampur, Korba - CECB",20-02-2024 19:00:00,22.368195,82.746431,CO,24,40,30
India,Chhattisgarh,Korba,"Rampur, Korba - CECB",20-02-2024 19:00:00,22.368195,82.746431,OZONE,2,57,2
India,Chhattisgarh,Korba,"Urja Nagar, Korba - CECB",20-02-2024 19:00:00,22.348441,82.549611,PM10,36,500,126
India,Chhattisgarh,Milupara,"Govt. Higher Secondary School, Milupara - CECB",20-02-2024 19:00:00,22.1910172,83.5197009,NO2,14,65,26
India,Chhattisgarh,Raipur,"AIIMS, Raipur - CECB",20-02-2024 19:00:00,21.258815,81.578979,SO2,4,11,7
India,Chhattisgarh,Raipur,"Bhatagaon New ISBT, Raipur - CECB",20-02-2024 19:00:00,21.219665,81.630094,CO,18,99,22
India,Chhattisgarh,Raipur,"Krishak Nagar, Raipur - CECB",20-02-2024 19:00:00,21.237755,81.705301,NH3,NA,NA,NA
India,Chhattisgarh,Raipur,"Krishak Nagar, Raipur - CECB",20-02-2024 19:00:00,21.237755,81.705301,CO,NA,NA,NA
India,Chhattisgarh,Raipur,"Siltara Phase-II, Raipur - CECB",20-02-2024 19:00:00,21.371751,81.664929,NO2,42,71,61
India,Chhattisgarh,Raipur,"Siltara Phase-II, Raipur - CECB",20-02-2024 19:00:00,21.371751,81.664929,NH3,2,3,3
India,Chhattisgarh,Tumidih,"OP Jindal Industrial Park, Tumidih - CECB",20-02-2024 19:00:00,22.06631475,83.33820077,PM10,41,416,127
India,Chhattisgarh,Tumidih,"OP Jindal Industrial Park, Tumidih - CECB",20-02-2024 19:00:00,22.06631475,83.33820077,NO2,8,44,22
India,Chhattisgarh,Tumidih,"OP Jindal Industrial Park, Tumidih - CECB",20-02-2024 19:00:00,22.06631475,83.33820077,NH3,1,3,2
India,Delhi,Delhi,"Alipur, Delhi - DPCC",20-02-2024 19:00:00,28.815329,77.153010,NO2,29,47,36
India,Delhi,Delhi,"Alipur, Delhi - DPCC",20-02-2024 19:00:00,28.815329,77.153010,SO2,9,17,12
India,Delhi,Delhi,"Alipur, Delhi - DPCC",20-02-2024 19:00:00,28.815329,77.153010,OZONE,15,171,107
India,Delhi,Delhi,"Anand Vihar, Delhi - DPCC",20-02-2024 19:00:00,28.647622,77.3158090,PM10,126,310,180
India,Delhi,Delhi,"Anand Vihar, Delhi - DPCC",20-02-2024 19:00:00,28.647622,77.3158090,NH3,4,21,12
India,Delhi,Delhi,"Bawana, Delhi - DPCC",20-02-2024 19:00:00,28.776200,77.051074,NO2,16,48,38
India,Delhi,Delhi,"Burari Crossing, Delhi - IMD",20-02-2024 19:00:00,28.7256504,77.2011573,PM2.5,80,225,150
India,Delhi,Delhi,"Burari Crossing, Delhi - IMD",20-02-2024 19:00:00,28.7256504,77.2011573,OZONE,22,63,32
India,Delhi,Delhi,"CRRI Mathura Road, Delhi - IMD",20-02-2024 19:00:00,28.5512005,77.2735737,PM2.5,133,279,204
India,Delhi,Delhi,"Chandni Chowk, Delhi - IITM",20-02-2024 19:00:00,28.656756,77.227234,PM10,62,158,117
India,Delhi,Delhi,"Chandni Chowk, Delhi - IITM",20-02-2024 19:00:00,28.656756,77.227234,NO2,19,20,20
India,Delhi,Delhi,"DTU, Delhi - CPCB",20-02-2024 19:00:00,28.7500499,77.1112615,SO2,NA,NA,NA
India,Delhi,Delhi,"DTU, Delhi - CPCB",20-02-2024 19:00:00,28.7500499,77.1112615,OZONE,27,34,29
India,Delhi,Delhi,"Dwarka-Sector 8, Delhi - DPCC ",20-02-2024 19:00:00,28.5710274,77.0719006,SO2,6,12,9
India,Delhi,Delhi,"Dwarka-Sector 8, Delhi - DPCC ",20-02-2024 19:00:00,28.5710274,77.0719006,OZONE,1,74,41
India,Delhi,Delhi,"IGI Airport (T3), Delhi - IMD",20-02-2024 19:00:00,28.5627763,77.1180053,PM10,122,184,157
India,Delhi,Delhi,"IGI Airport (T3), Delhi - IMD",20-02-2024 19:00:00,28.5627763,77.1180053,NO2,26,76,40
India,Delhi,Delhi,"IHBAS, Dilshad Garden, Delhi - CPCB",20-02-2024 19:00:00,28.6811736,77.3025234,PM10,107,182,137
India,Delhi,Delhi,"ITO, Delhi - CPCB",20-02-2024 19:00:00,28.628624,77.241060,SO2,9,31,19
India,Delhi,Delhi,"Jawaharlal Nehru Stadium, Delhi - DPCC",20-02-2024 19:00:00,28.580280,77.233829,OZONE,3,97,55
India,Delhi,Delhi,"Lodhi Road, Delhi - IITM",20-02-2024 19:00:00,28.588333,77.221667,NO2,69,107,82
India,Delhi,Delhi,"Lodhi Road, Delhi - IMD",20-02-2024 19:00:00,28.5918245,77.2273074,NO2,NA,NA,NA
India,Delhi,Delhi,"Lodhi Road, Delhi - IMD",20-02-2024 19:00:00,28.5918245,77.2273074,CO,9,26,18
India,Delhi,Delhi,"Major Dhyan Chand National Stadium, Delhi - DPCC",20-02-2024 19:00:00,28.611281,77.237738,PM2.5,185,328,303
India,Delhi,Delhi,"Major Dhyan Chand National Stadium, Delhi - DPCC",20-02-2024 19:00:00,28.611281,77.237738,NO2,39,159,71
India,Delhi,Delhi,"Mundka, Delhi - DPCC",20-02-2024 19:00:00,28.684678,77.076574,NH3,9,14,11
India,Delhi,Delhi,"Mundka, Delhi - DPCC",20-02-2024 19:00:00,28.684678,77.076574,OZONE,7,35,24
India,Delhi,Delhi,"NSIT Dwarka, Delhi - CPCB",20-02-2024 19:00:00,28.60909,77.0325413,OZONE,11,76,56
India,Delhi,Delhi,"Najafgarh, Delhi - DPCC",20-02-2024 19:00:00,28.570173,76.933762,PM2.5,70,290,177
India,Delhi,Delhi,"Najafgarh, Delhi - DPCC",20-02-2024 19:00:00,28.570173,76.933762,NO2,7,8,7
India,Delhi,Delhi,"Najafgarh, Delhi - DPCC",20-02-2024 19:00:00,28.570173,76.933762,CO,16,64,32
India,Delhi,Delhi,"Najafgarh, Delhi - DPCC",20-02-2024 19:00:00,28.570173,76.933762,OZONE,24,149,121
India,Delhi,Delhi,"Nehru Nagar, Delhi - DPCC",20-02-2024 19:00:00,28.567890,77.250515,PM10,144,243,180
India,Delhi,Delhi,"New Moti Bagh, Delhi - MHUA",20-02-2024 19:00:00,28.57834,77.18400,PM2.5,NA,NA,NA
India,Delhi,Delhi,"North Campus, DU, Delhi - IMD",20-02-2024 19:00:00,28.6573814,77.1585447,CO,10,27,15
India,Delhi,Delhi,"Okhla Phase-2, Delhi - DPCC",20-02-2024 19:00:00,28.530785,77.271255,PM10,146,247,175
India,Delhi,Delhi,"Okhla Phase-2, Delhi - DPCC",20-02-2024 19:00:00,28.530785,77.271255,NH3,12,32,18
India,Delhi,Delhi,"Okhla Phase-2, Delhi - DPCC",20-02-2024 19:00:00,28.530785,77.271255,CO,40,106,71
India,Delhi,Delhi,"Okhla Phase-2, Delhi - DPCC",20-02-2024 19:00:00,28.530785,77.271255,OZONE,14,78,53
India,Delhi,Delhi,"Punjabi Bagh, Delhi - DPCC",20-02-2024 19:00:00,28.674045,77.131023,NO2,45,71,53
India,Delhi,Delhi,"Punjabi Bagh, Delhi - DPCC",20-02-2024 19:00:00,28.674045,77.131023,OZONE,8,15,10
India,Delhi,Delhi,"Pusa, Delhi - DPCC",20-02-2024 19:00:00,28.639652,77.146275,PM10,125,251,170
India,Delhi,Delhi,"Pusa, Delhi - DPCC",20-02-2024 19:00:00,28.639652,77.146275,NH3,7,8,8
India,Delhi,Delhi,"Rohini, Delhi - DPCC",20-02-2024 19:00:00,28.732528,77.119920,OZONE,3,99,64
India,Delhi,Delhi,"Sirifort, Delhi - CPCB",20-02-2024 19:00:00,28.5504249,77.2159377,PM10,44,92,68
India,Delhi,Delhi,"Sirifort, Delhi - CPCB",20-02-2024 19:00:00,28.5504249,77.2159377,NO2,150,204,176
India,Delhi,Delhi,"Sirifort, Delhi - CPCB",20-02-2024 19:00:00,28.5504249,77.2159377,CO,20,42,31
India,Delhi,Delhi,"Sri Aurobindo Marg, Delhi - DPCC",20-02-2024 19:00:00,28.531346,77.190156,NH3,10,13,11
India,Delhi,Delhi,"Vivek Vihar, Delhi - DPCC",20-02-2024 19:00:00,28.672342,77.315260,PM2.5,228,344,312
India,Delhi,Delhi,"Wazirpur, Delhi - DPCC",20-02-2024 19:00:00,28.699793,77.165453,PM2.5,183,342,292
India,Delhi,Delhi,"Wazirpur, Delhi - DPCC",20-02-2024 19:00:00,28.699793,77.165453,PM10,127,306,215
India,Gujarat,Ahmedabad,"Chandkheda, Ahmedabad - IITM",20-02-2024 19:00:00,23.107969,72.574648,PM10,60,140,92
India,Gujarat,Ahmedabad,"Chandkheda, Ahmedabad - IITM",20-02-2024 19:00:00,23.107969,72.574648,SO2,5,11,7
India,Gujarat,Ahmedabad,"Chandkheda, Ahmedabad - IITM",20-02-2024 19:00:00,23.107969,72.574648,CO,82,107,89
India,Gujarat,Ahmedabad,"Chandkheda, Ahmedabad - IITM",20-02-2024 19:00:00,23.107969,72.574648,OZONE,2,42,31
India,Gujarat,Ahmedabad,"Gyaspur, Ahmedabad - IITM",20-02-2024 19:00:00,22.977134,72.553024,PM2.5,25,86,50
India,Gujarat,Ahmedabad,"Gyaspur, Ahmedabad - IITM",20-02-2024 19:00:00,22.977134,72.553024,SO2,4,7,5
India,Gujarat,Ahmedabad,"Gyaspur, Ahmedabad - IITM",20-02-2024 19:00:00,22.977134,72.553024,CO,28,29,28
India,Gujarat,Ahmedabad,"Maninagar, Ahmedabad - GPCB",20-02-2024 19:00:00,23.002657,72.591912,PM2.5,26,93,59
India,Gujarat,Ahmedabad,"Maninagar, Ahmedabad - GPCB",20-02-2024 19:00:00,23.002657,72.591912,PM10,42,137,87
India,Gujarat,Ahmedabad,"Raikhad, Ahmedabad - IITM",20-02-2024 19:00:00,23.020509,72.579261,PM2.5,NA,NA,NA
India,Gujarat,Ahmedabad,"Raikhad, Ahmedabad - IITM",20-02-2024 19:00:00,23.020509,72.579261,SO2,NA,NA,NA
India,Gujarat,Ahmedabad,"Rakhial, Ahmedabad - IITM",20-02-2024 19:00:00,23.016834,72.625775,PM10,58,186,109
India,Gujarat,Ahmedabad,"SAC ISRO Satellite, Ahmedabad - IITM",20-02-2024 19:00:00,23.023389,72.515201,NO2,16,17,17
India,Gujarat,Ahmedabad,"SVPI Airport Hansol, Ahmedabad - IITM",20-02-2024 19:00:00,23.076793,72.627874,OZONE,1,23,15
India,Gujarat,Ahmedabad,"Sardar Vallabhbhai Patel Stadium, Ahmedabad - IITM",20-02-2024 19:00:00,23.043070,72.562968,PM2.5,48,369,98
India,Gujarat,Ahmedabad,"Sardar Vallabhbhai Patel Stadium, Ahmedabad - IITM",20-02-2024 19:00:00,23.043070,72.562968,PM10,55,406,105
India,Gujarat,Ahmedabad,"Sardar Vallabhbhai Patel Stadium, Ahmedabad - IITM",20-02-2024 19:00:00,23.043070,72.562968,OZONE,4,14,12
India,Gujarat,Ankleshwar,"GIDC, Ankleshwar - GPCB",20-02-2024 19:00:00,21.613267,73.010555,PM10,39,104,72
India,Gujarat,Gandhinagar,"IIPHG Lekawada, Gandhinagar - IITM",20-02-2024 19:00:00,23.243639,72.68994,PM2.5,57,222,83
India,Gujarat,Gandhinagar,"IIPHG Lekawada, Gandhinagar - IITM",20-02-2024 19:00:00,23.243639,72.68994,SO2,12,13,13
India,Gujarat,Gandhinagar,"Sector-10, Gandhinagar - GPCB",20-02-2024 19:00:00,23.221714,72.654328,NO2,8,17,12
India,Gujarat,Surat,"Science Center, Surat - SMC",20-02-2024 19:00:00,21.170046,72.795405,CO,43,62,49
India,Gujarat,Vatva,"Phase-4 GIDC, Vatva - GPCB",20-02-2024 19:00:00,22.969611,72.643500,PM2.5,NA,NA,NA
India,Haryana,Ambala,"Patti Mehar, Ambala - HSPCB",20-02-2024 19:00:00,30.379589,76.778328,PM10,19,51,38
India,Haryana,Bahadurgarh,"Arya Nagar, Bahadurgarh - HSPCB",20-02-2024 19:00:00,28.6701,76.9254,PM10,118,160,138
India,Haryana,Bahadurgarh,"Arya Nagar, Bahadurgarh - HSPCB",20-02-2024 19:00:00,28.6701,76.9254,NH3,11,13,12
India,Haryana,Bhiwani,"H.B. Colony, Bhiwani - HSPCB",20-02-2024 19:00:00,28.806223,76.141105,PM2.5,82,213,142
India,Haryana,Bhiwani,"H.B. Colony, Bhiwani - HSPCB",20-02-2024 19:00:00,28.806223,76.141105,SO2,5,10,7
India,Haryana,Charkhi Dadri,"Mini Secretariat, Charkhi Dadri - HSPCB",20-02-2024 19:00:00,28.593883,76.270653,CO,18,64,31
India,Haryana,Faridabad,"New Industrial Town, Faridabad - HSPCB",20-02-2024 19:00:00,28.39072,77.30059,CO,11,33,20
India,Haryana,Faridabad,"Sector 11, Faridabad - HSPCB",20-02-2024 19:00:00,28.376058,77.315741,SO2,NA,NA,NA
India,Haryana,Faridabad,"Sector 30, Faridabad - HSPCB",20-02-2024 19:00:00,28.4417,77.3217,OZONE,10,25,18
India,Haryana,Faridabad,"Sector- 16A, Faridabad - HSPCB",20-02-2024 19:00:00,28.4088421,77.3099081,SO2,2,54,23
India,Haryana,Faridabad,"Sector- 16A, Faridabad - HSPCB",20-02-2024 19:00:00,28.4088421,77.3099081,CO,6,39,28
India,Haryana,Gurugram,"Sector-51, Gurugram - HSPCB",20-02-2024 19:00:00,28.4227,77.0667,PM10,138,193,168
India,Haryana,Gurugram,"Sector-51, Gurugram - HSPCB",20-02-2024 19:00:00,28.4227,77.0667,NO2,13,29,23
India,Haryana,Gurugram,"Sector-51, Gurugram - HSPCB",20-02-2024 19:00:00,28.4227,77.0667,SO2,3,4,4
India,Haryana,Gurugram,"Teri Gram, Gurugram - HSPCB",20-02-2024 19:00:00,28.4275,77.1465,PM2.5,97,231,157
India,Haryana,Gurugram,"Teri Gram, Gurugram - HSPCB",20-02-2024 19:00:00,28.4275,77.1465,NO2,29,49,38
India,Haryana,Gurugram,"Teri Gram, Gurugram - HSPCB",20-02-2024 19:00:00,28.4275,77.1465,NH3,22,30,25
India,Haryana,Gurugram,"Teri Gram, Gurugram - HSPCB",20-02-2024 19:00:00,28.4275,77.1465,SO2,3,5,4
India,Haryana,Gurugram,"Vikas Sadan, Gurugram - HSPCB",20-02-2024 19:00:00,28.4501238,77.0263051,NO2,5,26,14
India,Haryana,Gurugram,"Vikas Sadan, Gurugram - HSPCB",20-02-2024 19:00:00,28.4501238,77.0263051,OZONE,8,68,51
India,Haryana,Hisar,"Urban Estate-II, Hisar - HSPCB",20-02-2024 19:00:00,29.140560,75.744941,PM10,68,145,108
India,Haryana,Hisar,"Urban Estate-II, Hisar - HSPCB",20-02-2024 19:00:00,29.140560,75.744941,SO2,NA,NA,NA
India,Haryana,Hisar,"Urban Estate-II, Hisar - HSPCB",20-02-2024 19:00:00,29.140560,75.744941,OZONE,26,125,98
India,Haryana,Jind,"Police Lines, Jind - HSPCB",20-02-2024 19:00:00,29.307814,76.337619,CO,3,101,24
India,Haryana,Jind,"Police Lines, Jind - HSPCB",20-02-2024 19:00:00,29.307814,76.337619,OZONE,10,23,18
India,Haryana,Kaithal,"Rishi Nagar, Kaithal - HSPCB",20-02-2024 19:00:00,29.8006,76.4155,SO2,2,61,17
India,Haryana,Kaithal,"Rishi Nagar, Kaithal - HSPCB",20-02-2024 19:00:00,29.8006,76.4155,CO,10,24,17
India,Haryana,Kaithal,"Rishi Nagar, Kaithal - HSPCB",20-02-2024 19:00:00,29.8006,76.4155,OZONE,6,19,14
India,Haryana,Karnal,"Sector-12, Karnal - HSPCB",20-02-2024 19:00:00,29.695300,77.002700,SO2,12,13,12
India,Haryana,Kurukshetra,"Sector-7, Kurukshetra - HSPCB",20-02-2024 19:00:00,29.966942,76.875879,OZONE,25,79,47
India,Haryana,Mandikhera,"General Hospital, Mandikhera - HSPCB",20-02-2024 19:00:00,27.9002,76.9938,PM2.5,39,88,53
India,Haryana,Mandikhera,"General Hospital, Mandikhera - HSPCB",20-02-2024 19:00:00,27.9002,76.9938,NH3,18,20,19
India,Haryana,Manesar,"Sector-2 IMT, Manesar - HSPCB",20-02-2024 19:00:00,28.360699,76.936090,PM2.5,75,285,111
India,Haryana,Manesar,"Sector-2 IMT, Manesar - HSPCB",20-02-2024 19:00:00,28.360699,76.936090,NH3,7,17,11
India,Haryana,Narnaul,"Shastri Nagar, Narnaul - HSPCB",20-02-2024 19:00:00,28.060249,76.113115,OZONE,48,85,70
India,Haryana,Panchkula,"Sector-6, Panchkula - HSPCB ",20-02-2024 19:00:00,30.7057778,76.8531805555555,SO2,11,12,12
India,Haryana,Rohtak,"MD University, Rohtak - HSPCB",20-02-2024 19:00:00,28.52123,76.37138,OZONE,44,56,48
India,Haryana,Sonipat,"Murthal, Sonipat - HSPCB",20-02-2024 19:00:00,29.027200,77.062100,PM2.5,NA,NA,NA
India,Haryana,Sonipat,"Murthal, Sonipat - HSPCB",20-02-2024 19:00:00,29.027200,77.062100,PM10,NA,NA,NA
India,Haryana,Sonipat,"Murthal, Sonipat - HSPCB",20-02-2024 19:00:00,29.027200,77.062100,OZONE,17,36,35
India,Himachal Pradesh,Baddi,"HIMUDA Complex Phase-1, Baddi - HPPCB",20-02-2024 19:00:00,30.943887,76.801991,SO2,16,110,43
India,Jharkhand,Dhanbad,"Kalakusuma, Dhanbad - DMC",20-02-2024 19:00:00,23.811548,86.481238,PM10,NA,NA,NA
India,Jharkhand,Dhanbad,"Kalakusuma, Dhanbad - DMC",20-02-2024 19:00:00,23.811548,86.481238,NO2,NA,NA,NA
India,Jharkhand,Dhanbad,"Kalakusuma, Dhanbad - DMC",20-02-2024 19:00:00,23.811548,86.481238,CO,71,102,89
India,Jharkhand,Pathardih,"Mohalbani Ghat, Pathardih - DMC",20-02-2024 19:00:00,23.669880,86.411725,CO,117,177,142
India,Karnataka,Belgaum,"Ramteerth Nagar, Belgaum - KSPCB",20-02-2024 19:00:00,15.888653,74.541751,CO,30,48,43
India,Karnataka,Bengaluru,"Bapuji Nagar, Bengaluru - KSPCB",20-02-2024 19:00:00,12.951913,77.539784,PM10,NA,NA,NA
India,Karnataka,Bengaluru,"Bapuji Nagar, Bengaluru - KSPCB",20-02-2024 19:00:00,12.951913,77.539784,SO2,NA,NA,NA
India,Karnataka,Bengaluru,"Bapuji Nagar, Bengaluru - KSPCB",20-02-2024 19:00:00,12.951913,77.539784,CO,28,32,29
India,Karnataka,Bengaluru,"Hebbal, Bengaluru - KSPCB",20-02-2024 19:00:00,13.029152,77.585901,PM2.5,28,85,61
India,Karnataka,Bengaluru,"Hebbal, Bengaluru - KSPCB",20-02-2024 19:00:00,13.029152,77.585901,PM10,NA,NA,NA
India,Karnataka,Bengaluru,"Hebbal, Bengaluru - KSPCB",20-02-2024 19:00:00,13.029152,77.585901,NH3,1,1,1
India,Karnataka,Bengaluru,"Hebbal, Bengaluru - KSPCB",20-02-2024 19:00:00,13.029152,77.585901,OZONE,9,77,29
India,Karnataka,Bengaluru,"Hombegowda Nagar, Bengaluru - KSPCB",20-02-2024 19:00:00,12.938539,77.590100,PM2.5,34,75,50
India,Karnataka,Bengaluru,"Hombegowda Nagar, Bengaluru - KSPCB",20-02-2024 19:00:00,12.938539,77.590100,PM10,52,108,75
India,Karnataka,Bengaluru,"Jayanagar 5th Block, Bengaluru - KSPCB",20-02-2024 19:00:00,12.920984,77.584908,PM2.5,58,101,72
India,Karnataka,Bengaluru,"Jigani, Bengaluru - KSPCB",20-02-2024 19:00:00,12.7816279,77.6299145,NH3,4,4,4
India,Karnataka,Bengaluru,"Jigani, Bengaluru - KSPCB",20-02-2024 19:00:00,12.7816279,77.6299145,OZONE,4,98,74
India,Karnataka,Bengaluru,"Kasturi Nagar, Bengaluru - KSPCB",20-02-2024 19:00:00,13.003872,77.664217,OZONE,19,136,110
India,Karnataka,Bengaluru,"Peenya, Bengaluru - CPCB",20-02-2024 19:00:00,13.0270199,77.494094,PM2.5,9,216,70
India,Karnataka,Bengaluru,"Shivapura_Peenya, Bengaluru - KSPCB",20-02-2024 19:00:00,13.0246342,77.5080115,OZONE,54,55,55
India,Karnataka,Bengaluru,"Silk Board, Bengaluru - KSPCB",20-02-2024 19:00:00,12.917348,77.622813,CO,28,74,41
India,Karnataka,Bidar,"Naubad, Bidar - KSPCB",20-02-2024 19:00:00,17.930306,77.482194,NH3,2,3,3
India,Karnataka,Chikkaballapur,"Chikkaballapur Rural, Chikkaballapur - KSPCB",20-02-2024 19:00:00,13.428828,77.731418,CO,10,20,16
India,Karnataka,Chikkamagaluru,"Kalyana Nagara, Chikkamagaluru - KSPCB",20-02-2024 19:00:00,13.328028,75.797056,CO,11,18,11
India,Karnataka,Davanagere,"Devaraj Urs Badavane, Davanagere - KSPCB",20-02-2024 19:00:00,14.475800,75.905200,PM2.5,38,134,69
India,Karnataka,Dharwad,"Kalabhavan, Dharwad - KSPCB",20-02-2024 19:00:00,15.459706,75.008381,PM10,86,148,96
India,Karnataka,Dharwad,"Kalabhavan, Dharwad - KSPCB",20-02-2024 19:00:00,15.459706,75.008381,CO,43,96,58
India,Karnataka,Haveri,"Ashwini Nagar, Haveri - KSPCB",20-02-2024 19:00:00,14.791800,75.389600,SO2,14,14,14
India,Karnataka,Haveri,"Ashwini Nagar, Haveri - KSPCB",20-02-2024 19:00:00,14.791800,75.389600,CO,34,35,34
India,Karnataka,Kalaburagi,"Lal Bahadur Shastri Nagar, Kalaburagi - KSPCB",20-02-2024 19:00:00,17.321993,76.822628,NO2,11,12,12
India,Karnataka,Kalaburagi,"Mahatma Basaveswar Colony, Kalaburgi - KSPCB",20-02-2024 19:00:00,17.336318,76.847397,PM10,24,51,41
India,Karnataka,Kalaburagi,"Mahatma Basaveswar Colony, Kalaburgi - KSPCB",20-02-2024 19:00:00,17.336318,76.847397,OZONE,6,28,22
India,Karnataka,Karwar,"KHB Colony, Karwar - KSPCB",20-02-2024 19:00:00,14.816666,74.141003,SO2,18,18,18
India,Karnataka,Koppal,"Diwator Nagar, Koppal - KSPCB",20-02-2024 19:00:00,15.347630,76.181767,NO2,1,28,14
India,Karnataka,Madikeri,"Stuart Hill, Madikeri - KSPCB",20-02-2024 19:00:00,12.415911,75.735050,PM2.5,35,70,51
India,Karnataka,Madikeri,"Stuart Hill, Madikeri - KSPCB",20-02-2024 19:00:00,12.415911,75.735050,SO2,4,4,4
