country,state,city,station,last_update,latitude,longitude,pollutant_id,pollutant_min,pollutant_max,pollutant_avg
India,Andhra_Pradesh,Amaravati,"Secretariat, Amaravati - APPCB",23-06-2024 19:00:00,16.5150833,80.5181667,PM10,28,77,44
India,Andhra_Pradesh,Kadapa,"Yerramukkapalli, Kadapa - APPCB",23-06-2024 19:00:00,14.465052,78.824187,PM2.5,NA,NA,NA
India,Andhra_Pradesh,Rajamahendravaram,"Anand Kala Kshetram, Rajamahendravaram - APPCB",23-06-2024 19:00:00,16.9872867,81.7363176,PM2.5,4,58,23
India,Andhra_Pradesh,Rajamahendravaram,"Anand Kala Kshetram, Rajamahendravaram - APPCB",23-06-2024 19:00:00,16.9872867,81.7363176,SO2,11,12,12
India,Andhra_Pradesh,Tirupati,"Tirumala, Tirupati - APPCB",23-06-2024 19:00:00,13.67,79.35,SO2,1,13,4
India,Andhra_Pradesh,Tirupati,"Vaikuntapuram, Tirupati - APPCB",23-06-2024 19:00:00,13.615387,79.409230,PM2.5,NA,NA,NA
India,Andhra_Pradesh,Tirupati,"Vaikuntapuram, Tirupati - APPCB",23-06-2024 19:00:00,13.615387,79.409230,PM10,NA,NA,NA
India,Andhra_Pradesh,Tirupati,"Vaikuntapuram, Tirupati - APPCB",23-06-2024 19:00:00,13.615387,79.409230,NH3,2,3,2
India,Andhra_Pradesh,Vijayawada,"HB Colony, Vijayawada - APPCB",23-06-2024 19:00:00,16.536107,80.594233,SO2,4,5,5
India,Andhra_Pradesh,Vijayawada,"Kanuru, Vijayawada - APPCB",23-06-2024 19:00:00,16.486692,80.699436,CO,36,36,36
India,Andhra_Pradesh,Vijayawada,"Rajiv Gandhi Park, Vijayawada - APPCB",23-06-2024 19:00:00,16.509717,80.612222,NH3,5,6,6
India,Assam,Byrnihat,"Central Academy for SFS, Byrnihat - PCBA",23-06-2024 19:00:00,26.071318,91.87488,PM10,19,439,154
India,Assam,Guwahati,"LGBI Airport, Guwahati - PCBA",23-06-2024 19:00:00,26.10887,91.589544,PM10,5,391,110
India,Assam,Guwahati,"Pan Bazaar, Guwahati - PCBA",23-06-2024 19:00:00,26.187500,91.744194,CO,14,54,16
India,Assam,Guwahati,"Railway Colony, Guwahati - PCBA",23-06-2024 19:00:00,26.181742,91.78063,NO2,3,3,3
India,Assam,Guwahati,"Railway Colony, Guwahati - PCBA",23-06-2024 19:00:00,26.181742,91.78063,SO2,1,2,2
India,Assam,Nagaon,"Christianpatty, Nagaon - PCBA",23-06-2024 19:00:00,26.349082,92.68449,PM2.5,24,121,39
India,Assam,Nagaon,"Christianpatty, Nagaon - PCBA",23-06-2024 19:00:00,26.349082,92.68449,OZONE,7,32,27
India,Assam,Nalbari,"Bata Chowk, Nalbari - PCBA",23-06-2024 19:00:00,26.446912,91.439057,OZONE,19,33,24
India,Assam,Silchar,"Tarapur, Silchar - PCBA",23-06-2024 19:00:00,24.82827,92.79525,NH3,1,1,1
India,Assam,Silchar,"Tarapur, Silchar - PCBA",23-06-2024 19:00:00,24.82827,92.79525,CO,20,28,23
India,Bihar,Araria,"Kharahiya Basti, Araria - BSPCB",23-06-2024 19:00:00,26.146529,87.454184,NH3,NA,NA,NA
India,Bihar,Arrah,"New DM Office, Arrah - BSPCB",23-06-2024 19:00:00,25.5626095,84.663264,CO,11,29,18
India,Bihar,Aurangabad,"Gurdeo Nagar, Aurangabad - BSPCB",23-06-2024 19:00:00,24.75746,84.366208,NH3,5,46,20
India,Bihar,Aurangabad,"Gurdeo Nagar, Aurangabad - BSPCB",23-06-2024 19:00:00,24.75746,84.366208,SO2,6,26,18
India,Bihar,Bettiah,"Kamalnath Nagar, Bettiah - BSPCB",23-06-2024 19:00:00,26.80365,84.51954,PM10,111,441,210
India,Bihar,Bhagalpur,"Mayaganj, Bhagalpur - BSPCB",23-06-2024 19:00:00,25.265194,87.012947,OZONE,3,28,28
India,Bihar,Bihar Sharif,"D M Colony, Bihar Sharif - BSPCB",23-06-2024 19:00:00,25.204762,85.514960,PM10,103,435,224
India,Bihar,Bihar Sharif,"D M Colony, Bihar Sharif - BSPCB",23-06-2024 19:00:00,25.204762,85.514960,NO2,8,9,9
India,Bihar,Buxar,"Charitra Van, Buxar - BSPCB (Formerly known as Central Jail)",23-06-2024 19:00:00,25.567520,83.966379,NH3,1,1,1
India,Bihar,Chhapra,"Darshan Nagar, Chhapra - BSPCB",23-06-2024 19:00:00,25.7808257,84.7446768,PM10,49,94,66
India,Bihar,Chhapra,"Darshan Nagar, Chhapra - BSPCB",23-06-2024 19:00:00,25.7808257,84.7446768,NO2,NA,NA,NA
India,Bihar,Chhapra,"Darshan Nagar, Chhapra - BSPCB",23-06-2024 19:00:00,25.7808257,84.7446768,NH3,6,12,9
India,Bihar,Chhapra,"Darshan Nagar, Chhapra - BSPCB",23-06-2024 19:00:00,25.7808257,84.7446768,OZONE,1,6,3
India,Bihar,Gaya,"SFTI Kusdihra, Gaya - BSPCB",23-06-2024 19:00:00,24.762518,84.982348,NH3,NA,NA,NA
India,Bihar,Katihar,"Mirchaibari, Katihar - BSPCB",23-06-2024 19:00:00,25.560083,87.553265,PM10,19,126,50
India,Bihar,Katihar,"Mirchaibari, Katihar - BSPCB",23-06-2024 19:00:00,25.560083,87.553265,SO2,5,12,8
India,Bihar,Kishanganj,"SDM Office_Khagra, Kishanganj - BSPCB",23-06-2024 19:00:00,26.0881305,87.93840336,PM2.5,12,52,36
India,Bihar,Kishanganj,"SDM Office_Khagra, Kishanganj - BSPCB",23-06-2024 19:00:00,26.0881305,87.93840336,SO2,8,9,8
India,Bihar,Manguraha,"Forest Rest House, Manguraha - BSPCB",23-06-2024 19:00:00,27.308328,84.531742,PM2.5,NA,NA,NA
India,Bihar,Manguraha,"Forest Rest House, Manguraha - BSPCB",23-06-2024 19:00:00,27.308328,84.531742,NO2,13,18,15
India,Bihar,Manguraha,"Forest Rest House, Manguraha - BSPCB",23-06-2024 19:00:00,27.308328,84.531742,NH3,2,2,2
India,Bihar,Munger,"Town Hall, Munger - BSPCB",23-06-2024 19:00:00,25.376776,86.471523,PM2.5,22,65,38
India,Bihar,Munger,"Town Hall, Munger - BSPCB",23-06-2024 19:00:00,25.376776,86.471523,NH3,2,3,3
India,Bihar,Munger,"Town Hall, Munger - BSPCB",23-06-2024 19:00:00,25.376776,86.471523,CO,84,103,97
India,Bihar,Munger,"Town Hall, Munger - BSPCB",23-06-2024 19:00:00,25.376776,86.471523,OZONE,1,9,2
India,Bihar,Muzaffarpur,"Buddha Colony, Muzaffarpur - BSPCB",23-06-2024 19:00:00,26.11442,85.39813,PM10,56,96,74
India,Bihar,Muzaffarpur,"MIT-Daudpur Kothi, Muzaffarpur - BSPCB",23-06-2024 19:00:00,26.1403345,85.3650192,PM10,37,92,60
India,Bihar,Muzaffarpur,"MIT-Daudpur Kothi, Muzaffarpur - BSPCB",23-06-2024 19:00:00,26.1403345,85.3650192,SO2,7,12,10
India,Bihar,Muzaffarpur,"MIT-Daudpur Kothi, Muzaffarpur - BSPCB",23-06-2024 19:00:00,26.1403345,85.3650192,CO,11,102,47
India,Bihar,Patna,"Govt. High School Shikarpur, Patna - BSPCB",23-06-2024 19:00:00,25.592539,85.227158,NH3,5,5,5
India,Bihar,Patna,"Govt. High School Shikarpur, Patna - BSPCB",23-06-2024 19:00:00,25.592539,85.227158,OZONE,1,59,49
India,Bihar,Patna,"IGSC Planetarium Complex, Patna - BSPCB",23-06-2024 19:00:00,25.610369,85.132568,NO2,12,12,12
India,Bihar,Patna,"Rajbansi Nagar, Patna - BSPCB",23-06-2024 19:00:00,25.599486,85.113666,NO2,7,22,12
India,Bihar,Purnia,"Mariam Nagar, Purnia - BSPCB",23-06-2024 19:00:00,25.366336,87.117468,SO2,7,16,12
India,Bihar,Saharsa,"Police Line, Saharsa - BSPCB",23-06-2024 19:00:00,25.892357,86.590325,NO2,6,8,7
India,Bihar,Samastipur,"DM Office_Kasipur, Samastipur - BSPCB",23-06-2024 19:00:00,25.859655,85.77944,NH3,3,3,3
India,Bihar,Sasaram,"Dada Peer, Sasaram - BSPCB",23-06-2024 19:00:00,24.952822,84.002396,PM2.5,68,308,168
India,Bihar,Sasaram,"Dada Peer, Sasaram - BSPCB",23-06-2024 19:00:00,24.952822,84.002396,PM10,60,144,94
India,Bihar,Siwan,"Chitragupta Nagar, Siwan - BSPCB",23-06-2024 19:00:00,26.2271665,84.3570427,NO2,33,139,56
India,Chandigarh,Chandigarh,"Sector 22, Chandigarh - CPCC",23-06-2024 19:00:00,30.735567,76.775714,NH3,8,16,11
India,Chandigarh,Chandigarh,"Sector 22, Chandigarh - CPCC",23-06-2024 19:00:00,30.735567,76.775714,CO,32,60,34
India,Chandigarh,Chandigarh,"Sector-25, Chandigarh - CPCC",23-06-2024 19:00:00,30.751462,76.762879,NO2,8,92,24
India,Chandigarh,Chandigarh,"Sector-25, Chandigarh - CPCC",23-06-2024 19:00:00,30.751462,76.762879,CO,15,68,18
India,Chandigarh,Chandigarh,"Sector-53, Chandigarh - CPCC",23-06-2024 19:00:00,30.719859,76.738637,PM2.5,58,233,104
India,Chhattisgarh,Bilaspur,"Mangala, Bilaspur - NTPC",23-06-2024 19:00:00,22.08815,82.13737,CO,32,47,43
India,Chhattisgarh,Chhal,"Nawapara SECL Colony, Chhal - CECB",23-06-2024 19:00:00,22.118125,83.140608,NH3,NA,NA,NA
India,Chhattisgarh,Chhal,"Nawapara SECL Colony, Chhal - CECB",23-06-2024 19:00:00,22.118125,83.140608,OZONE,1,21,9
India,Chhattisgarh,Korba,"Rampur, Korba - CECB",23-06-2024 19:00:00,22.368195,82.746431,NH3,NA,NA,NA
India,Chhattisgarh,Korba,"Urja Nagar, Korba - CECB",23-06-2024 19:00:00,22.348441,82.549611,NO2,38,45,41
India,Chhattisgarh,Korba,"Urja Nagar, Korba - CECB",23-06-2024 19:00:00,22.348441,82.549611,SO2,7,12,8
India,Chhattisgarh,Kunjemura,"OP Jindal School, Kunjemura - CECB",23-06-2024 19:00:00,22.126650,83.483212,NH3,2,3,3
India,Chhattisgarh,Kunjemura,"OP Jindal School, Kunjemura - CECB",23-06-2024 19:00:00,22.126650,83.483212,SO2,1,6,3
India,Chhattisgarh,Milupara,"Govt. Higher Secondary School, Milupara - CECB",23-06-2024 19:00:00,22.1910172,83.5197009,PM10,16,136,48
India,Chhattisgarh,Raipur,"AIIMS, Raipur - CECB",23-06-2024 19:00:00,21.258815,81.578979,CO,16,27,24
India,Chhattisgarh,Raipur,"Bhatagaon New ISBT, Raipur - CECB",23-06-2024 19:00:00,21.219665,81.630094,SO2,NA,NA,NA
India,Chhattisgarh,Raipur,"Bhatagaon New ISBT, Raipur - CECB",23-06-2024 19:00:00,21.219665,81.630094,CO,34,36,35
India,Chhattisgarh,Raipur,"Krishak Nagar, Raipur - CECB",23-06-2024 19:00:00,21.237755,81.705301,SO2,10,16,12
India,Chhattisgarh,Raipur,"Krishak Nagar, Raipur - CECB",23-06-2024 19:00:00,21.237755,81.705301,CO,12,26,21
India,Chhattisgarh,Raipur,"Siltara Phase-II, Raipur - CECB",23-06-2024 19:00:00,21.371751,81.664929,PM10,38,100,77
India,Chhattisgarh,Raipur,"Siltara Phase-II, Raipur - CECB",23-06-2024 19:00:00,21.371751,81.664929,NH3,3,3,3
India,Chhattisgarh,Raipur,"Siltara Phase-II, Raipur - CECB",23-06-2024 19:00:00,21.371751,81.664929,CO,12,34,22
India,Chhattisgarh,Tumidih,"OP Jindal Industrial Park, Tumidih - CECB",23-06-2024 19:00:00,22.06631475,83.33820077,PM10,29,128,59
India,Chhattisgarh,Tumidih,"OP Jindal Industrial Park, Tumidih - CECB",23-06-2024 19:00:00,22.06631475,83.33820077,NH3,1,2,2
India,Delhi,Delhi,"Alipur, Delhi - DPCC",23-06-2024 19:00:00,28.815329,77.153010,NH3,5,18,9
India,Delhi,Delhi,"Anand Vihar, Delhi - DPCC",23-06-2024 19:00:00,28.647622,77.3158090,NO2,37,72,49
India,Delhi,Delhi,"Anand Vihar, Delhi - DPCC",23-06-2024 19:00:00,28.647622,77.3158090,NH3,5,7,6
India,Delhi,Delhi,"Aya Nagar, Delhi - IMD",23-06-2024 19:00:00,28.4706914,77.1099364,PM10,57,151,106
India,Delhi,Delhi,"Bawana, Delhi - DPCC",23-06-2024 19:00:00,28.776200,77.051074,SO2,6,19,11
India,Delhi,Delhi,"Bawana, Delhi - DPCC",23-06-2024 19:00:00,28.776200,77.051074,OZONE,4,94,61
India,Delhi,Delhi,"Burari Crossing, Delhi - IMD",23-06-2024 19:00:00,28.7256504,77.2011573,PM2.5,49,226,98
India,Delhi,Delhi,"CRRI Mathura Road, Delhi - IMD",23-06-2024 19:00:00,28.5512005,77.2735737,PM10,80,140,116
India,Delhi,Delhi,"CRRI Mathura Road, Delhi - IMD",23-06-2024 19:00:00,28.5512005,77.2735737,OZONE,6,15,10
India,Delhi,Delhi,"Chandni Chowk, Delhi - IITM",23-06-2024 19:00:00,28.656756,77.227234,NO2,24,24,24
India,Delhi,Delhi,"DTU, Delhi - CPCB",23-06-2024 19:00:00,28.7500499,77.1112615,NO2,63,73,68
India,Delhi,Delhi,"DTU, Delhi - CPCB",23-06-2024 19:00:00,28.7500499,77.1112615,SO2,40,42,41
India,Delhi,Delhi,"Dr. Karni Singh Shooting Range, Delhi - DPCC",23-06-2024 19:00:00,28.498571,77.264840,PM2.5,83,226,127
India,Delhi,Delhi,"Dwarka-Sector 8, Delhi - DPCC ",23-06-2024 19:00:00,28.5710274,77.0719006,PM10,69,197,131
India,Delhi,Delhi,"Dwarka-Sector 8, Delhi - DPCC ",23-06-2024 19:00:00,28.5710274,77.0719006,CO,23,75,57
India,Delhi,Delhi,"Dwarka-Sector 8, Delhi - DPCC ",23-06-2024 19:00:00,28.5710274,77.0719006,OZONE,20,71,45
India,Delhi,Delhi,"IGI Airport (T3), Delhi - IMD",23-06-2024 19:00:00,28.5627763,77.1180053,OZONE,8,52,36
India,Delhi,Delhi,"IHBAS, Dilshad Garden, Delhi - CPCB",23-06-2024 19:00:00,28.6811736,77.3025234,PM2.5,60,149,88
India,Delhi,Delhi,"IHBAS, Dilshad Garden, Delhi - CPCB",23-06-2024 19:00:00,28.6811736,77.3025234,SO2,11,55,23
India,Delhi,Delhi,"IHBAS, Dilshad Garden, Delhi - CPCB",23-06-2024 19:00:00,28.6811736,77.3025234,OZONE,16,65,31
India,Delhi,Delhi,"ITO, Delhi - CPCB",23-06-2024 19:00:00,28.628624,77.241060,NH3,4,6,5
India,Delhi,Delhi,"ITO, Delhi - CPCB",23-06-2024 19:00:00,28.628624,77.241060,CO,69,101,77
India,Delhi,Delhi,"Jahangirpuri, Delhi - DPCC",23-06-2024 19:00:00,28.732820,77.170633,OZONE,1,79,65
India,Delhi,Delhi,"Jawaharlal Nehru Stadium, Delhi - DPCC",23-06-2024 19:00:00,28.580280,77.233829,NO2,26,92,54
India,Delhi,Delhi,"Jawaharlal Nehru Stadium, Delhi - DPCC",23-06-2024 19:00:00,28.580280,77.233829,CO,42,64,46
India,Delhi,Delhi,"Lodhi Road, Delhi - IMD",23-06-2024 19:00:00,28.5918245,77.2273074,NO2,3,5,4
India,Delhi,Delhi,"Major Dhyan Chand National Stadium, Delhi - DPCC",23-06-2024 19:00:00,28.611281,77.237738,PM10,78,146,114
India,Delhi,Delhi,"Major Dhyan Chand National Stadium, Delhi - DPCC",23-06-2024 19:00:00,28.611281,77.237738,NH3,NA,NA,NA
India,Delhi,Delhi,"Mandir Marg, Delhi - DPCC",23-06-2024 19:00:00,28.636429,77.201067,OZONE,17,88,71
India,Delhi,Delhi,"Mundka, Delhi - DPCC",23-06-2024 19:00:00,28.684678,77.076574,PM10,115,209,141
India,Delhi,Delhi,"Mundka, Delhi - DPCC",23-06-2024 19:00:00,28.684678,77.076574,NH3,11,28,17
India,Delhi,Delhi,"NSIT Dwarka, Delhi - CPCB",23-06-2024 19:00:00,28.60909,77.0325413,NO2,17,35,25
India,Delhi,Delhi,"NSIT Dwarka, Delhi - CPCB",23-06-2024 19:00:00,28.60909,77.0325413,SO2,10,20,16
India,Delhi,Delhi,"Narela, Delhi - DPCC",23-06-2024 19:00:00,28.822836,77.101981,PM2.5,79,248,141
India,Delhi,Delhi,"Nehru Nagar, Delhi - DPCC",23-06-2024 19:00:00,28.567890,77.250515,PM10,100,153,123
India,Delhi,Delhi,"Nehru Nagar, Delhi - DPCC",23-06-2024 19:00:00,28.567890,77.250515,OZONE,7,87,66
India,Delhi,Delhi,"New Moti Bagh, Delhi - MHUA",23-06-2024 19:00:00,28.57834,77.18400,NO2,7,17,12
India,Delhi,Delhi,"North Campus, DU, Delhi - IMD",23-06-2024 19:00:00,28.6573814,77.1585447,PM10,87,137,106
India,Delhi,Delhi,"North Campus, DU, Delhi - IMD",23-06-2024 19:00:00,28.6573814,77.1585447,CO,38,56,42
India,Delhi,Delhi,"Okhla Phase-2, Delhi - DPCC",23-06-2024 19:00:00,28.530785,77.271255,SO2,5,11,7
India,Delhi,Delhi,"Okhla Phase-2, Delhi - DPCC",23-06-2024 19:00:00,28.530785,77.271255,CO,12,107,51
India,Delhi,Delhi,"Punjabi Bagh, Delhi - DPCC",23-06-2024 19:00:00,28.674045,77.131023,NO2,12,48,30
India,Delhi,Delhi,"Punjabi Bagh, Delhi - DPCC",23-06-2024 19:00:00,28.674045,77.131023,OZONE,12,101,75
India,Delhi,Delhi,"Pusa, Delhi - IMD",23-06-2024 19:00:00,28.636110,77.173332,PM2.5,38,250,103
India,Delhi,Delhi,"Pusa, Delhi - IMD",23-06-2024 19:00:00,28.636110,77.173332,PM10,78,139,107
India,Delhi,Delhi,"Rohini, Delhi - DPCC",23-06-2024 19:00:00,28.732528,77.119920,PM10,118,268,167
India,Delhi,Delhi,"Rohini, Delhi - DPCC",23-06-2024 19:00:00,28.732528,77.119920,CO,28,52,29
India,Delhi,Delhi,"Shadipur, Delhi - CPCB",23-06-2024 19:00:00,28.6514781,77.1473105,OZONE,10,43,30
India,Delhi,Delhi,"Sirifort, Delhi - CPCB",23-06-2024 19:00:00,28.5504249,77.2159377,NO2,38,65,54
India,Delhi,Delhi,"Sirifort, Delhi - CPCB",23-06-2024 19:00:00,28.5504249,77.2159377,SO2,36,56,50
India,Delhi,Delhi,"Sirifort, Delhi - CPCB",23-06-2024 19:00:00,28.5504249,77.2159377,CO,20,63,28
India,Delhi,Delhi,"Sirifort, Delhi - CPCB",23-06-2024 19:00:00,28.5504249,77.2159377,OZONE,6,74,38
India,Delhi,Delhi,"Sonia Vihar, Delhi - DPCC",23-06-2024 19:00:00,28.710508,77.249485,NO2,21,59,38
India,Delhi,Delhi,"Vivek Vihar, Delhi - DPCC",23-06-2024 19:00:00,28.672342,77.315260,PM10,93,168,126
India,Delhi,Delhi,"Vivek Vihar, Delhi - DPCC",23-06-2024 19:00:00,28.672342,77.315260,CO,64,86,70
India,Delhi,Delhi,"Wazirpur, Delhi - DPCC",23-06-2024 19:00:00,28.699793,77.165453,PM2.5,NA,NA,NA
India,Delhi,Delhi,"Wazirpur, Delhi - DPCC",23-06-2024 19:00:00,28.699793,77.165453,PM10,101,230,155
India,Delhi,Delhi,"Wazirpur, Delhi - DPCC",23-06-2024 19:00:00,28.699793,77.165453,NO2,34,102,58
India,Delhi,Delhi,"Wazirpur, Delhi - DPCC",23-06-2024 19:00:00,28.699793,77.165453,CO,12,73,29
India,Gujarat,Ahmedabad,"Gyaspur, Ahmedabad - IITM",23-06-2024 19:00:00,22.977134,72.553024,PM2.5,78,324,167
India,Gujarat,Ahmedabad,"Gyaspur, Ahmedabad - IITM",23-06-2024 19:00:00,22.977134,72.553024,NH3,4,8,5
India,Gujarat,Ahmedabad,"Maninagar, Ahmedabad - GPCB",23-06-2024 19:00:00,23.002657,72.591912,CO,NA,NA,NA
India,Gujarat,Ahmedabad,"Raikhad, Ahmedabad - IITM",23-06-2024 19:00:00,23.020509,72.579261,PM10,NA,NA,NA
India,Gujarat,Ahmedabad,"Raikhad, Ahmedabad - IITM",23-06-2024 19:00:00,23.020509,72.579261,NH3,NA,NA,NA
India,Gujarat,Ahmedabad,"Rakhial, Ahmedabad - IITM",23-06-2024 19:00:00,23.016834,72.625775,PM10,43,134,77
India,Gujarat,Ankleshwar,"GIDC, Ankleshwar - GPCB",23-06-2024 19:00:00,21.613267,73.010555,PM10,39,90,63
India,Gujarat,Ankleshwar,"GIDC, Ankleshwar - GPCB",23-06-2024 19:00:00,21.613267,73.010555,SO2,1,76,28
India,Gujarat,Ankleshwar,"GIDC, Ankleshwar - GPCB",23-06-2024 19:00:00,21.613267,73.010555,CO,46,109,90
India,Gujarat,Gandhinagar,"GIFT City, Gandhinagar - IITM",23-06-2024 19:00:00,23.163798,72.677768,NH3,7,8,8
India,Gujarat,Gandhinagar,"Sector-10, Gandhinagar - GPCB",23-06-2024 19:00:00,23.221714,72.654328,PM2.5,31,68,52
India,Gujarat,Gandhinagar,"Sector-10, Gandhinagar - GPCB",23-06-2024 19:00:00,23.221714,72.654328,NH3,2,2,2
India,Gujarat,Gandhinagar,"Sector-10, Gandhinagar - GPCB",23-06-2024 19:00:00,23.221714,72.654328,OZONE,19,20,19
India,Gujarat,Nandesari,"GIDC, Nandesari - Nandesari Ind. Association",23-06-2024 19:00:00,22.410802,73.097923,PM10,76,229,130
India,Gujarat,Surat,"Science Center, Surat - SMC",23-06-2024 19:00:00,21.170046,72.795405,PM10,NA,NA,NA
India,Gujarat,Surat,"Science Center, Surat - SMC",23-06-2024 19:00:00,21.170046,72.795405,SO2,11,13,12
India,Gujarat,Surat,"Science Center, Surat - SMC",23-06-2024 19:00:00,21.170046,72.795405,CO,66,83,78
India,Gujarat,Vapi,"Phase-1 GIDC, Vapi - GPCB",23-06-2024 19:00:00,20.362421,72.918013,PM10,28,95,49
India,Gujarat,Vatva,"Phase-4 GIDC, Vatva - GPCB",23-06-2024 19:00:00,22.969611,72.643500,PM2.5,17,54,35
India,Gujarat,Vatva,"Phase-4 GIDC, Vatva - GPCB",23-06-2024 19:00:00,22.969611,72.643500,NO2,36,131,65
India,Gujarat,Vatva,"Phase-4 GIDC, Vatva - GPCB",23-06-2024 19:00:00,22.969611,72.643500,CO,NA,NA,NA
India,Haryana,Ambala,"Patti Mehar, Ambala - HSPCB",23-06-2024 19:00:00,30.379589,76.778328,PM2.5,15,39,25
India,Haryana,Ambala,"Patti Mehar, Ambala - HSPCB",23-06-2024 19:00:00,30.379589,76.778328,CO,30,59,43
India,Haryana,Bahadurgarh,"Arya Nagar, Bahadurgarh - HSPCB",23-06-2024 19:00:00,28.6701,76.9254,NO2,19,25,22
India,Haryana,Ballabgarh,"Nathu Colony, Ballabgarh - HSPCB",23-06-2024 19:00:00,28.3419248,77.319699,PM2.5,NA,NA,NA
India,Haryana,Ballabgarh,"Nathu Colony, Ballabgarh - HSPCB",23-06-2024 19:00:00,28.3419248,77.319699,PM10,NA,NA,NA
India,Haryana,Charkhi Dadri,"Mini Secretariat, Charkhi Dadri - HSPCB",23-06-2024 19:00:00,28.593883,76.270653,NO2,14,23,18
India,Haryana,Charkhi Dadri,"Mini Secretariat, Charkhi Dadri - HSPCB",23-06-2024 19:00:00,28.593883,76.270653,SO2,11,27,20
India,Haryana,Dharuhera,"Municipal Corporation Office, Dharuhera -  HSPCB",23-06-2024 19:00:00,28.206800,76.799700,NO2,NA,NA,NA
India,Haryana,Faridabad,"Sector 30, Faridabad - HSPCB",23-06-2024 19:00:00,28.4417,77.3217,PM10,NA,NA,NA
India,Haryana,Fatehabad,"Huda Sector, Fatehabad - HSPCB",23-06-2024 19:00:00,29.503664,75.467934,PM2.5,3,211,66
India,Haryana,Fatehabad,"Huda Sector, Fatehabad - HSPCB",23-06-2024 19:00:00,29.503664,75.467934,NH3,10,10,10
India,Haryana,Gurugram,"Sector-51, Gurugram - HSPCB",23-06-2024 19:00:00,28.4227,77.0667,PM2.5,77,192,101
India,Haryana,Gurugram,"Sector-51, Gurugram - HSPCB",23-06-2024 19:00:00,28.4227,77.0667,NO2,13,29,23
India,Haryana,Gurugram,"Vikas Sadan, Gurugram - HSPCB",23-06-2024 19:00:00,28.4501238,77.0263051,SO2,9,118,53
India,Haryana,Hisar,"Urban Estate-II, Hisar - HSPCB",23-06-2024 19:00:00,29.140560,75.744941,NO2,9,11,10
India,Haryana,Karnal,"Sector-12, Karnal - HSPCB",23-06-2024 19:00:00,29.695300,77.002700,NO2,7,12,10
India,Haryana,Karnal,"Sector-12, Karnal - HSPCB",23-06-2024 19:00:00,29.695300,77.002700,SO2,12,13,12
India,Haryana,Kurukshetra,"Sector-7, Kurukshetra - HSPCB",23-06-2024 19:00:00,29.966942,76.875879,NO2,10,10,10
India,Haryana,Mandikhera,"General Hospital, Mandikhera - HSPCB",23-06-2024 19:00:00,27.9002,76.9938,PM2.5,11,94,32
India,Haryana,Manesar,"Sector-2 IMT, Manesar - HSPCB",23-06-2024 19:00:00,28.360699,76.936090,PM2.5,51,362,139
India,Haryana,Manesar,"Sector-2 IMT, Manesar - HSPCB",23-06-2024 19:00:00,28.360699,76.936090,OZONE,12,71,48
India,Haryana,Narnaul,"Shastri Nagar, Narnaul - HSPCB",23-06-2024 19:00:00,28.060249,76.113115,PM2.5,40,89,55
India,Haryana,Narnaul,"Shastri Nagar, Narnaul - HSPCB",23-06-2024 19:00:00,28.060249,76.113115,PM10,40,89,55
India,Haryana,Narnaul,"Shastri Nagar, Narnaul - HSPCB",23-06-2024 19:00:00,28.060249,76.113115,CO,10,29,18
India,Haryana,Panchkula,"Sector-6, Panchkula - HSPCB ",23-06-2024 19:00:00,30.7057778,76.8531805555555,PM2.5,94,270,167
India,Haryana,Panipat,"Sector-18, Panipat - HSPCB",23-06-2024 19:00:00,29.432304,76.972765,PM2.5,117,123,120
India,Haryana,Panipat,"Sector-18, Panipat - HSPCB",23-06-2024 19:00:00,29.432304,76.972765,CO,24,26,25
India,Haryana,Panipat,"Sector-18, Panipat - HSPCB",23-06-2024 19:00:00,29.432304,76.972765,OZONE,30,30,30
India,Haryana,Sirsa,"F-Block, Sirsa - HSPCB",23-06-2024 19:00:00,29.536400,75.015800,PM10,87,91,90
India,Haryana,Sirsa,"F-Block, Sirsa - HSPCB",23-06-2024 19:00:00,29.536400,75.015800,NH3,12,13,12
India,Haryana,Sirsa,"F-Block, Sirsa - HSPCB",23-06-2024 19:00:00,29.536400,75.015800,OZONE,23,51,41
India,Haryana,Sonipat,"Murthal, Sonipat - HSPCB",23-06-2024 19:00:00,29.027200,77.062100,PM2.5,10,369,79
India,Haryana,Sonipat,"Murthal, Sonipat - HSPCB",23-06-2024 19:00:00,29.027200,77.062100,NO2,37,44,39
India,Haryana,Yamuna Nagar,"Gobind Pura, Yamuna Nagar - HSPCB",23-06-2024 19:00:00,30.1480566,77.2893471,CO,NA,NA,NA
India,Karnataka,Bagalkot,"Vidayagiri, Bagalkot - KSPCB",23-06-2024 19:00:00,16.172806,75.659694,PM2.5,25,37,36
India,Karnataka,Bagalkot,"Vidayagiri, Bagalkot - KSPCB",23-06-2024 19:00:00,16.172806,75.659694,CO,28,51,43
India,Karnataka,Belgaum,"Ramteerth Nagar, Belgaum - KSPCB",23-06-2024 19:00:00,15.888653,74.541751,NH3,3,10,8
India,Karnataka,Bengaluru,"Bapuji Nagar, Bengaluru - KSPCB",23-06-2024 19:00:00,12.951913,77.539784,NO2,14,16,15
India,Karnataka,Bengaluru,"Hebbal, Bengaluru - KSPCB",23-06-2024 19:00:00,13.029152,77.585901,PM2.5,5,25,13
India,Karnataka,Bengaluru,"Hebbal, Bengaluru - KSPCB",23-06-2024 19:00:00,13.029152,77.585901,NH3,NA,NA,NA
India,Karnataka,Bengaluru,"Hebbal, Bengaluru - KSPCB",23-06-2024 19:00:00,13.029152,77.585901,OZONE,8,95,27
India,Karnataka,Bengaluru,"Hombegowda Nagar, Bengaluru - KSPCB",23-06-2024 19:00:00,12.938539,77.590100,PM10,13,34,20
India,Karnataka,Bengaluru,"Hombegowda Nagar, Bengaluru - KSPCB",23-06-2024 19:00:00,12.938539,77.590100,SO2,3,4,4
India,Karnataka,Bengaluru,"Jayanagar 5th Block, Bengaluru - KSPCB",23-06-2024 19:00:00,12.920984,77.584908,OZONE,14,16,15
India,Karnataka,Bengaluru,"Jigani, Bengaluru - KSPCB",23-06-2024 19:00:00,12.7816279,77.6299145,PM10,27,48,40
India,Karnataka,Bengaluru,"Jigani, Bengaluru - KSPCB",23-06-2024 19:00:00,12.7816279,77.6299145,OZONE,26,31,29
India,Karnataka,Bengaluru,"Peenya, Bengaluru - CPCB",23-06-2024 19:00:00,13.0270199,77.494094,SO2,13,16,15
India,Karnataka,Bengaluru,"RVCE-Mailasandra, Bengaluru - KSPCB",23-06-2024 19:00:00,12.921418,77.502466,OZONE,39,39,39
India,Karnataka,Bengaluru,"Shivapura_Peenya, Bengaluru - KSPCB",23-06-2024 19:00:00,13.0246342,77.5080115,NO2,15,16,16
India,Karnataka,Bengaluru,"Shivapura_Peenya, Bengaluru - KSPCB",23-06-2024 19:00:00,13.0246342,77.5080115,NH3,4,4,4
India,Karnataka,Bengaluru,"Shivapura_Peenya, Bengaluru - KSPCB",23-06-2024 19:00:00,13.0246342,77.5080115,OZONE,53,56,54
India,Karnataka,Chamarajanagar,"Urban, Chamarajanagar - KSPCB",23-06-2024 19:00:00,11.55358,76.55521,NO2,23,29,28
India,Karnataka,Chikkamagaluru,"Kalyana Nagara, Chikkamagaluru - KSPCB",23-06-2024 19:00:00,13.328028,75.797056,NO2,13,28,22
India,Karnataka,Davanagere,"Devaraj Urs Badavane, Davanagere - KSPCB",23-06-2024 19:00:00,14.475800,75.905200,PM2.5,4,32,19
India,Karnataka,Davanagere,"Devaraj Urs Badavane, Davanagere - KSPCB",23-06-2024 19:00:00,14.475800,75.905200,OZONE,21,23,22
India,Karnataka,Gadag,"Panchal Nagar, Gadag - KSPCB",23-06-2024 19:00:00,15.411456,75.638133,NO2,8,25,15
India,Karnataka,Haveri,"Ashwini Nagar, Haveri - KSPCB",23-06-2024 19:00:00,14.791800,75.389600,PM2.5,9,31,19
India,Karnataka,Haveri,"Ashwini Nagar, Haveri - KSPCB",23-06-2024 19:00:00,14.791800,75.389600,SO2,NA,NA,NA
India,Karnataka,Haveri,"Ashwini Nagar, Haveri - KSPCB",23-06-2024 19:00:00,14.791800,75.389600,OZONE,29,41,40
India,Karnataka,Hubballi,"Lingaraj Nagar, Hubballi - KSPCB",23-06-2024 19:00:00,15.3714823,75.1160168,NO2,6,17,10
India,Karnataka,Hubballi,"Lingaraj Nagar, Hubballi - KSPCB",23-06-2024 19:00:00,15.3714823,75.1160168,SO2,1,4,2
India,Karnataka,Hubballi,"Lingaraj Nagar, Hubballi - KSPCB",23-06-2024 19:00:00,15.3714823,75.1160168,CO,1,13,5
India,Karnataka,Kalaburagi,"Mahatma Basaveswar Colony, Kalaburgi - KSPCB",23-06-2024 19:00:00,17.336318,76.847397,CO,28,34,30
India,Karnataka,Koppal,"Diwator Nagar, Koppal - KSPCB",23-06-2024 19:00:00,15.347630,76.181767,SO2,30,30,30
India,Karnataka,Koppal,"Diwator Nagar, Koppal - KSPCB",23-06-2024 19:00:00,15.347630,76.181767,CO,4,4,4
India,Karnataka,Koppal,"Diwator Nagar, Koppal - KSPCB",23-06-2024 19:00:00,15.347630,76.181767,OZONE,10,20,17
India,Karnataka,Madikeri,"Stuart Hill, Madikeri - KSPCB",23-06-2024 19:00:00,12.415911,75.735050,PM10,10,29,18
India,Karnataka,Madikeri,"Stuart Hill, Madikeri - KSPCB",23-06-2024 19:00:00,12.415911,75.735050,SO2,4,4,4
India,Karnataka,Mangalore,"Kadri, Mangalore - KSPCB",23-06-2024 19:00:00,12.889250,74.853000,PM10,34,59,47
India,Karnataka,Mangalore,"Kadri, Mangalore - KSPCB",23-06-2024 19:00:00,12.889250,74.853000,NH3,2,2,2
India,Karnataka,Mangalore,"Kadri, Mangalore - KSPCB",23-06-2024 19:00:00,12.889250,74.853000,SO2,10,10,10
India,Karnataka,Mysuru,"Hebbal 1st Stage, Mysuru - KSPCB",23-06-2024 19:00:00,12.21041,76.37376,NO2,9,36,21
India,Karnataka,Mysuru,"Hebbal 1st Stage, Mysuru - KSPCB",23-06-2024 19:00:00,12.21041,76.37376,SO2,1,3,2
India,Karnataka,Raichur,"Haji Colony, Raichur - KSPCB",23-06-2024 19:00:00,16.208139,77.348417,NO2,10,22,16
India,Karnataka,Ramanagara,"Vijay Nagar, Ramanagara - KSPCB",23-06-2024 19:00:00,12.733409,77.298051,PM2.5,2,45,17
India,Karnataka,Shivamogga,"Vinoba Nagara, Shivamogga - KSPCB",23-06-2024 19:00:00,13.940000,75.555917,PM2.5,31,51,40
India,Karnataka,Shivamogga,"Vinoba Nagara, Shivamogga - KSPCB",23-06-2024 19:00:00,13.940000,75.555917,SO2,2,8,4
India,Karnataka,Tumakuru,"Thimmalapura, Tumakuru - KSPCB",23-06-2024 19:00:00,13.377516,77.099072,PM2.5,19,45,29
India,Karnataka,Tumakuru,"Thimmalapura, Tumakuru - KSPCB",23-06-2024 19:00:00,13.377516,77.099072,PM10,45,414,106
India,Karnataka,Tumakuru,"Thimmalapura, Tumakuru - KSPCB",23-06-2024 19:00:00,13.377516,77.099072,CO,28,34,31
India,Karnataka,Udupi,"Brahmagiri, Udupi - KSPCB",23-06-2024 19:00:00,13.34194444,74.74694444,OZONE,23,23,23
India,Karnataka,Vijayapura,"Ibrahimpur, Vijayapura - KSPCB",23-06-2024 19:00:00,16.802639,75.722694,PM2.5,26,31,30
India,Kerala,Eloor,"Udyogamandal, Eloor - Kerala PCB",23-06-2024 19:00:00,10.073232,76.302765,NH3,NA,NA,NA
India,Kerala,Eloor,"Udyogamandal, Eloor - Kerala PCB",23-06-2024 19:00:00,10.073232,76.302765,CO,7,56,49
India,Kerala,Kannur,"Thavakkara, Kannur - Kerala PCB",23-06-2024 19:00:00,11.875000,75.373200,PM2.5,39,48,44
India,Kerala,Kannur,"Thavakkara, Kannur - Kerala PCB",23-06-2024 19:00:00,11.875000,75.373200,OZONE,29,30,29
India,Kerala,Kollam,"Polayathode, Kollam - Kerala PCB",23-06-2024 19:00:00,8.8787,76.6073,PM2.5,10,74,40
India,Kerala,Kollam,"Polayathode, Kollam - Kerala PCB",23-06-2024 19:00:00,8.8787,76.6073,PM10,29,67,46
India,Kerala,Kollam,"Polayathode, Kollam - Kerala PCB",23-06-2024 19:00:00,8.8787,76.6073,NO2,8,9,8
India,Kerala,Kollam,"Polayathode, Kollam - Kerala PCB",23-06-2024 19:00:00,8.8787,76.6073,CO,14,17,16
India,Kerala,Kollam,"Polayathode, Kollam - Kerala PCB",23-06-2024 19:00:00,8.8787,76.6073,OZONE,29,34,33
India,Kerala,Thiruvananthapuram,"Kariavattom, Thiruvananthapuram - Kerala PCB",23-06-2024 19:00:00,8.563700,76.886500,PM10,51,60,56
India,Kerala,Thiruvananthapuram,"Kariavattom, Thiruvananthapuram - Kerala PCB",23-06-2024 19:00:00,8.563700,76.886500,CO,18,45,26
India,Kerala,Thiruvananthapuram,"Plammoodu, Thiruvananthapuram - Kerala PCB",23-06-2024 19:00:00,8.5149093,76.9435879,PM2.5,NA,NA,NA
India,Kerala,Thiruvananthapuram,"Plammoodu, Thiruvananthapuram - Kerala PCB",23-06-2024 19:00:00,8.5149093,76.9435879,PM10,2,20,10
India,Kerala,Thiruvananthapuram,"Plammoodu, Thiruvananthapuram - Kerala PCB",23-06-2024 19:00:00,8.5149093,76.9435879,SO2,6,15,10
India,Madhya Pradesh,Bhopal,"Idgah Hills, Bhopal - MPPCB",23-06-2024 19:00:00,23.264759,77.381568,PM10,22,86,50
India,Madhya Pradesh,Bhopal,"Idgah Hills, Bhopal - MPPCB",23-06-2024 19:00:00,23.264759,77.381568,NO2,7,55,19
India,Madhya Pradesh,Bhopal,"Idgah Hills, Bhopal - MPPCB",23-06-2024 19:00:00,23.264759,77.381568,SO2,9,11,10
India,Madhya Pradesh,Bhopal,"Paryavaran Parisar, Bhopal - MPPCB",23-06-2024 19:00:00,23.210494,77.425409,CO,10,59,30
India,Madhya Pradesh,Bhopal,"T T Nagar, Bhopal - MPPCB",23-06-2024 19:00:00,23.233584,77.400574,OZONE,2,27,21
India,Madhya Pradesh,Gwalior,"City Center, Gwalior - MPPCB",23-06-2024 19:00:00,26.203442,78.193251,NH3,2,2,2
India,Madhya Pradesh,Gwalior,"Deen Dayal Nagar, Gwalior - MPPCB",23-06-2024 19:00:00,26.259242,78.216432,NH3,2,18,7
India,Madhya Pradesh,Gwalior,"Maharaj Bada, Gwalior - MPPCB",23-06-2024 19:00:00,26.200388,78.147714,OZONE,32,98,85
India,Madhya Pradesh,Gwalior,"Phool Bagh, Gwalior - Mondelez Ind. Food",23-06-2024 19:00:00,26.210536,78.171,PM2.5,19,80,52
India,Madhya Pradesh,Gwalior,"Phool Bagh, Gwalior - Mondelez Ind. Food",23-06-2024 19:00:00,26.210536,78.171,PM10,21,89,57
India,Madhya Pradesh,Indore,"Chhoti Gwaltoli, Indore - MPPCB",23-06-2024 19:00:00,22.4310,75.5213,PM10,32,86,64
India,Madhya Pradesh,Indore,"Chhoti Gwaltoli, Indore - MPPCB",23-06-2024 19:00:00,22.4310,75.5213,OZONE,27,86,79
India,Madhya Pradesh,Indore,"Maguda Nagar, Indore - IMC",23-06-2024 19:00:00,22.7524,75.8872,PM10,NA,NA,NA
India,Madhya Pradesh,Indore,"Maguda Nagar, Indore - IMC",23-06-2024 19:00:00,22.7524,75.8872,CO,NA,NA,NA
India,Madhya Pradesh,Indore,"Regional Park, Indore - IMC",23-06-2024 19:00:00,22.6780,75.8559,OZONE,7,11,11
India,Madhya Pradesh,Jabalpur,"Govindh Bhavan Colony, Jabalpur - JMC",23-06-2024 19:00:00,23.163174,79.973061,SO2,NA,NA,NA
India,Madhya Pradesh,Jabalpur,"Gupteshwar, Jabalpur - JMC",23-06-2024 19:00:00,23.142888,79.916147,NH3,4,5,4
India,Madhya Pradesh,Jabalpur,"Gupteshwar, Jabalpur - JMC",23-06-2024 19:00:00,23.142888,79.916147,SO2,2,4,3
India,Madhya Pradesh,Katni,"Gole Bazar, Katni - MPPCB",23-06-2024 19:00:00,23.50016,80.23284,PM10,45,95,65
India,Madhya Pradesh,Katni,"Gole Bazar, Katni - MPPCB",23-06-2024 19:00:00,23.50016,80.23284,OZONE,5,43,32
India,Madhya Pradesh,Mandideep,"Sector-D Industrial Area, Mandideep - MPPCB",23-06-2024 19:00:00,23.108440,77.511428,SO2,6,104,24
India,Madhya Pradesh,Mandideep,"Sector-D Industrial Area, Mandideep - MPPCB",23-06-2024 19:00:00,23.108440,77.511428,OZONE,30,245,103
India,Madhya Pradesh,Pithampur,"Sector-2 Industrial Area, Pithampur - MPPCB",23-06-2024 19:00:00,22.624758,75.675238,PM2.5,30,75,48
India,Madhya Pradesh,Ratlam,"Shasthri Nagar, Ratlam - IPCA Lab",23-06-2024 19:00:00,23.331731,75.045981,SO2,28,29,29
India,Madhya Pradesh,Sagar,"Civil Lines, Sagar - MPPCB",23-06-2024 19:00:00,23.838586,78.759431,NO2,10,27,14
India,Madhya Pradesh,Sagar,"Civil Lines, Sagar - MPPCB",23-06-2024 19:00:00,23.838586,78.759431,NH3,5,7,6
India,Madhya Pradesh,Sagar,"Deen Dayal Nagar, Sagar - MPPCB",23-06-2024 19:00:00,23.8640158,78.80289321,SO2,12,14,13
India,Madhya Pradesh,Satna,"Bandhavgar Colony, Satna - Birla Cement",23-06-2024 19:00:00,24.58434363,80.8549414,PM10,29,43,35
India,Madhya Pradesh,Satna,"Bandhavgar Colony, Satna - Birla Cement",23-06-2024 19:00:00,24.58434363,80.8549414,NO2,14,46,24
India,Madhya Pradesh,Satna,"Bandhavgar Colony, Satna - Birla Cement",23-06-2024 19:00:00,24.58434363,80.8549414,SO2,1,2,2
India,Madhya Pradesh,Singrauli,"Suryakiran Bhawan NCL, Singrauli - MPPCB",23-06-2024 19:00:00,24.108970,82.645580,PM2.5,8,192,61
India,Madhya Pradesh,Singrauli,"Suryakiran Bhawan NCL, Singrauli - MPPCB",23-06-2024 19:00:00,24.108970,82.645580,NH3,3,6,4
India,Madhya Pradesh,Singrauli,"Suryakiran Bhawan NCL, Singrauli - MPPCB",23-06-2024 19:00:00,24.108970,82.645580,CO,57,120,68
India,Madhya Pradesh,Ujjain,"Mahakaleshwar Temple, Ujjain - MPPCB",23-06-2024 19:00:00,23.182719 ,75.768218 ,NH3,5,6,5
India,Maharashtra,Ahmednagar,"Tarakpur, Ahmednagar - MPCB",23-06-2024 19:00:00,19.10122,74.73339,NH3,NA,NA,NA
India,Maharashtra,Akola,"Ramdaspeth, Akola - MPCB",23-06-2024 19:00:00,20.719516,77.000253,PM2.5,29,85,50
India,Maharashtra,Akola,"Ramdaspeth, Akola - MPCB",23-06-2024 19:00:00,20.719516,77.000253,PM10,30,103,52
India,Maharashtra,Akola,"Ramdaspeth, Akola - MPCB",23-06-2024 19:00:00,20.719516,77.000253,NO2,7,33,16
India,Maharashtra,Amravati,"Shivneri Colony, Amravati - MPCB",23-06-2024 19:00:00,20.9402359,77.7895248,NO2,5,22,10
India,Maharashtra,Amravati,"Shivneri Colony, Amravati - MPCB",23-06-2024 19:00:00,20.9402359,77.7895248,NH3,3,5,4
India,Maharashtra,Amravati,"Shivneri Colony, Amravati - MPCB",23-06-2024 19:00:00,20.9402359,77.7895248,SO2,1,17,2
India,Maharashtra,Aurangabad,"MIDC Chilkalthana, Aurangabad - MPCB",23-06-2024 19:00:00,19.875620,75.387310,PM10,43,84,63
India,Maharashtra,Aurangabad,"MIDC Chilkalthana, Aurangabad - MPCB",23-06-2024 19:00:00,19.875620,75.387310,NO2,NA,NA,NA
India,Maharashtra,Aurangabad,"MIDC Chilkalthana, Aurangabad - MPCB",23-06-2024 19:00:00,19.875620,75.387310,CO,22,112,26
India,Maharashtra,Aurangabad,"More Chowk Waluj, Aurangabad - MPCB",23-06-2024 19:00:00,19.8389439,75.244448,PM10,23,61,38
India,Maharashtra,Chandrapur,"Chauhan Colony, Chandrapur - MPCB",23-06-2024 19:00:00,19.962900,79.298714,PM2.5,2,40,19
India,Maharashtra,Chandrapur,"MIDC Khutala, Chandrapur - MPCB",23-06-2024 19:00:00,19.9775302,79.2337086,PM2.5,NA,NA,NA
India,Maharashtra,Chandrapur,"MIDC Khutala, Chandrapur - MPCB",23-06-2024 19:00:00,19.9775302,79.2337086,PM10,NA,NA,NA
India,Maharashtra,Jalna,"Old MIDC, Jalna - MPCB",23-06-2024 19:00:00,19.854616,75.905894,PM2.5,63,176,95
India,Maharashtra,Kalyan,"Khadakpada, Kalyan - MPCB",23-06-2024 19:00:00,19.25292,73.142019,SO2,24,41,31
India,Maharashtra,Kolhapur,"Shivaji University, Kolhapur - MPCB",23-06-2024 19:00:00,16.6870449,74.2505872,PM10,36,91,58
India,Maharashtra,Kolhapur,"Shivaji University, Kolhapur - MPCB",23-06-2024 19:00:00,16.6870449,74.2505872,CO,6,28,14
India,Maharashtra,Kolhapur,"Sinchan Bhavan, Kolhapur - MPCB",23-06-2024 19:00:00,16.7143745,74.2426398,NH3,7,8,8
India,Maharashtra,Kolhapur,"Sinchan Bhavan, Kolhapur - MPCB",23-06-2024 19:00:00,16.7143745,74.2426398,OZONE,17,45,40
India,Maharashtra,Latur,"Sawe Wadi, Latur - MPCB",23-06-2024 19:00:00,18.39963,76.57452,NO2,NA,NA,NA
India,Maharashtra,Latur,"Sawe Wadi, Latur - MPCB",23-06-2024 19:00:00,18.39963,76.57452,NH3,16,18,17
India,Maharashtra,Latur,"Sawe Wadi, Latur - MPCB",23-06-2024 19:00:00,18.39963,76.57452,CO,4,68,10
India,Maharashtra,Malegaon,"Mahesh Nagar, Malegaon - MPCB",23-06-2024 19:00:00,20.555712,74.529236,SO2,6,23,16
India,Maharashtra,Mira-Bhayandar,"Bhayandar West, Mira-Bhayandar - MPCB",23-06-2024 19:00:00,19.296481,72.840923,PM2.5,21,56,39
India,Maharashtra,Mira-Bhayandar,"Bhayandar West, Mira-Bhayandar - MPCB",23-06-2024 19:00:00,19.296481,72.840923,SO2,2,4,3
India,Maharashtra,Mumbai,"Borivali East, Mumbai - IITM",23-06-2024 19:00:00,19.23241,72.86895,PM2.5,20,40,33
India,Maharashtra,Mumbai,"Byculla, Mumbai - BMC",23-06-2024 19:00:00,18.9767,72.8380,PM10,27,58,40
India,Maharashtra,Mumbai,"Byculla, Mumbai - BMC",23-06-2024 19:00:00,18.9767,72.8380,NO2,23,25,24
India,Maharashtra,Mumbai,"Byculla, Mumbai - BMC",23-06-2024 19:00:00,18.9767,72.8380,CO,7,48,9
India,Maharashtra,Mumbai,"Chakala-Andheri East, Mumbai - IITM",23-06-2024 19:00:00,19.11074,72.86084,PM10,42,120,83
India,Maharashtra,Mumbai,"Chembur, Mumbai - MPCB",23-06-2024 19:00:00,19.0364585,72.8954371,PM10,35,327,69
India,Maharashtra,Mumbai,"Chembur, Mumbai - MPCB",23-06-2024 19:00:00,19.0364585,72.8954371,NO2,14,63,36
India,Maharashtra,Mumbai,"Chembur, Mumbai - MPCB",23-06-2024 19:00:00,19.0364585,72.8954371,SO2,1,7,1
India,Maharashtra,Mumbai,"Chembur, Mumbai - MPCB",23-06-2024 19:00:00,19.0364585,72.8954371,OZONE,7,191,84
India,Maharashtra,Mumbai,"Chhatrapati Shivaji Intl. Airport (T2), Mumbai - MPCB",23-06-2024 19:00:00,19.10078,72.87462,PM2.5,22,68,43
India,Maharashtra,Mumbai,"Chhatrapati Shivaji Intl. Airport (T2), Mumbai - MPCB",23-06-2024 19:00:00,19.10078,72.87462,PM10,36,105,71
India,Maharashtra,Mumbai,"Colaba, Mumbai - MPCB",23-06-2024 19:00:00,18.910000,72.820000,PM2.5,15,78,42
India,Maharashtra,Mumbai,"Colaba, Mumbai - MPCB",23-06-2024 19:00:00,18.910000,72.820000,OZONE,10,11,10
India,Maharashtra,Mumbai,"Deonar, Mumbai - IITM",23-06-2024 19:00:00,19.04946,72.9230,NH3,NA,NA,NA
India,Maharashtra,Mumbai,"Deonar, Mumbai - IITM",23-06-2024 19:00:00,19.04946,72.9230,OZONE,NA,NA,NA
India,Maharashtra,Mumbai,"Kandivali West, Mumbai - BMC",23-06-2024 19:00:00,19.215859,72.831718,NO2,12,48,27
India,Maharashtra,Mumbai,"Kherwadi_Bandra East, Mumbai - MPCB",23-06-2024 19:00:00,19.0632143,72.8456324,PM10,51,105,83
India,Maharashtra,Mumbai,"Khindipada-Bhandup West, Mumbai - IITM",23-06-2024 19:00:00,19.1653323,72.922099,PM10,9,55,30
India,Maharashtra,Mumbai,"Mazgaon, Mumbai - IITM",23-06-2024 19:00:00,18.96702,72.84214,SO2,NA,NA,NA
India,Maharashtra,Mumbai,"Mindspace-Malad West, Mumbai - MPCB",23-06-2024 19:00:00,19.1878657,72.8304069,OZONE,5,21,16
India,Maharashtra,Mumbai,"Mulund West, Mumbai - MPCB",23-06-2024 19:00:00,19.1750,72.9419,PM2.5,16,35,26
India,Maharashtra,Mumbai,"Navy Nagar-Colaba, Mumbai - IITM",23-06-2024 19:00:00,18.897756,72.813320,PM10,35,65,51
India,Maharashtra,Mumbai,"Powai, Mumbai - MPCB",23-06-2024 19:00:00,19.137500,72.915056,PM10,NA,NA,NA
India,Maharashtra,Mumbai,"Powai, Mumbai - MPCB",23-06-2024 19:00:00,19.137500,72.915056,SO2,14,16,15
India,Maharashtra,Mumbai,"Sewri, Mumbai - BMC",23-06-2024 19:00:00,19.000084,72.856730,PM10,24,58,42
India,Maharashtra,Mumbai,"Sion, Mumbai - MPCB",23-06-2024 19:00:00,19.047000,72.874600,PM2.5,29,70,52
India,Maharashtra,Mumbai,"Sion, Mumbai - MPCB",23-06-2024 19:00:00,19.047000,72.874600,PM10,37,108,78
India,Maharashtra,Mumbai,"Sion, Mumbai - MPCB",23-06-2024 19:00:00,19.047000,72.874600,NH3,10,27,14
India,Maharashtra,Mumbai,"Vasai West, Mumbai - MPCB",23-06-2024 19:00:00,19.383200,72.820400,NO2,26,29,27
India,Maharashtra,Mumbai,"Vasai West, Mumbai - MPCB",23-06-2024 19:00:00,19.383200,72.820400,SO2,24,25,25
India,Maharashtra,Mumbai,"Vasai West, Mumbai - MPCB",23-06-2024 19:00:00,19.383200,72.820400,OZONE,NA,NA,NA
India,Maharashtra,Mumbai,"Vile Parle West, Mumbai - MPCB",23-06-2024 19:00:00,19.10861,72.83622,OZONE,13,15,14
India,Maharashtra,Mumbai,"Worli, Mumbai - MPCB",23-06-2024 19:00:00,18.9936162,72.8128113,PM2.5,7,58,32
India,Maharashtra,Mumbai,"Worli, Mumbai - MPCB",23-06-2024 19:00:00,18.9936162,72.8128113,CO,25,28,27
India,Maharashtra,Nagpur,"Ambazari, Nagpur - MPCB",23-06-2024 19:00:00,21.121801,79.04952,NH3,2,8,3
India,Maharashtra,Nagpur,"Ambazari, Nagpur - MPCB",23-06-2024 19:00:00,21.121801,79.04952,OZONE,1,55,33
India,Maharashtra,Nagpur,"Mahal, Nagpur - MPCB",23-06-2024 19:00:00,21.14472,79.107595,PM10,33,68,50
India,Maharashtra,Nagpur,"Opp GPO Civil Lines, Nagpur - MPCB",23-06-2024 19:00:00,21.152875,79.0517531,PM2.5,23,152,57
India,Maharashtra,Nagpur,"Ram Nagar, Nagpur - MPCB",23-06-2024 19:00:00,21.143383,79.048912,OZONE,3,41,29
India,Maharashtra,Nashik,"Hirawadi, Nashik - MPCB",23-06-2024 19:00:00,20.021503,73.813844,SO2,6,20,14
India,Maharashtra,Nashik,"Hirawadi, Nashik - MPCB",23-06-2024 19:00:00,20.021503,73.813844,CO,8,48,38
India,Maharashtra,Navi Mumbai,"Kopripada-Vashi, Navi Mumbai - MPCB",23-06-2024 19:00:00,19.090337,73.014232,NO2,13,66,30
India,Maharashtra,Navi Mumbai,"Kopripada-Vashi, Navi Mumbai - MPCB",23-06-2024 19:00:00,19.090337,73.014232,CO,8,52,9
India,Maharashtra,Navi Mumbai,"Nerul, Navi Mumbai - MPCB",23-06-2024 19:00:00,19.008751,73.016620,NO2,19,48,37
India,Maharashtra,Navi Mumbai,"Nerul, Navi Mumbai - MPCB",23-06-2024 19:00:00,19.008751,73.016620,CO,13,33,18
India,Maharashtra,Navi Mumbai,"Nerul, Navi Mumbai - MPCB",23-06-2024 19:00:00,19.008751,73.016620,OZONE,18,45,24
India,Maharashtra,Navi Mumbai,"Sector-19A Nerul, Navi Mumbai - IITM",23-06-2024 19:00:00,19.044,73.0325,OZONE,1,13,9
India,Maharashtra,Navi Mumbai,"Sector-2E Kalamboli, Navi Mumbai - MPCB",23-06-2024 19:00:00,19.02579,73.10297,PM10,38,124,84
India,Maharashtra,Navi Mumbai,"Tondare-Taloja, Navi Mumbai - MPCB",23-06-2024 19:00:00,19.0630,73.1209,PM2.5,37,85,61
India,Maharashtra,Navi Mumbai,"Tondare-Taloja, Navi Mumbai - MPCB",23-06-2024 19:00:00,19.0630,73.1209,SO2,2,8,5
India,Maharashtra,Pimpri-Chinchwad,"Gavalinagar, Pimpri Chinchwad - MPCB",23-06-2024 19:00:00,18.63673,73.82487,NH3,4,4,4
India,Maharashtra,Pimpri-Chinchwad,"Gavalinagar, Pimpri Chinchwad - MPCB",23-06-2024 19:00:00,18.63673,73.82487,SO2,2,3,3
India,Maharashtra,Pimpri-Chinchwad,"Gavalinagar, Pimpri Chinchwad - MPCB",23-06-2024 19:00:00,18.63673,73.82487,CO,6,33,14
India,Maharashtra,Pimpri-Chinchwad,"Park Street Wakad, Pimpri Chinchwad - MPCB",23-06-2024 19:00:00,18.59051,73.77946,PM10,55,129,99
India,Maharashtra,Pimpri-Chinchwad,"Park Street Wakad, Pimpri Chinchwad - MPCB",23-06-2024 19:00:00,18.59051,73.77946,NO2,11,30,18
India,Maharashtra,Pimpri-Chinchwad,"Park Street Wakad, Pimpri Chinchwad - MPCB",23-06-2024 19:00:00,18.59051,73.77946,SO2,1,7,5
India,Maharashtra,Pune,"Bhosari, Pune - IITM",23-06-2024 19:00:00,18.640051,73.848956,OZONE,11,71,51
India,Maharashtra,Pune,"Bhumkar Nagar, Pune - IITM",23-06-2024 19:00:00,18.605770,73.749976,PM2.5,NA,NA,NA
India,Maharashtra,Pune,"Bhumkar Nagar, Pune - IITM",23-06-2024 19:00:00,18.605770,73.749976,NO2,NA,NA,NA
India,Maharashtra,Pune,"Hadapsar, Pune - IITM",23-06-2024 19:00:00,18.501793,73.927532,PM2.5,30,95,62
India,Maharashtra,Pune,"Karve Road, Pune - MPCB",23-06-2024 19:00:00,18.5011743,73.8165527,PM2.5,6,54,30
India,Maharashtra,Pune,"Revenue Colony-Shivajinagar, Pune - IITM",23-06-2024 19:00:00,18.530085,73.849598,PM2.5,26,71,51
India,Maharashtra,Pune,"Revenue Colony-Shivajinagar, Pune - IITM",23-06-2024 19:00:00,18.530085,73.849598,PM10,25,66,48
India,Maharashtra,Pune,"Revenue Colony-Shivajinagar, Pune - IITM",23-06-2024 19:00:00,18.530085,73.849598,SO2,8,16,12
India,Maharashtra,Pune,"Savitribai Phule Pune University, Pune - MPCB",23-06-2024 19:00:00,18.547056,73.826908,PM10,43,95,69
India,Maharashtra,Pune,"Savitribai Phule Pune University, Pune - MPCB",23-06-2024 19:00:00,18.547056,73.826908,NO2,14,25,19
India,Maharashtra,Pune,"Savitribai Phule Pune University, Pune - MPCB",23-06-2024 19:00:00,18.547056,73.826908,OZONE,3,58,41
India,Maharashtra,Pune,"Transport Nagar-Nigdi, Pune - IITM",23-06-2024 19:00:00,18.664282,73.763966,NO2,20,22,21
India,Maharashtra,Sangli,"Vijay Nagar, Sangli - MPCB",23-06-2024 19:00:00, 16.5038,74.3623,PM2.5,17,36,26
India,Maharashtra,Sangli,"Vijay Nagar, Sangli - MPCB",23-06-2024 19:00:00, 16.5038,74.3623,PM10,23,53,35
India,Maharashtra,Sangli,"Vijay Nagar, Sangli - MPCB",23-06-2024 19:00:00, 16.5038,74.3623,CO,8,20,11
India,Maharashtra,Sangli,"Vijay Nagar, Sangli - MPCB",23-06-2024 19:00:00, 16.5038,74.3623,OZONE,14,47,44
India,Maharashtra,Solapur,"Dnyaneshwar Nagar, Solapur - MPCB",23-06-2024 19:00:00,17.6336264,75.9132495,PM2.5,17,110,43
India,Maharashtra,Solapur,"Dnyaneshwar Nagar, Solapur - MPCB",23-06-2024 19:00:00,17.6336264,75.9132495,NH3,10,17,13
India,Maharashtra,Solapur,"Dnyaneshwar Nagar, Solapur - MPCB",23-06-2024 19:00:00,17.6336264,75.9132495,OZONE,4,49,28
India,Maharashtra,Thane,"Kasarvadavali, Thane - MPCB",23-06-2024 19:00:00,19.26777,72.97182,NO2,4,45,22
India,Maharashtra,Thane,"Kasarvadavali, Thane - MPCB",23-06-2024 19:00:00,19.26777,72.97182,NH3,2,8,5
India,Maharashtra,Thane,"Kasarvadavali, Thane - MPCB",23-06-2024 19:00:00,19.26777,72.97182,OZONE,1,37,21
India,Maharashtra,Thane,"Upvan Fort, Thane - MPCB",23-06-2024 19:00:00,19.222279,72.957979,PM10,29,56,43
India,Maharashtra,Ulhasnagar,"Sidhi Vinayak Nagar, Ulhasnagar - MPCB",23-06-2024 19:00:00,19.235581,73.159121,SO2,6,24,9
India,Maharashtra,Ulhasnagar,"Sidhi Vinayak Nagar, Ulhasnagar - MPCB",23-06-2024 19:00:00,19.235581,73.159121,CO,15,82,23
India,Maharashtra,Virar,"Bolinj, Virar - MPCB",23-06-2024 19:00:00,19.4458210,72.7988231,PM10,52,110,77
India,Maharashtra,Virar,"Bolinj, Virar - MPCB",23-06-2024 19:00:00,19.4458210,72.7988231,NH3,4,5,5
India,Maharashtra,Virar,"Bolinj, Virar - MPCB",23-06-2024 19:00:00,19.4458210,72.7988231,SO2,2,4,3
India,Manipur,Imphal,"Manipur University, Imphal - Manipur PCB",23-06-2024 19:00:00,24.7524239,93.9286218,NO2,6,15,9
India,Meghalaya,Shillong,"Lumpyngngad, Shillong - Meghalaya PCB",23-06-2024 19:00:00,25.5586,91.8985,PM10,NA,NA,NA
India,Meghalaya,Shillong,"Lumpyngngad, Shillong - Meghalaya PCB",23-06-2024 19:00:00,25.5586,91.8985,CO,2,16,7
India,Mizoram,Aizawl,"Sikulpuikawn, Aizawl - Mizoram PCB",23-06-2024 19:00:00,23.7176342,92.7192841,PM2.5,NA,NA,NA
India,Mizoram,Aizawl,"Sikulpuikawn, Aizawl - Mizoram PCB",23-06-2024 19:00:00,23.7176342,92.7192841,NH3,1,2,1
India,Odisha,Balasore,"Kalidaspur, Balasore - OSPCB",23-06-2024 19:00:00,21.51161,86.89088,NO2,5,40,18
India,Odisha,Balasore,"Kalidaspur, Balasore - OSPCB",23-06-2024 19:00:00,21.51161,86.89088,OZONE,10,37,33
India,Odisha,Barbil,"Forest Office, Barbil - OSPCB",23-06-2024 19:00:00,22.1166054,85.3945546,PM2.5,8,50,24
India,Odisha,Barbil,"Forest Office, Barbil - OSPCB",23-06-2024 19:00:00,22.1166054,85.3945546,PM10,23,90,54
India,Odisha,Barbil,"Forest Office, Barbil - OSPCB",23-06-2024 19:00:00,22.1166054,85.3945546,NO2,5,12,7
India,Odisha,Barbil,"Forest Office, Barbil - OSPCB",23-06-2024 19:00:00,22.1166054,85.3945546,SO2,4,12,8
India,Odisha,Baripada,"Meher Colony, Baripada - OSPCB",23-06-2024 19:00:00,21.941841,86.728318,OZONE,48,92,74
India,Odisha,Bhubaneswar,"Lingraj Mandir, Bhubaneswar - OSPCB",23-06-2024 19:00:00,20.240790,85.836784,PM10,52,258,130
India,Odisha,Bhubaneswar,"Patia, Bhubaneswar - OSPCB",23-06-2024 19:00:00,20.34652,85.81630,NH3,1,2,2
India,Odisha,Bhubaneswar,"Patia, Bhubaneswar - OSPCB",23-06-2024 19:00:00,20.34652,85.81630,CO,18,30,24
India,Odisha,Brajrajnagar,"GM Office, Brajrajnagar - OSPCB",23-06-2024 19:00:00,21.8004996,83.8396977,PM2.5,8,133,33
India,Odisha,Brajrajnagar,"GM Office, Brajrajnagar - OSPCB",23-06-2024 19:00:00,21.8004996,83.8396977,NH3,16,18,16
India,Odisha,Brajrajnagar,"GM Office, Brajrajnagar - OSPCB",23-06-2024 19:00:00,21.8004996,83.8396977,SO2,14,14,14
India,Odisha,Byasanagar,"Ferro Chrome Colony, Byasanagar - OSPCB",23-06-2024 19:00:00,20.94185,86.11510,NO2,6,15,8
India,Odisha,Byasanagar,"Ferro Chrome Colony, Byasanagar - OSPCB",23-06-2024 19:00:00,20.94185,86.11510,NH3,1,2,2
India,Odisha,Byasanagar,"Ferro Chrome Colony, Byasanagar - OSPCB",23-06-2024 19:00:00,20.94185,86.11510,SO2,3,6,4
India,Odisha,Keonjhar,"Jagamohanpur, Keonjhar - OSPCB",23-06-2024 19:00:00,21.643900,85.599355,NO2,3,3,3
India,Odisha,Keonjhar,"Jagamohanpur, Keonjhar - OSPCB",23-06-2024 19:00:00,21.643900,85.599355,NH3,4,4,4
India,Odisha,Nayagarh,"Dabuna, Nayagarh - OSPCB",23-06-2024 19:00:00,21.847279,85.416905,NH3,5,5,5
India,Odisha,Nayagarh,"Dabuna, Nayagarh - OSPCB",23-06-2024 19:00:00,21.847279,85.416905,SO2,1,13,1
India,Odisha,Rairangpur,"Divisional Forest Office, Rairangpur - OSPCB",23-06-2024 19:00:00,22.265816,86.174829,SO2,15,15,15
India,Odisha,Rourkela,"Sector-2, Rourkela - OSPCB",23-06-2024 19:00:00,22.24500000,84.88111111,PM10,NA,NA,NA
India,Odisha,Suakati,"OMC Colony, Suakati - OSPCB",23-06-2024 19:00:00,21.606865,85.510538,PM2.5,22,60,35
India,Odisha,Suakati,"OMC Colony, Suakati - OSPCB",23-06-2024 19:00:00,21.606865,85.510538,NH3,5,5,5
India,Odisha,Talcher,"Talcher Coalfields,Talcher - OSPCB",23-06-2024 19:00:00,20.9360711,85.1707021,PM2.5,3,96,50
India,Odisha,Talcher,"Talcher Coalfields,Talcher - OSPCB",23-06-2024 19:00:00,20.9360711,85.1707021,NO2,20,23,22
India,Odisha,Talcher,"Talcher Coalfields,Talcher - OSPCB",23-06-2024 19:00:00,20.9360711,85.1707021,SO2,20,27,23
India,Odisha,Talcher,"Talcher Coalfields,Talcher - OSPCB",23-06-2024 19:00:00,20.9360711,85.1707021,OZONE,24,76,46
India,Odisha,Tensa,"Barsua Iron Ore Mines, Tensa - OSPCB",23-06-2024 19:00:00,21.869985,85.167016,CO,2,16,6
India,Punjab,Amritsar,"Golden Temple, Amritsar - PPCB",23-06-2024 19:00:00,31.620000,74.876512,CO,15,74,38
India,Punjab,Amritsar,"Golden Temple, Amritsar - PPCB",23-06-2024 19:00:00,31.620000,74.876512,OZONE,41,63,51
India,Punjab,Jalandhar,"Civil Line, Jalandhar - PPCB",23-06-2024 19:00:00,31.321907,75.578914,PM2.5,58,132,89
India,Punjab,Jalandhar,"Civil Line, Jalandhar - PPCB",23-06-2024 19:00:00,31.321907,75.578914,NH3,4,4,4
India,Punjab,Jalandhar,"Civil Line, Jalandhar - PPCB",23-06-2024 19:00:00,31.321907,75.578914,SO2,11,15,12
India,Punjab,Jalandhar,"Civil Line, Jalandhar - PPCB",23-06-2024 19:00:00,31.321907,75.578914,OZONE,3,98,83
India,Punjab,Ludhiana,"Punjab Agricultural University, Ludhiana - PPCB",23-06-2024 19:00:00,30.9028,75.8086,PM2.5,61,402,174
India,Punjab,Patiala,"Model Town, Patiala - PPCB",23-06-2024 19:00:00,30.349388,76.366642,NH3,4,5,5
India,Punjab,Rupnagar,"Ratanpura, Rupnagar - Ambuja Cements",23-06-2024 19:00:00,31.0325454,76.5623046,PM2.5,16,55,33
India,Punjab,Rupnagar,"Ratanpura, Rupnagar - Ambuja Cements",23-06-2024 19:00:00,31.0325454,76.5623046,PM10,61,192,93
India,Punjab,Rupnagar,"Ratanpura, Rupnagar - Ambuja Cements",23-06-2024 19:00:00,31.0325454,76.5623046,CO,22,50,41
India,Rajasthan,Ajmer,"Civil Lines,  Ajmer - RSPCB",23-06-2024 19:00:00,26.470859,74.646594,NH3,5,5,5
India,Rajasthan,Banswara,"Rati Talai, Banswara - RSPCB",23-06-2024 19:00:00,23.555190,74.440010,PM10,54,128,90
India,Rajasthan,Baran,"Bamboliya, Baran - RSPCB",23-06-2024 19:00:00,25.106006,76.469948,PM2.5,18,73,44
India,Rajasthan,Barmer,"Railway Colony, Barmer - RSPCB",23-06-2024 19:00:00,25.747299,71.393989,NH3,7,26,12
India,Rajasthan,Barmer,"Railway Colony, Barmer - RSPCB",23-06-2024 19:00:00,25.747299,71.393989,SO2,6,13,9
India,Rajasthan,Bharatpur,"Krishna Nagar, Bharatpur - RSPCB",23-06-2024 19:00:00,27.215415,77.50873,NH3,3,12,7
India,Rajasthan,Bhiwadi,"RIICO Ind. Area III, Bhiwadi - RSPCB",23-06-2024 19:00:00,28.194909,76.862296,SO2,2,29,12
India,Rajasthan,Bhiwadi,"Vasundhara Nagar_UIT, Bhiwadi - RSPCB",23-06-2024 19:00:00,28.207266,76.829265,CO,16,44,19
India,Rajasthan,Bikaner,"MM Ground, Bikaner - RSPCB",23-06-2024 19:00:00,28.018792,73.292658,SO2,3,7,5
India,Rajasthan,Bundi,"New Colony, Bundi - RSPCB",23-06-2024 19:00:00,25.435774,75.644272,PM2.5,18,31,22
India,Rajasthan,Bundi,"New Colony, Bundi - RSPCB",23-06-2024 19:00:00,25.435774,75.644272,NO2,9,69,22
India,Rajasthan,Bundi,"New Colony, Bundi - RSPCB",23-06-2024 19:00:00,25.435774,75.644272,OZONE,42,99,84
India,Rajasthan,Chittorgarh,"Shastri Nagar, Chittorgarh - RSPCB",23-06-2024 19:00:00,24.892047,74.623527,SO2,NA,NA,NA
India,Rajasthan,Chittorgarh,"Shastri Nagar, Chittorgarh - RSPCB",23-06-2024 19:00:00,24.892047,74.623527,CO,20,50,28
India,Rajasthan,Churu,"Subash Chowk, Churu - RSPCB",23-06-2024 19:00:00,28.296139,74.961696,SO2,2,4,3
India,Rajasthan,Churu,"Subash Chowk, Churu - RSPCB",23-06-2024 19:00:00,28.296139,74.961696,OZONE,29,161,133
India,Rajasthan,Dausa,"Khatikan Mohalla, Dausa - RSPCB",23-06-2024 19:00:00,26.895552,76.334753,OZONE,19,110,79
India,Rajasthan,Dholpur,"Raja Ganj, Dholpur - RSPCB",23-06-2024 19:00:00,26.699557,77.898881,PM2.5,42,325,81
India,Rajasthan,Dholpur,"Raja Ganj, Dholpur - RSPCB",23-06-2024 19:00:00,26.699557,77.898881,OZONE,12,120,75
India,Rajasthan,Dungarpur,"Bhoiwada, Dungarpur - RSPCB",23-06-2024 19:00:00,23.837789,73.714926,NH3,1,4,2
India,Rajasthan,Hanumangarh,"Housing Board, Hanumangarh - RSPCB",23-06-2024 19:00:00,29.610750,74.283608,PM10,92,170,120
India,Rajasthan,Hanumangarh,"Housing Board, Hanumangarh - RSPCB",23-06-2024 19:00:00,29.610750,74.283608,NO2,NA,NA,NA
India,Rajasthan,Hanumangarh,"Housing Board, Hanumangarh - RSPCB",23-06-2024 19:00:00,29.610750,74.283608,SO2,1,13,6
India,Rajasthan,Hanumangarh,"Housing Board, Hanumangarh - RSPCB",23-06-2024 19:00:00,29.610750,74.283608,OZONE,25,79,53
India,Rajasthan,Jaipur,"Police Commissionerate, Jaipur - RSPCB",23-06-2024 19:00:00,26.9164092,75.7994901,PM2.5,59,312,122
India,Rajasthan,Jaipur,"Police Commissionerate, Jaipur - RSPCB",23-06-2024 19:00:00,26.9164092,75.7994901,SO2,18,25,22
India,Rajasthan,Jaipur,"RIICO Sitapura, Jaipur - RSPCB",23-06-2024 19:00:00,26.786682,75.827928,NO2,13,51,28
India,Rajasthan,Jaipur,"RIICO Sitapura, Jaipur - RSPCB",23-06-2024 19:00:00,26.786682,75.827928,NH3,1,5,3
India,Rajasthan,Jaipur,"Sector-2 Murlipura, Jaipur - RSPCB",23-06-2024 19:00:00,26.960669,75.771817,PM10,39,88,64
India,Rajasthan,Jaipur,"Sector-2 Murlipura, Jaipur - RSPCB",23-06-2024 19:00:00,26.960669,75.771817,OZONE,17,92,57
India,Rajasthan,Jaipur,"Shastri Nagar, Jaipur - RSPCB",23-06-2024 19:00:00,26.9502929,75.730943,SO2,15,54,25
India,Rajasthan,Jaisalmer,"Sadar Bazar, Jaisalmer - RSPCB",23-06-2024 19:00:00,26.912329,70.909168,SO2,3,4,3
India,Rajasthan,Jaisalmer,"Sadar Bazar, Jaisalmer - RSPCB",23-06-2024 19:00:00,26.912329,70.909168,OZONE,49,112,96
India,Rajasthan,Jalore,"Mudtra Sili, Jalore - RSPCB",23-06-2024 19:00:00,25.344694,72.626208,OZONE,1,110,96
India,Rajasthan,Jhunjhunu,"Indra Nagar, Jhunjhunu - RSPCB",23-06-2024 19:00:00,28.108988,75.386577,PM10,107,166,133
India,Rajasthan,Jhunjhunu,"Indra Nagar, Jhunjhunu - RSPCB",23-06-2024 19:00:00,28.108988,75.386577,NH3,21,44,31
India,Rajasthan,Jhunjhunu,"Indra Nagar, Jhunjhunu - RSPCB",23-06-2024 19:00:00,28.108988,75.386577,SO2,2,4,3
India,Rajasthan,Jhunjhunu,"Indra Nagar, Jhunjhunu - RSPCB",23-06-2024 19:00:00,28.108988,75.386577,CO,20,34,25
India,Rajasthan,Jodhpur,"Digari Kalan, Jodhpur - RSPCB",23-06-2024 19:00:00,26.295810,73.082283,PM10,48,167,96
India,Rajasthan,Jodhpur,"Digari Kalan, Jodhpur - RSPCB",23-06-2024 19:00:00,26.295810,73.082283,CO,12,27,16
India,Rajasthan,Jodhpur,"Jhalamand, Jodhpur - RSPCB",23-06-2024 19:00:00,26.215415,73.070156,NH3,3,5,4
India,Rajasthan,Jodhpur,"Jhalamand, Jodhpur - RSPCB",23-06-2024 19:00:00,26.215415,73.070156,CO,17,32,19
India,Rajasthan,Jodhpur,"Jhalamand, Jodhpur - RSPCB",23-06-2024 19:00:00,26.215415,73.070156,OZONE,43,168,153
India,Rajasthan,Jodhpur,"Mandor, Jodhpur - RSPCB",23-06-2024 19:00:00,26.358805,73.047444,PM2.5,22,46,33
India,Rajasthan,Jodhpur,"Mandor, Jodhpur - RSPCB",23-06-2024 19:00:00,26.358805,73.047444,SO2,1,5,2
India,Rajasthan,Jodhpur,"Samrat Ashok Udhyan, Jodhpur - RSPCB",23-06-2024 19:00:00,26.253384,72.976571,PM2.5,27,60,40
India,Rajasthan,Jodhpur,"Samrat Ashok Udhyan, Jodhpur - RSPCB",23-06-2024 19:00:00,26.253384,72.976571,NH3,3,6,4
India,Rajasthan,Jodhpur,"Samrat Ashok Udhyan, Jodhpur - RSPCB",23-06-2024 19:00:00,26.253384,72.976571,SO2,2,6,4
India,Rajasthan,Karauli,"Satyawati Vihar, Karauli - RSPCB",23-06-2024 19:00:00,26.506177,77.025989,NO2,9,24,16
India,Rajasthan,Karauli,"Satyawati Vihar, Karauli - RSPCB",23-06-2024 19:00:00,26.506177,77.025989,NH3,4,7,6
India,Rajasthan,Karauli,"Satyawati Vihar, Karauli - RSPCB",23-06-2024 19:00:00,26.506177,77.025989,CO,1,13,4
India,Rajasthan,Kota,"Dhanmandi, Kota - RSPCB",23-06-2024 19:00:00,25.164090,75.858137,SO2,6,30,10
India,Rajasthan,Kota,"Dhanmandi, Kota - RSPCB",23-06-2024 19:00:00,25.164090,75.858137,CO,21,102,33
India,Rajasthan,Kota,"Nayapura, Kota - RSPCB",23-06-2024 19:00:00,25.196024,75.855668,PM10,34,137,73
India,Rajasthan,Kota,"Nayapura, Kota - RSPCB",23-06-2024 19:00:00,25.196024,75.855668,OZONE,4,116,74
India,Rajasthan,Nagaur,"Karni Colony, Nagaur - RSPCB",23-06-2024 19:00:00,27.213494,73.734444,PM10,80,167,113
India,Rajasthan,Pali,"Indira Colony Vistar, Pali - RSPCB",23-06-2024 19:00:00,25.771061, 73.340227,NH3,2,7,4
India,Rajasthan,Pali,"Indira Colony Vistar, Pali - RSPCB",23-06-2024 19:00:00,25.771061, 73.340227,OZONE,15,87,57
India,Rajasthan,Pratapgarh,"Pragati Nagar, Pratapgarh - RSPCB",23-06-2024 19:00:00,24.041198,74.780702,PM10,36,76,50
India,Rajasthan,Sawai Madhopur,"Sahu Nagar, Sawai Madhopur - RSPCB",23-06-2024 19:00:00,26.031443,76.359327,PM10,35,111,58
India,Rajasthan,Sikar,"Radhakishan Pura, Sikar - RSPCB",23-06-2024 19:00:00,27.608912,75.153302,SO2,2,6,5
India,Rajasthan,Sikar,"Radhakishan Pura, Sikar - RSPCB",23-06-2024 19:00:00,27.608912,75.153302,OZONE,51,194,165
India,Rajasthan,Sirohi,"Vedhaynath Colony, Sirohi - RSPCB",23-06-2024 19:00:00,24.885261,72.857549,NO2,3,16,9
India,Rajasthan,Sirohi,"Vedhaynath Colony, Sirohi - RSPCB",23-06-2024 19:00:00,24.885261,72.857549,SO2,3,7,5
India,Rajasthan,Tonk,"Shastri Nagar, Tonk - RSPCB",23-06-2024 19:00:00,26.159933,75.780517,PM2.5,18,72,43
India,Rajasthan,Udaipur,"Ashok Nagar, Udaipur - RSPCB",23-06-2024 19:00:00,24.5886166,73.6321397,PM10,85,160,117
India,Rajasthan,Udaipur,"Ashok Nagar, Udaipur - RSPCB",23-06-2024 19:00:00,24.5886166,73.6321397,CO,5,98,32
India,Sikkim,Gangtok,"Zero Point GICI, Gangtok - SSPCB",23-06-2024 19:00:00,27.338530,88.614099,PM10,7,22,13
India,TamilNadu,Ariyalur,"Keelapalur, Ariyalur - TNPCB",23-06-2024 19:00:00,11.06825,79.07033,PM2.5,5,30,17
India,TamilNadu,Chennai,"Arumbakkam, Chennai - TNPCB",23-06-2024 19:00:00,13.0664,80.2112 ,SO2,6,19,10
India,TamilNadu,Chennai,"Manali, Chennai - CPCB",23-06-2024 19:00:00,13.164544,80.26285,PM10,36,117,66
India,TamilNadu,Chennai,"Perungudi, Chennai - TNPCB",23-06-2024 19:00:00,12.9533,80.2357,SO2,2,9,6
India,TamilNadu,Chennai,"Velachery Res. Area, Chennai - CPCB",23-06-2024 19:00:00,13.0052189,80.2398125,PM2.5,18,52,31
India,TamilNadu,Coimbatore,"PSG College of Arts and Science, Coimbatore - TNPCB",23-06-2024 19:00:00,11.0328,77.0349,NO2,1,1,1
India,TamilNadu,Cuddalore,"Semmandalam, Cuddalore - TNPCB",23-06-2024 19:00:00,11.7637683,79.7499835,NO2,13,31,17
India,TamilNadu,Cuddalore,"Semmandalam, Cuddalore - TNPCB",23-06-2024 19:00:00,11.7637683,79.7499835,NH3,1,1,1
India,TamilNadu,Ooty,"Bombay Castel, Ooty - TNPCB",23-06-2024 19:00:00,11.4068288,76.7138973,CO,19,24,24
India,TamilNadu,Ramanathapuram,"Chalai Bazaar, Ramanathapuram - TNPCB",23-06-2024 19:00:00,9.36399,78.831977,OZONE,NA,NA,NA
India,TamilNadu,Thoothukudi,"Meelavittan, Thoothukudi - TNPCB",23-06-2024 19:00:00,8.816428 ,78.099039,OZONE,1,2,2
India,TamilNadu,Tirupur,"Kumaran College, Tirupur - TNPCB",23-06-2024 19:00:00,11.0973603,77.3228673,CO,17,32,24
India,TamilNadu,Vellore,"Vasanthapuram, Vellore - TNPCB",23-06-2024 19:00:00,12.909494,79.131861,PM10,NA,NA,NA
India,TamilNadu,Virudhunagar,"Collectorate Office, Virudhunagar - TNPCB",23-06-2024 19:00:00,9.559382,77.948828,PM2.5,NA,NA,NA
India,TamilNadu,Virudhunagar,"Collectorate Office, Virudhunagar - TNPCB",23-06-2024 19:00:00,9.559382,77.948828,PM10,NA,NA,NA
India,TamilNadu,Virudhunagar,"Collectorate Office, Virudhunagar - TNPCB",23-06-2024 19:00:00,9.559382,77.948828,NO2,NA,NA,NA
India,Telangana,Hyderabad,"Bollaram Industrial Area, Hyderabad - TSPCB",23-06-2024 19:00:00,17.540891,78.358528,PM2.5,25,67,42
India,Telangana,Hyderabad,"Bollaram Industrial Area, Hyderabad - TSPCB",23-06-2024 19:00:00,17.540891,78.358528,NO2,16,35,26
India,Telangana,Hyderabad,"Bollaram Industrial Area, Hyderabad - TSPCB",23-06-2024 19:00:00,17.540891,78.358528,NH3,2,4,3
India,Telangana,Hyderabad,"ICRISAT Patancheru, Hyderabad - TSPCB",23-06-2024 19:00:00,17.518400,78.278777,NH3,1,2,1
India,Telangana,Hyderabad,"ICRISAT Patancheru, Hyderabad - TSPCB",23-06-2024 19:00:00,17.518400,78.278777,OZONE,6,25,20
India,Telangana,Hyderabad,"IDA Pashamylaram, Hyderabad - TSPCB",23-06-2024 19:00:00,17.5316895,78.218939,CO,31,60,43
India,Telangana,Hyderabad,"IITH Kandi, Hyderabad - TSPCB",23-06-2024 19:00:00,17.585705,78.126199,OZONE,NA,NA,NA
India,Telangana,Hyderabad,"Kokapet, Hyderabad - TSPCB",23-06-2024 19:00:00,17.393559,78.339194,PM2.5,53,82,64
India,Telangana,Hyderabad,"Kokapet, Hyderabad - TSPCB",23-06-2024 19:00:00,17.393559,78.339194,PM10,72,89,77
India,Telangana,Hyderabad,"Kompally Municipal Office, Hyderabad - TSPCB",23-06-2024 19:00:00,17.544899,78.486949,SO2,NA,NA,NA
India,Telangana,Hyderabad,"Nacharam_TSIIC IALA, Hyderabad - TSPCB",23-06-2024 19:00:00,17.429398,78.569354,PM2.5,32,73,47
India,Telangana,Hyderabad,"New Malakpet, Hyderabad - TSPCB",23-06-2024 19:00:00,17.37206,78.50864,PM2.5,20,33,26
India,Telangana,Hyderabad,"Ramachandrapuram, Hyderabad - TSPCB",23-06-2024 19:00:00,17.528544,78.286195,PM2.5,37,43,38
India,Telangana,Hyderabad,"Zoo Park, Hyderabad - TSPCB",23-06-2024 19:00:00,17.349694,78.451437,PM2.5,8,38,19
India,Telangana,Hyderabad,"Zoo Park, Hyderabad - TSPCB",23-06-2024 19:00:00,17.349694,78.451437,NH3,1,1,1
India,Telangana,Hyderabad,"Zoo Park, Hyderabad - TSPCB",23-06-2024 19:00:00,17.349694,78.451437,SO2,1,6,3
India,Telangana,Hyderabad,"Zoo Park, Hyderabad - TSPCB",23-06-2024 19:00:00,17.349694,78.451437,CO,6,103,38
India,Tripura,Agartala,"Bardowali, Agartala - Tripura SPCB",23-06-2024 19:00:00,23.8175497,91.2726974,PM10,38,108,62
India,Tripura,Agartala,"Bardowali, Agartala - Tripura SPCB",23-06-2024 19:00:00,23.8175497,91.2726974,NH3,8,10,9
India,Tripura,Agartala,"Bardowali, Agartala - Tripura SPCB",23-06-2024 19:00:00,23.8175497,91.2726974,SO2,47,52,49
India,Uttar_Pradesh,Agra,"Manoharpur, Agra - UPPCB",23-06-2024 19:00:00,27.23711,78.01936,CO,8,18,11
India,Uttar_Pradesh,Agra,"Rohta, Agra - UPPCB",23-06-2024 19:00:00,27.106972,78.000111,PM2.5,8,77,41
India,Uttar_Pradesh,Agra,"Rohta, Agra - UPPCB",23-06-2024 19:00:00,27.106972,78.000111,CO,9,20,12
India,Uttar_Pradesh,Agra,"Sanjay Palace, Agra - UPPCB",23-06-2024 19:00:00,27.19865833,78.00598056,CO,NA,NA,NA
India,Uttar_Pradesh,Agra,"Sector-3B Avas Vikas Colony, Agra - UPPCB",23-06-2024 19:00:00,27.19412,77.96237,NO2,41,42,42
India,Uttar_Pradesh,Agra,"Shahjahan Garden, Agra - UPPCB",23-06-2024 19:00:00,27.169338,78.03582,PM10,46,113,72
India,Uttar_Pradesh,Agra,"Shastripuram, Agra - UPPCB",23-06-2024 19:00:00,27.19862,77.92066,NH3,3,7,4
India,Uttar_Pradesh,Baghpat,"Sardar Patel Inter College, Baghpat - UPPCB",23-06-2024 19:00:00,28.964949,77.278761,PM2.5,21,41,29
India,Uttar_Pradesh,Baghpat,"Sardar Patel Inter College, Baghpat - UPPCB",23-06-2024 19:00:00,28.964949,77.278761,NO2,12,24,19
India,Uttar_Pradesh,Baghpat,"Sardar Patel Inter College, Baghpat - UPPCB",23-06-2024 19:00:00,28.964949,77.278761,OZONE,8,53,50
India,Uttar_Pradesh,Bareilly,"Civil Lines, Bareilly - UPPCB",23-06-2024 19:00:00,28.359581,79.414455,PM2.5,11,22,15
India,Uttar_Pradesh,Bareilly,"Civil Lines, Bareilly - UPPCB",23-06-2024 19:00:00,28.359581,79.414455,OZONE,NA,NA,NA
India,Uttar_Pradesh,Bareilly,"Rajendra Nagar, Bareilly - UPPCB",23-06-2024 19:00:00,28.38910936,79.42963708,PM10,25,49,33
India,Uttar_Pradesh,Bulandshahr,"Yamunapuram, Bulandshahr - UPPCB",23-06-2024 19:00:00,28.406963,77.849831,NH3,11,22,16
India,Uttar_Pradesh,Bulandshahr,"Yamunapuram, Bulandshahr - UPPCB",23-06-2024 19:00:00,28.406963,77.849831,OZONE,1,89,64
India,Uttar_Pradesh,Firozabad,"Nagla Bhau, Firozabad - UPPCB",23-06-2024 19:00:00,27.168897,78.376960,OZONE,18,20,19
India,Uttar_Pradesh,Firozabad,"Vibhab Nagar, Firozabad - UPPCB",23-06-2024 19:00:00,27.1594,78.3953,CO,16,24,20
India,Uttar_Pradesh,Ghaziabad,"Indirapuram, Ghaziabad - UPPCB",23-06-2024 19:00:00,28.646233,77.358075,PM2.5,88,331,161
India,Uttar_Pradesh,Ghaziabad,"Indirapuram, Ghaziabad - UPPCB",23-06-2024 19:00:00,28.646233,77.358075,OZONE,21,81,71
India,Uttar_Pradesh,Ghaziabad,"Loni, Ghaziabad - UPPCB",23-06-2024 19:00:00,28.757294,77.278792,NO2,17,52,33
India,Uttar_Pradesh,Ghaziabad,"Loni, Ghaziabad - UPPCB",23-06-2024 19:00:00,28.757294,77.278792,NH3,2,4,3
India,Uttar_Pradesh,Ghaziabad,"Sanjay Nagar, Ghaziabad - UPPCB",23-06-2024 19:00:00,28.685382,77.453839,PM2.5,45,165,79
India,Uttar_Pradesh,Ghaziabad,"Vasundhara, Ghaziabad - UPPCB",23-06-2024 19:00:00,28.6603346,77.3572563,NH3,5,9,7
India,Uttar_Pradesh,Gorakhpur,"Madan Mohan Malaviya University of Technology, Gorakhpur - UPPCB",23-06-2024 19:00:00,26.730136,83.433859,PM10,NA,NA,NA
India,Uttar_Pradesh,Greater Noida,"Knowledge Park - III, Greater Noida - UPPCB",23-06-2024 19:00:00,28.47272,77.482000,PM10,89,140,113
India,Uttar_Pradesh,Jhansi,"Shivaji Nagar, Jhansi - UPPCB",23-06-2024 19:00:00,25.4547,78.6039,SO2,19,23,20
India,Uttar_Pradesh,Jhansi,"Shivaji Nagar, Jhansi - UPPCB",23-06-2024 19:00:00,25.4547,78.6039,OZONE,25,76,49
India,Uttar_Pradesh,Kanpur,"FTI Kidwai Nagar, Kanpur - UPPCB",23-06-2024 19:00:00,26.428282,80.327067,PM10,6,178,68
India,Uttar_Pradesh,Kanpur,"FTI Kidwai Nagar, Kanpur - UPPCB",23-06-2024 19:00:00,26.428282,80.327067,NO2,19,40,21
India,Uttar_Pradesh,Kanpur,"NSI Kalyanpur, Kanpur - UPPCB",23-06-2024 19:00:00,26.509954,80.249612,NH3,1,1,1
India,Uttar_Pradesh,Kanpur,"NSI Kalyanpur, Kanpur - UPPCB",23-06-2024 19:00:00,26.509954,80.249612,SO2,17,36,20
India,Uttar_Pradesh,Kanpur,"Nehru Nagar, Kanpur - UPPCB",23-06-2024 19:00:00,26.4703136,80.3229863,NO2,30,62,43
India,Uttar_Pradesh,Kanpur,"Nehru Nagar, Kanpur - UPPCB",23-06-2024 19:00:00,26.4703136,80.3229863,CO,50,101,81
India,Uttar_Pradesh,Kanpur,"Nehru Nagar, Kanpur - UPPCB",23-06-2024 19:00:00,26.4703136,80.3229863,OZONE,1,10,1
India,Uttar_Pradesh,Lucknow,"B R Ambedkar University, Lucknow - UPPCB",23-06-2024 19:00:00,26.766433,80.927299,OZONE,13,39,36
India,Uttar_Pradesh,Lucknow,"Gomti Nagar, Lucknow - UPPCB",23-06-2024 19:00:00,26.868120,81.005119,PM2.5,8,43,26
India,Uttar_Pradesh,Lucknow,"Kukrail Picnic Spot-1, Lucknow - UPPCB",23-06-2024 19:00:00,26.90723,80.98579,PM2.5,21,96,39
India,Uttar_Pradesh,Lucknow,"Kukrail Picnic Spot-1, Lucknow - UPPCB",23-06-2024 19:00:00,26.90723,80.98579,SO2,30,32,31
India,Uttar_Pradesh,Lucknow,"Kukrail Picnic Spot-1, Lucknow - UPPCB",23-06-2024 19:00:00,26.90723,80.98579,OZONE,5,30,28
India,Uttar_Pradesh,Lucknow,"Talkatora District Industries Center, Lucknow - CPCB",23-06-2024 19:00:00,26.83399722,80.8917361,NH3,4,5,5
India,Uttar_Pradesh,Lucknow,"Talkatora District Industries Center, Lucknow - CPCB",23-06-2024 19:00:00,26.83399722,80.8917361,SO2,5,13,9
India,Uttar_Pradesh,Meerut,"Jai Bhim Nagar, Meerut - UPPCB",23-06-2024 19:00:00,28.9535882,77.7622941,SO2,6,7,6
India,Uttar_Pradesh,Meerut,"Pallavpuram Phase 2, Meerut - UPPCB",23-06-2024 19:00:00,29.063510,77.709723,PM10,54,119,86
India,Uttar_Pradesh,Meerut,"Pallavpuram Phase 2, Meerut - UPPCB",23-06-2024 19:00:00,29.063510,77.709723,NO2,4,53,15
India,Uttar_Pradesh,Meerut,"Pallavpuram Phase 2, Meerut - UPPCB",23-06-2024 19:00:00,29.063510,77.709723,CO,26,60,31
India,Uttar_Pradesh,Moradabad,"Buddhi Vihar, Moradabad - UPPCB",23-06-2024 19:00:00,28.83526,78.74460,PM10,44,115,69
India,Uttar_Pradesh,Moradabad,"Buddhi Vihar, Moradabad - UPPCB",23-06-2024 19:00:00,28.83526,78.74460,CO,20,29,22
India,Uttar_Pradesh,Moradabad,"Employment Office, Moradabad - UPPCB",23-06-2024 19:00:00,28.88528,78.73880,NO2,17,17,17
India,Uttar_Pradesh,Moradabad,"Employment Office, Moradabad - UPPCB",23-06-2024 19:00:00,28.88528,78.73880,NH3,4,4,4
India,Uttar_Pradesh,Moradabad,"Employment Office, Moradabad - UPPCB",23-06-2024 19:00:00,28.88528,78.73880,SO2,20,31,23
India,Uttar_Pradesh,Moradabad,"Jigar Colony, Moradabad - UPPCB",23-06-2024 19:00:00,28.856664,78.772638,NH3,6,6,6
India,Uttar_Pradesh,Moradabad,"Jigar Colony, Moradabad - UPPCB",23-06-2024 19:00:00,28.856664,78.772638,CO,28,50,33
India,Uttar_Pradesh,Moradabad,"Kashiram Nagar, Moradabad - UPPCB",23-06-2024 19:00:00,28.849399,78.742362,PM10,30,122,67
India,Uttar_Pradesh,Moradabad,"Kashiram Nagar, Moradabad - UPPCB",23-06-2024 19:00:00,28.849399,78.742362,CO,24,31,25
India,Uttar_Pradesh,Moradabad,"Kashiram Nagar, Moradabad - UPPCB",23-06-2024 19:00:00,28.849399,78.742362,OZONE,16,57,39
India,Uttar_Pradesh,Moradabad,"Transport Nagar, Moradabad - UPPCB",23-06-2024 19:00:00,28.802625,78.753728,OZONE,14,67,58
India,Uttar_Pradesh,Muzaffarnagar,"New Mandi, Muzaffarnagar - UPPCB",23-06-2024 19:00:00,29.4723508,77.7194031,PM2.5,70,315,152
India,Uttar_Pradesh,Noida,"Sector - 125, Noida - UPPCB",23-06-2024 19:00:00,28.5447608,77.3231257,CO,26,48,28
India,Uttar_Pradesh,Noida,"Sector - 62, Noida - IMD",23-06-2024 19:00:00,28.6245479,77.3577104,PM2.5,56,99,79
India,Uttar_Pradesh,Noida,"Sector - 62, Noida - IMD",23-06-2024 19:00:00,28.6245479,77.3577104,OZONE,22,50,41
India,Uttar_Pradesh,Noida,"Sector-1, Noida - UPPCB",23-06-2024 19:00:00,28.5898,77.3101,PM10,86,141,121
India,Uttar_Pradesh,Noida,"Sector-116, Noida - UPPCB",23-06-2024 19:00:00,28.569230,77.393848,PM10,115,152,131
India,Uttar_Pradesh,Noida,"Sector-116, Noida - UPPCB",23-06-2024 19:00:00,28.569230,77.393848,SO2,12,30,21
India,Uttar_Pradesh,Prayagraj,"Motilal Nehru NIT, Prayagraj - UPPCB",23-06-2024 19:00:00,25.494,81.863,OZONE,7,66,52
India,Uttar_Pradesh,Prayagraj,"Nagar Nigam, Prayagraj - UPPCB",23-06-2024 19:00:00,25.44919916 ,81.82735986 ,PM2.5,38,336,93
India,Uttar_Pradesh,Prayagraj,"Nagar Nigam, Prayagraj - UPPCB",23-06-2024 19:00:00,25.44919916 ,81.82735986 ,PM10,32,191,70
India,Uttar_Pradesh,Varanasi,"Ardhali Bazar, Varanasi - UPPCB",23-06-2024 19:00:00,25.3505986,82.9083074,PM10,29,69,49
India,Uttar_Pradesh,Varanasi,"Ardhali Bazar, Varanasi - UPPCB",23-06-2024 19:00:00,25.3505986,82.9083074,NO2,27,34,30
India,Uttar_Pradesh,Varanasi,"Ardhali Bazar, Varanasi - UPPCB",23-06-2024 19:00:00,25.3505986,82.9083074,OZONE,20,23,21
India,Uttar_Pradesh,Varanasi,"Bhelupur, Varanasi - UPPCB",23-06-2024 19:00:00,25.301778,82.996789,SO2,32,33,33
India,Uttar_Pradesh,Varanasi,"IESD Banaras Hindu University, Varanasi - UPPCB",23-06-2024 19:00:00,25.262326,82.995408,OZONE,10,20,17
India,Uttar_Pradesh,Varanasi,"Maldahiya, Varanasi - UPPCB",23-06-2024 19:00:00,25.32393,82.99687,NO2,1,2,1
India,Uttar_Pradesh,Varanasi,"Maldahiya, Varanasi - UPPCB",23-06-2024 19:00:00,25.32393,82.99687,NH3,1,1,1
India,Uttarakhand,Dehradun,"Doon University, Dehradun - UKPCB",23-06-2024 19:00:00,30.269444,78.044167,NO2,1,4,2
India,West_Bengal,Asansol,"Asansol Court Area, Asansol - WBPCB",23-06-2024 19:00:00,23.685297,86.945968,PM2.5,72,157,99
India,West_Bengal,Asansol,"Evelyn Lodge, Asansol - WBPCB",23-06-2024 19:00:00,23.6979360,86.9443950,PM2.5,21,127,60
India,West_Bengal,Asansol,"Evelyn Lodge, Asansol - WBPCB",23-06-2024 19:00:00,23.6979360,86.9443950,CO,58,82,61
India,West_Bengal,Barrackpore,"SVSPA Campus, Barrackpore - WBPCB",23-06-2024 19:00:00,22.7605581,88.3617589,PM10,26,61,44
India,West_Bengal,Barrackpore,"SVSPA Campus, Barrackpore - WBPCB",23-06-2024 19:00:00,22.7605581,88.3617589,CO,16,42,19
India,West_Bengal,Durgapur,"Sidhu Kanhu Indoor Stadium, Durgapur - WBPCB",23-06-2024 19:00:00,23.5404352,87.2892225,NO2,16,33,21
India,West_Bengal,Durgapur,"Sidhu Kanhu Indoor Stadium, Durgapur - WBPCB",23-06-2024 19:00:00,23.5404352,87.2892225,SO2,28,55,44
India,West_Bengal,Haldia,"Priyambada Housing Estate, Haldia - WBPCB",23-06-2024 19:00:00,22.06047,88.109737,PM2.5,12,26,18
India,West_Bengal,Haldia,"Priyambada Housing Estate, Haldia - WBPCB",23-06-2024 19:00:00,22.06047,88.109737,SO2,5,35,14
India,West_Bengal,Howrah,"Belur Math, Howrah - WBPCB",23-06-2024 19:00:00,22.629801,88.352017,PM2.5,10,40,24
India,West_Bengal,Howrah,"Ghusuri, Howrah - WBPCB",23-06-2024 19:00:00,22.611968,88.347422,PM2.5,24,41,30
India,West_Bengal,Howrah,"Ghusuri, Howrah - WBPCB",23-06-2024 19:00:00,22.611968,88.347422,OZONE,13,20,16
India,West_Bengal,Kolkata,"Bidhannagar, Kolkata - WBPCB",23-06-2024 19:00:00,22.58157048,88.41002457,PM2.5,7,32,19
India,West_Bengal,Kolkata,"Bidhannagar, Kolkata - WBPCB",23-06-2024 19:00:00,22.58157048,88.41002457,CO,33,40,34
India,West_Bengal,Kolkata,"Jadavpur, Kolkata - WBPCB",23-06-2024 19:00:00,22.49929,88.36917,NH3,5,6,6
India,West_Bengal,Kolkata,"Rabindra Bharati University, Kolkata - WBPCB",23-06-2024 19:00:00,22.627847,88.380669,NO2,21,27,24
India,West_Bengal,Kolkata,"Rabindra Bharati University, Kolkata - WBPCB",23-06-2024 19:00:00,22.627847,88.380669,SO2,9,14,12
India,West_Bengal,Kolkata,"Rabindra Sarobar, Kolkata - WBPCB",23-06-2024 19:00:00,22.51106,88.35142,PM2.5,14,23,17
India,West_Bengal,Kolkata,"Rabindra Sarobar, Kolkata - WBPCB",23-06-2024 19:00:00,22.51106,88.35142,OZONE,17,29,22
India,West_Bengal,Kolkata,"Victoria, Kolkata - WBPCB",23-06-2024 19:00:00,22.5448082,88.3403691,CO,20,34,25
India,Andhra_Pradesh,Amaravati,"Secretariat, Amaravati - APPCB",23-06-2024 19:00:00,16.5150833,80.5181667,SO2,14,20,17
India,Andhra_Pradesh,Anantapur,"Gulzarpet, Anantapur - APPCB",23-06-2024 19:00:00,14.675886,77.593027,NH3,NA,NA,NA
India,Andhra_Pradesh,Anantapur,"Gulzarpet, Anantapur - APPCB",23-06-2024 19:00:00,14.675886,77.593027,CO,17,40,24
India,Andhra_Pradesh,Chittoor,"Gangineni Cheruvu, Chittoor - APPCB",23-06-2024 19:00:00,13.204880,79.097889,NO2,NA,NA,NA
India,Andhra_Pradesh,Tirupati,"Tirumala, Tirupati - APPCB",23-06-2024 19:00:00,13.67,79.35,OZONE,13,23,21
India,Andhra_Pradesh,Vijayawada,"HB Colony, Vijayawada - APPCB",23-06-2024 19:00:00,16.536107,80.594233,PM2.5,25,139,44
India,Andhra_Pradesh,Vijayawada,"HB Colony, Vijayawada - APPCB",23-06-2024 19:00:00,16.536107,80.594233,NH3,4,4,4
India,Andhra_Pradesh,Vijayawada,"Kanuru, Vijayawada - APPCB",23-06-2024 19:00:00,16.486692,80.699436,OZONE,40,40,40
India,Andhra_Pradesh,Vijayawada,"Rajiv Gandhi Park, Vijayawada - APPCB",23-06-2024 19:00:00,16.509717,80.612222,SO2,7,13,8
India,Andhra_Pradesh,Vijayawada,"Rajiv Gandhi Park, Vijayawada - APPCB",23-06-2024 19:00:00,16.509717,80.612222,CO,38,38,38
India,Andhra_Pradesh,Vijayawada,"Rajiv Gandhi Park, Vijayawada - APPCB",23-06-2024 19:00:00,16.509717,80.612222,OZONE,33,33,33
India,Andhra_Pradesh,Vijayawada,"Rajiv Nagar, Vijayawada - APPCB",23-06-2024 19:00:00,16.554731,80.649110,PM10,53,72,57
India,Andhra_Pradesh,Vijayawada,"Rajiv Nagar, Vijayawada - APPCB",23-06-2024 19:00:00,16.554731,80.649110,SO2,26,26,26
India,Andhra_Pradesh,Visakhapatnam,"GVM Corporation, Visakhapatnam - APPCB",23-06-2024 19:00:00,17.72,83.3,NH3,3,5,3
India,Andhra_Pradesh,Visakhapatnam,"GVM Corporation, Visakhapatnam - APPCB",23-06-2024 19:00:00,17.72,83.3,CO,2,54,14
India,Andhra_Pradesh,Visakhapatnam,"GVM Corporation, Visakhapatnam - APPCB",23-06-2024 19:00:00,17.72,83.3,OZONE,11,16,12
India,Assam,Byrnihat,"Central Academy for SFS, Byrnihat - PCBA",23-06-2024 19:00:00,26.071318,91.87488,SO2,9,44,23
India,Assam,Guwahati,"LGBI Airport, Guwahati - PCBA",23-06-2024 19:00:00,26.10887,91.589544,OZONE,20,24,23
India,Assam,Guwahati,"Pan Bazaar, Guwahati - PCBA",23-06-2024 19:00:00,26.187500,91.744194,OZONE,17,18,18
India,Assam,Guwahati,"Railway Colony, Guwahati - PCBA",23-06-2024 19:00:00,26.181742,91.78063,PM2.5,19,218,50
India,Assam,Nalbari,"Bata Chowk, Nalbari - PCBA",23-06-2024 19:00:00,26.446912,91.439057,NH3,1,2,1
India,Assam,Silchar,"Tarapur, Silchar - PCBA",23-06-2024 19:00:00,24.82827,92.79525,SO2,1,3,1
India,Assam,Sivasagar,"Girls College, Sivasagar - PCBA",23-06-2024 19:00:00,26.987634,94.636574,OZONE,1,5,3
India,Bihar,Arrah,"New DM Office, Arrah - BSPCB",23-06-2024 19:00:00,25.5626095,84.663264,PM10,46,97,63
India,Bihar,Aurangabad,"Gurdeo Nagar, Aurangabad - BSPCB",23-06-2024 19:00:00,24.75746,84.366208,NO2,2,11,6
India,Bihar,Bettiah,"Kamalnath Nagar, Bettiah - BSPCB",23-06-2024 19:00:00,26.80365,84.51954,NH3,20,52,40
India,Bihar,Bettiah,"Kamalnath Nagar, Bettiah - BSPCB",23-06-2024 19:00:00,26.80365,84.51954,OZONE,1,10,6
India,Bihar,Bhagalpur,"DM Office_Kachari Chowk, Bhagalpur - BSPCB",23-06-2024 19:00:00,25.251013,86.989001,PM2.5,NA,NA,NA
India,Bihar,Bhagalpur,"DM Office_Kachari Chowk, Bhagalpur - BSPCB",23-06-2024 19:00:00,25.251013,86.989001,PM10,58,107,77
India,Bihar,Bhagalpur,"DM Office_Kachari Chowk, Bhagalpur - BSPCB",23-06-2024 19:00:00,25.251013,86.989001,NO2,44,59,52
India,Bihar,Bhagalpur,"DM Office_Kachari Chowk, Bhagalpur - BSPCB",23-06-2024 19:00:00,25.251013,86.989001,CO,38,74,52
India,Bihar,Bhagalpur,"Mayaganj, Bhagalpur - BSPCB",23-06-2024 19:00:00,25.265194,87.012947,NO2,6,7,7
India,Bihar,Bhagalpur,"Mayaganj, Bhagalpur - BSPCB",23-06-2024 19:00:00,25.265194,87.012947,NH3,9,10,9
India,Bihar,Buxar,"Charitra Van, Buxar - BSPCB (Formerly known as Central Jail)",23-06-2024 19:00:00,25.567520,83.966379,PM2.5,NA,NA,NA
India,Bihar,Buxar,"Charitra Van, Buxar - BSPCB (Formerly known as Central Jail)",23-06-2024 19:00:00,25.567520,83.966379,PM10,NA,NA,NA
India,Bihar,Chhapra,"Darshan Nagar, Chhapra - BSPCB",23-06-2024 19:00:00,25.7808257,84.7446768,PM2.5,38,72,50
India,Bihar,Gaya,"Collectorate, Gaya - BSPCB",23-06-2024 19:00:00,24.7955,84.9994,NO2,3,5,4
India,Bihar,Gaya,"Collectorate, Gaya - BSPCB",23-06-2024 19:00:00,24.7955,84.9994,SO2,1,15,7
India,Bihar,Gaya,"Kareemganj, Gaya - BSPCB",23-06-2024 19:00:00,24.792403,84.992416,PM10,30,49,36
India,Bihar,Gaya,"SFTI Kusdihra, Gaya - BSPCB",23-06-2024 19:00:00,24.762518,84.982348,NO2,NA,NA,NA
India,Bihar,Gaya,"SFTI Kusdihra, Gaya - BSPCB",23-06-2024 19:00:00,24.762518,84.982348,CO,22,30,24
India,Bihar,Kishanganj,"SDM Office_Khagra, Kishanganj - BSPCB",23-06-2024 19:00:00,26.0881305,87.93840336,PM10,52,129,76
India,Bihar,Manguraha,"Forest Rest House, Manguraha - BSPCB",23-06-2024 19:00:00,27.308328,84.531742,PM10,NA,NA,NA
India,Bihar,Manguraha,"Forest Rest House, Manguraha - BSPCB",23-06-2024 19:00:00,27.308328,84.531742,CO,24,38,29
India,Bihar,Manguraha,"Forest Rest House, Manguraha - BSPCB",23-06-2024 19:00:00,27.308328,84.531742,OZONE,7,19,17
India,Bihar,Motihari,"Gandak Colony, Motihari - BSPCB",23-06-2024 19:00:00,26.63086,84.90051,PM2.5,NA,NA,NA
India,Bihar,Motihari,"Gandak Colony, Motihari - BSPCB",23-06-2024 19:00:00,26.63086,84.90051,OZONE,NA,NA,NA
India,Bihar,Munger,"Town Hall, Munger - BSPCB",23-06-2024 19:00:00,25.376776,86.471523,NO2,4,6,5
India,Bihar,Muzaffarpur,"Buddha Colony, Muzaffarpur - BSPCB",23-06-2024 19:00:00,26.11442,85.39813,SO2,1,3,2
India,Bihar,Muzaffarpur,"MIT-Daudpur Kothi, Muzaffarpur - BSPCB",23-06-2024 19:00:00,26.1403345,85.3650192,PM2.5,40,103,67
India,Bihar,Muzaffarpur,"MIT-Daudpur Kothi, Muzaffarpur - BSPCB",23-06-2024 19:00:00,26.1403345,85.3650192,NH3,11,13,12
India,Bihar,Patna,"DRM Office Danapur, Patna - BSPCB",23-06-2024 19:00:00,25.586562,85.043586,CO,19,38,27
India,Bihar,Patna,"DRM Office Danapur, Patna - BSPCB",23-06-2024 19:00:00,25.586562,85.043586,OZONE,15,62,53
India,Bihar,Patna,"Govt. High School Shikarpur, Patna - BSPCB",23-06-2024 19:00:00,25.592539,85.227158,NO2,33,36,34
India,Bihar,Patna,"IGSC Planetarium Complex, Patna - BSPCB",23-06-2024 19:00:00,25.610369,85.132568,PM2.5,66,168,96
India,Bihar,Patna,"IGSC Planetarium Complex, Patna - BSPCB",23-06-2024 19:00:00,25.610369,85.132568,CO,14,19,16
India,Bihar,Patna,"Muradpur, Patna - BSPCB",23-06-2024 19:00:00,25.619651,85.147382,NH3,1,8,2
India,Bihar,Patna,"Samanpura, Patna - BSPCB",23-06-2024 19:00:00,25.596727,85.085624,PM10,101,153,123
India,Bihar,Patna,"Samanpura, Patna - BSPCB",23-06-2024 19:00:00,25.596727,85.085624,NH3,7,13,9
India,Bihar,Purnia,"Mariam Nagar, Purnia - BSPCB",23-06-2024 19:00:00,25.366336,87.117468,PM10,NA,NA,NA
India,Bihar,Purnia,"Mariam Nagar, Purnia - BSPCB",23-06-2024 19:00:00,25.366336,87.117468,CO,13,71,43
India,Bihar,Purnia,"Mariam Nagar, Purnia - BSPCB",23-06-2024 19:00:00,25.366336,87.117468,OZONE,1,16,14
India,Bihar,Rajgir,"Dangi Tola, Rajgir - BSPCB",23-06-2024 19:00:00,25.03280,85.41948,SO2,4,4,4
India,Bihar,Rajgir,"Dangi Tola, Rajgir - BSPCB",23-06-2024 19:00:00,25.03280,85.41948,CO,38,38,38
India,Bihar,Saharsa,"Police Line, Saharsa - BSPCB",23-06-2024 19:00:00,25.892357,86.590325,CO,53,54,54
India,Bihar,Saharsa,"Police Line, Saharsa - BSPCB",23-06-2024 19:00:00,25.892357,86.590325,OZONE,8,47,31
India,Bihar,Samastipur,"DM Office_Kasipur, Samastipur - BSPCB",23-06-2024 19:00:00,25.859655,85.77944,OZONE,2,4,3
India,Bihar,Siwan,"Chitragupta Nagar, Siwan - BSPCB",23-06-2024 19:00:00,26.2271665,84.3570427,SO2,NA,NA,NA
India,Bihar,Siwan,"Chitragupta Nagar, Siwan - BSPCB",23-06-2024 19:00:00,26.2271665,84.3570427,CO,43,106,89
India,Bihar,Siwan,"Chitragupta Nagar, Siwan - BSPCB",23-06-2024 19:00:00,26.2271665,84.3570427,OZONE,2,50,20
India,Chandigarh,Chandigarh,"Sector 22, Chandigarh - CPCC",23-06-2024 19:00:00,30.735567,76.775714,OZONE,37,304,205
India,Chandigarh,Chandigarh,"Sector-53, Chandigarh - CPCC",23-06-2024 19:00:00,30.719859,76.738637,SO2,5,22,12
India,Chandigarh,Chandigarh,"Sector-53, Chandigarh - CPCC",23-06-2024 19:00:00,30.719859,76.738637,CO,33,111,46
India,Chhattisgarh,Bhilai,"32Bungalows, Bhilai - CECB",23-06-2024 19:00:00,21.194815,81.314770,NO2,6,8,7
India,Chhattisgarh,Bhilai,"32Bungalows, Bhilai - CECB",23-06-2024 19:00:00,21.194815,81.314770,OZONE,8,20,12
India,Chhattisgarh,Bhilai,"Hathkhoj, Bhilai - CECB",23-06-2024 19:00:00,21.224231,81.408350,SO2,8,10,9
India,Chhattisgarh,Bilaspur,"Mangala, Bilaspur - NTPC",23-06-2024 19:00:00,22.08815,82.13737,NO2,13,15,14
India,Chhattisgarh,Bilaspur,"Mangala, Bilaspur - NTPC",23-06-2024 19:00:00,22.08815,82.13737,SO2,13,18,15
India,Chhattisgarh,Chhal,"Nawapara SECL Colony, Chhal - CECB",23-06-2024 19:00:00,22.118125,83.140608,PM10,NA,NA,NA
India,Chhattisgarh,Chhal,"Nawapara SECL Colony, Chhal - CECB",23-06-2024 19:00:00,22.118125,83.140608,SO2,NA,NA,NA
India,Chhattisgarh,Chhal,"Nawapara SECL Colony, Chhal - CECB",23-06-2024 19:00:00,22.118125,83.140608,CO,17,46,28
India,Chhattisgarh,Korba,"Rampur, Korba - CECB",23-06-2024 19:00:00,22.368195,82.746431,PM2.5,NA,NA,NA
India,Chhattisgarh,Korba,"Rampur, Korba - CECB",23-06-2024 19:00:00,22.368195,82.746431,PM10,NA,NA,NA
India,Chhattisgarh,Korba,"Rampur, Korba - CECB",23-06-2024 19:00:00,22.368195,82.746431,SO2,NA,NA,NA
India,Chhattisgarh,Korba,"Rampur, Korba - CECB",23-06-2024 19:00:00,22.368195,82.746431,OZONE,NA,NA,NA
India,Chhattisgarh,Korba,"Urja Nagar, Korba - CECB",23-06-2024 19:00:00,22.348441,82.549611,PM10,NA,NA,NA
India,Chhattisgarh,Kunjemura,"OP Jindal School, Kunjemura - CECB",23-06-2024 19:00:00,22.126650,83.483212,PM10,25,62,44
India,Chhattisgarh,Kunjemura,"OP Jindal School, Kunjemura - CECB",23-06-2024 19:00:00,22.126650,83.483212,OZONE,4,17,13
India,Chhattisgarh,Milupara,"Govt. Higher Secondary School, Milupara - CECB",23-06-2024 19:00:00,22.1910172,83.5197009,SO2,7,26,17
India,Chhattisgarh,Raipur,"AIIMS, Raipur - CECB",23-06-2024 19:00:00,21.258815,81.578979,PM2.5,15,47,26
India,Chhattisgarh,Raipur,"AIIMS, Raipur - CECB",23-06-2024 19:00:00,21.258815,81.578979,OZONE,1,16,6
India,Chhattisgarh,Tumidih,"OP Jindal Industrial Park, Tumidih - CECB",23-06-2024 19:00:00,22.06631475,83.33820077,CO,20,36,27
India,Delhi,Delhi,"Alipur, Delhi - DPCC",23-06-2024 19:00:00,28.815329,77.153010,SO2,8,41,24
India,Delhi,Delhi,"Ashok Vihar, Delhi - DPCC",23-06-2024 19:00:00,28.695381,77.181665,PM2.5,NA,NA,NA
India,Delhi,Delhi,"Ashok Vihar, Delhi - DPCC",23-06-2024 19:00:00,28.695381,77.181665,NO2,NA,NA,NA
India,Delhi,Delhi,"Ashok Vihar, Delhi - DPCC",23-06-2024 19:00:00,28.695381,77.181665,NH3,NA,NA,NA
India,Delhi,Delhi,"Ashok Vihar, Delhi - DPCC",23-06-2024 19:00:00,28.695381,77.181665,SO2,NA,NA,NA
India,Delhi,Delhi,"Aya Nagar, Delhi - IMD",23-06-2024 19:00:00,28.4706914,77.1099364,NO2,28,39,35
India,Delhi,Delhi,"Aya Nagar, Delhi - IMD",23-06-2024 19:00:00,28.4706914,77.1099364,OZONE,16,53,42
India,Delhi,Delhi,"Bawana, Delhi - DPCC",23-06-2024 19:00:00,28.776200,77.051074,PM10,122,207,162
India,Delhi,Delhi,"Bawana, Delhi - DPCC",23-06-2024 19:00:00,28.776200,77.051074,NH3,7,33,16
India,Delhi,Delhi,"Bawana, Delhi - DPCC",23-06-2024 19:00:00,28.776200,77.051074,CO,39,72,42
India,Delhi,Delhi,"Burari Crossing, Delhi - IMD",23-06-2024 19:00:00,28.7256504,77.2011573,PM10,71,182,123
India,Delhi,Delhi,"Burari Crossing, Delhi - IMD",23-06-2024 19:00:00,28.7256504,77.2011573,CO,39,50,40
India,Delhi,Delhi,"CRRI Mathura Road, Delhi - IMD",23-06-2024 19:00:00,28.5512005,77.2735737,PM2.5,46,148,86
India,Delhi,Delhi,"DTU, Delhi - CPCB",23-06-2024 19:00:00,28.7500499,77.1112615,OZONE,29,119,87
India,Delhi,Delhi,"Dr. Karni Singh Shooting Range, Delhi - DPCC",23-06-2024 19:00:00,28.498571,77.264840,NO2,16,43,27
India,Delhi,Delhi,"Dr. Karni Singh Shooting Range, Delhi - DPCC",23-06-2024 19:00:00,28.498571,77.264840,OZONE,20,188,130
India,Delhi,Delhi,"Dwarka-Sector 8, Delhi - DPCC ",23-06-2024 19:00:00,28.5710274,77.0719006,NO2,14,53,28
India,Delhi,Delhi,"Dwarka-Sector 8, Delhi - DPCC ",23-06-2024 19:00:00,28.5710274,77.0719006,NH3,8,22,15
India,Delhi,Delhi,"IHBAS, Dilshad Garden, Delhi - CPCB",23-06-2024 19:00:00,28.6811736,77.3025234,NO2,7,56,32
India,Delhi,Delhi,"IHBAS, Dilshad Garden, Delhi - CPCB",23-06-2024 19:00:00,28.6811736,77.3025234,NH3,3,7,6
India,Delhi,Delhi,"ITO, Delhi - CPCB",23-06-2024 19:00:00,28.628624,77.241060,OZONE,34,158,104
India,Delhi,Delhi,"Jawaharlal Nehru Stadium, Delhi - DPCC",23-06-2024 19:00:00,28.580280,77.233829,NH3,10,16,12
India,Delhi,Delhi,"Jawaharlal Nehru Stadium, Delhi - DPCC",23-06-2024 19:00:00,28.580280,77.233829,SO2,12,20,16
India,Delhi,Delhi,"Jawaharlal Nehru Stadium, Delhi - DPCC",23-06-2024 19:00:00,28.580280,77.233829,OZONE,10,91,74
India,Delhi,Delhi,"Lodhi Road, Delhi - IMD",23-06-2024 19:00:00,28.5918245,77.2273074,PM2.5,52,119,87
India,Delhi,Delhi,"Lodhi Road, Delhi - IMD",23-06-2024 19:00:00,28.5918245,77.2273074,PM10,68,118,101
India,Delhi,Delhi,"Major Dhyan Chand National Stadium, Delhi - DPCC",23-06-2024 19:00:00,28.611281,77.237738,SO2,8,23,12
India,Delhi,Delhi,"Major Dhyan Chand National Stadium, Delhi - DPCC",23-06-2024 19:00:00,28.611281,77.237738,OZONE,1,85,72
India,Delhi,Delhi,"Mandir Marg, Delhi - DPCC",23-06-2024 19:00:00,28.636429,77.201067,PM2.5,62,187,95
India,Delhi,Delhi,"NSIT Dwarka, Delhi - CPCB",23-06-2024 19:00:00,28.60909,77.0325413,NH3,15,17,16
India,Delhi,Delhi,"Najafgarh, Delhi - DPCC",23-06-2024 19:00:00,28.570173,76.933762,PM10,81,167,110
India,Delhi,Delhi,"Najafgarh, Delhi - DPCC",23-06-2024 19:00:00,28.570173,76.933762,NO2,14,42,25
India,Delhi,Delhi,"Najafgarh, Delhi - DPCC",23-06-2024 19:00:00,28.570173,76.933762,SO2,9,16,13
India,Delhi,Delhi,"Narela, Delhi - DPCC",23-06-2024 19:00:00,28.822836,77.101981,CO,36,58,43
India,Delhi,Delhi,"Nehru Nagar, Delhi - DPCC",23-06-2024 19:00:00,28.567890,77.250515,CO,54,82,65
India,Delhi,Delhi,"New Moti Bagh, Delhi - MHUA",23-06-2024 19:00:00,28.57834,77.18400,PM2.5,84,500,251
India,Delhi,Delhi,"New Moti Bagh, Delhi - MHUA",23-06-2024 19:00:00,28.57834,77.18400,CO,36,78,44
India,Delhi,Delhi,"Punjabi Bagh, Delhi - DPCC",23-06-2024 19:00:00,28.674045,77.131023,SO2,17,40,28
India,Delhi,Delhi,"Pusa, Delhi - DPCC",23-06-2024 19:00:00,28.639652,77.146275,NH3,2,9,5
India,Delhi,Delhi,"Pusa, Delhi - DPCC",23-06-2024 19:00:00,28.639652,77.146275,OZONE,3,13,9
India,Delhi,Delhi,"R K Puram, Delhi - DPCC",23-06-2024 19:00:00,28.563262,77.186937,PM2.5,52,207,127
India,Delhi,Delhi,"R K Puram, Delhi - DPCC",23-06-2024 19:00:00,28.563262,77.186937,NH3,NA,NA,NA
India,Delhi,Delhi,"R K Puram, Delhi - DPCC",23-06-2024 19:00:00,28.563262,77.186937,SO2,14,54,37
India,Delhi,Delhi,"R K Puram, Delhi - DPCC",23-06-2024 19:00:00,28.563262,77.186937,CO,8,58,33
India,Delhi,Delhi,"R K Puram, Delhi - DPCC",23-06-2024 19:00:00,28.563262,77.186937,OZONE,15,93,54
India,Delhi,Delhi,"Shadipur, Delhi - CPCB",23-06-2024 19:00:00,28.6514781,77.1473105,PM10,134,207,152
India,Delhi,Delhi,"Shadipur, Delhi - CPCB",23-06-2024 19:00:00,28.6514781,77.1473105,NH3,8,15,10
India,Delhi,Delhi,"Shadipur, Delhi - CPCB",23-06-2024 19:00:00,28.6514781,77.1473105,CO,32,72,46
India,Delhi,Delhi,"Sirifort, Delhi - CPCB",23-06-2024 19:00:00,28.5504249,77.2159377,PM10,99,154,120
India,Delhi,Delhi,"Sirifort, Delhi - CPCB",23-06-2024 19:00:00,28.5504249,77.2159377,NH3,19,21,20
India,Delhi,Delhi,"Sonia Vihar, Delhi - DPCC",23-06-2024 19:00:00,28.710508,77.249485,PM2.5,73,308,128
India,Delhi,Delhi,"Sonia Vihar, Delhi - DPCC",23-06-2024 19:00:00,28.710508,77.249485,NH3,6,63,22
India,Delhi,Delhi,"Sonia Vihar, Delhi - DPCC",23-06-2024 19:00:00,28.710508,77.249485,CO,11,37,24
India,Delhi,Delhi,"Sri Aurobindo Marg, Delhi - DPCC",23-06-2024 19:00:00,28.531346,77.190156,NO2,15,97,41
India,Delhi,Delhi,"Vivek Vihar, Delhi - DPCC",23-06-2024 19:00:00,28.672342,77.315260,NO2,15,31,22
India,Gujarat,Ahmedabad,"Chandkheda, Ahmedabad - IITM",23-06-2024 19:00:00,23.107969,72.574648,PM2.5,50,235,105
India,Gujarat,Ahmedabad,"Gyaspur, Ahmedabad - IITM",23-06-2024 19:00:00,22.977134,72.553024,NO2,21,66,44
India,Gujarat,Ahmedabad,"Maninagar, Ahmedabad - GPCB",23-06-2024 19:00:00,23.002657,72.591912,NO2,NA,NA,NA
India,Gujarat,Ahmedabad,"Raikhad, Ahmedabad - IITM",23-06-2024 19:00:00,23.020509,72.579261,PM2.5,NA,NA,NA
India,Gujarat,Ahmedabad,"Raikhad, Ahmedabad - IITM",23-06-2024 19:00:00,23.020509,72.579261,NO2,NA,NA,NA
India,Gujarat,Ahmedabad,"Raikhad, Ahmedabad - IITM",23-06-2024 19:00:00,23.020509,72.579261,OZONE,41,85,70
India,Gujarat,Ahmedabad,"Rakhial, Ahmedabad - IITM",23-06-2024 19:00:00,23.016834,72.625775,NO2,20,77,48
India,Gujarat,Ahmedabad,"Rakhial, Ahmedabad - IITM",23-06-2024 19:00:00,23.016834,72.625775,SO2,21,32,26
India,Gujarat,Ahmedabad,"Sardar Vallabhbhai Patel Stadium, Ahmedabad - IITM",23-06-2024 19:00:00,23.043070,72.562968,PM2.5,57,197,112
India,Gujarat,Ahmedabad,"Sardar Vallabhbhai Patel Stadium, Ahmedabad - IITM",23-06-2024 19:00:00,23.043070,72.562968,OZONE,11,31,24
India,Gujarat,Gandhinagar,"GIFT City, Gandhinagar - IITM",23-06-2024 19:00:00,23.163798,72.677768,PM10,67,144,108
India,Gujarat,Gandhinagar,"GIFT City, Gandhinagar - IITM",23-06-2024 19:00:00,23.163798,72.677768,NO2,29,34,31
India,Gujarat,Gandhinagar,"Sector-10, Gandhinagar - GPCB",23-06-2024 19:00:00,23.221714,72.654328,PM10,20,108,57
India,Gujarat,Vapi,"Phase-1 GIDC, Vapi - GPCB",23-06-2024 19:00:00,20.362421,72.918013,PM2.5,17,39,26
India,Haryana,Ambala,"Patti Mehar, Ambala - HSPCB",23-06-2024 19:00:00,30.379589,76.778328,SO2,7,30,13
India,Haryana,Bahadurgarh,"Arya Nagar, Bahadurgarh - HSPCB",23-06-2024 19:00:00,28.6701,76.9254,PM2.5,69,124,92
India,Haryana,Bahadurgarh,"Arya Nagar, Bahadurgarh - HSPCB",23-06-2024 19:00:00,28.6701,76.9254,PM10,91,137,113
India,Haryana,Ballabgarh,"Nathu Colony, Ballabgarh - HSPCB",23-06-2024 19:00:00,28.3419248,77.319699,SO2,NA,NA,NA
India,Haryana,Bhiwani,"H.B. Colony, Bhiwani - HSPCB",23-06-2024 19:00:00,28.806223,76.141105,PM10,79,116,103
India,Haryana,Bhiwani,"H.B. Colony, Bhiwani - HSPCB",23-06-2024 19:00:00,28.806223,76.141105,OZONE,32,42,39
India,Haryana,Charkhi Dadri,"Mini Secretariat, Charkhi Dadri - HSPCB",23-06-2024 19:00:00,28.593883,76.270653,PM2.5,60,302,157
India,Haryana,Charkhi Dadri,"Mini Secretariat, Charkhi Dadri - HSPCB",23-06-2024 19:00:00,28.593883,76.270653,PM10,48,143,95
India,Haryana,Dharuhera,"Municipal Corporation Office, Dharuhera -  HSPCB",23-06-2024 19:00:00,28.206800,76.799700,SO2,NA,NA,NA
India,Haryana,Faridabad,"Sector 11, Faridabad - HSPCB",23-06-2024 19:00:00,28.376058,77.315741,PM2.5,87,323,138
India,Haryana,Faridabad,"Sector 11, Faridabad - HSPCB",23-06-2024 19:00:00,28.376058,77.315741,CO,14,42,33
India,Haryana,Gurugram,"NISE Gwal Pahari, Gurugram - IMD",23-06-2024 19:00:00,28.422681,77.148944,PM10,45,130,87
India,Haryana,Gurugram,"NISE Gwal Pahari, Gurugram - IMD",23-06-2024 19:00:00,28.422681,77.148944,CO,24,36,28
India,Haryana,Gurugram,"NISE Gwal Pahari, Gurugram - IMD",23-06-2024 19:00:00,28.422681,77.148944,OZONE,1,80,70
India,Haryana,Gurugram,"Vikas Sadan, Gurugram - HSPCB",23-06-2024 19:00:00,28.4501238,77.0263051,OZONE,8,68,56
India,Haryana,Karnal,"Sector-12, Karnal - HSPCB",23-06-2024 19:00:00,29.695300,77.002700,NH3,10,13,11
India,Haryana,Kurukshetra,"Sector-7, Kurukshetra - HSPCB",23-06-2024 19:00:00,29.966942,76.875879,NH3,4,5,5
India,Haryana,Kurukshetra,"Sector-7, Kurukshetra - HSPCB",23-06-2024 19:00:00,29.966942,76.875879,SO2,2,3,2
India,Haryana,Mandikhera,"General Hospital, Mandikhera - HSPCB",23-06-2024 19:00:00,27.9002,76.9938,PM10,NA,NA,NA
India,Haryana,Manesar,"Sector-2 IMT, Manesar - HSPCB",23-06-2024 19:00:00,28.360699,76.936090,SO2,1,5,1
India,Haryana,Palwal,"Shyam Nagar, Palwal - HSPCB",23-06-2024 19:00:00,28.1485564,77.3320667,NO2,23,25,24
India,Haryana,Palwal,"Shyam Nagar, Palwal - HSPCB",23-06-2024 19:00:00,28.1485564,77.3320667,NH3,8,9,9
India,Haryana,Palwal,"Shyam Nagar, Palwal - HSPCB",23-06-2024 19:00:00,28.1485564,77.3320667,CO,22,71,26
India,Haryana,Panchkula,"Sector-6, Panchkula - HSPCB ",23-06-2024 19:00:00,30.7057778,76.8531805555555,NO2,10,11,10
India,Haryana,Rohtak,"MD University, Rohtak - HSPCB",23-06-2024 19:00:00,28.52123,76.37138,NO2,46,55,51
India,Haryana,Sonipat,"Murthal, Sonipat - HSPCB",23-06-2024 19:00:00,29.027200,77.062100,PM10,13,406,97
India,Haryana,Yamuna Nagar,"Gobind Pura, Yamuna Nagar - HSPCB",23-06-2024 19:00:00,30.1480566,77.2893471,NO2,NA,NA,NA
India,Haryana,Yamuna Nagar,"Gobind Pura, Yamuna Nagar - HSPCB",23-06-2024 19:00:00,30.1480566,77.2893471,NH3,NA,NA,NA
India,Himachal Pradesh,Baddi,"HIMUDA Complex Phase-1, Baddi - HPPCB",23-06-2024 19:00:00,30.943887,76.801991,NH3,6,8,7
India,Karnataka,Bagalkot,"Vidayagiri, Bagalkot - KSPCB",23-06-2024 19:00:00,16.172806,75.659694,NH3,1,2,1
India,Karnataka,Belgaum,"Ramteerth Nagar, Belgaum - KSPCB",23-06-2024 19:00:00,15.888653,74.541751,PM10,12,61,25
India,Karnataka,Bengaluru,"Bapuji Nagar, Bengaluru - KSPCB",23-06-2024 19:00:00,12.951913,77.539784,PM10,16,73,31
India,Karnataka,Bengaluru,"Bapuji Nagar, Bengaluru - KSPCB",23-06-2024 19:00:00,12.951913,77.539784,SO2,6,7,7
India,Karnataka,Bengaluru,"Hebbal, Bengaluru - KSPCB",23-06-2024 19:00:00,13.029152,77.585901,PM10,12,56,24
India,Karnataka,Bengaluru,"Hebbal, Bengaluru - KSPCB",23-06-2024 19:00:00,13.029152,77.585901,CO,18,24,20
India,Karnataka,Bengaluru,"Hombegowda Nagar, Bengaluru - KSPCB",23-06-2024 19:00:00,12.938539,77.590100,CO,10,26,15
India,Karnataka,Bengaluru,"Jayanagar 5th Block, Bengaluru - KSPCB",23-06-2024 19:00:00,12.920984,77.584908,NO2,8,10,9
India,Karnataka,Bengaluru,"Jayanagar 5th Block, Bengaluru - KSPCB",23-06-2024 19:00:00,12.920984,77.584908,CO,20,23,22
India,Karnataka,Bengaluru,"Jigani, Bengaluru - KSPCB",23-06-2024 19:00:00,12.7816279,77.6299145,PM2.5,37,38,38
India,Karnataka,Bengaluru,"Jigani, Bengaluru - KSPCB",23-06-2024 19:00:00,12.7816279,77.6299145,SO2,8,9,9
India,Karnataka,Bengaluru,"Jigani, Bengaluru - KSPCB",23-06-2024 19:00:00,12.7816279,77.6299145,CO,NA,NA,NA
India,Karnataka,Bengaluru,"Kasturi Nagar, Bengaluru - KSPCB",23-06-2024 19:00:00,13.003872,77.664217,PM10,36,49,43
India,Karnataka,Bengaluru,"Kasturi Nagar, Bengaluru - KSPCB",23-06-2024 19:00:00,13.003872,77.664217,OZONE,39,39,39
India,Karnataka,Bengaluru,"RVCE-Mailasandra, Bengaluru - KSPCB",23-06-2024 19:00:00,12.921418,77.502466,SO2,8,11,9
India,Karnataka,Bengaluru,"Sanegurava Halli, Bengaluru - KSPCB",23-06-2024 19:00:00,12.990328,77.5431385,SO2,2,3,3
India,Karnataka,Bengaluru,"Shivapura_Peenya, Bengaluru - KSPCB",23-06-2024 19:00:00,13.0246342,77.5080115,PM2.5,25,63,40
India,Karnataka,Bengaluru,"Silk Board, Bengaluru - KSPCB",23-06-2024 19:00:00,12.917348,77.622813,CO,2,24,7
India,Karnataka,Chamarajanagar,"Urban, Chamarajanagar - KSPCB",23-06-2024 19:00:00,11.55358,76.55521,PM2.5,25,31,30
India,Karnataka,Chamarajanagar,"Urban, Chamarajanagar - KSPCB",23-06-2024 19:00:00,11.55358,76.55521,PM10,44,46,45
India,Karnataka,Chamarajanagar,"Urban, Chamarajanagar - KSPCB",23-06-2024 19:00:00,11.55358,76.55521,SO2,3,6,4
India,Karnataka,Davanagere,"Devaraj Urs Badavane, Davanagere - KSPCB",23-06-2024 19:00:00,14.475800,75.905200,CO,17,18,18
India,Karnataka,Dharwad,"Kalabhavan, Dharwad - KSPCB",23-06-2024 19:00:00,15.459706,75.008381,NO2,4,11,7
India,Karnataka,Dharwad,"Kalabhavan, Dharwad - KSPCB",23-06-2024 19:00:00,15.459706,75.008381,SO2,1,7,2
India,Karnataka,Dharwad,"Kalabhavan, Dharwad - KSPCB",23-06-2024 19:00:00,15.459706,75.008381,CO,16,66,44
India,Karnataka,Gadag,"Panchal Nagar, Gadag - KSPCB",23-06-2024 19:00:00,15.411456,75.638133,OZONE,6,8,6
India,Karnataka,Hassan,"B.Katihalli, Hassan - KSPCB",23-06-2024 19:00:00,13.008556,76.125258,CO,7,30,19
India,Karnataka,Haveri,"Ashwini Nagar, Haveri - KSPCB",23-06-2024 19:00:00,14.791800,75.389600,NO2,31,39,33
India,Karnataka,Karwar,"KHB Colony, Karwar - KSPCB",23-06-2024 19:00:00,14.816666,74.141003,CO,8,8,8
India,Karnataka,Karwar,"KHB Colony, Karwar - KSPCB",23-06-2024 19:00:00,14.816666,74.141003,OZONE,21,22,22
India,Karnataka,Madikeri,"Stuart Hill, Madikeri - KSPCB",23-06-2024 19:00:00,12.415911,75.735050,NO2,1,5,2
India,Karnataka,Mysuru,"Hebbal 1st Stage, Mysuru - KSPCB",23-06-2024 19:00:00,12.21041,76.37376,OZONE,13,60,46
India,Karnataka,Shivamogga,"Vinoba Nagara, Shivamogga - KSPCB",23-06-2024 19:00:00,13.940000,75.555917,OZONE,54,84,72
India,Karnataka,Tumakuru,"Thimmalapura, Tumakuru - KSPCB",23-06-2024 19:00:00,13.377516,77.099072,SO2,7,14,8
India,Karnataka,Udupi,"Brahmagiri, Udupi - KSPCB",23-06-2024 19:00:00,13.34194444,74.74694444,PM10,3,69,16
India,Karnataka,Udupi,"Brahmagiri, Udupi - KSPCB",23-06-2024 19:00:00,13.34194444,74.74694444,CO,50,55,50
India,Karnataka,Yadgir,"Collector Office, Yadgir - KSPCB",23-06-2024 19:00:00,16.7602,77.1428,PM2.5,10,27,17
India,Karnataka,Yadgir,"Collector Office, Yadgir - KSPCB",23-06-2024 19:00:00,16.7602,77.1428,NO2,5,20,11
India,Kerala,Eloor,"Udyogamandal, Eloor - Kerala PCB",23-06-2024 19:00:00,10.073232,76.302765,NO2,NA,NA,NA
India,Kerala,Kannur,"Thavakkara, Kannur - Kerala PCB",23-06-2024 19:00:00,11.875000,75.373200,CO,61,72,67
India,Kerala,Thiruvananthapuram,"Kariavattom, Thiruvananthapuram - Kerala PCB",23-06-2024 19:00:00,8.563700,76.886500,PM2.5,30,35,32
India,Kerala,Thiruvananthapuram,"Kariavattom, Thiruvananthapuram - Kerala PCB",23-06-2024 19:00:00,8.563700,76.886500,SO2,1,9,4
India,Kerala,Thiruvananthapuram,"Plammoodu, Thiruvananthapuram - Kerala PCB",23-06-2024 19:00:00,8.5149093,76.9435879,CO,12,30,23
India,Kerala,Thrissur,"Corporation Ground, Thrissur - Kerala PCB",23-06-2024 19:00:00,10.532400,76.215900,NO2,7,8,7
India,Kerala,Thrissur,"Corporation Ground, Thrissur - Kerala PCB",23-06-2024 19:00:00,10.532400,76.215900,OZONE,27,32,29
India,Madhya Pradesh,Bhopal,"Idgah Hills, Bhopal - MPPCB",23-06-2024 19:00:00,23.264759,77.381568,OZONE,11,69,61
India,Madhya Pradesh,Bhopal,"Paryavaran Parisar, Bhopal - MPPCB",23-06-2024 19:00:00,23.210494,77.425409,NH3,2,3,2
India,Madhya Pradesh,Dewas,"Bhopal Chauraha, Dewas - MPPCB",23-06-2024 19:00:00,22.9682591,76.064118,PM10,30,99,56
India,Madhya Pradesh,Dewas,"Bhopal Chauraha, Dewas - MPPCB",23-06-2024 19:00:00,22.9682591,76.064118,NO2,11,15,13
India,Madhya Pradesh,Gwalior,"City Center, Gwalior - MPPCB",23-06-2024 19:00:00,26.203442,78.193251,PM2.5,23,47,34
India,Madhya Pradesh,Gwalior,"City Center, Gwalior - MPPCB",23-06-2024 19:00:00,26.203442,78.193251,SO2,17,55,42
India,Madhya Pradesh,Gwalior,"Deen Dayal Nagar, Gwalior - MPPCB",23-06-2024 19:00:00,26.259242,78.216432,PM2.5,37,84,58
India,Madhya Pradesh,Gwalior,"Deen Dayal Nagar, Gwalior - MPPCB",23-06-2024 19:00:00,26.259242,78.216432,PM10,47,116,84
India,Madhya Pradesh,Gwalior,"Maharaj Bada, Gwalior - MPPCB",23-06-2024 19:00:00,26.200388,78.147714,NO2,14,38,25
India,Madhya Pradesh,Gwalior,"Maharaj Bada, Gwalior - MPPCB",23-06-2024 19:00:00,26.200388,78.147714,CO,8,48,22
India,Madhya Pradesh,Indore,"Chhoti Gwaltoli, Indore - MPPCB",23-06-2024 19:00:00,22.4310,75.5213,PM2.5,26,68,44
India,Madhya Pradesh,Indore,"Maguda Nagar, Indore - IMC",23-06-2024 19:00:00,22.7524,75.8872,NO2,NA,NA,NA
India,Madhya Pradesh,Indore,"Regional Park, Indore - IMC",23-06-2024 19:00:00,22.6780,75.8559,CO,22,22,22
India,Madhya Pradesh,Indore,"Residency Area, Indore - IMC",23-06-2024 19:00:00,22.7084,75.8815,NO2,24,30,27
India,Madhya Pradesh,Indore,"Residency Area, Indore - IMC",23-06-2024 19:00:00,22.7084,75.8815,OZONE,10,18,16
India,Madhya Pradesh,Jabalpur,"Govindh Bhavan Colony, Jabalpur - JMC",23-06-2024 19:00:00,23.163174,79.973061,CO,4,12,10
India,Madhya Pradesh,Jabalpur,"Gupteshwar, Jabalpur - JMC",23-06-2024 19:00:00,23.142888,79.916147,OZONE,23,88,63
India,Madhya Pradesh,Maihar,"Sahilara, Maihar - KJS Cements",23-06-2024 19:00:00,24.2613009,80.7231783,SO2,10,18,13
India,Madhya Pradesh,Mandideep,"Sector-D Industrial Area, Mandideep - MPPCB",23-06-2024 19:00:00,23.108440,77.511428,NO2,13,68,27
