country,state,city,station,last_update,latitude,longitude,pollutant_id,pollutant_min,pollutant_max,pollutant_avg
India,Andhra_Pradesh,Anantapur,"Gulzarpet, Anantapur - APPCB",07-02-2024 22:00:00,14.675886,77.593027,NO2,18,55,34
India,Andhra_Pradesh,Chittoor,"Gangineni Cheruvu, Chittoor - APPCB",07-02-2024 22:00:00,13.204880,79.097889,CO,14,37,19
India,Andhra_Pradesh,Kadapa,"Yerramukkapalli, Kadapa - APPCB",07-02-2024 22:00:00,14.465052,78.824187,PM2.5,31,56,42
India,Andhra_Pradesh,Kadapa,"Yerramukkapalli, Kadapa - APPCB",07-02-2024 22:00:00,14.465052,78.824187,SO2,1,2,2
India,Andhra_Pradesh,Rajamahendravaram,"Anand Kala Kshetram, Rajamahendravaram - APPCB",07-02-2024 22:00:00,16.9872867,81.7363176,NO2,12,34,19
India,Andhra_Pradesh,Rajamahendravaram,"Anand Kala Kshetram, Rajamahendravaram - APPCB",07-02-2024 22:00:00,16.9872867,81.7363176,CO,1,104,12
India,Andhra_Pradesh,Tirupati,"Tirumala, Tirupati - APPCB",07-02-2024 22:00:00,13.67,79.35,CO,32,71,48
India,Andhra_Pradesh,Tirupati,"Vaikuntapuram, Tirupati - APPCB",07-02-2024 22:00:00,13.615387,79.409230,CO,10,16,12
India,Andhra_Pradesh,Vijayawada,"HB Colony, Vijayawada - APPCB",07-02-2024 22:00:00,16.536107,80.594233,OZONE,2,73,48
India,Andhra_Pradesh,Vijayawada,"Rajiv Gandhi Park, Vijayawada - APPCB",07-02-2024 22:00:00,16.509717,80.612222,NO2,8,72,36
India,Andhra_Pradesh,Vijayawada,"Rajiv Nagar, Vijayawada - APPCB",07-02-2024 22:00:00,16.554731,80.649110,PM10,17,359,128
India,Andhra_Pradesh,Vijayawada,"Rajiv Nagar, Vijayawada - APPCB",07-02-2024 22:00:00,16.554731,80.649110,NO2,5,18,11
India,Andhra_Pradesh,Vijayawada,"Rajiv Nagar, Vijayawada - APPCB",07-02-2024 22:00:00,16.554731,80.649110,SO2,9,24,16
India,Andhra_Pradesh,Visakhapatnam,"GVM Corporation, Visakhapatnam - APPCB",07-02-2024 22:00:00,17.72,83.3,PM10,112,203,141
India,Andhra_Pradesh,Visakhapatnam,"GVM Corporation, Visakhapatnam - APPCB",07-02-2024 22:00:00,17.72,83.3,NH3,2,6,4
India,Assam,Byrnihat,"Central Academy for SFS, Byrnihat - PCBA",07-02-2024 22:00:00,26.071318,91.87488,OZONE,11,14,12
India,Assam,Guwahati,"IITG, Guwahati - PCBA",07-02-2024 22:00:00,26.2028636,91.70046436,PM10,101,224,162
India,Assam,Guwahati,"IITG, Guwahati - PCBA",07-02-2024 22:00:00,26.2028636,91.70046436,NH3,5,6,5
India,Assam,Guwahati,"IITG, Guwahati - PCBA",07-02-2024 22:00:00,26.2028636,91.70046436,SO2,12,20,13
India,Assam,Guwahati,"LGBI Airport, Guwahati - PCBA",07-02-2024 22:00:00,26.10887,91.589544,NO2,10,67,25
India,Assam,Guwahati,"LGBI Airport, Guwahati - PCBA",07-02-2024 22:00:00,26.10887,91.589544,SO2,NA,NA,NA
India,Assam,Nagaon,"Christianpatty, Nagaon - PCBA",07-02-2024 22:00:00,26.349082,92.68449,PM2.5,NA,NA,NA
India,Assam,Nagaon,"Christianpatty, Nagaon - PCBA",07-02-2024 22:00:00,26.349082,92.68449,PM10,121,285,173
India,Assam,Nagaon,"Christianpatty, Nagaon - PCBA",07-02-2024 22:00:00,26.349082,92.68449,OZONE,5,86,48
India,Assam,Nalbari,"Bata Chowk, Nalbari - PCBA",07-02-2024 22:00:00,26.446912,91.439057,NO2,37,203,56
India,Assam,Nalbari,"Bata Chowk, Nalbari - PCBA",07-02-2024 22:00:00,26.446912,91.439057,NH3,1,2,1
India,Assam,Nalbari,"Bata Chowk, Nalbari - PCBA",07-02-2024 22:00:00,26.446912,91.439057,SO2,4,14,7
India,Assam,Nalbari,"Bata Chowk, Nalbari - PCBA",07-02-2024 22:00:00,26.446912,91.439057,CO,1,118,42
India,Assam,Nalbari,"Bata Chowk, Nalbari - PCBA",07-02-2024 22:00:00,26.446912,91.439057,OZONE,6,122,85
India,Assam,Silchar,"Tarapur, Silchar - PCBA",07-02-2024 22:00:00,24.82827,92.79525,NH3,1,1,1
India,Assam,Sivasagar,"Girls College, Sivasagar - PCBA",07-02-2024 22:00:00,26.987634,94.636574,CO,12,45,18
India,Bihar,Araria,"Kharahiya Basti, Araria - BSPCB",07-02-2024 22:00:00,26.146529,87.454184,NH3,6,7,6
India,Bihar,Arrah,"New DM Office, Arrah - BSPCB",07-02-2024 22:00:00,25.5626095,84.663264,NO2,7,29,17
India,Bihar,Arrah,"New DM Office, Arrah - BSPCB",07-02-2024 22:00:00,25.5626095,84.663264,SO2,8,21,18
India,Bihar,Aurangabad,"Gurdeo Nagar, Aurangabad - BSPCB",07-02-2024 22:00:00,24.75746,84.366208,OZONE,16,80,53
India,Bihar,Bettiah,"Kamalnath Nagar, Bettiah - BSPCB",07-02-2024 22:00:00,26.80365,84.51954,SO2,11,22,18
India,Bihar,Bhagalpur,"Mayaganj, Bhagalpur - BSPCB",07-02-2024 22:00:00,25.265194,87.012947,NH3,9,10,10
India,Bihar,Bihar Sharif,"D M Colony, Bihar Sharif - BSPCB",07-02-2024 22:00:00,25.204762,85.514960,PM2.5,15,98,62
India,Bihar,Bihar Sharif,"D M Colony, Bihar Sharif - BSPCB",07-02-2024 22:00:00,25.204762,85.514960,CO,2,54,30
India,Bihar,Buxar,"Charitra Van, Buxar - BSPCB (Formerly known as Central Jail)",07-02-2024 22:00:00,25.567520,83.966379,PM2.5,127,308,237
India,Bihar,Buxar,"Charitra Van, Buxar - BSPCB (Formerly known as Central Jail)",07-02-2024 22:00:00,25.567520,83.966379,CO,44,75,58
India,Bihar,Chhapra,"Darshan Nagar, Chhapra - BSPCB",07-02-2024 22:00:00,25.7808257,84.7446768,PM10,89,137,104
India,Bihar,Chhapra,"Darshan Nagar, Chhapra - BSPCB",07-02-2024 22:00:00,25.7808257,84.7446768,SO2,6,82,44
India,Bihar,Gaya,"Collectorate, Gaya - BSPCB",07-02-2024 22:00:00,24.7955,84.9994,SO2,16,29,20
India,Bihar,Gaya,"Collectorate, Gaya - BSPCB",07-02-2024 22:00:00,24.7955,84.9994,CO,36,86,43
India,Bihar,Gaya,"SFTI Kusdihra, Gaya - BSPCB",07-02-2024 22:00:00,24.762518,84.982348,PM2.5,52,95,74
India,Bihar,Gaya,"SFTI Kusdihra, Gaya - BSPCB",07-02-2024 22:00:00,24.762518,84.982348,NH3,4,6,5
India,Bihar,Hajipur,"Industrial Area, Hajipur - BSPCB",07-02-2024 22:00:00,25.697189,85.245900,PM10,103,317,163
India,Bihar,Kishanganj,"SDM Office_Khagra, Kishanganj - BSPCB",07-02-2024 22:00:00,26.0881305,87.93840336,PM10,99,220,128
India,Bihar,Kishanganj,"SDM Office_Khagra, Kishanganj - BSPCB",07-02-2024 22:00:00,26.0881305,87.93840336,SO2,9,24,18
India,Bihar,Kishanganj,"SDM Office_Khagra, Kishanganj - BSPCB",07-02-2024 22:00:00,26.0881305,87.93840336,CO,4,21,16
India,Bihar,Manguraha,"Forest Rest House, Manguraha - BSPCB",07-02-2024 22:00:00,27.308328,84.531742,PM2.5,NA,NA,NA
India,Bihar,Motihari,"Gandak Colony, Motihari - BSPCB",07-02-2024 22:00:00,26.63086,84.90051,SO2,NA,NA,NA
India,Bihar,Munger,"Town Hall, Munger - BSPCB",07-02-2024 22:00:00,25.376776,86.471523,NO2,8,9,9
India,Bihar,Munger,"Town Hall, Munger - BSPCB",07-02-2024 22:00:00,25.376776,86.471523,SO2,20,45,35
India,Bihar,Muzaffarpur,"Buddha Colony, Muzaffarpur - BSPCB",07-02-2024 22:00:00,26.11442,85.39813,PM2.5,80,241,152
India,Bihar,Muzaffarpur,"Buddha Colony, Muzaffarpur - BSPCB",07-02-2024 22:00:00,26.11442,85.39813,NH3,8,16,12
India,Bihar,Muzaffarpur,"MIT-Daudpur Kothi, Muzaffarpur - BSPCB",07-02-2024 22:00:00,26.1403345,85.3650192,PM2.5,83,304,139
India,Bihar,Muzaffarpur,"MIT-Daudpur Kothi, Muzaffarpur - BSPCB",07-02-2024 22:00:00,26.1403345,85.3650192,NO2,6,48,8
India,Bihar,Patna,"DRM Office Danapur, Patna - BSPCB",07-02-2024 22:00:00,25.586562,85.043586,NH3,3,5,4
India,Bihar,Patna,"DRM Office Danapur, Patna - BSPCB",07-02-2024 22:00:00,25.586562,85.043586,SO2,6,9,8
India,Bihar,Patna,"Muradpur, Patna - BSPCB",07-02-2024 22:00:00,25.619651,85.147382,PM2.5,31,140,78
India,Bihar,Patna,"Muradpur, Patna - BSPCB",07-02-2024 22:00:00,25.619651,85.147382,PM10,131,203,150
India,Bihar,Patna,"Muradpur, Patna - BSPCB",07-02-2024 22:00:00,25.619651,85.147382,NH3,3,4,4
India,Bihar,Patna,"Rajbansi Nagar, Patna - BSPCB",07-02-2024 22:00:00,25.599486,85.113666,NO2,36,104,63
India,Bihar,Patna,"Rajbansi Nagar, Patna - BSPCB",07-02-2024 22:00:00,25.599486,85.113666,SO2,3,15,8
India,Bihar,Patna,"Rajbansi Nagar, Patna - BSPCB",07-02-2024 22:00:00,25.599486,85.113666,OZONE,5,74,42
India,Bihar,Patna,"Samanpura, Patna - BSPCB",07-02-2024 22:00:00,25.596727,85.085624,PM2.5,77,351,146
India,Bihar,Patna,"Samanpura, Patna - BSPCB",07-02-2024 22:00:00,25.596727,85.085624,NH3,3,6,4
India,Bihar,Patna,"Samanpura, Patna - BSPCB",07-02-2024 22:00:00,25.596727,85.085624,SO2,15,17,16
India,Bihar,Patna,"Samanpura, Patna - BSPCB",07-02-2024 22:00:00,25.596727,85.085624,OZONE,14,39,22
India,Bihar,Purnia,"Mariam Nagar, Purnia - BSPCB",07-02-2024 22:00:00,25.366336,87.117468,SO2,17,22,20
India,Bihar,Purnia,"Mariam Nagar, Purnia - BSPCB",07-02-2024 22:00:00,25.366336,87.117468,CO,40,101,62
India,Bihar,Purnia,"Mariam Nagar, Purnia - BSPCB",07-02-2024 22:00:00,25.366336,87.117468,OZONE,10,26,18
India,Bihar,Rajgir,"Dangi Tola, Rajgir - BSPCB",07-02-2024 22:00:00,25.03280,85.41948,CO,10,11,10
India,Bihar,Rajgir,"Dangi Tola, Rajgir - BSPCB",07-02-2024 22:00:00,25.03280,85.41948,OZONE,20,25,22
India,Bihar,Samastipur,"DM Office_Kasipur, Samastipur - BSPCB",07-02-2024 22:00:00,25.859655,85.77944,PM10,NA,NA,NA
India,Chandigarh,Chandigarh,"Sector 22, Chandigarh - CPCC",07-02-2024 22:00:00,30.735567,76.775714,PM2.5,58,311,126
India,Chandigarh,Chandigarh,"Sector 22, Chandigarh - CPCC",07-02-2024 22:00:00,30.735567,76.775714,PM10,73,158,107
India,Chandigarh,Chandigarh,"Sector 22, Chandigarh - CPCC",07-02-2024 22:00:00,30.735567,76.775714,NH3,NA,NA,NA
India,Chandigarh,Chandigarh,"Sector 22, Chandigarh - CPCC",07-02-2024 22:00:00,30.735567,76.775714,CO,34,59,39
India,Chandigarh,Chandigarh,"Sector-25, Chandigarh - CPCC",07-02-2024 22:00:00,30.751462,76.762879,PM10,110,144,123
India,Chandigarh,Chandigarh,"Sector-53, Chandigarh - CPCC",07-02-2024 22:00:00,30.719859,76.738637,PM2.5,65,257,129
India,Chandigarh,Chandigarh,"Sector-53, Chandigarh - CPCC",07-02-2024 22:00:00,30.719859,76.738637,SO2,5,27,9
India,Chandigarh,Chandigarh,"Sector-53, Chandigarh - CPCC",07-02-2024 22:00:00,30.719859,76.738637,CO,40,80,58
India,Chhattisgarh,Bhilai,"32Bungalows, Bhilai - CECB",07-02-2024 22:00:00,21.194815,81.314770,NO2,16,27,21
India,Chhattisgarh,Bhilai,"32Bungalows, Bhilai - CECB",07-02-2024 22:00:00,21.194815,81.314770,SO2,3,7,4
India,Chhattisgarh,Bhilai,"Civic Center, Bhilai - Bhilai Steel Plant",07-02-2024 22:00:00,21.185571,81.343175,NO2,4,26,10
India,Chhattisgarh,Bhilai,"Civic Center, Bhilai - Bhilai Steel Plant",07-02-2024 22:00:00,21.185571,81.343175,SO2,5,13,9
India,Chhattisgarh,Bhilai,"Civic Center, Bhilai - Bhilai Steel Plant",07-02-2024 22:00:00,21.185571,81.343175,CO,28,70,48
India,Chhattisgarh,Bilaspur,"Mangala, Bilaspur - NTPC",07-02-2024 22:00:00,22.08815,82.13737,PM10,35,69,49
India,Chhattisgarh,Bilaspur,"Mangala, Bilaspur - NTPC",07-02-2024 22:00:00,22.08815,82.13737,NO2,16,18,16
India,Chhattisgarh,Chhal,"Nawapara SECL Colony, Chhal - CECB",07-02-2024 22:00:00,22.118125,83.140608,PM2.5,49,86,66
India,Chhattisgarh,Chhal,"Nawapara SECL Colony, Chhal - CECB",07-02-2024 22:00:00,22.118125,83.140608,SO2,11,84,26
India,Chhattisgarh,Chhal,"Nawapara SECL Colony, Chhal - CECB",07-02-2024 22:00:00,22.118125,83.140608,CO,40,77,56
India,Chhattisgarh,Korba,"Urja Nagar, Korba - CECB",07-02-2024 22:00:00,22.348441,82.549611,NO2,73,86,80
India,Chhattisgarh,Korba,"Urja Nagar, Korba - CECB",07-02-2024 22:00:00,22.348441,82.549611,CO,19,28,23
India,Chhattisgarh,Milupara,"Govt. Higher Secondary School, Milupara - CECB",07-02-2024 22:00:00,22.1910172,83.5197009,PM10,6,86,55
India,Chhattisgarh,Milupara,"Govt. Higher Secondary School, Milupara - CECB",07-02-2024 22:00:00,22.1910172,83.5197009,SO2,8,23,15
India,Chhattisgarh,Raipur,"Siltara Phase-II, Raipur - CECB",07-02-2024 22:00:00,21.371751,81.664929,PM10,10,133,74
India,Chhattisgarh,Raipur,"Siltara Phase-II, Raipur - CECB",07-02-2024 22:00:00,21.371751,81.664929,SO2,NA,NA,NA
India,Chhattisgarh,Tumidih,"OP Jindal Industrial Park, Tumidih - CECB",07-02-2024 22:00:00,22.06631475,83.33820077,SO2,5,9,6
India,Chhattisgarh,Tumidih,"OP Jindal Industrial Park, Tumidih - CECB",07-02-2024 22:00:00,22.06631475,83.33820077,CO,17,35,24
India,Delhi,Delhi,"Anand Vihar, Delhi - DPCC",07-02-2024 22:00:00,28.647622,77.3158090,PM2.5,67,320,168
India,Delhi,Delhi,"Anand Vihar, Delhi - DPCC",07-02-2024 22:00:00,28.647622,77.3158090,NH3,2,9,5
India,Delhi,Delhi,"Anand Vihar, Delhi - DPCC",07-02-2024 22:00:00,28.647622,77.3158090,CO,48,110,63
India,Delhi,Delhi,"Ashok Vihar, Delhi - DPCC",07-02-2024 22:00:00,28.695381,77.181665,NO2,21,107,53
India,Delhi,Delhi,"Ashok Vihar, Delhi - DPCC",07-02-2024 22:00:00,28.695381,77.181665,CO,53,74,61
India,Delhi,Delhi,"Aya Nagar, Delhi - IMD",07-02-2024 22:00:00,28.4706914,77.1099364,OZONE,5,34,17
India,Delhi,Delhi,"Burari Crossing, Delhi - IMD",07-02-2024 22:00:00,28.7256504,77.2011573,NO2,3,8,6
India,Delhi,Delhi,"Burari Crossing, Delhi - IMD",07-02-2024 22:00:00,28.7256504,77.2011573,CO,104,108,108
India,Delhi,Delhi,"DTU, Delhi - CPCB",07-02-2024 22:00:00,28.7500499,77.1112615,NH3,9,14,11
India,Delhi,Delhi,"Dr. Karni Singh Shooting Range, Delhi - DPCC",07-02-2024 22:00:00,28.498571,77.264840,CO,26,96,45
India,Delhi,Delhi,"Dwarka-Sector 8, Delhi - DPCC ",07-02-2024 22:00:00,28.5710274,77.0719006,PM10,127,465,245
India,Delhi,Delhi,"IHBAS, Dilshad Garden, Delhi - CPCB",07-02-2024 22:00:00,28.6811736,77.3025234,PM10,99,168,123
India,Delhi,Delhi,"ITO, Delhi - CPCB",07-02-2024 22:00:00,28.628624,77.241060,PM10,59,124,89
India,Delhi,Delhi,"ITO, Delhi - CPCB",07-02-2024 22:00:00,28.628624,77.241060,NH3,1,5,2
India,Delhi,Delhi,"Jawaharlal Nehru Stadium, Delhi - DPCC",07-02-2024 22:00:00,28.580280,77.233829,NO2,36,120,76
India,Delhi,Delhi,"Jawaharlal Nehru Stadium, Delhi - DPCC",07-02-2024 22:00:00,28.580280,77.233829,CO,26,104,40
India,Delhi,Delhi,"Lodhi Road, Delhi - IITM",07-02-2024 22:00:00,28.588333,77.221667,OZONE,NA,NA,NA
India,Delhi,Delhi,"Lodhi Road, Delhi - IMD",07-02-2024 22:00:00,28.5918245,77.2273074,CO,40,76,45
India,Delhi,Delhi,"Major Dhyan Chand National Stadium, Delhi - DPCC",07-02-2024 22:00:00,28.611281,77.237738,PM10,86,190,129
India,Delhi,Delhi,"Major Dhyan Chand National Stadium, Delhi - DPCC",07-02-2024 22:00:00,28.611281,77.237738,NO2,32,122,73
India,Delhi,Delhi,"Major Dhyan Chand National Stadium, Delhi - DPCC",07-02-2024 22:00:00,28.611281,77.237738,CO,3,105,51
India,Delhi,Delhi,"Najafgarh, Delhi - DPCC",07-02-2024 22:00:00,28.570173,76.933762,PM10,72,209,110
India,Delhi,Delhi,"New Moti Bagh, Delhi - MHUA",07-02-2024 22:00:00,28.57834,77.18400,NO2,1,5,3
India,Delhi,Delhi,"North Campus, DU, Delhi - IMD",07-02-2024 22:00:00,28.6573814,77.1585447,PM2.5,85,304,173
India,Delhi,Delhi,"North Campus, DU, Delhi - IMD",07-02-2024 22:00:00,28.6573814,77.1585447,OZONE,21,30,26
India,Delhi,Delhi,"Patparganj, Delhi - DPCC",07-02-2024 22:00:00,28.623763,77.287209,PM2.5,51,248,124
India,Delhi,Delhi,"Punjabi Bagh, Delhi - DPCC",07-02-2024 22:00:00,28.674045,77.131023,PM2.5,73,312,182
India,Delhi,Delhi,"Punjabi Bagh, Delhi - DPCC",07-02-2024 22:00:00,28.674045,77.131023,OZONE,7,27,19
India,Delhi,Delhi,"Pusa, Delhi - DPCC",07-02-2024 22:00:00,28.639652,77.146275,PM2.5,80,348,226
India,Delhi,Delhi,"Pusa, Delhi - DPCC",07-02-2024 22:00:00,28.639652,77.146275,NO2,126,280,201
India,Delhi,Delhi,"Rohini, Delhi - DPCC",07-02-2024 22:00:00,28.732528,77.119920,PM2.5,NA,NA,NA
India,Delhi,Delhi,"Shadipur, Delhi - CPCB",07-02-2024 22:00:00,28.6514781,77.1473105,SO2,12,16,14
India,Delhi,Delhi,"Shadipur, Delhi - CPCB",07-02-2024 22:00:00,28.6514781,77.1473105,CO,28,81,43
India,Delhi,Delhi,"Shadipur, Delhi - CPCB",07-02-2024 22:00:00,28.6514781,77.1473105,OZONE,60,260,104
India,Delhi,Delhi,"Sirifort, Delhi - CPCB",07-02-2024 22:00:00,28.5504249,77.2159377,PM10,40,76,54
India,Delhi,Delhi,"Sri Aurobindo Marg, Delhi - DPCC",07-02-2024 22:00:00,28.531346,77.190156,OZONE,1,44,20
India,Delhi,Delhi,"Vivek Vihar, Delhi - DPCC",07-02-2024 22:00:00,28.672342,77.315260,OZONE,3,33,20
India,Gujarat,Ahmedabad,"Chandkheda, Ahmedabad - IITM",07-02-2024 22:00:00,23.107969,72.574648,NO2,25,34,29
India,Gujarat,Ahmedabad,"Maninagar, Ahmedabad - GPCB",07-02-2024 22:00:00,23.002657,72.591912,PM10,NA,NA,NA
India,Gujarat,Ahmedabad,"Raikhad, Ahmedabad - IITM",07-02-2024 22:00:00,23.020509,72.579261,CO,38,107,57
India,Gujarat,Ahmedabad,"SAC ISRO Bopal, Ahmedabad - IITM",07-02-2024 22:00:00,23.041137,72.456691,PM10,59,140,82
India,Gujarat,Ahmedabad,"SAC ISRO Bopal, Ahmedabad - IITM",07-02-2024 22:00:00,23.041137,72.456691,SO2,15,23,19
India,Gujarat,Ahmedabad,"SAC ISRO Satellite, Ahmedabad - IITM",07-02-2024 22:00:00,23.023389,72.515201,PM10,88,108,99
India,Gujarat,Ahmedabad,"SVPI Airport Hansol, Ahmedabad - IITM",07-02-2024 22:00:00,23.076793,72.627874,SO2,13,25,23
India,Gujarat,Ahmedabad,"Sardar Vallabhbhai Patel Stadium, Ahmedabad - IITM",07-02-2024 22:00:00,23.043070,72.562968,NH3,2,2,2
India,Gujarat,Ahmedabad,"Sardar Vallabhbhai Patel Stadium, Ahmedabad - IITM",07-02-2024 22:00:00,23.043070,72.562968,CO,18,41,29
India,Gujarat,Gandhinagar,"GIFT City, Gandhinagar - IITM",07-02-2024 22:00:00,23.163798,72.677768,OZONE,11,34,17
India,Gujarat,Gandhinagar,"IIPHG Lekawada, Gandhinagar - IITM",07-02-2024 22:00:00,23.243639,72.68994,PM2.5,48,382,97
India,Gujarat,Gandhinagar,"IIPHG Lekawada, Gandhinagar - IITM",07-02-2024 22:00:00,23.243639,72.68994,SO2,3,131,24
India,Gujarat,Gandhinagar,"Sector-10, Gandhinagar - GPCB",07-02-2024 22:00:00,23.221714,72.654328,NO2,3,10,7
India,Gujarat,Gandhinagar,"Sector-10, Gandhinagar - GPCB",07-02-2024 22:00:00,23.221714,72.654328,CO,18,20,20
India,Gujarat,Surat,"Science Center, Surat - SMC",07-02-2024 22:00:00,21.170046,72.795405,SO2,15,22,18
India,Haryana,Ambala,"Patti Mehar, Ambala - HSPCB",07-02-2024 22:00:00,30.379589,76.778328,SO2,3,9,6
India,Haryana,Bahadurgarh,"Arya Nagar, Bahadurgarh - HSPCB",07-02-2024 22:00:00,28.6701,76.9254,PM2.5,46,165,110
India,Haryana,Bahadurgarh,"Arya Nagar, Bahadurgarh - HSPCB",07-02-2024 22:00:00,28.6701,76.9254,PM10,91,177,118
India,Haryana,Bahadurgarh,"Arya Nagar, Bahadurgarh - HSPCB",07-02-2024 22:00:00,28.6701,76.9254,NH3,10,12,11
India,Haryana,Bahadurgarh,"Arya Nagar, Bahadurgarh - HSPCB",07-02-2024 22:00:00,28.6701,76.9254,CO,40,59,50
India,Haryana,Ballabgarh,"Nathu Colony, Ballabgarh - HSPCB",07-02-2024 22:00:00,28.3419248,77.319699,PM2.5,92,349,215
India,Haryana,Ballabgarh,"Nathu Colony, Ballabgarh - HSPCB",07-02-2024 22:00:00,28.3419248,77.319699,OZONE,7,16,12
India,Haryana,Bhiwani,"H.B. Colony, Bhiwani - HSPCB",07-02-2024 22:00:00,28.806223,76.141105,NO2,5,12,9
India,Haryana,Charkhi Dadri,"Mini Secretariat, Charkhi Dadri - HSPCB",07-02-2024 22:00:00,28.593883,76.270653,PM10,92,151,114
India,Haryana,Charkhi Dadri,"Mini Secretariat, Charkhi Dadri - HSPCB",07-02-2024 22:00:00,28.593883,76.270653,NH3,5,6,5
India,Haryana,Charkhi Dadri,"Mini Secretariat, Charkhi Dadri - HSPCB",07-02-2024 22:00:00,28.593883,76.270653,SO2,6,13,9
India,Haryana,Dharuhera,"Municipal Corporation Office, Dharuhera -  HSPCB",07-02-2024 22:00:00,28.206800,76.799700,NO2,NA,NA,NA
India,Haryana,Dharuhera,"Municipal Corporation Office, Dharuhera -  HSPCB",07-02-2024 22:00:00,28.206800,76.799700,NH3,NA,NA,NA
India,Haryana,Dharuhera,"Municipal Corporation Office, Dharuhera -  HSPCB",07-02-2024 22:00:00,28.206800,76.799700,CO,10,102,23
India,Haryana,Faridabad,"New Industrial Town, Faridabad - HSPCB",07-02-2024 22:00:00,28.39072,77.30059,NO2,6,9,7
India,Haryana,Faridabad,"New Industrial Town, Faridabad - HSPCB",07-02-2024 22:00:00,28.39072,77.30059,SO2,NA,NA,NA
India,Haryana,Faridabad,"Sector 11, Faridabad - HSPCB",07-02-2024 22:00:00,28.376058,77.315741,OZONE,3,7,4
India,Haryana,Faridabad,"Sector 30, Faridabad - HSPCB",07-02-2024 22:00:00,28.4417,77.3217,PM2.5,NA,NA,NA
India,Haryana,Faridabad,"Sector 30, Faridabad - HSPCB",07-02-2024 22:00:00,28.4417,77.3217,CO,52,70,60
India,Haryana,Faridabad,"Sector- 16A, Faridabad - HSPCB",07-02-2024 22:00:00,28.4088421,77.3099081,NO2,NA,NA,NA
India,Haryana,Faridabad,"Sector- 16A, Faridabad - HSPCB",07-02-2024 22:00:00,28.4088421,77.3099081,OZONE,13,14,14
India,Haryana,Fatehabad,"Huda Sector, Fatehabad - HSPCB",07-02-2024 22:00:00,29.503664,75.467934,PM2.5,85,244,164
India,Haryana,Fatehabad,"Huda Sector, Fatehabad - HSPCB",07-02-2024 22:00:00,29.503664,75.467934,NO2,29,31,30
India,Haryana,Fatehabad,"Huda Sector, Fatehabad - HSPCB",07-02-2024 22:00:00,29.503664,75.467934,NH3,10,10,10
India,Haryana,Gurugram,"Sector-51, Gurugram - HSPCB",07-02-2024 22:00:00,28.4227,77.0667,PM10,95,292,154
India,Haryana,Gurugram,"Teri Gram, Gurugram - HSPCB",07-02-2024 22:00:00,28.4275,77.1465,PM10,NA,NA,NA
India,Haryana,Gurugram,"Teri Gram, Gurugram - HSPCB",07-02-2024 22:00:00,28.4275,77.1465,SO2,NA,NA,NA
India,Haryana,Gurugram,"Vikas Sadan, Gurugram - HSPCB",07-02-2024 22:00:00,28.4501238,77.0263051,CO,54,140,91
India,Haryana,Hisar,"Urban Estate-II, Hisar - HSPCB",07-02-2024 22:00:00,29.140560,75.744941,NH3,3,14,4
India,Haryana,Jind,"Police Lines, Jind - HSPCB",07-02-2024 22:00:00,29.307814,76.337619,NH3,2,5,4
India,Haryana,Jind,"Police Lines, Jind - HSPCB",07-02-2024 22:00:00,29.307814,76.337619,CO,7,142,59
India,Haryana,Kaithal,"Rishi Nagar, Kaithal - HSPCB",07-02-2024 22:00:00,29.8006,76.4155,NH3,8,8,8
India,Haryana,Karnal,"Sector-12, Karnal - HSPCB",07-02-2024 22:00:00,29.695300,77.002700,NH3,10,13,12
India,Haryana,Mandikhera,"General Hospital, Mandikhera - HSPCB",07-02-2024 22:00:00,27.9002,76.9938,NH3,18,21,20
India,Haryana,Mandikhera,"General Hospital, Mandikhera - HSPCB",07-02-2024 22:00:00,27.9002,76.9938,SO2,29,38,34
India,Haryana,Manesar,"Sector-2 IMT, Manesar - HSPCB",07-02-2024 22:00:00,28.360699,76.936090,SO2,7,44,27
India,Haryana,Manesar,"Sector-2 IMT, Manesar - HSPCB",07-02-2024 22:00:00,28.360699,76.936090,OZONE,5,49,37
India,Haryana,Narnaul,"Shastri Nagar, Narnaul - HSPCB",07-02-2024 22:00:00,28.060249,76.113115,SO2,13,46,16
India,Haryana,Panchkula,"Sector-6, Panchkula - HSPCB ",07-02-2024 22:00:00,30.7057778,76.8531805555555,NO2,28,31,30
India,Haryana,Panipat,"Sector-18, Panipat - HSPCB",07-02-2024 22:00:00,29.497973,76.993331,PM10,49,92,67
India,Haryana,Rohtak,"MD University, Rohtak - HSPCB",07-02-2024 22:00:00,28.52123,76.37138,PM2.5,44,93,67
India,Haryana,Sirsa,"F-Block, Sirsa - HSPCB",07-02-2024 22:00:00,29.536400,75.015800,PM2.5,22,172,108
India,Haryana,Sirsa,"F-Block, Sirsa - HSPCB",07-02-2024 22:00:00,29.536400,75.015800,PM10,103,193,123
India,Haryana,Sirsa,"F-Block, Sirsa - HSPCB",07-02-2024 22:00:00,29.536400,75.015800,NH3,11,13,13
India,Haryana,Sonipat,"Murthal, Sonipat - HSPCB",07-02-2024 22:00:00,29.027200,77.062100,PM2.5,50,96,76
India,Himachal Pradesh,Baddi,"HIMUDA Complex Phase-1, Baddi - HPPCB",07-02-2024 22:00:00,30.943887,76.801991,NH3,3,4,3
India,Jharkhand,Dhanbad,"Kalakusuma, Dhanbad - DMC",07-02-2024 22:00:00,23.811548,86.481238,NO2,NA,NA,NA
India,Jharkhand,Dhanbad,"Kalakusuma, Dhanbad - DMC",07-02-2024 22:00:00,23.811548,86.481238,CO,2,2,2
India,Jharkhand,Dhanbad,"Kalakusuma, Dhanbad - DMC",07-02-2024 22:00:00,23.811548,86.481238,OZONE,37,37,37
India,Jharkhand,Pathardih,"Mohalbani Ghat, Pathardih - DMC",07-02-2024 22:00:00,23.669880,86.411725,OZONE,11,18,13
India,Karnataka,Bagalkot,"Vidayagiri, Bagalkot - KSPCB",07-02-2024 22:00:00,16.172806,75.659694,CO,22,70,46
India,Karnataka,Belgaum,"Ramteerth Nagar, Belgaum - KSPCB",07-02-2024 22:00:00,15.888653,74.541751,SO2,8,9,8
India,Karnataka,Bengaluru,"BTM Layout, Bengaluru - CPCB",07-02-2024 22:00:00,12.9135218,77.5950804,PM2.5,22,56,32
India,Karnataka,Bengaluru,"BTM Layout, Bengaluru - CPCB",07-02-2024 22:00:00,12.9135218,77.5950804,PM10,39,106,68
India,Karnataka,Bengaluru,"BTM Layout, Bengaluru - CPCB",07-02-2024 22:00:00,12.9135218,77.5950804,OZONE,11,43,28
India,Karnataka,Bengaluru,"City Railway Station, Bengaluru - KSPCB",07-02-2024 22:00:00,12.9756843,77.5660749,SO2,13,13,13
India,Karnataka,Bengaluru,"Hombegowda Nagar, Bengaluru - KSPCB",07-02-2024 22:00:00,12.938539,77.590100,PM10,46,126,89
India,Karnataka,Bengaluru,"Hombegowda Nagar, Bengaluru - KSPCB",07-02-2024 22:00:00,12.938539,77.590100,NO2,33,43,39
India,Karnataka,Bengaluru,"Jayanagar 5th Block, Bengaluru - KSPCB",07-02-2024 22:00:00,12.920984,77.584908,PM10,82,126,114
India,Karnataka,Bengaluru,"Jayanagar 5th Block, Bengaluru - KSPCB",07-02-2024 22:00:00,12.920984,77.584908,SO2,18,28,23
India,Karnataka,Bengaluru,"Sanegurava Halli, Bengaluru - KSPCB",07-02-2024 22:00:00,12.990328,77.5431385,PM10,33,76,50
India,Karnataka,Bidar,"Naubad, Bidar - KSPCB",07-02-2024 22:00:00,17.930306,77.482194,OZONE,31,49,41
India,Karnataka,Chamarajanagar,"Urban, Chamarajanagar - KSPCB",07-02-2024 22:00:00,11.55358,76.55521,PM2.5,18,53,29
India,Karnataka,Chamarajanagar,"Urban, Chamarajanagar - KSPCB",07-02-2024 22:00:00,11.55358,76.55521,SO2,2,9,5
India,Karnataka,Chamarajanagar,"Urban, Chamarajanagar - KSPCB",07-02-2024 22:00:00,11.55358,76.55521,CO,19,24,21
India,Karnataka,Chamarajanagar,"Urban, Chamarajanagar - KSPCB",07-02-2024 22:00:00,11.55358,76.55521,OZONE,14,45,28
India,Karnataka,Davanagere,"Devaraj Urs Badavane, Davanagere - KSPCB",07-02-2024 22:00:00,14.475800,75.905200,PM10,34,127,68
India,Karnataka,Davanagere,"Devaraj Urs Badavane, Davanagere - KSPCB",07-02-2024 22:00:00,14.475800,75.905200,CO,16,21,17
India,Karnataka,Dharwad,"Kalabhavan, Dharwad - KSPCB",07-02-2024 22:00:00,15.459706,75.008381,PM2.5,NA,NA,NA
India,Karnataka,Dharwad,"Kalabhavan, Dharwad - KSPCB",07-02-2024 22:00:00,15.459706,75.008381,NH3,2,3,3
India,Karnataka,Dharwad,"Kalabhavan, Dharwad - KSPCB",07-02-2024 22:00:00,15.459706,75.008381,SO2,4,10,7
India,Karnataka,Dharwad,"Kalabhavan, Dharwad - KSPCB",07-02-2024 22:00:00,15.459706,75.008381,CO,32,139,78
India,Karnataka,Gadag,"Panchal Nagar, Gadag - KSPCB",07-02-2024 22:00:00,15.411456,75.638133,PM10,31,70,42
India,Karnataka,Gadag,"Panchal Nagar, Gadag - KSPCB",07-02-2024 22:00:00,15.411456,75.638133,SO2,13,20,16
India,Karnataka,Gadag,"Panchal Nagar, Gadag - KSPCB",07-02-2024 22:00:00,15.411456,75.638133,OZONE,24,71,62
India,Karnataka,Haveri,"Ashwini Nagar, Haveri - KSPCB",07-02-2024 22:00:00,14.791800,75.389600,NO2,NA,NA,NA
India,Karnataka,Haveri,"Ashwini Nagar, Haveri - KSPCB",07-02-2024 22:00:00,14.791800,75.389600,CO,NA,NA,NA
India,Karnataka,Kalaburagi,"Mahatma Basaveswar Colony, Kalaburgi - KSPCB",07-02-2024 22:00:00,17.336318,76.847397,PM2.5,24,71,39
India,Karnataka,Kalaburagi,"Mahatma Basaveswar Colony, Kalaburgi - KSPCB",07-02-2024 22:00:00,17.336318,76.847397,CO,35,106,58
India,Karnataka,Karwar,"KHB Colony, Karwar - KSPCB",07-02-2024 22:00:00,14.816666,74.141003,PM10,73,144,99
India,Karnataka,Karwar,"KHB Colony, Karwar - KSPCB",07-02-2024 22:00:00,14.816666,74.141003,SO2,17,18,18
India,Karnataka,Karwar,"KHB Colony, Karwar - KSPCB",07-02-2024 22:00:00,14.816666,74.141003,OZONE,21,22,21
India,Karnataka,Kolar,"Tamaka Ind. Area, Kolar - KSPCB",07-02-2024 22:00:00,13.1276288,78.1570122,CO,7,24,16
India,Karnataka,Koppal,"Diwator Nagar, Koppal - KSPCB",07-02-2024 22:00:00,15.347630,76.181767,CO,104,116,105
India,Karnataka,Madikeri,"Stuart Hill, Madikeri - KSPCB",07-02-2024 22:00:00,12.415911,75.735050,NH3,NA,NA,NA
India,Karnataka,Mangalore,"Kadri, Mangalore - KSPCB",07-02-2024 22:00:00,12.889250,74.853000,NO2,7,8,7
India,Karnataka,Mysuru,"Hebbal 1st Stage, Mysuru - KSPCB",07-02-2024 22:00:00,12.21041,76.37376,PM2.5,37,61,45
India,Karnataka,Raichur,"Haji Colony, Raichur - KSPCB",07-02-2024 22:00:00,16.208139,77.348417,PM10,79,240,125
India,Karnataka,Raichur,"Haji Colony, Raichur - KSPCB",07-02-2024 22:00:00,16.208139,77.348417,NH3,1,3,2
India,Karnataka,Raichur,"Haji Colony, Raichur - KSPCB",07-02-2024 22:00:00,16.208139,77.348417,SO2,61,73,66
India,Karnataka,Ramanagara,"Vijay Nagar, Ramanagara - KSPCB",07-02-2024 22:00:00,12.733409,77.298051,OZONE,27,31,29
India,Karnataka,Shivamogga,"Vinoba Nagara, Shivamogga - KSPCB",07-02-2024 22:00:00,13.940000,75.555917,NH3,2,7,3
India,Karnataka,Tumakuru,"Thimmalapura, Tumakuru - KSPCB",07-02-2024 22:00:00,13.377516,77.099072,SO2,8,28,11
India,Karnataka,Tumakuru,"Thimmalapura, Tumakuru - KSPCB",07-02-2024 22:00:00,13.377516,77.099072,CO,21,136,21
India,Karnataka,Udupi,"Brahmagiri, Udupi - KSPCB",07-02-2024 22:00:00,13.34194444,74.74694444,PM10,41,98,61
India,Karnataka,Udupi,"Brahmagiri, Udupi - KSPCB",07-02-2024 22:00:00,13.34194444,74.74694444,OZONE,23,24,23
India,Kerala,Eloor,"Udyogamandal, Eloor - Kerala PCB",07-02-2024 22:00:00,10.073232,76.302765,OZONE,11,19,14
India,Kerala,Kannur,"Thavakkara, Kannur - Kerala PCB",07-02-2024 22:00:00,11.875000,75.373200,PM10,57,66,63
India,Kerala,Kannur,"Thavakkara, Kannur - Kerala PCB",07-02-2024 22:00:00,11.875000,75.373200,SO2,5,6,5
India,Kerala,Kochi,"Vyttila, Kochi - Kerala PCB",07-02-2024 22:00:00,9.969447,76.321186,NH3,2,3,3
India,Kerala,Kochi,"Vyttila, Kochi - Kerala PCB",07-02-2024 22:00:00,9.969447,76.321186,CO,60,64,64
India,Kerala,Thiruvananthapuram,"Kariavattom, Thiruvananthapuram - Kerala PCB",07-02-2024 22:00:00,8.563700,76.886500,PM10,80,89,84
India,Kerala,Thiruvananthapuram,"Kariavattom, Thiruvananthapuram - Kerala PCB",07-02-2024 22:00:00,8.563700,76.886500,NH3,1,1,1
India,Kerala,Thiruvananthapuram,"Plammoodu, Thiruvananthapuram - Kerala PCB",07-02-2024 22:00:00,8.5149093,76.9435879,PM2.5,27,82,41
India,Kerala,Thiruvananthapuram,"Plammoodu, Thiruvananthapuram - Kerala PCB",07-02-2024 22:00:00,8.5149093,76.9435879,NO2,12,13,12
India,Kerala,Thiruvananthapuram,"Plammoodu, Thiruvananthapuram - Kerala PCB",07-02-2024 22:00:00,8.5149093,76.9435879,SO2,6,12,9
India,Kerala,Thiruvananthapuram,"Plammoodu, Thiruvananthapuram - Kerala PCB",07-02-2024 22:00:00,8.5149093,76.9435879,CO,19,41,24
India,Kerala,Thrissur,"Corporation Ground, Thrissur - Kerala PCB",07-02-2024 22:00:00,10.532400,76.215900,PM10,56,62,58
India,Kerala,Thrissur,"Corporation Ground, Thrissur - Kerala PCB",07-02-2024 22:00:00,10.532400,76.215900,OZONE,37,41,39
India,Madhya Pradesh,Bhopal,"Idgah Hills, Bhopal - MPPCB",07-02-2024 22:00:00,23.264759,77.381568,NO2,14,53,23
India,Madhya Pradesh,Bhopal,"Idgah Hills, Bhopal - MPPCB",07-02-2024 22:00:00,23.264759,77.381568,OZONE,30,89,69
India,Madhya Pradesh,Bhopal,"Paryavaran Parisar, Bhopal - MPPCB",07-02-2024 22:00:00,23.210494,77.425409,PM2.5,53,143,75
India,Madhya Pradesh,Bhopal,"T T Nagar, Bhopal - MPPCB",07-02-2024 22:00:00,23.233584,77.400574,OZONE,25,93,58
India,Madhya Pradesh,Gwalior,"Maharaj Bada, Gwalior - MPPCB",07-02-2024 22:00:00,26.200388,78.147714,OZONE,4,94,75
India,Madhya Pradesh,Gwalior,"Phool Bagh, Gwalior - Mondelez Ind. Food",07-02-2024 22:00:00,26.210536,78.171,PM2.5,5,311,125
India,Madhya Pradesh,Indore,"Chhoti Gwaltoli, Indore - MPPCB",07-02-2024 22:00:00,22.4310,75.5213,NO2,46,90,60
India,Madhya Pradesh,Indore,"Chhoti Gwaltoli, Indore - MPPCB",07-02-2024 22:00:00,22.4310,75.5213,NH3,5,7,6
India,Madhya Pradesh,Indore,"Chhoti Gwaltoli, Indore - MPPCB",07-02-2024 22:00:00,22.4310,75.5213,SO2,11,20,14
India,Madhya Pradesh,Indore,"Regional Park, Indore - IMC",07-02-2024 22:00:00,22.6780,75.8559,NO2,7,11,8
India,Madhya Pradesh,Indore,"Regional Park, Indore - IMC",07-02-2024 22:00:00,22.6780,75.8559,OZONE,4,17,11
India,Madhya Pradesh,Indore,"Residency Area, Indore - IMC",07-02-2024 22:00:00,22.7084,75.8815,PM2.5,47,82,60
India,Madhya Pradesh,Jabalpur,"Govindh Bhavan Colony, Jabalpur - JMC",07-02-2024 22:00:00,23.163174,79.973061,PM2.5,27,70,44
India,Madhya Pradesh,Jabalpur,"Govindh Bhavan Colony, Jabalpur - JMC",07-02-2024 22:00:00,23.163174,79.973061,NO2,12,33,16
India,Madhya Pradesh,Jabalpur,"Govindh Bhavan Colony, Jabalpur - JMC",07-02-2024 22:00:00,23.163174,79.973061,NH3,4,5,5
India,Madhya Pradesh,Jabalpur,"Marhatal, Jabalpur - MPPCB",07-02-2024 22:00:00,23.168606,79.932247,SO2,15,24,19
India,Madhya Pradesh,Jabalpur,"Marhatal, Jabalpur - MPPCB",07-02-2024 22:00:00,23.168606,79.932247,OZONE,8,49,33
India,Madhya Pradesh,Jabalpur,"Suhagi, Jabalpur - JMC",07-02-2024 22:00:00,23.218135,79.957770,SO2,6,12,10
India,Madhya Pradesh,Katni,"Gole Bazar, Katni - MPPCB",07-02-2024 22:00:00,23.50016,80.23284,PM2.5,34,193,83
India,Madhya Pradesh,Katni,"Gole Bazar, Katni - MPPCB",07-02-2024 22:00:00,23.50016,80.23284,NO2,21,67,43
India,Madhya Pradesh,Katni,"Gole Bazar, Katni - MPPCB",07-02-2024 22:00:00,23.50016,80.23284,CO,29,138,79
India,Madhya Pradesh,Mandideep,"Sector-D Industrial Area, Mandideep - MPPCB",07-02-2024 22:00:00,23.108440,77.511428,PM10,94,164,118
India,Madhya Pradesh,Pithampur,"Sector-2 Industrial Area, Pithampur - MPPCB",07-02-2024 22:00:00,22.624758,75.675238,PM2.5,45,199,98
India,Madhya Pradesh,Pithampur,"Sector-2 Industrial Area, Pithampur - MPPCB",07-02-2024 22:00:00,22.624758,75.675238,NH3,4,6,5
India,Madhya Pradesh,Pithampur,"Sector-2 Industrial Area, Pithampur - MPPCB",07-02-2024 22:00:00,22.624758,75.675238,SO2,10,16,13
India,Madhya Pradesh,Ratlam,"Shasthri Nagar, Ratlam - IPCA Lab",07-02-2024 22:00:00,23.331731,75.045981,NO2,23,86,40
India,Madhya Pradesh,Sagar,"Civil Lines, Sagar - MPPCB",07-02-2024 22:00:00,23.838586,78.759431,NO2,11,19,14
India,Madhya Pradesh,Sagar,"Deen Dayal Nagar, Sagar - MPPCB",07-02-2024 22:00:00,23.8640158,78.80289321,PM10,33,105,66
India,Madhya Pradesh,Sagar,"Deen Dayal Nagar, Sagar - MPPCB",07-02-2024 22:00:00,23.8640158,78.80289321,SO2,7,9,9
India,Madhya Pradesh,Satna,"Bandhavgar Colony, Satna - Birla Cement",07-02-2024 22:00:00,24.58434363,80.8549414,PM2.5,13,28,17
India,Madhya Pradesh,Singrauli,"Suryakiran Bhawan NCL, Singrauli - MPPCB",07-02-2024 22:00:00,24.108970,82.645580,PM2.5,NA,NA,NA
India,Madhya Pradesh,Singrauli,"Suryakiran Bhawan NCL, Singrauli - MPPCB",07-02-2024 22:00:00,24.108970,82.645580,SO2,NA,NA,NA
India,Madhya Pradesh,Ujjain,"Mahakaleshwar Temple, Ujjain - MPPCB",07-02-2024 22:00:00,23.182719 ,75.768218 ,OZONE,118,136,130
India,Maharashtra,Ahmednagar,"Tarakpur, Ahmednagar - MPCB",07-02-2024 22:00:00,19.10122,74.73339,PM10,80,170,118
India,Maharashtra,Ahmednagar,"Tarakpur, Ahmednagar - MPCB",07-02-2024 22:00:00,19.10122,74.73339,NO2,33,106,58
India,Maharashtra,Akola,"Ramdaspeth, Akola - MPCB",07-02-2024 22:00:00,20.719516,77.000253,PM10,83,218,128
India,Maharashtra,Akola,"Ramdaspeth, Akola - MPCB",07-02-2024 22:00:00,20.719516,77.000253,SO2,5,17,10
India,Maharashtra,Amravati,"Shivneri Colony, Amravati - MPCB",07-02-2024 22:00:00,20.9402359,77.7895248,PM10,88,149,114
India,Maharashtra,Amravati,"Shivneri Colony, Amravati - MPCB",07-02-2024 22:00:00,20.9402359,77.7895248,OZONE,15,97,71
India,Maharashtra,Aurangabad,"MIDC Chilkalthana, Aurangabad - MPCB",07-02-2024 22:00:00,19.875620,75.387310,PM10,83,163,118
India,Maharashtra,Aurangabad,"MIDC Chilkalthana, Aurangabad - MPCB",07-02-2024 22:00:00,19.875620,75.387310,NO2,9,121,36
India,Maharashtra,Aurangabad,"More Chowk Waluj, Aurangabad - MPCB",07-02-2024 22:00:00,19.8389439,75.244448,OZONE,2,261,87
India,Maharashtra,Badlapur,"Katrap, Badlapur - MPCB",07-02-2024 22:00:00,19.16485,73.23409,NH3,2,5,3
India,Maharashtra,Belapur,"CBD Belapur, Belapur - MPCB",07-02-2024 22:00:00,19.0243902,73.0406721,PM10,88,144,116
India,Maharashtra,Bhiwandi,"Gokul Nagar, Bhiwandi - MPCB",07-02-2024 22:00:00,19.309073,73.057223,OZONE,3,82,66
India,Maharashtra,Boisar,"Khaira, Boisar - MPCB",07-02-2024 22:00:00,19.786089,72.757971,PM10,110,170,141
India,Maharashtra,Boisar,"Khaira, Boisar - MPCB",07-02-2024 22:00:00,19.786089,72.757971,OZONE,5,7,6
India,Maharashtra,Jalna,"Old MIDC, Jalna - MPCB",07-02-2024 22:00:00,19.854616,75.905894,OZONE,9,162,61
India,Maharashtra,Kalyan,"Khadakpada, Kalyan - MPCB",07-02-2024 22:00:00,19.25292,73.142019,PM10,85,207,127
India,Maharashtra,Kalyan,"Khadakpada, Kalyan - MPCB",07-02-2024 22:00:00,19.25292,73.142019,NH3,1,4,1
India,Maharashtra,Kalyan,"Khadakpada, Kalyan - MPCB",07-02-2024 22:00:00,19.25292,73.142019,CO,10,89,16
India,Maharashtra,Kolhapur,"Shivaji University, Kolhapur - MPCB",07-02-2024 22:00:00,16.6870449,74.2505872,PM10,81,157,128
India,Maharashtra,Kolhapur,"Shivaji University, Kolhapur - MPCB",07-02-2024 22:00:00,16.6870449,74.2505872,SO2,2,15,6
India,Maharashtra,Kolhapur,"Sinchan Bhavan, Kolhapur - MPCB",07-02-2024 22:00:00,16.7143745,74.2426398,PM2.5,52,305,165
India,Maharashtra,Latur,"Sawe Wadi, Latur - MPCB",07-02-2024 22:00:00,18.39963,76.57452,PM10,58,118,84
India,Maharashtra,Latur,"Sawe Wadi, Latur - MPCB",07-02-2024 22:00:00,18.39963,76.57452,NO2,9,59,26
India,Maharashtra,Mahad,"Kamble Tarf Birwadi, Mahad - MPCB",07-02-2024 22:00:00,18.1023399,73.4783687,PM2.5,3,191,74
India,Maharashtra,Malegaon,"Mahesh Nagar, Malegaon - MPCB",07-02-2024 22:00:00,20.555712,74.529236,SO2,6,17,10
India,Maharashtra,Malegaon,"Mahesh Nagar, Malegaon - MPCB",07-02-2024 22:00:00,20.555712,74.529236,OZONE,12,73,55
India,Maharashtra,Mira-Bhayandar,"Bhayandar West, Mira-Bhayandar - MPCB",07-02-2024 22:00:00,19.296481,72.840923,PM10,80,162,121
India,Maharashtra,Mumbai,"Borivali East, Mumbai - IITM",07-02-2024 22:00:00,19.23241,72.86895,PM2.5,88,253,142
India,Maharashtra,Mumbai,"Borivali East, Mumbai - IITM",07-02-2024 22:00:00,19.23241,72.86895,PM10,97,173,136
India,Maharashtra,Mumbai,"Borivali East, Mumbai - IITM",07-02-2024 22:00:00,19.23241,72.86895,NO2,45,428,266
India,Maharashtra,Mumbai,"Borivali East, Mumbai - IITM",07-02-2024 22:00:00,19.23241,72.86895,NH3,16,50,37
India,Maharashtra,Mumbai,"Borivali East, Mumbai - IITM",07-02-2024 22:00:00,19.23241,72.86895,CO,50,110,67
India,Maharashtra,Mumbai,"Borivali East, Mumbai - IITM",07-02-2024 22:00:00,19.23241,72.86895,OZONE,8,90,67
India,Maharashtra,Mumbai,"Borivali East, Mumbai - MPCB",07-02-2024 22:00:00,19.2243333,72.8658113,PM10,48,133,89
India,Maharashtra,Mumbai,"Borivali East, Mumbai - MPCB",07-02-2024 22:00:00,19.2243333,72.8658113,CO,2,118,38
India,Maharashtra,Mumbai,"Borivali East, Mumbai - MPCB",07-02-2024 22:00:00,19.2243333,72.8658113,OZONE,7,9,8
India,Maharashtra,Mumbai,"Byculla, Mumbai - BMC",07-02-2024 22:00:00,18.9767,72.8380,NO2,16,74,33
India,Maharashtra,Mumbai,"Byculla, Mumbai - BMC",07-02-2024 22:00:00,18.9767,72.8380,NH3,3,7,4
India,Maharashtra,Mumbai,"Byculla, Mumbai - BMC",07-02-2024 22:00:00,18.9767,72.8380,OZONE,5,101,91
India,Maharashtra,Mumbai,"Chakala-Andheri East, Mumbai - IITM",07-02-2024 22:00:00,19.11074,72.86084,PM10,NA,NA,NA
India,Maharashtra,Mumbai,"Chembur, Mumbai - MPCB",07-02-2024 22:00:00,19.0364585,72.8954371,PM10,81,156,129
India,Maharashtra,Mumbai,"Chhatrapati Shivaji Intl. Airport (T2), Mumbai - MPCB",07-02-2024 22:00:00,19.10078,72.87462,PM2.5,27,47,37
India,Maharashtra,Mumbai,"Colaba, Mumbai - MPCB",07-02-2024 22:00:00,18.910000,72.820000,PM10,60,115,90
India,Maharashtra,Mumbai,"Colaba, Mumbai - MPCB",07-02-2024 22:00:00,18.910000,72.820000,NH3,1,1,1
India,Maharashtra,Mumbai,"Kandivali East, Mumbai - MPCB",07-02-2024 22:00:00,19.205800,72.868200,NH3,4,12,7
India,Maharashtra,Mumbai,"Kherwadi_Bandra East, Mumbai - MPCB",07-02-2024 22:00:00,19.0632143,72.8456324,NO2,8,61,23
India,Maharashtra,Mumbai,"Kherwadi_Bandra East, Mumbai - MPCB",07-02-2024 22:00:00,19.0632143,72.8456324,CO,13,69,24
India,Maharashtra,Mumbai,"Khindipada-Bhandup West, Mumbai - IITM",07-02-2024 22:00:00,19.1653323,72.922099,NO2,12,219,45
India,Maharashtra,Mumbai,"Khindipada-Bhandup West, Mumbai - IITM",07-02-2024 22:00:00,19.1653323,72.922099,SO2,1,4,1
India,Maharashtra,Mumbai,"Kurla, Mumbai - MPCB",07-02-2024 22:00:00,19.0863,72.8888,NO2,18,41,29
India,Maharashtra,Mumbai,"Malad West, Mumbai - IITM",07-02-2024 22:00:00,19.19709,72.82204,NH3,1,4,2
India,Maharashtra,Mumbai,"Malad West, Mumbai - IITM",07-02-2024 22:00:00,19.19709,72.82204,SO2,3,13,7
India,Maharashtra,Mumbai,"Mazgaon, Mumbai - IITM",07-02-2024 22:00:00,18.96702,72.84214,PM2.5,74,328,157
India,Maharashtra,Mumbai,"Mindspace-Malad West, Mumbai - MPCB",07-02-2024 22:00:00,19.1878657,72.8304069,PM10,115,115,115
India,Maharashtra,Mumbai,"Mulund West, Mumbai - MPCB",07-02-2024 22:00:00,19.1750,72.9419,OZONE,7,7,7
India,Maharashtra,Mumbai,"Navy Nagar-Colaba, Mumbai - IITM",07-02-2024 22:00:00,18.897756,72.813320,CO,NA,NA,NA
India,Maharashtra,Mumbai,"Sion, Mumbai - MPCB",07-02-2024 22:00:00,19.047000,72.874600,NH3,1,1,1
India,Maharashtra,Mumbai,"Vasai West, Mumbai - MPCB",07-02-2024 22:00:00,19.383200,72.820400,NO2,26,28,27
India,Maharashtra,Mumbai,"Vasai West, Mumbai - MPCB",07-02-2024 22:00:00,19.383200,72.820400,SO2,16,16,16
India,Maharashtra,Mumbai,"Worli, Mumbai - MPCB",07-02-2024 22:00:00,18.9936162,72.8128113,NO2,17,20,18
India,Maharashtra,Nagpur,"Ambazari, Nagpur - MPCB",07-02-2024 22:00:00,21.121801,79.04952,PM10,98,147,114
India,Maharashtra,Nagpur,"Ambazari, Nagpur - MPCB",07-02-2024 22:00:00,21.121801,79.04952,NH3,1,9,2
India,Maharashtra,Nagpur,"Ambazari, Nagpur - MPCB",07-02-2024 22:00:00,21.121801,79.04952,CO,8,106,57
India,Maharashtra,Nagpur,"Mahal, Nagpur - MPCB",07-02-2024 22:00:00,21.14472,79.107595,NO2,6,45,19
India,Maharashtra,Nagpur,"Opp GPO Civil Lines, Nagpur - MPCB",07-02-2024 22:00:00,21.152875,79.0517531,PM2.5,80,229,114
India,Maharashtra,Nashik,"Gangapur Road, Nashik - MPCB",07-02-2024 22:00:00,20.0073285,73.7762427,PM10,62,128,94
India,Maharashtra,Nashik,"Hirawadi, Nashik - MPCB",07-02-2024 22:00:00,20.021503,73.813844,PM2.5,41,210,84
India,Maharashtra,Nashik,"Hirawadi, Nashik - MPCB",07-02-2024 22:00:00,20.021503,73.813844,NH3,1,2,2
India,Maharashtra,Nashik,"Pandav Nagari, Nashik - MPCB",07-02-2024 22:00:00,19.9591346,73.7788008,PM10,85,143,109
India,Maharashtra,Nashik,"Pandav Nagari, Nashik - MPCB",07-02-2024 22:00:00,19.9591346,73.7788008,SO2,19,29,24
India,Maharashtra,Navi Mumbai,"Mahape, Navi Mumbai - MPCB",07-02-2024 22:00:00,19.1135051,73.008978,OZONE,15,49,26
India,Maharashtra,Navi Mumbai,"Nerul, Navi Mumbai - MPCB",07-02-2024 22:00:00,19.008751,73.016620,PM2.5,58,162,104
India,Maharashtra,Navi Mumbai,"Nerul, Navi Mumbai - MPCB",07-02-2024 22:00:00,19.008751,73.016620,PM10,114,279,164
India,Maharashtra,Navi Mumbai,"Sanpada, Navi Mumbai - MPCB",07-02-2024 22:00:00,19.0575752,73.0151367,PM2.5,39,135,90
India,Maharashtra,Navi Mumbai,"Sanpada, Navi Mumbai - MPCB",07-02-2024 22:00:00,19.0575752,73.0151367,NO2,NA,NA,NA
India,Maharashtra,Navi Mumbai,"Sector-2E Kalamboli, Navi Mumbai - MPCB",07-02-2024 22:00:00,19.02579,73.10297,OZONE,1,133,77
India,Maharashtra,Navi Mumbai,"Tondare-Taloja, Navi Mumbai - MPCB",07-02-2024 22:00:00,19.0630,73.1209,NH3,6,9,6
India,Maharashtra,Navi Mumbai,"Tondare-Taloja, Navi Mumbai - MPCB",07-02-2024 22:00:00,19.0630,73.1209,SO2,15,79,43
India,Maharashtra,Navi Mumbai,"Tondare-Taloja, Navi Mumbai - MPCB",07-02-2024 22:00:00,19.0630,73.1209,OZONE,2,113,96
India,Maharashtra,Parbhani,"Masoom Colony, Parbhani - MPCB",07-02-2024 22:00:00,19.265594,76.761463,NO2,9,50,24
India,Maharashtra,Parbhani,"Masoom Colony, Parbhani - MPCB",07-02-2024 22:00:00,19.265594,76.761463,NH3,2,3,3
India,Maharashtra,Parbhani,"Masoom Colony, Parbhani - MPCB",07-02-2024 22:00:00,19.265594,76.761463,CO,20,56,38
India,Maharashtra,Pimpri-Chinchwad,"Park Street Wakad, Pimpri Chinchwad - MPCB",07-02-2024 22:00:00,18.59051,73.77946,PM2.5,113,262,197
India,Maharashtra,Pimpri-Chinchwad,"Thergaon, Pimpri Chinchwad - MPCB",07-02-2024 22:00:00,18.616318,73.765797,CO,14,101,30
India,Maharashtra,Pune,"Alandi, Pune - IITM",07-02-2024 22:00:00,18.675076,73.892743,OZONE,1,28,13
India,Maharashtra,Pune,"Bhosari, Pune - IITM",07-02-2024 22:00:00,18.640051,73.848956,PM10,5,171,106
India,Maharashtra,Pune,"Karve Road, Pune - MPCB",07-02-2024 22:00:00,18.5011743,73.8165527,PM10,53,176,116
India,Maharashtra,Pune,"Karve Road, Pune - MPCB",07-02-2024 22:00:00,18.5011743,73.8165527,OZONE,2,9,5
India,Maharashtra,Pune,"Katraj Dairy, Pune - MPCB",07-02-2024 22:00:00,18.454450,73.854155,CO,45,105,63
India,Maharashtra,Pune,"Katraj Dairy, Pune - MPCB",07-02-2024 22:00:00,18.454450,73.854155,OZONE,2,69,32
India,Maharashtra,Pune,"Mhada Colony, Pune - IITM",07-02-2024 22:00:00,18.573040,73.927715,NO2,5,45,26
India,Maharashtra,Pune,"Revenue Colony-Shivajinagar, Pune - IITM",07-02-2024 22:00:00,18.530085,73.849598,NH3,12,25,18
India,Maharashtra,Pune,"Savitribai Phule Pune University, Pune - MPCB",07-02-2024 22:00:00,18.547056,73.826908,PM10,66,171,118
India,Maharashtra,Pune,"Transport Nagar-Nigdi, Pune - IITM",07-02-2024 22:00:00,18.664282,73.763966,PM10,23,153,112
India,Maharashtra,Pune,"Transport Nagar-Nigdi, Pune - IITM",07-02-2024 22:00:00,18.664282,73.763966,NO2,12,42,29
India,Maharashtra,Sangli,"Vijay Nagar, Sangli - MPCB",07-02-2024 22:00:00, 16.5038,74.3623,PM2.5,78,259,169
India,Maharashtra,Sangli,"Vijay Nagar, Sangli - MPCB",07-02-2024 22:00:00, 16.5038,74.3623,SO2,3,30,11
India,Maharashtra,Sangli,"Vijay Nagar, Sangli - MPCB",07-02-2024 22:00:00, 16.5038,74.3623,CO,16,117,49
India,Maharashtra,Solapur,"Ratandeep Housing Society, Solapur - MPCB",07-02-2024 22:00:00,17.65439,75.90649,NO2,24,152,70
India,Maharashtra,Solapur,"Ratandeep Housing Society, Solapur - MPCB",07-02-2024 22:00:00,17.65439,75.90649,CO,14,130,63
India,Maharashtra,Thane,"Pimpleshwar Mandir, Thane - MPCB",07-02-2024 22:00:00,19.192056,72.9585188,PM10,27,231,181
India,Maharashtra,Thane,"Pimpleshwar Mandir, Thane - MPCB",07-02-2024 22:00:00,19.192056,72.9585188,NH3,3,3,3
India,Maharashtra,Thane,"Pimpleshwar Mandir, Thane - MPCB",07-02-2024 22:00:00,19.192056,72.9585188,CO,17,147,76
India,Maharashtra,Thane,"Pimpleshwar Mandir, Thane - MPCB",07-02-2024 22:00:00,19.192056,72.9585188,OZONE,1,64,45
India,Maharashtra,Thane,"Upvan Fort, Thane - MPCB",07-02-2024 22:00:00,19.222279,72.957979,PM10,99,146,120
India,Maharashtra,Thane,"Upvan Fort, Thane - MPCB",07-02-2024 22:00:00,19.222279,72.957979,CO,2,36,25
India,Maharashtra,Virar,"Bolinj, Virar - MPCB",07-02-2024 22:00:00,19.4458210,72.7988231,OZONE,22,121,91
India,Manipur,Imphal,"DM College of Science, Imphal - Manipur PCB",07-02-2024 22:00:00,24.8207389,93.9423085,NH3,2,2,2
India,Meghalaya,Shillong,"Lumpyngngad, Shillong - Meghalaya PCB",07-02-2024 22:00:00,25.5586,91.8985,PM2.5,15,189,65
India,Meghalaya,Shillong,"Lumpyngngad, Shillong - Meghalaya PCB",07-02-2024 22:00:00,25.5586,91.8985,PM10,19,109,59
India,Meghalaya,Shillong,"Lumpyngngad, Shillong - Meghalaya PCB",07-02-2024 22:00:00,25.5586,91.8985,NO2,6,6,6
India,Meghalaya,Shillong,"Lumpyngngad, Shillong - Meghalaya PCB",07-02-2024 22:00:00,25.5586,91.8985,NH3,1,1,1
India,Mizoram,Aizawl,"Sikulpuikawn, Aizawl - Mizoram PCB",07-02-2024 22:00:00,23.7176342,92.7192841,OZONE,22,53,32
India,Odisha,Angul,"Hakimapada, Angul - OSPCB",07-02-2024 22:00:00,20.832874,85.104082,NH3,1,5,3
India,Odisha,Angul,"Hakimapada, Angul - OSPCB",07-02-2024 22:00:00,20.832874,85.104082,SO2,12,127,69
India,Odisha,Balasore,"Kalidaspur, Balasore - OSPCB",07-02-2024 22:00:00,21.51161,86.89088,NH3,3,5,4
India,Odisha,Barbil,"Forest Office, Barbil - OSPCB",07-02-2024 22:00:00,22.1166054,85.3945546,PM2.5,62,273,124
India,Odisha,Baripada,"Meher Colony, Baripada - OSPCB",07-02-2024 22:00:00,21.941841,86.728318,SO2,5,7,6
India,Odisha,Baripada,"Meher Colony, Baripada - OSPCB",07-02-2024 22:00:00,21.941841,86.728318,OZONE,12,48,34
India,Odisha,Bhubaneswar,"Patia, Bhubaneswar - OSPCB",07-02-2024 22:00:00,20.34652,85.81630,PM2.5,85,304,191
India,Odisha,Bhubaneswar,"Patia, Bhubaneswar - OSPCB",07-02-2024 22:00:00,20.34652,85.81630,OZONE,36,143,118
India,Odisha,Bileipada,"Tata Township, Bileipada - OSPCB",07-02-2024 22:00:00,22.06156703,85.47409613,NH3,11,11,11
India,Odisha,Bileipada,"Tata Township, Bileipada - OSPCB",07-02-2024 22:00:00,22.06156703,85.47409613,CO,15,90,22
India,Odisha,Byasanagar,"Ferro Chrome Colony, Byasanagar - OSPCB",07-02-2024 22:00:00,20.94185,86.11510,SO2,6,35,18
India,Odisha,Cuttack,"CDA Area, Cuttack - OSPCB",07-02-2024 22:00:00,20.48891     ,85.84768     ,SO2,4,27,16
India,Odisha,Nayagarh,"Dabuna, Nayagarh - OSPCB",07-02-2024 22:00:00,21.847279,85.416905,OZONE,1,13,6
India,Odisha,Rairangpur,"Divisional Forest Office, Rairangpur - OSPCB",07-02-2024 22:00:00,22.265816,86.174829,NH3,5,5,5
India,Odisha,Rourkela,"Fertilizer Township, Rourkela - OSPCB",07-02-2024 22:00:00,22.18972222,84.86277778,NO2,3,28,17
India,Odisha,Rourkela,"Raghunathpali, Rourkela - OSPCB",07-02-2024 22:00:00,22.220833,84.809444,PM10,99,150,117
India,Odisha,Talcher,"Talcher Coalfields,Talcher - OSPCB",07-02-2024 22:00:00,20.9360711,85.1707021,CO,20,92,58
India,Odisha,Tensa,"Barsua Iron Ore Mines, Tensa - OSPCB",07-02-2024 22:00:00,21.869985,85.167016,CO,25,37,26
India,Odisha,Tensa,"Barsua Iron Ore Mines, Tensa - OSPCB",07-02-2024 22:00:00,21.869985,85.167016,OZONE,4,29,18
India,Puducherry,Puducherry,"Jawahar Nagar, Puducherry - PPCC",07-02-2024 22:00:00,11.9309,79.8027,SO2,2,8,6
India,Punjab,Amritsar,"Golden Temple, Amritsar - PPCB",07-02-2024 22:00:00,31.620000,74.876512,NO2,9,12,11
India,Punjab,Amritsar,"Golden Temple, Amritsar - PPCB",07-02-2024 22:00:00,31.620000,74.876512,CO,23,52,42
India,Punjab,Amritsar,"Golden Temple, Amritsar - PPCB",07-02-2024 22:00:00,31.620000,74.876512,OZONE,25,33,30
India,Punjab,Bathinda,"Hardev Nagar, Bathinda - PPCB",07-02-2024 22:00:00,30.233011,74.907758,PM2.5,NA,NA,NA
India,Punjab,Bathinda,"Hardev Nagar, Bathinda - PPCB",07-02-2024 22:00:00,30.233011,74.907758,SO2,NA,NA,NA
India,Punjab,Jalandhar,"Civil Line, Jalandhar - PPCB",07-02-2024 22:00:00,31.321907,75.578914,CO,8,102,64
India,Punjab,Khanna,"Kalal Majra, Khanna - PPCB",07-02-2024 22:00:00,30.736056 ,76.209694,NH3,16,17,16
India,Punjab,Ludhiana,"Punjab Agricultural University, Ludhiana - PPCB",07-02-2024 22:00:00,30.9028,75.8086,NH3,4,8,6
India,Punjab,Ludhiana,"Punjab Agricultural University, Ludhiana - PPCB",07-02-2024 22:00:00,30.9028,75.8086,SO2,1,27,12
India,Punjab,Ludhiana,"Punjab Agricultural University, Ludhiana - PPCB",07-02-2024 22:00:00,30.9028,75.8086,OZONE,8,63,37
India,Punjab,Patiala,"Model Town, Patiala - PPCB",07-02-2024 22:00:00,30.349388,76.366642,PM2.5,44,84,65
India,Punjab,Patiala,"Model Town, Patiala - PPCB",07-02-2024 22:00:00,30.349388,76.366642,CO,22,37,29
India,Punjab,Rupnagar,"Ratanpura, Rupnagar - Ambuja Cements",07-02-2024 22:00:00,31.0325454,76.5623046,PM2.5,22,198,91
India,Rajasthan,Alwar,"Moti Doongri, Alwar - RSPCB",07-02-2024 22:00:00,27.554793,76.611536,PM10,35,103,71
India,Rajasthan,Alwar,"Moti Doongri, Alwar - RSPCB",07-02-2024 22:00:00,27.554793,76.611536,NH3,6,10,7
India,Rajasthan,Barmer,"Railway Colony, Barmer - RSPCB",07-02-2024 22:00:00,25.747299,71.393989,PM10,NA,NA,NA
India,Rajasthan,Bhilwara,"Pratap Nagar, Bhilwara - RSPCB",07-02-2024 22:00:00,25.339605,74.618883,OZONE,37,79,66
India,Rajasthan,Bhiwadi,"RIICO Ind. Area III, Bhiwadi - RSPCB",07-02-2024 22:00:00,28.194909,76.862296,PM2.5,132,321,258
India,Rajasthan,Bhiwadi,"RIICO Ind. Area III, Bhiwadi - RSPCB",07-02-2024 22:00:00,28.194909,76.862296,NO2,20,50,31
India,Rajasthan,Bhiwadi,"RIICO Ind. Area III, Bhiwadi - RSPCB",07-02-2024 22:00:00,28.194909,76.862296,SO2,4,24,11
India,Rajasthan,Bhiwadi,"RIICO Ind. Area III, Bhiwadi - RSPCB",07-02-2024 22:00:00,28.194909,76.862296,OZONE,1,45,16
India,Rajasthan,Bikaner,"MM Ground, Bikaner - RSPCB",07-02-2024 22:00:00,28.018792,73.292658,PM10,82,370,153
India,Rajasthan,Bundi,"New Colony, Bundi - RSPCB",07-02-2024 22:00:00,25.435774,75.644272,PM2.5,31,92,60
India,Rajasthan,Chittorgarh,"Shastri Nagar, Chittorgarh - RSPCB",07-02-2024 22:00:00,24.892047,74.623527,PM2.5,8,178,78
India,Rajasthan,Dholpur,"Raja Ganj, Dholpur - RSPCB",07-02-2024 22:00:00,26.699557,77.898881,PM10,61,130,103
India,Rajasthan,Jaipur,"Adarsh Nagar, Jaipur - RSPCB",07-02-2024 22:00:00,26.902909,75.836858,PM2.5,27,133,65
India,Rajasthan,Jaipur,"Adarsh Nagar, Jaipur - RSPCB",07-02-2024 22:00:00,26.902909,75.836858,SO2,10,20,14
India,Rajasthan,Jaipur,"Mansarovar Sector-12, Jaipur - RSPCB",07-02-2024 22:00:00,26.843698,75.766894,NH3,1,2,1
India,Rajasthan,Jaipur,"Police Commissionerate, Jaipur - RSPCB",07-02-2024 22:00:00,26.9164092,75.7994901,CO,26,57,40
India,Rajasthan,Jaipur,"Police Commissionerate, Jaipur - RSPCB",07-02-2024 22:00:00,26.9164092,75.7994901,OZONE,38,95,60
India,Rajasthan,Jaipur,"RIICO Sitapura, Jaipur - RSPCB",07-02-2024 22:00:00,26.786682,75.827928,PM2.5,51,312,127
India,Rajasthan,Jaipur,"RIICO Sitapura, Jaipur - RSPCB",07-02-2024 22:00:00,26.786682,75.827928,NO2,28,87,47
India,Rajasthan,Jaipur,"Sector-2 Murlipura, Jaipur - RSPCB",07-02-2024 22:00:00,26.960669,75.771817,NH3,6,6,6
India,Rajasthan,Jaipur,"Shastri Nagar, Jaipur - RSPCB",07-02-2024 22:00:00,26.9502929,75.730943,PM10,70,134,108
India,Rajasthan,Jaisalmer,"Sadar Bazar, Jaisalmer - RSPCB",07-02-2024 22:00:00,26.912329,70.909168,NO2,5,31,15
India,Rajasthan,Jaisalmer,"Sadar Bazar, Jaisalmer - RSPCB",07-02-2024 22:00:00,26.912329,70.909168,SO2,4,8,6
India,Rajasthan,Jhalawar,"Rajlaxmi Nagar, Jhalawar - RSPCB",07-02-2024 22:00:00,24.588397,76.172782,NO2,15,24,17
India,Rajasthan,Jhalawar,"Rajlaxmi Nagar, Jhalawar - RSPCB",07-02-2024 22:00:00,24.588397,76.172782,NH3,4,5,4
India,Rajasthan,Jhalawar,"Rajlaxmi Nagar, Jhalawar - RSPCB",07-02-2024 22:00:00,24.588397,76.172782,SO2,4,27,12
India,Rajasthan,Jhunjhunu,"Indra Nagar, Jhunjhunu - RSPCB",07-02-2024 22:00:00,28.108988,75.386577,NH3,13,22,17
India,Rajasthan,Jodhpur,"Collectorate, Jodhpur - RSPCB",07-02-2024 22:00:00,26.268249,73.0193853,OZONE,33,104,81
India,Rajasthan,Jodhpur,"Digari Kalan, Jodhpur - RSPCB",07-02-2024 22:00:00,26.295810,73.082283,NH3,4,6,5
India,Rajasthan,Jodhpur,"Jhalamand, Jodhpur - RSPCB",07-02-2024 22:00:00,26.215415,73.070156,SO2,5,14,7
India,Rajasthan,Jodhpur,"Mandor, Jodhpur - RSPCB",07-02-2024 22:00:00,26.358805,73.047444,CO,10,24,13
India,Rajasthan,Jodhpur,"Samrat Ashok Udhyan, Jodhpur - RSPCB",07-02-2024 22:00:00,26.253384,72.976571,PM2.5,27,81,46
India,Rajasthan,Jodhpur,"Samrat Ashok Udhyan, Jodhpur - RSPCB",07-02-2024 22:00:00,26.253384,72.976571,SO2,4,17,8
India,Rajasthan,Karauli,"Satyawati Vihar, Karauli - RSPCB",07-02-2024 22:00:00,26.506177,77.025989,NH3,NA,NA,NA
India,Rajasthan,Karauli,"Satyawati Vihar, Karauli - RSPCB",07-02-2024 22:00:00,26.506177,77.025989,SO2,NA,NA,NA
India,Rajasthan,Kota,"Nayapura, Kota - RSPCB",07-02-2024 22:00:00,25.196024,75.855668,NH3,4,7,5
India,Rajasthan,Kota,"Nayapura, Kota - RSPCB",07-02-2024 22:00:00,25.196024,75.855668,SO2,5,8,6
India,Rajasthan,Kota,"Nayapura, Kota - RSPCB",07-02-2024 22:00:00,25.196024,75.855668,CO,8,14,11
India,Rajasthan,Kota,"Shrinath Puram, Kota - RSPCB",07-02-2024 22:00:00,25.14389,75.821256,NO2,34,180,75
India,Rajasthan,Kota,"Shrinath Puram, Kota - RSPCB",07-02-2024 22:00:00,25.14389,75.821256,OZONE,46,93,78
India,Rajasthan,Nagaur,"Karni Colony, Nagaur - RSPCB",07-02-2024 22:00:00,27.213494,73.734444,PM10,61,184,106
India,Rajasthan,Nagaur,"Karni Colony, Nagaur - RSPCB",07-02-2024 22:00:00,27.213494,73.734444,SO2,2,7,4
India,Rajasthan,Nagaur,"Karni Colony, Nagaur - RSPCB",07-02-2024 22:00:00,27.213494,73.734444,CO,16,45,31
India,Rajasthan,Pali,"Indira Colony Vistar, Pali - RSPCB",07-02-2024 22:00:00,25.771061, 73.340227,PM2.5,26,90,56
India,Rajasthan,Pali,"Indira Colony Vistar, Pali - RSPCB",07-02-2024 22:00:00,25.771061, 73.340227,PM10,65,111,90
India,Rajasthan,Pratapgarh,"Pragati Nagar, Pratapgarh - RSPCB",07-02-2024 22:00:00,24.041198,74.780702,NO2,4,38,16
India,Rajasthan,Rajsamand,"Dhoinda, Rajsamand - RSPCB",07-02-2024 22:00:00,25.036360,73.883502,CO,14,44,24
India,Rajasthan,Sawai Madhopur,"Sahu Nagar, Sawai Madhopur - RSPCB",07-02-2024 22:00:00,26.031443,76.359327,NH3,1,29,12
India,Rajasthan,Sawai Madhopur,"Sahu Nagar, Sawai Madhopur - RSPCB",07-02-2024 22:00:00,26.031443,76.359327,SO2,13,26,18
India,Rajasthan,Sikar,"Radhakishan Pura, Sikar - RSPCB",07-02-2024 22:00:00,27.608912,75.153302,PM10,87,267,134
India,Rajasthan,Sikar,"Radhakishan Pura, Sikar - RSPCB",07-02-2024 22:00:00,27.608912,75.153302,CO,18,73,35
India,Rajasthan,Sirohi,"Vedhaynath Colony, Sirohi - RSPCB",07-02-2024 22:00:00,24.885261,72.857549,CO,14,54,20
India,Rajasthan,Sri Ganganagar,"Old City, Sri Ganganagar - RSPCB",07-02-2024 22:00:00,29.931624,73.864511,PM10,123,500,243
India,Rajasthan,Sri Ganganagar,"Old City, Sri Ganganagar - RSPCB",07-02-2024 22:00:00,29.931624,73.864511,OZONE,2,89,64
India,Rajasthan,Tonk,"Shastri Nagar, Tonk - RSPCB",07-02-2024 22:00:00,26.159933,75.780517,PM2.5,41,315,90
India,Rajasthan,Tonk,"Shastri Nagar, Tonk - RSPCB",07-02-2024 22:00:00,26.159933,75.780517,NO2,15,91,27
India,Rajasthan,Udaipur,"Ashok Nagar, Udaipur - RSPCB",07-02-2024 22:00:00,24.5886166,73.6321397,NH3,5,7,5
India,Sikkim,Gangtok,"Zero Point GICI, Gangtok - SSPCB",07-02-2024 22:00:00,27.338530,88.614099,SO2,9,10,9
India,TamilNadu,Ariyalur,"Keelapalur, Ariyalur - TNPCB",07-02-2024 22:00:00,11.06825,79.07033,SO2,22,24,23
India,TamilNadu,Chengalpattu,"Crescent University, Chengalpattu - TNPCB",07-02-2024 22:00:00,12.8777316,80.0834807,PM10,45,96,75
India,TamilNadu,Chengalpattu,"Crescent University, Chengalpattu - TNPCB",07-02-2024 22:00:00,12.8777316,80.0834807,OZONE,5,6,6
India,TamilNadu,Chennai,"Alandur Bus Depot, Chennai - CPCB",07-02-2024 22:00:00,12.9099161,80.1076538,PM2.5,78,342,179
India,TamilNadu,Chennai,"Alandur Bus Depot, Chennai - CPCB",07-02-2024 22:00:00,12.9099161,80.1076538,CO,62,64,62
India,TamilNadu,Chennai,"Arumbakkam, Chennai - TNPCB",07-02-2024 22:00:00,13.0664,80.2112 ,PM10,64,150,98
India,TamilNadu,Chennai,"Gandhi Nagar_Ennore, Chennai - TNPCB",07-02-2024 22:00:00,13.218341,80.32027,SO2,13,14,13
India,TamilNadu,Chennai,"Kodungaiyur, Chennai - TNPCB",07-02-2024 22:00:00,13.1278,80.2642,CO,23,53,33
India,TamilNadu,Chennai,"Manali, Chennai - CPCB",07-02-2024 22:00:00,13.164544,80.26285,PM2.5,53,115,77
India,TamilNadu,Chennai,"Manali, Chennai - CPCB",07-02-2024 22:00:00,13.164544,80.26285,CO,37,101,75
India,TamilNadu,Chennai,"Perungudi, Chennai - TNPCB",07-02-2024 22:00:00,12.9533,80.2357,NO2,2,16,8
India,TamilNadu,Chennai,"Velachery Res. Area, Chennai - CPCB",07-02-2024 22:00:00,13.0052189,80.2398125,NO2,18,74,34
India,TamilNadu,Chennai,"Velachery Res. Area, Chennai - CPCB",07-02-2024 22:00:00,13.0052189,80.2398125,SO2,24,74,30
India,TamilNadu,Coimbatore,"PSG College of Arts and Science, Coimbatore - TNPCB",07-02-2024 22:00:00,11.0328,77.0349,PM2.5,45,273,111
India,TamilNadu,Coimbatore,"PSG College of Arts and Science, Coimbatore - TNPCB",07-02-2024 22:00:00,11.0328,77.0349,NH3,1,1,1
India,TamilNadu,Cuddalore,"Kudikadu, Cuddalore - TNPCB",07-02-2024 22:00:00,11.6829898,79.7532099,PM10,77,131,106
India,TamilNadu,Cuddalore,"Semmandalam, Cuddalore - TNPCB",07-02-2024 22:00:00,11.7637683,79.7499835,NO2,8,32,19
India,TamilNadu,Gummidipoondi,"Anthoni Pillai Nagar, Gummidipoondi - TNPCB",07-02-2024 22:00:00,13.4127,80.1081,NH3,1,2,2
India,TamilNadu,Kanchipuram,"Kilambi, Kanchipuram - TNPCB",07-02-2024 22:00:00,12.864618,79.659968,PM10,NA,NA,NA
India,TamilNadu,Ooty,"Bombay Castel, Ooty - TNPCB",07-02-2024 22:00:00,11.4068288,76.7138973,NO2,2,64,25
India,TamilNadu,Ooty,"Bombay Castel, Ooty - TNPCB",07-02-2024 22:00:00,11.4068288,76.7138973,SO2,13,14,13
India,TamilNadu,Ooty,"Bombay Castel, Ooty - TNPCB",07-02-2024 22:00:00,11.4068288,76.7138973,CO,19,20,20
India,TamilNadu,Ooty,"Bombay Castel, Ooty - TNPCB",07-02-2024 22:00:00,11.4068288,76.7138973,OZONE,5,5,5
India,TamilNadu,Palkalaiperur,"Bharathidasan University, Palkalaiperur - TNPCB",07-02-2024 22:00:00,10.681158,78.741746,CO,2,26,13
India,TamilNadu,Ramanathapuram,"Chalai Bazaar, Ramanathapuram - TNPCB",07-02-2024 22:00:00,9.36399,78.831977,OZONE,13,14,14
India,TamilNadu,Salem,"Sona College of Technology, Salem - TNPCB",07-02-2024 22:00:00,11.679111,78.125052,PM2.5,34,141,78
India,TamilNadu,Salem,"Sona College of Technology, Salem - TNPCB",07-02-2024 22:00:00,11.679111,78.125052,NO2,8,11,9
India,TamilNadu,Tirupur,"Kumaran College, Tirupur - TNPCB",07-02-2024 22:00:00,11.0973603,77.3228673,PM2.5,NA,NA,NA
India,TamilNadu,Vellore,"Vasanthapuram, Vellore - TNPCB",07-02-2024 22:00:00,12.909494,79.131861,PM10,74,146,97
India,TamilNadu,Vellore,"Vasanthapuram, Vellore - TNPCB",07-02-2024 22:00:00,12.909494,79.131861,SO2,15,16,15
India,TamilNadu,Virudhunagar,"Collectorate Office, Virudhunagar - TNPCB",07-02-2024 22:00:00,9.559382,77.948828,NO2,17,57,28
India,TamilNadu,Virudhunagar,"Collectorate Office, Virudhunagar - TNPCB",07-02-2024 22:00:00,9.559382,77.948828,SO2,16,17,16
India,Telangana,Hyderabad,"Bollaram Industrial Area, Hyderabad - TSPCB",07-02-2024 22:00:00,17.540891,78.358528,NO2,15,71,38
India,Telangana,Hyderabad,"Bollaram Industrial Area, Hyderabad - TSPCB",07-02-2024 22:00:00,17.540891,78.358528,CO,19,54,32
India,Telangana,Hyderabad,"Bollaram Industrial Area, Hyderabad - TSPCB",07-02-2024 22:00:00,17.540891,78.358528,OZONE,36,39,37
India,Telangana,Hyderabad,"Central University, Hyderabad - TSPCB",07-02-2024 22:00:00,17.460103,78.334361,PM2.5,32,57,43
India,Telangana,Hyderabad,"Central University, Hyderabad - TSPCB",07-02-2024 22:00:00,17.460103,78.334361,SO2,4,9,6
India,Telangana,Hyderabad,"ECIL Kapra, Hyderabad - TSPCB",07-02-2024 22:00:00,17.470431,78.566959,NO2,11,12,12
India,Telangana,Hyderabad,"ECIL Kapra, Hyderabad - TSPCB",07-02-2024 22:00:00,17.470431,78.566959,SO2,5,21,11
India,Telangana,Hyderabad,"ECIL Kapra, Hyderabad - TSPCB",07-02-2024 22:00:00,17.470431,78.566959,CO,14,40,19
India,Telangana,Hyderabad,"ICRISAT Patancheru, Hyderabad - TSPCB",07-02-2024 22:00:00,17.518400,78.278777,NH3,2,2,2
India,Telangana,Hyderabad,"ICRISAT Patancheru, Hyderabad - TSPCB",07-02-2024 22:00:00,17.518400,78.278777,OZONE,4,125,79
India,Telangana,Hyderabad,"IITH Kandi, Hyderabad - TSPCB",07-02-2024 22:00:00,17.585705,78.126199,PM10,39,424,64
India,Telangana,Hyderabad,"IITH Kandi, Hyderabad - TSPCB",07-02-2024 22:00:00,17.585705,78.126199,NH3,2,2,2
India,Telangana,Hyderabad,"Kompally Municipal Office, Hyderabad - TSPCB",07-02-2024 22:00:00,17.544899,78.486949,NO2,8,14,10
India,Telangana,Hyderabad,"Nacharam_TSIIC IALA, Hyderabad - TSPCB",07-02-2024 22:00:00,17.429398,78.569354,NO2,13,15,14
India,Telangana,Hyderabad,"New Malakpet, Hyderabad - TSPCB",07-02-2024 22:00:00,17.37206,78.50864,PM10,58,72,62
India,Telangana,Hyderabad,"Ramachandrapuram, Hyderabad - TSPCB",07-02-2024 22:00:00,17.528544,78.286195,PM10,NA,NA,NA
India,Telangana,Hyderabad,"Ramachandrapuram, Hyderabad - TSPCB",07-02-2024 22:00:00,17.528544,78.286195,NH3,NA,NA,NA
India,Telangana,Hyderabad,"Zoo Park, Hyderabad - TSPCB",07-02-2024 22:00:00,17.349694,78.451437,PM2.5,46,143,74
India,Telangana,Hyderabad,"Zoo Park, Hyderabad - TSPCB",07-02-2024 22:00:00,17.349694,78.451437,SO2,1,16,4
India,Telangana,Hyderabad,"Zoo Park, Hyderabad - TSPCB",07-02-2024 22:00:00,17.349694,78.451437,OZONE,17,40,27
India,Tripura,Agartala,"Bardowali, Agartala - Tripura SPCB",07-02-2024 22:00:00,23.8175497,91.2726974,NH3,2,3,3
India,Uttar_Pradesh,Agra,"Manoharpur, Agra - UPPCB",07-02-2024 22:00:00,27.23711,78.01936,PM2.5,17,44,29
India,Uttar_Pradesh,Agra,"Manoharpur, Agra - UPPCB",07-02-2024 22:00:00,27.23711,78.01936,SO2,23,25,24
India,Uttar_Pradesh,Agra,"Rohta, Agra - UPPCB",07-02-2024 22:00:00,27.106972,78.000111,OZONE,14,17,14
India,Uttar_Pradesh,Agra,"Sector-3B Avas Vikas Colony, Agra - UPPCB",07-02-2024 22:00:00,27.19412,77.96237,CO,3,54,4
India,Uttar_Pradesh,Agra,"Shahjahan Garden, Agra - UPPCB",07-02-2024 22:00:00,27.169338,78.03582,SO2,34,43,37
India,Uttar_Pradesh,Agra,"Shastripuram, Agra - UPPCB",07-02-2024 22:00:00,27.19862,77.92066,PM10,48,151,70
India,Uttar_Pradesh,Agra,"Shastripuram, Agra - UPPCB",07-02-2024 22:00:00,27.19862,77.92066,NH3,6,12,8
India,Uttar_Pradesh,Baghpat,"Sardar Patel Inter College, Baghpat - UPPCB",07-02-2024 22:00:00,28.964949,77.278761,NH3,2,5,3
India,Uttar_Pradesh,Baghpat,"Sardar Patel Inter College, Baghpat - UPPCB",07-02-2024 22:00:00,28.964949,77.278761,SO2,16,40,26
India,Uttar_Pradesh,Baghpat,"Sardar Patel Inter College, Baghpat - UPPCB",07-02-2024 22:00:00,28.964949,77.278761,CO,12,52,29
India,Uttar_Pradesh,Bulandshahr,"Yamunapuram, Bulandshahr - UPPCB",07-02-2024 22:00:00,28.406963,77.849831,NH3,4,7,6
India,Uttar_Pradesh,Bulandshahr,"Yamunapuram, Bulandshahr - UPPCB",07-02-2024 22:00:00,28.406963,77.849831,SO2,17,51,33
India,Uttar_Pradesh,Bulandshahr,"Yamunapuram, Bulandshahr - UPPCB",07-02-2024 22:00:00,28.406963,77.849831,CO,2,75,20
India,Uttar_Pradesh,Firozabad,"Nagla Bhau, Firozabad - UPPCB",07-02-2024 22:00:00,27.168897,78.376960,PM2.5,24,202,55
India,Uttar_Pradesh,Firozabad,"Nagla Bhau, Firozabad - UPPCB",07-02-2024 22:00:00,27.168897,78.376960,PM10,28,103,44
India,Uttar_Pradesh,Firozabad,"Nagla Bhau, Firozabad - UPPCB",07-02-2024 22:00:00,27.168897,78.376960,NH3,2,2,2
India,Uttar_Pradesh,Ghaziabad,"Indirapuram, Ghaziabad - UPPCB",07-02-2024 22:00:00,28.646233,77.358075,NO2,40,91,62
India,Uttar_Pradesh,Ghaziabad,"Indirapuram, Ghaziabad - UPPCB",07-02-2024 22:00:00,28.646233,77.358075,OZONE,5,37,26
India,Uttar_Pradesh,Ghaziabad,"Loni, Ghaziabad - UPPCB",07-02-2024 22:00:00,28.757294,77.278792,PM2.5,27,167,91
India,Uttar_Pradesh,Ghaziabad,"Loni, Ghaziabad - UPPCB",07-02-2024 22:00:00,28.757294,77.278792,NO2,14,54,33
India,Uttar_Pradesh,Ghaziabad,"Loni, Ghaziabad - UPPCB",07-02-2024 22:00:00,28.757294,77.278792,CO,9,60,26
India,Uttar_Pradesh,Ghaziabad,"Vasundhara, Ghaziabad - UPPCB",07-02-2024 22:00:00,28.6603346,77.3572563,PM2.5,31,182,92
India,Uttar_Pradesh,Ghaziabad,"Vasundhara, Ghaziabad - UPPCB",07-02-2024 22:00:00,28.6603346,77.3572563,CO,12,90,37
India,Uttar_Pradesh,Greater Noida,"Knowledge Park - III, Greater Noida - UPPCB",07-02-2024 22:00:00,28.47272,77.482000,NH3,NA,NA,NA
India,Uttar_Pradesh,Greater Noida,"Knowledge Park - V, Greater Noida - UPPCB",07-02-2024 22:00:00,28.557054,77.453663,NO2,12,34,21
India,Uttar_Pradesh,Greater Noida,"Knowledge Park - V, Greater Noida - UPPCB",07-02-2024 22:00:00,28.557054,77.453663,OZONE,4,97,63
India,Uttar_Pradesh,Hapur,"Anand Vihar, Hapur - UPPCB",07-02-2024 22:00:00,28.725645,77.749675,NH3,3,6,4
India,Uttar_Pradesh,Jhansi,"Shivaji Nagar, Jhansi - UPPCB",07-02-2024 22:00:00,25.4547,78.6039,CO,14,49,21
India,Uttar_Pradesh,Jhansi,"Shivaji Nagar, Jhansi - UPPCB",07-02-2024 22:00:00,25.4547,78.6039,OZONE,1,112,66
India,Uttar_Pradesh,Kanpur,"FTI Kidwai Nagar, Kanpur - UPPCB",07-02-2024 22:00:00,26.428282,80.327067,SO2,22,23,22
India,Uttar_Pradesh,Kanpur,"NSI Kalyanpur, Kanpur - UPPCB",07-02-2024 22:00:00,26.509954,80.249612,NO2,10,10,10
India,Uttar_Pradesh,Lucknow,"B R Ambedkar University, Lucknow - UPPCB",07-02-2024 22:00:00,26.766433,80.927299,PM2.5,44,113,63
India,Uttar_Pradesh,Lucknow,"B R Ambedkar University, Lucknow - UPPCB",07-02-2024 22:00:00,26.766433,80.927299,CO,20,38,24
India,Uttar_Pradesh,Lucknow,"B R Ambedkar University, Lucknow - UPPCB",07-02-2024 22:00:00,26.766433,80.927299,OZONE,2,50,38
India,Uttar_Pradesh,Lucknow,"Gomti Nagar, Lucknow - UPPCB",07-02-2024 22:00:00,26.868120,81.005119,NO2,7,10,9
India,Uttar_Pradesh,Lucknow,"Kendriya Vidyalaya, Lucknow - CPCB",07-02-2024 22:00:00,26.906111,80.948222,NO2,20,102,38
India,Uttar_Pradesh,Lucknow,"Kendriya Vidyalaya, Lucknow - CPCB",07-02-2024 22:00:00,26.906111,80.948222,OZONE,10,56,46
India,Uttar_Pradesh,Lucknow,"Lalbagh, Lucknow - CPCB",07-02-2024 22:00:00,26.8458805,80.9365541,PM10,104,164,126
India,Uttar_Pradesh,Lucknow,"Lalbagh, Lucknow - CPCB",07-02-2024 22:00:00,26.8458805,80.9365541,NH3,10,13,11
India,Uttar_Pradesh,Lucknow,"Talkatora District Industries Center, Lucknow - CPCB",07-02-2024 22:00:00,26.83399722,80.8917361,PM10,14,133,103
India,Uttar_Pradesh,Meerut,"Ganga Nagar, Meerut - UPPCB",07-02-2024 22:00:00,28.999264,77.7590354,CO,12,33,18
India,Uttar_Pradesh,Meerut,"Jai Bhim Nagar, Meerut - UPPCB",07-02-2024 22:00:00,28.9535882,77.7622941,PM10,54,128,81
India,Uttar_Pradesh,Meerut,"Jai Bhim Nagar, Meerut - UPPCB",07-02-2024 22:00:00,28.9535882,77.7622941,NO2,15,66,30
India,Uttar_Pradesh,Moradabad,"Buddhi Vihar, Moradabad - UPPCB",07-02-2024 22:00:00,28.83526,78.74460,SO2,12,22,15
India,Uttar_Pradesh,Moradabad,"Eco Herbal Park, Moradabad - UPPCB",07-02-2024 22:00:00,28.840739,78.697531,PM2.5,25,70,50
India,Uttar_Pradesh,Moradabad,"Eco Herbal Park, Moradabad - UPPCB",07-02-2024 22:00:00,28.840739,78.697531,NO2,19,76,28
India,Uttar_Pradesh,Moradabad,"Employment Office, Moradabad - UPPCB",07-02-2024 22:00:00,28.88528,78.73880,NH3,4,4,4
India,Uttar_Pradesh,Moradabad,"Jigar Colony, Moradabad - UPPCB",07-02-2024 22:00:00,28.856664,78.772638,NH3,5,5,5
India,Uttar_Pradesh,Moradabad,"Jigar Colony, Moradabad - UPPCB",07-02-2024 22:00:00,28.856664,78.772638,SO2,22,36,25
India,Uttar_Pradesh,Moradabad,"Kashiram Nagar, Moradabad - UPPCB",07-02-2024 22:00:00,28.849399,78.742362,NH3,4,4,4
India,Uttar_Pradesh,Moradabad,"Kashiram Nagar, Moradabad - UPPCB",07-02-2024 22:00:00,28.849399,78.742362,SO2,30,36,31
India,Uttar_Pradesh,Moradabad,"Transport Nagar, Moradabad - UPPCB",07-02-2024 22:00:00,28.802625,78.753728,PM10,45,78,58
India,Uttar_Pradesh,Moradabad,"Transport Nagar, Moradabad - UPPCB",07-02-2024 22:00:00,28.802625,78.753728,SO2,42,47,43
India,Uttar_Pradesh,Muzaffarnagar,"New Mandi, Muzaffarnagar - UPPCB",07-02-2024 22:00:00,29.4723508,77.7194031,PM2.5,80,294,172
India,Uttar_Pradesh,Muzaffarnagar,"New Mandi, Muzaffarnagar - UPPCB",07-02-2024 22:00:00,29.4723508,77.7194031,NH3,2,3,3
India,Uttar_Pradesh,Muzaffarnagar,"New Mandi, Muzaffarnagar - UPPCB",07-02-2024 22:00:00,29.4723508,77.7194031,OZONE,32,84,68
India,Uttar_Pradesh,Noida,"Sector - 125, Noida - UPPCB",07-02-2024 22:00:00,28.5447608,77.3231257,NH3,12,16,14
India,Uttar_Pradesh,Noida,"Sector-1, Noida - UPPCB",07-02-2024 22:00:00,28.5898,77.3101,PM2.5,51,298,154
India,Uttar_Pradesh,Noida,"Sector-1, Noida - UPPCB",07-02-2024 22:00:00,28.5898,77.3101,OZONE,1,18,6
India,Uttar_Pradesh,Noida,"Sector-116, Noida - UPPCB",07-02-2024 22:00:00,28.569230,77.393848,PM2.5,39,172,90
India,Uttar_Pradesh,Noida,"Sector-116, Noida - UPPCB",07-02-2024 22:00:00,28.569230,77.393848,NO2,25,112,53
India,Uttar_Pradesh,Prayagraj,"Jhunsi, Prayagraj - UPPCB",07-02-2024 22:00:00,25.425602,81.917152,SO2,30,33,31
India,Uttar_Pradesh,Prayagraj,"Motilal Nehru NIT, Prayagraj - UPPCB",07-02-2024 22:00:00,25.494,81.863,PM10,34,80,55
India,Uttar_Pradesh,Prayagraj,"Motilal Nehru NIT, Prayagraj - UPPCB",07-02-2024 22:00:00,25.494,81.863,NH3,6,7,7
India,Uttar_Pradesh,Prayagraj,"Motilal Nehru NIT, Prayagraj - UPPCB",07-02-2024 22:00:00,25.494,81.863,CO,13,33,14
India,Uttar_Pradesh,Prayagraj,"Motilal Nehru NIT, Prayagraj - UPPCB",07-02-2024 22:00:00,25.494,81.863,OZONE,6,25,20
India,Uttar_Pradesh,Varanasi,"Bhelupur, Varanasi - UPPCB",07-02-2024 22:00:00,25.301778,82.996789,CO,14,32,19
India,Uttar_Pradesh,Varanasi,"Bhelupur, Varanasi - UPPCB",07-02-2024 22:00:00,25.301778,82.996789,OZONE,2,42,33
India,Uttar_Pradesh,Varanasi,"IESD Banaras Hindu University, Varanasi - UPPCB",07-02-2024 22:00:00,25.262326,82.995408,SO2,14,14,14
India,Uttar_Pradesh,Vrindavan,"Omex Eternity, Vrindavan - UPPCB",07-02-2024 22:00:00,27.5714090,77.6557570,SO2,35,38,36
India,Uttar_Pradesh,Vrindavan,"Omex Eternity, Vrindavan - UPPCB",07-02-2024 22:00:00,27.5714090,77.6557570,OZONE,29,31,30
India,Uttarakhand,Dehradun,"Doon University, Dehradun - UKPCB",07-02-2024 22:00:00,30.269444,78.044167,NO2,1,6,3
India,Uttarakhand,Kashipur,"Govt. Girls Inter College, Kashipur - UKPCB",07-02-2024 22:00:00,29.2124114,78.9611753,OZONE,5,20,15
India,Uttarakhand,Rishikesh,"Shivaji Nagar, Rishikesh - UKPCB",07-02-2024 22:00:00,30.075911,78.2859547,OZONE,3,71,42
India,West_Bengal,Haldia,"Priyambada Housing Estate, Haldia - WBPCB",07-02-2024 22:00:00,22.06047,88.109737,PM2.5,50,94,72
India,West_Bengal,Howrah,"Belur Math, Howrah - WBPCB",07-02-2024 22:00:00,22.629801,88.352017,PM2.5,64,189,108
India,West_Bengal,Howrah,"Belur Math, Howrah - WBPCB",07-02-2024 22:00:00,22.629801,88.352017,PM10,74,143,104
India,West_Bengal,Howrah,"Belur Math, Howrah - WBPCB",07-02-2024 22:00:00,22.629801,88.352017,NH3,5,8,5
India,West_Bengal,Howrah,"Belur Math, Howrah - WBPCB",07-02-2024 22:00:00,22.629801,88.352017,SO2,11,12,11
India,West_Bengal,Howrah,"Belur Math, Howrah - WBPCB",07-02-2024 22:00:00,22.629801,88.352017,OZONE,13,68,45
India,West_Bengal,Howrah,"Ghusuri, Howrah - WBPCB",07-02-2024 22:00:00,22.611968,88.347422,NH3,7,12,9
India,West_Bengal,Howrah,"Ghusuri, Howrah - WBPCB",07-02-2024 22:00:00,22.611968,88.347422,SO2,4,7,6
India,West_Bengal,Howrah,"Padmapukur, Howrah - WBPCB",07-02-2024 22:00:00,22.5687319,88.2797276,PM2.5,68,195,116
India,West_Bengal,Kolkata,"Bidhannagar, Kolkata - WBPCB",07-02-2024 22:00:00,22.58157048,88.41002457,PM2.5,85,234,144
India,West_Bengal,Kolkata,"Fort William, Kolkata - WBPCB",07-02-2024 22:00:00,22.556640,88.342674,NO2,29,131,66
India,West_Bengal,Kolkata,"Fort William, Kolkata - WBPCB",07-02-2024 22:00:00,22.556640,88.342674,SO2,6,27,14
India,West_Bengal,Kolkata,"Fort William, Kolkata - WBPCB",07-02-2024 22:00:00,22.556640,88.342674,CO,13,48,33
India,West_Bengal,Kolkata,"Jadavpur, Kolkata - WBPCB",07-02-2024 22:00:00,22.49929,88.36917,OZONE,9,29,19
India,West_Bengal,Kolkata,"Rabindra Bharati University, Kolkata - WBPCB",07-02-2024 22:00:00,22.627847,88.380669,SO2,NA,NA,NA
India,West_Bengal,Kolkata,"Rabindra Bharati University, Kolkata - WBPCB",07-02-2024 22:00:00,22.627847,88.380669,CO,16,52,31
India,West_Bengal,Kolkata,"Rabindra Sarobar, Kolkata - WBPCB",07-02-2024 22:00:00,22.51106,88.35142,PM2.5,64,148,99
India,West_Bengal,Kolkata,"Victoria, Kolkata - WBPCB",07-02-2024 22:00:00,22.5448082,88.3403691,PM2.5,81,236,144
India,West_Bengal,Kolkata,"Victoria, Kolkata - WBPCB",07-02-2024 22:00:00,22.5448082,88.3403691,PM10,91,144,118
India,West_Bengal,Kolkata,"Victoria, Kolkata - WBPCB",07-02-2024 22:00:00,22.5448082,88.3403691,NH3,2,8,4
India,West_Bengal,Kolkata,"Victoria, Kolkata - WBPCB",07-02-2024 22:00:00,22.5448082,88.3403691,CO,28,88,51
India,West_Bengal,Siliguri,"Ward-32 Bapupara, Siliguri - WBPCB",07-02-2024 22:00:00,26.6879226,88.4152495,PM10,82,194,112
India,West_Bengal,Siliguri,"Ward-32 Bapupara, Siliguri - WBPCB",07-02-2024 22:00:00,26.6879226,88.4152495,NO2,29,108,53
India,West_Bengal,Siliguri,"Ward-32 Bapupara, Siliguri - WBPCB",07-02-2024 22:00:00,26.6879226,88.4152495,SO2,10,12,11
India,Andhra_Pradesh,Chittoor,"Gangineni Cheruvu, Chittoor - APPCB",07-02-2024 22:00:00,13.204880,79.097889,PM10,11,279,93
India,Andhra_Pradesh,Chittoor,"Gangineni Cheruvu, Chittoor - APPCB",07-02-2024 22:00:00,13.204880,79.097889,NO2,6,24,14
India,Andhra_Pradesh,Chittoor,"Gangineni Cheruvu, Chittoor - APPCB",07-02-2024 22:00:00,13.204880,79.097889,NH3,1,2,1
India,Andhra_Pradesh,Rajamahendravaram,"Anand Kala Kshetram, Rajamahendravaram - APPCB",07-02-2024 22:00:00,16.9872867,81.7363176,PM2.5,88,137,103
India,Andhra_Pradesh,Rajamahendravaram,"Anand Kala Kshetram, Rajamahendravaram - APPCB",07-02-2024 22:00:00,16.9872867,81.7363176,PM10,74,110,94
India,Andhra_Pradesh,Rajamahendravaram,"Anand Kala Kshetram, Rajamahendravaram - APPCB",07-02-2024 22:00:00,16.9872867,81.7363176,SO2,5,12,10
India,Andhra_Pradesh,Tirupati,"Tirumala, Tirupati - APPCB",07-02-2024 22:00:00,13.67,79.35,NH3,1,4,1
India,Andhra_Pradesh,Tirupati,"Vaikuntapuram, Tirupati - APPCB",07-02-2024 22:00:00,13.615387,79.409230,PM2.5,20,62,30
India,Andhra_Pradesh,Tirupati,"Vaikuntapuram, Tirupati - APPCB",07-02-2024 22:00:00,13.615387,79.409230,PM10,17,54,27
India,Andhra_Pradesh,Tirupati,"Vaikuntapuram, Tirupati - APPCB",07-02-2024 22:00:00,13.615387,79.409230,NH3,3,5,3
India,Andhra_Pradesh,Vijayawada,"HB Colony, Vijayawada - APPCB",07-02-2024 22:00:00,16.536107,80.594233,NH3,4,5,4
India,Andhra_Pradesh,Vijayawada,"Kanuru, Vijayawada - APPCB",07-02-2024 22:00:00,16.486692,80.699436,PM10,76,95,87
India,Andhra_Pradesh,Vijayawada,"Kanuru, Vijayawada - APPCB",07-02-2024 22:00:00,16.486692,80.699436,NO2,14,20,17
India,Andhra_Pradesh,Vijayawada,"Kanuru, Vijayawada - APPCB",07-02-2024 22:00:00,16.486692,80.699436,CO,26,46,31
India,Andhra_Pradesh,Vijayawada,"Kanuru, Vijayawada - APPCB",07-02-2024 22:00:00,16.486692,80.699436,OZONE,25,25,25
India,Andhra_Pradesh,Vijayawada,"Rajiv Gandhi Park, Vijayawada - APPCB",07-02-2024 22:00:00,16.509717,80.612222,NH3,2,7,5
India,Andhra_Pradesh,Vijayawada,"Rajiv Gandhi Park, Vijayawada - APPCB",07-02-2024 22:00:00,16.509717,80.612222,CO,33,37,37
India,Andhra_Pradesh,Vijayawada,"Rajiv Gandhi Park, Vijayawada - APPCB",07-02-2024 22:00:00,16.509717,80.612222,OZONE,1,96,58
India,Andhra_Pradesh,Visakhapatnam,"GVM Corporation, Visakhapatnam - APPCB",07-02-2024 22:00:00,17.72,83.3,PM2.5,107,250,156
India,Andhra_Pradesh,Visakhapatnam,"GVM Corporation, Visakhapatnam - APPCB",07-02-2024 22:00:00,17.72,83.3,OZONE,7,25,11
India,Arunachal_Pradesh,Naharlagun,"Naharlagun, Naharlagun - APSPCB",07-02-2024 22:00:00,27.103358,93.679645,OZONE,2,2,2
India,Assam,Byrnihat,"Central Academy for SFS, Byrnihat - PCBA",07-02-2024 22:00:00,26.071318,91.87488,SO2,6,15,10
India,Assam,Guwahati,"LGBI Airport, Guwahati - PCBA",07-02-2024 22:00:00,26.10887,91.589544,PM2.5,52,323,205
India,Assam,Guwahati,"LGBI Airport, Guwahati - PCBA",07-02-2024 22:00:00,26.10887,91.589544,NH3,1,9,2
India,Assam,Nagaon,"Christianpatty, Nagaon - PCBA",07-02-2024 22:00:00,26.349082,92.68449,CO,2,72,28
India,Assam,Nalbari,"Bata Chowk, Nalbari - PCBA",07-02-2024 22:00:00,26.446912,91.439057,PM10,64,248,121
India,Assam,Sivasagar,"Girls College, Sivasagar - PCBA",07-02-2024 22:00:00,26.987634,94.636574,SO2,4,4,4
India,Assam,Sivasagar,"Girls College, Sivasagar - PCBA",07-02-2024 22:00:00,26.987634,94.636574,OZONE,1,5,2
India,Bihar,Araria,"Kharahiya Basti, Araria - BSPCB",07-02-2024 22:00:00,26.146529,87.454184,PM2.5,69,426,136
India,Bihar,Arrah,"New DM Office, Arrah - BSPCB",07-02-2024 22:00:00,25.5626095,84.663264,CO,4,17,10
India,Bihar,Bettiah,"Kamalnath Nagar, Bettiah - BSPCB",07-02-2024 22:00:00,26.80365,84.51954,NO2,10,20,15
India,Bihar,Bhagalpur,"DM Office_Kachari Chowk, Bhagalpur - BSPCB",07-02-2024 22:00:00,25.251013,86.989001,NO2,37,72,50
India,Bihar,Bhagalpur,"Mayaganj, Bhagalpur - BSPCB",07-02-2024 22:00:00,25.265194,87.012947,NO2,2,23,9
India,Bihar,Bhagalpur,"Mayaganj, Bhagalpur - BSPCB",07-02-2024 22:00:00,25.265194,87.012947,OZONE,30,103,81
India,Bihar,Bihar Sharif,"D M Colony, Bihar Sharif - BSPCB",07-02-2024 22:00:00,25.204762,85.514960,PM10,14,85,53
India,Bihar,Buxar,"Charitra Van, Buxar - BSPCB (Formerly known as Central Jail)",07-02-2024 22:00:00,25.567520,83.966379,PM10,183,372,229
India,Bihar,Buxar,"Charitra Van, Buxar - BSPCB (Formerly known as Central Jail)",07-02-2024 22:00:00,25.567520,83.966379,SO2,1,6,3
India,Bihar,Buxar,"Charitra Van, Buxar - BSPCB (Formerly known as Central Jail)",07-02-2024 22:00:00,25.567520,83.966379,OZONE,17,159,144
India,Bihar,Chhapra,"Darshan Nagar, Chhapra - BSPCB",07-02-2024 22:00:00,25.7808257,84.7446768,PM2.5,92,217,122
India,Bihar,Chhapra,"Darshan Nagar, Chhapra - BSPCB",07-02-2024 22:00:00,25.7808257,84.7446768,CO,20,44,36
India,Bihar,Chhapra,"Darshan Nagar, Chhapra - BSPCB",07-02-2024 22:00:00,25.7808257,84.7446768,OZONE,3,26,16
India,Bihar,Gaya,"Kareemganj, Gaya - BSPCB",07-02-2024 22:00:00,24.792403,84.992416,NO2,30,31,30
India,Bihar,Gaya,"SFTI Kusdihra, Gaya - BSPCB",07-02-2024 22:00:00,24.762518,84.982348,PM10,41,68,55
India,Bihar,Gaya,"SFTI Kusdihra, Gaya - BSPCB",07-02-2024 22:00:00,24.762518,84.982348,NO2,20,36,29
India,Bihar,Gaya,"SFTI Kusdihra, Gaya - BSPCB",07-02-2024 22:00:00,24.762518,84.982348,OZONE,2,59,44
India,Bihar,Manguraha,"Forest Rest House, Manguraha - BSPCB",07-02-2024 22:00:00,27.308328,84.531742,NO2,NA,NA,NA
India,Bihar,Motihari,"Gandak Colony, Motihari - BSPCB",07-02-2024 22:00:00,26.63086,84.90051,PM10,46,104,67
India,Bihar,Munger,"Town Hall, Munger - BSPCB",07-02-2024 22:00:00,25.376776,86.471523,NH3,1,2,2
India,Bihar,Munger,"Town Hall, Munger - BSPCB",07-02-2024 22:00:00,25.376776,86.471523,CO,2,129,15
India,Bihar,Munger,"Town Hall, Munger - BSPCB",07-02-2024 22:00:00,25.376776,86.471523,OZONE,11,168,56
India,Bihar,Muzaffarpur,"Buddha Colony, Muzaffarpur - BSPCB",07-02-2024 22:00:00,26.11442,85.39813,CO,1,126,35
India,Bihar,Muzaffarpur,"Buddha Colony, Muzaffarpur - BSPCB",07-02-2024 22:00:00,26.11442,85.39813,OZONE,58,127,88
India,Bihar,Muzaffarpur,"MIT-Daudpur Kothi, Muzaffarpur - BSPCB",07-02-2024 22:00:00,26.1403345,85.3650192,NH3,2,6,4
India,Bihar,Muzaffarpur,"MIT-Daudpur Kothi, Muzaffarpur - BSPCB",07-02-2024 22:00:00,26.1403345,85.3650192,CO,64,94,80
India,Bihar,Muzaffarpur,"Muzaffarpur Collectorate, Muzaffarpur - BSPCB",07-02-2024 22:00:00,26.1209,85.3647,PM2.5,49,161,80
India,Bihar,Patna,"DRM Office Danapur, Patna - BSPCB",07-02-2024 22:00:00,25.586562,85.043586,PM10,92,131,108
India,Bihar,Patna,"Govt. High School Shikarpur, Patna - BSPCB",07-02-2024 22:00:00,25.592539,85.227158,CO,44,101,64
India,Bihar,Patna,"IGSC Planetarium Complex, Patna - BSPCB",07-02-2024 22:00:00,25.610369,85.132568,PM2.5,82,385,177
India,Bihar,Patna,"IGSC Planetarium Complex, Patna - BSPCB",07-02-2024 22:00:00,25.610369,85.132568,SO2,6,8,6
India,Bihar,Patna,"Muradpur, Patna - BSPCB",07-02-2024 22:00:00,25.619651,85.147382,NO2,10,19,16
India,Bihar,Patna,"Muradpur, Patna - BSPCB",07-02-2024 22:00:00,25.619651,85.147382,CO,42,92,72
India,Bihar,Patna,"Rajbansi Nagar, Patna - BSPCB",07-02-2024 22:00:00,25.599486,85.113666,CO,41,92,78
India,Bihar,Patna,"Samanpura, Patna - BSPCB",07-02-2024 22:00:00,25.596727,85.085624,PM10,136,426,185
India,Bihar,Rajgir,"Dangi Tola, Rajgir - BSPCB",07-02-2024 22:00:00,25.03280,85.41948,NO2,1,1,1
India,Bihar,Saharsa,"Police Line, Saharsa - BSPCB",07-02-2024 22:00:00,25.892357,86.590325,NO2,6,9,7
India,Bihar,Saharsa,"Police Line, Saharsa - BSPCB",07-02-2024 22:00:00,25.892357,86.590325,SO2,21,67,33
India,Bihar,Saharsa,"Police Line, Saharsa - BSPCB",07-02-2024 22:00:00,25.892357,86.590325,CO,18,60,34
India,Bihar,Sasaram,"Dada Peer, Sasaram - BSPCB",07-02-2024 22:00:00,24.952822,84.002396,PM2.5,27,87,55
India,Bihar,Siwan,"Chitragupta Nagar, Siwan - BSPCB",07-02-2024 22:00:00,26.2271665,84.3570427,PM2.5,20,113,50
India,Chandigarh,Chandigarh,"Sector-25, Chandigarh - CPCC",07-02-2024 22:00:00,30.751462,76.762879,PM2.5,109,181,143
India,Chandigarh,Chandigarh,"Sector-25, Chandigarh - CPCC",07-02-2024 22:00:00,30.751462,76.762879,CO,18,48,22
India,Chandigarh,Chandigarh,"Sector-53, Chandigarh - CPCC",07-02-2024 22:00:00,30.719859,76.738637,OZONE,20,67,55
India,Chhattisgarh,Bhilai,"32Bungalows, Bhilai - CECB",07-02-2024 22:00:00,21.194815,81.314770,PM10,49,85,62
India,Chhattisgarh,Bhilai,"Civic Center, Bhilai - Bhilai Steel Plant",07-02-2024 22:00:00,21.185571,81.343175,PM10,57,103,70
India,Chhattisgarh,Bhilai,"Hathkhoj, Bhilai - CECB",07-02-2024 22:00:00,21.224231,81.408350,PM10,63,176,89
India,Chhattisgarh,Bhilai,"Hathkhoj, Bhilai - CECB",07-02-2024 22:00:00,21.224231,81.408350,NO2,20,56,28
India,Chhattisgarh,Bhilai,"Hathkhoj, Bhilai - CECB",07-02-2024 22:00:00,21.224231,81.408350,OZONE,10,21,18
India,Chhattisgarh,Bilaspur,"Mangala, Bilaspur - NTPC",07-02-2024 22:00:00,22.08815,82.13737,PM2.5,17,56,39
India,Chhattisgarh,Korba,"Rampur, Korba - CECB",07-02-2024 22:00:00,22.368195,82.746431,PM10,18,161,61
India,Chhattisgarh,Korba,"Rampur, Korba - CECB",07-02-2024 22:00:00,22.368195,82.746431,SO2,9,30,14
India,Chhattisgarh,Korba,"Urja Nagar, Korba - CECB",07-02-2024 22:00:00,22.348441,82.549611,PM2.5,5,53,29
India,Chhattisgarh,Korba,"Urja Nagar, Korba - CECB",07-02-2024 22:00:00,22.348441,82.549611,OZONE,46,47,47
India,Chhattisgarh,Milupara,"Govt. Higher Secondary School, Milupara - CECB",07-02-2024 22:00:00,22.1910172,83.5197009,NO2,11,52,21
India,Chhattisgarh,Milupara,"Govt. Higher Secondary School, Milupara - CECB",07-02-2024 22:00:00,22.1910172,83.5197009,CO,5,45,22
India,Chhattisgarh,Raipur,"AIIMS, Raipur - CECB",07-02-2024 22:00:00,21.258815,81.578979,PM10,61,116,90
India,Chhattisgarh,Raipur,"AIIMS, Raipur - CECB",07-02-2024 22:00:00,21.258815,81.578979,SO2,6,11,8
India,Chhattisgarh,Raipur,"AIIMS, Raipur - CECB",07-02-2024 22:00:00,21.258815,81.578979,CO,28,42,32
India,Chhattisgarh,Raipur,"Bhatagaon New ISBT, Raipur - CECB",07-02-2024 22:00:00,21.219665,81.630094,PM2.5,39,62,46
India,Chhattisgarh,Raipur,"Bhatagaon New ISBT, Raipur - CECB",07-02-2024 22:00:00,21.219665,81.630094,NH3,2,3,2
India,Chhattisgarh,Raipur,"Siltara Phase-II, Raipur - CECB",07-02-2024 22:00:00,21.371751,81.664929,NO2,32,63,44
India,Chhattisgarh,Raipur,"Siltara Phase-II, Raipur - CECB",07-02-2024 22:00:00,21.371751,81.664929,NH3,2,3,2
India,Chhattisgarh,Raipur,"Siltara Phase-II, Raipur - CECB",07-02-2024 22:00:00,21.371751,81.664929,CO,22,40,25
India,Chhattisgarh,Tumidih,"OP Jindal Industrial Park, Tumidih - CECB",07-02-2024 22:00:00,22.06631475,83.33820077,NH3,1,3,2
India,Chhattisgarh,Tumidih,"OP Jindal Industrial Park, Tumidih - CECB",07-02-2024 22:00:00,22.06631475,83.33820077,OZONE,5,60,36
India,Delhi,Delhi,"Alipur, Delhi - DPCC",07-02-2024 22:00:00,28.815329,77.153010,PM2.5,38,245,110
India,Delhi,Delhi,"Alipur, Delhi - DPCC",07-02-2024 22:00:00,28.815329,77.153010,NO2,1,77,32
India,Delhi,Delhi,"Alipur, Delhi - DPCC",07-02-2024 22:00:00,28.815329,77.153010,NH3,4,16,14
India,Delhi,Delhi,"Anand Vihar, Delhi - DPCC",07-02-2024 22:00:00,28.647622,77.3158090,NO2,58,165,94
India,Delhi,Delhi,"Ashok Vihar, Delhi - DPCC",07-02-2024 22:00:00,28.695381,77.181665,OZONE,5,18,13
India,Delhi,Delhi,"Aya Nagar, Delhi - IMD",07-02-2024 22:00:00,28.4706914,77.1099364,PM2.5,17,302,105
India,Delhi,Delhi,"Bawana, Delhi - DPCC",07-02-2024 22:00:00,28.776200,77.051074,PM2.5,67,403,216
India,Delhi,Delhi,"Bawana, Delhi - DPCC",07-02-2024 22:00:00,28.776200,77.051074,PM10,118,309,165
India,Delhi,Delhi,"Bawana, Delhi - DPCC",07-02-2024 22:00:00,28.776200,77.051074,NH3,4,7,6
India,Delhi,Delhi,"Bawana, Delhi - DPCC",07-02-2024 22:00:00,28.776200,77.051074,CO,28,64,42
India,Delhi,Delhi,"Burari Crossing, Delhi - IMD",07-02-2024 22:00:00,28.7256504,77.2011573,OZONE,21,52,43
India,Delhi,Delhi,"Dr. Karni Singh Shooting Range, Delhi - DPCC",07-02-2024 22:00:00,28.498571,77.264840,PM10,112,216,157
India,Delhi,Delhi,"Dwarka-Sector 8, Delhi - DPCC ",07-02-2024 22:00:00,28.5710274,77.0719006,CO,24,107,42
India,Delhi,Delhi,"IGI Airport (T3), Delhi - IMD",07-02-2024 22:00:00,28.5627763,77.1180053,OZONE,11,53,38
India,Delhi,Delhi,"IHBAS, Dilshad Garden, Delhi - CPCB",07-02-2024 22:00:00,28.6811736,77.3025234,SO2,8,22,11
India,Delhi,Delhi,"IHBAS, Dilshad Garden, Delhi - CPCB",07-02-2024 22:00:00,28.6811736,77.3025234,OZONE,5,26,19
India,Delhi,Delhi,"ITO, Delhi - CPCB",07-02-2024 22:00:00,28.628624,77.241060,CO,16,106,44
India,Delhi,Delhi,"ITO, Delhi - CPCB",07-02-2024 22:00:00,28.628624,77.241060,OZONE,21,138,76
India,Delhi,Delhi,"Jahangirpuri, Delhi - DPCC",07-02-2024 22:00:00,28.732820,77.170633,PM2.5,81,380,248
India,Delhi,Delhi,"Lodhi Road, Delhi - IITM",07-02-2024 22:00:00,28.588333,77.221667,NH3,NA,NA,NA
India,Delhi,Delhi,"Lodhi Road, Delhi - IMD",07-02-2024 22:00:00,28.5918245,77.2273074,PM2.5,35,151,75
India,Delhi,Delhi,"Mandir Marg, Delhi - DPCC",07-02-2024 22:00:00,28.636429,77.201067,PM2.5,64,304,150
India,Delhi,Delhi,"Mandir Marg, Delhi - DPCC",07-02-2024 22:00:00,28.636429,77.201067,SO2,7,11,9
India,Delhi,Delhi,"Mundka, Delhi - DPCC",07-02-2024 22:00:00,28.684678,77.076574,NO2,30,104,65
India,Delhi,Delhi,"Mundka, Delhi - DPCC",07-02-2024 22:00:00,28.684678,77.076574,SO2,3,13,7
India,Delhi,Delhi,"Najafgarh, Delhi - DPCC",07-02-2024 22:00:00,28.570173,76.933762,PM2.5,42,197,112
India,Delhi,Delhi,"Najafgarh, Delhi - DPCC",07-02-2024 22:00:00,28.570173,76.933762,SO2,5,17,9
India,Delhi,Delhi,"Najafgarh, Delhi - DPCC",07-02-2024 22:00:00,28.570173,76.933762,CO,4,38,12
India,Delhi,Delhi,"Najafgarh, Delhi - DPCC",07-02-2024 22:00:00,28.570173,76.933762,OZONE,8,135,112
India,Delhi,Delhi,"Narela, Delhi - DPCC",07-02-2024 22:00:00,28.822836,77.101981,OZONE,16,125,83
India,Delhi,Delhi,"Nehru Nagar, Delhi - DPCC",07-02-2024 22:00:00,28.567890,77.250515,PM2.5,56,378,223
India,Delhi,Delhi,"Nehru Nagar, Delhi - DPCC",07-02-2024 22:00:00,28.567890,77.250515,SO2,2,21,13
India,Delhi,Delhi,"Nehru Nagar, Delhi - DPCC",07-02-2024 22:00:00,28.567890,77.250515,OZONE,1,113,68
India,Delhi,Delhi,"New Moti Bagh, Delhi - MHUA",07-02-2024 22:00:00,28.57834,77.18400,CO,14,102,25
India,Delhi,Delhi,"North Campus, DU, Delhi - IMD",07-02-2024 22:00:00,28.6573814,77.1585447,PM10,114,208,142
India,Delhi,Delhi,"Okhla Phase-2, Delhi - DPCC",07-02-2024 22:00:00,28.530785,77.271255,OZONE,10,74,45
India,Delhi,Delhi,"Patparganj, Delhi - DPCC",07-02-2024 22:00:00,28.623763,77.287209,NO2,31,71,49
India,Delhi,Delhi,"Pusa, Delhi - DPCC",07-02-2024 22:00:00,28.639652,77.146275,NH3,19,26,22
India,Delhi,Delhi,"Pusa, Delhi - DPCC",07-02-2024 22:00:00,28.639652,77.146275,CO,4,106,62
India,Delhi,Delhi,"R K Puram, Delhi - DPCC",07-02-2024 22:00:00,28.563262,77.186937,OZONE,9,107,65
India,Delhi,Delhi,"Sonia Vihar, Delhi - DPCC",07-02-2024 22:00:00,28.710508,77.249485,SO2,4,12,8
India,Delhi,Delhi,"Sonia Vihar, Delhi - DPCC",07-02-2024 22:00:00,28.710508,77.249485,CO,41,106,57
India,Delhi,Delhi,"Sri Aurobindo Marg, Delhi - DPCC",07-02-2024 22:00:00,28.531346,77.190156,PM2.5,56,266,164
India,Delhi,Delhi,"Sri Aurobindo Marg, Delhi - DPCC",07-02-2024 22:00:00,28.531346,77.190156,PM10,107,176,137
India,Delhi,Delhi,"Sri Aurobindo Marg, Delhi - DPCC",07-02-2024 22:00:00,28.531346,77.190156,NO2,18,84,45
India,Delhi,Delhi,"Sri Aurobindo Marg, Delhi - DPCC",07-02-2024 22:00:00,28.531346,77.190156,CO,10,56,23
India,Delhi,Delhi,"Vivek Vihar, Delhi - DPCC",07-02-2024 22:00:00,28.672342,77.315260,CO,12,86,29
India,Delhi,Delhi,"Wazirpur, Delhi - DPCC",07-02-2024 22:00:00,28.699793,77.165453,NH3,3,6,4
India,Gujarat,Ahmedabad,"Chandkheda, Ahmedabad - IITM",07-02-2024 22:00:00,23.107969,72.574648,SO2,9,21,14
India,Gujarat,Ahmedabad,"Chandkheda, Ahmedabad - IITM",07-02-2024 22:00:00,23.107969,72.574648,OZONE,14,15,15
India,Gujarat,Ahmedabad,"Maninagar, Ahmedabad - GPCB",07-02-2024 22:00:00,23.002657,72.591912,NO2,NA,NA,NA
India,Gujarat,Ahmedabad,"Raikhad, Ahmedabad - IITM",07-02-2024 22:00:00,23.020509,72.579261,PM10,67,127,110
India,Gujarat,Ahmedabad,"Raikhad, Ahmedabad - IITM",07-02-2024 22:00:00,23.020509,72.579261,NO2,35,82,54
India,Gujarat,Ahmedabad,"Raikhad, Ahmedabad - IITM",07-02-2024 22:00:00,23.020509,72.579261,NH3,1,3,2
India,Gujarat,Ahmedabad,"Raikhad, Ahmedabad - IITM",07-02-2024 22:00:00,23.020509,72.579261,SO2,5,15,8
India,Gujarat,Ahmedabad,"Rakhial, Ahmedabad - IITM",07-02-2024 22:00:00,23.016834,72.625775,PM2.5,NA,NA,NA
India,Gujarat,Ahmedabad,"Rakhial, Ahmedabad - IITM",07-02-2024 22:00:00,23.016834,72.625775,PM10,NA,NA,NA
India,Gujarat,Ahmedabad,"SAC ISRO Satellite, Ahmedabad - IITM",07-02-2024 22:00:00,23.023389,72.515201,NO2,17,17,17
India,Gujarat,Ahmedabad,"SVPI Airport Hansol, Ahmedabad - IITM",07-02-2024 22:00:00,23.076793,72.627874,PM10,66,105,85
India,Gujarat,Ahmedabad,"Sardar Vallabhbhai Patel Stadium, Ahmedabad - IITM",07-02-2024 22:00:00,23.043070,72.562968,PM2.5,71,148,94
India,Gujarat,Ankleshwar,"GIDC, Ankleshwar - GPCB",07-02-2024 22:00:00,21.613267,73.010555,PM2.5,64,201,131
India,Gujarat,Ankleshwar,"GIDC, Ankleshwar - GPCB",07-02-2024 22:00:00,21.613267,73.010555,NH3,6,7,6
India,Gujarat,Ankleshwar,"GIDC, Ankleshwar - GPCB",07-02-2024 22:00:00,21.613267,73.010555,SO2,19,105,55
India,Gujarat,Gandhinagar,"GIFT City, Gandhinagar - IITM",07-02-2024 22:00:00,23.163798,72.677768,PM10,69,105,90
India,Gujarat,Gandhinagar,"GIFT City, Gandhinagar - IITM",07-02-2024 22:00:00,23.163798,72.677768,CO,11,24,18
India,Gujarat,Gandhinagar,"IIPHG Lekawada, Gandhinagar - IITM",07-02-2024 22:00:00,23.243639,72.68994,NH3,4,4,4
India,Gujarat,Gandhinagar,"Sector-10, Gandhinagar - GPCB",07-02-2024 22:00:00,23.221714,72.654328,SO2,6,11,8
India,Gujarat,Gandhinagar,"Sector-10, Gandhinagar - GPCB",07-02-2024 22:00:00,23.221714,72.654328,OZONE,2,41,29
India,Gujarat,Surat,"Science Center, Surat - SMC",07-02-2024 22:00:00,21.170046,72.795405,PM2.5,NA,NA,NA
India,Gujarat,Surat,"Science Center, Surat - SMC",07-02-2024 22:00:00,21.170046,72.795405,PM10,2,91,44
India,Gujarat,Surat,"Science Center, Surat - SMC",07-02-2024 22:00:00,21.170046,72.795405,CO,44,64,47
India,Gujarat,Vapi,"Phase-1 GIDC, Vapi - GPCB",07-02-2024 22:00:00,20.362421,72.918013,NH3,16,19,17
India,Gujarat,Vapi,"Phase-1 GIDC, Vapi - GPCB",07-02-2024 22:00:00,20.362421,72.918013,SO2,44,45,44
India,Gujarat,Vatva,"Phase-4 GIDC, Vatva - GPCB",07-02-2024 22:00:00,22.969611,72.643500,PM10,56,94,71
India,Gujarat,Vatva,"Phase-4 GIDC, Vatva - GPCB",07-02-2024 22:00:00,22.969611,72.643500,SO2,3,17,6
India,Haryana,Ambala,"Patti Mehar, Ambala - HSPCB",07-02-2024 22:00:00,30.379589,76.778328,PM2.5,35,73,54
India,Haryana,Bahadurgarh,"Arya Nagar, Bahadurgarh - HSPCB",07-02-2024 22:00:00,28.6701,76.9254,NO2,31,40,36
India,Haryana,Ballabgarh,"Nathu Colony, Ballabgarh - HSPCB",07-02-2024 22:00:00,28.3419248,77.319699,NO2,11,13,12
India,Haryana,Bhiwani,"H.B. Colony, Bhiwani - HSPCB",07-02-2024 22:00:00,28.806223,76.141105,CO,18,46,30
India,Haryana,Charkhi Dadri,"Mini Secretariat, Charkhi Dadri - HSPCB",07-02-2024 22:00:00,28.593883,76.270653,PM2.5,92,252,142
India,Haryana,Charkhi Dadri,"Mini Secretariat, Charkhi Dadri - HSPCB",07-02-2024 22:00:00,28.593883,76.270653,NO2,9,14,11
India,Haryana,Charkhi Dadri,"Mini Secretariat, Charkhi Dadri - HSPCB",07-02-2024 22:00:00,28.593883,76.270653,CO,22,62,30
India,Haryana,Dharuhera,"Municipal Corporation Office, Dharuhera -  HSPCB",07-02-2024 22:00:00,28.206800,76.799700,PM2.5,36,184,104
India,Haryana,Faridabad,"New Industrial Town, Faridabad - HSPCB",07-02-2024 22:00:00,28.39072,77.30059,PM2.5,178,327,257
India,Haryana,Faridabad,"Sector 30, Faridabad - HSPCB",07-02-2024 22:00:00,28.4417,77.3217,PM10,NA,NA,NA
India,Haryana,Faridabad,"Sector 30, Faridabad - HSPCB",07-02-2024 22:00:00,28.4417,77.3217,OZONE,20,41,30
India,Haryana,Gurugram,"NISE Gwal Pahari, Gurugram - IMD",07-02-2024 22:00:00,28.422681,77.148944,PM2.5,NA,NA,NA
India,Haryana,Gurugram,"NISE Gwal Pahari, Gurugram - IMD",07-02-2024 22:00:00,28.422681,77.148944,PM10,NA,NA,NA
India,Haryana,Gurugram,"NISE Gwal Pahari, Gurugram - IMD",07-02-2024 22:00:00,28.422681,77.148944,CO,NA,NA,NA
India,Haryana,Gurugram,"NISE Gwal Pahari, Gurugram - IMD",07-02-2024 22:00:00,28.422681,77.148944,OZONE,NA,NA,NA
India,Haryana,Gurugram,"Teri Gram, Gurugram - HSPCB",07-02-2024 22:00:00,28.4275,77.1465,PM2.5,NA,NA,NA
India,Haryana,Gurugram,"Teri Gram, Gurugram - HSPCB",07-02-2024 22:00:00,28.4275,77.1465,NO2,NA,NA,NA
India,Haryana,Gurugram,"Vikas Sadan, Gurugram - HSPCB",07-02-2024 22:00:00,28.4501238,77.0263051,PM2.5,21,173,109
India,Haryana,Gurugram,"Vikas Sadan, Gurugram - HSPCB",07-02-2024 22:00:00,28.4501238,77.0263051,SO2,22,30,26
India,Haryana,Hisar,"Urban Estate-II, Hisar - HSPCB",07-02-2024 22:00:00,29.140560,75.744941,PM10,91,204,120
India,Haryana,Hisar,"Urban Estate-II, Hisar - HSPCB",07-02-2024 22:00:00,29.140560,75.744941,OZONE,23,125,100
India,Haryana,Jind,"Police Lines, Jind - HSPCB",07-02-2024 22:00:00,29.307814,76.337619,PM10,85,112,96
India,Haryana,Kaithal,"Rishi Nagar, Kaithal - HSPCB",07-02-2024 22:00:00,29.8006,76.4155,OZONE,4,13,10
India,Haryana,Karnal,"Sector-12, Karnal - HSPCB",07-02-2024 22:00:00,29.695300,77.002700,PM2.5,40,66,51
India,Haryana,Kurukshetra,"Sector-7, Kurukshetra - HSPCB",07-02-2024 22:00:00,29.966942,76.875879,PM2.5,67,135,92
India,Haryana,Manesar,"Sector-2 IMT, Manesar - HSPCB",07-02-2024 22:00:00,28.360699,76.936090,NO2,11,18,15
India,Haryana,Narnaul,"Shastri Nagar, Narnaul - HSPCB",07-02-2024 22:00:00,28.060249,76.113115,CO,1,16,6
India,Haryana,Palwal,"Shyam Nagar, Palwal - HSPCB",07-02-2024 22:00:00,28.1485564,77.3320667,PM2.5,58,77,66
India,Haryana,Palwal,"Shyam Nagar, Palwal - HSPCB",07-02-2024 22:00:00,28.1485564,77.3320667,PM10,92,136,108
India,Haryana,Palwal,"Shyam Nagar, Palwal - HSPCB",07-02-2024 22:00:00,28.1485564,77.3320667,SO2,1,12,6
India,Haryana,Palwal,"Shyam Nagar, Palwal - HSPCB",07-02-2024 22:00:00,28.1485564,77.3320667,CO,4,16,8
India,Haryana,Palwal,"Shyam Nagar, Palwal - HSPCB",07-02-2024 22:00:00,28.1485564,77.3320667,OZONE,1,31,9
India,Haryana,Panipat,"Sector-18, Panipat - HSPCB",07-02-2024 22:00:00,29.497973,76.993331,PM2.5,60,84,70
India,Haryana,Panipat,"Sector-18, Panipat - HSPCB",07-02-2024 22:00:00,29.497973,76.993331,NO2,15,33,22
India,Haryana,Panipat,"Sector-18, Panipat - HSPCB",07-02-2024 22:00:00,29.497973,76.993331,CO,4,26,25
India,Haryana,Rohtak,"MD University, Rohtak - HSPCB",07-02-2024 22:00:00,28.52123,76.37138,NO2,46,54,51
India,Haryana,Rohtak,"MD University, Rohtak - HSPCB",07-02-2024 22:00:00,28.52123,76.37138,SO2,6,8,7
India,Haryana,Sonipat,"Murthal, Sonipat - HSPCB",07-02-2024 22:00:00,29.027200,77.062100,NO2,37,44,40
India,Haryana,Sonipat,"Murthal, Sonipat - HSPCB",07-02-2024 22:00:00,29.027200,77.062100,NH3,5,10,9
India,Haryana,Yamuna Nagar,"Gobind Pura, Yamuna Nagar - HSPCB",07-02-2024 22:00:00,30.1480566,77.2893471,SO2,2,12,7
India,Haryana,Yamuna Nagar,"Gobind Pura, Yamuna Nagar - HSPCB",07-02-2024 22:00:00,30.1480566,77.2893471,CO,29,46,38
India,Himachal Pradesh,Baddi,"HIMUDA Complex Phase-1, Baddi - HPPCB",07-02-2024 22:00:00,30.943887,76.801991,NO2,8,31,18
India,Himachal Pradesh,Baddi,"HIMUDA Complex Phase-1, Baddi - HPPCB",07-02-2024 22:00:00,30.943887,76.801991,CO,6,24,12
India,Himachal Pradesh,Baddi,"HIMUDA Complex Phase-1, Baddi - HPPCB",07-02-2024 22:00:00,30.943887,76.801991,OZONE,12,98,82
India,Jharkhand,Dhanbad,"Sardar Patel Nagar, Dhanbad - JSPCB",07-02-2024 22:00:00,23.80569,86.44268,PM2.5,NA,NA,NA
India,Jharkhand,Dhanbad,"Sardar Patel Nagar, Dhanbad - JSPCB",07-02-2024 22:00:00,23.80569,86.44268,NO2,NA,NA,NA
India,Jharkhand,Dhanbad,"Sardar Patel Nagar, Dhanbad - JSPCB",07-02-2024 22:00:00,23.80569,86.44268,CO,158,177,177
India,Karnataka,Bagalkot,"Vidayagiri, Bagalkot - KSPCB",07-02-2024 22:00:00,16.172806,75.659694,PM2.5,20,30,29
India,Karnataka,Bagalkot,"Vidayagiri, Bagalkot - KSPCB",07-02-2024 22:00:00,16.172806,75.659694,PM10,46,51,48
India,Karnataka,Belgaum,"Ramteerth Nagar, Belgaum - KSPCB",07-02-2024 22:00:00,15.888653,74.541751,OZONE,19,20,19
India,Karnataka,Bengaluru,"BTM Layout, Bengaluru - CPCB",07-02-2024 22:00:00,12.9135218,77.5950804,NH3,13,51,19
India,Karnataka,Bengaluru,"Bapuji Nagar, Bengaluru - KSPCB",07-02-2024 22:00:00,12.951913,77.539784,NH3,1,1,1
India,Karnataka,Bengaluru,"Bapuji Nagar, Bengaluru - KSPCB",07-02-2024 22:00:00,12.951913,77.539784,CO,36,50,41
India,Karnataka,Bengaluru,"Hombegowda Nagar, Bengaluru - KSPCB",07-02-2024 22:00:00,12.938539,77.590100,NH3,2,2,2
India,Karnataka,Bengaluru,"Jayanagar 5th Block, Bengaluru - KSPCB",07-02-2024 22:00:00,12.920984,77.584908,PM2.5,58,98,86
India,Karnataka,Bengaluru,"Jayanagar 5th Block, Bengaluru - KSPCB",07-02-2024 22:00:00,12.920984,77.584908,NO2,10,23,16
India,Karnataka,Bengaluru,"Jigani, Bengaluru - KSPCB",07-02-2024 22:00:00,12.7816279,77.6299145,PM2.5,3,305,103
India,Karnataka,Bengaluru,"Jigani, Bengaluru - KSPCB",07-02-2024 22:00:00,12.7816279,77.6299145,OZONE,9,79,34
India,Karnataka,Bengaluru,"Kasturi Nagar, Bengaluru - KSPCB",07-02-2024 22:00:00,13.003872,77.664217,PM10,21,329,164
India,Karnataka,Bengaluru,"Kasturi Nagar, Bengaluru - KSPCB",07-02-2024 22:00:00,13.003872,77.664217,NO2,16,17,16
India,Karnataka,Bengaluru,"Peenya, Bengaluru - CPCB",07-02-2024 22:00:00,13.0270199,77.494094,PM2.5,NA,NA,NA
India,Karnataka,Bengaluru,"Peenya, Bengaluru - CPCB",07-02-2024 22:00:00,13.0270199,77.494094,PM10,56,106,78
India,Karnataka,Bengaluru,"Peenya, Bengaluru - CPCB",07-02-2024 22:00:00,13.0270199,77.494094,SO2,13,24,17
India,Karnataka,Bengaluru,"Peenya, Bengaluru - CPCB",07-02-2024 22:00:00,13.0270199,77.494094,CO,26,48,39
India,Karnataka,Bengaluru,"Silk Board, Bengaluru - KSPCB",07-02-2024 22:00:00,12.917348,77.622813,SO2,4,17,10
India,Karnataka,Bidar,"Naubad, Bidar - KSPCB",07-02-2024 22:00:00,17.930306,77.482194,PM10,NA,NA,NA
India,Karnataka,Chamarajanagar,"Urban, Chamarajanagar - KSPCB",07-02-2024 22:00:00,11.55358,76.55521,NO2,24,50,34
India,Karnataka,Chikkaballapur,"Chikkaballapur Rural, Chikkaballapur - KSPCB",07-02-2024 22:00:00,13.428828,77.731418,PM2.5,29,252,103
India,Karnataka,Chikkaballapur,"Chikkaballapur Rural, Chikkaballapur - KSPCB",07-02-2024 22:00:00,13.428828,77.731418,SO2,17,28,22
India,Karnataka,Chikkamagaluru,"Kalyana Nagara, Chikkamagaluru - KSPCB",07-02-2024 22:00:00,13.328028,75.797056,NO2,17,27,22
India,Karnataka,Chikkamagaluru,"Kalyana Nagara, Chikkamagaluru - KSPCB",07-02-2024 22:00:00,13.328028,75.797056,NH3,3,5,4
India,Karnataka,Davanagere,"Devaraj Urs Badavane, Davanagere - KSPCB",07-02-2024 22:00:00,14.475800,75.905200,OZONE,18,27,25
India,Karnataka,Gadag,"Panchal Nagar, Gadag - KSPCB",07-02-2024 22:00:00,15.411456,75.638133,NH3,2,3,2
India,Karnataka,Hassan,"B.Katihalli, Hassan - KSPCB",07-02-2024 22:00:00,13.008556,76.125258,PM2.5,27,98,53
India,Karnataka,Hassan,"B.Katihalli, Hassan - KSPCB",07-02-2024 22:00:00,13.008556,76.125258,SO2,12,16,14
India,Karnataka,Haveri,"Ashwini Nagar, Haveri - KSPCB",07-02-2024 22:00:00,14.791800,75.389600,NH3,NA,NA,NA
India,Karnataka,Haveri,"Ashwini Nagar, Haveri - KSPCB",07-02-2024 22:00:00,14.791800,75.389600,SO2,NA,NA,NA
