country,state,city,station,last_update,latitude,longitude,pollutant_id,pollutant_min,pollutant_max,pollutant_avg
India,Andhra_Pradesh,Amaravati,"Secretariat, Amaravati - APPCB",22-01-2024 08:00:00,16.5150833,80.5181667,PM2.5,16,48,34
India,Andhra_Pradesh,Amaravati,"Secretariat, Amaravati - APPCB",22-01-2024 08:00:00,16.5150833,80.5181667,PM10,22,65,42
India,Andhra_Pradesh,Amaravati,"Secretariat, Amaravati - APPCB",22-01-2024 08:00:00,16.5150833,80.5181667,SO2,11,13,13
India,Andhra_Pradesh,Anantapur,"Gulzarpet, Anantapur - APPCB",22-01-2024 08:00:00,14.675886,77.593027,SO2,3,9,5
India,Andhra_Pradesh,Kadapa,"Yerramukkapalli, Kadapa - APPCB",22-01-2024 08:00:00,14.465052,78.824187,PM2.5,27,50,34
India,Andhra_Pradesh,Kadapa,"Yerramukkapalli, Kadapa - APPCB",22-01-2024 08:00:00,14.465052,78.824187,PM10,25,43,30
India,Andhra_Pradesh,Kadapa,"Yerramukkapalli, Kadapa - APPCB",22-01-2024 08:00:00,14.465052,78.824187,SO2,1,2,1
India,Andhra_Pradesh,Rajamahendravaram,"Anand Kala Kshetram, Rajamahendravaram - APPCB",22-01-2024 08:00:00,16.9872867,81.7363176,CO,NA,NA,NA
India,Andhra_Pradesh,Tirupati,"Tirumala, Tirupati - APPCB",22-01-2024 08:00:00,13.67,79.35,PM2.5,39,98,65
India,Andhra_Pradesh,Tirupati,"Tirumala, Tirupati - APPCB",22-01-2024 08:00:00,13.67,79.35,CO,38,54,41
India,Andhra_Pradesh,Tirupati,"Vaikuntapuram, Tirupati - APPCB",22-01-2024 08:00:00,13.615387,79.409230,CO,8,17,13
India,Andhra_Pradesh,Vijayawada,"HB Colony, Vijayawada - APPCB",22-01-2024 08:00:00,16.536107,80.594233,PM10,NA,NA,NA
India,Andhra_Pradesh,Visakhapatnam,"GVM Corporation, Visakhapatnam - APPCB",22-01-2024 08:00:00,17.72,83.3,PM2.5,55,248,105
India,Assam,Byrnihat,"Central Academy for SFS, Byrnihat - PCBA",22-01-2024 08:00:00,26.071318,91.87488,SO2,4,25,17
India,Assam,Byrnihat,"Central Academy for SFS, Byrnihat - PCBA",22-01-2024 08:00:00,26.071318,91.87488,CO,1,109,20
India,Assam,Guwahati,"LGBI Airport, Guwahati - PCBA",22-01-2024 08:00:00,26.10887,91.589544,CO,58,80,74
India,Assam,Guwahati,"Pan Bazaar, Guwahati - PCBA",22-01-2024 08:00:00,26.187500,91.744194,PM10,118,400,187
India,Assam,Guwahati,"Pan Bazaar, Guwahati - PCBA",22-01-2024 08:00:00,26.187500,91.744194,SO2,54,80,64
India,Assam,Guwahati,"Pan Bazaar, Guwahati - PCBA",22-01-2024 08:00:00,26.187500,91.744194,OZONE,17,18,17
India,Assam,Guwahati,"Railway Colony, Guwahati - PCBA",22-01-2024 08:00:00,26.181742,91.78063,PM10,119,429,189
India,Assam,Nagaon,"Christianpatty, Nagaon - PCBA",22-01-2024 08:00:00,26.349082,92.68449,PM10,103,233,154
India,Assam,Nagaon,"Christianpatty, Nagaon - PCBA",22-01-2024 08:00:00,26.349082,92.68449,OZONE,4,105,15
India,Assam,Nalbari,"Bata Chowk, Nalbari - PCBA",22-01-2024 08:00:00,26.446912,91.439057,NH3,1,5,2
India,Assam,Nalbari,"Bata Chowk, Nalbari - PCBA",22-01-2024 08:00:00,26.446912,91.439057,CO,2,53,11
India,Assam,Nalbari,"Bata Chowk, Nalbari - PCBA",22-01-2024 08:00:00,26.446912,91.439057,OZONE,8,99,36
India,Assam,Sivasagar,"Girls College, Sivasagar - PCBA",22-01-2024 08:00:00,26.987634,94.636574,NO2,16,36,22
India,Assam,Sivasagar,"Girls College, Sivasagar - PCBA",22-01-2024 08:00:00,26.987634,94.636574,NH3,3,3,3
India,Bihar,Araria,"Kharahiya Basti, Araria - BSPCB",22-01-2024 08:00:00,26.146529,87.454184,CO,28,44,41
India,Bihar,Arrah,"New DM Office, Arrah - BSPCB",22-01-2024 08:00:00,25.5626095,84.663264,PM2.5,NA,NA,NA
India,Bihar,Arrah,"New DM Office, Arrah - BSPCB",22-01-2024 08:00:00,25.5626095,84.663264,OZONE,14,35,14
India,Bihar,Bettiah,"Kamalnath Nagar, Bettiah - BSPCB",22-01-2024 08:00:00,26.80365,84.51954,PM10,26,54,40
India,Bihar,Bhagalpur,"DM Office_Kachari Chowk, Bhagalpur - BSPCB",22-01-2024 08:00:00,25.251013,86.989001,PM10,132,262,186
India,Bihar,Bhagalpur,"DM Office_Kachari Chowk, Bhagalpur - BSPCB",22-01-2024 08:00:00,25.251013,86.989001,CO,17,42,22
India,Bihar,Bhagalpur,"Mayaganj, Bhagalpur - BSPCB",22-01-2024 08:00:00,25.265194,87.012947,PM10,141,247,178
India,Bihar,Bhagalpur,"Mayaganj, Bhagalpur - BSPCB",22-01-2024 08:00:00,25.265194,87.012947,CO,8,12,9
India,Bihar,Bihar Sharif,"D M Colony, Bihar Sharif - BSPCB",22-01-2024 08:00:00,25.204762,85.514960,PM10,75,173,131
India,Bihar,Chhapra,"Darshan Nagar, Chhapra - BSPCB",22-01-2024 08:00:00,25.7808257,84.7446768,NO2,15,27,21
India,Bihar,Gaya,"Collectorate, Gaya - BSPCB",22-01-2024 08:00:00,24.7955,84.9994,NO2,16,21,18
India,Bihar,Gaya,"Collectorate, Gaya - BSPCB",22-01-2024 08:00:00,24.7955,84.9994,SO2,16,22,19
India,Bihar,Gaya,"Kareemganj, Gaya - BSPCB",22-01-2024 08:00:00,24.792403,84.992416,SO2,6,12,10
India,Bihar,Gaya,"SFTI Kusdihra, Gaya - BSPCB",22-01-2024 08:00:00,24.762518,84.982348,CO,75,107,99
India,Bihar,Hajipur,"Industrial Area, Hajipur - BSPCB",22-01-2024 08:00:00,25.697189,85.245900,NH3,NA,NA,NA
India,Bihar,Hajipur,"Industrial Area, Hajipur - BSPCB",22-01-2024 08:00:00,25.697189,85.245900,CO,42,110,99
India,Bihar,Katihar,"Mirchaibari, Katihar - BSPCB",22-01-2024 08:00:00,25.560083,87.553265,NH3,1,2,2
India,Bihar,Kishanganj,"SDM Office_Khagra, Kishanganj - BSPCB",22-01-2024 08:00:00,26.0881305,87.93840336,PM2.5,7,55,29
India,Bihar,Motihari,"Gandak Colony, Motihari - BSPCB",22-01-2024 08:00:00,26.63086,84.90051,OZONE,27,78,59
India,Bihar,Muzaffarpur,"MIT-Daudpur Kothi, Muzaffarpur - BSPCB",22-01-2024 08:00:00,26.1403345,85.3650192,PM10,60,126,97
India,Bihar,Muzaffarpur,"MIT-Daudpur Kothi, Muzaffarpur - BSPCB",22-01-2024 08:00:00,26.1403345,85.3650192,SO2,12,15,13
India,Bihar,Muzaffarpur,"MIT-Daudpur Kothi, Muzaffarpur - BSPCB",22-01-2024 08:00:00,26.1403345,85.3650192,OZONE,10,30,23
India,Bihar,Patna,"DRM Office Danapur, Patna - BSPCB",22-01-2024 08:00:00,25.586562,85.043586,PM2.5,NA,NA,NA
India,Bihar,Patna,"DRM Office Danapur, Patna - BSPCB",22-01-2024 08:00:00,25.586562,85.043586,PM10,NA,NA,NA
India,Bihar,Patna,"DRM Office Danapur, Patna - BSPCB",22-01-2024 08:00:00,25.586562,85.043586,SO2,7,13,9
India,Bihar,Patna,"DRM Office Danapur, Patna - BSPCB",22-01-2024 08:00:00,25.586562,85.043586,CO,47,153,88
India,Bihar,Patna,"IGSC Planetarium Complex, Patna - BSPCB",22-01-2024 08:00:00,25.610369,85.132568,OZONE,14,15,14
India,Bihar,Patna,"Muradpur, Patna - BSPCB",22-01-2024 08:00:00,25.619651,85.147382,CO,48,120,100
India,Bihar,Patna,"Rajbansi Nagar, Patna - BSPCB",22-01-2024 08:00:00,25.599486,85.113666,PM2.5,162,333,260
India,Bihar,Patna,"Rajbansi Nagar, Patna - BSPCB",22-01-2024 08:00:00,25.599486,85.113666,NO2,51,63,55
India,Bihar,Patna,"Samanpura, Patna - BSPCB",22-01-2024 08:00:00,25.596727,85.085624,NO2,14,18,16
India,Bihar,Patna,"Samanpura, Patna - BSPCB",22-01-2024 08:00:00,25.596727,85.085624,SO2,3,6,5
India,Bihar,Purnia,"Mariam Nagar, Purnia - BSPCB",22-01-2024 08:00:00,25.366336,87.117468,NH3,1,1,1
India,Bihar,Purnia,"Mariam Nagar, Purnia - BSPCB",22-01-2024 08:00:00,25.366336,87.117468,SO2,17,21,19
India,Bihar,Purnia,"Mariam Nagar, Purnia - BSPCB",22-01-2024 08:00:00,25.366336,87.117468,CO,41,58,54
India,Bihar,Purnia,"Mariam Nagar, Purnia - BSPCB",22-01-2024 08:00:00,25.366336,87.117468,OZONE,14,17,15
India,Bihar,Rajgir,"Dangi Tola, Rajgir - BSPCB",22-01-2024 08:00:00,25.03280,85.41948,OZONE,22,30,23
India,Bihar,Sasaram,"Dada Peer, Sasaram - BSPCB",22-01-2024 08:00:00,24.952822,84.002396,SO2,21,23,22
India,Bihar,Sasaram,"Dada Peer, Sasaram - BSPCB",22-01-2024 08:00:00,24.952822,84.002396,CO,35,81,57
India,Bihar,Siwan,"Chitragupta Nagar, Siwan - BSPCB",22-01-2024 08:00:00,26.2271665,84.3570427,OZONE,5,51,8
India,Chandigarh,Chandigarh,"Sector 22, Chandigarh - CPCC",22-01-2024 08:00:00,30.735567,76.775714,PM10,117,368,225
India,Chhattisgarh,Bhilai,"32Bungalows, Bhilai - CECB",22-01-2024 08:00:00,21.194815,81.314770,PM2.5,69,125,95
India,Chhattisgarh,Bhilai,"32Bungalows, Bhilai - CECB",22-01-2024 08:00:00,21.194815,81.314770,NH3,6,6,6
India,Chhattisgarh,Bhilai,"32Bungalows, Bhilai - CECB",22-01-2024 08:00:00,21.194815,81.314770,CO,28,53,37
India,Chhattisgarh,Bhilai,"Civic Center, Bhilai - Bhilai Steel Plant",22-01-2024 08:00:00,21.185571,81.343175,PM10,47,90,73
India,Chhattisgarh,Bhilai,"Civic Center, Bhilai - Bhilai Steel Plant",22-01-2024 08:00:00,21.185571,81.343175,SO2,10,12,11
India,Chhattisgarh,Bhilai,"Hathkhoj, Bhilai - CECB",22-01-2024 08:00:00,21.224231,81.408350,PM10,71,110,96
India,Chhattisgarh,Chhal,"Nawapara SECL Colony, Chhal - CECB",22-01-2024 08:00:00,22.118125,83.140608,NO2,11,52,20
India,Chhattisgarh,Korba,"Urja Nagar, Korba - CECB",22-01-2024 08:00:00,22.348441,82.549611,NO2,57,75,65
India,Chhattisgarh,Korba,"Urja Nagar, Korba - CECB",22-01-2024 08:00:00,22.348441,82.549611,SO2,3,21,10
India,Chhattisgarh,Kunjemura,"OP Jindal School, Kunjemura - CECB",22-01-2024 08:00:00,22.126650,83.483212,PM2.5,19,63,39
India,Chhattisgarh,Kunjemura,"OP Jindal School, Kunjemura - CECB",22-01-2024 08:00:00,22.126650,83.483212,PM10,26,153,72
India,Chhattisgarh,Kunjemura,"OP Jindal School, Kunjemura - CECB",22-01-2024 08:00:00,22.126650,83.483212,OZONE,3,40,7
India,Chhattisgarh,Milupara,"Govt. Higher Secondary School, Milupara - CECB",22-01-2024 08:00:00,22.1910172,83.5197009,PM2.5,21,84,46
India,Chhattisgarh,Milupara,"Govt. Higher Secondary School, Milupara - CECB",22-01-2024 08:00:00,22.1910172,83.5197009,NO2,12,77,26
India,Chhattisgarh,Milupara,"Govt. Higher Secondary School, Milupara - CECB",22-01-2024 08:00:00,22.1910172,83.5197009,NH3,1,2,2
India,Chhattisgarh,Raipur,"AIIMS, Raipur - CECB",22-01-2024 08:00:00,21.258815,81.578979,NH3,4,4,4
India,Chhattisgarh,Raipur,"Bhatagaon New ISBT, Raipur - CECB",22-01-2024 08:00:00,21.219665,81.630094,PM10,51,113,82
India,Chhattisgarh,Raipur,"Krishak Nagar, Raipur - CECB",22-01-2024 08:00:00,21.237755,81.705301,NO2,27,36,32
India,Chhattisgarh,Raipur,"Siltara Phase-II, Raipur - CECB",22-01-2024 08:00:00,21.371751,81.664929,PM2.5,NA,NA,NA
India,Chhattisgarh,Raipur,"Siltara Phase-II, Raipur - CECB",22-01-2024 08:00:00,21.371751,81.664929,SO2,NA,NA,NA
India,Chhattisgarh,Tumidih,"OP Jindal Industrial Park, Tumidih - CECB",22-01-2024 08:00:00,22.06631475,83.33820077,PM10,22,369,75
India,Delhi,Delhi,"Alipur, Delhi - DPCC",22-01-2024 08:00:00,28.815329,77.153010,PM2.5,178,330,281
India,Delhi,Delhi,"Anand Vihar, Delhi - DPCC",22-01-2024 08:00:00,28.647622,77.3158090,OZONE,15,19,16
India,Delhi,Delhi,"Ashok Vihar, Delhi - DPCC",22-01-2024 08:00:00,28.695381,77.181665,NO2,37,63,50
India,Delhi,Delhi,"Ashok Vihar, Delhi - DPCC",22-01-2024 08:00:00,28.695381,77.181665,CO,44,66,48
India,Delhi,Delhi,"Bawana, Delhi - DPCC",22-01-2024 08:00:00,28.776200,77.051074,PM2.5,213,395,312
India,Delhi,Delhi,"Bawana, Delhi - DPCC",22-01-2024 08:00:00,28.776200,77.051074,PM10,115,322,188
India,Delhi,Delhi,"Bawana, Delhi - DPCC",22-01-2024 08:00:00,28.776200,77.051074,NH3,5,8,7
India,Delhi,Delhi,"CRRI Mathura Road, Delhi - IMD",22-01-2024 08:00:00,28.5512005,77.2735737,NO2,NA,NA,NA
India,Delhi,Delhi,"DTU, Delhi - CPCB",22-01-2024 08:00:00,28.7500499,77.1112615,PM10,122,291,184
India,Delhi,Delhi,"DTU, Delhi - CPCB",22-01-2024 08:00:00,28.7500499,77.1112615,SO2,26,28,27
India,Delhi,Delhi,"DTU, Delhi - CPCB",22-01-2024 08:00:00,28.7500499,77.1112615,OZONE,27,29,28
India,Delhi,Delhi,"Dr. Karni Singh Shooting Range, Delhi - DPCC",22-01-2024 08:00:00,28.498571,77.264840,CO,54,102,62
India,Delhi,Delhi,"IGI Airport (T3), Delhi - IMD",22-01-2024 08:00:00,28.5627763,77.1180053,PM10,NA,NA,NA
India,Delhi,Delhi,"IGI Airport (T3), Delhi - IMD",22-01-2024 08:00:00,28.5627763,77.1180053,NO2,NA,NA,NA
India,Delhi,Delhi,"IHBAS, Dilshad Garden, Delhi - CPCB",22-01-2024 08:00:00,28.6811736,77.3025234,PM10,125,168,146
India,Delhi,Delhi,"IHBAS, Dilshad Garden, Delhi - CPCB",22-01-2024 08:00:00,28.6811736,77.3025234,OZONE,6,35,12
India,Delhi,Delhi,"ITO, Delhi - CPCB",22-01-2024 08:00:00,28.628624,77.241060,PM10,111,198,151
India,Delhi,Delhi,"ITO, Delhi - CPCB",22-01-2024 08:00:00,28.628624,77.241060,NO2,13,56,30
India,Delhi,Delhi,"ITO, Delhi - CPCB",22-01-2024 08:00:00,28.628624,77.241060,NH3,5,7,6
India,Delhi,Delhi,"ITO, Delhi - CPCB",22-01-2024 08:00:00,28.628624,77.241060,OZONE,26,49,27
India,Delhi,Delhi,"Jawaharlal Nehru Stadium, Delhi - DPCC",22-01-2024 08:00:00,28.580280,77.233829,PM10,161,231,187
India,Delhi,Delhi,"Major Dhyan Chand National Stadium, Delhi - DPCC",22-01-2024 08:00:00,28.611281,77.237738,PM2.5,300,373,333
India,Delhi,Delhi,"Major Dhyan Chand National Stadium, Delhi - DPCC",22-01-2024 08:00:00,28.611281,77.237738,SO2,3,16,12
India,Delhi,Delhi,"Major Dhyan Chand National Stadium, Delhi - DPCC",22-01-2024 08:00:00,28.611281,77.237738,CO,39,65,45
India,Delhi,Delhi,"Mandir Marg, Delhi - DPCC",22-01-2024 08:00:00,28.636429,77.201067,NO2,102,122,110
India,Delhi,Delhi,"Mandir Marg, Delhi - DPCC",22-01-2024 08:00:00,28.636429,77.201067,CO,2,48,6
India,Delhi,Delhi,"Mundka, Delhi - DPCC",22-01-2024 08:00:00,28.684678,77.076574,PM2.5,309,373,334
India,Delhi,Delhi,"Mundka, Delhi - DPCC",22-01-2024 08:00:00,28.684678,77.076574,NO2,29,61,41
India,Delhi,Delhi,"Mundka, Delhi - DPCC",22-01-2024 08:00:00,28.684678,77.076574,OZONE,2,11,4
India,Delhi,Delhi,"NSIT Dwarka, Delhi - CPCB",22-01-2024 08:00:00,28.60909,77.0325413,PM2.5,182,353,298
India,Delhi,Delhi,"NSIT Dwarka, Delhi - CPCB",22-01-2024 08:00:00,28.60909,77.0325413,PM10,178,273,216
India,Delhi,Delhi,"NSIT Dwarka, Delhi - CPCB",22-01-2024 08:00:00,28.60909,77.0325413,NH3,15,19,17
India,Delhi,Delhi,"NSIT Dwarka, Delhi - CPCB",22-01-2024 08:00:00,28.60909,77.0325413,OZONE,17,44,22
India,Delhi,Delhi,"Najafgarh, Delhi - DPCC",22-01-2024 08:00:00,28.570173,76.933762,PM2.5,183,336,279
India,Delhi,Delhi,"Najafgarh, Delhi - DPCC",22-01-2024 08:00:00,28.570173,76.933762,PM10,100,216,143
India,Delhi,Delhi,"Najafgarh, Delhi - DPCC",22-01-2024 08:00:00,28.570173,76.933762,CO,9,116,34
India,Delhi,Delhi,"Narela, Delhi - DPCC",22-01-2024 08:00:00,28.822836,77.101981,PM10,117,272,179
India,Delhi,Delhi,"Narela, Delhi - DPCC",22-01-2024 08:00:00,28.822836,77.101981,NO2,26,50,35
India,Delhi,Delhi,"Narela, Delhi - DPCC",22-01-2024 08:00:00,28.822836,77.101981,OZONE,19,62,27
India,Delhi,Delhi,"Nehru Nagar, Delhi - DPCC",22-01-2024 08:00:00,28.567890,77.250515,SO2,5,15,9
India,Delhi,Delhi,"North Campus, DU, Delhi - IMD",22-01-2024 08:00:00,28.6573814,77.1585447,CO,NA,NA,NA
India,Delhi,Delhi,"North Campus, DU, Delhi - IMD",22-01-2024 08:00:00,28.6573814,77.1585447,OZONE,NA,NA,NA
India,Delhi,Delhi,"Okhla Phase-2, Delhi - DPCC",22-01-2024 08:00:00,28.530785,77.271255,NH3,12,16,14
India,Delhi,Delhi,"Okhla Phase-2, Delhi - DPCC",22-01-2024 08:00:00,28.530785,77.271255,OZONE,10,66,12
India,Delhi,Delhi,"Patparganj, Delhi - DPCC",22-01-2024 08:00:00,28.623763,77.287209,NO2,37,61,48
India,Delhi,Delhi,"Patparganj, Delhi - DPCC",22-01-2024 08:00:00,28.623763,77.287209,NH3,6,12,10
India,Delhi,Delhi,"Punjabi Bagh, Delhi - DPCC",22-01-2024 08:00:00,28.674045,77.131023,PM2.5,314,392,343
India,Delhi,Delhi,"Punjabi Bagh, Delhi - DPCC",22-01-2024 08:00:00,28.674045,77.131023,SO2,NA,NA,NA
India,Delhi,Delhi,"Punjabi Bagh, Delhi - DPCC",22-01-2024 08:00:00,28.674045,77.131023,OZONE,8,10,9
India,Delhi,Delhi,"Pusa, Delhi - DPCC",22-01-2024 08:00:00,28.639652,77.146275,PM10,NA,NA,NA
India,Delhi,Delhi,"Pusa, Delhi - DPCC",22-01-2024 08:00:00,28.639652,77.146275,SO2,NA,NA,NA
India,Delhi,Delhi,"Shadipur, Delhi - CPCB",22-01-2024 08:00:00,28.6514781,77.1473105,NH3,11,16,13
India,Delhi,Delhi,"Sirifort, Delhi - CPCB",22-01-2024 08:00:00,28.5504249,77.2159377,OZONE,13,27,15
India,Delhi,Delhi,"Sonia Vihar, Delhi - DPCC",22-01-2024 08:00:00,28.710508,77.249485,PM2.5,272,371,320
India,Delhi,Delhi,"Sonia Vihar, Delhi - DPCC",22-01-2024 08:00:00,28.710508,77.249485,PM10,157,267,196
India,Delhi,Delhi,"Sonia Vihar, Delhi - DPCC",22-01-2024 08:00:00,28.710508,77.249485,NO2,31,78,43
India,Delhi,Delhi,"Sri Aurobindo Marg, Delhi - DPCC",22-01-2024 08:00:00,28.531346,77.190156,PM10,155,286,199
India,Delhi,Delhi,"Sri Aurobindo Marg, Delhi - DPCC",22-01-2024 08:00:00,28.531346,77.190156,NO2,41,73,58
India,Delhi,Delhi,"Sri Aurobindo Marg, Delhi - DPCC",22-01-2024 08:00:00,28.531346,77.190156,SO2,9,14,11
India,Delhi,Delhi,"Vivek Vihar, Delhi - DPCC",22-01-2024 08:00:00,28.672342,77.315260,CO,24,78,29
India,Delhi,Delhi,"Vivek Vihar, Delhi - DPCC",22-01-2024 08:00:00,28.672342,77.315260,OZONE,2,40,3
India,Delhi,Delhi,"Wazirpur, Delhi - DPCC",22-01-2024 08:00:00,28.699793,77.165453,CO,33,64,42
India,Gujarat,Ahmedabad,"Chandkheda, Ahmedabad - IITM",22-01-2024 08:00:00,23.107969,72.574648,NO2,17,22,19
India,Gujarat,Ahmedabad,"Chandkheda, Ahmedabad - IITM",22-01-2024 08:00:00,23.107969,72.574648,SO2,4,5,4
India,Gujarat,Ahmedabad,"Chandkheda, Ahmedabad - IITM",22-01-2024 08:00:00,23.107969,72.574648,CO,37,131,79
India,Gujarat,Ahmedabad,"Gyaspur, Ahmedabad - IITM",22-01-2024 08:00:00,22.977134,72.553024,NO2,9,12,12
India,Gujarat,Ahmedabad,"Gyaspur, Ahmedabad - IITM",22-01-2024 08:00:00,22.977134,72.553024,NH3,3,4,3
India,Gujarat,Ahmedabad,"Gyaspur, Ahmedabad - IITM",22-01-2024 08:00:00,22.977134,72.553024,SO2,6,6,6
India,Gujarat,Ahmedabad,"Gyaspur, Ahmedabad - IITM",22-01-2024 08:00:00,22.977134,72.553024,CO,10,38,31
India,Gujarat,Ahmedabad,"Maninagar, Ahmedabad - GPCB",22-01-2024 08:00:00,23.002657,72.591912,NO2,11,119,53
India,Gujarat,Ahmedabad,"Rakhial, Ahmedabad - IITM",22-01-2024 08:00:00,23.016834,72.625775,NH3,2,7,5
India,Gujarat,Ahmedabad,"SVPI Airport Hansol, Ahmedabad - IITM",22-01-2024 08:00:00,23.076793,72.627874,NO2,14,15,14
India,Gujarat,Ahmedabad,"Sardar Vallabhbhai Patel Stadium, Ahmedabad - IITM",22-01-2024 08:00:00,23.043070,72.562968,CO,5,120,67
India,Gujarat,Ankleshwar,"GIDC, Ankleshwar - GPCB",22-01-2024 08:00:00,21.613267,73.010555,NO2,33,34,34
India,Gujarat,Ankleshwar,"GIDC, Ankleshwar - GPCB",22-01-2024 08:00:00,21.613267,73.010555,SO2,26,132,88
India,Gujarat,Ankleshwar,"GIDC, Ankleshwar - GPCB",22-01-2024 08:00:00,21.613267,73.010555,OZONE,21,29,22
India,Gujarat,Vapi,"Phase-1 GIDC, Vapi - GPCB",22-01-2024 08:00:00,20.362421,72.918013,NH3,9,28,21
India,Gujarat,Vapi,"Phase-1 GIDC, Vapi - GPCB",22-01-2024 08:00:00,20.362421,72.918013,CO,1,171,12
India,Haryana,Ambala,"Patti Mehar, Ambala - HSPCB",22-01-2024 08:00:00,30.379589,76.778328,PM2.5,NA,NA,NA
India,Haryana,Ambala,"Patti Mehar, Ambala - HSPCB",22-01-2024 08:00:00,30.379589,76.778328,OZONE,23,38,30
India,Haryana,Ballabgarh,"Nathu Colony, Ballabgarh - HSPCB",22-01-2024 08:00:00,28.3419248,77.319699,PM10,162,200,183
India,Haryana,Dharuhera,"Municipal Corporation Office, Dharuhera -  HSPCB",22-01-2024 08:00:00,28.206800,76.799700,PM10,87,224,147
India,Haryana,Faridabad,"Sector 11, Faridabad - HSPCB",22-01-2024 08:00:00,28.376058,77.315741,NO2,NA,NA,NA
India,Haryana,Faridabad,"Sector- 16A, Faridabad - HSPCB",22-01-2024 08:00:00,28.4088421,77.3099081,PM2.5,204,364,323
India,Haryana,Gurugram,"Sector-51, Gurugram - HSPCB",22-01-2024 08:00:00,28.4227,77.0667,PM10,157,250,203
India,Haryana,Gurugram,"Sector-51, Gurugram - HSPCB",22-01-2024 08:00:00,28.4227,77.0667,CO,50,80,56
India,Haryana,Gurugram,"Vikas Sadan, Gurugram - HSPCB",22-01-2024 08:00:00,28.4501238,77.0263051,CO,53,138,104
India,Haryana,Hisar,"Urban Estate-II, Hisar - HSPCB",22-01-2024 08:00:00,29.140560,75.744941,NO2,6,21,9
India,Haryana,Jind,"Police Lines, Jind - HSPCB",22-01-2024 08:00:00,29.307814,76.337619,CO,1,80,32
India,Haryana,Kaithal,"Rishi Nagar, Kaithal - HSPCB",22-01-2024 08:00:00,29.8006,76.4155,PM10,116,166,144
India,Haryana,Kaithal,"Rishi Nagar, Kaithal - HSPCB",22-01-2024 08:00:00,29.8006,76.4155,NH3,8,8,8
India,Haryana,Kurukshetra,"Sector-7, Kurukshetra - HSPCB",22-01-2024 08:00:00,29.966942,76.875879,NO2,10,11,10
India,Haryana,Kurukshetra,"Sector-7, Kurukshetra - HSPCB",22-01-2024 08:00:00,29.966942,76.875879,NH3,3,5,5
India,Haryana,Kurukshetra,"Sector-7, Kurukshetra - HSPCB",22-01-2024 08:00:00,29.966942,76.875879,CO,2,26,2
India,Haryana,Mandikhera,"General Hospital, Mandikhera - HSPCB",22-01-2024 08:00:00,27.9002,76.9938,SO2,30,36,34
India,Haryana,Mandikhera,"General Hospital, Mandikhera - HSPCB",22-01-2024 08:00:00,27.9002,76.9938,OZONE,22,30,27
India,Haryana,Palwal,"Shyam Nagar, Palwal - HSPCB",22-01-2024 08:00:00,28.1485564,77.3320667,NO2,3,5,5
India,Haryana,Palwal,"Shyam Nagar, Palwal - HSPCB",22-01-2024 08:00:00,28.1485564,77.3320667,CO,10,191,17
India,Haryana,Panchkula,"Sector-6, Panchkula - HSPCB ",22-01-2024 08:00:00,30.7057778,76.8531805555555,SO2,11,12,12
India,Haryana,Yamuna Nagar,"Gobind Pura, Yamuna Nagar - HSPCB",22-01-2024 08:00:00,30.1480566,77.2893471,NH3,1,6,4
India,Haryana,Yamuna Nagar,"Gobind Pura, Yamuna Nagar - HSPCB",22-01-2024 08:00:00,30.1480566,77.2893471,SO2,1,40,7
India,Haryana,Yamuna Nagar,"Gobind Pura, Yamuna Nagar - HSPCB",22-01-2024 08:00:00,30.1480566,77.2893471,CO,78,110,108
India,Himachal Pradesh,Baddi,"HIMUDA Complex Phase-1, Baddi - HPPCB",22-01-2024 08:00:00,30.943887,76.801991,PM10,70,348,140
India,Himachal Pradesh,Baddi,"HIMUDA Complex Phase-1, Baddi - HPPCB",22-01-2024 08:00:00,30.943887,76.801991,NO2,12,43,28
India,Himachal Pradesh,Baddi,"HIMUDA Complex Phase-1, Baddi - HPPCB",22-01-2024 08:00:00,30.943887,76.801991,NH3,4,6,5
India,Himachal Pradesh,Baddi,"HIMUDA Complex Phase-1, Baddi - HPPCB",22-01-2024 08:00:00,30.943887,76.801991,CO,15,66,46
India,Jharkhand,Dhanbad,"Kalakusuma, Dhanbad - DMC",22-01-2024 08:00:00,23.811548,86.481238,SO2,110,113,112
India,Jharkhand,Dhanbad,"Kalakusuma, Dhanbad - DMC",22-01-2024 08:00:00,23.811548,86.481238,CO,90,106,103
India,Jharkhand,Pathardih,"Mohalbani Ghat, Pathardih - DMC",22-01-2024 08:00:00,23.669880,86.411725,OZONE,NA,NA,NA
India,Karnataka,Bagalkot,"Vidayagiri, Bagalkot - KSPCB",22-01-2024 08:00:00,16.172806,75.659694,OZONE,9,49,18
India,Karnataka,Belgaum,"Ramteerth Nagar, Belgaum - KSPCB",22-01-2024 08:00:00,15.888653,74.541751,PM10,30,76,46
India,Karnataka,Bengaluru,"Bapuji Nagar, Bengaluru - KSPCB",22-01-2024 08:00:00,12.951913,77.539784,PM2.5,44,300,92
India,Karnataka,Bengaluru,"Bapuji Nagar, Bengaluru - KSPCB",22-01-2024 08:00:00,12.951913,77.539784,SO2,5,7,6
India,Karnataka,Bengaluru,"Hombegowda Nagar, Bengaluru - KSPCB",22-01-2024 08:00:00,12.938539,77.590100,NO2,34,48,39
India,Karnataka,Bengaluru,"Jayanagar 5th Block, Bengaluru - KSPCB",22-01-2024 08:00:00,12.920984,77.584908,CO,5,69,14
India,Karnataka,Bengaluru,"Jigani, Bengaluru - KSPCB",22-01-2024 08:00:00,12.7816279,77.6299145,PM2.5,18,126,59
India,Karnataka,Bengaluru,"Shivapura_Peenya, Bengaluru - KSPCB",22-01-2024 08:00:00,13.0246342,77.5080115,PM2.5,NA,NA,NA
India,Karnataka,Bengaluru,"Silk Board, Bengaluru - KSPCB",22-01-2024 08:00:00,12.917348,77.622813,OZONE,25,30,30
India,Karnataka,Bidar,"Naubad, Bidar - KSPCB",22-01-2024 08:00:00,17.930306,77.482194,PM10,87,124,102
India,Karnataka,Bidar,"Naubad, Bidar - KSPCB",22-01-2024 08:00:00,17.930306,77.482194,CO,50,86,65
India,Karnataka,Bidar,"Naubad, Bidar - KSPCB",22-01-2024 08:00:00,17.930306,77.482194,OZONE,9,41,20
India,Karnataka,Chamarajanagar,"Urban, Chamarajanagar - KSPCB",22-01-2024 08:00:00,11.55358,76.55521,NO2,24,36,31
India,Karnataka,Chamarajanagar,"Urban, Chamarajanagar - KSPCB",22-01-2024 08:00:00,11.55358,76.55521,SO2,2,8,4
India,Karnataka,Chamarajanagar,"Urban, Chamarajanagar - KSPCB",22-01-2024 08:00:00,11.55358,76.55521,OZONE,14,36,15
India,Karnataka,Chikkamagaluru,"Kalyana Nagara, Chikkamagaluru - KSPCB",22-01-2024 08:00:00,13.328028,75.797056,NO2,18,34,26
India,Karnataka,Dharwad,"Kalabhavan, Dharwad - KSPCB",22-01-2024 08:00:00,15.459706,75.008381,PM10,65,89,76
India,Karnataka,Dharwad,"Kalabhavan, Dharwad - KSPCB",22-01-2024 08:00:00,15.459706,75.008381,NH3,3,3,3
India,Karnataka,Gadag,"Panchal Nagar, Gadag - KSPCB",22-01-2024 08:00:00,15.411456,75.638133,CO,48,60,56
India,Karnataka,Haveri,"Ashwini Nagar, Haveri - KSPCB",22-01-2024 08:00:00,14.791800,75.389600,OZONE,18,19,18
India,Karnataka,Hubballi,"Deshpande Nagar, Hubballi - KSPCB",22-01-2024 08:00:00,15.351773,75.140726,CO,68,92,79
India,Karnataka,Hubballi,"Deshpande Nagar, Hubballi - KSPCB",22-01-2024 08:00:00,15.351773,75.140726,OZONE,1,40,24
India,Karnataka,Hubballi,"Lingaraj Nagar, Hubballi - KSPCB",22-01-2024 08:00:00,15.3714823,75.1160168,PM10,40,75,54
India,Karnataka,Kalaburagi,"Lal Bahadur Shastri Nagar, Kalaburagi - KSPCB",22-01-2024 08:00:00,17.321993,76.822628,NH3,2,2,2
India,Karnataka,Kalaburagi,"Mahatma Basaveswar Colony, Kalaburgi - KSPCB",22-01-2024 08:00:00,17.336318,76.847397,NO2,8,30,22
India,Karnataka,Karwar,"KHB Colony, Karwar - KSPCB",22-01-2024 08:00:00,14.816666,74.141003,NO2,5,11,7
India,Karnataka,Karwar,"KHB Colony, Karwar - KSPCB",22-01-2024 08:00:00,14.816666,74.141003,SO2,18,18,18
India,Karnataka,Kolar,"Tamaka Ind. Area, Kolar - KSPCB",22-01-2024 08:00:00,13.1276288,78.1570122,NH3,4,13,7
India,Karnataka,Koppal,"Diwator Nagar, Koppal - KSPCB",22-01-2024 08:00:00,15.347630,76.181767,NO2,3,32,14
India,Karnataka,Koppal,"Diwator Nagar, Koppal - KSPCB",22-01-2024 08:00:00,15.347630,76.181767,NH3,4,7,6
India,Karnataka,Koppal,"Diwator Nagar, Koppal - KSPCB",22-01-2024 08:00:00,15.347630,76.181767,CO,74,111,96
India,Karnataka,Koppal,"Diwator Nagar, Koppal - KSPCB",22-01-2024 08:00:00,15.347630,76.181767,OZONE,17,53,25
India,Karnataka,Madikeri,"Stuart Hill, Madikeri - KSPCB",22-01-2024 08:00:00,12.415911,75.735050,PM2.5,25,70,38
India,Karnataka,Madikeri,"Stuart Hill, Madikeri - KSPCB",22-01-2024 08:00:00,12.415911,75.735050,SO2,4,4,4
India,Karnataka,Mangalore,"Kadri, Mangalore - KSPCB",22-01-2024 08:00:00,12.889250,74.853000,NH3,3,3,3
India,Karnataka,Mangalore,"Kadri, Mangalore - KSPCB",22-01-2024 08:00:00,12.889250,74.853000,CO,33,38,34
India,Karnataka,Raichur,"Haji Colony, Raichur - KSPCB",22-01-2024 08:00:00,16.208139,77.348417,NH3,NA,NA,NA
India,Karnataka,Ramanagara,"Vijay Nagar, Ramanagara - KSPCB",22-01-2024 08:00:00,12.733409,77.298051,NO2,3,32,10
India,Karnataka,Udupi,"Brahmagiri, Udupi - KSPCB",22-01-2024 08:00:00,13.34194444,74.74694444,NH3,1,2,2
India,Karnataka,Udupi,"Brahmagiri, Udupi - KSPCB",22-01-2024 08:00:00,13.34194444,74.74694444,OZONE,23,23,23
India,Karnataka,Vijayapura,"Ibrahimpur, Vijayapura - KSPCB",22-01-2024 08:00:00,16.802639,75.722694,CO,22,167,120
India,Karnataka,Vijayapura,"Ibrahimpur, Vijayapura - KSPCB",22-01-2024 08:00:00,16.802639,75.722694,OZONE,13,16,15
India,Kerala,Eloor,"Udyogamandal, Eloor - Kerala PCB",22-01-2024 08:00:00,10.073232,76.302765,PM2.5,29,73,49
India,Kerala,Kannur,"Thavakkara, Kannur - Kerala PCB",22-01-2024 08:00:00,11.875000,75.373200,NH3,1,1,1
India,Kerala,Kannur,"Thavakkara, Kannur - Kerala PCB",22-01-2024 08:00:00,11.875000,75.373200,SO2,5,6,5
India,Kerala,Kannur,"Thavakkara, Kannur - Kerala PCB",22-01-2024 08:00:00,11.875000,75.373200,CO,30,36,33
India,Kerala,Kochi,"Vyttila, Kochi - Kerala PCB",22-01-2024 08:00:00,9.969447,76.321186,NO2,1,6,3
India,Kerala,Kochi,"Vyttila, Kochi - Kerala PCB",22-01-2024 08:00:00,9.969447,76.321186,NH3,2,3,3
India,Kerala,Thiruvananthapuram,"Kariavattom, Thiruvananthapuram - Kerala PCB",22-01-2024 08:00:00,8.563700,76.886500,PM2.5,63,72,67
India,Kerala,Thiruvananthapuram,"Plammoodu, Thiruvananthapuram - Kerala PCB",22-01-2024 08:00:00,8.5149093,76.9435879,NO2,13,14,13
India,Kerala,Thiruvananthapuram,"Plammoodu, Thiruvananthapuram - Kerala PCB",22-01-2024 08:00:00,8.5149093,76.9435879,SO2,7,17,12
India,Madhya Pradesh,Bhopal,"Paryavaran Parisar, Bhopal - MPPCB",22-01-2024 08:00:00,23.210494,77.425409,SO2,13,26,22
India,Madhya Pradesh,Bhopal,"T T Nagar, Bhopal - MPPCB",22-01-2024 08:00:00,23.233584,77.400574,PM10,93,290,170
India,Madhya Pradesh,Bhopal,"T T Nagar, Bhopal - MPPCB",22-01-2024 08:00:00,23.233584,77.400574,NO2,39,112,62
India,Madhya Pradesh,Bhopal,"T T Nagar, Bhopal - MPPCB",22-01-2024 08:00:00,23.233584,77.400574,NH3,1,7,5
India,Madhya Pradesh,Bhopal,"T T Nagar, Bhopal - MPPCB",22-01-2024 08:00:00,23.233584,77.400574,OZONE,6,104,43
India,Madhya Pradesh,Damoh,"Shrivastav Colony, Damoh - MPPCB",22-01-2024 08:00:00,23.81748678,79.446246,PM10,NA,NA,NA
India,Madhya Pradesh,Damoh,"Shrivastav Colony, Damoh - MPPCB",22-01-2024 08:00:00,23.81748678,79.446246,NO2,NA,NA,NA
India,Madhya Pradesh,Damoh,"Shrivastav Colony, Damoh - MPPCB",22-01-2024 08:00:00,23.81748678,79.446246,CO,NA,NA,NA
India,Madhya Pradesh,Gwalior,"City Center, Gwalior - MPPCB",22-01-2024 08:00:00,26.203442,78.193251,PM2.5,142,457,305
India,Madhya Pradesh,Gwalior,"City Center, Gwalior - MPPCB",22-01-2024 08:00:00,26.203442,78.193251,PM10,99,414,192
India,Madhya Pradesh,Gwalior,"City Center, Gwalior - MPPCB",22-01-2024 08:00:00,26.203442,78.193251,SO2,22,42,35
India,Madhya Pradesh,Gwalior,"Deen Dayal Nagar, Gwalior - MPPCB",22-01-2024 08:00:00,26.259242,78.216432,PM2.5,208,500,337
India,Madhya Pradesh,Gwalior,"Deen Dayal Nagar, Gwalior - MPPCB",22-01-2024 08:00:00,26.259242,78.216432,CO,38,52,50
India,Madhya Pradesh,Gwalior,"Maharaj Bada, Gwalior - MPPCB",22-01-2024 08:00:00,26.200388,78.147714,NH3,4,7,6
India,Madhya Pradesh,Gwalior,"Phool Bagh, Gwalior - Mondelez Ind. Food",22-01-2024 08:00:00,26.210536,78.171,SO2,10,18,12
India,Madhya Pradesh,Indore,"Chhoti Gwaltoli, Indore - MPPCB",22-01-2024 08:00:00,22.4310,75.5213,PM2.5,48,364,194
India,Madhya Pradesh,Indore,"Maguda Nagar, Indore - IMC",22-01-2024 08:00:00,22.7524,75.8872,NH3,1,1,1
India,Madhya Pradesh,Indore,"Residency Area, Indore - IMC",22-01-2024 08:00:00,22.7084,75.8815,PM10,33,128,80
India,Madhya Pradesh,Indore,"Residency Area, Indore - IMC",22-01-2024 08:00:00,22.7084,75.8815,OZONE,12,20,15
India,Madhya Pradesh,Jabalpur,"Govindh Bhavan Colony, Jabalpur - JMC",22-01-2024 08:00:00,23.163174,79.973061,PM10,48,163,97
India,Madhya Pradesh,Jabalpur,"Govindh Bhavan Colony, Jabalpur - JMC",22-01-2024 08:00:00,23.163174,79.973061,NH3,4,6,5
India,Madhya Pradesh,Jabalpur,"Govindh Bhavan Colony, Jabalpur - JMC",22-01-2024 08:00:00,23.163174,79.973061,SO2,8,34,16
India,Madhya Pradesh,Jabalpur,"Govindh Bhavan Colony, Jabalpur - JMC",22-01-2024 08:00:00,23.163174,79.973061,OZONE,7,238,15
India,Madhya Pradesh,Jabalpur,"Gupteshwar, Jabalpur - JMC",22-01-2024 08:00:00,23.142888,79.916147,SO2,3,28,12
India,Madhya Pradesh,Jabalpur,"Marhatal, Jabalpur - MPPCB",22-01-2024 08:00:00,23.168606,79.932247,CO,42,140,77
India,Madhya Pradesh,Jabalpur,"Suhagi, Jabalpur - JMC",22-01-2024 08:00:00,23.218135,79.957770,NO2,37,42,40
India,Madhya Pradesh,Katni,"Gole Bazar, Katni - MPPCB",22-01-2024 08:00:00,23.50016,80.23284,NO2,27,101,57
India,Madhya Pradesh,Katni,"Gole Bazar, Katni - MPPCB",22-01-2024 08:00:00,23.50016,80.23284,OZONE,3,87,5
India,Madhya Pradesh,Maihar,"Sahilara, Maihar - KJS Cements",22-01-2024 08:00:00,24.2613009,80.7231783,PM10,31,106,60
India,Madhya Pradesh,Maihar,"Sahilara, Maihar - KJS Cements",22-01-2024 08:00:00,24.2613009,80.7231783,NO2,14,14,14
India,Madhya Pradesh,Pithampur,"Sector-2 Industrial Area, Pithampur - MPPCB",22-01-2024 08:00:00,22.624758,75.675238,NH3,2,4,3
India,Madhya Pradesh,Ratlam,"Shasthri Nagar, Ratlam - IPCA Lab",22-01-2024 08:00:00,23.331731,75.045981,PM2.5,42,120,71
India,Madhya Pradesh,Ratlam,"Shasthri Nagar, Ratlam - IPCA Lab",22-01-2024 08:00:00,23.331731,75.045981,NO2,1,69,23
India,Madhya Pradesh,Ratlam,"Shasthri Nagar, Ratlam - IPCA Lab",22-01-2024 08:00:00,23.331731,75.045981,SO2,12,15,14
India,Madhya Pradesh,Sagar,"Civil Lines, Sagar - MPPCB",22-01-2024 08:00:00,23.838586,78.759431,SO2,3,5,4
India,Madhya Pradesh,Sagar,"Civil Lines, Sagar - MPPCB",22-01-2024 08:00:00,23.838586,78.759431,CO,22,56,35
India,Madhya Pradesh,Satna,"Bandhavgar Colony, Satna - Birla Cement",22-01-2024 08:00:00,24.58434363,80.8549414,OZONE,56,76,59
India,Madhya Pradesh,Singrauli,"Suryakiran Bhawan NCL, Singrauli - MPPCB",22-01-2024 08:00:00,24.108970,82.645580,PM2.5,283,395,320
India,Madhya Pradesh,Ujjain,"Mahakaleshwar Temple, Ujjain - MPPCB",22-01-2024 08:00:00,23.182719 ,75.768218 ,NH3,4,6,5
India,Madhya Pradesh,Ujjain,"Mahakaleshwar Temple, Ujjain - MPPCB",22-01-2024 08:00:00,23.182719 ,75.768218 ,CO,30,89,49
India,Maharashtra,Ahmednagar,"Tarakpur, Ahmednagar - MPCB",22-01-2024 08:00:00,19.10122,74.73339,NO2,NA,NA,NA
India,Maharashtra,Ahmednagar,"Tarakpur, Ahmednagar - MPCB",22-01-2024 08:00:00,19.10122,74.73339,OZONE,NA,NA,NA
India,Maharashtra,Akola,"Ramdaspeth, Akola - MPCB",22-01-2024 08:00:00,20.719516,77.000253,NO2,12,39,21
India,Maharashtra,Amravati,"Shivneri Colony, Amravati - MPCB",22-01-2024 08:00:00,20.9402359,77.7895248,CO,16,44,24
India,Maharashtra,Amravati,"Shri Shivaji Science College, Amaravati - MPCB",22-01-2024 08:00:00,20.939198,77.765701,SO2,14,49,20
India,Maharashtra,Aurangabad,"Rachnakar Colony, Aurangabad - MPCB",22-01-2024 08:00:00,19.863756,75.321188,OZONE,14,73,17
India,Maharashtra,Belapur,"CBD Belapur, Belapur - MPCB",22-01-2024 08:00:00,19.0243902,73.0406721,NO2,15,83,50
India,Maharashtra,Bhiwandi,"Gokul Nagar, Bhiwandi - MPCB",22-01-2024 08:00:00,19.309073,73.057223,NO2,11,37,21
India,Maharashtra,Bhiwandi,"Gokul Nagar, Bhiwandi - MPCB",22-01-2024 08:00:00,19.309073,73.057223,CO,27,110,96
India,Maharashtra,Bhiwandi,"Gokul Nagar, Bhiwandi - MPCB",22-01-2024 08:00:00,19.309073,73.057223,OZONE,10,63,13
India,Maharashtra,Dhule,"Deopur, Dhule - MPCB",22-01-2024 08:00:00,20.918946,74.776388,OZONE,6,75,13
India,Maharashtra,Jalgaon,"Prabhat Colony, Jalgaon - MPCB",22-01-2024 08:00:00,21.001264,75.565602,PM2.5,75,102,86
India,Maharashtra,Jalna,"Old MIDC, Jalna - MPCB",22-01-2024 08:00:00,19.854616,75.905894,NH3,6,8,7
India,Maharashtra,Jalna,"Old MIDC, Jalna - MPCB",22-01-2024 08:00:00,19.854616,75.905894,SO2,16,19,17
India,Maharashtra,Jalna,"Old MIDC, Jalna - MPCB",22-01-2024 08:00:00,19.854616,75.905894,OZONE,29,100,35
India,Maharashtra,Kalyan,"Khadakpada, Kalyan - MPCB",22-01-2024 08:00:00,19.25292,73.142019,SO2,15,85,32
India,Maharashtra,Kolhapur,"Shivaji University, Kolhapur - MPCB",22-01-2024 08:00:00,16.6870449,74.2505872,CO,87,113,99
India,Maharashtra,Kolhapur,"Sinchan Bhavan, Kolhapur - MPCB",22-01-2024 08:00:00,16.7143745,74.2426398,NO2,10,51,23
India,Maharashtra,Kolhapur,"Sinchan Bhavan, Kolhapur - MPCB",22-01-2024 08:00:00,16.7143745,74.2426398,SO2,1,4,2
India,Maharashtra,Kolhapur,"Sinchan Bhavan, Kolhapur - MPCB",22-01-2024 08:00:00,16.7143745,74.2426398,OZONE,1,125,17
India,Maharashtra,Mahad,"Kamble Tarf Birwadi, Mahad - MPCB",22-01-2024 08:00:00,18.1023399,73.4783687,PM10,47,264,93
India,Maharashtra,Mahad,"Kamble Tarf Birwadi, Mahad - MPCB",22-01-2024 08:00:00,18.1023399,73.4783687,SO2,11,14,13
India,Maharashtra,Malegaon,"Mahesh Nagar, Malegaon - MPCB",22-01-2024 08:00:00,20.555712,74.529236,PM2.5,75,303,119
India,Maharashtra,Malegaon,"Mahesh Nagar, Malegaon - MPCB",22-01-2024 08:00:00,20.555712,74.529236,NO2,4,44,21
India,Maharashtra,Malegaon,"Mahesh Nagar, Malegaon - MPCB",22-01-2024 08:00:00,20.555712,74.529236,OZONE,10,92,16
India,Maharashtra,Mumbai,"Bandra Kurla Complex, Mumbai - MPCB",22-01-2024 08:00:00,19.065931,72.862131,PM10,NA,NA,NA
India,Maharashtra,Mumbai,"Bandra Kurla Complex, Mumbai - MPCB",22-01-2024 08:00:00,19.065931,72.862131,CO,NA,NA,NA
India,Maharashtra,Mumbai,"Borivali East, Mumbai - IITM",22-01-2024 08:00:00,19.23241,72.86895,NH3,2,4,3
India,Maharashtra,Mumbai,"Borivali East, Mumbai - IITM",22-01-2024 08:00:00,19.23241,72.86895,OZONE,9,84,17
India,Maharashtra,Mumbai,"Borivali East, Mumbai - MPCB",22-01-2024 08:00:00,19.2243333,72.8658113,PM2.5,37,98,66
India,Maharashtra,Mumbai,"Borivali East, Mumbai - MPCB",22-01-2024 08:00:00,19.2243333,72.8658113,NO2,6,22,12
India,Maharashtra,Mumbai,"Byculla, Mumbai - BMC",22-01-2024 08:00:00,18.9767,72.8380,NO2,21,111,59
India,Maharashtra,Mumbai,"Chembur, Mumbai - MPCB",22-01-2024 08:00:00,19.0364585,72.8954371,PM2.5,83,251,122
India,Maharashtra,Mumbai,"Chembur, Mumbai - MPCB",22-01-2024 08:00:00,19.0364585,72.8954371,NH3,2,5,3
India,Maharashtra,Mumbai,"Chembur, Mumbai - MPCB",22-01-2024 08:00:00,19.0364585,72.8954371,SO2,1,10,5
India,Maharashtra,Mumbai,"Chembur, Mumbai - MPCB",22-01-2024 08:00:00,19.0364585,72.8954371,OZONE,1,96,4
India,Maharashtra,Mumbai,"Ghatkopar, Mumbai - BMC",22-01-2024 08:00:00,19.083694,72.920967,SO2,1,3,2
India,Maharashtra,Mumbai,"Ghatkopar, Mumbai - BMC",22-01-2024 08:00:00,19.083694,72.920967,CO,10,70,47
India,Maharashtra,Mumbai,"Kandivali East, Mumbai - MPCB",22-01-2024 08:00:00,19.205800,72.868200,PM10,80,449,134
India,Maharashtra,Mumbai,"Kandivali East, Mumbai - MPCB",22-01-2024 08:00:00,19.205800,72.868200,OZONE,28,31,30
India,Maharashtra,Mumbai,"Kherwadi_Bandra East, Mumbai - MPCB",22-01-2024 08:00:00,19.0632143,72.8456324,PM2.5,67,192,109
India,Maharashtra,Mumbai,"Kherwadi_Bandra East, Mumbai - MPCB",22-01-2024 08:00:00,19.0632143,72.8456324,PM10,85,153,118
India,Maharashtra,Mumbai,"Kherwadi_Bandra East, Mumbai - MPCB",22-01-2024 08:00:00,19.0632143,72.8456324,OZONE,1,54,1
India,Maharashtra,Mumbai,"Khindipada-Bhandup West, Mumbai - IITM",22-01-2024 08:00:00,19.1653323,72.922099,OZONE,18,73,29
India,Maharashtra,Mumbai,"Malad West, Mumbai - IITM",22-01-2024 08:00:00,19.19709,72.82204,PM10,NA,NA,NA
India,Maharashtra,Mumbai,"Malad West, Mumbai - IITM",22-01-2024 08:00:00,19.19709,72.82204,NH3,1,2,1
India,Maharashtra,Mumbai,"Malad West, Mumbai - IITM",22-01-2024 08:00:00,19.19709,72.82204,CO,6,79,28
India,Maharashtra,Mumbai,"Mazgaon, Mumbai - IITM",22-01-2024 08:00:00,18.96702,72.84214,PM2.5,124,229,177
India,Maharashtra,Mumbai,"Mazgaon, Mumbai - IITM",22-01-2024 08:00:00,18.96702,72.84214,OZONE,33,150,56
India,Maharashtra,Mumbai,"Mindspace-Malad West, Mumbai - MPCB",22-01-2024 08:00:00,19.1878657,72.8304069,OZONE,3,82,4
India,Maharashtra,Mumbai,"Mulund West, Mumbai - MPCB",22-01-2024 08:00:00,19.1750,72.9419,OZONE,8,8,8
India,Maharashtra,Mumbai,"Navy Nagar-Colaba, Mumbai - IITM",22-01-2024 08:00:00,18.897756,72.813320,PM2.5,56,92,71
India,Maharashtra,Mumbai,"Navy Nagar-Colaba, Mumbai - IITM",22-01-2024 08:00:00,18.897756,72.813320,PM10,79,157,105
India,Maharashtra,Mumbai,"Navy Nagar-Colaba, Mumbai - IITM",22-01-2024 08:00:00,18.897756,72.813320,NO2,49,74,62
India,Maharashtra,Mumbai,"Shivaji Nagar, Mumbai - BMC",22-01-2024 08:00:00,19.060498,72.923356,PM2.5,72,257,122
India,Maharashtra,Mumbai,"Shivaji Nagar, Mumbai - BMC",22-01-2024 08:00:00,19.060498,72.923356,PM10,94,334,146
India,Maharashtra,Mumbai,"Sion, Mumbai - MPCB",22-01-2024 08:00:00,19.047000,72.874600,NO2,31,154,76
India,Maharashtra,Mumbai,"Vile Parle West, Mumbai - MPCB",22-01-2024 08:00:00,19.10861,72.83622,PM2.5,48,136,74
India,Maharashtra,Mumbai,"Worli, Mumbai - MPCB",22-01-2024 08:00:00,18.9936162,72.8128113,PM2.5,36,87,52
India,Maharashtra,Mumbai,"Worli, Mumbai - MPCB",22-01-2024 08:00:00,18.9936162,72.8128113,PM10,73,159,110
India,Maharashtra,Nagpur,"Mahal, Nagpur - MPCB",22-01-2024 08:00:00,21.14472,79.107595,PM2.5,93,470,241
India,Maharashtra,Nagpur,"Mahal, Nagpur - MPCB",22-01-2024 08:00:00,21.14472,79.107595,PM10,88,427,158
India,Maharashtra,Nagpur,"Mahal, Nagpur - MPCB",22-01-2024 08:00:00,21.14472,79.107595,NO2,9,59,25
India,Maharashtra,Nagpur,"Mahal, Nagpur - MPCB",22-01-2024 08:00:00,21.14472,79.107595,NH3,1,4,2
India,Maharashtra,Nagpur,"Mahal, Nagpur - MPCB",22-01-2024 08:00:00,21.14472,79.107595,CO,29,126,45
India,Maharashtra,Nagpur,"Opp GPO Civil Lines, Nagpur - MPCB",22-01-2024 08:00:00,21.152875,79.0517531,PM2.5,89,285,174
India,Maharashtra,Nagpur,"Opp GPO Civil Lines, Nagpur - MPCB",22-01-2024 08:00:00,21.152875,79.0517531,NH3,1,4,1
India,Maharashtra,Nagpur,"Opp GPO Civil Lines, Nagpur - MPCB",22-01-2024 08:00:00,21.152875,79.0517531,CO,8,105,25
India,Maharashtra,Nagpur,"Ram Nagar, Nagpur - MPCB",22-01-2024 08:00:00,21.143383,79.048912,PM2.5,156,305,244
India,Maharashtra,Nagpur,"Ram Nagar, Nagpur - MPCB",22-01-2024 08:00:00,21.143383,79.048912,SO2,9,93,37
India,Maharashtra,Nagpur,"Ram Nagar, Nagpur - MPCB",22-01-2024 08:00:00,21.143383,79.048912,CO,20,100,24
India,Maharashtra,Nanded,"Sneh Nagar, Nanded - MPCB",22-01-2024 08:00:00,19.173852,77.296291,PM2.5,67,196,123
India,Maharashtra,Nanded,"Sneh Nagar, Nanded - MPCB",22-01-2024 08:00:00,19.173852,77.296291,NO2,31,68,40
India,Maharashtra,Nashik,"Gangapur Road, Nashik - MPCB",22-01-2024 08:00:00,20.0073285,73.7762427,NO2,4,7,5
India,Maharashtra,Nashik,"Hirawadi, Nashik - MPCB",22-01-2024 08:00:00,20.021503,73.813844,NO2,9,92,31
India,Maharashtra,Nashik,"Hirawadi, Nashik - MPCB",22-01-2024 08:00:00,20.021503,73.813844,SO2,5,7,6
India,Maharashtra,Nashik,"MIDC Ambad, Nashik - MPCB",22-01-2024 08:00:00,19.950220,73.731480,NH3,2,2,2
India,Maharashtra,Nashik,"MIDC Ambad, Nashik - MPCB",22-01-2024 08:00:00,19.950220,73.731480,CO,40,72,46
India,Maharashtra,Nashik,"Pandav Nagari, Nashik - MPCB",22-01-2024 08:00:00,19.9591346,73.7788008,PM2.5,84,135,98
India,Maharashtra,Navi Mumbai,"Mahape, Navi Mumbai - MPCB",22-01-2024 08:00:00,19.1135051,73.008978,NH3,3,3,3
India,Maharashtra,Navi Mumbai,"Mahape, Navi Mumbai - MPCB",22-01-2024 08:00:00,19.1135051,73.008978,SO2,26,26,26
India,Maharashtra,Navi Mumbai,"Nerul, Navi Mumbai - MPCB",22-01-2024 08:00:00,19.008751,73.016620,OZONE,36,50,49
India,Maharashtra,Navi Mumbai,"Sanpada, Navi Mumbai - MPCB",22-01-2024 08:00:00,19.0575752,73.0151367,SO2,7,29,16
India,Maharashtra,Navi Mumbai,"Sector-19A Nerul, Navi Mumbai - IITM",22-01-2024 08:00:00,19.044,73.0325,PM10,110,243,173
India,Maharashtra,Navi Mumbai,"Sector-2E Kalamboli, Navi Mumbai - MPCB",22-01-2024 08:00:00,19.02579,73.10297,PM2.5,14,322,165
India,Maharashtra,Navi Mumbai,"Sector-2E Kalamboli, Navi Mumbai - MPCB",22-01-2024 08:00:00,19.02579,73.10297,NO2,86,89,88
India,Maharashtra,Navi Mumbai,"Sector-2E Kalamboli, Navi Mumbai - MPCB",22-01-2024 08:00:00,19.02579,73.10297,NH3,7,18,10
India,Maharashtra,Navi Mumbai,"Sector-2E Kalamboli, Navi Mumbai - MPCB",22-01-2024 08:00:00,19.02579,73.10297,CO,13,88,57
India,Maharashtra,Pimpri-Chinchwad,"Park Street Wakad, Pimpri Chinchwad - MPCB",22-01-2024 08:00:00,18.59051,73.77946,PM2.5,81,256,150
India,Maharashtra,Pimpri-Chinchwad,"Thergaon, Pimpri Chinchwad - MPCB",22-01-2024 08:00:00,18.616318,73.765797,NO2,41,113,70
India,Maharashtra,Pune,"Karve Road, Pune - MPCB",22-01-2024 08:00:00,18.5011743,73.8165527,PM10,130,130,130
India,Maharashtra,Pune,"Karve Road, Pune - MPCB",22-01-2024 08:00:00,18.5011743,73.8165527,NO2,2,2,2
India,Maharashtra,Pune,"Katraj Dairy, Pune - MPCB",22-01-2024 08:00:00,18.454450,73.854155,NO2,26,45,34
India,Maharashtra,Pune,"Katraj Dairy, Pune - MPCB",22-01-2024 08:00:00,18.454450,73.854155,NH3,1,7,4
India,Maharashtra,Pune,"Revenue Colony-Shivajinagar, Pune - IITM",22-01-2024 08:00:00,18.530085,73.849598,PM10,64,135,108
India,Maharashtra,Pune,"Revenue Colony-Shivajinagar, Pune - IITM",22-01-2024 08:00:00,18.530085,73.849598,OZONE,7,69,7
India,Maharashtra,Pune,"Savitribai Phule Pune University, Pune - MPCB",22-01-2024 08:00:00,18.547056,73.826908,PM10,NA,NA,NA
India,Maharashtra,Pune,"Savitribai Phule Pune University, Pune - MPCB",22-01-2024 08:00:00,18.547056,73.826908,NH3,NA,NA,NA
India,Maharashtra,Pune,"Transport Nagar-Nigdi, Pune - IITM",22-01-2024 08:00:00,18.664282,73.763966,OZONE,5,63,22
India,Maharashtra,Sangli,"Vijay Nagar, Sangli - MPCB",22-01-2024 08:00:00, 16.5038,74.3623,OZONE,2,70,5
India,Maharashtra,Solapur,"Dnyaneshwar Nagar, Solapur - MPCB",22-01-2024 08:00:00,17.6336264,75.9132495,SO2,3,13,6
India,Maharashtra,Solapur,"Dnyaneshwar Nagar, Solapur - MPCB",22-01-2024 08:00:00,17.6336264,75.9132495,OZONE,7,94,53
India,Maharashtra,Solapur,"Ratandeep Housing Society, Solapur - MPCB",22-01-2024 08:00:00,17.65439,75.90649,PM2.5,78,172,113
India,Maharashtra,Solapur,"Solapur, Solapur - MPCB",22-01-2024 08:00:00,17.6599188,75.9063906,SO2,29,40,33
India,Maharashtra,Thane,"Kasarvadavali, Thane - MPCB",22-01-2024 08:00:00,19.26777,72.97182,NH3,2,11,6
India,Maharashtra,Thane,"Upvan Fort, Thane - MPCB",22-01-2024 08:00:00,19.222279,72.957979,CO,14,68,27
India,Maharashtra,Ulhasnagar,"Sidhi Vinayak Nagar, Ulhasnagar - MPCB",22-01-2024 08:00:00,19.235581,73.159121,NO2,10,82,38
India,Maharashtra,Virar,"Bolinj, Virar - MPCB",22-01-2024 08:00:00,19.4458210,72.7988231,OZONE,2,102,19
India,Manipur,Imphal,"DM College of Science, Imphal - Manipur PCB",22-01-2024 08:00:00,24.8207389,93.9423085,PM10,11,50,27
India,Manipur,Imphal,"DM College of Science, Imphal - Manipur PCB",22-01-2024 08:00:00,24.8207389,93.9423085,CO,6,6,6
India,Manipur,Imphal,"Manipur University, Imphal - Manipur PCB",22-01-2024 08:00:00,24.7524239,93.9286218,PM2.5,35,257,104
India,Manipur,Imphal,"Manipur University, Imphal - Manipur PCB",22-01-2024 08:00:00,24.7524239,93.9286218,NO2,7,18,11
India,Manipur,Imphal,"Manipur University, Imphal - Manipur PCB",22-01-2024 08:00:00,24.7524239,93.9286218,SO2,59,63,61
India,Meghalaya,Shillong,"JN Stadium, Shillong - Meghalaya PCB",22-01-2024 08:00:00,25.5803419,91.8942571,SO2,28,30,29
India,Meghalaya,Shillong,"Lumpyngngad, Shillong - Meghalaya PCB",22-01-2024 08:00:00,25.5586,91.8985,PM10,30,121,86
India,Mizoram,Aizawl,"Sikulpuikawn, Aizawl - Mizoram PCB",22-01-2024 08:00:00,23.7176342,92.7192841,NO2,NA,NA,NA
India,Nagaland,Kohima,"PWD Juction, Kohima - NPCB",22-01-2024 08:00:00,25.6635413,94.0989878,PM2.5,49,206,83
India,Nagaland,Kohima,"PWD Juction, Kohima - NPCB",22-01-2024 08:00:00,25.6635413,94.0989878,NO2,3,4,3
India,Nagaland,Kohima,"PWD Juction, Kohima - NPCB",22-01-2024 08:00:00,25.6635413,94.0989878,OZONE,11,22,12
India,Odisha,Angul,"Hakimapada, Angul - OSPCB",22-01-2024 08:00:00,20.832874,85.104082,PM2.5,NA,NA,NA
India,Odisha,Balasore,"Kalidaspur, Balasore - OSPCB",22-01-2024 08:00:00,21.51161,86.89088,NO2,11,53,24
India,Odisha,Balasore,"Kalidaspur, Balasore - OSPCB",22-01-2024 08:00:00,21.51161,86.89088,SO2,16,30,22
India,Odisha,Barbil,"Forest Office, Barbil - OSPCB",22-01-2024 08:00:00,22.1166054,85.3945546,PM2.5,77,335,185
India,Odisha,Barbil,"Forest Office, Barbil - OSPCB",22-01-2024 08:00:00,22.1166054,85.3945546,NO2,17,30,22
India,Odisha,Baripada,"Meher Colony, Baripada - OSPCB",22-01-2024 08:00:00,21.941841,86.728318,PM10,138,236,177
India,Odisha,Bhubaneswar,"Lingraj Mandir, Bhubaneswar - OSPCB",22-01-2024 08:00:00,20.240790,85.836784,OZONE,64,115,71
India,Odisha,Bileipada,"Tata Township, Bileipada - OSPCB",22-01-2024 08:00:00,22.06156703,85.47409613,SO2,24,33,26
India,Odisha,Byasanagar,"Ferro Chrome Colony, Byasanagar - OSPCB",22-01-2024 08:00:00,20.94185,86.11510,NH3,2,5,4
India,Odisha,Byasanagar,"Ferro Chrome Colony, Byasanagar - OSPCB",22-01-2024 08:00:00,20.94185,86.11510,OZONE,22,91,31
India,Odisha,Cuttack,"CDA Area, Cuttack - OSPCB",22-01-2024 08:00:00,20.48891     ,85.84768     ,NH3,2,2,2
India,Odisha,Keonjhar,"Jagamohanpur, Keonjhar - OSPCB",22-01-2024 08:00:00,21.643900,85.599355,SO2,10,10,10
India,Odisha,Nayagarh,"Dabuna, Nayagarh - OSPCB",22-01-2024 08:00:00,21.847279,85.416905,PM2.5,84,167,116
India,Odisha,Rairangpur,"Divisional Forest Office, Rairangpur - OSPCB",22-01-2024 08:00:00,22.265816,86.174829,OZONE,4,62,11
India,Odisha,Rourkela,"Fertilizer Township, Rourkela - OSPCB",22-01-2024 08:00:00,22.18972222,84.86277778,PM2.5,72,321,185
India,Odisha,Rourkela,"Fertilizer Township, Rourkela - OSPCB",22-01-2024 08:00:00,22.18972222,84.86277778,PM10,120,184,148
India,Odisha,Rourkela,"Raghunathpali, Rourkela - OSPCB",22-01-2024 08:00:00,22.220833,84.809444,PM10,NA,NA,NA
India,Odisha,Rourkela,"Raghunathpali, Rourkela - OSPCB",22-01-2024 08:00:00,22.220833,84.809444,SO2,1,2,1
India,Odisha,Rourkela,"Raghunathpali, Rourkela - OSPCB",22-01-2024 08:00:00,22.220833,84.809444,CO,20,103,28
India,Odisha,Rourkela,"Sector-2, Rourkela - OSPCB",22-01-2024 08:00:00,22.24500000,84.88111111,CO,15,88,27
India,Odisha,Suakati,"OMC Colony, Suakati - OSPCB",22-01-2024 08:00:00,21.606865,85.510538,SO2,1,18,6
India,Odisha,Talcher,"Talcher Coalfields,Talcher - OSPCB",22-01-2024 08:00:00,20.9360711,85.1707021,PM2.5,54,246,134
India,Odisha,Tensa,"Barsua Iron Ore Mines, Tensa - OSPCB",22-01-2024 08:00:00,21.869985,85.167016,NH3,7,12,10
India,Puducherry,Puducherry,"Jawahar Nagar, Puducherry - PPCC",22-01-2024 08:00:00,11.9309,79.8027,OZONE,2,42,10
India,Punjab,Amritsar,"Golden Temple, Amritsar - PPCB",22-01-2024 08:00:00,31.620000,74.876512,SO2,20,22,21
India,Punjab,Amritsar,"Golden Temple, Amritsar - PPCB",22-01-2024 08:00:00,31.620000,74.876512,CO,31,34,33
India,Punjab,Amritsar,"Golden Temple, Amritsar - PPCB",22-01-2024 08:00:00,31.620000,74.876512,OZONE,24,33,27
India,Punjab,Bathinda,"Hardev Nagar, Bathinda - PPCB",22-01-2024 08:00:00,30.233011,74.907758,CO,6,70,32
India,Punjab,Khanna,"Kalal Majra, Khanna - PPCB",22-01-2024 08:00:00,30.736056 ,76.209694,SO2,8,12,10
India,Punjab,Ludhiana,"Punjab Agricultural University, Ludhiana - PPCB",22-01-2024 08:00:00,30.9028,75.8086,CO,20,108,73
India,Punjab,Mandi Gobindgarh,"RIMT University, Mandi Gobindgarh - PPCB",22-01-2024 08:00:00,30.649961,76.331442,PM2.5,180,334,272
India,Punjab,Mandi Gobindgarh,"RIMT University, Mandi Gobindgarh - PPCB",22-01-2024 08:00:00,30.649961,76.331442,SO2,2,30,6
India,Rajasthan,Ajmer,"Civil Lines,  Ajmer - RSPCB",22-01-2024 08:00:00,26.470859,74.646594,PM10,52,168,102
India,Rajasthan,Ajmer,"Civil Lines,  Ajmer - RSPCB",22-01-2024 08:00:00,26.470859,74.646594,CO,14,80,26
India,Rajasthan,Alwar,"Moti Doongri, Alwar - RSPCB",22-01-2024 08:00:00,27.554793,76.611536,NH3,4,10,7
India,Rajasthan,Banswara,"Rati Talai, Banswara - RSPCB",22-01-2024 08:00:00,23.555190,74.440010,NH3,3,3,3
India,Rajasthan,Baran,"Bamboliya, Baran - RSPCB",22-01-2024 08:00:00,25.106006,76.469948,PM2.5,38,300,148
India,Rajasthan,Baran,"Bamboliya, Baran - RSPCB",22-01-2024 08:00:00,25.106006,76.469948,PM10,44,170,109
India,Rajasthan,Baran,"Bamboliya, Baran - RSPCB",22-01-2024 08:00:00,25.106006,76.469948,OZONE,8,94,23
India,Rajasthan,Barmer,"Railway Colony, Barmer - RSPCB",22-01-2024 08:00:00,25.747299,71.393989,SO2,7,50,14
India,Rajasthan,Barmer,"Railway Colony, Barmer - RSPCB",22-01-2024 08:00:00,25.747299,71.393989,CO,5,128,46
India,Rajasthan,Bhilwara,"Pratap Nagar, Bhilwara - RSPCB",22-01-2024 08:00:00,25.339605,74.618883,NH3,3,7,4
India,Rajasthan,Bhiwadi,"RIICO Ind. Area III, Bhiwadi - RSPCB",22-01-2024 08:00:00,28.194909,76.862296,NO2,12,30,21
India,Rajasthan,Bikaner,"MM Ground, Bikaner - RSPCB",22-01-2024 08:00:00,28.018792,73.292658,SO2,1,10,3
India,Rajasthan,Bundi,"New Colony, Bundi - RSPCB",22-01-2024 08:00:00,25.435774,75.644272,PM10,97,479,196
India,Rajasthan,Bundi,"New Colony, Bundi - RSPCB",22-01-2024 08:00:00,25.435774,75.644272,NO2,19,104,45
India,Rajasthan,Bundi,"New Colony, Bundi - RSPCB",22-01-2024 08:00:00,25.435774,75.644272,CO,28,104,44
India,Rajasthan,Churu,"Subash Chowk, Churu - RSPCB",22-01-2024 08:00:00,28.296139,74.961696,NO2,30,70,47
India,Rajasthan,Churu,"Subash Chowk, Churu - RSPCB",22-01-2024 08:00:00,28.296139,74.961696,NH3,9,17,13
India,Rajasthan,Churu,"Subash Chowk, Churu - RSPCB",22-01-2024 08:00:00,28.296139,74.961696,CO,52,104,70
India,Rajasthan,Dholpur,"Raja Ganj, Dholpur - RSPCB",22-01-2024 08:00:00,26.699557,77.898881,NH3,8,14,11
India,Rajasthan,Dholpur,"Raja Ganj, Dholpur - RSPCB",22-01-2024 08:00:00,26.699557,77.898881,CO,37,118,75
India,Rajasthan,Dungarpur,"Bhoiwada, Dungarpur - RSPCB",22-01-2024 08:00:00,23.837789,73.714926,CO,28,105,88
India,Rajasthan,Hanumangarh,"Housing Board, Hanumangarh - RSPCB",22-01-2024 08:00:00,29.610750,74.283608,PM10,119,242,170
India,Rajasthan,Jaipur,"Adarsh Nagar, Jaipur - RSPCB",22-01-2024 08:00:00,26.902909,75.836858,NO2,36,148,69
India,Rajasthan,Jaipur,"Police Commissionerate, Jaipur - RSPCB",22-01-2024 08:00:00,26.9164092,75.7994901,NO2,23,117,58
India,Rajasthan,Jaipur,"Police Commissionerate, Jaipur - RSPCB",22-01-2024 08:00:00,26.9164092,75.7994901,SO2,13,23,17
India,Rajasthan,Jaipur,"RIICO Sitapura, Jaipur - RSPCB",22-01-2024 08:00:00,26.786682,75.827928,NH3,3,10,5
India,Rajasthan,Jaipur,"RIICO Sitapura, Jaipur - RSPCB",22-01-2024 08:00:00,26.786682,75.827928,OZONE,2,127,38
India,Rajasthan,Jaipur,"Sector-2 Murlipura, Jaipur - RSPCB",22-01-2024 08:00:00,26.960669,75.771817,PM2.5,NA,NA,NA
India,Rajasthan,Jaipur,"Shastri Nagar, Jaipur - RSPCB",22-01-2024 08:00:00,26.9502929,75.730943,PM10,83,190,121
India,Rajasthan,Jaisalmer,"Sadar Bazar, Jaisalmer - RSPCB",22-01-2024 08:00:00,26.912329,70.909168,PM10,98,179,135
India,Rajasthan,Jaisalmer,"Sadar Bazar, Jaisalmer - RSPCB",22-01-2024 08:00:00,26.912329,70.909168,NO2,23,57,34
India,Rajasthan,Jaisalmer,"Sadar Bazar, Jaisalmer - RSPCB",22-01-2024 08:00:00,26.912329,70.909168,OZONE,6,74,34
India,Rajasthan,Jalore,"Mudtra Sili, Jalore - RSPCB",22-01-2024 08:00:00,25.344694,72.626208,CO,30,139,64
India,Rajasthan,Jhalawar,"Rajlaxmi Nagar, Jhalawar - RSPCB",22-01-2024 08:00:00,24.588397,76.172782,CO,28,119,73
India,Rajasthan,Jhunjhunu,"Indra Nagar, Jhunjhunu - RSPCB",22-01-2024 08:00:00,28.108988,75.386577,PM10,75,228,153
India,Rajasthan,Jhunjhunu,"Indra Nagar, Jhunjhunu - RSPCB",22-01-2024 08:00:00,28.108988,75.386577,OZONE,4,50,8
India,Rajasthan,Jodhpur,"Collectorate, Jodhpur - RSPCB",22-01-2024 08:00:00,26.268249,73.0193853,CO,24,96,66
India,Rajasthan,Jodhpur,"Jhalamand, Jodhpur - RSPCB",22-01-2024 08:00:00,26.215415,73.070156,CO,12,112,37
India,Rajasthan,Jodhpur,"Jhalamand, Jodhpur - RSPCB",22-01-2024 08:00:00,26.215415,73.070156,OZONE,8,127,20
India,Rajasthan,Jodhpur,"Mandor, Jodhpur - RSPCB",22-01-2024 08:00:00,26.358805,73.047444,SO2,1,19,5
India,Rajasthan,Jodhpur,"Mandor, Jodhpur - RSPCB",22-01-2024 08:00:00,26.358805,73.047444,CO,12,48,31
India,Rajasthan,Jodhpur,"Samrat Ashok Udhyan, Jodhpur - RSPCB",22-01-2024 08:00:00,26.253384,72.976571,PM10,93,217,131
India,Rajasthan,Karauli,"Satyawati Vihar, Karauli - RSPCB",22-01-2024 08:00:00,26.506177,77.025989,CO,16,82,24
India,Rajasthan,Kota,"Dhanmandi, Kota - RSPCB",22-01-2024 08:00:00,25.164090,75.858137,PM10,98,388,194
India,Rajasthan,Kota,"Nayapura, Kota - RSPCB",22-01-2024 08:00:00,25.196024,75.855668,PM10,97,362,182
India,Rajasthan,Kota,"Shrinath Puram, Kota - RSPCB",22-01-2024 08:00:00,25.14389,75.821256,PM10,104,239,148
India,Rajasthan,Kota,"Shrinath Puram, Kota - RSPCB",22-01-2024 08:00:00,25.14389,75.821256,NH3,1,12,6
India,Rajasthan,Kota,"Shrinath Puram, Kota - RSPCB",22-01-2024 08:00:00,25.14389,75.821256,CO,12,44,31
India,Rajasthan,Kota,"Shrinath Puram, Kota - RSPCB",22-01-2024 08:00:00,25.14389,75.821256,OZONE,10,96,20
India,Rajasthan,Nagaur,"Karni Colony, Nagaur - RSPCB",22-01-2024 08:00:00,27.213494,73.734444,PM2.5,43,329,179
India,Rajasthan,Nagaur,"Karni Colony, Nagaur - RSPCB",22-01-2024 08:00:00,27.213494,73.734444,CO,40,87,57
India,Rajasthan,Pali,"Indira Colony Vistar, Pali - RSPCB",22-01-2024 08:00:00,25.771061, 73.340227,NO2,18,70,41
India,Rajasthan,Pali,"Indira Colony Vistar, Pali - RSPCB",22-01-2024 08:00:00,25.771061, 73.340227,SO2,5,21,12
India,Rajasthan,Pali,"Indira Colony Vistar, Pali - RSPCB",22-01-2024 08:00:00,25.771061, 73.340227,CO,2,77,19
India,Rajasthan,Pratapgarh,"Pragati Nagar, Pratapgarh - RSPCB",22-01-2024 08:00:00,24.041198,74.780702,NH3,5,10,7
India,Rajasthan,Pratapgarh,"Pragati Nagar, Pratapgarh - RSPCB",22-01-2024 08:00:00,24.041198,74.780702,SO2,1,10,3
India,Rajasthan,Rajsamand,"Dhoinda, Rajsamand - RSPCB",22-01-2024 08:00:00,25.036360,73.883502,NO2,11,69,29
India,Rajasthan,Sawai Madhopur,"Sahu Nagar, Sawai Madhopur - RSPCB",22-01-2024 08:00:00,26.031443,76.359327,OZONE,1,134,15
India,Rajasthan,Sikar,"Radhakishan Pura, Sikar - RSPCB",22-01-2024 08:00:00,27.608912,75.153302,PM2.5,56,389,231
India,Rajasthan,Sikar,"Radhakishan Pura, Sikar - RSPCB",22-01-2024 08:00:00,27.608912,75.153302,NO2,14,61,26
India,Rajasthan,Sirohi,"Vedhaynath Colony, Sirohi - RSPCB",22-01-2024 08:00:00,24.885261,72.857549,PM10,27,220,74
India,Rajasthan,Tonk,"Shastri Nagar, Tonk - RSPCB",22-01-2024 08:00:00,26.159933,75.780517,PM10,86,408,139
India,Rajasthan,Tonk,"Shastri Nagar, Tonk - RSPCB",22-01-2024 08:00:00,26.159933,75.780517,NO2,16,85,36
India,Rajasthan,Tonk,"Shastri Nagar, Tonk - RSPCB",22-01-2024 08:00:00,26.159933,75.780517,CO,24,52,34
India,Rajasthan,Udaipur,"Ashok Nagar, Udaipur - RSPCB",22-01-2024 08:00:00,24.5886166,73.6321397,NH3,5,19,8
India,Sikkim,Gangtok,"Zero Point GICI, Gangtok - SSPCB",22-01-2024 08:00:00,27.338530,88.614099,PM2.5,17,35,26
India,Sikkim,Gangtok,"Zero Point GICI, Gangtok - SSPCB",22-01-2024 08:00:00,27.338530,88.614099,NO2,1,7,2
India,Sikkim,Gangtok,"Zero Point GICI, Gangtok - SSPCB",22-01-2024 08:00:00,27.338530,88.614099,OZONE,16,62,18
India,TamilNadu,Chennai,"Alandur Bus Depot, Chennai - CPCB",22-01-2024 08:00:00,12.9099161,80.1076538,NO2,15,218,51
India,TamilNadu,Chennai,"Alandur Bus Depot, Chennai - CPCB",22-01-2024 08:00:00,12.9099161,80.1076538,CO,2,186,67
India,TamilNadu,Chennai,"Kodungaiyur, Chennai - TNPCB",22-01-2024 08:00:00,13.1278,80.2642,PM10,35,143,67
India,TamilNadu,Chennai,"Kodungaiyur, Chennai - TNPCB",22-01-2024 08:00:00,13.1278,80.2642,NO2,8,24,14
India,TamilNadu,Chennai,"Manali, Chennai - CPCB",22-01-2024 08:00:00,13.164544,80.26285,PM2.5,4,428,93
India,TamilNadu,Chennai,"Manali, Chennai - CPCB",22-01-2024 08:00:00,13.164544,80.26285,CO,7,76,52
India,TamilNadu,Chennai,"Royapuram, Chennai - TNPCB",22-01-2024 08:00:00,13.1036,80.2909,PM2.5,15,163,38
India,TamilNadu,Chennai,"Royapuram, Chennai - TNPCB",22-01-2024 08:00:00,13.1036,80.2909,SO2,1,5,2
India,TamilNadu,Chennai,"Royapuram, Chennai - TNPCB",22-01-2024 08:00:00,13.1036,80.2909,CO,15,66,32
India,TamilNadu,Chennai,"Velachery Res. Area, Chennai - CPCB",22-01-2024 08:00:00,13.0052189,80.2398125,PM10,34,74,48
India,TamilNadu,Chennai,"Velachery Res. Area, Chennai - CPCB",22-01-2024 08:00:00,13.0052189,80.2398125,NO2,8,83,23
India,TamilNadu,Chennai,"Velachery Res. Area, Chennai - CPCB",22-01-2024 08:00:00,13.0052189,80.2398125,NH3,4,8,5
India,TamilNadu,Coimbatore,"PSG College of Arts and Science, Coimbatore - TNPCB",22-01-2024 08:00:00,11.0328,77.0349,PM2.5,50,113,77
India,TamilNadu,Coimbatore,"PSG College of Arts and Science, Coimbatore - TNPCB",22-01-2024 08:00:00,11.0328,77.0349,SO2,14,21,18
India,TamilNadu,Cuddalore,"Kudikadu, Cuddalore - TNPCB",22-01-2024 08:00:00,11.6829898,79.7532099,NO2,6,10,8
India,TamilNadu,Cuddalore,"Kudikadu, Cuddalore - TNPCB",22-01-2024 08:00:00,11.6829898,79.7532099,SO2,16,17,16
India,TamilNadu,Cuddalore,"Semmandalam, Cuddalore - TNPCB",22-01-2024 08:00:00,11.7637683,79.7499835,PM10,16,64,37
India,TamilNadu,Cuddalore,"Semmandalam, Cuddalore - TNPCB",22-01-2024 08:00:00,11.7637683,79.7499835,OZONE,1,2,2
India,TamilNadu,Thoothukudi,"Meelavittan, Thoothukudi - TNPCB",22-01-2024 08:00:00,8.816428 ,78.099039,CO,1,32,16
India,TamilNadu,Tirupur,"Kumaran College, Tirupur - TNPCB",22-01-2024 08:00:00,11.0973603,77.3228673,PM10,26,131,62
India,TamilNadu,Tirupur,"Kumaran College, Tirupur - TNPCB",22-01-2024 08:00:00,11.0973603,77.3228673,NO2,6,73,18
India,TamilNadu,Virudhunagar,"Collectorate Office, Virudhunagar - TNPCB",22-01-2024 08:00:00,9.559382,77.948828,SO2,17,17,17
India,TamilNadu,Virudhunagar,"Collectorate Office, Virudhunagar - TNPCB",22-01-2024 08:00:00,9.559382,77.948828,CO,20,38,29
India,Telangana,Hyderabad,"Central University, Hyderabad - TSPCB",22-01-2024 08:00:00,17.460103,78.334361,SO2,4,10,7
India,Telangana,Hyderabad,"ECIL Kapra, Hyderabad - TSPCB",22-01-2024 08:00:00,17.470431,78.566959,CO,7,26,9
India,Telangana,Hyderabad,"ICRISAT Patancheru, Hyderabad - TSPCB",22-01-2024 08:00:00,17.518400,78.278777,SO2,12,22,15
India,Telangana,Hyderabad,"IITH Kandi, Hyderabad - TSPCB",22-01-2024 08:00:00,17.585705,78.126199,NO2,10,11,11
India,Telangana,Hyderabad,"Nacharam_TSIIC IALA, Hyderabad - TSPCB",22-01-2024 08:00:00,17.429398,78.569354,PM2.5,42,83,53
India,Telangana,Hyderabad,"New Malakpet, Hyderabad - TSPCB",22-01-2024 08:00:00,17.37206,78.50864,PM2.5,17,30,24
India,Telangana,Hyderabad,"Ramachandrapuram, Hyderabad - TSPCB",22-01-2024 08:00:00,17.528544,78.286195,NO2,NA,NA,NA
India,Telangana,Hyderabad,"Ramachandrapuram, Hyderabad - TSPCB",22-01-2024 08:00:00,17.528544,78.286195,SO2,NA,NA,NA
India,Telangana,Hyderabad,"Somajiguda, Hyderabad - TSPCB",22-01-2024 08:00:00,17.417094,78.457437,PM2.5,NA,NA,NA
India,Telangana,Hyderabad,"Zoo Park, Hyderabad - TSPCB",22-01-2024 08:00:00,17.349694,78.451437,PM10,30,101,55
India,Telangana,Hyderabad,"Zoo Park, Hyderabad - TSPCB",22-01-2024 08:00:00,17.349694,78.451437,NH3,1,1,1
India,Uttar_Pradesh,Agra,"Sanjay Palace, Agra - UPPCB",22-01-2024 08:00:00,27.19865833,78.00598056,CO,NA,NA,NA
India,Uttar_Pradesh,Agra,"Sector-3B Avas Vikas Colony, Agra - UPPCB",22-01-2024 08:00:00,27.19412,77.96237,PM10,73,459,176
India,Uttar_Pradesh,Agra,"Sector-3B Avas Vikas Colony, Agra - UPPCB",22-01-2024 08:00:00,27.19412,77.96237,NO2,25,112,51
India,Uttar_Pradesh,Agra,"Shastripuram, Agra - UPPCB",22-01-2024 08:00:00,27.19862,77.92066,PM2.5,31,311,139
India,Uttar_Pradesh,Agra,"Shastripuram, Agra - UPPCB",22-01-2024 08:00:00,27.19862,77.92066,PM10,39,231,127
India,Uttar_Pradesh,Agra,"Shastripuram, Agra - UPPCB",22-01-2024 08:00:00,27.19862,77.92066,NH3,2,4,3
India,Uttar_Pradesh,Agra,"Shastripuram, Agra - UPPCB",22-01-2024 08:00:00,27.19862,77.92066,OZONE,1,27,8
India,Uttar_Pradesh,Baghpat,"Sardar Patel Inter College, Baghpat - UPPCB",22-01-2024 08:00:00,28.964949,77.278761,CO,39,68,50
India,Uttar_Pradesh,Bareilly,"Civil Lines, Bareilly - UPPCB",22-01-2024 08:00:00,28.359581,79.414455,PM2.5,34,120,79
India,Uttar_Pradesh,Bareilly,"Civil Lines, Bareilly - UPPCB",22-01-2024 08:00:00,28.359581,79.414455,CO,27,76,58
India,Uttar_Pradesh,Bareilly,"Rajendra Nagar, Bareilly - UPPCB",22-01-2024 08:00:00,28.38910936,79.42963708,PM2.5,45,124,90
India,Uttar_Pradesh,Bareilly,"Rajendra Nagar, Bareilly - UPPCB",22-01-2024 08:00:00,28.38910936,79.42963708,NO2,33,53,43
India,Uttar_Pradesh,Bulandshahr,"Yamunapuram, Bulandshahr - UPPCB",22-01-2024 08:00:00,28.406963,77.849831,NH3,11,18,15
India,Uttar_Pradesh,Firozabad,"Nagla Bhau, Firozabad - UPPCB",22-01-2024 08:00:00,27.168897,78.376960,PM2.5,74,385,216
India,Uttar_Pradesh,Firozabad,"Nagla Bhau, Firozabad - UPPCB",22-01-2024 08:00:00,27.168897,78.376960,PM10,57,278,126
India,Uttar_Pradesh,Firozabad,"Nagla Bhau, Firozabad - UPPCB",22-01-2024 08:00:00,27.168897,78.376960,NO2,11,17,17
India,Uttar_Pradesh,Firozabad,"Nagla Bhau, Firozabad - UPPCB",22-01-2024 08:00:00,27.168897,78.376960,OZONE,23,76,37
India,Uttar_Pradesh,Firozabad,"Vibhab Nagar, Firozabad - UPPCB",22-01-2024 08:00:00,27.1594,78.3953,PM10,40,256,108
India,Uttar_Pradesh,Ghaziabad,"Loni, Ghaziabad - UPPCB",22-01-2024 08:00:00,28.757294,77.278792,PM2.5,127,319,205
India,Uttar_Pradesh,Ghaziabad,"Loni, Ghaziabad - UPPCB",22-01-2024 08:00:00,28.757294,77.278792,PM10,92,198,142
India,Uttar_Pradesh,Ghaziabad,"Loni, Ghaziabad - UPPCB",22-01-2024 08:00:00,28.757294,77.278792,NO2,16,47,27
India,Uttar_Pradesh,Ghaziabad,"Sanjay Nagar, Ghaziabad - UPPCB",22-01-2024 08:00:00,28.685382,77.453839,PM2.5,237,365,309
India,Uttar_Pradesh,Ghaziabad,"Sanjay Nagar, Ghaziabad - UPPCB",22-01-2024 08:00:00,28.685382,77.453839,NH3,12,18,15
India,Uttar_Pradesh,Ghaziabad,"Vasundhara, Ghaziabad - UPPCB",22-01-2024 08:00:00,28.6603346,77.3572563,OZONE,5,26,7
India,Uttar_Pradesh,Gorakhpur,"Madan Mohan Malaviya University of Technology, Gorakhpur - UPPCB",22-01-2024 08:00:00,26.730136,83.433859,PM10,73,130,101
India,Uttar_Pradesh,Greater Noida,"Knowledge Park - III, Greater Noida - UPPCB",22-01-2024 08:00:00,28.47272,77.482000,PM10,139,238,181
India,Uttar_Pradesh,Greater Noida,"Knowledge Park - V, Greater Noida - UPPCB",22-01-2024 08:00:00,28.557054,77.453663,SO2,10,17,14
India,Uttar_Pradesh,Greater Noida,"Knowledge Park - V, Greater Noida - UPPCB",22-01-2024 08:00:00,28.557054,77.453663,OZONE,7,90,15
India,Uttar_Pradesh,Hapur,"Anand Vihar, Hapur - UPPCB",22-01-2024 08:00:00,28.725645,77.749675,OZONE,13,40,19
India,Uttar_Pradesh,Jhansi,"Shivaji Nagar, Jhansi - UPPCB",22-01-2024 08:00:00,25.4547,78.6039,PM2.5,45,356,144
India,Uttar_Pradesh,Jhansi,"Shivaji Nagar, Jhansi - UPPCB",22-01-2024 08:00:00,25.4547,78.6039,NO2,18,38,24
India,Uttar_Pradesh,Kanpur,"FTI Kidwai Nagar, Kanpur - UPPCB",22-01-2024 08:00:00,26.428282,80.327067,PM2.5,24,132,79
India,Uttar_Pradesh,Kanpur,"FTI Kidwai Nagar, Kanpur - UPPCB",22-01-2024 08:00:00,26.428282,80.327067,SO2,21,22,21
India,Uttar_Pradesh,Kanpur,"FTI Kidwai Nagar, Kanpur - UPPCB",22-01-2024 08:00:00,26.428282,80.327067,OZONE,3,9,4
India,Uttar_Pradesh,Kanpur,"NSI Kalyanpur, Kanpur - UPPCB",22-01-2024 08:00:00,26.509954,80.249612,PM10,114,151,134
India,Uttar_Pradesh,Kanpur,"Nehru Nagar, Kanpur - UPPCB",22-01-2024 08:00:00,26.4703136,80.3229863,SO2,1,21,10
India,Uttar_Pradesh,Khurja,"Kalindi Kunj, Khurja - UPPCB",22-01-2024 08:00:00,28.2348927,77.8683002,PM10,43,193,97
India,Uttar_Pradesh,Khurja,"Kalindi Kunj, Khurja - UPPCB",22-01-2024 08:00:00,28.2348927,77.8683002,SO2,36,80,53
India,Uttar_Pradesh,Lucknow,"B R Ambedkar University, Lucknow - UPPCB",22-01-2024 08:00:00,26.766433,80.927299,PM2.5,51,179,103
India,Uttar_Pradesh,Lucknow,"B R Ambedkar University, Lucknow - UPPCB",22-01-2024 08:00:00,26.766433,80.927299,NO2,11,12,12
India,Uttar_Pradesh,Lucknow,"B R Ambedkar University, Lucknow - UPPCB",22-01-2024 08:00:00,26.766433,80.927299,CO,14,21,16
India,Uttar_Pradesh,Lucknow,"Kendriya Vidyalaya, Lucknow - CPCB",22-01-2024 08:00:00,26.906111,80.948222,CO,NA,NA,NA
India,Uttar_Pradesh,Lucknow,"Kukrail Picnic Spot-1, Lucknow - UPPCB",22-01-2024 08:00:00,26.90723,80.98579,PM10,103,141,114
India,Uttar_Pradesh,Lucknow,"Kukrail Picnic Spot-1, Lucknow - UPPCB",22-01-2024 08:00:00,26.90723,80.98579,NO2,8,9,8
India,Uttar_Pradesh,Lucknow,"Kukrail Picnic Spot-1, Lucknow - UPPCB",22-01-2024 08:00:00,26.90723,80.98579,NH3,2,2,2
India,Uttar_Pradesh,Lucknow,"Lalbagh, Lucknow - CPCB",22-01-2024 08:00:00,26.8458805,80.9365541,PM10,169,250,201
India,Uttar_Pradesh,Lucknow,"Lalbagh, Lucknow - CPCB",22-01-2024 08:00:00,26.8458805,80.9365541,SO2,4,10,7
India,Uttar_Pradesh,Lucknow,"Lalbagh, Lucknow - CPCB",22-01-2024 08:00:00,26.8458805,80.9365541,CO,70,100,74
India,Uttar_Pradesh,Meerut,"Ganga Nagar, Meerut - UPPCB",22-01-2024 08:00:00,28.999264,77.7590354,PM10,117,206,153
India,Uttar_Pradesh,Meerut,"Jai Bhim Nagar, Meerut - UPPCB",22-01-2024 08:00:00,28.9535882,77.7622941,SO2,3,7,5
India,Uttar_Pradesh,Meerut,"Jai Bhim Nagar, Meerut - UPPCB",22-01-2024 08:00:00,28.9535882,77.7622941,OZONE,18,36,20
India,Uttar_Pradesh,Meerut,"Pallavpuram Phase 2, Meerut - UPPCB",22-01-2024 08:00:00,29.063510,77.709723,NO2,27,71,44
India,Uttar_Pradesh,Meerut,"Pallavpuram Phase 2, Meerut - UPPCB",22-01-2024 08:00:00,29.063510,77.709723,CO,40,75,52
India,Uttar_Pradesh,Moradabad,"Employment Office, Moradabad - UPPCB",22-01-2024 08:00:00,28.88528,78.73880,SO2,23,25,24
India,Uttar_Pradesh,Moradabad,"Employment Office, Moradabad - UPPCB",22-01-2024 08:00:00,28.88528,78.73880,OZONE,14,18,15
India,Uttar_Pradesh,Moradabad,"Jigar Colony, Moradabad - UPPCB",22-01-2024 08:00:00,28.856664,78.772638,PM2.5,69,128,94
India,Uttar_Pradesh,Moradabad,"Jigar Colony, Moradabad - UPPCB",22-01-2024 08:00:00,28.856664,78.772638,NH3,5,5,5
India,Uttar_Pradesh,Moradabad,"Jigar Colony, Moradabad - UPPCB",22-01-2024 08:00:00,28.856664,78.772638,CO,26,55,32
India,Uttar_Pradesh,Moradabad,"Kashiram Nagar, Moradabad - UPPCB",22-01-2024 08:00:00,28.849399,78.742362,PM2.5,62,158,96
India,Uttar_Pradesh,Moradabad,"Kashiram Nagar, Moradabad - UPPCB",22-01-2024 08:00:00,28.849399,78.742362,PM10,87,144,112
India,Uttar_Pradesh,Moradabad,"Kashiram Nagar, Moradabad - UPPCB",22-01-2024 08:00:00,28.849399,78.742362,NH3,4,4,4
India,Uttar_Pradesh,Moradabad,"Kashiram Nagar, Moradabad - UPPCB",22-01-2024 08:00:00,28.849399,78.742362,OZONE,14,70,16
India,Uttar_Pradesh,Moradabad,"Transport Nagar, Moradabad - UPPCB",22-01-2024 08:00:00,28.802625,78.753728,SO2,40,44,42
India,Uttar_Pradesh,Noida,"Sector - 125, Noida - UPPCB",22-01-2024 08:00:00,28.5447608,77.3231257,NO2,68,143,101
India,Uttar_Pradesh,Noida,"Sector - 125, Noida - UPPCB",22-01-2024 08:00:00,28.5447608,77.3231257,NH3,8,13,11
India,Uttar_Pradesh,Noida,"Sector - 62, Noida - IMD",22-01-2024 08:00:00,28.6245479,77.3577104,OZONE,NA,NA,NA
India,Uttar_Pradesh,Noida,"Sector-1, Noida - UPPCB",22-01-2024 08:00:00,28.5898,77.3101,OZONE,1,3,1
India,Uttar_Pradesh,Noida,"Sector-116, Noida - UPPCB",22-01-2024 08:00:00,28.569230,77.393848,PM2.5,246,363,312
India,Uttar_Pradesh,Noida,"Sector-116, Noida - UPPCB",22-01-2024 08:00:00,28.569230,77.393848,PM10,133,223,167
India,Uttar_Pradesh,Prayagraj,"Jhunsi, Prayagraj - UPPCB",22-01-2024 08:00:00,25.425602,81.917152,NO2,6,6,6
India,Uttar_Pradesh,Prayagraj,"Jhunsi, Prayagraj - UPPCB",22-01-2024 08:00:00,25.425602,81.917152,SO2,30,33,31
India,Uttar_Pradesh,Prayagraj,"Jhunsi, Prayagraj - UPPCB",22-01-2024 08:00:00,25.425602,81.917152,CO,18,116,58
India,Uttar_Pradesh,Prayagraj,"Nagar Nigam, Prayagraj - UPPCB",22-01-2024 08:00:00,25.44919916 ,81.82735986 ,PM2.5,53,304,116
India,Uttar_Pradesh,Prayagraj,"Nagar Nigam, Prayagraj - UPPCB",22-01-2024 08:00:00,25.44919916 ,81.82735986 ,SO2,9,40,22
India,Uttar_Pradesh,Varanasi,"Ardhali Bazar, Varanasi - UPPCB",22-01-2024 08:00:00,25.3505986,82.9083074,OZONE,18,37,28
India,Uttar_Pradesh,Varanasi,"Bhelupur, Varanasi - UPPCB",22-01-2024 08:00:00,25.301778,82.996789,CO,15,115,83
India,Uttar_Pradesh,Varanasi,"Maldahiya, Varanasi - UPPCB",22-01-2024 08:00:00,25.32393,82.99687,PM10,39,143,79
India,Uttar_Pradesh,Varanasi,"Maldahiya, Varanasi - UPPCB",22-01-2024 08:00:00,25.32393,82.99687,NO2,2,26,13
India,Uttar_Pradesh,Vrindavan,"Omex Eternity, Vrindavan - UPPCB",22-01-2024 08:00:00,27.5714090,77.6557570,PM10,40,163,76
India,Uttar_Pradesh,Vrindavan,"Omex Eternity, Vrindavan - UPPCB",22-01-2024 08:00:00,27.5714090,77.6557570,NO2,2,3,3
India,Uttarakhand,Dehradun,"Doon University, Dehradun - UKPCB",22-01-2024 08:00:00,30.269444,78.044167,PM10,100,247,162
India,Uttarakhand,Dehradun,"Doon University, Dehradun - UKPCB",22-01-2024 08:00:00,30.269444,78.044167,NO2,3,9,6
India,Uttarakhand,Kashipur,"Govt. Girls Inter College, Kashipur - UKPCB",22-01-2024 08:00:00,29.2124114,78.9611753,PM2.5,65,238,154
India,Uttarakhand,Kashipur,"Govt. Girls Inter College, Kashipur - UKPCB",22-01-2024 08:00:00,29.2124114,78.9611753,PM10,55,147,116
India,Uttarakhand,Rishikesh,"Shivaji Nagar, Rishikesh - UKPCB",22-01-2024 08:00:00,30.075911,78.2859547,SO2,3,5,4
India,Uttarakhand,Rishikesh,"Shivaji Nagar, Rishikesh - UKPCB",22-01-2024 08:00:00,30.075911,78.2859547,OZONE,3,11,6
India,West_Bengal,Asansol,"Asansol Court Area, Asansol - WBPCB",22-01-2024 08:00:00,23.685297,86.945968,NO2,27,73,44
India,West_Bengal,Barrackpore,"SVSPA Campus, Barrackpore - WBPCB",22-01-2024 08:00:00,22.7605581,88.3617589,CO,36,101,51
India,West_Bengal,Durgapur,"Sidhu Kanhu Indoor Stadium, Durgapur - WBPCB",22-01-2024 08:00:00,23.5404352,87.2892225,NH3,3,4,4
India,West_Bengal,Haldia,"Priyambada Housing Estate, Haldia - WBPCB",22-01-2024 08:00:00,22.06047,88.109737,PM2.5,128,194,164
India,West_Bengal,Haldia,"Priyambada Housing Estate, Haldia - WBPCB",22-01-2024 08:00:00,22.06047,88.109737,NO2,30,57,40
India,West_Bengal,Haldia,"Priyambada Housing Estate, Haldia - WBPCB",22-01-2024 08:00:00,22.06047,88.109737,NH3,4,5,4
India,West_Bengal,Howrah,"Belur Math, Howrah - WBPCB",22-01-2024 08:00:00,22.629801,88.352017,CO,4,88,22
India,West_Bengal,Howrah,"Ghusuri, Howrah - WBPCB",22-01-2024 08:00:00,22.611968,88.347422,PM10,NA,NA,NA
India,West_Bengal,Howrah,"Padmapukur, Howrah - WBPCB",22-01-2024 08:00:00,22.5687319,88.2797276,NO2,33,63,42
India,West_Bengal,Howrah,"Padmapukur, Howrah - WBPCB",22-01-2024 08:00:00,22.5687319,88.2797276,NH3,12,24,14
India,West_Bengal,Howrah,"Padmapukur, Howrah - WBPCB",22-01-2024 08:00:00,22.5687319,88.2797276,OZONE,2,37,8
India,West_Bengal,Kolkata,"Ballygunge, Kolkata - WBPCB",22-01-2024 08:00:00,22.5367507,88.3638022,SO2,10,27,16
India,West_Bengal,Kolkata,"Bidhannagar, Kolkata - WBPCB",22-01-2024 08:00:00,22.58157048,88.41002457,PM2.5,189,323,255
India,West_Bengal,Kolkata,"Bidhannagar, Kolkata - WBPCB",22-01-2024 08:00:00,22.58157048,88.41002457,PM10,165,300,197
India,West_Bengal,Kolkata,"Bidhannagar, Kolkata - WBPCB",22-01-2024 08:00:00,22.58157048,88.41002457,NO2,21,48,32
India,West_Bengal,Kolkata,"Jadavpur, Kolkata - WBPCB",22-01-2024 08:00:00,22.49929,88.36917,PM10,167,281,200
India,West_Bengal,Kolkata,"Jadavpur, Kolkata - WBPCB",22-01-2024 08:00:00,22.49929,88.36917,CO,27,86,53
India,West_Bengal,Kolkata,"Rabindra Sarobar, Kolkata - WBPCB",22-01-2024 08:00:00,22.51106,88.35142,NH3,5,16,9
India,West_Bengal,Kolkata,"Victoria, Kolkata - WBPCB",22-01-2024 08:00:00,22.5448082,88.3403691,NO2,1,10,4
India,West_Bengal,Siliguri,"Ward-32 Bapupara, Siliguri - WBPCB",22-01-2024 08:00:00,26.6879226,88.4152495,PM2.5,70,296,141
India,Andhra_Pradesh,Amaravati,"Secretariat, Amaravati - APPCB",22-01-2024 08:00:00,16.5150833,80.5181667,NO2,7,19,12
India,Andhra_Pradesh,Amaravati,"Secretariat, Amaravati - APPCB",22-01-2024 08:00:00,16.5150833,80.5181667,NH3,4,5,4
India,Andhra_Pradesh,Amaravati,"Secretariat, Amaravati - APPCB",22-01-2024 08:00:00,16.5150833,80.5181667,CO,2,28,22
India,Andhra_Pradesh,Amaravati,"Secretariat, Amaravati - APPCB",22-01-2024 08:00:00,16.5150833,80.5181667,OZONE,8,41,14
India,Andhra_Pradesh,Anantapur,"Gulzarpet, Anantapur - APPCB",22-01-2024 08:00:00,14.675886,77.593027,PM10,53,102,67
India,Andhra_Pradesh,Anantapur,"Gulzarpet, Anantapur - APPCB",22-01-2024 08:00:00,14.675886,77.593027,OZONE,4,60,15
India,Andhra_Pradesh,Chittoor,"Gangineni Cheruvu, Chittoor - APPCB",22-01-2024 08:00:00,13.204880,79.097889,PM2.5,25,93,45
India,Andhra_Pradesh,Chittoor,"Gangineni Cheruvu, Chittoor - APPCB",22-01-2024 08:00:00,13.204880,79.097889,NO2,7,28,12
India,Andhra_Pradesh,Rajamahendravaram,"Anand Kala Kshetram, Rajamahendravaram - APPCB",22-01-2024 08:00:00,16.9872867,81.7363176,OZONE,NA,NA,NA
India,Andhra_Pradesh,Tirupati,"Tirumala, Tirupati - APPCB",22-01-2024 08:00:00,13.67,79.35,SO2,1,37,13
India,Andhra_Pradesh,Tirupati,"Tirumala, Tirupati - APPCB",22-01-2024 08:00:00,13.67,79.35,OZONE,3,56,23
India,Andhra_Pradesh,Tirupati,"Vaikuntapuram, Tirupati - APPCB",22-01-2024 08:00:00,13.615387,79.409230,NH3,2,4,3
India,Andhra_Pradesh,Tirupati,"Vaikuntapuram, Tirupati - APPCB",22-01-2024 08:00:00,13.615387,79.409230,OZONE,1,45,5
India,Assam,Byrnihat,"Central Academy for SFS, Byrnihat - PCBA",22-01-2024 08:00:00,26.071318,91.87488,NO2,36,124,62
India,Assam,Guwahati,"LGBI Airport, Guwahati - PCBA",22-01-2024 08:00:00,26.10887,91.589544,NH3,1,3,2
India,Assam,Guwahati,"LGBI Airport, Guwahati - PCBA",22-01-2024 08:00:00,26.10887,91.589544,SO2,11,15,13
India,Assam,Guwahati,"Pan Bazaar, Guwahati - PCBA",22-01-2024 08:00:00,26.187500,91.744194,CO,44,86,55
India,Assam,Guwahati,"Railway Colony, Guwahati - PCBA",22-01-2024 08:00:00,26.181742,91.78063,PM2.5,203,454,295
India,Assam,Guwahati,"Railway Colony, Guwahati - PCBA",22-01-2024 08:00:00,26.181742,91.78063,NO2,3,3,3
India,Assam,Guwahati,"Railway Colony, Guwahati - PCBA",22-01-2024 08:00:00,26.181742,91.78063,CO,47,112,58
India,Assam,Silchar,"Tarapur, Silchar - PCBA",22-01-2024 08:00:00,24.82827,92.79525,PM2.5,28,38,33
India,Assam,Silchar,"Tarapur, Silchar - PCBA",22-01-2024 08:00:00,24.82827,92.79525,SO2,NA,NA,NA
India,Assam,Silchar,"Tarapur, Silchar - PCBA",22-01-2024 08:00:00,24.82827,92.79525,OZONE,NA,NA,NA
India,Bihar,Araria,"Kharahiya Basti, Araria - BSPCB",22-01-2024 08:00:00,26.146529,87.454184,PM10,106,196,144
India,Bihar,Araria,"Kharahiya Basti, Araria - BSPCB",22-01-2024 08:00:00,26.146529,87.454184,NH3,6,6,6
India,Bihar,Araria,"Kharahiya Basti, Araria - BSPCB",22-01-2024 08:00:00,26.146529,87.454184,OZONE,14,23,17
India,Bihar,Arrah,"New DM Office, Arrah - BSPCB",22-01-2024 08:00:00,25.5626095,84.663264,NO2,NA,NA,NA
India,Bihar,Aurangabad,"Gurdeo Nagar, Aurangabad - BSPCB",22-01-2024 08:00:00,24.75746,84.366208,CO,38,104,66
India,Bihar,Bhagalpur,"DM Office_Kachari Chowk, Bhagalpur - BSPCB",22-01-2024 08:00:00,25.251013,86.989001,OZONE,24,35,27
India,Bihar,Bhagalpur,"Mayaganj, Bhagalpur - BSPCB",22-01-2024 08:00:00,25.265194,87.012947,PM2.5,304,385,335
India,Bihar,Bhagalpur,"Mayaganj, Bhagalpur - BSPCB",22-01-2024 08:00:00,25.265194,87.012947,OZONE,39,66,48
India,Bihar,Bihar Sharif,"D M Colony, Bihar Sharif - BSPCB",22-01-2024 08:00:00,25.204762,85.514960,CO,14,53,38
India,Bihar,Chhapra,"Darshan Nagar, Chhapra - BSPCB",22-01-2024 08:00:00,25.7808257,84.7446768,PM2.5,213,365,296
India,Bihar,Gaya,"Kareemganj, Gaya - BSPCB",22-01-2024 08:00:00,24.792403,84.992416,NO2,17,31,30
India,Bihar,Gaya,"Kareemganj, Gaya - BSPCB",22-01-2024 08:00:00,24.792403,84.992416,OZONE,6,32,18
India,Bihar,Gaya,"SFTI Kusdihra, Gaya - BSPCB",22-01-2024 08:00:00,24.762518,84.982348,SO2,1,11,7
India,Bihar,Gaya,"SFTI Kusdihra, Gaya - BSPCB",22-01-2024 08:00:00,24.762518,84.982348,OZONE,10,73,14
India,Bihar,Hajipur,"Industrial Area, Hajipur - BSPCB",22-01-2024 08:00:00,25.697189,85.245900,PM2.5,97,317,232
India,Bihar,Katihar,"Mirchaibari, Katihar - BSPCB",22-01-2024 08:00:00,25.560083,87.553265,OZONE,18,30,27
India,Bihar,Kishanganj,"SDM Office_Khagra, Kishanganj - BSPCB",22-01-2024 08:00:00,26.0881305,87.93840336,OZONE,12,19,12
India,Bihar,Manguraha,"Forest Rest House, Manguraha - BSPCB",22-01-2024 08:00:00,27.308328,84.531742,PM2.5,62,127,84
India,Bihar,Manguraha,"Forest Rest House, Manguraha - BSPCB",22-01-2024 08:00:00,27.308328,84.531742,SO2,NA,NA,NA
India,Bihar,Manguraha,"Forest Rest House, Manguraha - BSPCB",22-01-2024 08:00:00,27.308328,84.531742,CO,3,16,7
India,Bihar,Muzaffarpur,"Muzaffarpur Collectorate, Muzaffarpur - BSPCB",22-01-2024 08:00:00,26.1209,85.3647,SO2,5,7,6
India,Bihar,Muzaffarpur,"Muzaffarpur Collectorate, Muzaffarpur - BSPCB",22-01-2024 08:00:00,26.1209,85.3647,OZONE,16,66,16
India,Bihar,Patna,"Govt. High School Shikarpur, Patna - BSPCB",22-01-2024 08:00:00,25.592539,85.227158,PM10,120,144,136
India,Bihar,Patna,"Govt. High School Shikarpur, Patna - BSPCB",22-01-2024 08:00:00,25.592539,85.227158,NH3,2,5,4
India,Bihar,Patna,"Govt. High School Shikarpur, Patna - BSPCB",22-01-2024 08:00:00,25.592539,85.227158,OZONE,7,20,13
India,Bihar,Patna,"IGSC Planetarium Complex, Patna - BSPCB",22-01-2024 08:00:00,25.610369,85.132568,PM2.5,52,348,175
India,Bihar,Patna,"IGSC Planetarium Complex, Patna - BSPCB",22-01-2024 08:00:00,25.610369,85.132568,CO,30,44,41
India,Bihar,Patna,"Muradpur, Patna - BSPCB",22-01-2024 08:00:00,25.619651,85.147382,NH3,1,2,1
India,Bihar,Patna,"Rajbansi Nagar, Patna - BSPCB",22-01-2024 08:00:00,25.599486,85.113666,SO2,10,24,16
India,Bihar,Patna,"Samanpura, Patna - BSPCB",22-01-2024 08:00:00,25.596727,85.085624,PM10,192,500,355
India,Bihar,Purnia,"Mariam Nagar, Purnia - BSPCB",22-01-2024 08:00:00,25.366336,87.117468,NO2,12,13,13
India,Bihar,Rajgir,"Dangi Tola, Rajgir - BSPCB",22-01-2024 08:00:00,25.03280,85.41948,CO,11,24,13
India,Bihar,Saharsa,"Police Line, Saharsa - BSPCB",22-01-2024 08:00:00,25.892357,86.590325,CO,NA,NA,NA
India,Bihar,Samastipur,"DM Office_Kasipur, Samastipur - BSPCB",22-01-2024 08:00:00,25.859655,85.77944,PM10,87,133,112
India,Bihar,Sasaram,"Dada Peer, Sasaram - BSPCB",22-01-2024 08:00:00,24.952822,84.002396,PM10,106,215,138
India,Bihar,Sasaram,"Dada Peer, Sasaram - BSPCB",22-01-2024 08:00:00,24.952822,84.002396,NO2,1,13,6
India,Bihar,Siwan,"Chitragupta Nagar, Siwan - BSPCB",22-01-2024 08:00:00,26.2271665,84.3570427,PM10,62,139,97
India,Bihar,Siwan,"Chitragupta Nagar, Siwan - BSPCB",22-01-2024 08:00:00,26.2271665,84.3570427,SO2,25,35,30
India,Bihar,Siwan,"Chitragupta Nagar, Siwan - BSPCB",22-01-2024 08:00:00,26.2271665,84.3570427,CO,103,189,113
India,Chandigarh,Chandigarh,"Sector 22, Chandigarh - CPCC",22-01-2024 08:00:00,30.735567,76.775714,CO,62,71,65
India,Chandigarh,Chandigarh,"Sector-25, Chandigarh - CPCC",22-01-2024 08:00:00,30.751462,76.762879,NO2,15,32,20
India,Chandigarh,Chandigarh,"Sector-25, Chandigarh - CPCC",22-01-2024 08:00:00,30.751462,76.762879,NH3,10,12,11
India,Chandigarh,Chandigarh,"Sector-53, Chandigarh - CPCC",22-01-2024 08:00:00,30.719859,76.738637,PM2.5,147,355,309
India,Chandigarh,Chandigarh,"Sector-53, Chandigarh - CPCC",22-01-2024 08:00:00,30.719859,76.738637,PM10,101,388,204
India,Chhattisgarh,Bhilai,"32Bungalows, Bhilai - CECB",22-01-2024 08:00:00,21.194815,81.314770,NO2,20,30,25
India,Chhattisgarh,Bhilai,"32Bungalows, Bhilai - CECB",22-01-2024 08:00:00,21.194815,81.314770,SO2,9,12,10
India,Chhattisgarh,Bhilai,"Civic Center, Bhilai - Bhilai Steel Plant",22-01-2024 08:00:00,21.185571,81.343175,NH3,2,3,2
India,Chhattisgarh,Bhilai,"Civic Center, Bhilai - Bhilai Steel Plant",22-01-2024 08:00:00,21.185571,81.343175,OZONE,9,42,10
India,Chhattisgarh,Bhilai,"Hathkhoj, Bhilai - CECB",22-01-2024 08:00:00,21.224231,81.408350,NO2,46,89,62
India,Chhattisgarh,Bhilai,"Hathkhoj, Bhilai - CECB",22-01-2024 08:00:00,21.224231,81.408350,SO2,21,108,63
India,Chhattisgarh,Bhilai,"Hathkhoj, Bhilai - CECB",22-01-2024 08:00:00,21.224231,81.408350,CO,21,38,27
India,Chhattisgarh,Bhilai,"Hathkhoj, Bhilai - CECB",22-01-2024 08:00:00,21.224231,81.408350,OZONE,15,29,17
India,Chhattisgarh,Chhal,"Nawapara SECL Colony, Chhal - CECB",22-01-2024 08:00:00,22.118125,83.140608,NH3,2,2,2
India,Chhattisgarh,Chhal,"Nawapara SECL Colony, Chhal - CECB",22-01-2024 08:00:00,22.118125,83.140608,CO,44,111,59
India,Chhattisgarh,Korba,"Rampur, Korba - CECB",22-01-2024 08:00:00,22.368195,82.746431,NO2,37,76,46
India,Chhattisgarh,Korba,"Rampur, Korba - CECB",22-01-2024 08:00:00,22.368195,82.746431,NH3,4,10,5
India,Chhattisgarh,Korba,"Rampur, Korba - CECB",22-01-2024 08:00:00,22.368195,82.746431,OZONE,2,62,15
India,Chhattisgarh,Korba,"Urja Nagar, Korba - CECB",22-01-2024 08:00:00,22.348441,82.549611,CO,18,34,23
India,Chhattisgarh,Milupara,"Govt. Higher Secondary School, Milupara - CECB",22-01-2024 08:00:00,22.1910172,83.5197009,OZONE,4,69,23
India,Chhattisgarh,Raipur,"AIIMS, Raipur - CECB",22-01-2024 08:00:00,21.258815,81.578979,CO,33,55,39
India,Chhattisgarh,Raipur,"Bhatagaon New ISBT, Raipur - CECB",22-01-2024 08:00:00,21.219665,81.630094,NO2,56,85,68
India,Chhattisgarh,Raipur,"Bhatagaon New ISBT, Raipur - CECB",22-01-2024 08:00:00,21.219665,81.630094,CO,24,67,38
India,Chhattisgarh,Raipur,"Krishak Nagar, Raipur - CECB",22-01-2024 08:00:00,21.237755,81.705301,PM10,60,95,78
India,Chhattisgarh,Raipur,"Siltara Phase-II, Raipur - CECB",22-01-2024 08:00:00,21.371751,81.664929,PM10,NA,NA,NA
India,Chhattisgarh,Tumidih,"OP Jindal Industrial Park, Tumidih - CECB",22-01-2024 08:00:00,22.06631475,83.33820077,PM2.5,19,274,63
India,Delhi,Delhi,"Alipur, Delhi - DPCC",22-01-2024 08:00:00,28.815329,77.153010,NH3,8,11,10
India,Delhi,Delhi,"Anand Vihar, Delhi - DPCC",22-01-2024 08:00:00,28.647622,77.3158090,NO2,46,114,81
India,Delhi,Delhi,"Anand Vihar, Delhi - DPCC",22-01-2024 08:00:00,28.647622,77.3158090,CO,42,80,48
India,Delhi,Delhi,"Ashok Vihar, Delhi - DPCC",22-01-2024 08:00:00,28.695381,77.181665,NH3,6,10,9
India,Delhi,Delhi,"Ashok Vihar, Delhi - DPCC",22-01-2024 08:00:00,28.695381,77.181665,OZONE,4,9,5
India,Delhi,Delhi,"Aya Nagar, Delhi - IMD",22-01-2024 08:00:00,28.4706914,77.1099364,PM2.5,NA,NA,NA
India,Delhi,Delhi,"Aya Nagar, Delhi - IMD",22-01-2024 08:00:00,28.4706914,77.1099364,OZONE,NA,NA,NA
India,Delhi,Delhi,"Burari Crossing, Delhi - IMD",22-01-2024 08:00:00,28.7256504,77.2011573,PM2.5,NA,NA,NA
India,Delhi,Delhi,"CRRI Mathura Road, Delhi - IMD",22-01-2024 08:00:00,28.5512005,77.2735737,CO,NA,NA,NA
India,Delhi,Delhi,"CRRI Mathura Road, Delhi - IMD",22-01-2024 08:00:00,28.5512005,77.2735737,OZONE,NA,NA,NA
India,Delhi,Delhi,"Dr. Karni Singh Shooting Range, Delhi - DPCC",22-01-2024 08:00:00,28.498571,77.264840,SO2,4,9,7
India,Delhi,Delhi,"Dwarka-Sector 8, Delhi - DPCC ",22-01-2024 08:00:00,28.5710274,77.0719006,NH3,2,7,3
India,Delhi,Delhi,"IGI Airport (T3), Delhi - IMD",22-01-2024 08:00:00,28.5627763,77.1180053,OZONE,NA,NA,NA
India,Delhi,Delhi,"IHBAS, Dilshad Garden, Delhi - CPCB",22-01-2024 08:00:00,28.6811736,77.3025234,NO2,5,49,24
India,Delhi,Delhi,"Jahangirpuri, Delhi - DPCC",22-01-2024 08:00:00,28.732820,77.170633,NH3,3,14,6
India,Delhi,Delhi,"Jahangirpuri, Delhi - DPCC",22-01-2024 08:00:00,28.732820,77.170633,OZONE,9,21,11
India,Delhi,Delhi,"Jawaharlal Nehru Stadium, Delhi - DPCC",22-01-2024 08:00:00,28.580280,77.233829,PM2.5,293,371,326
India,Delhi,Delhi,"Jawaharlal Nehru Stadium, Delhi - DPCC",22-01-2024 08:00:00,28.580280,77.233829,NO2,67,101,82
India,Delhi,Delhi,"Major Dhyan Chand National Stadium, Delhi - DPCC",22-01-2024 08:00:00,28.611281,77.237738,NO2,51,95,69
India,Delhi,Delhi,"Mandir Marg, Delhi - DPCC",22-01-2024 08:00:00,28.636429,77.201067,SO2,6,8,7
India,Delhi,Delhi,"Mandir Marg, Delhi - DPCC",22-01-2024 08:00:00,28.636429,77.201067,OZONE,1,9,1
India,Delhi,Delhi,"Mundka, Delhi - DPCC",22-01-2024 08:00:00,28.684678,77.076574,NH3,5,22,10
India,Delhi,Delhi,"Mundka, Delhi - DPCC",22-01-2024 08:00:00,28.684678,77.076574,SO2,1,6,2
India,Delhi,Delhi,"Najafgarh, Delhi - DPCC",22-01-2024 08:00:00,28.570173,76.933762,OZONE,15,72,28
India,Delhi,Delhi,"Narela, Delhi - DPCC",22-01-2024 08:00:00,28.822836,77.101981,CO,75,94,80
India,Delhi,Delhi,"Nehru Nagar, Delhi - DPCC",22-01-2024 08:00:00,28.567890,77.250515,PM10,180,356,261
India,Delhi,Delhi,"New Moti Bagh, Delhi - MHUA",22-01-2024 08:00:00,28.57834,77.18400,PM2.5,NA,NA,NA
India,Delhi,Delhi,"New Moti Bagh, Delhi - MHUA",22-01-2024 08:00:00,28.57834,77.18400,NO2,NA,NA,NA
India,Delhi,Delhi,"North Campus, DU, Delhi - IMD",22-01-2024 08:00:00,28.6573814,77.1585447,PM10,NA,NA,NA
India,Delhi,Delhi,"Patparganj, Delhi - DPCC",22-01-2024 08:00:00,28.623763,77.287209,PM2.5,283,378,337
India,Delhi,Delhi,"Patparganj, Delhi - DPCC",22-01-2024 08:00:00,28.623763,77.287209,CO,24,63,32
India,Delhi,Delhi,"Punjabi Bagh, Delhi - DPCC",22-01-2024 08:00:00,28.674045,77.131023,NH3,5,7,6
India,Delhi,Delhi,"Pusa, Delhi - DPCC",22-01-2024 08:00:00,28.639652,77.146275,NO2,NA,NA,NA
India,Delhi,Delhi,"Pusa, Delhi - DPCC",22-01-2024 08:00:00,28.639652,77.146275,CO,NA,NA,NA
India,Delhi,Delhi,"Pusa, Delhi - IMD",22-01-2024 08:00:00,28.636110,77.173332,OZONE,NA,NA,NA
India,Delhi,Delhi,"Rohini, Delhi - DPCC",22-01-2024 08:00:00,28.732528,77.119920,CO,30,62,35
India,Delhi,Delhi,"Shadipur, Delhi - CPCB",22-01-2024 08:00:00,28.6514781,77.1473105,NO2,46,65,54
India,Delhi,Delhi,"Shadipur, Delhi - CPCB",22-01-2024 08:00:00,28.6514781,77.1473105,SO2,4,20,10
India,Delhi,Delhi,"Sonia Vihar, Delhi - DPCC",22-01-2024 08:00:00,28.710508,77.249485,SO2,4,10,6
India,Delhi,Delhi,"Sri Aurobindo Marg, Delhi - DPCC",22-01-2024 08:00:00,28.531346,77.190156,NH3,8,10,9
India,Delhi,Delhi,"Sri Aurobindo Marg, Delhi - DPCC",22-01-2024 08:00:00,28.531346,77.190156,CO,34,66,38
India,Delhi,Delhi,"Vivek Vihar, Delhi - DPCC",22-01-2024 08:00:00,28.672342,77.315260,NO2,37,75,56
India,Delhi,Delhi,"Wazirpur, Delhi - DPCC",22-01-2024 08:00:00,28.699793,77.165453,PM2.5,319,388,342
India,Delhi,Delhi,"Wazirpur, Delhi - DPCC",22-01-2024 08:00:00,28.699793,77.165453,NO2,103,153,124
India,Gujarat,Ahmedabad,"Chandkheda, Ahmedabad - IITM",22-01-2024 08:00:00,23.107969,72.574648,NH3,3,4,4
India,Gujarat,Ahmedabad,"Raikhad, Ahmedabad - IITM",22-01-2024 08:00:00,23.020509,72.579261,NO2,16,17,17
India,Gujarat,Ahmedabad,"SAC ISRO Bopal, Ahmedabad - IITM",22-01-2024 08:00:00,23.041137,72.456691,PM10,66,181,115
India,Gujarat,Ahmedabad,"SAC ISRO Bopal, Ahmedabad - IITM",22-01-2024 08:00:00,23.041137,72.456691,NO2,8,10,10
India,Gujarat,Ahmedabad,"SAC ISRO Bopal, Ahmedabad - IITM",22-01-2024 08:00:00,23.041137,72.456691,OZONE,12,15,15
India,Gujarat,Ahmedabad,"SAC ISRO Satellite, Ahmedabad - IITM",22-01-2024 08:00:00,23.023389,72.515201,CO,NA,NA,NA
India,Gujarat,Ahmedabad,"Sardar Vallabhbhai Patel Stadium, Ahmedabad - IITM",22-01-2024 08:00:00,23.043070,72.562968,NO2,12,14,13
India,Gujarat,Ahmedabad,"Sardar Vallabhbhai Patel Stadium, Ahmedabad - IITM",22-01-2024 08:00:00,23.043070,72.562968,OZONE,1,12,3
India,Gujarat,Gandhinagar,"GIFT City, Gandhinagar - IITM",22-01-2024 08:00:00,23.163798,72.677768,OZONE,1,28,7
India,Gujarat,Gandhinagar,"IIPHG Lekawada, Gandhinagar - IITM",22-01-2024 08:00:00,23.243639,72.68994,PM10,61,156,105
India,Gujarat,Gandhinagar,"IIPHG Lekawada, Gandhinagar - IITM",22-01-2024 08:00:00,23.243639,72.68994,NH3,3,4,3
India,Gujarat,Gandhinagar,"IIPHG Lekawada, Gandhinagar - IITM",22-01-2024 08:00:00,23.243639,72.68994,SO2,5,9,9
India,Gujarat,Surat,"Science Center, Surat - SMC",22-01-2024 08:00:00,21.170046,72.795405,CO,41,64,53
India,Gujarat,Vapi,"Phase-1 GIDC, Vapi - GPCB",22-01-2024 08:00:00,20.362421,72.918013,SO2,40,45,42
India,Haryana,Ambala,"Patti Mehar, Ambala - HSPCB",22-01-2024 08:00:00,30.379589,76.778328,NH3,5,12,8
India,Haryana,Ambala,"Patti Mehar, Ambala - HSPCB",22-01-2024 08:00:00,30.379589,76.778328,CO,30,60,48
India,Haryana,Ballabgarh,"Nathu Colony, Ballabgarh - HSPCB",22-01-2024 08:00:00,28.3419248,77.319699,CO,26,66,33
India,Haryana,Ballabgarh,"Nathu Colony, Ballabgarh - HSPCB",22-01-2024 08:00:00,28.3419248,77.319699,OZONE,2,24,2
India,Haryana,Bhiwani,"H.B. Colony, Bhiwani - HSPCB",22-01-2024 08:00:00,28.806223,76.141105,PM10,70,119,99
India,Haryana,Charkhi Dadri,"Mini Secretariat, Charkhi Dadri - HSPCB",22-01-2024 08:00:00,28.593883,76.270653,PM10,63,164,103
India,Haryana,Dharuhera,"Municipal Corporation Office, Dharuhera -  HSPCB",22-01-2024 08:00:00,28.206800,76.799700,PM2.5,26,256,120
India,Haryana,Dharuhera,"Municipal Corporation Office, Dharuhera -  HSPCB",22-01-2024 08:00:00,28.206800,76.799700,NH3,9,26,18
India,Haryana,Dharuhera,"Municipal Corporation Office, Dharuhera -  HSPCB",22-01-2024 08:00:00,28.206800,76.799700,OZONE,4,31,18
India,Haryana,Faridabad,"New Industrial Town, Faridabad - HSPCB",22-01-2024 08:00:00,28.39072,77.30059,NO2,5,9,7
India,Haryana,Faridabad,"Sector 11, Faridabad - HSPCB",22-01-2024 08:00:00,28.376058,77.315741,PM10,NA,NA,NA
India,Haryana,Faridabad,"Sector 11, Faridabad - HSPCB",22-01-2024 08:00:00,28.376058,77.315741,NH3,NA,NA,NA
India,Haryana,Faridabad,"Sector 30, Faridabad - HSPCB",22-01-2024 08:00:00,28.4417,77.3217,NO2,NA,NA,NA
India,Haryana,Faridabad,"Sector 30, Faridabad - HSPCB",22-01-2024 08:00:00,28.4417,77.3217,NH3,NA,NA,NA
India,Haryana,Faridabad,"Sector 30, Faridabad - HSPCB",22-01-2024 08:00:00,28.4417,77.3217,SO2,NA,NA,NA
India,Haryana,Faridabad,"Sector- 16A, Faridabad - HSPCB",22-01-2024 08:00:00,28.4088421,77.3099081,SO2,9,24,17
India,Haryana,Gurugram,"Sector-51, Gurugram - HSPCB",22-01-2024 08:00:00,28.4227,77.0667,PM2.5,320,382,359
India,Haryana,Gurugram,"Sector-51, Gurugram - HSPCB",22-01-2024 08:00:00,28.4227,77.0667,NH3,6,14,9
India,Haryana,Gurugram,"Teri Gram, Gurugram - HSPCB",22-01-2024 08:00:00,28.4275,77.1465,NH3,35,46,40
India,Haryana,Gurugram,"Vikas Sadan, Gurugram - HSPCB",22-01-2024 08:00:00,28.4501238,77.0263051,SO2,21,33,25
India,Haryana,Hisar,"Urban Estate-II, Hisar - HSPCB",22-01-2024 08:00:00,29.140560,75.744941,PM10,60,103,80
India,Haryana,Jind,"Police Lines, Jind - HSPCB",22-01-2024 08:00:00,29.307814,76.337619,NH3,2,5,4
India,Haryana,Jind,"Police Lines, Jind - HSPCB",22-01-2024 08:00:00,29.307814,76.337619,SO2,3,7,6
India,Haryana,Kaithal,"Rishi Nagar, Kaithal - HSPCB",22-01-2024 08:00:00,29.8006,76.4155,OZONE,26,34,31
India,Haryana,Karnal,"Sector-12, Karnal - HSPCB",22-01-2024 08:00:00,29.695300,77.002700,PM10,63,105,93
India,Haryana,Karnal,"Sector-12, Karnal - HSPCB",22-01-2024 08:00:00,29.695300,77.002700,NO2,7,12,10
India,Haryana,Karnal,"Sector-12, Karnal - HSPCB",22-01-2024 08:00:00,29.695300,77.002700,NH3,10,13,11
India,Haryana,Kurukshetra,"Sector-7, Kurukshetra - HSPCB",22-01-2024 08:00:00,29.966942,76.875879,PM10,107,156,133
India,Haryana,Mandikhera,"General Hospital, Mandikhera - HSPCB",22-01-2024 08:00:00,27.9002,76.9938,PM2.5,9,60,24
India,Haryana,Mandikhera,"General Hospital, Mandikhera - HSPCB",22-01-2024 08:00:00,27.9002,76.9938,NO2,17,22,19
India,Haryana,Mandikhera,"General Hospital, Mandikhera - HSPCB",22-01-2024 08:00:00,27.9002,76.9938,NH3,18,21,20
India,Haryana,Manesar,"Sector-2 IMT, Manesar - HSPCB",22-01-2024 08:00:00,28.360699,76.936090,NO2,14,33,20
India,Haryana,Panchkula,"Sector-6, Panchkula - HSPCB ",22-01-2024 08:00:00,30.7057778,76.8531805555555,PM2.5,99,285,194
India,Haryana,Sirsa,"F-Block, Sirsa - HSPCB",22-01-2024 08:00:00,29.536400,75.015800,NH3,12,13,13
India,Haryana,Sirsa,"F-Block, Sirsa - HSPCB",22-01-2024 08:00:00,29.536400,75.015800,OZONE,30,47,38
India,Haryana,Sonipat,"Murthal, Sonipat - HSPCB",22-01-2024 08:00:00,29.027200,77.062100,PM10,164,164,164
India,Haryana,Sonipat,"Murthal, Sonipat - HSPCB",22-01-2024 08:00:00,29.027200,77.062100,NH3,7,10,9
India,Haryana,Sonipat,"Murthal, Sonipat - HSPCB",22-01-2024 08:00:00,29.027200,77.062100,SO2,13,29,20
India,Haryana,Yamuna Nagar,"Gobind Pura, Yamuna Nagar - HSPCB",22-01-2024 08:00:00,30.1480566,77.2893471,NO2,11,29,18
India,Haryana,Yamuna Nagar,"Gobind Pura, Yamuna Nagar - HSPCB",22-01-2024 08:00:00,30.1480566,77.2893471,OZONE,7,13,12
India,Himachal Pradesh,Baddi,"HIMUDA Complex Phase-1, Baddi - HPPCB",22-01-2024 08:00:00,30.943887,76.801991,SO2,16,103,41
India,Jharkhand,Dhanbad,"Kalakusuma, Dhanbad - DMC",22-01-2024 08:00:00,23.811548,86.481238,PM2.5,63,315,170
India,Jharkhand,Dhanbad,"Kalakusuma, Dhanbad - DMC",22-01-2024 08:00:00,23.811548,86.481238,OZONE,20,35,22
India,Jharkhand,Dhanbad,"Sardar Patel Nagar, Dhanbad - JSPCB",22-01-2024 08:00:00,23.80569,86.44268,SO2,NA,NA,NA
India,Karnataka,Bagalkot,"Vidayagiri, Bagalkot - KSPCB",22-01-2024 08:00:00,16.172806,75.659694,NO2,10,11,10
India,Karnataka,Belgaum,"Ramteerth Nagar, Belgaum - KSPCB",22-01-2024 08:00:00,15.888653,74.541751,PM2.5,22,75,39
India,Karnataka,Belgaum,"Ramteerth Nagar, Belgaum - KSPCB",22-01-2024 08:00:00,15.888653,74.541751,SO2,8,9,8
India,Karnataka,Belgaum,"Ramteerth Nagar, Belgaum - KSPCB",22-01-2024 08:00:00,15.888653,74.541751,OZONE,19,19,19
India,Karnataka,Bengaluru,"BTM Layout, Bengaluru - CPCB",22-01-2024 08:00:00,12.9135218,77.5950804,CO,24,37,24
India,Karnataka,Bengaluru,"City Railway Station, Bengaluru - KSPCB",22-01-2024 08:00:00,12.9756843,77.5660749,PM10,72,85,78
India,Karnataka,Bengaluru,"Jigani, Bengaluru - KSPCB",22-01-2024 08:00:00,12.7816279,77.6299145,NO2,21,22,22
India,Karnataka,Bengaluru,"Jigani, Bengaluru - KSPCB",22-01-2024 08:00:00,12.7816279,77.6299145,CO,50,92,62
India,Karnataka,Bengaluru,"Kasturi Nagar, Bengaluru - KSPCB",22-01-2024 08:00:00,13.003872,77.664217,SO2,10,10,10
India,Karnataka,Bengaluru,"Kasturi Nagar, Bengaluru - KSPCB",22-01-2024 08:00:00,13.003872,77.664217,OZONE,8,156,44
India,Karnataka,Bengaluru,"Peenya, Bengaluru - CPCB",22-01-2024 08:00:00,13.0270199,77.494094,SO2,9,18,13
India,Karnataka,Bengaluru,"RVCE-Mailasandra, Bengaluru - KSPCB",22-01-2024 08:00:00,12.921418,77.502466,NO2,31,31,31
India,Karnataka,Bengaluru,"RVCE-Mailasandra, Bengaluru - KSPCB",22-01-2024 08:00:00,12.921418,77.502466,SO2,4,5,4
India,Karnataka,Bengaluru,"Shivapura_Peenya, Bengaluru - KSPCB",22-01-2024 08:00:00,13.0246342,77.5080115,PM10,54,107,74
India,Karnataka,Bengaluru,"Shivapura_Peenya, Bengaluru - KSPCB",22-01-2024 08:00:00,13.0246342,77.5080115,NO2,15,16,15
India,Karnataka,Bengaluru,"Shivapura_Peenya, Bengaluru - KSPCB",22-01-2024 08:00:00,13.0246342,77.5080115,SO2,4,12,7
India,Karnataka,Bengaluru,"Shivapura_Peenya, Bengaluru - KSPCB",22-01-2024 08:00:00,13.0246342,77.5080115,CO,24,90,43
India,Karnataka,Bengaluru,"Silk Board, Bengaluru - KSPCB",22-01-2024 08:00:00,12.917348,77.622813,PM10,54,262,103
India,Karnataka,Bidar,"Naubad, Bidar - KSPCB",22-01-2024 08:00:00,17.930306,77.482194,NO2,7,9,8
India,Karnataka,Bidar,"Naubad, Bidar - KSPCB",22-01-2024 08:00:00,17.930306,77.482194,SO2,15,17,16
India,Karnataka,Chamarajanagar,"Urban, Chamarajanagar - KSPCB",22-01-2024 08:00:00,11.55358,76.55521,PM2.5,20,39,27
India,Karnataka,Chikkaballapur,"Chikkaballapur Rural, Chikkaballapur - KSPCB",22-01-2024 08:00:00,13.428828,77.731418,PM10,48,101,63
India,Karnataka,Chikkaballapur,"Chikkaballapur Rural, Chikkaballapur - KSPCB",22-01-2024 08:00:00,13.428828,77.731418,CO,NA,NA,NA
India,Karnataka,Chikkamagaluru,"Kalyana Nagara, Chikkamagaluru - KSPCB",22-01-2024 08:00:00,13.328028,75.797056,SO2,2,7,4
India,Karnataka,Davanagere,"Devaraj Urs Badavane, Davanagere - KSPCB",22-01-2024 08:00:00,14.475800,75.905200,PM10,42,114,70
India,Karnataka,Davanagere,"Devaraj Urs Badavane, Davanagere - KSPCB",22-01-2024 08:00:00,14.475800,75.905200,NO2,10,24,13
India,Karnataka,Davanagere,"Devaraj Urs Badavane, Davanagere - KSPCB",22-01-2024 08:00:00,14.475800,75.905200,OZONE,17,26,24
India,Karnataka,Dharwad,"Kalabhavan, Dharwad - KSPCB",22-01-2024 08:00:00,15.459706,75.008381,OZONE,3,41,18
India,Karnataka,Gadag,"Panchal Nagar, Gadag - KSPCB",22-01-2024 08:00:00,15.411456,75.638133,NO2,8,20,14
India,Karnataka,Hassan,"B.Katihalli, Hassan - KSPCB",22-01-2024 08:00:00,13.008556,76.125258,PM10,51,125,84
India,Karnataka,Hassan,"B.Katihalli, Hassan - KSPCB",22-01-2024 08:00:00,13.008556,76.125258,NO2,9,15,12
India,Karnataka,Haveri,"Ashwini Nagar, Haveri - KSPCB",22-01-2024 08:00:00,14.791800,75.389600,NH3,NA,NA,NA
India,Karnataka,Haveri,"Ashwini Nagar, Haveri - KSPCB",22-01-2024 08:00:00,14.791800,75.389600,SO2,NA,NA,NA
India,Karnataka,Hubballi,"Deshpande Nagar, Hubballi - KSPCB",22-01-2024 08:00:00,15.351773,75.140726,PM10,NA,NA,NA
India,Karnataka,Hubballi,"Lingaraj Nagar, Hubballi - KSPCB",22-01-2024 08:00:00,15.3714823,75.1160168,CO,24,67,59
India,Karnataka,Hubballi,"Lingaraj Nagar, Hubballi - KSPCB",22-01-2024 08:00:00,15.3714823,75.1160168,OZONE,8,44,17
India,Karnataka,Kalaburagi,"Mahatma Basaveswar Colony, Kalaburgi - KSPCB",22-01-2024 08:00:00,17.336318,76.847397,OZONE,1,31,15
India,Karnataka,Karwar,"KHB Colony, Karwar - KSPCB",22-01-2024 08:00:00,14.816666,74.141003,PM2.5,42,319,79
India,Karnataka,Koppal,"Diwator Nagar, Koppal - KSPCB",22-01-2024 08:00:00,15.347630,76.181767,PM2.5,25,63,40
India,Karnataka,Madikeri,"Stuart Hill, Madikeri - KSPCB",22-01-2024 08:00:00,12.415911,75.735050,NO2,4,10,7
India,Karnataka,Mangalore,"Kadri, Mangalore - KSPCB",22-01-2024 08:00:00,12.889250,74.853000,PM2.5,55,118,79
India,Karnataka,Mangalore,"Kadri, Mangalore - KSPCB",22-01-2024 08:00:00,12.889250,74.853000,PM10,47,98,74
India,Karnataka,Mangalore,"Kadri, Mangalore - KSPCB",22-01-2024 08:00:00,12.889250,74.853000,SO2,18,19,19
India,Karnataka,Mangalore,"Kadri, Mangalore - KSPCB",22-01-2024 08:00:00,12.889250,74.853000,OZONE,31,31,31
India,Karnataka,Mysuru,"Hebbal 1st Stage, Mysuru - KSPCB",22-01-2024 08:00:00,12.21041,76.37376,SO2,1,6,3
India,Karnataka,Raichur,"Haji Colony, Raichur - KSPCB",22-01-2024 08:00:00,16.208139,77.348417,NO2,NA,NA,NA
India,Karnataka,Ramanagara,"Vijay Nagar, Ramanagara - KSPCB",22-01-2024 08:00:00,12.733409,77.298051,OZONE,28,30,29
India,Karnataka,Shivamogga,"Vinoba Nagara, Shivamogga - KSPCB",22-01-2024 08:00:00,13.940000,75.555917,PM10,49,86,67
India,Karnataka,Shivamogga,"Vinoba Nagara, Shivamogga - KSPCB",22-01-2024 08:00:00,13.940000,75.555917,CO,8,46,12
India,Karnataka,Vijayapura,"Ibrahimpur, Vijayapura - KSPCB",22-01-2024 08:00:00,16.802639,75.722694,PM2.5,23,31,30
India,Karnataka,Vijayapura,"Ibrahimpur, Vijayapura - KSPCB",22-01-2024 08:00:00,16.802639,75.722694,NH3,2,2,2
India,Karnataka,Vijayapura,"Ibrahimpur, Vijayapura - KSPCB",22-01-2024 08:00:00,16.802639,75.722694,SO2,1,3,2
India,Kerala,Eloor,"Udyogamandal, Eloor - Kerala PCB",22-01-2024 08:00:00,10.073232,76.302765,NO2,4,4,4
India,Kerala,Eloor,"Udyogamandal, Eloor - Kerala PCB",22-01-2024 08:00:00,10.073232,76.302765,CO,4,107,20
India,Kerala,Kochi,"Vyttila, Kochi - Kerala PCB",22-01-2024 08:00:00,9.969447,76.321186,SO2,3,7,3
India,Kerala,Kochi,"Vyttila, Kochi - Kerala PCB",22-01-2024 08:00:00,9.969447,76.321186,CO,43,46,44
India,Kerala,Kollam,"Polayathode, Kollam - Kerala PCB",22-01-2024 08:00:00,8.8787,76.6073,CO,8,48,19
India,Kerala,Thiruvananthapuram,"Kariavattom, Thiruvananthapuram - Kerala PCB",22-01-2024 08:00:00,8.563700,76.886500,PM10,72,82,77
India,Kerala,Thiruvananthapuram,"Kariavattom, Thiruvananthapuram - Kerala PCB",22-01-2024 08:00:00,8.563700,76.886500,NO2,8,9,9
India,Kerala,Thrissur,"Corporation Ground, Thrissur - Kerala PCB",22-01-2024 08:00:00,10.532400,76.215900,NO2,9,11,10
India,Kerala,Thrissur,"Corporation Ground, Thrissur - Kerala PCB",22-01-2024 08:00:00,10.532400,76.215900,NH3,1,1,1
India,Madhya Pradesh,Bhopal,"Idgah Hills, Bhopal - MPPCB",22-01-2024 08:00:00,23.264759,77.381568,PM2.5,53,335,214
India,Madhya Pradesh,Bhopal,"Idgah Hills, Bhopal - MPPCB",22-01-2024 08:00:00,23.264759,77.381568,NO2,12,55,24
India,Madhya Pradesh,Bhopal,"Idgah Hills, Bhopal - MPPCB",22-01-2024 08:00:00,23.264759,77.381568,NH3,3,5,4
