country,state,city,station,last_update,latitude,longitude,pollutant_id,pollutant_min,pollutant_max,pollutant_avg
India,Andhra_Pradesh,Anantapur,"Gulzarpet, Anantapur - APPCB",19-07-2024 16:00:00,14.675886,77.593027,OZONE,8,14,11
India,Andhra_Pradesh,Chittoor,"Gangineni Cheruvu, Chittoor - APPCB",19-07-2024 16:00:00,13.204880,79.097889,NO2,8,10,9
India,Andhra_Pradesh,Kadapa,"Yerramukkapalli, Kadapa - APPCB",19-07-2024 16:00:00,14.465052,78.824187,NH3,1,1,1
India,Andhra_Pradesh,Rajamahendravaram,"Anand Kala Kshetram, Rajamahendravaram - APPCB",19-07-2024 16:00:00,16.9872867,81.7363176,PM10,7,29,13
India,Andhra_Pradesh,Tirupati,"Tirumala, Tirupati - APPCB",19-07-2024 16:00:00,13.67,79.35,PM2.5,5,40,15
India,Andhra_Pradesh,Tirupati,"Tirumala, Tirupati - APPCB",19-07-2024 16:00:00,13.67,79.35,PM10,13,42,25
India,Andhra_Pradesh,Vijayawada,"Kanuru, Vijayawada - APPCB",19-07-2024 16:00:00,16.486692,80.699436,PM2.5,35,47,41
India,Andhra_Pradesh,Vijayawada,"Rajiv Gandhi Park, Vijayawada - APPCB",19-07-2024 16:00:00,16.509717,80.612222,NH3,2,6,5
India,Andhra_Pradesh,Visakhapatnam,"GVM Corporation, Visakhapatnam - APPCB",19-07-2024 16:00:00,17.72,83.3,PM10,26,63,43
India,Andhra_Pradesh,Visakhapatnam,"GVM Corporation, Visakhapatnam - APPCB",19-07-2024 16:00:00,17.72,83.3,SO2,6,10,7
India,Assam,Byrnihat,"Central Academy for SFS, Byrnihat - PCBA",19-07-2024 16:00:00,26.071318,91.87488,PM10,2,435,120
India,Assam,Guwahati,"IITG, Guwahati - PCBA",19-07-2024 16:00:00,26.2028636,91.70046436,PM2.5,1,16,8
India,Assam,Guwahati,"IITG, Guwahati - PCBA",19-07-2024 16:00:00,26.2028636,91.70046436,NH3,5,5,5
India,Assam,Guwahati,"LGBI Airport, Guwahati - PCBA",19-07-2024 16:00:00,26.10887,91.589544,SO2,6,12,9
India,Assam,Guwahati,"Railway Colony, Guwahati - PCBA",19-07-2024 16:00:00,26.181742,91.78063,CO,19,52,24
India,Assam,Guwahati,"Railway Colony, Guwahati - PCBA",19-07-2024 16:00:00,26.181742,91.78063,OZONE,2,5,3
India,Assam,Nagaon,"Christianpatty, Nagaon - PCBA",19-07-2024 16:00:00,26.349082,92.68449,NH3,1,8,2
India,Assam,Nagaon,"Christianpatty, Nagaon - PCBA",19-07-2024 16:00:00,26.349082,92.68449,CO,21,105,35
India,Assam,Nalbari,"Bata Chowk, Nalbari - PCBA",19-07-2024 16:00:00,26.446912,91.439057,CO,14,122,34
India,Assam,Silchar,"Tarapur, Silchar - PCBA",19-07-2024 16:00:00,24.82827,92.79525,PM2.5,30,41,37
India,Assam,Silchar,"Tarapur, Silchar - PCBA",19-07-2024 16:00:00,24.82827,92.79525,NH3,1,1,1
India,Assam,Sivasagar,"Girls College, Sivasagar - PCBA",19-07-2024 16:00:00,26.987634,94.636574,NO2,4,9,7
India,Assam,Sivasagar,"Girls College, Sivasagar - PCBA",19-07-2024 16:00:00,26.987634,94.636574,CO,21,28,22
India,Bihar,Araria,"Kharahiya Basti, Araria - BSPCB",19-07-2024 16:00:00,26.146529,87.454184,SO2,7,17,13
India,Bihar,Arrah,"New DM Office, Arrah - BSPCB",19-07-2024 16:00:00,25.5626095,84.663264,CO,10,27,19
India,Bihar,Aurangabad,"Gurdeo Nagar, Aurangabad - BSPCB",19-07-2024 16:00:00,24.75746,84.366208,PM2.5,8,130,32
India,Bihar,Aurangabad,"Gurdeo Nagar, Aurangabad - BSPCB",19-07-2024 16:00:00,24.75746,84.366208,SO2,8,19,15
India,Bihar,Aurangabad,"Gurdeo Nagar, Aurangabad - BSPCB",19-07-2024 16:00:00,24.75746,84.366208,CO,20,32,30
India,Bihar,Aurangabad,"Gurdeo Nagar, Aurangabad - BSPCB",19-07-2024 16:00:00,24.75746,84.366208,OZONE,13,58,41
India,Bihar,Bhagalpur,"DM Office_Kachari Chowk, Bhagalpur - BSPCB",19-07-2024 16:00:00,25.251013,86.989001,NH3,1,3,2
India,Bihar,Bhagalpur,"DM Office_Kachari Chowk, Bhagalpur - BSPCB",19-07-2024 16:00:00,25.251013,86.989001,CO,14,88,48
India,Bihar,Bhagalpur,"Mayaganj, Bhagalpur - BSPCB",19-07-2024 16:00:00,25.265194,87.012947,SO2,3,38,16
India,Bihar,Bhagalpur,"Mayaganj, Bhagalpur - BSPCB",19-07-2024 16:00:00,25.265194,87.012947,OZONE,2,29,14
India,Bihar,Bihar Sharif,"D M Colony, Bihar Sharif - BSPCB",19-07-2024 16:00:00,25.204762,85.514960,OZONE,5,41,26
India,Bihar,Chhapra,"Darshan Nagar, Chhapra - BSPCB",19-07-2024 16:00:00,25.7808257,84.7446768,SO2,30,86,56
India,Bihar,Gaya,"Collectorate, Gaya - BSPCB",19-07-2024 16:00:00,24.7955,84.9994,SO2,6,16,10
India,Bihar,Gaya,"Collectorate, Gaya - BSPCB",19-07-2024 16:00:00,24.7955,84.9994,OZONE,63,65,64
India,Bihar,Hajipur,"Industrial Area, Hajipur - BSPCB",19-07-2024 16:00:00,25.697189,85.245900,PM10,55,110,80
India,Bihar,Hajipur,"Industrial Area, Hajipur - BSPCB",19-07-2024 16:00:00,25.697189,85.245900,NO2,5,13,8
India,Bihar,Kishanganj,"SDM Office_Khagra, Kishanganj - BSPCB",19-07-2024 16:00:00,26.0881305,87.93840336,PM10,28,102,58
India,Bihar,Kishanganj,"SDM Office_Khagra, Kishanganj - BSPCB",19-07-2024 16:00:00,26.0881305,87.93840336,NO2,23,52,46
India,Bihar,Kishanganj,"SDM Office_Khagra, Kishanganj - BSPCB",19-07-2024 16:00:00,26.0881305,87.93840336,NH3,6,8,7
India,Bihar,Motihari,"Gandak Colony, Motihari - BSPCB",19-07-2024 16:00:00,26.63086,84.90051,OZONE,8,21,16
India,Bihar,Munger,"Town Hall, Munger - BSPCB",19-07-2024 16:00:00,25.376776,86.471523,NO2,9,10,10
India,Bihar,Munger,"Town Hall, Munger - BSPCB",19-07-2024 16:00:00,25.376776,86.471523,OZONE,2,11,7
India,Bihar,Muzaffarpur,"Buddha Colony, Muzaffarpur - BSPCB",19-07-2024 16:00:00,26.11442,85.39813,NH3,2,11,5
India,Bihar,Muzaffarpur,"Buddha Colony, Muzaffarpur - BSPCB",19-07-2024 16:00:00,26.11442,85.39813,OZONE,37,88,63
India,Bihar,Patna,"DRM Office Danapur, Patna - BSPCB",19-07-2024 16:00:00,25.586562,85.043586,PM2.5,44,84,63
India,Bihar,Patna,"DRM Office Danapur, Patna - BSPCB",19-07-2024 16:00:00,25.586562,85.043586,CO,16,40,23
India,Bihar,Patna,"DRM Office Danapur, Patna - BSPCB",19-07-2024 16:00:00,25.586562,85.043586,OZONE,8,56,17
India,Bihar,Patna,"Govt. High School Shikarpur, Patna - BSPCB",19-07-2024 16:00:00,25.592539,85.227158,NH3,4,5,5
India,Bihar,Patna,"Govt. High School Shikarpur, Patna - BSPCB",19-07-2024 16:00:00,25.592539,85.227158,CO,39,80,52
India,Bihar,Patna,"IGSC Planetarium Complex, Patna - BSPCB",19-07-2024 16:00:00,25.610369,85.132568,OZONE,11,108,49
India,Bihar,Patna,"Muradpur, Patna - BSPCB",19-07-2024 16:00:00,25.619651,85.147382,PM2.5,40,129,72
India,Bihar,Patna,"Muradpur, Patna - BSPCB",19-07-2024 16:00:00,25.619651,85.147382,PM10,109,168,131
India,Bihar,Patna,"Muradpur, Patna - BSPCB",19-07-2024 16:00:00,25.619651,85.147382,CO,30,124,107
India,Bihar,Patna,"Rajbansi Nagar, Patna - BSPCB",19-07-2024 16:00:00,25.599486,85.113666,OZONE,13,52,30
India,Bihar,Purnia,"Mariam Nagar, Purnia - BSPCB",19-07-2024 16:00:00,25.366336,87.117468,PM2.5,NA,NA,NA
India,Bihar,Sasaram,"Dada Peer, Sasaram - BSPCB",19-07-2024 16:00:00,24.952822,84.002396,PM2.5,15,47,24
India,Bihar,Sasaram,"Dada Peer, Sasaram - BSPCB",19-07-2024 16:00:00,24.952822,84.002396,SO2,5,9,6
India,Bihar,Sasaram,"Dada Peer, Sasaram - BSPCB",19-07-2024 16:00:00,24.952822,84.002396,CO,26,46,31
India,Bihar,Sasaram,"Dada Peer, Sasaram - BSPCB",19-07-2024 16:00:00,24.952822,84.002396,OZONE,3,28,17
India,Chandigarh,Chandigarh,"Sector-25, Chandigarh - CPCC",19-07-2024 16:00:00,30.751462,76.762879,SO2,9,35,25
India,Chandigarh,Chandigarh,"Sector-25, Chandigarh - CPCC",19-07-2024 16:00:00,30.751462,76.762879,OZONE,11,160,22
India,Chhattisgarh,Bhilai,"Civic Center, Bhilai - Bhilai Steel Plant",19-07-2024 16:00:00,21.185571,81.343175,PM2.5,27,66,43
India,Chhattisgarh,Bhilai,"Civic Center, Bhilai - Bhilai Steel Plant",19-07-2024 16:00:00,21.185571,81.343175,NH3,3,4,4
India,Chhattisgarh,Bhilai,"Civic Center, Bhilai - Bhilai Steel Plant",19-07-2024 16:00:00,21.185571,81.343175,SO2,9,11,10
India,Chhattisgarh,Bhilai,"Hathkhoj, Bhilai - CECB",19-07-2024 16:00:00,21.224231,81.408350,PM2.5,38,126,71
India,Chhattisgarh,Bhilai,"Hathkhoj, Bhilai - CECB",19-07-2024 16:00:00,21.224231,81.408350,CO,10,56,17
India,Chhattisgarh,Bilaspur,"Mangala, Bilaspur - NTPC",19-07-2024 16:00:00,22.08815,82.13737,CO,44,50,47
India,Chhattisgarh,Chhal,"Nawapara SECL Colony, Chhal - CECB",19-07-2024 16:00:00,22.118125,83.140608,PM2.5,5,46,28
India,Chhattisgarh,Chhal,"Nawapara SECL Colony, Chhal - CECB",19-07-2024 16:00:00,22.118125,83.140608,NH3,2,2,2
India,Chhattisgarh,Korba,"Rampur, Korba - CECB",19-07-2024 16:00:00,22.368195,82.746431,PM10,17,47,32
India,Chhattisgarh,Korba,"Rampur, Korba - CECB",19-07-2024 16:00:00,22.368195,82.746431,OZONE,4,6,4
India,Chhattisgarh,Korba,"Urja Nagar, Korba - CECB",19-07-2024 16:00:00,22.348441,82.549611,SO2,5,13,8
India,Chhattisgarh,Kunjemura,"OP Jindal School, Kunjemura - CECB",19-07-2024 16:00:00,22.126650,83.483212,NH3,2,4,3
India,Chhattisgarh,Raipur,"AIIMS, Raipur - CECB",19-07-2024 16:00:00,21.258815,81.578979,PM10,47,77,61
India,Chhattisgarh,Raipur,"AIIMS, Raipur - CECB",19-07-2024 16:00:00,21.258815,81.578979,SO2,1,7,4
India,Chhattisgarh,Raipur,"Bhatagaon New ISBT, Raipur - CECB",19-07-2024 16:00:00,21.219665,81.630094,NH3,2,2,2
India,Chhattisgarh,Raipur,"Krishak Nagar, Raipur - CECB",19-07-2024 16:00:00,21.237755,81.705301,NH3,1,1,1
India,Chhattisgarh,Raipur,"Siltara Phase-II, Raipur - CECB",19-07-2024 16:00:00,21.371751,81.664929,SO2,6,13,10
India,Chhattisgarh,Tumidih,"OP Jindal Industrial Park, Tumidih - CECB",19-07-2024 16:00:00,22.06631475,83.33820077,NO2,NA,NA,NA
India,Delhi,Delhi,"Anand Vihar, Delhi - DPCC",19-07-2024 16:00:00,28.647622,77.3158090,NO2,9,141,70
India,Delhi,Delhi,"Ashok Vihar, Delhi - DPCC",19-07-2024 16:00:00,28.695381,77.181665,SO2,12,18,15
India,Delhi,Delhi,"CRRI Mathura Road, Delhi - IMD",19-07-2024 16:00:00,28.5512005,77.2735737,OZONE,8,68,42
India,Delhi,Delhi,"Chandni Chowk, Delhi - IITM",19-07-2024 16:00:00,28.656756,77.227234,PM10,NA,NA,NA
India,Delhi,Delhi,"Chandni Chowk, Delhi - IITM",19-07-2024 16:00:00,28.656756,77.227234,NH3,NA,NA,NA
India,Delhi,Delhi,"DTU, Delhi - CPCB",19-07-2024 16:00:00,28.7500499,77.1112615,PM2.5,18,82,48
India,Delhi,Delhi,"DTU, Delhi - CPCB",19-07-2024 16:00:00,28.7500499,77.1112615,OZONE,40,41,41
India,Delhi,Delhi,"Dr. Karni Singh Shooting Range, Delhi - DPCC",19-07-2024 16:00:00,28.498571,77.264840,PM2.5,48,304,140
India,Delhi,Delhi,"Dr. Karni Singh Shooting Range, Delhi - DPCC",19-07-2024 16:00:00,28.498571,77.264840,PM10,54,143,109
India,Delhi,Delhi,"Dr. Karni Singh Shooting Range, Delhi - DPCC",19-07-2024 16:00:00,28.498571,77.264840,NO2,22,38,28
India,Delhi,Delhi,"Dr. Karni Singh Shooting Range, Delhi - DPCC",19-07-2024 16:00:00,28.498571,77.264840,OZONE,9,55,35
India,Delhi,Delhi,"IGI Airport (T3), Delhi - IMD",19-07-2024 16:00:00,28.5627763,77.1180053,PM2.5,33,272,98
India,Delhi,Delhi,"IGI Airport (T3), Delhi - IMD",19-07-2024 16:00:00,28.5627763,77.1180053,OZONE,2,20,11
India,Delhi,Delhi,"IHBAS, Dilshad Garden, Delhi - CPCB",19-07-2024 16:00:00,28.6811736,77.3025234,PM10,73,124,104
India,Delhi,Delhi,"ITO, Delhi - CPCB",19-07-2024 16:00:00,28.628624,77.241060,CO,54,108,83
India,Delhi,Delhi,"ITO, Delhi - CPCB",19-07-2024 16:00:00,28.628624,77.241060,OZONE,7,27,11
India,Delhi,Delhi,"Jahangirpuri, Delhi - DPCC",19-07-2024 16:00:00,28.732820,77.170633,PM2.5,45,257,119
India,Delhi,Delhi,"Jahangirpuri, Delhi - DPCC",19-07-2024 16:00:00,28.732820,77.170633,CO,33,106,59
India,Delhi,Delhi,"Jawaharlal Nehru Stadium, Delhi - DPCC",19-07-2024 16:00:00,28.580280,77.233829,CO,43,79,51
India,Delhi,Delhi,"Lodhi Road, Delhi - IMD",19-07-2024 16:00:00,28.5918245,77.2273074,PM2.5,29,278,89
India,Delhi,Delhi,"Lodhi Road, Delhi - IMD",19-07-2024 16:00:00,28.5918245,77.2273074,PM10,52,144,91
India,Delhi,Delhi,"Major Dhyan Chand National Stadium, Delhi - DPCC",19-07-2024 16:00:00,28.611281,77.237738,NH3,9,16,12
India,Delhi,Delhi,"Major Dhyan Chand National Stadium, Delhi - DPCC",19-07-2024 16:00:00,28.611281,77.237738,SO2,4,11,7
India,Delhi,Delhi,"Mandir Marg, Delhi - DPCC",19-07-2024 16:00:00,28.636429,77.201067,PM2.5,NA,NA,NA
India,Delhi,Delhi,"Mundka, Delhi - DPCC",19-07-2024 16:00:00,28.684678,77.076574,NO2,42,265,77
India,Delhi,Delhi,"Mundka, Delhi - DPCC",19-07-2024 16:00:00,28.684678,77.076574,SO2,11,17,14
India,Delhi,Delhi,"Mundka, Delhi - DPCC",19-07-2024 16:00:00,28.684678,77.076574,CO,37,103,50
India,Delhi,Delhi,"NSIT Dwarka, Delhi - CPCB",19-07-2024 16:00:00,28.60909,77.0325413,NO2,19,29,24
India,Delhi,Delhi,"Najafgarh, Delhi - DPCC",19-07-2024 16:00:00,28.570173,76.933762,CO,52,70,64
India,Delhi,Delhi,"Narela, Delhi - DPCC",19-07-2024 16:00:00,28.822836,77.101981,CO,39,74,48
India,Delhi,Delhi,"Nehru Nagar, Delhi - DPCC",19-07-2024 16:00:00,28.567890,77.250515,NO2,27,78,43
India,Delhi,Delhi,"North Campus, DU, Delhi - IMD",19-07-2024 16:00:00,28.6573814,77.1585447,PM10,60,137,109
India,Delhi,Delhi,"North Campus, DU, Delhi - IMD",19-07-2024 16:00:00,28.6573814,77.1585447,OZONE,6,32,17
India,Delhi,Delhi,"Okhla Phase-2, Delhi - DPCC",19-07-2024 16:00:00,28.530785,77.271255,PM2.5,23,143,86
India,Delhi,Delhi,"Okhla Phase-2, Delhi - DPCC",19-07-2024 16:00:00,28.530785,77.271255,NO2,36,94,68
India,Delhi,Delhi,"Patparganj, Delhi - DPCC",19-07-2024 16:00:00,28.623763,77.287209,PM2.5,38,277,132
India,Delhi,Delhi,"Patparganj, Delhi - DPCC",19-07-2024 16:00:00,28.623763,77.287209,NO2,18,107,51
India,Delhi,Delhi,"Patparganj, Delhi - DPCC",19-07-2024 16:00:00,28.623763,77.287209,OZONE,3,32,14
India,Delhi,Delhi,"Punjabi Bagh, Delhi - DPCC",19-07-2024 16:00:00,28.674045,77.131023,CO,25,75,42
India,Delhi,Delhi,"Punjabi Bagh, Delhi - DPCC",19-07-2024 16:00:00,28.674045,77.131023,OZONE,1,75,41
India,Delhi,Delhi,"Pusa, Delhi - IMD",19-07-2024 16:00:00,28.636110,77.173332,PM2.5,15,302,97
India,Delhi,Delhi,"Pusa, Delhi - IMD",19-07-2024 16:00:00,28.636110,77.173332,NO2,3,13,9
India,Delhi,Delhi,"Pusa, Delhi - IMD",19-07-2024 16:00:00,28.636110,77.173332,OZONE,7,14,11
India,Delhi,Delhi,"R K Puram, Delhi - DPCC",19-07-2024 16:00:00,28.563262,77.186937,PM10,78,177,118
India,Delhi,Delhi,"R K Puram, Delhi - DPCC",19-07-2024 16:00:00,28.563262,77.186937,NO2,19,111,46
India,Delhi,Delhi,"R K Puram, Delhi - DPCC",19-07-2024 16:00:00,28.563262,77.186937,SO2,18,37,25
India,Delhi,Delhi,"Rohini, Delhi - DPCC",19-07-2024 16:00:00,28.732528,77.119920,SO2,5,10,8
India,Delhi,Delhi,"Shadipur, Delhi - CPCB",19-07-2024 16:00:00,28.6514781,77.1473105,NH3,7,10,8
India,Delhi,Delhi,"Shadipur, Delhi - CPCB",19-07-2024 16:00:00,28.6514781,77.1473105,SO2,2,33,18
India,Delhi,Delhi,"Sonia Vihar, Delhi - DPCC",19-07-2024 16:00:00,28.710508,77.249485,PM10,48,173,123
India,Delhi,Delhi,"Sonia Vihar, Delhi - DPCC",19-07-2024 16:00:00,28.710508,77.249485,NO2,26,72,45
India,Delhi,Delhi,"Vivek Vihar, Delhi - DPCC",19-07-2024 16:00:00,28.672342,77.315260,PM10,56,166,126
India,Delhi,Delhi,"Vivek Vihar, Delhi - DPCC",19-07-2024 16:00:00,28.672342,77.315260,OZONE,4,30,14
India,Delhi,Delhi,"Wazirpur, Delhi - DPCC",19-07-2024 16:00:00,28.699793,77.165453,NO2,44,117,75
India,Delhi,Delhi,"Wazirpur, Delhi - DPCC",19-07-2024 16:00:00,28.699793,77.165453,CO,2,66,15
India,Gujarat,Ahmedabad,"Chandkheda, Ahmedabad - IITM",19-07-2024 16:00:00,23.107969,72.574648,NH3,7,12,9
India,Gujarat,Ahmedabad,"Gyaspur, Ahmedabad - IITM",19-07-2024 16:00:00,22.977134,72.553024,PM2.5,68,115,87
India,Gujarat,Ahmedabad,"Raikhad, Ahmedabad - IITM",19-07-2024 16:00:00,23.020509,72.579261,CO,1,20,11
India,Gujarat,Ahmedabad,"Rakhial, Ahmedabad - IITM",19-07-2024 16:00:00,23.016834,72.625775,PM2.5,14,50,28
India,Gujarat,Ahmedabad,"Rakhial, Ahmedabad - IITM",19-07-2024 16:00:00,23.016834,72.625775,NH3,11,19,15
India,Gujarat,Ahmedabad,"SVPI Airport Hansol, Ahmedabad - IITM",19-07-2024 16:00:00,23.076793,72.627874,PM10,12,64,42
India,Gujarat,Ahmedabad,"Sardar Vallabhbhai Patel Stadium, Ahmedabad - IITM",19-07-2024 16:00:00,23.043070,72.562968,SO2,15,23,21
India,Gujarat,Ahmedabad,"Sardar Vallabhbhai Patel Stadium, Ahmedabad - IITM",19-07-2024 16:00:00,23.043070,72.562968,CO,17,44,30
India,Gujarat,Ankleshwar,"GIDC, Ankleshwar - GPCB",19-07-2024 16:00:00,21.613267,73.010555,CO,46,72,51
India,Gujarat,Ankleshwar,"GIDC, Ankleshwar - GPCB",19-07-2024 16:00:00,21.613267,73.010555,OZONE,21,46,29
India,Gujarat,Gandhinagar,"GIFT City, Gandhinagar - IITM",19-07-2024 16:00:00,23.163798,72.677768,PM10,34,110,57
India,Gujarat,Gandhinagar,"GIFT City, Gandhinagar - IITM",19-07-2024 16:00:00,23.163798,72.677768,SO2,6,17,14
India,Gujarat,Gandhinagar,"GIFT City, Gandhinagar - IITM",19-07-2024 16:00:00,23.163798,72.677768,OZONE,6,62,27
India,Gujarat,Gandhinagar,"Sector-10, Gandhinagar - GPCB",19-07-2024 16:00:00,23.221714,72.654328,PM2.5,22,50,34
India,Gujarat,Surat,"Science Center, Surat - SMC",19-07-2024 16:00:00,21.170046,72.795405,PM2.5,2,43,13
India,Gujarat,Vatva,"Phase-4 GIDC, Vatva - GPCB",19-07-2024 16:00:00,22.969611,72.643500,NO2,1,5,2
India,Gujarat,Vatva,"Phase-4 GIDC, Vatva - GPCB",19-07-2024 16:00:00,22.969611,72.643500,NH3,2,3,3
India,Gujarat,Vatva,"Phase-4 GIDC, Vatva - GPCB",19-07-2024 16:00:00,22.969611,72.643500,OZONE,13,19,16
India,Haryana,Ambala,"Patti Mehar, Ambala - HSPCB",19-07-2024 16:00:00,30.379589,76.778328,NH3,5,12,8
India,Haryana,Ballabgarh,"Nathu Colony, Ballabgarh - HSPCB",19-07-2024 16:00:00,28.3419248,77.319699,NO2,5,10,9
India,Haryana,Bhiwani,"H.B. Colony, Bhiwani - HSPCB",19-07-2024 16:00:00,28.806223,76.141105,PM2.5,10,106,29
India,Haryana,Faridabad,"New Industrial Town, Faridabad - HSPCB",19-07-2024 16:00:00,28.39072,77.30059,PM2.5,36,346,238
India,Haryana,Faridabad,"New Industrial Town, Faridabad - HSPCB",19-07-2024 16:00:00,28.39072,77.30059,NH3,1,3,2
India,Haryana,Faridabad,"New Industrial Town, Faridabad - HSPCB",19-07-2024 16:00:00,28.39072,77.30059,OZONE,8,22,15
India,Haryana,Faridabad,"Sector 11, Faridabad - HSPCB",19-07-2024 16:00:00,28.376058,77.315741,PM2.5,49,357,201
India,Haryana,Faridabad,"Sector 11, Faridabad - HSPCB",19-07-2024 16:00:00,28.376058,77.315741,SO2,2,66,5
India,Haryana,Faridabad,"Sector 30, Faridabad - HSPCB",19-07-2024 16:00:00,28.4417,77.3217,NO2,16,16,16
India,Haryana,Faridabad,"Sector 30, Faridabad - HSPCB",19-07-2024 16:00:00,28.4417,77.3217,OZONE,7,10,8
India,Haryana,Faridabad,"Sector- 16A, Faridabad - HSPCB",19-07-2024 16:00:00,28.4088421,77.3099081,SO2,24,29,26
India,Haryana,Gurugram,"Sector-51, Gurugram - HSPCB",19-07-2024 16:00:00,28.4227,77.0667,CO,26,52,47
India,Haryana,Gurugram,"Teri Gram, Gurugram - HSPCB",19-07-2024 16:00:00,28.4275,77.1465,SO2,3,4,4
India,Haryana,Gurugram,"Vikas Sadan, Gurugram - HSPCB",19-07-2024 16:00:00,28.4501238,77.0263051,NO2,5,25,14
India,Haryana,Gurugram,"Vikas Sadan, Gurugram - HSPCB",19-07-2024 16:00:00,28.4501238,77.0263051,SO2,11,81,45
India,Haryana,Hisar,"Urban Estate-II, Hisar - HSPCB",19-07-2024 16:00:00,29.140560,75.744941,NH3,NA,NA,NA
India,Haryana,Jind,"Police Lines, Jind - HSPCB",19-07-2024 16:00:00,29.307814,76.337619,PM10,54,112,72
India,Haryana,Kaithal,"Rishi Nagar, Kaithal - HSPCB",19-07-2024 16:00:00,29.8006,76.4155,CO,5,42,33
India,Haryana,Karnal,"Sector-12, Karnal - HSPCB",19-07-2024 16:00:00,29.695300,77.002700,NO2,7,12,10
India,Haryana,Mandikhera,"General Hospital, Mandikhera - HSPCB",19-07-2024 16:00:00,27.9002,76.9938,NH3,16,19,18
India,Haryana,Manesar,"Sector-2 IMT, Manesar - HSPCB",19-07-2024 16:00:00,28.360699,76.936090,PM10,20,96,54
India,Haryana,Manesar,"Sector-2 IMT, Manesar - HSPCB",19-07-2024 16:00:00,28.360699,76.936090,OZONE,23,51,34
India,Haryana,Narnaul,"Shastri Nagar, Narnaul - HSPCB",19-07-2024 16:00:00,28.060249,76.113115,SO2,17,52,41
India,Haryana,Palwal,"Shyam Nagar, Palwal - HSPCB",19-07-2024 16:00:00,28.1485564,77.3320667,NH3,NA,NA,NA
India,Haryana,Palwal,"Shyam Nagar, Palwal - HSPCB",19-07-2024 16:00:00,28.1485564,77.3320667,CO,12,51,16
India,Haryana,Panchkula,"Sector-6, Panchkula - HSPCB ",19-07-2024 16:00:00,30.7057778,76.8531805555555,PM2.5,30,242,94
India,Haryana,Panchkula,"Sector-6, Panchkula - HSPCB ",19-07-2024 16:00:00,30.7057778,76.8531805555555,SO2,2,67,2
India,Haryana,Panipat,"Sector-18, Panipat - HSPCB",19-07-2024 16:00:00,29.432304,76.972765,NH3,2,3,2
India,Haryana,Panipat,"Sector-18, Panipat - HSPCB",19-07-2024 16:00:00,29.432304,76.972765,CO,24,26,25
India,Haryana,Rohtak,"MD University, Rohtak - HSPCB",19-07-2024 16:00:00,28.52123,76.37138,NO2,31,44,36
India,Haryana,Rohtak,"MD University, Rohtak - HSPCB",19-07-2024 16:00:00,28.52123,76.37138,OZONE,46,52,48
India,Haryana,Yamuna Nagar,"Gobind Pura, Yamuna Nagar - HSPCB",19-07-2024 16:00:00,30.1480566,77.2893471,PM10,46,500,96
India,Himachal Pradesh,Baddi,"HIMUDA Complex Phase-1, Baddi - HPPCB",19-07-2024 16:00:00,30.943887,76.801991,NO2,12,30,18
India,Himachal Pradesh,Baddi,"HIMUDA Complex Phase-1, Baddi - HPPCB",19-07-2024 16:00:00,30.943887,76.801991,NH3,6,9,8
India,Himachal Pradesh,Baddi,"HIMUDA Complex Phase-1, Baddi - HPPCB",19-07-2024 16:00:00,30.943887,76.801991,CO,18,36,25
India,Himachal Pradesh,Baddi,"HIMUDA Complex Phase-1, Baddi - HPPCB",19-07-2024 16:00:00,30.943887,76.801991,OZONE,30,118,75
India,Jharkhand,Dhanbad,"Kalakusuma, Dhanbad - DMC",19-07-2024 16:00:00,23.811548,86.481238,CO,129,133,131
India,Jharkhand,Pathardih,"Mohalbani Ghat, Pathardih - DMC",19-07-2024 16:00:00,23.669880,86.411725,PM2.5,NA,NA,NA
India,Jharkhand,Pathardih,"Mohalbani Ghat, Pathardih - DMC",19-07-2024 16:00:00,23.669880,86.411725,SO2,NA,NA,NA
India,Karnataka,Bagalkot,"Vidayagiri, Bagalkot - KSPCB",19-07-2024 16:00:00,16.172806,75.659694,NO2,10,11,11
India,Karnataka,Bagalkot,"Vidayagiri, Bagalkot - KSPCB",19-07-2024 16:00:00,16.172806,75.659694,SO2,4,4,4
India,Karnataka,Belgaum,"Ramteerth Nagar, Belgaum - KSPCB",19-07-2024 16:00:00,15.888653,74.541751,PM2.5,6,55,24
India,Karnataka,Belgaum,"Ramteerth Nagar, Belgaum - KSPCB",19-07-2024 16:00:00,15.888653,74.541751,NH3,4,9,6
India,Karnataka,Bengaluru,"BTM Layout, Bengaluru - CPCB",19-07-2024 16:00:00,12.9135218,77.5950804,NO2,NA,NA,NA
India,Karnataka,Bengaluru,"Jigani, Bengaluru - KSPCB",19-07-2024 16:00:00,12.7816279,77.6299145,CO,28,41,37
India,Karnataka,Bengaluru,"Jigani, Bengaluru - KSPCB",19-07-2024 16:00:00,12.7816279,77.6299145,OZONE,28,29,28
India,Karnataka,Bengaluru,"Kasturi Nagar, Bengaluru - KSPCB",19-07-2024 16:00:00,13.003872,77.664217,OZONE,39,39,39
India,Karnataka,Bengaluru,"Peenya, Bengaluru - CPCB",19-07-2024 16:00:00,13.0270199,77.494094,OZONE,15,20,18
India,Karnataka,Bengaluru,"Sanegurava Halli, Bengaluru - KSPCB",19-07-2024 16:00:00,12.990328,77.5431385,SO2,1,3,2
India,Karnataka,Bengaluru,"Shivapura_Peenya, Bengaluru - KSPCB",19-07-2024 16:00:00,13.0246342,77.5080115,PM2.5,17,50,33
India,Karnataka,Bengaluru,"Shivapura_Peenya, Bengaluru - KSPCB",19-07-2024 16:00:00,13.0246342,77.5080115,SO2,2,7,4
India,Karnataka,Bengaluru,"Silk Board, Bengaluru - KSPCB",19-07-2024 16:00:00,12.917348,77.622813,PM10,16,60,30
India,Karnataka,Bidar,"Naubad, Bidar - KSPCB",19-07-2024 16:00:00,17.930306,77.482194,PM10,NA,NA,NA
India,Karnataka,Bidar,"Naubad, Bidar - KSPCB",19-07-2024 16:00:00,17.930306,77.482194,CO,40,79,59
India,Karnataka,Chikkaballapur,"Chikkaballapur Rural, Chikkaballapur - KSPCB",19-07-2024 16:00:00,13.428828,77.731418,OZONE,22,23,23
India,Karnataka,Chikkamagaluru,"Kalyana Nagara, Chikkamagaluru - KSPCB",19-07-2024 16:00:00,13.328028,75.797056,OZONE,9,18,13
India,Karnataka,Davanagere,"Devaraj Urs Badavane, Davanagere - KSPCB",19-07-2024 16:00:00,14.475800,75.905200,SO2,2,14,10
India,Karnataka,Gadag,"Panchal Nagar, Gadag - KSPCB",19-07-2024 16:00:00,15.411456,75.638133,NO2,1,23,13
India,Karnataka,Gadag,"Panchal Nagar, Gadag - KSPCB",19-07-2024 16:00:00,15.411456,75.638133,SO2,6,20,14
India,Karnataka,Haveri,"Ashwini Nagar, Haveri - KSPCB",19-07-2024 16:00:00,14.791800,75.389600,NO2,28,73,33
India,Karnataka,Hubballi,"Lingaraj Nagar, Hubballi - KSPCB",19-07-2024 16:00:00,15.3714823,75.1160168,PM10,37,63,48
India,Karnataka,Hubballi,"Lingaraj Nagar, Hubballi - KSPCB",19-07-2024 16:00:00,15.3714823,75.1160168,SO2,1,9,2
India,Karnataka,Kalaburagi,"Lal Bahadur Shastri Nagar, Kalaburagi - KSPCB",19-07-2024 16:00:00,17.321993,76.822628,PM2.5,19,70,34
India,Karnataka,Kalaburagi,"Mahatma Basaveswar Colony, Kalaburgi - KSPCB",19-07-2024 16:00:00,17.336318,76.847397,PM2.5,9,27,19
India,Karnataka,Kalaburagi,"Mahatma Basaveswar Colony, Kalaburgi - KSPCB",19-07-2024 16:00:00,17.336318,76.847397,NO2,8,15,12
India,Karnataka,Karwar,"KHB Colony, Karwar - KSPCB",19-07-2024 16:00:00,14.816666,74.141003,NO2,1,6,1
India,Karnataka,Karwar,"KHB Colony, Karwar - KSPCB",19-07-2024 16:00:00,14.816666,74.141003,NH3,2,5,1
India,Karnataka,Karwar,"KHB Colony, Karwar - KSPCB",19-07-2024 16:00:00,14.816666,74.141003,CO,8,8,8
India,Karnataka,Koppal,"Diwator Nagar, Koppal - KSPCB",19-07-2024 16:00:00,15.347630,76.181767,PM2.5,NA,NA,NA
India,Karnataka,Koppal,"Diwator Nagar, Koppal - KSPCB",19-07-2024 16:00:00,15.347630,76.181767,CO,4,4,4
India,Karnataka,Mangalore,"Kadri, Mangalore - KSPCB",19-07-2024 16:00:00,12.889250,74.853000,CO,6,20,11
India,Karnataka,Mangalore,"Kadri, Mangalore - KSPCB",19-07-2024 16:00:00,12.889250,74.853000,OZONE,30,34,32
India,Karnataka,Mysuru,"Hebbal 1st Stage, Mysuru - KSPCB",19-07-2024 16:00:00,12.21041,76.37376,PM10,19,42,29
India,Karnataka,Mysuru,"Hebbal 1st Stage, Mysuru - KSPCB",19-07-2024 16:00:00,12.21041,76.37376,NH3,1,3,2
India,Karnataka,Mysuru,"Hebbal 1st Stage, Mysuru - KSPCB",19-07-2024 16:00:00,12.21041,76.37376,OZONE,10,48,27
India,Karnataka,Raichur,"Haji Colony, Raichur - KSPCB",19-07-2024 16:00:00,16.208139,77.348417,PM2.5,1,10,5
India,Karnataka,Raichur,"Haji Colony, Raichur - KSPCB",19-07-2024 16:00:00,16.208139,77.348417,NH3,3,4,4
India,Karnataka,Ramanagara,"Vijay Nagar, Ramanagara - KSPCB",19-07-2024 16:00:00,12.733409,77.298051,CO,6,22,12
India,Karnataka,Shivamogga,"Vinoba Nagara, Shivamogga - KSPCB",19-07-2024 16:00:00,13.940000,75.555917,PM2.5,17,37,29
India,Karnataka,Shivamogga,"Vinoba Nagara, Shivamogga - KSPCB",19-07-2024 16:00:00,13.940000,75.555917,PM10,29,53,40
India,Karnataka,Shivamogga,"Vinoba Nagara, Shivamogga - KSPCB",19-07-2024 16:00:00,13.940000,75.555917,CO,10,52,28
India,Karnataka,Tumakuru,"Thimmalapura, Tumakuru - KSPCB",19-07-2024 16:00:00,13.377516,77.099072,SO2,7,12,7
India,Karnataka,Tumakuru,"Thimmalapura, Tumakuru - KSPCB",19-07-2024 16:00:00,13.377516,77.099072,OZONE,6,12,8
India,Karnataka,Udupi,"Brahmagiri, Udupi - KSPCB",19-07-2024 16:00:00,13.34194444,74.74694444,PM2.5,NA,NA,NA
India,Karnataka,Udupi,"Brahmagiri, Udupi - KSPCB",19-07-2024 16:00:00,13.34194444,74.74694444,OZONE,22,25,24
India,Karnataka,Vijayapura,"Ibrahimpur, Vijayapura - KSPCB",19-07-2024 16:00:00,16.802639,75.722694,PM2.5,22,26,25
India,Karnataka,Vijayapura,"Ibrahimpur, Vijayapura - KSPCB",19-07-2024 16:00:00,16.802639,75.722694,CO,12,87,87
India,Karnataka,Vijayapura,"Ibrahimpur, Vijayapura - KSPCB",19-07-2024 16:00:00,16.802639,75.722694,OZONE,13,16,15
India,Karnataka,Yadgir,"Collector Office, Yadgir - KSPCB",19-07-2024 16:00:00,16.7602,77.1428,PM2.5,7,23,13
India,Karnataka,Yadgir,"Collector Office, Yadgir - KSPCB",19-07-2024 16:00:00,16.7602,77.1428,NO2,7,13,10
India,Karnataka,Yadgir,"Collector Office, Yadgir - KSPCB",19-07-2024 16:00:00,16.7602,77.1428,NH3,1,2,1
India,Kerala,Eloor,"Udyogamandal, Eloor - Kerala PCB",19-07-2024 16:00:00,10.073232,76.302765,PM2.5,42,55,47
India,Kerala,Eloor,"Udyogamandal, Eloor - Kerala PCB",19-07-2024 16:00:00,10.073232,76.302765,CO,7,115,79
India,Kerala,Kannur,"Thavakkara, Kannur - Kerala PCB",19-07-2024 16:00:00,11.875000,75.373200,PM2.5,41,48,44
India,Kerala,Kannur,"Thavakkara, Kannur - Kerala PCB",19-07-2024 16:00:00,11.875000,75.373200,SO2,NA,NA,NA
India,Kerala,Kollam,"Polayathode, Kollam - Kerala PCB",19-07-2024 16:00:00,8.8787,76.6073,PM2.5,35,172,78
India,Kerala,Kollam,"Polayathode, Kollam - Kerala PCB",19-07-2024 16:00:00,8.8787,76.6073,OZONE,29,34,32
India,Kerala,Thiruvananthapuram,"Kariavattom, Thiruvananthapuram - Kerala PCB",19-07-2024 16:00:00,8.563700,76.886500,NO2,6,8,7
India,Kerala,Thiruvananthapuram,"Kariavattom, Thiruvananthapuram - Kerala PCB",19-07-2024 16:00:00,8.563700,76.886500,SO2,1,8,3
India,Kerala,Thiruvananthapuram,"Plammoodu, Thiruvananthapuram - Kerala PCB",19-07-2024 16:00:00,8.5149093,76.9435879,OZONE,2,72,11
India,Kerala,Thrissur,"Corporation Ground, Thrissur - Kerala PCB",19-07-2024 16:00:00,10.532400,76.215900,NO2,8,9,8
India,Kerala,Thrissur,"Corporation Ground, Thrissur - Kerala PCB",19-07-2024 16:00:00,10.532400,76.215900,SO2,NA,NA,NA
India,Madhya Pradesh,Bhopal,"Idgah Hills, Bhopal - MPPCB",19-07-2024 16:00:00,23.264759,77.381568,NH3,2,4,3
India,Madhya Pradesh,Bhopal,"Idgah Hills, Bhopal - MPPCB",19-07-2024 16:00:00,23.264759,77.381568,SO2,7,11,9
India,Madhya Pradesh,Bhopal,"Paryavaran Parisar, Bhopal - MPPCB",19-07-2024 16:00:00,23.210494,77.425409,SO2,6,9,8
India,Madhya Pradesh,Bhopal,"Paryavaran Parisar, Bhopal - MPPCB",19-07-2024 16:00:00,23.210494,77.425409,CO,5,156,57
India,Madhya Pradesh,Bhopal,"Paryavaran Parisar, Bhopal - MPPCB",19-07-2024 16:00:00,23.210494,77.425409,OZONE,1,40,20
India,Madhya Pradesh,Damoh,"Shrivastav Colony, Damoh - MPPCB",19-07-2024 16:00:00,23.81748678,79.446246,PM10,11,50,24
India,Madhya Pradesh,Dewas,"Bhopal Chauraha, Dewas - MPPCB",19-07-2024 16:00:00,22.9682591,76.064118,PM2.5,10,85,29
India,Madhya Pradesh,Gwalior,"City Center, Gwalior - MPPCB",19-07-2024 16:00:00,26.203442,78.193251,PM10,29,60,42
India,Madhya Pradesh,Gwalior,"City Center, Gwalior - MPPCB",19-07-2024 16:00:00,26.203442,78.193251,NH3,2,3,2
India,Madhya Pradesh,Gwalior,"Deen Dayal Nagar, Gwalior - MPPCB",19-07-2024 16:00:00,26.259242,78.216432,PM2.5,16,72,35
India,Madhya Pradesh,Gwalior,"Deen Dayal Nagar, Gwalior - MPPCB",19-07-2024 16:00:00,26.259242,78.216432,PM10,24,107,56
India,Madhya Pradesh,Gwalior,"Deen Dayal Nagar, Gwalior - MPPCB",19-07-2024 16:00:00,26.259242,78.216432,NH3,2,5,4
India,Madhya Pradesh,Gwalior,"Deen Dayal Nagar, Gwalior - MPPCB",19-07-2024 16:00:00,26.259242,78.216432,CO,16,36,34
India,Madhya Pradesh,Gwalior,"Deen Dayal Nagar, Gwalior - MPPCB",19-07-2024 16:00:00,26.259242,78.216432,OZONE,32,123,83
India,Madhya Pradesh,Gwalior,"Maharaj Bada, Gwalior - MPPCB",19-07-2024 16:00:00,26.200388,78.147714,SO2,10,28,16
India,Madhya Pradesh,Gwalior,"Phool Bagh, Gwalior - Mondelez Ind. Food",19-07-2024 16:00:00,26.210536,78.171,PM10,NA,NA,NA
India,Madhya Pradesh,Gwalior,"Phool Bagh, Gwalior - Mondelez Ind. Food",19-07-2024 16:00:00,26.210536,78.171,NO2,4,5,4
India,Madhya Pradesh,Indore,"Chhoti Gwaltoli, Indore - MPPCB",19-07-2024 16:00:00,22.4310,75.5213,OZONE,12,61,38
India,Madhya Pradesh,Indore,"Residency Area, Indore - IMC",19-07-2024 16:00:00,22.7084,75.8815,CO,10,12,10
India,Madhya Pradesh,Indore,"Residency Area, Indore - IMC",19-07-2024 16:00:00,22.7084,75.8815,OZONE,10,13,11
India,Madhya Pradesh,Jabalpur,"Gupteshwar, Jabalpur - JMC",19-07-2024 16:00:00,23.142888,79.916147,NH3,4,5,4
India,Madhya Pradesh,Jabalpur,"Gupteshwar, Jabalpur - JMC",19-07-2024 16:00:00,23.142888,79.916147,SO2,1,5,3
India,Madhya Pradesh,Jabalpur,"Marhatal, Jabalpur - MPPCB",19-07-2024 16:00:00,23.168606,79.932247,PM2.5,7,47,23
India,Madhya Pradesh,Jabalpur,"Marhatal, Jabalpur - MPPCB",19-07-2024 16:00:00,23.168606,79.932247,PM10,17,66,42
India,Madhya Pradesh,Jabalpur,"Marhatal, Jabalpur - MPPCB",19-07-2024 16:00:00,23.168606,79.932247,OZONE,3,35,19
India,Madhya Pradesh,Jabalpur,"Suhagi, Jabalpur - JMC",19-07-2024 16:00:00,23.218135,79.957770,PM10,16,42,25
India,Madhya Pradesh,Jabalpur,"Suhagi, Jabalpur - JMC",19-07-2024 16:00:00,23.218135,79.957770,SO2,3,9,6
India,Madhya Pradesh,Katni,"Gole Bazar, Katni - MPPCB",19-07-2024 16:00:00,23.50016,80.23284,SO2,11,29,22
India,Madhya Pradesh,Mandideep,"Sector-D Industrial Area, Mandideep - MPPCB",19-07-2024 16:00:00,23.108440,77.511428,NO2,NA,NA,NA
India,Madhya Pradesh,Mandideep,"Sector-D Industrial Area, Mandideep - MPPCB",19-07-2024 16:00:00,23.108440,77.511428,NH3,NA,NA,NA
India,Madhya Pradesh,Mandideep,"Sector-D Industrial Area, Mandideep - MPPCB",19-07-2024 16:00:00,23.108440,77.511428,CO,20,50,22
India,Madhya Pradesh,Pithampur,"Sector-2 Industrial Area, Pithampur - MPPCB",19-07-2024 16:00:00,22.624758,75.675238,SO2,11,17,14
India,Madhya Pradesh,Sagar,"Deen Dayal Nagar, Sagar - MPPCB",19-07-2024 16:00:00,23.8640158,78.80289321,CO,32,40,36
India,Madhya Pradesh,Satna,"Bandhavgar Colony, Satna - Birla Cement",19-07-2024 16:00:00,24.58434363,80.8549414,CO,2,67,13
India,Madhya Pradesh,Singrauli,"Suryakiran Bhawan NCL, Singrauli - MPPCB",19-07-2024 16:00:00,24.108970,82.645580,PM10,140,163,154
India,Madhya Pradesh,Ujjain,"Mahakaleshwar Temple, Ujjain - MPPCB",19-07-2024 16:00:00,23.182719 ,75.768218 ,NO2,7,19,11
India,Madhya Pradesh,Ujjain,"Mahakaleshwar Temple, Ujjain - MPPCB",19-07-2024 16:00:00,23.182719 ,75.768218 ,SO2,5,8,6
India,Madhya Pradesh,Ujjain,"Mahakaleshwar Temple, Ujjain - MPPCB",19-07-2024 16:00:00,23.182719 ,75.768218 ,OZONE,59,63,61
India,Maharashtra,Akola,"Ramdaspeth, Akola - MPCB",19-07-2024 16:00:00,20.719516,77.000253,SO2,13,21,16
India,Maharashtra,Akola,"Ramdaspeth, Akola - MPCB",19-07-2024 16:00:00,20.719516,77.000253,OZONE,8,27,11
India,Maharashtra,Amravati,"Shri Shivaji Science College, Amaravati - MPCB",19-07-2024 16:00:00,20.939198,77.765701,NO2,5,46,12
India,Maharashtra,Aurangabad,"MIDC Chilkalthana, Aurangabad - MPCB",19-07-2024 16:00:00,19.875620,75.387310,NO2,8,25,12
India,Maharashtra,Aurangabad,"MIDC Chilkalthana, Aurangabad - MPCB",19-07-2024 16:00:00,19.875620,75.387310,OZONE,9,109,40
India,Maharashtra,Aurangabad,"More Chowk Waluj, Aurangabad - MPCB",19-07-2024 16:00:00,19.8389439,75.244448,CO,14,64,27
India,Maharashtra,Badlapur,"Katrap, Badlapur - MPCB",19-07-2024 16:00:00,19.16485,73.23409,NH3,2,4,3
India,Maharashtra,Badlapur,"Katrap, Badlapur - MPCB",19-07-2024 16:00:00,19.16485,73.23409,SO2,6,12,9
India,Maharashtra,Belapur,"CBD Belapur, Belapur - MPCB",19-07-2024 16:00:00,19.0243902,73.0406721,PM10,13,28,23
India,Maharashtra,Belapur,"CBD Belapur, Belapur - MPCB",19-07-2024 16:00:00,19.0243902,73.0406721,OZONE,11,20,15
India,Maharashtra,Bhiwandi,"Gokul Nagar, Bhiwandi - MPCB",19-07-2024 16:00:00,19.309073,73.057223,OZONE,10,25,19
India,Maharashtra,Boisar,"Khaira, Boisar - MPCB",19-07-2024 16:00:00,19.786089,72.757971,SO2,5,10,9
India,Maharashtra,Chandrapur,"Chauhan Colony, Chandrapur - MPCB",19-07-2024 16:00:00,19.962900,79.298714,PM10,8,36,22
India,Maharashtra,Dhule,"Deopur, Dhule - MPCB",19-07-2024 16:00:00,20.918946,74.776388,PM2.5,14,43,26
India,Maharashtra,Dhule,"Deopur, Dhule - MPCB",19-07-2024 16:00:00,20.918946,74.776388,CO,10,28,26
India,Maharashtra,Jalgaon,"Prabhat Colony, Jalgaon - MPCB",19-07-2024 16:00:00,21.001264,75.565602,OZONE,17,46,20
India,Maharashtra,Jalna,"Old MIDC, Jalna - MPCB",19-07-2024 16:00:00,19.854616,75.905894,PM10,50,140,98
India,Maharashtra,Kolhapur,"Shivaji University, Kolhapur - MPCB",19-07-2024 16:00:00,16.6870449,74.2505872,PM2.5,7,43,29
India,Maharashtra,Kolhapur,"Sinchan Bhavan, Kolhapur - MPCB",19-07-2024 16:00:00,16.7143745,74.2426398,PM2.5,NA,NA,NA
India,Maharashtra,Kolhapur,"Sinchan Bhavan, Kolhapur - MPCB",19-07-2024 16:00:00,16.7143745,74.2426398,PM10,NA,NA,NA
India,Maharashtra,Kolhapur,"Sinchan Bhavan, Kolhapur - MPCB",19-07-2024 16:00:00,16.7143745,74.2426398,SO2,NA,NA,NA
India,Maharashtra,Kolhapur,"Sinchan Bhavan, Kolhapur - MPCB",19-07-2024 16:00:00,16.7143745,74.2426398,CO,8,16,11
India,Maharashtra,Latur,"Sawe Wadi, Latur - MPCB",19-07-2024 16:00:00,18.39963,76.57452,NO2,2,45,15
India,Maharashtra,Latur,"Sawe Wadi, Latur - MPCB",19-07-2024 16:00:00,18.39963,76.57452,SO2,2,6,3
India,Maharashtra,Latur,"Sawe Wadi, Latur - MPCB",19-07-2024 16:00:00,18.39963,76.57452,CO,6,59,15
India,Maharashtra,Mahad,"Kamble Tarf Birwadi, Mahad - MPCB",19-07-2024 16:00:00,18.1023399,73.4783687,NO2,2,14,6
India,Maharashtra,Mahad,"Kamble Tarf Birwadi, Mahad - MPCB",19-07-2024 16:00:00,18.1023399,73.4783687,SO2,13,26,16
India,Maharashtra,Malegaon,"Mahesh Nagar, Malegaon - MPCB",19-07-2024 16:00:00,20.555712,74.529236,NO2,9,29,20
India,Maharashtra,Malegaon,"Mahesh Nagar, Malegaon - MPCB",19-07-2024 16:00:00,20.555712,74.529236,CO,18,34,25
India,Maharashtra,Mira-Bhayandar,"Bhayandar West, Mira-Bhayandar - MPCB",19-07-2024 16:00:00,19.296481,72.840923,NH3,1,1,1
India,Maharashtra,Mumbai,"Bandra Kurla Complex, Mumbai - MPCB",19-07-2024 16:00:00,19.065931,72.862131,PM10,20,44,32
India,Maharashtra,Mumbai,"Byculla, Mumbai - BMC",19-07-2024 16:00:00,18.9767,72.8380,OZONE,7,27,23
India,Maharashtra,Mumbai,"Chembur, Mumbai - MPCB",19-07-2024 16:00:00,19.0364585,72.8954371,NO2,16,37,28
India,Maharashtra,Mumbai,"Chembur, Mumbai - MPCB",19-07-2024 16:00:00,19.0364585,72.8954371,CO,16,36,20
India,Maharashtra,Mumbai,"Colaba, Mumbai - MPCB",19-07-2024 16:00:00,18.910000,72.820000,NO2,NA,NA,NA
India,Maharashtra,Mumbai,"Colaba, Mumbai - MPCB",19-07-2024 16:00:00,18.910000,72.820000,NH3,NA,NA,NA
India,Maharashtra,Mumbai,"Colaba, Mumbai - MPCB",19-07-2024 16:00:00,18.910000,72.820000,CO,14,14,14
India,Maharashtra,Mumbai,"Colaba, Mumbai - MPCB",19-07-2024 16:00:00,18.910000,72.820000,OZONE,11,11,11
India,Maharashtra,Mumbai,"Deonar, Mumbai - IITM",19-07-2024 16:00:00,19.04946,72.9230,SO2,NA,NA,NA
India,Maharashtra,Mumbai,"Kandivali East, Mumbai - MPCB",19-07-2024 16:00:00,19.205800,72.868200,OZONE,29,31,30
India,Maharashtra,Mumbai,"Kandivali West, Mumbai - BMC",19-07-2024 16:00:00,19.215859,72.831718,PM2.5,3,13,8
India,Maharashtra,Mumbai,"Kherwadi_Bandra East, Mumbai - MPCB",19-07-2024 16:00:00,19.0632143,72.8456324,CO,9,48,14
India,Maharashtra,Mumbai,"Khindipada-Bhandup West, Mumbai - IITM",19-07-2024 16:00:00,19.1653323,72.922099,NH3,1,3,2
India,Maharashtra,Mumbai,"Khindipada-Bhandup West, Mumbai - IITM",19-07-2024 16:00:00,19.1653323,72.922099,SO2,4,8,5
India,Maharashtra,Mumbai,"Kurla, Mumbai - MPCB",19-07-2024 16:00:00,19.0863,72.8888,OZONE,28,29,28
India,Maharashtra,Mumbai,"Malad West, Mumbai - IITM",19-07-2024 16:00:00,19.19709,72.82204,PM2.5,4,43,16
India,Maharashtra,Mumbai,"Mazgaon, Mumbai - IITM",19-07-2024 16:00:00,18.96702,72.84214,NO2,11,18,14
India,Maharashtra,Mumbai,"Mindspace-Malad West, Mumbai - MPCB",19-07-2024 16:00:00,19.1878657,72.8304069,NO2,6,23,10
India,Maharashtra,Mumbai,"Mulund West, Mumbai - MPCB",19-07-2024 16:00:00,19.1750,72.9419,CO,31,32,32
India,Maharashtra,Mumbai,"Navy Nagar-Colaba, Mumbai - IITM",19-07-2024 16:00:00,18.897756,72.813320,PM10,NA,NA,NA
India,Maharashtra,Mumbai,"Navy Nagar-Colaba, Mumbai - IITM",19-07-2024 16:00:00,18.897756,72.813320,OZONE,19,49,41
India,Maharashtra,Mumbai,"Powai, Mumbai - MPCB",19-07-2024 16:00:00,19.137500,72.915056,CO,16,20,17
India,Maharashtra,Mumbai,"Powai, Mumbai - MPCB",19-07-2024 16:00:00,19.137500,72.915056,OZONE,6,8,7
India,Maharashtra,Mumbai,"Shivaji Nagar, Mumbai - BMC",19-07-2024 16:00:00,19.060498,72.923356,PM2.5,12,54,31
India,Maharashtra,Mumbai,"Shivaji Nagar, Mumbai - BMC",19-07-2024 16:00:00,19.060498,72.923356,SO2,1,7,4
India,Maharashtra,Mumbai,"Sion, Mumbai - MPCB",19-07-2024 16:00:00,19.047000,72.874600,PM2.5,7,38,22
India,Maharashtra,Mumbai,"Sion, Mumbai - MPCB",19-07-2024 16:00:00,19.047000,72.874600,CO,13,22,17
India,Maharashtra,Mumbai,"Vasai West, Mumbai - MPCB",19-07-2024 16:00:00,19.383200,72.820400,PM10,16,76,37
India,Maharashtra,Mumbai,"Vile Parle West, Mumbai - MPCB",19-07-2024 16:00:00,19.10861,72.83622,PM10,16,60,35
India,Maharashtra,Mumbai,"Worli, Mumbai - MPCB",19-07-2024 16:00:00,18.9936162,72.8128113,PM10,4,22,13
India,Maharashtra,Mumbai,"Worli, Mumbai - MPCB",19-07-2024 16:00:00,18.9936162,72.8128113,NH3,1,1,1
India,Maharashtra,Mumbai,"Worli, Mumbai - MPCB",19-07-2024 16:00:00,18.9936162,72.8128113,OZONE,9,14,11
India,Maharashtra,Nagpur,"Ambazari, Nagpur - MPCB",19-07-2024 16:00:00,21.121801,79.04952,PM10,39,90,65
India,Maharashtra,Nagpur,"Ambazari, Nagpur - MPCB",19-07-2024 16:00:00,21.121801,79.04952,NO2,5,23,13
India,Maharashtra,Nagpur,"Ambazari, Nagpur - MPCB",19-07-2024 16:00:00,21.121801,79.04952,NH3,1,4,1
India,Maharashtra,Nagpur,"Mahal, Nagpur - MPCB",19-07-2024 16:00:00,21.14472,79.107595,NH3,4,7,6
India,Maharashtra,Nagpur,"Mahal, Nagpur - MPCB",19-07-2024 16:00:00,21.14472,79.107595,OZONE,1,37,15
India,Maharashtra,Nagpur,"Opp GPO Civil Lines, Nagpur - MPCB",19-07-2024 16:00:00,21.152875,79.0517531,OZONE,2,5,3
India,Maharashtra,Nagpur,"Ram Nagar, Nagpur - MPCB",19-07-2024 16:00:00,21.143383,79.048912,OZONE,3,19,10
India,Maharashtra,Nanded,"Sneh Nagar, Nanded - MPCB",19-07-2024 16:00:00,19.173852,77.296291,SO2,5,15,12
India,Maharashtra,Nashik,"Gangapur Road, Nashik - MPCB",19-07-2024 16:00:00,20.0073285,73.7762427,PM10,13,36,23
India,Maharashtra,Nashik,"Gangapur Road, Nashik - MPCB",19-07-2024 16:00:00,20.0073285,73.7762427,SO2,4,16,11
India,Maharashtra,Nashik,"Gangapur Road, Nashik - MPCB",19-07-2024 16:00:00,20.0073285,73.7762427,CO,22,79,58
India,Maharashtra,Nashik,"Hirawadi, Nashik - MPCB",19-07-2024 16:00:00,20.021503,73.813844,CO,6,27,14
India,Maharashtra,Nashik,"Hirawadi, Nashik - MPCB",19-07-2024 16:00:00,20.021503,73.813844,OZONE,12,39,27
India,Maharashtra,Nashik,"MIDC Ambad, Nashik - MPCB",19-07-2024 16:00:00,19.950220,73.731480,NO2,7,13,9
India,Maharashtra,Nashik,"Pandav Nagari, Nashik - MPCB",19-07-2024 16:00:00,19.9591346,73.7788008,NH3,3,6,5
India,Maharashtra,Navi Mumbai,"Kopripada-Vashi, Navi Mumbai - MPCB",19-07-2024 16:00:00,19.090337,73.014232,PM2.5,9,31,18
India,Maharashtra,Navi Mumbai,"Kopripada-Vashi, Navi Mumbai - MPCB",19-07-2024 16:00:00,19.090337,73.014232,NH3,NA,NA,NA
India,Maharashtra,Navi Mumbai,"Kopripada-Vashi, Navi Mumbai - MPCB",19-07-2024 16:00:00,19.090337,73.014232,CO,13,100,24
India,Maharashtra,Navi Mumbai,"Sanpada, Navi Mumbai - MPCB",19-07-2024 16:00:00,19.0575752,73.0151367,PM2.5,6,19,11
India,Maharashtra,Navi Mumbai,"Sanpada, Navi Mumbai - MPCB",19-07-2024 16:00:00,19.0575752,73.0151367,PM10,17,52,32
India,Maharashtra,Navi Mumbai,"Sanpada, Navi Mumbai - MPCB",19-07-2024 16:00:00,19.0575752,73.0151367,NH3,5,9,6
India,Maharashtra,Navi Mumbai,"Sector-19A Nerul, Navi Mumbai - IITM",19-07-2024 16:00:00,19.044,73.0325,NO2,6,14,11
India,Maharashtra,Navi Mumbai,"Sector-19A Nerul, Navi Mumbai - IITM",19-07-2024 16:00:00,19.044,73.0325,NH3,8,14,10
India,Maharashtra,Navi Mumbai,"Sector-2E Kalamboli, Navi Mumbai - MPCB",19-07-2024 16:00:00,19.02579,73.10297,SO2,4,11,6
India,Maharashtra,Pimpri-Chinchwad,"Gavalinagar, Pimpri Chinchwad - MPCB",19-07-2024 16:00:00,18.63673,73.82487,PM10,12,33,20
India,Maharashtra,Pimpri-Chinchwad,"Gavalinagar, Pimpri Chinchwad - MPCB",19-07-2024 16:00:00,18.63673,73.82487,NO2,32,33,32
India,Maharashtra,Pimpri-Chinchwad,"Park Street Wakad, Pimpri Chinchwad - MPCB",19-07-2024 16:00:00,18.59051,73.77946,PM10,26,44,35
India,Maharashtra,Pimpri-Chinchwad,"Park Street Wakad, Pimpri Chinchwad - MPCB",19-07-2024 16:00:00,18.59051,73.77946,OZONE,9,17,15
India,Maharashtra,Pimpri-Chinchwad,"Thergaon, Pimpri Chinchwad - MPCB",19-07-2024 16:00:00,18.616318,73.765797,CO,9,76,41
India,Maharashtra,Pimpri-Chinchwad,"Thergaon, Pimpri Chinchwad - MPCB",19-07-2024 16:00:00,18.616318,73.765797,OZONE,2,9,7
India,Maharashtra,Pune,"Alandi, Pune - IITM",19-07-2024 16:00:00,18.675076,73.892743,PM2.5,8,26,14
India,Maharashtra,Pune,"Bhosari, Pune - IITM",19-07-2024 16:00:00,18.640051,73.848956,NO2,7,11,9
India,Maharashtra,Pune,"Bhumkar Nagar, Pune - IITM",19-07-2024 16:00:00,18.605770,73.749976,CO,20,104,52
India,Maharashtra,Pune,"Katraj Dairy, Pune - MPCB",19-07-2024 16:00:00,18.454450,73.854155,NO2,16,22,19
India,Maharashtra,Pune,"Katraj Dairy, Pune - MPCB",19-07-2024 16:00:00,18.454450,73.854155,NH3,5,6,5
India,Maharashtra,Pune,"Revenue Colony-Shivajinagar, Pune - IITM",19-07-2024 16:00:00,18.530085,73.849598,NO2,26,38,33
India,Maharashtra,Pune,"Savitribai Phule Pune University, Pune - MPCB",19-07-2024 16:00:00,18.547056,73.826908,SO2,2,6,3
India,Maharashtra,Pune,"Transport Nagar-Nigdi, Pune - IITM",19-07-2024 16:00:00,18.664282,73.763966,OZONE,7,47,37
India,Maharashtra,Solapur,"Dnyaneshwar Nagar, Solapur - MPCB",19-07-2024 16:00:00,17.6336264,75.9132495,SO2,2,2,2
India,Maharashtra,Solapur,"Dnyaneshwar Nagar, Solapur - MPCB",19-07-2024 16:00:00,17.6336264,75.9132495,CO,9,18,14
India,Maharashtra,Solapur,"Ratandeep Housing Society, Solapur - MPCB",19-07-2024 16:00:00,17.65439,75.90649,PM10,14,58,33
India,Maharashtra,Thane,"Kasarvadavali, Thane - MPCB",19-07-2024 16:00:00,19.26777,72.97182,PM2.5,12,40,23
India,Maharashtra,Thane,"Pimpleshwar Mandir, Thane - MPCB",19-07-2024 16:00:00,19.192056,72.9585188,NO2,12,13,13
India,Maharashtra,Thane,"Upvan Fort, Thane - MPCB",19-07-2024 16:00:00,19.222279,72.957979,CO,1,48,9
India,Maharashtra,Ulhasnagar,"Sidhi Vinayak Nagar, Ulhasnagar - MPCB",19-07-2024 16:00:00,19.235581,73.159121,PM2.5,17,50,33
India,Maharashtra,Ulhasnagar,"Sidhi Vinayak Nagar, Ulhasnagar - MPCB",19-07-2024 16:00:00,19.235581,73.159121,SO2,9,15,12
India,Maharashtra,Virar,"Bolinj, Virar - MPCB",19-07-2024 16:00:00,19.4458210,72.7988231,PM10,35,54,43
India,Maharashtra,Virar,"Bolinj, Virar - MPCB",19-07-2024 16:00:00,19.4458210,72.7988231,OZONE,9,18,15
India,Manipur,Imphal,"DM College of Science, Imphal - Manipur PCB",19-07-2024 16:00:00,24.8207389,93.9423085,PM2.5,1,16,8
India,Manipur,Imphal,"DM College of Science, Imphal - Manipur PCB",19-07-2024 16:00:00,24.8207389,93.9423085,CO,7,8,7
India,Nagaland,Kohima,"PWD Juction, Kohima - NPCB",19-07-2024 16:00:00,25.6635413,94.0989878,PM10,12,116,53
India,Odisha,Angul,"Hakimapada, Angul - OSPCB",19-07-2024 16:00:00,20.832874,85.104082,PM10,7,192,43
India,Odisha,Balasore,"Kalidaspur, Balasore - OSPCB",19-07-2024 16:00:00,21.51161,86.89088,PM2.5,2,68,27
India,Odisha,Balasore,"Kalidaspur, Balasore - OSPCB",19-07-2024 16:00:00,21.51161,86.89088,NO2,5,15,10
India,Odisha,Balasore,"Kalidaspur, Balasore - OSPCB",19-07-2024 16:00:00,21.51161,86.89088,SO2,12,15,13
India,Odisha,Baripada,"Meher Colony, Baripada - OSPCB",19-07-2024 16:00:00,21.941841,86.728318,SO2,7,20,12
India,Odisha,Bhubaneswar,"Patia, Bhubaneswar - OSPCB",19-07-2024 16:00:00,20.34652,85.81630,PM2.5,2,13,5
India,Odisha,Bhubaneswar,"Patia, Bhubaneswar - OSPCB",19-07-2024 16:00:00,20.34652,85.81630,SO2,2,4,3
India,Odisha,Brajrajnagar,"GM Office, Brajrajnagar - OSPCB",19-07-2024 16:00:00,21.8004996,83.8396977,PM2.5,2,24,10
India,Odisha,Brajrajnagar,"GM Office, Brajrajnagar - OSPCB",19-07-2024 16:00:00,21.8004996,83.8396977,PM10,3,33,14
India,Odisha,Brajrajnagar,"GM Office, Brajrajnagar - OSPCB",19-07-2024 16:00:00,21.8004996,83.8396977,SO2,23,23,23
India,Odisha,Brajrajnagar,"GM Office, Brajrajnagar - OSPCB",19-07-2024 16:00:00,21.8004996,83.8396977,CO,44,58,55
India,Odisha,Byasanagar,"Ferro Chrome Colony, Byasanagar - OSPCB",19-07-2024 16:00:00,20.94185,86.11510,NO2,3,9,5
India,Odisha,Byasanagar,"Ferro Chrome Colony, Byasanagar - OSPCB",19-07-2024 16:00:00,20.94185,86.11510,OZONE,8,70,29
India,Odisha,Keonjhar,"Jagamohanpur, Keonjhar - OSPCB",19-07-2024 16:00:00,21.643900,85.599355,PM10,27,45,35
India,Odisha,Nayagarh,"Dabuna, Nayagarh - OSPCB",19-07-2024 16:00:00,21.847279,85.416905,PM2.5,NA,NA,NA
India,Odisha,Nayagarh,"Dabuna, Nayagarh - OSPCB",19-07-2024 16:00:00,21.847279,85.416905,PM10,NA,NA,NA
India,Odisha,Nayagarh,"Dabuna, Nayagarh - OSPCB",19-07-2024 16:00:00,21.847279,85.416905,NH3,NA,NA,NA
India,Odisha,Nayagarh,"Dabuna, Nayagarh - OSPCB",19-07-2024 16:00:00,21.847279,85.416905,SO2,NA,NA,NA
India,Odisha,Rairangpur,"Divisional Forest Office, Rairangpur - OSPCB",19-07-2024 16:00:00,22.265816,86.174829,PM2.5,18,36,25
India,Odisha,Rairangpur,"Divisional Forest Office, Rairangpur - OSPCB",19-07-2024 16:00:00,22.265816,86.174829,NH3,NA,NA,NA
India,Odisha,Rairangpur,"Divisional Forest Office, Rairangpur - OSPCB",19-07-2024 16:00:00,22.265816,86.174829,OZONE,30,45,40
India,Odisha,Rourkela,"Fertilizer Township, Rourkela - OSPCB",19-07-2024 16:00:00,22.18972222,84.86277778,NO2,13,56,17
India,Odisha,Rourkela,"Raghunathpali, Rourkela - OSPCB",19-07-2024 16:00:00,22.220833,84.809444,PM2.5,10,26,17
India,Odisha,Rourkela,"Raghunathpali, Rourkela - OSPCB",19-07-2024 16:00:00,22.220833,84.809444,NO2,13,40,25
India,Odisha,Rourkela,"Raghunathpali, Rourkela - OSPCB",19-07-2024 16:00:00,22.220833,84.809444,CO,22,44,28
India,Odisha,Talcher,"Talcher Coalfields,Talcher - OSPCB",19-07-2024 16:00:00,20.9360711,85.1707021,NH3,3,4,4
India,Odisha,Talcher,"Talcher Coalfields,Talcher - OSPCB",19-07-2024 16:00:00,20.9360711,85.1707021,SO2,22,27,24
India,Odisha,Tensa,"Barsua Iron Ore Mines, Tensa - OSPCB",19-07-2024 16:00:00,21.869985,85.167016,OZONE,7,15,11
India,Puducherry,Puducherry,"Jawahar Nagar, Puducherry - PPCC",19-07-2024 16:00:00,11.9309,79.8027,OZONE,20,56,40
India,Punjab,Amritsar,"Golden Temple, Amritsar - PPCB",19-07-2024 16:00:00,31.620000,74.876512,SO2,11,28,14
India,Punjab,Bathinda,"Hardev Nagar, Bathinda - PPCB",19-07-2024 16:00:00,30.233011,74.907758,SO2,5,16,10
India,Punjab,Jalandhar,"Civil Line, Jalandhar - PPCB",19-07-2024 16:00:00,31.321907,75.578914,PM10,57,96,79
India,Punjab,Jalandhar,"Civil Line, Jalandhar - PPCB",19-07-2024 16:00:00,31.321907,75.578914,OZONE,17,47,33
India,Punjab,Khanna,"Kalal Majra, Khanna - PPCB",19-07-2024 16:00:00,30.736056 ,76.209694,PM10,18,112,72
India,Punjab,Ludhiana,"Punjab Agricultural University, Ludhiana - PPCB",19-07-2024 16:00:00,30.9028,75.8086,SO2,3,11,7
India,Punjab,Ludhiana,"Punjab Agricultural University, Ludhiana - PPCB",19-07-2024 16:00:00,30.9028,75.8086,CO,6,80,49
India,Punjab,Ludhiana,"Punjab Agricultural University, Ludhiana - PPCB",19-07-2024 16:00:00,30.9028,75.8086,OZONE,10,17,13
India,Punjab,Mandi Gobindgarh,"RIMT University, Mandi Gobindgarh - PPCB",19-07-2024 16:00:00,30.649961,76.331442,SO2,7,16,10
India,Punjab,Patiala,"Model Town, Patiala - PPCB",19-07-2024 16:00:00,30.349388,76.366642,CO,39,58,47
India,Punjab,Rupnagar,"Ratanpura, Rupnagar - Ambuja Cements",19-07-2024 16:00:00,31.0325454,76.5623046,PM10,69,325,111
India,Rajasthan,Ajmer,"Civil Lines,  Ajmer - RSPCB",19-07-2024 16:00:00,26.470859,74.646594,NO2,12,13,12
India,Rajasthan,Ajmer,"Civil Lines,  Ajmer - RSPCB",19-07-2024 16:00:00,26.470859,74.646594,CO,8,47,33
India,Rajasthan,Alwar,"Moti Doongri, Alwar - RSPCB",19-07-2024 16:00:00,27.554793,76.611536,NO2,39,63,47
India,Rajasthan,Alwar,"Moti Doongri, Alwar - RSPCB",19-07-2024 16:00:00,27.554793,76.611536,OZONE,11,39,29
India,Rajasthan,Baran,"Bamboliya, Baran - RSPCB",19-07-2024 16:00:00,25.106006,76.469948,NH3,3,5,4
India,Rajasthan,Baran,"Bamboliya, Baran - RSPCB",19-07-2024 16:00:00,25.106006,76.469948,SO2,1,112,8
India,Rajasthan,Baran,"Bamboliya, Baran - RSPCB",19-07-2024 16:00:00,25.106006,76.469948,OZONE,10,93,34
India,Rajasthan,Bharatpur,"Krishna Nagar, Bharatpur - RSPCB",19-07-2024 16:00:00,27.215415,77.50873,NH3,2,6,4
India,Rajasthan,Bhilwara,"Pratap Nagar, Bhilwara - RSPCB",19-07-2024 16:00:00,25.339605,74.618883,PM2.5,7,63,45
India,Rajasthan,Bhilwara,"Pratap Nagar, Bhilwara - RSPCB",19-07-2024 16:00:00,25.339605,74.618883,CO,3,35,25
India,Rajasthan,Bhiwadi,"RIICO Ind. Area III, Bhiwadi - RSPCB",19-07-2024 16:00:00,28.194909,76.862296,PM2.5,57,232,106
India,Rajasthan,Bhiwadi,"RIICO Ind. Area III, Bhiwadi - RSPCB",19-07-2024 16:00:00,28.194909,76.862296,PM10,88,149,117
India,Rajasthan,Bhiwadi,"RIICO Ind. Area III, Bhiwadi - RSPCB",19-07-2024 16:00:00,28.194909,76.862296,SO2,2,19,9
India,Rajasthan,Bhiwadi,"Vasundhara Nagar_UIT, Bhiwadi - RSPCB",19-07-2024 16:00:00,28.207266,76.829265,CO,20,54,30
India,Rajasthan,Bhiwadi,"Vasundhara Nagar_UIT, Bhiwadi - RSPCB",19-07-2024 16:00:00,28.207266,76.829265,OZONE,132,316,132
India,Rajasthan,Bundi,"New Colony, Bundi - RSPCB",19-07-2024 16:00:00,25.435774,75.644272,SO2,1,4,2
India,Rajasthan,Churu,"Subash Chowk, Churu - RSPCB",19-07-2024 16:00:00,28.296139,74.961696,PM2.5,25,53,38
India,Rajasthan,Churu,"Subash Chowk, Churu - RSPCB",19-07-2024 16:00:00,28.296139,74.961696,SO2,1,3,2
India,Rajasthan,Dausa,"Khatikan Mohalla, Dausa - RSPCB",19-07-2024 16:00:00,26.895552,76.334753,PM10,28,122,57
India,Rajasthan,Dausa,"Khatikan Mohalla, Dausa - RSPCB",19-07-2024 16:00:00,26.895552,76.334753,SO2,4,7,5
India,Rajasthan,Dausa,"Khatikan Mohalla, Dausa - RSPCB",19-07-2024 16:00:00,26.895552,76.334753,OZONE,32,69,53
India,Rajasthan,Dungarpur,"Bhoiwada, Dungarpur - RSPCB",19-07-2024 16:00:00,23.837789,73.714926,PM2.5,NA,NA,NA
India,Rajasthan,Dungarpur,"Bhoiwada, Dungarpur - RSPCB",19-07-2024 16:00:00,23.837789,73.714926,OZONE,16,53,24
India,Rajasthan,Hanumangarh,"Housing Board, Hanumangarh - RSPCB",19-07-2024 16:00:00,29.610750,74.283608,SO2,1,12,5
India,Rajasthan,Jaipur,"Adarsh Nagar, Jaipur - RSPCB",19-07-2024 16:00:00,26.902909,75.836858,NH3,NA,NA,NA
India,Rajasthan,Jaipur,"Adarsh Nagar, Jaipur - RSPCB",19-07-2024 16:00:00,26.902909,75.836858,SO2,NA,NA,NA
India,Rajasthan,Jaipur,"Police Commissionerate, Jaipur - RSPCB",19-07-2024 16:00:00,26.9164092,75.7994901,OZONE,33,74,60
India,Rajasthan,Jaipur,"RIICO Sitapura, Jaipur - RSPCB",19-07-2024 16:00:00,26.786682,75.827928,PM2.5,8,33,18
India,Rajasthan,Jaipur,"RIICO Sitapura, Jaipur - RSPCB",19-07-2024 16:00:00,26.786682,75.827928,PM10,14,68,40
India,Rajasthan,Jaipur,"RIICO Sitapura, Jaipur - RSPCB",19-07-2024 16:00:00,26.786682,75.827928,NH3,1,3,2
India,Rajasthan,Jaipur,"RIICO Sitapura, Jaipur - RSPCB",19-07-2024 16:00:00,26.786682,75.827928,SO2,1,2,1
India,Rajasthan,Jaipur,"RIICO Sitapura, Jaipur - RSPCB",19-07-2024 16:00:00,26.786682,75.827928,OZONE,18,65,34
India,Rajasthan,Jaipur,"Sector-2 Murlipura, Jaipur - RSPCB",19-07-2024 16:00:00,26.960669,75.771817,PM10,16,72,33
India,Rajasthan,Jaipur,"Sector-2 Murlipura, Jaipur - RSPCB",19-07-2024 16:00:00,26.960669,75.771817,NO2,9,37,21
India,Rajasthan,Jaipur,"Sector-2 Murlipura, Jaipur - RSPCB",19-07-2024 16:00:00,26.960669,75.771817,CO,1,12,7
India,Rajasthan,Jaipur,"Shastri Nagar, Jaipur - RSPCB",19-07-2024 16:00:00,26.9502929,75.730943,OZONE,20,35,27
India,Rajasthan,Jalore,"Mudtra Sili, Jalore - RSPCB",19-07-2024 16:00:00,25.344694,72.626208,NH3,NA,NA,NA
India,Rajasthan,Jhalawar,"Rajlaxmi Nagar, Jhalawar - RSPCB",19-07-2024 16:00:00,24.588397,76.172782,OZONE,19,64,39
India,Rajasthan,Jhunjhunu,"Indra Nagar, Jhunjhunu - RSPCB",19-07-2024 16:00:00,28.108988,75.386577,PM2.5,19,70,34
India,Rajasthan,Jhunjhunu,"Indra Nagar, Jhunjhunu - RSPCB",19-07-2024 16:00:00,28.108988,75.386577,PM10,29,170,72
India,Rajasthan,Jhunjhunu,"Indra Nagar, Jhunjhunu - RSPCB",19-07-2024 16:00:00,28.108988,75.386577,NH3,12,18,15
India,Rajasthan,Jhunjhunu,"Indra Nagar, Jhunjhunu - RSPCB",19-07-2024 16:00:00,28.108988,75.386577,OZONE,8,47,22
India,Rajasthan,Jodhpur,"Collectorate, Jodhpur - RSPCB",19-07-2024 16:00:00,26.268249,73.0193853,PM2.5,7,90,39
India,Rajasthan,Jodhpur,"Digari Kalan, Jodhpur - RSPCB",19-07-2024 16:00:00,26.295810,73.082283,PM2.5,2,47,11
India,Rajasthan,Jodhpur,"Jhalamand, Jodhpur - RSPCB",19-07-2024 16:00:00,26.215415,73.070156,PM10,2,66,29
India,Rajasthan,Jodhpur,"Mandor, Jodhpur - RSPCB",19-07-2024 16:00:00,26.358805,73.047444,CO,13,28,15
India,Rajasthan,Jodhpur,"Samrat Ashok Udhyan, Jodhpur - RSPCB",19-07-2024 16:00:00,26.253384,72.976571,OZONE,19,60,33
India,Rajasthan,Kota,"Dhanmandi, Kota - RSPCB",19-07-2024 16:00:00,25.164090,75.858137,PM10,31,103,60
India,Rajasthan,Kota,"Dhanmandi, Kota - RSPCB",19-07-2024 16:00:00,25.164090,75.858137,NO2,9,56,23
India,Rajasthan,Kota,"Dhanmandi, Kota - RSPCB",19-07-2024 16:00:00,25.164090,75.858137,SO2,6,10,7
India,Rajasthan,Kota,"Dhanmandi, Kota - RSPCB",19-07-2024 16:00:00,25.164090,75.858137,CO,6,64,32
India,Rajasthan,Kota,"Shrinath Puram, Kota - RSPCB",19-07-2024 16:00:00,25.14389,75.821256,PM10,NA,NA,NA
India,Rajasthan,Kota,"Shrinath Puram, Kota - RSPCB",19-07-2024 16:00:00,25.14389,75.821256,NO2,14,35,21
India,Rajasthan,Nagaur,"Karni Colony, Nagaur - RSPCB",19-07-2024 16:00:00,27.213494,73.734444,PM2.5,4,25,13
India,Rajasthan,Nagaur,"Karni Colony, Nagaur - RSPCB",19-07-2024 16:00:00,27.213494,73.734444,CO,14,27,17
India,Rajasthan,Nagaur,"Karni Colony, Nagaur - RSPCB",19-07-2024 16:00:00,27.213494,73.734444,OZONE,25,99,53
India,Rajasthan,Pali,"Indira Colony Vistar, Pali - RSPCB",19-07-2024 16:00:00,25.771061, 73.340227,NH3,1,6,2
India,Rajasthan,Pratapgarh,"Pragati Nagar, Pratapgarh - RSPCB",19-07-2024 16:00:00,24.041198,74.780702,PM2.5,2,54,27
India,Rajasthan,Pratapgarh,"Pragati Nagar, Pratapgarh - RSPCB",19-07-2024 16:00:00,24.041198,74.780702,PM10,5,65,32
India,Rajasthan,Pratapgarh,"Pragati Nagar, Pratapgarh - RSPCB",19-07-2024 16:00:00,24.041198,74.780702,NO2,4,26,13
India,Rajasthan,Pratapgarh,"Pragati Nagar, Pratapgarh - RSPCB",19-07-2024 16:00:00,24.041198,74.780702,OZONE,25,47,34
India,Rajasthan,Rajsamand,"Dhoinda, Rajsamand - RSPCB",19-07-2024 16:00:00,25.036360,73.883502,NH3,4,5,4
India,Rajasthan,Sirohi,"Vedhaynath Colony, Sirohi - RSPCB",19-07-2024 16:00:00,24.885261,72.857549,NO2,4,22,11
India,Rajasthan,Sirohi,"Vedhaynath Colony, Sirohi - RSPCB",19-07-2024 16:00:00,24.885261,72.857549,CO,6,30,20
India,Rajasthan,Sri Ganganagar,"Old City, Sri Ganganagar - RSPCB",19-07-2024 16:00:00,29.931624,73.864511,PM2.5,55,217,106
India,Rajasthan,Tonk,"Shastri Nagar, Tonk - RSPCB",19-07-2024 16:00:00,26.159933,75.780517,PM2.5,8,32,19
India,Rajasthan,Tonk,"Shastri Nagar, Tonk - RSPCB",19-07-2024 16:00:00,26.159933,75.780517,NH3,1,3,2
India,Rajasthan,Tonk,"Shastri Nagar, Tonk - RSPCB",19-07-2024 16:00:00,26.159933,75.780517,OZONE,14,128,97
India,Rajasthan,Udaipur,"Ashok Nagar, Udaipur - RSPCB",19-07-2024 16:00:00,24.5886166,73.6321397,PM10,34,103,66
India,Sikkim,Gangtok,"Zero Point GICI, Gangtok - SSPCB",19-07-2024 16:00:00,27.338530,88.614099,PM2.5,6,13,10
India,Sikkim,Gangtok,"Zero Point GICI, Gangtok - SSPCB",19-07-2024 16:00:00,27.338530,88.614099,CO,1,5,3
India,Sikkim,Gangtok,"Zero Point GICI, Gangtok - SSPCB",19-07-2024 16:00:00,27.338530,88.614099,OZONE,12,32,24
India,TamilNadu,Chennai,"Alandur Bus Depot, Chennai - CPCB",19-07-2024 16:00:00,12.9099161,80.1076538,PM2.5,23,447,154
India,TamilNadu,Chennai,"Alandur Bus Depot, Chennai - CPCB",19-07-2024 16:00:00,12.9099161,80.1076538,PM10,23,441,123
India,TamilNadu,Chennai,"Manali, Chennai - CPCB",19-07-2024 16:00:00,13.164544,80.26285,SO2,2,7,5
India,TamilNadu,Chennai,"Manali, Chennai - CPCB",19-07-2024 16:00:00,13.164544,80.26285,OZONE,7,24,19
India,TamilNadu,Chennai,"Perungudi, Chennai - TNPCB",19-07-2024 16:00:00,12.9533,80.2357,OZONE,12,16,14
India,TamilNadu,Chennai,"Royapuram, Chennai - TNPCB",19-07-2024 16:00:00,13.1036,80.2909,PM10,14,78,44
India,TamilNadu,Chennai,"Royapuram, Chennai - TNPCB",19-07-2024 16:00:00,13.1036,80.2909,NH3,2,3,3
India,TamilNadu,Chennai,"Velachery Res. Area, Chennai - CPCB",19-07-2024 16:00:00,13.0052189,80.2398125,PM10,16,272,48
India,TamilNadu,Chennai,"Velachery Res. Area, Chennai - CPCB",19-07-2024 16:00:00,13.0052189,80.2398125,NO2,13,15,13
India,TamilNadu,Coimbatore,"PSG College of Arts and Science, Coimbatore - TNPCB",19-07-2024 16:00:00,11.0328,77.0349,NO2,NA,NA,NA
India,TamilNadu,Cuddalore,"Kudikadu, Cuddalore - TNPCB",19-07-2024 16:00:00,11.6829898,79.7532099,PM10,2,44,20
India,TamilNadu,Gummidipoondi,"Anthoni Pillai Nagar, Gummidipoondi - TNPCB",19-07-2024 16:00:00,13.4127,80.1081,SO2,4,94,35
India,TamilNadu,Ooty,"Bombay Castel, Ooty - TNPCB",19-07-2024 16:00:00,11.4068288,76.7138973,NH3,NA,NA,NA
India,TamilNadu,Ooty,"Bombay Castel, Ooty - TNPCB",19-07-2024 16:00:00,11.4068288,76.7138973,OZONE,5,5,5
India,TamilNadu,Ramanathapuram,"Chalai Bazaar, Ramanathapuram - TNPCB",19-07-2024 16:00:00,9.36399,78.831977,NH3,1,1,1
India,TamilNadu,Vellore,"Vasanthapuram, Vellore - TNPCB",19-07-2024 16:00:00,12.909494,79.131861,PM10,8,42,22
India,TamilNadu,Virudhunagar,"Collectorate Office, Virudhunagar - TNPCB",19-07-2024 16:00:00,9.559382,77.948828,NH3,NA,NA,NA
India,TamilNadu,Virudhunagar,"Collectorate Office, Virudhunagar - TNPCB",19-07-2024 16:00:00,9.559382,77.948828,CO,27,28,27
India,Telangana,Hyderabad,"Bollaram Industrial Area, Hyderabad - TSPCB",19-07-2024 16:00:00,17.540891,78.358528,SO2,NA,NA,NA
India,Telangana,Hyderabad,"Bollaram Industrial Area, Hyderabad - TSPCB",19-07-2024 16:00:00,17.540891,78.358528,OZONE,29,39,33
India,Telangana,Hyderabad,"Central University, Hyderabad - TSPCB",19-07-2024 16:00:00,17.460103,78.334361,PM10,9,25,17
India,Telangana,Hyderabad,"Central University, Hyderabad - TSPCB",19-07-2024 16:00:00,17.460103,78.334361,SO2,3,10,6
India,Telangana,Hyderabad,"Central University, Hyderabad - TSPCB",19-07-2024 16:00:00,17.460103,78.334361,CO,4,16,7
India,Telangana,Hyderabad,"ECIL Kapra, Hyderabad - TSPCB",19-07-2024 16:00:00,17.470431,78.566959,SO2,5,12,7
India,Telangana,Hyderabad,"ECIL Kapra, Hyderabad - TSPCB",19-07-2024 16:00:00,17.470431,78.566959,CO,11,36,29
India,Telangana,Hyderabad,"ICRISAT Patancheru, Hyderabad - TSPCB",19-07-2024 16:00:00,17.518400,78.278777,CO,13,34,23
India,Telangana,Hyderabad,"ICRISAT Patancheru, Hyderabad - TSPCB",19-07-2024 16:00:00,17.518400,78.278777,OZONE,2,22,14
India,Telangana,Hyderabad,"IDA Pashamylaram, Hyderabad - TSPCB",19-07-2024 16:00:00,17.5316895,78.218939,PM2.5,3,38,13
India,Telangana,Hyderabad,"IDA Pashamylaram, Hyderabad - TSPCB",19-07-2024 16:00:00,17.5316895,78.218939,NH3,NA,NA,NA
India,Telangana,Hyderabad,"IDA Pashamylaram, Hyderabad - TSPCB",19-07-2024 16:00:00,17.5316895,78.218939,CO,28,48,34
India,Telangana,Hyderabad,"IITH Kandi, Hyderabad - TSPCB",19-07-2024 16:00:00,17.585705,78.126199,SO2,NA,NA,NA
India,Telangana,Hyderabad,"Kokapet, Hyderabad - TSPCB",19-07-2024 16:00:00,17.393559,78.339194,PM2.5,40,145,66
India,Telangana,Hyderabad,"Kokapet, Hyderabad - TSPCB",19-07-2024 16:00:00,17.393559,78.339194,NO2,9,12,12
India,Telangana,Hyderabad,"Kompally Municipal Office, Hyderabad - TSPCB",19-07-2024 16:00:00,17.544899,78.486949,PM10,NA,NA,NA
India,Telangana,Hyderabad,"Kompally Municipal Office, Hyderabad - TSPCB",19-07-2024 16:00:00,17.544899,78.486949,NO2,NA,NA,NA
India,Telangana,Hyderabad,"Nacharam_TSIIC IALA, Hyderabad - TSPCB",19-07-2024 16:00:00,17.429398,78.569354,PM2.5,35,48,38
India,Telangana,Hyderabad,"Nacharam_TSIIC IALA, Hyderabad - TSPCB",19-07-2024 16:00:00,17.429398,78.569354,CO,22,35,22
India,Telangana,Hyderabad,"New Malakpet, Hyderabad - TSPCB",19-07-2024 16:00:00,17.37206,78.50864,PM2.5,26,62,33
India,Telangana,Hyderabad,"New Malakpet, Hyderabad - TSPCB",19-07-2024 16:00:00,17.37206,78.50864,SO2,6,31,15
India,Telangana,Hyderabad,"Ramachandrapuram, Hyderabad - TSPCB",19-07-2024 16:00:00,17.528544,78.286195,NH3,NA,NA,NA
India,Telangana,Hyderabad,"Ramachandrapuram, Hyderabad - TSPCB",19-07-2024 16:00:00,17.528544,78.286195,OZONE,18,33,27
India,Telangana,Hyderabad,"Sanathnagar, Hyderabad - TSPCB",19-07-2024 16:00:00,17.4559458,78.4332152,SO2,2,7,4
India,Telangana,Hyderabad,"Somajiguda, Hyderabad - TSPCB",19-07-2024 16:00:00,17.417094,78.457437,PM2.5,NA,NA,NA
India,Telangana,Hyderabad,"Somajiguda, Hyderabad - TSPCB",19-07-2024 16:00:00,17.417094,78.457437,OZONE,12,15,15
India,Telangana,Hyderabad,"Zoo Park, Hyderabad - TSPCB",19-07-2024 16:00:00,17.349694,78.451437,PM10,5,17,10
India,Telangana,Hyderabad,"Zoo Park, Hyderabad - TSPCB",19-07-2024 16:00:00,17.349694,78.451437,SO2,2,4,3
India,Telangana,Hyderabad,"Zoo Park, Hyderabad - TSPCB",19-07-2024 16:00:00,17.349694,78.451437,OZONE,16,24,19
India,Tripura,Agartala,"Bardowali, Agartala - Tripura SPCB",19-07-2024 16:00:00,23.8175497,91.2726974,OZONE,4,14,7
India,Uttar_Pradesh,Agra,"Manoharpur, Agra - UPPCB",19-07-2024 16:00:00,27.23711,78.01936,PM2.5,12,100,46
India,Uttar_Pradesh,Agra,"Manoharpur, Agra - UPPCB",19-07-2024 16:00:00,27.23711,78.01936,NO2,18,18,18
India,Uttar_Pradesh,Agra,"Rohta, Agra - UPPCB",19-07-2024 16:00:00,27.106972,78.000111,NO2,5,6,5
India,Uttar_Pradesh,Agra,"Sanjay Palace, Agra - UPPCB",19-07-2024 16:00:00,27.19865833,78.00598056,NO2,1,7,4
India,Uttar_Pradesh,Agra,"Sanjay Palace, Agra - UPPCB",19-07-2024 16:00:00,27.19865833,78.00598056,SO2,8,11,9
India,Uttar_Pradesh,Agra,"Sanjay Palace, Agra - UPPCB",19-07-2024 16:00:00,27.19865833,78.00598056,CO,10,16,13
India,Uttar_Pradesh,Agra,"Sanjay Palace, Agra - UPPCB",19-07-2024 16:00:00,27.19865833,78.00598056,OZONE,36,44,40
India,Uttar_Pradesh,Agra,"Shahjahan Garden, Agra - UPPCB",19-07-2024 16:00:00,27.169338,78.03582,PM10,36,104,62
India,Uttar_Pradesh,Agra,"Shahjahan Garden, Agra - UPPCB",19-07-2024 16:00:00,27.169338,78.03582,NO2,12,13,12
India,Uttar_Pradesh,Agra,"Shastripuram, Agra - UPPCB",19-07-2024 16:00:00,27.19862,77.92066,PM2.5,1,65,31
India,Uttar_Pradesh,Bareilly,"Civil Lines, Bareilly - UPPCB",19-07-2024 16:00:00,28.359581,79.414455,OZONE,5,14,14
India,Uttar_Pradesh,Firozabad,"Nagla Bhau, Firozabad - UPPCB",19-07-2024 16:00:00,27.168897,78.376960,PM10,NA,NA,NA
India,Uttar_Pradesh,Firozabad,"Nagla Bhau, Firozabad - UPPCB",19-07-2024 16:00:00,27.168897,78.376960,CO,24,35,27
India,Uttar_Pradesh,Firozabad,"Nagla Bhau, Firozabad - UPPCB",19-07-2024 16:00:00,27.168897,78.376960,OZONE,10,18,17
India,Uttar_Pradesh,Firozabad,"Vibhab Nagar, Firozabad - UPPCB",19-07-2024 16:00:00,27.1594,78.3953,PM10,34,90,56
India,Uttar_Pradesh,Firozabad,"Vibhab Nagar, Firozabad - UPPCB",19-07-2024 16:00:00,27.1594,78.3953,CO,18,30,23
India,Uttar_Pradesh,Ghaziabad,"Indirapuram, Ghaziabad - UPPCB",19-07-2024 16:00:00,28.646233,77.358075,PM10,63,168,131
India,Uttar_Pradesh,Ghaziabad,"Indirapuram, Ghaziabad - UPPCB",19-07-2024 16:00:00,28.646233,77.358075,NH3,15,17,16
India,Uttar_Pradesh,Ghaziabad,"Sanjay Nagar, Ghaziabad - UPPCB",19-07-2024 16:00:00,28.685382,77.453839,PM10,54,134,104
India,Uttar_Pradesh,Ghaziabad,"Sanjay Nagar, Ghaziabad - UPPCB",19-07-2024 16:00:00,28.685382,77.453839,SO2,9,25,15
India,Uttar_Pradesh,Ghaziabad,"Vasundhara, Ghaziabad - UPPCB",19-07-2024 16:00:00,28.6603346,77.3572563,PM10,59,159,116
India,Uttar_Pradesh,Ghaziabad,"Vasundhara, Ghaziabad - UPPCB",19-07-2024 16:00:00,28.6603346,77.3572563,NO2,13,58,39
India,Uttar_Pradesh,Ghaziabad,"Vasundhara, Ghaziabad - UPPCB",19-07-2024 16:00:00,28.6603346,77.3572563,OZONE,11,28,22
India,Uttar_Pradesh,Gorakhpur,"Madan Mohan Malaviya University of Technology, Gorakhpur - UPPCB",19-07-2024 16:00:00,26.730136,83.433859,NO2,7,11,11
India,Uttar_Pradesh,Greater Noida,"Knowledge Park - III, Greater Noida - UPPCB",19-07-2024 16:00:00,28.47272,77.482000,PM2.5,18,255,95
India,Uttar_Pradesh,Greater Noida,"Knowledge Park - V, Greater Noida - UPPCB",19-07-2024 16:00:00,28.557054,77.453663,PM2.5,28,164,102
India,Uttar_Pradesh,Greater Noida,"Knowledge Park - V, Greater Noida - UPPCB",19-07-2024 16:00:00,28.557054,77.453663,NH3,3,6,4
India,Uttar_Pradesh,Greater Noida,"Knowledge Park - V, Greater Noida - UPPCB",19-07-2024 16:00:00,28.557054,77.453663,OZONE,1,33,14
India,Uttar_Pradesh,Jhansi,"Shivaji Nagar, Jhansi - UPPCB",19-07-2024 16:00:00,25.4547,78.6039,NH3,5,6,6
India,Uttar_Pradesh,Jhansi,"Shivaji Nagar, Jhansi - UPPCB",19-07-2024 16:00:00,25.4547,78.6039,SO2,19,28,21
India,Uttar_Pradesh,Jhansi,"Shivaji Nagar, Jhansi - UPPCB",19-07-2024 16:00:00,25.4547,78.6039,CO,6,24,12
India,Uttar_Pradesh,Kanpur,"FTI Kidwai Nagar, Kanpur - UPPCB",19-07-2024 16:00:00,26.428282,80.327067,NO2,15,16,16
India,Uttar_Pradesh,Kanpur,"NSI Kalyanpur, Kanpur - UPPCB",19-07-2024 16:00:00,26.509954,80.249612,CO,33,38,36
India,Uttar_Pradesh,Kanpur,"Nehru Nagar, Kanpur - UPPCB",19-07-2024 16:00:00,26.4703136,80.3229863,NO2,27,53,43
India,Uttar_Pradesh,Kanpur,"Nehru Nagar, Kanpur - UPPCB",19-07-2024 16:00:00,26.4703136,80.3229863,CO,44,90,78
India,Uttar_Pradesh,Khurja,"Kalindi Kunj, Khurja - UPPCB",19-07-2024 16:00:00,28.2348927,77.8683002,NH3,1,1,1
India,Uttar_Pradesh,Khurja,"Kalindi Kunj, Khurja - UPPCB",19-07-2024 16:00:00,28.2348927,77.8683002,SO2,18,24,21
India,Uttar_Pradesh,Lucknow,"Kendriya Vidyalaya, Lucknow - CPCB",19-07-2024 16:00:00,26.906111,80.948222,PM2.5,21,61,39
India,Uttar_Pradesh,Lucknow,"Kendriya Vidyalaya, Lucknow - CPCB",19-07-2024 16:00:00,26.906111,80.948222,SO2,6,8,7
India,Uttar_Pradesh,Lucknow,"Kukrail Picnic Spot-1, Lucknow - UPPCB",19-07-2024 16:00:00,26.90723,80.98579,SO2,24,26,26
India,Uttar_Pradesh,Lucknow,"Lalbagh, Lucknow - CPCB",19-07-2024 16:00:00,26.8458805,80.9365541,PM2.5,8,70,36
India,Uttar_Pradesh,Lucknow,"Lalbagh, Lucknow - CPCB",19-07-2024 16:00:00,26.8458805,80.9365541,PM10,5,72,50
India,Uttar_Pradesh,Lucknow,"Lalbagh, Lucknow - CPCB",19-07-2024 16:00:00,26.8458805,80.9365541,NH3,12,21,16
India,Uttar_Pradesh,Lucknow,"Lalbagh, Lucknow - CPCB",19-07-2024 16:00:00,26.8458805,80.9365541,CO,12,119,93
India,Uttar_Pradesh,Lucknow,"Lalbagh, Lucknow - CPCB",19-07-2024 16:00:00,26.8458805,80.9365541,OZONE,10,53,32
India,Uttar_Pradesh,Lucknow,"Talkatora District Industries Center, Lucknow - CPCB",19-07-2024 16:00:00,26.83399722,80.8917361,NO2,10,20,14
India,Uttar_Pradesh,Lucknow,"Talkatora District Industries Center, Lucknow - CPCB",19-07-2024 16:00:00,26.83399722,80.8917361,SO2,2,17,9
India,Uttar_Pradesh,Meerut,"Ganga Nagar, Meerut - UPPCB",19-07-2024 16:00:00,28.999264,77.7590354,PM10,20,92,45
India,Uttar_Pradesh,Meerut,"Jai Bhim Nagar, Meerut - UPPCB",19-07-2024 16:00:00,28.9535882,77.7622941,PM2.5,47,145,74
India,Uttar_Pradesh,Meerut,"Jai Bhim Nagar, Meerut - UPPCB",19-07-2024 16:00:00,28.9535882,77.7622941,PM10,41,104,71
India,Uttar_Pradesh,Meerut,"Jai Bhim Nagar, Meerut - UPPCB",19-07-2024 16:00:00,28.9535882,77.7622941,CO,5,104,58
India,Uttar_Pradesh,Meerut,"Pallavpuram Phase 2, Meerut - UPPCB",19-07-2024 16:00:00,29.063510,77.709723,OZONE,1,50,7
India,Uttar_Pradesh,Moradabad,"Buddhi Vihar, Moradabad - UPPCB",19-07-2024 16:00:00,28.83526,78.74460,NH3,3,3,3
India,Uttar_Pradesh,Moradabad,"Buddhi Vihar, Moradabad - UPPCB",19-07-2024 16:00:00,28.83526,78.74460,SO2,22,29,24
India,Uttar_Pradesh,Moradabad,"Eco Herbal Park, Moradabad - UPPCB",19-07-2024 16:00:00,28.840739,78.697531,CO,16,47,19
India,Uttar_Pradesh,Moradabad,"Eco Herbal Park, Moradabad - UPPCB",19-07-2024 16:00:00,28.840739,78.697531,OZONE,10,42,26
India,Uttar_Pradesh,Moradabad,"Employment Office, Moradabad - UPPCB",19-07-2024 16:00:00,28.88528,78.73880,NH3,3,4,4
India,Uttar_Pradesh,Moradabad,"Jigar Colony, Moradabad - UPPCB",19-07-2024 16:00:00,28.856664,78.772638,PM2.5,19,73,39
India,Uttar_Pradesh,Moradabad,"Jigar Colony, Moradabad - UPPCB",19-07-2024 16:00:00,28.856664,78.772638,NH3,4,9,4
India,Uttar_Pradesh,Moradabad,"Jigar Colony, Moradabad - UPPCB",19-07-2024 16:00:00,28.856664,78.772638,CO,12,40,24
India,Uttar_Pradesh,Moradabad,"Kashiram Nagar, Moradabad - UPPCB",19-07-2024 16:00:00,28.849399,78.742362,SO2,3,101,25
India,Uttar_Pradesh,Moradabad,"Kashiram Nagar, Moradabad - UPPCB",19-07-2024 16:00:00,28.849399,78.742362,CO,14,32,24
India,Uttar_Pradesh,Moradabad,"Transport Nagar, Moradabad - UPPCB",19-07-2024 16:00:00,28.802625,78.753728,PM2.5,15,63,32
India,Uttar_Pradesh,Moradabad,"Transport Nagar, Moradabad - UPPCB",19-07-2024 16:00:00,28.802625,78.753728,SO2,21,27,23
India,Uttar_Pradesh,Muzaffarnagar,"New Mandi, Muzaffarnagar - UPPCB",19-07-2024 16:00:00,29.4723508,77.7194031,PM2.5,53,231,126
India,Uttar_Pradesh,Muzaffarnagar,"New Mandi, Muzaffarnagar - UPPCB",19-07-2024 16:00:00,29.4723508,77.7194031,SO2,3,28,16
India,Uttar_Pradesh,Noida,"Sector - 125, Noida - UPPCB",19-07-2024 16:00:00,28.5447608,77.3231257,SO2,6,16,11
India,Uttar_Pradesh,Noida,"Sector - 62, Noida - IMD",19-07-2024 16:00:00,28.6245479,77.3577104,PM2.5,34,225,86
India,Uttar_Pradesh,Noida,"Sector - 62, Noida - IMD",19-07-2024 16:00:00,28.6245479,77.3577104,NO2,10,11,10
India,Uttar_Pradesh,Noida,"Sector-1, Noida - UPPCB",19-07-2024 16:00:00,28.5898,77.3101,PM10,54,131,108
India,Uttar_Pradesh,Noida,"Sector-116, Noida - UPPCB",19-07-2024 16:00:00,28.569230,77.393848,OZONE,2,58,16
India,Uttar_Pradesh,Prayagraj,"Motilal Nehru NIT, Prayagraj - UPPCB",19-07-2024 16:00:00,25.494,81.863,SO2,17,44,24
India,Uttar_Pradesh,Prayagraj,"Nagar Nigam, Prayagraj - UPPCB",19-07-2024 16:00:00,25.44919916 ,81.82735986 ,NH3,3,4,3
India,Uttar_Pradesh,Prayagraj,"Nagar Nigam, Prayagraj - UPPCB",19-07-2024 16:00:00,25.44919916 ,81.82735986 ,SO2,15,90,44
India,Uttar_Pradesh,Varanasi,"Ardhali Bazar, Varanasi - UPPCB",19-07-2024 16:00:00,25.3505986,82.9083074,PM10,33,99,69
India,Uttar_Pradesh,Varanasi,"Ardhali Bazar, Varanasi - UPPCB",19-07-2024 16:00:00,25.3505986,82.9083074,CO,26,34,29
India,Uttar_Pradesh,Varanasi,"Bhelupur, Varanasi - UPPCB",19-07-2024 16:00:00,25.301778,82.996789,PM2.5,26,79,46
India,Uttar_Pradesh,Varanasi,"Bhelupur, Varanasi - UPPCB",19-07-2024 16:00:00,25.301778,82.996789,OZONE,2,12,5
India,Uttar_Pradesh,Varanasi,"IESD Banaras Hindu University, Varanasi - UPPCB",19-07-2024 16:00:00,25.262326,82.995408,PM2.5,26,111,44
India,Uttar_Pradesh,Varanasi,"IESD Banaras Hindu University, Varanasi - UPPCB",19-07-2024 16:00:00,25.262326,82.995408,NO2,2,3,2
India,Uttar_Pradesh,Varanasi,"IESD Banaras Hindu University, Varanasi - UPPCB",19-07-2024 16:00:00,25.262326,82.995408,NH3,1,1,1
India,Uttar_Pradesh,Varanasi,"Maldahiya, Varanasi - UPPCB",19-07-2024 16:00:00,25.32393,82.99687,NO2,1,2,1
India,Uttar_Pradesh,Varanasi,"Maldahiya, Varanasi - UPPCB",19-07-2024 16:00:00,25.32393,82.99687,SO2,28,31,28
India,Uttar_Pradesh,Varanasi,"Maldahiya, Varanasi - UPPCB",19-07-2024 16:00:00,25.32393,82.99687,OZONE,2,8,5
India,Uttar_Pradesh,Vrindavan,"Omex Eternity, Vrindavan - UPPCB",19-07-2024 16:00:00,27.5714090,77.6557570,PM2.5,9,45,20
India,Uttar_Pradesh,Vrindavan,"Omex Eternity, Vrindavan - UPPCB",19-07-2024 16:00:00,27.5714090,77.6557570,OZONE,24,27,26
India,Uttarakhand,Kashipur,"Govt. Girls Inter College, Kashipur - UKPCB",19-07-2024 16:00:00,29.2124114,78.9611753,NH3,12,14,13
India,Uttarakhand,Rishikesh,"Shivaji Nagar, Rishikesh - UKPCB",19-07-2024 16:00:00,30.075911,78.2859547,PM2.5,7,356,50
India,Uttarakhand,Rishikesh,"Shivaji Nagar, Rishikesh - UKPCB",19-07-2024 16:00:00,30.075911,78.2859547,CO,9,48,21
India,Uttarakhand,Rishikesh,"Shivaji Nagar, Rishikesh - UKPCB",19-07-2024 16:00:00,30.075911,78.2859547,OZONE,8,40,21
India,West_Bengal,Asansol,"Asansol Court Area, Asansol - WBPCB",19-07-2024 16:00:00,23.685297,86.945968,PM10,27,85,45
India,West_Bengal,Asansol,"Evelyn Lodge, Asansol - WBPCB",19-07-2024 16:00:00,23.6979360,86.9443950,NO2,20,41,30
India,West_Bengal,Asansol,"Evelyn Lodge, Asansol - WBPCB",19-07-2024 16:00:00,23.6979360,86.9443950,CO,8,34,10
India,West_Bengal,Asansol,"Mahabir Colliery, Asansol - WBPCB",19-07-2024 16:00:00,23.6181830,87.1057180,SO2,48,50,49
India,West_Bengal,Asansol,"Trivenidevi Bhalotia College, Asansol - WBPCB",19-07-2024 16:00:00,23.616515,87.119133,OZONE,5,45,34
India,West_Bengal,Barrackpore,"SVSPA Campus, Barrackpore - WBPCB",19-07-2024 16:00:00,22.7605581,88.3617589,PM2.5,2,45,18
India,West_Bengal,Durgapur,"Sidhu Kanhu Indoor Stadium, Durgapur - WBPCB",19-07-2024 16:00:00,23.5404352,87.2892225,NO2,NA,NA,NA
India,West_Bengal,Haldia,"Priyambada Housing Estate, Haldia - WBPCB",19-07-2024 16:00:00,22.06047,88.109737,NO2,6,25,10
India,West_Bengal,Howrah,"Belur Math, Howrah - WBPCB",19-07-2024 16:00:00,22.629801,88.352017,SO2,8,13,11
India,West_Bengal,Howrah,"Botanical Garden, Howrah - WBPCB",19-07-2024 16:00:00,22.554954,88.292568,CO,16,22,20
India,West_Bengal,Howrah,"Ghusuri, Howrah - WBPCB",19-07-2024 16:00:00,22.611968,88.347422,NH3,5,6,6
India,West_Bengal,Howrah,"Padmapukur, Howrah - WBPCB",19-07-2024 16:00:00,22.5687319,88.2797276,NO2,42,60,48
India,West_Bengal,Kolkata,"Ballygunge, Kolkata - WBPCB",19-07-2024 16:00:00,22.5367507,88.3638022,CO,16,28,20
India,West_Bengal,Kolkata,"Bidhannagar, Kolkata - WBPCB",19-07-2024 16:00:00,22.58157048,88.41002457,NH3,7,8,7
India,West_Bengal,Kolkata,"Fort William, Kolkata - WBPCB",19-07-2024 16:00:00,22.556640,88.342674,PM10,20,47,29
India,West_Bengal,Kolkata,"Fort William, Kolkata - WBPCB",19-07-2024 16:00:00,22.556640,88.342674,SO2,8,9,8
India,West_Bengal,Kolkata,"Rabindra Bharati University, Kolkata - WBPCB",19-07-2024 16:00:00,22.627847,88.380669,CO,20,27,22
India,West_Bengal,Kolkata,"Rabindra Sarobar, Kolkata - WBPCB",19-07-2024 16:00:00,22.51106,88.35142,PM2.5,22,23,22
India,West_Bengal,Kolkata,"Victoria, Kolkata - WBPCB",19-07-2024 16:00:00,22.5448082,88.3403691,NO2,19,21,20
India,Andhra_Pradesh,Amaravati,"Secretariat, Amaravati - APPCB",19-07-2024 16:00:00,16.5150833,80.5181667,NO2,3,21,8
India,Andhra_Pradesh,Amaravati,"Secretariat, Amaravati - APPCB",19-07-2024 16:00:00,16.5150833,80.5181667,NH3,2,4,4
India,Andhra_Pradesh,Amaravati,"Secretariat, Amaravati - APPCB",19-07-2024 16:00:00,16.5150833,80.5181667,SO2,16,20,17
India,Andhra_Pradesh,Amaravati,"Secretariat, Amaravati - APPCB",19-07-2024 16:00:00,16.5150833,80.5181667,CO,18,90,44
India,Andhra_Pradesh,Amaravati,"Secretariat, Amaravati - APPCB",19-07-2024 16:00:00,16.5150833,80.5181667,OZONE,5,30,15
India,Andhra_Pradesh,Chittoor,"Gangineni Cheruvu, Chittoor - APPCB",19-07-2024 16:00:00,13.204880,79.097889,PM2.5,18,54,33
India,Andhra_Pradesh,Chittoor,"Gangineni Cheruvu, Chittoor - APPCB",19-07-2024 16:00:00,13.204880,79.097889,NH3,3,4,3
India,Andhra_Pradesh,Kadapa,"Yerramukkapalli, Kadapa - APPCB",19-07-2024 16:00:00,14.465052,78.824187,SO2,2,3,2
India,Andhra_Pradesh,Tirupati,"Tirumala, Tirupati - APPCB",19-07-2024 16:00:00,13.67,79.35,NH3,NA,NA,NA
India,Andhra_Pradesh,Tirupati,"Tirumala, Tirupati - APPCB",19-07-2024 16:00:00,13.67,79.35,CO,14,25,21
India,Andhra_Pradesh,Tirupati,"Vaikuntapuram, Tirupati - APPCB",19-07-2024 16:00:00,13.615387,79.409230,OZONE,31,40,36
India,Andhra_Pradesh,Vijayawada,"HB Colony, Vijayawada - APPCB",19-07-2024 16:00:00,16.536107,80.594233,PM2.5,34,65,42
India,Andhra_Pradesh,Vijayawada,"Kanuru, Vijayawada - APPCB",19-07-2024 16:00:00,16.486692,80.699436,PM10,33,55,46
India,Andhra_Pradesh,Vijayawada,"Kanuru, Vijayawada - APPCB",19-07-2024 16:00:00,16.486692,80.699436,CO,32,32,32
India,Andhra_Pradesh,Vijayawada,"Rajiv Gandhi Park, Vijayawada - APPCB",19-07-2024 16:00:00,16.509717,80.612222,OZONE,22,26,24
India,Andhra_Pradesh,Vijayawada,"Rajiv Nagar, Vijayawada - APPCB",19-07-2024 16:00:00,16.554731,80.649110,PM2.5,27,43,33
India,Andhra_Pradesh,Vijayawada,"Rajiv Nagar, Vijayawada - APPCB",19-07-2024 16:00:00,16.554731,80.649110,CO,6,35,28
India,Andhra_Pradesh,Visakhapatnam,"GVM Corporation, Visakhapatnam - APPCB",19-07-2024 16:00:00,17.72,83.3,NO2,36,54,40
India,Andhra_Pradesh,Visakhapatnam,"GVM Corporation, Visakhapatnam - APPCB",19-07-2024 16:00:00,17.72,83.3,NH3,2,4,3
India,Andhra_Pradesh,Visakhapatnam,"GVM Corporation, Visakhapatnam - APPCB",19-07-2024 16:00:00,17.72,83.3,OZONE,11,23,14
India,Assam,Byrnihat,"Central Academy for SFS, Byrnihat - PCBA",19-07-2024 16:00:00,26.071318,91.87488,SO2,NA,NA,NA
India,Assam,Guwahati,"Pan Bazaar, Guwahati - PCBA",19-07-2024 16:00:00,26.187500,91.744194,OZONE,NA,NA,NA
India,Assam,Guwahati,"Railway Colony, Guwahati - PCBA",19-07-2024 16:00:00,26.181742,91.78063,PM2.5,28,130,58
India,Assam,Nagaon,"Christianpatty, Nagaon - PCBA",19-07-2024 16:00:00,26.349082,92.68449,PM10,15,42,20
India,Assam,Silchar,"Tarapur, Silchar - PCBA",19-07-2024 16:00:00,24.82827,92.79525,PM10,45,53,48
India,Assam,Sivasagar,"Girls College, Sivasagar - PCBA",19-07-2024 16:00:00,26.987634,94.636574,NH3,1,1,1
India,Bihar,Araria,"Kharahiya Basti, Araria - BSPCB",19-07-2024 16:00:00,26.146529,87.454184,PM2.5,NA,NA,NA
India,Bihar,Arrah,"New DM Office, Arrah - BSPCB",19-07-2024 16:00:00,25.5626095,84.663264,SO2,6,11,9
India,Bihar,Aurangabad,"Gurdeo Nagar, Aurangabad - BSPCB",19-07-2024 16:00:00,24.75746,84.366208,NH3,2,4,3
India,Bihar,Bettiah,"Kamalnath Nagar, Bettiah - BSPCB",19-07-2024 16:00:00,26.80365,84.51954,CO,32,56,45
India,Bihar,Bhagalpur,"DM Office_Kachari Chowk, Bhagalpur - BSPCB",19-07-2024 16:00:00,25.251013,86.989001,OZONE,44,52,47
India,Bihar,Bhagalpur,"Mayaganj, Bhagalpur - BSPCB",19-07-2024 16:00:00,25.265194,87.012947,NH3,6,8,8
India,Bihar,Bihar Sharif,"D M Colony, Bihar Sharif - BSPCB",19-07-2024 16:00:00,25.204762,85.514960,PM10,NA,NA,NA
India,Bihar,Bihar Sharif,"D M Colony, Bihar Sharif - BSPCB",19-07-2024 16:00:00,25.204762,85.514960,CO,18,40,23
India,Bihar,Buxar,"Charitra Van, Buxar - BSPCB (Formerly known as Central Jail)",19-07-2024 16:00:00,25.567520,83.966379,CO,30,50,42
India,Bihar,Gaya,"Collectorate, Gaya - BSPCB",19-07-2024 16:00:00,24.7955,84.9994,NO2,6,8,6
India,Bihar,Gaya,"Kareemganj, Gaya - BSPCB",19-07-2024 16:00:00,24.792403,84.992416,PM2.5,10,163,51
India,Bihar,Gaya,"SFTI Kusdihra, Gaya - BSPCB",19-07-2024 16:00:00,24.762518,84.982348,PM2.5,18,51,37
India,Bihar,Gaya,"SFTI Kusdihra, Gaya - BSPCB",19-07-2024 16:00:00,24.762518,84.982348,CO,22,31,28
India,Bihar,Hajipur,"Industrial Area, Hajipur - BSPCB",19-07-2024 16:00:00,25.697189,85.245900,SO2,5,8,7
India,Bihar,Hajipur,"Industrial Area, Hajipur - BSPCB",19-07-2024 16:00:00,25.697189,85.245900,OZONE,23,80,36
India,Bihar,Katihar,"Mirchaibari, Katihar - BSPCB",19-07-2024 16:00:00,25.560083,87.553265,PM2.5,NA,NA,NA
India,Bihar,Katihar,"Mirchaibari, Katihar - BSPCB",19-07-2024 16:00:00,25.560083,87.553265,NH3,2,7,3
India,Bihar,Katihar,"Mirchaibari, Katihar - BSPCB",19-07-2024 16:00:00,25.560083,87.553265,SO2,4,14,10
India,Bihar,Motihari,"Gandak Colony, Motihari - BSPCB",19-07-2024 16:00:00,26.63086,84.90051,PM10,NA,NA,NA
India,Bihar,Munger,"Town Hall, Munger - BSPCB",19-07-2024 16:00:00,25.376776,86.471523,PM2.5,28,500,347
India,Bihar,Munger,"Town Hall, Munger - BSPCB",19-07-2024 16:00:00,25.376776,86.471523,CO,14,40,32
India,Bihar,Muzaffarpur,"Buddha Colony, Muzaffarpur - BSPCB",19-07-2024 16:00:00,26.11442,85.39813,CO,30,40,34
India,Bihar,Muzaffarpur,"MIT-Daudpur Kothi, Muzaffarpur - BSPCB",19-07-2024 16:00:00,26.1403345,85.3650192,NH3,2,4,2
India,Bihar,Muzaffarpur,"MIT-Daudpur Kothi, Muzaffarpur - BSPCB",19-07-2024 16:00:00,26.1403345,85.3650192,SO2,8,13,11
India,Bihar,Muzaffarpur,"MIT-Daudpur Kothi, Muzaffarpur - BSPCB",19-07-2024 16:00:00,26.1403345,85.3650192,CO,7,115,99
India,Bihar,Muzaffarpur,"Muzaffarpur Collectorate, Muzaffarpur - BSPCB",19-07-2024 16:00:00,26.1209,85.3647,SO2,8,19,15
India,Bihar,Muzaffarpur,"Muzaffarpur Collectorate, Muzaffarpur - BSPCB",19-07-2024 16:00:00,26.1209,85.3647,OZONE,43,115,94
India,Bihar,Patna,"Govt. High School Shikarpur, Patna - BSPCB",19-07-2024 16:00:00,25.592539,85.227158,PM2.5,39,68,53
India,Bihar,Patna,"IGSC Planetarium Complex, Patna - BSPCB",19-07-2024 16:00:00,25.610369,85.132568,PM2.5,30,112,64
India,Bihar,Patna,"IGSC Planetarium Complex, Patna - BSPCB",19-07-2024 16:00:00,25.610369,85.132568,NO2,12,12,12
India,Bihar,Patna,"Muradpur, Patna - BSPCB",19-07-2024 16:00:00,25.619651,85.147382,NH3,1,10,3
India,Bihar,Patna,"Muradpur, Patna - BSPCB",19-07-2024 16:00:00,25.619651,85.147382,SO2,3,6,5
India,Bihar,Patna,"Muradpur, Patna - BSPCB",19-07-2024 16:00:00,25.619651,85.147382,OZONE,5,62,36
India,Bihar,Patna,"Rajbansi Nagar, Patna - BSPCB",19-07-2024 16:00:00,25.599486,85.113666,NH3,2,5,4
India,Bihar,Patna,"Rajbansi Nagar, Patna - BSPCB",19-07-2024 16:00:00,25.599486,85.113666,SO2,1,5,3
India,Bihar,Patna,"Samanpura, Patna - BSPCB",19-07-2024 16:00:00,25.596727,85.085624,PM10,62,117,95
India,Bihar,Patna,"Samanpura, Patna - BSPCB",19-07-2024 16:00:00,25.596727,85.085624,NH3,8,16,12
India,Bihar,Purnia,"Mariam Nagar, Purnia - BSPCB",19-07-2024 16:00:00,25.366336,87.117468,CO,12,63,55
India,Bihar,Rajgir,"Dangi Tola, Rajgir - BSPCB",19-07-2024 16:00:00,25.03280,85.41948,SO2,4,4,4
India,Bihar,Samastipur,"DM Office_Kasipur, Samastipur - BSPCB",19-07-2024 16:00:00,25.859655,85.77944,PM2.5,38,177,77
India,Bihar,Samastipur,"DM Office_Kasipur, Samastipur - BSPCB",19-07-2024 16:00:00,25.859655,85.77944,PM10,41,133,75
India,Bihar,Siwan,"Chitragupta Nagar, Siwan - BSPCB",19-07-2024 16:00:00,26.2271665,84.3570427,PM2.5,NA,NA,NA
India,Chandigarh,Chandigarh,"Sector 22, Chandigarh - CPCC",19-07-2024 16:00:00,30.735567,76.775714,PM2.5,13,137,64
India,Chandigarh,Chandigarh,"Sector 22, Chandigarh - CPCC",19-07-2024 16:00:00,30.735567,76.775714,SO2,2,7,5
India,Chandigarh,Chandigarh,"Sector-25, Chandigarh - CPCC",19-07-2024 16:00:00,30.751462,76.762879,PM10,33,105,68
India,Chhattisgarh,Bhilai,"32Bungalows, Bhilai - CECB",19-07-2024 16:00:00,21.194815,81.314770,PM2.5,28,54,39
India,Chhattisgarh,Bhilai,"32Bungalows, Bhilai - CECB",19-07-2024 16:00:00,21.194815,81.314770,NO2,7,10,8
India,Chhattisgarh,Bhilai,"Hathkhoj, Bhilai - CECB",19-07-2024 16:00:00,21.224231,81.408350,PM10,33,149,79
India,Chhattisgarh,Bilaspur,"Mangala, Bilaspur - NTPC",19-07-2024 16:00:00,22.08815,82.13737,PM2.5,19,84,49
India,Chhattisgarh,Chhal,"Nawapara SECL Colony, Chhal - CECB",19-07-2024 16:00:00,22.118125,83.140608,NO2,26,58,38
India,Chhattisgarh,Korba,"Rampur, Korba - CECB",19-07-2024 16:00:00,22.368195,82.746431,NO2,16,24,20
India,Chhattisgarh,Korba,"Rampur, Korba - CECB",19-07-2024 16:00:00,22.368195,82.746431,NH3,1,1,1
India,Chhattisgarh,Kunjemura,"OP Jindal School, Kunjemura - CECB",19-07-2024 16:00:00,22.126650,83.483212,PM2.5,12,39,25
India,Chhattisgarh,Kunjemura,"OP Jindal School, Kunjemura - CECB",19-07-2024 16:00:00,22.126650,83.483212,PM10,7,93,43
India,Chhattisgarh,Raipur,"Bhatagaon New ISBT, Raipur - CECB",19-07-2024 16:00:00,21.219665,81.630094,PM10,24,73,57
India,Chhattisgarh,Raipur,"Bhatagaon New ISBT, Raipur - CECB",19-07-2024 16:00:00,21.219665,81.630094,NO2,4,4,4
India,Chhattisgarh,Raipur,"Bhatagaon New ISBT, Raipur - CECB",19-07-2024 16:00:00,21.219665,81.630094,CO,16,42,27
India,Chhattisgarh,Raipur,"Siltara Phase-II, Raipur - CECB",19-07-2024 16:00:00,21.371751,81.664929,NO2,11,57,22
India,Chhattisgarh,Tumidih,"OP Jindal Industrial Park, Tumidih - CECB",19-07-2024 16:00:00,22.06631475,83.33820077,PM2.5,NA,NA,NA
India,Chhattisgarh,Tumidih,"OP Jindal Industrial Park, Tumidih - CECB",19-07-2024 16:00:00,22.06631475,83.33820077,PM10,NA,NA,NA
India,Chhattisgarh,Tumidih,"OP Jindal Industrial Park, Tumidih - CECB",19-07-2024 16:00:00,22.06631475,83.33820077,NH3,NA,NA,NA
India,Delhi,Delhi,"Alipur, Delhi - DPCC",19-07-2024 16:00:00,28.815329,77.153010,NO2,21,62,37
India,Delhi,Delhi,"Alipur, Delhi - DPCC",19-07-2024 16:00:00,28.815329,77.153010,CO,9,36,17
India,Delhi,Delhi,"Anand Vihar, Delhi - DPCC",19-07-2024 16:00:00,28.647622,77.3158090,NH3,4,20,13
India,Delhi,Delhi,"Anand Vihar, Delhi - DPCC",19-07-2024 16:00:00,28.647622,77.3158090,CO,40,105,50
India,Delhi,Delhi,"Anand Vihar, Delhi - DPCC",19-07-2024 16:00:00,28.647622,77.3158090,OZONE,43,96,68
India,Delhi,Delhi,"Ashok Vihar, Delhi - DPCC",19-07-2024 16:00:00,28.695381,77.181665,PM2.5,48,213,123
India,Delhi,Delhi,"Ashok Vihar, Delhi - DPCC",19-07-2024 16:00:00,28.695381,77.181665,NO2,32,101,58
India,Delhi,Delhi,"Ashok Vihar, Delhi - DPCC",19-07-2024 16:00:00,28.695381,77.181665,CO,8,81,31
India,Delhi,Delhi,"Bawana, Delhi - DPCC",19-07-2024 16:00:00,28.776200,77.051074,PM2.5,45,172,103
India,Delhi,Delhi,"Bawana, Delhi - DPCC",19-07-2024 16:00:00,28.776200,77.051074,NO2,9,46,24
India,Delhi,Delhi,"Bawana, Delhi - DPCC",19-07-2024 16:00:00,28.776200,77.051074,CO,32,72,40
India,Delhi,Delhi,"CRRI Mathura Road, Delhi - IMD",19-07-2024 16:00:00,28.5512005,77.2735737,NO2,8,51,18
India,Delhi,Delhi,"Chandni Chowk, Delhi - IITM",19-07-2024 16:00:00,28.656756,77.227234,CO,10,46,25
India,Delhi,Delhi,"DTU, Delhi - CPCB",19-07-2024 16:00:00,28.7500499,77.1112615,SO2,45,58,47
India,Delhi,Delhi,"DTU, Delhi - CPCB",19-07-2024 16:00:00,28.7500499,77.1112615,CO,48,74,57
India,Delhi,Delhi,"Dr. Karni Singh Shooting Range, Delhi - DPCC",19-07-2024 16:00:00,28.498571,77.264840,NH3,6,17,12
India,Delhi,Delhi,"Dwarka-Sector 8, Delhi - DPCC ",19-07-2024 16:00:00,28.5710274,77.0719006,PM2.5,47,253,108
India,Delhi,Delhi,"IGI Airport (T3), Delhi - IMD",19-07-2024 16:00:00,28.5627763,77.1180053,NO2,10,40,25
India,Delhi,Delhi,"IGI Airport (T3), Delhi - IMD",19-07-2024 16:00:00,28.5627763,77.1180053,CO,38,83,55
India,Delhi,Delhi,"IHBAS, Dilshad Garden, Delhi - CPCB",19-07-2024 16:00:00,28.6811736,77.3025234,PM2.5,42,89,54
India,Delhi,Delhi,"ITO, Delhi - CPCB",19-07-2024 16:00:00,28.628624,77.241060,PM2.5,54,346,125
India,Delhi,Delhi,"ITO, Delhi - CPCB",19-07-2024 16:00:00,28.628624,77.241060,SO2,4,21,14
India,Delhi,Delhi,"Jahangirpuri, Delhi - DPCC",19-07-2024 16:00:00,28.732820,77.170633,SO2,11,29,23
India,Delhi,Delhi,"Jawaharlal Nehru Stadium, Delhi - DPCC",19-07-2024 16:00:00,28.580280,77.233829,PM10,51,119,92
India,Delhi,Delhi,"Lodhi Road, Delhi - IMD",19-07-2024 16:00:00,28.5918245,77.2273074,CO,34,52,42
India,Delhi,Delhi,"Major Dhyan Chand National Stadium, Delhi - DPCC",19-07-2024 16:00:00,28.611281,77.237738,PM2.5,45,303,107
India,Delhi,Delhi,"Major Dhyan Chand National Stadium, Delhi - DPCC",19-07-2024 16:00:00,28.611281,77.237738,CO,19,76,37
India,Delhi,Delhi,"Major Dhyan Chand National Stadium, Delhi - DPCC",19-07-2024 16:00:00,28.611281,77.237738,OZONE,2,35,19
India,Delhi,Delhi,"Mandir Marg, Delhi - DPCC",19-07-2024 16:00:00,28.636429,77.201067,NH3,5,9,7
India,Delhi,Delhi,"Mandir Marg, Delhi - DPCC",19-07-2024 16:00:00,28.636429,77.201067,SO2,6,17,12
India,Delhi,Delhi,"Mandir Marg, Delhi - DPCC",19-07-2024 16:00:00,28.636429,77.201067,CO,28,68,41
India,Delhi,Delhi,"NSIT Dwarka, Delhi - CPCB",19-07-2024 16:00:00,28.60909,77.0325413,CO,23,67,46
India,Delhi,Delhi,"Najafgarh, Delhi - DPCC",19-07-2024 16:00:00,28.570173,76.933762,PM10,29,124,79
India,Delhi,Delhi,"Najafgarh, Delhi - DPCC",19-07-2024 16:00:00,28.570173,76.933762,OZONE,6,33,26
India,Delhi,Delhi,"Narela, Delhi - DPCC",19-07-2024 16:00:00,28.822836,77.101981,PM2.5,30,164,89
India,Delhi,Delhi,"Okhla Phase-2, Delhi - DPCC",19-07-2024 16:00:00,28.530785,77.271255,PM10,61,226,129
India,Delhi,Delhi,"Okhla Phase-2, Delhi - DPCC",19-07-2024 16:00:00,28.530785,77.271255,CO,46,101,57
India,Delhi,Delhi,"Patparganj, Delhi - DPCC",19-07-2024 16:00:00,28.623763,77.287209,NH3,5,12,8
India,Delhi,Delhi,"Patparganj, Delhi - DPCC",19-07-2024 16:00:00,28.623763,77.287209,CO,10,64,18
India,Delhi,Delhi,"Punjabi Bagh, Delhi - DPCC",19-07-2024 16:00:00,28.674045,77.131023,PM10,101,197,138
India,Delhi,Delhi,"Pusa, Delhi - DPCC",19-07-2024 16:00:00,28.639652,77.146275,SO2,1,9,4
India,Delhi,Delhi,"Pusa, Delhi - DPCC",19-07-2024 16:00:00,28.639652,77.146275,CO,27,101,39
India,Delhi,Delhi,"R K Puram, Delhi - DPCC",19-07-2024 16:00:00,28.563262,77.186937,PM2.5,57,336,163
India,Delhi,Delhi,"Rohini, Delhi - DPCC",19-07-2024 16:00:00,28.732528,77.119920,PM2.5,48,302,130
India,Delhi,Delhi,"Shadipur, Delhi - CPCB",19-07-2024 16:00:00,28.6514781,77.1473105,PM2.5,36,85,62
India,Delhi,Delhi,"Shadipur, Delhi - CPCB",19-07-2024 16:00:00,28.6514781,77.1473105,PM10,50,113,86
India,Delhi,Delhi,"Sonia Vihar, Delhi - DPCC",19-07-2024 16:00:00,28.710508,77.249485,NH3,6,31,11
India,Delhi,Delhi,"Sonia Vihar, Delhi - DPCC",19-07-2024 16:00:00,28.710508,77.249485,SO2,3,16,6
India,Delhi,Delhi,"Sri Aurobindo Marg, Delhi - DPCC",19-07-2024 16:00:00,28.531346,77.190156,NO2,7,54,31
India,Delhi,Delhi,"Sri Aurobindo Marg, Delhi - DPCC",19-07-2024 16:00:00,28.531346,77.190156,SO2,10,15,13
India,Delhi,Delhi,"Sri Aurobindo Marg, Delhi - DPCC",19-07-2024 16:00:00,28.531346,77.190156,OZONE,28,71,39
India,Delhi,Delhi,"Vivek Vihar, Delhi - DPCC",19-07-2024 16:00:00,28.672342,77.315260,NH3,16,17,17
India,Delhi,Delhi,"Wazirpur, Delhi - DPCC",19-07-2024 16:00:00,28.699793,77.165453,PM10,81,272,155
India,Delhi,Delhi,"Wazirpur, Delhi - DPCC",19-07-2024 16:00:00,28.699793,77.165453,OZONE,2,14,8
India,Gujarat,Ahmedabad,"Chandkheda, Ahmedabad - IITM",19-07-2024 16:00:00,23.107969,72.574648,SO2,8,107,18
India,Gujarat,Ahmedabad,"Maninagar, Ahmedabad - GPCB",19-07-2024 16:00:00,23.002657,72.591912,PM10,34,93,56
India,Gujarat,Ahmedabad,"Maninagar, Ahmedabad - GPCB",19-07-2024 16:00:00,23.002657,72.591912,OZONE,59,131,74
India,Gujarat,Ahmedabad,"Raikhad, Ahmedabad - IITM",19-07-2024 16:00:00,23.020509,72.579261,PM10,20,102,49
India,Gujarat,Ahmedabad,"Rakhial, Ahmedabad - IITM",19-07-2024 16:00:00,23.016834,72.625775,PM10,18,66,37
India,Gujarat,Ahmedabad,"SVPI Airport Hansol, Ahmedabad - IITM",19-07-2024 16:00:00,23.076793,72.627874,NO2,57,87,66
India,Gujarat,Ahmedabad,"SVPI Airport Hansol, Ahmedabad - IITM",19-07-2024 16:00:00,23.076793,72.627874,CO,16,24,21
India,Gujarat,Ankleshwar,"GIDC, Ankleshwar - GPCB",19-07-2024 16:00:00,21.613267,73.010555,PM10,17,34,25
India,Gujarat,Ankleshwar,"GIDC, Ankleshwar - GPCB",19-07-2024 16:00:00,21.613267,73.010555,NH3,2,3,2
India,Gujarat,Ankleshwar,"GIDC, Ankleshwar - GPCB",19-07-2024 16:00:00,21.613267,73.010555,SO2,9,41,25
India,Gujarat,Gandhinagar,"GIFT City, Gandhinagar - IITM",19-07-2024 16:00:00,23.163798,72.677768,CO,16,32,23
India,Gujarat,Surat,"Science Center, Surat - SMC",19-07-2024 16:00:00,21.170046,72.795405,NO2,21,38,28
India,Gujarat,Vapi,"Phase-1 GIDC, Vapi - GPCB",19-07-2024 16:00:00,20.362421,72.918013,PM10,10,30,18
India,Gujarat,Vatva,"Phase-4 GIDC, Vatva - GPCB",19-07-2024 16:00:00,22.969611,72.643500,CO,20,36,36
India,Haryana,Ambala,"Patti Mehar, Ambala - HSPCB",19-07-2024 16:00:00,30.379589,76.778328,PM10,33,87,56
India,Haryana,Ambala,"Patti Mehar, Ambala - HSPCB",19-07-2024 16:00:00,30.379589,76.778328,OZONE,39,52,45
India,Haryana,Bahadurgarh,"Arya Nagar, Bahadurgarh - HSPCB",19-07-2024 16:00:00,28.6701,76.9254,PM10,60,114,80
India,Haryana,Bahadurgarh,"Arya Nagar, Bahadurgarh - HSPCB",19-07-2024 16:00:00,28.6701,76.9254,SO2,3,10,7
India,Haryana,Bahadurgarh,"Arya Nagar, Bahadurgarh - HSPCB",19-07-2024 16:00:00,28.6701,76.9254,CO,36,43,39
India,Haryana,Ballabgarh,"Nathu Colony, Ballabgarh - HSPCB",19-07-2024 16:00:00,28.3419248,77.319699,SO2,2,10,8
India,Haryana,Ballabgarh,"Nathu Colony, Ballabgarh - HSPCB",19-07-2024 16:00:00,28.3419248,77.319699,CO,6,37,19
India,Haryana,Ballabgarh,"Nathu Colony, Ballabgarh - HSPCB",19-07-2024 16:00:00,28.3419248,77.319699,OZONE,23,39,31
India,Haryana,Charkhi Dadri,"Mini Secretariat, Charkhi Dadri - HSPCB",19-07-2024 16:00:00,28.593883,76.270653,PM2.5,43,116,70
India,Haryana,Charkhi Dadri,"Mini Secretariat, Charkhi Dadri - HSPCB",19-07-2024 16:00:00,28.593883,76.270653,PM10,34,86,56
India,Haryana,Charkhi Dadri,"Mini Secretariat, Charkhi Dadri - HSPCB",19-07-2024 16:00:00,28.593883,76.270653,NO2,15,23,18
India,Haryana,Faridabad,"New Industrial Town, Faridabad - HSPCB",19-07-2024 16:00:00,28.39072,77.30059,NO2,7,14,13
India,Haryana,Faridabad,"Sector 30, Faridabad - HSPCB",19-07-2024 16:00:00,28.4417,77.3217,NH3,3,3,3
India,Haryana,Fatehabad,"Huda Sector, Fatehabad - HSPCB",19-07-2024 16:00:00,29.503664,75.467934,NO2,29,31,30
India,Haryana,Gurugram,"Sector-51, Gurugram - HSPCB",19-07-2024 16:00:00,28.4227,77.0667,PM2.5,48,163,80
India,Haryana,Gurugram,"Sector-51, Gurugram - HSPCB",19-07-2024 16:00:00,28.4227,77.0667,NH3,6,14,9
India,Haryana,Gurugram,"Sector-51, Gurugram - HSPCB",19-07-2024 16:00:00,28.4227,77.0667,SO2,2,6,4
India,Haryana,Gurugram,"Teri Gram, Gurugram - HSPCB",19-07-2024 16:00:00,28.4275,77.1465,PM10,34,152,66
India,Haryana,Gurugram,"Teri Gram, Gurugram - HSPCB",19-07-2024 16:00:00,28.4275,77.1465,NH3,22,37,27
India,Haryana,Gurugram,"Teri Gram, Gurugram - HSPCB",19-07-2024 16:00:00,28.4275,77.1465,CO,2,89,46
India,Haryana,Gurugram,"Vikas Sadan, Gurugram - HSPCB",19-07-2024 16:00:00,28.4501238,77.0263051,PM2.5,51,133,77
India,Haryana,Gurugram,"Vikas Sadan, Gurugram - HSPCB",19-07-2024 16:00:00,28.4501238,77.0263051,CO,48,128,86
India,Haryana,Hisar,"Urban Estate-II, Hisar - HSPCB",19-07-2024 16:00:00,29.140560,75.744941,CO,42,100,84
India,Haryana,Jind,"Police Lines, Jind - HSPCB",19-07-2024 16:00:00,29.307814,76.337619,SO2,1,2,1
India,Haryana,Jind,"Police Lines, Jind - HSPCB",19-07-2024 16:00:00,29.307814,76.337619,CO,1,92,11
India,Haryana,Jind,"Police Lines, Jind - HSPCB",19-07-2024 16:00:00,29.307814,76.337619,OZONE,42,108,90
India,Haryana,Kaithal,"Rishi Nagar, Kaithal - HSPCB",19-07-2024 16:00:00,29.8006,76.4155,PM10,49,96,69
India,Haryana,Karnal,"Sector-12, Karnal - HSPCB",19-07-2024 16:00:00,29.695300,77.002700,CO,22,37,30
India,Haryana,Karnal,"Sector-12, Karnal - HSPCB",19-07-2024 16:00:00,29.695300,77.002700,OZONE,10,45,44
India,Haryana,Kurukshetra,"Sector-7, Kurukshetra - HSPCB",19-07-2024 16:00:00,29.966942,76.875879,OZONE,10,139,68
India,Haryana,Mandikhera,"General Hospital, Mandikhera - HSPCB",19-07-2024 16:00:00,27.9002,76.9938,PM2.5,16,26,24
India,Haryana,Manesar,"Sector-2 IMT, Manesar - HSPCB",19-07-2024 16:00:00,28.360699,76.936090,NH3,1,3,2
India,Haryana,Narnaul,"Shastri Nagar, Narnaul - HSPCB",19-07-2024 16:00:00,28.060249,76.113115,PM10,11,71,34
India,Haryana,Palwal,"Shyam Nagar, Palwal - HSPCB",19-07-2024 16:00:00,28.1485564,77.3320667,PM2.5,NA,NA,NA
India,Haryana,Palwal,"Shyam Nagar, Palwal - HSPCB",19-07-2024 16:00:00,28.1485564,77.3320667,PM10,NA,NA,NA
India,Haryana,Panchkula,"Sector-6, Panchkula - HSPCB ",19-07-2024 16:00:00,30.7057778,76.8531805555555,OZONE,29,60,37
India,Haryana,Panipat,"Sector-18, Panipat - HSPCB",19-07-2024 16:00:00,29.432304,76.972765,SO2,18,19,19
India,Haryana,Panipat,"Sector-18, Panipat - HSPCB",19-07-2024 16:00:00,29.432304,76.972765,OZONE,30,30,30
India,Haryana,Rohtak,"MD University, Rohtak - HSPCB",19-07-2024 16:00:00,28.52123,76.37138,PM2.5,26,306,106
India,Haryana,Sirsa,"F-Block, Sirsa - HSPCB",19-07-2024 16:00:00,29.536400,75.015800,NO2,9,13,10
India,Haryana,Sirsa,"F-Block, Sirsa - HSPCB",19-07-2024 16:00:00,29.536400,75.015800,NH3,11,14,12
India,Haryana,Sirsa,"F-Block, Sirsa - HSPCB",19-07-2024 16:00:00,29.536400,75.015800,CO,26,69,57
India,Haryana,Sirsa,"F-Block, Sirsa - HSPCB",19-07-2024 16:00:00,29.536400,75.015800,OZONE,14,133,73
India,Haryana,Sonipat,"Murthal, Sonipat - HSPCB",19-07-2024 16:00:00,29.027200,77.062100,CO,24,26,25
India,Haryana,Yamuna Nagar,"Gobind Pura, Yamuna Nagar - HSPCB",19-07-2024 16:00:00,30.1480566,77.2893471,SO2,1,103,7
India,Jammu_and_Kashmir,Srinagar,"Rajbagh, Srinagar - JKSPCB",19-07-2024 16:00:00,34.066206,74.819820,PM2.5,19,55,37
India,Jammu_and_Kashmir,Srinagar,"Rajbagh, Srinagar - JKSPCB",19-07-2024 16:00:00,34.066206,74.819820,NH3,1,1,1
India,Jammu_and_Kashmir,Srinagar,"Rajbagh, Srinagar - JKSPCB",19-07-2024 16:00:00,34.066206,74.819820,SO2,6,106,24
India,Jammu_and_Kashmir,Srinagar,"Rajbagh, Srinagar - JKSPCB",19-07-2024 16:00:00,34.066206,74.819820,CO,12,20,14
India,Jammu_and_Kashmir,Srinagar,"Rajbagh, Srinagar - JKSPCB",19-07-2024 16:00:00,34.066206,74.819820,OZONE,12,29,21
India,Jharkhand,Jorapokhar,"Tata Stadium, Jorapokhar - JSPCB",19-07-2024 16:00:00,23.707909,86.414670,SO2,NA,NA,NA
India,Karnataka,Bagalkot,"Vidayagiri, Bagalkot - KSPCB",19-07-2024 16:00:00,16.172806,75.659694,PM10,42,54,43
India,Karnataka,Bagalkot,"Vidayagiri, Bagalkot - KSPCB",19-07-2024 16:00:00,16.172806,75.659694,OZONE,11,23,20
India,Karnataka,Belgaum,"Ramteerth Nagar, Belgaum - KSPCB",19-07-2024 16:00:00,15.888653,74.541751,PM10,7,61,28
India,Karnataka,Bengaluru,"BTM Layout, Bengaluru - CPCB",19-07-2024 16:00:00,12.9135218,77.5950804,CO,25,25,25
India,Karnataka,Bengaluru,"Bapuji Nagar, Bengaluru - KSPCB",19-07-2024 16:00:00,12.951913,77.539784,PM2.5,7,23,11
India,Karnataka,Bengaluru,"Hombegowda Nagar, Bengaluru - KSPCB",19-07-2024 16:00:00,12.938539,77.590100,PM2.5,2,12,7
India,Karnataka,Bengaluru,"Hombegowda Nagar, Bengaluru - KSPCB",19-07-2024 16:00:00,12.938539,77.590100,NO2,7,14,10
India,Karnataka,Bengaluru,"Hombegowda Nagar, Bengaluru - KSPCB",19-07-2024 16:00:00,12.938539,77.590100,NH3,1,1,1
India,Karnataka,Bengaluru,"Hombegowda Nagar, Bengaluru - KSPCB",19-07-2024 16:00:00,12.938539,77.590100,OZONE,7,16,11
India,Karnataka,Bengaluru,"Jayanagar 5th Block, Bengaluru - KSPCB",19-07-2024 16:00:00,12.920984,77.584908,PM2.5,10,31,16
India,Karnataka,Bengaluru,"Jayanagar 5th Block, Bengaluru - KSPCB",19-07-2024 16:00:00,12.920984,77.584908,PM10,8,30,15
India,Karnataka,Bengaluru,"Jayanagar 5th Block, Bengaluru - KSPCB",19-07-2024 16:00:00,12.920984,77.584908,NH3,2,2,2
India,Karnataka,Bengaluru,"Jayanagar 5th Block, Bengaluru - KSPCB",19-07-2024 16:00:00,12.920984,77.584908,CO,NA,NA,NA
India,Karnataka,Bengaluru,"Jigani, Bengaluru - KSPCB",19-07-2024 16:00:00,12.7816279,77.6299145,PM10,30,40,34
India,Karnataka,Bengaluru,"Kasturi Nagar, Bengaluru - KSPCB",19-07-2024 16:00:00,13.003872,77.664217,PM10,35,42,37
India,Karnataka,Bengaluru,"Kasturi Nagar, Bengaluru - KSPCB",19-07-2024 16:00:00,13.003872,77.664217,NO2,16,17,16
India,Karnataka,Bengaluru,"Peenya, Bengaluru - CPCB",19-07-2024 16:00:00,13.0270199,77.494094,NO2,35,36,36
India,Karnataka,Bengaluru,"RVCE-Mailasandra, Bengaluru - KSPCB",19-07-2024 16:00:00,12.921418,77.502466,PM2.5,37,68,52
India,Karnataka,Bengaluru,"RVCE-Mailasandra, Bengaluru - KSPCB",19-07-2024 16:00:00,12.921418,77.502466,OZONE,39,39,39
India,Karnataka,Bengaluru,"Sanegurava Halli, Bengaluru - KSPCB",19-07-2024 16:00:00,12.990328,77.5431385,NO2,19,24,22
India,Karnataka,Bengaluru,"Shivapura_Peenya, Bengaluru - KSPCB",19-07-2024 16:00:00,13.0246342,77.5080115,OZONE,53,57,54
India,Karnataka,Bengaluru,"Silk Board, Bengaluru - KSPCB",19-07-2024 16:00:00,12.917348,77.622813,SO2,7,11,9
