country,state,city,station,last_update,latitude,longitude,pollutant_id,pollutant_min,pollutant_max,pollutant_avg
India,Andhra_Pradesh,Kadapa,"Yerramukkapalli, Kadapa - APPCB",06-03-2024 20:00:00,14.465052,78.824187,OZONE,21,86,70
India,Andhra_Pradesh,Rajamahendravaram,"Anand Kala Kshetram, Rajamahendravaram - APPCB",06-03-2024 20:00:00,16.9872867,81.7363176,OZONE,14,30,28
India,Andhra_Pradesh,Tirupati,"Tirumala, Tirupati - APPCB",06-03-2024 20:00:00,13.67,79.35,PM10,41,113,71
India,Andhra_Pradesh,Tirupati,"Tirumala, Tirupati - APPCB",06-03-2024 20:00:00,13.67,79.35,NO2,25,58,37
India,Andhra_Pradesh,Tirupati,"Vaikuntapuram, Tirupati - APPCB",06-03-2024 20:00:00,13.615387,79.409230,PM10,27,159,76
India,Andhra_Pradesh,Tirupati,"Vaikuntapuram, Tirupati - APPCB",06-03-2024 20:00:00,13.615387,79.409230,SO2,5,5,5
India,Andhra_Pradesh,Vijayawada,"HB Colony, Vijayawada - APPCB",06-03-2024 20:00:00,16.536107,80.594233,PM2.5,50,126,77
India,Andhra_Pradesh,Vijayawada,"Rajiv Gandhi Park, Vijayawada - APPCB",06-03-2024 20:00:00,16.509717,80.612222,SO2,1,8,3
India,Andhra_Pradesh,Vijayawada,"Rajiv Nagar, Vijayawada - APPCB",06-03-2024 20:00:00,16.554731,80.649110,NO2,5,16,8
India,Andhra_Pradesh,Visakhapatnam,"GVM Corporation, Visakhapatnam - APPCB",06-03-2024 20:00:00,17.72,83.3,SO2,10,19,13
India,Andhra_Pradesh,Visakhapatnam,"GVM Corporation, Visakhapatnam - APPCB",06-03-2024 20:00:00,17.72,83.3,OZONE,6,77,20
India,Arunachal_Pradesh,Naharlagun,"Naharlagun, Naharlagun - APSPCB",06-03-2024 20:00:00,27.103358,93.679645,PM10,NA,NA,NA
India,Assam,Guwahati,"LGBI Airport, Guwahati - PCBA",06-03-2024 20:00:00,26.10887,91.589544,PM10,108,456,189
India,Assam,Guwahati,"LGBI Airport, Guwahati - PCBA",06-03-2024 20:00:00,26.10887,91.589544,NH3,1,6,3
India,Assam,Guwahati,"LGBI Airport, Guwahati - PCBA",06-03-2024 20:00:00,26.10887,91.589544,CO,14,70,34
India,Assam,Guwahati,"Pan Bazaar, Guwahati - PCBA",06-03-2024 20:00:00,26.187500,91.744194,PM2.5,50,113,80
India,Assam,Guwahati,"Pan Bazaar, Guwahati - PCBA",06-03-2024 20:00:00,26.187500,91.744194,NO2,2,19,9
India,Assam,Guwahati,"Railway Colony, Guwahati - PCBA",06-03-2024 20:00:00,26.181742,91.78063,SO2,5,11,7
India,Assam,Guwahati,"Railway Colony, Guwahati - PCBA",06-03-2024 20:00:00,26.181742,91.78063,CO,18,105,36
India,Assam,Nagaon,"Christianpatty, Nagaon - PCBA",06-03-2024 20:00:00,26.349082,92.68449,PM2.5,47,333,179
India,Assam,Nagaon,"Christianpatty, Nagaon - PCBA",06-03-2024 20:00:00,26.349082,92.68449,SO2,2,40,18
India,Assam,Nagaon,"Christianpatty, Nagaon - PCBA",06-03-2024 20:00:00,26.349082,92.68449,CO,17,90,42
India,Assam,Nalbari,"Bata Chowk, Nalbari - PCBA",06-03-2024 20:00:00,26.446912,91.439057,SO2,5,8,7
India,Assam,Silchar,"Tarapur, Silchar - PCBA",06-03-2024 20:00:00,24.82827,92.79525,PM10,50,64,55
India,Assam,Sivasagar,"Girls College, Sivasagar - PCBA",06-03-2024 20:00:00,26.987634,94.636574,PM2.5,30,47,38
India,Assam,Sivasagar,"Girls College, Sivasagar - PCBA",06-03-2024 20:00:00,26.987634,94.636574,SO2,NA,NA,NA
India,Bihar,Arrah,"New DM Office, Arrah - BSPCB",06-03-2024 20:00:00,25.5626095,84.663264,PM10,40,115,71
India,Bihar,Bettiah,"Kamalnath Nagar, Bettiah - BSPCB",06-03-2024 20:00:00,26.80365,84.51954,PM2.5,NA,NA,NA
India,Bihar,Bettiah,"Kamalnath Nagar, Bettiah - BSPCB",06-03-2024 20:00:00,26.80365,84.51954,CO,62,72,69
India,Bihar,Bhagalpur,"DM Office_Kachari Chowk, Bhagalpur - BSPCB",06-03-2024 20:00:00,25.251013,86.989001,PM2.5,32,150,56
India,Bihar,Bhagalpur,"DM Office_Kachari Chowk, Bhagalpur - BSPCB",06-03-2024 20:00:00,25.251013,86.989001,CO,55,96,78
India,Bihar,Bihar Sharif,"D M Colony, Bihar Sharif - BSPCB",06-03-2024 20:00:00,25.204762,85.514960,PM2.5,12,85,40
India,Bihar,Bihar Sharif,"D M Colony, Bihar Sharif - BSPCB",06-03-2024 20:00:00,25.204762,85.514960,NO2,9,11,10
India,Bihar,Bihar Sharif,"D M Colony, Bihar Sharif - BSPCB",06-03-2024 20:00:00,25.204762,85.514960,SO2,1,13,7
India,Bihar,Buxar,"Charitra Van, Buxar - BSPCB (Formerly known as Central Jail)",06-03-2024 20:00:00,25.567520,83.966379,PM2.5,NA,NA,NA
India,Bihar,Buxar,"Charitra Van, Buxar - BSPCB (Formerly known as Central Jail)",06-03-2024 20:00:00,25.567520,83.966379,SO2,NA,NA,NA
India,Bihar,Gaya,"Collectorate, Gaya - BSPCB",06-03-2024 20:00:00,24.7955,84.9994,NO2,1,4,2
India,Bihar,Gaya,"Collectorate, Gaya - BSPCB",06-03-2024 20:00:00,24.7955,84.9994,OZONE,47,77,59
India,Bihar,Gaya,"Kareemganj, Gaya - BSPCB",06-03-2024 20:00:00,24.792403,84.992416,NO2,30,31,31
India,Bihar,Gaya,"SFTI Kusdihra, Gaya - BSPCB",06-03-2024 20:00:00,24.762518,84.982348,CO,11,38,26
India,Bihar,Hajipur,"Industrial Area, Hajipur - BSPCB",06-03-2024 20:00:00,25.697189,85.245900,NH3,9,14,12
India,Bihar,Katihar,"Mirchaibari, Katihar - BSPCB",06-03-2024 20:00:00,25.560083,87.553265,NO2,9,26,17
India,Bihar,Katihar,"Mirchaibari, Katihar - BSPCB",06-03-2024 20:00:00,25.560083,87.553265,NH3,2,4,3
India,Bihar,Katihar,"Mirchaibari, Katihar - BSPCB",06-03-2024 20:00:00,25.560083,87.553265,CO,2,108,46
India,Bihar,Katihar,"Mirchaibari, Katihar - BSPCB",06-03-2024 20:00:00,25.560083,87.553265,OZONE,18,23,20
India,Bihar,Manguraha,"Forest Rest House, Manguraha - BSPCB",06-03-2024 20:00:00,27.308328,84.531742,PM2.5,22,177,52
India,Bihar,Motihari,"Gandak Colony, Motihari - BSPCB",06-03-2024 20:00:00,26.63086,84.90051,SO2,2,9,5
India,Bihar,Muzaffarpur,"Buddha Colony, Muzaffarpur - BSPCB",06-03-2024 20:00:00,26.11442,85.39813,CO,8,30,17
India,Bihar,Muzaffarpur,"MIT-Daudpur Kothi, Muzaffarpur - BSPCB",06-03-2024 20:00:00,26.1403345,85.3650192,PM2.5,25,70,43
India,Bihar,Muzaffarpur,"Muzaffarpur Collectorate, Muzaffarpur - BSPCB",06-03-2024 20:00:00,26.1209,85.3647,SO2,4,17,7
India,Bihar,Patna,"DRM Office Danapur, Patna - BSPCB",06-03-2024 20:00:00,25.586562,85.043586,CO,24,98,41
India,Bihar,Patna,"DRM Office Danapur, Patna - BSPCB",06-03-2024 20:00:00,25.586562,85.043586,OZONE,5,61,50
India,Bihar,Patna,"Govt. High School Shikarpur, Patna - BSPCB",06-03-2024 20:00:00,25.592539,85.227158,PM2.5,70,134,90
India,Bihar,Patna,"Govt. High School Shikarpur, Patna - BSPCB",06-03-2024 20:00:00,25.592539,85.227158,NH3,4,6,4
India,Bihar,Patna,"Govt. High School Shikarpur, Patna - BSPCB",06-03-2024 20:00:00,25.592539,85.227158,SO2,6,11,8
India,Bihar,Patna,"Govt. High School Shikarpur, Patna - BSPCB",06-03-2024 20:00:00,25.592539,85.227158,CO,23,44,33
India,Bihar,Patna,"IGSC Planetarium Complex, Patna - BSPCB",06-03-2024 20:00:00,25.610369,85.132568,PM2.5,28,118,58
India,Bihar,Patna,"IGSC Planetarium Complex, Patna - BSPCB",06-03-2024 20:00:00,25.610369,85.132568,OZONE,3,24,22
India,Bihar,Patna,"Rajbansi Nagar, Patna - BSPCB",06-03-2024 20:00:00,25.599486,85.113666,NH3,2,3,3
India,Bihar,Purnia,"Mariam Nagar, Purnia - BSPCB",06-03-2024 20:00:00,25.366336,87.117468,NH3,1,1,1
India,Bihar,Rajgir,"Dangi Tola, Rajgir - BSPCB",06-03-2024 20:00:00,25.03280,85.41948,OZONE,20,25,22
India,Bihar,Saharsa,"Police Line, Saharsa - BSPCB",06-03-2024 20:00:00,25.892357,86.590325,CO,20,48,30
India,Bihar,Sasaram,"Dada Peer, Sasaram - BSPCB",06-03-2024 20:00:00,24.952822,84.002396,PM2.5,22,89,48
India,Bihar,Sasaram,"Dada Peer, Sasaram - BSPCB",06-03-2024 20:00:00,24.952822,84.002396,SO2,19,28,23
India,Bihar,Siwan,"Chitragupta Nagar, Siwan - BSPCB",06-03-2024 20:00:00,26.2271665,84.3570427,SO2,4,35,29
India,Bihar,Siwan,"Chitragupta Nagar, Siwan - BSPCB",06-03-2024 20:00:00,26.2271665,84.3570427,OZONE,23,98,73
India,Chandigarh,Chandigarh,"Sector 22, Chandigarh - CPCC",06-03-2024 20:00:00,30.735567,76.775714,PM10,59,139,103
India,Chandigarh,Chandigarh,"Sector 22, Chandigarh - CPCC",06-03-2024 20:00:00,30.735567,76.775714,NO2,15,88,29
India,Chandigarh,Chandigarh,"Sector-25, Chandigarh - CPCC",06-03-2024 20:00:00,30.751462,76.762879,PM10,112,164,124
India,Chandigarh,Chandigarh,"Sector-25, Chandigarh - CPCC",06-03-2024 20:00:00,30.751462,76.762879,CO,14,30,18
India,Chandigarh,Chandigarh,"Sector-25, Chandigarh - CPCC",06-03-2024 20:00:00,30.751462,76.762879,OZONE,1,44,36
India,Chandigarh,Chandigarh,"Sector-53, Chandigarh - CPCC",06-03-2024 20:00:00,30.719859,76.738637,PM2.5,48,213,136
India,Chhattisgarh,Bhilai,"32Bungalows, Bhilai - CECB",06-03-2024 20:00:00,21.194815,81.314770,PM2.5,9,29,17
India,Chhattisgarh,Bhilai,"32Bungalows, Bhilai - CECB",06-03-2024 20:00:00,21.194815,81.314770,SO2,4,9,6
India,Chhattisgarh,Bhilai,"32Bungalows, Bhilai - CECB",06-03-2024 20:00:00,21.194815,81.314770,OZONE,3,28,14
India,Chhattisgarh,Bhilai,"Civic Center, Bhilai - Bhilai Steel Plant",06-03-2024 20:00:00,21.185571,81.343175,OZONE,8,70,55
India,Chhattisgarh,Bhilai,"Hathkhoj, Bhilai - CECB",06-03-2024 20:00:00,21.224231,81.408350,PM2.5,32,83,55
India,Chhattisgarh,Bhilai,"Hathkhoj, Bhilai - CECB",06-03-2024 20:00:00,21.224231,81.408350,NO2,14,48,28
India,Chhattisgarh,Bhilai,"Hathkhoj, Bhilai - CECB",06-03-2024 20:00:00,21.224231,81.408350,NH3,8,9,8
India,Chhattisgarh,Bhilai,"Hathkhoj, Bhilai - CECB",06-03-2024 20:00:00,21.224231,81.408350,CO,14,38,27
India,Chhattisgarh,Bilaspur,"Mangala, Bilaspur - NTPC",06-03-2024 20:00:00,22.08815,82.13737,PM10,18,79,43
India,Chhattisgarh,Bilaspur,"Mangala, Bilaspur - NTPC",06-03-2024 20:00:00,22.08815,82.13737,NO2,15,18,17
India,Chhattisgarh,Korba,"Rampur, Korba - CECB",06-03-2024 20:00:00,22.368195,82.746431,CO,18,41,23
India,Chhattisgarh,Korba,"Urja Nagar, Korba - CECB",06-03-2024 20:00:00,22.348441,82.549611,NH3,2,7,5
India,Chhattisgarh,Korba,"Urja Nagar, Korba - CECB",06-03-2024 20:00:00,22.348441,82.549611,CO,14,26,18
India,Chhattisgarh,Korba,"Urja Nagar, Korba - CECB",06-03-2024 20:00:00,22.348441,82.549611,OZONE,1,79,26
India,Chhattisgarh,Kunjemura,"OP Jindal School, Kunjemura - CECB",06-03-2024 20:00:00,22.126650,83.483212,PM10,53,212,114
India,Chhattisgarh,Kunjemura,"OP Jindal School, Kunjemura - CECB",06-03-2024 20:00:00,22.126650,83.483212,SO2,4,31,14
India,Chhattisgarh,Raipur,"AIIMS, Raipur - CECB",06-03-2024 20:00:00,21.258815,81.578979,CO,28,68,37
India,Chhattisgarh,Raipur,"Bhatagaon New ISBT, Raipur - CECB",06-03-2024 20:00:00,21.219665,81.630094,CO,15,60,27
India,Chhattisgarh,Raipur,"Krishak Nagar, Raipur - CECB",06-03-2024 20:00:00,21.237755,81.705301,SO2,4,45,16
India,Chhattisgarh,Raipur,"Siltara Phase-II, Raipur - CECB",06-03-2024 20:00:00,21.371751,81.664929,PM10,38,187,100
India,Chhattisgarh,Raipur,"Siltara Phase-II, Raipur - CECB",06-03-2024 20:00:00,21.371751,81.664929,NO2,48,78,58
India,Chhattisgarh,Raipur,"Siltara Phase-II, Raipur - CECB",06-03-2024 20:00:00,21.371751,81.664929,CO,29,57,38
India,Chhattisgarh,Tumidih,"OP Jindal Industrial Park, Tumidih - CECB",06-03-2024 20:00:00,22.06631475,83.33820077,PM2.5,35,53,45
India,Chhattisgarh,Tumidih,"OP Jindal Industrial Park, Tumidih - CECB",06-03-2024 20:00:00,22.06631475,83.33820077,PM10,39,100,72
India,Chhattisgarh,Tumidih,"OP Jindal Industrial Park, Tumidih - CECB",06-03-2024 20:00:00,22.06631475,83.33820077,NH3,1,3,2
India,Chhattisgarh,Tumidih,"OP Jindal Industrial Park, Tumidih - CECB",06-03-2024 20:00:00,22.06631475,83.33820077,SO2,5,14,9
India,Chhattisgarh,Tumidih,"OP Jindal Industrial Park, Tumidih - CECB",06-03-2024 20:00:00,22.06631475,83.33820077,CO,18,46,26
India,Delhi,Delhi,"Alipur, Delhi - DPCC",06-03-2024 20:00:00,28.815329,77.153010,OZONE,18,115,100
India,Delhi,Delhi,"Anand Vihar, Delhi - DPCC",06-03-2024 20:00:00,28.647622,77.3158090,PM2.5,53,205,127
India,Delhi,Delhi,"Anand Vihar, Delhi - DPCC",06-03-2024 20:00:00,28.647622,77.3158090,CO,50,78,67
India,Delhi,Delhi,"Ashok Vihar, Delhi - DPCC",06-03-2024 20:00:00,28.695381,77.181665,SO2,24,33,28
India,Delhi,Delhi,"Ashok Vihar, Delhi - DPCC",06-03-2024 20:00:00,28.695381,77.181665,CO,17,38,25
India,Delhi,Delhi,"Bawana, Delhi - DPCC",06-03-2024 20:00:00,28.776200,77.051074,NH3,4,7,5
India,Delhi,Delhi,"Bawana, Delhi - DPCC",06-03-2024 20:00:00,28.776200,77.051074,OZONE,7,107,83
India,Delhi,Delhi,"Burari Crossing, Delhi - IMD",06-03-2024 20:00:00,28.7256504,77.2011573,PM2.5,NA,NA,NA
India,Delhi,Delhi,"Burari Crossing, Delhi - IMD",06-03-2024 20:00:00,28.7256504,77.2011573,PM10,NA,NA,NA
India,Delhi,Delhi,"Chandni Chowk, Delhi - IITM",06-03-2024 20:00:00,28.656756,77.227234,PM2.5,25,265,113
India,Delhi,Delhi,"Chandni Chowk, Delhi - IITM",06-03-2024 20:00:00,28.656756,77.227234,SO2,7,40,26
India,Delhi,Delhi,"DTU, Delhi - CPCB",06-03-2024 20:00:00,28.7500499,77.1112615,NO2,25,40,32
India,Delhi,Delhi,"Dr. Karni Singh Shooting Range, Delhi - DPCC",06-03-2024 20:00:00,28.498571,77.264840,NH3,4,11,6
India,Delhi,Delhi,"Dr. Karni Singh Shooting Range, Delhi - DPCC",06-03-2024 20:00:00,28.498571,77.264840,CO,24,81,37
India,Delhi,Delhi,"Dwarka-Sector 8, Delhi - DPCC ",06-03-2024 20:00:00,28.5710274,77.0719006,SO2,3,15,8
India,Delhi,Delhi,"Dwarka-Sector 8, Delhi - DPCC ",06-03-2024 20:00:00,28.5710274,77.0719006,OZONE,1,80,59
India,Delhi,Delhi,"IGI Airport (T3), Delhi - IMD",06-03-2024 20:00:00,28.5627763,77.1180053,PM2.5,NA,NA,NA
India,Delhi,Delhi,"IGI Airport (T3), Delhi - IMD",06-03-2024 20:00:00,28.5627763,77.1180053,PM10,NA,NA,NA
India,Delhi,Delhi,"IHBAS, Dilshad Garden, Delhi - CPCB",06-03-2024 20:00:00,28.6811736,77.3025234,PM2.5,57,140,81
India,Delhi,Delhi,"IHBAS, Dilshad Garden, Delhi - CPCB",06-03-2024 20:00:00,28.6811736,77.3025234,SO2,12,26,20
India,Delhi,Delhi,"ITO, Delhi - CPCB",06-03-2024 20:00:00,28.628624,77.241060,CO,30,58,42
India,Delhi,Delhi,"Jahangirpuri, Delhi - DPCC",06-03-2024 20:00:00,28.732820,77.170633,PM2.5,72,311,159
India,Delhi,Delhi,"Jahangirpuri, Delhi - DPCC",06-03-2024 20:00:00,28.732820,77.170633,SO2,1,21,10
India,Delhi,Delhi,"Jawaharlal Nehru Stadium, Delhi - DPCC",06-03-2024 20:00:00,28.580280,77.233829,NO2,33,111,49
India,Delhi,Delhi,"Lodhi Road, Delhi - IITM",06-03-2024 20:00:00,28.588333,77.221667,CO,63,68,65
India,Delhi,Delhi,"Lodhi Road, Delhi - IMD",06-03-2024 20:00:00,28.5918245,77.2273074,PM2.5,NA,NA,NA
India,Delhi,Delhi,"Lodhi Road, Delhi - IMD",06-03-2024 20:00:00,28.5918245,77.2273074,OZONE,19,96,73
India,Delhi,Delhi,"Mandir Marg, Delhi - DPCC",06-03-2024 20:00:00,28.636429,77.201067,PM2.5,55,175,100
India,Delhi,Delhi,"Mandir Marg, Delhi - DPCC",06-03-2024 20:00:00,28.636429,77.201067,OZONE,10,10,10
India,Delhi,Delhi,"Mundka, Delhi - DPCC",06-03-2024 20:00:00,28.684678,77.076574,PM2.5,67,340,179
India,Delhi,Delhi,"Mundka, Delhi - DPCC",06-03-2024 20:00:00,28.684678,77.076574,SO2,12,47,18
India,Delhi,Delhi,"Mundka, Delhi - DPCC",06-03-2024 20:00:00,28.684678,77.076574,OZONE,29,45,44
India,Delhi,Delhi,"NSIT Dwarka, Delhi - CPCB",06-03-2024 20:00:00,28.60909,77.0325413,PM2.5,74,329,204
India,Delhi,Delhi,"Najafgarh, Delhi - DPCC",06-03-2024 20:00:00,28.570173,76.933762,SO2,10,17,12
India,Delhi,Delhi,"Najafgarh, Delhi - DPCC",06-03-2024 20:00:00,28.570173,76.933762,CO,25,66,37
India,Delhi,Delhi,"Najafgarh, Delhi - DPCC",06-03-2024 20:00:00,28.570173,76.933762,OZONE,20,161,135
India,Delhi,Delhi,"Nehru Nagar, Delhi - DPCC",06-03-2024 20:00:00,28.567890,77.250515,PM10,78,154,111
India,Delhi,Delhi,"North Campus, DU, Delhi - IMD",06-03-2024 20:00:00,28.6573814,77.1585447,OZONE,NA,NA,NA
India,Delhi,Delhi,"Okhla Phase-2, Delhi - DPCC",06-03-2024 20:00:00,28.530785,77.271255,PM10,88,143,112
India,Delhi,Delhi,"Okhla Phase-2, Delhi - DPCC",06-03-2024 20:00:00,28.530785,77.271255,NO2,42,102,59
India,Delhi,Delhi,"Okhla Phase-2, Delhi - DPCC",06-03-2024 20:00:00,28.530785,77.271255,OZONE,20,146,93
India,Delhi,Delhi,"Punjabi Bagh, Delhi - DPCC",06-03-2024 20:00:00,28.674045,77.131023,PM10,88,160,121
India,Delhi,Delhi,"Punjabi Bagh, Delhi - DPCC",06-03-2024 20:00:00,28.674045,77.131023,NO2,16,25,19
India,Delhi,Delhi,"Pusa, Delhi - DPCC",06-03-2024 20:00:00,28.639652,77.146275,PM2.5,79,271,135
India,Delhi,Delhi,"Pusa, Delhi - DPCC",06-03-2024 20:00:00,28.639652,77.146275,NH3,6,9,8
India,Delhi,Delhi,"R K Puram, Delhi - DPCC",06-03-2024 20:00:00,28.563262,77.186937,NH3,2,3,3
India,Delhi,Delhi,"R K Puram, Delhi - DPCC",06-03-2024 20:00:00,28.563262,77.186937,SO2,8,40,27
India,Delhi,Delhi,"Rohini, Delhi - DPCC",06-03-2024 20:00:00,28.732528,77.119920,NO2,17,46,27
India,Delhi,Delhi,"Rohini, Delhi - DPCC",06-03-2024 20:00:00,28.732528,77.119920,OZONE,32,140,118
India,Delhi,Delhi,"Shadipur, Delhi - CPCB",06-03-2024 20:00:00,28.6514781,77.1473105,PM2.5,60,236,155
India,Delhi,Delhi,"Shadipur, Delhi - CPCB",06-03-2024 20:00:00,28.6514781,77.1473105,NH3,7,10,9
India,Delhi,Delhi,"Sirifort, Delhi - CPCB",06-03-2024 20:00:00,28.5504249,77.2159377,PM10,86,136,104
India,Delhi,Delhi,"Sonia Vihar, Delhi - DPCC",06-03-2024 20:00:00,28.710508,77.249485,PM10,80,161,114
India,Delhi,Delhi,"Sonia Vihar, Delhi - DPCC",06-03-2024 20:00:00,28.710508,77.249485,NO2,25,58,37
India,Delhi,Delhi,"Sonia Vihar, Delhi - DPCC",06-03-2024 20:00:00,28.710508,77.249485,CO,47,65,55
India,Delhi,Delhi,"Sri Aurobindo Marg, Delhi - DPCC",06-03-2024 20:00:00,28.531346,77.190156,PM2.5,55,197,109
India,Delhi,Delhi,"Vivek Vihar, Delhi - DPCC",06-03-2024 20:00:00,28.672342,77.315260,PM2.5,66,157,98
India,Delhi,Delhi,"Wazirpur, Delhi - DPCC",06-03-2024 20:00:00,28.699793,77.165453,PM10,85,181,136
India,Gujarat,Ahmedabad,"Gyaspur, Ahmedabad - IITM",06-03-2024 20:00:00,22.977134,72.553024,PM2.5,55,170,90
India,Gujarat,Ahmedabad,"Gyaspur, Ahmedabad - IITM",06-03-2024 20:00:00,22.977134,72.553024,NO2,21,22,22
India,Gujarat,Ahmedabad,"Gyaspur, Ahmedabad - IITM",06-03-2024 20:00:00,22.977134,72.553024,CO,23,26,24
India,Gujarat,Ahmedabad,"Maninagar, Ahmedabad - GPCB",06-03-2024 20:00:00,23.002657,72.591912,PM10,NA,NA,NA
India,Gujarat,Ahmedabad,"Maninagar, Ahmedabad - GPCB",06-03-2024 20:00:00,23.002657,72.591912,NO2,NA,NA,NA
India,Gujarat,Ahmedabad,"Maninagar, Ahmedabad - GPCB",06-03-2024 20:00:00,23.002657,72.591912,OZONE,10,56,48
India,Gujarat,Ahmedabad,"Raikhad, Ahmedabad - IITM",06-03-2024 20:00:00,23.020509,72.579261,PM2.5,19,87,43
India,Gujarat,Ahmedabad,"Rakhial, Ahmedabad - IITM",06-03-2024 20:00:00,23.016834,72.625775,PM10,104,190,138
India,Gujarat,Ahmedabad,"Rakhial, Ahmedabad - IITM",06-03-2024 20:00:00,23.016834,72.625775,SO2,5,28,9
India,Gujarat,Ahmedabad,"Rakhial, Ahmedabad - IITM",06-03-2024 20:00:00,23.016834,72.625775,OZONE,1,71,54
India,Gujarat,Ahmedabad,"SAC ISRO Bopal, Ahmedabad - IITM",06-03-2024 20:00:00,23.041137,72.456691,NO2,12,13,12
India,Gujarat,Ahmedabad,"SAC ISRO Bopal, Ahmedabad - IITM",06-03-2024 20:00:00,23.041137,72.456691,SO2,5,12,9
India,Gujarat,Ahmedabad,"Sardar Vallabhbhai Patel Stadium, Ahmedabad - IITM",06-03-2024 20:00:00,23.043070,72.562968,NO2,12,15,13
India,Gujarat,Ahmedabad,"Sardar Vallabhbhai Patel Stadium, Ahmedabad - IITM",06-03-2024 20:00:00,23.043070,72.562968,OZONE,16,23,22
India,Gujarat,Ankleshwar,"GIDC, Ankleshwar - GPCB",06-03-2024 20:00:00,21.613267,73.010555,NH3,7,7,7
India,Gujarat,Ankleshwar,"GIDC, Ankleshwar - GPCB",06-03-2024 20:00:00,21.613267,73.010555,SO2,1,118,37
India,Gujarat,Ankleshwar,"GIDC, Ankleshwar - GPCB",06-03-2024 20:00:00,21.613267,73.010555,CO,72,111,83
India,Gujarat,Gandhinagar,"IIPHG Lekawada, Gandhinagar - IITM",06-03-2024 20:00:00,23.243639,72.68994,PM2.5,70,237,140
India,Gujarat,Gandhinagar,"Sector-10, Gandhinagar - GPCB",06-03-2024 20:00:00,23.221714,72.654328,NO2,1,31,7
India,Gujarat,Nandesari,"GIDC, Nandesari - Nandesari Ind. Association",06-03-2024 20:00:00,22.410802,73.097923,SO2,1,14,7
India,Gujarat,Surat,"Science Center, Surat - SMC",06-03-2024 20:00:00,21.170046,72.795405,SO2,19,53,24
India,Gujarat,Vapi,"Phase-1 GIDC, Vapi - GPCB",06-03-2024 20:00:00,20.362421,72.918013,PM10,62,188,117
India,Gujarat,Vapi,"Phase-1 GIDC, Vapi - GPCB",06-03-2024 20:00:00,20.362421,72.918013,SO2,46,47,47
India,Gujarat,Vatva,"Phase-4 GIDC, Vatva - GPCB",06-03-2024 20:00:00,22.969611,72.643500,PM2.5,60,239,96
India,Gujarat,Vatva,"Phase-4 GIDC, Vatva - GPCB",06-03-2024 20:00:00,22.969611,72.643500,NH3,1,2,2
India,Haryana,Ambala,"Patti Mehar, Ambala - HSPCB",06-03-2024 20:00:00,30.379589,76.778328,PM10,54,105,82
India,Haryana,Ambala,"Patti Mehar, Ambala - HSPCB",06-03-2024 20:00:00,30.379589,76.778328,NH3,8,8,8
India,Haryana,Ballabgarh,"Nathu Colony, Ballabgarh - HSPCB",06-03-2024 20:00:00,28.3419248,77.319699,NO2,10,13,12
India,Haryana,Ballabgarh,"Nathu Colony, Ballabgarh - HSPCB",06-03-2024 20:00:00,28.3419248,77.319699,OZONE,6,26,20
India,Haryana,Bhiwani,"H.B. Colony, Bhiwani - HSPCB",06-03-2024 20:00:00,28.806223,76.141105,PM2.5,46,97,73
India,Haryana,Bhiwani,"H.B. Colony, Bhiwani - HSPCB",06-03-2024 20:00:00,28.806223,76.141105,PM10,42,90,67
India,Haryana,Charkhi Dadri,"Mini Secretariat, Charkhi Dadri - HSPCB",06-03-2024 20:00:00,28.593883,76.270653,NO2,10,12,11
India,Haryana,Faridabad,"Sector 11, Faridabad - HSPCB",06-03-2024 20:00:00,28.376058,77.315741,PM2.5,97,303,171
India,Haryana,Faridabad,"Sector 11, Faridabad - HSPCB",06-03-2024 20:00:00,28.376058,77.315741,OZONE,3,7,6
India,Haryana,Faridabad,"Sector 30, Faridabad - HSPCB",06-03-2024 20:00:00,28.4417,77.3217,PM10,109,208,176
India,Haryana,Faridabad,"Sector 30, Faridabad - HSPCB",06-03-2024 20:00:00,28.4417,77.3217,CO,30,67,47
India,Haryana,Fatehabad,"Huda Sector, Fatehabad - HSPCB",06-03-2024 20:00:00,29.503664,75.467934,CO,5,12,7
India,Haryana,Fatehabad,"Huda Sector, Fatehabad - HSPCB",06-03-2024 20:00:00,29.503664,75.467934,OZONE,20,60,49
India,Haryana,Gurugram,"Sector-51, Gurugram - HSPCB",06-03-2024 20:00:00,28.4227,77.0667,NO2,NA,NA,NA
India,Haryana,Hisar,"Urban Estate-II, Hisar - HSPCB",06-03-2024 20:00:00,29.140560,75.744941,PM2.5,39,82,57
India,Haryana,Hisar,"Urban Estate-II, Hisar - HSPCB",06-03-2024 20:00:00,29.140560,75.744941,CO,40,187,83
India,Haryana,Hisar,"Urban Estate-II, Hisar - HSPCB",06-03-2024 20:00:00,29.140560,75.744941,OZONE,21,113,73
India,Haryana,Kaithal,"Rishi Nagar, Kaithal - HSPCB",06-03-2024 20:00:00,29.8006,76.4155,PM10,54,88,65
India,Haryana,Karnal,"Sector-12, Karnal - HSPCB",06-03-2024 20:00:00,29.695300,77.002700,PM2.5,4,85,67
India,Haryana,Kurukshetra,"Sector-7, Kurukshetra - HSPCB",06-03-2024 20:00:00,29.966942,76.875879,OZONE,26,76,66
India,Haryana,Mandikhera,"General Hospital, Mandikhera - HSPCB",06-03-2024 20:00:00,27.9002,76.9938,NH3,18,20,19
India,Haryana,Manesar,"Sector-2 IMT, Manesar - HSPCB",06-03-2024 20:00:00,28.360699,76.936090,NO2,14,22,18
India,Haryana,Manesar,"Sector-2 IMT, Manesar - HSPCB",06-03-2024 20:00:00,28.360699,76.936090,SO2,5,12,9
India,Haryana,Palwal,"Shyam Nagar, Palwal - HSPCB",06-03-2024 20:00:00,28.1485564,77.3320667,SO2,9,26,17
India,Haryana,Panchkula,"Sector-6, Panchkula - HSPCB ",06-03-2024 20:00:00,30.7057778,76.8531805555555,SO2,11,12,12
India,Haryana,Panipat,"Sector-18, Panipat - HSPCB",06-03-2024 20:00:00,29.497973,76.993331,PM10,94,96,95
India,Haryana,Panipat,"Sector-18, Panipat - HSPCB",06-03-2024 20:00:00,29.497973,76.993331,SO2,18,19,19
India,Haryana,Panipat,"Sector-18, Panipat - HSPCB",06-03-2024 20:00:00,29.497973,76.993331,OZONE,30,30,30
India,Haryana,Rohtak,"MD University, Rohtak - HSPCB",06-03-2024 20:00:00,28.52123,76.37138,SO2,6,8,7
India,Haryana,Sirsa,"F-Block, Sirsa - HSPCB",06-03-2024 20:00:00,29.536400,75.015800,NO2,10,10,10
India,Haryana,Sirsa,"F-Block, Sirsa - HSPCB",06-03-2024 20:00:00,29.536400,75.015800,SO2,2,18,11
India,Haryana,Sonipat,"Murthal, Sonipat - HSPCB",06-03-2024 20:00:00,29.027200,77.062100,PM2.5,NA,NA,NA
India,Haryana,Sonipat,"Murthal, Sonipat - HSPCB",06-03-2024 20:00:00,29.027200,77.062100,PM10,NA,NA,NA
India,Haryana,Sonipat,"Murthal, Sonipat - HSPCB",06-03-2024 20:00:00,29.027200,77.062100,NH3,NA,NA,NA
India,Himachal Pradesh,Baddi,"HIMUDA Complex Phase-1, Baddi - HPPCB",06-03-2024 20:00:00,30.943887,76.801991,NH3,5,8,6
India,Himachal Pradesh,Baddi,"HIMUDA Complex Phase-1, Baddi - HPPCB",06-03-2024 20:00:00,30.943887,76.801991,SO2,16,107,43
India,Himachal Pradesh,Baddi,"HIMUDA Complex Phase-1, Baddi - HPPCB",06-03-2024 20:00:00,30.943887,76.801991,CO,24,68,27
India,Jharkhand,Dhanbad,"Kalakusuma, Dhanbad - DMC",06-03-2024 20:00:00,23.811548,86.481238,PM2.5,36,82,46
India,Jharkhand,Dhanbad,"Kalakusuma, Dhanbad - DMC",06-03-2024 20:00:00,23.811548,86.481238,SO2,125,127,127
India,Jharkhand,Dhanbad,"Kalakusuma, Dhanbad - DMC",06-03-2024 20:00:00,23.811548,86.481238,CO,128,137,132
India,Jharkhand,Dhanbad,"Sardar Patel Nagar, Dhanbad - JSPCB",06-03-2024 20:00:00,23.80569,86.44268,SO2,NA,NA,NA
India,Jharkhand,Dhanbad,"Sardar Patel Nagar, Dhanbad - JSPCB",06-03-2024 20:00:00,23.80569,86.44268,OZONE,10,35,24
India,Karnataka,Bagalkot,"Vidayagiri, Bagalkot - KSPCB",06-03-2024 20:00:00,16.172806,75.659694,PM10,42,46,43
India,Karnataka,Bagalkot,"Vidayagiri, Bagalkot - KSPCB",06-03-2024 20:00:00,16.172806,75.659694,CO,23,58,35
India,Karnataka,Bengaluru,"BTM Layout, Bengaluru - CPCB",06-03-2024 20:00:00,12.9135218,77.5950804,PM2.5,NA,NA,NA
India,Karnataka,Bengaluru,"BTM Layout, Bengaluru - CPCB",06-03-2024 20:00:00,12.9135218,77.5950804,PM10,NA,NA,NA
India,Karnataka,Bengaluru,"Bapuji Nagar, Bengaluru - KSPCB",06-03-2024 20:00:00,12.951913,77.539784,PM2.5,68,240,141
India,Karnataka,Bengaluru,"Bapuji Nagar, Bengaluru - KSPCB",06-03-2024 20:00:00,12.951913,77.539784,NO2,10,12,11
India,Karnataka,Bengaluru,"Hebbal, Bengaluru - KSPCB",06-03-2024 20:00:00,13.029152,77.585901,OZONE,9,62,25
India,Karnataka,Bengaluru,"Hombegowda Nagar, Bengaluru - KSPCB",06-03-2024 20:00:00,12.938539,77.590100,NH3,3,3,3
India,Karnataka,Bengaluru,"Hombegowda Nagar, Bengaluru - KSPCB",06-03-2024 20:00:00,12.938539,77.590100,OZONE,4,5,4
India,Karnataka,Bengaluru,"Jayanagar 5th Block, Bengaluru - KSPCB",06-03-2024 20:00:00,12.920984,77.584908,OZONE,28,28,28
India,Karnataka,Bengaluru,"Jigani, Bengaluru - KSPCB",06-03-2024 20:00:00,12.7816279,77.6299145,PM10,NA,NA,NA
India,Karnataka,Bengaluru,"Kasturi Nagar, Bengaluru - KSPCB",06-03-2024 20:00:00,13.003872,77.664217,PM10,112,174,134
India,Karnataka,Bengaluru,"Kasturi Nagar, Bengaluru - KSPCB",06-03-2024 20:00:00,13.003872,77.664217,NO2,16,17,17
India,Karnataka,Bengaluru,"Kasturi Nagar, Bengaluru - KSPCB",06-03-2024 20:00:00,13.003872,77.664217,CO,22,26,24
India,Karnataka,Bengaluru,"Peenya, Bengaluru - CPCB",06-03-2024 20:00:00,13.0270199,77.494094,NH3,NA,NA,NA
India,Karnataka,Bengaluru,"Peenya, Bengaluru - CPCB",06-03-2024 20:00:00,13.0270199,77.494094,OZONE,1,146,89
India,Karnataka,Bengaluru,"Sanegurava Halli, Bengaluru - KSPCB",06-03-2024 20:00:00,12.990328,77.5431385,NO2,14,33,23
India,Karnataka,Bengaluru,"Shivapura_Peenya, Bengaluru - KSPCB",06-03-2024 20:00:00,13.0246342,77.5080115,PM10,63,99,80
India,Karnataka,Bengaluru,"Shivapura_Peenya, Bengaluru - KSPCB",06-03-2024 20:00:00,13.0246342,77.5080115,OZONE,53,56,54
India,Karnataka,Bengaluru,"Silk Board, Bengaluru - KSPCB",06-03-2024 20:00:00,12.917348,77.622813,PM2.5,44,122,70
India,Karnataka,Bidar,"Naubad, Bidar - KSPCB",06-03-2024 20:00:00,17.930306,77.482194,NH3,2,3,3
India,Karnataka,Chamarajanagar,"Urban, Chamarajanagar - KSPCB",06-03-2024 20:00:00,11.55358,76.55521,SO2,2,8,4
India,Karnataka,Chikkaballapur,"Chikkaballapur Rural, Chikkaballapur - KSPCB",06-03-2024 20:00:00,13.428828,77.731418,CO,4,28,17
India,Karnataka,Chikkaballapur,"Chikkaballapur Rural, Chikkaballapur - KSPCB",06-03-2024 20:00:00,13.428828,77.731418,OZONE,24,26,25
India,Karnataka,Chikkamagaluru,"Kalyana Nagara, Chikkamagaluru - KSPCB",06-03-2024 20:00:00,13.328028,75.797056,SO2,2,6,4
India,Karnataka,Chikkamagaluru,"Kalyana Nagara, Chikkamagaluru - KSPCB",06-03-2024 20:00:00,13.328028,75.797056,CO,11,104,46
India,Karnataka,Davanagere,"Devaraj Urs Badavane, Davanagere - KSPCB",06-03-2024 20:00:00,14.475800,75.905200,PM10,35,130,65
India,Karnataka,Davanagere,"Devaraj Urs Badavane, Davanagere - KSPCB",06-03-2024 20:00:00,14.475800,75.905200,SO2,3,9,5
India,Karnataka,Dharwad,"Kalabhavan, Dharwad - KSPCB",06-03-2024 20:00:00,15.459706,75.008381,PM2.5,48,90,63
India,Karnataka,Hassan,"B.Katihalli, Hassan - KSPCB",06-03-2024 20:00:00,13.008556,76.125258,PM2.5,60,85,73
India,Karnataka,Hassan,"B.Katihalli, Hassan - KSPCB",06-03-2024 20:00:00,13.008556,76.125258,CO,6,14,12
India,Karnataka,Haveri,"Ashwini Nagar, Haveri - KSPCB",06-03-2024 20:00:00,14.791800,75.389600,SO2,14,14,14
India,Karnataka,Haveri,"Ashwini Nagar, Haveri - KSPCB",06-03-2024 20:00:00,14.791800,75.389600,CO,35,36,36
India,Karnataka,Hubballi,"Deshpande Nagar, Hubballi - KSPCB",06-03-2024 20:00:00,15.351773,75.140726,SO2,18,21,20
India,Karnataka,Hubballi,"Lingaraj Nagar, Hubballi - KSPCB",06-03-2024 20:00:00,15.3714823,75.1160168,PM2.5,32,63,44
India,Karnataka,Hubballi,"Lingaraj Nagar, Hubballi - KSPCB",06-03-2024 20:00:00,15.3714823,75.1160168,NH3,2,2,2
India,Karnataka,Hubballi,"Lingaraj Nagar, Hubballi - KSPCB",06-03-2024 20:00:00,15.3714823,75.1160168,CO,38,67,45
India,Karnataka,Kalaburagi,"Lal Bahadur Shastri Nagar, Kalaburagi - KSPCB",06-03-2024 20:00:00,17.321993,76.822628,NH3,2,2,2
India,Karnataka,Kalaburagi,"Mahatma Basaveswar Colony, Kalaburgi - KSPCB",06-03-2024 20:00:00,17.336318,76.847397,PM10,24,98,56
India,Karnataka,Kalaburagi,"Mahatma Basaveswar Colony, Kalaburgi - KSPCB",06-03-2024 20:00:00,17.336318,76.847397,SO2,4,14,7
India,Karnataka,Karwar,"KHB Colony, Karwar - KSPCB",06-03-2024 20:00:00,14.816666,74.141003,OZONE,20,22,22
India,Karnataka,Kolar,"Tamaka Ind. Area, Kolar - KSPCB",06-03-2024 20:00:00,13.1276288,78.1570122,PM2.5,36,102,56
India,Karnataka,Kolar,"Tamaka Ind. Area, Kolar - KSPCB",06-03-2024 20:00:00,13.1276288,78.1570122,NH3,6,25,12
India,Karnataka,Kolar,"Tamaka Ind. Area, Kolar - KSPCB",06-03-2024 20:00:00,13.1276288,78.1570122,SO2,8,37,13
India,Karnataka,Madikeri,"Stuart Hill, Madikeri - KSPCB",06-03-2024 20:00:00,12.415911,75.735050,NH3,NA,NA,NA
India,Karnataka,Mangalore,"Kadri, Mangalore - KSPCB",06-03-2024 20:00:00,12.889250,74.853000,PM2.5,24,67,41
India,Karnataka,Mangalore,"Kadri, Mangalore - KSPCB",06-03-2024 20:00:00,12.889250,74.853000,NH3,2,2,2
India,Karnataka,Mangalore,"Kadri, Mangalore - KSPCB",06-03-2024 20:00:00,12.889250,74.853000,SO2,16,22,20
India,Karnataka,Mysuru,"Hebbal 1st Stage, Mysuru - KSPCB",06-03-2024 20:00:00,12.21041,76.37376,NH3,1,3,2
India,Karnataka,Mysuru,"Hebbal 1st Stage, Mysuru - KSPCB",06-03-2024 20:00:00,12.21041,76.37376,OZONE,10,91,73
India,Karnataka,Raichur,"Haji Colony, Raichur - KSPCB",06-03-2024 20:00:00,16.208139,77.348417,CO,84,109,105
India,Karnataka,Ramanagara,"Vijay Nagar, Ramanagara - KSPCB",06-03-2024 20:00:00,12.733409,77.298051,NO2,4,16,7
India,Karnataka,Ramanagara,"Vijay Nagar, Ramanagara - KSPCB",06-03-2024 20:00:00,12.733409,77.298051,NH3,1,1,1
India,Karnataka,Shivamogga,"Vinoba Nagara, Shivamogga - KSPCB",06-03-2024 20:00:00,13.940000,75.555917,PM10,52,86,76
India,Karnataka,Shivamogga,"Vinoba Nagara, Shivamogga - KSPCB",06-03-2024 20:00:00,13.940000,75.555917,NO2,10,14,13
India,Karnataka,Tumakuru,"Thimmalapura, Tumakuru - KSPCB",06-03-2024 20:00:00,13.377516,77.099072,PM2.5,15,26,19
India,Karnataka,Udupi,"Brahmagiri, Udupi - KSPCB",06-03-2024 20:00:00,13.34194444,74.74694444,PM2.5,22,57,32
India,Karnataka,Vijayapura,"Ibrahimpur, Vijayapura - KSPCB",06-03-2024 20:00:00,16.802639,75.722694,PM10,38,40,39
India,Karnataka,Vijayapura,"Ibrahimpur, Vijayapura - KSPCB",06-03-2024 20:00:00,16.802639,75.722694,SO2,19,105,61
India,Karnataka,Vijayapura,"Ibrahimpur, Vijayapura - KSPCB",06-03-2024 20:00:00,16.802639,75.722694,OZONE,14,16,15
India,Karnataka,Yadgir,"Collector Office, Yadgir - KSPCB",06-03-2024 20:00:00,16.7602,77.1428,PM2.5,55,85,67
India,Karnataka,Yadgir,"Collector Office, Yadgir - KSPCB",06-03-2024 20:00:00,16.7602,77.1428,NO2,5,11,6
India,Kerala,Eloor,"Udyogamandal, Eloor - Kerala PCB",06-03-2024 20:00:00,10.073232,76.302765,OZONE,11,15,14
India,Kerala,Kollam,"Polayathode, Kollam - Kerala PCB",06-03-2024 20:00:00,8.8787,76.6073,SO2,1,7,2
India,Kerala,Thiruvananthapuram,"Kariavattom, Thiruvananthapuram - Kerala PCB",06-03-2024 20:00:00,8.563700,76.886500,SO2,2,15,9
India,Kerala,Thiruvananthapuram,"Plammoodu, Thiruvananthapuram - Kerala PCB",06-03-2024 20:00:00,8.5149093,76.9435879,PM2.5,15,53,32
India,Kerala,Thiruvananthapuram,"Plammoodu, Thiruvananthapuram - Kerala PCB",06-03-2024 20:00:00,8.5149093,76.9435879,PM10,NA,NA,NA
India,Kerala,Thiruvananthapuram,"Plammoodu, Thiruvananthapuram - Kerala PCB",06-03-2024 20:00:00,8.5149093,76.9435879,NH3,2,2,2
India,Madhya Pradesh,Bhopal,"Idgah Hills, Bhopal - MPPCB",06-03-2024 20:00:00,23.264759,77.381568,PM10,56,111,85
India,Madhya Pradesh,Bhopal,"Paryavaran Parisar, Bhopal - MPPCB",06-03-2024 20:00:00,23.210494,77.425409,PM10,62,227,89
India,Madhya Pradesh,Bhopal,"Paryavaran Parisar, Bhopal - MPPCB",06-03-2024 20:00:00,23.210494,77.425409,NH3,8,11,9
India,Madhya Pradesh,Dewas,"Bhopal Chauraha, Dewas - MPPCB",06-03-2024 20:00:00,22.9682591,76.064118,OZONE,15,66,40
India,Madhya Pradesh,Gwalior,"Deen Dayal Nagar, Gwalior - MPPCB",06-03-2024 20:00:00,26.259242,78.216432,PM2.5,47,316,182
India,Madhya Pradesh,Gwalior,"Deen Dayal Nagar, Gwalior - MPPCB",06-03-2024 20:00:00,26.259242,78.216432,SO2,14,18,16
India,Madhya Pradesh,Gwalior,"Maharaj Bada, Gwalior - MPPCB",06-03-2024 20:00:00,26.200388,78.147714,PM2.5,50,233,133
India,Madhya Pradesh,Gwalior,"Maharaj Bada, Gwalior - MPPCB",06-03-2024 20:00:00,26.200388,78.147714,NO2,24,123,49
India,Madhya Pradesh,Gwalior,"Maharaj Bada, Gwalior - MPPCB",06-03-2024 20:00:00,26.200388,78.147714,OZONE,5,167,135
India,Madhya Pradesh,Indore,"Chhoti Gwaltoli, Indore - MPPCB",06-03-2024 20:00:00,22.4310,75.5213,PM10,70,146,104
India,Madhya Pradesh,Indore,"Regional Park, Indore - IMC",06-03-2024 20:00:00,22.6780,75.8559,PM10,25,97,51
India,Madhya Pradesh,Indore,"Regional Park, Indore - IMC",06-03-2024 20:00:00,22.6780,75.8559,NO2,NA,NA,NA
India,Madhya Pradesh,Indore,"Residency Area, Indore - IMC",06-03-2024 20:00:00,22.7084,75.8815,OZONE,10,22,18
India,Madhya Pradesh,Jabalpur,"Gupteshwar, Jabalpur - JMC",06-03-2024 20:00:00,23.142888,79.916147,NH3,1,25,4
India,Madhya Pradesh,Jabalpur,"Gupteshwar, Jabalpur - JMC",06-03-2024 20:00:00,23.142888,79.916147,SO2,2,9,5
India,Madhya Pradesh,Jabalpur,"Gupteshwar, Jabalpur - JMC",06-03-2024 20:00:00,23.142888,79.916147,OZONE,50,149,119
India,Madhya Pradesh,Jabalpur,"Marhatal, Jabalpur - MPPCB",06-03-2024 20:00:00,23.168606,79.932247,PM2.5,30,82,54
India,Madhya Pradesh,Jabalpur,"Marhatal, Jabalpur - MPPCB",06-03-2024 20:00:00,23.168606,79.932247,PM10,69,122,90
India,Madhya Pradesh,Jabalpur,"Marhatal, Jabalpur - MPPCB",06-03-2024 20:00:00,23.168606,79.932247,OZONE,43,96,85
India,Madhya Pradesh,Jabalpur,"Suhagi, Jabalpur - JMC",06-03-2024 20:00:00,23.218135,79.957770,SO2,7,9,8
India,Madhya Pradesh,Jabalpur,"Suhagi, Jabalpur - JMC",06-03-2024 20:00:00,23.218135,79.957770,OZONE,18,122,87
India,Madhya Pradesh,Maihar,"Sahilara, Maihar - KJS Cements",06-03-2024 20:00:00,24.2613009,80.7231783,PM10,22,36,28
India,Madhya Pradesh,Mandideep,"Sector-D Industrial Area, Mandideep - MPPCB",06-03-2024 20:00:00,23.108440,77.511428,PM10,40,162,87
India,Madhya Pradesh,Pithampur,"Sector-2 Industrial Area, Pithampur - MPPCB",06-03-2024 20:00:00,22.624758,75.675238,NO2,8,20,14
India,Madhya Pradesh,Pithampur,"Sector-2 Industrial Area, Pithampur - MPPCB",06-03-2024 20:00:00,22.624758,75.675238,NH3,5,8,7
India,Madhya Pradesh,Pithampur,"Sector-2 Industrial Area, Pithampur - MPPCB",06-03-2024 20:00:00,22.624758,75.675238,SO2,11,17,13
India,Madhya Pradesh,Ratlam,"Shasthri Nagar, Ratlam - IPCA Lab",06-03-2024 20:00:00,23.331731,75.045981,PM2.5,NA,NA,NA
India,Madhya Pradesh,Sagar,"Civil Lines, Sagar - MPPCB",06-03-2024 20:00:00,23.838586,78.759431,NO2,12,30,17
India,Madhya Pradesh,Sagar,"Civil Lines, Sagar - MPPCB",06-03-2024 20:00:00,23.838586,78.759431,NH3,5,8,6
India,Madhya Pradesh,Sagar,"Deen Dayal Nagar, Sagar - MPPCB",06-03-2024 20:00:00,23.8640158,78.80289321,SO2,NA,NA,NA
India,Madhya Pradesh,Satna,"Bandhavgar Colony, Satna - Birla Cement",06-03-2024 20:00:00,24.58434363,80.8549414,NO2,35,64,45
India,Madhya Pradesh,Singrauli,"Suryakiran Bhawan NCL, Singrauli - MPPCB",06-03-2024 20:00:00,24.108970,82.645580,OZONE,11,77,68
India,Madhya Pradesh,Ujjain,"Mahakaleshwar Temple, Ujjain - MPPCB",06-03-2024 20:00:00,23.182719 ,75.768218 ,PM10,44,106,72
India,Madhya Pradesh,Ujjain,"Mahakaleshwar Temple, Ujjain - MPPCB",06-03-2024 20:00:00,23.182719 ,75.768218 ,OZONE,134,157,151
India,Maharashtra,Ahmednagar,"Tarakpur, Ahmednagar - MPCB",06-03-2024 20:00:00,19.10122,74.73339,SO2,9,17,13
India,Maharashtra,Akola,"Ramdaspeth, Akola - MPCB",06-03-2024 20:00:00,20.719516,77.000253,CO,20,115,29
India,Maharashtra,Akola,"Ramdaspeth, Akola - MPCB",06-03-2024 20:00:00,20.719516,77.000253,OZONE,11,126,91
India,Maharashtra,Amravati,"Shri Shivaji Science College, Amaravati - MPCB",06-03-2024 20:00:00,20.939198,77.765701,NO2,8,62,20
India,Maharashtra,Aurangabad,"MIDC Chilkalthana, Aurangabad - MPCB",06-03-2024 20:00:00,19.875620,75.387310,SO2,9,37,17
India,Maharashtra,Aurangabad,"More Chowk Waluj, Aurangabad - MPCB",06-03-2024 20:00:00,19.8389439,75.244448,PM10,41,125,80
India,Maharashtra,Aurangabad,"More Chowk Waluj, Aurangabad - MPCB",06-03-2024 20:00:00,19.8389439,75.244448,NH3,1,1,1
India,Maharashtra,Aurangabad,"Rachnakar Colony, Aurangabad - MPCB",06-03-2024 20:00:00,19.863756,75.321188,NH3,1,2,1
India,Maharashtra,Belapur,"CBD Belapur, Belapur - MPCB",06-03-2024 20:00:00,19.0243902,73.0406721,PM2.5,37,300,108
India,Maharashtra,Bhiwandi,"Gokul Nagar, Bhiwandi - MPCB",06-03-2024 20:00:00,19.309073,73.057223,NO2,25,102,50
India,Maharashtra,Bhiwandi,"Gokul Nagar, Bhiwandi - MPCB",06-03-2024 20:00:00,19.309073,73.057223,SO2,4,88,14
India,Maharashtra,Chandrapur,"MIDC Khutala, Chandrapur - MPCB",06-03-2024 20:00:00,19.9775302,79.2337086,PM2.5,NA,NA,NA
India,Maharashtra,Chandrapur,"MIDC Khutala, Chandrapur - MPCB",06-03-2024 20:00:00,19.9775302,79.2337086,SO2,NA,NA,NA
India,Maharashtra,Dhule,"Deopur, Dhule - MPCB",06-03-2024 20:00:00,20.918946,74.776388,PM2.5,73,172,97
India,Maharashtra,Dhule,"Deopur, Dhule - MPCB",06-03-2024 20:00:00,20.918946,74.776388,PM10,85,470,138
India,Maharashtra,Dhule,"Deopur, Dhule - MPCB",06-03-2024 20:00:00,20.918946,74.776388,NH3,1,15,2
India,Maharashtra,Jalgaon,"Prabhat Colony, Jalgaon - MPCB",06-03-2024 20:00:00,21.001264,75.565602,CO,12,36,15
India,Maharashtra,Jalna,"Old MIDC, Jalna - MPCB",06-03-2024 20:00:00,19.854616,75.905894,PM10,57,187,127
India,Maharashtra,Jalna,"Old MIDC, Jalna - MPCB",06-03-2024 20:00:00,19.854616,75.905894,NO2,2,36,22
India,Maharashtra,Kalyan,"Khadakpada, Kalyan - MPCB",06-03-2024 20:00:00,19.25292,73.142019,PM2.5,40,181,91
India,Maharashtra,Kalyan,"Khadakpada, Kalyan - MPCB",06-03-2024 20:00:00,19.25292,73.142019,NO2,31,89,55
India,Maharashtra,Kalyan,"Khadakpada, Kalyan - MPCB",06-03-2024 20:00:00,19.25292,73.142019,CO,18,50,22
India,Maharashtra,Kalyan,"Khadakpada, Kalyan - MPCB",06-03-2024 20:00:00,19.25292,73.142019,OZONE,8,40,30
India,Maharashtra,Kolhapur,"Sinchan Bhavan, Kolhapur - MPCB",06-03-2024 20:00:00,16.7143745,74.2426398,OZONE,12,164,129
India,Maharashtra,Latur,"Sawe Wadi, Latur - MPCB",06-03-2024 20:00:00,18.39963,76.57452,NO2,12,92,34
India,Maharashtra,Latur,"Sawe Wadi, Latur - MPCB",06-03-2024 20:00:00,18.39963,76.57452,CO,14,74,31
India,Maharashtra,Mahad,"Kamble Tarf Birwadi, Mahad - MPCB",06-03-2024 20:00:00,18.1023399,73.4783687,NH3,10,15,12
India,Maharashtra,Mahad,"Kamble Tarf Birwadi, Mahad - MPCB",06-03-2024 20:00:00,18.1023399,73.4783687,SO2,11,69,32
India,Maharashtra,Mahad,"Kamble Tarf Birwadi, Mahad - MPCB",06-03-2024 20:00:00,18.1023399,73.4783687,CO,24,80,30
India,Maharashtra,Malegaon,"Mahesh Nagar, Malegaon - MPCB",06-03-2024 20:00:00,20.555712,74.529236,NO2,4,17,9
India,Maharashtra,Malegaon,"Mahesh Nagar, Malegaon - MPCB",06-03-2024 20:00:00,20.555712,74.529236,OZONE,52,105,81
India,Maharashtra,Mira-Bhayandar,"Bhayandar West, Mira-Bhayandar - MPCB",06-03-2024 20:00:00,19.296481,72.840923,CO,10,76,12
India,Maharashtra,Mira-Bhayandar,"Bhayandar West, Mira-Bhayandar - MPCB",06-03-2024 20:00:00,19.296481,72.840923,OZONE,1,169,142
India,Maharashtra,Mumbai,"Bandra Kurla Complex, Mumbai - MPCB",06-03-2024 20:00:00,19.065931,72.862131,OZONE,1,78,62
India,Maharashtra,Mumbai,"Borivali East, Mumbai - IITM",06-03-2024 20:00:00,19.23241,72.86895,CO,30,50,36
India,Maharashtra,Mumbai,"Borivali East, Mumbai - MPCB",06-03-2024 20:00:00,19.2243333,72.8658113,PM2.5,32,305,100
India,Maharashtra,Mumbai,"Borivali East, Mumbai - MPCB",06-03-2024 20:00:00,19.2243333,72.8658113,SO2,4,8,6
India,Maharashtra,Mumbai,"Borivali East, Mumbai - MPCB",06-03-2024 20:00:00,19.2243333,72.8658113,OZONE,14,16,14
India,Maharashtra,Mumbai,"Chakala-Andheri East, Mumbai - IITM",06-03-2024 20:00:00,19.11074,72.86084,SO2,5,47,23
India,Maharashtra,Mumbai,"Chakala-Andheri East, Mumbai - IITM",06-03-2024 20:00:00,19.11074,72.86084,CO,5,103,20
India,Maharashtra,Mumbai,"Chakala-Andheri East, Mumbai - IITM",06-03-2024 20:00:00,19.11074,72.86084,OZONE,8,116,82
India,Maharashtra,Mumbai,"Chembur, Mumbai - MPCB",06-03-2024 20:00:00,19.0364585,72.8954371,PM10,79,127,101
India,Maharashtra,Mumbai,"Chembur, Mumbai - MPCB",06-03-2024 20:00:00,19.0364585,72.8954371,SO2,2,30,10
India,Maharashtra,Mumbai,"Chhatrapati Shivaji Intl. Airport (T2), Mumbai - MPCB",06-03-2024 20:00:00,19.10078,72.87462,PM10,76,165,100
India,Maharashtra,Mumbai,"Colaba, Mumbai - MPCB",06-03-2024 20:00:00,18.910000,72.820000,CO,11,25,13
India,Maharashtra,Mumbai,"Colaba, Mumbai - MPCB",06-03-2024 20:00:00,18.910000,72.820000,OZONE,5,12,7
India,Maharashtra,Mumbai,"Ghatkopar, Mumbai - BMC",06-03-2024 20:00:00,19.083694,72.920967,OZONE,1,46,46
India,Maharashtra,Mumbai,"Kandivali West, Mumbai - BMC",06-03-2024 20:00:00,19.215859,72.831718,NH3,1,2,1
India,Maharashtra,Mumbai,"Kherwadi_Bandra East, Mumbai - MPCB",06-03-2024 20:00:00,19.0632143,72.8456324,SO2,9,44,21
India,Maharashtra,Mumbai,"Kherwadi_Bandra East, Mumbai - MPCB",06-03-2024 20:00:00,19.0632143,72.8456324,OZONE,3,131,104
India,Maharashtra,Mumbai,"Khindipada-Bhandup West, Mumbai - IITM",06-03-2024 20:00:00,19.1653323,72.922099,PM2.5,36,193,82
India,Maharashtra,Mumbai,"Khindipada-Bhandup West, Mumbai - IITM",06-03-2024 20:00:00,19.1653323,72.922099,NH3,9,18,13
India,Maharashtra,Mumbai,"Kurla, Mumbai - MPCB",06-03-2024 20:00:00,19.0863,72.8888,NO2,15,20,17
India,Maharashtra,Mumbai,"Kurla, Mumbai - MPCB",06-03-2024 20:00:00,19.0863,72.8888,CO,8,74,16
India,Maharashtra,Mumbai,"Mazgaon, Mumbai - IITM",06-03-2024 20:00:00,18.96702,72.84214,PM2.5,56,160,93
India,Maharashtra,Mumbai,"Mazgaon, Mumbai - IITM",06-03-2024 20:00:00,18.96702,72.84214,SO2,6,30,18
India,Maharashtra,Mumbai,"Mulund West, Mumbai - MPCB",06-03-2024 20:00:00,19.1750,72.9419,SO2,13,13,13
India,Maharashtra,Mumbai,"Navy Nagar-Colaba, Mumbai - IITM",06-03-2024 20:00:00,18.897756,72.813320,PM2.5,47,104,69
India,Maharashtra,Mumbai,"Powai, Mumbai - MPCB",06-03-2024 20:00:00,19.137500,72.915056,SO2,27,32,29
India,Maharashtra,Mumbai,"Sewri, Mumbai - BMC",06-03-2024 20:00:00,19.000084,72.856730,PM2.5,24,91,65
India,Maharashtra,Mumbai,"Shivaji Nagar, Mumbai - BMC",06-03-2024 20:00:00,19.060498,72.923356,CO,2,119,15
India,Maharashtra,Mumbai,"Sion, Mumbai - MPCB",06-03-2024 20:00:00,19.047000,72.874600,PM10,111,303,169
India,Maharashtra,Mumbai,"Sion, Mumbai - MPCB",06-03-2024 20:00:00,19.047000,72.874600,NO2,19,132,64
India,Maharashtra,Mumbai,"Vasai West, Mumbai - MPCB",06-03-2024 20:00:00,19.383200,72.820400,PM2.5,NA,NA,NA
India,Maharashtra,Mumbai,"Vasai West, Mumbai - MPCB",06-03-2024 20:00:00,19.383200,72.820400,SO2,27,29,28
India,Maharashtra,Mumbai,"Vile Parle West, Mumbai - MPCB",06-03-2024 20:00:00,19.10861,72.83622,PM10,48,102,74
India,Maharashtra,Mumbai,"Vile Parle West, Mumbai - MPCB",06-03-2024 20:00:00,19.10861,72.83622,NO2,6,35,15
India,Maharashtra,Mumbai,"Vile Parle West, Mumbai - MPCB",06-03-2024 20:00:00,19.10861,72.83622,SO2,13,14,14
India,Maharashtra,Mumbai,"Vile Parle West, Mumbai - MPCB",06-03-2024 20:00:00,19.10861,72.83622,OZONE,4,5,4
India,Maharashtra,Mumbai,"Worli, Mumbai - MPCB",06-03-2024 20:00:00,18.9936162,72.8128113,CO,34,38,36
India,Maharashtra,Nagpur,"Ambazari, Nagpur - MPCB",06-03-2024 20:00:00,21.121801,79.04952,SO2,6,39,18
India,Maharashtra,Nagpur,"Mahal, Nagpur - MPCB",06-03-2024 20:00:00,21.14472,79.107595,NO2,7,61,22
India,Maharashtra,Nagpur,"Mahal, Nagpur - MPCB",06-03-2024 20:00:00,21.14472,79.107595,CO,37,136,90
India,Maharashtra,Nagpur,"Opp GPO Civil Lines, Nagpur - MPCB",06-03-2024 20:00:00,21.152875,79.0517531,PM2.5,39,175,79
India,Maharashtra,Nagpur,"Opp GPO Civil Lines, Nagpur - MPCB",06-03-2024 20:00:00,21.152875,79.0517531,NO2,13,192,61
India,Maharashtra,Nagpur,"Opp GPO Civil Lines, Nagpur - MPCB",06-03-2024 20:00:00,21.152875,79.0517531,CO,11,127,50
India,Maharashtra,Nagpur,"Opp GPO Civil Lines, Nagpur - MPCB",06-03-2024 20:00:00,21.152875,79.0517531,OZONE,2,38,25
India,Maharashtra,Nagpur,"Ram Nagar, Nagpur - MPCB",06-03-2024 20:00:00,21.143383,79.048912,PM10,62,173,101
India,Maharashtra,Nagpur,"Ram Nagar, Nagpur - MPCB",06-03-2024 20:00:00,21.143383,79.048912,NO2,7,84,24
India,Maharashtra,Nagpur,"Ram Nagar, Nagpur - MPCB",06-03-2024 20:00:00,21.143383,79.048912,NH3,5,15,7
India,Maharashtra,Nashik,"Gangapur Road, Nashik - MPCB",06-03-2024 20:00:00,20.0073285,73.7762427,PM10,47,93,76
India,Maharashtra,Nashik,"Gangapur Road, Nashik - MPCB",06-03-2024 20:00:00,20.0073285,73.7762427,NH3,2,2,2
India,Maharashtra,Nashik,"Gangapur Road, Nashik - MPCB",06-03-2024 20:00:00,20.0073285,73.7762427,CO,18,18,18
India,Maharashtra,Nashik,"MIDC Ambad, Nashik - MPCB",06-03-2024 20:00:00,19.950220,73.731480,PM2.5,36,315,106
India,Maharashtra,Nashik,"MIDC Ambad, Nashik - MPCB",06-03-2024 20:00:00,19.950220,73.731480,NH3,1,1,1
India,Maharashtra,Navi Mumbai,"Kopripada-Vashi, Navi Mumbai - MPCB",06-03-2024 20:00:00,19.090337,73.014232,PM10,22,237,119
India,Maharashtra,Navi Mumbai,"Mahape, Navi Mumbai - MPCB",06-03-2024 20:00:00,19.1135051,73.008978,PM2.5,16,279,91
India,Maharashtra,Navi Mumbai,"Mahape, Navi Mumbai - MPCB",06-03-2024 20:00:00,19.1135051,73.008978,PM10,70,240,140
India,Maharashtra,Navi Mumbai,"Nerul, Navi Mumbai - MPCB",06-03-2024 20:00:00,19.008751,73.016620,PM2.5,27,309,131
India,Maharashtra,Navi Mumbai,"Sanpada, Navi Mumbai - MPCB",06-03-2024 20:00:00,19.0575752,73.0151367,SO2,2,74,19
India,Maharashtra,Navi Mumbai,"Sector-19A Nerul, Navi Mumbai - IITM",06-03-2024 20:00:00,19.044,73.0325,NO2,26,136,74
India,Maharashtra,Navi Mumbai,"Sector-19A Nerul, Navi Mumbai - IITM",06-03-2024 20:00:00,19.044,73.0325,SO2,20,51,33
India,Maharashtra,Navi Mumbai,"Sector-2E Kalamboli, Navi Mumbai - MPCB",06-03-2024 20:00:00,19.02579,73.10297,PM2.5,61,171,110
India,Maharashtra,Navi Mumbai,"Sector-2E Kalamboli, Navi Mumbai - MPCB",06-03-2024 20:00:00,19.02579,73.10297,SO2,8,101,29
India,Maharashtra,Navi Mumbai,"Tondare-Taloja, Navi Mumbai - MPCB",06-03-2024 20:00:00,19.0630,73.1209,PM10,109,261,176
India,Maharashtra,Parbhani,"Masoom Colony, Parbhani - MPCB",06-03-2024 20:00:00,19.265594,76.761463,PM10,53,195,122
India,Maharashtra,Parbhani,"Masoom Colony, Parbhani - MPCB",06-03-2024 20:00:00,19.265594,76.761463,NH3,2,13,9
India,Maharashtra,Parbhani,"Masoom Colony, Parbhani - MPCB",06-03-2024 20:00:00,19.265594,76.761463,SO2,3,95,31
India,Maharashtra,Pimpri-Chinchwad,"Gavalinagar, Pimpri Chinchwad - MPCB",06-03-2024 20:00:00,18.63673,73.82487,NH3,1,15,5
India,Maharashtra,Pimpri-Chinchwad,"Thergaon, Pimpri Chinchwad - MPCB",06-03-2024 20:00:00,18.616318,73.765797,NO2,26,100,56
India,Maharashtra,Pimpri-Chinchwad,"Thergaon, Pimpri Chinchwad - MPCB",06-03-2024 20:00:00,18.616318,73.765797,SO2,4,22,10
India,Maharashtra,Pune,"Bhosari, Pune - IITM",06-03-2024 20:00:00,18.640051,73.848956,PM10,61,130,101
India,Maharashtra,Pune,"Savitribai Phule Pune University, Pune - MPCB",06-03-2024 20:00:00,18.547056,73.826908,SO2,4,14,7
India,Maharashtra,Pune,"Transport Nagar-Nigdi, Pune - IITM",06-03-2024 20:00:00,18.664282,73.763966,CO,34,73,52
India,Maharashtra,Sangli,"Vijay Nagar, Sangli - MPCB",06-03-2024 20:00:00, 16.5038,74.3623,PM2.5,48,266,104
India,Maharashtra,Sangli,"Vijay Nagar, Sangli - MPCB",06-03-2024 20:00:00, 16.5038,74.3623,SO2,8,31,18
India,Maharashtra,Solapur,"Dnyaneshwar Nagar, Solapur - MPCB",06-03-2024 20:00:00,17.6336264,75.9132495,CO,14,78,29
India,Maharashtra,Solapur,"Ratandeep Housing Society, Solapur - MPCB",06-03-2024 20:00:00,17.65439,75.90649,NO2,28,148,63
India,Maharashtra,Solapur,"Ratandeep Housing Society, Solapur - MPCB",06-03-2024 20:00:00,17.65439,75.90649,SO2,7,21,12
India,Maharashtra,Solapur,"Ratandeep Housing Society, Solapur - MPCB",06-03-2024 20:00:00,17.65439,75.90649,OZONE,8,175,129
India,Maharashtra,Solapur,"Solapur, Solapur - MPCB",06-03-2024 20:00:00,17.6599188,75.9063906,PM10,123,150,142
India,Maharashtra,Thane,"Kasarvadavali, Thane - MPCB",06-03-2024 20:00:00,19.26777,72.97182,NH3,5,21,11
India,Maharashtra,Thane,"Kasarvadavali, Thane - MPCB",06-03-2024 20:00:00,19.26777,72.97182,SO2,5,26,12
India,Maharashtra,Thane,"Pimpleshwar Mandir, Thane - MPCB",06-03-2024 20:00:00,19.192056,72.9585188,NH3,3,3,3
India,Maharashtra,Thane,"Pimpleshwar Mandir, Thane - MPCB",06-03-2024 20:00:00,19.192056,72.9585188,SO2,3,91,22
India,Maharashtra,Thane,"Upvan Fort, Thane - MPCB",06-03-2024 20:00:00,19.222279,72.957979,NO2,12,117,48
India,Maharashtra,Thane,"Upvan Fort, Thane - MPCB",06-03-2024 20:00:00,19.222279,72.957979,OZONE,11,121,93
India,Maharashtra,Ulhasnagar,"Sidhi Vinayak Nagar, Ulhasnagar - MPCB",06-03-2024 20:00:00,19.235581,73.159121,CO,10,102,23
India,Maharashtra,Virar,"Bolinj, Virar - MPCB",06-03-2024 20:00:00,19.4458210,72.7988231,PM2.5,51,323,179
India,Maharashtra,Virar,"Bolinj, Virar - MPCB",06-03-2024 20:00:00,19.4458210,72.7988231,NH3,5,9,6
India,Manipur,Imphal,"DM College of Science, Imphal - Manipur PCB",06-03-2024 20:00:00,24.8207389,93.9423085,NO2,7,8,8
India,Manipur,Imphal,"Manipur University, Imphal - Manipur PCB",06-03-2024 20:00:00,24.7524239,93.9286218,PM2.5,20,119,59
India,Manipur,Imphal,"Manipur University, Imphal - Manipur PCB",06-03-2024 20:00:00,24.7524239,93.9286218,OZONE,4,56,44
India,Meghalaya,Shillong,"Lumpyngngad, Shillong - Meghalaya PCB",06-03-2024 20:00:00,25.5586,91.8985,PM2.5,2,215,46
India,Meghalaya,Shillong,"Lumpyngngad, Shillong - Meghalaya PCB",06-03-2024 20:00:00,25.5586,91.8985,SO2,43,47,45
India,Mizoram,Aizawl,"Sikulpuikawn, Aizawl - Mizoram PCB",06-03-2024 20:00:00,23.7176342,92.7192841,CO,12,21,18
India,Odisha,Angul,"Hakimapada, Angul - OSPCB",06-03-2024 20:00:00,20.832874,85.104082,PM10,82,267,152
India,Odisha,Angul,"Hakimapada, Angul - OSPCB",06-03-2024 20:00:00,20.832874,85.104082,NH3,1,2,1
India,Odisha,Angul,"Hakimapada, Angul - OSPCB",06-03-2024 20:00:00,20.832874,85.104082,SO2,10,125,58
India,Odisha,Barbil,"Forest Office, Barbil - OSPCB",06-03-2024 20:00:00,22.1166054,85.3945546,NO2,3,13,8
India,Odisha,Barbil,"Forest Office, Barbil - OSPCB",06-03-2024 20:00:00,22.1166054,85.3945546,NH3,4,7,5
India,Odisha,Baripada,"Meher Colony, Baripada - OSPCB",06-03-2024 20:00:00,21.941841,86.728318,PM10,92,123,107
India,Odisha,Bhubaneswar,"Lingraj Mandir, Bhubaneswar - OSPCB",06-03-2024 20:00:00,20.240790,85.836784,PM10,61,95,79
India,Odisha,Bhubaneswar,"Lingraj Mandir, Bhubaneswar - OSPCB",06-03-2024 20:00:00,20.240790,85.836784,NH3,2,4,3
India,Odisha,Bhubaneswar,"Lingraj Mandir, Bhubaneswar - OSPCB",06-03-2024 20:00:00,20.240790,85.836784,SO2,3,10,4
India,Odisha,Bhubaneswar,"Patia, Bhubaneswar - OSPCB",06-03-2024 20:00:00,20.34652,85.81630,NO2,5,16,11
India,Odisha,Bileipada,"Tata Township, Bileipada - OSPCB",06-03-2024 20:00:00,22.06156703,85.47409613,CO,8,103,16
India,Odisha,Brajrajnagar,"GM Office, Brajrajnagar - OSPCB",06-03-2024 20:00:00,21.8004996,83.8396977,NO2,15,17,16
India,Odisha,Brajrajnagar,"GM Office, Brajrajnagar - OSPCB",06-03-2024 20:00:00,21.8004996,83.8396977,NH3,1,1,1
India,Odisha,Byasanagar,"Ferro Chrome Colony, Byasanagar - OSPCB",06-03-2024 20:00:00,20.94185,86.11510,PM2.5,73,170,106
India,Odisha,Cuttack,"CDA Area, Cuttack - OSPCB",06-03-2024 20:00:00,20.48891     ,85.84768     ,CO,28,40,32
India,Odisha,Cuttack,"CDA Area, Cuttack - OSPCB",06-03-2024 20:00:00,20.48891     ,85.84768     ,OZONE,15,142,88
India,Odisha,Nayagarh,"Dabuna, Nayagarh - OSPCB",06-03-2024 20:00:00,21.847279,85.416905,PM10,NA,NA,NA
India,Odisha,Rairangpur,"Divisional Forest Office, Rairangpur - OSPCB",06-03-2024 20:00:00,22.265816,86.174829,PM2.5,50,130,94
India,Odisha,Rairangpur,"Divisional Forest Office, Rairangpur - OSPCB",06-03-2024 20:00:00,22.265816,86.174829,NO2,7,8,7
India,Odisha,Rairangpur,"Divisional Forest Office, Rairangpur - OSPCB",06-03-2024 20:00:00,22.265816,86.174829,CO,15,32,21
India,Odisha,Rourkela,"Raghunathpali, Rourkela - OSPCB",06-03-2024 20:00:00,22.220833,84.809444,NO2,21,100,50
India,Odisha,Rourkela,"Sector-2, Rourkela - OSPCB",06-03-2024 20:00:00,22.24500000,84.88111111,PM10,55,129,92
India,Odisha,Rourkela,"Sector-2, Rourkela - OSPCB",06-03-2024 20:00:00,22.24500000,84.88111111,CO,12,58,31
India,Odisha,Tensa,"Barsua Iron Ore Mines, Tensa - OSPCB",06-03-2024 20:00:00,21.869985,85.167016,NH3,6,8,7
India,Puducherry,Puducherry,"Jawahar Nagar, Puducherry - PPCC",06-03-2024 20:00:00,11.9309,79.8027,PM2.5,34,314,74
India,Punjab,Amritsar,"Golden Temple, Amritsar - PPCB",06-03-2024 20:00:00,31.620000,74.876512,NH3,7,15,7
India,Punjab,Amritsar,"Golden Temple, Amritsar - PPCB",06-03-2024 20:00:00,31.620000,74.876512,CO,19,80,50
India,Punjab,Jalandhar,"Civil Line, Jalandhar - PPCB",06-03-2024 20:00:00,31.321907,75.578914,PM2.5,32,68,47
India,Punjab,Jalandhar,"Civil Line, Jalandhar - PPCB",06-03-2024 20:00:00,31.321907,75.578914,NO2,35,38,36
India,Punjab,Jalandhar,"Civil Line, Jalandhar - PPCB",06-03-2024 20:00:00,31.321907,75.578914,SO2,3,10,5
India,Punjab,Khanna,"Kalal Majra, Khanna - PPCB",06-03-2024 20:00:00,30.736056 ,76.209694,NO2,31,31,31
India,Punjab,Khanna,"Kalal Majra, Khanna - PPCB",06-03-2024 20:00:00,30.736056 ,76.209694,SO2,6,67,17
India,Punjab,Khanna,"Kalal Majra, Khanna - PPCB",06-03-2024 20:00:00,30.736056 ,76.209694,CO,32,42,34
India,Punjab,Ludhiana,"Punjab Agricultural University, Ludhiana - PPCB",06-03-2024 20:00:00,30.9028,75.8086,PM10,29,109,63
India,Punjab,Ludhiana,"Punjab Agricultural University, Ludhiana - PPCB",06-03-2024 20:00:00,30.9028,75.8086,NH3,4,4,4
India,Punjab,Mandi Gobindgarh,"RIMT University, Mandi Gobindgarh - PPCB",06-03-2024 20:00:00,30.649961,76.331442,PM2.5,53,403,225
India,Punjab,Mandi Gobindgarh,"RIMT University, Mandi Gobindgarh - PPCB",06-03-2024 20:00:00,30.649961,76.331442,CO,15,35,21
India,Punjab,Mandi Gobindgarh,"RIMT University, Mandi Gobindgarh - PPCB",06-03-2024 20:00:00,30.649961,76.331442,OZONE,32,34,33
India,Punjab,Patiala,"Model Town, Patiala - PPCB",06-03-2024 20:00:00,30.349388,76.366642,PM2.5,29,65,44
India,Rajasthan,Alwar,"Moti Doongri, Alwar - RSPCB",06-03-2024 20:00:00,27.554793,76.611536,PM2.5,29,54,42
India,Rajasthan,Alwar,"Moti Doongri, Alwar - RSPCB",06-03-2024 20:00:00,27.554793,76.611536,NO2,37,47,42
India,Rajasthan,Banswara,"Rati Talai, Banswara - RSPCB",06-03-2024 20:00:00,23.555190,74.440010,NO2,11,135,44
India,Rajasthan,Banswara,"Rati Talai, Banswara - RSPCB",06-03-2024 20:00:00,23.555190,74.440010,SO2,16,55,25
India,Rajasthan,Banswara,"Rati Talai, Banswara - RSPCB",06-03-2024 20:00:00,23.555190,74.440010,CO,12,103,32
India,Rajasthan,Banswara,"Rati Talai, Banswara - RSPCB",06-03-2024 20:00:00,23.555190,74.440010,OZONE,3,162,109
India,Rajasthan,Baran,"Bamboliya, Baran - RSPCB",06-03-2024 20:00:00,25.106006,76.469948,PM2.5,25,93,55
India,Rajasthan,Barmer,"Railway Colony, Barmer - RSPCB",06-03-2024 20:00:00,25.747299,71.393989,NH3,3,7,4
India,Rajasthan,Barmer,"Railway Colony, Barmer - RSPCB",06-03-2024 20:00:00,25.747299,71.393989,CO,8,82,22
India,Rajasthan,Bhilwara,"Pratap Nagar, Bhilwara - RSPCB",06-03-2024 20:00:00,25.339605,74.618883,PM2.5,29,328,108
India,Rajasthan,Bhilwara,"Pratap Nagar, Bhilwara - RSPCB",06-03-2024 20:00:00,25.339605,74.618883,SO2,9,56,21
India,Rajasthan,Bhiwadi,"RIICO Ind. Area III, Bhiwadi - RSPCB",06-03-2024 20:00:00,28.194909,76.862296,NO2,28,89,38
India,Rajasthan,Bhiwadi,"Vasundhara Nagar_UIT, Bhiwadi - RSPCB",06-03-2024 20:00:00,28.207266,76.829265,NH3,5,8,7
India,Rajasthan,Bhiwadi,"Vasundhara Nagar_UIT, Bhiwadi - RSPCB",06-03-2024 20:00:00,28.207266,76.829265,CO,16,34,19
India,Rajasthan,Bikaner,"MM Ground, Bikaner - RSPCB",06-03-2024 20:00:00,28.018792,73.292658,OZONE,16,95,74
India,Rajasthan,Bundi,"New Colony, Bundi - RSPCB",06-03-2024 20:00:00,25.435774,75.644272,PM10,70,189,104
India,Rajasthan,Bundi,"New Colony, Bundi - RSPCB",06-03-2024 20:00:00,25.435774,75.644272,NH3,2,4,3
India,Rajasthan,Churu,"Subash Chowk, Churu - RSPCB",06-03-2024 20:00:00,28.296139,74.961696,NO2,3,59,18
India,Rajasthan,Churu,"Subash Chowk, Churu - RSPCB",06-03-2024 20:00:00,28.296139,74.961696,SO2,4,11,8
India,Rajasthan,Churu,"Subash Chowk, Churu - RSPCB",06-03-2024 20:00:00,28.296139,74.961696,OZONE,21,124,115
India,Rajasthan,Dausa,"Khatikan Mohalla, Dausa - RSPCB",06-03-2024 20:00:00,26.895552,76.334753,OZONE,62,79,68
India,Rajasthan,Dholpur,"Raja Ganj, Dholpur - RSPCB",06-03-2024 20:00:00,26.699557,77.898881,PM2.5,37,314,159
India,Rajasthan,Dholpur,"Raja Ganj, Dholpur - RSPCB",06-03-2024 20:00:00,26.699557,77.898881,SO2,4,7,5
India,Rajasthan,Hanumangarh,"Housing Board, Hanumangarh - RSPCB",06-03-2024 20:00:00,29.610750,74.283608,SO2,4,16,8
India,Rajasthan,Jaipur,"Adarsh Nagar, Jaipur - RSPCB",06-03-2024 20:00:00,26.902909,75.836858,PM10,53,191,86
India,Rajasthan,Jaipur,"Mansarovar Sector-12, Jaipur - RSPCB",06-03-2024 20:00:00,26.843698,75.766894,NH3,4,6,5
India,Rajasthan,Jaipur,"Police Commissionerate, Jaipur - RSPCB",06-03-2024 20:00:00,26.9164092,75.7994901,PM2.5,35,74,52
India,Rajasthan,Jaipur,"Police Commissionerate, Jaipur - RSPCB",06-03-2024 20:00:00,26.9164092,75.7994901,CO,18,62,39
India,Rajasthan,Jaipur,"RIICO Sitapura, Jaipur - RSPCB",06-03-2024 20:00:00,26.786682,75.827928,SO2,11,22,16
India,Rajasthan,Jaipur,"Sector-2 Murlipura, Jaipur - RSPCB",06-03-2024 20:00:00,26.960669,75.771817,NO2,5,28,14
India,Rajasthan,Jaisalmer,"Sadar Bazar, Jaisalmer - RSPCB",06-03-2024 20:00:00,26.912329,70.909168,NO2,12,63,22
India,Rajasthan,Jalore,"Mudtra Sili, Jalore - RSPCB",06-03-2024 20:00:00,25.344694,72.626208,CO,13,111,34
India,Rajasthan,Jhunjhunu,"Indra Nagar, Jhunjhunu - RSPCB",06-03-2024 20:00:00,28.108988,75.386577,SO2,2,36,6
India,Rajasthan,Jhunjhunu,"Indra Nagar, Jhunjhunu - RSPCB",06-03-2024 20:00:00,28.108988,75.386577,OZONE,17,85,73
India,Rajasthan,Jodhpur,"Collectorate, Jodhpur - RSPCB",06-03-2024 20:00:00,26.268249,73.0193853,PM2.5,24,85,39
India,Rajasthan,Jodhpur,"Digari Kalan, Jodhpur - RSPCB",06-03-2024 20:00:00,26.295810,73.082283,PM2.5,5,58,30
India,Rajasthan,Jodhpur,"Jhalamand, Jodhpur - RSPCB",06-03-2024 20:00:00,26.215415,73.070156,NH3,2,3,2
India,Rajasthan,Jodhpur,"Mandor, Jodhpur - RSPCB",06-03-2024 20:00:00,26.358805,73.047444,NH3,4,6,4
India,Rajasthan,Jodhpur,"Mandor, Jodhpur - RSPCB",06-03-2024 20:00:00,26.358805,73.047444,CO,20,31,24
India,Rajasthan,Jodhpur,"Mandor, Jodhpur - RSPCB",06-03-2024 20:00:00,26.358805,73.047444,OZONE,43,100,87
India,Rajasthan,Jodhpur,"Samrat Ashok Udhyan, Jodhpur - RSPCB",06-03-2024 20:00:00,26.253384,72.976571,NO2,6,109,19
India,Rajasthan,Jodhpur,"Samrat Ashok Udhyan, Jodhpur - RSPCB",06-03-2024 20:00:00,26.253384,72.976571,NH3,2,24,5
India,Rajasthan,Jodhpur,"Samrat Ashok Udhyan, Jodhpur - RSPCB",06-03-2024 20:00:00,26.253384,72.976571,SO2,2,10,5
India,Rajasthan,Jodhpur,"Samrat Ashok Udhyan, Jodhpur - RSPCB",06-03-2024 20:00:00,26.253384,72.976571,CO,24,101,37
India,Rajasthan,Kota,"Dhanmandi, Kota - RSPCB",06-03-2024 20:00:00,25.164090,75.858137,CO,18,112,40
India,Rajasthan,Kota,"Nayapura, Kota - RSPCB",06-03-2024 20:00:00,25.196024,75.855668,OZONE,4,145,113
India,Rajasthan,Kota,"Shrinath Puram, Kota - RSPCB",06-03-2024 20:00:00,25.14389,75.821256,PM2.5,79,303,183
India,Rajasthan,Kota,"Shrinath Puram, Kota - RSPCB",06-03-2024 20:00:00,25.14389,75.821256,CO,14,74,41
India,Rajasthan,Nagaur,"Karni Colony, Nagaur - RSPCB",06-03-2024 20:00:00,27.213494,73.734444,NO2,7,51,15
India,Rajasthan,Pali,"Indira Colony Vistar, Pali - RSPCB",06-03-2024 20:00:00,25.771061, 73.340227,CO,14,60,35
India,Rajasthan,Pali,"Indira Colony Vistar, Pali - RSPCB",06-03-2024 20:00:00,25.771061, 73.340227,OZONE,20,83,70
India,Rajasthan,Sawai Madhopur,"Sahu Nagar, Sawai Madhopur - RSPCB",06-03-2024 20:00:00,26.031443,76.359327,NO2,12,62,21
India,Rajasthan,Sikar,"Radhakishan Pura, Sikar - RSPCB",06-03-2024 20:00:00,27.608912,75.153302,PM10,47,146,80
India,Rajasthan,Sikar,"Radhakishan Pura, Sikar - RSPCB",06-03-2024 20:00:00,27.608912,75.153302,SO2,3,13,7
India,Rajasthan,Sikar,"Radhakishan Pura, Sikar - RSPCB",06-03-2024 20:00:00,27.608912,75.153302,CO,14,79,27
India,Rajasthan,Sirohi,"Vedhaynath Colony, Sirohi - RSPCB",06-03-2024 20:00:00,24.885261,72.857549,SO2,10,18,13
India,Rajasthan,Sirohi,"Vedhaynath Colony, Sirohi - RSPCB",06-03-2024 20:00:00,24.885261,72.857549,CO,12,74,44
India,Rajasthan,Sirohi,"Vedhaynath Colony, Sirohi - RSPCB",06-03-2024 20:00:00,24.885261,72.857549,OZONE,22,165,135
India,Rajasthan,Sri Ganganagar,"Old City, Sri Ganganagar - RSPCB",06-03-2024 20:00:00,29.931624,73.864511,CO,48,130,74
India,Rajasthan,Tonk,"Shastri Nagar, Tonk - RSPCB",06-03-2024 20:00:00,26.159933,75.780517,NO2,16,130,34
India,Rajasthan,Udaipur,"Ashok Nagar, Udaipur - RSPCB",06-03-2024 20:00:00,24.5886166,73.6321397,SO2,7,34,15
India,Rajasthan,Udaipur,"Ashok Nagar, Udaipur - RSPCB",06-03-2024 20:00:00,24.5886166,73.6321397,CO,17,90,47
India,Sikkim,Gangtok,"Zero Point GICI, Gangtok - SSPCB",06-03-2024 20:00:00,27.338530,88.614099,NH3,1,1,1
India,Sikkim,Gangtok,"Zero Point GICI, Gangtok - SSPCB",06-03-2024 20:00:00,27.338530,88.614099,CO,13,28,17
India,TamilNadu,Ariyalur,"Keelapalur, Ariyalur - TNPCB",06-03-2024 20:00:00,11.06825,79.07033,PM10,NA,NA,NA
India,TamilNadu,Chengalpattu,"Crescent University, Chengalpattu - TNPCB",06-03-2024 20:00:00,12.8777316,80.0834807,SO2,NA,NA,NA
India,TamilNadu,Chennai,"Alandur Bus Depot, Chennai - CPCB",06-03-2024 20:00:00,12.9099161,80.1076538,CO,80,102,86
India,TamilNadu,Chennai,"Arumbakkam, Chennai - TNPCB",06-03-2024 20:00:00,13.0664,80.2112 ,NO2,9,39,20
India,TamilNadu,Chennai,"Arumbakkam, Chennai - TNPCB",06-03-2024 20:00:00,13.0664,80.2112 ,NH3,1,5,3
India,TamilNadu,Chennai,"Gandhi Nagar_Ennore, Chennai - TNPCB",06-03-2024 20:00:00,13.218341,80.32027,PM2.5,52,252,91
India,TamilNadu,Chennai,"Kodungaiyur, Chennai - TNPCB",06-03-2024 20:00:00,13.1278,80.2642,SO2,1,13,6
India,TamilNadu,Chennai,"Manali, Chennai - CPCB",06-03-2024 20:00:00,13.164544,80.26285,PM2.5,12,307,76
India,TamilNadu,Chennai,"Manali, Chennai - CPCB",06-03-2024 20:00:00,13.164544,80.26285,PM10,15,207,71
India,TamilNadu,Chennai,"Manali, Chennai - CPCB",06-03-2024 20:00:00,13.164544,80.26285,OZONE,6,9,6
India,TamilNadu,Chennai,"Perungudi, Chennai - TNPCB",06-03-2024 20:00:00,12.9533,80.2357,NH3,2,3,2
India,TamilNadu,Chennai,"Perungudi, Chennai - TNPCB",06-03-2024 20:00:00,12.9533,80.2357,CO,13,82,19
India,TamilNadu,Chennai,"Perungudi, Chennai - TNPCB",06-03-2024 20:00:00,12.9533,80.2357,OZONE,3,8,6
India,TamilNadu,Chennai,"Royapuram, Chennai - TNPCB",06-03-2024 20:00:00,13.1036,80.2909,NH3,1,1,1
India,TamilNadu,Chennai,"Royapuram, Chennai - TNPCB",06-03-2024 20:00:00,13.1036,80.2909,SO2,1,5,2
India,TamilNadu,Chennai,"Royapuram, Chennai - TNPCB",06-03-2024 20:00:00,13.1036,80.2909,CO,16,60,24
India,TamilNadu,Chennai,"Velachery Res. Area, Chennai - CPCB",06-03-2024 20:00:00,13.0052189,80.2398125,PM2.5,40,97,66
India,TamilNadu,Chennai,"Velachery Res. Area, Chennai - CPCB",06-03-2024 20:00:00,13.0052189,80.2398125,PM10,60,109,81
India,TamilNadu,Chennai,"Velachery Res. Area, Chennai - CPCB",06-03-2024 20:00:00,13.0052189,80.2398125,SO2,10,11,11
India,TamilNadu,Chennai,"Velachery Res. Area, Chennai - CPCB",06-03-2024 20:00:00,13.0052189,80.2398125,OZONE,1,26,6
India,TamilNadu,Coimbatore,"PSG College of Arts and Science, Coimbatore - TNPCB",06-03-2024 20:00:00,11.0328,77.0349,SO2,NA,NA,NA
India,TamilNadu,Coimbatore,"PSG College of Arts and Science, Coimbatore - TNPCB",06-03-2024 20:00:00,11.0328,77.0349,CO,5,5,5
India,TamilNadu,Cuddalore,"Kudikadu, Cuddalore - TNPCB",06-03-2024 20:00:00,11.6829898,79.7532099,SO2,11,12,11
India,TamilNadu,Gummidipoondi,"Anthoni Pillai Nagar, Gummidipoondi - TNPCB",06-03-2024 20:00:00,13.4127,80.1081,SO2,NA,NA,NA
India,TamilNadu,Kanchipuram,"Kilambi, Kanchipuram - TNPCB",06-03-2024 20:00:00,12.864618,79.659968,PM2.5,NA,NA,NA
India,TamilNadu,Kanchipuram,"Kilambi, Kanchipuram - TNPCB",06-03-2024 20:00:00,12.864618,79.659968,OZONE,3,91,61
India,TamilNadu,Ooty,"Bombay Castel, Ooty - TNPCB",06-03-2024 20:00:00,11.4068288,76.7138973,SO2,13,13,13
India,TamilNadu,Ramanathapuram,"Chalai Bazaar, Ramanathapuram - TNPCB",06-03-2024 20:00:00,9.36399,78.831977,PM2.5,NA,NA,NA
India,TamilNadu,Ramanathapuram,"Chalai Bazaar, Ramanathapuram - TNPCB",06-03-2024 20:00:00,9.36399,78.831977,CO,4,5,4
India,TamilNadu,Ramanathapuram,"Chalai Bazaar, Ramanathapuram - TNPCB",06-03-2024 20:00:00,9.36399,78.831977,OZONE,14,14,14
India,TamilNadu,Tirupur,"Kumaran College, Tirupur - TNPCB",06-03-2024 20:00:00,11.0973603,77.3228673,PM10,50,413,157
India,TamilNadu,Vellore,"Vasanthapuram, Vellore - TNPCB",06-03-2024 20:00:00,12.909494,79.131861,NH3,1,2,1
India,TamilNadu,Virudhunagar,"Collectorate Office, Virudhunagar - TNPCB",06-03-2024 20:00:00,9.559382,77.948828,CO,26,27,26
India,Telangana,Hyderabad,"Bollaram Industrial Area, Hyderabad - TSPCB",06-03-2024 20:00:00,17.540891,78.358528,NO2,15,40,26
India,Telangana,Hyderabad,"Bollaram Industrial Area, Hyderabad - TSPCB",06-03-2024 20:00:00,17.540891,78.358528,CO,14,34,22
India,Telangana,Hyderabad,"Central University, Hyderabad - TSPCB",06-03-2024 20:00:00,17.460103,78.334361,CO,4,39,14
India,Telangana,Hyderabad,"ECIL Kapra, Hyderabad - TSPCB",06-03-2024 20:00:00,17.470431,78.566959,PM10,NA,NA,NA
India,Telangana,Hyderabad,"Kokapet, Hyderabad - TSPCB",06-03-2024 20:00:00,17.393559,78.339194,PM10,NA,NA,NA
India,Telangana,Hyderabad,"Kokapet, Hyderabad - TSPCB",06-03-2024 20:00:00,17.393559,78.339194,NH3,NA,NA,NA
India,Telangana,Hyderabad,"Kompally Municipal Office, Hyderabad - TSPCB",06-03-2024 20:00:00,17.544899,78.486949,PM10,NA,NA,NA
India,Telangana,Hyderabad,"Kompally Municipal Office, Hyderabad - TSPCB",06-03-2024 20:00:00,17.544899,78.486949,NO2,NA,NA,NA
India,Telangana,Hyderabad,"Nacharam_TSIIC IALA, Hyderabad - TSPCB",06-03-2024 20:00:00,17.429398,78.569354,PM2.5,NA,NA,NA
India,Telangana,Hyderabad,"Nacharam_TSIIC IALA, Hyderabad - TSPCB",06-03-2024 20:00:00,17.429398,78.569354,PM10,NA,NA,NA
India,Telangana,Hyderabad,"New Malakpet, Hyderabad - TSPCB",06-03-2024 20:00:00,17.37206,78.50864,NO2,18,31,22
India,Telangana,Hyderabad,"Sanathnagar, Hyderabad - TSPCB",06-03-2024 20:00:00,17.4559458,78.4332152,NO2,20,306,74
India,Telangana,Hyderabad,"Sanathnagar, Hyderabad - TSPCB",06-03-2024 20:00:00,17.4559458,78.4332152,SO2,2,22,9
India,Telangana,Hyderabad,"Somajiguda, Hyderabad - TSPCB",06-03-2024 20:00:00,17.417094,78.457437,NO2,19,30,24
India,Telangana,Hyderabad,"Somajiguda, Hyderabad - TSPCB",06-03-2024 20:00:00,17.417094,78.457437,OZONE,1,28,24
India,Telangana,Hyderabad,"Zoo Park, Hyderabad - TSPCB",06-03-2024 20:00:00,17.349694,78.451437,PM10,28,153,103
India,Tripura,Agartala,"Bardowali, Agartala - Tripura SPCB",06-03-2024 20:00:00,23.8175497,91.2726974,NH3,2,3,3
India,Tripura,Agartala,"Bardowali, Agartala - Tripura SPCB",06-03-2024 20:00:00,23.8175497,91.2726974,SO2,27,30,28
India,Uttar_Pradesh,Agra,"Manoharpur, Agra - UPPCB",06-03-2024 20:00:00,27.23711,78.01936,NO2,19,20,19
India,Uttar_Pradesh,Agra,"Manoharpur, Agra - UPPCB",06-03-2024 20:00:00,27.23711,78.01936,NH3,1,1,1
India,Uttar_Pradesh,Agra,"Rohta, Agra - UPPCB",06-03-2024 20:00:00,27.106972,78.000111,CO,2,18,4
India,Uttar_Pradesh,Agra,"Sanjay Palace, Agra - UPPCB",06-03-2024 20:00:00,27.19865833,78.00598056,PM2.5,10,62,32
India,Uttar_Pradesh,Agra,"Sector-3B Avas Vikas Colony, Agra - UPPCB",06-03-2024 20:00:00,27.19412,77.96237,PM10,27,81,56
India,Uttar_Pradesh,Agra,"Sector-3B Avas Vikas Colony, Agra - UPPCB",06-03-2024 20:00:00,27.19412,77.96237,CO,8,17,9
India,Uttar_Pradesh,Agra,"Shahjahan Garden, Agra - UPPCB",06-03-2024 20:00:00,27.169338,78.03582,PM2.5,28,83,58
India,Uttar_Pradesh,Agra,"Shahjahan Garden, Agra - UPPCB",06-03-2024 20:00:00,27.169338,78.03582,NH3,4,8,6
India,Uttar_Pradesh,Baghpat,"Sardar Patel Inter College, Baghpat - UPPCB",06-03-2024 20:00:00,28.964949,77.278761,PM10,53,93,67
India,Uttar_Pradesh,Baghpat,"Sardar Patel Inter College, Baghpat - UPPCB",06-03-2024 20:00:00,28.964949,77.278761,SO2,24,44,33
India,Uttar_Pradesh,Bareilly,"Civil Lines, Bareilly - UPPCB",06-03-2024 20:00:00,28.359581,79.414455,SO2,41,44,42
India,Uttar_Pradesh,Bareilly,"Rajendra Nagar, Bareilly - UPPCB",06-03-2024 20:00:00,28.38910936,79.42963708,SO2,42,72,44
India,Uttar_Pradesh,Bulandshahr,"Yamunapuram, Bulandshahr - UPPCB",06-03-2024 20:00:00,28.406963,77.849831,PM10,79,156,112
India,Uttar_Pradesh,Bulandshahr,"Yamunapuram, Bulandshahr - UPPCB",06-03-2024 20:00:00,28.406963,77.849831,SO2,8,66,24
India,Uttar_Pradesh,Firozabad,"Nagla Bhau, Firozabad - UPPCB",06-03-2024 20:00:00,27.168897,78.376960,NO2,17,17,17
India,Uttar_Pradesh,Firozabad,"Vibhab Nagar, Firozabad - UPPCB",06-03-2024 20:00:00,27.1594,78.3953,PM10,27,59,36
India,Uttar_Pradesh,Firozabad,"Vibhab Nagar, Firozabad - UPPCB",06-03-2024 20:00:00,27.1594,78.3953,NH3,2,2,2
India,Uttar_Pradesh,Firozabad,"Vibhab Nagar, Firozabad - UPPCB",06-03-2024 20:00:00,27.1594,78.3953,OZONE,20,134,46
India,Uttar_Pradesh,Ghaziabad,"Indirapuram, Ghaziabad - UPPCB",06-03-2024 20:00:00,28.646233,77.358075,PM2.5,34,110,55
India,Uttar_Pradesh,Ghaziabad,"Indirapuram, Ghaziabad - UPPCB",06-03-2024 20:00:00,28.646233,77.358075,CO,26,44,34
India,Uttar_Pradesh,Ghaziabad,"Indirapuram, Ghaziabad - UPPCB",06-03-2024 20:00:00,28.646233,77.358075,OZONE,24,84,66
India,Uttar_Pradesh,Ghaziabad,"Sanjay Nagar, Ghaziabad - UPPCB",06-03-2024 20:00:00,28.685382,77.453839,PM10,71,116,91
India,Uttar_Pradesh,Ghaziabad,"Sanjay Nagar, Ghaziabad - UPPCB",06-03-2024 20:00:00,28.685382,77.453839,NH3,6,10,8
India,Uttar_Pradesh,Ghaziabad,"Sanjay Nagar, Ghaziabad - UPPCB",06-03-2024 20:00:00,28.685382,77.453839,SO2,18,43,27
India,Uttar_Pradesh,Ghaziabad,"Vasundhara, Ghaziabad - UPPCB",06-03-2024 20:00:00,28.6603346,77.3572563,NO2,24,123,81
India,Uttar_Pradesh,Ghaziabad,"Vasundhara, Ghaziabad - UPPCB",06-03-2024 20:00:00,28.6603346,77.3572563,CO,22,92,43
India,Uttar_Pradesh,Greater Noida,"Knowledge Park - III, Greater Noida - UPPCB",06-03-2024 20:00:00,28.47272,77.482000,PM2.5,70,142,94
India,Uttar_Pradesh,Greater Noida,"Knowledge Park - III, Greater Noida - UPPCB",06-03-2024 20:00:00,28.47272,77.482000,SO2,10,28,19
India,Uttar_Pradesh,Greater Noida,"Knowledge Park - V, Greater Noida - UPPCB",06-03-2024 20:00:00,28.557054,77.453663,PM10,61,182,115
India,Uttar_Pradesh,Greater Noida,"Knowledge Park - V, Greater Noida - UPPCB",06-03-2024 20:00:00,28.557054,77.453663,SO2,12,32,21
India,Uttar_Pradesh,Greater Noida,"Knowledge Park - V, Greater Noida - UPPCB",06-03-2024 20:00:00,28.557054,77.453663,CO,22,72,44
India,Uttar_Pradesh,Greater Noida,"Knowledge Park - V, Greater Noida - UPPCB",06-03-2024 20:00:00,28.557054,77.453663,OZONE,31,166,118
India,Uttar_Pradesh,Hapur,"Anand Vihar, Hapur - UPPCB",06-03-2024 20:00:00,28.725645,77.749675,PM10,51,97,71
India,Uttar_Pradesh,Hapur,"Anand Vihar, Hapur - UPPCB",06-03-2024 20:00:00,28.725645,77.749675,NO2,22,59,36
India,Uttar_Pradesh,Hapur,"Anand Vihar, Hapur - UPPCB",06-03-2024 20:00:00,28.725645,77.749675,NH3,5,7,6
India,Uttar_Pradesh,Hapur,"Anand Vihar, Hapur - UPPCB",06-03-2024 20:00:00,28.725645,77.749675,SO2,20,47,30
India,Uttar_Pradesh,Jhansi,"Shivaji Nagar, Jhansi - UPPCB",06-03-2024 20:00:00,25.4547,78.6039,NO2,17,48,31
India,Uttar_Pradesh,Jhansi,"Shivaji Nagar, Jhansi - UPPCB",06-03-2024 20:00:00,25.4547,78.6039,OZONE,1,56,18
India,Uttar_Pradesh,Kanpur,"FTI Kidwai Nagar, Kanpur - UPPCB",06-03-2024 20:00:00,26.428282,80.327067,PM2.5,32,62,49
India,Uttar_Pradesh,Kanpur,"NSI Kalyanpur, Kanpur - UPPCB",06-03-2024 20:00:00,26.509954,80.249612,NH3,1,1,1
India,Uttar_Pradesh,Kanpur,"Nehru Nagar, Kanpur - UPPCB",06-03-2024 20:00:00,26.4703136,80.3229863,PM2.5,48,103,72
India,Uttar_Pradesh,Kanpur,"Nehru Nagar, Kanpur - UPPCB",06-03-2024 20:00:00,26.4703136,80.3229863,CO,12,78,29
India,Uttar_Pradesh,Lucknow,"B R Ambedkar University, Lucknow - UPPCB",06-03-2024 20:00:00,26.766433,80.927299,PM2.5,25,75,48
India,Uttar_Pradesh,Lucknow,"Gomti Nagar, Lucknow - UPPCB",06-03-2024 20:00:00,26.868120,81.005119,SO2,1,13,9
India,Uttar_Pradesh,Lucknow,"Kendriya Vidyalaya, Lucknow - CPCB",06-03-2024 20:00:00,26.906111,80.948222,PM2.5,26,75,55
India,Uttar_Pradesh,Lucknow,"Kendriya Vidyalaya, Lucknow - CPCB",06-03-2024 20:00:00,26.906111,80.948222,SO2,3,9,7
India,Uttar_Pradesh,Lucknow,"Kukrail Picnic Spot-1, Lucknow - UPPCB",06-03-2024 20:00:00,26.90723,80.98579,PM2.5,17,63,38
India,Uttar_Pradesh,Lucknow,"Lalbagh, Lucknow - CPCB",06-03-2024 20:00:00,26.8458805,80.9365541,PM2.5,20,94,68
India,Uttar_Pradesh,Lucknow,"Talkatora District Industries Center, Lucknow - CPCB",06-03-2024 20:00:00,26.83399722,80.8917361,PM10,84,110,96
India,Uttar_Pradesh,Meerut,"Ganga Nagar, Meerut - UPPCB",06-03-2024 20:00:00,28.999264,77.7590354,PM10,52,123,73
India,Uttar_Pradesh,Meerut,"Ganga Nagar, Meerut - UPPCB",06-03-2024 20:00:00,28.999264,77.7590354,NO2,17,33,24
India,Uttar_Pradesh,Meerut,"Ganga Nagar, Meerut - UPPCB",06-03-2024 20:00:00,28.999264,77.7590354,NH3,4,6,5
India,Uttar_Pradesh,Meerut,"Jai Bhim Nagar, Meerut - UPPCB",06-03-2024 20:00:00,28.9535882,77.7622941,NH3,4,5,4
India,Uttar_Pradesh,Moradabad,"Buddhi Vihar, Moradabad - UPPCB",06-03-2024 20:00:00,28.83526,78.74460,PM10,36,78,57
India,Uttar_Pradesh,Moradabad,"Buddhi Vihar, Moradabad - UPPCB",06-03-2024 20:00:00,28.83526,78.74460,CO,24,28,25
India,Uttar_Pradesh,Moradabad,"Buddhi Vihar, Moradabad - UPPCB",06-03-2024 20:00:00,28.83526,78.74460,OZONE,16,40,28
India,Uttar_Pradesh,Moradabad,"Eco Herbal Park, Moradabad - UPPCB",06-03-2024 20:00:00,28.840739,78.697531,CO,7,49,32
India,Uttar_Pradesh,Moradabad,"Employment Office, Moradabad - UPPCB",06-03-2024 20:00:00,28.88528,78.73880,SO2,25,30,26
India,Uttar_Pradesh,Moradabad,"Jigar Colony, Moradabad - UPPCB",06-03-2024 20:00:00,28.856664,78.772638,CO,8,34,24
India,Uttar_Pradesh,Moradabad,"Kashiram Nagar, Moradabad - UPPCB",06-03-2024 20:00:00,28.849399,78.742362,CO,8,34,26
India,Uttar_Pradesh,Noida,"Sector - 125, Noida - UPPCB",06-03-2024 20:00:00,28.5447608,77.3231257,NH3,9,13,10
India,Uttar_Pradesh,Noida,"Sector - 62, Noida - IMD",06-03-2024 20:00:00,28.6245479,77.3577104,NO2,NA,NA,NA
India,Uttar_Pradesh,Noida,"Sector-1, Noida - UPPCB",06-03-2024 20:00:00,28.5898,77.3101,NH3,3,3,3
India,Uttar_Pradesh,Prayagraj,"Jhunsi, Prayagraj - UPPCB",06-03-2024 20:00:00,25.425602,81.917152,PM2.5,NA,NA,NA
India,Uttar_Pradesh,Prayagraj,"Motilal Nehru NIT, Prayagraj - UPPCB",06-03-2024 20:00:00,25.494,81.863,SO2,18,20,19
India,Uttar_Pradesh,Prayagraj,"Motilal Nehru NIT, Prayagraj - UPPCB",06-03-2024 20:00:00,25.494,81.863,CO,10,25,14
India,Uttar_Pradesh,Prayagraj,"Nagar Nigam, Prayagraj - UPPCB",06-03-2024 20:00:00,25.44919916 ,81.82735986 ,SO2,1,29,17
India,Uttar_Pradesh,Varanasi,"IESD Banaras Hindu University, Varanasi - UPPCB",06-03-2024 20:00:00,25.262326,82.995408,PM10,18,30,24
India,Uttar_Pradesh,Varanasi,"IESD Banaras Hindu University, Varanasi - UPPCB",06-03-2024 20:00:00,25.262326,82.995408,SO2,17,22,20
India,Uttar_Pradesh,Varanasi,"IESD Banaras Hindu University, Varanasi - UPPCB",06-03-2024 20:00:00,25.262326,82.995408,CO,14,23,16
India,Uttar_Pradesh,Varanasi,"Maldahiya, Varanasi - UPPCB",06-03-2024 20:00:00,25.32393,82.99687,OZONE,2,13,10
India,Uttar_Pradesh,Vrindavan,"Omex Eternity, Vrindavan - UPPCB",06-03-2024 20:00:00,27.5714090,77.6557570,NH3,2,3,2
India,Uttarakhand,Dehradun,"Doon University, Dehradun - UKPCB",06-03-2024 20:00:00,30.269444,78.044167,NO2,2,7,3
India,Uttarakhand,Dehradun,"Doon University, Dehradun - UKPCB",06-03-2024 20:00:00,30.269444,78.044167,CO,30,48,33
India,Uttarakhand,Dehradun,"Doon University, Dehradun - UKPCB",06-03-2024 20:00:00,30.269444,78.044167,OZONE,NA,NA,NA
India,Uttarakhand,Kashipur,"Govt. Girls Inter College, Kashipur - UKPCB",06-03-2024 20:00:00,29.2124114,78.9611753,NH3,3,8,5
India,Uttarakhand,Rishikesh,"Shivaji Nagar, Rishikesh - UKPCB",06-03-2024 20:00:00,30.075911,78.2859547,PM2.5,36,77,56
India,Uttarakhand,Rishikesh,"Shivaji Nagar, Rishikesh - UKPCB",06-03-2024 20:00:00,30.075911,78.2859547,NH3,2,3,3
India,Uttarakhand,Rishikesh,"Shivaji Nagar, Rishikesh - UKPCB",06-03-2024 20:00:00,30.075911,78.2859547,CO,19,50,33
India,West_Bengal,Durgapur,"Sidhu Kanhu Indoor Stadium, Durgapur - WBPCB",06-03-2024 20:00:00,23.5404352,87.2892225,PM10,78,123,103
India,West_Bengal,Haldia,"Priyambada Housing Estate, Haldia - WBPCB",06-03-2024 20:00:00,22.06047,88.109737,PM2.5,41,102,64
India,West_Bengal,Haldia,"Priyambada Housing Estate, Haldia - WBPCB",06-03-2024 20:00:00,22.06047,88.109737,PM10,87,184,117
India,West_Bengal,Haldia,"Priyambada Housing Estate, Haldia - WBPCB",06-03-2024 20:00:00,22.06047,88.109737,NH3,3,5,4
India,West_Bengal,Haldia,"Priyambada Housing Estate, Haldia - WBPCB",06-03-2024 20:00:00,22.06047,88.109737,CO,23,56,30
India,West_Bengal,Haldia,"Priyambada Housing Estate, Haldia - WBPCB",06-03-2024 20:00:00,22.06047,88.109737,OZONE,12,58,43
India,West_Bengal,Howrah,"Belur Math, Howrah - WBPCB",06-03-2024 20:00:00,22.629801,88.352017,NH3,3,8,5
India,West_Bengal,Howrah,"Ghusuri, Howrah - WBPCB",06-03-2024 20:00:00,22.611968,88.347422,PM2.5,87,312,164
India,West_Bengal,Howrah,"Ghusuri, Howrah - WBPCB",06-03-2024 20:00:00,22.611968,88.347422,OZONE,12,24,22
India,West_Bengal,Kolkata,"Ballygunge, Kolkata - WBPCB",06-03-2024 20:00:00,22.5367507,88.3638022,PM2.5,62,127,90
India,West_Bengal,Kolkata,"Ballygunge, Kolkata - WBPCB",06-03-2024 20:00:00,22.5367507,88.3638022,PM10,84,130,108
India,West_Bengal,Kolkata,"Bidhannagar, Kolkata - WBPCB",06-03-2024 20:00:00,22.58157048,88.41002457,PM2.5,60,233,109
India,West_Bengal,Kolkata,"Bidhannagar, Kolkata - WBPCB",06-03-2024 20:00:00,22.58157048,88.41002457,PM10,65,158,105
India,West_Bengal,Kolkata,"Fort William, Kolkata - WBPCB",06-03-2024 20:00:00,22.556640,88.342674,PM10,96,148,117
India,West_Bengal,Kolkata,"Fort William, Kolkata - WBPCB",06-03-2024 20:00:00,22.556640,88.342674,NO2,31,128,67
India,West_Bengal,Kolkata,"Jadavpur, Kolkata - WBPCB",06-03-2024 20:00:00,22.49929,88.36917,CO,14,54,19
India,West_Bengal,Kolkata,"Rabindra Bharati University, Kolkata - WBPCB",06-03-2024 20:00:00,22.627847,88.380669,PM2.5,41,130,67
India,West_Bengal,Kolkata,"Rabindra Sarobar, Kolkata - WBPCB",06-03-2024 20:00:00,22.51106,88.35142,PM2.5,48,123,89
India,West_Bengal,Kolkata,"Rabindra Sarobar, Kolkata - WBPCB",06-03-2024 20:00:00,22.51106,88.35142,PM10,69,109,89
India,West_Bengal,Kolkata,"Victoria, Kolkata - WBPCB",06-03-2024 20:00:00,22.5448082,88.3403691,OZONE,NA,NA,NA
India,West_Bengal,Siliguri,"Ward-32 Bapupara, Siliguri - WBPCB",06-03-2024 20:00:00,26.6879226,88.4152495,PM2.5,53,80,65
India,Andhra_Pradesh,Amaravati,"Secretariat, Amaravati - APPCB",06-03-2024 20:00:00,16.5150833,80.5181667,NO2,8,18,11
India,Andhra_Pradesh,Amaravati,"Secretariat, Amaravati - APPCB",06-03-2024 20:00:00,16.5150833,80.5181667,NH3,4,4,4
India,Andhra_Pradesh,Anantapur,"Gulzarpet, Anantapur - APPCB",06-03-2024 20:00:00,14.675886,77.593027,SO2,5,9,7
India,Andhra_Pradesh,Anantapur,"Gulzarpet, Anantapur - APPCB",06-03-2024 20:00:00,14.675886,77.593027,OZONE,2,57,52
India,Andhra_Pradesh,Chittoor,"Gangineni Cheruvu, Chittoor - APPCB",06-03-2024 20:00:00,13.204880,79.097889,PM2.5,26,58,47
India,Andhra_Pradesh,Chittoor,"Gangineni Cheruvu, Chittoor - APPCB",06-03-2024 20:00:00,13.204880,79.097889,PM10,29,63,50
India,Andhra_Pradesh,Kadapa,"Yerramukkapalli, Kadapa - APPCB",06-03-2024 20:00:00,14.465052,78.824187,PM10,37,81,55
India,Andhra_Pradesh,Kadapa,"Yerramukkapalli, Kadapa - APPCB",06-03-2024 20:00:00,14.465052,78.824187,NO2,8,8,8
India,Andhra_Pradesh,Rajamahendravaram,"Anand Kala Kshetram, Rajamahendravaram - APPCB",06-03-2024 20:00:00,16.9872867,81.7363176,PM2.5,50,91,70
India,Andhra_Pradesh,Rajamahendravaram,"Anand Kala Kshetram, Rajamahendravaram - APPCB",06-03-2024 20:00:00,16.9872867,81.7363176,PM10,64,128,83
India,Andhra_Pradesh,Rajamahendravaram,"Anand Kala Kshetram, Rajamahendravaram - APPCB",06-03-2024 20:00:00,16.9872867,81.7363176,NO2,12,37,22
India,Andhra_Pradesh,Tirupati,"Vaikuntapuram, Tirupati - APPCB",06-03-2024 20:00:00,13.615387,79.409230,NO2,16,24,20
India,Andhra_Pradesh,Vijayawada,"HB Colony, Vijayawada - APPCB",06-03-2024 20:00:00,16.536107,80.594233,CO,24,37,32
India,Andhra_Pradesh,Vijayawada,"HB Colony, Vijayawada - APPCB",06-03-2024 20:00:00,16.536107,80.594233,OZONE,4,35,27
India,Andhra_Pradesh,Vijayawada,"Kanuru, Vijayawada - APPCB",06-03-2024 20:00:00,16.486692,80.699436,PM2.5,54,78,64
India,Andhra_Pradesh,Vijayawada,"Kanuru, Vijayawada - APPCB",06-03-2024 20:00:00,16.486692,80.699436,PM10,61,90,73
India,Andhra_Pradesh,Vijayawada,"Kanuru, Vijayawada - APPCB",06-03-2024 20:00:00,16.486692,80.699436,SO2,7,11,9
India,Andhra_Pradesh,Vijayawada,"Kanuru, Vijayawada - APPCB",06-03-2024 20:00:00,16.486692,80.699436,CO,40,48,40
India,Andhra_Pradesh,Vijayawada,"Rajiv Gandhi Park, Vijayawada - APPCB",06-03-2024 20:00:00,16.509717,80.612222,NH3,1,7,6
India,Andhra_Pradesh,Vijayawada,"Rajiv Gandhi Park, Vijayawada - APPCB",06-03-2024 20:00:00,16.509717,80.612222,CO,32,42,35
India,Andhra_Pradesh,Vijayawada,"Rajiv Nagar, Vijayawada - APPCB",06-03-2024 20:00:00,16.554731,80.649110,SO2,11,20,16
India,Arunachal_Pradesh,Naharlagun,"Naharlagun, Naharlagun - APSPCB",06-03-2024 20:00:00,27.103358,93.679645,SO2,NA,NA,NA
India,Assam,Guwahati,"IITG, Guwahati - PCBA",06-03-2024 20:00:00,26.2028636,91.70046436,OZONE,6,39,27
India,Assam,Guwahati,"Railway Colony, Guwahati - PCBA",06-03-2024 20:00:00,26.181742,91.78063,PM2.5,43,315,101
India,Assam,Guwahati,"Railway Colony, Guwahati - PCBA",06-03-2024 20:00:00,26.181742,91.78063,NO2,3,4,3
India,Assam,Nagaon,"Christianpatty, Nagaon - PCBA",06-03-2024 20:00:00,26.349082,92.68449,NH3,2,9,4
India,Assam,Nalbari,"Bata Chowk, Nalbari - PCBA",06-03-2024 20:00:00,26.446912,91.439057,PM2.5,60,305,133
India,Assam,Nalbari,"Bata Chowk, Nalbari - PCBA",06-03-2024 20:00:00,26.446912,91.439057,OZONE,22,143,119
India,Assam,Silchar,"Tarapur, Silchar - PCBA",06-03-2024 20:00:00,24.82827,92.79525,CO,27,38,31
India,Assam,Sivasagar,"Girls College, Sivasagar - PCBA",06-03-2024 20:00:00,26.987634,94.636574,CO,2,92,13
India,Bihar,Araria,"Kharahiya Basti, Araria - BSPCB",06-03-2024 20:00:00,26.146529,87.454184,CO,22,30,26
India,Bihar,Araria,"Kharahiya Basti, Araria - BSPCB",06-03-2024 20:00:00,26.146529,87.454184,OZONE,8,10,9
India,Bihar,Arrah,"New DM Office, Arrah - BSPCB",06-03-2024 20:00:00,25.5626095,84.663264,NH3,3,4,3
India,Bihar,Arrah,"New DM Office, Arrah - BSPCB",06-03-2024 20:00:00,25.5626095,84.663264,SO2,16,21,18
India,Bihar,Arrah,"New DM Office, Arrah - BSPCB",06-03-2024 20:00:00,25.5626095,84.663264,OZONE,11,26,17
India,Bihar,Aurangabad,"Gurdeo Nagar, Aurangabad - BSPCB",06-03-2024 20:00:00,24.75746,84.366208,PM2.5,NA,NA,NA
India,Bihar,Aurangabad,"Gurdeo Nagar, Aurangabad - BSPCB",06-03-2024 20:00:00,24.75746,84.366208,PM10,31,131,60
India,Bihar,Aurangabad,"Gurdeo Nagar, Aurangabad - BSPCB",06-03-2024 20:00:00,24.75746,84.366208,NH3,5,8,7
India,Bihar,Bettiah,"Kamalnath Nagar, Bettiah - BSPCB",06-03-2024 20:00:00,26.80365,84.51954,PM10,NA,NA,NA
India,Bihar,Bhagalpur,"DM Office_Kachari Chowk, Bhagalpur - BSPCB",06-03-2024 20:00:00,25.251013,86.989001,PM10,68,131,100
India,Bihar,Bhagalpur,"DM Office_Kachari Chowk, Bhagalpur - BSPCB",06-03-2024 20:00:00,25.251013,86.989001,OZONE,23,41,36
India,Bihar,Bihar Sharif,"D M Colony, Bihar Sharif - BSPCB",06-03-2024 20:00:00,25.204762,85.514960,PM10,13,94,44
India,Bihar,Bihar Sharif,"D M Colony, Bihar Sharif - BSPCB",06-03-2024 20:00:00,25.204762,85.514960,NH3,2,2,2
India,Bihar,Chhapra,"Darshan Nagar, Chhapra - BSPCB",06-03-2024 20:00:00,25.7808257,84.7446768,NH3,6,11,8
India,Bihar,Chhapra,"Darshan Nagar, Chhapra - BSPCB",06-03-2024 20:00:00,25.7808257,84.7446768,SO2,4,79,25
India,Bihar,Chhapra,"Darshan Nagar, Chhapra - BSPCB",06-03-2024 20:00:00,25.7808257,84.7446768,CO,24,54,44
India,Bihar,Chhapra,"Darshan Nagar, Chhapra - BSPCB",06-03-2024 20:00:00,25.7808257,84.7446768,OZONE,14,40,35
India,Bihar,Gaya,"SFTI Kusdihra, Gaya - BSPCB",06-03-2024 20:00:00,24.762518,84.982348,NO2,19,50,33
India,Bihar,Hajipur,"Industrial Area, Hajipur - BSPCB",06-03-2024 20:00:00,25.697189,85.245900,SO2,6,16,7
India,Bihar,Katihar,"Mirchaibari, Katihar - BSPCB",06-03-2024 20:00:00,25.560083,87.553265,PM10,NA,NA,NA
India,Bihar,Kishanganj,"SDM Office_Khagra, Kishanganj - BSPCB",06-03-2024 20:00:00,26.0881305,87.93840336,NH3,11,12,12
India,Bihar,Kishanganj,"SDM Office_Khagra, Kishanganj - BSPCB",06-03-2024 20:00:00,26.0881305,87.93840336,CO,4,10,5
India,Bihar,Manguraha,"Forest Rest House, Manguraha - BSPCB",06-03-2024 20:00:00,27.308328,84.531742,OZONE,30,79,67
India,Bihar,Motihari,"Gandak Colony, Motihari - BSPCB",06-03-2024 20:00:00,26.63086,84.90051,PM10,29,85,47
India,Bihar,Motihari,"Gandak Colony, Motihari - BSPCB",06-03-2024 20:00:00,26.63086,84.90051,NO2,49,98,74
India,Bihar,Motihari,"Gandak Colony, Motihari - BSPCB",06-03-2024 20:00:00,26.63086,84.90051,OZONE,44,162,134
India,Bihar,Munger,"Town Hall, Munger - BSPCB",06-03-2024 20:00:00,25.376776,86.471523,PM2.5,NA,NA,NA
India,Bihar,Munger,"Town Hall, Munger - BSPCB",06-03-2024 20:00:00,25.376776,86.471523,SO2,NA,NA,NA
India,Bihar,Munger,"Town Hall, Munger - BSPCB",06-03-2024 20:00:00,25.376776,86.471523,CO,57,64,59
India,Bihar,Munger,"Town Hall, Munger - BSPCB",06-03-2024 20:00:00,25.376776,86.471523,OZONE,9,35,18
India,Bihar,Muzaffarpur,"MIT-Daudpur Kothi, Muzaffarpur - BSPCB",06-03-2024 20:00:00,26.1403345,85.3650192,NO2,4,6,5
India,Bihar,Muzaffarpur,"MIT-Daudpur Kothi, Muzaffarpur - BSPCB",06-03-2024 20:00:00,26.1403345,85.3650192,SO2,20,27,26
India,Bihar,Muzaffarpur,"MIT-Daudpur Kothi, Muzaffarpur - BSPCB",06-03-2024 20:00:00,26.1403345,85.3650192,OZONE,25,69,55
India,Bihar,Patna,"Govt. High School Shikarpur, Patna - BSPCB",06-03-2024 20:00:00,25.592539,85.227158,PM10,122,154,136
India,Bihar,Patna,"IGSC Planetarium Complex, Patna - BSPCB",06-03-2024 20:00:00,25.610369,85.132568,SO2,3,5,4
India,Bihar,Patna,"Muradpur, Patna - BSPCB",06-03-2024 20:00:00,25.619651,85.147382,NO2,8,17,12
India,Bihar,Patna,"Muradpur, Patna - BSPCB",06-03-2024 20:00:00,25.619651,85.147382,SO2,6,13,9
India,Bihar,Patna,"Muradpur, Patna - BSPCB",06-03-2024 20:00:00,25.619651,85.147382,OZONE,34,79,74
India,Bihar,Patna,"Rajbansi Nagar, Patna - BSPCB",06-03-2024 20:00:00,25.599486,85.113666,SO2,1,24,13
India,Bihar,Patna,"Samanpura, Patna - BSPCB",06-03-2024 20:00:00,25.596727,85.085624,SO2,16,18,17
India,Bihar,Purnia,"Mariam Nagar, Purnia - BSPCB",06-03-2024 20:00:00,25.366336,87.117468,OZONE,30,81,60
India,Bihar,Rajgir,"Dangi Tola, Rajgir - BSPCB",06-03-2024 20:00:00,25.03280,85.41948,NO2,NA,NA,NA
India,Bihar,Saharsa,"Police Line, Saharsa - BSPCB",06-03-2024 20:00:00,25.892357,86.590325,PM2.5,25,68,43
India,Bihar,Samastipur,"DM Office_Kasipur, Samastipur - BSPCB",06-03-2024 20:00:00,25.859655,85.77944,SO2,1,13,6
India,Bihar,Sasaram,"Dada Peer, Sasaram - BSPCB",06-03-2024 20:00:00,24.952822,84.002396,CO,75,115,105
India,Bihar,Sasaram,"Dada Peer, Sasaram - BSPCB",06-03-2024 20:00:00,24.952822,84.002396,OZONE,48,92,76
India,Chandigarh,Chandigarh,"Sector 22, Chandigarh - CPCC",06-03-2024 20:00:00,30.735567,76.775714,PM2.5,50,220,130
India,Chandigarh,Chandigarh,"Sector-25, Chandigarh - CPCC",06-03-2024 20:00:00,30.751462,76.762879,NH3,10,16,13
India,Chandigarh,Chandigarh,"Sector-53, Chandigarh - CPCC",06-03-2024 20:00:00,30.719859,76.738637,NH3,4,5,4
India,Chandigarh,Chandigarh,"Sector-53, Chandigarh - CPCC",06-03-2024 20:00:00,30.719859,76.738637,OZONE,14,73,63
India,Chhattisgarh,Bhilai,"32Bungalows, Bhilai - CECB",06-03-2024 20:00:00,21.194815,81.314770,PM10,41,99,68
India,Chhattisgarh,Bhilai,"32Bungalows, Bhilai - CECB",06-03-2024 20:00:00,21.194815,81.314770,NH3,6,6,6
India,Chhattisgarh,Bhilai,"Civic Center, Bhilai - Bhilai Steel Plant",06-03-2024 20:00:00,21.185571,81.343175,PM2.5,21,47,31
India,Chhattisgarh,Bhilai,"Civic Center, Bhilai - Bhilai Steel Plant",06-03-2024 20:00:00,21.185571,81.343175,PM10,48,119,70
India,Chhattisgarh,Bhilai,"Hathkhoj, Bhilai - CECB",06-03-2024 20:00:00,21.224231,81.408350,SO2,15,56,26
India,Chhattisgarh,Chhal,"Nawapara SECL Colony, Chhal - CECB",06-03-2024 20:00:00,22.118125,83.140608,PM10,38,88,65
India,Chhattisgarh,Chhal,"Nawapara SECL Colony, Chhal - CECB",06-03-2024 20:00:00,22.118125,83.140608,NO2,14,52,27
India,Chhattisgarh,Korba,"Rampur, Korba - CECB",06-03-2024 20:00:00,22.368195,82.746431,PM2.5,10,38,28
India,Chhattisgarh,Korba,"Rampur, Korba - CECB",06-03-2024 20:00:00,22.368195,82.746431,OZONE,2,29,15
India,Chhattisgarh,Korba,"Urja Nagar, Korba - CECB",06-03-2024 20:00:00,22.348441,82.549611,NO2,26,72,58
India,Chhattisgarh,Milupara,"Govt. Higher Secondary School, Milupara - CECB",06-03-2024 20:00:00,22.1910172,83.5197009,SO2,10,69,19
India,Chhattisgarh,Raipur,"AIIMS, Raipur - CECB",06-03-2024 20:00:00,21.258815,81.578979,SO2,6,31,13
India,Chhattisgarh,Raipur,"Bhatagaon New ISBT, Raipur - CECB",06-03-2024 20:00:00,21.219665,81.630094,PM10,32,83,57
India,Chhattisgarh,Raipur,"Bhatagaon New ISBT, Raipur - CECB",06-03-2024 20:00:00,21.219665,81.630094,SO2,4,7,5
India,Chhattisgarh,Raipur,"Krishak Nagar, Raipur - CECB",06-03-2024 20:00:00,21.237755,81.705301,PM2.5,32,144,55
India,Chhattisgarh,Tumidih,"OP Jindal Industrial Park, Tumidih - CECB",06-03-2024 20:00:00,22.06631475,83.33820077,OZONE,5,84,59
India,Delhi,Delhi,"Alipur, Delhi - DPCC",06-03-2024 20:00:00,28.815329,77.153010,NO2,17,44,30
India,Delhi,Delhi,"Alipur, Delhi - DPCC",06-03-2024 20:00:00,28.815329,77.153010,SO2,7,17,12
India,Delhi,Delhi,"Alipur, Delhi - DPCC",06-03-2024 20:00:00,28.815329,77.153010,CO,36,50,39
India,Delhi,Delhi,"Ashok Vihar, Delhi - DPCC",06-03-2024 20:00:00,28.695381,77.181665,PM10,81,164,120
India,Delhi,Delhi,"Aya Nagar, Delhi - IMD",06-03-2024 20:00:00,28.4706914,77.1099364,PM2.5,NA,NA,NA
India,Delhi,Delhi,"Aya Nagar, Delhi - IMD",06-03-2024 20:00:00,28.4706914,77.1099364,NO2,NA,NA,NA
India,Delhi,Delhi,"Aya Nagar, Delhi - IMD",06-03-2024 20:00:00,28.4706914,77.1099364,CO,11,38,23
India,Delhi,Delhi,"Bawana, Delhi - DPCC",06-03-2024 20:00:00,28.776200,77.051074,PM2.5,48,348,163
India,Delhi,Delhi,"Bawana, Delhi - DPCC",06-03-2024 20:00:00,28.776200,77.051074,PM10,94,203,130
India,Delhi,Delhi,"Bawana, Delhi - DPCC",06-03-2024 20:00:00,28.776200,77.051074,CO,21,58,28
India,Delhi,Delhi,"Burari Crossing, Delhi - IMD",06-03-2024 20:00:00,28.7256504,77.2011573,NO2,NA,NA,NA
India,Delhi,Delhi,"CRRI Mathura Road, Delhi - IMD",06-03-2024 20:00:00,28.5512005,77.2735737,OZONE,6,66,41
India,Delhi,Delhi,"Chandni Chowk, Delhi - IITM",06-03-2024 20:00:00,28.656756,77.227234,PM10,47,412,146
India,Delhi,Delhi,"Chandni Chowk, Delhi - IITM",06-03-2024 20:00:00,28.656756,77.227234,OZONE,19,37,28
India,Delhi,Delhi,"Dr. Karni Singh Shooting Range, Delhi - DPCC",06-03-2024 20:00:00,28.498571,77.264840,PM2.5,59,192,96
India,Delhi,Delhi,"Dr. Karni Singh Shooting Range, Delhi - DPCC",06-03-2024 20:00:00,28.498571,77.264840,PM10,86,143,112
India,Delhi,Delhi,"Dr. Karni Singh Shooting Range, Delhi - DPCC",06-03-2024 20:00:00,28.498571,77.264840,NO2,44,140,64
India,Delhi,Delhi,"IGI Airport (T3), Delhi - IMD",06-03-2024 20:00:00,28.5627763,77.1180053,OZONE,15,54,42
India,Delhi,Delhi,"IHBAS, Dilshad Garden, Delhi - CPCB",06-03-2024 20:00:00,28.6811736,77.3025234,OZONE,18,26,24
India,Delhi,Delhi,"ITO, Delhi - CPCB",06-03-2024 20:00:00,28.628624,77.241060,PM10,76,137,103
India,Delhi,Delhi,"ITO, Delhi - CPCB",06-03-2024 20:00:00,28.628624,77.241060,NO2,10,63,41
India,Delhi,Delhi,"ITO, Delhi - CPCB",06-03-2024 20:00:00,28.628624,77.241060,NH3,3,5,4
India,Delhi,Delhi,"ITO, Delhi - CPCB",06-03-2024 20:00:00,28.628624,77.241060,OZONE,19,71,57
India,Delhi,Delhi,"Jahangirpuri, Delhi - DPCC",06-03-2024 20:00:00,28.732820,77.170633,CO,48,101,64
India,Delhi,Delhi,"Lodhi Road, Delhi - IITM",06-03-2024 20:00:00,28.588333,77.221667,OZONE,15,17,16
India,Delhi,Delhi,"Lodhi Road, Delhi - IMD",06-03-2024 20:00:00,28.5918245,77.2273074,CO,19,23,21
India,Delhi,Delhi,"Major Dhyan Chand National Stadium, Delhi - DPCC",06-03-2024 20:00:00,28.611281,77.237738,NO2,33,130,56
India,Delhi,Delhi,"Major Dhyan Chand National Stadium, Delhi - DPCC",06-03-2024 20:00:00,28.611281,77.237738,NH3,5,7,6
India,Delhi,Delhi,"Major Dhyan Chand National Stadium, Delhi - DPCC",06-03-2024 20:00:00,28.611281,77.237738,CO,80,102,89
India,Delhi,Delhi,"Major Dhyan Chand National Stadium, Delhi - DPCC",06-03-2024 20:00:00,28.611281,77.237738,OZONE,15,167,118
India,Delhi,Delhi,"Mandir Marg, Delhi - DPCC",06-03-2024 20:00:00,28.636429,77.201067,PM10,70,123,95
India,Delhi,Delhi,"NSIT Dwarka, Delhi - CPCB",06-03-2024 20:00:00,28.60909,77.0325413,CO,28,76,44
India,Delhi,Delhi,"NSIT Dwarka, Delhi - CPCB",06-03-2024 20:00:00,28.60909,77.0325413,OZONE,19,102,77
India,Delhi,Delhi,"Najafgarh, Delhi - DPCC",06-03-2024 20:00:00,28.570173,76.933762,PM2.5,65,301,123
India,Delhi,Delhi,"Najafgarh, Delhi - DPCC",06-03-2024 20:00:00,28.570173,76.933762,NO2,7,17,11
India,Delhi,Delhi,"Narela, Delhi - DPCC",06-03-2024 20:00:00,28.822836,77.101981,PM2.5,63,305,125
India,Delhi,Delhi,"Narela, Delhi - DPCC",06-03-2024 20:00:00,28.822836,77.101981,PM10,83,164,113
India,Delhi,Delhi,"Narela, Delhi - DPCC",06-03-2024 20:00:00,28.822836,77.101981,SO2,7,23,13
India,Delhi,Delhi,"Nehru Nagar, Delhi - DPCC",06-03-2024 20:00:00,28.567890,77.250515,SO2,8,21,14
India,Delhi,Delhi,"New Moti Bagh, Delhi - MHUA",06-03-2024 20:00:00,28.57834,77.18400,PM2.5,59,278,139
India,Delhi,Delhi,"Okhla Phase-2, Delhi - DPCC",06-03-2024 20:00:00,28.530785,77.271255,NH3,4,6,5
India,Delhi,Delhi,"Patparganj, Delhi - DPCC",06-03-2024 20:00:00,28.623763,77.287209,NO2,31,73,41
India,Delhi,Delhi,"Patparganj, Delhi - DPCC",06-03-2024 20:00:00,28.623763,77.287209,SO2,15,19,17
India,Delhi,Delhi,"Patparganj, Delhi - DPCC",06-03-2024 20:00:00,28.623763,77.287209,CO,10,51,32
India,Delhi,Delhi,"Punjabi Bagh, Delhi - DPCC",06-03-2024 20:00:00,28.674045,77.131023,CO,42,64,50
India,Delhi,Delhi,"Pusa, Delhi - DPCC",06-03-2024 20:00:00,28.639652,77.146275,SO2,12,30,20
India,Delhi,Delhi,"Pusa, Delhi - IMD",06-03-2024 20:00:00,28.636110,77.173332,NO2,NA,NA,NA
India,Delhi,Delhi,"R K Puram, Delhi - DPCC",06-03-2024 20:00:00,28.563262,77.186937,PM10,64,159,117
India,Delhi,Delhi,"R K Puram, Delhi - DPCC",06-03-2024 20:00:00,28.563262,77.186937,OZONE,14,185,126
India,Delhi,Delhi,"Rohini, Delhi - DPCC",06-03-2024 20:00:00,28.732528,77.119920,PM2.5,62,257,136
India,Delhi,Delhi,"Rohini, Delhi - DPCC",06-03-2024 20:00:00,28.732528,77.119920,SO2,7,18,12
India,Delhi,Delhi,"Shadipur, Delhi - CPCB",06-03-2024 20:00:00,28.6514781,77.1473105,PM10,89,154,122
India,Delhi,Delhi,"Shadipur, Delhi - CPCB",06-03-2024 20:00:00,28.6514781,77.1473105,SO2,10,17,14
India,Delhi,Delhi,"Sirifort, Delhi - CPCB",06-03-2024 20:00:00,28.5504249,77.2159377,SO2,32,41,38
India,Delhi,Delhi,"Sirifort, Delhi - CPCB",06-03-2024 20:00:00,28.5504249,77.2159377,OZONE,16,88,59
India,Delhi,Delhi,"Sonia Vihar, Delhi - DPCC",06-03-2024 20:00:00,28.710508,77.249485,NH3,4,9,5
India,Delhi,Delhi,"Vivek Vihar, Delhi - DPCC",06-03-2024 20:00:00,28.672342,77.315260,SO2,24,38,28
India,Delhi,Delhi,"Vivek Vihar, Delhi - DPCC",06-03-2024 20:00:00,28.672342,77.315260,OZONE,13,64,46
India,Delhi,Delhi,"Wazirpur, Delhi - DPCC",06-03-2024 20:00:00,28.699793,77.165453,NO2,53,132,82
India,Delhi,Delhi,"Wazirpur, Delhi - DPCC",06-03-2024 20:00:00,28.699793,77.165453,CO,44,102,64
India,Gujarat,Ahmedabad,"Chandkheda, Ahmedabad - IITM",06-03-2024 20:00:00,23.107969,72.574648,PM2.5,75,374,154
India,Gujarat,Ahmedabad,"Gyaspur, Ahmedabad - IITM",06-03-2024 20:00:00,22.977134,72.553024,PM10,64,138,98
India,Gujarat,Ahmedabad,"Raikhad, Ahmedabad - IITM",06-03-2024 20:00:00,23.020509,72.579261,NO2,47,128,68
India,Gujarat,Ahmedabad,"SAC ISRO Bopal, Ahmedabad - IITM",06-03-2024 20:00:00,23.041137,72.456691,PM2.5,55,192,95
India,Gujarat,Ahmedabad,"SAC ISRO Bopal, Ahmedabad - IITM",06-03-2024 20:00:00,23.041137,72.456691,OZONE,13,50,44
India,Gujarat,Ahmedabad,"SAC ISRO Satellite, Ahmedabad - IITM",06-03-2024 20:00:00,23.023389,72.515201,PM10,92,101,100
India,Gujarat,Ahmedabad,"SAC ISRO Satellite, Ahmedabad - IITM",06-03-2024 20:00:00,23.023389,72.515201,CO,24,40,32
India,Gujarat,Ahmedabad,"SVPI Airport Hansol, Ahmedabad - IITM",06-03-2024 20:00:00,23.076793,72.627874,NO2,16,20,18
India,Gujarat,Ahmedabad,"SVPI Airport Hansol, Ahmedabad - IITM",06-03-2024 20:00:00,23.076793,72.627874,SO2,7,8,7
India,Gujarat,Ahmedabad,"SVPI Airport Hansol, Ahmedabad - IITM",06-03-2024 20:00:00,23.076793,72.627874,CO,7,48,9
India,Gujarat,Ahmedabad,"SVPI Airport Hansol, Ahmedabad - IITM",06-03-2024 20:00:00,23.076793,72.627874,OZONE,6,47,42
India,Gujarat,Ankleshwar,"GIDC, Ankleshwar - GPCB",06-03-2024 20:00:00,21.613267,73.010555,PM10,54,118,91
India,Gujarat,Ankleshwar,"GIDC, Ankleshwar - GPCB",06-03-2024 20:00:00,21.613267,73.010555,NO2,37,37,37
India,Gujarat,Ankleshwar,"GIDC, Ankleshwar - GPCB",06-03-2024 20:00:00,21.613267,73.010555,OZONE,20,32,30
India,Gujarat,Gandhinagar,"IIPHG Lekawada, Gandhinagar - IITM",06-03-2024 20:00:00,23.243639,72.68994,NH3,3,3,3
India,Gujarat,Gandhinagar,"Sector-10, Gandhinagar - GPCB",06-03-2024 20:00:00,23.221714,72.654328,PM2.5,20,63,45
India,Gujarat,Gandhinagar,"Sector-10, Gandhinagar - GPCB",06-03-2024 20:00:00,23.221714,72.654328,NH3,1,2,1
India,Gujarat,Gandhinagar,"Sector-10, Gandhinagar - GPCB",06-03-2024 20:00:00,23.221714,72.654328,CO,24,88,32
India,Gujarat,Nandesari,"GIDC, Nandesari - Nandesari Ind. Association",06-03-2024 20:00:00,22.410802,73.097923,PM10,96,199,143
India,Haryana,Ambala,"Patti Mehar, Ambala - HSPCB",06-03-2024 20:00:00,30.379589,76.778328,NO2,7,9,8
India,Haryana,Bahadurgarh,"Arya Nagar, Bahadurgarh - HSPCB",06-03-2024 20:00:00,28.6701,76.9254,PM2.5,63,283,124
India,Haryana,Ballabgarh,"Nathu Colony, Ballabgarh - HSPCB",06-03-2024 20:00:00,28.3419248,77.319699,CO,17,48,29
India,Haryana,Bhiwani,"H.B. Colony, Bhiwani - HSPCB",06-03-2024 20:00:00,28.806223,76.141105,NO2,9,34,30
India,Haryana,Bhiwani,"H.B. Colony, Bhiwani - HSPCB",06-03-2024 20:00:00,28.806223,76.141105,SO2,7,17,12
India,Haryana,Bhiwani,"H.B. Colony, Bhiwani - HSPCB",06-03-2024 20:00:00,28.806223,76.141105,OZONE,12,16,15
India,Haryana,Charkhi Dadri,"Mini Secretariat, Charkhi Dadri - HSPCB",06-03-2024 20:00:00,28.593883,76.270653,PM10,44,115,78
India,Haryana,Charkhi Dadri,"Mini Secretariat, Charkhi Dadri - HSPCB",06-03-2024 20:00:00,28.593883,76.270653,NH3,5,6,6
India,Haryana,Charkhi Dadri,"Mini Secretariat, Charkhi Dadri - HSPCB",06-03-2024 20:00:00,28.593883,76.270653,OZONE,13,16,15
India,Haryana,Dharuhera,"Municipal Corporation Office, Dharuhera -  HSPCB",06-03-2024 20:00:00,28.206800,76.799700,PM2.5,34,134,74
India,Haryana,Dharuhera,"Municipal Corporation Office, Dharuhera -  HSPCB",06-03-2024 20:00:00,28.206800,76.799700,NO2,45,110,72
India,Haryana,Faridabad,"New Industrial Town, Faridabad - HSPCB",06-03-2024 20:00:00,28.39072,77.30059,PM2.5,79,214,129
India,Haryana,Faridabad,"New Industrial Town, Faridabad - HSPCB",06-03-2024 20:00:00,28.39072,77.30059,NO2,11,16,13
India,Haryana,Faridabad,"New Industrial Town, Faridabad - HSPCB",06-03-2024 20:00:00,28.39072,77.30059,SO2,13,20,16
India,Haryana,Faridabad,"New Industrial Town, Faridabad - HSPCB",06-03-2024 20:00:00,28.39072,77.30059,OZONE,58,236,167
India,Haryana,Faridabad,"Sector 11, Faridabad - HSPCB",06-03-2024 20:00:00,28.376058,77.315741,NH3,6,6,6
India,Haryana,Faridabad,"Sector 11, Faridabad - HSPCB",06-03-2024 20:00:00,28.376058,77.315741,SO2,NA,NA,NA
India,Haryana,Fatehabad,"Huda Sector, Fatehabad - HSPCB",06-03-2024 20:00:00,29.503664,75.467934,PM10,60,125,79
India,Haryana,Fatehabad,"Huda Sector, Fatehabad - HSPCB",06-03-2024 20:00:00,29.503664,75.467934,NH3,9,15,12
