country,state,city,station,last_update,latitude,longitude,pollutant_id,pollutant_min,pollutant_max,pollutant_avg
India,Andhra_Pradesh,Amaravati,"Secretariat, Amaravati - APPCB",14-01-2024 17:00:00,16.5150833,80.5181667,SO2,12,101,28
India,Andhra_Pradesh,Anantapur,"Gulzarpet, Anantapur - APPCB",14-01-2024 17:00:00,14.675886,77.593027,NO2,20,63,33
India,Andhra_Pradesh,Kadapa,"Yerramukkapalli, Kadapa - APPCB",14-01-2024 17:00:00,14.465052,78.824187,NH3,NA,NA,NA
India,Andhra_Pradesh,Kadapa,"Yerramukkapalli, Kadapa - APPCB",14-01-2024 17:00:00,14.465052,78.824187,OZONE,5,66,54
India,Andhra_Pradesh,Tirupati,"Tirumala, Tirupati - APPCB",14-01-2024 17:00:00,13.67,79.35,SO2,6,23,12
India,Andhra_Pradesh,Tirupati,"Vaikuntapuram, Tirupati - APPCB",14-01-2024 17:00:00,13.615387,79.409230,CO,10,16,12
India,Andhra_Pradesh,Vijayawada,"Kanuru, Vijayawada - APPCB",14-01-2024 17:00:00,16.486692,80.699436,PM10,42,428,134
India,Andhra_Pradesh,Vijayawada,"Rajiv Gandhi Park, Vijayawada - APPCB",14-01-2024 17:00:00,16.509717,80.612222,PM2.5,74,146,108
India,Andhra_Pradesh,Visakhapatnam,"GVM Corporation, Visakhapatnam - APPCB",14-01-2024 17:00:00,17.72,83.3,CO,37,101,68
India,Arunachal_Pradesh,Naharlagun,"Naharlagun, Naharlagun - APSPCB",14-01-2024 17:00:00,27.103358,93.679645,NO2,2,2,2
India,Assam,Byrnihat,"Central Academy for SFS, Byrnihat - PCBA",14-01-2024 17:00:00,26.071318,91.87488,SO2,NA,NA,NA
India,Assam,Byrnihat,"Central Academy for SFS, Byrnihat - PCBA",14-01-2024 17:00:00,26.071318,91.87488,CO,NA,NA,NA
India,Assam,Guwahati,"LGBI Airport, Guwahati - PCBA",14-01-2024 17:00:00,26.10887,91.589544,SO2,10,14,11
India,Assam,Guwahati,"Pan Bazaar, Guwahati - PCBA",14-01-2024 17:00:00,26.187500,91.744194,CO,36,124,53
India,Assam,Nalbari,"Bata Chowk, Nalbari - PCBA",14-01-2024 17:00:00,26.446912,91.439057,PM10,107,500,229
India,Assam,Nalbari,"Bata Chowk, Nalbari - PCBA",14-01-2024 17:00:00,26.446912,91.439057,NO2,42,76,57
India,Assam,Silchar,"Tarapur, Silchar - PCBA",14-01-2024 17:00:00,24.82827,92.79525,PM2.5,33,44,35
India,Assam,Silchar,"Tarapur, Silchar - PCBA",14-01-2024 17:00:00,24.82827,92.79525,CO,20,39,22
India,Assam,Silchar,"Tarapur, Silchar - PCBA",14-01-2024 17:00:00,24.82827,92.79525,OZONE,1,1,1
India,Assam,Sivasagar,"Girls College, Sivasagar - PCBA",14-01-2024 17:00:00,26.987634,94.636574,PM2.5,23,58,36
India,Assam,Sivasagar,"Girls College, Sivasagar - PCBA",14-01-2024 17:00:00,26.987634,94.636574,PM10,30,94,52
India,Bihar,Araria,"Kharahiya Basti, Araria - BSPCB",14-01-2024 17:00:00,26.146529,87.454184,NO2,6,8,7
India,Bihar,Araria,"Kharahiya Basti, Araria - BSPCB",14-01-2024 17:00:00,26.146529,87.454184,SO2,15,17,16
India,Bihar,Arrah,"New DM Office, Arrah - BSPCB",14-01-2024 17:00:00,25.5626095,84.663264,SO2,9,21,17
India,Bihar,Arrah,"New DM Office, Arrah - BSPCB",14-01-2024 17:00:00,25.5626095,84.663264,OZONE,13,29,18
India,Bihar,Aurangabad,"Gurdeo Nagar, Aurangabad - BSPCB",14-01-2024 17:00:00,24.75746,84.366208,OZONE,18,78,52
India,Bihar,Bettiah,"Kamalnath Nagar, Bettiah - BSPCB",14-01-2024 17:00:00,26.80365,84.51954,PM10,25,119,52
India,Bihar,Bhagalpur,"DM Office_Kachari Chowk, Bhagalpur - BSPCB",14-01-2024 17:00:00,25.251013,86.989001,NH3,3,6,4
India,Bihar,Bhagalpur,"Mayaganj, Bhagalpur - BSPCB",14-01-2024 17:00:00,25.265194,87.012947,PM2.5,308,417,364
India,Bihar,Bhagalpur,"Mayaganj, Bhagalpur - BSPCB",14-01-2024 17:00:00,25.265194,87.012947,NO2,6,24,11
India,Bihar,Bhagalpur,"Mayaganj, Bhagalpur - BSPCB",14-01-2024 17:00:00,25.265194,87.012947,CO,7,11,9
India,Bihar,Bihar Sharif,"D M Colony, Bihar Sharif - BSPCB",14-01-2024 17:00:00,25.204762,85.514960,OZONE,1,12,7
India,Bihar,Chhapra,"Darshan Nagar, Chhapra - BSPCB",14-01-2024 17:00:00,25.7808257,84.7446768,SO2,22,61,44
India,Bihar,Gaya,"Collectorate, Gaya - BSPCB",14-01-2024 17:00:00,24.7955,84.9994,PM2.5,308,360,323
India,Bihar,Gaya,"Collectorate, Gaya - BSPCB",14-01-2024 17:00:00,24.7955,84.9994,SO2,18,23,20
India,Bihar,Gaya,"Kareemganj, Gaya - BSPCB",14-01-2024 17:00:00,24.792403,84.992416,PM2.5,48,107,69
India,Bihar,Gaya,"Kareemganj, Gaya - BSPCB",14-01-2024 17:00:00,24.792403,84.992416,OZONE,4,26,12
India,Bihar,Hajipur,"Industrial Area, Hajipur - BSPCB",14-01-2024 17:00:00,25.697189,85.245900,SO2,6,7,7
India,Bihar,Hajipur,"Industrial Area, Hajipur - BSPCB",14-01-2024 17:00:00,25.697189,85.245900,CO,62,98,66
India,Bihar,Katihar,"Mirchaibari, Katihar - BSPCB",14-01-2024 17:00:00,25.560083,87.553265,NH3,3,4,3
India,Bihar,Kishanganj,"SDM Office_Khagra, Kishanganj - BSPCB",14-01-2024 17:00:00,26.0881305,87.93840336,PM10,183,496,313
India,Bihar,Kishanganj,"SDM Office_Khagra, Kishanganj - BSPCB",14-01-2024 17:00:00,26.0881305,87.93840336,OZONE,33,40,34
India,Bihar,Manguraha,"Forest Rest House, Manguraha - BSPCB",14-01-2024 17:00:00,27.308328,84.531742,OZONE,24,46,34
India,Bihar,Motihari,"Gandak Colony, Motihari - BSPCB",14-01-2024 17:00:00,26.63086,84.90051,PM10,97,161,127
India,Bihar,Munger,"Town Hall, Munger - BSPCB",14-01-2024 17:00:00,25.376776,86.471523,PM2.5,133,325,223
India,Bihar,Munger,"Town Hall, Munger - BSPCB",14-01-2024 17:00:00,25.376776,86.471523,NO2,8,10,9
India,Bihar,Munger,"Town Hall, Munger - BSPCB",14-01-2024 17:00:00,25.376776,86.471523,CO,30,78,51
India,Bihar,Munger,"Town Hall, Munger - BSPCB",14-01-2024 17:00:00,25.376776,86.471523,OZONE,9,18,14
India,Bihar,Muzaffarpur,"MIT-Daudpur Kothi, Muzaffarpur - BSPCB",14-01-2024 17:00:00,26.1403345,85.3650192,NH3,7,11,8
India,Bihar,Patna,"DRM Office Danapur, Patna - BSPCB",14-01-2024 17:00:00,25.586562,85.043586,NH3,4,5,4
India,Bihar,Patna,"Govt. High School Shikarpur, Patna - BSPCB",14-01-2024 17:00:00,25.592539,85.227158,OZONE,16,23,18
India,Bihar,Patna,"IGSC Planetarium Complex, Patna - BSPCB",14-01-2024 17:00:00,25.610369,85.132568,SO2,NA,NA,NA
India,Bihar,Patna,"IGSC Planetarium Complex, Patna - BSPCB",14-01-2024 17:00:00,25.610369,85.132568,CO,NA,NA,NA
India,Bihar,Patna,"Rajbansi Nagar, Patna - BSPCB",14-01-2024 17:00:00,25.599486,85.113666,SO2,8,21,14
India,Bihar,Purnia,"Mariam Nagar, Purnia - BSPCB",14-01-2024 17:00:00,25.366336,87.117468,PM10,133,264,178
India,Bihar,Purnia,"Mariam Nagar, Purnia - BSPCB",14-01-2024 17:00:00,25.366336,87.117468,OZONE,11,16,12
India,Bihar,Rajgir,"Dangi Tola, Rajgir - BSPCB",14-01-2024 17:00:00,25.03280,85.41948,SO2,4,6,5
India,Bihar,Saharsa,"Police Line, Saharsa - BSPCB",14-01-2024 17:00:00,25.892357,86.590325,PM2.5,293,459,373
India,Bihar,Samastipur,"DM Office_Kasipur, Samastipur - BSPCB",14-01-2024 17:00:00,25.859655,85.77944,PM2.5,55,207,100
India,Bihar,Samastipur,"DM Office_Kasipur, Samastipur - BSPCB",14-01-2024 17:00:00,25.859655,85.77944,SO2,3,14,8
India,Bihar,Siwan,"Chitragupta Nagar, Siwan - BSPCB",14-01-2024 17:00:00,26.2271665,84.3570427,PM2.5,75,220,130
India,Bihar,Siwan,"Chitragupta Nagar, Siwan - BSPCB",14-01-2024 17:00:00,26.2271665,84.3570427,SO2,23,35,32
India,Bihar,Siwan,"Chitragupta Nagar, Siwan - BSPCB",14-01-2024 17:00:00,26.2271665,84.3570427,CO,108,153,130
India,Bihar,Siwan,"Chitragupta Nagar, Siwan - BSPCB",14-01-2024 17:00:00,26.2271665,84.3570427,OZONE,10,30,22
India,Chandigarh,Chandigarh,"Sector 22, Chandigarh - CPCC",14-01-2024 17:00:00,30.735567,76.775714,NO2,14,95,32
India,Chandigarh,Chandigarh,"Sector 22, Chandigarh - CPCC",14-01-2024 17:00:00,30.735567,76.775714,OZONE,2,52,27
India,Chandigarh,Chandigarh,"Sector-25, Chandigarh - CPCC",14-01-2024 17:00:00,30.751462,76.762879,SO2,6,39,11
India,Chandigarh,Chandigarh,"Sector-53, Chandigarh - CPCC",14-01-2024 17:00:00,30.719859,76.738637,SO2,NA,NA,NA
India,Chhattisgarh,Bhilai,"Civic Center, Bhilai - Bhilai Steel Plant",14-01-2024 17:00:00,21.185571,81.343175,PM2.5,32,92,56
India,Chhattisgarh,Bhilai,"Civic Center, Bhilai - Bhilai Steel Plant",14-01-2024 17:00:00,21.185571,81.343175,PM10,45,133,80
India,Chhattisgarh,Bhilai,"Civic Center, Bhilai - Bhilai Steel Plant",14-01-2024 17:00:00,21.185571,81.343175,OZONE,7,68,42
India,Chhattisgarh,Bhilai,"Hathkhoj, Bhilai - CECB",14-01-2024 17:00:00,21.224231,81.408350,CO,21,42,27
India,Chhattisgarh,Bilaspur,"Mangala, Bilaspur - NTPC",14-01-2024 17:00:00,22.08815,82.13737,SO2,1,43,23
India,Chhattisgarh,Chhal,"Nawapara SECL Colony, Chhal - CECB",14-01-2024 17:00:00,22.118125,83.140608,CO,46,82,57
India,Chhattisgarh,Korba,"Urja Nagar, Korba - CECB",14-01-2024 17:00:00,22.348441,82.549611,PM2.5,6,36,19
India,Chhattisgarh,Kunjemura,"OP Jindal School, Kunjemura - CECB",14-01-2024 17:00:00,22.126650,83.483212,NH3,1,4,2
India,Chhattisgarh,Kunjemura,"OP Jindal School, Kunjemura - CECB",14-01-2024 17:00:00,22.126650,83.483212,CO,24,49,31
India,Chhattisgarh,Milupara,"Govt. Higher Secondary School, Milupara - CECB",14-01-2024 17:00:00,22.1910172,83.5197009,PM2.5,13,42,28
India,Chhattisgarh,Milupara,"Govt. Higher Secondary School, Milupara - CECB",14-01-2024 17:00:00,22.1910172,83.5197009,PM10,15,143,39
India,Chhattisgarh,Milupara,"Govt. Higher Secondary School, Milupara - CECB",14-01-2024 17:00:00,22.1910172,83.5197009,SO2,1,16,9
India,Chhattisgarh,Milupara,"Govt. Higher Secondary School, Milupara - CECB",14-01-2024 17:00:00,22.1910172,83.5197009,CO,5,48,13
India,Chhattisgarh,Raipur,"Bhatagaon New ISBT, Raipur - CECB",14-01-2024 17:00:00,21.219665,81.630094,PM2.5,28,88,50
India,Chhattisgarh,Raipur,"Krishak Nagar, Raipur - CECB",14-01-2024 17:00:00,21.237755,81.705301,SO2,8,13,10
India,Chhattisgarh,Raipur,"Siltara Phase-II, Raipur - CECB",14-01-2024 17:00:00,21.371751,81.664929,NH3,1,4,2
India,Chhattisgarh,Tumidih,"OP Jindal Industrial Park, Tumidih - CECB",14-01-2024 17:00:00,22.06631475,83.33820077,NH3,1,2,2
India,Delhi,Delhi,"Alipur, Delhi - DPCC",14-01-2024 17:00:00,28.815329,77.153010,NH3,1,5,2
India,Delhi,Delhi,"Alipur, Delhi - DPCC",14-01-2024 17:00:00,28.815329,77.153010,OZONE,4,86,41
India,Delhi,Delhi,"Ashok Vihar, Delhi - DPCC",14-01-2024 17:00:00,28.695381,77.181665,PM10,290,500,432
India,Delhi,Delhi,"Ashok Vihar, Delhi - DPCC",14-01-2024 17:00:00,28.695381,77.181665,NO2,68,153,97
India,Delhi,Delhi,"Ashok Vihar, Delhi - DPCC",14-01-2024 17:00:00,28.695381,77.181665,CO,7,163,61
India,Delhi,Delhi,"Aya Nagar, Delhi - IMD",14-01-2024 17:00:00,28.4706914,77.1099364,CO,104,180,120
India,Delhi,Delhi,"Bawana, Delhi - DPCC",14-01-2024 17:00:00,28.776200,77.051074,NO2,9,63,28
India,Delhi,Delhi,"Bawana, Delhi - DPCC",14-01-2024 17:00:00,28.776200,77.051074,OZONE,3,58,25
India,Delhi,Delhi,"CRRI Mathura Road, Delhi - IMD",14-01-2024 17:00:00,28.5512005,77.2735737,PM10,NA,NA,NA
India,Delhi,Delhi,"Dr. Karni Singh Shooting Range, Delhi - DPCC",14-01-2024 17:00:00,28.498571,77.264840,NO2,80,214,131
India,Delhi,Delhi,"Dr. Karni Singh Shooting Range, Delhi - DPCC",14-01-2024 17:00:00,28.498571,77.264840,OZONE,1,214,150
India,Delhi,Delhi,"IGI Airport (T3), Delhi - IMD",14-01-2024 17:00:00,28.5627763,77.1180053,NO2,3,65,23
India,Delhi,Delhi,"IHBAS, Dilshad Garden, Delhi - CPCB",14-01-2024 17:00:00,28.6811736,77.3025234,NO2,7,42,23
India,Delhi,Delhi,"ITO, Delhi - CPCB",14-01-2024 17:00:00,28.628624,77.241060,CO,66,165,98
India,Delhi,Delhi,"Jahangirpuri, Delhi - DPCC",14-01-2024 17:00:00,28.732820,77.170633,OZONE,6,39,19
India,Delhi,Delhi,"Jawaharlal Nehru Stadium, Delhi - DPCC",14-01-2024 17:00:00,28.580280,77.233829,NH3,10,16,13
India,Delhi,Delhi,"Lodhi Road, Delhi - IMD",14-01-2024 17:00:00,28.5918245,77.2273074,NO2,4,10,6
India,Delhi,Delhi,"Lodhi Road, Delhi - IMD",14-01-2024 17:00:00,28.5918245,77.2273074,OZONE,19,117,61
India,Delhi,Delhi,"Major Dhyan Chand National Stadium, Delhi - DPCC",14-01-2024 17:00:00,28.611281,77.237738,PM2.5,370,500,445
India,Delhi,Delhi,"Mandir Marg, Delhi - DPCC",14-01-2024 17:00:00,28.636429,77.201067,PM2.5,393,500,470
India,Delhi,Delhi,"Mandir Marg, Delhi - DPCC",14-01-2024 17:00:00,28.636429,77.201067,PM10,294,500,428
India,Delhi,Delhi,"Mundka, Delhi - DPCC",14-01-2024 17:00:00,28.684678,77.076574,PM2.5,328,500,430
India,Delhi,Delhi,"Mundka, Delhi - DPCC",14-01-2024 17:00:00,28.684678,77.076574,NO2,40,136,67
India,Delhi,Delhi,"Mundka, Delhi - DPCC",14-01-2024 17:00:00,28.684678,77.076574,NH3,8,16,11
India,Delhi,Delhi,"Mundka, Delhi - DPCC",14-01-2024 17:00:00,28.684678,77.076574,SO2,5,22,12
India,Delhi,Delhi,"Mundka, Delhi - DPCC",14-01-2024 17:00:00,28.684678,77.076574,CO,60,122,74
India,Delhi,Delhi,"NSIT Dwarka, Delhi - CPCB",14-01-2024 17:00:00,28.60909,77.0325413,OZONE,20,72,36
India,Delhi,Delhi,"Najafgarh, Delhi - DPCC",14-01-2024 17:00:00,28.570173,76.933762,NH3,6,9,7
India,Delhi,Delhi,"New Moti Bagh, Delhi - MHUA",14-01-2024 17:00:00,28.57834,77.18400,CO,74,171,101
India,Delhi,Delhi,"North Campus, DU, Delhi - IMD",14-01-2024 17:00:00,28.6573814,77.1585447,CO,64,114,74
India,Delhi,Delhi,"Patparganj, Delhi - DPCC",14-01-2024 17:00:00,28.623763,77.287209,PM2.5,398,500,478
India,Delhi,Delhi,"Patparganj, Delhi - DPCC",14-01-2024 17:00:00,28.623763,77.287209,NH3,8,14,11
India,Delhi,Delhi,"Pusa, Delhi - DPCC",14-01-2024 17:00:00,28.639652,77.146275,NO2,108,376,243
India,Delhi,Delhi,"Pusa, Delhi - DPCC",14-01-2024 17:00:00,28.639652,77.146275,NH3,26,53,41
India,Delhi,Delhi,"Pusa, Delhi - IMD",14-01-2024 17:00:00,28.636110,77.173332,PM10,211,465,390
India,Delhi,Delhi,"Pusa, Delhi - IMD",14-01-2024 17:00:00,28.636110,77.173332,NO2,39,91,64
India,Delhi,Delhi,"R K Puram, Delhi - DPCC",14-01-2024 17:00:00,28.563262,77.186937,CO,1,195,110
India,Delhi,Delhi,"Rohini, Delhi - DPCC",14-01-2024 17:00:00,28.732528,77.119920,NO2,34,109,61
India,Delhi,Delhi,"Rohini, Delhi - DPCC",14-01-2024 17:00:00,28.732528,77.119920,SO2,6,30,13
India,Delhi,Delhi,"Shadipur, Delhi - CPCB",14-01-2024 17:00:00,28.6514781,77.1473105,SO2,11,24,16
India,Delhi,Delhi,"Shadipur, Delhi - CPCB",14-01-2024 17:00:00,28.6514781,77.1473105,CO,10,106,69
India,Delhi,Delhi,"Sirifort, Delhi - CPCB",14-01-2024 17:00:00,28.5504249,77.2159377,OZONE,17,151,40
India,Delhi,Delhi,"Sonia Vihar, Delhi - DPCC",14-01-2024 17:00:00,28.710508,77.249485,NO2,40,97,61
India,Delhi,Delhi,"Sonia Vihar, Delhi - DPCC",14-01-2024 17:00:00,28.710508,77.249485,SO2,3,15,7
India,Delhi,Delhi,"Sri Aurobindo Marg, Delhi - DPCC",14-01-2024 17:00:00,28.531346,77.190156,PM2.5,403,500,483
India,Delhi,Delhi,"Wazirpur, Delhi - DPCC",14-01-2024 17:00:00,28.699793,77.165453,CO,4,139,26
India,Gujarat,Ahmedabad,"Chandkheda, Ahmedabad - IITM",14-01-2024 17:00:00,23.107969,72.574648,SO2,4,11,6
India,Gujarat,Ahmedabad,"Rakhial, Ahmedabad - IITM",14-01-2024 17:00:00,23.016834,72.625775,NO2,7,108,24
India,Gujarat,Ahmedabad,"Rakhial, Ahmedabad - IITM",14-01-2024 17:00:00,23.016834,72.625775,OZONE,1,46,35
India,Gujarat,Ahmedabad,"SAC ISRO Bopal, Ahmedabad - IITM",14-01-2024 17:00:00,23.041137,72.456691,PM10,44,123,86
India,Gujarat,Ahmedabad,"SAC ISRO Satellite, Ahmedabad - IITM",14-01-2024 17:00:00,23.023389,72.515201,SO2,4,10,6
India,Gujarat,Ahmedabad,"SAC ISRO Satellite, Ahmedabad - IITM",14-01-2024 17:00:00,23.023389,72.515201,OZONE,2,18,15
India,Gujarat,Ahmedabad,"SVPI Airport Hansol, Ahmedabad - IITM",14-01-2024 17:00:00,23.076793,72.627874,NO2,15,16,15
India,Gujarat,Ahmedabad,"SVPI Airport Hansol, Ahmedabad - IITM",14-01-2024 17:00:00,23.076793,72.627874,SO2,2,6,5
India,Gujarat,Ahmedabad,"Sardar Vallabhbhai Patel Stadium, Ahmedabad - IITM",14-01-2024 17:00:00,23.043070,72.562968,NO2,12,14,13
India,Gujarat,Ahmedabad,"Sardar Vallabhbhai Patel Stadium, Ahmedabad - IITM",14-01-2024 17:00:00,23.043070,72.562968,OZONE,1,13,11
India,Gujarat,Ankleshwar,"GIDC, Ankleshwar - GPCB",14-01-2024 17:00:00,21.613267,73.010555,PM10,54,199,107
India,Gujarat,Ankleshwar,"GIDC, Ankleshwar - GPCB",14-01-2024 17:00:00,21.613267,73.010555,CO,21,101,38
India,Gujarat,Gandhinagar,"GIFT City, Gandhinagar - IITM",14-01-2024 17:00:00,23.163798,72.677768,CO,10,24,20
India,Gujarat,Gandhinagar,"GIFT City, Gandhinagar - IITM",14-01-2024 17:00:00,23.163798,72.677768,OZONE,2,25,22
India,Gujarat,Gandhinagar,"IIPHG Lekawada, Gandhinagar - IITM",14-01-2024 17:00:00,23.243639,72.68994,PM10,49,142,92
India,Gujarat,Gandhinagar,"IIPHG Lekawada, Gandhinagar - IITM",14-01-2024 17:00:00,23.243639,72.68994,NH3,3,3,3
India,Gujarat,Gandhinagar,"Sector-10, Gandhinagar - GPCB",14-01-2024 17:00:00,23.221714,72.654328,CO,19,20,20
India,Gujarat,Surat,"Science Center, Surat - SMC",14-01-2024 17:00:00,21.170046,72.795405,SO2,14,18,16
India,Gujarat,Vatva,"Phase-4 GIDC, Vatva - GPCB",14-01-2024 17:00:00,22.969611,72.643500,NO2,16,176,58
India,Haryana,Ambala,"Patti Mehar, Ambala - HSPCB",14-01-2024 17:00:00,30.379589,76.778328,NO2,94,153,126
India,Haryana,Bahadurgarh,"Arya Nagar, Bahadurgarh - HSPCB",14-01-2024 17:00:00,28.6701,76.9254,NH3,10,12,11
India,Haryana,Ballabgarh,"Nathu Colony, Ballabgarh - HSPCB",14-01-2024 17:00:00,28.3419248,77.319699,PM10,215,474,390
India,Haryana,Ballabgarh,"Nathu Colony, Ballabgarh - HSPCB",14-01-2024 17:00:00,28.3419248,77.319699,NO2,12,13,12
India,Haryana,Bhiwani,"H.B. Colony, Bhiwani - HSPCB",14-01-2024 17:00:00,28.806223,76.141105,PM10,77,152,108
India,Haryana,Charkhi Dadri,"Mini Secretariat, Charkhi Dadri - HSPCB",14-01-2024 17:00:00,28.593883,76.270653,PM2.5,57,468,197
India,Haryana,Dharuhera,"Municipal Corporation Office, Dharuhera -  HSPCB",14-01-2024 17:00:00,28.206800,76.799700,PM2.5,55,354,244
India,Haryana,Faridabad,"New Industrial Town, Faridabad - HSPCB",14-01-2024 17:00:00,28.39072,77.30059,NO2,1,39,17
India,Haryana,Faridabad,"New Industrial Town, Faridabad - HSPCB",14-01-2024 17:00:00,28.39072,77.30059,OZONE,29,173,96
India,Haryana,Faridabad,"Sector 11, Faridabad - HSPCB",14-01-2024 17:00:00,28.376058,77.315741,NH3,6,6,6
India,Haryana,Faridabad,"Sector 30, Faridabad - HSPCB",14-01-2024 17:00:00,28.4417,77.3217,NO2,30,33,31
India,Haryana,Faridabad,"Sector- 16A, Faridabad - HSPCB",14-01-2024 17:00:00,28.4088421,77.3099081,OZONE,14,14,14
India,Haryana,Fatehabad,"Huda Sector, Fatehabad - HSPCB",14-01-2024 17:00:00,29.503664,75.467934,PM2.5,72,304,154
India,Haryana,Fatehabad,"Huda Sector, Fatehabad - HSPCB",14-01-2024 17:00:00,29.503664,75.467934,PM10,66,146,98
India,Haryana,Gurugram,"Sector-51, Gurugram - HSPCB",14-01-2024 17:00:00,28.4227,77.0667,NH3,6,14,9
India,Haryana,Gurugram,"Sector-51, Gurugram - HSPCB",14-01-2024 17:00:00,28.4227,77.0667,SO2,3,135,12
India,Haryana,Gurugram,"Sector-51, Gurugram - HSPCB",14-01-2024 17:00:00,28.4227,77.0667,CO,9,164,74
India,Haryana,Gurugram,"Teri Gram, Gurugram - HSPCB",14-01-2024 17:00:00,28.4275,77.1465,NH3,39,63,53
India,Haryana,Gurugram,"Vikas Sadan, Gurugram - HSPCB",14-01-2024 17:00:00,28.4501238,77.0263051,SO2,21,39,29
India,Haryana,Gurugram,"Vikas Sadan, Gurugram - HSPCB",14-01-2024 17:00:00,28.4501238,77.0263051,OZONE,8,69,46
India,Haryana,Hisar,"Urban Estate-II, Hisar - HSPCB",14-01-2024 17:00:00,29.140560,75.744941,NO2,7,10,9
India,Haryana,Jind,"Police Lines, Jind - HSPCB",14-01-2024 17:00:00,29.307814,76.337619,CO,2,139,57
India,Haryana,Kaithal,"Rishi Nagar, Kaithal - HSPCB",14-01-2024 17:00:00,29.8006,76.4155,NH3,8,9,8
India,Haryana,Karnal,"Sector-12, Karnal - HSPCB",14-01-2024 17:00:00,29.695300,77.002700,NO2,7,12,10
India,Haryana,Kurukshetra,"Sector-7, Kurukshetra - HSPCB",14-01-2024 17:00:00,29.966942,76.875879,NO2,10,10,10
India,Haryana,Kurukshetra,"Sector-7, Kurukshetra - HSPCB",14-01-2024 17:00:00,29.966942,76.875879,CO,25,119,40
India,Haryana,Mandikhera,"General Hospital, Mandikhera - HSPCB",14-01-2024 17:00:00,27.9002,76.9938,PM10,102,415,164
India,Haryana,Manesar,"Sector-2 IMT, Manesar - HSPCB",14-01-2024 17:00:00,28.360699,76.936090,PM2.5,236,390,346
India,Haryana,Manesar,"Sector-2 IMT, Manesar - HSPCB",14-01-2024 17:00:00,28.360699,76.936090,NO2,21,29,25
India,Haryana,Narnaul,"Shastri Nagar, Narnaul - HSPCB",14-01-2024 17:00:00,28.060249,76.113115,CO,6,26,17
India,Haryana,Palwal,"Shyam Nagar, Palwal - HSPCB",14-01-2024 17:00:00,28.1485564,77.3320667,PM10,78,173,130
India,Haryana,Palwal,"Shyam Nagar, Palwal - HSPCB",14-01-2024 17:00:00,28.1485564,77.3320667,NH3,2,3,3
India,Haryana,Palwal,"Shyam Nagar, Palwal - HSPCB",14-01-2024 17:00:00,28.1485564,77.3320667,OZONE,1,56,24
India,Haryana,Panipat,"Sector-18, Panipat - HSPCB",14-01-2024 17:00:00,29.497973,76.993331,PM10,128,139,134
India,Haryana,Panipat,"Sector-18, Panipat - HSPCB",14-01-2024 17:00:00,29.497973,76.993331,SO2,12,13,13
India,Haryana,Rohtak,"MD University, Rohtak - HSPCB",14-01-2024 17:00:00,28.52123,76.37138,NO2,48,55,51
India,Haryana,Rohtak,"MD University, Rohtak - HSPCB",14-01-2024 17:00:00,28.52123,76.37138,SO2,2,31,9
India,Haryana,Sonipat,"Murthal, Sonipat - HSPCB",14-01-2024 17:00:00,29.027200,77.062100,PM10,110,305,176
India,Himachal Pradesh,Baddi,"HIMUDA Complex Phase-1, Baddi - HPPCB",14-01-2024 17:00:00,30.943887,76.801991,CO,40,128,74
India,Jharkhand,Dhanbad,"Kalakusuma, Dhanbad - DMC",14-01-2024 17:00:00,23.811548,86.481238,PM10,4,195,124
India,Jharkhand,Pathardih,"Mohalbani Ghat, Pathardih - DMC",14-01-2024 17:00:00,23.669880,86.411725,SO2,20,60,35
India,Karnataka,Bagalkot,"Vidayagiri, Bagalkot - KSPCB",14-01-2024 17:00:00,16.172806,75.659694,SO2,9,9,9
India,Karnataka,Belgaum,"Ramteerth Nagar, Belgaum - KSPCB",14-01-2024 17:00:00,15.888653,74.541751,PM2.5,35,205,82
India,Karnataka,Belgaum,"Ramteerth Nagar, Belgaum - KSPCB",14-01-2024 17:00:00,15.888653,74.541751,NO2,26,35,29
India,Karnataka,Belgaum,"Ramteerth Nagar, Belgaum - KSPCB",14-01-2024 17:00:00,15.888653,74.541751,OZONE,19,20,20
India,Karnataka,Bengaluru,"BTM Layout, Bengaluru - CPCB",14-01-2024 17:00:00,12.9135218,77.5950804,NH3,3,3,3
India,Karnataka,Bengaluru,"Jayanagar 5th Block, Bengaluru - KSPCB",14-01-2024 17:00:00,12.920984,77.584908,SO2,11,31,22
India,Karnataka,Bengaluru,"Jayanagar 5th Block, Bengaluru - KSPCB",14-01-2024 17:00:00,12.920984,77.584908,OZONE,18,21,19
India,Karnataka,Bengaluru,"Jigani, Bengaluru - KSPCB",14-01-2024 17:00:00,12.7816279,77.6299145,PM2.5,15,316,125
India,Karnataka,Bengaluru,"Jigani, Bengaluru - KSPCB",14-01-2024 17:00:00,12.7816279,77.6299145,NO2,35,36,35
India,Karnataka,Bengaluru,"Peenya, Bengaluru - CPCB",14-01-2024 17:00:00,13.0270199,77.494094,CO,32,50,40
India,Karnataka,Bengaluru,"RVCE-Mailasandra, Bengaluru - KSPCB",14-01-2024 17:00:00,12.921418,77.502466,PM10,81,247,153
India,Karnataka,Bengaluru,"RVCE-Mailasandra, Bengaluru - KSPCB",14-01-2024 17:00:00,12.921418,77.502466,NH3,4,4,4
India,Karnataka,Bengaluru,"RVCE-Mailasandra, Bengaluru - KSPCB",14-01-2024 17:00:00,12.921418,77.502466,CO,46,64,57
India,Karnataka,Bengaluru,"Sanegurava Halli, Bengaluru - KSPCB",14-01-2024 17:00:00,12.990328,77.5431385,NO2,NA,NA,NA
India,Karnataka,Bengaluru,"Silk Board, Bengaluru - KSPCB",14-01-2024 17:00:00,12.917348,77.622813,PM2.5,60,148,90
India,Karnataka,Bengaluru,"Silk Board, Bengaluru - KSPCB",14-01-2024 17:00:00,12.917348,77.622813,NO2,17,23,19
India,Karnataka,Chamarajanagar,"Urban, Chamarajanagar - KSPCB",14-01-2024 17:00:00,11.55358,76.55521,OZONE,14,26,24
India,Karnataka,Chikkaballapur,"Chikkaballapur Rural, Chikkaballapur - KSPCB",14-01-2024 17:00:00,13.428828,77.731418,PM2.5,69,192,139
India,Karnataka,Chikkamagaluru,"Kalyana Nagara, Chikkamagaluru - KSPCB",14-01-2024 17:00:00,13.328028,75.797056,NO2,18,36,24
India,Karnataka,Chikkamagaluru,"Kalyana Nagara, Chikkamagaluru - KSPCB",14-01-2024 17:00:00,13.328028,75.797056,NH3,3,5,4
India,Karnataka,Chikkamagaluru,"Kalyana Nagara, Chikkamagaluru - KSPCB",14-01-2024 17:00:00,13.328028,75.797056,CO,11,88,28
India,Karnataka,Davanagere,"Devaraj Urs Badavane, Davanagere - KSPCB",14-01-2024 17:00:00,14.475800,75.905200,OZONE,8,31,27
India,Karnataka,Dharwad,"Kalabhavan, Dharwad - KSPCB",14-01-2024 17:00:00,15.459706,75.008381,PM10,70,81,77
India,Karnataka,Dharwad,"Kalabhavan, Dharwad - KSPCB",14-01-2024 17:00:00,15.459706,75.008381,CO,41,129,53
India,Karnataka,Dharwad,"Kalabhavan, Dharwad - KSPCB",14-01-2024 17:00:00,15.459706,75.008381,OZONE,2,84,59
India,Karnataka,Gadag,"Panchal Nagar, Gadag - KSPCB",14-01-2024 17:00:00,15.411456,75.638133,SO2,6,14,9
India,Karnataka,Gadag,"Panchal Nagar, Gadag - KSPCB",14-01-2024 17:00:00,15.411456,75.638133,CO,50,64,56
India,Karnataka,Hubballi,"Deshpande Nagar, Hubballi - KSPCB",14-01-2024 17:00:00,15.351773,75.140726,PM2.5,58,158,90
India,Karnataka,Hubballi,"Deshpande Nagar, Hubballi - KSPCB",14-01-2024 17:00:00,15.351773,75.140726,NH3,6,19,13
India,Karnataka,Hubballi,"Deshpande Nagar, Hubballi - KSPCB",14-01-2024 17:00:00,15.351773,75.140726,OZONE,1,67,56
India,Karnataka,Hubballi,"Lingaraj Nagar, Hubballi - KSPCB",14-01-2024 17:00:00,15.3714823,75.1160168,NO2,16,16,16
India,Karnataka,Hubballi,"Lingaraj Nagar, Hubballi - KSPCB",14-01-2024 17:00:00,15.3714823,75.1160168,CO,3,102,80
India,Karnataka,Hubballi,"Lingaraj Nagar, Hubballi - KSPCB",14-01-2024 17:00:00,15.3714823,75.1160168,OZONE,7,108,92
India,Karnataka,Kalaburagi,"Lal Bahadur Shastri Nagar, Kalaburagi - KSPCB",14-01-2024 17:00:00,17.321993,76.822628,NO2,11,12,11
India,Karnataka,Kalaburagi,"Lal Bahadur Shastri Nagar, Kalaburagi - KSPCB",14-01-2024 17:00:00,17.321993,76.822628,SO2,18,18,18
India,Karnataka,Karwar,"KHB Colony, Karwar - KSPCB",14-01-2024 17:00:00,14.816666,74.141003,CO,1,76,10
India,Karnataka,Karwar,"KHB Colony, Karwar - KSPCB",14-01-2024 17:00:00,14.816666,74.141003,OZONE,21,22,22
India,Karnataka,Kolar,"Tamaka Ind. Area, Kolar - KSPCB",14-01-2024 17:00:00,13.1276288,78.1570122,OZONE,15,25,25
India,Karnataka,Madikeri,"Stuart Hill, Madikeri - KSPCB",14-01-2024 17:00:00,12.415911,75.735050,PM10,39,74,61
India,Karnataka,Madikeri,"Stuart Hill, Madikeri - KSPCB",14-01-2024 17:00:00,12.415911,75.735050,NH3,1,1,1
India,Karnataka,Mysuru,"Hebbal 1st Stage, Mysuru - KSPCB",14-01-2024 17:00:00,12.21041,76.37376,NH3,1,4,2
India,Karnataka,Raichur,"Haji Colony, Raichur - KSPCB",14-01-2024 17:00:00,16.208139,77.348417,PM2.5,37,140,60
India,Karnataka,Raichur,"Haji Colony, Raichur - KSPCB",14-01-2024 17:00:00,16.208139,77.348417,PM10,96,275,148
India,Karnataka,Ramanagara,"Vijay Nagar, Ramanagara - KSPCB",14-01-2024 17:00:00,12.733409,77.298051,PM10,46,84,67
India,Karnataka,Shivamogga,"Vinoba Nagara, Shivamogga - KSPCB",14-01-2024 17:00:00,13.940000,75.555917,PM2.5,33,64,40
India,Karnataka,Tumakuru,"Thimmalapura, Tumakuru - KSPCB",14-01-2024 17:00:00,13.377516,77.099072,OZONE,16,70,53
India,Karnataka,Udupi,"Brahmagiri, Udupi - KSPCB",14-01-2024 17:00:00,13.34194444,74.74694444,CO,39,50,42
India,Karnataka,Udupi,"Brahmagiri, Udupi - KSPCB",14-01-2024 17:00:00,13.34194444,74.74694444,OZONE,23,24,23
India,Karnataka,Vijayapura,"Ibrahimpur, Vijayapura - KSPCB",14-01-2024 17:00:00,16.802639,75.722694,NO2,17,19,19
India,Karnataka,Vijayapura,"Ibrahimpur, Vijayapura - KSPCB",14-01-2024 17:00:00,16.802639,75.722694,OZONE,14,16,15
India,Kerala,Eloor,"Udyogamandal, Eloor - Kerala PCB",14-01-2024 17:00:00,10.073232,76.302765,NO2,4,4,4
India,Kerala,Eloor,"Udyogamandal, Eloor - Kerala PCB",14-01-2024 17:00:00,10.073232,76.302765,CO,8,148,47
India,Kerala,Kannur,"Thavakkara, Kannur - Kerala PCB",14-01-2024 17:00:00,11.875000,75.373200,PM2.5,44,50,47
India,Kerala,Kannur,"Thavakkara, Kannur - Kerala PCB",14-01-2024 17:00:00,11.875000,75.373200,CO,30,35,32
India,Kerala,Kochi,"Vyttila, Kochi - Kerala PCB",14-01-2024 17:00:00,9.969447,76.321186,NH3,2,3,3
India,Kerala,Kochi,"Vyttila, Kochi - Kerala PCB",14-01-2024 17:00:00,9.969447,76.321186,CO,41,48,43
India,Kerala,Kollam,"Polayathode, Kollam - Kerala PCB",14-01-2024 17:00:00,8.8787,76.6073,PM2.5,NA,NA,NA
India,Kerala,Kollam,"Polayathode, Kollam - Kerala PCB",14-01-2024 17:00:00,8.8787,76.6073,NH3,NA,NA,NA
India,Kerala,Thiruvananthapuram,"Kariavattom, Thiruvananthapuram - Kerala PCB",14-01-2024 17:00:00,8.563700,76.886500,NO2,8,10,9
India,Kerala,Thiruvananthapuram,"Plammoodu, Thiruvananthapuram - Kerala PCB",14-01-2024 17:00:00,8.5149093,76.9435879,NO2,12,14,13
India,Kerala,Thiruvananthapuram,"Plammoodu, Thiruvananthapuram - Kerala PCB",14-01-2024 17:00:00,8.5149093,76.9435879,SO2,1,11,6
India,Kerala,Thiruvananthapuram,"Plammoodu, Thiruvananthapuram - Kerala PCB",14-01-2024 17:00:00,8.5149093,76.9435879,CO,18,45,24
India,Kerala,Thiruvananthapuram,"Plammoodu, Thiruvananthapuram - Kerala PCB",14-01-2024 17:00:00,8.5149093,76.9435879,OZONE,13,49,15
India,Kerala,Thrissur,"Corporation Ground, Thrissur - Kerala PCB",14-01-2024 17:00:00,10.532400,76.215900,OZONE,21,31,29
India,Madhya Pradesh,Bhopal,"Idgah Hills, Bhopal - MPPCB",14-01-2024 17:00:00,23.264759,77.381568,PM2.5,53,200,109
India,Madhya Pradesh,Bhopal,"Idgah Hills, Bhopal - MPPCB",14-01-2024 17:00:00,23.264759,77.381568,CO,28,86,41
India,Madhya Pradesh,Bhopal,"Idgah Hills, Bhopal - MPPCB",14-01-2024 17:00:00,23.264759,77.381568,OZONE,22,92,73
India,Madhya Pradesh,Bhopal,"Paryavaran Parisar, Bhopal - MPPCB",14-01-2024 17:00:00,23.210494,77.425409,NO2,19,82,44
India,Madhya Pradesh,Bhopal,"Paryavaran Parisar, Bhopal - MPPCB",14-01-2024 17:00:00,23.210494,77.425409,NH3,8,13,10
India,Madhya Pradesh,Damoh,"Shrivastav Colony, Damoh - MPPCB",14-01-2024 17:00:00,23.81748678,79.446246,PM2.5,3,87,33
India,Madhya Pradesh,Dewas,"Bhopal Chauraha, Dewas - MPPCB",14-01-2024 17:00:00,22.9682591,76.064118,NO2,11,12,12
India,Madhya Pradesh,Dewas,"Bhopal Chauraha, Dewas - MPPCB",14-01-2024 17:00:00,22.9682591,76.064118,NH3,3,3,3
India,Madhya Pradesh,Dewas,"Bhopal Chauraha, Dewas - MPPCB",14-01-2024 17:00:00,22.9682591,76.064118,CO,18,69,26
India,Madhya Pradesh,Dewas,"Bhopal Chauraha, Dewas - MPPCB",14-01-2024 17:00:00,22.9682591,76.064118,OZONE,14,42,33
India,Madhya Pradesh,Gwalior,"City Center, Gwalior - MPPCB",14-01-2024 17:00:00,26.203442,78.193251,PM2.5,43,338,173
India,Madhya Pradesh,Gwalior,"City Center, Gwalior - MPPCB",14-01-2024 17:00:00,26.203442,78.193251,PM10,40,244,121
India,Madhya Pradesh,Gwalior,"City Center, Gwalior - MPPCB",14-01-2024 17:00:00,26.203442,78.193251,OZONE,18,20,19
India,Madhya Pradesh,Gwalior,"Phool Bagh, Gwalior - Mondelez Ind. Food",14-01-2024 17:00:00,26.210536,78.171,PM2.5,10,268,177
India,Madhya Pradesh,Gwalior,"Phool Bagh, Gwalior - Mondelez Ind. Food",14-01-2024 17:00:00,26.210536,78.171,PM10,37,187,122
India,Madhya Pradesh,Indore,"Maguda Nagar, Indore - IMC",14-01-2024 17:00:00,22.7524,75.8872,PM2.5,10,307,159
India,Madhya Pradesh,Indore,"Residency Area, Indore - IMC",14-01-2024 17:00:00,22.7084,75.8815,CO,10,24,13
India,Madhya Pradesh,Jabalpur,"Govindh Bhavan Colony, Jabalpur - JMC",14-01-2024 17:00:00,23.163174,79.973061,PM2.5,23,85,37
India,Madhya Pradesh,Jabalpur,"Govindh Bhavan Colony, Jabalpur - JMC",14-01-2024 17:00:00,23.163174,79.973061,PM10,23,65,32
India,Madhya Pradesh,Jabalpur,"Gupteshwar, Jabalpur - JMC",14-01-2024 17:00:00,23.142888,79.916147,PM10,33,143,55
India,Madhya Pradesh,Jabalpur,"Marhatal, Jabalpur - MPPCB",14-01-2024 17:00:00,23.168606,79.932247,OZONE,5,69,56
India,Madhya Pradesh,Jabalpur,"Suhagi, Jabalpur - JMC",14-01-2024 17:00:00,23.218135,79.957770,PM2.5,35,253,101
India,Madhya Pradesh,Jabalpur,"Suhagi, Jabalpur - JMC",14-01-2024 17:00:00,23.218135,79.957770,PM10,34,152,86
India,Madhya Pradesh,Mandideep,"Sector-D Industrial Area, Mandideep - MPPCB",14-01-2024 17:00:00,23.108440,77.511428,PM2.5,32,303,102
India,Madhya Pradesh,Pithampur,"Sector-2 Industrial Area, Pithampur - MPPCB",14-01-2024 17:00:00,22.624758,75.675238,PM10,40,151,101
India,Madhya Pradesh,Sagar,"Civil Lines, Sagar - MPPCB",14-01-2024 17:00:00,23.838586,78.759431,NH3,7,14,9
India,Madhya Pradesh,Sagar,"Deen Dayal Nagar, Sagar - MPPCB",14-01-2024 17:00:00,23.8640158,78.80289321,NO2,15,23,22
India,Madhya Pradesh,Satna,"Bandhavgar Colony, Satna - Birla Cement",14-01-2024 17:00:00,24.58434363,80.8549414,OZONE,57,98,88
India,Madhya Pradesh,Singrauli,"Suryakiran Bhawan NCL, Singrauli - MPPCB",14-01-2024 17:00:00,24.108970,82.645580,PM2.5,22,413,204
India,Madhya Pradesh,Ujjain,"Mahakaleshwar Temple, Ujjain - MPPCB",14-01-2024 17:00:00,23.182719 ,75.768218 ,PM2.5,12,335,136
India,Maharashtra,Ahmednagar,"Tarakpur, Ahmednagar - MPCB",14-01-2024 17:00:00,19.10122,74.73339,PM2.5,42,138,69
India,Maharashtra,Ahmednagar,"Tarakpur, Ahmednagar - MPCB",14-01-2024 17:00:00,19.10122,74.73339,PM10,42,207,112
India,Maharashtra,Ahmednagar,"Tarakpur, Ahmednagar - MPCB",14-01-2024 17:00:00,19.10122,74.73339,NH3,3,7,4
India,Maharashtra,Amravati,"Shivneri Colony, Amravati - MPCB",14-01-2024 17:00:00,20.9402359,77.7895248,PM2.5,86,198,125
India,Maharashtra,Amravati,"Shri Shivaji Science College, Amaravati - MPCB",14-01-2024 17:00:00,20.939198,77.765701,PM2.5,79,230,156
India,Maharashtra,Aurangabad,"MIDC Chilkalthana, Aurangabad - MPCB",14-01-2024 17:00:00,19.875620,75.387310,PM2.5,55,198,117
India,Maharashtra,Aurangabad,"MIDC Chilkalthana, Aurangabad - MPCB",14-01-2024 17:00:00,19.875620,75.387310,SO2,2,9,5
India,Maharashtra,Aurangabad,"Rachnakar Colony, Aurangabad - MPCB",14-01-2024 17:00:00,19.863756,75.321188,NO2,12,115,61
India,Maharashtra,Badlapur,"Katrap, Badlapur - MPCB",14-01-2024 17:00:00,19.16485,73.23409,PM10,71,158,137
India,Maharashtra,Belapur,"CBD Belapur, Belapur - MPCB",14-01-2024 17:00:00,19.0243902,73.0406721,OZONE,7,80,47
India,Maharashtra,Bhiwandi,"Gokul Nagar, Bhiwandi - MPCB",14-01-2024 17:00:00,19.309073,73.057223,PM10,NA,NA,NA
India,Maharashtra,Bhiwandi,"Gokul Nagar, Bhiwandi - MPCB",14-01-2024 17:00:00,19.309073,73.057223,NH3,NA,NA,NA
India,Maharashtra,Boisar,"Khaira, Boisar - MPCB",14-01-2024 17:00:00,19.786089,72.757971,PM2.5,27,209,99
India,Maharashtra,Boisar,"Khaira, Boisar - MPCB",14-01-2024 17:00:00,19.786089,72.757971,NO2,1,19,9
India,Maharashtra,Boisar,"Khaira, Boisar - MPCB",14-01-2024 17:00:00,19.786089,72.757971,OZONE,1,12,8
India,Maharashtra,Chandrapur,"Chauhan Colony, Chandrapur - MPCB",14-01-2024 17:00:00,19.962900,79.298714,CO,1,42,25
India,Maharashtra,Chandrapur,"Chauhan Colony, Chandrapur - MPCB",14-01-2024 17:00:00,19.962900,79.298714,OZONE,1,24,16
India,Maharashtra,Chandrapur,"MIDC Khutala, Chandrapur - MPCB",14-01-2024 17:00:00,19.9775302,79.2337086,CO,29,106,37
India,Maharashtra,Chandrapur,"MIDC Khutala, Chandrapur - MPCB",14-01-2024 17:00:00,19.9775302,79.2337086,OZONE,1,1,1
India,Maharashtra,Dhule,"Deopur, Dhule - MPCB",14-01-2024 17:00:00,20.918946,74.776388,NH3,4,6,4
India,Maharashtra,Jalgaon,"Prabhat Colony, Jalgaon - MPCB",14-01-2024 17:00:00,21.001264,75.565602,CO,13,40,16
India,Maharashtra,Jalna,"Old MIDC, Jalna - MPCB",14-01-2024 17:00:00,19.854616,75.905894,PM10,99,233,142
India,Maharashtra,Kalyan,"Khadakpada, Kalyan - MPCB",14-01-2024 17:00:00,19.25292,73.142019,PM2.5,11,83,55
India,Maharashtra,Kolhapur,"Sinchan Bhavan, Kolhapur - MPCB",14-01-2024 17:00:00,16.7143745,74.2426398,NO2,17,70,37
India,Maharashtra,Latur,"Sawe Wadi, Latur - MPCB",14-01-2024 17:00:00,18.39963,76.57452,PM10,3,154,112
India,Maharashtra,Latur,"Sawe Wadi, Latur - MPCB",14-01-2024 17:00:00,18.39963,76.57452,NH3,8,8,8
India,Maharashtra,Latur,"Sawe Wadi, Latur - MPCB",14-01-2024 17:00:00,18.39963,76.57452,SO2,1,8,6
India,Maharashtra,Latur,"Sawe Wadi, Latur - MPCB",14-01-2024 17:00:00,18.39963,76.57452,CO,12,112,42
India,Maharashtra,Mahad,"Kamble Tarf Birwadi, Mahad - MPCB",14-01-2024 17:00:00,18.1023399,73.4783687,NH3,5,6,5
India,Maharashtra,Mahad,"Kamble Tarf Birwadi, Mahad - MPCB",14-01-2024 17:00:00,18.1023399,73.4783687,SO2,12,14,12
India,Maharashtra,Malegaon,"Mahesh Nagar, Malegaon - MPCB",14-01-2024 17:00:00,20.555712,74.529236,NO2,1,21,6
India,Maharashtra,Malegaon,"Mahesh Nagar, Malegaon - MPCB",14-01-2024 17:00:00,20.555712,74.529236,SO2,11,13,11
India,Maharashtra,Mira-Bhayandar,"Bhayandar West, Mira-Bhayandar - MPCB",14-01-2024 17:00:00,19.296481,72.840923,PM2.5,36,134,84
India,Maharashtra,Mira-Bhayandar,"Bhayandar West, Mira-Bhayandar - MPCB",14-01-2024 17:00:00,19.296481,72.840923,NO2,12,56,30
India,Maharashtra,Mumbai,"Bandra Kurla Complex, Mumbai - MPCB",14-01-2024 17:00:00,19.065931,72.862131,PM2.5,59,162,109
India,Maharashtra,Mumbai,"Borivali East, Mumbai - MPCB",14-01-2024 17:00:00,19.2243333,72.8658113,PM10,23,119,61
India,Maharashtra,Mumbai,"Byculla, Mumbai - BMC",14-01-2024 17:00:00,18.9767,72.8380,SO2,1,3,2
India,Maharashtra,Mumbai,"Chakala-Andheri East, Mumbai - IITM",14-01-2024 17:00:00,19.11074,72.86084,OZONE,39,79,65
India,Maharashtra,Mumbai,"Chembur, Mumbai - MPCB",14-01-2024 17:00:00,19.0364585,72.8954371,PM2.5,40,165,99
India,Maharashtra,Mumbai,"Chembur, Mumbai - MPCB",14-01-2024 17:00:00,19.0364585,72.8954371,CO,24,106,34
India,Maharashtra,Mumbai,"Chhatrapati Shivaji Intl. Airport (T2), Mumbai - MPCB",14-01-2024 17:00:00,19.10078,72.87462,PM2.5,7,51,34
India,Maharashtra,Mumbai,"Chhatrapati Shivaji Intl. Airport (T2), Mumbai - MPCB",14-01-2024 17:00:00,19.10078,72.87462,PM10,33,121,90
India,Maharashtra,Mumbai,"Chhatrapati Shivaji Intl. Airport (T2), Mumbai - MPCB",14-01-2024 17:00:00,19.10078,72.87462,OZONE,1,12,9
India,Maharashtra,Mumbai,"Colaba, Mumbai - MPCB",14-01-2024 17:00:00,18.910000,72.820000,SO2,NA,NA,NA
India,Maharashtra,Mumbai,"Ghatkopar, Mumbai - BMC",14-01-2024 17:00:00,19.083694,72.920967,PM2.5,25,108,80
India,Maharashtra,Mumbai,"Ghatkopar, Mumbai - BMC",14-01-2024 17:00:00,19.083694,72.920967,SO2,1,2,1
India,Maharashtra,Mumbai,"Kandivali East, Mumbai - MPCB",14-01-2024 17:00:00,19.205800,72.868200,NH3,6,15,9
India,Maharashtra,Mumbai,"Kandivali East, Mumbai - MPCB",14-01-2024 17:00:00,19.205800,72.868200,OZONE,27,32,30
India,Maharashtra,Mumbai,"Kherwadi_Bandra East, Mumbai - MPCB",14-01-2024 17:00:00,19.0632143,72.8456324,PM2.5,37,201,128
India,Maharashtra,Mumbai,"Kherwadi_Bandra East, Mumbai - MPCB",14-01-2024 17:00:00,19.0632143,72.8456324,NO2,13,89,51
India,Maharashtra,Mumbai,"Kherwadi_Bandra East, Mumbai - MPCB",14-01-2024 17:00:00,19.0632143,72.8456324,NH3,4,9,7
India,Maharashtra,Mumbai,"Khindipada-Bhandup West, Mumbai - IITM",14-01-2024 17:00:00,19.1653323,72.922099,PM2.5,12,101,68
India,Maharashtra,Mumbai,"Khindipada-Bhandup West, Mumbai - IITM",14-01-2024 17:00:00,19.1653323,72.922099,PM10,11,114,79
India,Maharashtra,Mumbai,"Khindipada-Bhandup West, Mumbai - IITM",14-01-2024 17:00:00,19.1653323,72.922099,SO2,2,21,8
India,Maharashtra,Mumbai,"Khindipada-Bhandup West, Mumbai - IITM",14-01-2024 17:00:00,19.1653323,72.922099,OZONE,4,55,31
India,Maharashtra,Mumbai,"Malad West, Mumbai - IITM",14-01-2024 17:00:00,19.19709,72.82204,PM2.5,76,282,183
India,Maharashtra,Mumbai,"Malad West, Mumbai - IITM",14-01-2024 17:00:00,19.19709,72.82204,NO2,10,22,16
India,Maharashtra,Mumbai,"Malad West, Mumbai - IITM",14-01-2024 17:00:00,19.19709,72.82204,SO2,2,23,9
India,Maharashtra,Mumbai,"Mazgaon, Mumbai - IITM",14-01-2024 17:00:00,18.96702,72.84214,NH3,5,12,8
India,Maharashtra,Mumbai,"Mindspace-Malad West, Mumbai - MPCB",14-01-2024 17:00:00,19.1878657,72.8304069,SO2,4,11,8
India,Maharashtra,Mumbai,"Mulund West, Mumbai - MPCB",14-01-2024 17:00:00,19.1750,72.9419,NH3,NA,NA,NA
India,Maharashtra,Mumbai,"Mulund West, Mumbai - MPCB",14-01-2024 17:00:00,19.1750,72.9419,OZONE,NA,NA,NA
India,Maharashtra,Mumbai,"Navy Nagar-Colaba, Mumbai - IITM",14-01-2024 17:00:00,18.897756,72.813320,PM10,81,110,100
India,Maharashtra,Mumbai,"Navy Nagar-Colaba, Mumbai - IITM",14-01-2024 17:00:00,18.897756,72.813320,NH3,9,13,11
India,Maharashtra,Mumbai,"Powai, Mumbai - MPCB",14-01-2024 17:00:00,19.137500,72.915056,NO2,NA,NA,NA
India,Maharashtra,Mumbai,"Sewri, Mumbai - BMC",14-01-2024 17:00:00,19.000084,72.856730,PM10,86,137,114
India,Maharashtra,Mumbai,"Sewri, Mumbai - BMC",14-01-2024 17:00:00,19.000084,72.856730,NO2,36,115,78
India,Maharashtra,Mumbai,"Sewri, Mumbai - BMC",14-01-2024 17:00:00,19.000084,72.856730,OZONE,1,94,55
India,Maharashtra,Mumbai,"Vasai West, Mumbai - MPCB",14-01-2024 17:00:00,19.383200,72.820400,PM2.5,4,53,28
India,Maharashtra,Mumbai,"Vile Parle West, Mumbai - MPCB",14-01-2024 17:00:00,19.10861,72.83622,PM10,33,144,92
India,Maharashtra,Mumbai,"Vile Parle West, Mumbai - MPCB",14-01-2024 17:00:00,19.10861,72.83622,NO2,NA,NA,NA
India,Maharashtra,Mumbai,"Vile Parle West, Mumbai - MPCB",14-01-2024 17:00:00,19.10861,72.83622,OZONE,3,3,3
India,Maharashtra,Mumbai,"Worli, Mumbai - MPCB",14-01-2024 17:00:00,18.9936162,72.8128113,NO2,17,19,18
India,Maharashtra,Mumbai,"Worli, Mumbai - MPCB",14-01-2024 17:00:00,18.9936162,72.8128113,CO,32,36,36
India,Maharashtra,Nagpur,"Ambazari, Nagpur - MPCB",14-01-2024 17:00:00,21.121801,79.04952,PM10,78,154,114
India,Maharashtra,Nagpur,"Ambazari, Nagpur - MPCB",14-01-2024 17:00:00,21.121801,79.04952,NO2,17,128,51
India,Maharashtra,Nagpur,"Mahal, Nagpur - MPCB",14-01-2024 17:00:00,21.14472,79.107595,SO2,29,56,37
India,Maharashtra,Nagpur,"Ram Nagar, Nagpur - MPCB",14-01-2024 17:00:00,21.143383,79.048912,CO,16,51,26
India,Maharashtra,Nanded,"Sneh Nagar, Nanded - MPCB",14-01-2024 17:00:00,19.173852,77.296291,SO2,1,3,1
India,Maharashtra,Nanded,"Sneh Nagar, Nanded - MPCB",14-01-2024 17:00:00,19.173852,77.296291,CO,36,44,39
India,Maharashtra,Nashik,"Gangapur Road, Nashik - MPCB",14-01-2024 17:00:00,20.0073285,73.7762427,PM10,9,90,56
India,Maharashtra,Nashik,"Gangapur Road, Nashik - MPCB",14-01-2024 17:00:00,20.0073285,73.7762427,CO,18,18,18
India,Maharashtra,Nashik,"Hirawadi, Nashik - MPCB",14-01-2024 17:00:00,20.021503,73.813844,NO2,9,30,19
India,Maharashtra,Nashik,"Hirawadi, Nashik - MPCB",14-01-2024 17:00:00,20.021503,73.813844,NH3,1,1,1
India,Maharashtra,Nashik,"MIDC Ambad, Nashik - MPCB",14-01-2024 17:00:00,19.950220,73.731480,PM2.5,17,193,71
India,Maharashtra,Nashik,"MIDC Ambad, Nashik - MPCB",14-01-2024 17:00:00,19.950220,73.731480,CO,19,54,22
India,Maharashtra,Nashik,"Pandav Nagari, Nashik - MPCB",14-01-2024 17:00:00,19.9591346,73.7788008,NH3,7,8,7
India,Maharashtra,Nashik,"Pandav Nagari, Nashik - MPCB",14-01-2024 17:00:00,19.9591346,73.7788008,CO,14,64,18
India,Maharashtra,Navi Mumbai,"Kopripada-Vashi, Navi Mumbai - MPCB",14-01-2024 17:00:00,19.090337,73.014232,CO,5,80,11
India,Maharashtra,Navi Mumbai,"Nerul, Navi Mumbai - MPCB",14-01-2024 17:00:00,19.008751,73.016620,OZONE,18,33,25
India,Maharashtra,Navi Mumbai,"Sanpada, Navi Mumbai - MPCB",14-01-2024 17:00:00,19.0575752,73.0151367,PM2.5,38,320,171
India,Maharashtra,Navi Mumbai,"Sector-2E Kalamboli, Navi Mumbai - MPCB",14-01-2024 17:00:00,19.02579,73.10297,PM10,48,282,138
India,Maharashtra,Navi Mumbai,"Sector-2E Kalamboli, Navi Mumbai - MPCB",14-01-2024 17:00:00,19.02579,73.10297,CO,6,103,15
India,Maharashtra,Navi Mumbai,"Sector-2E Kalamboli, Navi Mumbai - MPCB",14-01-2024 17:00:00,19.02579,73.10297,OZONE,1,86,52
India,Maharashtra,Navi Mumbai,"Tondare-Taloja, Navi Mumbai - MPCB",14-01-2024 17:00:00,19.0630,73.1209,PM2.5,NA,NA,NA
India,Maharashtra,Navi Mumbai,"Tondare-Taloja, Navi Mumbai - MPCB",14-01-2024 17:00:00,19.0630,73.1209,CO,6,84,22
India,Maharashtra,Parbhani,"Masoom Colony, Parbhani - MPCB",14-01-2024 17:00:00,19.265594,76.761463,PM2.5,37,143,91
India,Maharashtra,Parbhani,"Masoom Colony, Parbhani - MPCB",14-01-2024 17:00:00,19.265594,76.761463,SO2,18,121,56
India,Maharashtra,Pimpri-Chinchwad,"Gavalinagar, Pimpri Chinchwad - MPCB",14-01-2024 17:00:00,18.63673,73.82487,OZONE,1,119,74
India,Maharashtra,Pimpri-Chinchwad,"Park Street Wakad, Pimpri Chinchwad - MPCB",14-01-2024 17:00:00,18.59051,73.77946,CO,15,118,29
India,Maharashtra,Pimpri-Chinchwad,"Thergaon, Pimpri Chinchwad - MPCB",14-01-2024 17:00:00,18.616318,73.765797,PM10,62,177,121
India,Maharashtra,Pimpri-Chinchwad,"Thergaon, Pimpri Chinchwad - MPCB",14-01-2024 17:00:00,18.616318,73.765797,CO,8,92,32
India,Maharashtra,Pimpri-Chinchwad,"Thergaon, Pimpri Chinchwad - MPCB",14-01-2024 17:00:00,18.616318,73.765797,OZONE,1,106,61
India,Maharashtra,Pune,"Karve Road, Pune - MPCB",14-01-2024 17:00:00,18.5011743,73.8165527,PM2.5,48,500,328
India,Maharashtra,Pune,"Karve Road, Pune - MPCB",14-01-2024 17:00:00,18.5011743,73.8165527,OZONE,4,55,28
India,Maharashtra,Pune,"Revenue Colony-Shivajinagar, Pune - IITM",14-01-2024 17:00:00,18.530085,73.849598,CO,64,113,104
India,Maharashtra,Solapur,"Dnyaneshwar Nagar, Solapur - MPCB",14-01-2024 17:00:00,17.6336264,75.9132495,OZONE,15,89,75
India,Maharashtra,Solapur,"Ratandeep Housing Society, Solapur - MPCB",14-01-2024 17:00:00,17.65439,75.90649,PM10,56,187,114
India,Maharashtra,Solapur,"Ratandeep Housing Society, Solapur - MPCB",14-01-2024 17:00:00,17.65439,75.90649,NH3,7,12,9
India,Maharashtra,Thane,"Kasarvadavali, Thane - MPCB",14-01-2024 17:00:00,19.26777,72.97182,PM2.5,25,111,66
India,Maharashtra,Thane,"Kasarvadavali, Thane - MPCB",14-01-2024 17:00:00,19.26777,72.97182,SO2,1,33,11
India,Maharashtra,Thane,"Kasarvadavali, Thane - MPCB",14-01-2024 17:00:00,19.26777,72.97182,CO,8,64,18
India,Maharashtra,Thane,"Upvan Fort, Thane - MPCB",14-01-2024 17:00:00,19.222279,72.957979,PM2.5,27,163,82
India,Maharashtra,Thane,"Upvan Fort, Thane - MPCB",14-01-2024 17:00:00,19.222279,72.957979,SO2,6,51,18
India,Maharashtra,Ulhasnagar,"Sidhi Vinayak Nagar, Ulhasnagar - MPCB",14-01-2024 17:00:00,19.235581,73.159121,PM10,62,155,130
India,Maharashtra,Ulhasnagar,"Sidhi Vinayak Nagar, Ulhasnagar - MPCB",14-01-2024 17:00:00,19.235581,73.159121,NH3,3,4,4
India,Maharashtra,Ulhasnagar,"Sidhi Vinayak Nagar, Ulhasnagar - MPCB",14-01-2024 17:00:00,19.235581,73.159121,SO2,5,118,40
India,Maharashtra,Ulhasnagar,"Sidhi Vinayak Nagar, Ulhasnagar - MPCB",14-01-2024 17:00:00,19.235581,73.159121,OZONE,5,158,81
India,Manipur,Imphal,"DM College of Science, Imphal - Manipur PCB",14-01-2024 17:00:00,24.8207389,93.9423085,PM10,17,261,59
India,Meghalaya,Shillong,"Lumpyngngad, Shillong - Meghalaya PCB",14-01-2024 17:00:00,25.5586,91.8985,NO2,6,7,6
India,Mizoram,Aizawl,"Sikulpuikawn, Aizawl - Mizoram PCB",14-01-2024 17:00:00,23.7176342,92.7192841,OZONE,1,6,3
India,Odisha,Angul,"Hakimapada, Angul - OSPCB",14-01-2024 17:00:00,20.832874,85.104082,PM10,133,457,237
India,Odisha,Balasore,"Kalidaspur, Balasore - OSPCB",14-01-2024 17:00:00,21.51161,86.89088,PM10,134,485,256
India,Odisha,Balasore,"Kalidaspur, Balasore - OSPCB",14-01-2024 17:00:00,21.51161,86.89088,NO2,12,61,29
India,Odisha,Barbil,"Forest Office, Barbil - OSPCB",14-01-2024 17:00:00,22.1166054,85.3945546,SO2,2,74,14
India,Odisha,Barbil,"Forest Office, Barbil - OSPCB",14-01-2024 17:00:00,22.1166054,85.3945546,CO,31,94,45
India,Odisha,Barbil,"Forest Office, Barbil - OSPCB",14-01-2024 17:00:00,22.1166054,85.3945546,OZONE,4,130,91
India,Odisha,Baripada,"Meher Colony, Baripada - OSPCB",14-01-2024 17:00:00,21.941841,86.728318,NO2,2,3,3
India,Odisha,Baripada,"Meher Colony, Baripada - OSPCB",14-01-2024 17:00:00,21.941841,86.728318,SO2,1,11,6
India,Odisha,Bhubaneswar,"Lingraj Mandir, Bhubaneswar - OSPCB",14-01-2024 17:00:00,20.240790,85.836784,SO2,6,23,12
India,Odisha,Bhubaneswar,"Patia, Bhubaneswar - OSPCB",14-01-2024 17:00:00,20.34652,85.81630,PM2.5,110,321,266
India,Odisha,Bhubaneswar,"Patia, Bhubaneswar - OSPCB",14-01-2024 17:00:00,20.34652,85.81630,CO,10,58,22
India,Odisha,Bileipada,"Tata Township, Bileipada - OSPCB",14-01-2024 17:00:00,22.06156703,85.47409613,NO2,NA,NA,NA
India,Odisha,Bileipada,"Tata Township, Bileipada - OSPCB",14-01-2024 17:00:00,22.06156703,85.47409613,CO,32,54,54
India,Odisha,Brajrajnagar,"GM Office, Brajrajnagar - OSPCB",14-01-2024 17:00:00,21.8004996,83.8396977,NO2,14,19,17
India,Odisha,Byasanagar,"Ferro Chrome Colony, Byasanagar - OSPCB",14-01-2024 17:00:00,20.94185,86.11510,PM10,127,230,165
India,Odisha,Cuttack,"CDA Area, Cuttack - OSPCB",14-01-2024 17:00:00,20.48891     ,85.84768     ,PM10,111,279,171
India,Odisha,Cuttack,"CDA Area, Cuttack - OSPCB",14-01-2024 17:00:00,20.48891     ,85.84768     ,NO2,24,107,41
India,Odisha,Cuttack,"CDA Area, Cuttack - OSPCB",14-01-2024 17:00:00,20.48891     ,85.84768     ,NH3,3,5,4
India,Odisha,Keonjhar,"Jagamohanpur, Keonjhar - OSPCB",14-01-2024 17:00:00,21.643900,85.599355,CO,12,37,14
India,Odisha,Nayagarh,"Dabuna, Nayagarh - OSPCB",14-01-2024 17:00:00,21.847279,85.416905,PM2.5,21,88,69
India,Odisha,Nayagarh,"Dabuna, Nayagarh - OSPCB",14-01-2024 17:00:00,21.847279,85.416905,PM10,87,170,121
India,Odisha,Rairangpur,"Divisional Forest Office, Rairangpur - OSPCB",14-01-2024 17:00:00,22.265816,86.174829,NH3,3,3,3
India,Odisha,Rourkela,"Fertilizer Township, Rourkela - OSPCB",14-01-2024 17:00:00,22.18972222,84.86277778,NO2,10,116,30
India,Odisha,Rourkela,"Fertilizer Township, Rourkela - OSPCB",14-01-2024 17:00:00,22.18972222,84.86277778,SO2,11,15,13
India,Odisha,Rourkela,"Raghunathpali, Rourkela - OSPCB",14-01-2024 17:00:00,22.220833,84.809444,PM10,52,297,111
India,Odisha,Rourkela,"Raghunathpali, Rourkela - OSPCB",14-01-2024 17:00:00,22.220833,84.809444,NH3,2,5,4
India,Odisha,Rourkela,"Sector-2, Rourkela - OSPCB",14-01-2024 17:00:00,22.24500000,84.88111111,PM2.5,37,105,51
India,Odisha,Rourkela,"Sector-2, Rourkela - OSPCB",14-01-2024 17:00:00,22.24500000,84.88111111,PM10,44,111,77
India,Odisha,Tensa,"Barsua Iron Ore Mines, Tensa - OSPCB",14-01-2024 17:00:00,21.869985,85.167016,NH3,6,10,7
India,Puducherry,Puducherry,"Jawahar Nagar, Puducherry - PPCC",14-01-2024 17:00:00,11.9309,79.8027,NO2,13,59,30
India,Puducherry,Puducherry,"Jawahar Nagar, Puducherry - PPCC",14-01-2024 17:00:00,11.9309,79.8027,CO,50,98,63
India,Punjab,Amritsar,"Golden Temple, Amritsar - PPCB",14-01-2024 17:00:00,31.620000,74.876512,NH3,9,9,9
India,Punjab,Jalandhar,"Civil Line, Jalandhar - PPCB",14-01-2024 17:00:00,31.321907,75.578914,NH3,9,9,9
India,Punjab,Jalandhar,"Civil Line, Jalandhar - PPCB",14-01-2024 17:00:00,31.321907,75.578914,CO,46,107,53
India,Punjab,Ludhiana,"Punjab Agricultural University, Ludhiana - PPCB",14-01-2024 17:00:00,30.9028,75.8086,NH3,5,15,8
India,Punjab,Patiala,"Model Town, Patiala - PPCB",14-01-2024 17:00:00,30.349388,76.366642,SO2,2,45,12
India,Punjab,Patiala,"Model Town, Patiala - PPCB",14-01-2024 17:00:00,30.349388,76.366642,CO,51,128,55
India,Rajasthan,Ajmer,"Civil Lines,  Ajmer - RSPCB",14-01-2024 17:00:00,26.470859,74.646594,PM2.5,15,150,70
India,Rajasthan,Ajmer,"Civil Lines,  Ajmer - RSPCB",14-01-2024 17:00:00,26.470859,74.646594,SO2,10,24,14
India,Rajasthan,Ajmer,"Civil Lines,  Ajmer - RSPCB",14-01-2024 17:00:00,26.470859,74.646594,OZONE,10,60,40
India,Rajasthan,Alwar,"Moti Doongri, Alwar - RSPCB",14-01-2024 17:00:00,27.554793,76.611536,PM2.5,94,302,205
India,Rajasthan,Banswara,"Rati Talai, Banswara - RSPCB",14-01-2024 17:00:00,23.555190,74.440010,PM10,79,401,146
India,Rajasthan,Baran,"Bamboliya, Baran - RSPCB",14-01-2024 17:00:00,25.106006,76.469948,NO2,18,91,38
India,Rajasthan,Bhilwara,"Pratap Nagar, Bhilwara - RSPCB",14-01-2024 17:00:00,25.339605,74.618883,PM2.5,3,258,120
India,Rajasthan,Bhiwadi,"RIICO Ind. Area III, Bhiwadi - RSPCB",14-01-2024 17:00:00,28.194909,76.862296,SO2,1,17,7
India,Rajasthan,Bikaner,"MM Ground, Bikaner - RSPCB",14-01-2024 17:00:00,28.018792,73.292658,PM10,112,438,271
India,Rajasthan,Bundi,"New Colony, Bundi - RSPCB",14-01-2024 17:00:00,25.435774,75.644272,OZONE,4,134,97
India,Rajasthan,Churu,"Subash Chowk, Churu - RSPCB",14-01-2024 17:00:00,28.296139,74.961696,SO2,4,23,10
India,Rajasthan,Dausa,"Khatikan Mohalla, Dausa - RSPCB",14-01-2024 17:00:00,26.895552,76.334753,SO2,8,10,9
India,Rajasthan,Dholpur,"Raja Ganj, Dholpur - RSPCB",14-01-2024 17:00:00,26.699557,77.898881,NO2,18,84,39
India,Rajasthan,Dungarpur,"Bhoiwada, Dungarpur - RSPCB",14-01-2024 17:00:00,23.837789,73.714926,PM10,39,117,74
India,Rajasthan,Hanumangarh,"Housing Board, Hanumangarh - RSPCB",14-01-2024 17:00:00,29.610750,74.283608,NH3,14,26,19
India,Rajasthan,Hanumangarh,"Housing Board, Hanumangarh - RSPCB",14-01-2024 17:00:00,29.610750,74.283608,SO2,4,7,6
India,Rajasthan,Hanumangarh,"Housing Board, Hanumangarh - RSPCB",14-01-2024 17:00:00,29.610750,74.283608,OZONE,6,17,12
India,Rajasthan,Jaipur,"Adarsh Nagar, Jaipur - RSPCB",14-01-2024 17:00:00,26.902909,75.836858,NH3,3,17,7
India,Rajasthan,Jaipur,"Mansarovar Sector-12, Jaipur - RSPCB",14-01-2024 17:00:00,26.843698,75.766894,PM2.5,47,345,190
India,Rajasthan,Jaipur,"Mansarovar Sector-12, Jaipur - RSPCB",14-01-2024 17:00:00,26.843698,75.766894,NH3,10,14,12
India,Rajasthan,Jaipur,"Police Commissionerate, Jaipur - RSPCB",14-01-2024 17:00:00,26.9164092,75.7994901,PM2.5,116,330,266
India,Rajasthan,Jaipur,"Police Commissionerate, Jaipur - RSPCB",14-01-2024 17:00:00,26.9164092,75.7994901,OZONE,8,109,78
India,Rajasthan,Jaipur,"RIICO Sitapura, Jaipur - RSPCB",14-01-2024 17:00:00,26.786682,75.827928,NO2,18,162,61
India,Rajasthan,Jaipur,"Sector-2 Murlipura, Jaipur - RSPCB",14-01-2024 17:00:00,26.960669,75.771817,NH3,6,8,7
India,Rajasthan,Jaipur,"Sector-2 Murlipura, Jaipur - RSPCB",14-01-2024 17:00:00,26.960669,75.771817,OZONE,6,187,125
India,Rajasthan,Jaipur,"Shastri Nagar, Jaipur - RSPCB",14-01-2024 17:00:00,26.9502929,75.730943,SO2,9,28,19
India,Rajasthan,Jaisalmer,"Sadar Bazar, Jaisalmer - RSPCB",14-01-2024 17:00:00,26.912329,70.909168,PM10,96,423,164
India,Rajasthan,Jaisalmer,"Sadar Bazar, Jaisalmer - RSPCB",14-01-2024 17:00:00,26.912329,70.909168,NH3,9,27,12
India,Rajasthan,Jaisalmer,"Sadar Bazar, Jaisalmer - RSPCB",14-01-2024 17:00:00,26.912329,70.909168,OZONE,4,94,48
India,Rajasthan,Jalore,"Mudtra Sili, Jalore - RSPCB",14-01-2024 17:00:00,25.344694,72.626208,PM10,68,423,189
India,Rajasthan,Jalore,"Mudtra Sili, Jalore - RSPCB",14-01-2024 17:00:00,25.344694,72.626208,CO,20,129,47
India,Rajasthan,Jhalawar,"Rajlaxmi Nagar, Jhalawar - RSPCB",14-01-2024 17:00:00,24.588397,76.172782,CO,26,106,35
India,Rajasthan,Jhunjhunu,"Indra Nagar, Jhunjhunu - RSPCB",14-01-2024 17:00:00,28.108988,75.386577,NO2,27,101,62
India,Rajasthan,Jhunjhunu,"Indra Nagar, Jhunjhunu - RSPCB",14-01-2024 17:00:00,28.108988,75.386577,SO2,2,14,7
India,Rajasthan,Jodhpur,"Digari Kalan, Jodhpur - RSPCB",14-01-2024 17:00:00,26.295810,73.082283,PM2.5,NA,NA,NA
India,Rajasthan,Jodhpur,"Digari Kalan, Jodhpur - RSPCB",14-01-2024 17:00:00,26.295810,73.082283,NO2,4,89,44
India,Rajasthan,Jodhpur,"Digari Kalan, Jodhpur - RSPCB",14-01-2024 17:00:00,26.295810,73.082283,SO2,3,10,6
India,Rajasthan,Jodhpur,"Digari Kalan, Jodhpur - RSPCB",14-01-2024 17:00:00,26.295810,73.082283,OZONE,1,113,86
India,Rajasthan,Jodhpur,"Jhalamand, Jodhpur - RSPCB",14-01-2024 17:00:00,26.215415,73.070156,PM2.5,11,303,133
India,Rajasthan,Jodhpur,"Jhalamand, Jodhpur - RSPCB",14-01-2024 17:00:00,26.215415,73.070156,SO2,4,9,7
India,Rajasthan,Jodhpur,"Mandor, Jodhpur - RSPCB",14-01-2024 17:00:00,26.358805,73.047444,OZONE,1,104,77
India,Rajasthan,Karauli,"Satyawati Vihar, Karauli - RSPCB",14-01-2024 17:00:00,26.506177,77.025989,PM2.5,NA,NA,NA
India,Rajasthan,Karauli,"Satyawati Vihar, Karauli - RSPCB",14-01-2024 17:00:00,26.506177,77.025989,PM10,NA,NA,NA
India,Rajasthan,Kota,"Nayapura, Kota - RSPCB",14-01-2024 17:00:00,25.196024,75.855668,SO2,4,9,5
India,Rajasthan,Kota,"Shrinath Puram, Kota - RSPCB",14-01-2024 17:00:00,25.14389,75.821256,SO2,6,19,12
India,Rajasthan,Kota,"Shrinath Puram, Kota - RSPCB",14-01-2024 17:00:00,25.14389,75.821256,CO,4,109,42
India,Rajasthan,Nagaur,"Karni Colony, Nagaur - RSPCB",14-01-2024 17:00:00,27.213494,73.734444,PM2.5,27,339,149
India,Rajasthan,Pratapgarh,"Pragati Nagar, Pratapgarh - RSPCB",14-01-2024 17:00:00,24.041198,74.780702,NH3,7,12,8
India,Rajasthan,Pratapgarh,"Pragati Nagar, Pratapgarh - RSPCB",14-01-2024 17:00:00,24.041198,74.780702,CO,20,125,25
India,Rajasthan,Sawai Madhopur,"Sahu Nagar, Sawai Madhopur - RSPCB",14-01-2024 17:00:00,26.031443,76.359327,PM10,81,219,127
India,Rajasthan,Sawai Madhopur,"Sahu Nagar, Sawai Madhopur - RSPCB",14-01-2024 17:00:00,26.031443,76.359327,NH3,1,3,3
India,Rajasthan,Sirohi,"Vedhaynath Colony, Sirohi - RSPCB",14-01-2024 17:00:00,24.885261,72.857549,SO2,1,38,12
India,Rajasthan,Sri Ganganagar,"Old City, Sri Ganganagar - RSPCB",14-01-2024 17:00:00,29.931624,73.864511,PM10,111,331,187
India,Rajasthan,Tonk,"Shastri Nagar, Tonk - RSPCB",14-01-2024 17:00:00,26.159933,75.780517,PM2.5,84,358,172
India,Rajasthan,Tonk,"Shastri Nagar, Tonk - RSPCB",14-01-2024 17:00:00,26.159933,75.780517,NO2,18,72,34
India,Rajasthan,Udaipur,"Ashok Nagar, Udaipur - RSPCB",14-01-2024 17:00:00,24.5886166,73.6321397,PM2.5,27,115,62
India,Rajasthan,Udaipur,"Ashok Nagar, Udaipur - RSPCB",14-01-2024 17:00:00,24.5886166,73.6321397,NH3,4,17,7
India,Sikkim,Gangtok,"Zero Point GICI, Gangtok - SSPCB",14-01-2024 17:00:00,27.338530,88.614099,SO2,51,62,55
India,TamilNadu,Ariyalur,"Keelapalur, Ariyalur - TNPCB",14-01-2024 17:00:00,11.06825,79.07033,SO2,33,34,34
India,TamilNadu,Chennai,"Alandur Bus Depot, Chennai - CPCB",14-01-2024 17:00:00,12.9099161,80.1076538,SO2,26,105,32
India,TamilNadu,Chennai,"Arumbakkam, Chennai - TNPCB",14-01-2024 17:00:00,13.0664,80.2112 ,NO2,12,57,30
India,TamilNadu,Chennai,"Kodungaiyur, Chennai - TNPCB",14-01-2024 17:00:00,13.1278,80.2642,PM2.5,39,355,119
India,TamilNadu,Chennai,"Kodungaiyur, Chennai - TNPCB",14-01-2024 17:00:00,13.1278,80.2642,PM10,111,416,179
India,TamilNadu,Chennai,"Manali, Chennai - CPCB",14-01-2024 17:00:00,13.164544,80.26285,NO2,9,14,12
India,TamilNadu,Chennai,"Manali, Chennai - CPCB",14-01-2024 17:00:00,13.164544,80.26285,SO2,6,43,13
India,TamilNadu,Chennai,"Manali, Chennai - CPCB",14-01-2024 17:00:00,13.164544,80.26285,OZONE,10,36,21
India,TamilNadu,Chennai,"Velachery Res. Area, Chennai - CPCB",14-01-2024 17:00:00,13.0052189,80.2398125,PM10,93,195,122
India,TamilNadu,Coimbatore,"PSG College of Arts and Science, Coimbatore - TNPCB",14-01-2024 17:00:00,11.0328,77.0349,OZONE,3,5,4
India,TamilNadu,Cuddalore,"Semmandalam, Cuddalore - TNPCB",14-01-2024 17:00:00,11.7637683,79.7499835,NO2,10,44,25
India,TamilNadu,Kanchipuram,"Kilambi, Kanchipuram - TNPCB",14-01-2024 17:00:00,12.864618,79.659968,SO2,11,20,18
India,TamilNadu,Ooty,"Bombay Castel, Ooty - TNPCB",14-01-2024 17:00:00,11.4068288,76.7138973,PM10,21,86,46
India,TamilNadu,Ooty,"Bombay Castel, Ooty - TNPCB",14-01-2024 17:00:00,11.4068288,76.7138973,OZONE,5,5,5
India,TamilNadu,Palkalaiperur,"Bharathidasan University, Palkalaiperur - TNPCB",14-01-2024 17:00:00,10.681158,78.741746,PM2.5,58,141,80
India,TamilNadu,Ramanathapuram,"Chalai Bazaar, Ramanathapuram - TNPCB",14-01-2024 17:00:00,9.36399,78.831977,PM2.5,77,197,121
India,TamilNadu,Ramanathapuram,"Chalai Bazaar, Ramanathapuram - TNPCB",14-01-2024 17:00:00,9.36399,78.831977,CO,6,28,15
India,TamilNadu,Thoothukudi,"Meelavittan, Thoothukudi - TNPCB",14-01-2024 17:00:00,8.816428 ,78.099039,PM10,60,125,84
India,TamilNadu,Thoothukudi,"Meelavittan, Thoothukudi - TNPCB",14-01-2024 17:00:00,8.816428 ,78.099039,NO2,16,28,21
India,TamilNadu,Thoothukudi,"Meelavittan, Thoothukudi - TNPCB",14-01-2024 17:00:00,8.816428 ,78.099039,CO,4,20,12
India,TamilNadu,Thoothukudi,"Meelavittan, Thoothukudi - TNPCB",14-01-2024 17:00:00,8.816428 ,78.099039,OZONE,2,10,4
India,TamilNadu,Vellore,"Vasanthapuram, Vellore - TNPCB",14-01-2024 17:00:00,12.909494,79.131861,PM2.5,147,346,250
India,TamilNadu,Vellore,"Vasanthapuram, Vellore - TNPCB",14-01-2024 17:00:00,12.909494,79.131861,NO2,9,30,16
India,TamilNadu,Vellore,"Vasanthapuram, Vellore - TNPCB",14-01-2024 17:00:00,12.909494,79.131861,SO2,15,15,15
India,TamilNadu,Virudhunagar,"Collectorate Office, Virudhunagar - TNPCB",14-01-2024 17:00:00,9.559382,77.948828,PM2.5,72,181,121
India,TamilNadu,Virudhunagar,"Collectorate Office, Virudhunagar - TNPCB",14-01-2024 17:00:00,9.559382,77.948828,SO2,17,17,17
India,Telangana,Hyderabad,"Central University, Hyderabad - TSPCB",14-01-2024 17:00:00,17.460103,78.334361,SO2,6,10,7
India,Telangana,Hyderabad,"ECIL Kapra, Hyderabad - TSPCB",14-01-2024 17:00:00,17.470431,78.566959,PM2.5,37,46,42
India,Telangana,Hyderabad,"ICRISAT Patancheru, Hyderabad - TSPCB",14-01-2024 17:00:00,17.518400,78.278777,PM2.5,28,180,127
India,Telangana,Hyderabad,"Kokapet, Hyderabad - TSPCB",14-01-2024 17:00:00,17.393559,78.339194,OZONE,NA,NA,NA
India,Telangana,Hyderabad,"Kompally Municipal Office, Hyderabad - TSPCB",14-01-2024 17:00:00,17.544899,78.486949,PM2.5,NA,NA,NA
India,Telangana,Hyderabad,"Kompally Municipal Office, Hyderabad - TSPCB",14-01-2024 17:00:00,17.544899,78.486949,PM10,NA,NA,NA
India,Telangana,Hyderabad,"Kompally Municipal Office, Hyderabad - TSPCB",14-01-2024 17:00:00,17.544899,78.486949,SO2,NA,NA,NA
India,Telangana,Hyderabad,"Nacharam_TSIIC IALA, Hyderabad - TSPCB",14-01-2024 17:00:00,17.429398,78.569354,NO2,14,15,14
India,Telangana,Hyderabad,"Nacharam_TSIIC IALA, Hyderabad - TSPCB",14-01-2024 17:00:00,17.429398,78.569354,OZONE,38,38,38
India,Telangana,Hyderabad,"New Malakpet, Hyderabad - TSPCB",14-01-2024 17:00:00,17.37206,78.50864,NO2,18,30,24
India,Telangana,Hyderabad,"New Malakpet, Hyderabad - TSPCB",14-01-2024 17:00:00,17.37206,78.50864,OZONE,2,31,22
India,Tripura,Agartala,"Bardowali, Agartala - Tripura SPCB",14-01-2024 17:00:00,23.8175497,91.2726974,NH3,2,2,2
India,Uttar_Pradesh,Agra,"Manoharpur, Agra - UPPCB",14-01-2024 17:00:00,27.23711,78.01936,PM10,NA,NA,NA
India,Uttar_Pradesh,Agra,"Manoharpur, Agra - UPPCB",14-01-2024 17:00:00,27.23711,78.01936,NO2,17,24,19
India,Uttar_Pradesh,Agra,"Rohta, Agra - UPPCB",14-01-2024 17:00:00,27.106972,78.000111,PM2.5,67,324,178
India,Uttar_Pradesh,Agra,"Rohta, Agra - UPPCB",14-01-2024 17:00:00,27.106972,78.000111,PM10,61,185,115
India,Uttar_Pradesh,Agra,"Sanjay Palace, Agra - UPPCB",14-01-2024 17:00:00,27.19865833,78.00598056,PM2.5,58,286,144
India,Uttar_Pradesh,Agra,"Sanjay Palace, Agra - UPPCB",14-01-2024 17:00:00,27.19865833,78.00598056,PM10,104,191,132
India,Uttar_Pradesh,Agra,"Sanjay Palace, Agra - UPPCB",14-01-2024 17:00:00,27.19865833,78.00598056,CO,50,114,80
India,Uttar_Pradesh,Agra,"Sanjay Palace, Agra - UPPCB",14-01-2024 17:00:00,27.19865833,78.00598056,OZONE,18,76,45
India,Uttar_Pradesh,Agra,"Sector-3B Avas Vikas Colony, Agra - UPPCB",14-01-2024 17:00:00,27.19412,77.96237,OZONE,8,10,8
India,Uttar_Pradesh,Agra,"Shahjahan Garden, Agra - UPPCB",14-01-2024 17:00:00,27.169338,78.03582,PM2.5,82,306,143
India,Uttar_Pradesh,Agra,"Shastripuram, Agra - UPPCB",14-01-2024 17:00:00,27.19862,77.92066,PM10,94,225,137
India,Uttar_Pradesh,Agra,"Shastripuram, Agra - UPPCB",14-01-2024 17:00:00,27.19862,77.92066,NO2,26,36,29
India,Uttar_Pradesh,Agra,"Shastripuram, Agra - UPPCB",14-01-2024 17:00:00,27.19862,77.92066,CO,5,30,14
India,Uttar_Pradesh,Baghpat,"Sardar Patel Inter College, Baghpat - UPPCB",14-01-2024 17:00:00,28.964949,77.278761,PM2.5,88,351,232
India,Uttar_Pradesh,Baghpat,"Sardar Patel Inter College, Baghpat - UPPCB",14-01-2024 17:00:00,28.964949,77.278761,PM10,71,257,137
India,Uttar_Pradesh,Baghpat,"Sardar Patel Inter College, Baghpat - UPPCB",14-01-2024 17:00:00,28.964949,77.278761,SO2,1,42,17
India,Uttar_Pradesh,Baghpat,"Sardar Patel Inter College, Baghpat - UPPCB",14-01-2024 17:00:00,28.964949,77.278761,CO,40,109,69
India,Uttar_Pradesh,Baghpat,"Sardar Patel Inter College, Baghpat - UPPCB",14-01-2024 17:00:00,28.964949,77.278761,OZONE,1,39,17
India,Uttar_Pradesh,Bareilly,"Civil Lines, Bareilly - UPPCB",14-01-2024 17:00:00,28.359581,79.414455,NO2,21,44,29
India,Uttar_Pradesh,Bareilly,"Civil Lines, Bareilly - UPPCB",14-01-2024 17:00:00,28.359581,79.414455,OZONE,9,28,13
India,Uttar_Pradesh,Bareilly,"Rajendra Nagar, Bareilly - UPPCB",14-01-2024 17:00:00,28.38910936,79.42963708,PM2.5,43,238,112
India,Uttar_Pradesh,Bareilly,"Rajendra Nagar, Bareilly - UPPCB",14-01-2024 17:00:00,28.38910936,79.42963708,NH3,1,8,1
India,Uttar_Pradesh,Bareilly,"Rajendra Nagar, Bareilly - UPPCB",14-01-2024 17:00:00,28.38910936,79.42963708,CO,52,113,83
India,Uttar_Pradesh,Bulandshahr,"Yamunapuram, Bulandshahr - UPPCB",14-01-2024 17:00:00,28.406963,77.849831,PM10,80,434,192
India,Uttar_Pradesh,Firozabad,"Nagla Bhau, Firozabad - UPPCB",14-01-2024 17:00:00,27.168897,78.376960,PM2.5,61,205,137
India,Uttar_Pradesh,Firozabad,"Nagla Bhau, Firozabad - UPPCB",14-01-2024 17:00:00,27.168897,78.376960,CO,14,34,32
India,Uttar_Pradesh,Ghaziabad,"Sanjay Nagar, Ghaziabad - UPPCB",14-01-2024 17:00:00,28.685382,77.453839,PM2.5,246,500,393
India,Uttar_Pradesh,Ghaziabad,"Sanjay Nagar, Ghaziabad - UPPCB",14-01-2024 17:00:00,28.685382,77.453839,CO,5,160,37
India,Uttar_Pradesh,Ghaziabad,"Vasundhara, Ghaziabad - UPPCB",14-01-2024 17:00:00,28.6603346,77.3572563,PM2.5,286,500,418
India,Uttar_Pradesh,Ghaziabad,"Vasundhara, Ghaziabad - UPPCB",14-01-2024 17:00:00,28.6603346,77.3572563,OZONE,8,184,94
India,Uttar_Pradesh,Gorakhpur,"Madan Mohan Malaviya University of Technology, Gorakhpur - UPPCB",14-01-2024 17:00:00,26.730136,83.433859,PM2.5,66,195,122
India,Uttar_Pradesh,Gorakhpur,"Madan Mohan Malaviya University of Technology, Gorakhpur - UPPCB",14-01-2024 17:00:00,26.730136,83.433859,SO2,39,41,40
India,Uttar_Pradesh,Gorakhpur,"Madan Mohan Malaviya University of Technology, Gorakhpur - UPPCB",14-01-2024 17:00:00,26.730136,83.433859,CO,47,64,55
India,Uttar_Pradesh,Greater Noida,"Knowledge Park - III, Greater Noida - UPPCB",14-01-2024 17:00:00,28.47272,77.482000,PM2.5,333,483,402
India,Uttar_Pradesh,Greater Noida,"Knowledge Park - III, Greater Noida - UPPCB",14-01-2024 17:00:00,28.47272,77.482000,NH3,9,13,11
India,Uttar_Pradesh,Greater Noida,"Knowledge Park - III, Greater Noida - UPPCB",14-01-2024 17:00:00,28.47272,77.482000,OZONE,1,119,50
India,Uttar_Pradesh,Greater Noida,"Knowledge Park - V, Greater Noida - UPPCB",14-01-2024 17:00:00,28.557054,77.453663,SO2,3,21,9
India,Uttar_Pradesh,Hapur,"Anand Vihar, Hapur - UPPCB",14-01-2024 17:00:00,28.725645,77.749675,PM2.5,109,407,285
India,Uttar_Pradesh,Hapur,"Anand Vihar, Hapur - UPPCB",14-01-2024 17:00:00,28.725645,77.749675,PM10,117,433,238
India,Uttar_Pradesh,Hapur,"Anand Vihar, Hapur - UPPCB",14-01-2024 17:00:00,28.725645,77.749675,OZONE,12,47,25
India,Uttar_Pradesh,Jhansi,"Shivaji Nagar, Jhansi - UPPCB",14-01-2024 17:00:00,25.4547,78.6039,NO2,8,69,27
India,Uttar_Pradesh,Kanpur,"FTI Kidwai Nagar, Kanpur - UPPCB",14-01-2024 17:00:00,26.428282,80.327067,CO,68,108,83
India,Uttar_Pradesh,Kanpur,"NSI Kalyanpur, Kanpur - UPPCB",14-01-2024 17:00:00,26.509954,80.249612,NH3,2,3,3
India,Uttar_Pradesh,Kanpur,"NSI Kalyanpur, Kanpur - UPPCB",14-01-2024 17:00:00,26.509954,80.249612,SO2,23,23,23
India,Uttar_Pradesh,Kanpur,"NSI Kalyanpur, Kanpur - UPPCB",14-01-2024 17:00:00,26.509954,80.249612,CO,62,108,72
India,Uttar_Pradesh,Kanpur,"Nehru Nagar, Kanpur - UPPCB",14-01-2024 17:00:00,26.4703136,80.3229863,SO2,1,33,10
India,Uttar_Pradesh,Kanpur,"Nehru Nagar, Kanpur - UPPCB",14-01-2024 17:00:00,26.4703136,80.3229863,OZONE,6,72,32
India,Uttar_Pradesh,Khurja,"Kalindi Kunj, Khurja - UPPCB",14-01-2024 17:00:00,28.2348927,77.8683002,NO2,31,52,39
India,Uttar_Pradesh,Lucknow,"Kukrail Picnic Spot-1, Lucknow - UPPCB",14-01-2024 17:00:00,26.90723,80.98579,PM2.5,90,326,225
India,Uttar_Pradesh,Lucknow,"Kukrail Picnic Spot-1, Lucknow - UPPCB",14-01-2024 17:00:00,26.90723,80.98579,PM10,84,173,132
India,Uttar_Pradesh,Lucknow,"Kukrail Picnic Spot-1, Lucknow - UPPCB",14-01-2024 17:00:00,26.90723,80.98579,CO,38,87,67
India,Uttar_Pradesh,Lucknow,"Talkatora District Industries Center, Lucknow - CPCB",14-01-2024 17:00:00,26.83399722,80.8917361,NO2,62,106,85
India,Uttar_Pradesh,Lucknow,"Talkatora District Industries Center, Lucknow - CPCB",14-01-2024 17:00:00,26.83399722,80.8917361,NH3,27,62,39
India,Uttar_Pradesh,Lucknow,"Talkatora District Industries Center, Lucknow - CPCB",14-01-2024 17:00:00,26.83399722,80.8917361,SO2,1,25,8
India,Uttar_Pradesh,Lucknow,"Talkatora District Industries Center, Lucknow - CPCB",14-01-2024 17:00:00,26.83399722,80.8917361,CO,2,117,35
India,Uttar_Pradesh,Moradabad,"Buddhi Vihar, Moradabad - UPPCB",14-01-2024 17:00:00,28.83526,78.74460,PM10,76,277,150
India,Uttar_Pradesh,Moradabad,"Eco Herbal Park, Moradabad - UPPCB",14-01-2024 17:00:00,28.840739,78.697531,PM2.5,91,323,224
India,Uttar_Pradesh,Moradabad,"Eco Herbal Park, Moradabad - UPPCB",14-01-2024 17:00:00,28.840739,78.697531,SO2,4,23,12
India,Uttar_Pradesh,Moradabad,"Employment Office, Moradabad - UPPCB",14-01-2024 17:00:00,28.88528,78.73880,NH3,4,4,4
India,Uttar_Pradesh,Moradabad,"Jigar Colony, Moradabad - UPPCB",14-01-2024 17:00:00,28.856664,78.772638,NO2,21,27,25
India,Uttar_Pradesh,Moradabad,"Jigar Colony, Moradabad - UPPCB",14-01-2024 17:00:00,28.856664,78.772638,SO2,10,23,17
India,Uttar_Pradesh,Moradabad,"Jigar Colony, Moradabad - UPPCB",14-01-2024 17:00:00,28.856664,78.772638,CO,50,100,83
India,Uttar_Pradesh,Moradabad,"Kashiram Nagar, Moradabad - UPPCB",14-01-2024 17:00:00,28.849399,78.742362,PM2.5,59,317,155
India,Uttar_Pradesh,Moradabad,"Transport Nagar, Moradabad - UPPCB",14-01-2024 17:00:00,28.802625,78.753728,NO2,25,58,38
India,Uttar_Pradesh,Muzaffarnagar,"New Mandi, Muzaffarnagar - UPPCB",14-01-2024 17:00:00,29.4723508,77.7194031,PM10,78,343,171
India,Uttar_Pradesh,Muzaffarnagar,"New Mandi, Muzaffarnagar - UPPCB",14-01-2024 17:00:00,29.4723508,77.7194031,NO2,35,117,61
India,Uttar_Pradesh,Noida,"Sector - 62, Noida - IMD",14-01-2024 17:00:00,28.6245479,77.3577104,NO2,33,79,47
India,Uttar_Pradesh,Noida,"Sector-1, Noida - UPPCB",14-01-2024 17:00:00,28.5898,77.3101,PM10,230,500,416
India,Uttar_Pradesh,Noida,"Sector-1, Noida - UPPCB",14-01-2024 17:00:00,28.5898,77.3101,SO2,3,23,12
India,Uttar_Pradesh,Noida,"Sector-1, Noida - UPPCB",14-01-2024 17:00:00,28.5898,77.3101,CO,2,166,63
India,Uttar_Pradesh,Prayagraj,"Jhunsi, Prayagraj - UPPCB",14-01-2024 17:00:00,25.425602,81.917152,NO2,6,6,6
India,Uttar_Pradesh,Prayagraj,"Jhunsi, Prayagraj - UPPCB",14-01-2024 17:00:00,25.425602,81.917152,NH3,5,5,5
India,Uttar_Pradesh,Prayagraj,"Motilal Nehru NIT, Prayagraj - UPPCB",14-01-2024 17:00:00,25.494,81.863,PM2.5,89,306,200
India,Uttar_Pradesh,Prayagraj,"Motilal Nehru NIT, Prayagraj - UPPCB",14-01-2024 17:00:00,25.494,81.863,NO2,11,37,13
India,Uttar_Pradesh,Prayagraj,"Motilal Nehru NIT, Prayagraj - UPPCB",14-01-2024 17:00:00,25.494,81.863,OZONE,6,16,10
India,Uttar_Pradesh,Prayagraj,"Nagar Nigam, Prayagraj - UPPCB",14-01-2024 17:00:00,25.44919916 ,81.82735986 ,PM2.5,75,314,191
India,Uttar_Pradesh,Varanasi,"Ardhali Bazar, Varanasi - UPPCB",14-01-2024 17:00:00,25.3505986,82.9083074,PM2.5,32,70,49
India,Uttar_Pradesh,Varanasi,"Ardhali Bazar, Varanasi - UPPCB",14-01-2024 17:00:00,25.3505986,82.9083074,PM10,43,90,64
India,Uttar_Pradesh,Varanasi,"Ardhali Bazar, Varanasi - UPPCB",14-01-2024 17:00:00,25.3505986,82.9083074,NO2,22,33,27
India,Uttar_Pradesh,Varanasi,"Bhelupur, Varanasi - UPPCB",14-01-2024 17:00:00,25.301778,82.996789,PM10,38,95,67
India,Uttar_Pradesh,Varanasi,"Bhelupur, Varanasi - UPPCB",14-01-2024 17:00:00,25.301778,82.996789,NH3,2,3,2
India,Uttar_Pradesh,Varanasi,"IESD Banaras Hindu University, Varanasi - UPPCB",14-01-2024 17:00:00,25.262326,82.995408,OZONE,1,2,2
India,Uttar_Pradesh,Varanasi,"Maldahiya, Varanasi - UPPCB",14-01-2024 17:00:00,25.32393,82.99687,PM2.5,27,62,45
India,Uttar_Pradesh,Varanasi,"Maldahiya, Varanasi - UPPCB",14-01-2024 17:00:00,25.32393,82.99687,PM10,41,94,68
India,Uttar_Pradesh,Vrindavan,"Omex Eternity, Vrindavan - UPPCB",14-01-2024 17:00:00,27.5714090,77.6557570,NO2,2,3,3
India,Uttar_Pradesh,Vrindavan,"Omex Eternity, Vrindavan - UPPCB",14-01-2024 17:00:00,27.5714090,77.6557570,SO2,35,35,35
India,Uttar_Pradesh,Vrindavan,"Omex Eternity, Vrindavan - UPPCB",14-01-2024 17:00:00,27.5714090,77.6557570,OZONE,25,29,26
India,Uttarakhand,Kashipur,"Govt. Girls Inter College, Kashipur - UKPCB",14-01-2024 17:00:00,29.2124114,78.9611753,NH3,7,11,9
India,Uttarakhand,Kashipur,"Govt. Girls Inter College, Kashipur - UKPCB",14-01-2024 17:00:00,29.2124114,78.9611753,OZONE,1,9,3
India,Uttarakhand,Rishikesh,"Shivaji Nagar, Rishikesh - UKPCB",14-01-2024 17:00:00,30.075911,78.2859547,CO,52,70,55
India,West_Bengal,Asansol,"Asansol Court Area, Asansol - WBPCB",14-01-2024 17:00:00,23.685297,86.945968,OZONE,14,91,63
India,West_Bengal,Haldia,"Priyambada Housing Estate, Haldia - WBPCB",14-01-2024 17:00:00,22.06047,88.109737,NO2,30,78,47
India,West_Bengal,Howrah,"Belur Math, Howrah - WBPCB",14-01-2024 17:00:00,22.629801,88.352017,PM10,108,203,175
India,West_Bengal,Howrah,"Belur Math, Howrah - WBPCB",14-01-2024 17:00:00,22.629801,88.352017,SO2,11,16,12
India,West_Bengal,Howrah,"Belur Math, Howrah - WBPCB",14-01-2024 17:00:00,22.629801,88.352017,CO,21,60,26
India,West_Bengal,Howrah,"Ghusuri, Howrah - WBPCB",14-01-2024 17:00:00,22.611968,88.347422,NO2,24,101,44
India,West_Bengal,Howrah,"Ghusuri, Howrah - WBPCB",14-01-2024 17:00:00,22.611968,88.347422,CO,20,69,46
India,West_Bengal,Howrah,"Ghusuri, Howrah - WBPCB",14-01-2024 17:00:00,22.611968,88.347422,OZONE,9,15,12
India,West_Bengal,Howrah,"Padmapukur, Howrah - WBPCB",14-01-2024 17:00:00,22.5687319,88.2797276,SO2,11,31,17
India,West_Bengal,Howrah,"Padmapukur, Howrah - WBPCB",14-01-2024 17:00:00,22.5687319,88.2797276,CO,86,120,102
India,West_Bengal,Kolkata,"Bidhannagar, Kolkata - WBPCB",14-01-2024 17:00:00,22.58157048,88.41002457,NO2,22,46,30
India,West_Bengal,Kolkata,"Jadavpur, Kolkata - WBPCB",14-01-2024 17:00:00,22.49929,88.36917,NH3,3,7,5
India,West_Bengal,Kolkata,"Jadavpur, Kolkata - WBPCB",14-01-2024 17:00:00,22.49929,88.36917,SO2,4,7,6
India,West_Bengal,Kolkata,"Rabindra Bharati University, Kolkata - WBPCB",14-01-2024 17:00:00,22.627847,88.380669,PM2.5,76,211,165
India,West_Bengal,Kolkata,"Rabindra Bharati University, Kolkata - WBPCB",14-01-2024 17:00:00,22.627847,88.380669,SO2,2,23,8
India,West_Bengal,Kolkata,"Rabindra Sarobar, Kolkata - WBPCB",14-01-2024 17:00:00,22.51106,88.35142,PM2.5,116,317,283
India,West_Bengal,Kolkata,"Rabindra Sarobar, Kolkata - WBPCB",14-01-2024 17:00:00,22.51106,88.35142,NO2,58,255,115
India,West_Bengal,Kolkata,"Rabindra Sarobar, Kolkata - WBPCB",14-01-2024 17:00:00,22.51106,88.35142,SO2,10,47,26
India,West_Bengal,Kolkata,"Rabindra Sarobar, Kolkata - WBPCB",14-01-2024 17:00:00,22.51106,88.35142,OZONE,3,91,63
India,West_Bengal,Kolkata,"Victoria, Kolkata - WBPCB",14-01-2024 17:00:00,22.5448082,88.3403691,PM2.5,127,341,299
India,West_Bengal,Kolkata,"Victoria, Kolkata - WBPCB",14-01-2024 17:00:00,22.5448082,88.3403691,NO2,2,20,8
India,Andhra_Pradesh,Amaravati,"Secretariat, Amaravati - APPCB",14-01-2024 17:00:00,16.5150833,80.5181667,NO2,11,50,21
India,Andhra_Pradesh,Anantapur,"Gulzarpet, Anantapur - APPCB",14-01-2024 17:00:00,14.675886,77.593027,OZONE,2,72,50
India,Andhra_Pradesh,Kadapa,"Yerramukkapalli, Kadapa - APPCB",14-01-2024 17:00:00,14.465052,78.824187,NO2,9,21,12
India,Andhra_Pradesh,Rajamahendravaram,"Anand Kala Kshetram, Rajamahendravaram - APPCB",14-01-2024 17:00:00,16.9872867,81.7363176,NH3,4,16,6
India,Andhra_Pradesh,Rajamahendravaram,"Anand Kala Kshetram, Rajamahendravaram - APPCB",14-01-2024 17:00:00,16.9872867,81.7363176,CO,2,114,34
India,Andhra_Pradesh,Rajamahendravaram,"Anand Kala Kshetram, Rajamahendravaram - APPCB",14-01-2024 17:00:00,16.9872867,81.7363176,OZONE,5,8,6
India,Andhra_Pradesh,Tirupati,"Tirumala, Tirupati - APPCB",14-01-2024 17:00:00,13.67,79.35,NO2,30,64,49
India,Andhra_Pradesh,Tirupati,"Tirumala, Tirupati - APPCB",14-01-2024 17:00:00,13.67,79.35,NH3,1,3,2
India,Andhra_Pradesh,Tirupati,"Vaikuntapuram, Tirupati - APPCB",14-01-2024 17:00:00,13.615387,79.409230,NO2,11,37,23
India,Andhra_Pradesh,Vijayawada,"HB Colony, Vijayawada - APPCB",14-01-2024 17:00:00,16.536107,80.594233,PM10,43,133,65
India,Andhra_Pradesh,Vijayawada,"HB Colony, Vijayawada - APPCB",14-01-2024 17:00:00,16.536107,80.594233,NO2,8,38,20
India,Andhra_Pradesh,Vijayawada,"HB Colony, Vijayawada - APPCB",14-01-2024 17:00:00,16.536107,80.594233,SO2,3,88,14
India,Andhra_Pradesh,Vijayawada,"HB Colony, Vijayawada - APPCB",14-01-2024 17:00:00,16.536107,80.594233,CO,25,26,26
India,Andhra_Pradesh,Vijayawada,"Kanuru, Vijayawada - APPCB",14-01-2024 17:00:00,16.486692,80.699436,PM2.5,47,500,166
India,Andhra_Pradesh,Vijayawada,"Rajiv Gandhi Park, Vijayawada - APPCB",14-01-2024 17:00:00,16.509717,80.612222,CO,45,59,47
India,Andhra_Pradesh,Visakhapatnam,"GVM Corporation, Visakhapatnam - APPCB",14-01-2024 17:00:00,17.72,83.3,NH3,3,7,4
India,Andhra_Pradesh,Visakhapatnam,"GVM Corporation, Visakhapatnam - APPCB",14-01-2024 17:00:00,17.72,83.3,OZONE,8,49,21
India,Arunachal_Pradesh,Naharlagun,"Naharlagun, Naharlagun - APSPCB",14-01-2024 17:00:00,27.103358,93.679645,OZONE,2,2,2
India,Assam,Byrnihat,"Central Academy for SFS, Byrnihat - PCBA",14-01-2024 17:00:00,26.071318,91.87488,PM2.5,NA,NA,NA
India,Assam,Guwahati,"LGBI Airport, Guwahati - PCBA",14-01-2024 17:00:00,26.10887,91.589544,PM2.5,120,385,243
India,Assam,Guwahati,"Pan Bazaar, Guwahati - PCBA",14-01-2024 17:00:00,26.187500,91.744194,PM2.5,126,439,289
India,Assam,Nagaon,"Christianpatty, Nagaon - PCBA",14-01-2024 17:00:00,26.349082,92.68449,NH3,3,7,4
India,Assam,Nagaon,"Christianpatty, Nagaon - PCBA",14-01-2024 17:00:00,26.349082,92.68449,OZONE,3,54,33
India,Assam,Nalbari,"Bata Chowk, Nalbari - PCBA",14-01-2024 17:00:00,26.446912,91.439057,SO2,5,16,9
India,Assam,Nalbari,"Bata Chowk, Nalbari - PCBA",14-01-2024 17:00:00,26.446912,91.439057,CO,8,132,12
India,Assam,Nalbari,"Bata Chowk, Nalbari - PCBA",14-01-2024 17:00:00,26.446912,91.439057,OZONE,18,21,20
India,Assam,Silchar,"Tarapur, Silchar - PCBA",14-01-2024 17:00:00,24.82827,92.79525,NO2,26,40,33
India,Assam,Silchar,"Tarapur, Silchar - PCBA",14-01-2024 17:00:00,24.82827,92.79525,SO2,3,7,6
India,Bihar,Arrah,"New DM Office, Arrah - BSPCB",14-01-2024 17:00:00,25.5626095,84.663264,NO2,14,34,21
India,Bihar,Arrah,"New DM Office, Arrah - BSPCB",14-01-2024 17:00:00,25.5626095,84.663264,CO,2,16,8
India,Bihar,Aurangabad,"Gurdeo Nagar, Aurangabad - BSPCB",14-01-2024 17:00:00,24.75746,84.366208,PM10,89,121,106
India,Bihar,Aurangabad,"Gurdeo Nagar, Aurangabad - BSPCB",14-01-2024 17:00:00,24.75746,84.366208,SO2,1,13,7
India,Bihar,Aurangabad,"Gurdeo Nagar, Aurangabad - BSPCB",14-01-2024 17:00:00,24.75746,84.366208,CO,22,116,98
India,Bihar,Bettiah,"Kamalnath Nagar, Bettiah - BSPCB",14-01-2024 17:00:00,26.80365,84.51954,OZONE,81,101,97
India,Bihar,Bhagalpur,"DM Office_Kachari Chowk, Bhagalpur - BSPCB",14-01-2024 17:00:00,25.251013,86.989001,CO,36,82,40
India,Bihar,Bhagalpur,"Mayaganj, Bhagalpur - BSPCB",14-01-2024 17:00:00,25.265194,87.012947,SO2,10,14,12
India,Bihar,Bihar Sharif,"D M Colony, Bihar Sharif - BSPCB",14-01-2024 17:00:00,25.204762,85.514960,NO2,8,11,9
India,Bihar,Chhapra,"Darshan Nagar, Chhapra - BSPCB",14-01-2024 17:00:00,25.7808257,84.7446768,PM10,119,289,171
India,Bihar,Gaya,"Kareemganj, Gaya - BSPCB",14-01-2024 17:00:00,24.792403,84.992416,PM10,147,195,168
India,Bihar,Gaya,"Kareemganj, Gaya - BSPCB",14-01-2024 17:00:00,24.792403,84.992416,CO,7,107,39
India,Bihar,Gaya,"SFTI Kusdihra, Gaya - BSPCB",14-01-2024 17:00:00,24.762518,84.982348,NO2,NA,NA,NA
India,Bihar,Gaya,"SFTI Kusdihra, Gaya - BSPCB",14-01-2024 17:00:00,24.762518,84.982348,NH3,NA,NA,NA
India,Bihar,Gaya,"SFTI Kusdihra, Gaya - BSPCB",14-01-2024 17:00:00,24.762518,84.982348,SO2,NA,NA,NA
India,Bihar,Gaya,"SFTI Kusdihra, Gaya - BSPCB",14-01-2024 17:00:00,24.762518,84.982348,CO,NA,NA,NA
India,Bihar,Gaya,"SFTI Kusdihra, Gaya - BSPCB",14-01-2024 17:00:00,24.762518,84.982348,OZONE,NA,NA,NA
India,Bihar,Katihar,"Mirchaibari, Katihar - BSPCB",14-01-2024 17:00:00,25.560083,87.553265,PM2.5,197,388,285
India,Bihar,Manguraha,"Forest Rest House, Manguraha - BSPCB",14-01-2024 17:00:00,27.308328,84.531742,SO2,1,9,2
India,Bihar,Munger,"Town Hall, Munger - BSPCB",14-01-2024 17:00:00,25.376776,86.471523,NH3,1,2,2
India,Bihar,Muzaffarpur,"Buddha Colony, Muzaffarpur - BSPCB",14-01-2024 17:00:00,26.11442,85.39813,PM2.5,291,357,319
India,Bihar,Muzaffarpur,"Buddha Colony, Muzaffarpur - BSPCB",14-01-2024 17:00:00,26.11442,85.39813,NO2,27,64,37
India,Bihar,Muzaffarpur,"MIT-Daudpur Kothi, Muzaffarpur - BSPCB",14-01-2024 17:00:00,26.1403345,85.3650192,NO2,6,9,7
India,Bihar,Muzaffarpur,"Muzaffarpur Collectorate, Muzaffarpur - BSPCB",14-01-2024 17:00:00,26.1209,85.3647,SO2,5,14,8
India,Bihar,Patna,"DRM Office Danapur, Patna - BSPCB",14-01-2024 17:00:00,25.586562,85.043586,CO,67,111,79
India,Bihar,Patna,"DRM Office Danapur, Patna - BSPCB",14-01-2024 17:00:00,25.586562,85.043586,OZONE,2,33,23
India,Bihar,Patna,"Govt. High School Shikarpur, Patna - BSPCB",14-01-2024 17:00:00,25.592539,85.227158,NH3,5,6,6
India,Bihar,Patna,"IGSC Planetarium Complex, Patna - BSPCB",14-01-2024 17:00:00,25.610369,85.132568,PM2.5,55,298,128
India,Bihar,Patna,"Muradpur, Patna - BSPCB",14-01-2024 17:00:00,25.619651,85.147382,PM10,181,433,277
India,Bihar,Patna,"Rajbansi Nagar, Patna - BSPCB",14-01-2024 17:00:00,25.599486,85.113666,NO2,53,74,61
India,Bihar,Patna,"Rajbansi Nagar, Patna - BSPCB",14-01-2024 17:00:00,25.599486,85.113666,NH3,6,7,6
India,Bihar,Patna,"Samanpura, Patna - BSPCB",14-01-2024 17:00:00,25.596727,85.085624,PM10,166,443,266
India,Bihar,Patna,"Samanpura, Patna - BSPCB",14-01-2024 17:00:00,25.596727,85.085624,NO2,14,16,15
India,Bihar,Rajgir,"Dangi Tola, Rajgir - BSPCB",14-01-2024 17:00:00,25.03280,85.41948,PM2.5,309,410,346
India,Bihar,Rajgir,"Dangi Tola, Rajgir - BSPCB",14-01-2024 17:00:00,25.03280,85.41948,NO2,6,15,9
India,Bihar,Saharsa,"Police Line, Saharsa - BSPCB",14-01-2024 17:00:00,25.892357,86.590325,NO2,5,10,7
India,Bihar,Saharsa,"Police Line, Saharsa - BSPCB",14-01-2024 17:00:00,25.892357,86.590325,NH3,9,9,9
India,Bihar,Samastipur,"DM Office_Kasipur, Samastipur - BSPCB",14-01-2024 17:00:00,25.859655,85.77944,NH3,3,4,4
India,Bihar,Sasaram,"Dada Peer, Sasaram - BSPCB",14-01-2024 17:00:00,24.952822,84.002396,PM10,141,165,152
India,Bihar,Sasaram,"Dada Peer, Sasaram - BSPCB",14-01-2024 17:00:00,24.952822,84.002396,NO2,2,12,6
India,Bihar,Sasaram,"Dada Peer, Sasaram - BSPCB",14-01-2024 17:00:00,24.952822,84.002396,OZONE,4,6,4
India,Bihar,Siwan,"Chitragupta Nagar, Siwan - BSPCB",14-01-2024 17:00:00,26.2271665,84.3570427,NO2,15,41,21
India,Chandigarh,Chandigarh,"Sector 22, Chandigarh - CPCC",14-01-2024 17:00:00,30.735567,76.775714,PM2.5,301,500,385
India,Chandigarh,Chandigarh,"Sector 22, Chandigarh - CPCC",14-01-2024 17:00:00,30.735567,76.775714,PM10,141,500,296
India,Chandigarh,Chandigarh,"Sector 22, Chandigarh - CPCC",14-01-2024 17:00:00,30.735567,76.775714,NH3,5,17,8
India,Chandigarh,Chandigarh,"Sector-25, Chandigarh - CPCC",14-01-2024 17:00:00,30.751462,76.762879,NO2,13,41,23
India,Chandigarh,Chandigarh,"Sector-53, Chandigarh - CPCC",14-01-2024 17:00:00,30.719859,76.738637,PM2.5,305,500,401
India,Chandigarh,Chandigarh,"Sector-53, Chandigarh - CPCC",14-01-2024 17:00:00,30.719859,76.738637,OZONE,4,29,9
India,Chhattisgarh,Bhilai,"32Bungalows, Bhilai - CECB",14-01-2024 17:00:00,21.194815,81.314770,SO2,9,13,11
India,Chhattisgarh,Bhilai,"Hathkhoj, Bhilai - CECB",14-01-2024 17:00:00,21.224231,81.408350,NH3,7,8,8
India,Chhattisgarh,Bhilai,"Hathkhoj, Bhilai - CECB",14-01-2024 17:00:00,21.224231,81.408350,SO2,12,82,30
India,Chhattisgarh,Chhal,"Nawapara SECL Colony, Chhal - CECB",14-01-2024 17:00:00,22.118125,83.140608,NO2,10,54,20
India,Chhattisgarh,Kunjemura,"OP Jindal School, Kunjemura - CECB",14-01-2024 17:00:00,22.126650,83.483212,OZONE,3,54,38
India,Chhattisgarh,Milupara,"Govt. Higher Secondary School, Milupara - CECB",14-01-2024 17:00:00,22.1910172,83.5197009,NH3,1,2,1
India,Chhattisgarh,Raipur,"AIIMS, Raipur - CECB",14-01-2024 17:00:00,21.258815,81.578979,NO2,47,63,55
India,Chhattisgarh,Raipur,"AIIMS, Raipur - CECB",14-01-2024 17:00:00,21.258815,81.578979,OZONE,1,41,14
India,Chhattisgarh,Raipur,"Bhatagaon New ISBT, Raipur - CECB",14-01-2024 17:00:00,21.219665,81.630094,NO2,65,93,80
India,Chhattisgarh,Raipur,"Bhatagaon New ISBT, Raipur - CECB",14-01-2024 17:00:00,21.219665,81.630094,SO2,NA,NA,NA
India,Chhattisgarh,Raipur,"Krishak Nagar, Raipur - CECB",14-01-2024 17:00:00,21.237755,81.705301,OZONE,2,6,4
India,Chhattisgarh,Raipur,"Siltara Phase-II, Raipur - CECB",14-01-2024 17:00:00,21.371751,81.664929,SO2,2,11,4
India,Chhattisgarh,Tumidih,"OP Jindal Industrial Park, Tumidih - CECB",14-01-2024 17:00:00,22.06631475,83.33820077,PM2.5,10,84,50
India,Chhattisgarh,Tumidih,"OP Jindal Industrial Park, Tumidih - CECB",14-01-2024 17:00:00,22.06631475,83.33820077,CO,16,46,25
India,Delhi,Delhi,"Alipur, Delhi - DPCC",14-01-2024 17:00:00,28.815329,77.153010,PM2.5,281,438,363
India,Delhi,Delhi,"Anand Vihar, Delhi - DPCC",14-01-2024 17:00:00,28.647622,77.3158090,NO2,54,208,135
India,Delhi,Delhi,"Anand Vihar, Delhi - DPCC",14-01-2024 17:00:00,28.647622,77.3158090,CO,105,176,129
India,Delhi,Delhi,"Bawana, Delhi - DPCC",14-01-2024 17:00:00,28.776200,77.051074,PM2.5,277,500,387
India,Delhi,Delhi,"Burari Crossing, Delhi - IMD",14-01-2024 17:00:00,28.7256504,77.2011573,PM2.5,301,488,393
India,Delhi,Delhi,"Burari Crossing, Delhi - IMD",14-01-2024 17:00:00,28.7256504,77.2011573,PM10,138,470,352
India,Delhi,Delhi,"CRRI Mathura Road, Delhi - IMD",14-01-2024 17:00:00,28.5512005,77.2735737,OZONE,34,66,43
India,Delhi,Delhi,"DTU, Delhi - CPCB",14-01-2024 17:00:00,28.7500499,77.1112615,PM10,192,489,334
India,Delhi,Delhi,"DTU, Delhi - CPCB",14-01-2024 17:00:00,28.7500499,77.1112615,NO2,9,82,47
India,Delhi,Delhi,"DTU, Delhi - CPCB",14-01-2024 17:00:00,28.7500499,77.1112615,NH3,16,45,24
India,Delhi,Delhi,"DTU, Delhi - CPCB",14-01-2024 17:00:00,28.7500499,77.1112615,OZONE,26,29,27
India,Delhi,Delhi,"Dr. Karni Singh Shooting Range, Delhi - DPCC",14-01-2024 17:00:00,28.498571,77.264840,PM2.5,405,500,488
India,Delhi,Delhi,"Dr. Karni Singh Shooting Range, Delhi - DPCC",14-01-2024 17:00:00,28.498571,77.264840,PM10,307,478,441
India,Delhi,Delhi,"Dr. Karni Singh Shooting Range, Delhi - DPCC",14-01-2024 17:00:00,28.498571,77.264840,CO,76,158,105
India,Delhi,Delhi,"Dwarka-Sector 8, Delhi - DPCC ",14-01-2024 17:00:00,28.5710274,77.0719006,NH3,14,24,19
India,Delhi,Delhi,"Dwarka-Sector 8, Delhi - DPCC ",14-01-2024 17:00:00,28.5710274,77.0719006,SO2,2,15,7
India,Delhi,Delhi,"IHBAS, Dilshad Garden, Delhi - CPCB",14-01-2024 17:00:00,28.6811736,77.3025234,SO2,2,32,5
India,Delhi,Delhi,"IHBAS, Dilshad Garden, Delhi - CPCB",14-01-2024 17:00:00,28.6811736,77.3025234,CO,8,148,93
India,Delhi,Delhi,"ITO, Delhi - CPCB",14-01-2024 17:00:00,28.628624,77.241060,NO2,18,108,52
India,Delhi,Delhi,"ITO, Delhi - CPCB",14-01-2024 17:00:00,28.628624,77.241060,SO2,5,32,19
India,Delhi,Delhi,"Jahangirpuri, Delhi - DPCC",14-01-2024 17:00:00,28.732820,77.170633,SO2,14,30,19
India,Delhi,Delhi,"Jawaharlal Nehru Stadium, Delhi - DPCC",14-01-2024 17:00:00,28.580280,77.233829,CO,50,190,89
India,Delhi,Delhi,"Jawaharlal Nehru Stadium, Delhi - DPCC",14-01-2024 17:00:00,28.580280,77.233829,OZONE,12,73,46
India,Delhi,Delhi,"Lodhi Road, Delhi - IMD",14-01-2024 17:00:00,28.5918245,77.2273074,PM2.5,338,500,453
India,Delhi,Delhi,"Lodhi Road, Delhi - IMD",14-01-2024 17:00:00,28.5918245,77.2273074,PM10,200,500,429
India,Delhi,Delhi,"Major Dhyan Chand National Stadium, Delhi - DPCC",14-01-2024 17:00:00,28.611281,77.237738,OZONE,3,3,3
India,Delhi,Delhi,"Mandir Marg, Delhi - DPCC",14-01-2024 17:00:00,28.636429,77.201067,NO2,96,154,120
India,Delhi,Delhi,"NSIT Dwarka, Delhi - CPCB",14-01-2024 17:00:00,28.60909,77.0325413,PM2.5,NA,NA,NA
India,Delhi,Delhi,"NSIT Dwarka, Delhi - CPCB",14-01-2024 17:00:00,28.60909,77.0325413,NO2,43,86,57
India,Delhi,Delhi,"NSIT Dwarka, Delhi - CPCB",14-01-2024 17:00:00,28.60909,77.0325413,SO2,2,19,12
India,Delhi,Delhi,"Najafgarh, Delhi - DPCC",14-01-2024 17:00:00,28.570173,76.933762,PM2.5,333,500,418
India,Delhi,Delhi,"Najafgarh, Delhi - DPCC",14-01-2024 17:00:00,28.570173,76.933762,PM10,177,500,300
India,Delhi,Delhi,"Najafgarh, Delhi - DPCC",14-01-2024 17:00:00,28.570173,76.933762,CO,4,129,26
India,Delhi,Delhi,"Najafgarh, Delhi - DPCC",14-01-2024 17:00:00,28.570173,76.933762,OZONE,7,100,48
India,Delhi,Delhi,"Narela, Delhi - DPCC",14-01-2024 17:00:00,28.822836,77.101981,PM10,126,500,316
India,Delhi,Delhi,"Nehru Nagar, Delhi - DPCC",14-01-2024 17:00:00,28.567890,77.250515,PM2.5,422,500,483
India,Delhi,Delhi,"Nehru Nagar, Delhi - DPCC",14-01-2024 17:00:00,28.567890,77.250515,NH3,20,37,23
India,Delhi,Delhi,"Nehru Nagar, Delhi - DPCC",14-01-2024 17:00:00,28.567890,77.250515,SO2,4,34,16
India,Delhi,Delhi,"Nehru Nagar, Delhi - DPCC",14-01-2024 17:00:00,28.567890,77.250515,CO,14,124,107
India,Delhi,Delhi,"Nehru Nagar, Delhi - DPCC",14-01-2024 17:00:00,28.567890,77.250515,OZONE,2,131,56
India,Delhi,Delhi,"New Moti Bagh, Delhi - MHUA",14-01-2024 17:00:00,28.57834,77.18400,NO2,3,18,9
India,Delhi,Delhi,"Okhla Phase-2, Delhi - DPCC",14-01-2024 17:00:00,28.530785,77.271255,PM10,311,500,457
India,Delhi,Delhi,"Okhla Phase-2, Delhi - DPCC",14-01-2024 17:00:00,28.530785,77.271255,CO,24,139,70
India,Delhi,Delhi,"Pusa, Delhi - DPCC",14-01-2024 17:00:00,28.639652,77.146275,PM2.5,363,500,474
India,Delhi,Delhi,"Pusa, Delhi - IMD",14-01-2024 17:00:00,28.636110,77.173332,OZONE,12,17,13
India,Delhi,Delhi,"R K Puram, Delhi - DPCC",14-01-2024 17:00:00,28.563262,77.186937,PM10,245,500,451
India,Delhi,Delhi,"Rohini, Delhi - DPCC",14-01-2024 17:00:00,28.732528,77.119920,PM2.5,350,500,433
India,Delhi,Delhi,"Rohini, Delhi - DPCC",14-01-2024 17:00:00,28.732528,77.119920,OZONE,1,72,30
India,Delhi,Delhi,"Shadipur, Delhi - CPCB",14-01-2024 17:00:00,28.6514781,77.1473105,NO2,43,76,59
India,Delhi,Delhi,"Sirifort, Delhi - CPCB",14-01-2024 17:00:00,28.5504249,77.2159377,NO2,147,223,181
India,Delhi,Delhi,"Sri Aurobindo Marg, Delhi - DPCC",14-01-2024 17:00:00,28.531346,77.190156,NH3,10,18,14
India,Delhi,Delhi,"Sri Aurobindo Marg, Delhi - DPCC",14-01-2024 17:00:00,28.531346,77.190156,OZONE,6,32,18
India,Delhi,Delhi,"Vivek Vihar, Delhi - DPCC",14-01-2024 17:00:00,28.672342,77.315260,PM10,275,500,428
India,Delhi,Delhi,"Vivek Vihar, Delhi - DPCC",14-01-2024 17:00:00,28.672342,77.315260,NH3,6,14,9
India,Delhi,Delhi,"Wazirpur, Delhi - DPCC",14-01-2024 17:00:00,28.699793,77.165453,OZONE,3,81,36
India,Gujarat,Ahmedabad,"Chandkheda, Ahmedabad - IITM",14-01-2024 17:00:00,23.107969,72.574648,NH3,4,5,5
India,Gujarat,Ahmedabad,"Maninagar, Ahmedabad - GPCB",14-01-2024 17:00:00,23.002657,72.591912,PM2.5,14,135,81
India,Gujarat,Ahmedabad,"Raikhad, Ahmedabad - IITM",14-01-2024 17:00:00,23.020509,72.579261,NH3,4,4,4
India,Gujarat,Ahmedabad,"Rakhial, Ahmedabad - IITM",14-01-2024 17:00:00,23.016834,72.625775,NH3,2,6,5
India,Gujarat,Ahmedabad,"SAC ISRO Bopal, Ahmedabad - IITM",14-01-2024 17:00:00,23.041137,72.456691,OZONE,16,17,17
India,Gujarat,Ahmedabad,"SAC ISRO Satellite, Ahmedabad - IITM",14-01-2024 17:00:00,23.023389,72.515201,PM2.5,67,86,79
India,Gujarat,Ahmedabad,"SAC ISRO Satellite, Ahmedabad - IITM",14-01-2024 17:00:00,23.023389,72.515201,PM10,82,101,95
India,Gujarat,Ahmedabad,"SAC ISRO Satellite, Ahmedabad - IITM",14-01-2024 17:00:00,23.023389,72.515201,NH3,2,3,3
India,Gujarat,Ahmedabad,"SVPI Airport Hansol, Ahmedabad - IITM",14-01-2024 17:00:00,23.076793,72.627874,CO,20,100,37
India,Gujarat,Ahmedabad,"SVPI Airport Hansol, Ahmedabad - IITM",14-01-2024 17:00:00,23.076793,72.627874,OZONE,5,20,16
India,Gujarat,Ahmedabad,"Sardar Vallabhbhai Patel Stadium, Ahmedabad - IITM",14-01-2024 17:00:00,23.043070,72.562968,PM10,66,160,116
India,Gujarat,Ahmedabad,"Sardar Vallabhbhai Patel Stadium, Ahmedabad - IITM",14-01-2024 17:00:00,23.043070,72.562968,SO2,4,6,5
India,Gujarat,Gandhinagar,"GIFT City, Gandhinagar - IITM",14-01-2024 17:00:00,23.163798,72.677768,SO2,4,8,6
India,Gujarat,Gandhinagar,"IIPHG Lekawada, Gandhinagar - IITM",14-01-2024 17:00:00,23.243639,72.68994,NO2,14,15,14
India,Gujarat,Surat,"Science Center, Surat - SMC",14-01-2024 17:00:00,21.170046,72.795405,NO2,6,18,13
India,Gujarat,Vatva,"Phase-4 GIDC, Vatva - GPCB",14-01-2024 17:00:00,22.969611,72.643500,PM2.5,43,184,82
India,Gujarat,Vatva,"Phase-4 GIDC, Vatva - GPCB",14-01-2024 17:00:00,22.969611,72.643500,NH3,1,2,2
India,Haryana,Bahadurgarh,"Arya Nagar, Bahadurgarh - HSPCB",14-01-2024 17:00:00,28.6701,76.9254,CO,38,58,49
India,Haryana,Ballabgarh,"Nathu Colony, Ballabgarh - HSPCB",14-01-2024 17:00:00,28.3419248,77.319699,SO2,1,23,12
India,Haryana,Ballabgarh,"Nathu Colony, Ballabgarh - HSPCB",14-01-2024 17:00:00,28.3419248,77.319699,CO,34,117,92
India,Haryana,Ballabgarh,"Nathu Colony, Ballabgarh - HSPCB",14-01-2024 17:00:00,28.3419248,77.319699,OZONE,3,42,21
India,Haryana,Bhiwani,"H.B. Colony, Bhiwani - HSPCB",14-01-2024 17:00:00,28.806223,76.141105,NH3,6,6,6
India,Haryana,Bhiwani,"H.B. Colony, Bhiwani - HSPCB",14-01-2024 17:00:00,28.806223,76.141105,SO2,1,46,20
India,Haryana,Charkhi Dadri,"Mini Secretariat, Charkhi Dadri - HSPCB",14-01-2024 17:00:00,28.593883,76.270653,NO2,9,29,13
India,Haryana,Charkhi Dadri,"Mini Secretariat, Charkhi Dadri - HSPCB",14-01-2024 17:00:00,28.593883,76.270653,NH3,5,9,6
India,Haryana,Charkhi Dadri,"Mini Secretariat, Charkhi Dadri - HSPCB",14-01-2024 17:00:00,28.593883,76.270653,CO,45,152,68
India,Haryana,Dharuhera,"Municipal Corporation Office, Dharuhera -  HSPCB",14-01-2024 17:00:00,28.206800,76.799700,NO2,46,112,73
India,Haryana,Dharuhera,"Municipal Corporation Office, Dharuhera -  HSPCB",14-01-2024 17:00:00,28.206800,76.799700,CO,34,116,77
India,Haryana,Faridabad,"New Industrial Town, Faridabad - HSPCB",14-01-2024 17:00:00,28.39072,77.30059,PM2.5,304,500,470
India,Haryana,Faridabad,"New Industrial Town, Faridabad - HSPCB",14-01-2024 17:00:00,28.39072,77.30059,PM10,200,500,459
India,Haryana,Faridabad,"New Industrial Town, Faridabad - HSPCB",14-01-2024 17:00:00,28.39072,77.30059,SO2,1,8,5
India,Haryana,Faridabad,"Sector 11, Faridabad - HSPCB",14-01-2024 17:00:00,28.376058,77.315741,PM2.5,86,500,367
India,Haryana,Faridabad,"Sector 11, Faridabad - HSPCB",14-01-2024 17:00:00,28.376058,77.315741,SO2,7,36,18
India,Haryana,Faridabad,"Sector 11, Faridabad - HSPCB",14-01-2024 17:00:00,28.376058,77.315741,CO,72,116,98
India,Haryana,Faridabad,"Sector 30, Faridabad - HSPCB",14-01-2024 17:00:00,28.4417,77.3217,PM2.5,193,247,217
India,Haryana,Faridabad,"Sector 30, Faridabad - HSPCB",14-01-2024 17:00:00,28.4417,77.3217,NH3,14,14,14
India,Haryana,Faridabad,"Sector 30, Faridabad - HSPCB",14-01-2024 17:00:00,28.4417,77.3217,OZONE,3,21,8
India,Haryana,Faridabad,"Sector- 16A, Faridabad - HSPCB",14-01-2024 17:00:00,28.4088421,77.3099081,PM2.5,445,500,495
India,Haryana,Faridabad,"Sector- 16A, Faridabad - HSPCB",14-01-2024 17:00:00,28.4088421,77.3099081,NO2,26,151,72
India,Haryana,Faridabad,"Sector- 16A, Faridabad - HSPCB",14-01-2024 17:00:00,28.4088421,77.3099081,SO2,22,26,24
India,Haryana,Fatehabad,"Huda Sector, Fatehabad - HSPCB",14-01-2024 17:00:00,29.503664,75.467934,NO2,30,32,30
India,Haryana,Gurugram,"Teri Gram, Gurugram - HSPCB",14-01-2024 17:00:00,28.4275,77.1465,PM2.5,82,485,344
India,Haryana,Gurugram,"Vikas Sadan, Gurugram - HSPCB",14-01-2024 17:00:00,28.4501238,77.0263051,NO2,5,26,14
India,Haryana,Hisar,"Urban Estate-II, Hisar - HSPCB",14-01-2024 17:00:00,29.140560,75.744941,NH3,3,4,4
India,Haryana,Jind,"Police Lines, Jind - HSPCB",14-01-2024 17:00:00,29.307814,76.337619,SO2,3,8,6
India,Haryana,Kaithal,"Rishi Nagar, Kaithal - HSPCB",14-01-2024 17:00:00,29.8006,76.4155,PM2.5,167,370,273
India,Haryana,Kaithal,"Rishi Nagar, Kaithal - HSPCB",14-01-2024 17:00:00,29.8006,76.4155,PM10,96,191,132
India,Haryana,Kaithal,"Rishi Nagar, Kaithal - HSPCB",14-01-2024 17:00:00,29.8006,76.4155,NO2,24,26,25
India,Haryana,Mandikhera,"General Hospital, Mandikhera - HSPCB",14-01-2024 17:00:00,27.9002,76.9938,PM2.5,12,59,28
India,Haryana,Manesar,"Sector-2 IMT, Manesar - HSPCB",14-01-2024 17:00:00,28.360699,76.936090,CO,42,100,68
India,Haryana,Manesar,"Sector-2 IMT, Manesar - HSPCB",14-01-2024 17:00:00,28.360699,76.936090,OZONE,5,40,24
India,Haryana,Narnaul,"Shastri Nagar, Narnaul - HSPCB",14-01-2024 17:00:00,28.060249,76.113115,PM2.5,50,310,178
India,Haryana,Narnaul,"Shastri Nagar, Narnaul - HSPCB",14-01-2024 17:00:00,28.060249,76.113115,PM10,60,215,142
India,Haryana,Palwal,"Shyam Nagar, Palwal - HSPCB",14-01-2024 17:00:00,28.1485564,77.3320667,PM2.5,73,117,95
India,Haryana,Palwal,"Shyam Nagar, Palwal - HSPCB",14-01-2024 17:00:00,28.1485564,77.3320667,NO2,5,5,5
India,Haryana,Panipat,"Sector-18, Panipat - HSPCB",14-01-2024 17:00:00,29.497973,76.993331,NH3,2,3,2
India,Haryana,Rohtak,"MD University, Rohtak - HSPCB",14-01-2024 17:00:00,28.52123,76.37138,PM2.5,23,323,188
India,Haryana,Rohtak,"MD University, Rohtak - HSPCB",14-01-2024 17:00:00,28.52123,76.37138,OZONE,43,54,48
India,Haryana,Sirsa,"F-Block, Sirsa - HSPCB",14-01-2024 17:00:00,29.536400,75.015800,OZONE,17,54,35
India,Haryana,Sonipat,"Murthal, Sonipat - HSPCB",14-01-2024 17:00:00,29.027200,77.062100,OZONE,16,36,31
India,Haryana,Yamuna Nagar,"Gobind Pura, Yamuna Nagar - HSPCB",14-01-2024 17:00:00,30.1480566,77.2893471,OZONE,5,18,11
India,Himachal Pradesh,Baddi,"HIMUDA Complex Phase-1, Baddi - HPPCB",14-01-2024 17:00:00,30.943887,76.801991,PM10,175,500,396
India,Himachal Pradesh,Baddi,"HIMUDA Complex Phase-1, Baddi - HPPCB",14-01-2024 17:00:00,30.943887,76.801991,NO2,23,93,63
India,Himachal Pradesh,Baddi,"HIMUDA Complex Phase-1, Baddi - HPPCB",14-01-2024 17:00:00,30.943887,76.801991,SO2,38,127,85
India,Jharkhand,Dhanbad,"Kalakusuma, Dhanbad - DMC",14-01-2024 17:00:00,23.811548,86.481238,SO2,113,118,115
India,Jharkhand,Dhanbad,"Sardar Patel Nagar, Dhanbad - JSPCB",14-01-2024 17:00:00,23.80569,86.44268,OZONE,30,30,30
India,Jharkhand,Pathardih,"Mohalbani Ghat, Pathardih - DMC",14-01-2024 17:00:00,23.669880,86.411725,OZONE,139,140,139
India,Karnataka,Belgaum,"Ramteerth Nagar, Belgaum - KSPCB",14-01-2024 17:00:00,15.888653,74.541751,SO2,8,9,8
India,Karnataka,Belgaum,"Ramteerth Nagar, Belgaum - KSPCB",14-01-2024 17:00:00,15.888653,74.541751,CO,28,52,44
India,Karnataka,Bengaluru,"Bapuji Nagar, Bengaluru - KSPCB",14-01-2024 17:00:00,12.951913,77.539784,PM10,107,192,130
India,Karnataka,Bengaluru,"City Railway Station, Bengaluru - KSPCB",14-01-2024 17:00:00,12.9756843,77.5660749,NO2,18,30,24
India,Karnataka,Bengaluru,"Hombegowda Nagar, Bengaluru - KSPCB",14-01-2024 17:00:00,12.938539,77.590100,NO2,31,41,38
India,Karnataka,Bengaluru,"Hombegowda Nagar, Bengaluru - KSPCB",14-01-2024 17:00:00,12.938539,77.590100,NH3,2,2,2
India,Karnataka,Bengaluru,"Hombegowda Nagar, Bengaluru - KSPCB",14-01-2024 17:00:00,12.938539,77.590100,OZONE,3,5,4
India,Karnataka,Bengaluru,"Kasturi Nagar, Bengaluru - KSPCB",14-01-2024 17:00:00,13.003872,77.664217,OZONE,32,109,93
India,Karnataka,Bengaluru,"Peenya, Bengaluru - CPCB",14-01-2024 17:00:00,13.0270199,77.494094,NO2,21,30,24
India,Karnataka,Bengaluru,"Sanegurava Halli, Bengaluru - KSPCB",14-01-2024 17:00:00,12.990328,77.5431385,CO,NA,NA,NA
India,Karnataka,Bengaluru,"Silk Board, Bengaluru - KSPCB",14-01-2024 17:00:00,12.917348,77.622813,PM10,87,152,117
India,Karnataka,Bengaluru,"Silk Board, Bengaluru - KSPCB",14-01-2024 17:00:00,12.917348,77.622813,NH3,2,4,3
India,Karnataka,Bengaluru,"Silk Board, Bengaluru - KSPCB",14-01-2024 17:00:00,12.917348,77.622813,OZONE,29,31,30
India,Karnataka,Chamarajanagar,"Urban, Chamarajanagar - KSPCB",14-01-2024 17:00:00,11.55358,76.55521,NO2,23,29,28
India,Karnataka,Chamarajanagar,"Urban, Chamarajanagar - KSPCB",14-01-2024 17:00:00,11.55358,76.55521,NH3,1,2,2
India,Karnataka,Chamarajanagar,"Urban, Chamarajanagar - KSPCB",14-01-2024 17:00:00,11.55358,76.55521,SO2,2,6,4
India,Karnataka,Chikkamagaluru,"Kalyana Nagara, Chikkamagaluru - KSPCB",14-01-2024 17:00:00,13.328028,75.797056,PM2.5,41,82,57
India,Karnataka,Davanagere,"Devaraj Urs Badavane, Davanagere - KSPCB",14-01-2024 17:00:00,14.475800,75.905200,NH3,1,1,1
India,Karnataka,Gadag,"Panchal Nagar, Gadag - KSPCB",14-01-2024 17:00:00,15.411456,75.638133,NO2,5,20,13
India,Karnataka,Gadag,"Panchal Nagar, Gadag - KSPCB",14-01-2024 17:00:00,15.411456,75.638133,OZONE,33,85,64
India,Karnataka,Hubballi,"Deshpande Nagar, Hubballi - KSPCB",14-01-2024 17:00:00,15.351773,75.140726,PM10,61,179,97
India,Karnataka,Hubballi,"Deshpande Nagar, Hubballi - KSPCB",14-01-2024 17:00:00,15.351773,75.140726,NO2,18,28,25
India,Karnataka,Hubballi,"Deshpande Nagar, Hubballi - KSPCB",14-01-2024 17:00:00,15.351773,75.140726,CO,75,102,78
India,Karnataka,Hubballi,"Lingaraj Nagar, Hubballi - KSPCB",14-01-2024 17:00:00,15.3714823,75.1160168,NH3,2,2,2
India,Karnataka,Kalaburagi,"Lal Bahadur Shastri Nagar, Kalaburagi - KSPCB",14-01-2024 17:00:00,17.321993,76.822628,OZONE,1,65,56
India,Karnataka,Kalaburagi,"Mahatma Basaveswar Colony, Kalaburgi - KSPCB",14-01-2024 17:00:00,17.336318,76.847397,OZONE,2,41,33
India,Karnataka,Karwar,"KHB Colony, Karwar - KSPCB",14-01-2024 17:00:00,14.816666,74.141003,NO2,5,10,7
India,Karnataka,Karwar,"KHB Colony, Karwar - KSPCB",14-01-2024 17:00:00,14.816666,74.141003,NH3,2,3,2
India,Karnataka,Kolar,"Tamaka Ind. Area, Kolar - KSPCB",14-01-2024 17:00:00,13.1276288,78.1570122,NH3,5,7,7
India,Karnataka,Mangalore,"Kadri, Mangalore - KSPCB",14-01-2024 17:00:00,12.889250,74.853000,NH3,3,3,3
India,Karnataka,Mangalore,"Kadri, Mangalore - KSPCB",14-01-2024 17:00:00,12.889250,74.853000,OZONE,31,32,31
India,Karnataka,Raichur,"Haji Colony, Raichur - KSPCB",14-01-2024 17:00:00,16.208139,77.348417,NO2,17,65,33
India,Karnataka,Raichur,"Haji Colony, Raichur - KSPCB",14-01-2024 17:00:00,16.208139,77.348417,SO2,65,115,77
