country,state,city,station,last_update,latitude,longitude,pollutant_id,pollutant_min,pollutant_max,pollutant_avg
India,Andhra_Pradesh,Anantapur,"Gulzarpet, Anantapur - APPCB",04-04-2024 15:00:00,14.675886,77.593027,PM2.5,22,61,35
India,Andhra_Pradesh,Anantapur,"Gulzarpet, Anantapur - APPCB",04-04-2024 15:00:00,14.675886,77.593027,PM10,67,89,74
India,Andhra_Pradesh,Anantapur,"Gulzarpet, Anantapur - APPCB",04-04-2024 15:00:00,14.675886,77.593027,CO,24,52,37
India,Andhra_Pradesh,Anantapur,"Gulzarpet, Anantapur - APPCB",04-04-2024 15:00:00,14.675886,77.593027,OZONE,7,63,30
India,Andhra_Pradesh,Chittoor,"Gangineni Cheruvu, Chittoor - APPCB",04-04-2024 15:00:00,13.204880,79.097889,PM2.5,11,303,93
India,Andhra_Pradesh,Chittoor,"Gangineni Cheruvu, Chittoor - APPCB",04-04-2024 15:00:00,13.204880,79.097889,NO2,3,20,7
India,Andhra_Pradesh,Kadapa,"Yerramukkapalli, Kadapa - APPCB",04-04-2024 15:00:00,14.465052,78.824187,CO,6,30,20
India,Andhra_Pradesh,Rajamahendravaram,"Anand Kala Kshetram, Rajamahendravaram - APPCB",04-04-2024 15:00:00,16.9872867,81.7363176,SO2,11,12,11
India,Andhra_Pradesh,Rajamahendravaram,"Anand Kala Kshetram, Rajamahendravaram - APPCB",04-04-2024 15:00:00,16.9872867,81.7363176,CO,2,34,28
India,Andhra_Pradesh,Tirupati,"Tirumala, Tirupati - APPCB",04-04-2024 15:00:00,13.67,79.35,PM10,20,88,46
India,Andhra_Pradesh,Tirupati,"Vaikuntapuram, Tirupati - APPCB",04-04-2024 15:00:00,13.615387,79.409230,NH3,2,4,3
India,Andhra_Pradesh,Tirupati,"Vaikuntapuram, Tirupati - APPCB",04-04-2024 15:00:00,13.615387,79.409230,CO,5,15,11
India,Andhra_Pradesh,Vijayawada,"HB Colony, Vijayawada - APPCB",04-04-2024 15:00:00,16.536107,80.594233,PM2.5,39,48,43
India,Andhra_Pradesh,Vijayawada,"HB Colony, Vijayawada - APPCB",04-04-2024 15:00:00,16.536107,80.594233,PM10,45,66,54
India,Andhra_Pradesh,Vijayawada,"HB Colony, Vijayawada - APPCB",04-04-2024 15:00:00,16.536107,80.594233,NO2,3,10,6
India,Andhra_Pradesh,Vijayawada,"HB Colony, Vijayawada - APPCB",04-04-2024 15:00:00,16.536107,80.594233,NH3,4,4,4
India,Andhra_Pradesh,Vijayawada,"Kanuru, Vijayawada - APPCB",04-04-2024 15:00:00,16.486692,80.699436,SO2,NA,NA,NA
India,Andhra_Pradesh,Vijayawada,"Kanuru, Vijayawada - APPCB",04-04-2024 15:00:00,16.486692,80.699436,CO,46,78,57
India,Andhra_Pradesh,Vijayawada,"Rajiv Nagar, Vijayawada - APPCB",04-04-2024 15:00:00,16.554731,80.649110,CO,44,44,44
India,Assam,Guwahati,"IITG, Guwahati - PCBA",04-04-2024 15:00:00,26.2028636,91.70046436,PM2.5,45,155,74
India,Assam,Guwahati,"IITG, Guwahati - PCBA",04-04-2024 15:00:00,26.2028636,91.70046436,NH3,5,5,5
India,Assam,Guwahati,"LGBI Airport, Guwahati - PCBA",04-04-2024 15:00:00,26.10887,91.589544,NH3,3,9,6
India,Assam,Guwahati,"LGBI Airport, Guwahati - PCBA",04-04-2024 15:00:00,26.10887,91.589544,CO,26,64,53
India,Assam,Guwahati,"Pan Bazaar, Guwahati - PCBA",04-04-2024 15:00:00,26.187500,91.744194,PM10,50,457,164
India,Assam,Guwahati,"Pan Bazaar, Guwahati - PCBA",04-04-2024 15:00:00,26.187500,91.744194,CO,20,29,23
India,Assam,Guwahati,"Pan Bazaar, Guwahati - PCBA",04-04-2024 15:00:00,26.187500,91.744194,OZONE,17,17,17
India,Assam,Guwahati,"Railway Colony, Guwahati - PCBA",04-04-2024 15:00:00,26.181742,91.78063,NO2,NA,NA,NA
India,Assam,Nagaon,"Christianpatty, Nagaon - PCBA",04-04-2024 15:00:00,26.349082,92.68449,NO2,3,20,8
India,Assam,Nalbari,"Bata Chowk, Nalbari - PCBA",04-04-2024 15:00:00,26.446912,91.439057,PM2.5,33,117,59
India,Assam,Nalbari,"Bata Chowk, Nalbari - PCBA",04-04-2024 15:00:00,26.446912,91.439057,NO2,10,53,16
India,Assam,Nalbari,"Bata Chowk, Nalbari - PCBA",04-04-2024 15:00:00,26.446912,91.439057,NH3,1,4,2
India,Assam,Silchar,"Tarapur, Silchar - PCBA",04-04-2024 15:00:00,24.82827,92.79525,SO2,1,20,10
India,Assam,Silchar,"Tarapur, Silchar - PCBA",04-04-2024 15:00:00,24.82827,92.79525,CO,34,60,39
India,Assam,Sivasagar,"Girls College, Sivasagar - PCBA",04-04-2024 15:00:00,26.987634,94.636574,SO2,NA,NA,NA
India,Assam,Sivasagar,"Girls College, Sivasagar - PCBA",04-04-2024 15:00:00,26.987634,94.636574,OZONE,1,10,3
India,Bihar,Araria,"Kharahiya Basti, Araria - BSPCB",04-04-2024 15:00:00,26.146529,87.454184,PM2.5,45,307,142
India,Bihar,Araria,"Kharahiya Basti, Araria - BSPCB",04-04-2024 15:00:00,26.146529,87.454184,NO2,6,22,8
India,Bihar,Araria,"Kharahiya Basti, Araria - BSPCB",04-04-2024 15:00:00,26.146529,87.454184,NH3,6,8,7
India,Bihar,Araria,"Kharahiya Basti, Araria - BSPCB",04-04-2024 15:00:00,26.146529,87.454184,OZONE,6,13,9
India,Bihar,Arrah,"New DM Office, Arrah - BSPCB",04-04-2024 15:00:00,25.5626095,84.663264,NO2,7,64,20
India,Bihar,Arrah,"New DM Office, Arrah - BSPCB",04-04-2024 15:00:00,25.5626095,84.663264,NH3,3,7,4
India,Bihar,Aurangabad,"Gurdeo Nagar, Aurangabad - BSPCB",04-04-2024 15:00:00,24.75746,84.366208,NH3,3,6,5
India,Bihar,Aurangabad,"Gurdeo Nagar, Aurangabad - BSPCB",04-04-2024 15:00:00,24.75746,84.366208,CO,16,88,65
India,Bihar,Bettiah,"Kamalnath Nagar, Bettiah - BSPCB",04-04-2024 15:00:00,26.80365,84.51954,NO2,NA,NA,NA
India,Bihar,Bettiah,"Kamalnath Nagar, Bettiah - BSPCB",04-04-2024 15:00:00,26.80365,84.51954,CO,62,64,63
India,Bihar,Bhagalpur,"DM Office_Kachari Chowk, Bhagalpur - BSPCB",04-04-2024 15:00:00,25.251013,86.989001,PM10,131,330,173
India,Bihar,Bhagalpur,"DM Office_Kachari Chowk, Bhagalpur - BSPCB",04-04-2024 15:00:00,25.251013,86.989001,NH3,6,9,7
India,Bihar,Bhagalpur,"Mayaganj, Bhagalpur - BSPCB",04-04-2024 15:00:00,25.265194,87.012947,CO,6,12,9
India,Bihar,Bihar Sharif,"D M Colony, Bihar Sharif - BSPCB",04-04-2024 15:00:00,25.204762,85.514960,PM2.5,45,117,83
India,Bihar,Buxar,"Charitra Van, Buxar - BSPCB (Formerly known as Central Jail)",04-04-2024 15:00:00,25.567520,83.966379,NO2,41,141,84
India,Bihar,Chhapra,"Darshan Nagar, Chhapra - BSPCB",04-04-2024 15:00:00,25.7808257,84.7446768,PM2.5,85,301,180
India,Bihar,Chhapra,"Darshan Nagar, Chhapra - BSPCB",04-04-2024 15:00:00,25.7808257,84.7446768,NO2,21,29,26
India,Bihar,Chhapra,"Darshan Nagar, Chhapra - BSPCB",04-04-2024 15:00:00,25.7808257,84.7446768,NH3,7,14,10
India,Bihar,Chhapra,"Darshan Nagar, Chhapra - BSPCB",04-04-2024 15:00:00,25.7808257,84.7446768,OZONE,1,4,2
India,Bihar,Gaya,"Collectorate, Gaya - BSPCB",04-04-2024 15:00:00,24.7955,84.9994,OZONE,47,81,57
India,Bihar,Gaya,"Kareemganj, Gaya - BSPCB",04-04-2024 15:00:00,24.792403,84.992416,NH3,1,5,3
India,Bihar,Gaya,"Kareemganj, Gaya - BSPCB",04-04-2024 15:00:00,24.792403,84.992416,SO2,6,10,8
India,Bihar,Gaya,"SFTI Kusdihra, Gaya - BSPCB",04-04-2024 15:00:00,24.762518,84.982348,SO2,NA,NA,NA
India,Bihar,Hajipur,"Industrial Area, Hajipur - BSPCB",04-04-2024 15:00:00,25.697189,85.245900,CO,17,49,43
India,Bihar,Hajipur,"Industrial Area, Hajipur - BSPCB",04-04-2024 15:00:00,25.697189,85.245900,OZONE,1,78,41
India,Bihar,Kishanganj,"SDM Office_Khagra, Kishanganj - BSPCB",04-04-2024 15:00:00,26.0881305,87.93840336,OZONE,12,42,14
India,Bihar,Manguraha,"Forest Rest House, Manguraha - BSPCB",04-04-2024 15:00:00,27.308328,84.531742,PM2.5,NA,NA,NA
India,Bihar,Manguraha,"Forest Rest House, Manguraha - BSPCB",04-04-2024 15:00:00,27.308328,84.531742,CO,26,92,64
India,Bihar,Munger,"Town Hall, Munger - BSPCB",04-04-2024 15:00:00,25.376776,86.471523,PM2.5,68,243,132
India,Bihar,Munger,"Town Hall, Munger - BSPCB",04-04-2024 15:00:00,25.376776,86.471523,NH3,1,2,2
India,Bihar,Munger,"Town Hall, Munger - BSPCB",04-04-2024 15:00:00,25.376776,86.471523,OZONE,29,119,43
India,Bihar,Muzaffarpur,"Buddha Colony, Muzaffarpur - BSPCB",04-04-2024 15:00:00,26.11442,85.39813,SO2,10,25,16
India,Bihar,Muzaffarpur,"Buddha Colony, Muzaffarpur - BSPCB",04-04-2024 15:00:00,26.11442,85.39813,CO,20,75,35
India,Bihar,Muzaffarpur,"MIT-Daudpur Kothi, Muzaffarpur - BSPCB",04-04-2024 15:00:00,26.1403345,85.3650192,OZONE,13,78,25
India,Bihar,Muzaffarpur,"Muzaffarpur Collectorate, Muzaffarpur - BSPCB",04-04-2024 15:00:00,26.1209,85.3647,PM2.5,67,198,108
India,Bihar,Muzaffarpur,"Muzaffarpur Collectorate, Muzaffarpur - BSPCB",04-04-2024 15:00:00,26.1209,85.3647,NO2,7,148,56
India,Bihar,Muzaffarpur,"Muzaffarpur Collectorate, Muzaffarpur - BSPCB",04-04-2024 15:00:00,26.1209,85.3647,SO2,8,18,12
India,Bihar,Patna,"Govt. High School Shikarpur, Patna - BSPCB",04-04-2024 15:00:00,25.592539,85.227158,NH3,4,5,5
India,Bihar,Patna,"Govt. High School Shikarpur, Patna - BSPCB",04-04-2024 15:00:00,25.592539,85.227158,CO,22,64,44
India,Bihar,Patna,"Muradpur, Patna - BSPCB",04-04-2024 15:00:00,25.619651,85.147382,PM2.5,119,366,296
India,Bihar,Patna,"Muradpur, Patna - BSPCB",04-04-2024 15:00:00,25.619651,85.147382,NH3,2,5,3
India,Bihar,Patna,"Rajbansi Nagar, Patna - BSPCB",04-04-2024 15:00:00,25.599486,85.113666,NO2,22,44,30
India,Bihar,Purnia,"Mariam Nagar, Purnia - BSPCB",04-04-2024 15:00:00,25.366336,87.117468,PM10,102,407,193
India,Bihar,Purnia,"Mariam Nagar, Purnia - BSPCB",04-04-2024 15:00:00,25.366336,87.117468,NH3,2,2,2
India,Bihar,Saharsa,"Police Line, Saharsa - BSPCB",04-04-2024 15:00:00,25.892357,86.590325,NO2,6,8,7
India,Bihar,Samastipur,"DM Office_Kasipur, Samastipur - BSPCB",04-04-2024 15:00:00,25.859655,85.77944,PM2.5,37,325,124
India,Bihar,Samastipur,"DM Office_Kasipur, Samastipur - BSPCB",04-04-2024 15:00:00,25.859655,85.77944,SO2,3,16,12
India,Bihar,Sasaram,"Dada Peer, Sasaram - BSPCB",04-04-2024 15:00:00,24.952822,84.002396,PM2.5,8,128,44
India,Bihar,Sasaram,"Dada Peer, Sasaram - BSPCB",04-04-2024 15:00:00,24.952822,84.002396,OZONE,9,92,48
India,Bihar,Siwan,"Chitragupta Nagar, Siwan - BSPCB",04-04-2024 15:00:00,26.2271665,84.3570427,NO2,16,82,29
India,Chandigarh,Chandigarh,"Sector 22, Chandigarh - CPCC",04-04-2024 15:00:00,30.735567,76.775714,PM2.5,23,177,86
India,Chandigarh,Chandigarh,"Sector-25, Chandigarh - CPCC",04-04-2024 15:00:00,30.751462,76.762879,SO2,7,20,11
India,Chandigarh,Chandigarh,"Sector-25, Chandigarh - CPCC",04-04-2024 15:00:00,30.751462,76.762879,CO,8,40,25
India,Chandigarh,Chandigarh,"Sector-53, Chandigarh - CPCC",04-04-2024 15:00:00,30.719859,76.738637,OZONE,8,61,36
India,Chhattisgarh,Bhilai,"32Bungalows, Bhilai - CECB",04-04-2024 15:00:00,21.194815,81.314770,PM2.5,56,74,64
India,Chhattisgarh,Bhilai,"32Bungalows, Bhilai - CECB",04-04-2024 15:00:00,21.194815,81.314770,NH3,6,7,7
India,Chhattisgarh,Bhilai,"Civic Center, Bhilai - Bhilai Steel Plant",04-04-2024 15:00:00,21.185571,81.343175,PM10,48,126,76
India,Chhattisgarh,Bilaspur,"Mangala, Bilaspur - NTPC",04-04-2024 15:00:00,22.08815,82.13737,PM2.5,58,128,91
India,Chhattisgarh,Bilaspur,"Mangala, Bilaspur - NTPC",04-04-2024 15:00:00,22.08815,82.13737,PM10,55,105,82
India,Chhattisgarh,Chhal,"Nawapara SECL Colony, Chhal - CECB",04-04-2024 15:00:00,22.118125,83.140608,PM2.5,88,324,238
India,Chhattisgarh,Chhal,"Nawapara SECL Colony, Chhal - CECB",04-04-2024 15:00:00,22.118125,83.140608,SO2,13,46,23
India,Chhattisgarh,Korba,"Rampur, Korba - CECB",04-04-2024 15:00:00,22.368195,82.746431,PM2.5,50,92,72
India,Chhattisgarh,Korba,"Urja Nagar, Korba - CECB",04-04-2024 15:00:00,22.348441,82.549611,NO2,26,82,65
India,Chhattisgarh,Korba,"Urja Nagar, Korba - CECB",04-04-2024 15:00:00,22.348441,82.549611,OZONE,1,65,20
India,Chhattisgarh,Kunjemura,"OP Jindal School, Kunjemura - CECB",04-04-2024 15:00:00,22.126650,83.483212,NO2,28,143,96
India,Chhattisgarh,Kunjemura,"OP Jindal School, Kunjemura - CECB",04-04-2024 15:00:00,22.126650,83.483212,CO,29,115,91
India,Chhattisgarh,Milupara,"Govt. Higher Secondary School, Milupara - CECB",04-04-2024 15:00:00,22.1910172,83.5197009,NO2,16,76,54
India,Chhattisgarh,Raipur,"AIIMS, Raipur - CECB",04-04-2024 15:00:00,21.258815,81.578979,NO2,20,86,42
India,Chhattisgarh,Raipur,"AIIMS, Raipur - CECB",04-04-2024 15:00:00,21.258815,81.578979,SO2,7,48,16
India,Chhattisgarh,Raipur,"Bhatagaon New ISBT, Raipur - CECB",04-04-2024 15:00:00,21.219665,81.630094,CO,22,79,31
India,Chhattisgarh,Raipur,"Krishak Nagar, Raipur - CECB",04-04-2024 15:00:00,21.237755,81.705301,PM2.5,41,75,57
India,Chhattisgarh,Tumidih,"OP Jindal Industrial Park, Tumidih - CECB",04-04-2024 15:00:00,22.06631475,83.33820077,PM10,NA,NA,NA
India,Delhi,Delhi,"Alipur, Delhi - DPCC",04-04-2024 15:00:00,28.815329,77.153010,CO,29,55,37
India,Delhi,Delhi,"Anand Vihar, Delhi - DPCC",04-04-2024 15:00:00,28.647622,77.3158090,CO,26,133,79
India,Delhi,Delhi,"Ashok Vihar, Delhi - DPCC",04-04-2024 15:00:00,28.695381,77.181665,NO2,14,119,58
India,Delhi,Delhi,"Ashok Vihar, Delhi - DPCC",04-04-2024 15:00:00,28.695381,77.181665,SO2,24,70,36
India,Delhi,Delhi,"Ashok Vihar, Delhi - DPCC",04-04-2024 15:00:00,28.695381,77.181665,CO,7,90,21
India,Delhi,Delhi,"Aya Nagar, Delhi - IMD",04-04-2024 15:00:00,28.4706914,77.1099364,PM10,89,230,144
India,Delhi,Delhi,"Bawana, Delhi - DPCC",04-04-2024 15:00:00,28.776200,77.051074,PM2.5,46,392,155
India,Delhi,Delhi,"Bawana, Delhi - DPCC",04-04-2024 15:00:00,28.776200,77.051074,PM10,68,423,192
India,Delhi,Delhi,"Bawana, Delhi - DPCC",04-04-2024 15:00:00,28.776200,77.051074,NH3,4,7,5
India,Delhi,Delhi,"Burari Crossing, Delhi - IMD",04-04-2024 15:00:00,28.7256504,77.2011573,CO,16,40,38
India,Delhi,Delhi,"Chandni Chowk, Delhi - IITM",04-04-2024 15:00:00,28.656756,77.227234,NO2,NA,NA,NA
India,Delhi,Delhi,"DTU, Delhi - CPCB",04-04-2024 15:00:00,28.7500499,77.1112615,NO2,10,26,17
India,Delhi,Delhi,"Dr. Karni Singh Shooting Range, Delhi - DPCC",04-04-2024 15:00:00,28.498571,77.264840,SO2,25,74,34
India,Delhi,Delhi,"Dr. Karni Singh Shooting Range, Delhi - DPCC",04-04-2024 15:00:00,28.498571,77.264840,CO,22,115,36
India,Delhi,Delhi,"IGI Airport (T3), Delhi - IMD",04-04-2024 15:00:00,28.5627763,77.1180053,PM10,68,178,112
India,Delhi,Delhi,"IHBAS, Dilshad Garden, Delhi - CPCB",04-04-2024 15:00:00,28.6811736,77.3025234,PM2.5,107,302,173
India,Delhi,Delhi,"Jahangirpuri, Delhi - DPCC",04-04-2024 15:00:00,28.732820,77.170633,PM2.5,40,311,135
India,Delhi,Delhi,"Jahangirpuri, Delhi - DPCC",04-04-2024 15:00:00,28.732820,77.170633,PM10,104,382,189
India,Delhi,Delhi,"Major Dhyan Chand National Stadium, Delhi - DPCC",04-04-2024 15:00:00,28.611281,77.237738,NH3,5,8,6
India,Delhi,Delhi,"Mandir Marg, Delhi - DPCC",04-04-2024 15:00:00,28.636429,77.201067,SO2,5,10,9
India,Delhi,Delhi,"Mundka, Delhi - DPCC",04-04-2024 15:00:00,28.684678,77.076574,PM2.5,47,393,175
India,Delhi,Delhi,"Mundka, Delhi - DPCC",04-04-2024 15:00:00,28.684678,77.076574,OZONE,36,195,112
India,Delhi,Delhi,"Najafgarh, Delhi - DPCC",04-04-2024 15:00:00,28.570173,76.933762,OZONE,11,157,81
India,Delhi,Delhi,"Narela, Delhi - DPCC",04-04-2024 15:00:00,28.822836,77.101981,PM2.5,20,290,110
India,Delhi,Delhi,"Narela, Delhi - DPCC",04-04-2024 15:00:00,28.822836,77.101981,NH3,5,9,7
India,Delhi,Delhi,"Nehru Nagar, Delhi - DPCC",04-04-2024 15:00:00,28.567890,77.250515,NH3,8,10,9
India,Delhi,Delhi,"Nehru Nagar, Delhi - DPCC",04-04-2024 15:00:00,28.567890,77.250515,OZONE,2,172,64
India,Delhi,Delhi,"New Moti Bagh, Delhi - MHUA",04-04-2024 15:00:00,28.57834,77.18400,NO2,1,28,8
India,Delhi,Delhi,"North Campus, DU, Delhi - IMD",04-04-2024 15:00:00,28.6573814,77.1585447,PM2.5,NA,NA,NA
India,Delhi,Delhi,"Okhla Phase-2, Delhi - DPCC",04-04-2024 15:00:00,28.530785,77.271255,NH3,6,9,7
India,Delhi,Delhi,"Okhla Phase-2, Delhi - DPCC",04-04-2024 15:00:00,28.530785,77.271255,CO,10,118,99
India,Delhi,Delhi,"Patparganj, Delhi - DPCC",04-04-2024 15:00:00,28.623763,77.287209,NO2,22,95,52
India,Delhi,Delhi,"Punjabi Bagh, Delhi - DPCC",04-04-2024 15:00:00,28.674045,77.131023,PM2.5,46,307,121
India,Delhi,Delhi,"Punjabi Bagh, Delhi - DPCC",04-04-2024 15:00:00,28.674045,77.131023,PM10,64,266,150
India,Delhi,Delhi,"Pusa, Delhi - IMD",04-04-2024 15:00:00,28.636110,77.173332,PM10,85,236,158
India,Delhi,Delhi,"R K Puram, Delhi - DPCC",04-04-2024 15:00:00,28.563262,77.186937,SO2,9,40,20
India,Delhi,Delhi,"R K Puram, Delhi - DPCC",04-04-2024 15:00:00,28.563262,77.186937,OZONE,5,247,195
India,Delhi,Delhi,"Shadipur, Delhi - CPCB",04-04-2024 15:00:00,28.6514781,77.1473105,PM2.5,51,345,204
India,Delhi,Delhi,"Shadipur, Delhi - CPCB",04-04-2024 15:00:00,28.6514781,77.1473105,NO2,59,99,75
India,Delhi,Delhi,"Sonia Vihar, Delhi - DPCC",04-04-2024 15:00:00,28.710508,77.249485,PM10,86,371,168
India,Delhi,Delhi,"Sonia Vihar, Delhi - DPCC",04-04-2024 15:00:00,28.710508,77.249485,NO2,18,90,48
India,Delhi,Delhi,"Sri Aurobindo Marg, Delhi - DPCC",04-04-2024 15:00:00,28.531346,77.190156,CO,2,103,14
India,Delhi,Delhi,"Wazirpur, Delhi - DPCC",04-04-2024 15:00:00,28.699793,77.165453,PM10,117,284,173
India,Delhi,Delhi,"Wazirpur, Delhi - DPCC",04-04-2024 15:00:00,28.699793,77.165453,NO2,48,207,116
India,Gujarat,Ahmedabad,"Chandkheda, Ahmedabad - IITM",04-04-2024 15:00:00,23.107969,72.574648,NH3,3,5,3
India,Gujarat,Ahmedabad,"Maninagar, Ahmedabad - GPCB",04-04-2024 15:00:00,23.002657,72.591912,CO,42,79,54
India,Gujarat,Ahmedabad,"Raikhad, Ahmedabad - IITM",04-04-2024 15:00:00,23.020509,72.579261,SO2,5,21,9
India,Gujarat,Ahmedabad,"Rakhial, Ahmedabad - IITM",04-04-2024 15:00:00,23.016834,72.625775,PM2.5,56,135,81
India,Gujarat,Ahmedabad,"SAC ISRO Satellite, Ahmedabad - IITM",04-04-2024 15:00:00,23.023389,72.515201,OZONE,13,21,17
India,Gujarat,Ahmedabad,"SVPI Airport Hansol, Ahmedabad - IITM",04-04-2024 15:00:00,23.076793,72.627874,NO2,NA,NA,NA
India,Gujarat,Ahmedabad,"Sardar Vallabhbhai Patel Stadium, Ahmedabad - IITM",04-04-2024 15:00:00,23.043070,72.562968,PM10,51,101,72
India,Gujarat,Ankleshwar,"GIDC, Ankleshwar - GPCB",04-04-2024 15:00:00,21.613267,73.010555,SO2,2,132,33
India,Gujarat,Ankleshwar,"GIDC, Ankleshwar - GPCB",04-04-2024 15:00:00,21.613267,73.010555,CO,40,105,79
India,Gujarat,Ankleshwar,"GIDC, Ankleshwar - GPCB",04-04-2024 15:00:00,21.613267,73.010555,OZONE,22,35,27
India,Gujarat,Gandhinagar,"IIPHG Lekawada, Gandhinagar - IITM",04-04-2024 15:00:00,23.243639,72.68994,NH3,6,7,7
India,Gujarat,Gandhinagar,"Sector-10, Gandhinagar - GPCB",04-04-2024 15:00:00,23.221714,72.654328,NO2,18,23,20
India,Gujarat,Surat,"Science Center, Surat - SMC",04-04-2024 15:00:00,21.170046,72.795405,NO2,33,52,41
India,Gujarat,Surat,"Science Center, Surat - SMC",04-04-2024 15:00:00,21.170046,72.795405,CO,24,34,29
India,Gujarat,Vapi,"Phase-1 GIDC, Vapi - GPCB",04-04-2024 15:00:00,20.362421,72.918013,NO2,6,7,7
India,Gujarat,Vatva,"Phase-4 GIDC, Vatva - GPCB",04-04-2024 15:00:00,22.969611,72.643500,NO2,38,136,73
India,Haryana,Ambala,"Patti Mehar, Ambala - HSPCB",04-04-2024 15:00:00,30.379589,76.778328,NH3,5,12,8
India,Haryana,Ambala,"Patti Mehar, Ambala - HSPCB",04-04-2024 15:00:00,30.379589,76.778328,SO2,1,98,48
India,Haryana,Bahadurgarh,"Arya Nagar, Bahadurgarh - HSPCB",04-04-2024 15:00:00,28.6701,76.9254,CO,42,60,49
India,Haryana,Ballabgarh,"Nathu Colony, Ballabgarh - HSPCB",04-04-2024 15:00:00,28.3419248,77.319699,PM10,118,202,151
India,Haryana,Ballabgarh,"Nathu Colony, Ballabgarh - HSPCB",04-04-2024 15:00:00,28.3419248,77.319699,NH3,1,2,1
India,Haryana,Ballabgarh,"Nathu Colony, Ballabgarh - HSPCB",04-04-2024 15:00:00,28.3419248,77.319699,SO2,3,36,16
India,Haryana,Ballabgarh,"Nathu Colony, Ballabgarh - HSPCB",04-04-2024 15:00:00,28.3419248,77.319699,OZONE,5,42,24
India,Haryana,Charkhi Dadri,"Mini Secretariat, Charkhi Dadri - HSPCB",04-04-2024 15:00:00,28.593883,76.270653,PM2.5,63,261,113
India,Haryana,Charkhi Dadri,"Mini Secretariat, Charkhi Dadri - HSPCB",04-04-2024 15:00:00,28.593883,76.270653,SO2,1,42,10
India,Haryana,Dharuhera,"Municipal Corporation Office, Dharuhera -  HSPCB",04-04-2024 15:00:00,28.206800,76.799700,PM2.5,NA,NA,NA
India,Haryana,Dharuhera,"Municipal Corporation Office, Dharuhera -  HSPCB",04-04-2024 15:00:00,28.206800,76.799700,NO2,NA,NA,NA
India,Haryana,Dharuhera,"Municipal Corporation Office, Dharuhera -  HSPCB",04-04-2024 15:00:00,28.206800,76.799700,NH3,NA,NA,NA
India,Haryana,Faridabad,"Sector 11, Faridabad - HSPCB",04-04-2024 15:00:00,28.376058,77.315741,PM2.5,172,334,270
India,Haryana,Faridabad,"Sector 11, Faridabad - HSPCB",04-04-2024 15:00:00,28.376058,77.315741,NH3,6,6,6
India,Haryana,Faridabad,"Sector 30, Faridabad - HSPCB",04-04-2024 15:00:00,28.4417,77.3217,CO,57,62,59
India,Haryana,Faridabad,"Sector- 16A, Faridabad - HSPCB",04-04-2024 15:00:00,28.4088421,77.3099081,SO2,3,25,21
India,Haryana,Faridabad,"Sector- 16A, Faridabad - HSPCB",04-04-2024 15:00:00,28.4088421,77.3099081,CO,5,85,32
India,Haryana,Fatehabad,"Huda Sector, Fatehabad - HSPCB",04-04-2024 15:00:00,29.503664,75.467934,SO2,11,11,11
India,Haryana,Gurugram,"Teri Gram, Gurugram - HSPCB",04-04-2024 15:00:00,28.4275,77.1465,NH3,49,92,67
India,Haryana,Gurugram,"Vikas Sadan, Gurugram - HSPCB",04-04-2024 15:00:00,28.4501238,77.0263051,PM2.5,88,301,203
India,Haryana,Gurugram,"Vikas Sadan, Gurugram - HSPCB",04-04-2024 15:00:00,28.4501238,77.0263051,OZONE,7,69,33
India,Haryana,Hisar,"Urban Estate-II, Hisar - HSPCB",04-04-2024 15:00:00,29.140560,75.744941,PM10,NA,NA,NA
India,Haryana,Hisar,"Urban Estate-II, Hisar - HSPCB",04-04-2024 15:00:00,29.140560,75.744941,NH3,NA,NA,NA
India,Haryana,Jind,"Police Lines, Jind - HSPCB",04-04-2024 15:00:00,29.307814,76.337619,SO2,1,19,9
India,Haryana,Kaithal,"Rishi Nagar, Kaithal - HSPCB",04-04-2024 15:00:00,29.8006,76.4155,NH3,8,8,8
India,Haryana,Kaithal,"Rishi Nagar, Kaithal - HSPCB",04-04-2024 15:00:00,29.8006,76.4155,CO,4,37,11
India,Haryana,Karnal,"Sector-12, Karnal - HSPCB",04-04-2024 15:00:00,29.695300,77.002700,CO,8,50,24
India,Haryana,Mandikhera,"General Hospital, Mandikhera - HSPCB",04-04-2024 15:00:00,27.9002,76.9938,PM10,67,160,120
India,Haryana,Mandikhera,"General Hospital, Mandikhera - HSPCB",04-04-2024 15:00:00,27.9002,76.9938,SO2,31,36,34
India,Haryana,Mandikhera,"General Hospital, Mandikhera - HSPCB",04-04-2024 15:00:00,27.9002,76.9938,CO,8,36,26
India,Haryana,Manesar,"Sector-2 IMT, Manesar - HSPCB",04-04-2024 15:00:00,28.360699,76.936090,PM2.5,53,278,144
India,Haryana,Narnaul,"Shastri Nagar, Narnaul - HSPCB",04-04-2024 15:00:00,28.060249,76.113115,SO2,13,13,13
India,Haryana,Palwal,"Shyam Nagar, Palwal - HSPCB",04-04-2024 15:00:00,28.1485564,77.3320667,PM2.5,56,80,68
India,Haryana,Palwal,"Shyam Nagar, Palwal - HSPCB",04-04-2024 15:00:00,28.1485564,77.3320667,SO2,10,22,17
India,Haryana,Panchkula,"Sector-6, Panchkula - HSPCB ",04-04-2024 15:00:00,30.7057778,76.8531805555555,CO,25,28,27
India,Haryana,Panchkula,"Sector-6, Panchkula - HSPCB ",04-04-2024 15:00:00,30.7057778,76.8531805555555,OZONE,39,43,42
India,Haryana,Panipat,"Sector-18, Panipat - HSPCB",04-04-2024 15:00:00,29.497973,76.993331,PM2.5,49,95,83
India,Haryana,Panipat,"Sector-18, Panipat - HSPCB",04-04-2024 15:00:00,29.497973,76.993331,PM10,64,70,66
India,Haryana,Rohtak,"MD University, Rohtak - HSPCB",04-04-2024 15:00:00,28.52123,76.37138,OZONE,45,52,48
India,Haryana,Sirsa,"F-Block, Sirsa - HSPCB",04-04-2024 15:00:00,29.536400,75.015800,OZONE,24,140,75
India,Haryana,Sonipat,"Murthal, Sonipat - HSPCB",04-04-2024 15:00:00,29.027200,77.062100,OZONE,16,36,27
India,Haryana,Yamuna Nagar,"Gobind Pura, Yamuna Nagar - HSPCB",04-04-2024 15:00:00,30.1480566,77.2893471,PM10,72,139,100
India,Haryana,Yamuna Nagar,"Gobind Pura, Yamuna Nagar - HSPCB",04-04-2024 15:00:00,30.1480566,77.2893471,SO2,2,101,17
India,Himachal Pradesh,Baddi,"HIMUDA Complex Phase-1, Baddi - HPPCB",04-04-2024 15:00:00,30.943887,76.801991,SO2,11,119,45
India,Himachal Pradesh,Baddi,"HIMUDA Complex Phase-1, Baddi - HPPCB",04-04-2024 15:00:00,30.943887,76.801991,OZONE,42,143,96
India,Jharkhand,Dhanbad,"Kalakusuma, Dhanbad - DMC",04-04-2024 15:00:00,23.811548,86.481238,PM10,63,493,174
India,Jharkhand,Dhanbad,"Kalakusuma, Dhanbad - DMC",04-04-2024 15:00:00,23.811548,86.481238,SO2,9,132,22
India,Jharkhand,Dhanbad,"Kalakusuma, Dhanbad - DMC",04-04-2024 15:00:00,23.811548,86.481238,CO,125,136,131
India,Jharkhand,Dhanbad,"Sardar Patel Nagar, Dhanbad - JSPCB",04-04-2024 15:00:00,23.80569,86.44268,PM10,37,482,172
India,Jharkhand,Dhanbad,"Sardar Patel Nagar, Dhanbad - JSPCB",04-04-2024 15:00:00,23.80569,86.44268,CO,29,175,93
India,Karnataka,Bagalkot,"Vidayagiri, Bagalkot - KSPCB",04-04-2024 15:00:00,16.172806,75.659694,NO2,9,10,9
India,Karnataka,Bagalkot,"Vidayagiri, Bagalkot - KSPCB",04-04-2024 15:00:00,16.172806,75.659694,OZONE,15,56,31
India,Karnataka,Belgaum,"Ramteerth Nagar, Belgaum - KSPCB",04-04-2024 15:00:00,15.888653,74.541751,NO2,21,31,26
India,Karnataka,Belgaum,"Ramteerth Nagar, Belgaum - KSPCB",04-04-2024 15:00:00,15.888653,74.541751,CO,42,69,65
India,Karnataka,Bengaluru,"Bapuji Nagar, Bengaluru - KSPCB",04-04-2024 15:00:00,12.951913,77.539784,NO2,8,13,10
India,Karnataka,Bengaluru,"Bapuji Nagar, Bengaluru - KSPCB",04-04-2024 15:00:00,12.951913,77.539784,NH3,1,1,1
India,Karnataka,Bengaluru,"Bapuji Nagar, Bengaluru - KSPCB",04-04-2024 15:00:00,12.951913,77.539784,SO2,3,8,6
India,Karnataka,Bengaluru,"Bapuji Nagar, Bengaluru - KSPCB",04-04-2024 15:00:00,12.951913,77.539784,OZONE,2,26,18
India,Karnataka,Bengaluru,"Hebbal, Bengaluru - KSPCB",04-04-2024 15:00:00,13.029152,77.585901,PM10,NA,NA,NA
India,Karnataka,Bengaluru,"Hombegowda Nagar, Bengaluru - KSPCB",04-04-2024 15:00:00,12.938539,77.590100,SO2,3,4,4
India,Karnataka,Bengaluru,"Hombegowda Nagar, Bengaluru - KSPCB",04-04-2024 15:00:00,12.938539,77.590100,CO,12,20,12
India,Karnataka,Bengaluru,"Jayanagar 5th Block, Bengaluru - KSPCB",04-04-2024 15:00:00,12.920984,77.584908,NO2,5,12,9
India,Karnataka,Bengaluru,"Jigani, Bengaluru - KSPCB",04-04-2024 15:00:00,12.7816279,77.6299145,SO2,16,16,16
India,Karnataka,Bengaluru,"Kasturi Nagar, Bengaluru - KSPCB",04-04-2024 15:00:00,13.003872,77.664217,PM2.5,67,476,124
India,Karnataka,Bengaluru,"RVCE-Mailasandra, Bengaluru - KSPCB",04-04-2024 15:00:00,12.921418,77.502466,PM2.5,49,137,86
India,Karnataka,Bengaluru,"RVCE-Mailasandra, Bengaluru - KSPCB",04-04-2024 15:00:00,12.921418,77.502466,PM10,63,125,95
India,Karnataka,Bengaluru,"Sanegurava Halli, Bengaluru - KSPCB",04-04-2024 15:00:00,12.990328,77.5431385,SO2,2,3,3
India,Karnataka,Bengaluru,"Shivapura_Peenya, Bengaluru - KSPCB",04-04-2024 15:00:00,13.0246342,77.5080115,SO2,4,19,12
India,Karnataka,Bengaluru,"Silk Board, Bengaluru - KSPCB",04-04-2024 15:00:00,12.917348,77.622813,NO2,19,26,21
India,Karnataka,Bidar,"Naubad, Bidar - KSPCB",04-04-2024 15:00:00,17.930306,77.482194,NH3,2,3,3
India,Karnataka,Chikkamagaluru,"Kalyana Nagara, Chikkamagaluru - KSPCB",04-04-2024 15:00:00,13.328028,75.797056,OZONE,22,72,44
India,Karnataka,Gadag,"Panchal Nagar, Gadag - KSPCB",04-04-2024 15:00:00,15.411456,75.638133,NH3,1,4,2
India,Karnataka,Gadag,"Panchal Nagar, Gadag - KSPCB",04-04-2024 15:00:00,15.411456,75.638133,SO2,10,16,14
India,Karnataka,Hassan,"B.Katihalli, Hassan - KSPCB",04-04-2024 15:00:00,13.008556,76.125258,PM2.5,45,97,69
India,Karnataka,Haveri,"Ashwini Nagar, Haveri - KSPCB",04-04-2024 15:00:00,14.791800,75.389600,NH3,2,4,3
India,Karnataka,Hubballi,"Lingaraj Nagar, Hubballi - KSPCB",04-04-2024 15:00:00,15.3714823,75.1160168,PM2.5,38,64,50
India,Karnataka,Hubballi,"Lingaraj Nagar, Hubballi - KSPCB",04-04-2024 15:00:00,15.3714823,75.1160168,OZONE,10,53,29
India,Karnataka,Kalaburagi,"Mahatma Basaveswar Colony, Kalaburgi - KSPCB",04-04-2024 15:00:00,17.336318,76.847397,NO2,9,18,13
India,Karnataka,Kalaburagi,"Mahatma Basaveswar Colony, Kalaburgi - KSPCB",04-04-2024 15:00:00,17.336318,76.847397,NH3,2,4,3
India,Karnataka,Kalaburagi,"Mahatma Basaveswar Colony, Kalaburgi - KSPCB",04-04-2024 15:00:00,17.336318,76.847397,OZONE,4,14,9
India,Karnataka,Karwar,"KHB Colony, Karwar - KSPCB",04-04-2024 15:00:00,14.816666,74.141003,OZONE,21,22,21
India,Karnataka,Kolar,"Tamaka Ind. Area, Kolar - KSPCB",04-04-2024 15:00:00,13.1276288,78.1570122,PM2.5,NA,NA,NA
India,Karnataka,Kolar,"Tamaka Ind. Area, Kolar - KSPCB",04-04-2024 15:00:00,13.1276288,78.1570122,SO2,12,19,14
India,Karnataka,Koppal,"Diwator Nagar, Koppal - KSPCB",04-04-2024 15:00:00,15.347630,76.181767,OZONE,22,70,50
India,Karnataka,Mangalore,"Kadri, Mangalore - KSPCB",04-04-2024 15:00:00,12.889250,74.853000,SO2,NA,NA,NA
India,Karnataka,Raichur,"Haji Colony, Raichur - KSPCB",04-04-2024 15:00:00,16.208139,77.348417,PM2.5,19,61,33
India,Karnataka,Tumakuru,"Thimmalapura, Tumakuru - KSPCB",04-04-2024 15:00:00,13.377516,77.099072,CO,29,34,32
India,Karnataka,Udupi,"Brahmagiri, Udupi - KSPCB",04-04-2024 15:00:00,13.34194444,74.74694444,NO2,NA,NA,NA
India,Karnataka,Udupi,"Brahmagiri, Udupi - KSPCB",04-04-2024 15:00:00,13.34194444,74.74694444,SO2,NA,NA,NA
India,Karnataka,Yadgir,"Collector Office, Yadgir - KSPCB",04-04-2024 15:00:00,16.7602,77.1428,PM10,62,113,86
India,Kerala,Eloor,"Udyogamandal, Eloor - Kerala PCB",04-04-2024 15:00:00,10.073232,76.302765,PM2.5,31,46,37
India,Kerala,Kollam,"Polayathode, Kollam - Kerala PCB",04-04-2024 15:00:00,8.8787,76.6073,PM2.5,16,115,45
India,Kerala,Thiruvananthapuram,"Plammoodu, Thiruvananthapuram - Kerala PCB",04-04-2024 15:00:00,8.5149093,76.9435879,PM10,12,47,32
India,Kerala,Thiruvananthapuram,"Plammoodu, Thiruvananthapuram - Kerala PCB",04-04-2024 15:00:00,8.5149093,76.9435879,NH3,1,1,1
India,Kerala,Thrissur,"Corporation Ground, Thrissur - Kerala PCB",04-04-2024 15:00:00,10.532400,76.215900,NO2,6,8,7
India,Madhya Pradesh,Bhopal,"Idgah Hills, Bhopal - MPPCB",04-04-2024 15:00:00,23.264759,77.381568,CO,25,72,31
India,Madhya Pradesh,Bhopal,"Paryavaran Parisar, Bhopal - MPPCB",04-04-2024 15:00:00,23.210494,77.425409,PM10,54,153,99
India,Madhya Pradesh,Bhopal,"Paryavaran Parisar, Bhopal - MPPCB",04-04-2024 15:00:00,23.210494,77.425409,OZONE,22,99,67
India,Madhya Pradesh,Bhopal,"T T Nagar, Bhopal - MPPCB",04-04-2024 15:00:00,23.233584,77.400574,OZONE,41,113,69
India,Madhya Pradesh,Gwalior,"Deen Dayal Nagar, Gwalior - MPPCB",04-04-2024 15:00:00,26.259242,78.216432,PM10,88,203,147
India,Madhya Pradesh,Gwalior,"Deen Dayal Nagar, Gwalior - MPPCB",04-04-2024 15:00:00,26.259242,78.216432,NO2,22,76,44
India,Madhya Pradesh,Gwalior,"Deen Dayal Nagar, Gwalior - MPPCB",04-04-2024 15:00:00,26.259242,78.216432,SO2,12,22,16
India,Madhya Pradesh,Gwalior,"Maharaj Bada, Gwalior - MPPCB",04-04-2024 15:00:00,26.200388,78.147714,NH3,3,25,9
India,Madhya Pradesh,Gwalior,"Maharaj Bada, Gwalior - MPPCB",04-04-2024 15:00:00,26.200388,78.147714,SO2,17,73,28
India,Madhya Pradesh,Indore,"Chhoti Gwaltoli, Indore - MPPCB",04-04-2024 15:00:00,22.4310,75.5213,CO,49,102,64
India,Madhya Pradesh,Indore,"Maguda Nagar, Indore - IMC",04-04-2024 15:00:00,22.7524,75.8872,PM10,45,105,66
India,Madhya Pradesh,Indore,"Maguda Nagar, Indore - IMC",04-04-2024 15:00:00,22.7524,75.8872,OZONE,37,49,43
India,Madhya Pradesh,Indore,"Residency Area, Indore - IMC",04-04-2024 15:00:00,22.7084,75.8815,PM10,50,157,84
India,Madhya Pradesh,Indore,"Residency Area, Indore - IMC",04-04-2024 15:00:00,22.7084,75.8815,NO2,12,15,14
India,Madhya Pradesh,Indore,"Residency Area, Indore - IMC",04-04-2024 15:00:00,22.7084,75.8815,SO2,28,32,30
India,Madhya Pradesh,Indore,"Residency Area, Indore - IMC",04-04-2024 15:00:00,22.7084,75.8815,CO,14,18,14
India,Madhya Pradesh,Jabalpur,"Govindh Bhavan Colony, Jabalpur - JMC",04-04-2024 15:00:00,23.163174,79.973061,PM10,73,200,117
India,Madhya Pradesh,Jabalpur,"Govindh Bhavan Colony, Jabalpur - JMC",04-04-2024 15:00:00,23.163174,79.973061,NH3,8,21,14
India,Madhya Pradesh,Jabalpur,"Govindh Bhavan Colony, Jabalpur - JMC",04-04-2024 15:00:00,23.163174,79.973061,SO2,8,24,16
India,Madhya Pradesh,Jabalpur,"Govindh Bhavan Colony, Jabalpur - JMC",04-04-2024 15:00:00,23.163174,79.973061,CO,11,54,29
India,Madhya Pradesh,Jabalpur,"Gupteshwar, Jabalpur - JMC",04-04-2024 15:00:00,23.142888,79.916147,NH3,5,9,6
India,Madhya Pradesh,Jabalpur,"Marhatal, Jabalpur - MPPCB",04-04-2024 15:00:00,23.168606,79.932247,PM10,105,223,159
India,Madhya Pradesh,Jabalpur,"Marhatal, Jabalpur - MPPCB",04-04-2024 15:00:00,23.168606,79.932247,NO2,10,80,37
India,Madhya Pradesh,Jabalpur,"Suhagi, Jabalpur - JMC",04-04-2024 15:00:00,23.218135,79.957770,PM10,65,191,113
India,Madhya Pradesh,Katni,"Gole Bazar, Katni - MPPCB",04-04-2024 15:00:00,23.50016,80.23284,PM10,90,427,170
India,Madhya Pradesh,Maihar,"Sahilara, Maihar - KJS Cements",04-04-2024 15:00:00,24.2613009,80.7231783,NO2,23,30,25
India,Madhya Pradesh,Mandideep,"Sector-D Industrial Area, Mandideep - MPPCB",04-04-2024 15:00:00,23.108440,77.511428,NO2,2,62,19
India,Madhya Pradesh,Mandideep,"Sector-D Industrial Area, Mandideep - MPPCB",04-04-2024 15:00:00,23.108440,77.511428,SO2,4,28,13
India,Madhya Pradesh,Pithampur,"Sector-2 Industrial Area, Pithampur - MPPCB",04-04-2024 15:00:00,22.624758,75.675238,PM2.5,32,232,78
India,Madhya Pradesh,Pithampur,"Sector-2 Industrial Area, Pithampur - MPPCB",04-04-2024 15:00:00,22.624758,75.675238,SO2,14,18,16
India,Madhya Pradesh,Pithampur,"Sector-2 Industrial Area, Pithampur - MPPCB",04-04-2024 15:00:00,22.624758,75.675238,OZONE,33,80,51
India,Madhya Pradesh,Ratlam,"Shasthri Nagar, Ratlam - IPCA Lab",04-04-2024 15:00:00,23.331731,75.045981,NO2,13,34,22
India,Madhya Pradesh,Sagar,"Civil Lines, Sagar - MPPCB",04-04-2024 15:00:00,23.838586,78.759431,PM2.5,20,109,64
India,Madhya Pradesh,Sagar,"Civil Lines, Sagar - MPPCB",04-04-2024 15:00:00,23.838586,78.759431,PM10,89,230,119
India,Madhya Pradesh,Sagar,"Civil Lines, Sagar - MPPCB",04-04-2024 15:00:00,23.838586,78.759431,NH3,4,7,5
India,Madhya Pradesh,Sagar,"Deen Dayal Nagar, Sagar - MPPCB",04-04-2024 15:00:00,23.8640158,78.80289321,SO2,5,17,10
India,Madhya Pradesh,Satna,"Bandhavgar Colony, Satna - Birla Cement",04-04-2024 15:00:00,24.58434363,80.8549414,PM2.5,NA,NA,NA
India,Madhya Pradesh,Satna,"Bandhavgar Colony, Satna - Birla Cement",04-04-2024 15:00:00,24.58434363,80.8549414,PM10,NA,NA,NA
India,Madhya Pradesh,Singrauli,"Suryakiran Bhawan NCL, Singrauli - MPPCB",04-04-2024 15:00:00,24.108970,82.645580,NH3,4,6,5
India,Madhya Pradesh,Ujjain,"Mahakaleshwar Temple, Ujjain - MPPCB",04-04-2024 15:00:00,23.182719 ,75.768218 ,CO,4,103,22
India,Maharashtra,Ahmednagar,"Tarakpur, Ahmednagar - MPCB",04-04-2024 15:00:00,19.10122,74.73339,SO2,NA,NA,NA
India,Maharashtra,Akola,"Ramdaspeth, Akola - MPCB",04-04-2024 15:00:00,20.719516,77.000253,PM2.5,31,119,72
India,Maharashtra,Akola,"Ramdaspeth, Akola - MPCB",04-04-2024 15:00:00,20.719516,77.000253,CO,14,115,22
India,Maharashtra,Amravati,"Shivneri Colony, Amravati - MPCB",04-04-2024 15:00:00,20.9402359,77.7895248,NO2,12,79,37
India,Maharashtra,Amravati,"Shivneri Colony, Amravati - MPCB",04-04-2024 15:00:00,20.9402359,77.7895248,SO2,22,23,22
India,Maharashtra,Amravati,"Shri Shivaji Science College, Amaravati - MPCB",04-04-2024 15:00:00,20.939198,77.765701,PM2.5,85,144,100
India,Maharashtra,Amravati,"Shri Shivaji Science College, Amaravati - MPCB",04-04-2024 15:00:00,20.939198,77.765701,PM10,111,169,131
India,Maharashtra,Aurangabad,"MIDC Chilkalthana, Aurangabad - MPCB",04-04-2024 15:00:00,19.875620,75.387310,OZONE,10,75,50
India,Maharashtra,Aurangabad,"More Chowk Waluj, Aurangabad - MPCB",04-04-2024 15:00:00,19.8389439,75.244448,PM10,25,123,79
India,Maharashtra,Aurangabad,"Rachnakar Colony, Aurangabad - MPCB",04-04-2024 15:00:00,19.863756,75.321188,NH3,1,1,1
India,Maharashtra,Aurangabad,"Rachnakar Colony, Aurangabad - MPCB",04-04-2024 15:00:00,19.863756,75.321188,SO2,4,73,36
India,Maharashtra,Badlapur,"Katrap, Badlapur - MPCB",04-04-2024 15:00:00,19.16485,73.23409,PM10,88,171,123
India,Maharashtra,Badlapur,"Katrap, Badlapur - MPCB",04-04-2024 15:00:00,19.16485,73.23409,NH3,1,3,2
India,Maharashtra,Badlapur,"Katrap, Badlapur - MPCB",04-04-2024 15:00:00,19.16485,73.23409,OZONE,2,159,33
India,Maharashtra,Belapur,"CBD Belapur, Belapur - MPCB",04-04-2024 15:00:00,19.0243902,73.0406721,PM2.5,33,97,62
India,Maharashtra,Belapur,"CBD Belapur, Belapur - MPCB",04-04-2024 15:00:00,19.0243902,73.0406721,CO,20,32,27
India,Maharashtra,Belapur,"CBD Belapur, Belapur - MPCB",04-04-2024 15:00:00,19.0243902,73.0406721,OZONE,10,154,92
India,Maharashtra,Bhiwandi,"Gokul Nagar, Bhiwandi - MPCB",04-04-2024 15:00:00,19.309073,73.057223,NO2,15,71,34
India,Maharashtra,Chandrapur,"Chauhan Colony, Chandrapur - MPCB",04-04-2024 15:00:00,19.962900,79.298714,PM10,72,114,96
India,Maharashtra,Chandrapur,"Chauhan Colony, Chandrapur - MPCB",04-04-2024 15:00:00,19.962900,79.298714,SO2,5,88,30
India,Maharashtra,Chandrapur,"MIDC Khutala, Chandrapur - MPCB",04-04-2024 15:00:00,19.9775302,79.2337086,PM2.5,62,114,84
India,Maharashtra,Chandrapur,"MIDC Khutala, Chandrapur - MPCB",04-04-2024 15:00:00,19.9775302,79.2337086,NO2,28,76,53
India,Maharashtra,Dhule,"Deopur, Dhule - MPCB",04-04-2024 15:00:00,20.918946,74.776388,NO2,3,27,10
India,Maharashtra,Jalgaon,"Prabhat Colony, Jalgaon - MPCB",04-04-2024 15:00:00,21.001264,75.565602,PM2.5,33,230,94
India,Maharashtra,Kalyan,"Khadakpada, Kalyan - MPCB",04-04-2024 15:00:00,19.25292,73.142019,CO,17,21,19
India,Maharashtra,Kolhapur,"Shivaji University, Kolhapur - MPCB",04-04-2024 15:00:00,16.6870449,74.2505872,PM2.5,63,320,160
India,Maharashtra,Kolhapur,"Shivaji University, Kolhapur - MPCB",04-04-2024 15:00:00,16.6870449,74.2505872,NO2,14,27,20
India,Maharashtra,Kolhapur,"Shivaji University, Kolhapur - MPCB",04-04-2024 15:00:00,16.6870449,74.2505872,SO2,5,18,7
India,Maharashtra,Kolhapur,"Shivaji University, Kolhapur - MPCB",04-04-2024 15:00:00,16.6870449,74.2505872,OZONE,1,110,50
India,Maharashtra,Kolhapur,"Sinchan Bhavan, Kolhapur - MPCB",04-04-2024 15:00:00,16.7143745,74.2426398,SO2,1,10,3
India,Maharashtra,Mahad,"Kamble Tarf Birwadi, Mahad - MPCB",04-04-2024 15:00:00,18.1023399,73.4783687,NO2,22,59,29
India,Maharashtra,Mahad,"Kamble Tarf Birwadi, Mahad - MPCB",04-04-2024 15:00:00,18.1023399,73.4783687,OZONE,5,68,30
India,Maharashtra,Malegaon,"Mahesh Nagar, Malegaon - MPCB",04-04-2024 15:00:00,20.555712,74.529236,SO2,5,17,10
India,Maharashtra,Mira-Bhayandar,"Bhayandar West, Mira-Bhayandar - MPCB",04-04-2024 15:00:00,19.296481,72.840923,NH3,3,6,4
India,Maharashtra,Mumbai,"Bandra Kurla Complex, Mumbai - MPCB",04-04-2024 15:00:00,19.065931,72.862131,NO2,NA,NA,NA
India,Maharashtra,Mumbai,"Bandra Kurla Complex, Mumbai - MPCB",04-04-2024 15:00:00,19.065931,72.862131,SO2,1,2,1
India,Maharashtra,Mumbai,"Bandra Kurla Complex, Mumbai - MPCB",04-04-2024 15:00:00,19.065931,72.862131,CO,16,29,19
India,Maharashtra,Mumbai,"Bandra Kurla Complex, Mumbai - MPCB",04-04-2024 15:00:00,19.065931,72.862131,OZONE,21,85,52
India,Maharashtra,Mumbai,"Borivali East, Mumbai - MPCB",04-04-2024 15:00:00,19.2243333,72.8658113,NO2,4,19,11
India,Maharashtra,Mumbai,"Borivali East, Mumbai - MPCB",04-04-2024 15:00:00,19.2243333,72.8658113,SO2,5,7,6
India,Maharashtra,Mumbai,"Borivali East, Mumbai - MPCB",04-04-2024 15:00:00,19.2243333,72.8658113,CO,1,37,19
India,Maharashtra,Mumbai,"Byculla, Mumbai - BMC",04-04-2024 15:00:00,18.9767,72.8380,NH3,3,4,3
India,Maharashtra,Mumbai,"Byculla, Mumbai - BMC",04-04-2024 15:00:00,18.9767,72.8380,CO,10,28,14
India,Maharashtra,Mumbai,"Chembur, Mumbai - MPCB",04-04-2024 15:00:00,19.0364585,72.8954371,NH3,3,3,3
India,Maharashtra,Mumbai,"Chhatrapati Shivaji Intl. Airport (T2), Mumbai - MPCB",04-04-2024 15:00:00,19.10078,72.87462,PM2.5,45,80,63
India,Maharashtra,Mumbai,"Colaba, Mumbai - MPCB",04-04-2024 15:00:00,18.910000,72.820000,NO2,19,23,20
India,Maharashtra,Mumbai,"Ghatkopar, Mumbai - BMC",04-04-2024 15:00:00,19.083694,72.920967,PM10,46,99,78
India,Maharashtra,Mumbai,"Kherwadi_Bandra East, Mumbai - MPCB",04-04-2024 15:00:00,19.0632143,72.8456324,PM10,64,125,98
India,Maharashtra,Mumbai,"Kherwadi_Bandra East, Mumbai - MPCB",04-04-2024 15:00:00,19.0632143,72.8456324,NO2,8,64,30
India,Maharashtra,Mumbai,"Khindipada-Bhandup West, Mumbai - IITM",04-04-2024 15:00:00,19.1653323,72.922099,PM10,30,117,71
India,Maharashtra,Mumbai,"Kurla, Mumbai - MPCB",04-04-2024 15:00:00,19.0863,72.8888,PM2.5,20,109,48
India,Maharashtra,Mumbai,"Kurla, Mumbai - MPCB",04-04-2024 15:00:00,19.0863,72.8888,NO2,14,20,17
India,Maharashtra,Mumbai,"Mindspace-Malad West, Mumbai - MPCB",04-04-2024 15:00:00,19.1878657,72.8304069,PM2.5,33,68,50
India,Maharashtra,Mumbai,"Mindspace-Malad West, Mumbai - MPCB",04-04-2024 15:00:00,19.1878657,72.8304069,CO,12,36,15
India,Maharashtra,Mumbai,"Powai, Mumbai - MPCB",04-04-2024 15:00:00,19.137500,72.915056,NH3,NA,NA,NA
India,Maharashtra,Mumbai,"Powai, Mumbai - MPCB",04-04-2024 15:00:00,19.137500,72.915056,OZONE,23,87,45
India,Maharashtra,Mumbai,"Sewri, Mumbai - BMC",04-04-2024 15:00:00,19.000084,72.856730,OZONE,2,49,28
India,Maharashtra,Mumbai,"Shivaji Nagar, Mumbai - BMC",04-04-2024 15:00:00,19.060498,72.923356,NO2,32,115,67
India,Maharashtra,Mumbai,"Shivaji Nagar, Mumbai - BMC",04-04-2024 15:00:00,19.060498,72.923356,NH3,4,8,5
India,Maharashtra,Mumbai,"Siddharth Nagar-Worli, Mumbai - IITM",04-04-2024 15:00:00,19.000083,72.813993,PM10,NA,NA,NA
India,Maharashtra,Mumbai,"Sion, Mumbai - MPCB",04-04-2024 15:00:00,19.047000,72.874600,NO2,13,37,25
India,Maharashtra,Mumbai,"Vasai West, Mumbai - MPCB",04-04-2024 15:00:00,19.383200,72.820400,OZONE,15,59,26
India,Maharashtra,Mumbai,"Vile Parle West, Mumbai - MPCB",04-04-2024 15:00:00,19.10861,72.83622,OZONE,2,3,3
India,Maharashtra,Mumbai,"Worli, Mumbai - MPCB",04-04-2024 15:00:00,18.9936162,72.8128113,NO2,14,15,15
India,Maharashtra,Nagpur,"Ambazari, Nagpur - MPCB",04-04-2024 15:00:00,21.121801,79.04952,NH3,NA,NA,NA
India,Maharashtra,Nagpur,"Ambazari, Nagpur - MPCB",04-04-2024 15:00:00,21.121801,79.04952,SO2,NA,NA,NA
India,Maharashtra,Nagpur,"Ambazari, Nagpur - MPCB",04-04-2024 15:00:00,21.121801,79.04952,CO,6,96,8
India,Maharashtra,Nagpur,"Mahal, Nagpur - MPCB",04-04-2024 15:00:00,21.14472,79.107595,PM2.5,80,231,134
India,Maharashtra,Nagpur,"Opp GPO Civil Lines, Nagpur - MPCB",04-04-2024 15:00:00,21.152875,79.0517531,PM2.5,71,273,163
India,Maharashtra,Nagpur,"Opp GPO Civil Lines, Nagpur - MPCB",04-04-2024 15:00:00,21.152875,79.0517531,NH3,3,17,8
India,Maharashtra,Nagpur,"Ram Nagar, Nagpur - MPCB",04-04-2024 15:00:00,21.143383,79.048912,NO2,11,135,47
India,Maharashtra,Nanded,"Sneh Nagar, Nanded - MPCB",04-04-2024 15:00:00,19.173852,77.296291,PM10,86,159,119
India,Maharashtra,Nanded,"Sneh Nagar, Nanded - MPCB",04-04-2024 15:00:00,19.173852,77.296291,SO2,4,13,8
India,Maharashtra,Nashik,"Gangapur Road, Nashik - MPCB",04-04-2024 15:00:00,20.0073285,73.7762427,NO2,12,21,17
India,Maharashtra,Nashik,"Hirawadi, Nashik - MPCB",04-04-2024 15:00:00,20.021503,73.813844,PM2.5,6,83,58
India,Maharashtra,Nashik,"Pandav Nagari, Nashik - MPCB",04-04-2024 15:00:00,19.9591346,73.7788008,PM10,54,120,80
India,Maharashtra,Navi Mumbai,"Nerul, Navi Mumbai - MPCB",04-04-2024 15:00:00,19.008751,73.016620,CO,28,50,45
India,Maharashtra,Navi Mumbai,"Sanpada, Navi Mumbai - MPCB",04-04-2024 15:00:00,19.0575752,73.0151367,CO,8,24,16
India,Maharashtra,Navi Mumbai,"Sector-19A Nerul, Navi Mumbai - IITM",04-04-2024 15:00:00,19.044,73.0325,CO,6,70,34
India,Maharashtra,Navi Mumbai,"Sector-2E Kalamboli, Navi Mumbai - MPCB",04-04-2024 15:00:00,19.02579,73.10297,PM2.5,37,66,51
India,Maharashtra,Navi Mumbai,"Sector-2E Kalamboli, Navi Mumbai - MPCB",04-04-2024 15:00:00,19.02579,73.10297,CO,10,50,27
India,Maharashtra,Parbhani,"Masoom Colony, Parbhani - MPCB",04-04-2024 15:00:00,19.265594,76.761463,PM10,108,269,152
India,Maharashtra,Pimpri-Chinchwad,"Park Street Wakad, Pimpri Chinchwad - MPCB",04-04-2024 15:00:00,18.59051,73.77946,PM2.5,163,348,250
India,Maharashtra,Pimpri-Chinchwad,"Park Street Wakad, Pimpri Chinchwad - MPCB",04-04-2024 15:00:00,18.59051,73.77946,CO,8,59,35
India,Maharashtra,Pune,"Katraj Dairy, Pune - MPCB",04-04-2024 15:00:00,18.454450,73.854155,PM10,76,126,95
India,Maharashtra,Pune,"Mhada Colony, Pune - IITM",04-04-2024 15:00:00,18.573040,73.927715,PM2.5,33,92,64
India,Maharashtra,Pune,"Mhada Colony, Pune - IITM",04-04-2024 15:00:00,18.573040,73.927715,NO2,4,17,11
India,Maharashtra,Pune,"Revenue Colony-Shivajinagar, Pune - IITM",04-04-2024 15:00:00,18.530085,73.849598,PM2.5,14,66,36
India,Maharashtra,Pune,"Revenue Colony-Shivajinagar, Pune - IITM",04-04-2024 15:00:00,18.530085,73.849598,SO2,67,119,100
India,Maharashtra,Pune,"Savitribai Phule Pune University, Pune - MPCB",04-04-2024 15:00:00,18.547056,73.826908,PM10,73,135,106
India,Maharashtra,Pune,"Savitribai Phule Pune University, Pune - MPCB",04-04-2024 15:00:00,18.547056,73.826908,NO2,9,31,18
India,Maharashtra,Solapur,"Dnyaneshwar Nagar, Solapur - MPCB",04-04-2024 15:00:00,17.6336264,75.9132495,OZONE,30,108,62
India,Maharashtra,Solapur,"Ratandeep Housing Society, Solapur - MPCB",04-04-2024 15:00:00,17.65439,75.90649,PM10,99,132,118
India,Maharashtra,Solapur,"Ratandeep Housing Society, Solapur - MPCB",04-04-2024 15:00:00,17.65439,75.90649,NO2,21,106,52
India,Maharashtra,Solapur,"Ratandeep Housing Society, Solapur - MPCB",04-04-2024 15:00:00,17.65439,75.90649,SO2,9,18,11
India,Maharashtra,Solapur,"Ratandeep Housing Society, Solapur - MPCB",04-04-2024 15:00:00,17.65439,75.90649,OZONE,21,169,83
India,Maharashtra,Thane,"Kasarvadavali, Thane - MPCB",04-04-2024 15:00:00,19.26777,72.97182,PM2.5,53,90,71
India,Maharashtra,Thane,"Kasarvadavali, Thane - MPCB",04-04-2024 15:00:00,19.26777,72.97182,PM10,74,140,107
India,Maharashtra,Thane,"Pimpleshwar Mandir, Thane - MPCB",04-04-2024 15:00:00,19.192056,72.9585188,NO2,26,56,41
India,Maharashtra,Ulhasnagar,"Sidhi Vinayak Nagar, Ulhasnagar - MPCB",04-04-2024 15:00:00,19.235581,73.159121,CO,8,46,20
India,Maharashtra,Virar,"Bolinj, Virar - MPCB",04-04-2024 15:00:00,19.4458210,72.7988231,NO2,6,66,23
India,Manipur,Imphal,"DM College of Science, Imphal - Manipur PCB",04-04-2024 15:00:00,24.8207389,93.9423085,PM10,19,69,39
India,Manipur,Imphal,"DM College of Science, Imphal - Manipur PCB",04-04-2024 15:00:00,24.8207389,93.9423085,SO2,93,98,95
India,Manipur,Imphal,"DM College of Science, Imphal - Manipur PCB",04-04-2024 15:00:00,24.8207389,93.9423085,CO,6,6,6
India,Manipur,Imphal,"Manipur University, Imphal - Manipur PCB",04-04-2024 15:00:00,24.7524239,93.9286218,NH3,1,1,1
India,Meghalaya,Shillong,"Lumpyngngad, Shillong - Meghalaya PCB",04-04-2024 15:00:00,25.5586,91.8985,PM10,37,245,105
India,Meghalaya,Shillong,"Lumpyngngad, Shillong - Meghalaya PCB",04-04-2024 15:00:00,25.5586,91.8985,SO2,39,47,42
India,Meghalaya,Shillong,"Lumpyngngad, Shillong - Meghalaya PCB",04-04-2024 15:00:00,25.5586,91.8985,CO,8,12,9
India,Meghalaya,Shillong,"Lumpyngngad, Shillong - Meghalaya PCB",04-04-2024 15:00:00,25.5586,91.8985,OZONE,132,275,156
India,Nagaland,Kohima,"PWD Juction, Kohima - NPCB",04-04-2024 15:00:00,25.6635413,94.0989878,PM2.5,82,200,110
India,Nagaland,Kohima,"PWD Juction, Kohima - NPCB",04-04-2024 15:00:00,25.6635413,94.0989878,SO2,31,32,31
India,Nagaland,Kohima,"PWD Juction, Kohima - NPCB",04-04-2024 15:00:00,25.6635413,94.0989878,OZONE,9,27,18
India,Odisha,Angul,"Hakimapada, Angul - OSPCB",04-04-2024 15:00:00,20.832874,85.104082,PM10,51,282,155
India,Odisha,Angul,"Hakimapada, Angul - OSPCB",04-04-2024 15:00:00,20.832874,85.104082,NH3,NA,NA,NA
India,Odisha,Barbil,"Forest Office, Barbil - OSPCB",04-04-2024 15:00:00,22.1166054,85.3945546,PM2.5,63,318,207
India,Odisha,Baripada,"Meher Colony, Baripada - OSPCB",04-04-2024 15:00:00,21.941841,86.728318,NO2,1,1,1
India,Odisha,Bhubaneswar,"Lingraj Mandir, Bhubaneswar - OSPCB",04-04-2024 15:00:00,20.240790,85.836784,PM2.5,27,200,74
India,Odisha,Bhubaneswar,"Lingraj Mandir, Bhubaneswar - OSPCB",04-04-2024 15:00:00,20.240790,85.836784,OZONE,15,74,35
India,Odisha,Bileipada,"Tata Township, Bileipada - OSPCB",04-04-2024 15:00:00,22.06156703,85.47409613,NO2,9,13,11
India,Odisha,Bileipada,"Tata Township, Bileipada - OSPCB",04-04-2024 15:00:00,22.06156703,85.47409613,SO2,NA,NA,NA
India,Odisha,Bileipada,"Tata Township, Bileipada - OSPCB",04-04-2024 15:00:00,22.06156703,85.47409613,CO,34,57,46
India,Odisha,Brajrajnagar,"GM Office, Brajrajnagar - OSPCB",04-04-2024 15:00:00,21.8004996,83.8396977,SO2,NA,NA,NA
India,Odisha,Brajrajnagar,"GM Office, Brajrajnagar - OSPCB",04-04-2024 15:00:00,21.8004996,83.8396977,OZONE,19,20,20
India,Odisha,Byasanagar,"Ferro Chrome Colony, Byasanagar - OSPCB",04-04-2024 15:00:00,20.94185,86.11510,SO2,3,19,8
India,Odisha,Byasanagar,"Ferro Chrome Colony, Byasanagar - OSPCB",04-04-2024 15:00:00,20.94185,86.11510,CO,73,102,85
India,Odisha,Cuttack,"CDA Area, Cuttack - OSPCB",04-04-2024 15:00:00,20.48891     ,85.84768     ,SO2,1,4,2
India,Odisha,Cuttack,"CDA Area, Cuttack - OSPCB",04-04-2024 15:00:00,20.48891     ,85.84768     ,OZONE,6,83,63
India,Odisha,Nayagarh,"Dabuna, Nayagarh - OSPCB",04-04-2024 15:00:00,21.847279,85.416905,CO,14,48,27
India,Odisha,Rourkela,"Raghunathpali, Rourkela - OSPCB",04-04-2024 15:00:00,22.220833,84.809444,NH3,1,3,2
India,Odisha,Talcher,"Talcher Coalfields,Talcher - OSPCB",04-04-2024 15:00:00,20.9360711,85.1707021,CO,8,58,26
India,Odisha,Talcher,"Talcher Coalfields,Talcher - OSPCB",04-04-2024 15:00:00,20.9360711,85.1707021,OZONE,16,50,19
India,Odisha,Tensa,"Barsua Iron Ore Mines, Tensa - OSPCB",04-04-2024 15:00:00,21.869985,85.167016,NH3,1,5,2
India,Punjab,Amritsar,"Golden Temple, Amritsar - PPCB",04-04-2024 15:00:00,31.620000,74.876512,OZONE,47,66,60
India,Punjab,Bathinda,"Hardev Nagar, Bathinda - PPCB",04-04-2024 15:00:00,30.233011,74.907758,PM2.5,23,93,60
India,Punjab,Ludhiana,"Punjab Agricultural University, Ludhiana - PPCB",04-04-2024 15:00:00,30.9028,75.8086,PM10,53,112,86
India,Punjab,Mandi Gobindgarh,"RIMT University, Mandi Gobindgarh - PPCB",04-04-2024 15:00:00,30.649961,76.331442,PM10,55,418,156
India,Punjab,Patiala,"Model Town, Patiala - PPCB",04-04-2024 15:00:00,30.349388,76.366642,NH3,6,7,6
India,Punjab,Rupnagar,"Ratanpura, Rupnagar - Ambuja Cements",04-04-2024 15:00:00,31.0325454,76.5623046,CO,30,48,36
India,Rajasthan,Ajmer,"Civil Lines,  Ajmer - RSPCB",04-04-2024 15:00:00,26.470859,74.646594,NO2,11,13,12
India,Rajasthan,Ajmer,"Civil Lines,  Ajmer - RSPCB",04-04-2024 15:00:00,26.470859,74.646594,NH3,5,5,5
India,Rajasthan,Ajmer,"Civil Lines,  Ajmer - RSPCB",04-04-2024 15:00:00,26.470859,74.646594,SO2,10,21,14
India,Rajasthan,Alwar,"Moti Doongri, Alwar - RSPCB",04-04-2024 15:00:00,27.554793,76.611536,NO2,27,59,42
India,Rajasthan,Banswara,"Rati Talai, Banswara - RSPCB",04-04-2024 15:00:00,23.555190,74.440010,PM10,94,314,164
India,Rajasthan,Banswara,"Rati Talai, Banswara - RSPCB",04-04-2024 15:00:00,23.555190,74.440010,NH3,4,6,5
India,Rajasthan,Baran,"Bamboliya, Baran - RSPCB",04-04-2024 15:00:00,25.106006,76.469948,PM2.5,26,121,69
India,Rajasthan,Barmer,"Railway Colony, Barmer - RSPCB",04-04-2024 15:00:00,25.747299,71.393989,NO2,9,34,16
India,Rajasthan,Bharatpur,"Krishna Nagar, Bharatpur - RSPCB",04-04-2024 15:00:00,27.215415,77.50873,NH3,3,7,5
India,Rajasthan,Bhiwadi,"RIICO Ind. Area III, Bhiwadi - RSPCB",04-04-2024 15:00:00,28.194909,76.862296,NH3,14,22,18
India,Rajasthan,Bhiwadi,"Vasundhara Nagar_UIT, Bhiwadi - RSPCB",04-04-2024 15:00:00,28.207266,76.829265,NH3,6,28,16
India,Rajasthan,Bundi,"New Colony, Bundi - RSPCB",04-04-2024 15:00:00,25.435774,75.644272,OZONE,5,87,65
India,Rajasthan,Chittorgarh,"Shastri Nagar, Chittorgarh - RSPCB",04-04-2024 15:00:00,24.892047,74.623527,PM2.5,NA,NA,NA
India,Rajasthan,Chittorgarh,"Shastri Nagar, Chittorgarh - RSPCB",04-04-2024 15:00:00,24.892047,74.623527,PM10,NA,NA,NA
India,Rajasthan,Churu,"Subash Chowk, Churu - RSPCB",04-04-2024 15:00:00,28.296139,74.961696,PM2.5,22,63,37
India,Rajasthan,Dausa,"Khatikan Mohalla, Dausa - RSPCB",04-04-2024 15:00:00,26.895552,76.334753,OZONE,4,157,108
India,Rajasthan,Dholpur,"Raja Ganj, Dholpur - RSPCB",04-04-2024 15:00:00,26.699557,77.898881,CO,12,46,29
India,Rajasthan,Dholpur,"Raja Ganj, Dholpur - RSPCB",04-04-2024 15:00:00,26.699557,77.898881,OZONE,16,117,73
India,Rajasthan,Hanumangarh,"Housing Board, Hanumangarh - RSPCB",04-04-2024 15:00:00,29.610750,74.283608,NH3,6,9,8
India,Rajasthan,Jaipur,"Adarsh Nagar, Jaipur - RSPCB",04-04-2024 15:00:00,26.902909,75.836858,PM2.5,39,93,66
India,Rajasthan,Jaipur,"Mansarovar Sector-12, Jaipur - RSPCB",04-04-2024 15:00:00,26.843698,75.766894,OZONE,13,157,72
India,Rajasthan,Jaipur,"Police Commissionerate, Jaipur - RSPCB",04-04-2024 15:00:00,26.9164092,75.7994901,NH3,2,9,7
India,Rajasthan,Jaipur,"RIICO Sitapura, Jaipur - RSPCB",04-04-2024 15:00:00,26.786682,75.827928,NO2,NA,NA,NA
India,Rajasthan,Jaipur,"RIICO Sitapura, Jaipur - RSPCB",04-04-2024 15:00:00,26.786682,75.827928,OZONE,17,93,87
India,Rajasthan,Jaipur,"Sector-2 Murlipura, Jaipur - RSPCB",04-04-2024 15:00:00,26.960669,75.771817,OZONE,2,80,56
India,Rajasthan,Jaipur,"Shastri Nagar, Jaipur - RSPCB",04-04-2024 15:00:00,26.9502929,75.730943,CO,9,81,38
India,Rajasthan,Jhalawar,"Rajlaxmi Nagar, Jhalawar - RSPCB",04-04-2024 15:00:00,24.588397,76.172782,OZONE,21,71,44
India,Rajasthan,Jhunjhunu,"Indra Nagar, Jhunjhunu - RSPCB",04-04-2024 15:00:00,28.108988,75.386577,SO2,4,12,8
India,Rajasthan,Jodhpur,"Collectorate, Jodhpur - RSPCB",04-04-2024 15:00:00,26.268249,73.0193853,PM2.5,44,253,140
India,Rajasthan,Jodhpur,"Digari Kalan, Jodhpur - RSPCB",04-04-2024 15:00:00,26.295810,73.082283,PM2.5,18,71,49
India,Rajasthan,Jodhpur,"Digari Kalan, Jodhpur - RSPCB",04-04-2024 15:00:00,26.295810,73.082283,NO2,7,85,31
India,Rajasthan,Jodhpur,"Jhalamand, Jodhpur - RSPCB",04-04-2024 15:00:00,26.215415,73.070156,PM2.5,13,220,54
India,Rajasthan,Jodhpur,"Jhalamand, Jodhpur - RSPCB",04-04-2024 15:00:00,26.215415,73.070156,SO2,2,12,6
India,Rajasthan,Jodhpur,"Mandor, Jodhpur - RSPCB",04-04-2024 15:00:00,26.358805,73.047444,NO2,18,50,36
India,Rajasthan,Jodhpur,"Samrat Ashok Udhyan, Jodhpur - RSPCB",04-04-2024 15:00:00,26.253384,72.976571,PM2.5,18,81,40
India,Rajasthan,Jodhpur,"Samrat Ashok Udhyan, Jodhpur - RSPCB",04-04-2024 15:00:00,26.253384,72.976571,SO2,6,9,7
India,Rajasthan,Karauli,"Satyawati Vihar, Karauli - RSPCB",04-04-2024 15:00:00,26.506177,77.025989,NO2,8,57,23
India,Rajasthan,Karauli,"Satyawati Vihar, Karauli - RSPCB",04-04-2024 15:00:00,26.506177,77.025989,SO2,17,70,24
India,Rajasthan,Karauli,"Satyawati Vihar, Karauli - RSPCB",04-04-2024 15:00:00,26.506177,77.025989,OZONE,5,59,25
India,Rajasthan,Kota,"Dhanmandi, Kota - RSPCB",04-04-2024 15:00:00,25.164090,75.858137,PM10,59,152,104
India,Rajasthan,Kota,"Dhanmandi, Kota - RSPCB",04-04-2024 15:00:00,25.164090,75.858137,NO2,2,109,37
India,Rajasthan,Kota,"Nayapura, Kota - RSPCB",04-04-2024 15:00:00,25.196024,75.855668,CO,14,112,27
India,Rajasthan,Kota,"Shrinath Puram, Kota - RSPCB",04-04-2024 15:00:00,25.14389,75.821256,NH3,3,5,4
India,Rajasthan,Nagaur,"Karni Colony, Nagaur - RSPCB",04-04-2024 15:00:00,27.213494,73.734444,PM10,94,200,136
India,Rajasthan,Pali,"Indira Colony Vistar, Pali - RSPCB",04-04-2024 15:00:00,25.771061, 73.340227,NO2,18,36,25
India,Rajasthan,Pali,"Indira Colony Vistar, Pali - RSPCB",04-04-2024 15:00:00,25.771061, 73.340227,CO,36,74,54
India,Rajasthan,Pratapgarh,"Pragati Nagar, Pratapgarh - RSPCB",04-04-2024 15:00:00,24.041198,74.780702,PM2.5,34,76,47
India,Rajasthan,Pratapgarh,"Pragati Nagar, Pratapgarh - RSPCB",04-04-2024 15:00:00,24.041198,74.780702,NO2,6,36,18
India,Rajasthan,Rajsamand,"Dhoinda, Rajsamand - RSPCB",04-04-2024 15:00:00,25.036360,73.883502,NO2,5,23,11
India,Rajasthan,Sawai Madhopur,"Sahu Nagar, Sawai Madhopur - RSPCB",04-04-2024 15:00:00,26.031443,76.359327,NH3,1,13,5
India,Rajasthan,Sawai Madhopur,"Sahu Nagar, Sawai Madhopur - RSPCB",04-04-2024 15:00:00,26.031443,76.359327,SO2,2,10,4
India,Rajasthan,Sikar,"Radhakishan Pura, Sikar - RSPCB",04-04-2024 15:00:00,27.608912,75.153302,PM2.5,24,211,57
India,Rajasthan,Sikar,"Radhakishan Pura, Sikar - RSPCB",04-04-2024 15:00:00,27.608912,75.153302,NO2,10,43,19
India,Rajasthan,Sirohi,"Vedhaynath Colony, Sirohi - RSPCB",04-04-2024 15:00:00,24.885261,72.857549,PM2.5,24,73,48
India,Rajasthan,Sirohi,"Vedhaynath Colony, Sirohi - RSPCB",04-04-2024 15:00:00,24.885261,72.857549,OZONE,39,98,59
India,Rajasthan,Tonk,"Shastri Nagar, Tonk - RSPCB",04-04-2024 15:00:00,26.159933,75.780517,SO2,1,12,6
India,Rajasthan,Udaipur,"Ashok Nagar, Udaipur - RSPCB",04-04-2024 15:00:00,24.5886166,73.6321397,PM10,65,141,90
India,Sikkim,Gangtok,"Zero Point GICI, Gangtok - SSPCB",04-04-2024 15:00:00,27.338530,88.614099,SO2,10,11,11
India,Sikkim,Gangtok,"Zero Point GICI, Gangtok - SSPCB",04-04-2024 15:00:00,27.338530,88.614099,OZONE,34,124,74
India,TamilNadu,Ariyalur,"Keelapalur, Ariyalur - TNPCB",04-04-2024 15:00:00,11.06825,79.07033,NO2,29,263,191
India,TamilNadu,Ariyalur,"Keelapalur, Ariyalur - TNPCB",04-04-2024 15:00:00,11.06825,79.07033,NH3,1,2,1
India,TamilNadu,Chengalpattu,"Crescent University, Chengalpattu - TNPCB",04-04-2024 15:00:00,12.8777316,80.0834807,NO2,NA,NA,NA
India,TamilNadu,Chengalpattu,"Crescent University, Chengalpattu - TNPCB",04-04-2024 15:00:00,12.8777316,80.0834807,NH3,NA,NA,NA
India,TamilNadu,Chengalpattu,"Crescent University, Chengalpattu - TNPCB",04-04-2024 15:00:00,12.8777316,80.0834807,SO2,NA,NA,NA
India,TamilNadu,Chennai,"Alandur Bus Depot, Chennai - CPCB",04-04-2024 15:00:00,12.9099161,80.1076538,PM10,24,72,43
India,TamilNadu,Chennai,"Alandur Bus Depot, Chennai - CPCB",04-04-2024 15:00:00,12.9099161,80.1076538,NH3,2,16,6
India,TamilNadu,Chennai,"Alandur Bus Depot, Chennai - CPCB",04-04-2024 15:00:00,12.9099161,80.1076538,SO2,1,14,5
India,TamilNadu,Chennai,"Arumbakkam, Chennai - TNPCB",04-04-2024 15:00:00,13.0664,80.2112 ,NH3,NA,NA,NA
India,TamilNadu,Chennai,"Arumbakkam, Chennai - TNPCB",04-04-2024 15:00:00,13.0664,80.2112 ,SO2,NA,NA,NA
India,TamilNadu,Chennai,"Kodungaiyur, Chennai - TNPCB",04-04-2024 15:00:00,13.1278,80.2642,CO,23,98,39
India,TamilNadu,Chennai,"Manali, Chennai - CPCB",04-04-2024 15:00:00,13.164544,80.26285,NH3,4,5,4
India,TamilNadu,Chennai,"Manali, Chennai - CPCB",04-04-2024 15:00:00,13.164544,80.26285,SO2,4,15,7
India,TamilNadu,Chennai,"Manali, Chennai - CPCB",04-04-2024 15:00:00,13.164544,80.26285,CO,84,106,100
India,TamilNadu,Chennai,"Manali, Chennai - CPCB",04-04-2024 15:00:00,13.164544,80.26285,OZONE,13,22,19
India,TamilNadu,Chennai,"Perungudi, Chennai - TNPCB",04-04-2024 15:00:00,12.9533,80.2357,CO,8,101,26
India,TamilNadu,Chennai,"Royapuram, Chennai - TNPCB",04-04-2024 15:00:00,13.1036,80.2909,PM10,6,58,28
India,TamilNadu,Chennai,"Velachery Res. Area, Chennai - CPCB",04-04-2024 15:00:00,13.0052189,80.2398125,PM2.5,19,42,29
India,TamilNadu,Coimbatore,"PSG College of Arts and Science, Coimbatore - TNPCB",04-04-2024 15:00:00,11.0328,77.0349,PM2.5,NA,NA,NA
India,TamilNadu,Coimbatore,"PSG College of Arts and Science, Coimbatore - TNPCB",04-04-2024 15:00:00,11.0328,77.0349,SO2,NA,NA,NA
India,TamilNadu,Cuddalore,"Kudikadu, Cuddalore - TNPCB",04-04-2024 15:00:00,11.6829898,79.7532099,PM10,NA,NA,NA
India,TamilNadu,Ooty,"Bombay Castel, Ooty - TNPCB",04-04-2024 15:00:00,11.4068288,76.7138973,OZONE,4,5,5
India,TamilNadu,Ramanathapuram,"Chalai Bazaar, Ramanathapuram - TNPCB",04-04-2024 15:00:00,9.36399,78.831977,NH3,1,1,1
India,TamilNadu,Ramanathapuram,"Chalai Bazaar, Ramanathapuram - TNPCB",04-04-2024 15:00:00,9.36399,78.831977,OZONE,14,14,14
India,TamilNadu,Salem,"Sona College of Technology, Salem - TNPCB",04-04-2024 15:00:00,11.679111,78.125052,NO2,NA,NA,NA
India,TamilNadu,Salem,"Sona College of Technology, Salem - TNPCB",04-04-2024 15:00:00,11.679111,78.125052,SO2,NA,NA,NA
India,TamilNadu,Thoothukudi,"Meelavittan, Thoothukudi - TNPCB",04-04-2024 15:00:00,8.816428 ,78.099039,PM10,28,151,72
India,TamilNadu,Tirupur,"Kumaran College, Tirupur - TNPCB",04-04-2024 15:00:00,11.0973603,77.3228673,PM2.5,18,134,35
India,TamilNadu,Vellore,"Vasanthapuram, Vellore - TNPCB",04-04-2024 15:00:00,12.909494,79.131861,NH3,1,1,1
India,TamilNadu,Vellore,"Vasanthapuram, Vellore - TNPCB",04-04-2024 15:00:00,12.909494,79.131861,SO2,NA,NA,NA
India,TamilNadu,Virudhunagar,"Collectorate Office, Virudhunagar - TNPCB",04-04-2024 15:00:00,9.559382,77.948828,OZONE,6,6,6
India,Telangana,Hyderabad,"Bollaram Industrial Area, Hyderabad - TSPCB",04-04-2024 15:00:00,17.540891,78.358528,PM2.5,46,92,64
India,Telangana,Hyderabad,"Bollaram Industrial Area, Hyderabad - TSPCB",04-04-2024 15:00:00,17.540891,78.358528,PM10,67,136,104
India,Telangana,Hyderabad,"Central University, Hyderabad - TSPCB",04-04-2024 15:00:00,17.460103,78.334361,PM2.5,22,47,37
India,Telangana,Hyderabad,"ECIL Kapra, Hyderabad - TSPCB",04-04-2024 15:00:00,17.470431,78.566959,OZONE,16,130,66
India,Telangana,Hyderabad,"Kokapet, Hyderabad - TSPCB",04-04-2024 15:00:00,17.393559,78.339194,NO2,NA,NA,NA
India,Telangana,Hyderabad,"Kokapet, Hyderabad - TSPCB",04-04-2024 15:00:00,17.393559,78.339194,NH3,NA,NA,NA
India,Telangana,Hyderabad,"Kokapet, Hyderabad - TSPCB",04-04-2024 15:00:00,17.393559,78.339194,SO2,NA,NA,NA
India,Telangana,Hyderabad,"Nacharam_TSIIC IALA, Hyderabad - TSPCB",04-04-2024 15:00:00,17.429398,78.569354,NO2,NA,NA,NA
India,Telangana,Hyderabad,"New Malakpet, Hyderabad - TSPCB",04-04-2024 15:00:00,17.37206,78.50864,SO2,2,6,3
India,Telangana,Hyderabad,"Ramachandrapuram, Hyderabad - TSPCB",04-04-2024 15:00:00,17.528544,78.286195,NO2,NA,NA,NA
India,Telangana,Hyderabad,"Ramachandrapuram, Hyderabad - TSPCB",04-04-2024 15:00:00,17.528544,78.286195,NH3,NA,NA,NA
India,Telangana,Hyderabad,"Somajiguda, Hyderabad - TSPCB",04-04-2024 15:00:00,17.417094,78.457437,NH3,6,9,8
India,Telangana,Hyderabad,"Somajiguda, Hyderabad - TSPCB",04-04-2024 15:00:00,17.417094,78.457437,OZONE,12,33,21
India,Telangana,Hyderabad,"Zoo Park, Hyderabad - TSPCB",04-04-2024 15:00:00,17.349694,78.451437,PM2.5,45,99,64
India,Tripura,Agartala,"Bardowali, Agartala - Tripura SPCB",04-04-2024 15:00:00,23.8175497,91.2726974,NO2,4,11,7
India,Uttar_Pradesh,Agra,"Manoharpur, Agra - UPPCB",04-04-2024 15:00:00,27.23711,78.01936,PM2.5,26,139,59
India,Uttar_Pradesh,Agra,"Manoharpur, Agra - UPPCB",04-04-2024 15:00:00,27.23711,78.01936,NO2,25,26,25
India,Uttar_Pradesh,Agra,"Rohta, Agra - UPPCB",04-04-2024 15:00:00,27.106972,78.000111,CO,6,20,14
India,Uttar_Pradesh,Agra,"Sanjay Palace, Agra - UPPCB",04-04-2024 15:00:00,27.19865833,78.00598056,PM2.5,6,62,22
India,Uttar_Pradesh,Agra,"Sanjay Palace, Agra - UPPCB",04-04-2024 15:00:00,27.19865833,78.00598056,PM10,31,69,47
India,Uttar_Pradesh,Agra,"Sanjay Palace, Agra - UPPCB",04-04-2024 15:00:00,27.19865833,78.00598056,SO2,7,9,8
India,Uttar_Pradesh,Agra,"Sector-3B Avas Vikas Colony, Agra - UPPCB",04-04-2024 15:00:00,27.19412,77.96237,SO2,10,14,12
India,Uttar_Pradesh,Agra,"Shahjahan Garden, Agra - UPPCB",04-04-2024 15:00:00,27.169338,78.03582,PM2.5,NA,NA,NA
India,Uttar_Pradesh,Agra,"Shastripuram, Agra - UPPCB",04-04-2024 15:00:00,27.19862,77.92066,PM10,54,150,98
India,Uttar_Pradesh,Bareilly,"Civil Lines, Bareilly - UPPCB",04-04-2024 15:00:00,28.359581,79.414455,SO2,45,49,47
India,Uttar_Pradesh,Bulandshahr,"Yamunapuram, Bulandshahr - UPPCB",04-04-2024 15:00:00,28.406963,77.849831,PM2.5,22,219,101
India,Uttar_Pradesh,Bulandshahr,"Yamunapuram, Bulandshahr - UPPCB",04-04-2024 15:00:00,28.406963,77.849831,NH3,10,15,12
India,Uttar_Pradesh,Firozabad,"Nagla Bhau, Firozabad - UPPCB",04-04-2024 15:00:00,27.168897,78.376960,PM2.5,10,43,26
India,Uttar_Pradesh,Firozabad,"Vibhab Nagar, Firozabad - UPPCB",04-04-2024 15:00:00,27.1594,78.3953,PM10,25,72,44
India,Uttar_Pradesh,Firozabad,"Vibhab Nagar, Firozabad - UPPCB",04-04-2024 15:00:00,27.1594,78.3953,SO2,14,44,28
India,Uttar_Pradesh,Ghaziabad,"Loni, Ghaziabad - UPPCB",04-04-2024 15:00:00,28.757294,77.278792,NH3,2,9,4
India,Uttar_Pradesh,Ghaziabad,"Loni, Ghaziabad - UPPCB",04-04-2024 15:00:00,28.757294,77.278792,SO2,9,35,22
India,Uttar_Pradesh,Ghaziabad,"Sanjay Nagar, Ghaziabad - UPPCB",04-04-2024 15:00:00,28.685382,77.453839,PM10,85,355,148
India,Uttar_Pradesh,Ghaziabad,"Sanjay Nagar, Ghaziabad - UPPCB",04-04-2024 15:00:00,28.685382,77.453839,SO2,24,65,45
India,Uttar_Pradesh,Ghaziabad,"Vasundhara, Ghaziabad - UPPCB",04-04-2024 15:00:00,28.6603346,77.3572563,NO2,1,112,56
India,Uttar_Pradesh,Ghaziabad,"Vasundhara, Ghaziabad - UPPCB",04-04-2024 15:00:00,28.6603346,77.3572563,NH3,6,11,9
India,Uttar_Pradesh,Ghaziabad,"Vasundhara, Ghaziabad - UPPCB",04-04-2024 15:00:00,28.6603346,77.3572563,CO,8,111,53
India,Uttar_Pradesh,Greater Noida,"Knowledge Park - V, Greater Noida - UPPCB",04-04-2024 15:00:00,28.557054,77.453663,CO,39,107,52
India,Uttar_Pradesh,Greater Noida,"Knowledge Park - V, Greater Noida - UPPCB",04-04-2024 15:00:00,28.557054,77.453663,OZONE,3,204,183
India,Uttar_Pradesh,Kanpur,"FTI Kidwai Nagar, Kanpur - UPPCB",04-04-2024 15:00:00,26.428282,80.327067,OZONE,3,9,5
India,Uttar_Pradesh,Kanpur,"NSI Kalyanpur, Kanpur - UPPCB",04-04-2024 15:00:00,26.509954,80.249612,PM2.5,30,115,76
India,Uttar_Pradesh,Kanpur,"NSI Kalyanpur, Kanpur - UPPCB",04-04-2024 15:00:00,26.509954,80.249612,NH3,2,3,2
India,Uttar_Pradesh,Kanpur,"NSI Kalyanpur, Kanpur - UPPCB",04-04-2024 15:00:00,26.509954,80.249612,SO2,18,26,21
India,Uttar_Pradesh,Kanpur,"NSI Kalyanpur, Kanpur - UPPCB",04-04-2024 15:00:00,26.509954,80.249612,OZONE,2,40,32
India,Uttar_Pradesh,Kanpur,"Nehru Nagar, Kanpur - UPPCB",04-04-2024 15:00:00,26.4703136,80.3229863,PM10,18,141,64
India,Uttar_Pradesh,Lucknow,"B R Ambedkar University, Lucknow - UPPCB",04-04-2024 15:00:00,26.766433,80.927299,PM10,66,197,117
India,Uttar_Pradesh,Lucknow,"B R Ambedkar University, Lucknow - UPPCB",04-04-2024 15:00:00,26.766433,80.927299,NH3,5,7,5
India,Uttar_Pradesh,Lucknow,"Gomti Nagar, Lucknow - UPPCB",04-04-2024 15:00:00,26.868120,81.005119,PM2.5,49,255,121
India,Uttar_Pradesh,Lucknow,"Gomti Nagar, Lucknow - UPPCB",04-04-2024 15:00:00,26.868120,81.005119,PM10,51,145,96
India,Uttar_Pradesh,Lucknow,"Gomti Nagar, Lucknow - UPPCB",04-04-2024 15:00:00,26.868120,81.005119,SO2,7,16,10
India,Uttar_Pradesh,Lucknow,"Kendriya Vidyalaya, Lucknow - CPCB",04-04-2024 15:00:00,26.906111,80.948222,PM2.5,30,88,61
India,Uttar_Pradesh,Lucknow,"Kendriya Vidyalaya, Lucknow - CPCB",04-04-2024 15:00:00,26.906111,80.948222,OZONE,6,70,44
India,Uttar_Pradesh,Lucknow,"Kukrail Picnic Spot-1, Lucknow - UPPCB",04-04-2024 15:00:00,26.90723,80.98579,PM2.5,42,184,103
India,Uttar_Pradesh,Lucknow,"Lalbagh, Lucknow - CPCB",04-04-2024 15:00:00,26.8458805,80.9365541,NO2,3,31,12
India,Uttar_Pradesh,Lucknow,"Lalbagh, Lucknow - CPCB",04-04-2024 15:00:00,26.8458805,80.9365541,CO,22,104,38
India,Uttar_Pradesh,Lucknow,"Talkatora District Industries Center, Lucknow - CPCB",04-04-2024 15:00:00,26.83399722,80.8917361,NO2,41,113,65
India,Uttar_Pradesh,Lucknow,"Talkatora District Industries Center, Lucknow - CPCB",04-04-2024 15:00:00,26.83399722,80.8917361,NH3,11,27,17
India,Uttar_Pradesh,Meerut,"Ganga Nagar, Meerut - UPPCB",04-04-2024 15:00:00,28.999264,77.7590354,PM10,50,258,128
India,Uttar_Pradesh,Meerut,"Jai Bhim Nagar, Meerut - UPPCB",04-04-2024 15:00:00,28.9535882,77.7622941,NH3,3,7,5
India,Uttar_Pradesh,Moradabad,"Buddhi Vihar, Moradabad - UPPCB",04-04-2024 15:00:00,28.83526,78.74460,NO2,23,23,23
India,Uttar_Pradesh,Moradabad,"Eco Herbal Park, Moradabad - UPPCB",04-04-2024 15:00:00,28.840739,78.697531,OZONE,26,119,69
India,Uttar_Pradesh,Moradabad,"Employment Office, Moradabad - UPPCB",04-04-2024 15:00:00,28.88528,78.73880,NH3,3,4,4
India,Uttar_Pradesh,Moradabad,"Employment Office, Moradabad - UPPCB",04-04-2024 15:00:00,28.88528,78.73880,SO2,29,37,32
India,Uttar_Pradesh,Moradabad,"Employment Office, Moradabad - UPPCB",04-04-2024 15:00:00,28.88528,78.73880,CO,10,31,27
India,Uttar_Pradesh,Moradabad,"Jigar Colony, Moradabad - UPPCB",04-04-2024 15:00:00,28.856664,78.772638,NH3,4,9,4
India,Uttar_Pradesh,Moradabad,"Jigar Colony, Moradabad - UPPCB",04-04-2024 15:00:00,28.856664,78.772638,SO2,24,31,27
India,Uttar_Pradesh,Moradabad,"Jigar Colony, Moradabad - UPPCB",04-04-2024 15:00:00,28.856664,78.772638,CO,22,50,38
India,Uttar_Pradesh,Moradabad,"Kashiram Nagar, Moradabad - UPPCB",04-04-2024 15:00:00,28.849399,78.742362,PM2.5,26,139,76
India,Uttar_Pradesh,Moradabad,"Kashiram Nagar, Moradabad - UPPCB",04-04-2024 15:00:00,28.849399,78.742362,NO2,3,4,4
India,Uttar_Pradesh,Moradabad,"Kashiram Nagar, Moradabad - UPPCB",04-04-2024 15:00:00,28.849399,78.742362,CO,28,50,35
India,Uttar_Pradesh,Moradabad,"Transport Nagar, Moradabad - UPPCB",04-04-2024 15:00:00,28.802625,78.753728,NH3,6,6,6
India,Uttar_Pradesh,Moradabad,"Transport Nagar, Moradabad - UPPCB",04-04-2024 15:00:00,28.802625,78.753728,SO2,45,52,48
India,Uttar_Pradesh,Muzaffarnagar,"New Mandi, Muzaffarnagar - UPPCB",04-04-2024 15:00:00,29.4723508,77.7194031,NO2,20,80,38
India,Uttar_Pradesh,Muzaffarnagar,"New Mandi, Muzaffarnagar - UPPCB",04-04-2024 15:00:00,29.4723508,77.7194031,NH3,9,12,10
India,Uttar_Pradesh,Muzaffarnagar,"New Mandi, Muzaffarnagar - UPPCB",04-04-2024 15:00:00,29.4723508,77.7194031,SO2,11,49,29
India,Uttar_Pradesh,Noida,"Sector - 125, Noida - UPPCB",04-04-2024 15:00:00,28.5447608,77.3231257,NO2,23,290,98
India,Uttar_Pradesh,Noida,"Sector - 125, Noida - UPPCB",04-04-2024 15:00:00,28.5447608,77.3231257,SO2,9,111,32
India,Uttar_Pradesh,Noida,"Sector - 62, Noida - IMD",04-04-2024 15:00:00,28.6245479,77.3577104,PM10,13,243,137
India,Uttar_Pradesh,Noida,"Sector - 62, Noida - IMD",04-04-2024 15:00:00,28.6245479,77.3577104,NO2,18,42,26
India,Uttar_Pradesh,Noida,"Sector-1, Noida - UPPCB",04-04-2024 15:00:00,28.5898,77.3101,PM10,94,369,184
India,Uttar_Pradesh,Noida,"Sector-116, Noida - UPPCB",04-04-2024 15:00:00,28.569230,77.393848,CO,42,130,67
India,Uttar_Pradesh,Prayagraj,"Jhunsi, Prayagraj - UPPCB",04-04-2024 15:00:00,25.425602,81.917152,PM2.5,25,86,51
India,Uttar_Pradesh,Prayagraj,"Motilal Nehru NIT, Prayagraj - UPPCB",04-04-2024 15:00:00,25.494,81.863,PM10,43,124,77
India,Uttar_Pradesh,Prayagraj,"Motilal Nehru NIT, Prayagraj - UPPCB",04-04-2024 15:00:00,25.494,81.863,NH3,6,8,6
India,Uttar_Pradesh,Prayagraj,"Nagar Nigam, Prayagraj - UPPCB",04-04-2024 15:00:00,25.44919916 ,81.82735986 ,PM2.5,NA,NA,NA
India,Uttar_Pradesh,Varanasi,"Bhelupur, Varanasi - UPPCB",04-04-2024 15:00:00,25.301778,82.996789,CO,14,115,29
India,Uttar_Pradesh,Varanasi,"Maldahiya, Varanasi - UPPCB",04-04-2024 15:00:00,25.32393,82.99687,PM10,19,60,40
India,Uttarakhand,Kashipur,"Govt. Girls Inter College, Kashipur - UKPCB",04-04-2024 15:00:00,29.2124114,78.9611753,NH3,1,5,3
India,Uttarakhand,Kashipur,"Govt. Girls Inter College, Kashipur - UKPCB",04-04-2024 15:00:00,29.2124114,78.9611753,SO2,6,9,8
India,Uttarakhand,Rishikesh,"Shivaji Nagar, Rishikesh - UKPCB",04-04-2024 15:00:00,30.075911,78.2859547,PM2.5,33,63,44
India,Uttarakhand,Rishikesh,"Shivaji Nagar, Rishikesh - UKPCB",04-04-2024 15:00:00,30.075911,78.2859547,NO2,7,39,18
India,West_Bengal,Asansol,"Asansol Court Area, Asansol - WBPCB",04-04-2024 15:00:00,23.685297,86.945968,PM2.5,155,316,231
India,West_Bengal,Asansol,"Asansol Court Area, Asansol - WBPCB",04-04-2024 15:00:00,23.685297,86.945968,NO2,27,70,42
India,West_Bengal,Asansol,"Asansol Court Area, Asansol - WBPCB",04-04-2024 15:00:00,23.685297,86.945968,SO2,5,51,21
India,West_Bengal,Barrackpore,"SVSPA Campus, Barrackpore - WBPCB",04-04-2024 15:00:00,22.7605581,88.3617589,SO2,6,13,8
India,West_Bengal,Durgapur,"PCBL Residential Complex, Durgapur - WBPCB",04-04-2024 15:00:00,23.5087640,87.3544400,CO,102,115,109
India,West_Bengal,Durgapur,"Sidhu Kanhu Indoor Stadium, Durgapur - WBPCB",04-04-2024 15:00:00,23.5404352,87.2892225,CO,26,100,66
India,West_Bengal,Haldia,"Priyambada Housing Estate, Haldia - WBPCB",04-04-2024 15:00:00,22.06047,88.109737,OZONE,18,44,24
India,West_Bengal,Howrah,"Belur Math, Howrah - WBPCB",04-04-2024 15:00:00,22.629801,88.352017,NH3,2,3,2
India,West_Bengal,Howrah,"Ghusuri, Howrah - WBPCB",04-04-2024 15:00:00,22.611968,88.347422,PM10,63,138,104
India,West_Bengal,Howrah,"Padmapukur, Howrah - WBPCB",04-04-2024 15:00:00,22.5687319,88.2797276,NO2,6,7,7
India,West_Bengal,Howrah,"Padmapukur, Howrah - WBPCB",04-04-2024 15:00:00,22.5687319,88.2797276,CO,6,54,29
India,West_Bengal,Kolkata,"Ballygunge, Kolkata - WBPCB",04-04-2024 15:00:00,22.5367507,88.3638022,PM10,45,128,76
India,West_Bengal,Kolkata,"Ballygunge, Kolkata - WBPCB",04-04-2024 15:00:00,22.5367507,88.3638022,SO2,3,25,8
India,West_Bengal,Kolkata,"Ballygunge, Kolkata - WBPCB",04-04-2024 15:00:00,22.5367507,88.3638022,CO,1,20,4
India,West_Bengal,Kolkata,"Bidhannagar, Kolkata - WBPCB",04-04-2024 15:00:00,22.58157048,88.41002457,NH3,8,8,8
India,West_Bengal,Kolkata,"Bidhannagar, Kolkata - WBPCB",04-04-2024 15:00:00,22.58157048,88.41002457,SO2,2,9,5
India,West_Bengal,Kolkata,"Fort William, Kolkata - WBPCB",04-04-2024 15:00:00,22.556640,88.342674,PM10,61,135,86
India,West_Bengal,Kolkata,"Fort William, Kolkata - WBPCB",04-04-2024 15:00:00,22.556640,88.342674,CO,12,29,17
India,West_Bengal,Kolkata,"Jadavpur, Kolkata - WBPCB",04-04-2024 15:00:00,22.49929,88.36917,NH3,2,2,2
India,West_Bengal,Kolkata,"Victoria, Kolkata - WBPCB",04-04-2024 15:00:00,22.5448082,88.3403691,NO2,7,9,8
India,West_Bengal,Kolkata,"Victoria, Kolkata - WBPCB",04-04-2024 15:00:00,22.5448082,88.3403691,SO2,5,9,6
India,West_Bengal,Siliguri,"Ward-32 Bapupara, Siliguri - WBPCB",04-04-2024 15:00:00,26.6879226,88.4152495,CO,18,101,28
India,Andhra_Pradesh,Amaravati,"Secretariat, Amaravati - APPCB",04-04-2024 15:00:00,16.5150833,80.5181667,PM2.5,5,33,19
India,Andhra_Pradesh,Chittoor,"Gangineni Cheruvu, Chittoor - APPCB",04-04-2024 15:00:00,13.204880,79.097889,PM10,14,179,81
India,Andhra_Pradesh,Kadapa,"Yerramukkapalli, Kadapa - APPCB",04-04-2024 15:00:00,14.465052,78.824187,PM2.5,27,60,37
India,Andhra_Pradesh,Kadapa,"Yerramukkapalli, Kadapa - APPCB",04-04-2024 15:00:00,14.465052,78.824187,NO2,8,8,8
India,Andhra_Pradesh,Rajamahendravaram,"Anand Kala Kshetram, Rajamahendravaram - APPCB",04-04-2024 15:00:00,16.9872867,81.7363176,NO2,5,17,10
India,Andhra_Pradesh,Rajamahendravaram,"Anand Kala Kshetram, Rajamahendravaram - APPCB",04-04-2024 15:00:00,16.9872867,81.7363176,OZONE,14,22,20
India,Andhra_Pradesh,Tirupati,"Tirumala, Tirupati - APPCB",04-04-2024 15:00:00,13.67,79.35,CO,10,53,24
India,Andhra_Pradesh,Tirupati,"Vaikuntapuram, Tirupati - APPCB",04-04-2024 15:00:00,13.615387,79.409230,PM2.5,17,168,55
India,Andhra_Pradesh,Vijayawada,"Kanuru, Vijayawada - APPCB",04-04-2024 15:00:00,16.486692,80.699436,PM2.5,NA,NA,NA
India,Andhra_Pradesh,Vijayawada,"Rajiv Gandhi Park, Vijayawada - APPCB",04-04-2024 15:00:00,16.509717,80.612222,CO,42,46,44
India,Andhra_Pradesh,Vijayawada,"Rajiv Gandhi Park, Vijayawada - APPCB",04-04-2024 15:00:00,16.509717,80.612222,OZONE,2,41,14
India,Andhra_Pradesh,Visakhapatnam,"GVM Corporation, Visakhapatnam - APPCB",04-04-2024 15:00:00,17.72,83.3,CO,14,80,32
India,Andhra_Pradesh,Visakhapatnam,"GVM Corporation, Visakhapatnam - APPCB",04-04-2024 15:00:00,17.72,83.3,OZONE,8,16,9
India,Arunachal_Pradesh,Naharlagun,"Naharlagun, Naharlagun - APSPCB",04-04-2024 15:00:00,27.103358,93.679645,NO2,3,3,3
India,Assam,Byrnihat,"Central Academy for SFS, Byrnihat - PCBA",04-04-2024 15:00:00,26.071318,91.87488,CO,17,101,73
India,Assam,Guwahati,"LGBI Airport, Guwahati - PCBA",04-04-2024 15:00:00,26.10887,91.589544,PM2.5,37,270,100
India,Assam,Guwahati,"Pan Bazaar, Guwahati - PCBA",04-04-2024 15:00:00,26.187500,91.744194,SO2,34,57,43
India,Assam,Guwahati,"Railway Colony, Guwahati - PCBA",04-04-2024 15:00:00,26.181742,91.78063,PM2.5,NA,NA,NA
India,Assam,Guwahati,"Railway Colony, Guwahati - PCBA",04-04-2024 15:00:00,26.181742,91.78063,PM10,NA,NA,NA
India,Assam,Nalbari,"Bata Chowk, Nalbari - PCBA",04-04-2024 15:00:00,26.446912,91.439057,PM10,68,197,128
India,Assam,Nalbari,"Bata Chowk, Nalbari - PCBA",04-04-2024 15:00:00,26.446912,91.439057,SO2,1,5,2
India,Bihar,Arrah,"New DM Office, Arrah - BSPCB",04-04-2024 15:00:00,25.5626095,84.663264,PM2.5,40,223,79
India,Bihar,Arrah,"New DM Office, Arrah - BSPCB",04-04-2024 15:00:00,25.5626095,84.663264,SO2,13,22,17
India,Bihar,Arrah,"New DM Office, Arrah - BSPCB",04-04-2024 15:00:00,25.5626095,84.663264,CO,1,16,9
India,Bihar,Aurangabad,"Gurdeo Nagar, Aurangabad - BSPCB",04-04-2024 15:00:00,24.75746,84.366208,PM2.5,NA,NA,NA
India,Bihar,Bhagalpur,"DM Office_Kachari Chowk, Bhagalpur - BSPCB",04-04-2024 15:00:00,25.251013,86.989001,NO2,33,107,78
India,Bihar,Bhagalpur,"Mayaganj, Bhagalpur - BSPCB",04-04-2024 15:00:00,25.265194,87.012947,OZONE,9,106,10
India,Bihar,Bihar Sharif,"D M Colony, Bihar Sharif - BSPCB",04-04-2024 15:00:00,25.204762,85.514960,NO2,8,11,10
India,Bihar,Buxar,"Charitra Van, Buxar - BSPCB (Formerly known as Central Jail)",04-04-2024 15:00:00,25.567520,83.966379,PM10,NA,NA,NA
India,Bihar,Buxar,"Charitra Van, Buxar - BSPCB (Formerly known as Central Jail)",04-04-2024 15:00:00,25.567520,83.966379,NH3,NA,NA,NA
India,Bihar,Gaya,"Collectorate, Gaya - BSPCB",04-04-2024 15:00:00,24.7955,84.9994,SO2,2,26,14
India,Bihar,Gaya,"Kareemganj, Gaya - BSPCB",04-04-2024 15:00:00,24.792403,84.992416,OZONE,1,42,18
India,Bihar,Katihar,"Mirchaibari, Katihar - BSPCB",04-04-2024 15:00:00,25.560083,87.553265,NO2,NA,NA,NA
India,Bihar,Katihar,"Mirchaibari, Katihar - BSPCB",04-04-2024 15:00:00,25.560083,87.553265,SO2,NA,NA,NA
India,Bihar,Katihar,"Mirchaibari, Katihar - BSPCB",04-04-2024 15:00:00,25.560083,87.553265,CO,49,56,53
India,Bihar,Kishanganj,"SDM Office_Khagra, Kishanganj - BSPCB",04-04-2024 15:00:00,26.0881305,87.93840336,PM10,151,500,276
India,Bihar,Motihari,"Gandak Colony, Motihari - BSPCB",04-04-2024 15:00:00,26.63086,84.90051,PM2.5,25,78,50
India,Bihar,Motihari,"Gandak Colony, Motihari - BSPCB",04-04-2024 15:00:00,26.63086,84.90051,NO2,48,87,68
India,Bihar,Motihari,"Gandak Colony, Motihari - BSPCB",04-04-2024 15:00:00,26.63086,84.90051,NH3,8,14,11
India,Bihar,Motihari,"Gandak Colony, Motihari - BSPCB",04-04-2024 15:00:00,26.63086,84.90051,CO,8,38,29
India,Bihar,Motihari,"Gandak Colony, Motihari - BSPCB",04-04-2024 15:00:00,26.63086,84.90051,OZONE,29,112,76
India,Bihar,Munger,"Town Hall, Munger - BSPCB",04-04-2024 15:00:00,25.376776,86.471523,SO2,31,39,35
India,Bihar,Munger,"Town Hall, Munger - BSPCB",04-04-2024 15:00:00,25.376776,86.471523,CO,2,8,4
India,Bihar,Muzaffarpur,"MIT-Daudpur Kothi, Muzaffarpur - BSPCB",04-04-2024 15:00:00,26.1403345,85.3650192,CO,17,122,42
India,Bihar,Muzaffarpur,"Muzaffarpur Collectorate, Muzaffarpur - BSPCB",04-04-2024 15:00:00,26.1209,85.3647,OZONE,39,115,56
India,Bihar,Patna,"IGSC Planetarium Complex, Patna - BSPCB",04-04-2024 15:00:00,25.610369,85.132568,PM2.5,37,311,145
India,Bihar,Patna,"Muradpur, Patna - BSPCB",04-04-2024 15:00:00,25.619651,85.147382,SO2,9,16,12
India,Bihar,Patna,"Samanpura, Patna - BSPCB",04-04-2024 15:00:00,25.596727,85.085624,PM2.5,40,319,166
India,Bihar,Patna,"Samanpura, Patna - BSPCB",04-04-2024 15:00:00,25.596727,85.085624,PM10,167,373,274
India,Bihar,Patna,"Samanpura, Patna - BSPCB",04-04-2024 15:00:00,25.596727,85.085624,NO2,16,70,43
India,Bihar,Purnia,"Mariam Nagar, Purnia - BSPCB",04-04-2024 15:00:00,25.366336,87.117468,CO,8,110,35
India,Bihar,Purnia,"Mariam Nagar, Purnia - BSPCB",04-04-2024 15:00:00,25.366336,87.117468,OZONE,5,18,11
India,Bihar,Rajgir,"Dangi Tola, Rajgir - BSPCB",04-04-2024 15:00:00,25.03280,85.41948,PM2.5,15,58,33
India,Bihar,Rajgir,"Dangi Tola, Rajgir - BSPCB",04-04-2024 15:00:00,25.03280,85.41948,PM10,17,65,37
India,Bihar,Rajgir,"Dangi Tola, Rajgir - BSPCB",04-04-2024 15:00:00,25.03280,85.41948,NH3,1,5,1
India,Bihar,Rajgir,"Dangi Tola, Rajgir - BSPCB",04-04-2024 15:00:00,25.03280,85.41948,OZONE,17,28,23
India,Bihar,Saharsa,"Police Line, Saharsa - BSPCB",04-04-2024 15:00:00,25.892357,86.590325,PM2.5,10,220,99
India,Bihar,Saharsa,"Police Line, Saharsa - BSPCB",04-04-2024 15:00:00,25.892357,86.590325,CO,6,105,28
India,Bihar,Samastipur,"DM Office_Kasipur, Samastipur - BSPCB",04-04-2024 15:00:00,25.859655,85.77944,PM10,54,232,126
India,Bihar,Sasaram,"Dada Peer, Sasaram - BSPCB",04-04-2024 15:00:00,24.952822,84.002396,NO2,8,27,16
India,Bihar,Sasaram,"Dada Peer, Sasaram - BSPCB",04-04-2024 15:00:00,24.952822,84.002396,NH3,7,13,9
India,Bihar,Siwan,"Chitragupta Nagar, Siwan - BSPCB",04-04-2024 15:00:00,26.2271665,84.3570427,NH3,2,11,3
India,Chandigarh,Chandigarh,"Sector 22, Chandigarh - CPCC",04-04-2024 15:00:00,30.735567,76.775714,CO,28,60,43
India,Chandigarh,Chandigarh,"Sector 22, Chandigarh - CPCC",04-04-2024 15:00:00,30.735567,76.775714,OZONE,9,182,66
India,Chandigarh,Chandigarh,"Sector-25, Chandigarh - CPCC",04-04-2024 15:00:00,30.751462,76.762879,PM10,102,141,121
India,Chandigarh,Chandigarh,"Sector-25, Chandigarh - CPCC",04-04-2024 15:00:00,30.751462,76.762879,NH3,12,24,18
India,Chandigarh,Chandigarh,"Sector-53, Chandigarh - CPCC",04-04-2024 15:00:00,30.719859,76.738637,PM10,51,191,114
India,Chandigarh,Chandigarh,"Sector-53, Chandigarh - CPCC",04-04-2024 15:00:00,30.719859,76.738637,NO2,8,105,37
India,Chandigarh,Chandigarh,"Sector-53, Chandigarh - CPCC",04-04-2024 15:00:00,30.719859,76.738637,NH3,5,7,6
India,Chandigarh,Chandigarh,"Sector-53, Chandigarh - CPCC",04-04-2024 15:00:00,30.719859,76.738637,SO2,14,40,24
India,Chhattisgarh,Bhilai,"Civic Center, Bhilai - Bhilai Steel Plant",04-04-2024 15:00:00,21.185571,81.343175,NH3,5,5,5
India,Chhattisgarh,Bhilai,"Civic Center, Bhilai - Bhilai Steel Plant",04-04-2024 15:00:00,21.185571,81.343175,SO2,1,14,9
India,Chhattisgarh,Bhilai,"Hathkhoj, Bhilai - CECB",04-04-2024 15:00:00,21.224231,81.408350,NO2,12,49,30
India,Chhattisgarh,Chhal,"Nawapara SECL Colony, Chhal - CECB",04-04-2024 15:00:00,22.118125,83.140608,CO,40,123,100
India,Chhattisgarh,Korba,"Urja Nagar, Korba - CECB",04-04-2024 15:00:00,22.348441,82.549611,CO,24,114,74
India,Chhattisgarh,Kunjemura,"OP Jindal School, Kunjemura - CECB",04-04-2024 15:00:00,22.126650,83.483212,NH3,1,5,2
India,Chhattisgarh,Milupara,"Govt. Higher Secondary School, Milupara - CECB",04-04-2024 15:00:00,22.1910172,83.5197009,NH3,1,2,1
India,Chhattisgarh,Milupara,"Govt. Higher Secondary School, Milupara - CECB",04-04-2024 15:00:00,22.1910172,83.5197009,CO,28,106,78
India,Chhattisgarh,Milupara,"Govt. Higher Secondary School, Milupara - CECB",04-04-2024 15:00:00,22.1910172,83.5197009,OZONE,1,34,20
India,Chhattisgarh,Raipur,"AIIMS, Raipur - CECB",04-04-2024 15:00:00,21.258815,81.578979,OZONE,4,109,13
India,Chhattisgarh,Raipur,"Bhatagaon New ISBT, Raipur - CECB",04-04-2024 15:00:00,21.219665,81.630094,NO2,51,105,76
India,Chhattisgarh,Raipur,"Bhatagaon New ISBT, Raipur - CECB",04-04-2024 15:00:00,21.219665,81.630094,OZONE,3,15,7
India,Chhattisgarh,Raipur,"Krishak Nagar, Raipur - CECB",04-04-2024 15:00:00,21.237755,81.705301,PM10,42,126,74
India,Chhattisgarh,Raipur,"Siltara Phase-II, Raipur - CECB",04-04-2024 15:00:00,21.371751,81.664929,PM2.5,57,102,85
India,Chhattisgarh,Raipur,"Siltara Phase-II, Raipur - CECB",04-04-2024 15:00:00,21.371751,81.664929,SO2,13,59,29
India,Chhattisgarh,Tumidih,"OP Jindal Industrial Park, Tumidih - CECB",04-04-2024 15:00:00,22.06631475,83.33820077,NH3,NA,NA,NA
India,Chhattisgarh,Tumidih,"OP Jindal Industrial Park, Tumidih - CECB",04-04-2024 15:00:00,22.06631475,83.33820077,OZONE,19,132,69
India,Delhi,Delhi,"Alipur, Delhi - DPCC",04-04-2024 15:00:00,28.815329,77.153010,NO2,5,67,24
India,Delhi,Delhi,"Anand Vihar, Delhi - DPCC",04-04-2024 15:00:00,28.647622,77.3158090,NO2,33,134,85
India,Delhi,Delhi,"Aya Nagar, Delhi - IMD",04-04-2024 15:00:00,28.4706914,77.1099364,NO2,60,63,61
India,Delhi,Delhi,"Aya Nagar, Delhi - IMD",04-04-2024 15:00:00,28.4706914,77.1099364,OZONE,2,24,7
India,Delhi,Delhi,"Bawana, Delhi - DPCC",04-04-2024 15:00:00,28.776200,77.051074,OZONE,17,148,83
India,Delhi,Delhi,"Burari Crossing, Delhi - IMD",04-04-2024 15:00:00,28.7256504,77.2011573,PM2.5,25,335,183
India,Delhi,Delhi,"Burari Crossing, Delhi - IMD",04-04-2024 15:00:00,28.7256504,77.2011573,PM10,98,253,168
India,Delhi,Delhi,"Burari Crossing, Delhi - IMD",04-04-2024 15:00:00,28.7256504,77.2011573,NO2,18,30,25
India,Delhi,Delhi,"CRRI Mathura Road, Delhi - IMD",04-04-2024 15:00:00,28.5512005,77.2735737,PM2.5,39,336,139
India,Delhi,Delhi,"CRRI Mathura Road, Delhi - IMD",04-04-2024 15:00:00,28.5512005,77.2735737,CO,14,103,48
India,Delhi,Delhi,"CRRI Mathura Road, Delhi - IMD",04-04-2024 15:00:00,28.5512005,77.2735737,OZONE,1,157,41
India,Delhi,Delhi,"Chandni Chowk, Delhi - IITM",04-04-2024 15:00:00,28.656756,77.227234,NH3,NA,NA,NA
India,Delhi,Delhi,"Chandni Chowk, Delhi - IITM",04-04-2024 15:00:00,28.656756,77.227234,SO2,NA,NA,NA
India,Delhi,Delhi,"Chandni Chowk, Delhi - IITM",04-04-2024 15:00:00,28.656756,77.227234,CO,NA,NA,NA
India,Delhi,Delhi,"DTU, Delhi - CPCB",04-04-2024 15:00:00,28.7500499,77.1112615,CO,22,56,31
India,Delhi,Delhi,"Dwarka-Sector 8, Delhi - DPCC ",04-04-2024 15:00:00,28.5710274,77.0719006,NO2,11,104,49
India,Delhi,Delhi,"IHBAS, Dilshad Garden, Delhi - CPCB",04-04-2024 15:00:00,28.6811736,77.3025234,NH3,9,11,10
India,Delhi,Delhi,"Jawaharlal Nehru Stadium, Delhi - DPCC",04-04-2024 15:00:00,28.580280,77.233829,PM10,61,213,139
India,Delhi,Delhi,"Jawaharlal Nehru Stadium, Delhi - DPCC",04-04-2024 15:00:00,28.580280,77.233829,NH3,4,8,6
India,Delhi,Delhi,"Jawaharlal Nehru Stadium, Delhi - DPCC",04-04-2024 15:00:00,28.580280,77.233829,CO,18,110,35
India,Delhi,Delhi,"Lodhi Road, Delhi - IITM",04-04-2024 15:00:00,28.588333,77.221667,SO2,19,45,28
India,Delhi,Delhi,"Lodhi Road, Delhi - IMD",04-04-2024 15:00:00,28.5918245,77.2273074,NO2,1,9,5
India,Delhi,Delhi,"Major Dhyan Chand National Stadium, Delhi - DPCC",04-04-2024 15:00:00,28.611281,77.237738,NO2,26,174,89
India,Delhi,Delhi,"Mandir Marg, Delhi - DPCC",04-04-2024 15:00:00,28.636429,77.201067,NH3,5,8,6
India,Delhi,Delhi,"Mandir Marg, Delhi - DPCC",04-04-2024 15:00:00,28.636429,77.201067,CO,56,104,71
India,Delhi,Delhi,"Mundka, Delhi - DPCC",04-04-2024 15:00:00,28.684678,77.076574,SO2,12,47,23
India,Delhi,Delhi,"NSIT Dwarka, Delhi - CPCB",04-04-2024 15:00:00,28.60909,77.0325413,NO2,49,74,62
India,Delhi,Delhi,"Okhla Phase-2, Delhi - DPCC",04-04-2024 15:00:00,28.530785,77.271255,SO2,12,21,15
India,Delhi,Delhi,"Punjabi Bagh, Delhi - DPCC",04-04-2024 15:00:00,28.674045,77.131023,NH3,4,5,5
India,Delhi,Delhi,"Punjabi Bagh, Delhi - DPCC",04-04-2024 15:00:00,28.674045,77.131023,CO,28,86,42
India,Delhi,Delhi,"Punjabi Bagh, Delhi - DPCC",04-04-2024 15:00:00,28.674045,77.131023,OZONE,1,39,15
India,Delhi,Delhi,"Pusa, Delhi - DPCC",04-04-2024 15:00:00,28.639652,77.146275,SO2,11,48,26
India,Delhi,Delhi,"Rohini, Delhi - DPCC",04-04-2024 15:00:00,28.732528,77.119920,PM10,86,271,158
India,Delhi,Delhi,"Rohini, Delhi - DPCC",04-04-2024 15:00:00,28.732528,77.119920,OZONE,3,152,63
India,Delhi,Delhi,"Shadipur, Delhi - CPCB",04-04-2024 15:00:00,28.6514781,77.1473105,CO,16,44,25
India,Delhi,Delhi,"Shadipur, Delhi - CPCB",04-04-2024 15:00:00,28.6514781,77.1473105,OZONE,13,42,28
India,Delhi,Delhi,"Sirifort, Delhi - CPCB",04-04-2024 15:00:00,28.5504249,77.2159377,NO2,58,85,71
India,Delhi,Delhi,"Sirifort, Delhi - CPCB",04-04-2024 15:00:00,28.5504249,77.2159377,CO,14,108,34
India,Delhi,Delhi,"Vivek Vihar, Delhi - DPCC",04-04-2024 15:00:00,28.672342,77.315260,PM10,100,413,218
India,Delhi,Delhi,"Vivek Vihar, Delhi - DPCC",04-04-2024 15:00:00,28.672342,77.315260,NO2,27,129,72
India,Delhi,Delhi,"Vivek Vihar, Delhi - DPCC",04-04-2024 15:00:00,28.672342,77.315260,NH3,14,16,15
India,Delhi,Delhi,"Wazirpur, Delhi - DPCC",04-04-2024 15:00:00,28.699793,77.165453,PM2.5,49,282,112
India,Gujarat,Ahmedabad,"Chandkheda, Ahmedabad - IITM",04-04-2024 15:00:00,23.107969,72.574648,SO2,6,16,10
India,Gujarat,Ahmedabad,"Chandkheda, Ahmedabad - IITM",04-04-2024 15:00:00,23.107969,72.574648,OZONE,4,42,18
India,Gujarat,Ahmedabad,"Gyaspur, Ahmedabad - IITM",04-04-2024 15:00:00,22.977134,72.553024,PM2.5,65,297,125
India,Gujarat,Ahmedabad,"Gyaspur, Ahmedabad - IITM",04-04-2024 15:00:00,22.977134,72.553024,OZONE,3,30,9
India,Gujarat,Ahmedabad,"Maninagar, Ahmedabad - GPCB",04-04-2024 15:00:00,23.002657,72.591912,PM10,65,186,104
India,Gujarat,Ahmedabad,"Rakhial, Ahmedabad - IITM",04-04-2024 15:00:00,23.016834,72.625775,NO2,16,58,28
India,Gujarat,Ahmedabad,"SVPI Airport Hansol, Ahmedabad - IITM",04-04-2024 15:00:00,23.076793,72.627874,NH3,NA,NA,NA
India,Gujarat,Ahmedabad,"SVPI Airport Hansol, Ahmedabad - IITM",04-04-2024 15:00:00,23.076793,72.627874,SO2,NA,NA,NA
India,Gujarat,Ahmedabad,"SVPI Airport Hansol, Ahmedabad - IITM",04-04-2024 15:00:00,23.076793,72.627874,OZONE,13,34,22
India,Gujarat,Vapi,"Phase-1 GIDC, Vapi - GPCB",04-04-2024 15:00:00,20.362421,72.918013,NH3,2,2,2
India,Gujarat,Vatva,"Phase-4 GIDC, Vatva - GPCB",04-04-2024 15:00:00,22.969611,72.643500,OZONE,8,39,19
India,Haryana,Ambala,"Patti Mehar, Ambala - HSPCB",04-04-2024 15:00:00,30.379589,76.778328,OZONE,31,53,45
India,Haryana,Ballabgarh,"Nathu Colony, Ballabgarh - HSPCB",04-04-2024 15:00:00,28.3419248,77.319699,NO2,12,13,12
India,Haryana,Bhiwani,"H.B. Colony, Bhiwani - HSPCB",04-04-2024 15:00:00,28.806223,76.141105,NO2,3,12,9
India,Haryana,Bhiwani,"H.B. Colony, Bhiwani - HSPCB",04-04-2024 15:00:00,28.806223,76.141105,SO2,1,13,6
India,Haryana,Bhiwani,"H.B. Colony, Bhiwani - HSPCB",04-04-2024 15:00:00,28.806223,76.141105,CO,10,34,18
India,Haryana,Charkhi Dadri,"Mini Secretariat, Charkhi Dadri - HSPCB",04-04-2024 15:00:00,28.593883,76.270653,NH3,6,8,7
India,Haryana,Charkhi Dadri,"Mini Secretariat, Charkhi Dadri - HSPCB",04-04-2024 15:00:00,28.593883,76.270653,OZONE,14,17,15
India,Haryana,Dharuhera,"Municipal Corporation Office, Dharuhera -  HSPCB",04-04-2024 15:00:00,28.206800,76.799700,OZONE,30,46,40
India,Haryana,Faridabad,"New Industrial Town, Faridabad - HSPCB",04-04-2024 15:00:00,28.39072,77.30059,PM10,110,397,195
India,Haryana,Faridabad,"Sector 30, Faridabad - HSPCB",04-04-2024 15:00:00,28.4417,77.3217,NH3,NA,NA,NA
India,Haryana,Faridabad,"Sector 30, Faridabad - HSPCB",04-04-2024 15:00:00,28.4417,77.3217,SO2,NA,NA,NA
India,Haryana,Faridabad,"Sector- 16A, Faridabad - HSPCB",04-04-2024 15:00:00,28.4088421,77.3099081,PM2.5,68,302,155
India,Haryana,Fatehabad,"Huda Sector, Fatehabad - HSPCB",04-04-2024 15:00:00,29.503664,75.467934,NO2,34,48,38
India,Haryana,Fatehabad,"Huda Sector, Fatehabad - HSPCB",04-04-2024 15:00:00,29.503664,75.467934,CO,6,8,7
India,Haryana,Gurugram,"Sector-51, Gurugram - HSPCB",04-04-2024 15:00:00,28.4227,77.0667,SO2,3,4,4
India,Haryana,Gurugram,"Teri Gram, Gurugram - HSPCB",04-04-2024 15:00:00,28.4275,77.1465,PM2.5,91,301,209
India,Haryana,Gurugram,"Teri Gram, Gurugram - HSPCB",04-04-2024 15:00:00,28.4275,77.1465,NO2,32,55,42
India,Haryana,Gurugram,"Teri Gram, Gurugram - HSPCB",04-04-2024 15:00:00,28.4275,77.1465,CO,12,45,24
India,Haryana,Gurugram,"Vikas Sadan, Gurugram - HSPCB",04-04-2024 15:00:00,28.4501238,77.0263051,SO2,35,70,45
India,Haryana,Hisar,"Urban Estate-II, Hisar - HSPCB",04-04-2024 15:00:00,29.140560,75.744941,SO2,NA,NA,NA
India,Haryana,Jind,"Police Lines, Jind - HSPCB",04-04-2024 15:00:00,29.307814,76.337619,PM2.5,30,77,47
India,Haryana,Jind,"Police Lines, Jind - HSPCB",04-04-2024 15:00:00,29.307814,76.337619,NO2,4,16,11
India,Haryana,Jind,"Police Lines, Jind - HSPCB",04-04-2024 15:00:00,29.307814,76.337619,OZONE,7,23,17
India,Haryana,Kaithal,"Rishi Nagar, Kaithal - HSPCB",04-04-2024 15:00:00,29.8006,76.4155,PM2.5,34,70,57
India,Haryana,Kaithal,"Rishi Nagar, Kaithal - HSPCB",04-04-2024 15:00:00,29.8006,76.4155,SO2,18,64,36
India,Haryana,Karnal,"Sector-12, Karnal - HSPCB",04-04-2024 15:00:00,29.695300,77.002700,PM10,48,107,80
India,Haryana,Kurukshetra,"Sector-7, Kurukshetra - HSPCB",04-04-2024 15:00:00,29.966942,76.875879,OZONE,35,87,55
India,Haryana,Manesar,"Sector-2 IMT, Manesar - HSPCB",04-04-2024 15:00:00,28.360699,76.936090,NH3,1,3,2
India,Haryana,Narnaul,"Shastri Nagar, Narnaul - HSPCB",04-04-2024 15:00:00,28.060249,76.113115,NO2,12,75,35
India,Haryana,Narnaul,"Shastri Nagar, Narnaul - HSPCB",04-04-2024 15:00:00,28.060249,76.113115,NH3,4,24,11
India,Haryana,Narnaul,"Shastri Nagar, Narnaul - HSPCB",04-04-2024 15:00:00,28.060249,76.113115,CO,14,40,25
India,Haryana,Palwal,"Shyam Nagar, Palwal - HSPCB",04-04-2024 15:00:00,28.1485564,77.3320667,NH3,8,9,9
India,Haryana,Rohtak,"MD University, Rohtak - HSPCB",04-04-2024 15:00:00,28.52123,76.37138,PM2.5,2,11,6
India,Haryana,Rohtak,"MD University, Rohtak - HSPCB",04-04-2024 15:00:00,28.52123,76.37138,NO2,44,55,50
India,Haryana,Sirsa,"F-Block, Sirsa - HSPCB",04-04-2024 15:00:00,29.536400,75.015800,NO2,10,15,10
India,Haryana,Sirsa,"F-Block, Sirsa - HSPCB",04-04-2024 15:00:00,29.536400,75.015800,NH3,10,16,13
India,Haryana,Sonipat,"Murthal, Sonipat - HSPCB",04-04-2024 15:00:00,29.027200,77.062100,PM2.5,35,71,63
India,Haryana,Sonipat,"Murthal, Sonipat - HSPCB",04-04-2024 15:00:00,29.027200,77.062100,PM10,100,107,106
India,Haryana,Yamuna Nagar,"Gobind Pura, Yamuna Nagar - HSPCB",04-04-2024 15:00:00,30.1480566,77.2893471,PM2.5,54,138,81
India,Himachal Pradesh,Baddi,"HIMUDA Complex Phase-1, Baddi - HPPCB",04-04-2024 15:00:00,30.943887,76.801991,PM10,35,183,103
India,Himachal Pradesh,Baddi,"HIMUDA Complex Phase-1, Baddi - HPPCB",04-04-2024 15:00:00,30.943887,76.801991,NO2,8,47,25
India,Himachal Pradesh,Baddi,"HIMUDA Complex Phase-1, Baddi - HPPCB",04-04-2024 15:00:00,30.943887,76.801991,NH3,2,6,4
India,Jharkhand,Dhanbad,"Kalakusuma, Dhanbad - DMC",04-04-2024 15:00:00,23.811548,86.481238,NO2,13,166,57
India,Jharkhand,Dhanbad,"Sardar Patel Nagar, Dhanbad - JSPCB",04-04-2024 15:00:00,23.80569,86.44268,NO2,3,160,57
India,Jharkhand,Dhanbad,"Sardar Patel Nagar, Dhanbad - JSPCB",04-04-2024 15:00:00,23.80569,86.44268,OZONE,12,67,31
India,Karnataka,Bagalkot,"Vidayagiri, Bagalkot - KSPCB",04-04-2024 15:00:00,16.172806,75.659694,PM2.5,27,41,39
India,Karnataka,Belgaum,"Ramteerth Nagar, Belgaum - KSPCB",04-04-2024 15:00:00,15.888653,74.541751,SO2,9,10,9
India,Karnataka,Bengaluru,"BTM Layout, Bengaluru - CPCB",04-04-2024 15:00:00,12.9135218,77.5950804,NH3,4,5,5
India,Karnataka,Bengaluru,"Bapuji Nagar, Bengaluru - KSPCB",04-04-2024 15:00:00,12.951913,77.539784,PM2.5,42,141,82
India,Karnataka,Bengaluru,"Bapuji Nagar, Bengaluru - KSPCB",04-04-2024 15:00:00,12.951913,77.539784,CO,19,45,36
India,Karnataka,Bengaluru,"Jigani, Bengaluru - KSPCB",04-04-2024 15:00:00,12.7816279,77.6299145,PM10,31,109,75
India,Karnataka,Bengaluru,"Jigani, Bengaluru - KSPCB",04-04-2024 15:00:00,12.7816279,77.6299145,OZONE,13,70,35
India,Karnataka,Bengaluru,"RVCE-Mailasandra, Bengaluru - KSPCB",04-04-2024 15:00:00,12.921418,77.502466,NO2,16,17,17
India,Karnataka,Bengaluru,"RVCE-Mailasandra, Bengaluru - KSPCB",04-04-2024 15:00:00,12.921418,77.502466,SO2,5,12,8
India,Karnataka,Bengaluru,"RVCE-Mailasandra, Bengaluru - KSPCB",04-04-2024 15:00:00,12.921418,77.502466,CO,34,69,40
India,Karnataka,Bengaluru,"Sanegurava Halli, Bengaluru - KSPCB",04-04-2024 15:00:00,12.990328,77.5431385,PM10,38,98,49
India,Karnataka,Bengaluru,"Shivapura_Peenya, Bengaluru - KSPCB",04-04-2024 15:00:00,13.0246342,77.5080115,NH3,4,4,4
India,Karnataka,Bengaluru,"Shivapura_Peenya, Bengaluru - KSPCB",04-04-2024 15:00:00,13.0246342,77.5080115,CO,25,62,35
India,Karnataka,Bengaluru,"Silk Board, Bengaluru - KSPCB",04-04-2024 15:00:00,12.917348,77.622813,PM10,32,95,58
India,Karnataka,Bengaluru,"Silk Board, Bengaluru - KSPCB",04-04-2024 15:00:00,12.917348,77.622813,NH3,4,6,5
India,Karnataka,Bidar,"Naubad, Bidar - KSPCB",04-04-2024 15:00:00,17.930306,77.482194,OZONE,15,53,34
India,Karnataka,Chamarajanagar,"Urban, Chamarajanagar - KSPCB",04-04-2024 15:00:00,11.55358,76.55521,SO2,2,9,4
India,Karnataka,Chamarajanagar,"Urban, Chamarajanagar - KSPCB",04-04-2024 15:00:00,11.55358,76.55521,CO,19,30,24
India,Karnataka,Chamarajanagar,"Urban, Chamarajanagar - KSPCB",04-04-2024 15:00:00,11.55358,76.55521,OZONE,14,38,23
India,Karnataka,Chikkaballapur,"Chikkaballapur Rural, Chikkaballapur - KSPCB",04-04-2024 15:00:00,13.428828,77.731418,PM10,41,102,72
India,Karnataka,Chikkamagaluru,"Kalyana Nagara, Chikkamagaluru - KSPCB",04-04-2024 15:00:00,13.328028,75.797056,NO2,13,31,18
India,Karnataka,Chikkamagaluru,"Kalyana Nagara, Chikkamagaluru - KSPCB",04-04-2024 15:00:00,13.328028,75.797056,SO2,2,13,5
India,Karnataka,Dharwad,"Kalabhavan, Dharwad - KSPCB",04-04-2024 15:00:00,15.459706,75.008381,PM2.5,56,67,58
India,Karnataka,Dharwad,"Kalabhavan, Dharwad - KSPCB",04-04-2024 15:00:00,15.459706,75.008381,PM10,66,81,70
India,Karnataka,Dharwad,"Kalabhavan, Dharwad - KSPCB",04-04-2024 15:00:00,15.459706,75.008381,SO2,2,10,4
India,Karnataka,Gadag,"Panchal Nagar, Gadag - KSPCB",04-04-2024 15:00:00,15.411456,75.638133,PM2.5,38,347,72
India,Karnataka,Gadag,"Panchal Nagar, Gadag - KSPCB",04-04-2024 15:00:00,15.411456,75.638133,PM10,44,67,57
India,Karnataka,Gadag,"Panchal Nagar, Gadag - KSPCB",04-04-2024 15:00:00,15.411456,75.638133,CO,42,48,46
India,Karnataka,Haveri,"Ashwini Nagar, Haveri - KSPCB",04-04-2024 15:00:00,14.791800,75.389600,OZONE,18,25,19
India,Karnataka,Hubballi,"Deshpande Nagar, Hubballi - KSPCB",04-04-2024 15:00:00,15.351773,75.140726,PM10,85,141,118
India,Karnataka,Hubballi,"Deshpande Nagar, Hubballi - KSPCB",04-04-2024 15:00:00,15.351773,75.140726,CO,1,14,7
India,Karnataka,Kalaburagi,"Lal Bahadur Shastri Nagar, Kalaburagi - KSPCB",04-04-2024 15:00:00,17.321993,76.822628,PM10,44,158,83
India,Karnataka,Kalaburagi,"Mahatma Basaveswar Colony, Kalaburgi - KSPCB",04-04-2024 15:00:00,17.336318,76.847397,PM2.5,27,91,44
India,Karnataka,Karwar,"KHB Colony, Karwar - KSPCB",04-04-2024 15:00:00,14.816666,74.141003,NO2,1,17,4
India,Karnataka,Karwar,"KHB Colony, Karwar - KSPCB",04-04-2024 15:00:00,14.816666,74.141003,CO,8,8,8
India,Karnataka,Kolar,"Tamaka Ind. Area, Kolar - KSPCB",04-04-2024 15:00:00,13.1276288,78.1570122,PM10,37,121,61
India,Karnataka,Koppal,"Diwator Nagar, Koppal - KSPCB",04-04-2024 15:00:00,15.347630,76.181767,NO2,18,62,46
India,Karnataka,Koppal,"Diwator Nagar, Koppal - KSPCB",04-04-2024 15:00:00,15.347630,76.181767,SO2,27,28,27
India,Karnataka,Madikeri,"Stuart Hill, Madikeri - KSPCB",04-04-2024 15:00:00,12.415911,75.735050,SO2,4,4,4
India,Karnataka,Mangalore,"Kadri, Mangalore - KSPCB",04-04-2024 15:00:00,12.889250,74.853000,OZONE,27,34,30
India,Karnataka,Mysuru,"Hebbal 1st Stage, Mysuru - KSPCB",04-04-2024 15:00:00,12.21041,76.37376,PM10,35,74,45
India,Karnataka,Mysuru,"Hebbal 1st Stage, Mysuru - KSPCB",04-04-2024 15:00:00,12.21041,76.37376,CO,1,100,16
India,Karnataka,Raichur,"Haji Colony, Raichur - KSPCB",04-04-2024 15:00:00,16.208139,77.348417,PM10,NA,NA,NA
India,Karnataka,Raichur,"Haji Colony, Raichur - KSPCB",04-04-2024 15:00:00,16.208139,77.348417,NO2,24,52,39
India,Karnataka,Raichur,"Haji Colony, Raichur - KSPCB",04-04-2024 15:00:00,16.208139,77.348417,CO,100,117,104
India,Karnataka,Ramanagara,"Vijay Nagar, Ramanagara - KSPCB",04-04-2024 15:00:00,12.733409,77.298051,OZONE,27,31,28
India,Karnataka,Shivamogga,"Vinoba Nagara, Shivamogga - KSPCB",04-04-2024 15:00:00,13.940000,75.555917,NH3,2,3,3
India,Karnataka,Tumakuru,"Thimmalapura, Tumakuru - KSPCB",04-04-2024 15:00:00,13.377516,77.099072,SO2,8,15,10
India,Karnataka,Vijayapura,"Ibrahimpur, Vijayapura - KSPCB",04-04-2024 15:00:00,16.802639,75.722694,SO2,28,103,54
India,Karnataka,Vijayapura,"Ibrahimpur, Vijayapura - KSPCB",04-04-2024 15:00:00,16.802639,75.722694,CO,NA,NA,NA
India,Karnataka,Yadgir,"Collector Office, Yadgir - KSPCB",04-04-2024 15:00:00,16.7602,77.1428,PM2.5,49,85,68
India,Kerala,Eloor,"Udyogamandal, Eloor - Kerala PCB",04-04-2024 15:00:00,10.073232,76.302765,SO2,1,13,3
India,Kerala,Eloor,"Udyogamandal, Eloor - Kerala PCB",04-04-2024 15:00:00,10.073232,76.302765,CO,14,101,57
India,Kerala,Kollam,"Polayathode, Kollam - Kerala PCB",04-04-2024 15:00:00,8.8787,76.6073,SO2,1,14,2
India,Kerala,Kollam,"Polayathode, Kollam - Kerala PCB",04-04-2024 15:00:00,8.8787,76.6073,CO,6,39,21
India,Kerala,Thiruvananthapuram,"Kariavattom, Thiruvananthapuram - Kerala PCB",04-04-2024 15:00:00,8.563700,76.886500,NH3,1,1,1
India,Kerala,Thiruvananthapuram,"Kariavattom, Thiruvananthapuram - Kerala PCB",04-04-2024 15:00:00,8.563700,76.886500,SO2,2,11,6
India,Kerala,Thiruvananthapuram,"Plammoodu, Thiruvananthapuram - Kerala PCB",04-04-2024 15:00:00,8.5149093,76.9435879,CO,13,29,19
India,Kerala,Thrissur,"Corporation Ground, Thrissur - Kerala PCB",04-04-2024 15:00:00,10.532400,76.215900,SO2,NA,NA,NA
India,Madhya Pradesh,Bhopal,"Paryavaran Parisar, Bhopal - MPPCB",04-04-2024 15:00:00,23.210494,77.425409,SO2,3,14,7
India,Madhya Pradesh,Dewas,"Bhopal Chauraha, Dewas - MPPCB",04-04-2024 15:00:00,22.9682591,76.064118,NO2,12,14,13
India,Madhya Pradesh,Dewas,"Bhopal Chauraha, Dewas - MPPCB",04-04-2024 15:00:00,22.9682591,76.064118,NH3,3,3,3
India,Madhya Pradesh,Dewas,"Bhopal Chauraha, Dewas - MPPCB",04-04-2024 15:00:00,22.9682591,76.064118,CO,14,52,22
India,Madhya Pradesh,Dewas,"Bhopal Chauraha, Dewas - MPPCB",04-04-2024 15:00:00,22.9682591,76.064118,OZONE,35,96,56
India,Madhya Pradesh,Gwalior,"City Center, Gwalior - MPPCB",04-04-2024 15:00:00,26.203442,78.193251,PM2.5,32,186,90
India,Madhya Pradesh,Gwalior,"City Center, Gwalior - MPPCB",04-04-2024 15:00:00,26.203442,78.193251,PM10,76,153,107
India,Madhya Pradesh,Gwalior,"Deen Dayal Nagar, Gwalior - MPPCB",04-04-2024 15:00:00,26.259242,78.216432,PM2.5,47,137,80
India,Madhya Pradesh,Gwalior,"Deen Dayal Nagar, Gwalior - MPPCB",04-04-2024 15:00:00,26.259242,78.216432,NH3,6,10,7
India,Madhya Pradesh,Gwalior,"Maharaj Bada, Gwalior - MPPCB",04-04-2024 15:00:00,26.200388,78.147714,PM2.5,37,201,77
