country,state,city,station,last_update,latitude,longitude,pollutant_id,pollutant_min,pollutant_max,pollutant_avg
India,Andhra_Pradesh,Amaravati,"Secretariat, Amaravati - APPCB",11-05-2024 00:00:00,16.5150833,80.5181667,PM10,10,38,20
India,Andhra_Pradesh,Amaravati,"Secretariat, Amaravati - APPCB",11-05-2024 00:00:00,16.5150833,80.5181667,SO2,6,17,13
India,Andhra_Pradesh,Amaravati,"Secretariat, Amaravati - APPCB",11-05-2024 00:00:00,16.5150833,80.5181667,CO,8,134,62
India,Andhra_Pradesh,Anantapur,"Gulzarpet, Anantapur - APPCB",11-05-2024 00:00:00,14.675886,77.593027,CO,26,47,37
India,Andhra_Pradesh,Anantapur,"Gulzarpet, Anantapur - APPCB",11-05-2024 00:00:00,14.675886,77.593027,OZONE,13,62,42
India,Andhra_Pradesh,Rajamahendravaram,"Anand Kala Kshetram, Rajamahendravaram - APPCB",11-05-2024 00:00:00,16.9872867,81.7363176,CO,23,35,27
India,Andhra_Pradesh,Tirupati,"Tirumala, Tirupati - APPCB",11-05-2024 00:00:00,13.67,79.35,NO2,13,31,22
India,Andhra_Pradesh,Tirupati,"Vaikuntapuram, Tirupati - APPCB",11-05-2024 00:00:00,13.615387,79.409230,OZONE,6,21,14
India,Andhra_Pradesh,Vijayawada,"HB Colony, Vijayawada - APPCB",11-05-2024 00:00:00,16.536107,80.594233,OZONE,8,73,27
India,Andhra_Pradesh,Vijayawada,"Kanuru, Vijayawada - APPCB",11-05-2024 00:00:00,16.486692,80.699436,PM10,50,72,58
India,Andhra_Pradesh,Vijayawada,"Kanuru, Vijayawada - APPCB",11-05-2024 00:00:00,16.486692,80.699436,SO2,6,8,7
India,Andhra_Pradesh,Vijayawada,"Kanuru, Vijayawada - APPCB",11-05-2024 00:00:00,16.486692,80.699436,OZONE,29,29,29
India,Andhra_Pradesh,Vijayawada,"Rajiv Gandhi Park, Vijayawada - APPCB",11-05-2024 00:00:00,16.509717,80.612222,PM10,28,99,52
India,Andhra_Pradesh,Vijayawada,"Rajiv Nagar, Vijayawada - APPCB",11-05-2024 00:00:00,16.554731,80.649110,PM2.5,43,46,44
India,Andhra_Pradesh,Vijayawada,"Rajiv Nagar, Vijayawada - APPCB",11-05-2024 00:00:00,16.554731,80.649110,NO2,12,13,12
India,Andhra_Pradesh,Vijayawada,"Rajiv Nagar, Vijayawada - APPCB",11-05-2024 00:00:00,16.554731,80.649110,SO2,13,21,16
India,Andhra_Pradesh,Visakhapatnam,"GVM Corporation, Visakhapatnam - APPCB",11-05-2024 00:00:00,17.72,83.3,NO2,24,82,42
India,Andhra_Pradesh,Visakhapatnam,"GVM Corporation, Visakhapatnam - APPCB",11-05-2024 00:00:00,17.72,83.3,SO2,6,16,13
India,Arunachal_Pradesh,Naharlagun,"Naharlagun, Naharlagun - APSPCB",11-05-2024 00:00:00,27.103358,93.679645,PM10,10,45,32
India,Assam,Byrnihat,"Central Academy for SFS, Byrnihat - PCBA",11-05-2024 00:00:00,26.071318,91.87488,NO2,1,64,29
India,Assam,Guwahati,"IITG, Guwahati - PCBA",11-05-2024 00:00:00,26.2028636,91.70046436,PM10,22,84,45
India,Assam,Guwahati,"IITG, Guwahati - PCBA",11-05-2024 00:00:00,26.2028636,91.70046436,SO2,12,13,13
India,Assam,Guwahati,"LGBI Airport, Guwahati - PCBA",11-05-2024 00:00:00,26.10887,91.589544,PM2.5,12,335,85
India,Assam,Guwahati,"LGBI Airport, Guwahati - PCBA",11-05-2024 00:00:00,26.10887,91.589544,NO2,13,53,35
India,Assam,Guwahati,"LGBI Airport, Guwahati - PCBA",11-05-2024 00:00:00,26.10887,91.589544,CO,27,69,55
India,Assam,Guwahati,"Pan Bazaar, Guwahati - PCBA",11-05-2024 00:00:00,26.187500,91.744194,NO2,NA,NA,NA
India,Assam,Guwahati,"Pan Bazaar, Guwahati - PCBA",11-05-2024 00:00:00,26.187500,91.744194,OZONE,16,17,17
India,Assam,Guwahati,"Railway Colony, Guwahati - PCBA",11-05-2024 00:00:00,26.181742,91.78063,NO2,3,4,3
India,Assam,Guwahati,"Railway Colony, Guwahati - PCBA",11-05-2024 00:00:00,26.181742,91.78063,CO,12,54,26
India,Assam,Nagaon,"Christianpatty, Nagaon - PCBA",11-05-2024 00:00:00,26.349082,92.68449,NO2,2,22,8
India,Assam,Nagaon,"Christianpatty, Nagaon - PCBA",11-05-2024 00:00:00,26.349082,92.68449,NH3,1,3,2
India,Assam,Nagaon,"Christianpatty, Nagaon - PCBA",11-05-2024 00:00:00,26.349082,92.68449,SO2,NA,NA,NA
India,Assam,Nalbari,"Bata Chowk, Nalbari - PCBA",11-05-2024 00:00:00,26.446912,91.439057,PM2.5,22,68,31
India,Assam,Nalbari,"Bata Chowk, Nalbari - PCBA",11-05-2024 00:00:00,26.446912,91.439057,CO,68,104,84
India,Assam,Silchar,"Tarapur, Silchar - PCBA",11-05-2024 00:00:00,24.82827,92.79525,NO2,14,16,15
India,Assam,Silchar,"Tarapur, Silchar - PCBA",11-05-2024 00:00:00,24.82827,92.79525,SO2,5,5,5
India,Assam,Silchar,"Tarapur, Silchar - PCBA",11-05-2024 00:00:00,24.82827,92.79525,OZONE,1,13,3
India,Assam,Sivasagar,"Girls College, Sivasagar - PCBA",11-05-2024 00:00:00,26.987634,94.636574,SO2,5,9,7
India,Bihar,Araria,"Kharahiya Basti, Araria - BSPCB",11-05-2024 00:00:00,26.146529,87.454184,PM2.5,9,47,29
India,Bihar,Araria,"Kharahiya Basti, Araria - BSPCB",11-05-2024 00:00:00,26.146529,87.454184,NO2,2,177,15
India,Bihar,Arrah,"New DM Office, Arrah - BSPCB",11-05-2024 00:00:00,25.5626095,84.663264,PM10,NA,NA,NA
India,Bihar,Arrah,"New DM Office, Arrah - BSPCB",11-05-2024 00:00:00,25.5626095,84.663264,NH3,NA,NA,NA
India,Bihar,Arrah,"New DM Office, Arrah - BSPCB",11-05-2024 00:00:00,25.5626095,84.663264,SO2,NA,NA,NA
India,Bihar,Aurangabad,"Gurdeo Nagar, Aurangabad - BSPCB",11-05-2024 00:00:00,24.75746,84.366208,NH3,5,15,10
India,Bihar,Aurangabad,"Gurdeo Nagar, Aurangabad - BSPCB",11-05-2024 00:00:00,24.75746,84.366208,OZONE,43,165,116
India,Bihar,Bettiah,"Kamalnath Nagar, Bettiah - BSPCB",11-05-2024 00:00:00,26.80365,84.51954,OZONE,1,11,4
India,Bihar,Bhagalpur,"DM Office_Kachari Chowk, Bhagalpur - BSPCB",11-05-2024 00:00:00,25.251013,86.989001,PM2.5,72,203,116
India,Bihar,Bhagalpur,"DM Office_Kachari Chowk, Bhagalpur - BSPCB",11-05-2024 00:00:00,25.251013,86.989001,NO2,37,70,59
India,Bihar,Bihar Sharif,"D M Colony, Bihar Sharif - BSPCB",11-05-2024 00:00:00,25.204762,85.514960,PM10,18,82,51
India,Bihar,Bihar Sharif,"D M Colony, Bihar Sharif - BSPCB",11-05-2024 00:00:00,25.204762,85.514960,NO2,7,10,9
India,Bihar,Buxar,"Charitra Van, Buxar - BSPCB (Formerly known as Central Jail)",11-05-2024 00:00:00,25.567520,83.966379,PM10,75,179,114
India,Bihar,Buxar,"Charitra Van, Buxar - BSPCB (Formerly known as Central Jail)",11-05-2024 00:00:00,25.567520,83.966379,CO,50,92,74
India,Bihar,Gaya,"Kareemganj, Gaya - BSPCB",11-05-2024 00:00:00,24.792403,84.992416,PM10,12,42,22
India,Bihar,Gaya,"Kareemganj, Gaya - BSPCB",11-05-2024 00:00:00,24.792403,84.992416,OZONE,2,54,19
India,Bihar,Gaya,"SFTI Kusdihra, Gaya - BSPCB",11-05-2024 00:00:00,24.762518,84.982348,SO2,7,27,11
India,Bihar,Gaya,"SFTI Kusdihra, Gaya - BSPCB",11-05-2024 00:00:00,24.762518,84.982348,OZONE,1,104,60
India,Bihar,Hajipur,"Industrial Area, Hajipur - BSPCB",11-05-2024 00:00:00,25.697189,85.245900,PM2.5,16,76,32
India,Bihar,Hajipur,"Industrial Area, Hajipur - BSPCB",11-05-2024 00:00:00,25.697189,85.245900,NO2,12,63,48
India,Bihar,Katihar,"Mirchaibari, Katihar - BSPCB",11-05-2024 00:00:00,25.560083,87.553265,CO,18,92,88
India,Bihar,Kishanganj,"SDM Office_Khagra, Kishanganj - BSPCB",11-05-2024 00:00:00,26.0881305,87.93840336,SO2,12,32,22
India,Bihar,Manguraha,"Forest Rest House, Manguraha - BSPCB",11-05-2024 00:00:00,27.308328,84.531742,OZONE,3,65,11
India,Bihar,Motihari,"Gandak Colony, Motihari - BSPCB",11-05-2024 00:00:00,26.63086,84.90051,PM10,NA,NA,NA
India,Bihar,Motihari,"Gandak Colony, Motihari - BSPCB",11-05-2024 00:00:00,26.63086,84.90051,NH3,4,9,6
India,Bihar,Motihari,"Gandak Colony, Motihari - BSPCB",11-05-2024 00:00:00,26.63086,84.90051,SO2,NA,NA,NA
India,Bihar,Munger,"Town Hall, Munger - BSPCB",11-05-2024 00:00:00,25.376776,86.471523,PM10,49,141,76
India,Bihar,Munger,"Town Hall, Munger - BSPCB",11-05-2024 00:00:00,25.376776,86.471523,NH3,2,3,3
India,Bihar,Munger,"Town Hall, Munger - BSPCB",11-05-2024 00:00:00,25.376776,86.471523,CO,50,101,86
India,Bihar,Muzaffarpur,"Buddha Colony, Muzaffarpur - BSPCB",11-05-2024 00:00:00,26.11442,85.39813,SO2,3,8,5
India,Bihar,Muzaffarpur,"Buddha Colony, Muzaffarpur - BSPCB",11-05-2024 00:00:00,26.11442,85.39813,OZONE,16,48,35
India,Bihar,Muzaffarpur,"MIT-Daudpur Kothi, Muzaffarpur - BSPCB",11-05-2024 00:00:00,26.1403345,85.3650192,NO2,3,6,5
India,Bihar,Muzaffarpur,"MIT-Daudpur Kothi, Muzaffarpur - BSPCB",11-05-2024 00:00:00,26.1403345,85.3650192,NH3,1,1,1
India,Bihar,Muzaffarpur,"MIT-Daudpur Kothi, Muzaffarpur - BSPCB",11-05-2024 00:00:00,26.1403345,85.3650192,SO2,7,7,7
India,Bihar,Muzaffarpur,"MIT-Daudpur Kothi, Muzaffarpur - BSPCB",11-05-2024 00:00:00,26.1403345,85.3650192,CO,14,110,68
India,Bihar,Muzaffarpur,"Muzaffarpur Collectorate, Muzaffarpur - BSPCB",11-05-2024 00:00:00,26.1209,85.3647,PM2.5,37,192,73
India,Bihar,Patna,"DRM Office Danapur, Patna - BSPCB",11-05-2024 00:00:00,25.586562,85.043586,PM10,47,96,72
India,Bihar,Patna,"Govt. High School Shikarpur, Patna - BSPCB",11-05-2024 00:00:00,25.592539,85.227158,NO2,21,23,22
India,Bihar,Patna,"IGSC Planetarium Complex, Patna - BSPCB",11-05-2024 00:00:00,25.610369,85.132568,PM2.5,65,130,89
India,Bihar,Patna,"IGSC Planetarium Complex, Patna - BSPCB",11-05-2024 00:00:00,25.610369,85.132568,SO2,5,6,5
India,Bihar,Patna,"IGSC Planetarium Complex, Patna - BSPCB",11-05-2024 00:00:00,25.610369,85.132568,CO,12,16,16
India,Bihar,Patna,"Samanpura, Patna - BSPCB",11-05-2024 00:00:00,25.596727,85.085624,NO2,15,28,21
India,Bihar,Patna,"Samanpura, Patna - BSPCB",11-05-2024 00:00:00,25.596727,85.085624,SO2,6,21,9
India,Bihar,Patna,"Samanpura, Patna - BSPCB",11-05-2024 00:00:00,25.596727,85.085624,CO,44,73,60
India,Bihar,Purnia,"Mariam Nagar, Purnia - BSPCB",11-05-2024 00:00:00,25.366336,87.117468,PM2.5,NA,NA,NA
India,Bihar,Rajgir,"Dangi Tola, Rajgir - BSPCB",11-05-2024 00:00:00,25.03280,85.41948,OZONE,31,36,33
India,Bihar,Saharsa,"Police Line, Saharsa - BSPCB",11-05-2024 00:00:00,25.892357,86.590325,NH3,9,9,9
India,Bihar,Samastipur,"DM Office_Kasipur, Samastipur - BSPCB",11-05-2024 00:00:00,25.859655,85.77944,PM2.5,40,313,120
India,Bihar,Samastipur,"DM Office_Kasipur, Samastipur - BSPCB",11-05-2024 00:00:00,25.859655,85.77944,PM10,64,217,118
India,Bihar,Samastipur,"DM Office_Kasipur, Samastipur - BSPCB",11-05-2024 00:00:00,25.859655,85.77944,OZONE,1,16,4
India,Bihar,Siwan,"Chitragupta Nagar, Siwan - BSPCB",11-05-2024 00:00:00,26.2271665,84.3570427,PM10,NA,NA,NA
India,Chandigarh,Chandigarh,"Sector-53, Chandigarh - CPCC",11-05-2024 00:00:00,30.719859,76.738637,NO2,16,47,24
India,Chhattisgarh,Bhilai,"32Bungalows, Bhilai - CECB",11-05-2024 00:00:00,21.194815,81.314770,NO2,17,28,24
India,Chhattisgarh,Bhilai,"Hathkhoj, Bhilai - CECB",11-05-2024 00:00:00,21.224231,81.408350,NH3,8,9,8
India,Chhattisgarh,Bhilai,"Hathkhoj, Bhilai - CECB",11-05-2024 00:00:00,21.224231,81.408350,OZONE,17,35,29
India,Chhattisgarh,Bilaspur,"Mangala, Bilaspur - NTPC",11-05-2024 00:00:00,22.08815,82.13737,PM2.5,21,53,37
India,Chhattisgarh,Bilaspur,"Mangala, Bilaspur - NTPC",11-05-2024 00:00:00,22.08815,82.13737,PM10,28,60,39
India,Chhattisgarh,Chhal,"Nawapara SECL Colony, Chhal - CECB",11-05-2024 00:00:00,22.118125,83.140608,PM10,38,92,51
India,Chhattisgarh,Korba,"Rampur, Korba - CECB",11-05-2024 00:00:00,22.368195,82.746431,PM2.5,13,37,25
India,Chhattisgarh,Korba,"Rampur, Korba - CECB",11-05-2024 00:00:00,22.368195,82.746431,NO2,21,45,36
India,Chhattisgarh,Korba,"Rampur, Korba - CECB",11-05-2024 00:00:00,22.368195,82.746431,SO2,1,17,4
India,Chhattisgarh,Kunjemura,"OP Jindal School, Kunjemura - CECB",11-05-2024 00:00:00,22.126650,83.483212,NH3,2,4,3
India,Chhattisgarh,Milupara,"Govt. Higher Secondary School, Milupara - CECB",11-05-2024 00:00:00,22.1910172,83.5197009,OZONE,8,24,16
India,Chhattisgarh,Raipur,"AIIMS, Raipur - CECB",11-05-2024 00:00:00,21.258815,81.578979,PM2.5,NA,NA,NA
India,Chhattisgarh,Raipur,"AIIMS, Raipur - CECB",11-05-2024 00:00:00,21.258815,81.578979,PM10,NA,NA,NA
India,Chhattisgarh,Raipur,"Bhatagaon New ISBT, Raipur - CECB",11-05-2024 00:00:00,21.219665,81.630094,PM10,19,72,36
India,Chhattisgarh,Raipur,"Bhatagaon New ISBT, Raipur - CECB",11-05-2024 00:00:00,21.219665,81.630094,NO2,5,23,15
India,Chhattisgarh,Raipur,"Bhatagaon New ISBT, Raipur - CECB",11-05-2024 00:00:00,21.219665,81.630094,SO2,1,4,2
India,Chhattisgarh,Raipur,"Bhatagaon New ISBT, Raipur - CECB",11-05-2024 00:00:00,21.219665,81.630094,OZONE,3,23,6
India,Chhattisgarh,Tumidih,"OP Jindal Industrial Park, Tumidih - CECB",11-05-2024 00:00:00,22.06631475,83.33820077,PM2.5,22,81,47
India,Chhattisgarh,Tumidih,"OP Jindal Industrial Park, Tumidih - CECB",11-05-2024 00:00:00,22.06631475,83.33820077,NH3,1,2,1
India,Delhi,Delhi,"Alipur, Delhi - DPCC",11-05-2024 00:00:00,28.815329,77.153010,NH3,8,11,9
India,Delhi,Delhi,"Anand Vihar, Delhi - DPCC",11-05-2024 00:00:00,28.647622,77.3158090,PM10,NA,NA,NA
India,Delhi,Delhi,"Ashok Vihar, Delhi - DPCC",11-05-2024 00:00:00,28.695381,77.181665,PM2.5,89,224,115
India,Delhi,Delhi,"Aya Nagar, Delhi - IMD",11-05-2024 00:00:00,28.4706914,77.1099364,PM2.5,NA,NA,NA
India,Delhi,Delhi,"Aya Nagar, Delhi - IMD",11-05-2024 00:00:00,28.4706914,77.1099364,CO,NA,NA,NA
India,Delhi,Delhi,"Bawana, Delhi - DPCC",11-05-2024 00:00:00,28.776200,77.051074,PM2.5,123,463,177
India,Delhi,Delhi,"CRRI Mathura Road, Delhi - IMD",11-05-2024 00:00:00,28.5512005,77.2735737,OZONE,16,76,58
India,Delhi,Delhi,"Chandni Chowk, Delhi - IITM",11-05-2024 00:00:00,28.656756,77.227234,PM2.5,239,331,296
India,Delhi,Delhi,"DTU, Delhi - CPCB",11-05-2024 00:00:00,28.7500499,77.1112615,PM2.5,140,500,233
India,Delhi,Delhi,"DTU, Delhi - CPCB",11-05-2024 00:00:00,28.7500499,77.1112615,SO2,26,115,42
India,Delhi,Delhi,"Dr. Karni Singh Shooting Range, Delhi - DPCC",11-05-2024 00:00:00,28.498571,77.264840,NO2,17,55,28
India,Delhi,Delhi,"Dwarka-Sector 8, Delhi - DPCC ",11-05-2024 00:00:00,28.5710274,77.0719006,PM10,130,500,197
India,Delhi,Delhi,"IGI Airport (T3), Delhi - IMD",11-05-2024 00:00:00,28.5627763,77.1180053,PM10,121,208,138
India,Delhi,Delhi,"IGI Airport (T3), Delhi - IMD",11-05-2024 00:00:00,28.5627763,77.1180053,OZONE,14,58,51
India,Delhi,Delhi,"IHBAS, Dilshad Garden, Delhi - CPCB",11-05-2024 00:00:00,28.6811736,77.3025234,PM10,114,131,120
India,Delhi,Delhi,"IHBAS, Dilshad Garden, Delhi - CPCB",11-05-2024 00:00:00,28.6811736,77.3025234,OZONE,12,23,16
India,Delhi,Delhi,"ITO, Delhi - CPCB",11-05-2024 00:00:00,28.628624,77.241060,CO,20,103,67
India,Delhi,Delhi,"ITO, Delhi - CPCB",11-05-2024 00:00:00,28.628624,77.241060,OZONE,16,87,50
India,Delhi,Delhi,"Jahangirpuri, Delhi - DPCC",11-05-2024 00:00:00,28.732820,77.170633,PM10,NA,NA,NA
India,Delhi,Delhi,"Jahangirpuri, Delhi - DPCC",11-05-2024 00:00:00,28.732820,77.170633,SO2,NA,NA,NA
India,Delhi,Delhi,"Jawaharlal Nehru Stadium, Delhi - DPCC",11-05-2024 00:00:00,28.580280,77.233829,PM10,127,163,142
India,Delhi,Delhi,"Lodhi Road, Delhi - IITM",11-05-2024 00:00:00,28.588333,77.221667,PM2.5,43,262,104
India,Delhi,Delhi,"Lodhi Road, Delhi - IITM",11-05-2024 00:00:00,28.588333,77.221667,SO2,13,34,24
India,Delhi,Delhi,"Lodhi Road, Delhi - IMD",11-05-2024 00:00:00,28.5918245,77.2273074,CO,16,22,17
India,Delhi,Delhi,"Major Dhyan Chand National Stadium, Delhi - DPCC",11-05-2024 00:00:00,28.611281,77.237738,PM2.5,98,276,149
India,Delhi,Delhi,"Mundka, Delhi - DPCC",11-05-2024 00:00:00,28.684678,77.076574,SO2,7,15,10
India,Delhi,Delhi,"NSIT Dwarka, Delhi - CPCB",11-05-2024 00:00:00,28.60909,77.0325413,PM2.5,92,343,169
India,Delhi,Delhi,"NSIT Dwarka, Delhi - CPCB",11-05-2024 00:00:00,28.60909,77.0325413,PM10,127,156,141
India,Delhi,Delhi,"NSIT Dwarka, Delhi - CPCB",11-05-2024 00:00:00,28.60909,77.0325413,NH3,15,20,18
India,Delhi,Delhi,"NSIT Dwarka, Delhi - CPCB",11-05-2024 00:00:00,28.60909,77.0325413,SO2,12,25,18
India,Delhi,Delhi,"NSIT Dwarka, Delhi - CPCB",11-05-2024 00:00:00,28.60909,77.0325413,CO,22,76,42
India,Delhi,Delhi,"Najafgarh, Delhi - DPCC",11-05-2024 00:00:00,28.570173,76.933762,OZONE,35,156,113
India,Delhi,Delhi,"Okhla Phase-2, Delhi - DPCC",11-05-2024 00:00:00,28.530785,77.271255,NO2,27,80,41
India,Delhi,Delhi,"Okhla Phase-2, Delhi - DPCC",11-05-2024 00:00:00,28.530785,77.271255,CO,60,102,81
India,Delhi,Delhi,"Patparganj, Delhi - DPCC",11-05-2024 00:00:00,28.623763,77.287209,OZONE,39,136,89
India,Delhi,Delhi,"Pusa, Delhi - DPCC",11-05-2024 00:00:00,28.639652,77.146275,SO2,5,16,13
India,Delhi,Delhi,"Pusa, Delhi - DPCC",11-05-2024 00:00:00,28.639652,77.146275,CO,4,103,34
India,Delhi,Delhi,"Rohini, Delhi - DPCC",11-05-2024 00:00:00,28.732528,77.119920,PM2.5,107,169,136
India,Delhi,Delhi,"Rohini, Delhi - DPCC",11-05-2024 00:00:00,28.732528,77.119920,CO,14,62,38
India,Delhi,Delhi,"Sirifort, Delhi - CPCB",11-05-2024 00:00:00,28.5504249,77.2159377,CO,9,70,44
India,Delhi,Delhi,"Sirifort, Delhi - CPCB",11-05-2024 00:00:00,28.5504249,77.2159377,OZONE,10,52,25
India,Delhi,Delhi,"Sonia Vihar, Delhi - DPCC",11-05-2024 00:00:00,28.710508,77.249485,NO2,14,59,33
India,Delhi,Delhi,"Vivek Vihar, Delhi - DPCC",11-05-2024 00:00:00,28.672342,77.315260,NO2,28,77,43
India,Delhi,Delhi,"Wazirpur, Delhi - DPCC",11-05-2024 00:00:00,28.699793,77.165453,PM2.5,95,307,160
India,Gujarat,Ahmedabad,"Chandkheda, Ahmedabad - IITM",11-05-2024 00:00:00,23.107969,72.574648,PM10,46,130,69
India,Gujarat,Ahmedabad,"Gyaspur, Ahmedabad - IITM",11-05-2024 00:00:00,22.977134,72.553024,SO2,39,64,48
India,Gujarat,Ahmedabad,"Maninagar, Ahmedabad - GPCB",11-05-2024 00:00:00,23.002657,72.591912,PM2.5,28,77,51
India,Gujarat,Ahmedabad,"Maninagar, Ahmedabad - GPCB",11-05-2024 00:00:00,23.002657,72.591912,NO2,34,53,42
India,Gujarat,Ahmedabad,"Raikhad, Ahmedabad - IITM",11-05-2024 00:00:00,23.020509,72.579261,PM2.5,84,318,249
India,Gujarat,Ahmedabad,"SVPI Airport Hansol, Ahmedabad - IITM",11-05-2024 00:00:00,23.076793,72.627874,PM10,81,111,101
India,Gujarat,Ahmedabad,"SVPI Airport Hansol, Ahmedabad - IITM",11-05-2024 00:00:00,23.076793,72.627874,NH3,5,8,6
India,Gujarat,Ankleshwar,"GIDC, Ankleshwar - GPCB",11-05-2024 00:00:00,21.613267,73.010555,OZONE,16,38,24
India,Gujarat,Gandhinagar,"Sector-10, Gandhinagar - GPCB",11-05-2024 00:00:00,23.221714,72.654328,PM2.5,30,48,39
India,Gujarat,Gandhinagar,"Sector-10, Gandhinagar - GPCB",11-05-2024 00:00:00,23.221714,72.654328,NO2,15,142,26
India,Gujarat,Gandhinagar,"Sector-10, Gandhinagar - GPCB",11-05-2024 00:00:00,23.221714,72.654328,OZONE,8,45,27
India,Gujarat,Nandesari,"GIDC, Nandesari - Nandesari Ind. Association",11-05-2024 00:00:00,22.410802,73.097923,NO2,2,22,11
India,Gujarat,Surat,"Science Center, Surat - SMC",11-05-2024 00:00:00,21.170046,72.795405,PM2.5,NA,NA,NA
India,Gujarat,Surat,"Science Center, Surat - SMC",11-05-2024 00:00:00,21.170046,72.795405,SO2,NA,NA,NA
India,Haryana,Ambala,"Patti Mehar, Ambala - HSPCB",11-05-2024 00:00:00,30.379589,76.778328,NO2,7,21,14
India,Haryana,Ambala,"Patti Mehar, Ambala - HSPCB",11-05-2024 00:00:00,30.379589,76.778328,SO2,3,33,26
India,Haryana,Bahadurgarh,"Arya Nagar, Bahadurgarh - HSPCB",11-05-2024 00:00:00,28.6701,76.9254,PM2.5,88,305,163
India,Haryana,Bahadurgarh,"Arya Nagar, Bahadurgarh - HSPCB",11-05-2024 00:00:00,28.6701,76.9254,NO2,20,24,22
India,Haryana,Bahadurgarh,"Arya Nagar, Bahadurgarh - HSPCB",11-05-2024 00:00:00,28.6701,76.9254,NH3,8,10,9
India,Haryana,Bahadurgarh,"Arya Nagar, Bahadurgarh - HSPCB",11-05-2024 00:00:00,28.6701,76.9254,CO,92,105,100
India,Haryana,Ballabgarh,"Nathu Colony, Ballabgarh - HSPCB",11-05-2024 00:00:00,28.3419248,77.319699,PM2.5,86,194,111
India,Haryana,Ballabgarh,"Nathu Colony, Ballabgarh - HSPCB",11-05-2024 00:00:00,28.3419248,77.319699,NH3,1,2,1
India,Haryana,Ballabgarh,"Nathu Colony, Ballabgarh - HSPCB",11-05-2024 00:00:00,28.3419248,77.319699,SO2,1,17,8
India,Haryana,Bhiwani,"H.B. Colony, Bhiwani - HSPCB",11-05-2024 00:00:00,28.806223,76.141105,PM2.5,123,297,174
India,Haryana,Dharuhera,"Municipal Corporation Office, Dharuhera -  HSPCB",11-05-2024 00:00:00,28.206800,76.799700,PM2.5,32,156,102
India,Haryana,Dharuhera,"Municipal Corporation Office, Dharuhera -  HSPCB",11-05-2024 00:00:00,28.206800,76.799700,NO2,46,113,75
India,Haryana,Dharuhera,"Municipal Corporation Office, Dharuhera -  HSPCB",11-05-2024 00:00:00,28.206800,76.799700,NH3,9,26,18
India,Haryana,Dharuhera,"Municipal Corporation Office, Dharuhera -  HSPCB",11-05-2024 00:00:00,28.206800,76.799700,SO2,3,96,12
India,Haryana,Faridabad,"New Industrial Town, Faridabad - HSPCB",11-05-2024 00:00:00,28.39072,77.30059,PM2.5,204,500,463
India,Haryana,Faridabad,"Sector 11, Faridabad - HSPCB",11-05-2024 00:00:00,28.376058,77.315741,NO2,30,32,31
India,Haryana,Faridabad,"Sector 30, Faridabad - HSPCB",11-05-2024 00:00:00,28.4417,77.3217,PM2.5,231,303,290
India,Haryana,Faridabad,"Sector 30, Faridabad - HSPCB",11-05-2024 00:00:00,28.4417,77.3217,PM10,191,221,212
India,Haryana,Gurugram,"NISE Gwal Pahari, Gurugram - IMD",11-05-2024 00:00:00,28.422681,77.148944,PM2.5,NA,NA,NA
India,Haryana,Gurugram,"NISE Gwal Pahari, Gurugram - IMD",11-05-2024 00:00:00,28.422681,77.148944,PM10,NA,NA,NA
India,Haryana,Gurugram,"NISE Gwal Pahari, Gurugram - IMD",11-05-2024 00:00:00,28.422681,77.148944,NO2,NA,NA,NA
India,Haryana,Gurugram,"Sector-51, Gurugram - HSPCB",11-05-2024 00:00:00,28.4227,77.0667,SO2,3,4,3
India,Haryana,Gurugram,"Sector-51, Gurugram - HSPCB",11-05-2024 00:00:00,28.4227,77.0667,OZONE,27,67,56
India,Haryana,Gurugram,"Teri Gram, Gurugram - HSPCB",11-05-2024 00:00:00,28.4275,77.1465,PM10,149,439,192
India,Haryana,Gurugram,"Teri Gram, Gurugram - HSPCB",11-05-2024 00:00:00,28.4275,77.1465,CO,26,52,49
India,Haryana,Gurugram,"Vikas Sadan, Gurugram - HSPCB",11-05-2024 00:00:00,28.4501238,77.0263051,OZONE,8,67,34
India,Haryana,Hisar,"Urban Estate-II, Hisar - HSPCB",11-05-2024 00:00:00,29.140560,75.744941,PM2.5,22,207,117
India,Haryana,Hisar,"Urban Estate-II, Hisar - HSPCB",11-05-2024 00:00:00,29.140560,75.744941,PM10,82,189,128
India,Haryana,Hisar,"Urban Estate-II, Hisar - HSPCB",11-05-2024 00:00:00,29.140560,75.744941,NO2,19,35,26
India,Haryana,Hisar,"Urban Estate-II, Hisar - HSPCB",11-05-2024 00:00:00,29.140560,75.744941,OZONE,22,215,153
India,Haryana,Jind,"Police Lines, Jind - HSPCB",11-05-2024 00:00:00,29.307814,76.337619,PM10,100,138,124
India,Haryana,Kaithal,"Rishi Nagar, Kaithal - HSPCB",11-05-2024 00:00:00,29.8006,76.4155,PM2.5,NA,NA,NA
India,Haryana,Kaithal,"Rishi Nagar, Kaithal - HSPCB",11-05-2024 00:00:00,29.8006,76.4155,SO2,NA,NA,NA
India,Haryana,Karnal,"Sector-12, Karnal - HSPCB",11-05-2024 00:00:00,29.695300,77.002700,SO2,12,13,12
India,Haryana,Mandikhera,"General Hospital, Mandikhera - HSPCB",11-05-2024 00:00:00,27.9002,76.9938,PM10,80,497,145
India,Haryana,Mandikhera,"General Hospital, Mandikhera - HSPCB",11-05-2024 00:00:00,27.9002,76.9938,NH3,13,19,17
India,Haryana,Narnaul,"Shastri Nagar, Narnaul - HSPCB",11-05-2024 00:00:00,28.060249,76.113115,PM2.5,64,114,90
India,Haryana,Narnaul,"Shastri Nagar, Narnaul - HSPCB",11-05-2024 00:00:00,28.060249,76.113115,PM10,76,118,103
India,Haryana,Narnaul,"Shastri Nagar, Narnaul - HSPCB",11-05-2024 00:00:00,28.060249,76.113115,NO2,14,75,49
India,Haryana,Narnaul,"Shastri Nagar, Narnaul - HSPCB",11-05-2024 00:00:00,28.060249,76.113115,SO2,12,53,16
India,Haryana,Narnaul,"Shastri Nagar, Narnaul - HSPCB",11-05-2024 00:00:00,28.060249,76.113115,OZONE,23,53,40
India,Haryana,Panchkula,"Sector-6, Panchkula - HSPCB ",11-05-2024 00:00:00,30.7057778,76.8531805555555,CO,6,59,28
India,Haryana,Panipat,"Sector-18, Panipat - HSPCB",11-05-2024 00:00:00,29.497973,76.993331,PM10,79,81,80
India,Haryana,Panipat,"Sector-18, Panipat - HSPCB",11-05-2024 00:00:00,29.497973,76.993331,NO2,31,32,31
India,Haryana,Panipat,"Sector-18, Panipat - HSPCB",11-05-2024 00:00:00,29.497973,76.993331,SO2,18,19,19
India,Haryana,Panipat,"Sector-18, Panipat - HSPCB",11-05-2024 00:00:00,29.497973,76.993331,CO,24,26,25
India,Haryana,Rohtak,"MD University, Rohtak - HSPCB",11-05-2024 00:00:00,28.52123,76.37138,NO2,45,54,50
India,Haryana,Rohtak,"MD University, Rohtak - HSPCB",11-05-2024 00:00:00,28.52123,76.37138,CO,19,68,45
India,Haryana,Sirsa,"F-Block, Sirsa - HSPCB",11-05-2024 00:00:00,29.536400,75.015800,SO2,1,86,67
India,Haryana,Sonipat,"Murthal, Sonipat - HSPCB",11-05-2024 00:00:00,29.027200,77.062100,NH3,7,10,9
India,Haryana,Sonipat,"Murthal, Sonipat - HSPCB",11-05-2024 00:00:00,29.027200,77.062100,SO2,13,29,20
India,Haryana,Sonipat,"Murthal, Sonipat - HSPCB",11-05-2024 00:00:00,29.027200,77.062100,CO,16,35,20
India,Himachal Pradesh,Baddi,"HIMUDA Complex Phase-1, Baddi - HPPCB",11-05-2024 00:00:00,30.943887,76.801991,PM2.5,40,304,107
India,Himachal Pradesh,Baddi,"HIMUDA Complex Phase-1, Baddi - HPPCB",11-05-2024 00:00:00,30.943887,76.801991,PM10,84,277,141
India,Himachal Pradesh,Baddi,"HIMUDA Complex Phase-1, Baddi - HPPCB",11-05-2024 00:00:00,30.943887,76.801991,NH3,3,6,5
India,Himachal Pradesh,Baddi,"HIMUDA Complex Phase-1, Baddi - HPPCB",11-05-2024 00:00:00,30.943887,76.801991,OZONE,52,228,143
India,Jharkhand,Dhanbad,"Kalakusuma, Dhanbad - DMC",11-05-2024 00:00:00,23.811548,86.481238,NO2,13,20,16
India,Jharkhand,Dhanbad,"Kalakusuma, Dhanbad - DMC",11-05-2024 00:00:00,23.811548,86.481238,CO,129,133,131
India,Jharkhand,Dhanbad,"Sardar Patel Nagar, Dhanbad - JSPCB",11-05-2024 00:00:00,23.80569,86.44268,NO2,NA,NA,NA
India,Karnataka,Bagalkot,"Vidayagiri, Bagalkot - KSPCB",11-05-2024 00:00:00,16.172806,75.659694,NH3,1,2,1
India,Karnataka,Bengaluru,"Bapuji Nagar, Bengaluru - KSPCB",11-05-2024 00:00:00,12.951913,77.539784,PM10,51,139,77
India,Karnataka,Bengaluru,"Bapuji Nagar, Bengaluru - KSPCB",11-05-2024 00:00:00,12.951913,77.539784,CO,11,87,51
India,Karnataka,Bengaluru,"Hebbal, Bengaluru - KSPCB",11-05-2024 00:00:00,13.029152,77.585901,NO2,5,5,5
India,Karnataka,Bengaluru,"Hombegowda Nagar, Bengaluru - KSPCB",11-05-2024 00:00:00,12.938539,77.590100,NH3,2,4,3
India,Karnataka,Bengaluru,"Hombegowda Nagar, Bengaluru - KSPCB",11-05-2024 00:00:00,12.938539,77.590100,CO,20,43,32
India,Karnataka,Bengaluru,"Peenya, Bengaluru - CPCB",11-05-2024 00:00:00,13.0270199,77.494094,PM10,43,80,56
India,Karnataka,Bengaluru,"Peenya, Bengaluru - CPCB",11-05-2024 00:00:00,13.0270199,77.494094,NH3,3,4,3
India,Karnataka,Bengaluru,"Sanegurava Halli, Bengaluru - KSPCB",11-05-2024 00:00:00,12.990328,77.5431385,PM10,NA,NA,NA
India,Karnataka,Bengaluru,"Shivapura_Peenya, Bengaluru - KSPCB",11-05-2024 00:00:00,13.0246342,77.5080115,PM10,38,114,76
India,Karnataka,Bengaluru,"Silk Board, Bengaluru - KSPCB",11-05-2024 00:00:00,12.917348,77.622813,NO2,NA,NA,NA
India,Karnataka,Bengaluru,"Silk Board, Bengaluru - KSPCB",11-05-2024 00:00:00,12.917348,77.622813,NH3,NA,NA,NA
India,Karnataka,Bengaluru,"Silk Board, Bengaluru - KSPCB",11-05-2024 00:00:00,12.917348,77.622813,SO2,6,11,8
India,Karnataka,Bidar,"Naubad, Bidar - KSPCB",11-05-2024 00:00:00,17.930306,77.482194,PM2.5,37,84,59
India,Karnataka,Bidar,"Naubad, Bidar - KSPCB",11-05-2024 00:00:00,17.930306,77.482194,NO2,7,9,8
India,Karnataka,Bidar,"Naubad, Bidar - KSPCB",11-05-2024 00:00:00,17.930306,77.482194,NH3,2,3,3
India,Karnataka,Chamarajanagar,"Urban, Chamarajanagar - KSPCB",11-05-2024 00:00:00,11.55358,76.55521,NO2,21,35,30
India,Karnataka,Chikkamagaluru,"Kalyana Nagara, Chikkamagaluru - KSPCB",11-05-2024 00:00:00,13.328028,75.797056,PM2.5,16,69,34
India,Karnataka,Chikkamagaluru,"Kalyana Nagara, Chikkamagaluru - KSPCB",11-05-2024 00:00:00,13.328028,75.797056,NO2,16,31,21
India,Karnataka,Chikkamagaluru,"Kalyana Nagara, Chikkamagaluru - KSPCB",11-05-2024 00:00:00,13.328028,75.797056,NH3,2,4,3
India,Karnataka,Davanagere,"Devaraj Urs Badavane, Davanagere - KSPCB",11-05-2024 00:00:00,14.475800,75.905200,NH3,1,2,2
India,Karnataka,Davanagere,"Devaraj Urs Badavane, Davanagere - KSPCB",11-05-2024 00:00:00,14.475800,75.905200,CO,14,24,21
India,Karnataka,Davanagere,"Devaraj Urs Badavane, Davanagere - KSPCB",11-05-2024 00:00:00,14.475800,75.905200,OZONE,16,21,19
India,Karnataka,Dharwad,"Kalabhavan, Dharwad - KSPCB",11-05-2024 00:00:00,15.459706,75.008381,PM2.5,16,142,62
India,Karnataka,Dharwad,"Kalabhavan, Dharwad - KSPCB",11-05-2024 00:00:00,15.459706,75.008381,OZONE,2,7,2
India,Karnataka,Gadag,"Panchal Nagar, Gadag - KSPCB",11-05-2024 00:00:00,15.411456,75.638133,PM10,30,42,34
India,Karnataka,Gadag,"Panchal Nagar, Gadag - KSPCB",11-05-2024 00:00:00,15.411456,75.638133,SO2,9,24,15
India,Karnataka,Hassan,"B.Katihalli, Hassan - KSPCB",11-05-2024 00:00:00,13.008556,76.125258,PM10,51,151,87
India,Karnataka,Haveri,"Ashwini Nagar, Haveri - KSPCB",11-05-2024 00:00:00,14.791800,75.389600,CO,37,38,38
India,Karnataka,Kalaburagi,"Lal Bahadur Shastri Nagar, Kalaburagi - KSPCB",11-05-2024 00:00:00,17.321993,76.822628,OZONE,17,105,65
India,Karnataka,Kolar,"Tamaka Ind. Area, Kolar - KSPCB",11-05-2024 00:00:00,13.1276288,78.1570122,NO2,18,42,23
India,Karnataka,Koppal,"Diwator Nagar, Koppal - KSPCB",11-05-2024 00:00:00,15.347630,76.181767,NO2,27,68,49
India,Karnataka,Koppal,"Diwator Nagar, Koppal - KSPCB",11-05-2024 00:00:00,15.347630,76.181767,NH3,5,9,7
India,Karnataka,Madikeri,"Stuart Hill, Madikeri - KSPCB",11-05-2024 00:00:00,12.415911,75.735050,PM2.5,15,54,29
India,Karnataka,Madikeri,"Stuart Hill, Madikeri - KSPCB",11-05-2024 00:00:00,12.415911,75.735050,NH3,1,2,1
India,Karnataka,Mangalore,"Kadri, Mangalore - KSPCB",11-05-2024 00:00:00,12.889250,74.853000,OZONE,31,33,32
India,Karnataka,Mysuru,"Hebbal 1st Stage, Mysuru - KSPCB",11-05-2024 00:00:00,12.21041,76.37376,NH3,1,2,2
India,Karnataka,Raichur,"Haji Colony, Raichur - KSPCB",11-05-2024 00:00:00,16.208139,77.348417,PM10,NA,NA,NA
India,Karnataka,Raichur,"Haji Colony, Raichur - KSPCB",11-05-2024 00:00:00,16.208139,77.348417,OZONE,2,219,96
India,Karnataka,Ramanagara,"Vijay Nagar, Ramanagara - KSPCB",11-05-2024 00:00:00,12.733409,77.298051,SO2,15,62,50
India,Karnataka,Ramanagara,"Vijay Nagar, Ramanagara - KSPCB",11-05-2024 00:00:00,12.733409,77.298051,CO,1,26,11
India,Karnataka,Shivamogga,"Vinoba Nagara, Shivamogga - KSPCB",11-05-2024 00:00:00,13.940000,75.555917,NH3,2,4,3
India,Karnataka,Udupi,"Brahmagiri, Udupi - KSPCB",11-05-2024 00:00:00,13.34194444,74.74694444,OZONE,23,24,23
India,Kerala,Eloor,"Udyogamandal, Eloor - Kerala PCB",11-05-2024 00:00:00,10.073232,76.302765,NO2,4,4,4
India,Kerala,Kannur,"Thavakkara, Kannur - Kerala PCB",11-05-2024 00:00:00,11.875000,75.373200,PM10,63,76,70
India,Kerala,Kollam,"Polayathode, Kollam - Kerala PCB",11-05-2024 00:00:00,8.8787,76.6073,PM2.5,38,201,103
India,Kerala,Kollam,"Polayathode, Kollam - Kerala PCB",11-05-2024 00:00:00,8.8787,76.6073,NO2,8,9,8
India,Kerala,Kollam,"Polayathode, Kollam - Kerala PCB",11-05-2024 00:00:00,8.8787,76.6073,OZONE,31,38,34
India,Kerala,Thiruvananthapuram,"Plammoodu, Thiruvananthapuram - Kerala PCB",11-05-2024 00:00:00,8.5149093,76.9435879,SO2,NA,NA,NA
India,Kerala,Thiruvananthapuram,"Plammoodu, Thiruvananthapuram - Kerala PCB",11-05-2024 00:00:00,8.5149093,76.9435879,CO,NA,NA,NA
India,Kerala,Thiruvananthapuram,"Plammoodu, Thiruvananthapuram - Kerala PCB",11-05-2024 00:00:00,8.5149093,76.9435879,OZONE,NA,NA,NA
India,Madhya Pradesh,Bhopal,"Idgah Hills, Bhopal - MPPCB",11-05-2024 00:00:00,23.264759,77.381568,NO2,11,36,21
India,Madhya Pradesh,Bhopal,"Idgah Hills, Bhopal - MPPCB",11-05-2024 00:00:00,23.264759,77.381568,SO2,1,11,5
India,Madhya Pradesh,Bhopal,"Idgah Hills, Bhopal - MPPCB",11-05-2024 00:00:00,23.264759,77.381568,CO,9,30,22
India,Madhya Pradesh,Bhopal,"Paryavaran Parisar, Bhopal - MPPCB",11-05-2024 00:00:00,23.210494,77.425409,SO2,NA,NA,NA
India,Madhya Pradesh,Bhopal,"T T Nagar, Bhopal - MPPCB",11-05-2024 00:00:00,23.233584,77.400574,PM2.5,21,47,34
India,Madhya Pradesh,Bhopal,"T T Nagar, Bhopal - MPPCB",11-05-2024 00:00:00,23.233584,77.400574,NH3,2,3,2
India,Madhya Pradesh,Bhopal,"T T Nagar, Bhopal - MPPCB",11-05-2024 00:00:00,23.233584,77.400574,SO2,9,26,17
India,Madhya Pradesh,Bhopal,"T T Nagar, Bhopal - MPPCB",11-05-2024 00:00:00,23.233584,77.400574,CO,8,40,23
India,Madhya Pradesh,Gwalior,"City Center, Gwalior - MPPCB",11-05-2024 00:00:00,26.203442,78.193251,PM2.5,40,147,75
India,Madhya Pradesh,Gwalior,"City Center, Gwalior - MPPCB",11-05-2024 00:00:00,26.203442,78.193251,PM10,47,331,105
India,Madhya Pradesh,Gwalior,"Maharaj Bada, Gwalior - MPPCB",11-05-2024 00:00:00,26.200388,78.147714,NO2,17,56,28
India,Madhya Pradesh,Gwalior,"Maharaj Bada, Gwalior - MPPCB",11-05-2024 00:00:00,26.200388,78.147714,OZONE,77,214,168
India,Madhya Pradesh,Indore,"Chhoti Gwaltoli, Indore - MPPCB",11-05-2024 00:00:00,22.4310,75.5213,OZONE,38,96,82
India,Madhya Pradesh,Indore,"Maguda Nagar, Indore - IMC",11-05-2024 00:00:00,22.7524,75.8872,OZONE,36,47,43
India,Madhya Pradesh,Indore,"Regional Park, Indore - IMC",11-05-2024 00:00:00,22.6780,75.8559,PM2.5,30,58,47
India,Madhya Pradesh,Indore,"Regional Park, Indore - IMC",11-05-2024 00:00:00,22.6780,75.8559,PM10,16,62,39
India,Madhya Pradesh,Indore,"Regional Park, Indore - IMC",11-05-2024 00:00:00,22.6780,75.8559,SO2,48,51,49
India,Madhya Pradesh,Indore,"Residency Area, Indore - IMC",11-05-2024 00:00:00,22.7084,75.8815,PM2.5,22,60,44
India,Madhya Pradesh,Jabalpur,"Govindh Bhavan Colony, Jabalpur - JMC",11-05-2024 00:00:00,23.163174,79.973061,PM2.5,NA,NA,NA
India,Madhya Pradesh,Jabalpur,"Marhatal, Jabalpur - MPPCB",11-05-2024 00:00:00,23.168606,79.932247,PM10,26,172,79
India,Madhya Pradesh,Jabalpur,"Marhatal, Jabalpur - MPPCB",11-05-2024 00:00:00,23.168606,79.932247,NH3,3,7,4
India,Madhya Pradesh,Jabalpur,"Suhagi, Jabalpur - JMC",11-05-2024 00:00:00,23.218135,79.957770,PM2.5,20,227,54
India,Madhya Pradesh,Jabalpur,"Suhagi, Jabalpur - JMC",11-05-2024 00:00:00,23.218135,79.957770,NH3,2,4,4
India,Madhya Pradesh,Jabalpur,"Suhagi, Jabalpur - JMC",11-05-2024 00:00:00,23.218135,79.957770,OZONE,6,139,64
India,Madhya Pradesh,Katni,"Gole Bazar, Katni - MPPCB",11-05-2024 00:00:00,23.50016,80.23284,NO2,35,139,64
India,Madhya Pradesh,Mandideep,"Sector-D Industrial Area, Mandideep - MPPCB",11-05-2024 00:00:00,23.108440,77.511428,NO2,2,27,13
India,Madhya Pradesh,Pithampur,"Sector-2 Industrial Area, Pithampur - MPPCB",11-05-2024 00:00:00,22.624758,75.675238,SO2,10,15,12
India,Madhya Pradesh,Sagar,"Deen Dayal Nagar, Sagar - MPPCB",11-05-2024 00:00:00,23.8640158,78.80289321,PM10,28,107,49
India,Madhya Pradesh,Satna,"Bandhavgar Colony, Satna - Birla Cement",11-05-2024 00:00:00,24.58434363,80.8549414,PM2.5,4,25,15
India,Madhya Pradesh,Satna,"Bandhavgar Colony, Satna - Birla Cement",11-05-2024 00:00:00,24.58434363,80.8549414,CO,32,78,48
India,Madhya Pradesh,Ujjain,"Mahakaleshwar Temple, Ujjain - MPPCB",11-05-2024 00:00:00,23.182719 ,75.768218 ,PM10,58,154,97
India,Madhya Pradesh,Ujjain,"Mahakaleshwar Temple, Ujjain - MPPCB",11-05-2024 00:00:00,23.182719 ,75.768218 ,NO2,14,32,21
India,Maharashtra,Ahmednagar,"Tarakpur, Ahmednagar - MPCB",11-05-2024 00:00:00,19.10122,74.73339,OZONE,NA,NA,NA
India,Maharashtra,Akola,"Ramdaspeth, Akola - MPCB",11-05-2024 00:00:00,20.719516,77.000253,PM10,42,121,88
India,Maharashtra,Akola,"Ramdaspeth, Akola - MPCB",11-05-2024 00:00:00,20.719516,77.000253,NO2,9,37,16
India,Maharashtra,Akola,"Ramdaspeth, Akola - MPCB",11-05-2024 00:00:00,20.719516,77.000253,NH3,4,14,8
India,Maharashtra,Amravati,"Shivneri Colony, Amravati - MPCB",11-05-2024 00:00:00,20.9402359,77.7895248,PM2.5,41,64,54
India,Maharashtra,Amravati,"Shri Shivaji Science College, Amaravati - MPCB",11-05-2024 00:00:00,20.939198,77.765701,CO,14,86,32
India,Maharashtra,Aurangabad,"MIDC Chilkalthana, Aurangabad - MPCB",11-05-2024 00:00:00,19.875620,75.387310,CO,36,72,50
India,Maharashtra,Aurangabad,"Rachnakar Colony, Aurangabad - MPCB",11-05-2024 00:00:00,19.863756,75.321188,NO2,12,76,31
India,Maharashtra,Aurangabad,"Rachnakar Colony, Aurangabad - MPCB",11-05-2024 00:00:00,19.863756,75.321188,NH3,1,2,1
India,Maharashtra,Aurangabad,"Rachnakar Colony, Aurangabad - MPCB",11-05-2024 00:00:00,19.863756,75.321188,SO2,3,9,6
India,Maharashtra,Badlapur,"Katrap, Badlapur - MPCB",11-05-2024 00:00:00,19.16485,73.23409,PM10,28,73,50
India,Maharashtra,Badlapur,"Katrap, Badlapur - MPCB",11-05-2024 00:00:00,19.16485,73.23409,NO2,4,93,14
India,Maharashtra,Belapur,"CBD Belapur, Belapur - MPCB",11-05-2024 00:00:00,19.0243902,73.0406721,NO2,23,52,36
India,Maharashtra,Bhiwandi,"Gokul Nagar, Bhiwandi - MPCB",11-05-2024 00:00:00,19.309073,73.057223,NH3,1,4,3
India,Maharashtra,Chandrapur,"Chauhan Colony, Chandrapur - MPCB",11-05-2024 00:00:00,19.962900,79.298714,SO2,2,4,3
India,Maharashtra,Chandrapur,"Chauhan Colony, Chandrapur - MPCB",11-05-2024 00:00:00,19.962900,79.298714,OZONE,11,11,11
India,Maharashtra,Dhule,"Deopur, Dhule - MPCB",11-05-2024 00:00:00,20.918946,74.776388,NH3,4,7,5
India,Maharashtra,Dhule,"Deopur, Dhule - MPCB",11-05-2024 00:00:00,20.918946,74.776388,CO,22,42,26
India,Maharashtra,Dhule,"Deopur, Dhule - MPCB",11-05-2024 00:00:00,20.918946,74.776388,OZONE,6,111,52
India,Maharashtra,Jalna,"Old MIDC, Jalna - MPCB",11-05-2024 00:00:00,19.854616,75.905894,PM2.5,11,94,49
India,Maharashtra,Jalna,"Old MIDC, Jalna - MPCB",11-05-2024 00:00:00,19.854616,75.905894,OZONE,15,126,48
India,Maharashtra,Kalyan,"Khadakpada, Kalyan - MPCB",11-05-2024 00:00:00,19.25292,73.142019,PM10,41,130,80
India,Maharashtra,Kalyan,"Khadakpada, Kalyan - MPCB",11-05-2024 00:00:00,19.25292,73.142019,NO2,26,34,29
India,Maharashtra,Kolhapur,"Shivaji University, Kolhapur - MPCB",11-05-2024 00:00:00,16.6870449,74.2505872,PM2.5,61,213,129
India,Maharashtra,Latur,"Sawe Wadi, Latur - MPCB",11-05-2024 00:00:00,18.39963,76.57452,NO2,NA,NA,NA
India,Maharashtra,Latur,"Sawe Wadi, Latur - MPCB",11-05-2024 00:00:00,18.39963,76.57452,CO,12,128,45
India,Maharashtra,Mahad,"Kamble Tarf Birwadi, Mahad - MPCB",11-05-2024 00:00:00,18.1023399,73.4783687,NO2,13,35,19
India,Maharashtra,Mahad,"Kamble Tarf Birwadi, Mahad - MPCB",11-05-2024 00:00:00,18.1023399,73.4783687,SO2,9,58,18
India,Maharashtra,Malegaon,"Mahesh Nagar, Malegaon - MPCB",11-05-2024 00:00:00,20.555712,74.529236,PM2.5,75,130,91
India,Maharashtra,Malegaon,"Mahesh Nagar, Malegaon - MPCB",11-05-2024 00:00:00,20.555712,74.529236,CO,14,28,21
India,Maharashtra,Mira-Bhayandar,"Bhayandar West, Mira-Bhayandar - MPCB",11-05-2024 00:00:00,19.296481,72.840923,PM10,23,188,72
India,Maharashtra,Mira-Bhayandar,"Bhayandar West, Mira-Bhayandar - MPCB",11-05-2024 00:00:00,19.296481,72.840923,SO2,2,4,3
India,Maharashtra,Mumbai,"Bandra Kurla Complex, Mumbai - MPCB",11-05-2024 00:00:00,19.065931,72.862131,CO,18,37,26
India,Maharashtra,Mumbai,"Bandra Kurla Complex, Mumbai - MPCB",11-05-2024 00:00:00,19.065931,72.862131,OZONE,13,51,34
India,Maharashtra,Mumbai,"Borivali East, Mumbai - IITM",11-05-2024 00:00:00,19.23241,72.86895,OZONE,2,75,62
India,Maharashtra,Mumbai,"Borivali East, Mumbai - MPCB",11-05-2024 00:00:00,19.2243333,72.8658113,NO2,3,14,8
India,Maharashtra,Mumbai,"Borivali East, Mumbai - MPCB",11-05-2024 00:00:00,19.2243333,72.8658113,OZONE,15,16,15
India,Maharashtra,Mumbai,"Byculla, Mumbai - BMC",11-05-2024 00:00:00,18.9767,72.8380,PM2.5,6,25,13
India,Maharashtra,Mumbai,"Byculla, Mumbai - BMC",11-05-2024 00:00:00,18.9767,72.8380,NO2,3,6,4
India,Maharashtra,Mumbai,"Byculla, Mumbai - BMC",11-05-2024 00:00:00,18.9767,72.8380,NH3,2,3,2
India,Maharashtra,Mumbai,"Chakala-Andheri East, Mumbai - IITM",11-05-2024 00:00:00,19.11074,72.86084,PM2.5,82,409,149
India,Maharashtra,Mumbai,"Chhatrapati Shivaji Intl. Airport (T2), Mumbai - MPCB",11-05-2024 00:00:00,19.10078,72.87462,PM2.5,25,57,38
India,Maharashtra,Mumbai,"Deonar, Mumbai - IITM",11-05-2024 00:00:00,19.04946,72.9230,PM2.5,NA,NA,NA
India,Maharashtra,Mumbai,"Ghatkopar, Mumbai - BMC",11-05-2024 00:00:00,19.083694,72.920967,PM10,25,48,34
India,Maharashtra,Mumbai,"Ghatkopar, Mumbai - BMC",11-05-2024 00:00:00,19.083694,72.920967,NH3,1,11,4
India,Maharashtra,Mumbai,"Ghatkopar, Mumbai - BMC",11-05-2024 00:00:00,19.083694,72.920967,CO,1,14,10
India,Maharashtra,Mumbai,"Kandivali East, Mumbai - MPCB",11-05-2024 00:00:00,19.205800,72.868200,OZONE,29,31,30
India,Maharashtra,Mumbai,"Kandivali West, Mumbai - BMC",11-05-2024 00:00:00,19.215859,72.831718,CO,NA,NA,NA
India,Maharashtra,Mumbai,"Kherwadi_Bandra East, Mumbai - MPCB",11-05-2024 00:00:00,19.0632143,72.8456324,CO,6,12,9
India,Maharashtra,Mumbai,"Kherwadi_Bandra East, Mumbai - MPCB",11-05-2024 00:00:00,19.0632143,72.8456324,OZONE,22,75,49
India,Maharashtra,Mumbai,"Kurla, Mumbai - MPCB",11-05-2024 00:00:00,19.0863,72.8888,PM2.5,23,84,47
India,Maharashtra,Mumbai,"Mindspace-Malad West, Mumbai - MPCB",11-05-2024 00:00:00,19.1878657,72.8304069,PM2.5,15,88,66
India,Maharashtra,Mumbai,"Mindspace-Malad West, Mumbai - MPCB",11-05-2024 00:00:00,19.1878657,72.8304069,NO2,8,54,21
India,Maharashtra,Mumbai,"Navy Nagar-Colaba, Mumbai - IITM",11-05-2024 00:00:00,18.897756,72.813320,PM10,36,71,48
India,Maharashtra,Mumbai,"Navy Nagar-Colaba, Mumbai - IITM",11-05-2024 00:00:00,18.897756,72.813320,NH3,4,5,4
India,Maharashtra,Mumbai,"Powai, Mumbai - MPCB",11-05-2024 00:00:00,19.137500,72.915056,NH3,1,1,1
India,Maharashtra,Mumbai,"Powai, Mumbai - MPCB",11-05-2024 00:00:00,19.137500,72.915056,SO2,38,50,43
India,Maharashtra,Mumbai,"Powai, Mumbai - MPCB",11-05-2024 00:00:00,19.137500,72.915056,CO,28,37,34
India,Maharashtra,Mumbai,"Powai, Mumbai - MPCB",11-05-2024 00:00:00,19.137500,72.915056,OZONE,22,44,33
India,Maharashtra,Mumbai,"Siddharth Nagar-Worli, Mumbai - IITM",11-05-2024 00:00:00,19.000083,72.813993,PM10,33,74,55
India,Maharashtra,Mumbai,"Sion, Mumbai - MPCB",11-05-2024 00:00:00,19.047000,72.874600,PM10,43,84,64
India,Maharashtra,Mumbai,"Vasai West, Mumbai - MPCB",11-05-2024 00:00:00,19.383200,72.820400,PM10,58,143,93
India,Maharashtra,Mumbai,"Vasai West, Mumbai - MPCB",11-05-2024 00:00:00,19.383200,72.820400,CO,48,127,56
India,Maharashtra,Nagpur,"Ambazari, Nagpur - MPCB",11-05-2024 00:00:00,21.121801,79.04952,NH3,1,7,4
India,Maharashtra,Nagpur,"Mahal, Nagpur - MPCB",11-05-2024 00:00:00,21.14472,79.107595,PM2.5,28,94,56
India,Maharashtra,Nagpur,"Opp GPO Civil Lines, Nagpur - MPCB",11-05-2024 00:00:00,21.152875,79.0517531,SO2,1,26,7
India,Maharashtra,Nanded,"Sneh Nagar, Nanded - MPCB",11-05-2024 00:00:00,19.173852,77.296291,PM2.5,43,77,59
India,Maharashtra,Nanded,"Sneh Nagar, Nanded - MPCB",11-05-2024 00:00:00,19.173852,77.296291,NH3,1,2,1
India,Maharashtra,Nashik,"MIDC Ambad, Nashik - MPCB",11-05-2024 00:00:00,19.950220,73.731480,PM10,43,63,53
India,Maharashtra,Nashik,"MIDC Ambad, Nashik - MPCB",11-05-2024 00:00:00,19.950220,73.731480,NO2,NA,NA,NA
India,Maharashtra,Nashik,"MIDC Ambad, Nashik - MPCB",11-05-2024 00:00:00,19.950220,73.731480,SO2,NA,NA,NA
India,Maharashtra,Nashik,"Pandav Nagari, Nashik - MPCB",11-05-2024 00:00:00,19.9591346,73.7788008,PM2.5,36,64,47
India,Maharashtra,Nashik,"Pandav Nagari, Nashik - MPCB",11-05-2024 00:00:00,19.9591346,73.7788008,OZONE,9,88,51
India,Maharashtra,Navi Mumbai,"Kopripada-Vashi, Navi Mumbai - MPCB",11-05-2024 00:00:00,19.090337,73.014232,PM10,22,66,49
India,Maharashtra,Navi Mumbai,"Kopripada-Vashi, Navi Mumbai - MPCB",11-05-2024 00:00:00,19.090337,73.014232,SO2,1,11,3
India,Maharashtra,Navi Mumbai,"Mahape, Navi Mumbai - MPCB",11-05-2024 00:00:00,19.1135051,73.008978,SO2,22,23,23
India,Maharashtra,Navi Mumbai,"Nerul, Navi Mumbai - MPCB",11-05-2024 00:00:00,19.008751,73.016620,PM10,NA,NA,NA
India,Maharashtra,Navi Mumbai,"Sector-2E Kalamboli, Navi Mumbai - MPCB",11-05-2024 00:00:00,19.02579,73.10297,PM2.5,NA,NA,NA
India,Maharashtra,Navi Mumbai,"Sector-2E Kalamboli, Navi Mumbai - MPCB",11-05-2024 00:00:00,19.02579,73.10297,NH3,NA,NA,NA
India,Maharashtra,Navi Mumbai,"Sector-2E Kalamboli, Navi Mumbai - MPCB",11-05-2024 00:00:00,19.02579,73.10297,SO2,NA,NA,NA
India,Maharashtra,Navi Mumbai,"Sector-2E Kalamboli, Navi Mumbai - MPCB",11-05-2024 00:00:00,19.02579,73.10297,OZONE,NA,NA,NA
India,Maharashtra,Navi Mumbai,"Tondare-Taloja, Navi Mumbai - MPCB",11-05-2024 00:00:00,19.0630,73.1209,PM2.5,NA,NA,NA
India,Maharashtra,Parbhani,"Masoom Colony, Parbhani - MPCB",11-05-2024 00:00:00,19.265594,76.761463,PM10,50,118,79
India,Maharashtra,Parbhani,"Masoom Colony, Parbhani - MPCB",11-05-2024 00:00:00,19.265594,76.761463,OZONE,48,89,67
India,Maharashtra,Pimpri-Chinchwad,"Gavalinagar, Pimpri Chinchwad - MPCB",11-05-2024 00:00:00,18.63673,73.82487,PM2.5,38,64,50
India,Maharashtra,Pimpri-Chinchwad,"Gavalinagar, Pimpri Chinchwad - MPCB",11-05-2024 00:00:00,18.63673,73.82487,PM10,58,89,72
India,Maharashtra,Pimpri-Chinchwad,"Park Street Wakad, Pimpri Chinchwad - MPCB",11-05-2024 00:00:00,18.59051,73.77946,NO2,27,118,51
India,Maharashtra,Pune,"Alandi, Pune - IITM",11-05-2024 00:00:00,18.675076,73.892743,NO2,19,111,37
India,Maharashtra,Pune,"Karve Road, Pune - MPCB",11-05-2024 00:00:00,18.5011743,73.8165527,PM10,7,133,81
India,Maharashtra,Pune,"Katraj Dairy, Pune - MPCB",11-05-2024 00:00:00,18.454450,73.854155,PM2.5,27,57,40
India,Maharashtra,Pune,"Katraj Dairy, Pune - MPCB",11-05-2024 00:00:00,18.454450,73.854155,PM10,34,75,52
India,Maharashtra,Pune,"Katraj Dairy, Pune - MPCB",11-05-2024 00:00:00,18.454450,73.854155,NH3,1,6,2
India,Maharashtra,Pune,"Revenue Colony-Shivajinagar, Pune - IITM",11-05-2024 00:00:00,18.530085,73.849598,OZONE,3,96,13
India,Maharashtra,Pune,"Savitribai Phule Pune University, Pune - MPCB",11-05-2024 00:00:00,18.547056,73.826908,NO2,NA,NA,NA
India,Maharashtra,Sangli,"Vijay Nagar, Sangli - MPCB",11-05-2024 00:00:00, 16.5038,74.3623,PM10,45,89,64
India,Maharashtra,Solapur,"Dnyaneshwar Nagar, Solapur - MPCB",11-05-2024 00:00:00,17.6336264,75.9132495,PM2.5,3,183,80
India,Maharashtra,Solapur,"Ratandeep Housing Society, Solapur - MPCB",11-05-2024 00:00:00,17.65439,75.90649,CO,10,38,26
India,Maharashtra,Thane,"Kasarvadavali, Thane - MPCB",11-05-2024 00:00:00,19.26777,72.97182,PM2.5,29,59,44
India,Maharashtra,Thane,"Kasarvadavali, Thane - MPCB",11-05-2024 00:00:00,19.26777,72.97182,CO,4,18,10
India,Maharashtra,Thane,"Pimpleshwar Mandir, Thane - MPCB",11-05-2024 00:00:00,19.192056,72.9585188,CO,14,67,32
India,Maharashtra,Thane,"Upvan Fort, Thane - MPCB",11-05-2024 00:00:00,19.222279,72.957979,PM10,28,65,47
India,Maharashtra,Thane,"Upvan Fort, Thane - MPCB",11-05-2024 00:00:00,19.222279,72.957979,NO2,4,22,10
India,Maharashtra,Thane,"Upvan Fort, Thane - MPCB",11-05-2024 00:00:00,19.222279,72.957979,CO,1,25,11
India,Maharashtra,Ulhasnagar,"Sidhi Vinayak Nagar, Ulhasnagar - MPCB",11-05-2024 00:00:00,19.235581,73.159121,PM2.5,32,89,50
India,Maharashtra,Ulhasnagar,"Sidhi Vinayak Nagar, Ulhasnagar - MPCB",11-05-2024 00:00:00,19.235581,73.159121,CO,14,36,26
India,Manipur,Imphal,"Manipur University, Imphal - Manipur PCB",11-05-2024 00:00:00,24.7524239,93.9286218,NH3,1,2,1
India,Meghalaya,Shillong,"Lumpyngngad, Shillong - Meghalaya PCB",11-05-2024 00:00:00,25.5586,91.8985,PM2.5,NA,NA,NA
India,Meghalaya,Shillong,"Lumpyngngad, Shillong - Meghalaya PCB",11-05-2024 00:00:00,25.5586,91.8985,SO2,NA,NA,NA
India,Mizoram,Aizawl,"Sikulpuikawn, Aizawl - Mizoram PCB",11-05-2024 00:00:00,23.7176342,92.7192841,NH3,1,3,1
India,Mizoram,Aizawl,"Sikulpuikawn, Aizawl - Mizoram PCB",11-05-2024 00:00:00,23.7176342,92.7192841,SO2,2,3,2
India,Nagaland,Kohima,"PWD Juction, Kohima - NPCB",11-05-2024 00:00:00,25.6635413,94.0989878,SO2,34,35,35
India,Nagaland,Kohima,"PWD Juction, Kohima - NPCB",11-05-2024 00:00:00,25.6635413,94.0989878,OZONE,7,14,11
India,Odisha,Angul,"Hakimapada, Angul - OSPCB",11-05-2024 00:00:00,20.832874,85.104082,PM10,37,197,84
India,Odisha,Angul,"Hakimapada, Angul - OSPCB",11-05-2024 00:00:00,20.832874,85.104082,OZONE,9,102,50
India,Odisha,Balasore,"Kalidaspur, Balasore - OSPCB",11-05-2024 00:00:00,21.51161,86.89088,PM2.5,8,67,22
India,Odisha,Barbil,"Forest Office, Barbil - OSPCB",11-05-2024 00:00:00,22.1166054,85.3945546,CO,17,46,33
India,Odisha,Baripada,"Meher Colony, Baripada - OSPCB",11-05-2024 00:00:00,21.941841,86.728318,PM2.5,10,37,19
India,Odisha,Baripada,"Meher Colony, Baripada - OSPCB",11-05-2024 00:00:00,21.941841,86.728318,SO2,2,4,3
India,Odisha,Bhubaneswar,"Lingraj Mandir, Bhubaneswar - OSPCB",11-05-2024 00:00:00,20.240790,85.836784,PM10,19,64,37
India,Odisha,Bhubaneswar,"Lingraj Mandir, Bhubaneswar - OSPCB",11-05-2024 00:00:00,20.240790,85.836784,OZONE,14,69,26
India,Odisha,Bhubaneswar,"Patia, Bhubaneswar - OSPCB",11-05-2024 00:00:00,20.34652,85.81630,PM2.5,2,35,14
India,Odisha,Bhubaneswar,"Patia, Bhubaneswar - OSPCB",11-05-2024 00:00:00,20.34652,85.81630,SO2,3,20,6
India,Odisha,Bhubaneswar,"Patia, Bhubaneswar - OSPCB",11-05-2024 00:00:00,20.34652,85.81630,CO,42,74,46
India,Odisha,Bileipada,"Tata Township, Bileipada - OSPCB",11-05-2024 00:00:00,22.06156703,85.47409613,PM2.5,33,57,46
India,Odisha,Bileipada,"Tata Township, Bileipada - OSPCB",11-05-2024 00:00:00,22.06156703,85.47409613,NO2,5,9,6
India,Odisha,Brajrajnagar,"GM Office, Brajrajnagar - OSPCB",11-05-2024 00:00:00,21.8004996,83.8396977,NO2,15,19,16
India,Odisha,Byasanagar,"Ferro Chrome Colony, Byasanagar - OSPCB",11-05-2024 00:00:00,20.94185,86.11510,SO2,5,25,10
India,Odisha,Cuttack,"CDA Area, Cuttack - OSPCB",11-05-2024 00:00:00,20.48891     ,85.84768     ,NH3,2,3,2
India,Odisha,Cuttack,"CDA Area, Cuttack - OSPCB",11-05-2024 00:00:00,20.48891     ,85.84768     ,OZONE,10,85,32
India,Odisha,Nayagarh,"Dabuna, Nayagarh - OSPCB",11-05-2024 00:00:00,21.847279,85.416905,CO,8,16,13
India,Odisha,Rairangpur,"Divisional Forest Office, Rairangpur - OSPCB",11-05-2024 00:00:00,22.265816,86.174829,NO2,1,1,1
India,Odisha,Rourkela,"Fertilizer Township, Rourkela - OSPCB",11-05-2024 00:00:00,22.18972222,84.86277778,PM10,36,356,126
India,Odisha,Rourkela,"Fertilizer Township, Rourkela - OSPCB",11-05-2024 00:00:00,22.18972222,84.86277778,CO,14,24,19
India,Odisha,Rourkela,"Raghunathpali, Rourkela - OSPCB",11-05-2024 00:00:00,22.220833,84.809444,PM2.5,48,163,89
India,Odisha,Rourkela,"Raghunathpali, Rourkela - OSPCB",11-05-2024 00:00:00,22.220833,84.809444,CO,21,60,36
India,Odisha,Rourkela,"Sector-2, Rourkela - OSPCB",11-05-2024 00:00:00,22.24500000,84.88111111,NO2,32,36,34
India,Odisha,Suakati,"OMC Colony, Suakati - OSPCB",11-05-2024 00:00:00,21.606865,85.510538,NO2,NA,NA,NA
India,Odisha,Tensa,"Barsua Iron Ore Mines, Tensa - OSPCB",11-05-2024 00:00:00,21.869985,85.167016,SO2,1,13,5
India,Puducherry,Puducherry,"Jawahar Nagar, Puducherry - PPCC",11-05-2024 00:00:00,11.9309,79.8027,CO,14,44,21
India,Puducherry,Puducherry,"Jawahar Nagar, Puducherry - PPCC",11-05-2024 00:00:00,11.9309,79.8027,OZONE,17,63,45
India,Punjab,Amritsar,"Golden Temple, Amritsar - PPCB",11-05-2024 00:00:00,31.620000,74.876512,NH3,4,10,6
India,Punjab,Amritsar,"Golden Temple, Amritsar - PPCB",11-05-2024 00:00:00,31.620000,74.876512,SO2,6,28,15
India,Punjab,Bathinda,"Hardev Nagar, Bathinda - PPCB",11-05-2024 00:00:00,30.233011,74.907758,PM10,54,470,171
India,Punjab,Jalandhar,"Civil Line, Jalandhar - PPCB",11-05-2024 00:00:00,31.321907,75.578914,NH3,2,5,3
India,Punjab,Jalandhar,"Civil Line, Jalandhar - PPCB",11-05-2024 00:00:00,31.321907,75.578914,OZONE,2,90,33
India,Punjab,Khanna,"Kalal Majra, Khanna - PPCB",11-05-2024 00:00:00,30.736056 ,76.209694,NO2,21,39,31
India,Punjab,Khanna,"Kalal Majra, Khanna - PPCB",11-05-2024 00:00:00,30.736056 ,76.209694,OZONE,43,48,45
India,Punjab,Ludhiana,"Punjab Agricultural University, Ludhiana - PPCB",11-05-2024 00:00:00,30.9028,75.8086,PM10,115,279,146
India,Punjab,Patiala,"Model Town, Patiala - PPCB",11-05-2024 00:00:00,30.349388,76.366642,NO2,25,29,27
India,Rajasthan,Ajmer,"Civil Lines,  Ajmer - RSPCB",11-05-2024 00:00:00,26.470859,74.646594,SO2,4,18,10
India,Rajasthan,Ajmer,"Civil Lines,  Ajmer - RSPCB",11-05-2024 00:00:00,26.470859,74.646594,CO,21,78,42
India,Rajasthan,Banswara,"Rati Talai, Banswara - RSPCB",11-05-2024 00:00:00,23.555190,74.440010,PM10,78,315,119
India,Rajasthan,Barmer,"Railway Colony, Barmer - RSPCB",11-05-2024 00:00:00,25.747299,71.393989,NH3,NA,NA,NA
India,Rajasthan,Bhilwara,"Pratap Nagar, Bhilwara - RSPCB",11-05-2024 00:00:00,25.339605,74.618883,NO2,9,42,18
India,Rajasthan,Bhiwadi,"RIICO Ind. Area III, Bhiwadi - RSPCB",11-05-2024 00:00:00,28.194909,76.862296,PM2.5,96,438,196
India,Rajasthan,Bhiwadi,"Vasundhara Nagar_UIT, Bhiwadi - RSPCB",11-05-2024 00:00:00,28.207266,76.829265,PM2.5,48,486,180
India,Rajasthan,Bikaner,"MM Ground, Bikaner - RSPCB",11-05-2024 00:00:00,28.018792,73.292658,CO,11,68,34
India,Rajasthan,Bundi,"New Colony, Bundi - RSPCB",11-05-2024 00:00:00,25.435774,75.644272,NO2,6,29,12
India,Rajasthan,Dausa,"Khatikan Mohalla, Dausa - RSPCB",11-05-2024 00:00:00,26.895552,76.334753,CO,3,66,34
India,Rajasthan,Dungarpur,"Bhoiwada, Dungarpur - RSPCB",11-05-2024 00:00:00,23.837789,73.714926,NH3,6,7,6
India,Rajasthan,Dungarpur,"Bhoiwada, Dungarpur - RSPCB",11-05-2024 00:00:00,23.837789,73.714926,SO2,5,12,8
India,Rajasthan,Hanumangarh,"Housing Board, Hanumangarh - RSPCB",11-05-2024 00:00:00,29.610750,74.283608,PM2.5,50,324,188
India,Rajasthan,Jaipur,"Adarsh Nagar, Jaipur - RSPCB",11-05-2024 00:00:00,26.902909,75.836858,PM2.5,65,185,108
India,Rajasthan,Jaipur,"Adarsh Nagar, Jaipur - RSPCB",11-05-2024 00:00:00,26.902909,75.836858,NO2,18,55,31
India,Rajasthan,Jaipur,"Adarsh Nagar, Jaipur - RSPCB",11-05-2024 00:00:00,26.902909,75.836858,NH3,3,5,4
India,Rajasthan,Jaipur,"Adarsh Nagar, Jaipur - RSPCB",11-05-2024 00:00:00,26.902909,75.836858,SO2,8,29,17
India,Rajasthan,Jaipur,"Mansarovar Sector-12, Jaipur - RSPCB",11-05-2024 00:00:00,26.843698,75.766894,PM10,62,500,150
India,Rajasthan,Jaipur,"Mansarovar Sector-12, Jaipur - RSPCB",11-05-2024 00:00:00,26.843698,75.766894,NO2,9,36,21
India,Rajasthan,Jaipur,"Mansarovar Sector-12, Jaipur - RSPCB",11-05-2024 00:00:00,26.843698,75.766894,NH3,2,7,5
India,Rajasthan,Jaipur,"Police Commissionerate, Jaipur - RSPCB",11-05-2024 00:00:00,26.9164092,75.7994901,PM10,102,410,145
India,Rajasthan,Jaipur,"Police Commissionerate, Jaipur - RSPCB",11-05-2024 00:00:00,26.9164092,75.7994901,CO,18,74,43
India,Rajasthan,Jaipur,"Police Commissionerate, Jaipur - RSPCB",11-05-2024 00:00:00,26.9164092,75.7994901,OZONE,63,110,85
India,Rajasthan,Jaipur,"RIICO Sitapura, Jaipur - RSPCB",11-05-2024 00:00:00,26.786682,75.827928,NH3,NA,NA,NA
India,Rajasthan,Jaipur,"Shastri Nagar, Jaipur - RSPCB",11-05-2024 00:00:00,26.9502929,75.730943,NO2,13,42,26
India,Rajasthan,Jalore,"Mudtra Sili, Jalore - RSPCB",11-05-2024 00:00:00,25.344694,72.626208,PM10,55,109,89
India,Rajasthan,Jhalawar,"Rajlaxmi Nagar, Jhalawar - RSPCB",11-05-2024 00:00:00,24.588397,76.172782,NO2,19,33,24
India,Rajasthan,Jhalawar,"Rajlaxmi Nagar, Jhalawar - RSPCB",11-05-2024 00:00:00,24.588397,76.172782,CO,12,26,15
India,Rajasthan,Jodhpur,"Collectorate, Jodhpur - RSPCB",11-05-2024 00:00:00,26.268249,73.0193853,NO2,24,27,25
India,Rajasthan,Jodhpur,"Digari Kalan, Jodhpur - RSPCB",11-05-2024 00:00:00,26.295810,73.082283,PM2.5,17,44,28
India,Rajasthan,Jodhpur,"Jhalamand, Jodhpur - RSPCB",11-05-2024 00:00:00,26.215415,73.070156,NO2,2,19,8
India,Rajasthan,Jodhpur,"Mandor, Jodhpur - RSPCB",11-05-2024 00:00:00,26.358805,73.047444,NO2,18,30,21
India,Rajasthan,Jodhpur,"Mandor, Jodhpur - RSPCB",11-05-2024 00:00:00,26.358805,73.047444,CO,17,23,19
India,Rajasthan,Jodhpur,"Samrat Ashok Udhyan, Jodhpur - RSPCB",11-05-2024 00:00:00,26.253384,72.976571,SO2,5,9,7
India,Rajasthan,Jodhpur,"Samrat Ashok Udhyan, Jodhpur - RSPCB",11-05-2024 00:00:00,26.253384,72.976571,OZONE,36,69,57
India,Rajasthan,Karauli,"Satyawati Vihar, Karauli - RSPCB",11-05-2024 00:00:00,26.506177,77.025989,NH3,6,13,8
India,Rajasthan,Karauli,"Satyawati Vihar, Karauli - RSPCB",11-05-2024 00:00:00,26.506177,77.025989,SO2,9,24,18
India,Rajasthan,Kota,"Nayapura, Kota - RSPCB",11-05-2024 00:00:00,25.196024,75.855668,NH3,2,5,4
India,Rajasthan,Kota,"Nayapura, Kota - RSPCB",11-05-2024 00:00:00,25.196024,75.855668,CO,14,68,23
India,Rajasthan,Kota,"Shrinath Puram, Kota - RSPCB",11-05-2024 00:00:00,25.14389,75.821256,NH3,7,12,9
India,Rajasthan,Nagaur,"Karni Colony, Nagaur - RSPCB",11-05-2024 00:00:00,27.213494,73.734444,PM10,90,268,142
India,Rajasthan,Nagaur,"Karni Colony, Nagaur - RSPCB",11-05-2024 00:00:00,27.213494,73.734444,CO,6,52,27
India,Rajasthan,Pali,"Indira Colony Vistar, Pali - RSPCB",11-05-2024 00:00:00,25.771061, 73.340227,PM2.5,53,120,80
India,Rajasthan,Pali,"Indira Colony Vistar, Pali - RSPCB",11-05-2024 00:00:00,25.771061, 73.340227,OZONE,23,70,52
India,Rajasthan,Rajsamand,"Dhoinda, Rajsamand - RSPCB",11-05-2024 00:00:00,25.036360,73.883502,NO2,NA,NA,NA
India,Rajasthan,Sawai Madhopur,"Sahu Nagar, Sawai Madhopur - RSPCB",11-05-2024 00:00:00,26.031443,76.359327,SO2,1,3,2
India,Rajasthan,Sikar,"Radhakishan Pura, Sikar - RSPCB",11-05-2024 00:00:00,27.608912,75.153302,NH3,3,10,7
India,Rajasthan,Sirohi,"Vedhaynath Colony, Sirohi - RSPCB",11-05-2024 00:00:00,24.885261,72.857549,NO2,5,16,8
India,Rajasthan,Sri Ganganagar,"Old City, Sri Ganganagar - RSPCB",11-05-2024 00:00:00,29.931624,73.864511,OZONE,23,87,58
India,Rajasthan,Tonk,"Shastri Nagar, Tonk - RSPCB",11-05-2024 00:00:00,26.159933,75.780517,NH3,1,9,4
India,Rajasthan,Tonk,"Shastri Nagar, Tonk - RSPCB",11-05-2024 00:00:00,26.159933,75.780517,OZONE,44,98,80
India,Rajasthan,Udaipur,"Ashok Nagar, Udaipur - RSPCB",11-05-2024 00:00:00,24.5886166,73.6321397,NO2,25,127,64
India,Rajasthan,Udaipur,"Ashok Nagar, Udaipur - RSPCB",11-05-2024 00:00:00,24.5886166,73.6321397,SO2,3,20,9
India,TamilNadu,Chengalpattu,"Crescent University, Chengalpattu - TNPCB",11-05-2024 00:00:00,12.8777316,80.0834807,PM2.5,NA,NA,NA
India,TamilNadu,Chengalpattu,"Crescent University, Chengalpattu - TNPCB",11-05-2024 00:00:00,12.8777316,80.0834807,NH3,23,24,24
India,TamilNadu,Chennai,"Alandur Bus Depot, Chennai - CPCB",11-05-2024 00:00:00,12.9099161,80.1076538,PM10,28,41,34
India,TamilNadu,Chennai,"Alandur Bus Depot, Chennai - CPCB",11-05-2024 00:00:00,12.9099161,80.1076538,NO2,5,12,9
India,TamilNadu,Chennai,"Alandur Bus Depot, Chennai - CPCB",11-05-2024 00:00:00,12.9099161,80.1076538,NH3,6,15,8
India,TamilNadu,Chennai,"Arumbakkam, Chennai - TNPCB",11-05-2024 00:00:00,13.0664,80.2112 ,PM2.5,NA,NA,NA
India,TamilNadu,Chennai,"Kodungaiyur, Chennai - TNPCB",11-05-2024 00:00:00,13.1278,80.2642,PM10,2,53,20
India,TamilNadu,Chennai,"Manali, Chennai - CPCB",11-05-2024 00:00:00,13.164544,80.26285,PM10,2,34,12
India,TamilNadu,Chennai,"Manali, Chennai - CPCB",11-05-2024 00:00:00,13.164544,80.26285,NH3,4,5,4
India,TamilNadu,Chennai,"Royapuram, Chennai - TNPCB",11-05-2024 00:00:00,13.1036,80.2909,PM10,8,29,14
India,TamilNadu,Chennai,"Royapuram, Chennai - TNPCB",11-05-2024 00:00:00,13.1036,80.2909,NO2,6,22,15
India,TamilNadu,Chennai,"Velachery Res. Area, Chennai - CPCB",11-05-2024 00:00:00,13.0052189,80.2398125,CO,1,113,25
India,TamilNadu,Coimbatore,"PSG College of Arts and Science, Coimbatore - TNPCB",11-05-2024 00:00:00,11.0328,77.0349,PM2.5,NA,NA,NA
India,TamilNadu,Coimbatore,"PSG College of Arts and Science, Coimbatore - TNPCB",11-05-2024 00:00:00,11.0328,77.0349,NH3,NA,NA,NA
India,TamilNadu,Cuddalore,"Kudikadu, Cuddalore - TNPCB",11-05-2024 00:00:00,11.6829898,79.7532099,NH3,3,4,4
India,TamilNadu,Cuddalore,"Kudikadu, Cuddalore - TNPCB",11-05-2024 00:00:00,11.6829898,79.7532099,SO2,8,10,9
India,TamilNadu,Ooty,"Bombay Castel, Ooty - TNPCB",11-05-2024 00:00:00,11.4068288,76.7138973,SO2,15,16,16
India,TamilNadu,Ooty,"Bombay Castel, Ooty - TNPCB",11-05-2024 00:00:00,11.4068288,76.7138973,OZONE,5,6,5
India,TamilNadu,Ramanathapuram,"Chalai Bazaar, Ramanathapuram - TNPCB",11-05-2024 00:00:00,9.36399,78.831977,OZONE,13,14,14
India,TamilNadu,Thoothukudi,"Meelavittan, Thoothukudi - TNPCB",11-05-2024 00:00:00,8.816428 ,78.099039,SO2,5,12,8
India,TamilNadu,Tirupur,"Kumaran College, Tirupur - TNPCB",11-05-2024 00:00:00,11.0973603,77.3228673,PM2.5,6,35,20
India,TamilNadu,Tirupur,"Kumaran College, Tirupur - TNPCB",11-05-2024 00:00:00,11.0973603,77.3228673,NO2,6,30,15
India,TamilNadu,Tirupur,"Kumaran College, Tirupur - TNPCB",11-05-2024 00:00:00,11.0973603,77.3228673,SO2,23,25,24
India,TamilNadu,Vellore,"Vasanthapuram, Vellore - TNPCB",11-05-2024 00:00:00,12.909494,79.131861,PM2.5,5,63,32
India,TamilNadu,Vellore,"Vasanthapuram, Vellore - TNPCB",11-05-2024 00:00:00,12.909494,79.131861,SO2,NA,NA,NA
India,Telangana,Hyderabad,"Central University, Hyderabad - TSPCB",11-05-2024 00:00:00,17.460103,78.334361,OZONE,3,5,4
India,Telangana,Hyderabad,"ECIL Kapra, Hyderabad - TSPCB",11-05-2024 00:00:00,17.470431,78.566959,PM10,61,155,77
India,Telangana,Hyderabad,"ECIL Kapra, Hyderabad - TSPCB",11-05-2024 00:00:00,17.470431,78.566959,NH3,6,6,6
India,Telangana,Hyderabad,"ECIL Kapra, Hyderabad - TSPCB",11-05-2024 00:00:00,17.470431,78.566959,SO2,13,13,13
India,Telangana,Hyderabad,"ECIL Kapra, Hyderabad - TSPCB",11-05-2024 00:00:00,17.470431,78.566959,OZONE,13,150,38
India,Telangana,Hyderabad,"IITH Kandi, Hyderabad - TSPCB",11-05-2024 00:00:00,17.585705,78.126199,PM10,NA,NA,NA
India,Telangana,Hyderabad,"Kompally Municipal Office, Hyderabad - TSPCB",11-05-2024 00:00:00,17.544899,78.486949,PM10,NA,NA,NA
India,Telangana,Hyderabad,"Kompally Municipal Office, Hyderabad - TSPCB",11-05-2024 00:00:00,17.544899,78.486949,OZONE,3,64,56
India,Telangana,Hyderabad,"New Malakpet, Hyderabad - TSPCB",11-05-2024 00:00:00,17.37206,78.50864,NO2,16,33,21
India,Telangana,Hyderabad,"New Malakpet, Hyderabad - TSPCB",11-05-2024 00:00:00,17.37206,78.50864,SO2,18,21,20
India,Telangana,Hyderabad,"Ramachandrapuram, Hyderabad - TSPCB",11-05-2024 00:00:00,17.528544,78.286195,NH3,NA,NA,NA
India,Telangana,Hyderabad,"Sanathnagar, Hyderabad - TSPCB",11-05-2024 00:00:00,17.4559458,78.4332152,SO2,3,14,9
India,Telangana,Hyderabad,"Sanathnagar, Hyderabad - TSPCB",11-05-2024 00:00:00,17.4559458,78.4332152,CO,28,50,38
India,Telangana,Hyderabad,"Zoo Park, Hyderabad - TSPCB",11-05-2024 00:00:00,17.349694,78.451437,PM2.5,10,78,37
India,Telangana,Hyderabad,"Zoo Park, Hyderabad - TSPCB",11-05-2024 00:00:00,17.349694,78.451437,PM10,21,151,71
India,Telangana,Hyderabad,"Zoo Park, Hyderabad - TSPCB",11-05-2024 00:00:00,17.349694,78.451437,CO,25,66,46
India,Telangana,Hyderabad,"Zoo Park, Hyderabad - TSPCB",11-05-2024 00:00:00,17.349694,78.451437,OZONE,10,37,22
India,Uttar_Pradesh,Agra,"Manoharpur, Agra - UPPCB",11-05-2024 00:00:00,27.23711,78.01936,NO2,35,35,35
India,Uttar_Pradesh,Agra,"Manoharpur, Agra - UPPCB",11-05-2024 00:00:00,27.23711,78.01936,NH3,2,3,2
India,Uttar_Pradesh,Agra,"Rohta, Agra - UPPCB",11-05-2024 00:00:00,27.106972,78.000111,PM2.5,10,69,45
India,Uttar_Pradesh,Agra,"Sector-3B Avas Vikas Colony, Agra - UPPCB",11-05-2024 00:00:00,27.19412,77.96237,SO2,10,20,15
India,Uttar_Pradesh,Agra,"Sector-3B Avas Vikas Colony, Agra - UPPCB",11-05-2024 00:00:00,27.19412,77.96237,OZONE,9,42,13
India,Uttar_Pradesh,Agra,"Shahjahan Garden, Agra - UPPCB",11-05-2024 00:00:00,27.169338,78.03582,PM2.5,NA,NA,NA
India,Uttar_Pradesh,Agra,"Shastripuram, Agra - UPPCB",11-05-2024 00:00:00,27.19862,77.92066,OZONE,2,18,9
India,Uttar_Pradesh,Baghpat,"Sardar Patel Inter College, Baghpat - UPPCB",11-05-2024 00:00:00,28.964949,77.278761,NO2,12,30,22
India,Uttar_Pradesh,Baghpat,"Sardar Patel Inter College, Baghpat - UPPCB",11-05-2024 00:00:00,28.964949,77.278761,CO,38,78,64
India,Uttar_Pradesh,Bareilly,"Rajendra Nagar, Bareilly - UPPCB",11-05-2024 00:00:00,28.38910936,79.42963708,PM10,29,125,49
India,Uttar_Pradesh,Firozabad,"Nagla Bhau, Firozabad - UPPCB",11-05-2024 00:00:00,27.168897,78.376960,PM2.5,29,59,42
India,Uttar_Pradesh,Firozabad,"Nagla Bhau, Firozabad - UPPCB",11-05-2024 00:00:00,27.168897,78.376960,NO2,17,17,17
India,Uttar_Pradesh,Firozabad,"Nagla Bhau, Firozabad - UPPCB",11-05-2024 00:00:00,27.168897,78.376960,SO2,17,41,24
India,Uttar_Pradesh,Firozabad,"Vibhab Nagar, Firozabad - UPPCB",11-05-2024 00:00:00,27.1594,78.3953,PM2.5,48,88,63
India,Uttar_Pradesh,Firozabad,"Vibhab Nagar, Firozabad - UPPCB",11-05-2024 00:00:00,27.1594,78.3953,PM10,36,66,47
India,Uttar_Pradesh,Firozabad,"Vibhab Nagar, Firozabad - UPPCB",11-05-2024 00:00:00,27.1594,78.3953,OZONE,8,27,18
India,Uttar_Pradesh,Ghaziabad,"Indirapuram, Ghaziabad - UPPCB",11-05-2024 00:00:00,28.646233,77.358075,CO,22,86,32
India,Uttar_Pradesh,Ghaziabad,"Indirapuram, Ghaziabad - UPPCB",11-05-2024 00:00:00,28.646233,77.358075,OZONE,9,57,35
India,Uttar_Pradesh,Ghaziabad,"Loni, Ghaziabad - UPPCB",11-05-2024 00:00:00,28.757294,77.278792,OZONE,57,175,109
India,Uttar_Pradesh,Ghaziabad,"Sanjay Nagar, Ghaziabad - UPPCB",11-05-2024 00:00:00,28.685382,77.453839,NO2,21,82,39
India,Uttar_Pradesh,Ghaziabad,"Sanjay Nagar, Ghaziabad - UPPCB",11-05-2024 00:00:00,28.685382,77.453839,CO,28,68,49
India,Uttar_Pradesh,Ghaziabad,"Vasundhara, Ghaziabad - UPPCB",11-05-2024 00:00:00,28.6603346,77.3572563,PM2.5,52,96,63
India,Uttar_Pradesh,Ghaziabad,"Vasundhara, Ghaziabad - UPPCB",11-05-2024 00:00:00,28.6603346,77.3572563,CO,12,124,34
India,Uttar_Pradesh,Greater Noida,"Knowledge Park - III, Greater Noida - UPPCB",11-05-2024 00:00:00,28.47272,77.482000,CO,68,107,96
India,Uttar_Pradesh,Greater Noida,"Knowledge Park - V, Greater Noida - UPPCB",11-05-2024 00:00:00,28.557054,77.453663,PM2.5,92,194,124
India,Uttar_Pradesh,Greater Noida,"Knowledge Park - V, Greater Noida - UPPCB",11-05-2024 00:00:00,28.557054,77.453663,SO2,7,32,17
India,Uttar_Pradesh,Greater Noida,"Knowledge Park - V, Greater Noida - UPPCB",11-05-2024 00:00:00,28.557054,77.453663,CO,29,63,52
India,Uttar_Pradesh,Greater Noida,"Knowledge Park - V, Greater Noida - UPPCB",11-05-2024 00:00:00,28.557054,77.453663,OZONE,45,193,137
India,Uttar_Pradesh,Jhansi,"Shivaji Nagar, Jhansi - UPPCB",11-05-2024 00:00:00,25.4547,78.6039,PM2.5,5,93,46
India,Uttar_Pradesh,Jhansi,"Shivaji Nagar, Jhansi - UPPCB",11-05-2024 00:00:00,25.4547,78.6039,PM10,5,94,47
India,Uttar_Pradesh,Jhansi,"Shivaji Nagar, Jhansi - UPPCB",11-05-2024 00:00:00,25.4547,78.6039,NO2,1,22,8
India,Uttar_Pradesh,Jhansi,"Shivaji Nagar, Jhansi - UPPCB",11-05-2024 00:00:00,25.4547,78.6039,NH3,6,6,6
India,Uttar_Pradesh,Kanpur,"FTI Kidwai Nagar, Kanpur - UPPCB",11-05-2024 00:00:00,26.428282,80.327067,PM10,65,250,98
India,Uttar_Pradesh,Kanpur,"FTI Kidwai Nagar, Kanpur - UPPCB",11-05-2024 00:00:00,26.428282,80.327067,OZONE,15,70,39
India,Uttar_Pradesh,Kanpur,"NSI Kalyanpur, Kanpur - UPPCB",11-05-2024 00:00:00,26.509954,80.249612,PM2.5,63,110,86
India,Uttar_Pradesh,Kanpur,"NSI Kalyanpur, Kanpur - UPPCB",11-05-2024 00:00:00,26.509954,80.249612,CO,36,46,41
India,Uttar_Pradesh,Khurja,"Kalindi Kunj, Khurja - UPPCB",11-05-2024 00:00:00,28.2348927,77.8683002,PM10,46,112,73
India,Uttar_Pradesh,Khurja,"Kalindi Kunj, Khurja - UPPCB",11-05-2024 00:00:00,28.2348927,77.8683002,OZONE,32,43,39
India,Uttar_Pradesh,Lucknow,"B R Ambedkar University, Lucknow - UPPCB",11-05-2024 00:00:00,26.766433,80.927299,NO2,11,12,11
India,Uttar_Pradesh,Lucknow,"B R Ambedkar University, Lucknow - UPPCB",11-05-2024 00:00:00,26.766433,80.927299,NH3,5,6,5
India,Uttar_Pradesh,Lucknow,"B R Ambedkar University, Lucknow - UPPCB",11-05-2024 00:00:00,26.766433,80.927299,SO2,34,39,37
India,Uttar_Pradesh,Lucknow,"B R Ambedkar University, Lucknow - UPPCB",11-05-2024 00:00:00,26.766433,80.927299,OZONE,32,74,61
India,Uttar_Pradesh,Lucknow,"Gomti Nagar, Lucknow - UPPCB",11-05-2024 00:00:00,26.868120,81.005119,SO2,8,12,10
India,Uttar_Pradesh,Lucknow,"Kendriya Vidyalaya, Lucknow - CPCB",11-05-2024 00:00:00,26.906111,80.948222,PM2.5,48,205,90
India,Uttar_Pradesh,Lucknow,"Kendriya Vidyalaya, Lucknow - CPCB",11-05-2024 00:00:00,26.906111,80.948222,PM10,86,125,105
India,Uttar_Pradesh,Lucknow,"Kendriya Vidyalaya, Lucknow - CPCB",11-05-2024 00:00:00,26.906111,80.948222,NH3,3,20,14
India,Uttar_Pradesh,Lucknow,"Kendriya Vidyalaya, Lucknow - CPCB",11-05-2024 00:00:00,26.906111,80.948222,SO2,2,8,5
India,Uttar_Pradesh,Lucknow,"Kukrail Picnic Spot-1, Lucknow - UPPCB",11-05-2024 00:00:00,26.90723,80.98579,NH3,2,2,2
India,Uttar_Pradesh,Lucknow,"Lalbagh, Lucknow - CPCB",11-05-2024 00:00:00,26.8458805,80.9365541,NO2,10,39,18
India,Uttar_Pradesh,Lucknow,"Talkatora District Industries Center, Lucknow - CPCB",11-05-2024 00:00:00,26.83399722,80.8917361,PM2.5,192,323,268
India,Uttar_Pradesh,Lucknow,"Talkatora District Industries Center, Lucknow - CPCB",11-05-2024 00:00:00,26.83399722,80.8917361,SO2,2,15,7
India,Uttar_Pradesh,Meerut,"Ganga Nagar, Meerut - UPPCB",11-05-2024 00:00:00,28.999264,77.7590354,NH3,6,22,12
India,Uttar_Pradesh,Meerut,"Ganga Nagar, Meerut - UPPCB",11-05-2024 00:00:00,28.999264,77.7590354,CO,22,46,36
India,Uttar_Pradesh,Meerut,"Jai Bhim Nagar, Meerut - UPPCB",11-05-2024 00:00:00,28.9535882,77.7622941,NH3,6,11,8
India,Uttar_Pradesh,Meerut,"Jai Bhim Nagar, Meerut - UPPCB",11-05-2024 00:00:00,28.9535882,77.7622941,OZONE,30,178,118
India,Uttar_Pradesh,Meerut,"Pallavpuram Phase 2, Meerut - UPPCB",11-05-2024 00:00:00,29.063510,77.709723,PM2.5,42,150,82
India,Uttar_Pradesh,Meerut,"Pallavpuram Phase 2, Meerut - UPPCB",11-05-2024 00:00:00,29.063510,77.709723,NO2,17,60,28
India,Uttar_Pradesh,Meerut,"Pallavpuram Phase 2, Meerut - UPPCB",11-05-2024 00:00:00,29.063510,77.709723,NH3,6,18,9
India,Uttar_Pradesh,Meerut,"Pallavpuram Phase 2, Meerut - UPPCB",11-05-2024 00:00:00,29.063510,77.709723,SO2,25,46,32
India,Uttar_Pradesh,Moradabad,"Buddhi Vihar, Moradabad - UPPCB",11-05-2024 00:00:00,28.83526,78.74460,PM2.5,30,93,58
India,Uttar_Pradesh,Moradabad,"Buddhi Vihar, Moradabad - UPPCB",11-05-2024 00:00:00,28.83526,78.74460,NO2,23,23,23
India,Uttar_Pradesh,Moradabad,"Eco Herbal Park, Moradabad - UPPCB",11-05-2024 00:00:00,28.840739,78.697531,NH3,4,9,6
India,Uttar_Pradesh,Moradabad,"Eco Herbal Park, Moradabad - UPPCB",11-05-2024 00:00:00,28.840739,78.697531,SO2,1,54,11
India,Uttar_Pradesh,Moradabad,"Eco Herbal Park, Moradabad - UPPCB",11-05-2024 00:00:00,28.840739,78.697531,CO,1,101,39
India,Uttar_Pradesh,Moradabad,"Eco Herbal Park, Moradabad - UPPCB",11-05-2024 00:00:00,28.840739,78.697531,OZONE,34,133,88
India,Uttar_Pradesh,Moradabad,"Employment Office, Moradabad - UPPCB",11-05-2024 00:00:00,28.88528,78.73880,NO2,15,17,17
India,Uttar_Pradesh,Moradabad,"Employment Office, Moradabad - UPPCB",11-05-2024 00:00:00,28.88528,78.73880,CO,15,53,36
India,Uttar_Pradesh,Moradabad,"Employment Office, Moradabad - UPPCB",11-05-2024 00:00:00,28.88528,78.73880,OZONE,10,142,97
India,Uttar_Pradesh,Moradabad,"Jigar Colony, Moradabad - UPPCB",11-05-2024 00:00:00,28.856664,78.772638,PM2.5,24,74,42
India,Uttar_Pradesh,Moradabad,"Jigar Colony, Moradabad - UPPCB",11-05-2024 00:00:00,28.856664,78.772638,OZONE,51,80,62
India,Uttar_Pradesh,Moradabad,"Transport Nagar, Moradabad - UPPCB",11-05-2024 00:00:00,28.802625,78.753728,PM10,51,134,84
India,Uttar_Pradesh,Noida,"Sector - 62, Noida - IMD",11-05-2024 00:00:00,28.6245479,77.3577104,NO2,NA,NA,NA
India,Uttar_Pradesh,Noida,"Sector-1, Noida - UPPCB",11-05-2024 00:00:00,28.5898,77.3101,NO2,16,79,29
India,Uttar_Pradesh,Noida,"Sector-1, Noida - UPPCB",11-05-2024 00:00:00,28.5898,77.3101,OZONE,57,278,129
India,Uttar_Pradesh,Noida,"Sector-116, Noida - UPPCB",11-05-2024 00:00:00,28.569230,77.393848,PM2.5,94,292,137
India,Uttar_Pradesh,Noida,"Sector-116, Noida - UPPCB",11-05-2024 00:00:00,28.569230,77.393848,CO,11,97,38
India,Uttar_Pradesh,Prayagraj,"Jhunsi, Prayagraj - UPPCB",11-05-2024 00:00:00,25.425602,81.917152,SO2,31,32,31
India,Uttar_Pradesh,Prayagraj,"Jhunsi, Prayagraj - UPPCB",11-05-2024 00:00:00,25.425602,81.917152,OZONE,2,51,35
India,Uttar_Pradesh,Prayagraj,"Motilal Nehru NIT, Prayagraj - UPPCB",11-05-2024 00:00:00,25.494,81.863,CO,7,22,15
India,Uttar_Pradesh,Prayagraj,"Nagar Nigam, Prayagraj - UPPCB",11-05-2024 00:00:00,25.44919916 ,81.82735986 ,SO2,1,42,22
India,Uttar_Pradesh,Prayagraj,"Nagar Nigam, Prayagraj - UPPCB",11-05-2024 00:00:00,25.44919916 ,81.82735986 ,CO,12,31,23
India,Uttar_Pradesh,Varanasi,"Bhelupur, Varanasi - UPPCB",11-05-2024 00:00:00,25.301778,82.996789,NH3,1,1,1
India,Uttar_Pradesh,Varanasi,"IESD Banaras Hindu University, Varanasi - UPPCB",11-05-2024 00:00:00,25.262326,82.995408,NO2,2,3,2
India,Uttar_Pradesh,Varanasi,"IESD Banaras Hindu University, Varanasi - UPPCB",11-05-2024 00:00:00,25.262326,82.995408,SO2,17,20,18
India,Uttar_Pradesh,Varanasi,"Maldahiya, Varanasi - UPPCB",11-05-2024 00:00:00,25.32393,82.99687,NH3,1,1,1
India,Uttar_Pradesh,Varanasi,"Maldahiya, Varanasi - UPPCB",11-05-2024 00:00:00,25.32393,82.99687,SO2,23,24,24
India,Uttar_Pradesh,Vrindavan,"Omex Eternity, Vrindavan - UPPCB",11-05-2024 00:00:00,27.5714090,77.6557570,PM2.5,24,72,35
India,Uttar_Pradesh,Vrindavan,"Omex Eternity, Vrindavan - UPPCB",11-05-2024 00:00:00,27.5714090,77.6557570,PM10,54,189,111
India,Uttar_Pradesh,Vrindavan,"Omex Eternity, Vrindavan - UPPCB",11-05-2024 00:00:00,27.5714090,77.6557570,NO2,2,3,2
India,Uttar_Pradesh,Vrindavan,"Omex Eternity, Vrindavan - UPPCB",11-05-2024 00:00:00,27.5714090,77.6557570,OZONE,26,34,30
India,Uttarakhand,Dehradun,"Doon University, Dehradun - UKPCB",11-05-2024 00:00:00,30.269444,78.044167,PM10,71,115,91
India,Uttarakhand,Rishikesh,"Shivaji Nagar, Rishikesh - UKPCB",11-05-2024 00:00:00,30.075911,78.2859547,NH3,2,6,3
India,West_Bengal,Asansol,"Asansol Court Area, Asansol - WBPCB",11-05-2024 00:00:00,23.685297,86.945968,CO,12,39,16
India,West_Bengal,Barrackpore,"SVSPA Campus, Barrackpore - WBPCB",11-05-2024 00:00:00,22.7605581,88.3617589,PM2.5,23,55,38
India,West_Bengal,Barrackpore,"SVSPA Campus, Barrackpore - WBPCB",11-05-2024 00:00:00,22.7605581,88.3617589,NH3,1,1,1
India,West_Bengal,Barrackpore,"SVSPA Campus, Barrackpore - WBPCB",11-05-2024 00:00:00,22.7605581,88.3617589,OZONE,5,58,23
India,West_Bengal,Durgapur,"Sidhu Kanhu Indoor Stadium, Durgapur - WBPCB",11-05-2024 00:00:00,23.5404352,87.2892225,OZONE,4,37,22
India,West_Bengal,Haldia,"Priyambada Housing Estate, Haldia - WBPCB",11-05-2024 00:00:00,22.06047,88.109737,PM2.5,9,43,19
India,West_Bengal,Howrah,"Belur Math, Howrah - WBPCB",11-05-2024 00:00:00,22.629801,88.352017,PM2.5,28,40,33
India,West_Bengal,Howrah,"Belur Math, Howrah - WBPCB",11-05-2024 00:00:00,22.629801,88.352017,PM10,31,64,45
India,West_Bengal,Howrah,"Ghusuri, Howrah - WBPCB",11-05-2024 00:00:00,22.611968,88.347422,NO2,15,21,18
India,West_Bengal,Howrah,"Ghusuri, Howrah - WBPCB",11-05-2024 00:00:00,22.611968,88.347422,OZONE,10,20,14
India,West_Bengal,Howrah,"Padmapukur, Howrah - WBPCB",11-05-2024 00:00:00,22.5687319,88.2797276,PM2.5,NA,NA,NA
India,West_Bengal,Howrah,"Padmapukur, Howrah - WBPCB",11-05-2024 00:00:00,22.5687319,88.2797276,OZONE,6,38,15
India,West_Bengal,Kolkata,"Fort William, Kolkata - WBPCB",11-05-2024 00:00:00,22.556640,88.342674,CO,18,36,24
India,West_Bengal,Kolkata,"Fort William, Kolkata - WBPCB",11-05-2024 00:00:00,22.556640,88.342674,OZONE,6,63,24
India,West_Bengal,Kolkata,"Jadavpur, Kolkata - WBPCB",11-05-2024 00:00:00,22.49929,88.36917,NO2,47,67,52
India,West_Bengal,Kolkata,"Jadavpur, Kolkata - WBPCB",11-05-2024 00:00:00,22.49929,88.36917,NH3,23,28,26
India,West_Bengal,Kolkata,"Jadavpur, Kolkata - WBPCB",11-05-2024 00:00:00,22.49929,88.36917,SO2,4,6,5
India,West_Bengal,Kolkata,"Jadavpur, Kolkata - WBPCB",11-05-2024 00:00:00,22.49929,88.36917,CO,18,44,27
India,West_Bengal,Kolkata,"Rabindra Sarobar, Kolkata - WBPCB",11-05-2024 00:00:00,22.51106,88.35142,PM2.5,12,27,21
India,West_Bengal,Kolkata,"Rabindra Sarobar, Kolkata - WBPCB",11-05-2024 00:00:00,22.51106,88.35142,SO2,7,16,10
India,West_Bengal,Kolkata,"Victoria, Kolkata - WBPCB",11-05-2024 00:00:00,22.5448082,88.3403691,OZONE,8,46,20
India,West_Bengal,Siliguri,"Ward-32 Bapupara, Siliguri - WBPCB",11-05-2024 00:00:00,26.6879226,88.4152495,SO2,6,10,7
India,Andhra_Pradesh,Anantapur,"Gulzarpet, Anantapur - APPCB",11-05-2024 00:00:00,14.675886,77.593027,PM10,54,71,61
India,Andhra_Pradesh,Chittoor,"Gangineni Cheruvu, Chittoor - APPCB",11-05-2024 00:00:00,13.204880,79.097889,PM10,NA,NA,NA
India,Andhra_Pradesh,Rajamahendravaram,"Anand Kala Kshetram, Rajamahendravaram - APPCB",11-05-2024 00:00:00,16.9872867,81.7363176,PM2.5,2,66,17
India,Andhra_Pradesh,Rajamahendravaram,"Anand Kala Kshetram, Rajamahendravaram - APPCB",11-05-2024 00:00:00,16.9872867,81.7363176,PM10,8,70,31
India,Andhra_Pradesh,Rajamahendravaram,"Anand Kala Kshetram, Rajamahendravaram - APPCB",11-05-2024 00:00:00,16.9872867,81.7363176,NO2,8,44,23
India,Andhra_Pradesh,Rajamahendravaram,"Anand Kala Kshetram, Rajamahendravaram - APPCB",11-05-2024 00:00:00,16.9872867,81.7363176,OZONE,24,57,43
India,Andhra_Pradesh,Tirupati,"Vaikuntapuram, Tirupati - APPCB",11-05-2024 00:00:00,13.615387,79.409230,PM2.5,13,365,83
India,Andhra_Pradesh,Tirupati,"Vaikuntapuram, Tirupati - APPCB",11-05-2024 00:00:00,13.615387,79.409230,NO2,14,19,17
India,Andhra_Pradesh,Tirupati,"Vaikuntapuram, Tirupati - APPCB",11-05-2024 00:00:00,13.615387,79.409230,SO2,4,6,5
India,Andhra_Pradesh,Vijayawada,"HB Colony, Vijayawada - APPCB",11-05-2024 00:00:00,16.536107,80.594233,PM10,38,500,170
India,Andhra_Pradesh,Vijayawada,"Rajiv Nagar, Vijayawada - APPCB",11-05-2024 00:00:00,16.554731,80.649110,PM10,59,64,61
India,Andhra_Pradesh,Visakhapatnam,"GVM Corporation, Visakhapatnam - APPCB",11-05-2024 00:00:00,17.72,83.3,NH3,2,6,3
India,Arunachal_Pradesh,Naharlagun,"Naharlagun, Naharlagun - APSPCB",11-05-2024 00:00:00,27.103358,93.679645,SO2,4,4,4
India,Assam,Byrnihat,"Central Academy for SFS, Byrnihat - PCBA",11-05-2024 00:00:00,26.071318,91.87488,OZONE,16,23,23
India,Assam,Guwahati,"IITG, Guwahati - PCBA",11-05-2024 00:00:00,26.2028636,91.70046436,NO2,1,2,1
India,Assam,Guwahati,"IITG, Guwahati - PCBA",11-05-2024 00:00:00,26.2028636,91.70046436,OZONE,10,31,20
India,Assam,Guwahati,"LGBI Airport, Guwahati - PCBA",11-05-2024 00:00:00,26.10887,91.589544,PM10,9,177,65
India,Assam,Guwahati,"Pan Bazaar, Guwahati - PCBA",11-05-2024 00:00:00,26.187500,91.744194,NH3,2,2,2
India,Assam,Guwahati,"Railway Colony, Guwahati - PCBA",11-05-2024 00:00:00,26.181742,91.78063,PM2.5,27,147,48
India,Assam,Nagaon,"Christianpatty, Nagaon - PCBA",11-05-2024 00:00:00,26.349082,92.68449,PM2.5,53,80,65
India,Assam,Nagaon,"Christianpatty, Nagaon - PCBA",11-05-2024 00:00:00,26.349082,92.68449,CO,38,55,45
India,Assam,Nalbari,"Bata Chowk, Nalbari - PCBA",11-05-2024 00:00:00,26.446912,91.439057,PM10,35,140,74
India,Assam,Silchar,"Tarapur, Silchar - PCBA",11-05-2024 00:00:00,24.82827,92.79525,PM10,37,68,51
India,Assam,Silchar,"Tarapur, Silchar - PCBA",11-05-2024 00:00:00,24.82827,92.79525,NH3,1,1,1
India,Bihar,Arrah,"New DM Office, Arrah - BSPCB",11-05-2024 00:00:00,25.5626095,84.663264,OZONE,14,25,17
India,Bihar,Aurangabad,"Gurdeo Nagar, Aurangabad - BSPCB",11-05-2024 00:00:00,24.75746,84.366208,PM2.5,32,78,52
India,Bihar,Aurangabad,"Gurdeo Nagar, Aurangabad - BSPCB",11-05-2024 00:00:00,24.75746,84.366208,NO2,5,6,5
India,Bihar,Aurangabad,"Gurdeo Nagar, Aurangabad - BSPCB",11-05-2024 00:00:00,24.75746,84.366208,SO2,16,22,19
India,Bihar,Bettiah,"Kamalnath Nagar, Bettiah - BSPCB",11-05-2024 00:00:00,26.80365,84.51954,CO,61,88,70
India,Bihar,Bhagalpur,"DM Office_Kachari Chowk, Bhagalpur - BSPCB",11-05-2024 00:00:00,25.251013,86.989001,PM10,68,129,95
India,Bihar,Bhagalpur,"Mayaganj, Bhagalpur - BSPCB",11-05-2024 00:00:00,25.265194,87.012947,PM10,56,213,116
India,Bihar,Bhagalpur,"Mayaganj, Bhagalpur - BSPCB",11-05-2024 00:00:00,25.265194,87.012947,NO2,3,12,7
India,Bihar,Bhagalpur,"Mayaganj, Bhagalpur - BSPCB",11-05-2024 00:00:00,25.265194,87.012947,NH3,6,8,7
India,Bihar,Bihar Sharif,"D M Colony, Bihar Sharif - BSPCB",11-05-2024 00:00:00,25.204762,85.514960,SO2,7,16,12
India,Bihar,Buxar,"Charitra Van, Buxar - BSPCB (Formerly known as Central Jail)",11-05-2024 00:00:00,25.567520,83.966379,PM2.5,NA,NA,NA
India,Bihar,Buxar,"Charitra Van, Buxar - BSPCB (Formerly known as Central Jail)",11-05-2024 00:00:00,25.567520,83.966379,NO2,1,1,1
India,Bihar,Buxar,"Charitra Van, Buxar - BSPCB (Formerly known as Central Jail)",11-05-2024 00:00:00,25.567520,83.966379,OZONE,57,255,158
India,Bihar,Gaya,"Collectorate, Gaya - BSPCB",11-05-2024 00:00:00,24.7955,84.9994,PM2.5,32,196,92
India,Bihar,Gaya,"Kareemganj, Gaya - BSPCB",11-05-2024 00:00:00,24.792403,84.992416,NH3,2,6,4
India,Bihar,Gaya,"SFTI Kusdihra, Gaya - BSPCB",11-05-2024 00:00:00,24.762518,84.982348,PM10,33,67,48
India,Bihar,Gaya,"SFTI Kusdihra, Gaya - BSPCB",11-05-2024 00:00:00,24.762518,84.982348,NO2,19,47,33
India,Bihar,Gaya,"SFTI Kusdihra, Gaya - BSPCB",11-05-2024 00:00:00,24.762518,84.982348,CO,24,46,34
India,Bihar,Kishanganj,"SDM Office_Khagra, Kishanganj - BSPCB",11-05-2024 00:00:00,26.0881305,87.93840336,PM2.5,12,47,29
India,Bihar,Kishanganj,"SDM Office_Khagra, Kishanganj - BSPCB",11-05-2024 00:00:00,26.0881305,87.93840336,PM10,32,121,76
India,Bihar,Muzaffarpur,"Buddha Colony, Muzaffarpur - BSPCB",11-05-2024 00:00:00,26.11442,85.39813,NO2,8,24,13
India,Bihar,Muzaffarpur,"Muzaffarpur Collectorate, Muzaffarpur - BSPCB",11-05-2024 00:00:00,26.1209,85.3647,NO2,30,59,36
India,Bihar,Muzaffarpur,"Muzaffarpur Collectorate, Muzaffarpur - BSPCB",11-05-2024 00:00:00,26.1209,85.3647,CO,18,72,39
India,Bihar,Muzaffarpur,"Muzaffarpur Collectorate, Muzaffarpur - BSPCB",11-05-2024 00:00:00,26.1209,85.3647,OZONE,43,88,64
India,Bihar,Patna,"DRM Office Danapur, Patna - BSPCB",11-05-2024 00:00:00,25.586562,85.043586,NH3,2,3,3
India,Bihar,Patna,"DRM Office Danapur, Patna - BSPCB",11-05-2024 00:00:00,25.586562,85.043586,OZONE,17,45,32
India,Bihar,Patna,"Govt. High School Shikarpur, Patna - BSPCB",11-05-2024 00:00:00,25.592539,85.227158,CO,41,66,54
India,Bihar,Patna,"Rajbansi Nagar, Patna - BSPCB",11-05-2024 00:00:00,25.599486,85.113666,PM2.5,25,99,69
India,Bihar,Patna,"Rajbansi Nagar, Patna - BSPCB",11-05-2024 00:00:00,25.599486,85.113666,NO2,10,30,18
India,Bihar,Patna,"Rajbansi Nagar, Patna - BSPCB",11-05-2024 00:00:00,25.599486,85.113666,SO2,8,22,12
India,Bihar,Patna,"Samanpura, Patna - BSPCB",11-05-2024 00:00:00,25.596727,85.085624,PM10,111,144,122
India,Bihar,Patna,"Samanpura, Patna - BSPCB",11-05-2024 00:00:00,25.596727,85.085624,NH3,10,11,10
India,Bihar,Purnia,"Mariam Nagar, Purnia - BSPCB",11-05-2024 00:00:00,25.366336,87.117468,PM10,NA,NA,NA
India,Bihar,Rajgir,"Dangi Tola, Rajgir - BSPCB",11-05-2024 00:00:00,25.03280,85.41948,PM2.5,13,60,36
India,Bihar,Samastipur,"DM Office_Kasipur, Samastipur - BSPCB",11-05-2024 00:00:00,25.859655,85.77944,NO2,4,5,4
India,Bihar,Sasaram,"Dada Peer, Sasaram - BSPCB",11-05-2024 00:00:00,24.952822,84.002396,PM2.5,5,38,16
India,Bihar,Sasaram,"Dada Peer, Sasaram - BSPCB",11-05-2024 00:00:00,24.952822,84.002396,NH3,1,21,13
India,Bihar,Siwan,"Chitragupta Nagar, Siwan - BSPCB",11-05-2024 00:00:00,26.2271665,84.3570427,NO2,10,34,19
India,Bihar,Siwan,"Chitragupta Nagar, Siwan - BSPCB",11-05-2024 00:00:00,26.2271665,84.3570427,NH3,1,3,2
India,Bihar,Siwan,"Chitragupta Nagar, Siwan - BSPCB",11-05-2024 00:00:00,26.2271665,84.3570427,CO,54,136,120
India,Chandigarh,Chandigarh,"Sector 22, Chandigarh - CPCC",11-05-2024 00:00:00,30.735567,76.775714,PM2.5,70,217,100
India,Chandigarh,Chandigarh,"Sector 22, Chandigarh - CPCC",11-05-2024 00:00:00,30.735567,76.775714,PM10,98,189,125
India,Chandigarh,Chandigarh,"Sector 22, Chandigarh - CPCC",11-05-2024 00:00:00,30.735567,76.775714,NO2,10,57,27
India,Chandigarh,Chandigarh,"Sector 22, Chandigarh - CPCC",11-05-2024 00:00:00,30.735567,76.775714,NH3,8,14,9
India,Chandigarh,Chandigarh,"Sector-53, Chandigarh - CPCC",11-05-2024 00:00:00,30.719859,76.738637,SO2,4,34,24
India,Chandigarh,Chandigarh,"Sector-53, Chandigarh - CPCC",11-05-2024 00:00:00,30.719859,76.738637,CO,42,57,53
India,Chhattisgarh,Bhilai,"Hathkhoj, Bhilai - CECB",11-05-2024 00:00:00,21.224231,81.408350,PM2.5,12,62,37
India,Chhattisgarh,Bhilai,"Hathkhoj, Bhilai - CECB",11-05-2024 00:00:00,21.224231,81.408350,PM10,38,120,74
India,Chhattisgarh,Bhilai,"Hathkhoj, Bhilai - CECB",11-05-2024 00:00:00,21.224231,81.408350,NO2,10,34,20
India,Chhattisgarh,Chhal,"Nawapara SECL Colony, Chhal - CECB",11-05-2024 00:00:00,22.118125,83.140608,CO,22,89,40
India,Chhattisgarh,Korba,"Rampur, Korba - CECB",11-05-2024 00:00:00,22.368195,82.746431,PM10,12,68,39
India,Chhattisgarh,Korba,"Rampur, Korba - CECB",11-05-2024 00:00:00,22.368195,82.746431,NH3,1,4,1
India,Chhattisgarh,Korba,"Rampur, Korba - CECB",11-05-2024 00:00:00,22.368195,82.746431,CO,14,27,19
India,Chhattisgarh,Korba,"Urja Nagar, Korba - CECB",11-05-2024 00:00:00,22.348441,82.549611,SO2,2,5,3
India,Chhattisgarh,Korba,"Urja Nagar, Korba - CECB",11-05-2024 00:00:00,22.348441,82.549611,OZONE,1,4,3
India,Chhattisgarh,Kunjemura,"OP Jindal School, Kunjemura - CECB",11-05-2024 00:00:00,22.126650,83.483212,NO2,16,124,44
India,Chhattisgarh,Kunjemura,"OP Jindal School, Kunjemura - CECB",11-05-2024 00:00:00,22.126650,83.483212,SO2,2,11,7
India,Chhattisgarh,Milupara,"Govt. Higher Secondary School, Milupara - CECB",11-05-2024 00:00:00,22.1910172,83.5197009,NH3,1,1,1
India,Chhattisgarh,Raipur,"Siltara Phase-II, Raipur - CECB",11-05-2024 00:00:00,21.371751,81.664929,SO2,16,62,31
India,Chhattisgarh,Raipur,"Siltara Phase-II, Raipur - CECB",11-05-2024 00:00:00,21.371751,81.664929,OZONE,3,36,17
India,Chhattisgarh,Tumidih,"OP Jindal Industrial Park, Tumidih - CECB",11-05-2024 00:00:00,22.06631475,83.33820077,CO,17,60,39
India,Chhattisgarh,Tumidih,"OP Jindal Industrial Park, Tumidih - CECB",11-05-2024 00:00:00,22.06631475,83.33820077,OZONE,22,76,45
India,Delhi,Delhi,"Alipur, Delhi - DPCC",11-05-2024 00:00:00,28.815329,77.153010,PM10,134,213,161
India,Delhi,Delhi,"Anand Vihar, Delhi - DPCC",11-05-2024 00:00:00,28.647622,77.3158090,NH3,NA,NA,NA
India,Delhi,Delhi,"Anand Vihar, Delhi - DPCC",11-05-2024 00:00:00,28.647622,77.3158090,SO2,NA,NA,NA
India,Delhi,Delhi,"Anand Vihar, Delhi - DPCC",11-05-2024 00:00:00,28.647622,77.3158090,OZONE,18,127,58
India,Delhi,Delhi,"Ashok Vihar, Delhi - DPCC",11-05-2024 00:00:00,28.695381,77.181665,NH3,14,18,16
India,Delhi,Delhi,"Ashok Vihar, Delhi - DPCC",11-05-2024 00:00:00,28.695381,77.181665,SO2,15,65,28
India,Delhi,Delhi,"Aya Nagar, Delhi - IMD",11-05-2024 00:00:00,28.4706914,77.1099364,NO2,NA,NA,NA
India,Delhi,Delhi,"Bawana, Delhi - DPCC",11-05-2024 00:00:00,28.776200,77.051074,SO2,6,22,15
India,Delhi,Delhi,"Chandni Chowk, Delhi - IITM",11-05-2024 00:00:00,28.656756,77.227234,SO2,2,39,15
India,Delhi,Delhi,"Chandni Chowk, Delhi - IITM",11-05-2024 00:00:00,28.656756,77.227234,CO,28,71,56
India,Delhi,Delhi,"DTU, Delhi - CPCB",11-05-2024 00:00:00,28.7500499,77.1112615,NO2,6,24,17
India,Delhi,Delhi,"DTU, Delhi - CPCB",11-05-2024 00:00:00,28.7500499,77.1112615,OZONE,36,262,169
India,Delhi,Delhi,"Dr. Karni Singh Shooting Range, Delhi - DPCC",11-05-2024 00:00:00,28.498571,77.264840,OZONE,91,272,158
India,Delhi,Delhi,"Dwarka-Sector 8, Delhi - DPCC ",11-05-2024 00:00:00,28.5710274,77.0719006,NH3,2,21,10
India,Delhi,Delhi,"IHBAS, Dilshad Garden, Delhi - CPCB",11-05-2024 00:00:00,28.6811736,77.3025234,SO2,3,22,9
India,Delhi,Delhi,"Jawaharlal Nehru Stadium, Delhi - DPCC",11-05-2024 00:00:00,28.580280,77.233829,SO2,8,20,16
India,Delhi,Delhi,"Lodhi Road, Delhi - IITM",11-05-2024 00:00:00,28.588333,77.221667,PM10,56,138,79
India,Delhi,Delhi,"Major Dhyan Chand National Stadium, Delhi - DPCC",11-05-2024 00:00:00,28.611281,77.237738,PM10,56,231,150
India,Delhi,Delhi,"Mundka, Delhi - DPCC",11-05-2024 00:00:00,28.684678,77.076574,PM10,133,209,165
India,Delhi,Delhi,"Mundka, Delhi - DPCC",11-05-2024 00:00:00,28.684678,77.076574,OZONE,41,228,112
India,Delhi,Delhi,"NSIT Dwarka, Delhi - CPCB",11-05-2024 00:00:00,28.60909,77.0325413,OZONE,27,83,64
India,Delhi,Delhi,"Najafgarh, Delhi - DPCC",11-05-2024 00:00:00,28.570173,76.933762,NH3,10,12,11
India,Delhi,Delhi,"Narela, Delhi - DPCC",11-05-2024 00:00:00,28.822836,77.101981,PM2.5,25,394,165
India,Delhi,Delhi,"Narela, Delhi - DPCC",11-05-2024 00:00:00,28.822836,77.101981,NH3,6,13,9
India,Delhi,Delhi,"Okhla Phase-2, Delhi - DPCC",11-05-2024 00:00:00,28.530785,77.271255,PM10,107,232,167
India,Delhi,Delhi,"Okhla Phase-2, Delhi - DPCC",11-05-2024 00:00:00,28.530785,77.271255,OZONE,43,146,96
India,Delhi,Delhi,"Punjabi Bagh, Delhi - DPCC",11-05-2024 00:00:00,28.674045,77.131023,PM2.5,70,297,153
India,Delhi,Delhi,"Punjabi Bagh, Delhi - DPCC",11-05-2024 00:00:00,28.674045,77.131023,NO2,32,58,43
India,Delhi,Delhi,"Punjabi Bagh, Delhi - DPCC",11-05-2024 00:00:00,28.674045,77.131023,NH3,3,4,4
India,Delhi,Delhi,"Punjabi Bagh, Delhi - DPCC",11-05-2024 00:00:00,28.674045,77.131023,SO2,1,19,9
India,Delhi,Delhi,"Pusa, Delhi - DPCC",11-05-2024 00:00:00,28.639652,77.146275,PM2.5,47,270,109
India,Delhi,Delhi,"Pusa, Delhi - DPCC",11-05-2024 00:00:00,28.639652,77.146275,NH3,5,9,8
India,Delhi,Delhi,"Pusa, Delhi - DPCC",11-05-2024 00:00:00,28.639652,77.146275,OZONE,20,153,91
India,Delhi,Delhi,"Pusa, Delhi - IMD",11-05-2024 00:00:00,28.636110,77.173332,OZONE,16,53,53
India,Delhi,Delhi,"R K Puram, Delhi - DPCC",11-05-2024 00:00:00,28.563262,77.186937,NO2,2,62,14
India,Delhi,Delhi,"Shadipur, Delhi - CPCB",11-05-2024 00:00:00,28.6514781,77.1473105,SO2,6,28,14
India,Delhi,Delhi,"Sirifort, Delhi - CPCB",11-05-2024 00:00:00,28.5504249,77.2159377,PM10,136,500,181
India,Delhi,Delhi,"Sirifort, Delhi - CPCB",11-05-2024 00:00:00,28.5504249,77.2159377,SO2,76,77,76
India,Delhi,Delhi,"Sri Aurobindo Marg, Delhi - DPCC",11-05-2024 00:00:00,28.531346,77.190156,PM2.5,97,183,130
India,Delhi,Delhi,"Sri Aurobindo Marg, Delhi - DPCC",11-05-2024 00:00:00,28.531346,77.190156,SO2,8,25,19
India,Delhi,Delhi,"Sri Aurobindo Marg, Delhi - DPCC",11-05-2024 00:00:00,28.531346,77.190156,CO,3,50,33
India,Delhi,Delhi,"Vivek Vihar, Delhi - DPCC",11-05-2024 00:00:00,28.672342,77.315260,OZONE,30,137,96
India,Delhi,Delhi,"Wazirpur, Delhi - DPCC",11-05-2024 00:00:00,28.699793,77.165453,PM10,134,500,199
India,Delhi,Delhi,"Wazirpur, Delhi - DPCC",11-05-2024 00:00:00,28.699793,77.165453,NH3,3,6,5
India,Delhi,Delhi,"Wazirpur, Delhi - DPCC",11-05-2024 00:00:00,28.699793,77.165453,SO2,11,32,19
India,Delhi,Delhi,"Wazirpur, Delhi - DPCC",11-05-2024 00:00:00,28.699793,77.165453,CO,46,107,91
India,Delhi,Delhi,"Wazirpur, Delhi - DPCC",11-05-2024 00:00:00,28.699793,77.165453,OZONE,35,195,114
India,Gujarat,Ahmedabad,"Gyaspur, Ahmedabad - IITM",11-05-2024 00:00:00,22.977134,72.553024,PM10,55,151,91
India,Gujarat,Ahmedabad,"Gyaspur, Ahmedabad - IITM",11-05-2024 00:00:00,22.977134,72.553024,NO2,39,51,45
India,Gujarat,Ahmedabad,"Gyaspur, Ahmedabad - IITM",11-05-2024 00:00:00,22.977134,72.553024,NH3,6,7,7
India,Gujarat,Ahmedabad,"Maninagar, Ahmedabad - GPCB",11-05-2024 00:00:00,23.002657,72.591912,PM10,62,107,91
India,Gujarat,Ahmedabad,"Maninagar, Ahmedabad - GPCB",11-05-2024 00:00:00,23.002657,72.591912,SO2,3,103,44
India,Gujarat,Ahmedabad,"Maninagar, Ahmedabad - GPCB",11-05-2024 00:00:00,23.002657,72.591912,OZONE,8,223,98
India,Gujarat,Ahmedabad,"Raikhad, Ahmedabad - IITM",11-05-2024 00:00:00,23.020509,72.579261,NO2,25,35,31
India,Gujarat,Ahmedabad,"Raikhad, Ahmedabad - IITM",11-05-2024 00:00:00,23.020509,72.579261,NH3,2,5,3
India,Gujarat,Ahmedabad,"Rakhial, Ahmedabad - IITM",11-05-2024 00:00:00,23.016834,72.625775,NO2,32,91,55
India,Gujarat,Ahmedabad,"SVPI Airport Hansol, Ahmedabad - IITM",11-05-2024 00:00:00,23.076793,72.627874,NO2,31,42,38
India,Gujarat,Ahmedabad,"SVPI Airport Hansol, Ahmedabad - IITM",11-05-2024 00:00:00,23.076793,72.627874,SO2,4,10,6
India,Gujarat,Ahmedabad,"Sardar Vallabhbhai Patel Stadium, Ahmedabad - IITM",11-05-2024 00:00:00,23.043070,72.562968,SO2,11,19,15
India,Gujarat,Ankleshwar,"GIDC, Ankleshwar - GPCB",11-05-2024 00:00:00,21.613267,73.010555,PM2.5,25,74,44
India,Gujarat,Ankleshwar,"GIDC, Ankleshwar - GPCB",11-05-2024 00:00:00,21.613267,73.010555,NH3,6,6,6
India,Gujarat,Ankleshwar,"GIDC, Ankleshwar - GPCB",11-05-2024 00:00:00,21.613267,73.010555,SO2,5,12,9
India,Gujarat,Surat,"Science Center, Surat - SMC",11-05-2024 00:00:00,21.170046,72.795405,NO2,NA,NA,NA
India,Gujarat,Surat,"Science Center, Surat - SMC",11-05-2024 00:00:00,21.170046,72.795405,CO,NA,NA,NA
India,Gujarat,Vapi,"Phase-1 GIDC, Vapi - GPCB",11-05-2024 00:00:00,20.362421,72.918013,PM10,27,78,50
India,Gujarat,Vapi,"Phase-1 GIDC, Vapi - GPCB",11-05-2024 00:00:00,20.362421,72.918013,NH3,2,3,2
India,Haryana,Ambala,"Patti Mehar, Ambala - HSPCB",11-05-2024 00:00:00,30.379589,76.778328,PM2.5,46,110,62
India,Haryana,Ambala,"Patti Mehar, Ambala - HSPCB",11-05-2024 00:00:00,30.379589,76.778328,CO,30,60,39
India,Haryana,Bahadurgarh,"Arya Nagar, Bahadurgarh - HSPCB",11-05-2024 00:00:00,28.6701,76.9254,SO2,15,19,17
India,Haryana,Ballabgarh,"Nathu Colony, Ballabgarh - HSPCB",11-05-2024 00:00:00,28.3419248,77.319699,PM10,90,144,118
India,Haryana,Ballabgarh,"Nathu Colony, Ballabgarh - HSPCB",11-05-2024 00:00:00,28.3419248,77.319699,NO2,11,13,12
India,Haryana,Bhiwani,"H.B. Colony, Bhiwani - HSPCB",11-05-2024 00:00:00,28.806223,76.141105,PM10,86,374,135
India,Haryana,Charkhi Dadri,"Mini Secretariat, Charkhi Dadri - HSPCB",11-05-2024 00:00:00,28.593883,76.270653,PM10,80,471,156
India,Haryana,Dharuhera,"Municipal Corporation Office, Dharuhera -  HSPCB",11-05-2024 00:00:00,28.206800,76.799700,OZONE,34,66,54
India,Haryana,Faridabad,"New Industrial Town, Faridabad - HSPCB",11-05-2024 00:00:00,28.39072,77.30059,NO2,5,18,12
India,Haryana,Faridabad,"New Industrial Town, Faridabad - HSPCB",11-05-2024 00:00:00,28.39072,77.30059,OZONE,29,158,72
India,Haryana,Faridabad,"Sector 11, Faridabad - HSPCB",11-05-2024 00:00:00,28.376058,77.315741,SO2,1,112,8
India,Haryana,Faridabad,"Sector 30, Faridabad - HSPCB",11-05-2024 00:00:00,28.4417,77.3217,SO2,5,6,6
India,Haryana,Faridabad,"Sector- 16A, Faridabad - HSPCB",11-05-2024 00:00:00,28.4088421,77.3099081,CO,NA,NA,NA
India,Haryana,Gurugram,"NISE Gwal Pahari, Gurugram - IMD",11-05-2024 00:00:00,28.422681,77.148944,CO,18,84,21
India,Haryana,Gurugram,"Teri Gram, Gurugram - HSPCB",11-05-2024 00:00:00,28.4275,77.1465,NO2,10,39,21
India,Haryana,Gurugram,"Teri Gram, Gurugram - HSPCB",11-05-2024 00:00:00,28.4275,77.1465,NH3,22,29,26
India,Haryana,Gurugram,"Vikas Sadan, Gurugram - HSPCB",11-05-2024 00:00:00,28.4501238,77.0263051,NO2,5,22,13
India,Haryana,Gurugram,"Vikas Sadan, Gurugram - HSPCB",11-05-2024 00:00:00,28.4501238,77.0263051,CO,54,150,114
India,Haryana,Hisar,"Urban Estate-II, Hisar - HSPCB",11-05-2024 00:00:00,29.140560,75.744941,NH3,5,14,10
India,Haryana,Jind,"Police Lines, Jind - HSPCB",11-05-2024 00:00:00,29.307814,76.337619,CO,1,62,13
India,Haryana,Karnal,"Sector-12, Karnal - HSPCB",11-05-2024 00:00:00,29.695300,77.002700,OZONE,31,36,34
India,Haryana,Kurukshetra,"Sector-7, Kurukshetra - HSPCB",11-05-2024 00:00:00,29.966942,76.875879,CO,16,42,25
India,Haryana,Kurukshetra,"Sector-7, Kurukshetra - HSPCB",11-05-2024 00:00:00,29.966942,76.875879,OZONE,31,64,54
India,Haryana,Manesar,"Sector-2 IMT, Manesar - HSPCB",11-05-2024 00:00:00,28.360699,76.936090,PM2.5,95,190,121
India,Haryana,Manesar,"Sector-2 IMT, Manesar - HSPCB",11-05-2024 00:00:00,28.360699,76.936090,NO2,NA,NA,NA
India,Haryana,Manesar,"Sector-2 IMT, Manesar - HSPCB",11-05-2024 00:00:00,28.360699,76.936090,OZONE,39,104,84
India,Haryana,Narnaul,"Shastri Nagar, Narnaul - HSPCB",11-05-2024 00:00:00,28.060249,76.113115,NH3,4,24,16
India,Haryana,Palwal,"Shyam Nagar, Palwal - HSPCB",11-05-2024 00:00:00,28.1485564,77.3320667,PM10,82,153,103
India,Haryana,Palwal,"Shyam Nagar, Palwal - HSPCB",11-05-2024 00:00:00,28.1485564,77.3320667,NO2,23,24,24
India,Haryana,Palwal,"Shyam Nagar, Palwal - HSPCB",11-05-2024 00:00:00,28.1485564,77.3320667,NH3,8,9,9
India,Haryana,Palwal,"Shyam Nagar, Palwal - HSPCB",11-05-2024 00:00:00,28.1485564,77.3320667,CO,23,36,28
India,Haryana,Panchkula,"Sector-6, Panchkula - HSPCB ",11-05-2024 00:00:00,30.7057778,76.8531805555555,OZONE,35,67,49
India,Haryana,Panipat,"Sector-18, Panipat - HSPCB",11-05-2024 00:00:00,29.497973,76.993331,PM2.5,91,93,92
India,Haryana,Panipat,"Sector-18, Panipat - HSPCB",11-05-2024 00:00:00,29.497973,76.993331,OZONE,30,30,30
India,Haryana,Rohtak,"MD University, Rohtak - HSPCB",11-05-2024 00:00:00,28.52123,76.37138,SO2,6,8,7
India,Haryana,Sirsa,"F-Block, Sirsa - HSPCB",11-05-2024 00:00:00,29.536400,75.015800,PM2.5,58,239,120
India,Haryana,Yamuna Nagar,"Gobind Pura, Yamuna Nagar - HSPCB",11-05-2024 00:00:00,30.1480566,77.2893471,PM2.5,72,316,118
India,Haryana,Yamuna Nagar,"Gobind Pura, Yamuna Nagar - HSPCB",11-05-2024 00:00:00,30.1480566,77.2893471,SO2,3,26,9
India,Haryana,Yamuna Nagar,"Gobind Pura, Yamuna Nagar - HSPCB",11-05-2024 00:00:00,30.1480566,77.2893471,OZONE,24,50,38
India,Himachal Pradesh,Baddi,"HIMUDA Complex Phase-1, Baddi - HPPCB",11-05-2024 00:00:00,30.943887,76.801991,CO,2,48,26
India,Jammu_and_Kashmir,Srinagar,"Rajbagh, Srinagar - JKSPCB",11-05-2024 00:00:00,34.066206,74.819820,PM2.5,28,55,41
India,Jammu_and_Kashmir,Srinagar,"Rajbagh, Srinagar - JKSPCB",11-05-2024 00:00:00,34.066206,74.819820,PM10,49,98,72
India,Jammu_and_Kashmir,Srinagar,"Rajbagh, Srinagar - JKSPCB",11-05-2024 00:00:00,34.066206,74.819820,OZONE,12,21,15
India,Jharkhand,Dhanbad,"Kalakusuma, Dhanbad - DMC",11-05-2024 00:00:00,23.811548,86.481238,OZONE,23,72,69
India,Karnataka,Bagalkot,"Vidayagiri, Bagalkot - KSPCB",11-05-2024 00:00:00,16.172806,75.659694,PM10,45,46,46
India,Karnataka,Bagalkot,"Vidayagiri, Bagalkot - KSPCB",11-05-2024 00:00:00,16.172806,75.659694,NO2,9,10,9
India,Karnataka,Bengaluru,"Bapuji Nagar, Bengaluru - KSPCB",11-05-2024 00:00:00,12.951913,77.539784,PM2.5,60,270,95
India,Karnataka,Bengaluru,"Bapuji Nagar, Bengaluru - KSPCB",11-05-2024 00:00:00,12.951913,77.539784,NH3,1,1,1
India,Karnataka,Bengaluru,"Hebbal, Bengaluru - KSPCB",11-05-2024 00:00:00,13.029152,77.585901,PM2.5,40,94,68
India,Karnataka,Bengaluru,"Hombegowda Nagar, Bengaluru - KSPCB",11-05-2024 00:00:00,12.938539,77.590100,PM2.5,21,55,36
India,Karnataka,Bengaluru,"Jayanagar 5th Block, Bengaluru - KSPCB",11-05-2024 00:00:00,12.920984,77.584908,PM2.5,36,80,57
India,Karnataka,Bengaluru,"Jayanagar 5th Block, Bengaluru - KSPCB",11-05-2024 00:00:00,12.920984,77.584908,PM10,30,121,66
India,Karnataka,Bengaluru,"Jayanagar 5th Block, Bengaluru - KSPCB",11-05-2024 00:00:00,12.920984,77.584908,SO2,18,30,23
India,Karnataka,Bengaluru,"Jayanagar 5th Block, Bengaluru - KSPCB",11-05-2024 00:00:00,12.920984,77.584908,CO,20,22,21
India,Karnataka,Bengaluru,"Kasturi Nagar, Bengaluru - KSPCB",11-05-2024 00:00:00,13.003872,77.664217,PM2.5,7,7,7
India,Karnataka,Bengaluru,"Kasturi Nagar, Bengaluru - KSPCB",11-05-2024 00:00:00,13.003872,77.664217,NO2,16,17,17
India,Karnataka,Bengaluru,"Kasturi Nagar, Bengaluru - KSPCB",11-05-2024 00:00:00,13.003872,77.664217,SO2,10,10,10
India,Karnataka,Bengaluru,"Peenya, Bengaluru - CPCB",11-05-2024 00:00:00,13.0270199,77.494094,SO2,10,15,12
India,Karnataka,Bengaluru,"RVCE-Mailasandra, Bengaluru - KSPCB",11-05-2024 00:00:00,12.921418,77.502466,OZONE,39,39,39
India,Karnataka,Bengaluru,"Sanegurava Halli, Bengaluru - KSPCB",11-05-2024 00:00:00,12.990328,77.5431385,NO2,NA,NA,NA
India,Karnataka,Bengaluru,"Shivapura_Peenya, Bengaluru - KSPCB",11-05-2024 00:00:00,13.0246342,77.5080115,NH3,4,4,4
India,Karnataka,Bengaluru,"Silk Board, Bengaluru - KSPCB",11-05-2024 00:00:00,12.917348,77.622813,PM2.5,24,258,75
India,Karnataka,Bengaluru,"Silk Board, Bengaluru - KSPCB",11-05-2024 00:00:00,12.917348,77.622813,PM10,34,206,90
India,Karnataka,Bidar,"Naubad, Bidar - KSPCB",11-05-2024 00:00:00,17.930306,77.482194,SO2,17,25,20
India,Karnataka,Chamarajanagar,"Urban, Chamarajanagar - KSPCB",11-05-2024 00:00:00,11.55358,76.55521,PM2.5,19,45,29
India,Karnataka,Chamarajanagar,"Urban, Chamarajanagar - KSPCB",11-05-2024 00:00:00,11.55358,76.55521,PM10,35,55,43
India,Karnataka,Chikkaballapur,"Chikkaballapur Rural, Chikkaballapur - KSPCB",11-05-2024 00:00:00,13.428828,77.731418,OZONE,24,25,25
India,Karnataka,Davanagere,"Devaraj Urs Badavane, Davanagere - KSPCB",11-05-2024 00:00:00,14.475800,75.905200,PM10,22,94,54
India,Karnataka,Dharwad,"Kalabhavan, Dharwad - KSPCB",11-05-2024 00:00:00,15.459706,75.008381,SO2,3,7,4
India,Karnataka,Dharwad,"Kalabhavan, Dharwad - KSPCB",11-05-2024 00:00:00,15.459706,75.008381,CO,20,82,60
India,Karnataka,Gadag,"Panchal Nagar, Gadag - KSPCB",11-05-2024 00:00:00,15.411456,75.638133,CO,46,53,49
India,Karnataka,Hassan,"B.Katihalli, Hassan - KSPCB",11-05-2024 00:00:00,13.008556,76.125258,CO,1,2,1
India,Karnataka,Haveri,"Ashwini Nagar, Haveri - KSPCB",11-05-2024 00:00:00,14.791800,75.389600,PM10,NA,NA,NA
India,Karnataka,Hubballi,"Deshpande Nagar, Hubballi - KSPCB",11-05-2024 00:00:00,15.351773,75.140726,PM10,38,77,62
India,Karnataka,Hubballi,"Deshpande Nagar, Hubballi - KSPCB",11-05-2024 00:00:00,15.351773,75.140726,OZONE,NA,NA,NA
India,Karnataka,Hubballi,"Lingaraj Nagar, Hubballi - KSPCB",11-05-2024 00:00:00,15.3714823,75.1160168,PM10,47,102,65
India,Karnataka,Hubballi,"Lingaraj Nagar, Hubballi - KSPCB",11-05-2024 00:00:00,15.3714823,75.1160168,SO2,2,20,4
India,Karnataka,Hubballi,"Lingaraj Nagar, Hubballi - KSPCB",11-05-2024 00:00:00,15.3714823,75.1160168,CO,1,32,18
India,Karnataka,Kalaburagi,"Mahatma Basaveswar Colony, Kalaburgi - KSPCB",11-05-2024 00:00:00,17.336318,76.847397,PM10,32,51,39
India,Karnataka,Kalaburagi,"Mahatma Basaveswar Colony, Kalaburgi - KSPCB",11-05-2024 00:00:00,17.336318,76.847397,NO2,8,20,12
India,Karnataka,Kolar,"Tamaka Ind. Area, Kolar - KSPCB",11-05-2024 00:00:00,13.1276288,78.1570122,PM2.5,NA,NA,NA
India,Karnataka,Kolar,"Tamaka Ind. Area, Kolar - KSPCB",11-05-2024 00:00:00,13.1276288,78.1570122,NH3,20,30,25
