country,state,city,station,last_update,latitude,longitude,pollutant_id,pollutant_min,pollutant_max,pollutant_avg
India,Andhra_Pradesh,Anantapur,"Gulzarpet, Anantapur - APPCB",12-05-2024 23:00:00,14.675886,77.593027,PM2.5,28,38,32
India,Andhra_Pradesh,Chittoor,"Gangineni Cheruvu, Chittoor - APPCB",12-05-2024 23:00:00,13.204880,79.097889,SO2,NA,NA,NA
India,Andhra_Pradesh,Tirupati,"Vaikuntapuram, Tirupati - APPCB",12-05-2024 23:00:00,13.615387,79.409230,PM2.5,NA,NA,NA
India,Andhra_Pradesh,Tirupati,"Vaikuntapuram, Tirupati - APPCB",12-05-2024 23:00:00,13.615387,79.409230,PM10,NA,NA,NA
India,Andhra_Pradesh,Tirupati,"Vaikuntapuram, Tirupati - APPCB",12-05-2024 23:00:00,13.615387,79.409230,NO2,NA,NA,NA
India,Andhra_Pradesh,Vijayawada,"Rajiv Nagar, Vijayawada - APPCB",12-05-2024 23:00:00,16.554731,80.649110,SO2,NA,NA,NA
India,Andhra_Pradesh,Vijayawada,"Rajiv Nagar, Vijayawada - APPCB",12-05-2024 23:00:00,16.554731,80.649110,OZONE,NA,NA,NA
India,Arunachal_Pradesh,Naharlagun,"Naharlagun, Naharlagun - APSPCB",12-05-2024 23:00:00,27.103358,93.679645,OZONE,2,2,2
India,Assam,Guwahati,"IITG, Guwahati - PCBA",12-05-2024 23:00:00,26.2028636,91.70046436,CO,8,14,10
India,Assam,Guwahati,"LGBI Airport, Guwahati - PCBA",12-05-2024 23:00:00,26.10887,91.589544,PM2.5,15,309,73
India,Assam,Guwahati,"LGBI Airport, Guwahati - PCBA",12-05-2024 23:00:00,26.10887,91.589544,NO2,9,68,30
India,Assam,Guwahati,"Pan Bazaar, Guwahati - PCBA",12-05-2024 23:00:00,26.187500,91.744194,CO,18,80,43
India,Assam,Guwahati,"Pan Bazaar, Guwahati - PCBA",12-05-2024 23:00:00,26.187500,91.744194,OZONE,16,17,17
India,Assam,Nagaon,"Christianpatty, Nagaon - PCBA",12-05-2024 23:00:00,26.349082,92.68449,NO2,1,53,13
India,Assam,Nagaon,"Christianpatty, Nagaon - PCBA",12-05-2024 23:00:00,26.349082,92.68449,OZONE,8,101,63
India,Assam,Nalbari,"Bata Chowk, Nalbari - PCBA",12-05-2024 23:00:00,26.446912,91.439057,PM10,47,220,92
India,Assam,Nalbari,"Bata Chowk, Nalbari - PCBA",12-05-2024 23:00:00,26.446912,91.439057,SO2,10,15,12
India,Assam,Nalbari,"Bata Chowk, Nalbari - PCBA",12-05-2024 23:00:00,26.446912,91.439057,CO,70,102,84
India,Bihar,Araria,"Kharahiya Basti, Araria - BSPCB",12-05-2024 23:00:00,26.146529,87.454184,NH3,6,7,6
India,Bihar,Arrah,"New DM Office, Arrah - BSPCB",12-05-2024 23:00:00,25.5626095,84.663264,NH3,NA,NA,NA
India,Bihar,Aurangabad,"Gurdeo Nagar, Aurangabad - BSPCB",12-05-2024 23:00:00,24.75746,84.366208,NO2,4,5,5
India,Bihar,Bhagalpur,"DM Office_Kachari Chowk, Bhagalpur - BSPCB",12-05-2024 23:00:00,25.251013,86.989001,NO2,NA,NA,NA
India,Bihar,Bhagalpur,"Mayaganj, Bhagalpur - BSPCB",12-05-2024 23:00:00,25.265194,87.012947,NH3,6,8,7
India,Bihar,Bhagalpur,"Mayaganj, Bhagalpur - BSPCB",12-05-2024 23:00:00,25.265194,87.012947,OZONE,8,37,19
India,Bihar,Bihar Sharif,"D M Colony, Bihar Sharif - BSPCB",12-05-2024 23:00:00,25.204762,85.514960,PM2.5,13,68,37
India,Bihar,Bihar Sharif,"D M Colony, Bihar Sharif - BSPCB",12-05-2024 23:00:00,25.204762,85.514960,NH3,2,2,2
India,Bihar,Buxar,"Charitra Van, Buxar - BSPCB (Formerly known as Central Jail)",12-05-2024 23:00:00,25.567520,83.966379,NH3,3,4,3
India,Bihar,Buxar,"Charitra Van, Buxar - BSPCB (Formerly known as Central Jail)",12-05-2024 23:00:00,25.567520,83.966379,CO,42,80,69
India,Bihar,Chhapra,"Darshan Nagar, Chhapra - BSPCB",12-05-2024 23:00:00,25.7808257,84.7446768,SO2,17,28,21
India,Bihar,Gaya,"Kareemganj, Gaya - BSPCB",12-05-2024 23:00:00,24.792403,84.992416,NO2,30,31,31
India,Bihar,Gaya,"SFTI Kusdihra, Gaya - BSPCB",12-05-2024 23:00:00,24.762518,84.982348,PM10,26,58,40
India,Bihar,Gaya,"SFTI Kusdihra, Gaya - BSPCB",12-05-2024 23:00:00,24.762518,84.982348,NO2,NA,NA,NA
India,Bihar,Gaya,"SFTI Kusdihra, Gaya - BSPCB",12-05-2024 23:00:00,24.762518,84.982348,NH3,4,8,4
India,Bihar,Hajipur,"Industrial Area, Hajipur - BSPCB",12-05-2024 23:00:00,25.697189,85.245900,PM2.5,23,77,47
India,Bihar,Kishanganj,"SDM Office_Khagra, Kishanganj - BSPCB",12-05-2024 23:00:00,26.0881305,87.93840336,CO,32,33,32
India,Bihar,Kishanganj,"SDM Office_Khagra, Kishanganj - BSPCB",12-05-2024 23:00:00,26.0881305,87.93840336,OZONE,49,64,50
India,Bihar,Motihari,"Gandak Colony, Motihari - BSPCB",12-05-2024 23:00:00,26.63086,84.90051,PM2.5,13,123,48
India,Bihar,Motihari,"Gandak Colony, Motihari - BSPCB",12-05-2024 23:00:00,26.63086,84.90051,NO2,27,56,38
India,Bihar,Motihari,"Gandak Colony, Motihari - BSPCB",12-05-2024 23:00:00,26.63086,84.90051,CO,5,48,33
India,Bihar,Muzaffarpur,"MIT-Daudpur Kothi, Muzaffarpur - BSPCB",12-05-2024 23:00:00,26.1403345,85.3650192,PM10,NA,NA,NA
India,Bihar,Muzaffarpur,"MIT-Daudpur Kothi, Muzaffarpur - BSPCB",12-05-2024 23:00:00,26.1403345,85.3650192,NO2,NA,NA,NA
India,Bihar,Muzaffarpur,"MIT-Daudpur Kothi, Muzaffarpur - BSPCB",12-05-2024 23:00:00,26.1403345,85.3650192,NH3,NA,NA,NA
India,Bihar,Muzaffarpur,"MIT-Daudpur Kothi, Muzaffarpur - BSPCB",12-05-2024 23:00:00,26.1403345,85.3650192,SO2,NA,NA,NA
India,Bihar,Patna,"DRM Office Danapur, Patna - BSPCB",12-05-2024 23:00:00,25.586562,85.043586,PM2.5,52,131,85
India,Bihar,Patna,"DRM Office Danapur, Patna - BSPCB",12-05-2024 23:00:00,25.586562,85.043586,PM10,82,109,95
India,Bihar,Patna,"Govt. High School Shikarpur, Patna - BSPCB",12-05-2024 23:00:00,25.592539,85.227158,PM10,70,127,92
India,Bihar,Patna,"IGSC Planetarium Complex, Patna - BSPCB",12-05-2024 23:00:00,25.610369,85.132568,CO,4,22,14
India,Bihar,Patna,"IGSC Planetarium Complex, Patna - BSPCB",12-05-2024 23:00:00,25.610369,85.132568,OZONE,47,84,62
India,Bihar,Patna,"Muradpur, Patna - BSPCB",12-05-2024 23:00:00,25.619651,85.147382,PM10,108,405,202
India,Bihar,Patna,"Muradpur, Patna - BSPCB",12-05-2024 23:00:00,25.619651,85.147382,SO2,5,7,6
India,Bihar,Patna,"Samanpura, Patna - BSPCB",12-05-2024 23:00:00,25.596727,85.085624,PM10,99,165,121
India,Bihar,Patna,"Samanpura, Patna - BSPCB",12-05-2024 23:00:00,25.596727,85.085624,NO2,9,26,15
India,Bihar,Purnia,"Mariam Nagar, Purnia - BSPCB",12-05-2024 23:00:00,25.366336,87.117468,PM2.5,12,67,51
India,Bihar,Purnia,"Mariam Nagar, Purnia - BSPCB",12-05-2024 23:00:00,25.366336,87.117468,NO2,5,6,6
India,Bihar,Purnia,"Mariam Nagar, Purnia - BSPCB",12-05-2024 23:00:00,25.366336,87.117468,OZONE,5,22,12
India,Bihar,Rajgir,"Dangi Tola, Rajgir - BSPCB",12-05-2024 23:00:00,25.03280,85.41948,SO2,2,5,4
India,Bihar,Rajgir,"Dangi Tola, Rajgir - BSPCB",12-05-2024 23:00:00,25.03280,85.41948,CO,28,44,34
India,Bihar,Samastipur,"DM Office_Kasipur, Samastipur - BSPCB",12-05-2024 23:00:00,25.859655,85.77944,NH3,3,4,4
India,Bihar,Samastipur,"DM Office_Kasipur, Samastipur - BSPCB",12-05-2024 23:00:00,25.859655,85.77944,SO2,6,67,15
India,Bihar,Sasaram,"Dada Peer, Sasaram - BSPCB",12-05-2024 23:00:00,24.952822,84.002396,NO2,12,104,56
India,Bihar,Sasaram,"Dada Peer, Sasaram - BSPCB",12-05-2024 23:00:00,24.952822,84.002396,SO2,21,23,23
India,Bihar,Siwan,"Chitragupta Nagar, Siwan - BSPCB",12-05-2024 23:00:00,26.2271665,84.3570427,PM10,NA,NA,NA
India,Bihar,Siwan,"Chitragupta Nagar, Siwan - BSPCB",12-05-2024 23:00:00,26.2271665,84.3570427,NO2,10,17,14
India,Chandigarh,Chandigarh,"Sector 22, Chandigarh - CPCC",12-05-2024 23:00:00,30.735567,76.775714,OZONE,14,170,111
India,Chandigarh,Chandigarh,"Sector-25, Chandigarh - CPCC",12-05-2024 23:00:00,30.751462,76.762879,PM2.5,90,135,108
India,Chandigarh,Chandigarh,"Sector-25, Chandigarh - CPCC",12-05-2024 23:00:00,30.751462,76.762879,PM10,79,160,118
India,Chandigarh,Chandigarh,"Sector-53, Chandigarh - CPCC",12-05-2024 23:00:00,30.719859,76.738637,CO,39,79,48
India,Chhattisgarh,Bhilai,"32Bungalows, Bhilai - CECB",12-05-2024 23:00:00,21.194815,81.314770,OZONE,5,59,18
India,Chhattisgarh,Bhilai,"Civic Center, Bhilai - Bhilai Steel Plant",12-05-2024 23:00:00,21.185571,81.343175,SO2,7,12,10
India,Chhattisgarh,Bhilai,"Hathkhoj, Bhilai - CECB",12-05-2024 23:00:00,21.224231,81.408350,PM10,53,110,88
India,Chhattisgarh,Bhilai,"Hathkhoj, Bhilai - CECB",12-05-2024 23:00:00,21.224231,81.408350,OZONE,22,39,32
India,Chhattisgarh,Bilaspur,"Mangala, Bilaspur - NTPC",12-05-2024 23:00:00,22.08815,82.13737,CO,42,48,46
India,Chhattisgarh,Chhal,"Nawapara SECL Colony, Chhal - CECB",12-05-2024 23:00:00,22.118125,83.140608,PM10,43,82,64
India,Chhattisgarh,Korba,"Rampur, Korba - CECB",12-05-2024 23:00:00,22.368195,82.746431,OZONE,NA,NA,NA
India,Chhattisgarh,Korba,"Urja Nagar, Korba - CECB",12-05-2024 23:00:00,22.348441,82.549611,NO2,65,77,70
India,Chhattisgarh,Kunjemura,"OP Jindal School, Kunjemura - CECB",12-05-2024 23:00:00,22.126650,83.483212,CO,22,72,31
India,Chhattisgarh,Milupara,"Govt. Higher Secondary School, Milupara - CECB",12-05-2024 23:00:00,22.1910172,83.5197009,NH3,NA,NA,NA
India,Chhattisgarh,Milupara,"Govt. Higher Secondary School, Milupara - CECB",12-05-2024 23:00:00,22.1910172,83.5197009,CO,5,28,19
India,Chhattisgarh,Raipur,"AIIMS, Raipur - CECB",12-05-2024 23:00:00,21.258815,81.578979,PM10,NA,NA,NA
India,Chhattisgarh,Raipur,"AIIMS, Raipur - CECB",12-05-2024 23:00:00,21.258815,81.578979,SO2,NA,NA,NA
India,Chhattisgarh,Raipur,"Bhatagaon New ISBT, Raipur - CECB",12-05-2024 23:00:00,21.219665,81.630094,PM10,25,67,48
India,Chhattisgarh,Raipur,"Krishak Nagar, Raipur - CECB",12-05-2024 23:00:00,21.237755,81.705301,SO2,11,40,21
India,Chhattisgarh,Raipur,"Siltara Phase-II, Raipur - CECB",12-05-2024 23:00:00,21.371751,81.664929,PM2.5,31,59,42
India,Chhattisgarh,Raipur,"Siltara Phase-II, Raipur - CECB",12-05-2024 23:00:00,21.371751,81.664929,PM10,41,152,74
India,Chhattisgarh,Raipur,"Siltara Phase-II, Raipur - CECB",12-05-2024 23:00:00,21.371751,81.664929,NO2,24,55,39
India,Delhi,Delhi,"Alipur, Delhi - DPCC",12-05-2024 23:00:00,28.815329,77.153010,PM10,NA,NA,NA
India,Delhi,Delhi,"Anand Vihar, Delhi - DPCC",12-05-2024 23:00:00,28.647622,77.3158090,PM2.5,37,335,217
India,Delhi,Delhi,"Ashok Vihar, Delhi - DPCC",12-05-2024 23:00:00,28.695381,77.181665,CO,48,194,90
India,Delhi,Delhi,"Aya Nagar, Delhi - IMD",12-05-2024 23:00:00,28.4706914,77.1099364,PM10,NA,NA,NA
India,Delhi,Delhi,"Aya Nagar, Delhi - IMD",12-05-2024 23:00:00,28.4706914,77.1099364,CO,46,96,48
India,Delhi,Delhi,"Aya Nagar, Delhi - IMD",12-05-2024 23:00:00,28.4706914,77.1099364,OZONE,2,76,70
India,Delhi,Delhi,"Bawana, Delhi - DPCC",12-05-2024 23:00:00,28.776200,77.051074,SO2,10,72,22
India,Delhi,Delhi,"Burari Crossing, Delhi - IMD",12-05-2024 23:00:00,28.7256504,77.2011573,PM2.5,70,361,196
India,Delhi,Delhi,"Burari Crossing, Delhi - IMD",12-05-2024 23:00:00,28.7256504,77.2011573,PM10,115,290,177
India,Delhi,Delhi,"CRRI Mathura Road, Delhi - IMD",12-05-2024 23:00:00,28.5512005,77.2735737,OZONE,5,131,85
India,Delhi,Delhi,"Chandni Chowk, Delhi - IITM",12-05-2024 23:00:00,28.656756,77.227234,PM10,162,266,196
India,Delhi,Delhi,"Chandni Chowk, Delhi - IITM",12-05-2024 23:00:00,28.656756,77.227234,SO2,NA,NA,NA
India,Delhi,Delhi,"Chandni Chowk, Delhi - IITM",12-05-2024 23:00:00,28.656756,77.227234,CO,32,102,77
India,Delhi,Delhi,"DTU, Delhi - CPCB",12-05-2024 23:00:00,28.7500499,77.1112615,PM2.5,98,365,191
India,Delhi,Delhi,"DTU, Delhi - CPCB",12-05-2024 23:00:00,28.7500499,77.1112615,NO2,7,13,10
India,Delhi,Delhi,"Dr. Karni Singh Shooting Range, Delhi - DPCC",12-05-2024 23:00:00,28.498571,77.264840,PM10,129,199,156
India,Delhi,Delhi,"Dr. Karni Singh Shooting Range, Delhi - DPCC",12-05-2024 23:00:00,28.498571,77.264840,NH3,6,9,8
India,Delhi,Delhi,"Dwarka-Sector 8, Delhi - DPCC ",12-05-2024 23:00:00,28.5710274,77.0719006,NH3,11,15,13
India,Delhi,Delhi,"IHBAS, Dilshad Garden, Delhi - CPCB",12-05-2024 23:00:00,28.6811736,77.3025234,PM10,98,155,124
India,Delhi,Delhi,"IHBAS, Dilshad Garden, Delhi - CPCB",12-05-2024 23:00:00,28.6811736,77.3025234,NO2,29,41,36
India,Delhi,Delhi,"IHBAS, Dilshad Garden, Delhi - CPCB",12-05-2024 23:00:00,28.6811736,77.3025234,CO,9,58,28
India,Delhi,Delhi,"ITO, Delhi - CPCB",12-05-2024 23:00:00,28.628624,77.241060,PM2.5,98,322,172
India,Delhi,Delhi,"Jawaharlal Nehru Stadium, Delhi - DPCC",12-05-2024 23:00:00,28.580280,77.233829,PM2.5,59,161,88
India,Delhi,Delhi,"Jawaharlal Nehru Stadium, Delhi - DPCC",12-05-2024 23:00:00,28.580280,77.233829,SO2,14,35,23
India,Delhi,Delhi,"Lodhi Road, Delhi - IITM",12-05-2024 23:00:00,28.588333,77.221667,PM10,NA,NA,NA
India,Delhi,Delhi,"Lodhi Road, Delhi - IMD",12-05-2024 23:00:00,28.5918245,77.2273074,PM2.5,49,178,111
India,Delhi,Delhi,"Lodhi Road, Delhi - IMD",12-05-2024 23:00:00,28.5918245,77.2273074,PM10,105,167,133
India,Delhi,Delhi,"Major Dhyan Chand National Stadium, Delhi - DPCC",12-05-2024 23:00:00,28.611281,77.237738,OZONE,1,274,108
India,Delhi,Delhi,"Mundka, Delhi - DPCC",12-05-2024 23:00:00,28.684678,77.076574,NH3,6,10,8
India,Delhi,Delhi,"Mundka, Delhi - DPCC",12-05-2024 23:00:00,28.684678,77.076574,SO2,7,33,16
India,Delhi,Delhi,"Mundka, Delhi - DPCC",12-05-2024 23:00:00,28.684678,77.076574,CO,42,103,58
India,Delhi,Delhi,"NSIT Dwarka, Delhi - CPCB",12-05-2024 23:00:00,28.60909,77.0325413,NH3,14,17,15
India,Delhi,Delhi,"NSIT Dwarka, Delhi - CPCB",12-05-2024 23:00:00,28.60909,77.0325413,SO2,12,31,21
India,Delhi,Delhi,"Najafgarh, Delhi - DPCC",12-05-2024 23:00:00,28.570173,76.933762,SO2,14,24,20
India,Delhi,Delhi,"Najafgarh, Delhi - DPCC",12-05-2024 23:00:00,28.570173,76.933762,CO,46,73,54
India,Delhi,Delhi,"Narela, Delhi - DPCC",12-05-2024 23:00:00,28.822836,77.101981,PM10,135,438,224
India,Delhi,Delhi,"Narela, Delhi - DPCC",12-05-2024 23:00:00,28.822836,77.101981,NO2,9,80,33
India,Delhi,Delhi,"Narela, Delhi - DPCC",12-05-2024 23:00:00,28.822836,77.101981,CO,35,136,65
India,Delhi,Delhi,"Nehru Nagar, Delhi - DPCC",12-05-2024 23:00:00,28.567890,77.250515,NH3,2,3,2
India,Delhi,Delhi,"New Moti Bagh, Delhi - MHUA",12-05-2024 23:00:00,28.57834,77.18400,PM2.5,39,351,153
India,Delhi,Delhi,"New Moti Bagh, Delhi - MHUA",12-05-2024 23:00:00,28.57834,77.18400,CO,34,118,64
India,Delhi,Delhi,"Okhla Phase-2, Delhi - DPCC",12-05-2024 23:00:00,28.530785,77.271255,SO2,6,16,12
India,Delhi,Delhi,"Okhla Phase-2, Delhi - DPCC",12-05-2024 23:00:00,28.530785,77.271255,CO,42,114,80
India,Delhi,Delhi,"Patparganj, Delhi - DPCC",12-05-2024 23:00:00,28.623763,77.287209,PM2.5,NA,NA,NA
India,Delhi,Delhi,"Patparganj, Delhi - DPCC",12-05-2024 23:00:00,28.623763,77.287209,PM10,NA,NA,NA
India,Delhi,Delhi,"Patparganj, Delhi - DPCC",12-05-2024 23:00:00,28.623763,77.287209,NH3,NA,NA,NA
India,Delhi,Delhi,"Punjabi Bagh, Delhi - DPCC",12-05-2024 23:00:00,28.674045,77.131023,NO2,29,96,47
India,Delhi,Delhi,"Punjabi Bagh, Delhi - DPCC",12-05-2024 23:00:00,28.674045,77.131023,CO,25,92,56
India,Delhi,Delhi,"R K Puram, Delhi - DPCC",12-05-2024 23:00:00,28.563262,77.186937,OZONE,22,267,111
India,Delhi,Delhi,"Rohini, Delhi - DPCC",12-05-2024 23:00:00,28.732528,77.119920,PM2.5,87,398,170
India,Delhi,Delhi,"Shadipur, Delhi - CPCB",12-05-2024 23:00:00,28.6514781,77.1473105,PM10,119,500,232
India,Delhi,Delhi,"Shadipur, Delhi - CPCB",12-05-2024 23:00:00,28.6514781,77.1473105,NO2,82,195,125
India,Delhi,Delhi,"Shadipur, Delhi - CPCB",12-05-2024 23:00:00,28.6514781,77.1473105,CO,38,89,65
India,Delhi,Delhi,"Sirifort, Delhi - CPCB",12-05-2024 23:00:00,28.5504249,77.2159377,PM2.5,85,313,155
India,Delhi,Delhi,"Sirifort, Delhi - CPCB",12-05-2024 23:00:00,28.5504249,77.2159377,NO2,48,53,52
India,Delhi,Delhi,"Sonia Vihar, Delhi - DPCC",12-05-2024 23:00:00,28.710508,77.249485,NH3,6,10,8
India,Delhi,Delhi,"Sonia Vihar, Delhi - DPCC",12-05-2024 23:00:00,28.710508,77.249485,CO,57,107,73
India,Delhi,Delhi,"Sonia Vihar, Delhi - DPCC",12-05-2024 23:00:00,28.710508,77.249485,OZONE,5,189,133
India,Delhi,Delhi,"Sri Aurobindo Marg, Delhi - DPCC",12-05-2024 23:00:00,28.531346,77.190156,PM2.5,73,180,109
India,Delhi,Delhi,"Sri Aurobindo Marg, Delhi - DPCC",12-05-2024 23:00:00,28.531346,77.190156,NH3,8,10,9
India,Delhi,Delhi,"Vivek Vihar, Delhi - DPCC",12-05-2024 23:00:00,28.672342,77.315260,PM10,151,340,208
India,Delhi,Delhi,"Vivek Vihar, Delhi - DPCC",12-05-2024 23:00:00,28.672342,77.315260,NO2,26,114,63
India,Delhi,Delhi,"Vivek Vihar, Delhi - DPCC",12-05-2024 23:00:00,28.672342,77.315260,CO,19,100,52
India,Delhi,Delhi,"Wazirpur, Delhi - DPCC",12-05-2024 23:00:00,28.699793,77.165453,NH3,1,7,4
India,Delhi,Delhi,"Wazirpur, Delhi - DPCC",12-05-2024 23:00:00,28.699793,77.165453,OZONE,7,268,186
India,Gujarat,Ahmedabad,"Chandkheda, Ahmedabad - IITM",12-05-2024 23:00:00,23.107969,72.574648,OZONE,37,55,54
India,Gujarat,Ahmedabad,"Maninagar, Ahmedabad - GPCB",12-05-2024 23:00:00,23.002657,72.591912,NO2,34,74,43
India,Gujarat,Ahmedabad,"Raikhad, Ahmedabad - IITM",12-05-2024 23:00:00,23.020509,72.579261,NO2,NA,NA,NA
India,Gujarat,Ahmedabad,"Raikhad, Ahmedabad - IITM",12-05-2024 23:00:00,23.020509,72.579261,OZONE,6,119,54
India,Gujarat,Ahmedabad,"SVPI Airport Hansol, Ahmedabad - IITM",12-05-2024 23:00:00,23.076793,72.627874,CO,51,104,62
India,Gujarat,Ahmedabad,"SVPI Airport Hansol, Ahmedabad - IITM",12-05-2024 23:00:00,23.076793,72.627874,OZONE,11,88,54
India,Gujarat,Ahmedabad,"Sardar Vallabhbhai Patel Stadium, Ahmedabad - IITM",12-05-2024 23:00:00,23.043070,72.562968,NH3,6,6,6
India,Gujarat,Gandhinagar,"Sector-10, Gandhinagar - GPCB",12-05-2024 23:00:00,23.221714,72.654328,NO2,20,23,21
India,Gujarat,Gandhinagar,"Sector-10, Gandhinagar - GPCB",12-05-2024 23:00:00,23.221714,72.654328,NH3,1,1,1
India,Gujarat,Gandhinagar,"Sector-10, Gandhinagar - GPCB",12-05-2024 23:00:00,23.221714,72.654328,SO2,5,6,5
India,Gujarat,Gandhinagar,"Sector-10, Gandhinagar - GPCB",12-05-2024 23:00:00,23.221714,72.654328,OZONE,14,79,48
India,Gujarat,Surat,"Science Center, Surat - SMC",12-05-2024 23:00:00,21.170046,72.795405,NO2,25,40,32
India,Gujarat,Surat,"Science Center, Surat - SMC",12-05-2024 23:00:00,21.170046,72.795405,SO2,1,2,1
India,Gujarat,Vatva,"Phase-4 GIDC, Vatva - GPCB",12-05-2024 23:00:00,22.969611,72.643500,PM10,56,124,78
India,Haryana,Bahadurgarh,"Arya Nagar, Bahadurgarh - HSPCB",12-05-2024 23:00:00,28.6701,76.9254,NO2,20,26,23
India,Haryana,Bahadurgarh,"Arya Nagar, Bahadurgarh - HSPCB",12-05-2024 23:00:00,28.6701,76.9254,SO2,21,69,37
India,Haryana,Bahadurgarh,"Arya Nagar, Bahadurgarh - HSPCB",12-05-2024 23:00:00,28.6701,76.9254,OZONE,33,41,38
India,Haryana,Ballabgarh,"Nathu Colony, Ballabgarh - HSPCB",12-05-2024 23:00:00,28.3419248,77.319699,PM10,95,150,128
India,Haryana,Ballabgarh,"Nathu Colony, Ballabgarh - HSPCB",12-05-2024 23:00:00,28.3419248,77.319699,OZONE,13,46,35
India,Haryana,Bhiwani,"H.B. Colony, Bhiwani - HSPCB",12-05-2024 23:00:00,28.806223,76.141105,CO,26,50,34
India,Haryana,Charkhi Dadri,"Mini Secretariat, Charkhi Dadri - HSPCB",12-05-2024 23:00:00,28.593883,76.270653,PM10,43,146,88
India,Haryana,Charkhi Dadri,"Mini Secretariat, Charkhi Dadri - HSPCB",12-05-2024 23:00:00,28.593883,76.270653,NO2,14,23,18
India,Haryana,Dharuhera,"Municipal Corporation Office, Dharuhera -  HSPCB",12-05-2024 23:00:00,28.206800,76.799700,PM10,69,265,119
India,Haryana,Faridabad,"Sector 11, Faridabad - HSPCB",12-05-2024 23:00:00,28.376058,77.315741,CO,31,52,38
India,Haryana,Gurugram,"Sector-51, Gurugram - HSPCB",12-05-2024 23:00:00,28.4227,77.0667,NH3,7,14,9
India,Haryana,Gurugram,"Sector-51, Gurugram - HSPCB",12-05-2024 23:00:00,28.4227,77.0667,SO2,3,4,3
India,Haryana,Gurugram,"Vikas Sadan, Gurugram - HSPCB",12-05-2024 23:00:00,28.4501238,77.0263051,NO2,5,25,14
India,Haryana,Gurugram,"Vikas Sadan, Gurugram - HSPCB",12-05-2024 23:00:00,28.4501238,77.0263051,CO,68,150,118
India,Haryana,Hisar,"Urban Estate-II, Hisar - HSPCB",12-05-2024 23:00:00,29.140560,75.744941,PM2.5,60,149,88
India,Haryana,Hisar,"Urban Estate-II, Hisar - HSPCB",12-05-2024 23:00:00,29.140560,75.744941,PM10,70,115,94
India,Haryana,Hisar,"Urban Estate-II, Hisar - HSPCB",12-05-2024 23:00:00,29.140560,75.744941,NH3,9,11,10
India,Haryana,Hisar,"Urban Estate-II, Hisar - HSPCB",12-05-2024 23:00:00,29.140560,75.744941,OZONE,44,181,142
India,Haryana,Jind,"Police Lines, Jind - HSPCB",12-05-2024 23:00:00,29.307814,76.337619,PM10,76,137,99
India,Haryana,Jind,"Police Lines, Jind - HSPCB",12-05-2024 23:00:00,29.307814,76.337619,NH3,1,5,2
India,Haryana,Karnal,"Sector-12, Karnal - HSPCB",12-05-2024 23:00:00,29.695300,77.002700,PM2.5,81,142,118
India,Haryana,Karnal,"Sector-12, Karnal - HSPCB",12-05-2024 23:00:00,29.695300,77.002700,NH3,10,13,11
India,Haryana,Kurukshetra,"Sector-7, Kurukshetra - HSPCB",12-05-2024 23:00:00,29.966942,76.875879,SO2,2,3,2
India,Haryana,Mandikhera,"General Hospital, Mandikhera - HSPCB",12-05-2024 23:00:00,27.9002,76.9938,NH3,17,20,18
India,Haryana,Manesar,"Sector-2 IMT, Manesar - HSPCB",12-05-2024 23:00:00,28.360699,76.936090,PM2.5,76,194,119
India,Haryana,Manesar,"Sector-2 IMT, Manesar - HSPCB",12-05-2024 23:00:00,28.360699,76.936090,CO,6,28,16
India,Haryana,Palwal,"Shyam Nagar, Palwal - HSPCB",12-05-2024 23:00:00,28.1485564,77.3320667,NH3,8,9,9
India,Haryana,Palwal,"Shyam Nagar, Palwal - HSPCB",12-05-2024 23:00:00,28.1485564,77.3320667,SO2,3,17,10
India,Haryana,Panchkula,"Sector-6, Panchkula - HSPCB ",12-05-2024 23:00:00,30.7057778,76.8531805555555,SO2,2,13,4
India,Haryana,Panchkula,"Sector-6, Panchkula - HSPCB ",12-05-2024 23:00:00,30.7057778,76.8531805555555,OZONE,30,56,45
India,Haryana,Panipat,"Sector-18, Panipat - HSPCB",12-05-2024 23:00:00,29.497973,76.993331,CO,24,26,25
India,Haryana,Sirsa,"F-Block, Sirsa - HSPCB",12-05-2024 23:00:00,29.536400,75.015800,PM10,45,81,63
India,Haryana,Sirsa,"F-Block, Sirsa - HSPCB",12-05-2024 23:00:00,29.536400,75.015800,NO2,9,11,10
India,Haryana,Sirsa,"F-Block, Sirsa - HSPCB",12-05-2024 23:00:00,29.536400,75.015800,OZONE,51,89,80
India,Haryana,Sonipat,"Murthal, Sonipat - HSPCB",12-05-2024 23:00:00,29.027200,77.062100,NH3,7,10,9
India,Himachal Pradesh,Baddi,"HIMUDA Complex Phase-1, Baddi - HPPCB",12-05-2024 23:00:00,30.943887,76.801991,NH3,3,5,4
India,Jammu_and_Kashmir,Srinagar,"Rajbagh, Srinagar - JKSPCB",12-05-2024 23:00:00,34.066206,74.819820,CO,19,26,24
India,Jharkhand,Dhanbad,"Kalakusuma, Dhanbad - DMC",12-05-2024 23:00:00,23.811548,86.481238,PM2.5,NA,NA,NA
India,Jharkhand,Dhanbad,"Kalakusuma, Dhanbad - DMC",12-05-2024 23:00:00,23.811548,86.481238,NO2,13,15,14
India,Jharkhand,Dhanbad,"Kalakusuma, Dhanbad - DMC",12-05-2024 23:00:00,23.811548,86.481238,CO,129,133,132
India,Jharkhand,Dhanbad,"Sardar Patel Nagar, Dhanbad - JSPCB",12-05-2024 23:00:00,23.80569,86.44268,OZONE,27,82,65
India,Karnataka,Bagalkot,"Vidayagiri, Bagalkot - KSPCB",12-05-2024 23:00:00,16.172806,75.659694,NO2,9,10,9
India,Karnataka,Belgaum,"Ramteerth Nagar, Belgaum - KSPCB",12-05-2024 23:00:00,15.888653,74.541751,PM10,25,46,36
India,Karnataka,Belgaum,"Ramteerth Nagar, Belgaum - KSPCB",12-05-2024 23:00:00,15.888653,74.541751,NO2,2,90,23
India,Karnataka,Bengaluru,"Bapuji Nagar, Bengaluru - KSPCB",12-05-2024 23:00:00,12.951913,77.539784,PM10,45,119,68
India,Karnataka,Bengaluru,"Bapuji Nagar, Bengaluru - KSPCB",12-05-2024 23:00:00,12.951913,77.539784,SO2,4,8,6
India,Karnataka,Bengaluru,"Bapuji Nagar, Bengaluru - KSPCB",12-05-2024 23:00:00,12.951913,77.539784,OZONE,23,30,27
India,Karnataka,Bengaluru,"Hebbal, Bengaluru - KSPCB",12-05-2024 23:00:00,13.029152,77.585901,PM2.5,38,80,58
India,Karnataka,Bengaluru,"Hebbal, Bengaluru - KSPCB",12-05-2024 23:00:00,13.029152,77.585901,NH3,1,1,1
India,Karnataka,Bengaluru,"Hombegowda Nagar, Bengaluru - KSPCB",12-05-2024 23:00:00,12.938539,77.590100,NH3,2,2,2
India,Karnataka,Bengaluru,"Jayanagar 5th Block, Bengaluru - KSPCB",12-05-2024 23:00:00,12.920984,77.584908,CO,20,22,21
India,Karnataka,Bengaluru,"Kasturi Nagar, Bengaluru - KSPCB",12-05-2024 23:00:00,13.003872,77.664217,PM10,10,10,10
India,Karnataka,Bengaluru,"Kasturi Nagar, Bengaluru - KSPCB",12-05-2024 23:00:00,13.003872,77.664217,SO2,10,10,10
India,Karnataka,Bengaluru,"Sanegurava Halli, Bengaluru - KSPCB",12-05-2024 23:00:00,12.990328,77.5431385,PM10,NA,NA,NA
India,Karnataka,Bengaluru,"Sanegurava Halli, Bengaluru - KSPCB",12-05-2024 23:00:00,12.990328,77.5431385,NO2,NA,NA,NA
India,Karnataka,Bidar,"Naubad, Bidar - KSPCB",12-05-2024 23:00:00,17.930306,77.482194,PM2.5,31,70,49
India,Karnataka,Bidar,"Naubad, Bidar - KSPCB",12-05-2024 23:00:00,17.930306,77.482194,SO2,13,21,18
India,Karnataka,Chamarajanagar,"Urban, Chamarajanagar - KSPCB",12-05-2024 23:00:00,11.55358,76.55521,CO,19,120,24
India,Karnataka,Chamarajanagar,"Urban, Chamarajanagar - KSPCB",12-05-2024 23:00:00,11.55358,76.55521,OZONE,15,36,27
India,Karnataka,Chikkaballapur,"Chikkaballapur Rural, Chikkaballapur - KSPCB",12-05-2024 23:00:00,13.428828,77.731418,PM10,38,67,48
India,Karnataka,Chikkaballapur,"Chikkaballapur Rural, Chikkaballapur - KSPCB",12-05-2024 23:00:00,13.428828,77.731418,NO2,7,16,10
India,Karnataka,Chikkamagaluru,"Kalyana Nagara, Chikkamagaluru - KSPCB",12-05-2024 23:00:00,13.328028,75.797056,PM2.5,NA,NA,NA
India,Karnataka,Chikkamagaluru,"Kalyana Nagara, Chikkamagaluru - KSPCB",12-05-2024 23:00:00,13.328028,75.797056,SO2,NA,NA,NA
India,Karnataka,Davanagere,"Devaraj Urs Badavane, Davanagere - KSPCB",12-05-2024 23:00:00,14.475800,75.905200,PM2.5,19,53,36
India,Karnataka,Davanagere,"Devaraj Urs Badavane, Davanagere - KSPCB",12-05-2024 23:00:00,14.475800,75.905200,SO2,2,9,6
India,Karnataka,Davanagere,"Devaraj Urs Badavane, Davanagere - KSPCB",12-05-2024 23:00:00,14.475800,75.905200,CO,12,24,20
India,Karnataka,Dharwad,"Kalabhavan, Dharwad - KSPCB",12-05-2024 23:00:00,15.459706,75.008381,NH3,NA,NA,NA
India,Karnataka,Dharwad,"Kalabhavan, Dharwad - KSPCB",12-05-2024 23:00:00,15.459706,75.008381,CO,26,66,48
India,Karnataka,Dharwad,"Kalabhavan, Dharwad - KSPCB",12-05-2024 23:00:00,15.459706,75.008381,OZONE,2,35,8
India,Karnataka,Gadag,"Panchal Nagar, Gadag - KSPCB",12-05-2024 23:00:00,15.411456,75.638133,NO2,7,30,14
India,Karnataka,Haveri,"Ashwini Nagar, Haveri - KSPCB",12-05-2024 23:00:00,14.791800,75.389600,NH3,3,4,3
India,Karnataka,Hubballi,"Lingaraj Nagar, Hubballi - KSPCB",12-05-2024 23:00:00,15.3714823,75.1160168,PM10,NA,NA,NA
India,Karnataka,Kalaburagi,"Lal Bahadur Shastri Nagar, Kalaburagi - KSPCB",12-05-2024 23:00:00,17.321993,76.822628,NO2,NA,NA,NA
India,Karnataka,Kalaburagi,"Mahatma Basaveswar Colony, Kalaburgi - KSPCB",12-05-2024 23:00:00,17.336318,76.847397,PM2.5,29,42,36
India,Karnataka,Karwar,"KHB Colony, Karwar - KSPCB",12-05-2024 23:00:00,14.816666,74.141003,PM2.5,35,35,35
India,Karnataka,Kolar,"Tamaka Ind. Area, Kolar - KSPCB",12-05-2024 23:00:00,13.1276288,78.1570122,NH3,NA,NA,NA
India,Karnataka,Kolar,"Tamaka Ind. Area, Kolar - KSPCB",12-05-2024 23:00:00,13.1276288,78.1570122,OZONE,18,65,34
India,Karnataka,Koppal,"Diwator Nagar, Koppal - KSPCB",12-05-2024 23:00:00,15.347630,76.181767,PM2.5,7,37,20
India,Karnataka,Koppal,"Diwator Nagar, Koppal - KSPCB",12-05-2024 23:00:00,15.347630,76.181767,SO2,27,28,28
India,Karnataka,Koppal,"Diwator Nagar, Koppal - KSPCB",12-05-2024 23:00:00,15.347630,76.181767,CO,54,55,54
India,Karnataka,Madikeri,"Stuart Hill, Madikeri - KSPCB",12-05-2024 23:00:00,12.415911,75.735050,PM2.5,14,42,30
India,Karnataka,Madikeri,"Stuart Hill, Madikeri - KSPCB",12-05-2024 23:00:00,12.415911,75.735050,NH3,1,2,1
India,Karnataka,Raichur,"Haji Colony, Raichur - KSPCB",12-05-2024 23:00:00,16.208139,77.348417,OZONE,2,15,6
India,Karnataka,Ramanagara,"Vijay Nagar, Ramanagara - KSPCB",12-05-2024 23:00:00,12.733409,77.298051,SO2,2,64,27
India,Karnataka,Shivamogga,"Vinoba Nagara, Shivamogga - KSPCB",12-05-2024 23:00:00,13.940000,75.555917,PM10,38,75,49
India,Karnataka,Yadgir,"Collector Office, Yadgir - KSPCB",12-05-2024 23:00:00,16.7602,77.1428,PM10,36,68,46
India,Karnataka,Yadgir,"Collector Office, Yadgir - KSPCB",12-05-2024 23:00:00,16.7602,77.1428,SO2,2,58,26
India,Kerala,Eloor,"Udyogamandal, Eloor - Kerala PCB",12-05-2024 23:00:00,10.073232,76.302765,PM10,31,46,37
India,Kerala,Eloor,"Udyogamandal, Eloor - Kerala PCB",12-05-2024 23:00:00,10.073232,76.302765,NO2,4,4,4
India,Kerala,Eloor,"Udyogamandal, Eloor - Kerala PCB",12-05-2024 23:00:00,10.073232,76.302765,CO,11,101,47
India,Kerala,Kannur,"Thavakkara, Kannur - Kerala PCB",12-05-2024 23:00:00,11.875000,75.373200,SO2,1,2,1
India,Kerala,Kannur,"Thavakkara, Kannur - Kerala PCB",12-05-2024 23:00:00,11.875000,75.373200,CO,30,36,33
India,Kerala,Kannur,"Thavakkara, Kannur - Kerala PCB",12-05-2024 23:00:00,11.875000,75.373200,OZONE,31,36,32
India,Kerala,Thrissur,"Corporation Ground, Thrissur - Kerala PCB",12-05-2024 23:00:00,10.532400,76.215900,NO2,7,8,7
India,Kerala,Thrissur,"Corporation Ground, Thrissur - Kerala PCB",12-05-2024 23:00:00,10.532400,76.215900,NH3,NA,NA,NA
India,Kerala,Thrissur,"Corporation Ground, Thrissur - Kerala PCB",12-05-2024 23:00:00,10.532400,76.215900,SO2,NA,NA,NA
India,Madhya Pradesh,Bhopal,"T T Nagar, Bhopal - MPPCB",12-05-2024 23:00:00,23.233584,77.400574,PM10,65,133,100
India,Madhya Pradesh,Bhopal,"T T Nagar, Bhopal - MPPCB",12-05-2024 23:00:00,23.233584,77.400574,CO,16,78,44
India,Madhya Pradesh,Dewas,"Bhopal Chauraha, Dewas - MPPCB",12-05-2024 23:00:00,22.9682591,76.064118,PM10,23,94,42
India,Madhya Pradesh,Gwalior,"City Center, Gwalior - MPPCB",12-05-2024 23:00:00,26.203442,78.193251,PM2.5,35,113,62
India,Madhya Pradesh,Gwalior,"City Center, Gwalior - MPPCB",12-05-2024 23:00:00,26.203442,78.193251,NH3,1,5,3
India,Madhya Pradesh,Gwalior,"Deen Dayal Nagar, Gwalior - MPPCB",12-05-2024 23:00:00,26.259242,78.216432,OZONE,NA,NA,NA
India,Madhya Pradesh,Gwalior,"Phool Bagh, Gwalior - Mondelez Ind. Food",12-05-2024 23:00:00,26.210536,78.171,PM2.5,25,310,176
India,Madhya Pradesh,Indore,"Chhoti Gwaltoli, Indore - MPPCB",12-05-2024 23:00:00,22.4310,75.5213,PM2.5,18,107,51
India,Madhya Pradesh,Indore,"Regional Park, Indore - IMC",12-05-2024 23:00:00,22.6780,75.8559,PM10,6,500,54
India,Madhya Pradesh,Indore,"Residency Area, Indore - IMC",12-05-2024 23:00:00,22.7084,75.8815,PM10,32,91,48
India,Madhya Pradesh,Jabalpur,"Govindh Bhavan Colony, Jabalpur - JMC",12-05-2024 23:00:00,23.163174,79.973061,PM2.5,32,87,58
India,Madhya Pradesh,Jabalpur,"Govindh Bhavan Colony, Jabalpur - JMC",12-05-2024 23:00:00,23.163174,79.973061,SO2,21,41,25
India,Madhya Pradesh,Jabalpur,"Govindh Bhavan Colony, Jabalpur - JMC",12-05-2024 23:00:00,23.163174,79.973061,OZONE,40,302,96
India,Madhya Pradesh,Jabalpur,"Marhatal, Jabalpur - MPPCB",12-05-2024 23:00:00,23.168606,79.932247,SO2,6,39,15
India,Madhya Pradesh,Jabalpur,"Marhatal, Jabalpur - MPPCB",12-05-2024 23:00:00,23.168606,79.932247,OZONE,28,117,97
India,Madhya Pradesh,Jabalpur,"Suhagi, Jabalpur - JMC",12-05-2024 23:00:00,23.218135,79.957770,NH3,3,4,4
India,Madhya Pradesh,Mandideep,"Sector-D Industrial Area, Mandideep - MPPCB",12-05-2024 23:00:00,23.108440,77.511428,NH3,5,12,7
India,Madhya Pradesh,Mandideep,"Sector-D Industrial Area, Mandideep - MPPCB",12-05-2024 23:00:00,23.108440,77.511428,SO2,5,116,31
India,Madhya Pradesh,Mandideep,"Sector-D Industrial Area, Mandideep - MPPCB",12-05-2024 23:00:00,23.108440,77.511428,CO,17,117,27
India,Madhya Pradesh,Pithampur,"Sector-2 Industrial Area, Pithampur - MPPCB",12-05-2024 23:00:00,22.624758,75.675238,SO2,8,15,11
India,Madhya Pradesh,Pithampur,"Sector-2 Industrial Area, Pithampur - MPPCB",12-05-2024 23:00:00,22.624758,75.675238,OZONE,30,93,67
India,Madhya Pradesh,Ratlam,"Shasthri Nagar, Ratlam - IPCA Lab",12-05-2024 23:00:00,23.331731,75.045981,NO2,35,36,36
India,Madhya Pradesh,Ratlam,"Shasthri Nagar, Ratlam - IPCA Lab",12-05-2024 23:00:00,23.331731,75.045981,SO2,28,101,34
India,Madhya Pradesh,Sagar,"Civil Lines, Sagar - MPPCB",12-05-2024 23:00:00,23.838586,78.759431,SO2,3,24,9
India,Madhya Pradesh,Sagar,"Civil Lines, Sagar - MPPCB",12-05-2024 23:00:00,23.838586,78.759431,OZONE,65,175,128
India,Madhya Pradesh,Sagar,"Deen Dayal Nagar, Sagar - MPPCB",12-05-2024 23:00:00,23.8640158,78.80289321,PM2.5,22,61,39
India,Madhya Pradesh,Sagar,"Deen Dayal Nagar, Sagar - MPPCB",12-05-2024 23:00:00,23.8640158,78.80289321,PM10,41,177,132
India,Madhya Pradesh,Singrauli,"Suryakiran Bhawan NCL, Singrauli - MPPCB",12-05-2024 23:00:00,24.108970,82.645580,PM10,60,188,112
India,Madhya Pradesh,Singrauli,"Suryakiran Bhawan NCL, Singrauli - MPPCB",12-05-2024 23:00:00,24.108970,82.645580,CO,52,93,69
India,Madhya Pradesh,Singrauli,"Suryakiran Bhawan NCL, Singrauli - MPPCB",12-05-2024 23:00:00,24.108970,82.645580,OZONE,11,89,36
India,Maharashtra,Akola,"Ramdaspeth, Akola - MPCB",12-05-2024 23:00:00,20.719516,77.000253,NO2,9,39,15
India,Maharashtra,Akola,"Ramdaspeth, Akola - MPCB",12-05-2024 23:00:00,20.719516,77.000253,NH3,4,8,6
India,Maharashtra,Akola,"Ramdaspeth, Akola - MPCB",12-05-2024 23:00:00,20.719516,77.000253,CO,23,54,30
India,Maharashtra,Amravati,"Shivneri Colony, Amravati - MPCB",12-05-2024 23:00:00,20.9402359,77.7895248,PM2.5,47,92,67
India,Maharashtra,Amravati,"Shivneri Colony, Amravati - MPCB",12-05-2024 23:00:00,20.9402359,77.7895248,PM10,54,128,100
India,Maharashtra,Amravati,"Shivneri Colony, Amravati - MPCB",12-05-2024 23:00:00,20.9402359,77.7895248,OZONE,2,89,58
India,Maharashtra,Aurangabad,"MIDC Chilkalthana, Aurangabad - MPCB",12-05-2024 23:00:00,19.875620,75.387310,PM2.5,NA,NA,NA
India,Maharashtra,Aurangabad,"MIDC Chilkalthana, Aurangabad - MPCB",12-05-2024 23:00:00,19.875620,75.387310,PM10,NA,NA,NA
India,Maharashtra,Aurangabad,"MIDC Chilkalthana, Aurangabad - MPCB",12-05-2024 23:00:00,19.875620,75.387310,NH3,NA,NA,NA
India,Maharashtra,Aurangabad,"Rachnakar Colony, Aurangabad - MPCB",12-05-2024 23:00:00,19.863756,75.321188,PM2.5,57,242,135
India,Maharashtra,Aurangabad,"Rachnakar Colony, Aurangabad - MPCB",12-05-2024 23:00:00,19.863756,75.321188,NO2,8,90,29
India,Maharashtra,Aurangabad,"Rachnakar Colony, Aurangabad - MPCB",12-05-2024 23:00:00,19.863756,75.321188,SO2,1,12,2
India,Maharashtra,Aurangabad,"Rachnakar Colony, Aurangabad - MPCB",12-05-2024 23:00:00,19.863756,75.321188,OZONE,21,94,61
India,Maharashtra,Badlapur,"Katrap, Badlapur - MPCB",12-05-2024 23:00:00,19.16485,73.23409,PM2.5,NA,NA,NA
India,Maharashtra,Badlapur,"Katrap, Badlapur - MPCB",12-05-2024 23:00:00,19.16485,73.23409,SO2,NA,NA,NA
India,Maharashtra,Badlapur,"Katrap, Badlapur - MPCB",12-05-2024 23:00:00,19.16485,73.23409,OZONE,NA,NA,NA
India,Maharashtra,Chandrapur,"Chauhan Colony, Chandrapur - MPCB",12-05-2024 23:00:00,19.962900,79.298714,NH3,1,5,2
India,Maharashtra,Dhule,"Deopur, Dhule - MPCB",12-05-2024 23:00:00,20.918946,74.776388,PM10,92,136,112
India,Maharashtra,Dhule,"Deopur, Dhule - MPCB",12-05-2024 23:00:00,20.918946,74.776388,SO2,4,8,5
India,Maharashtra,Dhule,"Deopur, Dhule - MPCB",12-05-2024 23:00:00,20.918946,74.776388,CO,24,53,32
India,Maharashtra,Jalgaon,"Prabhat Colony, Jalgaon - MPCB",12-05-2024 23:00:00,21.001264,75.565602,PM2.5,NA,NA,NA
India,Maharashtra,Jalgaon,"Prabhat Colony, Jalgaon - MPCB",12-05-2024 23:00:00,21.001264,75.565602,CO,13,30,26
India,Maharashtra,Jalna,"Old MIDC, Jalna - MPCB",12-05-2024 23:00:00,19.854616,75.905894,PM10,41,68,55
India,Maharashtra,Jalna,"Old MIDC, Jalna - MPCB",12-05-2024 23:00:00,19.854616,75.905894,CO,22,27,24
India,Maharashtra,Kalyan,"Khadakpada, Kalyan - MPCB",12-05-2024 23:00:00,19.25292,73.142019,PM2.5,16,37,27
India,Maharashtra,Latur,"Sawe Wadi, Latur - MPCB",12-05-2024 23:00:00,18.39963,76.57452,PM2.5,25,70,45
India,Maharashtra,Mahad,"Kamble Tarf Birwadi, Mahad - MPCB",12-05-2024 23:00:00,18.1023399,73.4783687,CO,33,71,54
India,Maharashtra,Malegaon,"Mahesh Nagar, Malegaon - MPCB",12-05-2024 23:00:00,20.555712,74.529236,NH3,2,8,4
India,Maharashtra,Malegaon,"Mahesh Nagar, Malegaon - MPCB",12-05-2024 23:00:00,20.555712,74.529236,OZONE,12,117,54
India,Maharashtra,Mira-Bhayandar,"Bhayandar West, Mira-Bhayandar - MPCB",12-05-2024 23:00:00,19.296481,72.840923,PM10,19,219,114
India,Maharashtra,Mira-Bhayandar,"Bhayandar West, Mira-Bhayandar - MPCB",12-05-2024 23:00:00,19.296481,72.840923,SO2,2,3,3
India,Maharashtra,Mumbai,"Borivali East, Mumbai - IITM",12-05-2024 23:00:00,19.23241,72.86895,OZONE,46,111,66
India,Maharashtra,Mumbai,"Borivali East, Mumbai - MPCB",12-05-2024 23:00:00,19.2243333,72.8658113,NO2,5,14,9
India,Maharashtra,Mumbai,"Borivali East, Mumbai - MPCB",12-05-2024 23:00:00,19.2243333,72.8658113,NH3,1,2,1
India,Maharashtra,Mumbai,"Byculla, Mumbai - BMC",12-05-2024 23:00:00,18.9767,72.8380,PM2.5,7,18,11
India,Maharashtra,Mumbai,"Byculla, Mumbai - BMC",12-05-2024 23:00:00,18.9767,72.8380,NH3,2,2,2
India,Maharashtra,Mumbai,"Byculla, Mumbai - BMC",12-05-2024 23:00:00,18.9767,72.8380,SO2,1,2,1
India,Maharashtra,Mumbai,"Chakala-Andheri East, Mumbai - IITM",12-05-2024 23:00:00,19.11074,72.86084,CO,15,30,22
India,Maharashtra,Mumbai,"Chhatrapati Shivaji Intl. Airport (T2), Mumbai - MPCB",12-05-2024 23:00:00,19.10078,72.87462,NH3,1,11,4
India,Maharashtra,Mumbai,"Chhatrapati Shivaji Intl. Airport (T2), Mumbai - MPCB",12-05-2024 23:00:00,19.10078,72.87462,CO,28,54,43
India,Maharashtra,Mumbai,"Colaba, Mumbai - MPCB",12-05-2024 23:00:00,18.910000,72.820000,PM2.5,25,56,31
India,Maharashtra,Mumbai,"Kandivali West, Mumbai - BMC",12-05-2024 23:00:00,19.215859,72.831718,NO2,3,32,9
India,Maharashtra,Mumbai,"Kherwadi_Bandra East, Mumbai - MPCB",12-05-2024 23:00:00,19.0632143,72.8456324,PM2.5,16,63,32
India,Maharashtra,Mumbai,"Khindipada-Bhandup West, Mumbai - IITM",12-05-2024 23:00:00,19.1653323,72.922099,PM10,18,75,51
India,Maharashtra,Mumbai,"Khindipada-Bhandup West, Mumbai - IITM",12-05-2024 23:00:00,19.1653323,72.922099,CO,2,25,9
India,Maharashtra,Mumbai,"Kurla, Mumbai - MPCB",12-05-2024 23:00:00,19.0863,72.8888,NH3,1,2,1
India,Maharashtra,Mumbai,"Kurla, Mumbai - MPCB",12-05-2024 23:00:00,19.0863,72.8888,OZONE,28,33,29
India,Maharashtra,Mumbai,"Powai, Mumbai - MPCB",12-05-2024 23:00:00,19.137500,72.915056,SO2,39,57,46
India,Maharashtra,Mumbai,"Sewri, Mumbai - BMC",12-05-2024 23:00:00,19.000084,72.856730,PM2.5,1,7,4
India,Maharashtra,Mumbai,"Sewri, Mumbai - BMC",12-05-2024 23:00:00,19.000084,72.856730,NO2,15,30,23
India,Maharashtra,Mumbai,"Siddharth Nagar-Worli, Mumbai - IITM",12-05-2024 23:00:00,19.000083,72.813993,PM10,NA,NA,NA
India,Maharashtra,Mumbai,"Sion, Mumbai - MPCB",12-05-2024 23:00:00,19.047000,72.874600,PM2.5,24,50,37
India,Maharashtra,Mumbai,"Vasai West, Mumbai - MPCB",12-05-2024 23:00:00,19.383200,72.820400,PM2.5,21,54,35
India,Maharashtra,Mumbai,"Vasai West, Mumbai - MPCB",12-05-2024 23:00:00,19.383200,72.820400,NO2,26,28,27
India,Maharashtra,Mumbai,"Vasai West, Mumbai - MPCB",12-05-2024 23:00:00,19.383200,72.820400,SO2,16,16,16
India,Maharashtra,Mumbai,"Vasai West, Mumbai - MPCB",12-05-2024 23:00:00,19.383200,72.820400,CO,50,66,56
India,Maharashtra,Mumbai,"Vile Parle West, Mumbai - MPCB",12-05-2024 23:00:00,19.10861,72.83622,PM2.5,10,35,26
India,Maharashtra,Mumbai,"Vile Parle West, Mumbai - MPCB",12-05-2024 23:00:00,19.10861,72.83622,OZONE,3,3,3
India,Maharashtra,Nagpur,"Ambazari, Nagpur - MPCB",12-05-2024 23:00:00,21.121801,79.04952,PM10,76,144,111
India,Maharashtra,Nagpur,"Ambazari, Nagpur - MPCB",12-05-2024 23:00:00,21.121801,79.04952,CO,4,103,30
India,Maharashtra,Nagpur,"Mahal, Nagpur - MPCB",12-05-2024 23:00:00,21.14472,79.107595,NH3,3,17,8
India,Maharashtra,Nagpur,"Opp GPO Civil Lines, Nagpur - MPCB",12-05-2024 23:00:00,21.152875,79.0517531,NO2,18,116,43
India,Maharashtra,Nagpur,"Opp GPO Civil Lines, Nagpur - MPCB",12-05-2024 23:00:00,21.152875,79.0517531,CO,18,118,26
India,Maharashtra,Nanded,"Sneh Nagar, Nanded - MPCB",12-05-2024 23:00:00,19.173852,77.296291,PM10,8,115,68
India,Maharashtra,Nashik,"Gangapur Road, Nashik - MPCB",12-05-2024 23:00:00,20.0073285,73.7762427,SO2,3,51,10
India,Maharashtra,Nashik,"Gangapur Road, Nashik - MPCB",12-05-2024 23:00:00,20.0073285,73.7762427,OZONE,1,119,55
India,Maharashtra,Nashik,"MIDC Ambad, Nashik - MPCB",12-05-2024 23:00:00,19.950220,73.731480,PM2.5,36,154,69
India,Maharashtra,Nashik,"MIDC Ambad, Nashik - MPCB",12-05-2024 23:00:00,19.950220,73.731480,NO2,10,91,25
India,Maharashtra,Nashik,"MIDC Ambad, Nashik - MPCB",12-05-2024 23:00:00,19.950220,73.731480,NH3,5,9,6
India,Maharashtra,Navi Mumbai,"Kopripada-Vashi, Navi Mumbai - MPCB",12-05-2024 23:00:00,19.090337,73.014232,CO,8,23,14
India,Maharashtra,Navi Mumbai,"Mahape, Navi Mumbai - MPCB",12-05-2024 23:00:00,19.1135051,73.008978,OZONE,41,58,54
India,Maharashtra,Navi Mumbai,"Nerul, Navi Mumbai - MPCB",12-05-2024 23:00:00,19.008751,73.016620,SO2,18,18,18
India,Maharashtra,Navi Mumbai,"Sanpada, Navi Mumbai - MPCB",12-05-2024 23:00:00,19.0575752,73.0151367,CO,2,13,5
India,Maharashtra,Navi Mumbai,"Sanpada, Navi Mumbai - MPCB",12-05-2024 23:00:00,19.0575752,73.0151367,OZONE,1,69,19
India,Maharashtra,Navi Mumbai,"Sector-19A Nerul, Navi Mumbai - IITM",12-05-2024 23:00:00,19.044,73.0325,OZONE,1,91,26
India,Maharashtra,Navi Mumbai,"Tondare-Taloja, Navi Mumbai - MPCB",12-05-2024 23:00:00,19.0630,73.1209,PM10,58,149,89
India,Maharashtra,Navi Mumbai,"Tondare-Taloja, Navi Mumbai - MPCB",12-05-2024 23:00:00,19.0630,73.1209,NO2,15,47,26
India,Maharashtra,Navi Mumbai,"Tondare-Taloja, Navi Mumbai - MPCB",12-05-2024 23:00:00,19.0630,73.1209,SO2,2,60,17
India,Maharashtra,Parbhani,"Masoom Colony, Parbhani - MPCB",12-05-2024 23:00:00,19.265594,76.761463,NO2,15,32,22
India,Maharashtra,Parbhani,"Masoom Colony, Parbhani - MPCB",12-05-2024 23:00:00,19.265594,76.761463,NH3,4,10,6
India,Maharashtra,Pimpri-Chinchwad,"Gavalinagar, Pimpri Chinchwad - MPCB",12-05-2024 23:00:00,18.63673,73.82487,PM2.5,31,82,53
India,Maharashtra,Pimpri-Chinchwad,"Gavalinagar, Pimpri Chinchwad - MPCB",12-05-2024 23:00:00,18.63673,73.82487,NO2,NA,NA,NA
India,Maharashtra,Pimpri-Chinchwad,"Gavalinagar, Pimpri Chinchwad - MPCB",12-05-2024 23:00:00,18.63673,73.82487,SO2,1,5,2
India,Maharashtra,Pimpri-Chinchwad,"Park Street Wakad, Pimpri Chinchwad - MPCB",12-05-2024 23:00:00,18.59051,73.77946,CO,46,106,79
India,Maharashtra,Pimpri-Chinchwad,"Thergaon, Pimpri Chinchwad - MPCB",12-05-2024 23:00:00,18.616318,73.765797,PM10,33,71,45
India,Maharashtra,Pimpri-Chinchwad,"Thergaon, Pimpri Chinchwad - MPCB",12-05-2024 23:00:00,18.616318,73.765797,NH3,3,17,6
India,Maharashtra,Pune,"Alandi, Pune - IITM",12-05-2024 23:00:00,18.675076,73.892743,NO2,12,102,42
India,Maharashtra,Pune,"Alandi, Pune - IITM",12-05-2024 23:00:00,18.675076,73.892743,OZONE,4,147,81
India,Maharashtra,Pune,"Karve Road, Pune - MPCB",12-05-2024 23:00:00,18.5011743,73.8165527,PM2.5,2,180,46
India,Maharashtra,Pune,"Karve Road, Pune - MPCB",12-05-2024 23:00:00,18.5011743,73.8165527,PM10,3,196,71
India,Maharashtra,Pune,"Karve Road, Pune - MPCB",12-05-2024 23:00:00,18.5011743,73.8165527,NO2,1,25,8
India,Maharashtra,Pune,"Mhada Colony, Pune - IITM",12-05-2024 23:00:00,18.573040,73.927715,CO,53,156,156
India,Maharashtra,Pune,"Transport Nagar-Nigdi, Pune - IITM",12-05-2024 23:00:00,18.664282,73.763966,CO,34,107,72
India,Maharashtra,Solapur,"Dnyaneshwar Nagar, Solapur - MPCB",12-05-2024 23:00:00,17.6336264,75.9132495,SO2,NA,NA,NA
India,Maharashtra,Solapur,"Ratandeep Housing Society, Solapur - MPCB",12-05-2024 23:00:00,17.65439,75.90649,PM10,29,62,44
India,Maharashtra,Solapur,"Solapur, Solapur - MPCB",12-05-2024 23:00:00,17.6599188,75.9063906,PM10,77,130,104
India,Maharashtra,Solapur,"Solapur, Solapur - MPCB",12-05-2024 23:00:00,17.6599188,75.9063906,NO2,54,55,54
India,Maharashtra,Thane,"Pimpleshwar Mandir, Thane - MPCB",12-05-2024 23:00:00,19.192056,72.9585188,SO2,1,6,3
India,Maharashtra,Thane,"Upvan Fort, Thane - MPCB",12-05-2024 23:00:00,19.222279,72.957979,PM2.5,NA,NA,NA
India,Maharashtra,Thane,"Upvan Fort, Thane - MPCB",12-05-2024 23:00:00,19.222279,72.957979,NO2,NA,NA,NA
India,Maharashtra,Ulhasnagar,"Sidhi Vinayak Nagar, Ulhasnagar - MPCB",12-05-2024 23:00:00,19.235581,73.159121,NH3,1,3,2
India,Maharashtra,Ulhasnagar,"Sidhi Vinayak Nagar, Ulhasnagar - MPCB",12-05-2024 23:00:00,19.235581,73.159121,OZONE,1,165,52
India,Maharashtra,Virar,"Bolinj, Virar - MPCB",12-05-2024 23:00:00,19.4458210,72.7988231,NH3,9,9,9
India,Maharashtra,Virar,"Bolinj, Virar - MPCB",12-05-2024 23:00:00,19.4458210,72.7988231,OZONE,17,62,38
India,Manipur,Imphal,"Manipur University, Imphal - Manipur PCB",12-05-2024 23:00:00,24.7524239,93.9286218,NO2,7,15,9
India,Mizoram,Aizawl,"Sikulpuikawn, Aizawl - Mizoram PCB",12-05-2024 23:00:00,23.7176342,92.7192841,NH3,NA,NA,NA
India,Odisha,Angul,"Hakimapada, Angul - OSPCB",12-05-2024 23:00:00,20.832874,85.104082,NH3,NA,NA,NA
India,Odisha,Balasore,"Kalidaspur, Balasore - OSPCB",12-05-2024 23:00:00,21.51161,86.89088,PM10,9,56,28
India,Odisha,Barbil,"Forest Office, Barbil - OSPCB",12-05-2024 23:00:00,22.1166054,85.3945546,PM10,42,158,93
India,Odisha,Baripada,"Meher Colony, Baripada - OSPCB",12-05-2024 23:00:00,21.941841,86.728318,SO2,1,4,2
India,Odisha,Bhubaneswar,"Patia, Bhubaneswar - OSPCB",12-05-2024 23:00:00,20.34652,85.81630,PM10,NA,NA,NA
India,Odisha,Bhubaneswar,"Patia, Bhubaneswar - OSPCB",12-05-2024 23:00:00,20.34652,85.81630,SO2,NA,NA,NA
India,Odisha,Bileipada,"Tata Township, Bileipada - OSPCB",12-05-2024 23:00:00,22.06156703,85.47409613,NO2,5,10,7
India,Odisha,Keonjhar,"Jagamohanpur, Keonjhar - OSPCB",12-05-2024 23:00:00,21.643900,85.599355,SO2,8,9,8
India,Odisha,Nayagarh,"Dabuna, Nayagarh - OSPCB",12-05-2024 23:00:00,21.847279,85.416905,NH3,4,4,4
India,Odisha,Nayagarh,"Dabuna, Nayagarh - OSPCB",12-05-2024 23:00:00,21.847279,85.416905,SO2,1,4,2
India,Odisha,Nayagarh,"Dabuna, Nayagarh - OSPCB",12-05-2024 23:00:00,21.847279,85.416905,OZONE,4,37,22
India,Odisha,Rourkela,"Fertilizer Township, Rourkela - OSPCB",12-05-2024 23:00:00,22.18972222,84.86277778,PM10,NA,NA,NA
India,Odisha,Rourkela,"Sector-2, Rourkela - OSPCB",12-05-2024 23:00:00,22.24500000,84.88111111,NO2,32,36,33
India,Odisha,Talcher,"Talcher Coalfields,Talcher - OSPCB",12-05-2024 23:00:00,20.9360711,85.1707021,PM2.5,NA,NA,NA
India,Odisha,Talcher,"Talcher Coalfields,Talcher - OSPCB",12-05-2024 23:00:00,20.9360711,85.1707021,PM10,NA,NA,NA
India,Odisha,Talcher,"Talcher Coalfields,Talcher - OSPCB",12-05-2024 23:00:00,20.9360711,85.1707021,OZONE,NA,NA,NA
India,Odisha,Tensa,"Barsua Iron Ore Mines, Tensa - OSPCB",12-05-2024 23:00:00,21.869985,85.167016,NH3,NA,NA,NA
India,Odisha,Tensa,"Barsua Iron Ore Mines, Tensa - OSPCB",12-05-2024 23:00:00,21.869985,85.167016,SO2,NA,NA,NA
India,Odisha,Tensa,"Barsua Iron Ore Mines, Tensa - OSPCB",12-05-2024 23:00:00,21.869985,85.167016,CO,14,20,17
India,Odisha,Tensa,"Barsua Iron Ore Mines, Tensa - OSPCB",12-05-2024 23:00:00,21.869985,85.167016,OZONE,37,61,41
India,Punjab,Amritsar,"Golden Temple, Amritsar - PPCB",12-05-2024 23:00:00,31.620000,74.876512,PM2.5,68,166,109
India,Punjab,Amritsar,"Golden Temple, Amritsar - PPCB",12-05-2024 23:00:00,31.620000,74.876512,SO2,6,13,10
India,Punjab,Bathinda,"Hardev Nagar, Bathinda - PPCB",12-05-2024 23:00:00,30.233011,74.907758,CO,4,111,10
India,Punjab,Jalandhar,"Civil Line, Jalandhar - PPCB",12-05-2024 23:00:00,31.321907,75.578914,PM2.5,41,99,69
India,Punjab,Jalandhar,"Civil Line, Jalandhar - PPCB",12-05-2024 23:00:00,31.321907,75.578914,CO,10,83,27
India,Punjab,Khanna,"Kalal Majra, Khanna - PPCB",12-05-2024 23:00:00,30.736056 ,76.209694,NO2,21,21,21
India,Punjab,Ludhiana,"Punjab Agricultural University, Ludhiana - PPCB",12-05-2024 23:00:00,30.9028,75.8086,PM10,69,139,108
India,Punjab,Mandi Gobindgarh,"RIMT University, Mandi Gobindgarh - PPCB",12-05-2024 23:00:00,30.649961,76.331442,SO2,13,21,16
India,Punjab,Patiala,"Model Town, Patiala - PPCB",12-05-2024 23:00:00,30.349388,76.366642,CO,20,46,28
India,Punjab,Patiala,"Model Town, Patiala - PPCB",12-05-2024 23:00:00,30.349388,76.366642,OZONE,25,118,83
India,Rajasthan,Ajmer,"Civil Lines,  Ajmer - RSPCB",12-05-2024 23:00:00,26.470859,74.646594,SO2,4,10,7
India,Rajasthan,Alwar,"Moti Doongri, Alwar - RSPCB",12-05-2024 23:00:00,27.554793,76.611536,PM2.5,48,93,66
India,Rajasthan,Alwar,"Moti Doongri, Alwar - RSPCB",12-05-2024 23:00:00,27.554793,76.611536,PM10,52,160,86
India,Rajasthan,Banswara,"Rati Talai, Banswara - RSPCB",12-05-2024 23:00:00,23.555190,74.440010,PM2.5,40,307,135
India,Rajasthan,Banswara,"Rati Talai, Banswara - RSPCB",12-05-2024 23:00:00,23.555190,74.440010,SO2,3,14,8
India,Rajasthan,Baran,"Bamboliya, Baran - RSPCB",12-05-2024 23:00:00,25.106006,76.469948,PM10,42,147,78
India,Rajasthan,Barmer,"Railway Colony, Barmer - RSPCB",12-05-2024 23:00:00,25.747299,71.393989,NH3,5,27,11
India,Rajasthan,Barmer,"Railway Colony, Barmer - RSPCB",12-05-2024 23:00:00,25.747299,71.393989,OZONE,9,63,58
India,Rajasthan,Bharatpur,"Krishna Nagar, Bharatpur - RSPCB",12-05-2024 23:00:00,27.215415,77.50873,PM10,36,185,118
India,Rajasthan,Bharatpur,"Krishna Nagar, Bharatpur - RSPCB",12-05-2024 23:00:00,27.215415,77.50873,NH3,2,4,3
India,Rajasthan,Bharatpur,"Krishna Nagar, Bharatpur - RSPCB",12-05-2024 23:00:00,27.215415,77.50873,SO2,1,6,3
India,Rajasthan,Bhilwara,"Pratap Nagar, Bhilwara - RSPCB",12-05-2024 23:00:00,25.339605,74.618883,PM10,6,112,37
India,Rajasthan,Bhilwara,"Pratap Nagar, Bhilwara - RSPCB",12-05-2024 23:00:00,25.339605,74.618883,NH3,1,7,3
India,Rajasthan,Bhiwadi,"RIICO Ind. Area III, Bhiwadi - RSPCB",12-05-2024 23:00:00,28.194909,76.862296,NH3,1,10,5
India,Rajasthan,Bhiwadi,"Vasundhara Nagar_UIT, Bhiwadi - RSPCB",12-05-2024 23:00:00,28.207266,76.829265,NO2,12,134,42
India,Rajasthan,Bhiwadi,"Vasundhara Nagar_UIT, Bhiwadi - RSPCB",12-05-2024 23:00:00,28.207266,76.829265,NH3,10,23,16
India,Rajasthan,Bhiwadi,"Vasundhara Nagar_UIT, Bhiwadi - RSPCB",12-05-2024 23:00:00,28.207266,76.829265,SO2,6,69,17
India,Rajasthan,Bhiwadi,"Vasundhara Nagar_UIT, Bhiwadi - RSPCB",12-05-2024 23:00:00,28.207266,76.829265,OZONE,19,185,123
India,Rajasthan,Bikaner,"MM Ground, Bikaner - RSPCB",12-05-2024 23:00:00,28.018792,73.292658,PM2.5,7,93,33
India,Rajasthan,Bundi,"New Colony, Bundi - RSPCB",12-05-2024 23:00:00,25.435774,75.644272,PM2.5,3,46,23
India,Rajasthan,Bundi,"New Colony, Bundi - RSPCB",12-05-2024 23:00:00,25.435774,75.644272,PM10,21,454,83
India,Rajasthan,Bundi,"New Colony, Bundi - RSPCB",12-05-2024 23:00:00,25.435774,75.644272,NH3,4,5,4
India,Rajasthan,Chittorgarh,"Shastri Nagar, Chittorgarh - RSPCB",12-05-2024 23:00:00,24.892047,74.623527,PM2.5,33,140,73
India,Rajasthan,Chittorgarh,"Shastri Nagar, Chittorgarh - RSPCB",12-05-2024 23:00:00,24.892047,74.623527,PM10,52,153,82
India,Rajasthan,Chittorgarh,"Shastri Nagar, Chittorgarh - RSPCB",12-05-2024 23:00:00,24.892047,74.623527,NH3,8,14,11
India,Rajasthan,Chittorgarh,"Shastri Nagar, Chittorgarh - RSPCB",12-05-2024 23:00:00,24.892047,74.623527,CO,12,64,31
India,Rajasthan,Dholpur,"Raja Ganj, Dholpur - RSPCB",12-05-2024 23:00:00,26.699557,77.898881,PM10,50,253,122
India,Rajasthan,Dholpur,"Raja Ganj, Dholpur - RSPCB",12-05-2024 23:00:00,26.699557,77.898881,NO2,30,92,37
India,Rajasthan,Dholpur,"Raja Ganj, Dholpur - RSPCB",12-05-2024 23:00:00,26.699557,77.898881,NH3,19,28,22
India,Rajasthan,Dholpur,"Raja Ganj, Dholpur - RSPCB",12-05-2024 23:00:00,26.699557,77.898881,SO2,6,7,7
India,Rajasthan,Dungarpur,"Bhoiwada, Dungarpur - RSPCB",12-05-2024 23:00:00,23.837789,73.714926,NH3,6,7,7
India,Rajasthan,Hanumangarh,"Housing Board, Hanumangarh - RSPCB",12-05-2024 23:00:00,29.610750,74.283608,PM10,53,243,120
India,Rajasthan,Hanumangarh,"Housing Board, Hanumangarh - RSPCB",12-05-2024 23:00:00,29.610750,74.283608,NO2,9,29,16
India,Rajasthan,Hanumangarh,"Housing Board, Hanumangarh - RSPCB",12-05-2024 23:00:00,29.610750,74.283608,SO2,3,8,6
India,Rajasthan,Hanumangarh,"Housing Board, Hanumangarh - RSPCB",12-05-2024 23:00:00,29.610750,74.283608,OZONE,15,48,37
India,Rajasthan,Jaipur,"Adarsh Nagar, Jaipur - RSPCB",12-05-2024 23:00:00,26.902909,75.836858,NH3,3,7,4
India,Rajasthan,Jaipur,"Adarsh Nagar, Jaipur - RSPCB",12-05-2024 23:00:00,26.902909,75.836858,OZONE,19,136,67
India,Rajasthan,Jaipur,"Mansarovar Sector-12, Jaipur - RSPCB",12-05-2024 23:00:00,26.843698,75.766894,PM2.5,2,80,26
India,Rajasthan,Jaipur,"Mansarovar Sector-12, Jaipur - RSPCB",12-05-2024 23:00:00,26.843698,75.766894,PM10,14,366,85
India,Rajasthan,Jaipur,"Police Commissionerate, Jaipur - RSPCB",12-05-2024 23:00:00,26.9164092,75.7994901,NH3,5,8,6
India,Rajasthan,Jaipur,"RIICO Sitapura, Jaipur - RSPCB",12-05-2024 23:00:00,26.786682,75.827928,CO,6,40,24
India,Rajasthan,Jaipur,"Shastri Nagar, Jaipur - RSPCB",12-05-2024 23:00:00,26.9502929,75.730943,NO2,16,63,31
India,Rajasthan,Jaipur,"Shastri Nagar, Jaipur - RSPCB",12-05-2024 23:00:00,26.9502929,75.730943,NH3,1,3,2
India,Rajasthan,Jaisalmer,"Sadar Bazar, Jaisalmer - RSPCB",12-05-2024 23:00:00,26.912329,70.909168,NO2,4,32,12
India,Rajasthan,Jaisalmer,"Sadar Bazar, Jaisalmer - RSPCB",12-05-2024 23:00:00,26.912329,70.909168,SO2,2,4,2
India,Rajasthan,Jalore,"Mudtra Sili, Jalore - RSPCB",12-05-2024 23:00:00,25.344694,72.626208,CO,6,33,25
India,Rajasthan,Jhalawar,"Rajlaxmi Nagar, Jhalawar - RSPCB",12-05-2024 23:00:00,24.588397,76.172782,SO2,3,8,4
India,Rajasthan,Jodhpur,"Collectorate, Jodhpur - RSPCB",12-05-2024 23:00:00,26.268249,73.0193853,SO2,6,17,11
India,Rajasthan,Jodhpur,"Jhalamand, Jodhpur - RSPCB",12-05-2024 23:00:00,26.215415,73.070156,PM2.5,2,92,18
India,Rajasthan,Jodhpur,"Jhalamand, Jodhpur - RSPCB",12-05-2024 23:00:00,26.215415,73.070156,OZONE,29,79,56
India,Rajasthan,Jodhpur,"Mandor, Jodhpur - RSPCB",12-05-2024 23:00:00,26.358805,73.047444,PM10,17,79,41
India,Rajasthan,Jodhpur,"Samrat Ashok Udhyan, Jodhpur - RSPCB",12-05-2024 23:00:00,26.253384,72.976571,CO,2,24,13
India,Rajasthan,Karauli,"Satyawati Vihar, Karauli - RSPCB",12-05-2024 23:00:00,26.506177,77.025989,NH3,5,33,10
India,Rajasthan,Kota,"Dhanmandi, Kota - RSPCB",12-05-2024 23:00:00,25.164090,75.858137,PM2.5,2,81,28
India,Rajasthan,Kota,"Dhanmandi, Kota - RSPCB",12-05-2024 23:00:00,25.164090,75.858137,PM10,30,281,81
India,Rajasthan,Kota,"Dhanmandi, Kota - RSPCB",12-05-2024 23:00:00,25.164090,75.858137,NH3,3,4,4
India,Rajasthan,Kota,"Dhanmandi, Kota - RSPCB",12-05-2024 23:00:00,25.164090,75.858137,OZONE,30,98,52
India,Rajasthan,Kota,"Nayapura, Kota - RSPCB",12-05-2024 23:00:00,25.196024,75.855668,PM2.5,11,76,28
India,Rajasthan,Kota,"Nayapura, Kota - RSPCB",12-05-2024 23:00:00,25.196024,75.855668,OZONE,13,138,75
India,Rajasthan,Nagaur,"Karni Colony, Nagaur - RSPCB",12-05-2024 23:00:00,27.213494,73.734444,SO2,3,7,4
India,Rajasthan,Nagaur,"Karni Colony, Nagaur - RSPCB",12-05-2024 23:00:00,27.213494,73.734444,CO,7,68,29
India,Rajasthan,Pali,"Indira Colony Vistar, Pali - RSPCB",12-05-2024 23:00:00,25.771061, 73.340227,PM10,NA,NA,NA
India,Rajasthan,Pratapgarh,"Pragati Nagar, Pratapgarh - RSPCB",12-05-2024 23:00:00,24.041198,74.780702,OZONE,55,124,103
India,Rajasthan,Sawai Madhopur,"Sahu Nagar, Sawai Madhopur - RSPCB",12-05-2024 23:00:00,26.031443,76.359327,PM2.5,18,324,80
India,Rajasthan,Sawai Madhopur,"Sahu Nagar, Sawai Madhopur - RSPCB",12-05-2024 23:00:00,26.031443,76.359327,PM10,31,458,133
India,Rajasthan,Sikar,"Radhakishan Pura, Sikar - RSPCB",12-05-2024 23:00:00,27.608912,75.153302,PM10,5,324,65
India,Rajasthan,Sikar,"Radhakishan Pura, Sikar - RSPCB",12-05-2024 23:00:00,27.608912,75.153302,OZONE,32,101,65
India,Rajasthan,Sirohi,"Vedhaynath Colony, Sirohi - RSPCB",12-05-2024 23:00:00,24.885261,72.857549,PM10,32,75,47
India,Rajasthan,Sirohi,"Vedhaynath Colony, Sirohi - RSPCB",12-05-2024 23:00:00,24.885261,72.857549,NO2,5,22,10
India,Rajasthan,Udaipur,"Ashok Nagar, Udaipur - RSPCB",12-05-2024 23:00:00,24.5886166,73.6321397,PM2.5,23,160,60
India,Rajasthan,Udaipur,"Ashok Nagar, Udaipur - RSPCB",12-05-2024 23:00:00,24.5886166,73.6321397,SO2,2,11,7
India,Rajasthan,Udaipur,"Ashok Nagar, Udaipur - RSPCB",12-05-2024 23:00:00,24.5886166,73.6321397,CO,2,84,31
India,TamilNadu,Ariyalur,"Keelapalur, Ariyalur - TNPCB",12-05-2024 23:00:00,11.06825,79.07033,PM2.5,10,43,19
India,TamilNadu,Chennai,"Alandur Bus Depot, Chennai - CPCB",12-05-2024 23:00:00,12.9099161,80.1076538,PM2.5,24,38,32
India,TamilNadu,Chennai,"Arumbakkam, Chennai - TNPCB",12-05-2024 23:00:00,13.0664,80.2112 ,PM2.5,3,30,12
India,TamilNadu,Chennai,"Kodungaiyur, Chennai - TNPCB",12-05-2024 23:00:00,13.1278,80.2642,PM2.5,NA,NA,NA
India,TamilNadu,Chennai,"Kodungaiyur, Chennai - TNPCB",12-05-2024 23:00:00,13.1278,80.2642,PM10,NA,NA,NA
India,TamilNadu,Chennai,"Kodungaiyur, Chennai - TNPCB",12-05-2024 23:00:00,13.1278,80.2642,NO2,NA,NA,NA
India,TamilNadu,Chennai,"Perungudi, Chennai - TNPCB",12-05-2024 23:00:00,12.9533,80.2357,SO2,1,6,3
India,TamilNadu,Chennai,"Velachery Res. Area, Chennai - CPCB",12-05-2024 23:00:00,13.0052189,80.2398125,NH3,14,23,18
India,TamilNadu,Chennai,"Velachery Res. Area, Chennai - CPCB",12-05-2024 23:00:00,13.0052189,80.2398125,OZONE,36,49,44
India,TamilNadu,Coimbatore,"PSG College of Arts and Science, Coimbatore - TNPCB",12-05-2024 23:00:00,11.0328,77.0349,NH3,NA,NA,NA
India,TamilNadu,Cuddalore,"Kudikadu, Cuddalore - TNPCB",12-05-2024 23:00:00,11.6829898,79.7532099,PM10,NA,NA,NA
India,TamilNadu,Ooty,"Bombay Castel, Ooty - TNPCB",12-05-2024 23:00:00,11.4068288,76.7138973,NO2,13,77,32
India,TamilNadu,Palkalaiperur,"Bharathidasan University, Palkalaiperur - TNPCB",12-05-2024 23:00:00,10.681158,78.741746,SO2,28,30,29
India,TamilNadu,Thoothukudi,"Meelavittan, Thoothukudi - TNPCB",12-05-2024 23:00:00,8.816428 ,78.099039,SO2,5,16,10
India,TamilNadu,Vellore,"Vasanthapuram, Vellore - TNPCB",12-05-2024 23:00:00,12.909494,79.131861,PM2.5,NA,NA,NA
India,TamilNadu,Vellore,"Vasanthapuram, Vellore - TNPCB",12-05-2024 23:00:00,12.909494,79.131861,NH3,NA,NA,NA
India,Telangana,Hyderabad,"Bollaram Industrial Area, Hyderabad - TSPCB",12-05-2024 23:00:00,17.540891,78.358528,CO,2,116,6
India,Telangana,Hyderabad,"ECIL Kapra, Hyderabad - TSPCB",12-05-2024 23:00:00,17.470431,78.566959,PM10,62,84,69
India,Telangana,Hyderabad,"ECIL Kapra, Hyderabad - TSPCB",12-05-2024 23:00:00,17.470431,78.566959,NH3,6,6,6
India,Telangana,Hyderabad,"ECIL Kapra, Hyderabad - TSPCB",12-05-2024 23:00:00,17.470431,78.566959,CO,12,28,19
India,Telangana,Hyderabad,"ECIL Kapra, Hyderabad - TSPCB",12-05-2024 23:00:00,17.470431,78.566959,OZONE,17,64,51
India,Telangana,Hyderabad,"IITH Kandi, Hyderabad - TSPCB",12-05-2024 23:00:00,17.585705,78.126199,SO2,NA,NA,NA
India,Telangana,Hyderabad,"Kokapet, Hyderabad - TSPCB",12-05-2024 23:00:00,17.393559,78.339194,OZONE,2,10,9
India,Telangana,Hyderabad,"Kompally Municipal Office, Hyderabad - TSPCB",12-05-2024 23:00:00,17.544899,78.486949,OZONE,22,64,49
India,Telangana,Hyderabad,"Nacharam_TSIIC IALA, Hyderabad - TSPCB",12-05-2024 23:00:00,17.429398,78.569354,CO,34,44,36
India,Telangana,Hyderabad,"Ramachandrapuram, Hyderabad - TSPCB",12-05-2024 23:00:00,17.528544,78.286195,NO2,9,12,10
India,Telangana,Hyderabad,"Ramachandrapuram, Hyderabad - TSPCB",12-05-2024 23:00:00,17.528544,78.286195,SO2,10,12,11
India,Telangana,Hyderabad,"Sanathnagar, Hyderabad - TSPCB",12-05-2024 23:00:00,17.4559458,78.4332152,PM2.5,20,69,44
India,Telangana,Hyderabad,"Somajiguda, Hyderabad - TSPCB",12-05-2024 23:00:00,17.417094,78.457437,PM10,NA,NA,NA
India,Telangana,Hyderabad,"Somajiguda, Hyderabad - TSPCB",12-05-2024 23:00:00,17.417094,78.457437,NH3,NA,NA,NA
India,Telangana,Hyderabad,"Zoo Park, Hyderabad - TSPCB",12-05-2024 23:00:00,17.349694,78.451437,PM10,18,156,75
India,Tripura,Agartala,"Bardowali, Agartala - Tripura SPCB",12-05-2024 23:00:00,23.8175497,91.2726974,PM2.5,40,203,73
India,Uttar_Pradesh,Agra,"Sanjay Palace, Agra - UPPCB",12-05-2024 23:00:00,27.19865833,78.00598056,PM10,21,250,80
India,Uttar_Pradesh,Agra,"Sanjay Palace, Agra - UPPCB",12-05-2024 23:00:00,27.19865833,78.00598056,NO2,9,20,15
India,Uttar_Pradesh,Agra,"Shahjahan Garden, Agra - UPPCB",12-05-2024 23:00:00,27.169338,78.03582,PM2.5,NA,NA,NA
India,Uttar_Pradesh,Agra,"Shastripuram, Agra - UPPCB",12-05-2024 23:00:00,27.19862,77.92066,NH3,NA,NA,NA
India,Uttar_Pradesh,Agra,"Shastripuram, Agra - UPPCB",12-05-2024 23:00:00,27.19862,77.92066,SO2,13,15,14
India,Uttar_Pradesh,Bareilly,"Civil Lines, Bareilly - UPPCB",12-05-2024 23:00:00,28.359581,79.414455,NO2,2,3,2
India,Uttar_Pradesh,Bulandshahr,"Yamunapuram, Bulandshahr - UPPCB",12-05-2024 23:00:00,28.406963,77.849831,NH3,12,21,16
India,Uttar_Pradesh,Bulandshahr,"Yamunapuram, Bulandshahr - UPPCB",12-05-2024 23:00:00,28.406963,77.849831,SO2,1,28,8
India,Uttar_Pradesh,Firozabad,"Nagla Bhau, Firozabad - UPPCB",12-05-2024 23:00:00,27.168897,78.376960,PM2.5,16,76,33
India,Uttar_Pradesh,Firozabad,"Vibhab Nagar, Firozabad - UPPCB",12-05-2024 23:00:00,27.1594,78.3953,NO2,13,15,14
India,Uttar_Pradesh,Ghaziabad,"Indirapuram, Ghaziabad - UPPCB",12-05-2024 23:00:00,28.646233,77.358075,PM2.5,50,280,110
India,Uttar_Pradesh,Ghaziabad,"Indirapuram, Ghaziabad - UPPCB",12-05-2024 23:00:00,28.646233,77.358075,NH3,6,10,7
India,Uttar_Pradesh,Ghaziabad,"Sanjay Nagar, Ghaziabad - UPPCB",12-05-2024 23:00:00,28.685382,77.453839,PM2.5,51,333,159
India,Uttar_Pradesh,Ghaziabad,"Sanjay Nagar, Ghaziabad - UPPCB",12-05-2024 23:00:00,28.685382,77.453839,NO2,22,145,71
India,Uttar_Pradesh,Ghaziabad,"Vasundhara, Ghaziabad - UPPCB",12-05-2024 23:00:00,28.6603346,77.3572563,CO,2,82,36
India,Uttar_Pradesh,Gorakhpur,"Madan Mohan Malaviya University of Technology, Gorakhpur - UPPCB",12-05-2024 23:00:00,26.730136,83.433859,NO2,NA,NA,NA
India,Uttar_Pradesh,Gorakhpur,"Madan Mohan Malaviya University of Technology, Gorakhpur - UPPCB",12-05-2024 23:00:00,26.730136,83.433859,CO,NA,NA,NA
India,Uttar_Pradesh,Greater Noida,"Knowledge Park - III, Greater Noida - UPPCB",12-05-2024 23:00:00,28.47272,77.482000,CO,37,101,62
India,Uttar_Pradesh,Greater Noida,"Knowledge Park - V, Greater Noida - UPPCB",12-05-2024 23:00:00,28.557054,77.453663,NO2,30,63,41
India,Uttar_Pradesh,Greater Noida,"Knowledge Park - V, Greater Noida - UPPCB",12-05-2024 23:00:00,28.557054,77.453663,NH3,4,8,5
India,Uttar_Pradesh,Hapur,"Anand Vihar, Hapur - UPPCB",12-05-2024 23:00:00,28.725645,77.749675,NH3,6,18,8
India,Uttar_Pradesh,Hapur,"Anand Vihar, Hapur - UPPCB",12-05-2024 23:00:00,28.725645,77.749675,SO2,15,85,35
India,Uttar_Pradesh,Jhansi,"Shivaji Nagar, Jhansi - UPPCB",12-05-2024 23:00:00,25.4547,78.6039,NO2,3,21,7
India,Uttar_Pradesh,Jhansi,"Shivaji Nagar, Jhansi - UPPCB",12-05-2024 23:00:00,25.4547,78.6039,SO2,16,20,17
India,Uttar_Pradesh,Kanpur,"FTI Kidwai Nagar, Kanpur - UPPCB",12-05-2024 23:00:00,26.428282,80.327067,OZONE,11,51,38
India,Uttar_Pradesh,Kanpur,"NSI Kalyanpur, Kanpur - UPPCB",12-05-2024 23:00:00,26.509954,80.249612,NH3,1,2,2
India,Uttar_Pradesh,Kanpur,"NSI Kalyanpur, Kanpur - UPPCB",12-05-2024 23:00:00,26.509954,80.249612,CO,36,46,40
India,Uttar_Pradesh,Kanpur,"Nehru Nagar, Kanpur - UPPCB",12-05-2024 23:00:00,26.4703136,80.3229863,PM10,36,135,81
India,Uttar_Pradesh,Khurja,"Kalindi Kunj, Khurja - UPPCB",12-05-2024 23:00:00,28.2348927,77.8683002,NH3,1,1,1
India,Uttar_Pradesh,Khurja,"Kalindi Kunj, Khurja - UPPCB",12-05-2024 23:00:00,28.2348927,77.8683002,CO,24,48,43
India,Uttar_Pradesh,Lucknow,"B R Ambedkar University, Lucknow - UPPCB",12-05-2024 23:00:00,26.766433,80.927299,PM10,50,121,75
India,Uttar_Pradesh,Lucknow,"B R Ambedkar University, Lucknow - UPPCB",12-05-2024 23:00:00,26.766433,80.927299,NH3,5,7,6
India,Uttar_Pradesh,Lucknow,"Kendriya Vidyalaya, Lucknow - CPCB",12-05-2024 23:00:00,26.906111,80.948222,PM10,67,113,83
India,Uttar_Pradesh,Lucknow,"Lalbagh, Lucknow - CPCB",12-05-2024 23:00:00,26.8458805,80.9365541,PM10,55,120,96
India,Uttar_Pradesh,Lucknow,"Lalbagh, Lucknow - CPCB",12-05-2024 23:00:00,26.8458805,80.9365541,NH3,18,20,19
India,Uttar_Pradesh,Lucknow,"Talkatora District Industries Center, Lucknow - CPCB",12-05-2024 23:00:00,26.83399722,80.8917361,SO2,1,15,6
India,Uttar_Pradesh,Meerut,"Ganga Nagar, Meerut - UPPCB",12-05-2024 23:00:00,28.999264,77.7590354,PM2.5,39,206,92
India,Uttar_Pradesh,Meerut,"Ganga Nagar, Meerut - UPPCB",12-05-2024 23:00:00,28.999264,77.7590354,PM10,NA,NA,NA
India,Uttar_Pradesh,Meerut,"Ganga Nagar, Meerut - UPPCB",12-05-2024 23:00:00,28.999264,77.7590354,SO2,6,49,22
India,Uttar_Pradesh,Meerut,"Ganga Nagar, Meerut - UPPCB",12-05-2024 23:00:00,28.999264,77.7590354,OZONE,1,88,63
India,Uttar_Pradesh,Meerut,"Jai Bhim Nagar, Meerut - UPPCB",12-05-2024 23:00:00,28.9535882,77.7622941,PM2.5,67,367,185
India,Uttar_Pradesh,Moradabad,"Buddhi Vihar, Moradabad - UPPCB",12-05-2024 23:00:00,28.83526,78.74460,PM2.5,45,135,71
India,Uttar_Pradesh,Moradabad,"Buddhi Vihar, Moradabad - UPPCB",12-05-2024 23:00:00,28.83526,78.74460,NO2,23,23,23
India,Uttar_Pradesh,Moradabad,"Eco Herbal Park, Moradabad - UPPCB",12-05-2024 23:00:00,28.840739,78.697531,PM2.5,45,85,61
India,Uttar_Pradesh,Moradabad,"Employment Office, Moradabad - UPPCB",12-05-2024 23:00:00,28.88528,78.73880,NO2,15,17,17
India,Uttar_Pradesh,Moradabad,"Employment Office, Moradabad - UPPCB",12-05-2024 23:00:00,28.88528,78.73880,CO,26,64,39
India,Uttar_Pradesh,Moradabad,"Jigar Colony, Moradabad - UPPCB",12-05-2024 23:00:00,28.856664,78.772638,PM2.5,34,134,59
India,Uttar_Pradesh,Moradabad,"Jigar Colony, Moradabad - UPPCB",12-05-2024 23:00:00,28.856664,78.772638,NO2,17,19,18
India,Uttar_Pradesh,Moradabad,"Jigar Colony, Moradabad - UPPCB",12-05-2024 23:00:00,28.856664,78.772638,NH3,7,7,7
India,Uttar_Pradesh,Moradabad,"Kashiram Nagar, Moradabad - UPPCB",12-05-2024 23:00:00,28.849399,78.742362,NH3,4,4,4
India,Uttar_Pradesh,Moradabad,"Kashiram Nagar, Moradabad - UPPCB",12-05-2024 23:00:00,28.849399,78.742362,SO2,52,60,56
India,Uttar_Pradesh,Moradabad,"Transport Nagar, Moradabad - UPPCB",12-05-2024 23:00:00,28.802625,78.753728,PM10,43,124,70
India,Uttar_Pradesh,Muzaffarnagar,"New Mandi, Muzaffarnagar - UPPCB",12-05-2024 23:00:00,29.4723508,77.7194031,SO2,7,105,44
India,Uttar_Pradesh,Muzaffarnagar,"New Mandi, Muzaffarnagar - UPPCB",12-05-2024 23:00:00,29.4723508,77.7194031,CO,22,80,49
India,Uttar_Pradesh,Noida,"Sector - 125, Noida - UPPCB",12-05-2024 23:00:00,28.5447608,77.3231257,PM2.5,NA,NA,NA
India,Uttar_Pradesh,Noida,"Sector - 125, Noida - UPPCB",12-05-2024 23:00:00,28.5447608,77.3231257,OZONE,17,269,134
India,Uttar_Pradesh,Noida,"Sector-1, Noida - UPPCB",12-05-2024 23:00:00,28.5898,77.3101,PM10,136,270,187
India,Uttar_Pradesh,Noida,"Sector-1, Noida - UPPCB",12-05-2024 23:00:00,28.5898,77.3101,NO2,20,124,64
India,Uttar_Pradesh,Noida,"Sector-1, Noida - UPPCB",12-05-2024 23:00:00,28.5898,77.3101,NH3,6,13,10
India,Uttar_Pradesh,Noida,"Sector-116, Noida - UPPCB",12-05-2024 23:00:00,28.569230,77.393848,PM10,132,310,176
India,Uttar_Pradesh,Noida,"Sector-116, Noida - UPPCB",12-05-2024 23:00:00,28.569230,77.393848,NO2,23,139,56
India,Uttar_Pradesh,Noida,"Sector-116, Noida - UPPCB",12-05-2024 23:00:00,28.569230,77.393848,NH3,8,11,10
India,Uttar_Pradesh,Noida,"Sector-116, Noida - UPPCB",12-05-2024 23:00:00,28.569230,77.393848,CO,20,114,61
India,Uttar_Pradesh,Prayagraj,"Jhunsi, Prayagraj - UPPCB",12-05-2024 23:00:00,25.425602,81.917152,OZONE,6,61,45
India,Uttar_Pradesh,Prayagraj,"Motilal Nehru NIT, Prayagraj - UPPCB",12-05-2024 23:00:00,25.494,81.863,PM10,46,98,70
India,Uttar_Pradesh,Prayagraj,"Nagar Nigam, Prayagraj - UPPCB",12-05-2024 23:00:00,25.44919916 ,81.82735986 ,CO,16,35,23
India,Uttar_Pradesh,Varanasi,"Ardhali Bazar, Varanasi - UPPCB",12-05-2024 23:00:00,25.3505986,82.9083074,PM2.5,25,47,34
India,Uttar_Pradesh,Varanasi,"Ardhali Bazar, Varanasi - UPPCB",12-05-2024 23:00:00,25.3505986,82.9083074,PM10,35,67,48
India,Uttar_Pradesh,Varanasi,"Ardhali Bazar, Varanasi - UPPCB",12-05-2024 23:00:00,25.3505986,82.9083074,SO2,15,22,19
India,Uttar_Pradesh,Varanasi,"Bhelupur, Varanasi - UPPCB",12-05-2024 23:00:00,25.301778,82.996789,PM2.5,8,15,11
India,Uttar_Pradesh,Varanasi,"Bhelupur, Varanasi - UPPCB",12-05-2024 23:00:00,25.301778,82.996789,NH3,1,1,1
India,Uttar_Pradesh,Varanasi,"IESD Banaras Hindu University, Varanasi - UPPCB",12-05-2024 23:00:00,25.262326,82.995408,CO,6,11,7
India,Uttar_Pradesh,Varanasi,"Maldahiya, Varanasi - UPPCB",12-05-2024 23:00:00,25.32393,82.99687,OZONE,3,26,20
India,Uttarakhand,Kashipur,"Govt. Girls Inter College, Kashipur - UKPCB",12-05-2024 23:00:00,29.2124114,78.9611753,PM2.5,50,141,89
India,Uttarakhand,Kashipur,"Govt. Girls Inter College, Kashipur - UKPCB",12-05-2024 23:00:00,29.2124114,78.9611753,PM10,80,155,106
India,Uttarakhand,Rishikesh,"Shivaji Nagar, Rishikesh - UKPCB",12-05-2024 23:00:00,30.075911,78.2859547,NH3,1,5,3
India,West_Bengal,Asansol,"Asansol Court Area, Asansol - WBPCB",12-05-2024 23:00:00,23.685297,86.945968,NH3,10,15,11
India,West_Bengal,Asansol,"Asansol Court Area, Asansol - WBPCB",12-05-2024 23:00:00,23.685297,86.945968,OZONE,4,176,119
India,West_Bengal,Barrackpore,"SVSPA Campus, Barrackpore - WBPCB",12-05-2024 23:00:00,22.7605581,88.3617589,OZONE,7,61,35
India,West_Bengal,Durgapur,"PCBL Residential Complex, Durgapur - WBPCB",12-05-2024 23:00:00,23.5087640,87.3544400,PM10,42,199,93
India,West_Bengal,Durgapur,"Sidhu Kanhu Indoor Stadium, Durgapur - WBPCB",12-05-2024 23:00:00,23.5404352,87.2892225,PM10,36,115,70
India,West_Bengal,Durgapur,"Sidhu Kanhu Indoor Stadium, Durgapur - WBPCB",12-05-2024 23:00:00,23.5404352,87.2892225,CO,28,64,39
India,West_Bengal,Durgapur,"Sidhu Kanhu Indoor Stadium, Durgapur - WBPCB",12-05-2024 23:00:00,23.5404352,87.2892225,OZONE,6,57,44
India,West_Bengal,Haldia,"Priyambada Housing Estate, Haldia - WBPCB",12-05-2024 23:00:00,22.06047,88.109737,CO,18,32,21
India,West_Bengal,Howrah,"Belur Math, Howrah - WBPCB",12-05-2024 23:00:00,22.629801,88.352017,PM10,29,68,46
India,West_Bengal,Howrah,"Ghusuri, Howrah - WBPCB",12-05-2024 23:00:00,22.611968,88.347422,NH3,2,3,3
India,West_Bengal,Howrah,"Ghusuri, Howrah - WBPCB",12-05-2024 23:00:00,22.611968,88.347422,CO,16,34,21
India,West_Bengal,Howrah,"Padmapukur, Howrah - WBPCB",12-05-2024 23:00:00,22.5687319,88.2797276,PM10,49,78,63
India,West_Bengal,Kolkata,"Bidhannagar, Kolkata - WBPCB",12-05-2024 23:00:00,22.58157048,88.41002457,PM2.5,22,41,30
India,West_Bengal,Kolkata,"Bidhannagar, Kolkata - WBPCB",12-05-2024 23:00:00,22.58157048,88.41002457,NH3,9,9,9
India,West_Bengal,Kolkata,"Bidhannagar, Kolkata - WBPCB",12-05-2024 23:00:00,22.58157048,88.41002457,OZONE,14,73,52
India,West_Bengal,Kolkata,"Jadavpur, Kolkata - WBPCB",12-05-2024 23:00:00,22.49929,88.36917,NO2,47,65,50
India,West_Bengal,Kolkata,"Jadavpur, Kolkata - WBPCB",12-05-2024 23:00:00,22.49929,88.36917,NH3,24,30,28
India,West_Bengal,Kolkata,"Rabindra Bharati University, Kolkata - WBPCB",12-05-2024 23:00:00,22.627847,88.380669,OZONE,8,56,38
India,West_Bengal,Kolkata,"Rabindra Sarobar, Kolkata - WBPCB",12-05-2024 23:00:00,22.51106,88.35142,PM10,43,59,49
India,West_Bengal,Kolkata,"Rabindra Sarobar, Kolkata - WBPCB",12-05-2024 23:00:00,22.51106,88.35142,NO2,12,44,24
India,West_Bengal,Kolkata,"Victoria, Kolkata - WBPCB",12-05-2024 23:00:00,22.5448082,88.3403691,NH3,5,6,6
India,West_Bengal,Kolkata,"Victoria, Kolkata - WBPCB",12-05-2024 23:00:00,22.5448082,88.3403691,SO2,6,9,8
India,West_Bengal,Kolkata,"Victoria, Kolkata - WBPCB",12-05-2024 23:00:00,22.5448082,88.3403691,OZONE,6,54,37
India,West_Bengal,Siliguri,"Ward-32 Bapupara, Siliguri - WBPCB",12-05-2024 23:00:00,26.6879226,88.4152495,CO,17,95,40
India,Andhra_Pradesh,Amaravati,"Secretariat, Amaravati - APPCB",12-05-2024 23:00:00,16.5150833,80.5181667,SO2,8,14,11
India,Andhra_Pradesh,Amaravati,"Secretariat, Amaravati - APPCB",12-05-2024 23:00:00,16.5150833,80.5181667,OZONE,2,35,20
India,Andhra_Pradesh,Anantapur,"Gulzarpet, Anantapur - APPCB",12-05-2024 23:00:00,14.675886,77.593027,PM10,42,75,61
India,Andhra_Pradesh,Anantapur,"Gulzarpet, Anantapur - APPCB",12-05-2024 23:00:00,14.675886,77.593027,NO2,12,13,12
India,Andhra_Pradesh,Chittoor,"Gangineni Cheruvu, Chittoor - APPCB",12-05-2024 23:00:00,13.204880,79.097889,NO2,NA,NA,NA
India,Andhra_Pradesh,Kadapa,"Yerramukkapalli, Kadapa - APPCB",12-05-2024 23:00:00,14.465052,78.824187,PM2.5,NA,NA,NA
India,Andhra_Pradesh,Kadapa,"Yerramukkapalli, Kadapa - APPCB",12-05-2024 23:00:00,14.465052,78.824187,CO,3,13,4
India,Andhra_Pradesh,Rajamahendravaram,"Anand Kala Kshetram, Rajamahendravaram - APPCB",12-05-2024 23:00:00,16.9872867,81.7363176,PM2.5,12,114,25
India,Andhra_Pradesh,Rajamahendravaram,"Anand Kala Kshetram, Rajamahendravaram - APPCB",12-05-2024 23:00:00,16.9872867,81.7363176,PM10,20,98,38
India,Andhra_Pradesh,Tirupati,"Tirumala, Tirupati - APPCB",12-05-2024 23:00:00,13.67,79.35,PM10,8,53,30
India,Andhra_Pradesh,Tirupati,"Vaikuntapuram, Tirupati - APPCB",12-05-2024 23:00:00,13.615387,79.409230,OZONE,6,19,13
India,Andhra_Pradesh,Vijayawada,"Rajiv Nagar, Vijayawada - APPCB",12-05-2024 23:00:00,16.554731,80.649110,PM10,NA,NA,NA
India,Andhra_Pradesh,Vijayawada,"Rajiv Nagar, Vijayawada - APPCB",12-05-2024 23:00:00,16.554731,80.649110,NH3,NA,NA,NA
India,Andhra_Pradesh,Visakhapatnam,"GVM Corporation, Visakhapatnam - APPCB",12-05-2024 23:00:00,17.72,83.3,PM2.5,19,64,38
India,Andhra_Pradesh,Visakhapatnam,"GVM Corporation, Visakhapatnam - APPCB",12-05-2024 23:00:00,17.72,83.3,NH3,3,6,4
India,Andhra_Pradesh,Visakhapatnam,"GVM Corporation, Visakhapatnam - APPCB",12-05-2024 23:00:00,17.72,83.3,CO,2,68,23
India,Andhra_Pradesh,Visakhapatnam,"GVM Corporation, Visakhapatnam - APPCB",12-05-2024 23:00:00,17.72,83.3,OZONE,2,133,28
India,Assam,Byrnihat,"Central Academy for SFS, Byrnihat - PCBA",12-05-2024 23:00:00,26.071318,91.87488,PM2.5,NA,NA,NA
India,Assam,Byrnihat,"Central Academy for SFS, Byrnihat - PCBA",12-05-2024 23:00:00,26.071318,91.87488,NH3,NA,NA,NA
India,Assam,Byrnihat,"Central Academy for SFS, Byrnihat - PCBA",12-05-2024 23:00:00,26.071318,91.87488,OZONE,NA,NA,NA
India,Assam,Guwahati,"IITG, Guwahati - PCBA",12-05-2024 23:00:00,26.2028636,91.70046436,PM10,36,79,55
India,Assam,Guwahati,"IITG, Guwahati - PCBA",12-05-2024 23:00:00,26.2028636,91.70046436,SO2,12,13,13
India,Assam,Guwahati,"LGBI Airport, Guwahati - PCBA",12-05-2024 23:00:00,26.10887,91.589544,CO,38,62,47
India,Assam,Guwahati,"Railway Colony, Guwahati - PCBA",12-05-2024 23:00:00,26.181742,91.78063,PM2.5,39,294,97
India,Assam,Guwahati,"Railway Colony, Guwahati - PCBA",12-05-2024 23:00:00,26.181742,91.78063,SO2,10,17,13
India,Assam,Nagaon,"Christianpatty, Nagaon - PCBA",12-05-2024 23:00:00,26.349082,92.68449,PM2.5,62,120,81
India,Assam,Nagaon,"Christianpatty, Nagaon - PCBA",12-05-2024 23:00:00,26.349082,92.68449,NH3,1,7,3
India,Assam,Sivasagar,"Girls College, Sivasagar - PCBA",12-05-2024 23:00:00,26.987634,94.636574,PM10,40,73,52
India,Assam,Sivasagar,"Girls College, Sivasagar - PCBA",12-05-2024 23:00:00,26.987634,94.636574,NH3,2,2,2
India,Assam,Sivasagar,"Girls College, Sivasagar - PCBA",12-05-2024 23:00:00,26.987634,94.636574,CO,22,32,26
India,Bihar,Araria,"Kharahiya Basti, Araria - BSPCB",12-05-2024 23:00:00,26.146529,87.454184,SO2,7,17,14
India,Bihar,Arrah,"New DM Office, Arrah - BSPCB",12-05-2024 23:00:00,25.5626095,84.663264,PM2.5,NA,NA,NA
India,Bihar,Arrah,"New DM Office, Arrah - BSPCB",12-05-2024 23:00:00,25.5626095,84.663264,OZONE,NA,NA,NA
India,Bihar,Aurangabad,"Gurdeo Nagar, Aurangabad - BSPCB",12-05-2024 23:00:00,24.75746,84.366208,NH3,7,17,12
India,Bihar,Aurangabad,"Gurdeo Nagar, Aurangabad - BSPCB",12-05-2024 23:00:00,24.75746,84.366208,CO,5,32,14
India,Bihar,Bhagalpur,"DM Office_Kachari Chowk, Bhagalpur - BSPCB",12-05-2024 23:00:00,25.251013,86.989001,PM10,NA,NA,NA
India,Bihar,Bhagalpur,"DM Office_Kachari Chowk, Bhagalpur - BSPCB",12-05-2024 23:00:00,25.251013,86.989001,NH3,NA,NA,NA
India,Bihar,Bhagalpur,"DM Office_Kachari Chowk, Bhagalpur - BSPCB",12-05-2024 23:00:00,25.251013,86.989001,OZONE,46,59,48
India,Bihar,Bihar Sharif,"D M Colony, Bihar Sharif - BSPCB",12-05-2024 23:00:00,25.204762,85.514960,OZONE,26,68,44
India,Bihar,Chhapra,"Darshan Nagar, Chhapra - BSPCB",12-05-2024 23:00:00,25.7808257,84.7446768,PM10,46,101,70
India,Bihar,Chhapra,"Darshan Nagar, Chhapra - BSPCB",12-05-2024 23:00:00,25.7808257,84.7446768,CO,30,56,46
India,Bihar,Gaya,"Kareemganj, Gaya - BSPCB",12-05-2024 23:00:00,24.792403,84.992416,SO2,4,10,6
India,Bihar,Gaya,"Kareemganj, Gaya - BSPCB",12-05-2024 23:00:00,24.792403,84.992416,CO,8,22,12
India,Bihar,Gaya,"Kareemganj, Gaya - BSPCB",12-05-2024 23:00:00,24.792403,84.992416,OZONE,6,35,14
India,Bihar,Gaya,"SFTI Kusdihra, Gaya - BSPCB",12-05-2024 23:00:00,24.762518,84.982348,OZONE,32,125,47
India,Bihar,Hajipur,"Industrial Area, Hajipur - BSPCB",12-05-2024 23:00:00,25.697189,85.245900,NO2,8,12,10
India,Bihar,Hajipur,"Industrial Area, Hajipur - BSPCB",12-05-2024 23:00:00,25.697189,85.245900,NH3,6,9,8
India,Bihar,Katihar,"Mirchaibari, Katihar - BSPCB",12-05-2024 23:00:00,25.560083,87.553265,SO2,20,23,22
India,Bihar,Motihari,"Gandak Colony, Motihari - BSPCB",12-05-2024 23:00:00,26.63086,84.90051,NH3,4,10,7
India,Bihar,Motihari,"Gandak Colony, Motihari - BSPCB",12-05-2024 23:00:00,26.63086,84.90051,OZONE,1,27,20
India,Bihar,Munger,"Town Hall, Munger - BSPCB",12-05-2024 23:00:00,25.376776,86.471523,PM2.5,17,127,54
India,Bihar,Muzaffarpur,"Buddha Colony, Muzaffarpur - BSPCB",12-05-2024 23:00:00,26.11442,85.39813,NO2,7,18,10
India,Bihar,Patna,"Govt. High School Shikarpur, Patna - BSPCB",12-05-2024 23:00:00,25.592539,85.227158,SO2,8,12,10
India,Bihar,Patna,"Govt. High School Shikarpur, Patna - BSPCB",12-05-2024 23:00:00,25.592539,85.227158,CO,32,60,36
India,Bihar,Patna,"IGSC Planetarium Complex, Patna - BSPCB",12-05-2024 23:00:00,25.610369,85.132568,PM2.5,46,128,84
India,Bihar,Patna,"IGSC Planetarium Complex, Patna - BSPCB",12-05-2024 23:00:00,25.610369,85.132568,NO2,11,11,11
India,Bihar,Patna,"Muradpur, Patna - BSPCB",12-05-2024 23:00:00,25.619651,85.147382,NO2,NA,NA,NA
India,Bihar,Patna,"Muradpur, Patna - BSPCB",12-05-2024 23:00:00,25.619651,85.147382,NH3,3,6,5
India,Bihar,Patna,"Muradpur, Patna - BSPCB",12-05-2024 23:00:00,25.619651,85.147382,CO,26,54,32
India,Bihar,Patna,"Rajbansi Nagar, Patna - BSPCB",12-05-2024 23:00:00,25.599486,85.113666,PM10,87,133,109
India,Bihar,Patna,"Rajbansi Nagar, Patna - BSPCB",12-05-2024 23:00:00,25.599486,85.113666,OZONE,34,87,66
India,Bihar,Patna,"Samanpura, Patna - BSPCB",12-05-2024 23:00:00,25.596727,85.085624,PM2.5,56,131,92
India,Bihar,Purnia,"Mariam Nagar, Purnia - BSPCB",12-05-2024 23:00:00,25.366336,87.117468,PM10,17,92,71
India,Bihar,Purnia,"Mariam Nagar, Purnia - BSPCB",12-05-2024 23:00:00,25.366336,87.117468,NH3,5,9,7
India,Bihar,Purnia,"Mariam Nagar, Purnia - BSPCB",12-05-2024 23:00:00,25.366336,87.117468,SO2,9,19,13
India,Bihar,Rajgir,"Dangi Tola, Rajgir - BSPCB",12-05-2024 23:00:00,25.03280,85.41948,PM2.5,NA,NA,NA
India,Bihar,Saharsa,"Police Line, Saharsa - BSPCB",12-05-2024 23:00:00,25.892357,86.590325,PM10,28,95,49
India,Bihar,Samastipur,"DM Office_Kasipur, Samastipur - BSPCB",12-05-2024 23:00:00,25.859655,85.77944,NO2,4,5,4
India,Bihar,Sasaram,"Dada Peer, Sasaram - BSPCB",12-05-2024 23:00:00,24.952822,84.002396,PM2.5,4,41,17
India,Bihar,Siwan,"Chitragupta Nagar, Siwan - BSPCB",12-05-2024 23:00:00,26.2271665,84.3570427,SO2,10,35,31
India,Chandigarh,Chandigarh,"Sector-25, Chandigarh - CPCC",12-05-2024 23:00:00,30.751462,76.762879,SO2,9,42,13
India,Chandigarh,Chandigarh,"Sector-53, Chandigarh - CPCC",12-05-2024 23:00:00,30.719859,76.738637,PM10,99,165,124
India,Chandigarh,Chandigarh,"Sector-53, Chandigarh - CPCC",12-05-2024 23:00:00,30.719859,76.738637,NO2,12,84,36
India,Chandigarh,Chandigarh,"Sector-53, Chandigarh - CPCC",12-05-2024 23:00:00,30.719859,76.738637,SO2,16,57,24
India,Chhattisgarh,Bhilai,"32Bungalows, Bhilai - CECB",12-05-2024 23:00:00,21.194815,81.314770,PM10,44,94,72
India,Chhattisgarh,Bhilai,"Civic Center, Bhilai - Bhilai Steel Plant",12-05-2024 23:00:00,21.185571,81.343175,NO2,11,22,14
India,Chhattisgarh,Bhilai,"Hathkhoj, Bhilai - CECB",12-05-2024 23:00:00,21.224231,81.408350,NO2,9,28,17
India,Chhattisgarh,Bhilai,"Hathkhoj, Bhilai - CECB",12-05-2024 23:00:00,21.224231,81.408350,SO2,14,27,18
India,Chhattisgarh,Chhal,"Nawapara SECL Colony, Chhal - CECB",12-05-2024 23:00:00,22.118125,83.140608,OZONE,6,141,100
India,Chhattisgarh,Korba,"Urja Nagar, Korba - CECB",12-05-2024 23:00:00,22.348441,82.549611,NH3,4,9,6
India,Chhattisgarh,Kunjemura,"OP Jindal School, Kunjemura - CECB",12-05-2024 23:00:00,22.126650,83.483212,PM2.5,39,71,51
India,Chhattisgarh,Kunjemura,"OP Jindal School, Kunjemura - CECB",12-05-2024 23:00:00,22.126650,83.483212,NO2,19,162,53
India,Chhattisgarh,Kunjemura,"OP Jindal School, Kunjemura - CECB",12-05-2024 23:00:00,22.126650,83.483212,OZONE,10,63,42
India,Chhattisgarh,Milupara,"Govt. Higher Secondary School, Milupara - CECB",12-05-2024 23:00:00,22.1910172,83.5197009,OZONE,13,39,23
India,Chhattisgarh,Raipur,"Bhatagaon New ISBT, Raipur - CECB",12-05-2024 23:00:00,21.219665,81.630094,PM2.5,16,37,26
India,Chhattisgarh,Raipur,"Bhatagaon New ISBT, Raipur - CECB",12-05-2024 23:00:00,21.219665,81.630094,NH3,2,2,2
India,Chhattisgarh,Raipur,"Bhatagaon New ISBT, Raipur - CECB",12-05-2024 23:00:00,21.219665,81.630094,CO,19,39,25
India,Chhattisgarh,Raipur,"Krishak Nagar, Raipur - CECB",12-05-2024 23:00:00,21.237755,81.705301,PM2.5,22,51,32
India,Chhattisgarh,Raipur,"Krishak Nagar, Raipur - CECB",12-05-2024 23:00:00,21.237755,81.705301,NH3,NA,NA,NA
India,Chhattisgarh,Raipur,"Krishak Nagar, Raipur - CECB",12-05-2024 23:00:00,21.237755,81.705301,CO,24,44,27
India,Chhattisgarh,Raipur,"Krishak Nagar, Raipur - CECB",12-05-2024 23:00:00,21.237755,81.705301,OZONE,1,43,18
India,Chhattisgarh,Raipur,"Siltara Phase-II, Raipur - CECB",12-05-2024 23:00:00,21.371751,81.664929,SO2,14,49,26
India,Delhi,Delhi,"Alipur, Delhi - DPCC",12-05-2024 23:00:00,28.815329,77.153010,CO,46,72,55
India,Delhi,Delhi,"Anand Vihar, Delhi - DPCC",12-05-2024 23:00:00,28.647622,77.3158090,NO2,78,169,116
India,Delhi,Delhi,"Anand Vihar, Delhi - DPCC",12-05-2024 23:00:00,28.647622,77.3158090,SO2,12,52,29
India,Delhi,Delhi,"Ashok Vihar, Delhi - DPCC",12-05-2024 23:00:00,28.695381,77.181665,PM2.5,73,314,142
India,Delhi,Delhi,"Ashok Vihar, Delhi - DPCC",12-05-2024 23:00:00,28.695381,77.181665,SO2,25,49,33
India,Delhi,Delhi,"Burari Crossing, Delhi - IMD",12-05-2024 23:00:00,28.7256504,77.2011573,CO,42,74,51
India,Delhi,Delhi,"CRRI Mathura Road, Delhi - IMD",12-05-2024 23:00:00,28.5512005,77.2735737,CO,12,79,21
India,Delhi,Delhi,"Chandni Chowk, Delhi - IITM",12-05-2024 23:00:00,28.656756,77.227234,NO2,19,279,122
India,Delhi,Delhi,"Chandni Chowk, Delhi - IITM",12-05-2024 23:00:00,28.656756,77.227234,NH3,14,54,31
India,Delhi,Delhi,"DTU, Delhi - CPCB",12-05-2024 23:00:00,28.7500499,77.1112615,NH3,4,31,18
India,Delhi,Delhi,"DTU, Delhi - CPCB",12-05-2024 23:00:00,28.7500499,77.1112615,CO,14,51,27
India,Delhi,Delhi,"DTU, Delhi - CPCB",12-05-2024 23:00:00,28.7500499,77.1112615,OZONE,38,250,159
India,Delhi,Delhi,"Dr. Karni Singh Shooting Range, Delhi - DPCC",12-05-2024 23:00:00,28.498571,77.264840,SO2,25,36,31
India,Delhi,Delhi,"Dwarka-Sector 8, Delhi - DPCC ",12-05-2024 23:00:00,28.5710274,77.0719006,PM2.5,77,260,139
India,Delhi,Delhi,"Dwarka-Sector 8, Delhi - DPCC ",12-05-2024 23:00:00,28.5710274,77.0719006,OZONE,7,111,80
India,Delhi,Delhi,"IHBAS, Dilshad Garden, Delhi - CPCB",12-05-2024 23:00:00,28.6811736,77.3025234,SO2,3,30,8
India,Delhi,Delhi,"ITO, Delhi - CPCB",12-05-2024 23:00:00,28.628624,77.241060,NO2,13,76,39
India,Delhi,Delhi,"Jahangirpuri, Delhi - DPCC",12-05-2024 23:00:00,28.732820,77.170633,NH3,2,14,9
India,Delhi,Delhi,"Jahangirpuri, Delhi - DPCC",12-05-2024 23:00:00,28.732820,77.170633,CO,56,102,78
India,Delhi,Delhi,"Jawaharlal Nehru Stadium, Delhi - DPCC",12-05-2024 23:00:00,28.580280,77.233829,NO2,5,38,16
India,Delhi,Delhi,"Jawaharlal Nehru Stadium, Delhi - DPCC",12-05-2024 23:00:00,28.580280,77.233829,OZONE,5,278,109
India,Delhi,Delhi,"Lodhi Road, Delhi - IITM",12-05-2024 23:00:00,28.588333,77.221667,PM2.5,NA,NA,NA
India,Delhi,Delhi,"Lodhi Road, Delhi - IITM",12-05-2024 23:00:00,28.588333,77.221667,NO2,NA,NA,NA
India,Delhi,Delhi,"Lodhi Road, Delhi - IMD",12-05-2024 23:00:00,28.5918245,77.2273074,OZONE,5,69,41
India,Delhi,Delhi,"Major Dhyan Chand National Stadium, Delhi - DPCC",12-05-2024 23:00:00,28.611281,77.237738,SO2,11,32,21
India,Delhi,Delhi,"Mundka, Delhi - DPCC",12-05-2024 23:00:00,28.684678,77.076574,PM10,120,500,242
India,Delhi,Delhi,"NSIT Dwarka, Delhi - CPCB",12-05-2024 23:00:00,28.60909,77.0325413,PM10,98,187,144
India,Delhi,Delhi,"NSIT Dwarka, Delhi - CPCB",12-05-2024 23:00:00,28.60909,77.0325413,NO2,17,41,28
India,Delhi,Delhi,"Najafgarh, Delhi - DPCC",12-05-2024 23:00:00,28.570173,76.933762,PM2.5,62,262,117
India,Delhi,Delhi,"Narela, Delhi - DPCC",12-05-2024 23:00:00,28.822836,77.101981,NH3,7,11,8
India,Delhi,Delhi,"Narela, Delhi - DPCC",12-05-2024 23:00:00,28.822836,77.101981,OZONE,15,274,167
India,Delhi,Delhi,"Okhla Phase-2, Delhi - DPCC",12-05-2024 23:00:00,28.530785,77.271255,PM10,135,320,173
India,Delhi,Delhi,"Okhla Phase-2, Delhi - DPCC",12-05-2024 23:00:00,28.530785,77.271255,OZONE,3,213,129
India,Delhi,Delhi,"Patparganj, Delhi - DPCC",12-05-2024 23:00:00,28.623763,77.287209,SO2,NA,NA,NA
India,Delhi,Delhi,"Punjabi Bagh, Delhi - DPCC",12-05-2024 23:00:00,28.674045,77.131023,PM2.5,65,345,192
India,Delhi,Delhi,"Pusa, Delhi - DPCC",12-05-2024 23:00:00,28.639652,77.146275,OZONE,7,194,137
India,Delhi,Delhi,"Pusa, Delhi - IMD",12-05-2024 23:00:00,28.636110,77.173332,PM10,31,31,31
India,Delhi,Delhi,"R K Puram, Delhi - DPCC",12-05-2024 23:00:00,28.563262,77.186937,PM10,130,438,178
India,Delhi,Delhi,"R K Puram, Delhi - DPCC",12-05-2024 23:00:00,28.563262,77.186937,NO2,19,122,52
India,Delhi,Delhi,"Sirifort, Delhi - CPCB",12-05-2024 23:00:00,28.5504249,77.2159377,NH3,22,24,23
India,Delhi,Delhi,"Sri Aurobindo Marg, Delhi - DPCC",12-05-2024 23:00:00,28.531346,77.190156,NO2,19,120,51
India,Delhi,Delhi,"Sri Aurobindo Marg, Delhi - DPCC",12-05-2024 23:00:00,28.531346,77.190156,SO2,9,26,19
India,Delhi,Delhi,"Sri Aurobindo Marg, Delhi - DPCC",12-05-2024 23:00:00,28.531346,77.190156,CO,6,71,36
India,Delhi,Delhi,"Sri Aurobindo Marg, Delhi - DPCC",12-05-2024 23:00:00,28.531346,77.190156,OZONE,9,116,69
India,Delhi,Delhi,"Vivek Vihar, Delhi - DPCC",12-05-2024 23:00:00,28.672342,77.315260,NH3,14,16,15
India,Delhi,Delhi,"Vivek Vihar, Delhi - DPCC",12-05-2024 23:00:00,28.672342,77.315260,SO2,34,68,41
India,Gujarat,Ahmedabad,"Chandkheda, Ahmedabad - IITM",12-05-2024 23:00:00,23.107969,72.574648,PM2.5,46,278,87
India,Gujarat,Ahmedabad,"Chandkheda, Ahmedabad - IITM",12-05-2024 23:00:00,23.107969,72.574648,PM10,48,164,77
India,Gujarat,Ahmedabad,"Chandkheda, Ahmedabad - IITM",12-05-2024 23:00:00,23.107969,72.574648,NO2,23,24,23
India,Gujarat,Ahmedabad,"Chandkheda, Ahmedabad - IITM",12-05-2024 23:00:00,23.107969,72.574648,NH3,1,1,1
India,Gujarat,Ahmedabad,"Chandkheda, Ahmedabad - IITM",12-05-2024 23:00:00,23.107969,72.574648,CO,17,71,40
India,Gujarat,Ahmedabad,"Gyaspur, Ahmedabad - IITM",12-05-2024 23:00:00,22.977134,72.553024,NO2,42,50,46
India,Gujarat,Ahmedabad,"Gyaspur, Ahmedabad - IITM",12-05-2024 23:00:00,22.977134,72.553024,SO2,6,61,39
India,Gujarat,Ahmedabad,"Raikhad, Ahmedabad - IITM",12-05-2024 23:00:00,23.020509,72.579261,PM10,NA,NA,NA
India,Gujarat,Ahmedabad,"Raikhad, Ahmedabad - IITM",12-05-2024 23:00:00,23.020509,72.579261,SO2,NA,NA,NA
India,Gujarat,Ahmedabad,"Rakhial, Ahmedabad - IITM",12-05-2024 23:00:00,23.016834,72.625775,PM10,52,500,238
India,Gujarat,Ahmedabad,"Rakhial, Ahmedabad - IITM",12-05-2024 23:00:00,23.016834,72.625775,CO,30,114,88
India,Gujarat,Ahmedabad,"SVPI Airport Hansol, Ahmedabad - IITM",12-05-2024 23:00:00,23.076793,72.627874,PM2.5,42,152,66
India,Gujarat,Ahmedabad,"SVPI Airport Hansol, Ahmedabad - IITM",12-05-2024 23:00:00,23.076793,72.627874,NO2,29,42,37
India,Gujarat,Ahmedabad,"Sardar Vallabhbhai Patel Stadium, Ahmedabad - IITM",12-05-2024 23:00:00,23.043070,72.562968,PM10,59,129,98
India,Gujarat,Gandhinagar,"Sector-10, Gandhinagar - GPCB",12-05-2024 23:00:00,23.221714,72.654328,CO,35,86,43
India,Gujarat,Nandesari,"GIDC, Nandesari - Nandesari Ind. Association",12-05-2024 23:00:00,22.410802,73.097923,PM2.5,55,338,145
India,Gujarat,Vatva,"Phase-4 GIDC, Vatva - GPCB",12-05-2024 23:00:00,22.969611,72.643500,PM2.5,12,48,24
India,Gujarat,Vatva,"Phase-4 GIDC, Vatva - GPCB",12-05-2024 23:00:00,22.969611,72.643500,NO2,14,83,32
India,Gujarat,Vatva,"Phase-4 GIDC, Vatva - GPCB",12-05-2024 23:00:00,22.969611,72.643500,SO2,1,21,7
India,Haryana,Ambala,"Patti Mehar, Ambala - HSPCB",12-05-2024 23:00:00,30.379589,76.778328,PM2.5,40,111,82
India,Haryana,Ambala,"Patti Mehar, Ambala - HSPCB",12-05-2024 23:00:00,30.379589,76.778328,NH3,5,12,8
India,Haryana,Ambala,"Patti Mehar, Ambala - HSPCB",12-05-2024 23:00:00,30.379589,76.778328,SO2,9,27,21
India,Haryana,Bahadurgarh,"Arya Nagar, Bahadurgarh - HSPCB",12-05-2024 23:00:00,28.6701,76.9254,PM10,104,412,149
India,Haryana,Bahadurgarh,"Arya Nagar, Bahadurgarh - HSPCB",12-05-2024 23:00:00,28.6701,76.9254,NH3,8,10,9
India,Haryana,Bahadurgarh,"Arya Nagar, Bahadurgarh - HSPCB",12-05-2024 23:00:00,28.6701,76.9254,CO,90,102,99
India,Haryana,Ballabgarh,"Nathu Colony, Ballabgarh - HSPCB",12-05-2024 23:00:00,28.3419248,77.319699,NO2,12,14,13
India,Haryana,Ballabgarh,"Nathu Colony, Ballabgarh - HSPCB",12-05-2024 23:00:00,28.3419248,77.319699,NH3,1,2,2
India,Haryana,Ballabgarh,"Nathu Colony, Ballabgarh - HSPCB",12-05-2024 23:00:00,28.3419248,77.319699,CO,11,50,33
India,Haryana,Bhiwani,"H.B. Colony, Bhiwani - HSPCB",12-05-2024 23:00:00,28.806223,76.141105,PM10,60,116,88
India,Haryana,Charkhi Dadri,"Mini Secretariat, Charkhi Dadri - HSPCB",12-05-2024 23:00:00,28.593883,76.270653,PM2.5,53,306,137
India,Haryana,Faridabad,"Sector 11, Faridabad - HSPCB",12-05-2024 23:00:00,28.376058,77.315741,PM10,130,248,170
India,Haryana,Fatehabad,"Huda Sector, Fatehabad - HSPCB",12-05-2024 23:00:00,29.503664,75.467934,CO,5,16,7
India,Haryana,Gurugram,"NISE Gwal Pahari, Gurugram - IMD",12-05-2024 23:00:00,28.422681,77.148944,PM10,NA,NA,NA
India,Haryana,Gurugram,"NISE Gwal Pahari, Gurugram - IMD",12-05-2024 23:00:00,28.422681,77.148944,CO,NA,NA,NA
India,Haryana,Gurugram,"Sector-51, Gurugram - HSPCB",12-05-2024 23:00:00,28.4227,77.0667,PM2.5,88,225,149
India,Haryana,Gurugram,"Sector-51, Gurugram - HSPCB",12-05-2024 23:00:00,28.4227,77.0667,NO2,13,29,23
India,Haryana,Gurugram,"Sector-51, Gurugram - HSPCB",12-05-2024 23:00:00,28.4227,77.0667,CO,36,65,44
India,Haryana,Gurugram,"Vikas Sadan, Gurugram - HSPCB",12-05-2024 23:00:00,28.4501238,77.0263051,OZONE,8,69,46
India,Haryana,Jind,"Police Lines, Jind - HSPCB",12-05-2024 23:00:00,29.307814,76.337619,NO2,4,25,11
India,Haryana,Kaithal,"Rishi Nagar, Kaithal - HSPCB",12-05-2024 23:00:00,29.8006,76.4155,NO2,23,26,25
India,Haryana,Karnal,"Sector-12, Karnal - HSPCB",12-05-2024 23:00:00,29.695300,77.002700,SO2,12,13,12
India,Haryana,Kurukshetra,"Sector-7, Kurukshetra - HSPCB",12-05-2024 23:00:00,29.966942,76.875879,NH3,5,5,5
India,Haryana,Mandikhera,"General Hospital, Mandikhera - HSPCB",12-05-2024 23:00:00,27.9002,76.9938,OZONE,22,32,28
India,Haryana,Manesar,"Sector-2 IMT, Manesar - HSPCB",12-05-2024 23:00:00,28.360699,76.936090,NO2,26,84,48
India,Haryana,Narnaul,"Shastri Nagar, Narnaul - HSPCB",12-05-2024 23:00:00,28.060249,76.113115,PM2.5,NA,NA,NA
India,Haryana,Narnaul,"Shastri Nagar, Narnaul - HSPCB",12-05-2024 23:00:00,28.060249,76.113115,NO2,NA,NA,NA
India,Haryana,Narnaul,"Shastri Nagar, Narnaul - HSPCB",12-05-2024 23:00:00,28.060249,76.113115,NH3,NA,NA,NA
India,Haryana,Narnaul,"Shastri Nagar, Narnaul - HSPCB",12-05-2024 23:00:00,28.060249,76.113115,OZONE,35,60,56
India,Haryana,Palwal,"Shyam Nagar, Palwal - HSPCB",12-05-2024 23:00:00,28.1485564,77.3320667,NO2,23,24,24
India,Haryana,Panchkula,"Sector-6, Panchkula - HSPCB ",12-05-2024 23:00:00,30.7057778,76.8531805555555,PM2.5,71,238,157
India,Haryana,Panchkula,"Sector-6, Panchkula - HSPCB ",12-05-2024 23:00:00,30.7057778,76.8531805555555,NO2,9,11,10
India,Haryana,Panchkula,"Sector-6, Panchkula - HSPCB ",12-05-2024 23:00:00,30.7057778,76.8531805555555,CO,2,10,2
India,Haryana,Panipat,"Sector-18, Panipat - HSPCB",12-05-2024 23:00:00,29.497973,76.993331,OZONE,30,30,30
India,Haryana,Rohtak,"MD University, Rohtak - HSPCB",12-05-2024 23:00:00,28.52123,76.37138,CO,5,100,60
India,Haryana,Sirsa,"F-Block, Sirsa - HSPCB",12-05-2024 23:00:00,29.536400,75.015800,PM2.5,38,93,66
India,Haryana,Sonipat,"Murthal, Sonipat - HSPCB",12-05-2024 23:00:00,29.027200,77.062100,PM10,86,88,87
India,Haryana,Sonipat,"Murthal, Sonipat - HSPCB",12-05-2024 23:00:00,29.027200,77.062100,OZONE,16,36,27
India,Haryana,Yamuna Nagar,"Gobind Pura, Yamuna Nagar - HSPCB",12-05-2024 23:00:00,30.1480566,77.2893471,OZONE,45,74,62
India,Himachal Pradesh,Baddi,"HIMUDA Complex Phase-1, Baddi - HPPCB",12-05-2024 23:00:00,30.943887,76.801991,NO2,8,47,19
India,Jharkhand,Dhanbad,"Kalakusuma, Dhanbad - DMC",12-05-2024 23:00:00,23.811548,86.481238,OZONE,68,69,69
India,Jharkhand,Dhanbad,"Sardar Patel Nagar, Dhanbad - JSPCB",12-05-2024 23:00:00,23.80569,86.44268,PM2.5,1,296,62
India,Jharkhand,Dhanbad,"Sardar Patel Nagar, Dhanbad - JSPCB",12-05-2024 23:00:00,23.80569,86.44268,SO2,NA,NA,NA
India,Karnataka,Belgaum,"Ramteerth Nagar, Belgaum - KSPCB",12-05-2024 23:00:00,15.888653,74.541751,NH3,1,5,2
India,Karnataka,Belgaum,"Ramteerth Nagar, Belgaum - KSPCB",12-05-2024 23:00:00,15.888653,74.541751,SO2,8,9,8
India,Karnataka,Belgaum,"Ramteerth Nagar, Belgaum - KSPCB",12-05-2024 23:00:00,15.888653,74.541751,OZONE,19,19,19
India,Karnataka,Bengaluru,"Bapuji Nagar, Bengaluru - KSPCB",12-05-2024 23:00:00,12.951913,77.539784,PM2.5,47,123,70
India,Karnataka,Bengaluru,"Bapuji Nagar, Bengaluru - KSPCB",12-05-2024 23:00:00,12.951913,77.539784,CO,22,72,51
India,Karnataka,Bengaluru,"Hebbal, Bengaluru - KSPCB",12-05-2024 23:00:00,13.029152,77.585901,SO2,20,26,23
India,Karnataka,Bengaluru,"Hebbal, Bengaluru - KSPCB",12-05-2024 23:00:00,13.029152,77.585901,CO,4,31,22
India,Karnataka,Bengaluru,"Jayanagar 5th Block, Bengaluru - KSPCB",12-05-2024 23:00:00,12.920984,77.584908,PM10,28,100,56
India,Karnataka,Bengaluru,"Jayanagar 5th Block, Bengaluru - KSPCB",12-05-2024 23:00:00,12.920984,77.584908,SO2,16,28,22
India,Karnataka,Bengaluru,"Kasturi Nagar, Bengaluru - KSPCB",12-05-2024 23:00:00,13.003872,77.664217,NO2,16,17,17
India,Karnataka,Bengaluru,"Peenya, Bengaluru - CPCB",12-05-2024 23:00:00,13.0270199,77.494094,SO2,9,12,11
India,Karnataka,Bengaluru,"RVCE-Mailasandra, Bengaluru - KSPCB",12-05-2024 23:00:00,12.921418,77.502466,SO2,7,8,8
India,Karnataka,Bengaluru,"Sanegurava Halli, Bengaluru - KSPCB",12-05-2024 23:00:00,12.990328,77.5431385,SO2,NA,NA,NA
India,Karnataka,Bengaluru,"Sanegurava Halli, Bengaluru - KSPCB",12-05-2024 23:00:00,12.990328,77.5431385,CO,NA,NA,NA
India,Karnataka,Bengaluru,"Silk Board, Bengaluru - KSPCB",12-05-2024 23:00:00,12.917348,77.622813,PM10,45,141,87
India,Karnataka,Chamarajanagar,"Urban, Chamarajanagar - KSPCB",12-05-2024 23:00:00,11.55358,76.55521,PM2.5,21,39,32
India,Karnataka,Chamarajanagar,"Urban, Chamarajanagar - KSPCB",12-05-2024 23:00:00,11.55358,76.55521,NO2,22,30,28
India,Karnataka,Chamarajanagar,"Urban, Chamarajanagar - KSPCB",12-05-2024 23:00:00,11.55358,76.55521,SO2,2,7,4
India,Karnataka,Chikkaballapur,"Chikkaballapur Rural, Chikkaballapur - KSPCB",12-05-2024 23:00:00,13.428828,77.731418,NH3,1,2,1
India,Karnataka,Chikkaballapur,"Chikkaballapur Rural, Chikkaballapur - KSPCB",12-05-2024 23:00:00,13.428828,77.731418,CO,14,24,19
India,Karnataka,Chikkaballapur,"Chikkaballapur Rural, Chikkaballapur - KSPCB",12-05-2024 23:00:00,13.428828,77.731418,OZONE,24,25,25
India,Karnataka,Chikkamagaluru,"Kalyana Nagara, Chikkamagaluru - KSPCB",12-05-2024 23:00:00,13.328028,75.797056,CO,11,101,22
India,Karnataka,Chikkamagaluru,"Kalyana Nagara, Chikkamagaluru - KSPCB",12-05-2024 23:00:00,13.328028,75.797056,OZONE,15,28,21
India,Karnataka,Davanagere,"Devaraj Urs Badavane, Davanagere - KSPCB",12-05-2024 23:00:00,14.475800,75.905200,PM10,18,68,42
India,Karnataka,Dharwad,"Kalabhavan, Dharwad - KSPCB",12-05-2024 23:00:00,15.459706,75.008381,SO2,NA,NA,NA
India,Karnataka,Gadag,"Panchal Nagar, Gadag - KSPCB",12-05-2024 23:00:00,15.411456,75.638133,NH3,1,4,2
India,Karnataka,Haveri,"Ashwini Nagar, Haveri - KSPCB",12-05-2024 23:00:00,14.791800,75.389600,OZONE,24,72,62
India,Karnataka,Hubballi,"Lingaraj Nagar, Hubballi - KSPCB",12-05-2024 23:00:00,15.3714823,75.1160168,OZONE,16,84,67
India,Karnataka,Kalaburagi,"Lal Bahadur Shastri Nagar, Kalaburagi - KSPCB",12-05-2024 23:00:00,17.321993,76.822628,PM10,NA,NA,NA
India,Karnataka,Karwar,"KHB Colony, Karwar - KSPCB",12-05-2024 23:00:00,14.816666,74.141003,CO,8,9,8
India,Karnataka,Karwar,"KHB Colony, Karwar - KSPCB",12-05-2024 23:00:00,14.816666,74.141003,OZONE,21,22,21
India,Karnataka,Kolar,"Tamaka Ind. Area, Kolar - KSPCB",12-05-2024 23:00:00,13.1276288,78.1570122,SO2,NA,NA,NA
India,Karnataka,Madikeri,"Stuart Hill, Madikeri - KSPCB",12-05-2024 23:00:00,12.415911,75.735050,PM10,14,45,32
India,Karnataka,Madikeri,"Stuart Hill, Madikeri - KSPCB",12-05-2024 23:00:00,12.415911,75.735050,NO2,3,22,8
India,Karnataka,Madikeri,"Stuart Hill, Madikeri - KSPCB",12-05-2024 23:00:00,12.415911,75.735050,CO,2,80,27
India,Karnataka,Mangalore,"Kadri, Mangalore - KSPCB",12-05-2024 23:00:00,12.889250,74.853000,PM10,41,54,46
India,Karnataka,Mysuru,"Hebbal 1st Stage, Mysuru - KSPCB",12-05-2024 23:00:00,12.21041,76.37376,NH3,1,2,2
India,Karnataka,Mysuru,"Hebbal 1st Stage, Mysuru - KSPCB",12-05-2024 23:00:00,12.21041,76.37376,SO2,1,3,2
India,Karnataka,Raichur,"Haji Colony, Raichur - KSPCB",12-05-2024 23:00:00,16.208139,77.348417,NO2,21,44,32
India,Karnataka,Ramanagara,"Vijay Nagar, Ramanagara - KSPCB",12-05-2024 23:00:00,12.733409,77.298051,CO,4,30,15
India,Karnataka,Ramanagara,"Vijay Nagar, Ramanagara - KSPCB",12-05-2024 23:00:00,12.733409,77.298051,OZONE,27,32,29
India,Karnataka,Shivamogga,"Vinoba Nagara, Shivamogga - KSPCB",12-05-2024 23:00:00,13.940000,75.555917,CO,14,48,37
India,Karnataka,Udupi,"Brahmagiri, Udupi - KSPCB",12-05-2024 23:00:00,13.34194444,74.74694444,NO2,28,30,29
India,Karnataka,Udupi,"Brahmagiri, Udupi - KSPCB",12-05-2024 23:00:00,13.34194444,74.74694444,OZONE,23,23,23
India,Karnataka,Vijayapura,"Ibrahimpur, Vijayapura - KSPCB",12-05-2024 23:00:00,16.802639,75.722694,CO,90,90,90
India,Karnataka,Yadgir,"Collector Office, Yadgir - KSPCB",12-05-2024 23:00:00,16.7602,77.1428,CO,13,20,17
India,Kerala,Eloor,"Udyogamandal, Eloor - Kerala PCB",12-05-2024 23:00:00,10.073232,76.302765,OZONE,11,20,17
India,Kerala,Kollam,"Polayathode, Kollam - Kerala PCB",12-05-2024 23:00:00,8.8787,76.6073,NO2,8,9,8
India,Kerala,Thiruvananthapuram,"Kariavattom, Thiruvananthapuram - Kerala PCB",12-05-2024 23:00:00,8.563700,76.886500,NO2,8,9,9
India,Kerala,Thiruvananthapuram,"Kariavattom, Thiruvananthapuram - Kerala PCB",12-05-2024 23:00:00,8.563700,76.886500,NH3,1,1,1
India,Kerala,Thiruvananthapuram,"Kariavattom, Thiruvananthapuram - Kerala PCB",12-05-2024 23:00:00,8.563700,76.886500,CO,15,18,17
India,Kerala,Thrissur,"Corporation Ground, Thrissur - Kerala PCB",12-05-2024 23:00:00,10.532400,76.215900,OZONE,27,32,30
India,Madhya Pradesh,Bhopal,"Idgah Hills, Bhopal - MPPCB",12-05-2024 23:00:00,23.264759,77.381568,PM2.5,23,60,39
India,Madhya Pradesh,Bhopal,"Idgah Hills, Bhopal - MPPCB",12-05-2024 23:00:00,23.264759,77.381568,NH3,5,6,5
India,Madhya Pradesh,Bhopal,"Idgah Hills, Bhopal - MPPCB",12-05-2024 23:00:00,23.264759,77.381568,OZONE,54,126,92
India,Madhya Pradesh,Bhopal,"Paryavaran Parisar, Bhopal - MPPCB",12-05-2024 23:00:00,23.210494,77.425409,PM10,61,229,113
India,Madhya Pradesh,Bhopal,"Paryavaran Parisar, Bhopal - MPPCB",12-05-2024 23:00:00,23.210494,77.425409,NH3,7,10,8
India,Madhya Pradesh,Bhopal,"Paryavaran Parisar, Bhopal - MPPCB",12-05-2024 23:00:00,23.210494,77.425409,SO2,6,11,9
India,Madhya Pradesh,Bhopal,"T T Nagar, Bhopal - MPPCB",12-05-2024 23:00:00,23.233584,77.400574,SO2,9,26,18
India,Madhya Pradesh,Gwalior,"City Center, Gwalior - MPPCB",12-05-2024 23:00:00,26.203442,78.193251,PM10,67,176,105
India,Madhya Pradesh,Gwalior,"City Center, Gwalior - MPPCB",12-05-2024 23:00:00,26.203442,78.193251,NO2,6,78,17
India,Madhya Pradesh,Gwalior,"City Center, Gwalior - MPPCB",12-05-2024 23:00:00,26.203442,78.193251,SO2,1,27,12
India,Madhya Pradesh,Gwalior,"Deen Dayal Nagar, Gwalior - MPPCB",12-05-2024 23:00:00,26.259242,78.216432,CO,NA,NA,NA
India,Madhya Pradesh,Gwalior,"Maharaj Bada, Gwalior - MPPCB",12-05-2024 23:00:00,26.200388,78.147714,PM2.5,17,87,51
India,Madhya Pradesh,Gwalior,"Maharaj Bada, Gwalior - MPPCB",12-05-2024 23:00:00,26.200388,78.147714,NH3,2,29,7
India,Madhya Pradesh,Gwalior,"Maharaj Bada, Gwalior - MPPCB",12-05-2024 23:00:00,26.200388,78.147714,SO2,NA,NA,NA
India,Madhya Pradesh,Gwalior,"Phool Bagh, Gwalior - Mondelez Ind. Food",12-05-2024 23:00:00,26.210536,78.171,PM10,23,167,112
India,Madhya Pradesh,Indore,"Chhoti Gwaltoli, Indore - MPPCB",12-05-2024 23:00:00,22.4310,75.5213,NO2,46,104,64
India,Madhya Pradesh,Indore,"Chhoti Gwaltoli, Indore - MPPCB",12-05-2024 23:00:00,22.4310,75.5213,NH3,3,5,4
India,Madhya Pradesh,Indore,"Maguda Nagar, Indore - IMC",12-05-2024 23:00:00,22.7524,75.8872,NO2,4,6,5
India,Madhya Pradesh,Indore,"Regional Park, Indore - IMC",12-05-2024 23:00:00,22.6780,75.8559,NH3,1,3,2
India,Madhya Pradesh,Jabalpur,"Marhatal, Jabalpur - MPPCB",12-05-2024 23:00:00,23.168606,79.932247,NO2,13,61,30
