country,state,city,station,last_update,latitude,longitude,pollutant_id,pollutant_min,pollutant_max,pollutant_avg
India,Andhra_Pradesh,Amaravati,"Secretariat, Amaravati - APPCB",17-04-2024 04:00:00,16.5150833,80.5181667,PM10,33,87,55
India,Andhra_Pradesh,Amaravati,"Secretariat, Amaravati - APPCB",17-04-2024 04:00:00,16.5150833,80.5181667,CO,18,50,30
India,Andhra_Pradesh,Anantapur,"Gulzarpet, Anantapur - APPCB",17-04-2024 04:00:00,14.675886,77.593027,NO2,NA,NA,NA
India,Andhra_Pradesh,Chittoor,"Gangineni Cheruvu, Chittoor - APPCB",17-04-2024 04:00:00,13.204880,79.097889,NH3,1,3,1
India,Andhra_Pradesh,Kadapa,"Yerramukkapalli, Kadapa - APPCB",17-04-2024 04:00:00,14.465052,78.824187,SO2,NA,NA,NA
India,Andhra_Pradesh,Tirupati,"Vaikuntapuram, Tirupati - APPCB",17-04-2024 04:00:00,13.615387,79.409230,PM10,21,62,33
India,Andhra_Pradesh,Tirupati,"Vaikuntapuram, Tirupati - APPCB",17-04-2024 04:00:00,13.615387,79.409230,OZONE,11,42,22
India,Andhra_Pradesh,Vijayawada,"HB Colony, Vijayawada - APPCB",17-04-2024 04:00:00,16.536107,80.594233,NO2,NA,NA,NA
India,Andhra_Pradesh,Vijayawada,"HB Colony, Vijayawada - APPCB",17-04-2024 04:00:00,16.536107,80.594233,SO2,NA,NA,NA
India,Andhra_Pradesh,Vijayawada,"Rajiv Nagar, Vijayawada - APPCB",17-04-2024 04:00:00,16.554731,80.649110,SO2,NA,NA,NA
India,Andhra_Pradesh,Vijayawada,"Rajiv Nagar, Vijayawada - APPCB",17-04-2024 04:00:00,16.554731,80.649110,CO,NA,NA,NA
India,Andhra_Pradesh,Visakhapatnam,"GVM Corporation, Visakhapatnam - APPCB",17-04-2024 04:00:00,17.72,83.3,NH3,3,5,4
India,Assam,Byrnihat,"Central Academy for SFS, Byrnihat - PCBA",17-04-2024 04:00:00,26.071318,91.87488,NH3,8,9,9
India,Assam,Byrnihat,"Central Academy for SFS, Byrnihat - PCBA",17-04-2024 04:00:00,26.071318,91.87488,CO,31,48,35
India,Assam,Guwahati,"IITG, Guwahati - PCBA",17-04-2024 04:00:00,26.2028636,91.70046436,NO2,1,3,1
India,Assam,Guwahati,"LGBI Airport, Guwahati - PCBA",17-04-2024 04:00:00,26.10887,91.589544,NO2,30,118,69
India,Assam,Guwahati,"LGBI Airport, Guwahati - PCBA",17-04-2024 04:00:00,26.10887,91.589544,NH3,2,10,6
India,Assam,Guwahati,"Railway Colony, Guwahati - PCBA",17-04-2024 04:00:00,26.181742,91.78063,CO,26,52,32
India,Assam,Nagaon,"Christianpatty, Nagaon - PCBA",17-04-2024 04:00:00,26.349082,92.68449,OZONE,3,76,17
India,Assam,Silchar,"Tarapur, Silchar - PCBA",17-04-2024 04:00:00,24.82827,92.79525,PM2.5,17,58,51
India,Assam,Silchar,"Tarapur, Silchar - PCBA",17-04-2024 04:00:00,24.82827,92.79525,NO2,13,13,13
India,Assam,Silchar,"Tarapur, Silchar - PCBA",17-04-2024 04:00:00,24.82827,92.79525,SO2,2,15,9
India,Assam,Silchar,"Tarapur, Silchar - PCBA",17-04-2024 04:00:00,24.82827,92.79525,CO,28,30,28
India,Assam,Silchar,"Tarapur, Silchar - PCBA",17-04-2024 04:00:00,24.82827,92.79525,OZONE,1,15,1
India,Assam,Sivasagar,"Girls College, Sivasagar - PCBA",17-04-2024 04:00:00,26.987634,94.636574,NO2,11,19,15
India,Bihar,Araria,"Kharahiya Basti, Araria - BSPCB",17-04-2024 04:00:00,26.146529,87.454184,PM2.5,58,131,89
India,Bihar,Araria,"Kharahiya Basti, Araria - BSPCB",17-04-2024 04:00:00,26.146529,87.454184,CO,2,34,27
India,Bihar,Arrah,"New DM Office, Arrah - BSPCB",17-04-2024 04:00:00,25.5626095,84.663264,PM10,72,296,126
India,Bihar,Arrah,"New DM Office, Arrah - BSPCB",17-04-2024 04:00:00,25.5626095,84.663264,NH3,3,5,4
India,Bihar,Aurangabad,"Gurdeo Nagar, Aurangabad - BSPCB",17-04-2024 04:00:00,24.75746,84.366208,OZONE,16,79,26
India,Bihar,Bettiah,"Kamalnath Nagar, Bettiah - BSPCB",17-04-2024 04:00:00,26.80365,84.51954,PM10,56,421,139
India,Bihar,Bhagalpur,"Mayaganj, Bhagalpur - BSPCB",17-04-2024 04:00:00,25.265194,87.012947,PM2.5,52,290,121
India,Bihar,Bhagalpur,"Mayaganj, Bhagalpur - BSPCB",17-04-2024 04:00:00,25.265194,87.012947,NO2,3,10,7
India,Bihar,Bihar Sharif,"D M Colony, Bihar Sharif - BSPCB",17-04-2024 04:00:00,25.204762,85.514960,PM10,53,141,83
India,Bihar,Bihar Sharif,"D M Colony, Bihar Sharif - BSPCB",17-04-2024 04:00:00,25.204762,85.514960,NO2,9,11,10
India,Bihar,Bihar Sharif,"D M Colony, Bihar Sharif - BSPCB",17-04-2024 04:00:00,25.204762,85.514960,SO2,1,16,10
India,Bihar,Bihar Sharif,"D M Colony, Bihar Sharif - BSPCB",17-04-2024 04:00:00,25.204762,85.514960,OZONE,17,69,55
India,Bihar,Chhapra,"Darshan Nagar, Chhapra - BSPCB",17-04-2024 04:00:00,25.7808257,84.7446768,PM10,140,187,161
India,Bihar,Chhapra,"Darshan Nagar, Chhapra - BSPCB",17-04-2024 04:00:00,25.7808257,84.7446768,CO,42,66,56
India,Bihar,Chhapra,"Darshan Nagar, Chhapra - BSPCB",17-04-2024 04:00:00,25.7808257,84.7446768,OZONE,1,10,1
India,Bihar,Gaya,"Kareemganj, Gaya - BSPCB",17-04-2024 04:00:00,24.792403,84.992416,NH3,1,5,3
India,Bihar,Gaya,"SFTI Kusdihra, Gaya - BSPCB",17-04-2024 04:00:00,24.762518,84.982348,OZONE,NA,NA,NA
India,Bihar,Katihar,"Mirchaibari, Katihar - BSPCB",17-04-2024 04:00:00,25.560083,87.553265,OZONE,9,17,12
India,Bihar,Kishanganj,"SDM Office_Khagra, Kishanganj - BSPCB",17-04-2024 04:00:00,26.0881305,87.93840336,NH3,9,10,10
India,Bihar,Kishanganj,"SDM Office_Khagra, Kishanganj - BSPCB",17-04-2024 04:00:00,26.0881305,87.93840336,SO2,1,3,2
India,Bihar,Manguraha,"Forest Rest House, Manguraha - BSPCB",17-04-2024 04:00:00,27.308328,84.531742,NH3,2,3,2
India,Bihar,Manguraha,"Forest Rest House, Manguraha - BSPCB",17-04-2024 04:00:00,27.308328,84.531742,OZONE,15,63,33
India,Bihar,Motihari,"Gandak Colony, Motihari - BSPCB",17-04-2024 04:00:00,26.63086,84.90051,CO,2,12,6
India,Bihar,Motihari,"Gandak Colony, Motihari - BSPCB",17-04-2024 04:00:00,26.63086,84.90051,OZONE,20,93,47
India,Bihar,Munger,"Town Hall, Munger - BSPCB",17-04-2024 04:00:00,25.376776,86.471523,NO2,7,9,8
India,Bihar,Munger,"Town Hall, Munger - BSPCB",17-04-2024 04:00:00,25.376776,86.471523,NH3,1,2,2
India,Bihar,Munger,"Town Hall, Munger - BSPCB",17-04-2024 04:00:00,25.376776,86.471523,SO2,10,16,13
India,Bihar,Muzaffarpur,"Buddha Colony, Muzaffarpur - BSPCB",17-04-2024 04:00:00,26.11442,85.39813,NO2,26,57,37
India,Bihar,Muzaffarpur,"MIT-Daudpur Kothi, Muzaffarpur - BSPCB",17-04-2024 04:00:00,26.1403345,85.3650192,NH3,3,4,4
India,Bihar,Muzaffarpur,"Muzaffarpur Collectorate, Muzaffarpur - BSPCB",17-04-2024 04:00:00,26.1209,85.3647,SO2,5,16,9
India,Bihar,Muzaffarpur,"Muzaffarpur Collectorate, Muzaffarpur - BSPCB",17-04-2024 04:00:00,26.1209,85.3647,OZONE,44,155,52
India,Bihar,Patna,"DRM Office Danapur, Patna - BSPCB",17-04-2024 04:00:00,25.586562,85.043586,PM2.5,92,310,171
India,Bihar,Patna,"DRM Office Danapur, Patna - BSPCB",17-04-2024 04:00:00,25.586562,85.043586,NH3,3,3,3
India,Bihar,Patna,"DRM Office Danapur, Patna - BSPCB",17-04-2024 04:00:00,25.586562,85.043586,SO2,6,8,7
India,Bihar,Patna,"DRM Office Danapur, Patna - BSPCB",17-04-2024 04:00:00,25.586562,85.043586,CO,7,95,41
India,Bihar,Patna,"Govt. High School Shikarpur, Patna - BSPCB",17-04-2024 04:00:00,25.592539,85.227158,NO2,19,24,21
India,Bihar,Patna,"IGSC Planetarium Complex, Patna - BSPCB",17-04-2024 04:00:00,25.610369,85.132568,NO2,11,11,11
India,Bihar,Patna,"Muradpur, Patna - BSPCB",17-04-2024 04:00:00,25.619651,85.147382,PM10,145,370,248
India,Bihar,Patna,"Muradpur, Patna - BSPCB",17-04-2024 04:00:00,25.619651,85.147382,CO,8,57,35
India,Bihar,Patna,"Rajbansi Nagar, Patna - BSPCB",17-04-2024 04:00:00,25.599486,85.113666,NO2,14,34,22
India,Bihar,Rajgir,"Dangi Tola, Rajgir - BSPCB",17-04-2024 04:00:00,25.03280,85.41948,PM10,26,85,56
India,Bihar,Rajgir,"Dangi Tola, Rajgir - BSPCB",17-04-2024 04:00:00,25.03280,85.41948,CO,17,50,38
India,Bihar,Rajgir,"Dangi Tola, Rajgir - BSPCB",17-04-2024 04:00:00,25.03280,85.41948,OZONE,31,37,34
India,Bihar,Saharsa,"Police Line, Saharsa - BSPCB",17-04-2024 04:00:00,25.892357,86.590325,CO,NA,NA,NA
India,Bihar,Saharsa,"Police Line, Saharsa - BSPCB",17-04-2024 04:00:00,25.892357,86.590325,OZONE,3,52,20
India,Bihar,Samastipur,"DM Office_Kasipur, Samastipur - BSPCB",17-04-2024 04:00:00,25.859655,85.77944,PM10,NA,NA,NA
India,Bihar,Siwan,"Chitragupta Nagar, Siwan - BSPCB",17-04-2024 04:00:00,26.2271665,84.3570427,CO,88,130,114
India,Chandigarh,Chandigarh,"Sector 22, Chandigarh - CPCC",17-04-2024 04:00:00,30.735567,76.775714,CO,30,44,38
India,Chandigarh,Chandigarh,"Sector-25, Chandigarh - CPCC",17-04-2024 04:00:00,30.751462,76.762879,SO2,7,40,12
India,Chandigarh,Chandigarh,"Sector-53, Chandigarh - CPCC",17-04-2024 04:00:00,30.719859,76.738637,NH3,5,7,6
India,Chandigarh,Chandigarh,"Sector-53, Chandigarh - CPCC",17-04-2024 04:00:00,30.719859,76.738637,CO,22,64,46
India,Chhattisgarh,Bhilai,"Hathkhoj, Bhilai - CECB",17-04-2024 04:00:00,21.224231,81.408350,PM2.5,52,141,84
India,Chhattisgarh,Chhal,"Nawapara SECL Colony, Chhal - CECB",17-04-2024 04:00:00,22.118125,83.140608,PM2.5,52,116,71
India,Chhattisgarh,Chhal,"Nawapara SECL Colony, Chhal - CECB",17-04-2024 04:00:00,22.118125,83.140608,NH3,2,2,2
India,Chhattisgarh,Kunjemura,"OP Jindal School, Kunjemura - CECB",17-04-2024 04:00:00,22.126650,83.483212,PM10,40,247,129
India,Chhattisgarh,Kunjemura,"OP Jindal School, Kunjemura - CECB",17-04-2024 04:00:00,22.126650,83.483212,NH3,1,7,3
India,Chhattisgarh,Kunjemura,"OP Jindal School, Kunjemura - CECB",17-04-2024 04:00:00,22.126650,83.483212,SO2,4,19,10
India,Chhattisgarh,Kunjemura,"OP Jindal School, Kunjemura - CECB",17-04-2024 04:00:00,22.126650,83.483212,OZONE,3,78,12
India,Chhattisgarh,Raipur,"Bhatagaon New ISBT, Raipur - CECB",17-04-2024 04:00:00,21.219665,81.630094,PM10,42,122,71
India,Chhattisgarh,Raipur,"Siltara Phase-II, Raipur - CECB",17-04-2024 04:00:00,21.371751,81.664929,PM10,57,197,135
India,Chhattisgarh,Raipur,"Siltara Phase-II, Raipur - CECB",17-04-2024 04:00:00,21.371751,81.664929,CO,2,56,48
India,Chhattisgarh,Tumidih,"OP Jindal Industrial Park, Tumidih - CECB",17-04-2024 04:00:00,22.06631475,83.33820077,CO,20,36,29
India,Chhattisgarh,Tumidih,"OP Jindal Industrial Park, Tumidih - CECB",17-04-2024 04:00:00,22.06631475,83.33820077,OZONE,22,69,34
India,Delhi,Delhi,"Alipur, Delhi - DPCC",17-04-2024 04:00:00,28.815329,77.153010,PM2.5,15,408,123
India,Delhi,Delhi,"Anand Vihar, Delhi - DPCC",17-04-2024 04:00:00,28.647622,77.3158090,NH3,NA,NA,NA
India,Delhi,Delhi,"Anand Vihar, Delhi - DPCC",17-04-2024 04:00:00,28.647622,77.3158090,OZONE,28,55,43
India,Delhi,Delhi,"Ashok Vihar, Delhi - DPCC",17-04-2024 04:00:00,28.695381,77.181665,PM2.5,18,400,131
India,Delhi,Delhi,"Ashok Vihar, Delhi - DPCC",17-04-2024 04:00:00,28.695381,77.181665,CO,4,43,24
India,Delhi,Delhi,"Bawana, Delhi - DPCC",17-04-2024 04:00:00,28.776200,77.051074,PM2.5,38,500,185
India,Delhi,Delhi,"Chandni Chowk, Delhi - IITM",17-04-2024 04:00:00,28.656756,77.227234,CO,42,50,49
India,Delhi,Delhi,"Dr. Karni Singh Shooting Range, Delhi - DPCC",17-04-2024 04:00:00,28.498571,77.264840,PM2.5,13,304,116
India,Delhi,Delhi,"Dr. Karni Singh Shooting Range, Delhi - DPCC",17-04-2024 04:00:00,28.498571,77.264840,NO2,21,113,56
India,Delhi,Delhi,"Dwarka-Sector 8, Delhi - DPCC ",17-04-2024 04:00:00,28.5710274,77.0719006,SO2,1,28,11
India,Delhi,Delhi,"IHBAS, Dilshad Garden, Delhi - CPCB",17-04-2024 04:00:00,28.6811736,77.3025234,NO2,28,103,55
India,Delhi,Delhi,"IHBAS, Dilshad Garden, Delhi - CPCB",17-04-2024 04:00:00,28.6811736,77.3025234,SO2,3,30,21
India,Delhi,Delhi,"IHBAS, Dilshad Garden, Delhi - CPCB",17-04-2024 04:00:00,28.6811736,77.3025234,OZONE,1,101,32
India,Delhi,Delhi,"ITO, Delhi - CPCB",17-04-2024 04:00:00,28.628624,77.241060,NO2,15,152,68
India,Delhi,Delhi,"ITO, Delhi - CPCB",17-04-2024 04:00:00,28.628624,77.241060,SO2,4,26,11
India,Delhi,Delhi,"ITO, Delhi - CPCB",17-04-2024 04:00:00,28.628624,77.241060,CO,27,53,41
India,Delhi,Delhi,"Jahangirpuri, Delhi - DPCC",17-04-2024 04:00:00,28.732820,77.170633,NH3,18,29,26
India,Delhi,Delhi,"Jahangirpuri, Delhi - DPCC",17-04-2024 04:00:00,28.732820,77.170633,OZONE,7,54,25
India,Delhi,Delhi,"Jawaharlal Nehru Stadium, Delhi - DPCC",17-04-2024 04:00:00,28.580280,77.233829,PM10,67,261,132
India,Delhi,Delhi,"Jawaharlal Nehru Stadium, Delhi - DPCC",17-04-2024 04:00:00,28.580280,77.233829,NO2,22,129,54
India,Delhi,Delhi,"Jawaharlal Nehru Stadium, Delhi - DPCC",17-04-2024 04:00:00,28.580280,77.233829,SO2,4,55,20
India,Delhi,Delhi,"Jawaharlal Nehru Stadium, Delhi - DPCC",17-04-2024 04:00:00,28.580280,77.233829,OZONE,1,128,69
India,Delhi,Delhi,"Lodhi Road, Delhi - IITM",17-04-2024 04:00:00,28.588333,77.221667,PM2.5,NA,NA,NA
India,Delhi,Delhi,"Lodhi Road, Delhi - IITM",17-04-2024 04:00:00,28.588333,77.221667,NH3,NA,NA,NA
India,Delhi,Delhi,"Lodhi Road, Delhi - IITM",17-04-2024 04:00:00,28.588333,77.221667,SO2,NA,NA,NA
India,Delhi,Delhi,"Lodhi Road, Delhi - IITM",17-04-2024 04:00:00,28.588333,77.221667,OZONE,16,19,16
India,Delhi,Delhi,"Major Dhyan Chand National Stadium, Delhi - DPCC",17-04-2024 04:00:00,28.611281,77.237738,NO2,22,128,58
India,Delhi,Delhi,"Major Dhyan Chand National Stadium, Delhi - DPCC",17-04-2024 04:00:00,28.611281,77.237738,SO2,3,10,7
India,Delhi,Delhi,"Major Dhyan Chand National Stadium, Delhi - DPCC",17-04-2024 04:00:00,28.611281,77.237738,CO,22,76,36
India,Delhi,Delhi,"Major Dhyan Chand National Stadium, Delhi - DPCC",17-04-2024 04:00:00,28.611281,77.237738,OZONE,2,102,56
India,Delhi,Delhi,"Mandir Marg, Delhi - DPCC",17-04-2024 04:00:00,28.636429,77.201067,PM2.5,16,338,108
India,Delhi,Delhi,"Mandir Marg, Delhi - DPCC",17-04-2024 04:00:00,28.636429,77.201067,PM10,55,208,110
India,Delhi,Delhi,"Mandir Marg, Delhi - DPCC",17-04-2024 04:00:00,28.636429,77.201067,NO2,101,118,109
India,Delhi,Delhi,"Mundka, Delhi - DPCC",17-04-2024 04:00:00,28.684678,77.076574,PM2.5,23,472,176
India,Delhi,Delhi,"NSIT Dwarka, Delhi - CPCB",17-04-2024 04:00:00,28.60909,77.0325413,SO2,2,44,21
India,Delhi,Delhi,"Najafgarh, Delhi - DPCC",17-04-2024 04:00:00,28.570173,76.933762,NH3,8,10,9
India,Delhi,Delhi,"Narela, Delhi - DPCC",17-04-2024 04:00:00,28.822836,77.101981,PM2.5,23,493,147
India,Delhi,Delhi,"Narela, Delhi - DPCC",17-04-2024 04:00:00,28.822836,77.101981,NO2,8,84,29
India,Delhi,Delhi,"Narela, Delhi - DPCC",17-04-2024 04:00:00,28.822836,77.101981,NH3,6,14,9
India,Delhi,Delhi,"Narela, Delhi - DPCC",17-04-2024 04:00:00,28.822836,77.101981,CO,16,60,36
India,Delhi,Delhi,"Nehru Nagar, Delhi - DPCC",17-04-2024 04:00:00,28.567890,77.250515,PM10,63,278,135
India,Delhi,Delhi,"Okhla Phase-2, Delhi - DPCC",17-04-2024 04:00:00,28.530785,77.271255,PM2.5,11,315,103
India,Delhi,Delhi,"Punjabi Bagh, Delhi - DPCC",17-04-2024 04:00:00,28.674045,77.131023,PM10,93,395,172
India,Delhi,Delhi,"Punjabi Bagh, Delhi - DPCC",17-04-2024 04:00:00,28.674045,77.131023,OZONE,3,17,9
India,Delhi,Delhi,"Pusa, Delhi - DPCC",17-04-2024 04:00:00,28.639652,77.146275,PM2.5,18,344,117
India,Delhi,Delhi,"R K Puram, Delhi - DPCC",17-04-2024 04:00:00,28.563262,77.186937,NO2,22,124,60
India,Delhi,Delhi,"Rohini, Delhi - DPCC",17-04-2024 04:00:00,28.732528,77.119920,SO2,2,49,19
India,Delhi,Delhi,"Rohini, Delhi - DPCC",17-04-2024 04:00:00,28.732528,77.119920,CO,12,87,20
India,Delhi,Delhi,"Rohini, Delhi - DPCC",17-04-2024 04:00:00,28.732528,77.119920,OZONE,3,73,54
India,Delhi,Delhi,"Shadipur, Delhi - CPCB",17-04-2024 04:00:00,28.6514781,77.1473105,PM10,67,310,136
India,Delhi,Delhi,"Shadipur, Delhi - CPCB",17-04-2024 04:00:00,28.6514781,77.1473105,NH3,7,10,9
India,Delhi,Delhi,"Sonia Vihar, Delhi - DPCC",17-04-2024 04:00:00,28.710508,77.249485,PM10,71,407,160
India,Delhi,Delhi,"Sonia Vihar, Delhi - DPCC",17-04-2024 04:00:00,28.710508,77.249485,NH3,6,10,8
India,Delhi,Delhi,"Vivek Vihar, Delhi - DPCC",17-04-2024 04:00:00,28.672342,77.315260,OZONE,5,75,44
India,Delhi,Delhi,"Wazirpur, Delhi - DPCC",17-04-2024 04:00:00,28.699793,77.165453,SO2,9,56,18
India,Gujarat,Ahmedabad,"Chandkheda, Ahmedabad - IITM",17-04-2024 04:00:00,23.107969,72.574648,SO2,4,21,9
India,Gujarat,Ahmedabad,"Gyaspur, Ahmedabad - IITM",17-04-2024 04:00:00,22.977134,72.553024,SO2,3,6,4
India,Gujarat,Ahmedabad,"Gyaspur, Ahmedabad - IITM",17-04-2024 04:00:00,22.977134,72.553024,CO,1,16,5
India,Gujarat,Ahmedabad,"Raikhad, Ahmedabad - IITM",17-04-2024 04:00:00,23.020509,72.579261,PM2.5,68,274,105
India,Gujarat,Ahmedabad,"Raikhad, Ahmedabad - IITM",17-04-2024 04:00:00,23.020509,72.579261,NH3,NA,NA,NA
India,Gujarat,Ahmedabad,"Raikhad, Ahmedabad - IITM",17-04-2024 04:00:00,23.020509,72.579261,OZONE,7,31,12
India,Gujarat,Ahmedabad,"Rakhial, Ahmedabad - IITM",17-04-2024 04:00:00,23.016834,72.625775,NO2,5,24,11
India,Gujarat,Ahmedabad,"Rakhial, Ahmedabad - IITM",17-04-2024 04:00:00,23.016834,72.625775,NH3,2,3,2
India,Gujarat,Ahmedabad,"SVPI Airport Hansol, Ahmedabad - IITM",17-04-2024 04:00:00,23.076793,72.627874,NO2,12,17,15
India,Gujarat,Ahmedabad,"Sardar Vallabhbhai Patel Stadium, Ahmedabad - IITM",17-04-2024 04:00:00,23.043070,72.562968,OZONE,12,20,14
India,Gujarat,Ankleshwar,"GIDC, Ankleshwar - GPCB",17-04-2024 04:00:00,21.613267,73.010555,PM2.5,31,78,56
India,Gujarat,Ankleshwar,"GIDC, Ankleshwar - GPCB",17-04-2024 04:00:00,21.613267,73.010555,NO2,32,33,32
India,Gujarat,Surat,"Science Center, Surat - SMC",17-04-2024 04:00:00,21.170046,72.795405,CO,28,46,39
India,Gujarat,Vapi,"Phase-1 GIDC, Vapi - GPCB",17-04-2024 04:00:00,20.362421,72.918013,NO2,6,7,6
India,Gujarat,Vapi,"Phase-1 GIDC, Vapi - GPCB",17-04-2024 04:00:00,20.362421,72.918013,NH3,2,2,2
India,Gujarat,Vapi,"Phase-1 GIDC, Vapi - GPCB",17-04-2024 04:00:00,20.362421,72.918013,OZONE,2,7,3
India,Gujarat,Vatva,"Phase-4 GIDC, Vatva - GPCB",17-04-2024 04:00:00,22.969611,72.643500,NH3,1,10,4
India,Gujarat,Vatva,"Phase-4 GIDC, Vatva - GPCB",17-04-2024 04:00:00,22.969611,72.643500,SO2,8,27,16
India,Gujarat,Vatva,"Phase-4 GIDC, Vatva - GPCB",17-04-2024 04:00:00,22.969611,72.643500,CO,34,36,35
India,Haryana,Ambala,"Patti Mehar, Ambala - HSPCB",17-04-2024 04:00:00,30.379589,76.778328,PM2.5,28,88,50
India,Haryana,Ambala,"Patti Mehar, Ambala - HSPCB",17-04-2024 04:00:00,30.379589,76.778328,NH3,8,8,8
India,Haryana,Bahadurgarh,"Arya Nagar, Bahadurgarh - HSPCB",17-04-2024 04:00:00,28.6701,76.9254,PM10,68,409,126
India,Haryana,Ballabgarh,"Nathu Colony, Ballabgarh - HSPCB",17-04-2024 04:00:00,28.3419248,77.319699,PM2.5,77,330,191
India,Haryana,Ballabgarh,"Nathu Colony, Ballabgarh - HSPCB",17-04-2024 04:00:00,28.3419248,77.319699,SO2,1,54,19
India,Haryana,Bhiwani,"H.B. Colony, Bhiwani - HSPCB",17-04-2024 04:00:00,28.806223,76.141105,OZONE,6,34,32
India,Haryana,Charkhi Dadri,"Mini Secretariat, Charkhi Dadri - HSPCB",17-04-2024 04:00:00,28.593883,76.270653,PM2.5,51,145,84
India,Haryana,Charkhi Dadri,"Mini Secretariat, Charkhi Dadri - HSPCB",17-04-2024 04:00:00,28.593883,76.270653,PM10,51,115,80
India,Haryana,Dharuhera,"Municipal Corporation Office, Dharuhera -  HSPCB",17-04-2024 04:00:00,28.206800,76.799700,OZONE,22,51,33
India,Haryana,Faridabad,"Sector 11, Faridabad - HSPCB",17-04-2024 04:00:00,28.376058,77.315741,NH3,6,6,6
India,Haryana,Faridabad,"Sector 11, Faridabad - HSPCB",17-04-2024 04:00:00,28.376058,77.315741,CO,49,52,50
India,Haryana,Faridabad,"Sector 30, Faridabad - HSPCB",17-04-2024 04:00:00,28.4417,77.3217,PM2.5,93,103,96
India,Haryana,Faridabad,"Sector 30, Faridabad - HSPCB",17-04-2024 04:00:00,28.4417,77.3217,PM10,140,149,144
India,Haryana,Faridabad,"Sector 30, Faridabad - HSPCB",17-04-2024 04:00:00,28.4417,77.3217,CO,58,64,59
India,Haryana,Gurugram,"Sector-51, Gurugram - HSPCB",17-04-2024 04:00:00,28.4227,77.0667,NH3,7,14,9
India,Haryana,Gurugram,"Sector-51, Gurugram - HSPCB",17-04-2024 04:00:00,28.4227,77.0667,SO2,2,4,3
India,Haryana,Hisar,"Urban Estate-II, Hisar - HSPCB",17-04-2024 04:00:00,29.140560,75.744941,SO2,5,69,44
India,Haryana,Jind,"Police Lines, Jind - HSPCB",17-04-2024 04:00:00,29.307814,76.337619,SO2,1,14,6
India,Haryana,Kaithal,"Rishi Nagar, Kaithal - HSPCB",17-04-2024 04:00:00,29.8006,76.4155,CO,2,27,12
India,Haryana,Karnal,"Sector-12, Karnal - HSPCB",17-04-2024 04:00:00,29.695300,77.002700,PM2.5,60,109,84
India,Haryana,Karnal,"Sector-12, Karnal - HSPCB",17-04-2024 04:00:00,29.695300,77.002700,PM10,55,103,83
India,Haryana,Karnal,"Sector-12, Karnal - HSPCB",17-04-2024 04:00:00,29.695300,77.002700,NO2,7,12,10
India,Haryana,Karnal,"Sector-12, Karnal - HSPCB",17-04-2024 04:00:00,29.695300,77.002700,OZONE,27,36,34
India,Haryana,Kurukshetra,"Sector-7, Kurukshetra - HSPCB",17-04-2024 04:00:00,29.966942,76.875879,PM2.5,54,101,73
India,Haryana,Mandikhera,"General Hospital, Mandikhera - HSPCB",17-04-2024 04:00:00,27.9002,76.9938,NH3,16,20,18
India,Haryana,Mandikhera,"General Hospital, Mandikhera - HSPCB",17-04-2024 04:00:00,27.9002,76.9938,SO2,32,37,34
India,Haryana,Mandikhera,"General Hospital, Mandikhera - HSPCB",17-04-2024 04:00:00,27.9002,76.9938,CO,10,30,13
India,Haryana,Manesar,"Sector-2 IMT, Manesar - HSPCB",17-04-2024 04:00:00,28.360699,76.936090,OZONE,9,70,29
India,Haryana,Narnaul,"Shastri Nagar, Narnaul - HSPCB",17-04-2024 04:00:00,28.060249,76.113115,PM2.5,43,55,51
India,Haryana,Palwal,"Shyam Nagar, Palwal - HSPCB",17-04-2024 04:00:00,28.1485564,77.3320667,SO2,NA,NA,NA
India,Haryana,Panipat,"Sector-18, Panipat - HSPCB",17-04-2024 04:00:00,29.497973,76.993331,NO2,31,32,31
India,Haryana,Panipat,"Sector-18, Panipat - HSPCB",17-04-2024 04:00:00,29.497973,76.993331,SO2,18,19,19
India,Haryana,Panipat,"Sector-18, Panipat - HSPCB",17-04-2024 04:00:00,29.497973,76.993331,OZONE,30,30,30
India,Haryana,Sirsa,"F-Block, Sirsa - HSPCB",17-04-2024 04:00:00,29.536400,75.015800,SO2,1,36,8
India,Haryana,Sonipat,"Murthal, Sonipat - HSPCB",17-04-2024 04:00:00,29.027200,77.062100,PM2.5,48,52,49
India,Haryana,Sonipat,"Murthal, Sonipat - HSPCB",17-04-2024 04:00:00,29.027200,77.062100,OZONE,17,36,18
India,Haryana,Yamuna Nagar,"Gobind Pura, Yamuna Nagar - HSPCB",17-04-2024 04:00:00,30.1480566,77.2893471,CO,30,48,46
India,Jharkhand,Dhanbad,"Kalakusuma, Dhanbad - DMC",17-04-2024 04:00:00,23.811548,86.481238,PM10,88,198,132
India,Jharkhand,Dhanbad,"Kalakusuma, Dhanbad - DMC",17-04-2024 04:00:00,23.811548,86.481238,CO,130,134,132
India,Jharkhand,Dhanbad,"Sardar Patel Nagar, Dhanbad - JSPCB",17-04-2024 04:00:00,23.80569,86.44268,NO2,3,429,215
India,Jharkhand,Dhanbad,"Sardar Patel Nagar, Dhanbad - JSPCB",17-04-2024 04:00:00,23.80569,86.44268,CO,31,190,190
India,Jharkhand,Dhanbad,"Sardar Patel Nagar, Dhanbad - JSPCB",17-04-2024 04:00:00,23.80569,86.44268,OZONE,11,18,13
India,Karnataka,Bagalkot,"Vidayagiri, Bagalkot - KSPCB",17-04-2024 04:00:00,16.172806,75.659694,NH3,1,2,1
India,Karnataka,Bagalkot,"Vidayagiri, Bagalkot - KSPCB",17-04-2024 04:00:00,16.172806,75.659694,SO2,NA,NA,NA
India,Karnataka,Belgaum,"Ramteerth Nagar, Belgaum - KSPCB",17-04-2024 04:00:00,15.888653,74.541751,PM10,24,71,47
India,Karnataka,Bengaluru,"BTM Layout, Bengaluru - CPCB",17-04-2024 04:00:00,12.9135218,77.5950804,NH3,4,4,4
India,Karnataka,Bengaluru,"Bapuji Nagar, Bengaluru - KSPCB",17-04-2024 04:00:00,12.951913,77.539784,CO,40,54,46
India,Karnataka,Bengaluru,"Hebbal, Bengaluru - KSPCB",17-04-2024 04:00:00,13.029152,77.585901,SO2,14,23,18
India,Karnataka,Bengaluru,"Hombegowda Nagar, Bengaluru - KSPCB",17-04-2024 04:00:00,12.938539,77.590100,NH3,1,2,1
India,Karnataka,Bengaluru,"Hombegowda Nagar, Bengaluru - KSPCB",17-04-2024 04:00:00,12.938539,77.590100,SO2,3,4,3
India,Karnataka,Bengaluru,"Hombegowda Nagar, Bengaluru - KSPCB",17-04-2024 04:00:00,12.938539,77.590100,CO,11,14,12
India,Karnataka,Bengaluru,"Hombegowda Nagar, Bengaluru - KSPCB",17-04-2024 04:00:00,12.938539,77.590100,OZONE,3,5,5
India,Karnataka,Bengaluru,"Sanegurava Halli, Bengaluru - KSPCB",17-04-2024 04:00:00,12.990328,77.5431385,PM10,36,65,46
India,Karnataka,Bengaluru,"Silk Board, Bengaluru - KSPCB",17-04-2024 04:00:00,12.917348,77.622813,PM10,30,107,55
India,Karnataka,Bidar,"Naubad, Bidar - KSPCB",17-04-2024 04:00:00,17.930306,77.482194,PM2.5,53,89,68
India,Karnataka,Bidar,"Naubad, Bidar - KSPCB",17-04-2024 04:00:00,17.930306,77.482194,NO2,7,9,8
India,Karnataka,Bidar,"Naubad, Bidar - KSPCB",17-04-2024 04:00:00,17.930306,77.482194,SO2,16,21,18
India,Karnataka,Bidar,"Naubad, Bidar - KSPCB",17-04-2024 04:00:00,17.930306,77.482194,OZONE,23,51,37
India,Karnataka,Chamarajanagar,"Urban, Chamarajanagar - KSPCB",17-04-2024 04:00:00,11.55358,76.55521,PM10,34,58,42
India,Karnataka,Chamarajanagar,"Urban, Chamarajanagar - KSPCB",17-04-2024 04:00:00,11.55358,76.55521,NO2,22,35,28
India,Karnataka,Chamarajanagar,"Urban, Chamarajanagar - KSPCB",17-04-2024 04:00:00,11.55358,76.55521,SO2,2,8,4
India,Karnataka,Chikkaballapur,"Chikkaballapur Rural, Chikkaballapur - KSPCB",17-04-2024 04:00:00,13.428828,77.731418,CO,13,18,16
India,Karnataka,Chikkamagaluru,"Kalyana Nagara, Chikkamagaluru - KSPCB",17-04-2024 04:00:00,13.328028,75.797056,SO2,NA,NA,NA
India,Karnataka,Dharwad,"Kalabhavan, Dharwad - KSPCB",17-04-2024 04:00:00,15.459706,75.008381,NH3,3,3,3
India,Karnataka,Gadag,"Panchal Nagar, Gadag - KSPCB",17-04-2024 04:00:00,15.411456,75.638133,PM2.5,NA,NA,NA
India,Karnataka,Gadag,"Panchal Nagar, Gadag - KSPCB",17-04-2024 04:00:00,15.411456,75.638133,NH3,NA,NA,NA
India,Karnataka,Hassan,"B.Katihalli, Hassan - KSPCB",17-04-2024 04:00:00,13.008556,76.125258,CO,12,20,16
India,Karnataka,Haveri,"Ashwini Nagar, Haveri - KSPCB",17-04-2024 04:00:00,14.791800,75.389600,SO2,NA,NA,NA
India,Karnataka,Hubballi,"Deshpande Nagar, Hubballi - KSPCB",17-04-2024 04:00:00,15.351773,75.140726,NO2,25,27,26
India,Karnataka,Hubballi,"Deshpande Nagar, Hubballi - KSPCB",17-04-2024 04:00:00,15.351773,75.140726,NH3,4,6,5
India,Karnataka,Hubballi,"Deshpande Nagar, Hubballi - KSPCB",17-04-2024 04:00:00,15.351773,75.140726,OZONE,3,30,6
India,Karnataka,Kalaburagi,"Lal Bahadur Shastri Nagar, Kalaburagi - KSPCB",17-04-2024 04:00:00,17.321993,76.822628,SO2,10,12,11
India,Karnataka,Karwar,"KHB Colony, Karwar - KSPCB",17-04-2024 04:00:00,14.816666,74.141003,OZONE,21,22,21
India,Karnataka,Kolar,"Tamaka Ind. Area, Kolar - KSPCB",17-04-2024 04:00:00,13.1276288,78.1570122,NO2,NA,NA,NA
India,Karnataka,Koppal,"Diwator Nagar, Koppal - KSPCB",17-04-2024 04:00:00,15.347630,76.181767,PM10,19,78,40
India,Karnataka,Mysuru,"Hebbal 1st Stage, Mysuru - KSPCB",17-04-2024 04:00:00,12.21041,76.37376,PM2.5,9,57,29
India,Karnataka,Mysuru,"Hebbal 1st Stage, Mysuru - KSPCB",17-04-2024 04:00:00,12.21041,76.37376,PM10,26,73,45
India,Karnataka,Mysuru,"Hebbal 1st Stage, Mysuru - KSPCB",17-04-2024 04:00:00,12.21041,76.37376,NO2,13,26,19
India,Karnataka,Mysuru,"Hebbal 1st Stage, Mysuru - KSPCB",17-04-2024 04:00:00,12.21041,76.37376,NH3,1,2,2
India,Karnataka,Ramanagara,"Vijay Nagar, Ramanagara - KSPCB",17-04-2024 04:00:00,12.733409,77.298051,OZONE,27,30,29
India,Karnataka,Shivamogga,"Vinoba Nagara, Shivamogga - KSPCB",17-04-2024 04:00:00,13.940000,75.555917,PM10,40,80,61
India,Kerala,Eloor,"Udyogamandal, Eloor - Kerala PCB",17-04-2024 04:00:00,10.073232,76.302765,NH3,1,1,1
India,Kerala,Eloor,"Udyogamandal, Eloor - Kerala PCB",17-04-2024 04:00:00,10.073232,76.302765,SO2,1,4,2
India,Kerala,Eloor,"Udyogamandal, Eloor - Kerala PCB",17-04-2024 04:00:00,10.073232,76.302765,OZONE,12,28,16
India,Kerala,Kollam,"Polayathode, Kollam - Kerala PCB",17-04-2024 04:00:00,8.8787,76.6073,NO2,8,9,8
India,Kerala,Kollam,"Polayathode, Kollam - Kerala PCB",17-04-2024 04:00:00,8.8787,76.6073,CO,38,41,39
India,Kerala,Thiruvananthapuram,"Kariavattom, Thiruvananthapuram - Kerala PCB",17-04-2024 04:00:00,8.563700,76.886500,PM10,78,95,87
India,Kerala,Thiruvananthapuram,"Plammoodu, Thiruvananthapuram - Kerala PCB",17-04-2024 04:00:00,8.5149093,76.9435879,PM10,2,40,22
India,Kerala,Thrissur,"Corporation Ground, Thrissur - Kerala PCB",17-04-2024 04:00:00,10.532400,76.215900,NO2,7,8,7
India,Kerala,Thrissur,"Corporation Ground, Thrissur - Kerala PCB",17-04-2024 04:00:00,10.532400,76.215900,NH3,1,1,1
India,Kerala,Thrissur,"Corporation Ground, Thrissur - Kerala PCB",17-04-2024 04:00:00,10.532400,76.215900,SO2,1,6,1
India,Madhya Pradesh,Bhopal,"Idgah Hills, Bhopal - MPPCB",17-04-2024 04:00:00,23.264759,77.381568,CO,18,40,23
India,Madhya Pradesh,Bhopal,"Paryavaran Parisar, Bhopal - MPPCB",17-04-2024 04:00:00,23.210494,77.425409,PM2.5,10,90,50
India,Madhya Pradesh,Bhopal,"T T Nagar, Bhopal - MPPCB",17-04-2024 04:00:00,23.233584,77.400574,SO2,11,31,20
India,Madhya Pradesh,Dewas,"Bhopal Chauraha, Dewas - MPPCB",17-04-2024 04:00:00,22.9682591,76.064118,PM2.5,17,102,48
India,Madhya Pradesh,Dewas,"Bhopal Chauraha, Dewas - MPPCB",17-04-2024 04:00:00,22.9682591,76.064118,PM10,26,105,56
India,Madhya Pradesh,Gwalior,"Deen Dayal Nagar, Gwalior - MPPCB",17-04-2024 04:00:00,26.259242,78.216432,PM2.5,22,259,93
India,Madhya Pradesh,Gwalior,"Maharaj Bada, Gwalior - MPPCB",17-04-2024 04:00:00,26.200388,78.147714,PM10,NA,NA,NA
India,Madhya Pradesh,Gwalior,"Phool Bagh, Gwalior - Mondelez Ind. Food",17-04-2024 04:00:00,26.210536,78.171,PM10,NA,NA,NA
India,Madhya Pradesh,Indore,"Maguda Nagar, Indore - IMC",17-04-2024 04:00:00,22.7524,75.8872,PM10,22,87,51
India,Madhya Pradesh,Indore,"Maguda Nagar, Indore - IMC",17-04-2024 04:00:00,22.7524,75.8872,NH3,1,2,2
India,Madhya Pradesh,Indore,"Maguda Nagar, Indore - IMC",17-04-2024 04:00:00,22.7524,75.8872,OZONE,35,42,37
India,Madhya Pradesh,Indore,"Residency Area, Indore - IMC",17-04-2024 04:00:00,22.7084,75.8815,PM2.5,17,93,56
India,Madhya Pradesh,Indore,"Residency Area, Indore - IMC",17-04-2024 04:00:00,22.7084,75.8815,CO,13,23,18
India,Madhya Pradesh,Indore,"Residency Area, Indore - IMC",17-04-2024 04:00:00,22.7084,75.8815,OZONE,10,16,10
India,Madhya Pradesh,Jabalpur,"Govindh Bhavan Colony, Jabalpur - JMC",17-04-2024 04:00:00,23.163174,79.973061,NO2,16,42,26
India,Madhya Pradesh,Jabalpur,"Govindh Bhavan Colony, Jabalpur - JMC",17-04-2024 04:00:00,23.163174,79.973061,SO2,7,51,38
India,Madhya Pradesh,Jabalpur,"Govindh Bhavan Colony, Jabalpur - JMC",17-04-2024 04:00:00,23.163174,79.973061,CO,8,16,14
India,Madhya Pradesh,Jabalpur,"Gupteshwar, Jabalpur - JMC",17-04-2024 04:00:00,23.142888,79.916147,SO2,2,8,5
India,Madhya Pradesh,Jabalpur,"Marhatal, Jabalpur - MPPCB",17-04-2024 04:00:00,23.168606,79.932247,PM10,44,122,78
India,Madhya Pradesh,Jabalpur,"Marhatal, Jabalpur - MPPCB",17-04-2024 04:00:00,23.168606,79.932247,NO2,14,57,25
India,Madhya Pradesh,Jabalpur,"Suhagi, Jabalpur - JMC",17-04-2024 04:00:00,23.218135,79.957770,NH3,2,4,4
India,Madhya Pradesh,Katni,"Gole Bazar, Katni - MPPCB",17-04-2024 04:00:00,23.50016,80.23284,PM2.5,20,89,46
India,Madhya Pradesh,Katni,"Gole Bazar, Katni - MPPCB",17-04-2024 04:00:00,23.50016,80.23284,NH3,1,6,3
India,Madhya Pradesh,Mandideep,"Sector-D Industrial Area, Mandideep - MPPCB",17-04-2024 04:00:00,23.108440,77.511428,PM10,48,207,125
India,Madhya Pradesh,Pithampur,"Sector-2 Industrial Area, Pithampur - MPPCB",17-04-2024 04:00:00,22.624758,75.675238,PM10,60,211,126
India,Madhya Pradesh,Pithampur,"Sector-2 Industrial Area, Pithampur - MPPCB",17-04-2024 04:00:00,22.624758,75.675238,SO2,10,13,12
India,Madhya Pradesh,Sagar,"Civil Lines, Sagar - MPPCB",17-04-2024 04:00:00,23.838586,78.759431,OZONE,16,102,33
India,Madhya Pradesh,Satna,"Bandhavgar Colony, Satna - Birla Cement",17-04-2024 04:00:00,24.58434363,80.8549414,NO2,25,77,40
India,Madhya Pradesh,Singrauli,"Suryakiran Bhawan NCL, Singrauli - MPPCB",17-04-2024 04:00:00,24.108970,82.645580,PM10,70,381,166
India,Maharashtra,Ahmednagar,"Tarakpur, Ahmednagar - MPCB",17-04-2024 04:00:00,19.10122,74.73339,NO2,23,149,53
India,Maharashtra,Ahmednagar,"Tarakpur, Ahmednagar - MPCB",17-04-2024 04:00:00,19.10122,74.73339,SO2,5,15,9
India,Maharashtra,Akola,"Ramdaspeth, Akola - MPCB",17-04-2024 04:00:00,20.719516,77.000253,NO2,12,54,27
India,Maharashtra,Akola,"Ramdaspeth, Akola - MPCB",17-04-2024 04:00:00,20.719516,77.000253,NH3,5,10,8
India,Maharashtra,Akola,"Ramdaspeth, Akola - MPCB",17-04-2024 04:00:00,20.719516,77.000253,OZONE,4,82,24
India,Maharashtra,Amravati,"Shivneri Colony, Amravati - MPCB",17-04-2024 04:00:00,20.9402359,77.7895248,NH3,1,2,2
India,Maharashtra,Amravati,"Shivneri Colony, Amravati - MPCB",17-04-2024 04:00:00,20.9402359,77.7895248,SO2,1,5,4
India,Maharashtra,Amravati,"Shivneri Colony, Amravati - MPCB",17-04-2024 04:00:00,20.9402359,77.7895248,CO,13,54,30
India,Maharashtra,Amravati,"Shri Shivaji Science College, Amaravati - MPCB",17-04-2024 04:00:00,20.939198,77.765701,CO,11,116,67
India,Maharashtra,Aurangabad,"More Chowk Waluj, Aurangabad - MPCB",17-04-2024 04:00:00,19.8389439,75.244448,NH3,8,10,9
India,Maharashtra,Aurangabad,"More Chowk Waluj, Aurangabad - MPCB",17-04-2024 04:00:00,19.8389439,75.244448,CO,5,79,25
India,Maharashtra,Aurangabad,"Rachnakar Colony, Aurangabad - MPCB",17-04-2024 04:00:00,19.863756,75.321188,NH3,1,2,1
India,Maharashtra,Aurangabad,"Rachnakar Colony, Aurangabad - MPCB",17-04-2024 04:00:00,19.863756,75.321188,SO2,4,12,7
India,Maharashtra,Aurangabad,"Rachnakar Colony, Aurangabad - MPCB",17-04-2024 04:00:00,19.863756,75.321188,CO,14,26,22
India,Maharashtra,Bhiwandi,"Gokul Nagar, Bhiwandi - MPCB",17-04-2024 04:00:00,19.309073,73.057223,PM10,94,158,123
India,Maharashtra,Bhiwandi,"Gokul Nagar, Bhiwandi - MPCB",17-04-2024 04:00:00,19.309073,73.057223,NH3,3,6,4
India,Maharashtra,Chandrapur,"Chauhan Colony, Chandrapur - MPCB",17-04-2024 04:00:00,19.962900,79.298714,CO,24,28,26
India,Maharashtra,Chandrapur,"MIDC Khutala, Chandrapur - MPCB",17-04-2024 04:00:00,19.9775302,79.2337086,PM2.5,42,136,82
India,Maharashtra,Chandrapur,"MIDC Khutala, Chandrapur - MPCB",17-04-2024 04:00:00,19.9775302,79.2337086,NH3,NA,NA,NA
India,Maharashtra,Dhule,"Deopur, Dhule - MPCB",17-04-2024 04:00:00,20.918946,74.776388,NO2,4,28,8
India,Maharashtra,Dhule,"Deopur, Dhule - MPCB",17-04-2024 04:00:00,20.918946,74.776388,SO2,11,21,15
India,Maharashtra,Dhule,"Deopur, Dhule - MPCB",17-04-2024 04:00:00,20.918946,74.776388,OZONE,14,107,31
India,Maharashtra,Jalgaon,"Prabhat Colony, Jalgaon - MPCB",17-04-2024 04:00:00,21.001264,75.565602,NH3,11,29,17
India,Maharashtra,Jalna,"Old MIDC, Jalna - MPCB",17-04-2024 04:00:00,19.854616,75.905894,SO2,NA,NA,NA
India,Maharashtra,Kolhapur,"Shivaji University, Kolhapur - MPCB",17-04-2024 04:00:00,16.6870449,74.2505872,PM10,104,154,129
India,Maharashtra,Kolhapur,"Sinchan Bhavan, Kolhapur - MPCB",17-04-2024 04:00:00,16.7143745,74.2426398,NO2,10,60,23
India,Maharashtra,Latur,"Sawe Wadi, Latur - MPCB",17-04-2024 04:00:00,18.39963,76.57452,PM2.5,55,154,83
India,Maharashtra,Latur,"Sawe Wadi, Latur - MPCB",17-04-2024 04:00:00,18.39963,76.57452,SO2,2,11,6
India,Maharashtra,Latur,"Sawe Wadi, Latur - MPCB",17-04-2024 04:00:00,18.39963,76.57452,OZONE,4,133,47
India,Maharashtra,Mahad,"Kamble Tarf Birwadi, Mahad - MPCB",17-04-2024 04:00:00,18.1023399,73.4783687,PM2.5,70,277,143
India,Maharashtra,Malegaon,"Mahesh Nagar, Malegaon - MPCB",17-04-2024 04:00:00,20.555712,74.529236,PM2.5,62,161,110
India,Maharashtra,Malegaon,"Mahesh Nagar, Malegaon - MPCB",17-04-2024 04:00:00,20.555712,74.529236,CO,18,48,33
India,Maharashtra,Mira-Bhayandar,"Bhayandar West, Mira-Bhayandar - MPCB",17-04-2024 04:00:00,19.296481,72.840923,NH3,3,5,3
India,Maharashtra,Mumbai,"Bandra Kurla Complex, Mumbai - MPCB",17-04-2024 04:00:00,19.065931,72.862131,NO2,7,41,20
India,Maharashtra,Mumbai,"Bandra Kurla Complex, Mumbai - MPCB",17-04-2024 04:00:00,19.065931,72.862131,NH3,1,3,1
India,Maharashtra,Mumbai,"Borivali East, Mumbai - MPCB",17-04-2024 04:00:00,19.2243333,72.8658113,CO,2,38,32
India,Maharashtra,Mumbai,"Byculla, Mumbai - BMC",17-04-2024 04:00:00,18.9767,72.8380,PM2.5,18,50,36
India,Maharashtra,Mumbai,"Byculla, Mumbai - BMC",17-04-2024 04:00:00,18.9767,72.8380,OZONE,30,174,101
India,Maharashtra,Mumbai,"Chakala-Andheri East, Mumbai - IITM",17-04-2024 04:00:00,19.11074,72.86084,PM10,52,136,109
India,Maharashtra,Mumbai,"Chakala-Andheri East, Mumbai - IITM",17-04-2024 04:00:00,19.11074,72.86084,NO2,55,203,123
India,Maharashtra,Mumbai,"Colaba, Mumbai - MPCB",17-04-2024 04:00:00,18.910000,72.820000,PM2.5,NA,NA,NA
India,Maharashtra,Mumbai,"Ghatkopar, Mumbai - BMC",17-04-2024 04:00:00,19.083694,72.920967,NO2,6,35,20
India,Maharashtra,Mumbai,"Kandivali East, Mumbai - MPCB",17-04-2024 04:00:00,19.205800,72.868200,PM10,50,415,152
India,Maharashtra,Mumbai,"Kandivali East, Mumbai - MPCB",17-04-2024 04:00:00,19.205800,72.868200,SO2,7,8,7
India,Maharashtra,Mumbai,"Kandivali West, Mumbai - BMC",17-04-2024 04:00:00,19.215859,72.831718,NO2,14,74,28
India,Maharashtra,Mumbai,"Kherwadi_Bandra East, Mumbai - MPCB",17-04-2024 04:00:00,19.0632143,72.8456324,PM2.5,56,100,80
India,Maharashtra,Mumbai,"Kherwadi_Bandra East, Mumbai - MPCB",17-04-2024 04:00:00,19.0632143,72.8456324,NO2,12,108,36
India,Maharashtra,Mumbai,"Khindipada-Bhandup West, Mumbai - IITM",17-04-2024 04:00:00,19.1653323,72.922099,PM10,NA,NA,NA
India,Maharashtra,Mumbai,"Khindipada-Bhandup West, Mumbai - IITM",17-04-2024 04:00:00,19.1653323,72.922099,NO2,NA,NA,NA
India,Maharashtra,Mumbai,"Khindipada-Bhandup West, Mumbai - IITM",17-04-2024 04:00:00,19.1653323,72.922099,SO2,NA,NA,NA
India,Maharashtra,Mumbai,"Kurla, Mumbai - MPCB",17-04-2024 04:00:00,19.0863,72.8888,NH3,2,2,2
India,Maharashtra,Mumbai,"Kurla, Mumbai - MPCB",17-04-2024 04:00:00,19.0863,72.8888,SO2,32,32,32
India,Maharashtra,Mumbai,"Kurla, Mumbai - MPCB",17-04-2024 04:00:00,19.0863,72.8888,OZONE,28,64,30
India,Maharashtra,Mumbai,"Mindspace-Malad West, Mumbai - MPCB",17-04-2024 04:00:00,19.1878657,72.8304069,SO2,3,13,8
India,Maharashtra,Mumbai,"Mulund West, Mumbai - MPCB",17-04-2024 04:00:00,19.1750,72.9419,PM2.5,60,185,111
India,Maharashtra,Mumbai,"Mulund West, Mumbai - MPCB",17-04-2024 04:00:00,19.1750,72.9419,PM10,65,201,137
India,Maharashtra,Mumbai,"Navy Nagar-Colaba, Mumbai - IITM",17-04-2024 04:00:00,18.897756,72.813320,NH3,9,17,11
India,Maharashtra,Mumbai,"Powai, Mumbai - MPCB",17-04-2024 04:00:00,19.137500,72.915056,PM10,78,181,129
India,Maharashtra,Mumbai,"Powai, Mumbai - MPCB",17-04-2024 04:00:00,19.137500,72.915056,NO2,20,53,35
India,Maharashtra,Mumbai,"Sewri, Mumbai - BMC",17-04-2024 04:00:00,19.000084,72.856730,NO2,23,96,51
India,Maharashtra,Mumbai,"Shivaji Nagar, Mumbai - BMC",17-04-2024 04:00:00,19.060498,72.923356,PM2.5,NA,NA,NA
India,Maharashtra,Mumbai,"Shivaji Nagar, Mumbai - BMC",17-04-2024 04:00:00,19.060498,72.923356,SO2,NA,NA,NA
India,Maharashtra,Mumbai,"Shivaji Nagar, Mumbai - BMC",17-04-2024 04:00:00,19.060498,72.923356,CO,NA,NA,NA
India,Maharashtra,Mumbai,"Sion, Mumbai - MPCB",17-04-2024 04:00:00,19.047000,72.874600,OZONE,32,52,40
India,Maharashtra,Mumbai,"Vile Parle West, Mumbai - MPCB",17-04-2024 04:00:00,19.10861,72.83622,PM2.5,42,141,88
India,Maharashtra,Mumbai,"Vile Parle West, Mumbai - MPCB",17-04-2024 04:00:00,19.10861,72.83622,SO2,14,15,14
India,Maharashtra,Mumbai,"Worli, Mumbai - MPCB",17-04-2024 04:00:00,18.9936162,72.8128113,PM10,56,152,119
India,Maharashtra,Nagpur,"Ambazari, Nagpur - MPCB",17-04-2024 04:00:00,21.121801,79.04952,CO,12,52,33
India,Maharashtra,Nagpur,"Mahal, Nagpur - MPCB",17-04-2024 04:00:00,21.14472,79.107595,OZONE,1,90,10
India,Maharashtra,Nanded,"Sneh Nagar, Nanded - MPCB",17-04-2024 04:00:00,19.173852,77.296291,PM2.5,43,95,71
India,Maharashtra,Nanded,"Sneh Nagar, Nanded - MPCB",17-04-2024 04:00:00,19.173852,77.296291,NH3,1,2,1
India,Maharashtra,Nanded,"Sneh Nagar, Nanded - MPCB",17-04-2024 04:00:00,19.173852,77.296291,OZONE,31,120,47
India,Maharashtra,Nashik,"Gangapur Road, Nashik - MPCB",17-04-2024 04:00:00,20.0073285,73.7762427,NO2,12,19,14
India,Maharashtra,Nashik,"Hirawadi, Nashik - MPCB",17-04-2024 04:00:00,20.021503,73.813844,PM2.5,40,83,56
India,Maharashtra,Nashik,"Hirawadi, Nashik - MPCB",17-04-2024 04:00:00,20.021503,73.813844,NO2,1,57,15
India,Maharashtra,Nashik,"Hirawadi, Nashik - MPCB",17-04-2024 04:00:00,20.021503,73.813844,CO,2,37,16
India,Maharashtra,Nashik,"Pandav Nagari, Nashik - MPCB",17-04-2024 04:00:00,19.9591346,73.7788008,PM2.5,43,85,67
India,Maharashtra,Nashik,"Pandav Nagari, Nashik - MPCB",17-04-2024 04:00:00,19.9591346,73.7788008,OZONE,8,117,17
India,Maharashtra,Navi Mumbai,"Sanpada, Navi Mumbai - MPCB",17-04-2024 04:00:00,19.0575752,73.0151367,PM2.5,54,141,82
India,Maharashtra,Navi Mumbai,"Sanpada, Navi Mumbai - MPCB",17-04-2024 04:00:00,19.0575752,73.0151367,PM10,60,148,104
India,Maharashtra,Navi Mumbai,"Sector-19A Nerul, Navi Mumbai - IITM",17-04-2024 04:00:00,19.044,73.0325,PM2.5,50,245,141
India,Maharashtra,Navi Mumbai,"Sector-19A Nerul, Navi Mumbai - IITM",17-04-2024 04:00:00,19.044,73.0325,CO,26,28,28
India,Maharashtra,Navi Mumbai,"Sector-19A Nerul, Navi Mumbai - IITM",17-04-2024 04:00:00,19.044,73.0325,OZONE,3,183,72
India,Maharashtra,Navi Mumbai,"Tondare-Taloja, Navi Mumbai - MPCB",17-04-2024 04:00:00,19.0630,73.1209,PM10,114,186,146
India,Maharashtra,Parbhani,"Masoom Colony, Parbhani - MPCB",17-04-2024 04:00:00,19.265594,76.761463,CO,18,57,35
India,Maharashtra,Pimpri-Chinchwad,"Park Street Wakad, Pimpri Chinchwad - MPCB",17-04-2024 04:00:00,18.59051,73.77946,OZONE,2,84,21
India,Maharashtra,Pune,"Bhosari, Pune - IITM",17-04-2024 04:00:00,18.640051,73.848956,CO,32,54,48
India,Maharashtra,Pune,"Katraj Dairy, Pune - MPCB",17-04-2024 04:00:00,18.454450,73.854155,CO,NA,NA,NA
India,Maharashtra,Pune,"Mhada Colony, Pune - IITM",17-04-2024 04:00:00,18.573040,73.927715,OZONE,7,93,45
India,Maharashtra,Pune,"Revenue Colony-Shivajinagar, Pune - IITM",17-04-2024 04:00:00,18.530085,73.849598,PM10,47,113,83
India,Maharashtra,Pune,"Revenue Colony-Shivajinagar, Pune - IITM",17-04-2024 04:00:00,18.530085,73.849598,SO2,86,133,110
India,Maharashtra,Pune,"Savitribai Phule Pune University, Pune - MPCB",17-04-2024 04:00:00,18.547056,73.826908,PM2.5,67,106,87
India,Maharashtra,Pune,"Savitribai Phule Pune University, Pune - MPCB",17-04-2024 04:00:00,18.547056,73.826908,CO,16,58,47
India,Maharashtra,Sangli,"Vijay Nagar, Sangli - MPCB",17-04-2024 04:00:00, 16.5038,74.3623,PM10,63,101,79
India,Maharashtra,Sangli,"Vijay Nagar, Sangli - MPCB",17-04-2024 04:00:00, 16.5038,74.3623,CO,15,46,20
India,Maharashtra,Sangli,"Vijay Nagar, Sangli - MPCB",17-04-2024 04:00:00, 16.5038,74.3623,OZONE,13,137,46
India,Maharashtra,Solapur,"Dnyaneshwar Nagar, Solapur - MPCB",17-04-2024 04:00:00,17.6336264,75.9132495,PM10,75,105,89
India,Maharashtra,Solapur,"Dnyaneshwar Nagar, Solapur - MPCB",17-04-2024 04:00:00,17.6336264,75.9132495,CO,14,42,28
India,Maharashtra,Solapur,"Dnyaneshwar Nagar, Solapur - MPCB",17-04-2024 04:00:00,17.6336264,75.9132495,OZONE,25,82,35
India,Maharashtra,Solapur,"Ratandeep Housing Society, Solapur - MPCB",17-04-2024 04:00:00,17.65439,75.90649,PM2.5,31,216,77
India,Maharashtra,Solapur,"Ratandeep Housing Society, Solapur - MPCB",17-04-2024 04:00:00,17.65439,75.90649,NH3,9,33,16
India,Maharashtra,Solapur,"Ratandeep Housing Society, Solapur - MPCB",17-04-2024 04:00:00,17.65439,75.90649,CO,16,117,56
India,Maharashtra,Thane,"Kasarvadavali, Thane - MPCB",17-04-2024 04:00:00,19.26777,72.97182,PM10,NA,NA,NA
India,Maharashtra,Thane,"Kasarvadavali, Thane - MPCB",17-04-2024 04:00:00,19.26777,72.97182,NO2,NA,NA,NA
India,Maharashtra,Thane,"Kasarvadavali, Thane - MPCB",17-04-2024 04:00:00,19.26777,72.97182,NH3,NA,NA,NA
India,Maharashtra,Thane,"Pimpleshwar Mandir, Thane - MPCB",17-04-2024 04:00:00,19.192056,72.9585188,SO2,2,106,21
India,Maharashtra,Thane,"Pimpleshwar Mandir, Thane - MPCB",17-04-2024 04:00:00,19.192056,72.9585188,CO,2,126,61
India,Maharashtra,Thane,"Upvan Fort, Thane - MPCB",17-04-2024 04:00:00,19.222279,72.957979,NH3,6,11,8
India,Maharashtra,Ulhasnagar,"Sidhi Vinayak Nagar, Ulhasnagar - MPCB",17-04-2024 04:00:00,19.235581,73.159121,CO,10,100,57
India,Meghalaya,Shillong,"Lumpyngngad, Shillong - Meghalaya PCB",17-04-2024 04:00:00,25.5586,91.8985,CO,12,19,14
India,Mizoram,Aizawl,"Sikulpuikawn, Aizawl - Mizoram PCB",17-04-2024 04:00:00,23.7176342,92.7192841,NO2,1,8,1
India,Nagaland,Kohima,"PWD Juction, Kohima - NPCB",17-04-2024 04:00:00,25.6635413,94.0989878,PM2.5,85,317,198
India,Nagaland,Kohima,"PWD Juction, Kohima - NPCB",17-04-2024 04:00:00,25.6635413,94.0989878,CO,14,42,33
India,Odisha,Balasore,"Kalidaspur, Balasore - OSPCB",17-04-2024 04:00:00,21.51161,86.89088,PM2.5,68,107,85
India,Odisha,Balasore,"Kalidaspur, Balasore - OSPCB",17-04-2024 04:00:00,21.51161,86.89088,CO,22,96,48
India,Odisha,Barbil,"Forest Office, Barbil - OSPCB",17-04-2024 04:00:00,22.1166054,85.3945546,NO2,1,1,1
India,Odisha,Baripada,"Meher Colony, Baripada - OSPCB",17-04-2024 04:00:00,21.941841,86.728318,SO2,3,5,4
India,Odisha,Bhubaneswar,"Lingraj Mandir, Bhubaneswar - OSPCB",17-04-2024 04:00:00,20.240790,85.836784,PM2.5,90,250,120
India,Odisha,Bhubaneswar,"Lingraj Mandir, Bhubaneswar - OSPCB",17-04-2024 04:00:00,20.240790,85.836784,NO2,2,23,12
India,Odisha,Bhubaneswar,"Lingraj Mandir, Bhubaneswar - OSPCB",17-04-2024 04:00:00,20.240790,85.836784,SO2,1,17,6
India,Odisha,Bhubaneswar,"Patia, Bhubaneswar - OSPCB",17-04-2024 04:00:00,20.34652,85.81630,OZONE,25,220,46
India,Odisha,Bileipada,"Tata Township, Bileipada - OSPCB",17-04-2024 04:00:00,22.06156703,85.47409613,NO2,10,16,12
India,Odisha,Brajrajnagar,"GM Office, Brajrajnagar - OSPCB",17-04-2024 04:00:00,21.8004996,83.8396977,SO2,21,30,27
India,Odisha,Brajrajnagar,"GM Office, Brajrajnagar - OSPCB",17-04-2024 04:00:00,21.8004996,83.8396977,OZONE,14,20,19
India,Odisha,Byasanagar,"Ferro Chrome Colony, Byasanagar - OSPCB",17-04-2024 04:00:00,20.94185,86.11510,NH3,2,4,3
India,Odisha,Byasanagar,"Ferro Chrome Colony, Byasanagar - OSPCB",17-04-2024 04:00:00,20.94185,86.11510,OZONE,12,269,28
India,Odisha,Nayagarh,"Dabuna, Nayagarh - OSPCB",17-04-2024 04:00:00,21.847279,85.416905,CO,17,38,35
India,Odisha,Rairangpur,"Divisional Forest Office, Rairangpur - OSPCB",17-04-2024 04:00:00,22.265816,86.174829,OZONE,39,92,49
India,Odisha,Rourkela,"Raghunathpali, Rourkela - OSPCB",17-04-2024 04:00:00,22.220833,84.809444,OZONE,5,94,37
India,Odisha,Talcher,"Talcher Coalfields,Talcher - OSPCB",17-04-2024 04:00:00,20.9360711,85.1707021,PM10,78,431,142
India,Odisha,Talcher,"Talcher Coalfields,Talcher - OSPCB",17-04-2024 04:00:00,20.9360711,85.1707021,NO2,18,23,20
India,Odisha,Talcher,"Talcher Coalfields,Talcher - OSPCB",17-04-2024 04:00:00,20.9360711,85.1707021,SO2,81,103,93
India,Odisha,Tensa,"Barsua Iron Ore Mines, Tensa - OSPCB",17-04-2024 04:00:00,21.869985,85.167016,PM10,82,120,106
India,Odisha,Tensa,"Barsua Iron Ore Mines, Tensa - OSPCB",17-04-2024 04:00:00,21.869985,85.167016,CO,8,60,20
India,Puducherry,Puducherry,"Jawahar Nagar, Puducherry - PPCC",17-04-2024 04:00:00,11.9309,79.8027,PM10,13,78,35
India,Puducherry,Puducherry,"Jawahar Nagar, Puducherry - PPCC",17-04-2024 04:00:00,11.9309,79.8027,SO2,4,12,8
India,Puducherry,Puducherry,"Jawahar Nagar, Puducherry - PPCC",17-04-2024 04:00:00,11.9309,79.8027,CO,21,37,27
India,Puducherry,Puducherry,"Jawahar Nagar, Puducherry - PPCC",17-04-2024 04:00:00,11.9309,79.8027,OZONE,4,35,20
India,Punjab,Amritsar,"Golden Temple, Amritsar - PPCB",17-04-2024 04:00:00,31.620000,74.876512,PM10,64,104,79
India,Punjab,Amritsar,"Golden Temple, Amritsar - PPCB",17-04-2024 04:00:00,31.620000,74.876512,NO2,17,45,30
India,Punjab,Amritsar,"Golden Temple, Amritsar - PPCB",17-04-2024 04:00:00,31.620000,74.876512,NH3,4,8,5
India,Punjab,Bathinda,"Hardev Nagar, Bathinda - PPCB",17-04-2024 04:00:00,30.233011,74.907758,PM2.5,14,78,34
India,Punjab,Bathinda,"Hardev Nagar, Bathinda - PPCB",17-04-2024 04:00:00,30.233011,74.907758,CO,2,131,7
India,Punjab,Jalandhar,"Civil Line, Jalandhar - PPCB",17-04-2024 04:00:00,31.321907,75.578914,NO2,32,37,33
India,Punjab,Jalandhar,"Civil Line, Jalandhar - PPCB",17-04-2024 04:00:00,31.321907,75.578914,CO,24,46,31
India,Punjab,Ludhiana,"Punjab Agricultural University, Ludhiana - PPCB",17-04-2024 04:00:00,30.9028,75.8086,NO2,15,23,21
India,Punjab,Ludhiana,"Punjab Agricultural University, Ludhiana - PPCB",17-04-2024 04:00:00,30.9028,75.8086,SO2,4,7,6
India,Punjab,Mandi Gobindgarh,"RIMT University, Mandi Gobindgarh - PPCB",17-04-2024 04:00:00,30.649961,76.331442,NO2,22,25,25
India,Punjab,Mandi Gobindgarh,"RIMT University, Mandi Gobindgarh - PPCB",17-04-2024 04:00:00,30.649961,76.331442,NH3,6,6,6
India,Punjab,Patiala,"Model Town, Patiala - PPCB",17-04-2024 04:00:00,30.349388,76.366642,PM2.5,35,120,65
India,Punjab,Patiala,"Model Town, Patiala - PPCB",17-04-2024 04:00:00,30.349388,76.366642,CO,18,34,26
India,Punjab,Rupnagar,"Ratanpura, Rupnagar - Ambuja Cements",17-04-2024 04:00:00,31.0325454,76.5623046,SO2,10,12,11
India,Rajasthan,Ajmer,"Civil Lines,  Ajmer - RSPCB",17-04-2024 04:00:00,26.470859,74.646594,NH3,8,20,13
India,Rajasthan,Alwar,"Moti Doongri, Alwar - RSPCB",17-04-2024 04:00:00,27.554793,76.611536,NO2,30,53,43
India,Rajasthan,Banswara,"Rati Talai, Banswara - RSPCB",17-04-2024 04:00:00,23.555190,74.440010,NH3,3,15,5
India,Rajasthan,Baran,"Bamboliya, Baran - RSPCB",17-04-2024 04:00:00,25.106006,76.469948,PM2.5,16,75,43
India,Rajasthan,Baran,"Bamboliya, Baran - RSPCB",17-04-2024 04:00:00,25.106006,76.469948,PM10,37,124,66
India,Rajasthan,Baran,"Bamboliya, Baran - RSPCB",17-04-2024 04:00:00,25.106006,76.469948,NH3,2,11,4
India,Rajasthan,Barmer,"Railway Colony, Barmer - RSPCB",17-04-2024 04:00:00,25.747299,71.393989,PM2.5,8,62,19
India,Rajasthan,Barmer,"Railway Colony, Barmer - RSPCB",17-04-2024 04:00:00,25.747299,71.393989,NO2,9,56,17
India,Rajasthan,Bhiwadi,"RIICO Ind. Area III, Bhiwadi - RSPCB",17-04-2024 04:00:00,28.194909,76.862296,PM10,116,190,152
India,Rajasthan,Bhiwadi,"RIICO Ind. Area III, Bhiwadi - RSPCB",17-04-2024 04:00:00,28.194909,76.862296,NO2,6,60,27
India,Rajasthan,Bhiwadi,"RIICO Ind. Area III, Bhiwadi - RSPCB",17-04-2024 04:00:00,28.194909,76.862296,NH3,7,17,11
India,Rajasthan,Bhiwadi,"Vasundhara Nagar_UIT, Bhiwadi - RSPCB",17-04-2024 04:00:00,28.207266,76.829265,NH3,7,34,15
India,Rajasthan,Bikaner,"MM Ground, Bikaner - RSPCB",17-04-2024 04:00:00,28.018792,73.292658,PM2.5,20,82,46
India,Rajasthan,Bikaner,"MM Ground, Bikaner - RSPCB",17-04-2024 04:00:00,28.018792,73.292658,NO2,34,60,44
India,Rajasthan,Bikaner,"MM Ground, Bikaner - RSPCB",17-04-2024 04:00:00,28.018792,73.292658,NH3,14,32,17
India,Rajasthan,Bikaner,"MM Ground, Bikaner - RSPCB",17-04-2024 04:00:00,28.018792,73.292658,SO2,2,7,5
India,Rajasthan,Bundi,"New Colony, Bundi - RSPCB",17-04-2024 04:00:00,25.435774,75.644272,PM2.5,4,29,16
India,Rajasthan,Bundi,"New Colony, Bundi - RSPCB",17-04-2024 04:00:00,25.435774,75.644272,NO2,9,25,15
India,Rajasthan,Bundi,"New Colony, Bundi - RSPCB",17-04-2024 04:00:00,25.435774,75.644272,SO2,3,7,4
India,Rajasthan,Chittorgarh,"Shastri Nagar, Chittorgarh - RSPCB",17-04-2024 04:00:00,24.892047,74.623527,NO2,19,99,48
India,Rajasthan,Chittorgarh,"Shastri Nagar, Chittorgarh - RSPCB",17-04-2024 04:00:00,24.892047,74.623527,NH3,3,11,9
India,Rajasthan,Chittorgarh,"Shastri Nagar, Chittorgarh - RSPCB",17-04-2024 04:00:00,24.892047,74.623527,OZONE,5,82,23
India,Rajasthan,Dausa,"Khatikan Mohalla, Dausa - RSPCB",17-04-2024 04:00:00,26.895552,76.334753,NH3,3,6,5
India,Rajasthan,Dausa,"Khatikan Mohalla, Dausa - RSPCB",17-04-2024 04:00:00,26.895552,76.334753,CO,15,76,43
India,Rajasthan,Hanumangarh,"Housing Board, Hanumangarh - RSPCB",17-04-2024 04:00:00,29.610750,74.283608,PM2.5,23,301,103
India,Rajasthan,Hanumangarh,"Housing Board, Hanumangarh - RSPCB",17-04-2024 04:00:00,29.610750,74.283608,CO,52,105,83
India,Rajasthan,Jaipur,"Adarsh Nagar, Jaipur - RSPCB",17-04-2024 04:00:00,26.902909,75.836858,PM2.5,17,94,48
India,Rajasthan,Jaipur,"Adarsh Nagar, Jaipur - RSPCB",17-04-2024 04:00:00,26.902909,75.836858,SO2,13,30,20
India,Rajasthan,Jaipur,"Mansarovar Sector-12, Jaipur - RSPCB",17-04-2024 04:00:00,26.843698,75.766894,OZONE,77,84,82
India,Rajasthan,Jaipur,"RIICO Sitapura, Jaipur - RSPCB",17-04-2024 04:00:00,26.786682,75.827928,PM10,34,112,74
India,Rajasthan,Jaipur,"RIICO Sitapura, Jaipur - RSPCB",17-04-2024 04:00:00,26.786682,75.827928,NO2,16,74,34
India,Rajasthan,Jaipur,"Sector-2 Murlipura, Jaipur - RSPCB",17-04-2024 04:00:00,26.960669,75.771817,NO2,31,73,42
India,Rajasthan,Jaipur,"Sector-2 Murlipura, Jaipur - RSPCB",17-04-2024 04:00:00,26.960669,75.771817,NH3,5,13,7
India,Rajasthan,Jaipur,"Sector-2 Murlipura, Jaipur - RSPCB",17-04-2024 04:00:00,26.960669,75.771817,SO2,5,29,11
India,Rajasthan,Jaipur,"Sector-2 Murlipura, Jaipur - RSPCB",17-04-2024 04:00:00,26.960669,75.771817,CO,NA,NA,NA
India,Rajasthan,Jaipur,"Shastri Nagar, Jaipur - RSPCB",17-04-2024 04:00:00,26.9502929,75.730943,PM10,84,177,117
India,Rajasthan,Jaipur,"Shastri Nagar, Jaipur - RSPCB",17-04-2024 04:00:00,26.9502929,75.730943,NO2,1,84,29
India,Rajasthan,Jaipur,"Shastri Nagar, Jaipur - RSPCB",17-04-2024 04:00:00,26.9502929,75.730943,CO,21,40,30
India,Rajasthan,Jalore,"Mudtra Sili, Jalore - RSPCB",17-04-2024 04:00:00,25.344694,72.626208,NH3,3,11,7
India,Rajasthan,Jhalawar,"Rajlaxmi Nagar, Jhalawar - RSPCB",17-04-2024 04:00:00,24.588397,76.172782,NH3,2,6,5
India,Rajasthan,Jhunjhunu,"Indra Nagar, Jhunjhunu - RSPCB",17-04-2024 04:00:00,28.108988,75.386577,PM2.5,8,98,50
India,Rajasthan,Jodhpur,"Collectorate, Jodhpur - RSPCB",17-04-2024 04:00:00,26.268249,73.0193853,NO2,3,38,19
India,Rajasthan,Jodhpur,"Collectorate, Jodhpur - RSPCB",17-04-2024 04:00:00,26.268249,73.0193853,CO,45,100,64
India,Rajasthan,Jodhpur,"Collectorate, Jodhpur - RSPCB",17-04-2024 04:00:00,26.268249,73.0193853,OZONE,17,122,78
India,Rajasthan,Jodhpur,"Digari Kalan, Jodhpur - RSPCB",17-04-2024 04:00:00,26.295810,73.082283,NO2,6,93,25
India,Rajasthan,Jodhpur,"Digari Kalan, Jodhpur - RSPCB",17-04-2024 04:00:00,26.295810,73.082283,NH3,5,12,7
India,Rajasthan,Jodhpur,"Jhalamand, Jodhpur - RSPCB",17-04-2024 04:00:00,26.215415,73.070156,PM2.5,5,92,32
India,Rajasthan,Jodhpur,"Mandor, Jodhpur - RSPCB",17-04-2024 04:00:00,26.358805,73.047444,NH3,6,13,8
India,Rajasthan,Jodhpur,"Samrat Ashok Udhyan, Jodhpur - RSPCB",17-04-2024 04:00:00,26.253384,72.976571,CO,8,73,30
India,Rajasthan,Karauli,"Satyawati Vihar, Karauli - RSPCB",17-04-2024 04:00:00,26.506177,77.025989,CO,8,23,11
India,Rajasthan,Kota,"Dhanmandi, Kota - RSPCB",17-04-2024 04:00:00,25.164090,75.858137,PM2.5,2,128,41
India,Rajasthan,Kota,"Dhanmandi, Kota - RSPCB",17-04-2024 04:00:00,25.164090,75.858137,CO,16,112,58
India,Rajasthan,Kota,"Nayapura, Kota - RSPCB",17-04-2024 04:00:00,25.196024,75.855668,OZONE,9,91,21
India,Rajasthan,Kota,"Shrinath Puram, Kota - RSPCB",17-04-2024 04:00:00,25.14389,75.821256,CO,12,50,27
India,Rajasthan,Nagaur,"Karni Colony, Nagaur - RSPCB",17-04-2024 04:00:00,27.213494,73.734444,CO,12,29,20
India,Rajasthan,Pali,"Indira Colony Vistar, Pali - RSPCB",17-04-2024 04:00:00,25.771061, 73.340227,CO,20,78,56
India,Rajasthan,Pali,"Indira Colony Vistar, Pali - RSPCB",17-04-2024 04:00:00,25.771061, 73.340227,OZONE,13,82,36
India,Rajasthan,Pratapgarh,"Pragati Nagar, Pratapgarh - RSPCB",17-04-2024 04:00:00,24.041198,74.780702,PM2.5,9,34,17
India,Rajasthan,Pratapgarh,"Pragati Nagar, Pratapgarh - RSPCB",17-04-2024 04:00:00,24.041198,74.780702,SO2,2,18,7
India,Rajasthan,Pratapgarh,"Pragati Nagar, Pratapgarh - RSPCB",17-04-2024 04:00:00,24.041198,74.780702,CO,10,24,13
India,Rajasthan,Rajsamand,"Dhoinda, Rajsamand - RSPCB",17-04-2024 04:00:00,25.036360,73.883502,PM10,20,81,42
India,Rajasthan,Rajsamand,"Dhoinda, Rajsamand - RSPCB",17-04-2024 04:00:00,25.036360,73.883502,NH3,2,11,7
India,Rajasthan,Sawai Madhopur,"Sahu Nagar, Sawai Madhopur - RSPCB",17-04-2024 04:00:00,26.031443,76.359327,PM2.5,22,83,41
India,Rajasthan,Sawai Madhopur,"Sahu Nagar, Sawai Madhopur - RSPCB",17-04-2024 04:00:00,26.031443,76.359327,CO,12,70,52
India,Rajasthan,Sawai Madhopur,"Sahu Nagar, Sawai Madhopur - RSPCB",17-04-2024 04:00:00,26.031443,76.359327,OZONE,10,94,37
India,Rajasthan,Sirohi,"Vedhaynath Colony, Sirohi - RSPCB",17-04-2024 04:00:00,24.885261,72.857549,SO2,1,11,7
India,Rajasthan,Sri Ganganagar,"Old City, Sri Ganganagar - RSPCB",17-04-2024 04:00:00,29.931624,73.864511,CO,30,62,45
India,Rajasthan,Sri Ganganagar,"Old City, Sri Ganganagar - RSPCB",17-04-2024 04:00:00,29.931624,73.864511,OZONE,10,72,37
India,Rajasthan,Tonk,"Shastri Nagar, Tonk - RSPCB",17-04-2024 04:00:00,26.159933,75.780517,PM10,26,146,82
India,Rajasthan,Tonk,"Shastri Nagar, Tonk - RSPCB",17-04-2024 04:00:00,26.159933,75.780517,NO2,8,34,16
India,Sikkim,Gangtok,"Zero Point GICI, Gangtok - SSPCB",17-04-2024 04:00:00,27.338530,88.614099,SO2,11,11,11
India,TamilNadu,Ariyalur,"Keelapalur, Ariyalur - TNPCB",17-04-2024 04:00:00,11.06825,79.07033,PM2.5,28,53,43
India,TamilNadu,Chennai,"Alandur Bus Depot, Chennai - CPCB",17-04-2024 04:00:00,12.9099161,80.1076538,NH3,NA,NA,NA
India,TamilNadu,Chennai,"Manali, Chennai - CPCB",17-04-2024 04:00:00,13.164544,80.26285,OZONE,12,44,19
India,TamilNadu,Chennai,"Perungudi, Chennai - TNPCB",17-04-2024 04:00:00,12.9533,80.2357,PM2.5,14,63,34
India,TamilNadu,Chennai,"Perungudi, Chennai - TNPCB",17-04-2024 04:00:00,12.9533,80.2357,CO,10,80,35
India,TamilNadu,Chennai,"Royapuram, Chennai - TNPCB",17-04-2024 04:00:00,13.1036,80.2909,SO2,2,6,4
India,TamilNadu,Coimbatore,"PSG College of Arts and Science, Coimbatore - TNPCB",17-04-2024 04:00:00,11.0328,77.0349,NH3,1,1,1
India,TamilNadu,Cuddalore,"Kudikadu, Cuddalore - TNPCB",17-04-2024 04:00:00,11.6829898,79.7532099,NO2,3,14,5
India,TamilNadu,Gummidipoondi,"Anthoni Pillai Nagar, Gummidipoondi - TNPCB",17-04-2024 04:00:00,13.4127,80.1081,NO2,11,15,13
India,TamilNadu,Kanchipuram,"Kilambi, Kanchipuram - TNPCB",17-04-2024 04:00:00,12.864618,79.659968,NO2,1,6,2
India,TamilNadu,Palkalaiperur,"Bharathidasan University, Palkalaiperur - TNPCB",17-04-2024 04:00:00,10.681158,78.741746,CO,NA,NA,NA
India,TamilNadu,Ramanathapuram,"Chalai Bazaar, Ramanathapuram - TNPCB",17-04-2024 04:00:00,9.36399,78.831977,PM10,8,73,39
India,TamilNadu,Ramanathapuram,"Chalai Bazaar, Ramanathapuram - TNPCB",17-04-2024 04:00:00,9.36399,78.831977,SO2,7,10,8
India,TamilNadu,Ramanathapuram,"Chalai Bazaar, Ramanathapuram - TNPCB",17-04-2024 04:00:00,9.36399,78.831977,CO,2,6,4
India,TamilNadu,Salem,"Sona College of Technology, Salem - TNPCB",17-04-2024 04:00:00,11.679111,78.125052,SO2,50,52,51
India,TamilNadu,Thoothukudi,"Meelavittan, Thoothukudi - TNPCB",17-04-2024 04:00:00,8.816428 ,78.099039,PM10,8,84,39
India,TamilNadu,Tirupur,"Kumaran College, Tirupur - TNPCB",17-04-2024 04:00:00,11.0973603,77.3228673,PM10,44,341,105
India,Telangana,Hyderabad,"Bollaram Industrial Area, Hyderabad - TSPCB",17-04-2024 04:00:00,17.540891,78.358528,PM10,70,128,99
India,Telangana,Hyderabad,"Bollaram Industrial Area, Hyderabad - TSPCB",17-04-2024 04:00:00,17.540891,78.358528,SO2,15,38,23
India,Telangana,Hyderabad,"Central University, Hyderabad - TSPCB",17-04-2024 04:00:00,17.460103,78.334361,OZONE,3,4,3
India,Telangana,Hyderabad,"ECIL Kapra, Hyderabad - TSPCB",17-04-2024 04:00:00,17.470431,78.566959,PM2.5,52,74,60
India,Telangana,Hyderabad,"ECIL Kapra, Hyderabad - TSPCB",17-04-2024 04:00:00,17.470431,78.566959,CO,23,56,32
India,Telangana,Hyderabad,"ICRISAT Patancheru, Hyderabad - TSPCB",17-04-2024 04:00:00,17.518400,78.278777,NH3,2,2,2
India,Telangana,Hyderabad,"IITH Kandi, Hyderabad - TSPCB",17-04-2024 04:00:00,17.585705,78.126199,PM10,45,371,132
India,Telangana,Hyderabad,"Kompally Municipal Office, Hyderabad - TSPCB",17-04-2024 04:00:00,17.544899,78.486949,PM2.5,NA,NA,NA
India,Telangana,Hyderabad,"Kompally Municipal Office, Hyderabad - TSPCB",17-04-2024 04:00:00,17.544899,78.486949,CO,NA,NA,NA
India,Telangana,Hyderabad,"Nacharam_TSIIC IALA, Hyderabad - TSPCB",17-04-2024 04:00:00,17.429398,78.569354,CO,38,44,40
India,Telangana,Hyderabad,"New Malakpet, Hyderabad - TSPCB",17-04-2024 04:00:00,17.37206,78.50864,SO2,7,13,9
India,Telangana,Hyderabad,"New Malakpet, Hyderabad - TSPCB",17-04-2024 04:00:00,17.37206,78.50864,CO,14,62,34
India,Telangana,Hyderabad,"Ramachandrapuram, Hyderabad - TSPCB",17-04-2024 04:00:00,17.528544,78.286195,PM10,NA,NA,NA
India,Telangana,Hyderabad,"Ramachandrapuram, Hyderabad - TSPCB",17-04-2024 04:00:00,17.528544,78.286195,NH3,NA,NA,NA
India,Telangana,Hyderabad,"Ramachandrapuram, Hyderabad - TSPCB",17-04-2024 04:00:00,17.528544,78.286195,CO,26,28,27
India,Telangana,Hyderabad,"Sanathnagar, Hyderabad - TSPCB",17-04-2024 04:00:00,17.4559458,78.4332152,OZONE,11,17,16
India,Telangana,Hyderabad,"Zoo Park, Hyderabad - TSPCB",17-04-2024 04:00:00,17.349694,78.451437,SO2,1,14,6
India,Telangana,Hyderabad,"Zoo Park, Hyderabad - TSPCB",17-04-2024 04:00:00,17.349694,78.451437,CO,28,102,78
India,Tripura,Agartala,"Bardowali, Agartala - Tripura SPCB",17-04-2024 04:00:00,23.8175497,91.2726974,PM10,73,172,123
India,Uttar_Pradesh,Agra,"Manoharpur, Agra - UPPCB",17-04-2024 04:00:00,27.23711,78.01936,PM10,16,62,35
India,Uttar_Pradesh,Agra,"Manoharpur, Agra - UPPCB",17-04-2024 04:00:00,27.23711,78.01936,NH3,2,3,3
India,Uttar_Pradesh,Agra,"Manoharpur, Agra - UPPCB",17-04-2024 04:00:00,27.23711,78.01936,SO2,12,18,15
India,Uttar_Pradesh,Agra,"Manoharpur, Agra - UPPCB",17-04-2024 04:00:00,27.23711,78.01936,OZONE,1,38,20
India,Uttar_Pradesh,Agra,"Rohta, Agra - UPPCB",17-04-2024 04:00:00,27.106972,78.000111,SO2,3,10,6
India,Uttar_Pradesh,Agra,"Rohta, Agra - UPPCB",17-04-2024 04:00:00,27.106972,78.000111,CO,5,18,10
India,Uttar_Pradesh,Agra,"Rohta, Agra - UPPCB",17-04-2024 04:00:00,27.106972,78.000111,OZONE,13,15,14
India,Uttar_Pradesh,Agra,"Sanjay Palace, Agra - UPPCB",17-04-2024 04:00:00,27.19865833,78.00598056,PM2.5,5,38,20
India,Uttar_Pradesh,Agra,"Sanjay Palace, Agra - UPPCB",17-04-2024 04:00:00,27.19865833,78.00598056,PM10,NA,NA,NA
India,Uttar_Pradesh,Agra,"Sanjay Palace, Agra - UPPCB",17-04-2024 04:00:00,27.19865833,78.00598056,CO,4,56,33
India,Uttar_Pradesh,Agra,"Sector-3B Avas Vikas Colony, Agra - UPPCB",17-04-2024 04:00:00,27.19412,77.96237,CO,6,16,11
India,Uttar_Pradesh,Agra,"Shahjahan Garden, Agra - UPPCB",17-04-2024 04:00:00,27.169338,78.03582,PM2.5,9,85,39
India,Uttar_Pradesh,Agra,"Shahjahan Garden, Agra - UPPCB",17-04-2024 04:00:00,27.169338,78.03582,SO2,37,52,44
India,Uttar_Pradesh,Agra,"Shastripuram, Agra - UPPCB",17-04-2024 04:00:00,27.19862,77.92066,PM2.5,4,108,44
India,Uttar_Pradesh,Agra,"Shastripuram, Agra - UPPCB",17-04-2024 04:00:00,27.19862,77.92066,PM10,26,146,96
India,Uttar_Pradesh,Agra,"Shastripuram, Agra - UPPCB",17-04-2024 04:00:00,27.19862,77.92066,NO2,47,72,50
India,Uttar_Pradesh,Baghpat,"Sardar Patel Inter College, Baghpat - UPPCB",17-04-2024 04:00:00,28.964949,77.278761,PM2.5,23,241,93
India,Uttar_Pradesh,Bareilly,"Civil Lines, Bareilly - UPPCB",17-04-2024 04:00:00,28.359581,79.414455,PM10,56,91,78
India,Uttar_Pradesh,Bareilly,"Civil Lines, Bareilly - UPPCB",17-04-2024 04:00:00,28.359581,79.414455,NO2,2,3,2
India,Uttar_Pradesh,Bareilly,"Civil Lines, Bareilly - UPPCB",17-04-2024 04:00:00,28.359581,79.414455,CO,10,38,24
India,Uttar_Pradesh,Bareilly,"Rajendra Nagar, Bareilly - UPPCB",17-04-2024 04:00:00,28.38910936,79.42963708,NH3,1,1,1
India,Uttar_Pradesh,Bulandshahr,"Yamunapuram, Bulandshahr - UPPCB",17-04-2024 04:00:00,28.406963,77.849831,NO2,18,107,55
India,Uttar_Pradesh,Firozabad,"Vibhab Nagar, Firozabad - UPPCB",17-04-2024 04:00:00,27.1594,78.3953,PM10,33,88,52
India,Uttar_Pradesh,Firozabad,"Vibhab Nagar, Firozabad - UPPCB",17-04-2024 04:00:00,27.1594,78.3953,NH3,2,2,2
India,Uttar_Pradesh,Ghaziabad,"Loni, Ghaziabad - UPPCB",17-04-2024 04:00:00,28.757294,77.278792,SO2,6,57,22
India,Uttar_Pradesh,Ghaziabad,"Sanjay Nagar, Ghaziabad - UPPCB",17-04-2024 04:00:00,28.685382,77.453839,PM2.5,12,395,128
India,Uttar_Pradesh,Ghaziabad,"Sanjay Nagar, Ghaziabad - UPPCB",17-04-2024 04:00:00,28.685382,77.453839,SO2,11,67,35
India,Uttar_Pradesh,Greater Noida,"Knowledge Park - III, Greater Noida - UPPCB",17-04-2024 04:00:00,28.47272,77.482000,OZONE,6,159,59
India,Uttar_Pradesh,Greater Noida,"Knowledge Park - V, Greater Noida - UPPCB",17-04-2024 04:00:00,28.557054,77.453663,CO,4,84,23
India,Uttar_Pradesh,Jhansi,"Shivaji Nagar, Jhansi - UPPCB",17-04-2024 04:00:00,25.4547,78.6039,OZONE,9,50,29
India,Uttar_Pradesh,Kanpur,"FTI Kidwai Nagar, Kanpur - UPPCB",17-04-2024 04:00:00,26.428282,80.327067,NO2,12,12,12
India,Uttar_Pradesh,Kanpur,"FTI Kidwai Nagar, Kanpur - UPPCB",17-04-2024 04:00:00,26.428282,80.327067,CO,28,44,33
India,Uttar_Pradesh,Kanpur,"NSI Kalyanpur, Kanpur - UPPCB",17-04-2024 04:00:00,26.509954,80.249612,OZONE,15,71,39
India,Uttar_Pradesh,Kanpur,"Nehru Nagar, Kanpur - UPPCB",17-04-2024 04:00:00,26.4703136,80.3229863,CO,34,56,42
India,Uttar_Pradesh,Khurja,"Kalindi Kunj, Khurja - UPPCB",17-04-2024 04:00:00,28.2348927,77.8683002,PM10,30,192,79
India,Uttar_Pradesh,Khurja,"Kalindi Kunj, Khurja - UPPCB",17-04-2024 04:00:00,28.2348927,77.8683002,OZONE,25,44,32
India,Uttar_Pradesh,Lucknow,"Gomti Nagar, Lucknow - UPPCB",17-04-2024 04:00:00,26.868120,81.005119,CO,38,44,40
India,Uttar_Pradesh,Lucknow,"Kukrail Picnic Spot-1, Lucknow - UPPCB",17-04-2024 04:00:00,26.90723,80.98579,PM2.5,41,133,76
India,Uttar_Pradesh,Lucknow,"Lalbagh, Lucknow - CPCB",17-04-2024 04:00:00,26.8458805,80.9365541,NH3,28,30,29
India,Uttar_Pradesh,Meerut,"Ganga Nagar, Meerut - UPPCB",17-04-2024 04:00:00,28.999264,77.7590354,NH3,6,26,12
India,Uttar_Pradesh,Meerut,"Ganga Nagar, Meerut - UPPCB",17-04-2024 04:00:00,28.999264,77.7590354,SO2,5,39,17
India,Uttar_Pradesh,Meerut,"Jai Bhim Nagar, Meerut - UPPCB",17-04-2024 04:00:00,28.9535882,77.7622941,PM2.5,17,259,77
India,Uttar_Pradesh,Meerut,"Jai Bhim Nagar, Meerut - UPPCB",17-04-2024 04:00:00,28.9535882,77.7622941,NH3,6,14,10
India,Uttar_Pradesh,Meerut,"Pallavpuram Phase 2, Meerut - UPPCB",17-04-2024 04:00:00,29.063510,77.709723,PM10,63,195,119
India,Uttar_Pradesh,Moradabad,"Buddhi Vihar, Moradabad - UPPCB",17-04-2024 04:00:00,28.83526,78.74460,PM10,43,126,88
India,Uttar_Pradesh,Moradabad,"Buddhi Vihar, Moradabad - UPPCB",17-04-2024 04:00:00,28.83526,78.74460,OZONE,18,36,20
India,Uttar_Pradesh,Moradabad,"Eco Herbal Park, Moradabad - UPPCB",17-04-2024 04:00:00,28.840739,78.697531,NO2,5,44,16
India,Uttar_Pradesh,Moradabad,"Eco Herbal Park, Moradabad - UPPCB",17-04-2024 04:00:00,28.840739,78.697531,SO2,5,46,17
India,Uttar_Pradesh,Moradabad,"Eco Herbal Park, Moradabad - UPPCB",17-04-2024 04:00:00,28.840739,78.697531,OZONE,36,169,98
India,Uttar_Pradesh,Moradabad,"Employment Office, Moradabad - UPPCB",17-04-2024 04:00:00,28.88528,78.73880,PM2.5,27,92,49
India,Uttar_Pradesh,Moradabad,"Kashiram Nagar, Moradabad - UPPCB",17-04-2024 04:00:00,28.849399,78.742362,PM10,49,127,87
India,Uttar_Pradesh,Moradabad,"Transport Nagar, Moradabad - UPPCB",17-04-2024 04:00:00,28.802625,78.753728,SO2,42,52,45
India,Uttar_Pradesh,Moradabad,"Transport Nagar, Moradabad - UPPCB",17-04-2024 04:00:00,28.802625,78.753728,CO,39,42,40
India,Uttar_Pradesh,Moradabad,"Transport Nagar, Moradabad - UPPCB",17-04-2024 04:00:00,28.802625,78.753728,OZONE,18,44,27
India,Uttar_Pradesh,Muzaffarnagar,"New Mandi, Muzaffarnagar - UPPCB",17-04-2024 04:00:00,29.4723508,77.7194031,PM2.5,43,322,133
India,Uttar_Pradesh,Noida,"Sector - 125, Noida - UPPCB",17-04-2024 04:00:00,28.5447608,77.3231257,PM10,NA,NA,NA
India,Uttar_Pradesh,Noida,"Sector - 125, Noida - UPPCB",17-04-2024 04:00:00,28.5447608,77.3231257,NH3,NA,NA,NA
India,Uttar_Pradesh,Noida,"Sector-116, Noida - UPPCB",17-04-2024 04:00:00,28.569230,77.393848,PM2.5,30,341,119
India,Uttar_Pradesh,Prayagraj,"Jhunsi, Prayagraj - UPPCB",17-04-2024 04:00:00,25.425602,81.917152,PM2.5,27,52,37
India,Uttar_Pradesh,Prayagraj,"Jhunsi, Prayagraj - UPPCB",17-04-2024 04:00:00,25.425602,81.917152,NH3,5,5,5
India,Uttar_Pradesh,Prayagraj,"Motilal Nehru NIT, Prayagraj - UPPCB",17-04-2024 04:00:00,25.494,81.863,PM2.5,NA,NA,NA
India,Uttar_Pradesh,Prayagraj,"Motilal Nehru NIT, Prayagraj - UPPCB",17-04-2024 04:00:00,25.494,81.863,NH3,6,7,7
India,Uttar_Pradesh,Prayagraj,"Motilal Nehru NIT, Prayagraj - UPPCB",17-04-2024 04:00:00,25.494,81.863,OZONE,7,69,10
India,Uttar_Pradesh,Prayagraj,"Nagar Nigam, Prayagraj - UPPCB",17-04-2024 04:00:00,25.44919916 ,81.82735986 ,PM2.5,NA,NA,NA
India,Uttar_Pradesh,Prayagraj,"Nagar Nigam, Prayagraj - UPPCB",17-04-2024 04:00:00,25.44919916 ,81.82735986 ,NO2,5,5,5
India,Uttar_Pradesh,Prayagraj,"Nagar Nigam, Prayagraj - UPPCB",17-04-2024 04:00:00,25.44919916 ,81.82735986 ,CO,12,32,25
India,Uttar_Pradesh,Varanasi,"Ardhali Bazar, Varanasi - UPPCB",17-04-2024 04:00:00,25.3505986,82.9083074,OZONE,13,15,14
India,Uttar_Pradesh,Varanasi,"Bhelupur, Varanasi - UPPCB",17-04-2024 04:00:00,25.301778,82.996789,NO2,8,8,8
India,Uttar_Pradesh,Varanasi,"Bhelupur, Varanasi - UPPCB",17-04-2024 04:00:00,25.301778,82.996789,CO,12,44,34
India,Uttar_Pradesh,Varanasi,"IESD Banaras Hindu University, Varanasi - UPPCB",17-04-2024 04:00:00,25.262326,82.995408,SO2,15,17,16
India,Uttar_Pradesh,Varanasi,"Maldahiya, Varanasi - UPPCB",17-04-2024 04:00:00,25.32393,82.99687,OZONE,1,18,5
India,Uttarakhand,Rishikesh,"Shivaji Nagar, Rishikesh - UKPCB",17-04-2024 04:00:00,30.075911,78.2859547,NH3,2,4,3
India,Uttarakhand,Rishikesh,"Shivaji Nagar, Rishikesh - UKPCB",17-04-2024 04:00:00,30.075911,78.2859547,CO,8,41,21
India,West_Bengal,Asansol,"Asansol Court Area, Asansol - WBPCB",17-04-2024 04:00:00,23.685297,86.945968,PM10,110,197,150
India,West_Bengal,Asansol,"Asansol Court Area, Asansol - WBPCB",17-04-2024 04:00:00,23.685297,86.945968,NH3,10,21,13
India,West_Bengal,Barrackpore,"SVSPA Campus, Barrackpore - WBPCB",17-04-2024 04:00:00,22.7605581,88.3617589,PM10,101,164,124
India,West_Bengal,Barrackpore,"SVSPA Campus, Barrackpore - WBPCB",17-04-2024 04:00:00,22.7605581,88.3617589,NO2,7,35,20
India,West_Bengal,Barrackpore,"SVSPA Campus, Barrackpore - WBPCB",17-04-2024 04:00:00,22.7605581,88.3617589,NH3,2,4,3
India,West_Bengal,Durgapur,"Sidhu Kanhu Indoor Stadium, Durgapur - WBPCB",17-04-2024 04:00:00,23.5404352,87.2892225,PM2.5,83,297,184
India,West_Bengal,Haldia,"Priyambada Housing Estate, Haldia - WBPCB",17-04-2024 04:00:00,22.06047,88.109737,SO2,7,40,16
India,West_Bengal,Haldia,"Priyambada Housing Estate, Haldia - WBPCB",17-04-2024 04:00:00,22.06047,88.109737,CO,24,32,25
India,West_Bengal,Howrah,"Belur Math, Howrah - WBPCB",17-04-2024 04:00:00,22.629801,88.352017,PM2.5,45,109,77
India,West_Bengal,Howrah,"Belur Math, Howrah - WBPCB",17-04-2024 04:00:00,22.629801,88.352017,PM10,60,134,99
India,West_Bengal,Howrah,"Ghusuri, Howrah - WBPCB",17-04-2024 04:00:00,22.611968,88.347422,NH3,2,3,3
India,West_Bengal,Howrah,"Padmapukur, Howrah - WBPCB",17-04-2024 04:00:00,22.5687319,88.2797276,OZONE,26,83,38
India,West_Bengal,Kolkata,"Ballygunge, Kolkata - WBPCB",17-04-2024 04:00:00,22.5367507,88.3638022,PM2.5,36,94,66
India,West_Bengal,Kolkata,"Ballygunge, Kolkata - WBPCB",17-04-2024 04:00:00,22.5367507,88.3638022,NH3,7,11,9
India,West_Bengal,Kolkata,"Bidhannagar, Kolkata - WBPCB",17-04-2024 04:00:00,22.58157048,88.41002457,PM2.5,34,93,66
India,West_Bengal,Kolkata,"Bidhannagar, Kolkata - WBPCB",17-04-2024 04:00:00,22.58157048,88.41002457,PM10,41,109,81
India,West_Bengal,Kolkata,"Fort William, Kolkata - WBPCB",17-04-2024 04:00:00,22.556640,88.342674,PM10,58,117,91
India,West_Bengal,Kolkata,"Jadavpur, Kolkata - WBPCB",17-04-2024 04:00:00,22.49929,88.36917,PM10,49,103,75
India,West_Bengal,Kolkata,"Jadavpur, Kolkata - WBPCB",17-04-2024 04:00:00,22.49929,88.36917,NO2,4,14,7
India,West_Bengal,Kolkata,"Jadavpur, Kolkata - WBPCB",17-04-2024 04:00:00,22.49929,88.36917,NH3,2,2,2
India,West_Bengal,Kolkata,"Rabindra Bharati University, Kolkata - WBPCB",17-04-2024 04:00:00,22.627847,88.380669,PM2.5,32,81,53
India,West_Bengal,Kolkata,"Rabindra Sarobar, Kolkata - WBPCB",17-04-2024 04:00:00,22.51106,88.35142,NH3,3,6,5
India,West_Bengal,Kolkata,"Rabindra Sarobar, Kolkata - WBPCB",17-04-2024 04:00:00,22.51106,88.35142,SO2,9,77,25
India,West_Bengal,Kolkata,"Rabindra Sarobar, Kolkata - WBPCB",17-04-2024 04:00:00,22.51106,88.35142,CO,14,40,29
India,West_Bengal,Kolkata,"Victoria, Kolkata - WBPCB",17-04-2024 04:00:00,22.5448082,88.3403691,CO,58,88,70
India,West_Bengal,Siliguri,"Ward-32 Bapupara, Siliguri - WBPCB",17-04-2024 04:00:00,26.6879226,88.4152495,PM2.5,66,85,78
India,West_Bengal,Siliguri,"Ward-32 Bapupara, Siliguri - WBPCB",17-04-2024 04:00:00,26.6879226,88.4152495,NH3,5,13,9
India,West_Bengal,Siliguri,"Ward-32 Bapupara, Siliguri - WBPCB",17-04-2024 04:00:00,26.6879226,88.4152495,SO2,6,8,7
India,Andhra_Pradesh,Amaravati,"Secretariat, Amaravati - APPCB",17-04-2024 04:00:00,16.5150833,80.5181667,OZONE,4,70,32
India,Andhra_Pradesh,Chittoor,"Gangineni Cheruvu, Chittoor - APPCB",17-04-2024 04:00:00,13.204880,79.097889,PM2.5,41,239,77
India,Andhra_Pradesh,Chittoor,"Gangineni Cheruvu, Chittoor - APPCB",17-04-2024 04:00:00,13.204880,79.097889,NO2,3,20,8
India,Andhra_Pradesh,Rajamahendravaram,"Anand Kala Kshetram, Rajamahendravaram - APPCB",17-04-2024 04:00:00,16.9872867,81.7363176,PM10,47,82,61
India,Andhra_Pradesh,Rajamahendravaram,"Anand Kala Kshetram, Rajamahendravaram - APPCB",17-04-2024 04:00:00,16.9872867,81.7363176,OZONE,18,41,31
India,Andhra_Pradesh,Tirupati,"Tirumala, Tirupati - APPCB",17-04-2024 04:00:00,13.67,79.35,PM10,33,112,53
India,Andhra_Pradesh,Vijayawada,"HB Colony, Vijayawada - APPCB",17-04-2024 04:00:00,16.536107,80.594233,NH3,NA,NA,NA
India,Andhra_Pradesh,Vijayawada,"HB Colony, Vijayawada - APPCB",17-04-2024 04:00:00,16.536107,80.594233,CO,NA,NA,NA
India,Andhra_Pradesh,Vijayawada,"Rajiv Gandhi Park, Vijayawada - APPCB",17-04-2024 04:00:00,16.509717,80.612222,NO2,NA,NA,NA
India,Andhra_Pradesh,Vijayawada,"Rajiv Gandhi Park, Vijayawada - APPCB",17-04-2024 04:00:00,16.509717,80.612222,NH3,NA,NA,NA
India,Andhra_Pradesh,Vijayawada,"Rajiv Nagar, Vijayawada - APPCB",17-04-2024 04:00:00,16.554731,80.649110,PM10,NA,NA,NA
India,Arunachal_Pradesh,Naharlagun,"Naharlagun, Naharlagun - APSPCB",17-04-2024 04:00:00,27.103358,93.679645,PM10,71,126,100
India,Arunachal_Pradesh,Naharlagun,"Naharlagun, Naharlagun - APSPCB",17-04-2024 04:00:00,27.103358,93.679645,NO2,3,3,3
India,Arunachal_Pradesh,Naharlagun,"Naharlagun, Naharlagun - APSPCB",17-04-2024 04:00:00,27.103358,93.679645,OZONE,2,2,2
India,Assam,Byrnihat,"Central Academy for SFS, Byrnihat - PCBA",17-04-2024 04:00:00,26.071318,91.87488,SO2,4,9,7
India,Assam,Byrnihat,"Central Academy for SFS, Byrnihat - PCBA",17-04-2024 04:00:00,26.071318,91.87488,OZONE,24,35,30
India,Assam,Guwahati,"LGBI Airport, Guwahati - PCBA",17-04-2024 04:00:00,26.10887,91.589544,PM10,36,170,111
India,Assam,Guwahati,"Pan Bazaar, Guwahati - PCBA",17-04-2024 04:00:00,26.187500,91.744194,NH3,3,4,3
India,Assam,Guwahati,"Pan Bazaar, Guwahati - PCBA",17-04-2024 04:00:00,26.187500,91.744194,OZONE,17,18,17
India,Assam,Guwahati,"Railway Colony, Guwahati - PCBA",17-04-2024 04:00:00,26.181742,91.78063,PM10,69,143,94
India,Assam,Nagaon,"Christianpatty, Nagaon - PCBA",17-04-2024 04:00:00,26.349082,92.68449,SO2,NA,NA,NA
India,Assam,Nalbari,"Bata Chowk, Nalbari - PCBA",17-04-2024 04:00:00,26.446912,91.439057,NO2,8,17,12
India,Bihar,Araria,"Kharahiya Basti, Araria - BSPCB",17-04-2024 04:00:00,26.146529,87.454184,PM10,67,158,104
India,Bihar,Araria,"Kharahiya Basti, Araria - BSPCB",17-04-2024 04:00:00,26.146529,87.454184,NH3,5,8,6
India,Bihar,Arrah,"New DM Office, Arrah - BSPCB",17-04-2024 04:00:00,25.5626095,84.663264,PM2.5,38,100,66
India,Bihar,Arrah,"New DM Office, Arrah - BSPCB",17-04-2024 04:00:00,25.5626095,84.663264,CO,2,15,9
India,Bihar,Aurangabad,"Gurdeo Nagar, Aurangabad - BSPCB",17-04-2024 04:00:00,24.75746,84.366208,PM10,NA,NA,NA
India,Bihar,Bettiah,"Kamalnath Nagar, Bettiah - BSPCB",17-04-2024 04:00:00,26.80365,84.51954,NO2,NA,NA,NA
India,Bihar,Bettiah,"Kamalnath Nagar, Bettiah - BSPCB",17-04-2024 04:00:00,26.80365,84.51954,NH3,3,7,5
India,Bihar,Bhagalpur,"DM Office_Kachari Chowk, Bhagalpur - BSPCB",17-04-2024 04:00:00,25.251013,86.989001,PM10,129,202,160
India,Bihar,Bhagalpur,"DM Office_Kachari Chowk, Bhagalpur - BSPCB",17-04-2024 04:00:00,25.251013,86.989001,NO2,45,108,82
India,Bihar,Bhagalpur,"Mayaganj, Bhagalpur - BSPCB",17-04-2024 04:00:00,25.265194,87.012947,PM10,45,147,84
India,Bihar,Bhagalpur,"Mayaganj, Bhagalpur - BSPCB",17-04-2024 04:00:00,25.265194,87.012947,SO2,3,12,11
India,Bihar,Chhapra,"Darshan Nagar, Chhapra - BSPCB",17-04-2024 04:00:00,25.7808257,84.7446768,PM2.5,227,316,281
India,Bihar,Gaya,"Kareemganj, Gaya - BSPCB",17-04-2024 04:00:00,24.792403,84.992416,NO2,30,31,30
India,Bihar,Gaya,"SFTI Kusdihra, Gaya - BSPCB",17-04-2024 04:00:00,24.762518,84.982348,PM10,NA,NA,NA
India,Bihar,Gaya,"SFTI Kusdihra, Gaya - BSPCB",17-04-2024 04:00:00,24.762518,84.982348,SO2,NA,NA,NA
India,Bihar,Katihar,"Mirchaibari, Katihar - BSPCB",17-04-2024 04:00:00,25.560083,87.553265,PM10,46,255,131
India,Bihar,Kishanganj,"SDM Office_Khagra, Kishanganj - BSPCB",17-04-2024 04:00:00,26.0881305,87.93840336,OZONE,38,58,57
India,Bihar,Manguraha,"Forest Rest House, Manguraha - BSPCB",17-04-2024 04:00:00,27.308328,84.531742,NO2,15,21,18
India,Bihar,Motihari,"Gandak Colony, Motihari - BSPCB",17-04-2024 04:00:00,26.63086,84.90051,NH3,8,19,13
India,Bihar,Muzaffarpur,"Buddha Colony, Muzaffarpur - BSPCB",17-04-2024 04:00:00,26.11442,85.39813,CO,16,48,31
India,Bihar,Muzaffarpur,"Muzaffarpur Collectorate, Muzaffarpur - BSPCB",17-04-2024 04:00:00,26.1209,85.3647,CO,21,76,30
India,Bihar,Patna,"Govt. High School Shikarpur, Patna - BSPCB",17-04-2024 04:00:00,25.592539,85.227158,OZONE,1,59,4
India,Bihar,Patna,"IGSC Planetarium Complex, Patna - BSPCB",17-04-2024 04:00:00,25.610369,85.132568,PM2.5,41,132,84
India,Bihar,Patna,"IGSC Planetarium Complex, Patna - BSPCB",17-04-2024 04:00:00,25.610369,85.132568,CO,12,12,12
India,Bihar,Patna,"Muradpur, Patna - BSPCB",17-04-2024 04:00:00,25.619651,85.147382,NO2,5,16,11
India,Bihar,Patna,"Muradpur, Patna - BSPCB",17-04-2024 04:00:00,25.619651,85.147382,NH3,2,4,3
India,Bihar,Patna,"Muradpur, Patna - BSPCB",17-04-2024 04:00:00,25.619651,85.147382,SO2,6,9,7
India,Bihar,Patna,"Muradpur, Patna - BSPCB",17-04-2024 04:00:00,25.619651,85.147382,OZONE,19,83,34
India,Bihar,Patna,"Samanpura, Patna - BSPCB",17-04-2024 04:00:00,25.596727,85.085624,CO,18,124,82
India,Bihar,Purnia,"Mariam Nagar, Purnia - BSPCB",17-04-2024 04:00:00,25.366336,87.117468,PM10,NA,NA,NA
India,Bihar,Purnia,"Mariam Nagar, Purnia - BSPCB",17-04-2024 04:00:00,25.366336,87.117468,SO2,5,14,9
India,Bihar,Purnia,"Mariam Nagar, Purnia - BSPCB",17-04-2024 04:00:00,25.366336,87.117468,CO,10,69,48
India,Bihar,Rajgir,"Dangi Tola, Rajgir - BSPCB",17-04-2024 04:00:00,25.03280,85.41948,NO2,18,23,20
India,Bihar,Rajgir,"Dangi Tola, Rajgir - BSPCB",17-04-2024 04:00:00,25.03280,85.41948,NH3,2,2,2
India,Bihar,Saharsa,"Police Line, Saharsa - BSPCB",17-04-2024 04:00:00,25.892357,86.590325,NH3,9,9,9
India,Bihar,Samastipur,"DM Office_Kasipur, Samastipur - BSPCB",17-04-2024 04:00:00,25.859655,85.77944,PM2.5,NA,NA,NA
India,Bihar,Samastipur,"DM Office_Kasipur, Samastipur - BSPCB",17-04-2024 04:00:00,25.859655,85.77944,NH3,2,4,3
India,Chandigarh,Chandigarh,"Sector 22, Chandigarh - CPCC",17-04-2024 04:00:00,30.735567,76.775714,NO2,15,77,29
India,Chandigarh,Chandigarh,"Sector-25, Chandigarh - CPCC",17-04-2024 04:00:00,30.751462,76.762879,NO2,3,19,9
India,Chandigarh,Chandigarh,"Sector-25, Chandigarh - CPCC",17-04-2024 04:00:00,30.751462,76.762879,NH3,8,16,11
India,Chandigarh,Chandigarh,"Sector-53, Chandigarh - CPCC",17-04-2024 04:00:00,30.719859,76.738637,PM2.5,27,203,78
India,Chandigarh,Chandigarh,"Sector-53, Chandigarh - CPCC",17-04-2024 04:00:00,30.719859,76.738637,PM10,62,421,109
India,Chhattisgarh,Bhilai,"Civic Center, Bhilai - Bhilai Steel Plant",17-04-2024 04:00:00,21.185571,81.343175,PM10,32,96,59
India,Chhattisgarh,Bhilai,"Hathkhoj, Bhilai - CECB",17-04-2024 04:00:00,21.224231,81.408350,NH3,6,8,7
India,Chhattisgarh,Bhilai,"Hathkhoj, Bhilai - CECB",17-04-2024 04:00:00,21.224231,81.408350,SO2,9,11,10
India,Chhattisgarh,Chhal,"Nawapara SECL Colony, Chhal - CECB",17-04-2024 04:00:00,22.118125,83.140608,SO2,8,49,23
India,Chhattisgarh,Chhal,"Nawapara SECL Colony, Chhal - CECB",17-04-2024 04:00:00,22.118125,83.140608,CO,18,118,38
India,Chhattisgarh,Chhal,"Nawapara SECL Colony, Chhal - CECB",17-04-2024 04:00:00,22.118125,83.140608,OZONE,12,116,44
India,Chhattisgarh,Korba,"Urja Nagar, Korba - CECB",17-04-2024 04:00:00,22.348441,82.549611,PM2.5,1,8,3
India,Chhattisgarh,Korba,"Urja Nagar, Korba - CECB",17-04-2024 04:00:00,22.348441,82.549611,SO2,2,3,2
India,Chhattisgarh,Raipur,"Bhatagaon New ISBT, Raipur - CECB",17-04-2024 04:00:00,21.219665,81.630094,NH3,2,2,2
India,Chhattisgarh,Raipur,"Bhatagaon New ISBT, Raipur - CECB",17-04-2024 04:00:00,21.219665,81.630094,OZONE,3,6,3
India,Chhattisgarh,Raipur,"Krishak Nagar, Raipur - CECB",17-04-2024 04:00:00,21.237755,81.705301,NO2,1,2,2
India,Chhattisgarh,Raipur,"Siltara Phase-II, Raipur - CECB",17-04-2024 04:00:00,21.371751,81.664929,NH3,3,3,3
India,Chhattisgarh,Raipur,"Siltara Phase-II, Raipur - CECB",17-04-2024 04:00:00,21.371751,81.664929,SO2,1,86,36
India,Chhattisgarh,Raipur,"Siltara Phase-II, Raipur - CECB",17-04-2024 04:00:00,21.371751,81.664929,OZONE,3,49,4
India,Chhattisgarh,Tumidih,"OP Jindal Industrial Park, Tumidih - CECB",17-04-2024 04:00:00,22.06631475,83.33820077,NO2,NA,NA,NA
India,Chhattisgarh,Tumidih,"OP Jindal Industrial Park, Tumidih - CECB",17-04-2024 04:00:00,22.06631475,83.33820077,SO2,NA,NA,NA
India,Delhi,Delhi,"Ashok Vihar, Delhi - DPCC",17-04-2024 04:00:00,28.695381,77.181665,PM10,93,408,185
India,Delhi,Delhi,"Bawana, Delhi - DPCC",17-04-2024 04:00:00,28.776200,77.051074,NH3,6,13,8
India,Delhi,Delhi,"Bawana, Delhi - DPCC",17-04-2024 04:00:00,28.776200,77.051074,CO,2,78,18
India,Delhi,Delhi,"Chandni Chowk, Delhi - IITM",17-04-2024 04:00:00,28.656756,77.227234,NH3,5,117,21
India,Delhi,Delhi,"Dr. Karni Singh Shooting Range, Delhi - DPCC",17-04-2024 04:00:00,28.498571,77.264840,PM10,81,218,141
India,Delhi,Delhi,"Dr. Karni Singh Shooting Range, Delhi - DPCC",17-04-2024 04:00:00,28.498571,77.264840,NH3,6,13,9
India,Delhi,Delhi,"Dr. Karni Singh Shooting Range, Delhi - DPCC",17-04-2024 04:00:00,28.498571,77.264840,CO,22,66,41
India,Delhi,Delhi,"Dwarka-Sector 8, Delhi - DPCC ",17-04-2024 04:00:00,28.5710274,77.0719006,PM10,116,451,211
India,Delhi,Delhi,"Dwarka-Sector 8, Delhi - DPCC ",17-04-2024 04:00:00,28.5710274,77.0719006,CO,35,89,49
India,Delhi,Delhi,"IHBAS, Dilshad Garden, Delhi - CPCB",17-04-2024 04:00:00,28.6811736,77.3025234,PM10,94,246,142
India,Delhi,Delhi,"IHBAS, Dilshad Garden, Delhi - CPCB",17-04-2024 04:00:00,28.6811736,77.3025234,CO,10,62,30
India,Delhi,Delhi,"Jahangirpuri, Delhi - DPCC",17-04-2024 04:00:00,28.732820,77.170633,PM10,109,437,227
India,Delhi,Delhi,"NSIT Dwarka, Delhi - CPCB",17-04-2024 04:00:00,28.60909,77.0325413,CO,22,50,37
India,Delhi,Delhi,"Najafgarh, Delhi - DPCC",17-04-2024 04:00:00,28.570173,76.933762,PM10,61,256,131
India,Delhi,Delhi,"Najafgarh, Delhi - DPCC",17-04-2024 04:00:00,28.570173,76.933762,NO2,8,48,19
India,Delhi,Delhi,"Nehru Nagar, Delhi - DPCC",17-04-2024 04:00:00,28.567890,77.250515,NO2,8,14,10
India,Delhi,Delhi,"Nehru Nagar, Delhi - DPCC",17-04-2024 04:00:00,28.567890,77.250515,NH3,2,3,3
India,Delhi,Delhi,"Nehru Nagar, Delhi - DPCC",17-04-2024 04:00:00,28.567890,77.250515,OZONE,2,117,64
India,Delhi,Delhi,"New Moti Bagh, Delhi - MHUA",17-04-2024 04:00:00,28.57834,77.18400,CO,16,84,41
India,Delhi,Delhi,"Okhla Phase-2, Delhi - DPCC",17-04-2024 04:00:00,28.530785,77.271255,SO2,2,18,14
India,Delhi,Delhi,"Patparganj, Delhi - DPCC",17-04-2024 04:00:00,28.623763,77.287209,PM10,109,380,182
India,Delhi,Delhi,"Patparganj, Delhi - DPCC",17-04-2024 04:00:00,28.623763,77.287209,NO2,28,87,52
India,Delhi,Delhi,"Punjabi Bagh, Delhi - DPCC",17-04-2024 04:00:00,28.674045,77.131023,NH3,4,6,4
India,Delhi,Delhi,"Pusa, Delhi - DPCC",17-04-2024 04:00:00,28.639652,77.146275,OZONE,10,45,32
India,Delhi,Delhi,"R K Puram, Delhi - DPCC",17-04-2024 04:00:00,28.563262,77.186937,SO2,2,42,23
India,Delhi,Delhi,"Rohini, Delhi - DPCC",17-04-2024 04:00:00,28.732528,77.119920,NH3,11,26,19
India,Delhi,Delhi,"Shadipur, Delhi - CPCB",17-04-2024 04:00:00,28.6514781,77.1473105,OZONE,32,171,144
India,Delhi,Delhi,"Sonia Vihar, Delhi - DPCC",17-04-2024 04:00:00,28.710508,77.249485,NO2,10,82,31
India,Delhi,Delhi,"Sri Aurobindo Marg, Delhi - DPCC",17-04-2024 04:00:00,28.531346,77.190156,PM10,79,250,144
India,Delhi,Delhi,"Sri Aurobindo Marg, Delhi - DPCC",17-04-2024 04:00:00,28.531346,77.190156,SO2,12,51,20
India,Delhi,Delhi,"Sri Aurobindo Marg, Delhi - DPCC",17-04-2024 04:00:00,28.531346,77.190156,OZONE,10,60,31
India,Delhi,Delhi,"Wazirpur, Delhi - DPCC",17-04-2024 04:00:00,28.699793,77.165453,NO2,24,88,48
India,Gujarat,Ahmedabad,"Chandkheda, Ahmedabad - IITM",17-04-2024 04:00:00,23.107969,72.574648,CO,26,110,92
India,Gujarat,Ahmedabad,"Chandkheda, Ahmedabad - IITM",17-04-2024 04:00:00,23.107969,72.574648,OZONE,9,43,19
India,Gujarat,Ahmedabad,"Gyaspur, Ahmedabad - IITM",17-04-2024 04:00:00,22.977134,72.553024,PM2.5,50,126,68
India,Gujarat,Ahmedabad,"Gyaspur, Ahmedabad - IITM",17-04-2024 04:00:00,22.977134,72.553024,PM10,61,129,84
India,Gujarat,Ahmedabad,"Gyaspur, Ahmedabad - IITM",17-04-2024 04:00:00,22.977134,72.553024,NO2,33,39,35
India,Gujarat,Ahmedabad,"Gyaspur, Ahmedabad - IITM",17-04-2024 04:00:00,22.977134,72.553024,NH3,11,11,11
India,Gujarat,Ahmedabad,"Gyaspur, Ahmedabad - IITM",17-04-2024 04:00:00,22.977134,72.553024,OZONE,5,33,10
India,Gujarat,Ahmedabad,"Maninagar, Ahmedabad - GPCB",17-04-2024 04:00:00,23.002657,72.591912,PM2.5,18,66,40
India,Gujarat,Ahmedabad,"Maninagar, Ahmedabad - GPCB",17-04-2024 04:00:00,23.002657,72.591912,NO2,24,81,41
India,Gujarat,Ahmedabad,"Raikhad, Ahmedabad - IITM",17-04-2024 04:00:00,23.020509,72.579261,SO2,NA,NA,NA
India,Gujarat,Ahmedabad,"Rakhial, Ahmedabad - IITM",17-04-2024 04:00:00,23.016834,72.625775,OZONE,8,49,14
India,Gujarat,Ahmedabad,"SAC ISRO Satellite, Ahmedabad - IITM",17-04-2024 04:00:00,23.023389,72.515201,PM2.5,73,128,95
India,Gujarat,Ahmedabad,"SAC ISRO Satellite, Ahmedabad - IITM",17-04-2024 04:00:00,23.023389,72.515201,PM10,81,100,90
India,Gujarat,Ahmedabad,"SAC ISRO Satellite, Ahmedabad - IITM",17-04-2024 04:00:00,23.023389,72.515201,CO,22,38,34
India,Gujarat,Ahmedabad,"SAC ISRO Satellite, Ahmedabad - IITM",17-04-2024 04:00:00,23.023389,72.515201,OZONE,14,22,15
India,Gujarat,Ahmedabad,"Sardar Vallabhbhai Patel Stadium, Ahmedabad - IITM",17-04-2024 04:00:00,23.043070,72.562968,NO2,39,41,40
India,Gujarat,Ahmedabad,"Sardar Vallabhbhai Patel Stadium, Ahmedabad - IITM",17-04-2024 04:00:00,23.043070,72.562968,NH3,7,7,7
India,Gujarat,Ankleshwar,"GIDC, Ankleshwar - GPCB",17-04-2024 04:00:00,21.613267,73.010555,PM10,38,91,62
India,Gujarat,Gandhinagar,"IIPHG Lekawada, Gandhinagar - IITM",17-04-2024 04:00:00,23.243639,72.68994,OZONE,14,40,21
India,Gujarat,Gandhinagar,"Sector-10, Gandhinagar - GPCB",17-04-2024 04:00:00,23.221714,72.654328,NO2,15,23,18
India,Gujarat,Gandhinagar,"Sector-10, Gandhinagar - GPCB",17-04-2024 04:00:00,23.221714,72.654328,NH3,1,1,1
India,Gujarat,Surat,"Science Center, Surat - SMC",17-04-2024 04:00:00,21.170046,72.795405,PM10,6,31,19
India,Gujarat,Surat,"Science Center, Surat - SMC",17-04-2024 04:00:00,21.170046,72.795405,NO2,36,50,44
India,Gujarat,Vapi,"Phase-1 GIDC, Vapi - GPCB",17-04-2024 04:00:00,20.362421,72.918013,SO2,50,53,52
India,Haryana,Ambala,"Patti Mehar, Ambala - HSPCB",17-04-2024 04:00:00,30.379589,76.778328,SO2,1,104,26
India,Haryana,Bahadurgarh,"Arya Nagar, Bahadurgarh - HSPCB",17-04-2024 04:00:00,28.6701,76.9254,NH3,11,12,12
India,Haryana,Ballabgarh,"Nathu Colony, Ballabgarh - HSPCB",17-04-2024 04:00:00,28.3419248,77.319699,PM10,124,256,177
India,Haryana,Ballabgarh,"Nathu Colony, Ballabgarh - HSPCB",17-04-2024 04:00:00,28.3419248,77.319699,NO2,12,13,13
India,Haryana,Ballabgarh,"Nathu Colony, Ballabgarh - HSPCB",17-04-2024 04:00:00,28.3419248,77.319699,OZONE,7,23,9
India,Haryana,Bhiwani,"H.B. Colony, Bhiwani - HSPCB",17-04-2024 04:00:00,28.806223,76.141105,NH3,3,6,6
India,Haryana,Charkhi Dadri,"Mini Secretariat, Charkhi Dadri - HSPCB",17-04-2024 04:00:00,28.593883,76.270653,CO,18,66,43
India,Haryana,Faridabad,"New Industrial Town, Faridabad - HSPCB",17-04-2024 04:00:00,28.39072,77.30059,PM10,75,361,182
India,Haryana,Faridabad,"New Industrial Town, Faridabad - HSPCB",17-04-2024 04:00:00,28.39072,77.30059,CO,1,30,14
India,Haryana,Faridabad,"New Industrial Town, Faridabad - HSPCB",17-04-2024 04:00:00,28.39072,77.30059,OZONE,21,72,54
India,Haryana,Faridabad,"Sector 11, Faridabad - HSPCB",17-04-2024 04:00:00,28.376058,77.315741,NO2,30,33,31
India,Haryana,Faridabad,"Sector 11, Faridabad - HSPCB",17-04-2024 04:00:00,28.376058,77.315741,SO2,4,74,10
India,Haryana,Faridabad,"Sector 11, Faridabad - HSPCB",17-04-2024 04:00:00,28.376058,77.315741,OZONE,5,13,7
India,Haryana,Fatehabad,"Huda Sector, Fatehabad - HSPCB",17-04-2024 04:00:00,29.503664,75.467934,PM2.5,18,81,37
India,Haryana,Fatehabad,"Huda Sector, Fatehabad - HSPCB",17-04-2024 04:00:00,29.503664,75.467934,SO2,10,11,11
India,Haryana,Fatehabad,"Huda Sector, Fatehabad - HSPCB",17-04-2024 04:00:00,29.503664,75.467934,CO,5,18,8
India,Haryana,Gurugram,"Sector-51, Gurugram - HSPCB",17-04-2024 04:00:00,28.4227,77.0667,PM2.5,136,352,245
India,Haryana,Gurugram,"Teri Gram, Gurugram - HSPCB",17-04-2024 04:00:00,28.4275,77.1465,PM2.5,86,384,228
India,Haryana,Gurugram,"Teri Gram, Gurugram - HSPCB",17-04-2024 04:00:00,28.4275,77.1465,PM10,126,351,206
India,Haryana,Gurugram,"Teri Gram, Gurugram - HSPCB",17-04-2024 04:00:00,28.4275,77.1465,NH3,42,73,54
India,Haryana,Gurugram,"Teri Gram, Gurugram - HSPCB",17-04-2024 04:00:00,28.4275,77.1465,OZONE,25,36,32
India,Haryana,Gurugram,"Vikas Sadan, Gurugram - HSPCB",17-04-2024 04:00:00,28.4501238,77.0263051,SO2,9,37,27
India,Haryana,Hisar,"Urban Estate-II, Hisar - HSPCB",17-04-2024 04:00:00,29.140560,75.744941,CO,25,38,30
India,Haryana,Jind,"Police Lines, Jind - HSPCB",17-04-2024 04:00:00,29.307814,76.337619,NH3,3,6,4
India,Haryana,Kurukshetra,"Sector-7, Kurukshetra - HSPCB",17-04-2024 04:00:00,29.966942,76.875879,PM10,59,100,81
India,Haryana,Manesar,"Sector-2 IMT, Manesar - HSPCB",17-04-2024 04:00:00,28.360699,76.936090,NH3,15,50,28
India,Haryana,Narnaul,"Shastri Nagar, Narnaul - HSPCB",17-04-2024 04:00:00,28.060249,76.113115,PM10,43,55,51
India,Haryana,Panipat,"Sector-18, Panipat - HSPCB",17-04-2024 04:00:00,29.497973,76.993331,CO,24,26,25
India,Haryana,Sirsa,"F-Block, Sirsa - HSPCB",17-04-2024 04:00:00,29.536400,75.015800,PM10,40,155,89
India,Haryana,Sirsa,"F-Block, Sirsa - HSPCB",17-04-2024 04:00:00,29.536400,75.015800,NH3,9,14,12
India,Haryana,Sirsa,"F-Block, Sirsa - HSPCB",17-04-2024 04:00:00,29.536400,75.015800,OZONE,28,97,77
India,Haryana,Sonipat,"Murthal, Sonipat - HSPCB",17-04-2024 04:00:00,29.027200,77.062100,PM10,106,109,107
India,Haryana,Yamuna Nagar,"Gobind Pura, Yamuna Nagar - HSPCB",17-04-2024 04:00:00,30.1480566,77.2893471,PM10,43,133,87
India,Haryana,Yamuna Nagar,"Gobind Pura, Yamuna Nagar - HSPCB",17-04-2024 04:00:00,30.1480566,77.2893471,NO2,4,29,14
India,Himachal Pradesh,Baddi,"HIMUDA Complex Phase-1, Baddi - HPPCB",17-04-2024 04:00:00,30.943887,76.801991,PM2.5,22,217,76
India,Himachal Pradesh,Baddi,"HIMUDA Complex Phase-1, Baddi - HPPCB",17-04-2024 04:00:00,30.943887,76.801991,NH3,3,7,5
India,Jharkhand,Dhanbad,"Kalakusuma, Dhanbad - DMC",17-04-2024 04:00:00,23.811548,86.481238,NO2,14,430,220
India,Jharkhand,Dhanbad,"Kalakusuma, Dhanbad - DMC",17-04-2024 04:00:00,23.811548,86.481238,OZONE,20,27,23
India,Karnataka,Bagalkot,"Vidayagiri, Bagalkot - KSPCB",17-04-2024 04:00:00,16.172806,75.659694,NO2,9,11,9
India,Karnataka,Belgaum,"Ramteerth Nagar, Belgaum - KSPCB",17-04-2024 04:00:00,15.888653,74.541751,CO,28,40,34
India,Karnataka,Bengaluru,"BTM Layout, Bengaluru - CPCB",17-04-2024 04:00:00,12.9135218,77.5950804,SO2,7,14,11
India,Karnataka,Bengaluru,"BTM Layout, Bengaluru - CPCB",17-04-2024 04:00:00,12.9135218,77.5950804,OZONE,20,74,35
India,Karnataka,Bengaluru,"Bapuji Nagar, Bengaluru - KSPCB",17-04-2024 04:00:00,12.951913,77.539784,PM2.5,39,121,76
India,Karnataka,Bengaluru,"Hebbal, Bengaluru - KSPCB",17-04-2024 04:00:00,13.029152,77.585901,PM2.5,17,99,48
India,Karnataka,Bengaluru,"Hombegowda Nagar, Bengaluru - KSPCB",17-04-2024 04:00:00,12.938539,77.590100,PM10,36,92,60
India,Karnataka,Bengaluru,"Hombegowda Nagar, Bengaluru - KSPCB",17-04-2024 04:00:00,12.938539,77.590100,NO2,12,25,19
India,Karnataka,Bengaluru,"Jayanagar 5th Block, Bengaluru - KSPCB",17-04-2024 04:00:00,12.920984,77.584908,PM10,44,221,102
India,Karnataka,Bengaluru,"Jayanagar 5th Block, Bengaluru - KSPCB",17-04-2024 04:00:00,12.920984,77.584908,SO2,13,35,22
India,Karnataka,Bengaluru,"Kasturi Nagar, Bengaluru - KSPCB",17-04-2024 04:00:00,13.003872,77.664217,SO2,10,10,10
India,Karnataka,Bengaluru,"Kasturi Nagar, Bengaluru - KSPCB",17-04-2024 04:00:00,13.003872,77.664217,CO,21,26,24
India,Karnataka,Bengaluru,"Peenya, Bengaluru - CPCB",17-04-2024 04:00:00,13.0270199,77.494094,PM10,23,105,68
India,Karnataka,Bengaluru,"Peenya, Bengaluru - CPCB",17-04-2024 04:00:00,13.0270199,77.494094,OZONE,NA,NA,NA
India,Karnataka,Bengaluru,"RVCE-Mailasandra, Bengaluru - KSPCB",17-04-2024 04:00:00,12.921418,77.502466,PM10,56,500,110
India,Karnataka,Bengaluru,"Shivapura_Peenya, Bengaluru - KSPCB",17-04-2024 04:00:00,13.0246342,77.5080115,PM10,39,73,56
India,Karnataka,Bengaluru,"Shivapura_Peenya, Bengaluru - KSPCB",17-04-2024 04:00:00,13.0246342,77.5080115,SO2,4,23,10
India,Karnataka,Bengaluru,"Silk Board, Bengaluru - KSPCB",17-04-2024 04:00:00,12.917348,77.622813,PM2.5,23,83,42
India,Karnataka,Bengaluru,"Silk Board, Bengaluru - KSPCB",17-04-2024 04:00:00,12.917348,77.622813,SO2,NA,NA,NA
India,Karnataka,Bengaluru,"Silk Board, Bengaluru - KSPCB",17-04-2024 04:00:00,12.917348,77.622813,OZONE,20,32,25
India,Karnataka,Chikkaballapur,"Chikkaballapur Rural, Chikkaballapur - KSPCB",17-04-2024 04:00:00,13.428828,77.731418,PM2.5,28,235,82
India,Karnataka,Chikkaballapur,"Chikkaballapur Rural, Chikkaballapur - KSPCB",17-04-2024 04:00:00,13.428828,77.731418,PM10,35,122,74
India,Karnataka,Chikkaballapur,"Chikkaballapur Rural, Chikkaballapur - KSPCB",17-04-2024 04:00:00,13.428828,77.731418,NO2,6,17,9
India,Karnataka,Chikkaballapur,"Chikkaballapur Rural, Chikkaballapur - KSPCB",17-04-2024 04:00:00,13.428828,77.731418,NH3,1,1,1
India,Karnataka,Chikkamagaluru,"Kalyana Nagara, Chikkamagaluru - KSPCB",17-04-2024 04:00:00,13.328028,75.797056,CO,6,111,37
India,Karnataka,Dharwad,"Kalabhavan, Dharwad - KSPCB",17-04-2024 04:00:00,15.459706,75.008381,NO2,5,23,15
India,Karnataka,Dharwad,"Kalabhavan, Dharwad - KSPCB",17-04-2024 04:00:00,15.459706,75.008381,CO,14,110,42
India,Karnataka,Gadag,"Panchal Nagar, Gadag - KSPCB",17-04-2024 04:00:00,15.411456,75.638133,NO2,NA,NA,NA
India,Karnataka,Hassan,"B.Katihalli, Hassan - KSPCB",17-04-2024 04:00:00,13.008556,76.125258,OZONE,4,28,24
India,Karnataka,Haveri,"Ashwini Nagar, Haveri - KSPCB",17-04-2024 04:00:00,14.791800,75.389600,NH3,NA,NA,NA
India,Karnataka,Hubballi,"Deshpande Nagar, Hubballi - KSPCB",17-04-2024 04:00:00,15.351773,75.140726,PM10,NA,NA,NA
India,Karnataka,Kalaburagi,"Mahatma Basaveswar Colony, Kalaburgi - KSPCB",17-04-2024 04:00:00,17.336318,76.847397,SO2,4,64,19
India,Karnataka,Kalaburagi,"Mahatma Basaveswar Colony, Kalaburgi - KSPCB",17-04-2024 04:00:00,17.336318,76.847397,OZONE,10,29,14
India,Karnataka,Karwar,"KHB Colony, Karwar - KSPCB",17-04-2024 04:00:00,14.816666,74.141003,PM10,40,77,53
India,Karnataka,Karwar,"KHB Colony, Karwar - KSPCB",17-04-2024 04:00:00,14.816666,74.141003,NO2,1,12,3
India,Karnataka,Kolar,"Tamaka Ind. Area, Kolar - KSPCB",17-04-2024 04:00:00,13.1276288,78.1570122,CO,5,6,6
India,Karnataka,Koppal,"Diwator Nagar, Koppal - KSPCB",17-04-2024 04:00:00,15.347630,76.181767,NO2,38,69,51
India,Karnataka,Koppal,"Diwator Nagar, Koppal - KSPCB",17-04-2024 04:00:00,15.347630,76.181767,NH3,5,9,7
India,Karnataka,Madikeri,"Stuart Hill, Madikeri - KSPCB",17-04-2024 04:00:00,12.415911,75.735050,PM2.5,25,53,40
India,Karnataka,Madikeri,"Stuart Hill, Madikeri - KSPCB",17-04-2024 04:00:00,12.415911,75.735050,NO2,2,7,4
India,Karnataka,Mangalore,"Kadri, Mangalore - KSPCB",17-04-2024 04:00:00,12.889250,74.853000,PM10,50,95,67
India,Karnataka,Mangalore,"Kadri, Mangalore - KSPCB",17-04-2024 04:00:00,12.889250,74.853000,NO2,5,6,6
India,Karnataka,Shivamogga,"Vinoba Nagara, Shivamogga - KSPCB",17-04-2024 04:00:00,13.940000,75.555917,PM2.5,35,60,46
India,Karnataka,Shivamogga,"Vinoba Nagara, Shivamogga - KSPCB",17-04-2024 04:00:00,13.940000,75.555917,SO2,3,11,7
India,Karnataka,Tumakuru,"Thimmalapura, Tumakuru - KSPCB",17-04-2024 04:00:00,13.377516,77.099072,NO2,18,54,31
India,Karnataka,Tumakuru,"Thimmalapura, Tumakuru - KSPCB",17-04-2024 04:00:00,13.377516,77.099072,SO2,8,13,9
India,Karnataka,Tumakuru,"Thimmalapura, Tumakuru - KSPCB",17-04-2024 04:00:00,13.377516,77.099072,OZONE,8,55,29
India,Karnataka,Vijayapura,"Ibrahimpur, Vijayapura - KSPCB",17-04-2024 04:00:00,16.802639,75.722694,PM2.5,26,31,30
India,Karnataka,Vijayapura,"Ibrahimpur, Vijayapura - KSPCB",17-04-2024 04:00:00,16.802639,75.722694,PM10,42,44,42
India,Karnataka,Vijayapura,"Ibrahimpur, Vijayapura - KSPCB",17-04-2024 04:00:00,16.802639,75.722694,SO2,3,80,26
India,Karnataka,Yadgir,"Collector Office, Yadgir - KSPCB",17-04-2024 04:00:00,16.7602,77.1428,PM2.5,30,85,51
India,Karnataka,Yadgir,"Collector Office, Yadgir - KSPCB",17-04-2024 04:00:00,16.7602,77.1428,NO2,5,9,6
India,Karnataka,Yadgir,"Collector Office, Yadgir - KSPCB",17-04-2024 04:00:00,16.7602,77.1428,OZONE,19,20,19
India,Kerala,Thiruvananthapuram,"Kariavattom, Thiruvananthapuram - Kerala PCB",17-04-2024 04:00:00,8.563700,76.886500,NO2,8,9,9
India,Kerala,Thiruvananthapuram,"Plammoodu, Thiruvananthapuram - Kerala PCB",17-04-2024 04:00:00,8.5149093,76.9435879,SO2,3,12,9
India,Madhya Pradesh,Bhopal,"Idgah Hills, Bhopal - MPPCB",17-04-2024 04:00:00,23.264759,77.381568,PM10,48,100,67
India,Madhya Pradesh,Bhopal,"Idgah Hills, Bhopal - MPPCB",17-04-2024 04:00:00,23.264759,77.381568,SO2,15,26,18
India,Madhya Pradesh,Bhopal,"Paryavaran Parisar, Bhopal - MPPCB",17-04-2024 04:00:00,23.210494,77.425409,PM10,31,125,79
India,Madhya Pradesh,Bhopal,"Paryavaran Parisar, Bhopal - MPPCB",17-04-2024 04:00:00,23.210494,77.425409,NO2,9,55,30
India,Madhya Pradesh,Bhopal,"T T Nagar, Bhopal - MPPCB",17-04-2024 04:00:00,23.233584,77.400574,PM2.5,14,84,48
India,Madhya Pradesh,Bhopal,"T T Nagar, Bhopal - MPPCB",17-04-2024 04:00:00,23.233584,77.400574,NO2,15,48,27
India,Madhya Pradesh,Bhopal,"T T Nagar, Bhopal - MPPCB",17-04-2024 04:00:00,23.233584,77.400574,OZONE,26,80,39
India,Madhya Pradesh,Gwalior,"Deen Dayal Nagar, Gwalior - MPPCB",17-04-2024 04:00:00,26.259242,78.216432,NH3,4,10,6
India,Madhya Pradesh,Gwalior,"Deen Dayal Nagar, Gwalior - MPPCB",17-04-2024 04:00:00,26.259242,78.216432,SO2,10,14,12
India,Madhya Pradesh,Gwalior,"Maharaj Bada, Gwalior - MPPCB",17-04-2024 04:00:00,26.200388,78.147714,NH3,NA,NA,NA
India,Madhya Pradesh,Gwalior,"Phool Bagh, Gwalior - Mondelez Ind. Food",17-04-2024 04:00:00,26.210536,78.171,NO2,4,5,4
India,Madhya Pradesh,Indore,"Chhoti Gwaltoli, Indore - MPPCB",17-04-2024 04:00:00,22.4310,75.5213,SO2,10,112,46
India,Madhya Pradesh,Indore,"Maguda Nagar, Indore - IMC",17-04-2024 04:00:00,22.7524,75.8872,PM2.5,29,146,69
India,Madhya Pradesh,Indore,"Maguda Nagar, Indore - IMC",17-04-2024 04:00:00,22.7524,75.8872,SO2,28,37,32
India,Madhya Pradesh,Indore,"Maguda Nagar, Indore - IMC",17-04-2024 04:00:00,22.7524,75.8872,CO,23,47,33
India,Madhya Pradesh,Indore,"Regional Park, Indore - IMC",17-04-2024 04:00:00,22.6780,75.8559,PM10,16,78,48
India,Madhya Pradesh,Indore,"Regional Park, Indore - IMC",17-04-2024 04:00:00,22.6780,75.8559,NH3,1,4,2
India,Madhya Pradesh,Indore,"Regional Park, Indore - IMC",17-04-2024 04:00:00,22.6780,75.8559,CO,24,62,42
India,Madhya Pradesh,Indore,"Residency Area, Indore - IMC",17-04-2024 04:00:00,22.7084,75.8815,NO2,30,57,42
India,Madhya Pradesh,Jabalpur,"Govindh Bhavan Colony, Jabalpur - JMC",17-04-2024 04:00:00,23.163174,79.973061,PM2.5,30,68,45
India,Madhya Pradesh,Jabalpur,"Gupteshwar, Jabalpur - JMC",17-04-2024 04:00:00,23.142888,79.916147,PM10,40,109,62
India,Madhya Pradesh,Jabalpur,"Gupteshwar, Jabalpur - JMC",17-04-2024 04:00:00,23.142888,79.916147,NO2,15,65,30
India,Madhya Pradesh,Jabalpur,"Marhatal, Jabalpur - MPPCB",17-04-2024 04:00:00,23.168606,79.932247,NH3,2,4,3
India,Madhya Pradesh,Jabalpur,"Marhatal, Jabalpur - MPPCB",17-04-2024 04:00:00,23.168606,79.932247,OZONE,12,90,27
India,Madhya Pradesh,Katni,"Gole Bazar, Katni - MPPCB",17-04-2024 04:00:00,23.50016,80.23284,PM10,56,139,83
India,Madhya Pradesh,Katni,"Gole Bazar, Katni - MPPCB",17-04-2024 04:00:00,23.50016,80.23284,SO2,8,128,38
India,Madhya Pradesh,Mandideep,"Sector-D Industrial Area, Mandideep - MPPCB",17-04-2024 04:00:00,23.108440,77.511428,SO2,5,120,59
India,Madhya Pradesh,Mandideep,"Sector-D Industrial Area, Mandideep - MPPCB",17-04-2024 04:00:00,23.108440,77.511428,OZONE,9,40,17
India,Madhya Pradesh,Pithampur,"Sector-2 Industrial Area, Pithampur - MPPCB",17-04-2024 04:00:00,22.624758,75.675238,PM2.5,11,130,54
India,Madhya Pradesh,Pithampur,"Sector-2 Industrial Area, Pithampur - MPPCB",17-04-2024 04:00:00,22.624758,75.675238,NO2,5,12,9
