country,state,city,station,last_update,latitude,longitude,pollutant_id,pollutant_min,pollutant_max,pollutant_avg
India,Andhra_Pradesh,Amaravati,"Secretariat, Amaravati - APPCB",30-03-2024 11:00:00,16.5150833,80.5181667,NO2,NA,NA,NA
India,Andhra_Pradesh,Amaravati,"Secretariat, Amaravati - APPCB",30-03-2024 11:00:00,16.5150833,80.5181667,OZONE,33,33,33
India,Andhra_Pradesh,Chittoor,"Gangineni Cheruvu, Chittoor - APPCB",30-03-2024 11:00:00,13.204880,79.097889,PM10,16,374,104
India,Andhra_Pradesh,Chittoor,"Gangineni Cheruvu, Chittoor - APPCB",30-03-2024 11:00:00,13.204880,79.097889,CO,2,16,6
India,Andhra_Pradesh,Chittoor,"Gangineni Cheruvu, Chittoor - APPCB",30-03-2024 11:00:00,13.204880,79.097889,OZONE,8,141,28
India,Andhra_Pradesh,Kadapa,"Yerramukkapalli, Kadapa - APPCB",30-03-2024 11:00:00,14.465052,78.824187,PM2.5,21,54,34
India,Andhra_Pradesh,Kadapa,"Yerramukkapalli, Kadapa - APPCB",30-03-2024 11:00:00,14.465052,78.824187,NO2,8,8,8
India,Andhra_Pradesh,Rajamahendravaram,"Anand Kala Kshetram, Rajamahendravaram - APPCB",30-03-2024 11:00:00,16.9872867,81.7363176,NH3,2,5,3
India,Andhra_Pradesh,Tirupati,"Tirumala, Tirupati - APPCB",30-03-2024 11:00:00,13.67,79.35,NO2,14,32,24
India,Andhra_Pradesh,Tirupati,"Tirumala, Tirupati - APPCB",30-03-2024 11:00:00,13.67,79.35,NH3,1,1,1
India,Andhra_Pradesh,Tirupati,"Tirumala, Tirupati - APPCB",30-03-2024 11:00:00,13.67,79.35,CO,18,40,28
India,Andhra_Pradesh,Tirupati,"Vaikuntapuram, Tirupati - APPCB",30-03-2024 11:00:00,13.615387,79.409230,PM10,13,180,52
India,Andhra_Pradesh,Vijayawada,"Kanuru, Vijayawada - APPCB",30-03-2024 11:00:00,16.486692,80.699436,PM2.5,52,64,57
India,Andhra_Pradesh,Visakhapatnam,"GVM Corporation, Visakhapatnam - APPCB",30-03-2024 11:00:00,17.72,83.3,NO2,35,52,42
India,Arunachal_Pradesh,Naharlagun,"Naharlagun, Naharlagun - APSPCB",30-03-2024 11:00:00,27.103358,93.679645,PM10,NA,NA,NA
India,Assam,Byrnihat,"Central Academy for SFS, Byrnihat - PCBA",30-03-2024 11:00:00,26.071318,91.87488,NH3,4,8,7
India,Assam,Guwahati,"LGBI Airport, Guwahati - PCBA",30-03-2024 11:00:00,26.10887,91.589544,PM2.5,60,342,121
India,Assam,Guwahati,"LGBI Airport, Guwahati - PCBA",30-03-2024 11:00:00,26.10887,91.589544,NH3,1,9,4
India,Assam,Guwahati,"LGBI Airport, Guwahati - PCBA",30-03-2024 11:00:00,26.10887,91.589544,SO2,1,11,5
India,Assam,Guwahati,"LGBI Airport, Guwahati - PCBA",30-03-2024 11:00:00,26.10887,91.589544,OZONE,1,19,17
India,Assam,Guwahati,"Pan Bazaar, Guwahati - PCBA",30-03-2024 11:00:00,26.187500,91.744194,NO2,1,9,4
India,Assam,Nagaon,"Christianpatty, Nagaon - PCBA",30-03-2024 11:00:00,26.349082,92.68449,NH3,8,13,11
India,Assam,Nagaon,"Christianpatty, Nagaon - PCBA",30-03-2024 11:00:00,26.349082,92.68449,SO2,17,65,35
India,Assam,Nalbari,"Bata Chowk, Nalbari - PCBA",30-03-2024 11:00:00,26.446912,91.439057,PM10,90,381,190
India,Assam,Sivasagar,"Girls College, Sivasagar - PCBA",30-03-2024 11:00:00,26.987634,94.636574,NO2,7,22,13
India,Bihar,Arrah,"New DM Office, Arrah - BSPCB",30-03-2024 11:00:00,25.5626095,84.663264,PM2.5,55,137,90
India,Bihar,Arrah,"New DM Office, Arrah - BSPCB",30-03-2024 11:00:00,25.5626095,84.663264,SO2,15,21,18
India,Bihar,Aurangabad,"Gurdeo Nagar, Aurangabad - BSPCB",30-03-2024 11:00:00,24.75746,84.366208,NO2,2,6,5
India,Bihar,Aurangabad,"Gurdeo Nagar, Aurangabad - BSPCB",30-03-2024 11:00:00,24.75746,84.366208,CO,17,80,69
India,Bihar,Aurangabad,"Gurdeo Nagar, Aurangabad - BSPCB",30-03-2024 11:00:00,24.75746,84.366208,OZONE,1,64,14
India,Bihar,Bettiah,"Kamalnath Nagar, Bettiah - BSPCB",30-03-2024 11:00:00,26.80365,84.51954,PM2.5,48,330,209
India,Bihar,Bettiah,"Kamalnath Nagar, Bettiah - BSPCB",30-03-2024 11:00:00,26.80365,84.51954,PM10,54,249,146
India,Bihar,Bettiah,"Kamalnath Nagar, Bettiah - BSPCB",30-03-2024 11:00:00,26.80365,84.51954,SO2,8,29,14
India,Bihar,Bhagalpur,"DM Office_Kachari Chowk, Bhagalpur - BSPCB",30-03-2024 11:00:00,25.251013,86.989001,NO2,54,89,74
India,Bihar,Bhagalpur,"DM Office_Kachari Chowk, Bhagalpur - BSPCB",30-03-2024 11:00:00,25.251013,86.989001,NH3,8,13,10
India,Bihar,Bhagalpur,"Mayaganj, Bhagalpur - BSPCB",30-03-2024 11:00:00,25.265194,87.012947,PM10,78,225,142
India,Bihar,Bhagalpur,"Mayaganj, Bhagalpur - BSPCB",30-03-2024 11:00:00,25.265194,87.012947,NH3,5,7,6
India,Bihar,Bhagalpur,"Mayaganj, Bhagalpur - BSPCB",30-03-2024 11:00:00,25.265194,87.012947,CO,8,10,9
India,Bihar,Bihar Sharif,"D M Colony, Bihar Sharif - BSPCB",30-03-2024 11:00:00,25.204762,85.514960,NO2,8,10,9
India,Bihar,Buxar,"Charitra Van, Buxar - BSPCB (Formerly known as Central Jail)",30-03-2024 11:00:00,25.567520,83.966379,SO2,11,20,18
India,Bihar,Chhapra,"Darshan Nagar, Chhapra - BSPCB",30-03-2024 11:00:00,25.7808257,84.7446768,CO,34,60,42
India,Bihar,Gaya,"Collectorate, Gaya - BSPCB",30-03-2024 11:00:00,24.7955,84.9994,PM2.5,85,287,144
India,Bihar,Gaya,"Kareemganj, Gaya - BSPCB",30-03-2024 11:00:00,24.792403,84.992416,NO2,28,31,30
India,Bihar,Gaya,"SFTI Kusdihra, Gaya - BSPCB",30-03-2024 11:00:00,24.762518,84.982348,PM2.5,69,152,111
India,Bihar,Gaya,"SFTI Kusdihra, Gaya - BSPCB",30-03-2024 11:00:00,24.762518,84.982348,OZONE,16,105,31
India,Bihar,Hajipur,"Industrial Area, Hajipur - BSPCB",30-03-2024 11:00:00,25.697189,85.245900,PM2.5,50,150,99
India,Bihar,Hajipur,"Industrial Area, Hajipur - BSPCB",30-03-2024 11:00:00,25.697189,85.245900,NO2,10,21,15
India,Bihar,Katihar,"Mirchaibari, Katihar - BSPCB",30-03-2024 11:00:00,25.560083,87.553265,PM2.5,23,100,62
India,Bihar,Katihar,"Mirchaibari, Katihar - BSPCB",30-03-2024 11:00:00,25.560083,87.553265,PM10,72,276,138
India,Bihar,Katihar,"Mirchaibari, Katihar - BSPCB",30-03-2024 11:00:00,25.560083,87.553265,NH3,5,8,7
India,Bihar,Kishanganj,"SDM Office_Khagra, Kishanganj - BSPCB",30-03-2024 11:00:00,26.0881305,87.93840336,PM10,82,384,166
India,Bihar,Kishanganj,"SDM Office_Khagra, Kishanganj - BSPCB",30-03-2024 11:00:00,26.0881305,87.93840336,NH3,10,13,12
India,Bihar,Kishanganj,"SDM Office_Khagra, Kishanganj - BSPCB",30-03-2024 11:00:00,26.0881305,87.93840336,SO2,35,85,52
India,Bihar,Manguraha,"Forest Rest House, Manguraha - BSPCB",30-03-2024 11:00:00,27.308328,84.531742,NH3,3,3,3
India,Bihar,Manguraha,"Forest Rest House, Manguraha - BSPCB",30-03-2024 11:00:00,27.308328,84.531742,OZONE,6,33,13
India,Bihar,Motihari,"Gandak Colony, Motihari - BSPCB",30-03-2024 11:00:00,26.63086,84.90051,CO,8,54,25
India,Bihar,Munger,"Town Hall, Munger - BSPCB",30-03-2024 11:00:00,25.376776,86.471523,PM10,88,366,151
India,Bihar,Munger,"Town Hall, Munger - BSPCB",30-03-2024 11:00:00,25.376776,86.471523,OZONE,24,56,30
India,Bihar,Muzaffarpur,"Buddha Colony, Muzaffarpur - BSPCB",30-03-2024 11:00:00,26.11442,85.39813,PM10,103,194,149
India,Bihar,Muzaffarpur,"MIT-Daudpur Kothi, Muzaffarpur - BSPCB",30-03-2024 11:00:00,26.1403345,85.3650192,OZONE,6,62,18
India,Bihar,Patna,"DRM Office Danapur, Patna - BSPCB",30-03-2024 11:00:00,25.586562,85.043586,PM2.5,96,160,130
India,Bihar,Patna,"DRM Office Danapur, Patna - BSPCB",30-03-2024 11:00:00,25.586562,85.043586,NH3,3,3,3
India,Bihar,Patna,"Govt. High School Shikarpur, Patna - BSPCB",30-03-2024 11:00:00,25.592539,85.227158,NO2,20,23,22
India,Bihar,Patna,"Muradpur, Patna - BSPCB",30-03-2024 11:00:00,25.619651,85.147382,PM10,186,410,295
India,Bihar,Patna,"Muradpur, Patna - BSPCB",30-03-2024 11:00:00,25.619651,85.147382,NH3,2,5,3
India,Bihar,Patna,"Rajbansi Nagar, Patna - BSPCB",30-03-2024 11:00:00,25.599486,85.113666,PM10,137,200,166
India,Bihar,Patna,"Samanpura, Patna - BSPCB",30-03-2024 11:00:00,25.596727,85.085624,OZONE,44,49,47
India,Bihar,Purnia,"Mariam Nagar, Purnia - BSPCB",30-03-2024 11:00:00,25.366336,87.117468,NO2,5,8,6
India,Bihar,Rajgir,"Dangi Tola, Rajgir - BSPCB",30-03-2024 11:00:00,25.03280,85.41948,NO2,1,1,1
India,Bihar,Rajgir,"Dangi Tola, Rajgir - BSPCB",30-03-2024 11:00:00,25.03280,85.41948,CO,8,11,10
India,Bihar,Saharsa,"Police Line, Saharsa - BSPCB",30-03-2024 11:00:00,25.892357,86.590325,PM2.5,32,397,188
India,Bihar,Saharsa,"Police Line, Saharsa - BSPCB",30-03-2024 11:00:00,25.892357,86.590325,NO2,6,8,7
India,Bihar,Saharsa,"Police Line, Saharsa - BSPCB",30-03-2024 11:00:00,25.892357,86.590325,SO2,16,16,16
India,Bihar,Samastipur,"DM Office_Kasipur, Samastipur - BSPCB",30-03-2024 11:00:00,25.859655,85.77944,PM2.5,53,323,169
India,Bihar,Sasaram,"Dada Peer, Sasaram - BSPCB",30-03-2024 11:00:00,24.952822,84.002396,NH3,7,13,10
India,Bihar,Siwan,"Chitragupta Nagar, Siwan - BSPCB",30-03-2024 11:00:00,26.2271665,84.3570427,NO2,11,37,20
India,Bihar,Siwan,"Chitragupta Nagar, Siwan - BSPCB",30-03-2024 11:00:00,26.2271665,84.3570427,CO,50,154,82
India,Bihar,Siwan,"Chitragupta Nagar, Siwan - BSPCB",30-03-2024 11:00:00,26.2271665,84.3570427,OZONE,14,183,36
India,Chandigarh,Chandigarh,"Sector 22, Chandigarh - CPCC",30-03-2024 11:00:00,30.735567,76.775714,PM10,12,280,132
India,Chandigarh,Chandigarh,"Sector-25, Chandigarh - CPCC",30-03-2024 11:00:00,30.751462,76.762879,PM10,80,172,144
India,Chandigarh,Chandigarh,"Sector-25, Chandigarh - CPCC",30-03-2024 11:00:00,30.751462,76.762879,NH3,12,34,18
India,Chandigarh,Chandigarh,"Sector-53, Chandigarh - CPCC",30-03-2024 11:00:00,30.719859,76.738637,PM2.5,5,301,142
India,Chandigarh,Chandigarh,"Sector-53, Chandigarh - CPCC",30-03-2024 11:00:00,30.719859,76.738637,NH3,5,8,6
India,Chhattisgarh,Bhilai,"Civic Center, Bhilai - Bhilai Steel Plant",30-03-2024 11:00:00,21.185571,81.343175,SO2,2,25,11
India,Chhattisgarh,Bhilai,"Civic Center, Bhilai - Bhilai Steel Plant",30-03-2024 11:00:00,21.185571,81.343175,OZONE,19,85,32
India,Chhattisgarh,Bhilai,"Hathkhoj, Bhilai - CECB",30-03-2024 11:00:00,21.224231,81.408350,NO2,18,37,27
India,Chhattisgarh,Bhilai,"Hathkhoj, Bhilai - CECB",30-03-2024 11:00:00,21.224231,81.408350,OZONE,8,21,12
India,Chhattisgarh,Bilaspur,"Mangala, Bilaspur - NTPC",30-03-2024 11:00:00,22.08815,82.13737,NO2,15,18,16
India,Chhattisgarh,Chhal,"Nawapara SECL Colony, Chhal - CECB",30-03-2024 11:00:00,22.118125,83.140608,OZONE,4,32,11
India,Chhattisgarh,Korba,"Rampur, Korba - CECB",30-03-2024 11:00:00,22.368195,82.746431,OZONE,2,45,4
India,Chhattisgarh,Korba,"Urja Nagar, Korba - CECB",30-03-2024 11:00:00,22.348441,82.549611,PM2.5,NA,NA,NA
India,Chhattisgarh,Korba,"Urja Nagar, Korba - CECB",30-03-2024 11:00:00,22.348441,82.549611,NO2,60,77,68
India,Chhattisgarh,Milupara,"Govt. Higher Secondary School, Milupara - CECB",30-03-2024 11:00:00,22.1910172,83.5197009,CO,NA,NA,NA
India,Chhattisgarh,Raipur,"AIIMS, Raipur - CECB",30-03-2024 11:00:00,21.258815,81.578979,PM2.5,NA,NA,NA
India,Chhattisgarh,Raipur,"AIIMS, Raipur - CECB",30-03-2024 11:00:00,21.258815,81.578979,PM10,NA,NA,NA
India,Chhattisgarh,Raipur,"AIIMS, Raipur - CECB",30-03-2024 11:00:00,21.258815,81.578979,CO,32,45,45
India,Chhattisgarh,Raipur,"Bhatagaon New ISBT, Raipur - CECB",30-03-2024 11:00:00,21.219665,81.630094,NO2,43,81,61
India,Chhattisgarh,Raipur,"Bhatagaon New ISBT, Raipur - CECB",30-03-2024 11:00:00,21.219665,81.630094,NH3,2,2,2
India,Chhattisgarh,Raipur,"Bhatagaon New ISBT, Raipur - CECB",30-03-2024 11:00:00,21.219665,81.630094,OZONE,3,21,4
India,Delhi,Delhi,"Alipur, Delhi - DPCC",30-03-2024 11:00:00,28.815329,77.153010,NH3,6,10,8
India,Delhi,Delhi,"Anand Vihar, Delhi - DPCC",30-03-2024 11:00:00,28.647622,77.3158090,NO2,34,110,68
India,Delhi,Delhi,"Ashok Vihar, Delhi - DPCC",30-03-2024 11:00:00,28.695381,77.181665,PM2.5,73,302,154
India,Delhi,Delhi,"Aya Nagar, Delhi - IMD",30-03-2024 11:00:00,28.4706914,77.1099364,CO,8,85,75
India,Delhi,Delhi,"Bawana, Delhi - DPCC",30-03-2024 11:00:00,28.776200,77.051074,SO2,9,30,16
India,Delhi,Delhi,"Bawana, Delhi - DPCC",30-03-2024 11:00:00,28.776200,77.051074,OZONE,6,217,8
India,Delhi,Delhi,"Burari Crossing, Delhi - IMD",30-03-2024 11:00:00,28.7256504,77.2011573,CO,50,59,53
India,Delhi,Delhi,"Burari Crossing, Delhi - IMD",30-03-2024 11:00:00,28.7256504,77.2011573,OZONE,16,172,18
India,Delhi,Delhi,"Chandni Chowk, Delhi - IITM",30-03-2024 11:00:00,28.656756,77.227234,PM2.5,149,303,222
India,Delhi,Delhi,"Chandni Chowk, Delhi - IITM",30-03-2024 11:00:00,28.656756,77.227234,NO2,16,190,49
India,Delhi,Delhi,"DTU, Delhi - CPCB",30-03-2024 11:00:00,28.7500499,77.1112615,SO2,32,34,33
India,Delhi,Delhi,"Dr. Karni Singh Shooting Range, Delhi - DPCC",30-03-2024 11:00:00,28.498571,77.264840,NH3,7,10,8
India,Delhi,Delhi,"Dwarka-Sector 8, Delhi - DPCC ",30-03-2024 11:00:00,28.5710274,77.0719006,SO2,7,33,16
India,Delhi,Delhi,"Dwarka-Sector 8, Delhi - DPCC ",30-03-2024 11:00:00,28.5710274,77.0719006,CO,56,106,72
India,Delhi,Delhi,"IHBAS, Dilshad Garden, Delhi - CPCB",30-03-2024 11:00:00,28.6811736,77.3025234,PM10,NA,NA,NA
India,Delhi,Delhi,"ITO, Delhi - CPCB",30-03-2024 11:00:00,28.628624,77.241060,CO,38,95,51
India,Delhi,Delhi,"ITO, Delhi - CPCB",30-03-2024 11:00:00,28.628624,77.241060,OZONE,13,98,16
India,Delhi,Delhi,"Jahangirpuri, Delhi - DPCC",30-03-2024 11:00:00,28.732820,77.170633,CO,58,110,71
India,Delhi,Delhi,"Jawaharlal Nehru Stadium, Delhi - DPCC",30-03-2024 11:00:00,28.580280,77.233829,PM10,106,281,154
India,Delhi,Delhi,"Jawaharlal Nehru Stadium, Delhi - DPCC",30-03-2024 11:00:00,28.580280,77.233829,SO2,20,65,35
India,Delhi,Delhi,"Jawaharlal Nehru Stadium, Delhi - DPCC",30-03-2024 11:00:00,28.580280,77.233829,CO,40,86,54
India,Delhi,Delhi,"Lodhi Road, Delhi - IITM",30-03-2024 11:00:00,28.588333,77.221667,PM2.5,71,500,312
India,Delhi,Delhi,"Lodhi Road, Delhi - IITM",30-03-2024 11:00:00,28.588333,77.221667,PM10,77,453,214
India,Delhi,Delhi,"Lodhi Road, Delhi - IITM",30-03-2024 11:00:00,28.588333,77.221667,NH3,8,10,9
India,Delhi,Delhi,"Lodhi Road, Delhi - IMD",30-03-2024 11:00:00,28.5918245,77.2273074,NO2,2,8,5
India,Delhi,Delhi,"Major Dhyan Chand National Stadium, Delhi - DPCC",30-03-2024 11:00:00,28.611281,77.237738,PM10,104,239,143
India,Delhi,Delhi,"Mandir Marg, Delhi - DPCC",30-03-2024 11:00:00,28.636429,77.201067,NH3,7,8,8
India,Delhi,Delhi,"Mandir Marg, Delhi - DPCC",30-03-2024 11:00:00,28.636429,77.201067,CO,62,80,72
India,Delhi,Delhi,"Mandir Marg, Delhi - DPCC",30-03-2024 11:00:00,28.636429,77.201067,OZONE,8,39,12
India,Delhi,Delhi,"Mundka, Delhi - DPCC",30-03-2024 11:00:00,28.684678,77.076574,PM10,127,319,215
India,Delhi,Delhi,"Mundka, Delhi - DPCC",30-03-2024 11:00:00,28.684678,77.076574,CO,26,102,55
India,Delhi,Delhi,"Mundka, Delhi - DPCC",30-03-2024 11:00:00,28.684678,77.076574,OZONE,5,94,15
India,Delhi,Delhi,"NSIT Dwarka, Delhi - CPCB",30-03-2024 11:00:00,28.60909,77.0325413,NO2,50,81,65
India,Delhi,Delhi,"NSIT Dwarka, Delhi - CPCB",30-03-2024 11:00:00,28.60909,77.0325413,SO2,10,34,19
India,Delhi,Delhi,"Najafgarh, Delhi - DPCC",30-03-2024 11:00:00,28.570173,76.933762,CO,28,104,43
India,Delhi,Delhi,"Narela, Delhi - DPCC",30-03-2024 11:00:00,28.822836,77.101981,PM2.5,78,350,214
India,Delhi,Delhi,"Narela, Delhi - DPCC",30-03-2024 11:00:00,28.822836,77.101981,NO2,16,106,54
India,Delhi,Delhi,"Narela, Delhi - DPCC",30-03-2024 11:00:00,28.822836,77.101981,SO2,17,50,29
India,Delhi,Delhi,"Nehru Nagar, Delhi - DPCC",30-03-2024 11:00:00,28.567890,77.250515,SO2,8,43,19
India,Delhi,Delhi,"New Moti Bagh, Delhi - MHUA",30-03-2024 11:00:00,28.57834,77.18400,PM2.5,30,342,175
India,Delhi,Delhi,"North Campus, DU, Delhi - IMD",30-03-2024 11:00:00,28.6573814,77.1585447,PM10,110,217,155
India,Delhi,Delhi,"Okhla Phase-2, Delhi - DPCC",30-03-2024 11:00:00,28.530785,77.271255,PM2.5,40,246,140
India,Delhi,Delhi,"Okhla Phase-2, Delhi - DPCC",30-03-2024 11:00:00,28.530785,77.271255,OZONE,8,156,22
India,Delhi,Delhi,"Patparganj, Delhi - DPCC",30-03-2024 11:00:00,28.623763,77.287209,PM10,123,420,176
India,Delhi,Delhi,"Patparganj, Delhi - DPCC",30-03-2024 11:00:00,28.623763,77.287209,SO2,17,20,19
India,Delhi,Delhi,"Patparganj, Delhi - DPCC",30-03-2024 11:00:00,28.623763,77.287209,CO,18,47,35
India,Delhi,Delhi,"Patparganj, Delhi - DPCC",30-03-2024 11:00:00,28.623763,77.287209,OZONE,6,150,22
India,Delhi,Delhi,"Punjabi Bagh, Delhi - DPCC",30-03-2024 11:00:00,28.674045,77.131023,PM2.5,71,298,168
India,Delhi,Delhi,"Pusa, Delhi - DPCC",30-03-2024 11:00:00,28.639652,77.146275,NH3,5,12,9
India,Delhi,Delhi,"Pusa, Delhi - IMD",30-03-2024 11:00:00,28.636110,77.173332,PM2.5,38,322,202
India,Delhi,Delhi,"Rohini, Delhi - DPCC",30-03-2024 11:00:00,28.732528,77.119920,PM10,128,253,184
India,Delhi,Delhi,"Shadipur, Delhi - CPCB",30-03-2024 11:00:00,28.6514781,77.1473105,CO,38,129,47
India,Delhi,Delhi,"Shadipur, Delhi - CPCB",30-03-2024 11:00:00,28.6514781,77.1473105,OZONE,15,45,19
India,Delhi,Delhi,"Sirifort, Delhi - CPCB",30-03-2024 11:00:00,28.5504249,77.2159377,NO2,46,59,53
India,Delhi,Delhi,"Sri Aurobindo Marg, Delhi - DPCC",30-03-2024 11:00:00,28.531346,77.190156,PM10,NA,NA,NA
India,Delhi,Delhi,"Sri Aurobindo Marg, Delhi - DPCC",30-03-2024 11:00:00,28.531346,77.190156,NH3,NA,NA,NA
India,Delhi,Delhi,"Sri Aurobindo Marg, Delhi - DPCC",30-03-2024 11:00:00,28.531346,77.190156,OZONE,NA,NA,NA
India,Delhi,Delhi,"Vivek Vihar, Delhi - DPCC",30-03-2024 11:00:00,28.672342,77.315260,PM2.5,65,311,152
India,Delhi,Delhi,"Vivek Vihar, Delhi - DPCC",30-03-2024 11:00:00,28.672342,77.315260,OZONE,6,131,19
India,Delhi,Delhi,"Wazirpur, Delhi - DPCC",30-03-2024 11:00:00,28.699793,77.165453,SO2,18,101,37
India,Gujarat,Ahmedabad,"Chandkheda, Ahmedabad - IITM",30-03-2024 11:00:00,23.107969,72.574648,NH3,2,4,4
India,Gujarat,Ahmedabad,"Gyaspur, Ahmedabad - IITM",30-03-2024 11:00:00,22.977134,72.553024,CO,15,42,23
India,Gujarat,Ahmedabad,"Maninagar, Ahmedabad - GPCB",30-03-2024 11:00:00,23.002657,72.591912,PM2.5,22,182,73
India,Gujarat,Ahmedabad,"Maninagar, Ahmedabad - GPCB",30-03-2024 11:00:00,23.002657,72.591912,NO2,23,64,37
India,Gujarat,Ahmedabad,"Raikhad, Ahmedabad - IITM",30-03-2024 11:00:00,23.020509,72.579261,PM10,43,109,88
India,Gujarat,Ahmedabad,"Raikhad, Ahmedabad - IITM",30-03-2024 11:00:00,23.020509,72.579261,NO2,27,72,46
India,Gujarat,Ahmedabad,"Raikhad, Ahmedabad - IITM",30-03-2024 11:00:00,23.020509,72.579261,NH3,2,8,5
India,Gujarat,Ahmedabad,"Rakhial, Ahmedabad - IITM",30-03-2024 11:00:00,23.016834,72.625775,PM10,77,134,94
India,Gujarat,Ahmedabad,"Rakhial, Ahmedabad - IITM",30-03-2024 11:00:00,23.016834,72.625775,OZONE,10,46,16
India,Gujarat,Ahmedabad,"SAC ISRO Satellite, Ahmedabad - IITM",30-03-2024 11:00:00,23.023389,72.515201,CO,20,26,23
India,Gujarat,Ahmedabad,"SVPI Airport Hansol, Ahmedabad - IITM",30-03-2024 11:00:00,23.076793,72.627874,PM10,70,113,82
India,Gujarat,Ahmedabad,"SVPI Airport Hansol, Ahmedabad - IITM",30-03-2024 11:00:00,23.076793,72.627874,SO2,4,14,8
India,Gujarat,Ahmedabad,"Sardar Vallabhbhai Patel Stadium, Ahmedabad - IITM",30-03-2024 11:00:00,23.043070,72.562968,PM2.5,58,101,79
India,Gujarat,Ahmedabad,"Sardar Vallabhbhai Patel Stadium, Ahmedabad - IITM",30-03-2024 11:00:00,23.043070,72.562968,PM10,76,119,93
India,Gujarat,Ahmedabad,"Sardar Vallabhbhai Patel Stadium, Ahmedabad - IITM",30-03-2024 11:00:00,23.043070,72.562968,OZONE,1,49,7
India,Gujarat,Ankleshwar,"GIDC, Ankleshwar - GPCB",30-03-2024 11:00:00,21.613267,73.010555,SO2,14,55,32
India,Gujarat,Gandhinagar,"Sector-10, Gandhinagar - GPCB",30-03-2024 11:00:00,23.221714,72.654328,CO,22,44,28
India,Gujarat,Nandesari,"GIDC, Nandesari - Nandesari Ind. Association",30-03-2024 11:00:00,22.410802,73.097923,PM10,104,344,183
India,Gujarat,Nandesari,"GIDC, Nandesari - Nandesari Ind. Association",30-03-2024 11:00:00,22.410802,73.097923,SO2,5,15,11
India,Gujarat,Surat,"Science Center, Surat - SMC",30-03-2024 11:00:00,21.170046,72.795405,CO,32,59,47
India,Gujarat,Vatva,"Phase-4 GIDC, Vatva - GPCB",30-03-2024 11:00:00,22.969611,72.643500,PM10,57,111,78
India,Gujarat,Vatva,"Phase-4 GIDC, Vatva - GPCB",30-03-2024 11:00:00,22.969611,72.643500,NO2,37,146,65
India,Gujarat,Vatva,"Phase-4 GIDC, Vatva - GPCB",30-03-2024 11:00:00,22.969611,72.643500,CO,4,32,4
India,Haryana,Bahadurgarh,"Arya Nagar, Bahadurgarh - HSPCB",30-03-2024 11:00:00,28.6701,76.9254,NO2,33,40,37
India,Haryana,Ballabgarh,"Nathu Colony, Ballabgarh - HSPCB",30-03-2024 11:00:00,28.3419248,77.319699,OZONE,8,36,17
India,Haryana,Bhiwani,"H.B. Colony, Bhiwani - HSPCB",30-03-2024 11:00:00,28.806223,76.141105,NO2,6,10,8
India,Haryana,Charkhi Dadri,"Mini Secretariat, Charkhi Dadri - HSPCB",30-03-2024 11:00:00,28.593883,76.270653,OZONE,13,17,15
India,Haryana,Faridabad,"New Industrial Town, Faridabad - HSPCB",30-03-2024 11:00:00,28.39072,77.30059,PM2.5,135,340,287
India,Haryana,Faridabad,"Sector 11, Faridabad - HSPCB",30-03-2024 11:00:00,28.376058,77.315741,NO2,30,32,31
India,Haryana,Faridabad,"Sector 11, Faridabad - HSPCB",30-03-2024 11:00:00,28.376058,77.315741,SO2,5,117,10
India,Haryana,Faridabad,"Sector 30, Faridabad - HSPCB",30-03-2024 11:00:00,28.4417,77.3217,PM10,138,152,143
India,Haryana,Faridabad,"Sector 30, Faridabad - HSPCB",30-03-2024 11:00:00,28.4417,77.3217,NH3,8,9,9
India,Haryana,Faridabad,"Sector 30, Faridabad - HSPCB",30-03-2024 11:00:00,28.4417,77.3217,SO2,3,7,5
India,Haryana,Faridabad,"Sector- 16A, Faridabad - HSPCB",30-03-2024 11:00:00,28.4088421,77.3099081,CO,6,70,19
India,Haryana,Fatehabad,"Huda Sector, Fatehabad - HSPCB",30-03-2024 11:00:00,29.503664,75.467934,PM2.5,25,92,48
India,Haryana,Gurugram,"Sector-51, Gurugram - HSPCB",30-03-2024 11:00:00,28.4227,77.0667,PM2.5,55,332,191
India,Haryana,Gurugram,"Vikas Sadan, Gurugram - HSPCB",30-03-2024 11:00:00,28.4501238,77.0263051,SO2,34,51,42
India,Haryana,Gurugram,"Vikas Sadan, Gurugram - HSPCB",30-03-2024 11:00:00,28.4501238,77.0263051,CO,54,151,151
India,Haryana,Hisar,"Urban Estate-II, Hisar - HSPCB",30-03-2024 11:00:00,29.140560,75.744941,PM2.5,34,312,128
India,Haryana,Hisar,"Urban Estate-II, Hisar - HSPCB",30-03-2024 11:00:00,29.140560,75.744941,PM10,88,132,112
India,Haryana,Jind,"Police Lines, Jind - HSPCB",30-03-2024 11:00:00,29.307814,76.337619,PM2.5,40,92,63
India,Haryana,Jind,"Police Lines, Jind - HSPCB",30-03-2024 11:00:00,29.307814,76.337619,NH3,2,5,4
India,Haryana,Jind,"Police Lines, Jind - HSPCB",30-03-2024 11:00:00,29.307814,76.337619,SO2,2,26,9
India,Haryana,Karnal,"Sector-12, Karnal - HSPCB",30-03-2024 11:00:00,29.695300,77.002700,SO2,12,13,12
India,Haryana,Mandikhera,"General Hospital, Mandikhera - HSPCB",30-03-2024 11:00:00,27.9002,76.9938,NO2,20,24,22
India,Haryana,Mandikhera,"General Hospital, Mandikhera - HSPCB",30-03-2024 11:00:00,27.9002,76.9938,NH3,16,21,18
India,Haryana,Mandikhera,"General Hospital, Mandikhera - HSPCB",30-03-2024 11:00:00,27.9002,76.9938,OZONE,20,31,27
India,Haryana,Narnaul,"Shastri Nagar, Narnaul - HSPCB",30-03-2024 11:00:00,28.060249,76.113115,PM2.5,36,65,53
India,Haryana,Narnaul,"Shastri Nagar, Narnaul - HSPCB",30-03-2024 11:00:00,28.060249,76.113115,PM10,36,65,53
India,Haryana,Narnaul,"Shastri Nagar, Narnaul - HSPCB",30-03-2024 11:00:00,28.060249,76.113115,NH3,4,24,11
India,Haryana,Palwal,"Shyam Nagar, Palwal - HSPCB",30-03-2024 11:00:00,28.1485564,77.3320667,PM2.5,46,101,67
India,Haryana,Palwal,"Shyam Nagar, Palwal - HSPCB",30-03-2024 11:00:00,28.1485564,77.3320667,PM10,81,122,103
India,Haryana,Palwal,"Shyam Nagar, Palwal - HSPCB",30-03-2024 11:00:00,28.1485564,77.3320667,SO2,7,107,18
India,Haryana,Panipat,"Sector-18, Panipat - HSPCB",30-03-2024 11:00:00,29.497973,76.993331,NO2,31,32,31
India,Haryana,Panipat,"Sector-18, Panipat - HSPCB",30-03-2024 11:00:00,29.497973,76.993331,CO,24,26,24
India,Haryana,Sirsa,"F-Block, Sirsa - HSPCB",30-03-2024 11:00:00,29.536400,75.015800,SO2,15,84,75
India,Haryana,Yamuna Nagar,"Gobind Pura, Yamuna Nagar - HSPCB",30-03-2024 11:00:00,30.1480566,77.2893471,OZONE,19,39,23
India,Himachal Pradesh,Baddi,"HIMUDA Complex Phase-1, Baddi - HPPCB",30-03-2024 11:00:00,30.943887,76.801991,PM10,NA,NA,NA
India,Jharkhand,Dhanbad,"Sardar Patel Nagar, Dhanbad - JSPCB",30-03-2024 11:00:00,23.80569,86.44268,NO2,1,127,30
India,Karnataka,Bagalkot,"Vidayagiri, Bagalkot - KSPCB",30-03-2024 11:00:00,16.172806,75.659694,PM10,47,50,50
India,Karnataka,Bagalkot,"Vidayagiri, Bagalkot - KSPCB",30-03-2024 11:00:00,16.172806,75.659694,SO2,NA,NA,NA
India,Karnataka,Bengaluru,"Bapuji Nagar, Bengaluru - KSPCB",30-03-2024 11:00:00,12.951913,77.539784,SO2,4,8,6
India,Karnataka,Bengaluru,"Bapuji Nagar, Bengaluru - KSPCB",30-03-2024 11:00:00,12.951913,77.539784,OZONE,26,33,28
India,Karnataka,Bengaluru,"Jayanagar 5th Block, Bengaluru - KSPCB",30-03-2024 11:00:00,12.920984,77.584908,PM2.5,60,179,87
India,Karnataka,Bengaluru,"Jigani, Bengaluru - KSPCB",30-03-2024 11:00:00,12.7816279,77.6299145,PM2.5,18,301,108
India,Karnataka,Bengaluru,"Kasturi Nagar, Bengaluru - KSPCB",30-03-2024 11:00:00,13.003872,77.664217,NH3,3,4,4
India,Karnataka,Bengaluru,"Peenya, Bengaluru - CPCB",30-03-2024 11:00:00,13.0270199,77.494094,CO,29,45,31
India,Karnataka,Bengaluru,"RVCE-Mailasandra, Bengaluru - KSPCB",30-03-2024 11:00:00,12.921418,77.502466,OZONE,10,10,10
India,Karnataka,Bengaluru,"Sanegurava Halli, Bengaluru - KSPCB",30-03-2024 11:00:00,12.990328,77.5431385,NO2,22,37,27
India,Karnataka,Bengaluru,"Sanegurava Halli, Bengaluru - KSPCB",30-03-2024 11:00:00,12.990328,77.5431385,CO,2,116,28
India,Karnataka,Bengaluru,"Shivapura_Peenya, Bengaluru - KSPCB",30-03-2024 11:00:00,13.0246342,77.5080115,OZONE,53,55,54
India,Karnataka,Bidar,"Naubad, Bidar - KSPCB",30-03-2024 11:00:00,17.930306,77.482194,PM10,92,118,107
India,Karnataka,Chamarajanagar,"Urban, Chamarajanagar - KSPCB",30-03-2024 11:00:00,11.55358,76.55521,OZONE,15,49,24
India,Karnataka,Davanagere,"Devaraj Urs Badavane, Davanagere - KSPCB",30-03-2024 11:00:00,14.475800,75.905200,SO2,2,6,5
India,Karnataka,Davanagere,"Devaraj Urs Badavane, Davanagere - KSPCB",30-03-2024 11:00:00,14.475800,75.905200,OZONE,18,23,22
India,Karnataka,Hassan,"B.Katihalli, Hassan - KSPCB",30-03-2024 11:00:00,13.008556,76.125258,NH3,3,7,5
India,Karnataka,Hubballi,"Deshpande Nagar, Hubballi - KSPCB",30-03-2024 11:00:00,15.351773,75.140726,PM2.5,37,68,47
India,Karnataka,Hubballi,"Deshpande Nagar, Hubballi - KSPCB",30-03-2024 11:00:00,15.351773,75.140726,NO2,24,27,27
India,Karnataka,Hubballi,"Deshpande Nagar, Hubballi - KSPCB",30-03-2024 11:00:00,15.351773,75.140726,NH3,3,7,5
India,Karnataka,Hubballi,"Deshpande Nagar, Hubballi - KSPCB",30-03-2024 11:00:00,15.351773,75.140726,SO2,2,22,5
India,Karnataka,Hubballi,"Deshpande Nagar, Hubballi - KSPCB",30-03-2024 11:00:00,15.351773,75.140726,CO,5,40,9
India,Karnataka,Hubballi,"Lingaraj Nagar, Hubballi - KSPCB",30-03-2024 11:00:00,15.3714823,75.1160168,PM10,48,66,58
India,Karnataka,Hubballi,"Lingaraj Nagar, Hubballi - KSPCB",30-03-2024 11:00:00,15.3714823,75.1160168,NO2,16,16,16
India,Karnataka,Kalaburagi,"Lal Bahadur Shastri Nagar, Kalaburagi - KSPCB",30-03-2024 11:00:00,17.321993,76.822628,PM10,46,102,69
India,Karnataka,Karwar,"KHB Colony, Karwar - KSPCB",30-03-2024 11:00:00,14.816666,74.141003,SO2,NA,NA,NA
India,Karnataka,Karwar,"KHB Colony, Karwar - KSPCB",30-03-2024 11:00:00,14.816666,74.141003,CO,NA,NA,NA
India,Karnataka,Kolar,"Tamaka Ind. Area, Kolar - KSPCB",30-03-2024 11:00:00,13.1276288,78.1570122,SO2,NA,NA,NA
India,Karnataka,Madikeri,"Stuart Hill, Madikeri - KSPCB",30-03-2024 11:00:00,12.415911,75.735050,PM10,22,49,35
India,Karnataka,Madikeri,"Stuart Hill, Madikeri - KSPCB",30-03-2024 11:00:00,12.415911,75.735050,CO,3,105,46
India,Karnataka,Mangalore,"Kadri, Mangalore - KSPCB",30-03-2024 11:00:00,12.889250,74.853000,SO2,22,24,23
India,Karnataka,Mysuru,"Hebbal 1st Stage, Mysuru - KSPCB",30-03-2024 11:00:00,12.21041,76.37376,NH3,1,3,2
India,Karnataka,Mysuru,"Hebbal 1st Stage, Mysuru - KSPCB",30-03-2024 11:00:00,12.21041,76.37376,SO2,2,10,5
India,Karnataka,Mysuru,"Hebbal 1st Stage, Mysuru - KSPCB",30-03-2024 11:00:00,12.21041,76.37376,CO,7,35,19
India,Karnataka,Raichur,"Haji Colony, Raichur - KSPCB",30-03-2024 11:00:00,16.208139,77.348417,CO,NA,NA,NA
India,Karnataka,Ramanagara,"Vijay Nagar, Ramanagara - KSPCB",30-03-2024 11:00:00,12.733409,77.298051,NH3,1,2,1
India,Karnataka,Shivamogga,"Vinoba Nagara, Shivamogga - KSPCB",30-03-2024 11:00:00,13.940000,75.555917,PM2.5,26,50,39
India,Karnataka,Shivamogga,"Vinoba Nagara, Shivamogga - KSPCB",30-03-2024 11:00:00,13.940000,75.555917,PM10,30,73,54
India,Karnataka,Shivamogga,"Vinoba Nagara, Shivamogga - KSPCB",30-03-2024 11:00:00,13.940000,75.555917,OZONE,14,86,33
India,Karnataka,Tumakuru,"Thimmalapura, Tumakuru - KSPCB",30-03-2024 11:00:00,13.377516,77.099072,SO2,8,17,11
India,Karnataka,Yadgir,"Collector Office, Yadgir - KSPCB",30-03-2024 11:00:00,16.7602,77.1428,NO2,5,8,6
India,Karnataka,Yadgir,"Collector Office, Yadgir - KSPCB",30-03-2024 11:00:00,16.7602,77.1428,NH3,NA,NA,NA
India,Karnataka,Yadgir,"Collector Office, Yadgir - KSPCB",30-03-2024 11:00:00,16.7602,77.1428,OZONE,18,19,19
India,Kerala,Eloor,"Udyogamandal, Eloor - Kerala PCB",30-03-2024 11:00:00,10.073232,76.302765,SO2,1,31,6
India,Kerala,Eloor,"Udyogamandal, Eloor - Kerala PCB",30-03-2024 11:00:00,10.073232,76.302765,CO,18,96,32
India,Kerala,Kannur,"Thavakkara, Kannur - Kerala PCB",30-03-2024 11:00:00,11.875000,75.373200,PM2.5,48,59,55
India,Kerala,Kannur,"Thavakkara, Kannur - Kerala PCB",30-03-2024 11:00:00,11.875000,75.373200,NO2,6,7,6
India,Kerala,Kollam,"Polayathode, Kollam - Kerala PCB",30-03-2024 11:00:00,8.8787,76.6073,PM2.5,26,142,62
India,Kerala,Kollam,"Polayathode, Kollam - Kerala PCB",30-03-2024 11:00:00,8.8787,76.6073,OZONE,31,37,33
India,Kerala,Thiruvananthapuram,"Kariavattom, Thiruvananthapuram - Kerala PCB",30-03-2024 11:00:00,8.563700,76.886500,NH3,1,1,1
India,Kerala,Thiruvananthapuram,"Plammoodu, Thiruvananthapuram - Kerala PCB",30-03-2024 11:00:00,8.5149093,76.9435879,NO2,7,9,8
India,Kerala,Thiruvananthapuram,"Plammoodu, Thiruvananthapuram - Kerala PCB",30-03-2024 11:00:00,8.5149093,76.9435879,SO2,7,11,9
India,Kerala,Thrissur,"Corporation Ground, Thrissur - Kerala PCB",30-03-2024 11:00:00,10.532400,76.215900,NH3,NA,NA,NA
India,Madhya Pradesh,Bhopal,"Idgah Hills, Bhopal - MPPCB",30-03-2024 11:00:00,23.264759,77.381568,CO,22,75,35
India,Madhya Pradesh,Bhopal,"Paryavaran Parisar, Bhopal - MPPCB",30-03-2024 11:00:00,23.210494,77.425409,CO,6,67,20
India,Madhya Pradesh,Bhopal,"Paryavaran Parisar, Bhopal - MPPCB",30-03-2024 11:00:00,23.210494,77.425409,OZONE,6,71,26
India,Madhya Pradesh,Bhopal,"T T Nagar, Bhopal - MPPCB",30-03-2024 11:00:00,23.233584,77.400574,NO2,26,73,39
India,Madhya Pradesh,Bhopal,"T T Nagar, Bhopal - MPPCB",30-03-2024 11:00:00,23.233584,77.400574,CO,33,104,46
India,Madhya Pradesh,Bhopal,"T T Nagar, Bhopal - MPPCB",30-03-2024 11:00:00,23.233584,77.400574,OZONE,12,91,53
India,Madhya Pradesh,Gwalior,"City Center, Gwalior - MPPCB",30-03-2024 11:00:00,26.203442,78.193251,NH3,7,7,7
India,Madhya Pradesh,Gwalior,"Deen Dayal Nagar, Gwalior - MPPCB",30-03-2024 11:00:00,26.259242,78.216432,PM2.5,46,118,63
India,Madhya Pradesh,Gwalior,"Deen Dayal Nagar, Gwalior - MPPCB",30-03-2024 11:00:00,26.259242,78.216432,NO2,18,71,37
India,Madhya Pradesh,Gwalior,"Maharaj Bada, Gwalior - MPPCB",30-03-2024 11:00:00,26.200388,78.147714,PM10,55,204,115
India,Madhya Pradesh,Gwalior,"Maharaj Bada, Gwalior - MPPCB",30-03-2024 11:00:00,26.200388,78.147714,NO2,10,46,23
India,Madhya Pradesh,Gwalior,"Maharaj Bada, Gwalior - MPPCB",30-03-2024 11:00:00,26.200388,78.147714,NH3,2,8,4
India,Madhya Pradesh,Gwalior,"Maharaj Bada, Gwalior - MPPCB",30-03-2024 11:00:00,26.200388,78.147714,SO2,13,20,17
India,Madhya Pradesh,Indore,"Chhoti Gwaltoli, Indore - MPPCB",30-03-2024 11:00:00,22.4310,75.5213,PM10,69,290,147
India,Madhya Pradesh,Katni,"Gole Bazar, Katni - MPPCB",30-03-2024 11:00:00,23.50016,80.23284,PM10,76,271,114
India,Madhya Pradesh,Mandideep,"Sector-D Industrial Area, Mandideep - MPPCB",30-03-2024 11:00:00,23.108440,77.511428,PM2.5,93,330,189
India,Madhya Pradesh,Mandideep,"Sector-D Industrial Area, Mandideep - MPPCB",30-03-2024 11:00:00,23.108440,77.511428,OZONE,6,43,12
India,Madhya Pradesh,Pithampur,"Sector-2 Industrial Area, Pithampur - MPPCB",30-03-2024 11:00:00,22.624758,75.675238,NH3,1,3,2
India,Madhya Pradesh,Pithampur,"Sector-2 Industrial Area, Pithampur - MPPCB",30-03-2024 11:00:00,22.624758,75.675238,CO,38,84,47
India,Madhya Pradesh,Sagar,"Civil Lines, Sagar - MPPCB",30-03-2024 11:00:00,23.838586,78.759431,PM10,42,121,83
India,Madhya Pradesh,Sagar,"Civil Lines, Sagar - MPPCB",30-03-2024 11:00:00,23.838586,78.759431,CO,8,57,13
India,Madhya Pradesh,Sagar,"Deen Dayal Nagar, Sagar - MPPCB",30-03-2024 11:00:00,23.8640158,78.80289321,SO2,10,29,16
India,Madhya Pradesh,Satna,"Bandhavgar Colony, Satna - Birla Cement",30-03-2024 11:00:00,24.58434363,80.8549414,PM10,42,229,76
India,Madhya Pradesh,Singrauli,"Suryakiran Bhawan NCL, Singrauli - MPPCB",30-03-2024 11:00:00,24.108970,82.645580,PM2.5,NA,NA,NA
India,Madhya Pradesh,Singrauli,"Suryakiran Bhawan NCL, Singrauli - MPPCB",30-03-2024 11:00:00,24.108970,82.645580,PM10,NA,NA,NA
India,Madhya Pradesh,Singrauli,"Suryakiran Bhawan NCL, Singrauli - MPPCB",30-03-2024 11:00:00,24.108970,82.645580,CO,19,37,33
India,Maharashtra,Ahmednagar,"Tarakpur, Ahmednagar - MPCB",30-03-2024 11:00:00,19.10122,74.73339,PM10,79,128,103
India,Maharashtra,Akola,"Ramdaspeth, Akola - MPCB",30-03-2024 11:00:00,20.719516,77.000253,NO2,11,38,18
India,Maharashtra,Akola,"Ramdaspeth, Akola - MPCB",30-03-2024 11:00:00,20.719516,77.000253,SO2,10,22,16
India,Maharashtra,Amravati,"Shivneri Colony, Amravati - MPCB",30-03-2024 11:00:00,20.9402359,77.7895248,NH3,1,3,2
India,Maharashtra,Amravati,"Shri Shivaji Science College, Amaravati - MPCB",30-03-2024 11:00:00,20.939198,77.765701,CO,32,112,40
India,Maharashtra,Aurangabad,"MIDC Chilkalthana, Aurangabad - MPCB",30-03-2024 11:00:00,19.875620,75.387310,PM10,93,149,110
India,Maharashtra,Aurangabad,"MIDC Chilkalthana, Aurangabad - MPCB",30-03-2024 11:00:00,19.875620,75.387310,NO2,7,161,49
India,Maharashtra,Aurangabad,"More Chowk Waluj, Aurangabad - MPCB",30-03-2024 11:00:00,19.8389439,75.244448,NO2,40,47,44
India,Maharashtra,Aurangabad,"More Chowk Waluj, Aurangabad - MPCB",30-03-2024 11:00:00,19.8389439,75.244448,SO2,1,2,1
India,Maharashtra,Badlapur,"Katrap, Badlapur - MPCB",30-03-2024 11:00:00,19.16485,73.23409,PM2.5,48,143,95
India,Maharashtra,Badlapur,"Katrap, Badlapur - MPCB",30-03-2024 11:00:00,19.16485,73.23409,NO2,18,44,26
India,Maharashtra,Badlapur,"Katrap, Badlapur - MPCB",30-03-2024 11:00:00,19.16485,73.23409,SO2,4,15,7
India,Maharashtra,Badlapur,"Katrap, Badlapur - MPCB",30-03-2024 11:00:00,19.16485,73.23409,OZONE,1,142,7
India,Maharashtra,Belapur,"CBD Belapur, Belapur - MPCB",30-03-2024 11:00:00,19.0243902,73.0406721,PM2.5,26,73,48
India,Maharashtra,Belapur,"CBD Belapur, Belapur - MPCB",30-03-2024 11:00:00,19.0243902,73.0406721,NH3,9,18,12
India,Maharashtra,Bhiwandi,"Gokul Nagar, Bhiwandi - MPCB",30-03-2024 11:00:00,19.309073,73.057223,NH3,1,3,1
India,Maharashtra,Bhiwandi,"Gokul Nagar, Bhiwandi - MPCB",30-03-2024 11:00:00,19.309073,73.057223,OZONE,5,59,20
India,Maharashtra,Boisar,"Khaira, Boisar - MPCB",30-03-2024 11:00:00,19.786089,72.757971,PM10,80,129,106
India,Maharashtra,Boisar,"Khaira, Boisar - MPCB",30-03-2024 11:00:00,19.786089,72.757971,CO,15,50,29
India,Maharashtra,Chandrapur,"Chauhan Colony, Chandrapur - MPCB",30-03-2024 11:00:00,19.962900,79.298714,NH3,4,10,6
India,Maharashtra,Chandrapur,"Chauhan Colony, Chandrapur - MPCB",30-03-2024 11:00:00,19.962900,79.298714,OZONE,9,9,9
India,Maharashtra,Chandrapur,"MIDC Khutala, Chandrapur - MPCB",30-03-2024 11:00:00,19.9775302,79.2337086,PM2.5,52,203,115
India,Maharashtra,Dhule,"Deopur, Dhule - MPCB",30-03-2024 11:00:00,20.918946,74.776388,NH3,2,13,4
India,Maharashtra,Jalgaon,"Prabhat Colony, Jalgaon - MPCB",30-03-2024 11:00:00,21.001264,75.565602,NO2,16,115,44
India,Maharashtra,Jalgaon,"Prabhat Colony, Jalgaon - MPCB",30-03-2024 11:00:00,21.001264,75.565602,CO,11,42,14
India,Maharashtra,Jalgaon,"Prabhat Colony, Jalgaon - MPCB",30-03-2024 11:00:00,21.001264,75.565602,OZONE,1,101,20
India,Maharashtra,Jalna,"Old MIDC, Jalna - MPCB",30-03-2024 11:00:00,19.854616,75.905894,OZONE,5,97,13
India,Maharashtra,Kalyan,"Khadakpada, Kalyan - MPCB",30-03-2024 11:00:00,19.25292,73.142019,PM10,100,138,120
India,Maharashtra,Kalyan,"Khadakpada, Kalyan - MPCB",30-03-2024 11:00:00,19.25292,73.142019,CO,18,26,20
India,Maharashtra,Kolhapur,"Shivaji University, Kolhapur - MPCB",30-03-2024 11:00:00,16.6870449,74.2505872,PM10,96,163,130
India,Maharashtra,Kolhapur,"Shivaji University, Kolhapur - MPCB",30-03-2024 11:00:00,16.6870449,74.2505872,NO2,12,21,16
India,Maharashtra,Kolhapur,"Shivaji University, Kolhapur - MPCB",30-03-2024 11:00:00,16.6870449,74.2505872,SO2,2,10,5
India,Maharashtra,Kolhapur,"Shivaji University, Kolhapur - MPCB",30-03-2024 11:00:00,16.6870449,74.2505872,CO,26,64,53
India,Maharashtra,Kolhapur,"Sinchan Bhavan, Kolhapur - MPCB",30-03-2024 11:00:00,16.7143745,74.2426398,CO,14,32,17
India,Maharashtra,Latur,"Sawe Wadi, Latur - MPCB",30-03-2024 11:00:00,18.39963,76.57452,NO2,8,211,37
India,Maharashtra,Malegaon,"Mahesh Nagar, Malegaon - MPCB",30-03-2024 11:00:00,20.555712,74.529236,CO,12,82,21
India,Maharashtra,Malegaon,"Mahesh Nagar, Malegaon - MPCB",30-03-2024 11:00:00,20.555712,74.529236,OZONE,14,83,45
India,Maharashtra,Mira-Bhayandar,"Bhayandar West, Mira-Bhayandar - MPCB",30-03-2024 11:00:00,19.296481,72.840923,CO,10,18,12
India,Maharashtra,Mira-Bhayandar,"Bhayandar West, Mira-Bhayandar - MPCB",30-03-2024 11:00:00,19.296481,72.840923,OZONE,5,85,19
India,Maharashtra,Mumbai,"Bandra Kurla Complex, Mumbai - MPCB",30-03-2024 11:00:00,19.065931,72.862131,PM10,87,187,124
India,Maharashtra,Mumbai,"Bandra Kurla Complex, Mumbai - MPCB",30-03-2024 11:00:00,19.065931,72.862131,NH3,2,8,5
India,Maharashtra,Mumbai,"Bandra Kurla Complex, Mumbai - MPCB",30-03-2024 11:00:00,19.065931,72.862131,SO2,1,16,4
India,Maharashtra,Mumbai,"Borivali East, Mumbai - IITM",30-03-2024 11:00:00,19.23241,72.86895,PM2.5,29,68,50
India,Maharashtra,Mumbai,"Borivali East, Mumbai - MPCB",30-03-2024 11:00:00,19.2243333,72.8658113,SO2,6,9,7
India,Maharashtra,Mumbai,"Byculla, Mumbai - BMC",30-03-2024 11:00:00,18.9767,72.8380,NH3,4,5,4
India,Maharashtra,Mumbai,"Byculla, Mumbai - BMC",30-03-2024 11:00:00,18.9767,72.8380,SO2,2,5,3
India,Maharashtra,Mumbai,"Chakala-Andheri East, Mumbai - IITM",30-03-2024 11:00:00,19.11074,72.86084,NO2,67,136,100
India,Maharashtra,Mumbai,"Chembur, Mumbai - MPCB",30-03-2024 11:00:00,19.0364585,72.8954371,PM2.5,44,166,71
India,Maharashtra,Mumbai,"Chembur, Mumbai - MPCB",30-03-2024 11:00:00,19.0364585,72.8954371,OZONE,NA,NA,NA
India,Maharashtra,Mumbai,"Colaba, Mumbai - MPCB",30-03-2024 11:00:00,18.910000,72.820000,SO2,10,14,11
India,Maharashtra,Mumbai,"Kandivali East, Mumbai - MPCB",30-03-2024 11:00:00,19.205800,72.868200,NH3,3,31,9
India,Maharashtra,Mumbai,"Kandivali East, Mumbai - MPCB",30-03-2024 11:00:00,19.205800,72.868200,CO,39,50,44
India,Maharashtra,Mumbai,"Kandivali West, Mumbai - BMC",30-03-2024 11:00:00,19.215859,72.831718,CO,8,26,13
India,Maharashtra,Mumbai,"Khindipada-Bhandup West, Mumbai - IITM",30-03-2024 11:00:00,19.1653323,72.922099,NH3,1,3,1
India,Maharashtra,Mumbai,"Kurla, Mumbai - MPCB",30-03-2024 11:00:00,19.0863,72.8888,PM2.5,53,225,109
India,Maharashtra,Mumbai,"Mazgaon, Mumbai - IITM",30-03-2024 11:00:00,18.96702,72.84214,PM10,66,127,88
India,Maharashtra,Mumbai,"Mazgaon, Mumbai - IITM",30-03-2024 11:00:00,18.96702,72.84214,NO2,32,227,78
India,Maharashtra,Mumbai,"Mazgaon, Mumbai - IITM",30-03-2024 11:00:00,18.96702,72.84214,NH3,17,54,26
India,Maharashtra,Mumbai,"Mindspace-Malad West, Mumbai - MPCB",30-03-2024 11:00:00,19.1878657,72.8304069,NH3,4,5,5
India,Maharashtra,Mumbai,"Mindspace-Malad West, Mumbai - MPCB",30-03-2024 11:00:00,19.1878657,72.8304069,SO2,4,8,6
India,Maharashtra,Mumbai,"Mulund West, Mumbai - MPCB",30-03-2024 11:00:00,19.1750,72.9419,PM2.5,45,139,76
India,Maharashtra,Mumbai,"Mulund West, Mumbai - MPCB",30-03-2024 11:00:00,19.1750,72.9419,PM10,66,188,115
India,Maharashtra,Mumbai,"Mulund West, Mumbai - MPCB",30-03-2024 11:00:00,19.1750,72.9419,NH3,10,11,10
India,Maharashtra,Mumbai,"Navy Nagar-Colaba, Mumbai - IITM",30-03-2024 11:00:00,18.897756,72.813320,PM2.5,43,76,55
India,Maharashtra,Mumbai,"Shivaji Nagar, Mumbai - BMC",30-03-2024 11:00:00,19.060498,72.923356,PM2.5,40,74,53
India,Maharashtra,Mumbai,"Shivaji Nagar, Mumbai - BMC",30-03-2024 11:00:00,19.060498,72.923356,NH3,4,9,7
India,Maharashtra,Mumbai,"Vasai West, Mumbai - MPCB",30-03-2024 11:00:00,19.383200,72.820400,NH3,4,4,4
India,Maharashtra,Mumbai,"Vasai West, Mumbai - MPCB",30-03-2024 11:00:00,19.383200,72.820400,OZONE,15,48,26
India,Maharashtra,Mumbai,"Vile Parle West, Mumbai - MPCB",30-03-2024 11:00:00,19.10861,72.83622,PM10,77,156,102
India,Maharashtra,Mumbai,"Worli, Mumbai - MPCB",30-03-2024 11:00:00,18.9936162,72.8128113,PM2.5,16,50,34
India,Maharashtra,Mumbai,"Worli, Mumbai - MPCB",30-03-2024 11:00:00,18.9936162,72.8128113,OZONE,6,10,7
India,Maharashtra,Nagpur,"Ambazari, Nagpur - MPCB",30-03-2024 11:00:00,21.121801,79.04952,PM10,87,156,110
India,Maharashtra,Nagpur,"Ambazari, Nagpur - MPCB",30-03-2024 11:00:00,21.121801,79.04952,OZONE,6,114,45
India,Maharashtra,Nagpur,"Mahal, Nagpur - MPCB",30-03-2024 11:00:00,21.14472,79.107595,PM2.5,67,157,91
India,Maharashtra,Nagpur,"Mahal, Nagpur - MPCB",30-03-2024 11:00:00,21.14472,79.107595,SO2,1,38,17
India,Maharashtra,Nagpur,"Opp GPO Civil Lines, Nagpur - MPCB",30-03-2024 11:00:00,21.152875,79.0517531,NO2,19,188,54
India,Maharashtra,Nagpur,"Opp GPO Civil Lines, Nagpur - MPCB",30-03-2024 11:00:00,21.152875,79.0517531,SO2,5,37,14
India,Maharashtra,Nagpur,"Opp GPO Civil Lines, Nagpur - MPCB",30-03-2024 11:00:00,21.152875,79.0517531,CO,14,115,27
India,Maharashtra,Nagpur,"Opp GPO Civil Lines, Nagpur - MPCB",30-03-2024 11:00:00,21.152875,79.0517531,OZONE,3,98,38
India,Maharashtra,Nagpur,"Ram Nagar, Nagpur - MPCB",30-03-2024 11:00:00,21.143383,79.048912,OZONE,19,149,38
India,Maharashtra,Nashik,"Gangapur Road, Nashik - MPCB",30-03-2024 11:00:00,20.0073285,73.7762427,NO2,7,15,10
India,Maharashtra,Nashik,"Gangapur Road, Nashik - MPCB",30-03-2024 11:00:00,20.0073285,73.7762427,SO2,1,6,3
India,Maharashtra,Nashik,"Hirawadi, Nashik - MPCB",30-03-2024 11:00:00,20.021503,73.813844,SO2,4,13,9
India,Maharashtra,Nashik,"MIDC Ambad, Nashik - MPCB",30-03-2024 11:00:00,19.950220,73.731480,NO2,12,68,23
India,Maharashtra,Nashik,"Pandav Nagari, Nashik - MPCB",30-03-2024 11:00:00,19.9591346,73.7788008,NH3,4,6,5
India,Maharashtra,Navi Mumbai,"Kopripada-Vashi, Navi Mumbai - MPCB",30-03-2024 11:00:00,19.090337,73.014232,PM2.5,49,281,109
India,Maharashtra,Navi Mumbai,"Mahape, Navi Mumbai - MPCB",30-03-2024 11:00:00,19.1135051,73.008978,PM2.5,37,93,57
India,Maharashtra,Navi Mumbai,"Mahape, Navi Mumbai - MPCB",30-03-2024 11:00:00,19.1135051,73.008978,NH3,3,3,3
India,Maharashtra,Navi Mumbai,"Mahape, Navi Mumbai - MPCB",30-03-2024 11:00:00,19.1135051,73.008978,CO,47,62,53
India,Maharashtra,Navi Mumbai,"Nerul, Navi Mumbai - MPCB",30-03-2024 11:00:00,19.008751,73.016620,PM10,105,308,146
India,Maharashtra,Navi Mumbai,"Nerul, Navi Mumbai - MPCB",30-03-2024 11:00:00,19.008751,73.016620,NH3,2,4,3
India,Maharashtra,Navi Mumbai,"Nerul, Navi Mumbai - MPCB",30-03-2024 11:00:00,19.008751,73.016620,CO,28,50,36
India,Maharashtra,Navi Mumbai,"Sanpada, Navi Mumbai - MPCB",30-03-2024 11:00:00,19.0575752,73.0151367,PM2.5,33,97,61
India,Maharashtra,Navi Mumbai,"Sanpada, Navi Mumbai - MPCB",30-03-2024 11:00:00,19.0575752,73.0151367,SO2,1,6,3
India,Maharashtra,Navi Mumbai,"Sanpada, Navi Mumbai - MPCB",30-03-2024 11:00:00,19.0575752,73.0151367,CO,8,36,19
India,Maharashtra,Navi Mumbai,"Sector-2E Kalamboli, Navi Mumbai - MPCB",30-03-2024 11:00:00,19.02579,73.10297,PM10,52,104,78
India,Maharashtra,Parbhani,"Masoom Colony, Parbhani - MPCB",30-03-2024 11:00:00,19.265594,76.761463,NH3,5,8,7
India,Maharashtra,Parbhani,"Masoom Colony, Parbhani - MPCB",30-03-2024 11:00:00,19.265594,76.761463,CO,16,60,34
India,Maharashtra,Pimpri-Chinchwad,"Park Street Wakad, Pimpri Chinchwad - MPCB",30-03-2024 11:00:00,18.59051,73.77946,PM10,58,206,119
India,Maharashtra,Pimpri-Chinchwad,"Park Street Wakad, Pimpri Chinchwad - MPCB",30-03-2024 11:00:00,18.59051,73.77946,NH3,7,12,9
India,Maharashtra,Pimpri-Chinchwad,"Park Street Wakad, Pimpri Chinchwad - MPCB",30-03-2024 11:00:00,18.59051,73.77946,CO,13,40,33
India,Maharashtra,Pune,"Bhosari, Pune - IITM",30-03-2024 11:00:00,18.640051,73.848956,OZONE,21,106,42
India,Maharashtra,Pune,"Katraj Dairy, Pune - MPCB",30-03-2024 11:00:00,18.454450,73.854155,PM10,NA,NA,NA
India,Maharashtra,Pune,"Mhada Colony, Pune - IITM",30-03-2024 11:00:00,18.573040,73.927715,NO2,4,20,15
India,Maharashtra,Pune,"Revenue Colony-Shivajinagar, Pune - IITM",30-03-2024 11:00:00,18.530085,73.849598,PM10,38,112,78
India,Maharashtra,Pune,"Revenue Colony-Shivajinagar, Pune - IITM",30-03-2024 11:00:00,18.530085,73.849598,NO2,90,181,142
India,Maharashtra,Pune,"Revenue Colony-Shivajinagar, Pune - IITM",30-03-2024 11:00:00,18.530085,73.849598,CO,110,117,111
India,Maharashtra,Pune,"Savitribai Phule Pune University, Pune - MPCB",30-03-2024 11:00:00,18.547056,73.826908,PM2.5,62,101,84
India,Maharashtra,Sangli,"Vijay Nagar, Sangli - MPCB",30-03-2024 11:00:00, 16.5038,74.3623,NH3,1,2,2
India,Maharashtra,Sangli,"Vijay Nagar, Sangli - MPCB",30-03-2024 11:00:00, 16.5038,74.3623,CO,17,46,31
India,Maharashtra,Solapur,"Dnyaneshwar Nagar, Solapur - MPCB",30-03-2024 11:00:00,17.6336264,75.9132495,NO2,8,91,26
India,Maharashtra,Solapur,"Solapur, Solapur - MPCB",30-03-2024 11:00:00,17.6599188,75.9063906,PM2.5,94,94,94
India,Maharashtra,Thane,"Kasarvadavali, Thane - MPCB",30-03-2024 11:00:00,19.26777,72.97182,PM2.5,45,82,62
India,Maharashtra,Thane,"Kasarvadavali, Thane - MPCB",30-03-2024 11:00:00,19.26777,72.97182,CO,6,26,10
India,Maharashtra,Thane,"Upvan Fort, Thane - MPCB",30-03-2024 11:00:00,19.222279,72.957979,NH3,13,17,15
India,Maharashtra,Virar,"Bolinj, Virar - MPCB",30-03-2024 11:00:00,19.4458210,72.7988231,SO2,2,10,6
India,Maharashtra,Virar,"Bolinj, Virar - MPCB",30-03-2024 11:00:00,19.4458210,72.7988231,OZONE,3,106,21
India,Manipur,Imphal,"Manipur University, Imphal - Manipur PCB",30-03-2024 11:00:00,24.7524239,93.9286218,CO,11,22,17
India,Meghalaya,Shillong,"Lumpyngngad, Shillong - Meghalaya PCB",30-03-2024 11:00:00,25.5586,91.8985,NO2,1,1,1
India,Mizoram,Aizawl,"Sikulpuikawn, Aizawl - Mizoram PCB",30-03-2024 11:00:00,23.7176342,92.7192841,NH3,1,5,2
India,Mizoram,Aizawl,"Sikulpuikawn, Aizawl - Mizoram PCB",30-03-2024 11:00:00,23.7176342,92.7192841,OZONE,1,27,13
India,Nagaland,Kohima,"PWD Juction, Kohima - NPCB",30-03-2024 11:00:00,25.6635413,94.0989878,PM2.5,58,209,100
India,Nagaland,Kohima,"PWD Juction, Kohima - NPCB",30-03-2024 11:00:00,25.6635413,94.0989878,NH3,1,1,1
India,Odisha,Angul,"Hakimapada, Angul - OSPCB",30-03-2024 11:00:00,20.832874,85.104082,PM2.5,57,361,174
India,Odisha,Baripada,"Meher Colony, Baripada - OSPCB",30-03-2024 11:00:00,21.941841,86.728318,PM10,69,114,96
India,Odisha,Bhubaneswar,"Lingraj Mandir, Bhubaneswar - OSPCB",30-03-2024 11:00:00,20.240790,85.836784,PM2.5,27,107,64
India,Odisha,Bhubaneswar,"Patia, Bhubaneswar - OSPCB",30-03-2024 11:00:00,20.34652,85.81630,PM10,20,231,99
India,Odisha,Bileipada,"Tata Township, Bileipada - OSPCB",30-03-2024 11:00:00,22.06156703,85.47409613,SO2,1,59,12
India,Odisha,Bileipada,"Tata Township, Bileipada - OSPCB",30-03-2024 11:00:00,22.06156703,85.47409613,OZONE,29,44,32
India,Odisha,Brajrajnagar,"GM Office, Brajrajnagar - OSPCB",30-03-2024 11:00:00,21.8004996,83.8396977,NH3,1,2,1
India,Odisha,Byasanagar,"Ferro Chrome Colony, Byasanagar - OSPCB",30-03-2024 11:00:00,20.94185,86.11510,NO2,7,19,12
India,Odisha,Byasanagar,"Ferro Chrome Colony, Byasanagar - OSPCB",30-03-2024 11:00:00,20.94185,86.11510,SO2,5,16,9
India,Odisha,Keonjhar,"Jagamohanpur, Keonjhar - OSPCB",30-03-2024 11:00:00,21.643900,85.599355,SO2,NA,NA,NA
India,Odisha,Rairangpur,"Divisional Forest Office, Rairangpur - OSPCB",30-03-2024 11:00:00,22.265816,86.174829,PM2.5,93,191,129
India,Odisha,Rairangpur,"Divisional Forest Office, Rairangpur - OSPCB",30-03-2024 11:00:00,22.265816,86.174829,NH3,5,5,5
India,Odisha,Rourkela,"Sector-2, Rourkela - OSPCB",30-03-2024 11:00:00,22.24500000,84.88111111,PM10,141,240,176
India,Odisha,Suakati,"OMC Colony, Suakati - OSPCB",30-03-2024 11:00:00,21.606865,85.510538,SO2,8,85,21
India,Odisha,Talcher,"Talcher Coalfields,Talcher - OSPCB",30-03-2024 11:00:00,20.9360711,85.1707021,SO2,13,33,18
India,Odisha,Tensa,"Barsua Iron Ore Mines, Tensa - OSPCB",30-03-2024 11:00:00,21.869985,85.167016,PM2.5,82,139,105
India,Odisha,Tensa,"Barsua Iron Ore Mines, Tensa - OSPCB",30-03-2024 11:00:00,21.869985,85.167016,NH3,NA,NA,NA
India,Punjab,Amritsar,"Golden Temple, Amritsar - PPCB",30-03-2024 11:00:00,31.620000,74.876512,PM10,66,102,79
India,Punjab,Amritsar,"Golden Temple, Amritsar - PPCB",30-03-2024 11:00:00,31.620000,74.876512,NH3,4,10,6
India,Punjab,Bathinda,"Hardev Nagar, Bathinda - PPCB",30-03-2024 11:00:00,30.233011,74.907758,NO2,NA,NA,NA
India,Punjab,Jalandhar,"Civil Line, Jalandhar - PPCB",30-03-2024 11:00:00,31.321907,75.578914,PM10,44,119,86
India,Punjab,Jalandhar,"Civil Line, Jalandhar - PPCB",30-03-2024 11:00:00,31.321907,75.578914,NO2,34,43,36
India,Punjab,Khanna,"Kalal Majra, Khanna - PPCB",30-03-2024 11:00:00,30.736056 ,76.209694,PM10,50,185,95
India,Punjab,Khanna,"Kalal Majra, Khanna - PPCB",30-03-2024 11:00:00,30.736056 ,76.209694,NH3,NA,NA,NA
India,Punjab,Khanna,"Kalal Majra, Khanna - PPCB",30-03-2024 11:00:00,30.736056 ,76.209694,OZONE,23,80,50
India,Punjab,Ludhiana,"Punjab Agricultural University, Ludhiana - PPCB",30-03-2024 11:00:00,30.9028,75.8086,OZONE,8,45,20
India,Punjab,Mandi Gobindgarh,"RIMT University, Mandi Gobindgarh - PPCB",30-03-2024 11:00:00,30.649961,76.331442,PM10,46,273,117
India,Punjab,Mandi Gobindgarh,"RIMT University, Mandi Gobindgarh - PPCB",30-03-2024 11:00:00,30.649961,76.331442,NO2,15,24,22
India,Punjab,Mandi Gobindgarh,"RIMT University, Mandi Gobindgarh - PPCB",30-03-2024 11:00:00,30.649961,76.331442,SO2,NA,NA,NA
India,Punjab,Mandi Gobindgarh,"RIMT University, Mandi Gobindgarh - PPCB",30-03-2024 11:00:00,30.649961,76.331442,CO,23,50,36
India,Punjab,Patiala,"Model Town, Patiala - PPCB",30-03-2024 11:00:00,30.349388,76.366642,PM10,33,128,92
India,Punjab,Rupnagar,"Ratanpura, Rupnagar - Ambuja Cements",30-03-2024 11:00:00,31.0325454,76.5623046,PM10,20,439,230
India,Rajasthan,Alwar,"Moti Doongri, Alwar - RSPCB",30-03-2024 11:00:00,27.554793,76.611536,PM2.5,63,98,80
India,Rajasthan,Alwar,"Moti Doongri, Alwar - RSPCB",30-03-2024 11:00:00,27.554793,76.611536,OZONE,9,42,13
India,Rajasthan,Baran,"Bamboliya, Baran - RSPCB",30-03-2024 11:00:00,25.106006,76.469948,PM2.5,43,163,77
India,Rajasthan,Baran,"Bamboliya, Baran - RSPCB",30-03-2024 11:00:00,25.106006,76.469948,NO2,9,71,25
India,Rajasthan,Baran,"Bamboliya, Baran - RSPCB",30-03-2024 11:00:00,25.106006,76.469948,OZONE,20,115,52
India,Rajasthan,Barmer,"Railway Colony, Barmer - RSPCB",30-03-2024 11:00:00,25.747299,71.393989,PM10,51,156,100
India,Rajasthan,Barmer,"Railway Colony, Barmer - RSPCB",30-03-2024 11:00:00,25.747299,71.393989,NO2,7,18,12
India,Rajasthan,Bhiwadi,"RIICO Ind. Area III, Bhiwadi - RSPCB",30-03-2024 11:00:00,28.194909,76.862296,PM2.5,NA,NA,NA
India,Rajasthan,Bhiwadi,"RIICO Ind. Area III, Bhiwadi - RSPCB",30-03-2024 11:00:00,28.194909,76.862296,NO2,NA,NA,NA
India,Rajasthan,Bhiwadi,"Vasundhara Nagar_UIT, Bhiwadi - RSPCB",30-03-2024 11:00:00,28.207266,76.829265,NO2,20,130,42
India,Rajasthan,Bikaner,"MM Ground, Bikaner - RSPCB",30-03-2024 11:00:00,28.018792,73.292658,NO2,5,44,35
India,Rajasthan,Bikaner,"MM Ground, Bikaner - RSPCB",30-03-2024 11:00:00,28.018792,73.292658,SO2,5,22,9
India,Rajasthan,Bikaner,"MM Ground, Bikaner - RSPCB",30-03-2024 11:00:00,28.018792,73.292658,OZONE,33,79,48
India,Rajasthan,Bundi,"New Colony, Bundi - RSPCB",30-03-2024 11:00:00,25.435774,75.644272,PM10,64,408,127
India,Rajasthan,Bundi,"New Colony, Bundi - RSPCB",30-03-2024 11:00:00,25.435774,75.644272,NO2,8,63,19
India,Rajasthan,Chittorgarh,"Shastri Nagar, Chittorgarh - RSPCB",30-03-2024 11:00:00,24.892047,74.623527,NH3,6,13,10
India,Rajasthan,Chittorgarh,"Shastri Nagar, Chittorgarh - RSPCB",30-03-2024 11:00:00,24.892047,74.623527,OZONE,1,118,48
India,Rajasthan,Churu,"Subash Chowk, Churu - RSPCB",30-03-2024 11:00:00,28.296139,74.961696,NO2,15,131,35
India,Rajasthan,Dausa,"Khatikan Mohalla, Dausa - RSPCB",30-03-2024 11:00:00,26.895552,76.334753,NO2,22,122,57
India,Rajasthan,Dausa,"Khatikan Mohalla, Dausa - RSPCB",30-03-2024 11:00:00,26.895552,76.334753,OZONE,4,121,37
India,Rajasthan,Hanumangarh,"Housing Board, Hanumangarh - RSPCB",30-03-2024 11:00:00,29.610750,74.283608,NH3,7,17,11
India,Rajasthan,Hanumangarh,"Housing Board, Hanumangarh - RSPCB",30-03-2024 11:00:00,29.610750,74.283608,OZONE,22,74,29
India,Rajasthan,Jaipur,"Adarsh Nagar, Jaipur - RSPCB",30-03-2024 11:00:00,26.902909,75.836858,OZONE,7,48,20
India,Rajasthan,Jaipur,"Mansarovar Sector-12, Jaipur - RSPCB",30-03-2024 11:00:00,26.843698,75.766894,NH3,5,17,9
India,Rajasthan,Jaipur,"Mansarovar Sector-12, Jaipur - RSPCB",30-03-2024 11:00:00,26.843698,75.766894,OZONE,16,61,30
India,Rajasthan,Jaipur,"Police Commissionerate, Jaipur - RSPCB",30-03-2024 11:00:00,26.9164092,75.7994901,NO2,NA,NA,NA
India,Rajasthan,Jaipur,"RIICO Sitapura, Jaipur - RSPCB",30-03-2024 11:00:00,26.786682,75.827928,SO2,13,30,18
India,Rajasthan,Jaipur,"RIICO Sitapura, Jaipur - RSPCB",30-03-2024 11:00:00,26.786682,75.827928,OZONE,5,87,28
India,Rajasthan,Jaipur,"Sector-2 Murlipura, Jaipur - RSPCB",30-03-2024 11:00:00,26.960669,75.771817,NH3,4,14,8
India,Rajasthan,Jaipur,"Shastri Nagar, Jaipur - RSPCB",30-03-2024 11:00:00,26.9502929,75.730943,PM10,113,151,134
India,Rajasthan,Jalore,"Mudtra Sili, Jalore - RSPCB",30-03-2024 11:00:00,25.344694,72.626208,NH3,3,9,5
India,Rajasthan,Jhalawar,"Rajlaxmi Nagar, Jhalawar - RSPCB",30-03-2024 11:00:00,24.588397,76.172782,PM10,57,405,131
India,Rajasthan,Jhalawar,"Rajlaxmi Nagar, Jhalawar - RSPCB",30-03-2024 11:00:00,24.588397,76.172782,SO2,2,8,5
India,Rajasthan,Jhunjhunu,"Indra Nagar, Jhunjhunu - RSPCB",30-03-2024 11:00:00,28.108988,75.386577,PM10,95,159,125
India,Rajasthan,Jodhpur,"Collectorate, Jodhpur - RSPCB",30-03-2024 11:00:00,26.268249,73.0193853,PM2.5,20,265,102
India,Rajasthan,Jodhpur,"Collectorate, Jodhpur - RSPCB",30-03-2024 11:00:00,26.268249,73.0193853,NO2,35,39,37
India,Rajasthan,Jodhpur,"Collectorate, Jodhpur - RSPCB",30-03-2024 11:00:00,26.268249,73.0193853,OZONE,58,98,79
India,Rajasthan,Jodhpur,"Digari Kalan, Jodhpur - RSPCB",30-03-2024 11:00:00,26.295810,73.082283,PM10,91,248,135
India,Rajasthan,Jodhpur,"Digari Kalan, Jodhpur - RSPCB",30-03-2024 11:00:00,26.295810,73.082283,SO2,4,13,6
India,Rajasthan,Jodhpur,"Mandor, Jodhpur - RSPCB",30-03-2024 11:00:00,26.358805,73.047444,PM2.5,9,55,24
India,Rajasthan,Jodhpur,"Mandor, Jodhpur - RSPCB",30-03-2024 11:00:00,26.358805,73.047444,CO,22,44,34
India,Rajasthan,Jodhpur,"Samrat Ashok Udhyan, Jodhpur - RSPCB",30-03-2024 11:00:00,26.253384,72.976571,PM10,111,179,133
India,Rajasthan,Jodhpur,"Samrat Ashok Udhyan, Jodhpur - RSPCB",30-03-2024 11:00:00,26.253384,72.976571,OZONE,54,85,63
India,Rajasthan,Karauli,"Satyawati Vihar, Karauli - RSPCB",30-03-2024 11:00:00,26.506177,77.025989,SO2,4,29,19
India,Rajasthan,Karauli,"Satyawati Vihar, Karauli - RSPCB",30-03-2024 11:00:00,26.506177,77.025989,OZONE,3,59,26
India,Rajasthan,Kota,"Dhanmandi, Kota - RSPCB",30-03-2024 11:00:00,25.164090,75.858137,SO2,5,37,14
India,Rajasthan,Kota,"Dhanmandi, Kota - RSPCB",30-03-2024 11:00:00,25.164090,75.858137,CO,13,73,21
India,Rajasthan,Kota,"Nayapura, Kota - RSPCB",30-03-2024 11:00:00,25.196024,75.855668,NH3,5,13,9
India,Rajasthan,Kota,"Nayapura, Kota - RSPCB",30-03-2024 11:00:00,25.196024,75.855668,SO2,3,33,10
India,Rajasthan,Kota,"Nayapura, Kota - RSPCB",30-03-2024 11:00:00,25.196024,75.855668,OZONE,8,87,53
India,Rajasthan,Kota,"Shrinath Puram, Kota - RSPCB",30-03-2024 11:00:00,25.14389,75.821256,PM2.5,NA,NA,NA
India,Rajasthan,Kota,"Shrinath Puram, Kota - RSPCB",30-03-2024 11:00:00,25.14389,75.821256,NO2,NA,NA,NA
India,Rajasthan,Kota,"Shrinath Puram, Kota - RSPCB",30-03-2024 11:00:00,25.14389,75.821256,CO,41,66,41
India,Rajasthan,Nagaur,"Karni Colony, Nagaur - RSPCB",30-03-2024 11:00:00,27.213494,73.734444,SO2,NA,NA,NA
India,Rajasthan,Nagaur,"Karni Colony, Nagaur - RSPCB",30-03-2024 11:00:00,27.213494,73.734444,CO,6,28,22
India,Rajasthan,Pali,"Indira Colony Vistar, Pali - RSPCB",30-03-2024 11:00:00,25.771061, 73.340227,SO2,7,11,9
India,Rajasthan,Pratapgarh,"Pragati Nagar, Pratapgarh - RSPCB",30-03-2024 11:00:00,24.041198,74.780702,PM2.5,27,112,56
India,Rajasthan,Pratapgarh,"Pragati Nagar, Pratapgarh - RSPCB",30-03-2024 11:00:00,24.041198,74.780702,PM10,67,184,116
India,Rajasthan,Rajsamand,"Dhoinda, Rajsamand - RSPCB",30-03-2024 11:00:00,25.036360,73.883502,SO2,8,11,10
India,Rajasthan,Sawai Madhopur,"Sahu Nagar, Sawai Madhopur - RSPCB",30-03-2024 11:00:00,26.031443,76.359327,OZONE,34,112,56
India,Rajasthan,Sikar,"Radhakishan Pura, Sikar - RSPCB",30-03-2024 11:00:00,27.608912,75.153302,CO,1,43,2
India,Rajasthan,Sikar,"Radhakishan Pura, Sikar - RSPCB",30-03-2024 11:00:00,27.608912,75.153302,OZONE,47,138,62
India,Rajasthan,Sri Ganganagar,"Old City, Sri Ganganagar - RSPCB",30-03-2024 11:00:00,29.931624,73.864511,PM10,29,464,171
India,Rajasthan,Sri Ganganagar,"Old City, Sri Ganganagar - RSPCB",30-03-2024 11:00:00,29.931624,73.864511,NO2,27,132,69
India,Rajasthan,Sri Ganganagar,"Old City, Sri Ganganagar - RSPCB",30-03-2024 11:00:00,29.931624,73.864511,NH3,5,22,11
India,Sikkim,Gangtok,"Zero Point GICI, Gangtok - SSPCB",30-03-2024 11:00:00,27.338530,88.614099,PM2.5,14,24,20
India,Sikkim,Gangtok,"Zero Point GICI, Gangtok - SSPCB",30-03-2024 11:00:00,27.338530,88.614099,SO2,10,11,11
India,TamilNadu,Ariyalur,"Keelapalur, Ariyalur - TNPCB",30-03-2024 11:00:00,11.06825,79.07033,NH3,NA,NA,NA
India,TamilNadu,Chennai,"Kodungaiyur, Chennai - TNPCB",30-03-2024 11:00:00,13.1278,80.2642,CO,7,62,37
India,TamilNadu,Chennai,"Royapuram, Chennai - TNPCB",30-03-2024 11:00:00,13.1036,80.2909,CO,12,50,30
India,TamilNadu,Ooty,"Bombay Castel, Ooty - TNPCB",30-03-2024 11:00:00,11.4068288,76.7138973,PM2.5,30,103,64
India,TamilNadu,Ooty,"Bombay Castel, Ooty - TNPCB",30-03-2024 11:00:00,11.4068288,76.7138973,PM10,32,94,59
India,TamilNadu,Palkalaiperur,"Bharathidasan University, Palkalaiperur - TNPCB",30-03-2024 11:00:00,10.681158,78.741746,SO2,27,30,28
India,TamilNadu,Ramanathapuram,"Chalai Bazaar, Ramanathapuram - TNPCB",30-03-2024 11:00:00,9.36399,78.831977,PM2.5,19,64,39
India,TamilNadu,Ramanathapuram,"Chalai Bazaar, Ramanathapuram - TNPCB",30-03-2024 11:00:00,9.36399,78.831977,CO,1,16,6
India,TamilNadu,Thoothukudi,"Meelavittan, Thoothukudi - TNPCB",30-03-2024 11:00:00,8.816428 ,78.099039,SO2,NA,NA,NA
India,Telangana,Hyderabad,"Bollaram Industrial Area, Hyderabad - TSPCB",30-03-2024 11:00:00,17.540891,78.358528,NH3,2,5,3
India,Telangana,Hyderabad,"Bollaram Industrial Area, Hyderabad - TSPCB",30-03-2024 11:00:00,17.540891,78.358528,CO,19,47,31
India,Telangana,Hyderabad,"Central University, Hyderabad - TSPCB",30-03-2024 11:00:00,17.460103,78.334361,PM2.5,32,60,44
India,Telangana,Hyderabad,"Central University, Hyderabad - TSPCB",30-03-2024 11:00:00,17.460103,78.334361,PM10,67,132,88
India,Telangana,Hyderabad,"Central University, Hyderabad - TSPCB",30-03-2024 11:00:00,17.460103,78.334361,OZONE,3,4,3
India,Telangana,Hyderabad,"Kokapet, Hyderabad - TSPCB",30-03-2024 11:00:00,17.393559,78.339194,NO2,NA,NA,NA
India,Telangana,Hyderabad,"Kokapet, Hyderabad - TSPCB",30-03-2024 11:00:00,17.393559,78.339194,CO,NA,NA,NA
India,Telangana,Hyderabad,"Kompally Municipal Office, Hyderabad - TSPCB",30-03-2024 11:00:00,17.544899,78.486949,CO,29,72,59
India,Telangana,Hyderabad,"Nacharam_TSIIC IALA, Hyderabad - TSPCB",30-03-2024 11:00:00,17.429398,78.569354,SO2,4,21,12
India,Telangana,Hyderabad,"New Malakpet, Hyderabad - TSPCB",30-03-2024 11:00:00,17.37206,78.50864,PM2.5,31,57,46
India,Telangana,Hyderabad,"New Malakpet, Hyderabad - TSPCB",30-03-2024 11:00:00,17.37206,78.50864,SO2,14,21,17
India,Telangana,Hyderabad,"New Malakpet, Hyderabad - TSPCB",30-03-2024 11:00:00,17.37206,78.50864,CO,10,41,16
India,Telangana,Hyderabad,"Ramachandrapuram, Hyderabad - TSPCB",30-03-2024 11:00:00,17.528544,78.286195,NO2,11,12,11
India,Telangana,Hyderabad,"Somajiguda, Hyderabad - TSPCB",30-03-2024 11:00:00,17.417094,78.457437,SO2,NA,NA,NA
India,Telangana,Hyderabad,"Somajiguda, Hyderabad - TSPCB",30-03-2024 11:00:00,17.417094,78.457437,OZONE,NA,NA,NA
India,Telangana,Hyderabad,"Zoo Park, Hyderabad - TSPCB",30-03-2024 11:00:00,17.349694,78.451437,PM10,66,157,121
India,Telangana,Hyderabad,"Zoo Park, Hyderabad - TSPCB",30-03-2024 11:00:00,17.349694,78.451437,SO2,1,7,3
India,Tripura,Agartala,"Bardowali, Agartala - Tripura SPCB",30-03-2024 11:00:00,23.8175497,91.2726974,NH3,2,3,2
India,Uttar_Pradesh,Agra,"Manoharpur, Agra - UPPCB",30-03-2024 11:00:00,27.23711,78.01936,CO,8,18,9
India,Uttar_Pradesh,Agra,"Rohta, Agra - UPPCB",30-03-2024 11:00:00,27.106972,78.000111,NO2,2,2,2
India,Uttar_Pradesh,Agra,"Rohta, Agra - UPPCB",30-03-2024 11:00:00,27.106972,78.000111,SO2,5,13,7
India,Uttar_Pradesh,Agra,"Sanjay Palace, Agra - UPPCB",30-03-2024 11:00:00,27.19865833,78.00598056,PM10,29,92,54
India,Uttar_Pradesh,Agra,"Sanjay Palace, Agra - UPPCB",30-03-2024 11:00:00,27.19865833,78.00598056,NO2,27,54,33
India,Uttar_Pradesh,Agra,"Shahjahan Garden, Agra - UPPCB",30-03-2024 11:00:00,27.169338,78.03582,PM2.5,25,63,40
India,Uttar_Pradesh,Agra,"Shahjahan Garden, Agra - UPPCB",30-03-2024 11:00:00,27.169338,78.03582,PM10,39,90,64
India,Uttar_Pradesh,Agra,"Shahjahan Garden, Agra - UPPCB",30-03-2024 11:00:00,27.169338,78.03582,NH3,10,17,14
India,Uttar_Pradesh,Baghpat,"Sardar Patel Inter College, Baghpat - UPPCB",30-03-2024 11:00:00,28.964949,77.278761,SO2,16,66,37
India,Uttar_Pradesh,Baghpat,"Sardar Patel Inter College, Baghpat - UPPCB",30-03-2024 11:00:00,28.964949,77.278761,CO,32,68,55
India,Uttar_Pradesh,Bareilly,"Civil Lines, Bareilly - UPPCB",30-03-2024 11:00:00,28.359581,79.414455,PM10,54,139,94
India,Uttar_Pradesh,Bareilly,"Civil Lines, Bareilly - UPPCB",30-03-2024 11:00:00,28.359581,79.414455,NO2,2,3,2
India,Uttar_Pradesh,Bareilly,"Civil Lines, Bareilly - UPPCB",30-03-2024 11:00:00,28.359581,79.414455,CO,21,101,52
India,Uttar_Pradesh,Bareilly,"Rajendra Nagar, Bareilly - UPPCB",30-03-2024 11:00:00,28.38910936,79.42963708,OZONE,31,248,110
India,Uttar_Pradesh,Bulandshahr,"Yamunapuram, Bulandshahr - UPPCB",30-03-2024 11:00:00,28.406963,77.849831,NO2,14,62,25
India,Uttar_Pradesh,Firozabad,"Nagla Bhau, Firozabad - UPPCB",30-03-2024 11:00:00,27.168897,78.376960,PM2.5,NA,NA,NA
India,Uttar_Pradesh,Ghaziabad,"Loni, Ghaziabad - UPPCB",30-03-2024 11:00:00,28.757294,77.278792,NH3,1,8,4
India,Uttar_Pradesh,Ghaziabad,"Sanjay Nagar, Ghaziabad - UPPCB",30-03-2024 11:00:00,28.685382,77.453839,PM10,94,275,135
India,Uttar_Pradesh,Ghaziabad,"Sanjay Nagar, Ghaziabad - UPPCB",30-03-2024 11:00:00,28.685382,77.453839,NO2,29,102,61
India,Uttar_Pradesh,Gorakhpur,"Madan Mohan Malaviya University of Technology, Gorakhpur - UPPCB",30-03-2024 11:00:00,26.730136,83.433859,PM2.5,50,221,114
India,Uttar_Pradesh,Greater Noida,"Knowledge Park - III, Greater Noida - UPPCB",30-03-2024 11:00:00,28.47272,77.482000,OZONE,5,84,12
India,Uttar_Pradesh,Greater Noida,"Knowledge Park - V, Greater Noida - UPPCB",30-03-2024 11:00:00,28.557054,77.453663,NO2,38,57,48
India,Uttar_Pradesh,Greater Noida,"Knowledge Park - V, Greater Noida - UPPCB",30-03-2024 11:00:00,28.557054,77.453663,NH3,4,6,5
India,Uttar_Pradesh,Greater Noida,"Knowledge Park - V, Greater Noida - UPPCB",30-03-2024 11:00:00,28.557054,77.453663,SO2,14,31,21
India,Uttar_Pradesh,Hapur,"Anand Vihar, Hapur - UPPCB",30-03-2024 11:00:00,28.725645,77.749675,PM10,62,134,102
India,Uttar_Pradesh,Hapur,"Anand Vihar, Hapur - UPPCB",30-03-2024 11:00:00,28.725645,77.749675,NO2,20,78,37
India,Uttar_Pradesh,Hapur,"Anand Vihar, Hapur - UPPCB",30-03-2024 11:00:00,28.725645,77.749675,NH3,9,13,10
India,Uttar_Pradesh,Jhansi,"Shivaji Nagar, Jhansi - UPPCB",30-03-2024 11:00:00,25.4547,78.6039,NH3,6,6,6
India,Uttar_Pradesh,Jhansi,"Shivaji Nagar, Jhansi - UPPCB",30-03-2024 11:00:00,25.4547,78.6039,SO2,13,20,14
India,Uttar_Pradesh,Kanpur,"FTI Kidwai Nagar, Kanpur - UPPCB",30-03-2024 11:00:00,26.428282,80.327067,PM10,84,250,134
India,Uttar_Pradesh,Kanpur,"NSI Kalyanpur, Kanpur - UPPCB",30-03-2024 11:00:00,26.509954,80.249612,CO,40,50,42
India,Uttar_Pradesh,Kanpur,"Nehru Nagar, Kanpur - UPPCB",30-03-2024 11:00:00,26.4703136,80.3229863,NO2,24,43,34
India,Uttar_Pradesh,Kanpur,"Nehru Nagar, Kanpur - UPPCB",30-03-2024 11:00:00,26.4703136,80.3229863,SO2,6,10,8
India,Uttar_Pradesh,Kanpur,"Nehru Nagar, Kanpur - UPPCB",30-03-2024 11:00:00,26.4703136,80.3229863,CO,41,72,58
India,Uttar_Pradesh,Khurja,"Kalindi Kunj, Khurja - UPPCB",30-03-2024 11:00:00,28.2348927,77.8683002,PM2.5,41,153,70
India,Uttar_Pradesh,Lucknow,"B R Ambedkar University, Lucknow - UPPCB",30-03-2024 11:00:00,26.766433,80.927299,PM10,117,179,151
India,Uttar_Pradesh,Lucknow,"B R Ambedkar University, Lucknow - UPPCB",30-03-2024 11:00:00,26.766433,80.927299,NH3,8,8,8
India,Uttar_Pradesh,Lucknow,"B R Ambedkar University, Lucknow - UPPCB",30-03-2024 11:00:00,26.766433,80.927299,CO,30,42,40
India,Uttar_Pradesh,Lucknow,"B R Ambedkar University, Lucknow - UPPCB",30-03-2024 11:00:00,26.766433,80.927299,OZONE,4,88,29
India,Uttar_Pradesh,Lucknow,"Gomti Nagar, Lucknow - UPPCB",30-03-2024 11:00:00,26.868120,81.005119,PM10,80,138,108
India,Uttar_Pradesh,Lucknow,"Gomti Nagar, Lucknow - UPPCB",30-03-2024 11:00:00,26.868120,81.005119,NO2,12,14,13
India,Uttar_Pradesh,Lucknow,"Gomti Nagar, Lucknow - UPPCB",30-03-2024 11:00:00,26.868120,81.005119,OZONE,46,53,48
India,Uttar_Pradesh,Lucknow,"Kendriya Vidyalaya, Lucknow - CPCB",30-03-2024 11:00:00,26.906111,80.948222,NO2,7,77,28
India,Uttar_Pradesh,Lucknow,"Kendriya Vidyalaya, Lucknow - CPCB",30-03-2024 11:00:00,26.906111,80.948222,SO2,4,8,6
India,Uttar_Pradesh,Lucknow,"Kendriya Vidyalaya, Lucknow - CPCB",30-03-2024 11:00:00,26.906111,80.948222,OZONE,8,62,31
India,Uttar_Pradesh,Lucknow,"Kukrail Picnic Spot-1, Lucknow - UPPCB",30-03-2024 11:00:00,26.90723,80.98579,CO,19,40,39
India,Uttar_Pradesh,Lucknow,"Talkatora District Industries Center, Lucknow - CPCB",30-03-2024 11:00:00,26.83399722,80.8917361,NO2,39,106,60
India,Uttar_Pradesh,Lucknow,"Talkatora District Industries Center, Lucknow - CPCB",30-03-2024 11:00:00,26.83399722,80.8917361,SO2,1,19,7
India,Uttar_Pradesh,Meerut,"Ganga Nagar, Meerut - UPPCB",30-03-2024 11:00:00,28.999264,77.7590354,PM10,122,199,154
India,Uttar_Pradesh,Meerut,"Ganga Nagar, Meerut - UPPCB",30-03-2024 11:00:00,28.999264,77.7590354,OZONE,7,45,12
India,Uttar_Pradesh,Meerut,"Jai Bhim Nagar, Meerut - UPPCB",30-03-2024 11:00:00,28.9535882,77.7622941,NO2,11,37,28
India,Uttar_Pradesh,Meerut,"Jai Bhim Nagar, Meerut - UPPCB",30-03-2024 11:00:00,28.9535882,77.7622941,NH3,9,12,10
India,Uttar_Pradesh,Meerut,"Jai Bhim Nagar, Meerut - UPPCB",30-03-2024 11:00:00,28.9535882,77.7622941,CO,36,100,75
India,Uttar_Pradesh,Meerut,"Pallavpuram Phase 2, Meerut - UPPCB",30-03-2024 11:00:00,29.063510,77.709723,SO2,18,51,32
India,Uttar_Pradesh,Meerut,"Pallavpuram Phase 2, Meerut - UPPCB",30-03-2024 11:00:00,29.063510,77.709723,OZONE,4,98,23
India,Uttar_Pradesh,Moradabad,"Employment Office, Moradabad - UPPCB",30-03-2024 11:00:00,28.88528,78.73880,OZONE,13,138,21
India,Uttar_Pradesh,Moradabad,"Jigar Colony, Moradabad - UPPCB",30-03-2024 11:00:00,28.856664,78.772638,PM2.5,37,169,73
India,Uttar_Pradesh,Moradabad,"Jigar Colony, Moradabad - UPPCB",30-03-2024 11:00:00,28.856664,78.772638,NH3,5,5,5
India,Uttar_Pradesh,Moradabad,"Jigar Colony, Moradabad - UPPCB",30-03-2024 11:00:00,28.856664,78.772638,CO,29,56,54
India,Uttar_Pradesh,Moradabad,"Kashiram Nagar, Moradabad - UPPCB",30-03-2024 11:00:00,28.849399,78.742362,PM2.5,71,211,140
India,Uttar_Pradesh,Moradabad,"Kashiram Nagar, Moradabad - UPPCB",30-03-2024 11:00:00,28.849399,78.742362,OZONE,15,43,17
India,Uttar_Pradesh,Moradabad,"Transport Nagar, Moradabad - UPPCB",30-03-2024 11:00:00,28.802625,78.753728,PM2.5,51,148,90
India,Uttar_Pradesh,Moradabad,"Transport Nagar, Moradabad - UPPCB",30-03-2024 11:00:00,28.802625,78.753728,PM10,72,182,99
India,Uttar_Pradesh,Moradabad,"Transport Nagar, Moradabad - UPPCB",30-03-2024 11:00:00,28.802625,78.753728,SO2,45,53,50
India,Uttar_Pradesh,Moradabad,"Transport Nagar, Moradabad - UPPCB",30-03-2024 11:00:00,28.802625,78.753728,OZONE,12,28,16
India,Uttar_Pradesh,Noida,"Sector - 125, Noida - UPPCB",30-03-2024 11:00:00,28.5447608,77.3231257,SO2,5,37,16
India,Uttar_Pradesh,Noida,"Sector - 125, Noida - UPPCB",30-03-2024 11:00:00,28.5447608,77.3231257,CO,34,74,58
India,Uttar_Pradesh,Noida,"Sector - 62, Noida - IMD",30-03-2024 11:00:00,28.6245479,77.3577104,PM2.5,3,216,88
India,Uttar_Pradesh,Noida,"Sector - 62, Noida - IMD",30-03-2024 11:00:00,28.6245479,77.3577104,PM10,21,314,132
India,Uttar_Pradesh,Noida,"Sector - 62, Noida - IMD",30-03-2024 11:00:00,28.6245479,77.3577104,NO2,14,31,20
India,Uttar_Pradesh,Noida,"Sector - 62, Noida - IMD",30-03-2024 11:00:00,28.6245479,77.3577104,CO,42,70,68
India,Uttar_Pradesh,Noida,"Sector - 62, Noida - IMD",30-03-2024 11:00:00,28.6245479,77.3577104,OZONE,8,46,17
India,Uttar_Pradesh,Noida,"Sector-1, Noida - UPPCB",30-03-2024 11:00:00,28.5898,77.3101,CO,26,52,38
India,Uttar_Pradesh,Noida,"Sector-116, Noida - UPPCB",30-03-2024 11:00:00,28.569230,77.393848,SO2,15,43,29
India,Uttar_Pradesh,Prayagraj,"Jhunsi, Prayagraj - UPPCB",30-03-2024 11:00:00,25.425602,81.917152,PM10,50,231,112
India,Uttar_Pradesh,Prayagraj,"Motilal Nehru NIT, Prayagraj - UPPCB",30-03-2024 11:00:00,25.494,81.863,NH3,6,7,7
India,Uttar_Pradesh,Prayagraj,"Nagar Nigam, Prayagraj - UPPCB",30-03-2024 11:00:00,25.44919916 ,81.82735986 ,NO2,5,5,5
India,Uttar_Pradesh,Prayagraj,"Nagar Nigam, Prayagraj - UPPCB",30-03-2024 11:00:00,25.44919916 ,81.82735986 ,CO,17,76,30
India,Uttar_Pradesh,Varanasi,"Ardhali Bazar, Varanasi - UPPCB",30-03-2024 11:00:00,25.3505986,82.9083074,SO2,1,14,7
India,Uttar_Pradesh,Varanasi,"Ardhali Bazar, Varanasi - UPPCB",30-03-2024 11:00:00,25.3505986,82.9083074,CO,4,19,10
India,Uttar_Pradesh,Varanasi,"Bhelupur, Varanasi - UPPCB",30-03-2024 11:00:00,25.301778,82.996789,PM2.5,8,30,18
India,Uttar_Pradesh,Varanasi,"Bhelupur, Varanasi - UPPCB",30-03-2024 11:00:00,25.301778,82.996789,NH3,1,2,2
India,Uttar_Pradesh,Varanasi,"IESD Banaras Hindu University, Varanasi - UPPCB",30-03-2024 11:00:00,25.262326,82.995408,PM2.5,9,32,20
India,Uttar_Pradesh,Varanasi,"IESD Banaras Hindu University, Varanasi - UPPCB",30-03-2024 11:00:00,25.262326,82.995408,NH3,1,3,2
India,Uttar_Pradesh,Varanasi,"Maldahiya, Varanasi - UPPCB",30-03-2024 11:00:00,25.32393,82.99687,CO,30,98,39
India,Uttarakhand,Kashipur,"Govt. Girls Inter College, Kashipur - UKPCB",30-03-2024 11:00:00,29.2124114,78.9611753,PM2.5,48,131,88
India,Uttarakhand,Kashipur,"Govt. Girls Inter College, Kashipur - UKPCB",30-03-2024 11:00:00,29.2124114,78.9611753,PM10,78,114,97
India,Uttarakhand,Rishikesh,"Shivaji Nagar, Rishikesh - UKPCB",30-03-2024 11:00:00,30.075911,78.2859547,NO2,8,48,16
India,Uttarakhand,Rishikesh,"Shivaji Nagar, Rishikesh - UKPCB",30-03-2024 11:00:00,30.075911,78.2859547,NH3,2,4,3
India,West_Bengal,Asansol,"Asansol Court Area, Asansol - WBPCB",30-03-2024 11:00:00,23.685297,86.945968,NH3,3,9,6
India,West_Bengal,Barrackpore,"SVSPA Campus, Barrackpore - WBPCB",30-03-2024 11:00:00,22.7605581,88.3617589,PM2.5,NA,NA,NA
India,West_Bengal,Barrackpore,"SVSPA Campus, Barrackpore - WBPCB",30-03-2024 11:00:00,22.7605581,88.3617589,NH3,1,2,1
India,West_Bengal,Howrah,"Belur Math, Howrah - WBPCB",30-03-2024 11:00:00,22.629801,88.352017,PM2.5,29,102,62
India,West_Bengal,Howrah,"Belur Math, Howrah - WBPCB",30-03-2024 11:00:00,22.629801,88.352017,PM10,NA,NA,NA
India,West_Bengal,Howrah,"Padmapukur, Howrah - WBPCB",30-03-2024 11:00:00,22.5687319,88.2797276,PM2.5,29,85,54
India,West_Bengal,Howrah,"Padmapukur, Howrah - WBPCB",30-03-2024 11:00:00,22.5687319,88.2797276,CO,10,50,28
India,West_Bengal,Kolkata,"Ballygunge, Kolkata - WBPCB",30-03-2024 11:00:00,22.5367507,88.3638022,CO,17,31,21
India,West_Bengal,Kolkata,"Bidhannagar, Kolkata - WBPCB",30-03-2024 11:00:00,22.58157048,88.41002457,PM2.5,21,80,50
India,West_Bengal,Kolkata,"Bidhannagar, Kolkata - WBPCB",30-03-2024 11:00:00,22.58157048,88.41002457,CO,16,26,19
India,West_Bengal,Kolkata,"Fort William, Kolkata - WBPCB",30-03-2024 11:00:00,22.556640,88.342674,CO,12,24,14
India,West_Bengal,Kolkata,"Rabindra Bharati University, Kolkata - WBPCB",30-03-2024 11:00:00,22.627847,88.380669,NO2,23,23,23
India,West_Bengal,Kolkata,"Rabindra Sarobar, Kolkata - WBPCB",30-03-2024 11:00:00,22.51106,88.35142,NO2,9,41,21
India,West_Bengal,Kolkata,"Rabindra Sarobar, Kolkata - WBPCB",30-03-2024 11:00:00,22.51106,88.35142,CO,8,25,12
India,West_Bengal,Siliguri,"Ward-32 Bapupara, Siliguri - WBPCB",30-03-2024 11:00:00,26.6879226,88.4152495,PM10,51,176,95
India,West_Bengal,Siliguri,"Ward-32 Bapupara, Siliguri - WBPCB",30-03-2024 11:00:00,26.6879226,88.4152495,SO2,7,12,9
India,Andhra_Pradesh,Amaravati,"Secretariat, Amaravati - APPCB",30-03-2024 11:00:00,16.5150833,80.5181667,PM10,NA,NA,NA
India,Andhra_Pradesh,Anantapur,"Gulzarpet, Anantapur - APPCB",30-03-2024 11:00:00,14.675886,77.593027,CO,41,55,48
India,Andhra_Pradesh,Chittoor,"Gangineni Cheruvu, Chittoor - APPCB",30-03-2024 11:00:00,13.204880,79.097889,PM2.5,13,387,127
India,Andhra_Pradesh,Chittoor,"Gangineni Cheruvu, Chittoor - APPCB",30-03-2024 11:00:00,13.204880,79.097889,NO2,3,20,8
India,Andhra_Pradesh,Rajamahendravaram,"Anand Kala Kshetram, Rajamahendravaram - APPCB",30-03-2024 11:00:00,16.9872867,81.7363176,NO2,5,20,12
India,Andhra_Pradesh,Tirupati,"Vaikuntapuram, Tirupati - APPCB",30-03-2024 11:00:00,13.615387,79.409230,NO2,14,27,20
India,Andhra_Pradesh,Tirupati,"Vaikuntapuram, Tirupati - APPCB",30-03-2024 11:00:00,13.615387,79.409230,SO2,5,5,5
India,Andhra_Pradesh,Vijayawada,"HB Colony, Vijayawada - APPCB",30-03-2024 11:00:00,16.536107,80.594233,NO2,5,12,7
India,Andhra_Pradesh,Vijayawada,"HB Colony, Vijayawada - APPCB",30-03-2024 11:00:00,16.536107,80.594233,SO2,3,5,4
India,Andhra_Pradesh,Vijayawada,"HB Colony, Vijayawada - APPCB",30-03-2024 11:00:00,16.536107,80.594233,CO,38,49,40
India,Andhra_Pradesh,Vijayawada,"Rajiv Gandhi Park, Vijayawada - APPCB",30-03-2024 11:00:00,16.509717,80.612222,SO2,4,9,6
India,Andhra_Pradesh,Vijayawada,"Rajiv Nagar, Vijayawada - APPCB",30-03-2024 11:00:00,16.554731,80.649110,NO2,NA,NA,NA
India,Andhra_Pradesh,Vijayawada,"Rajiv Nagar, Vijayawada - APPCB",30-03-2024 11:00:00,16.554731,80.649110,NH3,NA,NA,NA
India,Andhra_Pradesh,Visakhapatnam,"GVM Corporation, Visakhapatnam - APPCB",30-03-2024 11:00:00,17.72,83.3,PM2.5,28,93,48
India,Andhra_Pradesh,Visakhapatnam,"GVM Corporation, Visakhapatnam - APPCB",30-03-2024 11:00:00,17.72,83.3,PM10,62,212,108
India,Andhra_Pradesh,Visakhapatnam,"GVM Corporation, Visakhapatnam - APPCB",30-03-2024 11:00:00,17.72,83.3,CO,10,92,28
India,Arunachal_Pradesh,Naharlagun,"Naharlagun, Naharlagun - APSPCB",30-03-2024 11:00:00,27.103358,93.679645,PM2.5,NA,NA,NA
India,Assam,Byrnihat,"Central Academy for SFS, Byrnihat - PCBA",30-03-2024 11:00:00,26.071318,91.87488,PM2.5,45,435,219
India,Assam,Byrnihat,"Central Academy for SFS, Byrnihat - PCBA",30-03-2024 11:00:00,26.071318,91.87488,PM10,37,500,287
India,Assam,Byrnihat,"Central Academy for SFS, Byrnihat - PCBA",30-03-2024 11:00:00,26.071318,91.87488,OZONE,10,12,11
India,Assam,Guwahati,"IITG, Guwahati - PCBA",30-03-2024 11:00:00,26.2028636,91.70046436,PM2.5,22,420,184
India,Assam,Guwahati,"IITG, Guwahati - PCBA",30-03-2024 11:00:00,26.2028636,91.70046436,PM10,45,337,141
India,Assam,Guwahati,"IITG, Guwahati - PCBA",30-03-2024 11:00:00,26.2028636,91.70046436,NO2,1,10,5
India,Assam,Guwahati,"IITG, Guwahati - PCBA",30-03-2024 11:00:00,26.2028636,91.70046436,SO2,11,13,12
India,Assam,Guwahati,"Pan Bazaar, Guwahati - PCBA",30-03-2024 11:00:00,26.187500,91.744194,CO,21,85,52
India,Assam,Guwahati,"Railway Colony, Guwahati - PCBA",30-03-2024 11:00:00,26.181742,91.78063,PM10,55,388,142
India,Assam,Guwahati,"Railway Colony, Guwahati - PCBA",30-03-2024 11:00:00,26.181742,91.78063,OZONE,3,36,27
India,Assam,Nagaon,"Christianpatty, Nagaon - PCBA",30-03-2024 11:00:00,26.349082,92.68449,PM2.5,70,157,92
India,Assam,Nagaon,"Christianpatty, Nagaon - PCBA",30-03-2024 11:00:00,26.349082,92.68449,CO,11,64,32
India,Assam,Nagaon,"Christianpatty, Nagaon - PCBA",30-03-2024 11:00:00,26.349082,92.68449,OZONE,13,103,36
India,Assam,Nalbari,"Bata Chowk, Nalbari - PCBA",30-03-2024 11:00:00,26.446912,91.439057,SO2,3,11,7
India,Assam,Silchar,"Tarapur, Silchar - PCBA",30-03-2024 11:00:00,24.82827,92.79525,SO2,7,19,11
India,Assam,Silchar,"Tarapur, Silchar - PCBA",30-03-2024 11:00:00,24.82827,92.79525,CO,30,46,32
India,Assam,Sivasagar,"Girls College, Sivasagar - PCBA",30-03-2024 11:00:00,26.987634,94.636574,PM2.5,43,62,50
India,Assam,Sivasagar,"Girls College, Sivasagar - PCBA",30-03-2024 11:00:00,26.987634,94.636574,SO2,4,6,5
India,Assam,Sivasagar,"Girls College, Sivasagar - PCBA",30-03-2024 11:00:00,26.987634,94.636574,CO,4,16,5
India,Bihar,Araria,"Kharahiya Basti, Araria - BSPCB",30-03-2024 11:00:00,26.146529,87.454184,PM2.5,30,311,100
India,Bihar,Bhagalpur,"DM Office_Kachari Chowk, Bhagalpur - BSPCB",30-03-2024 11:00:00,25.251013,86.989001,CO,44,99,59
India,Bihar,Bhagalpur,"Mayaganj, Bhagalpur - BSPCB",30-03-2024 11:00:00,25.265194,87.012947,NO2,5,10,7
India,Bihar,Bihar Sharif,"D M Colony, Bihar Sharif - BSPCB",30-03-2024 11:00:00,25.204762,85.514960,SO2,2,16,8
India,Bihar,Buxar,"Charitra Van, Buxar - BSPCB (Formerly known as Central Jail)",30-03-2024 11:00:00,25.567520,83.966379,PM10,92,336,166
India,Bihar,Chhapra,"Darshan Nagar, Chhapra - BSPCB",30-03-2024 11:00:00,25.7808257,84.7446768,PM2.5,107,336,257
India,Bihar,Gaya,"Kareemganj, Gaya - BSPCB",30-03-2024 11:00:00,24.792403,84.992416,PM2.5,20,243,90
India,Bihar,Gaya,"Kareemganj, Gaya - BSPCB",30-03-2024 11:00:00,24.792403,84.992416,PM10,56,164,96
India,Bihar,Gaya,"Kareemganj, Gaya - BSPCB",30-03-2024 11:00:00,24.792403,84.992416,CO,4,101,39
India,Bihar,Gaya,"SFTI Kusdihra, Gaya - BSPCB",30-03-2024 11:00:00,24.762518,84.982348,NO2,17,54,35
India,Bihar,Gaya,"SFTI Kusdihra, Gaya - BSPCB",30-03-2024 11:00:00,24.762518,84.982348,CO,28,62,48
India,Bihar,Hajipur,"Industrial Area, Hajipur - BSPCB",30-03-2024 11:00:00,25.697189,85.245900,CO,34,66,61
India,Bihar,Katihar,"Mirchaibari, Katihar - BSPCB",30-03-2024 11:00:00,25.560083,87.553265,SO2,20,24,22
India,Bihar,Munger,"Town Hall, Munger - BSPCB",30-03-2024 11:00:00,25.376776,86.471523,PM2.5,73,362,179
India,Bihar,Munger,"Town Hall, Munger - BSPCB",30-03-2024 11:00:00,25.376776,86.471523,NO2,8,10,8
India,Bihar,Munger,"Town Hall, Munger - BSPCB",30-03-2024 11:00:00,25.376776,86.471523,NH3,1,2,2
India,Bihar,Muzaffarpur,"Buddha Colony, Muzaffarpur - BSPCB",30-03-2024 11:00:00,26.11442,85.39813,OZONE,9,179,26
India,Bihar,Muzaffarpur,"MIT-Daudpur Kothi, Muzaffarpur - BSPCB",30-03-2024 11:00:00,26.1403345,85.3650192,PM2.5,123,371,226
India,Bihar,Muzaffarpur,"MIT-Daudpur Kothi, Muzaffarpur - BSPCB",30-03-2024 11:00:00,26.1403345,85.3650192,NO2,3,11,7
India,Bihar,Muzaffarpur,"MIT-Daudpur Kothi, Muzaffarpur - BSPCB",30-03-2024 11:00:00,26.1403345,85.3650192,NH3,1,6,2
India,Bihar,Muzaffarpur,"MIT-Daudpur Kothi, Muzaffarpur - BSPCB",30-03-2024 11:00:00,26.1403345,85.3650192,CO,30,146,63
India,Bihar,Patna,"DRM Office Danapur, Patna - BSPCB",30-03-2024 11:00:00,25.586562,85.043586,PM10,116,148,131
India,Bihar,Patna,"DRM Office Danapur, Patna - BSPCB",30-03-2024 11:00:00,25.586562,85.043586,SO2,6,8,7
India,Bihar,Patna,"IGSC Planetarium Complex, Patna - BSPCB",30-03-2024 11:00:00,25.610369,85.132568,OZONE,7,224,224
India,Bihar,Patna,"Muradpur, Patna - BSPCB",30-03-2024 11:00:00,25.619651,85.147382,NO2,7,17,12
India,Bihar,Patna,"Muradpur, Patna - BSPCB",30-03-2024 11:00:00,25.619651,85.147382,OZONE,1,31,11
India,Bihar,Purnia,"Mariam Nagar, Purnia - BSPCB",30-03-2024 11:00:00,25.366336,87.117468,PM2.5,27,110,70
India,Bihar,Purnia,"Mariam Nagar, Purnia - BSPCB",30-03-2024 11:00:00,25.366336,87.117468,NH3,2,2,2
India,Bihar,Purnia,"Mariam Nagar, Purnia - BSPCB",30-03-2024 11:00:00,25.366336,87.117468,SO2,6,11,8
India,Bihar,Purnia,"Mariam Nagar, Purnia - BSPCB",30-03-2024 11:00:00,25.366336,87.117468,OZONE,3,38,15
India,Bihar,Rajgir,"Dangi Tola, Rajgir - BSPCB",30-03-2024 11:00:00,25.03280,85.41948,PM10,NA,NA,NA
India,Bihar,Saharsa,"Police Line, Saharsa - BSPCB",30-03-2024 11:00:00,25.892357,86.590325,PM10,46,280,133
India,Bihar,Samastipur,"DM Office_Kasipur, Samastipur - BSPCB",30-03-2024 11:00:00,25.859655,85.77944,NO2,4,24,13
India,Bihar,Samastipur,"DM Office_Kasipur, Samastipur - BSPCB",30-03-2024 11:00:00,25.859655,85.77944,SO2,3,13,9
India,Bihar,Sasaram,"Dada Peer, Sasaram - BSPCB",30-03-2024 11:00:00,24.952822,84.002396,PM2.5,36,122,67
India,Bihar,Siwan,"Chitragupta Nagar, Siwan - BSPCB",30-03-2024 11:00:00,26.2271665,84.3570427,PM10,63,160,114
India,Chandigarh,Chandigarh,"Sector 22, Chandigarh - CPCC",30-03-2024 11:00:00,30.735567,76.775714,NO2,13,145,51
India,Chandigarh,Chandigarh,"Sector 22, Chandigarh - CPCC",30-03-2024 11:00:00,30.735567,76.775714,SO2,4,52,15
India,Chandigarh,Chandigarh,"Sector 22, Chandigarh - CPCC",30-03-2024 11:00:00,30.735567,76.775714,CO,20,88,31
India,Chandigarh,Chandigarh,"Sector-25, Chandigarh - CPCC",30-03-2024 11:00:00,30.751462,76.762879,PM2.5,83,229,175
India,Chandigarh,Chandigarh,"Sector-25, Chandigarh - CPCC",30-03-2024 11:00:00,30.751462,76.762879,SO2,8,38,13
India,Chhattisgarh,Bhilai,"32Bungalows, Bhilai - CECB",30-03-2024 11:00:00,21.194815,81.314770,PM2.5,54,82,61
India,Chhattisgarh,Bhilai,"32Bungalows, Bhilai - CECB",30-03-2024 11:00:00,21.194815,81.314770,SO2,5,8,6
India,Chhattisgarh,Bhilai,"32Bungalows, Bhilai - CECB",30-03-2024 11:00:00,21.194815,81.314770,OZONE,5,38,8
India,Chhattisgarh,Bhilai,"Hathkhoj, Bhilai - CECB",30-03-2024 11:00:00,21.224231,81.408350,PM10,60,111,95
India,Chhattisgarh,Bilaspur,"Mangala, Bilaspur - NTPC",30-03-2024 11:00:00,22.08815,82.13737,SO2,11,22,17
India,Chhattisgarh,Korba,"Rampur, Korba - CECB",30-03-2024 11:00:00,22.368195,82.746431,PM10,82,119,97
India,Chhattisgarh,Korba,"Rampur, Korba - CECB",30-03-2024 11:00:00,22.368195,82.746431,NO2,18,33,28
India,Chhattisgarh,Korba,"Urja Nagar, Korba - CECB",30-03-2024 11:00:00,22.348441,82.549611,PM10,NA,NA,NA
India,Chhattisgarh,Korba,"Urja Nagar, Korba - CECB",30-03-2024 11:00:00,22.348441,82.549611,CO,42,78,60
India,Chhattisgarh,Milupara,"Govt. Higher Secondary School, Milupara - CECB",30-03-2024 11:00:00,22.1910172,83.5197009,PM10,NA,NA,NA
India,Chhattisgarh,Milupara,"Govt. Higher Secondary School, Milupara - CECB",30-03-2024 11:00:00,22.1910172,83.5197009,OZONE,NA,NA,NA
India,Chhattisgarh,Raipur,"AIIMS, Raipur - CECB",30-03-2024 11:00:00,21.258815,81.578979,NO2,NA,NA,NA
India,Chhattisgarh,Raipur,"AIIMS, Raipur - CECB",30-03-2024 11:00:00,21.258815,81.578979,NH3,NA,NA,NA
India,Chhattisgarh,Raipur,"Krishak Nagar, Raipur - CECB",30-03-2024 11:00:00,21.237755,81.705301,OZONE,3,50,8
India,Chhattisgarh,Raipur,"Siltara Phase-II, Raipur - CECB",30-03-2024 11:00:00,21.371751,81.664929,CO,23,72,59
India,Delhi,Delhi,"Anand Vihar, Delhi - DPCC",30-03-2024 11:00:00,28.647622,77.3158090,NH3,1,8,4
India,Delhi,Delhi,"Ashok Vihar, Delhi - DPCC",30-03-2024 11:00:00,28.695381,77.181665,PM10,121,311,189
India,Delhi,Delhi,"Aya Nagar, Delhi - IMD",30-03-2024 11:00:00,28.4706914,77.1099364,OZONE,2,41,9
India,Delhi,Delhi,"Chandni Chowk, Delhi - IITM",30-03-2024 11:00:00,28.656756,77.227234,CO,8,100,49
India,Delhi,Delhi,"DTU, Delhi - CPCB",30-03-2024 11:00:00,28.7500499,77.1112615,PM2.5,98,304,201
India,Delhi,Delhi,"DTU, Delhi - CPCB",30-03-2024 11:00:00,28.7500499,77.1112615,PM10,109,290,179
India,Delhi,Delhi,"Dr. Karni Singh Shooting Range, Delhi - DPCC",30-03-2024 11:00:00,28.498571,77.264840,PM2.5,32,297,147
India,Delhi,Delhi,"Dr. Karni Singh Shooting Range, Delhi - DPCC",30-03-2024 11:00:00,28.498571,77.264840,OZONE,22,263,44
India,Delhi,Delhi,"Dwarka-Sector 8, Delhi - DPCC ",30-03-2024 11:00:00,28.5710274,77.0719006,PM2.5,69,256,149
India,Delhi,Delhi,"IGI Airport (T3), Delhi - IMD",30-03-2024 11:00:00,28.5627763,77.1180053,PM2.5,69,233,118
India,Delhi,Delhi,"IGI Airport (T3), Delhi - IMD",30-03-2024 11:00:00,28.5627763,77.1180053,OZONE,1,97,10
India,Delhi,Delhi,"IHBAS, Dilshad Garden, Delhi - CPCB",30-03-2024 11:00:00,28.6811736,77.3025234,NH3,NA,NA,NA
India,Delhi,Delhi,"IHBAS, Dilshad Garden, Delhi - CPCB",30-03-2024 11:00:00,28.6811736,77.3025234,SO2,NA,NA,NA
India,Delhi,Delhi,"ITO, Delhi - CPCB",30-03-2024 11:00:00,28.628624,77.241060,NO2,31,139,94
India,Delhi,Delhi,"Jahangirpuri, Delhi - DPCC",30-03-2024 11:00:00,28.732820,77.170633,NO2,28,126,82
India,Delhi,Delhi,"Lodhi Road, Delhi - IITM",30-03-2024 11:00:00,28.588333,77.221667,SO2,16,35,23
India,Delhi,Delhi,"Lodhi Road, Delhi - IITM",30-03-2024 11:00:00,28.588333,77.221667,OZONE,16,24,16
India,Delhi,Delhi,"Major Dhyan Chand National Stadium, Delhi - DPCC",30-03-2024 11:00:00,28.611281,77.237738,PM2.5,46,302,154
India,Delhi,Delhi,"Major Dhyan Chand National Stadium, Delhi - DPCC",30-03-2024 11:00:00,28.611281,77.237738,CO,36,92,53
India,Delhi,Delhi,"Mandir Marg, Delhi - DPCC",30-03-2024 11:00:00,28.636429,77.201067,NO2,112,146,129
India,Delhi,Delhi,"Mundka, Delhi - DPCC",30-03-2024 11:00:00,28.684678,77.076574,PM2.5,70,315,173
India,Delhi,Delhi,"Mundka, Delhi - DPCC",30-03-2024 11:00:00,28.684678,77.076574,SO2,4,36,13
India,Delhi,Delhi,"NSIT Dwarka, Delhi - CPCB",30-03-2024 11:00:00,28.60909,77.0325413,PM2.5,90,318,238
India,Delhi,Delhi,"Najafgarh, Delhi - DPCC",30-03-2024 11:00:00,28.570173,76.933762,PM2.5,67,277,131
India,Delhi,Delhi,"Najafgarh, Delhi - DPCC",30-03-2024 11:00:00,28.570173,76.933762,PM10,87,219,142
India,Delhi,Delhi,"Najafgarh, Delhi - DPCC",30-03-2024 11:00:00,28.570173,76.933762,NH3,12,13,13
India,Delhi,Delhi,"Najafgarh, Delhi - DPCC",30-03-2024 11:00:00,28.570173,76.933762,SO2,7,18,14
India,Delhi,Delhi,"Narela, Delhi - DPCC",30-03-2024 11:00:00,28.822836,77.101981,OZONE,8,168,19
India,Delhi,Delhi,"Nehru Nagar, Delhi - DPCC",30-03-2024 11:00:00,28.567890,77.250515,NO2,NA,NA,NA
India,Delhi,Delhi,"Nehru Nagar, Delhi - DPCC",30-03-2024 11:00:00,28.567890,77.250515,NH3,NA,NA,NA
India,Delhi,Delhi,"North Campus, DU, Delhi - IMD",30-03-2024 11:00:00,28.6573814,77.1585447,PM2.5,89,302,170
India,Delhi,Delhi,"Okhla Phase-2, Delhi - DPCC",30-03-2024 11:00:00,28.530785,77.271255,PM10,154,253,193
India,Delhi,Delhi,"Patparganj, Delhi - DPCC",30-03-2024 11:00:00,28.623763,77.287209,NO2,26,63,42
India,Delhi,Delhi,"Punjabi Bagh, Delhi - DPCC",30-03-2024 11:00:00,28.674045,77.131023,NO2,38,75,55
India,Delhi,Delhi,"Pusa, Delhi - DPCC",30-03-2024 11:00:00,28.639652,77.146275,OZONE,10,225,22
India,Delhi,Delhi,"Pusa, Delhi - IMD",30-03-2024 11:00:00,28.636110,77.173332,NO2,16,28,21
India,Delhi,Delhi,"Pusa, Delhi - IMD",30-03-2024 11:00:00,28.636110,77.173332,CO,79,90,85
India,Delhi,Delhi,"R K Puram, Delhi - DPCC",30-03-2024 11:00:00,28.563262,77.186937,PM10,104,249,157
India,Delhi,Delhi,"Rohini, Delhi - DPCC",30-03-2024 11:00:00,28.732528,77.119920,PM2.5,68,303,151
India,Delhi,Delhi,"Rohini, Delhi - DPCC",30-03-2024 11:00:00,28.732528,77.119920,NO2,17,102,61
India,Delhi,Delhi,"Rohini, Delhi - DPCC",30-03-2024 11:00:00,28.732528,77.119920,NH3,9,12,10
India,Delhi,Delhi,"Rohini, Delhi - DPCC",30-03-2024 11:00:00,28.732528,77.119920,CO,27,111,45
India,Delhi,Delhi,"Shadipur, Delhi - CPCB",30-03-2024 11:00:00,28.6514781,77.1473105,PM10,94,355,196
India,Delhi,Delhi,"Shadipur, Delhi - CPCB",30-03-2024 11:00:00,28.6514781,77.1473105,SO2,16,28,20
India,Delhi,Delhi,"Sirifort, Delhi - CPCB",30-03-2024 11:00:00,28.5504249,77.2159377,NH3,7,10,8
India,Delhi,Delhi,"Sri Aurobindo Marg, Delhi - DPCC",30-03-2024 11:00:00,28.531346,77.190156,CO,NA,NA,NA
India,Delhi,Delhi,"Vivek Vihar, Delhi - DPCC",30-03-2024 11:00:00,28.672342,77.315260,NH3,14,15,15
India,Delhi,Delhi,"Vivek Vihar, Delhi - DPCC",30-03-2024 11:00:00,28.672342,77.315260,SO2,32,105,47
India,Delhi,Delhi,"Wazirpur, Delhi - DPCC",30-03-2024 11:00:00,28.699793,77.165453,NH3,9,11,10
India,Gujarat,Ahmedabad,"Chandkheda, Ahmedabad - IITM",30-03-2024 11:00:00,23.107969,72.574648,NO2,14,31,18
India,Gujarat,Ahmedabad,"Gyaspur, Ahmedabad - IITM",30-03-2024 11:00:00,22.977134,72.553024,PM10,102,496,160
India,Gujarat,Ahmedabad,"Raikhad, Ahmedabad - IITM",30-03-2024 11:00:00,23.020509,72.579261,OZONE,11,34,14
India,Gujarat,Ahmedabad,"Rakhial, Ahmedabad - IITM",30-03-2024 11:00:00,23.016834,72.625775,CO,56,78,65
India,Gujarat,Ahmedabad,"SAC ISRO Satellite, Ahmedabad - IITM",30-03-2024 11:00:00,23.023389,72.515201,SO2,2,24,7
India,Gujarat,Ahmedabad,"SVPI Airport Hansol, Ahmedabad - IITM",30-03-2024 11:00:00,23.076793,72.627874,CO,26,42,28
India,Gujarat,Ahmedabad,"Sardar Vallabhbhai Patel Stadium, Ahmedabad - IITM",30-03-2024 11:00:00,23.043070,72.562968,NO2,33,35,34
India,Gujarat,Ahmedabad,"Sardar Vallabhbhai Patel Stadium, Ahmedabad - IITM",30-03-2024 11:00:00,23.043070,72.562968,NH3,6,6,6
India,Gujarat,Ahmedabad,"Sardar Vallabhbhai Patel Stadium, Ahmedabad - IITM",30-03-2024 11:00:00,23.043070,72.562968,SO2,2,14,6
India,Gujarat,Ankleshwar,"GIDC, Ankleshwar - GPCB",30-03-2024 11:00:00,21.613267,73.010555,PM10,70,104,81
India,Gujarat,Ankleshwar,"GIDC, Ankleshwar - GPCB",30-03-2024 11:00:00,21.613267,73.010555,OZONE,24,36,28
India,Gujarat,Gandhinagar,"GIFT City, Gandhinagar - IITM",30-03-2024 11:00:00,23.163798,72.677768,OZONE,8,38,13
India,Gujarat,Gandhinagar,"IIPHG Lekawada, Gandhinagar - IITM",30-03-2024 11:00:00,23.243639,72.68994,SO2,3,42,10
India,Gujarat,Nandesari,"GIDC, Nandesari - Nandesari Ind. Association",30-03-2024 11:00:00,22.410802,73.097923,PM2.5,74,356,190
India,Gujarat,Surat,"Science Center, Surat - SMC",30-03-2024 11:00:00,21.170046,72.795405,PM10,7,500,246
India,Gujarat,Surat,"Science Center, Surat - SMC",30-03-2024 11:00:00,21.170046,72.795405,SO2,1,9,4
India,Gujarat,Vapi,"Phase-1 GIDC, Vapi - GPCB",30-03-2024 11:00:00,20.362421,72.918013,NH3,2,2,2
India,Gujarat,Vapi,"Phase-1 GIDC, Vapi - GPCB",30-03-2024 11:00:00,20.362421,72.918013,SO2,50,52,51
India,Gujarat,Vatva,"Phase-4 GIDC, Vatva - GPCB",30-03-2024 11:00:00,22.969611,72.643500,OZONE,8,39,17
India,Haryana,Ambala,"Patti Mehar, Ambala - HSPCB",30-03-2024 11:00:00,30.379589,76.778328,NO2,7,21,14
India,Haryana,Ambala,"Patti Mehar, Ambala - HSPCB",30-03-2024 11:00:00,30.379589,76.778328,NH3,5,12,8
India,Haryana,Ambala,"Patti Mehar, Ambala - HSPCB",30-03-2024 11:00:00,30.379589,76.778328,SO2,NA,NA,NA
India,Haryana,Ambala,"Patti Mehar, Ambala - HSPCB",30-03-2024 11:00:00,30.379589,76.778328,CO,30,60,53
India,Haryana,Ambala,"Patti Mehar, Ambala - HSPCB",30-03-2024 11:00:00,30.379589,76.778328,OZONE,17,38,27
India,Haryana,Bahadurgarh,"Arya Nagar, Bahadurgarh - HSPCB",30-03-2024 11:00:00,28.6701,76.9254,PM2.5,35,225,68
India,Haryana,Bahadurgarh,"Arya Nagar, Bahadurgarh - HSPCB",30-03-2024 11:00:00,28.6701,76.9254,SO2,14,30,18
India,Haryana,Ballabgarh,"Nathu Colony, Ballabgarh - HSPCB",30-03-2024 11:00:00,28.3419248,77.319699,PM2.5,78,278,151
India,Haryana,Ballabgarh,"Nathu Colony, Ballabgarh - HSPCB",30-03-2024 11:00:00,28.3419248,77.319699,CO,13,78,54
India,Haryana,Bhiwani,"H.B. Colony, Bhiwani - HSPCB",30-03-2024 11:00:00,28.806223,76.141105,NH3,6,6,6
India,Haryana,Charkhi Dadri,"Mini Secretariat, Charkhi Dadri - HSPCB",30-03-2024 11:00:00,28.593883,76.270653,NH3,6,8,7
India,Haryana,Charkhi Dadri,"Mini Secretariat, Charkhi Dadri - HSPCB",30-03-2024 11:00:00,28.593883,76.270653,CO,21,70,42
India,Haryana,Dharuhera,"Municipal Corporation Office, Dharuhera -  HSPCB",30-03-2024 11:00:00,28.206800,76.799700,NH3,NA,NA,NA
India,Haryana,Dharuhera,"Municipal Corporation Office, Dharuhera -  HSPCB",30-03-2024 11:00:00,28.206800,76.799700,OZONE,61,70,61
India,Haryana,Faridabad,"New Industrial Town, Faridabad - HSPCB",30-03-2024 11:00:00,28.39072,77.30059,NO2,NA,NA,NA
India,Haryana,Faridabad,"New Industrial Town, Faridabad - HSPCB",30-03-2024 11:00:00,28.39072,77.30059,NH3,NA,NA,NA
India,Haryana,Faridabad,"New Industrial Town, Faridabad - HSPCB",30-03-2024 11:00:00,28.39072,77.30059,OZONE,16,167,42
India,Haryana,Faridabad,"Sector 11, Faridabad - HSPCB",30-03-2024 11:00:00,28.376058,77.315741,PM2.5,104,319,238
India,Haryana,Faridabad,"Sector 11, Faridabad - HSPCB",30-03-2024 11:00:00,28.376058,77.315741,CO,30,46,43
India,Haryana,Faridabad,"Sector 30, Faridabad - HSPCB",30-03-2024 11:00:00,28.4417,77.3217,PM2.5,91,103,96
India,Haryana,Faridabad,"Sector 30, Faridabad - HSPCB",30-03-2024 11:00:00,28.4417,77.3217,OZONE,8,81,14
India,Haryana,Faridabad,"Sector- 16A, Faridabad - HSPCB",30-03-2024 11:00:00,28.4088421,77.3099081,OZONE,14,14,14
India,Haryana,Fatehabad,"Huda Sector, Fatehabad - HSPCB",30-03-2024 11:00:00,29.503664,75.467934,PM10,49,102,73
India,Haryana,Fatehabad,"Huda Sector, Fatehabad - HSPCB",30-03-2024 11:00:00,29.503664,75.467934,OZONE,74,112,88
India,Haryana,Gurugram,"Sector-51, Gurugram - HSPCB",30-03-2024 11:00:00,28.4227,77.0667,SO2,3,4,3
India,Haryana,Gurugram,"Sector-51, Gurugram - HSPCB",30-03-2024 11:00:00,28.4227,77.0667,OZONE,27,67,44
India,Haryana,Gurugram,"Vikas Sadan, Gurugram - HSPCB",30-03-2024 11:00:00,28.4501238,77.0263051,OZONE,8,68,19
India,Haryana,Hisar,"Urban Estate-II, Hisar - HSPCB",30-03-2024 11:00:00,29.140560,75.744941,NO2,17,21,20
India,Haryana,Hisar,"Urban Estate-II, Hisar - HSPCB",30-03-2024 11:00:00,29.140560,75.744941,SO2,1,97,59
India,Haryana,Kaithal,"Rishi Nagar, Kaithal - HSPCB",30-03-2024 11:00:00,29.8006,76.4155,PM2.5,50,89,69
India,Haryana,Kaithal,"Rishi Nagar, Kaithal - HSPCB",30-03-2024 11:00:00,29.8006,76.4155,NH3,8,9,8
India,Haryana,Kaithal,"Rishi Nagar, Kaithal - HSPCB",30-03-2024 11:00:00,29.8006,76.4155,CO,4,36,11
India,Haryana,Karnal,"Sector-12, Karnal - HSPCB",30-03-2024 11:00:00,29.695300,77.002700,NH3,10,13,11
India,Haryana,Karnal,"Sector-12, Karnal - HSPCB",30-03-2024 11:00:00,29.695300,77.002700,OZONE,19,21,20
India,Haryana,Mandikhera,"General Hospital, Mandikhera - HSPCB",30-03-2024 11:00:00,27.9002,76.9938,PM10,33,366,107
India,Haryana,Manesar,"Sector-2 IMT, Manesar - HSPCB",30-03-2024 11:00:00,28.360699,76.936090,SO2,7,19,14
India,Haryana,Manesar,"Sector-2 IMT, Manesar - HSPCB",30-03-2024 11:00:00,28.360699,76.936090,OZONE,4,63,24
India,Haryana,Narnaul,"Shastri Nagar, Narnaul - HSPCB",30-03-2024 11:00:00,28.060249,76.113115,CO,8,26,20
India,Haryana,Palwal,"Shyam Nagar, Palwal - HSPCB",30-03-2024 11:00:00,28.1485564,77.3320667,OZONE,5,101,19
India,Haryana,Rohtak,"MD University, Rohtak - HSPCB",30-03-2024 11:00:00,28.52123,76.37138,SO2,6,9,7
India,Haryana,Rohtak,"MD University, Rohtak - HSPCB",30-03-2024 11:00:00,28.52123,76.37138,CO,10,82,42
India,Haryana,Sirsa,"F-Block, Sirsa - HSPCB",30-03-2024 11:00:00,29.536400,75.015800,NO2,10,10,10
India,Haryana,Sirsa,"F-Block, Sirsa - HSPCB",30-03-2024 11:00:00,29.536400,75.015800,NH3,12,13,13
India,Haryana,Sirsa,"F-Block, Sirsa - HSPCB",30-03-2024 11:00:00,29.536400,75.015800,CO,31,42,37
India,Haryana,Sonipat,"Murthal, Sonipat - HSPCB",30-03-2024 11:00:00,29.027200,77.062100,PM2.5,15,179,121
India,Himachal Pradesh,Baddi,"HIMUDA Complex Phase-1, Baddi - HPPCB",30-03-2024 11:00:00,30.943887,76.801991,PM2.5,NA,NA,NA
India,Himachal Pradesh,Baddi,"HIMUDA Complex Phase-1, Baddi - HPPCB",30-03-2024 11:00:00,30.943887,76.801991,OZONE,NA,NA,NA
India,Jharkhand,Dhanbad,"Kalakusuma, Dhanbad - DMC",30-03-2024 11:00:00,23.811548,86.481238,PM10,104,108,106
India,Jharkhand,Dhanbad,"Kalakusuma, Dhanbad - DMC",30-03-2024 11:00:00,23.811548,86.481238,OZONE,36,36,36
India,Jharkhand,Dhanbad,"Sardar Patel Nagar, Dhanbad - JSPCB",30-03-2024 11:00:00,23.80569,86.44268,CO,18,139,119
India,Jharkhand,Dhanbad,"Sardar Patel Nagar, Dhanbad - JSPCB",30-03-2024 11:00:00,23.80569,86.44268,OZONE,8,52,15
India,Karnataka,Bagalkot,"Vidayagiri, Bagalkot - KSPCB",30-03-2024 11:00:00,16.172806,75.659694,NH3,1,2,1
India,Karnataka,Bagalkot,"Vidayagiri, Bagalkot - KSPCB",30-03-2024 11:00:00,16.172806,75.659694,OZONE,NA,NA,NA
India,Karnataka,Bengaluru,"BTM Layout, Bengaluru - CPCB",30-03-2024 11:00:00,12.9135218,77.5950804,PM10,35,81,61
India,Karnataka,Bengaluru,"BTM Layout, Bengaluru - CPCB",30-03-2024 11:00:00,12.9135218,77.5950804,SO2,9,9,9
India,Karnataka,Bengaluru,"BTM Layout, Bengaluru - CPCB",30-03-2024 11:00:00,12.9135218,77.5950804,OZONE,21,126,91
India,Karnataka,Bengaluru,"Bapuji Nagar, Bengaluru - KSPCB",30-03-2024 11:00:00,12.951913,77.539784,NH3,1,1,1
India,Karnataka,Bengaluru,"Bapuji Nagar, Bengaluru - KSPCB",30-03-2024 11:00:00,12.951913,77.539784,CO,22,48,37
India,Karnataka,Bengaluru,"Hebbal, Bengaluru - KSPCB",30-03-2024 11:00:00,13.029152,77.585901,PM10,NA,NA,NA
India,Karnataka,Bengaluru,"Hebbal, Bengaluru - KSPCB",30-03-2024 11:00:00,13.029152,77.585901,OZONE,17,87,45
India,Karnataka,Bengaluru,"Hombegowda Nagar, Bengaluru - KSPCB",30-03-2024 11:00:00,12.938539,77.590100,PM2.5,53,92,71
India,Karnataka,Bengaluru,"Hombegowda Nagar, Bengaluru - KSPCB",30-03-2024 11:00:00,12.938539,77.590100,CO,10,16,12
India,Karnataka,Bengaluru,"Jayanagar 5th Block, Bengaluru - KSPCB",30-03-2024 11:00:00,12.920984,77.584908,PM10,60,279,113
India,Karnataka,Bengaluru,"Jayanagar 5th Block, Bengaluru - KSPCB",30-03-2024 11:00:00,12.920984,77.584908,NO2,7,24,12
India,Karnataka,Bengaluru,"Jayanagar 5th Block, Bengaluru - KSPCB",30-03-2024 11:00:00,12.920984,77.584908,SO2,15,25,20
India,Karnataka,Bengaluru,"Jayanagar 5th Block, Bengaluru - KSPCB",30-03-2024 11:00:00,12.920984,77.584908,OZONE,18,29,18
India,Karnataka,Bengaluru,"Kasturi Nagar, Bengaluru - KSPCB",30-03-2024 11:00:00,13.003872,77.664217,CO,22,25,24
India,Karnataka,Bengaluru,"Peenya, Bengaluru - CPCB",30-03-2024 11:00:00,13.0270199,77.494094,PM2.5,39,59,47
India,Karnataka,Bengaluru,"Peenya, Bengaluru - CPCB",30-03-2024 11:00:00,13.0270199,77.494094,NH3,3,8,3
India,Karnataka,Bengaluru,"Peenya, Bengaluru - CPCB",30-03-2024 11:00:00,13.0270199,77.494094,OZONE,8,35,16
India,Karnataka,Bengaluru,"Shivapura_Peenya, Bengaluru - KSPCB",30-03-2024 11:00:00,13.0246342,77.5080115,NO2,15,16,15
India,Karnataka,Bengaluru,"Shivapura_Peenya, Bengaluru - KSPCB",30-03-2024 11:00:00,13.0246342,77.5080115,NH3,4,4,4
India,Karnataka,Bengaluru,"Silk Board, Bengaluru - KSPCB",30-03-2024 11:00:00,12.917348,77.622813,PM2.5,52,73,62
India,Karnataka,Bengaluru,"Silk Board, Bengaluru - KSPCB",30-03-2024 11:00:00,12.917348,77.622813,PM10,68,96,81
India,Karnataka,Bengaluru,"Silk Board, Bengaluru - KSPCB",30-03-2024 11:00:00,12.917348,77.622813,NO2,22,26,23
India,Karnataka,Chamarajanagar,"Urban, Chamarajanagar - KSPCB",30-03-2024 11:00:00,11.55358,76.55521,CO,19,30,23
India,Karnataka,Chikkaballapur,"Chikkaballapur Rural, Chikkaballapur - KSPCB",30-03-2024 11:00:00,13.428828,77.731418,PM2.5,52,108,73
India,Karnataka,Chikkamagaluru,"Kalyana Nagara, Chikkamagaluru - KSPCB",30-03-2024 11:00:00,13.328028,75.797056,OZONE,25,60,38
India,Karnataka,Davanagere,"Devaraj Urs Badavane, Davanagere - KSPCB",30-03-2024 11:00:00,14.475800,75.905200,PM10,NA,NA,NA
India,Karnataka,Dharwad,"Kalabhavan, Dharwad - KSPCB",30-03-2024 11:00:00,15.459706,75.008381,PM2.5,28,48,36
India,Karnataka,Dharwad,"Kalabhavan, Dharwad - KSPCB",30-03-2024 11:00:00,15.459706,75.008381,PM10,31,53,38
India,Karnataka,Dharwad,"Kalabhavan, Dharwad - KSPCB",30-03-2024 11:00:00,15.459706,75.008381,NH3,3,3,3
India,Karnataka,Gadag,"Panchal Nagar, Gadag - KSPCB",30-03-2024 11:00:00,15.411456,75.638133,NO2,5,24,12
India,Karnataka,Gadag,"Panchal Nagar, Gadag - KSPCB",30-03-2024 11:00:00,15.411456,75.638133,NH3,2,3,2
India,Karnataka,Gadag,"Panchal Nagar, Gadag - KSPCB",30-03-2024 11:00:00,15.411456,75.638133,CO,44,50,45
India,Karnataka,Gadag,"Panchal Nagar, Gadag - KSPCB",30-03-2024 11:00:00,15.411456,75.638133,OZONE,27,98,28
India,Karnataka,Hassan,"B.Katihalli, Hassan - KSPCB",30-03-2024 11:00:00,13.008556,76.125258,PM2.5,53,88,70
India,Karnataka,Hassan,"B.Katihalli, Hassan - KSPCB",30-03-2024 11:00:00,13.008556,76.125258,CO,8,22,18
India,Karnataka,Haveri,"Ashwini Nagar, Haveri - KSPCB",30-03-2024 11:00:00,14.791800,75.389600,NO2,28,43,33
India,Karnataka,Haveri,"Ashwini Nagar, Haveri - KSPCB",30-03-2024 11:00:00,14.791800,75.389600,SO2,14,14,14
India,Karnataka,Hubballi,"Deshpande Nagar, Hubballi - KSPCB",30-03-2024 11:00:00,15.351773,75.140726,OZONE,2,16,4
India,Karnataka,Hubballi,"Lingaraj Nagar, Hubballi - KSPCB",30-03-2024 11:00:00,15.3714823,75.1160168,NH3,2,2,2
