country,state,city,station,last_update,latitude,longitude,pollutant_id,pollutant_min,pollutant_max,pollutant_avg
India,Andhra_Pradesh,Amaravati,"Secretariat, Amaravati - APPCB",25-03-2024 17:00:00,16.5150833,80.5181667,PM2.5,14,37,24
India,Andhra_Pradesh,Anantapur,"Gulzarpet, Anantapur - APPCB",25-03-2024 17:00:00,14.675886,77.593027,OZONE,14,70,52
India,Andhra_Pradesh,Chittoor,"Gangineni Cheruvu, Chittoor - APPCB",25-03-2024 17:00:00,13.204880,79.097889,PM2.5,NA,NA,NA
India,Andhra_Pradesh,Chittoor,"Gangineni Cheruvu, Chittoor - APPCB",25-03-2024 17:00:00,13.204880,79.097889,NO2,NA,NA,NA
India,Andhra_Pradesh,Chittoor,"Gangineni Cheruvu, Chittoor - APPCB",25-03-2024 17:00:00,13.204880,79.097889,SO2,NA,NA,NA
India,Andhra_Pradesh,Chittoor,"Gangineni Cheruvu, Chittoor - APPCB",25-03-2024 17:00:00,13.204880,79.097889,CO,NA,NA,NA
India,Andhra_Pradesh,Kadapa,"Yerramukkapalli, Kadapa - APPCB",25-03-2024 17:00:00,14.465052,78.824187,PM2.5,16,166,40
India,Andhra_Pradesh,Kadapa,"Yerramukkapalli, Kadapa - APPCB",25-03-2024 17:00:00,14.465052,78.824187,PM10,17,127,40
India,Andhra_Pradesh,Kadapa,"Yerramukkapalli, Kadapa - APPCB",25-03-2024 17:00:00,14.465052,78.824187,OZONE,29,101,80
India,Andhra_Pradesh,Rajamahendravaram,"Anand Kala Kshetram, Rajamahendravaram - APPCB",25-03-2024 17:00:00,16.9872867,81.7363176,PM2.5,25,51,36
India,Andhra_Pradesh,Tirupati,"Tirumala, Tirupati - APPCB",25-03-2024 17:00:00,13.67,79.35,CO,11,48,23
India,Andhra_Pradesh,Tirupati,"Tirumala, Tirupati - APPCB",25-03-2024 17:00:00,13.67,79.35,OZONE,10,75,59
India,Andhra_Pradesh,Vijayawada,"HB Colony, Vijayawada - APPCB",25-03-2024 17:00:00,16.536107,80.594233,PM2.5,52,85,64
India,Andhra_Pradesh,Vijayawada,"HB Colony, Vijayawada - APPCB",25-03-2024 17:00:00,16.536107,80.594233,PM10,55,101,71
India,Andhra_Pradesh,Vijayawada,"HB Colony, Vijayawada - APPCB",25-03-2024 17:00:00,16.536107,80.594233,OZONE,8,40,32
India,Andhra_Pradesh,Vijayawada,"Kanuru, Vijayawada - APPCB",25-03-2024 17:00:00,16.486692,80.699436,PM10,NA,NA,NA
India,Andhra_Pradesh,Vijayawada,"Rajiv Nagar, Vijayawada - APPCB",25-03-2024 17:00:00,16.554731,80.649110,PM2.5,43,49,45
India,Andhra_Pradesh,Vijayawada,"Rajiv Nagar, Vijayawada - APPCB",25-03-2024 17:00:00,16.554731,80.649110,SO2,13,22,16
India,Andhra_Pradesh,Visakhapatnam,"GVM Corporation, Visakhapatnam - APPCB",25-03-2024 17:00:00,17.72,83.3,PM10,72,157,99
India,Arunachal_Pradesh,Naharlagun,"Naharlagun, Naharlagun - APSPCB",25-03-2024 17:00:00,27.103358,93.679645,PM2.5,28,108,58
India,Arunachal_Pradesh,Naharlagun,"Naharlagun, Naharlagun - APSPCB",25-03-2024 17:00:00,27.103358,93.679645,PM10,26,100,56
India,Arunachal_Pradesh,Naharlagun,"Naharlagun, Naharlagun - APSPCB",25-03-2024 17:00:00,27.103358,93.679645,SO2,4,4,4
India,Assam,Guwahati,"IITG, Guwahati - PCBA",25-03-2024 17:00:00,26.2028636,91.70046436,PM10,68,184,109
India,Assam,Guwahati,"IITG, Guwahati - PCBA",25-03-2024 17:00:00,26.2028636,91.70046436,OZONE,2,28,20
India,Assam,Guwahati,"LGBI Airport, Guwahati - PCBA",25-03-2024 17:00:00,26.10887,91.589544,CO,31,137,32
India,Assam,Nagaon,"Christianpatty, Nagaon - PCBA",25-03-2024 17:00:00,26.349082,92.68449,NO2,11,67,27
India,Assam,Nagaon,"Christianpatty, Nagaon - PCBA",25-03-2024 17:00:00,26.349082,92.68449,NH3,8,15,10
India,Assam,Nalbari,"Bata Chowk, Nalbari - PCBA",25-03-2024 17:00:00,26.446912,91.439057,NH3,1,4,2
India,Assam,Silchar,"Tarapur, Silchar - PCBA",25-03-2024 17:00:00,24.82827,92.79525,PM2.5,21,37,29
India,Assam,Silchar,"Tarapur, Silchar - PCBA",25-03-2024 17:00:00,24.82827,92.79525,PM10,36,59,43
India,Assam,Silchar,"Tarapur, Silchar - PCBA",25-03-2024 17:00:00,24.82827,92.79525,CO,30,44,35
India,Assam,Sivasagar,"Girls College, Sivasagar - PCBA",25-03-2024 17:00:00,26.987634,94.636574,SO2,4,4,4
India,Assam,Sivasagar,"Girls College, Sivasagar - PCBA",25-03-2024 17:00:00,26.987634,94.636574,OZONE,1,8,4
India,Bihar,Araria,"Kharahiya Basti, Araria - BSPCB",25-03-2024 17:00:00,26.146529,87.454184,SO2,9,20,16
India,Bihar,Aurangabad,"Gurdeo Nagar, Aurangabad - BSPCB",25-03-2024 17:00:00,24.75746,84.366208,NO2,4,5,5
India,Bihar,Bettiah,"Kamalnath Nagar, Bettiah - BSPCB",25-03-2024 17:00:00,26.80365,84.51954,CO,62,74,64
India,Bihar,Bhagalpur,"DM Office_Kachari Chowk, Bhagalpur - BSPCB",25-03-2024 17:00:00,25.251013,86.989001,SO2,12,22,17
India,Bihar,Bhagalpur,"DM Office_Kachari Chowk, Bhagalpur - BSPCB",25-03-2024 17:00:00,25.251013,86.989001,CO,16,54,23
India,Bihar,Bihar Sharif,"D M Colony, Bihar Sharif - BSPCB",25-03-2024 17:00:00,25.204762,85.514960,CO,8,60,33
India,Bihar,Gaya,"SFTI Kusdihra, Gaya - BSPCB",25-03-2024 17:00:00,24.762518,84.982348,PM2.5,37,234,119
India,Bihar,Gaya,"SFTI Kusdihra, Gaya - BSPCB",25-03-2024 17:00:00,24.762518,84.982348,CO,28,64,39
India,Bihar,Hajipur,"Industrial Area, Hajipur - BSPCB",25-03-2024 17:00:00,25.697189,85.245900,PM2.5,38,86,65
India,Bihar,Hajipur,"Industrial Area, Hajipur - BSPCB",25-03-2024 17:00:00,25.697189,85.245900,SO2,5,7,6
India,Bihar,Katihar,"Mirchaibari, Katihar - BSPCB",25-03-2024 17:00:00,25.560083,87.553265,PM2.5,32,65,46
India,Bihar,Kishanganj,"SDM Office_Khagra, Kishanganj - BSPCB",25-03-2024 17:00:00,26.0881305,87.93840336,PM10,NA,NA,NA
India,Bihar,Kishanganj,"SDM Office_Khagra, Kishanganj - BSPCB",25-03-2024 17:00:00,26.0881305,87.93840336,NH3,12,13,12
India,Bihar,Manguraha,"Forest Rest House, Manguraha - BSPCB",25-03-2024 17:00:00,27.308328,84.531742,PM10,57,94,72
India,Bihar,Munger,"Town Hall, Munger - BSPCB",25-03-2024 17:00:00,25.376776,86.471523,CO,NA,NA,NA
India,Bihar,Muzaffarpur,"MIT-Daudpur Kothi, Muzaffarpur - BSPCB",25-03-2024 17:00:00,26.1403345,85.3650192,PM10,133,235,159
India,Bihar,Muzaffarpur,"Muzaffarpur Collectorate, Muzaffarpur - BSPCB",25-03-2024 17:00:00,26.1209,85.3647,PM2.5,73,178,126
India,Bihar,Muzaffarpur,"Muzaffarpur Collectorate, Muzaffarpur - BSPCB",25-03-2024 17:00:00,26.1209,85.3647,OZONE,17,76,36
India,Bihar,Patna,"DRM Office Danapur, Patna - BSPCB",25-03-2024 17:00:00,25.586562,85.043586,PM10,123,154,142
India,Bihar,Patna,"Govt. High School Shikarpur, Patna - BSPCB",25-03-2024 17:00:00,25.592539,85.227158,OZONE,1,59,50
India,Bihar,Patna,"IGSC Planetarium Complex, Patna - BSPCB",25-03-2024 17:00:00,25.610369,85.132568,CO,12,14,12
India,Bihar,Patna,"Muradpur, Patna - BSPCB",25-03-2024 17:00:00,25.619651,85.147382,PM2.5,133,387,275
India,Bihar,Patna,"Muradpur, Patna - BSPCB",25-03-2024 17:00:00,25.619651,85.147382,PM10,164,263,206
India,Bihar,Patna,"Rajbansi Nagar, Patna - BSPCB",25-03-2024 17:00:00,25.599486,85.113666,NO2,12,32,16
India,Bihar,Patna,"Rajbansi Nagar, Patna - BSPCB",25-03-2024 17:00:00,25.599486,85.113666,SO2,2,11,7
India,Bihar,Patna,"Rajbansi Nagar, Patna - BSPCB",25-03-2024 17:00:00,25.599486,85.113666,CO,24,63,35
India,Bihar,Rajgir,"Dangi Tola, Rajgir - BSPCB",25-03-2024 17:00:00,25.03280,85.41948,OZONE,12,25,22
India,Bihar,Saharsa,"Police Line, Saharsa - BSPCB",25-03-2024 17:00:00,25.892357,86.590325,SO2,16,16,16
India,Bihar,Saharsa,"Police Line, Saharsa - BSPCB",25-03-2024 17:00:00,25.892357,86.590325,CO,22,42,32
India,Bihar,Samastipur,"DM Office_Kasipur, Samastipur - BSPCB",25-03-2024 17:00:00,25.859655,85.77944,PM2.5,NA,NA,NA
India,Bihar,Sasaram,"Dada Peer, Sasaram - BSPCB",25-03-2024 17:00:00,24.952822,84.002396,SO2,NA,NA,NA
India,Bihar,Siwan,"Chitragupta Nagar, Siwan - BSPCB",25-03-2024 17:00:00,26.2271665,84.3570427,OZONE,12,95,59
India,Chandigarh,Chandigarh,"Sector-25, Chandigarh - CPCC",25-03-2024 17:00:00,30.751462,76.762879,PM10,81,148,114
India,Chandigarh,Chandigarh,"Sector-25, Chandigarh - CPCC",25-03-2024 17:00:00,30.751462,76.762879,CO,12,56,18
India,Chandigarh,Chandigarh,"Sector-53, Chandigarh - CPCC",25-03-2024 17:00:00,30.719859,76.738637,NO2,8,86,38
India,Chandigarh,Chandigarh,"Sector-53, Chandigarh - CPCC",25-03-2024 17:00:00,30.719859,76.738637,CO,28,120,34
India,Chhattisgarh,Bhilai,"32Bungalows, Bhilai - CECB",25-03-2024 17:00:00,21.194815,81.314770,PM2.5,31,175,70
India,Chhattisgarh,Bhilai,"32Bungalows, Bhilai - CECB",25-03-2024 17:00:00,21.194815,81.314770,PM10,43,107,69
India,Chhattisgarh,Bhilai,"32Bungalows, Bhilai - CECB",25-03-2024 17:00:00,21.194815,81.314770,OZONE,4,26,10
India,Chhattisgarh,Bhilai,"Civic Center, Bhilai - Bhilai Steel Plant",25-03-2024 17:00:00,21.185571,81.343175,PM2.5,33,97,57
India,Chhattisgarh,Bhilai,"Hathkhoj, Bhilai - CECB",25-03-2024 17:00:00,21.224231,81.408350,NH3,8,9,8
India,Chhattisgarh,Bilaspur,"Mangala, Bilaspur - NTPC",25-03-2024 17:00:00,22.08815,82.13737,PM10,35,107,80
India,Chhattisgarh,Bilaspur,"Mangala, Bilaspur - NTPC",25-03-2024 17:00:00,22.08815,82.13737,SO2,6,18,13
India,Chhattisgarh,Chhal,"Nawapara SECL Colony, Chhal - CECB",25-03-2024 17:00:00,22.118125,83.140608,PM2.5,82,175,137
India,Chhattisgarh,Chhal,"Nawapara SECL Colony, Chhal - CECB",25-03-2024 17:00:00,22.118125,83.140608,NH3,2,2,2
India,Chhattisgarh,Korba,"Rampur, Korba - CECB",25-03-2024 17:00:00,22.368195,82.746431,OZONE,2,10,7
India,Chhattisgarh,Korba,"Urja Nagar, Korba - CECB",25-03-2024 17:00:00,22.348441,82.549611,PM2.5,4,15,8
India,Chhattisgarh,Kunjemura,"OP Jindal School, Kunjemura - CECB",25-03-2024 17:00:00,22.126650,83.483212,PM10,58,160,109
India,Chhattisgarh,Kunjemura,"OP Jindal School, Kunjemura - CECB",25-03-2024 17:00:00,22.126650,83.483212,OZONE,4,93,60
India,Chhattisgarh,Raipur,"AIIMS, Raipur - CECB",25-03-2024 17:00:00,21.258815,81.578979,NH3,NA,NA,NA
India,Chhattisgarh,Raipur,"Bhatagaon New ISBT, Raipur - CECB",25-03-2024 17:00:00,21.219665,81.630094,NO2,48,83,66
India,Chhattisgarh,Raipur,"Krishak Nagar, Raipur - CECB",25-03-2024 17:00:00,21.237755,81.705301,NO2,21,28,25
India,Delhi,Delhi,"Alipur, Delhi - DPCC",25-03-2024 17:00:00,28.815329,77.153010,NH3,5,13,8
India,Delhi,Delhi,"Anand Vihar, Delhi - DPCC",25-03-2024 17:00:00,28.647622,77.3158090,PM2.5,NA,NA,NA
India,Delhi,Delhi,"Burari Crossing, Delhi - IMD",25-03-2024 17:00:00,28.7256504,77.2011573,NO2,3,9,6
India,Delhi,Delhi,"Dr. Karni Singh Shooting Range, Delhi - DPCC",25-03-2024 17:00:00,28.498571,77.264840,NO2,17,115,57
India,Delhi,Delhi,"Dwarka-Sector 8, Delhi - DPCC ",25-03-2024 17:00:00,28.5710274,77.0719006,NO2,3,59,24
India,Delhi,Delhi,"Dwarka-Sector 8, Delhi - DPCC ",25-03-2024 17:00:00,28.5710274,77.0719006,NH3,6,11,7
India,Delhi,Delhi,"IGI Airport (T3), Delhi - IMD",25-03-2024 17:00:00,28.5627763,77.1180053,NO2,15,43,28
India,Delhi,Delhi,"IHBAS, Dilshad Garden, Delhi - CPCB",25-03-2024 17:00:00,28.6811736,77.3025234,PM2.5,55,218,93
India,Delhi,Delhi,"Jawaharlal Nehru Stadium, Delhi - DPCC",25-03-2024 17:00:00,28.580280,77.233829,SO2,19,63,37
India,Delhi,Delhi,"Jawaharlal Nehru Stadium, Delhi - DPCC",25-03-2024 17:00:00,28.580280,77.233829,OZONE,2,118,101
India,Delhi,Delhi,"Lodhi Road, Delhi - IITM",25-03-2024 17:00:00,28.588333,77.221667,NO2,80,108,87
India,Delhi,Delhi,"Lodhi Road, Delhi - IITM",25-03-2024 17:00:00,28.588333,77.221667,OZONE,16,21,19
India,Delhi,Delhi,"Major Dhyan Chand National Stadium, Delhi - DPCC",25-03-2024 17:00:00,28.611281,77.237738,PM2.5,48,359,184
India,Delhi,Delhi,"Mandir Marg, Delhi - DPCC",25-03-2024 17:00:00,28.636429,77.201067,PM2.5,35,367,153
India,Delhi,Delhi,"NSIT Dwarka, Delhi - CPCB",25-03-2024 17:00:00,28.60909,77.0325413,PM2.5,48,389,225
India,Delhi,Delhi,"NSIT Dwarka, Delhi - CPCB",25-03-2024 17:00:00,28.60909,77.0325413,PM10,76,250,157
India,Delhi,Delhi,"NSIT Dwarka, Delhi - CPCB",25-03-2024 17:00:00,28.60909,77.0325413,SO2,2,36,17
India,Delhi,Delhi,"Nehru Nagar, Delhi - DPCC",25-03-2024 17:00:00,28.567890,77.250515,NO2,7,18,12
India,Delhi,Delhi,"North Campus, DU, Delhi - IMD",25-03-2024 17:00:00,28.6573814,77.1585447,PM2.5,62,412,178
India,Delhi,Delhi,"North Campus, DU, Delhi - IMD",25-03-2024 17:00:00,28.6573814,77.1585447,OZONE,1,25,18
India,Delhi,Delhi,"Okhla Phase-2, Delhi - DPCC",25-03-2024 17:00:00,28.530785,77.271255,SO2,4,13,9
India,Delhi,Delhi,"Punjabi Bagh, Delhi - DPCC",25-03-2024 17:00:00,28.674045,77.131023,NO2,27,60,46
India,Delhi,Delhi,"Pusa, Delhi - DPCC",25-03-2024 17:00:00,28.639652,77.146275,SO2,9,48,19
India,Delhi,Delhi,"R K Puram, Delhi - DPCC",25-03-2024 17:00:00,28.563262,77.186937,PM10,59,407,174
India,Delhi,Delhi,"R K Puram, Delhi - DPCC",25-03-2024 17:00:00,28.563262,77.186937,CO,15,109,23
India,Delhi,Delhi,"Shadipur, Delhi - CPCB",25-03-2024 17:00:00,28.6514781,77.1473105,SO2,5,29,16
India,Delhi,Delhi,"Shadipur, Delhi - CPCB",25-03-2024 17:00:00,28.6514781,77.1473105,CO,27,73,36
India,Delhi,Delhi,"Sirifort, Delhi - CPCB",25-03-2024 17:00:00,28.5504249,77.2159377,SO2,40,44,42
India,Delhi,Delhi,"Sirifort, Delhi - CPCB",25-03-2024 17:00:00,28.5504249,77.2159377,OZONE,4,33,9
India,Delhi,Delhi,"Sri Aurobindo Marg, Delhi - DPCC",25-03-2024 17:00:00,28.531346,77.190156,SO2,8,90,24
India,Gujarat,Ahmedabad,"Chandkheda, Ahmedabad - IITM",25-03-2024 17:00:00,23.107969,72.574648,NH3,1,3,1
India,Gujarat,Ahmedabad,"Chandkheda, Ahmedabad - IITM",25-03-2024 17:00:00,23.107969,72.574648,SO2,5,42,15
India,Gujarat,Ahmedabad,"Gyaspur, Ahmedabad - IITM",25-03-2024 17:00:00,22.977134,72.553024,OZONE,7,39,24
India,Gujarat,Ahmedabad,"Maninagar, Ahmedabad - GPCB",25-03-2024 17:00:00,23.002657,72.591912,NO2,24,108,42
India,Gujarat,Ahmedabad,"Raikhad, Ahmedabad - IITM",25-03-2024 17:00:00,23.020509,72.579261,NO2,14,136,46
India,Gujarat,Ahmedabad,"Raikhad, Ahmedabad - IITM",25-03-2024 17:00:00,23.020509,72.579261,CO,22,139,33
India,Gujarat,Ahmedabad,"Rakhial, Ahmedabad - IITM",25-03-2024 17:00:00,23.016834,72.625775,SO2,5,15,10
India,Gujarat,Ahmedabad,"SVPI Airport Hansol, Ahmedabad - IITM",25-03-2024 17:00:00,23.076793,72.627874,PM10,53,172,86
India,Gujarat,Ahmedabad,"SVPI Airport Hansol, Ahmedabad - IITM",25-03-2024 17:00:00,23.076793,72.627874,OZONE,11,40,29
India,Gujarat,Ahmedabad,"Sardar Vallabhbhai Patel Stadium, Ahmedabad - IITM",25-03-2024 17:00:00,23.043070,72.562968,PM2.5,49,312,106
India,Gujarat,Ahmedabad,"Sardar Vallabhbhai Patel Stadium, Ahmedabad - IITM",25-03-2024 17:00:00,23.043070,72.562968,OZONE,15,26,24
India,Gujarat,Gandhinagar,"GIFT City, Gandhinagar - IITM",25-03-2024 17:00:00,23.163798,72.677768,PM2.5,NA,NA,NA
India,Gujarat,Gandhinagar,"GIFT City, Gandhinagar - IITM",25-03-2024 17:00:00,23.163798,72.677768,SO2,NA,NA,NA
India,Gujarat,Gandhinagar,"GIFT City, Gandhinagar - IITM",25-03-2024 17:00:00,23.163798,72.677768,CO,NA,NA,NA
India,Gujarat,Gandhinagar,"IIPHG Lekawada, Gandhinagar - IITM",25-03-2024 17:00:00,23.243639,72.68994,PM2.5,57,187,106
India,Gujarat,Gandhinagar,"IIPHG Lekawada, Gandhinagar - IITM",25-03-2024 17:00:00,23.243639,72.68994,PM10,42,108,73
India,Gujarat,Gandhinagar,"IIPHG Lekawada, Gandhinagar - IITM",25-03-2024 17:00:00,23.243639,72.68994,OZONE,10,46,36
India,Gujarat,Nandesari,"GIDC, Nandesari - Nandesari Ind. Association",25-03-2024 17:00:00,22.410802,73.097923,NO2,4,61,20
India,Gujarat,Surat,"Science Center, Surat - SMC",25-03-2024 17:00:00,21.170046,72.795405,PM2.5,7,73,33
India,Gujarat,Surat,"Science Center, Surat - SMC",25-03-2024 17:00:00,21.170046,72.795405,PM10,8,64,39
India,Gujarat,Vapi,"Phase-1 GIDC, Vapi - GPCB",25-03-2024 17:00:00,20.362421,72.918013,NH3,2,2,2
India,Gujarat,Vapi,"Phase-1 GIDC, Vapi - GPCB",25-03-2024 17:00:00,20.362421,72.918013,OZONE,21,46,43
India,Gujarat,Vatva,"Phase-4 GIDC, Vatva - GPCB",25-03-2024 17:00:00,22.969611,72.643500,NH3,4,12,9
India,Haryana,Ambala,"Patti Mehar, Ambala - HSPCB",25-03-2024 17:00:00,30.379589,76.778328,PM10,26,73,45
India,Haryana,Ambala,"Patti Mehar, Ambala - HSPCB",25-03-2024 17:00:00,30.379589,76.778328,NO2,8,21,14
India,Haryana,Ambala,"Patti Mehar, Ambala - HSPCB",25-03-2024 17:00:00,30.379589,76.778328,NH3,5,12,9
India,Haryana,Ambala,"Patti Mehar, Ambala - HSPCB",25-03-2024 17:00:00,30.379589,76.778328,SO2,1,101,74
India,Haryana,Ambala,"Patti Mehar, Ambala - HSPCB",25-03-2024 17:00:00,30.379589,76.778328,CO,30,60,47
India,Haryana,Bahadurgarh,"Arya Nagar, Bahadurgarh - HSPCB",25-03-2024 17:00:00,28.6701,76.9254,PM2.5,11,227,78
India,Haryana,Bahadurgarh,"Arya Nagar, Bahadurgarh - HSPCB",25-03-2024 17:00:00,28.6701,76.9254,NO2,33,45,36
India,Haryana,Bahadurgarh,"Arya Nagar, Bahadurgarh - HSPCB",25-03-2024 17:00:00,28.6701,76.9254,SO2,12,17,15
India,Haryana,Ballabgarh,"Nathu Colony, Ballabgarh - HSPCB",25-03-2024 17:00:00,28.3419248,77.319699,NO2,12,14,12
India,Haryana,Ballabgarh,"Nathu Colony, Ballabgarh - HSPCB",25-03-2024 17:00:00,28.3419248,77.319699,SO2,1,97,17
India,Haryana,Ballabgarh,"Nathu Colony, Ballabgarh - HSPCB",25-03-2024 17:00:00,28.3419248,77.319699,CO,51,154,57
India,Haryana,Bhiwani,"H.B. Colony, Bhiwani - HSPCB",25-03-2024 17:00:00,28.806223,76.141105,NH3,6,6,6
India,Haryana,Charkhi Dadri,"Mini Secretariat, Charkhi Dadri - HSPCB",25-03-2024 17:00:00,28.593883,76.270653,PM10,54,139,93
India,Haryana,Charkhi Dadri,"Mini Secretariat, Charkhi Dadri - HSPCB",25-03-2024 17:00:00,28.593883,76.270653,NO2,15,24,18
India,Haryana,Charkhi Dadri,"Mini Secretariat, Charkhi Dadri - HSPCB",25-03-2024 17:00:00,28.593883,76.270653,NH3,6,8,7
India,Haryana,Dharuhera,"Municipal Corporation Office, Dharuhera -  HSPCB",25-03-2024 17:00:00,28.206800,76.799700,PM2.5,33,138,81
India,Haryana,Dharuhera,"Municipal Corporation Office, Dharuhera -  HSPCB",25-03-2024 17:00:00,28.206800,76.799700,SO2,3,5,3
India,Haryana,Faridabad,"New Industrial Town, Faridabad - HSPCB",25-03-2024 17:00:00,28.39072,77.30059,CO,6,23,12
India,Haryana,Faridabad,"Sector 11, Faridabad - HSPCB",25-03-2024 17:00:00,28.376058,77.315741,OZONE,NA,NA,NA
India,Haryana,Faridabad,"Sector 30, Faridabad - HSPCB",25-03-2024 17:00:00,28.4417,77.3217,PM2.5,90,105,96
India,Haryana,Faridabad,"Sector 30, Faridabad - HSPCB",25-03-2024 17:00:00,28.4417,77.3217,NH3,9,9,9
India,Haryana,Faridabad,"Sector- 16A, Faridabad - HSPCB",25-03-2024 17:00:00,28.4088421,77.3099081,NO2,4,31,12
India,Haryana,Faridabad,"Sector- 16A, Faridabad - HSPCB",25-03-2024 17:00:00,28.4088421,77.3099081,SO2,21,25,24
India,Haryana,Gurugram,"Teri Gram, Gurugram - HSPCB",25-03-2024 17:00:00,28.4275,77.1465,PM10,100,405,219
India,Haryana,Gurugram,"Teri Gram, Gurugram - HSPCB",25-03-2024 17:00:00,28.4275,77.1465,OZONE,13,18,15
India,Haryana,Gurugram,"Vikas Sadan, Gurugram - HSPCB",25-03-2024 17:00:00,28.4501238,77.0263051,NO2,5,24,13
India,Haryana,Hisar,"Urban Estate-II, Hisar - HSPCB",25-03-2024 17:00:00,29.140560,75.744941,PM10,48,119,91
India,Haryana,Hisar,"Urban Estate-II, Hisar - HSPCB",25-03-2024 17:00:00,29.140560,75.744941,NH3,10,16,12
India,Haryana,Kaithal,"Rishi Nagar, Kaithal - HSPCB",25-03-2024 17:00:00,29.8006,76.4155,PM10,51,127,73
India,Haryana,Kaithal,"Rishi Nagar, Kaithal - HSPCB",25-03-2024 17:00:00,29.8006,76.4155,NO2,24,26,25
India,Haryana,Karnal,"Sector-12, Karnal - HSPCB",25-03-2024 17:00:00,29.695300,77.002700,SO2,12,13,13
India,Haryana,Karnal,"Sector-12, Karnal - HSPCB",25-03-2024 17:00:00,29.695300,77.002700,CO,23,54,24
India,Haryana,Kurukshetra,"Sector-7, Kurukshetra - HSPCB",25-03-2024 17:00:00,29.966942,76.875879,SO2,2,89,18
India,Haryana,Mandikhera,"General Hospital, Mandikhera - HSPCB",25-03-2024 17:00:00,27.9002,76.9938,PM10,48,100,80
India,Haryana,Narnaul,"Shastri Nagar, Narnaul - HSPCB",25-03-2024 17:00:00,28.060249,76.113115,NO2,12,75,37
India,Haryana,Narnaul,"Shastri Nagar, Narnaul - HSPCB",25-03-2024 17:00:00,28.060249,76.113115,SO2,13,42,16
India,Haryana,Narnaul,"Shastri Nagar, Narnaul - HSPCB",25-03-2024 17:00:00,28.060249,76.113115,OZONE,9,51,43
India,Haryana,Palwal,"Shyam Nagar, Palwal - HSPCB",25-03-2024 17:00:00,28.1485564,77.3320667,NO2,23,24,24
India,Haryana,Palwal,"Shyam Nagar, Palwal - HSPCB",25-03-2024 17:00:00,28.1485564,77.3320667,SO2,8,26,15
India,Haryana,Palwal,"Shyam Nagar, Palwal - HSPCB",25-03-2024 17:00:00,28.1485564,77.3320667,CO,16,33,27
India,Haryana,Panchkula,"Sector-6, Panchkula - HSPCB ",25-03-2024 17:00:00,30.7057778,76.8531805555555,SO2,12,12,12
India,Haryana,Panipat,"Sector-18, Panipat - HSPCB",25-03-2024 17:00:00,29.497973,76.993331,CO,24,26,25
India,Haryana,Sonipat,"Murthal, Sonipat - HSPCB",25-03-2024 17:00:00,29.027200,77.062100,PM2.5,7,52,22
India,Haryana,Yamuna Nagar,"Gobind Pura, Yamuna Nagar - HSPCB",25-03-2024 17:00:00,30.1480566,77.2893471,PM2.5,NA,NA,NA
India,Haryana,Yamuna Nagar,"Gobind Pura, Yamuna Nagar - HSPCB",25-03-2024 17:00:00,30.1480566,77.2893471,CO,26,42,35
India,Himachal Pradesh,Baddi,"HIMUDA Complex Phase-1, Baddi - HPPCB",25-03-2024 17:00:00,30.943887,76.801991,NO2,6,26,16
India,Jharkhand,Dhanbad,"Kalakusuma, Dhanbad - DMC",25-03-2024 17:00:00,23.811548,86.481238,OZONE,16,62,47
India,Jharkhand,Dhanbad,"Sardar Patel Nagar, Dhanbad - JSPCB",25-03-2024 17:00:00,23.80569,86.44268,NO2,1,105,43
India,Jharkhand,Dhanbad,"Sardar Patel Nagar, Dhanbad - JSPCB",25-03-2024 17:00:00,23.80569,86.44268,CO,115,153,141
India,Karnataka,Bengaluru,"BTM Layout, Bengaluru - CPCB",25-03-2024 17:00:00,12.9135218,77.5950804,PM10,49,70,60
India,Karnataka,Bengaluru,"BTM Layout, Bengaluru - CPCB",25-03-2024 17:00:00,12.9135218,77.5950804,NH3,4,5,5
India,Karnataka,Bengaluru,"Bapuji Nagar, Bengaluru - KSPCB",25-03-2024 17:00:00,12.951913,77.539784,PM2.5,60,148,101
India,Karnataka,Bengaluru,"Bapuji Nagar, Bengaluru - KSPCB",25-03-2024 17:00:00,12.951913,77.539784,PM10,74,180,120
India,Karnataka,Bengaluru,"Hebbal, Bengaluru - KSPCB",25-03-2024 17:00:00,13.029152,77.585901,PM2.5,NA,NA,NA
India,Karnataka,Bengaluru,"Hebbal, Bengaluru - KSPCB",25-03-2024 17:00:00,13.029152,77.585901,CO,18,24,21
India,Karnataka,Bengaluru,"Hombegowda Nagar, Bengaluru - KSPCB",25-03-2024 17:00:00,12.938539,77.590100,PM2.5,47,95,64
India,Karnataka,Bengaluru,"Hombegowda Nagar, Bengaluru - KSPCB",25-03-2024 17:00:00,12.938539,77.590100,CO,12,16,13
India,Karnataka,Bengaluru,"Jayanagar 5th Block, Bengaluru - KSPCB",25-03-2024 17:00:00,12.920984,77.584908,NO2,7,14,9
India,Karnataka,Bengaluru,"Jigani, Bengaluru - KSPCB",25-03-2024 17:00:00,12.7816279,77.6299145,NO2,31,32,32
India,Karnataka,Bengaluru,"Jigani, Bengaluru - KSPCB",25-03-2024 17:00:00,12.7816279,77.6299145,OZONE,5,90,78
India,Karnataka,Bengaluru,"Peenya, Bengaluru - CPCB",25-03-2024 17:00:00,13.0270199,77.494094,PM2.5,NA,NA,NA
India,Karnataka,Bengaluru,"RVCE-Mailasandra, Bengaluru - KSPCB",25-03-2024 17:00:00,12.921418,77.502466,CO,32,62,49
India,Karnataka,Bengaluru,"Shivapura_Peenya, Bengaluru - KSPCB",25-03-2024 17:00:00,13.0246342,77.5080115,CO,22,56,35
India,Karnataka,Bengaluru,"Silk Board, Bengaluru - KSPCB",25-03-2024 17:00:00,12.917348,77.622813,CO,10,56,26
India,Karnataka,Chikkamagaluru,"Kalyana Nagara, Chikkamagaluru - KSPCB",25-03-2024 17:00:00,13.328028,75.797056,NO2,19,34,23
India,Karnataka,Chikkamagaluru,"Kalyana Nagara, Chikkamagaluru - KSPCB",25-03-2024 17:00:00,13.328028,75.797056,SO2,NA,NA,NA
India,Karnataka,Chikkamagaluru,"Kalyana Nagara, Chikkamagaluru - KSPCB",25-03-2024 17:00:00,13.328028,75.797056,OZONE,24,69,59
India,Karnataka,Davanagere,"Devaraj Urs Badavane, Davanagere - KSPCB",25-03-2024 17:00:00,14.475800,75.905200,NO2,12,19,14
India,Karnataka,Davanagere,"Devaraj Urs Badavane, Davanagere - KSPCB",25-03-2024 17:00:00,14.475800,75.905200,CO,18,23,18
India,Karnataka,Dharwad,"Kalabhavan, Dharwad - KSPCB",25-03-2024 17:00:00,15.459706,75.008381,PM10,27,51,37
India,Karnataka,Dharwad,"Kalabhavan, Dharwad - KSPCB",25-03-2024 17:00:00,15.459706,75.008381,OZONE,6,38,26
India,Karnataka,Gadag,"Panchal Nagar, Gadag - KSPCB",25-03-2024 17:00:00,15.411456,75.638133,PM10,NA,NA,NA
India,Karnataka,Gadag,"Panchal Nagar, Gadag - KSPCB",25-03-2024 17:00:00,15.411456,75.638133,NO2,NA,NA,NA
India,Karnataka,Hassan,"B.Katihalli, Hassan - KSPCB",25-03-2024 17:00:00,13.008556,76.125258,PM10,NA,NA,NA
India,Karnataka,Hassan,"B.Katihalli, Hassan - KSPCB",25-03-2024 17:00:00,13.008556,76.125258,SO2,NA,NA,NA
India,Karnataka,Haveri,"Ashwini Nagar, Haveri - KSPCB",25-03-2024 17:00:00,14.791800,75.389600,CO,36,38,36
India,Karnataka,Hubballi,"Deshpande Nagar, Hubballi - KSPCB",25-03-2024 17:00:00,15.351773,75.140726,PM10,NA,NA,NA
India,Karnataka,Hubballi,"Lingaraj Nagar, Hubballi - KSPCB",25-03-2024 17:00:00,15.3714823,75.1160168,CO,16,116,71
India,Karnataka,Kalaburagi,"Lal Bahadur Shastri Nagar, Kalaburagi - KSPCB",25-03-2024 17:00:00,17.321993,76.822628,PM2.5,27,98,64
India,Karnataka,Kalaburagi,"Lal Bahadur Shastri Nagar, Kalaburagi - KSPCB",25-03-2024 17:00:00,17.321993,76.822628,CO,42,47,43
India,Karnataka,Kalaburagi,"Mahatma Basaveswar Colony, Kalaburgi - KSPCB",25-03-2024 17:00:00,17.336318,76.847397,NO2,8,18,14
India,Karnataka,Kalaburagi,"Mahatma Basaveswar Colony, Kalaburgi - KSPCB",25-03-2024 17:00:00,17.336318,76.847397,SO2,4,16,9
India,Karnataka,Kolar,"Tamaka Ind. Area, Kolar - KSPCB",25-03-2024 17:00:00,13.1276288,78.1570122,PM2.5,NA,NA,NA
India,Karnataka,Kolar,"Tamaka Ind. Area, Kolar - KSPCB",25-03-2024 17:00:00,13.1276288,78.1570122,OZONE,21,28,25
India,Karnataka,Mangalore,"Kadri, Mangalore - KSPCB",25-03-2024 17:00:00,12.889250,74.853000,PM2.5,48,91,72
India,Karnataka,Mysuru,"Hebbal 1st Stage, Mysuru - KSPCB",25-03-2024 17:00:00,12.21041,76.37376,NO2,9,42,22
India,Karnataka,Mysuru,"Hebbal 1st Stage, Mysuru - KSPCB",25-03-2024 17:00:00,12.21041,76.37376,CO,6,45,22
India,Karnataka,Raichur,"Haji Colony, Raichur - KSPCB",25-03-2024 17:00:00,16.208139,77.348417,CO,96,108,102
India,Karnataka,Ramanagara,"Vijay Nagar, Ramanagara - KSPCB",25-03-2024 17:00:00,12.733409,77.298051,PM10,33,66,45
India,Karnataka,Shivamogga,"Vinoba Nagara, Shivamogga - KSPCB",25-03-2024 17:00:00,13.940000,75.555917,CO,6,36,23
India,Karnataka,Udupi,"Brahmagiri, Udupi - KSPCB",25-03-2024 17:00:00,13.34194444,74.74694444,SO2,11,20,15
India,Karnataka,Udupi,"Brahmagiri, Udupi - KSPCB",25-03-2024 17:00:00,13.34194444,74.74694444,OZONE,23,23,23
India,Karnataka,Vijayapura,"Ibrahimpur, Vijayapura - KSPCB",25-03-2024 17:00:00,16.802639,75.722694,NO2,17,19,19
India,Karnataka,Yadgir,"Collector Office, Yadgir - KSPCB",25-03-2024 17:00:00,16.7602,77.1428,PM10,69,111,82
India,Karnataka,Yadgir,"Collector Office, Yadgir - KSPCB",25-03-2024 17:00:00,16.7602,77.1428,CO,13,20,14
India,Kerala,Eloor,"Udyogamandal, Eloor - Kerala PCB",25-03-2024 17:00:00,10.073232,76.302765,CO,9,98,62
India,Kerala,Kannur,"Thavakkara, Kannur - Kerala PCB",25-03-2024 17:00:00,11.875000,75.373200,SO2,6,7,6
India,Kerala,Kollam,"Polayathode, Kollam - Kerala PCB",25-03-2024 17:00:00,8.8787,76.6073,PM10,53,92,74
India,Kerala,Kollam,"Polayathode, Kollam - Kerala PCB",25-03-2024 17:00:00,8.8787,76.6073,SO2,1,13,4
India,Kerala,Thiruvananthapuram,"Kariavattom, Thiruvananthapuram - Kerala PCB",25-03-2024 17:00:00,8.563700,76.886500,PM10,91,104,98
India,Kerala,Thiruvananthapuram,"Kariavattom, Thiruvananthapuram - Kerala PCB",25-03-2024 17:00:00,8.563700,76.886500,NH3,1,1,1
India,Kerala,Thiruvananthapuram,"Kariavattom, Thiruvananthapuram - Kerala PCB",25-03-2024 17:00:00,8.563700,76.886500,CO,18,54,26
India,Kerala,Thiruvananthapuram,"Plammoodu, Thiruvananthapuram - Kerala PCB",25-03-2024 17:00:00,8.5149093,76.9435879,NO2,7,10,9
India,Kerala,Thiruvananthapuram,"Plammoodu, Thiruvananthapuram - Kerala PCB",25-03-2024 17:00:00,8.5149093,76.9435879,SO2,6,11,8
India,Kerala,Thiruvananthapuram,"Plammoodu, Thiruvananthapuram - Kerala PCB",25-03-2024 17:00:00,8.5149093,76.9435879,CO,12,24,15
India,Kerala,Thrissur,"Corporation Ground, Thrissur - Kerala PCB",25-03-2024 17:00:00,10.532400,76.215900,NO2,7,8,7
India,Kerala,Thrissur,"Corporation Ground, Thrissur - Kerala PCB",25-03-2024 17:00:00,10.532400,76.215900,OZONE,27,32,30
India,Madhya Pradesh,Bhopal,"Idgah Hills, Bhopal - MPPCB",25-03-2024 17:00:00,23.264759,77.381568,SO2,19,22,20
India,Madhya Pradesh,Bhopal,"T T Nagar, Bhopal - MPPCB",25-03-2024 17:00:00,23.233584,77.400574,SO2,22,40,32
India,Madhya Pradesh,Dewas,"Bhopal Chauraha, Dewas - MPPCB",25-03-2024 17:00:00,22.9682591,76.064118,PM2.5,36,333,111
India,Madhya Pradesh,Dewas,"Bhopal Chauraha, Dewas - MPPCB",25-03-2024 17:00:00,22.9682591,76.064118,OZONE,29,87,68
India,Madhya Pradesh,Gwalior,"City Center, Gwalior - MPPCB",25-03-2024 17:00:00,26.203442,78.193251,PM2.5,32,352,164
India,Madhya Pradesh,Gwalior,"City Center, Gwalior - MPPCB",25-03-2024 17:00:00,26.203442,78.193251,CO,38,104,49
India,Madhya Pradesh,Gwalior,"Deen Dayal Nagar, Gwalior - MPPCB",25-03-2024 17:00:00,26.259242,78.216432,NH3,8,16,10
India,Madhya Pradesh,Gwalior,"Deen Dayal Nagar, Gwalior - MPPCB",25-03-2024 17:00:00,26.259242,78.216432,OZONE,32,168,94
India,Madhya Pradesh,Indore,"Regional Park, Indore - IMC",25-03-2024 17:00:00,22.6780,75.8559,PM10,46,99,72
India,Madhya Pradesh,Indore,"Regional Park, Indore - IMC",25-03-2024 17:00:00,22.6780,75.8559,CO,26,42,33
India,Madhya Pradesh,Indore,"Residency Area, Indore - IMC",25-03-2024 17:00:00,22.7084,75.8815,OZONE,10,16,15
India,Madhya Pradesh,Jabalpur,"Govindh Bhavan Colony, Jabalpur - JMC",25-03-2024 17:00:00,23.163174,79.973061,PM10,64,257,106
India,Madhya Pradesh,Jabalpur,"Govindh Bhavan Colony, Jabalpur - JMC",25-03-2024 17:00:00,23.163174,79.973061,CO,1,68,25
India,Madhya Pradesh,Jabalpur,"Marhatal, Jabalpur - MPPCB",25-03-2024 17:00:00,23.168606,79.932247,PM10,99,268,148
India,Madhya Pradesh,Jabalpur,"Marhatal, Jabalpur - MPPCB",25-03-2024 17:00:00,23.168606,79.932247,OZONE,2,84,71
India,Madhya Pradesh,Katni,"Gole Bazar, Katni - MPPCB",25-03-2024 17:00:00,23.50016,80.23284,SO2,14,34,23
India,Madhya Pradesh,Mandideep,"Sector-D Industrial Area, Mandideep - MPPCB",25-03-2024 17:00:00,23.108440,77.511428,NO2,22,155,64
India,Madhya Pradesh,Mandideep,"Sector-D Industrial Area, Mandideep - MPPCB",25-03-2024 17:00:00,23.108440,77.511428,OZONE,11,35,29
India,Madhya Pradesh,Pithampur,"Sector-2 Industrial Area, Pithampur - MPPCB",25-03-2024 17:00:00,22.624758,75.675238,PM2.5,38,79,60
India,Madhya Pradesh,Pithampur,"Sector-2 Industrial Area, Pithampur - MPPCB",25-03-2024 17:00:00,22.624758,75.675238,PM10,63,130,103
India,Madhya Pradesh,Pithampur,"Sector-2 Industrial Area, Pithampur - MPPCB",25-03-2024 17:00:00,22.624758,75.675238,SO2,13,16,15
India,Madhya Pradesh,Singrauli,"Suryakiran Bhawan NCL, Singrauli - MPPCB",25-03-2024 17:00:00,24.108970,82.645580,NO2,10,123,66
India,Madhya Pradesh,Singrauli,"Suryakiran Bhawan NCL, Singrauli - MPPCB",25-03-2024 17:00:00,24.108970,82.645580,CO,22,122,36
India,Madhya Pradesh,Ujjain,"Mahakaleshwar Temple, Ujjain - MPPCB",25-03-2024 17:00:00,23.182719 ,75.768218 ,PM10,NA,NA,NA
India,Maharashtra,Ahmednagar,"Tarakpur, Ahmednagar - MPCB",25-03-2024 17:00:00,19.10122,74.73339,PM10,37,242,98
India,Maharashtra,Akola,"Ramdaspeth, Akola - MPCB",25-03-2024 17:00:00,20.719516,77.000253,NH3,5,16,9
India,Maharashtra,Amravati,"Shivneri Colony, Amravati - MPCB",25-03-2024 17:00:00,20.9402359,77.7895248,NO2,6,114,34
India,Maharashtra,Amravati,"Shri Shivaji Science College, Amaravati - MPCB",25-03-2024 17:00:00,20.939198,77.765701,NO2,4,109,33
India,Maharashtra,Aurangabad,"MIDC Chilkalthana, Aurangabad - MPCB",25-03-2024 17:00:00,19.875620,75.387310,PM2.5,NA,NA,NA
India,Maharashtra,Aurangabad,"More Chowk Waluj, Aurangabad - MPCB",25-03-2024 17:00:00,19.8389439,75.244448,CO,2,122,11
India,Maharashtra,Badlapur,"Katrap, Badlapur - MPCB",25-03-2024 17:00:00,19.16485,73.23409,CO,18,84,31
India,Maharashtra,Belapur,"CBD Belapur, Belapur - MPCB",25-03-2024 17:00:00,19.0243902,73.0406721,NO2,11,31,21
India,Maharashtra,Belapur,"CBD Belapur, Belapur - MPCB",25-03-2024 17:00:00,19.0243902,73.0406721,SO2,1,7,3
India,Maharashtra,Bhiwandi,"Gokul Nagar, Bhiwandi - MPCB",25-03-2024 17:00:00,19.309073,73.057223,PM10,NA,NA,NA
India,Maharashtra,Boisar,"Khaira, Boisar - MPCB",25-03-2024 17:00:00,19.786089,72.757971,PM2.5,NA,NA,NA
India,Maharashtra,Boisar,"Khaira, Boisar - MPCB",25-03-2024 17:00:00,19.786089,72.757971,NH3,NA,NA,NA
India,Maharashtra,Chandrapur,"MIDC Khutala, Chandrapur - MPCB",25-03-2024 17:00:00,19.9775302,79.2337086,NH3,NA,NA,NA
India,Maharashtra,Dhule,"Deopur, Dhule - MPCB",25-03-2024 17:00:00,20.918946,74.776388,PM2.5,62,135,95
India,Maharashtra,Dhule,"Deopur, Dhule - MPCB",25-03-2024 17:00:00,20.918946,74.776388,PM10,61,127,98
India,Maharashtra,Dhule,"Deopur, Dhule - MPCB",25-03-2024 17:00:00,20.918946,74.776388,SO2,10,15,11
India,Maharashtra,Jalgaon,"Prabhat Colony, Jalgaon - MPCB",25-03-2024 17:00:00,21.001264,75.565602,NH3,2,9,6
India,Maharashtra,Jalgaon,"Prabhat Colony, Jalgaon - MPCB",25-03-2024 17:00:00,21.001264,75.565602,SO2,7,38,20
India,Maharashtra,Kolhapur,"Shivaji University, Kolhapur - MPCB",25-03-2024 17:00:00,16.6870449,74.2505872,PM10,80,163,122
India,Maharashtra,Kolhapur,"Shivaji University, Kolhapur - MPCB",25-03-2024 17:00:00,16.6870449,74.2505872,SO2,3,31,10
India,Maharashtra,Kolhapur,"Shivaji University, Kolhapur - MPCB",25-03-2024 17:00:00,16.6870449,74.2505872,CO,34,90,53
India,Maharashtra,Kolhapur,"Shivaji University, Kolhapur - MPCB",25-03-2024 17:00:00,16.6870449,74.2505872,OZONE,2,92,65
India,Maharashtra,Kolhapur,"Sinchan Bhavan, Kolhapur - MPCB",25-03-2024 17:00:00,16.7143745,74.2426398,NO2,8,43,26
India,Maharashtra,Latur,"Sawe Wadi, Latur - MPCB",25-03-2024 17:00:00,18.39963,76.57452,NO2,15,95,46
India,Maharashtra,Mahad,"Kamble Tarf Birwadi, Mahad - MPCB",25-03-2024 17:00:00,18.1023399,73.4783687,CO,22,26,25
India,Maharashtra,Malegaon,"Mahesh Nagar, Malegaon - MPCB",25-03-2024 17:00:00,20.555712,74.529236,PM10,62,219,106
India,Maharashtra,Malegaon,"Mahesh Nagar, Malegaon - MPCB",25-03-2024 17:00:00,20.555712,74.529236,NH3,2,19,8
India,Maharashtra,Malegaon,"Mahesh Nagar, Malegaon - MPCB",25-03-2024 17:00:00,20.555712,74.529236,CO,10,116,17
India,Maharashtra,Mira-Bhayandar,"Bhayandar West, Mira-Bhayandar - MPCB",25-03-2024 17:00:00,19.296481,72.840923,NO2,5,30,16
India,Maharashtra,Mumbai,"Bandra Kurla Complex, Mumbai - MPCB",25-03-2024 17:00:00,19.065931,72.862131,NO2,4,14,8
India,Maharashtra,Mumbai,"Borivali East, Mumbai - MPCB",25-03-2024 17:00:00,19.2243333,72.8658113,NH3,1,3,2
India,Maharashtra,Mumbai,"Byculla, Mumbai - BMC",25-03-2024 17:00:00,18.9767,72.8380,NO2,5,20,14
India,Maharashtra,Mumbai,"Chakala-Andheri East, Mumbai - IITM",25-03-2024 17:00:00,19.11074,72.86084,SO2,14,41,24
India,Maharashtra,Mumbai,"Chembur, Mumbai - MPCB",25-03-2024 17:00:00,19.0364585,72.8954371,PM2.5,43,166,88
India,Maharashtra,Mumbai,"Chhatrapati Shivaji Intl. Airport (T2), Mumbai - MPCB",25-03-2024 17:00:00,19.10078,72.87462,PM10,42,109,67
India,Maharashtra,Mumbai,"Chhatrapati Shivaji Intl. Airport (T2), Mumbai - MPCB",25-03-2024 17:00:00,19.10078,72.87462,NH3,1,9,2
India,Maharashtra,Mumbai,"Chhatrapati Shivaji Intl. Airport (T2), Mumbai - MPCB",25-03-2024 17:00:00,19.10078,72.87462,CO,40,97,57
India,Maharashtra,Mumbai,"Chhatrapati Shivaji Intl. Airport (T2), Mumbai - MPCB",25-03-2024 17:00:00,19.10078,72.87462,OZONE,4,14,9
India,Maharashtra,Mumbai,"Colaba, Mumbai - MPCB",25-03-2024 17:00:00,18.910000,72.820000,CO,12,16,14
India,Maharashtra,Mumbai,"Ghatkopar, Mumbai - BMC",25-03-2024 17:00:00,19.083694,72.920967,OZONE,1,25,17
India,Maharashtra,Mumbai,"Kandivali East, Mumbai - MPCB",25-03-2024 17:00:00,19.205800,72.868200,SO2,12,104,86
India,Maharashtra,Mumbai,"Kandivali West, Mumbai - BMC",25-03-2024 17:00:00,19.215859,72.831718,NH3,1,2,2
India,Maharashtra,Mumbai,"Kandivali West, Mumbai - BMC",25-03-2024 17:00:00,19.215859,72.831718,CO,8,72,11
India,Maharashtra,Mumbai,"Kherwadi_Bandra East, Mumbai - MPCB",25-03-2024 17:00:00,19.0632143,72.8456324,SO2,NA,NA,NA
India,Maharashtra,Mumbai,"Kherwadi_Bandra East, Mumbai - MPCB",25-03-2024 17:00:00,19.0632143,72.8456324,CO,11,35,16
India,Maharashtra,Mumbai,"Khindipada-Bhandup West, Mumbai - IITM",25-03-2024 17:00:00,19.1653323,72.922099,PM10,31,93,60
India,Maharashtra,Mumbai,"Kurla, Mumbai - MPCB",25-03-2024 17:00:00,19.0863,72.8888,NO2,13,35,21
India,Maharashtra,Mumbai,"Kurla, Mumbai - MPCB",25-03-2024 17:00:00,19.0863,72.8888,CO,8,40,14
India,Maharashtra,Mumbai,"Mulund West, Mumbai - MPCB",25-03-2024 17:00:00,19.1750,72.9419,PM10,31,132,66
India,Maharashtra,Mumbai,"Mulund West, Mumbai - MPCB",25-03-2024 17:00:00,19.1750,72.9419,SO2,13,13,13
India,Maharashtra,Mumbai,"Navy Nagar-Colaba, Mumbai - IITM",25-03-2024 17:00:00,18.897756,72.813320,PM2.5,34,69,53
India,Maharashtra,Mumbai,"Navy Nagar-Colaba, Mumbai - IITM",25-03-2024 17:00:00,18.897756,72.813320,CO,21,48,44
India,Maharashtra,Mumbai,"Powai, Mumbai - MPCB",25-03-2024 17:00:00,19.137500,72.915056,PM10,38,122,84
India,Maharashtra,Mumbai,"Sewri, Mumbai - BMC",25-03-2024 17:00:00,19.000084,72.856730,OZONE,1,38,29
India,Maharashtra,Mumbai,"Sion, Mumbai - MPCB",25-03-2024 17:00:00,19.047000,72.874600,PM2.5,39,94,63
India,Maharashtra,Mumbai,"Vasai West, Mumbai - MPCB",25-03-2024 17:00:00,19.383200,72.820400,PM2.5,17,76,44
India,Maharashtra,Mumbai,"Vasai West, Mumbai - MPCB",25-03-2024 17:00:00,19.383200,72.820400,NH3,4,4,4
India,Maharashtra,Mumbai,"Vasai West, Mumbai - MPCB",25-03-2024 17:00:00,19.383200,72.820400,OZONE,8,54,33
India,Maharashtra,Mumbai,"Vile Parle West, Mumbai - MPCB",25-03-2024 17:00:00,19.10861,72.83622,PM10,52,131,78
India,Maharashtra,Mumbai,"Vile Parle West, Mumbai - MPCB",25-03-2024 17:00:00,19.10861,72.83622,NH3,10,11,11
India,Maharashtra,Nagpur,"Ambazari, Nagpur - MPCB",25-03-2024 17:00:00,21.121801,79.04952,PM2.5,80,321,166
India,Maharashtra,Nagpur,"Ambazari, Nagpur - MPCB",25-03-2024 17:00:00,21.121801,79.04952,NH3,1,11,3
India,Maharashtra,Nagpur,"Mahal, Nagpur - MPCB",25-03-2024 17:00:00,21.14472,79.107595,NO2,7,67,19
India,Maharashtra,Nagpur,"Ram Nagar, Nagpur - MPCB",25-03-2024 17:00:00,21.143383,79.048912,NO2,5,113,26
India,Maharashtra,Nanded,"Sneh Nagar, Nanded - MPCB",25-03-2024 17:00:00,19.173852,77.296291,CO,NA,NA,NA
India,Maharashtra,Nanded,"Sneh Nagar, Nanded - MPCB",25-03-2024 17:00:00,19.173852,77.296291,OZONE,NA,NA,NA
India,Maharashtra,Nashik,"Gangapur Road, Nashik - MPCB",25-03-2024 17:00:00,20.0073285,73.7762427,SO2,1,21,5
India,Maharashtra,Nashik,"Hirawadi, Nashik - MPCB",25-03-2024 17:00:00,20.021503,73.813844,NH3,1,4,2
India,Maharashtra,Nashik,"Hirawadi, Nashik - MPCB",25-03-2024 17:00:00,20.021503,73.813844,SO2,4,39,12
India,Maharashtra,Nashik,"MIDC Ambad, Nashik - MPCB",25-03-2024 17:00:00,19.950220,73.731480,NH3,2,3,2
India,Maharashtra,Nashik,"Pandav Nagari, Nashik - MPCB",25-03-2024 17:00:00,19.9591346,73.7788008,PM2.5,34,172,74
India,Maharashtra,Nashik,"Pandav Nagari, Nashik - MPCB",25-03-2024 17:00:00,19.9591346,73.7788008,PM10,47,117,70
India,Maharashtra,Navi Mumbai,"Kopripada-Vashi, Navi Mumbai - MPCB",25-03-2024 17:00:00,19.090337,73.014232,SO2,4,10,6
India,Maharashtra,Navi Mumbai,"Kopripada-Vashi, Navi Mumbai - MPCB",25-03-2024 17:00:00,19.090337,73.014232,OZONE,7,64,47
India,Maharashtra,Navi Mumbai,"Mahape, Navi Mumbai - MPCB",25-03-2024 17:00:00,19.1135051,73.008978,PM10,54,173,95
India,Maharashtra,Navi Mumbai,"Mahape, Navi Mumbai - MPCB",25-03-2024 17:00:00,19.1135051,73.008978,NH3,3,4,3
India,Maharashtra,Navi Mumbai,"Nerul, Navi Mumbai - MPCB",25-03-2024 17:00:00,19.008751,73.016620,NO2,15,42,28
India,Maharashtra,Navi Mumbai,"Sanpada, Navi Mumbai - MPCB",25-03-2024 17:00:00,19.0575752,73.0151367,NH3,NA,NA,NA
India,Maharashtra,Navi Mumbai,"Sector-2E Kalamboli, Navi Mumbai - MPCB",25-03-2024 17:00:00,19.02579,73.10297,NH3,4,7,6
India,Maharashtra,Navi Mumbai,"Sector-2E Kalamboli, Navi Mumbai - MPCB",25-03-2024 17:00:00,19.02579,73.10297,SO2,1,24,8
India,Maharashtra,Navi Mumbai,"Sector-2E Kalamboli, Navi Mumbai - MPCB",25-03-2024 17:00:00,19.02579,73.10297,CO,13,93,20
India,Maharashtra,Navi Mumbai,"Tondare-Taloja, Navi Mumbai - MPCB",25-03-2024 17:00:00,19.0630,73.1209,NH3,3,6,4
India,Maharashtra,Parbhani,"Masoom Colony, Parbhani - MPCB",25-03-2024 17:00:00,19.265594,76.761463,NO2,15,98,32
India,Maharashtra,Pimpri-Chinchwad,"Gavalinagar, Pimpri Chinchwad - MPCB",25-03-2024 17:00:00,18.63673,73.82487,PM10,47,129,95
India,Maharashtra,Pimpri-Chinchwad,"Park Street Wakad, Pimpri Chinchwad - MPCB",25-03-2024 17:00:00,18.59051,73.77946,SO2,8,26,13
India,Maharashtra,Pimpri-Chinchwad,"Thergaon, Pimpri Chinchwad - MPCB",25-03-2024 17:00:00,18.616318,73.765797,SO2,4,6,5
India,Maharashtra,Pune,"Revenue Colony-Shivajinagar, Pune - IITM",25-03-2024 17:00:00,18.530085,73.849598,PM10,53,124,91
India,Maharashtra,Pune,"Revenue Colony-Shivajinagar, Pune - IITM",25-03-2024 17:00:00,18.530085,73.849598,SO2,74,116,99
India,Maharashtra,Pune,"Savitribai Phule Pune University, Pune - MPCB",25-03-2024 17:00:00,18.547056,73.826908,SO2,15,30,21
India,Maharashtra,Pune,"Savitribai Phule Pune University, Pune - MPCB",25-03-2024 17:00:00,18.547056,73.826908,OZONE,1,231,222
India,Maharashtra,Sangli,"Vijay Nagar, Sangli - MPCB",25-03-2024 17:00:00, 16.5038,74.3623,PM10,66,138,95
India,Maharashtra,Sangli,"Vijay Nagar, Sangli - MPCB",25-03-2024 17:00:00, 16.5038,74.3623,CO,20,88,33
India,Maharashtra,Solapur,"Ratandeep Housing Society, Solapur - MPCB",25-03-2024 17:00:00,17.65439,75.90649,CO,26,27,26
India,Maharashtra,Thane,"Kasarvadavali, Thane - MPCB",25-03-2024 17:00:00,19.26777,72.97182,PM10,54,107,80
India,Maharashtra,Thane,"Kasarvadavali, Thane - MPCB",25-03-2024 17:00:00,19.26777,72.97182,NH3,5,11,8
India,Maharashtra,Thane,"Upvan Fort, Thane - MPCB",25-03-2024 17:00:00,19.222279,72.957979,PM10,58,98,75
India,Maharashtra,Thane,"Upvan Fort, Thane - MPCB",25-03-2024 17:00:00,19.222279,72.957979,OZONE,16,90,60
India,Maharashtra,Ulhasnagar,"Sidhi Vinayak Nagar, Ulhasnagar - MPCB",25-03-2024 17:00:00,19.235581,73.159121,PM2.5,52,96,69
India,Maharashtra,Ulhasnagar,"Sidhi Vinayak Nagar, Ulhasnagar - MPCB",25-03-2024 17:00:00,19.235581,73.159121,OZONE,13,79,64
India,Maharashtra,Virar,"Bolinj, Virar - MPCB",25-03-2024 17:00:00,19.4458210,72.7988231,OZONE,16,85,57
India,Manipur,Imphal,"Manipur University, Imphal - Manipur PCB",25-03-2024 17:00:00,24.7524239,93.9286218,PM2.5,41,232,98
India,Manipur,Imphal,"Manipur University, Imphal - Manipur PCB",25-03-2024 17:00:00,24.7524239,93.9286218,NO2,7,25,11
India,Manipur,Imphal,"Manipur University, Imphal - Manipur PCB",25-03-2024 17:00:00,24.7524239,93.9286218,NH3,NA,NA,NA
India,Meghalaya,Shillong,"Lumpyngngad, Shillong - Meghalaya PCB",25-03-2024 17:00:00,25.5586,91.8985,PM10,31,66,47
India,Nagaland,Kohima,"PWD Juction, Kohima - NPCB",25-03-2024 17:00:00,25.6635413,94.0989878,PM10,60,115,90
India,Nagaland,Kohima,"PWD Juction, Kohima - NPCB",25-03-2024 17:00:00,25.6635413,94.0989878,CO,10,28,15
India,Odisha,Angul,"Hakimapada, Angul - OSPCB",25-03-2024 17:00:00,20.832874,85.104082,OZONE,3,210,154
India,Odisha,Balasore,"Kalidaspur, Balasore - OSPCB",25-03-2024 17:00:00,21.51161,86.89088,NO2,7,110,19
India,Odisha,Balasore,"Kalidaspur, Balasore - OSPCB",25-03-2024 17:00:00,21.51161,86.89088,SO2,14,28,19
India,Odisha,Barbil,"Forest Office, Barbil - OSPCB",25-03-2024 17:00:00,22.1166054,85.3945546,PM10,91,407,184
India,Odisha,Barbil,"Forest Office, Barbil - OSPCB",25-03-2024 17:00:00,22.1166054,85.3945546,NH3,4,5,5
India,Odisha,Bhubaneswar,"Lingraj Mandir, Bhubaneswar - OSPCB",25-03-2024 17:00:00,20.240790,85.836784,PM10,NA,NA,NA
India,Odisha,Bhubaneswar,"Lingraj Mandir, Bhubaneswar - OSPCB",25-03-2024 17:00:00,20.240790,85.836784,CO,48,70,58
India,Odisha,Bileipada,"Tata Township, Bileipada - OSPCB",25-03-2024 17:00:00,22.06156703,85.47409613,PM10,123,422,207
India,Odisha,Bileipada,"Tata Township, Bileipada - OSPCB",25-03-2024 17:00:00,22.06156703,85.47409613,NH3,11,11,11
India,Odisha,Brajrajnagar,"GM Office, Brajrajnagar - OSPCB",25-03-2024 17:00:00,21.8004996,83.8396977,PM2.5,35,205,86
India,Odisha,Brajrajnagar,"GM Office, Brajrajnagar - OSPCB",25-03-2024 17:00:00,21.8004996,83.8396977,PM10,49,175,102
India,Odisha,Brajrajnagar,"GM Office, Brajrajnagar - OSPCB",25-03-2024 17:00:00,21.8004996,83.8396977,NH3,1,2,1
India,Odisha,Cuttack,"CDA Area, Cuttack - OSPCB",25-03-2024 17:00:00,20.48891     ,85.84768     ,PM2.5,13,48,30
India,Odisha,Cuttack,"CDA Area, Cuttack - OSPCB",25-03-2024 17:00:00,20.48891     ,85.84768     ,CO,16,24,18
India,Odisha,Keonjhar,"Jagamohanpur, Keonjhar - OSPCB",25-03-2024 17:00:00,21.643900,85.599355,SO2,3,5,4
India,Odisha,Keonjhar,"Jagamohanpur, Keonjhar - OSPCB",25-03-2024 17:00:00,21.643900,85.599355,OZONE,1,22,15
India,Odisha,Nayagarh,"Dabuna, Nayagarh - OSPCB",25-03-2024 17:00:00,21.847279,85.416905,PM2.5,NA,NA,NA
India,Odisha,Nayagarh,"Dabuna, Nayagarh - OSPCB",25-03-2024 17:00:00,21.847279,85.416905,NO2,NA,NA,NA
India,Odisha,Rourkela,"Raghunathpali, Rourkela - OSPCB",25-03-2024 17:00:00,22.220833,84.809444,PM10,82,162,129
India,Odisha,Rourkela,"Raghunathpali, Rourkela - OSPCB",25-03-2024 17:00:00,22.220833,84.809444,NO2,16,146,62
India,Odisha,Rourkela,"Raghunathpali, Rourkela - OSPCB",25-03-2024 17:00:00,22.220833,84.809444,CO,25,70,43
India,Odisha,Suakati,"OMC Colony, Suakati - OSPCB",25-03-2024 17:00:00,21.606865,85.510538,NH3,NA,NA,NA
India,Odisha,Suakati,"OMC Colony, Suakati - OSPCB",25-03-2024 17:00:00,21.606865,85.510538,OZONE,10,338,173
India,Odisha,Talcher,"Talcher Coalfields,Talcher - OSPCB",25-03-2024 17:00:00,20.9360711,85.1707021,SO2,11,79,21
India,Puducherry,Puducherry,"Jawahar Nagar, Puducherry - PPCC",25-03-2024 17:00:00,11.9309,79.8027,PM10,20,60,32
India,Punjab,Amritsar,"Golden Temple, Amritsar - PPCB",25-03-2024 17:00:00,31.620000,74.876512,PM2.5,16,221,63
India,Punjab,Bathinda,"Hardev Nagar, Bathinda - PPCB",25-03-2024 17:00:00,30.233011,74.907758,PM2.5,16,67,39
India,Punjab,Bathinda,"Hardev Nagar, Bathinda - PPCB",25-03-2024 17:00:00,30.233011,74.907758,CO,2,40,7
India,Punjab,Jalandhar,"Civil Line, Jalandhar - PPCB",25-03-2024 17:00:00,31.321907,75.578914,PM2.5,35,70,51
India,Punjab,Jalandhar,"Civil Line, Jalandhar - PPCB",25-03-2024 17:00:00,31.321907,75.578914,NO2,34,37,36
India,Punjab,Jalandhar,"Civil Line, Jalandhar - PPCB",25-03-2024 17:00:00,31.321907,75.578914,CO,12,50,23
India,Punjab,Khanna,"Kalal Majra, Khanna - PPCB",25-03-2024 17:00:00,30.736056 ,76.209694,CO,20,171,21
India,Punjab,Ludhiana,"Punjab Agricultural University, Ludhiana - PPCB",25-03-2024 17:00:00,30.9028,75.8086,PM2.5,24,77,54
India,Punjab,Ludhiana,"Punjab Agricultural University, Ludhiana - PPCB",25-03-2024 17:00:00,30.9028,75.8086,NO2,18,19,18
India,Punjab,Ludhiana,"Punjab Agricultural University, Ludhiana - PPCB",25-03-2024 17:00:00,30.9028,75.8086,NH3,4,4,4
India,Rajasthan,Alwar,"Moti Doongri, Alwar - RSPCB",25-03-2024 17:00:00,27.554793,76.611536,PM2.5,41,149,76
India,Rajasthan,Alwar,"Moti Doongri, Alwar - RSPCB",25-03-2024 17:00:00,27.554793,76.611536,PM10,52,104,76
India,Rajasthan,Alwar,"Moti Doongri, Alwar - RSPCB",25-03-2024 17:00:00,27.554793,76.611536,OZONE,7,17,15
India,Rajasthan,Banswara,"Rati Talai, Banswara - RSPCB",25-03-2024 17:00:00,23.555190,74.440010,NH3,1,11,6
India,Rajasthan,Banswara,"Rati Talai, Banswara - RSPCB",25-03-2024 17:00:00,23.555190,74.440010,OZONE,37,194,194
India,Rajasthan,Baran,"Bamboliya, Baran - RSPCB",25-03-2024 17:00:00,25.106006,76.469948,SO2,7,21,12
India,Rajasthan,Baran,"Bamboliya, Baran - RSPCB",25-03-2024 17:00:00,25.106006,76.469948,CO,17,51,26
India,Rajasthan,Baran,"Bamboliya, Baran - RSPCB",25-03-2024 17:00:00,25.106006,76.469948,OZONE,6,126,110
India,Rajasthan,Barmer,"Railway Colony, Barmer - RSPCB",25-03-2024 17:00:00,25.747299,71.393989,PM2.5,NA,NA,NA
India,Rajasthan,Bharatpur,"Krishna Nagar, Bharatpur - RSPCB",25-03-2024 17:00:00,27.215415,77.50873,PM2.5,49,312,165
India,Rajasthan,Bharatpur,"Krishna Nagar, Bharatpur - RSPCB",25-03-2024 17:00:00,27.215415,77.50873,SO2,6,18,11
India,Rajasthan,Bhiwadi,"RIICO Ind. Area III, Bhiwadi - RSPCB",25-03-2024 17:00:00,28.194909,76.862296,PM10,44,141,109
India,Rajasthan,Bikaner,"MM Ground, Bikaner - RSPCB",25-03-2024 17:00:00,28.018792,73.292658,PM10,108,248,152
India,Rajasthan,Bundi,"New Colony, Bundi - RSPCB",25-03-2024 17:00:00,25.435774,75.644272,NH3,2,3,3
India,Rajasthan,Bundi,"New Colony, Bundi - RSPCB",25-03-2024 17:00:00,25.435774,75.644272,CO,15,100,17
India,Rajasthan,Chittorgarh,"Shastri Nagar, Chittorgarh - RSPCB",25-03-2024 17:00:00,24.892047,74.623527,PM2.5,20,87,58
India,Rajasthan,Chittorgarh,"Shastri Nagar, Chittorgarh - RSPCB",25-03-2024 17:00:00,24.892047,74.623527,SO2,4,131,36
India,Rajasthan,Churu,"Subash Chowk, Churu - RSPCB",25-03-2024 17:00:00,28.296139,74.961696,PM2.5,18,143,58
India,Rajasthan,Dholpur,"Raja Ganj, Dholpur - RSPCB",25-03-2024 17:00:00,26.699557,77.898881,PM2.5,32,380,192
India,Rajasthan,Dungarpur,"Bhoiwada, Dungarpur - RSPCB",25-03-2024 17:00:00,23.837789,73.714926,NO2,7,21,15
India,Rajasthan,Dungarpur,"Bhoiwada, Dungarpur - RSPCB",25-03-2024 17:00:00,23.837789,73.714926,NH3,5,5,5
India,Rajasthan,Hanumangarh,"Housing Board, Hanumangarh - RSPCB",25-03-2024 17:00:00,29.610750,74.283608,PM2.5,30,392,124
India,Rajasthan,Hanumangarh,"Housing Board, Hanumangarh - RSPCB",25-03-2024 17:00:00,29.610750,74.283608,PM10,48,309,124
India,Rajasthan,Hanumangarh,"Housing Board, Hanumangarh - RSPCB",25-03-2024 17:00:00,29.610750,74.283608,NO2,9,60,23
India,Rajasthan,Jaipur,"Adarsh Nagar, Jaipur - RSPCB",25-03-2024 17:00:00,26.902909,75.836858,NO2,19,59,28
India,Rajasthan,Jaipur,"Police Commissionerate, Jaipur - RSPCB",25-03-2024 17:00:00,26.9164092,75.7994901,NH3,7,10,9
India,Rajasthan,Jaipur,"RIICO Sitapura, Jaipur - RSPCB",25-03-2024 17:00:00,26.786682,75.827928,PM2.5,27,296,109
India,Rajasthan,Jaipur,"RIICO Sitapura, Jaipur - RSPCB",25-03-2024 17:00:00,26.786682,75.827928,NH3,1,8,2
India,Rajasthan,Jaipur,"Shastri Nagar, Jaipur - RSPCB",25-03-2024 17:00:00,26.9502929,75.730943,NH3,2,7,4
India,Rajasthan,Jaisalmer,"Sadar Bazar, Jaisalmer - RSPCB",25-03-2024 17:00:00,26.912329,70.909168,PM2.5,33,194,65
India,Rajasthan,Jalore,"Mudtra Sili, Jalore - RSPCB",25-03-2024 17:00:00,25.344694,72.626208,PM2.5,28,82,44
India,Rajasthan,Jhalawar,"Rajlaxmi Nagar, Jhalawar - RSPCB",25-03-2024 17:00:00,24.588397,76.172782,PM2.5,17,84,46
India,Rajasthan,Jhalawar,"Rajlaxmi Nagar, Jhalawar - RSPCB",25-03-2024 17:00:00,24.588397,76.172782,PM10,80,187,123
India,Rajasthan,Jhunjhunu,"Indra Nagar, Jhunjhunu - RSPCB",25-03-2024 17:00:00,28.108988,75.386577,CO,10,45,15
India,Rajasthan,Jodhpur,"Collectorate, Jodhpur - RSPCB",25-03-2024 17:00:00,26.268249,73.0193853,PM2.5,37,218,122
India,Rajasthan,Jodhpur,"Collectorate, Jodhpur - RSPCB",25-03-2024 17:00:00,26.268249,73.0193853,SO2,1,54,20
India,Rajasthan,Jodhpur,"Digari Kalan, Jodhpur - RSPCB",25-03-2024 17:00:00,26.295810,73.082283,PM10,51,243,108
India,Rajasthan,Jodhpur,"Digari Kalan, Jodhpur - RSPCB",25-03-2024 17:00:00,26.295810,73.082283,SO2,2,9,6
India,Rajasthan,Jodhpur,"Jhalamand, Jodhpur - RSPCB",25-03-2024 17:00:00,26.215415,73.070156,PM2.5,13,104,37
India,Rajasthan,Jodhpur,"Jhalamand, Jodhpur - RSPCB",25-03-2024 17:00:00,26.215415,73.070156,NO2,31,41,34
India,Rajasthan,Jodhpur,"Jhalamand, Jodhpur - RSPCB",25-03-2024 17:00:00,26.215415,73.070156,SO2,3,9,6
India,Rajasthan,Jodhpur,"Jhalamand, Jodhpur - RSPCB",25-03-2024 17:00:00,26.215415,73.070156,CO,2,48,32
India,Rajasthan,Jodhpur,"Mandor, Jodhpur - RSPCB",25-03-2024 17:00:00,26.358805,73.047444,NO2,19,70,35
India,Rajasthan,Jodhpur,"Mandor, Jodhpur - RSPCB",25-03-2024 17:00:00,26.358805,73.047444,OZONE,22,107,91
India,Rajasthan,Jodhpur,"Samrat Ashok Udhyan, Jodhpur - RSPCB",25-03-2024 17:00:00,26.253384,72.976571,PM10,56,177,125
India,Rajasthan,Jodhpur,"Samrat Ashok Udhyan, Jodhpur - RSPCB",25-03-2024 17:00:00,26.253384,72.976571,NH3,4,7,5
India,Rajasthan,Kota,"Dhanmandi, Kota - RSPCB",25-03-2024 17:00:00,25.164090,75.858137,PM2.5,14,214,65
India,Rajasthan,Kota,"Dhanmandi, Kota - RSPCB",25-03-2024 17:00:00,25.164090,75.858137,NH3,3,5,4
India,Rajasthan,Kota,"Nayapura, Kota - RSPCB",25-03-2024 17:00:00,25.196024,75.855668,CO,23,67,27
India,Rajasthan,Kota,"Shrinath Puram, Kota - RSPCB",25-03-2024 17:00:00,25.14389,75.821256,OZONE,12,89,74
India,Rajasthan,Nagaur,"Karni Colony, Nagaur - RSPCB",25-03-2024 17:00:00,27.213494,73.734444,NO2,8,15,12
India,Rajasthan,Nagaur,"Karni Colony, Nagaur - RSPCB",25-03-2024 17:00:00,27.213494,73.734444,NH3,10,18,13
India,Rajasthan,Pali,"Indira Colony Vistar, Pali - RSPCB",25-03-2024 17:00:00,25.771061, 73.340227,PM2.5,64,295,152
India,Rajasthan,Pali,"Indira Colony Vistar, Pali - RSPCB",25-03-2024 17:00:00,25.771061, 73.340227,NH3,1,7,3
India,Rajasthan,Pratapgarh,"Pragati Nagar, Pratapgarh - RSPCB",25-03-2024 17:00:00,24.041198,74.780702,OZONE,30,78,68
India,Rajasthan,Rajsamand,"Dhoinda, Rajsamand - RSPCB",25-03-2024 17:00:00,25.036360,73.883502,PM10,46,120,79
India,Rajasthan,Rajsamand,"Dhoinda, Rajsamand - RSPCB",25-03-2024 17:00:00,25.036360,73.883502,CO,44,78,65
India,Rajasthan,Sawai Madhopur,"Sahu Nagar, Sawai Madhopur - RSPCB",25-03-2024 17:00:00,26.031443,76.359327,CO,12,70,40
India,Rajasthan,Sikar,"Radhakishan Pura, Sikar - RSPCB",25-03-2024 17:00:00,27.608912,75.153302,NO2,7,38,17
India,Rajasthan,Sri Ganganagar,"Old City, Sri Ganganagar - RSPCB",25-03-2024 17:00:00,29.931624,73.864511,SO2,1,11,7
India,Rajasthan,Udaipur,"Ashok Nagar, Udaipur - RSPCB",25-03-2024 17:00:00,24.5886166,73.6321397,OZONE,4,46,38
India,TamilNadu,Ariyalur,"Keelapalur, Ariyalur - TNPCB",25-03-2024 17:00:00,11.06825,79.07033,PM2.5,NA,NA,NA
India,TamilNadu,Ariyalur,"Keelapalur, Ariyalur - TNPCB",25-03-2024 17:00:00,11.06825,79.07033,NH3,NA,NA,NA
India,TamilNadu,Ariyalur,"Keelapalur, Ariyalur - TNPCB",25-03-2024 17:00:00,11.06825,79.07033,SO2,35,44,37
India,TamilNadu,Chengalpattu,"Crescent University, Chengalpattu - TNPCB",25-03-2024 17:00:00,12.8777316,80.0834807,CO,25,30,27
India,TamilNadu,Chennai,"Arumbakkam, Chennai - TNPCB",25-03-2024 17:00:00,13.0664,80.2112 ,NO2,6,31,11
India,TamilNadu,Chennai,"Arumbakkam, Chennai - TNPCB",25-03-2024 17:00:00,13.0664,80.2112 ,NH3,2,5,4
India,TamilNadu,Chennai,"Kodungaiyur, Chennai - TNPCB",25-03-2024 17:00:00,13.1278,80.2642,PM2.5,7,38,18
India,TamilNadu,Chennai,"Kodungaiyur, Chennai - TNPCB",25-03-2024 17:00:00,13.1278,80.2642,NO2,7,19,10
India,TamilNadu,Chennai,"Kodungaiyur, Chennai - TNPCB",25-03-2024 17:00:00,13.1278,80.2642,NH3,2,4,3
India,TamilNadu,Chennai,"Perungudi, Chennai - TNPCB",25-03-2024 17:00:00,12.9533,80.2357,NO2,2,15,4
India,TamilNadu,Chennai,"Royapuram, Chennai - TNPCB",25-03-2024 17:00:00,13.1036,80.2909,OZONE,9,11,10
India,TamilNadu,Cuddalore,"Semmandalam, Cuddalore - TNPCB",25-03-2024 17:00:00,11.7637683,79.7499835,NO2,8,29,15
India,TamilNadu,Gummidipoondi,"Anthoni Pillai Nagar, Gummidipoondi - TNPCB",25-03-2024 17:00:00,13.4127,80.1081,PM2.5,20,255,77
India,TamilNadu,Gummidipoondi,"Anthoni Pillai Nagar, Gummidipoondi - TNPCB",25-03-2024 17:00:00,13.4127,80.1081,SO2,2,109,39
India,TamilNadu,Ooty,"Bombay Castel, Ooty - TNPCB",25-03-2024 17:00:00,11.4068288,76.7138973,NH3,NA,NA,NA
India,TamilNadu,Palkalaiperur,"Bharathidasan University, Palkalaiperur - TNPCB",25-03-2024 17:00:00,10.681158,78.741746,PM10,27,52,39
India,TamilNadu,Ramanathapuram,"Chalai Bazaar, Ramanathapuram - TNPCB",25-03-2024 17:00:00,9.36399,78.831977,PM2.5,31,53,41
India,TamilNadu,Ramanathapuram,"Chalai Bazaar, Ramanathapuram - TNPCB",25-03-2024 17:00:00,9.36399,78.831977,NH3,1,1,1
India,TamilNadu,Virudhunagar,"Collectorate Office, Virudhunagar - TNPCB",25-03-2024 17:00:00,9.559382,77.948828,PM2.5,25,56,39
India,TamilNadu,Virudhunagar,"Collectorate Office, Virudhunagar - TNPCB",25-03-2024 17:00:00,9.559382,77.948828,NH3,6,7,6
India,TamilNadu,Virudhunagar,"Collectorate Office, Virudhunagar - TNPCB",25-03-2024 17:00:00,9.559382,77.948828,SO2,5,8,6
India,Telangana,Hyderabad,"ECIL Kapra, Hyderabad - TSPCB",25-03-2024 17:00:00,17.470431,78.566959,CO,21,34,27
India,Telangana,Hyderabad,"IITH Kandi, Hyderabad - TSPCB",25-03-2024 17:00:00,17.585705,78.126199,PM10,NA,NA,NA
India,Telangana,Hyderabad,"Kompally Municipal Office, Hyderabad - TSPCB",25-03-2024 17:00:00,17.544899,78.486949,NH3,4,5,4
India,Telangana,Hyderabad,"Nacharam_TSIIC IALA, Hyderabad - TSPCB",25-03-2024 17:00:00,17.429398,78.569354,PM2.5,NA,NA,NA
India,Telangana,Hyderabad,"Ramachandrapuram, Hyderabad - TSPCB",25-03-2024 17:00:00,17.528544,78.286195,NH3,2,3,3
India,Telangana,Hyderabad,"Ramachandrapuram, Hyderabad - TSPCB",25-03-2024 17:00:00,17.528544,78.286195,CO,18,42,21
India,Telangana,Hyderabad,"Ramachandrapuram, Hyderabad - TSPCB",25-03-2024 17:00:00,17.528544,78.286195,OZONE,10,53,34
India,Telangana,Hyderabad,"Sanathnagar, Hyderabad - TSPCB",25-03-2024 17:00:00,17.4559458,78.4332152,CO,27,54,30
India,Telangana,Hyderabad,"Somajiguda, Hyderabad - TSPCB",25-03-2024 17:00:00,17.417094,78.457437,PM2.5,37,72,53
India,Telangana,Hyderabad,"Zoo Park, Hyderabad - TSPCB",25-03-2024 17:00:00,17.349694,78.451437,NO2,24,44,33
India,Telangana,Hyderabad,"Zoo Park, Hyderabad - TSPCB",25-03-2024 17:00:00,17.349694,78.451437,SO2,1,6,2
India,Uttar_Pradesh,Agra,"Manoharpur, Agra - UPPCB",25-03-2024 17:00:00,27.23711,78.01936,CO,8,26,17
India,Uttar_Pradesh,Agra,"Manoharpur, Agra - UPPCB",25-03-2024 17:00:00,27.23711,78.01936,OZONE,1,39,27
India,Uttar_Pradesh,Agra,"Rohta, Agra - UPPCB",25-03-2024 17:00:00,27.106972,78.000111,NO2,2,2,2
India,Uttar_Pradesh,Agra,"Sanjay Palace, Agra - UPPCB",25-03-2024 17:00:00,27.19865833,78.00598056,PM10,20,114,59
India,Uttar_Pradesh,Agra,"Sanjay Palace, Agra - UPPCB",25-03-2024 17:00:00,27.19865833,78.00598056,SO2,7,9,8
India,Uttar_Pradesh,Agra,"Sector-3B Avas Vikas Colony, Agra - UPPCB",25-03-2024 17:00:00,27.19412,77.96237,NO2,NA,NA,NA
India,Uttar_Pradesh,Agra,"Sector-3B Avas Vikas Colony, Agra - UPPCB",25-03-2024 17:00:00,27.19412,77.96237,NH3,3,7,5
India,Uttar_Pradesh,Agra,"Shastripuram, Agra - UPPCB",25-03-2024 17:00:00,27.19862,77.92066,PM2.5,10,224,85
India,Uttar_Pradesh,Agra,"Shastripuram, Agra - UPPCB",25-03-2024 17:00:00,27.19862,77.92066,PM10,46,158,110
India,Uttar_Pradesh,Agra,"Shastripuram, Agra - UPPCB",25-03-2024 17:00:00,27.19862,77.92066,SO2,13,14,13
India,Uttar_Pradesh,Baghpat,"Sardar Patel Inter College, Baghpat - UPPCB",25-03-2024 17:00:00,28.964949,77.278761,CO,24,81,33
India,Uttar_Pradesh,Bareilly,"Civil Lines, Bareilly - UPPCB",25-03-2024 17:00:00,28.359581,79.414455,PM10,45,162,91
India,Uttar_Pradesh,Bareilly,"Civil Lines, Bareilly - UPPCB",25-03-2024 17:00:00,28.359581,79.414455,NO2,2,3,2
India,Uttar_Pradesh,Firozabad,"Nagla Bhau, Firozabad - UPPCB",25-03-2024 17:00:00,27.168897,78.376960,PM10,16,122,57
India,Uttar_Pradesh,Firozabad,"Nagla Bhau, Firozabad - UPPCB",25-03-2024 17:00:00,27.168897,78.376960,NH3,2,2,2
India,Uttar_Pradesh,Firozabad,"Nagla Bhau, Firozabad - UPPCB",25-03-2024 17:00:00,27.168897,78.376960,SO2,12,21,16
India,Uttar_Pradesh,Firozabad,"Nagla Bhau, Firozabad - UPPCB",25-03-2024 17:00:00,27.168897,78.376960,CO,24,49,36
India,Uttar_Pradesh,Ghaziabad,"Indirapuram, Ghaziabad - UPPCB",25-03-2024 17:00:00,28.646233,77.358075,PM2.5,12,359,128
India,Uttar_Pradesh,Ghaziabad,"Indirapuram, Ghaziabad - UPPCB",25-03-2024 17:00:00,28.646233,77.358075,PM10,53,420,173
India,Uttar_Pradesh,Ghaziabad,"Indirapuram, Ghaziabad - UPPCB",25-03-2024 17:00:00,28.646233,77.358075,SO2,3,13,7
India,Uttar_Pradesh,Ghaziabad,"Loni, Ghaziabad - UPPCB",25-03-2024 17:00:00,28.757294,77.278792,NO2,18,80,35
India,Uttar_Pradesh,Ghaziabad,"Sanjay Nagar, Ghaziabad - UPPCB",25-03-2024 17:00:00,28.685382,77.453839,PM10,58,290,136
India,Uttar_Pradesh,Greater Noida,"Knowledge Park - III, Greater Noida - UPPCB",25-03-2024 17:00:00,28.47272,77.482000,NH3,10,19,13
India,Uttar_Pradesh,Greater Noida,"Knowledge Park - III, Greater Noida - UPPCB",25-03-2024 17:00:00,28.47272,77.482000,CO,38,124,57
India,Uttar_Pradesh,Hapur,"Anand Vihar, Hapur - UPPCB",25-03-2024 17:00:00,28.725645,77.749675,SO2,24,115,61
India,Uttar_Pradesh,Jhansi,"Shivaji Nagar, Jhansi - UPPCB",25-03-2024 17:00:00,25.4547,78.6039,SO2,14,20,15
India,Uttar_Pradesh,Jhansi,"Shivaji Nagar, Jhansi - UPPCB",25-03-2024 17:00:00,25.4547,78.6039,CO,10,30,17
India,Uttar_Pradesh,Kanpur,"FTI Kidwai Nagar, Kanpur - UPPCB",25-03-2024 17:00:00,26.428282,80.327067,NO2,11,12,11
India,Uttar_Pradesh,Kanpur,"FTI Kidwai Nagar, Kanpur - UPPCB",25-03-2024 17:00:00,26.428282,80.327067,OZONE,3,8,7
India,Uttar_Pradesh,Kanpur,"NSI Kalyanpur, Kanpur - UPPCB",25-03-2024 17:00:00,26.509954,80.249612,PM10,67,154,113
India,Uttar_Pradesh,Kanpur,"NSI Kalyanpur, Kanpur - UPPCB",25-03-2024 17:00:00,26.509954,80.249612,SO2,17,21,18
India,Uttar_Pradesh,Kanpur,"Nehru Nagar, Kanpur - UPPCB",25-03-2024 17:00:00,26.4703136,80.3229863,NO2,30,45,39
India,Uttar_Pradesh,Khurja,"Kalindi Kunj, Khurja - UPPCB",25-03-2024 17:00:00,28.2348927,77.8683002,PM2.5,41,180,97
India,Uttar_Pradesh,Lucknow,"B R Ambedkar University, Lucknow - UPPCB",25-03-2024 17:00:00,26.766433,80.927299,PM2.5,47,383,211
India,Uttar_Pradesh,Lucknow,"Gomti Nagar, Lucknow - UPPCB",25-03-2024 17:00:00,26.868120,81.005119,SO2,4,19,11
India,Uttar_Pradesh,Lucknow,"Kendriya Vidyalaya, Lucknow - CPCB",25-03-2024 17:00:00,26.906111,80.948222,PM2.5,60,306,189
India,Uttar_Pradesh,Lucknow,"Kendriya Vidyalaya, Lucknow - CPCB",25-03-2024 17:00:00,26.906111,80.948222,NH3,4,23,15
India,Uttar_Pradesh,Lucknow,"Kukrail Picnic Spot-1, Lucknow - UPPCB",25-03-2024 17:00:00,26.90723,80.98579,SO2,34,41,36
India,Uttar_Pradesh,Lucknow,"Kukrail Picnic Spot-1, Lucknow - UPPCB",25-03-2024 17:00:00,26.90723,80.98579,CO,16,53,38
India,Uttar_Pradesh,Lucknow,"Lalbagh, Lucknow - CPCB",25-03-2024 17:00:00,26.8458805,80.9365541,OZONE,15,79,66
India,Uttar_Pradesh,Lucknow,"Talkatora District Industries Center, Lucknow - CPCB",25-03-2024 17:00:00,26.83399722,80.8917361,PM2.5,NA,NA,NA
India,Uttar_Pradesh,Meerut,"Ganga Nagar, Meerut - UPPCB",25-03-2024 17:00:00,28.999264,77.7590354,PM10,54,156,110
India,Uttar_Pradesh,Meerut,"Jai Bhim Nagar, Meerut - UPPCB",25-03-2024 17:00:00,28.9535882,77.7622941,NH3,6,13,8
India,Uttar_Pradesh,Meerut,"Pallavpuram Phase 2, Meerut - UPPCB",25-03-2024 17:00:00,29.063510,77.709723,CO,37,95,41
India,Uttar_Pradesh,Meerut,"Pallavpuram Phase 2, Meerut - UPPCB",25-03-2024 17:00:00,29.063510,77.709723,OZONE,1,72,52
India,Uttar_Pradesh,Moradabad,"Buddhi Vihar, Moradabad - UPPCB",25-03-2024 17:00:00,28.83526,78.74460,SO2,24,35,27
India,Uttar_Pradesh,Moradabad,"Eco Herbal Park, Moradabad - UPPCB",25-03-2024 17:00:00,28.840739,78.697531,NH3,4,28,7
India,Uttar_Pradesh,Moradabad,"Eco Herbal Park, Moradabad - UPPCB",25-03-2024 17:00:00,28.840739,78.697531,OZONE,11,29,27
India,Uttar_Pradesh,Moradabad,"Employment Office, Moradabad - UPPCB",25-03-2024 17:00:00,28.88528,78.73880,NH3,3,4,4
India,Uttar_Pradesh,Moradabad,"Jigar Colony, Moradabad - UPPCB",25-03-2024 17:00:00,28.856664,78.772638,NH3,5,6,5
India,Uttar_Pradesh,Moradabad,"Jigar Colony, Moradabad - UPPCB",25-03-2024 17:00:00,28.856664,78.772638,OZONE,23,37,34
India,Uttar_Pradesh,Moradabad,"Kashiram Nagar, Moradabad - UPPCB",25-03-2024 17:00:00,28.849399,78.742362,NH3,3,4,4
India,Uttar_Pradesh,Moradabad,"Kashiram Nagar, Moradabad - UPPCB",25-03-2024 17:00:00,28.849399,78.742362,SO2,28,48,39
India,Uttar_Pradesh,Muzaffarnagar,"New Mandi, Muzaffarnagar - UPPCB",25-03-2024 17:00:00,29.4723508,77.7194031,PM10,92,272,151
India,Uttar_Pradesh,Muzaffarnagar,"New Mandi, Muzaffarnagar - UPPCB",25-03-2024 17:00:00,29.4723508,77.7194031,NH3,10,14,12
India,Uttar_Pradesh,Muzaffarnagar,"New Mandi, Muzaffarnagar - UPPCB",25-03-2024 17:00:00,29.4723508,77.7194031,CO,17,101,22
India,Uttar_Pradesh,Noida,"Sector - 62, Noida - IMD",25-03-2024 17:00:00,28.6245479,77.3577104,PM2.5,34,446,163
India,Uttar_Pradesh,Noida,"Sector - 62, Noida - IMD",25-03-2024 17:00:00,28.6245479,77.3577104,OZONE,11,32,26
India,Uttar_Pradesh,Noida,"Sector-1, Noida - UPPCB",25-03-2024 17:00:00,28.5898,77.3101,PM2.5,33,383,184
India,Uttar_Pradesh,Noida,"Sector-1, Noida - UPPCB",25-03-2024 17:00:00,28.5898,77.3101,NH3,2,5,4
India,Uttar_Pradesh,Noida,"Sector-1, Noida - UPPCB",25-03-2024 17:00:00,28.5898,77.3101,SO2,6,25,14
India,Uttar_Pradesh,Noida,"Sector-116, Noida - UPPCB",25-03-2024 17:00:00,28.569230,77.393848,PM2.5,34,412,186
India,Uttar_Pradesh,Noida,"Sector-116, Noida - UPPCB",25-03-2024 17:00:00,28.569230,77.393848,PM10,68,293,162
India,Uttar_Pradesh,Prayagraj,"Jhunsi, Prayagraj - UPPCB",25-03-2024 17:00:00,25.425602,81.917152,NO2,6,6,6
India,Uttar_Pradesh,Prayagraj,"Jhunsi, Prayagraj - UPPCB",25-03-2024 17:00:00,25.425602,81.917152,SO2,30,32,31
India,Uttar_Pradesh,Prayagraj,"Jhunsi, Prayagraj - UPPCB",25-03-2024 17:00:00,25.425602,81.917152,CO,10,63,37
India,Uttar_Pradesh,Prayagraj,"Motilal Nehru NIT, Prayagraj - UPPCB",25-03-2024 17:00:00,25.494,81.863,SO2,22,27,24
India,Uttar_Pradesh,Prayagraj,"Motilal Nehru NIT, Prayagraj - UPPCB",25-03-2024 17:00:00,25.494,81.863,OZONE,6,50,32
India,Uttar_Pradesh,Prayagraj,"Nagar Nigam, Prayagraj - UPPCB",25-03-2024 17:00:00,25.44919916 ,81.82735986 ,NO2,5,5,5
India,Uttar_Pradesh,Varanasi,"Ardhali Bazar, Varanasi - UPPCB",25-03-2024 17:00:00,25.3505986,82.9083074,PM2.5,9,109,43
India,Uttar_Pradesh,Varanasi,"Ardhali Bazar, Varanasi - UPPCB",25-03-2024 17:00:00,25.3505986,82.9083074,CO,4,15,11
India,Uttar_Pradesh,Varanasi,"Bhelupur, Varanasi - UPPCB",25-03-2024 17:00:00,25.301778,82.996789,CO,20,128,31
India,Uttar_Pradesh,Varanasi,"Bhelupur, Varanasi - UPPCB",25-03-2024 17:00:00,25.301778,82.996789,OZONE,1,44,30
India,Uttar_Pradesh,Varanasi,"IESD Banaras Hindu University, Varanasi - UPPCB",25-03-2024 17:00:00,25.262326,82.995408,PM2.5,NA,NA,NA
India,Uttar_Pradesh,Varanasi,"Maldahiya, Varanasi - UPPCB",25-03-2024 17:00:00,25.32393,82.99687,PM2.5,14,68,39
India,Uttar_Pradesh,Varanasi,"Maldahiya, Varanasi - UPPCB",25-03-2024 17:00:00,25.32393,82.99687,PM10,17,81,47
India,Uttar_Pradesh,Varanasi,"Maldahiya, Varanasi - UPPCB",25-03-2024 17:00:00,25.32393,82.99687,NO2,1,4,2
India,Uttar_Pradesh,Varanasi,"Maldahiya, Varanasi - UPPCB",25-03-2024 17:00:00,25.32393,82.99687,OZONE,1,13,9
India,Uttar_Pradesh,Vrindavan,"Omex Eternity, Vrindavan - UPPCB",25-03-2024 17:00:00,27.5714090,77.6557570,NO2,2,3,3
India,Uttarakhand,Dehradun,"Doon University, Dehradun - UKPCB",25-03-2024 17:00:00,30.269444,78.044167,PM10,32,135,87
India,Uttarakhand,Rishikesh,"Shivaji Nagar, Rishikesh - UKPCB",25-03-2024 17:00:00,30.075911,78.2859547,PM2.5,22,59,37
India,Uttarakhand,Rishikesh,"Shivaji Nagar, Rishikesh - UKPCB",25-03-2024 17:00:00,30.075911,78.2859547,PM10,56,106,73
India,Uttarakhand,Rishikesh,"Shivaji Nagar, Rishikesh - UKPCB",25-03-2024 17:00:00,30.075911,78.2859547,NO2,7,37,16
India,Uttarakhand,Rishikesh,"Shivaji Nagar, Rishikesh - UKPCB",25-03-2024 17:00:00,30.075911,78.2859547,SO2,3,6,4
India,Uttarakhand,Rishikesh,"Shivaji Nagar, Rishikesh - UKPCB",25-03-2024 17:00:00,30.075911,78.2859547,CO,14,56,23
India,West_Bengal,Barrackpore,"SVSPA Campus, Barrackpore - WBPCB",25-03-2024 17:00:00,22.7605581,88.3617589,SO2,4,12,7
India,West_Bengal,Durgapur,"Sidhu Kanhu Indoor Stadium, Durgapur - WBPCB",25-03-2024 17:00:00,23.5404352,87.2892225,NO2,19,34,26
India,West_Bengal,Howrah,"Belur Math, Howrah - WBPCB",25-03-2024 17:00:00,22.629801,88.352017,NH3,3,4,3
India,West_Bengal,Howrah,"Padmapukur, Howrah - WBPCB",25-03-2024 17:00:00,22.5687319,88.2797276,CO,6,56,27
India,West_Bengal,Kolkata,"Ballygunge, Kolkata - WBPCB",25-03-2024 17:00:00,22.5367507,88.3638022,CO,19,26,24
India,West_Bengal,Kolkata,"Bidhannagar, Kolkata - WBPCB",25-03-2024 17:00:00,22.58157048,88.41002457,SO2,NA,NA,NA
India,West_Bengal,Kolkata,"Bidhannagar, Kolkata - WBPCB",25-03-2024 17:00:00,22.58157048,88.41002457,CO,NA,NA,NA
India,West_Bengal,Kolkata,"Fort William, Kolkata - WBPCB",25-03-2024 17:00:00,22.556640,88.342674,OZONE,20,43,34
India,West_Bengal,Kolkata,"Jadavpur, Kolkata - WBPCB",25-03-2024 17:00:00,22.49929,88.36917,PM10,48,69,56
India,West_Bengal,Kolkata,"Jadavpur, Kolkata - WBPCB",25-03-2024 17:00:00,22.49929,88.36917,NO2,3,11,7
India,West_Bengal,Kolkata,"Rabindra Bharati University, Kolkata - WBPCB",25-03-2024 17:00:00,22.627847,88.380669,PM10,40,82,58
India,West_Bengal,Kolkata,"Rabindra Bharati University, Kolkata - WBPCB",25-03-2024 17:00:00,22.627847,88.380669,NH3,7,7,7
India,West_Bengal,Kolkata,"Rabindra Bharati University, Kolkata - WBPCB",25-03-2024 17:00:00,22.627847,88.380669,CO,26,38,29
India,West_Bengal,Kolkata,"Rabindra Sarobar, Kolkata - WBPCB",25-03-2024 17:00:00,22.51106,88.35142,NO2,5,25,15
India,West_Bengal,Kolkata,"Rabindra Sarobar, Kolkata - WBPCB",25-03-2024 17:00:00,22.51106,88.35142,NH3,3,5,4
India,West_Bengal,Kolkata,"Rabindra Sarobar, Kolkata - WBPCB",25-03-2024 17:00:00,22.51106,88.35142,CO,10,22,15
India,West_Bengal,Kolkata,"Victoria, Kolkata - WBPCB",25-03-2024 17:00:00,22.5448082,88.3403691,OZONE,15,69,49
India,West_Bengal,Siliguri,"Ward-32 Bapupara, Siliguri - WBPCB",25-03-2024 17:00:00,26.6879226,88.4152495,NH3,4,19,13
India,West_Bengal,Siliguri,"Ward-32 Bapupara, Siliguri - WBPCB",25-03-2024 17:00:00,26.6879226,88.4152495,OZONE,14,56,48
India,Andhra_Pradesh,Amaravati,"Secretariat, Amaravati - APPCB",25-03-2024 17:00:00,16.5150833,80.5181667,PM10,29,51,40
India,Andhra_Pradesh,Anantapur,"Gulzarpet, Anantapur - APPCB",25-03-2024 17:00:00,14.675886,77.593027,PM10,NA,NA,NA
India,Andhra_Pradesh,Anantapur,"Gulzarpet, Anantapur - APPCB",25-03-2024 17:00:00,14.675886,77.593027,NH3,NA,NA,NA
India,Andhra_Pradesh,Rajamahendravaram,"Anand Kala Kshetram, Rajamahendravaram - APPCB",25-03-2024 17:00:00,16.9872867,81.7363176,NO2,10,21,14
India,Andhra_Pradesh,Rajamahendravaram,"Anand Kala Kshetram, Rajamahendravaram - APPCB",25-03-2024 17:00:00,16.9872867,81.7363176,CO,22,40,35
India,Andhra_Pradesh,Tirupati,"Tirumala, Tirupati - APPCB",25-03-2024 17:00:00,13.67,79.35,PM2.5,39,87,57
India,Andhra_Pradesh,Tirupati,"Tirumala, Tirupati - APPCB",25-03-2024 17:00:00,13.67,79.35,PM10,42,98,63
India,Andhra_Pradesh,Tirupati,"Tirumala, Tirupati - APPCB",25-03-2024 17:00:00,13.67,79.35,NO2,22,48,33
India,Andhra_Pradesh,Vijayawada,"HB Colony, Vijayawada - APPCB",25-03-2024 17:00:00,16.536107,80.594233,CO,32,47,39
India,Andhra_Pradesh,Vijayawada,"Kanuru, Vijayawada - APPCB",25-03-2024 17:00:00,16.486692,80.699436,CO,NA,NA,NA
India,Andhra_Pradesh,Vijayawada,"Rajiv Gandhi Park, Vijayawada - APPCB",25-03-2024 17:00:00,16.509717,80.612222,PM2.5,37,72,54
India,Andhra_Pradesh,Vijayawada,"Rajiv Gandhi Park, Vijayawada - APPCB",25-03-2024 17:00:00,16.509717,80.612222,PM10,35,76,54
India,Andhra_Pradesh,Vijayawada,"Rajiv Gandhi Park, Vijayawada - APPCB",25-03-2024 17:00:00,16.509717,80.612222,NO2,2,56,23
India,Andhra_Pradesh,Vijayawada,"Rajiv Gandhi Park, Vijayawada - APPCB",25-03-2024 17:00:00,16.509717,80.612222,CO,38,52,44
India,Andhra_Pradesh,Vijayawada,"Rajiv Nagar, Vijayawada - APPCB",25-03-2024 17:00:00,16.554731,80.649110,NO2,5,12,7
India,Andhra_Pradesh,Vijayawada,"Rajiv Nagar, Vijayawada - APPCB",25-03-2024 17:00:00,16.554731,80.649110,CO,37,37,37
India,Andhra_Pradesh,Vijayawada,"Rajiv Nagar, Vijayawada - APPCB",25-03-2024 17:00:00,16.554731,80.649110,OZONE,7,36,24
India,Arunachal_Pradesh,Naharlagun,"Naharlagun, Naharlagun - APSPCB",25-03-2024 17:00:00,27.103358,93.679645,OZONE,2,2,2
India,Assam,Byrnihat,"Central Academy for SFS, Byrnihat - PCBA",25-03-2024 17:00:00,26.071318,91.87488,PM10,39,440,187
India,Assam,Byrnihat,"Central Academy for SFS, Byrnihat - PCBA",25-03-2024 17:00:00,26.071318,91.87488,SO2,8,22,13
India,Assam,Byrnihat,"Central Academy for SFS, Byrnihat - PCBA",25-03-2024 17:00:00,26.071318,91.87488,CO,34,94,77
India,Assam,Byrnihat,"Central Academy for SFS, Byrnihat - PCBA",25-03-2024 17:00:00,26.071318,91.87488,OZONE,7,22,12
India,Assam,Guwahati,"IITG, Guwahati - PCBA",25-03-2024 17:00:00,26.2028636,91.70046436,NH3,5,5,5
India,Assam,Guwahati,"LGBI Airport, Guwahati - PCBA",25-03-2024 17:00:00,26.10887,91.589544,NO2,12,62,34
India,Assam,Guwahati,"LGBI Airport, Guwahati - PCBA",25-03-2024 17:00:00,26.10887,91.589544,NH3,1,11,4
India,Assam,Guwahati,"LGBI Airport, Guwahati - PCBA",25-03-2024 17:00:00,26.10887,91.589544,SO2,5,10,7
India,Assam,Nagaon,"Christianpatty, Nagaon - PCBA",25-03-2024 17:00:00,26.349082,92.68449,PM2.5,5,357,79
India,Assam,Nagaon,"Christianpatty, Nagaon - PCBA",25-03-2024 17:00:00,26.349082,92.68449,OZONE,4,77,67
India,Assam,Nalbari,"Bata Chowk, Nalbari - PCBA",25-03-2024 17:00:00,26.446912,91.439057,NO2,5,41,15
India,Assam,Nalbari,"Bata Chowk, Nalbari - PCBA",25-03-2024 17:00:00,26.446912,91.439057,SO2,11,13,11
India,Assam,Nalbari,"Bata Chowk, Nalbari - PCBA",25-03-2024 17:00:00,26.446912,91.439057,OZONE,7,95,76
India,Assam,Silchar,"Tarapur, Silchar - PCBA",25-03-2024 17:00:00,24.82827,92.79525,NO2,18,18,18
India,Assam,Sivasagar,"Girls College, Sivasagar - PCBA",25-03-2024 17:00:00,26.987634,94.636574,NO2,10,21,15
India,Bihar,Araria,"Kharahiya Basti, Araria - BSPCB",25-03-2024 17:00:00,26.146529,87.454184,CO,15,34,31
India,Bihar,Aurangabad,"Gurdeo Nagar, Aurangabad - BSPCB",25-03-2024 17:00:00,24.75746,84.366208,PM2.5,55,307,134
India,Bihar,Bettiah,"Kamalnath Nagar, Bettiah - BSPCB",25-03-2024 17:00:00,26.80365,84.51954,PM2.5,70,328,166
India,Bihar,Bettiah,"Kamalnath Nagar, Bettiah - BSPCB",25-03-2024 17:00:00,26.80365,84.51954,SO2,11,20,18
India,Bihar,Bettiah,"Kamalnath Nagar, Bettiah - BSPCB",25-03-2024 17:00:00,26.80365,84.51954,OZONE,2,12,9
India,Bihar,Bhagalpur,"DM Office_Kachari Chowk, Bhagalpur - BSPCB",25-03-2024 17:00:00,25.251013,86.989001,PM2.5,NA,NA,NA
India,Bihar,Bhagalpur,"Mayaganj, Bhagalpur - BSPCB",25-03-2024 17:00:00,25.265194,87.012947,NH3,6,8,7
India,Bihar,Bhagalpur,"Mayaganj, Bhagalpur - BSPCB",25-03-2024 17:00:00,25.265194,87.012947,OZONE,9,14,12
India,Bihar,Bihar Sharif,"D M Colony, Bihar Sharif - BSPCB",25-03-2024 17:00:00,25.204762,85.514960,PM10,NA,NA,NA
India,Bihar,Bihar Sharif,"D M Colony, Bihar Sharif - BSPCB",25-03-2024 17:00:00,25.204762,85.514960,NO2,8,10,9
India,Bihar,Bihar Sharif,"D M Colony, Bihar Sharif - BSPCB",25-03-2024 17:00:00,25.204762,85.514960,SO2,2,14,7
India,Bihar,Buxar,"Charitra Van, Buxar - BSPCB (Formerly known as Central Jail)",25-03-2024 17:00:00,25.567520,83.966379,SO2,12,18,18
India,Bihar,Chhapra,"Darshan Nagar, Chhapra - BSPCB",25-03-2024 17:00:00,25.7808257,84.7446768,NO2,14,23,18
India,Bihar,Chhapra,"Darshan Nagar, Chhapra - BSPCB",25-03-2024 17:00:00,25.7808257,84.7446768,SO2,2,22,9
India,Bihar,Chhapra,"Darshan Nagar, Chhapra - BSPCB",25-03-2024 17:00:00,25.7808257,84.7446768,OZONE,1,9,5
India,Bihar,Gaya,"Collectorate, Gaya - BSPCB",25-03-2024 17:00:00,24.7955,84.9994,OZONE,53,75,65
India,Bihar,Gaya,"SFTI Kusdihra, Gaya - BSPCB",25-03-2024 17:00:00,24.762518,84.982348,PM10,65,113,95
India,Bihar,Hajipur,"Industrial Area, Hajipur - BSPCB",25-03-2024 17:00:00,25.697189,85.245900,PM10,96,143,117
India,Bihar,Hajipur,"Industrial Area, Hajipur - BSPCB",25-03-2024 17:00:00,25.697189,85.245900,NO2,18,36,24
India,Bihar,Hajipur,"Industrial Area, Hajipur - BSPCB",25-03-2024 17:00:00,25.697189,85.245900,OZONE,4,39,25
India,Bihar,Manguraha,"Forest Rest House, Manguraha - BSPCB",25-03-2024 17:00:00,27.308328,84.531742,OZONE,16,40,37
India,Bihar,Munger,"Town Hall, Munger - BSPCB",25-03-2024 17:00:00,25.376776,86.471523,PM2.5,88,163,121
India,Bihar,Munger,"Town Hall, Munger - BSPCB",25-03-2024 17:00:00,25.376776,86.471523,PM10,104,139,121
India,Bihar,Munger,"Town Hall, Munger - BSPCB",25-03-2024 17:00:00,25.376776,86.471523,NO2,7,9,9
India,Bihar,Munger,"Town Hall, Munger - BSPCB",25-03-2024 17:00:00,25.376776,86.471523,NH3,1,2,2
India,Bihar,Muzaffarpur,"Buddha Colony, Muzaffarpur - BSPCB",25-03-2024 17:00:00,26.11442,85.39813,PM10,110,144,122
India,Bihar,Muzaffarpur,"MIT-Daudpur Kothi, Muzaffarpur - BSPCB",25-03-2024 17:00:00,26.1403345,85.3650192,OZONE,8,59,33
India,Bihar,Patna,"DRM Office Danapur, Patna - BSPCB",25-03-2024 17:00:00,25.586562,85.043586,SO2,6,8,7
India,Bihar,Patna,"DRM Office Danapur, Patna - BSPCB",25-03-2024 17:00:00,25.586562,85.043586,CO,36,102,46
India,Bihar,Patna,"Govt. High School Shikarpur, Patna - BSPCB",25-03-2024 17:00:00,25.592539,85.227158,SO2,9,12,11
India,Bihar,Patna,"IGSC Planetarium Complex, Patna - BSPCB",25-03-2024 17:00:00,25.610369,85.132568,OZONE,57,119,83
India,Bihar,Purnia,"Mariam Nagar, Purnia - BSPCB",25-03-2024 17:00:00,25.366336,87.117468,PM2.5,5,93,55
India,Bihar,Purnia,"Mariam Nagar, Purnia - BSPCB",25-03-2024 17:00:00,25.366336,87.117468,NO2,5,7,6
India,Bihar,Rajgir,"Dangi Tola, Rajgir - BSPCB",25-03-2024 17:00:00,25.03280,85.41948,PM2.5,42,476,324
India,Bihar,Rajgir,"Dangi Tola, Rajgir - BSPCB",25-03-2024 17:00:00,25.03280,85.41948,SO2,4,4,4
India,Bihar,Saharsa,"Police Line, Saharsa - BSPCB",25-03-2024 17:00:00,25.892357,86.590325,PM10,50,118,74
India,Bihar,Saharsa,"Police Line, Saharsa - BSPCB",25-03-2024 17:00:00,25.892357,86.590325,NO2,6,9,7
India,Bihar,Samastipur,"DM Office_Kasipur, Samastipur - BSPCB",25-03-2024 17:00:00,25.859655,85.77944,NO2,33,45,39
India,Bihar,Samastipur,"DM Office_Kasipur, Samastipur - BSPCB",25-03-2024 17:00:00,25.859655,85.77944,NH3,3,4,4
India,Bihar,Samastipur,"DM Office_Kasipur, Samastipur - BSPCB",25-03-2024 17:00:00,25.859655,85.77944,CO,8,30,23
India,Chandigarh,Chandigarh,"Sector 22, Chandigarh - CPCC",25-03-2024 17:00:00,30.735567,76.775714,NH3,6,10,7
India,Chandigarh,Chandigarh,"Sector 22, Chandigarh - CPCC",25-03-2024 17:00:00,30.735567,76.775714,OZONE,3,114,90
India,Chandigarh,Chandigarh,"Sector-53, Chandigarh - CPCC",25-03-2024 17:00:00,30.719859,76.738637,NH3,4,6,5
India,Chhattisgarh,Bhilai,"32Bungalows, Bhilai - CECB",25-03-2024 17:00:00,21.194815,81.314770,SO2,4,9,6
India,Chhattisgarh,Bhilai,"Hathkhoj, Bhilai - CECB",25-03-2024 17:00:00,21.224231,81.408350,PM10,37,133,86
India,Chhattisgarh,Chhal,"Nawapara SECL Colony, Chhal - CECB",25-03-2024 17:00:00,22.118125,83.140608,CO,34,102,59
India,Chhattisgarh,Korba,"Rampur, Korba - CECB",25-03-2024 17:00:00,22.368195,82.746431,PM2.5,13,114,59
India,Chhattisgarh,Korba,"Rampur, Korba - CECB",25-03-2024 17:00:00,22.368195,82.746431,SO2,7,10,9
India,Chhattisgarh,Korba,"Urja Nagar, Korba - CECB",25-03-2024 17:00:00,22.348441,82.549611,NO2,62,85,76
India,Chhattisgarh,Korba,"Urja Nagar, Korba - CECB",25-03-2024 17:00:00,22.348441,82.549611,NH3,1,11,7
India,Chhattisgarh,Korba,"Urja Nagar, Korba - CECB",25-03-2024 17:00:00,22.348441,82.549611,SO2,1,6,4
India,Chhattisgarh,Korba,"Urja Nagar, Korba - CECB",25-03-2024 17:00:00,22.348441,82.549611,CO,31,102,72
India,Chhattisgarh,Korba,"Urja Nagar, Korba - CECB",25-03-2024 17:00:00,22.348441,82.549611,OZONE,1,3,1
India,Chhattisgarh,Kunjemura,"OP Jindal School, Kunjemura - CECB",25-03-2024 17:00:00,22.126650,83.483212,NH3,1,4,2
India,Chhattisgarh,Kunjemura,"OP Jindal School, Kunjemura - CECB",25-03-2024 17:00:00,22.126650,83.483212,SO2,2,18,7
India,Chhattisgarh,Kunjemura,"OP Jindal School, Kunjemura - CECB",25-03-2024 17:00:00,22.126650,83.483212,CO,32,84,49
India,Chhattisgarh,Raipur,"AIIMS, Raipur - CECB",25-03-2024 17:00:00,21.258815,81.578979,PM10,35,95,63
India,Chhattisgarh,Raipur,"AIIMS, Raipur - CECB",25-03-2024 17:00:00,21.258815,81.578979,SO2,4,17,8
India,Chhattisgarh,Raipur,"Bhatagaon New ISBT, Raipur - CECB",25-03-2024 17:00:00,21.219665,81.630094,PM10,37,102,64
India,Chhattisgarh,Raipur,"Krishak Nagar, Raipur - CECB",25-03-2024 17:00:00,21.237755,81.705301,NH3,1,1,1
India,Chhattisgarh,Raipur,"Krishak Nagar, Raipur - CECB",25-03-2024 17:00:00,21.237755,81.705301,SO2,9,15,11
India,Chhattisgarh,Raipur,"Siltara Phase-II, Raipur - CECB",25-03-2024 17:00:00,21.371751,81.664929,NO2,35,71,55
India,Chhattisgarh,Tumidih,"OP Jindal Industrial Park, Tumidih - CECB",25-03-2024 17:00:00,22.06631475,83.33820077,NH3,NA,NA,NA
India,Chhattisgarh,Tumidih,"OP Jindal Industrial Park, Tumidih - CECB",25-03-2024 17:00:00,22.06631475,83.33820077,CO,NA,NA,NA
India,Delhi,Delhi,"Alipur, Delhi - DPCC",25-03-2024 17:00:00,28.815329,77.153010,NO2,3,59,24
India,Delhi,Delhi,"Alipur, Delhi - DPCC",25-03-2024 17:00:00,28.815329,77.153010,CO,32,71,36
India,Delhi,Delhi,"Anand Vihar, Delhi - DPCC",25-03-2024 17:00:00,28.647622,77.3158090,PM10,NA,NA,NA
India,Delhi,Delhi,"Anand Vihar, Delhi - DPCC",25-03-2024 17:00:00,28.647622,77.3158090,SO2,NA,NA,NA
India,Delhi,Delhi,"Ashok Vihar, Delhi - DPCC",25-03-2024 17:00:00,28.695381,77.181665,NH3,14,16,15
India,Delhi,Delhi,"Ashok Vihar, Delhi - DPCC",25-03-2024 17:00:00,28.695381,77.181665,OZONE,2,5,4
India,Delhi,Delhi,"Aya Nagar, Delhi - IMD",25-03-2024 17:00:00,28.4706914,77.1099364,CO,NA,NA,NA
India,Delhi,Delhi,"Aya Nagar, Delhi - IMD",25-03-2024 17:00:00,28.4706914,77.1099364,OZONE,NA,NA,NA
India,Delhi,Delhi,"Bawana, Delhi - DPCC",25-03-2024 17:00:00,28.776200,77.051074,PM10,77,361,191
India,Delhi,Delhi,"Burari Crossing, Delhi - IMD",25-03-2024 17:00:00,28.7256504,77.2011573,OZONE,25,41,32
India,Delhi,Delhi,"CRRI Mathura Road, Delhi - IMD",25-03-2024 17:00:00,28.5512005,77.2735737,OZONE,2,37,20
India,Delhi,Delhi,"Chandni Chowk, Delhi - IITM",25-03-2024 17:00:00,28.656756,77.227234,PM2.5,NA,NA,NA
India,Delhi,Delhi,"DTU, Delhi - CPCB",25-03-2024 17:00:00,28.7500499,77.1112615,CO,15,62,29
India,Delhi,Delhi,"Dr. Karni Singh Shooting Range, Delhi - DPCC",25-03-2024 17:00:00,28.498571,77.264840,NH3,7,11,9
India,Delhi,Delhi,"Dr. Karni Singh Shooting Range, Delhi - DPCC",25-03-2024 17:00:00,28.498571,77.264840,SO2,16,49,26
India,Delhi,Delhi,"IGI Airport (T3), Delhi - IMD",25-03-2024 17:00:00,28.5627763,77.1180053,OZONE,1,26,15
India,Delhi,Delhi,"IHBAS, Dilshad Garden, Delhi - CPCB",25-03-2024 17:00:00,28.6811736,77.3025234,CO,12,116,37
India,Delhi,Delhi,"ITO, Delhi - CPCB",25-03-2024 17:00:00,28.628624,77.241060,PM2.5,26,416,226
India,Delhi,Delhi,"ITO, Delhi - CPCB",25-03-2024 17:00:00,28.628624,77.241060,NO2,15,148,71
India,Delhi,Delhi,"ITO, Delhi - CPCB",25-03-2024 17:00:00,28.628624,77.241060,OZONE,18,60,44
India,Delhi,Delhi,"Jahangirpuri, Delhi - DPCC",25-03-2024 17:00:00,28.732820,77.170633,PM10,76,421,225
India,Delhi,Delhi,"Jahangirpuri, Delhi - DPCC",25-03-2024 17:00:00,28.732820,77.170633,NO2,16,134,60
India,Delhi,Delhi,"Jahangirpuri, Delhi - DPCC",25-03-2024 17:00:00,28.732820,77.170633,CO,38,141,50
India,Delhi,Delhi,"Lodhi Road, Delhi - IITM",25-03-2024 17:00:00,28.588333,77.221667,NH3,8,12,10
India,Delhi,Delhi,"Lodhi Road, Delhi - IMD",25-03-2024 17:00:00,28.5918245,77.2273074,OZONE,9,28,21
India,Delhi,Delhi,"Major Dhyan Chand National Stadium, Delhi - DPCC",25-03-2024 17:00:00,28.611281,77.237738,NH3,6,13,9
India,Delhi,Delhi,"Mandir Marg, Delhi - DPCC",25-03-2024 17:00:00,28.636429,77.201067,NH3,7,8,7
India,Delhi,Delhi,"Mundka, Delhi - DPCC",25-03-2024 17:00:00,28.684678,77.076574,NO2,13,82,42
India,Delhi,Delhi,"Mundka, Delhi - DPCC",25-03-2024 17:00:00,28.684678,77.076574,SO2,8,77,22
India,Delhi,Delhi,"NSIT Dwarka, Delhi - CPCB",25-03-2024 17:00:00,28.60909,77.0325413,CO,34,94,41
India,Delhi,Delhi,"NSIT Dwarka, Delhi - CPCB",25-03-2024 17:00:00,28.60909,77.0325413,OZONE,1,34,20
India,Delhi,Delhi,"Najafgarh, Delhi - DPCC",25-03-2024 17:00:00,28.570173,76.933762,NO2,3,15,8
India,Delhi,Delhi,"Narela, Delhi - DPCC",25-03-2024 17:00:00,28.822836,77.101981,PM2.5,27,399,184
India,Delhi,Delhi,"Narela, Delhi - DPCC",25-03-2024 17:00:00,28.822836,77.101981,SO2,8,58,27
India,Delhi,Delhi,"Narela, Delhi - DPCC",25-03-2024 17:00:00,28.822836,77.101981,OZONE,8,84,68
India,Delhi,Delhi,"Nehru Nagar, Delhi - DPCC",25-03-2024 17:00:00,28.567890,77.250515,CO,6,109,51
India,Delhi,Delhi,"Nehru Nagar, Delhi - DPCC",25-03-2024 17:00:00,28.567890,77.250515,OZONE,3,84,70
India,Delhi,Delhi,"New Moti Bagh, Delhi - MHUA",25-03-2024 17:00:00,28.57834,77.18400,CO,10,97,22
India,Delhi,Delhi,"North Campus, DU, Delhi - IMD",25-03-2024 17:00:00,28.6573814,77.1585447,CO,4,120,12
India,Delhi,Delhi,"Okhla Phase-2, Delhi - DPCC",25-03-2024 17:00:00,28.530785,77.271255,CO,10,114,48
India,Delhi,Delhi,"Patparganj, Delhi - DPCC",25-03-2024 17:00:00,28.623763,77.287209,NO2,19,60,34
India,Delhi,Delhi,"Punjabi Bagh, Delhi - DPCC",25-03-2024 17:00:00,28.674045,77.131023,PM2.5,30,446,211
India,Delhi,Delhi,"Punjabi Bagh, Delhi - DPCC",25-03-2024 17:00:00,28.674045,77.131023,PM10,52,419,174
India,Delhi,Delhi,"Pusa, Delhi - DPCC",25-03-2024 17:00:00,28.639652,77.146275,PM2.5,30,342,157
India,Delhi,Delhi,"Pusa, Delhi - DPCC",25-03-2024 17:00:00,28.639652,77.146275,NH3,7,12,9
India,Delhi,Delhi,"R K Puram, Delhi - DPCC",25-03-2024 17:00:00,28.563262,77.186937,PM2.5,42,460,220
India,Delhi,Delhi,"R K Puram, Delhi - DPCC",25-03-2024 17:00:00,28.563262,77.186937,NO2,8,36,22
India,Delhi,Delhi,"Rohini, Delhi - DPCC",25-03-2024 17:00:00,28.732528,77.119920,NO2,7,68,32
India,Delhi,Delhi,"Rohini, Delhi - DPCC",25-03-2024 17:00:00,28.732528,77.119920,SO2,12,104,34
India,Delhi,Delhi,"Shadipur, Delhi - CPCB",25-03-2024 17:00:00,28.6514781,77.1473105,PM2.5,82,335,185
India,Delhi,Delhi,"Shadipur, Delhi - CPCB",25-03-2024 17:00:00,28.6514781,77.1473105,NH3,NA,NA,NA
India,Delhi,Delhi,"Sonia Vihar, Delhi - DPCC",25-03-2024 17:00:00,28.710508,77.249485,PM10,61,374,169
India,Delhi,Delhi,"Sonia Vihar, Delhi - DPCC",25-03-2024 17:00:00,28.710508,77.249485,NO2,14,80,37
India,Delhi,Delhi,"Sonia Vihar, Delhi - DPCC",25-03-2024 17:00:00,28.710508,77.249485,CO,46,107,54
India,Delhi,Delhi,"Sonia Vihar, Delhi - DPCC",25-03-2024 17:00:00,28.710508,77.249485,OZONE,9,39,31
India,Delhi,Delhi,"Sri Aurobindo Marg, Delhi - DPCC",25-03-2024 17:00:00,28.531346,77.190156,NH3,7,10,8
India,Delhi,Delhi,"Sri Aurobindo Marg, Delhi - DPCC",25-03-2024 17:00:00,28.531346,77.190156,OZONE,2,33,27
India,Delhi,Delhi,"Vivek Vihar, Delhi - DPCC",25-03-2024 17:00:00,28.672342,77.315260,PM2.5,NA,NA,NA
India,Delhi,Delhi,"Vivek Vihar, Delhi - DPCC",25-03-2024 17:00:00,28.672342,77.315260,SO2,30,74,41
India,Gujarat,Ahmedabad,"Chandkheda, Ahmedabad - IITM",25-03-2024 17:00:00,23.107969,72.574648,PM10,64,284,101
India,Gujarat,Ahmedabad,"Gyaspur, Ahmedabad - IITM",25-03-2024 17:00:00,22.977134,72.553024,CO,18,76,25
India,Gujarat,Ahmedabad,"Maninagar, Ahmedabad - GPCB",25-03-2024 17:00:00,23.002657,72.591912,PM2.5,NA,NA,NA
India,Gujarat,Ahmedabad,"Raikhad, Ahmedabad - IITM",25-03-2024 17:00:00,23.020509,72.579261,OZONE,6,44,27
India,Gujarat,Ahmedabad,"Rakhial, Ahmedabad - IITM",25-03-2024 17:00:00,23.016834,72.625775,PM2.5,47,191,88
India,Gujarat,Ahmedabad,"SAC ISRO Satellite, Ahmedabad - IITM",25-03-2024 17:00:00,23.023389,72.515201,NO2,17,17,17
India,Gujarat,Ahmedabad,"SVPI Airport Hansol, Ahmedabad - IITM",25-03-2024 17:00:00,23.076793,72.627874,NO2,15,20,17
India,Gujarat,Gandhinagar,"IIPHG Lekawada, Gandhinagar - IITM",25-03-2024 17:00:00,23.243639,72.68994,CO,22,24,23
India,Gujarat,Gandhinagar,"Sector-10, Gandhinagar - GPCB",25-03-2024 17:00:00,23.221714,72.654328,PM2.5,25,59,40
India,Gujarat,Gandhinagar,"Sector-10, Gandhinagar - GPCB",25-03-2024 17:00:00,23.221714,72.654328,PM10,41,89,59
India,Gujarat,Gandhinagar,"Sector-10, Gandhinagar - GPCB",25-03-2024 17:00:00,23.221714,72.654328,NO2,17,22,19
India,Gujarat,Gandhinagar,"Sector-10, Gandhinagar - GPCB",25-03-2024 17:00:00,23.221714,72.654328,NH3,1,2,1
India,Gujarat,Gandhinagar,"Sector-10, Gandhinagar - GPCB",25-03-2024 17:00:00,23.221714,72.654328,CO,26,88,28
India,Gujarat,Surat,"Science Center, Surat - SMC",25-03-2024 17:00:00,21.170046,72.795405,NO2,25,42,33
India,Gujarat,Vapi,"Phase-1 GIDC, Vapi - GPCB",25-03-2024 17:00:00,20.362421,72.918013,NO2,6,8,6
India,Haryana,Bahadurgarh,"Arya Nagar, Bahadurgarh - HSPCB",25-03-2024 17:00:00,28.6701,76.9254,PM10,42,137,104
India,Haryana,Bahadurgarh,"Arya Nagar, Bahadurgarh - HSPCB",25-03-2024 17:00:00,28.6701,76.9254,OZONE,38,55,46
India,Haryana,Ballabgarh,"Nathu Colony, Ballabgarh - HSPCB",25-03-2024 17:00:00,28.3419248,77.319699,PM2.5,58,296,197
India,Haryana,Ballabgarh,"Nathu Colony, Ballabgarh - HSPCB",25-03-2024 17:00:00,28.3419248,77.319699,PM10,65,216,160
India,Haryana,Bhiwani,"H.B. Colony, Bhiwani - HSPCB",25-03-2024 17:00:00,28.806223,76.141105,PM10,23,97,60
India,Haryana,Bhiwani,"H.B. Colony, Bhiwani - HSPCB",25-03-2024 17:00:00,28.806223,76.141105,NO2,4,12,9
India,Haryana,Charkhi Dadri,"Mini Secretariat, Charkhi Dadri - HSPCB",25-03-2024 17:00:00,28.593883,76.270653,CO,12,86,19
India,Haryana,Dharuhera,"Municipal Corporation Office, Dharuhera -  HSPCB",25-03-2024 17:00:00,28.206800,76.799700,OZONE,41,42,42
India,Haryana,Faridabad,"New Industrial Town, Faridabad - HSPCB",25-03-2024 17:00:00,28.39072,77.30059,PM10,NA,NA,NA
India,Haryana,Faridabad,"Sector 11, Faridabad - HSPCB",25-03-2024 17:00:00,28.376058,77.315741,NH3,6,7,6
India,Haryana,Faridabad,"Sector 11, Faridabad - HSPCB",25-03-2024 17:00:00,28.376058,77.315741,CO,NA,NA,NA
India,Haryana,Faridabad,"Sector 30, Faridabad - HSPCB",25-03-2024 17:00:00,28.4417,77.3217,NO2,30,32,31
India,Haryana,Faridabad,"Sector 30, Faridabad - HSPCB",25-03-2024 17:00:00,28.4417,77.3217,SO2,2,7,4
India,Haryana,Fatehabad,"Huda Sector, Fatehabad - HSPCB",25-03-2024 17:00:00,29.503664,75.467934,PM10,43,69,53
India,Haryana,Fatehabad,"Huda Sector, Fatehabad - HSPCB",25-03-2024 17:00:00,29.503664,75.467934,NH3,12,14,13
India,Haryana,Fatehabad,"Huda Sector, Fatehabad - HSPCB",25-03-2024 17:00:00,29.503664,75.467934,CO,5,12,6
India,Haryana,Gurugram,"Sector-51, Gurugram - HSPCB",25-03-2024 17:00:00,28.4227,77.0667,SO2,2,4,3
India,Haryana,Gurugram,"Sector-51, Gurugram - HSPCB",25-03-2024 17:00:00,28.4227,77.0667,CO,32,99,47
India,Haryana,Gurugram,"Teri Gram, Gurugram - HSPCB",25-03-2024 17:00:00,28.4275,77.1465,PM2.5,42,321,186
India,Haryana,Gurugram,"Teri Gram, Gurugram - HSPCB",25-03-2024 17:00:00,28.4275,77.1465,NH3,46,75,60
India,Haryana,Gurugram,"Teri Gram, Gurugram - HSPCB",25-03-2024 17:00:00,28.4275,77.1465,CO,12,42,22
India,Haryana,Hisar,"Urban Estate-II, Hisar - HSPCB",25-03-2024 17:00:00,29.140560,75.744941,CO,40,92,40
India,Haryana,Jind,"Police Lines, Jind - HSPCB",25-03-2024 17:00:00,29.307814,76.337619,PM2.5,25,86,56
India,Haryana,Jind,"Police Lines, Jind - HSPCB",25-03-2024 17:00:00,29.307814,76.337619,PM10,39,105,69
India,Haryana,Jind,"Police Lines, Jind - HSPCB",25-03-2024 17:00:00,29.307814,76.337619,SO2,4,37,20
India,Haryana,Kaithal,"Rishi Nagar, Kaithal - HSPCB",25-03-2024 17:00:00,29.8006,76.4155,PM2.5,32,153,66
India,Haryana,Karnal,"Sector-12, Karnal - HSPCB",25-03-2024 17:00:00,29.695300,77.002700,PM2.5,58,87,74
India,Haryana,Karnal,"Sector-12, Karnal - HSPCB",25-03-2024 17:00:00,29.695300,77.002700,NO2,7,12,10
India,Haryana,Kurukshetra,"Sector-7, Kurukshetra - HSPCB",25-03-2024 17:00:00,29.966942,76.875879,CO,5,68,13
India,Haryana,Mandikhera,"General Hospital, Mandikhera - HSPCB",25-03-2024 17:00:00,27.9002,76.9938,CO,15,31,22
India,Haryana,Mandikhera,"General Hospital, Mandikhera - HSPCB",25-03-2024 17:00:00,27.9002,76.9938,OZONE,21,31,27
India,Haryana,Narnaul,"Shastri Nagar, Narnaul - HSPCB",25-03-2024 17:00:00,28.060249,76.113115,NH3,4,24,12
India,Haryana,Panipat,"Sector-18, Panipat - HSPCB",25-03-2024 17:00:00,29.497973,76.993331,NO2,31,32,31
India,Haryana,Panipat,"Sector-18, Panipat - HSPCB",25-03-2024 17:00:00,29.497973,76.993331,OZONE,29,30,30
India,Haryana,Rohtak,"MD University, Rohtak - HSPCB",25-03-2024 17:00:00,28.52123,76.37138,SO2,NA,NA,NA
India,Haryana,Sirsa,"F-Block, Sirsa - HSPCB",25-03-2024 17:00:00,29.536400,75.015800,PM2.5,31,102,53
India,Haryana,Sirsa,"F-Block, Sirsa - HSPCB",25-03-2024 17:00:00,29.536400,75.015800,NH3,11,13,13
India,Haryana,Sirsa,"F-Block, Sirsa - HSPCB",25-03-2024 17:00:00,29.536400,75.015800,CO,25,46,38
India,Haryana,Sonipat,"Murthal, Sonipat - HSPCB",25-03-2024 17:00:00,29.027200,77.062100,SO2,13,29,20
India,Haryana,Sonipat,"Murthal, Sonipat - HSPCB",25-03-2024 17:00:00,29.027200,77.062100,CO,12,24,17
India,Haryana,Sonipat,"Murthal, Sonipat - HSPCB",25-03-2024 17:00:00,29.027200,77.062100,OZONE,17,36,32
India,Haryana,Yamuna Nagar,"Gobind Pura, Yamuna Nagar - HSPCB",25-03-2024 17:00:00,30.1480566,77.2893471,NO2,NA,NA,NA
India,Haryana,Yamuna Nagar,"Gobind Pura, Yamuna Nagar - HSPCB",25-03-2024 17:00:00,30.1480566,77.2893471,SO2,NA,NA,NA
India,Himachal Pradesh,Baddi,"HIMUDA Complex Phase-1, Baddi - HPPCB",25-03-2024 17:00:00,30.943887,76.801991,SO2,8,41,17
India,Himachal Pradesh,Baddi,"HIMUDA Complex Phase-1, Baddi - HPPCB",25-03-2024 17:00:00,30.943887,76.801991,CO,8,42,18
India,Jharkhand,Dhanbad,"Kalakusuma, Dhanbad - DMC",25-03-2024 17:00:00,23.811548,86.481238,PM2.5,23,207,77
India,Jharkhand,Dhanbad,"Kalakusuma, Dhanbad - DMC",25-03-2024 17:00:00,23.811548,86.481238,PM10,102,235,152
India,Jharkhand,Dhanbad,"Kalakusuma, Dhanbad - DMC",25-03-2024 17:00:00,23.811548,86.481238,SO2,14,18,16
India,Karnataka,Bagalkot,"Vidayagiri, Bagalkot - KSPCB",25-03-2024 17:00:00,16.172806,75.659694,PM2.5,19,37,36
India,Karnataka,Bagalkot,"Vidayagiri, Bagalkot - KSPCB",25-03-2024 17:00:00,16.172806,75.659694,NH3,1,2,1
India,Karnataka,Bengaluru,"Bapuji Nagar, Bengaluru - KSPCB",25-03-2024 17:00:00,12.951913,77.539784,CO,27,38,29
India,Karnataka,Bengaluru,"Hombegowda Nagar, Bengaluru - KSPCB",25-03-2024 17:00:00,12.938539,77.590100,OZONE,4,5,5
India,Karnataka,Bengaluru,"Jayanagar 5th Block, Bengaluru - KSPCB",25-03-2024 17:00:00,12.920984,77.584908,PM2.5,55,138,72
India,Karnataka,Bengaluru,"Jayanagar 5th Block, Bengaluru - KSPCB",25-03-2024 17:00:00,12.920984,77.584908,PM10,58,192,96
India,Karnataka,Bengaluru,"Kasturi Nagar, Bengaluru - KSPCB",25-03-2024 17:00:00,13.003872,77.664217,PM2.5,74,144,100
India,Karnataka,Bengaluru,"Kasturi Nagar, Bengaluru - KSPCB",25-03-2024 17:00:00,13.003872,77.664217,CO,22,25,24
India,Karnataka,Bengaluru,"Peenya, Bengaluru - CPCB",25-03-2024 17:00:00,13.0270199,77.494094,NO2,NA,NA,NA
India,Karnataka,Bengaluru,"Peenya, Bengaluru - CPCB",25-03-2024 17:00:00,13.0270199,77.494094,CO,22,34,29
India,Karnataka,Bengaluru,"RVCE-Mailasandra, Bengaluru - KSPCB",25-03-2024 17:00:00,12.921418,77.502466,NO2,16,17,17
India,Karnataka,Bengaluru,"RVCE-Mailasandra, Bengaluru - KSPCB",25-03-2024 17:00:00,12.921418,77.502466,OZONE,10,10,10
India,Karnataka,Bengaluru,"Sanegurava Halli, Bengaluru - KSPCB",25-03-2024 17:00:00,12.990328,77.5431385,SO2,2,3,3
India,Karnataka,Bengaluru,"Shivapura_Peenya, Bengaluru - KSPCB",25-03-2024 17:00:00,13.0246342,77.5080115,PM2.5,3,111,52
India,Karnataka,Bengaluru,"Shivapura_Peenya, Bengaluru - KSPCB",25-03-2024 17:00:00,13.0246342,77.5080115,SO2,6,20,9
India,Karnataka,Bengaluru,"Shivapura_Peenya, Bengaluru - KSPCB",25-03-2024 17:00:00,13.0246342,77.5080115,OZONE,54,56,54
India,Karnataka,Bengaluru,"Silk Board, Bengaluru - KSPCB",25-03-2024 17:00:00,12.917348,77.622813,PM10,42,106,73
India,Karnataka,Bengaluru,"Silk Board, Bengaluru - KSPCB",25-03-2024 17:00:00,12.917348,77.622813,NH3,6,8,7
India,Karnataka,Bengaluru,"Silk Board, Bengaluru - KSPCB",25-03-2024 17:00:00,12.917348,77.622813,SO2,5,17,10
India,Karnataka,Bidar,"Naubad, Bidar - KSPCB",25-03-2024 17:00:00,17.930306,77.482194,PM2.5,42,105,70
India,Karnataka,Bidar,"Naubad, Bidar - KSPCB",25-03-2024 17:00:00,17.930306,77.482194,SO2,15,21,17
India,Karnataka,Chikkaballapur,"Chikkaballapur Rural, Chikkaballapur - KSPCB",25-03-2024 17:00:00,13.428828,77.731418,PM2.5,32,77,55
India,Karnataka,Chikkaballapur,"Chikkaballapur Rural, Chikkaballapur - KSPCB",25-03-2024 17:00:00,13.428828,77.731418,SO2,14,23,18
India,Karnataka,Chikkamagaluru,"Kalyana Nagara, Chikkamagaluru - KSPCB",25-03-2024 17:00:00,13.328028,75.797056,PM2.5,4,38,17
India,Karnataka,Davanagere,"Devaraj Urs Badavane, Davanagere - KSPCB",25-03-2024 17:00:00,14.475800,75.905200,PM10,60,125,79
India,Karnataka,Davanagere,"Devaraj Urs Badavane, Davanagere - KSPCB",25-03-2024 17:00:00,14.475800,75.905200,OZONE,21,29,26
India,Karnataka,Gadag,"Panchal Nagar, Gadag - KSPCB",25-03-2024 17:00:00,15.411456,75.638133,SO2,NA,NA,NA
India,Karnataka,Hassan,"B.Katihalli, Hassan - KSPCB",25-03-2024 17:00:00,13.008556,76.125258,NH3,NA,NA,NA
India,Karnataka,Hassan,"B.Katihalli, Hassan - KSPCB",25-03-2024 17:00:00,13.008556,76.125258,CO,8,11,10
India,Karnataka,Hassan,"B.Katihalli, Hassan - KSPCB",25-03-2024 17:00:00,13.008556,76.125258,OZONE,7,30,21
India,Karnataka,Haveri,"Ashwini Nagar, Haveri - KSPCB",25-03-2024 17:00:00,14.791800,75.389600,NO2,27,40,33
India,Karnataka,Haveri,"Ashwini Nagar, Haveri - KSPCB",25-03-2024 17:00:00,14.791800,75.389600,NH3,3,4,3
India,Karnataka,Haveri,"Ashwini Nagar, Haveri - KSPCB",25-03-2024 17:00:00,14.791800,75.389600,SO2,14,14,14
India,Karnataka,Haveri,"Ashwini Nagar, Haveri - KSPCB",25-03-2024 17:00:00,14.791800,75.389600,OZONE,18,26,24
India,Karnataka,Hubballi,"Lingaraj Nagar, Hubballi - KSPCB",25-03-2024 17:00:00,15.3714823,75.1160168,PM10,50,79,63
India,Karnataka,Hubballi,"Lingaraj Nagar, Hubballi - KSPCB",25-03-2024 17:00:00,15.3714823,75.1160168,NO2,7,16,15
India,Karnataka,Hubballi,"Lingaraj Nagar, Hubballi - KSPCB",25-03-2024 17:00:00,15.3714823,75.1160168,NH3,2,2,2
India,Karnataka,Hubballi,"Lingaraj Nagar, Hubballi - KSPCB",25-03-2024 17:00:00,15.3714823,75.1160168,SO2,1,5,2
India,Karnataka,Kalaburagi,"Lal Bahadur Shastri Nagar, Kalaburagi - KSPCB",25-03-2024 17:00:00,17.321993,76.822628,OZONE,24,98,74
India,Karnataka,Kalaburagi,"Mahatma Basaveswar Colony, Kalaburgi - KSPCB",25-03-2024 17:00:00,17.336318,76.847397,OZONE,8,24,17
India,Karnataka,Karwar,"KHB Colony, Karwar - KSPCB",25-03-2024 17:00:00,14.816666,74.141003,PM2.5,35,90,55
India,Karnataka,Karwar,"KHB Colony, Karwar - KSPCB",25-03-2024 17:00:00,14.816666,74.141003,NO2,3,19,8
India,Karnataka,Koppal,"Diwator Nagar, Koppal - KSPCB",25-03-2024 17:00:00,15.347630,76.181767,PM10,NA,NA,NA
India,Karnataka,Mysuru,"Hebbal 1st Stage, Mysuru - KSPCB",25-03-2024 17:00:00,12.21041,76.37376,SO2,2,11,4
India,Karnataka,Raichur,"Haji Colony, Raichur - KSPCB",25-03-2024 17:00:00,16.208139,77.348417,NH3,1,3,2
India,Karnataka,Raichur,"Haji Colony, Raichur - KSPCB",25-03-2024 17:00:00,16.208139,77.348417,SO2,67,83,74
India,Karnataka,Ramanagara,"Vijay Nagar, Ramanagara - KSPCB",25-03-2024 17:00:00,12.733409,77.298051,NO2,3,19,6
India,Karnataka,Ramanagara,"Vijay Nagar, Ramanagara - KSPCB",25-03-2024 17:00:00,12.733409,77.298051,OZONE,28,30,29
India,Karnataka,Shivamogga,"Vinoba Nagara, Shivamogga - KSPCB",25-03-2024 17:00:00,13.940000,75.555917,PM2.5,17,62,30
India,Karnataka,Shivamogga,"Vinoba Nagara, Shivamogga - KSPCB",25-03-2024 17:00:00,13.940000,75.555917,PM10,37,73,48
India,Karnataka,Tumakuru,"Thimmalapura, Tumakuru - KSPCB",25-03-2024 17:00:00,13.377516,77.099072,CO,29,34,31
India,Karnataka,Udupi,"Brahmagiri, Udupi - KSPCB",25-03-2024 17:00:00,13.34194444,74.74694444,PM10,54,111,75
India,Karnataka,Udupi,"Brahmagiri, Udupi - KSPCB",25-03-2024 17:00:00,13.34194444,74.74694444,CO,46,53,48
India,Karnataka,Vijayapura,"Ibrahimpur, Vijayapura - KSPCB",25-03-2024 17:00:00,16.802639,75.722694,SO2,19,132,53
India,Kerala,Eloor,"Udyogamandal, Eloor - Kerala PCB",25-03-2024 17:00:00,10.073232,76.302765,PM2.5,33,47,39
India,Kerala,Kannur,"Thavakkara, Kannur - Kerala PCB",25-03-2024 17:00:00,11.875000,75.373200,PM2.5,52,63,56
India,Kerala,Kannur,"Thavakkara, Kannur - Kerala PCB",25-03-2024 17:00:00,11.875000,75.373200,OZONE,31,36,34
India,Kerala,Kollam,"Polayathode, Kollam - Kerala PCB",25-03-2024 17:00:00,8.8787,76.6073,NH3,1,1,1
India,Kerala,Thiruvananthapuram,"Kariavattom, Thiruvananthapuram - Kerala PCB",25-03-2024 17:00:00,8.563700,76.886500,NO2,8,10,9
India,Kerala,Thrissur,"Corporation Ground, Thrissur - Kerala PCB",25-03-2024 17:00:00,10.532400,76.215900,NH3,NA,NA,NA
India,Madhya Pradesh,Bhopal,"Idgah Hills, Bhopal - MPPCB",25-03-2024 17:00:00,23.264759,77.381568,NH3,6,9,7
India,Madhya Pradesh,Bhopal,"Paryavaran Parisar, Bhopal - MPPCB",25-03-2024 17:00:00,23.210494,77.425409,NH3,9,18,12
India,Madhya Pradesh,Bhopal,"T T Nagar, Bhopal - MPPCB",25-03-2024 17:00:00,23.233584,77.400574,PM2.5,32,225,99
India,Madhya Pradesh,Bhopal,"T T Nagar, Bhopal - MPPCB",25-03-2024 17:00:00,23.233584,77.400574,PM10,76,175,126
India,Madhya Pradesh,Bhopal,"T T Nagar, Bhopal - MPPCB",25-03-2024 17:00:00,23.233584,77.400574,CO,14,109,23
India,Madhya Pradesh,Dewas,"Bhopal Chauraha, Dewas - MPPCB",25-03-2024 17:00:00,22.9682591,76.064118,SO2,31,48,42
India,Madhya Pradesh,Gwalior,"City Center, Gwalior - MPPCB",25-03-2024 17:00:00,26.203442,78.193251,NH3,8,12,10
India,Madhya Pradesh,Gwalior,"Deen Dayal Nagar, Gwalior - MPPCB",25-03-2024 17:00:00,26.259242,78.216432,PM10,67,383,193
India,Madhya Pradesh,Gwalior,"Deen Dayal Nagar, Gwalior - MPPCB",25-03-2024 17:00:00,26.259242,78.216432,SO2,13,19,16
India,Madhya Pradesh,Gwalior,"Maharaj Bada, Gwalior - MPPCB",25-03-2024 17:00:00,26.200388,78.147714,PM10,97,417,211
India,Madhya Pradesh,Indore,"Maguda Nagar, Indore - IMC",25-03-2024 17:00:00,22.7524,75.8872,CO,25,38,31
India,Madhya Pradesh,Indore,"Regional Park, Indore - IMC",25-03-2024 17:00:00,22.6780,75.8559,NH3,1,1,1
India,Madhya Pradesh,Indore,"Residency Area, Indore - IMC",25-03-2024 17:00:00,22.7084,75.8815,NO2,12,15,14
