country,state,city,station,last_update,latitude,longitude,pollutant_id,pollutant_min,pollutant_max,pollutant_avg
India,Andhra_Pradesh,Amaravati,"Secretariat, Amaravati - APPCB",11-06-2024 15:00:00,16.5150833,80.5181667,SO2,NA,NA,NA
India,Andhra_Pradesh,Amaravati,"Secretariat, Amaravati - APPCB",11-06-2024 15:00:00,16.5150833,80.5181667,OZONE,33,35,34
India,Andhra_Pradesh,Anantapur,"Gulzarpet, Anantapur - APPCB",11-06-2024 15:00:00,14.675886,77.593027,PM10,28,58,43
India,Andhra_Pradesh,Anantapur,"Gulzarpet, Anantapur - APPCB",11-06-2024 15:00:00,14.675886,77.593027,OZONE,4,23,11
India,Andhra_Pradesh,Chittoor,"Gangineni Cheruvu, Chittoor - APPCB",11-06-2024 15:00:00,13.204880,79.097889,SO2,5,8,6
India,Andhra_Pradesh,Kadapa,"Yerramukkapalli, Kadapa - APPCB",11-06-2024 15:00:00,14.465052,78.824187,PM10,29,41,30
India,Andhra_Pradesh,Kadapa,"Yerramukkapalli, Kadapa - APPCB",11-06-2024 15:00:00,14.465052,78.824187,NO2,8,13,12
India,Andhra_Pradesh,Kadapa,"Yerramukkapalli, Kadapa - APPCB",11-06-2024 15:00:00,14.465052,78.824187,CO,7,34,21
India,Andhra_Pradesh,Rajamahendravaram,"Anand Kala Kshetram, Rajamahendravaram - APPCB",11-06-2024 15:00:00,16.9872867,81.7363176,NH3,1,6,3
India,Andhra_Pradesh,Tirupati,"Tirumala, Tirupati - APPCB",11-06-2024 15:00:00,13.67,79.35,NO2,11,24,20
India,Andhra_Pradesh,Tirupati,"Tirumala, Tirupati - APPCB",11-06-2024 15:00:00,13.67,79.35,NH3,1,1,1
India,Andhra_Pradesh,Tirupati,"Vaikuntapuram, Tirupati - APPCB",11-06-2024 15:00:00,13.615387,79.409230,SO2,7,8,8
India,Andhra_Pradesh,Vijayawada,"HB Colony, Vijayawada - APPCB",11-06-2024 15:00:00,16.536107,80.594233,PM2.5,35,158,51
India,Andhra_Pradesh,Vijayawada,"HB Colony, Vijayawada - APPCB",11-06-2024 15:00:00,16.536107,80.594233,SO2,6,7,7
India,Andhra_Pradesh,Vijayawada,"HB Colony, Vijayawada - APPCB",11-06-2024 15:00:00,16.536107,80.594233,CO,34,34,34
India,Andhra_Pradesh,Vijayawada,"Kanuru, Vijayawada - APPCB",11-06-2024 15:00:00,16.486692,80.699436,PM2.5,41,49,45
India,Andhra_Pradesh,Vijayawada,"Kanuru, Vijayawada - APPCB",11-06-2024 15:00:00,16.486692,80.699436,SO2,6,9,7
India,Andhra_Pradesh,Vijayawada,"Rajiv Nagar, Vijayawada - APPCB",11-06-2024 15:00:00,16.554731,80.649110,PM2.5,47,53,49
India,Andhra_Pradesh,Vijayawada,"Rajiv Nagar, Vijayawada - APPCB",11-06-2024 15:00:00,16.554731,80.649110,PM10,53,60,56
India,Andhra_Pradesh,Visakhapatnam,"GVM Corporation, Visakhapatnam - APPCB",11-06-2024 15:00:00,17.72,83.3,NO2,37,91,56
India,Assam,Byrnihat,"Central Academy for SFS, Byrnihat - PCBA",11-06-2024 15:00:00,26.071318,91.87488,PM10,79,493,174
India,Assam,Byrnihat,"Central Academy for SFS, Byrnihat - PCBA",11-06-2024 15:00:00,26.071318,91.87488,SO2,9,45,23
India,Assam,Guwahati,"IITG, Guwahati - PCBA",11-06-2024 15:00:00,26.2028636,91.70046436,PM10,54,127,85
India,Assam,Guwahati,"LGBI Airport, Guwahati - PCBA",11-06-2024 15:00:00,26.10887,91.589544,PM2.5,NA,NA,NA
India,Assam,Guwahati,"LGBI Airport, Guwahati - PCBA",11-06-2024 15:00:00,26.10887,91.589544,OZONE,10,30,25
India,Assam,Guwahati,"Pan Bazaar, Guwahati - PCBA",11-06-2024 15:00:00,26.187500,91.744194,CO,24,55,26
India,Assam,Guwahati,"Railway Colony, Guwahati - PCBA",11-06-2024 15:00:00,26.181742,91.78063,NO2,3,4,3
India,Assam,Guwahati,"Railway Colony, Guwahati - PCBA",11-06-2024 15:00:00,26.181742,91.78063,CO,28,66,30
India,Assam,Nagaon,"Christianpatty, Nagaon - PCBA",11-06-2024 15:00:00,26.349082,92.68449,NO2,1,40,11
India,Assam,Nalbari,"Bata Chowk, Nalbari - PCBA",11-06-2024 15:00:00,26.446912,91.439057,PM2.5,20,187,80
India,Assam,Nalbari,"Bata Chowk, Nalbari - PCBA",11-06-2024 15:00:00,26.446912,91.439057,NH3,1,1,1
India,Assam,Silchar,"Tarapur, Silchar - PCBA",11-06-2024 15:00:00,24.82827,92.79525,SO2,1,6,2
India,Assam,Silchar,"Tarapur, Silchar - PCBA",11-06-2024 15:00:00,24.82827,92.79525,OZONE,1,6,3
India,Assam,Sivasagar,"Girls College, Sivasagar - PCBA",11-06-2024 15:00:00,26.987634,94.636574,NH3,1,4,2
India,Assam,Sivasagar,"Girls College, Sivasagar - PCBA",11-06-2024 15:00:00,26.987634,94.636574,OZONE,1,13,5
India,Bihar,Arrah,"New DM Office, Arrah - BSPCB",11-06-2024 15:00:00,25.5626095,84.663264,NO2,9,37,12
India,Bihar,Aurangabad,"Gurdeo Nagar, Aurangabad - BSPCB",11-06-2024 15:00:00,24.75746,84.366208,PM2.5,NA,NA,NA
India,Bihar,Bettiah,"Kamalnath Nagar, Bettiah - BSPCB",11-06-2024 15:00:00,26.80365,84.51954,OZONE,2,14,9
India,Bihar,Bhagalpur,"DM Office_Kachari Chowk, Bhagalpur - BSPCB",11-06-2024 15:00:00,25.251013,86.989001,PM10,98,172,133
India,Bihar,Bhagalpur,"Mayaganj, Bhagalpur - BSPCB",11-06-2024 15:00:00,25.265194,87.012947,OZONE,7,44,26
India,Bihar,Bihar Sharif,"D M Colony, Bihar Sharif - BSPCB",11-06-2024 15:00:00,25.204762,85.514960,PM10,NA,NA,NA
India,Bihar,Buxar,"Charitra Van, Buxar - BSPCB (Formerly known as Central Jail)",11-06-2024 15:00:00,25.567520,83.966379,CO,23,107,61
India,Bihar,Chhapra,"Darshan Nagar, Chhapra - BSPCB",11-06-2024 15:00:00,25.7808257,84.7446768,PM10,77,141,102
India,Bihar,Chhapra,"Darshan Nagar, Chhapra - BSPCB",11-06-2024 15:00:00,25.7808257,84.7446768,NH3,5,12,9
India,Bihar,Chhapra,"Darshan Nagar, Chhapra - BSPCB",11-06-2024 15:00:00,25.7808257,84.7446768,OZONE,1,9,4
India,Bihar,Gaya,"Collectorate, Gaya - BSPCB",11-06-2024 15:00:00,24.7955,84.9994,NO2,3,5,4
India,Bihar,Gaya,"Collectorate, Gaya - BSPCB",11-06-2024 15:00:00,24.7955,84.9994,SO2,5,18,12
India,Bihar,Gaya,"Kareemganj, Gaya - BSPCB",11-06-2024 15:00:00,24.792403,84.992416,PM2.5,50,197,86
India,Bihar,Gaya,"Kareemganj, Gaya - BSPCB",11-06-2024 15:00:00,24.792403,84.992416,OZONE,8,24,21
India,Bihar,Gaya,"SFTI Kusdihra, Gaya - BSPCB",11-06-2024 15:00:00,24.762518,84.982348,SO2,NA,NA,NA
India,Bihar,Hajipur,"Industrial Area, Hajipur - BSPCB",11-06-2024 15:00:00,25.697189,85.245900,PM10,110,211,150
India,Bihar,Katihar,"Mirchaibari, Katihar - BSPCB",11-06-2024 15:00:00,25.560083,87.553265,CO,23,42,37
India,Bihar,Katihar,"Mirchaibari, Katihar - BSPCB",11-06-2024 15:00:00,25.560083,87.553265,OZONE,3,10,5
India,Bihar,Kishanganj,"SDM Office_Khagra, Kishanganj - BSPCB",11-06-2024 15:00:00,26.0881305,87.93840336,SO2,7,14,9
India,Bihar,Motihari,"Gandak Colony, Motihari - BSPCB",11-06-2024 15:00:00,26.63086,84.90051,NO2,14,30,21
India,Bihar,Munger,"Town Hall, Munger - BSPCB",11-06-2024 15:00:00,25.376776,86.471523,NO2,4,6,5
India,Bihar,Munger,"Town Hall, Munger - BSPCB",11-06-2024 15:00:00,25.376776,86.471523,SO2,20,39,28
India,Bihar,Munger,"Town Hall, Munger - BSPCB",11-06-2024 15:00:00,25.376776,86.471523,CO,37,74,50
India,Bihar,Patna,"DRM Office Danapur, Patna - BSPCB",11-06-2024 15:00:00,25.586562,85.043586,PM2.5,98,199,150
India,Bihar,Patna,"DRM Office Danapur, Patna - BSPCB",11-06-2024 15:00:00,25.586562,85.043586,NH3,2,3,3
India,Bihar,Patna,"Govt. High School Shikarpur, Patna - BSPCB",11-06-2024 15:00:00,25.592539,85.227158,PM10,111,170,140
India,Bihar,Patna,"IGSC Planetarium Complex, Patna - BSPCB",11-06-2024 15:00:00,25.610369,85.132568,SO2,4,7,5
India,Bihar,Patna,"Muradpur, Patna - BSPCB",11-06-2024 15:00:00,25.619651,85.147382,CO,35,88,54
India,Bihar,Patna,"Rajbansi Nagar, Patna - BSPCB",11-06-2024 15:00:00,25.599486,85.113666,NO2,6,55,20
India,Bihar,Patna,"Rajbansi Nagar, Patna - BSPCB",11-06-2024 15:00:00,25.599486,85.113666,SO2,6,12,9
India,Bihar,Patna,"Rajbansi Nagar, Patna - BSPCB",11-06-2024 15:00:00,25.599486,85.113666,OZONE,20,62,41
India,Bihar,Patna,"Samanpura, Patna - BSPCB",11-06-2024 15:00:00,25.596727,85.085624,NO2,6,45,12
India,Bihar,Patna,"Samanpura, Patna - BSPCB",11-06-2024 15:00:00,25.596727,85.085624,SO2,3,5,4
India,Bihar,Rajgir,"Dangi Tola, Rajgir - BSPCB",11-06-2024 15:00:00,25.03280,85.41948,NH3,1,2,2
India,Bihar,Rajgir,"Dangi Tola, Rajgir - BSPCB",11-06-2024 15:00:00,25.03280,85.41948,SO2,3,6,4
India,Bihar,Rajgir,"Dangi Tola, Rajgir - BSPCB",11-06-2024 15:00:00,25.03280,85.41948,CO,29,56,44
India,Bihar,Samastipur,"DM Office_Kasipur, Samastipur - BSPCB",11-06-2024 15:00:00,25.859655,85.77944,NO2,4,5,4
India,Bihar,Samastipur,"DM Office_Kasipur, Samastipur - BSPCB",11-06-2024 15:00:00,25.859655,85.77944,SO2,53,68,60
India,Bihar,Sasaram,"Dada Peer, Sasaram - BSPCB",11-06-2024 15:00:00,24.952822,84.002396,CO,42,85,56
India,Chandigarh,Chandigarh,"Sector 22, Chandigarh - CPCC",11-06-2024 15:00:00,30.735567,76.775714,PM2.5,17,207,80
India,Chandigarh,Chandigarh,"Sector 22, Chandigarh - CPCC",11-06-2024 15:00:00,30.735567,76.775714,PM10,53,167,104
India,Chandigarh,Chandigarh,"Sector 22, Chandigarh - CPCC",11-06-2024 15:00:00,30.735567,76.775714,CO,29,71,39
India,Chandigarh,Chandigarh,"Sector-25, Chandigarh - CPCC",11-06-2024 15:00:00,30.751462,76.762879,PM10,3,135,110
India,Chandigarh,Chandigarh,"Sector-25, Chandigarh - CPCC",11-06-2024 15:00:00,30.751462,76.762879,NO2,8,72,25
India,Chandigarh,Chandigarh,"Sector-53, Chandigarh - CPCC",11-06-2024 15:00:00,30.719859,76.738637,PM10,46,350,123
India,Chhattisgarh,Bhilai,"32Bungalows, Bhilai - CECB",11-06-2024 15:00:00,21.194815,81.314770,CO,12,22,17
India,Chhattisgarh,Bhilai,"Civic Center, Bhilai - Bhilai Steel Plant",11-06-2024 15:00:00,21.185571,81.343175,PM10,23,64,39
India,Chhattisgarh,Bhilai,"Civic Center, Bhilai - Bhilai Steel Plant",11-06-2024 15:00:00,21.185571,81.343175,OZONE,23,66,47
India,Chhattisgarh,Bhilai,"Hathkhoj, Bhilai - CECB",11-06-2024 15:00:00,21.224231,81.408350,NO2,3,20,10
India,Chhattisgarh,Chhal,"Nawapara SECL Colony, Chhal - CECB",11-06-2024 15:00:00,22.118125,83.140608,PM10,42,101,60
India,Chhattisgarh,Korba,"Rampur, Korba - CECB",11-06-2024 15:00:00,22.368195,82.746431,PM10,NA,NA,NA
India,Chhattisgarh,Korba,"Rampur, Korba - CECB",11-06-2024 15:00:00,22.368195,82.746431,SO2,NA,NA,NA
India,Chhattisgarh,Korba,"Rampur, Korba - CECB",11-06-2024 15:00:00,22.368195,82.746431,CO,14,34,25
India,Chhattisgarh,Korba,"Urja Nagar, Korba - CECB",11-06-2024 15:00:00,22.348441,82.549611,CO,14,35,29
India,Chhattisgarh,Korba,"Urja Nagar, Korba - CECB",11-06-2024 15:00:00,22.348441,82.549611,OZONE,NA,NA,NA
India,Chhattisgarh,Raipur,"Bhatagaon New ISBT, Raipur - CECB",11-06-2024 15:00:00,21.219665,81.630094,NH3,2,2,2
India,Chhattisgarh,Raipur,"Bhatagaon New ISBT, Raipur - CECB",11-06-2024 15:00:00,21.219665,81.630094,SO2,2,10,5
India,Chhattisgarh,Raipur,"Bhatagaon New ISBT, Raipur - CECB",11-06-2024 15:00:00,21.219665,81.630094,CO,15,38,24
India,Chhattisgarh,Raipur,"Krishak Nagar, Raipur - CECB",11-06-2024 15:00:00,21.237755,81.705301,OZONE,1,65,26
India,Delhi,Delhi,"Alipur, Delhi - DPCC",11-06-2024 15:00:00,28.815329,77.153010,PM10,115,381,198
India,Delhi,Delhi,"Alipur, Delhi - DPCC",11-06-2024 15:00:00,28.815329,77.153010,NH3,2,5,4
India,Delhi,Delhi,"Anand Vihar, Delhi - DPCC",11-06-2024 15:00:00,28.647622,77.3158090,NH3,4,8,6
India,Delhi,Delhi,"Aya Nagar, Delhi - IMD",11-06-2024 15:00:00,28.4706914,77.1099364,OZONE,2,55,32
India,Delhi,Delhi,"Burari Crossing, Delhi - IMD",11-06-2024 15:00:00,28.7256504,77.2011573,NO2,11,12,12
India,Delhi,Delhi,"DTU, Delhi - CPCB",11-06-2024 15:00:00,28.7500499,77.1112615,PM2.5,64,362,214
India,Delhi,Delhi,"DTU, Delhi - CPCB",11-06-2024 15:00:00,28.7500499,77.1112615,PM10,103,500,282
India,Delhi,Delhi,"DTU, Delhi - CPCB",11-06-2024 15:00:00,28.7500499,77.1112615,OZONE,31,138,83
India,Delhi,Delhi,"Dr. Karni Singh Shooting Range, Delhi - DPCC",11-06-2024 15:00:00,28.498571,77.264840,PM2.5,38,318,120
India,Delhi,Delhi,"Dr. Karni Singh Shooting Range, Delhi - DPCC",11-06-2024 15:00:00,28.498571,77.264840,OZONE,4,274,121
India,Delhi,Delhi,"Dwarka-Sector 8, Delhi - DPCC ",11-06-2024 15:00:00,28.5710274,77.0719006,CO,20,103,40
India,Delhi,Delhi,"IHBAS, Dilshad Garden, Delhi - CPCB",11-06-2024 15:00:00,28.6811736,77.3025234,PM10,89,174,140
India,Delhi,Delhi,"IHBAS, Dilshad Garden, Delhi - CPCB",11-06-2024 15:00:00,28.6811736,77.3025234,CO,25,101,55
India,Delhi,Delhi,"ITO, Delhi - CPCB",11-06-2024 15:00:00,28.628624,77.241060,SO2,1,51,17
India,Delhi,Delhi,"Jahangirpuri, Delhi - DPCC",11-06-2024 15:00:00,28.732820,77.170633,CO,20,111,69
India,Delhi,Delhi,"Jawaharlal Nehru Stadium, Delhi - DPCC",11-06-2024 15:00:00,28.580280,77.233829,PM10,97,407,204
India,Delhi,Delhi,"Jawaharlal Nehru Stadium, Delhi - DPCC",11-06-2024 15:00:00,28.580280,77.233829,NH3,NA,NA,NA
India,Delhi,Delhi,"Major Dhyan Chand National Stadium, Delhi - DPCC",11-06-2024 15:00:00,28.611281,77.237738,PM10,94,369,189
India,Delhi,Delhi,"Major Dhyan Chand National Stadium, Delhi - DPCC",11-06-2024 15:00:00,28.611281,77.237738,SO2,9,85,33
India,Delhi,Delhi,"Major Dhyan Chand National Stadium, Delhi - DPCC",11-06-2024 15:00:00,28.611281,77.237738,OZONE,1,235,173
India,Delhi,Delhi,"Mundka, Delhi - DPCC",11-06-2024 15:00:00,28.684678,77.076574,NO2,22,132,78
India,Delhi,Delhi,"Mundka, Delhi - DPCC",11-06-2024 15:00:00,28.684678,77.076574,CO,23,80,50
India,Delhi,Delhi,"Mundka, Delhi - DPCC",11-06-2024 15:00:00,28.684678,77.076574,OZONE,18,266,147
India,Delhi,Delhi,"NSIT Dwarka, Delhi - CPCB",11-06-2024 15:00:00,28.60909,77.0325413,SO2,3,57,26
India,Delhi,Delhi,"Najafgarh, Delhi - DPCC",11-06-2024 15:00:00,28.570173,76.933762,PM10,90,500,197
India,Delhi,Delhi,"Najafgarh, Delhi - DPCC",11-06-2024 15:00:00,28.570173,76.933762,SO2,10,35,23
India,Delhi,Delhi,"Narela, Delhi - DPCC",11-06-2024 15:00:00,28.822836,77.101981,PM2.5,30,397,171
India,Delhi,Delhi,"Narela, Delhi - DPCC",11-06-2024 15:00:00,28.822836,77.101981,OZONE,18,140,90
India,Delhi,Delhi,"Nehru Nagar, Delhi - DPCC",11-06-2024 15:00:00,28.567890,77.250515,SO2,6,32,13
India,Delhi,Delhi,"Nehru Nagar, Delhi - DPCC",11-06-2024 15:00:00,28.567890,77.250515,CO,43,98,60
India,Delhi,Delhi,"New Moti Bagh, Delhi - MHUA",11-06-2024 15:00:00,28.57834,77.18400,NO2,6,40,23
India,Delhi,Delhi,"Okhla Phase-2, Delhi - DPCC",11-06-2024 15:00:00,28.530785,77.271255,CO,24,110,70
India,Delhi,Delhi,"Punjabi Bagh, Delhi - DPCC",11-06-2024 15:00:00,28.674045,77.131023,PM10,104,401,212
India,Delhi,Delhi,"Punjabi Bagh, Delhi - DPCC",11-06-2024 15:00:00,28.674045,77.131023,OZONE,9,118,69
India,Delhi,Delhi,"Pusa, Delhi - DPCC",11-06-2024 15:00:00,28.639652,77.146275,CO,22,107,39
India,Delhi,Delhi,"Pusa, Delhi - DPCC",11-06-2024 15:00:00,28.639652,77.146275,OZONE,2,128,61
India,Delhi,Delhi,"Pusa, Delhi - IMD",11-06-2024 15:00:00,28.636110,77.173332,PM2.5,11,480,244
India,Delhi,Delhi,"R K Puram, Delhi - DPCC",11-06-2024 15:00:00,28.563262,77.186937,SO2,2,110,36
India,Delhi,Delhi,"R K Puram, Delhi - DPCC",11-06-2024 15:00:00,28.563262,77.186937,OZONE,16,261,167
India,Delhi,Delhi,"Rohini, Delhi - DPCC",11-06-2024 15:00:00,28.732528,77.119920,NH3,6,24,12
India,Delhi,Delhi,"Sirifort, Delhi - CPCB",11-06-2024 15:00:00,28.5504249,77.2159377,PM2.5,43,339,160
India,Delhi,Delhi,"Sirifort, Delhi - CPCB",11-06-2024 15:00:00,28.5504249,77.2159377,SO2,44,54,47
India,Delhi,Delhi,"Sonia Vihar, Delhi - DPCC",11-06-2024 15:00:00,28.710508,77.249485,PM2.5,38,355,165
India,Delhi,Delhi,"Sonia Vihar, Delhi - DPCC",11-06-2024 15:00:00,28.710508,77.249485,PM10,101,421,232
India,Delhi,Delhi,"Sri Aurobindo Marg, Delhi - DPCC",11-06-2024 15:00:00,28.531346,77.190156,NO2,6,91,45
India,Delhi,Delhi,"Wazirpur, Delhi - DPCC",11-06-2024 15:00:00,28.699793,77.165453,CO,2,102,16
India,Gujarat,Ahmedabad,"Chandkheda, Ahmedabad - IITM",11-06-2024 15:00:00,23.107969,72.574648,CO,27,28,28
India,Gujarat,Ahmedabad,"Gyaspur, Ahmedabad - IITM",11-06-2024 15:00:00,22.977134,72.553024,CO,24,90,55
India,Gujarat,Ahmedabad,"Maninagar, Ahmedabad - GPCB",11-06-2024 15:00:00,23.002657,72.591912,CO,29,88,56
India,Gujarat,Ahmedabad,"Raikhad, Ahmedabad - IITM",11-06-2024 15:00:00,23.020509,72.579261,OZONE,14,75,48
India,Gujarat,Ahmedabad,"Rakhial, Ahmedabad - IITM",11-06-2024 15:00:00,23.016834,72.625775,SO2,NA,NA,NA
India,Gujarat,Ahmedabad,"SVPI Airport Hansol, Ahmedabad - IITM",11-06-2024 15:00:00,23.076793,72.627874,PM2.5,50,291,119
India,Gujarat,Ahmedabad,"SVPI Airport Hansol, Ahmedabad - IITM",11-06-2024 15:00:00,23.076793,72.627874,SO2,1,9,5
India,Gujarat,Ahmedabad,"SVPI Airport Hansol, Ahmedabad - IITM",11-06-2024 15:00:00,23.076793,72.627874,OZONE,4,68,16
India,Gujarat,Ankleshwar,"GIDC, Ankleshwar - GPCB",11-06-2024 15:00:00,21.613267,73.010555,NO2,30,62,40
India,Gujarat,Gandhinagar,"GIFT City, Gandhinagar - IITM",11-06-2024 15:00:00,23.163798,72.677768,OZONE,8,63,30
India,Gujarat,Gandhinagar,"Sector-10, Gandhinagar - GPCB",11-06-2024 15:00:00,23.221714,72.654328,NO2,15,19,17
India,Gujarat,Nandesari,"GIDC, Nandesari - Nandesari Ind. Association",11-06-2024 15:00:00,22.410802,73.097923,PM10,83,188,135
India,Gujarat,Vapi,"Phase-1 GIDC, Vapi - GPCB",11-06-2024 15:00:00,20.362421,72.918013,SO2,38,50,46
India,Gujarat,Vapi,"Phase-1 GIDC, Vapi - GPCB",11-06-2024 15:00:00,20.362421,72.918013,OZONE,NA,NA,NA
India,Gujarat,Vatva,"Phase-4 GIDC, Vatva - GPCB",11-06-2024 15:00:00,22.969611,72.643500,NH3,8,13,10
India,Gujarat,Vatva,"Phase-4 GIDC, Vatva - GPCB",11-06-2024 15:00:00,22.969611,72.643500,CO,21,22,21
India,Haryana,Ambala,"Patti Mehar, Ambala - HSPCB",11-06-2024 15:00:00,30.379589,76.778328,SO2,4,16,10
India,Haryana,Ballabgarh,"Nathu Colony, Ballabgarh - HSPCB",11-06-2024 15:00:00,28.3419248,77.319699,NH3,1,2,1
India,Haryana,Ballabgarh,"Nathu Colony, Ballabgarh - HSPCB",11-06-2024 15:00:00,28.3419248,77.319699,CO,2,105,35
India,Haryana,Bhiwani,"H.B. Colony, Bhiwani - HSPCB",11-06-2024 15:00:00,28.806223,76.141105,NH3,5,6,6
India,Haryana,Bhiwani,"H.B. Colony, Bhiwani - HSPCB",11-06-2024 15:00:00,28.806223,76.141105,CO,40,76,57
India,Haryana,Charkhi Dadri,"Mini Secretariat, Charkhi Dadri - HSPCB",11-06-2024 15:00:00,28.593883,76.270653,PM2.5,128,311,249
India,Haryana,Charkhi Dadri,"Mini Secretariat, Charkhi Dadri - HSPCB",11-06-2024 15:00:00,28.593883,76.270653,SO2,2,27,13
India,Haryana,Dharuhera,"Municipal Corporation Office, Dharuhera -  HSPCB",11-06-2024 15:00:00,28.206800,76.799700,NO2,45,112,74
India,Haryana,Faridabad,"Sector 11, Faridabad - HSPCB",11-06-2024 15:00:00,28.376058,77.315741,PM2.5,128,347,253
India,Haryana,Faridabad,"Sector 11, Faridabad - HSPCB",11-06-2024 15:00:00,28.376058,77.315741,CO,30,51,38
India,Haryana,Faridabad,"Sector 30, Faridabad - HSPCB",11-06-2024 15:00:00,28.4417,77.3217,NH3,NA,NA,NA
India,Haryana,Gurugram,"NISE Gwal Pahari, Gurugram - IMD",11-06-2024 15:00:00,28.422681,77.148944,CO,2,82,64
India,Haryana,Gurugram,"Sector-51, Gurugram - HSPCB",11-06-2024 15:00:00,28.4227,77.0667,NH3,6,14,9
India,Haryana,Gurugram,"Sector-51, Gurugram - HSPCB",11-06-2024 15:00:00,28.4227,77.0667,SO2,3,7,4
India,Haryana,Gurugram,"Sector-51, Gurugram - HSPCB",11-06-2024 15:00:00,28.4227,77.0667,OZONE,28,92,44
India,Haryana,Gurugram,"Vikas Sadan, Gurugram - HSPCB",11-06-2024 15:00:00,28.4501238,77.0263051,SO2,7,85,33
India,Haryana,Jind,"Police Lines, Jind - HSPCB",11-06-2024 15:00:00,29.307814,76.337619,PM10,75,121,106
India,Haryana,Jind,"Police Lines, Jind - HSPCB",11-06-2024 15:00:00,29.307814,76.337619,CO,6,64,28
India,Haryana,Kaithal,"Rishi Nagar, Kaithal - HSPCB",11-06-2024 15:00:00,29.8006,76.4155,NH3,8,9,8
India,Haryana,Kaithal,"Rishi Nagar, Kaithal - HSPCB",11-06-2024 15:00:00,29.8006,76.4155,SO2,6,101,23
India,Haryana,Kaithal,"Rishi Nagar, Kaithal - HSPCB",11-06-2024 15:00:00,29.8006,76.4155,CO,2,32,26
India,Haryana,Karnal,"Sector-12, Karnal - HSPCB",11-06-2024 15:00:00,29.695300,77.002700,SO2,12,13,12
India,Haryana,Kurukshetra,"Sector-7, Kurukshetra - HSPCB",11-06-2024 15:00:00,29.966942,76.875879,CO,2,39,13
India,Haryana,Mandikhera,"General Hospital, Mandikhera - HSPCB",11-06-2024 15:00:00,27.9002,76.9938,PM2.5,21,45,34
India,Haryana,Mandikhera,"General Hospital, Mandikhera - HSPCB",11-06-2024 15:00:00,27.9002,76.9938,OZONE,24,31,28
India,Haryana,Manesar,"Sector-2 IMT, Manesar - HSPCB",11-06-2024 15:00:00,28.360699,76.936090,OZONE,13,110,74
India,Haryana,Narnaul,"Shastri Nagar, Narnaul - HSPCB",11-06-2024 15:00:00,28.060249,76.113115,SO2,10,13,12
India,Haryana,Sirsa,"F-Block, Sirsa - HSPCB",11-06-2024 15:00:00,29.536400,75.015800,PM10,71,99,86
India,Haryana,Sirsa,"F-Block, Sirsa - HSPCB",11-06-2024 15:00:00,29.536400,75.015800,OZONE,10,63,36
India,Haryana,Yamuna Nagar,"Gobind Pura, Yamuna Nagar - HSPCB",11-06-2024 15:00:00,30.1480566,77.2893471,NO2,NA,NA,NA
India,Haryana,Yamuna Nagar,"Gobind Pura, Yamuna Nagar - HSPCB",11-06-2024 15:00:00,30.1480566,77.2893471,CO,28,75,64
India,Himachal Pradesh,Baddi,"HIMUDA Complex Phase-1, Baddi - HPPCB",11-06-2024 15:00:00,30.943887,76.801991,NO2,8,88,26
India,Himachal Pradesh,Baddi,"HIMUDA Complex Phase-1, Baddi - HPPCB",11-06-2024 15:00:00,30.943887,76.801991,NH3,3,5,4
India,Jammu_and_Kashmir,Srinagar,"Rajbagh, Srinagar - JKSPCB",11-06-2024 15:00:00,34.066206,74.819820,PM10,NA,NA,NA
India,Jammu_and_Kashmir,Srinagar,"Rajbagh, Srinagar - JKSPCB",11-06-2024 15:00:00,34.066206,74.819820,SO2,NA,NA,NA
India,Karnataka,Bagalkot,"Vidayagiri, Bagalkot - KSPCB",11-06-2024 15:00:00,16.172806,75.659694,PM2.5,25,37,36
India,Karnataka,Bagalkot,"Vidayagiri, Bagalkot - KSPCB",11-06-2024 15:00:00,16.172806,75.659694,NO2,9,10,9
India,Karnataka,Bengaluru,"Bapuji Nagar, Bengaluru - KSPCB",11-06-2024 15:00:00,12.951913,77.539784,PM10,13,36,25
India,Karnataka,Bengaluru,"Hebbal, Bengaluru - KSPCB",11-06-2024 15:00:00,13.029152,77.585901,PM10,15,32,22
India,Karnataka,Bengaluru,"Hebbal, Bengaluru - KSPCB",11-06-2024 15:00:00,13.029152,77.585901,NH3,1,1,1
India,Karnataka,Bengaluru,"Hebbal, Bengaluru - KSPCB",11-06-2024 15:00:00,13.029152,77.585901,OZONE,6,10,8
India,Karnataka,Bengaluru,"Jayanagar 5th Block, Bengaluru - KSPCB",11-06-2024 15:00:00,12.920984,77.584908,PM10,14,32,22
India,Karnataka,Bengaluru,"Jayanagar 5th Block, Bengaluru - KSPCB",11-06-2024 15:00:00,12.920984,77.584908,SO2,5,28,16
India,Karnataka,Bengaluru,"Jigani, Bengaluru - KSPCB",11-06-2024 15:00:00,12.7816279,77.6299145,PM2.5,37,40,40
India,Karnataka,Bengaluru,"Jigani, Bengaluru - KSPCB",11-06-2024 15:00:00,12.7816279,77.6299145,OZONE,23,44,27
India,Karnataka,Bengaluru,"Kasturi Nagar, Bengaluru - KSPCB",11-06-2024 15:00:00,13.003872,77.664217,PM2.5,30,38,34
India,Karnataka,Bengaluru,"Kasturi Nagar, Bengaluru - KSPCB",11-06-2024 15:00:00,13.003872,77.664217,PM10,38,49,44
India,Karnataka,Bengaluru,"Kasturi Nagar, Bengaluru - KSPCB",11-06-2024 15:00:00,13.003872,77.664217,NO2,16,17,17
India,Karnataka,Bengaluru,"Kasturi Nagar, Bengaluru - KSPCB",11-06-2024 15:00:00,13.003872,77.664217,NH3,3,4,4
India,Karnataka,Bengaluru,"Peenya, Bengaluru - CPCB",11-06-2024 15:00:00,13.0270199,77.494094,PM2.5,33,44,39
India,Karnataka,Bengaluru,"Sanegurava Halli, Bengaluru - KSPCB",11-06-2024 15:00:00,12.990328,77.5431385,NO2,20,27,22
India,Karnataka,Bengaluru,"Shivapura_Peenya, Bengaluru - KSPCB",11-06-2024 15:00:00,13.0246342,77.5080115,PM2.5,14,40,29
India,Karnataka,Bengaluru,"Silk Board, Bengaluru - KSPCB",11-06-2024 15:00:00,12.917348,77.622813,CO,20,28,25
India,Karnataka,Bidar,"Naubad, Bidar - KSPCB",11-06-2024 15:00:00,17.930306,77.482194,NO2,NA,NA,NA
India,Karnataka,Bidar,"Naubad, Bidar - KSPCB",11-06-2024 15:00:00,17.930306,77.482194,CO,80,102,82
India,Karnataka,Bidar,"Naubad, Bidar - KSPCB",11-06-2024 15:00:00,17.930306,77.482194,OZONE,16,36,31
India,Karnataka,Chamarajanagar,"Urban, Chamarajanagar - KSPCB",11-06-2024 15:00:00,11.55358,76.55521,NH3,2,3,2
India,Karnataka,Chamarajanagar,"Urban, Chamarajanagar - KSPCB",11-06-2024 15:00:00,11.55358,76.55521,SO2,2,12,4
India,Karnataka,Chikkaballapur,"Chikkaballapur Rural, Chikkaballapur - KSPCB",11-06-2024 15:00:00,13.428828,77.731418,NH3,1,1,1
India,Karnataka,Chikkaballapur,"Chikkaballapur Rural, Chikkaballapur - KSPCB",11-06-2024 15:00:00,13.428828,77.731418,CO,14,22,18
India,Karnataka,Chikkamagaluru,"Kalyana Nagara, Chikkamagaluru - KSPCB",11-06-2024 15:00:00,13.328028,75.797056,NH3,2,3,2
India,Karnataka,Chikkamagaluru,"Kalyana Nagara, Chikkamagaluru - KSPCB",11-06-2024 15:00:00,13.328028,75.797056,SO2,2,6,4
India,Karnataka,Chikkamagaluru,"Kalyana Nagara, Chikkamagaluru - KSPCB",11-06-2024 15:00:00,13.328028,75.797056,CO,6,75,24
India,Karnataka,Davanagere,"Devaraj Urs Badavane, Davanagere - KSPCB",11-06-2024 15:00:00,14.475800,75.905200,PM10,10,26,17
India,Karnataka,Davanagere,"Devaraj Urs Badavane, Davanagere - KSPCB",11-06-2024 15:00:00,14.475800,75.905200,NH3,1,2,1
India,Karnataka,Davanagere,"Devaraj Urs Badavane, Davanagere - KSPCB",11-06-2024 15:00:00,14.475800,75.905200,CO,12,22,18
India,Karnataka,Dharwad,"Kalabhavan, Dharwad - KSPCB",11-06-2024 15:00:00,15.459706,75.008381,SO2,1,5,3
India,Karnataka,Gadag,"Panchal Nagar, Gadag - KSPCB",11-06-2024 15:00:00,15.411456,75.638133,NH3,1,4,2
India,Karnataka,Hassan,"B.Katihalli, Hassan - KSPCB",11-06-2024 15:00:00,13.008556,76.125258,PM10,20,83,37
India,Karnataka,Hassan,"B.Katihalli, Hassan - KSPCB",11-06-2024 15:00:00,13.008556,76.125258,SO2,1,27,10
India,Karnataka,Haveri,"Ashwini Nagar, Haveri - KSPCB",11-06-2024 15:00:00,14.791800,75.389600,PM10,NA,NA,NA
India,Karnataka,Haveri,"Ashwini Nagar, Haveri - KSPCB",11-06-2024 15:00:00,14.791800,75.389600,OZONE,27,42,32
India,Karnataka,Kalaburagi,"Lal Bahadur Shastri Nagar, Kalaburagi - KSPCB",11-06-2024 15:00:00,17.321993,76.822628,OZONE,4,24,7
India,Karnataka,Kalaburagi,"Mahatma Basaveswar Colony, Kalaburgi - KSPCB",11-06-2024 15:00:00,17.336318,76.847397,PM10,13,38,21
India,Karnataka,Kalaburagi,"Mahatma Basaveswar Colony, Kalaburgi - KSPCB",11-06-2024 15:00:00,17.336318,76.847397,CO,22,36,32
India,Karnataka,Koppal,"Diwator Nagar, Koppal - KSPCB",11-06-2024 15:00:00,15.347630,76.181767,PM2.5,1,13,6
India,Karnataka,Koppal,"Diwator Nagar, Koppal - KSPCB",11-06-2024 15:00:00,15.347630,76.181767,PM10,3,13,7
India,Karnataka,Madikeri,"Stuart Hill, Madikeri - KSPCB",11-06-2024 15:00:00,12.415911,75.735050,PM10,8,23,15
India,Karnataka,Madikeri,"Stuart Hill, Madikeri - KSPCB",11-06-2024 15:00:00,12.415911,75.735050,CO,13,66,26
India,Karnataka,Mangalore,"Kadri, Mangalore - KSPCB",11-06-2024 15:00:00,12.889250,74.853000,SO2,9,10,10
India,Karnataka,Mysuru,"Hebbal 1st Stage, Mysuru - KSPCB",11-06-2024 15:00:00,12.21041,76.37376,PM2.5,8,34,17
India,Karnataka,Mysuru,"Hebbal 1st Stage, Mysuru - KSPCB",11-06-2024 15:00:00,12.21041,76.37376,CO,4,40,18
India,Karnataka,Raichur,"Haji Colony, Raichur - KSPCB",11-06-2024 15:00:00,16.208139,77.348417,PM10,11,43,29
India,Karnataka,Raichur,"Haji Colony, Raichur - KSPCB",11-06-2024 15:00:00,16.208139,77.348417,OZONE,2,5,4
India,Karnataka,Shivamogga,"Vinoba Nagara, Shivamogga - KSPCB",11-06-2024 15:00:00,13.940000,75.555917,NO2,10,43,18
India,Karnataka,Shivamogga,"Vinoba Nagara, Shivamogga - KSPCB",11-06-2024 15:00:00,13.940000,75.555917,NH3,1,7,3
India,Karnataka,Tumakuru,"Thimmalapura, Tumakuru - KSPCB",11-06-2024 15:00:00,13.377516,77.099072,SO2,7,8,7
India,Karnataka,Udupi,"Brahmagiri, Udupi - KSPCB",11-06-2024 15:00:00,13.34194444,74.74694444,SO2,19,20,19
India,Karnataka,Vijayapura,"Ibrahimpur, Vijayapura - KSPCB",11-06-2024 15:00:00,16.802639,75.722694,PM2.5,26,31,30
India,Karnataka,Vijayapura,"Ibrahimpur, Vijayapura - KSPCB",11-06-2024 15:00:00,16.802639,75.722694,NH3,2,2,2
India,Kerala,Kannur,"Thavakkara, Kannur - Kerala PCB",11-06-2024 15:00:00,11.875000,75.373200,PM2.5,45,53,50
India,Kerala,Kannur,"Thavakkara, Kannur - Kerala PCB",11-06-2024 15:00:00,11.875000,75.373200,NO2,4,5,5
India,Kerala,Kannur,"Thavakkara, Kannur - Kerala PCB",11-06-2024 15:00:00,11.875000,75.373200,OZONE,29,30,29
India,Kerala,Kollam,"Polayathode, Kollam - Kerala PCB",11-06-2024 15:00:00,8.8787,76.6073,SO2,1,10,2
India,Kerala,Thiruvananthapuram,"Kariavattom, Thiruvananthapuram - Kerala PCB",11-06-2024 15:00:00,8.563700,76.886500,SO2,1,10,4
India,Kerala,Thiruvananthapuram,"Kariavattom, Thiruvananthapuram - Kerala PCB",11-06-2024 15:00:00,8.563700,76.886500,CO,18,58,33
India,Kerala,Thiruvananthapuram,"Plammoodu, Thiruvananthapuram - Kerala PCB",11-06-2024 15:00:00,8.5149093,76.9435879,NH3,1,1,1
India,Kerala,Thrissur,"Corporation Ground, Thrissur - Kerala PCB",11-06-2024 15:00:00,10.532400,76.215900,PM2.5,43,51,48
India,Kerala,Thrissur,"Corporation Ground, Thrissur - Kerala PCB",11-06-2024 15:00:00,10.532400,76.215900,PM10,58,69,65
India,Kerala,Thrissur,"Corporation Ground, Thrissur - Kerala PCB",11-06-2024 15:00:00,10.532400,76.215900,SO2,1,2,1
India,Madhya Pradesh,Bhopal,"Idgah Hills, Bhopal - MPPCB",11-06-2024 15:00:00,23.264759,77.381568,PM2.5,38,97,66
India,Madhya Pradesh,Bhopal,"Idgah Hills, Bhopal - MPPCB",11-06-2024 15:00:00,23.264759,77.381568,CO,4,56,17
India,Madhya Pradesh,Bhopal,"Paryavaran Parisar, Bhopal - MPPCB",11-06-2024 15:00:00,23.210494,77.425409,PM2.5,27,72,47
India,Madhya Pradesh,Bhopal,"Paryavaran Parisar, Bhopal - MPPCB",11-06-2024 15:00:00,23.210494,77.425409,PM10,42,131,78
India,Madhya Pradesh,Bhopal,"Paryavaran Parisar, Bhopal - MPPCB",11-06-2024 15:00:00,23.210494,77.425409,NO2,11,62,22
India,Madhya Pradesh,Bhopal,"Paryavaran Parisar, Bhopal - MPPCB",11-06-2024 15:00:00,23.210494,77.425409,CO,6,51,18
India,Madhya Pradesh,Bhopal,"T T Nagar, Bhopal - MPPCB",11-06-2024 15:00:00,23.233584,77.400574,PM10,55,119,92
India,Madhya Pradesh,Dewas,"Bhopal Chauraha, Dewas - MPPCB",11-06-2024 15:00:00,22.9682591,76.064118,PM2.5,49,116,71
India,Madhya Pradesh,Gwalior,"City Center, Gwalior - MPPCB",11-06-2024 15:00:00,26.203442,78.193251,PM2.5,37,143,70
India,Madhya Pradesh,Gwalior,"City Center, Gwalior - MPPCB",11-06-2024 15:00:00,26.203442,78.193251,NH3,1,3,2
India,Madhya Pradesh,Gwalior,"Deen Dayal Nagar, Gwalior - MPPCB",11-06-2024 15:00:00,26.259242,78.216432,NH3,5,8,6
India,Madhya Pradesh,Gwalior,"Maharaj Bada, Gwalior - MPPCB",11-06-2024 15:00:00,26.200388,78.147714,PM2.5,33,170,53
India,Madhya Pradesh,Gwalior,"Maharaj Bada, Gwalior - MPPCB",11-06-2024 15:00:00,26.200388,78.147714,NH3,3,17,6
India,Madhya Pradesh,Gwalior,"Maharaj Bada, Gwalior - MPPCB",11-06-2024 15:00:00,26.200388,78.147714,OZONE,46,170,170
India,Madhya Pradesh,Gwalior,"Phool Bagh, Gwalior - Mondelez Ind. Food",11-06-2024 15:00:00,26.210536,78.171,SO2,24,35,28
India,Madhya Pradesh,Indore,"Maguda Nagar, Indore - IMC",11-06-2024 15:00:00,22.7524,75.8872,PM10,NA,NA,NA
India,Madhya Pradesh,Indore,"Residency Area, Indore - IMC",11-06-2024 15:00:00,22.7084,75.8815,PM2.5,NA,NA,NA
India,Madhya Pradesh,Indore,"Residency Area, Indore - IMC",11-06-2024 15:00:00,22.7084,75.8815,NO2,15,77,50
India,Madhya Pradesh,Jabalpur,"Marhatal, Jabalpur - MPPCB",11-06-2024 15:00:00,23.168606,79.932247,PM10,56,156,101
India,Madhya Pradesh,Jabalpur,"Marhatal, Jabalpur - MPPCB",11-06-2024 15:00:00,23.168606,79.932247,NO2,8,55,23
India,Madhya Pradesh,Jabalpur,"Suhagi, Jabalpur - JMC",11-06-2024 15:00:00,23.218135,79.957770,CO,31,104,36
India,Madhya Pradesh,Jabalpur,"Suhagi, Jabalpur - JMC",11-06-2024 15:00:00,23.218135,79.957770,OZONE,13,91,66
India,Madhya Pradesh,Katni,"Gole Bazar, Katni - MPPCB",11-06-2024 15:00:00,23.50016,80.23284,NO2,29,55,45
India,Madhya Pradesh,Mandideep,"Sector-D Industrial Area, Mandideep - MPPCB",11-06-2024 15:00:00,23.108440,77.511428,NO2,12,42,22
India,Madhya Pradesh,Pithampur,"Sector-2 Industrial Area, Pithampur - MPPCB",11-06-2024 15:00:00,22.624758,75.675238,NH3,1,3,2
India,Madhya Pradesh,Pithampur,"Sector-2 Industrial Area, Pithampur - MPPCB",11-06-2024 15:00:00,22.624758,75.675238,CO,33,54,37
India,Madhya Pradesh,Ratlam,"Shasthri Nagar, Ratlam - IPCA Lab",11-06-2024 15:00:00,23.331731,75.045981,PM10,43,168,106
India,Madhya Pradesh,Sagar,"Civil Lines, Sagar - MPPCB",11-06-2024 15:00:00,23.838586,78.759431,PM2.5,37,76,52
India,Madhya Pradesh,Sagar,"Civil Lines, Sagar - MPPCB",11-06-2024 15:00:00,23.838586,78.759431,SO2,1,24,5
India,Madhya Pradesh,Satna,"Bandhavgar Colony, Satna - Birla Cement",11-06-2024 15:00:00,24.58434363,80.8549414,NO2,25,55,38
India,Madhya Pradesh,Satna,"Bandhavgar Colony, Satna - Birla Cement",11-06-2024 15:00:00,24.58434363,80.8549414,SO2,2,4,3
India,Madhya Pradesh,Satna,"Bandhavgar Colony, Satna - Birla Cement",11-06-2024 15:00:00,24.58434363,80.8549414,OZONE,15,71,42
India,Madhya Pradesh,Singrauli,"Suryakiran Bhawan NCL, Singrauli - MPPCB",11-06-2024 15:00:00,24.108970,82.645580,NH3,3,5,4
India,Madhya Pradesh,Ujjain,"Mahakaleshwar Temple, Ujjain - MPPCB",11-06-2024 15:00:00,23.182719 ,75.768218 ,NH3,6,9,8
India,Madhya Pradesh,Ujjain,"Mahakaleshwar Temple, Ujjain - MPPCB",11-06-2024 15:00:00,23.182719 ,75.768218 ,OZONE,69,75,71
India,Maharashtra,Ahmednagar,"Tarakpur, Ahmednagar - MPCB",11-06-2024 15:00:00,19.10122,74.73339,CO,20,60,45
India,Maharashtra,Amravati,"Shivneri Colony, Amravati - MPCB",11-06-2024 15:00:00,20.9402359,77.7895248,PM2.5,37,83,52
India,Maharashtra,Amravati,"Shivneri Colony, Amravati - MPCB",11-06-2024 15:00:00,20.9402359,77.7895248,NO2,10,41,21
India,Maharashtra,Amravati,"Shivneri Colony, Amravati - MPCB",11-06-2024 15:00:00,20.9402359,77.7895248,CO,14,41,21
India,Maharashtra,Amravati,"Shri Shivaji Science College, Amaravati - MPCB",11-06-2024 15:00:00,20.939198,77.765701,NH3,2,4,3
India,Maharashtra,Amravati,"Shri Shivaji Science College, Amaravati - MPCB",11-06-2024 15:00:00,20.939198,77.765701,SO2,1,7,2
India,Maharashtra,Amravati,"Shri Shivaji Science College, Amaravati - MPCB",11-06-2024 15:00:00,20.939198,77.765701,OZONE,22,82,36
India,Maharashtra,Aurangabad,"More Chowk Waluj, Aurangabad - MPCB",11-06-2024 15:00:00,19.8389439,75.244448,CO,15,64,25
India,Maharashtra,Aurangabad,"Rachnakar Colony, Aurangabad - MPCB",11-06-2024 15:00:00,19.863756,75.321188,PM2.5,35,63,52
India,Maharashtra,Aurangabad,"Rachnakar Colony, Aurangabad - MPCB",11-06-2024 15:00:00,19.863756,75.321188,OZONE,42,89,54
India,Maharashtra,Belapur,"CBD Belapur, Belapur - MPCB",11-06-2024 15:00:00,19.0243902,73.0406721,PM10,33,73,54
India,Maharashtra,Belapur,"CBD Belapur, Belapur - MPCB",11-06-2024 15:00:00,19.0243902,73.0406721,SO2,8,9,8
India,Maharashtra,Belapur,"CBD Belapur, Belapur - MPCB",11-06-2024 15:00:00,19.0243902,73.0406721,CO,9,40,27
India,Maharashtra,Bhiwandi,"Gokul Nagar, Bhiwandi - MPCB",11-06-2024 15:00:00,19.309073,73.057223,NH3,1,4,2
India,Maharashtra,Boisar,"Khaira, Boisar - MPCB",11-06-2024 15:00:00,19.786089,72.757971,PM2.5,11,71,33
India,Maharashtra,Chandrapur,"Chauhan Colony, Chandrapur - MPCB",11-06-2024 15:00:00,19.962900,79.298714,SO2,3,18,6
India,Maharashtra,Chandrapur,"MIDC Khutala, Chandrapur - MPCB",11-06-2024 15:00:00,19.9775302,79.2337086,CO,3,51,31
India,Maharashtra,Dhule,"Deopur, Dhule - MPCB",11-06-2024 15:00:00,20.918946,74.776388,PM10,58,111,94
India,Maharashtra,Dhule,"Deopur, Dhule - MPCB",11-06-2024 15:00:00,20.918946,74.776388,NO2,4,14,9
India,Maharashtra,Jalgaon,"Prabhat Colony, Jalgaon - MPCB",11-06-2024 15:00:00,21.001264,75.565602,NH3,2,11,6
India,Maharashtra,Kalyan,"Khadakpada, Kalyan - MPCB",11-06-2024 15:00:00,19.25292,73.142019,NH3,1,1,1
India,Maharashtra,Kalyan,"Khadakpada, Kalyan - MPCB",11-06-2024 15:00:00,19.25292,73.142019,SO2,24,29,26
India,Maharashtra,Kalyan,"Khadakpada, Kalyan - MPCB",11-06-2024 15:00:00,19.25292,73.142019,CO,15,18,17
India,Maharashtra,Kolhapur,"Shivaji University, Kolhapur - MPCB",11-06-2024 15:00:00,16.6870449,74.2505872,SO2,1,1,1
India,Maharashtra,Kolhapur,"Shivaji University, Kolhapur - MPCB",11-06-2024 15:00:00,16.6870449,74.2505872,OZONE,35,95,55
India,Maharashtra,Kolhapur,"Sinchan Bhavan, Kolhapur - MPCB",11-06-2024 15:00:00,16.7143745,74.2426398,PM2.5,22,38,29
India,Maharashtra,Kolhapur,"Sinchan Bhavan, Kolhapur - MPCB",11-06-2024 15:00:00,16.7143745,74.2426398,OZONE,38,64,46
India,Maharashtra,Latur,"Sawe Wadi, Latur - MPCB",11-06-2024 15:00:00,18.39963,76.57452,NO2,2,64,16
India,Maharashtra,Mahad,"Kamble Tarf Birwadi, Mahad - MPCB",11-06-2024 15:00:00,18.1023399,73.4783687,CO,5,46,32
India,Maharashtra,Malegaon,"Mahesh Nagar, Malegaon - MPCB",11-06-2024 15:00:00,20.555712,74.529236,PM10,72,115,95
India,Maharashtra,Mira-Bhayandar,"Bhayandar West, Mira-Bhayandar - MPCB",11-06-2024 15:00:00,19.296481,72.840923,PM2.5,19,40,28
India,Maharashtra,Mumbai,"Bandra Kurla Complex, Mumbai - MPCB",11-06-2024 15:00:00,19.065931,72.862131,PM10,28,81,50
India,Maharashtra,Mumbai,"Bandra Kurla Complex, Mumbai - MPCB",11-06-2024 15:00:00,19.065931,72.862131,SO2,1,4,3
India,Maharashtra,Mumbai,"Borivali East, Mumbai - IITM",11-06-2024 15:00:00,19.23241,72.86895,NH3,8,12,10
India,Maharashtra,Mumbai,"Borivali East, Mumbai - MPCB",11-06-2024 15:00:00,19.2243333,72.8658113,PM10,NA,NA,NA
India,Maharashtra,Mumbai,"Borivali East, Mumbai - MPCB",11-06-2024 15:00:00,19.2243333,72.8658113,NO2,NA,NA,NA
India,Maharashtra,Mumbai,"Borivali East, Mumbai - MPCB",11-06-2024 15:00:00,19.2243333,72.8658113,NH3,NA,NA,NA
India,Maharashtra,Mumbai,"Borivali East, Mumbai - MPCB",11-06-2024 15:00:00,19.2243333,72.8658113,SO2,NA,NA,NA
India,Maharashtra,Mumbai,"Byculla, Mumbai - BMC",11-06-2024 15:00:00,18.9767,72.8380,SO2,1,3,2
India,Maharashtra,Mumbai,"Byculla, Mumbai - BMC",11-06-2024 15:00:00,18.9767,72.8380,CO,8,26,16
India,Maharashtra,Mumbai,"Chakala-Andheri East, Mumbai - IITM",11-06-2024 15:00:00,19.11074,72.86084,PM2.5,27,46,39
India,Maharashtra,Mumbai,"Chembur, Mumbai - MPCB",11-06-2024 15:00:00,19.0364585,72.8954371,PM2.5,18,50,34
India,Maharashtra,Mumbai,"Colaba, Mumbai - MPCB",11-06-2024 15:00:00,18.910000,72.820000,PM10,17,138,64
India,Maharashtra,Mumbai,"Deonar, Mumbai - IITM",11-06-2024 15:00:00,19.04946,72.9230,NH3,7,8,7
India,Maharashtra,Mumbai,"Kandivali East, Mumbai - MPCB",11-06-2024 15:00:00,19.205800,72.868200,NH3,2,41,6
India,Maharashtra,Mumbai,"Kandivali East, Mumbai - MPCB",11-06-2024 15:00:00,19.205800,72.868200,OZONE,21,31,28
India,Maharashtra,Mumbai,"Kherwadi_Bandra East, Mumbai - MPCB",11-06-2024 15:00:00,19.0632143,72.8456324,PM10,23,54,39
India,Maharashtra,Mumbai,"Kherwadi_Bandra East, Mumbai - MPCB",11-06-2024 15:00:00,19.0632143,72.8456324,OZONE,2,61,29
India,Maharashtra,Mumbai,"Khindipada-Bhandup West, Mumbai - IITM",11-06-2024 15:00:00,19.1653323,72.922099,NO2,2,17,8
India,Maharashtra,Mumbai,"Kurla, Mumbai - MPCB",11-06-2024 15:00:00,19.0863,72.8888,PM2.5,NA,NA,NA
India,Maharashtra,Mumbai,"Mazgaon, Mumbai - IITM",11-06-2024 15:00:00,18.96702,72.84214,OZONE,4,47,17
India,Maharashtra,Mumbai,"Mindspace-Malad West, Mumbai - MPCB",11-06-2024 15:00:00,19.1878657,72.8304069,SO2,5,9,6
India,Maharashtra,Mumbai,"Mulund West, Mumbai - MPCB",11-06-2024 15:00:00,19.1750,72.9419,NH3,10,10,10
India,Maharashtra,Mumbai,"Navy Nagar-Colaba, Mumbai - IITM",11-06-2024 15:00:00,18.897756,72.813320,SO2,1,7,3
India,Maharashtra,Mumbai,"Powai, Mumbai - MPCB",11-06-2024 15:00:00,19.137500,72.915056,SO2,14,15,14
India,Maharashtra,Mumbai,"Powai, Mumbai - MPCB",11-06-2024 15:00:00,19.137500,72.915056,CO,36,46,45
India,Maharashtra,Mumbai,"Siddharth Nagar-Worli, Mumbai - IITM",11-06-2024 15:00:00,19.000083,72.813993,PM2.5,NA,NA,NA
India,Maharashtra,Mumbai,"Siddharth Nagar-Worli, Mumbai - IITM",11-06-2024 15:00:00,19.000083,72.813993,PM10,NA,NA,NA
India,Maharashtra,Mumbai,"Sion, Mumbai - MPCB",11-06-2024 15:00:00,19.047000,72.874600,SO2,25,26,26
India,Maharashtra,Mumbai,"Vasai West, Mumbai - MPCB",11-06-2024 15:00:00,19.383200,72.820400,PM2.5,17,41,28
India,Maharashtra,Mumbai,"Vasai West, Mumbai - MPCB",11-06-2024 15:00:00,19.383200,72.820400,NH3,4,5,4
India,Maharashtra,Mumbai,"Worli, Mumbai - MPCB",11-06-2024 15:00:00,18.9936162,72.8128113,PM2.5,7,34,20
India,Maharashtra,Nagpur,"Ambazari, Nagpur - MPCB",11-06-2024 15:00:00,21.121801,79.04952,NO2,5,23,12
India,Maharashtra,Nagpur,"Ambazari, Nagpur - MPCB",11-06-2024 15:00:00,21.121801,79.04952,NH3,2,4,3
India,Maharashtra,Nagpur,"Ambazari, Nagpur - MPCB",11-06-2024 15:00:00,21.121801,79.04952,SO2,2,48,15
India,Maharashtra,Nagpur,"Mahal, Nagpur - MPCB",11-06-2024 15:00:00,21.14472,79.107595,PM2.5,46,100,68
India,Maharashtra,Nagpur,"Mahal, Nagpur - MPCB",11-06-2024 15:00:00,21.14472,79.107595,CO,20,104,41
India,Maharashtra,Nagpur,"Mahal, Nagpur - MPCB",11-06-2024 15:00:00,21.14472,79.107595,OZONE,51,145,95
India,Maharashtra,Nagpur,"Opp GPO Civil Lines, Nagpur - MPCB",11-06-2024 15:00:00,21.152875,79.0517531,NH3,3,5,4
India,Maharashtra,Nagpur,"Opp GPO Civil Lines, Nagpur - MPCB",11-06-2024 15:00:00,21.152875,79.0517531,OZONE,30,84,49
India,Maharashtra,Nanded,"Sneh Nagar, Nanded - MPCB",11-06-2024 15:00:00,19.173852,77.296291,NO2,6,15,9
India,Maharashtra,Nashik,"Hirawadi, Nashik - MPCB",11-06-2024 15:00:00,20.021503,73.813844,CO,9,22,12
India,Maharashtra,Nashik,"MIDC Ambad, Nashik - MPCB",11-06-2024 15:00:00,19.950220,73.731480,SO2,7,19,14
India,Maharashtra,Nashik,"MIDC Ambad, Nashik - MPCB",11-06-2024 15:00:00,19.950220,73.731480,CO,16,51,35
India,Maharashtra,Navi Mumbai,"Kopripada-Vashi, Navi Mumbai - MPCB",11-06-2024 15:00:00,19.090337,73.014232,PM10,39,54,48
India,Maharashtra,Navi Mumbai,"Kopripada-Vashi, Navi Mumbai - MPCB",11-06-2024 15:00:00,19.090337,73.014232,SO2,4,5,4
India,Maharashtra,Navi Mumbai,"Kopripada-Vashi, Navi Mumbai - MPCB",11-06-2024 15:00:00,19.090337,73.014232,OZONE,6,160,42
India,Maharashtra,Navi Mumbai,"Mahape, Navi Mumbai - MPCB",11-06-2024 15:00:00,19.1135051,73.008978,OZONE,6,6,6
India,Maharashtra,Navi Mumbai,"Nerul, Navi Mumbai - MPCB",11-06-2024 15:00:00,19.008751,73.016620,NO2,NA,NA,NA
India,Maharashtra,Navi Mumbai,"Sector-19A Nerul, Navi Mumbai - IITM",11-06-2024 15:00:00,19.044,73.0325,PM10,5,56,30
India,Maharashtra,Navi Mumbai,"Sector-19A Nerul, Navi Mumbai - IITM",11-06-2024 15:00:00,19.044,73.0325,CO,3,38,24
India,Maharashtra,Navi Mumbai,"Sector-2E Kalamboli, Navi Mumbai - MPCB",11-06-2024 15:00:00,19.02579,73.10297,CO,2,80,19
India,Maharashtra,Navi Mumbai,"Sector-2E Kalamboli, Navi Mumbai - MPCB",11-06-2024 15:00:00,19.02579,73.10297,OZONE,1,39,14
India,Maharashtra,Navi Mumbai,"Tondare-Taloja, Navi Mumbai - MPCB",11-06-2024 15:00:00,19.0630,73.1209,PM10,60,98,78
India,Maharashtra,Navi Mumbai,"Tondare-Taloja, Navi Mumbai - MPCB",11-06-2024 15:00:00,19.0630,73.1209,NH3,3,9,6
India,Maharashtra,Parbhani,"Masoom Colony, Parbhani - MPCB",11-06-2024 15:00:00,19.265594,76.761463,NO2,12,21,15
India,Maharashtra,Parbhani,"Masoom Colony, Parbhani - MPCB",11-06-2024 15:00:00,19.265594,76.761463,NH3,4,8,6
India,Maharashtra,Parbhani,"Masoom Colony, Parbhani - MPCB",11-06-2024 15:00:00,19.265594,76.761463,SO2,NA,NA,NA
India,Maharashtra,Pimpri-Chinchwad,"Gavalinagar, Pimpri Chinchwad - MPCB",11-06-2024 15:00:00,18.63673,73.82487,PM2.5,28,53,40
India,Maharashtra,Pune,"Bhosari, Pune - IITM",11-06-2024 15:00:00,18.640051,73.848956,NO2,NA,NA,NA
India,Maharashtra,Pune,"Bhumkar Nagar, Pune - IITM",11-06-2024 15:00:00,18.605770,73.749976,PM2.5,10,38,21
India,Maharashtra,Pune,"Mhada Colony, Pune - IITM",11-06-2024 15:00:00,18.573040,73.927715,NO2,41,98,61
India,Maharashtra,Pune,"Revenue Colony-Shivajinagar, Pune - IITM",11-06-2024 15:00:00,18.530085,73.849598,NO2,19,92,38
India,Maharashtra,Solapur,"Dnyaneshwar Nagar, Solapur - MPCB",11-06-2024 15:00:00,17.6336264,75.9132495,PM2.5,NA,NA,NA
India,Maharashtra,Solapur,"Dnyaneshwar Nagar, Solapur - MPCB",11-06-2024 15:00:00,17.6336264,75.9132495,PM10,NA,NA,NA
India,Maharashtra,Solapur,"Ratandeep Housing Society, Solapur - MPCB",11-06-2024 15:00:00,17.65439,75.90649,NH3,4,14,9
India,Maharashtra,Solapur,"Solapur, Solapur - MPCB",11-06-2024 15:00:00,17.6599188,75.9063906,PM10,54,114,102
India,Maharashtra,Thane,"Kasarvadavali, Thane - MPCB",11-06-2024 15:00:00,19.26777,72.97182,PM10,NA,NA,NA
India,Maharashtra,Thane,"Kasarvadavali, Thane - MPCB",11-06-2024 15:00:00,19.26777,72.97182,SO2,NA,NA,NA
India,Maharashtra,Thane,"Upvan Fort, Thane - MPCB",11-06-2024 15:00:00,19.222279,72.957979,PM2.5,19,63,35
India,Maharashtra,Thane,"Upvan Fort, Thane - MPCB",11-06-2024 15:00:00,19.222279,72.957979,PM10,23,55,37
India,Maharashtra,Ulhasnagar,"Sidhi Vinayak Nagar, Ulhasnagar - MPCB",11-06-2024 15:00:00,19.235581,73.159121,OZONE,5,94,34
India,Maharashtra,Virar,"Bolinj, Virar - MPCB",11-06-2024 15:00:00,19.4458210,72.7988231,PM2.5,NA,NA,NA
India,Maharashtra,Virar,"Bolinj, Virar - MPCB",11-06-2024 15:00:00,19.4458210,72.7988231,NH3,NA,NA,NA
India,Maharashtra,Virar,"Bolinj, Virar - MPCB",11-06-2024 15:00:00,19.4458210,72.7988231,OZONE,61,85,61
India,Manipur,Imphal,"DM College of Science, Imphal - Manipur PCB",11-06-2024 15:00:00,24.8207389,93.9423085,NH3,NA,NA,NA
India,Manipur,Imphal,"DM College of Science, Imphal - Manipur PCB",11-06-2024 15:00:00,24.8207389,93.9423085,OZONE,10,15,12
India,Manipur,Imphal,"Manipur University, Imphal - Manipur PCB",11-06-2024 15:00:00,24.7524239,93.9286218,SO2,98,103,101
India,Meghalaya,Shillong,"Lumpyngngad, Shillong - Meghalaya PCB",11-06-2024 15:00:00,25.5586,91.8985,NO2,1,2,1
India,Meghalaya,Shillong,"Lumpyngngad, Shillong - Meghalaya PCB",11-06-2024 15:00:00,25.5586,91.8985,OZONE,1,24,1
India,Mizoram,Aizawl,"Sikulpuikawn, Aizawl - Mizoram PCB",11-06-2024 15:00:00,23.7176342,92.7192841,PM10,29,107,60
India,Mizoram,Aizawl,"Sikulpuikawn, Aizawl - Mizoram PCB",11-06-2024 15:00:00,23.7176342,92.7192841,SO2,2,3,3
India,Mizoram,Aizawl,"Sikulpuikawn, Aizawl - Mizoram PCB",11-06-2024 15:00:00,23.7176342,92.7192841,OZONE,4,19,9
India,Nagaland,Kohima,"PWD Juction, Kohima - NPCB",11-06-2024 15:00:00,25.6635413,94.0989878,PM2.5,52,207,103
India,Nagaland,Kohima,"PWD Juction, Kohima - NPCB",11-06-2024 15:00:00,25.6635413,94.0989878,NH3,1,1,1
India,Nagaland,Kohima,"PWD Juction, Kohima - NPCB",11-06-2024 15:00:00,25.6635413,94.0989878,CO,2,24,13
India,Odisha,Balasore,"Kalidaspur, Balasore - OSPCB",11-06-2024 15:00:00,21.51161,86.89088,NO2,6,24,9
India,Odisha,Balasore,"Kalidaspur, Balasore - OSPCB",11-06-2024 15:00:00,21.51161,86.89088,SO2,14,22,16
India,Odisha,Balasore,"Kalidaspur, Balasore - OSPCB",11-06-2024 15:00:00,21.51161,86.89088,OZONE,21,65,35
India,Odisha,Barbil,"Forest Office, Barbil - OSPCB",11-06-2024 15:00:00,22.1166054,85.3945546,NH3,3,3,3
India,Odisha,Baripada,"Meher Colony, Baripada - OSPCB",11-06-2024 15:00:00,21.941841,86.728318,NO2,1,20,9
India,Odisha,Bhubaneswar,"Lingraj Mandir, Bhubaneswar - OSPCB",11-06-2024 15:00:00,20.240790,85.836784,PM2.5,7,43,25
India,Odisha,Bhubaneswar,"Lingraj Mandir, Bhubaneswar - OSPCB",11-06-2024 15:00:00,20.240790,85.836784,NO2,4,21,11
India,Odisha,Bileipada,"Tata Township, Bileipada - OSPCB",11-06-2024 15:00:00,22.06156703,85.47409613,PM2.5,75,119,95
India,Odisha,Bileipada,"Tata Township, Bileipada - OSPCB",11-06-2024 15:00:00,22.06156703,85.47409613,PM10,123,206,164
India,Odisha,Byasanagar,"Ferro Chrome Colony, Byasanagar - OSPCB",11-06-2024 15:00:00,20.94185,86.11510,NO2,8,14,10
India,Odisha,Byasanagar,"Ferro Chrome Colony, Byasanagar - OSPCB",11-06-2024 15:00:00,20.94185,86.11510,NH3,1,4,2
India,Odisha,Byasanagar,"Ferro Chrome Colony, Byasanagar - OSPCB",11-06-2024 15:00:00,20.94185,86.11510,OZONE,31,155,65
India,Odisha,Cuttack,"CDA Area, Cuttack - OSPCB",11-06-2024 15:00:00,20.48891     ,85.84768     ,PM2.5,10,50,25
India,Odisha,Cuttack,"CDA Area, Cuttack - OSPCB",11-06-2024 15:00:00,20.48891     ,85.84768     ,NH3,1,3,1
India,Odisha,Nayagarh,"Dabuna, Nayagarh - OSPCB",11-06-2024 15:00:00,21.847279,85.416905,PM2.5,69,123,95
India,Odisha,Rairangpur,"Divisional Forest Office, Rairangpur - OSPCB",11-06-2024 15:00:00,22.265816,86.174829,PM2.5,63,141,88
India,Odisha,Rairangpur,"Divisional Forest Office, Rairangpur - OSPCB",11-06-2024 15:00:00,22.265816,86.174829,SO2,15,18,16
India,Odisha,Rairangpur,"Divisional Forest Office, Rairangpur - OSPCB",11-06-2024 15:00:00,22.265816,86.174829,OZONE,7,40,17
India,Odisha,Rourkela,"Fertilizer Township, Rourkela - OSPCB",11-06-2024 15:00:00,22.18972222,84.86277778,PM10,NA,NA,NA
India,Odisha,Rourkela,"Raghunathpali, Rourkela - OSPCB",11-06-2024 15:00:00,22.220833,84.809444,PM2.5,76,193,118
India,Odisha,Rourkela,"Raghunathpali, Rourkela - OSPCB",11-06-2024 15:00:00,22.220833,84.809444,NO2,19,83,41
India,Odisha,Suakati,"OMC Colony, Suakati - OSPCB",11-06-2024 15:00:00,21.606865,85.510538,PM2.5,50,85,67
India,Odisha,Talcher,"Talcher Coalfields,Talcher - OSPCB",11-06-2024 15:00:00,20.9360711,85.1707021,PM2.5,11,312,82
India,Odisha,Talcher,"Talcher Coalfields,Talcher - OSPCB",11-06-2024 15:00:00,20.9360711,85.1707021,NO2,17,23,20
India,Odisha,Tensa,"Barsua Iron Ore Mines, Tensa - OSPCB",11-06-2024 15:00:00,21.869985,85.167016,CO,13,37,23
India,Puducherry,Puducherry,"Jawahar Nagar, Puducherry - PPCC",11-06-2024 15:00:00,11.9309,79.8027,SO2,NA,NA,NA
India,Puducherry,Puducherry,"Jawahar Nagar, Puducherry - PPCC",11-06-2024 15:00:00,11.9309,79.8027,CO,14,40,19
India,Punjab,Amritsar,"Golden Temple, Amritsar - PPCB",11-06-2024 15:00:00,31.620000,74.876512,PM2.5,62,213,127
India,Punjab,Bathinda,"Hardev Nagar, Bathinda - PPCB",11-06-2024 15:00:00,30.233011,74.907758,NO2,32,33,32
India,Punjab,Khanna,"Kalal Majra, Khanna - PPCB",11-06-2024 15:00:00,30.736056 ,76.209694,PM2.5,NA,NA,NA
India,Punjab,Khanna,"Kalal Majra, Khanna - PPCB",11-06-2024 15:00:00,30.736056 ,76.209694,CO,36,46,41
India,Punjab,Patiala,"Model Town, Patiala - PPCB",11-06-2024 15:00:00,30.349388,76.366642,CO,15,56,29
India,Punjab,Rupnagar,"Ratanpura, Rupnagar - Ambuja Cements",11-06-2024 15:00:00,31.0325454,76.5623046,PM2.5,30,152,87
India,Rajasthan,Ajmer,"Civil Lines,  Ajmer - RSPCB",11-06-2024 15:00:00,26.470859,74.646594,CO,5,51,23
India,Rajasthan,Alwar,"Moti Doongri, Alwar - RSPCB",11-06-2024 15:00:00,27.554793,76.611536,NH3,2,6,4
India,Rajasthan,Banswara,"Rati Talai, Banswara - RSPCB",11-06-2024 15:00:00,23.555190,74.440010,PM2.5,NA,NA,NA
India,Rajasthan,Banswara,"Rati Talai, Banswara - RSPCB",11-06-2024 15:00:00,23.555190,74.440010,CO,26,77,35
India,Rajasthan,Banswara,"Rati Talai, Banswara - RSPCB",11-06-2024 15:00:00,23.555190,74.440010,OZONE,22,104,41
India,Rajasthan,Baran,"Bamboliya, Baran - RSPCB",11-06-2024 15:00:00,25.106006,76.469948,NO2,12,42,19
India,Rajasthan,Barmer,"Railway Colony, Barmer - RSPCB",11-06-2024 15:00:00,25.747299,71.393989,PM10,88,333,129
India,Rajasthan,Bharatpur,"Krishna Nagar, Bharatpur - RSPCB",11-06-2024 15:00:00,27.215415,77.50873,PM2.5,44,174,77
India,Rajasthan,Bharatpur,"Krishna Nagar, Bharatpur - RSPCB",11-06-2024 15:00:00,27.215415,77.50873,NO2,12,61,30
India,Rajasthan,Bharatpur,"Krishna Nagar, Bharatpur - RSPCB",11-06-2024 15:00:00,27.215415,77.50873,NH3,1,2,1
India,Rajasthan,Bhilwara,"Pratap Nagar, Bhilwara - RSPCB",11-06-2024 15:00:00,25.339605,74.618883,OZONE,18,90,50
India,Rajasthan,Bhiwadi,"RIICO Ind. Area III, Bhiwadi - RSPCB",11-06-2024 15:00:00,28.194909,76.862296,NH3,1,5,3
India,Rajasthan,Bikaner,"MM Ground, Bikaner - RSPCB",11-06-2024 15:00:00,28.018792,73.292658,PM10,101,270,144
India,Rajasthan,Bikaner,"MM Ground, Bikaner - RSPCB",11-06-2024 15:00:00,28.018792,73.292658,NH3,8,13,11
India,Rajasthan,Chittorgarh,"Shastri Nagar, Chittorgarh - RSPCB",11-06-2024 15:00:00,24.892047,74.623527,PM2.5,50,110,78
India,Rajasthan,Chittorgarh,"Shastri Nagar, Chittorgarh - RSPCB",11-06-2024 15:00:00,24.892047,74.623527,NO2,5,10,9
India,Rajasthan,Chittorgarh,"Shastri Nagar, Chittorgarh - RSPCB",11-06-2024 15:00:00,24.892047,74.623527,SO2,1,7,3
India,Rajasthan,Churu,"Subash Chowk, Churu - RSPCB",11-06-2024 15:00:00,28.296139,74.961696,NO2,5,140,29
India,Rajasthan,Churu,"Subash Chowk, Churu - RSPCB",11-06-2024 15:00:00,28.296139,74.961696,CO,8,86,14
India,Rajasthan,Dausa,"Khatikan Mohalla, Dausa - RSPCB",11-06-2024 15:00:00,26.895552,76.334753,NH3,5,12,8
India,Rajasthan,Dausa,"Khatikan Mohalla, Dausa - RSPCB",11-06-2024 15:00:00,26.895552,76.334753,CO,35,70,59
India,Rajasthan,Dholpur,"Raja Ganj, Dholpur - RSPCB",11-06-2024 15:00:00,26.699557,77.898881,NH3,7,28,9
India,Rajasthan,Dholpur,"Raja Ganj, Dholpur - RSPCB",11-06-2024 15:00:00,26.699557,77.898881,CO,4,43,16
India,Rajasthan,Dungarpur,"Bhoiwada, Dungarpur - RSPCB",11-06-2024 15:00:00,23.837789,73.714926,PM2.5,28,62,41
India,Rajasthan,Dungarpur,"Bhoiwada, Dungarpur - RSPCB",11-06-2024 15:00:00,23.837789,73.714926,SO2,1,8,2
India,Rajasthan,Hanumangarh,"Housing Board, Hanumangarh - RSPCB",11-06-2024 15:00:00,29.610750,74.283608,PM2.5,NA,NA,NA
India,Rajasthan,Hanumangarh,"Housing Board, Hanumangarh - RSPCB",11-06-2024 15:00:00,29.610750,74.283608,PM10,NA,NA,NA
India,Rajasthan,Hanumangarh,"Housing Board, Hanumangarh - RSPCB",11-06-2024 15:00:00,29.610750,74.283608,OZONE,49,64,60
India,Rajasthan,Jaipur,"Mansarovar Sector-12, Jaipur - RSPCB",11-06-2024 15:00:00,26.843698,75.766894,NO2,21,59,34
India,Rajasthan,Jaipur,"Mansarovar Sector-12, Jaipur - RSPCB",11-06-2024 15:00:00,26.843698,75.766894,SO2,7,12,10
India,Rajasthan,Jaipur,"Police Commissionerate, Jaipur - RSPCB",11-06-2024 15:00:00,26.9164092,75.7994901,SO2,17,24,21
India,Rajasthan,Jaipur,"Police Commissionerate, Jaipur - RSPCB",11-06-2024 15:00:00,26.9164092,75.7994901,CO,18,80,43
India,Rajasthan,Jaipur,"RIICO Sitapura, Jaipur - RSPCB",11-06-2024 15:00:00,26.786682,75.827928,NO2,18,174,43
India,Rajasthan,Jaipur,"RIICO Sitapura, Jaipur - RSPCB",11-06-2024 15:00:00,26.786682,75.827928,CO,17,151,151
India,Rajasthan,Jaipur,"Sector-2 Murlipura, Jaipur - RSPCB",11-06-2024 15:00:00,26.960669,75.771817,NO2,8,39,16
India,Rajasthan,Jaipur,"Shastri Nagar, Jaipur - RSPCB",11-06-2024 15:00:00,26.9502929,75.730943,PM10,101,151,125
India,Rajasthan,Jaisalmer,"Sadar Bazar, Jaisalmer - RSPCB",11-06-2024 15:00:00,26.912329,70.909168,SO2,2,4,3
India,Rajasthan,Jalore,"Mudtra Sili, Jalore - RSPCB",11-06-2024 15:00:00,25.344694,72.626208,NO2,3,19,9
India,Rajasthan,Jalore,"Mudtra Sili, Jalore - RSPCB",11-06-2024 15:00:00,25.344694,72.626208,NH3,6,8,7
India,Rajasthan,Jalore,"Mudtra Sili, Jalore - RSPCB",11-06-2024 15:00:00,25.344694,72.626208,OZONE,37,87,49
India,Rajasthan,Jhalawar,"Rajlaxmi Nagar, Jhalawar - RSPCB",11-06-2024 15:00:00,24.588397,76.172782,SO2,3,9,6
India,Rajasthan,Jhunjhunu,"Indra Nagar, Jhunjhunu - RSPCB",11-06-2024 15:00:00,28.108988,75.386577,OZONE,10,136,78
India,Rajasthan,Jodhpur,"Digari Kalan, Jodhpur - RSPCB",11-06-2024 15:00:00,26.295810,73.082283,NO2,2,10,5
India,Rajasthan,Jodhpur,"Digari Kalan, Jodhpur - RSPCB",11-06-2024 15:00:00,26.295810,73.082283,OZONE,18,154,92
India,Rajasthan,Jodhpur,"Jhalamand, Jodhpur - RSPCB",11-06-2024 15:00:00,26.215415,73.070156,PM10,46,134,81
India,Rajasthan,Jodhpur,"Mandor, Jodhpur - RSPCB",11-06-2024 15:00:00,26.358805,73.047444,NH3,3,12,6
India,Rajasthan,Jodhpur,"Samrat Ashok Udhyan, Jodhpur - RSPCB",11-06-2024 15:00:00,26.253384,72.976571,SO2,3,6,4
India,Rajasthan,Jodhpur,"Samrat Ashok Udhyan, Jodhpur - RSPCB",11-06-2024 15:00:00,26.253384,72.976571,CO,8,18,14
India,Rajasthan,Karauli,"Satyawati Vihar, Karauli - RSPCB",11-06-2024 15:00:00,26.506177,77.025989,PM2.5,40,83,55
India,Rajasthan,Karauli,"Satyawati Vihar, Karauli - RSPCB",11-06-2024 15:00:00,26.506177,77.025989,OZONE,23,166,67
India,Rajasthan,Kota,"Dhanmandi, Kota - RSPCB",11-06-2024 15:00:00,25.164090,75.858137,PM2.5,21,86,55
India,Rajasthan,Kota,"Dhanmandi, Kota - RSPCB",11-06-2024 15:00:00,25.164090,75.858137,PM10,48,170,94
India,Rajasthan,Kota,"Dhanmandi, Kota - RSPCB",11-06-2024 15:00:00,25.164090,75.858137,NO2,21,93,47
India,Rajasthan,Kota,"Nayapura, Kota - RSPCB",11-06-2024 15:00:00,25.196024,75.855668,PM2.5,25,92,47
India,Rajasthan,Kota,"Nayapura, Kota - RSPCB",11-06-2024 15:00:00,25.196024,75.855668,NH3,1,2,1
India,Rajasthan,Pratapgarh,"Pragati Nagar, Pratapgarh - RSPCB",11-06-2024 15:00:00,24.041198,74.780702,OZONE,48,94,69
India,Rajasthan,Rajsamand,"Dhoinda, Rajsamand - RSPCB",11-06-2024 15:00:00,25.036360,73.883502,PM2.5,5,43,20
India,Rajasthan,Rajsamand,"Dhoinda, Rajsamand - RSPCB",11-06-2024 15:00:00,25.036360,73.883502,PM10,28,84,49
India,Rajasthan,Sawai Madhopur,"Sahu Nagar, Sawai Madhopur - RSPCB",11-06-2024 15:00:00,26.031443,76.359327,NO2,15,26,19
India,Rajasthan,Sikar,"Radhakishan Pura, Sikar - RSPCB",11-06-2024 15:00:00,27.608912,75.153302,NO2,1,143,27
India,Rajasthan,Sirohi,"Vedhaynath Colony, Sirohi - RSPCB",11-06-2024 15:00:00,24.885261,72.857549,PM2.5,NA,NA,NA
India,Rajasthan,Sri Ganganagar,"Old City, Sri Ganganagar - RSPCB",11-06-2024 15:00:00,29.931624,73.864511,PM2.5,65,315,142
India,Rajasthan,Udaipur,"Ashok Nagar, Udaipur - RSPCB",11-06-2024 15:00:00,24.5886166,73.6321397,PM10,34,118,69
India,Sikkim,Gangtok,"Zero Point GICI, Gangtok - SSPCB",11-06-2024 15:00:00,27.338530,88.614099,SO2,12,13,12
India,TamilNadu,Ariyalur,"Keelapalur, Ariyalur - TNPCB",11-06-2024 15:00:00,11.06825,79.07033,NO2,7,9,8
India,TamilNadu,Chennai,"Alandur Bus Depot, Chennai - CPCB",11-06-2024 15:00:00,12.9099161,80.1076538,PM2.5,23,23,23
India,TamilNadu,Chennai,"Alandur Bus Depot, Chennai - CPCB",11-06-2024 15:00:00,12.9099161,80.1076538,SO2,1,12,6
India,TamilNadu,Chennai,"Arumbakkam, Chennai - TNPCB",11-06-2024 15:00:00,13.0664,80.2112 ,SO2,5,12,7
India,TamilNadu,Chennai,"Kodungaiyur, Chennai - TNPCB",11-06-2024 15:00:00,13.1278,80.2642,SO2,2,6,4
India,TamilNadu,Chennai,"Kodungaiyur, Chennai - TNPCB",11-06-2024 15:00:00,13.1278,80.2642,OZONE,22,65,36
India,TamilNadu,Chennai,"Manali, Chennai - CPCB",11-06-2024 15:00:00,13.164544,80.26285,OZONE,6,7,6
India,TamilNadu,Chennai,"Perungudi, Chennai - TNPCB",11-06-2024 15:00:00,12.9533,80.2357,NO2,3,14,8
India,TamilNadu,Chennai,"Perungudi, Chennai - TNPCB",11-06-2024 15:00:00,12.9533,80.2357,NH3,2,5,3
India,TamilNadu,Chennai,"Perungudi, Chennai - TNPCB",11-06-2024 15:00:00,12.9533,80.2357,SO2,2,11,5
India,TamilNadu,Chennai,"Royapuram, Chennai - TNPCB",11-06-2024 15:00:00,13.1036,80.2909,PM2.5,4,48,18
India,TamilNadu,Chennai,"Royapuram, Chennai - TNPCB",11-06-2024 15:00:00,13.1036,80.2909,CO,26,65,39
India,TamilNadu,Chennai,"Velachery Res. Area, Chennai - CPCB",11-06-2024 15:00:00,13.0052189,80.2398125,SO2,12,75,28
India,TamilNadu,Chennai,"Velachery Res. Area, Chennai - CPCB",11-06-2024 15:00:00,13.0052189,80.2398125,CO,105,108,106
India,TamilNadu,Coimbatore,"PSG College of Arts and Science, Coimbatore - TNPCB",11-06-2024 15:00:00,11.0328,77.0349,NO2,1,4,1
India,TamilNadu,Cuddalore,"Kudikadu, Cuddalore - TNPCB",11-06-2024 15:00:00,11.6829898,79.7532099,PM2.5,NA,NA,NA
India,TamilNadu,Cuddalore,"Semmandalam, Cuddalore - TNPCB",11-06-2024 15:00:00,11.7637683,79.7499835,NO2,NA,NA,NA
India,TamilNadu,Ramanathapuram,"Chalai Bazaar, Ramanathapuram - TNPCB",11-06-2024 15:00:00,9.36399,78.831977,PM10,21,49,34
India,TamilNadu,Salem,"Sona College of Technology, Salem - TNPCB",11-06-2024 15:00:00,11.679111,78.125052,PM10,16,46,29
India,TamilNadu,Salem,"Sona College of Technology, Salem - TNPCB",11-06-2024 15:00:00,11.679111,78.125052,OZONE,3,3,3
India,TamilNadu,Thoothukudi,"Meelavittan, Thoothukudi - TNPCB",11-06-2024 15:00:00,8.816428 ,78.099039,NO2,24,37,29
India,TamilNadu,Virudhunagar,"Collectorate Office, Virudhunagar - TNPCB",11-06-2024 15:00:00,9.559382,77.948828,OZONE,NA,NA,NA
India,Telangana,Hyderabad,"ICRISAT Patancheru, Hyderabad - TSPCB",11-06-2024 15:00:00,17.518400,78.278777,PM2.5,2,177,34
India,Telangana,Hyderabad,"ICRISAT Patancheru, Hyderabad - TSPCB",11-06-2024 15:00:00,17.518400,78.278777,PM10,8,129,36
India,Telangana,Hyderabad,"IITH Kandi, Hyderabad - TSPCB",11-06-2024 15:00:00,17.585705,78.126199,SO2,NA,NA,NA
India,Telangana,Hyderabad,"Kokapet, Hyderabad - TSPCB",11-06-2024 15:00:00,17.393559,78.339194,NH3,2,2,2
India,Telangana,Hyderabad,"Kompally Municipal Office, Hyderabad - TSPCB",11-06-2024 15:00:00,17.544899,78.486949,SO2,NA,NA,NA
India,Telangana,Hyderabad,"New Malakpet, Hyderabad - TSPCB",11-06-2024 15:00:00,17.37206,78.50864,PM2.5,27,74,41
India,Telangana,Hyderabad,"Ramachandrapuram, Hyderabad - TSPCB",11-06-2024 15:00:00,17.528544,78.286195,CO,20,22,21
India,Telangana,Hyderabad,"Sanathnagar, Hyderabad - TSPCB",11-06-2024 15:00:00,17.4559458,78.4332152,PM2.5,25,45,36
India,Telangana,Hyderabad,"Sanathnagar, Hyderabad - TSPCB",11-06-2024 15:00:00,17.4559458,78.4332152,NO2,30,292,136
India,Telangana,Hyderabad,"Sanathnagar, Hyderabad - TSPCB",11-06-2024 15:00:00,17.4559458,78.4332152,OZONE,16,218,68
India,Telangana,Hyderabad,"Somajiguda, Hyderabad - TSPCB",11-06-2024 15:00:00,17.417094,78.457437,NH3,5,6,5
India,Telangana,Hyderabad,"Zoo Park, Hyderabad - TSPCB",11-06-2024 15:00:00,17.349694,78.451437,NO2,8,18,13
India,Telangana,Hyderabad,"Zoo Park, Hyderabad - TSPCB",11-06-2024 15:00:00,17.349694,78.451437,SO2,1,9,3
India,Tripura,Agartala,"Bardowali, Agartala - Tripura SPCB",11-06-2024 15:00:00,23.8175497,91.2726974,PM2.5,35,97,67
India,Tripura,Agartala,"Bardowali, Agartala - Tripura SPCB",11-06-2024 15:00:00,23.8175497,91.2726974,SO2,36,39,37
India,Tripura,Agartala,"Bardowali, Agartala - Tripura SPCB",11-06-2024 15:00:00,23.8175497,91.2726974,CO,8,39,13
India,Uttar_Pradesh,Agra,"Manoharpur, Agra - UPPCB",11-06-2024 15:00:00,27.23711,78.01936,NO2,38,38,38
India,Uttar_Pradesh,Agra,"Manoharpur, Agra - UPPCB",11-06-2024 15:00:00,27.23711,78.01936,CO,7,18,12
India,Uttar_Pradesh,Agra,"Rohta, Agra - UPPCB",11-06-2024 15:00:00,27.106972,78.000111,PM2.5,18,66,34
India,Uttar_Pradesh,Agra,"Rohta, Agra - UPPCB",11-06-2024 15:00:00,27.106972,78.000111,NH3,2,2,2
India,Uttar_Pradesh,Agra,"Rohta, Agra - UPPCB",11-06-2024 15:00:00,27.106972,78.000111,CO,7,18,16
India,Uttar_Pradesh,Agra,"Rohta, Agra - UPPCB",11-06-2024 15:00:00,27.106972,78.000111,OZONE,19,22,22
India,Uttar_Pradesh,Agra,"Sanjay Palace, Agra - UPPCB",11-06-2024 15:00:00,27.19865833,78.00598056,PM2.5,8,42,22
India,Uttar_Pradesh,Agra,"Sanjay Palace, Agra - UPPCB",11-06-2024 15:00:00,27.19865833,78.00598056,SO2,4,11,8
India,Uttar_Pradesh,Agra,"Sector-3B Avas Vikas Colony, Agra - UPPCB",11-06-2024 15:00:00,27.19412,77.96237,SO2,14,20,16
India,Uttar_Pradesh,Agra,"Shahjahan Garden, Agra - UPPCB",11-06-2024 15:00:00,27.169338,78.03582,NH3,1,16,3
India,Uttar_Pradesh,Agra,"Shahjahan Garden, Agra - UPPCB",11-06-2024 15:00:00,27.169338,78.03582,SO2,30,62,51
India,Uttar_Pradesh,Agra,"Shahjahan Garden, Agra - UPPCB",11-06-2024 15:00:00,27.169338,78.03582,CO,14,34,24
India,Uttar_Pradesh,Agra,"Shahjahan Garden, Agra - UPPCB",11-06-2024 15:00:00,27.169338,78.03582,OZONE,2,24,6
India,Uttar_Pradesh,Agra,"Shastripuram, Agra - UPPCB",11-06-2024 15:00:00,27.19862,77.92066,NH3,NA,NA,NA
India,Uttar_Pradesh,Baghpat,"Sardar Patel Inter College, Baghpat - UPPCB",11-06-2024 15:00:00,28.964949,77.278761,NH3,2,5,3
India,Uttar_Pradesh,Bareilly,"Civil Lines, Bareilly - UPPCB",11-06-2024 15:00:00,28.359581,79.414455,NO2,2,3,2
India,Uttar_Pradesh,Bareilly,"Civil Lines, Bareilly - UPPCB",11-06-2024 15:00:00,28.359581,79.414455,SO2,20,27,23
India,Uttar_Pradesh,Bareilly,"Civil Lines, Bareilly - UPPCB",11-06-2024 15:00:00,28.359581,79.414455,CO,1,34,16
India,Uttar_Pradesh,Bareilly,"Rajendra Nagar, Bareilly - UPPCB",11-06-2024 15:00:00,28.38910936,79.42963708,PM2.5,12,36,22
India,Uttar_Pradesh,Bareilly,"Rajendra Nagar, Bareilly - UPPCB",11-06-2024 15:00:00,28.38910936,79.42963708,SO2,19,27,21
India,Uttar_Pradesh,Bulandshahr,"Yamunapuram, Bulandshahr - UPPCB",11-06-2024 15:00:00,28.406963,77.849831,NH3,10,20,14
India,Uttar_Pradesh,Bulandshahr,"Yamunapuram, Bulandshahr - UPPCB",11-06-2024 15:00:00,28.406963,77.849831,OZONE,3,161,161
India,Uttar_Pradesh,Firozabad,"Nagla Bhau, Firozabad - UPPCB",11-06-2024 15:00:00,27.168897,78.376960,PM2.5,28,117,55
India,Uttar_Pradesh,Firozabad,"Nagla Bhau, Firozabad - UPPCB",11-06-2024 15:00:00,27.168897,78.376960,CO,10,33,32
India,Uttar_Pradesh,Firozabad,"Vibhab Nagar, Firozabad - UPPCB",11-06-2024 15:00:00,27.1594,78.3953,PM10,62,104,83
India,Uttar_Pradesh,Firozabad,"Vibhab Nagar, Firozabad - UPPCB",11-06-2024 15:00:00,27.1594,78.3953,NO2,12,14,14
India,Uttar_Pradesh,Ghaziabad,"Indirapuram, Ghaziabad - UPPCB",11-06-2024 15:00:00,28.646233,77.358075,PM2.5,37,270,118
India,Uttar_Pradesh,Ghaziabad,"Loni, Ghaziabad - UPPCB",11-06-2024 15:00:00,28.757294,77.278792,PM10,89,258,172
India,Uttar_Pradesh,Ghaziabad,"Loni, Ghaziabad - UPPCB",11-06-2024 15:00:00,28.757294,77.278792,OZONE,1,59,29
India,Uttar_Pradesh,Ghaziabad,"Sanjay Nagar, Ghaziabad - UPPCB",11-06-2024 15:00:00,28.685382,77.453839,SO2,16,41,27
India,Uttar_Pradesh,Ghaziabad,"Vasundhara, Ghaziabad - UPPCB",11-06-2024 15:00:00,28.6603346,77.3572563,SO2,13,101,33
India,Uttar_Pradesh,Ghaziabad,"Vasundhara, Ghaziabad - UPPCB",11-06-2024 15:00:00,28.6603346,77.3572563,OZONE,13,181,104
India,Uttar_Pradesh,Gorakhpur,"Madan Mohan Malaviya University of Technology, Gorakhpur - UPPCB",11-06-2024 15:00:00,26.730136,83.433859,PM2.5,57,234,110
India,Uttar_Pradesh,Gorakhpur,"Madan Mohan Malaviya University of Technology, Gorakhpur - UPPCB",11-06-2024 15:00:00,26.730136,83.433859,NH3,1,1,1
India,Uttar_Pradesh,Gorakhpur,"Madan Mohan Malaviya University of Technology, Gorakhpur - UPPCB",11-06-2024 15:00:00,26.730136,83.433859,SO2,20,21,20
India,Uttar_Pradesh,Gorakhpur,"Madan Mohan Malaviya University of Technology, Gorakhpur - UPPCB",11-06-2024 15:00:00,26.730136,83.433859,CO,10,28,18
India,Uttar_Pradesh,Greater Noida,"Knowledge Park - V, Greater Noida - UPPCB",11-06-2024 15:00:00,28.557054,77.453663,SO2,3,29,18
India,Uttar_Pradesh,Greater Noida,"Knowledge Park - V, Greater Noida - UPPCB",11-06-2024 15:00:00,28.557054,77.453663,OZONE,1,195,121
India,Uttar_Pradesh,Hapur,"Anand Vihar, Hapur - UPPCB",11-06-2024 15:00:00,28.725645,77.749675,CO,21,90,39
India,Uttar_Pradesh,Jhansi,"Shivaji Nagar, Jhansi - UPPCB",11-06-2024 15:00:00,25.4547,78.6039,SO2,18,25,22
India,Uttar_Pradesh,Jhansi,"Shivaji Nagar, Jhansi - UPPCB",11-06-2024 15:00:00,25.4547,78.6039,CO,6,48,13
India,Uttar_Pradesh,Jhansi,"Shivaji Nagar, Jhansi - UPPCB",11-06-2024 15:00:00,25.4547,78.6039,OZONE,5,47,18
India,Uttar_Pradesh,Kanpur,"NSI Kalyanpur, Kanpur - UPPCB",11-06-2024 15:00:00,26.509954,80.249612,PM10,34,159,118
India,Uttar_Pradesh,Kanpur,"NSI Kalyanpur, Kanpur - UPPCB",11-06-2024 15:00:00,26.509954,80.249612,NH3,1,1,1
India,Uttar_Pradesh,Kanpur,"Nehru Nagar, Kanpur - UPPCB",11-06-2024 15:00:00,26.4703136,80.3229863,SO2,1,63,13
India,Uttar_Pradesh,Khurja,"Kalindi Kunj, Khurja - UPPCB",11-06-2024 15:00:00,28.2348927,77.8683002,NH3,1,2,1
India,Uttar_Pradesh,Khurja,"Kalindi Kunj, Khurja - UPPCB",11-06-2024 15:00:00,28.2348927,77.8683002,OZONE,70,93,84
India,Uttar_Pradesh,Lucknow,"B R Ambedkar University, Lucknow - UPPCB",11-06-2024 15:00:00,26.766433,80.927299,NH3,15,29,19
India,Uttar_Pradesh,Lucknow,"Kendriya Vidyalaya, Lucknow - CPCB",11-06-2024 15:00:00,26.906111,80.948222,PM10,104,130,116
India,Uttar_Pradesh,Lucknow,"Kendriya Vidyalaya, Lucknow - CPCB",11-06-2024 15:00:00,26.906111,80.948222,NO2,7,26,15
India,Uttar_Pradesh,Lucknow,"Kendriya Vidyalaya, Lucknow - CPCB",11-06-2024 15:00:00,26.906111,80.948222,NH3,3,17,12
India,Uttar_Pradesh,Lucknow,"Kendriya Vidyalaya, Lucknow - CPCB",11-06-2024 15:00:00,26.906111,80.948222,SO2,6,13,9
India,Uttar_Pradesh,Lucknow,"Kendriya Vidyalaya, Lucknow - CPCB",11-06-2024 15:00:00,26.906111,80.948222,CO,18,52,28
India,Uttar_Pradesh,Lucknow,"Kendriya Vidyalaya, Lucknow - CPCB",11-06-2024 15:00:00,26.906111,80.948222,OZONE,49,145,97
India,Uttar_Pradesh,Lucknow,"Kukrail Picnic Spot-1, Lucknow - UPPCB",11-06-2024 15:00:00,26.90723,80.98579,PM10,NA,NA,NA
India,Uttar_Pradesh,Lucknow,"Kukrail Picnic Spot-1, Lucknow - UPPCB",11-06-2024 15:00:00,26.90723,80.98579,NH3,NA,NA,NA
India,Uttar_Pradesh,Lucknow,"Lalbagh, Lucknow - CPCB",11-06-2024 15:00:00,26.8458805,80.9365541,PM10,105,193,143
India,Uttar_Pradesh,Lucknow,"Talkatora District Industries Center, Lucknow - CPCB",11-06-2024 15:00:00,26.83399722,80.8917361,NH3,3,5,4
India,Uttar_Pradesh,Meerut,"Ganga Nagar, Meerut - UPPCB",11-06-2024 15:00:00,28.999264,77.7590354,PM2.5,18,83,46
India,Uttar_Pradesh,Meerut,"Ganga Nagar, Meerut - UPPCB",11-06-2024 15:00:00,28.999264,77.7590354,NO2,15,83,35
India,Uttar_Pradesh,Meerut,"Ganga Nagar, Meerut - UPPCB",11-06-2024 15:00:00,28.999264,77.7590354,OZONE,20,65,41
India,Uttar_Pradesh,Meerut,"Jai Bhim Nagar, Meerut - UPPCB",11-06-2024 15:00:00,28.9535882,77.7622941,NO2,8,78,32
India,Uttar_Pradesh,Meerut,"Jai Bhim Nagar, Meerut - UPPCB",11-06-2024 15:00:00,28.9535882,77.7622941,NH3,5,9,8
India,Uttar_Pradesh,Meerut,"Pallavpuram Phase 2, Meerut - UPPCB",11-06-2024 15:00:00,29.063510,77.709723,CO,8,85,21
India,Uttar_Pradesh,Moradabad,"Eco Herbal Park, Moradabad - UPPCB",11-06-2024 15:00:00,28.840739,78.697531,PM2.5,NA,NA,NA
India,Uttar_Pradesh,Moradabad,"Eco Herbal Park, Moradabad - UPPCB",11-06-2024 15:00:00,28.840739,78.697531,NO2,NA,NA,NA
India,Uttar_Pradesh,Moradabad,"Jigar Colony, Moradabad - UPPCB",11-06-2024 15:00:00,28.856664,78.772638,PM10,73,163,119
India,Uttar_Pradesh,Moradabad,"Jigar Colony, Moradabad - UPPCB",11-06-2024 15:00:00,28.856664,78.772638,NO2,19,20,19
India,Uttar_Pradesh,Moradabad,"Jigar Colony, Moradabad - UPPCB",11-06-2024 15:00:00,28.856664,78.772638,CO,22,48,40
India,Uttar_Pradesh,Moradabad,"Jigar Colony, Moradabad - UPPCB",11-06-2024 15:00:00,28.856664,78.772638,OZONE,4,28,16
India,Uttar_Pradesh,Moradabad,"Kashiram Nagar, Moradabad - UPPCB",11-06-2024 15:00:00,28.849399,78.742362,PM2.5,25,132,74
India,Uttar_Pradesh,Moradabad,"Transport Nagar, Moradabad - UPPCB",11-06-2024 15:00:00,28.802625,78.753728,OZONE,9,65,22
India,Uttar_Pradesh,Muzaffarnagar,"New Mandi, Muzaffarnagar - UPPCB",11-06-2024 15:00:00,29.4723508,77.7194031,NH3,9,13,10
India,Uttar_Pradesh,Muzaffarnagar,"New Mandi, Muzaffarnagar - UPPCB",11-06-2024 15:00:00,29.4723508,77.7194031,SO2,7,68,36
India,Uttar_Pradesh,Muzaffarnagar,"New Mandi, Muzaffarnagar - UPPCB",11-06-2024 15:00:00,29.4723508,77.7194031,OZONE,39,100,74
India,Uttar_Pradesh,Noida,"Sector - 125, Noida - UPPCB",11-06-2024 15:00:00,28.5447608,77.3231257,NO2,12,246,110
India,Uttar_Pradesh,Noida,"Sector - 62, Noida - IMD",11-06-2024 15:00:00,28.6245479,77.3577104,PM2.5,44,303,103
India,Uttar_Pradesh,Noida,"Sector-1, Noida - UPPCB",11-06-2024 15:00:00,28.5898,77.3101,OZONE,3,247,131
India,Uttar_Pradesh,Noida,"Sector-116, Noida - UPPCB",11-06-2024 15:00:00,28.569230,77.393848,NH3,6,13,9
India,Uttar_Pradesh,Prayagraj,"Jhunsi, Prayagraj - UPPCB",11-06-2024 15:00:00,25.425602,81.917152,PM2.5,30,113,47
India,Uttar_Pradesh,Prayagraj,"Nagar Nigam, Prayagraj - UPPCB",11-06-2024 15:00:00,25.44919916 ,81.82735986 ,NO2,5,5,5
India,Uttar_Pradesh,Varanasi,"Ardhali Bazar, Varanasi - UPPCB",11-06-2024 15:00:00,25.3505986,82.9083074,PM2.5,10,59,34
India,Uttar_Pradesh,Varanasi,"IESD Banaras Hindu University, Varanasi - UPPCB",11-06-2024 15:00:00,25.262326,82.995408,PM2.5,8,32,15
India,Uttar_Pradesh,Varanasi,"IESD Banaras Hindu University, Varanasi - UPPCB",11-06-2024 15:00:00,25.262326,82.995408,OZONE,10,12,12
India,Uttar_Pradesh,Varanasi,"Maldahiya, Varanasi - UPPCB",11-06-2024 15:00:00,25.32393,82.99687,PM10,19,63,36
India,Uttar_Pradesh,Vrindavan,"Omex Eternity, Vrindavan - UPPCB",11-06-2024 15:00:00,27.5714090,77.6557570,NH3,2,5,3
India,Uttar_Pradesh,Vrindavan,"Omex Eternity, Vrindavan - UPPCB",11-06-2024 15:00:00,27.5714090,77.6557570,OZONE,13,25,19
India,Uttarakhand,Dehradun,"Doon University, Dehradun - UKPCB",11-06-2024 15:00:00,30.269444,78.044167,NO2,1,7,3
India,Uttarakhand,Dehradun,"Doon University, Dehradun - UKPCB",11-06-2024 15:00:00,30.269444,78.044167,CO,1,46,25
India,Uttarakhand,Kashipur,"Govt. Girls Inter College, Kashipur - UKPCB",11-06-2024 15:00:00,29.2124114,78.9611753,PM2.5,52,133,88
India,Uttarakhand,Kashipur,"Govt. Girls Inter College, Kashipur - UKPCB",11-06-2024 15:00:00,29.2124114,78.9611753,PM10,117,169,139
India,Uttarakhand,Kashipur,"Govt. Girls Inter College, Kashipur - UKPCB",11-06-2024 15:00:00,29.2124114,78.9611753,SO2,10,15,11
India,Uttarakhand,Kashipur,"Govt. Girls Inter College, Kashipur - UKPCB",11-06-2024 15:00:00,29.2124114,78.9611753,OZONE,29,152,70
India,Uttarakhand,Rishikesh,"Shivaji Nagar, Rishikesh - UKPCB",11-06-2024 15:00:00,30.075911,78.2859547,PM2.5,24,219,77
India,Uttarakhand,Rishikesh,"Shivaji Nagar, Rishikesh - UKPCB",11-06-2024 15:00:00,30.075911,78.2859547,NH3,1,5,3
India,Uttarakhand,Rishikesh,"Shivaji Nagar, Rishikesh - UKPCB",11-06-2024 15:00:00,30.075911,78.2859547,OZONE,19,132,86
India,West_Bengal,Asansol,"Asansol Court Area, Asansol - WBPCB",11-06-2024 15:00:00,23.685297,86.945968,OZONE,22,107,52
India,West_Bengal,Durgapur,"PCBL Residential Complex, Durgapur - WBPCB",11-06-2024 15:00:00,23.5087640,87.3544400,PM10,NA,NA,NA
India,West_Bengal,Durgapur,"PCBL Residential Complex, Durgapur - WBPCB",11-06-2024 15:00:00,23.5087640,87.3544400,NO2,NA,NA,NA
India,West_Bengal,Durgapur,"PCBL Residential Complex, Durgapur - WBPCB",11-06-2024 15:00:00,23.5087640,87.3544400,SO2,NA,NA,NA
India,West_Bengal,Durgapur,"Sidhu Kanhu Indoor Stadium, Durgapur - WBPCB",11-06-2024 15:00:00,23.5404352,87.2892225,NO2,17,48,27
India,West_Bengal,Haldia,"Priyambada Housing Estate, Haldia - WBPCB",11-06-2024 15:00:00,22.06047,88.109737,NH3,9,13,10
India,West_Bengal,Howrah,"Ghusuri, Howrah - WBPCB",11-06-2024 15:00:00,22.611968,88.347422,NH3,6,6,6
India,West_Bengal,Howrah,"Ghusuri, Howrah - WBPCB",11-06-2024 15:00:00,22.611968,88.347422,SO2,4,6,5
India,West_Bengal,Howrah,"Ghusuri, Howrah - WBPCB",11-06-2024 15:00:00,22.611968,88.347422,OZONE,17,33,24
India,West_Bengal,Howrah,"Padmapukur, Howrah - WBPCB",11-06-2024 15:00:00,22.5687319,88.2797276,PM2.5,17,81,57
India,West_Bengal,Howrah,"Padmapukur, Howrah - WBPCB",11-06-2024 15:00:00,22.5687319,88.2797276,NH3,6,9,7
India,West_Bengal,Kolkata,"Ballygunge, Kolkata - WBPCB",11-06-2024 15:00:00,22.5367507,88.3638022,SO2,1,6,4
India,West_Bengal,Kolkata,"Bidhannagar, Kolkata - WBPCB",11-06-2024 15:00:00,22.58157048,88.41002457,PM2.5,14,48,30
India,West_Bengal,Kolkata,"Bidhannagar, Kolkata - WBPCB",11-06-2024 15:00:00,22.58157048,88.41002457,NO2,18,28,22
India,West_Bengal,Kolkata,"Bidhannagar, Kolkata - WBPCB",11-06-2024 15:00:00,22.58157048,88.41002457,CO,26,37,30
India,West_Bengal,Kolkata,"Fort William, Kolkata - WBPCB",11-06-2024 15:00:00,22.556640,88.342674,NO2,9,23,17
India,West_Bengal,Kolkata,"Fort William, Kolkata - WBPCB",11-06-2024 15:00:00,22.556640,88.342674,SO2,4,7,5
India,West_Bengal,Kolkata,"Rabindra Bharati University, Kolkata - WBPCB",11-06-2024 15:00:00,22.627847,88.380669,PM2.5,18,49,31
India,West_Bengal,Kolkata,"Rabindra Bharati University, Kolkata - WBPCB",11-06-2024 15:00:00,22.627847,88.380669,NO2,9,13,11
India,West_Bengal,Kolkata,"Rabindra Bharati University, Kolkata - WBPCB",11-06-2024 15:00:00,22.627847,88.380669,OZONE,13,95,34
India,West_Bengal,Kolkata,"Rabindra Sarobar, Kolkata - WBPCB",11-06-2024 15:00:00,22.51106,88.35142,PM2.5,15,45,29
India,West_Bengal,Kolkata,"Rabindra Sarobar, Kolkata - WBPCB",11-06-2024 15:00:00,22.51106,88.35142,PM10,33,57,48
India,West_Bengal,Kolkata,"Rabindra Sarobar, Kolkata - WBPCB",11-06-2024 15:00:00,22.51106,88.35142,NH3,9,16,11
India,West_Bengal,Kolkata,"Victoria, Kolkata - WBPCB",11-06-2024 15:00:00,22.5448082,88.3403691,PM10,52,66,56
India,West_Bengal,Kolkata,"Victoria, Kolkata - WBPCB",11-06-2024 15:00:00,22.5448082,88.3403691,NO2,22,27,25
India,West_Bengal,Kolkata,"Victoria, Kolkata - WBPCB",11-06-2024 15:00:00,22.5448082,88.3403691,OZONE,18,37,29
India,West_Bengal,Siliguri,"Ward-32 Bapupara, Siliguri - WBPCB",11-06-2024 15:00:00,26.6879226,88.4152495,PM10,31,83,53
India,Andhra_Pradesh,Amaravati,"Secretariat, Amaravati - APPCB",11-06-2024 15:00:00,16.5150833,80.5181667,PM2.5,NA,NA,NA
India,Andhra_Pradesh,Amaravati,"Secretariat, Amaravati - APPCB",11-06-2024 15:00:00,16.5150833,80.5181667,CO,6,13,10
India,Andhra_Pradesh,Anantapur,"Gulzarpet, Anantapur - APPCB",11-06-2024 15:00:00,14.675886,77.593027,CO,20,46,34
India,Andhra_Pradesh,Chittoor,"Gangineni Cheruvu, Chittoor - APPCB",11-06-2024 15:00:00,13.204880,79.097889,PM2.5,30,67,50
India,Andhra_Pradesh,Kadapa,"Yerramukkapalli, Kadapa - APPCB",11-06-2024 15:00:00,14.465052,78.824187,NH3,1,3,3
India,Andhra_Pradesh,Rajamahendravaram,"Anand Kala Kshetram, Rajamahendravaram - APPCB",11-06-2024 15:00:00,16.9872867,81.7363176,PM10,32,57,42
India,Andhra_Pradesh,Tirupati,"Tirumala, Tirupati - APPCB",11-06-2024 15:00:00,13.67,79.35,PM10,20,40,31
India,Andhra_Pradesh,Tirupati,"Vaikuntapuram, Tirupati - APPCB",11-06-2024 15:00:00,13.615387,79.409230,NH3,2,3,2
India,Andhra_Pradesh,Vijayawada,"HB Colony, Vijayawada - APPCB",11-06-2024 15:00:00,16.536107,80.594233,PM10,45,128,60
India,Andhra_Pradesh,Vijayawada,"HB Colony, Vijayawada - APPCB",11-06-2024 15:00:00,16.536107,80.594233,NO2,13,22,15
India,Andhra_Pradesh,Vijayawada,"HB Colony, Vijayawada - APPCB",11-06-2024 15:00:00,16.536107,80.594233,OZONE,10,43,25
India,Andhra_Pradesh,Vijayawada,"Rajiv Gandhi Park, Vijayawada - APPCB",11-06-2024 15:00:00,16.509717,80.612222,PM10,41,61,48
India,Andhra_Pradesh,Vijayawada,"Rajiv Gandhi Park, Vijayawada - APPCB",11-06-2024 15:00:00,16.509717,80.612222,NO2,21,38,24
India,Andhra_Pradesh,Vijayawada,"Rajiv Nagar, Vijayawada - APPCB",11-06-2024 15:00:00,16.554731,80.649110,OZONE,17,69,37
India,Arunachal_Pradesh,Naharlagun,"Naharlagun, Naharlagun - APSPCB",11-06-2024 15:00:00,27.103358,93.679645,SO2,4,5,5
India,Assam,Byrnihat,"Central Academy for SFS, Byrnihat - PCBA",11-06-2024 15:00:00,26.071318,91.87488,NH3,16,26,19
India,Assam,Guwahati,"LGBI Airport, Guwahati - PCBA",11-06-2024 15:00:00,26.10887,91.589544,PM10,NA,NA,NA
India,Assam,Guwahati,"Railway Colony, Guwahati - PCBA",11-06-2024 15:00:00,26.181742,91.78063,SO2,2,4,2
India,Assam,Nalbari,"Bata Chowk, Nalbari - PCBA",11-06-2024 15:00:00,26.446912,91.439057,NO2,17,30,25
India,Assam,Nalbari,"Bata Chowk, Nalbari - PCBA",11-06-2024 15:00:00,26.446912,91.439057,SO2,5,8,6
India,Assam,Nalbari,"Bata Chowk, Nalbari - PCBA",11-06-2024 15:00:00,26.446912,91.439057,OZONE,8,45,33
India,Assam,Silchar,"Tarapur, Silchar - PCBA",11-06-2024 15:00:00,24.82827,92.79525,NH3,1,1,1
India,Assam,Sivasagar,"Girls College, Sivasagar - PCBA",11-06-2024 15:00:00,26.987634,94.636574,PM10,44,75,59
India,Bihar,Arrah,"New DM Office, Arrah - BSPCB",11-06-2024 15:00:00,25.5626095,84.663264,NH3,1,12,6
India,Bihar,Aurangabad,"Gurdeo Nagar, Aurangabad - BSPCB",11-06-2024 15:00:00,24.75746,84.366208,NO2,3,17,7
India,Bihar,Aurangabad,"Gurdeo Nagar, Aurangabad - BSPCB",11-06-2024 15:00:00,24.75746,84.366208,CO,8,29,19
India,Bihar,Bhagalpur,"DM Office_Kachari Chowk, Bhagalpur - BSPCB",11-06-2024 15:00:00,25.251013,86.989001,NH3,4,9,5
India,Bihar,Bhagalpur,"DM Office_Kachari Chowk, Bhagalpur - BSPCB",11-06-2024 15:00:00,25.251013,86.989001,SO2,NA,NA,NA
India,Bihar,Bhagalpur,"DM Office_Kachari Chowk, Bhagalpur - BSPCB",11-06-2024 15:00:00,25.251013,86.989001,OZONE,44,54,48
India,Bihar,Bhagalpur,"Mayaganj, Bhagalpur - BSPCB",11-06-2024 15:00:00,25.265194,87.012947,PM10,NA,NA,NA
India,Bihar,Bhagalpur,"Mayaganj, Bhagalpur - BSPCB",11-06-2024 15:00:00,25.265194,87.012947,NO2,2,12,7
India,Bihar,Bihar Sharif,"D M Colony, Bihar Sharif - BSPCB",11-06-2024 15:00:00,25.204762,85.514960,NH3,NA,NA,NA
India,Bihar,Bihar Sharif,"D M Colony, Bihar Sharif - BSPCB",11-06-2024 15:00:00,25.204762,85.514960,SO2,NA,NA,NA
India,Bihar,Bihar Sharif,"D M Colony, Bihar Sharif - BSPCB",11-06-2024 15:00:00,25.204762,85.514960,OZONE,34,88,50
India,Bihar,Buxar,"Charitra Van, Buxar - BSPCB (Formerly known as Central Jail)",11-06-2024 15:00:00,25.567520,83.966379,NO2,1,1,1
India,Bihar,Buxar,"Charitra Van, Buxar - BSPCB (Formerly known as Central Jail)",11-06-2024 15:00:00,25.567520,83.966379,NH3,3,3,3
India,Bihar,Gaya,"Collectorate, Gaya - BSPCB",11-06-2024 15:00:00,24.7955,84.9994,CO,112,130,120
India,Bihar,Gaya,"Kareemganj, Gaya - BSPCB",11-06-2024 15:00:00,24.792403,84.992416,NH3,1,13,6
India,Bihar,Gaya,"SFTI Kusdihra, Gaya - BSPCB",11-06-2024 15:00:00,24.762518,84.982348,PM2.5,NA,NA,NA
India,Bihar,Gaya,"SFTI Kusdihra, Gaya - BSPCB",11-06-2024 15:00:00,24.762518,84.982348,PM10,NA,NA,NA
India,Bihar,Gaya,"SFTI Kusdihra, Gaya - BSPCB",11-06-2024 15:00:00,24.762518,84.982348,NH3,NA,NA,NA
India,Bihar,Gaya,"SFTI Kusdihra, Gaya - BSPCB",11-06-2024 15:00:00,24.762518,84.982348,OZONE,35,50,40
India,Bihar,Hajipur,"Industrial Area, Hajipur - BSPCB",11-06-2024 15:00:00,25.697189,85.245900,PM2.5,164,304,234
India,Bihar,Hajipur,"Industrial Area, Hajipur - BSPCB",11-06-2024 15:00:00,25.697189,85.245900,SO2,4,8,6
India,Bihar,Katihar,"Mirchaibari, Katihar - BSPCB",11-06-2024 15:00:00,25.560083,87.553265,PM2.5,38,302,110
India,Bihar,Kishanganj,"SDM Office_Khagra, Kishanganj - BSPCB",11-06-2024 15:00:00,26.0881305,87.93840336,NO2,23,50,32
India,Bihar,Manguraha,"Forest Rest House, Manguraha - BSPCB",11-06-2024 15:00:00,27.308328,84.531742,PM10,NA,NA,NA
India,Bihar,Manguraha,"Forest Rest House, Manguraha - BSPCB",11-06-2024 15:00:00,27.308328,84.531742,NH3,2,5,2
India,Bihar,Motihari,"Gandak Colony, Motihari - BSPCB",11-06-2024 15:00:00,26.63086,84.90051,CO,9,54,15
India,Bihar,Muzaffarpur,"Buddha Colony, Muzaffarpur - BSPCB",11-06-2024 15:00:00,26.11442,85.39813,PM10,88,154,123
India,Bihar,Muzaffarpur,"Buddha Colony, Muzaffarpur - BSPCB",11-06-2024 15:00:00,26.11442,85.39813,NO2,10,31,16
India,Bihar,Muzaffarpur,"Muzaffarpur Collectorate, Muzaffarpur - BSPCB",11-06-2024 15:00:00,26.1209,85.3647,PM2.5,62,130,90
India,Bihar,Patna,"DRM Office Danapur, Patna - BSPCB",11-06-2024 15:00:00,25.586562,85.043586,CO,25,54,33
India,Bihar,Patna,"DRM Office Danapur, Patna - BSPCB",11-06-2024 15:00:00,25.586562,85.043586,OZONE,17,78,50
India,Bihar,Patna,"Govt. High School Shikarpur, Patna - BSPCB",11-06-2024 15:00:00,25.592539,85.227158,NO2,1,46,34
India,Bihar,Patna,"Govt. High School Shikarpur, Patna - BSPCB",11-06-2024 15:00:00,25.592539,85.227158,CO,26,102,47
India,Bihar,Patna,"IGSC Planetarium Complex, Patna - BSPCB",11-06-2024 15:00:00,25.610369,85.132568,NO2,13,13,13
India,Bihar,Patna,"Muradpur, Patna - BSPCB",11-06-2024 15:00:00,25.619651,85.147382,PM2.5,160,339,271
India,Bihar,Patna,"Muradpur, Patna - BSPCB",11-06-2024 15:00:00,25.619651,85.147382,NH3,2,6,5
India,Bihar,Patna,"Rajbansi Nagar, Patna - BSPCB",11-06-2024 15:00:00,25.599486,85.113666,PM2.5,96,229,158
India,Bihar,Patna,"Rajbansi Nagar, Patna - BSPCB",11-06-2024 15:00:00,25.599486,85.113666,PM10,126,216,153
India,Bihar,Saharsa,"Police Line, Saharsa - BSPCB",11-06-2024 15:00:00,25.892357,86.590325,PM10,62,133,97
India,Bihar,Saharsa,"Police Line, Saharsa - BSPCB",11-06-2024 15:00:00,25.892357,86.590325,NO2,6,8,7
India,Bihar,Saharsa,"Police Line, Saharsa - BSPCB",11-06-2024 15:00:00,25.892357,86.590325,NH3,9,9,9
India,Bihar,Saharsa,"Police Line, Saharsa - BSPCB",11-06-2024 15:00:00,25.892357,86.590325,SO2,16,16,16
India,Bihar,Samastipur,"DM Office_Kasipur, Samastipur - BSPCB",11-06-2024 15:00:00,25.859655,85.77944,NH3,4,4,4
India,Bihar,Samastipur,"DM Office_Kasipur, Samastipur - BSPCB",11-06-2024 15:00:00,25.859655,85.77944,OZONE,1,41,3
India,Bihar,Siwan,"Chitragupta Nagar, Siwan - BSPCB",11-06-2024 15:00:00,26.2271665,84.3570427,PM2.5,NA,NA,NA
India,Bihar,Siwan,"Chitragupta Nagar, Siwan - BSPCB",11-06-2024 15:00:00,26.2271665,84.3570427,NO2,5,63,22
India,Bihar,Siwan,"Chitragupta Nagar, Siwan - BSPCB",11-06-2024 15:00:00,26.2271665,84.3570427,NH3,1,6,2
India,Bihar,Siwan,"Chitragupta Nagar, Siwan - BSPCB",11-06-2024 15:00:00,26.2271665,84.3570427,OZONE,4,78,23
India,Chandigarh,Chandigarh,"Sector 22, Chandigarh - CPCC",11-06-2024 15:00:00,30.735567,76.775714,SO2,6,72,26
India,Chandigarh,Chandigarh,"Sector-25, Chandigarh - CPCC",11-06-2024 15:00:00,30.751462,76.762879,SO2,2,22,12
India,Chandigarh,Chandigarh,"Sector-53, Chandigarh - CPCC",11-06-2024 15:00:00,30.719859,76.738637,NH3,4,6,5
India,Chhattisgarh,Bhilai,"32Bungalows, Bhilai - CECB",11-06-2024 15:00:00,21.194815,81.314770,PM10,39,78,60
India,Chhattisgarh,Bhilai,"32Bungalows, Bhilai - CECB",11-06-2024 15:00:00,21.194815,81.314770,NH3,6,6,6
India,Chhattisgarh,Bhilai,"Civic Center, Bhilai - Bhilai Steel Plant",11-06-2024 15:00:00,21.185571,81.343175,SO2,9,20,10
India,Chhattisgarh,Bhilai,"Hathkhoj, Bhilai - CECB",11-06-2024 15:00:00,21.224231,81.408350,CO,12,48,17
India,Chhattisgarh,Bilaspur,"Mangala, Bilaspur - NTPC",11-06-2024 15:00:00,22.08815,82.13737,PM2.5,44,75,55
India,Chhattisgarh,Bilaspur,"Mangala, Bilaspur - NTPC",11-06-2024 15:00:00,22.08815,82.13737,PM10,20,65,48
India,Chhattisgarh,Chhal,"Nawapara SECL Colony, Chhal - CECB",11-06-2024 15:00:00,22.118125,83.140608,NH3,NA,NA,NA
India,Chhattisgarh,Korba,"Rampur, Korba - CECB",11-06-2024 15:00:00,22.368195,82.746431,OZONE,18,26,22
India,Chhattisgarh,Kunjemura,"OP Jindal School, Kunjemura - CECB",11-06-2024 15:00:00,22.126650,83.483212,PM2.5,40,124,76
India,Chhattisgarh,Kunjemura,"OP Jindal School, Kunjemura - CECB",11-06-2024 15:00:00,22.126650,83.483212,PM10,60,205,109
India,Chhattisgarh,Milupara,"Govt. Higher Secondary School, Milupara - CECB",11-06-2024 15:00:00,22.1910172,83.5197009,CO,19,40,26
India,Chhattisgarh,Raipur,"AIIMS, Raipur - CECB",11-06-2024 15:00:00,21.258815,81.578979,PM2.5,24,83,51
India,Chhattisgarh,Raipur,"AIIMS, Raipur - CECB",11-06-2024 15:00:00,21.258815,81.578979,NO2,NA,NA,NA
India,Chhattisgarh,Raipur,"AIIMS, Raipur - CECB",11-06-2024 15:00:00,21.258815,81.578979,SO2,5,20,8
India,Chhattisgarh,Raipur,"AIIMS, Raipur - CECB",11-06-2024 15:00:00,21.258815,81.578979,OZONE,4,48,28
India,Chhattisgarh,Raipur,"Bhatagaon New ISBT, Raipur - CECB",11-06-2024 15:00:00,21.219665,81.630094,PM10,24,128,85
India,Chhattisgarh,Raipur,"Siltara Phase-II, Raipur - CECB",11-06-2024 15:00:00,21.371751,81.664929,PM2.5,44,177,95
India,Chhattisgarh,Tumidih,"OP Jindal Industrial Park, Tumidih - CECB",11-06-2024 15:00:00,22.06631475,83.33820077,PM2.5,NA,NA,NA
India,Chhattisgarh,Tumidih,"OP Jindal Industrial Park, Tumidih - CECB",11-06-2024 15:00:00,22.06631475,83.33820077,CO,24,38,30
India,Delhi,Delhi,"Alipur, Delhi - DPCC",11-06-2024 15:00:00,28.815329,77.153010,SO2,11,100,36
India,Delhi,Delhi,"Aya Nagar, Delhi - IMD",11-06-2024 15:00:00,28.4706914,77.1099364,CO,24,106,104
India,Delhi,Delhi,"Bawana, Delhi - DPCC",11-06-2024 15:00:00,28.776200,77.051074,CO,27,77,50
India,Delhi,Delhi,"Bawana, Delhi - DPCC",11-06-2024 15:00:00,28.776200,77.051074,OZONE,8,155,91
India,Delhi,Delhi,"Burari Crossing, Delhi - IMD",11-06-2024 15:00:00,28.7256504,77.2011573,CO,56,88,76
India,Delhi,Delhi,"CRRI Mathura Road, Delhi - IMD",11-06-2024 15:00:00,28.5512005,77.2735737,PM2.5,NA,NA,NA
India,Delhi,Delhi,"Chandni Chowk, Delhi - IITM",11-06-2024 15:00:00,28.656756,77.227234,PM2.5,NA,NA,NA
India,Delhi,Delhi,"Chandni Chowk, Delhi - IITM",11-06-2024 15:00:00,28.656756,77.227234,SO2,NA,NA,NA
India,Delhi,Delhi,"DTU, Delhi - CPCB",11-06-2024 15:00:00,28.7500499,77.1112615,SO2,41,91,55
India,Delhi,Delhi,"DTU, Delhi - CPCB",11-06-2024 15:00:00,28.7500499,77.1112615,CO,28,75,56
India,Delhi,Delhi,"Dr. Karni Singh Shooting Range, Delhi - DPCC",11-06-2024 15:00:00,28.498571,77.264840,NH3,5,6,5
India,Delhi,Delhi,"Dr. Karni Singh Shooting Range, Delhi - DPCC",11-06-2024 15:00:00,28.498571,77.264840,SO2,6,71,28
India,Delhi,Delhi,"Dwarka-Sector 8, Delhi - DPCC ",11-06-2024 15:00:00,28.5710274,77.0719006,PM10,114,422,248
India,Delhi,Delhi,"Dwarka-Sector 8, Delhi - DPCC ",11-06-2024 15:00:00,28.5710274,77.0719006,SO2,8,118,43
India,Delhi,Delhi,"ITO, Delhi - CPCB",11-06-2024 15:00:00,28.628624,77.241060,PM2.5,81,331,175
India,Delhi,Delhi,"ITO, Delhi - CPCB",11-06-2024 15:00:00,28.628624,77.241060,PM10,69,177,110
India,Delhi,Delhi,"Jahangirpuri, Delhi - DPCC",11-06-2024 15:00:00,28.732820,77.170633,PM2.5,42,423,249
India,Delhi,Delhi,"Jahangirpuri, Delhi - DPCC",11-06-2024 15:00:00,28.732820,77.170633,NH3,8,30,21
India,Delhi,Delhi,"Jahangirpuri, Delhi - DPCC",11-06-2024 15:00:00,28.732820,77.170633,OZONE,2,122,63
India,Delhi,Delhi,"Jawaharlal Nehru Stadium, Delhi - DPCC",11-06-2024 15:00:00,28.580280,77.233829,SO2,10,47,19
India,Delhi,Delhi,"Lodhi Road, Delhi - IMD",11-06-2024 15:00:00,28.5918245,77.2273074,PM10,77,231,136
India,Delhi,Delhi,"Lodhi Road, Delhi - IMD",11-06-2024 15:00:00,28.5918245,77.2273074,NO2,3,21,12
India,Delhi,Delhi,"Major Dhyan Chand National Stadium, Delhi - DPCC",11-06-2024 15:00:00,28.611281,77.237738,CO,2,105,31
India,Delhi,Delhi,"NSIT Dwarka, Delhi - CPCB",11-06-2024 15:00:00,28.60909,77.0325413,OZONE,12,101,56
India,Delhi,Delhi,"Najafgarh, Delhi - DPCC",11-06-2024 15:00:00,28.570173,76.933762,PM2.5,15,318,149
India,Delhi,Delhi,"Najafgarh, Delhi - DPCC",11-06-2024 15:00:00,28.570173,76.933762,NO2,5,47,22
India,Delhi,Delhi,"Narela, Delhi - DPCC",11-06-2024 15:00:00,28.822836,77.101981,NO2,7,112,44
India,Delhi,Delhi,"Narela, Delhi - DPCC",11-06-2024 15:00:00,28.822836,77.101981,CO,20,62,40
India,Delhi,Delhi,"Nehru Nagar, Delhi - DPCC",11-06-2024 15:00:00,28.567890,77.250515,NH3,2,8,5
India,Delhi,Delhi,"Okhla Phase-2, Delhi - DPCC",11-06-2024 15:00:00,28.530785,77.271255,NH3,8,14,10
India,Delhi,Delhi,"Okhla Phase-2, Delhi - DPCC",11-06-2024 15:00:00,28.530785,77.271255,SO2,8,18,13
India,Delhi,Delhi,"Punjabi Bagh, Delhi - DPCC",11-06-2024 15:00:00,28.674045,77.131023,SO2,13,68,40
India,Delhi,Delhi,"Punjabi Bagh, Delhi - DPCC",11-06-2024 15:00:00,28.674045,77.131023,CO,26,64,37
India,Delhi,Delhi,"Pusa, Delhi - DPCC",11-06-2024 15:00:00,28.639652,77.146275,SO2,7,74,25
India,Delhi,Delhi,"Pusa, Delhi - IMD",11-06-2024 15:00:00,28.636110,77.173332,PM10,120,273,169
India,Delhi,Delhi,"Pusa, Delhi - IMD",11-06-2024 15:00:00,28.636110,77.173332,NO2,14,148,33
India,Delhi,Delhi,"Pusa, Delhi - IMD",11-06-2024 15:00:00,28.636110,77.173332,CO,26,82,71
India,Delhi,Delhi,"R K Puram, Delhi - DPCC",11-06-2024 15:00:00,28.563262,77.186937,NH3,4,9,7
India,Delhi,Delhi,"R K Puram, Delhi - DPCC",11-06-2024 15:00:00,28.563262,77.186937,CO,10,106,44
India,Delhi,Delhi,"Rohini, Delhi - DPCC",11-06-2024 15:00:00,28.732528,77.119920,PM2.5,28,476,204
India,Delhi,Delhi,"Rohini, Delhi - DPCC",11-06-2024 15:00:00,28.732528,77.119920,PM10,109,463,282
India,Delhi,Delhi,"Sonia Vihar, Delhi - DPCC",11-06-2024 15:00:00,28.710508,77.249485,NO2,16,114,62
India,Delhi,Delhi,"Sri Aurobindo Marg, Delhi - DPCC",11-06-2024 15:00:00,28.531346,77.190156,PM2.5,29,303,111
India,Delhi,Delhi,"Vivek Vihar, Delhi - DPCC",11-06-2024 15:00:00,28.672342,77.315260,PM10,131,334,216
India,Delhi,Delhi,"Vivek Vihar, Delhi - DPCC",11-06-2024 15:00:00,28.672342,77.315260,OZONE,14,166,86
India,Delhi,Delhi,"Wazirpur, Delhi - DPCC",11-06-2024 15:00:00,28.699793,77.165453,PM2.5,23,348,166
India,Delhi,Delhi,"Wazirpur, Delhi - DPCC",11-06-2024 15:00:00,28.699793,77.165453,NH3,1,22,3
India,Delhi,Delhi,"Wazirpur, Delhi - DPCC",11-06-2024 15:00:00,28.699793,77.165453,SO2,11,122,50
India,Gujarat,Ahmedabad,"Chandkheda, Ahmedabad - IITM",11-06-2024 15:00:00,23.107969,72.574648,PM10,35,101,58
India,Gujarat,Ahmedabad,"Gyaspur, Ahmedabad - IITM",11-06-2024 15:00:00,22.977134,72.553024,PM10,31,190,83
India,Gujarat,Ahmedabad,"Gyaspur, Ahmedabad - IITM",11-06-2024 15:00:00,22.977134,72.553024,NH3,4,6,5
India,Gujarat,Ahmedabad,"Maninagar, Ahmedabad - GPCB",11-06-2024 15:00:00,23.002657,72.591912,SO2,9,125,73
India,Gujarat,Ahmedabad,"Raikhad, Ahmedabad - IITM",11-06-2024 15:00:00,23.020509,72.579261,PM2.5,NA,NA,NA
India,Gujarat,Ahmedabad,"Raikhad, Ahmedabad - IITM",11-06-2024 15:00:00,23.020509,72.579261,NO2,60,75,64
India,Gujarat,Ahmedabad,"Rakhial, Ahmedabad - IITM",11-06-2024 15:00:00,23.016834,72.625775,PM2.5,NA,NA,NA
India,Gujarat,Ahmedabad,"SVPI Airport Hansol, Ahmedabad - IITM",11-06-2024 15:00:00,23.076793,72.627874,NH3,3,4,4
India,Gujarat,Ahmedabad,"Sardar Vallabhbhai Patel Stadium, Ahmedabad - IITM",11-06-2024 15:00:00,23.043070,72.562968,CO,47,52,49
India,Gujarat,Ahmedabad,"Sardar Vallabhbhai Patel Stadium, Ahmedabad - IITM",11-06-2024 15:00:00,23.043070,72.562968,OZONE,12,47,23
India,Gujarat,Gandhinagar,"GIFT City, Gandhinagar - IITM",11-06-2024 15:00:00,23.163798,72.677768,NO2,35,45,42
India,Gujarat,Gandhinagar,"Sector-10, Gandhinagar - GPCB",11-06-2024 15:00:00,23.221714,72.654328,PM2.5,30,48,33
India,Gujarat,Gandhinagar,"Sector-10, Gandhinagar - GPCB",11-06-2024 15:00:00,23.221714,72.654328,SO2,1,3,2
India,Gujarat,Vapi,"Phase-1 GIDC, Vapi - GPCB",11-06-2024 15:00:00,20.362421,72.918013,NO2,6,7,6
India,Gujarat,Vatva,"Phase-4 GIDC, Vatva - GPCB",11-06-2024 15:00:00,22.969611,72.643500,OZONE,29,30,30
India,Haryana,Ambala,"Patti Mehar, Ambala - HSPCB",11-06-2024 15:00:00,30.379589,76.778328,PM2.5,31,87,60
India,Haryana,Ambala,"Patti Mehar, Ambala - HSPCB",11-06-2024 15:00:00,30.379589,76.778328,NH3,5,12,8
India,Haryana,Charkhi Dadri,"Mini Secretariat, Charkhi Dadri - HSPCB",11-06-2024 15:00:00,28.593883,76.270653,PM10,91,152,127
India,Haryana,Dharuhera,"Municipal Corporation Office, Dharuhera -  HSPCB",11-06-2024 15:00:00,28.206800,76.799700,PM2.5,40,170,84
India,Haryana,Dharuhera,"Municipal Corporation Office, Dharuhera -  HSPCB",11-06-2024 15:00:00,28.206800,76.799700,NH3,9,26,20
India,Haryana,Faridabad,"New Industrial Town, Faridabad - HSPCB",11-06-2024 15:00:00,28.39072,77.30059,PM10,110,411,222
India,Haryana,Faridabad,"New Industrial Town, Faridabad - HSPCB",11-06-2024 15:00:00,28.39072,77.30059,NO2,7,17,12
India,Haryana,Faridabad,"New Industrial Town, Faridabad - HSPCB",11-06-2024 15:00:00,28.39072,77.30059,OZONE,15,61,26
India,Haryana,Faridabad,"Sector 11, Faridabad - HSPCB",11-06-2024 15:00:00,28.376058,77.315741,NO2,30,33,31
India,Haryana,Faridabad,"Sector 11, Faridabad - HSPCB",11-06-2024 15:00:00,28.376058,77.315741,NH3,6,6,6
India,Haryana,Faridabad,"Sector 11, Faridabad - HSPCB",11-06-2024 15:00:00,28.376058,77.315741,SO2,3,114,9
India,Haryana,Faridabad,"Sector 30, Faridabad - HSPCB",11-06-2024 15:00:00,28.4417,77.3217,PM2.5,NA,NA,NA
India,Haryana,Faridabad,"Sector 30, Faridabad - HSPCB",11-06-2024 15:00:00,28.4417,77.3217,PM10,NA,NA,NA
India,Haryana,Faridabad,"Sector 30, Faridabad - HSPCB",11-06-2024 15:00:00,28.4417,77.3217,SO2,NA,NA,NA
India,Haryana,Faridabad,"Sector 30, Faridabad - HSPCB",11-06-2024 15:00:00,28.4417,77.3217,CO,18,60,19
India,Haryana,Faridabad,"Sector- 16A, Faridabad - HSPCB",11-06-2024 15:00:00,28.4088421,77.3099081,SO2,NA,NA,NA
India,Haryana,Faridabad,"Sector- 16A, Faridabad - HSPCB",11-06-2024 15:00:00,28.4088421,77.3099081,CO,34,66,56
India,Haryana,Gurugram,"NISE Gwal Pahari, Gurugram - IMD",11-06-2024 15:00:00,28.422681,77.148944,PM10,NA,NA,NA
India,Haryana,Gurugram,"Teri Gram, Gurugram - HSPCB",11-06-2024 15:00:00,28.4275,77.1465,SO2,4,5,4
India,Haryana,Gurugram,"Teri Gram, Gurugram - HSPCB",11-06-2024 15:00:00,28.4275,77.1465,OZONE,12,100,18
India,Haryana,Gurugram,"Vikas Sadan, Gurugram - HSPCB",11-06-2024 15:00:00,28.4501238,77.0263051,PM2.5,2,307,126
India,Haryana,Hisar,"Urban Estate-II, Hisar - HSPCB",11-06-2024 15:00:00,29.140560,75.744941,NH3,3,4,4
India,Haryana,Hisar,"Urban Estate-II, Hisar - HSPCB",11-06-2024 15:00:00,29.140560,75.744941,OZONE,33,143,92
India,Haryana,Kaithal,"Rishi Nagar, Kaithal - HSPCB",11-06-2024 15:00:00,29.8006,76.4155,NO2,24,26,25
India,Haryana,Karnal,"Sector-12, Karnal - HSPCB",11-06-2024 15:00:00,29.695300,77.002700,NH3,10,13,11
India,Haryana,Kurukshetra,"Sector-7, Kurukshetra - HSPCB",11-06-2024 15:00:00,29.966942,76.875879,PM2.5,37,187,122
India,Haryana,Kurukshetra,"Sector-7, Kurukshetra - HSPCB",11-06-2024 15:00:00,29.966942,76.875879,NO2,10,11,10
India,Haryana,Kurukshetra,"Sector-7, Kurukshetra - HSPCB",11-06-2024 15:00:00,29.966942,76.875879,SO2,1,31,12
India,Haryana,Mandikhera,"General Hospital, Mandikhera - HSPCB",11-06-2024 15:00:00,27.9002,76.9938,NH3,16,19,18
India,Haryana,Manesar,"Sector-2 IMT, Manesar - HSPCB",11-06-2024 15:00:00,28.360699,76.936090,PM2.5,76,143,94
India,Haryana,Palwal,"Shyam Nagar, Palwal - HSPCB",11-06-2024 15:00:00,28.1485564,77.3320667,PM2.5,52,77,64
India,Haryana,Palwal,"Shyam Nagar, Palwal - HSPCB",11-06-2024 15:00:00,28.1485564,77.3320667,CO,16,34,26
India,Haryana,Panipat,"Sector-18, Panipat - HSPCB",11-06-2024 15:00:00,29.432304,76.972765,PM2.5,185,189,187
India,Haryana,Panipat,"Sector-18, Panipat - HSPCB",11-06-2024 15:00:00,29.432304,76.972765,SO2,18,19,19
India,Haryana,Panipat,"Sector-18, Panipat - HSPCB",11-06-2024 15:00:00,29.432304,76.972765,OZONE,30,30,30
India,Haryana,Rohtak,"MD University, Rohtak - HSPCB",11-06-2024 15:00:00,28.52123,76.37138,SO2,5,9,7
India,Haryana,Sonipat,"Murthal, Sonipat - HSPCB",11-06-2024 15:00:00,29.027200,77.062100,CO,24,26,25
India,Himachal Pradesh,Baddi,"HIMUDA Complex Phase-1, Baddi - HPPCB",11-06-2024 15:00:00,30.943887,76.801991,CO,12,54,21
India,Jharkhand,Dhanbad,"Kalakusuma, Dhanbad - DMC",11-06-2024 15:00:00,23.811548,86.481238,NO2,310,376,353
India,Jharkhand,Dhanbad,"Sardar Patel Nagar, Dhanbad - JSPCB",11-06-2024 15:00:00,23.80569,86.44268,PM10,NA,NA,NA
India,Karnataka,Bagalkot,"Vidayagiri, Bagalkot - KSPCB",11-06-2024 15:00:00,16.172806,75.659694,CO,15,56,29
India,Karnataka,Bagalkot,"Vidayagiri, Bagalkot - KSPCB",11-06-2024 15:00:00,16.172806,75.659694,OZONE,NA,NA,NA
India,Karnataka,Belgaum,"Ramteerth Nagar, Belgaum - KSPCB",11-06-2024 15:00:00,15.888653,74.541751,NO2,14,48,33
India,Karnataka,Belgaum,"Ramteerth Nagar, Belgaum - KSPCB",11-06-2024 15:00:00,15.888653,74.541751,NH3,6,10,8
India,Karnataka,Belgaum,"Ramteerth Nagar, Belgaum - KSPCB",11-06-2024 15:00:00,15.888653,74.541751,CO,38,52,44
India,Karnataka,Bengaluru,"Bapuji Nagar, Bengaluru - KSPCB",11-06-2024 15:00:00,12.951913,77.539784,PM2.5,8,23,17
India,Karnataka,Bengaluru,"Jayanagar 5th Block, Bengaluru - KSPCB",11-06-2024 15:00:00,12.920984,77.584908,CO,21,22,21
India,Karnataka,Bengaluru,"Jigani, Bengaluru - KSPCB",11-06-2024 15:00:00,12.7816279,77.6299145,PM10,26,41,33
India,Karnataka,Bengaluru,"Jigani, Bengaluru - KSPCB",11-06-2024 15:00:00,12.7816279,77.6299145,SO2,6,12,9
India,Karnataka,Bengaluru,"Peenya, Bengaluru - CPCB",11-06-2024 15:00:00,13.0270199,77.494094,PM10,43,57,50
India,Karnataka,Bengaluru,"Peenya, Bengaluru - CPCB",11-06-2024 15:00:00,13.0270199,77.494094,SO2,13,17,14
India,Karnataka,Bengaluru,"Peenya, Bengaluru - CPCB",11-06-2024 15:00:00,13.0270199,77.494094,CO,77,80,78
India,Karnataka,Bengaluru,"RVCE-Mailasandra, Bengaluru - KSPCB",11-06-2024 15:00:00,12.921418,77.502466,CO,34,56,43
India,Karnataka,Bengaluru,"RVCE-Mailasandra, Bengaluru - KSPCB",11-06-2024 15:00:00,12.921418,77.502466,OZONE,39,39,39
India,Karnataka,Bengaluru,"Sanegurava Halli, Bengaluru - KSPCB",11-06-2024 15:00:00,12.990328,77.5431385,PM10,35,61,40
India,Karnataka,Bengaluru,"Sanegurava Halli, Bengaluru - KSPCB",11-06-2024 15:00:00,12.990328,77.5431385,CO,6,172,49
India,Karnataka,Bengaluru,"Shivapura_Peenya, Bengaluru - KSPCB",11-06-2024 15:00:00,13.0246342,77.5080115,PM10,15,42,30
India,Karnataka,Bengaluru,"Silk Board, Bengaluru - KSPCB",11-06-2024 15:00:00,12.917348,77.622813,NO2,9,30,20
India,Karnataka,Bidar,"Naubad, Bidar - KSPCB",11-06-2024 15:00:00,17.930306,77.482194,PM10,NA,NA,NA
India,Karnataka,Chamarajanagar,"Urban, Chamarajanagar - KSPCB",11-06-2024 15:00:00,11.55358,76.55521,NO2,12,29,27
India,Karnataka,Chikkaballapur,"Chikkaballapur Rural, Chikkaballapur - KSPCB",11-06-2024 15:00:00,13.428828,77.731418,PM2.5,4,25,15
India,Karnataka,Chikkaballapur,"Chikkaballapur Rural, Chikkaballapur - KSPCB",11-06-2024 15:00:00,13.428828,77.731418,NO2,4,8,6
India,Karnataka,Chikkamagaluru,"Kalyana Nagara, Chikkamagaluru - KSPCB",11-06-2024 15:00:00,13.328028,75.797056,PM2.5,3,71,26
India,Karnataka,Chikkamagaluru,"Kalyana Nagara, Chikkamagaluru - KSPCB",11-06-2024 15:00:00,13.328028,75.797056,PM10,23,67,39
India,Karnataka,Davanagere,"Devaraj Urs Badavane, Davanagere - KSPCB",11-06-2024 15:00:00,14.475800,75.905200,SO2,4,7,6
India,Karnataka,Davanagere,"Devaraj Urs Badavane, Davanagere - KSPCB",11-06-2024 15:00:00,14.475800,75.905200,OZONE,20,24,21
India,Karnataka,Dharwad,"Kalabhavan, Dharwad - KSPCB",11-06-2024 15:00:00,15.459706,75.008381,PM10,23,61,42
India,Karnataka,Dharwad,"Kalabhavan, Dharwad - KSPCB",11-06-2024 15:00:00,15.459706,75.008381,NO2,6,12,9
India,Karnataka,Dharwad,"Kalabhavan, Dharwad - KSPCB",11-06-2024 15:00:00,15.459706,75.008381,NH3,3,3,3
India,Karnataka,Dharwad,"Kalabhavan, Dharwad - KSPCB",11-06-2024 15:00:00,15.459706,75.008381,CO,22,52,45
India,Karnataka,Hubballi,"Lingaraj Nagar, Hubballi - KSPCB",11-06-2024 15:00:00,15.3714823,75.1160168,PM2.5,33,51,36
India,Karnataka,Hubballi,"Lingaraj Nagar, Hubballi - KSPCB",11-06-2024 15:00:00,15.3714823,75.1160168,NO2,9,16,12
India,Karnataka,Hubballi,"Lingaraj Nagar, Hubballi - KSPCB",11-06-2024 15:00:00,15.3714823,75.1160168,NH3,2,4,3
India,Karnataka,Hubballi,"Lingaraj Nagar, Hubballi - KSPCB",11-06-2024 15:00:00,15.3714823,75.1160168,CO,2,22,9
India,Karnataka,Kalaburagi,"Lal Bahadur Shastri Nagar, Kalaburagi - KSPCB",11-06-2024 15:00:00,17.321993,76.822628,PM10,7,64,26
India,Karnataka,Kalaburagi,"Lal Bahadur Shastri Nagar, Kalaburagi - KSPCB",11-06-2024 15:00:00,17.321993,76.822628,CO,35,40,36
India,Karnataka,Kalaburagi,"Mahatma Basaveswar Colony, Kalaburgi - KSPCB",11-06-2024 15:00:00,17.336318,76.847397,SO2,4,17,6
India,Karnataka,Kolar,"Tamaka Ind. Area, Kolar - KSPCB",11-06-2024 15:00:00,13.1276288,78.1570122,CO,8,10,9
