country,state,city,station,last_update,latitude,longitude,pollutant_id,pollutant_min,pollutant_max,pollutant_avg
India,Andhra_Pradesh,Anantapur,"Gulzarpet, Anantapur - APPCB",07-05-2024 07:00:00,14.675886,77.593027,PM10,78,123,96
India,Andhra_Pradesh,Anantapur,"Gulzarpet, Anantapur - APPCB",07-05-2024 07:00:00,14.675886,77.593027,NH3,4,4,4
India,Andhra_Pradesh,Chittoor,"Gangineni Cheruvu, Chittoor - APPCB",07-05-2024 07:00:00,13.204880,79.097889,CO,NA,NA,NA
India,Andhra_Pradesh,Chittoor,"Gangineni Cheruvu, Chittoor - APPCB",07-05-2024 07:00:00,13.204880,79.097889,OZONE,NA,NA,NA
India,Andhra_Pradesh,Kadapa,"Yerramukkapalli, Kadapa - APPCB",07-05-2024 07:00:00,14.465052,78.824187,PM2.5,8,341,116
India,Andhra_Pradesh,Kadapa,"Yerramukkapalli, Kadapa - APPCB",07-05-2024 07:00:00,14.465052,78.824187,PM10,8,255,97
India,Andhra_Pradesh,Kadapa,"Yerramukkapalli, Kadapa - APPCB",07-05-2024 07:00:00,14.465052,78.824187,NO2,12,13,13
India,Andhra_Pradesh,Kadapa,"Yerramukkapalli, Kadapa - APPCB",07-05-2024 07:00:00,14.465052,78.824187,SO2,2,3,2
India,Andhra_Pradesh,Tirupati,"Tirumala, Tirupati - APPCB",07-05-2024 07:00:00,13.67,79.35,PM10,41,103,70
India,Andhra_Pradesh,Tirupati,"Vaikuntapuram, Tirupati - APPCB",07-05-2024 07:00:00,13.615387,79.409230,NH3,2,3,2
India,Andhra_Pradesh,Tirupati,"Vaikuntapuram, Tirupati - APPCB",07-05-2024 07:00:00,13.615387,79.409230,SO2,4,6,5
India,Andhra_Pradesh,Tirupati,"Vaikuntapuram, Tirupati - APPCB",07-05-2024 07:00:00,13.615387,79.409230,CO,10,16,13
India,Andhra_Pradesh,Tirupati,"Vaikuntapuram, Tirupati - APPCB",07-05-2024 07:00:00,13.615387,79.409230,OZONE,8,40,20
India,Andhra_Pradesh,Vijayawada,"HB Colony, Vijayawada - APPCB",07-05-2024 07:00:00,16.536107,80.594233,NO2,6,10,8
India,Andhra_Pradesh,Vijayawada,"HB Colony, Vijayawada - APPCB",07-05-2024 07:00:00,16.536107,80.594233,OZONE,4,322,37
India,Andhra_Pradesh,Vijayawada,"Kanuru, Vijayawada - APPCB",07-05-2024 07:00:00,16.486692,80.699436,PM2.5,52,71,60
India,Andhra_Pradesh,Vijayawada,"Kanuru, Vijayawada - APPCB",07-05-2024 07:00:00,16.486692,80.699436,SO2,2,9,4
India,Andhra_Pradesh,Vijayawada,"Rajiv Gandhi Park, Vijayawada - APPCB",07-05-2024 07:00:00,16.509717,80.612222,PM10,36,97,63
India,Andhra_Pradesh,Vijayawada,"Rajiv Nagar, Vijayawada - APPCB",07-05-2024 07:00:00,16.554731,80.649110,SO2,8,22,14
India,Andhra_Pradesh,Visakhapatnam,"GVM Corporation, Visakhapatnam - APPCB",07-05-2024 07:00:00,17.72,83.3,PM10,58,153,86
India,Andhra_Pradesh,Visakhapatnam,"GVM Corporation, Visakhapatnam - APPCB",07-05-2024 07:00:00,17.72,83.3,OZONE,8,104,11
India,Assam,Byrnihat,"Central Academy for SFS, Byrnihat - PCBA",07-05-2024 07:00:00,26.071318,91.87488,SO2,5,25,12
India,Assam,Guwahati,"IITG, Guwahati - PCBA",07-05-2024 07:00:00,26.2028636,91.70046436,PM10,32,69,43
India,Assam,Guwahati,"LGBI Airport, Guwahati - PCBA",07-05-2024 07:00:00,26.10887,91.589544,NH3,6,11,8
India,Assam,Guwahati,"Pan Bazaar, Guwahati - PCBA",07-05-2024 07:00:00,26.187500,91.744194,PM2.5,16,62,35
India,Assam,Guwahati,"Railway Colony, Guwahati - PCBA",07-05-2024 07:00:00,26.181742,91.78063,CO,14,28,15
India,Assam,Silchar,"Tarapur, Silchar - PCBA",07-05-2024 07:00:00,24.82827,92.79525,CO,14,44,32
India,Assam,Sivasagar,"Girls College, Sivasagar - PCBA",07-05-2024 07:00:00,26.987634,94.636574,NH3,2,4,2
India,Assam,Sivasagar,"Girls College, Sivasagar - PCBA",07-05-2024 07:00:00,26.987634,94.636574,OZONE,1,16,1
India,Bihar,Arrah,"New DM Office, Arrah - BSPCB",07-05-2024 07:00:00,25.5626095,84.663264,NO2,1,3,1
India,Bihar,Aurangabad,"Gurdeo Nagar, Aurangabad - BSPCB",07-05-2024 07:00:00,24.75746,84.366208,NO2,3,13,5
India,Bihar,Aurangabad,"Gurdeo Nagar, Aurangabad - BSPCB",07-05-2024 07:00:00,24.75746,84.366208,OZONE,11,151,34
India,Bihar,Bettiah,"Kamalnath Nagar, Bettiah - BSPCB",07-05-2024 07:00:00,26.80365,84.51954,SO2,8,21,15
India,Bihar,Bettiah,"Kamalnath Nagar, Bettiah - BSPCB",07-05-2024 07:00:00,26.80365,84.51954,CO,62,65,63
India,Bihar,Bhagalpur,"DM Office_Kachari Chowk, Bhagalpur - BSPCB",07-05-2024 07:00:00,25.251013,86.989001,NH3,6,10,8
India,Bihar,Bhagalpur,"DM Office_Kachari Chowk, Bhagalpur - BSPCB",07-05-2024 07:00:00,25.251013,86.989001,OZONE,42,59,47
India,Bihar,Bhagalpur,"Mayaganj, Bhagalpur - BSPCB",07-05-2024 07:00:00,25.265194,87.012947,NO2,4,10,7
India,Bihar,Bhagalpur,"Mayaganj, Bhagalpur - BSPCB",07-05-2024 07:00:00,25.265194,87.012947,NH3,7,8,8
India,Bihar,Bhagalpur,"Mayaganj, Bhagalpur - BSPCB",07-05-2024 07:00:00,25.265194,87.012947,OZONE,10,31,13
India,Bihar,Buxar,"Charitra Van, Buxar - BSPCB (Formerly known as Central Jail)",07-05-2024 07:00:00,25.567520,83.966379,PM10,NA,NA,NA
India,Bihar,Buxar,"Charitra Van, Buxar - BSPCB (Formerly known as Central Jail)",07-05-2024 07:00:00,25.567520,83.966379,NO2,1,1,1
India,Bihar,Buxar,"Charitra Van, Buxar - BSPCB (Formerly known as Central Jail)",07-05-2024 07:00:00,25.567520,83.966379,OZONE,6,142,51
India,Bihar,Chhapra,"Darshan Nagar, Chhapra - BSPCB",07-05-2024 07:00:00,25.7808257,84.7446768,NO2,14,23,18
India,Bihar,Gaya,"Kareemganj, Gaya - BSPCB",07-05-2024 07:00:00,24.792403,84.992416,NO2,30,31,30
India,Bihar,Gaya,"Kareemganj, Gaya - BSPCB",07-05-2024 07:00:00,24.792403,84.992416,NH3,2,5,4
India,Bihar,Gaya,"SFTI Kusdihra, Gaya - BSPCB",07-05-2024 07:00:00,24.762518,84.982348,NO2,24,44,34
India,Bihar,Gaya,"SFTI Kusdihra, Gaya - BSPCB",07-05-2024 07:00:00,24.762518,84.982348,SO2,7,10,8
India,Bihar,Gaya,"SFTI Kusdihra, Gaya - BSPCB",07-05-2024 07:00:00,24.762518,84.982348,CO,28,44,31
India,Bihar,Hajipur,"Industrial Area, Hajipur - BSPCB",07-05-2024 07:00:00,25.697189,85.245900,NO2,59,64,61
India,Bihar,Katihar,"Mirchaibari, Katihar - BSPCB",07-05-2024 07:00:00,25.560083,87.553265,SO2,19,24,22
India,Bihar,Katihar,"Mirchaibari, Katihar - BSPCB",07-05-2024 07:00:00,25.560083,87.553265,CO,54,66,62
India,Bihar,Kishanganj,"SDM Office_Khagra, Kishanganj - BSPCB",07-05-2024 07:00:00,26.0881305,87.93840336,PM2.5,20,85,48
India,Bihar,Kishanganj,"SDM Office_Khagra, Kishanganj - BSPCB",07-05-2024 07:00:00,26.0881305,87.93840336,NO2,26,28,28
India,Bihar,Motihari,"Gandak Colony, Motihari - BSPCB",07-05-2024 07:00:00,26.63086,84.90051,SO2,2,16,10
India,Bihar,Motihari,"Gandak Colony, Motihari - BSPCB",07-05-2024 07:00:00,26.63086,84.90051,OZONE,5,53,26
India,Bihar,Munger,"Town Hall, Munger - BSPCB",07-05-2024 07:00:00,25.376776,86.471523,NH3,2,3,3
India,Bihar,Muzaffarpur,"Buddha Colony, Muzaffarpur - BSPCB",07-05-2024 07:00:00,26.11442,85.39813,PM2.5,57,247,142
India,Bihar,Muzaffarpur,"Buddha Colony, Muzaffarpur - BSPCB",07-05-2024 07:00:00,26.11442,85.39813,CO,22,26,23
India,Bihar,Muzaffarpur,"MIT-Daudpur Kothi, Muzaffarpur - BSPCB",07-05-2024 07:00:00,26.1403345,85.3650192,PM2.5,32,209,85
India,Bihar,Muzaffarpur,"MIT-Daudpur Kothi, Muzaffarpur - BSPCB",07-05-2024 07:00:00,26.1403345,85.3650192,SO2,4,4,4
India,Bihar,Muzaffarpur,"Muzaffarpur Collectorate, Muzaffarpur - BSPCB",07-05-2024 07:00:00,26.1209,85.3647,PM2.5,35,124,62
India,Bihar,Patna,"DRM Office Danapur, Patna - BSPCB",07-05-2024 07:00:00,25.586562,85.043586,NO2,6,40,12
India,Bihar,Patna,"IGSC Planetarium Complex, Patna - BSPCB",07-05-2024 07:00:00,25.610369,85.132568,OZONE,42,59,44
India,Bihar,Patna,"Muradpur, Patna - BSPCB",07-05-2024 07:00:00,25.619651,85.147382,SO2,4,9,6
India,Bihar,Patna,"Rajbansi Nagar, Patna - BSPCB",07-05-2024 07:00:00,25.599486,85.113666,NO2,17,28,20
India,Bihar,Patna,"Samanpura, Patna - BSPCB",07-05-2024 07:00:00,25.596727,85.085624,OZONE,30,74,36
India,Bihar,Purnia,"Mariam Nagar, Purnia - BSPCB",07-05-2024 07:00:00,25.366336,87.117468,NH3,2,12,8
India,Bihar,Saharsa,"Police Line, Saharsa - BSPCB",07-05-2024 07:00:00,25.892357,86.590325,NH3,9,9,9
India,Bihar,Saharsa,"Police Line, Saharsa - BSPCB",07-05-2024 07:00:00,25.892357,86.590325,CO,53,54,54
India,Bihar,Sasaram,"Dada Peer, Sasaram - BSPCB",07-05-2024 07:00:00,24.952822,84.002396,SO2,12,23,22
India,Chandigarh,Chandigarh,"Sector 22, Chandigarh - CPCC",07-05-2024 07:00:00,30.735567,76.775714,NO2,17,131,54
India,Chandigarh,Chandigarh,"Sector-25, Chandigarh - CPCC",07-05-2024 07:00:00,30.751462,76.762879,PM2.5,92,167,118
India,Chandigarh,Chandigarh,"Sector-53, Chandigarh - CPCC",07-05-2024 07:00:00,30.719859,76.738637,PM10,96,209,138
India,Chandigarh,Chandigarh,"Sector-53, Chandigarh - CPCC",07-05-2024 07:00:00,30.719859,76.738637,CO,32,116,71
India,Chandigarh,Chandigarh,"Sector-53, Chandigarh - CPCC",07-05-2024 07:00:00,30.719859,76.738637,OZONE,9,74,15
India,Chhattisgarh,Bhilai,"32Bungalows, Bhilai - CECB",07-05-2024 07:00:00,21.194815,81.314770,PM2.5,30,78,57
India,Chhattisgarh,Bhilai,"Civic Center, Bhilai - Bhilai Steel Plant",07-05-2024 07:00:00,21.185571,81.343175,CO,32,56,43
India,Chhattisgarh,Bhilai,"Hathkhoj, Bhilai - CECB",07-05-2024 07:00:00,21.224231,81.408350,CO,14,50,22
India,Chhattisgarh,Bilaspur,"Mangala, Bilaspur - NTPC",07-05-2024 07:00:00,22.08815,82.13737,NO2,17,20,18
India,Chhattisgarh,Bilaspur,"Mangala, Bilaspur - NTPC",07-05-2024 07:00:00,22.08815,82.13737,CO,41,54,47
India,Chhattisgarh,Korba,"Rampur, Korba - CECB",07-05-2024 07:00:00,22.368195,82.746431,CO,12,79,30
India,Chhattisgarh,Korba,"Urja Nagar, Korba - CECB",07-05-2024 07:00:00,22.348441,82.549611,PM2.5,40,176,82
India,Chhattisgarh,Korba,"Urja Nagar, Korba - CECB",07-05-2024 07:00:00,22.348441,82.549611,NO2,66,99,75
India,Chhattisgarh,Korba,"Urja Nagar, Korba - CECB",07-05-2024 07:00:00,22.348441,82.549611,NH3,3,15,6
India,Chhattisgarh,Milupara,"Govt. Higher Secondary School, Milupara - CECB",07-05-2024 07:00:00,22.1910172,83.5197009,NH3,NA,NA,NA
India,Chhattisgarh,Milupara,"Govt. Higher Secondary School, Milupara - CECB",07-05-2024 07:00:00,22.1910172,83.5197009,SO2,NA,NA,NA
India,Chhattisgarh,Milupara,"Govt. Higher Secondary School, Milupara - CECB",07-05-2024 07:00:00,22.1910172,83.5197009,OZONE,8,18,12
India,Chhattisgarh,Raipur,"AIIMS, Raipur - CECB",07-05-2024 07:00:00,21.258815,81.578979,SO2,6,27,12
India,Chhattisgarh,Raipur,"Bhatagaon New ISBT, Raipur - CECB",07-05-2024 07:00:00,21.219665,81.630094,NO2,33,57,43
India,Chhattisgarh,Raipur,"Bhatagaon New ISBT, Raipur - CECB",07-05-2024 07:00:00,21.219665,81.630094,NH3,3,3,3
India,Chhattisgarh,Raipur,"Krishak Nagar, Raipur - CECB",07-05-2024 07:00:00,21.237755,81.705301,PM2.5,21,39,29
India,Chhattisgarh,Raipur,"Krishak Nagar, Raipur - CECB",07-05-2024 07:00:00,21.237755,81.705301,SO2,10,28,18
India,Chhattisgarh,Raipur,"Siltara Phase-II, Raipur - CECB",07-05-2024 07:00:00,21.371751,81.664929,NH3,3,3,3
India,Chhattisgarh,Raipur,"Siltara Phase-II, Raipur - CECB",07-05-2024 07:00:00,21.371751,81.664929,CO,26,86,75
India,Chhattisgarh,Tumidih,"OP Jindal Industrial Park, Tumidih - CECB",07-05-2024 07:00:00,22.06631475,83.33820077,NH3,NA,NA,NA
India,Delhi,Delhi,"Alipur, Delhi - DPCC",07-05-2024 07:00:00,28.815329,77.153010,PM2.5,48,389,233
India,Delhi,Delhi,"Alipur, Delhi - DPCC",07-05-2024 07:00:00,28.815329,77.153010,OZONE,1,169,5
India,Delhi,Delhi,"Anand Vihar, Delhi - DPCC",07-05-2024 07:00:00,28.647622,77.3158090,SO2,11,107,37
India,Delhi,Delhi,"Aya Nagar, Delhi - IMD",07-05-2024 07:00:00,28.4706914,77.1099364,OZONE,11,69,12
India,Delhi,Delhi,"Bawana, Delhi - DPCC",07-05-2024 07:00:00,28.776200,77.051074,PM10,163,461,295
India,Delhi,Delhi,"Burari Crossing, Delhi - IMD",07-05-2024 07:00:00,28.7256504,77.2011573,CO,25,95,79
India,Delhi,Delhi,"CRRI Mathura Road, Delhi - IMD",07-05-2024 07:00:00,28.5512005,77.2735737,PM10,NA,NA,NA
India,Delhi,Delhi,"Chandni Chowk, Delhi - IITM",07-05-2024 07:00:00,28.656756,77.227234,NO2,67,317,141
India,Delhi,Delhi,"Chandni Chowk, Delhi - IITM",07-05-2024 07:00:00,28.656756,77.227234,SO2,3,41,24
India,Delhi,Delhi,"Chandni Chowk, Delhi - IITM",07-05-2024 07:00:00,28.656756,77.227234,OZONE,8,15,12
India,Delhi,Delhi,"DTU, Delhi - CPCB",07-05-2024 07:00:00,28.7500499,77.1112615,NH3,1,11,4
India,Delhi,Delhi,"Dr. Karni Singh Shooting Range, Delhi - DPCC",07-05-2024 07:00:00,28.498571,77.264840,NO2,25,194,92
India,Delhi,Delhi,"Dr. Karni Singh Shooting Range, Delhi - DPCC",07-05-2024 07:00:00,28.498571,77.264840,OZONE,2,270,6
India,Delhi,Delhi,"IGI Airport (T3), Delhi - IMD",07-05-2024 07:00:00,28.5627763,77.1180053,PM2.5,65,456,241
India,Delhi,Delhi,"IGI Airport (T3), Delhi - IMD",07-05-2024 07:00:00,28.5627763,77.1180053,NO2,42,128,83
India,Delhi,Delhi,"IHBAS, Dilshad Garden, Delhi - CPCB",07-05-2024 07:00:00,28.6811736,77.3025234,PM10,113,263,174
India,Delhi,Delhi,"IHBAS, Dilshad Garden, Delhi - CPCB",07-05-2024 07:00:00,28.6811736,77.3025234,CO,8,58,24
India,Delhi,Delhi,"Jahangirpuri, Delhi - DPCC",07-05-2024 07:00:00,28.732820,77.170633,PM2.5,73,445,269
India,Delhi,Delhi,"Lodhi Road, Delhi - IITM",07-05-2024 07:00:00,28.588333,77.221667,NH3,NA,NA,NA
India,Delhi,Delhi,"Lodhi Road, Delhi - IITM",07-05-2024 07:00:00,28.588333,77.221667,SO2,22,55,33
India,Delhi,Delhi,"Lodhi Road, Delhi - IMD",07-05-2024 07:00:00,28.5918245,77.2273074,PM2.5,59,347,189
India,Delhi,Delhi,"Major Dhyan Chand National Stadium, Delhi - DPCC",07-05-2024 07:00:00,28.611281,77.237738,NO2,22,194,106
India,Delhi,Delhi,"NSIT Dwarka, Delhi - CPCB",07-05-2024 07:00:00,28.60909,77.0325413,CO,22,76,38
India,Delhi,Delhi,"Najafgarh, Delhi - DPCC",07-05-2024 07:00:00,28.570173,76.933762,PM2.5,48,435,234
India,Delhi,Delhi,"Narela, Delhi - DPCC",07-05-2024 07:00:00,28.822836,77.101981,CO,18,92,64
India,Delhi,Delhi,"Narela, Delhi - DPCC",07-05-2024 07:00:00,28.822836,77.101981,OZONE,6,179,18
India,Delhi,Delhi,"Nehru Nagar, Delhi - DPCC",07-05-2024 07:00:00,28.567890,77.250515,PM10,149,367,235
India,Delhi,Delhi,"Nehru Nagar, Delhi - DPCC",07-05-2024 07:00:00,28.567890,77.250515,SO2,5,13,7
India,Delhi,Delhi,"North Campus, DU, Delhi - IMD",07-05-2024 07:00:00,28.6573814,77.1585447,PM10,125,399,253
India,Delhi,Delhi,"North Campus, DU, Delhi - IMD",07-05-2024 07:00:00,28.6573814,77.1585447,CO,48,154,123
India,Delhi,Delhi,"Okhla Phase-2, Delhi - DPCC",07-05-2024 07:00:00,28.530785,77.271255,PM2.5,64,371,218
India,Delhi,Delhi,"Okhla Phase-2, Delhi - DPCC",07-05-2024 07:00:00,28.530785,77.271255,SO2,10,30,17
India,Delhi,Delhi,"Punjabi Bagh, Delhi - DPCC",07-05-2024 07:00:00,28.674045,77.131023,PM10,150,424,276
India,Delhi,Delhi,"Pusa, Delhi - DPCC",07-05-2024 07:00:00,28.639652,77.146275,PM2.5,68,406,203
India,Delhi,Delhi,"Pusa, Delhi - DPCC",07-05-2024 07:00:00,28.639652,77.146275,PM10,172,445,276
India,Delhi,Delhi,"Pusa, Delhi - IMD",07-05-2024 07:00:00,28.636110,77.173332,PM10,172,430,263
India,Delhi,Delhi,"Pusa, Delhi - IMD",07-05-2024 07:00:00,28.636110,77.173332,CO,38,105,102
India,Delhi,Delhi,"Pusa, Delhi - IMD",07-05-2024 07:00:00,28.636110,77.173332,OZONE,3,53,4
India,Delhi,Delhi,"R K Puram, Delhi - DPCC",07-05-2024 07:00:00,28.563262,77.186937,OZONE,17,242,21
India,Delhi,Delhi,"Rohini, Delhi - DPCC",07-05-2024 07:00:00,28.732528,77.119920,PM2.5,63,416,241
India,Delhi,Delhi,"Shadipur, Delhi - CPCB",07-05-2024 07:00:00,28.6514781,77.1473105,PM10,166,500,342
India,Delhi,Delhi,"Sirifort, Delhi - CPCB",07-05-2024 07:00:00,28.5504249,77.2159377,NO2,42,59,47
India,Delhi,Delhi,"Sonia Vihar, Delhi - DPCC",07-05-2024 07:00:00,28.710508,77.249485,PM10,127,412,281
India,Delhi,Delhi,"Sri Aurobindo Marg, Delhi - DPCC",07-05-2024 07:00:00,28.531346,77.190156,PM2.5,70,356,191
India,Delhi,Delhi,"Vivek Vihar, Delhi - DPCC",07-05-2024 07:00:00,28.672342,77.315260,SO2,30,105,53
India,Delhi,Delhi,"Wazirpur, Delhi - DPCC",07-05-2024 07:00:00,28.699793,77.165453,PM2.5,71,403,269
India,Delhi,Delhi,"Wazirpur, Delhi - DPCC",07-05-2024 07:00:00,28.699793,77.165453,CO,71,139,109
India,Gujarat,Ahmedabad,"Chandkheda, Ahmedabad - IITM",07-05-2024 07:00:00,23.107969,72.574648,CO,26,67,45
India,Gujarat,Ahmedabad,"Gyaspur, Ahmedabad - IITM",07-05-2024 07:00:00,22.977134,72.553024,SO2,NA,NA,NA
India,Gujarat,Ahmedabad,"Gyaspur, Ahmedabad - IITM",07-05-2024 07:00:00,22.977134,72.553024,CO,NA,NA,NA
India,Gujarat,Ahmedabad,"Maninagar, Ahmedabad - GPCB",07-05-2024 07:00:00,23.002657,72.591912,PM10,67,289,112
India,Gujarat,Ahmedabad,"Maninagar, Ahmedabad - GPCB",07-05-2024 07:00:00,23.002657,72.591912,NO2,33,103,51
India,Gujarat,Ahmedabad,"Raikhad, Ahmedabad - IITM",07-05-2024 07:00:00,23.020509,72.579261,NH3,2,3,3
India,Gujarat,Ahmedabad,"Raikhad, Ahmedabad - IITM",07-05-2024 07:00:00,23.020509,72.579261,SO2,4,7,6
India,Gujarat,Ahmedabad,"SAC ISRO Satellite, Ahmedabad - IITM",07-05-2024 07:00:00,23.023389,72.515201,NO2,32,32,32
India,Gujarat,Ahmedabad,"SAC ISRO Satellite, Ahmedabad - IITM",07-05-2024 07:00:00,23.023389,72.515201,NH3,3,3,3
India,Gujarat,Ahmedabad,"SVPI Airport Hansol, Ahmedabad - IITM",07-05-2024 07:00:00,23.076793,72.627874,OZONE,21,48,26
India,Gujarat,Ankleshwar,"GIDC, Ankleshwar - GPCB",07-05-2024 07:00:00,21.613267,73.010555,PM2.5,31,91,55
India,Gujarat,Ankleshwar,"GIDC, Ankleshwar - GPCB",07-05-2024 07:00:00,21.613267,73.010555,NH3,6,6,6
India,Gujarat,Ankleshwar,"GIDC, Ankleshwar - GPCB",07-05-2024 07:00:00,21.613267,73.010555,SO2,8,72,26
India,Gujarat,Gandhinagar,"Sector-10, Gandhinagar - GPCB",07-05-2024 07:00:00,23.221714,72.654328,CO,32,90,44
India,Gujarat,Gandhinagar,"Sector-10, Gandhinagar - GPCB",07-05-2024 07:00:00,23.221714,72.654328,OZONE,3,38,13
India,Gujarat,Vapi,"Phase-1 GIDC, Vapi - GPCB",07-05-2024 07:00:00,20.362421,72.918013,NO2,NA,NA,NA
India,Gujarat,Vapi,"Phase-1 GIDC, Vapi - GPCB",07-05-2024 07:00:00,20.362421,72.918013,NH3,NA,NA,NA
India,Gujarat,Vatva,"Phase-4 GIDC, Vatva - GPCB",07-05-2024 07:00:00,22.969611,72.643500,CO,34,36,36
India,Gujarat,Vatva,"Phase-4 GIDC, Vatva - GPCB",07-05-2024 07:00:00,22.969611,72.643500,OZONE,15,81,41
India,Haryana,Ambala,"Patti Mehar, Ambala - HSPCB",07-05-2024 07:00:00,30.379589,76.778328,NH3,8,8,8
India,Haryana,Bahadurgarh,"Arya Nagar, Bahadurgarh - HSPCB",07-05-2024 07:00:00,28.6701,76.9254,NH3,8,10,9
India,Haryana,Ballabgarh,"Nathu Colony, Ballabgarh - HSPCB",07-05-2024 07:00:00,28.3419248,77.319699,PM10,159,436,244
India,Haryana,Ballabgarh,"Nathu Colony, Ballabgarh - HSPCB",07-05-2024 07:00:00,28.3419248,77.319699,OZONE,1,22,2
India,Haryana,Bhiwani,"H.B. Colony, Bhiwani - HSPCB",07-05-2024 07:00:00,28.806223,76.141105,PM2.5,81,313,196
India,Haryana,Dharuhera,"Municipal Corporation Office, Dharuhera -  HSPCB",07-05-2024 07:00:00,28.206800,76.799700,CO,16,62,54
India,Haryana,Faridabad,"New Industrial Town, Faridabad - HSPCB",07-05-2024 07:00:00,28.39072,77.30059,OZONE,5,266,14
India,Haryana,Faridabad,"Sector 11, Faridabad - HSPCB",07-05-2024 07:00:00,28.376058,77.315741,NH3,6,6,6
India,Haryana,Faridabad,"Sector 30, Faridabad - HSPCB",07-05-2024 07:00:00,28.4417,77.3217,NO2,30,33,31
India,Haryana,Faridabad,"Sector- 16A, Faridabad - HSPCB",07-05-2024 07:00:00,28.4088421,77.3099081,NO2,1,14,6
India,Haryana,Faridabad,"Sector- 16A, Faridabad - HSPCB",07-05-2024 07:00:00,28.4088421,77.3099081,CO,1,122,96
India,Haryana,Fatehabad,"Huda Sector, Fatehabad - HSPCB",07-05-2024 07:00:00,29.503664,75.467934,PM10,115,322,151
India,Haryana,Fatehabad,"Huda Sector, Fatehabad - HSPCB",07-05-2024 07:00:00,29.503664,75.467934,NO2,29,32,30
India,Haryana,Fatehabad,"Huda Sector, Fatehabad - HSPCB",07-05-2024 07:00:00,29.503664,75.467934,CO,5,28,8
India,Haryana,Hisar,"Urban Estate-II, Hisar - HSPCB",07-05-2024 07:00:00,29.140560,75.744941,OZONE,26,178,50
India,Haryana,Jind,"Police Lines, Jind - HSPCB",07-05-2024 07:00:00,29.307814,76.337619,NH3,1,6,4
India,Haryana,Kaithal,"Rishi Nagar, Kaithal - HSPCB",07-05-2024 07:00:00,29.8006,76.4155,NH3,8,8,8
India,Haryana,Kurukshetra,"Sector-7, Kurukshetra - HSPCB",07-05-2024 07:00:00,29.966942,76.875879,PM2.5,73,282,165
India,Haryana,Mandikhera,"General Hospital, Mandikhera - HSPCB",07-05-2024 07:00:00,27.9002,76.9938,NO2,20,24,22
India,Haryana,Manesar,"Sector-2 IMT, Manesar - HSPCB",07-05-2024 07:00:00,28.360699,76.936090,NO2,26,84,48
India,Haryana,Manesar,"Sector-2 IMT, Manesar - HSPCB",07-05-2024 07:00:00,28.360699,76.936090,NH3,11,51,28
India,Haryana,Narnaul,"Shastri Nagar, Narnaul - HSPCB",07-05-2024 07:00:00,28.060249,76.113115,CO,20,60,53
India,Haryana,Narnaul,"Shastri Nagar, Narnaul - HSPCB",07-05-2024 07:00:00,28.060249,76.113115,OZONE,27,49,41
India,Haryana,Palwal,"Shyam Nagar, Palwal - HSPCB",07-05-2024 07:00:00,28.1485564,77.3320667,PM2.5,51,99,76
India,Haryana,Palwal,"Shyam Nagar, Palwal - HSPCB",07-05-2024 07:00:00,28.1485564,77.3320667,SO2,4,15,11
India,Haryana,Panchkula,"Sector-6, Panchkula - HSPCB ",07-05-2024 07:00:00,30.7057778,76.8531805555555,CO,6,16,15
India,Haryana,Panipat,"Sector-18, Panipat - HSPCB",07-05-2024 07:00:00,29.497973,76.993331,OZONE,30,30,30
India,Haryana,Rohtak,"MD University, Rohtak - HSPCB",07-05-2024 07:00:00,28.52123,76.37138,PM2.5,16,313,180
India,Haryana,Sirsa,"F-Block, Sirsa - HSPCB",07-05-2024 07:00:00,29.536400,75.015800,PM2.5,66,214,123
India,Haryana,Sonipat,"Murthal, Sonipat - HSPCB",07-05-2024 07:00:00,29.027200,77.062100,PM2.5,33,34,33
India,Haryana,Sonipat,"Murthal, Sonipat - HSPCB",07-05-2024 07:00:00,29.027200,77.062100,OZONE,17,35,19
India,Haryana,Yamuna Nagar,"Gobind Pura, Yamuna Nagar - HSPCB",07-05-2024 07:00:00,30.1480566,77.2893471,NH3,1,6,4
India,Haryana,Yamuna Nagar,"Gobind Pura, Yamuna Nagar - HSPCB",07-05-2024 07:00:00,30.1480566,77.2893471,CO,20,71,55
India,Jharkhand,Dhanbad,"Kalakusuma, Dhanbad - DMC",07-05-2024 07:00:00,23.811548,86.481238,PM10,69,187,128
India,Jharkhand,Dhanbad,"Kalakusuma, Dhanbad - DMC",07-05-2024 07:00:00,23.811548,86.481238,OZONE,13,35,32
India,Jharkhand,Dhanbad,"Sardar Patel Nagar, Dhanbad - JSPCB",07-05-2024 07:00:00,23.80569,86.44268,SO2,3,38,13
India,Karnataka,Bagalkot,"Vidayagiri, Bagalkot - KSPCB",07-05-2024 07:00:00,16.172806,75.659694,PM2.5,25,37,36
India,Karnataka,Bagalkot,"Vidayagiri, Bagalkot - KSPCB",07-05-2024 07:00:00,16.172806,75.659694,SO2,8,10,9
India,Karnataka,Bengaluru,"Bapuji Nagar, Bengaluru - KSPCB",07-05-2024 07:00:00,12.951913,77.539784,PM10,20,113,70
India,Karnataka,Bengaluru,"Hebbal, Bengaluru - KSPCB",07-05-2024 07:00:00,13.029152,77.585901,NH3,1,1,1
India,Karnataka,Bengaluru,"Hebbal, Bengaluru - KSPCB",07-05-2024 07:00:00,13.029152,77.585901,SO2,18,22,20
India,Karnataka,Bengaluru,"Hebbal, Bengaluru - KSPCB",07-05-2024 07:00:00,13.029152,77.585901,OZONE,8,123,10
India,Karnataka,Bengaluru,"Hombegowda Nagar, Bengaluru - KSPCB",07-05-2024 07:00:00,12.938539,77.590100,PM2.5,9,94,43
India,Karnataka,Bengaluru,"Jayanagar 5th Block, Bengaluru - KSPCB",07-05-2024 07:00:00,12.920984,77.584908,NO2,NA,NA,NA
India,Karnataka,Bengaluru,"Jayanagar 5th Block, Bengaluru - KSPCB",07-05-2024 07:00:00,12.920984,77.584908,NH3,NA,NA,NA
India,Karnataka,Bengaluru,"Kasturi Nagar, Bengaluru - KSPCB",07-05-2024 07:00:00,13.003872,77.664217,NO2,16,17,16
India,Karnataka,Bengaluru,"Kasturi Nagar, Bengaluru - KSPCB",07-05-2024 07:00:00,13.003872,77.664217,NH3,3,4,4
India,Karnataka,Bengaluru,"Peenya, Bengaluru - CPCB",07-05-2024 07:00:00,13.0270199,77.494094,SO2,7,17,11
India,Karnataka,Bengaluru,"Peenya, Bengaluru - CPCB",07-05-2024 07:00:00,13.0270199,77.494094,CO,28,53,34
India,Karnataka,Bengaluru,"RVCE-Mailasandra, Bengaluru - KSPCB",07-05-2024 07:00:00,12.921418,77.502466,OZONE,39,39,39
India,Karnataka,Bengaluru,"Sanegurava Halli, Bengaluru - KSPCB",07-05-2024 07:00:00,12.990328,77.5431385,NO2,23,50,27
India,Karnataka,Bengaluru,"Shivapura_Peenya, Bengaluru - KSPCB",07-05-2024 07:00:00,13.0246342,77.5080115,CO,20,74,27
India,Karnataka,Bidar,"Naubad, Bidar - KSPCB",07-05-2024 07:00:00,17.930306,77.482194,NO2,7,12,8
India,Karnataka,Chamarajanagar,"Urban, Chamarajanagar - KSPCB",07-05-2024 07:00:00,11.55358,76.55521,SO2,4,8,5
India,Karnataka,Chikkaballapur,"Chikkaballapur Rural, Chikkaballapur - KSPCB",07-05-2024 07:00:00,13.428828,77.731418,NO2,6,10,8
India,Karnataka,Chikkaballapur,"Chikkaballapur Rural, Chikkaballapur - KSPCB",07-05-2024 07:00:00,13.428828,77.731418,NH3,1,1,1
India,Karnataka,Chikkamagaluru,"Kalyana Nagara, Chikkamagaluru - KSPCB",07-05-2024 07:00:00,13.328028,75.797056,SO2,3,105,10
India,Karnataka,Chikkamagaluru,"Kalyana Nagara, Chikkamagaluru - KSPCB",07-05-2024 07:00:00,13.328028,75.797056,CO,11,136,21
India,Karnataka,Dharwad,"Kalabhavan, Dharwad - KSPCB",07-05-2024 07:00:00,15.459706,75.008381,PM2.5,25,95,61
India,Karnataka,Gadag,"Panchal Nagar, Gadag - KSPCB",07-05-2024 07:00:00,15.411456,75.638133,PM10,28,47,40
India,Karnataka,Hassan,"B.Katihalli, Hassan - KSPCB",07-05-2024 07:00:00,13.008556,76.125258,CO,NA,NA,NA
India,Karnataka,Hubballi,"Deshpande Nagar, Hubballi - KSPCB",07-05-2024 07:00:00,15.351773,75.140726,OZONE,NA,NA,NA
India,Karnataka,Hubballi,"Lingaraj Nagar, Hubballi - KSPCB",07-05-2024 07:00:00,15.3714823,75.1160168,NO2,10,10,10
India,Karnataka,Kalaburagi,"Lal Bahadur Shastri Nagar, Kalaburagi - KSPCB",07-05-2024 07:00:00,17.321993,76.822628,CO,44,49,45
India,Karnataka,Kalaburagi,"Mahatma Basaveswar Colony, Kalaburgi - KSPCB",07-05-2024 07:00:00,17.336318,76.847397,OZONE,10,29,15
India,Karnataka,Kolar,"Tamaka Ind. Area, Kolar - KSPCB",07-05-2024 07:00:00,13.1276288,78.1570122,CO,5,6,6
India,Karnataka,Koppal,"Diwator Nagar, Koppal - KSPCB",07-05-2024 07:00:00,15.347630,76.181767,CO,64,90,65
India,Karnataka,Mangalore,"Kadri, Mangalore - KSPCB",07-05-2024 07:00:00,12.889250,74.853000,PM2.5,19,49,34
India,Karnataka,Mangalore,"Kadri, Mangalore - KSPCB",07-05-2024 07:00:00,12.889250,74.853000,NO2,5,6,6
India,Karnataka,Mangalore,"Kadri, Mangalore - KSPCB",07-05-2024 07:00:00,12.889250,74.853000,OZONE,26,33,32
India,Karnataka,Mysuru,"Hebbal 1st Stage, Mysuru - KSPCB",07-05-2024 07:00:00,12.21041,76.37376,PM2.5,11,57,34
India,Karnataka,Mysuru,"Hebbal 1st Stage, Mysuru - KSPCB",07-05-2024 07:00:00,12.21041,76.37376,OZONE,12,116,21
India,Karnataka,Raichur,"Haji Colony, Raichur - KSPCB",07-05-2024 07:00:00,16.208139,77.348417,NO2,20,64,36
India,Karnataka,Ramanagara,"Vijay Nagar, Ramanagara - KSPCB",07-05-2024 07:00:00,12.733409,77.298051,PM10,NA,NA,NA
India,Karnataka,Ramanagara,"Vijay Nagar, Ramanagara - KSPCB",07-05-2024 07:00:00,12.733409,77.298051,NH3,NA,NA,NA
India,Karnataka,Udupi,"Brahmagiri, Udupi - KSPCB",07-05-2024 07:00:00,13.34194444,74.74694444,CO,47,52,48
India,Karnataka,Udupi,"Brahmagiri, Udupi - KSPCB",07-05-2024 07:00:00,13.34194444,74.74694444,OZONE,23,24,23
India,Karnataka,Vijayapura,"Ibrahimpur, Vijayapura - KSPCB",07-05-2024 07:00:00,16.802639,75.722694,PM2.5,26,31,30
India,Karnataka,Vijayapura,"Ibrahimpur, Vijayapura - KSPCB",07-05-2024 07:00:00,16.802639,75.722694,OZONE,13,16,15
India,Karnataka,Yadgir,"Collector Office, Yadgir - KSPCB",07-05-2024 07:00:00,16.7602,77.1428,SO2,3,44,17
India,Kerala,Eloor,"Udyogamandal, Eloor - Kerala PCB",07-05-2024 07:00:00,10.073232,76.302765,NH3,1,1,1
India,Kerala,Eloor,"Udyogamandal, Eloor - Kerala PCB",07-05-2024 07:00:00,10.073232,76.302765,OZONE,11,15,12
India,Kerala,Kannur,"Thavakkara, Kannur - Kerala PCB",07-05-2024 07:00:00,11.875000,75.373200,PM2.5,62,83,73
India,Kerala,Thiruvananthapuram,"Kariavattom, Thiruvananthapuram - Kerala PCB",07-05-2024 07:00:00,8.563700,76.886500,PM2.5,79,91,83
India,Kerala,Thiruvananthapuram,"Kariavattom, Thiruvananthapuram - Kerala PCB",07-05-2024 07:00:00,8.563700,76.886500,NO2,8,10,9
India,Kerala,Thiruvananthapuram,"Plammoodu, Thiruvananthapuram - Kerala PCB",07-05-2024 07:00:00,8.5149093,76.9435879,OZONE,5,68,23
India,Kerala,Thrissur,"Corporation Ground, Thrissur - Kerala PCB",07-05-2024 07:00:00,10.532400,76.215900,PM10,61,72,65
India,Kerala,Thrissur,"Corporation Ground, Thrissur - Kerala PCB",07-05-2024 07:00:00,10.532400,76.215900,NO2,7,8,7
India,Kerala,Thrissur,"Corporation Ground, Thrissur - Kerala PCB",07-05-2024 07:00:00,10.532400,76.215900,CO,14,70,34
India,Madhya Pradesh,Bhopal,"Paryavaran Parisar, Bhopal - MPPCB",07-05-2024 07:00:00,23.210494,77.425409,PM10,67,133,89
India,Madhya Pradesh,Bhopal,"T T Nagar, Bhopal - MPPCB",07-05-2024 07:00:00,23.233584,77.400574,PM10,77,112,95
India,Madhya Pradesh,Bhopal,"T T Nagar, Bhopal - MPPCB",07-05-2024 07:00:00,23.233584,77.400574,SO2,8,23,17
India,Madhya Pradesh,Bhopal,"T T Nagar, Bhopal - MPPCB",07-05-2024 07:00:00,23.233584,77.400574,CO,12,46,18
India,Madhya Pradesh,Dewas,"Bhopal Chauraha, Dewas - MPPCB",07-05-2024 07:00:00,22.9682591,76.064118,NO2,12,14,13
India,Madhya Pradesh,Dewas,"Bhopal Chauraha, Dewas - MPPCB",07-05-2024 07:00:00,22.9682591,76.064118,CO,11,46,21
India,Madhya Pradesh,Gwalior,"City Center, Gwalior - MPPCB",07-05-2024 07:00:00,26.203442,78.193251,CO,12,124,57
India,Madhya Pradesh,Gwalior,"Deen Dayal Nagar, Gwalior - MPPCB",07-05-2024 07:00:00,26.259242,78.216432,PM2.5,60,317,176
India,Madhya Pradesh,Gwalior,"Deen Dayal Nagar, Gwalior - MPPCB",07-05-2024 07:00:00,26.259242,78.216432,NO2,13,81,48
India,Madhya Pradesh,Gwalior,"Deen Dayal Nagar, Gwalior - MPPCB",07-05-2024 07:00:00,26.259242,78.216432,SO2,12,20,15
India,Madhya Pradesh,Gwalior,"Maharaj Bada, Gwalior - MPPCB",07-05-2024 07:00:00,26.200388,78.147714,PM2.5,42,123,89
India,Madhya Pradesh,Indore,"Chhoti Gwaltoli, Indore - MPPCB",07-05-2024 07:00:00,22.4310,75.5213,CO,17,78,45
India,Madhya Pradesh,Indore,"Maguda Nagar, Indore - IMC",07-05-2024 07:00:00,22.7524,75.8872,PM2.5,30,75,54
India,Madhya Pradesh,Indore,"Maguda Nagar, Indore - IMC",07-05-2024 07:00:00,22.7524,75.8872,PM10,28,58,46
India,Madhya Pradesh,Indore,"Maguda Nagar, Indore - IMC",07-05-2024 07:00:00,22.7524,75.8872,NH3,1,1,1
India,Madhya Pradesh,Indore,"Maguda Nagar, Indore - IMC",07-05-2024 07:00:00,22.7524,75.8872,SO2,32,36,34
India,Madhya Pradesh,Indore,"Residency Area, Indore - IMC",07-05-2024 07:00:00,22.7084,75.8815,PM10,27,105,56
India,Madhya Pradesh,Jabalpur,"Gupteshwar, Jabalpur - JMC",07-05-2024 07:00:00,23.142888,79.916147,NO2,1,20,7
India,Madhya Pradesh,Jabalpur,"Gupteshwar, Jabalpur - JMC",07-05-2024 07:00:00,23.142888,79.916147,CO,12,34,19
India,Madhya Pradesh,Jabalpur,"Suhagi, Jabalpur - JMC",07-05-2024 07:00:00,23.218135,79.957770,SO2,13,16,15
India,Madhya Pradesh,Jabalpur,"Suhagi, Jabalpur - JMC",07-05-2024 07:00:00,23.218135,79.957770,OZONE,9,138,40
India,Madhya Pradesh,Katni,"Gole Bazar, Katni - MPPCB",07-05-2024 07:00:00,23.50016,80.23284,NH3,3,8,6
India,Madhya Pradesh,Katni,"Gole Bazar, Katni - MPPCB",07-05-2024 07:00:00,23.50016,80.23284,SO2,13,106,37
India,Madhya Pradesh,Mandideep,"Sector-D Industrial Area, Mandideep - MPPCB",07-05-2024 07:00:00,23.108440,77.511428,NO2,4,33,12
India,Madhya Pradesh,Mandideep,"Sector-D Industrial Area, Mandideep - MPPCB",07-05-2024 07:00:00,23.108440,77.511428,NH3,6,9,7
India,Madhya Pradesh,Mandideep,"Sector-D Industrial Area, Mandideep - MPPCB",07-05-2024 07:00:00,23.108440,77.511428,CO,12,100,37
India,Madhya Pradesh,Pithampur,"Sector-2 Industrial Area, Pithampur - MPPCB",07-05-2024 07:00:00,22.624758,75.675238,PM2.5,21,248,65
India,Madhya Pradesh,Pithampur,"Sector-2 Industrial Area, Pithampur - MPPCB",07-05-2024 07:00:00,22.624758,75.675238,SO2,11,14,12
India,Madhya Pradesh,Pithampur,"Sector-2 Industrial Area, Pithampur - MPPCB",07-05-2024 07:00:00,22.624758,75.675238,CO,20,53,46
India,Madhya Pradesh,Sagar,"Civil Lines, Sagar - MPPCB",07-05-2024 07:00:00,23.838586,78.759431,PM2.5,31,92,53
India,Madhya Pradesh,Sagar,"Civil Lines, Sagar - MPPCB",07-05-2024 07:00:00,23.838586,78.759431,SO2,5,18,10
India,Madhya Pradesh,Sagar,"Deen Dayal Nagar, Sagar - MPPCB",07-05-2024 07:00:00,23.8640158,78.80289321,PM2.5,16,47,32
India,Maharashtra,Ahmednagar,"Tarakpur, Ahmednagar - MPCB",07-05-2024 07:00:00,19.10122,74.73339,CO,23,60,30
India,Maharashtra,Akola,"Ramdaspeth, Akola - MPCB",07-05-2024 07:00:00,20.719516,77.000253,PM10,66,106,84
India,Maharashtra,Akola,"Ramdaspeth, Akola - MPCB",07-05-2024 07:00:00,20.719516,77.000253,SO2,6,20,14
India,Maharashtra,Amravati,"Shri Shivaji Science College, Amaravati - MPCB",07-05-2024 07:00:00,20.939198,77.765701,PM10,54,109,93
India,Maharashtra,Amravati,"Shri Shivaji Science College, Amaravati - MPCB",07-05-2024 07:00:00,20.939198,77.765701,NO2,7,83,26
India,Maharashtra,Aurangabad,"MIDC Chilkalthana, Aurangabad - MPCB",07-05-2024 07:00:00,19.875620,75.387310,PM10,66,124,86
India,Maharashtra,Badlapur,"Katrap, Badlapur - MPCB",07-05-2024 07:00:00,19.16485,73.23409,PM2.5,27,117,49
India,Maharashtra,Belapur,"CBD Belapur, Belapur - MPCB",07-05-2024 07:00:00,19.0243902,73.0406721,PM2.5,2,98,57
India,Maharashtra,Belapur,"CBD Belapur, Belapur - MPCB",07-05-2024 07:00:00,19.0243902,73.0406721,SO2,1,5,3
India,Maharashtra,Belapur,"CBD Belapur, Belapur - MPCB",07-05-2024 07:00:00,19.0243902,73.0406721,OZONE,117,300,129
India,Maharashtra,Bhiwandi,"Gokul Nagar, Bhiwandi - MPCB",07-05-2024 07:00:00,19.309073,73.057223,NO2,9,30,13
India,Maharashtra,Chandrapur,"Chauhan Colony, Chandrapur - MPCB",07-05-2024 07:00:00,19.962900,79.298714,SO2,12,125,61
India,Maharashtra,Dhule,"Deopur, Dhule - MPCB",07-05-2024 07:00:00,20.918946,74.776388,OZONE,8,93,25
India,Maharashtra,Jalgaon,"Prabhat Colony, Jalgaon - MPCB",07-05-2024 07:00:00,21.001264,75.565602,PM2.5,56,99,76
India,Maharashtra,Kalyan,"Khadakpada, Kalyan - MPCB",07-05-2024 07:00:00,19.25292,73.142019,PM2.5,13,42,25
India,Maharashtra,Kalyan,"Khadakpada, Kalyan - MPCB",07-05-2024 07:00:00,19.25292,73.142019,OZONE,9,12,9
India,Maharashtra,Kolhapur,"Shivaji University, Kolhapur - MPCB",07-05-2024 07:00:00,16.6870449,74.2505872,PM10,57,134,98
India,Maharashtra,Kolhapur,"Shivaji University, Kolhapur - MPCB",07-05-2024 07:00:00,16.6870449,74.2505872,NO2,15,34,24
India,Maharashtra,Kolhapur,"Sinchan Bhavan, Kolhapur - MPCB",07-05-2024 07:00:00,16.7143745,74.2426398,CO,10,20,11
India,Maharashtra,Mahad,"Kamble Tarf Birwadi, Mahad - MPCB",07-05-2024 07:00:00,18.1023399,73.4783687,PM10,32,144,66
India,Maharashtra,Mahad,"Kamble Tarf Birwadi, Mahad - MPCB",07-05-2024 07:00:00,18.1023399,73.4783687,NO2,9,54,22
India,Maharashtra,Mahad,"Kamble Tarf Birwadi, Mahad - MPCB",07-05-2024 07:00:00,18.1023399,73.4783687,SO2,1,86,36
India,Maharashtra,Mira-Bhayandar,"Bhayandar West, Mira-Bhayandar - MPCB",07-05-2024 07:00:00,19.296481,72.840923,PM2.5,22,45,33
India,Maharashtra,Mira-Bhayandar,"Bhayandar West, Mira-Bhayandar - MPCB",07-05-2024 07:00:00,19.296481,72.840923,CO,14,26,19
India,Maharashtra,Mumbai,"Borivali East, Mumbai - MPCB",07-05-2024 07:00:00,19.2243333,72.8658113,PM2.5,7,48,16
India,Maharashtra,Mumbai,"Borivali East, Mumbai - MPCB",07-05-2024 07:00:00,19.2243333,72.8658113,NO2,3,11,7
India,Maharashtra,Mumbai,"Borivali East, Mumbai - MPCB",07-05-2024 07:00:00,19.2243333,72.8658113,NH3,1,2,1
India,Maharashtra,Mumbai,"Chembur, Mumbai - MPCB",07-05-2024 07:00:00,19.0364585,72.8954371,NO2,11,41,22
India,Maharashtra,Mumbai,"Chembur, Mumbai - MPCB",07-05-2024 07:00:00,19.0364585,72.8954371,CO,8,18,11
India,Maharashtra,Mumbai,"Chhatrapati Shivaji Intl. Airport (T2), Mumbai - MPCB",07-05-2024 07:00:00,19.10078,72.87462,NH3,NA,NA,NA
India,Maharashtra,Mumbai,"Deonar, Mumbai - IITM",07-05-2024 07:00:00,19.04946,72.9230,NO2,10,17,13
India,Maharashtra,Mumbai,"Ghatkopar, Mumbai - BMC",07-05-2024 07:00:00,19.083694,72.920967,SO2,1,2,1
India,Maharashtra,Mumbai,"Kandivali East, Mumbai - MPCB",07-05-2024 07:00:00,19.205800,72.868200,PM2.5,13,54,29
India,Maharashtra,Mumbai,"Kandivali West, Mumbai - BMC",07-05-2024 07:00:00,19.215859,72.831718,PM2.5,8,23,17
India,Maharashtra,Mumbai,"Kandivali West, Mumbai - BMC",07-05-2024 07:00:00,19.215859,72.831718,NH3,1,3,2
India,Maharashtra,Mumbai,"Kandivali West, Mumbai - BMC",07-05-2024 07:00:00,19.215859,72.831718,SO2,NA,NA,NA
India,Maharashtra,Mumbai,"Kandivali West, Mumbai - BMC",07-05-2024 07:00:00,19.215859,72.831718,OZONE,11,30,19
India,Maharashtra,Mumbai,"Kherwadi_Bandra East, Mumbai - MPCB",07-05-2024 07:00:00,19.0632143,72.8456324,NO2,5,13,9
India,Maharashtra,Mumbai,"Kherwadi_Bandra East, Mumbai - MPCB",07-05-2024 07:00:00,19.0632143,72.8456324,NH3,3,4,3
India,Maharashtra,Mumbai,"Kherwadi_Bandra East, Mumbai - MPCB",07-05-2024 07:00:00,19.0632143,72.8456324,CO,6,14,9
India,Maharashtra,Mumbai,"Kurla, Mumbai - MPCB",07-05-2024 07:00:00,19.0863,72.8888,PM2.5,19,243,75
India,Maharashtra,Mumbai,"Kurla, Mumbai - MPCB",07-05-2024 07:00:00,19.0863,72.8888,CO,2,8,2
India,Maharashtra,Mumbai,"Mazgaon, Mumbai - IITM",07-05-2024 07:00:00,18.96702,72.84214,PM2.5,NA,NA,NA
India,Maharashtra,Mumbai,"Mazgaon, Mumbai - IITM",07-05-2024 07:00:00,18.96702,72.84214,PM10,NA,NA,NA
India,Maharashtra,Mumbai,"Mindspace-Malad West, Mumbai - MPCB",07-05-2024 07:00:00,19.1878657,72.8304069,NH3,7,9,9
India,Maharashtra,Mumbai,"Navy Nagar-Colaba, Mumbai - IITM",07-05-2024 07:00:00,18.897756,72.813320,PM10,36,75,53
India,Maharashtra,Mumbai,"Navy Nagar-Colaba, Mumbai - IITM",07-05-2024 07:00:00,18.897756,72.813320,CO,18,36,26
India,Maharashtra,Mumbai,"Navy Nagar-Colaba, Mumbai - IITM",07-05-2024 07:00:00,18.897756,72.813320,OZONE,35,57,44
India,Maharashtra,Mumbai,"Powai, Mumbai - MPCB",07-05-2024 07:00:00,19.137500,72.915056,PM2.5,14,27,21
India,Maharashtra,Mumbai,"Powai, Mumbai - MPCB",07-05-2024 07:00:00,19.137500,72.915056,NH3,1,2,1
India,Maharashtra,Mumbai,"Powai, Mumbai - MPCB",07-05-2024 07:00:00,19.137500,72.915056,CO,30,37,33
India,Maharashtra,Mumbai,"Powai, Mumbai - MPCB",07-05-2024 07:00:00,19.137500,72.915056,OZONE,22,39,26
India,Maharashtra,Mumbai,"Sewri, Mumbai - BMC",07-05-2024 07:00:00,19.000084,72.856730,NH3,NA,NA,NA
India,Maharashtra,Mumbai,"Siddharth Nagar-Worli, Mumbai - IITM",07-05-2024 07:00:00,19.000083,72.813993,NO2,19,180,41
India,Maharashtra,Mumbai,"Vasai West, Mumbai - MPCB",07-05-2024 07:00:00,19.383200,72.820400,PM2.5,NA,NA,NA
India,Maharashtra,Mumbai,"Vasai West, Mumbai - MPCB",07-05-2024 07:00:00,19.383200,72.820400,PM10,NA,NA,NA
India,Maharashtra,Mumbai,"Vasai West, Mumbai - MPCB",07-05-2024 07:00:00,19.383200,72.820400,SO2,NA,NA,NA
India,Maharashtra,Mumbai,"Vasai West, Mumbai - MPCB",07-05-2024 07:00:00,19.383200,72.820400,CO,NA,NA,NA
India,Maharashtra,Mumbai,"Vile Parle West, Mumbai - MPCB",07-05-2024 07:00:00,19.10861,72.83622,PM2.5,14,38,24
India,Maharashtra,Mumbai,"Worli, Mumbai - MPCB",07-05-2024 07:00:00,18.9936162,72.8128113,NO2,16,16,16
India,Maharashtra,Mumbai,"Worli, Mumbai - MPCB",07-05-2024 07:00:00,18.9936162,72.8128113,SO2,12,12,12
India,Maharashtra,Mumbai,"Worli, Mumbai - MPCB",07-05-2024 07:00:00,18.9936162,72.8128113,CO,30,31,31
India,Maharashtra,Nagpur,"Ambazari, Nagpur - MPCB",07-05-2024 07:00:00,21.121801,79.04952,PM2.5,25,55,40
India,Maharashtra,Nagpur,"Ambazari, Nagpur - MPCB",07-05-2024 07:00:00,21.121801,79.04952,CO,3,36,20
India,Maharashtra,Nagpur,"Mahal, Nagpur - MPCB",07-05-2024 07:00:00,21.14472,79.107595,PM2.5,25,98,52
India,Maharashtra,Nagpur,"Opp GPO Civil Lines, Nagpur - MPCB",07-05-2024 07:00:00,21.152875,79.0517531,NO2,18,123,44
India,Maharashtra,Nanded,"Sneh Nagar, Nanded - MPCB",07-05-2024 07:00:00,19.173852,77.296291,NO2,10,62,25
India,Maharashtra,Nanded,"Sneh Nagar, Nanded - MPCB",07-05-2024 07:00:00,19.173852,77.296291,SO2,2,6,4
India,Maharashtra,Nashik,"Hirawadi, Nashik - MPCB",07-05-2024 07:00:00,20.021503,73.813844,PM2.5,22,92,44
India,Maharashtra,Nashik,"Hirawadi, Nashik - MPCB",07-05-2024 07:00:00,20.021503,73.813844,NO2,7,26,14
India,Maharashtra,Nashik,"Hirawadi, Nashik - MPCB",07-05-2024 07:00:00,20.021503,73.813844,NH3,2,4,3
India,Maharashtra,Nashik,"Hirawadi, Nashik - MPCB",07-05-2024 07:00:00,20.021503,73.813844,OZONE,13,89,16
India,Maharashtra,Nashik,"MIDC Ambad, Nashik - MPCB",07-05-2024 07:00:00,19.950220,73.731480,NO2,7,29,14
India,Maharashtra,Nashik,"MIDC Ambad, Nashik - MPCB",07-05-2024 07:00:00,19.950220,73.731480,NH3,1,6,3
India,Maharashtra,Nashik,"MIDC Ambad, Nashik - MPCB",07-05-2024 07:00:00,19.950220,73.731480,OZONE,15,100,23
India,Maharashtra,Nashik,"Pandav Nagari, Nashik - MPCB",07-05-2024 07:00:00,19.9591346,73.7788008,PM2.5,24,59,40
India,Maharashtra,Nashik,"Pandav Nagari, Nashik - MPCB",07-05-2024 07:00:00,19.9591346,73.7788008,SO2,6,17,10
India,Maharashtra,Navi Mumbai,"Kopripada-Vashi, Navi Mumbai - MPCB",07-05-2024 07:00:00,19.090337,73.014232,PM2.5,27,236,64
India,Maharashtra,Navi Mumbai,"Kopripada-Vashi, Navi Mumbai - MPCB",07-05-2024 07:00:00,19.090337,73.014232,PM10,42,114,71
India,Maharashtra,Navi Mumbai,"Kopripada-Vashi, Navi Mumbai - MPCB",07-05-2024 07:00:00,19.090337,73.014232,NH3,4,10,5
India,Maharashtra,Navi Mumbai,"Kopripada-Vashi, Navi Mumbai - MPCB",07-05-2024 07:00:00,19.090337,73.014232,SO2,12,15,14
India,Maharashtra,Navi Mumbai,"Kopripada-Vashi, Navi Mumbai - MPCB",07-05-2024 07:00:00,19.090337,73.014232,OZONE,3,53,8
India,Maharashtra,Navi Mumbai,"Mahape, Navi Mumbai - MPCB",07-05-2024 07:00:00,19.1135051,73.008978,SO2,NA,NA,NA
India,Maharashtra,Navi Mumbai,"Sanpada, Navi Mumbai - MPCB",07-05-2024 07:00:00,19.0575752,73.0151367,PM10,48,95,70
India,Maharashtra,Navi Mumbai,"Sanpada, Navi Mumbai - MPCB",07-05-2024 07:00:00,19.0575752,73.0151367,SO2,1,4,2
India,Maharashtra,Navi Mumbai,"Sector-19A Nerul, Navi Mumbai - IITM",07-05-2024 07:00:00,19.044,73.0325,NO2,21,52,32
India,Maharashtra,Navi Mumbai,"Tondare-Taloja, Navi Mumbai - MPCB",07-05-2024 07:00:00,19.0630,73.1209,PM10,67,121,89
India,Maharashtra,Navi Mumbai,"Tondare-Taloja, Navi Mumbai - MPCB",07-05-2024 07:00:00,19.0630,73.1209,NH3,NA,NA,NA
India,Maharashtra,Pimpri-Chinchwad,"Gavalinagar, Pimpri Chinchwad - MPCB",07-05-2024 07:00:00,18.63673,73.82487,PM10,46,86,67
India,Maharashtra,Pimpri-Chinchwad,"Park Street Wakad, Pimpri Chinchwad - MPCB",07-05-2024 07:00:00,18.59051,73.77946,NH3,3,6,4
India,Maharashtra,Pimpri-Chinchwad,"Thergaon, Pimpri Chinchwad - MPCB",07-05-2024 07:00:00,18.616318,73.765797,CO,11,30,16
India,Maharashtra,Pune,"Bhosari, Pune - IITM",07-05-2024 07:00:00,18.640051,73.848956,OZONE,15,66,23
India,Maharashtra,Pune,"Karve Road, Pune - MPCB",07-05-2024 07:00:00,18.5011743,73.8165527,OZONE,35,182,51
India,Maharashtra,Pune,"Katraj Dairy, Pune - MPCB",07-05-2024 07:00:00,18.454450,73.854155,NO2,12,34,21
India,Maharashtra,Pune,"Katraj Dairy, Pune - MPCB",07-05-2024 07:00:00,18.454450,73.854155,CO,22,64,39
India,Maharashtra,Pune,"Mhada Colony, Pune - IITM",07-05-2024 07:00:00,18.573040,73.927715,PM10,43,101,68
India,Maharashtra,Pune,"Mhada Colony, Pune - IITM",07-05-2024 07:00:00,18.573040,73.927715,OZONE,4,59,10
India,Maharashtra,Pune,"Revenue Colony-Shivajinagar, Pune - IITM",07-05-2024 07:00:00,18.530085,73.849598,CO,102,117,108
India,Maharashtra,Sangli,"Vijay Nagar, Sangli - MPCB",07-05-2024 07:00:00, 16.5038,74.3623,NH3,2,3,2
India,Maharashtra,Solapur,"Dnyaneshwar Nagar, Solapur - MPCB",07-05-2024 07:00:00,17.6336264,75.9132495,CO,8,46,12
India,Maharashtra,Solapur,"Ratandeep Housing Society, Solapur - MPCB",07-05-2024 07:00:00,17.65439,75.90649,CO,12,88,18
India,Maharashtra,Solapur,"Ratandeep Housing Society, Solapur - MPCB",07-05-2024 07:00:00,17.65439,75.90649,OZONE,21,117,62
India,Maharashtra,Solapur,"Solapur, Solapur - MPCB",07-05-2024 07:00:00,17.6599188,75.9063906,PM10,104,142,133
India,Maharashtra,Solapur,"Solapur, Solapur - MPCB",07-05-2024 07:00:00,17.6599188,75.9063906,NO2,54,55,54
India,Maharashtra,Thane,"Kasarvadavali, Thane - MPCB",07-05-2024 07:00:00,19.26777,72.97182,PM2.5,15,57,35
India,Maharashtra,Thane,"Kasarvadavali, Thane - MPCB",07-05-2024 07:00:00,19.26777,72.97182,PM10,27,74,49
India,Maharashtra,Thane,"Kasarvadavali, Thane - MPCB",07-05-2024 07:00:00,19.26777,72.97182,CO,4,17,7
India,Maharashtra,Thane,"Kasarvadavali, Thane - MPCB",07-05-2024 07:00:00,19.26777,72.97182,OZONE,5,37,13
India,Maharashtra,Thane,"Pimpleshwar Mandir, Thane - MPCB",07-05-2024 07:00:00,19.192056,72.9585188,NH3,1,3,2
India,Maharashtra,Thane,"Upvan Fort, Thane - MPCB",07-05-2024 07:00:00,19.222279,72.957979,NO2,5,20,10
India,Maharashtra,Thane,"Upvan Fort, Thane - MPCB",07-05-2024 07:00:00,19.222279,72.957979,SO2,7,12,10
India,Maharashtra,Ulhasnagar,"Sidhi Vinayak Nagar, Ulhasnagar - MPCB",07-05-2024 07:00:00,19.235581,73.159121,SO2,8,13,10
India,Maharashtra,Virar,"Bolinj, Virar - MPCB",07-05-2024 07:00:00,19.4458210,72.7988231,PM10,45,79,57
India,Mizoram,Aizawl,"Sikulpuikawn, Aizawl - Mizoram PCB",07-05-2024 07:00:00,23.7176342,92.7192841,NH3,1,3,1
India,Mizoram,Aizawl,"Sikulpuikawn, Aizawl - Mizoram PCB",07-05-2024 07:00:00,23.7176342,92.7192841,SO2,2,2,2
India,Odisha,Angul,"Hakimapada, Angul - OSPCB",07-05-2024 07:00:00,20.832874,85.104082,NH3,NA,NA,NA
India,Odisha,Angul,"Hakimapada, Angul - OSPCB",07-05-2024 07:00:00,20.832874,85.104082,CO,18,106,40
India,Odisha,Balasore,"Kalidaspur, Balasore - OSPCB",07-05-2024 07:00:00,21.51161,86.89088,SO2,13,23,15
India,Odisha,Barbil,"Forest Office, Barbil - OSPCB",07-05-2024 07:00:00,22.1166054,85.3945546,NO2,1,2,1
India,Odisha,Baripada,"Meher Colony, Baripada - OSPCB",07-05-2024 07:00:00,21.941841,86.728318,PM10,NA,NA,NA
India,Odisha,Bhubaneswar,"Lingraj Mandir, Bhubaneswar - OSPCB",07-05-2024 07:00:00,20.240790,85.836784,PM10,25,418,81
India,Odisha,Bhubaneswar,"Patia, Bhubaneswar - OSPCB",07-05-2024 07:00:00,20.34652,85.81630,PM10,28,107,54
India,Odisha,Bileipada,"Tata Township, Bileipada - OSPCB",07-05-2024 07:00:00,22.06156703,85.47409613,SO2,NA,NA,NA
India,Odisha,Bileipada,"Tata Township, Bileipada - OSPCB",07-05-2024 07:00:00,22.06156703,85.47409613,OZONE,22,197,27
India,Odisha,Brajrajnagar,"GM Office, Brajrajnagar - OSPCB",07-05-2024 07:00:00,21.8004996,83.8396977,PM10,31,194,89
India,Odisha,Brajrajnagar,"GM Office, Brajrajnagar - OSPCB",07-05-2024 07:00:00,21.8004996,83.8396977,NH3,6,14,12
India,Odisha,Cuttack,"CDA Area, Cuttack - OSPCB",07-05-2024 07:00:00,20.48891     ,85.84768     ,PM2.5,10,80,35
India,Odisha,Nayagarh,"Dabuna, Nayagarh - OSPCB",07-05-2024 07:00:00,21.847279,85.416905,PM2.5,58,161,102
India,Odisha,Nayagarh,"Dabuna, Nayagarh - OSPCB",07-05-2024 07:00:00,21.847279,85.416905,NH3,4,4,4
India,Odisha,Nayagarh,"Dabuna, Nayagarh - OSPCB",07-05-2024 07:00:00,21.847279,85.416905,SO2,1,14,7
India,Odisha,Rairangpur,"Divisional Forest Office, Rairangpur - OSPCB",07-05-2024 07:00:00,22.265816,86.174829,PM10,41,129,89
India,Odisha,Rourkela,"Fertilizer Township, Rourkela - OSPCB",07-05-2024 07:00:00,22.18972222,84.86277778,PM10,67,220,124
India,Odisha,Rourkela,"Raghunathpali, Rourkela - OSPCB",07-05-2024 07:00:00,22.220833,84.809444,CO,24,102,36
India,Odisha,Rourkela,"Sector-2, Rourkela - OSPCB",07-05-2024 07:00:00,22.24500000,84.88111111,CO,14,101,15
India,Odisha,Suakati,"OMC Colony, Suakati - OSPCB",07-05-2024 07:00:00,21.606865,85.510538,NH3,5,6,5
India,Odisha,Talcher,"Talcher Coalfields,Talcher - OSPCB",07-05-2024 07:00:00,20.9360711,85.1707021,NO2,14,20,18
India,Odisha,Talcher,"Talcher Coalfields,Talcher - OSPCB",07-05-2024 07:00:00,20.9360711,85.1707021,CO,36,59,41
India,Odisha,Tensa,"Barsua Iron Ore Mines, Tensa - OSPCB",07-05-2024 07:00:00,21.869985,85.167016,PM2.5,38,78,53
India,Punjab,Amritsar,"Golden Temple, Amritsar - PPCB",07-05-2024 07:00:00,31.620000,74.876512,CO,4,68,23
India,Punjab,Bathinda,"Hardev Nagar, Bathinda - PPCB",07-05-2024 07:00:00,30.233011,74.907758,SO2,2,48,16
India,Punjab,Jalandhar,"Civil Line, Jalandhar - PPCB",07-05-2024 07:00:00,31.321907,75.578914,NH3,2,5,3
India,Punjab,Jalandhar,"Civil Line, Jalandhar - PPCB",07-05-2024 07:00:00,31.321907,75.578914,SO2,8,14,11
India,Punjab,Jalandhar,"Civil Line, Jalandhar - PPCB",07-05-2024 07:00:00,31.321907,75.578914,OZONE,5,86,11
India,Punjab,Khanna,"Kalal Majra, Khanna - PPCB",07-05-2024 07:00:00,30.736056 ,76.209694,NO2,35,38,36
India,Punjab,Khanna,"Kalal Majra, Khanna - PPCB",07-05-2024 07:00:00,30.736056 ,76.209694,CO,10,44,21
India,Punjab,Ludhiana,"Punjab Agricultural University, Ludhiana - PPCB",07-05-2024 07:00:00,30.9028,75.8086,PM10,79,173,119
India,Punjab,Ludhiana,"Punjab Agricultural University, Ludhiana - PPCB",07-05-2024 07:00:00,30.9028,75.8086,OZONE,15,61,19
India,Punjab,Mandi Gobindgarh,"RIMT University, Mandi Gobindgarh - PPCB",07-05-2024 07:00:00,30.649961,76.331442,NH3,6,6,6
India,Punjab,Patiala,"Model Town, Patiala - PPCB",07-05-2024 07:00:00,30.349388,76.366642,PM2.5,69,186,112
India,Punjab,Patiala,"Model Town, Patiala - PPCB",07-05-2024 07:00:00,30.349388,76.366642,NO2,22,26,24
India,Punjab,Patiala,"Model Town, Patiala - PPCB",07-05-2024 07:00:00,30.349388,76.366642,SO2,3,65,26
India,Punjab,Rupnagar,"Ratanpura, Rupnagar - Ambuja Cements",07-05-2024 07:00:00,31.0325454,76.5623046,PM2.5,52,459,186
India,Punjab,Rupnagar,"Ratanpura, Rupnagar - Ambuja Cements",07-05-2024 07:00:00,31.0325454,76.5623046,PM10,53,457,140
India,Rajasthan,Ajmer,"Civil Lines,  Ajmer - RSPCB",07-05-2024 07:00:00,26.470859,74.646594,SO2,NA,NA,NA
India,Rajasthan,Alwar,"Moti Doongri, Alwar - RSPCB",07-05-2024 07:00:00,27.554793,76.611536,PM2.5,68,194,95
India,Rajasthan,Alwar,"Moti Doongri, Alwar - RSPCB",07-05-2024 07:00:00,27.554793,76.611536,PM10,64,145,99
India,Rajasthan,Alwar,"Moti Doongri, Alwar - RSPCB",07-05-2024 07:00:00,27.554793,76.611536,OZONE,11,61,18
India,Rajasthan,Baran,"Bamboliya, Baran - RSPCB",07-05-2024 07:00:00,25.106006,76.469948,SO2,5,105,15
India,Rajasthan,Barmer,"Railway Colony, Barmer - RSPCB",07-05-2024 07:00:00,25.747299,71.393989,OZONE,3,92,49
India,Rajasthan,Bhiwadi,"RIICO Ind. Area III, Bhiwadi - RSPCB",07-05-2024 07:00:00,28.194909,76.862296,PM2.5,86,344,213
India,Rajasthan,Bhiwadi,"RIICO Ind. Area III, Bhiwadi - RSPCB",07-05-2024 07:00:00,28.194909,76.862296,NH3,6,28,15
India,Rajasthan,Bhiwadi,"RIICO Ind. Area III, Bhiwadi - RSPCB",07-05-2024 07:00:00,28.194909,76.862296,CO,10,178,97
India,Rajasthan,Bhiwadi,"Vasundhara Nagar_UIT, Bhiwadi - RSPCB",07-05-2024 07:00:00,28.207266,76.829265,PM2.5,28,355,208
India,Rajasthan,Bhiwadi,"Vasundhara Nagar_UIT, Bhiwadi - RSPCB",07-05-2024 07:00:00,28.207266,76.829265,CO,13,60,48
India,Rajasthan,Bhiwadi,"Vasundhara Nagar_UIT, Bhiwadi - RSPCB",07-05-2024 07:00:00,28.207266,76.829265,OZONE,3,105,8
India,Rajasthan,Bikaner,"MM Ground, Bikaner - RSPCB",07-05-2024 07:00:00,28.018792,73.292658,PM2.5,19,111,62
India,Rajasthan,Bikaner,"MM Ground, Bikaner - RSPCB",07-05-2024 07:00:00,28.018792,73.292658,SO2,2,9,4
India,Rajasthan,Bundi,"New Colony, Bundi - RSPCB",07-05-2024 07:00:00,25.435774,75.644272,OZONE,17,158,58
India,Rajasthan,Dholpur,"Raja Ganj, Dholpur - RSPCB",07-05-2024 07:00:00,26.699557,77.898881,PM10,107,326,182
India,Rajasthan,Dungarpur,"Bhoiwada, Dungarpur - RSPCB",07-05-2024 07:00:00,23.837789,73.714926,OZONE,24,70,41
India,Rajasthan,Hanumangarh,"Housing Board, Hanumangarh - RSPCB",07-05-2024 07:00:00,29.610750,74.283608,PM10,105,290,165
India,Rajasthan,Jaipur,"Adarsh Nagar, Jaipur - RSPCB",07-05-2024 07:00:00,26.902909,75.836858,SO2,7,19,13
India,Rajasthan,Jaipur,"Police Commissionerate, Jaipur - RSPCB",07-05-2024 07:00:00,26.9164092,75.7994901,NO2,17,119,69
India,Rajasthan,Jaipur,"Sector-2 Murlipura, Jaipur - RSPCB",07-05-2024 07:00:00,26.960669,75.771817,NO2,30,175,67
India,Rajasthan,Jaipur,"Sector-2 Murlipura, Jaipur - RSPCB",07-05-2024 07:00:00,26.960669,75.771817,SO2,6,119,20
India,Rajasthan,Jaipur,"Shastri Nagar, Jaipur - RSPCB",07-05-2024 07:00:00,26.9502929,75.730943,PM2.5,59,183,117
India,Rajasthan,Jaipur,"Shastri Nagar, Jaipur - RSPCB",07-05-2024 07:00:00,26.9502929,75.730943,NH3,6,18,11
India,Rajasthan,Jaisalmer,"Sadar Bazar, Jaisalmer - RSPCB",07-05-2024 07:00:00,26.912329,70.909168,NO2,12,70,27
India,Rajasthan,Jalore,"Mudtra Sili, Jalore - RSPCB",07-05-2024 07:00:00,25.344694,72.626208,CO,7,54,11
India,Rajasthan,Jhunjhunu,"Indra Nagar, Jhunjhunu - RSPCB",07-05-2024 07:00:00,28.108988,75.386577,PM2.5,30,196,83
India,Rajasthan,Jodhpur,"Collectorate, Jodhpur - RSPCB",07-05-2024 07:00:00,26.268249,73.0193853,OZONE,1,127,44
India,Rajasthan,Jodhpur,"Jhalamand, Jodhpur - RSPCB",07-05-2024 07:00:00,26.215415,73.070156,OZONE,2,116,31
India,Rajasthan,Jodhpur,"Mandor, Jodhpur - RSPCB",07-05-2024 07:00:00,26.358805,73.047444,PM2.5,17,110,37
India,Rajasthan,Karauli,"Satyawati Vihar, Karauli - RSPCB",07-05-2024 07:00:00,26.506177,77.025989,NO2,10,101,32
India,Rajasthan,Karauli,"Satyawati Vihar, Karauli - RSPCB",07-05-2024 07:00:00,26.506177,77.025989,SO2,6,34,26
India,Rajasthan,Kota,"Dhanmandi, Kota - RSPCB",07-05-2024 07:00:00,25.164090,75.858137,NO2,11,102,36
India,Rajasthan,Kota,"Dhanmandi, Kota - RSPCB",07-05-2024 07:00:00,25.164090,75.858137,CO,14,157,61
India,Rajasthan,Kota,"Dhanmandi, Kota - RSPCB",07-05-2024 07:00:00,25.164090,75.858137,OZONE,2,127,22
India,Rajasthan,Kota,"Nayapura, Kota - RSPCB",07-05-2024 07:00:00,25.196024,75.855668,NO2,15,158,68
India,Rajasthan,Kota,"Shrinath Puram, Kota - RSPCB",07-05-2024 07:00:00,25.14389,75.821256,SO2,5,15,9
India,Rajasthan,Nagaur,"Karni Colony, Nagaur - RSPCB",07-05-2024 07:00:00,27.213494,73.734444,PM10,88,216,131
India,Rajasthan,Nagaur,"Karni Colony, Nagaur - RSPCB",07-05-2024 07:00:00,27.213494,73.734444,NO2,9,45,19
India,Rajasthan,Nagaur,"Karni Colony, Nagaur - RSPCB",07-05-2024 07:00:00,27.213494,73.734444,NH3,5,11,7
India,Rajasthan,Sawai Madhopur,"Sahu Nagar, Sawai Madhopur - RSPCB",07-05-2024 07:00:00,26.031443,76.359327,PM10,107,405,165
India,Rajasthan,Sikar,"Radhakishan Pura, Sikar - RSPCB",07-05-2024 07:00:00,27.608912,75.153302,NO2,8,77,34
India,Rajasthan,Sikar,"Radhakishan Pura, Sikar - RSPCB",07-05-2024 07:00:00,27.608912,75.153302,CO,2,120,65
India,Rajasthan,Sirohi,"Vedhaynath Colony, Sirohi - RSPCB",07-05-2024 07:00:00,24.885261,72.857549,OZONE,23,113,55
India,Rajasthan,Sri Ganganagar,"Old City, Sri Ganganagar - RSPCB",07-05-2024 07:00:00,29.931624,73.864511,OZONE,10,79,13
India,Rajasthan,Tonk,"Shastri Nagar, Tonk - RSPCB",07-05-2024 07:00:00,26.159933,75.780517,PM2.5,NA,NA,NA
India,Rajasthan,Tonk,"Shastri Nagar, Tonk - RSPCB",07-05-2024 07:00:00,26.159933,75.780517,PM10,NA,NA,NA
India,Rajasthan,Tonk,"Shastri Nagar, Tonk - RSPCB",07-05-2024 07:00:00,26.159933,75.780517,NH3,3,82,16
India,Rajasthan,Udaipur,"Ashok Nagar, Udaipur - RSPCB",07-05-2024 07:00:00,24.5886166,73.6321397,PM2.5,40,111,72
India,Rajasthan,Udaipur,"Ashok Nagar, Udaipur - RSPCB",07-05-2024 07:00:00,24.5886166,73.6321397,NO2,66,126,103
India,Sikkim,Gangtok,"Zero Point GICI, Gangtok - SSPCB",07-05-2024 07:00:00,27.338530,88.614099,PM2.5,19,39,30
India,Sikkim,Gangtok,"Zero Point GICI, Gangtok - SSPCB",07-05-2024 07:00:00,27.338530,88.614099,NO2,1,10,3
India,Sikkim,Gangtok,"Zero Point GICI, Gangtok - SSPCB",07-05-2024 07:00:00,27.338530,88.614099,NH3,1,1,1
India,Sikkim,Gangtok,"Zero Point GICI, Gangtok - SSPCB",07-05-2024 07:00:00,27.338530,88.614099,OZONE,22,76,29
India,TamilNadu,Ariyalur,"Keelapalur, Ariyalur - TNPCB",07-05-2024 07:00:00,11.06825,79.07033,NO2,4,6,5
India,TamilNadu,Ariyalur,"Keelapalur, Ariyalur - TNPCB",07-05-2024 07:00:00,11.06825,79.07033,NH3,1,2,2
India,TamilNadu,Chennai,"Manali, Chennai - CPCB",07-05-2024 07:00:00,13.164544,80.26285,NH3,4,5,4
India,TamilNadu,Chennai,"Manali, Chennai - CPCB",07-05-2024 07:00:00,13.164544,80.26285,SO2,2,10,5
India,TamilNadu,Chennai,"Perungudi, Chennai - TNPCB",07-05-2024 07:00:00,12.9533,80.2357,PM10,29,101,54
India,TamilNadu,Chennai,"Perungudi, Chennai - TNPCB",07-05-2024 07:00:00,12.9533,80.2357,SO2,1,6,3
India,TamilNadu,Chennai,"Perungudi, Chennai - TNPCB",07-05-2024 07:00:00,12.9533,80.2357,OZONE,5,6,5
India,TamilNadu,Chennai,"Royapuram, Chennai - TNPCB",07-05-2024 07:00:00,13.1036,80.2909,PM2.5,12,30,23
India,TamilNadu,Chennai,"Royapuram, Chennai - TNPCB",07-05-2024 07:00:00,13.1036,80.2909,NH3,1,1,1
India,TamilNadu,Chennai,"Velachery Res. Area, Chennai - CPCB",07-05-2024 07:00:00,13.0052189,80.2398125,PM10,13,42,28
India,TamilNadu,Coimbatore,"PSG College of Arts and Science, Coimbatore - TNPCB",07-05-2024 07:00:00,11.0328,77.0349,OZONE,5,8,5
India,TamilNadu,Cuddalore,"Kudikadu, Cuddalore - TNPCB",07-05-2024 07:00:00,11.6829898,79.7532099,NO2,NA,NA,NA
India,TamilNadu,Gummidipoondi,"Anthoni Pillai Nagar, Gummidipoondi - TNPCB",07-05-2024 07:00:00,13.4127,80.1081,PM2.5,21,61,37
India,TamilNadu,Palkalaiperur,"Bharathidasan University, Palkalaiperur - TNPCB",07-05-2024 07:00:00,10.681158,78.741746,SO2,28,29,28
India,TamilNadu,Tirupur,"Kumaran College, Tirupur - TNPCB",07-05-2024 07:00:00,11.0973603,77.3228673,NO2,NA,NA,NA
India,TamilNadu,Vellore,"Vasanthapuram, Vellore - TNPCB",07-05-2024 07:00:00,12.909494,79.131861,PM2.5,18,83,54
India,TamilNadu,Vellore,"Vasanthapuram, Vellore - TNPCB",07-05-2024 07:00:00,12.909494,79.131861,NO2,9,26,20
India,TamilNadu,Vellore,"Vasanthapuram, Vellore - TNPCB",07-05-2024 07:00:00,12.909494,79.131861,CO,NA,NA,NA
India,Telangana,Hyderabad,"Central University, Hyderabad - TSPCB",07-05-2024 07:00:00,17.460103,78.334361,PM2.5,32,62,50
India,Telangana,Hyderabad,"Central University, Hyderabad - TSPCB",07-05-2024 07:00:00,17.460103,78.334361,SO2,4,12,8
India,Telangana,Hyderabad,"Central University, Hyderabad - TSPCB",07-05-2024 07:00:00,17.460103,78.334361,CO,15,28,22
India,Telangana,Hyderabad,"ECIL Kapra, Hyderabad - TSPCB",07-05-2024 07:00:00,17.470431,78.566959,NO2,14,20,16
India,Telangana,Hyderabad,"ECIL Kapra, Hyderabad - TSPCB",07-05-2024 07:00:00,17.470431,78.566959,SO2,1,19,9
India,Telangana,Hyderabad,"ICRISAT Patancheru, Hyderabad - TSPCB",07-05-2024 07:00:00,17.518400,78.278777,PM10,48,152,95
India,Telangana,Hyderabad,"ICRISAT Patancheru, Hyderabad - TSPCB",07-05-2024 07:00:00,17.518400,78.278777,NO2,15,17,16
India,Telangana,Hyderabad,"ICRISAT Patancheru, Hyderabad - TSPCB",07-05-2024 07:00:00,17.518400,78.278777,SO2,14,38,25
India,Telangana,Hyderabad,"IITH Kandi, Hyderabad - TSPCB",07-05-2024 07:00:00,17.585705,78.126199,NH3,4,6,5
India,Telangana,Hyderabad,"IITH Kandi, Hyderabad - TSPCB",07-05-2024 07:00:00,17.585705,78.126199,CO,7,41,28
India,Telangana,Hyderabad,"Kokapet, Hyderabad - TSPCB",07-05-2024 07:00:00,17.393559,78.339194,PM2.5,NA,NA,NA
India,Telangana,Hyderabad,"Kokapet, Hyderabad - TSPCB",07-05-2024 07:00:00,17.393559,78.339194,SO2,NA,NA,NA
India,Telangana,Hyderabad,"Kokapet, Hyderabad - TSPCB",07-05-2024 07:00:00,17.393559,78.339194,CO,18,27,19
India,Telangana,Hyderabad,"Kokapet, Hyderabad - TSPCB",07-05-2024 07:00:00,17.393559,78.339194,OZONE,16,16,16
India,Telangana,Hyderabad,"Kompally Municipal Office, Hyderabad - TSPCB",07-05-2024 07:00:00,17.544899,78.486949,NH3,5,6,6
India,Telangana,Hyderabad,"Nacharam_TSIIC IALA, Hyderabad - TSPCB",07-05-2024 07:00:00,17.429398,78.569354,PM10,62,75,73
India,Telangana,Hyderabad,"Nacharam_TSIIC IALA, Hyderabad - TSPCB",07-05-2024 07:00:00,17.429398,78.569354,NO2,10,11,10
India,Telangana,Hyderabad,"Ramachandrapuram, Hyderabad - TSPCB",07-05-2024 07:00:00,17.528544,78.286195,OZONE,23,62,32
India,Telangana,Hyderabad,"Sanathnagar, Hyderabad - TSPCB",07-05-2024 07:00:00,17.4559458,78.4332152,SO2,13,65,28
India,Telangana,Hyderabad,"Sanathnagar, Hyderabad - TSPCB",07-05-2024 07:00:00,17.4559458,78.4332152,CO,34,52,40
India,Telangana,Hyderabad,"Somajiguda, Hyderabad - TSPCB",07-05-2024 07:00:00,17.417094,78.457437,CO,21,26,23
India,Telangana,Hyderabad,"Zoo Park, Hyderabad - TSPCB",07-05-2024 07:00:00,17.349694,78.451437,PM10,48,156,117
India,Telangana,Hyderabad,"Zoo Park, Hyderabad - TSPCB",07-05-2024 07:00:00,17.349694,78.451437,SO2,1,9,4
India,Tripura,Agartala,"Bardowali, Agartala - Tripura SPCB",07-05-2024 07:00:00,23.8175497,91.2726974,NH3,1,3,2
India,Tripura,Agartala,"Bardowali, Agartala - Tripura SPCB",07-05-2024 07:00:00,23.8175497,91.2726974,SO2,29,30,30
India,Uttar_Pradesh,Agra,"Manoharpur, Agra - UPPCB",07-05-2024 07:00:00,27.23711,78.01936,CO,6,24,14
India,Uttar_Pradesh,Agra,"Rohta, Agra - UPPCB",07-05-2024 07:00:00,27.106972,78.000111,PM10,18,122,62
India,Uttar_Pradesh,Agra,"Rohta, Agra - UPPCB",07-05-2024 07:00:00,27.106972,78.000111,CO,6,51,30
India,Uttar_Pradesh,Agra,"Sanjay Palace, Agra - UPPCB",07-05-2024 07:00:00,27.19865833,78.00598056,SO2,2,42,15
India,Uttar_Pradesh,Agra,"Sector-3B Avas Vikas Colony, Agra - UPPCB",07-05-2024 07:00:00,27.19412,77.96237,PM2.5,13,65,33
India,Uttar_Pradesh,Agra,"Sector-3B Avas Vikas Colony, Agra - UPPCB",07-05-2024 07:00:00,27.19412,77.96237,NH3,6,18,11
India,Uttar_Pradesh,Agra,"Sector-3B Avas Vikas Colony, Agra - UPPCB",07-05-2024 07:00:00,27.19412,77.96237,CO,8,28,23
India,Uttar_Pradesh,Agra,"Shahjahan Garden, Agra - UPPCB",07-05-2024 07:00:00,27.169338,78.03582,PM10,76,201,112
India,Uttar_Pradesh,Agra,"Shahjahan Garden, Agra - UPPCB",07-05-2024 07:00:00,27.169338,78.03582,SO2,23,47,35
India,Uttar_Pradesh,Agra,"Shastripuram, Agra - UPPCB",07-05-2024 07:00:00,27.19862,77.92066,PM2.5,3,93,57
India,Uttar_Pradesh,Baghpat,"Sardar Patel Inter College, Baghpat - UPPCB",07-05-2024 07:00:00,28.964949,77.278761,PM2.5,NA,NA,NA
India,Uttar_Pradesh,Bareilly,"Civil Lines, Bareilly - UPPCB",07-05-2024 07:00:00,28.359581,79.414455,PM2.5,NA,NA,NA
India,Uttar_Pradesh,Bareilly,"Rajendra Nagar, Bareilly - UPPCB",07-05-2024 07:00:00,28.38910936,79.42963708,PM2.5,19,47,36
India,Uttar_Pradesh,Bareilly,"Rajendra Nagar, Bareilly - UPPCB",07-05-2024 07:00:00,28.38910936,79.42963708,NO2,2,2,2
India,Uttar_Pradesh,Bareilly,"Rajendra Nagar, Bareilly - UPPCB",07-05-2024 07:00:00,28.38910936,79.42963708,SO2,46,64,53
India,Uttar_Pradesh,Bulandshahr,"Yamunapuram, Bulandshahr - UPPCB",07-05-2024 07:00:00,28.406963,77.849831,CO,24,106,79
India,Uttar_Pradesh,Firozabad,"Vibhab Nagar, Firozabad - UPPCB",07-05-2024 07:00:00,27.1594,78.3953,NO2,12,14,14
India,Uttar_Pradesh,Firozabad,"Vibhab Nagar, Firozabad - UPPCB",07-05-2024 07:00:00,27.1594,78.3953,CO,15,38,34
India,Uttar_Pradesh,Ghaziabad,"Indirapuram, Ghaziabad - UPPCB",07-05-2024 07:00:00,28.646233,77.358075,PM2.5,55,348,210
India,Uttar_Pradesh,Ghaziabad,"Indirapuram, Ghaziabad - UPPCB",07-05-2024 07:00:00,28.646233,77.358075,PM10,158,459,314
India,Uttar_Pradesh,Ghaziabad,"Indirapuram, Ghaziabad - UPPCB",07-05-2024 07:00:00,28.646233,77.358075,SO2,2,18,7
India,Uttar_Pradesh,Ghaziabad,"Loni, Ghaziabad - UPPCB",07-05-2024 07:00:00,28.757294,77.278792,CO,18,107,79
India,Uttar_Pradesh,Gorakhpur,"Madan Mohan Malaviya University of Technology, Gorakhpur - UPPCB",07-05-2024 07:00:00,26.730136,83.433859,NH3,1,2,1
India,Uttar_Pradesh,Gorakhpur,"Madan Mohan Malaviya University of Technology, Gorakhpur - UPPCB",07-05-2024 07:00:00,26.730136,83.433859,SO2,37,41,39
India,Uttar_Pradesh,Greater Noida,"Knowledge Park - III, Greater Noida - UPPCB",07-05-2024 07:00:00,28.47272,77.482000,PM2.5,80,326,223
India,Uttar_Pradesh,Greater Noida,"Knowledge Park - V, Greater Noida - UPPCB",07-05-2024 07:00:00,28.557054,77.453663,CO,10,92,69
India,Uttar_Pradesh,Hapur,"Anand Vihar, Hapur - UPPCB",07-05-2024 07:00:00,28.725645,77.749675,CO,24,42,39
India,Uttar_Pradesh,Jhansi,"Shivaji Nagar, Jhansi - UPPCB",07-05-2024 07:00:00,25.4547,78.6039,PM10,NA,NA,NA
India,Uttar_Pradesh,Kanpur,"FTI Kidwai Nagar, Kanpur - UPPCB",07-05-2024 07:00:00,26.428282,80.327067,PM2.5,NA,NA,NA
India,Uttar_Pradesh,Kanpur,"FTI Kidwai Nagar, Kanpur - UPPCB",07-05-2024 07:00:00,26.428282,80.327067,PM10,39,262,167
India,Uttar_Pradesh,Kanpur,"FTI Kidwai Nagar, Kanpur - UPPCB",07-05-2024 07:00:00,26.428282,80.327067,CO,31,60,51
India,Uttar_Pradesh,Kanpur,"NSI Kalyanpur, Kanpur - UPPCB",07-05-2024 07:00:00,26.509954,80.249612,PM2.5,63,284,139
India,Uttar_Pradesh,Kanpur,"NSI Kalyanpur, Kanpur - UPPCB",07-05-2024 07:00:00,26.509954,80.249612,NH3,1,2,1
India,Uttar_Pradesh,Kanpur,"NSI Kalyanpur, Kanpur - UPPCB",07-05-2024 07:00:00,26.509954,80.249612,CO,35,62,53
India,Uttar_Pradesh,Kanpur,"Nehru Nagar, Kanpur - UPPCB",07-05-2024 07:00:00,26.4703136,80.3229863,PM10,48,137,92
India,Uttar_Pradesh,Khurja,"Kalindi Kunj, Khurja - UPPCB",07-05-2024 07:00:00,28.2348927,77.8683002,OZONE,31,56,31
India,Uttar_Pradesh,Lucknow,"B R Ambedkar University, Lucknow - UPPCB",07-05-2024 07:00:00,26.766433,80.927299,PM2.5,39,313,117
India,Uttar_Pradesh,Lucknow,"B R Ambedkar University, Lucknow - UPPCB",07-05-2024 07:00:00,26.766433,80.927299,NH3,8,11,9
India,Uttar_Pradesh,Lucknow,"B R Ambedkar University, Lucknow - UPPCB",07-05-2024 07:00:00,26.766433,80.927299,SO2,34,43,37
India,Uttar_Pradesh,Lucknow,"Gomti Nagar, Lucknow - UPPCB",07-05-2024 07:00:00,26.868120,81.005119,OZONE,32,43,34
India,Uttar_Pradesh,Lucknow,"Kendriya Vidyalaya, Lucknow - CPCB",07-05-2024 07:00:00,26.906111,80.948222,SO2,3,7,5
India,Uttar_Pradesh,Lucknow,"Kendriya Vidyalaya, Lucknow - CPCB",07-05-2024 07:00:00,26.906111,80.948222,CO,22,90,33
India,Uttar_Pradesh,Lucknow,"Kendriya Vidyalaya, Lucknow - CPCB",07-05-2024 07:00:00,26.906111,80.948222,OZONE,17,137,42
India,Uttar_Pradesh,Lucknow,"Kukrail Picnic Spot-1, Lucknow - UPPCB",07-05-2024 07:00:00,26.90723,80.98579,PM10,96,178,134
India,Uttar_Pradesh,Lucknow,"Kukrail Picnic Spot-1, Lucknow - UPPCB",07-05-2024 07:00:00,26.90723,80.98579,NO2,8,9,8
India,Uttar_Pradesh,Lucknow,"Lalbagh, Lucknow - CPCB",07-05-2024 07:00:00,26.8458805,80.9365541,PM2.5,NA,NA,NA
India,Uttar_Pradesh,Lucknow,"Lalbagh, Lucknow - CPCB",07-05-2024 07:00:00,26.8458805,80.9365541,OZONE,13,71,24
India,Uttar_Pradesh,Lucknow,"Talkatora District Industries Center, Lucknow - CPCB",07-05-2024 07:00:00,26.83399722,80.8917361,NO2,33,121,67
India,Uttar_Pradesh,Lucknow,"Talkatora District Industries Center, Lucknow - CPCB",07-05-2024 07:00:00,26.83399722,80.8917361,CO,6,54,28
India,Uttar_Pradesh,Meerut,"Ganga Nagar, Meerut - UPPCB",07-05-2024 07:00:00,28.999264,77.7590354,NH3,7,17,11
India,Uttar_Pradesh,Meerut,"Ganga Nagar, Meerut - UPPCB",07-05-2024 07:00:00,28.999264,77.7590354,SO2,13,36,23
India,Uttar_Pradesh,Meerut,"Jai Bhim Nagar, Meerut - UPPCB",07-05-2024 07:00:00,28.9535882,77.7622941,NH3,4,11,7
India,Uttar_Pradesh,Meerut,"Pallavpuram Phase 2, Meerut - UPPCB",07-05-2024 07:00:00,29.063510,77.709723,NO2,18,145,56
India,Uttar_Pradesh,Moradabad,"Eco Herbal Park, Moradabad - UPPCB",07-05-2024 07:00:00,28.840739,78.697531,NO2,10,75,39
India,Uttar_Pradesh,Moradabad,"Employment Office, Moradabad - UPPCB",07-05-2024 07:00:00,28.88528,78.73880,PM10,87,256,146
India,Uttar_Pradesh,Moradabad,"Jigar Colony, Moradabad - UPPCB",07-05-2024 07:00:00,28.856664,78.772638,NO2,18,19,18
India,Uttar_Pradesh,Moradabad,"Jigar Colony, Moradabad - UPPCB",07-05-2024 07:00:00,28.856664,78.772638,SO2,6,10,8
India,Uttar_Pradesh,Moradabad,"Kashiram Nagar, Moradabad - UPPCB",07-05-2024 07:00:00,28.849399,78.742362,OZONE,12,103,26
India,Uttar_Pradesh,Moradabad,"Transport Nagar, Moradabad - UPPCB",07-05-2024 07:00:00,28.802625,78.753728,NO2,7,30,18
India,Uttar_Pradesh,Muzaffarnagar,"New Mandi, Muzaffarnagar - UPPCB",07-05-2024 07:00:00,29.4723508,77.7194031,PM2.5,70,308,179
India,Uttar_Pradesh,Noida,"Sector - 125, Noida - UPPCB",07-05-2024 07:00:00,28.5447608,77.3231257,SO2,18,92,34
India,Uttar_Pradesh,Noida,"Sector - 62, Noida - IMD",07-05-2024 07:00:00,28.6245479,77.3577104,PM2.5,NA,NA,NA
India,Uttar_Pradesh,Noida,"Sector - 62, Noida - IMD",07-05-2024 07:00:00,28.6245479,77.3577104,PM10,NA,NA,NA
India,Uttar_Pradesh,Noida,"Sector - 62, Noida - IMD",07-05-2024 07:00:00,28.6245479,77.3577104,OZONE,NA,NA,NA
India,Uttar_Pradesh,Noida,"Sector-1, Noida - UPPCB",07-05-2024 07:00:00,28.5898,77.3101,SO2,7,64,21
India,Uttar_Pradesh,Noida,"Sector-116, Noida - UPPCB",07-05-2024 07:00:00,28.569230,77.393848,PM2.5,72,407,235
India,Uttar_Pradesh,Noida,"Sector-116, Noida - UPPCB",07-05-2024 07:00:00,28.569230,77.393848,NO2,25,158,87
India,Uttar_Pradesh,Noida,"Sector-116, Noida - UPPCB",07-05-2024 07:00:00,28.569230,77.393848,OZONE,3,136,8
India,Uttar_Pradesh,Prayagraj,"Motilal Nehru NIT, Prayagraj - UPPCB",07-05-2024 07:00:00,25.494,81.863,PM2.5,23,84,49
India,Uttar_Pradesh,Prayagraj,"Motilal Nehru NIT, Prayagraj - UPPCB",07-05-2024 07:00:00,25.494,81.863,OZONE,8,55,26
India,Uttar_Pradesh,Prayagraj,"Nagar Nigam, Prayagraj - UPPCB",07-05-2024 07:00:00,25.44919916 ,81.82735986 ,PM10,39,109,62
India,Uttar_Pradesh,Prayagraj,"Nagar Nigam, Prayagraj - UPPCB",07-05-2024 07:00:00,25.44919916 ,81.82735986 ,SO2,43,101,70
India,Uttar_Pradesh,Prayagraj,"Nagar Nigam, Prayagraj - UPPCB",07-05-2024 07:00:00,25.44919916 ,81.82735986 ,CO,14,71,22
India,Uttar_Pradesh,Varanasi,"Ardhali Bazar, Varanasi - UPPCB",07-05-2024 07:00:00,25.3505986,82.9083074,PM10,28,69,46
India,Uttar_Pradesh,Varanasi,"IESD Banaras Hindu University, Varanasi - UPPCB",07-05-2024 07:00:00,25.262326,82.995408,PM10,24,60,38
India,Uttar_Pradesh,Vrindavan,"Omex Eternity, Vrindavan - UPPCB",07-05-2024 07:00:00,27.5714090,77.6557570,NH3,1,2,2
India,Uttarakhand,Kashipur,"Govt. Girls Inter College, Kashipur - UKPCB",07-05-2024 07:00:00,29.2124114,78.9611753,NO2,16,40,28
India,Uttarakhand,Rishikesh,"Shivaji Nagar, Rishikesh - UKPCB",07-05-2024 07:00:00,30.075911,78.2859547,CO,16,75,45
India,West_Bengal,Asansol,"Asansol Court Area, Asansol - WBPCB",07-05-2024 07:00:00,23.685297,86.945968,NH3,10,14,12
India,West_Bengal,Durgapur,"PCBL Residential Complex, Durgapur - WBPCB",07-05-2024 07:00:00,23.5087640,87.3544400,PM10,36,188,101
India,West_Bengal,Durgapur,"Sidhu Kanhu Indoor Stadium, Durgapur - WBPCB",07-05-2024 07:00:00,23.5404352,87.2892225,OZONE,9,57,14
India,West_Bengal,Haldia,"Priyambada Housing Estate, Haldia - WBPCB",07-05-2024 07:00:00,22.06047,88.109737,PM10,11,57,31
India,West_Bengal,Howrah,"Belur Math, Howrah - WBPCB",07-05-2024 07:00:00,22.629801,88.352017,CO,2,16,8
India,West_Bengal,Howrah,"Ghusuri, Howrah - WBPCB",07-05-2024 07:00:00,22.611968,88.347422,NO2,16,21,18
India,West_Bengal,Howrah,"Ghusuri, Howrah - WBPCB",07-05-2024 07:00:00,22.611968,88.347422,CO,12,22,17
India,West_Bengal,Howrah,"Padmapukur, Howrah - WBPCB",07-05-2024 07:00:00,22.5687319,88.2797276,SO2,NA,NA,NA
India,West_Bengal,Kolkata,"Fort William, Kolkata - WBPCB",07-05-2024 07:00:00,22.556640,88.342674,NO2,12,45,19
India,West_Bengal,Kolkata,"Fort William, Kolkata - WBPCB",07-05-2024 07:00:00,22.556640,88.342674,OZONE,15,59,51
India,West_Bengal,Kolkata,"Rabindra Sarobar, Kolkata - WBPCB",07-05-2024 07:00:00,22.51106,88.35142,PM2.5,11,40,24
India,West_Bengal,Kolkata,"Victoria, Kolkata - WBPCB",07-05-2024 07:00:00,22.5448082,88.3403691,PM10,25,65,46
India,West_Bengal,Siliguri,"Ward-32 Bapupara, Siliguri - WBPCB",07-05-2024 07:00:00,26.6879226,88.4152495,PM2.5,15,53,46
India,Andhra_Pradesh,Amaravati,"Secretariat, Amaravati - APPCB",07-05-2024 07:00:00,16.5150833,80.5181667,NH3,4,4,4
India,Andhra_Pradesh,Amaravati,"Secretariat, Amaravati - APPCB",07-05-2024 07:00:00,16.5150833,80.5181667,SO2,7,9,8
India,Andhra_Pradesh,Amaravati,"Secretariat, Amaravati - APPCB",07-05-2024 07:00:00,16.5150833,80.5181667,CO,4,40,19
India,Andhra_Pradesh,Anantapur,"Gulzarpet, Anantapur - APPCB",07-05-2024 07:00:00,14.675886,77.593027,PM2.5,31,53,42
India,Andhra_Pradesh,Anantapur,"Gulzarpet, Anantapur - APPCB",07-05-2024 07:00:00,14.675886,77.593027,OZONE,2,62,22
India,Andhra_Pradesh,Chittoor,"Gangineni Cheruvu, Chittoor - APPCB",07-05-2024 07:00:00,13.204880,79.097889,PM10,NA,NA,NA
India,Andhra_Pradesh,Chittoor,"Gangineni Cheruvu, Chittoor - APPCB",07-05-2024 07:00:00,13.204880,79.097889,SO2,NA,NA,NA
India,Andhra_Pradesh,Rajamahendravaram,"Anand Kala Kshetram, Rajamahendravaram - APPCB",07-05-2024 07:00:00,16.9872867,81.7363176,NH3,1,5,3
India,Andhra_Pradesh,Rajamahendravaram,"Anand Kala Kshetram, Rajamahendravaram - APPCB",07-05-2024 07:00:00,16.9872867,81.7363176,OZONE,29,61,35
India,Andhra_Pradesh,Tirupati,"Tirumala, Tirupati - APPCB",07-05-2024 07:00:00,13.67,79.35,PM2.5,28,80,56
India,Andhra_Pradesh,Tirupati,"Tirumala, Tirupati - APPCB",07-05-2024 07:00:00,13.67,79.35,NO2,13,75,30
India,Andhra_Pradesh,Tirupati,"Tirumala, Tirupati - APPCB",07-05-2024 07:00:00,13.67,79.35,SO2,1,9,3
India,Andhra_Pradesh,Tirupati,"Vaikuntapuram, Tirupati - APPCB",07-05-2024 07:00:00,13.615387,79.409230,NO2,16,23,17
India,Andhra_Pradesh,Vijayawada,"HB Colony, Vijayawada - APPCB",07-05-2024 07:00:00,16.536107,80.594233,NH3,4,4,4
India,Andhra_Pradesh,Vijayawada,"HB Colony, Vijayawada - APPCB",07-05-2024 07:00:00,16.536107,80.594233,CO,33,37,34
India,Andhra_Pradesh,Vijayawada,"Kanuru, Vijayawada - APPCB",07-05-2024 07:00:00,16.486692,80.699436,NO2,61,72,65
India,Andhra_Pradesh,Vijayawada,"Kanuru, Vijayawada - APPCB",07-05-2024 07:00:00,16.486692,80.699436,OZONE,29,29,29
India,Andhra_Pradesh,Vijayawada,"Rajiv Gandhi Park, Vijayawada - APPCB",07-05-2024 07:00:00,16.509717,80.612222,OZONE,21,96,26
India,Andhra_Pradesh,Vijayawada,"Rajiv Nagar, Vijayawada - APPCB",07-05-2024 07:00:00,16.554731,80.649110,PM2.5,42,56,44
India,Andhra_Pradesh,Vijayawada,"Rajiv Nagar, Vijayawada - APPCB",07-05-2024 07:00:00,16.554731,80.649110,PM10,59,76,61
India,Andhra_Pradesh,Vijayawada,"Rajiv Nagar, Vijayawada - APPCB",07-05-2024 07:00:00,16.554731,80.649110,NH3,2,3,3
India,Andhra_Pradesh,Vijayawada,"Rajiv Nagar, Vijayawada - APPCB",07-05-2024 07:00:00,16.554731,80.649110,CO,34,40,40
India,Andhra_Pradesh,Visakhapatnam,"GVM Corporation, Visakhapatnam - APPCB",07-05-2024 07:00:00,17.72,83.3,SO2,8,15,10
India,Arunachal_Pradesh,Naharlagun,"Naharlagun, Naharlagun - APSPCB",07-05-2024 07:00:00,27.103358,93.679645,PM2.5,11,60,39
India,Assam,Byrnihat,"Central Academy for SFS, Byrnihat - PCBA",07-05-2024 07:00:00,26.071318,91.87488,CO,16,38,24
India,Assam,Guwahati,"IITG, Guwahati - PCBA",07-05-2024 07:00:00,26.2028636,91.70046436,NO2,NA,NA,NA
India,Assam,Guwahati,"IITG, Guwahati - PCBA",07-05-2024 07:00:00,26.2028636,91.70046436,NH3,5,5,5
India,Assam,Guwahati,"IITG, Guwahati - PCBA",07-05-2024 07:00:00,26.2028636,91.70046436,SO2,14,15,14
India,Assam,Guwahati,"LGBI Airport, Guwahati - PCBA",07-05-2024 07:00:00,26.10887,91.589544,PM2.5,7,273,61
India,Assam,Guwahati,"LGBI Airport, Guwahati - PCBA",07-05-2024 07:00:00,26.10887,91.589544,PM10,6,161,58
India,Assam,Guwahati,"LGBI Airport, Guwahati - PCBA",07-05-2024 07:00:00,26.10887,91.589544,SO2,5,14,8
India,Assam,Guwahati,"Railway Colony, Guwahati - PCBA",07-05-2024 07:00:00,26.181742,91.78063,SO2,6,10,8
India,Assam,Guwahati,"Railway Colony, Guwahati - PCBA",07-05-2024 07:00:00,26.181742,91.78063,OZONE,3,54,23
India,Assam,Nagaon,"Christianpatty, Nagaon - PCBA",07-05-2024 07:00:00,26.349082,92.68449,SO2,1,22,7
India,Assam,Nalbari,"Bata Chowk, Nalbari - PCBA",07-05-2024 07:00:00,26.446912,91.439057,PM2.5,22,75,50
India,Assam,Silchar,"Tarapur, Silchar - PCBA",07-05-2024 07:00:00,24.82827,92.79525,PM10,32,69,53
India,Assam,Silchar,"Tarapur, Silchar - PCBA",07-05-2024 07:00:00,24.82827,92.79525,SO2,3,6,5
India,Assam,Sivasagar,"Girls College, Sivasagar - PCBA",07-05-2024 07:00:00,26.987634,94.636574,SO2,5,82,15
India,Bihar,Araria,"Kharahiya Basti, Araria - BSPCB",07-05-2024 07:00:00,26.146529,87.454184,SO2,NA,NA,NA
India,Bihar,Araria,"Kharahiya Basti, Araria - BSPCB",07-05-2024 07:00:00,26.146529,87.454184,OZONE,NA,NA,NA
India,Bihar,Arrah,"New DM Office, Arrah - BSPCB",07-05-2024 07:00:00,25.5626095,84.663264,CO,13,26,20
India,Bihar,Arrah,"New DM Office, Arrah - BSPCB",07-05-2024 07:00:00,25.5626095,84.663264,OZONE,7,62,18
India,Bihar,Aurangabad,"Gurdeo Nagar, Aurangabad - BSPCB",07-05-2024 07:00:00,24.75746,84.366208,PM10,NA,NA,NA
India,Bihar,Aurangabad,"Gurdeo Nagar, Aurangabad - BSPCB",07-05-2024 07:00:00,24.75746,84.366208,SO2,NA,NA,NA
India,Bihar,Aurangabad,"Gurdeo Nagar, Aurangabad - BSPCB",07-05-2024 07:00:00,24.75746,84.366208,CO,4,29,14
India,Bihar,Bhagalpur,"Mayaganj, Bhagalpur - BSPCB",07-05-2024 07:00:00,25.265194,87.012947,PM2.5,68,147,98
India,Bihar,Bhagalpur,"Mayaganj, Bhagalpur - BSPCB",07-05-2024 07:00:00,25.265194,87.012947,SO2,11,12,12
India,Bihar,Buxar,"Charitra Van, Buxar - BSPCB (Formerly known as Central Jail)",07-05-2024 07:00:00,25.567520,83.966379,NH3,3,3,3
India,Bihar,Buxar,"Charitra Van, Buxar - BSPCB (Formerly known as Central Jail)",07-05-2024 07:00:00,25.567520,83.966379,CO,36,90,49
India,Bihar,Chhapra,"Darshan Nagar, Chhapra - BSPCB",07-05-2024 07:00:00,25.7808257,84.7446768,NH3,7,17,11
India,Bihar,Chhapra,"Darshan Nagar, Chhapra - BSPCB",07-05-2024 07:00:00,25.7808257,84.7446768,CO,24,56,34
India,Bihar,Gaya,"Collectorate, Gaya - BSPCB",07-05-2024 07:00:00,24.7955,84.9994,NO2,2,4,3
India,Bihar,Gaya,"Collectorate, Gaya - BSPCB",07-05-2024 07:00:00,24.7955,84.9994,OZONE,46,84,61
India,Bihar,Gaya,"Kareemganj, Gaya - BSPCB",07-05-2024 07:00:00,24.792403,84.992416,SO2,8,11,10
India,Bihar,Gaya,"SFTI Kusdihra, Gaya - BSPCB",07-05-2024 07:00:00,24.762518,84.982348,OZONE,1,95,7
India,Bihar,Hajipur,"Industrial Area, Hajipur - BSPCB",07-05-2024 07:00:00,25.697189,85.245900,SO2,5,7,6
India,Bihar,Katihar,"Mirchaibari, Katihar - BSPCB",07-05-2024 07:00:00,25.560083,87.553265,PM2.5,13,33,22
India,Bihar,Kishanganj,"SDM Office_Khagra, Kishanganj - BSPCB",07-05-2024 07:00:00,26.0881305,87.93840336,PM10,40,237,117
India,Bihar,Kishanganj,"SDM Office_Khagra, Kishanganj - BSPCB",07-05-2024 07:00:00,26.0881305,87.93840336,NH3,8,9,9
India,Bihar,Munger,"Town Hall, Munger - BSPCB",07-05-2024 07:00:00,25.376776,86.471523,PM2.5,25,300,113
India,Bihar,Munger,"Town Hall, Munger - BSPCB",07-05-2024 07:00:00,25.376776,86.471523,OZONE,28,42,30
India,Bihar,Muzaffarpur,"Buddha Colony, Muzaffarpur - BSPCB",07-05-2024 07:00:00,26.11442,85.39813,PM10,64,174,125
India,Bihar,Muzaffarpur,"Buddha Colony, Muzaffarpur - BSPCB",07-05-2024 07:00:00,26.11442,85.39813,NH3,15,17,16
India,Bihar,Muzaffarpur,"Buddha Colony, Muzaffarpur - BSPCB",07-05-2024 07:00:00,26.11442,85.39813,OZONE,24,38,27
India,Bihar,Muzaffarpur,"MIT-Daudpur Kothi, Muzaffarpur - BSPCB",07-05-2024 07:00:00,26.1403345,85.3650192,NO2,4,6,5
India,Bihar,Muzaffarpur,"MIT-Daudpur Kothi, Muzaffarpur - BSPCB",07-05-2024 07:00:00,26.1403345,85.3650192,NH3,1,2,1
India,Bihar,Muzaffarpur,"Muzaffarpur Collectorate, Muzaffarpur - BSPCB",07-05-2024 07:00:00,26.1209,85.3647,SO2,8,14,12
India,Bihar,Muzaffarpur,"Muzaffarpur Collectorate, Muzaffarpur - BSPCB",07-05-2024 07:00:00,26.1209,85.3647,OZONE,55,96,96
India,Bihar,Patna,"DRM Office Danapur, Patna - BSPCB",07-05-2024 07:00:00,25.586562,85.043586,SO2,6,12,9
India,Bihar,Patna,"DRM Office Danapur, Patna - BSPCB",07-05-2024 07:00:00,25.586562,85.043586,CO,30,45,32
India,Bihar,Patna,"Govt. High School Shikarpur, Patna - BSPCB",07-05-2024 07:00:00,25.592539,85.227158,PM10,87,164,136
India,Bihar,Patna,"Govt. High School Shikarpur, Patna - BSPCB",07-05-2024 07:00:00,25.592539,85.227158,OZONE,1,59,2
India,Bihar,Patna,"IGSC Planetarium Complex, Patna - BSPCB",07-05-2024 07:00:00,25.610369,85.132568,NO2,11,11,11
India,Bihar,Patna,"IGSC Planetarium Complex, Patna - BSPCB",07-05-2024 07:00:00,25.610369,85.132568,SO2,5,7,6
India,Bihar,Patna,"IGSC Planetarium Complex, Patna - BSPCB",07-05-2024 07:00:00,25.610369,85.132568,CO,12,17,13
India,Bihar,Patna,"Muradpur, Patna - BSPCB",07-05-2024 07:00:00,25.619651,85.147382,PM2.5,72,241,150
India,Bihar,Patna,"Muradpur, Patna - BSPCB",07-05-2024 07:00:00,25.619651,85.147382,CO,46,76,50
India,Bihar,Patna,"Rajbansi Nagar, Patna - BSPCB",07-05-2024 07:00:00,25.599486,85.113666,PM2.5,46,99,77
India,Bihar,Patna,"Rajbansi Nagar, Patna - BSPCB",07-05-2024 07:00:00,25.599486,85.113666,SO2,6,14,10
India,Bihar,Patna,"Rajbansi Nagar, Patna - BSPCB",07-05-2024 07:00:00,25.599486,85.113666,OZONE,33,53,34
India,Bihar,Patna,"Samanpura, Patna - BSPCB",07-05-2024 07:00:00,25.596727,85.085624,NO2,9,124,19
India,Bihar,Rajgir,"Dangi Tola, Rajgir - BSPCB",07-05-2024 07:00:00,25.03280,85.41948,OZONE,32,38,34
India,Bihar,Saharsa,"Police Line, Saharsa - BSPCB",07-05-2024 07:00:00,25.892357,86.590325,PM2.5,18,133,67
India,Bihar,Saharsa,"Police Line, Saharsa - BSPCB",07-05-2024 07:00:00,25.892357,86.590325,NO2,6,7,7
India,Bihar,Saharsa,"Police Line, Saharsa - BSPCB",07-05-2024 07:00:00,25.892357,86.590325,OZONE,4,60,24
India,Bihar,Sasaram,"Dada Peer, Sasaram - BSPCB",07-05-2024 07:00:00,24.952822,84.002396,PM10,71,137,98
India,Bihar,Sasaram,"Dada Peer, Sasaram - BSPCB",07-05-2024 07:00:00,24.952822,84.002396,NO2,18,63,40
India,Bihar,Siwan,"Chitragupta Nagar, Siwan - BSPCB",07-05-2024 07:00:00,26.2271665,84.3570427,NH3,1,2,2
India,Bihar,Siwan,"Chitragupta Nagar, Siwan - BSPCB",07-05-2024 07:00:00,26.2271665,84.3570427,SO2,18,35,30
India,Bihar,Siwan,"Chitragupta Nagar, Siwan - BSPCB",07-05-2024 07:00:00,26.2271665,84.3570427,CO,66,133,85
India,Chandigarh,Chandigarh,"Sector-25, Chandigarh - CPCC",07-05-2024 07:00:00,30.751462,76.762879,PM10,105,156,131
India,Chhattisgarh,Bhilai,"32Bungalows, Bhilai - CECB",07-05-2024 07:00:00,21.194815,81.314770,CO,12,40,33
India,Chhattisgarh,Bhilai,"Civic Center, Bhilai - Bhilai Steel Plant",07-05-2024 07:00:00,21.185571,81.343175,PM10,33,65,49
India,Chhattisgarh,Bhilai,"Civic Center, Bhilai - Bhilai Steel Plant",07-05-2024 07:00:00,21.185571,81.343175,SO2,7,11,10
India,Chhattisgarh,Bhilai,"Civic Center, Bhilai - Bhilai Steel Plant",07-05-2024 07:00:00,21.185571,81.343175,OZONE,12,62,28
India,Chhattisgarh,Bhilai,"Hathkhoj, Bhilai - CECB",07-05-2024 07:00:00,21.224231,81.408350,PM10,83,119,101
India,Chhattisgarh,Milupara,"Govt. Higher Secondary School, Milupara - CECB",07-05-2024 07:00:00,22.1910172,83.5197009,PM10,48,202,104
India,Chhattisgarh,Raipur,"AIIMS, Raipur - CECB",07-05-2024 07:00:00,21.258815,81.578979,PM2.5,NA,NA,NA
India,Chhattisgarh,Raipur,"AIIMS, Raipur - CECB",07-05-2024 07:00:00,21.258815,81.578979,PM10,NA,NA,NA
India,Chhattisgarh,Raipur,"Bhatagaon New ISBT, Raipur - CECB",07-05-2024 07:00:00,21.219665,81.630094,PM2.5,21,37,30
India,Chhattisgarh,Raipur,"Siltara Phase-II, Raipur - CECB",07-05-2024 07:00:00,21.371751,81.664929,PM10,72,199,130
India,Chhattisgarh,Tumidih,"OP Jindal Industrial Park, Tumidih - CECB",07-05-2024 07:00:00,22.06631475,83.33820077,PM2.5,NA,NA,NA
India,Delhi,Delhi,"Alipur, Delhi - DPCC",07-05-2024 07:00:00,28.815329,77.153010,NH3,5,10,7
India,Delhi,Delhi,"Anand Vihar, Delhi - DPCC",07-05-2024 07:00:00,28.647622,77.3158090,PM2.5,35,389,257
India,Delhi,Delhi,"Anand Vihar, Delhi - DPCC",07-05-2024 07:00:00,28.647622,77.3158090,PM10,165,500,349
India,Delhi,Delhi,"Anand Vihar, Delhi - DPCC",07-05-2024 07:00:00,28.647622,77.3158090,NO2,61,174,115
India,Delhi,Delhi,"Anand Vihar, Delhi - DPCC",07-05-2024 07:00:00,28.647622,77.3158090,CO,59,152,135
India,Delhi,Delhi,"Ashok Vihar, Delhi - DPCC",07-05-2024 07:00:00,28.695381,77.181665,PM2.5,67,370,235
India,Delhi,Delhi,"Ashok Vihar, Delhi - DPCC",07-05-2024 07:00:00,28.695381,77.181665,OZONE,3,168,7
India,Delhi,Delhi,"Aya Nagar, Delhi - IMD",07-05-2024 07:00:00,28.4706914,77.1099364,NO2,25,38,30
India,Delhi,Delhi,"Aya Nagar, Delhi - IMD",07-05-2024 07:00:00,28.4706914,77.1099364,CO,52,113,106
India,Delhi,Delhi,"Bawana, Delhi - DPCC",07-05-2024 07:00:00,28.776200,77.051074,NH3,4,8,6
India,Delhi,Delhi,"Burari Crossing, Delhi - IMD",07-05-2024 07:00:00,28.7256504,77.2011573,PM2.5,82,406,249
India,Delhi,Delhi,"Burari Crossing, Delhi - IMD",07-05-2024 07:00:00,28.7256504,77.2011573,PM10,146,442,279
India,Delhi,Delhi,"Burari Crossing, Delhi - IMD",07-05-2024 07:00:00,28.7256504,77.2011573,NO2,12,15,13
India,Delhi,Delhi,"CRRI Mathura Road, Delhi - IMD",07-05-2024 07:00:00,28.5512005,77.2735737,PM2.5,NA,NA,NA
India,Delhi,Delhi,"CRRI Mathura Road, Delhi - IMD",07-05-2024 07:00:00,28.5512005,77.2735737,NO2,NA,NA,NA
India,Delhi,Delhi,"CRRI Mathura Road, Delhi - IMD",07-05-2024 07:00:00,28.5512005,77.2735737,CO,NA,NA,NA
India,Delhi,Delhi,"Chandni Chowk, Delhi - IITM",07-05-2024 07:00:00,28.656756,77.227234,PM2.5,251,374,318
India,Delhi,Delhi,"Chandni Chowk, Delhi - IITM",07-05-2024 07:00:00,28.656756,77.227234,NH3,18,56,36
India,Delhi,Delhi,"Dwarka-Sector 8, Delhi - DPCC ",07-05-2024 07:00:00,28.5710274,77.0719006,CO,46,158,114
India,Delhi,Delhi,"IHBAS, Dilshad Garden, Delhi - CPCB",07-05-2024 07:00:00,28.6811736,77.3025234,NO2,31,59,45
India,Delhi,Delhi,"IHBAS, Dilshad Garden, Delhi - CPCB",07-05-2024 07:00:00,28.6811736,77.3025234,NH3,6,11,9
India,Delhi,Delhi,"ITO, Delhi - CPCB",07-05-2024 07:00:00,28.628624,77.241060,PM2.5,42,373,223
India,Delhi,Delhi,"ITO, Delhi - CPCB",07-05-2024 07:00:00,28.628624,77.241060,NH3,2,9,5
India,Delhi,Delhi,"ITO, Delhi - CPCB",07-05-2024 07:00:00,28.628624,77.241060,OZONE,11,93,12
India,Delhi,Delhi,"Jawaharlal Nehru Stadium, Delhi - DPCC",07-05-2024 07:00:00,28.580280,77.233829,OZONE,1,249,5
India,Delhi,Delhi,"Lodhi Road, Delhi - IITM",07-05-2024 07:00:00,28.588333,77.221667,NO2,48,140,97
India,Delhi,Delhi,"Lodhi Road, Delhi - IITM",07-05-2024 07:00:00,28.588333,77.221667,OZONE,NA,NA,NA
India,Delhi,Delhi,"Lodhi Road, Delhi - IMD",07-05-2024 07:00:00,28.5918245,77.2273074,NO2,3,16,8
India,Delhi,Delhi,"Major Dhyan Chand National Stadium, Delhi - DPCC",07-05-2024 07:00:00,28.611281,77.237738,SO2,18,70,30
India,Delhi,Delhi,"Major Dhyan Chand National Stadium, Delhi - DPCC",07-05-2024 07:00:00,28.611281,77.237738,CO,28,116,96
India,Delhi,Delhi,"Major Dhyan Chand National Stadium, Delhi - DPCC",07-05-2024 07:00:00,28.611281,77.237738,OZONE,NA,NA,NA
India,Delhi,Delhi,"Mundka, Delhi - DPCC",07-05-2024 07:00:00,28.684678,77.076574,PM10,160,500,359
India,Delhi,Delhi,"Mundka, Delhi - DPCC",07-05-2024 07:00:00,28.684678,77.076574,SO2,11,103,45
India,Delhi,Delhi,"NSIT Dwarka, Delhi - CPCB",07-05-2024 07:00:00,28.60909,77.0325413,SO2,1,43,19
India,Delhi,Delhi,"NSIT Dwarka, Delhi - CPCB",07-05-2024 07:00:00,28.60909,77.0325413,OZONE,2,98,14
India,Delhi,Delhi,"Najafgarh, Delhi - DPCC",07-05-2024 07:00:00,28.570173,76.933762,NO2,24,120,61
India,Delhi,Delhi,"New Moti Bagh, Delhi - MHUA",07-05-2024 07:00:00,28.57834,77.18400,NO2,6,46,24
India,Delhi,Delhi,"Punjabi Bagh, Delhi - DPCC",07-05-2024 07:00:00,28.674045,77.131023,NH3,4,6,5
India,Delhi,Delhi,"Punjabi Bagh, Delhi - DPCC",07-05-2024 07:00:00,28.674045,77.131023,CO,20,114,52
India,Delhi,Delhi,"Pusa, Delhi - IMD",07-05-2024 07:00:00,28.636110,77.173332,PM2.5,84,416,294
India,Delhi,Delhi,"R K Puram, Delhi - DPCC",07-05-2024 07:00:00,28.563262,77.186937,NO2,3,36,19
India,Delhi,Delhi,"Rohini, Delhi - DPCC",07-05-2024 07:00:00,28.732528,77.119920,NO2,9,144,61
India,Delhi,Delhi,"Rohini, Delhi - DPCC",07-05-2024 07:00:00,28.732528,77.119920,NH3,9,17,12
India,Delhi,Delhi,"Shadipur, Delhi - CPCB",07-05-2024 07:00:00,28.6514781,77.1473105,PM2.5,322,500,387
India,Delhi,Delhi,"Sirifort, Delhi - CPCB",07-05-2024 07:00:00,28.5504249,77.2159377,PM10,135,440,235
India,Delhi,Delhi,"Sirifort, Delhi - CPCB",07-05-2024 07:00:00,28.5504249,77.2159377,CO,10,146,115
India,Delhi,Delhi,"Sirifort, Delhi - CPCB",07-05-2024 07:00:00,28.5504249,77.2159377,OZONE,8,151,9
India,Delhi,Delhi,"Sonia Vihar, Delhi - DPCC",07-05-2024 07:00:00,28.710508,77.249485,NO2,14,116,60
India,Delhi,Delhi,"Sonia Vihar, Delhi - DPCC",07-05-2024 07:00:00,28.710508,77.249485,OZONE,4,146,6
India,Delhi,Delhi,"Sri Aurobindo Marg, Delhi - DPCC",07-05-2024 07:00:00,28.531346,77.190156,OZONE,9,86,10
India,Delhi,Delhi,"Vivek Vihar, Delhi - DPCC",07-05-2024 07:00:00,28.672342,77.315260,PM10,156,455,308
India,Delhi,Delhi,"Vivek Vihar, Delhi - DPCC",07-05-2024 07:00:00,28.672342,77.315260,OZONE,1,131,4
India,Delhi,Delhi,"Wazirpur, Delhi - DPCC",07-05-2024 07:00:00,28.699793,77.165453,OZONE,14,228,16
India,Gujarat,Ahmedabad,"Chandkheda, Ahmedabad - IITM",07-05-2024 07:00:00,23.107969,72.574648,SO2,1,4,2
India,Gujarat,Ahmedabad,"Gyaspur, Ahmedabad - IITM",07-05-2024 07:00:00,22.977134,72.553024,PM10,NA,NA,NA
India,Gujarat,Ahmedabad,"Maninagar, Ahmedabad - GPCB",07-05-2024 07:00:00,23.002657,72.591912,PM2.5,28,256,80
India,Gujarat,Ahmedabad,"Raikhad, Ahmedabad - IITM",07-05-2024 07:00:00,23.020509,72.579261,NO2,14,19,16
India,Gujarat,Ahmedabad,"Raikhad, Ahmedabad - IITM",07-05-2024 07:00:00,23.020509,72.579261,CO,16,45,28
India,Gujarat,Ahmedabad,"Rakhial, Ahmedabad - IITM",07-05-2024 07:00:00,23.016834,72.625775,PM10,32,500,184
India,Gujarat,Ahmedabad,"Rakhial, Ahmedabad - IITM",07-05-2024 07:00:00,23.016834,72.625775,NH3,10,32,19
India,Gujarat,Ahmedabad,"Rakhial, Ahmedabad - IITM",07-05-2024 07:00:00,23.016834,72.625775,OZONE,5,75,11
India,Gujarat,Ahmedabad,"SAC ISRO Satellite, Ahmedabad - IITM",07-05-2024 07:00:00,23.023389,72.515201,PM10,NA,NA,NA
India,Gujarat,Ahmedabad,"SAC ISRO Satellite, Ahmedabad - IITM",07-05-2024 07:00:00,23.023389,72.515201,SO2,3,17,8
India,Gujarat,Ahmedabad,"SVPI Airport Hansol, Ahmedabad - IITM",07-05-2024 07:00:00,23.076793,72.627874,PM10,84,136,106
India,Gujarat,Ahmedabad,"SVPI Airport Hansol, Ahmedabad - IITM",07-05-2024 07:00:00,23.076793,72.627874,NO2,17,23,21
India,Gujarat,Ahmedabad,"SVPI Airport Hansol, Ahmedabad - IITM",07-05-2024 07:00:00,23.076793,72.627874,CO,42,105,72
India,Gujarat,Ahmedabad,"Sardar Vallabhbhai Patel Stadium, Ahmedabad - IITM",07-05-2024 07:00:00,23.043070,72.562968,CO,25,54,36
India,Gujarat,Ankleshwar,"GIDC, Ankleshwar - GPCB",07-05-2024 07:00:00,21.613267,73.010555,NO2,35,36,36
India,Gujarat,Ankleshwar,"GIDC, Ankleshwar - GPCB",07-05-2024 07:00:00,21.613267,73.010555,CO,18,102,80
India,Gujarat,Gandhinagar,"Sector-10, Gandhinagar - GPCB",07-05-2024 07:00:00,23.221714,72.654328,PM2.5,28,65,42
India,Gujarat,Gandhinagar,"Sector-10, Gandhinagar - GPCB",07-05-2024 07:00:00,23.221714,72.654328,NO2,18,21,20
India,Gujarat,Nandesari,"GIDC, Nandesari - Nandesari Ind. Association",07-05-2024 07:00:00,22.410802,73.097923,PM2.5,53,308,155
India,Gujarat,Surat,"Science Center, Surat - SMC",07-05-2024 07:00:00,21.170046,72.795405,PM2.5,NA,NA,NA
India,Gujarat,Surat,"Science Center, Surat - SMC",07-05-2024 07:00:00,21.170046,72.795405,PM10,4,24,13
India,Gujarat,Vatva,"Phase-4 GIDC, Vatva - GPCB",07-05-2024 07:00:00,22.969611,72.643500,PM10,93,93,93
India,Gujarat,Vatva,"Phase-4 GIDC, Vatva - GPCB",07-05-2024 07:00:00,22.969611,72.643500,NO2,21,66,39
India,Gujarat,Vatva,"Phase-4 GIDC, Vatva - GPCB",07-05-2024 07:00:00,22.969611,72.643500,SO2,3,50,16
India,Haryana,Ballabgarh,"Nathu Colony, Ballabgarh - HSPCB",07-05-2024 07:00:00,28.3419248,77.319699,CO,12,120,65
India,Haryana,Charkhi Dadri,"Mini Secretariat, Charkhi Dadri - HSPCB",07-05-2024 07:00:00,28.593883,76.270653,NO2,15,26,18
India,Haryana,Charkhi Dadri,"Mini Secretariat, Charkhi Dadri - HSPCB",07-05-2024 07:00:00,28.593883,76.270653,CO,20,106,85
India,Haryana,Dharuhera,"Municipal Corporation Office, Dharuhera -  HSPCB",07-05-2024 07:00:00,28.206800,76.799700,NO2,47,110,82
India,Haryana,Dharuhera,"Municipal Corporation Office, Dharuhera -  HSPCB",07-05-2024 07:00:00,28.206800,76.799700,NH3,9,27,20
India,Haryana,Dharuhera,"Municipal Corporation Office, Dharuhera -  HSPCB",07-05-2024 07:00:00,28.206800,76.799700,OZONE,3,38,4
India,Haryana,Faridabad,"New Industrial Town, Faridabad - HSPCB",07-05-2024 07:00:00,28.39072,77.30059,PM2.5,3,500,288
India,Haryana,Faridabad,"Sector 11, Faridabad - HSPCB",07-05-2024 07:00:00,28.376058,77.315741,PM2.5,72,431,285
India,Haryana,Faridabad,"Sector 11, Faridabad - HSPCB",07-05-2024 07:00:00,28.376058,77.315741,PM10,123,496,318
India,Haryana,Faridabad,"Sector 11, Faridabad - HSPCB",07-05-2024 07:00:00,28.376058,77.315741,SO2,1,95,9
India,Haryana,Faridabad,"Sector 11, Faridabad - HSPCB",07-05-2024 07:00:00,28.376058,77.315741,OZONE,3,44,14
India,Haryana,Faridabad,"Sector 30, Faridabad - HSPCB",07-05-2024 07:00:00,28.4417,77.3217,OZONE,56,62,60
India,Haryana,Fatehabad,"Huda Sector, Fatehabad - HSPCB",07-05-2024 07:00:00,29.503664,75.467934,SO2,11,11,11
India,Haryana,Fatehabad,"Huda Sector, Fatehabad - HSPCB",07-05-2024 07:00:00,29.503664,75.467934,OZONE,55,74,67
India,Haryana,Gurugram,"NISE Gwal Pahari, Gurugram - IMD",07-05-2024 07:00:00,28.422681,77.148944,PM2.5,NA,NA,NA
India,Haryana,Gurugram,"Sector-51, Gurugram - HSPCB",07-05-2024 07:00:00,28.4227,77.0667,PM10,111,500,302
India,Haryana,Gurugram,"Teri Gram, Gurugram - HSPCB",07-05-2024 07:00:00,28.4275,77.1465,PM10,179,366,244
India,Haryana,Gurugram,"Teri Gram, Gurugram - HSPCB",07-05-2024 07:00:00,28.4275,77.1465,NH3,24,39,33
India,Haryana,Gurugram,"Vikas Sadan, Gurugram - HSPCB",07-05-2024 07:00:00,28.4501238,77.0263051,NO2,5,24,14
India,Haryana,Gurugram,"Vikas Sadan, Gurugram - HSPCB",07-05-2024 07:00:00,28.4501238,77.0263051,SO2,28,59,39
India,Haryana,Hisar,"Urban Estate-II, Hisar - HSPCB",07-05-2024 07:00:00,29.140560,75.744941,PM10,103,169,132
India,Haryana,Jind,"Police Lines, Jind - HSPCB",07-05-2024 07:00:00,29.307814,76.337619,OZONE,3,34,11
India,Haryana,Kaithal,"Rishi Nagar, Kaithal - HSPCB",07-05-2024 07:00:00,29.8006,76.4155,SO2,18,119,45
India,Haryana,Karnal,"Sector-12, Karnal - HSPCB",07-05-2024 07:00:00,29.695300,77.002700,PM10,84,138,110
India,Haryana,Karnal,"Sector-12, Karnal - HSPCB",07-05-2024 07:00:00,29.695300,77.002700,NH3,10,13,11
India,Haryana,Kurukshetra,"Sector-7, Kurukshetra - HSPCB",07-05-2024 07:00:00,29.966942,76.875879,NH3,4,5,5
India,Haryana,Kurukshetra,"Sector-7, Kurukshetra - HSPCB",07-05-2024 07:00:00,29.966942,76.875879,SO2,2,3,2
India,Haryana,Manesar,"Sector-2 IMT, Manesar - HSPCB",07-05-2024 07:00:00,28.360699,76.936090,PM2.5,33,350,290
India,Haryana,Manesar,"Sector-2 IMT, Manesar - HSPCB",07-05-2024 07:00:00,28.360699,76.936090,SO2,6,50,14
India,Haryana,Manesar,"Sector-2 IMT, Manesar - HSPCB",07-05-2024 07:00:00,28.360699,76.936090,OZONE,1,89,3
India,Haryana,Palwal,"Shyam Nagar, Palwal - HSPCB",07-05-2024 07:00:00,28.1485564,77.3320667,PM10,117,154,136
India,Haryana,Palwal,"Shyam Nagar, Palwal - HSPCB",07-05-2024 07:00:00,28.1485564,77.3320667,NH3,8,9,9
India,Haryana,Palwal,"Shyam Nagar, Palwal - HSPCB",07-05-2024 07:00:00,28.1485564,77.3320667,CO,14,40,35
India,Haryana,Palwal,"Shyam Nagar, Palwal - HSPCB",07-05-2024 07:00:00,28.1485564,77.3320667,OZONE,6,55,9
India,Haryana,Panipat,"Sector-18, Panipat - HSPCB",07-05-2024 07:00:00,29.497973,76.993331,CO,24,26,25
India,Haryana,Rohtak,"MD University, Rohtak - HSPCB",07-05-2024 07:00:00,28.52123,76.37138,OZONE,43,56,48
India,Haryana,Yamuna Nagar,"Gobind Pura, Yamuna Nagar - HSPCB",07-05-2024 07:00:00,30.1480566,77.2893471,PM2.5,77,227,109
India,Haryana,Yamuna Nagar,"Gobind Pura, Yamuna Nagar - HSPCB",07-05-2024 07:00:00,30.1480566,77.2893471,PM10,102,178,124
India,Haryana,Yamuna Nagar,"Gobind Pura, Yamuna Nagar - HSPCB",07-05-2024 07:00:00,30.1480566,77.2893471,NO2,11,29,18
India,Haryana,Yamuna Nagar,"Gobind Pura, Yamuna Nagar - HSPCB",07-05-2024 07:00:00,30.1480566,77.2893471,OZONE,16,46,19
India,Himachal Pradesh,Baddi,"HIMUDA Complex Phase-1, Baddi - HPPCB",07-05-2024 07:00:00,30.943887,76.801991,NO2,6,42,13
India,Jammu_and_Kashmir,Srinagar,"Rajbagh, Srinagar - JKSPCB",07-05-2024 07:00:00,34.066206,74.819820,PM10,NA,NA,NA
India,Jammu_and_Kashmir,Srinagar,"Rajbagh, Srinagar - JKSPCB",07-05-2024 07:00:00,34.066206,74.819820,CO,19,24,21
India,Jharkhand,Dhanbad,"Kalakusuma, Dhanbad - DMC",07-05-2024 07:00:00,23.811548,86.481238,SO2,9,46,19
India,Jharkhand,Dhanbad,"Kalakusuma, Dhanbad - DMC",07-05-2024 07:00:00,23.811548,86.481238,CO,128,134,130
India,Karnataka,Bagalkot,"Vidayagiri, Bagalkot - KSPCB",07-05-2024 07:00:00,16.172806,75.659694,NO2,9,10,9
India,Karnataka,Bagalkot,"Vidayagiri, Bagalkot - KSPCB",07-05-2024 07:00:00,16.172806,75.659694,OZONE,8,44,13
India,Karnataka,Belgaum,"Ramteerth Nagar, Belgaum - KSPCB",07-05-2024 07:00:00,15.888653,74.541751,SO2,8,9,8
India,Karnataka,Bengaluru,"Bapuji Nagar, Bengaluru - KSPCB",07-05-2024 07:00:00,12.951913,77.539784,NH3,1,1,1
India,Karnataka,Bengaluru,"Hebbal, Bengaluru - KSPCB",07-05-2024 07:00:00,13.029152,77.585901,NO2,5,5,5
India,Karnataka,Bengaluru,"Hombegowda Nagar, Bengaluru - KSPCB",07-05-2024 07:00:00,12.938539,77.590100,PM10,14,127,64
India,Karnataka,Bengaluru,"Hombegowda Nagar, Bengaluru - KSPCB",07-05-2024 07:00:00,12.938539,77.590100,OZONE,28,89,57
India,Karnataka,Bengaluru,"Jayanagar 5th Block, Bengaluru - KSPCB",07-05-2024 07:00:00,12.920984,77.584908,PM10,18,141,76
India,Karnataka,Bengaluru,"Kasturi Nagar, Bengaluru - KSPCB",07-05-2024 07:00:00,13.003872,77.664217,OZONE,14,160,52
India,Karnataka,Bengaluru,"Peenya, Bengaluru - CPCB",07-05-2024 07:00:00,13.0270199,77.494094,PM2.5,33,60,45
India,Karnataka,Bengaluru,"Peenya, Bengaluru - CPCB",07-05-2024 07:00:00,13.0270199,77.494094,PM10,43,76,58
India,Karnataka,Bengaluru,"RVCE-Mailasandra, Bengaluru - KSPCB",07-05-2024 07:00:00,12.921418,77.502466,SO2,7,20,9
India,Karnataka,Bengaluru,"Shivapura_Peenya, Bengaluru - KSPCB",07-05-2024 07:00:00,13.0246342,77.5080115,PM2.5,3,154,55
India,Karnataka,Bengaluru,"Shivapura_Peenya, Bengaluru - KSPCB",07-05-2024 07:00:00,13.0246342,77.5080115,PM10,41,117,70
India,Karnataka,Bengaluru,"Shivapura_Peenya, Bengaluru - KSPCB",07-05-2024 07:00:00,13.0246342,77.5080115,SO2,3,14,9
India,Karnataka,Bengaluru,"Shivapura_Peenya, Bengaluru - KSPCB",07-05-2024 07:00:00,13.0246342,77.5080115,OZONE,53,56,55
India,Karnataka,Chamarajanagar,"Urban, Chamarajanagar - KSPCB",07-05-2024 07:00:00,11.55358,76.55521,CO,22,121,45
India,Karnataka,Chamarajanagar,"Urban, Chamarajanagar - KSPCB",07-05-2024 07:00:00,11.55358,76.55521,OZONE,28,37,35
India,Karnataka,Chikkaballapur,"Chikkaballapur Rural, Chikkaballapur - KSPCB",07-05-2024 07:00:00,13.428828,77.731418,PM2.5,22,83,52
India,Karnataka,Chikkaballapur,"Chikkaballapur Rural, Chikkaballapur - KSPCB",07-05-2024 07:00:00,13.428828,77.731418,SO2,13,28,20
India,Karnataka,Chikkaballapur,"Chikkaballapur Rural, Chikkaballapur - KSPCB",07-05-2024 07:00:00,13.428828,77.731418,CO,12,20,14
India,Karnataka,Chikkaballapur,"Chikkaballapur Rural, Chikkaballapur - KSPCB",07-05-2024 07:00:00,13.428828,77.731418,OZONE,24,25,25
India,Karnataka,Chikkamagaluru,"Kalyana Nagara, Chikkamagaluru - KSPCB",07-05-2024 07:00:00,13.328028,75.797056,NO2,15,28,21
India,Karnataka,Davanagere,"Devaraj Urs Badavane, Davanagere - KSPCB",07-05-2024 07:00:00,14.475800,75.905200,PM10,38,112,70
India,Karnataka,Davanagere,"Devaraj Urs Badavane, Davanagere - KSPCB",07-05-2024 07:00:00,14.475800,75.905200,NO2,11,16,13
India,Karnataka,Davanagere,"Devaraj Urs Badavane, Davanagere - KSPCB",07-05-2024 07:00:00,14.475800,75.905200,NH3,1,2,2
India,Karnataka,Davanagere,"Devaraj Urs Badavane, Davanagere - KSPCB",07-05-2024 07:00:00,14.475800,75.905200,CO,16,24,20
India,Karnataka,Davanagere,"Devaraj Urs Badavane, Davanagere - KSPCB",07-05-2024 07:00:00,14.475800,75.905200,OZONE,19,21,19
India,Karnataka,Gadag,"Panchal Nagar, Gadag - KSPCB",07-05-2024 07:00:00,15.411456,75.638133,PM2.5,4,42,20
India,Karnataka,Gadag,"Panchal Nagar, Gadag - KSPCB",07-05-2024 07:00:00,15.411456,75.638133,NO2,4,27,14
India,Karnataka,Gadag,"Panchal Nagar, Gadag - KSPCB",07-05-2024 07:00:00,15.411456,75.638133,NH3,1,4,2
India,Karnataka,Gadag,"Panchal Nagar, Gadag - KSPCB",07-05-2024 07:00:00,15.411456,75.638133,CO,41,51,45
India,Karnataka,Hassan,"B.Katihalli, Hassan - KSPCB",07-05-2024 07:00:00,13.008556,76.125258,NH3,NA,NA,NA
India,Karnataka,Hassan,"B.Katihalli, Hassan - KSPCB",07-05-2024 07:00:00,13.008556,76.125258,SO2,NA,NA,NA
India,Karnataka,Haveri,"Ashwini Nagar, Haveri - KSPCB",07-05-2024 07:00:00,14.791800,75.389600,NH3,3,4,3
India,Karnataka,Hubballi,"Deshpande Nagar, Hubballi - KSPCB",07-05-2024 07:00:00,15.351773,75.140726,CO,NA,NA,NA
India,Karnataka,Hubballi,"Lingaraj Nagar, Hubballi - KSPCB",07-05-2024 07:00:00,15.3714823,75.1160168,PM10,60,77,67
India,Karnataka,Kalaburagi,"Lal Bahadur Shastri Nagar, Kalaburagi - KSPCB",07-05-2024 07:00:00,17.321993,76.822628,NO2,11,12,11
India,Karnataka,Kalaburagi,"Lal Bahadur Shastri Nagar, Kalaburagi - KSPCB",07-05-2024 07:00:00,17.321993,76.822628,OZONE,15,70,38
India,Karnataka,Kalaburagi,"Mahatma Basaveswar Colony, Kalaburgi - KSPCB",07-05-2024 07:00:00,17.336318,76.847397,PM2.5,19,75,40
India,Karnataka,Kalaburagi,"Mahatma Basaveswar Colony, Kalaburgi - KSPCB",07-05-2024 07:00:00,17.336318,76.847397,NO2,12,19,15
India,Karnataka,Kalaburagi,"Mahatma Basaveswar Colony, Kalaburgi - KSPCB",07-05-2024 07:00:00,17.336318,76.847397,NH3,3,4,3
India,Karnataka,Karwar,"KHB Colony, Karwar - KSPCB",07-05-2024 07:00:00,14.816666,74.141003,NH3,1,6,1
India,Karnataka,Karwar,"KHB Colony, Karwar - KSPCB",07-05-2024 07:00:00,14.816666,74.141003,OZONE,21,22,22
India,Karnataka,Kolar,"Tamaka Ind. Area, Kolar - KSPCB",07-05-2024 07:00:00,13.1276288,78.1570122,PM2.5,NA,NA,NA
India,Karnataka,Koppal,"Diwator Nagar, Koppal - KSPCB",07-05-2024 07:00:00,15.347630,76.181767,PM2.5,18,56,31
India,Karnataka,Koppal,"Diwator Nagar, Koppal - KSPCB",07-05-2024 07:00:00,15.347630,76.181767,SO2,28,28,28
India,Karnataka,Madikeri,"Stuart Hill, Madikeri - KSPCB",07-05-2024 07:00:00,12.415911,75.735050,PM2.5,15,40,29
India,Karnataka,Madikeri,"Stuart Hill, Madikeri - KSPCB",07-05-2024 07:00:00,12.415911,75.735050,SO2,4,4,4
India,Karnataka,Madikeri,"Stuart Hill, Madikeri - KSPCB",07-05-2024 07:00:00,12.415911,75.735050,OZONE,20,35,24
India,Karnataka,Mangalore,"Kadri, Mangalore - KSPCB",07-05-2024 07:00:00,12.889250,74.853000,PM10,33,53,43
India,Karnataka,Mysuru,"Hebbal 1st Stage, Mysuru - KSPCB",07-05-2024 07:00:00,12.21041,76.37376,CO,7,32,12
India,Karnataka,Raichur,"Haji Colony, Raichur - KSPCB",07-05-2024 07:00:00,16.208139,77.348417,SO2,77,96,86
