country,state,city,station,last_update,latitude,longitude,pollutant_id,pollutant_min,pollutant_max,pollutant_avg
India,Andhra_Pradesh,Chittoor,"Gangineni Cheruvu, Chittoor - APPCB",30-04-2024 03:00:00,13.204880,79.097889,SO2,5,17,8
India,Andhra_Pradesh,Chittoor,"Gangineni Cheruvu, Chittoor - APPCB",30-04-2024 03:00:00,13.204880,79.097889,CO,27,64,47
India,Andhra_Pradesh,Kadapa,"Yerramukkapalli, Kadapa - APPCB",30-04-2024 03:00:00,14.465052,78.824187,NO2,NA,NA,NA
India,Andhra_Pradesh,Kadapa,"Yerramukkapalli, Kadapa - APPCB",30-04-2024 03:00:00,14.465052,78.824187,CO,5,26,10
India,Andhra_Pradesh,Rajamahendravaram,"Anand Kala Kshetram, Rajamahendravaram - APPCB",30-04-2024 03:00:00,16.9872867,81.7363176,PM2.5,2,15,8
India,Andhra_Pradesh,Rajamahendravaram,"Anand Kala Kshetram, Rajamahendravaram - APPCB",30-04-2024 03:00:00,16.9872867,81.7363176,NH3,4,4,4
India,Andhra_Pradesh,Tirupati,"Tirumala, Tirupati - APPCB",30-04-2024 03:00:00,13.67,79.35,PM10,13,106,48
India,Andhra_Pradesh,Tirupati,"Tirumala, Tirupati - APPCB",30-04-2024 03:00:00,13.67,79.35,SO2,5,37,13
India,Andhra_Pradesh,Vijayawada,"HB Colony, Vijayawada - APPCB",30-04-2024 03:00:00,16.536107,80.594233,PM2.5,38,42,39
India,Andhra_Pradesh,Vijayawada,"HB Colony, Vijayawada - APPCB",30-04-2024 03:00:00,16.536107,80.594233,PM10,43,54,47
India,Andhra_Pradesh,Vijayawada,"Kanuru, Vijayawada - APPCB",30-04-2024 03:00:00,16.486692,80.699436,CO,22,22,22
India,Andhra_Pradesh,Vijayawada,"Rajiv Gandhi Park, Vijayawada - APPCB",30-04-2024 03:00:00,16.509717,80.612222,PM2.5,35,91,57
India,Andhra_Pradesh,Vijayawada,"Rajiv Gandhi Park, Vijayawada - APPCB",30-04-2024 03:00:00,16.509717,80.612222,NH3,1,3,2
India,Andhra_Pradesh,Vijayawada,"Rajiv Nagar, Vijayawada - APPCB",30-04-2024 03:00:00,16.554731,80.649110,SO2,NA,NA,NA
India,Andhra_Pradesh,Vijayawada,"Rajiv Nagar, Vijayawada - APPCB",30-04-2024 03:00:00,16.554731,80.649110,CO,40,40,40
India,Andhra_Pradesh,Visakhapatnam,"GVM Corporation, Visakhapatnam - APPCB",30-04-2024 03:00:00,17.72,83.3,PM2.5,12,79,44
India,Andhra_Pradesh,Visakhapatnam,"GVM Corporation, Visakhapatnam - APPCB",30-04-2024 03:00:00,17.72,83.3,PM10,53,202,101
India,Andhra_Pradesh,Visakhapatnam,"GVM Corporation, Visakhapatnam - APPCB",30-04-2024 03:00:00,17.72,83.3,CO,2,56,39
India,Andhra_Pradesh,Visakhapatnam,"GVM Corporation, Visakhapatnam - APPCB",30-04-2024 03:00:00,17.72,83.3,OZONE,4,66,13
India,Assam,Byrnihat,"Central Academy for SFS, Byrnihat - PCBA",30-04-2024 03:00:00,26.071318,91.87488,OZONE,23,123,23
India,Assam,Guwahati,"IITG, Guwahati - PCBA",30-04-2024 03:00:00,26.2028636,91.70046436,SO2,11,13,12
India,Assam,Guwahati,"LGBI Airport, Guwahati - PCBA",30-04-2024 03:00:00,26.10887,91.589544,PM10,24,197,82
India,Assam,Guwahati,"LGBI Airport, Guwahati - PCBA",30-04-2024 03:00:00,26.10887,91.589544,OZONE,4,20,9
India,Assam,Guwahati,"Pan Bazaar, Guwahati - PCBA",30-04-2024 03:00:00,26.187500,91.744194,PM10,17,82,49
India,Assam,Guwahati,"Pan Bazaar, Guwahati - PCBA",30-04-2024 03:00:00,26.187500,91.744194,NH3,2,4,3
India,Assam,Guwahati,"Pan Bazaar, Guwahati - PCBA",30-04-2024 03:00:00,26.187500,91.744194,CO,21,30,24
India,Assam,Guwahati,"Railway Colony, Guwahati - PCBA",30-04-2024 03:00:00,26.181742,91.78063,SO2,10,17,13
India,Assam,Nalbari,"Bata Chowk, Nalbari - PCBA",30-04-2024 03:00:00,26.446912,91.439057,PM2.5,20,160,46
India,Assam,Silchar,"Tarapur, Silchar - PCBA",30-04-2024 03:00:00,24.82827,92.79525,PM10,43,79,63
India,Assam,Silchar,"Tarapur, Silchar - PCBA",30-04-2024 03:00:00,24.82827,92.79525,NO2,12,13,13
India,Assam,Silchar,"Tarapur, Silchar - PCBA",30-04-2024 03:00:00,24.82827,92.79525,NH3,1,1,1
India,Assam,Silchar,"Tarapur, Silchar - PCBA",30-04-2024 03:00:00,24.82827,92.79525,OZONE,1,18,2
India,Assam,Sivasagar,"Girls College, Sivasagar - PCBA",30-04-2024 03:00:00,26.987634,94.636574,PM10,39,67,52
India,Assam,Sivasagar,"Girls College, Sivasagar - PCBA",30-04-2024 03:00:00,26.987634,94.636574,NO2,9,15,12
India,Assam,Sivasagar,"Girls College, Sivasagar - PCBA",30-04-2024 03:00:00,26.987634,94.636574,NH3,1,1,1
India,Bihar,Araria,"Kharahiya Basti, Araria - BSPCB",30-04-2024 03:00:00,26.146529,87.454184,NH3,6,7,7
India,Bihar,Araria,"Kharahiya Basti, Araria - BSPCB",30-04-2024 03:00:00,26.146529,87.454184,OZONE,8,10,8
India,Bihar,Arrah,"New DM Office, Arrah - BSPCB",30-04-2024 03:00:00,25.5626095,84.663264,NO2,7,41,15
India,Bihar,Arrah,"New DM Office, Arrah - BSPCB",30-04-2024 03:00:00,25.5626095,84.663264,CO,3,14,9
India,Bihar,Aurangabad,"Gurdeo Nagar, Aurangabad - BSPCB",30-04-2024 03:00:00,24.75746,84.366208,PM2.5,NA,NA,NA
India,Bihar,Bettiah,"Kamalnath Nagar, Bettiah - BSPCB",30-04-2024 03:00:00,26.80365,84.51954,PM2.5,82,321,161
India,Bihar,Bhagalpur,"DM Office_Kachari Chowk, Bhagalpur - BSPCB",30-04-2024 03:00:00,25.251013,86.989001,PM2.5,63,183,90
India,Bihar,Bhagalpur,"Mayaganj, Bhagalpur - BSPCB",30-04-2024 03:00:00,25.265194,87.012947,OZONE,22,132,60
India,Bihar,Bihar Sharif,"D M Colony, Bihar Sharif - BSPCB",30-04-2024 03:00:00,25.204762,85.514960,PM10,63,113,90
India,Bihar,Buxar,"Charitra Van, Buxar - BSPCB (Formerly known as Central Jail)",30-04-2024 03:00:00,25.567520,83.966379,PM10,NA,NA,NA
India,Bihar,Buxar,"Charitra Van, Buxar - BSPCB (Formerly known as Central Jail)",30-04-2024 03:00:00,25.567520,83.966379,CO,40,106,90
India,Bihar,Buxar,"Charitra Van, Buxar - BSPCB (Formerly known as Central Jail)",30-04-2024 03:00:00,25.567520,83.966379,OZONE,4,246,59
India,Bihar,Chhapra,"Darshan Nagar, Chhapra - BSPCB",30-04-2024 03:00:00,25.7808257,84.7446768,PM10,104,167,132
India,Bihar,Chhapra,"Darshan Nagar, Chhapra - BSPCB",30-04-2024 03:00:00,25.7808257,84.7446768,OZONE,1,6,1
India,Bihar,Gaya,"Collectorate, Gaya - BSPCB",30-04-2024 03:00:00,24.7955,84.9994,NO2,1,3,2
India,Bihar,Gaya,"Collectorate, Gaya - BSPCB",30-04-2024 03:00:00,24.7955,84.9994,SO2,7,29,17
India,Bihar,Gaya,"Kareemganj, Gaya - BSPCB",30-04-2024 03:00:00,24.792403,84.992416,NO2,30,31,30
India,Bihar,Gaya,"SFTI Kusdihra, Gaya - BSPCB",30-04-2024 03:00:00,24.762518,84.982348,PM2.5,16,321,82
India,Bihar,Gaya,"SFTI Kusdihra, Gaya - BSPCB",30-04-2024 03:00:00,24.762518,84.982348,CO,10,58,36
India,Bihar,Hajipur,"Industrial Area, Hajipur - BSPCB",30-04-2024 03:00:00,25.697189,85.245900,SO2,5,8,6
India,Bihar,Hajipur,"Industrial Area, Hajipur - BSPCB",30-04-2024 03:00:00,25.697189,85.245900,OZONE,17,94,41
India,Bihar,Katihar,"Mirchaibari, Katihar - BSPCB",30-04-2024 03:00:00,25.560083,87.553265,NH3,1,11,7
India,Bihar,Katihar,"Mirchaibari, Katihar - BSPCB",30-04-2024 03:00:00,25.560083,87.553265,SO2,16,24,20
India,Bihar,Katihar,"Mirchaibari, Katihar - BSPCB",30-04-2024 03:00:00,25.560083,87.553265,CO,44,68,60
India,Bihar,Manguraha,"Forest Rest House, Manguraha - BSPCB",30-04-2024 03:00:00,27.308328,84.531742,CO,2,103,92
India,Bihar,Manguraha,"Forest Rest House, Manguraha - BSPCB",30-04-2024 03:00:00,27.308328,84.531742,OZONE,24,156,33
India,Bihar,Motihari,"Gandak Colony, Motihari - BSPCB",30-04-2024 03:00:00,26.63086,84.90051,PM10,24,170,64
India,Bihar,Motihari,"Gandak Colony, Motihari - BSPCB",30-04-2024 03:00:00,26.63086,84.90051,NO2,41,120,80
India,Bihar,Motihari,"Gandak Colony, Motihari - BSPCB",30-04-2024 03:00:00,26.63086,84.90051,NH3,7,20,13
India,Bihar,Munger,"Town Hall, Munger - BSPCB",30-04-2024 03:00:00,25.376776,86.471523,NH3,2,3,3
India,Bihar,Munger,"Town Hall, Munger - BSPCB",30-04-2024 03:00:00,25.376776,86.471523,SO2,19,35,27
India,Bihar,Munger,"Town Hall, Munger - BSPCB",30-04-2024 03:00:00,25.376776,86.471523,OZONE,26,163,34
India,Bihar,Muzaffarpur,"Buddha Colony, Muzaffarpur - BSPCB",30-04-2024 03:00:00,26.11442,85.39813,NO2,28,55,37
India,Bihar,Muzaffarpur,"Buddha Colony, Muzaffarpur - BSPCB",30-04-2024 03:00:00,26.11442,85.39813,NH3,14,20,17
India,Bihar,Patna,"DRM Office Danapur, Patna - BSPCB",30-04-2024 03:00:00,25.586562,85.043586,PM2.5,NA,NA,NA
India,Bihar,Patna,"DRM Office Danapur, Patna - BSPCB",30-04-2024 03:00:00,25.586562,85.043586,NH3,2,3,3
India,Bihar,Patna,"DRM Office Danapur, Patna - BSPCB",30-04-2024 03:00:00,25.586562,85.043586,CO,13,48,41
India,Bihar,Patna,"Govt. High School Shikarpur, Patna - BSPCB",30-04-2024 03:00:00,25.592539,85.227158,PM2.5,209,311,274
India,Bihar,Patna,"Govt. High School Shikarpur, Patna - BSPCB",30-04-2024 03:00:00,25.592539,85.227158,NO2,16,22,19
India,Bihar,Patna,"Govt. High School Shikarpur, Patna - BSPCB",30-04-2024 03:00:00,25.592539,85.227158,SO2,8,12,10
India,Bihar,Patna,"IGSC Planetarium Complex, Patna - BSPCB",30-04-2024 03:00:00,25.610369,85.132568,CO,12,13,12
India,Bihar,Patna,"Muradpur, Patna - BSPCB",30-04-2024 03:00:00,25.619651,85.147382,PM2.5,257,356,309
India,Bihar,Patna,"Muradpur, Patna - BSPCB",30-04-2024 03:00:00,25.619651,85.147382,NO2,10,110,39
India,Bihar,Patna,"Muradpur, Patna - BSPCB",30-04-2024 03:00:00,25.619651,85.147382,NH3,1,4,2
India,Bihar,Patna,"Muradpur, Patna - BSPCB",30-04-2024 03:00:00,25.619651,85.147382,OZONE,8,83,34
India,Bihar,Patna,"Rajbansi Nagar, Patna - BSPCB",30-04-2024 03:00:00,25.599486,85.113666,PM2.5,80,242,157
India,Bihar,Patna,"Rajbansi Nagar, Patna - BSPCB",30-04-2024 03:00:00,25.599486,85.113666,CO,26,91,55
India,Bihar,Patna,"Samanpura, Patna - BSPCB",30-04-2024 03:00:00,25.596727,85.085624,PM2.5,46,492,265
India,Bihar,Patna,"Samanpura, Patna - BSPCB",30-04-2024 03:00:00,25.596727,85.085624,CO,34,122,87
India,Bihar,Samastipur,"DM Office_Kasipur, Samastipur - BSPCB",30-04-2024 03:00:00,25.859655,85.77944,NO2,1,10,5
India,Bihar,Samastipur,"DM Office_Kasipur, Samastipur - BSPCB",30-04-2024 03:00:00,25.859655,85.77944,NH3,2,4,3
India,Chandigarh,Chandigarh,"Sector 22, Chandigarh - CPCC",30-04-2024 03:00:00,30.735567,76.775714,CO,28,46,38
India,Chandigarh,Chandigarh,"Sector-25, Chandigarh - CPCC",30-04-2024 03:00:00,30.751462,76.762879,PM10,NA,NA,NA
India,Chandigarh,Chandigarh,"Sector-25, Chandigarh - CPCC",30-04-2024 03:00:00,30.751462,76.762879,CO,10,29,19
India,Chandigarh,Chandigarh,"Sector-53, Chandigarh - CPCC",30-04-2024 03:00:00,30.719859,76.738637,NO2,12,64,23
India,Chandigarh,Chandigarh,"Sector-53, Chandigarh - CPCC",30-04-2024 03:00:00,30.719859,76.738637,OZONE,14,48,31
India,Chhattisgarh,Bhilai,"32Bungalows, Bhilai - CECB",30-04-2024 03:00:00,21.194815,81.314770,PM2.5,46,67,58
India,Chhattisgarh,Bhilai,"32Bungalows, Bhilai - CECB",30-04-2024 03:00:00,21.194815,81.314770,OZONE,5,61,26
India,Chhattisgarh,Bhilai,"Civic Center, Bhilai - Bhilai Steel Plant",30-04-2024 03:00:00,21.185571,81.343175,NO2,11,20,14
India,Chhattisgarh,Bhilai,"Civic Center, Bhilai - Bhilai Steel Plant",30-04-2024 03:00:00,21.185571,81.343175,SO2,8,41,12
India,Chhattisgarh,Bhilai,"Hathkhoj, Bhilai - CECB",30-04-2024 03:00:00,21.224231,81.408350,CO,12,52,38
India,Chhattisgarh,Bilaspur,"Mangala, Bilaspur - NTPC",30-04-2024 03:00:00,22.08815,82.13737,NO2,NA,NA,NA
India,Chhattisgarh,Bilaspur,"Mangala, Bilaspur - NTPC",30-04-2024 03:00:00,22.08815,82.13737,CO,30,108,32
India,Chhattisgarh,Chhal,"Nawapara SECL Colony, Chhal - CECB",30-04-2024 03:00:00,22.118125,83.140608,PM2.5,37,182,79
India,Chhattisgarh,Chhal,"Nawapara SECL Colony, Chhal - CECB",30-04-2024 03:00:00,22.118125,83.140608,NO2,1,8,3
India,Chhattisgarh,Korba,"Rampur, Korba - CECB",30-04-2024 03:00:00,22.368195,82.746431,CO,16,36,29
India,Chhattisgarh,Korba,"Urja Nagar, Korba - CECB",30-04-2024 03:00:00,22.348441,82.549611,NH3,2,17,7
India,Chhattisgarh,Korba,"Urja Nagar, Korba - CECB",30-04-2024 03:00:00,22.348441,82.549611,CO,32,127,38
India,Chhattisgarh,Kunjemura,"OP Jindal School, Kunjemura - CECB",30-04-2024 03:00:00,22.126650,83.483212,PM2.5,NA,NA,NA
India,Chhattisgarh,Kunjemura,"OP Jindal School, Kunjemura - CECB",30-04-2024 03:00:00,22.126650,83.483212,NO2,NA,NA,NA
India,Chhattisgarh,Kunjemura,"OP Jindal School, Kunjemura - CECB",30-04-2024 03:00:00,22.126650,83.483212,OZONE,4,73,24
India,Chhattisgarh,Milupara,"Govt. Higher Secondary School, Milupara - CECB",30-04-2024 03:00:00,22.1910172,83.5197009,PM2.5,NA,NA,NA
India,Chhattisgarh,Milupara,"Govt. Higher Secondary School, Milupara - CECB",30-04-2024 03:00:00,22.1910172,83.5197009,NO2,NA,NA,NA
India,Chhattisgarh,Raipur,"AIIMS, Raipur - CECB",30-04-2024 03:00:00,21.258815,81.578979,PM2.5,NA,NA,NA
India,Chhattisgarh,Raipur,"AIIMS, Raipur - CECB",30-04-2024 03:00:00,21.258815,81.578979,CO,26,40,31
India,Chhattisgarh,Raipur,"Siltara Phase-II, Raipur - CECB",30-04-2024 03:00:00,21.371751,81.664929,PM2.5,37,180,79
India,Chhattisgarh,Raipur,"Siltara Phase-II, Raipur - CECB",30-04-2024 03:00:00,21.371751,81.664929,NH3,3,3,3
India,Delhi,Delhi,"Anand Vihar, Delhi - DPCC",30-04-2024 03:00:00,28.647622,77.3158090,NO2,37,136,89
India,Delhi,Delhi,"Aya Nagar, Delhi - IMD",30-04-2024 03:00:00,28.4706914,77.1099364,OZONE,4,102,26
India,Delhi,Delhi,"Bawana, Delhi - DPCC",30-04-2024 03:00:00,28.776200,77.051074,NO2,16,67,33
India,Delhi,Delhi,"Bawana, Delhi - DPCC",30-04-2024 03:00:00,28.776200,77.051074,SO2,9,56,25
India,Delhi,Delhi,"DTU, Delhi - CPCB",30-04-2024 03:00:00,28.7500499,77.1112615,PM10,121,358,192
India,Delhi,Delhi,"DTU, Delhi - CPCB",30-04-2024 03:00:00,28.7500499,77.1112615,SO2,34,42,38
India,Delhi,Delhi,"Dr. Karni Singh Shooting Range, Delhi - DPCC",30-04-2024 03:00:00,28.498571,77.264840,PM2.5,42,306,148
India,Delhi,Delhi,"Dr. Karni Singh Shooting Range, Delhi - DPCC",30-04-2024 03:00:00,28.498571,77.264840,PM10,119,417,215
India,Delhi,Delhi,"Dr. Karni Singh Shooting Range, Delhi - DPCC",30-04-2024 03:00:00,28.498571,77.264840,OZONE,1,171,68
India,Delhi,Delhi,"Dwarka-Sector 8, Delhi - DPCC ",30-04-2024 03:00:00,28.5710274,77.0719006,NH3,3,4,3
India,Delhi,Delhi,"Dwarka-Sector 8, Delhi - DPCC ",30-04-2024 03:00:00,28.5710274,77.0719006,CO,40,106,51
India,Delhi,Delhi,"ITO, Delhi - CPCB",30-04-2024 03:00:00,28.628624,77.241060,PM2.5,59,330,132
India,Delhi,Delhi,"Jahangirpuri, Delhi - DPCC",30-04-2024 03:00:00,28.732820,77.170633,PM2.5,47,346,146
India,Delhi,Delhi,"Jahangirpuri, Delhi - DPCC",30-04-2024 03:00:00,28.732820,77.170633,NH3,5,9,8
India,Delhi,Delhi,"Jawaharlal Nehru Stadium, Delhi - DPCC",30-04-2024 03:00:00,28.580280,77.233829,NO2,39,178,79
India,Delhi,Delhi,"Lodhi Road, Delhi - IITM",30-04-2024 03:00:00,28.588333,77.221667,OZONE,NA,NA,NA
India,Delhi,Delhi,"NSIT Dwarka, Delhi - CPCB",30-04-2024 03:00:00,28.60909,77.0325413,PM10,173,441,261
India,Delhi,Delhi,"NSIT Dwarka, Delhi - CPCB",30-04-2024 03:00:00,28.60909,77.0325413,CO,26,50,39
India,Delhi,Delhi,"Narela, Delhi - DPCC",30-04-2024 03:00:00,28.822836,77.101981,CO,17,57,39
India,Delhi,Delhi,"North Campus, DU, Delhi - IMD",30-04-2024 03:00:00,28.6573814,77.1585447,PM2.5,NA,NA,NA
India,Delhi,Delhi,"North Campus, DU, Delhi - IMD",30-04-2024 03:00:00,28.6573814,77.1585447,PM10,NA,NA,NA
India,Delhi,Delhi,"Patparganj, Delhi - DPCC",30-04-2024 03:00:00,28.623763,77.287209,SO2,4,7,5
India,Delhi,Delhi,"Punjabi Bagh, Delhi - DPCC",30-04-2024 03:00:00,28.674045,77.131023,NH3,3,5,4
India,Delhi,Delhi,"Pusa, Delhi - IMD",30-04-2024 03:00:00,28.636110,77.173332,OZONE,15,68,27
India,Delhi,Delhi,"Rohini, Delhi - DPCC",30-04-2024 03:00:00,28.732528,77.119920,PM2.5,41,323,130
India,Delhi,Delhi,"Rohini, Delhi - DPCC",30-04-2024 03:00:00,28.732528,77.119920,NH3,7,14,10
India,Delhi,Delhi,"Shadipur, Delhi - CPCB",30-04-2024 03:00:00,28.6514781,77.1473105,NO2,53,82,67
India,Delhi,Delhi,"Sirifort, Delhi - CPCB",30-04-2024 03:00:00,28.5504249,77.2159377,CO,12,103,19
India,Delhi,Delhi,"Sonia Vihar, Delhi - DPCC",30-04-2024 03:00:00,28.710508,77.249485,PM10,132,429,209
India,Delhi,Delhi,"Sonia Vihar, Delhi - DPCC",30-04-2024 03:00:00,28.710508,77.249485,CO,55,100,62
India,Delhi,Delhi,"Vivek Vihar, Delhi - DPCC",30-04-2024 03:00:00,28.672342,77.315260,NH3,15,16,16
India,Delhi,Delhi,"Wazirpur, Delhi - DPCC",30-04-2024 03:00:00,28.699793,77.165453,PM2.5,50,351,150
India,Delhi,Delhi,"Wazirpur, Delhi - DPCC",30-04-2024 03:00:00,28.699793,77.165453,CO,34,108,50
India,Gujarat,Ahmedabad,"Chandkheda, Ahmedabad - IITM",30-04-2024 03:00:00,23.107969,72.574648,PM2.5,69,321,124
India,Gujarat,Ahmedabad,"Chandkheda, Ahmedabad - IITM",30-04-2024 03:00:00,23.107969,72.574648,NO2,24,32,30
India,Gujarat,Ahmedabad,"Gyaspur, Ahmedabad - IITM",30-04-2024 03:00:00,22.977134,72.553024,NH3,2,16,8
India,Gujarat,Ahmedabad,"Gyaspur, Ahmedabad - IITM",30-04-2024 03:00:00,22.977134,72.553024,SO2,8,30,14
India,Gujarat,Ahmedabad,"Raikhad, Ahmedabad - IITM",30-04-2024 03:00:00,23.020509,72.579261,NH3,5,5,5
India,Gujarat,Ahmedabad,"Rakhial, Ahmedabad - IITM",30-04-2024 03:00:00,23.016834,72.625775,PM2.5,69,161,102
India,Gujarat,Ahmedabad,"Rakhial, Ahmedabad - IITM",30-04-2024 03:00:00,23.016834,72.625775,OZONE,4,39,16
India,Gujarat,Ahmedabad,"SVPI Airport Hansol, Ahmedabad - IITM",30-04-2024 03:00:00,23.076793,72.627874,NH3,NA,NA,NA
India,Gujarat,Ahmedabad,"SVPI Airport Hansol, Ahmedabad - IITM",30-04-2024 03:00:00,23.076793,72.627874,SO2,NA,NA,NA
India,Gujarat,Ahmedabad,"SVPI Airport Hansol, Ahmedabad - IITM",30-04-2024 03:00:00,23.076793,72.627874,CO,NA,NA,NA
India,Gujarat,Ahmedabad,"SVPI Airport Hansol, Ahmedabad - IITM",30-04-2024 03:00:00,23.076793,72.627874,OZONE,NA,NA,NA
India,Gujarat,Ahmedabad,"Sardar Vallabhbhai Patel Stadium, Ahmedabad - IITM",30-04-2024 03:00:00,23.043070,72.562968,PM10,67,111,86
India,Gujarat,Ahmedabad,"Sardar Vallabhbhai Patel Stadium, Ahmedabad - IITM",30-04-2024 03:00:00,23.043070,72.562968,CO,24,111,43
India,Gujarat,Gandhinagar,"Sector-10, Gandhinagar - GPCB",30-04-2024 03:00:00,23.221714,72.654328,NO2,6,194,30
India,Gujarat,Surat,"Science Center, Surat - SMC",30-04-2024 03:00:00,21.170046,72.795405,CO,8,52,35
India,Gujarat,Vapi,"Phase-1 GIDC, Vapi - GPCB",30-04-2024 03:00:00,20.362421,72.918013,PM2.5,37,153,62
India,Gujarat,Vapi,"Phase-1 GIDC, Vapi - GPCB",30-04-2024 03:00:00,20.362421,72.918013,NO2,6,7,6
India,Gujarat,Vatva,"Phase-4 GIDC, Vatva - GPCB",30-04-2024 03:00:00,22.969611,72.643500,PM2.5,19,55,33
India,Gujarat,Vatva,"Phase-4 GIDC, Vatva - GPCB",30-04-2024 03:00:00,22.969611,72.643500,NH3,8,13,10
India,Haryana,Bahadurgarh,"Arya Nagar, Bahadurgarh - HSPCB",30-04-2024 03:00:00,28.6701,76.9254,NH3,8,10,9
India,Haryana,Bahadurgarh,"Arya Nagar, Bahadurgarh - HSPCB",30-04-2024 03:00:00,28.6701,76.9254,OZONE,32,42,37
India,Haryana,Bhiwani,"H.B. Colony, Bhiwani - HSPCB",30-04-2024 03:00:00,28.806223,76.141105,OZONE,8,20,13
India,Haryana,Charkhi Dadri,"Mini Secretariat, Charkhi Dadri - HSPCB",30-04-2024 03:00:00,28.593883,76.270653,PM10,86,201,125
India,Haryana,Charkhi Dadri,"Mini Secretariat, Charkhi Dadri - HSPCB",30-04-2024 03:00:00,28.593883,76.270653,SO2,8,45,22
India,Haryana,Dharuhera,"Municipal Corporation Office, Dharuhera -  HSPCB",30-04-2024 03:00:00,28.206800,76.799700,NO2,45,113,75
India,Haryana,Faridabad,"New Industrial Town, Faridabad - HSPCB",30-04-2024 03:00:00,28.39072,77.30059,NO2,12,27,17
India,Haryana,Faridabad,"Sector 11, Faridabad - HSPCB",30-04-2024 03:00:00,28.376058,77.315741,NH3,6,6,6
India,Haryana,Faridabad,"Sector 30, Faridabad - HSPCB",30-04-2024 03:00:00,28.4417,77.3217,PM10,NA,NA,NA
India,Haryana,Fatehabad,"Huda Sector, Fatehabad - HSPCB",30-04-2024 03:00:00,29.503664,75.467934,SO2,11,11,11
India,Haryana,Fatehabad,"Huda Sector, Fatehabad - HSPCB",30-04-2024 03:00:00,29.503664,75.467934,OZONE,37,71,54
India,Haryana,Gurugram,"Teri Gram, Gurugram - HSPCB",30-04-2024 03:00:00,28.4275,77.1465,PM10,NA,NA,NA
India,Haryana,Gurugram,"Vikas Sadan, Gurugram - HSPCB",30-04-2024 03:00:00,28.4501238,77.0263051,PM2.5,53,500,214
India,Haryana,Gurugram,"Vikas Sadan, Gurugram - HSPCB",30-04-2024 03:00:00,28.4501238,77.0263051,NO2,5,26,14
India,Haryana,Gurugram,"Vikas Sadan, Gurugram - HSPCB",30-04-2024 03:00:00,28.4501238,77.0263051,SO2,27,66,36
India,Haryana,Gurugram,"Vikas Sadan, Gurugram - HSPCB",30-04-2024 03:00:00,28.4501238,77.0263051,CO,65,150,104
India,Haryana,Jind,"Police Lines, Jind - HSPCB",30-04-2024 03:00:00,29.307814,76.337619,OZONE,14,39,18
India,Haryana,Kaithal,"Rishi Nagar, Kaithal - HSPCB",30-04-2024 03:00:00,29.8006,76.4155,NO2,24,26,25
India,Haryana,Kaithal,"Rishi Nagar, Kaithal - HSPCB",30-04-2024 03:00:00,29.8006,76.4155,NH3,8,8,8
India,Haryana,Karnal,"Sector-12, Karnal - HSPCB",30-04-2024 03:00:00,29.695300,77.002700,PM2.5,148,308,210
India,Haryana,Mandikhera,"General Hospital, Mandikhera - HSPCB",30-04-2024 03:00:00,27.9002,76.9938,NH3,16,20,18
India,Haryana,Manesar,"Sector-2 IMT, Manesar - HSPCB",30-04-2024 03:00:00,28.360699,76.936090,NH3,1,2,1
India,Haryana,Manesar,"Sector-2 IMT, Manesar - HSPCB",30-04-2024 03:00:00,28.360699,76.936090,SO2,6,37,11
India,Haryana,Narnaul,"Shastri Nagar, Narnaul - HSPCB",30-04-2024 03:00:00,28.060249,76.113115,NH3,5,26,15
India,Haryana,Narnaul,"Shastri Nagar, Narnaul - HSPCB",30-04-2024 03:00:00,28.060249,76.113115,OZONE,29,56,35
India,Haryana,Panchkula,"Sector-6, Panchkula - HSPCB ",30-04-2024 03:00:00,30.7057778,76.8531805555555,NO2,9,12,10
India,Haryana,Panchkula,"Sector-6, Panchkula - HSPCB ",30-04-2024 03:00:00,30.7057778,76.8531805555555,CO,6,21,14
India,Haryana,Panipat,"Sector-18, Panipat - HSPCB",30-04-2024 03:00:00,29.497973,76.993331,SO2,18,19,19
India,Haryana,Panipat,"Sector-18, Panipat - HSPCB",30-04-2024 03:00:00,29.497973,76.993331,OZONE,30,30,30
India,Haryana,Rohtak,"MD University, Rohtak - HSPCB",30-04-2024 03:00:00,28.52123,76.37138,NO2,41,55,51
India,Haryana,Sirsa,"F-Block, Sirsa - HSPCB",30-04-2024 03:00:00,29.536400,75.015800,NH3,9,14,13
India,Haryana,Sirsa,"F-Block, Sirsa - HSPCB",30-04-2024 03:00:00,29.536400,75.015800,CO,57,66,64
India,Haryana,Sonipat,"Murthal, Sonipat - HSPCB",30-04-2024 03:00:00,29.027200,77.062100,NH3,6,10,9
India,Haryana,Yamuna Nagar,"Gobind Pura, Yamuna Nagar - HSPCB",30-04-2024 03:00:00,30.1480566,77.2893471,PM2.5,NA,NA,NA
India,Himachal Pradesh,Baddi,"HIMUDA Complex Phase-1, Baddi - HPPCB",30-04-2024 03:00:00,30.943887,76.801991,CO,12,27,18
India,Jharkhand,Dhanbad,"Kalakusuma, Dhanbad - DMC",30-04-2024 03:00:00,23.811548,86.481238,PM10,15,118,94
India,Jharkhand,Dhanbad,"Kalakusuma, Dhanbad - DMC",30-04-2024 03:00:00,23.811548,86.481238,SO2,NA,NA,NA
India,Karnataka,Bagalkot,"Vidayagiri, Bagalkot - KSPCB",30-04-2024 03:00:00,16.172806,75.659694,PM2.5,19,37,36
India,Karnataka,Bagalkot,"Vidayagiri, Bagalkot - KSPCB",30-04-2024 03:00:00,16.172806,75.659694,NO2,9,11,9
India,Karnataka,Belgaum,"Ramteerth Nagar, Belgaum - KSPCB",30-04-2024 03:00:00,15.888653,74.541751,NH3,2,6,4
India,Karnataka,Belgaum,"Ramteerth Nagar, Belgaum - KSPCB",30-04-2024 03:00:00,15.888653,74.541751,CO,22,51,28
India,Karnataka,Bengaluru,"Hebbal, Bengaluru - KSPCB",30-04-2024 03:00:00,13.029152,77.585901,CO,5,49,22
India,Karnataka,Bengaluru,"Hebbal, Bengaluru - KSPCB",30-04-2024 03:00:00,13.029152,77.585901,OZONE,7,32,9
India,Karnataka,Bengaluru,"Hombegowda Nagar, Bengaluru - KSPCB",30-04-2024 03:00:00,12.938539,77.590100,NO2,10,35,18
India,Karnataka,Bengaluru,"Jayanagar 5th Block, Bengaluru - KSPCB",30-04-2024 03:00:00,12.920984,77.584908,PM2.5,32,108,56
India,Karnataka,Bengaluru,"Jayanagar 5th Block, Bengaluru - KSPCB",30-04-2024 03:00:00,12.920984,77.584908,PM10,42,147,77
India,Karnataka,Bengaluru,"Jayanagar 5th Block, Bengaluru - KSPCB",30-04-2024 03:00:00,12.920984,77.584908,NO2,NA,NA,NA
India,Karnataka,Bengaluru,"Jayanagar 5th Block, Bengaluru - KSPCB",30-04-2024 03:00:00,12.920984,77.584908,NH3,NA,NA,NA
India,Karnataka,Bengaluru,"Jayanagar 5th Block, Bengaluru - KSPCB",30-04-2024 03:00:00,12.920984,77.584908,SO2,3,23,12
India,Karnataka,Bengaluru,"Jayanagar 5th Block, Bengaluru - KSPCB",30-04-2024 03:00:00,12.920984,77.584908,CO,5,7,6
India,Karnataka,Bengaluru,"Peenya, Bengaluru - CPCB",30-04-2024 03:00:00,13.0270199,77.494094,NH3,3,5,4
India,Karnataka,Bengaluru,"Peenya, Bengaluru - CPCB",30-04-2024 03:00:00,13.0270199,77.494094,OZONE,10,71,23
India,Karnataka,Bengaluru,"Shivapura_Peenya, Bengaluru - KSPCB",30-04-2024 03:00:00,13.0246342,77.5080115,PM2.5,17,132,46
India,Karnataka,Bengaluru,"Shivapura_Peenya, Bengaluru - KSPCB",30-04-2024 03:00:00,13.0246342,77.5080115,NH3,4,4,4
India,Karnataka,Bidar,"Naubad, Bidar - KSPCB",30-04-2024 03:00:00,17.930306,77.482194,NO2,7,8,7
India,Karnataka,Bidar,"Naubad, Bidar - KSPCB",30-04-2024 03:00:00,17.930306,77.482194,SO2,16,20,18
India,Karnataka,Bidar,"Naubad, Bidar - KSPCB",30-04-2024 03:00:00,17.930306,77.482194,OZONE,19,47,34
India,Karnataka,Chamarajanagar,"Urban, Chamarajanagar - KSPCB",30-04-2024 03:00:00,11.55358,76.55521,PM10,35,65,50
India,Karnataka,Chikkaballapur,"Chikkaballapur Rural, Chikkaballapur - KSPCB",30-04-2024 03:00:00,13.428828,77.731418,NO2,6,18,11
India,Karnataka,Chikkaballapur,"Chikkaballapur Rural, Chikkaballapur - KSPCB",30-04-2024 03:00:00,13.428828,77.731418,CO,15,25,18
India,Karnataka,Chikkamagaluru,"Kalyana Nagara, Chikkamagaluru - KSPCB",30-04-2024 03:00:00,13.328028,75.797056,PM2.5,39,89,61
India,Karnataka,Chikkamagaluru,"Kalyana Nagara, Chikkamagaluru - KSPCB",30-04-2024 03:00:00,13.328028,75.797056,PM10,44,81,65
India,Karnataka,Chikkamagaluru,"Kalyana Nagara, Chikkamagaluru - KSPCB",30-04-2024 03:00:00,13.328028,75.797056,NH3,2,4,3
India,Karnataka,Davanagere,"Devaraj Urs Badavane, Davanagere - KSPCB",30-04-2024 03:00:00,14.475800,75.905200,PM2.5,33,146,67
India,Karnataka,Davanagere,"Devaraj Urs Badavane, Davanagere - KSPCB",30-04-2024 03:00:00,14.475800,75.905200,NO2,10,16,13
India,Karnataka,Davanagere,"Devaraj Urs Badavane, Davanagere - KSPCB",30-04-2024 03:00:00,14.475800,75.905200,CO,16,24,23
India,Karnataka,Dharwad,"Kalabhavan, Dharwad - KSPCB",30-04-2024 03:00:00,15.459706,75.008381,PM2.5,48,118,82
India,Karnataka,Dharwad,"Kalabhavan, Dharwad - KSPCB",30-04-2024 03:00:00,15.459706,75.008381,NO2,7,25,15
India,Karnataka,Gadag,"Panchal Nagar, Gadag - KSPCB",30-04-2024 03:00:00,15.411456,75.638133,PM10,34,64,47
India,Karnataka,Gadag,"Panchal Nagar, Gadag - KSPCB",30-04-2024 03:00:00,15.411456,75.638133,NO2,6,30,14
India,Karnataka,Hassan,"B.Katihalli, Hassan - KSPCB",30-04-2024 03:00:00,13.008556,76.125258,PM2.5,NA,NA,NA
India,Karnataka,Hassan,"B.Katihalli, Hassan - KSPCB",30-04-2024 03:00:00,13.008556,76.125258,CO,13,26,16
India,Karnataka,Haveri,"Ashwini Nagar, Haveri - KSPCB",30-04-2024 03:00:00,14.791800,75.389600,PM10,42,81,64
India,Karnataka,Haveri,"Ashwini Nagar, Haveri - KSPCB",30-04-2024 03:00:00,14.791800,75.389600,CO,37,38,38
India,Karnataka,Hubballi,"Deshpande Nagar, Hubballi - KSPCB",30-04-2024 03:00:00,15.351773,75.140726,SO2,5,7,6
India,Karnataka,Hubballi,"Lingaraj Nagar, Hubballi - KSPCB",30-04-2024 03:00:00,15.3714823,75.1160168,NO2,6,8,7
India,Karnataka,Hubballi,"Lingaraj Nagar, Hubballi - KSPCB",30-04-2024 03:00:00,15.3714823,75.1160168,OZONE,22,84,41
India,Karnataka,Kalaburagi,"Lal Bahadur Shastri Nagar, Kalaburagi - KSPCB",30-04-2024 03:00:00,17.321993,76.822628,PM2.5,9,116,42
India,Karnataka,Kalaburagi,"Lal Bahadur Shastri Nagar, Kalaburagi - KSPCB",30-04-2024 03:00:00,17.321993,76.822628,SO2,22,24,23
India,Karnataka,Kalaburagi,"Lal Bahadur Shastri Nagar, Kalaburagi - KSPCB",30-04-2024 03:00:00,17.321993,76.822628,CO,42,62,50
India,Karnataka,Kalaburagi,"Mahatma Basaveswar Colony, Kalaburgi - KSPCB",30-04-2024 03:00:00,17.336318,76.847397,NH3,2,4,3
India,Karnataka,Karwar,"KHB Colony, Karwar - KSPCB",30-04-2024 03:00:00,14.816666,74.141003,PM10,53,83,70
India,Karnataka,Koppal,"Diwator Nagar, Koppal - KSPCB",30-04-2024 03:00:00,15.347630,76.181767,NH3,2,10,7
India,Karnataka,Koppal,"Diwator Nagar, Koppal - KSPCB",30-04-2024 03:00:00,15.347630,76.181767,SO2,27,33,28
India,Karnataka,Madikeri,"Stuart Hill, Madikeri - KSPCB",30-04-2024 03:00:00,12.415911,75.735050,PM2.5,27,57,38
India,Karnataka,Madikeri,"Stuart Hill, Madikeri - KSPCB",30-04-2024 03:00:00,12.415911,75.735050,PM10,30,47,39
India,Karnataka,Madikeri,"Stuart Hill, Madikeri - KSPCB",30-04-2024 03:00:00,12.415911,75.735050,SO2,4,4,4
India,Karnataka,Mysuru,"Hebbal 1st Stage, Mysuru - KSPCB",30-04-2024 03:00:00,12.21041,76.37376,SO2,1,2,2
India,Karnataka,Mysuru,"Hebbal 1st Stage, Mysuru - KSPCB",30-04-2024 03:00:00,12.21041,76.37376,OZONE,14,94,37
India,Karnataka,Raichur,"Haji Colony, Raichur - KSPCB",30-04-2024 03:00:00,16.208139,77.348417,NO2,25,60,39
India,Karnataka,Raichur,"Haji Colony, Raichur - KSPCB",30-04-2024 03:00:00,16.208139,77.348417,SO2,76,105,88
India,Karnataka,Ramanagara,"Vijay Nagar, Ramanagara - KSPCB",30-04-2024 03:00:00,12.733409,77.298051,PM2.5,25,67,46
India,Karnataka,Shivamogga,"Vinoba Nagara, Shivamogga - KSPCB",30-04-2024 03:00:00,13.940000,75.555917,PM2.5,32,62,41
India,Karnataka,Tumakuru,"Thimmalapura, Tumakuru - KSPCB",30-04-2024 03:00:00,13.377516,77.099072,NO2,NA,NA,NA
India,Karnataka,Tumakuru,"Thimmalapura, Tumakuru - KSPCB",30-04-2024 03:00:00,13.377516,77.099072,CO,30,34,32
India,Karnataka,Vijayapura,"Ibrahimpur, Vijayapura - KSPCB",30-04-2024 03:00:00,16.802639,75.722694,PM2.5,26,31,30
India,Karnataka,Vijayapura,"Ibrahimpur, Vijayapura - KSPCB",30-04-2024 03:00:00,16.802639,75.722694,OZONE,14,16,15
India,Karnataka,Yadgir,"Collector Office, Yadgir - KSPCB",30-04-2024 03:00:00,16.7602,77.1428,PM2.5,39,77,57
India,Karnataka,Yadgir,"Collector Office, Yadgir - KSPCB",30-04-2024 03:00:00,16.7602,77.1428,NH3,NA,NA,NA
India,Kerala,Eloor,"Udyogamandal, Eloor - Kerala PCB",30-04-2024 03:00:00,10.073232,76.302765,PM10,35,45,38
India,Kerala,Eloor,"Udyogamandal, Eloor - Kerala PCB",30-04-2024 03:00:00,10.073232,76.302765,SO2,1,12,5
India,Kerala,Thiruvananthapuram,"Kariavattom, Thiruvananthapuram - Kerala PCB",30-04-2024 03:00:00,8.563700,76.886500,NO2,8,9,9
India,Kerala,Thiruvananthapuram,"Kariavattom, Thiruvananthapuram - Kerala PCB",30-04-2024 03:00:00,8.563700,76.886500,SO2,1,11,6
India,Kerala,Thiruvananthapuram,"Plammoodu, Thiruvananthapuram - Kerala PCB",30-04-2024 03:00:00,8.5149093,76.9435879,PM2.5,14,53,29
India,Kerala,Thiruvananthapuram,"Plammoodu, Thiruvananthapuram - Kerala PCB",30-04-2024 03:00:00,8.5149093,76.9435879,OZONE,9,55,20
India,Kerala,Thrissur,"Corporation Ground, Thrissur - Kerala PCB",30-04-2024 03:00:00,10.532400,76.215900,SO2,1,3,1
India,Kerala,Thrissur,"Corporation Ground, Thrissur - Kerala PCB",30-04-2024 03:00:00,10.532400,76.215900,OZONE,27,32,30
India,Madhya Pradesh,Bhopal,"T T Nagar, Bhopal - MPPCB",30-04-2024 03:00:00,23.233584,77.400574,SO2,6,32,20
India,Madhya Pradesh,Bhopal,"T T Nagar, Bhopal - MPPCB",30-04-2024 03:00:00,23.233584,77.400574,CO,11,35,27
India,Madhya Pradesh,Dewas,"Bhopal Chauraha, Dewas - MPPCB",30-04-2024 03:00:00,22.9682591,76.064118,CO,13,35,22
India,Madhya Pradesh,Gwalior,"Deen Dayal Nagar, Gwalior - MPPCB",30-04-2024 03:00:00,26.259242,78.216432,NH3,6,12,9
India,Madhya Pradesh,Indore,"Chhoti Gwaltoli, Indore - MPPCB",30-04-2024 03:00:00,22.4310,75.5213,OZONE,17,107,56
India,Madhya Pradesh,Indore,"Maguda Nagar, Indore - IMC",30-04-2024 03:00:00,22.7524,75.8872,NO2,5,6,5
India,Madhya Pradesh,Indore,"Maguda Nagar, Indore - IMC",30-04-2024 03:00:00,22.7524,75.8872,SO2,34,36,35
India,Madhya Pradesh,Indore,"Residency Area, Indore - IMC",30-04-2024 03:00:00,22.7084,75.8815,PM2.5,35,77,45
India,Madhya Pradesh,Jabalpur,"Gupteshwar, Jabalpur - JMC",30-04-2024 03:00:00,23.142888,79.916147,PM2.5,21,68,46
India,Madhya Pradesh,Jabalpur,"Gupteshwar, Jabalpur - JMC",30-04-2024 03:00:00,23.142888,79.916147,CO,22,101,45
India,Madhya Pradesh,Jabalpur,"Suhagi, Jabalpur - JMC",30-04-2024 03:00:00,23.218135,79.957770,PM10,51,126,78
India,Madhya Pradesh,Katni,"Gole Bazar, Katni - MPPCB",30-04-2024 03:00:00,23.50016,80.23284,NH3,3,7,5
India,Madhya Pradesh,Katni,"Gole Bazar, Katni - MPPCB",30-04-2024 03:00:00,23.50016,80.23284,SO2,8,122,61
India,Madhya Pradesh,Sagar,"Deen Dayal Nagar, Sagar - MPPCB",30-04-2024 03:00:00,23.8640158,78.80289321,PM2.5,23,85,40
India,Madhya Pradesh,Sagar,"Deen Dayal Nagar, Sagar - MPPCB",30-04-2024 03:00:00,23.8640158,78.80289321,SO2,3,19,12
India,Madhya Pradesh,Satna,"Bandhavgar Colony, Satna - Birla Cement",30-04-2024 03:00:00,24.58434363,80.8549414,NO2,37,97,56
India,Madhya Pradesh,Satna,"Bandhavgar Colony, Satna - Birla Cement",30-04-2024 03:00:00,24.58434363,80.8549414,SO2,3,5,4
India,Madhya Pradesh,Singrauli,"Suryakiran Bhawan NCL, Singrauli - MPPCB",30-04-2024 03:00:00,24.108970,82.645580,NH3,3,5,4
India,Madhya Pradesh,Singrauli,"Suryakiran Bhawan NCL, Singrauli - MPPCB",30-04-2024 03:00:00,24.108970,82.645580,OZONE,25,84,57
India,Madhya Pradesh,Ujjain,"Mahakaleshwar Temple, Ujjain - MPPCB",30-04-2024 03:00:00,23.182719 ,75.768218 ,PM10,54,120,78
India,Maharashtra,Ahmednagar,"Tarakpur, Ahmednagar - MPCB",30-04-2024 03:00:00,19.10122,74.73339,NH3,2,5,4
India,Maharashtra,Akola,"Ramdaspeth, Akola - MPCB",30-04-2024 03:00:00,20.719516,77.000253,PM2.5,51,101,62
India,Maharashtra,Akola,"Ramdaspeth, Akola - MPCB",30-04-2024 03:00:00,20.719516,77.000253,SO2,8,27,15
India,Maharashtra,Amravati,"Shivneri Colony, Amravati - MPCB",30-04-2024 03:00:00,20.9402359,77.7895248,NH3,1,4,2
India,Maharashtra,Amravati,"Shri Shivaji Science College, Amaravati - MPCB",30-04-2024 03:00:00,20.939198,77.765701,NH3,3,14,5
India,Maharashtra,Aurangabad,"MIDC Chilkalthana, Aurangabad - MPCB",30-04-2024 03:00:00,19.875620,75.387310,PM2.5,67,120,93
India,Maharashtra,Aurangabad,"MIDC Chilkalthana, Aurangabad - MPCB",30-04-2024 03:00:00,19.875620,75.387310,PM10,88,143,108
India,Maharashtra,Aurangabad,"MIDC Chilkalthana, Aurangabad - MPCB",30-04-2024 03:00:00,19.875620,75.387310,NH3,3,4,3
India,Maharashtra,Aurangabad,"More Chowk Waluj, Aurangabad - MPCB",30-04-2024 03:00:00,19.8389439,75.244448,PM10,51,103,75
India,Maharashtra,Aurangabad,"More Chowk Waluj, Aurangabad - MPCB",30-04-2024 03:00:00,19.8389439,75.244448,NO2,41,47,44
India,Maharashtra,Aurangabad,"Rachnakar Colony, Aurangabad - MPCB",30-04-2024 03:00:00,19.863756,75.321188,PM10,123,278,166
India,Maharashtra,Aurangabad,"Rachnakar Colony, Aurangabad - MPCB",30-04-2024 03:00:00,19.863756,75.321188,NO2,9,102,37
India,Maharashtra,Aurangabad,"Rachnakar Colony, Aurangabad - MPCB",30-04-2024 03:00:00,19.863756,75.321188,NH3,1,2,1
India,Maharashtra,Badlapur,"Katrap, Badlapur - MPCB",30-04-2024 03:00:00,19.16485,73.23409,NH3,1,4,2
India,Maharashtra,Bhiwandi,"Gokul Nagar, Bhiwandi - MPCB",30-04-2024 03:00:00,19.309073,73.057223,PM2.5,34,112,64
India,Maharashtra,Boisar,"Khaira, Boisar - MPCB",30-04-2024 03:00:00,19.786089,72.757971,NH3,NA,NA,NA
India,Maharashtra,Boisar,"Khaira, Boisar - MPCB",30-04-2024 03:00:00,19.786089,72.757971,CO,5,103,30
India,Maharashtra,Dhule,"Deopur, Dhule - MPCB",30-04-2024 03:00:00,20.918946,74.776388,PM2.5,70,102,84
India,Maharashtra,Jalgaon,"Prabhat Colony, Jalgaon - MPCB",30-04-2024 03:00:00,21.001264,75.565602,PM10,68,155,118
India,Maharashtra,Jalna,"Old MIDC, Jalna - MPCB",30-04-2024 03:00:00,19.854616,75.905894,SO2,NA,NA,NA
India,Maharashtra,Jalna,"Old MIDC, Jalna - MPCB",30-04-2024 03:00:00,19.854616,75.905894,OZONE,28,289,124
India,Maharashtra,Kalyan,"Khadakpada, Kalyan - MPCB",30-04-2024 03:00:00,19.25292,73.142019,SO2,29,65,38
India,Maharashtra,Kolhapur,"Shivaji University, Kolhapur - MPCB",30-04-2024 03:00:00,16.6870449,74.2505872,NO2,21,43,33
India,Maharashtra,Kolhapur,"Shivaji University, Kolhapur - MPCB",30-04-2024 03:00:00,16.6870449,74.2505872,CO,53,82,60
India,Maharashtra,Kolhapur,"Sinchan Bhavan, Kolhapur - MPCB",30-04-2024 03:00:00,16.7143745,74.2426398,CO,15,101,17
India,Maharashtra,Latur,"Sawe Wadi, Latur - MPCB",30-04-2024 03:00:00,18.39963,76.57452,CO,NA,NA,NA
India,Maharashtra,Mahad,"Kamble Tarf Birwadi, Mahad - MPCB",30-04-2024 03:00:00,18.1023399,73.4783687,PM10,100,127,114
India,Maharashtra,Mahad,"Kamble Tarf Birwadi, Mahad - MPCB",30-04-2024 03:00:00,18.1023399,73.4783687,CO,38,73,58
India,Maharashtra,Malegaon,"Mahesh Nagar, Malegaon - MPCB",30-04-2024 03:00:00,20.555712,74.529236,CO,10,46,19
India,Maharashtra,Mira-Bhayandar,"Bhayandar West, Mira-Bhayandar - MPCB",30-04-2024 03:00:00,19.296481,72.840923,PM10,73,445,169
India,Maharashtra,Mira-Bhayandar,"Bhayandar West, Mira-Bhayandar - MPCB",30-04-2024 03:00:00,19.296481,72.840923,OZONE,7,101,53
India,Maharashtra,Mumbai,"Borivali East, Mumbai - IITM",30-04-2024 03:00:00,19.23241,72.86895,PM2.5,41,65,55
India,Maharashtra,Mumbai,"Borivali East, Mumbai - IITM",30-04-2024 03:00:00,19.23241,72.86895,NO2,50,109,73
India,Maharashtra,Mumbai,"Borivali East, Mumbai - IITM",30-04-2024 03:00:00,19.23241,72.86895,OZONE,30,174,74
India,Maharashtra,Mumbai,"Borivali East, Mumbai - MPCB",30-04-2024 03:00:00,19.2243333,72.8658113,SO2,7,21,12
India,Maharashtra,Mumbai,"Byculla, Mumbai - BMC",30-04-2024 03:00:00,18.9767,72.8380,NO2,7,13,11
India,Maharashtra,Mumbai,"Chembur, Mumbai - MPCB",30-04-2024 03:00:00,19.0364585,72.8954371,NH3,3,5,4
India,Maharashtra,Mumbai,"Colaba, Mumbai - MPCB",30-04-2024 03:00:00,18.910000,72.820000,PM2.5,33,87,50
India,Maharashtra,Mumbai,"Deonar, Mumbai - IITM",30-04-2024 03:00:00,19.04946,72.9230,PM2.5,NA,NA,NA
India,Maharashtra,Mumbai,"Ghatkopar, Mumbai - BMC",30-04-2024 03:00:00,19.083694,72.920967,NO2,NA,NA,NA
India,Maharashtra,Mumbai,"Ghatkopar, Mumbai - BMC",30-04-2024 03:00:00,19.083694,72.920967,OZONE,1,34,25
India,Maharashtra,Mumbai,"Kandivali West, Mumbai - BMC",30-04-2024 03:00:00,19.215859,72.831718,NO2,6,30,16
India,Maharashtra,Mumbai,"Kherwadi_Bandra East, Mumbai - MPCB",30-04-2024 03:00:00,19.0632143,72.8456324,PM2.5,31,83,51
India,Maharashtra,Mumbai,"Khindipada-Bhandup West, Mumbai - IITM",30-04-2024 03:00:00,19.1653323,72.922099,PM2.5,45,96,68
India,Maharashtra,Mumbai,"Khindipada-Bhandup West, Mumbai - IITM",30-04-2024 03:00:00,19.1653323,72.922099,PM10,52,111,80
India,Maharashtra,Mumbai,"Khindipada-Bhandup West, Mumbai - IITM",30-04-2024 03:00:00,19.1653323,72.922099,CO,3,37,14
India,Maharashtra,Mumbai,"Kurla, Mumbai - MPCB",30-04-2024 03:00:00,19.0863,72.8888,NO2,16,20,18
India,Maharashtra,Mumbai,"Mulund West, Mumbai - MPCB",30-04-2024 03:00:00,19.1750,72.9419,PM2.5,44,83,62
India,Maharashtra,Mumbai,"Mulund West, Mumbai - MPCB",30-04-2024 03:00:00,19.1750,72.9419,PM10,71,144,105
India,Maharashtra,Mumbai,"Navy Nagar-Colaba, Mumbai - IITM",30-04-2024 03:00:00,18.897756,72.813320,PM2.5,37,60,49
India,Maharashtra,Mumbai,"Powai, Mumbai - MPCB",30-04-2024 03:00:00,19.137500,72.915056,OZONE,23,86,46
India,Maharashtra,Mumbai,"Sewri, Mumbai - BMC",30-04-2024 03:00:00,19.000084,72.856730,PM10,13,118,70
India,Maharashtra,Mumbai,"Sewri, Mumbai - BMC",30-04-2024 03:00:00,19.000084,72.856730,OZONE,1,103,55
India,Maharashtra,Mumbai,"Shivaji Nagar, Mumbai - BMC",30-04-2024 03:00:00,19.060498,72.923356,NH3,2,8,4
India,Maharashtra,Mumbai,"Shivaji Nagar, Mumbai - BMC",30-04-2024 03:00:00,19.060498,72.923356,CO,1,110,42
India,Maharashtra,Mumbai,"Siddharth Nagar-Worli, Mumbai - IITM",30-04-2024 03:00:00,19.000083,72.813993,NO2,23,38,30
India,Maharashtra,Mumbai,"Sion, Mumbai - MPCB",30-04-2024 03:00:00,19.047000,72.874600,NH3,2,2,2
India,Maharashtra,Mumbai,"Vasai West, Mumbai - MPCB",30-04-2024 03:00:00,19.383200,72.820400,NO2,25,28,27
India,Maharashtra,Mumbai,"Vasai West, Mumbai - MPCB",30-04-2024 03:00:00,19.383200,72.820400,NH3,4,4,4
India,Maharashtra,Mumbai,"Vile Parle West, Mumbai - MPCB",30-04-2024 03:00:00,19.10861,72.83622,PM2.5,28,68,49
India,Maharashtra,Mumbai,"Vile Parle West, Mumbai - MPCB",30-04-2024 03:00:00,19.10861,72.83622,NO2,8,13,10
India,Maharashtra,Mumbai,"Worli, Mumbai - MPCB",30-04-2024 03:00:00,18.9936162,72.8128113,NO2,15,16,16
India,Maharashtra,Nagpur,"Mahal, Nagpur - MPCB",30-04-2024 03:00:00,21.14472,79.107595,PM2.5,65,190,102
India,Maharashtra,Nashik,"Hirawadi, Nashik - MPCB",30-04-2024 03:00:00,20.021503,73.813844,PM2.5,17,83,55
India,Maharashtra,Nashik,"MIDC Ambad, Nashik - MPCB",30-04-2024 03:00:00,19.950220,73.731480,OZONE,13,98,46
India,Maharashtra,Navi Mumbai,"Mahape, Navi Mumbai - MPCB",30-04-2024 03:00:00,19.1135051,73.008978,PM2.5,39,264,97
India,Maharashtra,Navi Mumbai,"Nerul, Navi Mumbai - MPCB",30-04-2024 03:00:00,19.008751,73.016620,NO2,34,76,50
India,Maharashtra,Navi Mumbai,"Nerul, Navi Mumbai - MPCB",30-04-2024 03:00:00,19.008751,73.016620,CO,24,52,38
India,Maharashtra,Navi Mumbai,"Sanpada, Navi Mumbai - MPCB",30-04-2024 03:00:00,19.0575752,73.0151367,NO2,13,49,30
India,Maharashtra,Navi Mumbai,"Sanpada, Navi Mumbai - MPCB",30-04-2024 03:00:00,19.0575752,73.0151367,NH3,1,22,6
India,Maharashtra,Navi Mumbai,"Sector-19A Nerul, Navi Mumbai - IITM",30-04-2024 03:00:00,19.044,73.0325,PM2.5,59,251,103
India,Maharashtra,Navi Mumbai,"Sector-19A Nerul, Navi Mumbai - IITM",30-04-2024 03:00:00,19.044,73.0325,SO2,NA,NA,NA
India,Maharashtra,Navi Mumbai,"Sector-2E Kalamboli, Navi Mumbai - MPCB",30-04-2024 03:00:00,19.02579,73.10297,CO,11,104,43
India,Maharashtra,Parbhani,"Masoom Colony, Parbhani - MPCB",30-04-2024 03:00:00,19.265594,76.761463,PM2.5,59,194,85
India,Maharashtra,Pune,"Alandi, Pune - IITM",30-04-2024 03:00:00,18.675076,73.892743,OZONE,19,68,50
India,Maharashtra,Pune,"Karve Road, Pune - MPCB",30-04-2024 03:00:00,18.5011743,73.8165527,OZONE,79,237,139
India,Maharashtra,Pune,"Katraj Dairy, Pune - MPCB",30-04-2024 03:00:00,18.454450,73.854155,NO2,19,56,36
India,Maharashtra,Pune,"Mhada Colony, Pune - IITM",30-04-2024 03:00:00,18.573040,73.927715,OZONE,8,84,41
India,Maharashtra,Pune,"Revenue Colony-Shivajinagar, Pune - IITM",30-04-2024 03:00:00,18.530085,73.849598,SO2,70,106,87
India,Maharashtra,Sangli,"Vijay Nagar, Sangli - MPCB",30-04-2024 03:00:00, 16.5038,74.3623,PM2.5,58,91,73
India,Maharashtra,Solapur,"Dnyaneshwar Nagar, Solapur - MPCB",30-04-2024 03:00:00,17.6336264,75.9132495,PM2.5,63,99,82
India,Maharashtra,Solapur,"Ratandeep Housing Society, Solapur - MPCB",30-04-2024 03:00:00,17.65439,75.90649,PM10,69,115,97
India,Maharashtra,Solapur,"Ratandeep Housing Society, Solapur - MPCB",30-04-2024 03:00:00,17.65439,75.90649,CO,14,101,50
India,Maharashtra,Thane,"Kasarvadavali, Thane - MPCB",30-04-2024 03:00:00,19.26777,72.97182,PM10,78,138,109
India,Maharashtra,Thane,"Kasarvadavali, Thane - MPCB",30-04-2024 03:00:00,19.26777,72.97182,NO2,27,101,47
India,Maharashtra,Thane,"Kasarvadavali, Thane - MPCB",30-04-2024 03:00:00,19.26777,72.97182,NH3,4,10,6
India,Maharashtra,Thane,"Kasarvadavali, Thane - MPCB",30-04-2024 03:00:00,19.26777,72.97182,OZONE,5,135,42
India,Maharashtra,Thane,"Pimpleshwar Mandir, Thane - MPCB",30-04-2024 03:00:00,19.192056,72.9585188,PM10,85,349,142
India,Maharashtra,Thane,"Pimpleshwar Mandir, Thane - MPCB",30-04-2024 03:00:00,19.192056,72.9585188,CO,3,122,79
India,Maharashtra,Thane,"Upvan Fort, Thane - MPCB",30-04-2024 03:00:00,19.222279,72.957979,NH3,4,7,5
India,Maharashtra,Ulhasnagar,"Sidhi Vinayak Nagar, Ulhasnagar - MPCB",30-04-2024 03:00:00,19.235581,73.159121,OZONE,2,232,58
India,Maharashtra,Virar,"Bolinj, Virar - MPCB",30-04-2024 03:00:00,19.4458210,72.7988231,NH3,9,9,9
India,Maharashtra,Virar,"Bolinj, Virar - MPCB",30-04-2024 03:00:00,19.4458210,72.7988231,CO,7,30,16
India,Manipur,Imphal,"DM College of Science, Imphal - Manipur PCB",30-04-2024 03:00:00,24.8207389,93.9423085,OZONE,NA,NA,NA
India,Meghalaya,Shillong,"Lumpyngngad, Shillong - Meghalaya PCB",30-04-2024 03:00:00,25.5586,91.8985,PM2.5,64,298,125
India,Meghalaya,Shillong,"Lumpyngngad, Shillong - Meghalaya PCB",30-04-2024 03:00:00,25.5586,91.8985,OZONE,2,51,37
India,Nagaland,Kohima,"PWD Juction, Kohima - NPCB",30-04-2024 03:00:00,25.6635413,94.0989878,PM2.5,70,240,162
India,Odisha,Balasore,"Kalidaspur, Balasore - OSPCB",30-04-2024 03:00:00,21.51161,86.89088,PM10,104,194,129
India,Odisha,Balasore,"Kalidaspur, Balasore - OSPCB",30-04-2024 03:00:00,21.51161,86.89088,SO2,20,70,40
India,Odisha,Balasore,"Kalidaspur, Balasore - OSPCB",30-04-2024 03:00:00,21.51161,86.89088,CO,40,101,75
India,Odisha,Barbil,"Forest Office, Barbil - OSPCB",30-04-2024 03:00:00,22.1166054,85.3945546,SO2,8,66,26
India,Odisha,Baripada,"Meher Colony, Baripada - OSPCB",30-04-2024 03:00:00,21.941841,86.728318,PM2.5,NA,NA,NA
India,Odisha,Baripada,"Meher Colony, Baripada - OSPCB",30-04-2024 03:00:00,21.941841,86.728318,NH3,NA,NA,NA
India,Odisha,Bhubaneswar,"Lingraj Mandir, Bhubaneswar - OSPCB",30-04-2024 03:00:00,20.240790,85.836784,PM10,28,115,79
India,Odisha,Bhubaneswar,"Lingraj Mandir, Bhubaneswar - OSPCB",30-04-2024 03:00:00,20.240790,85.836784,NO2,3,23,10
India,Odisha,Bhubaneswar,"Patia, Bhubaneswar - OSPCB",30-04-2024 03:00:00,20.34652,85.81630,PM10,48,111,81
India,Odisha,Bhubaneswar,"Patia, Bhubaneswar - OSPCB",30-04-2024 03:00:00,20.34652,85.81630,SO2,1,37,9
India,Odisha,Brajrajnagar,"GM Office, Brajrajnagar - OSPCB",30-04-2024 03:00:00,21.8004996,83.8396977,NH3,8,12,9
India,Odisha,Byasanagar,"Ferro Chrome Colony, Byasanagar - OSPCB",30-04-2024 03:00:00,20.94185,86.11510,PM10,102,184,127
India,Odisha,Byasanagar,"Ferro Chrome Colony, Byasanagar - OSPCB",30-04-2024 03:00:00,20.94185,86.11510,NO2,11,23,16
India,Odisha,Cuttack,"CDA Area, Cuttack - OSPCB",30-04-2024 03:00:00,20.48891     ,85.84768     ,NH3,1,4,2
India,Odisha,Keonjhar,"Jagamohanpur, Keonjhar - OSPCB",30-04-2024 03:00:00,21.643900,85.599355,SO2,6,29,9
India,Odisha,Keonjhar,"Jagamohanpur, Keonjhar - OSPCB",30-04-2024 03:00:00,21.643900,85.599355,OZONE,10,46,21
India,Odisha,Nayagarh,"Dabuna, Nayagarh - OSPCB",30-04-2024 03:00:00,21.847279,85.416905,NO2,3,5,3
India,Odisha,Nayagarh,"Dabuna, Nayagarh - OSPCB",30-04-2024 03:00:00,21.847279,85.416905,OZONE,5,36,20
India,Odisha,Rairangpur,"Divisional Forest Office, Rairangpur - OSPCB",30-04-2024 03:00:00,22.265816,86.174829,PM2.5,74,194,126
India,Odisha,Rairangpur,"Divisional Forest Office, Rairangpur - OSPCB",30-04-2024 03:00:00,22.265816,86.174829,PM10,79,143,109
India,Odisha,Rourkela,"Fertilizer Township, Rourkela - OSPCB",30-04-2024 03:00:00,22.18972222,84.86277778,CO,NA,NA,NA
India,Odisha,Rourkela,"Raghunathpali, Rourkela - OSPCB",30-04-2024 03:00:00,22.220833,84.809444,PM2.5,23,55,38
India,Odisha,Rourkela,"Raghunathpali, Rourkela - OSPCB",30-04-2024 03:00:00,22.220833,84.809444,NH3,1,3,2
India,Odisha,Rourkela,"Raghunathpali, Rourkela - OSPCB",30-04-2024 03:00:00,22.220833,84.809444,CO,23,60,46
India,Odisha,Suakati,"OMC Colony, Suakati - OSPCB",30-04-2024 03:00:00,21.606865,85.510538,PM2.5,42,206,107
India,Odisha,Suakati,"OMC Colony, Suakati - OSPCB",30-04-2024 03:00:00,21.606865,85.510538,SO2,14,120,47
India,Odisha,Talcher,"Talcher Coalfields,Talcher - OSPCB",30-04-2024 03:00:00,20.9360711,85.1707021,CO,28,141,91
India,Odisha,Tensa,"Barsua Iron Ore Mines, Tensa - OSPCB",30-04-2024 03:00:00,21.869985,85.167016,PM10,95,110,103
India,Puducherry,Puducherry,"Jawahar Nagar, Puducherry - PPCC",30-04-2024 03:00:00,11.9309,79.8027,PM10,10,50,25
India,Punjab,Amritsar,"Golden Temple, Amritsar - PPCB",30-04-2024 03:00:00,31.620000,74.876512,PM10,67,101,80
India,Punjab,Amritsar,"Golden Temple, Amritsar - PPCB",30-04-2024 03:00:00,31.620000,74.876512,NO2,9,83,45
India,Punjab,Amritsar,"Golden Temple, Amritsar - PPCB",30-04-2024 03:00:00,31.620000,74.876512,SO2,14,22,17
India,Punjab,Amritsar,"Golden Temple, Amritsar - PPCB",30-04-2024 03:00:00,31.620000,74.876512,OZONE,48,61,55
India,Punjab,Bathinda,"Hardev Nagar, Bathinda - PPCB",30-04-2024 03:00:00,30.233011,74.907758,SO2,1,42,6
India,Punjab,Bathinda,"Hardev Nagar, Bathinda - PPCB",30-04-2024 03:00:00,30.233011,74.907758,CO,2,128,19
India,Punjab,Jalandhar,"Civil Line, Jalandhar - PPCB",30-04-2024 03:00:00,31.321907,75.578914,OZONE,24,44,38
India,Punjab,Khanna,"Kalal Majra, Khanna - PPCB",30-04-2024 03:00:00,30.736056 ,76.209694,SO2,NA,NA,NA
India,Punjab,Ludhiana,"Punjab Agricultural University, Ludhiana - PPCB",30-04-2024 03:00:00,30.9028,75.8086,SO2,4,18,9
India,Punjab,Patiala,"Model Town, Patiala - PPCB",30-04-2024 03:00:00,30.349388,76.366642,CO,16,31,28
India,Punjab,Rupnagar,"Ratanpura, Rupnagar - Ambuja Cements",30-04-2024 03:00:00,31.0325454,76.5623046,PM10,19,99,60
India,Rajasthan,Ajmer,"Civil Lines,  Ajmer - RSPCB",30-04-2024 03:00:00,26.470859,74.646594,PM10,62,176,108
India,Rajasthan,Ajmer,"Civil Lines,  Ajmer - RSPCB",30-04-2024 03:00:00,26.470859,74.646594,NO2,6,14,11
India,Rajasthan,Ajmer,"Civil Lines,  Ajmer - RSPCB",30-04-2024 03:00:00,26.470859,74.646594,SO2,9,19,12
India,Rajasthan,Alwar,"Moti Doongri, Alwar - RSPCB",30-04-2024 03:00:00,27.554793,76.611536,SO2,4,57,20
India,Rajasthan,Alwar,"Moti Doongri, Alwar - RSPCB",30-04-2024 03:00:00,27.554793,76.611536,OZONE,13,51,25
India,Rajasthan,Banswara,"Rati Talai, Banswara - RSPCB",30-04-2024 03:00:00,23.555190,74.440010,PM10,79,166,126
India,Rajasthan,Baran,"Bamboliya, Baran - RSPCB",30-04-2024 03:00:00,25.106006,76.469948,NO2,6,83,27
India,Rajasthan,Baran,"Bamboliya, Baran - RSPCB",30-04-2024 03:00:00,25.106006,76.469948,NH3,4,13,6
India,Rajasthan,Baran,"Bamboliya, Baran - RSPCB",30-04-2024 03:00:00,25.106006,76.469948,OZONE,18,101,52
India,Rajasthan,Barmer,"Railway Colony, Barmer - RSPCB",30-04-2024 03:00:00,25.747299,71.393989,PM2.5,16,50,32
India,Rajasthan,Bharatpur,"Krishna Nagar, Bharatpur - RSPCB",30-04-2024 03:00:00,27.215415,77.50873,PM2.5,91,332,199
India,Rajasthan,Bharatpur,"Krishna Nagar, Bharatpur - RSPCB",30-04-2024 03:00:00,27.215415,77.50873,NO2,16,81,36
India,Rajasthan,Bharatpur,"Krishna Nagar, Bharatpur - RSPCB",30-04-2024 03:00:00,27.215415,77.50873,SO2,2,13,6
India,Rajasthan,Bharatpur,"Krishna Nagar, Bharatpur - RSPCB",30-04-2024 03:00:00,27.215415,77.50873,OZONE,21,127,80
India,Rajasthan,Bhiwadi,"Vasundhara Nagar_UIT, Bhiwadi - RSPCB",30-04-2024 03:00:00,28.207266,76.829265,SO2,4,62,24
India,Rajasthan,Bikaner,"MM Ground, Bikaner - RSPCB",30-04-2024 03:00:00,28.018792,73.292658,PM10,90,284,181
India,Rajasthan,Bikaner,"MM Ground, Bikaner - RSPCB",30-04-2024 03:00:00,28.018792,73.292658,NO2,16,56,39
India,Rajasthan,Bikaner,"MM Ground, Bikaner - RSPCB",30-04-2024 03:00:00,28.018792,73.292658,OZONE,56,93,78
India,Rajasthan,Bundi,"New Colony, Bundi - RSPCB",30-04-2024 03:00:00,25.435774,75.644272,PM10,72,175,112
India,Rajasthan,Bundi,"New Colony, Bundi - RSPCB",30-04-2024 03:00:00,25.435774,75.644272,SO2,1,133,12
India,Rajasthan,Chittorgarh,"Shastri Nagar, Chittorgarh - RSPCB",30-04-2024 03:00:00,24.892047,74.623527,NH3,1,12,9
India,Rajasthan,Chittorgarh,"Shastri Nagar, Chittorgarh - RSPCB",30-04-2024 03:00:00,24.892047,74.623527,SO2,4,19,9
India,Rajasthan,Churu,"Subash Chowk, Churu - RSPCB",30-04-2024 03:00:00,28.296139,74.961696,NO2,NA,NA,NA
India,Rajasthan,Churu,"Subash Chowk, Churu - RSPCB",30-04-2024 03:00:00,28.296139,74.961696,NH3,NA,NA,NA
India,Rajasthan,Churu,"Subash Chowk, Churu - RSPCB",30-04-2024 03:00:00,28.296139,74.961696,SO2,NA,NA,NA
India,Rajasthan,Dausa,"Khatikan Mohalla, Dausa - RSPCB",30-04-2024 03:00:00,26.895552,76.334753,NO2,NA,NA,NA
India,Rajasthan,Dausa,"Khatikan Mohalla, Dausa - RSPCB",30-04-2024 03:00:00,26.895552,76.334753,NH3,NA,NA,NA
India,Rajasthan,Dholpur,"Raja Ganj, Dholpur - RSPCB",30-04-2024 03:00:00,26.699557,77.898881,SO2,1,97,12
India,Rajasthan,Dholpur,"Raja Ganj, Dholpur - RSPCB",30-04-2024 03:00:00,26.699557,77.898881,OZONE,81,124,98
India,Rajasthan,Dungarpur,"Bhoiwada, Dungarpur - RSPCB",30-04-2024 03:00:00,23.837789,73.714926,PM10,65,140,91
India,Rajasthan,Dungarpur,"Bhoiwada, Dungarpur - RSPCB",30-04-2024 03:00:00,23.837789,73.714926,SO2,2,8,4
India,Rajasthan,Jaipur,"Adarsh Nagar, Jaipur - RSPCB",30-04-2024 03:00:00,26.902909,75.836858,SO2,8,27,16
India,Rajasthan,Jaipur,"Adarsh Nagar, Jaipur - RSPCB",30-04-2024 03:00:00,26.902909,75.836858,CO,5,58,25
India,Rajasthan,Jaipur,"Mansarovar Sector-12, Jaipur - RSPCB",30-04-2024 03:00:00,26.843698,75.766894,PM2.5,29,253,79
India,Rajasthan,Jaipur,"Mansarovar Sector-12, Jaipur - RSPCB",30-04-2024 03:00:00,26.843698,75.766894,SO2,3,29,9
India,Rajasthan,Jaipur,"Mansarovar Sector-12, Jaipur - RSPCB",30-04-2024 03:00:00,26.843698,75.766894,CO,14,113,23
India,Rajasthan,Jaipur,"Mansarovar Sector-12, Jaipur - RSPCB",30-04-2024 03:00:00,26.843698,75.766894,OZONE,3,99,79
India,Rajasthan,Jaipur,"RIICO Sitapura, Jaipur - RSPCB",30-04-2024 03:00:00,26.786682,75.827928,CO,15,70,25
India,Rajasthan,Jaipur,"RIICO Sitapura, Jaipur - RSPCB",30-04-2024 03:00:00,26.786682,75.827928,OZONE,33,76,48
India,Rajasthan,Jaipur,"Sector-2 Murlipura, Jaipur - RSPCB",30-04-2024 03:00:00,26.960669,75.771817,PM2.5,51,210,86
India,Rajasthan,Jaipur,"Sector-2 Murlipura, Jaipur - RSPCB",30-04-2024 03:00:00,26.960669,75.771817,NO2,24,75,46
India,Rajasthan,Jaipur,"Shastri Nagar, Jaipur - RSPCB",30-04-2024 03:00:00,26.9502929,75.730943,OZONE,8,46,29
India,Rajasthan,Jaisalmer,"Sadar Bazar, Jaisalmer - RSPCB",30-04-2024 03:00:00,26.912329,70.909168,PM10,67,444,168
India,Rajasthan,Jaisalmer,"Sadar Bazar, Jaisalmer - RSPCB",30-04-2024 03:00:00,26.912329,70.909168,SO2,4,11,5
India,Rajasthan,Jalore,"Mudtra Sili, Jalore - RSPCB",30-04-2024 03:00:00,25.344694,72.626208,NO2,4,55,22
India,Rajasthan,Jhalawar,"Rajlaxmi Nagar, Jhalawar - RSPCB",30-04-2024 03:00:00,24.588397,76.172782,NO2,16,27,21
India,Rajasthan,Jhalawar,"Rajlaxmi Nagar, Jhalawar - RSPCB",30-04-2024 03:00:00,24.588397,76.172782,SO2,3,14,6
India,Rajasthan,Jhunjhunu,"Indra Nagar, Jhunjhunu - RSPCB",30-04-2024 03:00:00,28.108988,75.386577,PM2.5,26,121,49
India,Rajasthan,Jhunjhunu,"Indra Nagar, Jhunjhunu - RSPCB",30-04-2024 03:00:00,28.108988,75.386577,SO2,2,18,6
India,Rajasthan,Jodhpur,"Collectorate, Jodhpur - RSPCB",30-04-2024 03:00:00,26.268249,73.0193853,OZONE,6,118,96
India,Rajasthan,Jodhpur,"Digari Kalan, Jodhpur - RSPCB",30-04-2024 03:00:00,26.295810,73.082283,NO2,3,34,13
India,Rajasthan,Jodhpur,"Digari Kalan, Jodhpur - RSPCB",30-04-2024 03:00:00,26.295810,73.082283,SO2,2,109,10
India,Rajasthan,Jodhpur,"Digari Kalan, Jodhpur - RSPCB",30-04-2024 03:00:00,26.295810,73.082283,OZONE,17,102,73
India,Rajasthan,Jodhpur,"Jhalamand, Jodhpur - RSPCB",30-04-2024 03:00:00,26.215415,73.070156,NO2,3,44,17
India,Rajasthan,Jodhpur,"Jhalamand, Jodhpur - RSPCB",30-04-2024 03:00:00,26.215415,73.070156,OZONE,47,98,77
India,Rajasthan,Jodhpur,"Mandor, Jodhpur - RSPCB",30-04-2024 03:00:00,26.358805,73.047444,PM2.5,12,83,44
India,Rajasthan,Jodhpur,"Samrat Ashok Udhyan, Jodhpur - RSPCB",30-04-2024 03:00:00,26.253384,72.976571,PM10,75,219,143
India,Rajasthan,Jodhpur,"Samrat Ashok Udhyan, Jodhpur - RSPCB",30-04-2024 03:00:00,26.253384,72.976571,SO2,4,8,6
India,Rajasthan,Jodhpur,"Samrat Ashok Udhyan, Jodhpur - RSPCB",30-04-2024 03:00:00,26.253384,72.976571,OZONE,52,127,90
India,Rajasthan,Karauli,"Satyawati Vihar, Karauli - RSPCB",30-04-2024 03:00:00,26.506177,77.025989,PM2.5,20,113,50
India,Rajasthan,Karauli,"Satyawati Vihar, Karauli - RSPCB",30-04-2024 03:00:00,26.506177,77.025989,PM10,76,255,124
India,Rajasthan,Kota,"Dhanmandi, Kota - RSPCB",30-04-2024 03:00:00,25.164090,75.858137,NH3,NA,NA,NA
India,Rajasthan,Kota,"Dhanmandi, Kota - RSPCB",30-04-2024 03:00:00,25.164090,75.858137,OZONE,26,216,48
India,Rajasthan,Kota,"Nayapura, Kota - RSPCB",30-04-2024 03:00:00,25.196024,75.855668,SO2,1,13,6
India,Rajasthan,Kota,"Nayapura, Kota - RSPCB",30-04-2024 03:00:00,25.196024,75.855668,OZONE,32,95,54
India,Rajasthan,Kota,"Shrinath Puram, Kota - RSPCB",30-04-2024 03:00:00,25.14389,75.821256,PM10,21,102,69
India,Rajasthan,Nagaur,"Karni Colony, Nagaur - RSPCB",30-04-2024 03:00:00,27.213494,73.734444,NO2,7,18,12
India,Rajasthan,Pali,"Indira Colony Vistar, Pali - RSPCB",30-04-2024 03:00:00,25.771061, 73.340227,PM10,93,192,147
India,Rajasthan,Pali,"Indira Colony Vistar, Pali - RSPCB",30-04-2024 03:00:00,25.771061, 73.340227,CO,22,84,55
India,Rajasthan,Sawai Madhopur,"Sahu Nagar, Sawai Madhopur - RSPCB",30-04-2024 03:00:00,26.031443,76.359327,PM10,80,137,106
India,Rajasthan,Sawai Madhopur,"Sahu Nagar, Sawai Madhopur - RSPCB",30-04-2024 03:00:00,26.031443,76.359327,NH3,3,10,7
India,Rajasthan,Sawai Madhopur,"Sahu Nagar, Sawai Madhopur - RSPCB",30-04-2024 03:00:00,26.031443,76.359327,SO2,1,4,3
India,Rajasthan,Sawai Madhopur,"Sahu Nagar, Sawai Madhopur - RSPCB",30-04-2024 03:00:00,26.031443,76.359327,CO,2,38,20
India,Rajasthan,Sikar,"Radhakishan Pura, Sikar - RSPCB",30-04-2024 03:00:00,27.608912,75.153302,NH3,4,8,6
India,Rajasthan,Sirohi,"Vedhaynath Colony, Sirohi - RSPCB",30-04-2024 03:00:00,24.885261,72.857549,OZONE,34,104,64
India,Rajasthan,Sri Ganganagar,"Old City, Sri Ganganagar - RSPCB",30-04-2024 03:00:00,29.931624,73.864511,NH3,14,36,20
India,Rajasthan,Sri Ganganagar,"Old City, Sri Ganganagar - RSPCB",30-04-2024 03:00:00,29.931624,73.864511,CO,4,102,24
India,Rajasthan,Tonk,"Shastri Nagar, Tonk - RSPCB",30-04-2024 03:00:00,26.159933,75.780517,PM2.5,15,82,32
India,Rajasthan,Udaipur,"Ashok Nagar, Udaipur - RSPCB",30-04-2024 03:00:00,24.5886166,73.6321397,PM10,56,123,93
India,Rajasthan,Udaipur,"Ashok Nagar, Udaipur - RSPCB",30-04-2024 03:00:00,24.5886166,73.6321397,NH3,6,11,8
India,Sikkim,Gangtok,"Zero Point GICI, Gangtok - SSPCB",30-04-2024 03:00:00,27.338530,88.614099,PM2.5,26,36,31
India,Sikkim,Gangtok,"Zero Point GICI, Gangtok - SSPCB",30-04-2024 03:00:00,27.338530,88.614099,SO2,11,12,12
India,TamilNadu,Ariyalur,"Keelapalur, Ariyalur - TNPCB",30-04-2024 03:00:00,11.06825,79.07033,PM2.5,14,40,24
India,TamilNadu,Chennai,"Alandur Bus Depot, Chennai - CPCB",30-04-2024 03:00:00,12.9099161,80.1076538,PM2.5,28,68,42
India,TamilNadu,Chennai,"Alandur Bus Depot, Chennai - CPCB",30-04-2024 03:00:00,12.9099161,80.1076538,PM10,28,68,42
India,TamilNadu,Chennai,"Alandur Bus Depot, Chennai - CPCB",30-04-2024 03:00:00,12.9099161,80.1076538,NO2,7,11,9
India,TamilNadu,Chennai,"Arumbakkam, Chennai - TNPCB",30-04-2024 03:00:00,13.0664,80.2112 ,PM10,7,50,28
India,TamilNadu,Chennai,"Kodungaiyur, Chennai - TNPCB",30-04-2024 03:00:00,13.1278,80.2642,PM10,5,44,23
India,TamilNadu,Chennai,"Perungudi, Chennai - TNPCB",30-04-2024 03:00:00,12.9533,80.2357,SO2,1,7,3
India,TamilNadu,Chennai,"Royapuram, Chennai - TNPCB",30-04-2024 03:00:00,13.1036,80.2909,PM10,8,42,21
India,TamilNadu,Chennai,"Royapuram, Chennai - TNPCB",30-04-2024 03:00:00,13.1036,80.2909,NO2,4,20,13
India,TamilNadu,Chennai,"Velachery Res. Area, Chennai - CPCB",30-04-2024 03:00:00,13.0052189,80.2398125,PM10,12,38,24
India,TamilNadu,Coimbatore,"PSG College of Arts and Science, Coimbatore - TNPCB",30-04-2024 03:00:00,11.0328,77.0349,PM2.5,NA,NA,NA
India,TamilNadu,Coimbatore,"PSG College of Arts and Science, Coimbatore - TNPCB",30-04-2024 03:00:00,11.0328,77.0349,NH3,NA,NA,NA
India,TamilNadu,Cuddalore,"Kudikadu, Cuddalore - TNPCB",30-04-2024 03:00:00,11.6829898,79.7532099,NO2,1,4,2
India,TamilNadu,Gummidipoondi,"Anthoni Pillai Nagar, Gummidipoondi - TNPCB",30-04-2024 03:00:00,13.4127,80.1081,PM2.5,8,303,45
India,TamilNadu,Ooty,"Bombay Castel, Ooty - TNPCB",30-04-2024 03:00:00,11.4068288,76.7138973,PM2.5,25,130,48
India,TamilNadu,Ooty,"Bombay Castel, Ooty - TNPCB",30-04-2024 03:00:00,11.4068288,76.7138973,CO,19,22,22
India,TamilNadu,Palkalaiperur,"Bharathidasan University, Palkalaiperur - TNPCB",30-04-2024 03:00:00,10.681158,78.741746,SO2,27,29,28
India,TamilNadu,Palkalaiperur,"Bharathidasan University, Palkalaiperur - TNPCB",30-04-2024 03:00:00,10.681158,78.741746,OZONE,1,2,1
India,TamilNadu,Ramanathapuram,"Chalai Bazaar, Ramanathapuram - TNPCB",30-04-2024 03:00:00,9.36399,78.831977,PM10,8,50,31
India,TamilNadu,Salem,"Sona College of Technology, Salem - TNPCB",30-04-2024 03:00:00,11.679111,78.125052,PM2.5,2,56,17
India,TamilNadu,Salem,"Sona College of Technology, Salem - TNPCB",30-04-2024 03:00:00,11.679111,78.125052,SO2,47,103,77
India,TamilNadu,Salem,"Sona College of Technology, Salem - TNPCB",30-04-2024 03:00:00,11.679111,78.125052,OZONE,2,4,3
India,TamilNadu,Thoothukudi,"Meelavittan, Thoothukudi - TNPCB",30-04-2024 03:00:00,8.816428 ,78.099039,SO2,NA,NA,NA
India,TamilNadu,Virudhunagar,"Collectorate Office, Virudhunagar - TNPCB",30-04-2024 03:00:00,9.559382,77.948828,NH3,6,7,6
India,Telangana,Hyderabad,"Bollaram Industrial Area, Hyderabad - TSPCB",30-04-2024 03:00:00,17.540891,78.358528,PM10,45,132,95
India,Telangana,Hyderabad,"Bollaram Industrial Area, Hyderabad - TSPCB",30-04-2024 03:00:00,17.540891,78.358528,NH3,1,2,2
India,Telangana,Hyderabad,"Bollaram Industrial Area, Hyderabad - TSPCB",30-04-2024 03:00:00,17.540891,78.358528,SO2,17,47,24
India,Telangana,Hyderabad,"Central University, Hyderabad - TSPCB",30-04-2024 03:00:00,17.460103,78.334361,PM2.5,20,54,37
India,Telangana,Hyderabad,"ECIL Kapra, Hyderabad - TSPCB",30-04-2024 03:00:00,17.470431,78.566959,OZONE,9,47,31
India,Telangana,Hyderabad,"IITH Kandi, Hyderabad - TSPCB",30-04-2024 03:00:00,17.585705,78.126199,SO2,NA,NA,NA
India,Telangana,Hyderabad,"Kompally Municipal Office, Hyderabad - TSPCB",30-04-2024 03:00:00,17.544899,78.486949,SO2,5,11,7
India,Telangana,Hyderabad,"Nacharam_TSIIC IALA, Hyderabad - TSPCB",30-04-2024 03:00:00,17.429398,78.569354,PM2.5,NA,NA,NA
India,Telangana,Hyderabad,"Nacharam_TSIIC IALA, Hyderabad - TSPCB",30-04-2024 03:00:00,17.429398,78.569354,NO2,NA,NA,NA
India,Telangana,Hyderabad,"Nacharam_TSIIC IALA, Hyderabad - TSPCB",30-04-2024 03:00:00,17.429398,78.569354,CO,26,38,28
India,Telangana,Hyderabad,"New Malakpet, Hyderabad - TSPCB",30-04-2024 03:00:00,17.37206,78.50864,PM2.5,18,64,46
India,Telangana,Hyderabad,"New Malakpet, Hyderabad - TSPCB",30-04-2024 03:00:00,17.37206,78.50864,SO2,9,12,10
India,Telangana,Hyderabad,"New Malakpet, Hyderabad - TSPCB",30-04-2024 03:00:00,17.37206,78.50864,OZONE,9,44,22
India,Telangana,Hyderabad,"Ramachandrapuram, Hyderabad - TSPCB",30-04-2024 03:00:00,17.528544,78.286195,PM10,NA,NA,NA
India,Telangana,Hyderabad,"Sanathnagar, Hyderabad - TSPCB",30-04-2024 03:00:00,17.4559458,78.4332152,OZONE,11,179,69
India,Telangana,Hyderabad,"Somajiguda, Hyderabad - TSPCB",30-04-2024 03:00:00,17.417094,78.457437,SO2,NA,NA,NA
India,Telangana,Hyderabad,"Somajiguda, Hyderabad - TSPCB",30-04-2024 03:00:00,17.417094,78.457437,CO,16,58,53
India,Telangana,Hyderabad,"Zoo Park, Hyderabad - TSPCB",30-04-2024 03:00:00,17.349694,78.451437,NO2,24,47,32
India,Telangana,Hyderabad,"Zoo Park, Hyderabad - TSPCB",30-04-2024 03:00:00,17.349694,78.451437,SO2,1,8,4
India,Tripura,Agartala,"Bardowali, Agartala - Tripura SPCB",30-04-2024 03:00:00,23.8175497,91.2726974,NH3,1,2,2
India,Uttar_Pradesh,Agra,"Manoharpur, Agra - UPPCB",30-04-2024 03:00:00,27.23711,78.01936,PM10,18,94,41
India,Uttar_Pradesh,Agra,"Rohta, Agra - UPPCB",30-04-2024 03:00:00,27.106972,78.000111,PM2.5,2,95,38
India,Uttar_Pradesh,Agra,"Sanjay Palace, Agra - UPPCB",30-04-2024 03:00:00,27.19865833,78.00598056,CO,26,86,45
India,Uttar_Pradesh,Agra,"Sector-3B Avas Vikas Colony, Agra - UPPCB",30-04-2024 03:00:00,27.19412,77.96237,NO2,24,35,29
India,Uttar_Pradesh,Agra,"Sector-3B Avas Vikas Colony, Agra - UPPCB",30-04-2024 03:00:00,27.19412,77.96237,CO,7,18,12
India,Uttar_Pradesh,Agra,"Shahjahan Garden, Agra - UPPCB",30-04-2024 03:00:00,27.169338,78.03582,PM2.5,17,82,44
India,Uttar_Pradesh,Agra,"Shahjahan Garden, Agra - UPPCB",30-04-2024 03:00:00,27.169338,78.03582,NH3,3,17,12
India,Uttar_Pradesh,Agra,"Shahjahan Garden, Agra - UPPCB",30-04-2024 03:00:00,27.169338,78.03582,OZONE,1,13,2
India,Uttar_Pradesh,Bareilly,"Civil Lines, Bareilly - UPPCB",30-04-2024 03:00:00,28.359581,79.414455,PM10,7,66,20
India,Uttar_Pradesh,Bareilly,"Civil Lines, Bareilly - UPPCB",30-04-2024 03:00:00,28.359581,79.414455,NH3,NA,NA,NA
India,Uttar_Pradesh,Bareilly,"Rajendra Nagar, Bareilly - UPPCB",30-04-2024 03:00:00,28.38910936,79.42963708,PM2.5,15,44,31
India,Uttar_Pradesh,Bareilly,"Rajendra Nagar, Bareilly - UPPCB",30-04-2024 03:00:00,28.38910936,79.42963708,PM10,41,122,77
India,Uttar_Pradesh,Bareilly,"Rajendra Nagar, Bareilly - UPPCB",30-04-2024 03:00:00,28.38910936,79.42963708,NH3,1,1,1
India,Uttar_Pradesh,Bulandshahr,"Yamunapuram, Bulandshahr - UPPCB",30-04-2024 03:00:00,28.406963,77.849831,PM10,116,286,173
India,Uttar_Pradesh,Bulandshahr,"Yamunapuram, Bulandshahr - UPPCB",30-04-2024 03:00:00,28.406963,77.849831,CO,20,101,27
India,Uttar_Pradesh,Bulandshahr,"Yamunapuram, Bulandshahr - UPPCB",30-04-2024 03:00:00,28.406963,77.849831,OZONE,2,161,31
India,Uttar_Pradesh,Firozabad,"Nagla Bhau, Firozabad - UPPCB",30-04-2024 03:00:00,27.168897,78.376960,PM2.5,NA,NA,NA
India,Uttar_Pradesh,Firozabad,"Nagla Bhau, Firozabad - UPPCB",30-04-2024 03:00:00,27.168897,78.376960,PM10,NA,NA,NA
India,Uttar_Pradesh,Firozabad,"Nagla Bhau, Firozabad - UPPCB",30-04-2024 03:00:00,27.168897,78.376960,NH3,NA,NA,NA
India,Uttar_Pradesh,Firozabad,"Nagla Bhau, Firozabad - UPPCB",30-04-2024 03:00:00,27.168897,78.376960,SO2,NA,NA,NA
India,Uttar_Pradesh,Firozabad,"Nagla Bhau, Firozabad - UPPCB",30-04-2024 03:00:00,27.168897,78.376960,OZONE,16,19,16
India,Uttar_Pradesh,Firozabad,"Vibhab Nagar, Firozabad - UPPCB",30-04-2024 03:00:00,27.1594,78.3953,PM10,NA,NA,NA
India,Uttar_Pradesh,Firozabad,"Vibhab Nagar, Firozabad - UPPCB",30-04-2024 03:00:00,27.1594,78.3953,NO2,11,14,14
India,Uttar_Pradesh,Ghaziabad,"Indirapuram, Ghaziabad - UPPCB",30-04-2024 03:00:00,28.646233,77.358075,NO2,30,83,48
India,Uttar_Pradesh,Ghaziabad,"Loni, Ghaziabad - UPPCB",30-04-2024 03:00:00,28.757294,77.278792,PM10,111,425,192
India,Uttar_Pradesh,Ghaziabad,"Loni, Ghaziabad - UPPCB",30-04-2024 03:00:00,28.757294,77.278792,NO2,18,79,44
India,Uttar_Pradesh,Ghaziabad,"Loni, Ghaziabad - UPPCB",30-04-2024 03:00:00,28.757294,77.278792,NH3,2,7,4
India,Uttar_Pradesh,Ghaziabad,"Loni, Ghaziabad - UPPCB",30-04-2024 03:00:00,28.757294,77.278792,CO,30,104,52
India,Uttar_Pradesh,Ghaziabad,"Sanjay Nagar, Ghaziabad - UPPCB",30-04-2024 03:00:00,28.685382,77.453839,PM10,126,400,184
India,Uttar_Pradesh,Ghaziabad,"Vasundhara, Ghaziabad - UPPCB",30-04-2024 03:00:00,28.6603346,77.3572563,PM2.5,35,302,85
India,Uttar_Pradesh,Ghaziabad,"Vasundhara, Ghaziabad - UPPCB",30-04-2024 03:00:00,28.6603346,77.3572563,NO2,10,129,54
India,Uttar_Pradesh,Ghaziabad,"Vasundhara, Ghaziabad - UPPCB",30-04-2024 03:00:00,28.6603346,77.3572563,SO2,8,114,38
India,Uttar_Pradesh,Gorakhpur,"Madan Mohan Malaviya University of Technology, Gorakhpur - UPPCB",30-04-2024 03:00:00,26.730136,83.433859,PM2.5,51,344,144
India,Uttar_Pradesh,Gorakhpur,"Madan Mohan Malaviya University of Technology, Gorakhpur - UPPCB",30-04-2024 03:00:00,26.730136,83.433859,CO,6,24,16
India,Uttar_Pradesh,Gorakhpur,"Madan Mohan Malaviya University of Technology, Gorakhpur - UPPCB",30-04-2024 03:00:00,26.730136,83.433859,OZONE,14,64,27
India,Uttar_Pradesh,Jhansi,"Shivaji Nagar, Jhansi - UPPCB",30-04-2024 03:00:00,25.4547,78.6039,CO,8,56,24
India,Uttar_Pradesh,Kanpur,"FTI Kidwai Nagar, Kanpur - UPPCB",30-04-2024 03:00:00,26.428282,80.327067,PM10,NA,NA,NA
India,Uttar_Pradesh,Kanpur,"FTI Kidwai Nagar, Kanpur - UPPCB",30-04-2024 03:00:00,26.428282,80.327067,NO2,17,23,20
India,Uttar_Pradesh,Kanpur,"FTI Kidwai Nagar, Kanpur - UPPCB",30-04-2024 03:00:00,26.428282,80.327067,SO2,25,34,29
India,Uttar_Pradesh,Kanpur,"FTI Kidwai Nagar, Kanpur - UPPCB",30-04-2024 03:00:00,26.428282,80.327067,CO,28,65,53
India,Uttar_Pradesh,Kanpur,"FTI Kidwai Nagar, Kanpur - UPPCB",30-04-2024 03:00:00,26.428282,80.327067,OZONE,7,31,10
India,Uttar_Pradesh,Kanpur,"NSI Kalyanpur, Kanpur - UPPCB",30-04-2024 03:00:00,26.509954,80.249612,PM10,98,240,151
India,Uttar_Pradesh,Kanpur,"Nehru Nagar, Kanpur - UPPCB",30-04-2024 03:00:00,26.4703136,80.3229863,OZONE,5,216,190
India,Uttar_Pradesh,Khurja,"Kalindi Kunj, Khurja - UPPCB",30-04-2024 03:00:00,28.2348927,77.8683002,PM10,39,112,65
India,Uttar_Pradesh,Khurja,"Kalindi Kunj, Khurja - UPPCB",30-04-2024 03:00:00,28.2348927,77.8683002,CO,30,72,31
India,Uttar_Pradesh,Lucknow,"B R Ambedkar University, Lucknow - UPPCB",30-04-2024 03:00:00,26.766433,80.927299,NH3,5,6,6
India,Uttar_Pradesh,Lucknow,"B R Ambedkar University, Lucknow - UPPCB",30-04-2024 03:00:00,26.766433,80.927299,OZONE,1,89,19
India,Uttar_Pradesh,Lucknow,"Kendriya Vidyalaya, Lucknow - CPCB",30-04-2024 03:00:00,26.906111,80.948222,OZONE,13,128,32
India,Uttar_Pradesh,Lucknow,"Kukrail Picnic Spot-1, Lucknow - UPPCB",30-04-2024 03:00:00,26.90723,80.98579,NH3,2,2,2
India,Uttar_Pradesh,Lucknow,"Kukrail Picnic Spot-1, Lucknow - UPPCB",30-04-2024 03:00:00,26.90723,80.98579,SO2,28,33,30
India,Uttar_Pradesh,Lucknow,"Lalbagh, Lucknow - CPCB",30-04-2024 03:00:00,26.8458805,80.9365541,NH3,19,28,21
India,Uttar_Pradesh,Lucknow,"Talkatora District Industries Center, Lucknow - CPCB",30-04-2024 03:00:00,26.83399722,80.8917361,SO2,1,29,6
India,Uttar_Pradesh,Lucknow,"Talkatora District Industries Center, Lucknow - CPCB",30-04-2024 03:00:00,26.83399722,80.8917361,CO,2,102,35
India,Uttar_Pradesh,Meerut,"Ganga Nagar, Meerut - UPPCB",30-04-2024 03:00:00,28.999264,77.7590354,CO,22,64,30
India,Uttar_Pradesh,Meerut,"Jai Bhim Nagar, Meerut - UPPCB",30-04-2024 03:00:00,28.9535882,77.7622941,PM10,86,176,127
India,Uttar_Pradesh,Meerut,"Pallavpuram Phase 2, Meerut - UPPCB",30-04-2024 03:00:00,29.063510,77.709723,PM2.5,20,224,85
India,Uttar_Pradesh,Meerut,"Pallavpuram Phase 2, Meerut - UPPCB",30-04-2024 03:00:00,29.063510,77.709723,PM10,109,218,158
India,Uttar_Pradesh,Moradabad,"Employment Office, Moradabad - UPPCB",30-04-2024 03:00:00,28.88528,78.73880,PM10,70,257,129
India,Uttar_Pradesh,Moradabad,"Employment Office, Moradabad - UPPCB",30-04-2024 03:00:00,28.88528,78.73880,CO,12,34,25
India,Uttar_Pradesh,Moradabad,"Jigar Colony, Moradabad - UPPCB",30-04-2024 03:00:00,28.856664,78.772638,PM2.5,27,80,45
India,Uttar_Pradesh,Moradabad,"Jigar Colony, Moradabad - UPPCB",30-04-2024 03:00:00,28.856664,78.772638,CO,26,44,30
India,Uttar_Pradesh,Moradabad,"Kashiram Nagar, Moradabad - UPPCB",30-04-2024 03:00:00,28.849399,78.742362,PM2.5,41,156,66
India,Uttar_Pradesh,Moradabad,"Transport Nagar, Moradabad - UPPCB",30-04-2024 03:00:00,28.802625,78.753728,PM2.5,21,91,43
India,Uttar_Pradesh,Moradabad,"Transport Nagar, Moradabad - UPPCB",30-04-2024 03:00:00,28.802625,78.753728,PM10,57,141,97
India,Uttar_Pradesh,Moradabad,"Transport Nagar, Moradabad - UPPCB",30-04-2024 03:00:00,28.802625,78.753728,NH3,5,5,5
India,Uttar_Pradesh,Muzaffarnagar,"New Mandi, Muzaffarnagar - UPPCB",30-04-2024 03:00:00,29.4723508,77.7194031,NH3,10,12,11
India,Uttar_Pradesh,Noida,"Sector - 125, Noida - UPPCB",30-04-2024 03:00:00,28.5447608,77.3231257,NO2,15,124,65
India,Uttar_Pradesh,Noida,"Sector - 125, Noida - UPPCB",30-04-2024 03:00:00,28.5447608,77.3231257,NH3,7,15,11
India,Uttar_Pradesh,Noida,"Sector - 62, Noida - IMD",30-04-2024 03:00:00,28.6245479,77.3577104,PM10,140,411,223
India,Uttar_Pradesh,Noida,"Sector-1, Noida - UPPCB",30-04-2024 03:00:00,28.5898,77.3101,PM2.5,42,310,122
India,Uttar_Pradesh,Noida,"Sector-1, Noida - UPPCB",30-04-2024 03:00:00,28.5898,77.3101,OZONE,7,272,80
India,Uttar_Pradesh,Noida,"Sector-116, Noida - UPPCB",30-04-2024 03:00:00,28.569230,77.393848,PM2.5,45,326,156
India,Uttar_Pradesh,Noida,"Sector-116, Noida - UPPCB",30-04-2024 03:00:00,28.569230,77.393848,CO,12,56,35
India,Uttar_Pradesh,Prayagraj,"Jhunsi, Prayagraj - UPPCB",30-04-2024 03:00:00,25.425602,81.917152,PM10,31,191,84
India,Uttar_Pradesh,Prayagraj,"Motilal Nehru NIT, Prayagraj - UPPCB",30-04-2024 03:00:00,25.494,81.863,PM10,51,116,77
India,Uttar_Pradesh,Prayagraj,"Motilal Nehru NIT, Prayagraj - UPPCB",30-04-2024 03:00:00,25.494,81.863,OZONE,5,32,17
India,Uttar_Pradesh,Varanasi,"Ardhali Bazar, Varanasi - UPPCB",30-04-2024 03:00:00,25.3505986,82.9083074,NO2,17,45,25
India,Uttar_Pradesh,Varanasi,"Bhelupur, Varanasi - UPPCB",30-04-2024 03:00:00,25.301778,82.996789,CO,14,108,75
India,Uttar_Pradesh,Varanasi,"IESD Banaras Hindu University, Varanasi - UPPCB",30-04-2024 03:00:00,25.262326,82.995408,PM10,21,72,38
India,Uttar_Pradesh,Varanasi,"IESD Banaras Hindu University, Varanasi - UPPCB",30-04-2024 03:00:00,25.262326,82.995408,NO2,2,3,2
India,Uttar_Pradesh,Varanasi,"IESD Banaras Hindu University, Varanasi - UPPCB",30-04-2024 03:00:00,25.262326,82.995408,OZONE,NA,NA,NA
India,Uttar_Pradesh,Varanasi,"Maldahiya, Varanasi - UPPCB",30-04-2024 03:00:00,25.32393,82.99687,NO2,1,2,2
India,Uttar_Pradesh,Vrindavan,"Omex Eternity, Vrindavan - UPPCB",30-04-2024 03:00:00,27.5714090,77.6557570,PM10,27,294,127
India,Uttar_Pradesh,Vrindavan,"Omex Eternity, Vrindavan - UPPCB",30-04-2024 03:00:00,27.5714090,77.6557570,NO2,2,3,3
India,Uttar_Pradesh,Vrindavan,"Omex Eternity, Vrindavan - UPPCB",30-04-2024 03:00:00,27.5714090,77.6557570,SO2,41,46,43
India,Uttarakhand,Dehradun,"Doon University, Dehradun - UKPCB",30-04-2024 03:00:00,30.269444,78.044167,PM2.5,33,79,55
India,Uttarakhand,Dehradun,"Doon University, Dehradun - UKPCB",30-04-2024 03:00:00,30.269444,78.044167,SO2,1,3,2
India,Uttarakhand,Rishikesh,"Shivaji Nagar, Rishikesh - UKPCB",30-04-2024 03:00:00,30.075911,78.2859547,NO2,9,51,22
India,Uttarakhand,Rishikesh,"Shivaji Nagar, Rishikesh - UKPCB",30-04-2024 03:00:00,30.075911,78.2859547,CO,18,44,32
India,West_Bengal,Barrackpore,"SVSPA Campus, Barrackpore - WBPCB",30-04-2024 03:00:00,22.7605581,88.3617589,CO,14,38,26
India,West_Bengal,Barrackpore,"SVSPA Campus, Barrackpore - WBPCB",30-04-2024 03:00:00,22.7605581,88.3617589,OZONE,18,96,40
India,West_Bengal,Durgapur,"PCBL Residential Complex, Durgapur - WBPCB",30-04-2024 03:00:00,23.5087640,87.3544400,PM2.5,69,304,147
India,West_Bengal,Durgapur,"Sidhu Kanhu Indoor Stadium, Durgapur - WBPCB",30-04-2024 03:00:00,23.5404352,87.2892225,PM2.5,96,322,207
India,West_Bengal,Haldia,"Priyambada Housing Estate, Haldia - WBPCB",30-04-2024 03:00:00,22.06047,88.109737,PM10,23,89,61
India,West_Bengal,Haldia,"Priyambada Housing Estate, Haldia - WBPCB",30-04-2024 03:00:00,22.06047,88.109737,NO2,12,61,22
India,West_Bengal,Haldia,"Priyambada Housing Estate, Haldia - WBPCB",30-04-2024 03:00:00,22.06047,88.109737,CO,16,34,19
India,West_Bengal,Howrah,"Ghusuri, Howrah - WBPCB",30-04-2024 03:00:00,22.611968,88.347422,PM2.5,83,301,195
India,West_Bengal,Howrah,"Ghusuri, Howrah - WBPCB",30-04-2024 03:00:00,22.611968,88.347422,OZONE,13,32,18
India,West_Bengal,Howrah,"Padmapukur, Howrah - WBPCB",30-04-2024 03:00:00,22.5687319,88.2797276,PM10,77,157,105
India,West_Bengal,Howrah,"Padmapukur, Howrah - WBPCB",30-04-2024 03:00:00,22.5687319,88.2797276,NH3,1,2,1
India,West_Bengal,Kolkata,"Ballygunge, Kolkata - WBPCB",30-04-2024 03:00:00,22.5367507,88.3638022,SO2,7,41,21
India,West_Bengal,Kolkata,"Ballygunge, Kolkata - WBPCB",30-04-2024 03:00:00,22.5367507,88.3638022,CO,2,28,8
India,West_Bengal,Kolkata,"Bidhannagar, Kolkata - WBPCB",30-04-2024 03:00:00,22.58157048,88.41002457,PM2.5,NA,NA,NA
India,West_Bengal,Kolkata,"Bidhannagar, Kolkata - WBPCB",30-04-2024 03:00:00,22.58157048,88.41002457,NH3,NA,NA,NA
India,West_Bengal,Kolkata,"Fort William, Kolkata - WBPCB",30-04-2024 03:00:00,22.556640,88.342674,PM10,68,121,98
India,West_Bengal,Kolkata,"Fort William, Kolkata - WBPCB",30-04-2024 03:00:00,22.556640,88.342674,NO2,20,79,33
India,West_Bengal,Kolkata,"Jadavpur, Kolkata - WBPCB",30-04-2024 03:00:00,22.49929,88.36917,NH3,6,8,7
India,West_Bengal,Kolkata,"Jadavpur, Kolkata - WBPCB",30-04-2024 03:00:00,22.49929,88.36917,SO2,4,48,18
India,West_Bengal,Kolkata,"Rabindra Bharati University, Kolkata - WBPCB",30-04-2024 03:00:00,22.627847,88.380669,SO2,7,11,9
India,West_Bengal,Kolkata,"Rabindra Bharati University, Kolkata - WBPCB",30-04-2024 03:00:00,22.627847,88.380669,CO,26,46,36
India,West_Bengal,Kolkata,"Rabindra Sarobar, Kolkata - WBPCB",30-04-2024 03:00:00,22.51106,88.35142,PM10,56,103,75
India,West_Bengal,Kolkata,"Victoria, Kolkata - WBPCB",30-04-2024 03:00:00,22.5448082,88.3403691,CO,39,70,49
India,West_Bengal,Siliguri,"Ward-32 Bapupara, Siliguri - WBPCB",30-04-2024 03:00:00,26.6879226,88.4152495,SO2,6,8,7
India,Andhra_Pradesh,Amaravati,"Secretariat, Amaravati - APPCB",30-04-2024 03:00:00,16.5150833,80.5181667,CO,1,106,63
India,Andhra_Pradesh,Anantapur,"Gulzarpet, Anantapur - APPCB",30-04-2024 03:00:00,14.675886,77.593027,PM2.5,28,56,43
India,Andhra_Pradesh,Anantapur,"Gulzarpet, Anantapur - APPCB",30-04-2024 03:00:00,14.675886,77.593027,PM10,96,129,115
India,Andhra_Pradesh,Chittoor,"Gangineni Cheruvu, Chittoor - APPCB",30-04-2024 03:00:00,13.204880,79.097889,OZONE,25,25,25
India,Andhra_Pradesh,Kadapa,"Yerramukkapalli, Kadapa - APPCB",30-04-2024 03:00:00,14.465052,78.824187,PM2.5,10,241,55
India,Andhra_Pradesh,Kadapa,"Yerramukkapalli, Kadapa - APPCB",30-04-2024 03:00:00,14.465052,78.824187,SO2,2,3,2
India,Andhra_Pradesh,Tirupati,"Tirumala, Tirupati - APPCB",30-04-2024 03:00:00,13.67,79.35,NO2,12,48,25
India,Andhra_Pradesh,Tirupati,"Tirumala, Tirupati - APPCB",30-04-2024 03:00:00,13.67,79.35,NH3,1,1,1
India,Andhra_Pradesh,Tirupati,"Vaikuntapuram, Tirupati - APPCB",30-04-2024 03:00:00,13.615387,79.409230,PM2.5,13,322,80
India,Andhra_Pradesh,Tirupati,"Vaikuntapuram, Tirupati - APPCB",30-04-2024 03:00:00,13.615387,79.409230,NO2,14,26,18
India,Andhra_Pradesh,Vijayawada,"HB Colony, Vijayawada - APPCB",30-04-2024 03:00:00,16.536107,80.594233,SO2,1,4,3
India,Andhra_Pradesh,Vijayawada,"Kanuru, Vijayawada - APPCB",30-04-2024 03:00:00,16.486692,80.699436,PM10,NA,NA,NA
India,Andhra_Pradesh,Vijayawada,"Kanuru, Vijayawada - APPCB",30-04-2024 03:00:00,16.486692,80.699436,NH3,NA,NA,NA
India,Andhra_Pradesh,Vijayawada,"Rajiv Gandhi Park, Vijayawada - APPCB",30-04-2024 03:00:00,16.509717,80.612222,PM10,31,80,51
India,Andhra_Pradesh,Vijayawada,"Rajiv Gandhi Park, Vijayawada - APPCB",30-04-2024 03:00:00,16.509717,80.612222,SO2,5,9,7
India,Andhra_Pradesh,Vijayawada,"Rajiv Nagar, Vijayawada - APPCB",30-04-2024 03:00:00,16.554731,80.649110,OZONE,2,344,108
India,Andhra_Pradesh,Visakhapatnam,"GVM Corporation, Visakhapatnam - APPCB",30-04-2024 03:00:00,17.72,83.3,NH3,3,5,3
India,Arunachal_Pradesh,Naharlagun,"Naharlagun, Naharlagun - APSPCB",30-04-2024 03:00:00,27.103358,93.679645,PM10,NA,NA,NA
India,Arunachal_Pradesh,Naharlagun,"Naharlagun, Naharlagun - APSPCB",30-04-2024 03:00:00,27.103358,93.679645,SO2,NA,NA,NA
India,Assam,Byrnihat,"Central Academy for SFS, Byrnihat - PCBA",30-04-2024 03:00:00,26.071318,91.87488,PM2.5,25,223,85
India,Assam,Byrnihat,"Central Academy for SFS, Byrnihat - PCBA",30-04-2024 03:00:00,26.071318,91.87488,PM10,27,146,75
India,Assam,Byrnihat,"Central Academy for SFS, Byrnihat - PCBA",30-04-2024 03:00:00,26.071318,91.87488,CO,32,94,38
India,Assam,Guwahati,"IITG, Guwahati - PCBA",30-04-2024 03:00:00,26.2028636,91.70046436,PM2.5,14,67,32
India,Assam,Guwahati,"IITG, Guwahati - PCBA",30-04-2024 03:00:00,26.2028636,91.70046436,NO2,1,2,1
India,Assam,Guwahati,"LGBI Airport, Guwahati - PCBA",30-04-2024 03:00:00,26.10887,91.589544,PM2.5,7,98,46
India,Assam,Guwahati,"Pan Bazaar, Guwahati - PCBA",30-04-2024 03:00:00,26.187500,91.744194,OZONE,17,17,17
India,Assam,Nagaon,"Christianpatty, Nagaon - PCBA",30-04-2024 03:00:00,26.349082,92.68449,NO2,1,19,6
India,Assam,Nalbari,"Bata Chowk, Nalbari - PCBA",30-04-2024 03:00:00,26.446912,91.439057,OZONE,4,27,13
India,Assam,Silchar,"Tarapur, Silchar - PCBA",30-04-2024 03:00:00,24.82827,92.79525,PM2.5,18,36,24
India,Assam,Sivasagar,"Girls College, Sivasagar - PCBA",30-04-2024 03:00:00,26.987634,94.636574,PM2.5,28,37,33
India,Assam,Sivasagar,"Girls College, Sivasagar - PCBA",30-04-2024 03:00:00,26.987634,94.636574,CO,16,20,19
India,Bihar,Araria,"Kharahiya Basti, Araria - BSPCB",30-04-2024 03:00:00,26.146529,87.454184,CO,22,30,24
India,Bihar,Bettiah,"Kamalnath Nagar, Bettiah - BSPCB",30-04-2024 03:00:00,26.80365,84.51954,NO2,28,30,28
India,Bihar,Bettiah,"Kamalnath Nagar, Bettiah - BSPCB",30-04-2024 03:00:00,26.80365,84.51954,SO2,8,39,23
India,Bihar,Bettiah,"Kamalnath Nagar, Bettiah - BSPCB",30-04-2024 03:00:00,26.80365,84.51954,CO,62,66,63
India,Bihar,Bhagalpur,"DM Office_Kachari Chowk, Bhagalpur - BSPCB",30-04-2024 03:00:00,25.251013,86.989001,PM10,125,350,208
India,Bihar,Bhagalpur,"Mayaganj, Bhagalpur - BSPCB",30-04-2024 03:00:00,25.265194,87.012947,NO2,3,10,7
India,Bihar,Bhagalpur,"Mayaganj, Bhagalpur - BSPCB",30-04-2024 03:00:00,25.265194,87.012947,NH3,8,10,9
India,Bihar,Bhagalpur,"Mayaganj, Bhagalpur - BSPCB",30-04-2024 03:00:00,25.265194,87.012947,CO,8,10,9
India,Bihar,Chhapra,"Darshan Nagar, Chhapra - BSPCB",30-04-2024 03:00:00,25.7808257,84.7446768,PM2.5,82,207,130
India,Bihar,Chhapra,"Darshan Nagar, Chhapra - BSPCB",30-04-2024 03:00:00,25.7808257,84.7446768,NO2,20,32,26
India,Bihar,Chhapra,"Darshan Nagar, Chhapra - BSPCB",30-04-2024 03:00:00,25.7808257,84.7446768,CO,37,70,60
India,Bihar,Gaya,"Collectorate, Gaya - BSPCB",30-04-2024 03:00:00,24.7955,84.9994,PM2.5,48,357,169
India,Bihar,Gaya,"Kareemganj, Gaya - BSPCB",30-04-2024 03:00:00,24.792403,84.992416,PM2.5,7,143,43
India,Bihar,Gaya,"Kareemganj, Gaya - BSPCB",30-04-2024 03:00:00,24.792403,84.992416,PM10,19,145,81
India,Bihar,Gaya,"SFTI Kusdihra, Gaya - BSPCB",30-04-2024 03:00:00,24.762518,84.982348,PM10,38,190,80
India,Bihar,Gaya,"SFTI Kusdihra, Gaya - BSPCB",30-04-2024 03:00:00,24.762518,84.982348,NH3,4,9,7
India,Bihar,Gaya,"SFTI Kusdihra, Gaya - BSPCB",30-04-2024 03:00:00,24.762518,84.982348,SO2,6,16,10
India,Bihar,Kishanganj,"SDM Office_Khagra, Kishanganj - BSPCB",30-04-2024 03:00:00,26.0881305,87.93840336,NH3,9,10,9
India,Bihar,Kishanganj,"SDM Office_Khagra, Kishanganj - BSPCB",30-04-2024 03:00:00,26.0881305,87.93840336,CO,4,7,4
India,Bihar,Kishanganj,"SDM Office_Khagra, Kishanganj - BSPCB",30-04-2024 03:00:00,26.0881305,87.93840336,OZONE,34,61,35
India,Bihar,Manguraha,"Forest Rest House, Manguraha - BSPCB",30-04-2024 03:00:00,27.308328,84.531742,NH3,NA,NA,NA
India,Bihar,Manguraha,"Forest Rest House, Manguraha - BSPCB",30-04-2024 03:00:00,27.308328,84.531742,SO2,NA,NA,NA
India,Bihar,Motihari,"Gandak Colony, Motihari - BSPCB",30-04-2024 03:00:00,26.63086,84.90051,OZONE,30,245,85
India,Bihar,Muzaffarpur,"Buddha Colony, Muzaffarpur - BSPCB",30-04-2024 03:00:00,26.11442,85.39813,OZONE,15,35,20
India,Bihar,Muzaffarpur,"Muzaffarpur Collectorate, Muzaffarpur - BSPCB",30-04-2024 03:00:00,26.1209,85.3647,PM2.5,66,311,109
India,Bihar,Muzaffarpur,"Muzaffarpur Collectorate, Muzaffarpur - BSPCB",30-04-2024 03:00:00,26.1209,85.3647,NO2,2,259,55
India,Bihar,Patna,"DRM Office Danapur, Patna - BSPCB",30-04-2024 03:00:00,25.586562,85.043586,PM10,139,196,163
India,Bihar,Patna,"DRM Office Danapur, Patna - BSPCB",30-04-2024 03:00:00,25.586562,85.043586,NO2,7,75,38
India,Bihar,Patna,"Govt. High School Shikarpur, Patna - BSPCB",30-04-2024 03:00:00,25.592539,85.227158,NH3,5,5,5
India,Bihar,Patna,"Govt. High School Shikarpur, Patna - BSPCB",30-04-2024 03:00:00,25.592539,85.227158,CO,33,82,61
India,Bihar,Patna,"Govt. High School Shikarpur, Patna - BSPCB",30-04-2024 03:00:00,25.592539,85.227158,OZONE,1,59,8
India,Bihar,Patna,"Muradpur, Patna - BSPCB",30-04-2024 03:00:00,25.619651,85.147382,PM10,188,428,275
India,Bihar,Patna,"Muradpur, Patna - BSPCB",30-04-2024 03:00:00,25.619651,85.147382,SO2,7,16,11
India,Bihar,Patna,"Rajbansi Nagar, Patna - BSPCB",30-04-2024 03:00:00,25.599486,85.113666,PM10,138,436,197
India,Bihar,Patna,"Rajbansi Nagar, Patna - BSPCB",30-04-2024 03:00:00,25.599486,85.113666,SO2,9,35,18
India,Bihar,Patna,"Samanpura, Patna - BSPCB",30-04-2024 03:00:00,25.596727,85.085624,NH3,11,20,15
India,Bihar,Patna,"Samanpura, Patna - BSPCB",30-04-2024 03:00:00,25.596727,85.085624,SO2,7,21,11
India,Bihar,Purnia,"Mariam Nagar, Purnia - BSPCB",30-04-2024 03:00:00,25.366336,87.117468,PM10,NA,NA,NA
India,Bihar,Purnia,"Mariam Nagar, Purnia - BSPCB",30-04-2024 03:00:00,25.366336,87.117468,SO2,NA,NA,NA
India,Bihar,Purnia,"Mariam Nagar, Purnia - BSPCB",30-04-2024 03:00:00,25.366336,87.117468,CO,23,68,57
India,Bihar,Rajgir,"Dangi Tola, Rajgir - BSPCB",30-04-2024 03:00:00,25.03280,85.41948,PM2.5,38,100,61
India,Bihar,Rajgir,"Dangi Tola, Rajgir - BSPCB",30-04-2024 03:00:00,25.03280,85.41948,PM10,42,108,68
India,Bihar,Rajgir,"Dangi Tola, Rajgir - BSPCB",30-04-2024 03:00:00,25.03280,85.41948,NH3,2,63,17
India,Bihar,Rajgir,"Dangi Tola, Rajgir - BSPCB",30-04-2024 03:00:00,25.03280,85.41948,OZONE,29,37,33
India,Bihar,Saharsa,"Police Line, Saharsa - BSPCB",30-04-2024 03:00:00,25.892357,86.590325,PM2.5,NA,NA,NA
India,Bihar,Saharsa,"Police Line, Saharsa - BSPCB",30-04-2024 03:00:00,25.892357,86.590325,SO2,16,17,16
India,Bihar,Samastipur,"DM Office_Kasipur, Samastipur - BSPCB",30-04-2024 03:00:00,25.859655,85.77944,SO2,10,63,33
India,Bihar,Samastipur,"DM Office_Kasipur, Samastipur - BSPCB",30-04-2024 03:00:00,25.859655,85.77944,CO,21,110,58
India,Bihar,Sasaram,"Dada Peer, Sasaram - BSPCB",30-04-2024 03:00:00,24.952822,84.002396,PM2.5,16,66,35
India,Bihar,Siwan,"Chitragupta Nagar, Siwan - BSPCB",30-04-2024 03:00:00,26.2271665,84.3570427,SO2,24,34,29
India,Bihar,Siwan,"Chitragupta Nagar, Siwan - BSPCB",30-04-2024 03:00:00,26.2271665,84.3570427,CO,103,136,121
India,Chandigarh,Chandigarh,"Sector 22, Chandigarh - CPCC",30-04-2024 03:00:00,30.735567,76.775714,NH3,4,8,6
India,Chandigarh,Chandigarh,"Sector 22, Chandigarh - CPCC",30-04-2024 03:00:00,30.735567,76.775714,OZONE,16,102,60
India,Chandigarh,Chandigarh,"Sector-25, Chandigarh - CPCC",30-04-2024 03:00:00,30.751462,76.762879,NH3,9,23,12
India,Chandigarh,Chandigarh,"Sector-25, Chandigarh - CPCC",30-04-2024 03:00:00,30.751462,76.762879,SO2,8,39,13
India,Chhattisgarh,Bhilai,"32Bungalows, Bhilai - CECB",30-04-2024 03:00:00,21.194815,81.314770,PM10,59,100,79
India,Chhattisgarh,Bhilai,"32Bungalows, Bhilai - CECB",30-04-2024 03:00:00,21.194815,81.314770,NH3,6,6,6
India,Chhattisgarh,Bilaspur,"Mangala, Bilaspur - NTPC",30-04-2024 03:00:00,22.08815,82.13737,SO2,NA,NA,NA
India,Chhattisgarh,Chhal,"Nawapara SECL Colony, Chhal - CECB",30-04-2024 03:00:00,22.118125,83.140608,PM10,46,189,75
India,Chhattisgarh,Chhal,"Nawapara SECL Colony, Chhal - CECB",30-04-2024 03:00:00,22.118125,83.140608,SO2,8,39,21
India,Chhattisgarh,Korba,"Rampur, Korba - CECB",30-04-2024 03:00:00,22.368195,82.746431,NH3,1,1,1
India,Chhattisgarh,Korba,"Urja Nagar, Korba - CECB",30-04-2024 03:00:00,22.348441,82.549611,PM10,47,111,78
India,Chhattisgarh,Milupara,"Govt. Higher Secondary School, Milupara - CECB",30-04-2024 03:00:00,22.1910172,83.5197009,SO2,NA,NA,NA
India,Chhattisgarh,Raipur,"Bhatagaon New ISBT, Raipur - CECB",30-04-2024 03:00:00,21.219665,81.630094,PM2.5,14,95,40
India,Chhattisgarh,Raipur,"Bhatagaon New ISBT, Raipur - CECB",30-04-2024 03:00:00,21.219665,81.630094,PM10,34,95,56
India,Chhattisgarh,Raipur,"Krishak Nagar, Raipur - CECB",30-04-2024 03:00:00,21.237755,81.705301,PM10,40,110,71
India,Chhattisgarh,Raipur,"Krishak Nagar, Raipur - CECB",30-04-2024 03:00:00,21.237755,81.705301,CO,26,58,32
India,Chhattisgarh,Raipur,"Krishak Nagar, Raipur - CECB",30-04-2024 03:00:00,21.237755,81.705301,OZONE,1,60,22
India,Chhattisgarh,Raipur,"Siltara Phase-II, Raipur - CECB",30-04-2024 03:00:00,21.371751,81.664929,PM10,48,135,89
India,Chhattisgarh,Raipur,"Siltara Phase-II, Raipur - CECB",30-04-2024 03:00:00,21.371751,81.664929,OZONE,3,41,13
India,Delhi,Delhi,"Alipur, Delhi - DPCC",30-04-2024 03:00:00,28.815329,77.153010,PM2.5,36,325,125
India,Delhi,Delhi,"Alipur, Delhi - DPCC",30-04-2024 03:00:00,28.815329,77.153010,PM10,125,340,197
India,Delhi,Delhi,"Alipur, Delhi - DPCC",30-04-2024 03:00:00,28.815329,77.153010,NH3,5,10,7
India,Delhi,Delhi,"Alipur, Delhi - DPCC",30-04-2024 03:00:00,28.815329,77.153010,OZONE,2,149,67
India,Delhi,Delhi,"Anand Vihar, Delhi - DPCC",30-04-2024 03:00:00,28.647622,77.3158090,NH3,5,14,9
India,Delhi,Delhi,"Ashok Vihar, Delhi - DPCC",30-04-2024 03:00:00,28.695381,77.181665,SO2,25,68,42
India,Delhi,Delhi,"Aya Nagar, Delhi - IMD",30-04-2024 03:00:00,28.4706914,77.1099364,CO,52,101,56
India,Delhi,Delhi,"Bawana, Delhi - DPCC",30-04-2024 03:00:00,28.776200,77.051074,PM10,136,413,236
India,Delhi,Delhi,"Burari Crossing, Delhi - IMD",30-04-2024 03:00:00,28.7256504,77.2011573,CO,28,54,31
India,Delhi,Delhi,"CRRI Mathura Road, Delhi - IMD",30-04-2024 03:00:00,28.5512005,77.2735737,PM2.5,56,330,164
India,Delhi,Delhi,"CRRI Mathura Road, Delhi - IMD",30-04-2024 03:00:00,28.5512005,77.2735737,PM10,142,364,211
India,Delhi,Delhi,"Chandni Chowk, Delhi - IITM",30-04-2024 03:00:00,28.656756,77.227234,PM2.5,150,340,241
India,Delhi,Delhi,"Chandni Chowk, Delhi - IITM",30-04-2024 03:00:00,28.656756,77.227234,SO2,12,83,38
India,Delhi,Delhi,"DTU, Delhi - CPCB",30-04-2024 03:00:00,28.7500499,77.1112615,PM2.5,87,323,185
India,Delhi,Delhi,"DTU, Delhi - CPCB",30-04-2024 03:00:00,28.7500499,77.1112615,NO2,4,10,7
India,Delhi,Delhi,"Dr. Karni Singh Shooting Range, Delhi - DPCC",30-04-2024 03:00:00,28.498571,77.264840,CO,28,77,44
India,Delhi,Delhi,"Dwarka-Sector 8, Delhi - DPCC ",30-04-2024 03:00:00,28.5710274,77.0719006,PM10,128,442,222
India,Delhi,Delhi,"Dwarka-Sector 8, Delhi - DPCC ",30-04-2024 03:00:00,28.5710274,77.0719006,SO2,8,36,20
India,Delhi,Delhi,"IGI Airport (T3), Delhi - IMD",30-04-2024 03:00:00,28.5627763,77.1180053,CO,32,102,37
India,Delhi,Delhi,"ITO, Delhi - CPCB",30-04-2024 03:00:00,28.628624,77.241060,NO2,1,207,86
India,Delhi,Delhi,"ITO, Delhi - CPCB",30-04-2024 03:00:00,28.628624,77.241060,NH3,1,9,4
India,Delhi,Delhi,"Jahangirpuri, Delhi - DPCC",30-04-2024 03:00:00,28.732820,77.170633,PM10,140,411,227
India,Delhi,Delhi,"Jahangirpuri, Delhi - DPCC",30-04-2024 03:00:00,28.732820,77.170633,OZONE,5,103,36
India,Delhi,Delhi,"Jawaharlal Nehru Stadium, Delhi - DPCC",30-04-2024 03:00:00,28.580280,77.233829,SO2,9,71,30
India,Delhi,Delhi,"Lodhi Road, Delhi - IITM",30-04-2024 03:00:00,28.588333,77.221667,PM10,NA,NA,NA
India,Delhi,Delhi,"Lodhi Road, Delhi - IITM",30-04-2024 03:00:00,28.588333,77.221667,NH3,NA,NA,NA
India,Delhi,Delhi,"Lodhi Road, Delhi - IMD",30-04-2024 03:00:00,28.5918245,77.2273074,PM10,105,293,159
India,Delhi,Delhi,"Lodhi Road, Delhi - IMD",30-04-2024 03:00:00,28.5918245,77.2273074,NO2,1,25,10
India,Delhi,Delhi,"Mundka, Delhi - DPCC",30-04-2024 03:00:00,28.684678,77.076574,PM10,145,430,240
India,Delhi,Delhi,"Mundka, Delhi - DPCC",30-04-2024 03:00:00,28.684678,77.076574,NH3,4,6,5
India,Delhi,Delhi,"Najafgarh, Delhi - DPCC",30-04-2024 03:00:00,28.570173,76.933762,NO2,23,125,56
India,Delhi,Delhi,"Narela, Delhi - DPCC",30-04-2024 03:00:00,28.822836,77.101981,SO2,12,54,30
India,Delhi,Delhi,"Nehru Nagar, Delhi - DPCC",30-04-2024 03:00:00,28.567890,77.250515,NO2,8,21,12
India,Delhi,Delhi,"Nehru Nagar, Delhi - DPCC",30-04-2024 03:00:00,28.567890,77.250515,NH3,2,10,3
India,Delhi,Delhi,"North Campus, DU, Delhi - IMD",30-04-2024 03:00:00,28.6573814,77.1585447,CO,77,98,83
India,Delhi,Delhi,"Patparganj, Delhi - DPCC",30-04-2024 03:00:00,28.623763,77.287209,PM10,166,405,219
India,Delhi,Delhi,"Patparganj, Delhi - DPCC",30-04-2024 03:00:00,28.623763,77.287209,CO,52,76,64
India,Delhi,Delhi,"Punjabi Bagh, Delhi - DPCC",30-04-2024 03:00:00,28.674045,77.131023,OZONE,2,46,15
India,Delhi,Delhi,"Pusa, Delhi - DPCC",30-04-2024 03:00:00,28.639652,77.146275,NO2,27,120,61
India,Delhi,Delhi,"Pusa, Delhi - IMD",30-04-2024 03:00:00,28.636110,77.173332,PM2.5,99,381,244
India,Delhi,Delhi,"Pusa, Delhi - IMD",30-04-2024 03:00:00,28.636110,77.173332,PM10,147,366,201
India,Delhi,Delhi,"Pusa, Delhi - IMD",30-04-2024 03:00:00,28.636110,77.173332,NO2,7,20,13
India,Delhi,Delhi,"Pusa, Delhi - IMD",30-04-2024 03:00:00,28.636110,77.173332,CO,36,78,39
India,Delhi,Delhi,"R K Puram, Delhi - DPCC",30-04-2024 03:00:00,28.563262,77.186937,NO2,12,54,24
India,Delhi,Delhi,"R K Puram, Delhi - DPCC",30-04-2024 03:00:00,28.563262,77.186937,NH3,1,7,4
India,Delhi,Delhi,"R K Puram, Delhi - DPCC",30-04-2024 03:00:00,28.563262,77.186937,OZONE,30,215,65
India,Delhi,Delhi,"Rohini, Delhi - DPCC",30-04-2024 03:00:00,28.732528,77.119920,PM10,137,439,221
India,Delhi,Delhi,"Shadipur, Delhi - CPCB",30-04-2024 03:00:00,28.6514781,77.1473105,PM2.5,96,355,287
India,Delhi,Delhi,"Sirifort, Delhi - CPCB",30-04-2024 03:00:00,28.5504249,77.2159377,NH3,19,30,23
India,Delhi,Delhi,"Sirifort, Delhi - CPCB",30-04-2024 03:00:00,28.5504249,77.2159377,SO2,8,14,11
India,Delhi,Delhi,"Sonia Vihar, Delhi - DPCC",30-04-2024 03:00:00,28.710508,77.249485,SO2,12,53,23
India,Delhi,Delhi,"Sri Aurobindo Marg, Delhi - DPCC",30-04-2024 03:00:00,28.531346,77.190156,SO2,9,49,25
India,Delhi,Delhi,"Sri Aurobindo Marg, Delhi - DPCC",30-04-2024 03:00:00,28.531346,77.190156,CO,10,66,20
India,Delhi,Delhi,"Vivek Vihar, Delhi - DPCC",30-04-2024 03:00:00,28.672342,77.315260,PM10,147,438,224
India,Delhi,Delhi,"Wazirpur, Delhi - DPCC",30-04-2024 03:00:00,28.699793,77.165453,NO2,8,31,17
India,Gujarat,Ahmedabad,"Chandkheda, Ahmedabad - IITM",30-04-2024 03:00:00,23.107969,72.574648,SO2,2,18,8
India,Gujarat,Ahmedabad,"Gyaspur, Ahmedabad - IITM",30-04-2024 03:00:00,22.977134,72.553024,PM10,93,192,122
India,Gujarat,Ahmedabad,"Maninagar, Ahmedabad - GPCB",30-04-2024 03:00:00,23.002657,72.591912,NO2,22,71,36
India,Gujarat,Ahmedabad,"Raikhad, Ahmedabad - IITM",30-04-2024 03:00:00,23.020509,72.579261,OZONE,10,27,14
India,Gujarat,Ahmedabad,"Rakhial, Ahmedabad - IITM",30-04-2024 03:00:00,23.016834,72.625775,NH3,2,15,7
India,Gujarat,Ahmedabad,"SAC ISRO Satellite, Ahmedabad - IITM",30-04-2024 03:00:00,23.023389,72.515201,CO,32,41,40
India,Gujarat,Ahmedabad,"Sardar Vallabhbhai Patel Stadium, Ahmedabad - IITM",30-04-2024 03:00:00,23.043070,72.562968,PM2.5,64,107,77
India,Gujarat,Ahmedabad,"Sardar Vallabhbhai Patel Stadium, Ahmedabad - IITM",30-04-2024 03:00:00,23.043070,72.562968,NH3,6,25,8
India,Gujarat,Nandesari,"GIDC, Nandesari - Nandesari Ind. Association",30-04-2024 03:00:00,22.410802,73.097923,NO2,4,114,32
India,Gujarat,Nandesari,"GIDC, Nandesari - Nandesari Ind. Association",30-04-2024 03:00:00,22.410802,73.097923,SO2,NA,NA,NA
India,Gujarat,Vapi,"Phase-1 GIDC, Vapi - GPCB",30-04-2024 03:00:00,20.362421,72.918013,OZONE,70,101,97
India,Haryana,Ballabgarh,"Nathu Colony, Ballabgarh - HSPCB",30-04-2024 03:00:00,28.3419248,77.319699,PM2.5,158,358,258
India,Haryana,Ballabgarh,"Nathu Colony, Ballabgarh - HSPCB",30-04-2024 03:00:00,28.3419248,77.319699,OZONE,3,43,15
India,Haryana,Bhiwani,"H.B. Colony, Bhiwani - HSPCB",30-04-2024 03:00:00,28.806223,76.141105,NO2,1,11,9
India,Haryana,Charkhi Dadri,"Mini Secretariat, Charkhi Dadri - HSPCB",30-04-2024 03:00:00,28.593883,76.270653,OZONE,13,17,15
India,Haryana,Dharuhera,"Municipal Corporation Office, Dharuhera -  HSPCB",30-04-2024 03:00:00,28.206800,76.799700,SO2,15,66,34
India,Haryana,Faridabad,"New Industrial Town, Faridabad - HSPCB",30-04-2024 03:00:00,28.39072,77.30059,SO2,6,11,9
India,Haryana,Faridabad,"New Industrial Town, Faridabad - HSPCB",30-04-2024 03:00:00,28.39072,77.30059,OZONE,10,204,76
India,Haryana,Faridabad,"Sector 11, Faridabad - HSPCB",30-04-2024 03:00:00,28.376058,77.315741,CO,32,61,37
India,Haryana,Faridabad,"Sector 11, Faridabad - HSPCB",30-04-2024 03:00:00,28.376058,77.315741,OZONE,3,29,9
India,Haryana,Faridabad,"Sector 30, Faridabad - HSPCB",30-04-2024 03:00:00,28.4417,77.3217,CO,NA,NA,NA
India,Haryana,Fatehabad,"Huda Sector, Fatehabad - HSPCB",30-04-2024 03:00:00,29.503664,75.467934,NO2,29,32,30
India,Haryana,Fatehabad,"Huda Sector, Fatehabad - HSPCB",30-04-2024 03:00:00,29.503664,75.467934,NH3,10,11,10
India,Haryana,Fatehabad,"Huda Sector, Fatehabad - HSPCB",30-04-2024 03:00:00,29.503664,75.467934,CO,6,14,9
India,Haryana,Gurugram,"Sector-51, Gurugram - HSPCB",30-04-2024 03:00:00,28.4227,77.0667,SO2,1,25,4
India,Haryana,Gurugram,"Sector-51, Gurugram - HSPCB",30-04-2024 03:00:00,28.4227,77.0667,CO,28,96,31
India,Haryana,Gurugram,"Teri Gram, Gurugram - HSPCB",30-04-2024 03:00:00,28.4275,77.1465,NH3,NA,NA,NA
India,Haryana,Gurugram,"Vikas Sadan, Gurugram - HSPCB",30-04-2024 03:00:00,28.4501238,77.0263051,OZONE,8,68,19
India,Haryana,Hisar,"Urban Estate-II, Hisar - HSPCB",30-04-2024 03:00:00,29.140560,75.744941,SO2,NA,NA,NA
India,Haryana,Jind,"Police Lines, Jind - HSPCB",30-04-2024 03:00:00,29.307814,76.337619,PM2.5,31,75,51
India,Haryana,Jind,"Police Lines, Jind - HSPCB",30-04-2024 03:00:00,29.307814,76.337619,PM10,76,118,97
India,Haryana,Kaithal,"Rishi Nagar, Kaithal - HSPCB",30-04-2024 03:00:00,29.8006,76.4155,PM10,56,498,136
India,Haryana,Kaithal,"Rishi Nagar, Kaithal - HSPCB",30-04-2024 03:00:00,29.8006,76.4155,SO2,30,73,46
India,Haryana,Kaithal,"Rishi Nagar, Kaithal - HSPCB",30-04-2024 03:00:00,29.8006,76.4155,CO,13,32,26
India,Haryana,Kaithal,"Rishi Nagar, Kaithal - HSPCB",30-04-2024 03:00:00,29.8006,76.4155,OZONE,9,14,11
India,Haryana,Karnal,"Sector-12, Karnal - HSPCB",30-04-2024 03:00:00,29.695300,77.002700,NH3,10,12,11
India,Haryana,Kurukshetra,"Sector-7, Kurukshetra - HSPCB",30-04-2024 03:00:00,29.966942,76.875879,PM10,79,160,122
India,Haryana,Kurukshetra,"Sector-7, Kurukshetra - HSPCB",30-04-2024 03:00:00,29.966942,76.875879,NH3,3,5,5
India,Haryana,Kurukshetra,"Sector-7, Kurukshetra - HSPCB",30-04-2024 03:00:00,29.966942,76.875879,OZONE,21,49,31
India,Haryana,Mandikhera,"General Hospital, Mandikhera - HSPCB",30-04-2024 03:00:00,27.9002,76.9938,PM2.5,20,230,56
India,Haryana,Mandikhera,"General Hospital, Mandikhera - HSPCB",30-04-2024 03:00:00,27.9002,76.9938,NO2,20,23,21
India,Haryana,Narnaul,"Shastri Nagar, Narnaul - HSPCB",30-04-2024 03:00:00,28.060249,76.113115,SO2,13,103,18
India,Haryana,Panchkula,"Sector-6, Panchkula - HSPCB ",30-04-2024 03:00:00,30.7057778,76.8531805555555,PM2.5,46,246,98
India,Haryana,Panchkula,"Sector-6, Panchkula - HSPCB ",30-04-2024 03:00:00,30.7057778,76.8531805555555,OZONE,33,45,39
India,Haryana,Panipat,"Sector-18, Panipat - HSPCB",30-04-2024 03:00:00,29.497973,76.993331,NO2,31,32,31
India,Haryana,Rohtak,"MD University, Rohtak - HSPCB",30-04-2024 03:00:00,28.52123,76.37138,PM2.5,2,400,106
India,Haryana,Rohtak,"MD University, Rohtak - HSPCB",30-04-2024 03:00:00,28.52123,76.37138,OZONE,45,52,49
India,Haryana,Sirsa,"F-Block, Sirsa - HSPCB",30-04-2024 03:00:00,29.536400,75.015800,NO2,9,14,10
India,Haryana,Sonipat,"Murthal, Sonipat - HSPCB",30-04-2024 03:00:00,29.027200,77.062100,PM2.5,25,26,26
India,Haryana,Sonipat,"Murthal, Sonipat - HSPCB",30-04-2024 03:00:00,29.027200,77.062100,PM10,80,82,81
India,Haryana,Yamuna Nagar,"Gobind Pura, Yamuna Nagar - HSPCB",30-04-2024 03:00:00,30.1480566,77.2893471,SO2,NA,NA,NA
India,Haryana,Yamuna Nagar,"Gobind Pura, Yamuna Nagar - HSPCB",30-04-2024 03:00:00,30.1480566,77.2893471,CO,30,54,46
India,Jharkhand,Dhanbad,"Kalakusuma, Dhanbad - DMC",30-04-2024 03:00:00,23.811548,86.481238,CO,126,133,130
India,Jharkhand,Pathardih,"Mohalbani Ghat, Pathardih - DMC",30-04-2024 03:00:00,23.669880,86.411725,PM2.5,NA,NA,NA
India,Jharkhand,Pathardih,"Mohalbani Ghat, Pathardih - DMC",30-04-2024 03:00:00,23.669880,86.411725,PM10,NA,NA,NA
India,Jharkhand,Pathardih,"Mohalbani Ghat, Pathardih - DMC",30-04-2024 03:00:00,23.669880,86.411725,CO,NA,NA,NA
India,Karnataka,Bagalkot,"Vidayagiri, Bagalkot - KSPCB",30-04-2024 03:00:00,16.172806,75.659694,NH3,1,2,1
India,Karnataka,Bagalkot,"Vidayagiri, Bagalkot - KSPCB",30-04-2024 03:00:00,16.172806,75.659694,CO,12,47,37
India,Karnataka,Bagalkot,"Vidayagiri, Bagalkot - KSPCB",30-04-2024 03:00:00,16.172806,75.659694,OZONE,19,35,26
India,Karnataka,Bengaluru,"Bapuji Nagar, Bengaluru - KSPCB",30-04-2024 03:00:00,12.951913,77.539784,PM2.5,42,91,66
India,Karnataka,Bengaluru,"Hombegowda Nagar, Bengaluru - KSPCB",30-04-2024 03:00:00,12.938539,77.590100,NH3,1,1,1
India,Karnataka,Bengaluru,"Hombegowda Nagar, Bengaluru - KSPCB",30-04-2024 03:00:00,12.938539,77.590100,SO2,3,5,4
India,Karnataka,Bengaluru,"Hombegowda Nagar, Bengaluru - KSPCB",30-04-2024 03:00:00,12.938539,77.590100,CO,20,76,44
India,Karnataka,Bengaluru,"Jayanagar 5th Block, Bengaluru - KSPCB",30-04-2024 03:00:00,12.920984,77.584908,OZONE,18,33,32
India,Karnataka,Bengaluru,"Kasturi Nagar, Bengaluru - KSPCB",30-04-2024 03:00:00,13.003872,77.664217,PM2.5,47,115,77
India,Karnataka,Bengaluru,"Kasturi Nagar, Bengaluru - KSPCB",30-04-2024 03:00:00,13.003872,77.664217,PM10,60,123,94
India,Karnataka,Bengaluru,"Kasturi Nagar, Bengaluru - KSPCB",30-04-2024 03:00:00,13.003872,77.664217,NH3,3,4,4
India,Karnataka,Bengaluru,"Kasturi Nagar, Bengaluru - KSPCB",30-04-2024 03:00:00,13.003872,77.664217,OZONE,16,105,51
India,Karnataka,Bengaluru,"Peenya, Bengaluru - CPCB",30-04-2024 03:00:00,13.0270199,77.494094,CO,26,48,39
India,Karnataka,Bengaluru,"RVCE-Mailasandra, Bengaluru - KSPCB",30-04-2024 03:00:00,12.921418,77.502466,CO,34,74,55
India,Karnataka,Bengaluru,"Sanegurava Halli, Bengaluru - KSPCB",30-04-2024 03:00:00,12.990328,77.5431385,SO2,2,3,3
India,Karnataka,Bengaluru,"Sanegurava Halli, Bengaluru - KSPCB",30-04-2024 03:00:00,12.990328,77.5431385,CO,1,58,22
India,Karnataka,Bengaluru,"Shivapura_Peenya, Bengaluru - KSPCB",30-04-2024 03:00:00,13.0246342,77.5080115,PM10,33,104,62
India,Karnataka,Bengaluru,"Silk Board, Bengaluru - KSPCB",30-04-2024 03:00:00,12.917348,77.622813,NO2,7,18,13
India,Karnataka,Bidar,"Naubad, Bidar - KSPCB",30-04-2024 03:00:00,17.930306,77.482194,CO,66,98,84
India,Karnataka,Chamarajanagar,"Urban, Chamarajanagar - KSPCB",30-04-2024 03:00:00,11.55358,76.55521,SO2,2,10,6
India,Karnataka,Chikkaballapur,"Chikkaballapur Rural, Chikkaballapur - KSPCB",30-04-2024 03:00:00,13.428828,77.731418,PM2.5,25,70,47
