country,state,city,station,last_update,latitude,longitude,pollutant_id,pollutant_min,pollutant_max,pollutant_avg
India,Andhra_Pradesh,Anantapur,"Gulzarpet, Anantapur - APPCB",22-06-2024 04:00:00,14.675886,77.593027,PM10,50,113,79
India,Andhra_Pradesh,Kadapa,"Yerramukkapalli, Kadapa - APPCB",22-06-2024 04:00:00,14.465052,78.824187,OZONE,NA,NA,NA
India,Andhra_Pradesh,Rajamahendravaram,"Anand Kala Kshetram, Rajamahendravaram - APPCB",22-06-2024 04:00:00,16.9872867,81.7363176,SO2,11,12,12
India,Andhra_Pradesh,Rajamahendravaram,"Anand Kala Kshetram, Rajamahendravaram - APPCB",22-06-2024 04:00:00,16.9872867,81.7363176,OZONE,10,86,47
India,Andhra_Pradesh,Tirupati,"Tirumala, Tirupati - APPCB",22-06-2024 04:00:00,13.67,79.35,PM2.5,15,57,26
India,Andhra_Pradesh,Tirupati,"Tirumala, Tirupati - APPCB",22-06-2024 04:00:00,13.67,79.35,PM10,23,88,45
India,Andhra_Pradesh,Tirupati,"Tirumala, Tirupati - APPCB",22-06-2024 04:00:00,13.67,79.35,NO2,16,33,24
India,Andhra_Pradesh,Tirupati,"Vaikuntapuram, Tirupati - APPCB",22-06-2024 04:00:00,13.615387,79.409230,PM10,67,124,91
India,Andhra_Pradesh,Tirupati,"Vaikuntapuram, Tirupati - APPCB",22-06-2024 04:00:00,13.615387,79.409230,CO,10,15,14
India,Andhra_Pradesh,Vijayawada,"HB Colony, Vijayawada - APPCB",22-06-2024 04:00:00,16.536107,80.594233,NH3,4,4,4
India,Andhra_Pradesh,Vijayawada,"HB Colony, Vijayawada - APPCB",22-06-2024 04:00:00,16.536107,80.594233,SO2,3,4,4
India,Andhra_Pradesh,Vijayawada,"Kanuru, Vijayawada - APPCB",22-06-2024 04:00:00,16.486692,80.699436,OZONE,40,40,40
India,Andhra_Pradesh,Vijayawada,"Rajiv Gandhi Park, Vijayawada - APPCB",22-06-2024 04:00:00,16.509717,80.612222,PM10,37,75,55
India,Andhra_Pradesh,Vijayawada,"Rajiv Nagar, Vijayawada - APPCB",22-06-2024 04:00:00,16.554731,80.649110,PM10,53,90,57
India,Andhra_Pradesh,Vijayawada,"Rajiv Nagar, Vijayawada - APPCB",22-06-2024 04:00:00,16.554731,80.649110,NO2,10,10,10
India,Andhra_Pradesh,Vijayawada,"Rajiv Nagar, Vijayawada - APPCB",22-06-2024 04:00:00,16.554731,80.649110,OZONE,16,45,28
India,Andhra_Pradesh,Visakhapatnam,"GVM Corporation, Visakhapatnam - APPCB",22-06-2024 04:00:00,17.72,83.3,PM2.5,24,69,48
India,Arunachal_Pradesh,Naharlagun,"Naharlagun, Naharlagun - APSPCB",22-06-2024 04:00:00,27.103358,93.679645,PM2.5,14,36,24
India,Arunachal_Pradesh,Naharlagun,"Naharlagun, Naharlagun - APSPCB",22-06-2024 04:00:00,27.103358,93.679645,OZONE,3,3,3
India,Assam,Byrnihat,"Central Academy for SFS, Byrnihat - PCBA",22-06-2024 04:00:00,26.071318,91.87488,PM10,17,145,61
India,Assam,Byrnihat,"Central Academy for SFS, Byrnihat - PCBA",22-06-2024 04:00:00,26.071318,91.87488,CO,2,9,3
India,Assam,Guwahati,"IITG, Guwahati - PCBA",22-06-2024 04:00:00,26.2028636,91.70046436,PM2.5,NA,NA,NA
India,Assam,Guwahati,"IITG, Guwahati - PCBA",22-06-2024 04:00:00,26.2028636,91.70046436,NH3,5,5,5
India,Assam,Guwahati,"LGBI Airport, Guwahati - PCBA",22-06-2024 04:00:00,26.10887,91.589544,PM2.5,5,366,97
India,Assam,Guwahati,"Pan Bazaar, Guwahati - PCBA",22-06-2024 04:00:00,26.187500,91.744194,CO,18,50,39
India,Assam,Guwahati,"Railway Colony, Guwahati - PCBA",22-06-2024 04:00:00,26.181742,91.78063,SO2,2,2,2
India,Assam,Guwahati,"Railway Colony, Guwahati - PCBA",22-06-2024 04:00:00,26.181742,91.78063,OZONE,5,5,2
India,Assam,Nagaon,"Christianpatty, Nagaon - PCBA",22-06-2024 04:00:00,26.349082,92.68449,OZONE,6,41,9
India,Assam,Silchar,"Tarapur, Silchar - PCBA",22-06-2024 04:00:00,24.82827,92.79525,NO2,9,11,10
India,Assam,Silchar,"Tarapur, Silchar - PCBA",22-06-2024 04:00:00,24.82827,92.79525,SO2,1,14,7
India,Assam,Sivasagar,"Girls College, Sivasagar - PCBA",22-06-2024 04:00:00,26.987634,94.636574,CO,4,12,9
India,Bihar,Araria,"Kharahiya Basti, Araria - BSPCB",22-06-2024 04:00:00,26.146529,87.454184,OZONE,28,32,30
India,Bihar,Arrah,"New DM Office, Arrah - BSPCB",22-06-2024 04:00:00,25.5626095,84.663264,NO2,10,14,12
India,Bihar,Aurangabad,"Gurdeo Nagar, Aurangabad - BSPCB",22-06-2024 04:00:00,24.75746,84.366208,PM10,NA,NA,NA
India,Bihar,Aurangabad,"Gurdeo Nagar, Aurangabad - BSPCB",22-06-2024 04:00:00,24.75746,84.366208,NH3,NA,NA,NA
India,Bihar,Aurangabad,"Gurdeo Nagar, Aurangabad - BSPCB",22-06-2024 04:00:00,24.75746,84.366208,OZONE,3,85,21
India,Bihar,Bettiah,"Kamalnath Nagar, Bettiah - BSPCB",22-06-2024 04:00:00,26.80365,84.51954,PM10,32,158,103
India,Bihar,Bhagalpur,"DM Office_Kachari Chowk, Bhagalpur - BSPCB",22-06-2024 04:00:00,25.251013,86.989001,SO2,19,20,20
India,Bihar,Bhagalpur,"Mayaganj, Bhagalpur - BSPCB",22-06-2024 04:00:00,25.265194,87.012947,NO2,6,7,6
India,Bihar,Bihar Sharif,"D M Colony, Bihar Sharif - BSPCB",22-06-2024 04:00:00,25.204762,85.514960,NO2,8,10,9
India,Bihar,Buxar,"Charitra Van, Buxar - BSPCB (Formerly known as Central Jail)",22-06-2024 04:00:00,25.567520,83.966379,OZONE,13,88,40
India,Bihar,Chhapra,"Darshan Nagar, Chhapra - BSPCB",22-06-2024 04:00:00,25.7808257,84.7446768,PM2.5,NA,NA,NA
India,Bihar,Chhapra,"Darshan Nagar, Chhapra - BSPCB",22-06-2024 04:00:00,25.7808257,84.7446768,NO2,NA,NA,NA
India,Bihar,Gaya,"Collectorate, Gaya - BSPCB",22-06-2024 04:00:00,24.7955,84.9994,PM2.5,18,317,92
India,Bihar,Gaya,"Kareemganj, Gaya - BSPCB",22-06-2024 04:00:00,24.792403,84.992416,NO2,29,31,30
India,Bihar,Gaya,"Kareemganj, Gaya - BSPCB",22-06-2024 04:00:00,24.792403,84.992416,NH3,NA,NA,NA
India,Bihar,Hajipur,"Industrial Area, Hajipur - BSPCB",22-06-2024 04:00:00,25.697189,85.245900,PM10,44,101,78
India,Bihar,Hajipur,"Industrial Area, Hajipur - BSPCB",22-06-2024 04:00:00,25.697189,85.245900,CO,18,26,25
India,Bihar,Katihar,"Mirchaibari, Katihar - BSPCB",22-06-2024 04:00:00,25.560083,87.553265,PM10,11,179,63
India,Bihar,Katihar,"Mirchaibari, Katihar - BSPCB",22-06-2024 04:00:00,25.560083,87.553265,CO,24,35,31
India,Bihar,Kishanganj,"SDM Office_Khagra, Kishanganj - BSPCB",22-06-2024 04:00:00,26.0881305,87.93840336,PM2.5,12,60,31
India,Bihar,Kishanganj,"SDM Office_Khagra, Kishanganj - BSPCB",22-06-2024 04:00:00,26.0881305,87.93840336,NO2,25,65,54
India,Bihar,Kishanganj,"SDM Office_Khagra, Kishanganj - BSPCB",22-06-2024 04:00:00,26.0881305,87.93840336,SO2,4,9,8
India,Bihar,Manguraha,"Forest Rest House, Manguraha - BSPCB",22-06-2024 04:00:00,27.308328,84.531742,PM2.5,7,42,21
India,Bihar,Manguraha,"Forest Rest House, Manguraha - BSPCB",22-06-2024 04:00:00,27.308328,84.531742,OZONE,3,53,7
India,Bihar,Muzaffarpur,"Buddha Colony, Muzaffarpur - BSPCB",22-06-2024 04:00:00,26.11442,85.39813,NO2,14,25,19
India,Bihar,Muzaffarpur,"MIT-Daudpur Kothi, Muzaffarpur - BSPCB",22-06-2024 04:00:00,26.1403345,85.3650192,OZONE,9,42,15
India,Bihar,Muzaffarpur,"Muzaffarpur Collectorate, Muzaffarpur - BSPCB",22-06-2024 04:00:00,26.1209,85.3647,PM2.5,13,143,42
India,Bihar,Muzaffarpur,"Muzaffarpur Collectorate, Muzaffarpur - BSPCB",22-06-2024 04:00:00,26.1209,85.3647,CO,12,66,37
India,Bihar,Patna,"DRM Office Danapur, Patna - BSPCB",22-06-2024 04:00:00,25.586562,85.043586,PM10,60,107,85
India,Bihar,Patna,"IGSC Planetarium Complex, Patna - BSPCB",22-06-2024 04:00:00,25.610369,85.132568,PM2.5,60,122,80
India,Bihar,Patna,"IGSC Planetarium Complex, Patna - BSPCB",22-06-2024 04:00:00,25.610369,85.132568,SO2,6,8,7
India,Bihar,Patna,"IGSC Planetarium Complex, Patna - BSPCB",22-06-2024 04:00:00,25.610369,85.132568,OZONE,92,126,115
India,Bihar,Patna,"Muradpur, Patna - BSPCB",22-06-2024 04:00:00,25.619651,85.147382,NO2,2,108,21
India,Bihar,Patna,"Muradpur, Patna - BSPCB",22-06-2024 04:00:00,25.619651,85.147382,CO,39,72,52
India,Bihar,Patna,"Samanpura, Patna - BSPCB",22-06-2024 04:00:00,25.596727,85.085624,PM2.5,59,142,82
India,Bihar,Patna,"Samanpura, Patna - BSPCB",22-06-2024 04:00:00,25.596727,85.085624,NH3,6,15,10
India,Bihar,Purnia,"Mariam Nagar, Purnia - BSPCB",22-06-2024 04:00:00,25.366336,87.117468,SO2,6,15,10
India,Bihar,Rajgir,"Dangi Tola, Rajgir - BSPCB",22-06-2024 04:00:00,25.03280,85.41948,CO,38,38,38
India,Bihar,Saharsa,"Police Line, Saharsa - BSPCB",22-06-2024 04:00:00,25.892357,86.590325,PM2.5,2,47,21
India,Bihar,Saharsa,"Police Line, Saharsa - BSPCB",22-06-2024 04:00:00,25.892357,86.590325,CO,48,55,53
India,Bihar,Sasaram,"Dada Peer, Sasaram - BSPCB",22-06-2024 04:00:00,24.952822,84.002396,NH3,3,23,9
India,Chandigarh,Chandigarh,"Sector-53, Chandigarh - CPCC",22-06-2024 04:00:00,30.719859,76.738637,PM2.5,57,173,95
India,Chandigarh,Chandigarh,"Sector-53, Chandigarh - CPCC",22-06-2024 04:00:00,30.719859,76.738637,SO2,4,17,8
India,Chandigarh,Chandigarh,"Sector-53, Chandigarh - CPCC",22-06-2024 04:00:00,30.719859,76.738637,OZONE,10,87,27
India,Chhattisgarh,Bhilai,"Civic Center, Bhilai - Bhilai Steel Plant",22-06-2024 04:00:00,21.185571,81.343175,NO2,7,8,8
India,Chhattisgarh,Bhilai,"Civic Center, Bhilai - Bhilai Steel Plant",22-06-2024 04:00:00,21.185571,81.343175,CO,34,44,40
India,Chhattisgarh,Bhilai,"Civic Center, Bhilai - Bhilai Steel Plant",22-06-2024 04:00:00,21.185571,81.343175,OZONE,8,40,19
India,Chhattisgarh,Bhilai,"Hathkhoj, Bhilai - CECB",22-06-2024 04:00:00,21.224231,81.408350,NH3,9,10,10
India,Chhattisgarh,Bilaspur,"Mangala, Bilaspur - NTPC",22-06-2024 04:00:00,22.08815,82.13737,SO2,10,16,14
India,Chhattisgarh,Bilaspur,"Mangala, Bilaspur - NTPC",22-06-2024 04:00:00,22.08815,82.13737,CO,34,50,44
India,Chhattisgarh,Chhal,"Nawapara SECL Colony, Chhal - CECB",22-06-2024 04:00:00,22.118125,83.140608,CO,10,33,33
India,Chhattisgarh,Kunjemura,"OP Jindal School, Kunjemura - CECB",22-06-2024 04:00:00,22.126650,83.483212,PM2.5,6,37,20
India,Chhattisgarh,Kunjemura,"OP Jindal School, Kunjemura - CECB",22-06-2024 04:00:00,22.126650,83.483212,NH3,1,3,3
India,Chhattisgarh,Milupara,"Govt. Higher Secondary School, Milupara - CECB",22-06-2024 04:00:00,22.1910172,83.5197009,PM2.5,NA,NA,NA
India,Chhattisgarh,Raipur,"Krishak Nagar, Raipur - CECB",22-06-2024 04:00:00,21.237755,81.705301,PM10,4,31,16
India,Chhattisgarh,Raipur,"Krishak Nagar, Raipur - CECB",22-06-2024 04:00:00,21.237755,81.705301,CO,16,28,19
India,Chhattisgarh,Tumidih,"OP Jindal Industrial Park, Tumidih - CECB",22-06-2024 04:00:00,22.06631475,83.33820077,SO2,5,7,6
India,Delhi,Delhi,"Alipur, Delhi - DPCC",22-06-2024 04:00:00,28.815329,77.153010,PM10,51,322,151
India,Delhi,Delhi,"Alipur, Delhi - DPCC",22-06-2024 04:00:00,28.815329,77.153010,NH3,4,7,5
India,Delhi,Delhi,"Anand Vihar, Delhi - DPCC",22-06-2024 04:00:00,28.647622,77.3158090,CO,27,110,96
India,Delhi,Delhi,"Ashok Vihar, Delhi - DPCC",22-06-2024 04:00:00,28.695381,77.181665,NO2,26,101,57
India,Delhi,Delhi,"Ashok Vihar, Delhi - DPCC",22-06-2024 04:00:00,28.695381,77.181665,SO2,10,21,15
India,Delhi,Delhi,"Aya Nagar, Delhi - IMD",22-06-2024 04:00:00,28.4706914,77.1099364,PM10,68,332,144
India,Delhi,Delhi,"Bawana, Delhi - DPCC",22-06-2024 04:00:00,28.776200,77.051074,NO2,8,62,30
India,Delhi,Delhi,"Bawana, Delhi - DPCC",22-06-2024 04:00:00,28.776200,77.051074,SO2,6,30,15
India,Delhi,Delhi,"Burari Crossing, Delhi - IMD",22-06-2024 04:00:00,28.7256504,77.2011573,CO,32,78,58
India,Delhi,Delhi,"CRRI Mathura Road, Delhi - IMD",22-06-2024 04:00:00,28.5512005,77.2735737,PM10,53,342,155
India,Delhi,Delhi,"CRRI Mathura Road, Delhi - IMD",22-06-2024 04:00:00,28.5512005,77.2735737,OZONE,5,38,7
India,Delhi,Delhi,"Chandni Chowk, Delhi - IITM",22-06-2024 04:00:00,28.656756,77.227234,NH3,NA,NA,NA
India,Delhi,Delhi,"DTU, Delhi - CPCB",22-06-2024 04:00:00,28.7500499,77.1112615,NO2,60,73,66
India,Delhi,Delhi,"Dr. Karni Singh Shooting Range, Delhi - DPCC",22-06-2024 04:00:00,28.498571,77.264840,NO2,18,106,53
India,Delhi,Delhi,"Dwarka-Sector 8, Delhi - DPCC ",22-06-2024 04:00:00,28.5710274,77.0719006,PM2.5,57,309,116
India,Delhi,Delhi,"Dwarka-Sector 8, Delhi - DPCC ",22-06-2024 04:00:00,28.5710274,77.0719006,OZONE,5,117,8
India,Delhi,Delhi,"IGI Airport (T3), Delhi - IMD",22-06-2024 04:00:00,28.5627763,77.1180053,PM2.5,35,300,85
India,Delhi,Delhi,"IHBAS, Dilshad Garden, Delhi - CPCB",22-06-2024 04:00:00,28.6811736,77.3025234,NH3,NA,NA,NA
India,Delhi,Delhi,"IHBAS, Dilshad Garden, Delhi - CPCB",22-06-2024 04:00:00,28.6811736,77.3025234,CO,NA,NA,NA
India,Delhi,Delhi,"ITO, Delhi - CPCB",22-06-2024 04:00:00,28.628624,77.241060,PM2.5,71,163,103
India,Delhi,Delhi,"ITO, Delhi - CPCB",22-06-2024 04:00:00,28.628624,77.241060,OZONE,32,66,37
India,Delhi,Delhi,"Jahangirpuri, Delhi - DPCC",22-06-2024 04:00:00,28.732820,77.170633,NO2,13,53,30
India,Delhi,Delhi,"Lodhi Road, Delhi - IMD",22-06-2024 04:00:00,28.5918245,77.2273074,NO2,1,10,4
India,Delhi,Delhi,"Major Dhyan Chand National Stadium, Delhi - DPCC",22-06-2024 04:00:00,28.611281,77.237738,OZONE,1,92,3
India,Delhi,Delhi,"Mandir Marg, Delhi - DPCC",22-06-2024 04:00:00,28.636429,77.201067,PM10,67,223,133
India,Delhi,Delhi,"Mandir Marg, Delhi - DPCC",22-06-2024 04:00:00,28.636429,77.201067,NH3,3,6,4
India,Delhi,Delhi,"Mandir Marg, Delhi - DPCC",22-06-2024 04:00:00,28.636429,77.201067,CO,34,95,80
India,Delhi,Delhi,"Mundka, Delhi - DPCC",22-06-2024 04:00:00,28.684678,77.076574,NH3,7,61,14
India,Delhi,Delhi,"NSIT Dwarka, Delhi - CPCB",22-06-2024 04:00:00,28.60909,77.0325413,PM2.5,8,316,201
India,Delhi,Delhi,"NSIT Dwarka, Delhi - CPCB",22-06-2024 04:00:00,28.60909,77.0325413,NH3,12,16,15
India,Delhi,Delhi,"NSIT Dwarka, Delhi - CPCB",22-06-2024 04:00:00,28.60909,77.0325413,CO,37,74,54
India,Delhi,Delhi,"Najafgarh, Delhi - DPCC",22-06-2024 04:00:00,28.570173,76.933762,SO2,12,25,18
India,Delhi,Delhi,"Najafgarh, Delhi - DPCC",22-06-2024 04:00:00,28.570173,76.933762,CO,40,62,58
India,Delhi,Delhi,"Narela, Delhi - DPCC",22-06-2024 04:00:00,28.822836,77.101981,SO2,4,8,6
India,Delhi,Delhi,"Nehru Nagar, Delhi - DPCC",22-06-2024 04:00:00,28.567890,77.250515,PM10,67,314,148
India,Delhi,Delhi,"New Moti Bagh, Delhi - MHUA",22-06-2024 04:00:00,28.57834,77.18400,PM2.5,80,500,205
India,Delhi,Delhi,"North Campus, DU, Delhi - IMD",22-06-2024 04:00:00,28.6573814,77.1585447,PM10,106,275,153
India,Delhi,Delhi,"North Campus, DU, Delhi - IMD",22-06-2024 04:00:00,28.6573814,77.1585447,NO2,11,22,15
India,Delhi,Delhi,"Pusa, Delhi - DPCC",22-06-2024 04:00:00,28.639652,77.146275,NO2,38,103,62
India,Delhi,Delhi,"Pusa, Delhi - IMD",22-06-2024 04:00:00,28.636110,77.173332,PM2.5,35,301,102
India,Delhi,Delhi,"Pusa, Delhi - IMD",22-06-2024 04:00:00,28.636110,77.173332,NO2,12,58,29
India,Delhi,Delhi,"Pusa, Delhi - IMD",22-06-2024 04:00:00,28.636110,77.173332,OZONE,8,52,9
India,Delhi,Delhi,"R K Puram, Delhi - DPCC",22-06-2024 04:00:00,28.563262,77.186937,NH3,4,11,7
India,Delhi,Delhi,"R K Puram, Delhi - DPCC",22-06-2024 04:00:00,28.563262,77.186937,SO2,1,28,10
India,Delhi,Delhi,"R K Puram, Delhi - DPCC",22-06-2024 04:00:00,28.563262,77.186937,CO,30,106,78
India,Delhi,Delhi,"Rohini, Delhi - DPCC",22-06-2024 04:00:00,28.732528,77.119920,PM10,102,358,190
India,Delhi,Delhi,"Rohini, Delhi - DPCC",22-06-2024 04:00:00,28.732528,77.119920,CO,22,96,66
India,Delhi,Delhi,"Shadipur, Delhi - CPCB",22-06-2024 04:00:00,28.6514781,77.1473105,SO2,5,48,20
India,Delhi,Delhi,"Shadipur, Delhi - CPCB",22-06-2024 04:00:00,28.6514781,77.1473105,CO,24,73,47
India,Delhi,Delhi,"Shadipur, Delhi - CPCB",22-06-2024 04:00:00,28.6514781,77.1473105,OZONE,15,57,28
India,Delhi,Delhi,"Sirifort, Delhi - CPCB",22-06-2024 04:00:00,28.5504249,77.2159377,PM10,96,270,165
India,Delhi,Delhi,"Sonia Vihar, Delhi - DPCC",22-06-2024 04:00:00,28.710508,77.249485,NO2,21,71,39
India,Delhi,Delhi,"Sri Aurobindo Marg, Delhi - DPCC",22-06-2024 04:00:00,28.531346,77.190156,PM2.5,78,170,105
India,Delhi,Delhi,"Vivek Vihar, Delhi - DPCC",22-06-2024 04:00:00,28.672342,77.315260,OZONE,1,82,6
India,Gujarat,Ahmedabad,"Chandkheda, Ahmedabad - IITM",22-06-2024 04:00:00,23.107969,72.574648,PM10,43,272,80
India,Gujarat,Ahmedabad,"Gyaspur, Ahmedabad - IITM",22-06-2024 04:00:00,22.977134,72.553024,PM10,40,188,111
India,Gujarat,Ahmedabad,"Maninagar, Ahmedabad - GPCB",22-06-2024 04:00:00,23.002657,72.591912,PM10,71,358,122
India,Gujarat,Ahmedabad,"Maninagar, Ahmedabad - GPCB",22-06-2024 04:00:00,23.002657,72.591912,CO,7,134,13
India,Gujarat,Ahmedabad,"Raikhad, Ahmedabad - IITM",22-06-2024 04:00:00,23.020509,72.579261,OZONE,7,75,36
India,Gujarat,Ahmedabad,"Sardar Vallabhbhai Patel Stadium, Ahmedabad - IITM",22-06-2024 04:00:00,23.043070,72.562968,NO2,12,55,39
India,Gujarat,Ankleshwar,"GIDC, Ankleshwar - GPCB",22-06-2024 04:00:00,21.613267,73.010555,NH3,3,4,3
India,Gujarat,Gandhinagar,"GIFT City, Gandhinagar - IITM",22-06-2024 04:00:00,23.163798,72.677768,CO,8,14,11
India,Gujarat,Gandhinagar,"GIFT City, Gandhinagar - IITM",22-06-2024 04:00:00,23.163798,72.677768,OZONE,10,55,34
India,Gujarat,Gandhinagar,"Sector-10, Gandhinagar - GPCB",22-06-2024 04:00:00,23.221714,72.654328,CO,20,33,24
India,Gujarat,Gandhinagar,"Sector-10, Gandhinagar - GPCB",22-06-2024 04:00:00,23.221714,72.654328,OZONE,19,23,19
India,Gujarat,Nandesari,"GIDC, Nandesari - Nandesari Ind. Association",22-06-2024 04:00:00,22.410802,73.097923,PM2.5,72,357,149
India,Gujarat,Surat,"Science Center, Surat - SMC",22-06-2024 04:00:00,21.170046,72.795405,PM10,NA,NA,NA
India,Gujarat,Vatva,"Phase-4 GIDC, Vatva - GPCB",22-06-2024 04:00:00,22.969611,72.643500,PM10,23,127,72
India,Gujarat,Vatva,"Phase-4 GIDC, Vatva - GPCB",22-06-2024 04:00:00,22.969611,72.643500,CO,22,40,22
India,Haryana,Ambala,"Patti Mehar, Ambala - HSPCB",22-06-2024 04:00:00,30.379589,76.778328,NH3,5,12,8
India,Haryana,Bahadurgarh,"Arya Nagar, Bahadurgarh - HSPCB",22-06-2024 04:00:00,28.6701,76.9254,OZONE,32,42,38
India,Haryana,Ballabgarh,"Nathu Colony, Ballabgarh - HSPCB",22-06-2024 04:00:00,28.3419248,77.319699,PM2.5,97,291,167
India,Haryana,Ballabgarh,"Nathu Colony, Ballabgarh - HSPCB",22-06-2024 04:00:00,28.3419248,77.319699,NO2,2,13,12
India,Haryana,Ballabgarh,"Nathu Colony, Ballabgarh - HSPCB",22-06-2024 04:00:00,28.3419248,77.319699,SO2,1,115,7
India,Haryana,Ballabgarh,"Nathu Colony, Ballabgarh - HSPCB",22-06-2024 04:00:00,28.3419248,77.319699,CO,4,51,35
India,Haryana,Charkhi Dadri,"Mini Secretariat, Charkhi Dadri - HSPCB",22-06-2024 04:00:00,28.593883,76.270653,CO,24,96,42
India,Haryana,Faridabad,"Sector 11, Faridabad - HSPCB",22-06-2024 04:00:00,28.376058,77.315741,NO2,30,33,31
India,Haryana,Faridabad,"Sector 11, Faridabad - HSPCB",22-06-2024 04:00:00,28.376058,77.315741,OZONE,11,28,14
India,Haryana,Faridabad,"Sector 30, Faridabad - HSPCB",22-06-2024 04:00:00,28.4417,77.3217,NO2,16,33,24
India,Haryana,Gurugram,"NISE Gwal Pahari, Gurugram - IMD",22-06-2024 04:00:00,28.422681,77.148944,PM10,111,423,176
India,Haryana,Gurugram,"Sector-51, Gurugram - HSPCB",22-06-2024 04:00:00,28.4227,77.0667,SO2,1,5,3
India,Haryana,Gurugram,"Teri Gram, Gurugram - HSPCB",22-06-2024 04:00:00,28.4275,77.1465,CO,36,72,62
India,Haryana,Gurugram,"Vikas Sadan, Gurugram - HSPCB",22-06-2024 04:00:00,28.4501238,77.0263051,SO2,7,60,25
India,Haryana,Hisar,"Urban Estate-II, Hisar - HSPCB",22-06-2024 04:00:00,29.140560,75.744941,OZONE,36,85,45
India,Haryana,Jind,"Police Lines, Jind - HSPCB",22-06-2024 04:00:00,29.307814,76.337619,NO2,1,31,8
India,Haryana,Jind,"Police Lines, Jind - HSPCB",22-06-2024 04:00:00,29.307814,76.337619,NH3,3,5,2
India,Haryana,Kaithal,"Rishi Nagar, Kaithal - HSPCB",22-06-2024 04:00:00,29.8006,76.4155,PM2.5,52,87,69
India,Haryana,Karnal,"Sector-12, Karnal - HSPCB",22-06-2024 04:00:00,29.695300,77.002700,PM2.5,53,96,78
India,Haryana,Karnal,"Sector-12, Karnal - HSPCB",22-06-2024 04:00:00,29.695300,77.002700,PM10,56,130,97
India,Haryana,Karnal,"Sector-12, Karnal - HSPCB",22-06-2024 04:00:00,29.695300,77.002700,NO2,7,12,10
India,Haryana,Karnal,"Sector-12, Karnal - HSPCB",22-06-2024 04:00:00,29.695300,77.002700,NH3,10,13,11
India,Haryana,Karnal,"Sector-12, Karnal - HSPCB",22-06-2024 04:00:00,29.695300,77.002700,SO2,12,13,12
India,Haryana,Karnal,"Sector-12, Karnal - HSPCB",22-06-2024 04:00:00,29.695300,77.002700,OZONE,24,30,27
India,Haryana,Kurukshetra,"Sector-7, Kurukshetra - HSPCB",22-06-2024 04:00:00,29.966942,76.875879,CO,10,30,24
India,Haryana,Mandikhera,"General Hospital, Mandikhera - HSPCB",22-06-2024 04:00:00,27.9002,76.9938,PM10,50,233,136
India,Haryana,Mandikhera,"General Hospital, Mandikhera - HSPCB",22-06-2024 04:00:00,27.9002,76.9938,NH3,16,19,18
India,Haryana,Mandikhera,"General Hospital, Mandikhera - HSPCB",22-06-2024 04:00:00,27.9002,76.9938,CO,17,34,23
India,Haryana,Manesar,"Sector-2 IMT, Manesar - HSPCB",22-06-2024 04:00:00,28.360699,76.936090,PM2.5,102,252,155
India,Haryana,Palwal,"Shyam Nagar, Palwal - HSPCB",22-06-2024 04:00:00,28.1485564,77.3320667,PM10,48,259,113
India,Haryana,Palwal,"Shyam Nagar, Palwal - HSPCB",22-06-2024 04:00:00,28.1485564,77.3320667,NH3,8,9,9
India,Haryana,Panchkula,"Sector-6, Panchkula - HSPCB ",22-06-2024 04:00:00,30.7057778,76.8531805555555,PM2.5,128,259,192
India,Haryana,Panipat,"Sector-18, Panipat - HSPCB",22-06-2024 04:00:00,29.432304,76.972765,CO,24,26,25
India,Haryana,Sirsa,"F-Block, Sirsa - HSPCB",22-06-2024 04:00:00,29.536400,75.015800,SO2,1,8,5
India,Haryana,Sonipat,"Murthal, Sonipat - HSPCB",22-06-2024 04:00:00,29.027200,77.062100,SO2,12,29,20
India,Haryana,Yamuna Nagar,"Gobind Pura, Yamuna Nagar - HSPCB",22-06-2024 04:00:00,30.1480566,77.2893471,SO2,NA,NA,NA
India,Himachal Pradesh,Baddi,"HIMUDA Complex Phase-1, Baddi - HPPCB",22-06-2024 04:00:00,30.943887,76.801991,NO2,14,60,32
India,Karnataka,Bagalkot,"Vidayagiri, Bagalkot - KSPCB",22-06-2024 04:00:00,16.172806,75.659694,PM10,42,43,42
India,Karnataka,Bagalkot,"Vidayagiri, Bagalkot - KSPCB",22-06-2024 04:00:00,16.172806,75.659694,CO,18,48,35
India,Karnataka,Bengaluru,"Bapuji Nagar, Bengaluru - KSPCB",22-06-2024 04:00:00,12.951913,77.539784,NO2,14,17,15
India,Karnataka,Bengaluru,"City Railway Station, Bengaluru - KSPCB",22-06-2024 04:00:00,12.9756843,77.5660749,NO2,28,36,32
India,Karnataka,Bengaluru,"Hebbal, Bengaluru - KSPCB",22-06-2024 04:00:00,13.029152,77.585901,PM2.5,8,55,19
India,Karnataka,Bengaluru,"Hombegowda Nagar, Bengaluru - KSPCB",22-06-2024 04:00:00,12.938539,77.590100,SO2,2,4,3
India,Karnataka,Bengaluru,"Jigani, Bengaluru - KSPCB",22-06-2024 04:00:00,12.7816279,77.6299145,PM2.5,36,40,38
India,Karnataka,Bengaluru,"Kasturi Nagar, Bengaluru - KSPCB",22-06-2024 04:00:00,13.003872,77.664217,PM10,44,55,48
India,Karnataka,Bengaluru,"Kasturi Nagar, Bengaluru - KSPCB",22-06-2024 04:00:00,13.003872,77.664217,NH3,3,4,4
India,Karnataka,Bengaluru,"Peenya, Bengaluru - CPCB",22-06-2024 04:00:00,13.0270199,77.494094,CO,78,86,82
India,Karnataka,Bengaluru,"RVCE-Mailasandra, Bengaluru - KSPCB",22-06-2024 04:00:00,12.921418,77.502466,PM10,NA,NA,NA
India,Karnataka,Bengaluru,"RVCE-Mailasandra, Bengaluru - KSPCB",22-06-2024 04:00:00,12.921418,77.502466,NO2,16,17,17
India,Karnataka,Bengaluru,"Sanegurava Halli, Bengaluru - KSPCB",22-06-2024 04:00:00,12.990328,77.5431385,CO,12,25,17
India,Karnataka,Bengaluru,"Shivapura_Peenya, Bengaluru - KSPCB",22-06-2024 04:00:00,13.0246342,77.5080115,PM10,39,73,53
India,Karnataka,Bengaluru,"Shivapura_Peenya, Bengaluru - KSPCB",22-06-2024 04:00:00,13.0246342,77.5080115,NO2,15,16,15
India,Karnataka,Bengaluru,"Silk Board, Bengaluru - KSPCB",22-06-2024 04:00:00,12.917348,77.622813,PM2.5,19,45,29
India,Karnataka,Bengaluru,"Silk Board, Bengaluru - KSPCB",22-06-2024 04:00:00,12.917348,77.622813,SO2,2,17,10
India,Karnataka,Chamarajanagar,"Urban, Chamarajanagar - KSPCB",22-06-2024 04:00:00,11.55358,76.55521,PM2.5,21,45,31
India,Karnataka,Chamarajanagar,"Urban, Chamarajanagar - KSPCB",22-06-2024 04:00:00,11.55358,76.55521,PM10,34,58,45
India,Karnataka,Chikkaballapur,"Chikkaballapur Rural, Chikkaballapur - KSPCB",22-06-2024 04:00:00,13.428828,77.731418,NH3,1,1,1
India,Karnataka,Chikkaballapur,"Chikkaballapur Rural, Chikkaballapur - KSPCB",22-06-2024 04:00:00,13.428828,77.731418,SO2,17,21,19
India,Karnataka,Chikkaballapur,"Chikkaballapur Rural, Chikkaballapur - KSPCB",22-06-2024 04:00:00,13.428828,77.731418,CO,10,18,13
India,Karnataka,Chikkaballapur,"Chikkaballapur Rural, Chikkaballapur - KSPCB",22-06-2024 04:00:00,13.428828,77.731418,OZONE,30,36,31
India,Karnataka,Davanagere,"Devaraj Urs Badavane, Davanagere - KSPCB",22-06-2024 04:00:00,14.475800,75.905200,PM10,13,38,25
India,Karnataka,Davanagere,"Devaraj Urs Badavane, Davanagere - KSPCB",22-06-2024 04:00:00,14.475800,75.905200,NH3,1,2,1
India,Karnataka,Davanagere,"Devaraj Urs Badavane, Davanagere - KSPCB",22-06-2024 04:00:00,14.475800,75.905200,CO,18,20,18
India,Karnataka,Gadag,"Panchal Nagar, Gadag - KSPCB",22-06-2024 04:00:00,15.411456,75.638133,PM10,25,159,33
India,Karnataka,Gadag,"Panchal Nagar, Gadag - KSPCB",22-06-2024 04:00:00,15.411456,75.638133,OZONE,6,9,6
India,Karnataka,Hassan,"B.Katihalli, Hassan - KSPCB",22-06-2024 04:00:00,13.008556,76.125258,NH3,1,4,2
India,Karnataka,Haveri,"Ashwini Nagar, Haveri - KSPCB",22-06-2024 04:00:00,14.791800,75.389600,PM10,NA,NA,NA
India,Karnataka,Haveri,"Ashwini Nagar, Haveri - KSPCB",22-06-2024 04:00:00,14.791800,75.389600,OZONE,23,26,24
India,Karnataka,Hubballi,"Lingaraj Nagar, Hubballi - KSPCB",22-06-2024 04:00:00,15.3714823,75.1160168,PM2.5,35,50,39
India,Karnataka,Hubballi,"Lingaraj Nagar, Hubballi - KSPCB",22-06-2024 04:00:00,15.3714823,75.1160168,NO2,7,18,14
India,Karnataka,Hubballi,"Lingaraj Nagar, Hubballi - KSPCB",22-06-2024 04:00:00,15.3714823,75.1160168,NH3,2,4,3
India,Karnataka,Kalaburagi,"Mahatma Basaveswar Colony, Kalaburgi - KSPCB",22-06-2024 04:00:00,17.336318,76.847397,NO2,8,14,10
India,Karnataka,Kalaburagi,"Mahatma Basaveswar Colony, Kalaburgi - KSPCB",22-06-2024 04:00:00,17.336318,76.847397,NH3,2,3,3
India,Karnataka,Kalaburagi,"Mahatma Basaveswar Colony, Kalaburgi - KSPCB",22-06-2024 04:00:00,17.336318,76.847397,CO,27,44,35
India,Karnataka,Kalaburagi,"Mahatma Basaveswar Colony, Kalaburgi - KSPCB",22-06-2024 04:00:00,17.336318,76.847397,OZONE,8,22,11
India,Karnataka,Karwar,"KHB Colony, Karwar - KSPCB",22-06-2024 04:00:00,14.816666,74.141003,OZONE,21,22,22
India,Karnataka,Kolar,"Tamaka Ind. Area, Kolar - KSPCB",22-06-2024 04:00:00,13.1276288,78.1570122,CO,5,6,5
India,Karnataka,Koppal,"Diwator Nagar, Koppal - KSPCB",22-06-2024 04:00:00,15.347630,76.181767,NH3,NA,NA,NA
India,Karnataka,Madikeri,"Stuart Hill, Madikeri - KSPCB",22-06-2024 04:00:00,12.415911,75.735050,NO2,1,4,2
India,Karnataka,Madikeri,"Stuart Hill, Madikeri - KSPCB",22-06-2024 04:00:00,12.415911,75.735050,NH3,NA,NA,NA
India,Karnataka,Mangalore,"Kadri, Mangalore - KSPCB",22-06-2024 04:00:00,12.889250,74.853000,SO2,9,10,10
India,Karnataka,Mysuru,"Hebbal 1st Stage, Mysuru - KSPCB",22-06-2024 04:00:00,12.21041,76.37376,NO2,11,45,22
India,Karnataka,Raichur,"Haji Colony, Raichur - KSPCB",22-06-2024 04:00:00,16.208139,77.348417,SO2,67,75,71
India,Karnataka,Ramanagara,"Vijay Nagar, Ramanagara - KSPCB",22-06-2024 04:00:00,12.733409,77.298051,SO2,14,24,18
India,Karnataka,Ramanagara,"Vijay Nagar, Ramanagara - KSPCB",22-06-2024 04:00:00,12.733409,77.298051,CO,4,37,17
India,Karnataka,Udupi,"Brahmagiri, Udupi - KSPCB",22-06-2024 04:00:00,13.34194444,74.74694444,CO,48,57,56
India,Karnataka,Udupi,"Brahmagiri, Udupi - KSPCB",22-06-2024 04:00:00,13.34194444,74.74694444,OZONE,23,23,23
India,Karnataka,Yadgir,"Collector Office, Yadgir - KSPCB",22-06-2024 04:00:00,16.7602,77.1428,PM10,35,76,42
India,Karnataka,Yadgir,"Collector Office, Yadgir - KSPCB",22-06-2024 04:00:00,16.7602,77.1428,OZONE,13,22,20
India,Kerala,Eloor,"Udyogamandal, Eloor - Kerala PCB",22-06-2024 04:00:00,10.073232,76.302765,PM2.5,19,39,26
India,Kerala,Eloor,"Udyogamandal, Eloor - Kerala PCB",22-06-2024 04:00:00,10.073232,76.302765,NH3,1,1,1
India,Kerala,Kannur,"Thavakkara, Kannur - Kerala PCB",22-06-2024 04:00:00,11.875000,75.373200,SO2,NA,NA,NA
India,Kerala,Kollam,"Polayathode, Kollam - Kerala PCB",22-06-2024 04:00:00,8.8787,76.6073,NH3,1,1,1
India,Kerala,Thrissur,"Corporation Ground, Thrissur - Kerala PCB",22-06-2024 04:00:00,10.532400,76.215900,PM2.5,45,50,48
India,Kerala,Thrissur,"Corporation Ground, Thrissur - Kerala PCB",22-06-2024 04:00:00,10.532400,76.215900,PM10,60,68,64
India,Kerala,Thrissur,"Corporation Ground, Thrissur - Kerala PCB",22-06-2024 04:00:00,10.532400,76.215900,NH3,NA,NA,NA
India,Kerala,Thrissur,"Corporation Ground, Thrissur - Kerala PCB",22-06-2024 04:00:00,10.532400,76.215900,CO,14,64,32
India,Madhya Pradesh,Bhopal,"Paryavaran Parisar, Bhopal - MPPCB",22-06-2024 04:00:00,23.210494,77.425409,CO,11,129,24
India,Madhya Pradesh,Bhopal,"T T Nagar, Bhopal - MPPCB",22-06-2024 04:00:00,23.233584,77.400574,NH3,5,7,5
India,Madhya Pradesh,Bhopal,"T T Nagar, Bhopal - MPPCB",22-06-2024 04:00:00,23.233584,77.400574,SO2,13,25,18
India,Madhya Pradesh,Damoh,"Shrivastav Colony, Damoh - MPPCB",22-06-2024 04:00:00,23.81748678,79.446246,PM2.5,1,41,14
India,Madhya Pradesh,Dewas,"Bhopal Chauraha, Dewas - MPPCB",22-06-2024 04:00:00,22.9682591,76.064118,SO2,15,34,27
India,Madhya Pradesh,Gwalior,"Deen Dayal Nagar, Gwalior - MPPCB",22-06-2024 04:00:00,26.259242,78.216432,PM2.5,13,65,34
India,Madhya Pradesh,Gwalior,"Maharaj Bada, Gwalior - MPPCB",22-06-2024 04:00:00,26.200388,78.147714,NH3,1,6,4
India,Madhya Pradesh,Gwalior,"Maharaj Bada, Gwalior - MPPCB",22-06-2024 04:00:00,26.200388,78.147714,SO2,10,18,14
India,Madhya Pradesh,Gwalior,"Phool Bagh, Gwalior - Mondelez Ind. Food",22-06-2024 04:00:00,26.210536,78.171,PM10,33,139,89
India,Madhya Pradesh,Indore,"Chhoti Gwaltoli, Indore - MPPCB",22-06-2024 04:00:00,22.4310,75.5213,SO2,10,16,12
India,Madhya Pradesh,Indore,"Maguda Nagar, Indore - IMC",22-06-2024 04:00:00,22.7524,75.8872,PM2.5,21,64,43
India,Madhya Pradesh,Indore,"Maguda Nagar, Indore - IMC",22-06-2024 04:00:00,22.7524,75.8872,NH3,1,1,1
India,Madhya Pradesh,Indore,"Maguda Nagar, Indore - IMC",22-06-2024 04:00:00,22.7524,75.8872,SO2,34,37,35
India,Madhya Pradesh,Indore,"Residency Area, Indore - IMC",22-06-2024 04:00:00,22.7084,75.8815,SO2,21,29,23
India,Madhya Pradesh,Jabalpur,"Govindh Bhavan Colony, Jabalpur - JMC",22-06-2024 04:00:00,23.163174,79.973061,NO2,7,31,14
India,Madhya Pradesh,Jabalpur,"Govindh Bhavan Colony, Jabalpur - JMC",22-06-2024 04:00:00,23.163174,79.973061,NH3,4,4,4
India,Madhya Pradesh,Jabalpur,"Gupteshwar, Jabalpur - JMC",22-06-2024 04:00:00,23.142888,79.916147,SO2,2,4,3
India,Madhya Pradesh,Jabalpur,"Gupteshwar, Jabalpur - JMC",22-06-2024 04:00:00,23.142888,79.916147,CO,8,30,16
India,Madhya Pradesh,Jabalpur,"Marhatal, Jabalpur - MPPCB",22-06-2024 04:00:00,23.168606,79.932247,PM2.5,7,39,15
India,Madhya Pradesh,Jabalpur,"Marhatal, Jabalpur - MPPCB",22-06-2024 04:00:00,23.168606,79.932247,PM10,6,67,35
India,Madhya Pradesh,Jabalpur,"Suhagi, Jabalpur - JMC",22-06-2024 04:00:00,23.218135,79.957770,PM2.5,NA,NA,NA
India,Madhya Pradesh,Katni,"Gole Bazar, Katni - MPPCB",22-06-2024 04:00:00,23.50016,80.23284,PM10,12,144,56
India,Madhya Pradesh,Pithampur,"Sector-2 Industrial Area, Pithampur - MPPCB",22-06-2024 04:00:00,22.624758,75.675238,PM2.5,23,138,55
India,Madhya Pradesh,Pithampur,"Sector-2 Industrial Area, Pithampur - MPPCB",22-06-2024 04:00:00,22.624758,75.675238,CO,40,71,53
India,Madhya Pradesh,Sagar,"Civil Lines, Sagar - MPPCB",22-06-2024 04:00:00,23.838586,78.759431,PM2.5,3,35,13
India,Madhya Pradesh,Sagar,"Civil Lines, Sagar - MPPCB",22-06-2024 04:00:00,23.838586,78.759431,NO2,7,21,14
India,Madhya Pradesh,Sagar,"Civil Lines, Sagar - MPPCB",22-06-2024 04:00:00,23.838586,78.759431,CO,12,23,15
India,Madhya Pradesh,Satna,"Bandhavgar Colony, Satna - Birla Cement",22-06-2024 04:00:00,24.58434363,80.8549414,PM10,19,48,29
India,Madhya Pradesh,Satna,"Bandhavgar Colony, Satna - Birla Cement",22-06-2024 04:00:00,24.58434363,80.8549414,NO2,20,49,32
India,Madhya Pradesh,Satna,"Bandhavgar Colony, Satna - Birla Cement",22-06-2024 04:00:00,24.58434363,80.8549414,OZONE,9,75,17
India,Madhya Pradesh,Ujjain,"Mahakaleshwar Temple, Ujjain - MPPCB",22-06-2024 04:00:00,23.182719 ,75.768218 ,PM2.5,17,66,46
India,Madhya Pradesh,Ujjain,"Mahakaleshwar Temple, Ujjain - MPPCB",22-06-2024 04:00:00,23.182719 ,75.768218 ,NO2,10,34,21
India,Madhya Pradesh,Ujjain,"Mahakaleshwar Temple, Ujjain - MPPCB",22-06-2024 04:00:00,23.182719 ,75.768218 ,CO,4,16,6
India,Maharashtra,Ahmednagar,"Tarakpur, Ahmednagar - MPCB",22-06-2024 04:00:00,19.10122,74.73339,PM10,37,95,69
India,Maharashtra,Akola,"Ramdaspeth, Akola - MPCB",22-06-2024 04:00:00,20.719516,77.000253,PM10,33,102,69
India,Maharashtra,Amravati,"Shivneri Colony, Amravati - MPCB",22-06-2024 04:00:00,20.9402359,77.7895248,NO2,7,26,12
India,Maharashtra,Amravati,"Shivneri Colony, Amravati - MPCB",22-06-2024 04:00:00,20.9402359,77.7895248,NH3,4,6,5
India,Maharashtra,Amravati,"Shivneri Colony, Amravati - MPCB",22-06-2024 04:00:00,20.9402359,77.7895248,OZONE,9,31,15
India,Maharashtra,Amravati,"Shri Shivaji Science College, Amaravati - MPCB",22-06-2024 04:00:00,20.939198,77.765701,SO2,1,3,2
India,Maharashtra,Amravati,"Shri Shivaji Science College, Amaravati - MPCB",22-06-2024 04:00:00,20.939198,77.765701,CO,15,34,23
India,Maharashtra,Aurangabad,"More Chowk Waluj, Aurangabad - MPCB",22-06-2024 04:00:00,19.8389439,75.244448,NH3,2,2,2
India,Maharashtra,Aurangabad,"More Chowk Waluj, Aurangabad - MPCB",22-06-2024 04:00:00,19.8389439,75.244448,OZONE,5,47,23
India,Maharashtra,Badlapur,"Katrap, Badlapur - MPCB",22-06-2024 04:00:00,19.16485,73.23409,PM2.5,NA,NA,NA
India,Maharashtra,Belapur,"CBD Belapur, Belapur - MPCB",22-06-2024 04:00:00,19.0243902,73.0406721,NH3,1,2,1
India,Maharashtra,Belapur,"CBD Belapur, Belapur - MPCB",22-06-2024 04:00:00,19.0243902,73.0406721,CO,2,36,9
India,Maharashtra,Bhiwandi,"Gokul Nagar, Bhiwandi - MPCB",22-06-2024 04:00:00,19.309073,73.057223,OZONE,13,60,22
India,Maharashtra,Boisar,"Khaira, Boisar - MPCB",22-06-2024 04:00:00,19.786089,72.757971,PM2.5,32,407,170
India,Maharashtra,Boisar,"Khaira, Boisar - MPCB",22-06-2024 04:00:00,19.786089,72.757971,NH3,1,7,4
India,Maharashtra,Chandrapur,"Chauhan Colony, Chandrapur - MPCB",22-06-2024 04:00:00,19.962900,79.298714,NH3,3,9,4
India,Maharashtra,Dhule,"Deopur, Dhule - MPCB",22-06-2024 04:00:00,20.918946,74.776388,PM10,47,161,109
India,Maharashtra,Jalgaon,"Prabhat Colony, Jalgaon - MPCB",22-06-2024 04:00:00,21.001264,75.565602,NH3,2,16,8
India,Maharashtra,Jalna,"Old MIDC, Jalna - MPCB",22-06-2024 04:00:00,19.854616,75.905894,OZONE,15,60,18
India,Maharashtra,Kolhapur,"Shivaji University, Kolhapur - MPCB",22-06-2024 04:00:00,16.6870449,74.2505872,PM2.5,18,51,37
India,Maharashtra,Kolhapur,"Shivaji University, Kolhapur - MPCB",22-06-2024 04:00:00,16.6870449,74.2505872,OZONE,14,35,20
India,Maharashtra,Kolhapur,"Sinchan Bhavan, Kolhapur - MPCB",22-06-2024 04:00:00,16.7143745,74.2426398,PM2.5,14,45,25
India,Maharashtra,Kolhapur,"Sinchan Bhavan, Kolhapur - MPCB",22-06-2024 04:00:00,16.7143745,74.2426398,CO,8,21,16
India,Maharashtra,Kolhapur,"Sinchan Bhavan, Kolhapur - MPCB",22-06-2024 04:00:00,16.7143745,74.2426398,OZONE,7,36,17
India,Maharashtra,Latur,"Sawe Wadi, Latur - MPCB",22-06-2024 04:00:00,18.39963,76.57452,SO2,3,5,5
India,Maharashtra,Mahad,"Kamble Tarf Birwadi, Mahad - MPCB",22-06-2024 04:00:00,18.1023399,73.4783687,NH3,2,3,2
India,Maharashtra,Mahad,"Kamble Tarf Birwadi, Mahad - MPCB",22-06-2024 04:00:00,18.1023399,73.4783687,SO2,1,101,22
India,Maharashtra,Malegaon,"Mahesh Nagar, Malegaon - MPCB",22-06-2024 04:00:00,20.555712,74.529236,PM10,58,180,118
India,Maharashtra,Mira-Bhayandar,"Bhayandar West, Mira-Bhayandar - MPCB",22-06-2024 04:00:00,19.296481,72.840923,PM2.5,15,41,25
India,Maharashtra,Mira-Bhayandar,"Bhayandar West, Mira-Bhayandar - MPCB",22-06-2024 04:00:00,19.296481,72.840923,NH3,5,6,5
India,Maharashtra,Mumbai,"Bandra Kurla Complex, Mumbai - MPCB",22-06-2024 04:00:00,19.065931,72.862131,NH3,2,16,9
India,Maharashtra,Mumbai,"Borivali East, Mumbai - IITM",22-06-2024 04:00:00,19.23241,72.86895,PM10,38,66,49
India,Maharashtra,Mumbai,"Borivali East, Mumbai - IITM",22-06-2024 04:00:00,19.23241,72.86895,NO2,7,31,17
India,Maharashtra,Mumbai,"Borivali East, Mumbai - IITM",22-06-2024 04:00:00,19.23241,72.86895,NH3,5,10,8
India,Maharashtra,Mumbai,"Borivali East, Mumbai - MPCB",22-06-2024 04:00:00,19.2243333,72.8658113,NH3,NA,NA,NA
India,Maharashtra,Mumbai,"Byculla, Mumbai - BMC",22-06-2024 04:00:00,18.9767,72.8380,PM2.5,NA,NA,NA
India,Maharashtra,Mumbai,"Byculla, Mumbai - BMC",22-06-2024 04:00:00,18.9767,72.8380,PM10,NA,NA,NA
India,Maharashtra,Mumbai,"Chhatrapati Shivaji Intl. Airport (T2), Mumbai - MPCB",22-06-2024 04:00:00,19.10078,72.87462,SO2,NA,NA,NA
India,Maharashtra,Mumbai,"Chhatrapati Shivaji Intl. Airport (T2), Mumbai - MPCB",22-06-2024 04:00:00,19.10078,72.87462,OZONE,NA,NA,NA
India,Maharashtra,Mumbai,"Deonar, Mumbai - IITM",22-06-2024 04:00:00,19.04946,72.9230,PM2.5,8,130,38
India,Maharashtra,Mumbai,"Deonar, Mumbai - IITM",22-06-2024 04:00:00,19.04946,72.9230,OZONE,1,17,6
India,Maharashtra,Mumbai,"Ghatkopar, Mumbai - BMC",22-06-2024 04:00:00,19.083694,72.920967,CO,1,13,8
India,Maharashtra,Mumbai,"Ghatkopar, Mumbai - BMC",22-06-2024 04:00:00,19.083694,72.920967,OZONE,11,25,15
India,Maharashtra,Mumbai,"Kandivali East, Mumbai - MPCB",22-06-2024 04:00:00,19.205800,72.868200,PM2.5,3,226,29
India,Maharashtra,Mumbai,"Kandivali West, Mumbai - BMC",22-06-2024 04:00:00,19.215859,72.831718,PM2.5,9,22,15
India,Maharashtra,Mumbai,"Kandivali West, Mumbai - BMC",22-06-2024 04:00:00,19.215859,72.831718,NO2,9,40,18
India,Maharashtra,Mumbai,"Kandivali West, Mumbai - BMC",22-06-2024 04:00:00,19.215859,72.831718,CO,6,35,22
India,Maharashtra,Mumbai,"Kherwadi_Bandra East, Mumbai - MPCB",22-06-2024 04:00:00,19.0632143,72.8456324,NH3,1,8,2
India,Maharashtra,Mumbai,"Khindipada-Bhandup West, Mumbai - IITM",22-06-2024 04:00:00,19.1653323,72.922099,SO2,1,3,1
India,Maharashtra,Mumbai,"Khindipada-Bhandup West, Mumbai - IITM",22-06-2024 04:00:00,19.1653323,72.922099,CO,8,30,21
India,Maharashtra,Mumbai,"Kurla, Mumbai - MPCB",22-06-2024 04:00:00,19.0863,72.8888,NO2,9,11,10
India,Maharashtra,Mumbai,"Mazgaon, Mumbai - IITM",22-06-2024 04:00:00,18.96702,72.84214,PM10,23,48,33
India,Maharashtra,Mumbai,"Mazgaon, Mumbai - IITM",22-06-2024 04:00:00,18.96702,72.84214,NH3,15,22,18
India,Maharashtra,Mumbai,"Mazgaon, Mumbai - IITM",22-06-2024 04:00:00,18.96702,72.84214,CO,8,99,23
India,Maharashtra,Mumbai,"Mindspace-Malad West, Mumbai - MPCB",22-06-2024 04:00:00,19.1878657,72.8304069,CO,16,56,32
India,Maharashtra,Mumbai,"Mulund West, Mumbai - MPCB",22-06-2024 04:00:00,19.1750,72.9419,CO,33,33,33
India,Maharashtra,Mumbai,"Navy Nagar-Colaba, Mumbai - IITM",22-06-2024 04:00:00,18.897756,72.813320,NH3,NA,NA,NA
India,Maharashtra,Mumbai,"Navy Nagar-Colaba, Mumbai - IITM",22-06-2024 04:00:00,18.897756,72.813320,OZONE,NA,NA,NA
India,Maharashtra,Mumbai,"Powai, Mumbai - MPCB",22-06-2024 04:00:00,19.137500,72.915056,NH3,2,3,3
India,Maharashtra,Mumbai,"Powai, Mumbai - MPCB",22-06-2024 04:00:00,19.137500,72.915056,OZONE,5,8,5
India,Maharashtra,Mumbai,"Sewri, Mumbai - BMC",22-06-2024 04:00:00,19.000084,72.856730,NO2,NA,NA,NA
India,Maharashtra,Mumbai,"Sewri, Mumbai - BMC",22-06-2024 04:00:00,19.000084,72.856730,OZONE,4,83,16
India,Maharashtra,Mumbai,"Siddharth Nagar-Worli, Mumbai - IITM",22-06-2024 04:00:00,19.000083,72.813993,OZONE,16,30,21
India,Maharashtra,Mumbai,"Sion, Mumbai - MPCB",22-06-2024 04:00:00,19.047000,72.874600,PM2.5,21,46,35
India,Maharashtra,Mumbai,"Sion, Mumbai - MPCB",22-06-2024 04:00:00,19.047000,72.874600,PM10,37,79,60
India,Maharashtra,Mumbai,"Sion, Mumbai - MPCB",22-06-2024 04:00:00,19.047000,72.874600,CO,50,73,60
India,Maharashtra,Mumbai,"Vasai West, Mumbai - MPCB",22-06-2024 04:00:00,19.383200,72.820400,PM10,37,105,66
India,Maharashtra,Mumbai,"Vile Parle West, Mumbai - MPCB",22-06-2024 04:00:00,19.10861,72.83622,SO2,14,15,15
India,Maharashtra,Mumbai,"Worli, Mumbai - MPCB",22-06-2024 04:00:00,18.9936162,72.8128113,PM10,37,222,78
India,Maharashtra,Mumbai,"Worli, Mumbai - MPCB",22-06-2024 04:00:00,18.9936162,72.8128113,SO2,12,12,12
India,Maharashtra,Mumbai,"Worli, Mumbai - MPCB",22-06-2024 04:00:00,18.9936162,72.8128113,OZONE,3,8,7
India,Maharashtra,Nagpur,"Ambazari, Nagpur - MPCB",22-06-2024 04:00:00,21.121801,79.04952,PM2.5,12,40,25
India,Maharashtra,Nagpur,"Ambazari, Nagpur - MPCB",22-06-2024 04:00:00,21.121801,79.04952,SO2,12,18,16
India,Maharashtra,Nagpur,"Mahal, Nagpur - MPCB",22-06-2024 04:00:00,21.14472,79.107595,NO2,4,27,13
India,Maharashtra,Nagpur,"Mahal, Nagpur - MPCB",22-06-2024 04:00:00,21.14472,79.107595,SO2,1,20,8
India,Maharashtra,Nagpur,"Mahal, Nagpur - MPCB",22-06-2024 04:00:00,21.14472,79.107595,OZONE,7,37,13
India,Maharashtra,Nagpur,"Opp GPO Civil Lines, Nagpur - MPCB",22-06-2024 04:00:00,21.152875,79.0517531,OZONE,4,22,7
India,Maharashtra,Nagpur,"Ram Nagar, Nagpur - MPCB",22-06-2024 04:00:00,21.143383,79.048912,NO2,1,21,7
India,Maharashtra,Nagpur,"Ram Nagar, Nagpur - MPCB",22-06-2024 04:00:00,21.143383,79.048912,CO,6,18,13
India,Maharashtra,Nashik,"Gangapur Road, Nashik - MPCB",22-06-2024 04:00:00,20.0073285,73.7762427,CO,14,56,30
India,Maharashtra,Nashik,"Hirawadi, Nashik - MPCB",22-06-2024 04:00:00,20.021503,73.813844,CO,2,18,15
India,Maharashtra,Nashik,"MIDC Ambad, Nashik - MPCB",22-06-2024 04:00:00,19.950220,73.731480,NH3,3,6,4
India,Maharashtra,Nashik,"Pandav Nagari, Nashik - MPCB",22-06-2024 04:00:00,19.9591346,73.7788008,PM2.5,30,74,48
India,Maharashtra,Nashik,"Pandav Nagari, Nashik - MPCB",22-06-2024 04:00:00,19.9591346,73.7788008,SO2,13,18,15
India,Maharashtra,Navi Mumbai,"Kopripada-Vashi, Navi Mumbai - MPCB",22-06-2024 04:00:00,19.090337,73.014232,PM2.5,14,28,21
India,Maharashtra,Navi Mumbai,"Kopripada-Vashi, Navi Mumbai - MPCB",22-06-2024 04:00:00,19.090337,73.014232,PM10,32,64,50
India,Maharashtra,Navi Mumbai,"Kopripada-Vashi, Navi Mumbai - MPCB",22-06-2024 04:00:00,19.090337,73.014232,NO2,17,47,27
India,Maharashtra,Navi Mumbai,"Mahape, Navi Mumbai - MPCB",22-06-2024 04:00:00,19.1135051,73.008978,PM2.5,20,58,38
India,Maharashtra,Navi Mumbai,"Mahape, Navi Mumbai - MPCB",22-06-2024 04:00:00,19.1135051,73.008978,NO2,41,44,43
India,Maharashtra,Navi Mumbai,"Nerul, Navi Mumbai - MPCB",22-06-2024 04:00:00,19.008751,73.016620,CO,16,26,23
India,Maharashtra,Navi Mumbai,"Sector-19A Nerul, Navi Mumbai - IITM",22-06-2024 04:00:00,19.044,73.0325,NH3,1,3,2
India,Maharashtra,Navi Mumbai,"Tondare-Taloja, Navi Mumbai - MPCB",22-06-2024 04:00:00,19.0630,73.1209,PM2.5,25,50,36
India,Maharashtra,Navi Mumbai,"Tondare-Taloja, Navi Mumbai - MPCB",22-06-2024 04:00:00,19.0630,73.1209,NH3,3,9,6
India,Maharashtra,Navi Mumbai,"Tondare-Taloja, Navi Mumbai - MPCB",22-06-2024 04:00:00,19.0630,73.1209,SO2,5,23,11
India,Maharashtra,Pimpri-Chinchwad,"Gavalinagar, Pimpri Chinchwad - MPCB",22-06-2024 04:00:00,18.63673,73.82487,OZONE,9,38,20
India,Maharashtra,Pimpri-Chinchwad,"Park Street Wakad, Pimpri Chinchwad - MPCB",22-06-2024 04:00:00,18.59051,73.77946,NO2,9,25,14
India,Maharashtra,Pune,"Bhosari, Pune - IITM",22-06-2024 04:00:00,18.640051,73.848956,PM2.5,10,23,15
India,Maharashtra,Pune,"Hadapsar, Pune - IITM",22-06-2024 04:00:00,18.501793,73.927532,NO2,24,38,29
India,Maharashtra,Pune,"Karve Road, Pune - MPCB",22-06-2024 04:00:00,18.5011743,73.8165527,SO2,1,14,5
India,Maharashtra,Pune,"Mhada Colony, Pune - IITM",22-06-2024 04:00:00,18.573040,73.927715,CO,54,82,67
India,Maharashtra,Pune,"Savitribai Phule Pune University, Pune - MPCB",22-06-2024 04:00:00,18.547056,73.826908,PM10,17,132,61
India,Maharashtra,Pune,"Savitribai Phule Pune University, Pune - MPCB",22-06-2024 04:00:00,18.547056,73.826908,SO2,2,4,3
India,Maharashtra,Pune,"Savitribai Phule Pune University, Pune - MPCB",22-06-2024 04:00:00,18.547056,73.826908,CO,12,20,14
India,Maharashtra,Pune,"Transport Nagar-Nigdi, Pune - IITM",22-06-2024 04:00:00,18.664282,73.763966,PM10,28,55,40
India,Maharashtra,Pune,"Transport Nagar-Nigdi, Pune - IITM",22-06-2024 04:00:00,18.664282,73.763966,OZONE,15,50,27
India,Maharashtra,Sangli,"Vijay Nagar, Sangli - MPCB",22-06-2024 04:00:00, 16.5038,74.3623,OZONE,4,38,11
India,Maharashtra,Solapur,"Dnyaneshwar Nagar, Solapur - MPCB",22-06-2024 04:00:00,17.6336264,75.9132495,PM2.5,9,33,20
India,Maharashtra,Solapur,"Dnyaneshwar Nagar, Solapur - MPCB",22-06-2024 04:00:00,17.6336264,75.9132495,SO2,2,3,2
India,Maharashtra,Solapur,"Dnyaneshwar Nagar, Solapur - MPCB",22-06-2024 04:00:00,17.6336264,75.9132495,CO,2,16,8
India,Maharashtra,Solapur,"Ratandeep Housing Society, Solapur - MPCB",22-06-2024 04:00:00,17.65439,75.90649,PM2.5,18,45,31
India,Maharashtra,Solapur,"Ratandeep Housing Society, Solapur - MPCB",22-06-2024 04:00:00,17.65439,75.90649,SO2,NA,NA,NA
India,Maharashtra,Solapur,"Solapur, Solapur - MPCB",22-06-2024 04:00:00,17.6599188,75.9063906,SO2,2,45,22
India,Maharashtra,Thane,"Pimpleshwar Mandir, Thane - MPCB",22-06-2024 04:00:00,19.192056,72.9585188,NO2,13,13,13
India,Maharashtra,Thane,"Upvan Fort, Thane - MPCB",22-06-2024 04:00:00,19.222279,72.957979,PM2.5,9,39,22
India,Maharashtra,Thane,"Upvan Fort, Thane - MPCB",22-06-2024 04:00:00,19.222279,72.957979,NH3,1,2,1
India,Maharashtra,Ulhasnagar,"Sidhi Vinayak Nagar, Ulhasnagar - MPCB",22-06-2024 04:00:00,19.235581,73.159121,NO2,4,11,7
India,Maharashtra,Virar,"Bolinj, Virar - MPCB",22-06-2024 04:00:00,19.4458210,72.7988231,PM2.5,25,68,52
India,Meghalaya,Shillong,"Lumpyngngad, Shillong - Meghalaya PCB",22-06-2024 04:00:00,25.5586,91.8985,CO,2,19,12
India,Mizoram,Aizawl,"Sikulpuikawn, Aizawl - Mizoram PCB",22-06-2024 04:00:00,23.7176342,92.7192841,OZONE,2,8,5
India,Odisha,Angul,"Hakimapada, Angul - OSPCB",22-06-2024 04:00:00,20.832874,85.104082,PM10,NA,NA,NA
India,Odisha,Balasore,"Kalidaspur, Balasore - OSPCB",22-06-2024 04:00:00,21.51161,86.89088,PM10,6,88,42
India,Odisha,Balasore,"Kalidaspur, Balasore - OSPCB",22-06-2024 04:00:00,21.51161,86.89088,NO2,14,39,25
India,Odisha,Barbil,"Forest Office, Barbil - OSPCB",22-06-2024 04:00:00,22.1166054,85.3945546,NH3,2,3,3
India,Odisha,Baripada,"Meher Colony, Baripada - OSPCB",22-06-2024 04:00:00,21.941841,86.728318,SO2,5,18,12
India,Odisha,Bhubaneswar,"Patia, Bhubaneswar - OSPCB",22-06-2024 04:00:00,20.34652,85.81630,CO,20,38,28
India,Odisha,Bileipada,"Tata Township, Bileipada - OSPCB",22-06-2024 04:00:00,22.06156703,85.47409613,PM2.5,34,66,47
India,Odisha,Brajrajnagar,"GM Office, Brajrajnagar - OSPCB",22-06-2024 04:00:00,21.8004996,83.8396977,PM2.5,6,81,35
India,Odisha,Brajrajnagar,"GM Office, Brajrajnagar - OSPCB",22-06-2024 04:00:00,21.8004996,83.8396977,SO2,14,14,14
India,Odisha,Cuttack,"CDA Area, Cuttack - OSPCB",22-06-2024 04:00:00,20.48891     ,85.84768     ,PM2.5,2,30,13
India,Odisha,Keonjhar,"Jagamohanpur, Keonjhar - OSPCB",22-06-2024 04:00:00,21.643900,85.599355,PM2.5,19,35,28
India,Odisha,Keonjhar,"Jagamohanpur, Keonjhar - OSPCB",22-06-2024 04:00:00,21.643900,85.599355,SO2,2,5,3
India,Odisha,Nayagarh,"Dabuna, Nayagarh - OSPCB",22-06-2024 04:00:00,21.847279,85.416905,NO2,4,13,6
India,Odisha,Rairangpur,"Divisional Forest Office, Rairangpur - OSPCB",22-06-2024 04:00:00,22.265816,86.174829,PM2.5,27,69,44
India,Odisha,Rourkela,"Fertilizer Township, Rourkela - OSPCB",22-06-2024 04:00:00,22.18972222,84.86277778,PM2.5,88,174,114
India,Odisha,Rourkela,"Fertilizer Township, Rourkela - OSPCB",22-06-2024 04:00:00,22.18972222,84.86277778,PM10,60,128,92
India,Odisha,Rourkela,"Fertilizer Township, Rourkela - OSPCB",22-06-2024 04:00:00,22.18972222,84.86277778,CO,14,30,20
India,Odisha,Rourkela,"Raghunathpali, Rourkela - OSPCB",22-06-2024 04:00:00,22.220833,84.809444,OZONE,7,14,9
India,Odisha,Rourkela,"Sector-2, Rourkela - OSPCB",22-06-2024 04:00:00,22.24500000,84.88111111,CO,NA,NA,NA
India,Odisha,Suakati,"OMC Colony, Suakati - OSPCB",22-06-2024 04:00:00,21.606865,85.510538,NO2,11,13,12
India,Odisha,Talcher,"Talcher Coalfields,Talcher - OSPCB",22-06-2024 04:00:00,20.9360711,85.1707021,NH3,3,4,4
India,Odisha,Talcher,"Talcher Coalfields,Talcher - OSPCB",22-06-2024 04:00:00,20.9360711,85.1707021,SO2,20,31,24
India,Odisha,Talcher,"Talcher Coalfields,Talcher - OSPCB",22-06-2024 04:00:00,20.9360711,85.1707021,CO,40,112,66
India,Puducherry,Puducherry,"Jawahar Nagar, Puducherry - PPCC",22-06-2024 04:00:00,11.9309,79.8027,NO2,6,40,14
India,Puducherry,Puducherry,"Jawahar Nagar, Puducherry - PPCC",22-06-2024 04:00:00,11.9309,79.8027,CO,16,40,25
India,Punjab,Amritsar,"Golden Temple, Amritsar - PPCB",22-06-2024 04:00:00,31.620000,74.876512,PM2.5,60,172,107
India,Punjab,Amritsar,"Golden Temple, Amritsar - PPCB",22-06-2024 04:00:00,31.620000,74.876512,PM10,74,125,96
India,Punjab,Jalandhar,"Civil Line, Jalandhar - PPCB",22-06-2024 04:00:00,31.321907,75.578914,PM10,53,122,91
India,Punjab,Khanna,"Kalal Majra, Khanna - PPCB",22-06-2024 04:00:00,30.736056 ,76.209694,PM2.5,70,115,89
India,Punjab,Khanna,"Kalal Majra, Khanna - PPCB",22-06-2024 04:00:00,30.736056 ,76.209694,PM10,98,118,109
India,Punjab,Ludhiana,"Punjab Agricultural University, Ludhiana - PPCB",22-06-2024 04:00:00,30.9028,75.8086,PM2.5,33,241,119
India,Punjab,Ludhiana,"Punjab Agricultural University, Ludhiana - PPCB",22-06-2024 04:00:00,30.9028,75.8086,NO2,22,117,31
India,Punjab,Patiala,"Model Town, Patiala - PPCB",22-06-2024 04:00:00,30.349388,76.366642,NH3,4,5,5
India,Rajasthan,Ajmer,"Civil Lines,  Ajmer - RSPCB",22-06-2024 04:00:00,26.470859,74.646594,PM2.5,27,194,63
India,Rajasthan,Ajmer,"Civil Lines,  Ajmer - RSPCB",22-06-2024 04:00:00,26.470859,74.646594,NH3,5,5,5
India,Rajasthan,Ajmer,"Civil Lines,  Ajmer - RSPCB",22-06-2024 04:00:00,26.470859,74.646594,CO,34,70,51
India,Rajasthan,Alwar,"Moti Doongri, Alwar - RSPCB",22-06-2024 04:00:00,27.554793,76.611536,PM2.5,41,90,75
India,Rajasthan,Baran,"Bamboliya, Baran - RSPCB",22-06-2024 04:00:00,25.106006,76.469948,OZONE,3,48,14
India,Rajasthan,Barmer,"Railway Colony, Barmer - RSPCB",22-06-2024 04:00:00,25.747299,71.393989,SO2,1,13,6
India,Rajasthan,Bhilwara,"Pratap Nagar, Bhilwara - RSPCB",22-06-2024 04:00:00,25.339605,74.618883,PM2.5,3,34,18
India,Rajasthan,Bhiwadi,"RIICO Ind. Area III, Bhiwadi - RSPCB",22-06-2024 04:00:00,28.194909,76.862296,PM10,80,279,150
India,Rajasthan,Bhiwadi,"RIICO Ind. Area III, Bhiwadi - RSPCB",22-06-2024 04:00:00,28.194909,76.862296,CO,5,113,72
India,Rajasthan,Bhiwadi,"Vasundhara Nagar_UIT, Bhiwadi - RSPCB",22-06-2024 04:00:00,28.207266,76.829265,PM2.5,29,150,72
India,Rajasthan,Bikaner,"MM Ground, Bikaner - RSPCB",22-06-2024 04:00:00,28.018792,73.292658,PM10,NA,NA,NA
India,Rajasthan,Bikaner,"MM Ground, Bikaner - RSPCB",22-06-2024 04:00:00,28.018792,73.292658,SO2,NA,NA,NA
India,Rajasthan,Bundi,"New Colony, Bundi - RSPCB",22-06-2024 04:00:00,25.435774,75.644272,NO2,9,42,21
India,Rajasthan,Chittorgarh,"Shastri Nagar, Chittorgarh - RSPCB",22-06-2024 04:00:00,24.892047,74.623527,PM10,NA,NA,NA
India,Rajasthan,Churu,"Subash Chowk, Churu - RSPCB",22-06-2024 04:00:00,28.296139,74.961696,PM10,17,90,48
India,Rajasthan,Churu,"Subash Chowk, Churu - RSPCB",22-06-2024 04:00:00,28.296139,74.961696,NH3,13,20,16
India,Rajasthan,Churu,"Subash Chowk, Churu - RSPCB",22-06-2024 04:00:00,28.296139,74.961696,OZONE,6,57,15
India,Rajasthan,Dausa,"Khatikan Mohalla, Dausa - RSPCB",22-06-2024 04:00:00,26.895552,76.334753,NH3,3,12,6
India,Rajasthan,Dausa,"Khatikan Mohalla, Dausa - RSPCB",22-06-2024 04:00:00,26.895552,76.334753,SO2,1,6,4
India,Rajasthan,Dholpur,"Raja Ganj, Dholpur - RSPCB",22-06-2024 04:00:00,26.699557,77.898881,NH3,6,22,11
India,Rajasthan,Dungarpur,"Bhoiwada, Dungarpur - RSPCB",22-06-2024 04:00:00,23.837789,73.714926,OZONE,30,79,61
India,Rajasthan,Hanumangarh,"Housing Board, Hanumangarh - RSPCB",22-06-2024 04:00:00,29.610750,74.283608,NO2,NA,NA,NA
India,Rajasthan,Jaipur,"Adarsh Nagar, Jaipur - RSPCB",22-06-2024 04:00:00,26.902909,75.836858,NO2,17,66,31
India,Rajasthan,Jaipur,"Adarsh Nagar, Jaipur - RSPCB",22-06-2024 04:00:00,26.902909,75.836858,OZONE,8,69,17
India,Rajasthan,Jaipur,"Mansarovar Sector-12, Jaipur - RSPCB",22-06-2024 04:00:00,26.843698,75.766894,PM10,14,171,59
India,Rajasthan,Jaipur,"Mansarovar Sector-12, Jaipur - RSPCB",22-06-2024 04:00:00,26.843698,75.766894,CO,10,41,26
India,Rajasthan,Jaipur,"Police Commissionerate, Jaipur - RSPCB",22-06-2024 04:00:00,26.9164092,75.7994901,NO2,8,15,11
India,Rajasthan,Jaipur,"RIICO Sitapura, Jaipur - RSPCB",22-06-2024 04:00:00,26.786682,75.827928,PM10,17,118,45
India,Rajasthan,Jaipur,"Shastri Nagar, Jaipur - RSPCB",22-06-2024 04:00:00,26.9502929,75.730943,PM10,50,153,85
India,Rajasthan,Jaipur,"Shastri Nagar, Jaipur - RSPCB",22-06-2024 04:00:00,26.9502929,75.730943,SO2,2,63,23
India,Rajasthan,Jaisalmer,"Sadar Bazar, Jaisalmer - RSPCB",22-06-2024 04:00:00,26.912329,70.909168,CO,14,40,21
India,Rajasthan,Jhalawar,"Rajlaxmi Nagar, Jhalawar - RSPCB",22-06-2024 04:00:00,24.588397,76.172782,PM2.5,4,48,26
India,Rajasthan,Jhalawar,"Rajlaxmi Nagar, Jhalawar - RSPCB",22-06-2024 04:00:00,24.588397,76.172782,NO2,18,30,23
India,Rajasthan,Jhalawar,"Rajlaxmi Nagar, Jhalawar - RSPCB",22-06-2024 04:00:00,24.588397,76.172782,OZONE,22,51,27
India,Rajasthan,Jodhpur,"Collectorate, Jodhpur - RSPCB",22-06-2024 04:00:00,26.268249,73.0193853,PM2.5,24,159,71
India,Rajasthan,Jodhpur,"Jhalamand, Jodhpur - RSPCB",22-06-2024 04:00:00,26.215415,73.070156,PM10,52,184,110
India,Rajasthan,Jodhpur,"Mandor, Jodhpur - RSPCB",22-06-2024 04:00:00,26.358805,73.047444,NO2,10,24,17
India,Rajasthan,Jodhpur,"Mandor, Jodhpur - RSPCB",22-06-2024 04:00:00,26.358805,73.047444,SO2,2,3,2
India,Rajasthan,Jodhpur,"Samrat Ashok Udhyan, Jodhpur - RSPCB",22-06-2024 04:00:00,26.253384,72.976571,NO2,2,16,5
India,Rajasthan,Jodhpur,"Samrat Ashok Udhyan, Jodhpur - RSPCB",22-06-2024 04:00:00,26.253384,72.976571,OZONE,33,72,64
India,Rajasthan,Karauli,"Satyawati Vihar, Karauli - RSPCB",22-06-2024 04:00:00,26.506177,77.025989,PM2.5,3,82,21
India,Rajasthan,Kota,"Nayapura, Kota - RSPCB",22-06-2024 04:00:00,25.196024,75.855668,NO2,15,50,29
India,Rajasthan,Kota,"Nayapura, Kota - RSPCB",22-06-2024 04:00:00,25.196024,75.855668,NH3,4,8,6
India,Rajasthan,Kota,"Nayapura, Kota - RSPCB",22-06-2024 04:00:00,25.196024,75.855668,OZONE,5,65,18
India,Rajasthan,Kota,"Shrinath Puram, Kota - RSPCB",22-06-2024 04:00:00,25.14389,75.821256,PM10,20,91,48
India,Rajasthan,Kota,"Shrinath Puram, Kota - RSPCB",22-06-2024 04:00:00,25.14389,75.821256,SO2,3,13,7
India,Rajasthan,Nagaur,"Karni Colony, Nagaur - RSPCB",22-06-2024 04:00:00,27.213494,73.734444,SO2,3,7,4
India,Rajasthan,Pali,"Indira Colony Vistar, Pali - RSPCB",22-06-2024 04:00:00,25.771061, 73.340227,SO2,6,11,9
India,Rajasthan,Pali,"Indira Colony Vistar, Pali - RSPCB",22-06-2024 04:00:00,25.771061, 73.340227,OZONE,9,33,25
India,Rajasthan,Pratapgarh,"Pragati Nagar, Pratapgarh - RSPCB",22-06-2024 04:00:00,24.041198,74.780702,PM10,25,118,50
India,Rajasthan,Pratapgarh,"Pragati Nagar, Pratapgarh - RSPCB",22-06-2024 04:00:00,24.041198,74.780702,CO,9,44,17
India,Rajasthan,Rajsamand,"Dhoinda, Rajsamand - RSPCB",22-06-2024 04:00:00,25.036360,73.883502,SO2,1,4,2
India,Rajasthan,Sawai Madhopur,"Sahu Nagar, Sawai Madhopur - RSPCB",22-06-2024 04:00:00,26.031443,76.359327,PM2.5,12,73,20
India,Rajasthan,Sikar,"Radhakishan Pura, Sikar - RSPCB",22-06-2024 04:00:00,27.608912,75.153302,NH3,5,7,6
India,Rajasthan,Sikar,"Radhakishan Pura, Sikar - RSPCB",22-06-2024 04:00:00,27.608912,75.153302,OZONE,26,97,30
India,Rajasthan,Sirohi,"Vedhaynath Colony, Sirohi - RSPCB",22-06-2024 04:00:00,24.885261,72.857549,PM2.5,14,58,34
India,Rajasthan,Sirohi,"Vedhaynath Colony, Sirohi - RSPCB",22-06-2024 04:00:00,24.885261,72.857549,SO2,3,7,4
India,Rajasthan,Sri Ganganagar,"Old City, Sri Ganganagar - RSPCB",22-06-2024 04:00:00,29.931624,73.864511,PM10,28,129,75
India,Rajasthan,Sri Ganganagar,"Old City, Sri Ganganagar - RSPCB",22-06-2024 04:00:00,29.931624,73.864511,NH3,11,23,17
India,Rajasthan,Sri Ganganagar,"Old City, Sri Ganganagar - RSPCB",22-06-2024 04:00:00,29.931624,73.864511,CO,2,129,29
India,Rajasthan,Tonk,"Shastri Nagar, Tonk - RSPCB",22-06-2024 04:00:00,26.159933,75.780517,PM2.5,10,45,25
India,Rajasthan,Tonk,"Shastri Nagar, Tonk - RSPCB",22-06-2024 04:00:00,26.159933,75.780517,NH3,2,9,4
India,Rajasthan,Tonk,"Shastri Nagar, Tonk - RSPCB",22-06-2024 04:00:00,26.159933,75.780517,CO,6,20,15
India,TamilNadu,Ariyalur,"Keelapalur, Ariyalur - TNPCB",22-06-2024 04:00:00,11.06825,79.07033,PM10,13,176,48
India,TamilNadu,Ariyalur,"Keelapalur, Ariyalur - TNPCB",22-06-2024 04:00:00,11.06825,79.07033,NO2,6,7,6
India,TamilNadu,Chennai,"Alandur Bus Depot, Chennai - CPCB",22-06-2024 04:00:00,12.9099161,80.1076538,PM10,24,26,24
India,TamilNadu,Chennai,"Alandur Bus Depot, Chennai - CPCB",22-06-2024 04:00:00,12.9099161,80.1076538,OZONE,4,6,5
India,TamilNadu,Chennai,"Arumbakkam, Chennai - TNPCB",22-06-2024 04:00:00,13.0664,80.2112 ,PM2.5,12,26,18
India,TamilNadu,Chennai,"Kodungaiyur, Chennai - TNPCB",22-06-2024 04:00:00,13.1278,80.2642,NO2,12,38,19
India,TamilNadu,Chennai,"Manali, Chennai - CPCB",22-06-2024 04:00:00,13.164544,80.26285,NH3,4,6,5
India,TamilNadu,Chennai,"Manali, Chennai - CPCB",22-06-2024 04:00:00,13.164544,80.26285,CO,29,113,104
India,TamilNadu,Chennai,"Perungudi, Chennai - TNPCB",22-06-2024 04:00:00,12.9533,80.2357,PM2.5,12,71,27
India,TamilNadu,Chennai,"Perungudi, Chennai - TNPCB",22-06-2024 04:00:00,12.9533,80.2357,NH3,3,5,4
India,TamilNadu,Chennai,"Royapuram, Chennai - TNPCB",22-06-2024 04:00:00,13.1036,80.2909,OZONE,4,9,7
India,TamilNadu,Chennai,"Velachery Res. Area, Chennai - CPCB",22-06-2024 04:00:00,13.0052189,80.2398125,PM2.5,26,53,38
India,TamilNadu,Chennai,"Velachery Res. Area, Chennai - CPCB",22-06-2024 04:00:00,13.0052189,80.2398125,NO2,17,27,22
India,TamilNadu,Chennai,"Velachery Res. Area, Chennai - CPCB",22-06-2024 04:00:00,13.0052189,80.2398125,SO2,2,105,42
India,TamilNadu,Coimbatore,"PSG College of Arts and Science, Coimbatore - TNPCB",22-06-2024 04:00:00,11.0328,77.0349,PM2.5,17,42,28
India,TamilNadu,Coimbatore,"PSG College of Arts and Science, Coimbatore - TNPCB",22-06-2024 04:00:00,11.0328,77.0349,NH3,1,1,1
India,TamilNadu,Coimbatore,"PSG College of Arts and Science, Coimbatore - TNPCB",22-06-2024 04:00:00,11.0328,77.0349,OZONE,4,5,4
India,TamilNadu,Cuddalore,"Kudikadu, Cuddalore - TNPCB",22-06-2024 04:00:00,11.6829898,79.7532099,NO2,NA,NA,NA
India,TamilNadu,Cuddalore,"Semmandalam, Cuddalore - TNPCB",22-06-2024 04:00:00,11.7637683,79.7499835,PM2.5,20,79,30
India,TamilNadu,Gummidipoondi,"Anthoni Pillai Nagar, Gummidipoondi - TNPCB",22-06-2024 04:00:00,13.4127,80.1081,SO2,3,59,24
India,TamilNadu,Ooty,"Bombay Castel, Ooty - TNPCB",22-06-2024 04:00:00,11.4068288,76.7138973,CO,NA,NA,NA
India,TamilNadu,Ooty,"Bombay Castel, Ooty - TNPCB",22-06-2024 04:00:00,11.4068288,76.7138973,OZONE,NA,NA,NA
India,TamilNadu,Thoothukudi,"Meelavittan, Thoothukudi - TNPCB",22-06-2024 04:00:00,8.816428 ,78.099039,PM10,22,149,60
India,TamilNadu,Vellore,"Vasanthapuram, Vellore - TNPCB",22-06-2024 04:00:00,12.909494,79.131861,PM10,NA,NA,NA
India,TamilNadu,Virudhunagar,"Collectorate Office, Virudhunagar - TNPCB",22-06-2024 04:00:00,9.559382,77.948828,PM2.5,16,38,30
India,TamilNadu,Virudhunagar,"Collectorate Office, Virudhunagar - TNPCB",22-06-2024 04:00:00,9.559382,77.948828,NH3,7,7,7
India,Telangana,Hyderabad,"Bollaram Industrial Area, Hyderabad - TSPCB",22-06-2024 04:00:00,17.540891,78.358528,PM2.5,18,62,36
India,Telangana,Hyderabad,"Bollaram Industrial Area, Hyderabad - TSPCB",22-06-2024 04:00:00,17.540891,78.358528,NH3,2,5,3
India,Telangana,Hyderabad,"Central University, Hyderabad - TSPCB",22-06-2024 04:00:00,17.460103,78.334361,PM2.5,3,36,17
India,Telangana,Hyderabad,"ICRISAT Patancheru, Hyderabad - TSPCB",22-06-2024 04:00:00,17.518400,78.278777,PM2.5,2,26,11
India,Telangana,Hyderabad,"IDA Pashamylaram, Hyderabad - TSPCB",22-06-2024 04:00:00,17.5316895,78.218939,PM10,23,96,50
India,Telangana,Hyderabad,"IDA Pashamylaram, Hyderabad - TSPCB",22-06-2024 04:00:00,17.5316895,78.218939,OZONE,2,11,4
India,Telangana,Hyderabad,"IITH Kandi, Hyderabad - TSPCB",22-06-2024 04:00:00,17.585705,78.126199,OZONE,37,41,40
India,Telangana,Hyderabad,"Kokapet, Hyderabad - TSPCB",22-06-2024 04:00:00,17.393559,78.339194,PM2.5,39,202,74
India,Telangana,Hyderabad,"Kokapet, Hyderabad - TSPCB",22-06-2024 04:00:00,17.393559,78.339194,NH3,1,2,2
India,Telangana,Hyderabad,"Kompally Municipal Office, Hyderabad - TSPCB",22-06-2024 04:00:00,17.544899,78.486949,OZONE,17,29,18
India,Telangana,Hyderabad,"Nacharam_TSIIC IALA, Hyderabad - TSPCB",22-06-2024 04:00:00,17.429398,78.569354,SO2,13,27,20
India,Telangana,Hyderabad,"New Malakpet, Hyderabad - TSPCB",22-06-2024 04:00:00,17.37206,78.50864,NO2,13,20,17
India,Telangana,Hyderabad,"Ramachandrapuram, Hyderabad - TSPCB",22-06-2024 04:00:00,17.528544,78.286195,PM2.5,44,46,44
India,Telangana,Hyderabad,"Ramachandrapuram, Hyderabad - TSPCB",22-06-2024 04:00:00,17.528544,78.286195,PM10,78,84,82
India,Telangana,Hyderabad,"Somajiguda, Hyderabad - TSPCB",22-06-2024 04:00:00,17.417094,78.457437,NO2,NA,NA,NA
India,Telangana,Hyderabad,"Somajiguda, Hyderabad - TSPCB",22-06-2024 04:00:00,17.417094,78.457437,NH3,NA,NA,NA
India,Telangana,Hyderabad,"Zoo Park, Hyderabad - TSPCB",22-06-2024 04:00:00,17.349694,78.451437,CO,3,60,26
India,Telangana,Hyderabad,"Zoo Park, Hyderabad - TSPCB",22-06-2024 04:00:00,17.349694,78.451437,OZONE,13,22,16
India,Tripura,Agartala,"Bardowali, Agartala - Tripura SPCB",22-06-2024 04:00:00,23.8175497,91.2726974,PM2.5,26,79,45
India,Tripura,Agartala,"Bardowali, Agartala - Tripura SPCB",22-06-2024 04:00:00,23.8175497,91.2726974,PM10,32,81,56
India,Tripura,Agartala,"Bardowali, Agartala - Tripura SPCB",22-06-2024 04:00:00,23.8175497,91.2726974,SO2,40,52,47
India,Uttar_Pradesh,Agra,"Manoharpur, Agra - UPPCB",22-06-2024 04:00:00,27.23711,78.01936,PM2.5,24,50,34
India,Uttar_Pradesh,Agra,"Manoharpur, Agra - UPPCB",22-06-2024 04:00:00,27.23711,78.01936,NO2,30,30,30
India,Uttar_Pradesh,Agra,"Manoharpur, Agra - UPPCB",22-06-2024 04:00:00,27.23711,78.01936,SO2,18,19,19
India,Uttar_Pradesh,Agra,"Rohta, Agra - UPPCB",22-06-2024 04:00:00,27.106972,78.000111,PM2.5,11,38,25
India,Uttar_Pradesh,Agra,"Sanjay Palace, Agra - UPPCB",22-06-2024 04:00:00,27.19865833,78.00598056,PM2.5,10,24,16
India,Uttar_Pradesh,Agra,"Sector-3B Avas Vikas Colony, Agra - UPPCB",22-06-2024 04:00:00,27.19412,77.96237,NH3,4,14,9
India,Uttar_Pradesh,Agra,"Shahjahan Garden, Agra - UPPCB",22-06-2024 04:00:00,27.169338,78.03582,OZONE,1,179,2
India,Uttar_Pradesh,Agra,"Shastripuram, Agra - UPPCB",22-06-2024 04:00:00,27.19862,77.92066,PM10,NA,NA,NA
India,Uttar_Pradesh,Baghpat,"Sardar Patel Inter College, Baghpat - UPPCB",22-06-2024 04:00:00,28.964949,77.278761,PM10,16,340,127
India,Uttar_Pradesh,Baghpat,"Sardar Patel Inter College, Baghpat - UPPCB",22-06-2024 04:00:00,28.964949,77.278761,NH3,1,3,2
India,Uttar_Pradesh,Bareilly,"Civil Lines, Bareilly - UPPCB",22-06-2024 04:00:00,28.359581,79.414455,CO,4,23,18
India,Uttar_Pradesh,Bareilly,"Rajendra Nagar, Bareilly - UPPCB",22-06-2024 04:00:00,28.38910936,79.42963708,PM10,NA,NA,NA
India,Uttar_Pradesh,Firozabad,"Nagla Bhau, Firozabad - UPPCB",22-06-2024 04:00:00,27.168897,78.376960,PM10,18,69,39
India,Uttar_Pradesh,Firozabad,"Vibhab Nagar, Firozabad - UPPCB",22-06-2024 04:00:00,27.1594,78.3953,NO2,NA,NA,NA
India,Uttar_Pradesh,Firozabad,"Vibhab Nagar, Firozabad - UPPCB",22-06-2024 04:00:00,27.1594,78.3953,SO2,NA,NA,NA
India,Uttar_Pradesh,Ghaziabad,"Indirapuram, Ghaziabad - UPPCB",22-06-2024 04:00:00,28.646233,77.358075,PM2.5,73,303,169
India,Uttar_Pradesh,Ghaziabad,"Indirapuram, Ghaziabad - UPPCB",22-06-2024 04:00:00,28.646233,77.358075,CO,4,46,25
India,Uttar_Pradesh,Ghaziabad,"Indirapuram, Ghaziabad - UPPCB",22-06-2024 04:00:00,28.646233,77.358075,OZONE,3,69,16
India,Uttar_Pradesh,Ghaziabad,"Loni, Ghaziabad - UPPCB",22-06-2024 04:00:00,28.757294,77.278792,PM2.5,58,336,191
India,Uttar_Pradesh,Ghaziabad,"Loni, Ghaziabad - UPPCB",22-06-2024 04:00:00,28.757294,77.278792,PM10,124,386,183
India,Uttar_Pradesh,Ghaziabad,"Loni, Ghaziabad - UPPCB",22-06-2024 04:00:00,28.757294,77.278792,NH3,1,9,4
India,Uttar_Pradesh,Ghaziabad,"Loni, Ghaziabad - UPPCB",22-06-2024 04:00:00,28.757294,77.278792,SO2,2,47,23
India,Uttar_Pradesh,Ghaziabad,"Sanjay Nagar, Ghaziabad - UPPCB",22-06-2024 04:00:00,28.685382,77.453839,PM10,56,436,137
India,Uttar_Pradesh,Ghaziabad,"Sanjay Nagar, Ghaziabad - UPPCB",22-06-2024 04:00:00,28.685382,77.453839,NO2,24,97,52
India,Uttar_Pradesh,Ghaziabad,"Vasundhara, Ghaziabad - UPPCB",22-06-2024 04:00:00,28.6603346,77.3572563,SO2,4,86,15
India,Uttar_Pradesh,Gorakhpur,"Madan Mohan Malaviya University of Technology, Gorakhpur - UPPCB",22-06-2024 04:00:00,26.730136,83.433859,OZONE,11,13,12
India,Uttar_Pradesh,Greater Noida,"Knowledge Park - III, Greater Noida - UPPCB",22-06-2024 04:00:00,28.47272,77.482000,PM10,86,429,157
India,Uttar_Pradesh,Greater Noida,"Knowledge Park - III, Greater Noida - UPPCB",22-06-2024 04:00:00,28.47272,77.482000,CO,19,76,55
India,Uttar_Pradesh,Greater Noida,"Knowledge Park - V, Greater Noida - UPPCB",22-06-2024 04:00:00,28.557054,77.453663,PM2.5,56,185,94
India,Uttar_Pradesh,Greater Noida,"Knowledge Park - V, Greater Noida - UPPCB",22-06-2024 04:00:00,28.557054,77.453663,SO2,12,38,26
India,Uttar_Pradesh,Greater Noida,"Knowledge Park - V, Greater Noida - UPPCB",22-06-2024 04:00:00,28.557054,77.453663,OZONE,2,86,41
India,Uttar_Pradesh,Jhansi,"Shivaji Nagar, Jhansi - UPPCB",22-06-2024 04:00:00,25.4547,78.6039,OZONE,25,94,80
India,Uttar_Pradesh,Kanpur,"NSI Kalyanpur, Kanpur - UPPCB",22-06-2024 04:00:00,26.509954,80.249612,PM10,25,89,53
India,Uttar_Pradesh,Kanpur,"NSI Kalyanpur, Kanpur - UPPCB",22-06-2024 04:00:00,26.509954,80.249612,NH3,1,1,1
India,Uttar_Pradesh,Kanpur,"NSI Kalyanpur, Kanpur - UPPCB",22-06-2024 04:00:00,26.509954,80.249612,SO2,17,25,19
India,Uttar_Pradesh,Kanpur,"Nehru Nagar, Kanpur - UPPCB",22-06-2024 04:00:00,26.4703136,80.3229863,PM2.5,23,60,42
India,Uttar_Pradesh,Kanpur,"Nehru Nagar, Kanpur - UPPCB",22-06-2024 04:00:00,26.4703136,80.3229863,SO2,8,12,11
India,Uttar_Pradesh,Kanpur,"Nehru Nagar, Kanpur - UPPCB",22-06-2024 04:00:00,26.4703136,80.3229863,OZONE,4,78,5
India,Uttar_Pradesh,Lucknow,"B R Ambedkar University, Lucknow - UPPCB",22-06-2024 04:00:00,26.766433,80.927299,NH3,11,14,12
India,Uttar_Pradesh,Lucknow,"B R Ambedkar University, Lucknow - UPPCB",22-06-2024 04:00:00,26.766433,80.927299,CO,23,28,26
India,Uttar_Pradesh,Lucknow,"Gomti Nagar, Lucknow - UPPCB",22-06-2024 04:00:00,26.868120,81.005119,CO,40,44,41
India,Uttar_Pradesh,Lucknow,"Kendriya Vidyalaya, Lucknow - CPCB",22-06-2024 04:00:00,26.906111,80.948222,PM2.5,50,122,79
India,Uttar_Pradesh,Lucknow,"Kukrail Picnic Spot-1, Lucknow - UPPCB",22-06-2024 04:00:00,26.90723,80.98579,PM10,21,71,40
India,Uttar_Pradesh,Lucknow,"Lalbagh, Lucknow - CPCB",22-06-2024 04:00:00,26.8458805,80.9365541,PM2.5,52,198,112
India,Uttar_Pradesh,Lucknow,"Lalbagh, Lucknow - CPCB",22-06-2024 04:00:00,26.8458805,80.9365541,NH3,24,32,29
India,Uttar_Pradesh,Lucknow,"Lalbagh, Lucknow - CPCB",22-06-2024 04:00:00,26.8458805,80.9365541,CO,20,115,91
India,Uttar_Pradesh,Lucknow,"Talkatora District Industries Center, Lucknow - CPCB",22-06-2024 04:00:00,26.83399722,80.8917361,SO2,5,13,10
India,Uttar_Pradesh,Meerut,"Ganga Nagar, Meerut - UPPCB",22-06-2024 04:00:00,28.999264,77.7590354,NO2,23,95,43
India,Uttar_Pradesh,Meerut,"Ganga Nagar, Meerut - UPPCB",22-06-2024 04:00:00,28.999264,77.7590354,SO2,12,18,15
India,Uttar_Pradesh,Meerut,"Jai Bhim Nagar, Meerut - UPPCB",22-06-2024 04:00:00,28.9535882,77.7622941,PM2.5,33,162,87
India,Uttar_Pradesh,Meerut,"Jai Bhim Nagar, Meerut - UPPCB",22-06-2024 04:00:00,28.9535882,77.7622941,OZONE,5,35,7
India,Uttar_Pradesh,Meerut,"Pallavpuram Phase 2, Meerut - UPPCB",22-06-2024 04:00:00,29.063510,77.709723,OZONE,1,80,4
India,Uttar_Pradesh,Moradabad,"Buddhi Vihar, Moradabad - UPPCB",22-06-2024 04:00:00,28.83526,78.74460,SO2,21,28,24
India,Uttar_Pradesh,Moradabad,"Eco Herbal Park, Moradabad - UPPCB",22-06-2024 04:00:00,28.840739,78.697531,OZONE,1,184,17
India,Uttar_Pradesh,Moradabad,"Jigar Colony, Moradabad - UPPCB",22-06-2024 04:00:00,28.856664,78.772638,PM2.5,45,67,56
India,Uttar_Pradesh,Moradabad,"Kashiram Nagar, Moradabad - UPPCB",22-06-2024 04:00:00,28.849399,78.742362,NO2,10,13,12
India,Uttar_Pradesh,Moradabad,"Transport Nagar, Moradabad - UPPCB",22-06-2024 04:00:00,28.802625,78.753728,PM2.5,34,72,54
India,Uttar_Pradesh,Muzaffarnagar,"New Mandi, Muzaffarnagar - UPPCB",22-06-2024 04:00:00,29.4723508,77.7194031,PM2.5,74,323,185
India,Uttar_Pradesh,Muzaffarnagar,"New Mandi, Muzaffarnagar - UPPCB",22-06-2024 04:00:00,29.4723508,77.7194031,NO2,8,37,22
India,Uttar_Pradesh,Muzaffarnagar,"New Mandi, Muzaffarnagar - UPPCB",22-06-2024 04:00:00,29.4723508,77.7194031,OZONE,11,46,35
India,Uttar_Pradesh,Noida,"Sector - 125, Noida - UPPCB",22-06-2024 04:00:00,28.5447608,77.3231257,CO,43,102,82
India,Uttar_Pradesh,Noida,"Sector - 125, Noida - UPPCB",22-06-2024 04:00:00,28.5447608,77.3231257,OZONE,3,50,6
India,Uttar_Pradesh,Noida,"Sector-116, Noida - UPPCB",22-06-2024 04:00:00,28.569230,77.393848,PM2.5,53,139,87
India,Uttar_Pradesh,Noida,"Sector-116, Noida - UPPCB",22-06-2024 04:00:00,28.569230,77.393848,CO,40,84,71
India,Uttar_Pradesh,Noida,"Sector-116, Noida - UPPCB",22-06-2024 04:00:00,28.569230,77.393848,OZONE,1,91,30
India,Uttar_Pradesh,Prayagraj,"Motilal Nehru NIT, Prayagraj - UPPCB",22-06-2024 04:00:00,25.494,81.863,PM2.5,NA,NA,NA
India,Uttar_Pradesh,Varanasi,"Ardhali Bazar, Varanasi - UPPCB",22-06-2024 04:00:00,25.3505986,82.9083074,PM2.5,8,31,23
India,Uttar_Pradesh,Varanasi,"Maldahiya, Varanasi - UPPCB",22-06-2024 04:00:00,25.32393,82.99687,NO2,1,2,1
India,Uttar_Pradesh,Vrindavan,"Omex Eternity, Vrindavan - UPPCB",22-06-2024 04:00:00,27.5714090,77.6557570,PM10,21,250,99
India,Uttar_Pradesh,Vrindavan,"Omex Eternity, Vrindavan - UPPCB",22-06-2024 04:00:00,27.5714090,77.6557570,OZONE,18,25,23
India,Uttarakhand,Kashipur,"Govt. Girls Inter College, Kashipur - UKPCB",22-06-2024 04:00:00,29.2124114,78.9611753,SO2,2,10,8
India,Uttarakhand,Rishikesh,"Shivaji Nagar, Rishikesh - UKPCB",22-06-2024 04:00:00,30.075911,78.2859547,NO2,7,14,9
India,West_Bengal,Asansol,"Asansol Court Area, Asansol - WBPCB",22-06-2024 04:00:00,23.685297,86.945968,NH3,10,13,11
India,West_Bengal,Asansol,"Asansol Court Area, Asansol - WBPCB",22-06-2024 04:00:00,23.685297,86.945968,SO2,9,18,13
India,West_Bengal,Asansol,"Evelyn Lodge, Asansol - WBPCB",22-06-2024 04:00:00,23.6979360,86.9443950,PM10,37,146,106
India,West_Bengal,Asansol,"Evelyn Lodge, Asansol - WBPCB",22-06-2024 04:00:00,23.6979360,86.9443950,NH3,NA,NA,NA
India,West_Bengal,Asansol,"Mahabir Colliery, Asansol - WBPCB",22-06-2024 04:00:00,23.6181830,87.1057180,PM2.5,NA,NA,NA
India,West_Bengal,Asansol,"Mahabir Colliery, Asansol - WBPCB",22-06-2024 04:00:00,23.6181830,87.1057180,NO2,17,89,45
India,West_Bengal,Asansol,"Mahabir Colliery, Asansol - WBPCB",22-06-2024 04:00:00,23.6181830,87.1057180,OZONE,8,48,22
India,West_Bengal,Barrackpore,"SVSPA Campus, Barrackpore - WBPCB",22-06-2024 04:00:00,22.7605581,88.3617589,NO2,7,16,11
India,West_Bengal,Barrackpore,"SVSPA Campus, Barrackpore - WBPCB",22-06-2024 04:00:00,22.7605581,88.3617589,CO,24,53,45
India,West_Bengal,Haldia,"Priyambada Housing Estate, Haldia - WBPCB",22-06-2024 04:00:00,22.06047,88.109737,PM2.5,14,26,17
India,West_Bengal,Haldia,"Priyambada Housing Estate, Haldia - WBPCB",22-06-2024 04:00:00,22.06047,88.109737,NO2,10,13,12
India,West_Bengal,Howrah,"Botanical Garden, Howrah - WBPCB",22-06-2024 04:00:00,22.554954,88.292568,NO2,10,55,26
India,West_Bengal,Howrah,"Ghusuri, Howrah - WBPCB",22-06-2024 04:00:00,22.611968,88.347422,PM2.5,24,64,47
India,West_Bengal,Howrah,"Ghusuri, Howrah - WBPCB",22-06-2024 04:00:00,22.611968,88.347422,OZONE,11,20,14
India,West_Bengal,Howrah,"Padmapukur, Howrah - WBPCB",22-06-2024 04:00:00,22.5687319,88.2797276,NO2,35,65,47
India,West_Bengal,Howrah,"Padmapukur, Howrah - WBPCB",22-06-2024 04:00:00,22.5687319,88.2797276,CO,6,57,24
India,West_Bengal,Kolkata,"Bidhannagar, Kolkata - WBPCB",22-06-2024 04:00:00,22.58157048,88.41002457,NO2,43,72,49
India,West_Bengal,Kolkata,"Bidhannagar, Kolkata - WBPCB",22-06-2024 04:00:00,22.58157048,88.41002457,CO,32,46,38
India,West_Bengal,Kolkata,"Jadavpur, Kolkata - WBPCB",22-06-2024 04:00:00,22.49929,88.36917,OZONE,15,23,18
India,West_Bengal,Kolkata,"Rabindra Bharati University, Kolkata - WBPCB",22-06-2024 04:00:00,22.627847,88.380669,NO2,15,21,18
India,West_Bengal,Kolkata,"Victoria, Kolkata - WBPCB",22-06-2024 04:00:00,22.5448082,88.3403691,NH3,6,6,6
India,Andhra_Pradesh,Anantapur,"Gulzarpet, Anantapur - APPCB",22-06-2024 04:00:00,14.675886,77.593027,PM2.5,29,72,46
India,Andhra_Pradesh,Anantapur,"Gulzarpet, Anantapur - APPCB",22-06-2024 04:00:00,14.675886,77.593027,NO2,12,13,12
India,Andhra_Pradesh,Anantapur,"Gulzarpet, Anantapur - APPCB",22-06-2024 04:00:00,14.675886,77.593027,CO,16,29,20
India,Andhra_Pradesh,Chittoor,"Gangineni Cheruvu, Chittoor - APPCB",22-06-2024 04:00:00,13.204880,79.097889,PM2.5,NA,NA,NA
India,Andhra_Pradesh,Chittoor,"Gangineni Cheruvu, Chittoor - APPCB",22-06-2024 04:00:00,13.204880,79.097889,NO2,NA,NA,NA
India,Andhra_Pradesh,Chittoor,"Gangineni Cheruvu, Chittoor - APPCB",22-06-2024 04:00:00,13.204880,79.097889,SO2,NA,NA,NA
India,Andhra_Pradesh,Kadapa,"Yerramukkapalli, Kadapa - APPCB",22-06-2024 04:00:00,14.465052,78.824187,NH3,NA,NA,NA
India,Andhra_Pradesh,Rajamahendravaram,"Anand Kala Kshetram, Rajamahendravaram - APPCB",22-06-2024 04:00:00,16.9872867,81.7363176,NO2,4,24,13
India,Andhra_Pradesh,Tirupati,"Tirumala, Tirupati - APPCB",22-06-2024 04:00:00,13.67,79.35,NH3,1,2,1
India,Andhra_Pradesh,Tirupati,"Tirumala, Tirupati - APPCB",22-06-2024 04:00:00,13.67,79.35,SO2,1,9,4
India,Andhra_Pradesh,Tirupati,"Vaikuntapuram, Tirupati - APPCB",22-06-2024 04:00:00,13.615387,79.409230,NH3,2,3,2
India,Andhra_Pradesh,Tirupati,"Vaikuntapuram, Tirupati - APPCB",22-06-2024 04:00:00,13.615387,79.409230,SO2,7,8,8
India,Andhra_Pradesh,Vijayawada,"HB Colony, Vijayawada - APPCB",22-06-2024 04:00:00,16.536107,80.594233,PM2.5,30,69,45
India,Andhra_Pradesh,Vijayawada,"HB Colony, Vijayawada - APPCB",22-06-2024 04:00:00,16.536107,80.594233,PM10,41,80,55
India,Andhra_Pradesh,Vijayawada,"HB Colony, Vijayawada - APPCB",22-06-2024 04:00:00,16.536107,80.594233,NO2,11,33,16
India,Andhra_Pradesh,Vijayawada,"Kanuru, Vijayawada - APPCB",22-06-2024 04:00:00,16.486692,80.699436,PM10,50,93,66
India,Andhra_Pradesh,Vijayawada,"Kanuru, Vijayawada - APPCB",22-06-2024 04:00:00,16.486692,80.699436,CO,36,36,36
India,Andhra_Pradesh,Vijayawada,"Rajiv Gandhi Park, Vijayawada - APPCB",22-06-2024 04:00:00,16.509717,80.612222,PM2.5,41,96,68
India,Andhra_Pradesh,Vijayawada,"Rajiv Gandhi Park, Vijayawada - APPCB",22-06-2024 04:00:00,16.509717,80.612222,NH3,1,6,4
India,Andhra_Pradesh,Vijayawada,"Rajiv Nagar, Vijayawada - APPCB",22-06-2024 04:00:00,16.554731,80.649110,PM2.5,47,78,51
India,Andhra_Pradesh,Vijayawada,"Rajiv Nagar, Vijayawada - APPCB",22-06-2024 04:00:00,16.554731,80.649110,CO,38,38,38
India,Assam,Guwahati,"LGBI Airport, Guwahati - PCBA",22-06-2024 04:00:00,26.10887,91.589544,SO2,8,19,11
India,Assam,Guwahati,"Railway Colony, Guwahati - PCBA",22-06-2024 04:00:00,26.181742,91.78063,PM2.5,12,278,63
India,Assam,Nagaon,"Christianpatty, Nagaon - PCBA",22-06-2024 04:00:00,26.349082,92.68449,PM2.5,25,57,30
India,Assam,Nagaon,"Christianpatty, Nagaon - PCBA",22-06-2024 04:00:00,26.349082,92.68449,NH3,1,10,2
India,Assam,Nalbari,"Bata Chowk, Nalbari - PCBA",22-06-2024 04:00:00,26.446912,91.439057,NH3,1,2,1
India,Assam,Silchar,"Tarapur, Silchar - PCBA",22-06-2024 04:00:00,24.82827,92.79525,PM10,52,68,59
India,Assam,Sivasagar,"Girls College, Sivasagar - PCBA",22-06-2024 04:00:00,26.987634,94.636574,PM2.5,24,31,29
India,Assam,Sivasagar,"Girls College, Sivasagar - PCBA",22-06-2024 04:00:00,26.987634,94.636574,PM10,55,81,62
India,Bihar,Araria,"Kharahiya Basti, Araria - BSPCB",22-06-2024 04:00:00,26.146529,87.454184,NO2,6,11,7
India,Bihar,Aurangabad,"Gurdeo Nagar, Aurangabad - BSPCB",22-06-2024 04:00:00,24.75746,84.366208,SO2,12,22,17
India,Bihar,Bettiah,"Kamalnath Nagar, Bettiah - BSPCB",22-06-2024 04:00:00,26.80365,84.51954,NO2,25,32,28
India,Bihar,Bhagalpur,"DM Office_Kachari Chowk, Bhagalpur - BSPCB",22-06-2024 04:00:00,25.251013,86.989001,PM2.5,63,230,137
India,Bihar,Bhagalpur,"Mayaganj, Bhagalpur - BSPCB",22-06-2024 04:00:00,25.265194,87.012947,SO2,33,33,33
India,Bihar,Bhagalpur,"Mayaganj, Bhagalpur - BSPCB",22-06-2024 04:00:00,25.265194,87.012947,CO,19,41,31
India,Bihar,Bhagalpur,"Mayaganj, Bhagalpur - BSPCB",22-06-2024 04:00:00,25.265194,87.012947,OZONE,7,30,16
India,Bihar,Bihar Sharif,"D M Colony, Bihar Sharif - BSPCB",22-06-2024 04:00:00,25.204762,85.514960,SO2,3,4,3
India,Bihar,Bihar Sharif,"D M Colony, Bihar Sharif - BSPCB",22-06-2024 04:00:00,25.204762,85.514960,CO,26,30,29
India,Bihar,Buxar,"Charitra Van, Buxar - BSPCB (Formerly known as Central Jail)",22-06-2024 04:00:00,25.567520,83.966379,CO,38,92,57
India,Bihar,Gaya,"Collectorate, Gaya - BSPCB",22-06-2024 04:00:00,24.7955,84.9994,OZONE,50,83,64
India,Bihar,Gaya,"SFTI Kusdihra, Gaya - BSPCB",22-06-2024 04:00:00,24.762518,84.982348,NO2,4,28,20
India,Bihar,Hajipur,"Industrial Area, Hajipur - BSPCB",22-06-2024 04:00:00,25.697189,85.245900,PM2.5,61,138,91
India,Bihar,Hajipur,"Industrial Area, Hajipur - BSPCB",22-06-2024 04:00:00,25.697189,85.245900,NO2,10,36,19
India,Bihar,Katihar,"Mirchaibari, Katihar - BSPCB",22-06-2024 04:00:00,25.560083,87.553265,NH3,1,1,1
India,Bihar,Manguraha,"Forest Rest House, Manguraha - BSPCB",22-06-2024 04:00:00,27.308328,84.531742,PM10,11,39,23
India,Bihar,Manguraha,"Forest Rest House, Manguraha - BSPCB",22-06-2024 04:00:00,27.308328,84.531742,NO2,15,20,17
India,Bihar,Muzaffarpur,"Buddha Colony, Muzaffarpur - BSPCB",22-06-2024 04:00:00,26.11442,85.39813,PM10,34,66,45
India,Bihar,Muzaffarpur,"Buddha Colony, Muzaffarpur - BSPCB",22-06-2024 04:00:00,26.11442,85.39813,CO,16,29,25
India,Bihar,Muzaffarpur,"MIT-Daudpur Kothi, Muzaffarpur - BSPCB",22-06-2024 04:00:00,26.1403345,85.3650192,PM2.5,3,336,45
India,Bihar,Muzaffarpur,"Muzaffarpur Collectorate, Muzaffarpur - BSPCB",22-06-2024 04:00:00,26.1209,85.3647,OZONE,16,52,52
India,Bihar,Patna,"DRM Office Danapur, Patna - BSPCB",22-06-2024 04:00:00,25.586562,85.043586,NO2,18,27,22
India,Bihar,Patna,"Govt. High School Shikarpur, Patna - BSPCB",22-06-2024 04:00:00,25.592539,85.227158,NO2,33,36,34
India,Bihar,Patna,"Rajbansi Nagar, Patna - BSPCB",22-06-2024 04:00:00,25.599486,85.113666,NH3,5,7,6
India,Bihar,Patna,"Rajbansi Nagar, Patna - BSPCB",22-06-2024 04:00:00,25.599486,85.113666,SO2,4,14,9
India,Bihar,Patna,"Samanpura, Patna - BSPCB",22-06-2024 04:00:00,25.596727,85.085624,CO,41,57,50
India,Bihar,Purnia,"Mariam Nagar, Purnia - BSPCB",22-06-2024 04:00:00,25.366336,87.117468,OZONE,1,12,3
India,Bihar,Saharsa,"Police Line, Saharsa - BSPCB",22-06-2024 04:00:00,25.892357,86.590325,NO2,4,11,7
India,Bihar,Samastipur,"DM Office_Kasipur, Samastipur - BSPCB",22-06-2024 04:00:00,25.859655,85.77944,PM2.5,8,95,35
India,Bihar,Samastipur,"DM Office_Kasipur, Samastipur - BSPCB",22-06-2024 04:00:00,25.859655,85.77944,NO2,NA,NA,NA
India,Bihar,Samastipur,"DM Office_Kasipur, Samastipur - BSPCB",22-06-2024 04:00:00,25.859655,85.77944,NH3,3,3,3
India,Bihar,Siwan,"Chitragupta Nagar, Siwan - BSPCB",22-06-2024 04:00:00,26.2271665,84.3570427,PM10,NA,NA,NA
India,Chandigarh,Chandigarh,"Sector-25, Chandigarh - CPCC",22-06-2024 04:00:00,30.751462,76.762879,PM10,128,219,160
India,Chhattisgarh,Bhilai,"32Bungalows, Bhilai - CECB",22-06-2024 04:00:00,21.194815,81.314770,OZONE,7,46,9
India,Chhattisgarh,Bhilai,"Civic Center, Bhilai - Bhilai Steel Plant",22-06-2024 04:00:00,21.185571,81.343175,SO2,9,11,10
India,Chhattisgarh,Bilaspur,"Mangala, Bilaspur - NTPC",22-06-2024 04:00:00,22.08815,82.13737,PM2.5,12,40,21
India,Chhattisgarh,Chhal,"Nawapara SECL Colony, Chhal - CECB",22-06-2024 04:00:00,22.118125,83.140608,NH3,NA,NA,NA
India,Chhattisgarh,Korba,"Urja Nagar, Korba - CECB",22-06-2024 04:00:00,22.348441,82.549611,PM2.5,NA,NA,NA
India,Chhattisgarh,Kunjemura,"OP Jindal School, Kunjemura - CECB",22-06-2024 04:00:00,22.126650,83.483212,NO2,15,147,40
India,Chhattisgarh,Kunjemura,"OP Jindal School, Kunjemura - CECB",22-06-2024 04:00:00,22.126650,83.483212,SO2,1,6,3
India,Chhattisgarh,Kunjemura,"OP Jindal School, Kunjemura - CECB",22-06-2024 04:00:00,22.126650,83.483212,OZONE,4,12,8
India,Chhattisgarh,Milupara,"Govt. Higher Secondary School, Milupara - CECB",22-06-2024 04:00:00,22.1910172,83.5197009,PM10,NA,NA,NA
India,Chhattisgarh,Milupara,"Govt. Higher Secondary School, Milupara - CECB",22-06-2024 04:00:00,22.1910172,83.5197009,OZONE,31,46,40
India,Chhattisgarh,Raipur,"AIIMS, Raipur - CECB",22-06-2024 04:00:00,21.258815,81.578979,PM10,10,52,25
India,Chhattisgarh,Raipur,"AIIMS, Raipur - CECB",22-06-2024 04:00:00,21.258815,81.578979,NH3,6,6,6
India,Chhattisgarh,Raipur,"AIIMS, Raipur - CECB",22-06-2024 04:00:00,21.258815,81.578979,OZONE,2,19,3
India,Chhattisgarh,Tumidih,"OP Jindal Industrial Park, Tumidih - CECB",22-06-2024 04:00:00,22.06631475,83.33820077,PM2.5,NA,NA,NA
India,Chhattisgarh,Tumidih,"OP Jindal Industrial Park, Tumidih - CECB",22-06-2024 04:00:00,22.06631475,83.33820077,NO2,11,92,32
India,Chhattisgarh,Tumidih,"OP Jindal Industrial Park, Tumidih - CECB",22-06-2024 04:00:00,22.06631475,83.33820077,CO,15,100,17
India,Delhi,Delhi,"Alipur, Delhi - DPCC",22-06-2024 04:00:00,28.815329,77.153010,CO,31,85,61
India,Delhi,Delhi,"Alipur, Delhi - DPCC",22-06-2024 04:00:00,28.815329,77.153010,OZONE,5,124,14
India,Delhi,Delhi,"Ashok Vihar, Delhi - DPCC",22-06-2024 04:00:00,28.695381,77.181665,PM10,66,256,137
India,Delhi,Delhi,"Ashok Vihar, Delhi - DPCC",22-06-2024 04:00:00,28.695381,77.181665,NH3,3,9,7
India,Delhi,Delhi,"Bawana, Delhi - DPCC",22-06-2024 04:00:00,28.776200,77.051074,OZONE,3,108,15
India,Delhi,Delhi,"Chandni Chowk, Delhi - IITM",22-06-2024 04:00:00,28.656756,77.227234,SO2,16,59,33
India,Delhi,Delhi,"Dr. Karni Singh Shooting Range, Delhi - DPCC",22-06-2024 04:00:00,28.498571,77.264840,SO2,8,16,13
India,Delhi,Delhi,"Dwarka-Sector 8, Delhi - DPCC ",22-06-2024 04:00:00,28.5710274,77.0719006,NO2,7,88,41
India,Delhi,Delhi,"Dwarka-Sector 8, Delhi - DPCC ",22-06-2024 04:00:00,28.5710274,77.0719006,NH3,5,15,9
India,Delhi,Delhi,"Dwarka-Sector 8, Delhi - DPCC ",22-06-2024 04:00:00,28.5710274,77.0719006,CO,30,110,84
India,Delhi,Delhi,"IGI Airport (T3), Delhi - IMD",22-06-2024 04:00:00,28.5627763,77.1180053,PM10,80,203,137
India,Delhi,Delhi,"IHBAS, Dilshad Garden, Delhi - CPCB",22-06-2024 04:00:00,28.6811736,77.3025234,PM2.5,NA,NA,NA
India,Delhi,Delhi,"IHBAS, Dilshad Garden, Delhi - CPCB",22-06-2024 04:00:00,28.6811736,77.3025234,SO2,NA,NA,NA
India,Delhi,Delhi,"IHBAS, Dilshad Garden, Delhi - CPCB",22-06-2024 04:00:00,28.6811736,77.3025234,OZONE,NA,NA,NA
India,Delhi,Delhi,"Jahangirpuri, Delhi - DPCC",22-06-2024 04:00:00,28.732820,77.170633,SO2,26,44,33
India,Delhi,Delhi,"Lodhi Road, Delhi - IMD",22-06-2024 04:00:00,28.5918245,77.2273074,CO,30,48,40
India,Delhi,Delhi,"Major Dhyan Chand National Stadium, Delhi - DPCC",22-06-2024 04:00:00,28.611281,77.237738,NO2,16,117,60
India,Delhi,Delhi,"Mandir Marg, Delhi - DPCC",22-06-2024 04:00:00,28.636429,77.201067,NO2,59,94,78
India,Delhi,Delhi,"Mandir Marg, Delhi - DPCC",22-06-2024 04:00:00,28.636429,77.201067,SO2,6,26,13
India,Delhi,Delhi,"Mundka, Delhi - DPCC",22-06-2024 04:00:00,28.684678,77.076574,PM10,89,500,213
India,Delhi,Delhi,"Mundka, Delhi - DPCC",22-06-2024 04:00:00,28.684678,77.076574,OZONE,3,166,17
India,Delhi,Delhi,"Narela, Delhi - DPCC",22-06-2024 04:00:00,28.822836,77.101981,OZONE,68,177,91
India,Delhi,Delhi,"North Campus, DU, Delhi - IMD",22-06-2024 04:00:00,28.6573814,77.1585447,PM2.5,40,379,172
India,Delhi,Delhi,"Okhla Phase-2, Delhi - DPCC",22-06-2024 04:00:00,28.530785,77.271255,SO2,8,18,12
India,Delhi,Delhi,"Patparganj, Delhi - DPCC",22-06-2024 04:00:00,28.623763,77.287209,PM2.5,8,200,86
India,Delhi,Delhi,"Patparganj, Delhi - DPCC",22-06-2024 04:00:00,28.623763,77.287209,SO2,14,25,20
India,Delhi,Delhi,"Punjabi Bagh, Delhi - DPCC",22-06-2024 04:00:00,28.674045,77.131023,NO2,10,68,41
India,Delhi,Delhi,"Punjabi Bagh, Delhi - DPCC",22-06-2024 04:00:00,28.674045,77.131023,NH3,3,11,6
India,Delhi,Delhi,"Pusa, Delhi - DPCC",22-06-2024 04:00:00,28.639652,77.146275,SO2,5,21,10
India,Delhi,Delhi,"Pusa, Delhi - DPCC",22-06-2024 04:00:00,28.639652,77.146275,OZONE,8,67,39
India,Delhi,Delhi,"Pusa, Delhi - IMD",22-06-2024 04:00:00,28.636110,77.173332,PM10,31,250,131
India,Delhi,Delhi,"R K Puram, Delhi - DPCC",22-06-2024 04:00:00,28.563262,77.186937,NO2,23,133,66
India,Delhi,Delhi,"Shadipur, Delhi - CPCB",22-06-2024 04:00:00,28.6514781,77.1473105,NH3,8,13,10
India,Delhi,Delhi,"Sonia Vihar, Delhi - DPCC",22-06-2024 04:00:00,28.710508,77.249485,PM10,53,334,153
India,Delhi,Delhi,"Sonia Vihar, Delhi - DPCC",22-06-2024 04:00:00,28.710508,77.249485,SO2,4,16,8
India,Delhi,Delhi,"Sonia Vihar, Delhi - DPCC",22-06-2024 04:00:00,28.710508,77.249485,OZONE,12,139,39
India,Delhi,Delhi,"Sri Aurobindo Marg, Delhi - DPCC",22-06-2024 04:00:00,28.531346,77.190156,SO2,10,15,13
India,Delhi,Delhi,"Vivek Vihar, Delhi - DPCC",22-06-2024 04:00:00,28.672342,77.315260,PM2.5,72,252,131
India,Delhi,Delhi,"Vivek Vihar, Delhi - DPCC",22-06-2024 04:00:00,28.672342,77.315260,PM10,100,403,178
India,Delhi,Delhi,"Vivek Vihar, Delhi - DPCC",22-06-2024 04:00:00,28.672342,77.315260,NO2,23,79,45
India,Delhi,Delhi,"Vivek Vihar, Delhi - DPCC",22-06-2024 04:00:00,28.672342,77.315260,NH3,17,18,17
India,Delhi,Delhi,"Wazirpur, Delhi - DPCC",22-06-2024 04:00:00,28.699793,77.165453,PM10,59,356,177
India,Delhi,Delhi,"Wazirpur, Delhi - DPCC",22-06-2024 04:00:00,28.699793,77.165453,NH3,3,9,6
India,Gujarat,Ahmedabad,"Gyaspur, Ahmedabad - IITM",22-06-2024 04:00:00,22.977134,72.553024,NO2,32,54,43
India,Gujarat,Ahmedabad,"Gyaspur, Ahmedabad - IITM",22-06-2024 04:00:00,22.977134,72.553024,NH3,4,6,5
India,Gujarat,Ahmedabad,"Gyaspur, Ahmedabad - IITM",22-06-2024 04:00:00,22.977134,72.553024,SO2,15,18,17
India,Gujarat,Ahmedabad,"Gyaspur, Ahmedabad - IITM",22-06-2024 04:00:00,22.977134,72.553024,CO,38,46,45
India,Gujarat,Ahmedabad,"Maninagar, Ahmedabad - GPCB",22-06-2024 04:00:00,23.002657,72.591912,NO2,36,65,50
India,Gujarat,Ahmedabad,"Raikhad, Ahmedabad - IITM",22-06-2024 04:00:00,23.020509,72.579261,PM10,20,182,76
India,Gujarat,Ahmedabad,"Raikhad, Ahmedabad - IITM",22-06-2024 04:00:00,23.020509,72.579261,NH3,7,7,7
India,Gujarat,Ahmedabad,"Rakhial, Ahmedabad - IITM",22-06-2024 04:00:00,23.016834,72.625775,NO2,36,297,86
India,Gujarat,Ahmedabad,"Rakhial, Ahmedabad - IITM",22-06-2024 04:00:00,23.016834,72.625775,OZONE,10,70,23
India,Gujarat,Ahmedabad,"Sardar Vallabhbhai Patel Stadium, Ahmedabad - IITM",22-06-2024 04:00:00,23.043070,72.562968,PM2.5,36,304,96
India,Gujarat,Ahmedabad,"Sardar Vallabhbhai Patel Stadium, Ahmedabad - IITM",22-06-2024 04:00:00,23.043070,72.562968,PM10,40,222,97
India,Gujarat,Ahmedabad,"Sardar Vallabhbhai Patel Stadium, Ahmedabad - IITM",22-06-2024 04:00:00,23.043070,72.562968,NH3,4,10,8
India,Gujarat,Gandhinagar,"GIFT City, Gandhinagar - IITM",22-06-2024 04:00:00,23.163798,72.677768,NO2,23,34,29
India,Gujarat,Gandhinagar,"Sector-10, Gandhinagar - GPCB",22-06-2024 04:00:00,23.221714,72.654328,SO2,5,7,6
India,Gujarat,Surat,"Science Center, Surat - SMC",22-06-2024 04:00:00,21.170046,72.795405,NO2,16,33,21
India,Gujarat,Vapi,"Phase-1 GIDC, Vapi - GPCB",22-06-2024 04:00:00,20.362421,72.918013,NO2,6,7,7
India,Gujarat,Vatva,"Phase-4 GIDC, Vatva - GPCB",22-06-2024 04:00:00,22.969611,72.643500,PM2.5,20,41,31
India,Haryana,Ambala,"Patti Mehar, Ambala - HSPCB",22-06-2024 04:00:00,30.379589,76.778328,PM2.5,50,70,59
India,Haryana,Ambala,"Patti Mehar, Ambala - HSPCB",22-06-2024 04:00:00,30.379589,76.778328,NO2,8,21,14
India,Haryana,Ambala,"Patti Mehar, Ambala - HSPCB",22-06-2024 04:00:00,30.379589,76.778328,CO,30,59,38
India,Haryana,Bahadurgarh,"Arya Nagar, Bahadurgarh - HSPCB",22-06-2024 04:00:00,28.6701,76.9254,PM2.5,33,312,118
India,Haryana,Bahadurgarh,"Arya Nagar, Bahadurgarh - HSPCB",22-06-2024 04:00:00,28.6701,76.9254,PM10,33,285,129
India,Haryana,Bahadurgarh,"Arya Nagar, Bahadurgarh - HSPCB",22-06-2024 04:00:00,28.6701,76.9254,SO2,NA,NA,NA
India,Haryana,Ballabgarh,"Nathu Colony, Ballabgarh - HSPCB",22-06-2024 04:00:00,28.3419248,77.319699,PM10,50,186,140
India,Haryana,Bhiwani,"H.B. Colony, Bhiwani - HSPCB",22-06-2024 04:00:00,28.806223,76.141105,SO2,4,15,9
India,Haryana,Bhiwani,"H.B. Colony, Bhiwani - HSPCB",22-06-2024 04:00:00,28.806223,76.141105,CO,25,74,58
India,Haryana,Dharuhera,"Municipal Corporation Office, Dharuhera -  HSPCB",22-06-2024 04:00:00,28.206800,76.799700,PM10,91,135,112
India,Haryana,Dharuhera,"Municipal Corporation Office, Dharuhera -  HSPCB",22-06-2024 04:00:00,28.206800,76.799700,NO2,46,111,77
India,Haryana,Dharuhera,"Municipal Corporation Office, Dharuhera -  HSPCB",22-06-2024 04:00:00,28.206800,76.799700,SO2,6,15,10
India,Haryana,Dharuhera,"Municipal Corporation Office, Dharuhera -  HSPCB",22-06-2024 04:00:00,28.206800,76.799700,OZONE,40,155,91
India,Haryana,Faridabad,"New Industrial Town, Faridabad - HSPCB",22-06-2024 04:00:00,28.39072,77.30059,PM10,61,265,125
India,Haryana,Faridabad,"Sector 11, Faridabad - HSPCB",22-06-2024 04:00:00,28.376058,77.315741,PM2.5,121,307,209
India,Haryana,Faridabad,"Sector 11, Faridabad - HSPCB",22-06-2024 04:00:00,28.376058,77.315741,PM10,99,184,120
India,Haryana,Faridabad,"Sector- 16A, Faridabad - HSPCB",22-06-2024 04:00:00,28.4088421,77.3099081,PM2.5,55,267,114
India,Haryana,Faridabad,"Sector- 16A, Faridabad - HSPCB",22-06-2024 04:00:00,28.4088421,77.3099081,NO2,36,66,53
India,Haryana,Faridabad,"Sector- 16A, Faridabad - HSPCB",22-06-2024 04:00:00,28.4088421,77.3099081,CO,40,69,58
India,Haryana,Fatehabad,"Huda Sector, Fatehabad - HSPCB",22-06-2024 04:00:00,29.503664,75.467934,PM2.5,21,86,38
India,Haryana,Fatehabad,"Huda Sector, Fatehabad - HSPCB",22-06-2024 04:00:00,29.503664,75.467934,CO,44,46,45
India,Haryana,Gurugram,"NISE Gwal Pahari, Gurugram - IMD",22-06-2024 04:00:00,28.422681,77.148944,PM2.5,33,179,88
India,Haryana,Gurugram,"Sector-51, Gurugram - HSPCB",22-06-2024 04:00:00,28.4227,77.0667,NH3,7,14,9
India,Haryana,Gurugram,"Sector-51, Gurugram - HSPCB",22-06-2024 04:00:00,28.4227,77.0667,CO,30,57,46
India,Haryana,Gurugram,"Sector-51, Gurugram - HSPCB",22-06-2024 04:00:00,28.4227,77.0667,OZONE,29,69,31
India,Haryana,Gurugram,"Vikas Sadan, Gurugram - HSPCB",22-06-2024 04:00:00,28.4501238,77.0263051,PM2.5,67,415,200
India,Haryana,Hisar,"Urban Estate-II, Hisar - HSPCB",22-06-2024 04:00:00,29.140560,75.744941,PM10,62,84,71
India,Haryana,Hisar,"Urban Estate-II, Hisar - HSPCB",22-06-2024 04:00:00,29.140560,75.744941,NH3,4,6,4
India,Haryana,Hisar,"Urban Estate-II, Hisar - HSPCB",22-06-2024 04:00:00,29.140560,75.744941,SO2,1,55,14
India,Haryana,Jind,"Police Lines, Jind - HSPCB",22-06-2024 04:00:00,29.307814,76.337619,PM2.5,42,130,65
India,Haryana,Kurukshetra,"Sector-7, Kurukshetra - HSPCB",22-06-2024 04:00:00,29.966942,76.875879,PM10,75,121,103
India,Haryana,Kurukshetra,"Sector-7, Kurukshetra - HSPCB",22-06-2024 04:00:00,29.966942,76.875879,SO2,2,3,3
India,Haryana,Kurukshetra,"Sector-7, Kurukshetra - HSPCB",22-06-2024 04:00:00,29.966942,76.875879,OZONE,61,91,73
India,Haryana,Manesar,"Sector-2 IMT, Manesar - HSPCB",22-06-2024 04:00:00,28.360699,76.936090,NO2,15,23,19
India,Haryana,Rohtak,"MD University, Rohtak - HSPCB",22-06-2024 04:00:00,28.52123,76.37138,NO2,48,57,52
India,Haryana,Sirsa,"F-Block, Sirsa - HSPCB",22-06-2024 04:00:00,29.536400,75.015800,PM2.5,17,163,58
India,Haryana,Sonipat,"Murthal, Sonipat - HSPCB",22-06-2024 04:00:00,29.027200,77.062100,PM2.5,22,135,71
India,Haryana,Yamuna Nagar,"Gobind Pura, Yamuna Nagar - HSPCB",22-06-2024 04:00:00,30.1480566,77.2893471,NO2,NA,NA,NA
India,Haryana,Yamuna Nagar,"Gobind Pura, Yamuna Nagar - HSPCB",22-06-2024 04:00:00,30.1480566,77.2893471,OZONE,NA,NA,NA
India,Himachal Pradesh,Baddi,"HIMUDA Complex Phase-1, Baddi - HPPCB",22-06-2024 04:00:00,30.943887,76.801991,OZONE,34,217,83
India,Jammu_and_Kashmir,Srinagar,"Rajbagh, Srinagar - JKSPCB",22-06-2024 04:00:00,34.066206,74.819820,OZONE,NA,NA,NA
India,Karnataka,Bagalkot,"Vidayagiri, Bagalkot - KSPCB",22-06-2024 04:00:00,16.172806,75.659694,NH3,1,2,1
India,Karnataka,Belgaum,"Ramteerth Nagar, Belgaum - KSPCB",22-06-2024 04:00:00,15.888653,74.541751,OZONE,19,20,20
India,Karnataka,Bengaluru,"Bapuji Nagar, Bengaluru - KSPCB",22-06-2024 04:00:00,12.951913,77.539784,SO2,5,7,6
India,Karnataka,Bengaluru,"Bapuji Nagar, Bengaluru - KSPCB",22-06-2024 04:00:00,12.951913,77.539784,OZONE,27,46,30
India,Karnataka,Bengaluru,"Hombegowda Nagar, Bengaluru - KSPCB",22-06-2024 04:00:00,12.938539,77.590100,PM2.5,16,28,21
India,Karnataka,Bengaluru,"Hombegowda Nagar, Bengaluru - KSPCB",22-06-2024 04:00:00,12.938539,77.590100,PM10,24,42,32
India,Karnataka,Bengaluru,"Jayanagar 5th Block, Bengaluru - KSPCB",22-06-2024 04:00:00,12.920984,77.584908,PM2.5,20,43,32
India,Karnataka,Bengaluru,"Jayanagar 5th Block, Bengaluru - KSPCB",22-06-2024 04:00:00,12.920984,77.584908,NO2,8,9,8
India,Karnataka,Bengaluru,"Jayanagar 5th Block, Bengaluru - KSPCB",22-06-2024 04:00:00,12.920984,77.584908,OZONE,14,18,15
India,Karnataka,Bengaluru,"Jigani, Bengaluru - KSPCB",22-06-2024 04:00:00,12.7816279,77.6299145,OZONE,NA,NA,NA
India,Karnataka,Bengaluru,"Kasturi Nagar, Bengaluru - KSPCB",22-06-2024 04:00:00,13.003872,77.664217,NO2,16,17,17
India,Karnataka,Bengaluru,"Kasturi Nagar, Bengaluru - KSPCB",22-06-2024 04:00:00,13.003872,77.664217,OZONE,39,39,39
India,Karnataka,Bengaluru,"Peenya, Bengaluru - CPCB",22-06-2024 04:00:00,13.0270199,77.494094,PM10,45,63,54
India,Karnataka,Bengaluru,"RVCE-Mailasandra, Bengaluru - KSPCB",22-06-2024 04:00:00,12.921418,77.502466,PM2.5,8,73,41
India,Karnataka,Bengaluru,"Shivapura_Peenya, Bengaluru - KSPCB",22-06-2024 04:00:00,13.0246342,77.5080115,PM2.5,37,69,50
India,Karnataka,Bengaluru,"Silk Board, Bengaluru - KSPCB",22-06-2024 04:00:00,12.917348,77.622813,NO2,11,42,23
India,Karnataka,Chamarajanagar,"Urban, Chamarajanagar - KSPCB",22-06-2024 04:00:00,11.55358,76.55521,NO2,22,36,28
India,Karnataka,Chamarajanagar,"Urban, Chamarajanagar - KSPCB",22-06-2024 04:00:00,11.55358,76.55521,CO,22,120,33
India,Karnataka,Chikkaballapur,"Chikkaballapur Rural, Chikkaballapur - KSPCB",22-06-2024 04:00:00,13.428828,77.731418,PM10,20,67,36
India,Karnataka,Chikkaballapur,"Chikkaballapur Rural, Chikkaballapur - KSPCB",22-06-2024 04:00:00,13.428828,77.731418,NO2,5,9,6
India,Karnataka,Davanagere,"Devaraj Urs Badavane, Davanagere - KSPCB",22-06-2024 04:00:00,14.475800,75.905200,PM2.5,15,48,28
India,Karnataka,Davanagere,"Devaraj Urs Badavane, Davanagere - KSPCB",22-06-2024 04:00:00,14.475800,75.905200,OZONE,21,25,22
India,Karnataka,Dharwad,"Kalabhavan, Dharwad - KSPCB",22-06-2024 04:00:00,15.459706,75.008381,PM10,33,68,53
India,Karnataka,Dharwad,"Kalabhavan, Dharwad - KSPCB",22-06-2024 04:00:00,15.459706,75.008381,NO2,1,13,7
India,Karnataka,Dharwad,"Kalabhavan, Dharwad - KSPCB",22-06-2024 04:00:00,15.459706,75.008381,CO,11,62,29
India,Karnataka,Dharwad,"Kalabhavan, Dharwad - KSPCB",22-06-2024 04:00:00,15.459706,75.008381,OZONE,24,30,25
India,Karnataka,Gadag,"Panchal Nagar, Gadag - KSPCB",22-06-2024 04:00:00,15.411456,75.638133,PM2.5,5,18,12
India,Karnataka,Gadag,"Panchal Nagar, Gadag - KSPCB",22-06-2024 04:00:00,15.411456,75.638133,SO2,2,16,12
India,Karnataka,Gadag,"Panchal Nagar, Gadag - KSPCB",22-06-2024 04:00:00,15.411456,75.638133,CO,46,51,48
India,Karnataka,Hassan,"B.Katihalli, Hassan - KSPCB",22-06-2024 04:00:00,13.008556,76.125258,CO,2,20,17
India,Karnataka,Haveri,"Ashwini Nagar, Haveri - KSPCB",22-06-2024 04:00:00,14.791800,75.389600,NO2,NA,NA,NA
India,Karnataka,Haveri,"Ashwini Nagar, Haveri - KSPCB",22-06-2024 04:00:00,14.791800,75.389600,CO,36,37,36
India,Karnataka,Hubballi,"Lingaraj Nagar, Hubballi - KSPCB",22-06-2024 04:00:00,15.3714823,75.1160168,PM10,42,66,54
India,Karnataka,Hubballi,"Lingaraj Nagar, Hubballi - KSPCB",22-06-2024 04:00:00,15.3714823,75.1160168,SO2,1,15,3
India,Karnataka,Kalaburagi,"Mahatma Basaveswar Colony, Kalaburgi - KSPCB",22-06-2024 04:00:00,17.336318,76.847397,PM2.5,6,34,15
India,Karnataka,Karwar,"KHB Colony, Karwar - KSPCB",22-06-2024 04:00:00,14.816666,74.141003,PM10,12,34,23
India,Karnataka,Karwar,"KHB Colony, Karwar - KSPCB",22-06-2024 04:00:00,14.816666,74.141003,NO2,NA,NA,NA
India,Karnataka,Koppal,"Diwator Nagar, Koppal - KSPCB",22-06-2024 04:00:00,15.347630,76.181767,CO,NA,NA,NA
India,Karnataka,Koppal,"Diwator Nagar, Koppal - KSPCB",22-06-2024 04:00:00,15.347630,76.181767,OZONE,NA,NA,NA
India,Karnataka,Madikeri,"Stuart Hill, Madikeri - KSPCB",22-06-2024 04:00:00,12.415911,75.735050,SO2,4,4,4
India,Karnataka,Madikeri,"Stuart Hill, Madikeri - KSPCB",22-06-2024 04:00:00,12.415911,75.735050,CO,4,26,11
India,Karnataka,Mangalore,"Kadri, Mangalore - KSPCB",22-06-2024 04:00:00,12.889250,74.853000,NH3,2,2,2
India,Karnataka,Mangalore,"Kadri, Mangalore - KSPCB",22-06-2024 04:00:00,12.889250,74.853000,OZONE,31,32,32
India,Karnataka,Mysuru,"Hebbal 1st Stage, Mysuru - KSPCB",22-06-2024 04:00:00,12.21041,76.37376,NH3,1,3,2
India,Karnataka,Raichur,"Haji Colony, Raichur - KSPCB",22-06-2024 04:00:00,16.208139,77.348417,CO,92,103,100
India,Karnataka,Ramanagara,"Vijay Nagar, Ramanagara - KSPCB",22-06-2024 04:00:00,12.733409,77.298051,NH3,1,3,2
India,Karnataka,Ramanagara,"Vijay Nagar, Ramanagara - KSPCB",22-06-2024 04:00:00,12.733409,77.298051,OZONE,26,38,29
India,Karnataka,Shivamogga,"Vinoba Nagara, Shivamogga - KSPCB",22-06-2024 04:00:00,13.940000,75.555917,SO2,2,9,5
India,Karnataka,Shivamogga,"Vinoba Nagara, Shivamogga - KSPCB",22-06-2024 04:00:00,13.940000,75.555917,CO,14,43,24
India,Karnataka,Udupi,"Brahmagiri, Udupi - KSPCB",22-06-2024 04:00:00,13.34194444,74.74694444,NO2,26,28,27
India,Karnataka,Yadgir,"Collector Office, Yadgir - KSPCB",22-06-2024 04:00:00,16.7602,77.1428,PM2.5,14,29,19
India,Kerala,Eloor,"Udyogamandal, Eloor - Kerala PCB",22-06-2024 04:00:00,10.073232,76.302765,NO2,5,6,5
India,Kerala,Eloor,"Udyogamandal, Eloor - Kerala PCB",22-06-2024 04:00:00,10.073232,76.302765,OZONE,10,11,10
India,Kerala,Kannur,"Thavakkara, Kannur - Kerala PCB",22-06-2024 04:00:00,11.875000,75.373200,NO2,5,5,5
India,Kerala,Kollam,"Polayathode, Kollam - Kerala PCB",22-06-2024 04:00:00,8.8787,76.6073,PM2.5,22,68,44
India,Kerala,Kollam,"Polayathode, Kollam - Kerala PCB",22-06-2024 04:00:00,8.8787,76.6073,PM10,35,63,49
India,Kerala,Kollam,"Polayathode, Kollam - Kerala PCB",22-06-2024 04:00:00,8.8787,76.6073,NO2,8,9,8
India,Kerala,Thiruvananthapuram,"Kariavattom, Thiruvananthapuram - Kerala PCB",22-06-2024 04:00:00,8.563700,76.886500,PM2.5,31,36,33
India,Kerala,Thiruvananthapuram,"Kariavattom, Thiruvananthapuram - Kerala PCB",22-06-2024 04:00:00,8.563700,76.886500,CO,16,54,28
India,Kerala,Thrissur,"Corporation Ground, Thrissur - Kerala PCB",22-06-2024 04:00:00,10.532400,76.215900,NO2,7,8,7
India,Madhya Pradesh,Bhopal,"Idgah Hills, Bhopal - MPPCB",22-06-2024 04:00:00,23.264759,77.381568,PM10,NA,NA,NA
India,Madhya Pradesh,Bhopal,"Idgah Hills, Bhopal - MPPCB",22-06-2024 04:00:00,23.264759,77.381568,NH3,2,4,3
India,Madhya Pradesh,Bhopal,"Paryavaran Parisar, Bhopal - MPPCB",22-06-2024 04:00:00,23.210494,77.425409,PM2.5,2,20,9
India,Madhya Pradesh,Bhopal,"Paryavaran Parisar, Bhopal - MPPCB",22-06-2024 04:00:00,23.210494,77.425409,PM10,3,68,21
India,Madhya Pradesh,Bhopal,"Paryavaran Parisar, Bhopal - MPPCB",22-06-2024 04:00:00,23.210494,77.425409,OZONE,7,65,13
India,Madhya Pradesh,Bhopal,"T T Nagar, Bhopal - MPPCB",22-06-2024 04:00:00,23.233584,77.400574,PM2.5,2,35,13
India,Madhya Pradesh,Bhopal,"T T Nagar, Bhopal - MPPCB",22-06-2024 04:00:00,23.233584,77.400574,NO2,17,43,28
India,Madhya Pradesh,Bhopal,"T T Nagar, Bhopal - MPPCB",22-06-2024 04:00:00,23.233584,77.400574,OZONE,2,29,3
India,Madhya Pradesh,Damoh,"Shrivastav Colony, Damoh - MPPCB",22-06-2024 04:00:00,23.81748678,79.446246,PM10,1,35,12
India,Madhya Pradesh,Dewas,"Bhopal Chauraha, Dewas - MPPCB",22-06-2024 04:00:00,22.9682591,76.064118,NO2,12,15,14
India,Madhya Pradesh,Dewas,"Bhopal Chauraha, Dewas - MPPCB",22-06-2024 04:00:00,22.9682591,76.064118,OZONE,7,25,19
India,Madhya Pradesh,Gwalior,"City Center, Gwalior - MPPCB",22-06-2024 04:00:00,26.203442,78.193251,NH3,2,3,3
India,Madhya Pradesh,Gwalior,"Deen Dayal Nagar, Gwalior - MPPCB",22-06-2024 04:00:00,26.259242,78.216432,NH3,4,15,9
India,Madhya Pradesh,Gwalior,"Deen Dayal Nagar, Gwalior - MPPCB",22-06-2024 04:00:00,26.259242,78.216432,SO2,11,22,15
India,Madhya Pradesh,Gwalior,"Maharaj Bada, Gwalior - MPPCB",22-06-2024 04:00:00,26.200388,78.147714,PM2.5,5,27,18
India,Madhya Pradesh,Indore,"Chhoti Gwaltoli, Indore - MPPCB",22-06-2024 04:00:00,22.4310,75.5213,PM2.5,18,58,37
India,Madhya Pradesh,Indore,"Maguda Nagar, Indore - IMC",22-06-2024 04:00:00,22.7524,75.8872,CO,12,31,29
India,Madhya Pradesh,Indore,"Maguda Nagar, Indore - IMC",22-06-2024 04:00:00,22.7524,75.8872,OZONE,1,4,2
