country,state,city,station,last_update,latitude,longitude,pollutant_id,pollutant_min,pollutant_max,pollutant_avg
India,Andhra_Pradesh,Amaravati,"Secretariat, Amaravati - APPCB",06-05-2024 14:00:00,16.5150833,80.5181667,NH3,3,4,4
India,Andhra_Pradesh,Amaravati,"Secretariat, Amaravati - APPCB",06-05-2024 14:00:00,16.5150833,80.5181667,OZONE,20,64,37
India,Andhra_Pradesh,Anantapur,"Gulzarpet, Anantapur - APPCB",06-05-2024 14:00:00,14.675886,77.593027,SO2,9,17,12
India,Andhra_Pradesh,Chittoor,"Gangineni Cheruvu, Chittoor - APPCB",06-05-2024 14:00:00,13.204880,79.097889,PM10,NA,NA,NA
India,Andhra_Pradesh,Chittoor,"Gangineni Cheruvu, Chittoor - APPCB",06-05-2024 14:00:00,13.204880,79.097889,NH3,NA,NA,NA
India,Andhra_Pradesh,Chittoor,"Gangineni Cheruvu, Chittoor - APPCB",06-05-2024 14:00:00,13.204880,79.097889,SO2,NA,NA,NA
India,Andhra_Pradesh,Chittoor,"Gangineni Cheruvu, Chittoor - APPCB",06-05-2024 14:00:00,13.204880,79.097889,CO,18,28,28
India,Andhra_Pradesh,Rajamahendravaram,"Anand Kala Kshetram, Rajamahendravaram - APPCB",06-05-2024 14:00:00,16.9872867,81.7363176,PM10,17,59,35
India,Andhra_Pradesh,Rajamahendravaram,"Anand Kala Kshetram, Rajamahendravaram - APPCB",06-05-2024 14:00:00,16.9872867,81.7363176,CO,5,32,24
India,Andhra_Pradesh,Tirupati,"Tirumala, Tirupati - APPCB",06-05-2024 14:00:00,13.67,79.35,PM2.5,30,68,50
India,Andhra_Pradesh,Tirupati,"Vaikuntapuram, Tirupati - APPCB",06-05-2024 14:00:00,13.615387,79.409230,PM2.5,15,129,47
India,Andhra_Pradesh,Visakhapatnam,"GVM Corporation, Visakhapatnam - APPCB",06-05-2024 14:00:00,17.72,83.3,SO2,9,15,12
India,Arunachal_Pradesh,Naharlagun,"Naharlagun, Naharlagun - APSPCB",06-05-2024 14:00:00,27.103358,93.679645,PM10,18,82,51
India,Arunachal_Pradesh,Naharlagun,"Naharlagun, Naharlagun - APSPCB",06-05-2024 14:00:00,27.103358,93.679645,NO2,3,3,3
India,Arunachal_Pradesh,Naharlagun,"Naharlagun, Naharlagun - APSPCB",06-05-2024 14:00:00,27.103358,93.679645,SO2,4,4,4
India,Arunachal_Pradesh,Naharlagun,"Naharlagun, Naharlagun - APSPCB",06-05-2024 14:00:00,27.103358,93.679645,OZONE,2,2,2
India,Assam,Byrnihat,"Central Academy for SFS, Byrnihat - PCBA",06-05-2024 14:00:00,26.071318,91.87488,NO2,28,78,39
India,Assam,Byrnihat,"Central Academy for SFS, Byrnihat - PCBA",06-05-2024 14:00:00,26.071318,91.87488,NH3,12,15,12
India,Assam,Byrnihat,"Central Academy for SFS, Byrnihat - PCBA",06-05-2024 14:00:00,26.071318,91.87488,OZONE,21,29,24
India,Assam,Guwahati,"IITG, Guwahati - PCBA",06-05-2024 14:00:00,26.2028636,91.70046436,PM10,41,61,49
India,Assam,Guwahati,"IITG, Guwahati - PCBA",06-05-2024 14:00:00,26.2028636,91.70046436,NO2,NA,NA,NA
India,Assam,Guwahati,"IITG, Guwahati - PCBA",06-05-2024 14:00:00,26.2028636,91.70046436,OZONE,15,43,20
India,Assam,Guwahati,"Railway Colony, Guwahati - PCBA",06-05-2024 14:00:00,26.181742,91.78063,PM10,32,58,42
India,Assam,Nagaon,"Christianpatty, Nagaon - PCBA",06-05-2024 14:00:00,26.349082,92.68449,NO2,1,26,6
India,Assam,Nagaon,"Christianpatty, Nagaon - PCBA",06-05-2024 14:00:00,26.349082,92.68449,OZONE,28,107,52
India,Assam,Nalbari,"Bata Chowk, Nalbari - PCBA",06-05-2024 14:00:00,26.446912,91.439057,OZONE,15,131,33
India,Assam,Silchar,"Tarapur, Silchar - PCBA",06-05-2024 14:00:00,24.82827,92.79525,CO,28,32,30
India,Bihar,Araria,"Kharahiya Basti, Araria - BSPCB",06-05-2024 14:00:00,26.146529,87.454184,PM2.5,NA,NA,NA
India,Bihar,Arrah,"New DM Office, Arrah - BSPCB",06-05-2024 14:00:00,25.5626095,84.663264,PM2.5,30,303,71
India,Bihar,Arrah,"New DM Office, Arrah - BSPCB",06-05-2024 14:00:00,25.5626095,84.663264,PM10,58,157,99
India,Bihar,Aurangabad,"Gurdeo Nagar, Aurangabad - BSPCB",06-05-2024 14:00:00,24.75746,84.366208,NH3,3,45,22
India,Bihar,Aurangabad,"Gurdeo Nagar, Aurangabad - BSPCB",06-05-2024 14:00:00,24.75746,84.366208,SO2,NA,NA,NA
India,Bihar,Bettiah,"Kamalnath Nagar, Bettiah - BSPCB",06-05-2024 14:00:00,26.80365,84.51954,NH3,3,9,6
India,Bihar,Bhagalpur,"DM Office_Kachari Chowk, Bhagalpur - BSPCB",06-05-2024 14:00:00,25.251013,86.989001,SO2,14,17,16
India,Bihar,Bhagalpur,"DM Office_Kachari Chowk, Bhagalpur - BSPCB",06-05-2024 14:00:00,25.251013,86.989001,CO,26,58,26
India,Bihar,Bhagalpur,"Mayaganj, Bhagalpur - BSPCB",06-05-2024 14:00:00,25.265194,87.012947,NH3,7,9,8
India,Bihar,Bhagalpur,"Mayaganj, Bhagalpur - BSPCB",06-05-2024 14:00:00,25.265194,87.012947,SO2,11,12,12
India,Bihar,Bihar Sharif,"D M Colony, Bihar Sharif - BSPCB",06-05-2024 14:00:00,25.204762,85.514960,SO2,1,16,11
India,Bihar,Chhapra,"Darshan Nagar, Chhapra - BSPCB",06-05-2024 14:00:00,25.7808257,84.7446768,NH3,7,20,12
India,Bihar,Gaya,"Collectorate, Gaya - BSPCB",06-05-2024 14:00:00,24.7955,84.9994,NO2,1,4,2
India,Bihar,Gaya,"Collectorate, Gaya - BSPCB",06-05-2024 14:00:00,24.7955,84.9994,CO,6,112,31
India,Bihar,Gaya,"Kareemganj, Gaya - BSPCB",06-05-2024 14:00:00,24.792403,84.992416,NH3,2,5,4
India,Bihar,Gaya,"Kareemganj, Gaya - BSPCB",06-05-2024 14:00:00,24.792403,84.992416,SO2,3,12,8
India,Bihar,Gaya,"SFTI Kusdihra, Gaya - BSPCB",06-05-2024 14:00:00,24.762518,84.982348,PM10,77,124,93
India,Bihar,Hajipur,"Industrial Area, Hajipur - BSPCB",06-05-2024 14:00:00,25.697189,85.245900,SO2,6,7,6
India,Bihar,Hajipur,"Industrial Area, Hajipur - BSPCB",06-05-2024 14:00:00,25.697189,85.245900,CO,24,48,28
India,Bihar,Katihar,"Mirchaibari, Katihar - BSPCB",06-05-2024 14:00:00,25.560083,87.553265,NO2,NA,NA,NA
India,Bihar,Katihar,"Mirchaibari, Katihar - BSPCB",06-05-2024 14:00:00,25.560083,87.553265,SO2,NA,NA,NA
India,Bihar,Kishanganj,"SDM Office_Khagra, Kishanganj - BSPCB",06-05-2024 14:00:00,26.0881305,87.93840336,NH3,9,10,9
India,Bihar,Manguraha,"Forest Rest House, Manguraha - BSPCB",06-05-2024 14:00:00,27.308328,84.531742,PM2.5,NA,NA,NA
India,Bihar,Manguraha,"Forest Rest House, Manguraha - BSPCB",06-05-2024 14:00:00,27.308328,84.531742,SO2,NA,NA,NA
India,Bihar,Motihari,"Gandak Colony, Motihari - BSPCB",06-05-2024 14:00:00,26.63086,84.90051,NO2,NA,NA,NA
India,Bihar,Motihari,"Gandak Colony, Motihari - BSPCB",06-05-2024 14:00:00,26.63086,84.90051,NH3,NA,NA,NA
India,Bihar,Motihari,"Gandak Colony, Motihari - BSPCB",06-05-2024 14:00:00,26.63086,84.90051,OZONE,31,53,40
India,Bihar,Munger,"Town Hall, Munger - BSPCB",06-05-2024 14:00:00,25.376776,86.471523,SO2,10,31,20
India,Bihar,Muzaffarpur,"Buddha Colony, Muzaffarpur - BSPCB",06-05-2024 14:00:00,26.11442,85.39813,PM10,104,191,148
India,Bihar,Muzaffarpur,"Buddha Colony, Muzaffarpur - BSPCB",06-05-2024 14:00:00,26.11442,85.39813,OZONE,26,55,32
India,Bihar,Muzaffarpur,"Muzaffarpur Collectorate, Muzaffarpur - BSPCB",06-05-2024 14:00:00,26.1209,85.3647,NO2,33,38,33
India,Bihar,Muzaffarpur,"Muzaffarpur Collectorate, Muzaffarpur - BSPCB",06-05-2024 14:00:00,26.1209,85.3647,SO2,5,10,8
India,Bihar,Muzaffarpur,"Muzaffarpur Collectorate, Muzaffarpur - BSPCB",06-05-2024 14:00:00,26.1209,85.3647,CO,18,49,42
India,Bihar,Patna,"Govt. High School Shikarpur, Patna - BSPCB",06-05-2024 14:00:00,25.592539,85.227158,PM2.5,90,313,195
India,Bihar,Patna,"Govt. High School Shikarpur, Patna - BSPCB",06-05-2024 14:00:00,25.592539,85.227158,PM10,123,198,158
India,Bihar,Patna,"Govt. High School Shikarpur, Patna - BSPCB",06-05-2024 14:00:00,25.592539,85.227158,NH3,5,5,5
India,Bihar,Patna,"Govt. High School Shikarpur, Patna - BSPCB",06-05-2024 14:00:00,25.592539,85.227158,CO,36,68,42
India,Bihar,Patna,"IGSC Planetarium Complex, Patna - BSPCB",06-05-2024 14:00:00,25.610369,85.132568,CO,12,17,14
India,Bihar,Patna,"Muradpur, Patna - BSPCB",06-05-2024 14:00:00,25.619651,85.147382,SO2,6,14,9
India,Bihar,Patna,"Muradpur, Patna - BSPCB",06-05-2024 14:00:00,25.619651,85.147382,OZONE,6,92,16
India,Bihar,Purnia,"Mariam Nagar, Purnia - BSPCB",06-05-2024 14:00:00,25.366336,87.117468,NO2,5,6,6
India,Bihar,Purnia,"Mariam Nagar, Purnia - BSPCB",06-05-2024 14:00:00,25.366336,87.117468,SO2,5,11,9
India,Bihar,Rajgir,"Dangi Tola, Rajgir - BSPCB",06-05-2024 14:00:00,25.03280,85.41948,PM10,45,151,81
India,Bihar,Sasaram,"Dada Peer, Sasaram - BSPCB",06-05-2024 14:00:00,24.952822,84.002396,SO2,21,23,22
India,Bihar,Siwan,"Chitragupta Nagar, Siwan - BSPCB",06-05-2024 14:00:00,26.2271665,84.3570427,PM10,105,197,139
India,Bihar,Siwan,"Chitragupta Nagar, Siwan - BSPCB",06-05-2024 14:00:00,26.2271665,84.3570427,NH3,1,4,2
India,Chandigarh,Chandigarh,"Sector 22, Chandigarh - CPCC",06-05-2024 14:00:00,30.735567,76.775714,OZONE,40,150,79
India,Chandigarh,Chandigarh,"Sector-25, Chandigarh - CPCC",06-05-2024 14:00:00,30.751462,76.762879,OZONE,7,39,24
India,Chandigarh,Chandigarh,"Sector-53, Chandigarh - CPCC",06-05-2024 14:00:00,30.719859,76.738637,SO2,11,26,18
India,Chhattisgarh,Bhilai,"32Bungalows, Bhilai - CECB",06-05-2024 14:00:00,21.194815,81.314770,PM2.5,56,89,72
India,Chhattisgarh,Bhilai,"32Bungalows, Bhilai - CECB",06-05-2024 14:00:00,21.194815,81.314770,NO2,17,29,23
India,Chhattisgarh,Bhilai,"32Bungalows, Bhilai - CECB",06-05-2024 14:00:00,21.194815,81.314770,OZONE,11,91,35
India,Chhattisgarh,Bhilai,"Civic Center, Bhilai - Bhilai Steel Plant",06-05-2024 14:00:00,21.185571,81.343175,OZONE,14,82,48
India,Chhattisgarh,Bhilai,"Hathkhoj, Bhilai - CECB",06-05-2024 14:00:00,21.224231,81.408350,CO,14,60,25
India,Chhattisgarh,Bilaspur,"Mangala, Bilaspur - NTPC",06-05-2024 14:00:00,22.08815,82.13737,PM2.5,47,94,69
India,Chhattisgarh,Korba,"Urja Nagar, Korba - CECB",06-05-2024 14:00:00,22.348441,82.549611,PM2.5,15,176,65
India,Chhattisgarh,Korba,"Urja Nagar, Korba - CECB",06-05-2024 14:00:00,22.348441,82.549611,NH3,3,15,7
India,Chhattisgarh,Kunjemura,"OP Jindal School, Kunjemura - CECB",06-05-2024 14:00:00,22.126650,83.483212,NO2,18,137,74
India,Chhattisgarh,Kunjemura,"OP Jindal School, Kunjemura - CECB",06-05-2024 14:00:00,22.126650,83.483212,OZONE,4,132,42
India,Chhattisgarh,Milupara,"Govt. Higher Secondary School, Milupara - CECB",06-05-2024 14:00:00,22.1910172,83.5197009,NO2,15,77,39
India,Chhattisgarh,Raipur,"Bhatagaon New ISBT, Raipur - CECB",06-05-2024 14:00:00,21.219665,81.630094,PM2.5,28,53,40
India,Chhattisgarh,Raipur,"Bhatagaon New ISBT, Raipur - CECB",06-05-2024 14:00:00,21.219665,81.630094,CO,22,68,25
India,Chhattisgarh,Raipur,"Krishak Nagar, Raipur - CECB",06-05-2024 14:00:00,21.237755,81.705301,NO2,16,16,16
India,Chhattisgarh,Raipur,"Siltara Phase-II, Raipur - CECB",06-05-2024 14:00:00,21.371751,81.664929,SO2,46,100,72
India,Chhattisgarh,Tumidih,"OP Jindal Industrial Park, Tumidih - CECB",06-05-2024 14:00:00,22.06631475,83.33820077,NO2,NA,NA,NA
India,Chhattisgarh,Tumidih,"OP Jindal Industrial Park, Tumidih - CECB",06-05-2024 14:00:00,22.06631475,83.33820077,CO,21,37,27
India,Delhi,Delhi,"Alipur, Delhi - DPCC",06-05-2024 14:00:00,28.815329,77.153010,PM2.5,48,362,204
India,Delhi,Delhi,"Ashok Vihar, Delhi - DPCC",06-05-2024 14:00:00,28.695381,77.181665,PM10,136,434,258
India,Delhi,Delhi,"Ashok Vihar, Delhi - DPCC",06-05-2024 14:00:00,28.695381,77.181665,OZONE,22,168,104
India,Delhi,Delhi,"Aya Nagar, Delhi - IMD",06-05-2024 14:00:00,28.4706914,77.1099364,PM10,171,317,234
India,Delhi,Delhi,"Bawana, Delhi - DPCC",06-05-2024 14:00:00,28.776200,77.051074,PM2.5,80,414,276
India,Delhi,Delhi,"Bawana, Delhi - DPCC",06-05-2024 14:00:00,28.776200,77.051074,NO2,13,74,37
India,Delhi,Delhi,"Burari Crossing, Delhi - IMD",06-05-2024 14:00:00,28.7256504,77.2011573,PM10,142,398,240
India,Delhi,Delhi,"CRRI Mathura Road, Delhi - IMD",06-05-2024 14:00:00,28.5512005,77.2735737,OZONE,2,103,39
India,Delhi,Delhi,"Chandni Chowk, Delhi - IITM",06-05-2024 14:00:00,28.656756,77.227234,OZONE,8,14,11
India,Delhi,Delhi,"DTU, Delhi - CPCB",06-05-2024 14:00:00,28.7500499,77.1112615,PM2.5,91,368,244
India,Delhi,Delhi,"Dr. Karni Singh Shooting Range, Delhi - DPCC",06-05-2024 14:00:00,28.498571,77.264840,CO,30,110,49
India,Delhi,Delhi,"IGI Airport (T3), Delhi - IMD",06-05-2024 14:00:00,28.5627763,77.1180053,PM10,128,371,218
India,Delhi,Delhi,"IHBAS, Dilshad Garden, Delhi - CPCB",06-05-2024 14:00:00,28.6811736,77.3025234,PM2.5,84,270,147
India,Delhi,Delhi,"IHBAS, Dilshad Garden, Delhi - CPCB",06-05-2024 14:00:00,28.6811736,77.3025234,SO2,3,11,5
India,Delhi,Delhi,"ITO, Delhi - CPCB",06-05-2024 14:00:00,28.628624,77.241060,PM10,90,351,166
India,Delhi,Delhi,"ITO, Delhi - CPCB",06-05-2024 14:00:00,28.628624,77.241060,SO2,13,63,25
India,Delhi,Delhi,"ITO, Delhi - CPCB",06-05-2024 14:00:00,28.628624,77.241060,OZONE,12,93,57
India,Delhi,Delhi,"Jahangirpuri, Delhi - DPCC",06-05-2024 14:00:00,28.732820,77.170633,SO2,15,75,40
India,Delhi,Delhi,"Jawaharlal Nehru Stadium, Delhi - DPCC",06-05-2024 14:00:00,28.580280,77.233829,NO2,28,173,86
India,Delhi,Delhi,"Jawaharlal Nehru Stadium, Delhi - DPCC",06-05-2024 14:00:00,28.580280,77.233829,SO2,10,63,27
India,Delhi,Delhi,"Lodhi Road, Delhi - IITM",06-05-2024 14:00:00,28.588333,77.221667,PM2.5,15,223,101
India,Delhi,Delhi,"Lodhi Road, Delhi - IITM",06-05-2024 14:00:00,28.588333,77.221667,CO,58,66,64
India,Delhi,Delhi,"Lodhi Road, Delhi - IMD",06-05-2024 14:00:00,28.5918245,77.2273074,CO,18,27,23
India,Delhi,Delhi,"Lodhi Road, Delhi - IMD",06-05-2024 14:00:00,28.5918245,77.2273074,OZONE,11,72,45
India,Delhi,Delhi,"Major Dhyan Chand National Stadium, Delhi - DPCC",06-05-2024 14:00:00,28.611281,77.237738,NH3,6,9,7
India,Delhi,Delhi,"Mundka, Delhi - DPCC",06-05-2024 14:00:00,28.684678,77.076574,SO2,8,135,62
India,Delhi,Delhi,"Mundka, Delhi - DPCC",06-05-2024 14:00:00,28.684678,77.076574,CO,2,106,65
India,Delhi,Delhi,"NSIT Dwarka, Delhi - CPCB",06-05-2024 14:00:00,28.60909,77.0325413,PM2.5,164,422,309
India,Delhi,Delhi,"NSIT Dwarka, Delhi - CPCB",06-05-2024 14:00:00,28.60909,77.0325413,NO2,25,45,36
India,Delhi,Delhi,"Najafgarh, Delhi - DPCC",06-05-2024 14:00:00,28.570173,76.933762,PM2.5,53,432,239
India,Delhi,Delhi,"Najafgarh, Delhi - DPCC",06-05-2024 14:00:00,28.570173,76.933762,PM10,118,425,246
India,Delhi,Delhi,"Narela, Delhi - DPCC",06-05-2024 14:00:00,28.822836,77.101981,NO2,10,80,35
India,Delhi,Delhi,"Narela, Delhi - DPCC",06-05-2024 14:00:00,28.822836,77.101981,NH3,4,6,5
India,Delhi,Delhi,"Narela, Delhi - DPCC",06-05-2024 14:00:00,28.822836,77.101981,SO2,7,102,33
India,Delhi,Delhi,"Nehru Nagar, Delhi - DPCC",06-05-2024 14:00:00,28.567890,77.250515,CO,47,70,52
India,Delhi,Delhi,"Okhla Phase-2, Delhi - DPCC",06-05-2024 14:00:00,28.530785,77.271255,PM2.5,83,345,184
India,Delhi,Delhi,"Okhla Phase-2, Delhi - DPCC",06-05-2024 14:00:00,28.530785,77.271255,OZONE,6,133,73
India,Delhi,Delhi,"Patparganj, Delhi - DPCC",06-05-2024 14:00:00,28.623763,77.287209,PM2.5,NA,NA,NA
India,Delhi,Delhi,"Punjabi Bagh, Delhi - DPCC",06-05-2024 14:00:00,28.674045,77.131023,CO,32,76,50
India,Delhi,Delhi,"Pusa, Delhi - IMD",06-05-2024 14:00:00,28.636110,77.173332,PM10,160,430,239
India,Delhi,Delhi,"R K Puram, Delhi - DPCC",06-05-2024 14:00:00,28.563262,77.186937,CO,10,105,38
India,Delhi,Delhi,"Rohini, Delhi - DPCC",06-05-2024 14:00:00,28.732528,77.119920,NH3,8,14,11
India,Delhi,Delhi,"Shadipur, Delhi - CPCB",06-05-2024 14:00:00,28.6514781,77.1473105,PM2.5,245,500,361
India,Delhi,Delhi,"Shadipur, Delhi - CPCB",06-05-2024 14:00:00,28.6514781,77.1473105,PM10,156,500,301
India,Delhi,Delhi,"Sirifort, Delhi - CPCB",06-05-2024 14:00:00,28.5504249,77.2159377,OZONE,7,121,63
India,Delhi,Delhi,"Sonia Vihar, Delhi - DPCC",06-05-2024 14:00:00,28.710508,77.249485,PM10,120,382,230
India,Delhi,Delhi,"Sonia Vihar, Delhi - DPCC",06-05-2024 14:00:00,28.710508,77.249485,CO,52,97,75
India,Delhi,Delhi,"Sri Aurobindo Marg, Delhi - DPCC",06-05-2024 14:00:00,28.531346,77.190156,PM10,145,361,178
India,Delhi,Delhi,"Sri Aurobindo Marg, Delhi - DPCC",06-05-2024 14:00:00,28.531346,77.190156,OZONE,14,85,55
India,Delhi,Delhi,"Vivek Vihar, Delhi - DPCC",06-05-2024 14:00:00,28.672342,77.315260,PM10,154,395,256
India,Delhi,Delhi,"Vivek Vihar, Delhi - DPCC",06-05-2024 14:00:00,28.672342,77.315260,NO2,28,104,58
India,Gujarat,Ahmedabad,"Chandkheda, Ahmedabad - IITM",06-05-2024 14:00:00,23.107969,72.574648,PM10,44,181,80
India,Gujarat,Ahmedabad,"Gyaspur, Ahmedabad - IITM",06-05-2024 14:00:00,22.977134,72.553024,NH3,3,15,8
India,Gujarat,Ahmedabad,"Gyaspur, Ahmedabad - IITM",06-05-2024 14:00:00,22.977134,72.553024,SO2,6,20,11
India,Gujarat,Ahmedabad,"Raikhad, Ahmedabad - IITM",06-05-2024 14:00:00,23.020509,72.579261,NO2,13,19,16
India,Gujarat,Ahmedabad,"Rakhial, Ahmedabad - IITM",06-05-2024 14:00:00,23.016834,72.625775,PM2.5,24,362,104
India,Gujarat,Ahmedabad,"Rakhial, Ahmedabad - IITM",06-05-2024 14:00:00,23.016834,72.625775,SO2,1,6,2
India,Gujarat,Ahmedabad,"Rakhial, Ahmedabad - IITM",06-05-2024 14:00:00,23.016834,72.625775,OZONE,10,75,42
India,Gujarat,Ahmedabad,"SVPI Airport Hansol, Ahmedabad - IITM",06-05-2024 14:00:00,23.076793,72.627874,SO2,1,7,3
India,Gujarat,Ankleshwar,"GIDC, Ankleshwar - GPCB",06-05-2024 14:00:00,21.613267,73.010555,NH3,6,6,6
India,Gujarat,Ankleshwar,"GIDC, Ankleshwar - GPCB",06-05-2024 14:00:00,21.613267,73.010555,CO,5,95,69
India,Gujarat,Gandhinagar,"Sector-10, Gandhinagar - GPCB",06-05-2024 14:00:00,23.221714,72.654328,NH3,1,1,1
India,Gujarat,Gandhinagar,"Sector-10, Gandhinagar - GPCB",06-05-2024 14:00:00,23.221714,72.654328,SO2,5,5,5
India,Gujarat,Gandhinagar,"Sector-10, Gandhinagar - GPCB",06-05-2024 14:00:00,23.221714,72.654328,CO,34,46,37
India,Gujarat,Nandesari,"GIDC, Nandesari - Nandesari Ind. Association",06-05-2024 14:00:00,22.410802,73.097923,PM2.5,53,249,126
India,Gujarat,Nandesari,"GIDC, Nandesari - Nandesari Ind. Association",06-05-2024 14:00:00,22.410802,73.097923,PM10,84,193,127
India,Gujarat,Surat,"Science Center, Surat - SMC",06-05-2024 14:00:00,21.170046,72.795405,CO,18,25,21
India,Gujarat,Vapi,"Phase-1 GIDC, Vapi - GPCB",06-05-2024 14:00:00,20.362421,72.918013,SO2,NA,NA,NA
India,Gujarat,Vatva,"Phase-4 GIDC, Vatva - GPCB",06-05-2024 14:00:00,22.969611,72.643500,NO2,21,84,40
India,Gujarat,Vatva,"Phase-4 GIDC, Vatva - GPCB",06-05-2024 14:00:00,22.969611,72.643500,NH3,11,16,13
India,Haryana,Ambala,"Patti Mehar, Ambala - HSPCB",06-05-2024 14:00:00,30.379589,76.778328,PM2.5,41,75,58
India,Haryana,Ambala,"Patti Mehar, Ambala - HSPCB",06-05-2024 14:00:00,30.379589,76.778328,OZONE,27,51,31
India,Haryana,Bahadurgarh,"Arya Nagar, Bahadurgarh - HSPCB",06-05-2024 14:00:00,28.6701,76.9254,PM10,112,395,207
India,Haryana,Bahadurgarh,"Arya Nagar, Bahadurgarh - HSPCB",06-05-2024 14:00:00,28.6701,76.9254,CO,82,102,98
India,Haryana,Ballabgarh,"Nathu Colony, Ballabgarh - HSPCB",06-05-2024 14:00:00,28.3419248,77.319699,OZONE,2,22,14
India,Haryana,Bhiwani,"H.B. Colony, Bhiwani - HSPCB",06-05-2024 14:00:00,28.806223,76.141105,SO2,2,92,22
India,Haryana,Charkhi Dadri,"Mini Secretariat, Charkhi Dadri - HSPCB",06-05-2024 14:00:00,28.593883,76.270653,PM10,78,164,123
India,Haryana,Charkhi Dadri,"Mini Secretariat, Charkhi Dadri - HSPCB",06-05-2024 14:00:00,28.593883,76.270653,CO,10,104,53
India,Haryana,Dharuhera,"Municipal Corporation Office, Dharuhera -  HSPCB",06-05-2024 14:00:00,28.206800,76.799700,PM2.5,55,500,198
India,Haryana,Faridabad,"New Industrial Town, Faridabad - HSPCB",06-05-2024 14:00:00,28.39072,77.30059,PM2.5,3,350,221
India,Haryana,Faridabad,"New Industrial Town, Faridabad - HSPCB",06-05-2024 14:00:00,28.39072,77.30059,SO2,9,12,10
India,Haryana,Faridabad,"Sector 11, Faridabad - HSPCB",06-05-2024 14:00:00,28.376058,77.315741,NO2,30,32,32
India,Haryana,Faridabad,"Sector 30, Faridabad - HSPCB",06-05-2024 14:00:00,28.4417,77.3217,PM2.5,246,304,286
India,Haryana,Gurugram,"Sector-51, Gurugram - HSPCB",06-05-2024 14:00:00,28.4227,77.0667,SO2,3,5,4
India,Haryana,Gurugram,"Sector-51, Gurugram - HSPCB",06-05-2024 14:00:00,28.4227,77.0667,CO,12,74,58
India,Haryana,Gurugram,"Teri Gram, Gurugram - HSPCB",06-05-2024 14:00:00,28.4275,77.1465,NO2,28,102,51
India,Haryana,Jind,"Police Lines, Jind - HSPCB",06-05-2024 14:00:00,29.307814,76.337619,PM2.5,56,209,127
India,Haryana,Jind,"Police Lines, Jind - HSPCB",06-05-2024 14:00:00,29.307814,76.337619,CO,2,57,23
India,Haryana,Kurukshetra,"Sector-7, Kurukshetra - HSPCB",06-05-2024 14:00:00,29.966942,76.875879,PM10,105,189,153
India,Haryana,Kurukshetra,"Sector-7, Kurukshetra - HSPCB",06-05-2024 14:00:00,29.966942,76.875879,CO,2,43,20
India,Haryana,Mandikhera,"General Hospital, Mandikhera - HSPCB",06-05-2024 14:00:00,27.9002,76.9938,SO2,29,38,34
India,Haryana,Mandikhera,"General Hospital, Mandikhera - HSPCB",06-05-2024 14:00:00,27.9002,76.9938,OZONE,21,32,28
India,Haryana,Manesar,"Sector-2 IMT, Manesar - HSPCB",06-05-2024 14:00:00,28.360699,76.936090,CO,24,68,46
India,Haryana,Palwal,"Shyam Nagar, Palwal - HSPCB",06-05-2024 14:00:00,28.1485564,77.3320667,OZONE,8,55,27
India,Haryana,Panchkula,"Sector-6, Panchkula - HSPCB ",06-05-2024 14:00:00,30.7057778,76.8531805555555,SO2,2,14,4
India,Haryana,Panipat,"Sector-18, Panipat - HSPCB",06-05-2024 14:00:00,29.497973,76.993331,NO2,31,32,31
India,Haryana,Rohtak,"MD University, Rohtak - HSPCB",06-05-2024 14:00:00,28.52123,76.37138,OZONE,43,53,49
India,Haryana,Sirsa,"F-Block, Sirsa - HSPCB",06-05-2024 14:00:00,29.536400,75.015800,PM2.5,65,172,117
India,Haryana,Sirsa,"F-Block, Sirsa - HSPCB",06-05-2024 14:00:00,29.536400,75.015800,PM10,94,130,117
India,Haryana,Sirsa,"F-Block, Sirsa - HSPCB",06-05-2024 14:00:00,29.536400,75.015800,NO2,10,11,10
India,Haryana,Sirsa,"F-Block, Sirsa - HSPCB",06-05-2024 14:00:00,29.536400,75.015800,NH3,12,13,12
India,Haryana,Sirsa,"F-Block, Sirsa - HSPCB",06-05-2024 14:00:00,29.536400,75.015800,CO,62,86,79
India,Haryana,Sirsa,"F-Block, Sirsa - HSPCB",06-05-2024 14:00:00,29.536400,75.015800,OZONE,20,90,58
India,Haryana,Sonipat,"Murthal, Sonipat - HSPCB",06-05-2024 14:00:00,29.027200,77.062100,NH3,7,10,9
India,Haryana,Sonipat,"Murthal, Sonipat - HSPCB",06-05-2024 14:00:00,29.027200,77.062100,SO2,13,29,20
India,Haryana,Yamuna Nagar,"Gobind Pura, Yamuna Nagar - HSPCB",06-05-2024 14:00:00,30.1480566,77.2893471,PM10,NA,NA,NA
India,Haryana,Yamuna Nagar,"Gobind Pura, Yamuna Nagar - HSPCB",06-05-2024 14:00:00,30.1480566,77.2893471,NH3,NA,NA,NA
India,Himachal Pradesh,Baddi,"HIMUDA Complex Phase-1, Baddi - HPPCB",06-05-2024 14:00:00,30.943887,76.801991,NH3,3,6,4
India,Jharkhand,Dhanbad,"Sardar Patel Nagar, Dhanbad - JSPCB",06-05-2024 14:00:00,23.80569,86.44268,OZONE,3,13,7
India,Karnataka,Bagalkot,"Vidayagiri, Bagalkot - KSPCB",06-05-2024 14:00:00,16.172806,75.659694,NO2,9,10,9
India,Karnataka,Bagalkot,"Vidayagiri, Bagalkot - KSPCB",06-05-2024 14:00:00,16.172806,75.659694,CO,12,60,34
India,Karnataka,Belgaum,"Ramteerth Nagar, Belgaum - KSPCB",06-05-2024 14:00:00,15.888653,74.541751,PM10,24,86,58
India,Karnataka,Belgaum,"Ramteerth Nagar, Belgaum - KSPCB",06-05-2024 14:00:00,15.888653,74.541751,CO,40,68,51
India,Karnataka,Bengaluru,"Bapuji Nagar, Bengaluru - KSPCB",06-05-2024 14:00:00,12.951913,77.539784,PM2.5,31,212,82
India,Karnataka,Bengaluru,"Bapuji Nagar, Bengaluru - KSPCB",06-05-2024 14:00:00,12.951913,77.539784,NO2,10,11,11
India,Karnataka,Bengaluru,"Bapuji Nagar, Bengaluru - KSPCB",06-05-2024 14:00:00,12.951913,77.539784,SO2,5,9,7
India,Karnataka,Bengaluru,"Bapuji Nagar, Bengaluru - KSPCB",06-05-2024 14:00:00,12.951913,77.539784,CO,18,103,30
India,Karnataka,Bengaluru,"Hebbal, Bengaluru - KSPCB",06-05-2024 14:00:00,13.029152,77.585901,CO,8,57,32
India,Karnataka,Bengaluru,"Hombegowda Nagar, Bengaluru - KSPCB",06-05-2024 14:00:00,12.938539,77.590100,OZONE,3,69,43
India,Karnataka,Bengaluru,"Jayanagar 5th Block, Bengaluru - KSPCB",06-05-2024 14:00:00,12.920984,77.584908,PM2.5,42,133,64
India,Karnataka,Bengaluru,"Jayanagar 5th Block, Bengaluru - KSPCB",06-05-2024 14:00:00,12.920984,77.584908,PM10,47,220,86
India,Karnataka,Bengaluru,"Jayanagar 5th Block, Bengaluru - KSPCB",06-05-2024 14:00:00,12.920984,77.584908,SO2,12,29,19
India,Karnataka,Bengaluru,"Kasturi Nagar, Bengaluru - KSPCB",06-05-2024 14:00:00,13.003872,77.664217,SO2,10,10,10
India,Karnataka,Bengaluru,"Peenya, Bengaluru - CPCB",06-05-2024 14:00:00,13.0270199,77.494094,NO2,14,36,22
India,Karnataka,Bengaluru,"Peenya, Bengaluru - CPCB",06-05-2024 14:00:00,13.0270199,77.494094,CO,28,40,33
India,Karnataka,Bengaluru,"Sanegurava Halli, Bengaluru - KSPCB",06-05-2024 14:00:00,12.990328,77.5431385,SO2,2,3,3
India,Karnataka,Bidar,"Naubad, Bidar - KSPCB",06-05-2024 14:00:00,17.930306,77.482194,NO2,7,10,8
India,Karnataka,Bidar,"Naubad, Bidar - KSPCB",06-05-2024 14:00:00,17.930306,77.482194,OZONE,17,52,33
India,Karnataka,Chamarajanagar,"Urban, Chamarajanagar - KSPCB",06-05-2024 14:00:00,11.55358,76.55521,NO2,21,35,28
India,Karnataka,Chamarajanagar,"Urban, Chamarajanagar - KSPCB",06-05-2024 14:00:00,11.55358,76.55521,SO2,1,8,4
India,Karnataka,Chikkaballapur,"Chikkaballapur Rural, Chikkaballapur - KSPCB",06-05-2024 14:00:00,13.428828,77.731418,NO2,7,19,11
India,Karnataka,Chikkamagaluru,"Kalyana Nagara, Chikkamagaluru - KSPCB",06-05-2024 14:00:00,13.328028,75.797056,PM10,43,85,62
India,Karnataka,Chikkamagaluru,"Kalyana Nagara, Chikkamagaluru - KSPCB",06-05-2024 14:00:00,13.328028,75.797056,CO,4,109,30
India,Karnataka,Davanagere,"Devaraj Urs Badavane, Davanagere - KSPCB",06-05-2024 14:00:00,14.475800,75.905200,SO2,2,6,5
India,Karnataka,Davanagere,"Devaraj Urs Badavane, Davanagere - KSPCB",06-05-2024 14:00:00,14.475800,75.905200,OZONE,19,21,20
India,Karnataka,Dharwad,"Kalabhavan, Dharwad - KSPCB",06-05-2024 14:00:00,15.459706,75.008381,PM2.5,41,402,92
India,Karnataka,Dharwad,"Kalabhavan, Dharwad - KSPCB",06-05-2024 14:00:00,15.459706,75.008381,SO2,2,7,3
India,Karnataka,Dharwad,"Kalabhavan, Dharwad - KSPCB",06-05-2024 14:00:00,15.459706,75.008381,OZONE,2,14,7
India,Karnataka,Gadag,"Panchal Nagar, Gadag - KSPCB",06-05-2024 14:00:00,15.411456,75.638133,PM2.5,12,62,31
India,Karnataka,Hassan,"B.Katihalli, Hassan - KSPCB",06-05-2024 14:00:00,13.008556,76.125258,NO2,NA,NA,NA
India,Karnataka,Hubballi,"Deshpande Nagar, Hubballi - KSPCB",06-05-2024 14:00:00,15.351773,75.140726,PM10,45,111,76
India,Karnataka,Hubballi,"Deshpande Nagar, Hubballi - KSPCB",06-05-2024 14:00:00,15.351773,75.140726,SO2,7,10,8
India,Karnataka,Hubballi,"Lingaraj Nagar, Hubballi - KSPCB",06-05-2024 14:00:00,15.3714823,75.1160168,NO2,10,10,10
India,Karnataka,Hubballi,"Lingaraj Nagar, Hubballi - KSPCB",06-05-2024 14:00:00,15.3714823,75.1160168,SO2,1,7,2
India,Karnataka,Kalaburagi,"Lal Bahadur Shastri Nagar, Kalaburagi - KSPCB",06-05-2024 14:00:00,17.321993,76.822628,PM2.5,48,304,95
India,Karnataka,Kalaburagi,"Lal Bahadur Shastri Nagar, Kalaburagi - KSPCB",06-05-2024 14:00:00,17.321993,76.822628,NO2,11,12,11
India,Karnataka,Kalaburagi,"Mahatma Basaveswar Colony, Kalaburgi - KSPCB",06-05-2024 14:00:00,17.336318,76.847397,SO2,4,18,8
India,Karnataka,Kalaburagi,"Mahatma Basaveswar Colony, Kalaburgi - KSPCB",06-05-2024 14:00:00,17.336318,76.847397,OZONE,3,38,19
India,Karnataka,Karwar,"KHB Colony, Karwar - KSPCB",06-05-2024 14:00:00,14.816666,74.141003,NH3,1,6,2
India,Karnataka,Kolar,"Tamaka Ind. Area, Kolar - KSPCB",06-05-2024 14:00:00,13.1276288,78.1570122,PM2.5,39,79,51
India,Karnataka,Kolar,"Tamaka Ind. Area, Kolar - KSPCB",06-05-2024 14:00:00,13.1276288,78.1570122,PM10,63,118,83
India,Karnataka,Koppal,"Diwator Nagar, Koppal - KSPCB",06-05-2024 14:00:00,15.347630,76.181767,CO,72,94,88
India,Karnataka,Madikeri,"Stuart Hill, Madikeri - KSPCB",06-05-2024 14:00:00,12.415911,75.735050,CO,4,76,33
India,Karnataka,Mangalore,"Kadri, Mangalore - KSPCB",06-05-2024 14:00:00,12.889250,74.853000,NH3,2,2,2
India,Karnataka,Mysuru,"Hebbal 1st Stage, Mysuru - KSPCB",06-05-2024 14:00:00,12.21041,76.37376,PM10,31,58,44
India,Karnataka,Mysuru,"Hebbal 1st Stage, Mysuru - KSPCB",06-05-2024 14:00:00,12.21041,76.37376,OZONE,16,90,42
India,Karnataka,Raichur,"Haji Colony, Raichur - KSPCB",06-05-2024 14:00:00,16.208139,77.348417,PM2.5,23,78,48
India,Karnataka,Raichur,"Haji Colony, Raichur - KSPCB",06-05-2024 14:00:00,16.208139,77.348417,PM10,72,171,118
India,Karnataka,Raichur,"Haji Colony, Raichur - KSPCB",06-05-2024 14:00:00,16.208139,77.348417,NH3,1,2,2
India,Karnataka,Raichur,"Haji Colony, Raichur - KSPCB",06-05-2024 14:00:00,16.208139,77.348417,SO2,80,93,86
India,Karnataka,Ramanagara,"Vijay Nagar, Ramanagara - KSPCB",06-05-2024 14:00:00,12.733409,77.298051,PM10,NA,NA,NA
India,Karnataka,Ramanagara,"Vijay Nagar, Ramanagara - KSPCB",06-05-2024 14:00:00,12.733409,77.298051,SO2,NA,NA,NA
India,Karnataka,Tumakuru,"Thimmalapura, Tumakuru - KSPCB",06-05-2024 14:00:00,13.377516,77.099072,PM10,97,423,160
India,Karnataka,Udupi,"Brahmagiri, Udupi - KSPCB",06-05-2024 14:00:00,13.34194444,74.74694444,PM10,51,92,70
India,Karnataka,Udupi,"Brahmagiri, Udupi - KSPCB",06-05-2024 14:00:00,13.34194444,74.74694444,NH3,1,1,1
India,Karnataka,Udupi,"Brahmagiri, Udupi - KSPCB",06-05-2024 14:00:00,13.34194444,74.74694444,CO,47,52,50
India,Karnataka,Vijayapura,"Ibrahimpur, Vijayapura - KSPCB",06-05-2024 14:00:00,16.802639,75.722694,PM10,42,43,42
India,Kerala,Kannur,"Thavakkara, Kannur - Kerala PCB",06-05-2024 14:00:00,11.875000,75.373200,OZONE,31,36,33
India,Kerala,Kollam,"Polayathode, Kollam - Kerala PCB",06-05-2024 14:00:00,8.8787,76.6073,PM10,79,99,87
India,Kerala,Thiruvananthapuram,"Kariavattom, Thiruvananthapuram - Kerala PCB",06-05-2024 14:00:00,8.563700,76.886500,PM2.5,75,91,82
India,Kerala,Thiruvananthapuram,"Plammoodu, Thiruvananthapuram - Kerala PCB",06-05-2024 14:00:00,8.5149093,76.9435879,PM2.5,7,43,21
India,Kerala,Thiruvananthapuram,"Plammoodu, Thiruvananthapuram - Kerala PCB",06-05-2024 14:00:00,8.5149093,76.9435879,CO,12,28,25
India,Kerala,Thrissur,"Corporation Ground, Thrissur - Kerala PCB",06-05-2024 14:00:00,10.532400,76.215900,PM2.5,44,51,47
India,Kerala,Thrissur,"Corporation Ground, Thrissur - Kerala PCB",06-05-2024 14:00:00,10.532400,76.215900,PM10,59,69,64
India,Madhya Pradesh,Bhopal,"Idgah Hills, Bhopal - MPPCB",06-05-2024 14:00:00,23.264759,77.381568,PM10,65,111,88
India,Madhya Pradesh,Bhopal,"Idgah Hills, Bhopal - MPPCB",06-05-2024 14:00:00,23.264759,77.381568,NO2,22,55,34
India,Madhya Pradesh,Bhopal,"Idgah Hills, Bhopal - MPPCB",06-05-2024 14:00:00,23.264759,77.381568,NH3,4,6,5
India,Madhya Pradesh,Bhopal,"Idgah Hills, Bhopal - MPPCB",06-05-2024 14:00:00,23.264759,77.381568,OZONE,23,87,55
India,Madhya Pradesh,Bhopal,"Paryavaran Parisar, Bhopal - MPPCB",06-05-2024 14:00:00,23.210494,77.425409,NO2,7,19,13
India,Madhya Pradesh,Bhopal,"Paryavaran Parisar, Bhopal - MPPCB",06-05-2024 14:00:00,23.210494,77.425409,CO,23,157,59
India,Madhya Pradesh,Gwalior,"City Center, Gwalior - MPPCB",06-05-2024 14:00:00,26.203442,78.193251,SO2,NA,NA,NA
India,Madhya Pradesh,Gwalior,"Deen Dayal Nagar, Gwalior - MPPCB",06-05-2024 14:00:00,26.259242,78.216432,PM10,55,207,128
India,Madhya Pradesh,Gwalior,"Deen Dayal Nagar, Gwalior - MPPCB",06-05-2024 14:00:00,26.259242,78.216432,CO,42,103,75
India,Madhya Pradesh,Gwalior,"Deen Dayal Nagar, Gwalior - MPPCB",06-05-2024 14:00:00,26.259242,78.216432,OZONE,53,187,187
India,Madhya Pradesh,Gwalior,"Maharaj Bada, Gwalior - MPPCB",06-05-2024 14:00:00,26.200388,78.147714,PM10,60,258,163
India,Madhya Pradesh,Gwalior,"Maharaj Bada, Gwalior - MPPCB",06-05-2024 14:00:00,26.200388,78.147714,OZONE,49,216,211
India,Madhya Pradesh,Gwalior,"Phool Bagh, Gwalior - Mondelez Ind. Food",06-05-2024 14:00:00,26.210536,78.171,SO2,21,34,25
India,Madhya Pradesh,Gwalior,"Phool Bagh, Gwalior - Mondelez Ind. Food",06-05-2024 14:00:00,26.210536,78.171,CO,63,100,68
India,Madhya Pradesh,Indore,"Chhoti Gwaltoli, Indore - MPPCB",06-05-2024 14:00:00,22.4310,75.5213,PM2.5,16,53,32
India,Madhya Pradesh,Indore,"Maguda Nagar, Indore - IMC",06-05-2024 14:00:00,22.7524,75.8872,NO2,4,6,5
India,Madhya Pradesh,Indore,"Maguda Nagar, Indore - IMC",06-05-2024 14:00:00,22.7524,75.8872,CO,20,26,23
India,Madhya Pradesh,Indore,"Regional Park, Indore - IMC",06-05-2024 14:00:00,22.6780,75.8559,PM10,25,66,35
India,Madhya Pradesh,Indore,"Residency Area, Indore - IMC",06-05-2024 14:00:00,22.7084,75.8815,OZONE,10,21,12
India,Madhya Pradesh,Jabalpur,"Govindh Bhavan Colony, Jabalpur - JMC",06-05-2024 14:00:00,23.163174,79.973061,NO2,9,27,15
India,Madhya Pradesh,Jabalpur,"Marhatal, Jabalpur - MPPCB",06-05-2024 14:00:00,23.168606,79.932247,NO2,7,59,25
India,Madhya Pradesh,Jabalpur,"Suhagi, Jabalpur - JMC",06-05-2024 14:00:00,23.218135,79.957770,PM2.5,22,72,40
India,Madhya Pradesh,Jabalpur,"Suhagi, Jabalpur - JMC",06-05-2024 14:00:00,23.218135,79.957770,NO2,39,44,42
India,Madhya Pradesh,Jabalpur,"Suhagi, Jabalpur - JMC",06-05-2024 14:00:00,23.218135,79.957770,OZONE,38,134,82
India,Madhya Pradesh,Katni,"Gole Bazar, Katni - MPPCB",06-05-2024 14:00:00,23.50016,80.23284,SO2,13,111,60
India,Madhya Pradesh,Mandideep,"Sector-D Industrial Area, Mandideep - MPPCB",06-05-2024 14:00:00,23.108440,77.511428,PM10,60,120,93
India,Madhya Pradesh,Mandideep,"Sector-D Industrial Area, Mandideep - MPPCB",06-05-2024 14:00:00,23.108440,77.511428,OZONE,16,45,26
India,Madhya Pradesh,Sagar,"Deen Dayal Nagar, Sagar - MPPCB",06-05-2024 14:00:00,23.8640158,78.80289321,PM2.5,13,35,24
India,Madhya Pradesh,Satna,"Bandhavgar Colony, Satna - Birla Cement",06-05-2024 14:00:00,24.58434363,80.8549414,PM2.5,17,35,24
India,Madhya Pradesh,Singrauli,"Suryakiran Bhawan NCL, Singrauli - MPPCB",06-05-2024 14:00:00,24.108970,82.645580,NH3,3,5,4
India,Madhya Pradesh,Singrauli,"Suryakiran Bhawan NCL, Singrauli - MPPCB",06-05-2024 14:00:00,24.108970,82.645580,CO,35,110,50
India,Madhya Pradesh,Singrauli,"Suryakiran Bhawan NCL, Singrauli - MPPCB",06-05-2024 14:00:00,24.108970,82.645580,OZONE,14,95,50
India,Madhya Pradesh,Ujjain,"Mahakaleshwar Temple, Ujjain - MPPCB",06-05-2024 14:00:00,23.182719 ,75.768218 ,NO2,13,28,19
India,Madhya Pradesh,Ujjain,"Mahakaleshwar Temple, Ujjain - MPPCB",06-05-2024 14:00:00,23.182719 ,75.768218 ,NH3,6,9,8
India,Maharashtra,Ahmednagar,"Tarakpur, Ahmednagar - MPCB",06-05-2024 14:00:00,19.10122,74.73339,PM2.5,27,84,50
India,Maharashtra,Ahmednagar,"Tarakpur, Ahmednagar - MPCB",06-05-2024 14:00:00,19.10122,74.73339,PM10,45,104,72
India,Maharashtra,Ahmednagar,"Tarakpur, Ahmednagar - MPCB",06-05-2024 14:00:00,19.10122,74.73339,OZONE,6,116,48
India,Maharashtra,Akola,"Ramdaspeth, Akola - MPCB",06-05-2024 14:00:00,20.719516,77.000253,PM2.5,25,143,58
India,Maharashtra,Akola,"Ramdaspeth, Akola - MPCB",06-05-2024 14:00:00,20.719516,77.000253,SO2,6,15,10
India,Maharashtra,Amravati,"Shivneri Colony, Amravati - MPCB",06-05-2024 14:00:00,20.9402359,77.7895248,SO2,4,7,5
India,Maharashtra,Amravati,"Shri Shivaji Science College, Amaravati - MPCB",06-05-2024 14:00:00,20.939198,77.765701,SO2,5,6,5
India,Maharashtra,Amravati,"Shri Shivaji Science College, Amaravati - MPCB",06-05-2024 14:00:00,20.939198,77.765701,OZONE,19,60,33
India,Maharashtra,Aurangabad,"MIDC Chilkalthana, Aurangabad - MPCB",06-05-2024 14:00:00,19.875620,75.387310,SO2,NA,NA,NA
India,Maharashtra,Aurangabad,"More Chowk Waluj, Aurangabad - MPCB",06-05-2024 14:00:00,19.8389439,75.244448,PM10,32,61,47
India,Maharashtra,Aurangabad,"More Chowk Waluj, Aurangabad - MPCB",06-05-2024 14:00:00,19.8389439,75.244448,NH3,9,10,9
India,Maharashtra,Aurangabad,"Rachnakar Colony, Aurangabad - MPCB",06-05-2024 14:00:00,19.863756,75.321188,NH3,1,2,1
India,Maharashtra,Aurangabad,"Rachnakar Colony, Aurangabad - MPCB",06-05-2024 14:00:00,19.863756,75.321188,SO2,24,39,31
India,Maharashtra,Badlapur,"Katrap, Badlapur - MPCB",06-05-2024 14:00:00,19.16485,73.23409,NO2,4,125,27
India,Maharashtra,Badlapur,"Katrap, Badlapur - MPCB",06-05-2024 14:00:00,19.16485,73.23409,NH3,1,3,1
India,Maharashtra,Belapur,"CBD Belapur, Belapur - MPCB",06-05-2024 14:00:00,19.0243902,73.0406721,NH3,1,3,2
India,Maharashtra,Bhiwandi,"Gokul Nagar, Bhiwandi - MPCB",06-05-2024 14:00:00,19.309073,73.057223,PM10,59,85,72
India,Maharashtra,Bhiwandi,"Gokul Nagar, Bhiwandi - MPCB",06-05-2024 14:00:00,19.309073,73.057223,NO2,10,25,16
India,Maharashtra,Bhiwandi,"Gokul Nagar, Bhiwandi - MPCB",06-05-2024 14:00:00,19.309073,73.057223,NH3,1,5,2
India,Maharashtra,Bhiwandi,"Gokul Nagar, Bhiwandi - MPCB",06-05-2024 14:00:00,19.309073,73.057223,OZONE,26,91,45
India,Maharashtra,Chandrapur,"Chauhan Colony, Chandrapur - MPCB",06-05-2024 14:00:00,19.962900,79.298714,PM2.5,67,241,105
India,Maharashtra,Chandrapur,"Chauhan Colony, Chandrapur - MPCB",06-05-2024 14:00:00,19.962900,79.298714,NO2,12,101,33
India,Maharashtra,Chandrapur,"Chauhan Colony, Chandrapur - MPCB",06-05-2024 14:00:00,19.962900,79.298714,OZONE,49,122,87
India,Maharashtra,Dhule,"Deopur, Dhule - MPCB",06-05-2024 14:00:00,20.918946,74.776388,PM10,67,84,76
India,Maharashtra,Jalgaon,"Prabhat Colony, Jalgaon - MPCB",06-05-2024 14:00:00,21.001264,75.565602,PM2.5,48,134,75
India,Maharashtra,Jalgaon,"Prabhat Colony, Jalgaon - MPCB",06-05-2024 14:00:00,21.001264,75.565602,PM10,67,122,94
India,Maharashtra,Jalgaon,"Prabhat Colony, Jalgaon - MPCB",06-05-2024 14:00:00,21.001264,75.565602,OZONE,18,135,54
India,Maharashtra,Kalyan,"Khadakpada, Kalyan - MPCB",06-05-2024 14:00:00,19.25292,73.142019,NH3,1,1,1
India,Maharashtra,Kolhapur,"Shivaji University, Kolhapur - MPCB",06-05-2024 14:00:00,16.6870449,74.2505872,NO2,16,32,25
India,Maharashtra,Kolhapur,"Shivaji University, Kolhapur - MPCB",06-05-2024 14:00:00,16.6870449,74.2505872,CO,48,76,67
India,Maharashtra,Kolhapur,"Sinchan Bhavan, Kolhapur - MPCB",06-05-2024 14:00:00,16.7143745,74.2426398,CO,12,20,17
India,Maharashtra,Latur,"Sawe Wadi, Latur - MPCB",06-05-2024 14:00:00,18.39963,76.57452,OZONE,18,129,53
India,Maharashtra,Malegaon,"Mahesh Nagar, Malegaon - MPCB",06-05-2024 14:00:00,20.555712,74.529236,PM2.5,62,91,74
India,Maharashtra,Malegaon,"Mahesh Nagar, Malegaon - MPCB",06-05-2024 14:00:00,20.555712,74.529236,NH3,3,12,8
India,Maharashtra,Mumbai,"Bandra Kurla Complex, Mumbai - MPCB",06-05-2024 14:00:00,19.065931,72.862131,PM10,51,85,67
India,Maharashtra,Mumbai,"Bandra Kurla Complex, Mumbai - MPCB",06-05-2024 14:00:00,19.065931,72.862131,SO2,1,16,4
India,Maharashtra,Mumbai,"Bandra Kurla Complex, Mumbai - MPCB",06-05-2024 14:00:00,19.065931,72.862131,CO,16,42,29
India,Maharashtra,Mumbai,"Borivali East, Mumbai - IITM",06-05-2024 14:00:00,19.23241,72.86895,CO,12,108,16
India,Maharashtra,Mumbai,"Borivali East, Mumbai - MPCB",06-05-2024 14:00:00,19.2243333,72.8658113,SO2,8,17,12
India,Maharashtra,Mumbai,"Chembur, Mumbai - MPCB",06-05-2024 14:00:00,19.0364585,72.8954371,PM2.5,22,57,42
India,Maharashtra,Mumbai,"Chhatrapati Shivaji Intl. Airport (T2), Mumbai - MPCB",06-05-2024 14:00:00,19.10078,72.87462,CO,34,48,37
India,Maharashtra,Mumbai,"Colaba, Mumbai - MPCB",06-05-2024 14:00:00,18.910000,72.820000,NH3,1,1,1
India,Maharashtra,Mumbai,"Colaba, Mumbai - MPCB",06-05-2024 14:00:00,18.910000,72.820000,SO2,10,10,10
India,Maharashtra,Mumbai,"Colaba, Mumbai - MPCB",06-05-2024 14:00:00,18.910000,72.820000,OZONE,11,11,11
India,Maharashtra,Mumbai,"Ghatkopar, Mumbai - BMC",06-05-2024 14:00:00,19.083694,72.920967,NH3,1,5,3
India,Maharashtra,Mumbai,"Kandivali East, Mumbai - MPCB",06-05-2024 14:00:00,19.205800,72.868200,PM10,39,484,140
India,Maharashtra,Mumbai,"Kandivali West, Mumbai - BMC",06-05-2024 14:00:00,19.215859,72.831718,NO2,3,38,10
India,Maharashtra,Mumbai,"Kherwadi_Bandra East, Mumbai - MPCB",06-05-2024 14:00:00,19.0632143,72.8456324,OZONE,18,89,29
India,Maharashtra,Mumbai,"Khindipada-Bhandup West, Mumbai - IITM",06-05-2024 14:00:00,19.1653323,72.922099,PM10,23,69,47
India,Maharashtra,Mumbai,"Khindipada-Bhandup West, Mumbai - IITM",06-05-2024 14:00:00,19.1653323,72.922099,SO2,6,10,8
India,Maharashtra,Mumbai,"Kurla, Mumbai - MPCB",06-05-2024 14:00:00,19.0863,72.8888,NH3,1,2,1
India,Maharashtra,Mumbai,"Kurla, Mumbai - MPCB",06-05-2024 14:00:00,19.0863,72.8888,CO,NA,NA,NA
India,Maharashtra,Mumbai,"Mazgaon, Mumbai - IITM",06-05-2024 14:00:00,18.96702,72.84214,PM2.5,13,23,17
India,Maharashtra,Mumbai,"Mulund West, Mumbai - MPCB",06-05-2024 14:00:00,19.1750,72.9419,NO2,15,16,15
India,Maharashtra,Mumbai,"Navy Nagar-Colaba, Mumbai - IITM",06-05-2024 14:00:00,18.897756,72.813320,CO,22,36,30
India,Maharashtra,Mumbai,"Siddharth Nagar-Worli, Mumbai - IITM",06-05-2024 14:00:00,19.000083,72.813993,PM10,54,97,72
India,Maharashtra,Mumbai,"Vasai West, Mumbai - MPCB",06-05-2024 14:00:00,19.383200,72.820400,PM10,64,262,114
India,Maharashtra,Mumbai,"Vasai West, Mumbai - MPCB",06-05-2024 14:00:00,19.383200,72.820400,NH3,4,4,4
India,Maharashtra,Mumbai,"Worli, Mumbai - MPCB",06-05-2024 14:00:00,18.9936162,72.8128113,OZONE,9,11,10
India,Maharashtra,Nagpur,"Ambazari, Nagpur - MPCB",06-05-2024 14:00:00,21.121801,79.04952,PM10,58,122,79
India,Maharashtra,Nagpur,"Ambazari, Nagpur - MPCB",06-05-2024 14:00:00,21.121801,79.04952,NO2,4,62,21
India,Maharashtra,Nagpur,"Mahal, Nagpur - MPCB",06-05-2024 14:00:00,21.14472,79.107595,NO2,10,76,39
India,Maharashtra,Nagpur,"Mahal, Nagpur - MPCB",06-05-2024 14:00:00,21.14472,79.107595,CO,21,108,39
India,Maharashtra,Nagpur,"Mahal, Nagpur - MPCB",06-05-2024 14:00:00,21.14472,79.107595,OZONE,5,67,41
India,Maharashtra,Nagpur,"Opp GPO Civil Lines, Nagpur - MPCB",06-05-2024 14:00:00,21.152875,79.0517531,NO2,12,98,35
India,Maharashtra,Nagpur,"Opp GPO Civil Lines, Nagpur - MPCB",06-05-2024 14:00:00,21.152875,79.0517531,SO2,1,34,13
India,Maharashtra,Nanded,"Sneh Nagar, Nanded - MPCB",06-05-2024 14:00:00,19.173852,77.296291,PM10,98,133,117
India,Maharashtra,Nanded,"Sneh Nagar, Nanded - MPCB",06-05-2024 14:00:00,19.173852,77.296291,CO,4,75,35
India,Maharashtra,Nanded,"Sneh Nagar, Nanded - MPCB",06-05-2024 14:00:00,19.173852,77.296291,OZONE,95,165,140
India,Maharashtra,Nashik,"Gangapur Road, Nashik - MPCB",06-05-2024 14:00:00,20.0073285,73.7762427,PM2.5,34,60,47
India,Maharashtra,Nashik,"Gangapur Road, Nashik - MPCB",06-05-2024 14:00:00,20.0073285,73.7762427,NO2,1,8,3
India,Maharashtra,Nashik,"Hirawadi, Nashik - MPCB",06-05-2024 14:00:00,20.021503,73.813844,PM2.5,21,71,47
India,Maharashtra,Nashik,"Hirawadi, Nashik - MPCB",06-05-2024 14:00:00,20.021503,73.813844,NH3,2,4,3
India,Maharashtra,Nashik,"MIDC Ambad, Nashik - MPCB",06-05-2024 14:00:00,19.950220,73.731480,SO2,6,24,12
India,Maharashtra,Nashik,"MIDC Ambad, Nashik - MPCB",06-05-2024 14:00:00,19.950220,73.731480,OZONE,13,87,33
India,Maharashtra,Nashik,"Pandav Nagari, Nashik - MPCB",06-05-2024 14:00:00,19.9591346,73.7788008,PM2.5,32,57,42
India,Maharashtra,Nashik,"Pandav Nagari, Nashik - MPCB",06-05-2024 14:00:00,19.9591346,73.7788008,NH3,2,9,5
India,Maharashtra,Navi Mumbai,"Kopripada-Vashi, Navi Mumbai - MPCB",06-05-2024 14:00:00,19.090337,73.014232,PM2.5,31,302,95
India,Maharashtra,Navi Mumbai,"Kopripada-Vashi, Navi Mumbai - MPCB",06-05-2024 14:00:00,19.090337,73.014232,NH3,4,8,5
India,Maharashtra,Navi Mumbai,"Kopripada-Vashi, Navi Mumbai - MPCB",06-05-2024 14:00:00,19.090337,73.014232,OZONE,1,67,24
India,Maharashtra,Navi Mumbai,"Sanpada, Navi Mumbai - MPCB",06-05-2024 14:00:00,19.0575752,73.0151367,NO2,5,15,9
India,Maharashtra,Navi Mumbai,"Sanpada, Navi Mumbai - MPCB",06-05-2024 14:00:00,19.0575752,73.0151367,SO2,1,4,2
India,Maharashtra,Navi Mumbai,"Sanpada, Navi Mumbai - MPCB",06-05-2024 14:00:00,19.0575752,73.0151367,OZONE,3,138,31
India,Maharashtra,Navi Mumbai,"Sector-19A Nerul, Navi Mumbai - IITM",06-05-2024 14:00:00,19.044,73.0325,NO2,NA,NA,NA
India,Maharashtra,Navi Mumbai,"Sector-19A Nerul, Navi Mumbai - IITM",06-05-2024 14:00:00,19.044,73.0325,OZONE,5,84,34
India,Maharashtra,Navi Mumbai,"Tondare-Taloja, Navi Mumbai - MPCB",06-05-2024 14:00:00,19.0630,73.1209,NO2,NA,NA,NA
India,Maharashtra,Navi Mumbai,"Tondare-Taloja, Navi Mumbai - MPCB",06-05-2024 14:00:00,19.0630,73.1209,SO2,NA,NA,NA
India,Maharashtra,Pimpri-Chinchwad,"Thergaon, Pimpri Chinchwad - MPCB",06-05-2024 14:00:00,18.616318,73.765797,PM2.5,41,131,71
India,Maharashtra,Pune,"Alandi, Pune - IITM",06-05-2024 14:00:00,18.675076,73.892743,CO,27,60,32
India,Maharashtra,Pune,"Alandi, Pune - IITM",06-05-2024 14:00:00,18.675076,73.892743,OZONE,12,75,23
India,Maharashtra,Pune,"Karve Road, Pune - MPCB",06-05-2024 14:00:00,18.5011743,73.8165527,PM2.5,4,451,56
India,Maharashtra,Pune,"Karve Road, Pune - MPCB",06-05-2024 14:00:00,18.5011743,73.8165527,PM10,7,500,83
India,Maharashtra,Pune,"Katraj Dairy, Pune - MPCB",06-05-2024 14:00:00,18.454450,73.854155,PM2.5,25,51,37
India,Maharashtra,Pune,"Katraj Dairy, Pune - MPCB",06-05-2024 14:00:00,18.454450,73.854155,NO2,NA,NA,NA
India,Maharashtra,Pune,"Katraj Dairy, Pune - MPCB",06-05-2024 14:00:00,18.454450,73.854155,OZONE,31,66,37
India,Maharashtra,Pune,"Mhada Colony, Pune - IITM",06-05-2024 14:00:00,18.573040,73.927715,PM10,43,113,72
India,Maharashtra,Pune,"Mhada Colony, Pune - IITM",06-05-2024 14:00:00,18.573040,73.927715,OZONE,3,82,26
India,Maharashtra,Pune,"Revenue Colony-Shivajinagar, Pune - IITM",06-05-2024 14:00:00,18.530085,73.849598,NO2,90,152,128
India,Maharashtra,Pune,"Savitribai Phule Pune University, Pune - MPCB",06-05-2024 14:00:00,18.547056,73.826908,PM2.5,28,73,49
India,Maharashtra,Pune,"Savitribai Phule Pune University, Pune - MPCB",06-05-2024 14:00:00,18.547056,73.826908,CO,10,24,14
India,Maharashtra,Pune,"Transport Nagar-Nigdi, Pune - IITM",06-05-2024 14:00:00,18.664282,73.763966,NO2,2,20,14
India,Maharashtra,Sangli,"Vijay Nagar, Sangli - MPCB",06-05-2024 14:00:00, 16.5038,74.3623,NH3,2,3,2
India,Maharashtra,Solapur,"Ratandeep Housing Society, Solapur - MPCB",06-05-2024 14:00:00,17.65439,75.90649,OZONE,8,164,56
India,Maharashtra,Thane,"Kasarvadavali, Thane - MPCB",06-05-2024 14:00:00,19.26777,72.97182,NO2,9,37,25
India,Maharashtra,Thane,"Pimpleshwar Mandir, Thane - MPCB",06-05-2024 14:00:00,19.192056,72.9585188,NO2,1,13,6
India,Maharashtra,Thane,"Pimpleshwar Mandir, Thane - MPCB",06-05-2024 14:00:00,19.192056,72.9585188,NH3,1,4,2
India,Maharashtra,Thane,"Pimpleshwar Mandir, Thane - MPCB",06-05-2024 14:00:00,19.192056,72.9585188,CO,6,46,28
India,Maharashtra,Thane,"Pimpleshwar Mandir, Thane - MPCB",06-05-2024 14:00:00,19.192056,72.9585188,OZONE,5,47,21
India,Maharashtra,Thane,"Upvan Fort, Thane - MPCB",06-05-2024 14:00:00,19.222279,72.957979,NO2,5,15,8
India,Maharashtra,Thane,"Upvan Fort, Thane - MPCB",06-05-2024 14:00:00,19.222279,72.957979,SO2,8,24,14
India,Maharashtra,Ulhasnagar,"Sidhi Vinayak Nagar, Ulhasnagar - MPCB",06-05-2024 14:00:00,19.235581,73.159121,PM2.5,46,121,66
India,Maharashtra,Ulhasnagar,"Sidhi Vinayak Nagar, Ulhasnagar - MPCB",06-05-2024 14:00:00,19.235581,73.159121,NH3,1,2,1
India,Maharashtra,Ulhasnagar,"Sidhi Vinayak Nagar, Ulhasnagar - MPCB",06-05-2024 14:00:00,19.235581,73.159121,CO,12,40,18
India,Mizoram,Aizawl,"Sikulpuikawn, Aizawl - Mizoram PCB",06-05-2024 14:00:00,23.7176342,92.7192841,PM10,4,65,30
India,Mizoram,Aizawl,"Sikulpuikawn, Aizawl - Mizoram PCB",06-05-2024 14:00:00,23.7176342,92.7192841,NH3,NA,NA,NA
India,Odisha,Angul,"Hakimapada, Angul - OSPCB",06-05-2024 14:00:00,20.832874,85.104082,PM2.5,28,247,98
India,Odisha,Angul,"Hakimapada, Angul - OSPCB",06-05-2024 14:00:00,20.832874,85.104082,NH3,NA,NA,NA
India,Odisha,Balasore,"Kalidaspur, Balasore - OSPCB",06-05-2024 14:00:00,21.51161,86.89088,PM10,24,104,59
India,Odisha,Bhubaneswar,"Lingraj Mandir, Bhubaneswar - OSPCB",06-05-2024 14:00:00,20.240790,85.836784,NH3,1,2,2
India,Odisha,Cuttack,"CDA Area, Cuttack - OSPCB",06-05-2024 14:00:00,20.48891     ,85.84768     ,PM10,51,110,86
India,Odisha,Cuttack,"CDA Area, Cuttack - OSPCB",06-05-2024 14:00:00,20.48891     ,85.84768     ,OZONE,11,78,40
India,Odisha,Keonjhar,"Jagamohanpur, Keonjhar - OSPCB",06-05-2024 14:00:00,21.643900,85.599355,PM10,104,136,116
India,Odisha,Keonjhar,"Jagamohanpur, Keonjhar - OSPCB",06-05-2024 14:00:00,21.643900,85.599355,NH3,1,3,2
India,Odisha,Keonjhar,"Jagamohanpur, Keonjhar - OSPCB",06-05-2024 14:00:00,21.643900,85.599355,CO,14,84,16
India,Odisha,Rairangpur,"Divisional Forest Office, Rairangpur - OSPCB",06-05-2024 14:00:00,22.265816,86.174829,NO2,1,2,1
India,Odisha,Rourkela,"Fertilizer Township, Rourkela - OSPCB",06-05-2024 14:00:00,22.18972222,84.86277778,SO2,9,18,13
India,Odisha,Rourkela,"Raghunathpali, Rourkela - OSPCB",06-05-2024 14:00:00,22.220833,84.809444,PM2.5,130,369,289
India,Odisha,Rourkela,"Raghunathpali, Rourkela - OSPCB",06-05-2024 14:00:00,22.220833,84.809444,OZONE,3,173,70
India,Odisha,Suakati,"OMC Colony, Suakati - OSPCB",06-05-2024 14:00:00,21.606865,85.510538,OZONE,48,246,79
India,Odisha,Tensa,"Barsua Iron Ore Mines, Tensa - OSPCB",06-05-2024 14:00:00,21.869985,85.167016,NH3,NA,NA,NA
India,Puducherry,Puducherry,"Jawahar Nagar, Puducherry - PPCC",06-05-2024 14:00:00,11.9309,79.8027,NO2,2,8,4
India,Puducherry,Puducherry,"Jawahar Nagar, Puducherry - PPCC",06-05-2024 14:00:00,11.9309,79.8027,NH3,2,5,4
India,Puducherry,Puducherry,"Jawahar Nagar, Puducherry - PPCC",06-05-2024 14:00:00,11.9309,79.8027,OZONE,50,87,70
India,Punjab,Amritsar,"Golden Temple, Amritsar - PPCB",06-05-2024 14:00:00,31.620000,74.876512,PM10,74,105,89
India,Punjab,Amritsar,"Golden Temple, Amritsar - PPCB",06-05-2024 14:00:00,31.620000,74.876512,NO2,19,32,26
India,Punjab,Amritsar,"Golden Temple, Amritsar - PPCB",06-05-2024 14:00:00,31.620000,74.876512,CO,4,59,27
India,Punjab,Jalandhar,"Civil Line, Jalandhar - PPCB",06-05-2024 14:00:00,31.321907,75.578914,PM10,67,149,121
India,Punjab,Jalandhar,"Civil Line, Jalandhar - PPCB",06-05-2024 14:00:00,31.321907,75.578914,SO2,9,14,11
India,Punjab,Jalandhar,"Civil Line, Jalandhar - PPCB",06-05-2024 14:00:00,31.321907,75.578914,CO,22,69,46
India,Punjab,Khanna,"Kalal Majra, Khanna - PPCB",06-05-2024 14:00:00,30.736056 ,76.209694,SO2,10,45,25
India,Punjab,Khanna,"Kalal Majra, Khanna - PPCB",06-05-2024 14:00:00,30.736056 ,76.209694,CO,10,46,36
India,Punjab,Mandi Gobindgarh,"RIMT University, Mandi Gobindgarh - PPCB",06-05-2024 14:00:00,30.649961,76.331442,SO2,6,112,33
India,Punjab,Patiala,"Model Town, Patiala - PPCB",06-05-2024 14:00:00,30.349388,76.366642,NH3,6,6,6
India,Punjab,Patiala,"Model Town, Patiala - PPCB",06-05-2024 14:00:00,30.349388,76.366642,CO,20,48,31
India,Rajasthan,Banswara,"Rati Talai, Banswara - RSPCB",06-05-2024 14:00:00,23.555190,74.440010,PM2.5,NA,NA,NA
India,Rajasthan,Banswara,"Rati Talai, Banswara - RSPCB",06-05-2024 14:00:00,23.555190,74.440010,NH3,3,8,5
India,Rajasthan,Banswara,"Rati Talai, Banswara - RSPCB",06-05-2024 14:00:00,23.555190,74.440010,SO2,2,17,8
India,Rajasthan,Baran,"Bamboliya, Baran - RSPCB",06-05-2024 14:00:00,25.106006,76.469948,SO2,7,105,18
India,Rajasthan,Barmer,"Railway Colony, Barmer - RSPCB",06-05-2024 14:00:00,25.747299,71.393989,PM10,91,171,122
India,Rajasthan,Barmer,"Railway Colony, Barmer - RSPCB",06-05-2024 14:00:00,25.747299,71.393989,NO2,2,7,3
India,Rajasthan,Barmer,"Railway Colony, Barmer - RSPCB",06-05-2024 14:00:00,25.747299,71.393989,OZONE,3,131,43
India,Rajasthan,Bharatpur,"Krishna Nagar, Bharatpur - RSPCB",06-05-2024 14:00:00,27.215415,77.50873,PM2.5,92,368,227
India,Rajasthan,Bharatpur,"Krishna Nagar, Bharatpur - RSPCB",06-05-2024 14:00:00,27.215415,77.50873,CO,26,123,56
India,Rajasthan,Bhiwadi,"RIICO Ind. Area III, Bhiwadi - RSPCB",06-05-2024 14:00:00,28.194909,76.862296,SO2,17,78,30
India,Rajasthan,Bhiwadi,"Vasundhara Nagar_UIT, Bhiwadi - RSPCB",06-05-2024 14:00:00,28.207266,76.829265,CO,14,68,32
India,Rajasthan,Bundi,"New Colony, Bundi - RSPCB",06-05-2024 14:00:00,25.435774,75.644272,PM2.5,35,142,63
India,Rajasthan,Chittorgarh,"Shastri Nagar, Chittorgarh - RSPCB",06-05-2024 14:00:00,24.892047,74.623527,NO2,10,68,30
India,Rajasthan,Chittorgarh,"Shastri Nagar, Chittorgarh - RSPCB",06-05-2024 14:00:00,24.892047,74.623527,CO,12,49,15
India,Rajasthan,Dausa,"Khatikan Mohalla, Dausa - RSPCB",06-05-2024 14:00:00,26.895552,76.334753,CO,1,101,55
India,Rajasthan,Dausa,"Khatikan Mohalla, Dausa - RSPCB",06-05-2024 14:00:00,26.895552,76.334753,OZONE,30,193,168
India,Rajasthan,Dungarpur,"Bhoiwada, Dungarpur - RSPCB",06-05-2024 14:00:00,23.837789,73.714926,CO,10,16,13
India,Rajasthan,Jaipur,"Adarsh Nagar, Jaipur - RSPCB",06-05-2024 14:00:00,26.902909,75.836858,NO2,20,148,52
India,Rajasthan,Jaipur,"Adarsh Nagar, Jaipur - RSPCB",06-05-2024 14:00:00,26.902909,75.836858,CO,24,87,37
India,Rajasthan,Jaipur,"Mansarovar Sector-12, Jaipur - RSPCB",06-05-2024 14:00:00,26.843698,75.766894,PM2.5,33,243,82
India,Rajasthan,Jaipur,"Mansarovar Sector-12, Jaipur - RSPCB",06-05-2024 14:00:00,26.843698,75.766894,OZONE,56,149,92
India,Rajasthan,Jaipur,"Police Commissionerate, Jaipur - RSPCB",06-05-2024 14:00:00,26.9164092,75.7994901,PM10,84,187,141
India,Rajasthan,Jaipur,"RIICO Sitapura, Jaipur - RSPCB",06-05-2024 14:00:00,26.786682,75.827928,NO2,3,202,60
India,Rajasthan,Jaipur,"RIICO Sitapura, Jaipur - RSPCB",06-05-2024 14:00:00,26.786682,75.827928,OZONE,2,289,97
India,Rajasthan,Jaipur,"Shastri Nagar, Jaipur - RSPCB",06-05-2024 14:00:00,26.9502929,75.730943,PM10,120,209,155
India,Rajasthan,Jaipur,"Shastri Nagar, Jaipur - RSPCB",06-05-2024 14:00:00,26.9502929,75.730943,SO2,1,54,23
India,Rajasthan,Jaipur,"Shastri Nagar, Jaipur - RSPCB",06-05-2024 14:00:00,26.9502929,75.730943,OZONE,29,89,58
India,Rajasthan,Jaisalmer,"Sadar Bazar, Jaisalmer - RSPCB",06-05-2024 14:00:00,26.912329,70.909168,PM10,84,198,122
India,Rajasthan,Jhalawar,"Rajlaxmi Nagar, Jhalawar - RSPCB",06-05-2024 14:00:00,24.588397,76.172782,SO2,3,14,6
India,Rajasthan,Jhunjhunu,"Indra Nagar, Jhunjhunu - RSPCB",06-05-2024 14:00:00,28.108988,75.386577,OZONE,7,69,43
India,Rajasthan,Jodhpur,"Collectorate, Jodhpur - RSPCB",06-05-2024 14:00:00,26.268249,73.0193853,PM2.5,36,252,128
India,Rajasthan,Jodhpur,"Collectorate, Jodhpur - RSPCB",06-05-2024 14:00:00,26.268249,73.0193853,CO,8,117,48
India,Rajasthan,Jodhpur,"Digari Kalan, Jodhpur - RSPCB",06-05-2024 14:00:00,26.295810,73.082283,PM10,63,192,117
India,Rajasthan,Jodhpur,"Jhalamand, Jodhpur - RSPCB",06-05-2024 14:00:00,26.215415,73.070156,NO2,3,51,17
India,Rajasthan,Jodhpur,"Jhalamand, Jodhpur - RSPCB",06-05-2024 14:00:00,26.215415,73.070156,NH3,4,10,6
India,Rajasthan,Jodhpur,"Samrat Ashok Udhyan, Jodhpur - RSPCB",06-05-2024 14:00:00,26.253384,72.976571,NH3,2,6,3
India,Rajasthan,Jodhpur,"Samrat Ashok Udhyan, Jodhpur - RSPCB",06-05-2024 14:00:00,26.253384,72.976571,SO2,4,22,8
India,Rajasthan,Karauli,"Satyawati Vihar, Karauli - RSPCB",06-05-2024 14:00:00,26.506177,77.025989,NO2,11,63,26
India,Rajasthan,Kota,"Dhanmandi, Kota - RSPCB",06-05-2024 14:00:00,25.164090,75.858137,PM10,74,139,108
India,Rajasthan,Kota,"Dhanmandi, Kota - RSPCB",06-05-2024 14:00:00,25.164090,75.858137,CO,14,46,18
India,Rajasthan,Kota,"Nayapura, Kota - RSPCB",06-05-2024 14:00:00,25.196024,75.855668,SO2,11,21,16
India,Rajasthan,Kota,"Nayapura, Kota - RSPCB",06-05-2024 14:00:00,25.196024,75.855668,CO,13,49,25
India,Rajasthan,Kota,"Nayapura, Kota - RSPCB",06-05-2024 14:00:00,25.196024,75.855668,OZONE,43,170,170
India,Rajasthan,Kota,"Shrinath Puram, Kota - RSPCB",06-05-2024 14:00:00,25.14389,75.821256,PM2.5,27,114,68
India,Rajasthan,Kota,"Shrinath Puram, Kota - RSPCB",06-05-2024 14:00:00,25.14389,75.821256,NO2,14,24,19
India,Rajasthan,Pratapgarh,"Pragati Nagar, Pratapgarh - RSPCB",06-05-2024 14:00:00,24.041198,74.780702,PM10,35,168,77
India,Rajasthan,Pratapgarh,"Pragati Nagar, Pratapgarh - RSPCB",06-05-2024 14:00:00,24.041198,74.780702,NH3,4,6,5
India,Rajasthan,Rajsamand,"Dhoinda, Rajsamand - RSPCB",06-05-2024 14:00:00,25.036360,73.883502,NO2,1,19,9
India,Rajasthan,Sirohi,"Vedhaynath Colony, Sirohi - RSPCB",06-05-2024 14:00:00,24.885261,72.857549,CO,2,28,10
India,Rajasthan,Sirohi,"Vedhaynath Colony, Sirohi - RSPCB",06-05-2024 14:00:00,24.885261,72.857549,OZONE,19,106,56
India,Rajasthan,Tonk,"Shastri Nagar, Tonk - RSPCB",06-05-2024 14:00:00,26.159933,75.780517,PM10,85,289,146
India,Rajasthan,Udaipur,"Ashok Nagar, Udaipur - RSPCB",06-05-2024 14:00:00,24.5886166,73.6321397,CO,3,66,33
India,Sikkim,Gangtok,"Zero Point GICI, Gangtok - SSPCB",06-05-2024 14:00:00,27.338530,88.614099,NO2,1,7,2
India,TamilNadu,Chengalpattu,"Crescent University, Chengalpattu - TNPCB",06-05-2024 14:00:00,12.8777316,80.0834807,PM10,9,9,9
India,TamilNadu,Chennai,"Alandur Bus Depot, Chennai - CPCB",06-05-2024 14:00:00,12.9099161,80.1076538,NH3,7,16,9
India,TamilNadu,Chennai,"Alandur Bus Depot, Chennai - CPCB",06-05-2024 14:00:00,12.9099161,80.1076538,SO2,1,4,2
India,TamilNadu,Chennai,"Alandur Bus Depot, Chennai - CPCB",06-05-2024 14:00:00,12.9099161,80.1076538,OZONE,5,8,6
India,TamilNadu,Chennai,"Kodungaiyur, Chennai - TNPCB",06-05-2024 14:00:00,13.1278,80.2642,OZONE,24,83,68
India,TamilNadu,Chennai,"Manali, Chennai - CPCB",06-05-2024 14:00:00,13.164544,80.26285,PM10,3,95,32
India,TamilNadu,Chennai,"Perungudi, Chennai - TNPCB",06-05-2024 14:00:00,12.9533,80.2357,NO2,2,6,4
India,TamilNadu,Cuddalore,"Kudikadu, Cuddalore - TNPCB",06-05-2024 14:00:00,11.6829898,79.7532099,PM2.5,40,140,79
India,TamilNadu,Gummidipoondi,"Anthoni Pillai Nagar, Gummidipoondi - TNPCB",06-05-2024 14:00:00,13.4127,80.1081,NO2,13,33,23
India,TamilNadu,Ooty,"Bombay Castel, Ooty - TNPCB",06-05-2024 14:00:00,11.4068288,76.7138973,CO,21,22,22
India,TamilNadu,Ooty,"Bombay Castel, Ooty - TNPCB",06-05-2024 14:00:00,11.4068288,76.7138973,OZONE,5,5,5
India,TamilNadu,Palkalaiperur,"Bharathidasan University, Palkalaiperur - TNPCB",06-05-2024 14:00:00,10.681158,78.741746,PM2.5,22,42,34
India,TamilNadu,Salem,"Sona College of Technology, Salem - TNPCB",06-05-2024 14:00:00,11.679111,78.125052,NH3,NA,NA,NA
India,TamilNadu,Thoothukudi,"Meelavittan, Thoothukudi - TNPCB",06-05-2024 14:00:00,8.816428 ,78.099039,PM10,49,99,71
India,TamilNadu,Thoothukudi,"Meelavittan, Thoothukudi - TNPCB",06-05-2024 14:00:00,8.816428 ,78.099039,NO2,29,41,34
India,TamilNadu,Thoothukudi,"Meelavittan, Thoothukudi - TNPCB",06-05-2024 14:00:00,8.816428 ,78.099039,CO,2,130,61
India,TamilNadu,Tirupur,"Kumaran College, Tirupur - TNPCB",06-05-2024 14:00:00,11.0973603,77.3228673,PM10,NA,NA,NA
India,TamilNadu,Tirupur,"Kumaran College, Tirupur - TNPCB",06-05-2024 14:00:00,11.0973603,77.3228673,SO2,NA,NA,NA
India,TamilNadu,Tirupur,"Kumaran College, Tirupur - TNPCB",06-05-2024 14:00:00,11.0973603,77.3228673,CO,28,36,33
India,TamilNadu,Virudhunagar,"Collectorate Office, Virudhunagar - TNPCB",06-05-2024 14:00:00,9.559382,77.948828,SO2,13,18,16
India,Telangana,Hyderabad,"Central University, Hyderabad - TSPCB",06-05-2024 14:00:00,17.460103,78.334361,SO2,5,12,8
India,Telangana,Hyderabad,"ICRISAT Patancheru, Hyderabad - TSPCB",06-05-2024 14:00:00,17.518400,78.278777,PM2.5,43,183,100
India,Telangana,Hyderabad,"ICRISAT Patancheru, Hyderabad - TSPCB",06-05-2024 14:00:00,17.518400,78.278777,PM10,47,150,99
India,Telangana,Hyderabad,"ICRISAT Patancheru, Hyderabad - TSPCB",06-05-2024 14:00:00,17.518400,78.278777,NO2,15,17,16
India,Telangana,Hyderabad,"IITH Kandi, Hyderabad - TSPCB",06-05-2024 14:00:00,17.585705,78.126199,PM10,NA,NA,NA
India,Telangana,Hyderabad,"Kokapet, Hyderabad - TSPCB",06-05-2024 14:00:00,17.393559,78.339194,PM10,NA,NA,NA
India,Telangana,Hyderabad,"Kokapet, Hyderabad - TSPCB",06-05-2024 14:00:00,17.393559,78.339194,SO2,7,8,7
India,Telangana,Hyderabad,"Kompally Municipal Office, Hyderabad - TSPCB",06-05-2024 14:00:00,17.544899,78.486949,PM2.5,45,65,51
India,Telangana,Hyderabad,"Kompally Municipal Office, Hyderabad - TSPCB",06-05-2024 14:00:00,17.544899,78.486949,OZONE,2,81,44
India,Telangana,Hyderabad,"New Malakpet, Hyderabad - TSPCB",06-05-2024 14:00:00,17.37206,78.50864,PM2.5,18,91,46
India,Telangana,Hyderabad,"New Malakpet, Hyderabad - TSPCB",06-05-2024 14:00:00,17.37206,78.50864,PM10,58,109,72
India,Telangana,Hyderabad,"New Malakpet, Hyderabad - TSPCB",06-05-2024 14:00:00,17.37206,78.50864,NH3,2,3,3
India,Telangana,Hyderabad,"New Malakpet, Hyderabad - TSPCB",06-05-2024 14:00:00,17.37206,78.50864,SO2,8,15,10
India,Telangana,Hyderabad,"Sanathnagar, Hyderabad - TSPCB",06-05-2024 14:00:00,17.4559458,78.4332152,OZONE,1,146,48
India,Telangana,Hyderabad,"Somajiguda, Hyderabad - TSPCB",06-05-2024 14:00:00,17.417094,78.457437,PM10,NA,NA,NA
India,Tripura,Agartala,"Bardowali, Agartala - Tripura SPCB",06-05-2024 14:00:00,23.8175497,91.2726974,PM2.5,NA,NA,NA
India,Tripura,Agartala,"Bardowali, Agartala - Tripura SPCB",06-05-2024 14:00:00,23.8175497,91.2726974,NH3,NA,NA,NA
India,Tripura,Agartala,"Bardowali, Agartala - Tripura SPCB",06-05-2024 14:00:00,23.8175497,91.2726974,OZONE,16,35,28
India,Uttar_Pradesh,Agra,"Rohta, Agra - UPPCB",06-05-2024 14:00:00,27.106972,78.000111,NO2,4,4,4
India,Uttar_Pradesh,Agra,"Sanjay Palace, Agra - UPPCB",06-05-2024 14:00:00,27.19865833,78.00598056,NO2,22,46,33
India,Uttar_Pradesh,Agra,"Sector-3B Avas Vikas Colony, Agra - UPPCB",06-05-2024 14:00:00,27.19412,77.96237,SO2,9,15,11
India,Uttar_Pradesh,Agra,"Sector-3B Avas Vikas Colony, Agra - UPPCB",06-05-2024 14:00:00,27.19412,77.96237,OZONE,10,16,12
India,Uttar_Pradesh,Agra,"Shahjahan Garden, Agra - UPPCB",06-05-2024 14:00:00,27.169338,78.03582,PM10,67,201,118
India,Uttar_Pradesh,Agra,"Shahjahan Garden, Agra - UPPCB",06-05-2024 14:00:00,27.169338,78.03582,CO,10,42,24
India,Uttar_Pradesh,Agra,"Shastripuram, Agra - UPPCB",06-05-2024 14:00:00,27.19862,77.92066,PM2.5,NA,NA,NA
India,Uttar_Pradesh,Agra,"Shastripuram, Agra - UPPCB",06-05-2024 14:00:00,27.19862,77.92066,CO,6,26,19
India,Uttar_Pradesh,Baghpat,"Sardar Patel Inter College, Baghpat - UPPCB",06-05-2024 14:00:00,28.964949,77.278761,OZONE,14,119,77
India,Uttar_Pradesh,Bareilly,"Civil Lines, Bareilly - UPPCB",06-05-2024 14:00:00,28.359581,79.414455,PM2.5,NA,NA,NA
India,Uttar_Pradesh,Bareilly,"Civil Lines, Bareilly - UPPCB",06-05-2024 14:00:00,28.359581,79.414455,PM10,NA,NA,NA
India,Uttar_Pradesh,Bareilly,"Civil Lines, Bareilly - UPPCB",06-05-2024 14:00:00,28.359581,79.414455,CO,12,74,31
India,Uttar_Pradesh,Bareilly,"Civil Lines, Bareilly - UPPCB",06-05-2024 14:00:00,28.359581,79.414455,OZONE,2,26,13
India,Uttar_Pradesh,Bareilly,"Rajendra Nagar, Bareilly - UPPCB",06-05-2024 14:00:00,28.38910936,79.42963708,CO,10,98,30
India,Uttar_Pradesh,Bulandshahr,"Yamunapuram, Bulandshahr - UPPCB",06-05-2024 14:00:00,28.406963,77.849831,NO2,12,162,63
India,Uttar_Pradesh,Firozabad,"Nagla Bhau, Firozabad - UPPCB",06-05-2024 14:00:00,27.168897,78.376960,SO2,21,33,28
India,Uttar_Pradesh,Firozabad,"Vibhab Nagar, Firozabad - UPPCB",06-05-2024 14:00:00,27.1594,78.3953,NO2,12,14,14
India,Uttar_Pradesh,Ghaziabad,"Loni, Ghaziabad - UPPCB",06-05-2024 14:00:00,28.757294,77.278792,OZONE,19,148,88
India,Uttar_Pradesh,Ghaziabad,"Sanjay Nagar, Ghaziabad - UPPCB",06-05-2024 14:00:00,28.685382,77.453839,PM2.5,60,347,212
India,Uttar_Pradesh,Ghaziabad,"Sanjay Nagar, Ghaziabad - UPPCB",06-05-2024 14:00:00,28.685382,77.453839,PM10,123,313,210
India,Uttar_Pradesh,Ghaziabad,"Vasundhara, Ghaziabad - UPPCB",06-05-2024 14:00:00,28.6603346,77.3572563,NO2,25,102,56
India,Uttar_Pradesh,Ghaziabad,"Vasundhara, Ghaziabad - UPPCB",06-05-2024 14:00:00,28.6603346,77.3572563,OZONE,37,255,111
India,Uttar_Pradesh,Gorakhpur,"Madan Mohan Malaviya University of Technology, Gorakhpur - UPPCB",06-05-2024 14:00:00,26.730136,83.433859,CO,4,32,9
India,Uttar_Pradesh,Gorakhpur,"Madan Mohan Malaviya University of Technology, Gorakhpur - UPPCB",06-05-2024 14:00:00,26.730136,83.433859,OZONE,13,81,28
India,Uttar_Pradesh,Greater Noida,"Knowledge Park - III, Greater Noida - UPPCB",06-05-2024 14:00:00,28.47272,77.482000,SO2,3,62,29
India,Uttar_Pradesh,Greater Noida,"Knowledge Park - V, Greater Noida - UPPCB",06-05-2024 14:00:00,28.557054,77.453663,PM2.5,74,268,149
India,Uttar_Pradesh,Greater Noida,"Knowledge Park - V, Greater Noida - UPPCB",06-05-2024 14:00:00,28.557054,77.453663,OZONE,33,214,169
India,Uttar_Pradesh,Hapur,"Anand Vihar, Hapur - UPPCB",06-05-2024 14:00:00,28.725645,77.749675,SO2,14,91,44
India,Uttar_Pradesh,Jhansi,"Shivaji Nagar, Jhansi - UPPCB",06-05-2024 14:00:00,25.4547,78.6039,PM2.5,19,79,45
India,Uttar_Pradesh,Jhansi,"Shivaji Nagar, Jhansi - UPPCB",06-05-2024 14:00:00,25.4547,78.6039,OZONE,8,99,47
India,Uttar_Pradesh,Kanpur,"FTI Kidwai Nagar, Kanpur - UPPCB",06-05-2024 14:00:00,26.428282,80.327067,NO2,16,113,21
India,Uttar_Pradesh,Kanpur,"FTI Kidwai Nagar, Kanpur - UPPCB",06-05-2024 14:00:00,26.428282,80.327067,SO2,24,34,31
India,Uttar_Pradesh,Kanpur,"NSI Kalyanpur, Kanpur - UPPCB",06-05-2024 14:00:00,26.509954,80.249612,SO2,21,35,25
India,Uttar_Pradesh,Kanpur,"NSI Kalyanpur, Kanpur - UPPCB",06-05-2024 14:00:00,26.509954,80.249612,CO,32,64,49
India,Uttar_Pradesh,Kanpur,"Nehru Nagar, Kanpur - UPPCB",06-05-2024 14:00:00,26.4703136,80.3229863,NO2,4,52,23
India,Uttar_Pradesh,Kanpur,"Nehru Nagar, Kanpur - UPPCB",06-05-2024 14:00:00,26.4703136,80.3229863,OZONE,20,168,115
India,Uttar_Pradesh,Khurja,"Kalindi Kunj, Khurja - UPPCB",06-05-2024 14:00:00,28.2348927,77.8683002,PM2.5,62,345,158
India,Uttar_Pradesh,Khurja,"Kalindi Kunj, Khurja - UPPCB",06-05-2024 14:00:00,28.2348927,77.8683002,NH3,1,2,2
India,Uttar_Pradesh,Khurja,"Kalindi Kunj, Khurja - UPPCB",06-05-2024 14:00:00,28.2348927,77.8683002,CO,40,82,66
India,Uttar_Pradesh,Lucknow,"B R Ambedkar University, Lucknow - UPPCB",06-05-2024 14:00:00,26.766433,80.927299,NO2,11,12,11
India,Uttar_Pradesh,Lucknow,"Gomti Nagar, Lucknow - UPPCB",06-05-2024 14:00:00,26.868120,81.005119,PM2.5,65,300,137
India,Uttar_Pradesh,Lucknow,"Gomti Nagar, Lucknow - UPPCB",06-05-2024 14:00:00,26.868120,81.005119,PM10,74,174,114
India,Uttar_Pradesh,Lucknow,"Gomti Nagar, Lucknow - UPPCB",06-05-2024 14:00:00,26.868120,81.005119,OZONE,34,45,37
India,Uttar_Pradesh,Lucknow,"Kendriya Vidyalaya, Lucknow - CPCB",06-05-2024 14:00:00,26.906111,80.948222,OZONE,7,74,44
India,Uttar_Pradesh,Lucknow,"Kukrail Picnic Spot-1, Lucknow - UPPCB",06-05-2024 14:00:00,26.90723,80.98579,SO2,29,33,31
India,Uttar_Pradesh,Lucknow,"Lalbagh, Lucknow - CPCB",06-05-2024 14:00:00,26.8458805,80.9365541,PM10,138,240,176
India,Uttar_Pradesh,Lucknow,"Lalbagh, Lucknow - CPCB",06-05-2024 14:00:00,26.8458805,80.9365541,NH3,19,27,21
India,Uttar_Pradesh,Lucknow,"Talkatora District Industries Center, Lucknow - CPCB",06-05-2024 14:00:00,26.83399722,80.8917361,NH3,8,34,20
India,Uttar_Pradesh,Meerut,"Ganga Nagar, Meerut - UPPCB",06-05-2024 14:00:00,28.999264,77.7590354,NO2,22,65,37
India,Uttar_Pradesh,Meerut,"Ganga Nagar, Meerut - UPPCB",06-05-2024 14:00:00,28.999264,77.7590354,OZONE,39,152,90
India,Uttar_Pradesh,Meerut,"Jai Bhim Nagar, Meerut - UPPCB",06-05-2024 14:00:00,28.9535882,77.7622941,NH3,3,8,5
India,Uttar_Pradesh,Meerut,"Pallavpuram Phase 2, Meerut - UPPCB",06-05-2024 14:00:00,29.063510,77.709723,PM2.5,65,375,219
India,Uttar_Pradesh,Meerut,"Pallavpuram Phase 2, Meerut - UPPCB",06-05-2024 14:00:00,29.063510,77.709723,PM10,137,345,211
India,Uttar_Pradesh,Meerut,"Pallavpuram Phase 2, Meerut - UPPCB",06-05-2024 14:00:00,29.063510,77.709723,SO2,14,48,32
India,Uttar_Pradesh,Meerut,"Pallavpuram Phase 2, Meerut - UPPCB",06-05-2024 14:00:00,29.063510,77.709723,OZONE,12,74,46
India,Uttar_Pradesh,Moradabad,"Buddhi Vihar, Moradabad - UPPCB",06-05-2024 14:00:00,28.83526,78.74460,PM2.5,38,322,92
India,Uttar_Pradesh,Moradabad,"Eco Herbal Park, Moradabad - UPPCB",06-05-2024 14:00:00,28.840739,78.697531,PM2.5,34,257,86
India,Uttar_Pradesh,Moradabad,"Eco Herbal Park, Moradabad - UPPCB",06-05-2024 14:00:00,28.840739,78.697531,CO,8,107,67
India,Uttar_Pradesh,Moradabad,"Employment Office, Moradabad - UPPCB",06-05-2024 14:00:00,28.88528,78.73880,NH3,3,4,4
India,Uttar_Pradesh,Moradabad,"Jigar Colony, Moradabad - UPPCB",06-05-2024 14:00:00,28.856664,78.772638,PM2.5,33,268,73
India,Uttar_Pradesh,Moradabad,"Kashiram Nagar, Moradabad - UPPCB",06-05-2024 14:00:00,28.849399,78.742362,NO2,3,4,4
India,Uttar_Pradesh,Moradabad,"Kashiram Nagar, Moradabad - UPPCB",06-05-2024 14:00:00,28.849399,78.742362,NH3,4,4,4
India,Uttar_Pradesh,Moradabad,"Kashiram Nagar, Moradabad - UPPCB",06-05-2024 14:00:00,28.849399,78.742362,OZONE,12,120,43
India,Uttar_Pradesh,Moradabad,"Transport Nagar, Moradabad - UPPCB",06-05-2024 14:00:00,28.802625,78.753728,CO,40,44,41
India,Uttar_Pradesh,Muzaffarnagar,"New Mandi, Muzaffarnagar - UPPCB",06-05-2024 14:00:00,29.4723508,77.7194031,NH3,9,11,10
India,Uttar_Pradesh,Muzaffarnagar,"New Mandi, Muzaffarnagar - UPPCB",06-05-2024 14:00:00,29.4723508,77.7194031,SO2,7,65,34
India,Uttar_Pradesh,Noida,"Sector - 125, Noida - UPPCB",06-05-2024 14:00:00,28.5447608,77.3231257,PM10,103,303,165
India,Uttar_Pradesh,Noida,"Sector - 125, Noida - UPPCB",06-05-2024 14:00:00,28.5447608,77.3231257,NO2,8,95,45
India,Uttar_Pradesh,Noida,"Sector - 125, Noida - UPPCB",06-05-2024 14:00:00,28.5447608,77.3231257,OZONE,7,244,217
India,Uttar_Pradesh,Noida,"Sector - 62, Noida - IMD",06-05-2024 14:00:00,28.6245479,77.3577104,OZONE,4,44,30
India,Uttar_Pradesh,Noida,"Sector-116, Noida - UPPCB",06-05-2024 14:00:00,28.569230,77.393848,CO,26,76,49
India,Uttar_Pradesh,Noida,"Sector-116, Noida - UPPCB",06-05-2024 14:00:00,28.569230,77.393848,OZONE,20,136,80
India,Uttar_Pradesh,Prayagraj,"Jhunsi, Prayagraj - UPPCB",06-05-2024 14:00:00,25.425602,81.917152,SO2,30,32,31
India,Uttar_Pradesh,Prayagraj,"Jhunsi, Prayagraj - UPPCB",06-05-2024 14:00:00,25.425602,81.917152,CO,5,83,31
India,Uttar_Pradesh,Prayagraj,"Motilal Nehru NIT, Prayagraj - UPPCB",06-05-2024 14:00:00,25.494,81.863,CO,8,102,46
India,Uttar_Pradesh,Prayagraj,"Motilal Nehru NIT, Prayagraj - UPPCB",06-05-2024 14:00:00,25.494,81.863,OZONE,2,55,27
India,Uttar_Pradesh,Varanasi,"Ardhali Bazar, Varanasi - UPPCB",06-05-2024 14:00:00,25.3505986,82.9083074,PM2.5,15,121,54
India,Uttar_Pradesh,Varanasi,"Ardhali Bazar, Varanasi - UPPCB",06-05-2024 14:00:00,25.3505986,82.9083074,NO2,14,48,25
India,Uttar_Pradesh,Varanasi,"Bhelupur, Varanasi - UPPCB",06-05-2024 14:00:00,25.301778,82.996789,PM10,NA,NA,NA
India,Uttar_Pradesh,Varanasi,"IESD Banaras Hindu University, Varanasi - UPPCB",06-05-2024 14:00:00,25.262326,82.995408,PM2.5,NA,NA,NA
India,Uttar_Pradesh,Varanasi,"IESD Banaras Hindu University, Varanasi - UPPCB",06-05-2024 14:00:00,25.262326,82.995408,OZONE,1,4,1
India,Uttar_Pradesh,Varanasi,"Maldahiya, Varanasi - UPPCB",06-05-2024 14:00:00,25.32393,82.99687,SO2,NA,NA,NA
India,Uttar_Pradesh,Vrindavan,"Omex Eternity, Vrindavan - UPPCB",06-05-2024 14:00:00,27.5714090,77.6557570,NH3,1,2,1
India,Uttarakhand,Dehradun,"Doon University, Dehradun - UKPCB",06-05-2024 14:00:00,30.269444,78.044167,PM10,86,196,132
India,Uttarakhand,Dehradun,"Doon University, Dehradun - UKPCB",06-05-2024 14:00:00,30.269444,78.044167,SO2,2,6,3
India,Uttarakhand,Dehradun,"Doon University, Dehradun - UKPCB",06-05-2024 14:00:00,30.269444,78.044167,OZONE,26,184,184
India,Uttarakhand,Kashipur,"Govt. Girls Inter College, Kashipur - UKPCB",06-05-2024 14:00:00,29.2124114,78.9611753,NO2,16,37,25
India,Uttarakhand,Kashipur,"Govt. Girls Inter College, Kashipur - UKPCB",06-05-2024 14:00:00,29.2124114,78.9611753,NH3,4,9,6
India,Uttarakhand,Rishikesh,"Shivaji Nagar, Rishikesh - UKPCB",06-05-2024 14:00:00,30.075911,78.2859547,PM2.5,65,304,142
India,Uttarakhand,Rishikesh,"Shivaji Nagar, Rishikesh - UKPCB",06-05-2024 14:00:00,30.075911,78.2859547,OZONE,11,141,53
India,West_Bengal,Asansol,"Asansol Court Area, Asansol - WBPCB",06-05-2024 14:00:00,23.685297,86.945968,PM10,88,167,125
India,West_Bengal,Asansol,"Asansol Court Area, Asansol - WBPCB",06-05-2024 14:00:00,23.685297,86.945968,SO2,5,12,6
India,West_Bengal,Asansol,"Asansol Court Area, Asansol - WBPCB",06-05-2024 14:00:00,23.685297,86.945968,CO,18,59,25
India,West_Bengal,Asansol,"Asansol Court Area, Asansol - WBPCB",06-05-2024 14:00:00,23.685297,86.945968,OZONE,14,74,42
India,West_Bengal,Barrackpore,"SVSPA Campus, Barrackpore - WBPCB",06-05-2024 14:00:00,22.7605581,88.3617589,PM2.5,22,111,54
India,West_Bengal,Barrackpore,"SVSPA Campus, Barrackpore - WBPCB",06-05-2024 14:00:00,22.7605581,88.3617589,SO2,7,11,8
India,West_Bengal,Durgapur,"PCBL Residential Complex, Durgapur - WBPCB",06-05-2024 14:00:00,23.5087640,87.3544400,SO2,5,12,7
India,West_Bengal,Haldia,"Priyambada Housing Estate, Haldia - WBPCB",06-05-2024 14:00:00,22.06047,88.109737,PM10,15,62,40
India,West_Bengal,Howrah,"Belur Math, Howrah - WBPCB",06-05-2024 14:00:00,22.629801,88.352017,NO2,5,11,8
India,West_Bengal,Howrah,"Belur Math, Howrah - WBPCB",06-05-2024 14:00:00,22.629801,88.352017,SO2,3,8,7
India,West_Bengal,Howrah,"Padmapukur, Howrah - WBPCB",06-05-2024 14:00:00,22.5687319,88.2797276,NO2,7,27,9
India,West_Bengal,Howrah,"Padmapukur, Howrah - WBPCB",06-05-2024 14:00:00,22.5687319,88.2797276,CO,12,61,25
India,West_Bengal,Howrah,"Padmapukur, Howrah - WBPCB",06-05-2024 14:00:00,22.5687319,88.2797276,OZONE,10,29,14
India,West_Bengal,Kolkata,"Bidhannagar, Kolkata - WBPCB",06-05-2024 14:00:00,22.58157048,88.41002457,NO2,14,19,16
India,West_Bengal,Kolkata,"Bidhannagar, Kolkata - WBPCB",06-05-2024 14:00:00,22.58157048,88.41002457,CO,19,24,23
India,West_Bengal,Kolkata,"Jadavpur, Kolkata - WBPCB",06-05-2024 14:00:00,22.49929,88.36917,PM10,34,95,55
India,West_Bengal,Kolkata,"Jadavpur, Kolkata - WBPCB",06-05-2024 14:00:00,22.49929,88.36917,NH3,NA,NA,NA
India,West_Bengal,Kolkata,"Victoria, Kolkata - WBPCB",06-05-2024 14:00:00,22.5448082,88.3403691,NO2,11,31,17
India,West_Bengal,Siliguri,"Ward-32 Bapupara, Siliguri - WBPCB",06-05-2024 14:00:00,26.6879226,88.4152495,PM2.5,42,66,52
India,West_Bengal,Siliguri,"Ward-32 Bapupara, Siliguri - WBPCB",06-05-2024 14:00:00,26.6879226,88.4152495,SO2,7,8,7
India,West_Bengal,Siliguri,"Ward-32 Bapupara, Siliguri - WBPCB",06-05-2024 14:00:00,26.6879226,88.4152495,OZONE,33,54,49
India,Andhra_Pradesh,Amaravati,"Secretariat, Amaravati - APPCB",06-05-2024 14:00:00,16.5150833,80.5181667,PM10,30,150,68
India,Andhra_Pradesh,Amaravati,"Secretariat, Amaravati - APPCB",06-05-2024 14:00:00,16.5150833,80.5181667,SO2,6,11,8
India,Andhra_Pradesh,Anantapur,"Gulzarpet, Anantapur - APPCB",06-05-2024 14:00:00,14.675886,77.593027,NO2,12,13,13
India,Andhra_Pradesh,Chittoor,"Gangineni Cheruvu, Chittoor - APPCB",06-05-2024 14:00:00,13.204880,79.097889,PM2.5,NA,NA,NA
India,Andhra_Pradesh,Kadapa,"Yerramukkapalli, Kadapa - APPCB",06-05-2024 14:00:00,14.465052,78.824187,PM10,32,148,62
India,Andhra_Pradesh,Kadapa,"Yerramukkapalli, Kadapa - APPCB",06-05-2024 14:00:00,14.465052,78.824187,NO2,12,13,13
India,Andhra_Pradesh,Tirupati,"Tirumala, Tirupati - APPCB",06-05-2024 14:00:00,13.67,79.35,PM10,47,272,79
India,Andhra_Pradesh,Tirupati,"Tirumala, Tirupati - APPCB",06-05-2024 14:00:00,13.67,79.35,NH3,1,3,1
India,Andhra_Pradesh,Tirupati,"Tirumala, Tirupati - APPCB",06-05-2024 14:00:00,13.67,79.35,SO2,1,9,5
India,Andhra_Pradesh,Tirupati,"Vaikuntapuram, Tirupati - APPCB",06-05-2024 14:00:00,13.615387,79.409230,OZONE,7,48,24
India,Andhra_Pradesh,Vijayawada,"HB Colony, Vijayawada - APPCB",06-05-2024 14:00:00,16.536107,80.594233,NH3,4,4,4
India,Andhra_Pradesh,Vijayawada,"HB Colony, Vijayawada - APPCB",06-05-2024 14:00:00,16.536107,80.594233,SO2,5,7,6
India,Andhra_Pradesh,Vijayawada,"Rajiv Gandhi Park, Vijayawada - APPCB",06-05-2024 14:00:00,16.509717,80.612222,SO2,7,8,7
India,Andhra_Pradesh,Visakhapatnam,"GVM Corporation, Visakhapatnam - APPCB",06-05-2024 14:00:00,17.72,83.3,PM2.5,13,55,38
India,Assam,Byrnihat,"Central Academy for SFS, Byrnihat - PCBA",06-05-2024 14:00:00,26.071318,91.87488,PM2.5,NA,NA,NA
India,Assam,Byrnihat,"Central Academy for SFS, Byrnihat - PCBA",06-05-2024 14:00:00,26.071318,91.87488,PM10,NA,NA,NA
India,Assam,Byrnihat,"Central Academy for SFS, Byrnihat - PCBA",06-05-2024 14:00:00,26.071318,91.87488,SO2,2,12,8
India,Assam,Byrnihat,"Central Academy for SFS, Byrnihat - PCBA",06-05-2024 14:00:00,26.071318,91.87488,CO,20,58,25
India,Assam,Guwahati,"IITG, Guwahati - PCBA",06-05-2024 14:00:00,26.2028636,91.70046436,NH3,5,5,5
India,Assam,Guwahati,"Pan Bazaar, Guwahati - PCBA",06-05-2024 14:00:00,26.187500,91.744194,SO2,26,37,31
India,Assam,Guwahati,"Railway Colony, Guwahati - PCBA",06-05-2024 14:00:00,26.181742,91.78063,SO2,6,11,8
India,Assam,Nagaon,"Christianpatty, Nagaon - PCBA",06-05-2024 14:00:00,26.349082,92.68449,PM2.5,60,88,72
India,Assam,Nagaon,"Christianpatty, Nagaon - PCBA",06-05-2024 14:00:00,26.349082,92.68449,PM10,67,93,78
India,Assam,Nalbari,"Bata Chowk, Nalbari - PCBA",06-05-2024 14:00:00,26.446912,91.439057,PM10,45,85,62
India,Assam,Sivasagar,"Girls College, Sivasagar - PCBA",06-05-2024 14:00:00,26.987634,94.636574,NH3,1,3,2
India,Assam,Sivasagar,"Girls College, Sivasagar - PCBA",06-05-2024 14:00:00,26.987634,94.636574,OZONE,1,19,7
India,Bihar,Araria,"Kharahiya Basti, Araria - BSPCB",06-05-2024 14:00:00,26.146529,87.454184,PM10,NA,NA,NA
India,Bihar,Araria,"Kharahiya Basti, Araria - BSPCB",06-05-2024 14:00:00,26.146529,87.454184,CO,12,30,20
India,Bihar,Arrah,"New DM Office, Arrah - BSPCB",06-05-2024 14:00:00,25.5626095,84.663264,NO2,1,22,4
India,Bihar,Arrah,"New DM Office, Arrah - BSPCB",06-05-2024 14:00:00,25.5626095,84.663264,NH3,10,22,15
India,Bihar,Aurangabad,"Gurdeo Nagar, Aurangabad - BSPCB",06-05-2024 14:00:00,24.75746,84.366208,NO2,3,13,5
India,Bihar,Bettiah,"Kamalnath Nagar, Bettiah - BSPCB",06-05-2024 14:00:00,26.80365,84.51954,PM10,77,188,129
India,Bihar,Bettiah,"Kamalnath Nagar, Bettiah - BSPCB",06-05-2024 14:00:00,26.80365,84.51954,NO2,28,29,28
India,Bihar,Bhagalpur,"DM Office_Kachari Chowk, Bhagalpur - BSPCB",06-05-2024 14:00:00,25.251013,86.989001,NO2,40,76,53
India,Bihar,Bhagalpur,"Mayaganj, Bhagalpur - BSPCB",06-05-2024 14:00:00,25.265194,87.012947,NO2,4,9,7
India,Bihar,Bihar Sharif,"D M Colony, Bihar Sharif - BSPCB",06-05-2024 14:00:00,25.204762,85.514960,PM10,54,188,105
India,Bihar,Bihar Sharif,"D M Colony, Bihar Sharif - BSPCB",06-05-2024 14:00:00,25.204762,85.514960,CO,39,70,57
India,Bihar,Buxar,"Charitra Van, Buxar - BSPCB (Formerly known as Central Jail)",06-05-2024 14:00:00,25.567520,83.966379,NO2,1,1,1
India,Bihar,Buxar,"Charitra Van, Buxar - BSPCB (Formerly known as Central Jail)",06-05-2024 14:00:00,25.567520,83.966379,CO,30,151,67
India,Bihar,Chhapra,"Darshan Nagar, Chhapra - BSPCB",06-05-2024 14:00:00,25.7808257,84.7446768,PM2.5,57,306,121
India,Bihar,Chhapra,"Darshan Nagar, Chhapra - BSPCB",06-05-2024 14:00:00,25.7808257,84.7446768,OZONE,1,13,3
India,Bihar,Gaya,"Kareemganj, Gaya - BSPCB",06-05-2024 14:00:00,24.792403,84.992416,PM2.5,20,187,61
India,Bihar,Gaya,"Kareemganj, Gaya - BSPCB",06-05-2024 14:00:00,24.792403,84.992416,PM10,37,146,68
India,Bihar,Gaya,"Kareemganj, Gaya - BSPCB",06-05-2024 14:00:00,24.792403,84.992416,CO,8,28,24
India,Bihar,Hajipur,"Industrial Area, Hajipur - BSPCB",06-05-2024 14:00:00,25.697189,85.245900,PM2.5,38,136,80
India,Bihar,Katihar,"Mirchaibari, Katihar - BSPCB",06-05-2024 14:00:00,25.560083,87.553265,PM2.5,NA,NA,NA
India,Bihar,Motihari,"Gandak Colony, Motihari - BSPCB",06-05-2024 14:00:00,26.63086,84.90051,PM2.5,NA,NA,NA
India,Bihar,Motihari,"Gandak Colony, Motihari - BSPCB",06-05-2024 14:00:00,26.63086,84.90051,CO,2,8,5
India,Bihar,Munger,"Town Hall, Munger - BSPCB",06-05-2024 14:00:00,25.376776,86.471523,PM2.5,50,180,106
India,Bihar,Munger,"Town Hall, Munger - BSPCB",06-05-2024 14:00:00,25.376776,86.471523,PM10,61,145,109
India,Bihar,Munger,"Town Hall, Munger - BSPCB",06-05-2024 14:00:00,25.376776,86.471523,NO2,4,6,5
India,Bihar,Muzaffarpur,"Buddha Colony, Muzaffarpur - BSPCB",06-05-2024 14:00:00,26.11442,85.39813,PM2.5,90,286,185
India,Bihar,Muzaffarpur,"Buddha Colony, Muzaffarpur - BSPCB",06-05-2024 14:00:00,26.11442,85.39813,NH3,15,19,17
India,Bihar,Muzaffarpur,"Buddha Colony, Muzaffarpur - BSPCB",06-05-2024 14:00:00,26.11442,85.39813,CO,24,45,24
India,Bihar,Muzaffarpur,"MIT-Daudpur Kothi, Muzaffarpur - BSPCB",06-05-2024 14:00:00,26.1403345,85.3650192,PM10,NA,NA,NA
India,Bihar,Muzaffarpur,"MIT-Daudpur Kothi, Muzaffarpur - BSPCB",06-05-2024 14:00:00,26.1403345,85.3650192,NO2,4,6,5
India,Bihar,Muzaffarpur,"MIT-Daudpur Kothi, Muzaffarpur - BSPCB",06-05-2024 14:00:00,26.1403345,85.3650192,CO,12,114,27
India,Bihar,Patna,"DRM Office Danapur, Patna - BSPCB",06-05-2024 14:00:00,25.586562,85.043586,SO2,9,21,13
India,Bihar,Patna,"DRM Office Danapur, Patna - BSPCB",06-05-2024 14:00:00,25.586562,85.043586,CO,34,84,41
India,Bihar,Patna,"DRM Office Danapur, Patna - BSPCB",06-05-2024 14:00:00,25.586562,85.043586,OZONE,14,32,23
India,Bihar,Patna,"Govt. High School Shikarpur, Patna - BSPCB",06-05-2024 14:00:00,25.592539,85.227158,NO2,18,22,21
India,Bihar,Patna,"Govt. High School Shikarpur, Patna - BSPCB",06-05-2024 14:00:00,25.592539,85.227158,SO2,9,11,10
India,Bihar,Patna,"IGSC Planetarium Complex, Patna - BSPCB",06-05-2024 14:00:00,25.610369,85.132568,NO2,11,11,11
India,Bihar,Patna,"Rajbansi Nagar, Patna - BSPCB",06-05-2024 14:00:00,25.599486,85.113666,PM2.5,65,311,164
India,Bihar,Patna,"Samanpura, Patna - BSPCB",06-05-2024 14:00:00,25.596727,85.085624,NO2,12,124,22
India,Bihar,Purnia,"Mariam Nagar, Purnia - BSPCB",06-05-2024 14:00:00,25.366336,87.117468,OZONE,2,10,6
India,Bihar,Saharsa,"Police Line, Saharsa - BSPCB",06-05-2024 14:00:00,25.892357,86.590325,SO2,16,16,16
India,Bihar,Samastipur,"DM Office_Kasipur, Samastipur - BSPCB",06-05-2024 14:00:00,25.859655,85.77944,PM10,33,161,86
India,Bihar,Samastipur,"DM Office_Kasipur, Samastipur - BSPCB",06-05-2024 14:00:00,25.859655,85.77944,NO2,3,10,5
India,Bihar,Sasaram,"Dada Peer, Sasaram - BSPCB",06-05-2024 14:00:00,24.952822,84.002396,PM10,65,156,107
India,Bihar,Sasaram,"Dada Peer, Sasaram - BSPCB",06-05-2024 14:00:00,24.952822,84.002396,NH3,7,24,16
India,Chandigarh,Chandigarh,"Sector 22, Chandigarh - CPCC",06-05-2024 14:00:00,30.735567,76.775714,PM10,115,257,146
India,Chandigarh,Chandigarh,"Sector 22, Chandigarh - CPCC",06-05-2024 14:00:00,30.735567,76.775714,CO,31,59,45
India,Chandigarh,Chandigarh,"Sector-25, Chandigarh - CPCC",06-05-2024 14:00:00,30.751462,76.762879,SO2,8,20,13
India,Chandigarh,Chandigarh,"Sector-53, Chandigarh - CPCC",06-05-2024 14:00:00,30.719859,76.738637,PM2.5,47,167,105
India,Chandigarh,Chandigarh,"Sector-53, Chandigarh - CPCC",06-05-2024 14:00:00,30.719859,76.738637,PM10,97,185,142
India,Chandigarh,Chandigarh,"Sector-53, Chandigarh - CPCC",06-05-2024 14:00:00,30.719859,76.738637,NO2,7,41,20
India,Chandigarh,Chandigarh,"Sector-53, Chandigarh - CPCC",06-05-2024 14:00:00,30.719859,76.738637,OZONE,30,68,52
India,Chhattisgarh,Bhilai,"32Bungalows, Bhilai - CECB",06-05-2024 14:00:00,21.194815,81.314770,PM10,80,115,99
India,Chhattisgarh,Bhilai,"32Bungalows, Bhilai - CECB",06-05-2024 14:00:00,21.194815,81.314770,NH3,6,6,6
India,Chhattisgarh,Bhilai,"Civic Center, Bhilai - Bhilai Steel Plant",06-05-2024 14:00:00,21.185571,81.343175,NH3,4,5,4
India,Chhattisgarh,Bhilai,"Hathkhoj, Bhilai - CECB",06-05-2024 14:00:00,21.224231,81.408350,NO2,12,48,22
India,Chhattisgarh,Bhilai,"Hathkhoj, Bhilai - CECB",06-05-2024 14:00:00,21.224231,81.408350,OZONE,19,32,28
India,Chhattisgarh,Bilaspur,"Mangala, Bilaspur - NTPC",06-05-2024 14:00:00,22.08815,82.13737,PM10,50,103,66
India,Chhattisgarh,Chhal,"Nawapara SECL Colony, Chhal - CECB",06-05-2024 14:00:00,22.118125,83.140608,PM2.5,87,154,114
India,Chhattisgarh,Chhal,"Nawapara SECL Colony, Chhal - CECB",06-05-2024 14:00:00,22.118125,83.140608,NH3,2,2,2
India,Chhattisgarh,Chhal,"Nawapara SECL Colony, Chhal - CECB",06-05-2024 14:00:00,22.118125,83.140608,SO2,20,82,40
India,Chhattisgarh,Korba,"Rampur, Korba - CECB",06-05-2024 14:00:00,22.368195,82.746431,PM2.5,36,204,71
India,Chhattisgarh,Korba,"Rampur, Korba - CECB",06-05-2024 14:00:00,22.368195,82.746431,CO,19,79,42
India,Chhattisgarh,Korba,"Urja Nagar, Korba - CECB",06-05-2024 14:00:00,22.348441,82.549611,PM10,NA,NA,NA
India,Chhattisgarh,Korba,"Urja Nagar, Korba - CECB",06-05-2024 14:00:00,22.348441,82.549611,SO2,3,11,5
India,Chhattisgarh,Raipur,"Siltara Phase-II, Raipur - CECB",06-05-2024 14:00:00,21.371751,81.664929,NO2,27,74,55
India,Chhattisgarh,Raipur,"Siltara Phase-II, Raipur - CECB",06-05-2024 14:00:00,21.371751,81.664929,OZONE,5,63,15
India,Chhattisgarh,Tumidih,"OP Jindal Industrial Park, Tumidih - CECB",06-05-2024 14:00:00,22.06631475,83.33820077,PM2.5,NA,NA,NA
India,Chhattisgarh,Tumidih,"OP Jindal Industrial Park, Tumidih - CECB",06-05-2024 14:00:00,22.06631475,83.33820077,SO2,NA,NA,NA
India,Delhi,Delhi,"Alipur, Delhi - DPCC",06-05-2024 14:00:00,28.815329,77.153010,SO2,10,70,26
India,Delhi,Delhi,"Alipur, Delhi - DPCC",06-05-2024 14:00:00,28.815329,77.153010,CO,32,72,47
India,Delhi,Delhi,"Anand Vihar, Delhi - DPCC",06-05-2024 14:00:00,28.647622,77.3158090,SO2,12,75,31
India,Delhi,Delhi,"Anand Vihar, Delhi - DPCC",06-05-2024 14:00:00,28.647622,77.3158090,OZONE,7,116,54
India,Delhi,Delhi,"Ashok Vihar, Delhi - DPCC",06-05-2024 14:00:00,28.695381,77.181665,PM2.5,60,369,210
India,Delhi,Delhi,"Ashok Vihar, Delhi - DPCC",06-05-2024 14:00:00,28.695381,77.181665,NH3,10,20,16
India,Delhi,Delhi,"Ashok Vihar, Delhi - DPCC",06-05-2024 14:00:00,28.695381,77.181665,SO2,15,70,35
India,Delhi,Delhi,"Aya Nagar, Delhi - IMD",06-05-2024 14:00:00,28.4706914,77.1099364,PM2.5,142,332,258
India,Delhi,Delhi,"Aya Nagar, Delhi - IMD",06-05-2024 14:00:00,28.4706914,77.1099364,OZONE,21,70,53
India,Delhi,Delhi,"Bawana, Delhi - DPCC",06-05-2024 14:00:00,28.776200,77.051074,PM10,155,461,284
India,Delhi,Delhi,"Bawana, Delhi - DPCC",06-05-2024 14:00:00,28.776200,77.051074,NH3,4,6,5
India,Delhi,Delhi,"Bawana, Delhi - DPCC",06-05-2024 14:00:00,28.776200,77.051074,CO,4,69,37
India,Delhi,Delhi,"Bawana, Delhi - DPCC",06-05-2024 14:00:00,28.776200,77.051074,OZONE,12,145,80
India,Delhi,Delhi,"Burari Crossing, Delhi - IMD",06-05-2024 14:00:00,28.7256504,77.2011573,CO,25,61,42
India,Delhi,Delhi,"Chandni Chowk, Delhi - IITM",06-05-2024 14:00:00,28.656756,77.227234,NH3,18,56,38
India,Delhi,Delhi,"DTU, Delhi - CPCB",06-05-2024 14:00:00,28.7500499,77.1112615,NH3,1,6,2
India,Delhi,Delhi,"DTU, Delhi - CPCB",06-05-2024 14:00:00,28.7500499,77.1112615,SO2,37,54,42
India,Delhi,Delhi,"Dr. Karni Singh Shooting Range, Delhi - DPCC",06-05-2024 14:00:00,28.498571,77.264840,OZONE,1,270,158
India,Delhi,Delhi,"IHBAS, Dilshad Garden, Delhi - CPCB",06-05-2024 14:00:00,28.6811736,77.3025234,NH3,9,10,10
India,Delhi,Delhi,"IHBAS, Dilshad Garden, Delhi - CPCB",06-05-2024 14:00:00,28.6811736,77.3025234,OZONE,10,15,14
India,Delhi,Delhi,"ITO, Delhi - CPCB",06-05-2024 14:00:00,28.628624,77.241060,NH3,3,6,4
India,Delhi,Delhi,"ITO, Delhi - CPCB",06-05-2024 14:00:00,28.628624,77.241060,CO,26,86,54
India,Delhi,Delhi,"Jawaharlal Nehru Stadium, Delhi - DPCC",06-05-2024 14:00:00,28.580280,77.233829,PM2.5,51,336,157
India,Delhi,Delhi,"Jawaharlal Nehru Stadium, Delhi - DPCC",06-05-2024 14:00:00,28.580280,77.233829,OZONE,2,260,227
India,Delhi,Delhi,"Lodhi Road, Delhi - IITM",06-05-2024 14:00:00,28.588333,77.221667,SO2,16,55,28
India,Delhi,Delhi,"Major Dhyan Chand National Stadium, Delhi - DPCC",06-05-2024 14:00:00,28.611281,77.237738,PM10,116,413,206
India,Delhi,Delhi,"Major Dhyan Chand National Stadium, Delhi - DPCC",06-05-2024 14:00:00,28.611281,77.237738,SO2,19,70,33
India,Delhi,Delhi,"Major Dhyan Chand National Stadium, Delhi - DPCC",06-05-2024 14:00:00,28.611281,77.237738,CO,2,72,48
India,Delhi,Delhi,"Mundka, Delhi - DPCC",06-05-2024 14:00:00,28.684678,77.076574,PM2.5,68,486,277
India,Delhi,Delhi,"Mundka, Delhi - DPCC",06-05-2024 14:00:00,28.684678,77.076574,NH3,3,6,4
India,Delhi,Delhi,"Mundka, Delhi - DPCC",06-05-2024 14:00:00,28.684678,77.076574,OZONE,11,225,98
India,Delhi,Delhi,"NSIT Dwarka, Delhi - CPCB",06-05-2024 14:00:00,28.60909,77.0325413,OZONE,13,102,58
India,Delhi,Delhi,"Najafgarh, Delhi - DPCC",06-05-2024 14:00:00,28.570173,76.933762,NH3,6,13,9
India,Delhi,Delhi,"Najafgarh, Delhi - DPCC",06-05-2024 14:00:00,28.570173,76.933762,CO,24,78,49
India,Delhi,Delhi,"Nehru Nagar, Delhi - DPCC",06-05-2024 14:00:00,28.567890,77.250515,NO2,8,28,16
India,Delhi,Delhi,"New Moti Bagh, Delhi - MHUA",06-05-2024 14:00:00,28.57834,77.18400,NO2,6,42,20
India,Delhi,Delhi,"Okhla Phase-2, Delhi - DPCC",06-05-2024 14:00:00,28.530785,77.271255,PM10,138,395,224
India,Delhi,Delhi,"Okhla Phase-2, Delhi - DPCC",06-05-2024 14:00:00,28.530785,77.271255,NO2,40,154,97
India,Delhi,Delhi,"Okhla Phase-2, Delhi - DPCC",06-05-2024 14:00:00,28.530785,77.271255,SO2,12,16,14
India,Delhi,Delhi,"Patparganj, Delhi - DPCC",06-05-2024 14:00:00,28.623763,77.287209,NO2,NA,NA,NA
India,Delhi,Delhi,"Punjabi Bagh, Delhi - DPCC",06-05-2024 14:00:00,28.674045,77.131023,NH3,4,6,5
India,Delhi,Delhi,"Pusa, Delhi - DPCC",06-05-2024 14:00:00,28.639652,77.146275,PM10,151,445,278
India,Delhi,Delhi,"Pusa, Delhi - DPCC",06-05-2024 14:00:00,28.639652,77.146275,CO,8,98,36
India,Delhi,Delhi,"Pusa, Delhi - IMD",06-05-2024 14:00:00,28.636110,77.173332,PM2.5,81,416,292
India,Delhi,Delhi,"Pusa, Delhi - IMD",06-05-2024 14:00:00,28.636110,77.173332,OZONE,7,53,33
India,Delhi,Delhi,"R K Puram, Delhi - DPCC",06-05-2024 14:00:00,28.563262,77.186937,PM2.5,91,376,232
India,Delhi,Delhi,"R K Puram, Delhi - DPCC",06-05-2024 14:00:00,28.563262,77.186937,PM10,138,411,238
India,Delhi,Delhi,"R K Puram, Delhi - DPCC",06-05-2024 14:00:00,28.563262,77.186937,OZONE,15,242,189
India,Delhi,Delhi,"Rohini, Delhi - DPCC",06-05-2024 14:00:00,28.732528,77.119920,OZONE,15,200,176
India,Delhi,Delhi,"Shadipur, Delhi - CPCB",06-05-2024 14:00:00,28.6514781,77.1473105,SO2,3,25,19
India,Delhi,Delhi,"Shadipur, Delhi - CPCB",06-05-2024 14:00:00,28.6514781,77.1473105,OZONE,18,49,31
India,Delhi,Delhi,"Sirifort, Delhi - CPCB",06-05-2024 14:00:00,28.5504249,77.2159377,PM10,131,363,205
India,Delhi,Delhi,"Sirifort, Delhi - CPCB",06-05-2024 14:00:00,28.5504249,77.2159377,SO2,14,33,19
India,Delhi,Delhi,"Sirifort, Delhi - CPCB",06-05-2024 14:00:00,28.5504249,77.2159377,CO,14,127,72
India,Delhi,Delhi,"Sonia Vihar, Delhi - DPCC",06-05-2024 14:00:00,28.710508,77.249485,NH3,4,7,6
India,Delhi,Delhi,"Sonia Vihar, Delhi - DPCC",06-05-2024 14:00:00,28.710508,77.249485,OZONE,6,137,75
India,Delhi,Delhi,"Vivek Vihar, Delhi - DPCC",06-05-2024 14:00:00,28.672342,77.315260,NH3,15,16,16
India,Delhi,Delhi,"Wazirpur, Delhi - DPCC",06-05-2024 14:00:00,28.699793,77.165453,NO2,29,132,67
India,Delhi,Delhi,"Wazirpur, Delhi - DPCC",06-05-2024 14:00:00,28.699793,77.165453,NH3,8,16,13
India,Gujarat,Ahmedabad,"Chandkheda, Ahmedabad - IITM",06-05-2024 14:00:00,23.107969,72.574648,NO2,48,52,49
India,Gujarat,Ahmedabad,"Chandkheda, Ahmedabad - IITM",06-05-2024 14:00:00,23.107969,72.574648,NH3,3,3,3
India,Gujarat,Ahmedabad,"Chandkheda, Ahmedabad - IITM",06-05-2024 14:00:00,23.107969,72.574648,CO,12,49,37
India,Gujarat,Ahmedabad,"Maninagar, Ahmedabad - GPCB",06-05-2024 14:00:00,23.002657,72.591912,NO2,21,42,34
India,Gujarat,Ahmedabad,"Maninagar, Ahmedabad - GPCB",06-05-2024 14:00:00,23.002657,72.591912,OZONE,22,105,66
India,Gujarat,Ahmedabad,"Raikhad, Ahmedabad - IITM",06-05-2024 14:00:00,23.020509,72.579261,NH3,2,3,3
India,Gujarat,Ahmedabad,"Raikhad, Ahmedabad - IITM",06-05-2024 14:00:00,23.020509,72.579261,CO,16,35,24
India,Gujarat,Ahmedabad,"SAC ISRO Satellite, Ahmedabad - IITM",06-05-2024 14:00:00,23.023389,72.515201,NH3,3,3,3
India,Gujarat,Ahmedabad,"SVPI Airport Hansol, Ahmedabad - IITM",06-05-2024 14:00:00,23.076793,72.627874,PM2.5,27,46,36
India,Gujarat,Ahmedabad,"Sardar Vallabhbhai Patel Stadium, Ahmedabad - IITM",06-05-2024 14:00:00,23.043070,72.562968,PM2.5,54,83,70
India,Gujarat,Ahmedabad,"Sardar Vallabhbhai Patel Stadium, Ahmedabad - IITM",06-05-2024 14:00:00,23.043070,72.562968,NH3,1,2,1
India,Gujarat,Ahmedabad,"Sardar Vallabhbhai Patel Stadium, Ahmedabad - IITM",06-05-2024 14:00:00,23.043070,72.562968,SO2,4,8,7
India,Gujarat,Ahmedabad,"Sardar Vallabhbhai Patel Stadium, Ahmedabad - IITM",06-05-2024 14:00:00,23.043070,72.562968,CO,34,44,41
India,Gujarat,Ankleshwar,"GIDC, Ankleshwar - GPCB",06-05-2024 14:00:00,21.613267,73.010555,PM10,NA,NA,NA
India,Gujarat,Ankleshwar,"GIDC, Ankleshwar - GPCB",06-05-2024 14:00:00,21.613267,73.010555,SO2,6,45,17
India,Gujarat,Ankleshwar,"GIDC, Ankleshwar - GPCB",06-05-2024 14:00:00,21.613267,73.010555,OZONE,21,34,26
India,Gujarat,Gandhinagar,"Sector-10, Gandhinagar - GPCB",06-05-2024 14:00:00,23.221714,72.654328,PM2.5,16,58,36
India,Gujarat,Gandhinagar,"Sector-10, Gandhinagar - GPCB",06-05-2024 14:00:00,23.221714,72.654328,OZONE,6,35,20
India,Gujarat,Vatva,"Phase-4 GIDC, Vatva - GPCB",06-05-2024 14:00:00,22.969611,72.643500,PM10,93,93,93
India,Haryana,Ambala,"Patti Mehar, Ambala - HSPCB",06-05-2024 14:00:00,30.379589,76.778328,PM10,65,102,87
India,Haryana,Ambala,"Patti Mehar, Ambala - HSPCB",06-05-2024 14:00:00,30.379589,76.778328,NH3,8,8,8
India,Haryana,Ambala,"Patti Mehar, Ambala - HSPCB",06-05-2024 14:00:00,30.379589,76.778328,SO2,30,37,33
India,Haryana,Bahadurgarh,"Arya Nagar, Bahadurgarh - HSPCB",06-05-2024 14:00:00,28.6701,76.9254,PM2.5,61,391,234
India,Haryana,Bahadurgarh,"Arya Nagar, Bahadurgarh - HSPCB",06-05-2024 14:00:00,28.6701,76.9254,SO2,16,112,44
India,Haryana,Ballabgarh,"Nathu Colony, Ballabgarh - HSPCB",06-05-2024 14:00:00,28.3419248,77.319699,CO,12,66,38
India,Haryana,Charkhi Dadri,"Mini Secretariat, Charkhi Dadri - HSPCB",06-05-2024 14:00:00,28.593883,76.270653,NH3,6,8,7
India,Haryana,Charkhi Dadri,"Mini Secretariat, Charkhi Dadri - HSPCB",06-05-2024 14:00:00,28.593883,76.270653,OZONE,14,18,16
India,Haryana,Faridabad,"New Industrial Town, Faridabad - HSPCB",06-05-2024 14:00:00,28.39072,77.30059,NO2,2,16,12
India,Haryana,Faridabad,"New Industrial Town, Faridabad - HSPCB",06-05-2024 14:00:00,28.39072,77.30059,NH3,1,4,3
India,Haryana,Fatehabad,"Huda Sector, Fatehabad - HSPCB",06-05-2024 14:00:00,29.503664,75.467934,SO2,11,11,11
India,Haryana,Fatehabad,"Huda Sector, Fatehabad - HSPCB",06-05-2024 14:00:00,29.503664,75.467934,OZONE,54,74,66
India,Haryana,Gurugram,"Sector-51, Gurugram - HSPCB",06-05-2024 14:00:00,28.4227,77.0667,NO2,13,29,23
India,Haryana,Gurugram,"Teri Gram, Gurugram - HSPCB",06-05-2024 14:00:00,28.4275,77.1465,OZONE,7,35,7
India,Haryana,Gurugram,"Vikas Sadan, Gurugram - HSPCB",06-05-2024 14:00:00,28.4501238,77.0263051,CO,55,152,106
India,Haryana,Hisar,"Urban Estate-II, Hisar - HSPCB",06-05-2024 14:00:00,29.140560,75.744941,NH3,8,10,9
India,Haryana,Hisar,"Urban Estate-II, Hisar - HSPCB",06-05-2024 14:00:00,29.140560,75.744941,CO,25,76,29
India,Haryana,Kaithal,"Rishi Nagar, Kaithal - HSPCB",06-05-2024 14:00:00,29.8006,76.4155,PM2.5,NA,NA,NA
India,Haryana,Kaithal,"Rishi Nagar, Kaithal - HSPCB",06-05-2024 14:00:00,29.8006,76.4155,SO2,NA,NA,NA
India,Haryana,Kurukshetra,"Sector-7, Kurukshetra - HSPCB",06-05-2024 14:00:00,29.966942,76.875879,SO2,2,3,2
India,Haryana,Mandikhera,"General Hospital, Mandikhera - HSPCB",06-05-2024 14:00:00,27.9002,76.9938,NH3,16,19,18
India,Haryana,Manesar,"Sector-2 IMT, Manesar - HSPCB",06-05-2024 14:00:00,28.360699,76.936090,PM10,86,228,146
India,Haryana,Manesar,"Sector-2 IMT, Manesar - HSPCB",06-05-2024 14:00:00,28.360699,76.936090,SO2,6,38,12
India,Haryana,Narnaul,"Shastri Nagar, Narnaul - HSPCB",06-05-2024 14:00:00,28.060249,76.113115,NH3,5,26,15
India,Haryana,Palwal,"Shyam Nagar, Palwal - HSPCB",06-05-2024 14:00:00,28.1485564,77.3320667,PM2.5,49,99,71
India,Haryana,Palwal,"Shyam Nagar, Palwal - HSPCB",06-05-2024 14:00:00,28.1485564,77.3320667,SO2,1,17,9
India,Haryana,Panchkula,"Sector-6, Panchkula - HSPCB ",06-05-2024 14:00:00,30.7057778,76.8531805555555,CO,1,12,8
India,Haryana,Yamuna Nagar,"Gobind Pura, Yamuna Nagar - HSPCB",06-05-2024 14:00:00,30.1480566,77.2893471,PM2.5,NA,NA,NA
India,Himachal Pradesh,Baddi,"HIMUDA Complex Phase-1, Baddi - HPPCB",06-05-2024 14:00:00,30.943887,76.801991,NO2,5,42,21
India,Himachal Pradesh,Baddi,"HIMUDA Complex Phase-1, Baddi - HPPCB",06-05-2024 14:00:00,30.943887,76.801991,CO,8,48,24
India,Jharkhand,Dhanbad,"Kalakusuma, Dhanbad - DMC",06-05-2024 14:00:00,23.811548,86.481238,NO2,66,76,69
India,Jharkhand,Dhanbad,"Sardar Patel Nagar, Dhanbad - JSPCB",06-05-2024 14:00:00,23.80569,86.44268,NO2,NA,NA,NA
India,Karnataka,Belgaum,"Ramteerth Nagar, Belgaum - KSPCB",06-05-2024 14:00:00,15.888653,74.541751,SO2,8,9,8
India,Karnataka,Bengaluru,"BTM Layout, Bengaluru - CPCB",06-05-2024 14:00:00,12.9135218,77.5950804,PM2.5,33,99,38
India,Karnataka,Bengaluru,"BTM Layout, Bengaluru - CPCB",06-05-2024 14:00:00,12.9135218,77.5950804,SO2,NA,NA,NA
India,Karnataka,Bengaluru,"BTM Layout, Bengaluru - CPCB",06-05-2024 14:00:00,12.9135218,77.5950804,CO,21,29,25
India,Karnataka,Bengaluru,"Bapuji Nagar, Bengaluru - KSPCB",06-05-2024 14:00:00,12.951913,77.539784,PM10,45,159,78
India,Karnataka,Bengaluru,"Bapuji Nagar, Bengaluru - KSPCB",06-05-2024 14:00:00,12.951913,77.539784,OZONE,26,32,27
India,Karnataka,Bengaluru,"Hombegowda Nagar, Bengaluru - KSPCB",06-05-2024 14:00:00,12.938539,77.590100,PM2.5,26,71,42
India,Karnataka,Bengaluru,"Kasturi Nagar, Bengaluru - KSPCB",06-05-2024 14:00:00,13.003872,77.664217,CO,22,26,24
India,Karnataka,Bengaluru,"Kasturi Nagar, Bengaluru - KSPCB",06-05-2024 14:00:00,13.003872,77.664217,OZONE,5,115,51
India,Karnataka,Bengaluru,"Peenya, Bengaluru - CPCB",06-05-2024 14:00:00,13.0270199,77.494094,PM2.5,30,57,43
India,Karnataka,Bengaluru,"Peenya, Bengaluru - CPCB",06-05-2024 14:00:00,13.0270199,77.494094,PM10,39,73,55
India,Karnataka,Bengaluru,"Peenya, Bengaluru - CPCB",06-05-2024 14:00:00,13.0270199,77.494094,SO2,7,14,11
India,Karnataka,Bengaluru,"Peenya, Bengaluru - CPCB",06-05-2024 14:00:00,13.0270199,77.494094,OZONE,14,49,26
India,Karnataka,Bengaluru,"RVCE-Mailasandra, Bengaluru - KSPCB",06-05-2024 14:00:00,12.921418,77.502466,PM10,61,147,82
India,Karnataka,Bengaluru,"RVCE-Mailasandra, Bengaluru - KSPCB",06-05-2024 14:00:00,12.921418,77.502466,SO2,7,11,9
India,Karnataka,Bengaluru,"Shivapura_Peenya, Bengaluru - KSPCB",06-05-2024 14:00:00,13.0246342,77.5080115,SO2,4,18,8
India,Karnataka,Bengaluru,"Shivapura_Peenya, Bengaluru - KSPCB",06-05-2024 14:00:00,13.0246342,77.5080115,CO,14,56,32
India,Karnataka,Bengaluru,"Silk Board, Bengaluru - KSPCB",06-05-2024 14:00:00,12.917348,77.622813,PM10,92,163,122
India,Karnataka,Bengaluru,"Silk Board, Bengaluru - KSPCB",06-05-2024 14:00:00,12.917348,77.622813,NO2,12,34,21
India,Karnataka,Chamarajanagar,"Urban, Chamarajanagar - KSPCB",06-05-2024 14:00:00,11.55358,76.55521,PM2.5,20,49,31
India,Karnataka,Chamarajanagar,"Urban, Chamarajanagar - KSPCB",06-05-2024 14:00:00,11.55358,76.55521,CO,16,27,23
India,Karnataka,Chamarajanagar,"Urban, Chamarajanagar - KSPCB",06-05-2024 14:00:00,11.55358,76.55521,OZONE,14,37,30
India,Karnataka,Chikkaballapur,"Chikkaballapur Rural, Chikkaballapur - KSPCB",06-05-2024 14:00:00,13.428828,77.731418,PM2.5,31,109,60
India,Karnataka,Chikkaballapur,"Chikkaballapur Rural, Chikkaballapur - KSPCB",06-05-2024 14:00:00,13.428828,77.731418,SO2,22,34,27
India,Karnataka,Chikkaballapur,"Chikkaballapur Rural, Chikkaballapur - KSPCB",06-05-2024 14:00:00,13.428828,77.731418,OZONE,24,25,25
India,Karnataka,Davanagere,"Devaraj Urs Badavane, Davanagere - KSPCB",06-05-2024 14:00:00,14.475800,75.905200,PM2.5,37,71,58
India,Karnataka,Davanagere,"Devaraj Urs Badavane, Davanagere - KSPCB",06-05-2024 14:00:00,14.475800,75.905200,CO,15,24,18
India,Karnataka,Dharwad,"Kalabhavan, Dharwad - KSPCB",06-05-2024 14:00:00,15.459706,75.008381,PM10,62,476,117
India,Karnataka,Dharwad,"Kalabhavan, Dharwad - KSPCB",06-05-2024 14:00:00,15.459706,75.008381,CO,22,60,36
India,Karnataka,Gadag,"Panchal Nagar, Gadag - KSPCB",06-05-2024 14:00:00,15.411456,75.638133,OZONE,33,97,49
India,Karnataka,Haveri,"Ashwini Nagar, Haveri - KSPCB",06-05-2024 14:00:00,14.791800,75.389600,PM2.5,NA,NA,NA
India,Karnataka,Haveri,"Ashwini Nagar, Haveri - KSPCB",06-05-2024 14:00:00,14.791800,75.389600,NH3,NA,NA,NA
India,Karnataka,Haveri,"Ashwini Nagar, Haveri - KSPCB",06-05-2024 14:00:00,14.791800,75.389600,SO2,NA,NA,NA
India,Karnataka,Kalaburagi,"Lal Bahadur Shastri Nagar, Kalaburagi - KSPCB",06-05-2024 14:00:00,17.321993,76.822628,NH3,1,2,2
India,Karnataka,Kalaburagi,"Lal Bahadur Shastri Nagar, Kalaburagi - KSPCB",06-05-2024 14:00:00,17.321993,76.822628,SO2,23,25,24
India,Karnataka,Kalaburagi,"Mahatma Basaveswar Colony, Kalaburgi - KSPCB",06-05-2024 14:00:00,17.336318,76.847397,PM10,36,96,52
India,Karnataka,Kalaburagi,"Mahatma Basaveswar Colony, Kalaburgi - KSPCB",06-05-2024 14:00:00,17.336318,76.847397,NO2,13,17,14
India,Karnataka,Kalaburagi,"Mahatma Basaveswar Colony, Kalaburgi - KSPCB",06-05-2024 14:00:00,17.336318,76.847397,NH3,3,4,3
India,Karnataka,Karwar,"KHB Colony, Karwar - KSPCB",06-05-2024 14:00:00,14.816666,74.141003,OZONE,21,22,22
India,Karnataka,Kolar,"Tamaka Ind. Area, Kolar - KSPCB",06-05-2024 14:00:00,13.1276288,78.1570122,NH3,3,7,4
India,Karnataka,Madikeri,"Stuart Hill, Madikeri - KSPCB",06-05-2024 14:00:00,12.415911,75.735050,PM10,18,45,29
India,Karnataka,Mangalore,"Kadri, Mangalore - KSPCB",06-05-2024 14:00:00,12.889250,74.853000,PM10,NA,NA,NA
India,Karnataka,Mangalore,"Kadri, Mangalore - KSPCB",06-05-2024 14:00:00,12.889250,74.853000,CO,36,41,39
India,Karnataka,Mysuru,"Hebbal 1st Stage, Mysuru - KSPCB",06-05-2024 14:00:00,12.21041,76.37376,PM2.5,18,43,29
India,Karnataka,Raichur,"Haji Colony, Raichur - KSPCB",06-05-2024 14:00:00,16.208139,77.348417,CO,102,120,103
India,Karnataka,Ramanagara,"Vijay Nagar, Ramanagara - KSPCB",06-05-2024 14:00:00,12.733409,77.298051,PM2.5,NA,NA,NA
India,Karnataka,Ramanagara,"Vijay Nagar, Ramanagara - KSPCB",06-05-2024 14:00:00,12.733409,77.298051,NO2,NA,NA,NA
