country,state,city,station,last_update,latitude,longitude,pollutant_id,pollutant_min,pollutant_max,pollutant_avg
India,Andhra_Pradesh,Amaravati,"Secretariat, Amaravati - APPCB",19-02-2024 03:00:00,16.5150833,80.5181667,SO2,14,18,15
India,Andhra_Pradesh,Amaravati,"Secretariat, Amaravati - APPCB",19-02-2024 03:00:00,16.5150833,80.5181667,OZONE,2,51,14
India,Andhra_Pradesh,Anantapur,"Gulzarpet, Anantapur - APPCB",19-02-2024 03:00:00,14.675886,77.593027,SO2,1,10,5
India,Andhra_Pradesh,Anantapur,"Gulzarpet, Anantapur - APPCB",19-02-2024 03:00:00,14.675886,77.593027,CO,14,94,57
India,Andhra_Pradesh,Chittoor,"Gangineni Cheruvu, Chittoor - APPCB",19-02-2024 03:00:00,13.204880,79.097889,PM10,54,71,62
India,Andhra_Pradesh,Kadapa,"Yerramukkapalli, Kadapa - APPCB",19-02-2024 03:00:00,14.465052,78.824187,PM2.5,43,339,147
India,Andhra_Pradesh,Kadapa,"Yerramukkapalli, Kadapa - APPCB",19-02-2024 03:00:00,14.465052,78.824187,NO2,8,8,8
India,Andhra_Pradesh,Rajamahendravaram,"Anand Kala Kshetram, Rajamahendravaram - APPCB",19-02-2024 03:00:00,16.9872867,81.7363176,PM2.5,43,119,71
India,Andhra_Pradesh,Rajamahendravaram,"Anand Kala Kshetram, Rajamahendravaram - APPCB",19-02-2024 03:00:00,16.9872867,81.7363176,NH3,3,6,4
India,Andhra_Pradesh,Tirupati,"Tirumala, Tirupati - APPCB",19-02-2024 03:00:00,13.67,79.35,SO2,1,21,11
India,Andhra_Pradesh,Tirupati,"Tirumala, Tirupati - APPCB",19-02-2024 03:00:00,13.67,79.35,CO,30,68,41
India,Andhra_Pradesh,Vijayawada,"HB Colony, Vijayawada - APPCB",19-02-2024 03:00:00,16.536107,80.594233,PM2.5,42,204,72
India,Andhra_Pradesh,Vijayawada,"HB Colony, Vijayawada - APPCB",19-02-2024 03:00:00,16.536107,80.594233,PM10,38,155,71
India,Andhra_Pradesh,Vijayawada,"HB Colony, Vijayawada - APPCB",19-02-2024 03:00:00,16.536107,80.594233,CO,21,30,22
India,Andhra_Pradesh,Vijayawada,"HB Colony, Vijayawada - APPCB",19-02-2024 03:00:00,16.536107,80.594233,OZONE,1,61,15
India,Andhra_Pradesh,Vijayawada,"Kanuru, Vijayawada - APPCB",19-02-2024 03:00:00,16.486692,80.699436,NO2,NA,NA,NA
India,Andhra_Pradesh,Vijayawada,"Rajiv Gandhi Park, Vijayawada - APPCB",19-02-2024 03:00:00,16.509717,80.612222,NH3,3,7,6
India,Arunachal_Pradesh,Naharlagun,"Naharlagun, Naharlagun - APSPCB",19-02-2024 03:00:00,27.103358,93.679645,CO,13,38,25
India,Assam,Guwahati,"IITG, Guwahati - PCBA",19-02-2024 03:00:00,26.2028636,91.70046436,CO,15,21,19
India,Assam,Guwahati,"LGBI Airport, Guwahati - PCBA",19-02-2024 03:00:00,26.10887,91.589544,NO2,9,83,32
India,Assam,Guwahati,"LGBI Airport, Guwahati - PCBA",19-02-2024 03:00:00,26.10887,91.589544,NH3,1,7,3
India,Assam,Guwahati,"LGBI Airport, Guwahati - PCBA",19-02-2024 03:00:00,26.10887,91.589544,SO2,13,13,13
India,Assam,Guwahati,"Railway Colony, Guwahati - PCBA",19-02-2024 03:00:00,26.181742,91.78063,PM2.5,NA,NA,NA
India,Assam,Guwahati,"Railway Colony, Guwahati - PCBA",19-02-2024 03:00:00,26.181742,91.78063,CO,31,94,72
India,Assam,Nagaon,"Christianpatty, Nagaon - PCBA",19-02-2024 03:00:00,26.349082,92.68449,SO2,6,20,14
India,Assam,Nagaon,"Christianpatty, Nagaon - PCBA",19-02-2024 03:00:00,26.349082,92.68449,OZONE,3,138,55
India,Assam,Nalbari,"Bata Chowk, Nalbari - PCBA",19-02-2024 03:00:00,26.446912,91.439057,PM2.5,237,368,315
India,Assam,Silchar,"Tarapur, Silchar - PCBA",19-02-2024 03:00:00,24.82827,92.79525,NO2,30,47,39
India,Assam,Silchar,"Tarapur, Silchar - PCBA",19-02-2024 03:00:00,24.82827,92.79525,NH3,1,1,1
India,Assam,Silchar,"Tarapur, Silchar - PCBA",19-02-2024 03:00:00,24.82827,92.79525,OZONE,NA,NA,NA
India,Bihar,Araria,"Kharahiya Basti, Araria - BSPCB",19-02-2024 03:00:00,26.146529,87.454184,SO2,11,17,15
India,Bihar,Arrah,"New DM Office, Arrah - BSPCB",19-02-2024 03:00:00,25.5626095,84.663264,CO,3,14,9
India,Bihar,Aurangabad,"Gurdeo Nagar, Aurangabad - BSPCB",19-02-2024 03:00:00,24.75746,84.366208,SO2,1,11,6
India,Bihar,Bettiah,"Kamalnath Nagar, Bettiah - BSPCB",19-02-2024 03:00:00,26.80365,84.51954,OZONE,1,11,1
India,Bihar,Bhagalpur,"Mayaganj, Bhagalpur - BSPCB",19-02-2024 03:00:00,25.265194,87.012947,PM2.5,95,369,276
India,Bihar,Bhagalpur,"Mayaganj, Bhagalpur - BSPCB",19-02-2024 03:00:00,25.265194,87.012947,PM10,70,209,141
India,Bihar,Bihar Sharif,"D M Colony, Bihar Sharif - BSPCB",19-02-2024 03:00:00,25.204762,85.514960,NO2,9,10,9
India,Bihar,Buxar,"Charitra Van, Buxar - BSPCB (Formerly known as Central Jail)",19-02-2024 03:00:00,25.567520,83.966379,OZONE,5,183,35
India,Bihar,Chhapra,"Darshan Nagar, Chhapra - BSPCB",19-02-2024 03:00:00,25.7808257,84.7446768,SO2,19,112,67
India,Bihar,Gaya,"Collectorate, Gaya - BSPCB",19-02-2024 03:00:00,24.7955,84.9994,SO2,4,28,11
India,Bihar,Gaya,"Collectorate, Gaya - BSPCB",19-02-2024 03:00:00,24.7955,84.9994,CO,14,114,65
India,Bihar,Gaya,"Collectorate, Gaya - BSPCB",19-02-2024 03:00:00,24.7955,84.9994,OZONE,42,86,69
India,Bihar,Gaya,"Kareemganj, Gaya - BSPCB",19-02-2024 03:00:00,24.792403,84.992416,PM2.5,15,310,122
India,Bihar,Gaya,"Kareemganj, Gaya - BSPCB",19-02-2024 03:00:00,24.792403,84.992416,CO,8,103,44
India,Bihar,Gaya,"SFTI Kusdihra, Gaya - BSPCB",19-02-2024 03:00:00,24.762518,84.982348,OZONE,2,78,8
India,Bihar,Hajipur,"Industrial Area, Hajipur - BSPCB",19-02-2024 03:00:00,25.697189,85.245900,PM2.5,57,209,131
India,Bihar,Hajipur,"Industrial Area, Hajipur - BSPCB",19-02-2024 03:00:00,25.697189,85.245900,NH3,6,11,9
India,Bihar,Katihar,"Mirchaibari, Katihar - BSPCB",19-02-2024 03:00:00,25.560083,87.553265,OZONE,NA,NA,NA
India,Bihar,Manguraha,"Forest Rest House, Manguraha - BSPCB",19-02-2024 03:00:00,27.308328,84.531742,PM2.5,42,137,90
India,Bihar,Manguraha,"Forest Rest House, Manguraha - BSPCB",19-02-2024 03:00:00,27.308328,84.531742,NH3,2,2,2
India,Bihar,Motihari,"Gandak Colony, Motihari - BSPCB",19-02-2024 03:00:00,26.63086,84.90051,NH3,7,11,9
India,Bihar,Munger,"Town Hall, Munger - BSPCB",19-02-2024 03:00:00,25.376776,86.471523,SO2,19,41,32
India,Bihar,Munger,"Town Hall, Munger - BSPCB",19-02-2024 03:00:00,25.376776,86.471523,CO,NA,NA,NA
India,Bihar,Muzaffarpur,"Muzaffarpur Collectorate, Muzaffarpur - BSPCB",19-02-2024 03:00:00,26.1209,85.3647,OZONE,13,92,38
India,Bihar,Patna,"Govt. High School Shikarpur, Patna - BSPCB",19-02-2024 03:00:00,25.592539,85.227158,SO2,1,4,3
India,Bihar,Patna,"IGSC Planetarium Complex, Patna - BSPCB",19-02-2024 03:00:00,25.610369,85.132568,CO,16,19,16
India,Bihar,Patna,"Muradpur, Patna - BSPCB",19-02-2024 03:00:00,25.619651,85.147382,PM2.5,64,370,190
India,Bihar,Patna,"Muradpur, Patna - BSPCB",19-02-2024 03:00:00,25.619651,85.147382,OZONE,4,95,12
India,Bihar,Patna,"Samanpura, Patna - BSPCB",19-02-2024 03:00:00,25.596727,85.085624,SO2,15,18,16
India,Bihar,Purnia,"Mariam Nagar, Purnia - BSPCB",19-02-2024 03:00:00,25.366336,87.117468,NH3,1,1,1
India,Bihar,Rajgir,"Dangi Tola, Rajgir - BSPCB",19-02-2024 03:00:00,25.03280,85.41948,CO,10,11,10
India,Bihar,Saharsa,"Police Line, Saharsa - BSPCB",19-02-2024 03:00:00,25.892357,86.590325,NO2,5,9,7
India,Bihar,Saharsa,"Police Line, Saharsa - BSPCB",19-02-2024 03:00:00,25.892357,86.590325,NH3,8,9,9
India,Bihar,Saharsa,"Police Line, Saharsa - BSPCB",19-02-2024 03:00:00,25.892357,86.590325,OZONE,10,86,16
India,Bihar,Sasaram,"Dada Peer, Sasaram - BSPCB",19-02-2024 03:00:00,24.952822,84.002396,NO2,11,36,21
India,Bihar,Sasaram,"Dada Peer, Sasaram - BSPCB",19-02-2024 03:00:00,24.952822,84.002396,CO,104,112,108
India,Bihar,Siwan,"Chitragupta Nagar, Siwan - BSPCB",19-02-2024 03:00:00,26.2271665,84.3570427,PM10,26,159,98
India,Bihar,Siwan,"Chitragupta Nagar, Siwan - BSPCB",19-02-2024 03:00:00,26.2271665,84.3570427,NH3,1,14,5
India,Chandigarh,Chandigarh,"Sector 22, Chandigarh - CPCC",19-02-2024 03:00:00,30.735567,76.775714,NH3,NA,NA,NA
India,Chandigarh,Chandigarh,"Sector 22, Chandigarh - CPCC",19-02-2024 03:00:00,30.735567,76.775714,SO2,NA,NA,NA
India,Chandigarh,Chandigarh,"Sector-25, Chandigarh - CPCC",19-02-2024 03:00:00,30.751462,76.762879,PM2.5,208,308,266
India,Chandigarh,Chandigarh,"Sector-25, Chandigarh - CPCC",19-02-2024 03:00:00,30.751462,76.762879,CO,38,78,63
India,Chandigarh,Chandigarh,"Sector-53, Chandigarh - CPCC",19-02-2024 03:00:00,30.719859,76.738637,NO2,43,121,82
India,Chandigarh,Chandigarh,"Sector-53, Chandigarh - CPCC",19-02-2024 03:00:00,30.719859,76.738637,SO2,14,57,24
India,Chhattisgarh,Bhilai,"32Bungalows, Bhilai - CECB",19-02-2024 03:00:00,21.194815,81.314770,NH3,6,6,6
India,Chhattisgarh,Bhilai,"32Bungalows, Bhilai - CECB",19-02-2024 03:00:00,21.194815,81.314770,CO,22,54,42
India,Chhattisgarh,Bhilai,"Hathkhoj, Bhilai - CECB",19-02-2024 03:00:00,21.224231,81.408350,PM10,77,169,125
India,Chhattisgarh,Bhilai,"Hathkhoj, Bhilai - CECB",19-02-2024 03:00:00,21.224231,81.408350,NO2,23,75,42
India,Chhattisgarh,Bilaspur,"Mangala, Bilaspur - NTPC",19-02-2024 03:00:00,22.08815,82.13737,PM10,28,122,67
India,Chhattisgarh,Korba,"Rampur, Korba - CECB",19-02-2024 03:00:00,22.368195,82.746431,SO2,8,12,9
India,Chhattisgarh,Korba,"Rampur, Korba - CECB",19-02-2024 03:00:00,22.368195,82.746431,CO,20,32,31
India,Chhattisgarh,Korba,"Rampur, Korba - CECB",19-02-2024 03:00:00,22.368195,82.746431,OZONE,NA,NA,NA
India,Chhattisgarh,Korba,"Urja Nagar, Korba - CECB",19-02-2024 03:00:00,22.348441,82.549611,PM2.5,25,229,96
India,Chhattisgarh,Kunjemura,"OP Jindal School, Kunjemura - CECB",19-02-2024 03:00:00,22.126650,83.483212,PM2.5,34,78,52
India,Chhattisgarh,Kunjemura,"OP Jindal School, Kunjemura - CECB",19-02-2024 03:00:00,22.126650,83.483212,PM10,48,205,109
India,Chhattisgarh,Milupara,"Govt. Higher Secondary School, Milupara - CECB",19-02-2024 03:00:00,22.1910172,83.5197009,PM10,30,66,46
India,Chhattisgarh,Milupara,"Govt. Higher Secondary School, Milupara - CECB",19-02-2024 03:00:00,22.1910172,83.5197009,CO,15,42,29
India,Chhattisgarh,Raipur,"AIIMS, Raipur - CECB",19-02-2024 03:00:00,21.258815,81.578979,OZONE,1,15,2
India,Chhattisgarh,Raipur,"Krishak Nagar, Raipur - CECB",19-02-2024 03:00:00,21.237755,81.705301,PM10,57,90,75
India,Chhattisgarh,Raipur,"Krishak Nagar, Raipur - CECB",19-02-2024 03:00:00,21.237755,81.705301,NO2,15,30,22
India,Chhattisgarh,Raipur,"Krishak Nagar, Raipur - CECB",19-02-2024 03:00:00,21.237755,81.705301,CO,42,61,48
India,Chhattisgarh,Raipur,"Siltara Phase-II, Raipur - CECB",19-02-2024 03:00:00,21.371751,81.664929,PM10,61,157,109
India,Chhattisgarh,Raipur,"Siltara Phase-II, Raipur - CECB",19-02-2024 03:00:00,21.371751,81.664929,NH3,2,3,3
India,Chhattisgarh,Raipur,"Siltara Phase-II, Raipur - CECB",19-02-2024 03:00:00,21.371751,81.664929,SO2,6,27,13
India,Chhattisgarh,Raipur,"Siltara Phase-II, Raipur - CECB",19-02-2024 03:00:00,21.371751,81.664929,CO,42,92,68
India,Delhi,Delhi,"Alipur, Delhi - DPCC",19-02-2024 03:00:00,28.815329,77.153010,PM2.5,76,376,222
India,Delhi,Delhi,"Alipur, Delhi - DPCC",19-02-2024 03:00:00,28.815329,77.153010,NO2,34,179,65
India,Delhi,Delhi,"Anand Vihar, Delhi - DPCC",19-02-2024 03:00:00,28.647622,77.3158090,PM2.5,128,421,287
India,Delhi,Delhi,"Anand Vihar, Delhi - DPCC",19-02-2024 03:00:00,28.647622,77.3158090,PM10,153,500,280
India,Delhi,Delhi,"Anand Vihar, Delhi - DPCC",19-02-2024 03:00:00,28.647622,77.3158090,OZONE,18,22,19
India,Delhi,Delhi,"Ashok Vihar, Delhi - DPCC",19-02-2024 03:00:00,28.695381,77.181665,PM2.5,85,403,248
India,Delhi,Delhi,"Ashok Vihar, Delhi - DPCC",19-02-2024 03:00:00,28.695381,77.181665,SO2,21,36,28
India,Delhi,Delhi,"Aya Nagar, Delhi - IMD",19-02-2024 03:00:00,28.4706914,77.1099364,NO2,NA,NA,NA
India,Delhi,Delhi,"Bawana, Delhi - DPCC",19-02-2024 03:00:00,28.776200,77.051074,PM10,133,405,278
India,Delhi,Delhi,"Bawana, Delhi - DPCC",19-02-2024 03:00:00,28.776200,77.051074,NO2,17,135,72
India,Delhi,Delhi,"Burari Crossing, Delhi - IMD",19-02-2024 03:00:00,28.7256504,77.2011573,CO,32,110,48
India,Delhi,Delhi,"CRRI Mathura Road, Delhi - IMD",19-02-2024 03:00:00,28.5512005,77.2735737,CO,127,145,129
India,Delhi,Delhi,"DTU, Delhi - CPCB",19-02-2024 03:00:00,28.7500499,77.1112615,PM10,115,450,246
India,Delhi,Delhi,"DTU, Delhi - CPCB",19-02-2024 03:00:00,28.7500499,77.1112615,NO2,33,92,73
India,Delhi,Delhi,"DTU, Delhi - CPCB",19-02-2024 03:00:00,28.7500499,77.1112615,SO2,29,31,30
India,Delhi,Delhi,"Dr. Karni Singh Shooting Range, Delhi - DPCC",19-02-2024 03:00:00,28.498571,77.264840,NH3,6,9,8
India,Delhi,Delhi,"Dr. Karni Singh Shooting Range, Delhi - DPCC",19-02-2024 03:00:00,28.498571,77.264840,SO2,10,22,15
India,Delhi,Delhi,"Dr. Karni Singh Shooting Range, Delhi - DPCC",19-02-2024 03:00:00,28.498571,77.264840,OZONE,22,232,70
India,Delhi,Delhi,"IGI Airport (T3), Delhi - IMD",19-02-2024 03:00:00,28.5627763,77.1180053,NO2,31,109,62
India,Delhi,Delhi,"IGI Airport (T3), Delhi - IMD",19-02-2024 03:00:00,28.5627763,77.1180053,OZONE,11,67,26
India,Delhi,Delhi,"IHBAS, Dilshad Garden, Delhi - CPCB",19-02-2024 03:00:00,28.6811736,77.3025234,OZONE,6,52,19
India,Delhi,Delhi,"ITO, Delhi - CPCB",19-02-2024 03:00:00,28.628624,77.241060,NO2,22,276,114
India,Delhi,Delhi,"Jahangirpuri, Delhi - DPCC",19-02-2024 03:00:00,28.732820,77.170633,SO2,25,56,41
India,Delhi,Delhi,"Jawaharlal Nehru Stadium, Delhi - DPCC",19-02-2024 03:00:00,28.580280,77.233829,PM10,112,278,180
India,Delhi,Delhi,"Jawaharlal Nehru Stadium, Delhi - DPCC",19-02-2024 03:00:00,28.580280,77.233829,CO,5,131,77
India,Delhi,Delhi,"Lodhi Road, Delhi - IITM",19-02-2024 03:00:00,28.588333,77.221667,NH3,NA,NA,NA
India,Delhi,Delhi,"Major Dhyan Chand National Stadium, Delhi - DPCC",19-02-2024 03:00:00,28.611281,77.237738,OZONE,3,182,7
India,Delhi,Delhi,"Mandir Marg, Delhi - DPCC",19-02-2024 03:00:00,28.636429,77.201067,NO2,111,144,130
India,Delhi,Delhi,"Mandir Marg, Delhi - DPCC",19-02-2024 03:00:00,28.636429,77.201067,CO,12,92,50
India,Delhi,Delhi,"Mundka, Delhi - DPCC",19-02-2024 03:00:00,28.684678,77.076574,PM2.5,83,411,269
India,Delhi,Delhi,"Mundka, Delhi - DPCC",19-02-2024 03:00:00,28.684678,77.076574,NO2,38,169,95
India,Delhi,Delhi,"NSIT Dwarka, Delhi - CPCB",19-02-2024 03:00:00,28.60909,77.0325413,PM2.5,40,314,144
India,Delhi,Delhi,"NSIT Dwarka, Delhi - CPCB",19-02-2024 03:00:00,28.60909,77.0325413,PM10,141,254,188
India,Delhi,Delhi,"Najafgarh, Delhi - DPCC",19-02-2024 03:00:00,28.570173,76.933762,CO,8,100,31
India,Delhi,Delhi,"Narela, Delhi - DPCC",19-02-2024 03:00:00,28.822836,77.101981,PM10,128,457,278
India,Delhi,Delhi,"North Campus, DU, Delhi - IMD",19-02-2024 03:00:00,28.6573814,77.1585447,PM2.5,106,401,288
India,Delhi,Delhi,"Okhla Phase-2, Delhi - DPCC",19-02-2024 03:00:00,28.530785,77.271255,CO,50,122,65
India,Delhi,Delhi,"Patparganj, Delhi - DPCC",19-02-2024 03:00:00,28.623763,77.287209,NO2,48,84,67
India,Delhi,Delhi,"Patparganj, Delhi - DPCC",19-02-2024 03:00:00,28.623763,77.287209,SO2,7,15,11
India,Delhi,Delhi,"Punjabi Bagh, Delhi - DPCC",19-02-2024 03:00:00,28.674045,77.131023,NO2,47,95,76
India,Delhi,Delhi,"Punjabi Bagh, Delhi - DPCC",19-02-2024 03:00:00,28.674045,77.131023,NH3,4,7,5
India,Delhi,Delhi,"Pusa, Delhi - IMD",19-02-2024 03:00:00,28.636110,77.173332,PM10,NA,NA,NA
India,Delhi,Delhi,"Pusa, Delhi - IMD",19-02-2024 03:00:00,28.636110,77.173332,NO2,NA,NA,NA
India,Delhi,Delhi,"R K Puram, Delhi - DPCC",19-02-2024 03:00:00,28.563262,77.186937,PM2.5,101,359,266
India,Delhi,Delhi,"Shadipur, Delhi - CPCB",19-02-2024 03:00:00,28.6514781,77.1473105,NO2,49,58,54
India,Delhi,Delhi,"Shadipur, Delhi - CPCB",19-02-2024 03:00:00,28.6514781,77.1473105,NH3,1,32,19
India,Delhi,Delhi,"Sirifort, Delhi - CPCB",19-02-2024 03:00:00,28.5504249,77.2159377,NO2,169,216,196
India,Delhi,Delhi,"Sirifort, Delhi - CPCB",19-02-2024 03:00:00,28.5504249,77.2159377,OZONE,15,16,16
India,Delhi,Delhi,"Sri Aurobindo Marg, Delhi - DPCC",19-02-2024 03:00:00,28.531346,77.190156,PM2.5,126,329,249
India,Delhi,Delhi,"Sri Aurobindo Marg, Delhi - DPCC",19-02-2024 03:00:00,28.531346,77.190156,PM10,127,256,170
India,Delhi,Delhi,"Sri Aurobindo Marg, Delhi - DPCC",19-02-2024 03:00:00,28.531346,77.190156,SO2,9,18,13
India,Delhi,Delhi,"Vivek Vihar, Delhi - DPCC",19-02-2024 03:00:00,28.672342,77.315260,SO2,22,28,25
India,Delhi,Delhi,"Wazirpur, Delhi - DPCC",19-02-2024 03:00:00,28.699793,77.165453,PM10,153,413,264
India,Gujarat,Ahmedabad,"Chandkheda, Ahmedabad - IITM",19-02-2024 03:00:00,23.107969,72.574648,OZONE,1,64,5
India,Gujarat,Ahmedabad,"Gyaspur, Ahmedabad - IITM",19-02-2024 03:00:00,22.977134,72.553024,PM10,20,500,144
India,Gujarat,Ahmedabad,"Gyaspur, Ahmedabad - IITM",19-02-2024 03:00:00,22.977134,72.553024,NO2,21,22,22
India,Gujarat,Ahmedabad,"Maninagar, Ahmedabad - GPCB",19-02-2024 03:00:00,23.002657,72.591912,CO,11,60,32
India,Gujarat,Ahmedabad,"Maninagar, Ahmedabad - GPCB",19-02-2024 03:00:00,23.002657,72.591912,OZONE,6,100,29
India,Gujarat,Ahmedabad,"Rakhial, Ahmedabad - IITM",19-02-2024 03:00:00,23.016834,72.625775,PM2.5,66,306,158
India,Gujarat,Ahmedabad,"Rakhial, Ahmedabad - IITM",19-02-2024 03:00:00,23.016834,72.625775,PM10,79,202,137
India,Gujarat,Ahmedabad,"Rakhial, Ahmedabad - IITM",19-02-2024 03:00:00,23.016834,72.625775,NO2,62,103,75
India,Gujarat,Ahmedabad,"SAC ISRO Bopal, Ahmedabad - IITM",19-02-2024 03:00:00,23.041137,72.456691,PM10,53,204,124
India,Gujarat,Ahmedabad,"SAC ISRO Bopal, Ahmedabad - IITM",19-02-2024 03:00:00,23.041137,72.456691,NO2,12,13,12
India,Gujarat,Ahmedabad,"SAC ISRO Bopal, Ahmedabad - IITM",19-02-2024 03:00:00,23.041137,72.456691,SO2,11,12,12
India,Gujarat,Ahmedabad,"SAC ISRO Satellite, Ahmedabad - IITM",19-02-2024 03:00:00,23.023389,72.515201,CO,48,49,48
India,Gujarat,Ahmedabad,"SAC ISRO Satellite, Ahmedabad - IITM",19-02-2024 03:00:00,23.023389,72.515201,OZONE,2,16,5
India,Gujarat,Ahmedabad,"Sardar Vallabhbhai Patel Stadium, Ahmedabad - IITM",19-02-2024 03:00:00,23.043070,72.562968,PM10,49,291,130
India,Gujarat,Ahmedabad,"Sardar Vallabhbhai Patel Stadium, Ahmedabad - IITM",19-02-2024 03:00:00,23.043070,72.562968,OZONE,1,15,3
India,Gujarat,Ankleshwar,"GIDC, Ankleshwar - GPCB",19-02-2024 03:00:00,21.613267,73.010555,PM2.5,42,210,131
India,Gujarat,Ankleshwar,"GIDC, Ankleshwar - GPCB",19-02-2024 03:00:00,21.613267,73.010555,NO2,34,35,34
India,Gujarat,Gandhinagar,"IIPHG Lekawada, Gandhinagar - IITM",19-02-2024 03:00:00,23.243639,72.68994,PM2.5,49,217,104
India,Gujarat,Vapi,"Phase-1 GIDC, Vapi - GPCB",19-02-2024 03:00:00,20.362421,72.918013,SO2,46,47,46
India,Gujarat,Vatva,"Phase-4 GIDC, Vatva - GPCB",19-02-2024 03:00:00,22.969611,72.643500,SO2,17,17,17
India,Gujarat,Vatva,"Phase-4 GIDC, Vatva - GPCB",19-02-2024 03:00:00,22.969611,72.643500,CO,48,50,49
India,Haryana,Ambala,"Patti Mehar, Ambala - HSPCB",19-02-2024 03:00:00,30.379589,76.778328,SO2,1,42,20
India,Haryana,Bahadurgarh,"Arya Nagar, Bahadurgarh - HSPCB",19-02-2024 03:00:00,28.6701,76.9254,NH3,11,12,11
India,Haryana,Bahadurgarh,"Arya Nagar, Bahadurgarh - HSPCB",19-02-2024 03:00:00,28.6701,76.9254,CO,40,62,50
India,Haryana,Ballabgarh,"Nathu Colony, Ballabgarh - HSPCB",19-02-2024 03:00:00,28.3419248,77.319699,NH3,1,2,2
India,Haryana,Bhiwani,"H.B. Colony, Bhiwani - HSPCB",19-02-2024 03:00:00,28.806223,76.141105,OZONE,15,113,19
India,Haryana,Charkhi Dadri,"Mini Secretariat, Charkhi Dadri - HSPCB",19-02-2024 03:00:00,28.593883,76.270653,OZONE,14,18,16
India,Haryana,Dharuhera,"Municipal Corporation Office, Dharuhera -  HSPCB",19-02-2024 03:00:00,28.206800,76.799700,NH3,9,26,19
India,Haryana,Dharuhera,"Municipal Corporation Office, Dharuhera -  HSPCB",19-02-2024 03:00:00,28.206800,76.799700,CO,17,43,33
India,Haryana,Faridabad,"New Industrial Town, Faridabad - HSPCB",19-02-2024 03:00:00,28.39072,77.30059,SO2,17,24,20
India,Haryana,Faridabad,"New Industrial Town, Faridabad - HSPCB",19-02-2024 03:00:00,28.39072,77.30059,OZONE,37,255,74
India,Haryana,Faridabad,"Sector 11, Faridabad - HSPCB",19-02-2024 03:00:00,28.376058,77.315741,NO2,29,33,31
India,Haryana,Faridabad,"Sector 11, Faridabad - HSPCB",19-02-2024 03:00:00,28.376058,77.315741,CO,34,78,48
India,Haryana,Fatehabad,"Huda Sector, Fatehabad - HSPCB",19-02-2024 03:00:00,29.503664,75.467934,PM2.5,64,205,131
India,Haryana,Fatehabad,"Huda Sector, Fatehabad - HSPCB",19-02-2024 03:00:00,29.503664,75.467934,NH3,4,11,9
India,Haryana,Gurugram,"Sector-51, Gurugram - HSPCB",19-02-2024 03:00:00,28.4227,77.0667,PM10,98,225,171
India,Haryana,Gurugram,"Sector-51, Gurugram - HSPCB",19-02-2024 03:00:00,28.4227,77.0667,CO,31,107,42
India,Haryana,Gurugram,"Teri Gram, Gurugram - HSPCB",19-02-2024 03:00:00,28.4275,77.1465,NH3,19,27,24
India,Haryana,Gurugram,"Teri Gram, Gurugram - HSPCB",19-02-2024 03:00:00,28.4275,77.1465,OZONE,10,24,12
India,Haryana,Gurugram,"Vikas Sadan, Gurugram - HSPCB",19-02-2024 03:00:00,28.4501238,77.0263051,NO2,5,26,14
India,Haryana,Gurugram,"Vikas Sadan, Gurugram - HSPCB",19-02-2024 03:00:00,28.4501238,77.0263051,SO2,8,32,24
India,Haryana,Gurugram,"Vikas Sadan, Gurugram - HSPCB",19-02-2024 03:00:00,28.4501238,77.0263051,CO,54,138,103
India,Haryana,Hisar,"Urban Estate-II, Hisar - HSPCB",19-02-2024 03:00:00,29.140560,75.744941,PM2.5,97,308,206
India,Haryana,Hisar,"Urban Estate-II, Hisar - HSPCB",19-02-2024 03:00:00,29.140560,75.744941,NO2,8,9,9
India,Haryana,Kaithal,"Rishi Nagar, Kaithal - HSPCB",19-02-2024 03:00:00,29.8006,76.4155,NH3,8,8,8
India,Haryana,Kaithal,"Rishi Nagar, Kaithal - HSPCB",19-02-2024 03:00:00,29.8006,76.4155,SO2,8,64,29
India,Haryana,Karnal,"Sector-12, Karnal - HSPCB",19-02-2024 03:00:00,29.695300,77.002700,PM2.5,NA,NA,NA
India,Haryana,Karnal,"Sector-12, Karnal - HSPCB",19-02-2024 03:00:00,29.695300,77.002700,NH3,10,13,11
India,Haryana,Karnal,"Sector-12, Karnal - HSPCB",19-02-2024 03:00:00,29.695300,77.002700,OZONE,29,34,32
India,Haryana,Kurukshetra,"Sector-7, Kurukshetra - HSPCB",19-02-2024 03:00:00,29.966942,76.875879,OZONE,13,84,51
India,Haryana,Mandikhera,"General Hospital, Mandikhera - HSPCB",19-02-2024 03:00:00,27.9002,76.9938,CO,26,55,39
India,Haryana,Manesar,"Sector-2 IMT, Manesar - HSPCB",19-02-2024 03:00:00,28.360699,76.936090,NO2,11,29,21
India,Haryana,Manesar,"Sector-2 IMT, Manesar - HSPCB",19-02-2024 03:00:00,28.360699,76.936090,NH3,7,17,11
India,Haryana,Manesar,"Sector-2 IMT, Manesar - HSPCB",19-02-2024 03:00:00,28.360699,76.936090,SO2,6,38,12
India,Haryana,Manesar,"Sector-2 IMT, Manesar - HSPCB",19-02-2024 03:00:00,28.360699,76.936090,CO,27,58,31
India,Haryana,Narnaul,"Shastri Nagar, Narnaul - HSPCB",19-02-2024 03:00:00,28.060249,76.113115,NO2,16,58,34
India,Haryana,Narnaul,"Shastri Nagar, Narnaul - HSPCB",19-02-2024 03:00:00,28.060249,76.113115,NH3,5,18,11
India,Haryana,Panchkula,"Sector-6, Panchkula - HSPCB ",19-02-2024 03:00:00,30.7057778,76.8531805555555,CO,NA,NA,NA
India,Haryana,Rohtak,"MD University, Rohtak - HSPCB",19-02-2024 03:00:00,28.52123,76.37138,NO2,47,58,51
India,Haryana,Rohtak,"MD University, Rohtak - HSPCB",19-02-2024 03:00:00,28.52123,76.37138,CO,2,42,18
India,Haryana,Sirsa,"F-Block, Sirsa - HSPCB",19-02-2024 03:00:00,29.536400,75.015800,PM10,46,81,62
India,Haryana,Sonipat,"Murthal, Sonipat - HSPCB",19-02-2024 03:00:00,29.027200,77.062100,PM10,NA,NA,NA
India,Haryana,Yamuna Nagar,"Gobind Pura, Yamuna Nagar - HSPCB",19-02-2024 03:00:00,30.1480566,77.2893471,PM2.5,228,333,313
India,Karnataka,Bagalkot,"Vidayagiri, Bagalkot - KSPCB",19-02-2024 03:00:00,16.172806,75.659694,PM10,NA,NA,NA
India,Karnataka,Belgaum,"Ramteerth Nagar, Belgaum - KSPCB",19-02-2024 03:00:00,15.888653,74.541751,PM2.5,17,73,41
India,Karnataka,Belgaum,"Ramteerth Nagar, Belgaum - KSPCB",19-02-2024 03:00:00,15.888653,74.541751,NH3,33,34,34
India,Karnataka,Bengaluru,"BTM Layout, Bengaluru - CPCB",19-02-2024 03:00:00,12.9135218,77.5950804,SO2,10,11,11
India,Karnataka,Bengaluru,"City Railway Station, Bengaluru - KSPCB",19-02-2024 03:00:00,12.9756843,77.5660749,NO2,30,44,36
India,Karnataka,Bengaluru,"Hebbal, Bengaluru - KSPCB",19-02-2024 03:00:00,13.029152,77.585901,NH3,1,1,1
India,Karnataka,Bengaluru,"Hombegowda Nagar, Bengaluru - KSPCB",19-02-2024 03:00:00,12.938539,77.590100,NH3,2,4,2
India,Karnataka,Bengaluru,"Jayanagar 5th Block, Bengaluru - KSPCB",19-02-2024 03:00:00,12.920984,77.584908,PM2.5,56,110,78
India,Karnataka,Bengaluru,"Jayanagar 5th Block, Bengaluru - KSPCB",19-02-2024 03:00:00,12.920984,77.584908,PM10,67,224,117
India,Karnataka,Bengaluru,"Jayanagar 5th Block, Bengaluru - KSPCB",19-02-2024 03:00:00,12.920984,77.584908,CO,8,49,28
India,Karnataka,Bengaluru,"Kasturi Nagar, Bengaluru - KSPCB",19-02-2024 03:00:00,13.003872,77.664217,PM2.5,67,116,83
India,Karnataka,Bengaluru,"Kasturi Nagar, Bengaluru - KSPCB",19-02-2024 03:00:00,13.003872,77.664217,NO2,16,17,17
India,Karnataka,Bengaluru,"Kasturi Nagar, Bengaluru - KSPCB",19-02-2024 03:00:00,13.003872,77.664217,NH3,3,4,4
India,Karnataka,Bengaluru,"Peenya, Bengaluru - CPCB",19-02-2024 03:00:00,13.0270199,77.494094,PM10,37,96,58
India,Karnataka,Bengaluru,"Peenya, Bengaluru - CPCB",19-02-2024 03:00:00,13.0270199,77.494094,NH3,3,3,3
India,Karnataka,Bengaluru,"Peenya, Bengaluru - CPCB",19-02-2024 03:00:00,13.0270199,77.494094,SO2,11,19,15
India,Karnataka,Bengaluru,"Peenya, Bengaluru - CPCB",19-02-2024 03:00:00,13.0270199,77.494094,CO,28,44,34
India,Karnataka,Bengaluru,"Peenya, Bengaluru - CPCB",19-02-2024 03:00:00,13.0270199,77.494094,OZONE,44,127,70
India,Karnataka,Bengaluru,"Shivapura_Peenya, Bengaluru - KSPCB",19-02-2024 03:00:00,13.0246342,77.5080115,SO2,2,8,5
India,Karnataka,Bengaluru,"Shivapura_Peenya, Bengaluru - KSPCB",19-02-2024 03:00:00,13.0246342,77.5080115,OZONE,53,56,55
India,Karnataka,Bengaluru,"Silk Board, Bengaluru - KSPCB",19-02-2024 03:00:00,12.917348,77.622813,CO,29,48,36
India,Karnataka,Bengaluru,"Silk Board, Bengaluru - KSPCB",19-02-2024 03:00:00,12.917348,77.622813,OZONE,27,31,30
India,Karnataka,Chamarajanagar,"Urban, Chamarajanagar - KSPCB",19-02-2024 03:00:00,11.55358,76.55521,PM2.5,19,46,33
India,Karnataka,Chamarajanagar,"Urban, Chamarajanagar - KSPCB",19-02-2024 03:00:00,11.55358,76.55521,NH3,2,3,2
India,Karnataka,Chikkaballapur,"Chikkaballapur Rural, Chikkaballapur - KSPCB",19-02-2024 03:00:00,13.428828,77.731418,PM10,26,113,60
India,Karnataka,Chikkaballapur,"Chikkaballapur Rural, Chikkaballapur - KSPCB",19-02-2024 03:00:00,13.428828,77.731418,CO,NA,NA,NA
India,Karnataka,Chikkaballapur,"Chikkaballapur Rural, Chikkaballapur - KSPCB",19-02-2024 03:00:00,13.428828,77.731418,OZONE,24,25,24
India,Karnataka,Chikkamagaluru,"Kalyana Nagara, Chikkamagaluru - KSPCB",19-02-2024 03:00:00,13.328028,75.797056,NH3,NA,NA,NA
India,Karnataka,Chikkamagaluru,"Kalyana Nagara, Chikkamagaluru - KSPCB",19-02-2024 03:00:00,13.328028,75.797056,CO,NA,NA,NA
India,Karnataka,Dharwad,"Kalabhavan, Dharwad - KSPCB",19-02-2024 03:00:00,15.459706,75.008381,PM2.5,47,80,67
India,Karnataka,Dharwad,"Kalabhavan, Dharwad - KSPCB",19-02-2024 03:00:00,15.459706,75.008381,PM10,59,146,100
India,Karnataka,Dharwad,"Kalabhavan, Dharwad - KSPCB",19-02-2024 03:00:00,15.459706,75.008381,SO2,3,11,7
India,Karnataka,Hassan,"B.Katihalli, Hassan - KSPCB",19-02-2024 03:00:00,13.008556,76.125258,PM2.5,NA,NA,NA
India,Karnataka,Hassan,"B.Katihalli, Hassan - KSPCB",19-02-2024 03:00:00,13.008556,76.125258,NO2,NA,NA,NA
India,Karnataka,Hassan,"B.Katihalli, Hassan - KSPCB",19-02-2024 03:00:00,13.008556,76.125258,OZONE,NA,NA,NA
India,Karnataka,Hubballi,"Lingaraj Nagar, Hubballi - KSPCB",19-02-2024 03:00:00,15.3714823,75.1160168,CO,48,116,99
India,Karnataka,Kalaburagi,"Mahatma Basaveswar Colony, Kalaburgi - KSPCB",19-02-2024 03:00:00,17.336318,76.847397,PM2.5,21,44,34
India,Karnataka,Karwar,"KHB Colony, Karwar - KSPCB",19-02-2024 03:00:00,14.816666,74.141003,CO,8,8,8
India,Karnataka,Karwar,"KHB Colony, Karwar - KSPCB",19-02-2024 03:00:00,14.816666,74.141003,OZONE,21,22,21
India,Karnataka,Kolar,"Tamaka Ind. Area, Kolar - KSPCB",19-02-2024 03:00:00,13.1276288,78.1570122,NH3,7,17,9
India,Karnataka,Koppal,"Diwator Nagar, Koppal - KSPCB",19-02-2024 03:00:00,15.347630,76.181767,NO2,3,25,13
India,Karnataka,Koppal,"Diwator Nagar, Koppal - KSPCB",19-02-2024 03:00:00,15.347630,76.181767,NH3,3,7,5
India,Karnataka,Mysuru,"Hebbal 1st Stage, Mysuru - KSPCB",19-02-2024 03:00:00,12.21041,76.37376,NO2,8,41,23
India,Karnataka,Mysuru,"Hebbal 1st Stage, Mysuru - KSPCB",19-02-2024 03:00:00,12.21041,76.37376,OZONE,4,87,21
India,Karnataka,Raichur,"Haji Colony, Raichur - KSPCB",19-02-2024 03:00:00,16.208139,77.348417,PM10,38,153,81
India,Karnataka,Ramanagara,"Vijay Nagar, Ramanagara - KSPCB",19-02-2024 03:00:00,12.733409,77.298051,PM2.5,45,82,60
India,Karnataka,Ramanagara,"Vijay Nagar, Ramanagara - KSPCB",19-02-2024 03:00:00,12.733409,77.298051,SO2,22,30,25
India,Karnataka,Shivamogga,"Vinoba Nagara, Shivamogga - KSPCB",19-02-2024 03:00:00,13.940000,75.555917,NH3,1,3,3
India,Karnataka,Udupi,"Brahmagiri, Udupi - KSPCB",19-02-2024 03:00:00,13.34194444,74.74694444,OZONE,23,23,23
India,Kerala,Kannur,"Thavakkara, Kannur - Kerala PCB",19-02-2024 03:00:00,11.875000,75.373200,NO2,6,7,6
India,Kerala,Kannur,"Thavakkara, Kannur - Kerala PCB",19-02-2024 03:00:00,11.875000,75.373200,NH3,1,1,1
India,Kerala,Kannur,"Thavakkara, Kannur - Kerala PCB",19-02-2024 03:00:00,11.875000,75.373200,OZONE,32,36,32
India,Kerala,Kochi,"Vyttila, Kochi - Kerala PCB",19-02-2024 03:00:00,9.969447,76.321186,NH3,3,3,3
India,Kerala,Kollam,"Polayathode, Kollam - Kerala PCB",19-02-2024 03:00:00,8.8787,76.6073,OZONE,NA,NA,NA
India,Kerala,Thiruvananthapuram,"Kariavattom, Thiruvananthapuram - Kerala PCB",19-02-2024 03:00:00,8.563700,76.886500,SO2,1,17,10
India,Kerala,Thiruvananthapuram,"Kariavattom, Thiruvananthapuram - Kerala PCB",19-02-2024 03:00:00,8.563700,76.886500,CO,18,41,28
India,Kerala,Thiruvananthapuram,"Plammoodu, Thiruvananthapuram - Kerala PCB",19-02-2024 03:00:00,8.5149093,76.9435879,PM2.5,11,45,25
India,Kerala,Thiruvananthapuram,"Plammoodu, Thiruvananthapuram - Kerala PCB",19-02-2024 03:00:00,8.5149093,76.9435879,NO2,9,13,11
India,Kerala,Thiruvananthapuram,"Plammoodu, Thiruvananthapuram - Kerala PCB",19-02-2024 03:00:00,8.5149093,76.9435879,OZONE,10,70,23
India,Madhya Pradesh,Bhopal,"Paryavaran Parisar, Bhopal - MPPCB",19-02-2024 03:00:00,23.210494,77.425409,PM2.5,40,315,135
India,Madhya Pradesh,Bhopal,"Paryavaran Parisar, Bhopal - MPPCB",19-02-2024 03:00:00,23.210494,77.425409,SO2,21,30,23
India,Madhya Pradesh,Bhopal,"Paryavaran Parisar, Bhopal - MPPCB",19-02-2024 03:00:00,23.210494,77.425409,OZONE,2,79,4
India,Madhya Pradesh,Bhopal,"T T Nagar, Bhopal - MPPCB",19-02-2024 03:00:00,23.233584,77.400574,NH3,4,7,6
India,Madhya Pradesh,Dewas,"Bhopal Chauraha, Dewas - MPPCB",19-02-2024 03:00:00,22.9682591,76.064118,SO2,8,58,34
India,Madhya Pradesh,Gwalior,"City Center, Gwalior - MPPCB",19-02-2024 03:00:00,26.203442,78.193251,NH3,3,6,4
India,Madhya Pradesh,Gwalior,"City Center, Gwalior - MPPCB",19-02-2024 03:00:00,26.203442,78.193251,OZONE,19,127,61
India,Madhya Pradesh,Indore,"Chhoti Gwaltoli, Indore - MPPCB",19-02-2024 03:00:00,22.4310,75.5213,PM2.5,53,326,196
India,Madhya Pradesh,Indore,"Chhoti Gwaltoli, Indore - MPPCB",19-02-2024 03:00:00,22.4310,75.5213,NH3,5,8,6
India,Madhya Pradesh,Indore,"Maguda Nagar, Indore - IMC",19-02-2024 03:00:00,22.7524,75.8872,PM10,NA,NA,NA
India,Madhya Pradesh,Indore,"Maguda Nagar, Indore - IMC",19-02-2024 03:00:00,22.7524,75.8872,NH3,NA,NA,NA
India,Madhya Pradesh,Indore,"Residency Area, Indore - IMC",19-02-2024 03:00:00,22.7084,75.8815,PM2.5,42,241,123
India,Madhya Pradesh,Indore,"Residency Area, Indore - IMC",19-02-2024 03:00:00,22.7084,75.8815,PM10,42,161,98
India,Madhya Pradesh,Indore,"Residency Area, Indore - IMC",19-02-2024 03:00:00,22.7084,75.8815,SO2,24,26,25
India,Madhya Pradesh,Jabalpur,"Govindh Bhavan Colony, Jabalpur - JMC",19-02-2024 03:00:00,23.163174,79.973061,NO2,10,25,13
India,Madhya Pradesh,Jabalpur,"Govindh Bhavan Colony, Jabalpur - JMC",19-02-2024 03:00:00,23.163174,79.973061,CO,18,34,25
India,Madhya Pradesh,Jabalpur,"Marhatal, Jabalpur - MPPCB",19-02-2024 03:00:00,23.168606,79.932247,CO,42,138,102
India,Madhya Pradesh,Jabalpur,"Suhagi, Jabalpur - JMC",19-02-2024 03:00:00,23.218135,79.957770,SO2,9,10,10
India,Madhya Pradesh,Katni,"Gole Bazar, Katni - MPPCB",19-02-2024 03:00:00,23.50016,80.23284,PM2.5,54,138,87
India,Madhya Pradesh,Katni,"Gole Bazar, Katni - MPPCB",19-02-2024 03:00:00,23.50016,80.23284,NH3,3,6,5
India,Madhya Pradesh,Katni,"Gole Bazar, Katni - MPPCB",19-02-2024 03:00:00,23.50016,80.23284,CO,NA,NA,NA
India,Madhya Pradesh,Katni,"Gole Bazar, Katni - MPPCB",19-02-2024 03:00:00,23.50016,80.23284,OZONE,18,109,68
India,Madhya Pradesh,Maihar,"Sahilara, Maihar - KJS Cements",19-02-2024 03:00:00,24.2613009,80.7231783,PM2.5,14,61,36
India,Madhya Pradesh,Pithampur,"Sector-2 Industrial Area, Pithampur - MPPCB",19-02-2024 03:00:00,22.624758,75.675238,CO,34,72,46
India,Madhya Pradesh,Sagar,"Civil Lines, Sagar - MPPCB",19-02-2024 03:00:00,23.838586,78.759431,CO,15,30,25
India,Madhya Pradesh,Satna,"Bandhavgar Colony, Satna - Birla Cement",19-02-2024 03:00:00,24.58434363,80.8549414,PM10,48,48,48
India,Madhya Pradesh,Satna,"Bandhavgar Colony, Satna - Birla Cement",19-02-2024 03:00:00,24.58434363,80.8549414,CO,38,38,38
India,Madhya Pradesh,Satna,"Bandhavgar Colony, Satna - Birla Cement",19-02-2024 03:00:00,24.58434363,80.8549414,OZONE,57,57,57
India,Madhya Pradesh,Ujjain,"Mahakaleshwar Temple, Ujjain - MPPCB",19-02-2024 03:00:00,23.182719 ,75.768218 ,CO,24,103,70
India,Maharashtra,Ahmednagar,"Tarakpur, Ahmednagar - MPCB",19-02-2024 03:00:00,19.10122,74.73339,PM2.5,40,202,108
India,Maharashtra,Akola,"Ramdaspeth, Akola - MPCB",19-02-2024 03:00:00,20.719516,77.000253,PM10,72,343,137
India,Maharashtra,Amravati,"Shivneri Colony, Amravati - MPCB",19-02-2024 03:00:00,20.9402359,77.7895248,PM2.5,38,96,65
India,Maharashtra,Amravati,"Shivneri Colony, Amravati - MPCB",19-02-2024 03:00:00,20.9402359,77.7895248,OZONE,7,140,41
India,Maharashtra,Amravati,"Shri Shivaji Science College, Amaravati - MPCB",19-02-2024 03:00:00,20.939198,77.765701,PM10,66,356,133
India,Maharashtra,Aurangabad,"MIDC Chilkalthana, Aurangabad - MPCB",19-02-2024 03:00:00,19.875620,75.387310,NO2,7,110,49
India,Maharashtra,Aurangabad,"Rachnakar Colony, Aurangabad - MPCB",19-02-2024 03:00:00,19.863756,75.321188,CO,14,135,90
India,Maharashtra,Badlapur,"Katrap, Badlapur - MPCB",19-02-2024 03:00:00,19.16485,73.23409,PM2.5,52,305,152
India,Maharashtra,Badlapur,"Katrap, Badlapur - MPCB",19-02-2024 03:00:00,19.16485,73.23409,NH3,3,6,4
India,Maharashtra,Badlapur,"Katrap, Badlapur - MPCB",19-02-2024 03:00:00,19.16485,73.23409,CO,22,104,69
India,Maharashtra,Belapur,"CBD Belapur, Belapur - MPCB",19-02-2024 03:00:00,19.0243902,73.0406721,PM2.5,73,200,113
India,Maharashtra,Bhiwandi,"Gokul Nagar, Bhiwandi - MPCB",19-02-2024 03:00:00,19.309073,73.057223,NO2,NA,NA,NA
India,Maharashtra,Chandrapur,"Chauhan Colony, Chandrapur - MPCB",19-02-2024 03:00:00,19.962900,79.298714,NH3,1,1,1
India,Maharashtra,Chandrapur,"Chauhan Colony, Chandrapur - MPCB",19-02-2024 03:00:00,19.962900,79.298714,CO,23,24,24
India,Maharashtra,Chandrapur,"MIDC Khutala, Chandrapur - MPCB",19-02-2024 03:00:00,19.9775302,79.2337086,SO2,NA,NA,NA
India,Maharashtra,Jalgaon,"Prabhat Colony, Jalgaon - MPCB",19-02-2024 03:00:00,21.001264,75.565602,SO2,2,18,6
India,Maharashtra,Kalyan,"Khadakpada, Kalyan - MPCB",19-02-2024 03:00:00,19.25292,73.142019,NO2,NA,NA,NA
India,Maharashtra,Kolhapur,"Shivaji University, Kolhapur - MPCB",19-02-2024 03:00:00,16.6870449,74.2505872,CO,30,100,60
India,Maharashtra,Latur,"Sawe Wadi, Latur - MPCB",19-02-2024 03:00:00,18.39963,76.57452,NH3,8,8,8
India,Maharashtra,Mahad,"Kamble Tarf Birwadi, Mahad - MPCB",19-02-2024 03:00:00,18.1023399,73.4783687,OZONE,14,96,40
India,Maharashtra,Mira-Bhayandar,"Bhayandar West, Mira-Bhayandar - MPCB",19-02-2024 03:00:00,19.296481,72.840923,PM10,54,186,118
India,Maharashtra,Mira-Bhayandar,"Bhayandar West, Mira-Bhayandar - MPCB",19-02-2024 03:00:00,19.296481,72.840923,NO2,7,69,36
India,Maharashtra,Mumbai,"Bandra Kurla Complex, Mumbai - MPCB",19-02-2024 03:00:00,19.065931,72.862131,NH3,17,26,21
India,Maharashtra,Mumbai,"Borivali East, Mumbai - IITM",19-02-2024 03:00:00,19.23241,72.86895,PM2.5,60,191,109
India,Maharashtra,Mumbai,"Borivali East, Mumbai - IITM",19-02-2024 03:00:00,19.23241,72.86895,PM10,77,153,109
India,Maharashtra,Mumbai,"Byculla, Mumbai - BMC",19-02-2024 03:00:00,18.9767,72.8380,PM2.5,80,221,141
India,Maharashtra,Mumbai,"Byculla, Mumbai - BMC",19-02-2024 03:00:00,18.9767,72.8380,PM10,69,170,112
India,Maharashtra,Mumbai,"Chakala-Andheri East, Mumbai - IITM",19-02-2024 03:00:00,19.11074,72.86084,NO2,85,176,139
India,Maharashtra,Mumbai,"Chembur, Mumbai - MPCB",19-02-2024 03:00:00,19.0364585,72.8954371,SO2,1,28,10
India,Maharashtra,Mumbai,"Colaba, Mumbai - MPCB",19-02-2024 03:00:00,18.910000,72.820000,NO2,17,40,27
India,Maharashtra,Mumbai,"Colaba, Mumbai - MPCB",19-02-2024 03:00:00,18.910000,72.820000,SO2,15,19,17
India,Maharashtra,Mumbai,"Colaba, Mumbai - MPCB",19-02-2024 03:00:00,18.910000,72.820000,CO,11,26,14
India,Maharashtra,Mumbai,"Kherwadi_Bandra East, Mumbai - MPCB",19-02-2024 03:00:00,19.0632143,72.8456324,PM10,78,181,128
India,Maharashtra,Mumbai,"Kherwadi_Bandra East, Mumbai - MPCB",19-02-2024 03:00:00,19.0632143,72.8456324,CO,14,116,72
India,Maharashtra,Mumbai,"Khindipada-Bhandup West, Mumbai - IITM",19-02-2024 03:00:00,19.1653323,72.922099,NH3,5,6,6
India,Maharashtra,Mumbai,"Kurla, Mumbai - MPCB",19-02-2024 03:00:00,19.0863,72.8888,PM2.5,64,254,111
India,Maharashtra,Mumbai,"Kurla, Mumbai - MPCB",19-02-2024 03:00:00,19.0863,72.8888,CO,18,64,37
India,Maharashtra,Mumbai,"Mazgaon, Mumbai - IITM",19-02-2024 03:00:00,18.96702,72.84214,CO,26,60,43
India,Maharashtra,Mumbai,"Mindspace-Malad West, Mumbai - MPCB",19-02-2024 03:00:00,19.1878657,72.8304069,PM2.5,39,182,121
India,Maharashtra,Mumbai,"Mulund West, Mumbai - MPCB",19-02-2024 03:00:00,19.1750,72.9419,PM10,65,131,97
India,Maharashtra,Mumbai,"Navy Nagar-Colaba, Mumbai - IITM",19-02-2024 03:00:00,18.897756,72.813320,SO2,1,27,9
India,Maharashtra,Mumbai,"Siddharth Nagar-Worli, Mumbai - IITM",19-02-2024 03:00:00,19.000083,72.813993,NO2,21,115,56
India,Maharashtra,Mumbai,"Siddharth Nagar-Worli, Mumbai - IITM",19-02-2024 03:00:00,19.000083,72.813993,CO,15,63,34
India,Maharashtra,Mumbai,"Siddharth Nagar-Worli, Mumbai - IITM",19-02-2024 03:00:00,19.000083,72.813993,OZONE,2,161,53
India,Maharashtra,Mumbai,"Sion, Mumbai - MPCB",19-02-2024 03:00:00,19.047000,72.874600,NH3,1,3,2
India,Maharashtra,Mumbai,"Vile Parle West, Mumbai - MPCB",19-02-2024 03:00:00,19.10861,72.83622,SO2,NA,NA,NA
India,Maharashtra,Mumbai,"Worli, Mumbai - MPCB",19-02-2024 03:00:00,18.9936162,72.8128113,PM2.5,30,77,54
India,Maharashtra,Mumbai,"Worli, Mumbai - MPCB",19-02-2024 03:00:00,18.9936162,72.8128113,CO,41,44,42
India,Maharashtra,Nagpur,"Ambazari, Nagpur - MPCB",19-02-2024 03:00:00,21.121801,79.04952,CO,10,130,68
India,Maharashtra,Nagpur,"Ram Nagar, Nagpur - MPCB",19-02-2024 03:00:00,21.143383,79.048912,PM10,77,178,125
India,Maharashtra,Nagpur,"Ram Nagar, Nagpur - MPCB",19-02-2024 03:00:00,21.143383,79.048912,SO2,4,44,16
India,Maharashtra,Nanded,"Sneh Nagar, Nanded - MPCB",19-02-2024 03:00:00,19.173852,77.296291,PM2.5,52,246,89
India,Maharashtra,Nashik,"Gangapur Road, Nashik - MPCB",19-02-2024 03:00:00,20.0073285,73.7762427,PM10,31,88,57
India,Maharashtra,Nashik,"Gangapur Road, Nashik - MPCB",19-02-2024 03:00:00,20.0073285,73.7762427,CO,18,18,18
India,Maharashtra,Nashik,"Gangapur Road, Nashik - MPCB",19-02-2024 03:00:00,20.0073285,73.7762427,OZONE,2,59,22
India,Maharashtra,Nashik,"MIDC Ambad, Nashik - MPCB",19-02-2024 03:00:00,19.950220,73.731480,PM2.5,37,139,72
India,Maharashtra,Navi Mumbai,"Kopripada-Vashi, Navi Mumbai - MPCB",19-02-2024 03:00:00,19.090337,73.014232,NH3,5,35,17
India,Maharashtra,Navi Mumbai,"Nerul, Navi Mumbai - MPCB",19-02-2024 03:00:00,19.008751,73.016620,PM2.5,80,311,171
India,Maharashtra,Navi Mumbai,"Sector-2E Kalamboli, Navi Mumbai - MPCB",19-02-2024 03:00:00,19.02579,73.10297,OZONE,1,160,14
India,Maharashtra,Parbhani,"Masoom Colony, Parbhani - MPCB",19-02-2024 03:00:00,19.265594,76.761463,PM2.5,48,154,86
India,Maharashtra,Parbhani,"Masoom Colony, Parbhani - MPCB",19-02-2024 03:00:00,19.265594,76.761463,OZONE,31,51,44
India,Maharashtra,Pimpri-Chinchwad,"Gavalinagar, Pimpri Chinchwad - MPCB",19-02-2024 03:00:00,18.63673,73.82487,NH3,1,13,5
India,Maharashtra,Pimpri-Chinchwad,"Park Street Wakad, Pimpri Chinchwad - MPCB",19-02-2024 03:00:00,18.59051,73.77946,OZONE,8,215,116
India,Maharashtra,Pune,"Alandi, Pune - IITM",19-02-2024 03:00:00,18.675076,73.892743,PM10,NA,NA,NA
India,Maharashtra,Pune,"Alandi, Pune - IITM",19-02-2024 03:00:00,18.675076,73.892743,CO,28,53,48
India,Maharashtra,Pune,"Katraj Dairy, Pune - MPCB",19-02-2024 03:00:00,18.454450,73.854155,SO2,2,12,6
India,Maharashtra,Pune,"Mhada Colony, Pune - IITM",19-02-2024 03:00:00,18.573040,73.927715,PM2.5,34,182,90
India,Maharashtra,Pune,"Mhada Colony, Pune - IITM",19-02-2024 03:00:00,18.573040,73.927715,OZONE,12,36,23
India,Maharashtra,Pune,"Savitribai Phule Pune University, Pune - MPCB",19-02-2024 03:00:00,18.547056,73.826908,NO2,11,33,22
India,Maharashtra,Pune,"Transport Nagar-Nigdi, Pune - IITM",19-02-2024 03:00:00,18.664282,73.763966,PM10,35,135,96
India,Maharashtra,Pune,"Transport Nagar-Nigdi, Pune - IITM",19-02-2024 03:00:00,18.664282,73.763966,CO,46,70,57
India,Maharashtra,Sangli,"Vijay Nagar, Sangli - MPCB",19-02-2024 03:00:00, 16.5038,74.3623,NO2,26,138,64
India,Maharashtra,Sangli,"Vijay Nagar, Sangli - MPCB",19-02-2024 03:00:00, 16.5038,74.3623,NH3,2,5,3
India,Maharashtra,Sangli,"Vijay Nagar, Sangli - MPCB",19-02-2024 03:00:00, 16.5038,74.3623,SO2,2,3,2
India,Maharashtra,Sangli,"Vijay Nagar, Sangli - MPCB",19-02-2024 03:00:00, 16.5038,74.3623,CO,10,110,59
India,Maharashtra,Solapur,"Dnyaneshwar Nagar, Solapur - MPCB",19-02-2024 03:00:00,17.6336264,75.9132495,PM10,61,409,127
India,Maharashtra,Solapur,"Dnyaneshwar Nagar, Solapur - MPCB",19-02-2024 03:00:00,17.6336264,75.9132495,NH3,8,65,19
India,Maharashtra,Solapur,"Dnyaneshwar Nagar, Solapur - MPCB",19-02-2024 03:00:00,17.6336264,75.9132495,SO2,5,24,11
India,Maharashtra,Solapur,"Ratandeep Housing Society, Solapur - MPCB",19-02-2024 03:00:00,17.65439,75.90649,PM2.5,52,199,91
India,Maharashtra,Solapur,"Ratandeep Housing Society, Solapur - MPCB",19-02-2024 03:00:00,17.65439,75.90649,PM10,45,157,89
India,Maharashtra,Solapur,"Ratandeep Housing Society, Solapur - MPCB",19-02-2024 03:00:00,17.65439,75.90649,NH3,1,5,2
India,Maharashtra,Thane,"Upvan Fort, Thane - MPCB",19-02-2024 03:00:00,19.222279,72.957979,PM2.5,77,239,137
India,Maharashtra,Thane,"Upvan Fort, Thane - MPCB",19-02-2024 03:00:00,19.222279,72.957979,NO2,17,116,51
India,Maharashtra,Ulhasnagar,"Sidhi Vinayak Nagar, Ulhasnagar - MPCB",19-02-2024 03:00:00,19.235581,73.159121,NH3,1,1,1
India,Maharashtra,Virar,"Bolinj, Virar - MPCB",19-02-2024 03:00:00,19.4458210,72.7988231,OZONE,2,89,27
India,Manipur,Imphal,"Manipur University, Imphal - Manipur PCB",19-02-2024 03:00:00,24.7524239,93.9286218,SO2,67,73,70
India,Meghalaya,Shillong,"Lumpyngngad, Shillong - Meghalaya PCB",19-02-2024 03:00:00,25.5586,91.8985,PM10,8,152,89
India,Mizoram,Aizawl,"Sikulpuikawn, Aizawl - Mizoram PCB",19-02-2024 03:00:00,23.7176342,92.7192841,PM2.5,45,112,68
India,Nagaland,Kohima,"PWD Juction, Kohima - NPCB",19-02-2024 03:00:00,25.6635413,94.0989878,PM10,79,192,115
India,Nagaland,Kohima,"PWD Juction, Kohima - NPCB",19-02-2024 03:00:00,25.6635413,94.0989878,SO2,27,32,28
India,Odisha,Angul,"Hakimapada, Angul - OSPCB",19-02-2024 03:00:00,20.832874,85.104082,PM2.5,97,347,252
India,Odisha,Angul,"Hakimapada, Angul - OSPCB",19-02-2024 03:00:00,20.832874,85.104082,NO2,13,80,34
India,Odisha,Angul,"Hakimapada, Angul - OSPCB",19-02-2024 03:00:00,20.832874,85.104082,OZONE,9,175,40
India,Odisha,Balasore,"Kalidaspur, Balasore - OSPCB",19-02-2024 03:00:00,21.51161,86.89088,NO2,6,23,13
India,Odisha,Balasore,"Kalidaspur, Balasore - OSPCB",19-02-2024 03:00:00,21.51161,86.89088,CO,49,102,65
India,Odisha,Barbil,"Forest Office, Barbil - OSPCB",19-02-2024 03:00:00,22.1166054,85.3945546,SO2,2,31,11
India,Odisha,Barbil,"Forest Office, Barbil - OSPCB",19-02-2024 03:00:00,22.1166054,85.3945546,CO,6,110,82
India,Odisha,Baripada,"Meher Colony, Baripada - OSPCB",19-02-2024 03:00:00,21.941841,86.728318,PM10,102,137,121
India,Odisha,Bhubaneswar,"Patia, Bhubaneswar - OSPCB",19-02-2024 03:00:00,20.34652,85.81630,PM2.5,42,304,105
India,Odisha,Bhubaneswar,"Patia, Bhubaneswar - OSPCB",19-02-2024 03:00:00,20.34652,85.81630,NO2,9,21,14
India,Odisha,Bhubaneswar,"Patia, Bhubaneswar - OSPCB",19-02-2024 03:00:00,20.34652,85.81630,SO2,2,11,4
India,Odisha,Bileipada,"Tata Township, Bileipada - OSPCB",19-02-2024 03:00:00,22.06156703,85.47409613,PM10,NA,NA,NA
India,Odisha,Brajrajnagar,"GM Office, Brajrajnagar - OSPCB",19-02-2024 03:00:00,21.8004996,83.8396977,CO,54,106,83
India,Odisha,Brajrajnagar,"GM Office, Brajrajnagar - OSPCB",19-02-2024 03:00:00,21.8004996,83.8396977,OZONE,12,21,19
India,Odisha,Byasanagar,"Ferro Chrome Colony, Byasanagar - OSPCB",19-02-2024 03:00:00,20.94185,86.11510,SO2,1,19,8
India,Odisha,Cuttack,"CDA Area, Cuttack - OSPCB",19-02-2024 03:00:00,20.48891     ,85.84768     ,SO2,2,10,4
India,Odisha,Rairangpur,"Divisional Forest Office, Rairangpur - OSPCB",19-02-2024 03:00:00,22.265816,86.174829,PM10,85,122,106
India,Odisha,Rairangpur,"Divisional Forest Office, Rairangpur - OSPCB",19-02-2024 03:00:00,22.265816,86.174829,NO2,7,8,7
India,Odisha,Rourkela,"Raghunathpali, Rourkela - OSPCB",19-02-2024 03:00:00,22.220833,84.809444,PM10,107,363,147
India,Odisha,Rourkela,"Raghunathpali, Rourkela - OSPCB",19-02-2024 03:00:00,22.220833,84.809444,CO,32,81,55
India,Odisha,Rourkela,"Raghunathpali, Rourkela - OSPCB",19-02-2024 03:00:00,22.220833,84.809444,OZONE,17,120,22
India,Odisha,Rourkela,"Sector-2, Rourkela - OSPCB",19-02-2024 03:00:00,22.24500000,84.88111111,CO,20,66,37
India,Odisha,Suakati,"OMC Colony, Suakati - OSPCB",19-02-2024 03:00:00,21.606865,85.510538,PM10,NA,NA,NA
India,Odisha,Talcher,"Talcher Coalfields,Talcher - OSPCB",19-02-2024 03:00:00,20.9360711,85.1707021,NH3,7,9,8
India,Odisha,Talcher,"Talcher Coalfields,Talcher - OSPCB",19-02-2024 03:00:00,20.9360711,85.1707021,CO,5,64,36
India,Odisha,Tensa,"Barsua Iron Ore Mines, Tensa - OSPCB",19-02-2024 03:00:00,21.869985,85.167016,PM2.5,59,107,87
India,Odisha,Tensa,"Barsua Iron Ore Mines, Tensa - OSPCB",19-02-2024 03:00:00,21.869985,85.167016,PM10,75,124,97
India,Odisha,Tensa,"Barsua Iron Ore Mines, Tensa - OSPCB",19-02-2024 03:00:00,21.869985,85.167016,NH3,6,16,10
India,Puducherry,Puducherry,"Jawahar Nagar, Puducherry - PPCC",19-02-2024 03:00:00,11.9309,79.8027,NO2,5,36,16
India,Puducherry,Puducherry,"Jawahar Nagar, Puducherry - PPCC",19-02-2024 03:00:00,11.9309,79.8027,CO,22,50,29
India,Punjab,Amritsar,"Golden Temple, Amritsar - PPCB",19-02-2024 03:00:00,31.620000,74.876512,PM10,115,240,151
India,Punjab,Amritsar,"Golden Temple, Amritsar - PPCB",19-02-2024 03:00:00,31.620000,74.876512,SO2,18,39,25
India,Punjab,Jalandhar,"Civil Line, Jalandhar - PPCB",19-02-2024 03:00:00,31.321907,75.578914,SO2,2,4,3
India,Punjab,Khanna,"Kalal Majra, Khanna - PPCB",19-02-2024 03:00:00,30.736056 ,76.209694,NO2,29,31,30
India,Punjab,Khanna,"Kalal Majra, Khanna - PPCB",19-02-2024 03:00:00,30.736056 ,76.209694,NH3,15,17,15
India,Punjab,Khanna,"Kalal Majra, Khanna - PPCB",19-02-2024 03:00:00,30.736056 ,76.209694,SO2,15,52,28
India,Punjab,Ludhiana,"Punjab Agricultural University, Ludhiana - PPCB",19-02-2024 03:00:00,30.9028,75.8086,PM2.5,167,316,273
India,Punjab,Ludhiana,"Punjab Agricultural University, Ludhiana - PPCB",19-02-2024 03:00:00,30.9028,75.8086,PM10,140,245,196
India,Punjab,Ludhiana,"Punjab Agricultural University, Ludhiana - PPCB",19-02-2024 03:00:00,30.9028,75.8086,CO,16,108,79
India,Punjab,Mandi Gobindgarh,"RIMT University, Mandi Gobindgarh - PPCB",19-02-2024 03:00:00,30.649961,76.331442,SO2,4,14,9
India,Punjab,Mandi Gobindgarh,"RIMT University, Mandi Gobindgarh - PPCB",19-02-2024 03:00:00,30.649961,76.331442,OZONE,31,33,33
India,Punjab,Rupnagar,"Ratanpura, Rupnagar - Ambuja Cements",19-02-2024 03:00:00,31.0325454,76.5623046,PM2.5,70,302,145
India,Punjab,Rupnagar,"Ratanpura, Rupnagar - Ambuja Cements",19-02-2024 03:00:00,31.0325454,76.5623046,CO,40,58,53
India,Rajasthan,Ajmer,"Civil Lines,  Ajmer - RSPCB",19-02-2024 03:00:00,26.470859,74.646594,PM2.5,11,88,49
India,Rajasthan,Ajmer,"Civil Lines,  Ajmer - RSPCB",19-02-2024 03:00:00,26.470859,74.646594,PM10,50,120,79
India,Rajasthan,Ajmer,"Civil Lines,  Ajmer - RSPCB",19-02-2024 03:00:00,26.470859,74.646594,NO2,52,99,75
India,Rajasthan,Alwar,"Moti Doongri, Alwar - RSPCB",19-02-2024 03:00:00,27.554793,76.611536,PM10,68,127,95
India,Rajasthan,Baran,"Bamboliya, Baran - RSPCB",19-02-2024 03:00:00,25.106006,76.469948,NH3,1,13,4
India,Rajasthan,Bhilwara,"Pratap Nagar, Bhilwara - RSPCB",19-02-2024 03:00:00,25.339605,74.618883,NH3,1,3,1
India,Rajasthan,Bhilwara,"Pratap Nagar, Bhilwara - RSPCB",19-02-2024 03:00:00,25.339605,74.618883,SO2,4,31,12
India,Rajasthan,Bhiwadi,"RIICO Ind. Area III, Bhiwadi - RSPCB",19-02-2024 03:00:00,28.194909,76.862296,CO,60,129,111
India,Rajasthan,Bikaner,"MM Ground, Bikaner - RSPCB",19-02-2024 03:00:00,28.018792,73.292658,PM2.5,33,209,82
India,Rajasthan,Bikaner,"MM Ground, Bikaner - RSPCB",19-02-2024 03:00:00,28.018792,73.292658,CO,48,119,87
India,Rajasthan,Churu,"Subash Chowk, Churu - RSPCB",19-02-2024 03:00:00,28.296139,74.961696,PM2.5,37,233,90
India,Rajasthan,Churu,"Subash Chowk, Churu - RSPCB",19-02-2024 03:00:00,28.296139,74.961696,NH3,8,12,10
India,Rajasthan,Churu,"Subash Chowk, Churu - RSPCB",19-02-2024 03:00:00,28.296139,74.961696,OZONE,37,150,72
India,Rajasthan,Dausa,"Khatikan Mohalla, Dausa - RSPCB",19-02-2024 03:00:00,26.895552,76.334753,CO,101,131,113
India,Rajasthan,Dholpur,"Raja Ganj, Dholpur - RSPCB",19-02-2024 03:00:00,26.699557,77.898881,PM2.5,52,307,109
India,Rajasthan,Dholpur,"Raja Ganj, Dholpur - RSPCB",19-02-2024 03:00:00,26.699557,77.898881,NH3,7,33,15
India,Rajasthan,Dungarpur,"Bhoiwada, Dungarpur - RSPCB",19-02-2024 03:00:00,23.837789,73.714926,PM2.5,8,302,107
India,Rajasthan,Hanumangarh,"Housing Board, Hanumangarh - RSPCB",19-02-2024 03:00:00,29.610750,74.283608,PM2.5,62,332,219
India,Rajasthan,Hanumangarh,"Housing Board, Hanumangarh - RSPCB",19-02-2024 03:00:00,29.610750,74.283608,NH3,8,29,14
India,Rajasthan,Jaipur,"Mansarovar Sector-12, Jaipur - RSPCB",19-02-2024 03:00:00,26.843698,75.766894,NO2,29,124,66
India,Rajasthan,Jaipur,"Police Commissionerate, Jaipur - RSPCB",19-02-2024 03:00:00,26.9164092,75.7994901,PM2.5,73,246,138
India,Rajasthan,Jaipur,"RIICO Sitapura, Jaipur - RSPCB",19-02-2024 03:00:00,26.786682,75.827928,OZONE,4,98,42
India,Rajasthan,Jaipur,"Sector-2 Murlipura, Jaipur - RSPCB",19-02-2024 03:00:00,26.960669,75.771817,NH3,1,28,8
India,Rajasthan,Jaisalmer,"Sadar Bazar, Jaisalmer - RSPCB",19-02-2024 03:00:00,26.912329,70.909168,PM2.5,8,183,68
India,Rajasthan,Jaisalmer,"Sadar Bazar, Jaisalmer - RSPCB",19-02-2024 03:00:00,26.912329,70.909168,PM10,49,500,217
India,Rajasthan,Jaisalmer,"Sadar Bazar, Jaisalmer - RSPCB",19-02-2024 03:00:00,26.912329,70.909168,NO2,1,46,12
India,Rajasthan,Jalore,"Mudtra Sili, Jalore - RSPCB",19-02-2024 03:00:00,25.344694,72.626208,NO2,8,70,28
India,Rajasthan,Jalore,"Mudtra Sili, Jalore - RSPCB",19-02-2024 03:00:00,25.344694,72.626208,NH3,5,12,8
India,Rajasthan,Jhalawar,"Rajlaxmi Nagar, Jhalawar - RSPCB",19-02-2024 03:00:00,24.588397,76.172782,NO2,8,99,33
India,Rajasthan,Jhunjhunu,"Indra Nagar, Jhunjhunu - RSPCB",19-02-2024 03:00:00,28.108988,75.386577,PM10,87,252,138
India,Rajasthan,Jodhpur,"Digari Kalan, Jodhpur - RSPCB",19-02-2024 03:00:00,26.295810,73.082283,PM2.5,19,183,81
India,Rajasthan,Jodhpur,"Digari Kalan, Jodhpur - RSPCB",19-02-2024 03:00:00,26.295810,73.082283,SO2,1,11,4
India,Rajasthan,Jodhpur,"Jhalamand, Jodhpur - RSPCB",19-02-2024 03:00:00,26.215415,73.070156,OZONE,14,87,49
India,Rajasthan,Jodhpur,"Mandor, Jodhpur - RSPCB",19-02-2024 03:00:00,26.358805,73.047444,NO2,27,113,61
India,Rajasthan,Karauli,"Satyawati Vihar, Karauli - RSPCB",19-02-2024 03:00:00,26.506177,77.025989,PM10,60,146,94
India,Rajasthan,Kota,"Dhanmandi, Kota - RSPCB",19-02-2024 03:00:00,25.164090,75.858137,NH3,4,8,6
India,Rajasthan,Kota,"Shrinath Puram, Kota - RSPCB",19-02-2024 03:00:00,25.14389,75.821256,PM2.5,56,325,139
India,Rajasthan,Kota,"Shrinath Puram, Kota - RSPCB",19-02-2024 03:00:00,25.14389,75.821256,SO2,3,60,20
India,Rajasthan,Kota,"Shrinath Puram, Kota - RSPCB",19-02-2024 03:00:00,25.14389,75.821256,OZONE,43,104,59
India,Rajasthan,Pali,"Indira Colony Vistar, Pali - RSPCB",19-02-2024 03:00:00,25.771061, 73.340227,SO2,18,20,19
India,Rajasthan,Pratapgarh,"Pragati Nagar, Pratapgarh - RSPCB",19-02-2024 03:00:00,24.041198,74.780702,SO2,3,11,6
India,Rajasthan,Rajsamand,"Dhoinda, Rajsamand - RSPCB",19-02-2024 03:00:00,25.036360,73.883502,NH3,NA,NA,NA
India,Rajasthan,Rajsamand,"Dhoinda, Rajsamand - RSPCB",19-02-2024 03:00:00,25.036360,73.883502,SO2,NA,NA,NA
India,Rajasthan,Sawai Madhopur,"Sahu Nagar, Sawai Madhopur - RSPCB",19-02-2024 03:00:00,26.031443,76.359327,PM10,67,232,106
India,Rajasthan,Sawai Madhopur,"Sahu Nagar, Sawai Madhopur - RSPCB",19-02-2024 03:00:00,26.031443,76.359327,NO2,12,80,30
India,Rajasthan,Sawai Madhopur,"Sahu Nagar, Sawai Madhopur - RSPCB",19-02-2024 03:00:00,26.031443,76.359327,NH3,1,38,17
India,Rajasthan,Sirohi,"Vedhaynath Colony, Sirohi - RSPCB",19-02-2024 03:00:00,24.885261,72.857549,NH3,3,9,5
India,Rajasthan,Sri Ganganagar,"Old City, Sri Ganganagar - RSPCB",19-02-2024 03:00:00,29.931624,73.864511,PM10,171,461,316
India,Rajasthan,Sri Ganganagar,"Old City, Sri Ganganagar - RSPCB",19-02-2024 03:00:00,29.931624,73.864511,CO,38,104,65
India,Rajasthan,Tonk,"Shastri Nagar, Tonk - RSPCB",19-02-2024 03:00:00,26.159933,75.780517,PM2.5,69,400,171
India,Rajasthan,Tonk,"Shastri Nagar, Tonk - RSPCB",19-02-2024 03:00:00,26.159933,75.780517,PM10,79,417,146
India,Rajasthan,Udaipur,"Ashok Nagar, Udaipur - RSPCB",19-02-2024 03:00:00,24.5886166,73.6321397,NO2,21,88,46
India,Rajasthan,Udaipur,"Ashok Nagar, Udaipur - RSPCB",19-02-2024 03:00:00,24.5886166,73.6321397,SO2,7,18,11
India,TamilNadu,Ariyalur,"Keelapalur, Ariyalur - TNPCB",19-02-2024 03:00:00,11.06825,79.07033,PM10,35,72,47
India,TamilNadu,Ariyalur,"Keelapalur, Ariyalur - TNPCB",19-02-2024 03:00:00,11.06825,79.07033,SO2,16,23,21
India,TamilNadu,Chennai,"Kodungaiyur, Chennai - TNPCB",19-02-2024 03:00:00,13.1278,80.2642,PM10,44,154,83
India,TamilNadu,Chennai,"Manali, Chennai - CPCB",19-02-2024 03:00:00,13.164544,80.26285,PM10,55,118,88
India,TamilNadu,Chennai,"Manali, Chennai - CPCB",19-02-2024 03:00:00,13.164544,80.26285,SO2,5,13,9
India,TamilNadu,Chennai,"Perungudi, Chennai - TNPCB",19-02-2024 03:00:00,12.9533,80.2357,PM2.5,49,334,96
India,TamilNadu,Chennai,"Perungudi, Chennai - TNPCB",19-02-2024 03:00:00,12.9533,80.2357,NH3,2,3,2
India,TamilNadu,Chennai,"Royapuram, Chennai - TNPCB",19-02-2024 03:00:00,13.1036,80.2909,PM2.5,42,192,76
India,TamilNadu,Chennai,"Velachery Res. Area, Chennai - CPCB",19-02-2024 03:00:00,13.0052189,80.2398125,PM2.5,34,95,56
India,TamilNadu,Chennai,"Velachery Res. Area, Chennai - CPCB",19-02-2024 03:00:00,13.0052189,80.2398125,SO2,26,29,27
India,TamilNadu,Coimbatore,"PSG College of Arts and Science, Coimbatore - TNPCB",19-02-2024 03:00:00,11.0328,77.0349,NO2,1,7,2
India,TamilNadu,Cuddalore,"Semmandalam, Cuddalore - TNPCB",19-02-2024 03:00:00,11.7637683,79.7499835,NH3,1,3,2
India,TamilNadu,Gummidipoondi,"Anthoni Pillai Nagar, Gummidipoondi - TNPCB",19-02-2024 03:00:00,13.4127,80.1081,PM2.5,27,500,150
India,TamilNadu,Gummidipoondi,"Anthoni Pillai Nagar, Gummidipoondi - TNPCB",19-02-2024 03:00:00,13.4127,80.1081,PM10,38,407,124
India,TamilNadu,Palkalaiperur,"Bharathidasan University, Palkalaiperur - TNPCB",19-02-2024 03:00:00,10.681158,78.741746,SO2,NA,NA,NA
India,TamilNadu,Salem,"Sona College of Technology, Salem - TNPCB",19-02-2024 03:00:00,11.679111,78.125052,CO,NA,NA,NA
India,TamilNadu,Thoothukudi,"Meelavittan, Thoothukudi - TNPCB",19-02-2024 03:00:00,8.816428 ,78.099039,PM10,35,66,50
India,TamilNadu,Thoothukudi,"Meelavittan, Thoothukudi - TNPCB",19-02-2024 03:00:00,8.816428 ,78.099039,SO2,8,19,13
India,TamilNadu,Thoothukudi,"Meelavittan, Thoothukudi - TNPCB",19-02-2024 03:00:00,8.816428 ,78.099039,OZONE,2,70,40
India,TamilNadu,Tirupur,"Kumaran College, Tirupur - TNPCB",19-02-2024 03:00:00,11.0973603,77.3228673,CO,24,107,49
India,TamilNadu,Tirupur,"Kumaran College, Tirupur - TNPCB",19-02-2024 03:00:00,11.0973603,77.3228673,OZONE,7,7,7
India,Telangana,Hyderabad,"Bollaram Industrial Area, Hyderabad - TSPCB",19-02-2024 03:00:00,17.540891,78.358528,PM10,44,114,75
India,Telangana,Hyderabad,"Bollaram Industrial Area, Hyderabad - TSPCB",19-02-2024 03:00:00,17.540891,78.358528,NO2,20,55,34
India,Telangana,Hyderabad,"ECIL Kapra, Hyderabad - TSPCB",19-02-2024 03:00:00,17.470431,78.566959,NH3,7,8,8
India,Telangana,Hyderabad,"ECIL Kapra, Hyderabad - TSPCB",19-02-2024 03:00:00,17.470431,78.566959,OZONE,7,121,50
India,Telangana,Hyderabad,"ICRISAT Patancheru, Hyderabad - TSPCB",19-02-2024 03:00:00,17.518400,78.278777,NO2,15,18,17
India,Telangana,Hyderabad,"ICRISAT Patancheru, Hyderabad - TSPCB",19-02-2024 03:00:00,17.518400,78.278777,SO2,9,22,15
India,Telangana,Hyderabad,"ICRISAT Patancheru, Hyderabad - TSPCB",19-02-2024 03:00:00,17.518400,78.278777,CO,14,64,49
India,Telangana,Hyderabad,"IITH Kandi, Hyderabad - TSPCB",19-02-2024 03:00:00,17.585705,78.126199,NO2,NA,NA,NA
India,Telangana,Hyderabad,"Kompally Municipal Office, Hyderabad - TSPCB",19-02-2024 03:00:00,17.544899,78.486949,SO2,NA,NA,NA
India,Telangana,Hyderabad,"Nacharam_TSIIC IALA, Hyderabad - TSPCB",19-02-2024 03:00:00,17.429398,78.569354,PM2.5,57,85,67
India,Telangana,Hyderabad,"Nacharam_TSIIC IALA, Hyderabad - TSPCB",19-02-2024 03:00:00,17.429398,78.569354,NO2,7,15,10
India,Telangana,Hyderabad,"Nacharam_TSIIC IALA, Hyderabad - TSPCB",19-02-2024 03:00:00,17.429398,78.569354,CO,27,38,28
India,Telangana,Hyderabad,"New Malakpet, Hyderabad - TSPCB",19-02-2024 03:00:00,17.37206,78.50864,PM10,58,63,60
India,Telangana,Hyderabad,"New Malakpet, Hyderabad - TSPCB",19-02-2024 03:00:00,17.37206,78.50864,NH3,2,2,2
India,Telangana,Hyderabad,"New Malakpet, Hyderabad - TSPCB",19-02-2024 03:00:00,17.37206,78.50864,CO,12,36,23
India,Telangana,Hyderabad,"Sanathnagar, Hyderabad - TSPCB",19-02-2024 03:00:00,17.4559458,78.4332152,PM2.5,30,122,65
India,Uttar_Pradesh,Agra,"Manoharpur, Agra - UPPCB",19-02-2024 03:00:00,27.23711,78.01936,NO2,17,17,17
India,Uttar_Pradesh,Agra,"Manoharpur, Agra - UPPCB",19-02-2024 03:00:00,27.23711,78.01936,OZONE,2,30,7
India,Uttar_Pradesh,Agra,"Sanjay Palace, Agra - UPPCB",19-02-2024 03:00:00,27.19865833,78.00598056,CO,4,107,47
India,Uttar_Pradesh,Agra,"Sector-3B Avas Vikas Colony, Agra - UPPCB",19-02-2024 03:00:00,27.19412,77.96237,PM10,40,292,92
India,Uttar_Pradesh,Agra,"Sector-3B Avas Vikas Colony, Agra - UPPCB",19-02-2024 03:00:00,27.19412,77.96237,SO2,12,15,13
India,Uttar_Pradesh,Agra,"Shahjahan Garden, Agra - UPPCB",19-02-2024 03:00:00,27.169338,78.03582,PM10,41,133,80
India,Uttar_Pradesh,Agra,"Shahjahan Garden, Agra - UPPCB",19-02-2024 03:00:00,27.169338,78.03582,NH3,11,15,13
India,Uttar_Pradesh,Baghpat,"Sardar Patel Inter College, Baghpat - UPPCB",19-02-2024 03:00:00,28.964949,77.278761,PM2.5,70,351,224
India,Uttar_Pradesh,Baghpat,"Sardar Patel Inter College, Baghpat - UPPCB",19-02-2024 03:00:00,28.964949,77.278761,PM10,119,260,158
India,Uttar_Pradesh,Bareilly,"Civil Lines, Bareilly - UPPCB",19-02-2024 03:00:00,28.359581,79.414455,PM2.5,35,220,80
India,Uttar_Pradesh,Bareilly,"Civil Lines, Bareilly - UPPCB",19-02-2024 03:00:00,28.359581,79.414455,NH3,1,3,1
India,Uttar_Pradesh,Bareilly,"Rajendra Nagar, Bareilly - UPPCB",19-02-2024 03:00:00,28.38910936,79.42963708,NO2,37,86,61
India,Uttar_Pradesh,Firozabad,"Vibhab Nagar, Firozabad - UPPCB",19-02-2024 03:00:00,27.1594,78.3953,PM2.5,38,238,79
India,Uttar_Pradesh,Firozabad,"Vibhab Nagar, Firozabad - UPPCB",19-02-2024 03:00:00,27.1594,78.3953,NH3,2,2,2
India,Uttar_Pradesh,Firozabad,"Vibhab Nagar, Firozabad - UPPCB",19-02-2024 03:00:00,27.1594,78.3953,OZONE,20,27,20
India,Uttar_Pradesh,Ghaziabad,"Indirapuram, Ghaziabad - UPPCB",19-02-2024 03:00:00,28.646233,77.358075,SO2,7,15,11
India,Uttar_Pradesh,Ghaziabad,"Indirapuram, Ghaziabad - UPPCB",19-02-2024 03:00:00,28.646233,77.358075,CO,12,160,32
India,Uttar_Pradesh,Ghaziabad,"Loni, Ghaziabad - UPPCB",19-02-2024 03:00:00,28.757294,77.278792,PM2.5,78,396,227
India,Uttar_Pradesh,Ghaziabad,"Loni, Ghaziabad - UPPCB",19-02-2024 03:00:00,28.757294,77.278792,PM10,144,484,277
India,Uttar_Pradesh,Ghaziabad,"Loni, Ghaziabad - UPPCB",19-02-2024 03:00:00,28.757294,77.278792,CO,6,136,49
India,Uttar_Pradesh,Ghaziabad,"Sanjay Nagar, Ghaziabad - UPPCB",19-02-2024 03:00:00,28.685382,77.453839,PM10,107,336,179
India,Uttar_Pradesh,Ghaziabad,"Sanjay Nagar, Ghaziabad - UPPCB",19-02-2024 03:00:00,28.685382,77.453839,NO2,44,141,79
India,Uttar_Pradesh,Ghaziabad,"Sanjay Nagar, Ghaziabad - UPPCB",19-02-2024 03:00:00,28.685382,77.453839,CO,2,77,50
India,Uttar_Pradesh,Ghaziabad,"Vasundhara, Ghaziabad - UPPCB",19-02-2024 03:00:00,28.6603346,77.3572563,PM2.5,59,334,174
India,Uttar_Pradesh,Ghaziabad,"Vasundhara, Ghaziabad - UPPCB",19-02-2024 03:00:00,28.6603346,77.3572563,NO2,26,177,71
India,Uttar_Pradesh,Greater Noida,"Knowledge Park - III, Greater Noida - UPPCB",19-02-2024 03:00:00,28.47272,77.482000,PM2.5,80,407,252
India,Uttar_Pradesh,Greater Noida,"Knowledge Park - V, Greater Noida - UPPCB",19-02-2024 03:00:00,28.557054,77.453663,CO,42,156,135
India,Uttar_Pradesh,Hapur,"Anand Vihar, Hapur - UPPCB",19-02-2024 03:00:00,28.725645,77.749675,PM2.5,106,350,217
India,Uttar_Pradesh,Hapur,"Anand Vihar, Hapur - UPPCB",19-02-2024 03:00:00,28.725645,77.749675,PM10,97,229,141
India,Uttar_Pradesh,Jhansi,"Shivaji Nagar, Jhansi - UPPCB",19-02-2024 03:00:00,25.4547,78.6039,NH3,6,6,6
India,Uttar_Pradesh,Jhansi,"Shivaji Nagar, Jhansi - UPPCB",19-02-2024 03:00:00,25.4547,78.6039,SO2,10,13,11
India,Uttar_Pradesh,Jhansi,"Shivaji Nagar, Jhansi - UPPCB",19-02-2024 03:00:00,25.4547,78.6039,CO,22,54,26
India,Uttar_Pradesh,Kanpur,"FTI Kidwai Nagar, Kanpur - UPPCB",19-02-2024 03:00:00,26.428282,80.327067,NO2,19,19,19
India,Uttar_Pradesh,Kanpur,"NSI Kalyanpur, Kanpur - UPPCB",19-02-2024 03:00:00,26.509954,80.249612,CO,34,58,48
India,Uttar_Pradesh,Kanpur,"Nehru Nagar, Kanpur - UPPCB",19-02-2024 03:00:00,26.4703136,80.3229863,CO,10,92,54
India,Uttar_Pradesh,Khurja,"Kalindi Kunj, Khurja - UPPCB",19-02-2024 03:00:00,28.2348927,77.8683002,NO2,20,53,28
India,Uttar_Pradesh,Lucknow,"B R Ambedkar University, Lucknow - UPPCB",19-02-2024 03:00:00,26.766433,80.927299,PM2.5,50,195,103
India,Uttar_Pradesh,Lucknow,"Kendriya Vidyalaya, Lucknow - CPCB",19-02-2024 03:00:00,26.906111,80.948222,PM2.5,NA,NA,NA
India,Uttar_Pradesh,Lucknow,"Kendriya Vidyalaya, Lucknow - CPCB",19-02-2024 03:00:00,26.906111,80.948222,NO2,NA,NA,NA
India,Uttar_Pradesh,Lucknow,"Kukrail Picnic Spot-1, Lucknow - UPPCB",19-02-2024 03:00:00,26.90723,80.98579,PM10,65,133,100
India,Uttar_Pradesh,Lucknow,"Kukrail Picnic Spot-1, Lucknow - UPPCB",19-02-2024 03:00:00,26.90723,80.98579,SO2,29,34,32
India,Uttar_Pradesh,Lucknow,"Kukrail Picnic Spot-1, Lucknow - UPPCB",19-02-2024 03:00:00,26.90723,80.98579,OZONE,1,84,11
India,Uttar_Pradesh,Lucknow,"Talkatora District Industries Center, Lucknow - CPCB",19-02-2024 03:00:00,26.83399722,80.8917361,PM2.5,42,223,134
India,Uttar_Pradesh,Lucknow,"Talkatora District Industries Center, Lucknow - CPCB",19-02-2024 03:00:00,26.83399722,80.8917361,NH3,3,12,6
India,Uttar_Pradesh,Meerut,"Ganga Nagar, Meerut - UPPCB",19-02-2024 03:00:00,28.999264,77.7590354,NO2,25,118,58
India,Uttar_Pradesh,Moradabad,"Buddhi Vihar, Moradabad - UPPCB",19-02-2024 03:00:00,28.83526,78.74460,NH3,2,2,2
India,Uttar_Pradesh,Moradabad,"Employment Office, Moradabad - UPPCB",19-02-2024 03:00:00,28.88528,78.73880,NO2,17,18,18
India,Uttar_Pradesh,Moradabad,"Jigar Colony, Moradabad - UPPCB",19-02-2024 03:00:00,28.856664,78.772638,NO2,24,28,26
India,Uttar_Pradesh,Moradabad,"Jigar Colony, Moradabad - UPPCB",19-02-2024 03:00:00,28.856664,78.772638,NH3,5,6,5
India,Uttar_Pradesh,Moradabad,"Kashiram Nagar, Moradabad - UPPCB",19-02-2024 03:00:00,28.849399,78.742362,PM10,87,180,122
India,Uttar_Pradesh,Moradabad,"Kashiram Nagar, Moradabad - UPPCB",19-02-2024 03:00:00,28.849399,78.742362,SO2,33,55,38
India,Uttar_Pradesh,Moradabad,"Kashiram Nagar, Moradabad - UPPCB",19-02-2024 03:00:00,28.849399,78.742362,OZONE,14,28,15
India,Uttar_Pradesh,Moradabad,"Transport Nagar, Moradabad - UPPCB",19-02-2024 03:00:00,28.802625,78.753728,SO2,41,51,46
India,Uttar_Pradesh,Muzaffarnagar,"New Mandi, Muzaffarnagar - UPPCB",19-02-2024 03:00:00,29.4723508,77.7194031,NH3,3,6,5
India,Uttar_Pradesh,Muzaffarnagar,"New Mandi, Muzaffarnagar - UPPCB",19-02-2024 03:00:00,29.4723508,77.7194031,SO2,14,45,27
India,Uttar_Pradesh,Muzaffarnagar,"New Mandi, Muzaffarnagar - UPPCB",19-02-2024 03:00:00,29.4723508,77.7194031,OZONE,11,151,63
India,Uttar_Pradesh,Noida,"Sector - 125, Noida - UPPCB",19-02-2024 03:00:00,28.5447608,77.3231257,PM2.5,69,351,185
India,Uttar_Pradesh,Noida,"Sector - 125, Noida - UPPCB",19-02-2024 03:00:00,28.5447608,77.3231257,NO2,16,174,67
India,Uttar_Pradesh,Noida,"Sector - 125, Noida - UPPCB",19-02-2024 03:00:00,28.5447608,77.3231257,NH3,7,24,14
India,Uttar_Pradesh,Noida,"Sector - 125, Noida - UPPCB",19-02-2024 03:00:00,28.5447608,77.3231257,CO,3,108,32
India,Uttar_Pradesh,Noida,"Sector - 62, Noida - IMD",19-02-2024 03:00:00,28.6245479,77.3577104,PM2.5,89,365,232
India,Uttar_Pradesh,Noida,"Sector - 62, Noida - IMD",19-02-2024 03:00:00,28.6245479,77.3577104,PM10,137,410,226
India,Uttar_Pradesh,Noida,"Sector-116, Noida - UPPCB",19-02-2024 03:00:00,28.569230,77.393848,PM10,NA,NA,NA
India,Uttar_Pradesh,Noida,"Sector-116, Noida - UPPCB",19-02-2024 03:00:00,28.569230,77.393848,NO2,NA,NA,NA
India,Uttar_Pradesh,Prayagraj,"Jhunsi, Prayagraj - UPPCB",19-02-2024 03:00:00,25.425602,81.917152,NO2,6,6,6
India,Uttar_Pradesh,Prayagraj,"Jhunsi, Prayagraj - UPPCB",19-02-2024 03:00:00,25.425602,81.917152,NH3,5,5,5
India,Uttar_Pradesh,Prayagraj,"Motilal Nehru NIT, Prayagraj - UPPCB",19-02-2024 03:00:00,25.494,81.863,NO2,NA,NA,NA
India,Uttar_Pradesh,Prayagraj,"Motilal Nehru NIT, Prayagraj - UPPCB",19-02-2024 03:00:00,25.494,81.863,SO2,NA,NA,NA
India,Uttar_Pradesh,Prayagraj,"Motilal Nehru NIT, Prayagraj - UPPCB",19-02-2024 03:00:00,25.494,81.863,OZONE,7,30,14
India,Uttar_Pradesh,Prayagraj,"Nagar Nigam, Prayagraj - UPPCB",19-02-2024 03:00:00,25.44919916 ,81.82735986 ,PM2.5,37,146,81
India,Uttar_Pradesh,Varanasi,"IESD Banaras Hindu University, Varanasi - UPPCB",19-02-2024 03:00:00,25.262326,82.995408,PM2.5,9,27,16
India,Uttar_Pradesh,Varanasi,"IESD Banaras Hindu University, Varanasi - UPPCB",19-02-2024 03:00:00,25.262326,82.995408,SO2,15,15,15
India,Uttar_Pradesh,Varanasi,"IESD Banaras Hindu University, Varanasi - UPPCB",19-02-2024 03:00:00,25.262326,82.995408,CO,17,29,23
India,Uttar_Pradesh,Varanasi,"Maldahiya, Varanasi - UPPCB",19-02-2024 03:00:00,25.32393,82.99687,PM2.5,NA,NA,NA
India,Uttar_Pradesh,Varanasi,"Maldahiya, Varanasi - UPPCB",19-02-2024 03:00:00,25.32393,82.99687,PM10,NA,NA,NA
India,Uttar_Pradesh,Varanasi,"Maldahiya, Varanasi - UPPCB",19-02-2024 03:00:00,25.32393,82.99687,SO2,NA,NA,NA
India,Uttarakhand,Dehradun,"Doon University, Dehradun - UKPCB",19-02-2024 03:00:00,30.269444,78.044167,NO2,1,5,3
India,Uttarakhand,Kashipur,"Govt. Girls Inter College, Kashipur - UKPCB",19-02-2024 03:00:00,29.2124114,78.9611753,PM10,101,167,124
India,Uttarakhand,Kashipur,"Govt. Girls Inter College, Kashipur - UKPCB",19-02-2024 03:00:00,29.2124114,78.9611753,NH3,4,8,6
India,Uttarakhand,Rishikesh,"Shivaji Nagar, Rishikesh - UKPCB",19-02-2024 03:00:00,30.075911,78.2859547,PM10,83,115,104
India,West_Bengal,Asansol,"Asansol Court Area, Asansol - WBPCB",19-02-2024 03:00:00,23.685297,86.945968,NO2,28,120,56
India,West_Bengal,Asansol,"Asansol Court Area, Asansol - WBPCB",19-02-2024 03:00:00,23.685297,86.945968,NH3,7,17,10
India,West_Bengal,Asansol,"Asansol Court Area, Asansol - WBPCB",19-02-2024 03:00:00,23.685297,86.945968,CO,14,108,48
India,West_Bengal,Durgapur,"Sidhu Kanhu Indoor Stadium, Durgapur - WBPCB",19-02-2024 03:00:00,23.5404352,87.2892225,NH3,NA,NA,NA
India,West_Bengal,Durgapur,"Sidhu Kanhu Indoor Stadium, Durgapur - WBPCB",19-02-2024 03:00:00,23.5404352,87.2892225,CO,NA,NA,NA
India,West_Bengal,Howrah,"Belur Math, Howrah - WBPCB",19-02-2024 03:00:00,22.629801,88.352017,PM2.5,66,302,154
India,West_Bengal,Howrah,"Belur Math, Howrah - WBPCB",19-02-2024 03:00:00,22.629801,88.352017,NH3,4,7,5
India,West_Bengal,Howrah,"Belur Math, Howrah - WBPCB",19-02-2024 03:00:00,22.629801,88.352017,OZONE,7,71,19
India,West_Bengal,Howrah,"Ghusuri, Howrah - WBPCB",19-02-2024 03:00:00,22.611968,88.347422,OZONE,10,20,13
India,West_Bengal,Howrah,"Padmapukur, Howrah - WBPCB",19-02-2024 03:00:00,22.5687319,88.2797276,PM2.5,68,188,112
India,West_Bengal,Howrah,"Padmapukur, Howrah - WBPCB",19-02-2024 03:00:00,22.5687319,88.2797276,SO2,6,20,11
India,West_Bengal,Howrah,"Padmapukur, Howrah - WBPCB",19-02-2024 03:00:00,22.5687319,88.2797276,OZONE,5,54,12
India,West_Bengal,Kolkata,"Bidhannagar, Kolkata - WBPCB",19-02-2024 03:00:00,22.58157048,88.41002457,PM2.5,97,292,181
India,West_Bengal,Kolkata,"Bidhannagar, Kolkata - WBPCB",19-02-2024 03:00:00,22.58157048,88.41002457,SO2,4,27,15
India,West_Bengal,Kolkata,"Bidhannagar, Kolkata - WBPCB",19-02-2024 03:00:00,22.58157048,88.41002457,CO,29,54,35
India,West_Bengal,Kolkata,"Fort William, Kolkata - WBPCB",19-02-2024 03:00:00,22.556640,88.342674,PM2.5,77,237,133
India,West_Bengal,Kolkata,"Fort William, Kolkata - WBPCB",19-02-2024 03:00:00,22.556640,88.342674,PM10,92,159,122
India,West_Bengal,Kolkata,"Fort William, Kolkata - WBPCB",19-02-2024 03:00:00,22.556640,88.342674,NO2,20,107,45
India,West_Bengal,Kolkata,"Fort William, Kolkata - WBPCB",19-02-2024 03:00:00,22.556640,88.342674,CO,20,52,31
India,West_Bengal,Kolkata,"Jadavpur, Kolkata - WBPCB",19-02-2024 03:00:00,22.49929,88.36917,NO2,1,10,4
India,West_Bengal,Kolkata,"Rabindra Bharati University, Kolkata - WBPCB",19-02-2024 03:00:00,22.627847,88.380669,NH3,7,8,8
India,West_Bengal,Kolkata,"Rabindra Sarobar, Kolkata - WBPCB",19-02-2024 03:00:00,22.51106,88.35142,NH3,4,8,6
India,West_Bengal,Kolkata,"Victoria, Kolkata - WBPCB",19-02-2024 03:00:00,22.5448082,88.3403691,NH3,2,24,10
India,West_Bengal,Kolkata,"Victoria, Kolkata - WBPCB",19-02-2024 03:00:00,22.5448082,88.3403691,OZONE,5,94,28
India,West_Bengal,Siliguri,"Ward-32 Bapupara, Siliguri - WBPCB",19-02-2024 03:00:00,26.6879226,88.4152495,PM2.5,89,258,153
India,Andhra_Pradesh,Amaravati,"Secretariat, Amaravati - APPCB",19-02-2024 03:00:00,16.5150833,80.5181667,PM10,12,87,48
India,Andhra_Pradesh,Chittoor,"Gangineni Cheruvu, Chittoor - APPCB",19-02-2024 03:00:00,13.204880,79.097889,OZONE,7,174,74
India,Andhra_Pradesh,Rajamahendravaram,"Anand Kala Kshetram, Rajamahendravaram - APPCB",19-02-2024 03:00:00,16.9872867,81.7363176,CO,18,42,33
India,Andhra_Pradesh,Tirupati,"Tirumala, Tirupati - APPCB",19-02-2024 03:00:00,13.67,79.35,NO2,33,62,46
India,Andhra_Pradesh,Vijayawada,"Kanuru, Vijayawada - APPCB",19-02-2024 03:00:00,16.486692,80.699436,CO,47,76,55
India,Andhra_Pradesh,Vijayawada,"Kanuru, Vijayawada - APPCB",19-02-2024 03:00:00,16.486692,80.699436,OZONE,25,25,25
India,Andhra_Pradesh,Vijayawada,"Rajiv Gandhi Park, Vijayawada - APPCB",19-02-2024 03:00:00,16.509717,80.612222,PM10,41,72,56
India,Andhra_Pradesh,Vijayawada,"Rajiv Gandhi Park, Vijayawada - APPCB",19-02-2024 03:00:00,16.509717,80.612222,SO2,4,8,6
India,Andhra_Pradesh,Vijayawada,"Rajiv Nagar, Vijayawada - APPCB",19-02-2024 03:00:00,16.554731,80.649110,PM10,1,304,100
India,Andhra_Pradesh,Vijayawada,"Rajiv Nagar, Vijayawada - APPCB",19-02-2024 03:00:00,16.554731,80.649110,SO2,4,37,15
India,Andhra_Pradesh,Visakhapatnam,"GVM Corporation, Visakhapatnam - APPCB",19-02-2024 03:00:00,17.72,83.3,NH3,3,5,4
India,Arunachal_Pradesh,Naharlagun,"Naharlagun, Naharlagun - APSPCB",19-02-2024 03:00:00,27.103358,93.679645,PM10,39,104,60
India,Arunachal_Pradesh,Naharlagun,"Naharlagun, Naharlagun - APSPCB",19-02-2024 03:00:00,27.103358,93.679645,SO2,3,4,3
India,Assam,Guwahati,"LGBI Airport, Guwahati - PCBA",19-02-2024 03:00:00,26.10887,91.589544,CO,3,133,85
India,Assam,Guwahati,"LGBI Airport, Guwahati - PCBA",19-02-2024 03:00:00,26.10887,91.589544,OZONE,2,97,10
India,Assam,Guwahati,"Railway Colony, Guwahati - PCBA",19-02-2024 03:00:00,26.181742,91.78063,SO2,14,16,15
India,Assam,Nagaon,"Christianpatty, Nagaon - PCBA",19-02-2024 03:00:00,26.349082,92.68449,PM2.5,93,330,216
India,Assam,Nagaon,"Christianpatty, Nagaon - PCBA",19-02-2024 03:00:00,26.349082,92.68449,PM10,80,185,125
India,Assam,Nagaon,"Christianpatty, Nagaon - PCBA",19-02-2024 03:00:00,26.349082,92.68449,NO2,8,19,15
India,Assam,Nalbari,"Bata Chowk, Nalbari - PCBA",19-02-2024 03:00:00,26.446912,91.439057,NH3,1,2,1
India,Assam,Nalbari,"Bata Chowk, Nalbari - PCBA",19-02-2024 03:00:00,26.446912,91.439057,SO2,6,8,7
India,Assam,Silchar,"Tarapur, Silchar - PCBA",19-02-2024 03:00:00,24.82827,92.79525,SO2,5,12,9
India,Assam,Sivasagar,"Girls College, Sivasagar - PCBA",19-02-2024 03:00:00,26.987634,94.636574,NO2,17,26,21
India,Bihar,Araria,"Kharahiya Basti, Araria - BSPCB",19-02-2024 03:00:00,26.146529,87.454184,OZONE,1,10,9
India,Bihar,Arrah,"New DM Office, Arrah - BSPCB",19-02-2024 03:00:00,25.5626095,84.663264,NH3,4,8,6
India,Bihar,Aurangabad,"Gurdeo Nagar, Aurangabad - BSPCB",19-02-2024 03:00:00,24.75746,84.366208,PM2.5,NA,NA,NA
India,Bihar,Aurangabad,"Gurdeo Nagar, Aurangabad - BSPCB",19-02-2024 03:00:00,24.75746,84.366208,PM10,NA,NA,NA
India,Bihar,Aurangabad,"Gurdeo Nagar, Aurangabad - BSPCB",19-02-2024 03:00:00,24.75746,84.366208,NH3,5,10,8
India,Bihar,Aurangabad,"Gurdeo Nagar, Aurangabad - BSPCB",19-02-2024 03:00:00,24.75746,84.366208,OZONE,3,46,8
India,Bihar,Bhagalpur,"DM Office_Kachari Chowk, Bhagalpur - BSPCB",19-02-2024 03:00:00,25.251013,86.989001,NO2,29,85,50
India,Bihar,Bhagalpur,"DM Office_Kachari Chowk, Bhagalpur - BSPCB",19-02-2024 03:00:00,25.251013,86.989001,SO2,12,20,16
India,Bihar,Bhagalpur,"DM Office_Kachari Chowk, Bhagalpur - BSPCB",19-02-2024 03:00:00,25.251013,86.989001,CO,32,56,48
India,Bihar,Bhagalpur,"Mayaganj, Bhagalpur - BSPCB",19-02-2024 03:00:00,25.265194,87.012947,NO2,1,21,9
India,Bihar,Bhagalpur,"Mayaganj, Bhagalpur - BSPCB",19-02-2024 03:00:00,25.265194,87.012947,NH3,7,9,8
India,Bihar,Bihar Sharif,"D M Colony, Bihar Sharif - BSPCB",19-02-2024 03:00:00,25.204762,85.514960,PM2.5,25,370,136
India,Bihar,Bihar Sharif,"D M Colony, Bihar Sharif - BSPCB",19-02-2024 03:00:00,25.204762,85.514960,SO2,2,14,7
India,Bihar,Bihar Sharif,"D M Colony, Bihar Sharif - BSPCB",19-02-2024 03:00:00,25.204762,85.514960,OZONE,3,33,6
India,Bihar,Buxar,"Charitra Van, Buxar - BSPCB (Formerly known as Central Jail)",19-02-2024 03:00:00,25.567520,83.966379,PM2.5,62,318,168
India,Bihar,Buxar,"Charitra Van, Buxar - BSPCB (Formerly known as Central Jail)",19-02-2024 03:00:00,25.567520,83.966379,NH3,NA,NA,NA
India,Bihar,Gaya,"Collectorate, Gaya - BSPCB",19-02-2024 03:00:00,24.7955,84.9994,PM2.5,55,354,222
India,Bihar,Gaya,"Kareemganj, Gaya - BSPCB",19-02-2024 03:00:00,24.792403,84.992416,NH3,1,5,3
India,Bihar,Gaya,"SFTI Kusdihra, Gaya - BSPCB",19-02-2024 03:00:00,24.762518,84.982348,SO2,6,9,8
India,Bihar,Hajipur,"Industrial Area, Hajipur - BSPCB",19-02-2024 03:00:00,25.697189,85.245900,CO,12,47,35
India,Bihar,Kishanganj,"SDM Office_Khagra, Kishanganj - BSPCB",19-02-2024 03:00:00,26.0881305,87.93840336,PM2.5,37,378,159
India,Bihar,Kishanganj,"SDM Office_Khagra, Kishanganj - BSPCB",19-02-2024 03:00:00,26.0881305,87.93840336,PM10,89,500,257
India,Bihar,Kishanganj,"SDM Office_Khagra, Kishanganj - BSPCB",19-02-2024 03:00:00,26.0881305,87.93840336,SO2,19,45,26
India,Bihar,Kishanganj,"SDM Office_Khagra, Kishanganj - BSPCB",19-02-2024 03:00:00,26.0881305,87.93840336,OZONE,17,27,18
India,Bihar,Manguraha,"Forest Rest House, Manguraha - BSPCB",19-02-2024 03:00:00,27.308328,84.531742,SO2,3,3,3
India,Bihar,Manguraha,"Forest Rest House, Manguraha - BSPCB",19-02-2024 03:00:00,27.308328,84.531742,OZONE,50,99,61
India,Bihar,Motihari,"Gandak Colony, Motihari - BSPCB",19-02-2024 03:00:00,26.63086,84.90051,NO2,40,71,56
India,Bihar,Motihari,"Gandak Colony, Motihari - BSPCB",19-02-2024 03:00:00,26.63086,84.90051,CO,36,81,55
India,Bihar,Munger,"Town Hall, Munger - BSPCB",19-02-2024 03:00:00,25.376776,86.471523,NO2,8,11,9
India,Bihar,Munger,"Town Hall, Munger - BSPCB",19-02-2024 03:00:00,25.376776,86.471523,NH3,1,2,2
India,Bihar,Muzaffarpur,"MIT-Daudpur Kothi, Muzaffarpur - BSPCB",19-02-2024 03:00:00,26.1403345,85.3650192,PM10,61,274,139
India,Bihar,Muzaffarpur,"MIT-Daudpur Kothi, Muzaffarpur - BSPCB",19-02-2024 03:00:00,26.1403345,85.3650192,NH3,7,20,15
India,Bihar,Patna,"DRM Office Danapur, Patna - BSPCB",19-02-2024 03:00:00,25.586562,85.043586,NH3,3,4,3
India,Bihar,Patna,"DRM Office Danapur, Patna - BSPCB",19-02-2024 03:00:00,25.586562,85.043586,SO2,7,13,8
India,Bihar,Patna,"DRM Office Danapur, Patna - BSPCB",19-02-2024 03:00:00,25.586562,85.043586,OZONE,1,88,1
India,Bihar,Patna,"IGSC Planetarium Complex, Patna - BSPCB",19-02-2024 03:00:00,25.610369,85.132568,PM2.5,60,362,173
India,Bihar,Patna,"IGSC Planetarium Complex, Patna - BSPCB",19-02-2024 03:00:00,25.610369,85.132568,NO2,12,12,12
India,Bihar,Patna,"Muradpur, Patna - BSPCB",19-02-2024 03:00:00,25.619651,85.147382,CO,8,116,88
India,Bihar,Patna,"Rajbansi Nagar, Patna - BSPCB",19-02-2024 03:00:00,25.599486,85.113666,NO2,32,69,44
India,Bihar,Patna,"Rajbansi Nagar, Patna - BSPCB",19-02-2024 03:00:00,25.599486,85.113666,NH3,1,3,2
India,Bihar,Patna,"Samanpura, Patna - BSPCB",19-02-2024 03:00:00,25.596727,85.085624,NO2,24,91,48
India,Bihar,Patna,"Samanpura, Patna - BSPCB",19-02-2024 03:00:00,25.596727,85.085624,CO,27,134,117
India,Bihar,Purnia,"Mariam Nagar, Purnia - BSPCB",19-02-2024 03:00:00,25.366336,87.117468,CO,18,108,98
India,Bihar,Purnia,"Mariam Nagar, Purnia - BSPCB",19-02-2024 03:00:00,25.366336,87.117468,OZONE,9,26,10
India,Bihar,Rajgir,"Dangi Tola, Rajgir - BSPCB",19-02-2024 03:00:00,25.03280,85.41948,PM10,59,322,149
India,Bihar,Rajgir,"Dangi Tola, Rajgir - BSPCB",19-02-2024 03:00:00,25.03280,85.41948,NH3,1,1,1
India,Bihar,Saharsa,"Police Line, Saharsa - BSPCB",19-02-2024 03:00:00,25.892357,86.590325,CO,2,103,58
India,Bihar,Samastipur,"DM Office_Kasipur, Samastipur - BSPCB",19-02-2024 03:00:00,25.859655,85.77944,PM2.5,NA,NA,NA
India,Bihar,Samastipur,"DM Office_Kasipur, Samastipur - BSPCB",19-02-2024 03:00:00,25.859655,85.77944,SO2,7,14,11
India,Bihar,Sasaram,"Dada Peer, Sasaram - BSPCB",19-02-2024 03:00:00,24.952822,84.002396,OZONE,4,88,20
India,Bihar,Siwan,"Chitragupta Nagar, Siwan - BSPCB",19-02-2024 03:00:00,26.2271665,84.3570427,SO2,13,35,31
India,Bihar,Siwan,"Chitragupta Nagar, Siwan - BSPCB",19-02-2024 03:00:00,26.2271665,84.3570427,CO,1,164,63
India,Chandigarh,Chandigarh,"Sector-25, Chandigarh - CPCC",19-02-2024 03:00:00,30.751462,76.762879,NO2,15,67,33
India,Chandigarh,Chandigarh,"Sector-25, Chandigarh - CPCC",19-02-2024 03:00:00,30.751462,76.762879,OZONE,1,48,7
India,Chandigarh,Chandigarh,"Sector-53, Chandigarh - CPCC",19-02-2024 03:00:00,30.719859,76.738637,OZONE,3,74,18
India,Chhattisgarh,Bhilai,"32Bungalows, Bhilai - CECB",19-02-2024 03:00:00,21.194815,81.314770,PM10,43,78,64
India,Chhattisgarh,Bhilai,"Civic Center, Bhilai - Bhilai Steel Plant",19-02-2024 03:00:00,21.185571,81.343175,PM10,38,97,65
India,Chhattisgarh,Bhilai,"Civic Center, Bhilai - Bhilai Steel Plant",19-02-2024 03:00:00,21.185571,81.343175,OZONE,8,64,15
India,Chhattisgarh,Bhilai,"Hathkhoj, Bhilai - CECB",19-02-2024 03:00:00,21.224231,81.408350,NH3,6,8,7
India,Chhattisgarh,Bilaspur,"Mangala, Bilaspur - NTPC",19-02-2024 03:00:00,22.08815,82.13737,NO2,19,21,20
India,Chhattisgarh,Chhal,"Nawapara SECL Colony, Chhal - CECB",19-02-2024 03:00:00,22.118125,83.140608,NO2,18,47,27
India,Chhattisgarh,Korba,"Rampur, Korba - CECB",19-02-2024 03:00:00,22.368195,82.746431,PM2.5,19,48,32
India,Chhattisgarh,Korba,"Rampur, Korba - CECB",19-02-2024 03:00:00,22.368195,82.746431,NO2,35,42,38
India,Chhattisgarh,Korba,"Urja Nagar, Korba - CECB",19-02-2024 03:00:00,22.348441,82.549611,CO,31,60,50
India,Chhattisgarh,Milupara,"Govt. Higher Secondary School, Milupara - CECB",19-02-2024 03:00:00,22.1910172,83.5197009,NH3,1,2,2
India,Chhattisgarh,Milupara,"Govt. Higher Secondary School, Milupara - CECB",19-02-2024 03:00:00,22.1910172,83.5197009,OZONE,6,57,15
India,Chhattisgarh,Raipur,"AIIMS, Raipur - CECB",19-02-2024 03:00:00,21.258815,81.578979,PM10,56,113,79
India,Chhattisgarh,Raipur,"AIIMS, Raipur - CECB",19-02-2024 03:00:00,21.258815,81.578979,SO2,5,10,7
India,Chhattisgarh,Raipur,"Bhatagaon New ISBT, Raipur - CECB",19-02-2024 03:00:00,21.219665,81.630094,PM2.5,41,63,54
India,Chhattisgarh,Raipur,"Bhatagaon New ISBT, Raipur - CECB",19-02-2024 03:00:00,21.219665,81.630094,PM10,48,112,79
India,Chhattisgarh,Raipur,"Bhatagaon New ISBT, Raipur - CECB",19-02-2024 03:00:00,21.219665,81.630094,CO,28,83,66
India,Chhattisgarh,Raipur,"Krishak Nagar, Raipur - CECB",19-02-2024 03:00:00,21.237755,81.705301,OZONE,3,12,3
India,Delhi,Delhi,"Alipur, Delhi - DPCC",19-02-2024 03:00:00,28.815329,77.153010,SO2,9,15,12
India,Delhi,Delhi,"Alipur, Delhi - DPCC",19-02-2024 03:00:00,28.815329,77.153010,CO,8,114,58
India,Delhi,Delhi,"Anand Vihar, Delhi - DPCC",19-02-2024 03:00:00,28.647622,77.3158090,NH3,10,21,14
India,Delhi,Delhi,"Anand Vihar, Delhi - DPCC",19-02-2024 03:00:00,28.647622,77.3158090,CO,98,175,104
India,Delhi,Delhi,"Ashok Vihar, Delhi - DPCC",19-02-2024 03:00:00,28.695381,77.181665,NO2,31,331,138
India,Delhi,Delhi,"Aya Nagar, Delhi - IMD",19-02-2024 03:00:00,28.4706914,77.1099364,PM10,NA,NA,NA
India,Delhi,Delhi,"Aya Nagar, Delhi - IMD",19-02-2024 03:00:00,28.4706914,77.1099364,CO,82,104,84
India,Delhi,Delhi,"Burari Crossing, Delhi - IMD",19-02-2024 03:00:00,28.7256504,77.2011573,PM2.5,58,434,232
India,Delhi,Delhi,"Burari Crossing, Delhi - IMD",19-02-2024 03:00:00,28.7256504,77.2011573,PM10,104,447,231
India,Delhi,Delhi,"Burari Crossing, Delhi - IMD",19-02-2024 03:00:00,28.7256504,77.2011573,OZONE,15,116,24
India,Delhi,Delhi,"Dr. Karni Singh Shooting Range, Delhi - DPCC",19-02-2024 03:00:00,28.498571,77.264840,PM2.5,160,338,236
India,Delhi,Delhi,"Dwarka-Sector 8, Delhi - DPCC ",19-02-2024 03:00:00,28.5710274,77.0719006,NH3,3,7,4
India,Delhi,Delhi,"IGI Airport (T3), Delhi - IMD",19-02-2024 03:00:00,28.5627763,77.1180053,PM2.5,78,364,194
India,Delhi,Delhi,"IGI Airport (T3), Delhi - IMD",19-02-2024 03:00:00,28.5627763,77.1180053,PM10,108,432,194
India,Delhi,Delhi,"IGI Airport (T3), Delhi - IMD",19-02-2024 03:00:00,28.5627763,77.1180053,CO,9,117,24
India,Delhi,Delhi,"IHBAS, Dilshad Garden, Delhi - CPCB",19-02-2024 03:00:00,28.6811736,77.3025234,PM2.5,84,346,203
India,Delhi,Delhi,"IHBAS, Dilshad Garden, Delhi - CPCB",19-02-2024 03:00:00,28.6811736,77.3025234,SO2,2,66,21
India,Delhi,Delhi,"Jahangirpuri, Delhi - DPCC",19-02-2024 03:00:00,28.732820,77.170633,NH3,16,24,20
India,Delhi,Delhi,"Jahangirpuri, Delhi - DPCC",19-02-2024 03:00:00,28.732820,77.170633,CO,72,147,75
India,Delhi,Delhi,"Jahangirpuri, Delhi - DPCC",19-02-2024 03:00:00,28.732820,77.170633,OZONE,6,161,49
India,Delhi,Delhi,"Jawaharlal Nehru Stadium, Delhi - DPCC",19-02-2024 03:00:00,28.580280,77.233829,SO2,6,49,23
India,Delhi,Delhi,"Jawaharlal Nehru Stadium, Delhi - DPCC",19-02-2024 03:00:00,28.580280,77.233829,OZONE,1,117,7
India,Delhi,Delhi,"Lodhi Road, Delhi - IITM",19-02-2024 03:00:00,28.588333,77.221667,PM10,NA,NA,NA
India,Delhi,Delhi,"Lodhi Road, Delhi - IMD",19-02-2024 03:00:00,28.5918245,77.2273074,PM2.5,102,306,199
India,Delhi,Delhi,"Lodhi Road, Delhi - IMD",19-02-2024 03:00:00,28.5918245,77.2273074,NO2,7,31,16
India,Delhi,Delhi,"Lodhi Road, Delhi - IMD",19-02-2024 03:00:00,28.5918245,77.2273074,CO,12,73,23
India,Delhi,Delhi,"Major Dhyan Chand National Stadium, Delhi - DPCC",19-02-2024 03:00:00,28.611281,77.237738,PM2.5,157,342,268
India,Delhi,Delhi,"Mandir Marg, Delhi - DPCC",19-02-2024 03:00:00,28.636429,77.201067,NH3,16,20,18
India,Delhi,Delhi,"Mandir Marg, Delhi - DPCC",19-02-2024 03:00:00,28.636429,77.201067,OZONE,6,22,10
India,Delhi,Delhi,"Mundka, Delhi - DPCC",19-02-2024 03:00:00,28.684678,77.076574,CO,4,109,66
India,Delhi,Delhi,"NSIT Dwarka, Delhi - CPCB",19-02-2024 03:00:00,28.60909,77.0325413,SO2,9,13,11
India,Delhi,Delhi,"Najafgarh, Delhi - DPCC",19-02-2024 03:00:00,28.570173,76.933762,NO2,6,8,7
India,Delhi,Delhi,"Narela, Delhi - DPCC",19-02-2024 03:00:00,28.822836,77.101981,OZONE,3,270,39
India,Delhi,Delhi,"Nehru Nagar, Delhi - DPCC",19-02-2024 03:00:00,28.567890,77.250515,NH3,7,18,12
India,Delhi,Delhi,"New Moti Bagh, Delhi - MHUA",19-02-2024 03:00:00,28.57834,77.18400,PM2.5,92,335,241
India,Delhi,Delhi,"North Campus, DU, Delhi - IMD",19-02-2024 03:00:00,28.6573814,77.1585447,NO2,28,100,57
India,Delhi,Delhi,"Okhla Phase-2, Delhi - DPCC",19-02-2024 03:00:00,28.530785,77.271255,SO2,5,20,9
India,Delhi,Delhi,"Patparganj, Delhi - DPCC",19-02-2024 03:00:00,28.623763,77.287209,PM10,161,343,253
India,Delhi,Delhi,"Patparganj, Delhi - DPCC",19-02-2024 03:00:00,28.623763,77.287209,NH3,7,16,12
India,Delhi,Delhi,"Patparganj, Delhi - DPCC",19-02-2024 03:00:00,28.623763,77.287209,CO,3,114,43
India,Delhi,Delhi,"Patparganj, Delhi - DPCC",19-02-2024 03:00:00,28.623763,77.287209,OZONE,1,98,14
India,Delhi,Delhi,"Punjabi Bagh, Delhi - DPCC",19-02-2024 03:00:00,28.674045,77.131023,SO2,29,50,38
India,Delhi,Delhi,"R K Puram, Delhi - DPCC",19-02-2024 03:00:00,28.563262,77.186937,SO2,NA,NA,NA
India,Delhi,Delhi,"Rohini, Delhi - DPCC",19-02-2024 03:00:00,28.732528,77.119920,PM10,134,469,273
India,Delhi,Delhi,"Rohini, Delhi - DPCC",19-02-2024 03:00:00,28.732528,77.119920,NO2,39,130,80
India,Delhi,Delhi,"Rohini, Delhi - DPCC",19-02-2024 03:00:00,28.732528,77.119920,OZONE,2,114,14
India,Delhi,Delhi,"Shadipur, Delhi - CPCB",19-02-2024 03:00:00,28.6514781,77.1473105,PM10,144,366,211
India,Delhi,Delhi,"Sirifort, Delhi - CPCB",19-02-2024 03:00:00,28.5504249,77.2159377,NH3,10,15,12
India,Delhi,Delhi,"Sirifort, Delhi - CPCB",19-02-2024 03:00:00,28.5504249,77.2159377,SO2,35,49,39
India,Delhi,Delhi,"Sonia Vihar, Delhi - DPCC",19-02-2024 03:00:00,28.710508,77.249485,PM2.5,211,415,332
India,Delhi,Delhi,"Sonia Vihar, Delhi - DPCC",19-02-2024 03:00:00,28.710508,77.249485,NO2,58,195,101
India,Delhi,Delhi,"Vivek Vihar, Delhi - DPCC",19-02-2024 03:00:00,28.672342,77.315260,OZONE,7,20,10
India,Delhi,Delhi,"Wazirpur, Delhi - DPCC",19-02-2024 03:00:00,28.699793,77.165453,SO2,9,60,33
India,Gujarat,Ahmedabad,"Chandkheda, Ahmedabad - IITM",19-02-2024 03:00:00,23.107969,72.574648,NO2,148,304,212
India,Gujarat,Ahmedabad,"Chandkheda, Ahmedabad - IITM",19-02-2024 03:00:00,23.107969,72.574648,SO2,9,94,17
India,Gujarat,Ahmedabad,"Gyaspur, Ahmedabad - IITM",19-02-2024 03:00:00,22.977134,72.553024,CO,28,29,28
India,Gujarat,Ahmedabad,"Maninagar, Ahmedabad - GPCB",19-02-2024 03:00:00,23.002657,72.591912,SO2,2,129,55
India,Gujarat,Ahmedabad,"Rakhial, Ahmedabad - IITM",19-02-2024 03:00:00,23.016834,72.625775,OZONE,1,55,10
India,Gujarat,Ahmedabad,"SAC ISRO Bopal, Ahmedabad - IITM",19-02-2024 03:00:00,23.041137,72.456691,PM2.5,56,332,188
India,Gujarat,Ahmedabad,"SAC ISRO Satellite, Ahmedabad - IITM",19-02-2024 03:00:00,23.023389,72.515201,NH3,3,3,3
India,Gujarat,Ahmedabad,"SVPI Airport Hansol, Ahmedabad - IITM",19-02-2024 03:00:00,23.076793,72.627874,SO2,3,9,4
India,Gujarat,Ankleshwar,"GIDC, Ankleshwar - GPCB",19-02-2024 03:00:00,21.613267,73.010555,CO,25,109,73
India,Gujarat,Gandhinagar,"IIPHG Lekawada, Gandhinagar - IITM",19-02-2024 03:00:00,23.243639,72.68994,PM10,65,151,105
India,Gujarat,Gandhinagar,"IIPHG Lekawada, Gandhinagar - IITM",19-02-2024 03:00:00,23.243639,72.68994,NO2,32,33,32
India,Gujarat,Gandhinagar,"IIPHG Lekawada, Gandhinagar - IITM",19-02-2024 03:00:00,23.243639,72.68994,OZONE,9,45,18
India,Gujarat,Gandhinagar,"Sector-10, Gandhinagar - GPCB",19-02-2024 03:00:00,23.221714,72.654328,NH3,1,2,2
India,Gujarat,Gandhinagar,"Sector-10, Gandhinagar - GPCB",19-02-2024 03:00:00,23.221714,72.654328,SO2,3,14,6
India,Gujarat,Surat,"Science Center, Surat - SMC",19-02-2024 03:00:00,21.170046,72.795405,PM10,26,125,78
India,Gujarat,Vapi,"Phase-1 GIDC, Vapi - GPCB",19-02-2024 03:00:00,20.362421,72.918013,PM10,124,231,161
India,Gujarat,Vapi,"Phase-1 GIDC, Vapi - GPCB",19-02-2024 03:00:00,20.362421,72.918013,NH3,16,18,17
India,Gujarat,Vatva,"Phase-4 GIDC, Vatva - GPCB",19-02-2024 03:00:00,22.969611,72.643500,NO2,22,233,78
India,Haryana,Bahadurgarh,"Arya Nagar, Bahadurgarh - HSPCB",19-02-2024 03:00:00,28.6701,76.9254,NO2,32,39,36
India,Haryana,Bahadurgarh,"Arya Nagar, Bahadurgarh - HSPCB",19-02-2024 03:00:00,28.6701,76.9254,SO2,7,14,10
India,Haryana,Bahadurgarh,"Arya Nagar, Bahadurgarh - HSPCB",19-02-2024 03:00:00,28.6701,76.9254,OZONE,39,51,45
India,Haryana,Charkhi Dadri,"Mini Secretariat, Charkhi Dadri - HSPCB",19-02-2024 03:00:00,28.593883,76.270653,SO2,15,24,19
India,Haryana,Dharuhera,"Municipal Corporation Office, Dharuhera -  HSPCB",19-02-2024 03:00:00,28.206800,76.799700,SO2,5,14,9
India,Haryana,Faridabad,"New Industrial Town, Faridabad - HSPCB",19-02-2024 03:00:00,28.39072,77.30059,PM2.5,167,500,326
India,Haryana,Faridabad,"New Industrial Town, Faridabad - HSPCB",19-02-2024 03:00:00,28.39072,77.30059,NH3,4,14,7
India,Haryana,Faridabad,"New Industrial Town, Faridabad - HSPCB",19-02-2024 03:00:00,28.39072,77.30059,CO,16,68,31
India,Haryana,Faridabad,"Sector 11, Faridabad - HSPCB",19-02-2024 03:00:00,28.376058,77.315741,NH3,6,6,6
India,Haryana,Faridabad,"Sector 11, Faridabad - HSPCB",19-02-2024 03:00:00,28.376058,77.315741,OZONE,3,26,25
India,Haryana,Faridabad,"Sector- 16A, Faridabad - HSPCB",19-02-2024 03:00:00,28.4088421,77.3099081,CO,NA,NA,NA
India,Haryana,Gurugram,"Teri Gram, Gurugram - HSPCB",19-02-2024 03:00:00,28.4275,77.1465,PM10,157,437,235
India,Haryana,Hisar,"Urban Estate-II, Hisar - HSPCB",19-02-2024 03:00:00,29.140560,75.744941,SO2,50,70,61
India,Haryana,Jind,"Police Lines, Jind - HSPCB",19-02-2024 03:00:00,29.307814,76.337619,NH3,2,5,4
India,Haryana,Jind,"Police Lines, Jind - HSPCB",19-02-2024 03:00:00,29.307814,76.337619,OZONE,8,26,18
India,Haryana,Kaithal,"Rishi Nagar, Kaithal - HSPCB",19-02-2024 03:00:00,29.8006,76.4155,PM2.5,90,228,155
India,Haryana,Karnal,"Sector-12, Karnal - HSPCB",19-02-2024 03:00:00,29.695300,77.002700,CO,34,67,49
India,Haryana,Kurukshetra,"Sector-7, Kurukshetra - HSPCB",19-02-2024 03:00:00,29.966942,76.875879,PM2.5,109,218,157
India,Haryana,Kurukshetra,"Sector-7, Kurukshetra - HSPCB",19-02-2024 03:00:00,29.966942,76.875879,NO2,10,10,10
India,Haryana,Kurukshetra,"Sector-7, Kurukshetra - HSPCB",19-02-2024 03:00:00,29.966942,76.875879,NH3,5,5,5
India,Haryana,Kurukshetra,"Sector-7, Kurukshetra - HSPCB",19-02-2024 03:00:00,29.966942,76.875879,SO2,1,54,16
India,Haryana,Manesar,"Sector-2 IMT, Manesar - HSPCB",19-02-2024 03:00:00,28.360699,76.936090,PM10,58,185,114
India,Haryana,Manesar,"Sector-2 IMT, Manesar - HSPCB",19-02-2024 03:00:00,28.360699,76.936090,OZONE,5,50,38
India,Haryana,Narnaul,"Shastri Nagar, Narnaul - HSPCB",19-02-2024 03:00:00,28.060249,76.113115,PM2.5,35,164,69
India,Haryana,Narnaul,"Shastri Nagar, Narnaul - HSPCB",19-02-2024 03:00:00,28.060249,76.113115,PM10,42,139,75
India,Haryana,Narnaul,"Shastri Nagar, Narnaul - HSPCB",19-02-2024 03:00:00,28.060249,76.113115,SO2,13,47,16
India,Haryana,Narnaul,"Shastri Nagar, Narnaul - HSPCB",19-02-2024 03:00:00,28.060249,76.113115,CO,8,26,13
India,Haryana,Palwal,"Shyam Nagar, Palwal - HSPCB",19-02-2024 03:00:00,28.1485564,77.3320667,PM10,109,175,135
India,Haryana,Palwal,"Shyam Nagar, Palwal - HSPCB",19-02-2024 03:00:00,28.1485564,77.3320667,CO,12,21,16
India,Haryana,Panchkula,"Sector-6, Panchkula - HSPCB ",19-02-2024 03:00:00,30.7057778,76.8531805555555,PM2.5,NA,NA,NA
India,Haryana,Panchkula,"Sector-6, Panchkula - HSPCB ",19-02-2024 03:00:00,30.7057778,76.8531805555555,SO2,NA,NA,NA
India,Haryana,Sonipat,"Murthal, Sonipat - HSPCB",19-02-2024 03:00:00,29.027200,77.062100,SO2,NA,NA,NA
India,Haryana,Sonipat,"Murthal, Sonipat - HSPCB",19-02-2024 03:00:00,29.027200,77.062100,OZONE,NA,NA,NA
India,Haryana,Yamuna Nagar,"Gobind Pura, Yamuna Nagar - HSPCB",19-02-2024 03:00:00,30.1480566,77.2893471,NO2,1,15,13
India,Haryana,Yamuna Nagar,"Gobind Pura, Yamuna Nagar - HSPCB",19-02-2024 03:00:00,30.1480566,77.2893471,CO,4,90,53
India,Haryana,Yamuna Nagar,"Gobind Pura, Yamuna Nagar - HSPCB",19-02-2024 03:00:00,30.1480566,77.2893471,OZONE,20,35,30
India,Himachal Pradesh,Baddi,"HIMUDA Complex Phase-1, Baddi - HPPCB",19-02-2024 03:00:00,30.943887,76.801991,PM10,91,316,185
India,Jammu_and_Kashmir,Srinagar,"Rajbagh, Srinagar - JKSPCB",19-02-2024 03:00:00,34.066206,74.819820,SO2,NA,NA,NA
India,Karnataka,Bagalkot,"Vidayagiri, Bagalkot - KSPCB",19-02-2024 03:00:00,16.172806,75.659694,PM2.5,NA,NA,NA
India,Karnataka,Bagalkot,"Vidayagiri, Bagalkot - KSPCB",19-02-2024 03:00:00,16.172806,75.659694,NO2,NA,NA,NA
India,Karnataka,Bagalkot,"Vidayagiri, Bagalkot - KSPCB",19-02-2024 03:00:00,16.172806,75.659694,NH3,NA,NA,NA
India,Karnataka,Belgaum,"Ramteerth Nagar, Belgaum - KSPCB",19-02-2024 03:00:00,15.888653,74.541751,NO2,23,29,26
India,Karnataka,Belgaum,"Ramteerth Nagar, Belgaum - KSPCB",19-02-2024 03:00:00,15.888653,74.541751,SO2,8,9,8
India,Karnataka,Belgaum,"Ramteerth Nagar, Belgaum - KSPCB",19-02-2024 03:00:00,15.888653,74.541751,CO,32,52,44
India,Karnataka,Bengaluru,"Bapuji Nagar, Bengaluru - KSPCB",19-02-2024 03:00:00,12.951913,77.539784,CO,29,38,34
India,Karnataka,Bengaluru,"City Railway Station, Bengaluru - KSPCB",19-02-2024 03:00:00,12.9756843,77.5660749,CO,59,84,69
India,Karnataka,Bengaluru,"Hebbal, Bengaluru - KSPCB",19-02-2024 03:00:00,13.029152,77.585901,NO2,5,5,5
India,Karnataka,Bengaluru,"Hebbal, Bengaluru - KSPCB",19-02-2024 03:00:00,13.029152,77.585901,SO2,10,22,16
India,Karnataka,Bengaluru,"Hombegowda Nagar, Bengaluru - KSPCB",19-02-2024 03:00:00,12.938539,77.590100,PM10,51,111,74
India,Karnataka,Bengaluru,"Hombegowda Nagar, Bengaluru - KSPCB",19-02-2024 03:00:00,12.938539,77.590100,NO2,32,46,36
India,Karnataka,Bengaluru,"Jayanagar 5th Block, Bengaluru - KSPCB",19-02-2024 03:00:00,12.920984,77.584908,NH3,2,3,3
India,Karnataka,Bengaluru,"Jigani, Bengaluru - KSPCB",19-02-2024 03:00:00,12.7816279,77.6299145,CO,48,76,59
India,Karnataka,Bengaluru,"Jigani, Bengaluru - KSPCB",19-02-2024 03:00:00,12.7816279,77.6299145,OZONE,10,96,41
India,Karnataka,Bengaluru,"Peenya, Bengaluru - CPCB",19-02-2024 03:00:00,13.0270199,77.494094,PM2.5,9,167,58
India,Karnataka,Bengaluru,"Sanegurava Halli, Bengaluru - KSPCB",19-02-2024 03:00:00,12.990328,77.5431385,PM10,27,47,32
India,Karnataka,Bengaluru,"Sanegurava Halli, Bengaluru - KSPCB",19-02-2024 03:00:00,12.990328,77.5431385,CO,8,47,18
India,Karnataka,Bengaluru,"Silk Board, Bengaluru - KSPCB",19-02-2024 03:00:00,12.917348,77.622813,PM10,55,146,91
India,Karnataka,Bengaluru,"Silk Board, Bengaluru - KSPCB",19-02-2024 03:00:00,12.917348,77.622813,NH3,NA,NA,NA
India,Karnataka,Bengaluru,"Silk Board, Bengaluru - KSPCB",19-02-2024 03:00:00,12.917348,77.622813,SO2,4,12,9
India,Karnataka,Bidar,"Naubad, Bidar - KSPCB",19-02-2024 03:00:00,17.930306,77.482194,NH3,2,3,3
India,Karnataka,Chikkamagaluru,"Kalyana Nagara, Chikkamagaluru - KSPCB",19-02-2024 03:00:00,13.328028,75.797056,PM2.5,NA,NA,NA
India,Karnataka,Davanagere,"Devaraj Urs Badavane, Davanagere - KSPCB",19-02-2024 03:00:00,14.475800,75.905200,NO2,NA,NA,NA
India,Karnataka,Davanagere,"Devaraj Urs Badavane, Davanagere - KSPCB",19-02-2024 03:00:00,14.475800,75.905200,SO2,NA,NA,NA
India,Karnataka,Gadag,"Panchal Nagar, Gadag - KSPCB",19-02-2024 03:00:00,15.411456,75.638133,NH3,2,3,2
India,Karnataka,Gadag,"Panchal Nagar, Gadag - KSPCB",19-02-2024 03:00:00,15.411456,75.638133,CO,34,45,39
India,Karnataka,Hubballi,"Lingaraj Nagar, Hubballi - KSPCB",19-02-2024 03:00:00,15.3714823,75.1160168,NO2,16,16,16
India,Karnataka,Hubballi,"Lingaraj Nagar, Hubballi - KSPCB",19-02-2024 03:00:00,15.3714823,75.1160168,NH3,2,2,2
India,Karnataka,Kalaburagi,"Lal Bahadur Shastri Nagar, Kalaburagi - KSPCB",19-02-2024 03:00:00,17.321993,76.822628,OZONE,1,62,16
India,Karnataka,Kalaburagi,"Mahatma Basaveswar Colony, Kalaburgi - KSPCB",19-02-2024 03:00:00,17.336318,76.847397,PM10,34,51,45
India,Karnataka,Kalaburagi,"Mahatma Basaveswar Colony, Kalaburgi - KSPCB",19-02-2024 03:00:00,17.336318,76.847397,SO2,5,9,7
India,Karnataka,Kalaburagi,"Mahatma Basaveswar Colony, Kalaburgi - KSPCB",19-02-2024 03:00:00,17.336318,76.847397,OZONE,2,25,11
India,Karnataka,Koppal,"Diwator Nagar, Koppal - KSPCB",19-02-2024 03:00:00,15.347630,76.181767,PM2.5,15,54,37
India,Karnataka,Koppal,"Diwator Nagar, Koppal - KSPCB",19-02-2024 03:00:00,15.347630,76.181767,CO,27,43,35
India,Karnataka,Koppal,"Diwator Nagar, Koppal - KSPCB",19-02-2024 03:00:00,15.347630,76.181767,OZONE,1,44,9
India,Karnataka,Madikeri,"Stuart Hill, Madikeri - KSPCB",19-02-2024 03:00:00,12.415911,75.735050,NO2,5,90,12
India,Karnataka,Mangalore,"Kadri, Mangalore - KSPCB",19-02-2024 03:00:00,12.889250,74.853000,CO,32,45,38
India,Karnataka,Raichur,"Haji Colony, Raichur - KSPCB",19-02-2024 03:00:00,16.208139,77.348417,PM2.5,7,54,19
India,Karnataka,Raichur,"Haji Colony, Raichur - KSPCB",19-02-2024 03:00:00,16.208139,77.348417,NO2,16,58,32
India,Karnataka,Ramanagara,"Vijay Nagar, Ramanagara - KSPCB",19-02-2024 03:00:00,12.733409,77.298051,NO2,2,20,6
India,Karnataka,Shivamogga,"Vinoba Nagara, Shivamogga - KSPCB",19-02-2024 03:00:00,13.940000,75.555917,NO2,8,14,12
India,Karnataka,Shivamogga,"Vinoba Nagara, Shivamogga - KSPCB",19-02-2024 03:00:00,13.940000,75.555917,CO,6,28,18
India,Karnataka,Tumakuru,"Thimmalapura, Tumakuru - KSPCB",19-02-2024 03:00:00,13.377516,77.099072,PM2.5,15,26,20
India,Karnataka,Tumakuru,"Thimmalapura, Tumakuru - KSPCB",19-02-2024 03:00:00,13.377516,77.099072,SO2,8,14,10
India,Karnataka,Vijayapura,"Ibrahimpur, Vijayapura - KSPCB",19-02-2024 03:00:00,16.802639,75.722694,NH3,2,2,2
India,Kerala,Eloor,"Udyogamandal, Eloor - Kerala PCB",19-02-2024 03:00:00,10.073232,76.302765,NO2,4,4,4
India,Kerala,Eloor,"Udyogamandal, Eloor - Kerala PCB",19-02-2024 03:00:00,10.073232,76.302765,NH3,1,1,1
India,Kerala,Kannur,"Thavakkara, Kannur - Kerala PCB",19-02-2024 03:00:00,11.875000,75.373200,SO2,5,7,6
India,Kerala,Kannur,"Thavakkara, Kannur - Kerala PCB",19-02-2024 03:00:00,11.875000,75.373200,CO,30,38,33
India,Kerala,Kollam,"Polayathode, Kollam - Kerala PCB",19-02-2024 03:00:00,8.8787,76.6073,PM2.5,NA,NA,NA
India,Kerala,Kollam,"Polayathode, Kollam - Kerala PCB",19-02-2024 03:00:00,8.8787,76.6073,PM10,NA,NA,NA
India,Kerala,Thiruvananthapuram,"Plammoodu, Thiruvananthapuram - Kerala PCB",19-02-2024 03:00:00,8.5149093,76.9435879,NH3,2,2,2
India,Madhya Pradesh,Bhopal,"Idgah Hills, Bhopal - MPPCB",19-02-2024 03:00:00,23.264759,77.381568,PM10,65,157,108
India,Madhya Pradesh,Bhopal,"Idgah Hills, Bhopal - MPPCB",19-02-2024 03:00:00,23.264759,77.381568,OZONE,21,97,41
India,Madhya Pradesh,Bhopal,"Paryavaran Parisar, Bhopal - MPPCB",19-02-2024 03:00:00,23.210494,77.425409,NO2,19,96,58
India,Madhya Pradesh,Bhopal,"T T Nagar, Bhopal - MPPCB",19-02-2024 03:00:00,23.233584,77.400574,PM2.5,56,199,108
India,Madhya Pradesh,Gwalior,"City Center, Gwalior - MPPCB",19-02-2024 03:00:00,26.203442,78.193251,PM2.5,44,333,134
India,Madhya Pradesh,Gwalior,"City Center, Gwalior - MPPCB",19-02-2024 03:00:00,26.203442,78.193251,CO,22,60,49
India,Madhya Pradesh,Gwalior,"Deen Dayal Nagar, Gwalior - MPPCB",19-02-2024 03:00:00,26.259242,78.216432,NO2,40,101,65
India,Madhya Pradesh,Gwalior,"Maharaj Bada, Gwalior - MPPCB",19-02-2024 03:00:00,26.200388,78.147714,PM10,82,182,124
India,Madhya Pradesh,Gwalior,"Maharaj Bada, Gwalior - MPPCB",19-02-2024 03:00:00,26.200388,78.147714,CO,14,103,78
India,Madhya Pradesh,Gwalior,"Maharaj Bada, Gwalior - MPPCB",19-02-2024 03:00:00,26.200388,78.147714,OZONE,30,144,63
India,Madhya Pradesh,Gwalior,"Phool Bagh, Gwalior - Mondelez Ind. Food",19-02-2024 03:00:00,26.210536,78.171,PM2.5,8,167,82
India,Madhya Pradesh,Gwalior,"Phool Bagh, Gwalior - Mondelez Ind. Food",19-02-2024 03:00:00,26.210536,78.171,SO2,10,14,12
India,Madhya Pradesh,Indore,"Maguda Nagar, Indore - IMC",19-02-2024 03:00:00,22.7524,75.8872,CO,NA,NA,NA
India,Madhya Pradesh,Indore,"Regional Park, Indore - IMC",19-02-2024 03:00:00,22.6780,75.8559,PM2.5,34,147,78
India,Madhya Pradesh,Indore,"Regional Park, Indore - IMC",19-02-2024 03:00:00,22.6780,75.8559,NO2,7,14,10
India,Madhya Pradesh,Indore,"Regional Park, Indore - IMC",19-02-2024 03:00:00,22.6780,75.8559,SO2,39,42,41
