country,state,city,station,last_update,latitude,longitude,pollutant_id,pollutant_min,pollutant_max,pollutant_avg
India,Andhra_Pradesh,Amaravati,"Secretariat, Amaravati - APPCB",08-05-2024 00:00:00,16.5150833,80.5181667,CO,4,130,68
India,Andhra_Pradesh,Anantapur,"Gulzarpet, Anantapur - APPCB",08-05-2024 00:00:00,14.675886,77.593027,PM2.5,20,53,38
India,Andhra_Pradesh,Chittoor,"Gangineni Cheruvu, Chittoor - APPCB",08-05-2024 00:00:00,13.204880,79.097889,PM2.5,NA,NA,NA
India,Andhra_Pradesh,Tirupati,"Tirumala, Tirupati - APPCB",08-05-2024 00:00:00,13.67,79.35,PM2.5,28,62,43
India,Andhra_Pradesh,Tirupati,"Tirumala, Tirupati - APPCB",08-05-2024 00:00:00,13.67,79.35,NH3,1,2,1
India,Andhra_Pradesh,Tirupati,"Vaikuntapuram, Tirupati - APPCB",08-05-2024 00:00:00,13.615387,79.409230,NH3,2,3,2
India,Andhra_Pradesh,Tirupati,"Vaikuntapuram, Tirupati - APPCB",08-05-2024 00:00:00,13.615387,79.409230,SO2,4,5,5
India,Andhra_Pradesh,Tirupati,"Vaikuntapuram, Tirupati - APPCB",08-05-2024 00:00:00,13.615387,79.409230,OZONE,8,31,17
India,Andhra_Pradesh,Vijayawada,"HB Colony, Vijayawada - APPCB",08-05-2024 00:00:00,16.536107,80.594233,PM2.5,41,87,53
India,Andhra_Pradesh,Vijayawada,"Kanuru, Vijayawada - APPCB",08-05-2024 00:00:00,16.486692,80.699436,PM10,56,80,64
India,Andhra_Pradesh,Vijayawada,"Kanuru, Vijayawada - APPCB",08-05-2024 00:00:00,16.486692,80.699436,NO2,58,66,61
India,Andhra_Pradesh,Vijayawada,"Kanuru, Vijayawada - APPCB",08-05-2024 00:00:00,16.486692,80.699436,OZONE,29,29,29
India,Andhra_Pradesh,Vijayawada,"Rajiv Gandhi Park, Vijayawada - APPCB",08-05-2024 00:00:00,16.509717,80.612222,OZONE,20,312,78
India,Andhra_Pradesh,Vijayawada,"Rajiv Nagar, Vijayawada - APPCB",08-05-2024 00:00:00,16.554731,80.649110,NH3,2,3,2
India,Arunachal_Pradesh,Naharlagun,"Naharlagun, Naharlagun - APSPCB",08-05-2024 00:00:00,27.103358,93.679645,PM10,13,62,37
India,Arunachal_Pradesh,Naharlagun,"Naharlagun, Naharlagun - APSPCB",08-05-2024 00:00:00,27.103358,93.679645,SO2,4,4,4
India,Assam,Byrnihat,"Central Academy for SFS, Byrnihat - PCBA",08-05-2024 00:00:00,26.071318,91.87488,NO2,13,51,26
India,Assam,Guwahati,"IITG, Guwahati - PCBA",08-05-2024 00:00:00,26.2028636,91.70046436,PM10,22,74,39
India,Assam,Guwahati,"IITG, Guwahati - PCBA",08-05-2024 00:00:00,26.2028636,91.70046436,NH3,5,5,5
India,Assam,Guwahati,"IITG, Guwahati - PCBA",08-05-2024 00:00:00,26.2028636,91.70046436,SO2,14,15,15
India,Assam,Guwahati,"LGBI Airport, Guwahati - PCBA",08-05-2024 00:00:00,26.10887,91.589544,PM2.5,12,311,63
India,Assam,Guwahati,"LGBI Airport, Guwahati - PCBA",08-05-2024 00:00:00,26.10887,91.589544,SO2,11,14,12
India,Assam,Guwahati,"Pan Bazaar, Guwahati - PCBA",08-05-2024 00:00:00,26.187500,91.744194,PM2.5,16,53,31
India,Assam,Guwahati,"Pan Bazaar, Guwahati - PCBA",08-05-2024 00:00:00,26.187500,91.744194,OZONE,16,17,17
India,Assam,Guwahati,"Railway Colony, Guwahati - PCBA",08-05-2024 00:00:00,26.181742,91.78063,PM10,26,146,51
India,Assam,Guwahati,"Railway Colony, Guwahati - PCBA",08-05-2024 00:00:00,26.181742,91.78063,CO,14,92,50
India,Assam,Guwahati,"Railway Colony, Guwahati - PCBA",08-05-2024 00:00:00,26.181742,91.78063,OZONE,1,38,22
India,Assam,Nagaon,"Christianpatty, Nagaon - PCBA",08-05-2024 00:00:00,26.349082,92.68449,PM2.5,57,170,84
India,Assam,Nalbari,"Bata Chowk, Nalbari - PCBA",08-05-2024 00:00:00,26.446912,91.439057,PM10,18,159,57
India,Assam,Nalbari,"Bata Chowk, Nalbari - PCBA",08-05-2024 00:00:00,26.446912,91.439057,OZONE,1,12,9
India,Assam,Sivasagar,"Girls College, Sivasagar - PCBA",08-05-2024 00:00:00,26.987634,94.636574,SO2,4,6,5
India,Assam,Sivasagar,"Girls College, Sivasagar - PCBA",08-05-2024 00:00:00,26.987634,94.636574,CO,24,32,27
India,Bihar,Araria,"Kharahiya Basti, Araria - BSPCB",08-05-2024 00:00:00,26.146529,87.454184,PM2.5,NA,NA,NA
India,Bihar,Araria,"Kharahiya Basti, Araria - BSPCB",08-05-2024 00:00:00,26.146529,87.454184,PM10,NA,NA,NA
India,Bihar,Araria,"Kharahiya Basti, Araria - BSPCB",08-05-2024 00:00:00,26.146529,87.454184,SO2,NA,NA,NA
India,Bihar,Araria,"Kharahiya Basti, Araria - BSPCB",08-05-2024 00:00:00,26.146529,87.454184,CO,24,28,25
India,Bihar,Araria,"Kharahiya Basti, Araria - BSPCB",08-05-2024 00:00:00,26.146529,87.454184,OZONE,8,10,9
India,Bihar,Arrah,"New DM Office, Arrah - BSPCB",08-05-2024 00:00:00,25.5626095,84.663264,PM10,19,164,94
India,Bihar,Aurangabad,"Gurdeo Nagar, Aurangabad - BSPCB",08-05-2024 00:00:00,24.75746,84.366208,PM10,NA,NA,NA
India,Bihar,Aurangabad,"Gurdeo Nagar, Aurangabad - BSPCB",08-05-2024 00:00:00,24.75746,84.366208,CO,4,36,23
India,Bihar,Bettiah,"Kamalnath Nagar, Bettiah - BSPCB",08-05-2024 00:00:00,26.80365,84.51954,OZONE,1,9,4
India,Bihar,Bhagalpur,"Mayaganj, Bhagalpur - BSPCB",08-05-2024 00:00:00,25.265194,87.012947,NO2,4,10,7
India,Bihar,Bihar Sharif,"D M Colony, Bihar Sharif - BSPCB",08-05-2024 00:00:00,25.204762,85.514960,NO2,8,10,9
India,Bihar,Buxar,"Charitra Van, Buxar - BSPCB (Formerly known as Central Jail)",08-05-2024 00:00:00,25.567520,83.966379,NO2,1,1,1
India,Bihar,Buxar,"Charitra Van, Buxar - BSPCB (Formerly known as Central Jail)",08-05-2024 00:00:00,25.567520,83.966379,NH3,3,4,3
India,Bihar,Buxar,"Charitra Van, Buxar - BSPCB (Formerly known as Central Jail)",08-05-2024 00:00:00,25.567520,83.966379,CO,48,78,61
India,Bihar,Chhapra,"Darshan Nagar, Chhapra - BSPCB",08-05-2024 00:00:00,25.7808257,84.7446768,PM2.5,17,197,65
India,Bihar,Gaya,"Collectorate, Gaya - BSPCB",08-05-2024 00:00:00,24.7955,84.9994,SO2,6,20,11
India,Bihar,Gaya,"Kareemganj, Gaya - BSPCB",08-05-2024 00:00:00,24.792403,84.992416,SO2,5,11,10
India,Bihar,Gaya,"SFTI Kusdihra, Gaya - BSPCB",08-05-2024 00:00:00,24.762518,84.982348,NO2,23,44,33
India,Bihar,Hajipur,"Industrial Area, Hajipur - BSPCB",08-05-2024 00:00:00,25.697189,85.245900,NO2,59,64,61
India,Bihar,Hajipur,"Industrial Area, Hajipur - BSPCB",08-05-2024 00:00:00,25.697189,85.245900,SO2,6,7,7
India,Bihar,Katihar,"Mirchaibari, Katihar - BSPCB",08-05-2024 00:00:00,25.560083,87.553265,OZONE,11,16,13
India,Bihar,Kishanganj,"SDM Office_Khagra, Kishanganj - BSPCB",08-05-2024 00:00:00,26.0881305,87.93840336,PM10,40,179,107
India,Bihar,Munger,"Town Hall, Munger - BSPCB",08-05-2024 00:00:00,25.376776,86.471523,PM2.5,25,223,84
India,Bihar,Muzaffarpur,"Buddha Colony, Muzaffarpur - BSPCB",08-05-2024 00:00:00,26.11442,85.39813,PM10,35,172,95
India,Bihar,Muzaffarpur,"Buddha Colony, Muzaffarpur - BSPCB",08-05-2024 00:00:00,26.11442,85.39813,OZONE,24,40,34
India,Bihar,Muzaffarpur,"MIT-Daudpur Kothi, Muzaffarpur - BSPCB",08-05-2024 00:00:00,26.1403345,85.3650192,NO2,4,6,5
India,Bihar,Muzaffarpur,"Muzaffarpur Collectorate, Muzaffarpur - BSPCB",08-05-2024 00:00:00,26.1209,85.3647,PM2.5,13,74,48
India,Bihar,Patna,"DRM Office Danapur, Patna - BSPCB",08-05-2024 00:00:00,25.586562,85.043586,SO2,3,9,7
India,Bihar,Patna,"IGSC Planetarium Complex, Patna - BSPCB",08-05-2024 00:00:00,25.610369,85.132568,PM2.5,38,113,75
India,Bihar,Patna,"IGSC Planetarium Complex, Patna - BSPCB",08-05-2024 00:00:00,25.610369,85.132568,NO2,11,11,11
India,Bihar,Patna,"IGSC Planetarium Complex, Patna - BSPCB",08-05-2024 00:00:00,25.610369,85.132568,SO2,5,7,5
India,Bihar,Patna,"IGSC Planetarium Complex, Patna - BSPCB",08-05-2024 00:00:00,25.610369,85.132568,CO,12,16,13
India,Bihar,Patna,"Rajbansi Nagar, Patna - BSPCB",08-05-2024 00:00:00,25.599486,85.113666,CO,23,45,37
India,Bihar,Patna,"Samanpura, Patna - BSPCB",08-05-2024 00:00:00,25.596727,85.085624,PM2.5,NA,NA,NA
India,Bihar,Patna,"Samanpura, Patna - BSPCB",08-05-2024 00:00:00,25.596727,85.085624,PM10,42,291,176
India,Bihar,Rajgir,"Dangi Tola, Rajgir - BSPCB",08-05-2024 00:00:00,25.03280,85.41948,NH3,2,7,3
India,Bihar,Saharsa,"Police Line, Saharsa - BSPCB",08-05-2024 00:00:00,25.892357,86.590325,NO2,7,8,7
India,Bihar,Saharsa,"Police Line, Saharsa - BSPCB",08-05-2024 00:00:00,25.892357,86.590325,SO2,16,16,16
India,Bihar,Sasaram,"Dada Peer, Sasaram - BSPCB",08-05-2024 00:00:00,24.952822,84.002396,PM2.5,13,48,29
India,Bihar,Sasaram,"Dada Peer, Sasaram - BSPCB",08-05-2024 00:00:00,24.952822,84.002396,NO2,5,58,38
India,Bihar,Siwan,"Chitragupta Nagar, Siwan - BSPCB",08-05-2024 00:00:00,26.2271665,84.3570427,SO2,12,35,31
India,Bihar,Siwan,"Chitragupta Nagar, Siwan - BSPCB",08-05-2024 00:00:00,26.2271665,84.3570427,CO,66,124,113
India,Chandigarh,Chandigarh,"Sector 22, Chandigarh - CPCC",08-05-2024 00:00:00,30.735567,76.775714,PM2.5,58,307,155
India,Chandigarh,Chandigarh,"Sector 22, Chandigarh - CPCC",08-05-2024 00:00:00,30.735567,76.775714,PM10,83,195,138
India,Chandigarh,Chandigarh,"Sector 22, Chandigarh - CPCC",08-05-2024 00:00:00,30.735567,76.775714,NO2,25,175,62
India,Chandigarh,Chandigarh,"Sector-53, Chandigarh - CPCC",08-05-2024 00:00:00,30.719859,76.738637,PM10,75,345,169
India,Chandigarh,Chandigarh,"Sector-53, Chandigarh - CPCC",08-05-2024 00:00:00,30.719859,76.738637,CO,34,127,90
India,Chhattisgarh,Bhilai,"Civic Center, Bhilai - Bhilai Steel Plant",08-05-2024 00:00:00,21.185571,81.343175,PM10,21,139,46
India,Chhattisgarh,Bhilai,"Hathkhoj, Bhilai - CECB",08-05-2024 00:00:00,21.224231,81.408350,NO2,12,42,21
India,Chhattisgarh,Bhilai,"Hathkhoj, Bhilai - CECB",08-05-2024 00:00:00,21.224231,81.408350,NH3,8,9,9
India,Chhattisgarh,Bilaspur,"Mangala, Bilaspur - NTPC",08-05-2024 00:00:00,22.08815,82.13737,CO,41,48,44
India,Chhattisgarh,Chhal,"Nawapara SECL Colony, Chhal - CECB",08-05-2024 00:00:00,22.118125,83.140608,PM2.5,1,100,72
India,Chhattisgarh,Chhal,"Nawapara SECL Colony, Chhal - CECB",08-05-2024 00:00:00,22.118125,83.140608,NO2,9,31,20
India,Chhattisgarh,Korba,"Rampur, Korba - CECB",08-05-2024 00:00:00,22.368195,82.746431,OZONE,8,30,23
India,Chhattisgarh,Milupara,"Govt. Higher Secondary School, Milupara - CECB",08-05-2024 00:00:00,22.1910172,83.5197009,PM2.5,NA,NA,NA
India,Chhattisgarh,Raipur,"Krishak Nagar, Raipur - CECB",08-05-2024 00:00:00,21.237755,81.705301,CO,13,28,21
India,Chhattisgarh,Raipur,"Siltara Phase-II, Raipur - CECB",08-05-2024 00:00:00,21.371751,81.664929,OZONE,3,23,8
India,Chhattisgarh,Tumidih,"OP Jindal Industrial Park, Tumidih - CECB",08-05-2024 00:00:00,22.06631475,83.33820077,CO,20,34,28
India,Delhi,Delhi,"Alipur, Delhi - DPCC",08-05-2024 00:00:00,28.815329,77.153010,PM2.5,77,404,287
India,Delhi,Delhi,"Anand Vihar, Delhi - DPCC",08-05-2024 00:00:00,28.647622,77.3158090,NO2,51,198,106
India,Delhi,Delhi,"Ashok Vihar, Delhi - DPCC",08-05-2024 00:00:00,28.695381,77.181665,PM10,196,482,339
India,Delhi,Delhi,"Ashok Vihar, Delhi - DPCC",08-05-2024 00:00:00,28.695381,77.181665,SO2,24,77,44
India,Delhi,Delhi,"Ashok Vihar, Delhi - DPCC",08-05-2024 00:00:00,28.695381,77.181665,OZONE,5,274,87
India,Delhi,Delhi,"Bawana, Delhi - DPCC",08-05-2024 00:00:00,28.776200,77.051074,PM10,212,498,342
India,Delhi,Delhi,"DTU, Delhi - CPCB",08-05-2024 00:00:00,28.7500499,77.1112615,SO2,37,52,42
India,Delhi,Delhi,"IGI Airport (T3), Delhi - IMD",08-05-2024 00:00:00,28.5627763,77.1180053,PM2.5,55,456,253
India,Delhi,Delhi,"IHBAS, Dilshad Garden, Delhi - CPCB",08-05-2024 00:00:00,28.6811736,77.3025234,NO2,34,59,47
India,Delhi,Delhi,"ITO, Delhi - CPCB",08-05-2024 00:00:00,28.628624,77.241060,PM2.5,122,388,278
India,Delhi,Delhi,"ITO, Delhi - CPCB",08-05-2024 00:00:00,28.628624,77.241060,SO2,12,40,20
India,Delhi,Delhi,"ITO, Delhi - CPCB",08-05-2024 00:00:00,28.628624,77.241060,OZONE,12,217,38
India,Delhi,Delhi,"Jahangirpuri, Delhi - DPCC",08-05-2024 00:00:00,28.732820,77.170633,PM2.5,103,453,320
India,Delhi,Delhi,"Jahangirpuri, Delhi - DPCC",08-05-2024 00:00:00,28.732820,77.170633,PM10,178,499,352
India,Delhi,Delhi,"Jahangirpuri, Delhi - DPCC",08-05-2024 00:00:00,28.732820,77.170633,CO,52,113,84
India,Delhi,Delhi,"Jawaharlal Nehru Stadium, Delhi - DPCC",08-05-2024 00:00:00,28.580280,77.233829,NO2,57,268,138
India,Delhi,Delhi,"Jawaharlal Nehru Stadium, Delhi - DPCC",08-05-2024 00:00:00,28.580280,77.233829,NH3,8,14,10
India,Delhi,Delhi,"Lodhi Road, Delhi - IITM",08-05-2024 00:00:00,28.588333,77.221667,PM2.5,63,315,175
India,Delhi,Delhi,"Lodhi Road, Delhi - IITM",08-05-2024 00:00:00,28.588333,77.221667,PM10,85,161,108
India,Delhi,Delhi,"Lodhi Road, Delhi - IMD",08-05-2024 00:00:00,28.5918245,77.2273074,PM2.5,101,378,239
India,Delhi,Delhi,"Lodhi Road, Delhi - IMD",08-05-2024 00:00:00,28.5918245,77.2273074,OZONE,9,97,41
India,Delhi,Delhi,"Major Dhyan Chand National Stadium, Delhi - DPCC",08-05-2024 00:00:00,28.611281,77.237738,PM10,177,427,247
India,Delhi,Delhi,"Major Dhyan Chand National Stadium, Delhi - DPCC",08-05-2024 00:00:00,28.611281,77.237738,SO2,23,73,32
India,Delhi,Delhi,"Major Dhyan Chand National Stadium, Delhi - DPCC",08-05-2024 00:00:00,28.611281,77.237738,OZONE,1,272,98
India,Delhi,Delhi,"Najafgarh, Delhi - DPCC",08-05-2024 00:00:00,28.570173,76.933762,PM10,102,500,279
India,Delhi,Delhi,"Najafgarh, Delhi - DPCC",08-05-2024 00:00:00,28.570173,76.933762,NH3,6,19,10
India,Delhi,Delhi,"Najafgarh, Delhi - DPCC",08-05-2024 00:00:00,28.570173,76.933762,OZONE,15,190,102
India,Delhi,Delhi,"Narela, Delhi - DPCC",08-05-2024 00:00:00,28.822836,77.101981,NO2,13,87,52
India,Delhi,Delhi,"Narela, Delhi - DPCC",08-05-2024 00:00:00,28.822836,77.101981,NH3,6,10,7
India,Delhi,Delhi,"Narela, Delhi - DPCC",08-05-2024 00:00:00,28.822836,77.101981,CO,18,79,52
India,Delhi,Delhi,"Nehru Nagar, Delhi - DPCC",08-05-2024 00:00:00,28.567890,77.250515,PM2.5,138,407,282
India,Delhi,Delhi,"Nehru Nagar, Delhi - DPCC",08-05-2024 00:00:00,28.567890,77.250515,OZONE,2,269,110
India,Delhi,Delhi,"New Moti Bagh, Delhi - MHUA",08-05-2024 00:00:00,28.57834,77.18400,NO2,11,91,34
India,Delhi,Delhi,"North Campus, DU, Delhi - IMD",08-05-2024 00:00:00,28.6573814,77.1585447,NO2,22,112,51
India,Delhi,Delhi,"North Campus, DU, Delhi - IMD",08-05-2024 00:00:00,28.6573814,77.1585447,CO,94,131,110
India,Delhi,Delhi,"Okhla Phase-2, Delhi - DPCC",08-05-2024 00:00:00,28.530785,77.271255,SO2,11,29,19
India,Delhi,Delhi,"Patparganj, Delhi - DPCC",08-05-2024 00:00:00,28.623763,77.287209,NO2,NA,NA,NA
India,Delhi,Delhi,"Patparganj, Delhi - DPCC",08-05-2024 00:00:00,28.623763,77.287209,CO,73,101,87
India,Delhi,Delhi,"Pusa, Delhi - DPCC",08-05-2024 00:00:00,28.639652,77.146275,SO2,13,78,26
India,Delhi,Delhi,"Pusa, Delhi - DPCC",08-05-2024 00:00:00,28.639652,77.146275,OZONE,9,258,89
India,Delhi,Delhi,"Pusa, Delhi - IMD",08-05-2024 00:00:00,28.636110,77.173332,PM2.5,128,483,318
India,Delhi,Delhi,"R K Puram, Delhi - DPCC",08-05-2024 00:00:00,28.563262,77.186937,PM10,159,469,269
India,Delhi,Delhi,"Shadipur, Delhi - CPCB",08-05-2024 00:00:00,28.6514781,77.1473105,PM10,217,500,385
India,Delhi,Delhi,"Shadipur, Delhi - CPCB",08-05-2024 00:00:00,28.6514781,77.1473105,OZONE,14,51,30
India,Delhi,Delhi,"Sirifort, Delhi - CPCB",08-05-2024 00:00:00,28.5504249,77.2159377,NO2,42,57,45
India,Delhi,Delhi,"Sirifort, Delhi - CPCB",08-05-2024 00:00:00,28.5504249,77.2159377,NH3,18,20,19
India,Delhi,Delhi,"Sri Aurobindo Marg, Delhi - DPCC",08-05-2024 00:00:00,28.531346,77.190156,PM2.5,110,442,249
India,Delhi,Delhi,"Vivek Vihar, Delhi - DPCC",08-05-2024 00:00:00,28.672342,77.315260,PM2.5,103,473,302
India,Delhi,Delhi,"Vivek Vihar, Delhi - DPCC",08-05-2024 00:00:00,28.672342,77.315260,CO,13,108,41
India,Delhi,Delhi,"Wazirpur, Delhi - DPCC",08-05-2024 00:00:00,28.699793,77.165453,CO,84,118,98
India,Gujarat,Ahmedabad,"Gyaspur, Ahmedabad - IITM",08-05-2024 00:00:00,22.977134,72.553024,PM2.5,NA,NA,NA
India,Gujarat,Ahmedabad,"Gyaspur, Ahmedabad - IITM",08-05-2024 00:00:00,22.977134,72.553024,PM10,NA,NA,NA
India,Gujarat,Ahmedabad,"Maninagar, Ahmedabad - GPCB",08-05-2024 00:00:00,23.002657,72.591912,PM2.5,26,172,66
India,Gujarat,Ahmedabad,"Maninagar, Ahmedabad - GPCB",08-05-2024 00:00:00,23.002657,72.591912,PM10,78,158,107
India,Gujarat,Ahmedabad,"Raikhad, Ahmedabad - IITM",08-05-2024 00:00:00,23.020509,72.579261,SO2,4,7,5
India,Gujarat,Ahmedabad,"Rakhial, Ahmedabad - IITM",08-05-2024 00:00:00,23.016834,72.625775,PM2.5,40,380,163
India,Gujarat,Ahmedabad,"Rakhial, Ahmedabad - IITM",08-05-2024 00:00:00,23.016834,72.625775,NO2,16,47,24
India,Gujarat,Ahmedabad,"Rakhial, Ahmedabad - IITM",08-05-2024 00:00:00,23.016834,72.625775,SO2,3,6,3
India,Gujarat,Ahmedabad,"Sardar Vallabhbhai Patel Stadium, Ahmedabad - IITM",08-05-2024 00:00:00,23.043070,72.562968,PM10,85,129,107
India,Gujarat,Ahmedabad,"Sardar Vallabhbhai Patel Stadium, Ahmedabad - IITM",08-05-2024 00:00:00,23.043070,72.562968,SO2,1,17,7
India,Gujarat,Ankleshwar,"GIDC, Ankleshwar - GPCB",08-05-2024 00:00:00,21.613267,73.010555,CO,33,84,71
India,Gujarat,Gandhinagar,"Sector-10, Gandhinagar - GPCB",08-05-2024 00:00:00,23.221714,72.654328,OZONE,7,34,20
India,Gujarat,Surat,"Science Center, Surat - SMC",08-05-2024 00:00:00,21.170046,72.795405,NO2,24,41,31
India,Gujarat,Vapi,"Phase-1 GIDC, Vapi - GPCB",08-05-2024 00:00:00,20.362421,72.918013,PM10,NA,NA,NA
India,Haryana,Ambala,"Patti Mehar, Ambala - HSPCB",08-05-2024 00:00:00,30.379589,76.778328,PM10,62,102,83
India,Haryana,Ambala,"Patti Mehar, Ambala - HSPCB",08-05-2024 00:00:00,30.379589,76.778328,NO2,1,13,6
India,Haryana,Bahadurgarh,"Arya Nagar, Bahadurgarh - HSPCB",08-05-2024 00:00:00,28.6701,76.9254,NH3,8,9,9
India,Haryana,Ballabgarh,"Nathu Colony, Ballabgarh - HSPCB",08-05-2024 00:00:00,28.3419248,77.319699,PM2.5,80,340,263
India,Haryana,Ballabgarh,"Nathu Colony, Ballabgarh - HSPCB",08-05-2024 00:00:00,28.3419248,77.319699,NH3,1,2,1
India,Haryana,Ballabgarh,"Nathu Colony, Ballabgarh - HSPCB",08-05-2024 00:00:00,28.3419248,77.319699,OZONE,1,39,23
India,Haryana,Bhiwani,"H.B. Colony, Bhiwani - HSPCB",08-05-2024 00:00:00,28.806223,76.141105,OZONE,12,86,27
India,Haryana,Dharuhera,"Municipal Corporation Office, Dharuhera -  HSPCB",08-05-2024 00:00:00,28.206800,76.799700,NH3,NA,NA,NA
India,Haryana,Faridabad,"Sector 30, Faridabad - HSPCB",08-05-2024 00:00:00,28.4417,77.3217,NH3,9,9,9
India,Haryana,Faridabad,"Sector 30, Faridabad - HSPCB",08-05-2024 00:00:00,28.4417,77.3217,OZONE,56,62,61
India,Haryana,Faridabad,"Sector- 16A, Faridabad - HSPCB",08-05-2024 00:00:00,28.4088421,77.3099081,SO2,23,26,24
India,Haryana,Faridabad,"Sector- 16A, Faridabad - HSPCB",08-05-2024 00:00:00,28.4088421,77.3099081,CO,11,116,22
India,Haryana,Gurugram,"NISE Gwal Pahari, Gurugram - IMD",08-05-2024 00:00:00,28.422681,77.148944,PM2.5,NA,NA,NA
India,Haryana,Gurugram,"NISE Gwal Pahari, Gurugram - IMD",08-05-2024 00:00:00,28.422681,77.148944,NO2,NA,NA,NA
India,Haryana,Gurugram,"Sector-51, Gurugram - HSPCB",08-05-2024 00:00:00,28.4227,77.0667,NH3,7,14,9
India,Haryana,Gurugram,"Sector-51, Gurugram - HSPCB",08-05-2024 00:00:00,28.4227,77.0667,OZONE,27,67,56
India,Haryana,Gurugram,"Teri Gram, Gurugram - HSPCB",08-05-2024 00:00:00,28.4275,77.1465,CO,10,58,24
India,Haryana,Jind,"Police Lines, Jind - HSPCB",08-05-2024 00:00:00,29.307814,76.337619,NH3,1,6,4
India,Haryana,Kaithal,"Rishi Nagar, Kaithal - HSPCB",08-05-2024 00:00:00,29.8006,76.4155,NO2,24,26,25
India,Haryana,Kaithal,"Rishi Nagar, Kaithal - HSPCB",08-05-2024 00:00:00,29.8006,76.4155,SO2,24,124,46
India,Haryana,Kaithal,"Rishi Nagar, Kaithal - HSPCB",08-05-2024 00:00:00,29.8006,76.4155,CO,26,82,53
India,Haryana,Karnal,"Sector-12, Karnal - HSPCB",08-05-2024 00:00:00,29.695300,77.002700,NH3,10,13,11
India,Haryana,Kurukshetra,"Sector-7, Kurukshetra - HSPCB",08-05-2024 00:00:00,29.966942,76.875879,NO2,10,10,10
India,Haryana,Manesar,"Sector-2 IMT, Manesar - HSPCB",08-05-2024 00:00:00,28.360699,76.936090,SO2,4,11,8
India,Haryana,Narnaul,"Shastri Nagar, Narnaul - HSPCB",08-05-2024 00:00:00,28.060249,76.113115,CO,33,60,39
India,Haryana,Panipat,"Sector-18, Panipat - HSPCB",08-05-2024 00:00:00,29.497973,76.993331,PM2.5,91,93,92
India,Haryana,Panipat,"Sector-18, Panipat - HSPCB",08-05-2024 00:00:00,29.497973,76.993331,PM10,79,81,80
India,Haryana,Panipat,"Sector-18, Panipat - HSPCB",08-05-2024 00:00:00,29.497973,76.993331,SO2,18,19,19
India,Haryana,Panipat,"Sector-18, Panipat - HSPCB",08-05-2024 00:00:00,29.497973,76.993331,CO,24,26,25
India,Haryana,Sirsa,"F-Block, Sirsa - HSPCB",08-05-2024 00:00:00,29.536400,75.015800,PM2.5,20,271,148
India,Haryana,Sonipat,"Murthal, Sonipat - HSPCB",08-05-2024 00:00:00,29.027200,77.062100,NO2,37,44,40
India,Haryana,Yamuna Nagar,"Gobind Pura, Yamuna Nagar - HSPCB",08-05-2024 00:00:00,30.1480566,77.2893471,PM2.5,89,353,163
India,Haryana,Yamuna Nagar,"Gobind Pura, Yamuna Nagar - HSPCB",08-05-2024 00:00:00,30.1480566,77.2893471,NH3,1,6,3
India,Haryana,Yamuna Nagar,"Gobind Pura, Yamuna Nagar - HSPCB",08-05-2024 00:00:00,30.1480566,77.2893471,CO,29,119,71
India,Himachal Pradesh,Baddi,"HIMUDA Complex Phase-1, Baddi - HPPCB",08-05-2024 00:00:00,30.943887,76.801991,PM10,65,266,120
India,Himachal Pradesh,Baddi,"HIMUDA Complex Phase-1, Baddi - HPPCB",08-05-2024 00:00:00,30.943887,76.801991,NO2,6,42,15
India,Himachal Pradesh,Baddi,"HIMUDA Complex Phase-1, Baddi - HPPCB",08-05-2024 00:00:00,30.943887,76.801991,SO2,9,70,20
India,Himachal Pradesh,Baddi,"HIMUDA Complex Phase-1, Baddi - HPPCB",08-05-2024 00:00:00,30.943887,76.801991,CO,22,70,39
India,Jammu_and_Kashmir,Srinagar,"Rajbagh, Srinagar - JKSPCB",08-05-2024 00:00:00,34.066206,74.819820,SO2,11,53,19
India,Jharkhand,Dhanbad,"Kalakusuma, Dhanbad - DMC",08-05-2024 00:00:00,23.811548,86.481238,SO2,NA,NA,NA
India,Jharkhand,Dhanbad,"Sardar Patel Nagar, Dhanbad - JSPCB",08-05-2024 00:00:00,23.80569,86.44268,SO2,NA,NA,NA
India,Jharkhand,Pathardih,"Mohalbani Ghat, Pathardih - DMC",08-05-2024 00:00:00,23.669880,86.411725,PM2.5,NA,NA,NA
India,Karnataka,Bagalkot,"Vidayagiri, Bagalkot - KSPCB",08-05-2024 00:00:00,16.172806,75.659694,PM2.5,25,37,36
India,Karnataka,Bagalkot,"Vidayagiri, Bagalkot - KSPCB",08-05-2024 00:00:00,16.172806,75.659694,SO2,9,10,9
India,Karnataka,Belgaum,"Ramteerth Nagar, Belgaum - KSPCB",08-05-2024 00:00:00,15.888653,74.541751,CO,44,62,51
India,Karnataka,Bengaluru,"BTM Layout, Bengaluru - CPCB",08-05-2024 00:00:00,12.9135218,77.5950804,PM10,NA,NA,NA
India,Karnataka,Bengaluru,"BTM Layout, Bengaluru - CPCB",08-05-2024 00:00:00,12.9135218,77.5950804,NO2,NA,NA,NA
India,Karnataka,Bengaluru,"Bapuji Nagar, Bengaluru - KSPCB",08-05-2024 00:00:00,12.951913,77.539784,PM10,20,91,45
India,Karnataka,Bengaluru,"Bapuji Nagar, Bengaluru - KSPCB",08-05-2024 00:00:00,12.951913,77.539784,NO2,10,11,11
India,Karnataka,Bengaluru,"Bapuji Nagar, Bengaluru - KSPCB",08-05-2024 00:00:00,12.951913,77.539784,CO,17,69,40
India,Karnataka,Bengaluru,"Hombegowda Nagar, Bengaluru - KSPCB",08-05-2024 00:00:00,12.938539,77.590100,CO,21,77,44
India,Karnataka,Bengaluru,"Hombegowda Nagar, Bengaluru - KSPCB",08-05-2024 00:00:00,12.938539,77.590100,OZONE,17,77,42
India,Karnataka,Bengaluru,"Jayanagar 5th Block, Bengaluru - KSPCB",08-05-2024 00:00:00,12.920984,77.584908,PM10,18,112,49
India,Karnataka,Bengaluru,"Jayanagar 5th Block, Bengaluru - KSPCB",08-05-2024 00:00:00,12.920984,77.584908,SO2,20,35,27
India,Karnataka,Bengaluru,"Kasturi Nagar, Bengaluru - KSPCB",08-05-2024 00:00:00,13.003872,77.664217,SO2,10,10,10
India,Karnataka,Bengaluru,"Peenya, Bengaluru - CPCB",08-05-2024 00:00:00,13.0270199,77.494094,NH3,3,4,4
India,Karnataka,Bengaluru,"RVCE-Mailasandra, Bengaluru - KSPCB",08-05-2024 00:00:00,12.921418,77.502466,PM2.5,16,63,32
India,Karnataka,Bengaluru,"Shivapura_Peenya, Bengaluru - KSPCB",08-05-2024 00:00:00,13.0246342,77.5080115,NO2,15,16,15
India,Karnataka,Bengaluru,"Shivapura_Peenya, Bengaluru - KSPCB",08-05-2024 00:00:00,13.0246342,77.5080115,SO2,3,17,6
India,Karnataka,Bengaluru,"Silk Board, Bengaluru - KSPCB",08-05-2024 00:00:00,12.917348,77.622813,PM2.5,14,220,72
India,Karnataka,Bengaluru,"Silk Board, Bengaluru - KSPCB",08-05-2024 00:00:00,12.917348,77.622813,NO2,8,27,17
India,Karnataka,Bengaluru,"Silk Board, Bengaluru - KSPCB",08-05-2024 00:00:00,12.917348,77.622813,CO,7,14,12
India,Karnataka,Bidar,"Naubad, Bidar - KSPCB",08-05-2024 00:00:00,17.930306,77.482194,NH3,2,3,3
India,Karnataka,Bidar,"Naubad, Bidar - KSPCB",08-05-2024 00:00:00,17.930306,77.482194,OZONE,20,52,41
India,Karnataka,Chamarajanagar,"Urban, Chamarajanagar - KSPCB",08-05-2024 00:00:00,11.55358,76.55521,NH3,2,3,3
India,Karnataka,Chamarajanagar,"Urban, Chamarajanagar - KSPCB",08-05-2024 00:00:00,11.55358,76.55521,OZONE,25,37,27
India,Karnataka,Chikkaballapur,"Chikkaballapur Rural, Chikkaballapur - KSPCB",08-05-2024 00:00:00,13.428828,77.731418,NH3,1,1,1
India,Karnataka,Chikkaballapur,"Chikkaballapur Rural, Chikkaballapur - KSPCB",08-05-2024 00:00:00,13.428828,77.731418,CO,10,58,25
India,Karnataka,Chikkaballapur,"Chikkaballapur Rural, Chikkaballapur - KSPCB",08-05-2024 00:00:00,13.428828,77.731418,OZONE,24,28,28
India,Karnataka,Chikkamagaluru,"Kalyana Nagara, Chikkamagaluru - KSPCB",08-05-2024 00:00:00,13.328028,75.797056,PM2.5,NA,NA,NA
India,Karnataka,Chikkamagaluru,"Kalyana Nagara, Chikkamagaluru - KSPCB",08-05-2024 00:00:00,13.328028,75.797056,OZONE,13,42,16
India,Karnataka,Davanagere,"Devaraj Urs Badavane, Davanagere - KSPCB",08-05-2024 00:00:00,14.475800,75.905200,NH3,1,2,2
India,Karnataka,Dharwad,"Kalabhavan, Dharwad - KSPCB",08-05-2024 00:00:00,15.459706,75.008381,PM2.5,25,65,49
India,Karnataka,Dharwad,"Kalabhavan, Dharwad - KSPCB",08-05-2024 00:00:00,15.459706,75.008381,SO2,1,3,2
India,Karnataka,Gadag,"Panchal Nagar, Gadag - KSPCB",08-05-2024 00:00:00,15.411456,75.638133,PM2.5,3,32,14
India,Karnataka,Hassan,"B.Katihalli, Hassan - KSPCB",08-05-2024 00:00:00,13.008556,76.125258,NO2,NA,NA,NA
India,Karnataka,Haveri,"Ashwini Nagar, Haveri - KSPCB",08-05-2024 00:00:00,14.791800,75.389600,PM10,28,83,45
India,Karnataka,Haveri,"Ashwini Nagar, Haveri - KSPCB",08-05-2024 00:00:00,14.791800,75.389600,NH3,3,3,3
India,Karnataka,Haveri,"Ashwini Nagar, Haveri - KSPCB",08-05-2024 00:00:00,14.791800,75.389600,CO,36,38,38
India,Karnataka,Hubballi,"Deshpande Nagar, Hubballi - KSPCB",08-05-2024 00:00:00,15.351773,75.140726,SO2,7,9,7
India,Karnataka,Hubballi,"Lingaraj Nagar, Hubballi - KSPCB",08-05-2024 00:00:00,15.3714823,75.1160168,NH3,2,2,2
India,Karnataka,Kalaburagi,"Lal Bahadur Shastri Nagar, Kalaburagi - KSPCB",08-05-2024 00:00:00,17.321993,76.822628,NO2,11,11,11
India,Karnataka,Kalaburagi,"Mahatma Basaveswar Colony, Kalaburgi - KSPCB",08-05-2024 00:00:00,17.336318,76.847397,PM2.5,19,72,40
India,Karnataka,Kalaburagi,"Mahatma Basaveswar Colony, Kalaburgi - KSPCB",08-05-2024 00:00:00,17.336318,76.847397,NH3,3,4,3
India,Karnataka,Kalaburagi,"Mahatma Basaveswar Colony, Kalaburgi - KSPCB",08-05-2024 00:00:00,17.336318,76.847397,OZONE,8,35,25
India,Karnataka,Karwar,"KHB Colony, Karwar - KSPCB",08-05-2024 00:00:00,14.816666,74.141003,NO2,1,11,2
India,Karnataka,Kolar,"Tamaka Ind. Area, Kolar - KSPCB",08-05-2024 00:00:00,13.1276288,78.1570122,NO2,NA,NA,NA
India,Karnataka,Kolar,"Tamaka Ind. Area, Kolar - KSPCB",08-05-2024 00:00:00,13.1276288,78.1570122,SO2,NA,NA,NA
India,Karnataka,Koppal,"Diwator Nagar, Koppal - KSPCB",08-05-2024 00:00:00,15.347630,76.181767,PM2.5,10,28,20
India,Karnataka,Koppal,"Diwator Nagar, Koppal - KSPCB",08-05-2024 00:00:00,15.347630,76.181767,OZONE,24,52,44
India,Karnataka,Madikeri,"Stuart Hill, Madikeri - KSPCB",08-05-2024 00:00:00,12.415911,75.735050,NH3,1,3,1
India,Karnataka,Mangalore,"Kadri, Mangalore - KSPCB",08-05-2024 00:00:00,12.889250,74.853000,CO,34,42,38
India,Karnataka,Mysuru,"Hebbal 1st Stage, Mysuru - KSPCB",08-05-2024 00:00:00,12.21041,76.37376,CO,5,54,24
India,Karnataka,Raichur,"Haji Colony, Raichur - KSPCB",08-05-2024 00:00:00,16.208139,77.348417,PM2.5,17,50,27
India,Karnataka,Raichur,"Haji Colony, Raichur - KSPCB",08-05-2024 00:00:00,16.208139,77.348417,CO,95,118,106
India,Karnataka,Raichur,"Haji Colony, Raichur - KSPCB",08-05-2024 00:00:00,16.208139,77.348417,OZONE,3,16,6
India,Karnataka,Tumakuru,"Thimmalapura, Tumakuru - KSPCB",08-05-2024 00:00:00,13.377516,77.099072,CO,28,34,32
India,Karnataka,Udupi,"Brahmagiri, Udupi - KSPCB",08-05-2024 00:00:00,13.34194444,74.74694444,PM2.5,13,38,25
India,Karnataka,Udupi,"Brahmagiri, Udupi - KSPCB",08-05-2024 00:00:00,13.34194444,74.74694444,NO2,28,30,29
India,Karnataka,Udupi,"Brahmagiri, Udupi - KSPCB",08-05-2024 00:00:00,13.34194444,74.74694444,SO2,8,12,11
India,Kerala,Eloor,"Udyogamandal, Eloor - Kerala PCB",08-05-2024 00:00:00,10.073232,76.302765,PM10,30,53,39
India,Kerala,Eloor,"Udyogamandal, Eloor - Kerala PCB",08-05-2024 00:00:00,10.073232,76.302765,CO,6,86,46
India,Kerala,Kannur,"Thavakkara, Kannur - Kerala PCB",08-05-2024 00:00:00,11.875000,75.373200,OZONE,31,36,32
India,Kerala,Kollam,"Polayathode, Kollam - Kerala PCB",08-05-2024 00:00:00,8.8787,76.6073,NO2,8,9,8
India,Kerala,Thiruvananthapuram,"Kariavattom, Thiruvananthapuram - Kerala PCB",08-05-2024 00:00:00,8.563700,76.886500,NH3,NA,NA,NA
India,Kerala,Thiruvananthapuram,"Plammoodu, Thiruvananthapuram - Kerala PCB",08-05-2024 00:00:00,8.5149093,76.9435879,PM2.5,7,50,24
India,Kerala,Thiruvananthapuram,"Plammoodu, Thiruvananthapuram - Kerala PCB",08-05-2024 00:00:00,8.5149093,76.9435879,SO2,2,14,10
India,Kerala,Thiruvananthapuram,"Plammoodu, Thiruvananthapuram - Kerala PCB",08-05-2024 00:00:00,8.5149093,76.9435879,CO,4,28,14
India,Kerala,Thrissur,"Corporation Ground, Thrissur - Kerala PCB",08-05-2024 00:00:00,10.532400,76.215900,NH3,1,1,1
India,Madhya Pradesh,Bhopal,"Idgah Hills, Bhopal - MPPCB",08-05-2024 00:00:00,23.264759,77.381568,PM2.5,27,57,39
India,Madhya Pradesh,Bhopal,"Idgah Hills, Bhopal - MPPCB",08-05-2024 00:00:00,23.264759,77.381568,NO2,7,45,27
India,Madhya Pradesh,Bhopal,"Paryavaran Parisar, Bhopal - MPPCB",08-05-2024 00:00:00,23.210494,77.425409,OZONE,41,108,70
India,Madhya Pradesh,Bhopal,"T T Nagar, Bhopal - MPPCB",08-05-2024 00:00:00,23.233584,77.400574,CO,11,37,25
India,Madhya Pradesh,Dewas,"Bhopal Chauraha, Dewas - MPPCB",08-05-2024 00:00:00,22.9682591,76.064118,CO,NA,NA,NA
India,Madhya Pradesh,Gwalior,"City Center, Gwalior - MPPCB",08-05-2024 00:00:00,26.203442,78.193251,PM2.5,42,318,124
India,Madhya Pradesh,Gwalior,"City Center, Gwalior - MPPCB",08-05-2024 00:00:00,26.203442,78.193251,PM10,56,256,112
India,Madhya Pradesh,Gwalior,"City Center, Gwalior - MPPCB",08-05-2024 00:00:00,26.203442,78.193251,NH3,1,7,4
India,Madhya Pradesh,Gwalior,"City Center, Gwalior - MPPCB",08-05-2024 00:00:00,26.203442,78.193251,SO2,6,114,37
India,Madhya Pradesh,Gwalior,"Deen Dayal Nagar, Gwalior - MPPCB",08-05-2024 00:00:00,26.259242,78.216432,PM10,71,295,166
India,Madhya Pradesh,Gwalior,"Maharaj Bada, Gwalior - MPPCB",08-05-2024 00:00:00,26.200388,78.147714,OZONE,38,221,130
India,Madhya Pradesh,Indore,"Residency Area, Indore - IMC",08-05-2024 00:00:00,22.7084,75.8815,PM2.5,35,69,52
India,Madhya Pradesh,Indore,"Residency Area, Indore - IMC",08-05-2024 00:00:00,22.7084,75.8815,OZONE,11,21,14
India,Madhya Pradesh,Jabalpur,"Govindh Bhavan Colony, Jabalpur - JMC",08-05-2024 00:00:00,23.163174,79.973061,NH3,10,15,12
India,Madhya Pradesh,Jabalpur,"Gupteshwar, Jabalpur - JMC",08-05-2024 00:00:00,23.142888,79.916147,SO2,7,14,10
India,Madhya Pradesh,Jabalpur,"Marhatal, Jabalpur - MPPCB",08-05-2024 00:00:00,23.168606,79.932247,PM2.5,31,73,48
India,Madhya Pradesh,Jabalpur,"Marhatal, Jabalpur - MPPCB",08-05-2024 00:00:00,23.168606,79.932247,OZONE,26,100,86
India,Madhya Pradesh,Katni,"Gole Bazar, Katni - MPPCB",08-05-2024 00:00:00,23.50016,80.23284,NO2,27,105,50
India,Madhya Pradesh,Mandideep,"Sector-D Industrial Area, Mandideep - MPPCB",08-05-2024 00:00:00,23.108440,77.511428,PM2.5,38,120,71
India,Madhya Pradesh,Pithampur,"Sector-2 Industrial Area, Pithampur - MPPCB",08-05-2024 00:00:00,22.624758,75.675238,NO2,6,22,13
India,Madhya Pradesh,Pithampur,"Sector-2 Industrial Area, Pithampur - MPPCB",08-05-2024 00:00:00,22.624758,75.675238,CO,34,53,41
India,Madhya Pradesh,Pithampur,"Sector-2 Industrial Area, Pithampur - MPPCB",08-05-2024 00:00:00,22.624758,75.675238,OZONE,19,60,45
India,Madhya Pradesh,Ratlam,"Shasthri Nagar, Ratlam - IPCA Lab",08-05-2024 00:00:00,23.331731,75.045981,PM10,105,218,138
India,Madhya Pradesh,Ratlam,"Shasthri Nagar, Ratlam - IPCA Lab",08-05-2024 00:00:00,23.331731,75.045981,SO2,30,37,32
India,Madhya Pradesh,Sagar,"Civil Lines, Sagar - MPPCB",08-05-2024 00:00:00,23.838586,78.759431,NO2,7,63,16
India,Madhya Pradesh,Sagar,"Civil Lines, Sagar - MPPCB",08-05-2024 00:00:00,23.838586,78.759431,CO,14,57,32
India,Madhya Pradesh,Sagar,"Deen Dayal Nagar, Sagar - MPPCB",08-05-2024 00:00:00,23.8640158,78.80289321,NO2,20,24,24
India,Madhya Pradesh,Singrauli,"Suryakiran Bhawan NCL, Singrauli - MPPCB",08-05-2024 00:00:00,24.108970,82.645580,NH3,4,6,5
India,Madhya Pradesh,Singrauli,"Suryakiran Bhawan NCL, Singrauli - MPPCB",08-05-2024 00:00:00,24.108970,82.645580,CO,36,108,82
India,Madhya Pradesh,Singrauli,"Suryakiran Bhawan NCL, Singrauli - MPPCB",08-05-2024 00:00:00,24.108970,82.645580,OZONE,10,75,52
India,Madhya Pradesh,Ujjain,"Mahakaleshwar Temple, Ujjain - MPPCB",08-05-2024 00:00:00,23.182719 ,75.768218 ,PM10,74,123,98
India,Madhya Pradesh,Ujjain,"Mahakaleshwar Temple, Ujjain - MPPCB",08-05-2024 00:00:00,23.182719 ,75.768218 ,SO2,NA,NA,NA
India,Maharashtra,Ahmednagar,"Tarakpur, Ahmednagar - MPCB",08-05-2024 00:00:00,19.10122,74.73339,PM10,NA,NA,NA
India,Maharashtra,Ahmednagar,"Tarakpur, Ahmednagar - MPCB",08-05-2024 00:00:00,19.10122,74.73339,NO2,NA,NA,NA
India,Maharashtra,Ahmednagar,"Tarakpur, Ahmednagar - MPCB",08-05-2024 00:00:00,19.10122,74.73339,NH3,NA,NA,NA
India,Maharashtra,Akola,"Ramdaspeth, Akola - MPCB",08-05-2024 00:00:00,20.719516,77.000253,PM10,66,121,94
India,Maharashtra,Amravati,"Shivneri Colony, Amravati - MPCB",08-05-2024 00:00:00,20.9402359,77.7895248,NO2,4,41,12
India,Maharashtra,Amravati,"Shivneri Colony, Amravati - MPCB",08-05-2024 00:00:00,20.9402359,77.7895248,SO2,1,7,4
India,Maharashtra,Amravati,"Shri Shivaji Science College, Amaravati - MPCB",08-05-2024 00:00:00,20.939198,77.765701,NH3,2,5,3
India,Maharashtra,Amravati,"Shri Shivaji Science College, Amaravati - MPCB",08-05-2024 00:00:00,20.939198,77.765701,OZONE,9,81,56
India,Maharashtra,Belapur,"CBD Belapur, Belapur - MPCB",08-05-2024 00:00:00,19.0243902,73.0406721,NO2,23,73,40
India,Maharashtra,Bhiwandi,"Gokul Nagar, Bhiwandi - MPCB",08-05-2024 00:00:00,19.309073,73.057223,PM2.5,12,108,56
India,Maharashtra,Bhiwandi,"Gokul Nagar, Bhiwandi - MPCB",08-05-2024 00:00:00,19.309073,73.057223,SO2,3,20,14
India,Maharashtra,Bhiwandi,"Gokul Nagar, Bhiwandi - MPCB",08-05-2024 00:00:00,19.309073,73.057223,CO,12,58,24
India,Maharashtra,Chandrapur,"Chauhan Colony, Chandrapur - MPCB",08-05-2024 00:00:00,19.962900,79.298714,NO2,8,28,19
India,Maharashtra,Chandrapur,"Chauhan Colony, Chandrapur - MPCB",08-05-2024 00:00:00,19.962900,79.298714,SO2,2,32,12
India,Maharashtra,Chandrapur,"Chauhan Colony, Chandrapur - MPCB",08-05-2024 00:00:00,19.962900,79.298714,CO,24,27,25
India,Maharashtra,Chandrapur,"Chauhan Colony, Chandrapur - MPCB",08-05-2024 00:00:00,19.962900,79.298714,OZONE,8,72,26
India,Maharashtra,Dhule,"Deopur, Dhule - MPCB",08-05-2024 00:00:00,20.918946,74.776388,PM2.5,59,86,72
India,Maharashtra,Dhule,"Deopur, Dhule - MPCB",08-05-2024 00:00:00,20.918946,74.776388,PM10,87,152,110
India,Maharashtra,Dhule,"Deopur, Dhule - MPCB",08-05-2024 00:00:00,20.918946,74.776388,NO2,2,30,18
India,Maharashtra,Jalgaon,"Prabhat Colony, Jalgaon - MPCB",08-05-2024 00:00:00,21.001264,75.565602,PM2.5,58,96,74
India,Maharashtra,Kalyan,"Khadakpada, Kalyan - MPCB",08-05-2024 00:00:00,19.25292,73.142019,CO,14,20,18
India,Maharashtra,Kolhapur,"Shivaji University, Kolhapur - MPCB",08-05-2024 00:00:00,16.6870449,74.2505872,PM2.5,61,163,101
India,Maharashtra,Kolhapur,"Shivaji University, Kolhapur - MPCB",08-05-2024 00:00:00,16.6870449,74.2505872,CO,52,78,67
India,Maharashtra,Kolhapur,"Sinchan Bhavan, Kolhapur - MPCB",08-05-2024 00:00:00,16.7143745,74.2426398,NO2,6,30,13
India,Maharashtra,Kolhapur,"Sinchan Bhavan, Kolhapur - MPCB",08-05-2024 00:00:00,16.7143745,74.2426398,CO,10,24,14
India,Maharashtra,Kolhapur,"Sinchan Bhavan, Kolhapur - MPCB",08-05-2024 00:00:00,16.7143745,74.2426398,OZONE,20,105,60
India,Maharashtra,Latur,"Sawe Wadi, Latur - MPCB",08-05-2024 00:00:00,18.39963,76.57452,PM2.5,39,96,61
India,Maharashtra,Latur,"Sawe Wadi, Latur - MPCB",08-05-2024 00:00:00,18.39963,76.57452,SO2,3,22,9
India,Maharashtra,Mahad,"Kamble Tarf Birwadi, Mahad - MPCB",08-05-2024 00:00:00,18.1023399,73.4783687,PM10,32,78,55
India,Maharashtra,Mahad,"Kamble Tarf Birwadi, Mahad - MPCB",08-05-2024 00:00:00,18.1023399,73.4783687,NH3,NA,NA,NA
India,Maharashtra,Malegaon,"Mahesh Nagar, Malegaon - MPCB",08-05-2024 00:00:00,20.555712,74.529236,PM2.5,59,166,89
India,Maharashtra,Malegaon,"Mahesh Nagar, Malegaon - MPCB",08-05-2024 00:00:00,20.555712,74.529236,PM10,105,284,124
India,Maharashtra,Mira-Bhayandar,"Bhayandar West, Mira-Bhayandar - MPCB",08-05-2024 00:00:00,19.296481,72.840923,NO2,2,15,6
India,Maharashtra,Mira-Bhayandar,"Bhayandar West, Mira-Bhayandar - MPCB",08-05-2024 00:00:00,19.296481,72.840923,NH3,2,4,3
India,Maharashtra,Mumbai,"Borivali East, Mumbai - MPCB",08-05-2024 00:00:00,19.2243333,72.8658113,PM2.5,7,28,14
India,Maharashtra,Mumbai,"Borivali East, Mumbai - MPCB",08-05-2024 00:00:00,19.2243333,72.8658113,CO,25,38,36
India,Maharashtra,Mumbai,"Borivali East, Mumbai - MPCB",08-05-2024 00:00:00,19.2243333,72.8658113,OZONE,14,16,15
India,Maharashtra,Mumbai,"Chakala-Andheri East, Mumbai - IITM",08-05-2024 00:00:00,19.11074,72.86084,NO2,NA,NA,NA
India,Maharashtra,Mumbai,"Chakala-Andheri East, Mumbai - IITM",08-05-2024 00:00:00,19.11074,72.86084,CO,4,103,74
India,Maharashtra,Mumbai,"Chakala-Andheri East, Mumbai - IITM",08-05-2024 00:00:00,19.11074,72.86084,OZONE,9,32,22
India,Maharashtra,Mumbai,"Chhatrapati Shivaji Intl. Airport (T2), Mumbai - MPCB",08-05-2024 00:00:00,19.10078,72.87462,PM10,50,110,72
India,Maharashtra,Mumbai,"Colaba, Mumbai - MPCB",08-05-2024 00:00:00,18.910000,72.820000,NH3,1,1,1
India,Maharashtra,Mumbai,"Deonar, Mumbai - IITM",08-05-2024 00:00:00,19.04946,72.9230,PM2.5,NA,NA,NA
India,Maharashtra,Mumbai,"Deonar, Mumbai - IITM",08-05-2024 00:00:00,19.04946,72.9230,OZONE,1,46,24
India,Maharashtra,Mumbai,"Ghatkopar, Mumbai - BMC",08-05-2024 00:00:00,19.083694,72.920967,NH3,1,4,2
India,Maharashtra,Mumbai,"Ghatkopar, Mumbai - BMC",08-05-2024 00:00:00,19.083694,72.920967,SO2,1,2,1
India,Maharashtra,Mumbai,"Kandivali East, Mumbai - MPCB",08-05-2024 00:00:00,19.205800,72.868200,PM2.5,13,54,25
India,Maharashtra,Mumbai,"Kandivali East, Mumbai - MPCB",08-05-2024 00:00:00,19.205800,72.868200,PM10,45,449,96
India,Maharashtra,Mumbai,"Kandivali East, Mumbai - MPCB",08-05-2024 00:00:00,19.205800,72.868200,SO2,7,9,8
India,Maharashtra,Mumbai,"Kandivali West, Mumbai - BMC",08-05-2024 00:00:00,19.215859,72.831718,SO2,1,1,1
India,Maharashtra,Mumbai,"Kandivali West, Mumbai - BMC",08-05-2024 00:00:00,19.215859,72.831718,CO,10,24,18
India,Maharashtra,Mumbai,"Kherwadi_Bandra East, Mumbai - MPCB",08-05-2024 00:00:00,19.0632143,72.8456324,CO,6,10,9
India,Maharashtra,Mumbai,"Kurla, Mumbai - MPCB",08-05-2024 00:00:00,19.0863,72.8888,NO2,10,16,14
India,Maharashtra,Mumbai,"Kurla, Mumbai - MPCB",08-05-2024 00:00:00,19.0863,72.8888,SO2,32,32,32
India,Maharashtra,Mumbai,"Mindspace-Malad West, Mumbai - MPCB",08-05-2024 00:00:00,19.1878657,72.8304069,CO,5,17,10
India,Maharashtra,Mumbai,"Mulund West, Mumbai - MPCB",08-05-2024 00:00:00,19.1750,72.9419,CO,42,42,42
India,Maharashtra,Mumbai,"Navy Nagar-Colaba, Mumbai - IITM",08-05-2024 00:00:00,18.897756,72.813320,PM2.5,23,49,35
India,Maharashtra,Mumbai,"Navy Nagar-Colaba, Mumbai - IITM",08-05-2024 00:00:00,18.897756,72.813320,NO2,36,61,53
India,Maharashtra,Mumbai,"Navy Nagar-Colaba, Mumbai - IITM",08-05-2024 00:00:00,18.897756,72.813320,NH3,3,5,4
India,Maharashtra,Mumbai,"Powai, Mumbai - MPCB",08-05-2024 00:00:00,19.137500,72.915056,PM2.5,14,28,21
India,Maharashtra,Mumbai,"Siddharth Nagar-Worli, Mumbai - IITM",08-05-2024 00:00:00,19.000083,72.813993,OZONE,33,62,49
India,Maharashtra,Mumbai,"Sion, Mumbai - MPCB",08-05-2024 00:00:00,19.047000,72.874600,PM2.5,22,43,32
India,Maharashtra,Mumbai,"Sion, Mumbai - MPCB",08-05-2024 00:00:00,19.047000,72.874600,NH3,2,2,2
India,Maharashtra,Mumbai,"Vasai West, Mumbai - MPCB",08-05-2024 00:00:00,19.383200,72.820400,PM2.5,19,46,30
India,Maharashtra,Mumbai,"Vasai West, Mumbai - MPCB",08-05-2024 00:00:00,19.383200,72.820400,NH3,4,4,4
India,Maharashtra,Mumbai,"Vasai West, Mumbai - MPCB",08-05-2024 00:00:00,19.383200,72.820400,CO,28,42,41
India,Maharashtra,Mumbai,"Vile Parle West, Mumbai - MPCB",08-05-2024 00:00:00,19.10861,72.83622,NO2,6,8,7
India,Maharashtra,Mumbai,"Vile Parle West, Mumbai - MPCB",08-05-2024 00:00:00,19.10861,72.83622,NH3,11,11,11
India,Maharashtra,Mumbai,"Worli, Mumbai - MPCB",08-05-2024 00:00:00,18.9936162,72.8128113,PM10,47,109,83
India,Maharashtra,Mumbai,"Worli, Mumbai - MPCB",08-05-2024 00:00:00,18.9936162,72.8128113,SO2,12,12,12
India,Maharashtra,Nagpur,"Mahal, Nagpur - MPCB",08-05-2024 00:00:00,21.14472,79.107595,CO,12,70,38
India,Maharashtra,Nagpur,"Mahal, Nagpur - MPCB",08-05-2024 00:00:00,21.14472,79.107595,OZONE,11,67,32
India,Maharashtra,Nagpur,"Opp GPO Civil Lines, Nagpur - MPCB",08-05-2024 00:00:00,21.152875,79.0517531,NH3,4,9,6
India,Maharashtra,Nagpur,"Opp GPO Civil Lines, Nagpur - MPCB",08-05-2024 00:00:00,21.152875,79.0517531,CO,16,91,41
India,Maharashtra,Nanded,"Sneh Nagar, Nanded - MPCB",08-05-2024 00:00:00,19.173852,77.296291,PM2.5,54,94,70
India,Maharashtra,Nanded,"Sneh Nagar, Nanded - MPCB",08-05-2024 00:00:00,19.173852,77.296291,NH3,1,2,1
India,Maharashtra,Nashik,"Gangapur Road, Nashik - MPCB",08-05-2024 00:00:00,20.0073285,73.7762427,NO2,1,6,3
India,Maharashtra,Nashik,"Gangapur Road, Nashik - MPCB",08-05-2024 00:00:00,20.0073285,73.7762427,SO2,1,8,6
India,Maharashtra,Nashik,"Hirawadi, Nashik - MPCB",08-05-2024 00:00:00,20.021503,73.813844,NO2,7,19,11
India,Maharashtra,Nashik,"Hirawadi, Nashik - MPCB",08-05-2024 00:00:00,20.021503,73.813844,SO2,13,23,18
India,Maharashtra,Nashik,"Hirawadi, Nashik - MPCB",08-05-2024 00:00:00,20.021503,73.813844,OZONE,13,96,55
India,Maharashtra,Nashik,"MIDC Ambad, Nashik - MPCB",08-05-2024 00:00:00,19.950220,73.731480,NO2,7,22,12
India,Maharashtra,Nashik,"MIDC Ambad, Nashik - MPCB",08-05-2024 00:00:00,19.950220,73.731480,SO2,4,20,8
India,Maharashtra,Navi Mumbai,"Kopripada-Vashi, Navi Mumbai - MPCB",08-05-2024 00:00:00,19.090337,73.014232,NO2,12,38,24
India,Maharashtra,Navi Mumbai,"Kopripada-Vashi, Navi Mumbai - MPCB",08-05-2024 00:00:00,19.090337,73.014232,CO,9,18,13
India,Maharashtra,Navi Mumbai,"Mahape, Navi Mumbai - MPCB",08-05-2024 00:00:00,19.1135051,73.008978,PM2.5,38,150,68
India,Maharashtra,Navi Mumbai,"Sanpada, Navi Mumbai - MPCB",08-05-2024 00:00:00,19.0575752,73.0151367,CO,6,12,9
India,Maharashtra,Navi Mumbai,"Sanpada, Navi Mumbai - MPCB",08-05-2024 00:00:00,19.0575752,73.0151367,OZONE,7,53,18
India,Maharashtra,Navi Mumbai,"Sector-2E Kalamboli, Navi Mumbai - MPCB",08-05-2024 00:00:00,19.02579,73.10297,PM2.5,38,111,62
India,Maharashtra,Navi Mumbai,"Tondare-Taloja, Navi Mumbai - MPCB",08-05-2024 00:00:00,19.0630,73.1209,PM10,48,212,90
India,Maharashtra,Parbhani,"Masoom Colony, Parbhani - MPCB",08-05-2024 00:00:00,19.265594,76.761463,PM2.5,43,113,70
India,Maharashtra,Pimpri-Chinchwad,"Gavalinagar, Pimpri Chinchwad - MPCB",08-05-2024 00:00:00,18.63673,73.82487,PM10,40,80,61
India,Maharashtra,Pimpri-Chinchwad,"Gavalinagar, Pimpri Chinchwad - MPCB",08-05-2024 00:00:00,18.63673,73.82487,NH3,1,2,1
India,Maharashtra,Pimpri-Chinchwad,"Park Street Wakad, Pimpri Chinchwad - MPCB",08-05-2024 00:00:00,18.59051,73.77946,NH3,3,5,4
India,Maharashtra,Pimpri-Chinchwad,"Thergaon, Pimpri Chinchwad - MPCB",08-05-2024 00:00:00,18.616318,73.765797,OZONE,23,100,55
India,Maharashtra,Pune,"Alandi, Pune - IITM",08-05-2024 00:00:00,18.675076,73.892743,CO,28,50,41
India,Maharashtra,Pune,"Karve Road, Pune - MPCB",08-05-2024 00:00:00,18.5011743,73.8165527,NO2,4,101,21
India,Maharashtra,Pune,"Katraj Dairy, Pune - MPCB",08-05-2024 00:00:00,18.454450,73.854155,PM2.5,35,46,40
India,Maharashtra,Pune,"Katraj Dairy, Pune - MPCB",08-05-2024 00:00:00,18.454450,73.854155,NH3,1,3,2
India,Maharashtra,Pune,"Mhada Colony, Pune - IITM",08-05-2024 00:00:00,18.573040,73.927715,PM10,57,101,71
India,Maharashtra,Pune,"Revenue Colony-Shivajinagar, Pune - IITM",08-05-2024 00:00:00,18.530085,73.849598,PM10,39,91,62
India,Maharashtra,Pune,"Savitribai Phule Pune University, Pune - MPCB",08-05-2024 00:00:00,18.547056,73.826908,PM10,50,101,70
India,Maharashtra,Sangli,"Vijay Nagar, Sangli - MPCB",08-05-2024 00:00:00, 16.5038,74.3623,NH3,2,2,2
India,Maharashtra,Solapur,"Dnyaneshwar Nagar, Solapur - MPCB",08-05-2024 00:00:00,17.6336264,75.9132495,OZONE,31,90,60
India,Maharashtra,Solapur,"Ratandeep Housing Society, Solapur - MPCB",08-05-2024 00:00:00,17.65439,75.90649,PM10,73,115,88
India,Maharashtra,Solapur,"Ratandeep Housing Society, Solapur - MPCB",08-05-2024 00:00:00,17.65439,75.90649,CO,12,101,45
India,Maharashtra,Solapur,"Solapur, Solapur - MPCB",08-05-2024 00:00:00,17.6599188,75.9063906,PM10,118,142,134
India,Maharashtra,Thane,"Pimpleshwar Mandir, Thane - MPCB",08-05-2024 00:00:00,19.192056,72.9585188,CO,6,64,33
India,Maharashtra,Thane,"Upvan Fort, Thane - MPCB",08-05-2024 00:00:00,19.222279,72.957979,NH3,4,6,5
India,Maharashtra,Thane,"Upvan Fort, Thane - MPCB",08-05-2024 00:00:00,19.222279,72.957979,CO,10,31,22
India,Maharashtra,Ulhasnagar,"Sidhi Vinayak Nagar, Ulhasnagar - MPCB",08-05-2024 00:00:00,19.235581,73.159121,OZONE,2,236,46
India,Maharashtra,Virar,"Bolinj, Virar - MPCB",08-05-2024 00:00:00,19.4458210,72.7988231,OZONE,6,44,37
India,Manipur,Imphal,"DM College of Science, Imphal - Manipur PCB",08-05-2024 00:00:00,24.8207389,93.9423085,PM2.5,NA,NA,NA
India,Manipur,Imphal,"DM College of Science, Imphal - Manipur PCB",08-05-2024 00:00:00,24.8207389,93.9423085,PM10,NA,NA,NA
India,Manipur,Imphal,"DM College of Science, Imphal - Manipur PCB",08-05-2024 00:00:00,24.8207389,93.9423085,NO2,NA,NA,NA
India,Meghalaya,Shillong,"Lumpyngngad, Shillong - Meghalaya PCB",08-05-2024 00:00:00,25.5586,91.8985,CO,7,14,13
India,Mizoram,Aizawl,"Sikulpuikawn, Aizawl - Mizoram PCB",08-05-2024 00:00:00,23.7176342,92.7192841,PM10,23,67,42
India,Mizoram,Aizawl,"Sikulpuikawn, Aizawl - Mizoram PCB",08-05-2024 00:00:00,23.7176342,92.7192841,SO2,2,2,2
India,Nagaland,Kohima,"PWD Juction, Kohima - NPCB",08-05-2024 00:00:00,25.6635413,94.0989878,PM2.5,38,119,69
India,Nagaland,Kohima,"PWD Juction, Kohima - NPCB",08-05-2024 00:00:00,25.6635413,94.0989878,PM10,37,104,68
India,Nagaland,Kohima,"PWD Juction, Kohima - NPCB",08-05-2024 00:00:00,25.6635413,94.0989878,NO2,3,4,3
India,Nagaland,Kohima,"PWD Juction, Kohima - NPCB",08-05-2024 00:00:00,25.6635413,94.0989878,SO2,33,35,34
India,Nagaland,Kohima,"PWD Juction, Kohima - NPCB",08-05-2024 00:00:00,25.6635413,94.0989878,CO,8,28,22
India,Nagaland,Kohima,"PWD Juction, Kohima - NPCB",08-05-2024 00:00:00,25.6635413,94.0989878,OZONE,8,14,11
India,Odisha,Angul,"Hakimapada, Angul - OSPCB",08-05-2024 00:00:00,20.832874,85.104082,PM10,44,169,103
India,Odisha,Angul,"Hakimapada, Angul - OSPCB",08-05-2024 00:00:00,20.832874,85.104082,OZONE,13,84,55
India,Odisha,Balasore,"Kalidaspur, Balasore - OSPCB",08-05-2024 00:00:00,21.51161,86.89088,PM10,27,78,41
India,Odisha,Balasore,"Kalidaspur, Balasore - OSPCB",08-05-2024 00:00:00,21.51161,86.89088,OZONE,44,86,54
India,Odisha,Bhubaneswar,"Lingraj Mandir, Bhubaneswar - OSPCB",08-05-2024 00:00:00,20.240790,85.836784,CO,43,80,62
India,Odisha,Bhubaneswar,"Lingraj Mandir, Bhubaneswar - OSPCB",08-05-2024 00:00:00,20.240790,85.836784,OZONE,21,78,49
India,Odisha,Bileipada,"Tata Township, Bileipada - OSPCB",08-05-2024 00:00:00,22.06156703,85.47409613,NO2,4,8,6
India,Odisha,Brajrajnagar,"GM Office, Brajrajnagar - OSPCB",08-05-2024 00:00:00,21.8004996,83.8396977,NO2,16,17,16
India,Odisha,Byasanagar,"Ferro Chrome Colony, Byasanagar - OSPCB",08-05-2024 00:00:00,20.94185,86.11510,NO2,7,28,14
India,Odisha,Byasanagar,"Ferro Chrome Colony, Byasanagar - OSPCB",08-05-2024 00:00:00,20.94185,86.11510,NH3,1,2,2
India,Odisha,Cuttack,"CDA Area, Cuttack - OSPCB",08-05-2024 00:00:00,20.48891     ,85.84768     ,SO2,3,6,5
India,Odisha,Cuttack,"CDA Area, Cuttack - OSPCB",08-05-2024 00:00:00,20.48891     ,85.84768     ,CO,16,28,23
India,Odisha,Keonjhar,"Jagamohanpur, Keonjhar - OSPCB",08-05-2024 00:00:00,21.643900,85.599355,PM2.5,45,68,55
India,Odisha,Keonjhar,"Jagamohanpur, Keonjhar - OSPCB",08-05-2024 00:00:00,21.643900,85.599355,SO2,8,8,8
India,Odisha,Keonjhar,"Jagamohanpur, Keonjhar - OSPCB",08-05-2024 00:00:00,21.643900,85.599355,OZONE,14,14,14
India,Odisha,Nayagarh,"Dabuna, Nayagarh - OSPCB",08-05-2024 00:00:00,21.847279,85.416905,NH3,NA,NA,NA
India,Odisha,Rairangpur,"Divisional Forest Office, Rairangpur - OSPCB",08-05-2024 00:00:00,22.265816,86.174829,PM2.5,29,80,47
India,Odisha,Rairangpur,"Divisional Forest Office, Rairangpur - OSPCB",08-05-2024 00:00:00,22.265816,86.174829,SO2,NA,NA,NA
India,Odisha,Rourkela,"Raghunathpali, Rourkela - OSPCB",08-05-2024 00:00:00,22.220833,84.809444,SO2,7,9,8
India,Odisha,Suakati,"OMC Colony, Suakati - OSPCB",08-05-2024 00:00:00,21.606865,85.510538,PM2.5,54,86,69
India,Odisha,Suakati,"OMC Colony, Suakati - OSPCB",08-05-2024 00:00:00,21.606865,85.510538,NH3,5,7,6
India,Odisha,Talcher,"Talcher Coalfields,Talcher - OSPCB",08-05-2024 00:00:00,20.9360711,85.1707021,PM10,33,93,54
India,Odisha,Tensa,"Barsua Iron Ore Mines, Tensa - OSPCB",08-05-2024 00:00:00,21.869985,85.167016,NH3,1,3,2
India,Odisha,Tensa,"Barsua Iron Ore Mines, Tensa - OSPCB",08-05-2024 00:00:00,21.869985,85.167016,CO,9,30,19
India,Puducherry,Puducherry,"Jawahar Nagar, Puducherry - PPCC",08-05-2024 00:00:00,11.9309,79.8027,NH3,2,19,4
India,Punjab,Amritsar,"Golden Temple, Amritsar - PPCB",08-05-2024 00:00:00,31.620000,74.876512,OZONE,45,65,52
India,Punjab,Jalandhar,"Civil Line, Jalandhar - PPCB",08-05-2024 00:00:00,31.321907,75.578914,NO2,40,46,44
India,Punjab,Khanna,"Kalal Majra, Khanna - PPCB",08-05-2024 00:00:00,30.736056 ,76.209694,PM2.5,43,240,138
India,Punjab,Mandi Gobindgarh,"RIMT University, Mandi Gobindgarh - PPCB",08-05-2024 00:00:00,30.649961,76.331442,OZONE,48,50,49
India,Rajasthan,Ajmer,"Civil Lines,  Ajmer - RSPCB",08-05-2024 00:00:00,26.470859,74.646594,PM2.5,44,180,83
India,Rajasthan,Ajmer,"Civil Lines,  Ajmer - RSPCB",08-05-2024 00:00:00,26.470859,74.646594,PM10,49,150,91
India,Rajasthan,Alwar,"Moti Doongri, Alwar - RSPCB",08-05-2024 00:00:00,27.554793,76.611536,PM10,64,127,98
India,Rajasthan,Alwar,"Moti Doongri, Alwar - RSPCB",08-05-2024 00:00:00,27.554793,76.611536,NO2,29,56,43
India,Rajasthan,Banswara,"Rati Talai, Banswara - RSPCB",08-05-2024 00:00:00,23.555190,74.440010,NO2,9,34,18
India,Rajasthan,Banswara,"Rati Talai, Banswara - RSPCB",08-05-2024 00:00:00,23.555190,74.440010,NH3,3,11,5
India,Rajasthan,Baran,"Bamboliya, Baran - RSPCB",08-05-2024 00:00:00,25.106006,76.469948,PM10,99,176,135
India,Rajasthan,Baran,"Bamboliya, Baran - RSPCB",08-05-2024 00:00:00,25.106006,76.469948,NH3,3,15,7
India,Rajasthan,Bhilwara,"Pratap Nagar, Bhilwara - RSPCB",08-05-2024 00:00:00,25.339605,74.618883,CO,27,120,73
India,Rajasthan,Bhiwadi,"RIICO Ind. Area III, Bhiwadi - RSPCB",08-05-2024 00:00:00,28.194909,76.862296,NH3,3,24,14
India,Rajasthan,Bhiwadi,"RIICO Ind. Area III, Bhiwadi - RSPCB",08-05-2024 00:00:00,28.194909,76.862296,OZONE,4,79,32
India,Rajasthan,Bhiwadi,"Vasundhara Nagar_UIT, Bhiwadi - RSPCB",08-05-2024 00:00:00,28.207266,76.829265,NO2,18,88,46
India,Rajasthan,Bhiwadi,"Vasundhara Nagar_UIT, Bhiwadi - RSPCB",08-05-2024 00:00:00,28.207266,76.829265,SO2,3,29,13
India,Rajasthan,Bikaner,"MM Ground, Bikaner - RSPCB",08-05-2024 00:00:00,28.018792,73.292658,PM10,96,263,170
India,Rajasthan,Bikaner,"MM Ground, Bikaner - RSPCB",08-05-2024 00:00:00,28.018792,73.292658,NH3,11,19,14
India,Rajasthan,Bundi,"New Colony, Bundi - RSPCB",08-05-2024 00:00:00,25.435774,75.644272,NO2,6,134,34
India,Rajasthan,Bundi,"New Colony, Bundi - RSPCB",08-05-2024 00:00:00,25.435774,75.644272,CO,18,112,66
India,Rajasthan,Chittorgarh,"Shastri Nagar, Chittorgarh - RSPCB",08-05-2024 00:00:00,24.892047,74.623527,NH3,13,16,15
India,Rajasthan,Chittorgarh,"Shastri Nagar, Chittorgarh - RSPCB",08-05-2024 00:00:00,24.892047,74.623527,SO2,3,85,12
India,Rajasthan,Dausa,"Khatikan Mohalla, Dausa - RSPCB",08-05-2024 00:00:00,26.895552,76.334753,CO,20,118,83
India,Rajasthan,Dholpur,"Raja Ganj, Dholpur - RSPCB",08-05-2024 00:00:00,26.699557,77.898881,NO2,26,100,50
India,Rajasthan,Dholpur,"Raja Ganj, Dholpur - RSPCB",08-05-2024 00:00:00,26.699557,77.898881,SO2,6,10,7
India,Rajasthan,Dholpur,"Raja Ganj, Dholpur - RSPCB",08-05-2024 00:00:00,26.699557,77.898881,CO,12,72,30
India,Rajasthan,Dungarpur,"Bhoiwada, Dungarpur - RSPCB",08-05-2024 00:00:00,23.837789,73.714926,CO,15,27,19
India,Rajasthan,Jaipur,"Adarsh Nagar, Jaipur - RSPCB",08-05-2024 00:00:00,26.902909,75.836858,NO2,24,133,99
India,Rajasthan,Jaipur,"Adarsh Nagar, Jaipur - RSPCB",08-05-2024 00:00:00,26.902909,75.836858,NH3,3,19,10
India,Rajasthan,Jaipur,"Mansarovar Sector-12, Jaipur - RSPCB",08-05-2024 00:00:00,26.843698,75.766894,NH3,4,8,6
India,Rajasthan,Jaipur,"RIICO Sitapura, Jaipur - RSPCB",08-05-2024 00:00:00,26.786682,75.827928,PM10,94,360,189
India,Rajasthan,Jaipur,"RIICO Sitapura, Jaipur - RSPCB",08-05-2024 00:00:00,26.786682,75.827928,CO,12,106,57
India,Rajasthan,Jaipur,"Sector-2 Murlipura, Jaipur - RSPCB",08-05-2024 00:00:00,26.960669,75.771817,PM2.5,28,60,44
India,Rajasthan,Jaipur,"Shastri Nagar, Jaipur - RSPCB",08-05-2024 00:00:00,26.9502929,75.730943,NO2,25,92,56
India,Rajasthan,Jaipur,"Shastri Nagar, Jaipur - RSPCB",08-05-2024 00:00:00,26.9502929,75.730943,NH3,5,18,13
India,Rajasthan,Jaisalmer,"Sadar Bazar, Jaisalmer - RSPCB",08-05-2024 00:00:00,26.912329,70.909168,PM2.5,27,128,56
India,Rajasthan,Jalore,"Mudtra Sili, Jalore - RSPCB",08-05-2024 00:00:00,25.344694,72.626208,PM2.5,27,59,41
India,Rajasthan,Jhalawar,"Rajlaxmi Nagar, Jhalawar - RSPCB",08-05-2024 00:00:00,24.588397,76.172782,NO2,17,85,35
India,Rajasthan,Jhalawar,"Rajlaxmi Nagar, Jhalawar - RSPCB",08-05-2024 00:00:00,24.588397,76.172782,SO2,4,18,10
India,Rajasthan,Jhunjhunu,"Indra Nagar, Jhunjhunu - RSPCB",08-05-2024 00:00:00,28.108988,75.386577,NO2,15,59,33
India,Rajasthan,Jodhpur,"Collectorate, Jodhpur - RSPCB",08-05-2024 00:00:00,26.268249,73.0193853,PM2.5,34,346,171
India,Rajasthan,Jodhpur,"Jhalamand, Jodhpur - RSPCB",08-05-2024 00:00:00,26.215415,73.070156,PM10,70,484,173
India,Rajasthan,Jodhpur,"Mandor, Jodhpur - RSPCB",08-05-2024 00:00:00,26.358805,73.047444,SO2,2,6,3
India,Rajasthan,Jodhpur,"Mandor, Jodhpur - RSPCB",08-05-2024 00:00:00,26.358805,73.047444,OZONE,34,91,72
India,Rajasthan,Jodhpur,"Samrat Ashok Udhyan, Jodhpur - RSPCB",08-05-2024 00:00:00,26.253384,72.976571,CO,1,107,36
India,Rajasthan,Karauli,"Satyawati Vihar, Karauli - RSPCB",08-05-2024 00:00:00,26.506177,77.025989,PM10,86,431,142
India,Rajasthan,Karauli,"Satyawati Vihar, Karauli - RSPCB",08-05-2024 00:00:00,26.506177,77.025989,NH3,4,22,11
India,Rajasthan,Kota,"Dhanmandi, Kota - RSPCB",08-05-2024 00:00:00,25.164090,75.858137,PM10,82,279,140
India,Rajasthan,Kota,"Dhanmandi, Kota - RSPCB",08-05-2024 00:00:00,25.164090,75.858137,NH3,3,9,5
India,Rajasthan,Kota,"Dhanmandi, Kota - RSPCB",08-05-2024 00:00:00,25.164090,75.858137,OZONE,4,95,90
India,Rajasthan,Kota,"Nayapura, Kota - RSPCB",08-05-2024 00:00:00,25.196024,75.855668,PM2.5,41,293,87
India,Rajasthan,Kota,"Nayapura, Kota - RSPCB",08-05-2024 00:00:00,25.196024,75.855668,PM10,67,308,138
India,Rajasthan,Kota,"Shrinath Puram, Kota - RSPCB",08-05-2024 00:00:00,25.14389,75.821256,PM2.5,25,278,134
India,Rajasthan,Nagaur,"Karni Colony, Nagaur - RSPCB",08-05-2024 00:00:00,27.213494,73.734444,PM10,88,287,145
India,Rajasthan,Pali,"Indira Colony Vistar, Pali - RSPCB",08-05-2024 00:00:00,25.771061, 73.340227,NH3,6,14,11
India,Rajasthan,Pratapgarh,"Pragati Nagar, Pratapgarh - RSPCB",08-05-2024 00:00:00,24.041198,74.780702,PM2.5,26,60,44
India,Rajasthan,Pratapgarh,"Pragati Nagar, Pratapgarh - RSPCB",08-05-2024 00:00:00,24.041198,74.780702,NO2,8,28,15
India,Rajasthan,Rajsamand,"Dhoinda, Rajsamand - RSPCB",08-05-2024 00:00:00,25.036360,73.883502,PM10,46,184,79
India,Rajasthan,Rajsamand,"Dhoinda, Rajsamand - RSPCB",08-05-2024 00:00:00,25.036360,73.883502,OZONE,21,90,44
India,Rajasthan,Sawai Madhopur,"Sahu Nagar, Sawai Madhopur - RSPCB",08-05-2024 00:00:00,26.031443,76.359327,PM2.5,38,333,118
India,Rajasthan,Sikar,"Radhakishan Pura, Sikar - RSPCB",08-05-2024 00:00:00,27.608912,75.153302,NH3,3,8,6
India,Rajasthan,Sirohi,"Vedhaynath Colony, Sirohi - RSPCB",08-05-2024 00:00:00,24.885261,72.857549,PM2.5,27,63,40
India,Rajasthan,Sirohi,"Vedhaynath Colony, Sirohi - RSPCB",08-05-2024 00:00:00,24.885261,72.857549,PM10,44,104,65
India,Rajasthan,Sri Ganganagar,"Old City, Sri Ganganagar - RSPCB",08-05-2024 00:00:00,29.931624,73.864511,PM2.5,NA,NA,NA
India,Rajasthan,Sri Ganganagar,"Old City, Sri Ganganagar - RSPCB",08-05-2024 00:00:00,29.931624,73.864511,NO2,NA,NA,NA
India,Rajasthan,Sri Ganganagar,"Old City, Sri Ganganagar - RSPCB",08-05-2024 00:00:00,29.931624,73.864511,CO,28,120,86
India,Rajasthan,Sri Ganganagar,"Old City, Sri Ganganagar - RSPCB",08-05-2024 00:00:00,29.931624,73.864511,OZONE,3,83,35
India,Rajasthan,Tonk,"Shastri Nagar, Tonk - RSPCB",08-05-2024 00:00:00,26.159933,75.780517,PM2.5,NA,NA,NA
India,Rajasthan,Tonk,"Shastri Nagar, Tonk - RSPCB",08-05-2024 00:00:00,26.159933,75.780517,SO2,2,20,10
India,Rajasthan,Udaipur,"Ashok Nagar, Udaipur - RSPCB",08-05-2024 00:00:00,24.5886166,73.6321397,OZONE,31,87,59
India,TamilNadu,Ariyalur,"Keelapalur, Ariyalur - TNPCB",08-05-2024 00:00:00,11.06825,79.07033,PM10,34,71,47
India,TamilNadu,Ariyalur,"Keelapalur, Ariyalur - TNPCB",08-05-2024 00:00:00,11.06825,79.07033,NO2,5,6,5
India,TamilNadu,Chennai,"Alandur Bus Depot, Chennai - CPCB",08-05-2024 00:00:00,12.9099161,80.1076538,NH3,7,20,10
India,TamilNadu,Chennai,"Kodungaiyur, Chennai - TNPCB",08-05-2024 00:00:00,13.1278,80.2642,PM10,18,57,37
India,TamilNadu,Chennai,"Kodungaiyur, Chennai - TNPCB",08-05-2024 00:00:00,13.1278,80.2642,NO2,6,14,9
India,TamilNadu,Chennai,"Manali, Chennai - CPCB",08-05-2024 00:00:00,13.164544,80.26285,NH3,4,5,4
India,TamilNadu,Chennai,"Manali, Chennai - CPCB",08-05-2024 00:00:00,13.164544,80.26285,CO,72,112,108
India,TamilNadu,Chennai,"Perungudi, Chennai - TNPCB",08-05-2024 00:00:00,12.9533,80.2357,PM2.5,2,37,18
India,TamilNadu,Chennai,"Perungudi, Chennai - TNPCB",08-05-2024 00:00:00,12.9533,80.2357,CO,16,24,21
India,TamilNadu,Chennai,"Royapuram, Chennai - TNPCB",08-05-2024 00:00:00,13.1036,80.2909,PM10,16,60,34
India,TamilNadu,Chennai,"Royapuram, Chennai - TNPCB",08-05-2024 00:00:00,13.1036,80.2909,SO2,2,8,4
India,TamilNadu,Chennai,"Royapuram, Chennai - TNPCB",08-05-2024 00:00:00,13.1036,80.2909,OZONE,9,11,9
India,TamilNadu,Chennai,"Velachery Res. Area, Chennai - CPCB",08-05-2024 00:00:00,13.0052189,80.2398125,NO2,11,20,15
India,TamilNadu,Chennai,"Velachery Res. Area, Chennai - CPCB",08-05-2024 00:00:00,13.0052189,80.2398125,SO2,10,11,11
India,TamilNadu,Chennai,"Velachery Res. Area, Chennai - CPCB",08-05-2024 00:00:00,13.0052189,80.2398125,OZONE,40,56,42
India,TamilNadu,Coimbatore,"PSG College of Arts and Science, Coimbatore - TNPCB",08-05-2024 00:00:00,11.0328,77.0349,NH3,1,1,1
India,TamilNadu,Coimbatore,"PSG College of Arts and Science, Coimbatore - TNPCB",08-05-2024 00:00:00,11.0328,77.0349,SO2,23,46,39
India,TamilNadu,Cuddalore,"Semmandalam, Cuddalore - TNPCB",08-05-2024 00:00:00,11.7637683,79.7499835,NH3,NA,NA,NA
India,TamilNadu,Cuddalore,"Semmandalam, Cuddalore - TNPCB",08-05-2024 00:00:00,11.7637683,79.7499835,OZONE,1,15,3
India,TamilNadu,Gummidipoondi,"Anthoni Pillai Nagar, Gummidipoondi - TNPCB",08-05-2024 00:00:00,13.4127,80.1081,NO2,16,28,21
India,TamilNadu,Ooty,"Bombay Castel, Ooty - TNPCB",08-05-2024 00:00:00,11.4068288,76.7138973,PM10,NA,NA,NA
India,TamilNadu,Ooty,"Bombay Castel, Ooty - TNPCB",08-05-2024 00:00:00,11.4068288,76.7138973,SO2,NA,NA,NA
India,TamilNadu,Ooty,"Bombay Castel, Ooty - TNPCB",08-05-2024 00:00:00,11.4068288,76.7138973,OZONE,5,6,5
India,TamilNadu,Palkalaiperur,"Bharathidasan University, Palkalaiperur - TNPCB",08-05-2024 00:00:00,10.681158,78.741746,SO2,28,29,28
India,TamilNadu,Salem,"Sona College of Technology, Salem - TNPCB",08-05-2024 00:00:00,11.679111,78.125052,PM2.5,NA,NA,NA
India,TamilNadu,Thoothukudi,"Meelavittan, Thoothukudi - TNPCB",08-05-2024 00:00:00,8.816428 ,78.099039,PM10,64,103,84
India,TamilNadu,Thoothukudi,"Meelavittan, Thoothukudi - TNPCB",08-05-2024 00:00:00,8.816428 ,78.099039,CO,30,121,103
India,Telangana,Hyderabad,"Bollaram Industrial Area, Hyderabad - TSPCB",08-05-2024 00:00:00,17.540891,78.358528,OZONE,33,36,34
India,Telangana,Hyderabad,"ECIL Kapra, Hyderabad - TSPCB",08-05-2024 00:00:00,17.470431,78.566959,PM2.5,NA,NA,NA
India,Telangana,Hyderabad,"ECIL Kapra, Hyderabad - TSPCB",08-05-2024 00:00:00,17.470431,78.566959,OZONE,10,65,52
India,Telangana,Hyderabad,"ICRISAT Patancheru, Hyderabad - TSPCB",08-05-2024 00:00:00,17.518400,78.278777,PM10,48,157,77
India,Telangana,Hyderabad,"ICRISAT Patancheru, Hyderabad - TSPCB",08-05-2024 00:00:00,17.518400,78.278777,CO,20,84,47
India,Telangana,Hyderabad,"IITH Kandi, Hyderabad - TSPCB",08-05-2024 00:00:00,17.585705,78.126199,PM2.5,NA,NA,NA
India,Telangana,Hyderabad,"Kokapet, Hyderabad - TSPCB",08-05-2024 00:00:00,17.393559,78.339194,CO,19,26,26
India,Telangana,Hyderabad,"Kokapet, Hyderabad - TSPCB",08-05-2024 00:00:00,17.393559,78.339194,OZONE,16,16,16
India,Telangana,Hyderabad,"Nacharam_TSIIC IALA, Hyderabad - TSPCB",08-05-2024 00:00:00,17.429398,78.569354,PM10,74,89,82
India,Telangana,Hyderabad,"New Malakpet, Hyderabad - TSPCB",08-05-2024 00:00:00,17.37206,78.50864,NH3,NA,NA,NA
India,Telangana,Hyderabad,"Sanathnagar, Hyderabad - TSPCB",08-05-2024 00:00:00,17.4559458,78.4332152,PM2.5,25,331,74
India,Telangana,Hyderabad,"Sanathnagar, Hyderabad - TSPCB",08-05-2024 00:00:00,17.4559458,78.4332152,SO2,10,34,19
India,Telangana,Hyderabad,"Somajiguda, Hyderabad - TSPCB",08-05-2024 00:00:00,17.417094,78.457437,PM10,NA,NA,NA
India,Telangana,Hyderabad,"Zoo Park, Hyderabad - TSPCB",08-05-2024 00:00:00,17.349694,78.451437,NH3,1,2,1
India,Tripura,Agartala,"Bardowali, Agartala - Tripura SPCB",08-05-2024 00:00:00,23.8175497,91.2726974,PM2.5,34,202,83
India,Uttar_Pradesh,Agra,"Sanjay Palace, Agra - UPPCB",08-05-2024 00:00:00,27.19865833,78.00598056,PM2.5,10,46,30
India,Uttar_Pradesh,Agra,"Sanjay Palace, Agra - UPPCB",08-05-2024 00:00:00,27.19865833,78.00598056,NO2,18,29,23
India,Uttar_Pradesh,Agra,"Shahjahan Garden, Agra - UPPCB",08-05-2024 00:00:00,27.169338,78.03582,SO2,40,66,51
India,Uttar_Pradesh,Agra,"Shastripuram, Agra - UPPCB",08-05-2024 00:00:00,27.19862,77.92066,PM10,46,163,112
India,Uttar_Pradesh,Baghpat,"Sardar Patel Inter College, Baghpat - UPPCB",08-05-2024 00:00:00,28.964949,77.278761,PM2.5,NA,NA,NA
India,Uttar_Pradesh,Bareilly,"Rajendra Nagar, Bareilly - UPPCB",08-05-2024 00:00:00,28.38910936,79.42963708,PM2.5,22,46,32
India,Uttar_Pradesh,Bareilly,"Rajendra Nagar, Bareilly - UPPCB",08-05-2024 00:00:00,28.38910936,79.42963708,CO,10,42,16
India,Uttar_Pradesh,Bareilly,"Rajendra Nagar, Bareilly - UPPCB",08-05-2024 00:00:00,28.38910936,79.42963708,OZONE,1,51,26
India,Uttar_Pradesh,Firozabad,"Nagla Bhau, Firozabad - UPPCB",08-05-2024 00:00:00,27.168897,78.376960,PM2.5,21,97,53
India,Uttar_Pradesh,Firozabad,"Nagla Bhau, Firozabad - UPPCB",08-05-2024 00:00:00,27.168897,78.376960,PM10,43,129,76
India,Uttar_Pradesh,Firozabad,"Nagla Bhau, Firozabad - UPPCB",08-05-2024 00:00:00,27.168897,78.376960,NO2,17,17,17
India,Uttar_Pradesh,Firozabad,"Nagla Bhau, Firozabad - UPPCB",08-05-2024 00:00:00,27.168897,78.376960,NH3,2,2,2
India,Uttar_Pradesh,Firozabad,"Nagla Bhau, Firozabad - UPPCB",08-05-2024 00:00:00,27.168897,78.376960,CO,17,28,23
India,Uttar_Pradesh,Firozabad,"Vibhab Nagar, Firozabad - UPPCB",08-05-2024 00:00:00,27.1594,78.3953,OZONE,NA,NA,NA
India,Uttar_Pradesh,Ghaziabad,"Sanjay Nagar, Ghaziabad - UPPCB",08-05-2024 00:00:00,28.685382,77.453839,PM2.5,68,377,231
India,Uttar_Pradesh,Ghaziabad,"Sanjay Nagar, Ghaziabad - UPPCB",08-05-2024 00:00:00,28.685382,77.453839,OZONE,2,231,92
India,Uttar_Pradesh,Ghaziabad,"Vasundhara, Ghaziabad - UPPCB",08-05-2024 00:00:00,28.6603346,77.3572563,PM10,119,401,206
India,Uttar_Pradesh,Gorakhpur,"Madan Mohan Malaviya University of Technology, Gorakhpur - UPPCB",08-05-2024 00:00:00,26.730136,83.433859,SO2,19,41,39
India,Uttar_Pradesh,Greater Noida,"Knowledge Park - III, Greater Noida - UPPCB",08-05-2024 00:00:00,28.47272,77.482000,NO2,31,173,87
India,Uttar_Pradesh,Greater Noida,"Knowledge Park - III, Greater Noida - UPPCB",08-05-2024 00:00:00,28.47272,77.482000,NH3,1,9,4
India,Uttar_Pradesh,Greater Noida,"Knowledge Park - V, Greater Noida - UPPCB",08-05-2024 00:00:00,28.557054,77.453663,NO2,27,66,44
India,Uttar_Pradesh,Greater Noida,"Knowledge Park - V, Greater Noida - UPPCB",08-05-2024 00:00:00,28.557054,77.453663,SO2,7,87,28
India,Uttar_Pradesh,Greater Noida,"Knowledge Park - V, Greater Noida - UPPCB",08-05-2024 00:00:00,28.557054,77.453663,OZONE,1,167,66
India,Uttar_Pradesh,Hapur,"Anand Vihar, Hapur - UPPCB",08-05-2024 00:00:00,28.725645,77.749675,NH3,5,8,6
India,Uttar_Pradesh,Jhansi,"Shivaji Nagar, Jhansi - UPPCB",08-05-2024 00:00:00,25.4547,78.6039,NH3,5,6,6
India,Uttar_Pradesh,Kanpur,"FTI Kidwai Nagar, Kanpur - UPPCB",08-05-2024 00:00:00,26.428282,80.327067,PM2.5,NA,NA,NA
India,Uttar_Pradesh,Kanpur,"FTI Kidwai Nagar, Kanpur - UPPCB",08-05-2024 00:00:00,26.428282,80.327067,OZONE,12,47,37
India,Uttar_Pradesh,Kanpur,"Nehru Nagar, Kanpur - UPPCB",08-05-2024 00:00:00,26.4703136,80.3229863,PM2.5,77,192,101
India,Uttar_Pradesh,Kanpur,"Nehru Nagar, Kanpur - UPPCB",08-05-2024 00:00:00,26.4703136,80.3229863,SO2,1,12,7
India,Uttar_Pradesh,Khurja,"Kalindi Kunj, Khurja - UPPCB",08-05-2024 00:00:00,28.2348927,77.8683002,NH3,1,2,2
India,Uttar_Pradesh,Lucknow,"B R Ambedkar University, Lucknow - UPPCB",08-05-2024 00:00:00,26.766433,80.927299,PM10,69,187,122
India,Uttar_Pradesh,Lucknow,"B R Ambedkar University, Lucknow - UPPCB",08-05-2024 00:00:00,26.766433,80.927299,SO2,34,39,36
India,Uttar_Pradesh,Lucknow,"Gomti Nagar, Lucknow - UPPCB",08-05-2024 00:00:00,26.868120,81.005119,NO2,9,11,10
India,Uttar_Pradesh,Lucknow,"Gomti Nagar, Lucknow - UPPCB",08-05-2024 00:00:00,26.868120,81.005119,CO,38,42,40
India,Uttar_Pradesh,Lucknow,"Kendriya Vidyalaya, Lucknow - CPCB",08-05-2024 00:00:00,26.906111,80.948222,NH3,3,20,14
India,Uttar_Pradesh,Lucknow,"Kendriya Vidyalaya, Lucknow - CPCB",08-05-2024 00:00:00,26.906111,80.948222,OZONE,35,104,86
India,Uttar_Pradesh,Lucknow,"Kukrail Picnic Spot-1, Lucknow - UPPCB",08-05-2024 00:00:00,26.90723,80.98579,PM2.5,33,174,71
India,Uttar_Pradesh,Lucknow,"Kukrail Picnic Spot-1, Lucknow - UPPCB",08-05-2024 00:00:00,26.90723,80.98579,PM10,60,140,109
India,Uttar_Pradesh,Lucknow,"Kukrail Picnic Spot-1, Lucknow - UPPCB",08-05-2024 00:00:00,26.90723,80.98579,NO2,8,8,8
India,Uttar_Pradesh,Lucknow,"Lalbagh, Lucknow - CPCB",08-05-2024 00:00:00,26.8458805,80.9365541,OZONE,21,56,46
India,Uttar_Pradesh,Lucknow,"Talkatora District Industries Center, Lucknow - CPCB",08-05-2024 00:00:00,26.83399722,80.8917361,PM2.5,235,361,316
India,Uttar_Pradesh,Lucknow,"Talkatora District Industries Center, Lucknow - CPCB",08-05-2024 00:00:00,26.83399722,80.8917361,PM10,139,197,174
India,Uttar_Pradesh,Meerut,"Ganga Nagar, Meerut - UPPCB",08-05-2024 00:00:00,28.999264,77.7590354,PM2.5,64,238,124
India,Uttar_Pradesh,Meerut,"Jai Bhim Nagar, Meerut - UPPCB",08-05-2024 00:00:00,28.9535882,77.7622941,PM10,199,435,324
India,Uttar_Pradesh,Meerut,"Pallavpuram Phase 2, Meerut - UPPCB",08-05-2024 00:00:00,29.063510,77.709723,PM10,138,244,196
India,Uttar_Pradesh,Meerut,"Pallavpuram Phase 2, Meerut - UPPCB",08-05-2024 00:00:00,29.063510,77.709723,NO2,18,81,37
India,Uttar_Pradesh,Meerut,"Pallavpuram Phase 2, Meerut - UPPCB",08-05-2024 00:00:00,29.063510,77.709723,SO2,16,53,30
India,Uttar_Pradesh,Meerut,"Pallavpuram Phase 2, Meerut - UPPCB",08-05-2024 00:00:00,29.063510,77.709723,CO,28,77,48
India,Uttar_Pradesh,Meerut,"Pallavpuram Phase 2, Meerut - UPPCB",08-05-2024 00:00:00,29.063510,77.709723,OZONE,2,80,40
India,Uttar_Pradesh,Moradabad,"Buddhi Vihar, Moradabad - UPPCB",08-05-2024 00:00:00,28.83526,78.74460,PM2.5,49,179,86
India,Uttar_Pradesh,Moradabad,"Buddhi Vihar, Moradabad - UPPCB",08-05-2024 00:00:00,28.83526,78.74460,SO2,16,29,22
India,Uttar_Pradesh,Moradabad,"Eco Herbal Park, Moradabad - UPPCB",08-05-2024 00:00:00,28.840739,78.697531,PM2.5,53,103,78
India,Uttar_Pradesh,Moradabad,"Eco Herbal Park, Moradabad - UPPCB",08-05-2024 00:00:00,28.840739,78.697531,NO2,14,64,33
India,Uttar_Pradesh,Moradabad,"Kashiram Nagar, Moradabad - UPPCB",08-05-2024 00:00:00,28.849399,78.742362,PM2.5,NA,NA,NA
India,Uttar_Pradesh,Moradabad,"Kashiram Nagar, Moradabad - UPPCB",08-05-2024 00:00:00,28.849399,78.742362,NO2,NA,NA,NA
India,Uttar_Pradesh,Moradabad,"Kashiram Nagar, Moradabad - UPPCB",08-05-2024 00:00:00,28.849399,78.742362,SO2,NA,NA,NA
India,Uttar_Pradesh,Moradabad,"Transport Nagar, Moradabad - UPPCB",08-05-2024 00:00:00,28.802625,78.753728,PM2.5,40,165,81
India,Uttar_Pradesh,Moradabad,"Transport Nagar, Moradabad - UPPCB",08-05-2024 00:00:00,28.802625,78.753728,OZONE,11,113,64
India,Uttar_Pradesh,Muzaffarnagar,"New Mandi, Muzaffarnagar - UPPCB",08-05-2024 00:00:00,29.4723508,77.7194031,NO2,NA,NA,NA
India,Uttar_Pradesh,Noida,"Sector-1, Noida - UPPCB",08-05-2024 00:00:00,28.5898,77.3101,NO2,18,189,81
India,Uttar_Pradesh,Noida,"Sector-1, Noida - UPPCB",08-05-2024 00:00:00,28.5898,77.3101,NH3,NA,NA,NA
India,Uttar_Pradesh,Noida,"Sector-116, Noida - UPPCB",08-05-2024 00:00:00,28.569230,77.393848,NO2,24,149,69
India,Uttar_Pradesh,Noida,"Sector-116, Noida - UPPCB",08-05-2024 00:00:00,28.569230,77.393848,CO,19,130,50
India,Uttar_Pradesh,Prayagraj,"Jhunsi, Prayagraj - UPPCB",08-05-2024 00:00:00,25.425602,81.917152,NO2,6,6,6
India,Uttar_Pradesh,Prayagraj,"Jhunsi, Prayagraj - UPPCB",08-05-2024 00:00:00,25.425602,81.917152,NH3,5,5,5
India,Uttar_Pradesh,Prayagraj,"Jhunsi, Prayagraj - UPPCB",08-05-2024 00:00:00,25.425602,81.917152,OZONE,1,59,37
India,Uttar_Pradesh,Prayagraj,"Motilal Nehru NIT, Prayagraj - UPPCB",08-05-2024 00:00:00,25.494,81.863,PM10,70,114,86
India,Uttar_Pradesh,Prayagraj,"Motilal Nehru NIT, Prayagraj - UPPCB",08-05-2024 00:00:00,25.494,81.863,NO2,12,12,12
India,Uttar_Pradesh,Prayagraj,"Nagar Nigam, Prayagraj - UPPCB",08-05-2024 00:00:00,25.44919916 ,81.82735986 ,PM10,37,60,47
India,Uttar_Pradesh,Varanasi,"Ardhali Bazar, Varanasi - UPPCB",08-05-2024 00:00:00,25.3505986,82.9083074,PM2.5,19,31,25
India,Uttar_Pradesh,Varanasi,"Ardhali Bazar, Varanasi - UPPCB",08-05-2024 00:00:00,25.3505986,82.9083074,PM10,28,42,35
India,Uttar_Pradesh,Varanasi,"Ardhali Bazar, Varanasi - UPPCB",08-05-2024 00:00:00,25.3505986,82.9083074,NO2,12,16,13
India,Uttar_Pradesh,Varanasi,"Ardhali Bazar, Varanasi - UPPCB",08-05-2024 00:00:00,25.3505986,82.9083074,OZONE,32,37,34
India,Uttar_Pradesh,Varanasi,"Maldahiya, Varanasi - UPPCB",08-05-2024 00:00:00,25.32393,82.99687,SO2,24,27,26
India,Uttar_Pradesh,Vrindavan,"Omex Eternity, Vrindavan - UPPCB",08-05-2024 00:00:00,27.5714090,77.6557570,SO2,44,58,47
India,Uttar_Pradesh,Vrindavan,"Omex Eternity, Vrindavan - UPPCB",08-05-2024 00:00:00,27.5714090,77.6557570,OZONE,21,34,28
India,Uttarakhand,Dehradun,"Doon University, Dehradun - UKPCB",08-05-2024 00:00:00,30.269444,78.044167,PM10,68,192,119
India,Uttarakhand,Dehradun,"Doon University, Dehradun - UKPCB",08-05-2024 00:00:00,30.269444,78.044167,SO2,1,3,2
India,Uttarakhand,Dehradun,"Doon University, Dehradun - UKPCB",08-05-2024 00:00:00,30.269444,78.044167,CO,25,40,32
India,Uttarakhand,Kashipur,"Govt. Girls Inter College, Kashipur - UKPCB",08-05-2024 00:00:00,29.2124114,78.9611753,NH3,4,8,7
India,West_Bengal,Barrackpore,"SVSPA Campus, Barrackpore - WBPCB",08-05-2024 00:00:00,22.7605581,88.3617589,SO2,7,11,9
India,West_Bengal,Durgapur,"PCBL Residential Complex, Durgapur - WBPCB",08-05-2024 00:00:00,23.5087640,87.3544400,CO,30,51,42
India,West_Bengal,Durgapur,"PCBL Residential Complex, Durgapur - WBPCB",08-05-2024 00:00:00,23.5087640,87.3544400,OZONE,20,82,66
India,West_Bengal,Durgapur,"Sidhu Kanhu Indoor Stadium, Durgapur - WBPCB",08-05-2024 00:00:00,23.5404352,87.2892225,OZONE,9,63,47
India,West_Bengal,Haldia,"Priyambada Housing Estate, Haldia - WBPCB",08-05-2024 00:00:00,22.06047,88.109737,PM10,8,42,22
India,West_Bengal,Haldia,"Priyambada Housing Estate, Haldia - WBPCB",08-05-2024 00:00:00,22.06047,88.109737,OZONE,20,64,26
India,West_Bengal,Howrah,"Belur Math, Howrah - WBPCB",08-05-2024 00:00:00,22.629801,88.352017,NO2,2,24,12
India,West_Bengal,Howrah,"Ghusuri, Howrah - WBPCB",08-05-2024 00:00:00,22.611968,88.347422,SO2,4,7,5
India,West_Bengal,Howrah,"Ghusuri, Howrah - WBPCB",08-05-2024 00:00:00,22.611968,88.347422,CO,13,24,20
India,West_Bengal,Kolkata,"Ballygunge, Kolkata - WBPCB",08-05-2024 00:00:00,22.5367507,88.3638022,NO2,14,32,25
India,West_Bengal,Kolkata,"Bidhannagar, Kolkata - WBPCB",08-05-2024 00:00:00,22.58157048,88.41002457,PM10,11,41,26
India,West_Bengal,Kolkata,"Bidhannagar, Kolkata - WBPCB",08-05-2024 00:00:00,22.58157048,88.41002457,SO2,12,17,14
India,West_Bengal,Kolkata,"Bidhannagar, Kolkata - WBPCB",08-05-2024 00:00:00,22.58157048,88.41002457,OZONE,25,71,39
India,West_Bengal,Kolkata,"Fort William, Kolkata - WBPCB",08-05-2024 00:00:00,22.556640,88.342674,PM10,19,55,39
India,West_Bengal,Kolkata,"Fort William, Kolkata - WBPCB",08-05-2024 00:00:00,22.556640,88.342674,OZONE,20,74,32
India,West_Bengal,Kolkata,"Jadavpur, Kolkata - WBPCB",08-05-2024 00:00:00,22.49929,88.36917,NO2,39,43,41
India,West_Bengal,Kolkata,"Jadavpur, Kolkata - WBPCB",08-05-2024 00:00:00,22.49929,88.36917,SO2,4,10,6
India,West_Bengal,Kolkata,"Jadavpur, Kolkata - WBPCB",08-05-2024 00:00:00,22.49929,88.36917,CO,16,21,18
India,West_Bengal,Kolkata,"Rabindra Bharati University, Kolkata - WBPCB",08-05-2024 00:00:00,22.627847,88.380669,PM10,14,56,35
India,West_Bengal,Kolkata,"Rabindra Sarobar, Kolkata - WBPCB",08-05-2024 00:00:00,22.51106,88.35142,SO2,7,19,10
India,West_Bengal,Kolkata,"Victoria, Kolkata - WBPCB",08-05-2024 00:00:00,22.5448082,88.3403691,PM10,25,59,41
India,West_Bengal,Siliguri,"Ward-32 Bapupara, Siliguri - WBPCB",08-05-2024 00:00:00,26.6879226,88.4152495,SO2,6,8,7
India,West_Bengal,Siliguri,"Ward-32 Bapupara, Siliguri - WBPCB",08-05-2024 00:00:00,26.6879226,88.4152495,CO,18,44,29
India,Andhra_Pradesh,Amaravati,"Secretariat, Amaravati - APPCB",08-05-2024 00:00:00,16.5150833,80.5181667,PM2.5,13,56,30
India,Andhra_Pradesh,Amaravati,"Secretariat, Amaravati - APPCB",08-05-2024 00:00:00,16.5150833,80.5181667,PM10,6,130,48
India,Andhra_Pradesh,Amaravati,"Secretariat, Amaravati - APPCB",08-05-2024 00:00:00,16.5150833,80.5181667,NO2,2,12,6
India,Andhra_Pradesh,Amaravati,"Secretariat, Amaravati - APPCB",08-05-2024 00:00:00,16.5150833,80.5181667,SO2,7,21,11
India,Andhra_Pradesh,Chittoor,"Gangineni Cheruvu, Chittoor - APPCB",08-05-2024 00:00:00,13.204880,79.097889,NO2,NA,NA,NA
India,Andhra_Pradesh,Kadapa,"Yerramukkapalli, Kadapa - APPCB",08-05-2024 00:00:00,14.465052,78.824187,NH3,3,3,3
India,Andhra_Pradesh,Kadapa,"Yerramukkapalli, Kadapa - APPCB",08-05-2024 00:00:00,14.465052,78.824187,SO2,2,2,2
India,Andhra_Pradesh,Kadapa,"Yerramukkapalli, Kadapa - APPCB",08-05-2024 00:00:00,14.465052,78.824187,CO,5,20,12
India,Andhra_Pradesh,Kadapa,"Yerramukkapalli, Kadapa - APPCB",08-05-2024 00:00:00,14.465052,78.824187,OZONE,30,112,71
India,Andhra_Pradesh,Tirupati,"Tirumala, Tirupati - APPCB",08-05-2024 00:00:00,13.67,79.35,NO2,13,32,24
India,Andhra_Pradesh,Vijayawada,"Rajiv Gandhi Park, Vijayawada - APPCB",08-05-2024 00:00:00,16.509717,80.612222,NO2,35,80,46
India,Andhra_Pradesh,Vijayawada,"Rajiv Gandhi Park, Vijayawada - APPCB",08-05-2024 00:00:00,16.509717,80.612222,NH3,2,5,4
India,Andhra_Pradesh,Vijayawada,"Rajiv Gandhi Park, Vijayawada - APPCB",08-05-2024 00:00:00,16.509717,80.612222,CO,34,48,42
India,Andhra_Pradesh,Vijayawada,"Rajiv Nagar, Vijayawada - APPCB",08-05-2024 00:00:00,16.554731,80.649110,OZONE,10,221,24
India,Andhra_Pradesh,Visakhapatnam,"GVM Corporation, Visakhapatnam - APPCB",08-05-2024 00:00:00,17.72,83.3,PM2.5,27,73,39
India,Andhra_Pradesh,Visakhapatnam,"GVM Corporation, Visakhapatnam - APPCB",08-05-2024 00:00:00,17.72,83.3,PM10,32,143,77
India,Andhra_Pradesh,Visakhapatnam,"GVM Corporation, Visakhapatnam - APPCB",08-05-2024 00:00:00,17.72,83.3,NH3,2,5,3
India,Andhra_Pradesh,Visakhapatnam,"GVM Corporation, Visakhapatnam - APPCB",08-05-2024 00:00:00,17.72,83.3,OZONE,8,19,10
India,Arunachal_Pradesh,Naharlagun,"Naharlagun, Naharlagun - APSPCB",08-05-2024 00:00:00,27.103358,93.679645,OZONE,2,2,2
India,Assam,Byrnihat,"Central Academy for SFS, Byrnihat - PCBA",08-05-2024 00:00:00,26.071318,91.87488,CO,10,38,12
India,Assam,Guwahati,"LGBI Airport, Guwahati - PCBA",08-05-2024 00:00:00,26.10887,91.589544,NH3,5,12,8
India,Assam,Guwahati,"Pan Bazaar, Guwahati - PCBA",08-05-2024 00:00:00,26.187500,91.744194,SO2,21,25,23
India,Assam,Nagaon,"Christianpatty, Nagaon - PCBA",08-05-2024 00:00:00,26.349082,92.68449,PM10,64,123,83
India,Assam,Nagaon,"Christianpatty, Nagaon - PCBA",08-05-2024 00:00:00,26.349082,92.68449,SO2,NA,NA,NA
India,Assam,Silchar,"Tarapur, Silchar - PCBA",08-05-2024 00:00:00,24.82827,92.79525,NO2,16,16,16
India,Assam,Sivasagar,"Girls College, Sivasagar - PCBA",08-05-2024 00:00:00,26.987634,94.636574,PM10,51,96,63
India,Assam,Sivasagar,"Girls College, Sivasagar - PCBA",08-05-2024 00:00:00,26.987634,94.636574,NH3,2,3,2
India,Assam,Sivasagar,"Girls College, Sivasagar - PCBA",08-05-2024 00:00:00,26.987634,94.636574,OZONE,1,6,4
India,Bihar,Araria,"Kharahiya Basti, Araria - BSPCB",08-05-2024 00:00:00,26.146529,87.454184,NH3,NA,NA,NA
India,Bihar,Arrah,"New DM Office, Arrah - BSPCB",08-05-2024 00:00:00,25.5626095,84.663264,NO2,1,3,2
India,Bihar,Arrah,"New DM Office, Arrah - BSPCB",08-05-2024 00:00:00,25.5626095,84.663264,SO2,12,61,29
India,Bihar,Arrah,"New DM Office, Arrah - BSPCB",08-05-2024 00:00:00,25.5626095,84.663264,CO,13,30,18
India,Bihar,Bettiah,"Kamalnath Nagar, Bettiah - BSPCB",08-05-2024 00:00:00,26.80365,84.51954,PM10,NA,NA,NA
India,Bihar,Bettiah,"Kamalnath Nagar, Bettiah - BSPCB",08-05-2024 00:00:00,26.80365,84.51954,NO2,28,30,28
India,Bihar,Bhagalpur,"DM Office_Kachari Chowk, Bhagalpur - BSPCB",08-05-2024 00:00:00,25.251013,86.989001,PM10,54,139,94
India,Bihar,Bhagalpur,"DM Office_Kachari Chowk, Bhagalpur - BSPCB",08-05-2024 00:00:00,25.251013,86.989001,SO2,10,17,16
India,Bihar,Bhagalpur,"DM Office_Kachari Chowk, Bhagalpur - BSPCB",08-05-2024 00:00:00,25.251013,86.989001,OZONE,44,59,46
India,Bihar,Bhagalpur,"Mayaganj, Bhagalpur - BSPCB",08-05-2024 00:00:00,25.265194,87.012947,PM10,NA,NA,NA
India,Bihar,Bhagalpur,"Mayaganj, Bhagalpur - BSPCB",08-05-2024 00:00:00,25.265194,87.012947,NH3,NA,NA,NA
India,Bihar,Bhagalpur,"Mayaganj, Bhagalpur - BSPCB",08-05-2024 00:00:00,25.265194,87.012947,SO2,8,12,12
India,Bihar,Bihar Sharif,"D M Colony, Bihar Sharif - BSPCB",08-05-2024 00:00:00,25.204762,85.514960,PM10,34,116,68
India,Bihar,Buxar,"Charitra Van, Buxar - BSPCB (Formerly known as Central Jail)",08-05-2024 00:00:00,25.567520,83.966379,PM10,NA,NA,NA
India,Bihar,Chhapra,"Darshan Nagar, Chhapra - BSPCB",08-05-2024 00:00:00,25.7808257,84.7446768,NH3,7,18,12
India,Bihar,Chhapra,"Darshan Nagar, Chhapra - BSPCB",08-05-2024 00:00:00,25.7808257,84.7446768,OZONE,1,6,4
India,Bihar,Gaya,"Collectorate, Gaya - BSPCB",08-05-2024 00:00:00,24.7955,84.9994,NO2,2,4,3
India,Bihar,Gaya,"Kareemganj, Gaya - BSPCB",08-05-2024 00:00:00,24.792403,84.992416,NO2,30,31,30
India,Bihar,Gaya,"Kareemganj, Gaya - BSPCB",08-05-2024 00:00:00,24.792403,84.992416,NH3,2,5,4
India,Bihar,Gaya,"SFTI Kusdihra, Gaya - BSPCB",08-05-2024 00:00:00,24.762518,84.982348,NH3,4,8,6
India,Bihar,Hajipur,"Industrial Area, Hajipur - BSPCB",08-05-2024 00:00:00,25.697189,85.245900,NH3,7,8,8
India,Bihar,Hajipur,"Industrial Area, Hajipur - BSPCB",08-05-2024 00:00:00,25.697189,85.245900,OZONE,2,22,12
India,Bihar,Katihar,"Mirchaibari, Katihar - BSPCB",08-05-2024 00:00:00,25.560083,87.553265,PM2.5,7,27,19
India,Bihar,Katihar,"Mirchaibari, Katihar - BSPCB",08-05-2024 00:00:00,25.560083,87.553265,NO2,22,26,24
India,Bihar,Katihar,"Mirchaibari, Katihar - BSPCB",08-05-2024 00:00:00,25.560083,87.553265,SO2,16,25,21
India,Bihar,Motihari,"Gandak Colony, Motihari - BSPCB",08-05-2024 00:00:00,26.63086,84.90051,PM10,NA,NA,NA
India,Bihar,Motihari,"Gandak Colony, Motihari - BSPCB",08-05-2024 00:00:00,26.63086,84.90051,NO2,33,110,81
India,Bihar,Motihari,"Gandak Colony, Motihari - BSPCB",08-05-2024 00:00:00,26.63086,84.90051,SO2,1,9,4
India,Bihar,Munger,"Town Hall, Munger - BSPCB",08-05-2024 00:00:00,25.376776,86.471523,NO2,4,6,5
India,Bihar,Munger,"Town Hall, Munger - BSPCB",08-05-2024 00:00:00,25.376776,86.471523,SO2,15,34,27
India,Bihar,Muzaffarpur,"Buddha Colony, Muzaffarpur - BSPCB",08-05-2024 00:00:00,26.11442,85.39813,NO2,8,13,10
India,Bihar,Muzaffarpur,"Muzaffarpur Collectorate, Muzaffarpur - BSPCB",08-05-2024 00:00:00,26.1209,85.3647,NO2,28,42,33
India,Bihar,Patna,"DRM Office Danapur, Patna - BSPCB",08-05-2024 00:00:00,25.586562,85.043586,NO2,6,17,11
India,Bihar,Patna,"DRM Office Danapur, Patna - BSPCB",08-05-2024 00:00:00,25.586562,85.043586,NH3,2,3,3
India,Bihar,Patna,"DRM Office Danapur, Patna - BSPCB",08-05-2024 00:00:00,25.586562,85.043586,OZONE,16,36,25
India,Bihar,Patna,"Govt. High School Shikarpur, Patna - BSPCB",08-05-2024 00:00:00,25.592539,85.227158,PM10,64,253,147
India,Bihar,Patna,"Muradpur, Patna - BSPCB",08-05-2024 00:00:00,25.619651,85.147382,CO,44,67,52
India,Bihar,Patna,"Rajbansi Nagar, Patna - BSPCB",08-05-2024 00:00:00,25.599486,85.113666,PM10,NA,NA,NA
India,Bihar,Patna,"Rajbansi Nagar, Patna - BSPCB",08-05-2024 00:00:00,25.599486,85.113666,NO2,9,70,26
India,Bihar,Purnia,"Mariam Nagar, Purnia - BSPCB",08-05-2024 00:00:00,25.366336,87.117468,NO2,4,7,6
India,Bihar,Purnia,"Mariam Nagar, Purnia - BSPCB",08-05-2024 00:00:00,25.366336,87.117468,OZONE,14,60,30
India,Bihar,Rajgir,"Dangi Tola, Rajgir - BSPCB",08-05-2024 00:00:00,25.03280,85.41948,CO,21,43,32
India,Bihar,Saharsa,"Police Line, Saharsa - BSPCB",08-05-2024 00:00:00,25.892357,86.590325,CO,53,54,54
India,Bihar,Samastipur,"DM Office_Kasipur, Samastipur - BSPCB",08-05-2024 00:00:00,25.859655,85.77944,PM10,16,126,76
India,Bihar,Samastipur,"DM Office_Kasipur, Samastipur - BSPCB",08-05-2024 00:00:00,25.859655,85.77944,NH3,1,4,4
India,Bihar,Sasaram,"Dada Peer, Sasaram - BSPCB",08-05-2024 00:00:00,24.952822,84.002396,SO2,16,23,22
India,Bihar,Siwan,"Chitragupta Nagar, Siwan - BSPCB",08-05-2024 00:00:00,26.2271665,84.3570427,PM2.5,NA,NA,NA
India,Bihar,Siwan,"Chitragupta Nagar, Siwan - BSPCB",08-05-2024 00:00:00,26.2271665,84.3570427,PM10,NA,NA,NA
India,Bihar,Siwan,"Chitragupta Nagar, Siwan - BSPCB",08-05-2024 00:00:00,26.2271665,84.3570427,OZONE,13,75,48
India,Chhattisgarh,Bhilai,"32Bungalows, Bhilai - CECB",08-05-2024 00:00:00,21.194815,81.314770,PM10,32,98,65
India,Chhattisgarh,Bhilai,"32Bungalows, Bhilai - CECB",08-05-2024 00:00:00,21.194815,81.314770,NO2,21,33,26
India,Chhattisgarh,Bhilai,"32Bungalows, Bhilai - CECB",08-05-2024 00:00:00,21.194815,81.314770,NH3,6,7,7
India,Chhattisgarh,Bhilai,"32Bungalows, Bhilai - CECB",08-05-2024 00:00:00,21.194815,81.314770,OZONE,7,25,11
India,Chhattisgarh,Bhilai,"Civic Center, Bhilai - Bhilai Steel Plant",08-05-2024 00:00:00,21.185571,81.343175,NO2,11,17,13
India,Chhattisgarh,Bhilai,"Civic Center, Bhilai - Bhilai Steel Plant",08-05-2024 00:00:00,21.185571,81.343175,NH3,3,6,4
India,Chhattisgarh,Bhilai,"Civic Center, Bhilai - Bhilai Steel Plant",08-05-2024 00:00:00,21.185571,81.343175,CO,26,80,53
India,Chhattisgarh,Bhilai,"Hathkhoj, Bhilai - CECB",08-05-2024 00:00:00,21.224231,81.408350,PM10,26,129,88
India,Chhattisgarh,Bilaspur,"Mangala, Bilaspur - NTPC",08-05-2024 00:00:00,22.08815,82.13737,PM10,29,86,53
India,Chhattisgarh,Chhal,"Nawapara SECL Colony, Chhal - CECB",08-05-2024 00:00:00,22.118125,83.140608,PM10,2,102,76
India,Chhattisgarh,Korba,"Rampur, Korba - CECB",08-05-2024 00:00:00,22.368195,82.746431,PM2.5,25,55,34
India,Chhattisgarh,Korba,"Rampur, Korba - CECB",08-05-2024 00:00:00,22.368195,82.746431,PM10,39,80,49
India,Chhattisgarh,Korba,"Rampur, Korba - CECB",08-05-2024 00:00:00,22.368195,82.746431,NO2,21,52,38
India,Chhattisgarh,Korba,"Urja Nagar, Korba - CECB",08-05-2024 00:00:00,22.348441,82.549611,PM2.5,13,126,47
India,Chhattisgarh,Korba,"Urja Nagar, Korba - CECB",08-05-2024 00:00:00,22.348441,82.549611,NH3,5,7,6
India,Chhattisgarh,Kunjemura,"OP Jindal School, Kunjemura - CECB",08-05-2024 00:00:00,22.126650,83.483212,NH3,2,3,2
India,Chhattisgarh,Milupara,"Govt. Higher Secondary School, Milupara - CECB",08-05-2024 00:00:00,22.1910172,83.5197009,SO2,NA,NA,NA
India,Chhattisgarh,Raipur,"AIIMS, Raipur - CECB",08-05-2024 00:00:00,21.258815,81.578979,SO2,3,10,7
India,Chhattisgarh,Raipur,"Bhatagaon New ISBT, Raipur - CECB",08-05-2024 00:00:00,21.219665,81.630094,NO2,26,45,33
India,Chhattisgarh,Raipur,"Bhatagaon New ISBT, Raipur - CECB",08-05-2024 00:00:00,21.219665,81.630094,NH3,2,3,3
India,Chhattisgarh,Raipur,"Krishak Nagar, Raipur - CECB",08-05-2024 00:00:00,21.237755,81.705301,PM2.5,11,30,19
India,Chhattisgarh,Raipur,"Krishak Nagar, Raipur - CECB",08-05-2024 00:00:00,21.237755,81.705301,OZONE,1,22,8
India,Chhattisgarh,Raipur,"Siltara Phase-II, Raipur - CECB",08-05-2024 00:00:00,21.371751,81.664929,SO2,14,78,31
India,Chhattisgarh,Raipur,"Siltara Phase-II, Raipur - CECB",08-05-2024 00:00:00,21.371751,81.664929,CO,16,86,30
India,Delhi,Delhi,"Anand Vihar, Delhi - DPCC",08-05-2024 00:00:00,28.647622,77.3158090,PM10,195,500,402
India,Delhi,Delhi,"Anand Vihar, Delhi - DPCC",08-05-2024 00:00:00,28.647622,77.3158090,OZONE,4,268,54
India,Delhi,Delhi,"Aya Nagar, Delhi - IMD",08-05-2024 00:00:00,28.4706914,77.1099364,NO2,13,68,28
India,Delhi,Delhi,"Bawana, Delhi - DPCC",08-05-2024 00:00:00,28.776200,77.051074,SO2,12,84,30
India,Delhi,Delhi,"Chandni Chowk, Delhi - IITM",08-05-2024 00:00:00,28.656756,77.227234,NH3,20,54,36
India,Delhi,Delhi,"DTU, Delhi - CPCB",08-05-2024 00:00:00,28.7500499,77.1112615,PM2.5,165,415,321
India,Delhi,Delhi,"DTU, Delhi - CPCB",08-05-2024 00:00:00,28.7500499,77.1112615,PM10,170,471,320
India,Delhi,Delhi,"DTU, Delhi - CPCB",08-05-2024 00:00:00,28.7500499,77.1112615,CO,34,101,62
India,Delhi,Delhi,"Dr. Karni Singh Shooting Range, Delhi - DPCC",08-05-2024 00:00:00,28.498571,77.264840,NH3,6,9,7
India,Delhi,Delhi,"Dr. Karni Singh Shooting Range, Delhi - DPCC",08-05-2024 00:00:00,28.498571,77.264840,CO,32,115,65
India,Delhi,Delhi,"Dwarka-Sector 8, Delhi - DPCC ",08-05-2024 00:00:00,28.5710274,77.0719006,PM2.5,88,486,288
India,Delhi,Delhi,"Dwarka-Sector 8, Delhi - DPCC ",08-05-2024 00:00:00,28.5710274,77.0719006,NH3,NA,NA,NA
India,Delhi,Delhi,"IHBAS, Dilshad Garden, Delhi - CPCB",08-05-2024 00:00:00,28.6811736,77.3025234,PM10,94,380,208
India,Delhi,Delhi,"Jawaharlal Nehru Stadium, Delhi - DPCC",08-05-2024 00:00:00,28.580280,77.233829,PM2.5,82,349,219
India,Delhi,Delhi,"Jawaharlal Nehru Stadium, Delhi - DPCC",08-05-2024 00:00:00,28.580280,77.233829,PM10,158,381,235
India,Delhi,Delhi,"Lodhi Road, Delhi - IITM",08-05-2024 00:00:00,28.588333,77.221667,NO2,20,174,67
India,Delhi,Delhi,"Lodhi Road, Delhi - IMD",08-05-2024 00:00:00,28.5918245,77.2273074,NO2,4,22,10
India,Delhi,Delhi,"Major Dhyan Chand National Stadium, Delhi - DPCC",08-05-2024 00:00:00,28.611281,77.237738,NH3,7,9,8
India,Delhi,Delhi,"Mundka, Delhi - DPCC",08-05-2024 00:00:00,28.684678,77.076574,CO,20,108,74
India,Delhi,Delhi,"NSIT Dwarka, Delhi - CPCB",08-05-2024 00:00:00,28.60909,77.0325413,CO,22,76,57
India,Delhi,Delhi,"Najafgarh, Delhi - DPCC",08-05-2024 00:00:00,28.570173,76.933762,SO2,4,21,14
India,Delhi,Delhi,"Najafgarh, Delhi - DPCC",08-05-2024 00:00:00,28.570173,76.933762,CO,15,101,34
India,Delhi,Delhi,"Narela, Delhi - DPCC",08-05-2024 00:00:00,28.822836,77.101981,SO2,13,84,41
India,Delhi,Delhi,"Narela, Delhi - DPCC",08-05-2024 00:00:00,28.822836,77.101981,OZONE,6,276,106
India,Delhi,Delhi,"Nehru Nagar, Delhi - DPCC",08-05-2024 00:00:00,28.567890,77.250515,PM10,172,430,272
India,Delhi,Delhi,"New Moti Bagh, Delhi - MHUA",08-05-2024 00:00:00,28.57834,77.18400,CO,40,127,80
India,Delhi,Delhi,"North Campus, DU, Delhi - IMD",08-05-2024 00:00:00,28.6573814,77.1585447,OZONE,2,123,30
India,Delhi,Delhi,"Okhla Phase-2, Delhi - DPCC",08-05-2024 00:00:00,28.530785,77.271255,PM10,159,465,320
India,Delhi,Delhi,"Patparganj, Delhi - DPCC",08-05-2024 00:00:00,28.623763,77.287209,SO2,NA,NA,NA
India,Delhi,Delhi,"Punjabi Bagh, Delhi - DPCC",08-05-2024 00:00:00,28.674045,77.131023,PM10,216,486,330
India,Delhi,Delhi,"Punjabi Bagh, Delhi - DPCC",08-05-2024 00:00:00,28.674045,77.131023,NO2,52,107,75
India,Delhi,Delhi,"Punjabi Bagh, Delhi - DPCC",08-05-2024 00:00:00,28.674045,77.131023,CO,20,101,70
India,Delhi,Delhi,"R K Puram, Delhi - DPCC",08-05-2024 00:00:00,28.563262,77.186937,PM2.5,161,447,302
India,Delhi,Delhi,"R K Puram, Delhi - DPCC",08-05-2024 00:00:00,28.563262,77.186937,NO2,3,81,20
India,Delhi,Delhi,"R K Puram, Delhi - DPCC",08-05-2024 00:00:00,28.563262,77.186937,NH3,1,2,1
India,Delhi,Delhi,"R K Puram, Delhi - DPCC",08-05-2024 00:00:00,28.563262,77.186937,SO2,3,42,19
India,Delhi,Delhi,"R K Puram, Delhi - DPCC",08-05-2024 00:00:00,28.563262,77.186937,OZONE,19,272,115
India,Delhi,Delhi,"Rohini, Delhi - DPCC",08-05-2024 00:00:00,28.732528,77.119920,NO2,24,146,79
India,Delhi,Delhi,"Shadipur, Delhi - CPCB",08-05-2024 00:00:00,28.6514781,77.1473105,SO2,3,36,20
India,Delhi,Delhi,"Shadipur, Delhi - CPCB",08-05-2024 00:00:00,28.6514781,77.1473105,CO,44,120,74
India,Delhi,Delhi,"Sonia Vihar, Delhi - DPCC",08-05-2024 00:00:00,28.710508,77.249485,CO,68,116,85
India,Delhi,Delhi,"Sri Aurobindo Marg, Delhi - DPCC",08-05-2024 00:00:00,28.531346,77.190156,CO,4,91,51
India,Delhi,Delhi,"Vivek Vihar, Delhi - DPCC",08-05-2024 00:00:00,28.672342,77.315260,PM10,180,500,337
India,Delhi,Delhi,"Wazirpur, Delhi - DPCC",08-05-2024 00:00:00,28.699793,77.165453,PM10,193,458,329
India,Delhi,Delhi,"Wazirpur, Delhi - DPCC",08-05-2024 00:00:00,28.699793,77.165453,NH3,7,15,13
India,Gujarat,Ahmedabad,"Chandkheda, Ahmedabad - IITM",08-05-2024 00:00:00,23.107969,72.574648,NH3,2,3,3
India,Gujarat,Ahmedabad,"Gyaspur, Ahmedabad - IITM",08-05-2024 00:00:00,22.977134,72.553024,OZONE,31,84,60
India,Gujarat,Ahmedabad,"Maninagar, Ahmedabad - GPCB",08-05-2024 00:00:00,23.002657,72.591912,NO2,33,68,45
India,Gujarat,Ahmedabad,"Raikhad, Ahmedabad - IITM",08-05-2024 00:00:00,23.020509,72.579261,NH3,2,4,3
India,Gujarat,Ahmedabad,"SVPI Airport Hansol, Ahmedabad - IITM",08-05-2024 00:00:00,23.076793,72.627874,NH3,7,8,7
India,Gujarat,Ahmedabad,"Sardar Vallabhbhai Patel Stadium, Ahmedabad - IITM",08-05-2024 00:00:00,23.043070,72.562968,PM2.5,78,136,98
India,Gujarat,Ahmedabad,"Sardar Vallabhbhai Patel Stadium, Ahmedabad - IITM",08-05-2024 00:00:00,23.043070,72.562968,NO2,14,18,17
India,Gujarat,Ahmedabad,"Sardar Vallabhbhai Patel Stadium, Ahmedabad - IITM",08-05-2024 00:00:00,23.043070,72.562968,NH3,1,1,1
India,Gujarat,Ankleshwar,"GIDC, Ankleshwar - GPCB",08-05-2024 00:00:00,21.613267,73.010555,SO2,NA,NA,NA
India,Gujarat,Gandhinagar,"Sector-10, Gandhinagar - GPCB",08-05-2024 00:00:00,23.221714,72.654328,SO2,5,5,5
India,Gujarat,Gandhinagar,"Sector-10, Gandhinagar - GPCB",08-05-2024 00:00:00,23.221714,72.654328,CO,32,59,42
India,Gujarat,Nandesari,"GIDC, Nandesari - Nandesari Ind. Association",08-05-2024 00:00:00,22.410802,73.097923,NO2,4,28,13
India,Gujarat,Surat,"Science Center, Surat - SMC",08-05-2024 00:00:00,21.170046,72.795405,SO2,1,4,1
India,Gujarat,Vatva,"Phase-4 GIDC, Vatva - GPCB",08-05-2024 00:00:00,22.969611,72.643500,PM10,93,93,93
India,Gujarat,Vatva,"Phase-4 GIDC, Vatva - GPCB",08-05-2024 00:00:00,22.969611,72.643500,SO2,10,50,20
India,Haryana,Ambala,"Patti Mehar, Ambala - HSPCB",08-05-2024 00:00:00,30.379589,76.778328,PM2.5,59,114,85
India,Haryana,Ambala,"Patti Mehar, Ambala - HSPCB",08-05-2024 00:00:00,30.379589,76.778328,CO,30,60,38
India,Haryana,Bahadurgarh,"Arya Nagar, Bahadurgarh - HSPCB",08-05-2024 00:00:00,28.6701,76.9254,PM2.5,38,500,265
India,Haryana,Bahadurgarh,"Arya Nagar, Bahadurgarh - HSPCB",08-05-2024 00:00:00,28.6701,76.9254,SO2,24,121,53
India,Haryana,Bhiwani,"H.B. Colony, Bhiwani - HSPCB",08-05-2024 00:00:00,28.806223,76.141105,PM10,20,169,119
India,Haryana,Bhiwani,"H.B. Colony, Bhiwani - HSPCB",08-05-2024 00:00:00,28.806223,76.141105,CO,6,70,24
India,Haryana,Charkhi Dadri,"Mini Secretariat, Charkhi Dadri - HSPCB",08-05-2024 00:00:00,28.593883,76.270653,NH3,6,8,7
India,Haryana,Charkhi Dadri,"Mini Secretariat, Charkhi Dadri - HSPCB",08-05-2024 00:00:00,28.593883,76.270653,SO2,6,85,45
India,Haryana,Dharuhera,"Municipal Corporation Office, Dharuhera -  HSPCB",08-05-2024 00:00:00,28.206800,76.799700,PM2.5,NA,NA,NA
India,Haryana,Dharuhera,"Municipal Corporation Office, Dharuhera -  HSPCB",08-05-2024 00:00:00,28.206800,76.799700,CO,18,76,44
India,Haryana,Faridabad,"New Industrial Town, Faridabad - HSPCB",08-05-2024 00:00:00,28.39072,77.30059,CO,8,101,38
India,Haryana,Faridabad,"Sector 11, Faridabad - HSPCB",08-05-2024 00:00:00,28.376058,77.315741,PM2.5,202,431,349
India,Haryana,Faridabad,"Sector 11, Faridabad - HSPCB",08-05-2024 00:00:00,28.376058,77.315741,PM10,172,496,334
India,Haryana,Faridabad,"Sector 11, Faridabad - HSPCB",08-05-2024 00:00:00,28.376058,77.315741,SO2,2,112,24
India,Haryana,Faridabad,"Sector 30, Faridabad - HSPCB",08-05-2024 00:00:00,28.4417,77.3217,SO2,5,6,6
India,Haryana,Faridabad,"Sector- 16A, Faridabad - HSPCB",08-05-2024 00:00:00,28.4088421,77.3099081,PM2.5,81,453,239
India,Haryana,Fatehabad,"Huda Sector, Fatehabad - HSPCB",08-05-2024 00:00:00,29.503664,75.467934,PM2.5,46,314,211
India,Haryana,Gurugram,"NISE Gwal Pahari, Gurugram - IMD",08-05-2024 00:00:00,28.422681,77.148944,CO,16,102,40
India,Haryana,Gurugram,"Sector-51, Gurugram - HSPCB",08-05-2024 00:00:00,28.4227,77.0667,NO2,13,29,23
India,Haryana,Gurugram,"Teri Gram, Gurugram - HSPCB",08-05-2024 00:00:00,28.4275,77.1465,SO2,5,7,6
India,Haryana,Gurugram,"Vikas Sadan, Gurugram - HSPCB",08-05-2024 00:00:00,28.4501238,77.0263051,SO2,18,65,41
India,Haryana,Hisar,"Urban Estate-II, Hisar - HSPCB",08-05-2024 00:00:00,29.140560,75.744941,NO2,20,31,26
India,Haryana,Hisar,"Urban Estate-II, Hisar - HSPCB",08-05-2024 00:00:00,29.140560,75.744941,NH3,8,13,10
India,Haryana,Jind,"Police Lines, Jind - HSPCB",08-05-2024 00:00:00,29.307814,76.337619,SO2,5,105,28
India,Haryana,Jind,"Police Lines, Jind - HSPCB",08-05-2024 00:00:00,29.307814,76.337619,CO,2,82,24
India,Haryana,Kaithal,"Rishi Nagar, Kaithal - HSPCB",08-05-2024 00:00:00,29.8006,76.4155,PM2.5,63,261,156
India,Haryana,Kaithal,"Rishi Nagar, Kaithal - HSPCB",08-05-2024 00:00:00,29.8006,76.4155,NH3,8,8,8
India,Haryana,Kaithal,"Rishi Nagar, Kaithal - HSPCB",08-05-2024 00:00:00,29.8006,76.4155,OZONE,7,21,15
India,Haryana,Karnal,"Sector-12, Karnal - HSPCB",08-05-2024 00:00:00,29.695300,77.002700,CO,32,57,47
India,Haryana,Kurukshetra,"Sector-7, Kurukshetra - HSPCB",08-05-2024 00:00:00,29.966942,76.875879,NH3,3,5,5
India,Haryana,Mandikhera,"General Hospital, Mandikhera - HSPCB",08-05-2024 00:00:00,27.9002,76.9938,PM10,82,166,121
India,Haryana,Mandikhera,"General Hospital, Mandikhera - HSPCB",08-05-2024 00:00:00,27.9002,76.9938,NO2,18,24,21
India,Haryana,Mandikhera,"General Hospital, Mandikhera - HSPCB",08-05-2024 00:00:00,27.9002,76.9938,CO,18,42,30
India,Haryana,Manesar,"Sector-2 IMT, Manesar - HSPCB",08-05-2024 00:00:00,28.360699,76.936090,PM10,107,257,179
India,Haryana,Manesar,"Sector-2 IMT, Manesar - HSPCB",08-05-2024 00:00:00,28.360699,76.936090,CO,3,49,20
India,Haryana,Narnaul,"Shastri Nagar, Narnaul - HSPCB",08-05-2024 00:00:00,28.060249,76.113115,PM10,106,169,128
India,Haryana,Narnaul,"Shastri Nagar, Narnaul - HSPCB",08-05-2024 00:00:00,28.060249,76.113115,NO2,15,86,49
India,Haryana,Narnaul,"Shastri Nagar, Narnaul - HSPCB",08-05-2024 00:00:00,28.060249,76.113115,SO2,13,41,22
India,Haryana,Palwal,"Shyam Nagar, Palwal - HSPCB",08-05-2024 00:00:00,28.1485564,77.3320667,PM10,129,187,147
India,Haryana,Palwal,"Shyam Nagar, Palwal - HSPCB",08-05-2024 00:00:00,28.1485564,77.3320667,NH3,8,9,9
India,Haryana,Panchkula,"Sector-6, Panchkula - HSPCB ",08-05-2024 00:00:00,30.7057778,76.8531805555555,OZONE,44,61,56
India,Haryana,Panipat,"Sector-18, Panipat - HSPCB",08-05-2024 00:00:00,29.497973,76.993331,OZONE,30,30,30
India,Haryana,Rohtak,"MD University, Rohtak - HSPCB",08-05-2024 00:00:00,28.52123,76.37138,SO2,6,8,7
India,Haryana,Sirsa,"F-Block, Sirsa - HSPCB",08-05-2024 00:00:00,29.536400,75.015800,NO2,10,10,10
India,Haryana,Sonipat,"Murthal, Sonipat - HSPCB",08-05-2024 00:00:00,29.027200,77.062100,OZONE,16,36,24
India,Jammu_and_Kashmir,Srinagar,"Rajbagh, Srinagar - JKSPCB",08-05-2024 00:00:00,34.066206,74.819820,PM2.5,21,58,35
India,Jharkhand,Dhanbad,"Sardar Patel Nagar, Dhanbad - JSPCB",08-05-2024 00:00:00,23.80569,86.44268,NO2,11,21,15
India,Jharkhand,Dhanbad,"Sardar Patel Nagar, Dhanbad - JSPCB",08-05-2024 00:00:00,23.80569,86.44268,CO,NA,NA,NA
India,Jharkhand,Pathardih,"Mohalbani Ghat, Pathardih - DMC",08-05-2024 00:00:00,23.669880,86.411725,PM10,NA,NA,NA
India,Jharkhand,Pathardih,"Mohalbani Ghat, Pathardih - DMC",08-05-2024 00:00:00,23.669880,86.411725,OZONE,25,37,31
India,Karnataka,Bagalkot,"Vidayagiri, Bagalkot - KSPCB",08-05-2024 00:00:00,16.172806,75.659694,NO2,9,10,9
India,Karnataka,Belgaum,"Ramteerth Nagar, Belgaum - KSPCB",08-05-2024 00:00:00,15.888653,74.541751,NO2,5,32,13
India,Karnataka,Bengaluru,"BTM Layout, Bengaluru - CPCB",08-05-2024 00:00:00,12.9135218,77.5950804,OZONE,17,17,17
India,Karnataka,Bengaluru,"Hebbal, Bengaluru - KSPCB",08-05-2024 00:00:00,13.029152,77.585901,NO2,5,5,5
India,Karnataka,Bengaluru,"Hombegowda Nagar, Bengaluru - KSPCB",08-05-2024 00:00:00,12.938539,77.590100,PM10,14,94,38
India,Karnataka,Bengaluru,"Jayanagar 5th Block, Bengaluru - KSPCB",08-05-2024 00:00:00,12.920984,77.584908,PM2.5,24,77,40
India,Karnataka,Bengaluru,"Kasturi Nagar, Bengaluru - KSPCB",08-05-2024 00:00:00,13.003872,77.664217,NO2,16,17,17
India,Karnataka,Bengaluru,"Kasturi Nagar, Bengaluru - KSPCB",08-05-2024 00:00:00,13.003872,77.664217,NH3,3,4,4
India,Karnataka,Bengaluru,"Peenya, Bengaluru - CPCB",08-05-2024 00:00:00,13.0270199,77.494094,PM2.5,33,52,40
India,Karnataka,Bengaluru,"Peenya, Bengaluru - CPCB",08-05-2024 00:00:00,13.0270199,77.494094,PM10,43,66,52
India,Karnataka,Bengaluru,"Peenya, Bengaluru - CPCB",08-05-2024 00:00:00,13.0270199,77.494094,OZONE,25,68,42
India,Karnataka,Bengaluru,"RVCE-Mailasandra, Bengaluru - KSPCB",08-05-2024 00:00:00,12.921418,77.502466,SO2,7,8,7
India,Karnataka,Bengaluru,"RVCE-Mailasandra, Bengaluru - KSPCB",08-05-2024 00:00:00,12.921418,77.502466,OZONE,39,39,39
India,Karnataka,Bengaluru,"Sanegurava Halli, Bengaluru - KSPCB",08-05-2024 00:00:00,12.990328,77.5431385,CO,1,103,21
India,Karnataka,Bengaluru,"Silk Board, Bengaluru - KSPCB",08-05-2024 00:00:00,12.917348,77.622813,PM10,20,179,82
India,Karnataka,Bengaluru,"Silk Board, Bengaluru - KSPCB",08-05-2024 00:00:00,12.917348,77.622813,SO2,1,8,5
India,Karnataka,Bidar,"Naubad, Bidar - KSPCB",08-05-2024 00:00:00,17.930306,77.482194,CO,65,96,80
India,Karnataka,Chikkaballapur,"Chikkaballapur Rural, Chikkaballapur - KSPCB",08-05-2024 00:00:00,13.428828,77.731418,NO2,6,10,8
India,Karnataka,Chikkamagaluru,"Kalyana Nagara, Chikkamagaluru - KSPCB",08-05-2024 00:00:00,13.328028,75.797056,SO2,NA,NA,NA
India,Karnataka,Davanagere,"Devaraj Urs Badavane, Davanagere - KSPCB",08-05-2024 00:00:00,14.475800,75.905200,OZONE,19,20,19
India,Karnataka,Dharwad,"Kalabhavan, Dharwad - KSPCB",08-05-2024 00:00:00,15.459706,75.008381,NO2,11,16,15
India,Karnataka,Gadag,"Panchal Nagar, Gadag - KSPCB",08-05-2024 00:00:00,15.411456,75.638133,NO2,6,32,13
India,Karnataka,Haveri,"Ashwini Nagar, Haveri - KSPCB",08-05-2024 00:00:00,14.791800,75.389600,NO2,27,39,33
India,Karnataka,Haveri,"Ashwini Nagar, Haveri - KSPCB",08-05-2024 00:00:00,14.791800,75.389600,OZONE,26,47,44
India,Karnataka,Hubballi,"Deshpande Nagar, Hubballi - KSPCB",08-05-2024 00:00:00,15.351773,75.140726,CO,1,2,2
India,Karnataka,Hubballi,"Lingaraj Nagar, Hubballi - KSPCB",08-05-2024 00:00:00,15.3714823,75.1160168,PM2.5,40,54,47
India,Karnataka,Hubballi,"Lingaraj Nagar, Hubballi - KSPCB",08-05-2024 00:00:00,15.3714823,75.1160168,NO2,10,10,10
India,Karnataka,Kalaburagi,"Lal Bahadur Shastri Nagar, Kalaburagi - KSPCB",08-05-2024 00:00:00,17.321993,76.822628,SO2,23,25,24
India,Karnataka,Kalaburagi,"Mahatma Basaveswar Colony, Kalaburgi - KSPCB",08-05-2024 00:00:00,17.336318,76.847397,CO,35,58,46
