country,state,city,station,last_update,latitude,longitude,pollutant_id,pollutant_min,pollutant_max,pollutant_avg
India,Andhra_Pradesh,Amaravati,"Secretariat, Amaravati - APPCB",29-01-2024 17:00:00,16.5150833,80.5181667,SO2,11,16,13
India,Andhra_Pradesh,Amaravati,"Secretariat, Amaravati - APPCB",29-01-2024 17:00:00,16.5150833,80.5181667,CO,17,58,38
India,Andhra_Pradesh,Amaravati,"Secretariat, Amaravati - APPCB",29-01-2024 17:00:00,16.5150833,80.5181667,OZONE,8,65,55
India,Andhra_Pradesh,Anantapur,"Gulzarpet, Anantapur - APPCB",29-01-2024 17:00:00,14.675886,77.593027,PM10,44,107,67
India,Andhra_Pradesh,Chittoor,"Gangineni Cheruvu, Chittoor - APPCB",29-01-2024 17:00:00,13.204880,79.097889,SO2,1,15,8
India,Andhra_Pradesh,Kadapa,"Yerramukkapalli, Kadapa - APPCB",29-01-2024 17:00:00,14.465052,78.824187,PM2.5,35,91,52
India,Andhra_Pradesh,Rajamahendravaram,"Anand Kala Kshetram, Rajamahendravaram - APPCB",29-01-2024 17:00:00,16.9872867,81.7363176,OZONE,5,7,6
India,Andhra_Pradesh,Vijayawada,"Rajiv Gandhi Park, Vijayawada - APPCB",29-01-2024 17:00:00,16.509717,80.612222,PM10,NA,NA,NA
India,Andhra_Pradesh,Vijayawada,"Rajiv Gandhi Park, Vijayawada - APPCB",29-01-2024 17:00:00,16.509717,80.612222,OZONE,NA,NA,NA
India,Andhra_Pradesh,Visakhapatnam,"GVM Corporation, Visakhapatnam - APPCB",29-01-2024 17:00:00,17.72,83.3,PM2.5,NA,NA,NA
India,Andhra_Pradesh,Visakhapatnam,"GVM Corporation, Visakhapatnam - APPCB",29-01-2024 17:00:00,17.72,83.3,PM10,NA,NA,NA
India,Andhra_Pradesh,Visakhapatnam,"GVM Corporation, Visakhapatnam - APPCB",29-01-2024 17:00:00,17.72,83.3,CO,4,28,13
India,Arunachal_Pradesh,Naharlagun,"Naharlagun, Naharlagun - APSPCB",29-01-2024 17:00:00,27.103358,93.679645,PM10,NA,NA,NA
India,Arunachal_Pradesh,Naharlagun,"Naharlagun, Naharlagun - APSPCB",29-01-2024 17:00:00,27.103358,93.679645,NO2,2,2,2
India,Assam,Byrnihat,"Central Academy for SFS, Byrnihat - PCBA",29-01-2024 17:00:00,26.071318,91.87488,SO2,10,13,12
India,Assam,Guwahati,"Pan Bazaar, Guwahati - PCBA",29-01-2024 17:00:00,26.187500,91.744194,PM2.5,59,384,258
India,Assam,Guwahati,"Railway Colony, Guwahati - PCBA",29-01-2024 17:00:00,26.181742,91.78063,CO,19,112,38
India,Assam,Nagaon,"Christianpatty, Nagaon - PCBA",29-01-2024 17:00:00,26.349082,92.68449,PM2.5,NA,NA,NA
India,Assam,Silchar,"Tarapur, Silchar - PCBA",29-01-2024 17:00:00,24.82827,92.79525,PM10,NA,NA,NA
India,Assam,Silchar,"Tarapur, Silchar - PCBA",29-01-2024 17:00:00,24.82827,92.79525,NO2,NA,NA,NA
India,Assam,Silchar,"Tarapur, Silchar - PCBA",29-01-2024 17:00:00,24.82827,92.79525,CO,29,36,31
India,Assam,Sivasagar,"Girls College, Sivasagar - PCBA",29-01-2024 17:00:00,26.987634,94.636574,NO2,16,35,23
India,Bihar,Araria,"Kharahiya Basti, Araria - BSPCB",29-01-2024 17:00:00,26.146529,87.454184,PM10,155,500,281
India,Bihar,Araria,"Kharahiya Basti, Araria - BSPCB",29-01-2024 17:00:00,26.146529,87.454184,NO2,6,12,7
India,Bihar,Araria,"Kharahiya Basti, Araria - BSPCB",29-01-2024 17:00:00,26.146529,87.454184,SO2,13,17,16
India,Bihar,Arrah,"New DM Office, Arrah - BSPCB",29-01-2024 17:00:00,25.5626095,84.663264,PM10,139,270,186
India,Bihar,Arrah,"New DM Office, Arrah - BSPCB",29-01-2024 17:00:00,25.5626095,84.663264,NO2,15,51,28
India,Bihar,Arrah,"New DM Office, Arrah - BSPCB",29-01-2024 17:00:00,25.5626095,84.663264,CO,2,16,9
India,Bihar,Aurangabad,"Gurdeo Nagar, Aurangabad - BSPCB",29-01-2024 17:00:00,24.75746,84.366208,PM2.5,163,355,300
India,Bihar,Aurangabad,"Gurdeo Nagar, Aurangabad - BSPCB",29-01-2024 17:00:00,24.75746,84.366208,CO,64,112,77
India,Bihar,Bhagalpur,"DM Office_Kachari Chowk, Bhagalpur - BSPCB",29-01-2024 17:00:00,25.251013,86.989001,PM10,157,436,309
India,Bihar,Bhagalpur,"Mayaganj, Bhagalpur - BSPCB",29-01-2024 17:00:00,25.265194,87.012947,NO2,6,16,9
India,Bihar,Bhagalpur,"Mayaganj, Bhagalpur - BSPCB",29-01-2024 17:00:00,25.265194,87.012947,SO2,8,13,12
India,Bihar,Bhagalpur,"Mayaganj, Bhagalpur - BSPCB",29-01-2024 17:00:00,25.265194,87.012947,CO,6,10,8
India,Bihar,Bihar Sharif,"D M Colony, Bihar Sharif - BSPCB",29-01-2024 17:00:00,25.204762,85.514960,PM2.5,47,375,233
India,Bihar,Chhapra,"Darshan Nagar, Chhapra - BSPCB",29-01-2024 17:00:00,25.7808257,84.7446768,NH3,9,18,14
India,Bihar,Gaya,"Kareemganj, Gaya - BSPCB",29-01-2024 17:00:00,24.792403,84.992416,NH3,1,6,3
India,Bihar,Gaya,"Kareemganj, Gaya - BSPCB",29-01-2024 17:00:00,24.792403,84.992416,CO,4,102,46
India,Bihar,Gaya,"SFTI Kusdihra, Gaya - BSPCB",29-01-2024 17:00:00,24.762518,84.982348,PM10,81,132,113
India,Bihar,Gaya,"SFTI Kusdihra, Gaya - BSPCB",29-01-2024 17:00:00,24.762518,84.982348,NH3,4,5,4
India,Bihar,Gaya,"SFTI Kusdihra, Gaya - BSPCB",29-01-2024 17:00:00,24.762518,84.982348,SO2,6,10,8
India,Bihar,Hajipur,"Industrial Area, Hajipur - BSPCB",29-01-2024 17:00:00,25.697189,85.245900,PM2.5,139,287,211
India,Bihar,Hajipur,"Industrial Area, Hajipur - BSPCB",29-01-2024 17:00:00,25.697189,85.245900,SO2,5,7,6
India,Bihar,Manguraha,"Forest Rest House, Manguraha - BSPCB",29-01-2024 17:00:00,27.308328,84.531742,CO,100,108,105
India,Bihar,Motihari,"Gandak Colony, Motihari - BSPCB",29-01-2024 17:00:00,26.63086,84.90051,NH3,9,16,11
India,Bihar,Munger,"Town Hall, Munger - BSPCB",29-01-2024 17:00:00,25.376776,86.471523,NO2,8,10,9
India,Bihar,Muzaffarpur,"Buddha Colony, Muzaffarpur - BSPCB",29-01-2024 17:00:00,26.11442,85.39813,PM10,171,500,336
India,Bihar,Muzaffarpur,"Buddha Colony, Muzaffarpur - BSPCB",29-01-2024 17:00:00,26.11442,85.39813,OZONE,66,187,132
India,Bihar,Muzaffarpur,"MIT-Daudpur Kothi, Muzaffarpur - BSPCB",29-01-2024 17:00:00,26.1403345,85.3650192,NH3,3,6,4
India,Bihar,Muzaffarpur,"MIT-Daudpur Kothi, Muzaffarpur - BSPCB",29-01-2024 17:00:00,26.1403345,85.3650192,OZONE,6,87,36
India,Bihar,Patna,"DRM Office Danapur, Patna - BSPCB",29-01-2024 17:00:00,25.586562,85.043586,PM10,209,324,253
India,Bihar,Patna,"DRM Office Danapur, Patna - BSPCB",29-01-2024 17:00:00,25.586562,85.043586,NH3,4,5,4
India,Bihar,Patna,"DRM Office Danapur, Patna - BSPCB",29-01-2024 17:00:00,25.586562,85.043586,SO2,6,9,8
India,Bihar,Patna,"Muradpur, Patna - BSPCB",29-01-2024 17:00:00,25.619651,85.147382,PM10,339,486,408
India,Bihar,Patna,"Muradpur, Patna - BSPCB",29-01-2024 17:00:00,25.619651,85.147382,NO2,8,17,13
India,Bihar,Patna,"Rajbansi Nagar, Patna - BSPCB",29-01-2024 17:00:00,25.599486,85.113666,PM10,262,411,357
India,Bihar,Patna,"Samanpura, Patna - BSPCB",29-01-2024 17:00:00,25.596727,85.085624,NO2,14,16,15
India,Bihar,Purnia,"Mariam Nagar, Purnia - BSPCB",29-01-2024 17:00:00,25.366336,87.117468,PM10,NA,NA,NA
India,Bihar,Rajgir,"Dangi Tola, Rajgir - BSPCB",29-01-2024 17:00:00,25.03280,85.41948,NO2,1,1,1
India,Bihar,Rajgir,"Dangi Tola, Rajgir - BSPCB",29-01-2024 17:00:00,25.03280,85.41948,NH3,1,1,1
India,Bihar,Rajgir,"Dangi Tola, Rajgir - BSPCB",29-01-2024 17:00:00,25.03280,85.41948,SO2,4,4,4
India,Bihar,Saharsa,"Police Line, Saharsa - BSPCB",29-01-2024 17:00:00,25.892357,86.590325,PM2.5,305,475,366
India,Bihar,Saharsa,"Police Line, Saharsa - BSPCB",29-01-2024 17:00:00,25.892357,86.590325,PM10,141,338,196
India,Bihar,Samastipur,"DM Office_Kasipur, Samastipur - BSPCB",29-01-2024 17:00:00,25.859655,85.77944,SO2,NA,NA,NA
India,Bihar,Samastipur,"DM Office_Kasipur, Samastipur - BSPCB",29-01-2024 17:00:00,25.859655,85.77944,CO,8,31,15
India,Bihar,Sasaram,"Dada Peer, Sasaram - BSPCB",29-01-2024 17:00:00,24.952822,84.002396,PM10,115,202,166
India,Bihar,Siwan,"Chitragupta Nagar, Siwan - BSPCB",29-01-2024 17:00:00,26.2271665,84.3570427,PM2.5,78,317,141
India,Bihar,Siwan,"Chitragupta Nagar, Siwan - BSPCB",29-01-2024 17:00:00,26.2271665,84.3570427,PM10,73,181,106
India,Bihar,Siwan,"Chitragupta Nagar, Siwan - BSPCB",29-01-2024 17:00:00,26.2271665,84.3570427,NO2,16,63,25
India,Chandigarh,Chandigarh,"Sector 22, Chandigarh - CPCC",29-01-2024 17:00:00,30.735567,76.775714,OZONE,2,188,176
India,Chandigarh,Chandigarh,"Sector-25, Chandigarh - CPCC",29-01-2024 17:00:00,30.751462,76.762879,NO2,1,64,23
India,Chhattisgarh,Bhilai,"Hathkhoj, Bhilai - CECB",29-01-2024 17:00:00,21.224231,81.408350,SO2,6,119,37
India,Chhattisgarh,Bilaspur,"Mangala, Bilaspur - NTPC",29-01-2024 17:00:00,22.08815,82.13737,NO2,16,17,16
India,Chhattisgarh,Chhal,"Nawapara SECL Colony, Chhal - CECB",29-01-2024 17:00:00,22.118125,83.140608,SO2,3,64,24
India,Chhattisgarh,Kunjemura,"OP Jindal School, Kunjemura - CECB",29-01-2024 17:00:00,22.126650,83.483212,PM2.5,51,375,114
India,Chhattisgarh,Kunjemura,"OP Jindal School, Kunjemura - CECB",29-01-2024 17:00:00,22.126650,83.483212,OZONE,3,68,33
India,Chhattisgarh,Milupara,"Govt. Higher Secondary School, Milupara - CECB",29-01-2024 17:00:00,22.1910172,83.5197009,PM2.5,38,105,63
India,Chhattisgarh,Milupara,"Govt. Higher Secondary School, Milupara - CECB",29-01-2024 17:00:00,22.1910172,83.5197009,NO2,18,95,42
India,Chhattisgarh,Milupara,"Govt. Higher Secondary School, Milupara - CECB",29-01-2024 17:00:00,22.1910172,83.5197009,NH3,1,2,2
India,Chhattisgarh,Raipur,"AIIMS, Raipur - CECB",29-01-2024 17:00:00,21.258815,81.578979,PM2.5,NA,NA,NA
India,Chhattisgarh,Raipur,"AIIMS, Raipur - CECB",29-01-2024 17:00:00,21.258815,81.578979,PM10,NA,NA,NA
India,Chhattisgarh,Raipur,"AIIMS, Raipur - CECB",29-01-2024 17:00:00,21.258815,81.578979,SO2,NA,NA,NA
India,Chhattisgarh,Raipur,"AIIMS, Raipur - CECB",29-01-2024 17:00:00,21.258815,81.578979,CO,42,46,43
India,Chhattisgarh,Raipur,"Bhatagaon New ISBT, Raipur - CECB",29-01-2024 17:00:00,21.219665,81.630094,PM10,51,159,103
India,Chhattisgarh,Raipur,"Bhatagaon New ISBT, Raipur - CECB",29-01-2024 17:00:00,21.219665,81.630094,NO2,58,97,74
India,Chhattisgarh,Raipur,"Bhatagaon New ISBT, Raipur - CECB",29-01-2024 17:00:00,21.219665,81.630094,SO2,NA,NA,NA
India,Chhattisgarh,Raipur,"Bhatagaon New ISBT, Raipur - CECB",29-01-2024 17:00:00,21.219665,81.630094,OZONE,3,10,5
India,Chhattisgarh,Raipur,"Krishak Nagar, Raipur - CECB",29-01-2024 17:00:00,21.237755,81.705301,NH3,1,1,1
India,Chhattisgarh,Raipur,"Siltara Phase-II, Raipur - CECB",29-01-2024 17:00:00,21.371751,81.664929,CO,20,67,58
India,Chhattisgarh,Tumidih,"OP Jindal Industrial Park, Tumidih - CECB",29-01-2024 17:00:00,22.06631475,83.33820077,PM10,44,438,150
India,Chhattisgarh,Tumidih,"OP Jindal Industrial Park, Tumidih - CECB",29-01-2024 17:00:00,22.06631475,83.33820077,NO2,19,48,29
India,Delhi,Delhi,"Alipur, Delhi - DPCC",29-01-2024 17:00:00,28.815329,77.153010,SO2,7,14,9
India,Delhi,Delhi,"Alipur, Delhi - DPCC",29-01-2024 17:00:00,28.815329,77.153010,OZONE,4,141,56
India,Delhi,Delhi,"Ashok Vihar, Delhi - DPCC",29-01-2024 17:00:00,28.695381,77.181665,NO2,44,107,73
India,Delhi,Delhi,"Bawana, Delhi - DPCC",29-01-2024 17:00:00,28.776200,77.051074,OZONE,3,82,34
India,Delhi,Delhi,"CRRI Mathura Road, Delhi - IMD",29-01-2024 17:00:00,28.5512005,77.2735737,OZONE,3,41,13
India,Delhi,Delhi,"DTU, Delhi - CPCB",29-01-2024 17:00:00,28.7500499,77.1112615,PM2.5,154,351,270
India,Delhi,Delhi,"DTU, Delhi - CPCB",29-01-2024 17:00:00,28.7500499,77.1112615,PM10,245,500,384
India,Delhi,Delhi,"DTU, Delhi - CPCB",29-01-2024 17:00:00,28.7500499,77.1112615,CO,50,86,62
India,Delhi,Delhi,"DTU, Delhi - CPCB",29-01-2024 17:00:00,28.7500499,77.1112615,OZONE,26,30,28
India,Delhi,Delhi,"Dr. Karni Singh Shooting Range, Delhi - DPCC",29-01-2024 17:00:00,28.498571,77.264840,NH3,10,16,13
India,Delhi,Delhi,"Dr. Karni Singh Shooting Range, Delhi - DPCC",29-01-2024 17:00:00,28.498571,77.264840,SO2,4,11,7
India,Delhi,Delhi,"Dwarka-Sector 8, Delhi - DPCC ",29-01-2024 17:00:00,28.5710274,77.0719006,PM2.5,334,440,371
India,Delhi,Delhi,"IGI Airport (T3), Delhi - IMD",29-01-2024 17:00:00,28.5627763,77.1180053,PM2.5,283,386,331
India,Delhi,Delhi,"IHBAS, Dilshad Garden, Delhi - CPCB",29-01-2024 17:00:00,28.6811736,77.3025234,PM10,167,242,190
India,Delhi,Delhi,"ITO, Delhi - CPCB",29-01-2024 17:00:00,28.628624,77.241060,PM10,124,226,164
India,Delhi,Delhi,"ITO, Delhi - CPCB",29-01-2024 17:00:00,28.628624,77.241060,NO2,19,110,57
India,Delhi,Delhi,"ITO, Delhi - CPCB",29-01-2024 17:00:00,28.628624,77.241060,OZONE,26,51,35
India,Delhi,Delhi,"Jahangirpuri, Delhi - DPCC",29-01-2024 17:00:00,28.732820,77.170633,PM2.5,355,447,397
India,Delhi,Delhi,"Jahangirpuri, Delhi - DPCC",29-01-2024 17:00:00,28.732820,77.170633,SO2,16,25,20
India,Delhi,Delhi,"Jahangirpuri, Delhi - DPCC",29-01-2024 17:00:00,28.732820,77.170633,CO,65,114,91
India,Delhi,Delhi,"Jahangirpuri, Delhi - DPCC",29-01-2024 17:00:00,28.732820,77.170633,OZONE,4,151,151
India,Delhi,Delhi,"Jawaharlal Nehru Stadium, Delhi - DPCC",29-01-2024 17:00:00,28.580280,77.233829,PM10,191,328,257
India,Delhi,Delhi,"Jawaharlal Nehru Stadium, Delhi - DPCC",29-01-2024 17:00:00,28.580280,77.233829,NH3,18,23,20
India,Delhi,Delhi,"Lodhi Road, Delhi - IITM",29-01-2024 17:00:00,28.588333,77.221667,NO2,78,89,85
India,Delhi,Delhi,"Lodhi Road, Delhi - IITM",29-01-2024 17:00:00,28.588333,77.221667,CO,66,69,67
India,Delhi,Delhi,"Major Dhyan Chand National Stadium, Delhi - DPCC",29-01-2024 17:00:00,28.611281,77.237738,SO2,1,15,5
India,Delhi,Delhi,"Major Dhyan Chand National Stadium, Delhi - DPCC",29-01-2024 17:00:00,28.611281,77.237738,OZONE,2,3,3
India,Delhi,Delhi,"Mandir Marg, Delhi - DPCC",29-01-2024 17:00:00,28.636429,77.201067,PM10,187,401,253
India,Delhi,Delhi,"Mundka, Delhi - DPCC",29-01-2024 17:00:00,28.684678,77.076574,SO2,2,13,6
India,Delhi,Delhi,"NSIT Dwarka, Delhi - CPCB",29-01-2024 17:00:00,28.60909,77.0325413,PM2.5,286,372,333
India,Delhi,Delhi,"Najafgarh, Delhi - DPCC",29-01-2024 17:00:00,28.570173,76.933762,NO2,9,35,17
India,Delhi,Delhi,"Najafgarh, Delhi - DPCC",29-01-2024 17:00:00,28.570173,76.933762,NH3,3,32,7
India,Delhi,Delhi,"Najafgarh, Delhi - DPCC",29-01-2024 17:00:00,28.570173,76.933762,CO,16,110,31
India,Delhi,Delhi,"Narela, Delhi - DPCC",29-01-2024 17:00:00,28.822836,77.101981,NH3,6,14,9
India,Delhi,Delhi,"Narela, Delhi - DPCC",29-01-2024 17:00:00,28.822836,77.101981,CO,64,105,97
India,Delhi,Delhi,"Nehru Nagar, Delhi - DPCC",29-01-2024 17:00:00,28.567890,77.250515,PM10,214,392,292
India,Delhi,Delhi,"North Campus, DU, Delhi - IMD",29-01-2024 17:00:00,28.6573814,77.1585447,PM10,NA,NA,NA
India,Delhi,Delhi,"North Campus, DU, Delhi - IMD",29-01-2024 17:00:00,28.6573814,77.1585447,NO2,NA,NA,NA
India,Delhi,Delhi,"Okhla Phase-2, Delhi - DPCC",29-01-2024 17:00:00,28.530785,77.271255,OZONE,9,80,39
India,Delhi,Delhi,"Patparganj, Delhi - DPCC",29-01-2024 17:00:00,28.623763,77.287209,OZONE,1,11,5
India,Delhi,Delhi,"Punjabi Bagh, Delhi - DPCC",29-01-2024 17:00:00,28.674045,77.131023,PM10,196,426,298
India,Delhi,Delhi,"Punjabi Bagh, Delhi - DPCC",29-01-2024 17:00:00,28.674045,77.131023,CO,54,65,58
India,Delhi,Delhi,"Pusa, Delhi - DPCC",29-01-2024 17:00:00,28.639652,77.146275,SO2,8,17,10
India,Delhi,Delhi,"Pusa, Delhi - DPCC",29-01-2024 17:00:00,28.639652,77.146275,OZONE,16,70,37
India,Delhi,Delhi,"Pusa, Delhi - IMD",29-01-2024 17:00:00,28.636110,77.173332,NO2,30,72,48
India,Delhi,Delhi,"R K Puram, Delhi - DPCC",29-01-2024 17:00:00,28.563262,77.186937,PM2.5,339,415,375
India,Delhi,Delhi,"R K Puram, Delhi - DPCC",29-01-2024 17:00:00,28.563262,77.186937,PM10,208,438,288
India,Delhi,Delhi,"R K Puram, Delhi - DPCC",29-01-2024 17:00:00,28.563262,77.186937,NO2,27,110,50
India,Delhi,Delhi,"Rohini, Delhi - DPCC",29-01-2024 17:00:00,28.732528,77.119920,PM2.5,345,447,408
India,Delhi,Delhi,"Rohini, Delhi - DPCC",29-01-2024 17:00:00,28.732528,77.119920,CO,58,108,83
India,Delhi,Delhi,"Shadipur, Delhi - CPCB",29-01-2024 17:00:00,28.6514781,77.1473105,CO,42,110,59
India,Delhi,Delhi,"Sirifort, Delhi - CPCB",29-01-2024 17:00:00,28.5504249,77.2159377,PM10,215,403,296
India,Delhi,Delhi,"Sirifort, Delhi - CPCB",29-01-2024 17:00:00,28.5504249,77.2159377,NO2,102,168,143
India,Delhi,Delhi,"Sirifort, Delhi - CPCB",29-01-2024 17:00:00,28.5504249,77.2159377,NH3,9,12,10
India,Delhi,Delhi,"Sonia Vihar, Delhi - DPCC",29-01-2024 17:00:00,28.710508,77.249485,NH3,9,12,10
India,Delhi,Delhi,"Sonia Vihar, Delhi - DPCC",29-01-2024 17:00:00,28.710508,77.249485,OZONE,4,94,39
India,Delhi,Delhi,"Sri Aurobindo Marg, Delhi - DPCC",29-01-2024 17:00:00,28.531346,77.190156,PM2.5,306,429,362
India,Delhi,Delhi,"Sri Aurobindo Marg, Delhi - DPCC",29-01-2024 17:00:00,28.531346,77.190156,NH3,10,14,12
India,Delhi,Delhi,"Vivek Vihar, Delhi - DPCC",29-01-2024 17:00:00,28.672342,77.315260,PM10,190,433,286
India,Gujarat,Ahmedabad,"Chandkheda, Ahmedabad - IITM",29-01-2024 17:00:00,23.107969,72.574648,PM10,62,271,117
India,Gujarat,Ahmedabad,"Chandkheda, Ahmedabad - IITM",29-01-2024 17:00:00,23.107969,72.574648,CO,2,123,29
India,Gujarat,Ahmedabad,"Gyaspur, Ahmedabad - IITM",29-01-2024 17:00:00,22.977134,72.553024,SO2,21,26,22
India,Gujarat,Ahmedabad,"Gyaspur, Ahmedabad - IITM",29-01-2024 17:00:00,22.977134,72.553024,CO,2,18,5
India,Gujarat,Ahmedabad,"Maninagar, Ahmedabad - GPCB",29-01-2024 17:00:00,23.002657,72.591912,PM2.5,50,301,148
India,Gujarat,Ahmedabad,"Maninagar, Ahmedabad - GPCB",29-01-2024 17:00:00,23.002657,72.591912,PM10,68,301,166
India,Gujarat,Ahmedabad,"Rakhial, Ahmedabad - IITM",29-01-2024 17:00:00,23.016834,72.625775,PM2.5,59,347,163
India,Gujarat,Ahmedabad,"Rakhial, Ahmedabad - IITM",29-01-2024 17:00:00,23.016834,72.625775,PM10,70,307,143
India,Gujarat,Ahmedabad,"Rakhial, Ahmedabad - IITM",29-01-2024 17:00:00,23.016834,72.625775,SO2,4,28,8
India,Gujarat,Ahmedabad,"Rakhial, Ahmedabad - IITM",29-01-2024 17:00:00,23.016834,72.625775,OZONE,1,56,26
India,Gujarat,Ahmedabad,"SAC ISRO Bopal, Ahmedabad - IITM",29-01-2024 17:00:00,23.041137,72.456691,PM2.5,53,311,158
India,Gujarat,Ahmedabad,"SAC ISRO Bopal, Ahmedabad - IITM",29-01-2024 17:00:00,23.041137,72.456691,OZONE,9,13,12
India,Gujarat,Ahmedabad,"SAC ISRO Satellite, Ahmedabad - IITM",29-01-2024 17:00:00,23.023389,72.515201,SO2,16,29,20
India,Gujarat,Ahmedabad,"SVPI Airport Hansol, Ahmedabad - IITM",29-01-2024 17:00:00,23.076793,72.627874,SO2,22,26,24
India,Gujarat,Ahmedabad,"SVPI Airport Hansol, Ahmedabad - IITM",29-01-2024 17:00:00,23.076793,72.627874,CO,19,136,34
India,Gujarat,Ahmedabad,"SVPI Airport Hansol, Ahmedabad - IITM",29-01-2024 17:00:00,23.076793,72.627874,OZONE,4,25,17
India,Gujarat,Ahmedabad,"Sardar Vallabhbhai Patel Stadium, Ahmedabad - IITM",29-01-2024 17:00:00,23.043070,72.562968,PM10,89,164,120
India,Gujarat,Ankleshwar,"GIDC, Ankleshwar - GPCB",29-01-2024 17:00:00,21.613267,73.010555,NO2,33,34,34
India,Gujarat,Gandhinagar,"GIFT City, Gandhinagar - IITM",29-01-2024 17:00:00,23.163798,72.677768,PM10,74,208,133
India,Gujarat,Gandhinagar,"GIFT City, Gandhinagar - IITM",29-01-2024 17:00:00,23.163798,72.677768,NO2,8,11,10
India,Gujarat,Gandhinagar,"IIPHG Lekawada, Gandhinagar - IITM",29-01-2024 17:00:00,23.243639,72.68994,PM2.5,81,404,233
India,Gujarat,Gandhinagar,"IIPHG Lekawada, Gandhinagar - IITM",29-01-2024 17:00:00,23.243639,72.68994,NO2,13,15,14
India,Gujarat,Gandhinagar,"Sector-10, Gandhinagar - GPCB",29-01-2024 17:00:00,23.221714,72.654328,PM2.5,25,86,56
India,Gujarat,Surat,"Science Center, Surat - SMC",29-01-2024 17:00:00,21.170046,72.795405,PM2.5,22,77,50
India,Gujarat,Surat,"Science Center, Surat - SMC",29-01-2024 17:00:00,21.170046,72.795405,PM10,22,116,74
India,Haryana,Ambala,"Patti Mehar, Ambala - HSPCB",29-01-2024 17:00:00,30.379589,76.778328,NH3,5,12,8
India,Haryana,Bahadurgarh,"Arya Nagar, Bahadurgarh - HSPCB",29-01-2024 17:00:00,28.6701,76.9254,PM2.5,235,344,305
India,Haryana,Bahadurgarh,"Arya Nagar, Bahadurgarh - HSPCB",29-01-2024 17:00:00,28.6701,76.9254,SO2,9,14,11
India,Haryana,Bahadurgarh,"Arya Nagar, Bahadurgarh - HSPCB",29-01-2024 17:00:00,28.6701,76.9254,OZONE,39,48,44
India,Haryana,Bhiwani,"H.B. Colony, Bhiwani - HSPCB",29-01-2024 17:00:00,28.806223,76.141105,CO,48,92,72
India,Haryana,Bhiwani,"H.B. Colony, Bhiwani - HSPCB",29-01-2024 17:00:00,28.806223,76.141105,OZONE,7,15,11
India,Haryana,Charkhi Dadri,"Mini Secretariat, Charkhi Dadri - HSPCB",29-01-2024 17:00:00,28.593883,76.270653,OZONE,13,17,15
India,Haryana,Dharuhera,"Municipal Corporation Office, Dharuhera -  HSPCB",29-01-2024 17:00:00,28.206800,76.799700,NH3,9,27,20
India,Haryana,Dharuhera,"Municipal Corporation Office, Dharuhera -  HSPCB",29-01-2024 17:00:00,28.206800,76.799700,CO,57,83,62
India,Haryana,Faridabad,"New Industrial Town, Faridabad - HSPCB",29-01-2024 17:00:00,28.39072,77.30059,CO,28,44,36
India,Haryana,Faridabad,"Sector 11, Faridabad - HSPCB",29-01-2024 17:00:00,28.376058,77.315741,PM10,77,411,130
India,Haryana,Faridabad,"Sector 11, Faridabad - HSPCB",29-01-2024 17:00:00,28.376058,77.315741,NO2,30,33,31
India,Haryana,Faridabad,"Sector 30, Faridabad - HSPCB",29-01-2024 17:00:00,28.4417,77.3217,PM10,NA,NA,NA
India,Haryana,Fatehabad,"Huda Sector, Fatehabad - HSPCB",29-01-2024 17:00:00,29.503664,75.467934,PM10,128,177,154
India,Haryana,Gurugram,"Sector-51, Gurugram - HSPCB",29-01-2024 17:00:00,28.4227,77.0667,PM10,168,278,200
India,Haryana,Gurugram,"Sector-51, Gurugram - HSPCB",29-01-2024 17:00:00,28.4227,77.0667,NO2,13,29,23
India,Haryana,Gurugram,"Sector-51, Gurugram - HSPCB",29-01-2024 17:00:00,28.4227,77.0667,SO2,3,4,3
India,Haryana,Gurugram,"Sector-51, Gurugram - HSPCB",29-01-2024 17:00:00,28.4227,77.0667,CO,67,88,75
India,Haryana,Gurugram,"Teri Gram, Gurugram - HSPCB",29-01-2024 17:00:00,28.4275,77.1465,PM2.5,1,367,175
India,Haryana,Gurugram,"Teri Gram, Gurugram - HSPCB",29-01-2024 17:00:00,28.4275,77.1465,NO2,26,49,34
India,Haryana,Gurugram,"Teri Gram, Gurugram - HSPCB",29-01-2024 17:00:00,28.4275,77.1465,NH3,26,36,31
India,Haryana,Gurugram,"Vikas Sadan, Gurugram - HSPCB",29-01-2024 17:00:00,28.4501238,77.0263051,PM2.5,86,304,192
India,Haryana,Hisar,"Urban Estate-II, Hisar - HSPCB",29-01-2024 17:00:00,29.140560,75.744941,PM10,130,168,152
India,Haryana,Jind,"Police Lines, Jind - HSPCB",29-01-2024 17:00:00,29.307814,76.337619,PM2.5,209,315,272
India,Haryana,Kaithal,"Rishi Nagar, Kaithal - HSPCB",29-01-2024 17:00:00,29.8006,76.4155,NH3,8,9,8
India,Haryana,Kaithal,"Rishi Nagar, Kaithal - HSPCB",29-01-2024 17:00:00,29.8006,76.4155,CO,1,96,19
India,Haryana,Kaithal,"Rishi Nagar, Kaithal - HSPCB",29-01-2024 17:00:00,29.8006,76.4155,OZONE,3,21,12
India,Haryana,Karnal,"Sector-12, Karnal - HSPCB",29-01-2024 17:00:00,29.695300,77.002700,PM2.5,98,98,98
India,Haryana,Karnal,"Sector-12, Karnal - HSPCB",29-01-2024 17:00:00,29.695300,77.002700,CO,36,76,60
India,Haryana,Karnal,"Sector-12, Karnal - HSPCB",29-01-2024 17:00:00,29.695300,77.002700,OZONE,30,32,31
India,Haryana,Kurukshetra,"Sector-7, Kurukshetra - HSPCB",29-01-2024 17:00:00,29.966942,76.875879,PM10,106,132,116
India,Haryana,Kurukshetra,"Sector-7, Kurukshetra - HSPCB",29-01-2024 17:00:00,29.966942,76.875879,NH3,5,5,5
India,Haryana,Mandikhera,"General Hospital, Mandikhera - HSPCB",29-01-2024 17:00:00,27.9002,76.9938,PM2.5,13,48,21
India,Haryana,Manesar,"Sector-2 IMT, Manesar - HSPCB",29-01-2024 17:00:00,28.360699,76.936090,CO,39,48,42
India,Haryana,Narnaul,"Shastri Nagar, Narnaul - HSPCB",29-01-2024 17:00:00,28.060249,76.113115,PM2.5,46,201,114
India,Haryana,Palwal,"Shyam Nagar, Palwal - HSPCB",29-01-2024 17:00:00,28.1485564,77.3320667,PM10,102,135,115
India,Haryana,Panipat,"Sector-18, Panipat - HSPCB",29-01-2024 17:00:00,29.497973,76.993331,PM10,104,148,125
India,Haryana,Panipat,"Sector-18, Panipat - HSPCB",29-01-2024 17:00:00,29.497973,76.993331,CO,23,52,25
India,Haryana,Panipat,"Sector-18, Panipat - HSPCB",29-01-2024 17:00:00,29.497973,76.993331,OZONE,30,62,32
India,Haryana,Sirsa,"F-Block, Sirsa - HSPCB",29-01-2024 17:00:00,29.536400,75.015800,SO2,28,40,35
India,Haryana,Sirsa,"F-Block, Sirsa - HSPCB",29-01-2024 17:00:00,29.536400,75.015800,OZONE,18,37,25
India,Himachal Pradesh,Baddi,"HIMUDA Complex Phase-1, Baddi - HPPCB",29-01-2024 17:00:00,30.943887,76.801991,OZONE,9,116,67
India,Jharkhand,Dhanbad,"Sardar Patel Nagar, Dhanbad - JSPCB",29-01-2024 17:00:00,23.80569,86.44268,NO2,2,154,46
India,Jharkhand,Dhanbad,"Sardar Patel Nagar, Dhanbad - JSPCB",29-01-2024 17:00:00,23.80569,86.44268,OZONE,10,28,19
India,Karnataka,Bagalkot,"Vidayagiri, Bagalkot - KSPCB",29-01-2024 17:00:00,16.172806,75.659694,PM10,46,47,46
India,Karnataka,Belgaum,"Ramteerth Nagar, Belgaum - KSPCB",29-01-2024 17:00:00,15.888653,74.541751,PM2.5,33,86,57
India,Karnataka,Bengaluru,"BTM Layout, Bengaluru - CPCB",29-01-2024 17:00:00,12.9135218,77.5950804,PM2.5,7,18,11
India,Karnataka,Bengaluru,"BTM Layout, Bengaluru - CPCB",29-01-2024 17:00:00,12.9135218,77.5950804,CO,64,110,79
India,Karnataka,Bengaluru,"Bapuji Nagar, Bengaluru - KSPCB",29-01-2024 17:00:00,12.951913,77.539784,PM10,54,180,92
India,Karnataka,Bengaluru,"Bapuji Nagar, Bengaluru - KSPCB",29-01-2024 17:00:00,12.951913,77.539784,NO2,9,12,11
India,Karnataka,Bengaluru,"City Railway Station, Bengaluru - KSPCB",29-01-2024 17:00:00,12.9756843,77.5660749,NO2,NA,NA,NA
India,Karnataka,Bengaluru,"City Railway Station, Bengaluru - KSPCB",29-01-2024 17:00:00,12.9756843,77.5660749,SO2,NA,NA,NA
India,Karnataka,Bengaluru,"Hebbal, Bengaluru - KSPCB",29-01-2024 17:00:00,13.029152,77.585901,PM2.5,NA,NA,NA
India,Karnataka,Bengaluru,"Jayanagar 5th Block, Bengaluru - KSPCB",29-01-2024 17:00:00,12.920984,77.584908,PM2.5,63,100,79
India,Karnataka,Bengaluru,"Jigani, Bengaluru - KSPCB",29-01-2024 17:00:00,12.7816279,77.6299145,PM2.5,20,92,50
India,Karnataka,Bengaluru,"Jigani, Bengaluru - KSPCB",29-01-2024 17:00:00,12.7816279,77.6299145,OZONE,15,69,58
India,Karnataka,Bengaluru,"Kasturi Nagar, Bengaluru - KSPCB",29-01-2024 17:00:00,13.003872,77.664217,PM10,69,118,102
India,Karnataka,Bengaluru,"Kasturi Nagar, Bengaluru - KSPCB",29-01-2024 17:00:00,13.003872,77.664217,NH3,3,4,4
India,Karnataka,Bengaluru,"Kasturi Nagar, Bengaluru - KSPCB",29-01-2024 17:00:00,13.003872,77.664217,SO2,10,10,10
India,Karnataka,Bengaluru,"Kasturi Nagar, Bengaluru - KSPCB",29-01-2024 17:00:00,13.003872,77.664217,OZONE,41,100,82
India,Karnataka,Bengaluru,"Peenya, Bengaluru - CPCB",29-01-2024 17:00:00,13.0270199,77.494094,NO2,4,43,24
India,Karnataka,Bengaluru,"Peenya, Bengaluru - CPCB",29-01-2024 17:00:00,13.0270199,77.494094,NH3,4,17,6
India,Karnataka,Bengaluru,"Peenya, Bengaluru - CPCB",29-01-2024 17:00:00,13.0270199,77.494094,SO2,9,23,16
India,Karnataka,Bengaluru,"Peenya, Bengaluru - CPCB",29-01-2024 17:00:00,13.0270199,77.494094,OZONE,38,43,39
India,Karnataka,Bengaluru,"RVCE-Mailasandra, Bengaluru - KSPCB",29-01-2024 17:00:00,12.921418,77.502466,PM10,86,117,107
India,Karnataka,Bengaluru,"RVCE-Mailasandra, Bengaluru - KSPCB",29-01-2024 17:00:00,12.921418,77.502466,SO2,4,5,4
India,Karnataka,Bengaluru,"Silk Board, Bengaluru - KSPCB",29-01-2024 17:00:00,12.917348,77.622813,NO2,20,27,22
India,Karnataka,Bengaluru,"Silk Board, Bengaluru - KSPCB",29-01-2024 17:00:00,12.917348,77.622813,SO2,4,8,6
India,Karnataka,Chamarajanagar,"Urban, Chamarajanagar - KSPCB",29-01-2024 17:00:00,11.55358,76.55521,PM10,35,57,45
India,Karnataka,Chikkaballapur,"Chikkaballapur Rural, Chikkaballapur - KSPCB",29-01-2024 17:00:00,13.428828,77.731418,OZONE,24,25,24
India,Karnataka,Davanagere,"Devaraj Urs Badavane, Davanagere - KSPCB",29-01-2024 17:00:00,14.475800,75.905200,PM10,39,169,64
India,Karnataka,Davanagere,"Devaraj Urs Badavane, Davanagere - KSPCB",29-01-2024 17:00:00,14.475800,75.905200,OZONE,18,26,24
India,Karnataka,Dharwad,"Kalabhavan, Dharwad - KSPCB",29-01-2024 17:00:00,15.459706,75.008381,NO2,4,37,20
India,Karnataka,Dharwad,"Kalabhavan, Dharwad - KSPCB",29-01-2024 17:00:00,15.459706,75.008381,SO2,4,10,6
India,Karnataka,Dharwad,"Kalabhavan, Dharwad - KSPCB",29-01-2024 17:00:00,15.459706,75.008381,OZONE,2,46,34
India,Karnataka,Hassan,"B.Katihalli, Hassan - KSPCB",29-01-2024 17:00:00,13.008556,76.125258,PM2.5,NA,NA,NA
India,Karnataka,Haveri,"Ashwini Nagar, Haveri - KSPCB",29-01-2024 17:00:00,14.791800,75.389600,OZONE,18,20,19
India,Karnataka,Hubballi,"Deshpande Nagar, Hubballi - KSPCB",29-01-2024 17:00:00,15.351773,75.140726,PM2.5,44,93,67
India,Karnataka,Hubballi,"Deshpande Nagar, Hubballi - KSPCB",29-01-2024 17:00:00,15.351773,75.140726,NH3,6,7,7
India,Karnataka,Hubballi,"Deshpande Nagar, Hubballi - KSPCB",29-01-2024 17:00:00,15.351773,75.140726,OZONE,9,51,39
India,Karnataka,Kalaburagi,"Lal Bahadur Shastri Nagar, Kalaburagi - KSPCB",29-01-2024 17:00:00,17.321993,76.822628,SO2,18,19,19
India,Karnataka,Kalaburagi,"Lal Bahadur Shastri Nagar, Kalaburagi - KSPCB",29-01-2024 17:00:00,17.321993,76.822628,OZONE,13,80,70
India,Karnataka,Kalaburagi,"Mahatma Basaveswar Colony, Kalaburgi - KSPCB",29-01-2024 17:00:00,17.336318,76.847397,PM10,35,88,55
India,Karnataka,Karwar,"KHB Colony, Karwar - KSPCB",29-01-2024 17:00:00,14.816666,74.141003,CO,1,115,2
India,Karnataka,Koppal,"Diwator Nagar, Koppal - KSPCB",29-01-2024 17:00:00,15.347630,76.181767,NO2,2,35,10
India,Karnataka,Koppal,"Diwator Nagar, Koppal - KSPCB",29-01-2024 17:00:00,15.347630,76.181767,NH3,4,6,5
India,Karnataka,Koppal,"Diwator Nagar, Koppal - KSPCB",29-01-2024 17:00:00,15.347630,76.181767,CO,84,119,103
India,Karnataka,Madikeri,"Stuart Hill, Madikeri - KSPCB",29-01-2024 17:00:00,12.415911,75.735050,PM2.5,22,40,32
India,Karnataka,Madikeri,"Stuart Hill, Madikeri - KSPCB",29-01-2024 17:00:00,12.415911,75.735050,PM10,26,39,32
India,Karnataka,Mangalore,"Kadri, Mangalore - KSPCB",29-01-2024 17:00:00,12.889250,74.853000,PM10,53,112,76
India,Karnataka,Mangalore,"Kadri, Mangalore - KSPCB",29-01-2024 17:00:00,12.889250,74.853000,OZONE,31,31,31
India,Karnataka,Mysuru,"Hebbal 1st Stage, Mysuru - KSPCB",29-01-2024 17:00:00,12.21041,76.37376,PM10,35,62,56
India,Karnataka,Mysuru,"Hebbal 1st Stage, Mysuru - KSPCB",29-01-2024 17:00:00,12.21041,76.37376,OZONE,3,103,56
India,Karnataka,Ramanagara,"Vijay Nagar, Ramanagara - KSPCB",29-01-2024 17:00:00,12.733409,77.298051,PM10,NA,NA,NA
India,Karnataka,Ramanagara,"Vijay Nagar, Ramanagara - KSPCB",29-01-2024 17:00:00,12.733409,77.298051,SO2,NA,NA,NA
India,Karnataka,Shivamogga,"Vinoba Nagara, Shivamogga - KSPCB",29-01-2024 17:00:00,13.940000,75.555917,PM10,54,75,61
India,Karnataka,Shivamogga,"Vinoba Nagara, Shivamogga - KSPCB",29-01-2024 17:00:00,13.940000,75.555917,NH3,2,5,3
India,Karnataka,Shivamogga,"Vinoba Nagara, Shivamogga - KSPCB",29-01-2024 17:00:00,13.940000,75.555917,CO,16,56,24
India,Karnataka,Udupi,"Brahmagiri, Udupi - KSPCB",29-01-2024 17:00:00,13.34194444,74.74694444,PM10,NA,NA,NA
India,Karnataka,Udupi,"Brahmagiri, Udupi - KSPCB",29-01-2024 17:00:00,13.34194444,74.74694444,NO2,NA,NA,NA
India,Karnataka,Udupi,"Brahmagiri, Udupi - KSPCB",29-01-2024 17:00:00,13.34194444,74.74694444,OZONE,23,23,23
India,Karnataka,Vijayapura,"Ibrahimpur, Vijayapura - KSPCB",29-01-2024 17:00:00,16.802639,75.722694,SO2,2,5,3
India,Karnataka,Yadgir,"Collector Office, Yadgir - KSPCB",29-01-2024 17:00:00,16.7602,77.1428,NH3,1,1,1
India,Karnataka,Yadgir,"Collector Office, Yadgir - KSPCB",29-01-2024 17:00:00,16.7602,77.1428,OZONE,18,19,19
India,Kerala,Eloor,"Udyogamandal, Eloor - Kerala PCB",29-01-2024 17:00:00,10.073232,76.302765,NO2,4,5,4
India,Kerala,Eloor,"Udyogamandal, Eloor - Kerala PCB",29-01-2024 17:00:00,10.073232,76.302765,SO2,1,9,2
India,Kerala,Kannur,"Thavakkara, Kannur - Kerala PCB",29-01-2024 17:00:00,11.875000,75.373200,PM10,60,66,62
India,Kerala,Kollam,"Polayathode, Kollam - Kerala PCB",29-01-2024 17:00:00,8.8787,76.6073,PM2.5,78,323,147
India,Kerala,Kollam,"Polayathode, Kollam - Kerala PCB",29-01-2024 17:00:00,8.8787,76.6073,PM10,69,148,93
India,Kerala,Thiruvananthapuram,"Kariavattom, Thiruvananthapuram - Kerala PCB",29-01-2024 17:00:00,8.563700,76.886500,PM10,75,86,80
India,Kerala,Thiruvananthapuram,"Kariavattom, Thiruvananthapuram - Kerala PCB",29-01-2024 17:00:00,8.563700,76.886500,NO2,8,10,9
India,Kerala,Thiruvananthapuram,"Plammoodu, Thiruvananthapuram - Kerala PCB",29-01-2024 17:00:00,8.5149093,76.9435879,PM10,NA,NA,NA
India,Kerala,Thrissur,"Corporation Ground, Thrissur - Kerala PCB",29-01-2024 17:00:00,10.532400,76.215900,PM10,53,63,58
India,Kerala,Thrissur,"Corporation Ground, Thrissur - Kerala PCB",29-01-2024 17:00:00,10.532400,76.215900,NO2,9,11,10
India,Madhya Pradesh,Bhopal,"Idgah Hills, Bhopal - MPPCB",29-01-2024 17:00:00,23.264759,77.381568,OZONE,61,89,76
India,Madhya Pradesh,Bhopal,"T T Nagar, Bhopal - MPPCB",29-01-2024 17:00:00,23.233584,77.400574,PM10,86,236,131
India,Madhya Pradesh,Bhopal,"T T Nagar, Bhopal - MPPCB",29-01-2024 17:00:00,23.233584,77.400574,NO2,40,115,62
India,Madhya Pradesh,Gwalior,"City Center, Gwalior - MPPCB",29-01-2024 17:00:00,26.203442,78.193251,PM2.5,35,348,279
India,Madhya Pradesh,Gwalior,"Deen Dayal Nagar, Gwalior - MPPCB",29-01-2024 17:00:00,26.259242,78.216432,PM2.5,67,369,293
India,Madhya Pradesh,Gwalior,"Maharaj Bada, Gwalior - MPPCB",29-01-2024 17:00:00,26.200388,78.147714,NH3,5,11,7
India,Madhya Pradesh,Gwalior,"Maharaj Bada, Gwalior - MPPCB",29-01-2024 17:00:00,26.200388,78.147714,SO2,12,27,17
India,Madhya Pradesh,Gwalior,"Phool Bagh, Gwalior - Mondelez Ind. Food",29-01-2024 17:00:00,26.210536,78.171,PM10,29,217,114
India,Madhya Pradesh,Indore,"Chhoti Gwaltoli, Indore - MPPCB",29-01-2024 17:00:00,22.4310,75.5213,PM10,94,306,182
India,Madhya Pradesh,Indore,"Maguda Nagar, Indore - IMC",29-01-2024 17:00:00,22.7524,75.8872,CO,20,70,29
India,Madhya Pradesh,Indore,"Regional Park, Indore - IMC",29-01-2024 17:00:00,22.6780,75.8559,NH3,1,3,1
India,Madhya Pradesh,Indore,"Residency Area, Indore - IMC",29-01-2024 17:00:00,22.7084,75.8815,PM10,49,220,113
India,Madhya Pradesh,Indore,"Residency Area, Indore - IMC",29-01-2024 17:00:00,22.7084,75.8815,NO2,42,66,52
India,Madhya Pradesh,Indore,"Residency Area, Indore - IMC",29-01-2024 17:00:00,22.7084,75.8815,OZONE,11,16,14
India,Madhya Pradesh,Jabalpur,"Govindh Bhavan Colony, Jabalpur - JMC",29-01-2024 17:00:00,23.163174,79.973061,SO2,12,55,24
India,Madhya Pradesh,Jabalpur,"Govindh Bhavan Colony, Jabalpur - JMC",29-01-2024 17:00:00,23.163174,79.973061,CO,22,46,31
India,Madhya Pradesh,Jabalpur,"Suhagi, Jabalpur - JMC",29-01-2024 17:00:00,23.218135,79.957770,PM10,NA,NA,NA
India,Madhya Pradesh,Katni,"Gole Bazar, Katni - MPPCB",29-01-2024 17:00:00,23.50016,80.23284,PM10,52,231,126
India,Madhya Pradesh,Pithampur,"Sector-2 Industrial Area, Pithampur - MPPCB",29-01-2024 17:00:00,22.624758,75.675238,PM2.5,46,303,130
India,Madhya Pradesh,Pithampur,"Sector-2 Industrial Area, Pithampur - MPPCB",29-01-2024 17:00:00,22.624758,75.675238,NH3,5,6,6
India,Madhya Pradesh,Ratlam,"Shasthri Nagar, Ratlam - IPCA Lab",29-01-2024 17:00:00,23.331731,75.045981,PM2.5,38,304,109
India,Madhya Pradesh,Ratlam,"Shasthri Nagar, Ratlam - IPCA Lab",29-01-2024 17:00:00,23.331731,75.045981,SO2,14,16,15
India,Madhya Pradesh,Sagar,"Civil Lines, Sagar - MPPCB",29-01-2024 17:00:00,23.838586,78.759431,OZONE,39,46,41
India,Madhya Pradesh,Sagar,"Deen Dayal Nagar, Sagar - MPPCB",29-01-2024 17:00:00,23.8640158,78.80289321,SO2,5,13,8
India,Madhya Pradesh,Singrauli,"Suryakiran Bhawan NCL, Singrauli - MPPCB",29-01-2024 17:00:00,24.108970,82.645580,NH3,1,2,2
India,Madhya Pradesh,Ujjain,"Mahakaleshwar Temple, Ujjain - MPPCB",29-01-2024 17:00:00,23.182719 ,75.768218 ,NO2,6,54,23
India,Madhya Pradesh,Ujjain,"Mahakaleshwar Temple, Ujjain - MPPCB",29-01-2024 17:00:00,23.182719 ,75.768218 ,SO2,7,27,15
India,Madhya Pradesh,Ujjain,"Mahakaleshwar Temple, Ujjain - MPPCB",29-01-2024 17:00:00,23.182719 ,75.768218 ,OZONE,112,140,125
India,Maharashtra,Akola,"Ramdaspeth, Akola - MPCB",29-01-2024 17:00:00,20.719516,77.000253,NH3,3,11,7
India,Maharashtra,Amravati,"Shivneri Colony, Amravati - MPCB",29-01-2024 17:00:00,20.9402359,77.7895248,OZONE,8,130,94
India,Maharashtra,Badlapur,"Katrap, Badlapur - MPCB",29-01-2024 17:00:00,19.16485,73.23409,PM2.5,83,319,176
India,Maharashtra,Badlapur,"Katrap, Badlapur - MPCB",29-01-2024 17:00:00,19.16485,73.23409,SO2,15,45,24
India,Maharashtra,Belapur,"CBD Belapur, Belapur - MPCB",29-01-2024 17:00:00,19.0243902,73.0406721,PM2.5,39,234,100
India,Maharashtra,Bhiwandi,"Gokul Nagar, Bhiwandi - MPCB",29-01-2024 17:00:00,19.309073,73.057223,PM2.5,NA,NA,NA
India,Maharashtra,Boisar,"Khaira, Boisar - MPCB",29-01-2024 17:00:00,19.786089,72.757971,PM2.5,68,329,241
India,Maharashtra,Boisar,"Khaira, Boisar - MPCB",29-01-2024 17:00:00,19.786089,72.757971,PM10,95,198,162
India,Maharashtra,Boisar,"Khaira, Boisar - MPCB",29-01-2024 17:00:00,19.786089,72.757971,SO2,29,116,64
India,Maharashtra,Chandrapur,"Chauhan Colony, Chandrapur - MPCB",29-01-2024 17:00:00,19.962900,79.298714,PM2.5,82,289,167
India,Maharashtra,Chandrapur,"Chauhan Colony, Chandrapur - MPCB",29-01-2024 17:00:00,19.962900,79.298714,CO,24,30,26
India,Maharashtra,Dhule,"Deopur, Dhule - MPCB",29-01-2024 17:00:00,20.918946,74.776388,PM2.5,61,228,114
India,Maharashtra,Dhule,"Deopur, Dhule - MPCB",29-01-2024 17:00:00,20.918946,74.776388,SO2,6,32,15
India,Maharashtra,Jalna,"Old MIDC, Jalna - MPCB",29-01-2024 17:00:00,19.854616,75.905894,PM10,108,404,210
India,Maharashtra,Jalna,"Old MIDC, Jalna - MPCB",29-01-2024 17:00:00,19.854616,75.905894,NH3,6,8,7
India,Maharashtra,Jalna,"Old MIDC, Jalna - MPCB",29-01-2024 17:00:00,19.854616,75.905894,OZONE,18,85,47
India,Maharashtra,Kalyan,"Khadakpada, Kalyan - MPCB",29-01-2024 17:00:00,19.25292,73.142019,PM10,65,234,126
India,Maharashtra,Kalyan,"Khadakpada, Kalyan - MPCB",29-01-2024 17:00:00,19.25292,73.142019,NO2,20,168,45
India,Maharashtra,Kolhapur,"Sinchan Bhavan, Kolhapur - MPCB",29-01-2024 17:00:00,16.7143745,74.2426398,PM2.5,77,120,87
India,Maharashtra,Latur,"Sawe Wadi, Latur - MPCB",29-01-2024 17:00:00,18.39963,76.57452,NH3,8,8,8
India,Maharashtra,Latur,"Sawe Wadi, Latur - MPCB",29-01-2024 17:00:00,18.39963,76.57452,SO2,1,20,8
India,Maharashtra,Latur,"Sawe Wadi, Latur - MPCB",29-01-2024 17:00:00,18.39963,76.57452,CO,15,128,33
India,Maharashtra,Mahad,"Kamble Tarf Birwadi, Mahad - MPCB",29-01-2024 17:00:00,18.1023399,73.4783687,NH3,4,6,5
India,Maharashtra,Malegaon,"Mahesh Nagar, Malegaon - MPCB",29-01-2024 17:00:00,20.555712,74.529236,PM2.5,53,290,117
India,Maharashtra,Malegaon,"Mahesh Nagar, Malegaon - MPCB",29-01-2024 17:00:00,20.555712,74.529236,NO2,4,72,26
India,Maharashtra,Mira-Bhayandar,"Bhayandar West, Mira-Bhayandar - MPCB",29-01-2024 17:00:00,19.296481,72.840923,SO2,5,27,13
India,Maharashtra,Mira-Bhayandar,"Bhayandar West, Mira-Bhayandar - MPCB",29-01-2024 17:00:00,19.296481,72.840923,CO,20,100,33
India,Maharashtra,Mumbai,"Borivali East, Mumbai - IITM",29-01-2024 17:00:00,19.23241,72.86895,PM2.5,NA,NA,NA
India,Maharashtra,Mumbai,"Borivali East, Mumbai - IITM",29-01-2024 17:00:00,19.23241,72.86895,NO2,NA,NA,NA
India,Maharashtra,Mumbai,"Byculla, Mumbai - BMC",29-01-2024 17:00:00,18.9767,72.8380,NO2,27,114,66
India,Maharashtra,Mumbai,"Byculla, Mumbai - BMC",29-01-2024 17:00:00,18.9767,72.8380,NH3,1,8,4
India,Maharashtra,Mumbai,"Chakala-Andheri East, Mumbai - IITM",29-01-2024 17:00:00,19.11074,72.86084,PM10,136,252,175
India,Maharashtra,Mumbai,"Chakala-Andheri East, Mumbai - IITM",29-01-2024 17:00:00,19.11074,72.86084,SO2,10,109,52
India,Maharashtra,Mumbai,"Colaba, Mumbai - MPCB",29-01-2024 17:00:00,18.910000,72.820000,PM10,46,117,80
India,Maharashtra,Mumbai,"Colaba, Mumbai - MPCB",29-01-2024 17:00:00,18.910000,72.820000,OZONE,10,14,12
India,Maharashtra,Mumbai,"Deonar, Mumbai - IITM",29-01-2024 17:00:00,19.04946,72.9230,NO2,NA,NA,NA
India,Maharashtra,Mumbai,"Deonar, Mumbai - IITM",29-01-2024 17:00:00,19.04946,72.9230,CO,55,118,89
India,Maharashtra,Mumbai,"Kandivali East, Mumbai - MPCB",29-01-2024 17:00:00,19.205800,72.868200,OZONE,26,31,29
India,Maharashtra,Mumbai,"Khindipada-Bhandup West, Mumbai - IITM",29-01-2024 17:00:00,19.1653323,72.922099,NH3,1,2,2
India,Maharashtra,Mumbai,"Kurla, Mumbai - MPCB",29-01-2024 17:00:00,19.0863,72.8888,SO2,32,32,32
India,Maharashtra,Mumbai,"Mindspace-Malad West, Mumbai - MPCB",29-01-2024 17:00:00,19.1878657,72.8304069,SO2,5,18,11
India,Maharashtra,Mumbai,"Mulund West, Mumbai - MPCB",29-01-2024 17:00:00,19.1750,72.9419,PM2.5,21,99,46
India,Maharashtra,Mumbai,"Mulund West, Mumbai - MPCB",29-01-2024 17:00:00,19.1750,72.9419,NO2,24,31,26
India,Maharashtra,Mumbai,"Navy Nagar-Colaba, Mumbai - IITM",29-01-2024 17:00:00,18.897756,72.813320,PM2.5,82,178,111
India,Maharashtra,Mumbai,"Powai, Mumbai - MPCB",29-01-2024 17:00:00,19.137500,72.915056,PM2.5,29,137,52
India,Maharashtra,Mumbai,"Powai, Mumbai - MPCB",29-01-2024 17:00:00,19.137500,72.915056,NO2,25,46,31
India,Maharashtra,Mumbai,"Powai, Mumbai - MPCB",29-01-2024 17:00:00,19.137500,72.915056,SO2,20,23,22
India,Maharashtra,Mumbai,"Powai, Mumbai - MPCB",29-01-2024 17:00:00,19.137500,72.915056,OZONE,20,36,26
India,Maharashtra,Mumbai,"Sewri, Mumbai - BMC",29-01-2024 17:00:00,19.000084,72.856730,NO2,50,144,91
India,Maharashtra,Mumbai,"Sewri, Mumbai - BMC",29-01-2024 17:00:00,19.000084,72.856730,NH3,3,15,9
India,Maharashtra,Mumbai,"Shivaji Nagar, Mumbai - BMC",29-01-2024 17:00:00,19.060498,72.923356,PM2.5,61,166,108
India,Maharashtra,Mumbai,"Shivaji Nagar, Mumbai - BMC",29-01-2024 17:00:00,19.060498,72.923356,NO2,49,140,94
India,Maharashtra,Mumbai,"Shivaji Nagar, Mumbai - BMC",29-01-2024 17:00:00,19.060498,72.923356,NH3,2,6,4
India,Maharashtra,Mumbai,"Shivaji Nagar, Mumbai - BMC",29-01-2024 17:00:00,19.060498,72.923356,OZONE,1,109,74
India,Maharashtra,Mumbai,"Siddharth Nagar-Worli, Mumbai - IITM",29-01-2024 17:00:00,19.000083,72.813993,NO2,NA,NA,NA
India,Maharashtra,Mumbai,"Sion, Mumbai - MPCB",29-01-2024 17:00:00,19.047000,72.874600,NH3,1,2,1
India,Maharashtra,Mumbai,"Sion, Mumbai - MPCB",29-01-2024 17:00:00,19.047000,72.874600,OZONE,11,24,14
India,Maharashtra,Mumbai,"Vasai West, Mumbai - MPCB",29-01-2024 17:00:00,19.383200,72.820400,NH3,4,4,4
India,Maharashtra,Mumbai,"Vasai West, Mumbai - MPCB",29-01-2024 17:00:00,19.383200,72.820400,CO,15,50,28
India,Maharashtra,Mumbai,"Vile Parle West, Mumbai - MPCB",29-01-2024 17:00:00,19.10861,72.83622,PM10,49,125,82
India,Maharashtra,Mumbai,"Vile Parle West, Mumbai - MPCB",29-01-2024 17:00:00,19.10861,72.83622,CO,1,10,5
India,Maharashtra,Mumbai,"Worli, Mumbai - MPCB",29-01-2024 17:00:00,18.9936162,72.8128113,NO2,20,21,20
India,Maharashtra,Mumbai,"Worli, Mumbai - MPCB",29-01-2024 17:00:00,18.9936162,72.8128113,OZONE,6,12,9
India,Maharashtra,Nagpur,"Ambazari, Nagpur - MPCB",29-01-2024 17:00:00,21.121801,79.04952,SO2,27,88,56
India,Maharashtra,Nagpur,"Mahal, Nagpur - MPCB",29-01-2024 17:00:00,21.14472,79.107595,PM2.5,95,334,230
India,Maharashtra,Nagpur,"Mahal, Nagpur - MPCB",29-01-2024 17:00:00,21.14472,79.107595,NH3,1,13,4
India,Maharashtra,Nagpur,"Mahal, Nagpur - MPCB",29-01-2024 17:00:00,21.14472,79.107595,CO,48,154,82
India,Maharashtra,Nagpur,"Mahal, Nagpur - MPCB",29-01-2024 17:00:00,21.14472,79.107595,OZONE,2,122,76
India,Maharashtra,Nagpur,"Opp GPO Civil Lines, Nagpur - MPCB",29-01-2024 17:00:00,21.152875,79.0517531,NO2,20,74,39
India,Maharashtra,Nagpur,"Ram Nagar, Nagpur - MPCB",29-01-2024 17:00:00,21.143383,79.048912,OZONE,12,93,65
India,Maharashtra,Nashik,"Gangapur Road, Nashik - MPCB",29-01-2024 17:00:00,20.0073285,73.7762427,PM10,59,137,100
India,Maharashtra,Nashik,"Gangapur Road, Nashik - MPCB",29-01-2024 17:00:00,20.0073285,73.7762427,SO2,1,7,4
India,Maharashtra,Nashik,"MIDC Ambad, Nashik - MPCB",29-01-2024 17:00:00,19.950220,73.731480,PM10,105,185,140
India,Maharashtra,Nashik,"MIDC Ambad, Nashik - MPCB",29-01-2024 17:00:00,19.950220,73.731480,SO2,10,21,14
India,Maharashtra,Nashik,"Pandav Nagari, Nashik - MPCB",29-01-2024 17:00:00,19.9591346,73.7788008,PM2.5,68,246,116
India,Maharashtra,Nashik,"Pandav Nagari, Nashik - MPCB",29-01-2024 17:00:00,19.9591346,73.7788008,NH3,7,37,10
India,Maharashtra,Navi Mumbai,"Kopripada-Vashi, Navi Mumbai - MPCB",29-01-2024 17:00:00,19.090337,73.014232,NO2,30,118,80
India,Maharashtra,Navi Mumbai,"Kopripada-Vashi, Navi Mumbai - MPCB",29-01-2024 17:00:00,19.090337,73.014232,NH3,4,37,14
India,Maharashtra,Navi Mumbai,"Nerul, Navi Mumbai - MPCB",29-01-2024 17:00:00,19.008751,73.016620,SO2,12,15,13
India,Maharashtra,Navi Mumbai,"Nerul, Navi Mumbai - MPCB",29-01-2024 17:00:00,19.008751,73.016620,CO,42,86,67
India,Maharashtra,Navi Mumbai,"Sector-19A Nerul, Navi Mumbai - IITM",29-01-2024 17:00:00,19.044,73.0325,PM2.5,98,340,241
India,Maharashtra,Navi Mumbai,"Sector-19A Nerul, Navi Mumbai - IITM",29-01-2024 17:00:00,19.044,73.0325,NH3,6,27,15
India,Maharashtra,Navi Mumbai,"Sector-19A Nerul, Navi Mumbai - IITM",29-01-2024 17:00:00,19.044,73.0325,CO,13,98,46
India,Maharashtra,Navi Mumbai,"Tondare-Taloja, Navi Mumbai - MPCB",29-01-2024 17:00:00,19.0630,73.1209,PM2.5,63,313,156
India,Maharashtra,Parbhani,"Masoom Colony, Parbhani - MPCB",29-01-2024 17:00:00,19.265594,76.761463,NH3,3,4,4
India,Maharashtra,Pimpri-Chinchwad,"Gavalinagar, Pimpri Chinchwad - MPCB",29-01-2024 17:00:00,18.63673,73.82487,SO2,5,30,11
India,Maharashtra,Pimpri-Chinchwad,"Park Street Wakad, Pimpri Chinchwad - MPCB",29-01-2024 17:00:00,18.59051,73.77946,NO2,68,157,107
India,Maharashtra,Pune,"Karve Road, Pune - MPCB",29-01-2024 17:00:00,18.5011743,73.8165527,PM2.5,73,73,73
India,Maharashtra,Pune,"Karve Road, Pune - MPCB",29-01-2024 17:00:00,18.5011743,73.8165527,NO2,2,2,2
India,Maharashtra,Pune,"Karve Road, Pune - MPCB",29-01-2024 17:00:00,18.5011743,73.8165527,CO,62,62,62
India,Maharashtra,Pune,"Karve Road, Pune - MPCB",29-01-2024 17:00:00,18.5011743,73.8165527,OZONE,6,6,6
India,Maharashtra,Pune,"Katraj Dairy, Pune - MPCB",29-01-2024 17:00:00,18.454450,73.854155,PM2.5,56,157,86
India,Maharashtra,Pune,"Katraj Dairy, Pune - MPCB",29-01-2024 17:00:00,18.454450,73.854155,PM10,74,148,107
India,Maharashtra,Pune,"Revenue Colony-Shivajinagar, Pune - IITM",29-01-2024 17:00:00,18.530085,73.849598,PM2.5,65,191,98
India,Maharashtra,Pune,"Revenue Colony-Shivajinagar, Pune - IITM",29-01-2024 17:00:00,18.530085,73.849598,NO2,110,224,160
India,Maharashtra,Pune,"Savitribai Phule Pune University, Pune - MPCB",29-01-2024 17:00:00,18.547056,73.826908,SO2,2,7,4
India,Maharashtra,Pune,"Transport Nagar-Nigdi, Pune - IITM",29-01-2024 17:00:00,18.664282,73.763966,PM2.5,38,186,96
India,Maharashtra,Solapur,"Dnyaneshwar Nagar, Solapur - MPCB",29-01-2024 17:00:00,17.6336264,75.9132495,NO2,15,77,39
India,Maharashtra,Solapur,"Dnyaneshwar Nagar, Solapur - MPCB",29-01-2024 17:00:00,17.6336264,75.9132495,CO,10,58,20
India,Maharashtra,Solapur,"Ratandeep Housing Society, Solapur - MPCB",29-01-2024 17:00:00,17.65439,75.90649,NO2,15,134,60
India,Maharashtra,Solapur,"Solapur, Solapur - MPCB",29-01-2024 17:00:00,17.6599188,75.9063906,SO2,30,37,33
India,Maharashtra,Thane,"Kasarvadavali, Thane - MPCB",29-01-2024 17:00:00,19.26777,72.97182,PM2.5,64,335,177
India,Maharashtra,Thane,"Kasarvadavali, Thane - MPCB",29-01-2024 17:00:00,19.26777,72.97182,PM10,118,246,157
India,Maharashtra,Thane,"Kasarvadavali, Thane - MPCB",29-01-2024 17:00:00,19.26777,72.97182,NO2,24,80,47
India,Maharashtra,Thane,"Upvan Fort, Thane - MPCB",29-01-2024 17:00:00,19.222279,72.957979,SO2,25,101,46
India,Maharashtra,Ulhasnagar,"Sidhi Vinayak Nagar, Ulhasnagar - MPCB",29-01-2024 17:00:00,19.235581,73.159121,PM10,86,251,143
India,Manipur,Imphal,"DM College of Science, Imphal - Manipur PCB",29-01-2024 17:00:00,24.8207389,93.9423085,SO2,NA,NA,NA
India,Manipur,Imphal,"DM College of Science, Imphal - Manipur PCB",29-01-2024 17:00:00,24.8207389,93.9423085,CO,NA,NA,NA
India,Meghalaya,Shillong,"JN Stadium, Shillong - Meghalaya PCB",29-01-2024 17:00:00,25.5803419,91.8942571,CO,NA,NA,NA
India,Meghalaya,Shillong,"Lumpyngngad, Shillong - Meghalaya PCB",29-01-2024 17:00:00,25.5586,91.8985,PM2.5,51,198,96
India,Meghalaya,Shillong,"Lumpyngngad, Shillong - Meghalaya PCB",29-01-2024 17:00:00,25.5586,91.8985,NH3,1,1,1
India,Mizoram,Aizawl,"Sikulpuikawn, Aizawl - Mizoram PCB",29-01-2024 17:00:00,23.7176342,92.7192841,SO2,1,2,2
India,Mizoram,Aizawl,"Sikulpuikawn, Aizawl - Mizoram PCB",29-01-2024 17:00:00,23.7176342,92.7192841,CO,10,18,14
India,Nagaland,Kohima,"PWD Juction, Kohima - NPCB",29-01-2024 17:00:00,25.6635413,94.0989878,NH3,NA,NA,NA
India,Odisha,Balasore,"Kalidaspur, Balasore - OSPCB",29-01-2024 17:00:00,21.51161,86.89088,PM2.5,167,372,290
India,Odisha,Barbil,"Forest Office, Barbil - OSPCB",29-01-2024 17:00:00,22.1166054,85.3945546,CO,40,90,62
India,Odisha,Bhubaneswar,"Patia, Bhubaneswar - OSPCB",29-01-2024 17:00:00,20.34652,85.81630,PM10,125,196,158
India,Odisha,Bhubaneswar,"Patia, Bhubaneswar - OSPCB",29-01-2024 17:00:00,20.34652,85.81630,NO2,18,86,42
India,Odisha,Bhubaneswar,"Patia, Bhubaneswar - OSPCB",29-01-2024 17:00:00,20.34652,85.81630,NH3,4,5,5
India,Odisha,Bhubaneswar,"Patia, Bhubaneswar - OSPCB",29-01-2024 17:00:00,20.34652,85.81630,CO,12,123,24
India,Odisha,Bileipada,"Tata Township, Bileipada - OSPCB",29-01-2024 17:00:00,22.06156703,85.47409613,OZONE,18,28,24
India,Odisha,Byasanagar,"Ferro Chrome Colony, Byasanagar - OSPCB",29-01-2024 17:00:00,20.94185,86.11510,PM2.5,153,348,239
India,Odisha,Keonjhar,"Jagamohanpur, Keonjhar - OSPCB",29-01-2024 17:00:00,21.643900,85.599355,PM2.5,178,302,245
India,Odisha,Keonjhar,"Jagamohanpur, Keonjhar - OSPCB",29-01-2024 17:00:00,21.643900,85.599355,OZONE,1,22,12
India,Odisha,Nayagarh,"Dabuna, Nayagarh - OSPCB",29-01-2024 17:00:00,21.847279,85.416905,CO,12,22,17
India,Odisha,Rourkela,"Raghunathpali, Rourkela - OSPCB",29-01-2024 17:00:00,22.220833,84.809444,CO,36,101,52
India,Odisha,Rourkela,"Sector-2, Rourkela - OSPCB",29-01-2024 17:00:00,22.24500000,84.88111111,NO2,33,34,33
India,Odisha,Rourkela,"Sector-2, Rourkela - OSPCB",29-01-2024 17:00:00,22.24500000,84.88111111,CO,27,106,58
India,Odisha,Suakati,"OMC Colony, Suakati - OSPCB",29-01-2024 17:00:00,21.606865,85.510538,PM10,NA,NA,NA
India,Odisha,Suakati,"OMC Colony, Suakati - OSPCB",29-01-2024 17:00:00,21.606865,85.510538,NH3,NA,NA,NA
India,Puducherry,Puducherry,"Jawahar Nagar, Puducherry - PPCC",29-01-2024 17:00:00,11.9309,79.8027,PM10,52,92,65
India,Punjab,Amritsar,"Golden Temple, Amritsar - PPCB",29-01-2024 17:00:00,31.620000,74.876512,SO2,15,54,25
India,Punjab,Bathinda,"Hardev Nagar, Bathinda - PPCB",29-01-2024 17:00:00,30.233011,74.907758,CO,4,106,58
India,Punjab,Jalandhar,"Civil Line, Jalandhar - PPCB",29-01-2024 17:00:00,31.321907,75.578914,NO2,14,16,15
India,Punjab,Khanna,"Kalal Majra, Khanna - PPCB",29-01-2024 17:00:00,30.736056 ,76.209694,PM10,34,178,107
India,Punjab,Khanna,"Kalal Majra, Khanna - PPCB",29-01-2024 17:00:00,30.736056 ,76.209694,NH3,16,18,17
India,Punjab,Ludhiana,"Punjab Agricultural University, Ludhiana - PPCB",29-01-2024 17:00:00,30.9028,75.8086,NO2,21,27,25
India,Punjab,Ludhiana,"Punjab Agricultural University, Ludhiana - PPCB",29-01-2024 17:00:00,30.9028,75.8086,NH3,4,6,5
India,Punjab,Ludhiana,"Punjab Agricultural University, Ludhiana - PPCB",29-01-2024 17:00:00,30.9028,75.8086,SO2,6,31,13
India,Punjab,Mandi Gobindgarh,"RIMT University, Mandi Gobindgarh - PPCB",29-01-2024 17:00:00,30.649961,76.331442,PM2.5,NA,NA,NA
India,Punjab,Mandi Gobindgarh,"RIMT University, Mandi Gobindgarh - PPCB",29-01-2024 17:00:00,30.649961,76.331442,PM10,NA,NA,NA
India,Punjab,Mandi Gobindgarh,"RIMT University, Mandi Gobindgarh - PPCB",29-01-2024 17:00:00,30.649961,76.331442,CO,NA,NA,NA
India,Punjab,Patiala,"Model Town, Patiala - PPCB",29-01-2024 17:00:00,30.349388,76.366642,CO,36,69,46
India,Punjab,Rupnagar,"Ratanpura, Rupnagar - Ambuja Cements",29-01-2024 17:00:00,31.0325454,76.5623046,PM2.5,92,369,232
India,Rajasthan,Ajmer,"Civil Lines,  Ajmer - RSPCB",29-01-2024 17:00:00,26.470859,74.646594,PM10,9,149,87
India,Rajasthan,Banswara,"Rati Talai, Banswara - RSPCB",29-01-2024 17:00:00,23.555190,74.440010,PM10,71,294,150
India,Rajasthan,Baran,"Bamboliya, Baran - RSPCB",29-01-2024 17:00:00,25.106006,76.469948,CO,28,46,40
India,Rajasthan,Barmer,"Railway Colony, Barmer - RSPCB",29-01-2024 17:00:00,25.747299,71.393989,NO2,12,29,19
India,Rajasthan,Barmer,"Railway Colony, Barmer - RSPCB",29-01-2024 17:00:00,25.747299,71.393989,CO,3,102,30
India,Rajasthan,Bharatpur,"Krishna Nagar, Bharatpur - RSPCB",29-01-2024 17:00:00,27.215415,77.50873,PM2.5,97,150,117
India,Rajasthan,Bhilwara,"Pratap Nagar, Bhilwara - RSPCB",29-01-2024 17:00:00,25.339605,74.618883,OZONE,4,93,67
India,Rajasthan,Bhiwadi,"RIICO Ind. Area III, Bhiwadi - RSPCB",29-01-2024 17:00:00,28.194909,76.862296,SO2,1,22,11
India,Rajasthan,Bhiwadi,"RIICO Ind. Area III, Bhiwadi - RSPCB",29-01-2024 17:00:00,28.194909,76.862296,OZONE,1,19,10
India,Rajasthan,Bikaner,"MM Ground, Bikaner - RSPCB",29-01-2024 17:00:00,28.018792,73.292658,SO2,3,14,6
India,Rajasthan,Bundi,"New Colony, Bundi - RSPCB",29-01-2024 17:00:00,25.435774,75.644272,PM2.5,79,289,145
India,Rajasthan,Bundi,"New Colony, Bundi - RSPCB",29-01-2024 17:00:00,25.435774,75.644272,SO2,4,12,8
India,Rajasthan,Bundi,"New Colony, Bundi - RSPCB",29-01-2024 17:00:00,25.435774,75.644272,OZONE,49,78,62
India,Rajasthan,Chittorgarh,"Shastri Nagar, Chittorgarh - RSPCB",29-01-2024 17:00:00,24.892047,74.623527,NO2,26,91,52
India,Rajasthan,Chittorgarh,"Shastri Nagar, Chittorgarh - RSPCB",29-01-2024 17:00:00,24.892047,74.623527,CO,68,111,99
India,Rajasthan,Churu,"Subash Chowk, Churu - RSPCB",29-01-2024 17:00:00,28.296139,74.961696,PM2.5,48,442,261
India,Rajasthan,Churu,"Subash Chowk, Churu - RSPCB",29-01-2024 17:00:00,28.296139,74.961696,NH3,12,28,19
India,Rajasthan,Dausa,"Khatikan Mohalla, Dausa - RSPCB",29-01-2024 17:00:00,26.895552,76.334753,NO2,16,116,36
India,Rajasthan,Dausa,"Khatikan Mohalla, Dausa - RSPCB",29-01-2024 17:00:00,26.895552,76.334753,SO2,3,15,9
India,Rajasthan,Dholpur,"Raja Ganj, Dholpur - RSPCB",29-01-2024 17:00:00,26.699557,77.898881,PM2.5,25,344,274
India,Rajasthan,Jaipur,"Adarsh Nagar, Jaipur - RSPCB",29-01-2024 17:00:00,26.902909,75.836858,OZONE,17,81,54
India,Rajasthan,Jaipur,"Mansarovar Sector-12, Jaipur - RSPCB",29-01-2024 17:00:00,26.843698,75.766894,CO,24,101,66
India,Rajasthan,Jaipur,"Mansarovar Sector-12, Jaipur - RSPCB",29-01-2024 17:00:00,26.843698,75.766894,OZONE,1,139,77
India,Rajasthan,Jaipur,"Police Commissionerate, Jaipur - RSPCB",29-01-2024 17:00:00,26.9164092,75.7994901,OZONE,9,91,63
India,Rajasthan,Jaipur,"Sector-2 Murlipura, Jaipur - RSPCB",29-01-2024 17:00:00,26.960669,75.771817,PM10,92,277,152
India,Rajasthan,Jaipur,"Shastri Nagar, Jaipur - RSPCB",29-01-2024 17:00:00,26.9502929,75.730943,NO2,21,124,70
India,Rajasthan,Jaisalmer,"Sadar Bazar, Jaisalmer - RSPCB",29-01-2024 17:00:00,26.912329,70.909168,OZONE,2,140,108
India,Rajasthan,Jalore,"Mudtra Sili, Jalore - RSPCB",29-01-2024 17:00:00,25.344694,72.626208,CO,27,103,61
India,Rajasthan,Jalore,"Mudtra Sili, Jalore - RSPCB",29-01-2024 17:00:00,25.344694,72.626208,OZONE,7,112,73
India,Rajasthan,Jhunjhunu,"Indra Nagar, Jhunjhunu - RSPCB",29-01-2024 17:00:00,28.108988,75.386577,NO2,27,98,59
India,Rajasthan,Jodhpur,"Collectorate, Jodhpur - RSPCB",29-01-2024 17:00:00,26.268249,73.0193853,PM2.5,73,352,224
India,Rajasthan,Jodhpur,"Collectorate, Jodhpur - RSPCB",29-01-2024 17:00:00,26.268249,73.0193853,NO2,24,64,50
India,Rajasthan,Jodhpur,"Jhalamand, Jodhpur - RSPCB",29-01-2024 17:00:00,26.215415,73.070156,SO2,4,19,10
India,Rajasthan,Jodhpur,"Mandor, Jodhpur - RSPCB",29-01-2024 17:00:00,26.358805,73.047444,PM2.5,36,133,70
India,Rajasthan,Jodhpur,"Samrat Ashok Udhyan, Jodhpur - RSPCB",29-01-2024 17:00:00,26.253384,72.976571,PM2.5,37,283,90
India,Rajasthan,Jodhpur,"Samrat Ashok Udhyan, Jodhpur - RSPCB",29-01-2024 17:00:00,26.253384,72.976571,NO2,13,107,50
India,Rajasthan,Karauli,"Satyawati Vihar, Karauli - RSPCB",29-01-2024 17:00:00,26.506177,77.025989,PM2.5,64,347,280
India,Rajasthan,Kota,"Dhanmandi, Kota - RSPCB",29-01-2024 17:00:00,25.164090,75.858137,NH3,5,7,6
India,Rajasthan,Kota,"Dhanmandi, Kota - RSPCB",29-01-2024 17:00:00,25.164090,75.858137,OZONE,7,130,49
India,Rajasthan,Kota,"Nayapura, Kota - RSPCB",29-01-2024 17:00:00,25.196024,75.855668,PM2.5,81,317,196
India,Rajasthan,Kota,"Nayapura, Kota - RSPCB",29-01-2024 17:00:00,25.196024,75.855668,PM10,101,259,139
India,Rajasthan,Kota,"Shrinath Puram, Kota - RSPCB",29-01-2024 17:00:00,25.14389,75.821256,PM10,82,156,118
India,Rajasthan,Kota,"Shrinath Puram, Kota - RSPCB",29-01-2024 17:00:00,25.14389,75.821256,SO2,3,59,16
India,Rajasthan,Nagaur,"Karni Colony, Nagaur - RSPCB",29-01-2024 17:00:00,27.213494,73.734444,PM2.5,58,437,190
India,Rajasthan,Nagaur,"Karni Colony, Nagaur - RSPCB",29-01-2024 17:00:00,27.213494,73.734444,PM10,102,500,210
India,Rajasthan,Pratapgarh,"Pragati Nagar, Pratapgarh - RSPCB",29-01-2024 17:00:00,24.041198,74.780702,SO2,2,17,9
India,Rajasthan,Pratapgarh,"Pragati Nagar, Pratapgarh - RSPCB",29-01-2024 17:00:00,24.041198,74.780702,CO,4,104,22
India,Rajasthan,Rajsamand,"Dhoinda, Rajsamand - RSPCB",29-01-2024 17:00:00,25.036360,73.883502,NO2,11,53,28
India,Rajasthan,Rajsamand,"Dhoinda, Rajsamand - RSPCB",29-01-2024 17:00:00,25.036360,73.883502,NH3,2,10,5
India,Rajasthan,Sawai Madhopur,"Sahu Nagar, Sawai Madhopur - RSPCB",29-01-2024 17:00:00,26.031443,76.359327,SO2,1,14,8
India,Rajasthan,Sawai Madhopur,"Sahu Nagar, Sawai Madhopur - RSPCB",29-01-2024 17:00:00,26.031443,76.359327,OZONE,19,111,58
India,Rajasthan,Sikar,"Radhakishan Pura, Sikar - RSPCB",29-01-2024 17:00:00,27.608912,75.153302,OZONE,4,98,74
India,Rajasthan,Sirohi,"Vedhaynath Colony, Sirohi - RSPCB",29-01-2024 17:00:00,24.885261,72.857549,PM2.5,37,363,92
India,Rajasthan,Sri Ganganagar,"Old City, Sri Ganganagar - RSPCB",29-01-2024 17:00:00,29.931624,73.864511,PM2.5,308,428,394
India,Rajasthan,Sri Ganganagar,"Old City, Sri Ganganagar - RSPCB",29-01-2024 17:00:00,29.931624,73.864511,NO2,1,132,47
India,Rajasthan,Udaipur,"Ashok Nagar, Udaipur - RSPCB",29-01-2024 17:00:00,24.5886166,73.6321397,NH3,6,15,9
India,Sikkim,Gangtok,"Zero Point GICI, Gangtok - SSPCB",29-01-2024 17:00:00,27.338530,88.614099,NH3,1,1,1
India,Sikkim,Gangtok,"Zero Point GICI, Gangtok - SSPCB",29-01-2024 17:00:00,27.338530,88.614099,OZONE,16,61,38
India,TamilNadu,Ariyalur,"Keelapalur, Ariyalur - TNPCB",29-01-2024 17:00:00,11.06825,79.07033,SO2,21,28,22
India,TamilNadu,Chengalpattu,"Crescent University, Chengalpattu - TNPCB",29-01-2024 17:00:00,12.8777316,80.0834807,NO2,NA,NA,NA
India,TamilNadu,Chennai,"Alandur Bus Depot, Chennai - CPCB",29-01-2024 17:00:00,12.9099161,80.1076538,PM10,176,326,220
India,TamilNadu,Chennai,"Arumbakkam, Chennai - TNPCB",29-01-2024 17:00:00,13.0664,80.2112 ,NO2,7,30,15
India,TamilNadu,Chennai,"Arumbakkam, Chennai - TNPCB",29-01-2024 17:00:00,13.0664,80.2112 ,SO2,1,78,13
India,TamilNadu,Chennai,"Kodungaiyur, Chennai - TNPCB",29-01-2024 17:00:00,13.1278,80.2642,PM10,NA,NA,NA
India,TamilNadu,Chennai,"Manali, Chennai - CPCB",29-01-2024 17:00:00,13.164544,80.26285,NH3,2,8,5
India,TamilNadu,Chennai,"Manali, Chennai - CPCB",29-01-2024 17:00:00,13.164544,80.26285,CO,22,105,73
India,TamilNadu,Chennai,"Perungudi, Chennai - TNPCB",29-01-2024 17:00:00,12.9533,80.2357,PM2.5,NA,NA,NA
India,TamilNadu,Chennai,"Perungudi, Chennai - TNPCB",29-01-2024 17:00:00,12.9533,80.2357,PM10,NA,NA,NA
India,TamilNadu,Chennai,"Royapuram, Chennai - TNPCB",29-01-2024 17:00:00,13.1036,80.2909,SO2,1,7,2
India,TamilNadu,Chennai,"Velachery Res. Area, Chennai - CPCB",29-01-2024 17:00:00,13.0052189,80.2398125,SO2,10,11,11
India,TamilNadu,Chennai,"Velachery Res. Area, Chennai - CPCB",29-01-2024 17:00:00,13.0052189,80.2398125,CO,32,80,50
India,TamilNadu,Cuddalore,"Kudikadu, Cuddalore - TNPCB",29-01-2024 17:00:00,11.6829898,79.7532099,SO2,16,17,17
India,TamilNadu,Cuddalore,"Semmandalam, Cuddalore - TNPCB",29-01-2024 17:00:00,11.7637683,79.7499835,PM2.5,38,143,73
India,TamilNadu,Gummidipoondi,"Anthoni Pillai Nagar, Gummidipoondi - TNPCB",29-01-2024 17:00:00,13.4127,80.1081,PM2.5,42,374,139
India,TamilNadu,Ooty,"Bombay Castel, Ooty - TNPCB",29-01-2024 17:00:00,11.4068288,76.7138973,NH3,NA,NA,NA
India,TamilNadu,Ooty,"Bombay Castel, Ooty - TNPCB",29-01-2024 17:00:00,11.4068288,76.7138973,SO2,13,13,13
India,TamilNadu,Palkalaiperur,"Bharathidasan University, Palkalaiperur - TNPCB",29-01-2024 17:00:00,10.681158,78.741746,PM2.5,29,77,49
India,TamilNadu,Palkalaiperur,"Bharathidasan University, Palkalaiperur - TNPCB",29-01-2024 17:00:00,10.681158,78.741746,OZONE,1,1,1
India,TamilNadu,Ramanathapuram,"Chalai Bazaar, Ramanathapuram - TNPCB",29-01-2024 17:00:00,9.36399,78.831977,PM10,42,105,69
India,TamilNadu,Ramanathapuram,"Chalai Bazaar, Ramanathapuram - TNPCB",29-01-2024 17:00:00,9.36399,78.831977,NH3,1,1,1
India,TamilNadu,Salem,"Sona College of Technology, Salem - TNPCB",29-01-2024 17:00:00,11.679111,78.125052,OZONE,2,3,3
India,TamilNadu,Thoothukudi,"Meelavittan, Thoothukudi - TNPCB",29-01-2024 17:00:00,8.816428 ,78.099039,NO2,26,39,34
India,TamilNadu,Tirupur,"Kumaran College, Tirupur - TNPCB",29-01-2024 17:00:00,11.0973603,77.3228673,PM2.5,24,54,38
India,TamilNadu,Tirupur,"Kumaran College, Tirupur - TNPCB",29-01-2024 17:00:00,11.0973603,77.3228673,NO2,6,33,16
India,TamilNadu,Tirupur,"Kumaran College, Tirupur - TNPCB",29-01-2024 17:00:00,11.0973603,77.3228673,CO,19,59,35
India,TamilNadu,Tirupur,"Kumaran College, Tirupur - TNPCB",29-01-2024 17:00:00,11.0973603,77.3228673,OZONE,6,7,7
India,TamilNadu,Vellore,"Vasanthapuram, Vellore - TNPCB",29-01-2024 17:00:00,12.909494,79.131861,PM2.5,NA,NA,NA
India,TamilNadu,Vellore,"Vasanthapuram, Vellore - TNPCB",29-01-2024 17:00:00,12.909494,79.131861,NO2,NA,NA,NA
India,TamilNadu,Virudhunagar,"Collectorate Office, Virudhunagar - TNPCB",29-01-2024 17:00:00,9.559382,77.948828,NH3,2,3,2
India,TamilNadu,Virudhunagar,"Collectorate Office, Virudhunagar - TNPCB",29-01-2024 17:00:00,9.559382,77.948828,CO,18,34,29
India,Telangana,Hyderabad,"Bollaram Industrial Area, Hyderabad - TSPCB",29-01-2024 17:00:00,17.540891,78.358528,PM10,84,124,106
India,Telangana,Hyderabad,"Bollaram Industrial Area, Hyderabad - TSPCB",29-01-2024 17:00:00,17.540891,78.358528,NO2,17,52,29
India,Telangana,Hyderabad,"Bollaram Industrial Area, Hyderabad - TSPCB",29-01-2024 17:00:00,17.540891,78.358528,OZONE,35,39,37
India,Telangana,Hyderabad,"Central University, Hyderabad - TSPCB",29-01-2024 17:00:00,17.460103,78.334361,SO2,6,10,8
India,Telangana,Hyderabad,"ECIL Kapra, Hyderabad - TSPCB",29-01-2024 17:00:00,17.470431,78.566959,PM2.5,45,56,48
India,Telangana,Hyderabad,"ECIL Kapra, Hyderabad - TSPCB",29-01-2024 17:00:00,17.470431,78.566959,PM10,73,80,76
India,Telangana,Hyderabad,"ECIL Kapra, Hyderabad - TSPCB",29-01-2024 17:00:00,17.470431,78.566959,NO2,8,12,9
India,Telangana,Hyderabad,"IITH Kandi, Hyderabad - TSPCB",29-01-2024 17:00:00,17.585705,78.126199,SO2,NA,NA,NA
India,Telangana,Hyderabad,"Kokapet, Hyderabad - TSPCB",29-01-2024 17:00:00,17.393559,78.339194,CO,14,15,14
India,Telangana,Hyderabad,"Kompally Municipal Office, Hyderabad - TSPCB",29-01-2024 17:00:00,17.544899,78.486949,SO2,NA,NA,NA
India,Telangana,Hyderabad,"Nacharam_TSIIC IALA, Hyderabad - TSPCB",29-01-2024 17:00:00,17.429398,78.569354,PM2.5,NA,NA,NA
India,Telangana,Hyderabad,"Ramachandrapuram, Hyderabad - TSPCB",29-01-2024 17:00:00,17.528544,78.286195,NH3,NA,NA,NA
India,Telangana,Hyderabad,"Ramachandrapuram, Hyderabad - TSPCB",29-01-2024 17:00:00,17.528544,78.286195,SO2,NA,NA,NA
India,Telangana,Hyderabad,"Somajiguda, Hyderabad - TSPCB",29-01-2024 17:00:00,17.417094,78.457437,SO2,NA,NA,NA
India,Telangana,Hyderabad,"Zoo Park, Hyderabad - TSPCB",29-01-2024 17:00:00,17.349694,78.451437,PM10,118,156,142
India,Telangana,Hyderabad,"Zoo Park, Hyderabad - TSPCB",29-01-2024 17:00:00,17.349694,78.451437,SO2,1,3,1
India,Uttar_Pradesh,Agra,"Manoharpur, Agra - UPPCB",29-01-2024 17:00:00,27.23711,78.01936,PM10,91,119,105
India,Uttar_Pradesh,Agra,"Manoharpur, Agra - UPPCB",29-01-2024 17:00:00,27.23711,78.01936,NO2,17,21,19
India,Uttar_Pradesh,Agra,"Rohta, Agra - UPPCB",29-01-2024 17:00:00,27.106972,78.000111,PM10,80,111,98
India,Uttar_Pradesh,Agra,"Sanjay Palace, Agra - UPPCB",29-01-2024 17:00:00,27.19865833,78.00598056,PM10,NA,NA,NA
India,Uttar_Pradesh,Agra,"Sanjay Palace, Agra - UPPCB",29-01-2024 17:00:00,27.19865833,78.00598056,SO2,3,12,7
India,Uttar_Pradesh,Agra,"Sector-3B Avas Vikas Colony, Agra - UPPCB",29-01-2024 17:00:00,27.19412,77.96237,NO2,18,49,30
India,Uttar_Pradesh,Agra,"Sector-3B Avas Vikas Colony, Agra - UPPCB",29-01-2024 17:00:00,27.19412,77.96237,OZONE,13,39,21
India,Uttar_Pradesh,Agra,"Shahjahan Garden, Agra - UPPCB",29-01-2024 17:00:00,27.169338,78.03582,NO2,33,35,34
India,Uttar_Pradesh,Agra,"Shahjahan Garden, Agra - UPPCB",29-01-2024 17:00:00,27.169338,78.03582,NH3,11,17,13
India,Uttar_Pradesh,Agra,"Shastripuram, Agra - UPPCB",29-01-2024 17:00:00,27.19862,77.92066,NO2,28,31,30
India,Uttar_Pradesh,Baghpat,"Sardar Patel Inter College, Baghpat - UPPCB",29-01-2024 17:00:00,28.964949,77.278761,PM10,120,200,151
India,Uttar_Pradesh,Baghpat,"Sardar Patel Inter College, Baghpat - UPPCB",29-01-2024 17:00:00,28.964949,77.278761,NO2,36,68,46
India,Uttar_Pradesh,Baghpat,"Sardar Patel Inter College, Baghpat - UPPCB",29-01-2024 17:00:00,28.964949,77.278761,CO,70,105,75
India,Uttar_Pradesh,Baghpat,"Sardar Patel Inter College, Baghpat - UPPCB",29-01-2024 17:00:00,28.964949,77.278761,OZONE,1,51,19
India,Uttar_Pradesh,Bareilly,"Rajendra Nagar, Bareilly - UPPCB",29-01-2024 17:00:00,28.38910936,79.42963708,SO2,40,41,40
India,Uttar_Pradesh,Bulandshahr,"Yamunapuram, Bulandshahr - UPPCB",29-01-2024 17:00:00,28.406963,77.849831,SO2,NA,NA,NA
India,Uttar_Pradesh,Ghaziabad,"Indirapuram, Ghaziabad - UPPCB",29-01-2024 17:00:00,28.646233,77.358075,NH3,6,9,8
India,Uttar_Pradesh,Ghaziabad,"Indirapuram, Ghaziabad - UPPCB",29-01-2024 17:00:00,28.646233,77.358075,OZONE,6,9,7
India,Uttar_Pradesh,Ghaziabad,"Loni, Ghaziabad - UPPCB",29-01-2024 17:00:00,28.757294,77.278792,PM2.5,NA,NA,NA
India,Uttar_Pradesh,Ghaziabad,"Loni, Ghaziabad - UPPCB",29-01-2024 17:00:00,28.757294,77.278792,SO2,NA,NA,NA
India,Uttar_Pradesh,Ghaziabad,"Sanjay Nagar, Ghaziabad - UPPCB",29-01-2024 17:00:00,28.685382,77.453839,PM2.5,230,345,307
India,Uttar_Pradesh,Ghaziabad,"Sanjay Nagar, Ghaziabad - UPPCB",29-01-2024 17:00:00,28.685382,77.453839,PM10,140,250,176
India,Uttar_Pradesh,Ghaziabad,"Sanjay Nagar, Ghaziabad - UPPCB",29-01-2024 17:00:00,28.685382,77.453839,CO,34,61,50
India,Uttar_Pradesh,Gorakhpur,"Madan Mohan Malaviya University of Technology, Gorakhpur - UPPCB",29-01-2024 17:00:00,26.730136,83.433859,PM10,NA,NA,NA
India,Uttar_Pradesh,Gorakhpur,"Madan Mohan Malaviya University of Technology, Gorakhpur - UPPCB",29-01-2024 17:00:00,26.730136,83.433859,CO,79,102,97
India,Uttar_Pradesh,Greater Noida,"Knowledge Park - III, Greater Noida - UPPCB",29-01-2024 17:00:00,28.47272,77.482000,CO,55,103,81
India,Uttar_Pradesh,Hapur,"Anand Vihar, Hapur - UPPCB",29-01-2024 17:00:00,28.725645,77.749675,NO2,4,33,16
India,Uttar_Pradesh,Hapur,"Anand Vihar, Hapur - UPPCB",29-01-2024 17:00:00,28.725645,77.749675,CO,34,110,52
India,Uttar_Pradesh,Jhansi,"Shivaji Nagar, Jhansi - UPPCB",29-01-2024 17:00:00,25.4547,78.6039,SO2,10,18,12
India,Uttar_Pradesh,Jhansi,"Shivaji Nagar, Jhansi - UPPCB",29-01-2024 17:00:00,25.4547,78.6039,OZONE,1,90,22
India,Uttar_Pradesh,Kanpur,"FTI Kidwai Nagar, Kanpur - UPPCB",29-01-2024 17:00:00,26.428282,80.327067,PM2.5,54,113,84
India,Uttar_Pradesh,Kanpur,"FTI Kidwai Nagar, Kanpur - UPPCB",29-01-2024 17:00:00,26.428282,80.327067,PM10,94,236,128
India,Uttar_Pradesh,Kanpur,"NSI Kalyanpur, Kanpur - UPPCB",29-01-2024 17:00:00,26.509954,80.249612,PM10,143,203,169
India,Uttar_Pradesh,Khurja,"Kalindi Kunj, Khurja - UPPCB",29-01-2024 17:00:00,28.2348927,77.8683002,CO,50,57,52
India,Uttar_Pradesh,Khurja,"Kalindi Kunj, Khurja - UPPCB",29-01-2024 17:00:00,28.2348927,77.8683002,OZONE,22,49,29
India,Uttar_Pradesh,Lucknow,"Kendriya Vidyalaya, Lucknow - CPCB",29-01-2024 17:00:00,26.906111,80.948222,PM10,123,284,152
India,Uttar_Pradesh,Lucknow,"Kendriya Vidyalaya, Lucknow - CPCB",29-01-2024 17:00:00,26.906111,80.948222,NH3,3,20,14
India,Uttar_Pradesh,Lucknow,"Kendriya Vidyalaya, Lucknow - CPCB",29-01-2024 17:00:00,26.906111,80.948222,CO,36,64,50
India,Uttar_Pradesh,Lucknow,"Lalbagh, Lucknow - CPCB",29-01-2024 17:00:00,26.8458805,80.9365541,SO2,2,12,8
India,Uttar_Pradesh,Lucknow,"Talkatora District Industries Center, Lucknow - CPCB",29-01-2024 17:00:00,26.83399722,80.8917361,SO2,2,12,7
India,Uttar_Pradesh,Lucknow,"Talkatora District Industries Center, Lucknow - CPCB",29-01-2024 17:00:00,26.83399722,80.8917361,CO,1,50,24
India,Uttar_Pradesh,Meerut,"Ganga Nagar, Meerut - UPPCB",29-01-2024 17:00:00,28.999264,77.7590354,PM10,117,188,148
India,Uttar_Pradesh,Meerut,"Ganga Nagar, Meerut - UPPCB",29-01-2024 17:00:00,28.999264,77.7590354,SO2,9,27,14
India,Uttar_Pradesh,Meerut,"Jai Bhim Nagar, Meerut - UPPCB",29-01-2024 17:00:00,28.9535882,77.7622941,CO,53,79,60
India,Uttar_Pradesh,Moradabad,"Buddhi Vihar, Moradabad - UPPCB",29-01-2024 17:00:00,28.83526,78.74460,CO,46,62,50
India,Uttar_Pradesh,Moradabad,"Eco Herbal Park, Moradabad - UPPCB",29-01-2024 17:00:00,28.840739,78.697531,PM2.5,92,305,189
India,Uttar_Pradesh,Moradabad,"Employment Office, Moradabad - UPPCB",29-01-2024 17:00:00,28.88528,78.73880,PM2.5,51,213,94
India,Uttar_Pradesh,Moradabad,"Employment Office, Moradabad - UPPCB",29-01-2024 17:00:00,28.88528,78.73880,CO,43,74,48
India,Uttar_Pradesh,Moradabad,"Employment Office, Moradabad - UPPCB",29-01-2024 17:00:00,28.88528,78.73880,OZONE,13,21,17
India,Uttar_Pradesh,Moradabad,"Jigar Colony, Moradabad - UPPCB",29-01-2024 17:00:00,28.856664,78.772638,NO2,22,27,24
India,Uttar_Pradesh,Moradabad,"Kashiram Nagar, Moradabad - UPPCB",29-01-2024 17:00:00,28.849399,78.742362,NH3,3,4,4
India,Uttar_Pradesh,Moradabad,"Transport Nagar, Moradabad - UPPCB",29-01-2024 17:00:00,28.802625,78.753728,PM2.5,62,326,148
India,Uttar_Pradesh,Muzaffarnagar,"New Mandi, Muzaffarnagar - UPPCB",29-01-2024 17:00:00,29.4723508,77.7194031,CO,38,96,70
India,Uttar_Pradesh,Noida,"Sector - 125, Noida - UPPCB",29-01-2024 17:00:00,28.5447608,77.3231257,NO2,30,79,48
India,Uttar_Pradesh,Noida,"Sector - 62, Noida - IMD",29-01-2024 17:00:00,28.6245479,77.3577104,CO,93,102,99
India,Uttar_Pradesh,Noida,"Sector-1, Noida - UPPCB",29-01-2024 17:00:00,28.5898,77.3101,PM10,114,154,128
India,Uttar_Pradesh,Noida,"Sector-1, Noida - UPPCB",29-01-2024 17:00:00,28.5898,77.3101,NO2,34,84,51
India,Uttar_Pradesh,Noida,"Sector-1, Noida - UPPCB",29-01-2024 17:00:00,28.5898,77.3101,SO2,2,8,5
India,Uttar_Pradesh,Prayagraj,"Jhunsi, Prayagraj - UPPCB",29-01-2024 17:00:00,25.425602,81.917152,PM10,84,177,124
India,Uttar_Pradesh,Prayagraj,"Motilal Nehru NIT, Prayagraj - UPPCB",29-01-2024 17:00:00,25.494,81.863,PM10,78,120,104
India,Uttar_Pradesh,Prayagraj,"Motilal Nehru NIT, Prayagraj - UPPCB",29-01-2024 17:00:00,25.494,81.863,CO,14,62,38
India,Uttar_Pradesh,Prayagraj,"Nagar Nigam, Prayagraj - UPPCB",29-01-2024 17:00:00,25.44919916 ,81.82735986 ,PM2.5,79,242,181
India,Uttar_Pradesh,Varanasi,"Bhelupur, Varanasi - UPPCB",29-01-2024 17:00:00,25.301778,82.996789,SO2,21,22,21
India,Uttar_Pradesh,Varanasi,"IESD Banaras Hindu University, Varanasi - UPPCB",29-01-2024 17:00:00,25.262326,82.995408,PM2.5,16,36,29
India,Uttar_Pradesh,Varanasi,"IESD Banaras Hindu University, Varanasi - UPPCB",29-01-2024 17:00:00,25.262326,82.995408,SO2,13,13,13
India,Uttar_Pradesh,Varanasi,"Maldahiya, Varanasi - UPPCB",29-01-2024 17:00:00,25.32393,82.99687,CO,5,14,9
India,Uttar_Pradesh,Vrindavan,"Omex Eternity, Vrindavan - UPPCB",29-01-2024 17:00:00,27.5714090,77.6557570,PM10,67,89,79
India,Uttar_Pradesh,Vrindavan,"Omex Eternity, Vrindavan - UPPCB",29-01-2024 17:00:00,27.5714090,77.6557570,NO2,2,3,2
India,Uttarakhand,Dehradun,"Doon University, Dehradun - UKPCB",29-01-2024 17:00:00,30.269444,78.044167,SO2,1,2,1
India,Uttarakhand,Kashipur,"Govt. Girls Inter College, Kashipur - UKPCB",29-01-2024 17:00:00,29.2124114,78.9611753,NO2,32,100,61
India,Uttarakhand,Kashipur,"Govt. Girls Inter College, Kashipur - UKPCB",29-01-2024 17:00:00,29.2124114,78.9611753,NH3,8,11,9
India,West_Bengal,Asansol,"Asansol Court Area, Asansol - WBPCB",29-01-2024 17:00:00,23.685297,86.945968,NH3,6,10,8
India,West_Bengal,Barrackpore,"SVSPA Campus, Barrackpore - WBPCB",29-01-2024 17:00:00,22.7605581,88.3617589,PM10,118,243,168
India,West_Bengal,Haldia,"Priyambada Housing Estate, Haldia - WBPCB",29-01-2024 17:00:00,22.06047,88.109737,CO,45,92,56
India,West_Bengal,Howrah,"Belur Math, Howrah - WBPCB",29-01-2024 17:00:00,22.629801,88.352017,PM2.5,103,226,183
India,West_Bengal,Howrah,"Ghusuri, Howrah - WBPCB",29-01-2024 17:00:00,22.611968,88.347422,CO,12,42,20
India,West_Bengal,Howrah,"Padmapukur, Howrah - WBPCB",29-01-2024 17:00:00,22.5687319,88.2797276,CO,15,112,33
India,West_Bengal,Howrah,"Padmapukur, Howrah - WBPCB",29-01-2024 17:00:00,22.5687319,88.2797276,OZONE,2,82,45
India,West_Bengal,Kolkata,"Ballygunge, Kolkata - WBPCB",29-01-2024 17:00:00,22.5367507,88.3638022,PM2.5,187,300,238
India,West_Bengal,Kolkata,"Ballygunge, Kolkata - WBPCB",29-01-2024 17:00:00,22.5367507,88.3638022,PM10,119,180,152
India,West_Bengal,Kolkata,"Bidhannagar, Kolkata - WBPCB",29-01-2024 17:00:00,22.58157048,88.41002457,PM10,127,160,143
India,West_Bengal,Kolkata,"Bidhannagar, Kolkata - WBPCB",29-01-2024 17:00:00,22.58157048,88.41002457,OZONE,5,92,26
India,West_Bengal,Kolkata,"Jadavpur, Kolkata - WBPCB",29-01-2024 17:00:00,22.49929,88.36917,PM2.5,139,301,247
India,West_Bengal,Kolkata,"Jadavpur, Kolkata - WBPCB",29-01-2024 17:00:00,22.49929,88.36917,NO2,5,15,8
India,West_Bengal,Kolkata,"Jadavpur, Kolkata - WBPCB",29-01-2024 17:00:00,22.49929,88.36917,SO2,5,15,6
India,West_Bengal,Kolkata,"Rabindra Bharati University, Kolkata - WBPCB",29-01-2024 17:00:00,22.627847,88.380669,SO2,9,51,20
India,West_Bengal,Kolkata,"Rabindra Sarobar, Kolkata - WBPCB",29-01-2024 17:00:00,22.51106,88.35142,PM10,108,132,119
India,West_Bengal,Kolkata,"Victoria, Kolkata - WBPCB",29-01-2024 17:00:00,22.5448082,88.3403691,PM10,127,182,154
India,West_Bengal,Siliguri,"Ward-32 Bapupara, Siliguri - WBPCB",29-01-2024 17:00:00,26.6879226,88.4152495,NH3,1,21,12
India,West_Bengal,Siliguri,"Ward-32 Bapupara, Siliguri - WBPCB",29-01-2024 17:00:00,26.6879226,88.4152495,CO,21,114,30
India,Andhra_Pradesh,Amaravati,"Secretariat, Amaravati - APPCB",29-01-2024 17:00:00,16.5150833,80.5181667,PM10,80,120,96
India,Andhra_Pradesh,Anantapur,"Gulzarpet, Anantapur - APPCB",29-01-2024 17:00:00,14.675886,77.593027,NO2,NA,NA,NA
India,Andhra_Pradesh,Anantapur,"Gulzarpet, Anantapur - APPCB",29-01-2024 17:00:00,14.675886,77.593027,OZONE,8,59,42
India,Andhra_Pradesh,Chittoor,"Gangineni Cheruvu, Chittoor - APPCB",29-01-2024 17:00:00,13.204880,79.097889,PM10,35,81,51
India,Andhra_Pradesh,Chittoor,"Gangineni Cheruvu, Chittoor - APPCB",29-01-2024 17:00:00,13.204880,79.097889,NO2,2,26,12
India,Andhra_Pradesh,Kadapa,"Yerramukkapalli, Kadapa - APPCB",29-01-2024 17:00:00,14.465052,78.824187,NO2,8,9,8
India,Andhra_Pradesh,Kadapa,"Yerramukkapalli, Kadapa - APPCB",29-01-2024 17:00:00,14.465052,78.824187,OZONE,18,55,46
India,Andhra_Pradesh,Rajamahendravaram,"Anand Kala Kshetram, Rajamahendravaram - APPCB",29-01-2024 17:00:00,16.9872867,81.7363176,PM10,NA,NA,NA
India,Andhra_Pradesh,Rajamahendravaram,"Anand Kala Kshetram, Rajamahendravaram - APPCB",29-01-2024 17:00:00,16.9872867,81.7363176,NO2,NA,NA,NA
India,Andhra_Pradesh,Rajamahendravaram,"Anand Kala Kshetram, Rajamahendravaram - APPCB",29-01-2024 17:00:00,16.9872867,81.7363176,NH3,NA,NA,NA
India,Andhra_Pradesh,Rajamahendravaram,"Anand Kala Kshetram, Rajamahendravaram - APPCB",29-01-2024 17:00:00,16.9872867,81.7363176,CO,4,8,8
India,Andhra_Pradesh,Tirupati,"Tirumala, Tirupati - APPCB",29-01-2024 17:00:00,13.67,79.35,NH3,1,2,2
India,Andhra_Pradesh,Tirupati,"Tirumala, Tirupati - APPCB",29-01-2024 17:00:00,13.67,79.35,SO2,1,16,6
India,Andhra_Pradesh,Vijayawada,"Rajiv Gandhi Park, Vijayawada - APPCB",29-01-2024 17:00:00,16.509717,80.612222,SO2,NA,NA,NA
India,Andhra_Pradesh,Visakhapatnam,"GVM Corporation, Visakhapatnam - APPCB",29-01-2024 17:00:00,17.72,83.3,NO2,NA,NA,NA
India,Andhra_Pradesh,Visakhapatnam,"GVM Corporation, Visakhapatnam - APPCB",29-01-2024 17:00:00,17.72,83.3,OZONE,8,83,50
India,Arunachal_Pradesh,Naharlagun,"Naharlagun, Naharlagun - APSPCB",29-01-2024 17:00:00,27.103358,93.679645,SO2,3,3,3
India,Assam,Guwahati,"IITG, Guwahati - PCBA",29-01-2024 17:00:00,26.2028636,91.70046436,PM2.5,NA,NA,NA
India,Assam,Guwahati,"IITG, Guwahati - PCBA",29-01-2024 17:00:00,26.2028636,91.70046436,SO2,NA,NA,NA
India,Assam,Guwahati,"LGBI Airport, Guwahati - PCBA",29-01-2024 17:00:00,26.10887,91.589544,SO2,11,15,13
India,Assam,Guwahati,"LGBI Airport, Guwahati - PCBA",29-01-2024 17:00:00,26.10887,91.589544,CO,57,76,63
India,Assam,Guwahati,"Pan Bazaar, Guwahati - PCBA",29-01-2024 17:00:00,26.187500,91.744194,CO,22,108,40
India,Assam,Guwahati,"Pan Bazaar, Guwahati - PCBA",29-01-2024 17:00:00,26.187500,91.744194,OZONE,16,29,19
India,Assam,Nagaon,"Christianpatty, Nagaon - PCBA",29-01-2024 17:00:00,26.349082,92.68449,NH3,2,9,4
India,Assam,Nagaon,"Christianpatty, Nagaon - PCBA",29-01-2024 17:00:00,26.349082,92.68449,OZONE,3,81,56
India,Assam,Nalbari,"Bata Chowk, Nalbari - PCBA",29-01-2024 17:00:00,26.446912,91.439057,PM2.5,60,453,216
India,Assam,Nalbari,"Bata Chowk, Nalbari - PCBA",29-01-2024 17:00:00,26.446912,91.439057,CO,8,147,34
India,Assam,Silchar,"Tarapur, Silchar - PCBA",29-01-2024 17:00:00,24.82827,92.79525,PM2.5,NA,NA,NA
India,Assam,Sivasagar,"Girls College, Sivasagar - PCBA",29-01-2024 17:00:00,26.987634,94.636574,PM10,29,84,56
India,Bihar,Arrah,"New DM Office, Arrah - BSPCB",29-01-2024 17:00:00,25.5626095,84.663264,NH3,6,8,7
India,Bihar,Aurangabad,"Gurdeo Nagar, Aurangabad - BSPCB",29-01-2024 17:00:00,24.75746,84.366208,NH3,6,9,8
India,Bihar,Bettiah,"Kamalnath Nagar, Bettiah - BSPCB",29-01-2024 17:00:00,26.80365,84.51954,PM2.5,NA,NA,NA
India,Bihar,Bettiah,"Kamalnath Nagar, Bettiah - BSPCB",29-01-2024 17:00:00,26.80365,84.51954,NO2,NA,NA,NA
India,Bihar,Bhagalpur,"DM Office_Kachari Chowk, Bhagalpur - BSPCB",29-01-2024 17:00:00,25.251013,86.989001,PM2.5,310,500,412
India,Bihar,Bhagalpur,"DM Office_Kachari Chowk, Bhagalpur - BSPCB",29-01-2024 17:00:00,25.251013,86.989001,NO2,49,151,68
India,Bihar,Bhagalpur,"DM Office_Kachari Chowk, Bhagalpur - BSPCB",29-01-2024 17:00:00,25.251013,86.989001,NH3,4,5,4
India,Bihar,Bhagalpur,"DM Office_Kachari Chowk, Bhagalpur - BSPCB",29-01-2024 17:00:00,25.251013,86.989001,SO2,6,46,29
India,Bihar,Bhagalpur,"Mayaganj, Bhagalpur - BSPCB",29-01-2024 17:00:00,25.265194,87.012947,PM2.5,315,493,406
India,Bihar,Bihar Sharif,"D M Colony, Bihar Sharif - BSPCB",29-01-2024 17:00:00,25.204762,85.514960,SO2,3,14,7
India,Bihar,Bihar Sharif,"D M Colony, Bihar Sharif - BSPCB",29-01-2024 17:00:00,25.204762,85.514960,CO,12,61,32
India,Bihar,Chhapra,"Darshan Nagar, Chhapra - BSPCB",29-01-2024 17:00:00,25.7808257,84.7446768,NO2,14,36,21
India,Bihar,Gaya,"Collectorate, Gaya - BSPCB",29-01-2024 17:00:00,24.7955,84.9994,NO2,18,25,20
India,Bihar,Gaya,"Kareemganj, Gaya - BSPCB",29-01-2024 17:00:00,24.792403,84.992416,PM2.5,15,95,56
India,Bihar,Gaya,"SFTI Kusdihra, Gaya - BSPCB",29-01-2024 17:00:00,24.762518,84.982348,CO,40,92,63
India,Bihar,Hajipur,"Industrial Area, Hajipur - BSPCB",29-01-2024 17:00:00,25.697189,85.245900,NH3,7,11,9
India,Bihar,Katihar,"Mirchaibari, Katihar - BSPCB",29-01-2024 17:00:00,25.560083,87.553265,PM2.5,120,398,240
India,Bihar,Katihar,"Mirchaibari, Katihar - BSPCB",29-01-2024 17:00:00,25.560083,87.553265,NO2,19,61,28
India,Bihar,Katihar,"Mirchaibari, Katihar - BSPCB",29-01-2024 17:00:00,25.560083,87.553265,CO,20,23,21
India,Bihar,Manguraha,"Forest Rest House, Manguraha - BSPCB",29-01-2024 17:00:00,27.308328,84.531742,PM2.5,100,318,176
India,Bihar,Motihari,"Gandak Colony, Motihari - BSPCB",29-01-2024 17:00:00,26.63086,84.90051,PM2.5,87,342,188
India,Bihar,Motihari,"Gandak Colony, Motihari - BSPCB",29-01-2024 17:00:00,26.63086,84.90051,CO,22,90,34
India,Bihar,Munger,"Town Hall, Munger - BSPCB",29-01-2024 17:00:00,25.376776,86.471523,PM10,86,253,162
India,Bihar,Munger,"Town Hall, Munger - BSPCB",29-01-2024 17:00:00,25.376776,86.471523,OZONE,9,14,11
India,Bihar,Muzaffarpur,"Buddha Colony, Muzaffarpur - BSPCB",29-01-2024 17:00:00,26.11442,85.39813,SO2,7,13,10
India,Bihar,Muzaffarpur,"MIT-Daudpur Kothi, Muzaffarpur - BSPCB",29-01-2024 17:00:00,26.1403345,85.3650192,SO2,9,14,10
India,Bihar,Muzaffarpur,"Muzaffarpur Collectorate, Muzaffarpur - BSPCB",29-01-2024 17:00:00,26.1209,85.3647,SO2,6,14,7
India,Bihar,Patna,"Govt. High School Shikarpur, Patna - BSPCB",29-01-2024 17:00:00,25.592539,85.227158,NO2,23,35,27
India,Bihar,Patna,"Muradpur, Patna - BSPCB",29-01-2024 17:00:00,25.619651,85.147382,PM2.5,274,380,325
India,Bihar,Patna,"Samanpura, Patna - BSPCB",29-01-2024 17:00:00,25.596727,85.085624,SO2,16,17,16
India,Bihar,Patna,"Samanpura, Patna - BSPCB",29-01-2024 17:00:00,25.596727,85.085624,CO,88,136,118
India,Bihar,Purnia,"Mariam Nagar, Purnia - BSPCB",29-01-2024 17:00:00,25.366336,87.117468,NO2,NA,NA,NA
India,Bihar,Purnia,"Mariam Nagar, Purnia - BSPCB",29-01-2024 17:00:00,25.366336,87.117468,OZONE,18,49,34
India,Bihar,Rajgir,"Dangi Tola, Rajgir - BSPCB",29-01-2024 17:00:00,25.03280,85.41948,PM2.5,227,373,328
India,Bihar,Saharsa,"Police Line, Saharsa - BSPCB",29-01-2024 17:00:00,25.892357,86.590325,CO,6,88,23
India,Bihar,Samastipur,"DM Office_Kasipur, Samastipur - BSPCB",29-01-2024 17:00:00,25.859655,85.77944,PM10,118,351,208
India,Bihar,Samastipur,"DM Office_Kasipur, Samastipur - BSPCB",29-01-2024 17:00:00,25.859655,85.77944,NO2,2,7,5
India,Bihar,Sasaram,"Dada Peer, Sasaram - BSPCB",29-01-2024 17:00:00,24.952822,84.002396,SO2,20,23,22
India,Bihar,Sasaram,"Dada Peer, Sasaram - BSPCB",29-01-2024 17:00:00,24.952822,84.002396,OZONE,4,5,4
India,Chandigarh,Chandigarh,"Sector 22, Chandigarh - CPCC",29-01-2024 17:00:00,30.735567,76.775714,SO2,3,34,16
India,Chandigarh,Chandigarh,"Sector-25, Chandigarh - CPCC",29-01-2024 17:00:00,30.751462,76.762879,PM10,137,215,179
India,Chandigarh,Chandigarh,"Sector-53, Chandigarh - CPCC",29-01-2024 17:00:00,30.719859,76.738637,PM2.5,250,428,348
India,Chandigarh,Chandigarh,"Sector-53, Chandigarh - CPCC",29-01-2024 17:00:00,30.719859,76.738637,PM10,139,376,226
India,Chandigarh,Chandigarh,"Sector-53, Chandigarh - CPCC",29-01-2024 17:00:00,30.719859,76.738637,NH3,5,9,7
India,Chhattisgarh,Bhilai,"32Bungalows, Bhilai - CECB",29-01-2024 17:00:00,21.194815,81.314770,NO2,19,32,26
India,Chhattisgarh,Bhilai,"Hathkhoj, Bhilai - CECB",29-01-2024 17:00:00,21.224231,81.408350,PM2.5,56,172,98
India,Chhattisgarh,Chhal,"Nawapara SECL Colony, Chhal - CECB",29-01-2024 17:00:00,22.118125,83.140608,CO,55,103,78
India,Chhattisgarh,Chhal,"Nawapara SECL Colony, Chhal - CECB",29-01-2024 17:00:00,22.118125,83.140608,OZONE,3,88,56
India,Chhattisgarh,Korba,"Urja Nagar, Korba - CECB",29-01-2024 17:00:00,22.348441,82.549611,CO,18,82,34
India,Chhattisgarh,Milupara,"Govt. Higher Secondary School, Milupara - CECB",29-01-2024 17:00:00,22.1910172,83.5197009,CO,34,54,44
India,Chhattisgarh,Raipur,"Bhatagaon New ISBT, Raipur - CECB",29-01-2024 17:00:00,21.219665,81.630094,PM2.5,38,145,78
India,Chhattisgarh,Tumidih,"OP Jindal Industrial Park, Tumidih - CECB",29-01-2024 17:00:00,22.06631475,83.33820077,NH3,2,3,2
India,Chhattisgarh,Tumidih,"OP Jindal Industrial Park, Tumidih - CECB",29-01-2024 17:00:00,22.06631475,83.33820077,CO,30,84,48
India,Delhi,Delhi,"Alipur, Delhi - DPCC",29-01-2024 17:00:00,28.815329,77.153010,NH3,11,18,13
India,Delhi,Delhi,"Alipur, Delhi - DPCC",29-01-2024 17:00:00,28.815329,77.153010,CO,60,90,76
India,Delhi,Delhi,"Anand Vihar, Delhi - DPCC",29-01-2024 17:00:00,28.647622,77.3158090,PM10,210,405,286
India,Delhi,Delhi,"Ashok Vihar, Delhi - DPCC",29-01-2024 17:00:00,28.695381,77.181665,PM2.5,306,396,354
India,Delhi,Delhi,"Ashok Vihar, Delhi - DPCC",29-01-2024 17:00:00,28.695381,77.181665,SO2,19,27,23
India,Delhi,Delhi,"Bawana, Delhi - DPCC",29-01-2024 17:00:00,28.776200,77.051074,PM10,253,422,352
India,Delhi,Delhi,"Bawana, Delhi - DPCC",29-01-2024 17:00:00,28.776200,77.051074,SO2,7,13,9
India,Delhi,Delhi,"Burari Crossing, Delhi - IMD",29-01-2024 17:00:00,28.7256504,77.2011573,NO2,4,17,9
India,Delhi,Delhi,"CRRI Mathura Road, Delhi - IMD",29-01-2024 17:00:00,28.5512005,77.2735737,PM10,129,220,175
India,Delhi,Delhi,"Dr. Karni Singh Shooting Range, Delhi - DPCC",29-01-2024 17:00:00,28.498571,77.264840,PM2.5,314,413,363
India,Delhi,Delhi,"Dwarka-Sector 8, Delhi - DPCC ",29-01-2024 17:00:00,28.5710274,77.0719006,PM10,204,414,291
India,Delhi,Delhi,"Dwarka-Sector 8, Delhi - DPCC ",29-01-2024 17:00:00,28.5710274,77.0719006,SO2,3,9,6
India,Delhi,Delhi,"Dwarka-Sector 8, Delhi - DPCC ",29-01-2024 17:00:00,28.5710274,77.0719006,OZONE,2,47,20
India,Delhi,Delhi,"IGI Airport (T3), Delhi - IMD",29-01-2024 17:00:00,28.5627763,77.1180053,CO,32,96,48
India,Delhi,Delhi,"IHBAS, Dilshad Garden, Delhi - CPCB",29-01-2024 17:00:00,28.6811736,77.3025234,CO,26,92,73
India,Delhi,Delhi,"Jahangirpuri, Delhi - DPCC",29-01-2024 17:00:00,28.732820,77.170633,NO2,62,106,80
India,Delhi,Delhi,"Jawaharlal Nehru Stadium, Delhi - DPCC",29-01-2024 17:00:00,28.580280,77.233829,SO2,1,11,5
India,Delhi,Delhi,"Jawaharlal Nehru Stadium, Delhi - DPCC",29-01-2024 17:00:00,28.580280,77.233829,CO,66,101,84
India,Delhi,Delhi,"Lodhi Road, Delhi - IITM",29-01-2024 17:00:00,28.588333,77.221667,PM10,84,396,151
India,Delhi,Delhi,"Lodhi Road, Delhi - IITM",29-01-2024 17:00:00,28.588333,77.221667,SO2,12,27,22
India,Delhi,Delhi,"Lodhi Road, Delhi - IITM",29-01-2024 17:00:00,28.588333,77.221667,OZONE,15,16,16
India,Delhi,Delhi,"Lodhi Road, Delhi - IMD",29-01-2024 17:00:00,28.5918245,77.2273074,OZONE,11,76,35
India,Delhi,Delhi,"Mandir Marg, Delhi - DPCC",29-01-2024 17:00:00,28.636429,77.201067,CO,16,70,65
India,Delhi,Delhi,"Mandir Marg, Delhi - DPCC",29-01-2024 17:00:00,28.636429,77.201067,OZONE,1,13,7
India,Delhi,Delhi,"Mundka, Delhi - DPCC",29-01-2024 17:00:00,28.684678,77.076574,PM2.5,345,463,393
India,Delhi,Delhi,"NSIT Dwarka, Delhi - CPCB",29-01-2024 17:00:00,28.60909,77.0325413,PM10,195,410,265
India,Delhi,Delhi,"NSIT Dwarka, Delhi - CPCB",29-01-2024 17:00:00,28.60909,77.0325413,SO2,5,18,13
India,Delhi,Delhi,"NSIT Dwarka, Delhi - CPCB",29-01-2024 17:00:00,28.60909,77.0325413,CO,33,104,72
India,Delhi,Delhi,"NSIT Dwarka, Delhi - CPCB",29-01-2024 17:00:00,28.60909,77.0325413,OZONE,17,69,35
India,Delhi,Delhi,"Najafgarh, Delhi - DPCC",29-01-2024 17:00:00,28.570173,76.933762,SO2,8,13,11
India,Delhi,Delhi,"Narela, Delhi - DPCC",29-01-2024 17:00:00,28.822836,77.101981,OZONE,6,217,217
India,Delhi,Delhi,"Nehru Nagar, Delhi - DPCC",29-01-2024 17:00:00,28.567890,77.250515,OZONE,2,90,42
India,Delhi,Delhi,"New Moti Bagh, Delhi - MHUA",29-01-2024 17:00:00,28.57834,77.18400,NO2,1,6,4
India,Delhi,Delhi,"North Campus, DU, Delhi - IMD",29-01-2024 17:00:00,28.6573814,77.1585447,PM2.5,NA,NA,NA
India,Delhi,Delhi,"Okhla Phase-2, Delhi - DPCC",29-01-2024 17:00:00,28.530785,77.271255,NH3,14,25,21
India,Delhi,Delhi,"Patparganj, Delhi - DPCC",29-01-2024 17:00:00,28.623763,77.287209,NO2,41,74,50
India,Delhi,Delhi,"Punjabi Bagh, Delhi - DPCC",29-01-2024 17:00:00,28.674045,77.131023,NH3,7,8,8
India,Delhi,Delhi,"Pusa, Delhi - DPCC",29-01-2024 17:00:00,28.639652,77.146275,PM10,201,423,297
India,Delhi,Delhi,"Pusa, Delhi - DPCC",29-01-2024 17:00:00,28.639652,77.146275,NO2,103,405,181
India,Delhi,Delhi,"R K Puram, Delhi - DPCC",29-01-2024 17:00:00,28.563262,77.186937,NH3,6,11,9
India,Delhi,Delhi,"R K Puram, Delhi - DPCC",29-01-2024 17:00:00,28.563262,77.186937,CO,76,111,100
India,Delhi,Delhi,"Rohini, Delhi - DPCC",29-01-2024 17:00:00,28.732528,77.119920,NO2,46,95,69
India,Delhi,Delhi,"Rohini, Delhi - DPCC",29-01-2024 17:00:00,28.732528,77.119920,OZONE,2,119,41
India,Delhi,Delhi,"Shadipur, Delhi - CPCB",29-01-2024 17:00:00,28.6514781,77.1473105,PM2.5,299,466,374
India,Delhi,Delhi,"Shadipur, Delhi - CPCB",29-01-2024 17:00:00,28.6514781,77.1473105,NH3,11,23,16
India,Delhi,Delhi,"Sonia Vihar, Delhi - DPCC",29-01-2024 17:00:00,28.710508,77.249485,PM2.5,342,449,399
India,Delhi,Delhi,"Sonia Vihar, Delhi - DPCC",29-01-2024 17:00:00,28.710508,77.249485,NO2,51,102,73
India,Delhi,Delhi,"Sri Aurobindo Marg, Delhi - DPCC",29-01-2024 17:00:00,28.531346,77.190156,CO,46,78,56
India,Delhi,Delhi,"Vivek Vihar, Delhi - DPCC",29-01-2024 17:00:00,28.672342,77.315260,NO2,47,102,69
India,Delhi,Delhi,"Vivek Vihar, Delhi - DPCC",29-01-2024 17:00:00,28.672342,77.315260,SO2,8,8,8
India,Delhi,Delhi,"Vivek Vihar, Delhi - DPCC",29-01-2024 17:00:00,28.672342,77.315260,CO,53,102,79
India,Delhi,Delhi,"Wazirpur, Delhi - DPCC",29-01-2024 17:00:00,28.699793,77.165453,OZONE,3,77,29
India,Gujarat,Ahmedabad,"Chandkheda, Ahmedabad - IITM",29-01-2024 17:00:00,23.107969,72.574648,PM2.5,59,364,150
India,Gujarat,Ahmedabad,"Chandkheda, Ahmedabad - IITM",29-01-2024 17:00:00,23.107969,72.574648,SO2,8,25,12
India,Gujarat,Ahmedabad,"Gyaspur, Ahmedabad - IITM",29-01-2024 17:00:00,22.977134,72.553024,PM2.5,57,307,118
India,Gujarat,Ahmedabad,"Gyaspur, Ahmedabad - IITM",29-01-2024 17:00:00,22.977134,72.553024,NO2,15,21,18
India,Gujarat,Ahmedabad,"Gyaspur, Ahmedabad - IITM",29-01-2024 17:00:00,22.977134,72.553024,NH3,3,4,4
India,Gujarat,Ahmedabad,"Maninagar, Ahmedabad - GPCB",29-01-2024 17:00:00,23.002657,72.591912,NO2,14,167,72
India,Gujarat,Ahmedabad,"Raikhad, Ahmedabad - IITM",29-01-2024 17:00:00,23.020509,72.579261,PM2.5,NA,NA,NA
India,Gujarat,Ahmedabad,"Raikhad, Ahmedabad - IITM",29-01-2024 17:00:00,23.020509,72.579261,PM10,NA,NA,NA
India,Gujarat,Ahmedabad,"Raikhad, Ahmedabad - IITM",29-01-2024 17:00:00,23.020509,72.579261,CO,8,121,46
India,Gujarat,Ahmedabad,"SAC ISRO Bopal, Ahmedabad - IITM",29-01-2024 17:00:00,23.041137,72.456691,PM10,49,163,104
India,Gujarat,Ahmedabad,"SAC ISRO Bopal, Ahmedabad - IITM",29-01-2024 17:00:00,23.041137,72.456691,NO2,13,18,15
India,Gujarat,Ahmedabad,"SAC ISRO Satellite, Ahmedabad - IITM",29-01-2024 17:00:00,23.023389,72.515201,NO2,17,20,18
India,Gujarat,Ahmedabad,"SAC ISRO Satellite, Ahmedabad - IITM",29-01-2024 17:00:00,23.023389,72.515201,NH3,5,5,5
India,Gujarat,Ahmedabad,"SAC ISRO Satellite, Ahmedabad - IITM",29-01-2024 17:00:00,23.023389,72.515201,CO,26,49,41
India,Gujarat,Ahmedabad,"SAC ISRO Satellite, Ahmedabad - IITM",29-01-2024 17:00:00,23.023389,72.515201,OZONE,2,18,14
India,Gujarat,Ahmedabad,"SVPI Airport Hansol, Ahmedabad - IITM",29-01-2024 17:00:00,23.076793,72.627874,PM2.5,76,325,148
India,Gujarat,Ahmedabad,"SVPI Airport Hansol, Ahmedabad - IITM",29-01-2024 17:00:00,23.076793,72.627874,NO2,12,14,13
India,Gujarat,Ahmedabad,"SVPI Airport Hansol, Ahmedabad - IITM",29-01-2024 17:00:00,23.076793,72.627874,NH3,3,4,3
India,Gujarat,Ahmedabad,"Sardar Vallabhbhai Patel Stadium, Ahmedabad - IITM",29-01-2024 17:00:00,23.043070,72.562968,NH3,3,3,3
India,Gujarat,Gandhinagar,"GIFT City, Gandhinagar - IITM",29-01-2024 17:00:00,23.163798,72.677768,PM2.5,83,354,237
India,Gujarat,Gandhinagar,"IIPHG Lekawada, Gandhinagar - IITM",29-01-2024 17:00:00,23.243639,72.68994,OZONE,9,19,11
India,Gujarat,Gandhinagar,"Sector-10, Gandhinagar - GPCB",29-01-2024 17:00:00,23.221714,72.654328,NH3,1,2,2
India,Gujarat,Gandhinagar,"Sector-10, Gandhinagar - GPCB",29-01-2024 17:00:00,23.221714,72.654328,CO,19,20,20
India,Gujarat,Surat,"Science Center, Surat - SMC",29-01-2024 17:00:00,21.170046,72.795405,SO2,17,26,22
India,Gujarat,Vapi,"Phase-1 GIDC, Vapi - GPCB",29-01-2024 17:00:00,20.362421,72.918013,NH3,NA,NA,NA
India,Gujarat,Vapi,"Phase-1 GIDC, Vapi - GPCB",29-01-2024 17:00:00,20.362421,72.918013,OZONE,2,6,3
India,Gujarat,Vatva,"Phase-4 GIDC, Vatva - GPCB",29-01-2024 17:00:00,22.969611,72.643500,PM2.5,54,346,168
India,Haryana,Ambala,"Patti Mehar, Ambala - HSPCB",29-01-2024 17:00:00,30.379589,76.778328,SO2,1,34,8
India,Haryana,Bahadurgarh,"Arya Nagar, Bahadurgarh - HSPCB",29-01-2024 17:00:00,28.6701,76.9254,PM10,151,330,192
India,Haryana,Ballabgarh,"Nathu Colony, Ballabgarh - HSPCB",29-01-2024 17:00:00,28.3419248,77.319699,SO2,2,20,13
India,Haryana,Bhiwani,"H.B. Colony, Bhiwani - HSPCB",29-01-2024 17:00:00,28.806223,76.141105,PM10,116,254,166
India,Haryana,Bhiwani,"H.B. Colony, Bhiwani - HSPCB",29-01-2024 17:00:00,28.806223,76.141105,SO2,5,11,9
India,Haryana,Charkhi Dadri,"Mini Secretariat, Charkhi Dadri - HSPCB",29-01-2024 17:00:00,28.593883,76.270653,NO2,10,16,11
India,Haryana,Charkhi Dadri,"Mini Secretariat, Charkhi Dadri - HSPCB",29-01-2024 17:00:00,28.593883,76.270653,SO2,7,13,10
India,Haryana,Dharuhera,"Municipal Corporation Office, Dharuhera -  HSPCB",29-01-2024 17:00:00,28.206800,76.799700,PM10,149,370,238
India,Haryana,Faridabad,"Sector 11, Faridabad - HSPCB",29-01-2024 17:00:00,28.376058,77.315741,PM2.5,53,177,112
India,Haryana,Faridabad,"Sector 30, Faridabad - HSPCB",29-01-2024 17:00:00,28.4417,77.3217,PM2.5,83,221,147
India,Haryana,Faridabad,"Sector- 16A, Faridabad - HSPCB",29-01-2024 17:00:00,28.4088421,77.3099081,NO2,7,45,21
India,Haryana,Faridabad,"Sector- 16A, Faridabad - HSPCB",29-01-2024 17:00:00,28.4088421,77.3099081,CO,5,44,29
India,Haryana,Fatehabad,"Huda Sector, Fatehabad - HSPCB",29-01-2024 17:00:00,29.503664,75.467934,NO2,29,31,30
India,Haryana,Gurugram,"NISE Gwal Pahari, Gurugram - IMD",29-01-2024 17:00:00,28.422681,77.148944,PM2.5,211,368,302
India,Haryana,Gurugram,"NISE Gwal Pahari, Gurugram - IMD",29-01-2024 17:00:00,28.422681,77.148944,PM10,136,301,200
India,Haryana,Gurugram,"NISE Gwal Pahari, Gurugram - IMD",29-01-2024 17:00:00,28.422681,77.148944,CO,75,102,83
India,Haryana,Gurugram,"Teri Gram, Gurugram - HSPCB",29-01-2024 17:00:00,28.4275,77.1465,OZONE,10,36,36
India,Haryana,Gurugram,"Vikas Sadan, Gurugram - HSPCB",29-01-2024 17:00:00,28.4501238,77.0263051,SO2,17,38,27
India,Haryana,Hisar,"Urban Estate-II, Hisar - HSPCB",29-01-2024 17:00:00,29.140560,75.744941,NH3,3,4,3
India,Haryana,Hisar,"Urban Estate-II, Hisar - HSPCB",29-01-2024 17:00:00,29.140560,75.744941,CO,40,102,62
India,Haryana,Jind,"Police Lines, Jind - HSPCB",29-01-2024 17:00:00,29.307814,76.337619,CO,2,158,58
India,Haryana,Karnal,"Sector-12, Karnal - HSPCB",29-01-2024 17:00:00,29.695300,77.002700,NO2,7,12,10
India,Haryana,Karnal,"Sector-12, Karnal - HSPCB",29-01-2024 17:00:00,29.695300,77.002700,SO2,12,13,12
India,Haryana,Kurukshetra,"Sector-7, Kurukshetra - HSPCB",29-01-2024 17:00:00,29.966942,76.875879,NO2,10,10,10
India,Haryana,Mandikhera,"General Hospital, Mandikhera - HSPCB",29-01-2024 17:00:00,27.9002,76.9938,NO2,16,21,19
India,Haryana,Manesar,"Sector-2 IMT, Manesar - HSPCB",29-01-2024 17:00:00,28.360699,76.936090,PM2.5,159,308,218
India,Haryana,Manesar,"Sector-2 IMT, Manesar - HSPCB",29-01-2024 17:00:00,28.360699,76.936090,PM10,142,225,169
India,Haryana,Manesar,"Sector-2 IMT, Manesar - HSPCB",29-01-2024 17:00:00,28.360699,76.936090,NO2,16,24,21
India,Haryana,Manesar,"Sector-2 IMT, Manesar - HSPCB",29-01-2024 17:00:00,28.360699,76.936090,SO2,24,35,28
India,Haryana,Narnaul,"Shastri Nagar, Narnaul - HSPCB",29-01-2024 17:00:00,28.060249,76.113115,NO2,17,46,32
India,Haryana,Palwal,"Shyam Nagar, Palwal - HSPCB",29-01-2024 17:00:00,28.1485564,77.3320667,NO2,5,5,5
India,Haryana,Sirsa,"F-Block, Sirsa - HSPCB",29-01-2024 17:00:00,29.536400,75.015800,NH3,12,13,13
India,Haryana,Sonipat,"Murthal, Sonipat - HSPCB",29-01-2024 17:00:00,29.027200,77.062100,PM10,164,164,164
India,Haryana,Sonipat,"Murthal, Sonipat - HSPCB",29-01-2024 17:00:00,29.027200,77.062100,CO,14,133,44
India,Haryana,Yamuna Nagar,"Gobind Pura, Yamuna Nagar - HSPCB",29-01-2024 17:00:00,30.1480566,77.2893471,PM2.5,40,295,163
India,Haryana,Yamuna Nagar,"Gobind Pura, Yamuna Nagar - HSPCB",29-01-2024 17:00:00,30.1480566,77.2893471,SO2,2,60,9
India,Haryana,Yamuna Nagar,"Gobind Pura, Yamuna Nagar - HSPCB",29-01-2024 17:00:00,30.1480566,77.2893471,CO,4,104,68
India,Himachal Pradesh,Baddi,"HIMUDA Complex Phase-1, Baddi - HPPCB",29-01-2024 17:00:00,30.943887,76.801991,PM2.5,98,368,270
India,Himachal Pradesh,Baddi,"HIMUDA Complex Phase-1, Baddi - HPPCB",29-01-2024 17:00:00,30.943887,76.801991,PM10,116,405,204
India,Himachal Pradesh,Baddi,"HIMUDA Complex Phase-1, Baddi - HPPCB",29-01-2024 17:00:00,30.943887,76.801991,NH3,5,9,6
India,Jharkhand,Dhanbad,"Sardar Patel Nagar, Dhanbad - JSPCB",29-01-2024 17:00:00,23.80569,86.44268,SO2,10,16,12
India,Karnataka,Bagalkot,"Vidayagiri, Bagalkot - KSPCB",29-01-2024 17:00:00,16.172806,75.659694,SO2,9,10,9
India,Karnataka,Belgaum,"Ramteerth Nagar, Belgaum - KSPCB",29-01-2024 17:00:00,15.888653,74.541751,NH3,33,34,33
India,Karnataka,Bengaluru,"BTM Layout, Bengaluru - CPCB",29-01-2024 17:00:00,12.9135218,77.5950804,NH3,5,5,5
India,Karnataka,Bengaluru,"BTM Layout, Bengaluru - CPCB",29-01-2024 17:00:00,12.9135218,77.5950804,SO2,11,12,12
India,Karnataka,Bengaluru,"BTM Layout, Bengaluru - CPCB",29-01-2024 17:00:00,12.9135218,77.5950804,OZONE,22,28,25
India,Karnataka,Bengaluru,"Bapuji Nagar, Bengaluru - KSPCB",29-01-2024 17:00:00,12.951913,77.539784,SO2,6,7,7
India,Karnataka,Bengaluru,"City Railway Station, Bengaluru - KSPCB",29-01-2024 17:00:00,12.9756843,77.5660749,CO,52,86,66
India,Karnataka,Bengaluru,"Hebbal, Bengaluru - KSPCB",29-01-2024 17:00:00,13.029152,77.585901,PM10,NA,NA,NA
India,Karnataka,Bengaluru,"Hebbal, Bengaluru - KSPCB",29-01-2024 17:00:00,13.029152,77.585901,SO2,NA,NA,NA
India,Karnataka,Bengaluru,"Hebbal, Bengaluru - KSPCB",29-01-2024 17:00:00,13.029152,77.585901,CO,11,37,25
India,Karnataka,Bengaluru,"Hombegowda Nagar, Bengaluru - KSPCB",29-01-2024 17:00:00,12.938539,77.590100,NH3,2,2,2
India,Karnataka,Bengaluru,"Jayanagar 5th Block, Bengaluru - KSPCB",29-01-2024 17:00:00,12.920984,77.584908,NO2,10,13,11
India,Karnataka,Bengaluru,"Jayanagar 5th Block, Bengaluru - KSPCB",29-01-2024 17:00:00,12.920984,77.584908,NH3,2,3,3
India,Karnataka,Bengaluru,"Jayanagar 5th Block, Bengaluru - KSPCB",29-01-2024 17:00:00,12.920984,77.584908,SO2,9,28,16
India,Karnataka,Bengaluru,"Jayanagar 5th Block, Bengaluru - KSPCB",29-01-2024 17:00:00,12.920984,77.584908,CO,5,30,23
India,Karnataka,Bengaluru,"Jigani, Bengaluru - KSPCB",29-01-2024 17:00:00,12.7816279,77.6299145,NO2,36,37,37
India,Karnataka,Bengaluru,"Jigani, Bengaluru - KSPCB",29-01-2024 17:00:00,12.7816279,77.6299145,NH3,4,4,4
India,Karnataka,Bengaluru,"RVCE-Mailasandra, Bengaluru - KSPCB",29-01-2024 17:00:00,12.921418,77.502466,NO2,31,31,31
India,Karnataka,Bengaluru,"Sanegurava Halli, Bengaluru - KSPCB",29-01-2024 17:00:00,12.990328,77.5431385,NO2,NA,NA,NA
India,Karnataka,Bengaluru,"Silk Board, Bengaluru - KSPCB",29-01-2024 17:00:00,12.917348,77.622813,PM2.5,37,68,52
India,Karnataka,Bengaluru,"Silk Board, Bengaluru - KSPCB",29-01-2024 17:00:00,12.917348,77.622813,PM10,53,104,78
India,Karnataka,Bengaluru,"Silk Board, Bengaluru - KSPCB",29-01-2024 17:00:00,12.917348,77.622813,NH3,4,7,5
India,Karnataka,Bengaluru,"Silk Board, Bengaluru - KSPCB",29-01-2024 17:00:00,12.917348,77.622813,CO,1,22,17
India,Karnataka,Bidar,"Naubad, Bidar - KSPCB",29-01-2024 17:00:00,17.930306,77.482194,SO2,15,18,16
India,Karnataka,Bidar,"Naubad, Bidar - KSPCB",29-01-2024 17:00:00,17.930306,77.482194,CO,45,84,58
India,Karnataka,Chamarajanagar,"Urban, Chamarajanagar - KSPCB",29-01-2024 17:00:00,11.55358,76.55521,PM2.5,22,50,33
India,Karnataka,Chamarajanagar,"Urban, Chamarajanagar - KSPCB",29-01-2024 17:00:00,11.55358,76.55521,SO2,2,9,5
India,Karnataka,Chikkaballapur,"Chikkaballapur Rural, Chikkaballapur - KSPCB",29-01-2024 17:00:00,13.428828,77.731418,SO2,17,21,19
India,Karnataka,Chikkamagaluru,"Kalyana Nagara, Chikkamagaluru - KSPCB",29-01-2024 17:00:00,13.328028,75.797056,NO2,16,28,20
India,Karnataka,Davanagere,"Devaraj Urs Badavane, Davanagere - KSPCB",29-01-2024 17:00:00,14.475800,75.905200,PM2.5,22,194,63
India,Karnataka,Dharwad,"Kalabhavan, Dharwad - KSPCB",29-01-2024 17:00:00,15.459706,75.008381,PM10,66,144,108
India,Karnataka,Hassan,"B.Katihalli, Hassan - KSPCB",29-01-2024 17:00:00,13.008556,76.125258,SO2,NA,NA,NA
India,Karnataka,Haveri,"Ashwini Nagar, Haveri - KSPCB",29-01-2024 17:00:00,14.791800,75.389600,PM10,51,127,91
India,Karnataka,Haveri,"Ashwini Nagar, Haveri - KSPCB",29-01-2024 17:00:00,14.791800,75.389600,NH3,3,4,3
India,Karnataka,Haveri,"Ashwini Nagar, Haveri - KSPCB",29-01-2024 17:00:00,14.791800,75.389600,SO2,13,14,14
India,Karnataka,Haveri,"Ashwini Nagar, Haveri - KSPCB",29-01-2024 17:00:00,14.791800,75.389600,CO,33,35,34
India,Karnataka,Hubballi,"Deshpande Nagar, Hubballi - KSPCB",29-01-2024 17:00:00,15.351773,75.140726,PM10,NA,NA,NA
India,Karnataka,Hubballi,"Deshpande Nagar, Hubballi - KSPCB",29-01-2024 17:00:00,15.351773,75.140726,SO2,16,16,16
India,Karnataka,Hubballi,"Lingaraj Nagar, Hubballi - KSPCB",29-01-2024 17:00:00,15.3714823,75.1160168,NH3,2,2,2
India,Karnataka,Kalaburagi,"Lal Bahadur Shastri Nagar, Kalaburagi - KSPCB",29-01-2024 17:00:00,17.321993,76.822628,PM10,9,52,25
India,Karnataka,Kalaburagi,"Mahatma Basaveswar Colony, Kalaburgi - KSPCB",29-01-2024 17:00:00,17.336318,76.847397,NO2,9,27,12
India,Karnataka,Kalaburagi,"Mahatma Basaveswar Colony, Kalaburgi - KSPCB",29-01-2024 17:00:00,17.336318,76.847397,NH3,2,3,2
