country,state,city,station,last_update,latitude,longitude,pollutant_id,pollutant_min,pollutant_max,pollutant_avg
India,Andhra_Pradesh,Chittoor,"Gangineni Cheruvu, Chittoor - APPCB",27-02-2024 00:00:00,13.204880,79.097889,NH3,1,4,2
India,Andhra_Pradesh,Chittoor,"Gangineni Cheruvu, Chittoor - APPCB",27-02-2024 00:00:00,13.204880,79.097889,OZONE,7,91,60
India,Andhra_Pradesh,Kadapa,"Yerramukkapalli, Kadapa - APPCB",27-02-2024 00:00:00,14.465052,78.824187,PM2.5,35,54,44
India,Andhra_Pradesh,Tirupati,"Tirumala, Tirupati - APPCB",27-02-2024 00:00:00,13.67,79.35,PM10,32,57,45
India,Andhra_Pradesh,Tirupati,"Tirumala, Tirupati - APPCB",27-02-2024 00:00:00,13.67,79.35,SO2,3,9,6
India,Andhra_Pradesh,Tirupati,"Tirumala, Tirupati - APPCB",27-02-2024 00:00:00,13.67,79.35,OZONE,15,30,21
India,Andhra_Pradesh,Tirupati,"Vaikuntapuram, Tirupati - APPCB",27-02-2024 00:00:00,13.615387,79.409230,NO2,5,25,18
India,Andhra_Pradesh,Vijayawada,"HB Colony, Vijayawada - APPCB",27-02-2024 00:00:00,16.536107,80.594233,NO2,6,19,11
India,Andhra_Pradesh,Vijayawada,"HB Colony, Vijayawada - APPCB",27-02-2024 00:00:00,16.536107,80.594233,SO2,4,5,4
India,Andhra_Pradesh,Vijayawada,"Kanuru, Vijayawada - APPCB",27-02-2024 00:00:00,16.486692,80.699436,NH3,1,1,1
India,Andhra_Pradesh,Vijayawada,"Kanuru, Vijayawada - APPCB",27-02-2024 00:00:00,16.486692,80.699436,CO,48,48,48
India,Andhra_Pradesh,Vijayawada,"Kanuru, Vijayawada - APPCB",27-02-2024 00:00:00,16.486692,80.699436,OZONE,25,25,25
India,Andhra_Pradesh,Vijayawada,"Rajiv Gandhi Park, Vijayawada - APPCB",27-02-2024 00:00:00,16.509717,80.612222,NO2,2,62,26
India,Andhra_Pradesh,Vijayawada,"Rajiv Nagar, Vijayawada - APPCB",27-02-2024 00:00:00,16.554731,80.649110,NH3,1,2,1
India,Andhra_Pradesh,Vijayawada,"Rajiv Nagar, Vijayawada - APPCB",27-02-2024 00:00:00,16.554731,80.649110,CO,25,162,25
India,Andhra_Pradesh,Visakhapatnam,"GVM Corporation, Visakhapatnam - APPCB",27-02-2024 00:00:00,17.72,83.3,PM2.5,53,93,67
India,Andhra_Pradesh,Visakhapatnam,"GVM Corporation, Visakhapatnam - APPCB",27-02-2024 00:00:00,17.72,83.3,CO,11,67,21
India,Arunachal_Pradesh,Naharlagun,"Naharlagun, Naharlagun - APSPCB",27-02-2024 00:00:00,27.103358,93.679645,PM2.5,9,145,61
India,Assam,Byrnihat,"Central Academy for SFS, Byrnihat - PCBA",27-02-2024 00:00:00,26.071318,91.87488,PM10,53,500,255
India,Assam,Guwahati,"IITG, Guwahati - PCBA",27-02-2024 00:00:00,26.2028636,91.70046436,PM2.5,78,290,140
India,Assam,Guwahati,"IITG, Guwahati - PCBA",27-02-2024 00:00:00,26.2028636,91.70046436,PM10,88,248,140
India,Assam,Guwahati,"IITG, Guwahati - PCBA",27-02-2024 00:00:00,26.2028636,91.70046436,NH3,5,5,5
India,Assam,Nagaon,"Christianpatty, Nagaon - PCBA",27-02-2024 00:00:00,26.349082,92.68449,PM2.5,33,315,98
India,Assam,Nagaon,"Christianpatty, Nagaon - PCBA",27-02-2024 00:00:00,26.349082,92.68449,PM10,38,217,92
India,Assam,Nagaon,"Christianpatty, Nagaon - PCBA",27-02-2024 00:00:00,26.349082,92.68449,NO2,10,87,30
India,Assam,Nagaon,"Christianpatty, Nagaon - PCBA",27-02-2024 00:00:00,26.349082,92.68449,SO2,3,17,9
India,Assam,Nalbari,"Bata Chowk, Nalbari - PCBA",27-02-2024 00:00:00,26.446912,91.439057,PM2.5,55,414,175
India,Assam,Silchar,"Tarapur, Silchar - PCBA",27-02-2024 00:00:00,24.82827,92.79525,PM2.5,40,64,50
India,Assam,Silchar,"Tarapur, Silchar - PCBA",27-02-2024 00:00:00,24.82827,92.79525,NH3,1,1,1
India,Assam,Sivasagar,"Girls College, Sivasagar - PCBA",27-02-2024 00:00:00,26.987634,94.636574,PM10,21,99,37
India,Assam,Sivasagar,"Girls College, Sivasagar - PCBA",27-02-2024 00:00:00,26.987634,94.636574,NH3,3,3,3
India,Bihar,Araria,"Kharahiya Basti, Araria - BSPCB",27-02-2024 00:00:00,26.146529,87.454184,PM2.5,93,438,301
India,Bihar,Araria,"Kharahiya Basti, Araria - BSPCB",27-02-2024 00:00:00,26.146529,87.454184,CO,18,30,20
India,Bihar,Arrah,"New DM Office, Arrah - BSPCB",27-02-2024 00:00:00,25.5626095,84.663264,NO2,8,59,26
India,Bihar,Aurangabad,"Gurdeo Nagar, Aurangabad - BSPCB",27-02-2024 00:00:00,24.75746,84.366208,OZONE,4,63,28
India,Bihar,Bettiah,"Kamalnath Nagar, Bettiah - BSPCB",27-02-2024 00:00:00,26.80365,84.51954,NH3,3,3,3
India,Bihar,Bhagalpur,"DM Office_Kachari Chowk, Bhagalpur - BSPCB",27-02-2024 00:00:00,25.251013,86.989001,PM2.5,70,416,218
India,Bihar,Bhagalpur,"Mayaganj, Bhagalpur - BSPCB",27-02-2024 00:00:00,25.265194,87.012947,NO2,5,20,9
India,Bihar,Bhagalpur,"Mayaganj, Bhagalpur - BSPCB",27-02-2024 00:00:00,25.265194,87.012947,NH3,6,9,7
India,Bihar,Bihar Sharif,"D M Colony, Bihar Sharif - BSPCB",27-02-2024 00:00:00,25.204762,85.514960,NH3,2,2,2
India,Bihar,Bihar Sharif,"D M Colony, Bihar Sharif - BSPCB",27-02-2024 00:00:00,25.204762,85.514960,SO2,3,17,7
India,Bihar,Buxar,"Charitra Van, Buxar - BSPCB (Formerly known as Central Jail)",27-02-2024 00:00:00,25.567520,83.966379,SO2,13,18,17
India,Bihar,Chhapra,"Darshan Nagar, Chhapra - BSPCB",27-02-2024 00:00:00,25.7808257,84.7446768,OZONE,1,47,16
India,Bihar,Gaya,"Collectorate, Gaya - BSPCB",27-02-2024 00:00:00,24.7955,84.9994,PM2.5,40,352,191
India,Bihar,Gaya,"Collectorate, Gaya - BSPCB",27-02-2024 00:00:00,24.7955,84.9994,SO2,4,22,12
India,Bihar,Gaya,"Kareemganj, Gaya - BSPCB",27-02-2024 00:00:00,24.792403,84.992416,PM2.5,7,321,101
India,Bihar,Gaya,"Kareemganj, Gaya - BSPCB",27-02-2024 00:00:00,24.792403,84.992416,PM10,39,293,127
India,Bihar,Gaya,"Kareemganj, Gaya - BSPCB",27-02-2024 00:00:00,24.792403,84.992416,SO2,6,10,7
India,Bihar,Gaya,"Kareemganj, Gaya - BSPCB",27-02-2024 00:00:00,24.792403,84.992416,CO,10,106,59
India,Bihar,Gaya,"Kareemganj, Gaya - BSPCB",27-02-2024 00:00:00,24.792403,84.992416,OZONE,1,39,13
India,Bihar,Hajipur,"Industrial Area, Hajipur - BSPCB",27-02-2024 00:00:00,25.697189,85.245900,NO2,32,67,45
India,Bihar,Kishanganj,"SDM Office_Khagra, Kishanganj - BSPCB",27-02-2024 00:00:00,26.0881305,87.93840336,PM2.5,25,392,126
India,Bihar,Kishanganj,"SDM Office_Khagra, Kishanganj - BSPCB",27-02-2024 00:00:00,26.0881305,87.93840336,NO2,36,46,41
India,Bihar,Kishanganj,"SDM Office_Khagra, Kishanganj - BSPCB",27-02-2024 00:00:00,26.0881305,87.93840336,SO2,30,49,37
India,Bihar,Kishanganj,"SDM Office_Khagra, Kishanganj - BSPCB",27-02-2024 00:00:00,26.0881305,87.93840336,CO,3,26,14
India,Bihar,Kishanganj,"SDM Office_Khagra, Kishanganj - BSPCB",27-02-2024 00:00:00,26.0881305,87.93840336,OZONE,20,35,34
India,Bihar,Manguraha,"Forest Rest House, Manguraha - BSPCB",27-02-2024 00:00:00,27.308328,84.531742,PM10,29,258,87
India,Bihar,Manguraha,"Forest Rest House, Manguraha - BSPCB",27-02-2024 00:00:00,27.308328,84.531742,NO2,3,13,9
India,Bihar,Motihari,"Gandak Colony, Motihari - BSPCB",27-02-2024 00:00:00,26.63086,84.90051,PM2.5,45,290,129
India,Bihar,Muzaffarpur,"Buddha Colony, Muzaffarpur - BSPCB",27-02-2024 00:00:00,26.11442,85.39813,CO,12,108,54
India,Bihar,Muzaffarpur,"Buddha Colony, Muzaffarpur - BSPCB",27-02-2024 00:00:00,26.11442,85.39813,OZONE,39,80,56
India,Bihar,Muzaffarpur,"MIT-Daudpur Kothi, Muzaffarpur - BSPCB",27-02-2024 00:00:00,26.1403345,85.3650192,CO,3,110,81
India,Bihar,Muzaffarpur,"Muzaffarpur Collectorate, Muzaffarpur - BSPCB",27-02-2024 00:00:00,26.1209,85.3647,OZONE,16,82,47
India,Bihar,Patna,"DRM Office Danapur, Patna - BSPCB",27-02-2024 00:00:00,25.586562,85.043586,NH3,3,4,3
India,Bihar,Patna,"DRM Office Danapur, Patna - BSPCB",27-02-2024 00:00:00,25.586562,85.043586,CO,30,110,81
India,Bihar,Patna,"Govt. High School Shikarpur, Patna - BSPCB",27-02-2024 00:00:00,25.592539,85.227158,SO2,1,3,2
India,Bihar,Patna,"Govt. High School Shikarpur, Patna - BSPCB",27-02-2024 00:00:00,25.592539,85.227158,CO,24,84,41
India,Bihar,Patna,"IGSC Planetarium Complex, Patna - BSPCB",27-02-2024 00:00:00,25.610369,85.132568,CO,14,19,16
India,Bihar,Patna,"Muradpur, Patna - BSPCB",27-02-2024 00:00:00,25.619651,85.147382,PM2.5,83,374,225
India,Bihar,Patna,"Muradpur, Patna - BSPCB",27-02-2024 00:00:00,25.619651,85.147382,PM10,149,500,286
India,Bihar,Patna,"Muradpur, Patna - BSPCB",27-02-2024 00:00:00,25.619651,85.147382,NO2,2,16,6
India,Bihar,Patna,"Muradpur, Patna - BSPCB",27-02-2024 00:00:00,25.619651,85.147382,NH3,2,4,3
India,Bihar,Patna,"Rajbansi Nagar, Patna - BSPCB",27-02-2024 00:00:00,25.599486,85.113666,NH3,1,3,2
India,Bihar,Patna,"Samanpura, Patna - BSPCB",27-02-2024 00:00:00,25.596727,85.085624,PM2.5,220,407,332
India,Bihar,Patna,"Samanpura, Patna - BSPCB",27-02-2024 00:00:00,25.596727,85.085624,SO2,15,16,16
India,Bihar,Patna,"Samanpura, Patna - BSPCB",27-02-2024 00:00:00,25.596727,85.085624,CO,38,126,79
India,Bihar,Patna,"Samanpura, Patna - BSPCB",27-02-2024 00:00:00,25.596727,85.085624,OZONE,1,47,30
India,Bihar,Purnia,"Mariam Nagar, Purnia - BSPCB",27-02-2024 00:00:00,25.366336,87.117468,PM2.5,22,322,111
India,Bihar,Rajgir,"Dangi Tola, Rajgir - BSPCB",27-02-2024 00:00:00,25.03280,85.41948,PM2.5,35,303,107
India,Bihar,Rajgir,"Dangi Tola, Rajgir - BSPCB",27-02-2024 00:00:00,25.03280,85.41948,PM10,39,187,94
India,Bihar,Rajgir,"Dangi Tola, Rajgir - BSPCB",27-02-2024 00:00:00,25.03280,85.41948,NH3,1,2,1
India,Bihar,Samastipur,"DM Office_Kasipur, Samastipur - BSPCB",27-02-2024 00:00:00,25.859655,85.77944,NH3,2,4,3
India,Bihar,Samastipur,"DM Office_Kasipur, Samastipur - BSPCB",27-02-2024 00:00:00,25.859655,85.77944,OZONE,9,54,16
India,Bihar,Sasaram,"Dada Peer, Sasaram - BSPCB",27-02-2024 00:00:00,24.952822,84.002396,NO2,13,32,22
India,Bihar,Siwan,"Chitragupta Nagar, Siwan - BSPCB",27-02-2024 00:00:00,26.2271665,84.3570427,PM2.5,95,378,315
India,Bihar,Siwan,"Chitragupta Nagar, Siwan - BSPCB",27-02-2024 00:00:00,26.2271665,84.3570427,NO2,12,88,30
India,Bihar,Siwan,"Chitragupta Nagar, Siwan - BSPCB",27-02-2024 00:00:00,26.2271665,84.3570427,SO2,2,34,30
India,Chandigarh,Chandigarh,"Sector 22, Chandigarh - CPCC",27-02-2024 00:00:00,30.735567,76.775714,PM10,55,160,103
India,Chandigarh,Chandigarh,"Sector 22, Chandigarh - CPCC",27-02-2024 00:00:00,30.735567,76.775714,NO2,18,93,45
India,Chandigarh,Chandigarh,"Sector 22, Chandigarh - CPCC",27-02-2024 00:00:00,30.735567,76.775714,CO,36,122,44
India,Chandigarh,Chandigarh,"Sector-25, Chandigarh - CPCC",27-02-2024 00:00:00,30.751462,76.762879,NO2,14,52,27
India,Chandigarh,Chandigarh,"Sector-25, Chandigarh - CPCC",27-02-2024 00:00:00,30.751462,76.762879,CO,11,37,21
India,Chandigarh,Chandigarh,"Sector-53, Chandigarh - CPCC",27-02-2024 00:00:00,30.719859,76.738637,PM2.5,35,267,117
India,Chandigarh,Chandigarh,"Sector-53, Chandigarh - CPCC",27-02-2024 00:00:00,30.719859,76.738637,PM10,59,143,105
India,Chhattisgarh,Bhilai,"32Bungalows, Bhilai - CECB",27-02-2024 00:00:00,21.194815,81.314770,PM2.5,55,75,64
India,Chhattisgarh,Bhilai,"32Bungalows, Bhilai - CECB",27-02-2024 00:00:00,21.194815,81.314770,OZONE,4,6,5
India,Chhattisgarh,Bhilai,"Civic Center, Bhilai - Bhilai Steel Plant",27-02-2024 00:00:00,21.185571,81.343175,PM2.5,32,43,37
India,Chhattisgarh,Bhilai,"Hathkhoj, Bhilai - CECB",27-02-2024 00:00:00,21.224231,81.408350,NH3,8,8,8
India,Chhattisgarh,Chhal,"Nawapara SECL Colony, Chhal - CECB",27-02-2024 00:00:00,22.118125,83.140608,NH3,1,2,2
India,Chhattisgarh,Korba,"Rampur, Korba - CECB",27-02-2024 00:00:00,22.368195,82.746431,SO2,6,19,9
India,Chhattisgarh,Korba,"Rampur, Korba - CECB",27-02-2024 00:00:00,22.368195,82.746431,CO,17,26,20
India,Chhattisgarh,Korba,"Rampur, Korba - CECB",27-02-2024 00:00:00,22.368195,82.746431,OZONE,2,31,4
India,Chhattisgarh,Korba,"Urja Nagar, Korba - CECB",27-02-2024 00:00:00,22.348441,82.549611,SO2,2,6,4
India,Chhattisgarh,Kunjemura,"OP Jindal School, Kunjemura - CECB",27-02-2024 00:00:00,22.126650,83.483212,NO2,10,109,41
India,Chhattisgarh,Kunjemura,"OP Jindal School, Kunjemura - CECB",27-02-2024 00:00:00,22.126650,83.483212,OZONE,5,68,33
India,Chhattisgarh,Milupara,"Govt. Higher Secondary School, Milupara - CECB",27-02-2024 00:00:00,22.1910172,83.5197009,OZONE,7,30,15
India,Chhattisgarh,Raipur,"AIIMS, Raipur - CECB",27-02-2024 00:00:00,21.258815,81.578979,SO2,5,36,11
India,Chhattisgarh,Raipur,"AIIMS, Raipur - CECB",27-02-2024 00:00:00,21.258815,81.578979,CO,32,52,44
India,Chhattisgarh,Raipur,"Bhatagaon New ISBT, Raipur - CECB",27-02-2024 00:00:00,21.219665,81.630094,SO2,4,6,5
India,Chhattisgarh,Raipur,"Krishak Nagar, Raipur - CECB",27-02-2024 00:00:00,21.237755,81.705301,PM10,53,87,66
India,Chhattisgarh,Raipur,"Siltara Phase-II, Raipur - CECB",27-02-2024 00:00:00,21.371751,81.664929,PM2.5,NA,NA,NA
India,Chhattisgarh,Raipur,"Siltara Phase-II, Raipur - CECB",27-02-2024 00:00:00,21.371751,81.664929,SO2,NA,NA,NA
India,Chhattisgarh,Tumidih,"OP Jindal Industrial Park, Tumidih - CECB",27-02-2024 00:00:00,22.06631475,83.33820077,PM10,41,112,66
India,Chhattisgarh,Tumidih,"OP Jindal Industrial Park, Tumidih - CECB",27-02-2024 00:00:00,22.06631475,83.33820077,CO,23,40,32
India,Delhi,Delhi,"Anand Vihar, Delhi - DPCC",27-02-2024 00:00:00,28.647622,77.3158090,NH3,3,7,5
India,Delhi,Delhi,"Ashok Vihar, Delhi - DPCC",27-02-2024 00:00:00,28.695381,77.181665,CO,16,115,63
India,Delhi,Delhi,"Ashok Vihar, Delhi - DPCC",27-02-2024 00:00:00,28.695381,77.181665,OZONE,4,16,8
India,Delhi,Delhi,"Bawana, Delhi - DPCC",27-02-2024 00:00:00,28.776200,77.051074,PM10,101,324,181
India,Delhi,Delhi,"Bawana, Delhi - DPCC",27-02-2024 00:00:00,28.776200,77.051074,SO2,4,28,10
India,Delhi,Delhi,"Bawana, Delhi - DPCC",27-02-2024 00:00:00,28.776200,77.051074,CO,21,85,44
India,Delhi,Delhi,"Burari Crossing, Delhi - IMD",27-02-2024 00:00:00,28.7256504,77.2011573,NO2,1,5,3
India,Delhi,Delhi,"Dr. Karni Singh Shooting Range, Delhi - DPCC",27-02-2024 00:00:00,28.498571,77.264840,PM10,112,190,147
India,Delhi,Delhi,"Dwarka-Sector 8, Delhi - DPCC ",27-02-2024 00:00:00,28.5710274,77.0719006,NO2,3,128,39
India,Delhi,Delhi,"Dwarka-Sector 8, Delhi - DPCC ",27-02-2024 00:00:00,28.5710274,77.0719006,NH3,5,8,7
India,Delhi,Delhi,"Dwarka-Sector 8, Delhi - DPCC ",27-02-2024 00:00:00,28.5710274,77.0719006,OZONE,1,85,42
India,Delhi,Delhi,"IHBAS, Dilshad Garden, Delhi - CPCB",27-02-2024 00:00:00,28.6811736,77.3025234,PM2.5,77,242,141
India,Delhi,Delhi,"IHBAS, Dilshad Garden, Delhi - CPCB",27-02-2024 00:00:00,28.6811736,77.3025234,PM10,102,168,129
India,Delhi,Delhi,"ITO, Delhi - CPCB",27-02-2024 00:00:00,28.628624,77.241060,PM2.5,62,307,175
India,Delhi,Delhi,"ITO, Delhi - CPCB",27-02-2024 00:00:00,28.628624,77.241060,OZONE,12,81,27
India,Delhi,Delhi,"Jahangirpuri, Delhi - DPCC",27-02-2024 00:00:00,28.732820,77.170633,CO,53,117,94
India,Delhi,Delhi,"Jahangirpuri, Delhi - DPCC",27-02-2024 00:00:00,28.732820,77.170633,OZONE,2,6,6
India,Delhi,Delhi,"Jawaharlal Nehru Stadium, Delhi - DPCC",27-02-2024 00:00:00,28.580280,77.233829,PM2.5,44,253,96
India,Delhi,Delhi,"Lodhi Road, Delhi - IITM",27-02-2024 00:00:00,28.588333,77.221667,NO2,71,130,96
India,Delhi,Delhi,"Lodhi Road, Delhi - IMD",27-02-2024 00:00:00,28.5918245,77.2273074,OZONE,1,94,31
India,Delhi,Delhi,"Major Dhyan Chand National Stadium, Delhi - DPCC",27-02-2024 00:00:00,28.611281,77.237738,PM10,76,185,127
India,Delhi,Delhi,"Major Dhyan Chand National Stadium, Delhi - DPCC",27-02-2024 00:00:00,28.611281,77.237738,CO,80,136,114
India,Delhi,Delhi,"Major Dhyan Chand National Stadium, Delhi - DPCC",27-02-2024 00:00:00,28.611281,77.237738,OZONE,2,173,48
India,Delhi,Delhi,"Mandir Marg, Delhi - DPCC",27-02-2024 00:00:00,28.636429,77.201067,PM2.5,55,270,113
India,Delhi,Delhi,"Mandir Marg, Delhi - DPCC",27-02-2024 00:00:00,28.636429,77.201067,NH3,14,16,15
India,Delhi,Delhi,"Mandir Marg, Delhi - DPCC",27-02-2024 00:00:00,28.636429,77.201067,OZONE,7,28,16
India,Delhi,Delhi,"Mundka, Delhi - DPCC",27-02-2024 00:00:00,28.684678,77.076574,PM2.5,42,340,198
India,Delhi,Delhi,"NSIT Dwarka, Delhi - CPCB",27-02-2024 00:00:00,28.60909,77.0325413,OZONE,7,97,36
India,Delhi,Delhi,"Narela, Delhi - DPCC",27-02-2024 00:00:00,28.822836,77.101981,NH3,6,14,8
India,Delhi,Delhi,"Narela, Delhi - DPCC",27-02-2024 00:00:00,28.822836,77.101981,OZONE,4,174,60
India,Delhi,Delhi,"Nehru Nagar, Delhi - DPCC",27-02-2024 00:00:00,28.567890,77.250515,PM2.5,68,349,188
India,Delhi,Delhi,"Nehru Nagar, Delhi - DPCC",27-02-2024 00:00:00,28.567890,77.250515,SO2,9,38,16
India,Delhi,Delhi,"North Campus, DU, Delhi - IMD",27-02-2024 00:00:00,28.6573814,77.1585447,PM2.5,NA,NA,NA
India,Delhi,Delhi,"North Campus, DU, Delhi - IMD",27-02-2024 00:00:00,28.6573814,77.1585447,OZONE,NA,NA,NA
India,Delhi,Delhi,"Okhla Phase-2, Delhi - DPCC",27-02-2024 00:00:00,28.530785,77.271255,PM10,107,286,171
India,Delhi,Delhi,"Patparganj, Delhi - DPCC",27-02-2024 00:00:00,28.623763,77.287209,SO2,8,10,9
India,Delhi,Delhi,"Punjabi Bagh, Delhi - DPCC",27-02-2024 00:00:00,28.674045,77.131023,PM10,99,252,165
India,Delhi,Delhi,"Punjabi Bagh, Delhi - DPCC",27-02-2024 00:00:00,28.674045,77.131023,NO2,19,36,28
India,Delhi,Delhi,"R K Puram, Delhi - DPCC",27-02-2024 00:00:00,28.563262,77.186937,PM2.5,80,385,187
India,Delhi,Delhi,"R K Puram, Delhi - DPCC",27-02-2024 00:00:00,28.563262,77.186937,OZONE,10,181,46
India,Delhi,Delhi,"Rohini, Delhi - DPCC",27-02-2024 00:00:00,28.732528,77.119920,NO2,30,104,62
India,Delhi,Delhi,"Shadipur, Delhi - CPCB",27-02-2024 00:00:00,28.6514781,77.1473105,PM10,128,475,252
India,Delhi,Delhi,"Shadipur, Delhi - CPCB",27-02-2024 00:00:00,28.6514781,77.1473105,NO2,49,64,55
India,Delhi,Delhi,"Shadipur, Delhi - CPCB",27-02-2024 00:00:00,28.6514781,77.1473105,NH3,27,38,34
India,Delhi,Delhi,"Sonia Vihar, Delhi - DPCC",27-02-2024 00:00:00,28.710508,77.249485,NH3,5,10,6
India,Delhi,Delhi,"Sonia Vihar, Delhi - DPCC",27-02-2024 00:00:00,28.710508,77.249485,SO2,7,37,13
India,Delhi,Delhi,"Sonia Vihar, Delhi - DPCC",27-02-2024 00:00:00,28.710508,77.249485,CO,33,101,67
India,Delhi,Delhi,"Vivek Vihar, Delhi - DPCC",27-02-2024 00:00:00,28.672342,77.315260,OZONE,5,70,26
India,Gujarat,Ahmedabad,"Chandkheda, Ahmedabad - IITM",27-02-2024 00:00:00,23.107969,72.574648,OZONE,4,68,30
India,Gujarat,Ahmedabad,"Gyaspur, Ahmedabad - IITM",27-02-2024 00:00:00,22.977134,72.553024,PM2.5,27,71,37
India,Gujarat,Ahmedabad,"Gyaspur, Ahmedabad - IITM",27-02-2024 00:00:00,22.977134,72.553024,CO,23,32,24
India,Gujarat,Ahmedabad,"Maninagar, Ahmedabad - GPCB",27-02-2024 00:00:00,23.002657,72.591912,NO2,11,12,11
India,Gujarat,Ahmedabad,"Maninagar, Ahmedabad - GPCB",27-02-2024 00:00:00,23.002657,72.591912,SO2,9,27,18
India,Gujarat,Ahmedabad,"Maninagar, Ahmedabad - GPCB",27-02-2024 00:00:00,23.002657,72.591912,CO,20,64,42
India,Gujarat,Ahmedabad,"Raikhad, Ahmedabad - IITM",27-02-2024 00:00:00,23.020509,72.579261,CO,14,117,78
India,Gujarat,Ahmedabad,"Rakhial, Ahmedabad - IITM",27-02-2024 00:00:00,23.016834,72.625775,PM10,86,203,120
India,Gujarat,Ahmedabad,"Rakhial, Ahmedabad - IITM",27-02-2024 00:00:00,23.016834,72.625775,SO2,3,23,7
India,Gujarat,Ahmedabad,"SAC ISRO Bopal, Ahmedabad - IITM",27-02-2024 00:00:00,23.041137,72.456691,PM10,107,261,144
India,Gujarat,Ahmedabad,"SAC ISRO Satellite, Ahmedabad - IITM",27-02-2024 00:00:00,23.023389,72.515201,PM2.5,85,106,96
India,Gujarat,Ahmedabad,"SAC ISRO Satellite, Ahmedabad - IITM",27-02-2024 00:00:00,23.023389,72.515201,NO2,17,17,17
India,Gujarat,Ahmedabad,"SVPI Airport Hansol, Ahmedabad - IITM",27-02-2024 00:00:00,23.076793,72.627874,PM10,80,285,131
India,Gujarat,Ahmedabad,"Sardar Vallabhbhai Patel Stadium, Ahmedabad - IITM",27-02-2024 00:00:00,23.043070,72.562968,SO2,4,10,7
India,Gujarat,Ahmedabad,"Sardar Vallabhbhai Patel Stadium, Ahmedabad - IITM",27-02-2024 00:00:00,23.043070,72.562968,CO,10,71,34
India,Gujarat,Ankleshwar,"GIDC, Ankleshwar - GPCB",27-02-2024 00:00:00,21.613267,73.010555,PM2.5,64,129,84
India,Gujarat,Ankleshwar,"GIDC, Ankleshwar - GPCB",27-02-2024 00:00:00,21.613267,73.010555,CO,30,104,69
India,Gujarat,Gandhinagar,"Sector-10, Gandhinagar - GPCB",27-02-2024 00:00:00,23.221714,72.654328,CO,40,111,78
India,Gujarat,Surat,"Science Center, Surat - SMC",27-02-2024 00:00:00,21.170046,72.795405,SO2,NA,NA,NA
India,Gujarat,Vapi,"Phase-1 GIDC, Vapi - GPCB",27-02-2024 00:00:00,20.362421,72.918013,PM10,101,282,165
India,Gujarat,Vapi,"Phase-1 GIDC, Vapi - GPCB",27-02-2024 00:00:00,20.362421,72.918013,CO,1,193,132
India,Gujarat,Vatva,"Phase-4 GIDC, Vatva - GPCB",27-02-2024 00:00:00,22.969611,72.643500,NH3,1,2,2
India,Haryana,Ambala,"Patti Mehar, Ambala - HSPCB",27-02-2024 00:00:00,30.379589,76.778328,CO,30,60,39
India,Haryana,Ambala,"Patti Mehar, Ambala - HSPCB",27-02-2024 00:00:00,30.379589,76.778328,OZONE,8,23,12
India,Haryana,Bahadurgarh,"Arya Nagar, Bahadurgarh - HSPCB",27-02-2024 00:00:00,28.6701,76.9254,SO2,14,104,26
India,Haryana,Ballabgarh,"Nathu Colony, Ballabgarh - HSPCB",27-02-2024 00:00:00,28.3419248,77.319699,CO,18,109,60
India,Haryana,Bhiwani,"H.B. Colony, Bhiwani - HSPCB",27-02-2024 00:00:00,28.806223,76.141105,CO,26,38,33
India,Haryana,Charkhi Dadri,"Mini Secretariat, Charkhi Dadri - HSPCB",27-02-2024 00:00:00,28.593883,76.270653,CO,9,19,14
India,Haryana,Faridabad,"Sector 11, Faridabad - HSPCB",27-02-2024 00:00:00,28.376058,77.315741,SO2,8,9,8
India,Haryana,Faridabad,"Sector 30, Faridabad - HSPCB",27-02-2024 00:00:00,28.4417,77.3217,SO2,12,13,12
India,Haryana,Gurugram,"Sector-51, Gurugram - HSPCB",27-02-2024 00:00:00,28.4227,77.0667,NH3,7,14,9
India,Haryana,Gurugram,"Teri Gram, Gurugram - HSPCB",27-02-2024 00:00:00,28.4275,77.1465,NO2,31,57,43
India,Haryana,Gurugram,"Teri Gram, Gurugram - HSPCB",27-02-2024 00:00:00,28.4275,77.1465,NH3,16,23,19
India,Haryana,Gurugram,"Vikas Sadan, Gurugram - HSPCB",27-02-2024 00:00:00,28.4501238,77.0263051,SO2,20,67,34
India,Haryana,Jind,"Police Lines, Jind - HSPCB",27-02-2024 00:00:00,29.307814,76.337619,PM2.5,28,89,58
India,Haryana,Jind,"Police Lines, Jind - HSPCB",27-02-2024 00:00:00,29.307814,76.337619,NH3,1,5,4
India,Haryana,Kaithal,"Rishi Nagar, Kaithal - HSPCB",27-02-2024 00:00:00,29.8006,76.4155,PM10,51,116,76
India,Haryana,Kaithal,"Rishi Nagar, Kaithal - HSPCB",27-02-2024 00:00:00,29.8006,76.4155,NO2,24,27,25
India,Haryana,Karnal,"Sector-12, Karnal - HSPCB",27-02-2024 00:00:00,29.695300,77.002700,NO2,7,12,10
India,Haryana,Mandikhera,"General Hospital, Mandikhera - HSPCB",27-02-2024 00:00:00,27.9002,76.9938,NO2,17,21,19
India,Haryana,Mandikhera,"General Hospital, Mandikhera - HSPCB",27-02-2024 00:00:00,27.9002,76.9938,SO2,30,37,33
India,Haryana,Narnaul,"Shastri Nagar, Narnaul - HSPCB",27-02-2024 00:00:00,28.060249,76.113115,NO2,16,58,35
India,Haryana,Palwal,"Shyam Nagar, Palwal - HSPCB",27-02-2024 00:00:00,28.1485564,77.3320667,NO2,23,24,24
India,Haryana,Palwal,"Shyam Nagar, Palwal - HSPCB",27-02-2024 00:00:00,28.1485564,77.3320667,CO,26,40,32
India,Haryana,Panchkula,"Sector-6, Panchkula - HSPCB ",27-02-2024 00:00:00,30.7057778,76.8531805555555,PM2.5,13,84,50
India,Haryana,Panchkula,"Sector-6, Panchkula - HSPCB ",27-02-2024 00:00:00,30.7057778,76.8531805555555,CO,1,176,49
India,Haryana,Panipat,"Sector-18, Panipat - HSPCB",27-02-2024 00:00:00,29.497973,76.993331,NO2,31,32,31
India,Haryana,Sirsa,"F-Block, Sirsa - HSPCB",27-02-2024 00:00:00,29.536400,75.015800,PM2.5,14,54,32
India,Haryana,Sirsa,"F-Block, Sirsa - HSPCB",27-02-2024 00:00:00,29.536400,75.015800,NO2,10,10,10
India,Haryana,Sonipat,"Murthal, Sonipat - HSPCB",27-02-2024 00:00:00,29.027200,77.062100,NO2,37,44,40
India,Haryana,Sonipat,"Murthal, Sonipat - HSPCB",27-02-2024 00:00:00,29.027200,77.062100,SO2,12,29,20
India,Haryana,Sonipat,"Murthal, Sonipat - HSPCB",27-02-2024 00:00:00,29.027200,77.062100,CO,12,25,17
India,Haryana,Yamuna Nagar,"Gobind Pura, Yamuna Nagar - HSPCB",27-02-2024 00:00:00,30.1480566,77.2893471,PM10,57,157,92
India,Haryana,Yamuna Nagar,"Gobind Pura, Yamuna Nagar - HSPCB",27-02-2024 00:00:00,30.1480566,77.2893471,NO2,11,29,15
India,Himachal Pradesh,Baddi,"HIMUDA Complex Phase-1, Baddi - HPPCB",27-02-2024 00:00:00,30.943887,76.801991,CO,16,44,29
India,Himachal Pradesh,Baddi,"HIMUDA Complex Phase-1, Baddi - HPPCB",27-02-2024 00:00:00,30.943887,76.801991,OZONE,23,150,73
India,Jharkhand,Dhanbad,"Kalakusuma, Dhanbad - DMC",27-02-2024 00:00:00,23.811548,86.481238,PM10,62,313,95
India,Jharkhand,Dhanbad,"Sardar Patel Nagar, Dhanbad - JSPCB",27-02-2024 00:00:00,23.80569,86.44268,NO2,NA,NA,NA
India,Jharkhand,Dhanbad,"Sardar Patel Nagar, Dhanbad - JSPCB",27-02-2024 00:00:00,23.80569,86.44268,SO2,NA,NA,NA
India,Jharkhand,Pathardih,"Mohalbani Ghat, Pathardih - DMC",27-02-2024 00:00:00,23.669880,86.411725,PM2.5,NA,NA,NA
India,Jharkhand,Pathardih,"Mohalbani Ghat, Pathardih - DMC",27-02-2024 00:00:00,23.669880,86.411725,OZONE,7,29,15
India,Karnataka,Bagalkot,"Vidayagiri, Bagalkot - KSPCB",27-02-2024 00:00:00,16.172806,75.659694,PM10,42,43,42
India,Karnataka,Bagalkot,"Vidayagiri, Bagalkot - KSPCB",27-02-2024 00:00:00,16.172806,75.659694,NH3,1,2,1
India,Karnataka,Belgaum,"Ramteerth Nagar, Belgaum - KSPCB",27-02-2024 00:00:00,15.888653,74.541751,PM2.5,22,89,41
India,Karnataka,Belgaum,"Ramteerth Nagar, Belgaum - KSPCB",27-02-2024 00:00:00,15.888653,74.541751,SO2,8,9,9
India,Karnataka,Bengaluru,"BTM Layout, Bengaluru - CPCB",27-02-2024 00:00:00,12.9135218,77.5950804,PM10,33,62,45
India,Karnataka,Bengaluru,"BTM Layout, Bengaluru - CPCB",27-02-2024 00:00:00,12.9135218,77.5950804,SO2,7,10,8
India,Karnataka,Bengaluru,"BTM Layout, Bengaluru - CPCB",27-02-2024 00:00:00,12.9135218,77.5950804,OZONE,6,78,65
India,Karnataka,Bengaluru,"Bapuji Nagar, Bengaluru - KSPCB",27-02-2024 00:00:00,12.951913,77.539784,PM10,46,82,62
India,Karnataka,Bengaluru,"Bapuji Nagar, Bengaluru - KSPCB",27-02-2024 00:00:00,12.951913,77.539784,SO2,3,7,5
India,Karnataka,Bengaluru,"Hebbal, Bengaluru - KSPCB",27-02-2024 00:00:00,13.029152,77.585901,SO2,NA,NA,NA
India,Karnataka,Bengaluru,"Hebbal, Bengaluru - KSPCB",27-02-2024 00:00:00,13.029152,77.585901,OZONE,7,8,7
India,Karnataka,Bengaluru,"Hombegowda Nagar, Bengaluru - KSPCB",27-02-2024 00:00:00,12.938539,77.590100,CO,15,22,18
India,Karnataka,Bengaluru,"Jigani, Bengaluru - KSPCB",27-02-2024 00:00:00,12.7816279,77.6299145,SO2,16,16,16
India,Karnataka,Bengaluru,"Kasturi Nagar, Bengaluru - KSPCB",27-02-2024 00:00:00,13.003872,77.664217,PM2.5,63,92,73
India,Karnataka,Bengaluru,"Shivapura_Peenya, Bengaluru - KSPCB",27-02-2024 00:00:00,13.0246342,77.5080115,SO2,3,19,8
India,Karnataka,Bengaluru,"Shivapura_Peenya, Bengaluru - KSPCB",27-02-2024 00:00:00,13.0246342,77.5080115,OZONE,53,56,54
India,Karnataka,Bengaluru,"Silk Board, Bengaluru - KSPCB",27-02-2024 00:00:00,12.917348,77.622813,NO2,18,22,19
India,Karnataka,Bengaluru,"Silk Board, Bengaluru - KSPCB",27-02-2024 00:00:00,12.917348,77.622813,NH3,1,2,2
India,Karnataka,Bengaluru,"Silk Board, Bengaluru - KSPCB",27-02-2024 00:00:00,12.917348,77.622813,CO,14,36,34
India,Karnataka,Bidar,"Naubad, Bidar - KSPCB",27-02-2024 00:00:00,17.930306,77.482194,PM2.5,45,77,58
India,Karnataka,Bidar,"Naubad, Bidar - KSPCB",27-02-2024 00:00:00,17.930306,77.482194,CO,24,72,60
India,Karnataka,Bidar,"Naubad, Bidar - KSPCB",27-02-2024 00:00:00,17.930306,77.482194,OZONE,15,36,28
India,Karnataka,Chikkamagaluru,"Kalyana Nagara, Chikkamagaluru - KSPCB",27-02-2024 00:00:00,13.328028,75.797056,PM2.5,28,72,46
India,Karnataka,Chikkamagaluru,"Kalyana Nagara, Chikkamagaluru - KSPCB",27-02-2024 00:00:00,13.328028,75.797056,PM10,20,76,50
India,Karnataka,Chikkamagaluru,"Kalyana Nagara, Chikkamagaluru - KSPCB",27-02-2024 00:00:00,13.328028,75.797056,NH3,3,4,3
India,Karnataka,Chikkamagaluru,"Kalyana Nagara, Chikkamagaluru - KSPCB",27-02-2024 00:00:00,13.328028,75.797056,SO2,1,6,4
India,Karnataka,Chikkamagaluru,"Kalyana Nagara, Chikkamagaluru - KSPCB",27-02-2024 00:00:00,13.328028,75.797056,CO,11,107,23
India,Karnataka,Gadag,"Panchal Nagar, Gadag - KSPCB",27-02-2024 00:00:00,15.411456,75.638133,SO2,13,19,16
India,Karnataka,Hassan,"B.Katihalli, Hassan - KSPCB",27-02-2024 00:00:00,13.008556,76.125258,OZONE,5,30,17
India,Karnataka,Haveri,"Ashwini Nagar, Haveri - KSPCB",27-02-2024 00:00:00,14.791800,75.389600,PM10,NA,NA,NA
India,Karnataka,Haveri,"Ashwini Nagar, Haveri - KSPCB",27-02-2024 00:00:00,14.791800,75.389600,NO2,NA,NA,NA
India,Karnataka,Haveri,"Ashwini Nagar, Haveri - KSPCB",27-02-2024 00:00:00,14.791800,75.389600,CO,34,36,35
India,Karnataka,Hubballi,"Lingaraj Nagar, Hubballi - KSPCB",27-02-2024 00:00:00,15.3714823,75.1160168,SO2,1,8,4
India,Karnataka,Kalaburagi,"Lal Bahadur Shastri Nagar, Kalaburagi - KSPCB",27-02-2024 00:00:00,17.321993,76.822628,SO2,11,13,12
India,Karnataka,Kalaburagi,"Mahatma Basaveswar Colony, Kalaburgi - KSPCB",27-02-2024 00:00:00,17.336318,76.847397,OZONE,5,15,11
India,Karnataka,Karwar,"KHB Colony, Karwar - KSPCB",27-02-2024 00:00:00,14.816666,74.141003,NO2,3,9,6
India,Karnataka,Karwar,"KHB Colony, Karwar - KSPCB",27-02-2024 00:00:00,14.816666,74.141003,NH3,1,3,2
India,Karnataka,Karwar,"KHB Colony, Karwar - KSPCB",27-02-2024 00:00:00,14.816666,74.141003,SO2,18,18,18
India,Karnataka,Kolar,"Tamaka Ind. Area, Kolar - KSPCB",27-02-2024 00:00:00,13.1276288,78.1570122,PM10,30,99,59
India,Karnataka,Kolar,"Tamaka Ind. Area, Kolar - KSPCB",27-02-2024 00:00:00,13.1276288,78.1570122,OZONE,10,13,11
India,Karnataka,Koppal,"Diwator Nagar, Koppal - KSPCB",27-02-2024 00:00:00,15.347630,76.181767,NO2,3,30,16
India,Karnataka,Koppal,"Diwator Nagar, Koppal - KSPCB",27-02-2024 00:00:00,15.347630,76.181767,NH3,4,7,5
India,Karnataka,Madikeri,"Stuart Hill, Madikeri - KSPCB",27-02-2024 00:00:00,12.415911,75.735050,NO2,6,12,9
India,Karnataka,Madikeri,"Stuart Hill, Madikeri - KSPCB",27-02-2024 00:00:00,12.415911,75.735050,CO,2,43,24
India,Karnataka,Mangalore,"Kadri, Mangalore - KSPCB",27-02-2024 00:00:00,12.889250,74.853000,PM2.5,47,232,67
India,Karnataka,Mangalore,"Kadri, Mangalore - KSPCB",27-02-2024 00:00:00,12.889250,74.853000,NH3,1,2,2
India,Karnataka,Mangalore,"Kadri, Mangalore - KSPCB",27-02-2024 00:00:00,12.889250,74.853000,SO2,18,21,20
India,Karnataka,Mysuru,"Hebbal 1st Stage, Mysuru - KSPCB",27-02-2024 00:00:00,12.21041,76.37376,PM10,37,70,60
India,Karnataka,Mysuru,"Hebbal 1st Stage, Mysuru - KSPCB",27-02-2024 00:00:00,12.21041,76.37376,CO,4,24,14
India,Karnataka,Raichur,"Haji Colony, Raichur - KSPCB",27-02-2024 00:00:00,16.208139,77.348417,NO2,NA,NA,NA
India,Karnataka,Ramanagara,"Vijay Nagar, Ramanagara - KSPCB",27-02-2024 00:00:00,12.733409,77.298051,PM10,24,40,31
India,Karnataka,Ramanagara,"Vijay Nagar, Ramanagara - KSPCB",27-02-2024 00:00:00,12.733409,77.298051,CO,4,14,9
India,Karnataka,Shivamogga,"Vinoba Nagara, Shivamogga - KSPCB",27-02-2024 00:00:00,13.940000,75.555917,OZONE,35,91,70
India,Karnataka,Udupi,"Brahmagiri, Udupi - KSPCB",27-02-2024 00:00:00,13.34194444,74.74694444,PM10,33,56,41
India,Karnataka,Udupi,"Brahmagiri, Udupi - KSPCB",27-02-2024 00:00:00,13.34194444,74.74694444,NO2,14,15,14
India,Karnataka,Udupi,"Brahmagiri, Udupi - KSPCB",27-02-2024 00:00:00,13.34194444,74.74694444,CO,44,50,46
India,Karnataka,Vijayapura,"Ibrahimpur, Vijayapura - KSPCB",27-02-2024 00:00:00,16.802639,75.722694,SO2,1,20,6
India,Karnataka,Vijayapura,"Ibrahimpur, Vijayapura - KSPCB",27-02-2024 00:00:00,16.802639,75.722694,OZONE,14,16,15
India,Karnataka,Yadgir,"Collector Office, Yadgir - KSPCB",27-02-2024 00:00:00,16.7602,77.1428,PM10,NA,NA,NA
India,Kerala,Eloor,"Udyogamandal, Eloor - Kerala PCB",27-02-2024 00:00:00,10.073232,76.302765,SO2,1,18,4
India,Kerala,Kannur,"Thavakkara, Kannur - Kerala PCB",27-02-2024 00:00:00,11.875000,75.373200,NO2,6,7,6
India,Kerala,Kannur,"Thavakkara, Kannur - Kerala PCB",27-02-2024 00:00:00,11.875000,75.373200,CO,30,36,33
India,Kerala,Kochi,"Vyttila, Kochi - Kerala PCB",27-02-2024 00:00:00,9.969447,76.321186,PM10,45,92,68
India,Kerala,Kochi,"Vyttila, Kochi - Kerala PCB",27-02-2024 00:00:00,9.969447,76.321186,SO2,2,17,4
India,Kerala,Thiruvananthapuram,"Kariavattom, Thiruvananthapuram - Kerala PCB",27-02-2024 00:00:00,8.563700,76.886500,OZONE,25,31,28
India,Kerala,Thiruvananthapuram,"Plammoodu, Thiruvananthapuram - Kerala PCB",27-02-2024 00:00:00,8.5149093,76.9435879,OZONE,11,62,20
India,Kerala,Thrissur,"Corporation Ground, Thrissur - Kerala PCB",27-02-2024 00:00:00,10.532400,76.215900,PM10,58,68,64
India,Madhya Pradesh,Bhopal,"Idgah Hills, Bhopal - MPPCB",27-02-2024 00:00:00,23.264759,77.381568,SO2,NA,NA,NA
India,Madhya Pradesh,Bhopal,"Paryavaran Parisar, Bhopal - MPPCB",27-02-2024 00:00:00,23.210494,77.425409,OZONE,22,76,52
India,Madhya Pradesh,Dewas,"Bhopal Chauraha, Dewas - MPPCB",27-02-2024 00:00:00,22.9682591,76.064118,CO,14,38,29
India,Madhya Pradesh,Gwalior,"City Center, Gwalior - MPPCB",27-02-2024 00:00:00,26.203442,78.193251,NO2,14,49,31
India,Madhya Pradesh,Gwalior,"City Center, Gwalior - MPPCB",27-02-2024 00:00:00,26.203442,78.193251,NH3,4,6,5
India,Madhya Pradesh,Gwalior,"City Center, Gwalior - MPPCB",27-02-2024 00:00:00,26.203442,78.193251,OZONE,10,84,36
India,Madhya Pradesh,Gwalior,"Maharaj Bada, Gwalior - MPPCB",27-02-2024 00:00:00,26.200388,78.147714,SO2,12,26,17
India,Madhya Pradesh,Gwalior,"Maharaj Bada, Gwalior - MPPCB",27-02-2024 00:00:00,26.200388,78.147714,CO,18,84,51
India,Madhya Pradesh,Indore,"Chhoti Gwaltoli, Indore - MPPCB",27-02-2024 00:00:00,22.4310,75.5213,NO2,53,104,68
India,Madhya Pradesh,Indore,"Chhoti Gwaltoli, Indore - MPPCB",27-02-2024 00:00:00,22.4310,75.5213,OZONE,48,94,68
India,Madhya Pradesh,Indore,"Regional Park, Indore - IMC",27-02-2024 00:00:00,22.6780,75.8559,NH3,NA,NA,NA
India,Madhya Pradesh,Indore,"Regional Park, Indore - IMC",27-02-2024 00:00:00,22.6780,75.8559,CO,NA,NA,NA
India,Madhya Pradesh,Indore,"Residency Area, Indore - IMC",27-02-2024 00:00:00,22.7084,75.8815,PM2.5,29,74,52
India,Madhya Pradesh,Indore,"Residency Area, Indore - IMC",27-02-2024 00:00:00,22.7084,75.8815,NO2,37,54,44
India,Madhya Pradesh,Indore,"Residency Area, Indore - IMC",27-02-2024 00:00:00,22.7084,75.8815,SO2,23,24,24
India,Madhya Pradesh,Indore,"Residency Area, Indore - IMC",27-02-2024 00:00:00,22.7084,75.8815,CO,12,14,14
India,Madhya Pradesh,Jabalpur,"Marhatal, Jabalpur - MPPCB",27-02-2024 00:00:00,23.168606,79.932247,PM2.5,38,117,69
India,Madhya Pradesh,Jabalpur,"Marhatal, Jabalpur - MPPCB",27-02-2024 00:00:00,23.168606,79.932247,NO2,9,40,22
India,Madhya Pradesh,Jabalpur,"Suhagi, Jabalpur - JMC",27-02-2024 00:00:00,23.218135,79.957770,NO2,44,47,46
India,Madhya Pradesh,Jabalpur,"Suhagi, Jabalpur - JMC",27-02-2024 00:00:00,23.218135,79.957770,NH3,5,5,5
India,Madhya Pradesh,Maihar,"Sahilara, Maihar - KJS Cements",27-02-2024 00:00:00,24.2613009,80.7231783,NO2,14,14,14
India,Madhya Pradesh,Mandideep,"Sector-D Industrial Area, Mandideep - MPPCB",27-02-2024 00:00:00,23.108440,77.511428,NH3,9,13,11
India,Madhya Pradesh,Pithampur,"Sector-2 Industrial Area, Pithampur - MPPCB",27-02-2024 00:00:00,22.624758,75.675238,NH3,6,8,7
India,Madhya Pradesh,Pithampur,"Sector-2 Industrial Area, Pithampur - MPPCB",27-02-2024 00:00:00,22.624758,75.675238,OZONE,24,56,47
India,Madhya Pradesh,Sagar,"Civil Lines, Sagar - MPPCB",27-02-2024 00:00:00,23.838586,78.759431,CO,15,29,25
India,Madhya Pradesh,Sagar,"Deen Dayal Nagar, Sagar - MPPCB",27-02-2024 00:00:00,23.8640158,78.80289321,PM10,28,81,52
India,Madhya Pradesh,Sagar,"Deen Dayal Nagar, Sagar - MPPCB",27-02-2024 00:00:00,23.8640158,78.80289321,CO,52,76,67
India,Madhya Pradesh,Satna,"Bandhavgar Colony, Satna - Birla Cement",27-02-2024 00:00:00,24.58434363,80.8549414,NO2,7,12,9
India,Madhya Pradesh,Satna,"Bandhavgar Colony, Satna - Birla Cement",27-02-2024 00:00:00,24.58434363,80.8549414,OZONE,63,89,72
India,Madhya Pradesh,Singrauli,"Suryakiran Bhawan NCL, Singrauli - MPPCB",27-02-2024 00:00:00,24.108970,82.645580,NH3,3,4,4
India,Madhya Pradesh,Ujjain,"Mahakaleshwar Temple, Ujjain - MPPCB",27-02-2024 00:00:00,23.182719 ,75.768218 ,PM2.5,26,109,60
India,Madhya Pradesh,Ujjain,"Mahakaleshwar Temple, Ujjain - MPPCB",27-02-2024 00:00:00,23.182719 ,75.768218 ,NO2,5,36,14
India,Madhya Pradesh,Ujjain,"Mahakaleshwar Temple, Ujjain - MPPCB",27-02-2024 00:00:00,23.182719 ,75.768218 ,NH3,4,6,5
India,Maharashtra,Ahmednagar,"Tarakpur, Ahmednagar - MPCB",27-02-2024 00:00:00,19.10122,74.73339,PM10,NA,NA,NA
India,Maharashtra,Ahmednagar,"Tarakpur, Ahmednagar - MPCB",27-02-2024 00:00:00,19.10122,74.73339,NH3,NA,NA,NA
India,Maharashtra,Ahmednagar,"Tarakpur, Ahmednagar - MPCB",27-02-2024 00:00:00,19.10122,74.73339,SO2,NA,NA,NA
India,Maharashtra,Ahmednagar,"Tarakpur, Ahmednagar - MPCB",27-02-2024 00:00:00,19.10122,74.73339,OZONE,6,139,47
India,Maharashtra,Akola,"Ramdaspeth, Akola - MPCB",27-02-2024 00:00:00,20.719516,77.000253,NO2,8,53,19
India,Maharashtra,Akola,"Ramdaspeth, Akola - MPCB",27-02-2024 00:00:00,20.719516,77.000253,NH3,5,9,7
India,Maharashtra,Amravati,"Shivneri Colony, Amravati - MPCB",27-02-2024 00:00:00,20.9402359,77.7895248,NH3,1,2,1
India,Maharashtra,Aurangabad,"MIDC Chilkalthana, Aurangabad - MPCB",27-02-2024 00:00:00,19.875620,75.387310,NO2,18,22,20
India,Maharashtra,Aurangabad,"More Chowk Waluj, Aurangabad - MPCB",27-02-2024 00:00:00,19.8389439,75.244448,NO2,33,35,34
India,Maharashtra,Bhiwandi,"Gokul Nagar, Bhiwandi - MPCB",27-02-2024 00:00:00,19.309073,73.057223,CO,18,103,37
India,Maharashtra,Chandrapur,"Chauhan Colony, Chandrapur - MPCB",27-02-2024 00:00:00,19.962900,79.298714,PM2.5,58,157,88
India,Maharashtra,Chandrapur,"Chauhan Colony, Chandrapur - MPCB",27-02-2024 00:00:00,19.962900,79.298714,PM10,46,106,72
India,Maharashtra,Chandrapur,"MIDC Khutala, Chandrapur - MPCB",27-02-2024 00:00:00,19.9775302,79.2337086,SO2,NA,NA,NA
India,Maharashtra,Dhule,"Deopur, Dhule - MPCB",27-02-2024 00:00:00,20.918946,74.776388,NO2,11,65,21
India,Maharashtra,Dhule,"Deopur, Dhule - MPCB",27-02-2024 00:00:00,20.918946,74.776388,CO,15,42,25
India,Maharashtra,Dhule,"Deopur, Dhule - MPCB",27-02-2024 00:00:00,20.918946,74.776388,OZONE,6,79,62
India,Maharashtra,Jalgaon,"Prabhat Colony, Jalgaon - MPCB",27-02-2024 00:00:00,21.001264,75.565602,PM2.5,71,216,150
India,Maharashtra,Jalgaon,"Prabhat Colony, Jalgaon - MPCB",27-02-2024 00:00:00,21.001264,75.565602,CO,4,40,30
India,Maharashtra,Jalna,"Old MIDC, Jalna - MPCB",27-02-2024 00:00:00,19.854616,75.905894,NO2,1,43,24
India,Maharashtra,Kalyan,"Khadakpada, Kalyan - MPCB",27-02-2024 00:00:00,19.25292,73.142019,PM10,90,206,142
India,Maharashtra,Kolhapur,"Shivaji University, Kolhapur - MPCB",27-02-2024 00:00:00,16.6870449,74.2505872,PM10,84,138,109
India,Maharashtra,Kolhapur,"Shivaji University, Kolhapur - MPCB",27-02-2024 00:00:00,16.6870449,74.2505872,CO,32,100,79
India,Maharashtra,Kolhapur,"Sinchan Bhavan, Kolhapur - MPCB",27-02-2024 00:00:00,16.7143745,74.2426398,PM10,69,277,116
India,Maharashtra,Mahad,"Kamble Tarf Birwadi, Mahad - MPCB",27-02-2024 00:00:00,18.1023399,73.4783687,PM2.5,74,151,97
India,Maharashtra,Malegaon,"Mahesh Nagar, Malegaon - MPCB",27-02-2024 00:00:00,20.555712,74.529236,NH3,2,11,4
India,Maharashtra,Mira-Bhayandar,"Bhayandar West, Mira-Bhayandar - MPCB",27-02-2024 00:00:00,19.296481,72.840923,PM10,118,198,153
India,Maharashtra,Mira-Bhayandar,"Bhayandar West, Mira-Bhayandar - MPCB",27-02-2024 00:00:00,19.296481,72.840923,NH3,4,7,5
India,Maharashtra,Mumbai,"Bandra Kurla Complex, Mumbai - MPCB",27-02-2024 00:00:00,19.065931,72.862131,PM10,104,416,196
India,Maharashtra,Mumbai,"Bandra Kurla Complex, Mumbai - MPCB",27-02-2024 00:00:00,19.065931,72.862131,OZONE,5,240,77
India,Maharashtra,Mumbai,"Byculla, Mumbai - BMC",27-02-2024 00:00:00,18.9767,72.8380,PM10,75,141,113
India,Maharashtra,Mumbai,"Chakala-Andheri East, Mumbai - IITM",27-02-2024 00:00:00,19.11074,72.86084,PM10,77,146,113
India,Maharashtra,Mumbai,"Chakala-Andheri East, Mumbai - IITM",27-02-2024 00:00:00,19.11074,72.86084,NH3,6,53,17
India,Maharashtra,Mumbai,"Chakala-Andheri East, Mumbai - IITM",27-02-2024 00:00:00,19.11074,72.86084,CO,100,138,110
India,Maharashtra,Mumbai,"Chembur, Mumbai - MPCB",27-02-2024 00:00:00,19.0364585,72.8954371,CO,34,82,52
India,Maharashtra,Mumbai,"Chhatrapati Shivaji Intl. Airport (T2), Mumbai - MPCB",27-02-2024 00:00:00,19.10078,72.87462,CO,76,110,86
India,Maharashtra,Mumbai,"Colaba, Mumbai - MPCB",27-02-2024 00:00:00,18.910000,72.820000,PM2.5,42,175,86
India,Maharashtra,Mumbai,"Colaba, Mumbai - MPCB",27-02-2024 00:00:00,18.910000,72.820000,NO2,22,41,31
India,Maharashtra,Mumbai,"Colaba, Mumbai - MPCB",27-02-2024 00:00:00,18.910000,72.820000,NH3,1,1,1
India,Maharashtra,Mumbai,"Colaba, Mumbai - MPCB",27-02-2024 00:00:00,18.910000,72.820000,CO,14,27,20
India,Maharashtra,Mumbai,"Ghatkopar, Mumbai - BMC",27-02-2024 00:00:00,19.083694,72.920967,PM10,100,151,113
India,Maharashtra,Mumbai,"Ghatkopar, Mumbai - BMC",27-02-2024 00:00:00,19.083694,72.920967,NH3,1,1,1
India,Maharashtra,Mumbai,"Ghatkopar, Mumbai - BMC",27-02-2024 00:00:00,19.083694,72.920967,SO2,1,5,2
India,Maharashtra,Mumbai,"Ghatkopar, Mumbai - BMC",27-02-2024 00:00:00,19.083694,72.920967,CO,16,50,31
India,Maharashtra,Mumbai,"Kandivali East, Mumbai - MPCB",27-02-2024 00:00:00,19.205800,72.868200,NO2,36,176,84
India,Maharashtra,Mumbai,"Kandivali East, Mumbai - MPCB",27-02-2024 00:00:00,19.205800,72.868200,NH3,5,13,7
India,Maharashtra,Mumbai,"Kandivali East, Mumbai - MPCB",27-02-2024 00:00:00,19.205800,72.868200,SO2,71,78,74
India,Maharashtra,Mumbai,"Kandivali West, Mumbai - BMC",27-02-2024 00:00:00,19.215859,72.831718,PM2.5,68,165,112
India,Maharashtra,Mumbai,"Kandivali West, Mumbai - BMC",27-02-2024 00:00:00,19.215859,72.831718,PM10,81,130,104
India,Maharashtra,Mumbai,"Kandivali West, Mumbai - BMC",27-02-2024 00:00:00,19.215859,72.831718,NO2,12,102,44
India,Maharashtra,Mumbai,"Kandivali West, Mumbai - BMC",27-02-2024 00:00:00,19.215859,72.831718,SO2,4,14,7
India,Maharashtra,Mumbai,"Kherwadi_Bandra East, Mumbai - MPCB",27-02-2024 00:00:00,19.0632143,72.8456324,PM10,98,208,158
India,Maharashtra,Mumbai,"Kherwadi_Bandra East, Mumbai - MPCB",27-02-2024 00:00:00,19.0632143,72.8456324,NH3,5,40,21
India,Maharashtra,Mumbai,"Khindipada-Bhandup West, Mumbai - IITM",27-02-2024 00:00:00,19.1653323,72.922099,PM2.5,87,228,134
India,Maharashtra,Mumbai,"Kurla, Mumbai - MPCB",27-02-2024 00:00:00,19.0863,72.8888,PM10,NA,NA,NA
India,Maharashtra,Mumbai,"Kurla, Mumbai - MPCB",27-02-2024 00:00:00,19.0863,72.8888,SO2,NA,NA,NA
India,Maharashtra,Mumbai,"Kurla, Mumbai - MPCB",27-02-2024 00:00:00,19.0863,72.8888,OZONE,NA,NA,NA
India,Maharashtra,Mumbai,"Mindspace-Malad West, Mumbai - MPCB",27-02-2024 00:00:00,19.1878657,72.8304069,PM10,NA,NA,NA
India,Maharashtra,Mumbai,"Mindspace-Malad West, Mumbai - MPCB",27-02-2024 00:00:00,19.1878657,72.8304069,CO,60,76,65
India,Maharashtra,Mumbai,"Mulund West, Mumbai - MPCB",27-02-2024 00:00:00,19.1750,72.9419,PM10,90,170,113
India,Maharashtra,Mumbai,"Mulund West, Mumbai - MPCB",27-02-2024 00:00:00,19.1750,72.9419,OZONE,7,7,7
India,Maharashtra,Mumbai,"Navy Nagar-Colaba, Mumbai - IITM",27-02-2024 00:00:00,18.897756,72.813320,PM10,94,286,166
India,Maharashtra,Mumbai,"Powai, Mumbai - MPCB",27-02-2024 00:00:00,19.137500,72.915056,NO2,26,56,40
India,Maharashtra,Mumbai,"Siddharth Nagar-Worli, Mumbai - IITM",27-02-2024 00:00:00,19.000083,72.813993,NH3,3,6,4
India,Maharashtra,Mumbai,"Sion, Mumbai - MPCB",27-02-2024 00:00:00,19.047000,72.874600,SO2,35,42,38
India,Maharashtra,Mumbai,"Sion, Mumbai - MPCB",27-02-2024 00:00:00,19.047000,72.874600,OZONE,13,71,31
India,Maharashtra,Mumbai,"Vasai West, Mumbai - MPCB",27-02-2024 00:00:00,19.383200,72.820400,CO,33,64,46
India,Maharashtra,Mumbai,"Vile Parle West, Mumbai - MPCB",27-02-2024 00:00:00,19.10861,72.83622,PM2.5,45,347,95
India,Maharashtra,Mumbai,"Vile Parle West, Mumbai - MPCB",27-02-2024 00:00:00,19.10861,72.83622,SO2,13,14,14
India,Maharashtra,Mumbai,"Vile Parle West, Mumbai - MPCB",27-02-2024 00:00:00,19.10861,72.83622,OZONE,4,5,4
India,Maharashtra,Mumbai,"Worli, Mumbai - MPCB",27-02-2024 00:00:00,18.9936162,72.8128113,NH3,1,1,1
India,Maharashtra,Mumbai,"Worli, Mumbai - MPCB",27-02-2024 00:00:00,18.9936162,72.8128113,CO,33,40,39
India,Maharashtra,Nagpur,"Ambazari, Nagpur - MPCB",27-02-2024 00:00:00,21.121801,79.04952,PM2.5,80,186,127
India,Maharashtra,Nagpur,"Ambazari, Nagpur - MPCB",27-02-2024 00:00:00,21.121801,79.04952,PM10,83,131,109
India,Maharashtra,Nagpur,"Mahal, Nagpur - MPCB",27-02-2024 00:00:00,21.14472,79.107595,CO,42,114,84
India,Maharashtra,Nagpur,"Opp GPO Civil Lines, Nagpur - MPCB",27-02-2024 00:00:00,21.152875,79.0517531,PM2.5,78,278,175
India,Maharashtra,Nagpur,"Opp GPO Civil Lines, Nagpur - MPCB",27-02-2024 00:00:00,21.152875,79.0517531,PM10,73,142,111
India,Maharashtra,Nagpur,"Opp GPO Civil Lines, Nagpur - MPCB",27-02-2024 00:00:00,21.152875,79.0517531,SO2,7,45,24
India,Maharashtra,Nagpur,"Opp GPO Civil Lines, Nagpur - MPCB",27-02-2024 00:00:00,21.152875,79.0517531,CO,23,78,45
India,Maharashtra,Nagpur,"Ram Nagar, Nagpur - MPCB",27-02-2024 00:00:00,21.143383,79.048912,NH3,1,8,6
India,Maharashtra,Nanded,"Sneh Nagar, Nanded - MPCB",27-02-2024 00:00:00,19.173852,77.296291,NO2,16,31,22
India,Maharashtra,Nanded,"Sneh Nagar, Nanded - MPCB",27-02-2024 00:00:00,19.173852,77.296291,SO2,16,19,17
India,Maharashtra,Nanded,"Sneh Nagar, Nanded - MPCB",27-02-2024 00:00:00,19.173852,77.296291,CO,32,40,36
India,Maharashtra,Nashik,"Gangapur Road, Nashik - MPCB",27-02-2024 00:00:00,20.0073285,73.7762427,NO2,2,5,3
India,Maharashtra,Nashik,"Gangapur Road, Nashik - MPCB",27-02-2024 00:00:00,20.0073285,73.7762427,SO2,1,17,4
India,Maharashtra,Nashik,"Gangapur Road, Nashik - MPCB",27-02-2024 00:00:00,20.0073285,73.7762427,OZONE,8,69,52
India,Maharashtra,Nashik,"Hirawadi, Nashik - MPCB",27-02-2024 00:00:00,20.021503,73.813844,PM2.5,50,124,74
India,Maharashtra,Nashik,"MIDC Ambad, Nashik - MPCB",27-02-2024 00:00:00,19.950220,73.731480,NH3,2,3,2
India,Maharashtra,Nashik,"MIDC Ambad, Nashik - MPCB",27-02-2024 00:00:00,19.950220,73.731480,SO2,10,19,14
India,Maharashtra,Nashik,"Pandav Nagari, Nashik - MPCB",27-02-2024 00:00:00,19.9591346,73.7788008,PM10,72,112,90
India,Maharashtra,Nashik,"Pandav Nagari, Nashik - MPCB",27-02-2024 00:00:00,19.9591346,73.7788008,CO,17,38,31
India,Maharashtra,Navi Mumbai,"Mahape, Navi Mumbai - MPCB",27-02-2024 00:00:00,19.1135051,73.008978,PM10,81,431,182
India,Maharashtra,Navi Mumbai,"Mahape, Navi Mumbai - MPCB",27-02-2024 00:00:00,19.1135051,73.008978,CO,40,75,53
India,Maharashtra,Navi Mumbai,"Nerul, Navi Mumbai - MPCB",27-02-2024 00:00:00,19.008751,73.016620,SO2,10,16,13
India,Maharashtra,Navi Mumbai,"Sanpada, Navi Mumbai - MPCB",27-02-2024 00:00:00,19.0575752,73.0151367,PM10,103,325,181
India,Maharashtra,Navi Mumbai,"Sanpada, Navi Mumbai - MPCB",27-02-2024 00:00:00,19.0575752,73.0151367,NO2,6,57,31
India,Maharashtra,Navi Mumbai,"Sector-19A Nerul, Navi Mumbai - IITM",27-02-2024 00:00:00,19.044,73.0325,NO2,58,162,108
India,Maharashtra,Navi Mumbai,"Sector-2E Kalamboli, Navi Mumbai - MPCB",27-02-2024 00:00:00,19.02579,73.10297,CO,14,94,41
India,Maharashtra,Navi Mumbai,"Sector-2E Kalamboli, Navi Mumbai - MPCB",27-02-2024 00:00:00,19.02579,73.10297,OZONE,1,260,127
India,Maharashtra,Navi Mumbai,"Tondare-Taloja, Navi Mumbai - MPCB",27-02-2024 00:00:00,19.0630,73.1209,PM2.5,123,305,203
India,Maharashtra,Pimpri-Chinchwad,"Gavalinagar, Pimpri Chinchwad - MPCB",27-02-2024 00:00:00,18.63673,73.82487,NH3,3,4,3
India,Maharashtra,Pimpri-Chinchwad,"Park Street Wakad, Pimpri Chinchwad - MPCB",27-02-2024 00:00:00,18.59051,73.77946,PM10,118,238,155
India,Maharashtra,Pimpri-Chinchwad,"Thergaon, Pimpri Chinchwad - MPCB",27-02-2024 00:00:00,18.616318,73.765797,PM10,NA,NA,NA
India,Maharashtra,Pimpri-Chinchwad,"Thergaon, Pimpri Chinchwad - MPCB",27-02-2024 00:00:00,18.616318,73.765797,NH3,NA,NA,NA
India,Maharashtra,Pune,"Bhosari, Pune - IITM",27-02-2024 00:00:00,18.640051,73.848956,PM10,89,181,123
India,Maharashtra,Pune,"Karve Road, Pune - MPCB",27-02-2024 00:00:00,18.5011743,73.8165527,PM2.5,10,277,98
India,Maharashtra,Pune,"Katraj Dairy, Pune - MPCB",27-02-2024 00:00:00,18.454450,73.854155,PM2.5,66,190,103
India,Maharashtra,Pune,"Katraj Dairy, Pune - MPCB",27-02-2024 00:00:00,18.454450,73.854155,OZONE,9,62,35
India,Maharashtra,Pune,"Revenue Colony-Shivajinagar, Pune - IITM",27-02-2024 00:00:00,18.530085,73.849598,PM2.5,79,317,122
India,Maharashtra,Pune,"Revenue Colony-Shivajinagar, Pune - IITM",27-02-2024 00:00:00,18.530085,73.849598,SO2,67,116,106
India,Maharashtra,Pune,"Savitribai Phule Pune University, Pune - MPCB",27-02-2024 00:00:00,18.547056,73.826908,NO2,15,59,30
India,Maharashtra,Pune,"Transport Nagar-Nigdi, Pune - IITM",27-02-2024 00:00:00,18.664282,73.763966,CO,50,64,57
India,Maharashtra,Pune,"Transport Nagar-Nigdi, Pune - IITM",27-02-2024 00:00:00,18.664282,73.763966,OZONE,5,72,58
India,Maharashtra,Sangli,"Vijay Nagar, Sangli - MPCB",27-02-2024 00:00:00, 16.5038,74.3623,PM2.5,NA,NA,NA
India,Maharashtra,Sangli,"Vijay Nagar, Sangli - MPCB",27-02-2024 00:00:00, 16.5038,74.3623,OZONE,12,44,24
India,Maharashtra,Solapur,"Dnyaneshwar Nagar, Solapur - MPCB",27-02-2024 00:00:00,17.6336264,75.9132495,PM10,65,136,94
India,Maharashtra,Solapur,"Ratandeep Housing Society, Solapur - MPCB",27-02-2024 00:00:00,17.65439,75.90649,PM2.5,72,234,103
India,Maharashtra,Solapur,"Solapur, Solapur - MPCB",27-02-2024 00:00:00,17.6599188,75.9063906,PM2.5,63,105,79
India,Maharashtra,Solapur,"Solapur, Solapur - MPCB",27-02-2024 00:00:00,17.6599188,75.9063906,PM10,117,160,133
India,Maharashtra,Thane,"Pimpleshwar Mandir, Thane - MPCB",27-02-2024 00:00:00,19.192056,72.9585188,NH3,NA,NA,NA
India,Maharashtra,Thane,"Pimpleshwar Mandir, Thane - MPCB",27-02-2024 00:00:00,19.192056,72.9585188,CO,8,110,95
India,Maharashtra,Thane,"Upvan Fort, Thane - MPCB",27-02-2024 00:00:00,19.222279,72.957979,PM2.5,70,214,127
India,Maharashtra,Thane,"Upvan Fort, Thane - MPCB",27-02-2024 00:00:00,19.222279,72.957979,NH3,11,19,14
India,Maharashtra,Thane,"Upvan Fort, Thane - MPCB",27-02-2024 00:00:00,19.222279,72.957979,SO2,5,42,16
India,Maharashtra,Ulhasnagar,"Sidhi Vinayak Nagar, Ulhasnagar - MPCB",27-02-2024 00:00:00,19.235581,73.159121,SO2,8,35,19
India,Maharashtra,Ulhasnagar,"Sidhi Vinayak Nagar, Ulhasnagar - MPCB",27-02-2024 00:00:00,19.235581,73.159121,OZONE,15,164,87
India,Maharashtra,Virar,"Bolinj, Virar - MPCB",27-02-2024 00:00:00,19.4458210,72.7988231,OZONE,2,111,65
India,Manipur,Imphal,"DM College of Science, Imphal - Manipur PCB",27-02-2024 00:00:00,24.8207389,93.9423085,NO2,7,8,8
India,Manipur,Imphal,"Manipur University, Imphal - Manipur PCB",27-02-2024 00:00:00,24.7524239,93.9286218,PM2.5,45,212,81
India,Manipur,Imphal,"Manipur University, Imphal - Manipur PCB",27-02-2024 00:00:00,24.7524239,93.9286218,OZONE,3,33,18
India,Mizoram,Aizawl,"Sikulpuikawn, Aizawl - Mizoram PCB",27-02-2024 00:00:00,23.7176342,92.7192841,PM2.5,45,81,59
India,Nagaland,Kohima,"PWD Juction, Kohima - NPCB",27-02-2024 00:00:00,25.6635413,94.0989878,NO2,3,4,3
India,Nagaland,Kohima,"PWD Juction, Kohima - NPCB",27-02-2024 00:00:00,25.6635413,94.0989878,CO,7,48,27
India,Nagaland,Kohima,"PWD Juction, Kohima - NPCB",27-02-2024 00:00:00,25.6635413,94.0989878,OZONE,10,24,17
India,Odisha,Barbil,"Forest Office, Barbil - OSPCB",27-02-2024 00:00:00,22.1166054,85.3945546,NO2,6,11,8
India,Odisha,Barbil,"Forest Office, Barbil - OSPCB",27-02-2024 00:00:00,22.1166054,85.3945546,NH3,4,6,5
India,Odisha,Bhubaneswar,"Lingraj Mandir, Bhubaneswar - OSPCB",27-02-2024 00:00:00,20.240790,85.836784,PM2.5,88,157,107
India,Odisha,Bhubaneswar,"Lingraj Mandir, Bhubaneswar - OSPCB",27-02-2024 00:00:00,20.240790,85.836784,SO2,5,14,9
India,Odisha,Bhubaneswar,"Patia, Bhubaneswar - OSPCB",27-02-2024 00:00:00,20.34652,85.81630,PM10,90,144,118
India,Odisha,Bhubaneswar,"Patia, Bhubaneswar - OSPCB",27-02-2024 00:00:00,20.34652,85.81630,CO,68,98,88
India,Odisha,Bileipada,"Tata Township, Bileipada - OSPCB",27-02-2024 00:00:00,22.06156703,85.47409613,NH3,11,11,11
India,Odisha,Brajrajnagar,"GM Office, Brajrajnagar - OSPCB",27-02-2024 00:00:00,21.8004996,83.8396977,SO2,14,15,15
India,Odisha,Byasanagar,"Ferro Chrome Colony, Byasanagar - OSPCB",27-02-2024 00:00:00,20.94185,86.11510,PM2.5,72,160,110
India,Odisha,Byasanagar,"Ferro Chrome Colony, Byasanagar - OSPCB",27-02-2024 00:00:00,20.94185,86.11510,PM10,79,147,107
India,Odisha,Byasanagar,"Ferro Chrome Colony, Byasanagar - OSPCB",27-02-2024 00:00:00,20.94185,86.11510,SO2,7,21,13
India,Odisha,Keonjhar,"Jagamohanpur, Keonjhar - OSPCB",27-02-2024 00:00:00,21.643900,85.599355,NO2,NA,NA,NA
India,Odisha,Keonjhar,"Jagamohanpur, Keonjhar - OSPCB",27-02-2024 00:00:00,21.643900,85.599355,OZONE,2,14,7
India,Odisha,Nayagarh,"Dabuna, Nayagarh - OSPCB",27-02-2024 00:00:00,21.847279,85.416905,PM2.5,98,209,131
India,Odisha,Nayagarh,"Dabuna, Nayagarh - OSPCB",27-02-2024 00:00:00,21.847279,85.416905,OZONE,1,10,4
India,Odisha,Rairangpur,"Divisional Forest Office, Rairangpur - OSPCB",27-02-2024 00:00:00,22.265816,86.174829,OZONE,11,43,34
India,Odisha,Rourkela,"Raghunathpali, Rourkela - OSPCB",27-02-2024 00:00:00,22.220833,84.809444,PM2.5,95,180,120
India,Odisha,Suakati,"OMC Colony, Suakati - OSPCB",27-02-2024 00:00:00,21.606865,85.510538,PM2.5,14,157,106
India,Odisha,Tensa,"Barsua Iron Ore Mines, Tensa - OSPCB",27-02-2024 00:00:00,21.869985,85.167016,NO2,44,75,57
India,Puducherry,Puducherry,"Jawahar Nagar, Puducherry - PPCC",27-02-2024 00:00:00,11.9309,79.8027,OZONE,6,39,26
India,Punjab,Khanna,"Kalal Majra, Khanna - PPCB",27-02-2024 00:00:00,30.736056 ,76.209694,PM2.5,64,124,82
India,Punjab,Khanna,"Kalal Majra, Khanna - PPCB",27-02-2024 00:00:00,30.736056 ,76.209694,CO,42,48,45
India,Punjab,Ludhiana,"Punjab Agricultural University, Ludhiana - PPCB",27-02-2024 00:00:00,30.9028,75.8086,NO2,14,22,16
India,Punjab,Mandi Gobindgarh,"RIMT University, Mandi Gobindgarh - PPCB",27-02-2024 00:00:00,30.649961,76.331442,NO2,31,31,31
India,Punjab,Mandi Gobindgarh,"RIMT University, Mandi Gobindgarh - PPCB",27-02-2024 00:00:00,30.649961,76.331442,OZONE,32,34,33
India,Punjab,Patiala,"Model Town, Patiala - PPCB",27-02-2024 00:00:00,30.349388,76.366642,PM10,50,109,72
India,Punjab,Patiala,"Model Town, Patiala - PPCB",27-02-2024 00:00:00,30.349388,76.366642,NO2,22,26,24
India,Punjab,Patiala,"Model Town, Patiala - PPCB",27-02-2024 00:00:00,30.349388,76.366642,NH3,3,3,3
India,Punjab,Rupnagar,"Ratanpura, Rupnagar - Ambuja Cements",27-02-2024 00:00:00,31.0325454,76.5623046,PM2.5,14,84,45
India,Punjab,Rupnagar,"Ratanpura, Rupnagar - Ambuja Cements",27-02-2024 00:00:00,31.0325454,76.5623046,PM10,19,212,86
India,Rajasthan,Banswara,"Rati Talai, Banswara - RSPCB",27-02-2024 00:00:00,23.555190,74.440010,PM2.5,36,88,58
India,Rajasthan,Baran,"Bamboliya, Baran - RSPCB",27-02-2024 00:00:00,25.106006,76.469948,NH3,3,6,4
India,Rajasthan,Barmer,"Railway Colony, Barmer - RSPCB",27-02-2024 00:00:00,25.747299,71.393989,PM2.5,20,95,47
India,Rajasthan,Barmer,"Railway Colony, Barmer - RSPCB",27-02-2024 00:00:00,25.747299,71.393989,OZONE,50,133,86
India,Rajasthan,Bharatpur,"Krishna Nagar, Bharatpur - RSPCB",27-02-2024 00:00:00,27.215415,77.50873,PM2.5,11,66,31
India,Rajasthan,Bharatpur,"Krishna Nagar, Bharatpur - RSPCB",27-02-2024 00:00:00,27.215415,77.50873,PM10,83,293,145
India,Rajasthan,Bharatpur,"Krishna Nagar, Bharatpur - RSPCB",27-02-2024 00:00:00,27.215415,77.50873,NO2,35,154,64
India,Rajasthan,Bhilwara,"Pratap Nagar, Bhilwara - RSPCB",27-02-2024 00:00:00,25.339605,74.618883,CO,20,30,25
India,Rajasthan,Bhiwadi,"RIICO Ind. Area III, Bhiwadi - RSPCB",27-02-2024 00:00:00,28.194909,76.862296,PM2.5,116,247,174
India,Rajasthan,Bhiwadi,"RIICO Ind. Area III, Bhiwadi - RSPCB",27-02-2024 00:00:00,28.194909,76.862296,NH3,7,15,10
India,Rajasthan,Bikaner,"MM Ground, Bikaner - RSPCB",27-02-2024 00:00:00,28.018792,73.292658,NH3,7,11,9
India,Rajasthan,Bikaner,"MM Ground, Bikaner - RSPCB",27-02-2024 00:00:00,28.018792,73.292658,OZONE,5,78,47
India,Rajasthan,Bundi,"New Colony, Bundi - RSPCB",27-02-2024 00:00:00,25.435774,75.644272,PM2.5,34,112,50
India,Rajasthan,Bundi,"New Colony, Bundi - RSPCB",27-02-2024 00:00:00,25.435774,75.644272,NH3,2,3,3
India,Rajasthan,Chittorgarh,"Shastri Nagar, Chittorgarh - RSPCB",27-02-2024 00:00:00,24.892047,74.623527,PM10,70,161,104
India,Rajasthan,Dausa,"Khatikan Mohalla, Dausa - RSPCB",27-02-2024 00:00:00,26.895552,76.334753,NH3,4,7,5
India,Rajasthan,Dausa,"Khatikan Mohalla, Dausa - RSPCB",27-02-2024 00:00:00,26.895552,76.334753,CO,64,106,86
India,Rajasthan,Dausa,"Khatikan Mohalla, Dausa - RSPCB",27-02-2024 00:00:00,26.895552,76.334753,OZONE,60,79,70
India,Rajasthan,Dholpur,"Raja Ganj, Dholpur - RSPCB",27-02-2024 00:00:00,26.699557,77.898881,PM2.5,66,303,172
India,Rajasthan,Dungarpur,"Bhoiwada, Dungarpur - RSPCB",27-02-2024 00:00:00,23.837789,73.714926,CO,2,32,19
India,Rajasthan,Dungarpur,"Bhoiwada, Dungarpur - RSPCB",27-02-2024 00:00:00,23.837789,73.714926,OZONE,27,56,48
India,Rajasthan,Jaipur,"Adarsh Nagar, Jaipur - RSPCB",27-02-2024 00:00:00,26.902909,75.836858,PM2.5,31,88,62
India,Rajasthan,Jaipur,"Adarsh Nagar, Jaipur - RSPCB",27-02-2024 00:00:00,26.902909,75.836858,PM10,54,96,77
India,Rajasthan,Jaipur,"Adarsh Nagar, Jaipur - RSPCB",27-02-2024 00:00:00,26.902909,75.836858,OZONE,39,51,44
India,Rajasthan,Jaipur,"Mansarovar Sector-12, Jaipur - RSPCB",27-02-2024 00:00:00,26.843698,75.766894,SO2,2,13,5
India,Rajasthan,Jaipur,"Mansarovar Sector-12, Jaipur - RSPCB",27-02-2024 00:00:00,26.843698,75.766894,CO,61,150,100
India,Rajasthan,Jaipur,"Police Commissionerate, Jaipur - RSPCB",27-02-2024 00:00:00,26.9164092,75.7994901,PM10,81,146,110
India,Rajasthan,Jaipur,"Police Commissionerate, Jaipur - RSPCB",27-02-2024 00:00:00,26.9164092,75.7994901,NH3,6,8,7
India,Rajasthan,Jaipur,"Police Commissionerate, Jaipur - RSPCB",27-02-2024 00:00:00,26.9164092,75.7994901,SO2,8,26,16
India,Rajasthan,Jaipur,"RIICO Sitapura, Jaipur - RSPCB",27-02-2024 00:00:00,26.786682,75.827928,CO,6,47,26
India,Rajasthan,Jaipur,"Sector-2 Murlipura, Jaipur - RSPCB",27-02-2024 00:00:00,26.960669,75.771817,SO2,9,31,16
India,Rajasthan,Jaipur,"Shastri Nagar, Jaipur - RSPCB",27-02-2024 00:00:00,26.9502929,75.730943,PM10,76,123,105
India,Rajasthan,Jaipur,"Shastri Nagar, Jaipur - RSPCB",27-02-2024 00:00:00,26.9502929,75.730943,CO,6,88,44
India,Rajasthan,Jaisalmer,"Sadar Bazar, Jaisalmer - RSPCB",27-02-2024 00:00:00,26.912329,70.909168,OZONE,33,91,69
India,Rajasthan,Jalore,"Mudtra Sili, Jalore - RSPCB",27-02-2024 00:00:00,25.344694,72.626208,NH3,5,7,5
India,Rajasthan,Jhalawar,"Rajlaxmi Nagar, Jhalawar - RSPCB",27-02-2024 00:00:00,24.588397,76.172782,PM2.5,25,153,48
India,Rajasthan,Jhalawar,"Rajlaxmi Nagar, Jhalawar - RSPCB",27-02-2024 00:00:00,24.588397,76.172782,PM10,54,134,84
India,Rajasthan,Jhalawar,"Rajlaxmi Nagar, Jhalawar - RSPCB",27-02-2024 00:00:00,24.588397,76.172782,NO2,3,15,8
India,Rajasthan,Jhalawar,"Rajlaxmi Nagar, Jhalawar - RSPCB",27-02-2024 00:00:00,24.588397,76.172782,OZONE,62,96,81
India,Rajasthan,Jhunjhunu,"Indra Nagar, Jhunjhunu - RSPCB",27-02-2024 00:00:00,28.108988,75.386577,PM10,88,235,129
India,Rajasthan,Jhunjhunu,"Indra Nagar, Jhunjhunu - RSPCB",27-02-2024 00:00:00,28.108988,75.386577,CO,20,86,24
India,Rajasthan,Jhunjhunu,"Indra Nagar, Jhunjhunu - RSPCB",27-02-2024 00:00:00,28.108988,75.386577,OZONE,30,85,58
India,Rajasthan,Jodhpur,"Collectorate, Jodhpur - RSPCB",27-02-2024 00:00:00,26.268249,73.0193853,SO2,2,51,19
India,Rajasthan,Jodhpur,"Collectorate, Jodhpur - RSPCB",27-02-2024 00:00:00,26.268249,73.0193853,CO,24,95,66
India,Rajasthan,Jodhpur,"Digari Kalan, Jodhpur - RSPCB",27-02-2024 00:00:00,26.295810,73.082283,PM2.5,26,79,47
India,Rajasthan,Jodhpur,"Digari Kalan, Jodhpur - RSPCB",27-02-2024 00:00:00,26.295810,73.082283,NH3,5,13,7
India,Rajasthan,Jodhpur,"Digari Kalan, Jodhpur - RSPCB",27-02-2024 00:00:00,26.295810,73.082283,CO,24,38,29
India,Rajasthan,Jodhpur,"Jhalamand, Jodhpur - RSPCB",27-02-2024 00:00:00,26.215415,73.070156,NO2,26,35,30
India,Rajasthan,Jodhpur,"Jhalamand, Jodhpur - RSPCB",27-02-2024 00:00:00,26.215415,73.070156,NH3,5,7,6
India,Rajasthan,Jodhpur,"Jhalamand, Jodhpur - RSPCB",27-02-2024 00:00:00,26.215415,73.070156,OZONE,51,92,76
India,Rajasthan,Jodhpur,"Samrat Ashok Udhyan, Jodhpur - RSPCB",27-02-2024 00:00:00,26.253384,72.976571,NO2,12,99,38
India,Rajasthan,Jodhpur,"Samrat Ashok Udhyan, Jodhpur - RSPCB",27-02-2024 00:00:00,26.253384,72.976571,NH3,NA,NA,NA
India,Rajasthan,Karauli,"Satyawati Vihar, Karauli - RSPCB",27-02-2024 00:00:00,26.506177,77.025989,NO2,5,31,15
India,Rajasthan,Karauli,"Satyawati Vihar, Karauli - RSPCB",27-02-2024 00:00:00,26.506177,77.025989,CO,70,100,78
India,Rajasthan,Kota,"Dhanmandi, Kota - RSPCB",27-02-2024 00:00:00,25.164090,75.858137,PM2.5,39,73,53
India,Rajasthan,Kota,"Dhanmandi, Kota - RSPCB",27-02-2024 00:00:00,25.164090,75.858137,OZONE,2,115,55
India,Rajasthan,Kota,"Nayapura, Kota - RSPCB",27-02-2024 00:00:00,25.196024,75.855668,NO2,18,58,32
India,Rajasthan,Nagaur,"Karni Colony, Nagaur - RSPCB",27-02-2024 00:00:00,27.213494,73.734444,PM2.5,38,84,59
India,Rajasthan,Nagaur,"Karni Colony, Nagaur - RSPCB",27-02-2024 00:00:00,27.213494,73.734444,SO2,4,8,5
India,Rajasthan,Pali,"Indira Colony Vistar, Pali - RSPCB",27-02-2024 00:00:00,25.771061, 73.340227,NO2,4,69,40
India,Rajasthan,Pali,"Indira Colony Vistar, Pali - RSPCB",27-02-2024 00:00:00,25.771061, 73.340227,SO2,6,14,10
India,Rajasthan,Pratapgarh,"Pragati Nagar, Pratapgarh - RSPCB",27-02-2024 00:00:00,24.041198,74.780702,PM2.5,31,67,51
India,Rajasthan,Rajsamand,"Dhoinda, Rajsamand - RSPCB",27-02-2024 00:00:00,25.036360,73.883502,SO2,10,43,17
India,Rajasthan,Sawai Madhopur,"Sahu Nagar, Sawai Madhopur - RSPCB",27-02-2024 00:00:00,26.031443,76.359327,NO2,8,19,13
India,Rajasthan,Sikar,"Radhakishan Pura, Sikar - RSPCB",27-02-2024 00:00:00,27.608912,75.153302,PM2.5,23,87,48
India,Rajasthan,Sikar,"Radhakishan Pura, Sikar - RSPCB",27-02-2024 00:00:00,27.608912,75.153302,NO2,5,47,15
India,Rajasthan,Sikar,"Radhakishan Pura, Sikar - RSPCB",27-02-2024 00:00:00,27.608912,75.153302,NH3,5,6,6
India,Rajasthan,Sirohi,"Vedhaynath Colony, Sirohi - RSPCB",27-02-2024 00:00:00,24.885261,72.857549,PM10,48,150,75
India,Rajasthan,Sirohi,"Vedhaynath Colony, Sirohi - RSPCB",27-02-2024 00:00:00,24.885261,72.857549,OZONE,63,172,119
India,Rajasthan,Sri Ganganagar,"Old City, Sri Ganganagar - RSPCB",27-02-2024 00:00:00,29.931624,73.864511,NH3,8,24,15
India,Rajasthan,Sri Ganganagar,"Old City, Sri Ganganagar - RSPCB",27-02-2024 00:00:00,29.931624,73.864511,CO,102,128,107
India,Rajasthan,Tonk,"Shastri Nagar, Tonk - RSPCB",27-02-2024 00:00:00,26.159933,75.780517,PM2.5,57,179,78
India,Rajasthan,Tonk,"Shastri Nagar, Tonk - RSPCB",27-02-2024 00:00:00,26.159933,75.780517,NH3,5,8,6
India,Sikkim,Gangtok,"Zero Point GICI, Gangtok - SSPCB",27-02-2024 00:00:00,27.338530,88.614099,PM10,49,69,59
India,TamilNadu,Ariyalur,"Keelapalur, Ariyalur - TNPCB",27-02-2024 00:00:00,11.06825,79.07033,NO2,11,26,14
India,TamilNadu,Chennai,"Alandur Bus Depot, Chennai - CPCB",27-02-2024 00:00:00,12.9099161,80.1076538,PM10,57,110,90
India,TamilNadu,Chennai,"Arumbakkam, Chennai - TNPCB",27-02-2024 00:00:00,13.0664,80.2112 ,PM10,NA,NA,NA
India,TamilNadu,Chennai,"Gandhi Nagar_Ennore, Chennai - TNPCB",27-02-2024 00:00:00,13.218341,80.32027,PM2.5,NA,NA,NA
India,TamilNadu,Chennai,"Gandhi Nagar_Ennore, Chennai - TNPCB",27-02-2024 00:00:00,13.218341,80.32027,CO,76,104,88
India,TamilNadu,Chennai,"Kodungaiyur, Chennai - TNPCB",27-02-2024 00:00:00,13.1278,80.2642,PM2.5,15,33,23
India,TamilNadu,Chennai,"Kodungaiyur, Chennai - TNPCB",27-02-2024 00:00:00,13.1278,80.2642,NH3,3,6,3
India,TamilNadu,Chennai,"Manali, Chennai - CPCB",27-02-2024 00:00:00,13.164544,80.26285,PM2.5,18,41,33
India,TamilNadu,Chennai,"Manali, Chennai - CPCB",27-02-2024 00:00:00,13.164544,80.26285,SO2,4,35,14
India,TamilNadu,Chennai,"Perungudi, Chennai - TNPCB",27-02-2024 00:00:00,12.9533,80.2357,PM10,31,90,64
India,TamilNadu,Chennai,"Perungudi, Chennai - TNPCB",27-02-2024 00:00:00,12.9533,80.2357,NH3,2,2,2
India,TamilNadu,Chennai,"Perungudi, Chennai - TNPCB",27-02-2024 00:00:00,12.9533,80.2357,OZONE,7,9,8
India,TamilNadu,Chennai,"Royapuram, Chennai - TNPCB",27-02-2024 00:00:00,13.1036,80.2909,PM10,28,102,48
India,TamilNadu,Coimbatore,"PSG College of Arts and Science, Coimbatore - TNPCB",27-02-2024 00:00:00,11.0328,77.0349,CO,5,5,5
India,TamilNadu,Cuddalore,"Kudikadu, Cuddalore - TNPCB",27-02-2024 00:00:00,11.6829898,79.7532099,PM2.5,35,76,50
India,TamilNadu,Cuddalore,"Kudikadu, Cuddalore - TNPCB",27-02-2024 00:00:00,11.6829898,79.7532099,NH3,5,5,5
India,TamilNadu,Gummidipoondi,"Anthoni Pillai Nagar, Gummidipoondi - TNPCB",27-02-2024 00:00:00,13.4127,80.1081,NO2,8,14,10
India,TamilNadu,Gummidipoondi,"Anthoni Pillai Nagar, Gummidipoondi - TNPCB",27-02-2024 00:00:00,13.4127,80.1081,NH3,1,2,2
India,TamilNadu,Ramanathapuram,"Chalai Bazaar, Ramanathapuram - TNPCB",27-02-2024 00:00:00,9.36399,78.831977,PM10,33,74,54
India,TamilNadu,Thoothukudi,"Meelavittan, Thoothukudi - TNPCB",27-02-2024 00:00:00,8.816428 ,78.099039,PM10,32,99,51
India,TamilNadu,Tirupur,"Kumaran College, Tirupur - TNPCB",27-02-2024 00:00:00,11.0973603,77.3228673,OZONE,6,7,7
India,TamilNadu,Vellore,"Vasanthapuram, Vellore - TNPCB",27-02-2024 00:00:00,12.909494,79.131861,PM10,NA,NA,NA
India,TamilNadu,Vellore,"Vasanthapuram, Vellore - TNPCB",27-02-2024 00:00:00,12.909494,79.131861,NH3,NA,NA,NA
India,TamilNadu,Virudhunagar,"Collectorate Office, Virudhunagar - TNPCB",27-02-2024 00:00:00,9.559382,77.948828,PM10,NA,NA,NA
India,TamilNadu,Virudhunagar,"Collectorate Office, Virudhunagar - TNPCB",27-02-2024 00:00:00,9.559382,77.948828,NO2,NA,NA,NA
India,TamilNadu,Virudhunagar,"Collectorate Office, Virudhunagar - TNPCB",27-02-2024 00:00:00,9.559382,77.948828,NH3,NA,NA,NA
India,TamilNadu,Virudhunagar,"Collectorate Office, Virudhunagar - TNPCB",27-02-2024 00:00:00,9.559382,77.948828,SO2,NA,NA,NA
India,Telangana,Hyderabad,"Bollaram Industrial Area, Hyderabad - TSPCB",27-02-2024 00:00:00,17.540891,78.358528,PM2.5,32,61,48
India,Telangana,Hyderabad,"Bollaram Industrial Area, Hyderabad - TSPCB",27-02-2024 00:00:00,17.540891,78.358528,NH3,3,4,4
India,Telangana,Hyderabad,"Central University, Hyderabad - TSPCB",27-02-2024 00:00:00,17.460103,78.334361,PM2.5,NA,NA,NA
India,Telangana,Hyderabad,"Central University, Hyderabad - TSPCB",27-02-2024 00:00:00,17.460103,78.334361,CO,14,36,25
India,Telangana,Hyderabad,"ICRISAT Patancheru, Hyderabad - TSPCB",27-02-2024 00:00:00,17.518400,78.278777,PM2.5,31,47,37
India,Telangana,Hyderabad,"ICRISAT Patancheru, Hyderabad - TSPCB",27-02-2024 00:00:00,17.518400,78.278777,NH3,2,2,2
India,Telangana,Hyderabad,"IITH Kandi, Hyderabad - TSPCB",27-02-2024 00:00:00,17.585705,78.126199,OZONE,11,34,19
India,Telangana,Hyderabad,"Kokapet, Hyderabad - TSPCB",27-02-2024 00:00:00,17.393559,78.339194,PM2.5,55,98,77
India,Telangana,Hyderabad,"Kokapet, Hyderabad - TSPCB",27-02-2024 00:00:00,17.393559,78.339194,PM10,73,96,84
India,Telangana,Hyderabad,"Kokapet, Hyderabad - TSPCB",27-02-2024 00:00:00,17.393559,78.339194,SO2,8,11,9
India,Telangana,Hyderabad,"Kompally Municipal Office, Hyderabad - TSPCB",27-02-2024 00:00:00,17.544899,78.486949,NO2,NA,NA,NA
India,Telangana,Hyderabad,"Nacharam_TSIIC IALA, Hyderabad - TSPCB",27-02-2024 00:00:00,17.429398,78.569354,OZONE,52,60,60
India,Telangana,Hyderabad,"New Malakpet, Hyderabad - TSPCB",27-02-2024 00:00:00,17.37206,78.50864,OZONE,6,14,10
India,Telangana,Hyderabad,"Ramachandrapuram, Hyderabad - TSPCB",27-02-2024 00:00:00,17.528544,78.286195,NO2,9,12,10
India,Telangana,Hyderabad,"Ramachandrapuram, Hyderabad - TSPCB",27-02-2024 00:00:00,17.528544,78.286195,NH3,2,3,3
India,Telangana,Hyderabad,"Sanathnagar, Hyderabad - TSPCB",27-02-2024 00:00:00,17.4559458,78.4332152,OZONE,14,222,15
India,Telangana,Hyderabad,"Somajiguda, Hyderabad - TSPCB",27-02-2024 00:00:00,17.417094,78.457437,SO2,7,12,10
India,Telangana,Hyderabad,"Zoo Park, Hyderabad - TSPCB",27-02-2024 00:00:00,17.349694,78.451437,PM2.5,38,60,47
India,Telangana,Hyderabad,"Zoo Park, Hyderabad - TSPCB",27-02-2024 00:00:00,17.349694,78.451437,NO2,20,34,26
India,Telangana,Hyderabad,"Zoo Park, Hyderabad - TSPCB",27-02-2024 00:00:00,17.349694,78.451437,SO2,1,7,2
India,Telangana,Hyderabad,"Zoo Park, Hyderabad - TSPCB",27-02-2024 00:00:00,17.349694,78.451437,CO,20,57,47
India,Telangana,Hyderabad,"Zoo Park, Hyderabad - TSPCB",27-02-2024 00:00:00,17.349694,78.451437,OZONE,17,35,20
India,Tripura,Agartala,"Bardowali, Agartala - Tripura SPCB",27-02-2024 00:00:00,23.8175497,91.2726974,OZONE,1,29,6
India,Uttar_Pradesh,Agra,"Manoharpur, Agra - UPPCB",27-02-2024 00:00:00,27.23711,78.01936,NH3,1,1,1
India,Uttar_Pradesh,Agra,"Rohta, Agra - UPPCB",27-02-2024 00:00:00,27.106972,78.000111,PM10,22,118,50
India,Uttar_Pradesh,Agra,"Rohta, Agra - UPPCB",27-02-2024 00:00:00,27.106972,78.000111,NO2,NA,NA,NA
India,Uttar_Pradesh,Agra,"Rohta, Agra - UPPCB",27-02-2024 00:00:00,27.106972,78.000111,CO,4,35,17
India,Uttar_Pradesh,Agra,"Shahjahan Garden, Agra - UPPCB",27-02-2024 00:00:00,27.169338,78.03582,PM2.5,22,105,43
India,Uttar_Pradesh,Agra,"Shahjahan Garden, Agra - UPPCB",27-02-2024 00:00:00,27.169338,78.03582,PM10,41,132,62
India,Uttar_Pradesh,Agra,"Shahjahan Garden, Agra - UPPCB",27-02-2024 00:00:00,27.169338,78.03582,NH3,7,10,8
India,Uttar_Pradesh,Agra,"Shahjahan Garden, Agra - UPPCB",27-02-2024 00:00:00,27.169338,78.03582,OZONE,NA,NA,NA
India,Uttar_Pradesh,Bareilly,"Civil Lines, Bareilly - UPPCB",27-02-2024 00:00:00,28.359581,79.414455,OZONE,1,8,2
India,Uttar_Pradesh,Bareilly,"Rajendra Nagar, Bareilly - UPPCB",27-02-2024 00:00:00,28.38910936,79.42963708,NH3,1,1,1
India,Uttar_Pradesh,Bareilly,"Rajendra Nagar, Bareilly - UPPCB",27-02-2024 00:00:00,28.38910936,79.42963708,SO2,41,45,42
India,Uttar_Pradesh,Bareilly,"Rajendra Nagar, Bareilly - UPPCB",27-02-2024 00:00:00,28.38910936,79.42963708,OZONE,8,24,14
India,Uttar_Pradesh,Bulandshahr,"Yamunapuram, Bulandshahr - UPPCB",27-02-2024 00:00:00,28.406963,77.849831,NH3,8,18,12
India,Uttar_Pradesh,Firozabad,"Nagla Bhau, Firozabad - UPPCB",27-02-2024 00:00:00,27.168897,78.376960,PM10,26,74,45
India,Uttar_Pradesh,Firozabad,"Nagla Bhau, Firozabad - UPPCB",27-02-2024 00:00:00,27.168897,78.376960,CO,2,28,8
India,Uttar_Pradesh,Firozabad,"Vibhab Nagar, Firozabad - UPPCB",27-02-2024 00:00:00,27.1594,78.3953,PM2.5,43,92,63
India,Uttar_Pradesh,Firozabad,"Vibhab Nagar, Firozabad - UPPCB",27-02-2024 00:00:00,27.1594,78.3953,CO,22,46,36
India,Uttar_Pradesh,Ghaziabad,"Indirapuram, Ghaziabad - UPPCB",27-02-2024 00:00:00,28.646233,77.358075,PM2.5,29,275,95
India,Uttar_Pradesh,Ghaziabad,"Loni, Ghaziabad - UPPCB",27-02-2024 00:00:00,28.757294,77.278792,PM2.5,44,215,111
India,Uttar_Pradesh,Ghaziabad,"Loni, Ghaziabad - UPPCB",27-02-2024 00:00:00,28.757294,77.278792,SO2,11,32,18
India,Uttar_Pradesh,Ghaziabad,"Loni, Ghaziabad - UPPCB",27-02-2024 00:00:00,28.757294,77.278792,CO,14,70,47
India,Uttar_Pradesh,Ghaziabad,"Sanjay Nagar, Ghaziabad - UPPCB",27-02-2024 00:00:00,28.685382,77.453839,OZONE,1,115,35
India,Uttar_Pradesh,Ghaziabad,"Vasundhara, Ghaziabad - UPPCB",27-02-2024 00:00:00,28.6603346,77.3572563,NO2,24,144,65
India,Uttar_Pradesh,Hapur,"Anand Vihar, Hapur - UPPCB",27-02-2024 00:00:00,28.725645,77.749675,NO2,25,85,57
India,Uttar_Pradesh,Hapur,"Anand Vihar, Hapur - UPPCB",27-02-2024 00:00:00,28.725645,77.749675,CO,22,60,46
India,Uttar_Pradesh,Jhansi,"Shivaji Nagar, Jhansi - UPPCB",27-02-2024 00:00:00,25.4547,78.6039,PM10,NA,NA,NA
India,Uttar_Pradesh,Jhansi,"Shivaji Nagar, Jhansi - UPPCB",27-02-2024 00:00:00,25.4547,78.6039,NO2,12,20,17
India,Uttar_Pradesh,Jhansi,"Shivaji Nagar, Jhansi - UPPCB",27-02-2024 00:00:00,25.4547,78.6039,SO2,10,12,11
India,Uttar_Pradesh,Kanpur,"NSI Kalyanpur, Kanpur - UPPCB",27-02-2024 00:00:00,26.509954,80.249612,SO2,21,22,21
India,Uttar_Pradesh,Kanpur,"NSI Kalyanpur, Kanpur - UPPCB",27-02-2024 00:00:00,26.509954,80.249612,CO,30,57,44
India,Uttar_Pradesh,Kanpur,"Nehru Nagar, Kanpur - UPPCB",27-02-2024 00:00:00,26.4703136,80.3229863,PM2.5,38,270,97
India,Uttar_Pradesh,Kanpur,"Nehru Nagar, Kanpur - UPPCB",27-02-2024 00:00:00,26.4703136,80.3229863,SO2,2,38,14
India,Uttar_Pradesh,Khurja,"Kalindi Kunj, Khurja - UPPCB",27-02-2024 00:00:00,28.2348927,77.8683002,PM10,2,95,39
India,Uttar_Pradesh,Khurja,"Kalindi Kunj, Khurja - UPPCB",27-02-2024 00:00:00,28.2348927,77.8683002,NO2,14,29,19
India,Uttar_Pradesh,Lucknow,"B R Ambedkar University, Lucknow - UPPCB",27-02-2024 00:00:00,26.766433,80.927299,PM2.5,40,171,74
India,Uttar_Pradesh,Lucknow,"B R Ambedkar University, Lucknow - UPPCB",27-02-2024 00:00:00,26.766433,80.927299,SO2,26,50,30
India,Uttar_Pradesh,Lucknow,"B R Ambedkar University, Lucknow - UPPCB",27-02-2024 00:00:00,26.766433,80.927299,CO,26,54,39
India,Uttar_Pradesh,Lucknow,"Kendriya Vidyalaya, Lucknow - CPCB",27-02-2024 00:00:00,26.906111,80.948222,PM2.5,28,261,110
India,Uttar_Pradesh,Lucknow,"Kendriya Vidyalaya, Lucknow - CPCB",27-02-2024 00:00:00,26.906111,80.948222,NO2,9,86,40
India,Uttar_Pradesh,Lucknow,"Lalbagh, Lucknow - CPCB",27-02-2024 00:00:00,26.8458805,80.9365541,PM10,103,200,141
India,Uttar_Pradesh,Lucknow,"Talkatora District Industries Center, Lucknow - CPCB",27-02-2024 00:00:00,26.83399722,80.8917361,PM2.5,56,310,155
India,Uttar_Pradesh,Lucknow,"Talkatora District Industries Center, Lucknow - CPCB",27-02-2024 00:00:00,26.83399722,80.8917361,NO2,43,96,64
India,Uttar_Pradesh,Lucknow,"Talkatora District Industries Center, Lucknow - CPCB",27-02-2024 00:00:00,26.83399722,80.8917361,NH3,10,35,17
India,Uttar_Pradesh,Meerut,"Ganga Nagar, Meerut - UPPCB",27-02-2024 00:00:00,28.999264,77.7590354,PM2.5,17,144,67
India,Uttar_Pradesh,Meerut,"Ganga Nagar, Meerut - UPPCB",27-02-2024 00:00:00,28.999264,77.7590354,PM10,53,180,110
India,Uttar_Pradesh,Meerut,"Ganga Nagar, Meerut - UPPCB",27-02-2024 00:00:00,28.999264,77.7590354,NO2,24,98,48
India,Uttar_Pradesh,Meerut,"Jai Bhim Nagar, Meerut - UPPCB",27-02-2024 00:00:00,28.9535882,77.7622941,PM2.5,18,143,67
India,Uttar_Pradesh,Meerut,"Jai Bhim Nagar, Meerut - UPPCB",27-02-2024 00:00:00,28.9535882,77.7622941,CO,48,109,78
India,Uttar_Pradesh,Moradabad,"Buddhi Vihar, Moradabad - UPPCB",27-02-2024 00:00:00,28.83526,78.74460,PM10,40,135,83
India,Uttar_Pradesh,Moradabad,"Buddhi Vihar, Moradabad - UPPCB",27-02-2024 00:00:00,28.83526,78.74460,CO,24,40,30
India,Uttar_Pradesh,Moradabad,"Transport Nagar, Moradabad - UPPCB",27-02-2024 00:00:00,28.802625,78.753728,NO2,17,47,29
India,Uttar_Pradesh,Moradabad,"Transport Nagar, Moradabad - UPPCB",27-02-2024 00:00:00,28.802625,78.753728,NH3,6,6,6
India,Uttar_Pradesh,Moradabad,"Transport Nagar, Moradabad - UPPCB",27-02-2024 00:00:00,28.802625,78.753728,SO2,41,48,45
India,Uttar_Pradesh,Moradabad,"Transport Nagar, Moradabad - UPPCB",27-02-2024 00:00:00,28.802625,78.753728,CO,39,42,41
India,Uttar_Pradesh,Moradabad,"Transport Nagar, Moradabad - UPPCB",27-02-2024 00:00:00,28.802625,78.753728,OZONE,11,28,18
India,Uttar_Pradesh,Noida,"Sector - 125, Noida - UPPCB",27-02-2024 00:00:00,28.5447608,77.3231257,NH3,NA,NA,NA
India,Uttar_Pradesh,Noida,"Sector - 125, Noida - UPPCB",27-02-2024 00:00:00,28.5447608,77.3231257,SO2,NA,NA,NA
India,Uttar_Pradesh,Noida,"Sector-116, Noida - UPPCB",27-02-2024 00:00:00,28.569230,77.393848,NO2,28,122,62
India,Uttar_Pradesh,Prayagraj,"Jhunsi, Prayagraj - UPPCB",27-02-2024 00:00:00,25.425602,81.917152,CO,10,74,25
India,Uttar_Pradesh,Prayagraj,"Jhunsi, Prayagraj - UPPCB",27-02-2024 00:00:00,25.425602,81.917152,OZONE,1,24,9
India,Uttar_Pradesh,Prayagraj,"Nagar Nigam, Prayagraj - UPPCB",27-02-2024 00:00:00,25.44919916 ,81.82735986 ,NH3,2,15,7
India,Uttar_Pradesh,Prayagraj,"Nagar Nigam, Prayagraj - UPPCB",27-02-2024 00:00:00,25.44919916 ,81.82735986 ,CO,15,105,57
India,Uttar_Pradesh,Varanasi,"Bhelupur, Varanasi - UPPCB",27-02-2024 00:00:00,25.301778,82.996789,PM2.5,NA,NA,NA
India,Uttar_Pradesh,Varanasi,"Bhelupur, Varanasi - UPPCB",27-02-2024 00:00:00,25.301778,82.996789,PM10,23,92,54
India,Uttar_Pradesh,Varanasi,"IESD Banaras Hindu University, Varanasi - UPPCB",27-02-2024 00:00:00,25.262326,82.995408,PM10,20,61,43
India,Uttar_Pradesh,Varanasi,"Maldahiya, Varanasi - UPPCB",27-02-2024 00:00:00,25.32393,82.99687,NO2,1,2,2
India,Uttar_Pradesh,Varanasi,"Maldahiya, Varanasi - UPPCB",27-02-2024 00:00:00,25.32393,82.99687,NH3,1,1,1
India,Uttar_Pradesh,Varanasi,"Maldahiya, Varanasi - UPPCB",27-02-2024 00:00:00,25.32393,82.99687,OZONE,3,16,5
India,Uttar_Pradesh,Vrindavan,"Omex Eternity, Vrindavan - UPPCB",27-02-2024 00:00:00,27.5714090,77.6557570,PM2.5,15,70,36
India,Uttar_Pradesh,Vrindavan,"Omex Eternity, Vrindavan - UPPCB",27-02-2024 00:00:00,27.5714090,77.6557570,OZONE,30,32,31
India,Uttarakhand,Kashipur,"Govt. Girls Inter College, Kashipur - UKPCB",27-02-2024 00:00:00,29.2124114,78.9611753,PM2.5,59,115,76
India,West_Bengal,Asansol,"Asansol Court Area, Asansol - WBPCB",27-02-2024 00:00:00,23.685297,86.945968,SO2,10,32,18
India,West_Bengal,Asansol,"Asansol Court Area, Asansol - WBPCB",27-02-2024 00:00:00,23.685297,86.945968,CO,18,70,31
India,West_Bengal,Barrackpore,"SVSPA Campus, Barrackpore - WBPCB",27-02-2024 00:00:00,22.7605581,88.3617589,OZONE,12,100,53
India,West_Bengal,Durgapur,"Sidhu Kanhu Indoor Stadium, Durgapur - WBPCB",27-02-2024 00:00:00,23.5404352,87.2892225,PM2.5,62,158,94
India,West_Bengal,Durgapur,"Sidhu Kanhu Indoor Stadium, Durgapur - WBPCB",27-02-2024 00:00:00,23.5404352,87.2892225,NH3,1,2,2
India,West_Bengal,Haldia,"Priyambada Housing Estate, Haldia - WBPCB",27-02-2024 00:00:00,22.06047,88.109737,SO2,6,29,14
India,West_Bengal,Howrah,"Belur Math, Howrah - WBPCB",27-02-2024 00:00:00,22.629801,88.352017,OZONE,14,64,38
India,West_Bengal,Howrah,"Ghusuri, Howrah - WBPCB",27-02-2024 00:00:00,22.611968,88.347422,OZONE,13,25,19
India,West_Bengal,Kolkata,"Ballygunge, Kolkata - WBPCB",27-02-2024 00:00:00,22.5367507,88.3638022,PM10,72,140,97
India,West_Bengal,Kolkata,"Rabindra Sarobar, Kolkata - WBPCB",27-02-2024 00:00:00,22.51106,88.35142,NO2,34,145,64
India,West_Bengal,Kolkata,"Rabindra Sarobar, Kolkata - WBPCB",27-02-2024 00:00:00,22.51106,88.35142,NH3,4,9,6
India,West_Bengal,Kolkata,"Victoria, Kolkata - WBPCB",27-02-2024 00:00:00,22.5448082,88.3403691,NH3,1,8,3
India,Andhra_Pradesh,Amaravati,"Secretariat, Amaravati - APPCB",27-02-2024 00:00:00,16.5150833,80.5181667,CO,14,43,34
India,Andhra_Pradesh,Anantapur,"Gulzarpet, Anantapur - APPCB",27-02-2024 00:00:00,14.675886,77.593027,PM10,35,90,53
India,Andhra_Pradesh,Chittoor,"Gangineni Cheruvu, Chittoor - APPCB",27-02-2024 00:00:00,13.204880,79.097889,PM2.5,39,76,46
India,Andhra_Pradesh,Kadapa,"Yerramukkapalli, Kadapa - APPCB",27-02-2024 00:00:00,14.465052,78.824187,PM10,37,57,46
India,Andhra_Pradesh,Kadapa,"Yerramukkapalli, Kadapa - APPCB",27-02-2024 00:00:00,14.465052,78.824187,CO,12,18,15
India,Andhra_Pradesh,Rajamahendravaram,"Anand Kala Kshetram, Rajamahendravaram - APPCB",27-02-2024 00:00:00,16.9872867,81.7363176,PM2.5,50,109,65
India,Andhra_Pradesh,Rajamahendravaram,"Anand Kala Kshetram, Rajamahendravaram - APPCB",27-02-2024 00:00:00,16.9872867,81.7363176,OZONE,19,39,26
India,Andhra_Pradesh,Tirupati,"Tirumala, Tirupati - APPCB",27-02-2024 00:00:00,13.67,79.35,NO2,18,27,23
India,Andhra_Pradesh,Tirupati,"Tirumala, Tirupati - APPCB",27-02-2024 00:00:00,13.67,79.35,NH3,1,2,1
India,Andhra_Pradesh,Tirupati,"Tirumala, Tirupati - APPCB",27-02-2024 00:00:00,13.67,79.35,CO,35,48,43
India,Andhra_Pradesh,Tirupati,"Vaikuntapuram, Tirupati - APPCB",27-02-2024 00:00:00,13.615387,79.409230,OZONE,1,24,14
India,Andhra_Pradesh,Vijayawada,"HB Colony, Vijayawada - APPCB",27-02-2024 00:00:00,16.536107,80.594233,PM2.5,47,64,57
India,Andhra_Pradesh,Vijayawada,"HB Colony, Vijayawada - APPCB",27-02-2024 00:00:00,16.536107,80.594233,OZONE,4,20,15
India,Andhra_Pradesh,Vijayawada,"Kanuru, Vijayawada - APPCB",27-02-2024 00:00:00,16.486692,80.699436,SO2,6,16,9
India,Andhra_Pradesh,Vijayawada,"Rajiv Gandhi Park, Vijayawada - APPCB",27-02-2024 00:00:00,16.509717,80.612222,PM10,42,76,59
India,Andhra_Pradesh,Vijayawada,"Rajiv Gandhi Park, Vijayawada - APPCB",27-02-2024 00:00:00,16.509717,80.612222,CO,30,31,30
India,Andhra_Pradesh,Vijayawada,"Rajiv Gandhi Park, Vijayawada - APPCB",27-02-2024 00:00:00,16.509717,80.612222,OZONE,2,33,17
India,Andhra_Pradesh,Vijayawada,"Rajiv Nagar, Vijayawada - APPCB",27-02-2024 00:00:00,16.554731,80.649110,NO2,6,12,10
India,Andhra_Pradesh,Vijayawada,"Rajiv Nagar, Vijayawada - APPCB",27-02-2024 00:00:00,16.554731,80.649110,SO2,10,18,14
India,Arunachal_Pradesh,Naharlagun,"Naharlagun, Naharlagun - APSPCB",27-02-2024 00:00:00,27.103358,93.679645,CO,10,38,24
India,Arunachal_Pradesh,Naharlagun,"Naharlagun, Naharlagun - APSPCB",27-02-2024 00:00:00,27.103358,93.679645,OZONE,2,2,2
India,Assam,Byrnihat,"Central Academy for SFS, Byrnihat - PCBA",27-02-2024 00:00:00,26.071318,91.87488,NH3,3,9,6
India,Assam,Guwahati,"IITG, Guwahati - PCBA",27-02-2024 00:00:00,26.2028636,91.70046436,OZONE,2,33,9
India,Assam,Guwahati,"LGBI Airport, Guwahati - PCBA",27-02-2024 00:00:00,26.10887,91.589544,PM2.5,70,358,208
India,Assam,Guwahati,"LGBI Airport, Guwahati - PCBA",27-02-2024 00:00:00,26.10887,91.589544,SO2,9,13,13
India,Assam,Guwahati,"Pan Bazaar, Guwahati - PCBA",27-02-2024 00:00:00,26.187500,91.744194,PM2.5,50,313,138
India,Assam,Guwahati,"Pan Bazaar, Guwahati - PCBA",27-02-2024 00:00:00,26.187500,91.744194,NO2,1,44,5
India,Assam,Guwahati,"Railway Colony, Guwahati - PCBA",27-02-2024 00:00:00,26.181742,91.78063,NO2,3,3,3
India,Assam,Guwahati,"Railway Colony, Guwahati - PCBA",27-02-2024 00:00:00,26.181742,91.78063,SO2,6,11,9
India,Assam,Guwahati,"Railway Colony, Guwahati - PCBA",27-02-2024 00:00:00,26.181742,91.78063,CO,14,110,73
India,Assam,Nagaon,"Christianpatty, Nagaon - PCBA",27-02-2024 00:00:00,26.349082,92.68449,NH3,1,13,4
India,Assam,Nagaon,"Christianpatty, Nagaon - PCBA",27-02-2024 00:00:00,26.349082,92.68449,CO,22,106,62
India,Assam,Nalbari,"Bata Chowk, Nalbari - PCBA",27-02-2024 00:00:00,26.446912,91.439057,SO2,5,7,6
India,Assam,Nalbari,"Bata Chowk, Nalbari - PCBA",27-02-2024 00:00:00,26.446912,91.439057,OZONE,1,76,26
India,Assam,Silchar,"Tarapur, Silchar - PCBA",27-02-2024 00:00:00,24.82827,92.79525,NO2,21,38,28
India,Assam,Sivasagar,"Girls College, Sivasagar - PCBA",27-02-2024 00:00:00,26.987634,94.636574,OZONE,1,7,3
India,Bihar,Arrah,"New DM Office, Arrah - BSPCB",27-02-2024 00:00:00,25.5626095,84.663264,SO2,15,19,18
India,Bihar,Aurangabad,"Gurdeo Nagar, Aurangabad - BSPCB",27-02-2024 00:00:00,24.75746,84.366208,PM10,61,189,109
India,Bihar,Aurangabad,"Gurdeo Nagar, Aurangabad - BSPCB",27-02-2024 00:00:00,24.75746,84.366208,NH3,6,8,7
India,Bihar,Bettiah,"Kamalnath Nagar, Bettiah - BSPCB",27-02-2024 00:00:00,26.80365,84.51954,PM2.5,NA,NA,NA
India,Bihar,Bhagalpur,"DM Office_Kachari Chowk, Bhagalpur - BSPCB",27-02-2024 00:00:00,25.251013,86.989001,PM10,82,412,162
India,Bihar,Bhagalpur,"DM Office_Kachari Chowk, Bhagalpur - BSPCB",27-02-2024 00:00:00,25.251013,86.989001,NH3,5,12,7
India,Bihar,Bhagalpur,"DM Office_Kachari Chowk, Bhagalpur - BSPCB",27-02-2024 00:00:00,25.251013,86.989001,CO,33,104,63
India,Bihar,Bihar Sharif,"D M Colony, Bihar Sharif - BSPCB",27-02-2024 00:00:00,25.204762,85.514960,NO2,9,10,9
India,Bihar,Bihar Sharif,"D M Colony, Bihar Sharif - BSPCB",27-02-2024 00:00:00,25.204762,85.514960,CO,14,72,40
India,Bihar,Buxar,"Charitra Van, Buxar - BSPCB (Formerly known as Central Jail)",27-02-2024 00:00:00,25.567520,83.966379,PM2.5,NA,NA,NA
India,Bihar,Buxar,"Charitra Van, Buxar - BSPCB (Formerly known as Central Jail)",27-02-2024 00:00:00,25.567520,83.966379,CO,26,126,111
India,Bihar,Chhapra,"Darshan Nagar, Chhapra - BSPCB",27-02-2024 00:00:00,25.7808257,84.7446768,NO2,16,27,22
India,Bihar,Gaya,"Kareemganj, Gaya - BSPCB",27-02-2024 00:00:00,24.792403,84.992416,NH3,1,5,3
India,Bihar,Gaya,"SFTI Kusdihra, Gaya - BSPCB",27-02-2024 00:00:00,24.762518,84.982348,PM10,57,102,79
India,Bihar,Gaya,"SFTI Kusdihra, Gaya - BSPCB",27-02-2024 00:00:00,24.762518,84.982348,NH3,1,6,4
India,Bihar,Gaya,"SFTI Kusdihra, Gaya - BSPCB",27-02-2024 00:00:00,24.762518,84.982348,SO2,7,10,9
India,Bihar,Gaya,"SFTI Kusdihra, Gaya - BSPCB",27-02-2024 00:00:00,24.762518,84.982348,OZONE,1,75,28
India,Bihar,Hajipur,"Industrial Area, Hajipur - BSPCB",27-02-2024 00:00:00,25.697189,85.245900,PM2.5,56,168,111
India,Bihar,Hajipur,"Industrial Area, Hajipur - BSPCB",27-02-2024 00:00:00,25.697189,85.245900,NH3,3,10,8
India,Bihar,Hajipur,"Industrial Area, Hajipur - BSPCB",27-02-2024 00:00:00,25.697189,85.245900,SO2,2,5,4
India,Bihar,Hajipur,"Industrial Area, Hajipur - BSPCB",27-02-2024 00:00:00,25.697189,85.245900,OZONE,1,6,2
India,Bihar,Kishanganj,"SDM Office_Khagra, Kishanganj - BSPCB",27-02-2024 00:00:00,26.0881305,87.93840336,NH3,11,13,12
India,Bihar,Manguraha,"Forest Rest House, Manguraha - BSPCB",27-02-2024 00:00:00,27.308328,84.531742,PM2.5,22,73,48
India,Bihar,Manguraha,"Forest Rest House, Manguraha - BSPCB",27-02-2024 00:00:00,27.308328,84.531742,SO2,3,3,3
India,Bihar,Munger,"Town Hall, Munger - BSPCB",27-02-2024 00:00:00,25.376776,86.471523,PM2.5,55,498,262
India,Bihar,Munger,"Town Hall, Munger - BSPCB",27-02-2024 00:00:00,25.376776,86.471523,NO2,8,10,9
India,Bihar,Munger,"Town Hall, Munger - BSPCB",27-02-2024 00:00:00,25.376776,86.471523,NH3,1,2,2
India,Bihar,Munger,"Town Hall, Munger - BSPCB",27-02-2024 00:00:00,25.376776,86.471523,SO2,32,45,40
India,Bihar,Muzaffarpur,"Buddha Colony, Muzaffarpur - BSPCB",27-02-2024 00:00:00,26.11442,85.39813,PM10,136,414,198
India,Bihar,Muzaffarpur,"Buddha Colony, Muzaffarpur - BSPCB",27-02-2024 00:00:00,26.11442,85.39813,NO2,22,123,58
India,Bihar,Muzaffarpur,"MIT-Daudpur Kothi, Muzaffarpur - BSPCB",27-02-2024 00:00:00,26.1403345,85.3650192,NH3,1,8,3
India,Bihar,Muzaffarpur,"Muzaffarpur Collectorate, Muzaffarpur - BSPCB",27-02-2024 00:00:00,26.1209,85.3647,SO2,4,7,6
India,Bihar,Patna,"Govt. High School Shikarpur, Patna - BSPCB",27-02-2024 00:00:00,25.592539,85.227158,PM2.5,107,263,190
India,Bihar,Patna,"Govt. High School Shikarpur, Patna - BSPCB",27-02-2024 00:00:00,25.592539,85.227158,PM10,115,199,154
India,Bihar,Patna,"IGSC Planetarium Complex, Patna - BSPCB",27-02-2024 00:00:00,25.610369,85.132568,NO2,14,14,14
India,Bihar,Patna,"Muradpur, Patna - BSPCB",27-02-2024 00:00:00,25.619651,85.147382,CO,6,109,49
India,Bihar,Patna,"Rajbansi Nagar, Patna - BSPCB",27-02-2024 00:00:00,25.599486,85.113666,PM2.5,51,299,125
India,Bihar,Patna,"Rajbansi Nagar, Patna - BSPCB",27-02-2024 00:00:00,25.599486,85.113666,NO2,36,62,48
India,Bihar,Patna,"Rajbansi Nagar, Patna - BSPCB",27-02-2024 00:00:00,25.599486,85.113666,SO2,11,19,14
India,Bihar,Patna,"Samanpura, Patna - BSPCB",27-02-2024 00:00:00,25.596727,85.085624,PM10,141,500,296
India,Bihar,Purnia,"Mariam Nagar, Purnia - BSPCB",27-02-2024 00:00:00,25.366336,87.117468,NO2,11,13,12
India,Bihar,Saharsa,"Police Line, Saharsa - BSPCB",27-02-2024 00:00:00,25.892357,86.590325,PM10,96,196,138
India,Bihar,Saharsa,"Police Line, Saharsa - BSPCB",27-02-2024 00:00:00,25.892357,86.590325,SO2,16,17,17
India,Bihar,Saharsa,"Police Line, Saharsa - BSPCB",27-02-2024 00:00:00,25.892357,86.590325,OZONE,22,78,40
India,Bihar,Sasaram,"Dada Peer, Sasaram - BSPCB",27-02-2024 00:00:00,24.952822,84.002396,PM2.5,36,136,71
India,Bihar,Sasaram,"Dada Peer, Sasaram - BSPCB",27-02-2024 00:00:00,24.952822,84.002396,PM10,32,119,80
India,Bihar,Sasaram,"Dada Peer, Sasaram - BSPCB",27-02-2024 00:00:00,24.952822,84.002396,NH3,8,15,11
India,Bihar,Sasaram,"Dada Peer, Sasaram - BSPCB",27-02-2024 00:00:00,24.952822,84.002396,OZONE,4,76,25
India,Chandigarh,Chandigarh,"Sector 22, Chandigarh - CPCC",27-02-2024 00:00:00,30.735567,76.775714,SO2,8,87,20
India,Chandigarh,Chandigarh,"Sector 22, Chandigarh - CPCC",27-02-2024 00:00:00,30.735567,76.775714,OZONE,5,168,78
India,Chandigarh,Chandigarh,"Sector-25, Chandigarh - CPCC",27-02-2024 00:00:00,30.751462,76.762879,PM10,95,146,126
India,Chandigarh,Chandigarh,"Sector-25, Chandigarh - CPCC",27-02-2024 00:00:00,30.751462,76.762879,OZONE,1,50,26
India,Chhattisgarh,Bhilai,"32Bungalows, Bhilai - CECB",27-02-2024 00:00:00,21.194815,81.314770,NH3,6,7,7
India,Chhattisgarh,Bhilai,"Civic Center, Bhilai - Bhilai Steel Plant",27-02-2024 00:00:00,21.185571,81.343175,NH3,NA,NA,NA
India,Chhattisgarh,Bhilai,"Civic Center, Bhilai - Bhilai Steel Plant",27-02-2024 00:00:00,21.185571,81.343175,CO,41,53,49
India,Chhattisgarh,Bhilai,"Civic Center, Bhilai - Bhilai Steel Plant",27-02-2024 00:00:00,21.185571,81.343175,OZONE,8,62,50
India,Chhattisgarh,Bilaspur,"Mangala, Bilaspur - NTPC",27-02-2024 00:00:00,22.08815,82.13737,PM10,40,112,74
India,Chhattisgarh,Bilaspur,"Mangala, Bilaspur - NTPC",27-02-2024 00:00:00,22.08815,82.13737,NO2,19,24,21
India,Chhattisgarh,Bilaspur,"Mangala, Bilaspur - NTPC",27-02-2024 00:00:00,22.08815,82.13737,SO2,3,33,15
India,Chhattisgarh,Chhal,"Nawapara SECL Colony, Chhal - CECB",27-02-2024 00:00:00,22.118125,83.140608,SO2,10,30,14
India,Chhattisgarh,Chhal,"Nawapara SECL Colony, Chhal - CECB",27-02-2024 00:00:00,22.118125,83.140608,CO,28,50,41
India,Chhattisgarh,Chhal,"Nawapara SECL Colony, Chhal - CECB",27-02-2024 00:00:00,22.118125,83.140608,OZONE,4,54,22
India,Chhattisgarh,Kunjemura,"OP Jindal School, Kunjemura - CECB",27-02-2024 00:00:00,22.126650,83.483212,PM2.5,28,67,43
India,Chhattisgarh,Milupara,"Govt. Higher Secondary School, Milupara - CECB",27-02-2024 00:00:00,22.1910172,83.5197009,PM2.5,30,48,40
India,Chhattisgarh,Milupara,"Govt. Higher Secondary School, Milupara - CECB",27-02-2024 00:00:00,22.1910172,83.5197009,NO2,11,31,19
India,Chhattisgarh,Raipur,"Bhatagaon New ISBT, Raipur - CECB",27-02-2024 00:00:00,21.219665,81.630094,PM10,50,77,63
India,Chhattisgarh,Raipur,"Bhatagaon New ISBT, Raipur - CECB",27-02-2024 00:00:00,21.219665,81.630094,NH3,2,2,2
India,Chhattisgarh,Raipur,"Bhatagaon New ISBT, Raipur - CECB",27-02-2024 00:00:00,21.219665,81.630094,CO,24,52,42
India,Chhattisgarh,Raipur,"Krishak Nagar, Raipur - CECB",27-02-2024 00:00:00,21.237755,81.705301,SO2,8,12,10
India,Chhattisgarh,Raipur,"Siltara Phase-II, Raipur - CECB",27-02-2024 00:00:00,21.371751,81.664929,PM10,NA,NA,NA
India,Chhattisgarh,Raipur,"Siltara Phase-II, Raipur - CECB",27-02-2024 00:00:00,21.371751,81.664929,NH3,NA,NA,NA
India,Chhattisgarh,Tumidih,"OP Jindal Industrial Park, Tumidih - CECB",27-02-2024 00:00:00,22.06631475,83.33820077,OZONE,16,57,31
India,Delhi,Delhi,"Alipur, Delhi - DPCC",27-02-2024 00:00:00,28.815329,77.153010,NO2,20,109,55
India,Delhi,Delhi,"Alipur, Delhi - DPCC",27-02-2024 00:00:00,28.815329,77.153010,CO,36,76,55
India,Delhi,Delhi,"Anand Vihar, Delhi - DPCC",27-02-2024 00:00:00,28.647622,77.3158090,CO,27,111,69
India,Delhi,Delhi,"Ashok Vihar, Delhi - DPCC",27-02-2024 00:00:00,28.695381,77.181665,PM10,120,447,195
India,Delhi,Delhi,"Ashok Vihar, Delhi - DPCC",27-02-2024 00:00:00,28.695381,77.181665,NO2,29,129,66
India,Delhi,Delhi,"Bawana, Delhi - DPCC",27-02-2024 00:00:00,28.776200,77.051074,PM2.5,74,367,216
India,Delhi,Delhi,"CRRI Mathura Road, Delhi - IMD",27-02-2024 00:00:00,28.5512005,77.2735737,PM10,86,330,142
India,Delhi,Delhi,"CRRI Mathura Road, Delhi - IMD",27-02-2024 00:00:00,28.5512005,77.2735737,NO2,13,57,38
India,Delhi,Delhi,"CRRI Mathura Road, Delhi - IMD",27-02-2024 00:00:00,28.5512005,77.2735737,CO,4,132,52
India,Delhi,Delhi,"Chandni Chowk, Delhi - IITM",27-02-2024 00:00:00,28.656756,77.227234,NO2,19,20,20
India,Delhi,Delhi,"Chandni Chowk, Delhi - IITM",27-02-2024 00:00:00,28.656756,77.227234,NH3,7,8,8
India,Delhi,Delhi,"DTU, Delhi - CPCB",27-02-2024 00:00:00,28.7500499,77.1112615,NO2,45,70,55
India,Delhi,Delhi,"DTU, Delhi - CPCB",27-02-2024 00:00:00,28.7500499,77.1112615,SO2,30,35,32
India,Delhi,Delhi,"DTU, Delhi - CPCB",27-02-2024 00:00:00,28.7500499,77.1112615,CO,15,40,24
India,Delhi,Delhi,"DTU, Delhi - CPCB",27-02-2024 00:00:00,28.7500499,77.1112615,OZONE,25,54,27
India,Delhi,Delhi,"Dr. Karni Singh Shooting Range, Delhi - DPCC",27-02-2024 00:00:00,28.498571,77.264840,OZONE,1,192,54
India,Delhi,Delhi,"Dwarka-Sector 8, Delhi - DPCC ",27-02-2024 00:00:00,28.5710274,77.0719006,PM2.5,70,333,195
India,Delhi,Delhi,"IHBAS, Dilshad Garden, Delhi - CPCB",27-02-2024 00:00:00,28.6811736,77.3025234,SO2,3,71,16
India,Delhi,Delhi,"Jahangirpuri, Delhi - DPCC",27-02-2024 00:00:00,28.732820,77.170633,PM10,124,465,234
India,Delhi,Delhi,"Jahangirpuri, Delhi - DPCC",27-02-2024 00:00:00,28.732820,77.170633,NO2,44,125,80
India,Delhi,Delhi,"Jahangirpuri, Delhi - DPCC",27-02-2024 00:00:00,28.732820,77.170633,SO2,7,33,13
India,Delhi,Delhi,"Lodhi Road, Delhi - IITM",27-02-2024 00:00:00,28.588333,77.221667,PM2.5,16,417,98
India,Delhi,Delhi,"Lodhi Road, Delhi - IITM",27-02-2024 00:00:00,28.588333,77.221667,CO,64,68,66
India,Delhi,Delhi,"Mandir Marg, Delhi - DPCC",27-02-2024 00:00:00,28.636429,77.201067,NO2,110,136,124
India,Delhi,Delhi,"Mundka, Delhi - DPCC",27-02-2024 00:00:00,28.684678,77.076574,PM10,106,412,208
India,Delhi,Delhi,"Mundka, Delhi - DPCC",27-02-2024 00:00:00,28.684678,77.076574,NH3,6,11,8
India,Delhi,Delhi,"Mundka, Delhi - DPCC",27-02-2024 00:00:00,28.684678,77.076574,SO2,6,100,21
India,Delhi,Delhi,"NSIT Dwarka, Delhi - CPCB",27-02-2024 00:00:00,28.60909,77.0325413,NH3,11,14,12
India,Delhi,Delhi,"Najafgarh, Delhi - DPCC",27-02-2024 00:00:00,28.570173,76.933762,PM2.5,NA,NA,NA
India,Delhi,Delhi,"Najafgarh, Delhi - DPCC",27-02-2024 00:00:00,28.570173,76.933762,PM10,NA,NA,NA
India,Delhi,Delhi,"Najafgarh, Delhi - DPCC",27-02-2024 00:00:00,28.570173,76.933762,CO,4,30,19
India,Delhi,Delhi,"Narela, Delhi - DPCC",27-02-2024 00:00:00,28.822836,77.101981,PM10,83,259,173
India,Delhi,Delhi,"Narela, Delhi - DPCC",27-02-2024 00:00:00,28.822836,77.101981,CO,34,64,52
India,Delhi,Delhi,"Nehru Nagar, Delhi - DPCC",27-02-2024 00:00:00,28.567890,77.250515,PM10,105,337,169
India,Delhi,Delhi,"Nehru Nagar, Delhi - DPCC",27-02-2024 00:00:00,28.567890,77.250515,NO2,19,33,28
India,Delhi,Delhi,"North Campus, DU, Delhi - IMD",27-02-2024 00:00:00,28.6573814,77.1585447,NO2,NA,NA,NA
India,Delhi,Delhi,"Okhla Phase-2, Delhi - DPCC",27-02-2024 00:00:00,28.530785,77.271255,PM2.5,60,305,162
India,Delhi,Delhi,"Okhla Phase-2, Delhi - DPCC",27-02-2024 00:00:00,28.530785,77.271255,NO2,67,266,137
India,Delhi,Delhi,"Punjabi Bagh, Delhi - DPCC",27-02-2024 00:00:00,28.674045,77.131023,NH3,1,2,2
India,Delhi,Delhi,"Pusa, Delhi - DPCC",27-02-2024 00:00:00,28.639652,77.146275,NO2,53,146,97
India,Delhi,Delhi,"R K Puram, Delhi - DPCC",27-02-2024 00:00:00,28.563262,77.186937,CO,29,136,96
India,Delhi,Delhi,"Rohini, Delhi - DPCC",27-02-2024 00:00:00,28.732528,77.119920,PM10,101,426,193
India,Delhi,Delhi,"Sirifort, Delhi - CPCB",27-02-2024 00:00:00,28.5504249,77.2159377,PM10,41,106,59
India,Delhi,Delhi,"Sirifort, Delhi - CPCB",27-02-2024 00:00:00,28.5504249,77.2159377,NO2,80,218,172
India,Delhi,Delhi,"Sirifort, Delhi - CPCB",27-02-2024 00:00:00,28.5504249,77.2159377,NH3,7,11,9
India,Delhi,Delhi,"Sirifort, Delhi - CPCB",27-02-2024 00:00:00,28.5504249,77.2159377,CO,15,127,82
India,Delhi,Delhi,"Sonia Vihar, Delhi - DPCC",27-02-2024 00:00:00,28.710508,77.249485,PM10,82,224,143
India,Delhi,Delhi,"Sri Aurobindo Marg, Delhi - DPCC",27-02-2024 00:00:00,28.531346,77.190156,SO2,7,38,15
India,Delhi,Delhi,"Vivek Vihar, Delhi - DPCC",27-02-2024 00:00:00,28.672342,77.315260,PM10,114,382,193
India,Delhi,Delhi,"Wazirpur, Delhi - DPCC",27-02-2024 00:00:00,28.699793,77.165453,NO2,75,189,130
India,Delhi,Delhi,"Wazirpur, Delhi - DPCC",27-02-2024 00:00:00,28.699793,77.165453,SO2,21,57,34
India,Delhi,Delhi,"Wazirpur, Delhi - DPCC",27-02-2024 00:00:00,28.699793,77.165453,OZONE,7,101,33
India,Gujarat,Ahmedabad,"Chandkheda, Ahmedabad - IITM",27-02-2024 00:00:00,23.107969,72.574648,SO2,5,31,8
India,Gujarat,Ahmedabad,"Gyaspur, Ahmedabad - IITM",27-02-2024 00:00:00,22.977134,72.553024,PM10,30,87,43
India,Gujarat,Ahmedabad,"Gyaspur, Ahmedabad - IITM",27-02-2024 00:00:00,22.977134,72.553024,SO2,3,5,4
India,Gujarat,Ahmedabad,"SAC ISRO Satellite, Ahmedabad - IITM",27-02-2024 00:00:00,23.023389,72.515201,SO2,12,32,16
India,Gujarat,Ahmedabad,"SVPI Airport Hansol, Ahmedabad - IITM",27-02-2024 00:00:00,23.076793,72.627874,NO2,16,22,19
India,Gujarat,Ahmedabad,"SVPI Airport Hansol, Ahmedabad - IITM",27-02-2024 00:00:00,23.076793,72.627874,SO2,3,3,3
India,Gujarat,Ahmedabad,"SVPI Airport Hansol, Ahmedabad - IITM",27-02-2024 00:00:00,23.076793,72.627874,OZONE,1,27,8
India,Gujarat,Ahmedabad,"Sardar Vallabhbhai Patel Stadium, Ahmedabad - IITM",27-02-2024 00:00:00,23.043070,72.562968,PM2.5,68,174,95
India,Gujarat,Ahmedabad,"Sardar Vallabhbhai Patel Stadium, Ahmedabad - IITM",27-02-2024 00:00:00,23.043070,72.562968,PM10,91,138,111
India,Gujarat,Ahmedabad,"Sardar Vallabhbhai Patel Stadium, Ahmedabad - IITM",27-02-2024 00:00:00,23.043070,72.562968,NO2,12,15,13
India,Gujarat,Gandhinagar,"IIPHG Lekawada, Gandhinagar - IITM",27-02-2024 00:00:00,23.243639,72.68994,NO2,32,33,32
India,Gujarat,Gandhinagar,"Sector-10, Gandhinagar - GPCB",27-02-2024 00:00:00,23.221714,72.654328,PM2.5,23,51,30
India,Gujarat,Gandhinagar,"Sector-10, Gandhinagar - GPCB",27-02-2024 00:00:00,23.221714,72.654328,NO2,3,15,8
India,Gujarat,Gandhinagar,"Sector-10, Gandhinagar - GPCB",27-02-2024 00:00:00,23.221714,72.654328,SO2,3,8,6
India,Gujarat,Gandhinagar,"Sector-10, Gandhinagar - GPCB",27-02-2024 00:00:00,23.221714,72.654328,OZONE,2,36,16
India,Gujarat,Surat,"Science Center, Surat - SMC",27-02-2024 00:00:00,21.170046,72.795405,PM10,NA,NA,NA
India,Gujarat,Surat,"Science Center, Surat - SMC",27-02-2024 00:00:00,21.170046,72.795405,NO2,NA,NA,NA
India,Gujarat,Vapi,"Phase-1 GIDC, Vapi - GPCB",27-02-2024 00:00:00,20.362421,72.918013,NH3,16,18,17
India,Gujarat,Vapi,"Phase-1 GIDC, Vapi - GPCB",27-02-2024 00:00:00,20.362421,72.918013,OZONE,42,56,53
India,Gujarat,Vatva,"Phase-4 GIDC, Vatva - GPCB",27-02-2024 00:00:00,22.969611,72.643500,CO,48,50,49
India,Haryana,Ambala,"Patti Mehar, Ambala - HSPCB",27-02-2024 00:00:00,30.379589,76.778328,PM10,31,65,46
India,Haryana,Ambala,"Patti Mehar, Ambala - HSPCB",27-02-2024 00:00:00,30.379589,76.778328,NO2,2,8,7
India,Haryana,Bahadurgarh,"Arya Nagar, Bahadurgarh - HSPCB",27-02-2024 00:00:00,28.6701,76.9254,PM10,101,174,128
India,Haryana,Ballabgarh,"Nathu Colony, Ballabgarh - HSPCB",27-02-2024 00:00:00,28.3419248,77.319699,NO2,12,13,12
India,Haryana,Ballabgarh,"Nathu Colony, Ballabgarh - HSPCB",27-02-2024 00:00:00,28.3419248,77.319699,OZONE,1,26,9
India,Haryana,Bhiwani,"H.B. Colony, Bhiwani - HSPCB",27-02-2024 00:00:00,28.806223,76.141105,PM10,21,63,40
India,Haryana,Bhiwani,"H.B. Colony, Bhiwani - HSPCB",27-02-2024 00:00:00,28.806223,76.141105,SO2,8,16,11
India,Haryana,Faridabad,"New Industrial Town, Faridabad - HSPCB",27-02-2024 00:00:00,28.39072,77.30059,PM10,2,471,142
India,Haryana,Faridabad,"Sector 11, Faridabad - HSPCB",27-02-2024 00:00:00,28.376058,77.315741,PM2.5,78,228,150
India,Haryana,Faridabad,"Sector 11, Faridabad - HSPCB",27-02-2024 00:00:00,28.376058,77.315741,OZONE,2,65,4
India,Haryana,Faridabad,"Sector 30, Faridabad - HSPCB",27-02-2024 00:00:00,28.4417,77.3217,NH3,9,9,9
India,Haryana,Fatehabad,"Huda Sector, Fatehabad - HSPCB",27-02-2024 00:00:00,29.503664,75.467934,PM10,NA,NA,NA
India,Haryana,Fatehabad,"Huda Sector, Fatehabad - HSPCB",27-02-2024 00:00:00,29.503664,75.467934,SO2,NA,NA,NA
India,Haryana,Gurugram,"Sector-51, Gurugram - HSPCB",27-02-2024 00:00:00,28.4227,77.0667,OZONE,27,67,56
India,Haryana,Jind,"Police Lines, Jind - HSPCB",27-02-2024 00:00:00,29.307814,76.337619,CO,1,119,32
India,Haryana,Kaithal,"Rishi Nagar, Kaithal - HSPCB",27-02-2024 00:00:00,29.8006,76.4155,SO2,2,109,32
India,Haryana,Karnal,"Sector-12, Karnal - HSPCB",27-02-2024 00:00:00,29.695300,77.002700,SO2,12,13,12
India,Haryana,Mandikhera,"General Hospital, Mandikhera - HSPCB",27-02-2024 00:00:00,27.9002,76.9938,CO,24,45,34
India,Haryana,Manesar,"Sector-2 IMT, Manesar - HSPCB",27-02-2024 00:00:00,28.360699,76.936090,PM10,82,190,136
India,Haryana,Manesar,"Sector-2 IMT, Manesar - HSPCB",27-02-2024 00:00:00,28.360699,76.936090,NO2,11,29,21
India,Haryana,Manesar,"Sector-2 IMT, Manesar - HSPCB",27-02-2024 00:00:00,28.360699,76.936090,NH3,7,17,11
India,Haryana,Manesar,"Sector-2 IMT, Manesar - HSPCB",27-02-2024 00:00:00,28.360699,76.936090,CO,22,54,31
India,Haryana,Panipat,"Sector-18, Panipat - HSPCB",27-02-2024 00:00:00,29.497973,76.993331,PM10,88,92,90
India,Haryana,Rohtak,"MD University, Rohtak - HSPCB",27-02-2024 00:00:00,28.52123,76.37138,SO2,5,8,7
India,Haryana,Sirsa,"F-Block, Sirsa - HSPCB",27-02-2024 00:00:00,29.536400,75.015800,SO2,1,17,10
India,Haryana,Yamuna Nagar,"Gobind Pura, Yamuna Nagar - HSPCB",27-02-2024 00:00:00,30.1480566,77.2893471,NH3,1,6,2
India,Haryana,Yamuna Nagar,"Gobind Pura, Yamuna Nagar - HSPCB",27-02-2024 00:00:00,30.1480566,77.2893471,OZONE,19,37,29
India,Himachal Pradesh,Baddi,"HIMUDA Complex Phase-1, Baddi - HPPCB",27-02-2024 00:00:00,30.943887,76.801991,NO2,11,70,32
India,Himachal Pradesh,Baddi,"HIMUDA Complex Phase-1, Baddi - HPPCB",27-02-2024 00:00:00,30.943887,76.801991,SO2,14,123,45
India,Karnataka,Bagalkot,"Vidayagiri, Bagalkot - KSPCB",27-02-2024 00:00:00,16.172806,75.659694,SO2,NA,NA,NA
India,Karnataka,Belgaum,"Ramteerth Nagar, Belgaum - KSPCB",27-02-2024 00:00:00,15.888653,74.541751,PM10,24,103,56
