country,state,city,station,last_update,latitude,longitude,pollutant_id,pollutant_min,pollutant_max,pollutant_avg
India,Andhra_Pradesh,Amaravati,"Secretariat, Amaravati - APPCB",05-06-2024 01:00:00,16.5150833,80.5181667,PM2.5,16,36,20
India,Andhra_Pradesh,Amaravati,"Secretariat, Amaravati - APPCB",05-06-2024 01:00:00,16.5150833,80.5181667,NO2,5,13,8
India,Andhra_Pradesh,Amaravati,"Secretariat, Amaravati - APPCB",05-06-2024 01:00:00,16.5150833,80.5181667,NH3,3,4,4
India,Andhra_Pradesh,Amaravati,"Secretariat, Amaravati - APPCB",05-06-2024 01:00:00,16.5150833,80.5181667,OZONE,13,69,60
India,Andhra_Pradesh,Anantapur,"Gulzarpet, Anantapur - APPCB",05-06-2024 01:00:00,14.675886,77.593027,NH3,4,4,4
India,Andhra_Pradesh,Anantapur,"Gulzarpet, Anantapur - APPCB",05-06-2024 01:00:00,14.675886,77.593027,CO,20,48,36
India,Andhra_Pradesh,Tirupati,"Tirumala, Tirupati - APPCB",05-06-2024 01:00:00,13.67,79.35,PM10,26,133,48
India,Andhra_Pradesh,Tirupati,"Tirumala, Tirupati - APPCB",05-06-2024 01:00:00,13.67,79.35,NH3,1,2,1
India,Andhra_Pradesh,Tirupati,"Tirumala, Tirupati - APPCB",05-06-2024 01:00:00,13.67,79.35,OZONE,22,45,37
India,Andhra_Pradesh,Tirupati,"Vaikuntapuram, Tirupati - APPCB",05-06-2024 01:00:00,13.615387,79.409230,PM2.5,NA,NA,NA
India,Andhra_Pradesh,Tirupati,"Vaikuntapuram, Tirupati - APPCB",05-06-2024 01:00:00,13.615387,79.409230,NO2,16,26,20
India,Andhra_Pradesh,Vijayawada,"HB Colony, Vijayawada - APPCB",05-06-2024 01:00:00,16.536107,80.594233,NO2,15,21,17
India,Andhra_Pradesh,Vijayawada,"Kanuru, Vijayawada - APPCB",05-06-2024 01:00:00,16.486692,80.699436,OZONE,40,40,40
India,Andhra_Pradesh,Visakhapatnam,"GVM Corporation, Visakhapatnam - APPCB",05-06-2024 01:00:00,17.72,83.3,NH3,2,5,3
India,Arunachal_Pradesh,Naharlagun,"Naharlagun, Naharlagun - APSPCB",05-06-2024 01:00:00,27.103358,93.679645,SO2,NA,NA,NA
India,Assam,Byrnihat,"Central Academy for SFS, Byrnihat - PCBA",05-06-2024 01:00:00,26.071318,91.87488,PM10,12,312,68
India,Assam,Byrnihat,"Central Academy for SFS, Byrnihat - PCBA",05-06-2024 01:00:00,26.071318,91.87488,NO2,7,41,21
India,Assam,Byrnihat,"Central Academy for SFS, Byrnihat - PCBA",05-06-2024 01:00:00,26.071318,91.87488,SO2,6,65,48
India,Assam,Guwahati,"IITG, Guwahati - PCBA",05-06-2024 01:00:00,26.2028636,91.70046436,OZONE,9,31,19
India,Assam,Guwahati,"LGBI Airport, Guwahati - PCBA",05-06-2024 01:00:00,26.10887,91.589544,PM10,NA,NA,NA
India,Assam,Nalbari,"Bata Chowk, Nalbari - PCBA",05-06-2024 01:00:00,26.446912,91.439057,SO2,5,12,10
India,Assam,Silchar,"Tarapur, Silchar - PCBA",05-06-2024 01:00:00,24.82827,92.79525,NH3,1,1,1
India,Assam,Silchar,"Tarapur, Silchar - PCBA",05-06-2024 01:00:00,24.82827,92.79525,OZONE,NA,NA,NA
India,Bihar,Araria,"Kharahiya Basti, Araria - BSPCB",05-06-2024 01:00:00,26.146529,87.454184,SO2,10,17,13
India,Bihar,Araria,"Kharahiya Basti, Araria - BSPCB",05-06-2024 01:00:00,26.146529,87.454184,CO,18,30,22
India,Bihar,Arrah,"New DM Office, Arrah - BSPCB",05-06-2024 01:00:00,25.5626095,84.663264,PM10,38,114,71
India,Bihar,Aurangabad,"Gurdeo Nagar, Aurangabad - BSPCB",05-06-2024 01:00:00,24.75746,84.366208,PM10,NA,NA,NA
India,Bihar,Aurangabad,"Gurdeo Nagar, Aurangabad - BSPCB",05-06-2024 01:00:00,24.75746,84.366208,NH3,5,49,12
India,Bihar,Aurangabad,"Gurdeo Nagar, Aurangabad - BSPCB",05-06-2024 01:00:00,24.75746,84.366208,CO,2,30,14
India,Bihar,Bettiah,"Kamalnath Nagar, Bettiah - BSPCB",05-06-2024 01:00:00,26.80365,84.51954,NH3,22,37,31
India,Bihar,Bhagalpur,"DM Office_Kachari Chowk, Bhagalpur - BSPCB",05-06-2024 01:00:00,25.251013,86.989001,NO2,25,53,42
India,Bihar,Bhagalpur,"DM Office_Kachari Chowk, Bhagalpur - BSPCB",05-06-2024 01:00:00,25.251013,86.989001,OZONE,45,55,47
India,Bihar,Bhagalpur,"Mayaganj, Bhagalpur - BSPCB",05-06-2024 01:00:00,25.265194,87.012947,NH3,8,9,9
India,Bihar,Bhagalpur,"Mayaganj, Bhagalpur - BSPCB",05-06-2024 01:00:00,25.265194,87.012947,OZONE,12,48,24
India,Bihar,Bihar Sharif,"D M Colony, Bihar Sharif - BSPCB",05-06-2024 01:00:00,25.204762,85.514960,PM2.5,27,87,60
India,Bihar,Bihar Sharif,"D M Colony, Bihar Sharif - BSPCB",05-06-2024 01:00:00,25.204762,85.514960,PM10,40,118,86
India,Bihar,Buxar,"Charitra Van, Buxar - BSPCB (Formerly known as Central Jail)",05-06-2024 01:00:00,25.567520,83.966379,PM2.5,NA,NA,NA
India,Bihar,Chhapra,"Darshan Nagar, Chhapra - BSPCB",05-06-2024 01:00:00,25.7808257,84.7446768,NO2,11,22,15
India,Bihar,Chhapra,"Darshan Nagar, Chhapra - BSPCB",05-06-2024 01:00:00,25.7808257,84.7446768,SO2,12,24,17
India,Bihar,Chhapra,"Darshan Nagar, Chhapra - BSPCB",05-06-2024 01:00:00,25.7808257,84.7446768,CO,20,42,33
India,Bihar,Gaya,"Collectorate, Gaya - BSPCB",05-06-2024 01:00:00,24.7955,84.9994,SO2,6,28,13
India,Bihar,Gaya,"SFTI Kusdihra, Gaya - BSPCB",05-06-2024 01:00:00,24.762518,84.982348,CO,19,35,27
India,Bihar,Katihar,"Mirchaibari, Katihar - BSPCB",05-06-2024 01:00:00,25.560083,87.553265,NO2,NA,NA,NA
India,Bihar,Katihar,"Mirchaibari, Katihar - BSPCB",05-06-2024 01:00:00,25.560083,87.553265,SO2,2,18,9
India,Bihar,Manguraha,"Forest Rest House, Manguraha - BSPCB",05-06-2024 01:00:00,27.308328,84.531742,PM2.5,NA,NA,NA
India,Bihar,Motihari,"Gandak Colony, Motihari - BSPCB",05-06-2024 01:00:00,26.63086,84.90051,CO,3,16,10
India,Bihar,Muzaffarpur,"MIT-Daudpur Kothi, Muzaffarpur - BSPCB",05-06-2024 01:00:00,26.1403345,85.3650192,NO2,3,6,5
India,Bihar,Patna,"DRM Office Danapur, Patna - BSPCB",05-06-2024 01:00:00,25.586562,85.043586,CO,18,36,28
India,Bihar,Patna,"Muradpur, Patna - BSPCB",05-06-2024 01:00:00,25.619651,85.147382,PM2.5,70,360,208
India,Bihar,Patna,"Muradpur, Patna - BSPCB",05-06-2024 01:00:00,25.619651,85.147382,PM10,127,413,191
India,Bihar,Patna,"Muradpur, Patna - BSPCB",05-06-2024 01:00:00,25.619651,85.147382,NO2,21,154,40
India,Bihar,Patna,"Muradpur, Patna - BSPCB",05-06-2024 01:00:00,25.619651,85.147382,CO,26,61,35
India,Bihar,Patna,"Rajbansi Nagar, Patna - BSPCB",05-06-2024 01:00:00,25.599486,85.113666,PM10,58,132,106
India,Bihar,Patna,"Rajbansi Nagar, Patna - BSPCB",05-06-2024 01:00:00,25.599486,85.113666,SO2,4,13,8
India,Bihar,Patna,"Samanpura, Patna - BSPCB",05-06-2024 01:00:00,25.596727,85.085624,PM10,117,201,152
India,Bihar,Patna,"Samanpura, Patna - BSPCB",05-06-2024 01:00:00,25.596727,85.085624,NO2,7,169,23
India,Bihar,Rajgir,"Dangi Tola, Rajgir - BSPCB",05-06-2024 01:00:00,25.03280,85.41948,NH3,2,2,2
India,Bihar,Rajgir,"Dangi Tola, Rajgir - BSPCB",05-06-2024 01:00:00,25.03280,85.41948,OZONE,32,36,34
India,Bihar,Samastipur,"DM Office_Kasipur, Samastipur - BSPCB",05-06-2024 01:00:00,25.859655,85.77944,NO2,4,5,4
India,Bihar,Sasaram,"Dada Peer, Sasaram - BSPCB",05-06-2024 01:00:00,24.952822,84.002396,NH3,6,12,9
India,Bihar,Sasaram,"Dada Peer, Sasaram - BSPCB",05-06-2024 01:00:00,24.952822,84.002396,SO2,NA,NA,NA
India,Bihar,Siwan,"Chitragupta Nagar, Siwan - BSPCB",05-06-2024 01:00:00,26.2271665,84.3570427,PM10,49,123,93
India,Bihar,Siwan,"Chitragupta Nagar, Siwan - BSPCB",05-06-2024 01:00:00,26.2271665,84.3570427,NO2,7,17,11
India,Chandigarh,Chandigarh,"Sector 22, Chandigarh - CPCC",05-06-2024 01:00:00,30.735567,76.775714,NO2,11,147,58
India,Chandigarh,Chandigarh,"Sector 22, Chandigarh - CPCC",05-06-2024 01:00:00,30.735567,76.775714,OZONE,3,245,83
India,Chandigarh,Chandigarh,"Sector-25, Chandigarh - CPCC",05-06-2024 01:00:00,30.751462,76.762879,NO2,3,45,15
India,Chhattisgarh,Bhilai,"32Bungalows, Bhilai - CECB",05-06-2024 01:00:00,21.194815,81.314770,CO,12,50,26
India,Chhattisgarh,Bhilai,"Civic Center, Bhilai - Bhilai Steel Plant",05-06-2024 01:00:00,21.185571,81.343175,PM2.5,24,45,31
India,Chhattisgarh,Bhilai,"Civic Center, Bhilai - Bhilai Steel Plant",05-06-2024 01:00:00,21.185571,81.343175,NO2,7,8,8
India,Chhattisgarh,Bhilai,"Civic Center, Bhilai - Bhilai Steel Plant",05-06-2024 01:00:00,21.185571,81.343175,CO,18,94,53
India,Chhattisgarh,Bhilai,"Hathkhoj, Bhilai - CECB",05-06-2024 01:00:00,21.224231,81.408350,SO2,11,25,14
India,Chhattisgarh,Bilaspur,"Mangala, Bilaspur - NTPC",05-06-2024 01:00:00,22.08815,82.13737,SO2,8,20,15
India,Chhattisgarh,Kunjemura,"OP Jindal School, Kunjemura - CECB",05-06-2024 01:00:00,22.126650,83.483212,PM2.5,24,118,48
India,Chhattisgarh,Kunjemura,"OP Jindal School, Kunjemura - CECB",05-06-2024 01:00:00,22.126650,83.483212,PM10,31,221,69
India,Chhattisgarh,Milupara,"Govt. Higher Secondary School, Milupara - CECB",05-06-2024 01:00:00,22.1910172,83.5197009,NO2,NA,NA,NA
India,Chhattisgarh,Raipur,"AIIMS, Raipur - CECB",05-06-2024 01:00:00,21.258815,81.578979,PM2.5,28,50,36
India,Chhattisgarh,Raipur,"AIIMS, Raipur - CECB",05-06-2024 01:00:00,21.258815,81.578979,PM10,38,89,55
India,Chhattisgarh,Raipur,"AIIMS, Raipur - CECB",05-06-2024 01:00:00,21.258815,81.578979,NH3,NA,NA,NA
India,Chhattisgarh,Raipur,"AIIMS, Raipur - CECB",05-06-2024 01:00:00,21.258815,81.578979,OZONE,5,32,17
India,Chhattisgarh,Raipur,"Bhatagaon New ISBT, Raipur - CECB",05-06-2024 01:00:00,21.219665,81.630094,SO2,1,3,2
India,Chhattisgarh,Raipur,"Krishak Nagar, Raipur - CECB",05-06-2024 01:00:00,21.237755,81.705301,CO,17,30,21
India,Chhattisgarh,Raipur,"Siltara Phase-II, Raipur - CECB",05-06-2024 01:00:00,21.371751,81.664929,PM2.5,22,105,56
India,Delhi,Delhi,"Alipur, Delhi - DPCC",05-06-2024 01:00:00,28.815329,77.153010,PM10,120,308,196
India,Delhi,Delhi,"Bawana, Delhi - DPCC",05-06-2024 01:00:00,28.776200,77.051074,NH3,3,5,4
India,Delhi,Delhi,"Bawana, Delhi - DPCC",05-06-2024 01:00:00,28.776200,77.051074,CO,36,102,71
India,Delhi,Delhi,"Dr. Karni Singh Shooting Range, Delhi - DPCC",05-06-2024 01:00:00,28.498571,77.264840,PM10,95,279,180
India,Delhi,Delhi,"Dr. Karni Singh Shooting Range, Delhi - DPCC",05-06-2024 01:00:00,28.498571,77.264840,SO2,13,25,17
India,Delhi,Delhi,"Dr. Karni Singh Shooting Range, Delhi - DPCC",05-06-2024 01:00:00,28.498571,77.264840,CO,26,51,36
India,Delhi,Delhi,"Dwarka-Sector 8, Delhi - DPCC ",05-06-2024 01:00:00,28.5710274,77.0719006,NO2,17,111,48
India,Delhi,Delhi,"Dwarka-Sector 8, Delhi - DPCC ",05-06-2024 01:00:00,28.5710274,77.0719006,NH3,6,11,8
India,Delhi,Delhi,"IHBAS, Dilshad Garden, Delhi - CPCB",05-06-2024 01:00:00,28.6811736,77.3025234,NH3,2,10,6
India,Delhi,Delhi,"ITO, Delhi - CPCB",05-06-2024 01:00:00,28.628624,77.241060,NH3,4,8,7
India,Delhi,Delhi,"ITO, Delhi - CPCB",05-06-2024 01:00:00,28.628624,77.241060,CO,22,132,87
India,Delhi,Delhi,"Jahangirpuri, Delhi - DPCC",05-06-2024 01:00:00,28.732820,77.170633,PM2.5,73,308,132
India,Delhi,Delhi,"Jahangirpuri, Delhi - DPCC",05-06-2024 01:00:00,28.732820,77.170633,NH3,3,14,9
India,Delhi,Delhi,"Jahangirpuri, Delhi - DPCC",05-06-2024 01:00:00,28.732820,77.170633,CO,48,120,93
India,Delhi,Delhi,"Jawaharlal Nehru Stadium, Delhi - DPCC",05-06-2024 01:00:00,28.580280,77.233829,CO,14,108,56
India,Delhi,Delhi,"Lodhi Road, Delhi - IMD",05-06-2024 01:00:00,28.5918245,77.2273074,PM2.5,60,238,114
India,Delhi,Delhi,"Lodhi Road, Delhi - IMD",05-06-2024 01:00:00,28.5918245,77.2273074,CO,27,84,38
India,Delhi,Delhi,"Major Dhyan Chand National Stadium, Delhi - DPCC",05-06-2024 01:00:00,28.611281,77.237738,OZONE,1,246,27
India,Delhi,Delhi,"Mandir Marg, Delhi - DPCC",05-06-2024 01:00:00,28.636429,77.201067,SO2,11,23,14
India,Delhi,Delhi,"Mandir Marg, Delhi - DPCC",05-06-2024 01:00:00,28.636429,77.201067,CO,19,70,53
India,Delhi,Delhi,"NSIT Dwarka, Delhi - CPCB",05-06-2024 01:00:00,28.60909,77.0325413,NO2,47,75,58
India,Delhi,Delhi,"NSIT Dwarka, Delhi - CPCB",05-06-2024 01:00:00,28.60909,77.0325413,NH3,12,15,13
India,Delhi,Delhi,"Najafgarh, Delhi - DPCC",05-06-2024 01:00:00,28.570173,76.933762,NO2,7,41,20
India,Delhi,Delhi,"Najafgarh, Delhi - DPCC",05-06-2024 01:00:00,28.570173,76.933762,SO2,19,28,22
India,Delhi,Delhi,"Najafgarh, Delhi - DPCC",05-06-2024 01:00:00,28.570173,76.933762,CO,28,44,36
India,Delhi,Delhi,"Narela, Delhi - DPCC",05-06-2024 01:00:00,28.822836,77.101981,NO2,5,123,45
India,Delhi,Delhi,"Narela, Delhi - DPCC",05-06-2024 01:00:00,28.822836,77.101981,SO2,9,24,17
India,Delhi,Delhi,"Nehru Nagar, Delhi - DPCC",05-06-2024 01:00:00,28.567890,77.250515,NO2,8,75,33
India,Delhi,Delhi,"Nehru Nagar, Delhi - DPCC",05-06-2024 01:00:00,28.567890,77.250515,CO,21,119,65
India,Delhi,Delhi,"North Campus, DU, Delhi - IMD",05-06-2024 01:00:00,28.6573814,77.1585447,NO2,13,57,26
India,Delhi,Delhi,"Okhla Phase-2, Delhi - DPCC",05-06-2024 01:00:00,28.530785,77.271255,PM2.5,55,230,106
India,Delhi,Delhi,"Okhla Phase-2, Delhi - DPCC",05-06-2024 01:00:00,28.530785,77.271255,NO2,30,144,64
India,Delhi,Delhi,"Patparganj, Delhi - DPCC",05-06-2024 01:00:00,28.623763,77.287209,NO2,21,217,67
India,Delhi,Delhi,"Patparganj, Delhi - DPCC",05-06-2024 01:00:00,28.623763,77.287209,OZONE,1,222,31
India,Delhi,Delhi,"Punjabi Bagh, Delhi - DPCC",05-06-2024 01:00:00,28.674045,77.131023,SO2,12,53,29
India,Delhi,Delhi,"Punjabi Bagh, Delhi - DPCC",05-06-2024 01:00:00,28.674045,77.131023,CO,24,73,56
India,Delhi,Delhi,"Pusa, Delhi - DPCC",05-06-2024 01:00:00,28.639652,77.146275,PM2.5,57,143,76
India,Delhi,Delhi,"Pusa, Delhi - DPCC",05-06-2024 01:00:00,28.639652,77.146275,SO2,6,31,13
India,Delhi,Delhi,"Pusa, Delhi - IMD",05-06-2024 01:00:00,28.636110,77.173332,PM2.5,25,323,144
India,Delhi,Delhi,"R K Puram, Delhi - DPCC",05-06-2024 01:00:00,28.563262,77.186937,NH3,5,12,7
India,Delhi,Delhi,"Sonia Vihar, Delhi - DPCC",05-06-2024 01:00:00,28.710508,77.249485,NO2,22,116,56
India,Delhi,Delhi,"Sonia Vihar, Delhi - DPCC",05-06-2024 01:00:00,28.710508,77.249485,OZONE,3,251,47
India,Delhi,Delhi,"Sri Aurobindo Marg, Delhi - DPCC",05-06-2024 01:00:00,28.531346,77.190156,PM2.5,71,198,94
India,Delhi,Delhi,"Sri Aurobindo Marg, Delhi - DPCC",05-06-2024 01:00:00,28.531346,77.190156,NO2,6,110,48
India,Delhi,Delhi,"Sri Aurobindo Marg, Delhi - DPCC",05-06-2024 01:00:00,28.531346,77.190156,OZONE,1,223,26
India,Gujarat,Ahmedabad,"Chandkheda, Ahmedabad - IITM",05-06-2024 01:00:00,23.107969,72.574648,NH3,1,2,2
India,Gujarat,Ahmedabad,"Chandkheda, Ahmedabad - IITM",05-06-2024 01:00:00,23.107969,72.574648,SO2,13,21,18
India,Gujarat,Ahmedabad,"Gyaspur, Ahmedabad - IITM",05-06-2024 01:00:00,22.977134,72.553024,PM2.5,72,167,108
India,Gujarat,Ahmedabad,"Gyaspur, Ahmedabad - IITM",05-06-2024 01:00:00,22.977134,72.553024,NO2,40,50,45
India,Gujarat,Ahmedabad,"Gyaspur, Ahmedabad - IITM",05-06-2024 01:00:00,22.977134,72.553024,OZONE,26,104,98
India,Gujarat,Ahmedabad,"Maninagar, Ahmedabad - GPCB",05-06-2024 01:00:00,23.002657,72.591912,SO2,NA,NA,NA
India,Gujarat,Ahmedabad,"Rakhial, Ahmedabad - IITM",05-06-2024 01:00:00,23.016834,72.625775,SO2,NA,NA,NA
India,Gujarat,Ankleshwar,"GIDC, Ankleshwar - GPCB",05-06-2024 01:00:00,21.613267,73.010555,OZONE,14,33,26
India,Gujarat,Surat,"Science Center, Surat - SMC",05-06-2024 01:00:00,21.170046,72.795405,PM2.5,2,25,12
India,Gujarat,Surat,"Science Center, Surat - SMC",05-06-2024 01:00:00,21.170046,72.795405,NO2,16,24,19
India,Gujarat,Surat,"Science Center, Surat - SMC",05-06-2024 01:00:00,21.170046,72.795405,SO2,10,12,11
India,Gujarat,Vapi,"Phase-1 GIDC, Vapi - GPCB",05-06-2024 01:00:00,20.362421,72.918013,PM10,41,103,62
India,Gujarat,Vatva,"Phase-4 GIDC, Vatva - GPCB",05-06-2024 01:00:00,22.969611,72.643500,CO,35,36,36
India,Haryana,Ambala,"Patti Mehar, Ambala - HSPCB",05-06-2024 01:00:00,30.379589,76.778328,NO2,8,20,14
India,Haryana,Bahadurgarh,"Arya Nagar, Bahadurgarh - HSPCB",05-06-2024 01:00:00,28.6701,76.9254,PM2.5,91,240,171
India,Haryana,Bahadurgarh,"Arya Nagar, Bahadurgarh - HSPCB",05-06-2024 01:00:00,28.6701,76.9254,NH3,8,10,9
India,Haryana,Bahadurgarh,"Arya Nagar, Bahadurgarh - HSPCB",05-06-2024 01:00:00,28.6701,76.9254,OZONE,34,41,38
India,Haryana,Bhiwani,"H.B. Colony, Bhiwani - HSPCB",05-06-2024 01:00:00,28.806223,76.141105,NO2,3,12,8
India,Haryana,Charkhi Dadri,"Mini Secretariat, Charkhi Dadri - HSPCB",05-06-2024 01:00:00,28.593883,76.270653,PM10,102,243,132
India,Haryana,Charkhi Dadri,"Mini Secretariat, Charkhi Dadri - HSPCB",05-06-2024 01:00:00,28.593883,76.270653,NH3,6,8,7
India,Haryana,Charkhi Dadri,"Mini Secretariat, Charkhi Dadri - HSPCB",05-06-2024 01:00:00,28.593883,76.270653,SO2,1,41,19
India,Haryana,Dharuhera,"Municipal Corporation Office, Dharuhera -  HSPCB",05-06-2024 01:00:00,28.206800,76.799700,NO2,48,110,80
India,Haryana,Dharuhera,"Municipal Corporation Office, Dharuhera -  HSPCB",05-06-2024 01:00:00,28.206800,76.799700,OZONE,13,38,25
India,Haryana,Faridabad,"New Industrial Town, Faridabad - HSPCB",05-06-2024 01:00:00,28.39072,77.30059,NO2,NA,NA,NA
India,Haryana,Faridabad,"New Industrial Town, Faridabad - HSPCB",05-06-2024 01:00:00,28.39072,77.30059,CO,1,54,26
India,Haryana,Faridabad,"Sector 11, Faridabad - HSPCB",05-06-2024 01:00:00,28.376058,77.315741,OZONE,9,28,14
India,Haryana,Faridabad,"Sector 30, Faridabad - HSPCB",05-06-2024 01:00:00,28.4417,77.3217,PM10,NA,NA,NA
India,Haryana,Fatehabad,"Huda Sector, Fatehabad - HSPCB",05-06-2024 01:00:00,29.503664,75.467934,SO2,1,14,7
India,Haryana,Fatehabad,"Huda Sector, Fatehabad - HSPCB",05-06-2024 01:00:00,29.503664,75.467934,CO,6,22,11
India,Haryana,Gurugram,"Sector-51, Gurugram - HSPCB",05-06-2024 01:00:00,28.4227,77.0667,PM2.5,104,372,298
India,Haryana,Gurugram,"Teri Gram, Gurugram - HSPCB",05-06-2024 01:00:00,28.4275,77.1465,NO2,6,52,24
India,Haryana,Gurugram,"Vikas Sadan, Gurugram - HSPCB",05-06-2024 01:00:00,28.4501238,77.0263051,SO2,9,80,30
India,Haryana,Hisar,"Urban Estate-II, Hisar - HSPCB",05-06-2024 01:00:00,29.140560,75.744941,PM10,128,212,155
India,Haryana,Jind,"Police Lines, Jind - HSPCB",05-06-2024 01:00:00,29.307814,76.337619,NH3,NA,NA,NA
India,Haryana,Jind,"Police Lines, Jind - HSPCB",05-06-2024 01:00:00,29.307814,76.337619,OZONE,2,35,14
India,Haryana,Karnal,"Sector-12, Karnal - HSPCB",05-06-2024 01:00:00,29.695300,77.002700,SO2,12,13,12
India,Haryana,Karnal,"Sector-12, Karnal - HSPCB",05-06-2024 01:00:00,29.695300,77.002700,CO,14,60,37
India,Haryana,Kurukshetra,"Sector-7, Kurukshetra - HSPCB",05-06-2024 01:00:00,29.966942,76.875879,SO2,2,3,2
India,Haryana,Mandikhera,"General Hospital, Mandikhera - HSPCB",05-06-2024 01:00:00,27.9002,76.9938,SO2,31,39,34
India,Haryana,Manesar,"Sector-2 IMT, Manesar - HSPCB",05-06-2024 01:00:00,28.360699,76.936090,PM2.5,NA,NA,NA
India,Haryana,Manesar,"Sector-2 IMT, Manesar - HSPCB",05-06-2024 01:00:00,28.360699,76.936090,PM10,NA,NA,NA
India,Haryana,Manesar,"Sector-2 IMT, Manesar - HSPCB",05-06-2024 01:00:00,28.360699,76.936090,NO2,18,27,21
India,Haryana,Palwal,"Shyam Nagar, Palwal - HSPCB",05-06-2024 01:00:00,28.1485564,77.3320667,NH3,8,9,9
India,Haryana,Panipat,"Sector-18, Panipat - HSPCB",05-06-2024 01:00:00,29.432304,76.972765,OZONE,30,30,30
India,Haryana,Rohtak,"MD University, Rohtak - HSPCB",05-06-2024 01:00:00,28.52123,76.37138,OZONE,45,53,49
India,Haryana,Sirsa,"F-Block, Sirsa - HSPCB",05-06-2024 01:00:00,29.536400,75.015800,PM2.5,165,500,304
India,Haryana,Sirsa,"F-Block, Sirsa - HSPCB",05-06-2024 01:00:00,29.536400,75.015800,PM10,139,423,226
India,Haryana,Sirsa,"F-Block, Sirsa - HSPCB",05-06-2024 01:00:00,29.536400,75.015800,NH3,12,14,13
India,Haryana,Sonipat,"Murthal, Sonipat - HSPCB",05-06-2024 01:00:00,29.027200,77.062100,PM10,77,174,131
India,Haryana,Yamuna Nagar,"Gobind Pura, Yamuna Nagar - HSPCB",05-06-2024 01:00:00,30.1480566,77.2893471,PM2.5,70,316,124
India,Haryana,Yamuna Nagar,"Gobind Pura, Yamuna Nagar - HSPCB",05-06-2024 01:00:00,30.1480566,77.2893471,SO2,1,103,18
India,Himachal Pradesh,Baddi,"HIMUDA Complex Phase-1, Baddi - HPPCB",05-06-2024 01:00:00,30.943887,76.801991,SO2,12,118,38
India,Himachal Pradesh,Baddi,"HIMUDA Complex Phase-1, Baddi - HPPCB",05-06-2024 01:00:00,30.943887,76.801991,OZONE,48,240,154
India,Jharkhand,Dhanbad,"Kalakusuma, Dhanbad - DMC",05-06-2024 01:00:00,23.811548,86.481238,NO2,58,60,59
India,Jharkhand,Dhanbad,"Sardar Patel Nagar, Dhanbad - JSPCB",05-06-2024 01:00:00,23.80569,86.44268,CO,NA,NA,NA
India,Karnataka,Bagalkot,"Vidayagiri, Bagalkot - KSPCB",05-06-2024 01:00:00,16.172806,75.659694,NH3,1,2,1
India,Karnataka,Belgaum,"Ramteerth Nagar, Belgaum - KSPCB",05-06-2024 01:00:00,15.888653,74.541751,PM2.5,9,29,15
India,Karnataka,Bengaluru,"Bapuji Nagar, Bengaluru - KSPCB",05-06-2024 01:00:00,12.951913,77.539784,PM2.5,16,51,33
India,Karnataka,Bengaluru,"Bapuji Nagar, Bengaluru - KSPCB",05-06-2024 01:00:00,12.951913,77.539784,PM10,24,76,50
India,Karnataka,Bengaluru,"Hebbal, Bengaluru - KSPCB",05-06-2024 01:00:00,13.029152,77.585901,NH3,1,1,1
India,Karnataka,Bengaluru,"Hebbal, Bengaluru - KSPCB",05-06-2024 01:00:00,13.029152,77.585901,CO,10,34,20
India,Karnataka,Bengaluru,"Hombegowda Nagar, Bengaluru - KSPCB",05-06-2024 01:00:00,12.938539,77.590100,CO,9,28,21
India,Karnataka,Bengaluru,"Jayanagar 5th Block, Bengaluru - KSPCB",05-06-2024 01:00:00,12.920984,77.584908,NO2,NA,NA,NA
India,Karnataka,Bengaluru,"Jigani, Bengaluru - KSPCB",05-06-2024 01:00:00,12.7816279,77.6299145,PM2.5,39,41,40
India,Karnataka,Bengaluru,"Jigani, Bengaluru - KSPCB",05-06-2024 01:00:00,12.7816279,77.6299145,PM10,26,70,42
India,Karnataka,Bengaluru,"Kasturi Nagar, Bengaluru - KSPCB",05-06-2024 01:00:00,13.003872,77.664217,PM10,43,64,51
India,Karnataka,Bengaluru,"Kasturi Nagar, Bengaluru - KSPCB",05-06-2024 01:00:00,13.003872,77.664217,SO2,9,10,10
India,Karnataka,Bengaluru,"Sanegurava Halli, Bengaluru - KSPCB",05-06-2024 01:00:00,12.990328,77.5431385,NO2,20,28,23
India,Karnataka,Bengaluru,"Sanegurava Halli, Bengaluru - KSPCB",05-06-2024 01:00:00,12.990328,77.5431385,SO2,2,3,3
India,Karnataka,Bengaluru,"Shivapura_Peenya, Bengaluru - KSPCB",05-06-2024 01:00:00,13.0246342,77.5080115,NO2,15,16,15
India,Karnataka,Bengaluru,"Shivapura_Peenya, Bengaluru - KSPCB",05-06-2024 01:00:00,13.0246342,77.5080115,NH3,4,4,4
India,Karnataka,Bengaluru,"Silk Board, Bengaluru - KSPCB",05-06-2024 01:00:00,12.917348,77.622813,PM10,NA,NA,NA
India,Karnataka,Bengaluru,"Silk Board, Bengaluru - KSPCB",05-06-2024 01:00:00,12.917348,77.622813,NO2,NA,NA,NA
India,Karnataka,Bengaluru,"Silk Board, Bengaluru - KSPCB",05-06-2024 01:00:00,12.917348,77.622813,SO2,NA,NA,NA
India,Karnataka,Bidar,"Naubad, Bidar - KSPCB",05-06-2024 01:00:00,17.930306,77.482194,PM2.5,14,46,30
India,Karnataka,Bidar,"Naubad, Bidar - KSPCB",05-06-2024 01:00:00,17.930306,77.482194,CO,78,93,85
India,Karnataka,Chamarajanagar,"Urban, Chamarajanagar - KSPCB",05-06-2024 01:00:00,11.55358,76.55521,PM10,34,59,48
India,Karnataka,Chamarajanagar,"Urban, Chamarajanagar - KSPCB",05-06-2024 01:00:00,11.55358,76.55521,NO2,19,36,26
India,Karnataka,Chamarajanagar,"Urban, Chamarajanagar - KSPCB",05-06-2024 01:00:00,11.55358,76.55521,CO,22,120,35
India,Karnataka,Chikkaballapur,"Chikkaballapur Rural, Chikkaballapur - KSPCB",05-06-2024 01:00:00,13.428828,77.731418,PM10,10,39,23
India,Karnataka,Chikkaballapur,"Chikkaballapur Rural, Chikkaballapur - KSPCB",05-06-2024 01:00:00,13.428828,77.731418,OZONE,25,34,28
India,Karnataka,Chikkamagaluru,"Kalyana Nagara, Chikkamagaluru - KSPCB",05-06-2024 01:00:00,13.328028,75.797056,SO2,1,6,3
India,Karnataka,Davanagere,"Devaraj Urs Badavane, Davanagere - KSPCB",05-06-2024 01:00:00,14.475800,75.905200,CO,20,26,24
India,Karnataka,Davanagere,"Devaraj Urs Badavane, Davanagere - KSPCB",05-06-2024 01:00:00,14.475800,75.905200,OZONE,18,20,20
India,Karnataka,Dharwad,"Kalabhavan, Dharwad - KSPCB",05-06-2024 01:00:00,15.459706,75.008381,PM2.5,14,75,36
India,Karnataka,Dharwad,"Kalabhavan, Dharwad - KSPCB",05-06-2024 01:00:00,15.459706,75.008381,PM10,19,103,50
India,Karnataka,Dharwad,"Kalabhavan, Dharwad - KSPCB",05-06-2024 01:00:00,15.459706,75.008381,SO2,1,9,3
India,Karnataka,Dharwad,"Kalabhavan, Dharwad - KSPCB",05-06-2024 01:00:00,15.459706,75.008381,CO,24,105,58
India,Karnataka,Gadag,"Panchal Nagar, Gadag - KSPCB",05-06-2024 01:00:00,15.411456,75.638133,PM10,NA,NA,NA
India,Karnataka,Kalaburagi,"Lal Bahadur Shastri Nagar, Kalaburagi - KSPCB",05-06-2024 01:00:00,17.321993,76.822628,NO2,NA,NA,NA
India,Karnataka,Karwar,"KHB Colony, Karwar - KSPCB",05-06-2024 01:00:00,14.816666,74.141003,NO2,1,6,1
India,Karnataka,Karwar,"KHB Colony, Karwar - KSPCB",05-06-2024 01:00:00,14.816666,74.141003,CO,9,10,9
India,Karnataka,Kolar,"Tamaka Ind. Area, Kolar - KSPCB",05-06-2024 01:00:00,13.1276288,78.1570122,PM10,16,86,48
India,Karnataka,Kolar,"Tamaka Ind. Area, Kolar - KSPCB",05-06-2024 01:00:00,13.1276288,78.1570122,SO2,10,11,10
India,Karnataka,Kolar,"Tamaka Ind. Area, Kolar - KSPCB",05-06-2024 01:00:00,13.1276288,78.1570122,OZONE,18,63,39
India,Karnataka,Koppal,"Diwator Nagar, Koppal - KSPCB",05-06-2024 01:00:00,15.347630,76.181767,PM10,3,17,9
India,Karnataka,Koppal,"Diwator Nagar, Koppal - KSPCB",05-06-2024 01:00:00,15.347630,76.181767,NO2,38,68,51
India,Karnataka,Mangalore,"Kadri, Mangalore - KSPCB",05-06-2024 01:00:00,12.889250,74.853000,PM2.5,NA,NA,NA
India,Karnataka,Mangalore,"Kadri, Mangalore - KSPCB",05-06-2024 01:00:00,12.889250,74.853000,NO2,6,7,6
India,Karnataka,Mangalore,"Kadri, Mangalore - KSPCB",05-06-2024 01:00:00,12.889250,74.853000,NH3,1,2,2
India,Karnataka,Mangalore,"Kadri, Mangalore - KSPCB",05-06-2024 01:00:00,12.889250,74.853000,CO,36,47,44
India,Karnataka,Mysuru,"Hebbal 1st Stage, Mysuru - KSPCB",05-06-2024 01:00:00,12.21041,76.37376,PM10,21,62,44
India,Karnataka,Ramanagara,"Vijay Nagar, Ramanagara - KSPCB",05-06-2024 01:00:00,12.733409,77.298051,SO2,16,29,21
India,Karnataka,Ramanagara,"Vijay Nagar, Ramanagara - KSPCB",05-06-2024 01:00:00,12.733409,77.298051,CO,8,33,21
India,Karnataka,Shivamogga,"Vinoba Nagara, Shivamogga - KSPCB",05-06-2024 01:00:00,13.940000,75.555917,PM10,48,67,58
India,Karnataka,Shivamogga,"Vinoba Nagara, Shivamogga - KSPCB",05-06-2024 01:00:00,13.940000,75.555917,OZONE,20,78,58
India,Karnataka,Udupi,"Brahmagiri, Udupi - KSPCB",05-06-2024 01:00:00,13.34194444,74.74694444,NO2,27,29,28
India,Karnataka,Vijayapura,"Ibrahimpur, Vijayapura - KSPCB",05-06-2024 01:00:00,16.802639,75.722694,NO2,NA,NA,NA
India,Karnataka,Vijayapura,"Ibrahimpur, Vijayapura - KSPCB",05-06-2024 01:00:00,16.802639,75.722694,CO,12,124,15
India,Karnataka,Vijayapura,"Ibrahimpur, Vijayapura - KSPCB",05-06-2024 01:00:00,16.802639,75.722694,OZONE,14,16,15
India,Karnataka,Yadgir,"Collector Office, Yadgir - KSPCB",05-06-2024 01:00:00,16.7602,77.1428,PM2.5,5,40,23
India,Kerala,Kannur,"Thavakkara, Kannur - Kerala PCB",05-06-2024 01:00:00,11.875000,75.373200,OZONE,29,34,29
India,Kerala,Kollam,"Polayathode, Kollam - Kerala PCB",05-06-2024 01:00:00,8.8787,76.6073,PM10,44,112,67
India,Kerala,Kollam,"Polayathode, Kollam - Kerala PCB",05-06-2024 01:00:00,8.8787,76.6073,OZONE,30,35,32
India,Kerala,Thrissur,"Corporation Ground, Thrissur - Kerala PCB",05-06-2024 01:00:00,10.532400,76.215900,PM2.5,46,50,48
India,Kerala,Thrissur,"Corporation Ground, Thrissur - Kerala PCB",05-06-2024 01:00:00,10.532400,76.215900,PM10,62,68,64
India,Kerala,Thrissur,"Corporation Ground, Thrissur - Kerala PCB",05-06-2024 01:00:00,10.532400,76.215900,NO2,7,8,7
India,Kerala,Thrissur,"Corporation Ground, Thrissur - Kerala PCB",05-06-2024 01:00:00,10.532400,76.215900,NH3,NA,NA,NA
India,Kerala,Thrissur,"Corporation Ground, Thrissur - Kerala PCB",05-06-2024 01:00:00,10.532400,76.215900,OZONE,29,31,30
India,Madhya Pradesh,Bhopal,"Idgah Hills, Bhopal - MPPCB",05-06-2024 01:00:00,23.264759,77.381568,NO2,12,23,15
India,Madhya Pradesh,Bhopal,"Idgah Hills, Bhopal - MPPCB",05-06-2024 01:00:00,23.264759,77.381568,SO2,1,8,3
India,Madhya Pradesh,Bhopal,"Idgah Hills, Bhopal - MPPCB",05-06-2024 01:00:00,23.264759,77.381568,CO,6,26,14
India,Madhya Pradesh,Bhopal,"Idgah Hills, Bhopal - MPPCB",05-06-2024 01:00:00,23.264759,77.381568,OZONE,33,75,62
India,Madhya Pradesh,Bhopal,"Paryavaran Parisar, Bhopal - MPPCB",05-06-2024 01:00:00,23.210494,77.425409,OZONE,38,91,64
India,Madhya Pradesh,Bhopal,"T T Nagar, Bhopal - MPPCB",05-06-2024 01:00:00,23.233584,77.400574,NO2,15,22,19
India,Madhya Pradesh,Bhopal,"T T Nagar, Bhopal - MPPCB",05-06-2024 01:00:00,23.233584,77.400574,SO2,10,17,13
India,Madhya Pradesh,Gwalior,"City Center, Gwalior - MPPCB",05-06-2024 01:00:00,26.203442,78.193251,PM2.5,39,80,63
India,Madhya Pradesh,Gwalior,"City Center, Gwalior - MPPCB",05-06-2024 01:00:00,26.203442,78.193251,NH3,1,4,2
India,Madhya Pradesh,Gwalior,"Deen Dayal Nagar, Gwalior - MPPCB",05-06-2024 01:00:00,26.259242,78.216432,SO2,14,20,18
India,Madhya Pradesh,Gwalior,"Maharaj Bada, Gwalior - MPPCB",05-06-2024 01:00:00,26.200388,78.147714,PM10,46,208,109
India,Madhya Pradesh,Gwalior,"Maharaj Bada, Gwalior - MPPCB",05-06-2024 01:00:00,26.200388,78.147714,CO,8,107,67
India,Madhya Pradesh,Gwalior,"Maharaj Bada, Gwalior - MPPCB",05-06-2024 01:00:00,26.200388,78.147714,OZONE,64,160,100
India,Madhya Pradesh,Gwalior,"Phool Bagh, Gwalior - Mondelez Ind. Food",05-06-2024 01:00:00,26.210536,78.171,PM2.5,26,327,202
India,Madhya Pradesh,Indore,"Chhoti Gwaltoli, Indore - MPPCB",05-06-2024 01:00:00,22.4310,75.5213,PM2.5,33,101,54
India,Madhya Pradesh,Indore,"Chhoti Gwaltoli, Indore - MPPCB",05-06-2024 01:00:00,22.4310,75.5213,CO,2,69,52
India,Madhya Pradesh,Indore,"Chhoti Gwaltoli, Indore - MPPCB",05-06-2024 01:00:00,22.4310,75.5213,OZONE,20,85,53
India,Madhya Pradesh,Indore,"Maguda Nagar, Indore - IMC",05-06-2024 01:00:00,22.7524,75.8872,NH3,1,2,2
India,Madhya Pradesh,Indore,"Maguda Nagar, Indore - IMC",05-06-2024 01:00:00,22.7524,75.8872,CO,20,28,25
India,Madhya Pradesh,Indore,"Regional Park, Indore - IMC",05-06-2024 01:00:00,22.6780,75.8559,PM2.5,38,93,56
India,Madhya Pradesh,Indore,"Regional Park, Indore - IMC",05-06-2024 01:00:00,22.6780,75.8559,NH3,1,4,2
India,Madhya Pradesh,Indore,"Residency Area, Indore - IMC",05-06-2024 01:00:00,22.7084,75.8815,CO,2,14,13
India,Madhya Pradesh,Indore,"Residency Area, Indore - IMC",05-06-2024 01:00:00,22.7084,75.8815,OZONE,8,28,13
India,Madhya Pradesh,Jabalpur,"Govindh Bhavan Colony, Jabalpur - JMC",05-06-2024 01:00:00,23.163174,79.973061,SO2,10,29,17
India,Madhya Pradesh,Jabalpur,"Gupteshwar, Jabalpur - JMC",05-06-2024 01:00:00,23.142888,79.916147,NH3,4,5,5
India,Madhya Pradesh,Jabalpur,"Gupteshwar, Jabalpur - JMC",05-06-2024 01:00:00,23.142888,79.916147,SO2,1,16,6
India,Madhya Pradesh,Jabalpur,"Gupteshwar, Jabalpur - JMC",05-06-2024 01:00:00,23.142888,79.916147,CO,18,37,28
India,Madhya Pradesh,Jabalpur,"Suhagi, Jabalpur - JMC",05-06-2024 01:00:00,23.218135,79.957770,NO2,40,43,41
India,Madhya Pradesh,Jabalpur,"Suhagi, Jabalpur - JMC",05-06-2024 01:00:00,23.218135,79.957770,NH3,2,2,2
India,Madhya Pradesh,Katni,"Gole Bazar, Katni - MPPCB",05-06-2024 01:00:00,23.50016,80.23284,PM10,73,110,89
India,Madhya Pradesh,Katni,"Gole Bazar, Katni - MPPCB",05-06-2024 01:00:00,23.50016,80.23284,CO,16,62,27
India,Madhya Pradesh,Katni,"Gole Bazar, Katni - MPPCB",05-06-2024 01:00:00,23.50016,80.23284,OZONE,32,127,85
India,Madhya Pradesh,Maihar,"Sahilara, Maihar - KJS Cements",05-06-2024 01:00:00,24.2613009,80.7231783,SO2,12,13,13
India,Madhya Pradesh,Pithampur,"Sector-2 Industrial Area, Pithampur - MPPCB",05-06-2024 01:00:00,22.624758,75.675238,OZONE,12,58,31
India,Madhya Pradesh,Ratlam,"Shasthri Nagar, Ratlam - IPCA Lab",05-06-2024 01:00:00,23.331731,75.045981,PM2.5,20,99,57
India,Madhya Pradesh,Ratlam,"Shasthri Nagar, Ratlam - IPCA Lab",05-06-2024 01:00:00,23.331731,75.045981,SO2,29,32,30
India,Madhya Pradesh,Sagar,"Civil Lines, Sagar - MPPCB",05-06-2024 01:00:00,23.838586,78.759431,SO2,1,11,5
India,Madhya Pradesh,Sagar,"Civil Lines, Sagar - MPPCB",05-06-2024 01:00:00,23.838586,78.759431,CO,10,20,14
India,Madhya Pradesh,Sagar,"Civil Lines, Sagar - MPPCB",05-06-2024 01:00:00,23.838586,78.759431,OZONE,57,159,108
India,Madhya Pradesh,Sagar,"Deen Dayal Nagar, Sagar - MPPCB",05-06-2024 01:00:00,23.8640158,78.80289321,PM10,38,170,101
India,Madhya Pradesh,Sagar,"Deen Dayal Nagar, Sagar - MPPCB",05-06-2024 01:00:00,23.8640158,78.80289321,NO2,12,24,23
India,Madhya Pradesh,Satna,"Bandhavgar Colony, Satna - Birla Cement",05-06-2024 01:00:00,24.58434363,80.8549414,PM2.5,13,36,15
India,Madhya Pradesh,Satna,"Bandhavgar Colony, Satna - Birla Cement",05-06-2024 01:00:00,24.58434363,80.8549414,SO2,2,4,3
India,Madhya Pradesh,Satna,"Bandhavgar Colony, Satna - Birla Cement",05-06-2024 01:00:00,24.58434363,80.8549414,CO,29,115,71
India,Madhya Pradesh,Ujjain,"Mahakaleshwar Temple, Ujjain - MPPCB",05-06-2024 01:00:00,23.182719 ,75.768218 ,CO,16,52,35
India,Maharashtra,Ahmednagar,"Tarakpur, Ahmednagar - MPCB",05-06-2024 01:00:00,19.10122,74.73339,PM2.5,NA,NA,NA
India,Maharashtra,Ahmednagar,"Tarakpur, Ahmednagar - MPCB",05-06-2024 01:00:00,19.10122,74.73339,OZONE,30,83,46
India,Maharashtra,Amravati,"Shivneri Colony, Amravati - MPCB",05-06-2024 01:00:00,20.9402359,77.7895248,NH3,3,6,4
India,Maharashtra,Amravati,"Shri Shivaji Science College, Amaravati - MPCB",05-06-2024 01:00:00,20.939198,77.765701,PM2.5,21,65,43
India,Maharashtra,Amravati,"Shri Shivaji Science College, Amaravati - MPCB",05-06-2024 01:00:00,20.939198,77.765701,NO2,5,52,13
India,Maharashtra,Aurangabad,"MIDC Chilkalthana, Aurangabad - MPCB",05-06-2024 01:00:00,19.875620,75.387310,PM2.5,54,99,74
India,Maharashtra,Aurangabad,"MIDC Chilkalthana, Aurangabad - MPCB",05-06-2024 01:00:00,19.875620,75.387310,NO2,5,23,14
India,Maharashtra,Aurangabad,"More Chowk Waluj, Aurangabad - MPCB",05-06-2024 01:00:00,19.8389439,75.244448,SO2,NA,NA,NA
India,Maharashtra,Aurangabad,"Rachnakar Colony, Aurangabad - MPCB",05-06-2024 01:00:00,19.863756,75.321188,PM2.5,33,203,108
India,Maharashtra,Aurangabad,"Rachnakar Colony, Aurangabad - MPCB",05-06-2024 01:00:00,19.863756,75.321188,PM10,76,173,102
India,Maharashtra,Aurangabad,"Rachnakar Colony, Aurangabad - MPCB",05-06-2024 01:00:00,19.863756,75.321188,NH3,2,3,2
India,Maharashtra,Aurangabad,"Rachnakar Colony, Aurangabad - MPCB",05-06-2024 01:00:00,19.863756,75.321188,SO2,2,16,7
India,Maharashtra,Badlapur,"Katrap, Badlapur - MPCB",05-06-2024 01:00:00,19.16485,73.23409,NH3,2,4,3
India,Maharashtra,Belapur,"CBD Belapur, Belapur - MPCB",05-06-2024 01:00:00,19.0243902,73.0406721,PM10,67,117,91
India,Maharashtra,Bhiwandi,"Gokul Nagar, Bhiwandi - MPCB",05-06-2024 01:00:00,19.309073,73.057223,SO2,7,26,19
India,Maharashtra,Bhiwandi,"Gokul Nagar, Bhiwandi - MPCB",05-06-2024 01:00:00,19.309073,73.057223,OZONE,12,90,41
India,Maharashtra,Boisar,"Khaira, Boisar - MPCB",05-06-2024 01:00:00,19.786089,72.757971,PM2.5,5,186,71
India,Maharashtra,Chandrapur,"Chauhan Colony, Chandrapur - MPCB",05-06-2024 01:00:00,19.962900,79.298714,SO2,6,115,32
India,Maharashtra,Chandrapur,"MIDC Khutala, Chandrapur - MPCB",05-06-2024 01:00:00,19.9775302,79.2337086,SO2,5,98,41
India,Maharashtra,Chandrapur,"MIDC Khutala, Chandrapur - MPCB",05-06-2024 01:00:00,19.9775302,79.2337086,OZONE,31,66,46
India,Maharashtra,Dhule,"Deopur, Dhule - MPCB",05-06-2024 01:00:00,20.918946,74.776388,PM2.5,41,95,69
India,Maharashtra,Dhule,"Deopur, Dhule - MPCB",05-06-2024 01:00:00,20.918946,74.776388,PM10,65,127,97
India,Maharashtra,Dhule,"Deopur, Dhule - MPCB",05-06-2024 01:00:00,20.918946,74.776388,CO,8,20,16
India,Maharashtra,Jalna,"Old MIDC, Jalna - MPCB",05-06-2024 01:00:00,19.854616,75.905894,PM2.5,30,57,41
India,Maharashtra,Kalyan,"Khadakpada, Kalyan - MPCB",05-06-2024 01:00:00,19.25292,73.142019,CO,10,16,15
India,Maharashtra,Kolhapur,"Shivaji University, Kolhapur - MPCB",05-06-2024 01:00:00,16.6870449,74.2505872,NO2,9,24,17
India,Maharashtra,Kolhapur,"Shivaji University, Kolhapur - MPCB",05-06-2024 01:00:00,16.6870449,74.2505872,CO,48,70,63
India,Maharashtra,Latur,"Sawe Wadi, Latur - MPCB",05-06-2024 01:00:00,18.39963,76.57452,PM10,43,76,57
India,Maharashtra,Mahad,"Kamble Tarf Birwadi, Mahad - MPCB",05-06-2024 01:00:00,18.1023399,73.4783687,PM2.5,26,207,72
India,Maharashtra,Mahad,"Kamble Tarf Birwadi, Mahad - MPCB",05-06-2024 01:00:00,18.1023399,73.4783687,CO,6,48,29
India,Maharashtra,Malegaon,"Mahesh Nagar, Malegaon - MPCB",05-06-2024 01:00:00,20.555712,74.529236,NH3,3,9,7
India,Maharashtra,Malegaon,"Mahesh Nagar, Malegaon - MPCB",05-06-2024 01:00:00,20.555712,74.529236,SO2,2,35,8
India,Maharashtra,Malegaon,"Mahesh Nagar, Malegaon - MPCB",05-06-2024 01:00:00,20.555712,74.529236,OZONE,19,138,61
India,Maharashtra,Mira-Bhayandar,"Bhayandar West, Mira-Bhayandar - MPCB",05-06-2024 01:00:00,19.296481,72.840923,PM2.5,29,51,41
India,Maharashtra,Mira-Bhayandar,"Bhayandar West, Mira-Bhayandar - MPCB",05-06-2024 01:00:00,19.296481,72.840923,CO,16,30,16
India,Maharashtra,Mira-Bhayandar,"Bhayandar West, Mira-Bhayandar - MPCB",05-06-2024 01:00:00,19.296481,72.840923,OZONE,2,59,59
India,Maharashtra,Mumbai,"Bandra Kurla Complex, Mumbai - MPCB",05-06-2024 01:00:00,19.065931,72.862131,OZONE,7,47,26
India,Maharashtra,Mumbai,"Borivali East, Mumbai - IITM",05-06-2024 01:00:00,19.23241,72.86895,NO2,14,37,25
India,Maharashtra,Mumbai,"Borivali East, Mumbai - MPCB",05-06-2024 01:00:00,19.2243333,72.8658113,SO2,11,31,17
India,Maharashtra,Mumbai,"Byculla, Mumbai - BMC",05-06-2024 01:00:00,18.9767,72.8380,PM2.5,10,25,17
India,Maharashtra,Mumbai,"Byculla, Mumbai - BMC",05-06-2024 01:00:00,18.9767,72.8380,NO2,17,26,20
India,Maharashtra,Mumbai,"Chakala-Andheri East, Mumbai - IITM",05-06-2024 01:00:00,19.11074,72.86084,PM2.5,1,109,50
India,Maharashtra,Mumbai,"Chakala-Andheri East, Mumbai - IITM",05-06-2024 01:00:00,19.11074,72.86084,NH3,5,11,7
India,Maharashtra,Mumbai,"Chembur, Mumbai - MPCB",05-06-2024 01:00:00,19.0364585,72.8954371,NO2,14,29,24
India,Maharashtra,Mumbai,"Chhatrapati Shivaji Intl. Airport (T2), Mumbai - MPCB",05-06-2024 01:00:00,19.10078,72.87462,CO,32,42,36
India,Maharashtra,Mumbai,"Deonar, Mumbai - IITM",05-06-2024 01:00:00,19.04946,72.9230,OZONE,15,90,27
India,Maharashtra,Mumbai,"Ghatkopar, Mumbai - BMC",05-06-2024 01:00:00,19.083694,72.920967,PM2.5,6,26,14
India,Maharashtra,Mumbai,"Ghatkopar, Mumbai - BMC",05-06-2024 01:00:00,19.083694,72.920967,PM10,34,53,45
India,Maharashtra,Mumbai,"Kandivali East, Mumbai - MPCB",05-06-2024 01:00:00,19.205800,72.868200,PM2.5,11,322,36
India,Maharashtra,Mumbai,"Kherwadi_Bandra East, Mumbai - MPCB",05-06-2024 01:00:00,19.0632143,72.8456324,NH3,7,16,11
India,Maharashtra,Mumbai,"Kherwadi_Bandra East, Mumbai - MPCB",05-06-2024 01:00:00,19.0632143,72.8456324,SO2,1,8,6
India,Maharashtra,Mumbai,"Kherwadi_Bandra East, Mumbai - MPCB",05-06-2024 01:00:00,19.0632143,72.8456324,CO,8,28,11
India,Maharashtra,Mumbai,"Kurla, Mumbai - MPCB",05-06-2024 01:00:00,19.0863,72.8888,PM2.5,11,52,24
India,Maharashtra,Mumbai,"Kurla, Mumbai - MPCB",05-06-2024 01:00:00,19.0863,72.8888,PM10,89,103,96
India,Maharashtra,Mumbai,"Kurla, Mumbai - MPCB",05-06-2024 01:00:00,19.0863,72.8888,NH3,2,2,2
India,Maharashtra,Mumbai,"Mindspace-Malad West, Mumbai - MPCB",05-06-2024 01:00:00,19.1878657,72.8304069,PM2.5,39,68,52
India,Maharashtra,Mumbai,"Mindspace-Malad West, Mumbai - MPCB",05-06-2024 01:00:00,19.1878657,72.8304069,PM10,41,63,54
India,Maharashtra,Mumbai,"Mulund West, Mumbai - MPCB",05-06-2024 01:00:00,19.1750,72.9419,NO2,18,19,18
India,Maharashtra,Mumbai,"Mulund West, Mumbai - MPCB",05-06-2024 01:00:00,19.1750,72.9419,NH3,11,11,11
India,Maharashtra,Mumbai,"Navy Nagar-Colaba, Mumbai - IITM",05-06-2024 01:00:00,18.897756,72.813320,NO2,44,113,59
India,Maharashtra,Mumbai,"Powai, Mumbai - MPCB",05-06-2024 01:00:00,19.137500,72.915056,PM2.5,21,48,30
India,Maharashtra,Mumbai,"Powai, Mumbai - MPCB",05-06-2024 01:00:00,19.137500,72.915056,PM10,49,106,75
India,Maharashtra,Mumbai,"Siddharth Nagar-Worli, Mumbai - IITM",05-06-2024 01:00:00,19.000083,72.813993,PM2.5,19,176,85
India,Maharashtra,Mumbai,"Siddharth Nagar-Worli, Mumbai - IITM",05-06-2024 01:00:00,19.000083,72.813993,PM10,58,98,85
India,Maharashtra,Mumbai,"Siddharth Nagar-Worli, Mumbai - IITM",05-06-2024 01:00:00,19.000083,72.813993,OZONE,8,49,21
India,Maharashtra,Mumbai,"Sion, Mumbai - MPCB",05-06-2024 01:00:00,19.047000,72.874600,NH3,7,8,8
India,Maharashtra,Mumbai,"Vile Parle West, Mumbai - MPCB",05-06-2024 01:00:00,19.10861,72.83622,NH3,NA,NA,NA
India,Maharashtra,Nagpur,"Ambazari, Nagpur - MPCB",05-06-2024 01:00:00,21.121801,79.04952,PM10,35,90,61
India,Maharashtra,Nagpur,"Ambazari, Nagpur - MPCB",05-06-2024 01:00:00,21.121801,79.04952,NO2,6,69,27
India,Maharashtra,Nagpur,"Mahal, Nagpur - MPCB",05-06-2024 01:00:00,21.14472,79.107595,NH3,3,7,5
India,Maharashtra,Nagpur,"Mahal, Nagpur - MPCB",05-06-2024 01:00:00,21.14472,79.107595,OZONE,14,83,43
India,Maharashtra,Nagpur,"Opp GPO Civil Lines, Nagpur - MPCB",05-06-2024 01:00:00,21.152875,79.0517531,OZONE,6,45,27
India,Maharashtra,Nanded,"Sneh Nagar, Nanded - MPCB",05-06-2024 01:00:00,19.173852,77.296291,PM2.5,13,54,31
India,Maharashtra,Nanded,"Sneh Nagar, Nanded - MPCB",05-06-2024 01:00:00,19.173852,77.296291,PM10,36,79,56
India,Maharashtra,Nashik,"Gangapur Road, Nashik - MPCB",05-06-2024 01:00:00,20.0073285,73.7762427,NO2,22,29,26
India,Maharashtra,Nashik,"Gangapur Road, Nashik - MPCB",05-06-2024 01:00:00,20.0073285,73.7762427,CO,12,43,29
India,Maharashtra,Nashik,"Hirawadi, Nashik - MPCB",05-06-2024 01:00:00,20.021503,73.813844,PM10,41,97,62
India,Maharashtra,Nashik,"MIDC Ambad, Nashik - MPCB",05-06-2024 01:00:00,19.950220,73.731480,PM10,60,75,67
India,Maharashtra,Nashik,"Pandav Nagari, Nashik - MPCB",05-06-2024 01:00:00,19.9591346,73.7788008,PM10,47,92,70
India,Maharashtra,Nashik,"Pandav Nagari, Nashik - MPCB",05-06-2024 01:00:00,19.9591346,73.7788008,NO2,18,53,29
India,Maharashtra,Nashik,"Pandav Nagari, Nashik - MPCB",05-06-2024 01:00:00,19.9591346,73.7788008,NH3,2,4,3
India,Maharashtra,Navi Mumbai,"Kopripada-Vashi, Navi Mumbai - MPCB",05-06-2024 01:00:00,19.090337,73.014232,OZONE,10,10,10
India,Maharashtra,Navi Mumbai,"Mahape, Navi Mumbai - MPCB",05-06-2024 01:00:00,19.1135051,73.008978,NH3,2,2,2
India,Maharashtra,Navi Mumbai,"Mahape, Navi Mumbai - MPCB",05-06-2024 01:00:00,19.1135051,73.008978,CO,18,42,29
India,Maharashtra,Navi Mumbai,"Sector-2E Kalamboli, Navi Mumbai - MPCB",05-06-2024 01:00:00,19.02579,73.10297,OZONE,1,84,15
India,Maharashtra,Navi Mumbai,"Tondare-Taloja, Navi Mumbai - MPCB",05-06-2024 01:00:00,19.0630,73.1209,PM10,62,94,76
India,Maharashtra,Navi Mumbai,"Tondare-Taloja, Navi Mumbai - MPCB",05-06-2024 01:00:00,19.0630,73.1209,SO2,2,16,8
India,Maharashtra,Parbhani,"Masoom Colony, Parbhani - MPCB",05-06-2024 01:00:00,19.265594,76.761463,PM10,39,118,57
India,Maharashtra,Parbhani,"Masoom Colony, Parbhani - MPCB",05-06-2024 01:00:00,19.265594,76.761463,NO2,12,22,15
India,Maharashtra,Pimpri-Chinchwad,"Gavalinagar, Pimpri Chinchwad - MPCB",05-06-2024 01:00:00,18.63673,73.82487,SO2,1,5,2
India,Maharashtra,Pimpri-Chinchwad,"Gavalinagar, Pimpri Chinchwad - MPCB",05-06-2024 01:00:00,18.63673,73.82487,CO,4,23,17
India,Maharashtra,Pune,"Alandi, Pune - IITM",05-06-2024 01:00:00,18.675076,73.892743,OZONE,9,128,48
India,Maharashtra,Pune,"Hadapsar, Pune - IITM",05-06-2024 01:00:00,18.501793,73.927532,NO2,2,18,8
India,Maharashtra,Pune,"Karve Road, Pune - MPCB",05-06-2024 01:00:00,18.5011743,73.8165527,CO,14,194,60
India,Maharashtra,Pune,"Karve Road, Pune - MPCB",05-06-2024 01:00:00,18.5011743,73.8165527,OZONE,2,100,29
India,Maharashtra,Pune,"Mhada Colony, Pune - IITM",05-06-2024 01:00:00,18.573040,73.927715,NO2,34,61,45
India,Maharashtra,Pune,"Revenue Colony-Shivajinagar, Pune - IITM",05-06-2024 01:00:00,18.530085,73.849598,NO2,12,89,32
India,Maharashtra,Pune,"Revenue Colony-Shivajinagar, Pune - IITM",05-06-2024 01:00:00,18.530085,73.849598,OZONE,4,37,11
India,Maharashtra,Pune,"Savitribai Phule Pune University, Pune - MPCB",05-06-2024 01:00:00,18.547056,73.826908,CO,9,32,25
India,Maharashtra,Sangli,"Vijay Nagar, Sangli - MPCB",05-06-2024 01:00:00, 16.5038,74.3623,NH3,1,4,3
India,Maharashtra,Solapur,"Dnyaneshwar Nagar, Solapur - MPCB",05-06-2024 01:00:00,17.6336264,75.9132495,NH3,18,27,20
India,Maharashtra,Solapur,"Dnyaneshwar Nagar, Solapur - MPCB",05-06-2024 01:00:00,17.6336264,75.9132495,OZONE,22,87,42
India,Maharashtra,Solapur,"Ratandeep Housing Society, Solapur - MPCB",05-06-2024 01:00:00,17.65439,75.90649,PM2.5,19,52,35
India,Maharashtra,Solapur,"Ratandeep Housing Society, Solapur - MPCB",05-06-2024 01:00:00,17.65439,75.90649,NO2,1,44,16
India,Maharashtra,Solapur,"Ratandeep Housing Society, Solapur - MPCB",05-06-2024 01:00:00,17.65439,75.90649,SO2,1,4,1
India,Maharashtra,Solapur,"Solapur, Solapur - MPCB",05-06-2024 01:00:00,17.6599188,75.9063906,NO2,54,55,55
India,Maharashtra,Thane,"Kasarvadavali, Thane - MPCB",05-06-2024 01:00:00,19.26777,72.97182,PM2.5,22,37,30
India,Maharashtra,Thane,"Kasarvadavali, Thane - MPCB",05-06-2024 01:00:00,19.26777,72.97182,NO2,4,27,13
India,Maharashtra,Thane,"Kasarvadavali, Thane - MPCB",05-06-2024 01:00:00,19.26777,72.97182,NH3,3,5,3
India,Maharashtra,Thane,"Pimpleshwar Mandir, Thane - MPCB",05-06-2024 01:00:00,19.192056,72.9585188,SO2,NA,NA,NA
India,Maharashtra,Thane,"Pimpleshwar Mandir, Thane - MPCB",05-06-2024 01:00:00,19.192056,72.9585188,OZONE,NA,NA,NA
India,Maharashtra,Thane,"Upvan Fort, Thane - MPCB",05-06-2024 01:00:00,19.222279,72.957979,PM2.5,28,75,45
India,Maharashtra,Ulhasnagar,"Sidhi Vinayak Nagar, Ulhasnagar - MPCB",05-06-2024 01:00:00,19.235581,73.159121,NH3,1,4,3
India,Mizoram,Aizawl,"Sikulpuikawn, Aizawl - Mizoram PCB",05-06-2024 01:00:00,23.7176342,92.7192841,PM10,13,48,29
India,Mizoram,Aizawl,"Sikulpuikawn, Aizawl - Mizoram PCB",05-06-2024 01:00:00,23.7176342,92.7192841,SO2,2,3,2
India,Odisha,Balasore,"Kalidaspur, Balasore - OSPCB",05-06-2024 01:00:00,21.51161,86.89088,SO2,13,14,14
India,Odisha,Balasore,"Kalidaspur, Balasore - OSPCB",05-06-2024 01:00:00,21.51161,86.89088,OZONE,26,75,49
India,Odisha,Barbil,"Forest Office, Barbil - OSPCB",05-06-2024 01:00:00,22.1166054,85.3945546,PM2.5,43,93,64
India,Odisha,Barbil,"Forest Office, Barbil - OSPCB",05-06-2024 01:00:00,22.1166054,85.3945546,SO2,4,13,8
India,Odisha,Bhubaneswar,"Lingraj Mandir, Bhubaneswar - OSPCB",05-06-2024 01:00:00,20.240790,85.836784,PM10,NA,NA,NA
India,Odisha,Bhubaneswar,"Lingraj Mandir, Bhubaneswar - OSPCB",05-06-2024 01:00:00,20.240790,85.836784,SO2,5,19,11
India,Odisha,Bileipada,"Tata Township, Bileipada - OSPCB",05-06-2024 01:00:00,22.06156703,85.47409613,PM2.5,64,121,82
India,Odisha,Brajrajnagar,"GM Office, Brajrajnagar - OSPCB",05-06-2024 01:00:00,21.8004996,83.8396977,PM10,2,119,59
India,Odisha,Brajrajnagar,"GM Office, Brajrajnagar - OSPCB",05-06-2024 01:00:00,21.8004996,83.8396977,NH3,11,12,11
India,Odisha,Brajrajnagar,"GM Office, Brajrajnagar - OSPCB",05-06-2024 01:00:00,21.8004996,83.8396977,OZONE,13,179,72
India,Odisha,Byasanagar,"Ferro Chrome Colony, Byasanagar - OSPCB",05-06-2024 01:00:00,20.94185,86.11510,OZONE,30,226,114
India,Odisha,Cuttack,"CDA Area, Cuttack - OSPCB",05-06-2024 01:00:00,20.48891     ,85.84768     ,NH3,1,2,1
India,Odisha,Keonjhar,"Jagamohanpur, Keonjhar - OSPCB",05-06-2024 01:00:00,21.643900,85.599355,NO2,10,13,12
India,Odisha,Keonjhar,"Jagamohanpur, Keonjhar - OSPCB",05-06-2024 01:00:00,21.643900,85.599355,OZONE,1,26,4
India,Odisha,Nayagarh,"Dabuna, Nayagarh - OSPCB",05-06-2024 01:00:00,21.847279,85.416905,PM2.5,65,90,79
India,Odisha,Rourkela,"Fertilizer Township, Rourkela - OSPCB",05-06-2024 01:00:00,22.18972222,84.86277778,CO,13,30,21
India,Odisha,Rourkela,"Raghunathpali, Rourkela - OSPCB",05-06-2024 01:00:00,22.220833,84.809444,SO2,7,8,7
India,Odisha,Rourkela,"Raghunathpali, Rourkela - OSPCB",05-06-2024 01:00:00,22.220833,84.809444,OZONE,5,51,16
India,Odisha,Suakati,"OMC Colony, Suakati - OSPCB",05-06-2024 01:00:00,21.606865,85.510538,PM10,59,92,78
India,Odisha,Suakati,"OMC Colony, Suakati - OSPCB",05-06-2024 01:00:00,21.606865,85.510538,NH3,4,4,4
India,Odisha,Talcher,"Talcher Coalfields,Talcher - OSPCB",05-06-2024 01:00:00,20.9360711,85.1707021,PM10,37,146,74
India,Odisha,Tensa,"Barsua Iron Ore Mines, Tensa - OSPCB",05-06-2024 01:00:00,21.869985,85.167016,CO,14,30,27
India,Punjab,Bathinda,"Hardev Nagar, Bathinda - PPCB",05-06-2024 01:00:00,30.233011,74.907758,NO2,32,33,32
India,Punjab,Jalandhar,"Civil Line, Jalandhar - PPCB",05-06-2024 01:00:00,31.321907,75.578914,OZONE,26,91,41
India,Punjab,Ludhiana,"Punjab Agricultural University, Ludhiana - PPCB",05-06-2024 01:00:00,30.9028,75.8086,CO,14,74,44
India,Punjab,Mandi Gobindgarh,"RIMT University, Mandi Gobindgarh - PPCB",05-06-2024 01:00:00,30.649961,76.331442,CO,2,73,32
India,Punjab,Mandi Gobindgarh,"RIMT University, Mandi Gobindgarh - PPCB",05-06-2024 01:00:00,30.649961,76.331442,OZONE,25,44,33
India,Rajasthan,Alwar,"Moti Doongri, Alwar - RSPCB",05-06-2024 01:00:00,27.554793,76.611536,NH3,2,6,4
India,Rajasthan,Banswara,"Rati Talai, Banswara - RSPCB",05-06-2024 01:00:00,23.555190,74.440010,PM10,46,163,126
India,Rajasthan,Banswara,"Rati Talai, Banswara - RSPCB",05-06-2024 01:00:00,23.555190,74.440010,NO2,7,17,12
India,Rajasthan,Baran,"Bamboliya, Baran - RSPCB",05-06-2024 01:00:00,25.106006,76.469948,NO2,4,19,9
India,Rajasthan,Baran,"Bamboliya, Baran - RSPCB",05-06-2024 01:00:00,25.106006,76.469948,CO,14,26,21
India,Rajasthan,Barmer,"Railway Colony, Barmer - RSPCB",05-06-2024 01:00:00,25.747299,71.393989,PM10,102,246,163
India,Rajasthan,Barmer,"Railway Colony, Barmer - RSPCB",05-06-2024 01:00:00,25.747299,71.393989,NO2,3,16,6
India,Rajasthan,Barmer,"Railway Colony, Barmer - RSPCB",05-06-2024 01:00:00,25.747299,71.393989,NH3,5,14,9
India,Rajasthan,Barmer,"Railway Colony, Barmer - RSPCB",05-06-2024 01:00:00,25.747299,71.393989,SO2,2,7,4
India,Rajasthan,Bharatpur,"Krishna Nagar, Bharatpur - RSPCB",05-06-2024 01:00:00,27.215415,77.50873,NO2,8,76,28
India,Rajasthan,Bharatpur,"Krishna Nagar, Bharatpur - RSPCB",05-06-2024 01:00:00,27.215415,77.50873,NH3,1,2,1
India,Rajasthan,Bhilwara,"Pratap Nagar, Bhilwara - RSPCB",05-06-2024 01:00:00,25.339605,74.618883,NH3,1,2,1
India,Rajasthan,Bhilwara,"Pratap Nagar, Bhilwara - RSPCB",05-06-2024 01:00:00,25.339605,74.618883,SO2,10,60,18
India,Rajasthan,Bhilwara,"Pratap Nagar, Bhilwara - RSPCB",05-06-2024 01:00:00,25.339605,74.618883,CO,22,32,29
India,Rajasthan,Bhiwadi,"RIICO Ind. Area III, Bhiwadi - RSPCB",05-06-2024 01:00:00,28.194909,76.862296,SO2,NA,NA,NA
India,Rajasthan,Bikaner,"MM Ground, Bikaner - RSPCB",05-06-2024 01:00:00,28.018792,73.292658,NO2,10,49,24
India,Rajasthan,Chittorgarh,"Shastri Nagar, Chittorgarh - RSPCB",05-06-2024 01:00:00,24.892047,74.623527,PM10,100,136,119
India,Rajasthan,Chittorgarh,"Shastri Nagar, Chittorgarh - RSPCB",05-06-2024 01:00:00,24.892047,74.623527,CO,6,18,14
India,Rajasthan,Churu,"Subash Chowk, Churu - RSPCB",05-06-2024 01:00:00,28.296139,74.961696,CO,6,32,11
India,Rajasthan,Dausa,"Khatikan Mohalla, Dausa - RSPCB",05-06-2024 01:00:00,26.895552,76.334753,NH3,1,18,5
India,Rajasthan,Dausa,"Khatikan Mohalla, Dausa - RSPCB",05-06-2024 01:00:00,26.895552,76.334753,OZONE,24,116,60
India,Rajasthan,Dholpur,"Raja Ganj, Dholpur - RSPCB",05-06-2024 01:00:00,26.699557,77.898881,OZONE,38,158,87
India,Rajasthan,Hanumangarh,"Housing Board, Hanumangarh - RSPCB",05-06-2024 01:00:00,29.610750,74.283608,CO,43,76,56
India,Rajasthan,Jaipur,"Adarsh Nagar, Jaipur - RSPCB",05-06-2024 01:00:00,26.902909,75.836858,PM10,89,143,121
India,Rajasthan,Jaipur,"Mansarovar Sector-12, Jaipur - RSPCB",05-06-2024 01:00:00,26.843698,75.766894,PM2.5,33,70,50
India,Rajasthan,Jaipur,"Mansarovar Sector-12, Jaipur - RSPCB",05-06-2024 01:00:00,26.843698,75.766894,NO2,7,65,26
India,Rajasthan,Jaipur,"Police Commissionerate, Jaipur - RSPCB",05-06-2024 01:00:00,26.9164092,75.7994901,NO2,20,57,34
India,Rajasthan,Jaipur,"RIICO Sitapura, Jaipur - RSPCB",05-06-2024 01:00:00,26.786682,75.827928,SO2,8,18,10
India,Rajasthan,Jaipur,"RIICO Sitapura, Jaipur - RSPCB",05-06-2024 01:00:00,26.786682,75.827928,OZONE,17,183,94
India,Rajasthan,Jaipur,"Sector-2 Murlipura, Jaipur - RSPCB",05-06-2024 01:00:00,26.960669,75.771817,NH3,2,9,4
India,Rajasthan,Jaisalmer,"Sadar Bazar, Jaisalmer - RSPCB",05-06-2024 01:00:00,26.912329,70.909168,PM2.5,30,124,62
India,Rajasthan,Jaisalmer,"Sadar Bazar, Jaisalmer - RSPCB",05-06-2024 01:00:00,26.912329,70.909168,PM10,112,482,250
India,Rajasthan,Jaisalmer,"Sadar Bazar, Jaisalmer - RSPCB",05-06-2024 01:00:00,26.912329,70.909168,NH3,2,17,5
India,Rajasthan,Jalore,"Mudtra Sili, Jalore - RSPCB",05-06-2024 01:00:00,25.344694,72.626208,PM10,91,129,117
India,Rajasthan,Jalore,"Mudtra Sili, Jalore - RSPCB",05-06-2024 01:00:00,25.344694,72.626208,NO2,3,16,9
India,Rajasthan,Jhalawar,"Rajlaxmi Nagar, Jhalawar - RSPCB",05-06-2024 01:00:00,24.588397,76.172782,NO2,14,24,20
India,Rajasthan,Jhalawar,"Rajlaxmi Nagar, Jhalawar - RSPCB",05-06-2024 01:00:00,24.588397,76.172782,SO2,4,14,6
India,Rajasthan,Jodhpur,"Collectorate, Jodhpur - RSPCB",05-06-2024 01:00:00,26.268249,73.0193853,PM2.5,61,141,91
India,Rajasthan,Jodhpur,"Collectorate, Jodhpur - RSPCB",05-06-2024 01:00:00,26.268249,73.0193853,NO2,1,16,7
India,Rajasthan,Jodhpur,"Collectorate, Jodhpur - RSPCB",05-06-2024 01:00:00,26.268249,73.0193853,SO2,2,19,9
India,Rajasthan,Jodhpur,"Digari Kalan, Jodhpur - RSPCB",05-06-2024 01:00:00,26.295810,73.082283,SO2,4,7,5
India,Rajasthan,Jodhpur,"Mandor, Jodhpur - RSPCB",05-06-2024 01:00:00,26.358805,73.047444,NH3,3,7,4
India,Rajasthan,Jodhpur,"Samrat Ashok Udhyan, Jodhpur - RSPCB",05-06-2024 01:00:00,26.253384,72.976571,CO,8,14,11
India,Rajasthan,Karauli,"Satyawati Vihar, Karauli - RSPCB",05-06-2024 01:00:00,26.506177,77.025989,PM2.5,52,240,152
India,Rajasthan,Kota,"Nayapura, Kota - RSPCB",05-06-2024 01:00:00,25.196024,75.855668,PM10,79,133,107
India,Rajasthan,Kota,"Nayapura, Kota - RSPCB",05-06-2024 01:00:00,25.196024,75.855668,NH3,2,4,2
India,Rajasthan,Kota,"Shrinath Puram, Kota - RSPCB",05-06-2024 01:00:00,25.14389,75.821256,PM10,69,112,88
India,Rajasthan,Kota,"Shrinath Puram, Kota - RSPCB",05-06-2024 01:00:00,25.14389,75.821256,CO,13,68,33
India,Rajasthan,Nagaur,"Karni Colony, Nagaur - RSPCB",05-06-2024 01:00:00,27.213494,73.734444,PM10,91,167,134
India,Rajasthan,Nagaur,"Karni Colony, Nagaur - RSPCB",05-06-2024 01:00:00,27.213494,73.734444,OZONE,39,58,53
India,Rajasthan,Pali,"Indira Colony Vistar, Pali - RSPCB",05-06-2024 01:00:00,25.771061, 73.340227,PM2.5,58,159,107
India,Rajasthan,Pratapgarh,"Pragati Nagar, Pratapgarh - RSPCB",05-06-2024 01:00:00,24.041198,74.780702,PM10,48,129,92
India,Rajasthan,Pratapgarh,"Pragati Nagar, Pratapgarh - RSPCB",05-06-2024 01:00:00,24.041198,74.780702,NO2,6,17,10
India,Rajasthan,Pratapgarh,"Pragati Nagar, Pratapgarh - RSPCB",05-06-2024 01:00:00,24.041198,74.780702,OZONE,22,93,85
India,Rajasthan,Sikar,"Radhakishan Pura, Sikar - RSPCB",05-06-2024 01:00:00,27.608912,75.153302,NO2,8,38,17
India,Rajasthan,Sikar,"Radhakishan Pura, Sikar - RSPCB",05-06-2024 01:00:00,27.608912,75.153302,NH3,6,8,7
India,Rajasthan,Sirohi,"Vedhaynath Colony, Sirohi - RSPCB",05-06-2024 01:00:00,24.885261,72.857549,SO2,6,13,10
India,Rajasthan,Sri Ganganagar,"Old City, Sri Ganganagar - RSPCB",05-06-2024 01:00:00,29.931624,73.864511,PM10,380,500,471
India,Rajasthan,Sri Ganganagar,"Old City, Sri Ganganagar - RSPCB",05-06-2024 01:00:00,29.931624,73.864511,NO2,12,92,33
India,Rajasthan,Sri Ganganagar,"Old City, Sri Ganganagar - RSPCB",05-06-2024 01:00:00,29.931624,73.864511,CO,4,107,54
India,Rajasthan,Tonk,"Shastri Nagar, Tonk - RSPCB",05-06-2024 01:00:00,26.159933,75.780517,SO2,2,11,6
India,Rajasthan,Tonk,"Shastri Nagar, Tonk - RSPCB",05-06-2024 01:00:00,26.159933,75.780517,CO,8,64,34
India,Rajasthan,Udaipur,"Ashok Nagar, Udaipur - RSPCB",05-06-2024 01:00:00,24.5886166,73.6321397,PM10,81,132,111
India,Sikkim,Gangtok,"Zero Point GICI, Gangtok - SSPCB",05-06-2024 01:00:00,27.338530,88.614099,NO2,1,6,2
India,TamilNadu,Chengalpattu,"Crescent University, Chengalpattu - TNPCB",05-06-2024 01:00:00,12.8777316,80.0834807,PM2.5,NA,NA,NA
India,TamilNadu,Chengalpattu,"Crescent University, Chengalpattu - TNPCB",05-06-2024 01:00:00,12.8777316,80.0834807,PM10,NA,NA,NA
India,TamilNadu,Chennai,"Arumbakkam, Chennai - TNPCB",05-06-2024 01:00:00,13.0664,80.2112 ,PM10,NA,NA,NA
India,TamilNadu,Chennai,"Kodungaiyur, Chennai - TNPCB",05-06-2024 01:00:00,13.1278,80.2642,OZONE,18,83,41
India,TamilNadu,Chennai,"Manali, Chennai - CPCB",05-06-2024 01:00:00,13.164544,80.26285,NH3,5,5,5
India,TamilNadu,Chennai,"Manali, Chennai - CPCB",05-06-2024 01:00:00,13.164544,80.26285,CO,90,107,102
India,TamilNadu,Chennai,"Perungudi, Chennai - TNPCB",05-06-2024 01:00:00,12.9533,80.2357,NO2,3,13,6
India,TamilNadu,Chennai,"Royapuram, Chennai - TNPCB",05-06-2024 01:00:00,13.1036,80.2909,PM10,15,111,60
India,TamilNadu,Chennai,"Royapuram, Chennai - TNPCB",05-06-2024 01:00:00,13.1036,80.2909,OZONE,4,10,8
India,TamilNadu,Coimbatore,"PSG College of Arts and Science, Coimbatore - TNPCB",05-06-2024 01:00:00,11.0328,77.0349,PM2.5,17,58,31
India,TamilNadu,Coimbatore,"PSG College of Arts and Science, Coimbatore - TNPCB",05-06-2024 01:00:00,11.0328,77.0349,SO2,36,42,39
India,TamilNadu,Coimbatore,"PSG College of Arts and Science, Coimbatore - TNPCB",05-06-2024 01:00:00,11.0328,77.0349,CO,4,14,11
India,TamilNadu,Cuddalore,"Kudikadu, Cuddalore - TNPCB",05-06-2024 01:00:00,11.6829898,79.7532099,PM2.5,20,87,42
India,TamilNadu,Cuddalore,"Kudikadu, Cuddalore - TNPCB",05-06-2024 01:00:00,11.6829898,79.7532099,NO2,NA,NA,NA
India,TamilNadu,Cuddalore,"Kudikadu, Cuddalore - TNPCB",05-06-2024 01:00:00,11.6829898,79.7532099,NH3,3,4,3
India,TamilNadu,Cuddalore,"Kudikadu, Cuddalore - TNPCB",05-06-2024 01:00:00,11.6829898,79.7532099,SO2,10,11,10
India,TamilNadu,Cuddalore,"Semmandalam, Cuddalore - TNPCB",05-06-2024 01:00:00,11.7637683,79.7499835,PM2.5,23,84,40
India,TamilNadu,Cuddalore,"Semmandalam, Cuddalore - TNPCB",05-06-2024 01:00:00,11.7637683,79.7499835,NO2,2,44,20
India,TamilNadu,Cuddalore,"Semmandalam, Cuddalore - TNPCB",05-06-2024 01:00:00,11.7637683,79.7499835,OZONE,1,2,2
India,TamilNadu,Gummidipoondi,"Anthoni Pillai Nagar, Gummidipoondi - TNPCB",05-06-2024 01:00:00,13.4127,80.1081,NO2,25,44,34
India,TamilNadu,Ooty,"Bombay Castel, Ooty - TNPCB",05-06-2024 01:00:00,11.4068288,76.7138973,PM10,23,122,57
India,TamilNadu,Ramanathapuram,"Chalai Bazaar, Ramanathapuram - TNPCB",05-06-2024 01:00:00,9.36399,78.831977,PM10,17,56,34
India,TamilNadu,Salem,"Sona College of Technology, Salem - TNPCB",05-06-2024 01:00:00,11.679111,78.125052,OZONE,3,4,3
India,TamilNadu,Thoothukudi,"Meelavittan, Thoothukudi - TNPCB",05-06-2024 01:00:00,8.816428 ,78.099039,PM10,35,143,64
India,TamilNadu,Thoothukudi,"Meelavittan, Thoothukudi - TNPCB",05-06-2024 01:00:00,8.816428 ,78.099039,CO,1,148,73
India,TamilNadu,Tirupur,"Kumaran College, Tirupur - TNPCB",05-06-2024 01:00:00,11.0973603,77.3228673,CO,14,36,26
India,Telangana,Hyderabad,"Bollaram Industrial Area, Hyderabad - TSPCB",05-06-2024 01:00:00,17.540891,78.358528,NH3,2,6,3
India,Telangana,Hyderabad,"Bollaram Industrial Area, Hyderabad - TSPCB",05-06-2024 01:00:00,17.540891,78.358528,SO2,6,25,17
India,Telangana,Hyderabad,"Bollaram Industrial Area, Hyderabad - TSPCB",05-06-2024 01:00:00,17.540891,78.358528,OZONE,34,36,35
India,Telangana,Hyderabad,"Central University, Hyderabad - TSPCB",05-06-2024 01:00:00,17.460103,78.334361,PM2.5,8,38,21
India,Telangana,Hyderabad,"Central University, Hyderabad - TSPCB",05-06-2024 01:00:00,17.460103,78.334361,PM10,13,77,37
India,Telangana,Hyderabad,"ICRISAT Patancheru, Hyderabad - TSPCB",05-06-2024 01:00:00,17.518400,78.278777,SO2,4,32,12
India,Telangana,Hyderabad,"ICRISAT Patancheru, Hyderabad - TSPCB",05-06-2024 01:00:00,17.518400,78.278777,CO,4,52,35
India,Telangana,Hyderabad,"IITH Kandi, Hyderabad - TSPCB",05-06-2024 01:00:00,17.585705,78.126199,SO2,NA,NA,NA
India,Telangana,Hyderabad,"IITH Kandi, Hyderabad - TSPCB",05-06-2024 01:00:00,17.585705,78.126199,OZONE,NA,NA,NA
India,Telangana,Hyderabad,"Kokapet, Hyderabad - TSPCB",05-06-2024 01:00:00,17.393559,78.339194,PM2.5,52,98,65
India,Telangana,Hyderabad,"Kokapet, Hyderabad - TSPCB",05-06-2024 01:00:00,17.393559,78.339194,PM10,74,90,81
India,Telangana,Hyderabad,"Kokapet, Hyderabad - TSPCB",05-06-2024 01:00:00,17.393559,78.339194,NH3,2,2,2
India,Telangana,Hyderabad,"Kompally Municipal Office, Hyderabad - TSPCB",05-06-2024 01:00:00,17.544899,78.486949,PM2.5,40,71,52
India,Telangana,Hyderabad,"Kompally Municipal Office, Hyderabad - TSPCB",05-06-2024 01:00:00,17.544899,78.486949,NO2,9,12,11
India,Telangana,Hyderabad,"Kompally Municipal Office, Hyderabad - TSPCB",05-06-2024 01:00:00,17.544899,78.486949,NH3,5,9,8
India,Telangana,Hyderabad,"Ramachandrapuram, Hyderabad - TSPCB",05-06-2024 01:00:00,17.528544,78.286195,SO2,16,21,18
India,Telangana,Hyderabad,"Ramachandrapuram, Hyderabad - TSPCB",05-06-2024 01:00:00,17.528544,78.286195,OZONE,17,49,31
India,Telangana,Hyderabad,"Sanathnagar, Hyderabad - TSPCB",05-06-2024 01:00:00,17.4559458,78.4332152,NO2,30,30,30
India,Telangana,Hyderabad,"Somajiguda, Hyderabad - TSPCB",05-06-2024 01:00:00,17.417094,78.457437,NH3,NA,NA,NA
India,Telangana,Hyderabad,"Zoo Park, Hyderabad - TSPCB",05-06-2024 01:00:00,17.349694,78.451437,NO2,12,26,16
India,Telangana,Hyderabad,"Zoo Park, Hyderabad - TSPCB",05-06-2024 01:00:00,17.349694,78.451437,SO2,1,6,4
India,Uttar_Pradesh,Agra,"Manoharpur, Agra - UPPCB",05-06-2024 01:00:00,27.23711,78.01936,CO,6,17,11
India,Uttar_Pradesh,Agra,"Rohta, Agra - UPPCB",05-06-2024 01:00:00,27.106972,78.000111,NO2,6,7,7
India,Uttar_Pradesh,Agra,"Rohta, Agra - UPPCB",05-06-2024 01:00:00,27.106972,78.000111,NH3,2,3,3
India,Uttar_Pradesh,Agra,"Rohta, Agra - UPPCB",05-06-2024 01:00:00,27.106972,78.000111,OZONE,18,20,20
India,Uttar_Pradesh,Agra,"Sanjay Palace, Agra - UPPCB",05-06-2024 01:00:00,27.19865833,78.00598056,CO,1,46,32
India,Uttar_Pradesh,Agra,"Sector-3B Avas Vikas Colony, Agra - UPPCB",05-06-2024 01:00:00,27.19412,77.96237,PM2.5,17,42,25
India,Uttar_Pradesh,Agra,"Sector-3B Avas Vikas Colony, Agra - UPPCB",05-06-2024 01:00:00,27.19412,77.96237,PM10,47,110,63
India,Uttar_Pradesh,Agra,"Shahjahan Garden, Agra - UPPCB",05-06-2024 01:00:00,27.169338,78.03582,CO,17,36,18
India,Uttar_Pradesh,Agra,"Shastripuram, Agra - UPPCB",05-06-2024 01:00:00,27.19862,77.92066,PM2.5,7,57,37
India,Uttar_Pradesh,Agra,"Shastripuram, Agra - UPPCB",05-06-2024 01:00:00,27.19862,77.92066,SO2,5,18,8
India,Uttar_Pradesh,Baghpat,"Sardar Patel Inter College, Baghpat - UPPCB",05-06-2024 01:00:00,28.964949,77.278761,OZONE,5,80,43
India,Uttar_Pradesh,Bareilly,"Civil Lines, Bareilly - UPPCB",05-06-2024 01:00:00,28.359581,79.414455,PM2.5,7,29,13
India,Uttar_Pradesh,Bareilly,"Civil Lines, Bareilly - UPPCB",05-06-2024 01:00:00,28.359581,79.414455,PM10,10,42,18
India,Uttar_Pradesh,Bareilly,"Civil Lines, Bareilly - UPPCB",05-06-2024 01:00:00,28.359581,79.414455,SO2,14,23,17
India,Uttar_Pradesh,Bareilly,"Rajendra Nagar, Bareilly - UPPCB",05-06-2024 01:00:00,28.38910936,79.42963708,PM2.5,12,28,19
India,Uttar_Pradesh,Bareilly,"Rajendra Nagar, Bareilly - UPPCB",05-06-2024 01:00:00,28.38910936,79.42963708,NO2,2,8,2
India,Uttar_Pradesh,Bareilly,"Rajendra Nagar, Bareilly - UPPCB",05-06-2024 01:00:00,28.38910936,79.42963708,NH3,1,2,1
India,Uttar_Pradesh,Bareilly,"Rajendra Nagar, Bareilly - UPPCB",05-06-2024 01:00:00,28.38910936,79.42963708,CO,1,35,20
India,Uttar_Pradesh,Bulandshahr,"Yamunapuram, Bulandshahr - UPPCB",05-06-2024 01:00:00,28.406963,77.849831,PM10,83,196,125
India,Uttar_Pradesh,Firozabad,"Nagla Bhau, Firozabad - UPPCB",05-06-2024 01:00:00,27.168897,78.376960,PM10,43,86,60
India,Uttar_Pradesh,Firozabad,"Nagla Bhau, Firozabad - UPPCB",05-06-2024 01:00:00,27.168897,78.376960,NO2,17,17,17
India,Uttar_Pradesh,Firozabad,"Nagla Bhau, Firozabad - UPPCB",05-06-2024 01:00:00,27.168897,78.376960,NH3,2,2,2
India,Uttar_Pradesh,Firozabad,"Nagla Bhau, Firozabad - UPPCB",05-06-2024 01:00:00,27.168897,78.376960,SO2,14,33,19
India,Uttar_Pradesh,Firozabad,"Vibhab Nagar, Firozabad - UPPCB",05-06-2024 01:00:00,27.1594,78.3953,NH3,1,2,2
India,Uttar_Pradesh,Firozabad,"Vibhab Nagar, Firozabad - UPPCB",05-06-2024 01:00:00,27.1594,78.3953,SO2,4,51,14
India,Uttar_Pradesh,Ghaziabad,"Indirapuram, Ghaziabad - UPPCB",05-06-2024 01:00:00,28.646233,77.358075,PM2.5,78,333,153
India,Uttar_Pradesh,Ghaziabad,"Sanjay Nagar, Ghaziabad - UPPCB",05-06-2024 01:00:00,28.685382,77.453839,PM2.5,48,147,84
India,Uttar_Pradesh,Ghaziabad,"Sanjay Nagar, Ghaziabad - UPPCB",05-06-2024 01:00:00,28.685382,77.453839,NO2,22,135,83
India,Uttar_Pradesh,Ghaziabad,"Sanjay Nagar, Ghaziabad - UPPCB",05-06-2024 01:00:00,28.685382,77.453839,SO2,19,52,30
India,Uttar_Pradesh,Ghaziabad,"Sanjay Nagar, Ghaziabad - UPPCB",05-06-2024 01:00:00,28.685382,77.453839,CO,26,106,70
India,Uttar_Pradesh,Ghaziabad,"Vasundhara, Ghaziabad - UPPCB",05-06-2024 01:00:00,28.6603346,77.3572563,PM2.5,31,77,52
India,Uttar_Pradesh,Ghaziabad,"Vasundhara, Ghaziabad - UPPCB",05-06-2024 01:00:00,28.6603346,77.3572563,NH3,6,13,9
India,Uttar_Pradesh,Ghaziabad,"Vasundhara, Ghaziabad - UPPCB",05-06-2024 01:00:00,28.6603346,77.3572563,OZONE,10,151,32
India,Uttar_Pradesh,Greater Noida,"Knowledge Park - III, Greater Noida - UPPCB",05-06-2024 01:00:00,28.47272,77.482000,SO2,5,23,15
India,Uttar_Pradesh,Greater Noida,"Knowledge Park - V, Greater Noida - UPPCB",05-06-2024 01:00:00,28.557054,77.453663,NH3,4,7,5
India,Uttar_Pradesh,Hapur,"Anand Vihar, Hapur - UPPCB",05-06-2024 01:00:00,28.725645,77.749675,PM10,68,165,113
India,Uttar_Pradesh,Hapur,"Anand Vihar, Hapur - UPPCB",05-06-2024 01:00:00,28.725645,77.749675,SO2,1,32,10
India,Uttar_Pradesh,Hapur,"Anand Vihar, Hapur - UPPCB",05-06-2024 01:00:00,28.725645,77.749675,OZONE,3,44,19
India,Uttar_Pradesh,Jhansi,"Shivaji Nagar, Jhansi - UPPCB",05-06-2024 01:00:00,25.4547,78.6039,NO2,2,73,20
India,Uttar_Pradesh,Jhansi,"Shivaji Nagar, Jhansi - UPPCB",05-06-2024 01:00:00,25.4547,78.6039,CO,6,92,26
India,Uttar_Pradesh,Kanpur,"FTI Kidwai Nagar, Kanpur - UPPCB",05-06-2024 01:00:00,26.428282,80.327067,NO2,21,22,22
India,Uttar_Pradesh,Kanpur,"FTI Kidwai Nagar, Kanpur - UPPCB",05-06-2024 01:00:00,26.428282,80.327067,NH3,1,2,2
India,Uttar_Pradesh,Kanpur,"NSI Kalyanpur, Kanpur - UPPCB",05-06-2024 01:00:00,26.509954,80.249612,OZONE,32,71,55
India,Uttar_Pradesh,Kanpur,"Nehru Nagar, Kanpur - UPPCB",05-06-2024 01:00:00,26.4703136,80.3229863,PM10,32,86,65
India,Uttar_Pradesh,Khurja,"Kalindi Kunj, Khurja - UPPCB",05-06-2024 01:00:00,28.2348927,77.8683002,PM2.5,39,206,95
India,Uttar_Pradesh,Khurja,"Kalindi Kunj, Khurja - UPPCB",05-06-2024 01:00:00,28.2348927,77.8683002,PM10,112,200,153
India,Uttar_Pradesh,Lucknow,"Gomti Nagar, Lucknow - UPPCB",05-06-2024 01:00:00,26.868120,81.005119,PM10,54,404,129
India,Uttar_Pradesh,Lucknow,"Gomti Nagar, Lucknow - UPPCB",05-06-2024 01:00:00,26.868120,81.005119,NO2,10,12,11
India,Uttar_Pradesh,Lucknow,"Kendriya Vidyalaya, Lucknow - CPCB",05-06-2024 01:00:00,26.906111,80.948222,PM10,95,438,174
India,Uttar_Pradesh,Lucknow,"Kendriya Vidyalaya, Lucknow - CPCB",05-06-2024 01:00:00,26.906111,80.948222,CO,19,41,30
India,Uttar_Pradesh,Lucknow,"Kukrail Picnic Spot-1, Lucknow - UPPCB",05-06-2024 01:00:00,26.90723,80.98579,PM2.5,44,216,88
India,Uttar_Pradesh,Lucknow,"Kukrail Picnic Spot-1, Lucknow - UPPCB",05-06-2024 01:00:00,26.90723,80.98579,PM10,53,234,112
India,Uttar_Pradesh,Lucknow,"Kukrail Picnic Spot-1, Lucknow - UPPCB",05-06-2024 01:00:00,26.90723,80.98579,OZONE,7,58,40
India,Uttar_Pradesh,Lucknow,"Lalbagh, Lucknow - CPCB",05-06-2024 01:00:00,26.8458805,80.9365541,PM10,111,456,203
India,Uttar_Pradesh,Lucknow,"Lalbagh, Lucknow - CPCB",05-06-2024 01:00:00,26.8458805,80.9365541,NO2,26,27,26
India,Uttar_Pradesh,Lucknow,"Lalbagh, Lucknow - CPCB",05-06-2024 01:00:00,26.8458805,80.9365541,SO2,2,16,8
India,Uttar_Pradesh,Lucknow,"Lalbagh, Lucknow - CPCB",05-06-2024 01:00:00,26.8458805,80.9365541,OZONE,10,156,69
India,Uttar_Pradesh,Meerut,"Ganga Nagar, Meerut - UPPCB",05-06-2024 01:00:00,28.999264,77.7590354,PM2.5,19,84,47
India,Uttar_Pradesh,Meerut,"Jai Bhim Nagar, Meerut - UPPCB",05-06-2024 01:00:00,28.9535882,77.7622941,PM10,75,304,170
India,Uttar_Pradesh,Meerut,"Jai Bhim Nagar, Meerut - UPPCB",05-06-2024 01:00:00,28.9535882,77.7622941,OZONE,7,151,75
India,Uttar_Pradesh,Meerut,"Pallavpuram Phase 2, Meerut - UPPCB",05-06-2024 01:00:00,29.063510,77.709723,PM2.5,30,128,68
India,Uttar_Pradesh,Meerut,"Pallavpuram Phase 2, Meerut - UPPCB",05-06-2024 01:00:00,29.063510,77.709723,NO2,10,46,23
India,Uttar_Pradesh,Meerut,"Pallavpuram Phase 2, Meerut - UPPCB",05-06-2024 01:00:00,29.063510,77.709723,NH3,4,8,6
India,Uttar_Pradesh,Meerut,"Pallavpuram Phase 2, Meerut - UPPCB",05-06-2024 01:00:00,29.063510,77.709723,OZONE,12,116,57
India,Uttar_Pradesh,Moradabad,"Buddhi Vihar, Moradabad - UPPCB",05-06-2024 01:00:00,28.83526,78.74460,PM10,59,158,97
India,Uttar_Pradesh,Moradabad,"Buddhi Vihar, Moradabad - UPPCB",05-06-2024 01:00:00,28.83526,78.74460,SO2,8,10,9
India,Uttar_Pradesh,Moradabad,"Buddhi Vihar, Moradabad - UPPCB",05-06-2024 01:00:00,28.83526,78.74460,OZONE,50,172,104
India,Uttar_Pradesh,Moradabad,"Eco Herbal Park, Moradabad - UPPCB",05-06-2024 01:00:00,28.840739,78.697531,SO2,1,51,14
India,Uttar_Pradesh,Moradabad,"Eco Herbal Park, Moradabad - UPPCB",05-06-2024 01:00:00,28.840739,78.697531,OZONE,23,189,88
India,Uttar_Pradesh,Moradabad,"Employment Office, Moradabad - UPPCB",05-06-2024 01:00:00,28.88528,78.73880,PM10,NA,NA,NA
India,Uttar_Pradesh,Moradabad,"Employment Office, Moradabad - UPPCB",05-06-2024 01:00:00,28.88528,78.73880,OZONE,11,258,54
India,Uttar_Pradesh,Moradabad,"Jigar Colony, Moradabad - UPPCB",05-06-2024 01:00:00,28.856664,78.772638,SO2,17,21,19
India,Uttar_Pradesh,Moradabad,"Jigar Colony, Moradabad - UPPCB",05-06-2024 01:00:00,28.856664,78.772638,CO,24,40,31
India,Uttar_Pradesh,Moradabad,"Jigar Colony, Moradabad - UPPCB",05-06-2024 01:00:00,28.856664,78.772638,OZONE,19,36,25
India,Uttar_Pradesh,Moradabad,"Kashiram Nagar, Moradabad - UPPCB",05-06-2024 01:00:00,28.849399,78.742362,PM10,55,150,94
India,Uttar_Pradesh,Moradabad,"Kashiram Nagar, Moradabad - UPPCB",05-06-2024 01:00:00,28.849399,78.742362,SO2,31,57,39
India,Uttar_Pradesh,Moradabad,"Transport Nagar, Moradabad - UPPCB",05-06-2024 01:00:00,28.802625,78.753728,PM10,54,128,88
India,Uttar_Pradesh,Moradabad,"Transport Nagar, Moradabad - UPPCB",05-06-2024 01:00:00,28.802625,78.753728,NH3,5,5,5
India,Uttar_Pradesh,Muzaffarnagar,"New Mandi, Muzaffarnagar - UPPCB",05-06-2024 01:00:00,29.4723508,77.7194031,CO,28,60,46
India,Uttar_Pradesh,Noida,"Sector - 125, Noida - UPPCB",05-06-2024 01:00:00,28.5447608,77.3231257,PM2.5,NA,NA,NA
India,Uttar_Pradesh,Noida,"Sector - 125, Noida - UPPCB",05-06-2024 01:00:00,28.5447608,77.3231257,PM10,NA,NA,NA
India,Uttar_Pradesh,Noida,"Sector - 125, Noida - UPPCB",05-06-2024 01:00:00,28.5447608,77.3231257,CO,24,82,55
India,Uttar_Pradesh,Noida,"Sector - 125, Noida - UPPCB",05-06-2024 01:00:00,28.5447608,77.3231257,OZONE,5,172,28
India,Uttar_Pradesh,Noida,"Sector - 62, Noida - IMD",05-06-2024 01:00:00,28.6245479,77.3577104,PM2.5,63,211,121
India,Uttar_Pradesh,Noida,"Sector-116, Noida - UPPCB",05-06-2024 01:00:00,28.569230,77.393848,CO,16,96,53
India,Uttar_Pradesh,Prayagraj,"Jhunsi, Prayagraj - UPPCB",05-06-2024 01:00:00,25.425602,81.917152,PM2.5,31,82,45
India,Uttar_Pradesh,Prayagraj,"Jhunsi, Prayagraj - UPPCB",05-06-2024 01:00:00,25.425602,81.917152,NO2,5,6,6
India,Uttar_Pradesh,Prayagraj,"Jhunsi, Prayagraj - UPPCB",05-06-2024 01:00:00,25.425602,81.917152,SO2,30,32,30
India,Uttar_Pradesh,Prayagraj,"Jhunsi, Prayagraj - UPPCB",05-06-2024 01:00:00,25.425602,81.917152,CO,8,36,13
India,Uttar_Pradesh,Prayagraj,"Motilal Nehru NIT, Prayagraj - UPPCB",05-06-2024 01:00:00,25.494,81.863,NH3,6,7,7
India,Uttar_Pradesh,Prayagraj,"Motilal Nehru NIT, Prayagraj - UPPCB",05-06-2024 01:00:00,25.494,81.863,CO,19,57,34
India,Uttar_Pradesh,Prayagraj,"Nagar Nigam, Prayagraj - UPPCB",05-06-2024 01:00:00,25.44919916 ,81.82735986 ,NH3,1,4,2
India,Uttar_Pradesh,Varanasi,"Ardhali Bazar, Varanasi - UPPCB",05-06-2024 01:00:00,25.3505986,82.9083074,CO,28,50,33
India,Uttar_Pradesh,Varanasi,"Bhelupur, Varanasi - UPPCB",05-06-2024 01:00:00,25.301778,82.996789,CO,16,39,29
India,Uttar_Pradesh,Varanasi,"IESD Banaras Hindu University, Varanasi - UPPCB",05-06-2024 01:00:00,25.262326,82.995408,NO2,2,2,2
India,Uttar_Pradesh,Varanasi,"IESD Banaras Hindu University, Varanasi - UPPCB",05-06-2024 01:00:00,25.262326,82.995408,NH3,1,2,2
India,Uttar_Pradesh,Varanasi,"Maldahiya, Varanasi - UPPCB",05-06-2024 01:00:00,25.32393,82.99687,NO2,1,2,2
India,Uttar_Pradesh,Varanasi,"Maldahiya, Varanasi - UPPCB",05-06-2024 01:00:00,25.32393,82.99687,SO2,25,26,25
India,Uttar_Pradesh,Varanasi,"Maldahiya, Varanasi - UPPCB",05-06-2024 01:00:00,25.32393,82.99687,OZONE,1,29,19
India,Uttar_Pradesh,Vrindavan,"Omex Eternity, Vrindavan - UPPCB",05-06-2024 01:00:00,27.5714090,77.6557570,PM2.5,29,245,54
India,Uttar_Pradesh,Vrindavan,"Omex Eternity, Vrindavan - UPPCB",05-06-2024 01:00:00,27.5714090,77.6557570,PM10,42,390,123
India,Uttarakhand,Dehradun,"Doon University, Dehradun - UKPCB",05-06-2024 01:00:00,30.269444,78.044167,NO2,1,4,2
India,Uttarakhand,Dehradun,"Doon University, Dehradun - UKPCB",05-06-2024 01:00:00,30.269444,78.044167,OZONE,54,172,113
India,Uttarakhand,Kashipur,"Govt. Girls Inter College, Kashipur - UKPCB",05-06-2024 01:00:00,29.2124114,78.9611753,PM2.5,14,154,73
India,Uttarakhand,Kashipur,"Govt. Girls Inter College, Kashipur - UKPCB",05-06-2024 01:00:00,29.2124114,78.9611753,PM10,55,157,99
India,Uttarakhand,Kashipur,"Govt. Girls Inter College, Kashipur - UKPCB",05-06-2024 01:00:00,29.2124114,78.9611753,NO2,5,32,19
India,Uttarakhand,Kashipur,"Govt. Girls Inter College, Kashipur - UKPCB",05-06-2024 01:00:00,29.2124114,78.9611753,NH3,1,6,4
India,Uttarakhand,Kashipur,"Govt. Girls Inter College, Kashipur - UKPCB",05-06-2024 01:00:00,29.2124114,78.9611753,SO2,9,11,10
India,West_Bengal,Asansol,"Asansol Court Area, Asansol - WBPCB",05-06-2024 01:00:00,23.685297,86.945968,NO2,8,53,25
India,West_Bengal,Asansol,"Asansol Court Area, Asansol - WBPCB",05-06-2024 01:00:00,23.685297,86.945968,SO2,12,15,13
India,West_Bengal,Asansol,"Asansol Court Area, Asansol - WBPCB",05-06-2024 01:00:00,23.685297,86.945968,OZONE,11,86,39
India,West_Bengal,Asansol,"Evelyn Lodge, Asansol - WBPCB",05-06-2024 01:00:00,23.6979360,86.9443950,PM10,NA,NA,NA
India,West_Bengal,Asansol,"Evelyn Lodge, Asansol - WBPCB",05-06-2024 01:00:00,23.6979360,86.9443950,OZONE,43,74,59
India,West_Bengal,Barrackpore,"SVSPA Campus, Barrackpore - WBPCB",05-06-2024 01:00:00,22.7605581,88.3617589,PM2.5,23,82,50
India,West_Bengal,Barrackpore,"SVSPA Campus, Barrackpore - WBPCB",05-06-2024 01:00:00,22.7605581,88.3617589,SO2,5,12,7
India,West_Bengal,Barrackpore,"SVSPA Campus, Barrackpore - WBPCB",05-06-2024 01:00:00,22.7605581,88.3617589,CO,18,35,24
India,West_Bengal,Haldia,"Priyambada Housing Estate, Haldia - WBPCB",05-06-2024 01:00:00,22.06047,88.109737,CO,27,32,29
India,West_Bengal,Haldia,"Priyambada Housing Estate, Haldia - WBPCB",05-06-2024 01:00:00,22.06047,88.109737,OZONE,25,63,28
India,West_Bengal,Howrah,"Belur Math, Howrah - WBPCB",05-06-2024 01:00:00,22.629801,88.352017,NO2,4,11,7
India,West_Bengal,Howrah,"Ghusuri, Howrah - WBPCB",05-06-2024 01:00:00,22.611968,88.347422,PM2.5,NA,NA,NA
India,West_Bengal,Howrah,"Padmapukur, Howrah - WBPCB",05-06-2024 01:00:00,22.5687319,88.2797276,NO2,24,40,30
India,West_Bengal,Howrah,"Padmapukur, Howrah - WBPCB",05-06-2024 01:00:00,22.5687319,88.2797276,NH3,6,9,7
India,West_Bengal,Kolkata,"Ballygunge, Kolkata - WBPCB",05-06-2024 01:00:00,22.5367507,88.3638022,PM2.5,22,63,40
India,West_Bengal,Kolkata,"Ballygunge, Kolkata - WBPCB",05-06-2024 01:00:00,22.5367507,88.3638022,SO2,2,7,4
India,West_Bengal,Kolkata,"Ballygunge, Kolkata - WBPCB",05-06-2024 01:00:00,22.5367507,88.3638022,CO,8,16,12
India,West_Bengal,Kolkata,"Bidhannagar, Kolkata - WBPCB",05-06-2024 01:00:00,22.58157048,88.41002457,PM10,42,63,53
India,West_Bengal,Kolkata,"Bidhannagar, Kolkata - WBPCB",05-06-2024 01:00:00,22.58157048,88.41002457,NH3,9,9,9
India,West_Bengal,Kolkata,"Bidhannagar, Kolkata - WBPCB",05-06-2024 01:00:00,22.58157048,88.41002457,CO,25,32,29
India,West_Bengal,Kolkata,"Fort William, Kolkata - WBPCB",05-06-2024 01:00:00,22.556640,88.342674,PM10,42,64,51
India,West_Bengal,Kolkata,"Fort William, Kolkata - WBPCB",05-06-2024 01:00:00,22.556640,88.342674,NO2,11,35,19
India,West_Bengal,Kolkata,"Jadavpur, Kolkata - WBPCB",05-06-2024 01:00:00,22.49929,88.36917,NO2,12,13,13
India,West_Bengal,Kolkata,"Rabindra Sarobar, Kolkata - WBPCB",05-06-2024 01:00:00,22.51106,88.35142,NO2,40,63,50
India,West_Bengal,Kolkata,"Rabindra Sarobar, Kolkata - WBPCB",05-06-2024 01:00:00,22.51106,88.35142,SO2,2,4,4
India,West_Bengal,Kolkata,"Victoria, Kolkata - WBPCB",05-06-2024 01:00:00,22.5448082,88.3403691,CO,23,35,30
India,West_Bengal,Kolkata,"Victoria, Kolkata - WBPCB",05-06-2024 01:00:00,22.5448082,88.3403691,OZONE,15,40,29
India,Andhra_Pradesh,Amaravati,"Secretariat, Amaravati - APPCB",05-06-2024 01:00:00,16.5150833,80.5181667,PM10,17,127,39
India,Andhra_Pradesh,Anantapur,"Gulzarpet, Anantapur - APPCB",05-06-2024 01:00:00,14.675886,77.593027,PM2.5,22,69,38
India,Andhra_Pradesh,Chittoor,"Gangineni Cheruvu, Chittoor - APPCB",05-06-2024 01:00:00,13.204880,79.097889,SO2,1,6,2
India,Andhra_Pradesh,Kadapa,"Yerramukkapalli, Kadapa - APPCB",05-06-2024 01:00:00,14.465052,78.824187,PM10,NA,NA,NA
India,Andhra_Pradesh,Rajamahendravaram,"Anand Kala Kshetram, Rajamahendravaram - APPCB",05-06-2024 01:00:00,16.9872867,81.7363176,PM10,36,85,56
India,Andhra_Pradesh,Rajamahendravaram,"Anand Kala Kshetram, Rajamahendravaram - APPCB",05-06-2024 01:00:00,16.9872867,81.7363176,NH3,4,12,7
India,Andhra_Pradesh,Rajamahendravaram,"Anand Kala Kshetram, Rajamahendravaram - APPCB",05-06-2024 01:00:00,16.9872867,81.7363176,CO,23,39,31
India,Andhra_Pradesh,Tirupati,"Tirumala, Tirupati - APPCB",05-06-2024 01:00:00,13.67,79.35,PM2.5,20,54,34
India,Andhra_Pradesh,Tirupati,"Tirumala, Tirupati - APPCB",05-06-2024 01:00:00,13.67,79.35,NO2,16,36,24
India,Andhra_Pradesh,Tirupati,"Tirumala, Tirupati - APPCB",05-06-2024 01:00:00,13.67,79.35,CO,40,57,46
India,Andhra_Pradesh,Vijayawada,"HB Colony, Vijayawada - APPCB",05-06-2024 01:00:00,16.536107,80.594233,PM2.5,40,76,53
India,Andhra_Pradesh,Vijayawada,"HB Colony, Vijayawada - APPCB",05-06-2024 01:00:00,16.536107,80.594233,NH3,4,4,4
India,Andhra_Pradesh,Vijayawada,"Kanuru, Vijayawada - APPCB",05-06-2024 01:00:00,16.486692,80.699436,NH3,3,4,4
India,Andhra_Pradesh,Vijayawada,"Rajiv Gandhi Park, Vijayawada - APPCB",05-06-2024 01:00:00,16.509717,80.612222,NO2,27,39,33
India,Andhra_Pradesh,Vijayawada,"Rajiv Nagar, Vijayawada - APPCB",05-06-2024 01:00:00,16.554731,80.649110,CO,38,38,38
India,Arunachal_Pradesh,Naharlagun,"Naharlagun, Naharlagun - APSPCB",05-06-2024 01:00:00,27.103358,93.679645,PM2.5,NA,NA,NA
India,Assam,Byrnihat,"Central Academy for SFS, Byrnihat - PCBA",05-06-2024 01:00:00,26.071318,91.87488,PM2.5,12,365,76
India,Assam,Byrnihat,"Central Academy for SFS, Byrnihat - PCBA",05-06-2024 01:00:00,26.071318,91.87488,CO,5,30,8
India,Assam,Guwahati,"IITG, Guwahati - PCBA",05-06-2024 01:00:00,26.2028636,91.70046436,PM10,7,47,19
India,Assam,Guwahati,"LGBI Airport, Guwahati - PCBA",05-06-2024 01:00:00,26.10887,91.589544,CO,48,66,59
India,Assam,Guwahati,"Pan Bazaar, Guwahati - PCBA",05-06-2024 01:00:00,26.187500,91.744194,NO2,1,3,1
India,Assam,Guwahati,"Railway Colony, Guwahati - PCBA",05-06-2024 01:00:00,26.181742,91.78063,PM2.5,6,104,25
India,Assam,Guwahati,"Railway Colony, Guwahati - PCBA",05-06-2024 01:00:00,26.181742,91.78063,PM10,7,101,26
India,Assam,Nagaon,"Christianpatty, Nagaon - PCBA",05-06-2024 01:00:00,26.349082,92.68449,NH3,1,20,3
India,Assam,Nagaon,"Christianpatty, Nagaon - PCBA",05-06-2024 01:00:00,26.349082,92.68449,CO,40,65,58
India,Assam,Nagaon,"Christianpatty, Nagaon - PCBA",05-06-2024 01:00:00,26.349082,92.68449,OZONE,15,83,22
India,Assam,Nalbari,"Bata Chowk, Nalbari - PCBA",05-06-2024 01:00:00,26.446912,91.439057,PM2.5,2,90,33
India,Assam,Nalbari,"Bata Chowk, Nalbari - PCBA",05-06-2024 01:00:00,26.446912,91.439057,PM10,3,117,36
India,Assam,Nalbari,"Bata Chowk, Nalbari - PCBA",05-06-2024 01:00:00,26.446912,91.439057,OZONE,15,55,22
India,Assam,Silchar,"Tarapur, Silchar - PCBA",05-06-2024 01:00:00,24.82827,92.79525,PM10,44,45,44
India,Assam,Silchar,"Tarapur, Silchar - PCBA",05-06-2024 01:00:00,24.82827,92.79525,CO,19,46,28
India,Assam,Sivasagar,"Girls College, Sivasagar - PCBA",05-06-2024 01:00:00,26.987634,94.636574,NO2,11,17,14
India,Assam,Sivasagar,"Girls College, Sivasagar - PCBA",05-06-2024 01:00:00,26.987634,94.636574,OZONE,1,6,3
India,Bihar,Arrah,"New DM Office, Arrah - BSPCB",05-06-2024 01:00:00,25.5626095,84.663264,PM2.5,25,75,43
India,Bihar,Arrah,"New DM Office, Arrah - BSPCB",05-06-2024 01:00:00,25.5626095,84.663264,OZONE,13,53,17
India,Bihar,Bettiah,"Kamalnath Nagar, Bettiah - BSPCB",05-06-2024 01:00:00,26.80365,84.51954,SO2,12,22,18
India,Bihar,Bhagalpur,"DM Office_Kachari Chowk, Bhagalpur - BSPCB",05-06-2024 01:00:00,25.251013,86.989001,NH3,4,8,6
India,Bihar,Bhagalpur,"DM Office_Kachari Chowk, Bhagalpur - BSPCB",05-06-2024 01:00:00,25.251013,86.989001,SO2,29,39,34
India,Bihar,Bhagalpur,"Mayaganj, Bhagalpur - BSPCB",05-06-2024 01:00:00,25.265194,87.012947,SO2,11,12,12
India,Bihar,Bhagalpur,"Mayaganj, Bhagalpur - BSPCB",05-06-2024 01:00:00,25.265194,87.012947,CO,21,66,56
India,Bihar,Bihar Sharif,"D M Colony, Bihar Sharif - BSPCB",05-06-2024 01:00:00,25.204762,85.514960,CO,24,32,29
India,Bihar,Buxar,"Charitra Van, Buxar - BSPCB (Formerly known as Central Jail)",05-06-2024 01:00:00,25.567520,83.966379,PM10,NA,NA,NA
India,Bihar,Buxar,"Charitra Van, Buxar - BSPCB (Formerly known as Central Jail)",05-06-2024 01:00:00,25.567520,83.966379,NO2,1,94,7
India,Bihar,Buxar,"Charitra Van, Buxar - BSPCB (Formerly known as Central Jail)",05-06-2024 01:00:00,25.567520,83.966379,SO2,3,6,4
India,Bihar,Buxar,"Charitra Van, Buxar - BSPCB (Formerly known as Central Jail)",05-06-2024 01:00:00,25.567520,83.966379,CO,31,68,56
India,Bihar,Gaya,"Kareemganj, Gaya - BSPCB",05-06-2024 01:00:00,24.792403,84.992416,PM2.5,15,68,46
India,Bihar,Gaya,"SFTI Kusdihra, Gaya - BSPCB",05-06-2024 01:00:00,24.762518,84.982348,PM10,67,97,81
India,Bihar,Hajipur,"Industrial Area, Hajipur - BSPCB",05-06-2024 01:00:00,25.697189,85.245900,PM2.5,78,249,131
India,Bihar,Katihar,"Mirchaibari, Katihar - BSPCB",05-06-2024 01:00:00,25.560083,87.553265,CO,7,49,13
India,Bihar,Katihar,"Mirchaibari, Katihar - BSPCB",05-06-2024 01:00:00,25.560083,87.553265,OZONE,3,12,4
India,Bihar,Kishanganj,"SDM Office_Khagra, Kishanganj - BSPCB",05-06-2024 01:00:00,26.0881305,87.93840336,PM10,NA,NA,NA
India,Bihar,Kishanganj,"SDM Office_Khagra, Kishanganj - BSPCB",05-06-2024 01:00:00,26.0881305,87.93840336,CO,5,10,7
India,Bihar,Manguraha,"Forest Rest House, Manguraha - BSPCB",05-06-2024 01:00:00,27.308328,84.531742,CO,25,64,64
India,Bihar,Motihari,"Gandak Colony, Motihari - BSPCB",05-06-2024 01:00:00,26.63086,84.90051,NO2,22,45,32
India,Bihar,Motihari,"Gandak Colony, Motihari - BSPCB",05-06-2024 01:00:00,26.63086,84.90051,OZONE,25,64,37
India,Bihar,Munger,"Town Hall, Munger - BSPCB",05-06-2024 01:00:00,25.376776,86.471523,PM10,46,95,71
India,Bihar,Munger,"Town Hall, Munger - BSPCB",05-06-2024 01:00:00,25.376776,86.471523,OZONE,24,44,28
India,Bihar,Muzaffarpur,"Buddha Colony, Muzaffarpur - BSPCB",05-06-2024 01:00:00,26.11442,85.39813,PM2.5,58,93,69
India,Bihar,Muzaffarpur,"Buddha Colony, Muzaffarpur - BSPCB",05-06-2024 01:00:00,26.11442,85.39813,PM10,66,107,79
India,Bihar,Muzaffarpur,"Buddha Colony, Muzaffarpur - BSPCB",05-06-2024 01:00:00,26.11442,85.39813,CO,14,27,19
India,Bihar,Muzaffarpur,"MIT-Daudpur Kothi, Muzaffarpur - BSPCB",05-06-2024 01:00:00,26.1403345,85.3650192,CO,7,82,22
India,Bihar,Muzaffarpur,"MIT-Daudpur Kothi, Muzaffarpur - BSPCB",05-06-2024 01:00:00,26.1403345,85.3650192,OZONE,15,30,21
India,Bihar,Patna,"DRM Office Danapur, Patna - BSPCB",05-06-2024 01:00:00,25.586562,85.043586,PM10,98,135,118
India,Bihar,Patna,"DRM Office Danapur, Patna - BSPCB",05-06-2024 01:00:00,25.586562,85.043586,NH3,2,3,3
India,Bihar,Patna,"Govt. High School Shikarpur, Patna - BSPCB",05-06-2024 01:00:00,25.592539,85.227158,PM2.5,39,124,65
India,Bihar,Patna,"IGSC Planetarium Complex, Patna - BSPCB",05-06-2024 01:00:00,25.610369,85.132568,NO2,13,13,13
India,Bihar,Patna,"IGSC Planetarium Complex, Patna - BSPCB",05-06-2024 01:00:00,25.610369,85.132568,CO,12,18,14
India,Bihar,Patna,"Rajbansi Nagar, Patna - BSPCB",05-06-2024 01:00:00,25.599486,85.113666,CO,22,31,26
India,Bihar,Rajgir,"Dangi Tola, Rajgir - BSPCB",05-06-2024 01:00:00,25.03280,85.41948,PM2.5,45,92,61
India,Bihar,Rajgir,"Dangi Tola, Rajgir - BSPCB",05-06-2024 01:00:00,25.03280,85.41948,SO2,3,5,4
India,Bihar,Saharsa,"Police Line, Saharsa - BSPCB",05-06-2024 01:00:00,25.892357,86.590325,NH3,9,9,9
India,Bihar,Saharsa,"Police Line, Saharsa - BSPCB",05-06-2024 01:00:00,25.892357,86.590325,CO,54,54,54
India,Bihar,Samastipur,"DM Office_Kasipur, Samastipur - BSPCB",05-06-2024 01:00:00,25.859655,85.77944,PM10,3,124,31
India,Bihar,Samastipur,"DM Office_Kasipur, Samastipur - BSPCB",05-06-2024 01:00:00,25.859655,85.77944,SO2,65,76,72
India,Bihar,Samastipur,"DM Office_Kasipur, Samastipur - BSPCB",05-06-2024 01:00:00,25.859655,85.77944,CO,65,107,94
India,Bihar,Siwan,"Chitragupta Nagar, Siwan - BSPCB",05-06-2024 01:00:00,26.2271665,84.3570427,SO2,25,37,31
India,Chandigarh,Chandigarh,"Sector 22, Chandigarh - CPCC",05-06-2024 01:00:00,30.735567,76.775714,SO2,7,41,16
India,Chandigarh,Chandigarh,"Sector-53, Chandigarh - CPCC",05-06-2024 01:00:00,30.719859,76.738637,PM2.5,NA,NA,NA
India,Chandigarh,Chandigarh,"Sector-53, Chandigarh - CPCC",05-06-2024 01:00:00,30.719859,76.738637,NO2,NA,NA,NA
India,Chandigarh,Chandigarh,"Sector-53, Chandigarh - CPCC",05-06-2024 01:00:00,30.719859,76.738637,NH3,NA,NA,NA
India,Chhattisgarh,Bhilai,"32Bungalows, Bhilai - CECB",05-06-2024 01:00:00,21.194815,81.314770,NH3,6,7,7
India,Chhattisgarh,Bhilai,"Hathkhoj, Bhilai - CECB",05-06-2024 01:00:00,21.224231,81.408350,PM2.5,16,45,34
India,Chhattisgarh,Bhilai,"Hathkhoj, Bhilai - CECB",05-06-2024 01:00:00,21.224231,81.408350,PM10,30,102,66
India,Chhattisgarh,Bilaspur,"Mangala, Bilaspur - NTPC",05-06-2024 01:00:00,22.08815,82.13737,PM10,38,105,56
India,Chhattisgarh,Bilaspur,"Mangala, Bilaspur - NTPC",05-06-2024 01:00:00,22.08815,82.13737,CO,30,43,39
India,Chhattisgarh,Chhal,"Nawapara SECL Colony, Chhal - CECB",05-06-2024 01:00:00,22.118125,83.140608,CO,10,52,35
India,Chhattisgarh,Korba,"Urja Nagar, Korba - CECB",05-06-2024 01:00:00,22.348441,82.549611,CO,18,88,27
India,Chhattisgarh,Kunjemura,"OP Jindal School, Kunjemura - CECB",05-06-2024 01:00:00,22.126650,83.483212,NO2,25,79,40
India,Chhattisgarh,Milupara,"Govt. Higher Secondary School, Milupara - CECB",05-06-2024 01:00:00,22.1910172,83.5197009,OZONE,NA,NA,NA
India,Chhattisgarh,Raipur,"AIIMS, Raipur - CECB",05-06-2024 01:00:00,21.258815,81.578979,NO2,10,23,14
India,Chhattisgarh,Raipur,"AIIMS, Raipur - CECB",05-06-2024 01:00:00,21.258815,81.578979,SO2,5,12,7
India,Chhattisgarh,Raipur,"Krishak Nagar, Raipur - CECB",05-06-2024 01:00:00,21.237755,81.705301,SO2,12,21,14
India,Chhattisgarh,Raipur,"Siltara Phase-II, Raipur - CECB",05-06-2024 01:00:00,21.371751,81.664929,PM10,25,160,79
India,Chhattisgarh,Tumidih,"OP Jindal Industrial Park, Tumidih - CECB",05-06-2024 01:00:00,22.06631475,83.33820077,SO2,NA,NA,NA
India,Chhattisgarh,Tumidih,"OP Jindal Industrial Park, Tumidih - CECB",05-06-2024 01:00:00,22.06631475,83.33820077,CO,23,52,36
India,Delhi,Delhi,"Alipur, Delhi - DPCC",05-06-2024 01:00:00,28.815329,77.153010,PM2.5,55,213,95
India,Delhi,Delhi,"Alipur, Delhi - DPCC",05-06-2024 01:00:00,28.815329,77.153010,NO2,7,82,26
India,Delhi,Delhi,"Alipur, Delhi - DPCC",05-06-2024 01:00:00,28.815329,77.153010,OZONE,3,270,110
India,Delhi,Delhi,"Anand Vihar, Delhi - DPCC",05-06-2024 01:00:00,28.647622,77.3158090,NH3,4,10,7
India,Delhi,Delhi,"Ashok Vihar, Delhi - DPCC",05-06-2024 01:00:00,28.695381,77.181665,SO2,16,35,25
India,Delhi,Delhi,"Aya Nagar, Delhi - IMD",05-06-2024 01:00:00,28.4706914,77.1099364,PM2.5,22,320,100
India,Delhi,Delhi,"Aya Nagar, Delhi - IMD",05-06-2024 01:00:00,28.4706914,77.1099364,CO,65,112,104
India,Delhi,Delhi,"Bawana, Delhi - DPCC",05-06-2024 01:00:00,28.776200,77.051074,PM10,123,464,249
India,Delhi,Delhi,"Bawana, Delhi - DPCC",05-06-2024 01:00:00,28.776200,77.051074,NO2,7,78,36
India,Delhi,Delhi,"Burari Crossing, Delhi - IMD",05-06-2024 01:00:00,28.7256504,77.2011573,PM10,111,361,209
India,Delhi,Delhi,"Burari Crossing, Delhi - IMD",05-06-2024 01:00:00,28.7256504,77.2011573,NO2,14,17,16
India,Delhi,Delhi,"CRRI Mathura Road, Delhi - IMD",05-06-2024 01:00:00,28.5512005,77.2735737,PM10,137,305,191
India,Delhi,Delhi,"CRRI Mathura Road, Delhi - IMD",05-06-2024 01:00:00,28.5512005,77.2735737,NO2,6,20,13
India,Delhi,Delhi,"Chandni Chowk, Delhi - IITM",05-06-2024 01:00:00,28.656756,77.227234,OZONE,4,38,17
India,Delhi,Delhi,"DTU, Delhi - CPCB",05-06-2024 01:00:00,28.7500499,77.1112615,PM2.5,108,310,215
India,Delhi,Delhi,"Dwarka-Sector 8, Delhi - DPCC ",05-06-2024 01:00:00,28.5710274,77.0719006,PM2.5,67,150,94
India,Delhi,Delhi,"Dwarka-Sector 8, Delhi - DPCC ",05-06-2024 01:00:00,28.5710274,77.0719006,OZONE,6,220,43
India,Delhi,Delhi,"IGI Airport (T3), Delhi - IMD",05-06-2024 01:00:00,28.5627763,77.1180053,PM10,125,187,147
India,Delhi,Delhi,"IHBAS, Dilshad Garden, Delhi - CPCB",05-06-2024 01:00:00,28.6811736,77.3025234,PM2.5,104,321,191
India,Delhi,Delhi,"IHBAS, Dilshad Garden, Delhi - CPCB",05-06-2024 01:00:00,28.6811736,77.3025234,NO2,17,40,27
India,Delhi,Delhi,"IHBAS, Dilshad Garden, Delhi - CPCB",05-06-2024 01:00:00,28.6811736,77.3025234,CO,8,68,32
India,Delhi,Delhi,"ITO, Delhi - CPCB",05-06-2024 01:00:00,28.628624,77.241060,PM2.5,117,305,189
India,Delhi,Delhi,"ITO, Delhi - CPCB",05-06-2024 01:00:00,28.628624,77.241060,NO2,31,106,62
India,Delhi,Delhi,"ITO, Delhi - CPCB",05-06-2024 01:00:00,28.628624,77.241060,OZONE,2,99,5
India,Delhi,Delhi,"Jahangirpuri, Delhi - DPCC",05-06-2024 01:00:00,28.732820,77.170633,OZONE,2,222,37
India,Delhi,Delhi,"Jawaharlal Nehru Stadium, Delhi - DPCC",05-06-2024 01:00:00,28.580280,77.233829,NO2,18,132,55
India,Delhi,Delhi,"Jawaharlal Nehru Stadium, Delhi - DPCC",05-06-2024 01:00:00,28.580280,77.233829,SO2,16,56,26
India,Delhi,Delhi,"Jawaharlal Nehru Stadium, Delhi - DPCC",05-06-2024 01:00:00,28.580280,77.233829,OZONE,5,207,58
India,Delhi,Delhi,"Lodhi Road, Delhi - IITM",05-06-2024 01:00:00,28.588333,77.221667,PM2.5,44,329,114
India,Delhi,Delhi,"Lodhi Road, Delhi - IITM",05-06-2024 01:00:00,28.588333,77.221667,NO2,5,111,37
India,Delhi,Delhi,"Lodhi Road, Delhi - IITM",05-06-2024 01:00:00,28.588333,77.221667,SO2,16,33,24
India,Delhi,Delhi,"Major Dhyan Chand National Stadium, Delhi - DPCC",05-06-2024 01:00:00,28.611281,77.237738,NO2,21,138,65
India,Delhi,Delhi,"Mundka, Delhi - DPCC",05-06-2024 01:00:00,28.684678,77.076574,PM2.5,70,371,142
India,Delhi,Delhi,"Mundka, Delhi - DPCC",05-06-2024 01:00:00,28.684678,77.076574,SO2,7,22,13
India,Delhi,Delhi,"Najafgarh, Delhi - DPCC",05-06-2024 01:00:00,28.570173,76.933762,PM2.5,45,133,79
India,Delhi,Delhi,"Najafgarh, Delhi - DPCC",05-06-2024 01:00:00,28.570173,76.933762,NH3,5,9,7
India,Delhi,Delhi,"Narela, Delhi - DPCC",05-06-2024 01:00:00,28.822836,77.101981,PM10,138,425,240
India,Delhi,Delhi,"Nehru Nagar, Delhi - DPCC",05-06-2024 01:00:00,28.567890,77.250515,OZONE,2,238,53
India,Delhi,Delhi,"New Moti Bagh, Delhi - MHUA",05-06-2024 01:00:00,28.57834,77.18400,CO,22,101,61
India,Delhi,Delhi,"North Campus, DU, Delhi - IMD",05-06-2024 01:00:00,28.6573814,77.1585447,PM10,76,358,207
India,Delhi,Delhi,"North Campus, DU, Delhi - IMD",05-06-2024 01:00:00,28.6573814,77.1585447,OZONE,14,80,23
India,Delhi,Delhi,"Okhla Phase-2, Delhi - DPCC",05-06-2024 01:00:00,28.530785,77.271255,OZONE,3,198,33
India,Delhi,Delhi,"Patparganj, Delhi - DPCC",05-06-2024 01:00:00,28.623763,77.287209,PM2.5,67,217,127
India,Delhi,Delhi,"Patparganj, Delhi - DPCC",05-06-2024 01:00:00,28.623763,77.287209,SO2,13,27,21
India,Delhi,Delhi,"Pusa, Delhi - DPCC",05-06-2024 01:00:00,28.639652,77.146275,PM10,140,369,211
India,Delhi,Delhi,"Pusa, Delhi - DPCC",05-06-2024 01:00:00,28.639652,77.146275,OZONE,10,192,41
India,Delhi,Delhi,"R K Puram, Delhi - DPCC",05-06-2024 01:00:00,28.563262,77.186937,PM2.5,88,304,151
India,Delhi,Delhi,"R K Puram, Delhi - DPCC",05-06-2024 01:00:00,28.563262,77.186937,NO2,27,165,69
India,Delhi,Delhi,"Rohini, Delhi - DPCC",05-06-2024 01:00:00,28.732528,77.119920,NO2,23,189,76
India,Delhi,Delhi,"Rohini, Delhi - DPCC",05-06-2024 01:00:00,28.732528,77.119920,OZONE,4,279,57
India,Delhi,Delhi,"Shadipur, Delhi - CPCB",05-06-2024 01:00:00,28.6514781,77.1473105,SO2,3,61,20
India,Delhi,Delhi,"Shadipur, Delhi - CPCB",05-06-2024 01:00:00,28.6514781,77.1473105,OZONE,15,113,25
India,Delhi,Delhi,"Sirifort, Delhi - CPCB",05-06-2024 01:00:00,28.5504249,77.2159377,NO2,7,67,40
India,Delhi,Delhi,"Sirifort, Delhi - CPCB",05-06-2024 01:00:00,28.5504249,77.2159377,SO2,42,45,43
India,Delhi,Delhi,"Sirifort, Delhi - CPCB",05-06-2024 01:00:00,28.5504249,77.2159377,CO,13,100,51
India,Delhi,Delhi,"Sonia Vihar, Delhi - DPCC",05-06-2024 01:00:00,28.710508,77.249485,PM10,125,405,207
India,Delhi,Delhi,"Sonia Vihar, Delhi - DPCC",05-06-2024 01:00:00,28.710508,77.249485,NH3,5,10,7
India,Delhi,Delhi,"Sonia Vihar, Delhi - DPCC",05-06-2024 01:00:00,28.710508,77.249485,CO,8,109,64
India,Delhi,Delhi,"Sri Aurobindo Marg, Delhi - DPCC",05-06-2024 01:00:00,28.531346,77.190156,PM10,153,401,205
India,Delhi,Delhi,"Sri Aurobindo Marg, Delhi - DPCC",05-06-2024 01:00:00,28.531346,77.190156,SO2,14,22,17
India,Delhi,Delhi,"Vivek Vihar, Delhi - DPCC",05-06-2024 01:00:00,28.672342,77.315260,PM2.5,70,218,102
India,Delhi,Delhi,"Vivek Vihar, Delhi - DPCC",05-06-2024 01:00:00,28.672342,77.315260,PM10,139,308,219
India,Delhi,Delhi,"Vivek Vihar, Delhi - DPCC",05-06-2024 01:00:00,28.672342,77.315260,SO2,12,30,19
India,Delhi,Delhi,"Vivek Vihar, Delhi - DPCC",05-06-2024 01:00:00,28.672342,77.315260,CO,60,119,96
India,Delhi,Delhi,"Wazirpur, Delhi - DPCC",05-06-2024 01:00:00,28.699793,77.165453,NO2,32,87,45
India,Delhi,Delhi,"Wazirpur, Delhi - DPCC",05-06-2024 01:00:00,28.699793,77.165453,CO,84,128,110
India,Gujarat,Ahmedabad,"Gyaspur, Ahmedabad - IITM",05-06-2024 01:00:00,22.977134,72.553024,SO2,19,21,20
India,Gujarat,Ahmedabad,"Maninagar, Ahmedabad - GPCB",05-06-2024 01:00:00,23.002657,72.591912,NO2,30,50,35
India,Gujarat,Ahmedabad,"Maninagar, Ahmedabad - GPCB",05-06-2024 01:00:00,23.002657,72.591912,OZONE,17,127,56
India,Gujarat,Ahmedabad,"Rakhial, Ahmedabad - IITM",05-06-2024 01:00:00,23.016834,72.625775,PM10,NA,NA,NA
India,Gujarat,Ahmedabad,"Rakhial, Ahmedabad - IITM",05-06-2024 01:00:00,23.016834,72.625775,CO,NA,NA,NA
India,Gujarat,Ahmedabad,"SVPI Airport Hansol, Ahmedabad - IITM",05-06-2024 01:00:00,23.076793,72.627874,PM10,83,124,108
India,Gujarat,Ahmedabad,"SVPI Airport Hansol, Ahmedabad - IITM",05-06-2024 01:00:00,23.076793,72.627874,NH3,4,6,5
India,Gujarat,Ahmedabad,"Sardar Vallabhbhai Patel Stadium, Ahmedabad - IITM",05-06-2024 01:00:00,23.043070,72.562968,PM2.5,79,166,109
India,Gujarat,Ahmedabad,"Sardar Vallabhbhai Patel Stadium, Ahmedabad - IITM",05-06-2024 01:00:00,23.043070,72.562968,NO2,30,38,36
India,Gujarat,Ankleshwar,"GIDC, Ankleshwar - GPCB",05-06-2024 01:00:00,21.613267,73.010555,PM10,52,82,68
India,Gujarat,Ankleshwar,"GIDC, Ankleshwar - GPCB",05-06-2024 01:00:00,21.613267,73.010555,CO,28,78,58
India,Gujarat,Gandhinagar,"Sector-10, Gandhinagar - GPCB",05-06-2024 01:00:00,23.221714,72.654328,PM2.5,33,52,43
India,Gujarat,Gandhinagar,"Sector-10, Gandhinagar - GPCB",05-06-2024 01:00:00,23.221714,72.654328,NO2,15,21,18
India,Gujarat,Gandhinagar,"Sector-10, Gandhinagar - GPCB",05-06-2024 01:00:00,23.221714,72.654328,SO2,3,4,4
India,Gujarat,Gandhinagar,"Sector-10, Gandhinagar - GPCB",05-06-2024 01:00:00,23.221714,72.654328,OZONE,23,66,37
India,Gujarat,Vapi,"Phase-1 GIDC, Vapi - GPCB",05-06-2024 01:00:00,20.362421,72.918013,OZONE,1,1,1
India,Gujarat,Vatva,"Phase-4 GIDC, Vatva - GPCB",05-06-2024 01:00:00,22.969611,72.643500,PM10,75,108,87
India,Haryana,Ambala,"Patti Mehar, Ambala - HSPCB",05-06-2024 01:00:00,30.379589,76.778328,SO2,7,16,11
India,Haryana,Ambala,"Patti Mehar, Ambala - HSPCB",05-06-2024 01:00:00,30.379589,76.778328,OZONE,32,58,44
India,Haryana,Bahadurgarh,"Arya Nagar, Bahadurgarh - HSPCB",05-06-2024 01:00:00,28.6701,76.9254,NO2,20,24,22
India,Haryana,Ballabgarh,"Nathu Colony, Ballabgarh - HSPCB",05-06-2024 01:00:00,28.3419248,77.319699,PM2.5,58,305,144
India,Haryana,Ballabgarh,"Nathu Colony, Ballabgarh - HSPCB",05-06-2024 01:00:00,28.3419248,77.319699,NH3,1,2,2
India,Haryana,Ballabgarh,"Nathu Colony, Ballabgarh - HSPCB",05-06-2024 01:00:00,28.3419248,77.319699,SO2,4,14,7
India,Haryana,Ballabgarh,"Nathu Colony, Ballabgarh - HSPCB",05-06-2024 01:00:00,28.3419248,77.319699,CO,10,83,44
India,Haryana,Ballabgarh,"Nathu Colony, Ballabgarh - HSPCB",05-06-2024 01:00:00,28.3419248,77.319699,OZONE,8,45,20
India,Haryana,Bhiwani,"H.B. Colony, Bhiwani - HSPCB",05-06-2024 01:00:00,28.806223,76.141105,PM2.5,99,219,157
India,Haryana,Bhiwani,"H.B. Colony, Bhiwani - HSPCB",05-06-2024 01:00:00,28.806223,76.141105,CO,38,78,51
India,Haryana,Charkhi Dadri,"Mini Secretariat, Charkhi Dadri - HSPCB",05-06-2024 01:00:00,28.593883,76.270653,PM2.5,159,377,242
India,Haryana,Charkhi Dadri,"Mini Secretariat, Charkhi Dadri - HSPCB",05-06-2024 01:00:00,28.593883,76.270653,NO2,14,23,18
India,Haryana,Dharuhera,"Municipal Corporation Office, Dharuhera -  HSPCB",05-06-2024 01:00:00,28.206800,76.799700,PM2.5,143,258,194
India,Haryana,Dharuhera,"Municipal Corporation Office, Dharuhera -  HSPCB",05-06-2024 01:00:00,28.206800,76.799700,PM10,106,140,121
India,Haryana,Dharuhera,"Municipal Corporation Office, Dharuhera -  HSPCB",05-06-2024 01:00:00,28.206800,76.799700,SO2,1,131,22
India,Haryana,Dharuhera,"Municipal Corporation Office, Dharuhera -  HSPCB",05-06-2024 01:00:00,28.206800,76.799700,CO,11,38,21
India,Haryana,Faridabad,"New Industrial Town, Faridabad - HSPCB",05-06-2024 01:00:00,28.39072,77.30059,SO2,1,4,1
India,Haryana,Faridabad,"Sector 11, Faridabad - HSPCB",05-06-2024 01:00:00,28.376058,77.315741,PM2.5,88,308,158
India,Haryana,Faridabad,"Sector 11, Faridabad - HSPCB",05-06-2024 01:00:00,28.376058,77.315741,NH3,6,6,6
India,Haryana,Faridabad,"Sector 11, Faridabad - HSPCB",05-06-2024 01:00:00,28.376058,77.315741,SO2,4,4,4
India,Haryana,Faridabad,"Sector 30, Faridabad - HSPCB",05-06-2024 01:00:00,28.4417,77.3217,NO2,NA,NA,NA
India,Haryana,Faridabad,"Sector 30, Faridabad - HSPCB",05-06-2024 01:00:00,28.4417,77.3217,NH3,NA,NA,NA
India,Haryana,Faridabad,"Sector- 16A, Faridabad - HSPCB",05-06-2024 01:00:00,28.4088421,77.3099081,SO2,23,28,25
India,Haryana,Faridabad,"Sector- 16A, Faridabad - HSPCB",05-06-2024 01:00:00,28.4088421,77.3099081,CO,26,58,36
India,Haryana,Gurugram,"NISE Gwal Pahari, Gurugram - IMD",05-06-2024 01:00:00,28.422681,77.148944,PM2.5,NA,NA,NA
India,Haryana,Gurugram,"NISE Gwal Pahari, Gurugram - IMD",05-06-2024 01:00:00,28.422681,77.148944,NO2,18,54,36
India,Haryana,Gurugram,"Sector-51, Gurugram - HSPCB",05-06-2024 01:00:00,28.4227,77.0667,SO2,2,4,3
India,Haryana,Gurugram,"Teri Gram, Gurugram - HSPCB",05-06-2024 01:00:00,28.4275,77.1465,PM10,111,251,158
India,Haryana,Gurugram,"Teri Gram, Gurugram - HSPCB",05-06-2024 01:00:00,28.4275,77.1465,CO,8,26,16
India,Haryana,Gurugram,"Teri Gram, Gurugram - HSPCB",05-06-2024 01:00:00,28.4275,77.1465,OZONE,12,150,18
India,Haryana,Gurugram,"Vikas Sadan, Gurugram - HSPCB",05-06-2024 01:00:00,28.4501238,77.0263051,CO,54,150,109
India,Haryana,Hisar,"Urban Estate-II, Hisar - HSPCB",05-06-2024 01:00:00,29.140560,75.744941,PM2.5,97,315,175
India,Haryana,Hisar,"Urban Estate-II, Hisar - HSPCB",05-06-2024 01:00:00,29.140560,75.744941,NH3,3,4,4
India,Haryana,Hisar,"Urban Estate-II, Hisar - HSPCB",05-06-2024 01:00:00,29.140560,75.744941,CO,25,54,33
India,Haryana,Jind,"Police Lines, Jind - HSPCB",05-06-2024 01:00:00,29.307814,76.337619,PM2.5,65,220,126
India,Haryana,Kaithal,"Rishi Nagar, Kaithal - HSPCB",05-06-2024 01:00:00,29.8006,76.4155,PM2.5,49,152,86
India,Haryana,Karnal,"Sector-12, Karnal - HSPCB",05-06-2024 01:00:00,29.695300,77.002700,OZONE,28,36,30
India,Haryana,Kurukshetra,"Sector-7, Kurukshetra - HSPCB",05-06-2024 01:00:00,29.966942,76.875879,PM2.5,98,291,148
India,Haryana,Narnaul,"Shastri Nagar, Narnaul - HSPCB",05-06-2024 01:00:00,28.060249,76.113115,NH3,5,27,15
India,Haryana,Panchkula,"Sector-6, Panchkula - HSPCB ",05-06-2024 01:00:00,30.7057778,76.8531805555555,PM2.5,NA,NA,NA
India,Haryana,Panipat,"Sector-18, Panipat - HSPCB",05-06-2024 01:00:00,29.432304,76.972765,PM2.5,111,154,130
India,Haryana,Panipat,"Sector-18, Panipat - HSPCB",05-06-2024 01:00:00,29.432304,76.972765,SO2,18,19,19
India,Haryana,Rohtak,"MD University, Rohtak - HSPCB",05-06-2024 01:00:00,28.52123,76.37138,PM2.5,38,412,260
India,Haryana,Rohtak,"MD University, Rohtak - HSPCB",05-06-2024 01:00:00,28.52123,76.37138,SO2,6,8,7
