country,state,city,station,last_update,latitude,longitude,pollutant_id,pollutant_min,pollutant_max,pollutant_avg
India,Andhra_Pradesh,Amaravati,"Secretariat, Amaravati - APPCB",19-05-2024 11:00:00,16.5150833,80.5181667,CO,4,44,25
India,Andhra_Pradesh,Chittoor,"Gangineni Cheruvu, Chittoor - APPCB",19-05-2024 11:00:00,13.204880,79.097889,NH3,1,2,1
India,Andhra_Pradesh,Chittoor,"Gangineni Cheruvu, Chittoor - APPCB",19-05-2024 11:00:00,13.204880,79.097889,CO,11,34,19
India,Andhra_Pradesh,Kadapa,"Yerramukkapalli, Kadapa - APPCB",19-05-2024 11:00:00,14.465052,78.824187,PM2.5,NA,NA,NA
India,Andhra_Pradesh,Rajamahendravaram,"Anand Kala Kshetram, Rajamahendravaram - APPCB",19-05-2024 11:00:00,16.9872867,81.7363176,NH3,3,3,3
India,Andhra_Pradesh,Rajamahendravaram,"Anand Kala Kshetram, Rajamahendravaram - APPCB",19-05-2024 11:00:00,16.9872867,81.7363176,SO2,11,13,12
India,Andhra_Pradesh,Tirupati,"Tirumala, Tirupati - APPCB",19-05-2024 11:00:00,13.67,79.35,PM10,9,57,30
India,Andhra_Pradesh,Tirupati,"Tirumala, Tirupati - APPCB",19-05-2024 11:00:00,13.67,79.35,NO2,15,35,25
India,Andhra_Pradesh,Tirupati,"Vaikuntapuram, Tirupati - APPCB",19-05-2024 11:00:00,13.615387,79.409230,PM10,17,114,54
India,Andhra_Pradesh,Tirupati,"Vaikuntapuram, Tirupati - APPCB",19-05-2024 11:00:00,13.615387,79.409230,OZONE,7,22,10
India,Andhra_Pradesh,Vijayawada,"HB Colony, Vijayawada - APPCB",19-05-2024 11:00:00,16.536107,80.594233,PM10,42,42,42
India,Andhra_Pradesh,Vijayawada,"HB Colony, Vijayawada - APPCB",19-05-2024 11:00:00,16.536107,80.594233,NO2,21,83,44
India,Andhra_Pradesh,Vijayawada,"Kanuru, Vijayawada - APPCB",19-05-2024 11:00:00,16.486692,80.699436,PM10,NA,NA,NA
India,Andhra_Pradesh,Vijayawada,"Kanuru, Vijayawada - APPCB",19-05-2024 11:00:00,16.486692,80.699436,NO2,NA,NA,NA
India,Andhra_Pradesh,Vijayawada,"Kanuru, Vijayawada - APPCB",19-05-2024 11:00:00,16.486692,80.699436,CO,40,40,40
India,Andhra_Pradesh,Vijayawada,"Rajiv Gandhi Park, Vijayawada - APPCB",19-05-2024 11:00:00,16.509717,80.612222,PM2.5,28,44,35
India,Andhra_Pradesh,Vijayawada,"Rajiv Gandhi Park, Vijayawada - APPCB",19-05-2024 11:00:00,16.509717,80.612222,NO2,25,39,32
India,Andhra_Pradesh,Vijayawada,"Rajiv Gandhi Park, Vijayawada - APPCB",19-05-2024 11:00:00,16.509717,80.612222,SO2,6,9,7
India,Andhra_Pradesh,Vijayawada,"Rajiv Nagar, Vijayawada - APPCB",19-05-2024 11:00:00,16.554731,80.649110,NH3,2,3,2
India,Andhra_Pradesh,Vijayawada,"Rajiv Nagar, Vijayawada - APPCB",19-05-2024 11:00:00,16.554731,80.649110,OZONE,15,27,16
India,Andhra_Pradesh,Visakhapatnam,"GVM Corporation, Visakhapatnam - APPCB",19-05-2024 11:00:00,17.72,83.3,NO2,14,41,32
India,Assam,Byrnihat,"Central Academy for SFS, Byrnihat - PCBA",19-05-2024 11:00:00,26.071318,91.87488,PM2.5,43,328,114
India,Assam,Guwahati,"IITG, Guwahati - PCBA",19-05-2024 11:00:00,26.2028636,91.70046436,PM10,34,123,50
India,Assam,Guwahati,"Pan Bazaar, Guwahati - PCBA",19-05-2024 11:00:00,26.187500,91.744194,NO2,1,3,1
India,Assam,Guwahati,"Pan Bazaar, Guwahati - PCBA",19-05-2024 11:00:00,26.187500,91.744194,SO2,34,47,40
India,Assam,Guwahati,"Railway Colony, Guwahati - PCBA",19-05-2024 11:00:00,26.181742,91.78063,PM2.5,NA,NA,NA
India,Assam,Guwahati,"Railway Colony, Guwahati - PCBA",19-05-2024 11:00:00,26.181742,91.78063,OZONE,NA,NA,NA
India,Assam,Nagaon,"Christianpatty, Nagaon - PCBA",19-05-2024 11:00:00,26.349082,92.68449,PM2.5,57,93,75
India,Assam,Nalbari,"Bata Chowk, Nalbari - PCBA",19-05-2024 11:00:00,26.446912,91.439057,NO2,10,24,16
India,Assam,Nalbari,"Bata Chowk, Nalbari - PCBA",19-05-2024 11:00:00,26.446912,91.439057,OZONE,3,26,8
India,Assam,Silchar,"Tarapur, Silchar - PCBA",19-05-2024 11:00:00,24.82827,92.79525,PM2.5,26,44,36
India,Assam,Silchar,"Tarapur, Silchar - PCBA",19-05-2024 11:00:00,24.82827,92.79525,CO,16,44,17
India,Assam,Silchar,"Tarapur, Silchar - PCBA",19-05-2024 11:00:00,24.82827,92.79525,OZONE,NA,NA,NA
India,Bihar,Araria,"Kharahiya Basti, Araria - BSPCB",19-05-2024 11:00:00,26.146529,87.454184,PM10,30,114,60
India,Bihar,Arrah,"New DM Office, Arrah - BSPCB",19-05-2024 11:00:00,25.5626095,84.663264,PM10,NA,NA,NA
India,Bihar,Arrah,"New DM Office, Arrah - BSPCB",19-05-2024 11:00:00,25.5626095,84.663264,CO,14,44,21
India,Bihar,Aurangabad,"Gurdeo Nagar, Aurangabad - BSPCB",19-05-2024 11:00:00,24.75746,84.366208,OZONE,31,130,50
India,Bihar,Bettiah,"Kamalnath Nagar, Bettiah - BSPCB",19-05-2024 11:00:00,26.80365,84.51954,CO,60,92,68
India,Bihar,Bhagalpur,"Mayaganj, Bhagalpur - BSPCB",19-05-2024 11:00:00,25.265194,87.012947,PM10,69,159,107
India,Bihar,Bihar Sharif,"D M Colony, Bihar Sharif - BSPCB",19-05-2024 11:00:00,25.204762,85.514960,PM2.5,23,140,58
India,Bihar,Bihar Sharif,"D M Colony, Bihar Sharif - BSPCB",19-05-2024 11:00:00,25.204762,85.514960,PM10,35,149,81
India,Bihar,Bihar Sharif,"D M Colony, Bihar Sharif - BSPCB",19-05-2024 11:00:00,25.204762,85.514960,NO2,9,10,9
India,Bihar,Buxar,"Charitra Van, Buxar - BSPCB (Formerly known as Central Jail)",19-05-2024 11:00:00,25.567520,83.966379,PM2.5,120,402,232
India,Bihar,Buxar,"Charitra Van, Buxar - BSPCB (Formerly known as Central Jail)",19-05-2024 11:00:00,25.567520,83.966379,NO2,1,1,1
India,Bihar,Buxar,"Charitra Van, Buxar - BSPCB (Formerly known as Central Jail)",19-05-2024 11:00:00,25.567520,83.966379,NH3,3,4,3
India,Bihar,Gaya,"SFTI Kusdihra, Gaya - BSPCB",19-05-2024 11:00:00,24.762518,84.982348,PM10,51,80,69
India,Bihar,Gaya,"SFTI Kusdihra, Gaya - BSPCB",19-05-2024 11:00:00,24.762518,84.982348,SO2,8,11,9
India,Bihar,Hajipur,"Industrial Area, Hajipur - BSPCB",19-05-2024 11:00:00,25.697189,85.245900,PM2.5,91,357,225
India,Bihar,Hajipur,"Industrial Area, Hajipur - BSPCB",19-05-2024 11:00:00,25.697189,85.245900,NH3,17,24,21
India,Bihar,Hajipur,"Industrial Area, Hajipur - BSPCB",19-05-2024 11:00:00,25.697189,85.245900,SO2,8,12,10
India,Bihar,Katihar,"Mirchaibari, Katihar - BSPCB",19-05-2024 11:00:00,25.560083,87.553265,PM2.5,15,98,48
India,Bihar,Kishanganj,"SDM Office_Khagra, Kishanganj - BSPCB",19-05-2024 11:00:00,26.0881305,87.93840336,PM10,33,173,111
India,Bihar,Kishanganj,"SDM Office_Khagra, Kishanganj - BSPCB",19-05-2024 11:00:00,26.0881305,87.93840336,OZONE,34,59,51
India,Bihar,Manguraha,"Forest Rest House, Manguraha - BSPCB",19-05-2024 11:00:00,27.308328,84.531742,PM10,NA,NA,NA
India,Bihar,Muzaffarpur,"Buddha Colony, Muzaffarpur - BSPCB",19-05-2024 11:00:00,26.11442,85.39813,CO,20,48,22
India,Bihar,Muzaffarpur,"MIT-Daudpur Kothi, Muzaffarpur - BSPCB",19-05-2024 11:00:00,26.1403345,85.3650192,OZONE,6,37,15
India,Bihar,Patna,"IGSC Planetarium Complex, Patna - BSPCB",19-05-2024 11:00:00,25.610369,85.132568,CO,9,14,10
India,Bihar,Patna,"Rajbansi Nagar, Patna - BSPCB",19-05-2024 11:00:00,25.599486,85.113666,NO2,5,79,23
India,Bihar,Patna,"Rajbansi Nagar, Patna - BSPCB",19-05-2024 11:00:00,25.599486,85.113666,CO,2,117,11
India,Bihar,Patna,"Samanpura, Patna - BSPCB",19-05-2024 11:00:00,25.596727,85.085624,OZONE,4,124,12
India,Bihar,Saharsa,"Police Line, Saharsa - BSPCB",19-05-2024 11:00:00,25.892357,86.590325,NH3,9,9,9
India,Bihar,Saharsa,"Police Line, Saharsa - BSPCB",19-05-2024 11:00:00,25.892357,86.590325,SO2,16,17,16
India,Bihar,Samastipur,"DM Office_Kasipur, Samastipur - BSPCB",19-05-2024 11:00:00,25.859655,85.77944,CO,36,103,78
India,Bihar,Sasaram,"Dada Peer, Sasaram - BSPCB",19-05-2024 11:00:00,24.952822,84.002396,SO2,NA,NA,NA
India,Chandigarh,Chandigarh,"Sector 22, Chandigarh - CPCC",19-05-2024 11:00:00,30.735567,76.775714,NO2,20,74,44
India,Chandigarh,Chandigarh,"Sector 22, Chandigarh - CPCC",19-05-2024 11:00:00,30.735567,76.775714,SO2,11,71,34
India,Chandigarh,Chandigarh,"Sector-25, Chandigarh - CPCC",19-05-2024 11:00:00,30.751462,76.762879,NO2,3,26,14
India,Chandigarh,Chandigarh,"Sector-25, Chandigarh - CPCC",19-05-2024 11:00:00,30.751462,76.762879,OZONE,1,105,14
India,Chhattisgarh,Bhilai,"32Bungalows, Bhilai - CECB",19-05-2024 11:00:00,21.194815,81.314770,PM10,15,40,28
India,Chhattisgarh,Bhilai,"32Bungalows, Bhilai - CECB",19-05-2024 11:00:00,21.194815,81.314770,NO2,16,22,20
India,Chhattisgarh,Bhilai,"Hathkhoj, Bhilai - CECB",19-05-2024 11:00:00,21.224231,81.408350,OZONE,23,35,24
India,Chhattisgarh,Bilaspur,"Mangala, Bilaspur - NTPC",19-05-2024 11:00:00,22.08815,82.13737,PM10,19,52,30
India,Chhattisgarh,Bilaspur,"Mangala, Bilaspur - NTPC",19-05-2024 11:00:00,22.08815,82.13737,NO2,14,14,14
India,Chhattisgarh,Bilaspur,"Mangala, Bilaspur - NTPC",19-05-2024 11:00:00,22.08815,82.13737,CO,38,104,41
India,Chhattisgarh,Korba,"Rampur, Korba - CECB",19-05-2024 11:00:00,22.368195,82.746431,CO,10,28,20
India,Chhattisgarh,Korba,"Urja Nagar, Korba - CECB",19-05-2024 11:00:00,22.348441,82.549611,PM2.5,11,47,25
India,Chhattisgarh,Korba,"Urja Nagar, Korba - CECB",19-05-2024 11:00:00,22.348441,82.549611,NH3,3,9,6
India,Chhattisgarh,Korba,"Urja Nagar, Korba - CECB",19-05-2024 11:00:00,22.348441,82.549611,OZONE,NA,NA,NA
India,Chhattisgarh,Kunjemura,"OP Jindal School, Kunjemura - CECB",19-05-2024 11:00:00,22.126650,83.483212,SO2,1,7,5
India,Chhattisgarh,Milupara,"Govt. Higher Secondary School, Milupara - CECB",19-05-2024 11:00:00,22.1910172,83.5197009,CO,16,46,26
India,Chhattisgarh,Raipur,"Bhatagaon New ISBT, Raipur - CECB",19-05-2024 11:00:00,21.219665,81.630094,PM2.5,4,24,12
India,Chhattisgarh,Raipur,"Bhatagaon New ISBT, Raipur - CECB",19-05-2024 11:00:00,21.219665,81.630094,NO2,3,6,4
India,Chhattisgarh,Raipur,"Bhatagaon New ISBT, Raipur - CECB",19-05-2024 11:00:00,21.219665,81.630094,SO2,1,3,2
India,Chhattisgarh,Raipur,"Krishak Nagar, Raipur - CECB",19-05-2024 11:00:00,21.237755,81.705301,PM10,7,37,20
India,Delhi,Delhi,"Alipur, Delhi - DPCC",19-05-2024 11:00:00,28.815329,77.153010,PM2.5,55,371,188
India,Delhi,Delhi,"Alipur, Delhi - DPCC",19-05-2024 11:00:00,28.815329,77.153010,NH3,6,10,8
India,Delhi,Delhi,"Alipur, Delhi - DPCC",19-05-2024 11:00:00,28.815329,77.153010,OZONE,7,206,206
India,Delhi,Delhi,"Ashok Vihar, Delhi - DPCC",19-05-2024 11:00:00,28.695381,77.181665,CO,14,102,60
India,Delhi,Delhi,"Aya Nagar, Delhi - IMD",19-05-2024 11:00:00,28.4706914,77.1099364,PM10,40,277,162
India,Delhi,Delhi,"CRRI Mathura Road, Delhi - IMD",19-05-2024 11:00:00,28.5512005,77.2735737,OZONE,3,106,23
India,Delhi,Delhi,"Chandni Chowk, Delhi - IITM",19-05-2024 11:00:00,28.656756,77.227234,PM10,181,425,250
India,Delhi,Delhi,"Chandni Chowk, Delhi - IITM",19-05-2024 11:00:00,28.656756,77.227234,NO2,10,51,18
India,Delhi,Delhi,"Chandni Chowk, Delhi - IITM",19-05-2024 11:00:00,28.656756,77.227234,SO2,7,74,34
India,Delhi,Delhi,"DTU, Delhi - CPCB",19-05-2024 11:00:00,28.7500499,77.1112615,SO2,37,50,41
India,Delhi,Delhi,"DTU, Delhi - CPCB",19-05-2024 11:00:00,28.7500499,77.1112615,OZONE,28,122,32
India,Delhi,Delhi,"Dr. Karni Singh Shooting Range, Delhi - DPCC",19-05-2024 11:00:00,28.498571,77.264840,OZONE,1,262,51
India,Delhi,Delhi,"Jawaharlal Nehru Stadium, Delhi - DPCC",19-05-2024 11:00:00,28.580280,77.233829,CO,7,112,83
India,Delhi,Delhi,"Lodhi Road, Delhi - IMD",19-05-2024 11:00:00,28.5918245,77.2273074,OZONE,3,77,17
India,Delhi,Delhi,"Major Dhyan Chand National Stadium, Delhi - DPCC",19-05-2024 11:00:00,28.611281,77.237738,PM10,129,292,188
India,Delhi,Delhi,"Major Dhyan Chand National Stadium, Delhi - DPCC",19-05-2024 11:00:00,28.611281,77.237738,NO2,19,163,78
India,Delhi,Delhi,"Mandir Marg, Delhi - DPCC",19-05-2024 11:00:00,28.636429,77.201067,NO2,51,143,104
India,Delhi,Delhi,"Mandir Marg, Delhi - DPCC",19-05-2024 11:00:00,28.636429,77.201067,NH3,7,11,9
India,Delhi,Delhi,"Mundka, Delhi - DPCC",19-05-2024 11:00:00,28.684678,77.076574,NH3,6,15,8
India,Delhi,Delhi,"NSIT Dwarka, Delhi - CPCB",19-05-2024 11:00:00,28.60909,77.0325413,CO,26,68,37
India,Delhi,Delhi,"NSIT Dwarka, Delhi - CPCB",19-05-2024 11:00:00,28.60909,77.0325413,OZONE,10,118,35
India,Delhi,Delhi,"Najafgarh, Delhi - DPCC",19-05-2024 11:00:00,28.570173,76.933762,NH3,7,23,11
India,Delhi,Delhi,"Najafgarh, Delhi - DPCC",19-05-2024 11:00:00,28.570173,76.933762,CO,34,90,64
India,Delhi,Delhi,"Narela, Delhi - DPCC",19-05-2024 11:00:00,28.822836,77.101981,PM2.5,67,390,219
India,Delhi,Delhi,"Nehru Nagar, Delhi - DPCC",19-05-2024 11:00:00,28.567890,77.250515,PM10,137,282,194
India,Delhi,Delhi,"Nehru Nagar, Delhi - DPCC",19-05-2024 11:00:00,28.567890,77.250515,NO2,10,82,38
India,Delhi,Delhi,"Nehru Nagar, Delhi - DPCC",19-05-2024 11:00:00,28.567890,77.250515,NH3,3,9,5
India,Delhi,Delhi,"New Moti Bagh, Delhi - MHUA",19-05-2024 11:00:00,28.57834,77.18400,NO2,7,46,24
India,Delhi,Delhi,"North Campus, DU, Delhi - IMD",19-05-2024 11:00:00,28.6573814,77.1585447,PM2.5,98,361,232
India,Delhi,Delhi,"North Campus, DU, Delhi - IMD",19-05-2024 11:00:00,28.6573814,77.1585447,OZONE,5,73,24
India,Delhi,Delhi,"Okhla Phase-2, Delhi - DPCC",19-05-2024 11:00:00,28.530785,77.271255,NH3,13,18,15
India,Delhi,Delhi,"Patparganj, Delhi - DPCC",19-05-2024 11:00:00,28.623763,77.287209,SO2,1,10,6
India,Delhi,Delhi,"Punjabi Bagh, Delhi - DPCC",19-05-2024 11:00:00,28.674045,77.131023,SO2,2,61,31
India,Delhi,Delhi,"Pusa, Delhi - DPCC",19-05-2024 11:00:00,28.639652,77.146275,NH3,5,10,8
India,Delhi,Delhi,"Pusa, Delhi - IMD",19-05-2024 11:00:00,28.636110,77.173332,PM10,NA,NA,NA
India,Delhi,Delhi,"Rohini, Delhi - DPCC",19-05-2024 11:00:00,28.732528,77.119920,NH3,8,22,13
India,Delhi,Delhi,"Rohini, Delhi - DPCC",19-05-2024 11:00:00,28.732528,77.119920,SO2,16,103,50
India,Delhi,Delhi,"Shadipur, Delhi - CPCB",19-05-2024 11:00:00,28.6514781,77.1473105,SO2,NA,NA,NA
India,Delhi,Delhi,"Sirifort, Delhi - CPCB",19-05-2024 11:00:00,28.5504249,77.2159377,PM2.5,78,353,220
India,Delhi,Delhi,"Sonia Vihar, Delhi - DPCC",19-05-2024 11:00:00,28.710508,77.249485,NO2,16,103,47
India,Delhi,Delhi,"Sonia Vihar, Delhi - DPCC",19-05-2024 11:00:00,28.710508,77.249485,NH3,6,9,7
India,Delhi,Delhi,"Vivek Vihar, Delhi - DPCC",19-05-2024 11:00:00,28.672342,77.315260,NH3,14,16,15
India,Delhi,Delhi,"Vivek Vihar, Delhi - DPCC",19-05-2024 11:00:00,28.672342,77.315260,OZONE,7,209,179
India,Delhi,Delhi,"Wazirpur, Delhi - DPCC",19-05-2024 11:00:00,28.699793,77.165453,OZONE,2,234,234
India,Gujarat,Ahmedabad,"Chandkheda, Ahmedabad - IITM",19-05-2024 11:00:00,23.107969,72.574648,NH3,11,16,14
India,Gujarat,Ahmedabad,"Maninagar, Ahmedabad - GPCB",19-05-2024 11:00:00,23.002657,72.591912,CO,46,105,91
India,Gujarat,Ahmedabad,"Rakhial, Ahmedabad - IITM",19-05-2024 11:00:00,23.016834,72.625775,PM2.5,49,315,105
India,Gujarat,Ahmedabad,"SVPI Airport Hansol, Ahmedabad - IITM",19-05-2024 11:00:00,23.076793,72.627874,PM2.5,58,264,116
India,Gujarat,Ahmedabad,"SVPI Airport Hansol, Ahmedabad - IITM",19-05-2024 11:00:00,23.076793,72.627874,NO2,32,44,39
India,Gujarat,Ahmedabad,"Sardar Vallabhbhai Patel Stadium, Ahmedabad - IITM",19-05-2024 11:00:00,23.043070,72.562968,PM10,86,158,109
India,Gujarat,Ankleshwar,"GIDC, Ankleshwar - GPCB",19-05-2024 11:00:00,21.613267,73.010555,CO,3,60,50
India,Gujarat,Surat,"Science Center, Surat - SMC",19-05-2024 11:00:00,21.170046,72.795405,PM2.5,2,35,19
India,Gujarat,Surat,"Science Center, Surat - SMC",19-05-2024 11:00:00,21.170046,72.795405,CO,18,46,20
India,Gujarat,Vapi,"Phase-1 GIDC, Vapi - GPCB",19-05-2024 11:00:00,20.362421,72.918013,PM2.5,26,67,42
India,Gujarat,Vapi,"Phase-1 GIDC, Vapi - GPCB",19-05-2024 11:00:00,20.362421,72.918013,PM10,44,83,63
India,Gujarat,Vatva,"Phase-4 GIDC, Vatva - GPCB",19-05-2024 11:00:00,22.969611,72.643500,PM10,60,127,84
India,Gujarat,Vatva,"Phase-4 GIDC, Vatva - GPCB",19-05-2024 11:00:00,22.969611,72.643500,NH3,6,12,9
India,Haryana,Ambala,"Patti Mehar, Ambala - HSPCB",19-05-2024 11:00:00,30.379589,76.778328,SO2,NA,NA,NA
India,Haryana,Ballabgarh,"Nathu Colony, Ballabgarh - HSPCB",19-05-2024 11:00:00,28.3419248,77.319699,NH3,1,2,2
India,Haryana,Ballabgarh,"Nathu Colony, Ballabgarh - HSPCB",19-05-2024 11:00:00,28.3419248,77.319699,SO2,4,60,27
India,Haryana,Bhiwani,"H.B. Colony, Bhiwani - HSPCB",19-05-2024 11:00:00,28.806223,76.141105,SO2,3,26,11
India,Haryana,Bhiwani,"H.B. Colony, Bhiwani - HSPCB",19-05-2024 11:00:00,28.806223,76.141105,CO,10,40,34
India,Haryana,Charkhi Dadri,"Mini Secretariat, Charkhi Dadri - HSPCB",19-05-2024 11:00:00,28.593883,76.270653,SO2,12,35,21
India,Haryana,Dharuhera,"Municipal Corporation Office, Dharuhera -  HSPCB",19-05-2024 11:00:00,28.206800,76.799700,OZONE,6,49,29
India,Haryana,Faridabad,"New Industrial Town, Faridabad - HSPCB",19-05-2024 11:00:00,28.39072,77.30059,PM2.5,195,302,245
India,Haryana,Faridabad,"New Industrial Town, Faridabad - HSPCB",19-05-2024 11:00:00,28.39072,77.30059,NH3,2,4,3
India,Haryana,Faridabad,"New Industrial Town, Faridabad - HSPCB",19-05-2024 11:00:00,28.39072,77.30059,SO2,11,15,13
India,Haryana,Faridabad,"New Industrial Town, Faridabad - HSPCB",19-05-2024 11:00:00,28.39072,77.30059,OZONE,7,158,158
India,Haryana,Faridabad,"Sector 11, Faridabad - HSPCB",19-05-2024 11:00:00,28.376058,77.315741,PM10,135,372,202
India,Haryana,Faridabad,"Sector 11, Faridabad - HSPCB",19-05-2024 11:00:00,28.376058,77.315741,SO2,4,113,19
India,Haryana,Faridabad,"Sector 30, Faridabad - HSPCB",19-05-2024 11:00:00,28.4417,77.3217,PM2.5,249,305,286
India,Haryana,Faridabad,"Sector 30, Faridabad - HSPCB",19-05-2024 11:00:00,28.4417,77.3217,SO2,5,6,6
India,Haryana,Faridabad,"Sector- 16A, Faridabad - HSPCB",19-05-2024 11:00:00,28.4088421,77.3099081,SO2,NA,NA,NA
India,Haryana,Fatehabad,"Huda Sector, Fatehabad - HSPCB",19-05-2024 11:00:00,29.503664,75.467934,OZONE,25,88,74
India,Haryana,Gurugram,"NISE Gwal Pahari, Gurugram - IMD",19-05-2024 11:00:00,28.422681,77.148944,PM10,NA,NA,NA
India,Haryana,Gurugram,"Sector-51, Gurugram - HSPCB",19-05-2024 11:00:00,28.4227,77.0667,CO,24,107,72
India,Haryana,Gurugram,"Teri Gram, Gurugram - HSPCB",19-05-2024 11:00:00,28.4275,77.1465,SO2,5,6,5
India,Haryana,Hisar,"Urban Estate-II, Hisar - HSPCB",19-05-2024 11:00:00,29.140560,75.744941,PM10,111,153,124
India,Haryana,Hisar,"Urban Estate-II, Hisar - HSPCB",19-05-2024 11:00:00,29.140560,75.744941,NH3,9,11,10
India,Haryana,Jind,"Police Lines, Jind - HSPCB",19-05-2024 11:00:00,29.307814,76.337619,PM2.5,55,191,92
India,Haryana,Jind,"Police Lines, Jind - HSPCB",19-05-2024 11:00:00,29.307814,76.337619,OZONE,14,42,24
India,Haryana,Kaithal,"Rishi Nagar, Kaithal - HSPCB",19-05-2024 11:00:00,29.8006,76.4155,PM10,107,271,160
India,Haryana,Karnal,"Sector-12, Karnal - HSPCB",19-05-2024 11:00:00,29.695300,77.002700,NH3,10,13,11
India,Haryana,Kurukshetra,"Sector-7, Kurukshetra - HSPCB",19-05-2024 11:00:00,29.966942,76.875879,PM2.5,124,306,209
India,Haryana,Kurukshetra,"Sector-7, Kurukshetra - HSPCB",19-05-2024 11:00:00,29.966942,76.875879,NO2,9,10,10
India,Haryana,Kurukshetra,"Sector-7, Kurukshetra - HSPCB",19-05-2024 11:00:00,29.966942,76.875879,OZONE,29,113,101
India,Haryana,Manesar,"Sector-2 IMT, Manesar - HSPCB",19-05-2024 11:00:00,28.360699,76.936090,NO2,10,17,14
India,Haryana,Narnaul,"Shastri Nagar, Narnaul - HSPCB",19-05-2024 11:00:00,28.060249,76.113115,PM2.5,83,216,128
India,Haryana,Narnaul,"Shastri Nagar, Narnaul - HSPCB",19-05-2024 11:00:00,28.060249,76.113115,CO,16,46,34
India,Haryana,Narnaul,"Shastri Nagar, Narnaul - HSPCB",19-05-2024 11:00:00,28.060249,76.113115,OZONE,38,69,58
India,Haryana,Palwal,"Shyam Nagar, Palwal - HSPCB",19-05-2024 11:00:00,28.1485564,77.3320667,PM2.5,52,117,75
India,Haryana,Palwal,"Shyam Nagar, Palwal - HSPCB",19-05-2024 11:00:00,28.1485564,77.3320667,OZONE,5,83,30
India,Haryana,Panchkula,"Sector-6, Panchkula - HSPCB ",19-05-2024 11:00:00,30.7057778,76.8531805555555,CO,4,26,22
India,Haryana,Panipat,"Sector-18, Panipat - HSPCB",19-05-2024 11:00:00,29.432304,76.972765,PM2.5,101,106,104
India,Haryana,Panipat,"Sector-18, Panipat - HSPCB",19-05-2024 11:00:00,29.432304,76.972765,OZONE,30,30,30
India,Haryana,Sonipat,"Murthal, Sonipat - HSPCB",19-05-2024 11:00:00,29.027200,77.062100,NH3,NA,NA,NA
India,Haryana,Sonipat,"Murthal, Sonipat - HSPCB",19-05-2024 11:00:00,29.027200,77.062100,CO,NA,NA,NA
India,Haryana,Yamuna Nagar,"Gobind Pura, Yamuna Nagar - HSPCB",19-05-2024 11:00:00,30.1480566,77.2893471,NH3,1,6,4
India,Jharkhand,Dhanbad,"Sardar Patel Nagar, Dhanbad - JSPCB",19-05-2024 11:00:00,23.80569,86.44268,SO2,3,16,9
India,Jharkhand,Jorapokhar,"Tata Stadium, Jorapokhar - JSPCB",19-05-2024 11:00:00,23.707909,86.414670,SO2,NA,NA,NA
India,Jharkhand,Pathardih,"Mohalbani Ghat, Pathardih - DMC",19-05-2024 11:00:00,23.669880,86.411725,SO2,NA,NA,NA
India,Jharkhand,Pathardih,"Mohalbani Ghat, Pathardih - DMC",19-05-2024 11:00:00,23.669880,86.411725,OZONE,NA,NA,NA
India,Karnataka,Bagalkot,"Vidayagiri, Bagalkot - KSPCB",19-05-2024 11:00:00,16.172806,75.659694,CO,22,52,35
India,Karnataka,Belgaum,"Ramteerth Nagar, Belgaum - KSPCB",19-05-2024 11:00:00,15.888653,74.541751,NO2,11,94,42
India,Karnataka,Belgaum,"Ramteerth Nagar, Belgaum - KSPCB",19-05-2024 11:00:00,15.888653,74.541751,NH3,7,12,10
India,Karnataka,Belgaum,"Ramteerth Nagar, Belgaum - KSPCB",19-05-2024 11:00:00,15.888653,74.541751,SO2,9,9,9
India,Karnataka,Bengaluru,"Bapuji Nagar, Bengaluru - KSPCB",19-05-2024 11:00:00,12.951913,77.539784,PM2.5,15,57,31
India,Karnataka,Bengaluru,"Bapuji Nagar, Bengaluru - KSPCB",19-05-2024 11:00:00,12.951913,77.539784,NO2,15,16,15
India,Karnataka,Bengaluru,"Bapuji Nagar, Bengaluru - KSPCB",19-05-2024 11:00:00,12.951913,77.539784,OZONE,8,25,24
India,Karnataka,Bengaluru,"Hebbal, Bengaluru - KSPCB",19-05-2024 11:00:00,13.029152,77.585901,SO2,18,24,21
India,Karnataka,Bengaluru,"Hebbal, Bengaluru - KSPCB",19-05-2024 11:00:00,13.029152,77.585901,CO,6,36,22
India,Karnataka,Bengaluru,"Hombegowda Nagar, Bengaluru - KSPCB",19-05-2024 11:00:00,12.938539,77.590100,SO2,2,4,3
India,Karnataka,Bengaluru,"Hombegowda Nagar, Bengaluru - KSPCB",19-05-2024 11:00:00,12.938539,77.590100,CO,17,28,19
India,Karnataka,Bengaluru,"Jayanagar 5th Block, Bengaluru - KSPCB",19-05-2024 11:00:00,12.920984,77.584908,NH3,1,2,2
India,Karnataka,Bengaluru,"Kasturi Nagar, Bengaluru - KSPCB",19-05-2024 11:00:00,13.003872,77.664217,NH3,3,4,4
India,Karnataka,Bengaluru,"Peenya, Bengaluru - CPCB",19-05-2024 11:00:00,13.0270199,77.494094,PM2.5,NA,NA,NA
India,Karnataka,Bengaluru,"Peenya, Bengaluru - CPCB",19-05-2024 11:00:00,13.0270199,77.494094,PM10,NA,NA,NA
India,Karnataka,Bengaluru,"Peenya, Bengaluru - CPCB",19-05-2024 11:00:00,13.0270199,77.494094,SO2,NA,NA,NA
India,Karnataka,Bengaluru,"RVCE-Mailasandra, Bengaluru - KSPCB",19-05-2024 11:00:00,12.921418,77.502466,PM2.5,7,69,35
India,Karnataka,Bengaluru,"Sanegurava Halli, Bengaluru - KSPCB",19-05-2024 11:00:00,12.990328,77.5431385,NO2,23,37,27
India,Karnataka,Bengaluru,"Silk Board, Bengaluru - KSPCB",19-05-2024 11:00:00,12.917348,77.622813,PM2.5,21,49,37
India,Karnataka,Bengaluru,"Silk Board, Bengaluru - KSPCB",19-05-2024 11:00:00,12.917348,77.622813,CO,8,14,9
India,Karnataka,Bidar,"Naubad, Bidar - KSPCB",19-05-2024 11:00:00,17.930306,77.482194,CO,75,100,87
India,Karnataka,Chamarajanagar,"Urban, Chamarajanagar - KSPCB",19-05-2024 11:00:00,11.55358,76.55521,SO2,2,7,3
India,Karnataka,Chamarajanagar,"Urban, Chamarajanagar - KSPCB",19-05-2024 11:00:00,11.55358,76.55521,OZONE,14,34,17
India,Karnataka,Chikkaballapur,"Chikkaballapur Rural, Chikkaballapur - KSPCB",19-05-2024 11:00:00,13.428828,77.731418,CO,12,31,13
India,Karnataka,Chikkamagaluru,"Kalyana Nagara, Chikkamagaluru - KSPCB",19-05-2024 11:00:00,13.328028,75.797056,PM2.5,3,29,13
India,Karnataka,Chikkamagaluru,"Kalyana Nagara, Chikkamagaluru - KSPCB",19-05-2024 11:00:00,13.328028,75.797056,NH3,2,5,3
India,Karnataka,Davanagere,"Devaraj Urs Badavane, Davanagere - KSPCB",19-05-2024 11:00:00,14.475800,75.905200,NH3,1,4,1
India,Karnataka,Dharwad,"Kalabhavan, Dharwad - KSPCB",19-05-2024 11:00:00,15.459706,75.008381,CO,2,106,17
India,Karnataka,Gadag,"Panchal Nagar, Gadag - KSPCB",19-05-2024 11:00:00,15.411456,75.638133,SO2,NA,NA,NA
India,Karnataka,Hassan,"B.Katihalli, Hassan - KSPCB",19-05-2024 11:00:00,13.008556,76.125258,PM2.5,NA,NA,NA
India,Karnataka,Haveri,"Ashwini Nagar, Haveri - KSPCB",19-05-2024 11:00:00,14.791800,75.389600,PM2.5,NA,NA,NA
India,Karnataka,Hubballi,"Lingaraj Nagar, Hubballi - KSPCB",19-05-2024 11:00:00,15.3714823,75.1160168,PM2.5,33,67,48
India,Karnataka,Kalaburagi,"Mahatma Basaveswar Colony, Kalaburgi - KSPCB",19-05-2024 11:00:00,17.336318,76.847397,SO2,NA,NA,NA
India,Karnataka,Karwar,"KHB Colony, Karwar - KSPCB",19-05-2024 11:00:00,14.816666,74.141003,PM2.5,NA,NA,NA
India,Karnataka,Karwar,"KHB Colony, Karwar - KSPCB",19-05-2024 11:00:00,14.816666,74.141003,NH3,NA,NA,NA
India,Karnataka,Karwar,"KHB Colony, Karwar - KSPCB",19-05-2024 11:00:00,14.816666,74.141003,SO2,NA,NA,NA
India,Karnataka,Karwar,"KHB Colony, Karwar - KSPCB",19-05-2024 11:00:00,14.816666,74.141003,CO,NA,NA,NA
India,Karnataka,Kolar,"Tamaka Ind. Area, Kolar - KSPCB",19-05-2024 11:00:00,13.1276288,78.1570122,PM10,NA,NA,NA
India,Karnataka,Kolar,"Tamaka Ind. Area, Kolar - KSPCB",19-05-2024 11:00:00,13.1276288,78.1570122,SO2,NA,NA,NA
India,Karnataka,Koppal,"Diwator Nagar, Koppal - KSPCB",19-05-2024 11:00:00,15.347630,76.181767,SO2,27,28,27
India,Karnataka,Madikeri,"Stuart Hill, Madikeri - KSPCB",19-05-2024 11:00:00,12.415911,75.735050,PM2.5,2,28,16
India,Karnataka,Mangalore,"Kadri, Mangalore - KSPCB",19-05-2024 11:00:00,12.889250,74.853000,NH3,1,2,2
India,Karnataka,Mangalore,"Kadri, Mangalore - KSPCB",19-05-2024 11:00:00,12.889250,74.853000,CO,40,48,40
India,Karnataka,Mysuru,"Hebbal 1st Stage, Mysuru - KSPCB",19-05-2024 11:00:00,12.21041,76.37376,SO2,NA,NA,NA
India,Karnataka,Raichur,"Haji Colony, Raichur - KSPCB",19-05-2024 11:00:00,16.208139,77.348417,SO2,73,84,77
India,Karnataka,Raichur,"Haji Colony, Raichur - KSPCB",19-05-2024 11:00:00,16.208139,77.348417,CO,92,104,95
India,Karnataka,Shivamogga,"Vinoba Nagara, Shivamogga - KSPCB",19-05-2024 11:00:00,13.940000,75.555917,NO2,12,42,19
India,Karnataka,Udupi,"Brahmagiri, Udupi - KSPCB",19-05-2024 11:00:00,13.34194444,74.74694444,PM2.5,NA,NA,NA
India,Karnataka,Udupi,"Brahmagiri, Udupi - KSPCB",19-05-2024 11:00:00,13.34194444,74.74694444,SO2,NA,NA,NA
India,Karnataka,Udupi,"Brahmagiri, Udupi - KSPCB",19-05-2024 11:00:00,13.34194444,74.74694444,CO,NA,NA,NA
India,Karnataka,Yadgir,"Collector Office, Yadgir - KSPCB",19-05-2024 11:00:00,16.7602,77.1428,NH3,1,6,1
India,Kerala,Kannur,"Thavakkara, Kannur - Kerala PCB",19-05-2024 11:00:00,11.875000,75.373200,PM2.5,61,78,70
India,Kerala,Kollam,"Polayathode, Kollam - Kerala PCB",19-05-2024 11:00:00,8.8787,76.6073,PM2.5,NA,NA,NA
India,Kerala,Kollam,"Polayathode, Kollam - Kerala PCB",19-05-2024 11:00:00,8.8787,76.6073,NH3,NA,NA,NA
India,Kerala,Kollam,"Polayathode, Kollam - Kerala PCB",19-05-2024 11:00:00,8.8787,76.6073,CO,NA,NA,NA
India,Kerala,Thiruvananthapuram,"Kariavattom, Thiruvananthapuram - Kerala PCB",19-05-2024 11:00:00,8.563700,76.886500,SO2,3,11,7
India,Kerala,Thiruvananthapuram,"Plammoodu, Thiruvananthapuram - Kerala PCB",19-05-2024 11:00:00,8.5149093,76.9435879,PM2.5,NA,NA,NA
India,Kerala,Thiruvananthapuram,"Plammoodu, Thiruvananthapuram - Kerala PCB",19-05-2024 11:00:00,8.5149093,76.9435879,SO2,8,18,11
India,Kerala,Thiruvananthapuram,"Plammoodu, Thiruvananthapuram - Kerala PCB",19-05-2024 11:00:00,8.5149093,76.9435879,OZONE,4,57,19
India,Madhya Pradesh,Bhopal,"Paryavaran Parisar, Bhopal - MPPCB",19-05-2024 11:00:00,23.210494,77.425409,PM2.5,37,72,56
India,Madhya Pradesh,Bhopal,"Paryavaran Parisar, Bhopal - MPPCB",19-05-2024 11:00:00,23.210494,77.425409,NH3,4,5,5
India,Madhya Pradesh,Bhopal,"Paryavaran Parisar, Bhopal - MPPCB",19-05-2024 11:00:00,23.210494,77.425409,CO,6,36,20
India,Madhya Pradesh,Dewas,"Bhopal Chauraha, Dewas - MPPCB",19-05-2024 11:00:00,22.9682591,76.064118,PM10,39,123,59
India,Madhya Pradesh,Dewas,"Bhopal Chauraha, Dewas - MPPCB",19-05-2024 11:00:00,22.9682591,76.064118,SO2,14,38,27
India,Madhya Pradesh,Dewas,"Bhopal Chauraha, Dewas - MPPCB",19-05-2024 11:00:00,22.9682591,76.064118,CO,12,38,19
India,Madhya Pradesh,Dewas,"Bhopal Chauraha, Dewas - MPPCB",19-05-2024 11:00:00,22.9682591,76.064118,OZONE,28,61,44
India,Madhya Pradesh,Gwalior,"City Center, Gwalior - MPPCB",19-05-2024 11:00:00,26.203442,78.193251,NH3,3,11,5
India,Madhya Pradesh,Gwalior,"Deen Dayal Nagar, Gwalior - MPPCB",19-05-2024 11:00:00,26.259242,78.216432,NO2,8,135,57
India,Madhya Pradesh,Gwalior,"Deen Dayal Nagar, Gwalior - MPPCB",19-05-2024 11:00:00,26.259242,78.216432,NH3,6,10,8
India,Madhya Pradesh,Gwalior,"Maharaj Bada, Gwalior - MPPCB",19-05-2024 11:00:00,26.200388,78.147714,NO2,10,138,42
India,Madhya Pradesh,Gwalior,"Phool Bagh, Gwalior - Mondelez Ind. Food",19-05-2024 11:00:00,26.210536,78.171,SO2,25,44,30
India,Madhya Pradesh,Indore,"Chhoti Gwaltoli, Indore - MPPCB",19-05-2024 11:00:00,22.4310,75.5213,PM2.5,32,79,50
India,Madhya Pradesh,Indore,"Chhoti Gwaltoli, Indore - MPPCB",19-05-2024 11:00:00,22.4310,75.5213,NO2,46,131,67
India,Madhya Pradesh,Indore,"Chhoti Gwaltoli, Indore - MPPCB",19-05-2024 11:00:00,22.4310,75.5213,OZONE,54,136,87
India,Madhya Pradesh,Indore,"Maguda Nagar, Indore - IMC",19-05-2024 11:00:00,22.7524,75.8872,OZONE,28,53,41
India,Madhya Pradesh,Indore,"Regional Park, Indore - IMC",19-05-2024 11:00:00,22.6780,75.8559,SO2,49,53,52
India,Madhya Pradesh,Indore,"Residency Area, Indore - IMC",19-05-2024 11:00:00,22.7084,75.8815,PM2.5,23,66,42
India,Madhya Pradesh,Jabalpur,"Govindh Bhavan Colony, Jabalpur - JMC",19-05-2024 11:00:00,23.163174,79.973061,NH3,14,18,15
India,Madhya Pradesh,Jabalpur,"Govindh Bhavan Colony, Jabalpur - JMC",19-05-2024 11:00:00,23.163174,79.973061,SO2,6,63,29
India,Madhya Pradesh,Jabalpur,"Govindh Bhavan Colony, Jabalpur - JMC",19-05-2024 11:00:00,23.163174,79.973061,CO,22,47,38
India,Madhya Pradesh,Jabalpur,"Gupteshwar, Jabalpur - JMC",19-05-2024 11:00:00,23.142888,79.916147,NH3,5,7,6
India,Madhya Pradesh,Jabalpur,"Gupteshwar, Jabalpur - JMC",19-05-2024 11:00:00,23.142888,79.916147,CO,16,70,21
India,Madhya Pradesh,Jabalpur,"Marhatal, Jabalpur - MPPCB",19-05-2024 11:00:00,23.168606,79.932247,NO2,17,117,46
India,Madhya Pradesh,Jabalpur,"Suhagi, Jabalpur - JMC",19-05-2024 11:00:00,23.218135,79.957770,PM10,25,225,64
India,Madhya Pradesh,Pithampur,"Sector-2 Industrial Area, Pithampur - MPPCB",19-05-2024 11:00:00,22.624758,75.675238,NH3,2,3,3
India,Madhya Pradesh,Sagar,"Civil Lines, Sagar - MPPCB",19-05-2024 11:00:00,23.838586,78.759431,PM2.5,32,58,46
India,Madhya Pradesh,Sagar,"Civil Lines, Sagar - MPPCB",19-05-2024 11:00:00,23.838586,78.759431,NH3,3,5,4
India,Madhya Pradesh,Sagar,"Deen Dayal Nagar, Sagar - MPPCB",19-05-2024 11:00:00,23.8640158,78.80289321,NO2,23,24,24
India,Madhya Pradesh,Singrauli,"Suryakiran Bhawan NCL, Singrauli - MPPCB",19-05-2024 11:00:00,24.108970,82.645580,PM2.5,25,92,44
India,Madhya Pradesh,Singrauli,"Suryakiran Bhawan NCL, Singrauli - MPPCB",19-05-2024 11:00:00,24.108970,82.645580,NO2,12,54,23
India,Madhya Pradesh,Singrauli,"Suryakiran Bhawan NCL, Singrauli - MPPCB",19-05-2024 11:00:00,24.108970,82.645580,CO,60,100,79
India,Maharashtra,Ahmednagar,"Tarakpur, Ahmednagar - MPCB",19-05-2024 11:00:00,19.10122,74.73339,PM2.5,41,103,76
India,Maharashtra,Ahmednagar,"Tarakpur, Ahmednagar - MPCB",19-05-2024 11:00:00,19.10122,74.73339,NH3,1,9,4
India,Maharashtra,Ahmednagar,"Tarakpur, Ahmednagar - MPCB",19-05-2024 11:00:00,19.10122,74.73339,SO2,8,23,16
India,Maharashtra,Ahmednagar,"Tarakpur, Ahmednagar - MPCB",19-05-2024 11:00:00,19.10122,74.73339,OZONE,41,152,58
India,Maharashtra,Akola,"Ramdaspeth, Akola - MPCB",19-05-2024 11:00:00,20.719516,77.000253,PM2.5,39,64,52
India,Maharashtra,Akola,"Ramdaspeth, Akola - MPCB",19-05-2024 11:00:00,20.719516,77.000253,NH3,4,9,6
India,Maharashtra,Akola,"Ramdaspeth, Akola - MPCB",19-05-2024 11:00:00,20.719516,77.000253,SO2,10,12,11
India,Maharashtra,Akola,"Ramdaspeth, Akola - MPCB",19-05-2024 11:00:00,20.719516,77.000253,CO,26,86,31
India,Maharashtra,Amravati,"Shivneri Colony, Amravati - MPCB",19-05-2024 11:00:00,20.9402359,77.7895248,PM10,40,82,57
India,Maharashtra,Amravati,"Shivneri Colony, Amravati - MPCB",19-05-2024 11:00:00,20.9402359,77.7895248,CO,10,30,22
India,Maharashtra,Amravati,"Shri Shivaji Science College, Amaravati - MPCB",19-05-2024 11:00:00,20.939198,77.765701,OZONE,10,76,21
India,Maharashtra,Aurangabad,"MIDC Chilkalthana, Aurangabad - MPCB",19-05-2024 11:00:00,19.875620,75.387310,OZONE,2,72,15
India,Maharashtra,Aurangabad,"Rachnakar Colony, Aurangabad - MPCB",19-05-2024 11:00:00,19.863756,75.321188,PM10,107,202,145
India,Maharashtra,Badlapur,"Katrap, Badlapur - MPCB",19-05-2024 11:00:00,19.16485,73.23409,PM2.5,46,90,67
India,Maharashtra,Badlapur,"Katrap, Badlapur - MPCB",19-05-2024 11:00:00,19.16485,73.23409,OZONE,4,116,17
India,Maharashtra,Bhiwandi,"Gokul Nagar, Bhiwandi - MPCB",19-05-2024 11:00:00,19.309073,73.057223,PM10,76,120,98
India,Maharashtra,Bhiwandi,"Gokul Nagar, Bhiwandi - MPCB",19-05-2024 11:00:00,19.309073,73.057223,NH3,1,4,3
India,Maharashtra,Bhiwandi,"Gokul Nagar, Bhiwandi - MPCB",19-05-2024 11:00:00,19.309073,73.057223,SO2,8,16,14
India,Maharashtra,Boisar,"Khaira, Boisar - MPCB",19-05-2024 11:00:00,19.786089,72.757971,PM2.5,1,336,69
India,Maharashtra,Boisar,"Khaira, Boisar - MPCB",19-05-2024 11:00:00,19.786089,72.757971,NO2,7,69,24
India,Maharashtra,Boisar,"Khaira, Boisar - MPCB",19-05-2024 11:00:00,19.786089,72.757971,CO,6,28,11
India,Maharashtra,Chandrapur,"Chauhan Colony, Chandrapur - MPCB",19-05-2024 11:00:00,19.962900,79.298714,PM2.5,7,50,23
India,Maharashtra,Chandrapur,"Chauhan Colony, Chandrapur - MPCB",19-05-2024 11:00:00,19.962900,79.298714,OZONE,10,11,11
India,Maharashtra,Chandrapur,"MIDC Khutala, Chandrapur - MPCB",19-05-2024 11:00:00,19.9775302,79.2337086,OZONE,7,45,15
India,Maharashtra,Jalgaon,"Prabhat Colony, Jalgaon - MPCB",19-05-2024 11:00:00,21.001264,75.565602,CO,4,103,12
India,Maharashtra,Jalgaon,"Prabhat Colony, Jalgaon - MPCB",19-05-2024 11:00:00,21.001264,75.565602,OZONE,23,144,36
India,Maharashtra,Kalyan,"Khadakpada, Kalyan - MPCB",19-05-2024 11:00:00,19.25292,73.142019,SO2,19,114,46
India,Maharashtra,Kolhapur,"Shivaji University, Kolhapur - MPCB",19-05-2024 11:00:00,16.6870449,74.2505872,PM10,74,116,99
India,Maharashtra,Kolhapur,"Shivaji University, Kolhapur - MPCB",19-05-2024 11:00:00,16.6870449,74.2505872,NH3,3,5,4
India,Maharashtra,Kolhapur,"Sinchan Bhavan, Kolhapur - MPCB",19-05-2024 11:00:00,16.7143745,74.2426398,OZONE,29,141,46
India,Maharashtra,Latur,"Sawe Wadi, Latur - MPCB",19-05-2024 11:00:00,18.39963,76.57452,PM2.5,21,153,48
India,Maharashtra,Latur,"Sawe Wadi, Latur - MPCB",19-05-2024 11:00:00,18.39963,76.57452,PM10,26,196,59
India,Maharashtra,Latur,"Sawe Wadi, Latur - MPCB",19-05-2024 11:00:00,18.39963,76.57452,OZONE,27,88,38
India,Maharashtra,Mahad,"Kamble Tarf Birwadi, Mahad - MPCB",19-05-2024 11:00:00,18.1023399,73.4783687,CO,9,47,19
India,Maharashtra,Mahad,"Kamble Tarf Birwadi, Mahad - MPCB",19-05-2024 11:00:00,18.1023399,73.4783687,OZONE,8,79,18
India,Maharashtra,Mira-Bhayandar,"Bhayandar West, Mira-Bhayandar - MPCB",19-05-2024 11:00:00,19.296481,72.840923,PM2.5,27,67,43
India,Maharashtra,Mira-Bhayandar,"Bhayandar West, Mira-Bhayandar - MPCB",19-05-2024 11:00:00,19.296481,72.840923,NO2,4,29,9
India,Maharashtra,Mira-Bhayandar,"Bhayandar West, Mira-Bhayandar - MPCB",19-05-2024 11:00:00,19.296481,72.840923,NH3,2,5,3
India,Maharashtra,Mira-Bhayandar,"Bhayandar West, Mira-Bhayandar - MPCB",19-05-2024 11:00:00,19.296481,72.840923,CO,18,28,21
India,Maharashtra,Mumbai,"Bandra Kurla Complex, Mumbai - MPCB",19-05-2024 11:00:00,19.065931,72.862131,PM10,86,111,98
India,Maharashtra,Mumbai,"Bandra Kurla Complex, Mumbai - MPCB",19-05-2024 11:00:00,19.065931,72.862131,NH3,3,16,6
India,Maharashtra,Mumbai,"Borivali East, Mumbai - IITM",19-05-2024 11:00:00,19.23241,72.86895,PM2.5,26,62,40
India,Maharashtra,Mumbai,"Borivali East, Mumbai - MPCB",19-05-2024 11:00:00,19.2243333,72.8658113,SO2,8,19,12
India,Maharashtra,Mumbai,"Byculla, Mumbai - BMC",19-05-2024 11:00:00,18.9767,72.8380,NH3,1,2,2
India,Maharashtra,Mumbai,"Byculla, Mumbai - BMC",19-05-2024 11:00:00,18.9767,72.8380,OZONE,33,55,41
India,Maharashtra,Mumbai,"Chakala-Andheri East, Mumbai - IITM",19-05-2024 11:00:00,19.11074,72.86084,PM10,40,116,73
India,Maharashtra,Mumbai,"Chakala-Andheri East, Mumbai - IITM",19-05-2024 11:00:00,19.11074,72.86084,NO2,37,54,44
India,Maharashtra,Mumbai,"Chembur, Mumbai - MPCB",19-05-2024 11:00:00,19.0364585,72.8954371,PM2.5,42,88,61
India,Maharashtra,Mumbai,"Chembur, Mumbai - MPCB",19-05-2024 11:00:00,19.0364585,72.8954371,SO2,1,2,1
India,Maharashtra,Mumbai,"Chhatrapati Shivaji Intl. Airport (T2), Mumbai - MPCB",19-05-2024 11:00:00,19.10078,72.87462,PM10,60,101,83
India,Maharashtra,Mumbai,"Chhatrapati Shivaji Intl. Airport (T2), Mumbai - MPCB",19-05-2024 11:00:00,19.10078,72.87462,SO2,17,21,19
India,Maharashtra,Mumbai,"Colaba, Mumbai - MPCB",19-05-2024 11:00:00,18.910000,72.820000,PM2.5,25,125,43
India,Maharashtra,Mumbai,"Colaba, Mumbai - MPCB",19-05-2024 11:00:00,18.910000,72.820000,NH3,1,1,1
India,Maharashtra,Mumbai,"Deonar, Mumbai - IITM",19-05-2024 11:00:00,19.04946,72.9230,PM10,76,113,97
India,Maharashtra,Mumbai,"Ghatkopar, Mumbai - BMC",19-05-2024 11:00:00,19.083694,72.920967,NO2,1,19,12
India,Maharashtra,Mumbai,"Kandivali East, Mumbai - MPCB",19-05-2024 11:00:00,19.205800,72.868200,PM2.5,NA,NA,NA
India,Maharashtra,Mumbai,"Kandivali East, Mumbai - MPCB",19-05-2024 11:00:00,19.205800,72.868200,NH3,6,68,18
India,Maharashtra,Mumbai,"Kherwadi_Bandra East, Mumbai - MPCB",19-05-2024 11:00:00,19.0632143,72.8456324,PM2.5,26,86,45
India,Maharashtra,Mumbai,"Kherwadi_Bandra East, Mumbai - MPCB",19-05-2024 11:00:00,19.0632143,72.8456324,NH3,6,12,7
India,Maharashtra,Mumbai,"Kherwadi_Bandra East, Mumbai - MPCB",19-05-2024 11:00:00,19.0632143,72.8456324,CO,2,24,15
India,Maharashtra,Mumbai,"Kurla, Mumbai - MPCB",19-05-2024 11:00:00,19.0863,72.8888,CO,7,48,13
India,Maharashtra,Mumbai,"Mindspace-Malad West, Mumbai - MPCB",19-05-2024 11:00:00,19.1878657,72.8304069,OZONE,5,52,7
India,Maharashtra,Mumbai,"Mulund West, Mumbai - MPCB",19-05-2024 11:00:00,19.1750,72.9419,PM2.5,47,123,65
India,Maharashtra,Mumbai,"Navy Nagar-Colaba, Mumbai - IITM",19-05-2024 11:00:00,18.897756,72.813320,OZONE,44,85,58
India,Maharashtra,Mumbai,"Powai, Mumbai - MPCB",19-05-2024 11:00:00,19.137500,72.915056,CO,35,40,37
India,Maharashtra,Mumbai,"Siddharth Nagar-Worli, Mumbai - IITM",19-05-2024 11:00:00,19.000083,72.813993,PM10,69,121,102
India,Maharashtra,Mumbai,"Siddharth Nagar-Worli, Mumbai - IITM",19-05-2024 11:00:00,19.000083,72.813993,NO2,19,45,35
India,Maharashtra,Mumbai,"Vasai West, Mumbai - MPCB",19-05-2024 11:00:00,19.383200,72.820400,OZONE,11,22,16
India,Maharashtra,Mumbai,"Worli, Mumbai - MPCB",19-05-2024 11:00:00,18.9936162,72.8128113,PM10,66,122,85
India,Maharashtra,Mumbai,"Worli, Mumbai - MPCB",19-05-2024 11:00:00,18.9936162,72.8128113,OZONE,2,8,6
India,Maharashtra,Nagpur,"Ambazari, Nagpur - MPCB",19-05-2024 11:00:00,21.121801,79.04952,PM10,33,97,58
India,Maharashtra,Nanded,"Sneh Nagar, Nanded - MPCB",19-05-2024 11:00:00,19.173852,77.296291,OZONE,8,122,48
India,Maharashtra,Nashik,"Gangapur Road, Nashik - MPCB",19-05-2024 11:00:00,20.0073285,73.7762427,PM2.5,62,82,71
India,Maharashtra,Nashik,"Gangapur Road, Nashik - MPCB",19-05-2024 11:00:00,20.0073285,73.7762427,OZONE,6,153,26
India,Maharashtra,Nashik,"MIDC Ambad, Nashik - MPCB",19-05-2024 11:00:00,19.950220,73.731480,OZONE,55,73,57
India,Maharashtra,Nashik,"Pandav Nagari, Nashik - MPCB",19-05-2024 11:00:00,19.9591346,73.7788008,OZONE,6,119,25
India,Maharashtra,Navi Mumbai,"Kopripada-Vashi, Navi Mumbai - MPCB",19-05-2024 11:00:00,19.090337,73.014232,PM2.5,33,98,65
India,Maharashtra,Navi Mumbai,"Sanpada, Navi Mumbai - MPCB",19-05-2024 11:00:00,19.0575752,73.0151367,PM10,71,117,87
India,Maharashtra,Navi Mumbai,"Sector-2E Kalamboli, Navi Mumbai - MPCB",19-05-2024 11:00:00,19.02579,73.10297,PM2.5,39,122,67
India,Maharashtra,Navi Mumbai,"Tondare-Taloja, Navi Mumbai - MPCB",19-05-2024 11:00:00,19.0630,73.1209,CO,4,28,16
India,Maharashtra,Pimpri-Chinchwad,"Park Street Wakad, Pimpri Chinchwad - MPCB",19-05-2024 11:00:00,18.59051,73.77946,PM10,109,126,116
India,Maharashtra,Pimpri-Chinchwad,"Thergaon, Pimpri Chinchwad - MPCB",19-05-2024 11:00:00,18.616318,73.765797,OZONE,24,131,37
India,Maharashtra,Pune,"Alandi, Pune - IITM",19-05-2024 11:00:00,18.675076,73.892743,PM2.5,23,52,35
India,Maharashtra,Pune,"Revenue Colony-Shivajinagar, Pune - IITM",19-05-2024 11:00:00,18.530085,73.849598,PM2.5,61,185,84
India,Maharashtra,Pune,"Savitribai Phule Pune University, Pune - MPCB",19-05-2024 11:00:00,18.547056,73.826908,NO2,1,11,5
India,Maharashtra,Pune,"Transport Nagar-Nigdi, Pune - IITM",19-05-2024 11:00:00,18.664282,73.763966,OZONE,15,72,24
India,Maharashtra,Solapur,"Dnyaneshwar Nagar, Solapur - MPCB",19-05-2024 11:00:00,17.6336264,75.9132495,PM2.5,14,84,50
India,Maharashtra,Solapur,"Dnyaneshwar Nagar, Solapur - MPCB",19-05-2024 11:00:00,17.6336264,75.9132495,SO2,1,2,1
India,Maharashtra,Solapur,"Ratandeep Housing Society, Solapur - MPCB",19-05-2024 11:00:00,17.65439,75.90649,NO2,1,3,2
India,Maharashtra,Solapur,"Ratandeep Housing Society, Solapur - MPCB",19-05-2024 11:00:00,17.65439,75.90649,CO,10,36,15
India,Maharashtra,Solapur,"Solapur, Solapur - MPCB",19-05-2024 11:00:00,17.6599188,75.9063906,PM10,NA,NA,NA
India,Maharashtra,Solapur,"Solapur, Solapur - MPCB",19-05-2024 11:00:00,17.6599188,75.9063906,SO2,NA,NA,NA
India,Maharashtra,Thane,"Kasarvadavali, Thane - MPCB",19-05-2024 11:00:00,19.26777,72.97182,CO,8,30,15
India,Maharashtra,Ulhasnagar,"Sidhi Vinayak Nagar, Ulhasnagar - MPCB",19-05-2024 11:00:00,19.235581,73.159121,PM2.5,62,132,86
India,Maharashtra,Ulhasnagar,"Sidhi Vinayak Nagar, Ulhasnagar - MPCB",19-05-2024 11:00:00,19.235581,73.159121,NH3,2,2,2
India,Maharashtra,Ulhasnagar,"Sidhi Vinayak Nagar, Ulhasnagar - MPCB",19-05-2024 11:00:00,19.235581,73.159121,CO,16,42,26
India,Manipur,Imphal,"Manipur University, Imphal - Manipur PCB",19-05-2024 11:00:00,24.7524239,93.9286218,NH3,NA,NA,NA
India,Manipur,Imphal,"Manipur University, Imphal - Manipur PCB",19-05-2024 11:00:00,24.7524239,93.9286218,CO,9,26,16
India,Meghalaya,Shillong,"Lumpyngngad, Shillong - Meghalaya PCB",19-05-2024 11:00:00,25.5586,91.8985,SO2,37,44,39
India,Meghalaya,Shillong,"Lumpyngngad, Shillong - Meghalaya PCB",19-05-2024 11:00:00,25.5586,91.8985,OZONE,2,61,12
India,Mizoram,Aizawl,"Sikulpuikawn, Aizawl - Mizoram PCB",19-05-2024 11:00:00,23.7176342,92.7192841,NO2,NA,NA,NA
India,Mizoram,Aizawl,"Sikulpuikawn, Aizawl - Mizoram PCB",19-05-2024 11:00:00,23.7176342,92.7192841,OZONE,2,38,9
India,Odisha,Balasore,"Kalidaspur, Balasore - OSPCB",19-05-2024 11:00:00,21.51161,86.89088,NO2,NA,NA,NA
India,Odisha,Balasore,"Kalidaspur, Balasore - OSPCB",19-05-2024 11:00:00,21.51161,86.89088,SO2,15,29,19
India,Odisha,Barbil,"Forest Office, Barbil - OSPCB",19-05-2024 11:00:00,22.1166054,85.3945546,PM2.5,10,90,46
India,Odisha,Barbil,"Forest Office, Barbil - OSPCB",19-05-2024 11:00:00,22.1166054,85.3945546,SO2,2,23,7
India,Odisha,Baripada,"Meher Colony, Baripada - OSPCB",19-05-2024 11:00:00,21.941841,86.728318,PM10,10,89,62
India,Odisha,Baripada,"Meher Colony, Baripada - OSPCB",19-05-2024 11:00:00,21.941841,86.728318,CO,4,44,13
India,Odisha,Bhubaneswar,"Lingraj Mandir, Bhubaneswar - OSPCB",19-05-2024 11:00:00,20.240790,85.836784,PM10,10,108,33
India,Odisha,Bhubaneswar,"Lingraj Mandir, Bhubaneswar - OSPCB",19-05-2024 11:00:00,20.240790,85.836784,NO2,5,27,13
India,Odisha,Brajrajnagar,"GM Office, Brajrajnagar - OSPCB",19-05-2024 11:00:00,21.8004996,83.8396977,PM10,5,68,24
India,Odisha,Brajrajnagar,"GM Office, Brajrajnagar - OSPCB",19-05-2024 11:00:00,21.8004996,83.8396977,NO2,15,16,16
India,Odisha,Brajrajnagar,"GM Office, Brajrajnagar - OSPCB",19-05-2024 11:00:00,21.8004996,83.8396977,NH3,8,9,8
India,Odisha,Brajrajnagar,"GM Office, Brajrajnagar - OSPCB",19-05-2024 11:00:00,21.8004996,83.8396977,CO,84,104,85
India,Odisha,Byasanagar,"Ferro Chrome Colony, Byasanagar - OSPCB",19-05-2024 11:00:00,20.94185,86.11510,NO2,4,27,11
India,Odisha,Byasanagar,"Ferro Chrome Colony, Byasanagar - OSPCB",19-05-2024 11:00:00,20.94185,86.11510,CO,60,102,80
India,Odisha,Cuttack,"CDA Area, Cuttack - OSPCB",19-05-2024 11:00:00,20.48891     ,85.84768     ,NO2,11,33,20
India,Odisha,Keonjhar,"Jagamohanpur, Keonjhar - OSPCB",19-05-2024 11:00:00,21.643900,85.599355,CO,103,109,106
India,Odisha,Nayagarh,"Dabuna, Nayagarh - OSPCB",19-05-2024 11:00:00,21.847279,85.416905,PM2.5,25,77,47
India,Odisha,Nayagarh,"Dabuna, Nayagarh - OSPCB",19-05-2024 11:00:00,21.847279,85.416905,CO,8,22,10
India,Odisha,Rairangpur,"Divisional Forest Office, Rairangpur - OSPCB",19-05-2024 11:00:00,22.265816,86.174829,NO2,1,2,1
India,Odisha,Rairangpur,"Divisional Forest Office, Rairangpur - OSPCB",19-05-2024 11:00:00,22.265816,86.174829,NH3,3,3,3
India,Odisha,Rairangpur,"Divisional Forest Office, Rairangpur - OSPCB",19-05-2024 11:00:00,22.265816,86.174829,CO,14,44,20
India,Odisha,Rourkela,"Fertilizer Township, Rourkela - OSPCB",19-05-2024 11:00:00,22.18972222,84.86277778,PM2.5,18,229,66
India,Odisha,Rourkela,"Raghunathpali, Rourkela - OSPCB",19-05-2024 11:00:00,22.220833,84.809444,PM2.5,43,279,114
India,Odisha,Rourkela,"Raghunathpali, Rourkela - OSPCB",19-05-2024 11:00:00,22.220833,84.809444,NO2,28,100,58
India,Odisha,Rourkela,"Raghunathpali, Rourkela - OSPCB",19-05-2024 11:00:00,22.220833,84.809444,OZONE,5,69,13
India,Odisha,Rourkela,"Sector-2, Rourkela - OSPCB",19-05-2024 11:00:00,22.24500000,84.88111111,PM2.5,33,175,80
India,Odisha,Rourkela,"Sector-2, Rourkela - OSPCB",19-05-2024 11:00:00,22.24500000,84.88111111,NO2,23,68,40
India,Odisha,Talcher,"Talcher Coalfields,Talcher - OSPCB",19-05-2024 11:00:00,20.9360711,85.1707021,SO2,27,77,36
India,Odisha,Talcher,"Talcher Coalfields,Talcher - OSPCB",19-05-2024 11:00:00,20.9360711,85.1707021,CO,40,100,74
India,Odisha,Tensa,"Barsua Iron Ore Mines, Tensa - OSPCB",19-05-2024 11:00:00,21.869985,85.167016,OZONE,52,101,61
India,Puducherry,Puducherry,"Jawahar Nagar, Puducherry - PPCC",19-05-2024 11:00:00,11.9309,79.8027,PM10,6,59,23
India,Puducherry,Puducherry,"Jawahar Nagar, Puducherry - PPCC",19-05-2024 11:00:00,11.9309,79.8027,CO,13,38,33
India,Punjab,Amritsar,"Golden Temple, Amritsar - PPCB",19-05-2024 11:00:00,31.620000,74.876512,SO2,2,107,28
India,Punjab,Bathinda,"Hardev Nagar, Bathinda - PPCB",19-05-2024 11:00:00,30.233011,74.907758,PM2.5,35,90,68
India,Punjab,Jalandhar,"Civil Line, Jalandhar - PPCB",19-05-2024 11:00:00,31.321907,75.578914,PM10,86,145,119
India,Punjab,Jalandhar,"Civil Line, Jalandhar - PPCB",19-05-2024 11:00:00,31.321907,75.578914,NH3,5,5,5
India,Punjab,Khanna,"Kalal Majra, Khanna - PPCB",19-05-2024 11:00:00,30.736056 ,76.209694,PM10,108,187,148
India,Punjab,Ludhiana,"Punjab Agricultural University, Ludhiana - PPCB",19-05-2024 11:00:00,30.9028,75.8086,PM10,110,163,132
India,Punjab,Mandi Gobindgarh,"RIMT University, Mandi Gobindgarh - PPCB",19-05-2024 11:00:00,30.649961,76.331442,PM2.5,176,385,315
India,Punjab,Mandi Gobindgarh,"RIMT University, Mandi Gobindgarh - PPCB",19-05-2024 11:00:00,30.649961,76.331442,CO,8,30,24
India,Punjab,Patiala,"Model Town, Patiala - PPCB",19-05-2024 11:00:00,30.349388,76.366642,NH3,6,7,6
India,Punjab,Patiala,"Model Town, Patiala - PPCB",19-05-2024 11:00:00,30.349388,76.366642,OZONE,13,101,44
India,Punjab,Rupnagar,"Ratanpura, Rupnagar - Ambuja Cements",19-05-2024 11:00:00,31.0325454,76.5623046,PM2.5,27,206,100
India,Rajasthan,Ajmer,"Civil Lines,  Ajmer - RSPCB",19-05-2024 11:00:00,26.470859,74.646594,CO,6,117,28
India,Rajasthan,Banswara,"Rati Talai, Banswara - RSPCB",19-05-2024 11:00:00,23.555190,74.440010,NH3,3,10,6
India,Rajasthan,Baran,"Bamboliya, Baran - RSPCB",19-05-2024 11:00:00,25.106006,76.469948,PM2.5,2,89,38
India,Rajasthan,Barmer,"Railway Colony, Barmer - RSPCB",19-05-2024 11:00:00,25.747299,71.393989,PM2.5,11,91,34
India,Rajasthan,Barmer,"Railway Colony, Barmer - RSPCB",19-05-2024 11:00:00,25.747299,71.393989,NH3,5,15,10
India,Rajasthan,Bharatpur,"Krishna Nagar, Bharatpur - RSPCB",19-05-2024 11:00:00,27.215415,77.50873,PM2.5,126,367,251
India,Rajasthan,Bharatpur,"Krishna Nagar, Bharatpur - RSPCB",19-05-2024 11:00:00,27.215415,77.50873,OZONE,14,294,294
India,Rajasthan,Bhilwara,"Pratap Nagar, Bhilwara - RSPCB",19-05-2024 11:00:00,25.339605,74.618883,PM10,36,112,62
India,Rajasthan,Bhiwadi,"Vasundhara Nagar_UIT, Bhiwadi - RSPCB",19-05-2024 11:00:00,28.207266,76.829265,NO2,8,92,48
India,Rajasthan,Bikaner,"MM Ground, Bikaner - RSPCB",19-05-2024 11:00:00,28.018792,73.292658,SO2,2,5,4
India,Rajasthan,Bundi,"New Colony, Bundi - RSPCB",19-05-2024 11:00:00,25.435774,75.644272,PM2.5,16,94,40
India,Rajasthan,Chittorgarh,"Shastri Nagar, Chittorgarh - RSPCB",19-05-2024 11:00:00,24.892047,74.623527,OZONE,22,124,66
India,Rajasthan,Dausa,"Khatikan Mohalla, Dausa - RSPCB",19-05-2024 11:00:00,26.895552,76.334753,PM10,122,249,166
India,Rajasthan,Dungarpur,"Bhoiwada, Dungarpur - RSPCB",19-05-2024 11:00:00,23.837789,73.714926,SO2,3,7,5
India,Rajasthan,Hanumangarh,"Housing Board, Hanumangarh - RSPCB",19-05-2024 11:00:00,29.610750,74.283608,PM2.5,43,340,160
India,Rajasthan,Jaipur,"Adarsh Nagar, Jaipur - RSPCB",19-05-2024 11:00:00,26.902909,75.836858,SO2,8,33,19
India,Rajasthan,Jaipur,"Mansarovar Sector-12, Jaipur - RSPCB",19-05-2024 11:00:00,26.843698,75.766894,NH3,2,8,5
India,Rajasthan,Jaipur,"RIICO Sitapura, Jaipur - RSPCB",19-05-2024 11:00:00,26.786682,75.827928,CO,16,109,55
India,Rajasthan,Jaipur,"RIICO Sitapura, Jaipur - RSPCB",19-05-2024 11:00:00,26.786682,75.827928,OZONE,5,172,172
India,Rajasthan,Jaipur,"Sector-2 Murlipura, Jaipur - RSPCB",19-05-2024 11:00:00,26.960669,75.771817,CO,55,120,64
India,Rajasthan,Jaipur,"Shastri Nagar, Jaipur - RSPCB",19-05-2024 11:00:00,26.9502929,75.730943,PM10,123,177,144
India,Rajasthan,Jaipur,"Shastri Nagar, Jaipur - RSPCB",19-05-2024 11:00:00,26.9502929,75.730943,NH3,5,23,10
India,Rajasthan,Jaipur,"Shastri Nagar, Jaipur - RSPCB",19-05-2024 11:00:00,26.9502929,75.730943,SO2,7,48,25
India,Rajasthan,Jalore,"Mudtra Sili, Jalore - RSPCB",19-05-2024 11:00:00,25.344694,72.626208,CO,9,36,19
India,Rajasthan,Jhalawar,"Rajlaxmi Nagar, Jhalawar - RSPCB",19-05-2024 11:00:00,24.588397,76.172782,PM10,84,378,136
India,Rajasthan,Jhalawar,"Rajlaxmi Nagar, Jhalawar - RSPCB",19-05-2024 11:00:00,24.588397,76.172782,SO2,3,25,7
India,Rajasthan,Jodhpur,"Collectorate, Jodhpur - RSPCB",19-05-2024 11:00:00,26.268249,73.0193853,PM2.5,4,177,68
India,Rajasthan,Jodhpur,"Collectorate, Jodhpur - RSPCB",19-05-2024 11:00:00,26.268249,73.0193853,SO2,9,17,11
India,Rajasthan,Jodhpur,"Digari Kalan, Jodhpur - RSPCB",19-05-2024 11:00:00,26.295810,73.082283,PM10,45,181,91
India,Rajasthan,Jodhpur,"Digari Kalan, Jodhpur - RSPCB",19-05-2024 11:00:00,26.295810,73.082283,NH3,2,5,3
India,Rajasthan,Jodhpur,"Jhalamand, Jodhpur - RSPCB",19-05-2024 11:00:00,26.215415,73.070156,PM10,41,227,91
India,Rajasthan,Jodhpur,"Mandor, Jodhpur - RSPCB",19-05-2024 11:00:00,26.358805,73.047444,PM2.5,9,52,24
India,Rajasthan,Jodhpur,"Mandor, Jodhpur - RSPCB",19-05-2024 11:00:00,26.358805,73.047444,NO2,20,47,27
India,Rajasthan,Jodhpur,"Mandor, Jodhpur - RSPCB",19-05-2024 11:00:00,26.358805,73.047444,CO,14,22,20
India,Rajasthan,Karauli,"Satyawati Vihar, Karauli - RSPCB",19-05-2024 11:00:00,26.506177,77.025989,NO2,10,96,45
India,Rajasthan,Karauli,"Satyawati Vihar, Karauli - RSPCB",19-05-2024 11:00:00,26.506177,77.025989,OZONE,2,186,186
India,Rajasthan,Kota,"Dhanmandi, Kota - RSPCB",19-05-2024 11:00:00,25.164090,75.858137,PM10,63,191,106
India,Rajasthan,Kota,"Dhanmandi, Kota - RSPCB",19-05-2024 11:00:00,25.164090,75.858137,OZONE,8,109,47
India,Rajasthan,Kota,"Nayapura, Kota - RSPCB",19-05-2024 11:00:00,25.196024,75.855668,NO2,15,139,39
India,Rajasthan,Kota,"Nayapura, Kota - RSPCB",19-05-2024 11:00:00,25.196024,75.855668,CO,14,114,24
India,Rajasthan,Kota,"Shrinath Puram, Kota - RSPCB",19-05-2024 11:00:00,25.14389,75.821256,PM2.5,35,207,84
India,Rajasthan,Kota,"Shrinath Puram, Kota - RSPCB",19-05-2024 11:00:00,25.14389,75.821256,PM10,61,122,94
India,Rajasthan,Kota,"Shrinath Puram, Kota - RSPCB",19-05-2024 11:00:00,25.14389,75.821256,CO,26,56,32
India,Rajasthan,Nagaur,"Karni Colony, Nagaur - RSPCB",19-05-2024 11:00:00,27.213494,73.734444,OZONE,50,90,62
India,Rajasthan,Pali,"Indira Colony Vistar, Pali - RSPCB",19-05-2024 11:00:00,25.771061, 73.340227,SO2,6,12,9
India,Rajasthan,Pali,"Indira Colony Vistar, Pali - RSPCB",19-05-2024 11:00:00,25.771061, 73.340227,CO,24,65,40
India,Rajasthan,Pratapgarh,"Pragati Nagar, Pratapgarh - RSPCB",19-05-2024 11:00:00,24.041198,74.780702,CO,3,34,22
India,Rajasthan,Sawai Madhopur,"Sahu Nagar, Sawai Madhopur - RSPCB",19-05-2024 11:00:00,26.031443,76.359327,PM2.5,NA,NA,NA
India,Rajasthan,Sikar,"Radhakishan Pura, Sikar - RSPCB",19-05-2024 11:00:00,27.608912,75.153302,PM2.5,20,182,60
India,Rajasthan,Sikar,"Radhakishan Pura, Sikar - RSPCB",19-05-2024 11:00:00,27.608912,75.153302,NO2,1,110,42
India,Rajasthan,Sikar,"Radhakishan Pura, Sikar - RSPCB",19-05-2024 11:00:00,27.608912,75.153302,SO2,4,15,6
India,Rajasthan,Sri Ganganagar,"Old City, Sri Ganganagar - RSPCB",19-05-2024 11:00:00,29.931624,73.864511,PM2.5,77,345,207
India,Rajasthan,Sri Ganganagar,"Old City, Sri Ganganagar - RSPCB",19-05-2024 11:00:00,29.931624,73.864511,NO2,20,108,38
India,Rajasthan,Sri Ganganagar,"Old City, Sri Ganganagar - RSPCB",19-05-2024 11:00:00,29.931624,73.864511,SO2,1,8,3
India,Rajasthan,Sri Ganganagar,"Old City, Sri Ganganagar - RSPCB",19-05-2024 11:00:00,29.931624,73.864511,CO,10,103,66
India,Rajasthan,Tonk,"Shastri Nagar, Tonk - RSPCB",19-05-2024 11:00:00,26.159933,75.780517,NO2,13,66,30
India,Rajasthan,Udaipur,"Ashok Nagar, Udaipur - RSPCB",19-05-2024 11:00:00,24.5886166,73.6321397,CO,2,88,23
India,Sikkim,Gangtok,"Zero Point GICI, Gangtok - SSPCB",19-05-2024 11:00:00,27.338530,88.614099,PM2.5,NA,NA,NA
India,TamilNadu,Chennai,"Alandur Bus Depot, Chennai - CPCB",19-05-2024 11:00:00,12.9099161,80.1076538,PM2.5,23,23,23
India,TamilNadu,Chennai,"Alandur Bus Depot, Chennai - CPCB",19-05-2024 11:00:00,12.9099161,80.1076538,OZONE,2,7,5
India,TamilNadu,Chennai,"Manali, Chennai - CPCB",19-05-2024 11:00:00,13.164544,80.26285,PM2.5,1,158,17
India,TamilNadu,Chennai,"Royapuram, Chennai - TNPCB",19-05-2024 11:00:00,13.1036,80.2909,PM2.5,2,57,13
India,TamilNadu,Chennai,"Royapuram, Chennai - TNPCB",19-05-2024 11:00:00,13.1036,80.2909,OZONE,2,27,16
India,TamilNadu,Chennai,"Velachery Res. Area, Chennai - CPCB",19-05-2024 11:00:00,13.0052189,80.2398125,PM10,7,24,16
India,TamilNadu,Chennai,"Velachery Res. Area, Chennai - CPCB",19-05-2024 11:00:00,13.0052189,80.2398125,CO,118,120,119
India,TamilNadu,Coimbatore,"PSG College of Arts and Science, Coimbatore - TNPCB",19-05-2024 11:00:00,11.0328,77.0349,NH3,1,1,1
India,TamilNadu,Coimbatore,"PSG College of Arts and Science, Coimbatore - TNPCB",19-05-2024 11:00:00,11.0328,77.0349,SO2,37,43,40
India,TamilNadu,Coimbatore,"PSG College of Arts and Science, Coimbatore - TNPCB",19-05-2024 11:00:00,11.0328,77.0349,CO,24,42,33
India,TamilNadu,Coimbatore,"PSG College of Arts and Science, Coimbatore - TNPCB",19-05-2024 11:00:00,11.0328,77.0349,OZONE,3,6,4
India,TamilNadu,Cuddalore,"Kudikadu, Cuddalore - TNPCB",19-05-2024 11:00:00,11.6829898,79.7532099,PM2.5,12,110,39
India,TamilNadu,Cuddalore,"Kudikadu, Cuddalore - TNPCB",19-05-2024 11:00:00,11.6829898,79.7532099,NH3,3,4,3
India,TamilNadu,Cuddalore,"Kudikadu, Cuddalore - TNPCB",19-05-2024 11:00:00,11.6829898,79.7532099,SO2,10,10,10
India,TamilNadu,Cuddalore,"Semmandalam, Cuddalore - TNPCB",19-05-2024 11:00:00,11.7637683,79.7499835,PM2.5,12,33,18
India,TamilNadu,Cuddalore,"Semmandalam, Cuddalore - TNPCB",19-05-2024 11:00:00,11.7637683,79.7499835,OZONE,2,25,2
India,TamilNadu,Palkalaiperur,"Bharathidasan University, Palkalaiperur - TNPCB",19-05-2024 11:00:00,10.681158,78.741746,OZONE,1,5,1
India,TamilNadu,Ramanathapuram,"Chalai Bazaar, Ramanathapuram - TNPCB",19-05-2024 11:00:00,9.36399,78.831977,PM2.5,6,47,26
India,TamilNadu,Ramanathapuram,"Chalai Bazaar, Ramanathapuram - TNPCB",19-05-2024 11:00:00,9.36399,78.831977,SO2,8,12,9
India,TamilNadu,Salem,"Sona College of Technology, Salem - TNPCB",19-05-2024 11:00:00,11.679111,78.125052,PM10,15,52,32
India,TamilNadu,Thoothukudi,"Meelavittan, Thoothukudi - TNPCB",19-05-2024 11:00:00,8.816428 ,78.099039,CO,2,111,69
India,Telangana,Hyderabad,"Bollaram Industrial Area, Hyderabad - TSPCB",19-05-2024 11:00:00,17.540891,78.358528,PM2.5,25,48,35
India,Telangana,Hyderabad,"Bollaram Industrial Area, Hyderabad - TSPCB",19-05-2024 11:00:00,17.540891,78.358528,NO2,14,46,28
India,Telangana,Hyderabad,"Central University, Hyderabad - TSPCB",19-05-2024 11:00:00,17.460103,78.334361,NO2,10,35,22
India,Telangana,Hyderabad,"Central University, Hyderabad - TSPCB",19-05-2024 11:00:00,17.460103,78.334361,SO2,3,10,6
India,Telangana,Hyderabad,"ECIL Kapra, Hyderabad - TSPCB",19-05-2024 11:00:00,17.470431,78.566959,CO,NA,NA,NA
India,Telangana,Hyderabad,"ICRISAT Patancheru, Hyderabad - TSPCB",19-05-2024 11:00:00,17.518400,78.278777,NH3,2,2,2
India,Telangana,Hyderabad,"ICRISAT Patancheru, Hyderabad - TSPCB",19-05-2024 11:00:00,17.518400,78.278777,SO2,NA,NA,NA
India,Telangana,Hyderabad,"ICRISAT Patancheru, Hyderabad - TSPCB",19-05-2024 11:00:00,17.518400,78.278777,OZONE,7,46,14
India,Telangana,Hyderabad,"IITH Kandi, Hyderabad - TSPCB",19-05-2024 11:00:00,17.585705,78.126199,NH3,NA,NA,NA
India,Telangana,Hyderabad,"Kompally Municipal Office, Hyderabad - TSPCB",19-05-2024 11:00:00,17.544899,78.486949,PM10,53,64,57
India,Telangana,Hyderabad,"New Malakpet, Hyderabad - TSPCB",19-05-2024 11:00:00,17.37206,78.50864,NH3,NA,NA,NA
India,Telangana,Hyderabad,"Ramachandrapuram, Hyderabad - TSPCB",19-05-2024 11:00:00,17.528544,78.286195,NO2,NA,NA,NA
India,Telangana,Hyderabad,"Sanathnagar, Hyderabad - TSPCB",19-05-2024 11:00:00,17.4559458,78.4332152,NO2,20,324,118
India,Telangana,Hyderabad,"Sanathnagar, Hyderabad - TSPCB",19-05-2024 11:00:00,17.4559458,78.4332152,OZONE,8,188,108
India,Telangana,Hyderabad,"Zoo Park, Hyderabad - TSPCB",19-05-2024 11:00:00,17.349694,78.451437,NO2,19,45,26
India,Tripura,Agartala,"Bardowali, Agartala - Tripura SPCB",19-05-2024 11:00:00,23.8175497,91.2726974,SO2,32,33,33
India,Uttar_Pradesh,Agra,"Manoharpur, Agra - UPPCB",19-05-2024 11:00:00,27.23711,78.01936,SO2,22,40,29
India,Uttar_Pradesh,Agra,"Sector-3B Avas Vikas Colony, Agra - UPPCB",19-05-2024 11:00:00,27.19412,77.96237,OZONE,NA,NA,NA
India,Uttar_Pradesh,Agra,"Shahjahan Garden, Agra - UPPCB",19-05-2024 11:00:00,27.169338,78.03582,NO2,17,18,17
India,Uttar_Pradesh,Agra,"Shahjahan Garden, Agra - UPPCB",19-05-2024 11:00:00,27.169338,78.03582,CO,18,103,64
India,Uttar_Pradesh,Agra,"Shastripuram, Agra - UPPCB",19-05-2024 11:00:00,27.19862,77.92066,PM10,65,202,143
India,Uttar_Pradesh,Agra,"Shastripuram, Agra - UPPCB",19-05-2024 11:00:00,27.19862,77.92066,SO2,14,20,16
India,Uttar_Pradesh,Baghpat,"Sardar Patel Inter College, Baghpat - UPPCB",19-05-2024 11:00:00,28.964949,77.278761,PM2.5,110,193,143
India,Uttar_Pradesh,Bareilly,"Civil Lines, Bareilly - UPPCB",19-05-2024 11:00:00,28.359581,79.414455,NH3,1,5,1
India,Uttar_Pradesh,Bareilly,"Rajendra Nagar, Bareilly - UPPCB",19-05-2024 11:00:00,28.38910936,79.42963708,PM2.5,31,58,42
India,Uttar_Pradesh,Firozabad,"Nagla Bhau, Firozabad - UPPCB",19-05-2024 11:00:00,27.168897,78.376960,SO2,14,40,21
India,Uttar_Pradesh,Firozabad,"Nagla Bhau, Firozabad - UPPCB",19-05-2024 11:00:00,27.168897,78.376960,CO,16,45,30
India,Uttar_Pradesh,Firozabad,"Nagla Bhau, Firozabad - UPPCB",19-05-2024 11:00:00,27.168897,78.376960,OZONE,17,23,19
India,Uttar_Pradesh,Firozabad,"Vibhab Nagar, Firozabad - UPPCB",19-05-2024 11:00:00,27.1594,78.3953,PM2.5,58,215,105
India,Uttar_Pradesh,Firozabad,"Vibhab Nagar, Firozabad - UPPCB",19-05-2024 11:00:00,27.1594,78.3953,CO,14,44,31
India,Uttar_Pradesh,Ghaziabad,"Indirapuram, Ghaziabad - UPPCB",19-05-2024 11:00:00,28.646233,77.358075,OZONE,3,43,12
India,Uttar_Pradesh,Ghaziabad,"Loni, Ghaziabad - UPPCB",19-05-2024 11:00:00,28.757294,77.278792,NH3,2,7,4
India,Uttar_Pradesh,Ghaziabad,"Sanjay Nagar, Ghaziabad - UPPCB",19-05-2024 11:00:00,28.685382,77.453839,NO2,31,194,72
India,Uttar_Pradesh,Ghaziabad,"Sanjay Nagar, Ghaziabad - UPPCB",19-05-2024 11:00:00,28.685382,77.453839,SO2,13,60,35
India,Uttar_Pradesh,Ghaziabad,"Vasundhara, Ghaziabad - UPPCB",19-05-2024 11:00:00,28.6603346,77.3572563,PM10,121,234,176
India,Uttar_Pradesh,Ghaziabad,"Vasundhara, Ghaziabad - UPPCB",19-05-2024 11:00:00,28.6603346,77.3572563,NO2,42,130,74
India,Uttar_Pradesh,Gorakhpur,"Madan Mohan Malaviya University of Technology, Gorakhpur - UPPCB",19-05-2024 11:00:00,26.730136,83.433859,NO2,11,12,11
India,Uttar_Pradesh,Greater Noida,"Knowledge Park - III, Greater Noida - UPPCB",19-05-2024 11:00:00,28.47272,77.482000,PM10,177,499,305
India,Uttar_Pradesh,Greater Noida,"Knowledge Park - III, Greater Noida - UPPCB",19-05-2024 11:00:00,28.47272,77.482000,NO2,30,181,89
India,Uttar_Pradesh,Greater Noida,"Knowledge Park - III, Greater Noida - UPPCB",19-05-2024 11:00:00,28.47272,77.482000,NH3,1,7,4
India,Uttar_Pradesh,Greater Noida,"Knowledge Park - III, Greater Noida - UPPCB",19-05-2024 11:00:00,28.47272,77.482000,OZONE,4,226,226
India,Uttar_Pradesh,Greater Noida,"Knowledge Park - V, Greater Noida - UPPCB",19-05-2024 11:00:00,28.557054,77.453663,OZONE,9,260,209
India,Uttar_Pradesh,Kanpur,"FTI Kidwai Nagar, Kanpur - UPPCB",19-05-2024 11:00:00,26.428282,80.327067,PM10,70,367,152
India,Uttar_Pradesh,Kanpur,"FTI Kidwai Nagar, Kanpur - UPPCB",19-05-2024 11:00:00,26.428282,80.327067,SO2,12,14,13
India,Uttar_Pradesh,Kanpur,"FTI Kidwai Nagar, Kanpur - UPPCB",19-05-2024 11:00:00,26.428282,80.327067,OZONE,6,51,20
India,Uttar_Pradesh,Kanpur,"NSI Kalyanpur, Kanpur - UPPCB",19-05-2024 11:00:00,26.509954,80.249612,CO,7,120,61
India,Uttar_Pradesh,Kanpur,"Nehru Nagar, Kanpur - UPPCB",19-05-2024 11:00:00,26.4703136,80.3229863,CO,6,72,14
India,Uttar_Pradesh,Lucknow,"B R Ambedkar University, Lucknow - UPPCB",19-05-2024 11:00:00,26.766433,80.927299,SO2,37,44,40
India,Uttar_Pradesh,Lucknow,"B R Ambedkar University, Lucknow - UPPCB",19-05-2024 11:00:00,26.766433,80.927299,CO,24,60,42
India,Uttar_Pradesh,Lucknow,"Gomti Nagar, Lucknow - UPPCB",19-05-2024 11:00:00,26.868120,81.005119,SO2,7,19,11
India,Uttar_Pradesh,Lucknow,"Kendriya Vidyalaya, Lucknow - CPCB",19-05-2024 11:00:00,26.906111,80.948222,PM2.5,78,304,208
India,Uttar_Pradesh,Lucknow,"Kendriya Vidyalaya, Lucknow - CPCB",19-05-2024 11:00:00,26.906111,80.948222,PM10,104,196,153
India,Uttar_Pradesh,Lucknow,"Kendriya Vidyalaya, Lucknow - CPCB",19-05-2024 11:00:00,26.906111,80.948222,NO2,8,102,31
India,Uttar_Pradesh,Lucknow,"Talkatora District Industries Center, Lucknow - CPCB",19-05-2024 11:00:00,26.83399722,80.8917361,NO2,34,110,60
India,Uttar_Pradesh,Lucknow,"Talkatora District Industries Center, Lucknow - CPCB",19-05-2024 11:00:00,26.83399722,80.8917361,CO,4,112,19
India,Uttar_Pradesh,Lucknow,"Talkatora District Industries Center, Lucknow - CPCB",19-05-2024 11:00:00,26.83399722,80.8917361,OZONE,2,80,12
India,Uttar_Pradesh,Meerut,"Ganga Nagar, Meerut - UPPCB",19-05-2024 11:00:00,28.999264,77.7590354,PM10,115,234,173
India,Uttar_Pradesh,Meerut,"Jai Bhim Nagar, Meerut - UPPCB",19-05-2024 11:00:00,28.9535882,77.7622941,NO2,14,82,32
India,Uttar_Pradesh,Meerut,"Jai Bhim Nagar, Meerut - UPPCB",19-05-2024 11:00:00,28.9535882,77.7622941,CO,19,94,54
India,Uttar_Pradesh,Moradabad,"Jigar Colony, Moradabad - UPPCB",19-05-2024 11:00:00,28.856664,78.772638,PM2.5,66,134,84
India,Uttar_Pradesh,Moradabad,"Jigar Colony, Moradabad - UPPCB",19-05-2024 11:00:00,28.856664,78.772638,OZONE,10,48,14
India,Uttar_Pradesh,Moradabad,"Kashiram Nagar, Moradabad - UPPCB",19-05-2024 11:00:00,28.849399,78.742362,PM10,111,177,139
India,Uttar_Pradesh,Moradabad,"Transport Nagar, Moradabad - UPPCB",19-05-2024 11:00:00,28.802625,78.753728,OZONE,11,66,21
India,Uttar_Pradesh,Muzaffarnagar,"New Mandi, Muzaffarnagar - UPPCB",19-05-2024 11:00:00,29.4723508,77.7194031,PM10,163,424,249
India,Uttar_Pradesh,Muzaffarnagar,"New Mandi, Muzaffarnagar - UPPCB",19-05-2024 11:00:00,29.4723508,77.7194031,NH3,11,16,13
India,Uttar_Pradesh,Noida,"Sector - 125, Noida - UPPCB",19-05-2024 11:00:00,28.5447608,77.3231257,NO2,25,167,80
India,Uttar_Pradesh,Noida,"Sector - 125, Noida - UPPCB",19-05-2024 11:00:00,28.5447608,77.3231257,NH3,1,6,3
India,Uttar_Pradesh,Noida,"Sector - 125, Noida - UPPCB",19-05-2024 11:00:00,28.5447608,77.3231257,SO2,11,104,31
India,Uttar_Pradesh,Noida,"Sector - 125, Noida - UPPCB",19-05-2024 11:00:00,28.5447608,77.3231257,OZONE,4,113,25
India,Uttar_Pradesh,Noida,"Sector-1, Noida - UPPCB",19-05-2024 11:00:00,28.5898,77.3101,NH3,4,13,8
India,Uttar_Pradesh,Noida,"Sector-1, Noida - UPPCB",19-05-2024 11:00:00,28.5898,77.3101,SO2,5,56,23
India,Uttar_Pradesh,Prayagraj,"Jhunsi, Prayagraj - UPPCB",19-05-2024 11:00:00,25.425602,81.917152,PM2.5,23,85,43
India,Uttar_Pradesh,Prayagraj,"Motilal Nehru NIT, Prayagraj - UPPCB",19-05-2024 11:00:00,25.494,81.863,SO2,26,105,49
India,Uttar_Pradesh,Prayagraj,"Nagar Nigam, Prayagraj - UPPCB",19-05-2024 11:00:00,25.44919916 ,81.82735986 ,PM2.5,34,85,51
India,Uttar_Pradesh,Prayagraj,"Nagar Nigam, Prayagraj - UPPCB",19-05-2024 11:00:00,25.44919916 ,81.82735986 ,PM10,32,75,47
India,Uttar_Pradesh,Varanasi,"Ardhali Bazar, Varanasi - UPPCB",19-05-2024 11:00:00,25.3505986,82.9083074,PM10,17,78,38
India,Uttar_Pradesh,Varanasi,"Ardhali Bazar, Varanasi - UPPCB",19-05-2024 11:00:00,25.3505986,82.9083074,SO2,19,65,29
India,Uttar_Pradesh,Varanasi,"Bhelupur, Varanasi - UPPCB",19-05-2024 11:00:00,25.301778,82.996789,PM2.5,4,18,9
India,Uttar_Pradesh,Varanasi,"Bhelupur, Varanasi - UPPCB",19-05-2024 11:00:00,25.301778,82.996789,PM10,15,83,33
India,Uttar_Pradesh,Varanasi,"Bhelupur, Varanasi - UPPCB",19-05-2024 11:00:00,25.301778,82.996789,NO2,8,8,8
India,Uttar_Pradesh,Varanasi,"Bhelupur, Varanasi - UPPCB",19-05-2024 11:00:00,25.301778,82.996789,NH3,1,2,1
India,Uttar_Pradesh,Varanasi,"IESD Banaras Hindu University, Varanasi - UPPCB",19-05-2024 11:00:00,25.262326,82.995408,NO2,2,2,2
India,Uttar_Pradesh,Varanasi,"IESD Banaras Hindu University, Varanasi - UPPCB",19-05-2024 11:00:00,25.262326,82.995408,CO,3,23,11
India,Uttar_Pradesh,Varanasi,"Maldahiya, Varanasi - UPPCB",19-05-2024 11:00:00,25.32393,82.99687,PM10,15,53,30
India,Uttar_Pradesh,Varanasi,"Maldahiya, Varanasi - UPPCB",19-05-2024 11:00:00,25.32393,82.99687,CO,1,136,7
India,Uttarakhand,Dehradun,"Doon University, Dehradun - UKPCB",19-05-2024 11:00:00,30.269444,78.044167,PM10,51,145,102
India,Uttarakhand,Dehradun,"Doon University, Dehradun - UKPCB",19-05-2024 11:00:00,30.269444,78.044167,NO2,1,7,2
India,Uttarakhand,Kashipur,"Govt. Girls Inter College, Kashipur - UKPCB",19-05-2024 11:00:00,29.2124114,78.9611753,PM2.5,44,154,95
India,Uttarakhand,Kashipur,"Govt. Girls Inter College, Kashipur - UKPCB",19-05-2024 11:00:00,29.2124114,78.9611753,PM10,112,160,128
India,Uttarakhand,Kashipur,"Govt. Girls Inter College, Kashipur - UKPCB",19-05-2024 11:00:00,29.2124114,78.9611753,NO2,20,39,29
India,Uttarakhand,Kashipur,"Govt. Girls Inter College, Kashipur - UKPCB",19-05-2024 11:00:00,29.2124114,78.9611753,SO2,7,11,9
India,West_Bengal,Asansol,"Asansol Court Area, Asansol - WBPCB",19-05-2024 11:00:00,23.685297,86.945968,CO,26,115,47
India,West_Bengal,Durgapur,"PCBL Residential Complex, Durgapur - WBPCB",19-05-2024 11:00:00,23.5087640,87.3544400,OZONE,5,62,20
India,West_Bengal,Durgapur,"Sidhu Kanhu Indoor Stadium, Durgapur - WBPCB",19-05-2024 11:00:00,23.5404352,87.2892225,NH3,5,6,5
India,West_Bengal,Durgapur,"Sidhu Kanhu Indoor Stadium, Durgapur - WBPCB",19-05-2024 11:00:00,23.5404352,87.2892225,SO2,5,91,22
India,West_Bengal,Howrah,"Ghusuri, Howrah - WBPCB",19-05-2024 11:00:00,22.611968,88.347422,CO,14,51,17
India,West_Bengal,Howrah,"Padmapukur, Howrah - WBPCB",19-05-2024 11:00:00,22.5687319,88.2797276,SO2,11,81,31
India,West_Bengal,Kolkata,"Ballygunge, Kolkata - WBPCB",19-05-2024 11:00:00,22.5367507,88.3638022,PM2.5,14,96,47
India,West_Bengal,Kolkata,"Ballygunge, Kolkata - WBPCB",19-05-2024 11:00:00,22.5367507,88.3638022,CO,6,28,11
India,West_Bengal,Kolkata,"Bidhannagar, Kolkata - WBPCB",19-05-2024 11:00:00,22.58157048,88.41002457,PM10,23,85,49
India,West_Bengal,Kolkata,"Bidhannagar, Kolkata - WBPCB",19-05-2024 11:00:00,22.58157048,88.41002457,NO2,16,32,23
India,West_Bengal,Kolkata,"Bidhannagar, Kolkata - WBPCB",19-05-2024 11:00:00,22.58157048,88.41002457,OZONE,14,142,21
India,West_Bengal,Kolkata,"Jadavpur, Kolkata - WBPCB",19-05-2024 11:00:00,22.49929,88.36917,PM10,18,70,45
India,West_Bengal,Kolkata,"Rabindra Bharati University, Kolkata - WBPCB",19-05-2024 11:00:00,22.627847,88.380669,OZONE,3,21,6
India,West_Bengal,Kolkata,"Rabindra Sarobar, Kolkata - WBPCB",19-05-2024 11:00:00,22.51106,88.35142,NH3,6,12,9
India,West_Bengal,Kolkata,"Victoria, Kolkata - WBPCB",19-05-2024 11:00:00,22.5448082,88.3403691,PM10,34,138,69
India,West_Bengal,Kolkata,"Victoria, Kolkata - WBPCB",19-05-2024 11:00:00,22.5448082,88.3403691,NH3,6,6,6
India,West_Bengal,Siliguri,"Ward-32 Bapupara, Siliguri - WBPCB",19-05-2024 11:00:00,26.6879226,88.4152495,PM2.5,39,63,52
India,West_Bengal,Siliguri,"Ward-32 Bapupara, Siliguri - WBPCB",19-05-2024 11:00:00,26.6879226,88.4152495,CO,18,30,25
India,West_Bengal,Siliguri,"Ward-32 Bapupara, Siliguri - WBPCB",19-05-2024 11:00:00,26.6879226,88.4152495,OZONE,25,45,35
India,Andhra_Pradesh,Amaravati,"Secretariat, Amaravati - APPCB",19-05-2024 11:00:00,16.5150833,80.5181667,OZONE,1,18,6
India,Andhra_Pradesh,Anantapur,"Gulzarpet, Anantapur - APPCB",19-05-2024 11:00:00,14.675886,77.593027,NO2,12,13,13
India,Andhra_Pradesh,Anantapur,"Gulzarpet, Anantapur - APPCB",19-05-2024 11:00:00,14.675886,77.593027,CO,18,46,25
India,Andhra_Pradesh,Chittoor,"Gangineni Cheruvu, Chittoor - APPCB",19-05-2024 11:00:00,13.204880,79.097889,PM2.5,9,184,60
India,Andhra_Pradesh,Chittoor,"Gangineni Cheruvu, Chittoor - APPCB",19-05-2024 11:00:00,13.204880,79.097889,PM10,11,134,58
India,Andhra_Pradesh,Kadapa,"Yerramukkapalli, Kadapa - APPCB",19-05-2024 11:00:00,14.465052,78.824187,NO2,NA,NA,NA
India,Andhra_Pradesh,Rajamahendravaram,"Anand Kala Kshetram, Rajamahendravaram - APPCB",19-05-2024 11:00:00,16.9872867,81.7363176,OZONE,12,39,20
India,Andhra_Pradesh,Tirupati,"Tirumala, Tirupati - APPCB",19-05-2024 11:00:00,13.67,79.35,CO,34,56,38
India,Andhra_Pradesh,Vijayawada,"HB Colony, Vijayawada - APPCB",19-05-2024 11:00:00,16.536107,80.594233,SO2,4,5,4
India,Andhra_Pradesh,Vijayawada,"HB Colony, Vijayawada - APPCB",19-05-2024 11:00:00,16.536107,80.594233,OZONE,3,222,55
India,Andhra_Pradesh,Vijayawada,"Rajiv Gandhi Park, Vijayawada - APPCB",19-05-2024 11:00:00,16.509717,80.612222,PM10,30,47,37
India,Andhra_Pradesh,Vijayawada,"Rajiv Gandhi Park, Vijayawada - APPCB",19-05-2024 11:00:00,16.509717,80.612222,NH3,4,6,5
India,Andhra_Pradesh,Vijayawada,"Rajiv Nagar, Vijayawada - APPCB",19-05-2024 11:00:00,16.554731,80.649110,NO2,12,13,12
India,Andhra_Pradesh,Visakhapatnam,"GVM Corporation, Visakhapatnam - APPCB",19-05-2024 11:00:00,17.72,83.3,NH3,2,4,3
India,Arunachal_Pradesh,Naharlagun,"Naharlagun, Naharlagun - APSPCB",19-05-2024 11:00:00,27.103358,93.679645,PM2.5,2,44,22
India,Assam,Byrnihat,"Central Academy for SFS, Byrnihat - PCBA",19-05-2024 11:00:00,26.071318,91.87488,PM10,46,223,92
India,Assam,Byrnihat,"Central Academy for SFS, Byrnihat - PCBA",19-05-2024 11:00:00,26.071318,91.87488,NO2,20,40,30
India,Assam,Byrnihat,"Central Academy for SFS, Byrnihat - PCBA",19-05-2024 11:00:00,26.071318,91.87488,NH3,14,28,20
India,Assam,Byrnihat,"Central Academy for SFS, Byrnihat - PCBA",19-05-2024 11:00:00,26.071318,91.87488,OZONE,22,24,23
India,Assam,Guwahati,"IITG, Guwahati - PCBA",19-05-2024 11:00:00,26.2028636,91.70046436,NO2,1,6,2
India,Assam,Guwahati,"IITG, Guwahati - PCBA",19-05-2024 11:00:00,26.2028636,91.70046436,SO2,13,13,13
India,Assam,Guwahati,"IITG, Guwahati - PCBA",19-05-2024 11:00:00,26.2028636,91.70046436,CO,10,15,10
India,Assam,Guwahati,"IITG, Guwahati - PCBA",19-05-2024 11:00:00,26.2028636,91.70046436,OZONE,6,29,19
India,Assam,Guwahati,"LGBI Airport, Guwahati - PCBA",19-05-2024 11:00:00,26.10887,91.589544,NH3,1,4,2
India,Assam,Nagaon,"Christianpatty, Nagaon - PCBA",19-05-2024 11:00:00,26.349082,92.68449,PM10,63,96,80
India,Assam,Nagaon,"Christianpatty, Nagaon - PCBA",19-05-2024 11:00:00,26.349082,92.68449,NO2,1,18,6
India,Assam,Nalbari,"Bata Chowk, Nalbari - PCBA",19-05-2024 11:00:00,26.446912,91.439057,PM2.5,15,73,40
India,Assam,Sivasagar,"Girls College, Sivasagar - PCBA",19-05-2024 11:00:00,26.987634,94.636574,CO,22,28,23
India,Bihar,Araria,"Kharahiya Basti, Araria - BSPCB",19-05-2024 11:00:00,26.146529,87.454184,PM2.5,21,58,35
India,Bihar,Araria,"Kharahiya Basti, Araria - BSPCB",19-05-2024 11:00:00,26.146529,87.454184,NO2,6,8,7
India,Bihar,Araria,"Kharahiya Basti, Araria - BSPCB",19-05-2024 11:00:00,26.146529,87.454184,SO2,9,17,14
India,Bihar,Araria,"Kharahiya Basti, Araria - BSPCB",19-05-2024 11:00:00,26.146529,87.454184,OZONE,6,10,9
India,Bihar,Arrah,"New DM Office, Arrah - BSPCB",19-05-2024 11:00:00,25.5626095,84.663264,OZONE,10,59,22
India,Bihar,Aurangabad,"Gurdeo Nagar, Aurangabad - BSPCB",19-05-2024 11:00:00,24.75746,84.366208,PM10,32,117,54
India,Bihar,Bhagalpur,"DM Office_Kachari Chowk, Bhagalpur - BSPCB",19-05-2024 11:00:00,25.251013,86.989001,NO2,34,79,54
India,Bihar,Bhagalpur,"Mayaganj, Bhagalpur - BSPCB",19-05-2024 11:00:00,25.265194,87.012947,PM2.5,80,307,159
India,Bihar,Bhagalpur,"Mayaganj, Bhagalpur - BSPCB",19-05-2024 11:00:00,25.265194,87.012947,CO,3,24,4
India,Bihar,Bihar Sharif,"D M Colony, Bihar Sharif - BSPCB",19-05-2024 11:00:00,25.204762,85.514960,NH3,2,2,2
India,Bihar,Bihar Sharif,"D M Colony, Bihar Sharif - BSPCB",19-05-2024 11:00:00,25.204762,85.514960,SO2,6,15,11
India,Bihar,Gaya,"Kareemganj, Gaya - BSPCB",19-05-2024 11:00:00,24.792403,84.992416,PM10,10,71,30
India,Bihar,Gaya,"Kareemganj, Gaya - BSPCB",19-05-2024 11:00:00,24.792403,84.992416,NO2,16,17,16
India,Bihar,Hajipur,"Industrial Area, Hajipur - BSPCB",19-05-2024 11:00:00,25.697189,85.245900,OZONE,5,96,9
India,Bihar,Katihar,"Mirchaibari, Katihar - BSPCB",19-05-2024 11:00:00,25.560083,87.553265,PM10,27,141,83
India,Bihar,Katihar,"Mirchaibari, Katihar - BSPCB",19-05-2024 11:00:00,25.560083,87.553265,NH3,1,14,2
India,Bihar,Katihar,"Mirchaibari, Katihar - BSPCB",19-05-2024 11:00:00,25.560083,87.553265,SO2,7,11,9
India,Bihar,Manguraha,"Forest Rest House, Manguraha - BSPCB",19-05-2024 11:00:00,27.308328,84.531742,NH3,3,3,3
India,Bihar,Motihari,"Gandak Colony, Motihari - BSPCB",19-05-2024 11:00:00,26.63086,84.90051,NH3,5,8,6
India,Bihar,Motihari,"Gandak Colony, Motihari - BSPCB",19-05-2024 11:00:00,26.63086,84.90051,CO,1,24,6
India,Bihar,Motihari,"Gandak Colony, Motihari - BSPCB",19-05-2024 11:00:00,26.63086,84.90051,OZONE,11,53,29
India,Bihar,Munger,"Town Hall, Munger - BSPCB",19-05-2024 11:00:00,25.376776,86.471523,PM10,136,161,148
India,Bihar,Munger,"Town Hall, Munger - BSPCB",19-05-2024 11:00:00,25.376776,86.471523,CO,19,90,42
India,Bihar,Muzaffarpur,"Buddha Colony, Muzaffarpur - BSPCB",19-05-2024 11:00:00,26.11442,85.39813,PM2.5,67,285,155
India,Bihar,Muzaffarpur,"MIT-Daudpur Kothi, Muzaffarpur - BSPCB",19-05-2024 11:00:00,26.1403345,85.3650192,PM2.5,67,339,178
India,Bihar,Muzaffarpur,"MIT-Daudpur Kothi, Muzaffarpur - BSPCB",19-05-2024 11:00:00,26.1403345,85.3650192,NH3,1,1,1
India,Bihar,Muzaffarpur,"MIT-Daudpur Kothi, Muzaffarpur - BSPCB",19-05-2024 11:00:00,26.1403345,85.3650192,SO2,6,7,7
India,Bihar,Muzaffarpur,"Muzaffarpur Collectorate, Muzaffarpur - BSPCB",19-05-2024 11:00:00,26.1209,85.3647,PM2.5,53,320,99
India,Bihar,Muzaffarpur,"Muzaffarpur Collectorate, Muzaffarpur - BSPCB",19-05-2024 11:00:00,26.1209,85.3647,CO,28,88,28
India,Bihar,Patna,"DRM Office Danapur, Patna - BSPCB",19-05-2024 11:00:00,25.586562,85.043586,PM2.5,68,261,171
India,Bihar,Patna,"DRM Office Danapur, Patna - BSPCB",19-05-2024 11:00:00,25.586562,85.043586,SO2,7,18,10
India,Bihar,Patna,"Govt. High School Shikarpur, Patna - BSPCB",19-05-2024 11:00:00,25.592539,85.227158,PM10,104,187,147
India,Bihar,Patna,"Govt. High School Shikarpur, Patna - BSPCB",19-05-2024 11:00:00,25.592539,85.227158,NH3,5,5,5
India,Bihar,Patna,"Govt. High School Shikarpur, Patna - BSPCB",19-05-2024 11:00:00,25.592539,85.227158,SO2,9,12,10
India,Bihar,Patna,"Govt. High School Shikarpur, Patna - BSPCB",19-05-2024 11:00:00,25.592539,85.227158,CO,32,111,40
India,Bihar,Patna,"IGSC Planetarium Complex, Patna - BSPCB",19-05-2024 11:00:00,25.610369,85.132568,SO2,4,6,4
India,Bihar,Patna,"Muradpur, Patna - BSPCB",19-05-2024 11:00:00,25.619651,85.147382,PM10,144,500,267
India,Bihar,Patna,"Samanpura, Patna - BSPCB",19-05-2024 11:00:00,25.596727,85.085624,SO2,2,3,2
India,Bihar,Purnia,"Mariam Nagar, Purnia - BSPCB",19-05-2024 11:00:00,25.366336,87.117468,PM2.5,12,123,52
India,Bihar,Saharsa,"Police Line, Saharsa - BSPCB",19-05-2024 11:00:00,25.892357,86.590325,OZONE,3,58,29
India,Bihar,Samastipur,"DM Office_Kasipur, Samastipur - BSPCB",19-05-2024 11:00:00,25.859655,85.77944,NO2,NA,NA,NA
India,Bihar,Samastipur,"DM Office_Kasipur, Samastipur - BSPCB",19-05-2024 11:00:00,25.859655,85.77944,SO2,NA,NA,NA
India,Bihar,Samastipur,"DM Office_Kasipur, Samastipur - BSPCB",19-05-2024 11:00:00,25.859655,85.77944,OZONE,1,25,8
India,Bihar,Sasaram,"Dada Peer, Sasaram - BSPCB",19-05-2024 11:00:00,24.952822,84.002396,PM2.5,5,25,10
India,Bihar,Sasaram,"Dada Peer, Sasaram - BSPCB",19-05-2024 11:00:00,24.952822,84.002396,PM10,13,68,26
India,Bihar,Sasaram,"Dada Peer, Sasaram - BSPCB",19-05-2024 11:00:00,24.952822,84.002396,CO,NA,NA,NA
India,Bihar,Siwan,"Chitragupta Nagar, Siwan - BSPCB",19-05-2024 11:00:00,26.2271665,84.3570427,PM2.5,58,247,111
India,Bihar,Siwan,"Chitragupta Nagar, Siwan - BSPCB",19-05-2024 11:00:00,26.2271665,84.3570427,NO2,9,192,36
India,Chandigarh,Chandigarh,"Sector 22, Chandigarh - CPCC",19-05-2024 11:00:00,30.735567,76.775714,PM2.5,62,293,198
India,Chandigarh,Chandigarh,"Sector 22, Chandigarh - CPCC",19-05-2024 11:00:00,30.735567,76.775714,PM10,129,200,161
India,Chandigarh,Chandigarh,"Sector-25, Chandigarh - CPCC",19-05-2024 11:00:00,30.751462,76.762879,NH3,8,20,14
India,Chhattisgarh,Bhilai,"32Bungalows, Bhilai - CECB",19-05-2024 11:00:00,21.194815,81.314770,SO2,1,3,2
India,Chhattisgarh,Bhilai,"Civic Center, Bhilai - Bhilai Steel Plant",19-05-2024 11:00:00,21.185571,81.343175,NH3,3,6,5
India,Chhattisgarh,Bhilai,"Hathkhoj, Bhilai - CECB",19-05-2024 11:00:00,21.224231,81.408350,PM2.5,2,25,10
India,Chhattisgarh,Chhal,"Nawapara SECL Colony, Chhal - CECB",19-05-2024 11:00:00,22.118125,83.140608,PM10,18,164,43
India,Chhattisgarh,Chhal,"Nawapara SECL Colony, Chhal - CECB",19-05-2024 11:00:00,22.118125,83.140608,NH3,2,2,2
India,Chhattisgarh,Korba,"Rampur, Korba - CECB",19-05-2024 11:00:00,22.368195,82.746431,PM2.5,15,35,22
India,Chhattisgarh,Korba,"Rampur, Korba - CECB",19-05-2024 11:00:00,22.368195,82.746431,OZONE,8,13,9
India,Chhattisgarh,Korba,"Urja Nagar, Korba - CECB",19-05-2024 11:00:00,22.348441,82.549611,NO2,58,68,62
India,Chhattisgarh,Milupara,"Govt. Higher Secondary School, Milupara - CECB",19-05-2024 11:00:00,22.1910172,83.5197009,PM2.5,6,46,21
India,Chhattisgarh,Milupara,"Govt. Higher Secondary School, Milupara - CECB",19-05-2024 11:00:00,22.1910172,83.5197009,PM10,29,89,50
India,Chhattisgarh,Milupara,"Govt. Higher Secondary School, Milupara - CECB",19-05-2024 11:00:00,22.1910172,83.5197009,OZONE,5,22,10
India,Chhattisgarh,Raipur,"AIIMS, Raipur - CECB",19-05-2024 11:00:00,21.258815,81.578979,NH3,NA,NA,NA
India,Chhattisgarh,Raipur,"Krishak Nagar, Raipur - CECB",19-05-2024 11:00:00,21.237755,81.705301,NO2,14,16,16
India,Chhattisgarh,Raipur,"Krishak Nagar, Raipur - CECB",19-05-2024 11:00:00,21.237755,81.705301,NH3,NA,NA,NA
India,Chhattisgarh,Raipur,"Siltara Phase-II, Raipur - CECB",19-05-2024 11:00:00,21.371751,81.664929,PM2.5,14,98,52
India,Chhattisgarh,Raipur,"Siltara Phase-II, Raipur - CECB",19-05-2024 11:00:00,21.371751,81.664929,CO,6,32,21
India,Chhattisgarh,Raipur,"Siltara Phase-II, Raipur - CECB",19-05-2024 11:00:00,21.371751,81.664929,OZONE,3,46,5
India,Delhi,Delhi,"Alipur, Delhi - DPCC",19-05-2024 11:00:00,28.815329,77.153010,PM10,149,420,244
India,Delhi,Delhi,"Anand Vihar, Delhi - DPCC",19-05-2024 11:00:00,28.647622,77.3158090,PM10,141,440,301
India,Delhi,Delhi,"Aya Nagar, Delhi - IMD",19-05-2024 11:00:00,28.4706914,77.1099364,OZONE,9,88,38
India,Delhi,Delhi,"Bawana, Delhi - DPCC",19-05-2024 11:00:00,28.776200,77.051074,NH3,5,9,7
India,Delhi,Delhi,"Bawana, Delhi - DPCC",19-05-2024 11:00:00,28.776200,77.051074,SO2,11,113,51
India,Delhi,Delhi,"Burari Crossing, Delhi - IMD",19-05-2024 11:00:00,28.7256504,77.2011573,PM2.5,92,330,214
India,Delhi,Delhi,"Burari Crossing, Delhi - IMD",19-05-2024 11:00:00,28.7256504,77.2011573,PM10,169,388,267
India,Delhi,Delhi,"Chandni Chowk, Delhi - IITM",19-05-2024 11:00:00,28.656756,77.227234,PM2.5,184,345,282
India,Delhi,Delhi,"Chandni Chowk, Delhi - IITM",19-05-2024 11:00:00,28.656756,77.227234,CO,47,103,54
India,Delhi,Delhi,"Dr. Karni Singh Shooting Range, Delhi - DPCC",19-05-2024 11:00:00,28.498571,77.264840,PM2.5,73,333,186
India,Delhi,Delhi,"Dr. Karni Singh Shooting Range, Delhi - DPCC",19-05-2024 11:00:00,28.498571,77.264840,CO,32,114,62
India,Delhi,Delhi,"Dwarka-Sector 8, Delhi - DPCC ",19-05-2024 11:00:00,28.5710274,77.0719006,PM10,162,436,300
India,Delhi,Delhi,"Dwarka-Sector 8, Delhi - DPCC ",19-05-2024 11:00:00,28.5710274,77.0719006,CO,32,123,74
India,Delhi,Delhi,"Dwarka-Sector 8, Delhi - DPCC ",19-05-2024 11:00:00,28.5710274,77.0719006,OZONE,6,153,34
India,Delhi,Delhi,"IHBAS, Dilshad Garden, Delhi - CPCB",19-05-2024 11:00:00,28.6811736,77.3025234,PM2.5,74,230,129
India,Delhi,Delhi,"IHBAS, Dilshad Garden, Delhi - CPCB",19-05-2024 11:00:00,28.6811736,77.3025234,NO2,20,38,33
India,Delhi,Delhi,"ITO, Delhi - CPCB",19-05-2024 11:00:00,28.628624,77.241060,PM10,24,184,133
India,Delhi,Delhi,"Jahangirpuri, Delhi - DPCC",19-05-2024 11:00:00,28.732820,77.170633,OZONE,6,141,41
India,Delhi,Delhi,"Jawaharlal Nehru Stadium, Delhi - DPCC",19-05-2024 11:00:00,28.580280,77.233829,PM10,135,266,186
India,Delhi,Delhi,"Lodhi Road, Delhi - IITM",19-05-2024 11:00:00,28.588333,77.221667,PM2.5,NA,NA,NA
India,Delhi,Delhi,"Lodhi Road, Delhi - IITM",19-05-2024 11:00:00,28.588333,77.221667,PM10,NA,NA,NA
India,Delhi,Delhi,"Lodhi Road, Delhi - IITM",19-05-2024 11:00:00,28.588333,77.221667,NO2,NA,NA,NA
India,Delhi,Delhi,"Lodhi Road, Delhi - IMD",19-05-2024 11:00:00,28.5918245,77.2273074,CO,14,54,29
India,Delhi,Delhi,"Mandir Marg, Delhi - DPCC",19-05-2024 11:00:00,28.636429,77.201067,SO2,1,37,15
India,Delhi,Delhi,"Mandir Marg, Delhi - DPCC",19-05-2024 11:00:00,28.636429,77.201067,OZONE,1,37,4
India,Delhi,Delhi,"NSIT Dwarka, Delhi - CPCB",19-05-2024 11:00:00,28.60909,77.0325413,SO2,1,31,14
India,Delhi,Delhi,"Narela, Delhi - DPCC",19-05-2024 11:00:00,28.822836,77.101981,NO2,12,95,41
India,Delhi,Delhi,"Narela, Delhi - DPCC",19-05-2024 11:00:00,28.822836,77.101981,CO,22,81,66
India,Delhi,Delhi,"Patparganj, Delhi - DPCC",19-05-2024 11:00:00,28.623763,77.287209,PM2.5,93,333,213
India,Delhi,Delhi,"Patparganj, Delhi - DPCC",19-05-2024 11:00:00,28.623763,77.287209,PM10,199,437,301
India,Delhi,Delhi,"Patparganj, Delhi - DPCC",19-05-2024 11:00:00,28.623763,77.287209,NH3,7,11,8
India,Delhi,Delhi,"Patparganj, Delhi - DPCC",19-05-2024 11:00:00,28.623763,77.287209,CO,28,51,36
India,Delhi,Delhi,"Punjabi Bagh, Delhi - DPCC",19-05-2024 11:00:00,28.674045,77.131023,PM2.5,55,437,244
India,Delhi,Delhi,"Punjabi Bagh, Delhi - DPCC",19-05-2024 11:00:00,28.674045,77.131023,OZONE,3,64,23
India,Delhi,Delhi,"Pusa, Delhi - DPCC",19-05-2024 11:00:00,28.639652,77.146275,PM10,185,441,276
India,Delhi,Delhi,"Pusa, Delhi - DPCC",19-05-2024 11:00:00,28.639652,77.146275,SO2,10,102,30
India,Delhi,Delhi,"Pusa, Delhi - DPCC",19-05-2024 11:00:00,28.639652,77.146275,OZONE,8,143,42
India,Delhi,Delhi,"R K Puram, Delhi - DPCC",19-05-2024 11:00:00,28.563262,77.186937,PM2.5,63,358,219
India,Delhi,Delhi,"R K Puram, Delhi - DPCC",19-05-2024 11:00:00,28.563262,77.186937,PM10,119,375,226
India,Delhi,Delhi,"R K Puram, Delhi - DPCC",19-05-2024 11:00:00,28.563262,77.186937,OZONE,15,264,261
India,Delhi,Delhi,"Rohini, Delhi - DPCC",19-05-2024 11:00:00,28.732528,77.119920,PM10,174,440,307
India,Delhi,Delhi,"Rohini, Delhi - DPCC",19-05-2024 11:00:00,28.732528,77.119920,OZONE,5,191,170
India,Delhi,Delhi,"Shadipur, Delhi - CPCB",19-05-2024 11:00:00,28.6514781,77.1473105,CO,NA,NA,NA
India,Delhi,Delhi,"Sirifort, Delhi - CPCB",19-05-2024 11:00:00,28.5504249,77.2159377,PM10,143,469,230
India,Delhi,Delhi,"Sirifort, Delhi - CPCB",19-05-2024 11:00:00,28.5504249,77.2159377,NH3,15,17,16
India,Delhi,Delhi,"Sonia Vihar, Delhi - DPCC",19-05-2024 11:00:00,28.710508,77.249485,PM10,139,376,221
India,Delhi,Delhi,"Sri Aurobindo Marg, Delhi - DPCC",19-05-2024 11:00:00,28.531346,77.190156,PM2.5,60,347,162
India,Delhi,Delhi,"Sri Aurobindo Marg, Delhi - DPCC",19-05-2024 11:00:00,28.531346,77.190156,PM10,151,351,197
India,Delhi,Delhi,"Sri Aurobindo Marg, Delhi - DPCC",19-05-2024 11:00:00,28.531346,77.190156,NO2,9,65,35
India,Delhi,Delhi,"Sri Aurobindo Marg, Delhi - DPCC",19-05-2024 11:00:00,28.531346,77.190156,SO2,14,75,29
India,Delhi,Delhi,"Sri Aurobindo Marg, Delhi - DPCC",19-05-2024 11:00:00,28.531346,77.190156,CO,8,63,38
India,Delhi,Delhi,"Vivek Vihar, Delhi - DPCC",19-05-2024 11:00:00,28.672342,77.315260,PM2.5,69,355,184
India,Delhi,Delhi,"Wazirpur, Delhi - DPCC",19-05-2024 11:00:00,28.699793,77.165453,NO2,34,85,54
India,Gujarat,Ahmedabad,"Gyaspur, Ahmedabad - IITM",19-05-2024 11:00:00,22.977134,72.553024,PM10,81,205,127
India,Gujarat,Ahmedabad,"Maninagar, Ahmedabad - GPCB",19-05-2024 11:00:00,23.002657,72.591912,OZONE,2,117,23
India,Gujarat,Ahmedabad,"Raikhad, Ahmedabad - IITM",19-05-2024 11:00:00,23.020509,72.579261,PM2.5,95,247,180
India,Gujarat,Ahmedabad,"Raikhad, Ahmedabad - IITM",19-05-2024 11:00:00,23.020509,72.579261,CO,3,98,13
India,Gujarat,Ahmedabad,"Rakhial, Ahmedabad - IITM",19-05-2024 11:00:00,23.016834,72.625775,NH3,17,41,22
India,Gujarat,Ahmedabad,"SVPI Airport Hansol, Ahmedabad - IITM",19-05-2024 11:00:00,23.076793,72.627874,PM10,101,185,136
India,Gujarat,Ahmedabad,"Sardar Vallabhbhai Patel Stadium, Ahmedabad - IITM",19-05-2024 11:00:00,23.043070,72.562968,NH3,5,11,7
India,Gujarat,Ahmedabad,"Sardar Vallabhbhai Patel Stadium, Ahmedabad - IITM",19-05-2024 11:00:00,23.043070,72.562968,CO,19,88,23
India,Gujarat,Ankleshwar,"GIDC, Ankleshwar - GPCB",19-05-2024 11:00:00,21.613267,73.010555,PM2.5,42,87,61
India,Gujarat,Ankleshwar,"GIDC, Ankleshwar - GPCB",19-05-2024 11:00:00,21.613267,73.010555,NO2,21,56,31
India,Gujarat,Gandhinagar,"Sector-10, Gandhinagar - GPCB",19-05-2024 11:00:00,23.221714,72.654328,NO2,13,17,14
India,Gujarat,Gandhinagar,"Sector-10, Gandhinagar - GPCB",19-05-2024 11:00:00,23.221714,72.654328,SO2,3,5,4
India,Gujarat,Gandhinagar,"Sector-10, Gandhinagar - GPCB",19-05-2024 11:00:00,23.221714,72.654328,CO,17,73,22
India,Gujarat,Vapi,"Phase-1 GIDC, Vapi - GPCB",19-05-2024 11:00:00,20.362421,72.918013,NO2,6,7,6
India,Haryana,Ambala,"Patti Mehar, Ambala - HSPCB",19-05-2024 11:00:00,30.379589,76.778328,PM2.5,88,205,140
India,Haryana,Ambala,"Patti Mehar, Ambala - HSPCB",19-05-2024 11:00:00,30.379589,76.778328,NH3,5,12,8
India,Haryana,Ambala,"Patti Mehar, Ambala - HSPCB",19-05-2024 11:00:00,30.379589,76.778328,OZONE,35,57,45
India,Haryana,Ballabgarh,"Nathu Colony, Ballabgarh - HSPCB",19-05-2024 11:00:00,28.3419248,77.319699,PM10,111,345,217
India,Haryana,Bhiwani,"H.B. Colony, Bhiwani - HSPCB",19-05-2024 11:00:00,28.806223,76.141105,NO2,6,12,9
India,Haryana,Faridabad,"Sector 11, Faridabad - HSPCB",19-05-2024 11:00:00,28.376058,77.315741,NO2,30,32,31
India,Haryana,Faridabad,"Sector- 16A, Faridabad - HSPCB",19-05-2024 11:00:00,28.4088421,77.3099081,PM2.5,NA,NA,NA
India,Haryana,Fatehabad,"Huda Sector, Fatehabad - HSPCB",19-05-2024 11:00:00,29.503664,75.467934,NO2,29,31,30
India,Haryana,Gurugram,"Sector-51, Gurugram - HSPCB",19-05-2024 11:00:00,28.4227,77.0667,PM2.5,233,469,325
India,Haryana,Gurugram,"Teri Gram, Gurugram - HSPCB",19-05-2024 11:00:00,28.4275,77.1465,PM2.5,1,370,278
India,Haryana,Gurugram,"Vikas Sadan, Gurugram - HSPCB",19-05-2024 11:00:00,28.4501238,77.0263051,NO2,5,25,13
India,Haryana,Gurugram,"Vikas Sadan, Gurugram - HSPCB",19-05-2024 11:00:00,28.4501238,77.0263051,CO,54,150,150
India,Haryana,Gurugram,"Vikas Sadan, Gurugram - HSPCB",19-05-2024 11:00:00,28.4501238,77.0263051,OZONE,8,69,17
India,Haryana,Hisar,"Urban Estate-II, Hisar - HSPCB",19-05-2024 11:00:00,29.140560,75.744941,PM2.5,73,189,103
India,Haryana,Hisar,"Urban Estate-II, Hisar - HSPCB",19-05-2024 11:00:00,29.140560,75.744941,OZONE,31,187,60
India,Haryana,Jind,"Police Lines, Jind - HSPCB",19-05-2024 11:00:00,29.307814,76.337619,CO,2,121,36
India,Haryana,Kaithal,"Rishi Nagar, Kaithal - HSPCB",19-05-2024 11:00:00,29.8006,76.4155,NO2,24,26,25
India,Haryana,Kaithal,"Rishi Nagar, Kaithal - HSPCB",19-05-2024 11:00:00,29.8006,76.4155,OZONE,7,16,11
India,Haryana,Karnal,"Sector-12, Karnal - HSPCB",19-05-2024 11:00:00,29.695300,77.002700,NO2,7,12,10
India,Haryana,Kurukshetra,"Sector-7, Kurukshetra - HSPCB",19-05-2024 11:00:00,29.966942,76.875879,PM10,131,211,170
India,Haryana,Kurukshetra,"Sector-7, Kurukshetra - HSPCB",19-05-2024 11:00:00,29.966942,76.875879,SO2,2,3,3
India,Haryana,Mandikhera,"General Hospital, Mandikhera - HSPCB",19-05-2024 11:00:00,27.9002,76.9938,PM2.5,NA,NA,NA
India,Haryana,Mandikhera,"General Hospital, Mandikhera - HSPCB",19-05-2024 11:00:00,27.9002,76.9938,NH3,NA,NA,NA
India,Haryana,Manesar,"Sector-2 IMT, Manesar - HSPCB",19-05-2024 11:00:00,28.360699,76.936090,PM2.5,65,222,130
India,Haryana,Narnaul,"Shastri Nagar, Narnaul - HSPCB",19-05-2024 11:00:00,28.060249,76.113115,PM10,98,158,122
India,Haryana,Narnaul,"Shastri Nagar, Narnaul - HSPCB",19-05-2024 11:00:00,28.060249,76.113115,NO2,15,81,47
India,Haryana,Narnaul,"Shastri Nagar, Narnaul - HSPCB",19-05-2024 11:00:00,28.060249,76.113115,NH3,5,26,15
India,Haryana,Palwal,"Shyam Nagar, Palwal - HSPCB",19-05-2024 11:00:00,28.1485564,77.3320667,NO2,23,24,24
India,Haryana,Palwal,"Shyam Nagar, Palwal - HSPCB",19-05-2024 11:00:00,28.1485564,77.3320667,SO2,4,21,12
India,Haryana,Palwal,"Shyam Nagar, Palwal - HSPCB",19-05-2024 11:00:00,28.1485564,77.3320667,CO,21,40,33
India,Haryana,Panipat,"Sector-18, Panipat - HSPCB",19-05-2024 11:00:00,29.432304,76.972765,PM10,90,92,91
India,Haryana,Panipat,"Sector-18, Panipat - HSPCB",19-05-2024 11:00:00,29.432304,76.972765,CO,24,26,25
India,Haryana,Rohtak,"MD University, Rohtak - HSPCB",19-05-2024 11:00:00,28.52123,76.37138,PM2.5,23,368,158
India,Haryana,Rohtak,"MD University, Rohtak - HSPCB",19-05-2024 11:00:00,28.52123,76.37138,CO,22,88,44
India,Haryana,Yamuna Nagar,"Gobind Pura, Yamuna Nagar - HSPCB",19-05-2024 11:00:00,30.1480566,77.2893471,PM10,125,168,140
India,Haryana,Yamuna Nagar,"Gobind Pura, Yamuna Nagar - HSPCB",19-05-2024 11:00:00,30.1480566,77.2893471,OZONE,47,73,53
India,Jharkhand,Dhanbad,"Kalakusuma, Dhanbad - DMC",19-05-2024 11:00:00,23.811548,86.481238,PM2.5,22,77,45
India,Jharkhand,Dhanbad,"Kalakusuma, Dhanbad - DMC",19-05-2024 11:00:00,23.811548,86.481238,OZONE,37,87,51
India,Jharkhand,Dhanbad,"Sardar Patel Nagar, Dhanbad - JSPCB",19-05-2024 11:00:00,23.80569,86.44268,OZONE,27,78,41
India,Karnataka,Bagalkot,"Vidayagiri, Bagalkot - KSPCB",19-05-2024 11:00:00,16.172806,75.659694,NO2,9,12,9
India,Karnataka,Bengaluru,"Bapuji Nagar, Bengaluru - KSPCB",19-05-2024 11:00:00,12.951913,77.539784,NH3,1,1,1
India,Karnataka,Bengaluru,"Bapuji Nagar, Bengaluru - KSPCB",19-05-2024 11:00:00,12.951913,77.539784,SO2,5,8,7
India,Karnataka,Bengaluru,"Hombegowda Nagar, Bengaluru - KSPCB",19-05-2024 11:00:00,12.938539,77.590100,NO2,12,24,18
India,Karnataka,Bengaluru,"Jayanagar 5th Block, Bengaluru - KSPCB",19-05-2024 11:00:00,12.920984,77.584908,NO2,17,33,21
India,Karnataka,Bengaluru,"Jayanagar 5th Block, Bengaluru - KSPCB",19-05-2024 11:00:00,12.920984,77.584908,SO2,11,21,17
India,Karnataka,Bengaluru,"Kasturi Nagar, Bengaluru - KSPCB",19-05-2024 11:00:00,13.003872,77.664217,CO,25,26,25
India,Karnataka,Bengaluru,"RVCE-Mailasandra, Bengaluru - KSPCB",19-05-2024 11:00:00,12.921418,77.502466,NO2,16,17,17
India,Karnataka,Bengaluru,"Shivapura_Peenya, Bengaluru - KSPCB",19-05-2024 11:00:00,13.0246342,77.5080115,PM10,40,93,66
India,Karnataka,Bengaluru,"Shivapura_Peenya, Bengaluru - KSPCB",19-05-2024 11:00:00,13.0246342,77.5080115,OZONE,53,56,55
India,Karnataka,Bidar,"Naubad, Bidar - KSPCB",19-05-2024 11:00:00,17.930306,77.482194,NH3,3,3,3
India,Karnataka,Chamarajanagar,"Urban, Chamarajanagar - KSPCB",19-05-2024 11:00:00,11.55358,76.55521,NO2,23,35,29
India,Karnataka,Chikkaballapur,"Chikkaballapur Rural, Chikkaballapur - KSPCB",19-05-2024 11:00:00,13.428828,77.731418,PM10,5,50,26
India,Karnataka,Chikkamagaluru,"Kalyana Nagara, Chikkamagaluru - KSPCB",19-05-2024 11:00:00,13.328028,75.797056,SO2,1,5,2
India,Karnataka,Davanagere,"Devaraj Urs Badavane, Davanagere - KSPCB",19-05-2024 11:00:00,14.475800,75.905200,SO2,1,94,9
India,Karnataka,Dharwad,"Kalabhavan, Dharwad - KSPCB",19-05-2024 11:00:00,15.459706,75.008381,NH3,NA,NA,NA
India,Karnataka,Gadag,"Panchal Nagar, Gadag - KSPCB",19-05-2024 11:00:00,15.411456,75.638133,PM2.5,NA,NA,NA
India,Karnataka,Gadag,"Panchal Nagar, Gadag - KSPCB",19-05-2024 11:00:00,15.411456,75.638133,CO,48,51,50
India,Karnataka,Hassan,"B.Katihalli, Hassan - KSPCB",19-05-2024 11:00:00,13.008556,76.125258,SO2,NA,NA,NA
India,Karnataka,Hassan,"B.Katihalli, Hassan - KSPCB",19-05-2024 11:00:00,13.008556,76.125258,CO,NA,NA,NA
India,Karnataka,Haveri,"Ashwini Nagar, Haveri - KSPCB",19-05-2024 11:00:00,14.791800,75.389600,PM10,NA,NA,NA
India,Karnataka,Hubballi,"Lingaraj Nagar, Hubballi - KSPCB",19-05-2024 11:00:00,15.3714823,75.1160168,NH3,2,2,2
India,Karnataka,Kalaburagi,"Lal Bahadur Shastri Nagar, Kalaburagi - KSPCB",19-05-2024 11:00:00,17.321993,76.822628,PM2.5,NA,NA,NA
India,Karnataka,Kalaburagi,"Lal Bahadur Shastri Nagar, Kalaburagi - KSPCB",19-05-2024 11:00:00,17.321993,76.822628,NO2,NA,NA,NA
India,Karnataka,Kalaburagi,"Lal Bahadur Shastri Nagar, Kalaburagi - KSPCB",19-05-2024 11:00:00,17.321993,76.822628,OZONE,10,93,17
India,Karnataka,Kalaburagi,"Mahatma Basaveswar Colony, Kalaburgi - KSPCB",19-05-2024 11:00:00,17.336318,76.847397,PM10,NA,NA,NA
India,Karnataka,Kalaburagi,"Mahatma Basaveswar Colony, Kalaburgi - KSPCB",19-05-2024 11:00:00,17.336318,76.847397,NO2,NA,NA,NA
India,Karnataka,Kolar,"Tamaka Ind. Area, Kolar - KSPCB",19-05-2024 11:00:00,13.1276288,78.1570122,NO2,NA,NA,NA
India,Karnataka,Kolar,"Tamaka Ind. Area, Kolar - KSPCB",19-05-2024 11:00:00,13.1276288,78.1570122,CO,6,18,11
India,Karnataka,Koppal,"Diwator Nagar, Koppal - KSPCB",19-05-2024 11:00:00,15.347630,76.181767,CO,57,58,58
India,Karnataka,Madikeri,"Stuart Hill, Madikeri - KSPCB",19-05-2024 11:00:00,12.415911,75.735050,NO2,2,9,4
India,Karnataka,Madikeri,"Stuart Hill, Madikeri - KSPCB",19-05-2024 11:00:00,12.415911,75.735050,SO2,4,4,4
India,Karnataka,Mangalore,"Kadri, Mangalore - KSPCB",19-05-2024 11:00:00,12.889250,74.853000,OZONE,30,35,31
India,Karnataka,Mysuru,"Hebbal 1st Stage, Mysuru - KSPCB",19-05-2024 11:00:00,12.21041,76.37376,NO2,NA,NA,NA
India,Karnataka,Mysuru,"Hebbal 1st Stage, Mysuru - KSPCB",19-05-2024 11:00:00,12.21041,76.37376,OZONE,NA,NA,NA
India,Karnataka,Raichur,"Haji Colony, Raichur - KSPCB",19-05-2024 11:00:00,16.208139,77.348417,PM2.5,4,32,12
India,Karnataka,Raichur,"Haji Colony, Raichur - KSPCB",19-05-2024 11:00:00,16.208139,77.348417,NH3,1,3,2
India,Karnataka,Ramanagara,"Vijay Nagar, Ramanagara - KSPCB",19-05-2024 11:00:00,12.733409,77.298051,PM2.5,9,42,27
India,Karnataka,Ramanagara,"Vijay Nagar, Ramanagara - KSPCB",19-05-2024 11:00:00,12.733409,77.298051,CO,4,26,17
India,Karnataka,Shivamogga,"Vinoba Nagara, Shivamogga - KSPCB",19-05-2024 11:00:00,13.940000,75.555917,PM10,39,70,49
India,Karnataka,Vijayapura,"Ibrahimpur, Vijayapura - KSPCB",19-05-2024 11:00:00,16.802639,75.722694,PM10,41,44,42
India,Karnataka,Vijayapura,"Ibrahimpur, Vijayapura - KSPCB",19-05-2024 11:00:00,16.802639,75.722694,CO,12,50,38
India,Karnataka,Yadgir,"Collector Office, Yadgir - KSPCB",19-05-2024 11:00:00,16.7602,77.1428,PM2.5,4,37,19
India,Karnataka,Yadgir,"Collector Office, Yadgir - KSPCB",19-05-2024 11:00:00,16.7602,77.1428,NO2,2,12,5
India,Kerala,Kannur,"Thavakkara, Kannur - Kerala PCB",19-05-2024 11:00:00,11.875000,75.373200,NO2,6,7,6
India,Kerala,Kannur,"Thavakkara, Kannur - Kerala PCB",19-05-2024 11:00:00,11.875000,75.373200,NH3,1,1,1
India,Kerala,Kannur,"Thavakkara, Kannur - Kerala PCB",19-05-2024 11:00:00,11.875000,75.373200,OZONE,31,36,32
India,Kerala,Kollam,"Polayathode, Kollam - Kerala PCB",19-05-2024 11:00:00,8.8787,76.6073,SO2,NA,NA,NA
India,Kerala,Thiruvananthapuram,"Kariavattom, Thiruvananthapuram - Kerala PCB",19-05-2024 11:00:00,8.563700,76.886500,NH3,1,1,1
India,Kerala,Thiruvananthapuram,"Kariavattom, Thiruvananthapuram - Kerala PCB",19-05-2024 11:00:00,8.563700,76.886500,OZONE,28,32,30
India,Kerala,Thrissur,"Corporation Ground, Thrissur - Kerala PCB",19-05-2024 11:00:00,10.532400,76.215900,PM2.5,43,52,48
India,Kerala,Thrissur,"Corporation Ground, Thrissur - Kerala PCB",19-05-2024 11:00:00,10.532400,76.215900,PM10,58,70,65
India,Kerala,Thrissur,"Corporation Ground, Thrissur - Kerala PCB",19-05-2024 11:00:00,10.532400,76.215900,SO2,1,3,1
India,Madhya Pradesh,Bhopal,"Paryavaran Parisar, Bhopal - MPPCB",19-05-2024 11:00:00,23.210494,77.425409,PM10,49,110,83
India,Madhya Pradesh,Bhopal,"Paryavaran Parisar, Bhopal - MPPCB",19-05-2024 11:00:00,23.210494,77.425409,SO2,8,12,10
India,Madhya Pradesh,Bhopal,"Paryavaran Parisar, Bhopal - MPPCB",19-05-2024 11:00:00,23.210494,77.425409,OZONE,64,131,74
India,Madhya Pradesh,Dewas,"Bhopal Chauraha, Dewas - MPPCB",19-05-2024 11:00:00,22.9682591,76.064118,NO2,12,15,13
India,Madhya Pradesh,Gwalior,"City Center, Gwalior - MPPCB",19-05-2024 11:00:00,26.203442,78.193251,OZONE,1,54,20
India,Madhya Pradesh,Gwalior,"Deen Dayal Nagar, Gwalior - MPPCB",19-05-2024 11:00:00,26.259242,78.216432,PM2.5,42,323,142
India,Madhya Pradesh,Gwalior,"Maharaj Bada, Gwalior - MPPCB",19-05-2024 11:00:00,26.200388,78.147714,OZONE,24,180,162
India,Madhya Pradesh,Indore,"Chhoti Gwaltoli, Indore - MPPCB",19-05-2024 11:00:00,22.4310,75.5213,SO2,10,32,18
India,Madhya Pradesh,Indore,"Maguda Nagar, Indore - IMC",19-05-2024 11:00:00,22.7524,75.8872,SO2,37,39,38
India,Madhya Pradesh,Indore,"Regional Park, Indore - IMC",19-05-2024 11:00:00,22.6780,75.8559,OZONE,13,29,17
India,Madhya Pradesh,Indore,"Residency Area, Indore - IMC",19-05-2024 11:00:00,22.7084,75.8815,PM10,20,71,43
India,Madhya Pradesh,Indore,"Residency Area, Indore - IMC",19-05-2024 11:00:00,22.7084,75.8815,NO2,29,48,38
India,Madhya Pradesh,Indore,"Residency Area, Indore - IMC",19-05-2024 11:00:00,22.7084,75.8815,SO2,26,33,29
India,Madhya Pradesh,Indore,"Residency Area, Indore - IMC",19-05-2024 11:00:00,22.7084,75.8815,CO,12,14,12
India,Madhya Pradesh,Jabalpur,"Gupteshwar, Jabalpur - JMC",19-05-2024 11:00:00,23.142888,79.916147,PM10,29,108,53
India,Madhya Pradesh,Jabalpur,"Gupteshwar, Jabalpur - JMC",19-05-2024 11:00:00,23.142888,79.916147,OZONE,42,179,58
India,Madhya Pradesh,Jabalpur,"Marhatal, Jabalpur - MPPCB",19-05-2024 11:00:00,23.168606,79.932247,PM2.5,20,78,42
India,Madhya Pradesh,Jabalpur,"Marhatal, Jabalpur - MPPCB",19-05-2024 11:00:00,23.168606,79.932247,SO2,5,32,12
India,Madhya Pradesh,Jabalpur,"Suhagi, Jabalpur - JMC",19-05-2024 11:00:00,23.218135,79.957770,CO,10,105,11
India,Madhya Pradesh,Jabalpur,"Suhagi, Jabalpur - JMC",19-05-2024 11:00:00,23.218135,79.957770,OZONE,28,221,67
India,Madhya Pradesh,Maihar,"Sahilara, Maihar - KJS Cements",19-05-2024 11:00:00,24.2613009,80.7231783,PM10,10,87,49
India,Madhya Pradesh,Maihar,"Sahilara, Maihar - KJS Cements",19-05-2024 11:00:00,24.2613009,80.7231783,SO2,12,14,13
India,Madhya Pradesh,Maihar,"Sahilara, Maihar - KJS Cements",19-05-2024 11:00:00,24.2613009,80.7231783,CO,39,50,46
India,Madhya Pradesh,Sagar,"Civil Lines, Sagar - MPPCB",19-05-2024 11:00:00,23.838586,78.759431,CO,2,29,18
India,Madhya Pradesh,Sagar,"Civil Lines, Sagar - MPPCB",19-05-2024 11:00:00,23.838586,78.759431,OZONE,20,158,45
India,Madhya Pradesh,Satna,"Bandhavgar Colony, Satna - Birla Cement",19-05-2024 11:00:00,24.58434363,80.8549414,SO2,1,3,1
India,Madhya Pradesh,Singrauli,"Suryakiran Bhawan NCL, Singrauli - MPPCB",19-05-2024 11:00:00,24.108970,82.645580,NH3,3,4,4
India,Madhya Pradesh,Singrauli,"Suryakiran Bhawan NCL, Singrauli - MPPCB",19-05-2024 11:00:00,24.108970,82.645580,OZONE,13,87,34
