country,state,city,station,last_update,latitude,longitude,pollutant_id,pollutant_min,pollutant_max,pollutant_avg
India,Andhra_Pradesh,Amaravati,"Secretariat, Amaravati - APPCB",11-05-2024 17:00:00,16.5150833,80.5181667,CO,18,128,36
India,Andhra_Pradesh,Anantapur,"Gulzarpet, Anantapur - APPCB",11-05-2024 17:00:00,14.675886,77.593027,NO2,12,13,13
India,Andhra_Pradesh,Anantapur,"Gulzarpet, Anantapur - APPCB",11-05-2024 17:00:00,14.675886,77.593027,NH3,4,4,4
India,Andhra_Pradesh,Kadapa,"Yerramukkapalli, Kadapa - APPCB",11-05-2024 17:00:00,14.465052,78.824187,NH3,3,3,3
India,Andhra_Pradesh,Rajamahendravaram,"Anand Kala Kshetram, Rajamahendravaram - APPCB",11-05-2024 17:00:00,16.9872867,81.7363176,PM2.5,5,66,17
India,Andhra_Pradesh,Rajamahendravaram,"Anand Kala Kshetram, Rajamahendravaram - APPCB",11-05-2024 17:00:00,16.9872867,81.7363176,NO2,8,38,23
India,Andhra_Pradesh,Tirupati,"Tirumala, Tirupati - APPCB",11-05-2024 17:00:00,13.67,79.35,PM2.5,5,43,22
India,Andhra_Pradesh,Vijayawada,"Kanuru, Vijayawada - APPCB",11-05-2024 17:00:00,16.486692,80.699436,PM2.5,46,64,57
India,Andhra_Pradesh,Visakhapatnam,"GVM Corporation, Visakhapatnam - APPCB",11-05-2024 17:00:00,17.72,83.3,SO2,9,15,12
India,Assam,Byrnihat,"Central Academy for SFS, Byrnihat - PCBA",11-05-2024 17:00:00,26.071318,91.87488,PM10,31,495,204
India,Assam,Guwahati,"IITG, Guwahati - PCBA",11-05-2024 17:00:00,26.2028636,91.70046436,CO,8,12,9
India,Assam,Guwahati,"LGBI Airport, Guwahati - PCBA",11-05-2024 17:00:00,26.10887,91.589544,PM2.5,15,500,101
India,Assam,Guwahati,"LGBI Airport, Guwahati - PCBA",11-05-2024 17:00:00,26.10887,91.589544,CO,32,69,46
India,Assam,Guwahati,"Pan Bazaar, Guwahati - PCBA",11-05-2024 17:00:00,26.187500,91.744194,PM2.5,14,62,30
India,Assam,Guwahati,"Railway Colony, Guwahati - PCBA",11-05-2024 17:00:00,26.181742,91.78063,PM10,28,128,56
India,Assam,Guwahati,"Railway Colony, Guwahati - PCBA",11-05-2024 17:00:00,26.181742,91.78063,OZONE,6,90,22
India,Assam,Nagaon,"Christianpatty, Nagaon - PCBA",11-05-2024 17:00:00,26.349082,92.68449,PM2.5,58,98,69
India,Assam,Nalbari,"Bata Chowk, Nalbari - PCBA",11-05-2024 17:00:00,26.446912,91.439057,PM10,26,140,71
India,Assam,Nalbari,"Bata Chowk, Nalbari - PCBA",11-05-2024 17:00:00,26.446912,91.439057,NO2,6,23,12
India,Assam,Nalbari,"Bata Chowk, Nalbari - PCBA",11-05-2024 17:00:00,26.446912,91.439057,NH3,1,1,1
India,Bihar,Araria,"Kharahiya Basti, Araria - BSPCB",11-05-2024 17:00:00,26.146529,87.454184,NO2,6,8,7
India,Bihar,Arrah,"New DM Office, Arrah - BSPCB",11-05-2024 17:00:00,25.5626095,84.663264,PM2.5,32,65,47
India,Bihar,Arrah,"New DM Office, Arrah - BSPCB",11-05-2024 17:00:00,25.5626095,84.663264,OZONE,15,56,24
India,Bihar,Aurangabad,"Gurdeo Nagar, Aurangabad - BSPCB",11-05-2024 17:00:00,24.75746,84.366208,PM2.5,45,78,66
India,Bihar,Bettiah,"Kamalnath Nagar, Bettiah - BSPCB",11-05-2024 17:00:00,26.80365,84.51954,NH3,3,7,6
India,Bihar,Bhagalpur,"DM Office_Kachari Chowk, Bhagalpur - BSPCB",11-05-2024 17:00:00,25.251013,86.989001,CO,15,78,63
India,Bihar,Bhagalpur,"Mayaganj, Bhagalpur - BSPCB",11-05-2024 17:00:00,25.265194,87.012947,PM10,65,143,119
India,Bihar,Bhagalpur,"Mayaganj, Bhagalpur - BSPCB",11-05-2024 17:00:00,25.265194,87.012947,SO2,3,12,12
India,Bihar,Bhagalpur,"Mayaganj, Bhagalpur - BSPCB",11-05-2024 17:00:00,25.265194,87.012947,CO,8,10,9
India,Bihar,Buxar,"Charitra Van, Buxar - BSPCB (Formerly known as Central Jail)",11-05-2024 17:00:00,25.567520,83.966379,PM2.5,107,280,178
India,Bihar,Buxar,"Charitra Van, Buxar - BSPCB (Formerly known as Central Jail)",11-05-2024 17:00:00,25.567520,83.966379,NO2,1,1,1
India,Bihar,Buxar,"Charitra Van, Buxar - BSPCB (Formerly known as Central Jail)",11-05-2024 17:00:00,25.567520,83.966379,CO,53,83,68
India,Bihar,Chhapra,"Darshan Nagar, Chhapra - BSPCB",11-05-2024 17:00:00,25.7808257,84.7446768,NO2,14,27,20
India,Bihar,Chhapra,"Darshan Nagar, Chhapra - BSPCB",11-05-2024 17:00:00,25.7808257,84.7446768,OZONE,1,6,2
India,Bihar,Gaya,"Collectorate, Gaya - BSPCB",11-05-2024 17:00:00,24.7955,84.9994,PM2.5,45,208,108
India,Bihar,Gaya,"Collectorate, Gaya - BSPCB",11-05-2024 17:00:00,24.7955,84.9994,SO2,10,25,17
India,Bihar,Gaya,"Kareemganj, Gaya - BSPCB",11-05-2024 17:00:00,24.792403,84.992416,NO2,30,31,31
India,Bihar,Hajipur,"Industrial Area, Hajipur - BSPCB",11-05-2024 17:00:00,25.697189,85.245900,NO2,9,36,13
India,Bihar,Hajipur,"Industrial Area, Hajipur - BSPCB",11-05-2024 17:00:00,25.697189,85.245900,OZONE,11,21,15
India,Bihar,Katihar,"Mirchaibari, Katihar - BSPCB",11-05-2024 17:00:00,25.560083,87.553265,OZONE,11,17,15
India,Bihar,Kishanganj,"SDM Office_Khagra, Kishanganj - BSPCB",11-05-2024 17:00:00,26.0881305,87.93840336,OZONE,28,64,44
India,Bihar,Manguraha,"Forest Rest House, Manguraha - BSPCB",11-05-2024 17:00:00,27.308328,84.531742,PM2.5,30,60,46
India,Bihar,Manguraha,"Forest Rest House, Manguraha - BSPCB",11-05-2024 17:00:00,27.308328,84.531742,NO2,21,26,24
India,Bihar,Motihari,"Gandak Colony, Motihari - BSPCB",11-05-2024 17:00:00,26.63086,84.90051,PM2.5,NA,NA,NA
India,Bihar,Motihari,"Gandak Colony, Motihari - BSPCB",11-05-2024 17:00:00,26.63086,84.90051,PM10,NA,NA,NA
India,Bihar,Munger,"Town Hall, Munger - BSPCB",11-05-2024 17:00:00,25.376776,86.471523,NO2,4,6,5
India,Bihar,Muzaffarpur,"Buddha Colony, Muzaffarpur - BSPCB",11-05-2024 17:00:00,26.11442,85.39813,SO2,4,13,7
India,Bihar,Muzaffarpur,"Muzaffarpur Collectorate, Muzaffarpur - BSPCB",11-05-2024 17:00:00,26.1209,85.3647,CO,28,60,39
India,Bihar,Patna,"DRM Office Danapur, Patna - BSPCB",11-05-2024 17:00:00,25.586562,85.043586,SO2,9,12,10
India,Bihar,Patna,"Muradpur, Patna - BSPCB",11-05-2024 17:00:00,25.619651,85.147382,NO2,4,41,20
India,Bihar,Patna,"Muradpur, Patna - BSPCB",11-05-2024 17:00:00,25.619651,85.147382,SO2,5,7,6
India,Bihar,Patna,"Muradpur, Patna - BSPCB",11-05-2024 17:00:00,25.619651,85.147382,OZONE,29,32,31
India,Bihar,Patna,"Rajbansi Nagar, Patna - BSPCB",11-05-2024 17:00:00,25.599486,85.113666,OZONE,20,96,60
India,Bihar,Rajgir,"Dangi Tola, Rajgir - BSPCB",11-05-2024 17:00:00,25.03280,85.41948,NO2,16,19,18
India,Bihar,Rajgir,"Dangi Tola, Rajgir - BSPCB",11-05-2024 17:00:00,25.03280,85.41948,NH3,2,3,3
India,Bihar,Sasaram,"Dada Peer, Sasaram - BSPCB",11-05-2024 17:00:00,24.952822,84.002396,NH3,4,21,13
India,Chandigarh,Chandigarh,"Sector 22, Chandigarh - CPCC",11-05-2024 17:00:00,30.735567,76.775714,PM2.5,50,217,101
India,Chandigarh,Chandigarh,"Sector 22, Chandigarh - CPCC",11-05-2024 17:00:00,30.735567,76.775714,OZONE,76,266,195
India,Chandigarh,Chandigarh,"Sector-53, Chandigarh - CPCC",11-05-2024 17:00:00,30.719859,76.738637,PM10,100,447,219
India,Chhattisgarh,Bhilai,"Hathkhoj, Bhilai - CECB",11-05-2024 17:00:00,21.224231,81.408350,PM2.5,11,80,37
India,Chhattisgarh,Chhal,"Nawapara SECL Colony, Chhal - CECB",11-05-2024 17:00:00,22.118125,83.140608,PM2.5,28,75,52
India,Chhattisgarh,Korba,"Rampur, Korba - CECB",11-05-2024 17:00:00,22.368195,82.746431,PM10,39,65,52
India,Chhattisgarh,Korba,"Urja Nagar, Korba - CECB",11-05-2024 17:00:00,22.348441,82.549611,PM10,27,183,69
India,Chhattisgarh,Kunjemura,"OP Jindal School, Kunjemura - CECB",11-05-2024 17:00:00,22.126650,83.483212,PM2.5,35,89,55
India,Chhattisgarh,Kunjemura,"OP Jindal School, Kunjemura - CECB",11-05-2024 17:00:00,22.126650,83.483212,NH3,1,11,3
India,Chhattisgarh,Kunjemura,"OP Jindal School, Kunjemura - CECB",11-05-2024 17:00:00,22.126650,83.483212,OZONE,4,66,30
India,Chhattisgarh,Raipur,"AIIMS, Raipur - CECB",11-05-2024 17:00:00,21.258815,81.578979,PM2.5,NA,NA,NA
India,Chhattisgarh,Raipur,"AIIMS, Raipur - CECB",11-05-2024 17:00:00,21.258815,81.578979,PM10,NA,NA,NA
India,Chhattisgarh,Raipur,"AIIMS, Raipur - CECB",11-05-2024 17:00:00,21.258815,81.578979,NH3,NA,NA,NA
India,Chhattisgarh,Raipur,"AIIMS, Raipur - CECB",11-05-2024 17:00:00,21.258815,81.578979,SO2,NA,NA,NA
India,Chhattisgarh,Raipur,"Krishak Nagar, Raipur - CECB",11-05-2024 17:00:00,21.237755,81.705301,PM2.5,19,33,25
India,Chhattisgarh,Raipur,"Siltara Phase-II, Raipur - CECB",11-05-2024 17:00:00,21.371751,81.664929,NH3,3,3,3
India,Chhattisgarh,Raipur,"Siltara Phase-II, Raipur - CECB",11-05-2024 17:00:00,21.371751,81.664929,CO,30,65,36
India,Chhattisgarh,Tumidih,"OP Jindal Industrial Park, Tumidih - CECB",11-05-2024 17:00:00,22.06631475,83.33820077,PM2.5,42,83,65
India,Chhattisgarh,Tumidih,"OP Jindal Industrial Park, Tumidih - CECB",11-05-2024 17:00:00,22.06631475,83.33820077,NH3,1,1,1
India,Chhattisgarh,Tumidih,"OP Jindal Industrial Park, Tumidih - CECB",11-05-2024 17:00:00,22.06631475,83.33820077,CO,9,70,19
India,Delhi,Delhi,"Alipur, Delhi - DPCC",11-05-2024 17:00:00,28.815329,77.153010,PM10,NA,NA,NA
India,Delhi,Delhi,"Alipur, Delhi - DPCC",11-05-2024 17:00:00,28.815329,77.153010,SO2,NA,NA,NA
India,Delhi,Delhi,"Alipur, Delhi - DPCC",11-05-2024 17:00:00,28.815329,77.153010,CO,38,62,39
India,Delhi,Delhi,"Anand Vihar, Delhi - DPCC",11-05-2024 17:00:00,28.647622,77.3158090,PM10,NA,NA,NA
India,Delhi,Delhi,"Anand Vihar, Delhi - DPCC",11-05-2024 17:00:00,28.647622,77.3158090,OZONE,5,80,80
India,Delhi,Delhi,"Ashok Vihar, Delhi - DPCC",11-05-2024 17:00:00,28.695381,77.181665,OZONE,47,192,166
India,Delhi,Delhi,"Aya Nagar, Delhi - IMD",11-05-2024 17:00:00,28.4706914,77.1099364,OZONE,23,82,60
India,Delhi,Delhi,"Burari Crossing, Delhi - IMD",11-05-2024 17:00:00,28.7256504,77.2011573,PM2.5,15,390,101
India,Delhi,Delhi,"Burari Crossing, Delhi - IMD",11-05-2024 17:00:00,28.7256504,77.2011573,PM10,53,408,213
India,Delhi,Delhi,"Burari Crossing, Delhi - IMD",11-05-2024 17:00:00,28.7256504,77.2011573,NO2,9,11,10
India,Delhi,Delhi,"Burari Crossing, Delhi - IMD",11-05-2024 17:00:00,28.7256504,77.2011573,CO,32,42,38
India,Delhi,Delhi,"Chandni Chowk, Delhi - IITM",11-05-2024 17:00:00,28.656756,77.227234,OZONE,10,14,11
India,Delhi,Delhi,"Dr. Karni Singh Shooting Range, Delhi - DPCC",11-05-2024 17:00:00,28.498571,77.264840,PM10,44,438,215
India,Delhi,Delhi,"Dr. Karni Singh Shooting Range, Delhi - DPCC",11-05-2024 17:00:00,28.498571,77.264840,OZONE,68,246,171
India,Delhi,Delhi,"IGI Airport (T3), Delhi - IMD",11-05-2024 17:00:00,28.5627763,77.1180053,OZONE,10,71,51
India,Delhi,Delhi,"IHBAS, Dilshad Garden, Delhi - CPCB",11-05-2024 17:00:00,28.6811736,77.3025234,SO2,NA,NA,NA
India,Delhi,Delhi,"ITO, Delhi - CPCB",11-05-2024 17:00:00,28.628624,77.241060,PM10,13,500,145
India,Delhi,Delhi,"ITO, Delhi - CPCB",11-05-2024 17:00:00,28.628624,77.241060,NO2,6,58,30
India,Delhi,Delhi,"Jahangirpuri, Delhi - DPCC",11-05-2024 17:00:00,28.732820,77.170633,PM2.5,21,248,123
India,Delhi,Delhi,"Jahangirpuri, Delhi - DPCC",11-05-2024 17:00:00,28.732820,77.170633,PM10,44,453,240
India,Delhi,Delhi,"Jahangirpuri, Delhi - DPCC",11-05-2024 17:00:00,28.732820,77.170633,SO2,17,45,33
India,Delhi,Delhi,"Lodhi Road, Delhi - IITM",11-05-2024 17:00:00,28.588333,77.221667,PM2.5,43,500,198
India,Delhi,Delhi,"Lodhi Road, Delhi - IITM",11-05-2024 17:00:00,28.588333,77.221667,SO2,14,31,22
India,Delhi,Delhi,"Lodhi Road, Delhi - IMD",11-05-2024 17:00:00,28.5918245,77.2273074,OZONE,22,79,53
India,Delhi,Delhi,"Mundka, Delhi - DPCC",11-05-2024 17:00:00,28.684678,77.076574,PM2.5,15,420,147
India,Delhi,Delhi,"Mundka, Delhi - DPCC",11-05-2024 17:00:00,28.684678,77.076574,PM10,50,454,253
India,Delhi,Delhi,"Mundka, Delhi - DPCC",11-05-2024 17:00:00,28.684678,77.076574,SO2,7,16,11
India,Delhi,Delhi,"NSIT Dwarka, Delhi - CPCB",11-05-2024 17:00:00,28.60909,77.0325413,SO2,NA,NA,NA
India,Delhi,Delhi,"Narela, Delhi - DPCC",11-05-2024 17:00:00,28.822836,77.101981,PM10,49,494,192
India,Delhi,Delhi,"Narela, Delhi - DPCC",11-05-2024 17:00:00,28.822836,77.101981,SO2,5,22,12
India,Delhi,Delhi,"North Campus, DU, Delhi - IMD",11-05-2024 17:00:00,28.6573814,77.1585447,PM10,NA,NA,NA
India,Delhi,Delhi,"Okhla Phase-2, Delhi - DPCC",11-05-2024 17:00:00,28.530785,77.271255,NO2,21,104,42
India,Delhi,Delhi,"Okhla Phase-2, Delhi - DPCC",11-05-2024 17:00:00,28.530785,77.271255,OZONE,22,253,173
India,Delhi,Delhi,"Patparganj, Delhi - DPCC",11-05-2024 17:00:00,28.623763,77.287209,CO,44,99,71
India,Delhi,Delhi,"Pusa, Delhi - DPCC",11-05-2024 17:00:00,28.639652,77.146275,NH3,5,8,7
India,Delhi,Delhi,"Pusa, Delhi - DPCC",11-05-2024 17:00:00,28.639652,77.146275,SO2,5,18,10
India,Delhi,Delhi,"Pusa, Delhi - DPCC",11-05-2024 17:00:00,28.639652,77.146275,OZONE,20,241,155
India,Delhi,Delhi,"Pusa, Delhi - IMD",11-05-2024 17:00:00,28.636110,77.173332,NO2,NA,NA,NA
India,Delhi,Delhi,"R K Puram, Delhi - DPCC",11-05-2024 17:00:00,28.563262,77.186937,CO,1,139,72
India,Delhi,Delhi,"Shadipur, Delhi - CPCB",11-05-2024 17:00:00,28.6514781,77.1473105,SO2,3,26,14
India,Delhi,Delhi,"Sirifort, Delhi - CPCB",11-05-2024 17:00:00,28.5504249,77.2159377,NH3,21,22,22
India,Delhi,Delhi,"Sonia Vihar, Delhi - DPCC",11-05-2024 17:00:00,28.710508,77.249485,PM2.5,15,192,95
India,Delhi,Delhi,"Sonia Vihar, Delhi - DPCC",11-05-2024 17:00:00,28.710508,77.249485,NO2,14,59,28
India,Delhi,Delhi,"Sonia Vihar, Delhi - DPCC",11-05-2024 17:00:00,28.710508,77.249485,SO2,5,38,15
India,Delhi,Delhi,"Sri Aurobindo Marg, Delhi - DPCC",11-05-2024 17:00:00,28.531346,77.190156,NH3,8,11,9
India,Delhi,Delhi,"Sri Aurobindo Marg, Delhi - DPCC",11-05-2024 17:00:00,28.531346,77.190156,SO2,8,22,14
India,Delhi,Delhi,"Vivek Vihar, Delhi - DPCC",11-05-2024 17:00:00,28.672342,77.315260,CO,28,55,30
India,Delhi,Delhi,"Vivek Vihar, Delhi - DPCC",11-05-2024 17:00:00,28.672342,77.315260,OZONE,63,167,137
India,Delhi,Delhi,"Wazirpur, Delhi - DPCC",11-05-2024 17:00:00,28.699793,77.165453,PM2.5,27,307,143
India,Delhi,Delhi,"Wazirpur, Delhi - DPCC",11-05-2024 17:00:00,28.699793,77.165453,NH3,3,6,5
India,Gujarat,Ahmedabad,"Chandkheda, Ahmedabad - IITM",11-05-2024 17:00:00,23.107969,72.574648,NO2,12,24,23
India,Gujarat,Ahmedabad,"Chandkheda, Ahmedabad - IITM",11-05-2024 17:00:00,23.107969,72.574648,CO,18,52,33
India,Gujarat,Ahmedabad,"Chandkheda, Ahmedabad - IITM",11-05-2024 17:00:00,23.107969,72.574648,OZONE,29,91,52
India,Gujarat,Ahmedabad,"Gyaspur, Ahmedabad - IITM",11-05-2024 17:00:00,22.977134,72.553024,PM2.5,72,254,117
India,Gujarat,Ahmedabad,"Raikhad, Ahmedabad - IITM",11-05-2024 17:00:00,23.020509,72.579261,PM10,NA,NA,NA
India,Gujarat,Ahmedabad,"Raikhad, Ahmedabad - IITM",11-05-2024 17:00:00,23.020509,72.579261,SO2,NA,NA,NA
India,Gujarat,Ahmedabad,"Raikhad, Ahmedabad - IITM",11-05-2024 17:00:00,23.020509,72.579261,OZONE,8,82,39
India,Gujarat,Ahmedabad,"Rakhial, Ahmedabad - IITM",11-05-2024 17:00:00,23.016834,72.625775,SO2,3,16,10
India,Gujarat,Ahmedabad,"SVPI Airport Hansol, Ahmedabad - IITM",11-05-2024 17:00:00,23.076793,72.627874,CO,62,86,70
India,Gujarat,Ahmedabad,"SVPI Airport Hansol, Ahmedabad - IITM",11-05-2024 17:00:00,23.076793,72.627874,OZONE,14,101,49
India,Gujarat,Ahmedabad,"Sardar Vallabhbhai Patel Stadium, Ahmedabad - IITM",11-05-2024 17:00:00,23.043070,72.562968,CO,42,62,47
India,Gujarat,Ankleshwar,"GIDC, Ankleshwar - GPCB",11-05-2024 17:00:00,21.613267,73.010555,PM2.5,39,90,61
India,Gujarat,Ankleshwar,"GIDC, Ankleshwar - GPCB",11-05-2024 17:00:00,21.613267,73.010555,PM10,44,88,63
India,Gujarat,Ankleshwar,"GIDC, Ankleshwar - GPCB",11-05-2024 17:00:00,21.613267,73.010555,NH3,6,6,6
India,Gujarat,Ankleshwar,"GIDC, Ankleshwar - GPCB",11-05-2024 17:00:00,21.613267,73.010555,OZONE,20,38,30
India,Gujarat,Gandhinagar,"Sector-10, Gandhinagar - GPCB",11-05-2024 17:00:00,23.221714,72.654328,PM2.5,26,52,39
India,Gujarat,Gandhinagar,"Sector-10, Gandhinagar - GPCB",11-05-2024 17:00:00,23.221714,72.654328,PM10,30,91,55
India,Gujarat,Gandhinagar,"Sector-10, Gandhinagar - GPCB",11-05-2024 17:00:00,23.221714,72.654328,NO2,20,23,21
India,Gujarat,Vapi,"Phase-1 GIDC, Vapi - GPCB",11-05-2024 17:00:00,20.362421,72.918013,PM10,NA,NA,NA
India,Gujarat,Vatva,"Phase-4 GIDC, Vatva - GPCB",11-05-2024 17:00:00,22.969611,72.643500,NO2,10,59,36
India,Gujarat,Vatva,"Phase-4 GIDC, Vatva - GPCB",11-05-2024 17:00:00,22.969611,72.643500,SO2,6,30,16
India,Haryana,Ambala,"Patti Mehar, Ambala - HSPCB",11-05-2024 17:00:00,30.379589,76.778328,PM2.5,34,110,62
India,Haryana,Bahadurgarh,"Arya Nagar, Bahadurgarh - HSPCB",11-05-2024 17:00:00,28.6701,76.9254,PM10,133,500,276
India,Haryana,Bahadurgarh,"Arya Nagar, Bahadurgarh - HSPCB",11-05-2024 17:00:00,28.6701,76.9254,NO2,20,26,22
India,Haryana,Bahadurgarh,"Arya Nagar, Bahadurgarh - HSPCB",11-05-2024 17:00:00,28.6701,76.9254,CO,96,102,99
India,Haryana,Ballabgarh,"Nathu Colony, Ballabgarh - HSPCB",11-05-2024 17:00:00,28.3419248,77.319699,PM10,95,95,95
India,Haryana,Ballabgarh,"Nathu Colony, Ballabgarh - HSPCB",11-05-2024 17:00:00,28.3419248,77.319699,NO2,7,14,12
India,Haryana,Charkhi Dadri,"Mini Secretariat, Charkhi Dadri - HSPCB",11-05-2024 17:00:00,28.593883,76.270653,PM2.5,40,500,250
India,Haryana,Charkhi Dadri,"Mini Secretariat, Charkhi Dadri - HSPCB",11-05-2024 17:00:00,28.593883,76.270653,NO2,14,24,18
India,Haryana,Faridabad,"New Industrial Town, Faridabad - HSPCB",11-05-2024 17:00:00,28.39072,77.30059,PM2.5,NA,NA,NA
India,Haryana,Faridabad,"New Industrial Town, Faridabad - HSPCB",11-05-2024 17:00:00,28.39072,77.30059,CO,NA,NA,NA
India,Haryana,Faridabad,"Sector 11, Faridabad - HSPCB",11-05-2024 17:00:00,28.376058,77.315741,PM10,82,470,261
India,Haryana,Faridabad,"Sector 30, Faridabad - HSPCB",11-05-2024 17:00:00,28.4417,77.3217,NO2,NA,NA,NA
India,Haryana,Faridabad,"Sector- 16A, Faridabad - HSPCB",11-05-2024 17:00:00,28.4088421,77.3099081,NO2,NA,NA,NA
India,Haryana,Fatehabad,"Huda Sector, Fatehabad - HSPCB",11-05-2024 17:00:00,29.503664,75.467934,PM2.5,NA,NA,NA
India,Haryana,Fatehabad,"Huda Sector, Fatehabad - HSPCB",11-05-2024 17:00:00,29.503664,75.467934,PM10,NA,NA,NA
India,Haryana,Gurugram,"NISE Gwal Pahari, Gurugram - IMD",11-05-2024 17:00:00,28.422681,77.148944,PM2.5,NA,NA,NA
India,Haryana,Gurugram,"Sector-51, Gurugram - HSPCB",11-05-2024 17:00:00,28.4227,77.0667,NO2,13,29,24
India,Haryana,Gurugram,"Sector-51, Gurugram - HSPCB",11-05-2024 17:00:00,28.4227,77.0667,SO2,2,4,3
India,Haryana,Gurugram,"Teri Gram, Gurugram - HSPCB",11-05-2024 17:00:00,28.4275,77.1465,CO,26,52,39
India,Haryana,Gurugram,"Vikas Sadan, Gurugram - HSPCB",11-05-2024 17:00:00,28.4501238,77.0263051,OZONE,8,68,48
India,Haryana,Hisar,"Urban Estate-II, Hisar - HSPCB",11-05-2024 17:00:00,29.140560,75.744941,PM10,34,372,141
India,Haryana,Jind,"Police Lines, Jind - HSPCB",11-05-2024 17:00:00,29.307814,76.337619,PM2.5,NA,NA,NA
India,Haryana,Jind,"Police Lines, Jind - HSPCB",11-05-2024 17:00:00,29.307814,76.337619,OZONE,4,98,41
India,Haryana,Kaithal,"Rishi Nagar, Kaithal - HSPCB",11-05-2024 17:00:00,29.8006,76.4155,PM2.5,50,308,98
India,Haryana,Kaithal,"Rishi Nagar, Kaithal - HSPCB",11-05-2024 17:00:00,29.8006,76.4155,SO2,NA,NA,NA
India,Haryana,Karnal,"Sector-12, Karnal - HSPCB",11-05-2024 17:00:00,29.695300,77.002700,PM2.5,76,207,126
India,Haryana,Karnal,"Sector-12, Karnal - HSPCB",11-05-2024 17:00:00,29.695300,77.002700,NH3,10,13,11
India,Haryana,Karnal,"Sector-12, Karnal - HSPCB",11-05-2024 17:00:00,29.695300,77.002700,SO2,12,13,12
India,Haryana,Karnal,"Sector-12, Karnal - HSPCB",11-05-2024 17:00:00,29.695300,77.002700,CO,12,41,28
India,Haryana,Karnal,"Sector-12, Karnal - HSPCB",11-05-2024 17:00:00,29.695300,77.002700,OZONE,30,36,33
India,Haryana,Kurukshetra,"Sector-7, Kurukshetra - HSPCB",11-05-2024 17:00:00,29.966942,76.875879,PM2.5,36,385,114
India,Haryana,Kurukshetra,"Sector-7, Kurukshetra - HSPCB",11-05-2024 17:00:00,29.966942,76.875879,PM10,37,404,139
India,Haryana,Mandikhera,"General Hospital, Mandikhera - HSPCB",11-05-2024 17:00:00,27.9002,76.9938,PM2.5,6,175,47
India,Haryana,Mandikhera,"General Hospital, Mandikhera - HSPCB",11-05-2024 17:00:00,27.9002,76.9938,SO2,31,36,34
India,Haryana,Manesar,"Sector-2 IMT, Manesar - HSPCB",11-05-2024 17:00:00,28.360699,76.936090,NO2,NA,NA,NA
India,Haryana,Narnaul,"Shastri Nagar, Narnaul - HSPCB",11-05-2024 17:00:00,28.060249,76.113115,PM2.5,55,236,125
India,Haryana,Narnaul,"Shastri Nagar, Narnaul - HSPCB",11-05-2024 17:00:00,28.060249,76.113115,NO2,14,75,49
India,Haryana,Narnaul,"Shastri Nagar, Narnaul - HSPCB",11-05-2024 17:00:00,28.060249,76.113115,NH3,4,24,16
India,Haryana,Narnaul,"Shastri Nagar, Narnaul - HSPCB",11-05-2024 17:00:00,28.060249,76.113115,CO,29,64,36
India,Haryana,Palwal,"Shyam Nagar, Palwal - HSPCB",11-05-2024 17:00:00,28.1485564,77.3320667,PM10,82,180,127
India,Haryana,Panchkula,"Sector-6, Panchkula - HSPCB ",11-05-2024 17:00:00,30.7057778,76.8531805555555,CO,2,49,16
India,Haryana,Panipat,"Sector-18, Panipat - HSPCB",11-05-2024 17:00:00,29.497973,76.993331,PM2.5,NA,NA,NA
India,Haryana,Panipat,"Sector-18, Panipat - HSPCB",11-05-2024 17:00:00,29.497973,76.993331,CO,24,26,25
India,Haryana,Rohtak,"MD University, Rohtak - HSPCB",11-05-2024 17:00:00,28.52123,76.37138,CO,2,100,23
India,Haryana,Sirsa,"F-Block, Sirsa - HSPCB",11-05-2024 17:00:00,29.536400,75.015800,PM10,35,418,103
India,Haryana,Yamuna Nagar,"Gobind Pura, Yamuna Nagar - HSPCB",11-05-2024 17:00:00,30.1480566,77.2893471,NO2,11,29,20
India,Jammu_and_Kashmir,Srinagar,"Rajbagh, Srinagar - JKSPCB",11-05-2024 17:00:00,34.066206,74.819820,OZONE,12,21,14
India,Jharkhand,Dhanbad,"Kalakusuma, Dhanbad - DMC",11-05-2024 17:00:00,23.811548,86.481238,PM10,11,17,14
India,Jharkhand,Dhanbad,"Sardar Patel Nagar, Dhanbad - JSPCB",11-05-2024 17:00:00,23.80569,86.44268,PM2.5,NA,NA,NA
India,Jharkhand,Pathardih,"Mohalbani Ghat, Pathardih - DMC",11-05-2024 17:00:00,23.669880,86.411725,PM10,NA,NA,NA
India,Jharkhand,Pathardih,"Mohalbani Ghat, Pathardih - DMC",11-05-2024 17:00:00,23.669880,86.411725,NO2,NA,NA,NA
India,Karnataka,Bagalkot,"Vidayagiri, Bagalkot - KSPCB",11-05-2024 17:00:00,16.172806,75.659694,PM2.5,25,37,36
India,Karnataka,Bagalkot,"Vidayagiri, Bagalkot - KSPCB",11-05-2024 17:00:00,16.172806,75.659694,CO,20,49,32
India,Karnataka,Belgaum,"Ramteerth Nagar, Belgaum - KSPCB",11-05-2024 17:00:00,15.888653,74.541751,PM2.5,14,36,21
India,Karnataka,Belgaum,"Ramteerth Nagar, Belgaum - KSPCB",11-05-2024 17:00:00,15.888653,74.541751,CO,46,56,51
India,Karnataka,Bengaluru,"Bapuji Nagar, Bengaluru - KSPCB",11-05-2024 17:00:00,12.951913,77.539784,NO2,10,11,10
India,Karnataka,Bengaluru,"Hebbal, Bengaluru - KSPCB",11-05-2024 17:00:00,13.029152,77.585901,SO2,18,27,22
India,Karnataka,Bengaluru,"Hebbal, Bengaluru - KSPCB",11-05-2024 17:00:00,13.029152,77.585901,CO,6,72,26
India,Karnataka,Bengaluru,"Hombegowda Nagar, Bengaluru - KSPCB",11-05-2024 17:00:00,12.938539,77.590100,NO2,13,38,22
India,Karnataka,Bengaluru,"Jayanagar 5th Block, Bengaluru - KSPCB",11-05-2024 17:00:00,12.920984,77.584908,PM2.5,17,80,48
India,Karnataka,Bengaluru,"Jayanagar 5th Block, Bengaluru - KSPCB",11-05-2024 17:00:00,12.920984,77.584908,OZONE,21,23,22
India,Karnataka,Bengaluru,"Kasturi Nagar, Bengaluru - KSPCB",11-05-2024 17:00:00,13.003872,77.664217,NH3,3,4,4
India,Karnataka,Bengaluru,"Kasturi Nagar, Bengaluru - KSPCB",11-05-2024 17:00:00,13.003872,77.664217,OZONE,10,75,62
India,Karnataka,Bengaluru,"Peenya, Bengaluru - CPCB",11-05-2024 17:00:00,13.0270199,77.494094,PM2.5,34,52,44
India,Karnataka,Bengaluru,"Peenya, Bengaluru - CPCB",11-05-2024 17:00:00,13.0270199,77.494094,PM10,44,67,56
India,Karnataka,Bengaluru,"Peenya, Bengaluru - CPCB",11-05-2024 17:00:00,13.0270199,77.494094,NH3,3,4,4
India,Karnataka,Bengaluru,"Shivapura_Peenya, Bengaluru - KSPCB",11-05-2024 17:00:00,13.0246342,77.5080115,NH3,4,4,4
India,Karnataka,Bengaluru,"Shivapura_Peenya, Bengaluru - KSPCB",11-05-2024 17:00:00,13.0246342,77.5080115,OZONE,53,55,55
India,Karnataka,Bidar,"Naubad, Bidar - KSPCB",11-05-2024 17:00:00,17.930306,77.482194,NO2,7,9,8
India,Karnataka,Bidar,"Naubad, Bidar - KSPCB",11-05-2024 17:00:00,17.930306,77.482194,CO,77,103,83
India,Karnataka,Chikkaballapur,"Chikkaballapur Rural, Chikkaballapur - KSPCB",11-05-2024 17:00:00,13.428828,77.731418,NO2,6,14,9
India,Karnataka,Chikkaballapur,"Chikkaballapur Rural, Chikkaballapur - KSPCB",11-05-2024 17:00:00,13.428828,77.731418,OZONE,24,27,26
India,Karnataka,Chikkamagaluru,"Kalyana Nagara, Chikkamagaluru - KSPCB",11-05-2024 17:00:00,13.328028,75.797056,PM10,32,56,42
India,Karnataka,Chikkamagaluru,"Kalyana Nagara, Chikkamagaluru - KSPCB",11-05-2024 17:00:00,13.328028,75.797056,NO2,15,26,20
India,Karnataka,Chikkamagaluru,"Kalyana Nagara, Chikkamagaluru - KSPCB",11-05-2024 17:00:00,13.328028,75.797056,SO2,NA,NA,NA
India,Karnataka,Chikkamagaluru,"Kalyana Nagara, Chikkamagaluru - KSPCB",11-05-2024 17:00:00,13.328028,75.797056,CO,6,120,40
India,Karnataka,Davanagere,"Devaraj Urs Badavane, Davanagere - KSPCB",11-05-2024 17:00:00,14.475800,75.905200,NO2,7,18,13
India,Karnataka,Davanagere,"Devaraj Urs Badavane, Davanagere - KSPCB",11-05-2024 17:00:00,14.475800,75.905200,CO,10,23,19
India,Karnataka,Dharwad,"Kalabhavan, Dharwad - KSPCB",11-05-2024 17:00:00,15.459706,75.008381,CO,23,64,44
India,Karnataka,Dharwad,"Kalabhavan, Dharwad - KSPCB",11-05-2024 17:00:00,15.459706,75.008381,OZONE,2,18,11
India,Karnataka,Gadag,"Panchal Nagar, Gadag - KSPCB",11-05-2024 17:00:00,15.411456,75.638133,NH3,2,3,2
India,Karnataka,Hassan,"B.Katihalli, Hassan - KSPCB",11-05-2024 17:00:00,13.008556,76.125258,NH3,4,5,4
India,Karnataka,Hassan,"B.Katihalli, Hassan - KSPCB",11-05-2024 17:00:00,13.008556,76.125258,SO2,69,118,98
India,Karnataka,Haveri,"Ashwini Nagar, Haveri - KSPCB",11-05-2024 17:00:00,14.791800,75.389600,SO2,NA,NA,NA
India,Karnataka,Hubballi,"Deshpande Nagar, Hubballi - KSPCB",11-05-2024 17:00:00,15.351773,75.140726,SO2,NA,NA,NA
India,Karnataka,Hubballi,"Lingaraj Nagar, Hubballi - KSPCB",11-05-2024 17:00:00,15.3714823,75.1160168,CO,6,32,20
India,Karnataka,Kalaburagi,"Lal Bahadur Shastri Nagar, Kalaburagi - KSPCB",11-05-2024 17:00:00,17.321993,76.822628,PM10,19,102,49
India,Karnataka,Kalaburagi,"Mahatma Basaveswar Colony, Kalaburgi - KSPCB",11-05-2024 17:00:00,17.336318,76.847397,SO2,2,7,3
India,Karnataka,Kalaburagi,"Mahatma Basaveswar Colony, Kalaburgi - KSPCB",11-05-2024 17:00:00,17.336318,76.847397,CO,23,57,26
India,Karnataka,Karwar,"KHB Colony, Karwar - KSPCB",11-05-2024 17:00:00,14.816666,74.141003,OZONE,21,21,21
India,Karnataka,Kolar,"Tamaka Ind. Area, Kolar - KSPCB",11-05-2024 17:00:00,13.1276288,78.1570122,NO2,NA,NA,NA
India,Karnataka,Madikeri,"Stuart Hill, Madikeri - KSPCB",11-05-2024 17:00:00,12.415911,75.735050,SO2,4,4,4
India,Karnataka,Mangalore,"Kadri, Mangalore - KSPCB",11-05-2024 17:00:00,12.889250,74.853000,PM10,40,56,48
India,Karnataka,Mysuru,"Hebbal 1st Stage, Mysuru - KSPCB",11-05-2024 17:00:00,12.21041,76.37376,NO2,10,32,20
India,Karnataka,Mysuru,"Hebbal 1st Stage, Mysuru - KSPCB",11-05-2024 17:00:00,12.21041,76.37376,NH3,1,2,2
India,Karnataka,Mysuru,"Hebbal 1st Stage, Mysuru - KSPCB",11-05-2024 17:00:00,12.21041,76.37376,CO,8,32,15
India,Karnataka,Raichur,"Haji Colony, Raichur - KSPCB",11-05-2024 17:00:00,16.208139,77.348417,OZONE,5,200,24
India,Karnataka,Shivamogga,"Vinoba Nagara, Shivamogga - KSPCB",11-05-2024 17:00:00,13.940000,75.555917,NO2,11,17,13
India,Karnataka,Udupi,"Brahmagiri, Udupi - KSPCB",11-05-2024 17:00:00,13.34194444,74.74694444,CO,48,51,48
India,Karnataka,Vijayapura,"Ibrahimpur, Vijayapura - KSPCB",11-05-2024 17:00:00,16.802639,75.722694,PM2.5,26,31,30
India,Karnataka,Vijayapura,"Ibrahimpur, Vijayapura - KSPCB",11-05-2024 17:00:00,16.802639,75.722694,CO,103,103,103
India,Karnataka,Yadgir,"Collector Office, Yadgir - KSPCB",11-05-2024 17:00:00,16.7602,77.1428,PM10,22,56,41
India,Karnataka,Yadgir,"Collector Office, Yadgir - KSPCB",11-05-2024 17:00:00,16.7602,77.1428,NH3,NA,NA,NA
India,Kerala,Eloor,"Udyogamandal, Eloor - Kerala PCB",11-05-2024 17:00:00,10.073232,76.302765,PM2.5,24,55,38
India,Kerala,Eloor,"Udyogamandal, Eloor - Kerala PCB",11-05-2024 17:00:00,10.073232,76.302765,SO2,1,3,2
India,Kerala,Eloor,"Udyogamandal, Eloor - Kerala PCB",11-05-2024 17:00:00,10.073232,76.302765,OZONE,11,23,17
India,Kerala,Kannur,"Thavakkara, Kannur - Kerala PCB",11-05-2024 17:00:00,11.875000,75.373200,CO,28,34,32
India,Kerala,Kollam,"Polayathode, Kollam - Kerala PCB",11-05-2024 17:00:00,8.8787,76.6073,PM2.5,58,146,93
India,Kerala,Kollam,"Polayathode, Kollam - Kerala PCB",11-05-2024 17:00:00,8.8787,76.6073,CO,14,17,16
India,Kerala,Thiruvananthapuram,"Kariavattom, Thiruvananthapuram - Kerala PCB",11-05-2024 17:00:00,8.563700,76.886500,PM2.5,NA,NA,NA
India,Kerala,Thrissur,"Corporation Ground, Thrissur - Kerala PCB",11-05-2024 17:00:00,10.532400,76.215900,PM2.5,43,52,47
India,Kerala,Thrissur,"Corporation Ground, Thrissur - Kerala PCB",11-05-2024 17:00:00,10.532400,76.215900,NH3,NA,NA,NA
India,Kerala,Thrissur,"Corporation Ground, Thrissur - Kerala PCB",11-05-2024 17:00:00,10.532400,76.215900,SO2,NA,NA,NA
India,Madhya Pradesh,Bhopal,"Idgah Hills, Bhopal - MPPCB",11-05-2024 17:00:00,23.264759,77.381568,PM10,31,121,66
India,Madhya Pradesh,Bhopal,"Idgah Hills, Bhopal - MPPCB",11-05-2024 17:00:00,23.264759,77.381568,NO2,10,36,22
India,Madhya Pradesh,Bhopal,"Paryavaran Parisar, Bhopal - MPPCB",11-05-2024 17:00:00,23.210494,77.425409,SO2,7,16,9
India,Madhya Pradesh,Bhopal,"Paryavaran Parisar, Bhopal - MPPCB",11-05-2024 17:00:00,23.210494,77.425409,CO,14,66,26
India,Madhya Pradesh,Bhopal,"T T Nagar, Bhopal - MPPCB",11-05-2024 17:00:00,23.233584,77.400574,OZONE,54,127,97
India,Madhya Pradesh,Gwalior,"City Center, Gwalior - MPPCB",11-05-2024 17:00:00,26.203442,78.193251,PM2.5,38,238,91
India,Madhya Pradesh,Gwalior,"City Center, Gwalior - MPPCB",11-05-2024 17:00:00,26.203442,78.193251,NO2,8,23,13
India,Madhya Pradesh,Gwalior,"Deen Dayal Nagar, Gwalior - MPPCB",11-05-2024 17:00:00,26.259242,78.216432,PM10,36,500,208
India,Madhya Pradesh,Gwalior,"Deen Dayal Nagar, Gwalior - MPPCB",11-05-2024 17:00:00,26.259242,78.216432,NO2,16,52,31
India,Madhya Pradesh,Gwalior,"Maharaj Bada, Gwalior - MPPCB",11-05-2024 17:00:00,26.200388,78.147714,NO2,16,56,27
India,Madhya Pradesh,Indore,"Chhoti Gwaltoli, Indore - MPPCB",11-05-2024 17:00:00,22.4310,75.5213,CO,5,116,78
India,Madhya Pradesh,Indore,"Chhoti Gwaltoli, Indore - MPPCB",11-05-2024 17:00:00,22.4310,75.5213,OZONE,54,127,100
India,Madhya Pradesh,Indore,"Maguda Nagar, Indore - IMC",11-05-2024 17:00:00,22.7524,75.8872,NH3,NA,NA,NA
India,Madhya Pradesh,Indore,"Maguda Nagar, Indore - IMC",11-05-2024 17:00:00,22.7524,75.8872,OZONE,40,42,41
India,Madhya Pradesh,Indore,"Regional Park, Indore - IMC",11-05-2024 17:00:00,22.6780,75.8559,CO,24,28,27
India,Madhya Pradesh,Indore,"Residency Area, Indore - IMC",11-05-2024 17:00:00,22.7084,75.8815,OZONE,10,23,19
India,Madhya Pradesh,Jabalpur,"Govindh Bhavan Colony, Jabalpur - JMC",11-05-2024 17:00:00,23.163174,79.973061,CO,24,47,39
India,Madhya Pradesh,Jabalpur,"Govindh Bhavan Colony, Jabalpur - JMC",11-05-2024 17:00:00,23.163174,79.973061,OZONE,30,303,302
India,Madhya Pradesh,Jabalpur,"Gupteshwar, Jabalpur - JMC",11-05-2024 17:00:00,23.142888,79.916147,NH3,5,7,6
India,Madhya Pradesh,Jabalpur,"Marhatal, Jabalpur - MPPCB",11-05-2024 17:00:00,23.168606,79.932247,PM10,72,185,111
India,Madhya Pradesh,Jabalpur,"Marhatal, Jabalpur - MPPCB",11-05-2024 17:00:00,23.168606,79.932247,NH3,3,7,4
India,Madhya Pradesh,Katni,"Gole Bazar, Katni - MPPCB",11-05-2024 17:00:00,23.50016,80.23284,OZONE,15,136,109
India,Madhya Pradesh,Mandideep,"Sector-D Industrial Area, Mandideep - MPPCB",11-05-2024 17:00:00,23.108440,77.511428,SO2,3,77,19
India,Madhya Pradesh,Mandideep,"Sector-D Industrial Area, Mandideep - MPPCB",11-05-2024 17:00:00,23.108440,77.511428,OZONE,16,67,46
India,Madhya Pradesh,Pithampur,"Sector-2 Industrial Area, Pithampur - MPPCB",11-05-2024 17:00:00,22.624758,75.675238,NH3,3,3,3
India,Madhya Pradesh,Pithampur,"Sector-2 Industrial Area, Pithampur - MPPCB",11-05-2024 17:00:00,22.624758,75.675238,SO2,11,15,13
India,Madhya Pradesh,Pithampur,"Sector-2 Industrial Area, Pithampur - MPPCB",11-05-2024 17:00:00,22.624758,75.675238,OZONE,30,93,61
India,Madhya Pradesh,Ratlam,"Shasthri Nagar, Ratlam - IPCA Lab",11-05-2024 17:00:00,23.331731,75.045981,NO2,35,36,36
India,Madhya Pradesh,Sagar,"Civil Lines, Sagar - MPPCB",11-05-2024 17:00:00,23.838586,78.759431,NO2,6,23,14
India,Madhya Pradesh,Sagar,"Civil Lines, Sagar - MPPCB",11-05-2024 17:00:00,23.838586,78.759431,SO2,3,9,5
India,Madhya Pradesh,Sagar,"Deen Dayal Nagar, Sagar - MPPCB",11-05-2024 17:00:00,23.8640158,78.80289321,PM2.5,17,38,28
India,Madhya Pradesh,Sagar,"Deen Dayal Nagar, Sagar - MPPCB",11-05-2024 17:00:00,23.8640158,78.80289321,PM10,32,145,99
India,Madhya Pradesh,Satna,"Bandhavgar Colony, Satna - Birla Cement",11-05-2024 17:00:00,24.58434363,80.8549414,SO2,3,3,3
India,Madhya Pradesh,Singrauli,"Suryakiran Bhawan NCL, Singrauli - MPPCB",11-05-2024 17:00:00,24.108970,82.645580,NO2,15,89,55
India,Madhya Pradesh,Singrauli,"Suryakiran Bhawan NCL, Singrauli - MPPCB",11-05-2024 17:00:00,24.108970,82.645580,CO,50,114,72
India,Madhya Pradesh,Ujjain,"Mahakaleshwar Temple, Ujjain - MPPCB",11-05-2024 17:00:00,23.182719 ,75.768218 ,PM2.5,18,70,29
India,Madhya Pradesh,Ujjain,"Mahakaleshwar Temple, Ujjain - MPPCB",11-05-2024 17:00:00,23.182719 ,75.768218 ,PM10,50,154,79
India,Madhya Pradesh,Ujjain,"Mahakaleshwar Temple, Ujjain - MPPCB",11-05-2024 17:00:00,23.182719 ,75.768218 ,NH3,4,8,7
India,Maharashtra,Akola,"Ramdaspeth, Akola - MPCB",11-05-2024 17:00:00,20.719516,77.000253,PM10,55,121,81
India,Maharashtra,Akola,"Ramdaspeth, Akola - MPCB",11-05-2024 17:00:00,20.719516,77.000253,NH3,3,12,7
India,Maharashtra,Akola,"Ramdaspeth, Akola - MPCB",11-05-2024 17:00:00,20.719516,77.000253,CO,21,56,26
India,Maharashtra,Amravati,"Shri Shivaji Science College, Amaravati - MPCB",11-05-2024 17:00:00,20.939198,77.765701,CO,13,86,22
India,Maharashtra,Amravati,"Shri Shivaji Science College, Amaravati - MPCB",11-05-2024 17:00:00,20.939198,77.765701,OZONE,20,78,57
India,Maharashtra,Aurangabad,"MIDC Chilkalthana, Aurangabad - MPCB",11-05-2024 17:00:00,19.875620,75.387310,PM10,NA,NA,NA
India,Maharashtra,Aurangabad,"MIDC Chilkalthana, Aurangabad - MPCB",11-05-2024 17:00:00,19.875620,75.387310,SO2,NA,NA,NA
India,Maharashtra,Aurangabad,"MIDC Chilkalthana, Aurangabad - MPCB",11-05-2024 17:00:00,19.875620,75.387310,OZONE,NA,NA,NA
India,Maharashtra,Aurangabad,"More Chowk Waluj, Aurangabad - MPCB",11-05-2024 17:00:00,19.8389439,75.244448,CO,6,52,14
India,Maharashtra,Aurangabad,"More Chowk Waluj, Aurangabad - MPCB",11-05-2024 17:00:00,19.8389439,75.244448,OZONE,36,65,56
India,Maharashtra,Aurangabad,"Rachnakar Colony, Aurangabad - MPCB",11-05-2024 17:00:00,19.863756,75.321188,PM10,105,166,126
India,Maharashtra,Aurangabad,"Rachnakar Colony, Aurangabad - MPCB",11-05-2024 17:00:00,19.863756,75.321188,NO2,12,76,32
India,Maharashtra,Aurangabad,"Rachnakar Colony, Aurangabad - MPCB",11-05-2024 17:00:00,19.863756,75.321188,NH3,1,2,1
India,Maharashtra,Badlapur,"Katrap, Badlapur - MPCB",11-05-2024 17:00:00,19.16485,73.23409,PM10,37,94,59
India,Maharashtra,Belapur,"CBD Belapur, Belapur - MPCB",11-05-2024 17:00:00,19.0243902,73.0406721,PM10,58,98,74
India,Maharashtra,Belapur,"CBD Belapur, Belapur - MPCB",11-05-2024 17:00:00,19.0243902,73.0406721,NH3,1,2,1
India,Maharashtra,Bhiwandi,"Gokul Nagar, Bhiwandi - MPCB",11-05-2024 17:00:00,19.309073,73.057223,PM10,50,105,75
India,Maharashtra,Bhiwandi,"Gokul Nagar, Bhiwandi - MPCB",11-05-2024 17:00:00,19.309073,73.057223,NO2,8,27,14
India,Maharashtra,Boisar,"Khaira, Boisar - MPCB",11-05-2024 17:00:00,19.786089,72.757971,PM10,56,112,84
India,Maharashtra,Boisar,"Khaira, Boisar - MPCB",11-05-2024 17:00:00,19.786089,72.757971,SO2,1,30,8
India,Maharashtra,Boisar,"Khaira, Boisar - MPCB",11-05-2024 17:00:00,19.786089,72.757971,OZONE,2,16,10
India,Maharashtra,Chandrapur,"Chauhan Colony, Chandrapur - MPCB",11-05-2024 17:00:00,19.962900,79.298714,PM10,NA,NA,NA
India,Maharashtra,Dhule,"Deopur, Dhule - MPCB",11-05-2024 17:00:00,20.918946,74.776388,PM2.5,62,154,102
India,Maharashtra,Dhule,"Deopur, Dhule - MPCB",11-05-2024 17:00:00,20.918946,74.776388,NH3,5,21,6
India,Maharashtra,Jalna,"Old MIDC, Jalna - MPCB",11-05-2024 17:00:00,19.854616,75.905894,PM10,34,236,81
India,Maharashtra,Jalna,"Old MIDC, Jalna - MPCB",11-05-2024 17:00:00,19.854616,75.905894,SO2,NA,NA,NA
India,Maharashtra,Kalyan,"Khadakpada, Kalyan - MPCB",11-05-2024 17:00:00,19.25292,73.142019,OZONE,10,13,12
India,Maharashtra,Kolhapur,"Shivaji University, Kolhapur - MPCB",11-05-2024 17:00:00,16.6870449,74.2505872,NH3,3,5,4
India,Maharashtra,Kolhapur,"Shivaji University, Kolhapur - MPCB",11-05-2024 17:00:00,16.6870449,74.2505872,CO,59,90,70
India,Maharashtra,Kolhapur,"Sinchan Bhavan, Kolhapur - MPCB",11-05-2024 17:00:00,16.7143745,74.2426398,NH3,7,8,8
India,Maharashtra,Kolhapur,"Sinchan Bhavan, Kolhapur - MPCB",11-05-2024 17:00:00,16.7143745,74.2426398,SO2,1,2,1
India,Maharashtra,Latur,"Sawe Wadi, Latur - MPCB",11-05-2024 17:00:00,18.39963,76.57452,OZONE,4,100,78
India,Maharashtra,Mahad,"Kamble Tarf Birwadi, Mahad - MPCB",11-05-2024 17:00:00,18.1023399,73.4783687,NO2,17,42,26
India,Maharashtra,Mahad,"Kamble Tarf Birwadi, Mahad - MPCB",11-05-2024 17:00:00,18.1023399,73.4783687,NH3,4,12,7
India,Maharashtra,Mahad,"Kamble Tarf Birwadi, Mahad - MPCB",11-05-2024 17:00:00,18.1023399,73.4783687,SO2,8,58,16
India,Maharashtra,Mahad,"Kamble Tarf Birwadi, Mahad - MPCB",11-05-2024 17:00:00,18.1023399,73.4783687,OZONE,3,67,39
India,Maharashtra,Malegaon,"Mahesh Nagar, Malegaon - MPCB",11-05-2024 17:00:00,20.555712,74.529236,OZONE,14,122,101
India,Maharashtra,Mira-Bhayandar,"Bhayandar West, Mira-Bhayandar - MPCB",11-05-2024 17:00:00,19.296481,72.840923,CO,19,40,22
India,Maharashtra,Mumbai,"Bandra Kurla Complex, Mumbai - MPCB",11-05-2024 17:00:00,19.065931,72.862131,NH3,10,10,10
India,Maharashtra,Mumbai,"Borivali East, Mumbai - IITM",11-05-2024 17:00:00,19.23241,72.86895,PM10,41,70,55
India,Maharashtra,Mumbai,"Borivali East, Mumbai - IITM",11-05-2024 17:00:00,19.23241,72.86895,NO2,21,54,42
India,Maharashtra,Mumbai,"Borivali East, Mumbai - IITM",11-05-2024 17:00:00,19.23241,72.86895,NH3,6,8,7
India,Maharashtra,Mumbai,"Borivali East, Mumbai - IITM",11-05-2024 17:00:00,19.23241,72.86895,CO,2,24,2
India,Maharashtra,Mumbai,"Borivali East, Mumbai - MPCB",11-05-2024 17:00:00,19.2243333,72.8658113,NO2,2,12,7
India,Maharashtra,Mumbai,"Chakala-Andheri East, Mumbai - IITM",11-05-2024 17:00:00,19.11074,72.86084,PM10,NA,NA,NA
India,Maharashtra,Mumbai,"Chembur, Mumbai - MPCB",11-05-2024 17:00:00,19.0364585,72.8954371,PM10,37,84,59
India,Maharashtra,Mumbai,"Chembur, Mumbai - MPCB",11-05-2024 17:00:00,19.0364585,72.8954371,NH3,4,5,4
India,Maharashtra,Mumbai,"Chhatrapati Shivaji Intl. Airport (T2), Mumbai - MPCB",11-05-2024 17:00:00,19.10078,72.87462,NO2,NA,NA,NA
India,Maharashtra,Mumbai,"Colaba, Mumbai - MPCB",11-05-2024 17:00:00,18.910000,72.820000,SO2,10,11,10
India,Maharashtra,Mumbai,"Ghatkopar, Mumbai - BMC",11-05-2024 17:00:00,19.083694,72.920967,CO,2,14,5
India,Maharashtra,Mumbai,"Kherwadi_Bandra East, Mumbai - MPCB",11-05-2024 17:00:00,19.0632143,72.8456324,NO2,5,36,14
India,Maharashtra,Mumbai,"Kherwadi_Bandra East, Mumbai - MPCB",11-05-2024 17:00:00,19.0632143,72.8456324,SO2,2,8,6
India,Maharashtra,Mumbai,"Kherwadi_Bandra East, Mumbai - MPCB",11-05-2024 17:00:00,19.0632143,72.8456324,OZONE,3,62,41
India,Maharashtra,Mumbai,"Khindipada-Bhandup West, Mumbai - IITM",11-05-2024 17:00:00,19.1653323,72.922099,SO2,1,10,5
India,Maharashtra,Mumbai,"Kurla, Mumbai - MPCB",11-05-2024 17:00:00,19.0863,72.8888,NO2,11,16,14
India,Maharashtra,Mumbai,"Mindspace-Malad West, Mumbai - MPCB",11-05-2024 17:00:00,19.1878657,72.8304069,NH3,7,7,7
India,Maharashtra,Mumbai,"Mulund West, Mumbai - MPCB",11-05-2024 17:00:00,19.1750,72.9419,PM10,38,103,64
India,Maharashtra,Mumbai,"Siddharth Nagar-Worli, Mumbai - IITM",11-05-2024 17:00:00,19.000083,72.813993,PM10,49,84,65
India,Maharashtra,Mumbai,"Sion, Mumbai - MPCB",11-05-2024 17:00:00,19.047000,72.874600,CO,69,76,72
India,Maharashtra,Mumbai,"Vasai West, Mumbai - MPCB",11-05-2024 17:00:00,19.383200,72.820400,PM2.5,32,55,40
India,Maharashtra,Mumbai,"Vasai West, Mumbai - MPCB",11-05-2024 17:00:00,19.383200,72.820400,NH3,4,4,4
India,Maharashtra,Mumbai,"Vasai West, Mumbai - MPCB",11-05-2024 17:00:00,19.383200,72.820400,CO,48,76,53
India,Maharashtra,Mumbai,"Vasai West, Mumbai - MPCB",11-05-2024 17:00:00,19.383200,72.820400,OZONE,11,27,22
India,Maharashtra,Nagpur,"Mahal, Nagpur - MPCB",11-05-2024 17:00:00,21.14472,79.107595,NO2,7,54,22
India,Maharashtra,Nagpur,"Opp GPO Civil Lines, Nagpur - MPCB",11-05-2024 17:00:00,21.152875,79.0517531,OZONE,5,23,13
India,Maharashtra,Nanded,"Sneh Nagar, Nanded - MPCB",11-05-2024 17:00:00,19.173852,77.296291,OZONE,26,122,64
India,Maharashtra,Nashik,"Hirawadi, Nashik - MPCB",11-05-2024 17:00:00,20.021503,73.813844,PM10,27,293,57
India,Maharashtra,Nashik,"MIDC Ambad, Nashik - MPCB",11-05-2024 17:00:00,19.950220,73.731480,PM10,NA,NA,NA
India,Maharashtra,Nashik,"MIDC Ambad, Nashik - MPCB",11-05-2024 17:00:00,19.950220,73.731480,CO,6,10,8
India,Maharashtra,Nashik,"MIDC Ambad, Nashik - MPCB",11-05-2024 17:00:00,19.950220,73.731480,OZONE,58,107,86
India,Maharashtra,Nashik,"Pandav Nagari, Nashik - MPCB",11-05-2024 17:00:00,19.9591346,73.7788008,NH3,NA,NA,NA
India,Maharashtra,Navi Mumbai,"Kopripada-Vashi, Navi Mumbai - MPCB",11-05-2024 17:00:00,19.090337,73.014232,SO2,1,8,2
India,Maharashtra,Navi Mumbai,"Kopripada-Vashi, Navi Mumbai - MPCB",11-05-2024 17:00:00,19.090337,73.014232,OZONE,1,36,14
India,Maharashtra,Navi Mumbai,"Mahape, Navi Mumbai - MPCB",11-05-2024 17:00:00,19.1135051,73.008978,SO2,22,23,23
India,Maharashtra,Navi Mumbai,"Nerul, Navi Mumbai - MPCB",11-05-2024 17:00:00,19.008751,73.016620,NO2,29,45,38
India,Maharashtra,Navi Mumbai,"Sanpada, Navi Mumbai - MPCB",11-05-2024 17:00:00,19.0575752,73.0151367,PM2.5,21,59,36
India,Maharashtra,Navi Mumbai,"Sector-19A Nerul, Navi Mumbai - IITM",11-05-2024 17:00:00,19.044,73.0325,OZONE,1,80,39
India,Maharashtra,Navi Mumbai,"Tondare-Taloja, Navi Mumbai - MPCB",11-05-2024 17:00:00,19.0630,73.1209,NO2,5,30,22
India,Maharashtra,Navi Mumbai,"Tondare-Taloja, Navi Mumbai - MPCB",11-05-2024 17:00:00,19.0630,73.1209,NH3,NA,NA,NA
India,Maharashtra,Navi Mumbai,"Tondare-Taloja, Navi Mumbai - MPCB",11-05-2024 17:00:00,19.0630,73.1209,CO,2,49,10
India,Maharashtra,Pimpri-Chinchwad,"Gavalinagar, Pimpri Chinchwad - MPCB",11-05-2024 17:00:00,18.63673,73.82487,PM10,74,94,85
India,Maharashtra,Pimpri-Chinchwad,"Park Street Wakad, Pimpri Chinchwad - MPCB",11-05-2024 17:00:00,18.59051,73.77946,NH3,4,14,7
India,Maharashtra,Pimpri-Chinchwad,"Park Street Wakad, Pimpri Chinchwad - MPCB",11-05-2024 17:00:00,18.59051,73.77946,SO2,4,4,4
India,Maharashtra,Pimpri-Chinchwad,"Park Street Wakad, Pimpri Chinchwad - MPCB",11-05-2024 17:00:00,18.59051,73.77946,OZONE,1,45,31
India,Maharashtra,Pimpri-Chinchwad,"Thergaon, Pimpri Chinchwad - MPCB",11-05-2024 17:00:00,18.616318,73.765797,NO2,NA,NA,NA
India,Maharashtra,Pimpri-Chinchwad,"Thergaon, Pimpri Chinchwad - MPCB",11-05-2024 17:00:00,18.616318,73.765797,OZONE,21,122,78
India,Maharashtra,Pune,"Bhosari, Pune - IITM",11-05-2024 17:00:00,18.640051,73.848956,OZONE,1,87,60
India,Maharashtra,Pune,"Karve Road, Pune - MPCB",11-05-2024 17:00:00,18.5011743,73.8165527,SO2,1,28,16
India,Maharashtra,Pune,"Revenue Colony-Shivajinagar, Pune - IITM",11-05-2024 17:00:00,18.530085,73.849598,PM2.5,67,186,110
India,Maharashtra,Pune,"Revenue Colony-Shivajinagar, Pune - IITM",11-05-2024 17:00:00,18.530085,73.849598,NO2,55,117,89
India,Maharashtra,Pune,"Revenue Colony-Shivajinagar, Pune - IITM",11-05-2024 17:00:00,18.530085,73.849598,CO,86,132,106
India,Maharashtra,Sangli,"Vijay Nagar, Sangli - MPCB",11-05-2024 17:00:00, 16.5038,74.3623,PM2.5,26,57,39
India,Maharashtra,Sangli,"Vijay Nagar, Sangli - MPCB",11-05-2024 17:00:00, 16.5038,74.3623,NH3,1,4,3
India,Maharashtra,Solapur,"Dnyaneshwar Nagar, Solapur - MPCB",11-05-2024 17:00:00,17.6336264,75.9132495,NH3,21,57,31
India,Maharashtra,Solapur,"Dnyaneshwar Nagar, Solapur - MPCB",11-05-2024 17:00:00,17.6336264,75.9132495,OZONE,20,69,49
India,Maharashtra,Solapur,"Solapur, Solapur - MPCB",11-05-2024 17:00:00,17.6599188,75.9063906,PM10,101,126,118
India,Maharashtra,Thane,"Kasarvadavali, Thane - MPCB",11-05-2024 17:00:00,19.26777,72.97182,NH3,3,7,5
India,Maharashtra,Thane,"Kasarvadavali, Thane - MPCB",11-05-2024 17:00:00,19.26777,72.97182,CO,4,38,9
India,Maharashtra,Thane,"Pimpleshwar Mandir, Thane - MPCB",11-05-2024 17:00:00,19.192056,72.9585188,SO2,1,23,4
India,Maharashtra,Thane,"Upvan Fort, Thane - MPCB",11-05-2024 17:00:00,19.222279,72.957979,NH3,4,4,4
India,Maharashtra,Thane,"Upvan Fort, Thane - MPCB",11-05-2024 17:00:00,19.222279,72.957979,CO,1,25,14
India,Maharashtra,Ulhasnagar,"Sidhi Vinayak Nagar, Ulhasnagar - MPCB",11-05-2024 17:00:00,19.235581,73.159121,SO2,8,36,14
India,Maharashtra,Virar,"Bolinj, Virar - MPCB",11-05-2024 17:00:00,19.4458210,72.7988231,SO2,4,5,4
India,Manipur,Imphal,"DM College of Science, Imphal - Manipur PCB",11-05-2024 17:00:00,24.8207389,93.9423085,OZONE,2,2,2
India,Manipur,Imphal,"Manipur University, Imphal - Manipur PCB",11-05-2024 17:00:00,24.7524239,93.9286218,CO,9,13,10
India,Meghalaya,Shillong,"Lumpyngngad, Shillong - Meghalaya PCB",11-05-2024 17:00:00,25.5586,91.8985,PM10,NA,NA,NA
India,Meghalaya,Shillong,"Lumpyngngad, Shillong - Meghalaya PCB",11-05-2024 17:00:00,25.5586,91.8985,NO2,1,1,1
India,Meghalaya,Shillong,"Lumpyngngad, Shillong - Meghalaya PCB",11-05-2024 17:00:00,25.5586,91.8985,CO,8,20,11
India,Mizoram,Aizawl,"Sikulpuikawn, Aizawl - Mizoram PCB",11-05-2024 17:00:00,23.7176342,92.7192841,PM10,6,48,29
India,Mizoram,Aizawl,"Sikulpuikawn, Aizawl - Mizoram PCB",11-05-2024 17:00:00,23.7176342,92.7192841,NH3,NA,NA,NA
India,Mizoram,Aizawl,"Sikulpuikawn, Aizawl - Mizoram PCB",11-05-2024 17:00:00,23.7176342,92.7192841,SO2,2,3,2
India,Nagaland,Kohima,"PWD Juction, Kohima - NPCB",11-05-2024 17:00:00,25.6635413,94.0989878,PM2.5,39,157,63
India,Nagaland,Kohima,"PWD Juction, Kohima - NPCB",11-05-2024 17:00:00,25.6635413,94.0989878,NO2,3,4,3
India,Nagaland,Kohima,"PWD Juction, Kohima - NPCB",11-05-2024 17:00:00,25.6635413,94.0989878,OZONE,7,14,11
India,Odisha,Angul,"Hakimapada, Angul - OSPCB",11-05-2024 17:00:00,20.832874,85.104082,CO,2,103,36
India,Odisha,Balasore,"Kalidaspur, Balasore - OSPCB",11-05-2024 17:00:00,21.51161,86.89088,NH3,1,2,1
India,Odisha,Balasore,"Kalidaspur, Balasore - OSPCB",11-05-2024 17:00:00,21.51161,86.89088,SO2,14,18,15
India,Odisha,Balasore,"Kalidaspur, Balasore - OSPCB",11-05-2024 17:00:00,21.51161,86.89088,CO,48,112,69
India,Odisha,Baripada,"Meher Colony, Baripada - OSPCB",11-05-2024 17:00:00,21.941841,86.728318,PM10,28,53,40
India,Odisha,Baripada,"Meher Colony, Baripada - OSPCB",11-05-2024 17:00:00,21.941841,86.728318,CO,8,39,25
India,Odisha,Bhubaneswar,"Lingraj Mandir, Bhubaneswar - OSPCB",11-05-2024 17:00:00,20.240790,85.836784,CO,40,68,52
India,Odisha,Bhubaneswar,"Lingraj Mandir, Bhubaneswar - OSPCB",11-05-2024 17:00:00,20.240790,85.836784,OZONE,12,76,47
India,Odisha,Bhubaneswar,"Patia, Bhubaneswar - OSPCB",11-05-2024 17:00:00,20.34652,85.81630,PM10,8,57,26
India,Odisha,Brajrajnagar,"GM Office, Brajrajnagar - OSPCB",11-05-2024 17:00:00,21.8004996,83.8396977,CO,88,92,90
India,Odisha,Keonjhar,"Jagamohanpur, Keonjhar - OSPCB",11-05-2024 17:00:00,21.643900,85.599355,PM10,45,56,51
India,Odisha,Keonjhar,"Jagamohanpur, Keonjhar - OSPCB",11-05-2024 17:00:00,21.643900,85.599355,SO2,8,9,9
India,Odisha,Nayagarh,"Dabuna, Nayagarh - OSPCB",11-05-2024 17:00:00,21.847279,85.416905,PM2.5,21,56,39
India,Odisha,Nayagarh,"Dabuna, Nayagarh - OSPCB",11-05-2024 17:00:00,21.847279,85.416905,PM10,38,111,61
India,Odisha,Nayagarh,"Dabuna, Nayagarh - OSPCB",11-05-2024 17:00:00,21.847279,85.416905,SO2,1,8,2
India,Odisha,Nayagarh,"Dabuna, Nayagarh - OSPCB",11-05-2024 17:00:00,21.847279,85.416905,OZONE,5,35,25
India,Odisha,Rairangpur,"Divisional Forest Office, Rairangpur - OSPCB",11-05-2024 17:00:00,22.265816,86.174829,PM10,32,61,47
India,Odisha,Rourkela,"Sector-2, Rourkela - OSPCB",11-05-2024 17:00:00,22.24500000,84.88111111,CO,13,90,34
India,Odisha,Suakati,"OMC Colony, Suakati - OSPCB",11-05-2024 17:00:00,21.606865,85.510538,SO2,1,22,6
India,Odisha,Suakati,"OMC Colony, Suakati - OSPCB",11-05-2024 17:00:00,21.606865,85.510538,CO,19,30,19
India,Odisha,Talcher,"Talcher Coalfields,Talcher - OSPCB",11-05-2024 17:00:00,20.9360711,85.1707021,CO,14,68,39
India,Odisha,Tensa,"Barsua Iron Ore Mines, Tensa - OSPCB",11-05-2024 17:00:00,21.869985,85.167016,PM10,42,114,62
India,Punjab,Bathinda,"Hardev Nagar, Bathinda - PPCB",11-05-2024 17:00:00,30.233011,74.907758,CO,2,146,48
India,Punjab,Jalandhar,"Civil Line, Jalandhar - PPCB",11-05-2024 17:00:00,31.321907,75.578914,NO2,42,44,43
India,Punjab,Jalandhar,"Civil Line, Jalandhar - PPCB",11-05-2024 17:00:00,31.321907,75.578914,NH3,2,2,2
India,Punjab,Jalandhar,"Civil Line, Jalandhar - PPCB",11-05-2024 17:00:00,31.321907,75.578914,SO2,8,14,10
India,Punjab,Khanna,"Kalal Majra, Khanna - PPCB",11-05-2024 17:00:00,30.736056 ,76.209694,NH3,18,18,18
India,Punjab,Ludhiana,"Punjab Agricultural University, Ludhiana - PPCB",11-05-2024 17:00:00,30.9028,75.8086,CO,20,115,36
India,Punjab,Patiala,"Model Town, Patiala - PPCB",11-05-2024 17:00:00,30.349388,76.366642,PM10,92,500,191
India,Punjab,Patiala,"Model Town, Patiala - PPCB",11-05-2024 17:00:00,30.349388,76.366642,NH3,6,7,6
India,Punjab,Rupnagar,"Ratanpura, Rupnagar - Ambuja Cements",11-05-2024 17:00:00,31.0325454,76.5623046,SO2,4,9,8
India,Rajasthan,Ajmer,"Civil Lines,  Ajmer - RSPCB",11-05-2024 17:00:00,26.470859,74.646594,CO,17,78,35
India,Rajasthan,Ajmer,"Civil Lines,  Ajmer - RSPCB",11-05-2024 17:00:00,26.470859,74.646594,OZONE,16,87,72
India,Rajasthan,Alwar,"Moti Doongri, Alwar - RSPCB",11-05-2024 17:00:00,27.554793,76.611536,NH3,3,6,4
India,Rajasthan,Alwar,"Moti Doongri, Alwar - RSPCB",11-05-2024 17:00:00,27.554793,76.611536,OZONE,15,48,29
India,Rajasthan,Baran,"Bamboliya, Baran - RSPCB",11-05-2024 17:00:00,25.106006,76.469948,OZONE,70,137,93
India,Rajasthan,Barmer,"Railway Colony, Barmer - RSPCB",11-05-2024 17:00:00,25.747299,71.393989,PM2.5,16,169,44
India,Rajasthan,Bhiwadi,"RIICO Ind. Area III, Bhiwadi - RSPCB",11-05-2024 17:00:00,28.194909,76.862296,NO2,NA,NA,NA
India,Rajasthan,Bhiwadi,"RIICO Ind. Area III, Bhiwadi - RSPCB",11-05-2024 17:00:00,28.194909,76.862296,CO,50,108,96
India,Rajasthan,Bhiwadi,"RIICO Ind. Area III, Bhiwadi - RSPCB",11-05-2024 17:00:00,28.194909,76.862296,OZONE,4,57,40
India,Rajasthan,Bhiwadi,"Vasundhara Nagar_UIT, Bhiwadi - RSPCB",11-05-2024 17:00:00,28.207266,76.829265,NO2,15,71,26
India,Rajasthan,Bikaner,"MM Ground, Bikaner - RSPCB",11-05-2024 17:00:00,28.018792,73.292658,PM10,84,418,205
India,Rajasthan,Bundi,"New Colony, Bundi - RSPCB",11-05-2024 17:00:00,25.435774,75.644272,NO2,8,29,12
India,Rajasthan,Chittorgarh,"Shastri Nagar, Chittorgarh - RSPCB",11-05-2024 17:00:00,24.892047,74.623527,PM10,54,446,100
India,Rajasthan,Chittorgarh,"Shastri Nagar, Chittorgarh - RSPCB",11-05-2024 17:00:00,24.892047,74.623527,SO2,1,129,31
India,Rajasthan,Dausa,"Khatikan Mohalla, Dausa - RSPCB",11-05-2024 17:00:00,26.895552,76.334753,PM2.5,23,314,112
India,Rajasthan,Dausa,"Khatikan Mohalla, Dausa - RSPCB",11-05-2024 17:00:00,26.895552,76.334753,SO2,2,4,3
India,Rajasthan,Dholpur,"Raja Ganj, Dholpur - RSPCB",11-05-2024 17:00:00,26.699557,77.898881,NO2,30,70,38
India,Rajasthan,Dholpur,"Raja Ganj, Dholpur - RSPCB",11-05-2024 17:00:00,26.699557,77.898881,OZONE,46,154,154
India,Rajasthan,Dungarpur,"Bhoiwada, Dungarpur - RSPCB",11-05-2024 17:00:00,23.837789,73.714926,PM2.5,17,50,38
India,Rajasthan,Hanumangarh,"Housing Board, Hanumangarh - RSPCB",11-05-2024 17:00:00,29.610750,74.283608,PM2.5,23,355,113
India,Rajasthan,Hanumangarh,"Housing Board, Hanumangarh - RSPCB",11-05-2024 17:00:00,29.610750,74.283608,NO2,10,55,19
India,Rajasthan,Hanumangarh,"Housing Board, Hanumangarh - RSPCB",11-05-2024 17:00:00,29.610750,74.283608,OZONE,2,38,30
India,Rajasthan,Jaipur,"Adarsh Nagar, Jaipur - RSPCB",11-05-2024 17:00:00,26.902909,75.836858,CO,4,48,34
India,Rajasthan,Jaipur,"RIICO Sitapura, Jaipur - RSPCB",11-05-2024 17:00:00,26.786682,75.827928,NH3,1,9,3
India,Rajasthan,Jaipur,"Sector-2 Murlipura, Jaipur - RSPCB",11-05-2024 17:00:00,26.960669,75.771817,PM2.5,35,169,57
India,Rajasthan,Jaipur,"Sector-2 Murlipura, Jaipur - RSPCB",11-05-2024 17:00:00,26.960669,75.771817,NH3,2,10,5
India,Rajasthan,Jaipur,"Sector-2 Murlipura, Jaipur - RSPCB",11-05-2024 17:00:00,26.960669,75.771817,CO,17,45,33
India,Rajasthan,Jaipur,"Shastri Nagar, Jaipur - RSPCB",11-05-2024 17:00:00,26.9502929,75.730943,NO2,13,43,27
India,Rajasthan,Jaipur,"Shastri Nagar, Jaipur - RSPCB",11-05-2024 17:00:00,26.9502929,75.730943,SO2,3,44,19
India,Rajasthan,Jaisalmer,"Sadar Bazar, Jaisalmer - RSPCB",11-05-2024 17:00:00,26.912329,70.909168,NH3,2,14,6
India,Rajasthan,Jhunjhunu,"Indra Nagar, Jhunjhunu - RSPCB",11-05-2024 17:00:00,28.108988,75.386577,PM2.5,32,341,75
India,Rajasthan,Jhunjhunu,"Indra Nagar, Jhunjhunu - RSPCB",11-05-2024 17:00:00,28.108988,75.386577,PM10,70,442,171
India,Rajasthan,Jhunjhunu,"Indra Nagar, Jhunjhunu - RSPCB",11-05-2024 17:00:00,28.108988,75.386577,NH3,17,26,22
India,Rajasthan,Jhunjhunu,"Indra Nagar, Jhunjhunu - RSPCB",11-05-2024 17:00:00,28.108988,75.386577,CO,12,30,18
India,Rajasthan,Jodhpur,"Digari Kalan, Jodhpur - RSPCB",11-05-2024 17:00:00,26.295810,73.082283,NO2,1,17,6
India,Rajasthan,Jodhpur,"Digari Kalan, Jodhpur - RSPCB",11-05-2024 17:00:00,26.295810,73.082283,NH3,2,10,4
India,Rajasthan,Jodhpur,"Digari Kalan, Jodhpur - RSPCB",11-05-2024 17:00:00,26.295810,73.082283,OZONE,25,105,78
India,Rajasthan,Jodhpur,"Jhalamand, Jodhpur - RSPCB",11-05-2024 17:00:00,26.215415,73.070156,NH3,4,7,5
India,Rajasthan,Jodhpur,"Mandor, Jodhpur - RSPCB",11-05-2024 17:00:00,26.358805,73.047444,SO2,2,7,4
India,Rajasthan,Karauli,"Satyawati Vihar, Karauli - RSPCB",11-05-2024 17:00:00,26.506177,77.025989,PM10,48,500,235
India,Rajasthan,Karauli,"Satyawati Vihar, Karauli - RSPCB",11-05-2024 17:00:00,26.506177,77.025989,NH3,6,13,8
India,Rajasthan,Kota,"Dhanmandi, Kota - RSPCB",11-05-2024 17:00:00,25.164090,75.858137,PM2.5,18,66,35
India,Rajasthan,Kota,"Dhanmandi, Kota - RSPCB",11-05-2024 17:00:00,25.164090,75.858137,SO2,4,106,11
India,Rajasthan,Kota,"Dhanmandi, Kota - RSPCB",11-05-2024 17:00:00,25.164090,75.858137,CO,2,112,35
India,Rajasthan,Kota,"Dhanmandi, Kota - RSPCB",11-05-2024 17:00:00,25.164090,75.858137,OZONE,39,192,158
India,Rajasthan,Kota,"Nayapura, Kota - RSPCB",11-05-2024 17:00:00,25.196024,75.855668,OZONE,53,154,120
India,Rajasthan,Kota,"Shrinath Puram, Kota - RSPCB",11-05-2024 17:00:00,25.14389,75.821256,PM10,37,500,130
India,Rajasthan,Kota,"Shrinath Puram, Kota - RSPCB",11-05-2024 17:00:00,25.14389,75.821256,SO2,8,17,11
India,Rajasthan,Nagaur,"Karni Colony, Nagaur - RSPCB",11-05-2024 17:00:00,27.213494,73.734444,PM10,13,428,135
India,Rajasthan,Nagaur,"Karni Colony, Nagaur - RSPCB",11-05-2024 17:00:00,27.213494,73.734444,SO2,1,5,4
India,Rajasthan,Nagaur,"Karni Colony, Nagaur - RSPCB",11-05-2024 17:00:00,27.213494,73.734444,OZONE,25,134,62
India,Rajasthan,Pratapgarh,"Pragati Nagar, Pratapgarh - RSPCB",11-05-2024 17:00:00,24.041198,74.780702,SO2,1,6,3
India,Rajasthan,Rajsamand,"Dhoinda, Rajsamand - RSPCB",11-05-2024 17:00:00,25.036360,73.883502,NH3,NA,NA,NA
India,Rajasthan,Rajsamand,"Dhoinda, Rajsamand - RSPCB",11-05-2024 17:00:00,25.036360,73.883502,SO2,NA,NA,NA
India,Rajasthan,Rajsamand,"Dhoinda, Rajsamand - RSPCB",11-05-2024 17:00:00,25.036360,73.883502,CO,10,20,15
India,Rajasthan,Sawai Madhopur,"Sahu Nagar, Sawai Madhopur - RSPCB",11-05-2024 17:00:00,26.031443,76.359327,NH3,1,15,10
India,Rajasthan,Sikar,"Radhakishan Pura, Sikar - RSPCB",11-05-2024 17:00:00,27.608912,75.153302,PM10,58,500,204
India,Rajasthan,Sikar,"Radhakishan Pura, Sikar - RSPCB",11-05-2024 17:00:00,27.608912,75.153302,OZONE,70,101,89
India,Rajasthan,Sirohi,"Vedhaynath Colony, Sirohi - RSPCB",11-05-2024 17:00:00,24.885261,72.857549,NO2,3,16,8
India,Rajasthan,Sri Ganganagar,"Old City, Sri Ganganagar - RSPCB",11-05-2024 17:00:00,29.931624,73.864511,NO2,9,106,30
India,Rajasthan,Sri Ganganagar,"Old City, Sri Ganganagar - RSPCB",11-05-2024 17:00:00,29.931624,73.864511,OZONE,23,83,67
India,Rajasthan,Tonk,"Shastri Nagar, Tonk - RSPCB",11-05-2024 17:00:00,26.159933,75.780517,PM10,34,198,91
India,Rajasthan,Tonk,"Shastri Nagar, Tonk - RSPCB",11-05-2024 17:00:00,26.159933,75.780517,NO2,2,35,14
India,Rajasthan,Udaipur,"Ashok Nagar, Udaipur - RSPCB",11-05-2024 17:00:00,24.5886166,73.6321397,NO2,36,127,76
India,Sikkim,Gangtok,"Zero Point GICI, Gangtok - SSPCB",11-05-2024 17:00:00,27.338530,88.614099,NO2,1,6,1
India,TamilNadu,Ariyalur,"Keelapalur, Ariyalur - TNPCB",11-05-2024 17:00:00,11.06825,79.07033,NH3,1,1,1
India,TamilNadu,Ariyalur,"Keelapalur, Ariyalur - TNPCB",11-05-2024 17:00:00,11.06825,79.07033,SO2,28,29,28
India,TamilNadu,Chengalpattu,"Crescent University, Chengalpattu - TNPCB",11-05-2024 17:00:00,12.8777316,80.0834807,CO,26,28,27
India,TamilNadu,Chennai,"Arumbakkam, Chennai - TNPCB",11-05-2024 17:00:00,13.0664,80.2112 ,PM10,16,37,22
India,TamilNadu,Chennai,"Kodungaiyur, Chennai - TNPCB",11-05-2024 17:00:00,13.1278,80.2642,PM2.5,5,14,9
India,TamilNadu,Chennai,"Perungudi, Chennai - TNPCB",11-05-2024 17:00:00,12.9533,80.2357,SO2,1,7,3
India,TamilNadu,Chennai,"Royapuram, Chennai - TNPCB",11-05-2024 17:00:00,13.1036,80.2909,PM10,6,24,13
India,TamilNadu,Chennai,"Royapuram, Chennai - TNPCB",11-05-2024 17:00:00,13.1036,80.2909,CO,10,29,21
India,TamilNadu,Chennai,"Velachery Res. Area, Chennai - CPCB",11-05-2024 17:00:00,13.0052189,80.2398125,NO2,14,19,16
India,TamilNadu,Coimbatore,"PSG College of Arts and Science, Coimbatore - TNPCB",11-05-2024 17:00:00,11.0328,77.0349,NO2,2,7,4
India,TamilNadu,Cuddalore,"Kudikadu, Cuddalore - TNPCB",11-05-2024 17:00:00,11.6829898,79.7532099,NH3,3,4,3
India,TamilNadu,Cuddalore,"Semmandalam, Cuddalore - TNPCB",11-05-2024 17:00:00,11.7637683,79.7499835,NH3,2,3,2
India,TamilNadu,Cuddalore,"Semmandalam, Cuddalore - TNPCB",11-05-2024 17:00:00,11.7637683,79.7499835,OZONE,1,2,2
India,TamilNadu,Gummidipoondi,"Anthoni Pillai Nagar, Gummidipoondi - TNPCB",11-05-2024 17:00:00,13.4127,80.1081,SO2,1,36,8
India,TamilNadu,Ooty,"Bombay Castel, Ooty - TNPCB",11-05-2024 17:00:00,11.4068288,76.7138973,PM10,40,155,84
India,TamilNadu,Ooty,"Bombay Castel, Ooty - TNPCB",11-05-2024 17:00:00,11.4068288,76.7138973,OZONE,5,5,5
India,TamilNadu,Palkalaiperur,"Bharathidasan University, Palkalaiperur - TNPCB",11-05-2024 17:00:00,10.681158,78.741746,PM2.5,NA,NA,NA
India,TamilNadu,Ramanathapuram,"Chalai Bazaar, Ramanathapuram - TNPCB",11-05-2024 17:00:00,9.36399,78.831977,SO2,6,12,8
India,TamilNadu,Ramanathapuram,"Chalai Bazaar, Ramanathapuram - TNPCB",11-05-2024 17:00:00,9.36399,78.831977,CO,1,8,4
India,TamilNadu,Thoothukudi,"Meelavittan, Thoothukudi - TNPCB",11-05-2024 17:00:00,8.816428 ,78.099039,NO2,33,56,39
India,TamilNadu,Thoothukudi,"Meelavittan, Thoothukudi - TNPCB",11-05-2024 17:00:00,8.816428 ,78.099039,OZONE,5,90,27
India,TamilNadu,Tirupur,"Kumaran College, Tirupur - TNPCB",11-05-2024 17:00:00,11.0973603,77.3228673,NO2,11,30,17
India,TamilNadu,Tirupur,"Kumaran College, Tirupur - TNPCB",11-05-2024 17:00:00,11.0973603,77.3228673,NH3,NA,NA,NA
India,TamilNadu,Tirupur,"Kumaran College, Tirupur - TNPCB",11-05-2024 17:00:00,11.0973603,77.3228673,OZONE,6,7,7
India,Telangana,Hyderabad,"Bollaram Industrial Area, Hyderabad - TSPCB",11-05-2024 17:00:00,17.540891,78.358528,PM2.5,23,93,44
India,Telangana,Hyderabad,"Bollaram Industrial Area, Hyderabad - TSPCB",11-05-2024 17:00:00,17.540891,78.358528,OZONE,34,37,35
India,Telangana,Hyderabad,"Central University, Hyderabad - TSPCB",11-05-2024 17:00:00,17.460103,78.334361,NH3,2,6,5
India,Telangana,Hyderabad,"ECIL Kapra, Hyderabad - TSPCB",11-05-2024 17:00:00,17.470431,78.566959,CO,6,48,13
India,Telangana,Hyderabad,"ICRISAT Patancheru, Hyderabad - TSPCB",11-05-2024 17:00:00,17.518400,78.278777,NO2,16,17,16
India,Telangana,Hyderabad,"ICRISAT Patancheru, Hyderabad - TSPCB",11-05-2024 17:00:00,17.518400,78.278777,SO2,10,29,19
India,Telangana,Hyderabad,"IITH Kandi, Hyderabad - TSPCB",11-05-2024 17:00:00,17.585705,78.126199,PM2.5,NA,NA,NA
India,Telangana,Hyderabad,"IITH Kandi, Hyderabad - TSPCB",11-05-2024 17:00:00,17.585705,78.126199,CO,24,24,24
India,Telangana,Hyderabad,"Kokapet, Hyderabad - TSPCB",11-05-2024 17:00:00,17.393559,78.339194,NO2,NA,NA,NA
India,Telangana,Hyderabad,"Nacharam_TSIIC IALA, Hyderabad - TSPCB",11-05-2024 17:00:00,17.429398,78.569354,SO2,NA,NA,NA
India,Telangana,Hyderabad,"New Malakpet, Hyderabad - TSPCB",11-05-2024 17:00:00,17.37206,78.50864,OZONE,12,48,38
India,Telangana,Hyderabad,"Ramachandrapuram, Hyderabad - TSPCB",11-05-2024 17:00:00,17.528544,78.286195,NO2,7,11,8
India,Telangana,Hyderabad,"Sanathnagar, Hyderabad - TSPCB",11-05-2024 17:00:00,17.4559458,78.4332152,SO2,3,44,15
India,Telangana,Hyderabad,"Somajiguda, Hyderabad - TSPCB",11-05-2024 17:00:00,17.417094,78.457437,PM2.5,NA,NA,NA
India,Telangana,Hyderabad,"Zoo Park, Hyderabad - TSPCB",11-05-2024 17:00:00,17.349694,78.451437,PM10,31,156,96
India,Telangana,Hyderabad,"Zoo Park, Hyderabad - TSPCB",11-05-2024 17:00:00,17.349694,78.451437,NO2,17,37,29
India,Telangana,Hyderabad,"Zoo Park, Hyderabad - TSPCB",11-05-2024 17:00:00,17.349694,78.451437,NH3,NA,NA,NA
India,Telangana,Hyderabad,"Zoo Park, Hyderabad - TSPCB",11-05-2024 17:00:00,17.349694,78.451437,CO,29,66,40
India,Tripura,Agartala,"Bardowali, Agartala - Tripura SPCB",11-05-2024 17:00:00,23.8175497,91.2726974,PM2.5,22,151,78
India,Tripura,Agartala,"Bardowali, Agartala - Tripura SPCB",11-05-2024 17:00:00,23.8175497,91.2726974,SO2,30,31,30
India,Uttar_Pradesh,Agra,"Manoharpur, Agra - UPPCB",11-05-2024 17:00:00,27.23711,78.01936,PM10,24,93,43
India,Uttar_Pradesh,Agra,"Sanjay Palace, Agra - UPPCB",11-05-2024 17:00:00,27.19865833,78.00598056,PM2.5,5,41,24
India,Uttar_Pradesh,Agra,"Sanjay Palace, Agra - UPPCB",11-05-2024 17:00:00,27.19865833,78.00598056,SO2,1,54,10
India,Uttar_Pradesh,Agra,"Sector-3B Avas Vikas Colony, Agra - UPPCB",11-05-2024 17:00:00,27.19412,77.96237,NH3,4,20,10
India,Uttar_Pradesh,Agra,"Shahjahan Garden, Agra - UPPCB",11-05-2024 17:00:00,27.169338,78.03582,SO2,NA,NA,NA
India,Uttar_Pradesh,Agra,"Shastripuram, Agra - UPPCB",11-05-2024 17:00:00,27.19862,77.92066,CO,8,13,11
India,Uttar_Pradesh,Baghpat,"Sardar Patel Inter College, Baghpat - UPPCB",11-05-2024 17:00:00,28.964949,77.278761,OZONE,NA,NA,NA
India,Uttar_Pradesh,Bareilly,"Rajendra Nagar, Bareilly - UPPCB",11-05-2024 17:00:00,28.38910936,79.42963708,PM10,15,76,51
India,Uttar_Pradesh,Bareilly,"Rajendra Nagar, Bareilly - UPPCB",11-05-2024 17:00:00,28.38910936,79.42963708,OZONE,1,52,1
India,Uttar_Pradesh,Bulandshahr,"Yamunapuram, Bulandshahr - UPPCB",11-05-2024 17:00:00,28.406963,77.849831,NH3,12,17,15
India,Uttar_Pradesh,Firozabad,"Nagla Bhau, Firozabad - UPPCB",11-05-2024 17:00:00,27.168897,78.376960,OZONE,17,21,18
India,Uttar_Pradesh,Firozabad,"Vibhab Nagar, Firozabad - UPPCB",11-05-2024 17:00:00,27.1594,78.3953,PM2.5,NA,NA,NA
India,Uttar_Pradesh,Ghaziabad,"Indirapuram, Ghaziabad - UPPCB",11-05-2024 17:00:00,28.646233,77.358075,OZONE,22,222,147
India,Uttar_Pradesh,Ghaziabad,"Loni, Ghaziabad - UPPCB",11-05-2024 17:00:00,28.757294,77.278792,CO,6,86,26
India,Uttar_Pradesh,Ghaziabad,"Sanjay Nagar, Ghaziabad - UPPCB",11-05-2024 17:00:00,28.685382,77.453839,SO2,12,41,23
India,Uttar_Pradesh,Ghaziabad,"Sanjay Nagar, Ghaziabad - UPPCB",11-05-2024 17:00:00,28.685382,77.453839,CO,30,68,37
India,Uttar_Pradesh,Gorakhpur,"Madan Mohan Malaviya University of Technology, Gorakhpur - UPPCB",11-05-2024 17:00:00,26.730136,83.433859,NH3,1,2,2
India,Uttar_Pradesh,Greater Noida,"Knowledge Park - III, Greater Noida - UPPCB",11-05-2024 17:00:00,28.47272,77.482000,PM10,60,446,202
India,Uttar_Pradesh,Greater Noida,"Knowledge Park - III, Greater Noida - UPPCB",11-05-2024 17:00:00,28.47272,77.482000,CO,56,107,74
India,Uttar_Pradesh,Greater Noida,"Knowledge Park - V, Greater Noida - UPPCB",11-05-2024 17:00:00,28.557054,77.453663,SO2,8,17,11
India,Uttar_Pradesh,Greater Noida,"Knowledge Park - V, Greater Noida - UPPCB",11-05-2024 17:00:00,28.557054,77.453663,OZONE,50,264,216
India,Uttar_Pradesh,Hapur,"Anand Vihar, Hapur - UPPCB",11-05-2024 17:00:00,28.725645,77.749675,CO,24,34,28
India,Uttar_Pradesh,Hapur,"Anand Vihar, Hapur - UPPCB",11-05-2024 17:00:00,28.725645,77.749675,OZONE,16,87,64
India,Uttar_Pradesh,Jhansi,"Shivaji Nagar, Jhansi - UPPCB",11-05-2024 17:00:00,25.4547,78.6039,SO2,15,20,17
India,Uttar_Pradesh,Kanpur,"FTI Kidwai Nagar, Kanpur - UPPCB",11-05-2024 17:00:00,26.428282,80.327067,OZONE,16,49,33
India,Uttar_Pradesh,Kanpur,"NSI Kalyanpur, Kanpur - UPPCB",11-05-2024 17:00:00,26.509954,80.249612,SO2,23,28,25
India,Uttar_Pradesh,Kanpur,"NSI Kalyanpur, Kanpur - UPPCB",11-05-2024 17:00:00,26.509954,80.249612,OZONE,30,59,40
India,Uttar_Pradesh,Khurja,"Kalindi Kunj, Khurja - UPPCB",11-05-2024 17:00:00,28.2348927,77.8683002,SO2,51,72,60
India,Uttar_Pradesh,Lucknow,"B R Ambedkar University, Lucknow - UPPCB",11-05-2024 17:00:00,26.766433,80.927299,OZONE,29,74,57
India,Uttar_Pradesh,Lucknow,"Gomti Nagar, Lucknow - UPPCB",11-05-2024 17:00:00,26.868120,81.005119,PM2.5,2,420,73
India,Uttar_Pradesh,Lucknow,"Kendriya Vidyalaya, Lucknow - CPCB",11-05-2024 17:00:00,26.906111,80.948222,OZONE,57,164,101
India,Uttar_Pradesh,Lucknow,"Kukrail Picnic Spot-1, Lucknow - UPPCB",11-05-2024 17:00:00,26.90723,80.98579,NH3,2,2,2
India,Uttar_Pradesh,Lucknow,"Talkatora District Industries Center, Lucknow - CPCB",11-05-2024 17:00:00,26.83399722,80.8917361,PM2.5,99,346,266
India,Uttar_Pradesh,Lucknow,"Talkatora District Industries Center, Lucknow - CPCB",11-05-2024 17:00:00,26.83399722,80.8917361,OZONE,2,81,48
India,Uttar_Pradesh,Meerut,"Jai Bhim Nagar, Meerut - UPPCB",11-05-2024 17:00:00,28.9535882,77.7622941,NO2,14,39,21
India,Uttar_Pradesh,Meerut,"Jai Bhim Nagar, Meerut - UPPCB",11-05-2024 17:00:00,28.9535882,77.7622941,NH3,4,11,6
India,Uttar_Pradesh,Meerut,"Jai Bhim Nagar, Meerut - UPPCB",11-05-2024 17:00:00,28.9535882,77.7622941,CO,16,71,30
India,Uttar_Pradesh,Meerut,"Jai Bhim Nagar, Meerut - UPPCB",11-05-2024 17:00:00,28.9535882,77.7622941,OZONE,60,198,139
India,Uttar_Pradesh,Moradabad,"Buddhi Vihar, Moradabad - UPPCB",11-05-2024 17:00:00,28.83526,78.74460,PM2.5,15,116,55
India,Uttar_Pradesh,Moradabad,"Eco Herbal Park, Moradabad - UPPCB",11-05-2024 17:00:00,28.840739,78.697531,PM10,21,248,87
India,Uttar_Pradesh,Moradabad,"Eco Herbal Park, Moradabad - UPPCB",11-05-2024 17:00:00,28.840739,78.697531,NO2,9,31,19
India,Uttar_Pradesh,Moradabad,"Eco Herbal Park, Moradabad - UPPCB",11-05-2024 17:00:00,28.840739,78.697531,NH3,4,8,5
India,Uttar_Pradesh,Moradabad,"Employment Office, Moradabad - UPPCB",11-05-2024 17:00:00,28.88528,78.73880,NH3,4,4,4
India,Uttar_Pradesh,Moradabad,"Jigar Colony, Moradabad - UPPCB",11-05-2024 17:00:00,28.856664,78.772638,PM10,48,401,112
India,Uttar_Pradesh,Moradabad,"Jigar Colony, Moradabad - UPPCB",11-05-2024 17:00:00,28.856664,78.772638,NH3,7,11,7
India,Uttar_Pradesh,Moradabad,"Kashiram Nagar, Moradabad - UPPCB",11-05-2024 17:00:00,28.849399,78.742362,NO2,3,4,4
India,Uttar_Pradesh,Moradabad,"Kashiram Nagar, Moradabad - UPPCB",11-05-2024 17:00:00,28.849399,78.742362,CO,28,39,29
India,Uttar_Pradesh,Moradabad,"Kashiram Nagar, Moradabad - UPPCB",11-05-2024 17:00:00,28.849399,78.742362,OZONE,9,18,11
India,Uttar_Pradesh,Muzaffarnagar,"New Mandi, Muzaffarnagar - UPPCB",11-05-2024 17:00:00,29.4723508,77.7194031,PM2.5,51,265,138
India,Uttar_Pradesh,Muzaffarnagar,"New Mandi, Muzaffarnagar - UPPCB",11-05-2024 17:00:00,29.4723508,77.7194031,CO,22,66,38
India,Uttar_Pradesh,Noida,"Sector - 125, Noida - UPPCB",11-05-2024 17:00:00,28.5447608,77.3231257,NO2,NA,NA,NA
India,Uttar_Pradesh,Noida,"Sector - 125, Noida - UPPCB",11-05-2024 17:00:00,28.5447608,77.3231257,NH3,NA,NA,NA
India,Uttar_Pradesh,Noida,"Sector-1, Noida - UPPCB",11-05-2024 17:00:00,28.5898,77.3101,NO2,12,79,36
India,Uttar_Pradesh,Noida,"Sector-116, Noida - UPPCB",11-05-2024 17:00:00,28.569230,77.393848,NO2,22,83,37
India,Uttar_Pradesh,Noida,"Sector-116, Noida - UPPCB",11-05-2024 17:00:00,28.569230,77.393848,CO,12,74,39
India,Uttar_Pradesh,Noida,"Sector-116, Noida - UPPCB",11-05-2024 17:00:00,28.569230,77.393848,OZONE,42,191,119
India,Uttar_Pradesh,Prayagraj,"Motilal Nehru NIT, Prayagraj - UPPCB",11-05-2024 17:00:00,25.494,81.863,PM2.5,23,54,37
India,Uttar_Pradesh,Prayagraj,"Motilal Nehru NIT, Prayagraj - UPPCB",11-05-2024 17:00:00,25.494,81.863,NO2,11,12,12
India,Uttar_Pradesh,Prayagraj,"Motilal Nehru NIT, Prayagraj - UPPCB",11-05-2024 17:00:00,25.494,81.863,OZONE,22,65,52
India,Uttar_Pradesh,Prayagraj,"Nagar Nigam, Prayagraj - UPPCB",11-05-2024 17:00:00,25.44919916 ,81.82735986 ,PM2.5,32,73,46
India,Uttar_Pradesh,Prayagraj,"Nagar Nigam, Prayagraj - UPPCB",11-05-2024 17:00:00,25.44919916 ,81.82735986 ,NO2,5,5,5
India,Uttar_Pradesh,Prayagraj,"Nagar Nigam, Prayagraj - UPPCB",11-05-2024 17:00:00,25.44919916 ,81.82735986 ,CO,14,31,19
India,Uttar_Pradesh,Varanasi,"Ardhali Bazar, Varanasi - UPPCB",11-05-2024 17:00:00,25.3505986,82.9083074,PM10,26,108,45
India,Uttar_Pradesh,Varanasi,"Ardhali Bazar, Varanasi - UPPCB",11-05-2024 17:00:00,25.3505986,82.9083074,NO2,11,21,14
India,Uttar_Pradesh,Varanasi,"Ardhali Bazar, Varanasi - UPPCB",11-05-2024 17:00:00,25.3505986,82.9083074,SO2,13,24,17
India,Uttar_Pradesh,Varanasi,"IESD Banaras Hindu University, Varanasi - UPPCB",11-05-2024 17:00:00,25.262326,82.995408,CO,3,10,8
India,Uttar_Pradesh,Varanasi,"IESD Banaras Hindu University, Varanasi - UPPCB",11-05-2024 17:00:00,25.262326,82.995408,OZONE,NA,NA,NA
India,Uttar_Pradesh,Vrindavan,"Omex Eternity, Vrindavan - UPPCB",11-05-2024 17:00:00,27.5714090,77.6557570,CO,30,52,32
India,Uttarakhand,Kashipur,"Govt. Girls Inter College, Kashipur - UKPCB",11-05-2024 17:00:00,29.2124114,78.9611753,PM10,NA,NA,NA
India,Uttarakhand,Kashipur,"Govt. Girls Inter College, Kashipur - UKPCB",11-05-2024 17:00:00,29.2124114,78.9611753,CO,5,50,7
India,Uttarakhand,Kashipur,"Govt. Girls Inter College, Kashipur - UKPCB",11-05-2024 17:00:00,29.2124114,78.9611753,OZONE,27,128,55
India,Uttarakhand,Rishikesh,"Shivaji Nagar, Rishikesh - UKPCB",11-05-2024 17:00:00,30.075911,78.2859547,PM10,42,123,83
India,Uttarakhand,Rishikesh,"Shivaji Nagar, Rishikesh - UKPCB",11-05-2024 17:00:00,30.075911,78.2859547,OZONE,47,131,101
India,West_Bengal,Asansol,"Asansol Court Area, Asansol - WBPCB",11-05-2024 17:00:00,23.685297,86.945968,PM2.5,50,255,107
India,West_Bengal,Asansol,"Asansol Court Area, Asansol - WBPCB",11-05-2024 17:00:00,23.685297,86.945968,CO,6,32,24
India,West_Bengal,Barrackpore,"SVSPA Campus, Barrackpore - WBPCB",11-05-2024 17:00:00,22.7605581,88.3617589,PM2.5,17,48,36
India,West_Bengal,Barrackpore,"SVSPA Campus, Barrackpore - WBPCB",11-05-2024 17:00:00,22.7605581,88.3617589,PM10,27,87,54
India,West_Bengal,Barrackpore,"SVSPA Campus, Barrackpore - WBPCB",11-05-2024 17:00:00,22.7605581,88.3617589,NO2,2,25,13
India,West_Bengal,Barrackpore,"SVSPA Campus, Barrackpore - WBPCB",11-05-2024 17:00:00,22.7605581,88.3617589,NH3,1,2,1
India,West_Bengal,Durgapur,"PCBL Residential Complex, Durgapur - WBPCB",11-05-2024 17:00:00,23.5087640,87.3544400,CO,40,105,55
India,West_Bengal,Haldia,"Priyambada Housing Estate, Haldia - WBPCB",11-05-2024 17:00:00,22.06047,88.109737,PM10,16,40,28
India,West_Bengal,Haldia,"Priyambada Housing Estate, Haldia - WBPCB",11-05-2024 17:00:00,22.06047,88.109737,NO2,10,26,15
India,West_Bengal,Haldia,"Priyambada Housing Estate, Haldia - WBPCB",11-05-2024 17:00:00,22.06047,88.109737,SO2,11,18,13
India,West_Bengal,Howrah,"Belur Math, Howrah - WBPCB",11-05-2024 17:00:00,22.629801,88.352017,NH3,1,2,1
India,West_Bengal,Howrah,"Ghusuri, Howrah - WBPCB",11-05-2024 17:00:00,22.611968,88.347422,SO2,4,6,5
India,West_Bengal,Howrah,"Ghusuri, Howrah - WBPCB",11-05-2024 17:00:00,22.611968,88.347422,OZONE,11,20,14
India,West_Bengal,Howrah,"Padmapukur, Howrah - WBPCB",11-05-2024 17:00:00,22.5687319,88.2797276,PM2.5,21,65,37
India,West_Bengal,Howrah,"Padmapukur, Howrah - WBPCB",11-05-2024 17:00:00,22.5687319,88.2797276,NO2,12,48,27
India,West_Bengal,Howrah,"Padmapukur, Howrah - WBPCB",11-05-2024 17:00:00,22.5687319,88.2797276,NH3,6,11,8
India,West_Bengal,Kolkata,"Bidhannagar, Kolkata - WBPCB",11-05-2024 17:00:00,22.58157048,88.41002457,SO2,7,12,9
India,West_Bengal,Kolkata,"Fort William, Kolkata - WBPCB",11-05-2024 17:00:00,22.556640,88.342674,SO2,7,16,9
India,West_Bengal,Kolkata,"Rabindra Bharati University, Kolkata - WBPCB",11-05-2024 17:00:00,22.627847,88.380669,SO2,8,84,14
India,West_Bengal,Kolkata,"Rabindra Sarobar, Kolkata - WBPCB",11-05-2024 17:00:00,22.51106,88.35142,NH3,6,10,7
India,West_Bengal,Kolkata,"Victoria, Kolkata - WBPCB",11-05-2024 17:00:00,22.5448082,88.3403691,PM2.5,24,45,34
India,West_Bengal,Kolkata,"Victoria, Kolkata - WBPCB",11-05-2024 17:00:00,22.5448082,88.3403691,OZONE,8,40,28
India,West_Bengal,Siliguri,"Ward-32 Bapupara, Siliguri - WBPCB",11-05-2024 17:00:00,26.6879226,88.4152495,PM2.5,37,48,42
India,West_Bengal,Siliguri,"Ward-32 Bapupara, Siliguri - WBPCB",11-05-2024 17:00:00,26.6879226,88.4152495,PM10,32,65,46
India,West_Bengal,Siliguri,"Ward-32 Bapupara, Siliguri - WBPCB",11-05-2024 17:00:00,26.6879226,88.4152495,NO2,25,61,40
India,West_Bengal,Siliguri,"Ward-32 Bapupara, Siliguri - WBPCB",11-05-2024 17:00:00,26.6879226,88.4152495,NH3,8,11,9
India,West_Bengal,Siliguri,"Ward-32 Bapupara, Siliguri - WBPCB",11-05-2024 17:00:00,26.6879226,88.4152495,SO2,6,8,7
India,Andhra_Pradesh,Amaravati,"Secretariat, Amaravati - APPCB",11-05-2024 17:00:00,16.5150833,80.5181667,NO2,6,31,15
India,Andhra_Pradesh,Amaravati,"Secretariat, Amaravati - APPCB",11-05-2024 17:00:00,16.5150833,80.5181667,SO2,11,15,14
India,Andhra_Pradesh,Kadapa,"Yerramukkapalli, Kadapa - APPCB",11-05-2024 17:00:00,14.465052,78.824187,NO2,12,13,12
India,Andhra_Pradesh,Rajamahendravaram,"Anand Kala Kshetram, Rajamahendravaram - APPCB",11-05-2024 17:00:00,16.9872867,81.7363176,SO2,12,12,12
India,Andhra_Pradesh,Rajamahendravaram,"Anand Kala Kshetram, Rajamahendravaram - APPCB",11-05-2024 17:00:00,16.9872867,81.7363176,OZONE,24,53,45
India,Andhra_Pradesh,Tirupati,"Tirumala, Tirupati - APPCB",11-05-2024 17:00:00,13.67,79.35,PM10,10,64,33
India,Andhra_Pradesh,Tirupati,"Tirumala, Tirupati - APPCB",11-05-2024 17:00:00,13.67,79.35,CO,34,51,44
India,Andhra_Pradesh,Tirupati,"Tirumala, Tirupati - APPCB",11-05-2024 17:00:00,13.67,79.35,OZONE,11,46,27
India,Andhra_Pradesh,Vijayawada,"HB Colony, Vijayawada - APPCB",11-05-2024 17:00:00,16.536107,80.594233,PM2.5,42,48,47
India,Andhra_Pradesh,Vijayawada,"Kanuru, Vijayawada - APPCB",11-05-2024 17:00:00,16.486692,80.699436,NO2,49,53,51
India,Andhra_Pradesh,Vijayawada,"Kanuru, Vijayawada - APPCB",11-05-2024 17:00:00,16.486692,80.699436,CO,39,39,39
India,Andhra_Pradesh,Vijayawada,"Rajiv Gandhi Park, Vijayawada - APPCB",11-05-2024 17:00:00,16.509717,80.612222,NO2,41,74,58
India,Andhra_Pradesh,Vijayawada,"Rajiv Nagar, Vijayawada - APPCB",11-05-2024 17:00:00,16.554731,80.649110,CO,36,36,36
India,Andhra_Pradesh,Visakhapatnam,"GVM Corporation, Visakhapatnam - APPCB",11-05-2024 17:00:00,17.72,83.3,CO,6,54,14
India,Arunachal_Pradesh,Naharlagun,"Naharlagun, Naharlagun - APSPCB",11-05-2024 17:00:00,27.103358,93.679645,OZONE,2,2,2
India,Assam,Byrnihat,"Central Academy for SFS, Byrnihat - PCBA",11-05-2024 17:00:00,26.071318,91.87488,PM2.5,30,491,244
India,Assam,Byrnihat,"Central Academy for SFS, Byrnihat - PCBA",11-05-2024 17:00:00,26.071318,91.87488,OZONE,22,68,23
India,Assam,Guwahati,"IITG, Guwahati - PCBA",11-05-2024 17:00:00,26.2028636,91.70046436,SO2,12,13,13
India,Assam,Guwahati,"IITG, Guwahati - PCBA",11-05-2024 17:00:00,26.2028636,91.70046436,OZONE,7,30,26
India,Assam,Guwahati,"Pan Bazaar, Guwahati - PCBA",11-05-2024 17:00:00,26.187500,91.744194,NO2,NA,NA,NA
India,Assam,Guwahati,"Pan Bazaar, Guwahati - PCBA",11-05-2024 17:00:00,26.187500,91.744194,CO,18,32,23
India,Assam,Guwahati,"Railway Colony, Guwahati - PCBA",11-05-2024 17:00:00,26.181742,91.78063,NO2,3,4,3
India,Assam,Nagaon,"Christianpatty, Nagaon - PCBA",11-05-2024 17:00:00,26.349082,92.68449,PM10,64,101,74
India,Assam,Nalbari,"Bata Chowk, Nalbari - PCBA",11-05-2024 17:00:00,26.446912,91.439057,SO2,9,17,11
India,Assam,Silchar,"Tarapur, Silchar - PCBA",11-05-2024 17:00:00,24.82827,92.79525,PM10,43,60,51
India,Assam,Silchar,"Tarapur, Silchar - PCBA",11-05-2024 17:00:00,24.82827,92.79525,NO2,15,16,16
India,Assam,Silchar,"Tarapur, Silchar - PCBA",11-05-2024 17:00:00,24.82827,92.79525,SO2,5,5,5
India,Assam,Sivasagar,"Girls College, Sivasagar - PCBA",11-05-2024 17:00:00,26.987634,94.636574,CO,23,30,24
India,Bihar,Aurangabad,"Gurdeo Nagar, Aurangabad - BSPCB",11-05-2024 17:00:00,24.75746,84.366208,NH3,5,32,13
India,Bihar,Aurangabad,"Gurdeo Nagar, Aurangabad - BSPCB",11-05-2024 17:00:00,24.75746,84.366208,OZONE,36,144,94
India,Bihar,Bhagalpur,"DM Office_Kachari Chowk, Bhagalpur - BSPCB",11-05-2024 17:00:00,25.251013,86.989001,NH3,5,9,7
India,Bihar,Bhagalpur,"Mayaganj, Bhagalpur - BSPCB",11-05-2024 17:00:00,25.265194,87.012947,OZONE,8,31,25
India,Bihar,Bihar Sharif,"D M Colony, Bihar Sharif - BSPCB",11-05-2024 17:00:00,25.204762,85.514960,PM10,26,102,65
India,Bihar,Bihar Sharif,"D M Colony, Bihar Sharif - BSPCB",11-05-2024 17:00:00,25.204762,85.514960,NH3,2,2,2
India,Bihar,Chhapra,"Darshan Nagar, Chhapra - BSPCB",11-05-2024 17:00:00,25.7808257,84.7446768,CO,31,63,48
India,Bihar,Gaya,"Collectorate, Gaya - BSPCB",11-05-2024 17:00:00,24.7955,84.9994,NO2,1,4,3
India,Bihar,Gaya,"Collectorate, Gaya - BSPCB",11-05-2024 17:00:00,24.7955,84.9994,OZONE,40,82,57
India,Bihar,Gaya,"Kareemganj, Gaya - BSPCB",11-05-2024 17:00:00,24.792403,84.992416,NH3,2,7,4
India,Bihar,Hajipur,"Industrial Area, Hajipur - BSPCB",11-05-2024 17:00:00,25.697189,85.245900,SO2,4,8,6
India,Bihar,Katihar,"Mirchaibari, Katihar - BSPCB",11-05-2024 17:00:00,25.560083,87.553265,NO2,8,23,16
India,Bihar,Manguraha,"Forest Rest House, Manguraha - BSPCB",11-05-2024 17:00:00,27.308328,84.531742,PM10,NA,NA,NA
India,Bihar,Motihari,"Gandak Colony, Motihari - BSPCB",11-05-2024 17:00:00,26.63086,84.90051,NH3,NA,NA,NA
India,Bihar,Motihari,"Gandak Colony, Motihari - BSPCB",11-05-2024 17:00:00,26.63086,84.90051,SO2,NA,NA,NA
India,Bihar,Munger,"Town Hall, Munger - BSPCB",11-05-2024 17:00:00,25.376776,86.471523,SO2,13,29,23
India,Bihar,Muzaffarpur,"MIT-Daudpur Kothi, Muzaffarpur - BSPCB",11-05-2024 17:00:00,26.1403345,85.3650192,PM2.5,57,173,81
India,Bihar,Muzaffarpur,"MIT-Daudpur Kothi, Muzaffarpur - BSPCB",11-05-2024 17:00:00,26.1403345,85.3650192,SO2,7,7,7
India,Bihar,Muzaffarpur,"MIT-Daudpur Kothi, Muzaffarpur - BSPCB",11-05-2024 17:00:00,26.1403345,85.3650192,OZONE,11,38,23
India,Bihar,Muzaffarpur,"Muzaffarpur Collectorate, Muzaffarpur - BSPCB",11-05-2024 17:00:00,26.1209,85.3647,OZONE,45,83,62
India,Bihar,Patna,"DRM Office Danapur, Patna - BSPCB",11-05-2024 17:00:00,25.586562,85.043586,PM2.5,74,146,110
India,Bihar,Patna,"DRM Office Danapur, Patna - BSPCB",11-05-2024 17:00:00,25.586562,85.043586,PM10,77,118,101
India,Bihar,Patna,"DRM Office Danapur, Patna - BSPCB",11-05-2024 17:00:00,25.586562,85.043586,NH3,2,3,3
India,Bihar,Patna,"Govt. High School Shikarpur, Patna - BSPCB",11-05-2024 17:00:00,25.592539,85.227158,SO2,8,11,9
India,Bihar,Patna,"IGSC Planetarium Complex, Patna - BSPCB",11-05-2024 17:00:00,25.610369,85.132568,NO2,NA,NA,NA
India,Bihar,Patna,"IGSC Planetarium Complex, Patna - BSPCB",11-05-2024 17:00:00,25.610369,85.132568,OZONE,54,87,64
India,Bihar,Patna,"Muradpur, Patna - BSPCB",11-05-2024 17:00:00,25.619651,85.147382,PM2.5,118,158,138
India,Bihar,Patna,"Muradpur, Patna - BSPCB",11-05-2024 17:00:00,25.619651,85.147382,CO,40,77,51
India,Bihar,Patna,"Samanpura, Patna - BSPCB",11-05-2024 17:00:00,25.596727,85.085624,CO,48,73,57
India,Bihar,Patna,"Samanpura, Patna - BSPCB",11-05-2024 17:00:00,25.596727,85.085624,OZONE,25,122,75
India,Bihar,Purnia,"Mariam Nagar, Purnia - BSPCB",11-05-2024 17:00:00,25.366336,87.117468,PM2.5,45,110,60
India,Bihar,Purnia,"Mariam Nagar, Purnia - BSPCB",11-05-2024 17:00:00,25.366336,87.117468,NO2,5,7,6
India,Bihar,Saharsa,"Police Line, Saharsa - BSPCB",11-05-2024 17:00:00,25.892357,86.590325,PM2.5,42,290,96
India,Bihar,Saharsa,"Police Line, Saharsa - BSPCB",11-05-2024 17:00:00,25.892357,86.590325,SO2,16,17,16
India,Bihar,Samastipur,"DM Office_Kasipur, Samastipur - BSPCB",11-05-2024 17:00:00,25.859655,85.77944,PM2.5,40,313,137
India,Bihar,Samastipur,"DM Office_Kasipur, Samastipur - BSPCB",11-05-2024 17:00:00,25.859655,85.77944,PM10,61,217,119
India,Bihar,Samastipur,"DM Office_Kasipur, Samastipur - BSPCB",11-05-2024 17:00:00,25.859655,85.77944,SO2,6,82,30
India,Bihar,Sasaram,"Dada Peer, Sasaram - BSPCB",11-05-2024 17:00:00,24.952822,84.002396,SO2,21,23,22
India,Bihar,Siwan,"Chitragupta Nagar, Siwan - BSPCB",11-05-2024 17:00:00,26.2271665,84.3570427,NH3,NA,NA,NA
India,Chandigarh,Chandigarh,"Sector-25, Chandigarh - CPCC",11-05-2024 17:00:00,30.751462,76.762879,PM2.5,129,310,221
India,Chandigarh,Chandigarh,"Sector-25, Chandigarh - CPCC",11-05-2024 17:00:00,30.751462,76.762879,NO2,5,19,10
India,Chandigarh,Chandigarh,"Sector-25, Chandigarh - CPCC",11-05-2024 17:00:00,30.751462,76.762879,CO,18,28,24
India,Chandigarh,Chandigarh,"Sector-53, Chandigarh - CPCC",11-05-2024 17:00:00,30.719859,76.738637,CO,36,57,42
India,Chhattisgarh,Bhilai,"32Bungalows, Bhilai - CECB",11-05-2024 17:00:00,21.194815,81.314770,PM2.5,29,67,42
India,Chhattisgarh,Bhilai,"32Bungalows, Bhilai - CECB",11-05-2024 17:00:00,21.194815,81.314770,NO2,14,27,21
India,Chhattisgarh,Bhilai,"32Bungalows, Bhilai - CECB",11-05-2024 17:00:00,21.194815,81.314770,NH3,6,6,6
India,Chhattisgarh,Bhilai,"32Bungalows, Bhilai - CECB",11-05-2024 17:00:00,21.194815,81.314770,OZONE,6,66,33
India,Chhattisgarh,Bhilai,"Civic Center, Bhilai - Bhilai Steel Plant",11-05-2024 17:00:00,21.185571,81.343175,NO2,11,19,14
India,Chhattisgarh,Bhilai,"Civic Center, Bhilai - Bhilai Steel Plant",11-05-2024 17:00:00,21.185571,81.343175,NH3,4,7,5
India,Chhattisgarh,Bhilai,"Civic Center, Bhilai - Bhilai Steel Plant",11-05-2024 17:00:00,21.185571,81.343175,CO,24,64,44
India,Chhattisgarh,Bilaspur,"Mangala, Bilaspur - NTPC",11-05-2024 17:00:00,22.08815,82.13737,PM2.5,16,45,33
India,Chhattisgarh,Bilaspur,"Mangala, Bilaspur - NTPC",11-05-2024 17:00:00,22.08815,82.13737,NO2,13,15,14
India,Chhattisgarh,Chhal,"Nawapara SECL Colony, Chhal - CECB",11-05-2024 17:00:00,22.118125,83.140608,NO2,9,31,20
India,Chhattisgarh,Chhal,"Nawapara SECL Colony, Chhal - CECB",11-05-2024 17:00:00,22.118125,83.140608,SO2,12,46,23
India,Chhattisgarh,Chhal,"Nawapara SECL Colony, Chhal - CECB",11-05-2024 17:00:00,22.118125,83.140608,OZONE,23,108,81
India,Chhattisgarh,Korba,"Rampur, Korba - CECB",11-05-2024 17:00:00,22.368195,82.746431,NH3,1,1,1
India,Chhattisgarh,Korba,"Rampur, Korba - CECB",11-05-2024 17:00:00,22.368195,82.746431,OZONE,8,34,25
India,Chhattisgarh,Kunjemura,"OP Jindal School, Kunjemura - CECB",11-05-2024 17:00:00,22.126650,83.483212,SO2,1,11,5
India,Chhattisgarh,Kunjemura,"OP Jindal School, Kunjemura - CECB",11-05-2024 17:00:00,22.126650,83.483212,CO,20,51,25
India,Chhattisgarh,Milupara,"Govt. Higher Secondary School, Milupara - CECB",11-05-2024 17:00:00,22.1910172,83.5197009,NO2,12,82,42
India,Chhattisgarh,Milupara,"Govt. Higher Secondary School, Milupara - CECB",11-05-2024 17:00:00,22.1910172,83.5197009,OZONE,5,30,24
India,Chhattisgarh,Raipur,"Krishak Nagar, Raipur - CECB",11-05-2024 17:00:00,21.237755,81.705301,NH3,NA,NA,NA
India,Chhattisgarh,Raipur,"Siltara Phase-II, Raipur - CECB",11-05-2024 17:00:00,21.371751,81.664929,PM2.5,33,85,50
India,Chhattisgarh,Raipur,"Siltara Phase-II, Raipur - CECB",11-05-2024 17:00:00,21.371751,81.664929,OZONE,3,34,19
India,Chhattisgarh,Tumidih,"OP Jindal Industrial Park, Tumidih - CECB",11-05-2024 17:00:00,22.06631475,83.33820077,PM10,41,156,95
India,Delhi,Delhi,"Alipur, Delhi - DPCC",11-05-2024 17:00:00,28.815329,77.153010,PM2.5,NA,NA,NA
India,Delhi,Delhi,"Alipur, Delhi - DPCC",11-05-2024 17:00:00,28.815329,77.153010,NH3,NA,NA,NA
India,Delhi,Delhi,"Alipur, Delhi - DPCC",11-05-2024 17:00:00,28.815329,77.153010,OZONE,NA,NA,NA
India,Delhi,Delhi,"Ashok Vihar, Delhi - DPCC",11-05-2024 17:00:00,28.695381,77.181665,NO2,10,74,34
India,Delhi,Delhi,"Aya Nagar, Delhi - IMD",11-05-2024 17:00:00,28.4706914,77.1099364,PM2.5,16,306,180
India,Delhi,Delhi,"Chandni Chowk, Delhi - IITM",11-05-2024 17:00:00,28.656756,77.227234,NO2,11,187,92
India,Delhi,Delhi,"DTU, Delhi - CPCB",11-05-2024 17:00:00,28.7500499,77.1112615,PM10,25,500,298
India,Delhi,Delhi,"Dr. Karni Singh Shooting Range, Delhi - DPCC",11-05-2024 17:00:00,28.498571,77.264840,PM2.5,22,303,114
India,Delhi,Delhi,"Dr. Karni Singh Shooting Range, Delhi - DPCC",11-05-2024 17:00:00,28.498571,77.264840,NH3,7,12,9
India,Delhi,Delhi,"Dwarka-Sector 8, Delhi - DPCC ",11-05-2024 17:00:00,28.5710274,77.0719006,NO2,12,65,36
India,Delhi,Delhi,"Dwarka-Sector 8, Delhi - DPCC ",11-05-2024 17:00:00,28.5710274,77.0719006,SO2,2,9,6
India,Delhi,Delhi,"IGI Airport (T3), Delhi - IMD",11-05-2024 17:00:00,28.5627763,77.1180053,CO,30,42,38
India,Delhi,Delhi,"IHBAS, Dilshad Garden, Delhi - CPCB",11-05-2024 17:00:00,28.6811736,77.3025234,PM10,NA,NA,NA
India,Delhi,Delhi,"IHBAS, Dilshad Garden, Delhi - CPCB",11-05-2024 17:00:00,28.6811736,77.3025234,CO,54,71,63
India,Delhi,Delhi,"ITO, Delhi - CPCB",11-05-2024 17:00:00,28.628624,77.241060,CO,20,103,43
India,Delhi,Delhi,"ITO, Delhi - CPCB",11-05-2024 17:00:00,28.628624,77.241060,OZONE,19,158,91
India,Delhi,Delhi,"Jawaharlal Nehru Stadium, Delhi - DPCC",11-05-2024 17:00:00,28.580280,77.233829,PM10,25,434,201
India,Delhi,Delhi,"Jawaharlal Nehru Stadium, Delhi - DPCC",11-05-2024 17:00:00,28.580280,77.233829,NO2,5,118,48
India,Delhi,Delhi,"Lodhi Road, Delhi - IITM",11-05-2024 17:00:00,28.588333,77.221667,NO2,9,50,22
India,Delhi,Delhi,"Lodhi Road, Delhi - IMD",11-05-2024 17:00:00,28.5918245,77.2273074,PM2.5,NA,NA,NA
India,Delhi,Delhi,"Mundka, Delhi - DPCC",11-05-2024 17:00:00,28.684678,77.076574,NH3,6,12,8
India,Delhi,Delhi,"NSIT Dwarka, Delhi - CPCB",11-05-2024 17:00:00,28.60909,77.0325413,NO2,NA,NA,NA
India,Delhi,Delhi,"Najafgarh, Delhi - DPCC",11-05-2024 17:00:00,28.570173,76.933762,PM10,NA,NA,NA
India,Delhi,Delhi,"Nehru Nagar, Delhi - DPCC",11-05-2024 17:00:00,28.567890,77.250515,NH3,2,41,5
India,Delhi,Delhi,"North Campus, DU, Delhi - IMD",11-05-2024 17:00:00,28.6573814,77.1585447,NO2,NA,NA,NA
India,Delhi,Delhi,"North Campus, DU, Delhi - IMD",11-05-2024 17:00:00,28.6573814,77.1585447,OZONE,NA,NA,NA
India,Delhi,Delhi,"Okhla Phase-2, Delhi - DPCC",11-05-2024 17:00:00,28.530785,77.271255,PM10,49,450,217
India,Delhi,Delhi,"Okhla Phase-2, Delhi - DPCC",11-05-2024 17:00:00,28.530785,77.271255,SO2,9,14,11
India,Delhi,Delhi,"Patparganj, Delhi - DPCC",11-05-2024 17:00:00,28.623763,77.287209,PM2.5,12,345,168
India,Delhi,Delhi,"Patparganj, Delhi - DPCC",11-05-2024 17:00:00,28.623763,77.287209,SO2,3,8,6
India,Delhi,Delhi,"Punjabi Bagh, Delhi - DPCC",11-05-2024 17:00:00,28.674045,77.131023,NO2,27,50,40
India,Delhi,Delhi,"R K Puram, Delhi - DPCC",11-05-2024 17:00:00,28.563262,77.186937,NO2,NA,NA,NA
India,Delhi,Delhi,"Rohini, Delhi - DPCC",11-05-2024 17:00:00,28.732528,77.119920,PM2.5,NA,NA,NA
India,Delhi,Delhi,"Shadipur, Delhi - CPCB",11-05-2024 17:00:00,28.6514781,77.1473105,CO,38,89,57
India,Delhi,Delhi,"Sirifort, Delhi - CPCB",11-05-2024 17:00:00,28.5504249,77.2159377,PM10,34,500,223
India,Delhi,Delhi,"Sirifort, Delhi - CPCB",11-05-2024 17:00:00,28.5504249,77.2159377,CO,3,70,14
India,Delhi,Delhi,"Sirifort, Delhi - CPCB",11-05-2024 17:00:00,28.5504249,77.2159377,OZONE,6,145,62
India,Delhi,Delhi,"Sonia Vihar, Delhi - DPCC",11-05-2024 17:00:00,28.710508,77.249485,PM10,30,424,200
India,Delhi,Delhi,"Sonia Vihar, Delhi - DPCC",11-05-2024 17:00:00,28.710508,77.249485,NH3,6,11,8
India,Delhi,Delhi,"Sonia Vihar, Delhi - DPCC",11-05-2024 17:00:00,28.710508,77.249485,CO,36,88,49
India,Delhi,Delhi,"Sri Aurobindo Marg, Delhi - DPCC",11-05-2024 17:00:00,28.531346,77.190156,PM10,49,469,220
India,Delhi,Delhi,"Sri Aurobindo Marg, Delhi - DPCC",11-05-2024 17:00:00,28.531346,77.190156,OZONE,25,91,63
India,Delhi,Delhi,"Vivek Vihar, Delhi - DPCC",11-05-2024 17:00:00,28.672342,77.315260,PM10,NA,NA,NA
India,Delhi,Delhi,"Vivek Vihar, Delhi - DPCC",11-05-2024 17:00:00,28.672342,77.315260,NH3,NA,NA,NA
India,Gujarat,Ahmedabad,"Chandkheda, Ahmedabad - IITM",11-05-2024 17:00:00,23.107969,72.574648,NH3,1,1,1
India,Gujarat,Ahmedabad,"Gyaspur, Ahmedabad - IITM",11-05-2024 17:00:00,22.977134,72.553024,CO,39,51,43
India,Gujarat,Ahmedabad,"Maninagar, Ahmedabad - GPCB",11-05-2024 17:00:00,23.002657,72.591912,PM2.5,13,84,45
India,Gujarat,Ahmedabad,"Maninagar, Ahmedabad - GPCB",11-05-2024 17:00:00,23.002657,72.591912,NO2,34,53,43
India,Gujarat,Ahmedabad,"Maninagar, Ahmedabad - GPCB",11-05-2024 17:00:00,23.002657,72.591912,CO,71,166,112
India,Gujarat,Ahmedabad,"Raikhad, Ahmedabad - IITM",11-05-2024 17:00:00,23.020509,72.579261,PM2.5,NA,NA,NA
India,Gujarat,Ahmedabad,"Raikhad, Ahmedabad - IITM",11-05-2024 17:00:00,23.020509,72.579261,NH3,NA,NA,NA
India,Gujarat,Ahmedabad,"Raikhad, Ahmedabad - IITM",11-05-2024 17:00:00,23.020509,72.579261,CO,14,44,25
India,Gujarat,Ahmedabad,"Rakhial, Ahmedabad - IITM",11-05-2024 17:00:00,23.016834,72.625775,PM2.5,7,340,116
India,Gujarat,Ahmedabad,"Rakhial, Ahmedabad - IITM",11-05-2024 17:00:00,23.016834,72.625775,NO2,40,91,60
India,Gujarat,Ahmedabad,"Rakhial, Ahmedabad - IITM",11-05-2024 17:00:00,23.016834,72.625775,CO,82,120,104
India,Gujarat,Ahmedabad,"Rakhial, Ahmedabad - IITM",11-05-2024 17:00:00,23.016834,72.625775,OZONE,14,176,92
India,Gujarat,Ahmedabad,"SVPI Airport Hansol, Ahmedabad - IITM",11-05-2024 17:00:00,23.076793,72.627874,PM10,69,112,94
India,Gujarat,Gandhinagar,"Sector-10, Gandhinagar - GPCB",11-05-2024 17:00:00,23.221714,72.654328,NH3,1,1,1
India,Gujarat,Nandesari,"GIDC, Nandesari - Nandesari Ind. Association",11-05-2024 17:00:00,22.410802,73.097923,PM2.5,40,229,108
India,Gujarat,Vapi,"Phase-1 GIDC, Vapi - GPCB",11-05-2024 17:00:00,20.362421,72.918013,NH3,NA,NA,NA
India,Gujarat,Vapi,"Phase-1 GIDC, Vapi - GPCB",11-05-2024 17:00:00,20.362421,72.918013,OZONE,4,15,12
India,Gujarat,Vatva,"Phase-4 GIDC, Vatva - GPCB",11-05-2024 17:00:00,22.969611,72.643500,PM2.5,31,57,44
India,Gujarat,Vatva,"Phase-4 GIDC, Vatva - GPCB",11-05-2024 17:00:00,22.969611,72.643500,PM10,93,93,93
India,Gujarat,Vatva,"Phase-4 GIDC, Vatva - GPCB",11-05-2024 17:00:00,22.969611,72.643500,NH3,8,24,18
India,Haryana,Ballabgarh,"Nathu Colony, Ballabgarh - HSPCB",11-05-2024 17:00:00,28.3419248,77.319699,PM2.5,68,194,132
India,Haryana,Ballabgarh,"Nathu Colony, Ballabgarh - HSPCB",11-05-2024 17:00:00,28.3419248,77.319699,SO2,1,130,24
India,Haryana,Bhiwani,"H.B. Colony, Bhiwani - HSPCB",11-05-2024 17:00:00,28.806223,76.141105,SO2,2,86,24
India,Haryana,Bhiwani,"H.B. Colony, Bhiwani - HSPCB",11-05-2024 17:00:00,28.806223,76.141105,OZONE,10,108,15
India,Haryana,Charkhi Dadri,"Mini Secretariat, Charkhi Dadri - HSPCB",11-05-2024 17:00:00,28.593883,76.270653,CO,21,98,45
India,Haryana,Dharuhera,"Municipal Corporation Office, Dharuhera -  HSPCB",11-05-2024 17:00:00,28.206800,76.799700,PM2.5,NA,NA,NA
India,Haryana,Dharuhera,"Municipal Corporation Office, Dharuhera -  HSPCB",11-05-2024 17:00:00,28.206800,76.799700,SO2,NA,NA,NA
India,Haryana,Dharuhera,"Municipal Corporation Office, Dharuhera -  HSPCB",11-05-2024 17:00:00,28.206800,76.799700,OZONE,24,62,52
India,Haryana,Faridabad,"New Industrial Town, Faridabad - HSPCB",11-05-2024 17:00:00,28.39072,77.30059,PM10,NA,NA,NA
India,Haryana,Faridabad,"New Industrial Town, Faridabad - HSPCB",11-05-2024 17:00:00,28.39072,77.30059,SO2,NA,NA,NA
India,Haryana,Faridabad,"New Industrial Town, Faridabad - HSPCB",11-05-2024 17:00:00,28.39072,77.30059,OZONE,NA,NA,NA
India,Haryana,Faridabad,"Sector 11, Faridabad - HSPCB",11-05-2024 17:00:00,28.376058,77.315741,PM2.5,98,400,266
India,Haryana,Faridabad,"Sector 11, Faridabad - HSPCB",11-05-2024 17:00:00,28.376058,77.315741,SO2,1,121,32
India,Haryana,Faridabad,"Sector 11, Faridabad - HSPCB",11-05-2024 17:00:00,28.376058,77.315741,CO,14,50,32
India,Haryana,Faridabad,"Sector 11, Faridabad - HSPCB",11-05-2024 17:00:00,28.376058,77.315741,OZONE,9,26,17
India,Haryana,Faridabad,"Sector 30, Faridabad - HSPCB",11-05-2024 17:00:00,28.4417,77.3217,OZONE,NA,NA,NA
India,Haryana,Faridabad,"Sector- 16A, Faridabad - HSPCB",11-05-2024 17:00:00,28.4088421,77.3099081,OZONE,14,14,14
India,Haryana,Fatehabad,"Huda Sector, Fatehabad - HSPCB",11-05-2024 17:00:00,29.503664,75.467934,CO,5,40,6
India,Haryana,Gurugram,"NISE Gwal Pahari, Gurugram - IMD",11-05-2024 17:00:00,28.422681,77.148944,CO,8,37,24
India,Haryana,Gurugram,"Sector-51, Gurugram - HSPCB",11-05-2024 17:00:00,28.4227,77.0667,NH3,7,14,8
India,Haryana,Gurugram,"Teri Gram, Gurugram - HSPCB",11-05-2024 17:00:00,28.4275,77.1465,PM10,NA,NA,NA
India,Haryana,Gurugram,"Vikas Sadan, Gurugram - HSPCB",11-05-2024 17:00:00,28.4501238,77.0263051,PM2.5,96,324,215
India,Haryana,Hisar,"Urban Estate-II, Hisar - HSPCB",11-05-2024 17:00:00,29.140560,75.744941,SO2,NA,NA,NA
India,Haryana,Hisar,"Urban Estate-II, Hisar - HSPCB",11-05-2024 17:00:00,29.140560,75.744941,CO,20,37,26
India,Haryana,Hisar,"Urban Estate-II, Hisar - HSPCB",11-05-2024 17:00:00,29.140560,75.744941,OZONE,36,215,169
India,Haryana,Jind,"Police Lines, Jind - HSPCB",11-05-2024 17:00:00,29.307814,76.337619,NH3,NA,NA,NA
India,Haryana,Jind,"Police Lines, Jind - HSPCB",11-05-2024 17:00:00,29.307814,76.337619,CO,3,187,68
India,Haryana,Kaithal,"Rishi Nagar, Kaithal - HSPCB",11-05-2024 17:00:00,29.8006,76.4155,NO2,24,26,25
India,Haryana,Kaithal,"Rishi Nagar, Kaithal - HSPCB",11-05-2024 17:00:00,29.8006,76.4155,CO,5,50,9
India,Haryana,Kaithal,"Rishi Nagar, Kaithal - HSPCB",11-05-2024 17:00:00,29.8006,76.4155,OZONE,12,31,19
India,Haryana,Karnal,"Sector-12, Karnal - HSPCB",11-05-2024 17:00:00,29.695300,77.002700,NO2,7,12,10
India,Haryana,Kurukshetra,"Sector-7, Kurukshetra - HSPCB",11-05-2024 17:00:00,29.966942,76.875879,OZONE,17,83,62
India,Haryana,Mandikhera,"General Hospital, Mandikhera - HSPCB",11-05-2024 17:00:00,27.9002,76.9938,CO,2,59,7
India,Haryana,Manesar,"Sector-2 IMT, Manesar - HSPCB",11-05-2024 17:00:00,28.360699,76.936090,NH3,NA,NA,NA
India,Haryana,Manesar,"Sector-2 IMT, Manesar - HSPCB",11-05-2024 17:00:00,28.360699,76.936090,SO2,NA,NA,NA
India,Haryana,Palwal,"Shyam Nagar, Palwal - HSPCB",11-05-2024 17:00:00,28.1485564,77.3320667,NH3,8,9,9
India,Haryana,Palwal,"Shyam Nagar, Palwal - HSPCB",11-05-2024 17:00:00,28.1485564,77.3320667,CO,23,36,27
India,Haryana,Palwal,"Shyam Nagar, Palwal - HSPCB",11-05-2024 17:00:00,28.1485564,77.3320667,OZONE,12,35,28
India,Haryana,Panipat,"Sector-18, Panipat - HSPCB",11-05-2024 17:00:00,29.497973,76.993331,SO2,NA,NA,NA
India,Haryana,Panipat,"Sector-18, Panipat - HSPCB",11-05-2024 17:00:00,29.497973,76.993331,OZONE,30,30,30
India,Haryana,Rohtak,"MD University, Rohtak - HSPCB",11-05-2024 17:00:00,28.52123,76.37138,SO2,6,8,7
India,Haryana,Rohtak,"MD University, Rohtak - HSPCB",11-05-2024 17:00:00,28.52123,76.37138,OZONE,44,54,49
India,Haryana,Sirsa,"F-Block, Sirsa - HSPCB",11-05-2024 17:00:00,29.536400,75.015800,CO,56,76,67
India,Haryana,Sirsa,"F-Block, Sirsa - HSPCB",11-05-2024 17:00:00,29.536400,75.015800,OZONE,4,99,89
India,Haryana,Sonipat,"Murthal, Sonipat - HSPCB",11-05-2024 17:00:00,29.027200,77.062100,SO2,NA,NA,NA
India,Haryana,Sonipat,"Murthal, Sonipat - HSPCB",11-05-2024 17:00:00,29.027200,77.062100,OZONE,16,35,34
India,Haryana,Yamuna Nagar,"Gobind Pura, Yamuna Nagar - HSPCB",11-05-2024 17:00:00,30.1480566,77.2893471,PM10,NA,NA,NA
India,Himachal Pradesh,Baddi,"HIMUDA Complex Phase-1, Baddi - HPPCB",11-05-2024 17:00:00,30.943887,76.801991,PM2.5,37,304,102
India,Himachal Pradesh,Baddi,"HIMUDA Complex Phase-1, Baddi - HPPCB",11-05-2024 17:00:00,30.943887,76.801991,SO2,9,67,21
India,Jammu_and_Kashmir,Srinagar,"Rajbagh, Srinagar - JKSPCB",11-05-2024 17:00:00,34.066206,74.819820,SO2,10,18,12
India,Jammu_and_Kashmir,Srinagar,"Rajbagh, Srinagar - JKSPCB",11-05-2024 17:00:00,34.066206,74.819820,CO,20,27,23
India,Jharkhand,Pathardih,"Mohalbani Ghat, Pathardih - DMC",11-05-2024 17:00:00,23.669880,86.411725,PM2.5,NA,NA,NA
India,Karnataka,Bagalkot,"Vidayagiri, Bagalkot - KSPCB",11-05-2024 17:00:00,16.172806,75.659694,NO2,9,10,9
India,Karnataka,Belgaum,"Ramteerth Nagar, Belgaum - KSPCB",11-05-2024 17:00:00,15.888653,74.541751,PM10,27,73,42
India,Karnataka,Belgaum,"Ramteerth Nagar, Belgaum - KSPCB",11-05-2024 17:00:00,15.888653,74.541751,SO2,8,9,8
India,Karnataka,Belgaum,"Ramteerth Nagar, Belgaum - KSPCB",11-05-2024 17:00:00,15.888653,74.541751,OZONE,19,19,19
India,Karnataka,Bengaluru,"Bapuji Nagar, Bengaluru - KSPCB",11-05-2024 17:00:00,12.951913,77.539784,PM2.5,NA,NA,NA
India,Karnataka,Bengaluru,"Hombegowda Nagar, Bengaluru - KSPCB",11-05-2024 17:00:00,12.938539,77.590100,PM10,8,84,45
India,Karnataka,Bengaluru,"Jayanagar 5th Block, Bengaluru - KSPCB",11-05-2024 17:00:00,12.920984,77.584908,SO2,11,30,19
India,Karnataka,Bengaluru,"Jayanagar 5th Block, Bengaluru - KSPCB",11-05-2024 17:00:00,12.920984,77.584908,CO,20,22,21
India,Karnataka,Bengaluru,"Kasturi Nagar, Bengaluru - KSPCB",11-05-2024 17:00:00,13.003872,77.664217,PM10,10,10,10
India,Karnataka,Bengaluru,"Kasturi Nagar, Bengaluru - KSPCB",11-05-2024 17:00:00,13.003872,77.664217,NO2,16,17,17
India,Karnataka,Bengaluru,"Peenya, Bengaluru - CPCB",11-05-2024 17:00:00,13.0270199,77.494094,CO,30,51,34
India,Karnataka,Bengaluru,"RVCE-Mailasandra, Bengaluru - KSPCB",11-05-2024 17:00:00,12.921418,77.502466,PM2.5,5,60,31
India,Karnataka,Bengaluru,"RVCE-Mailasandra, Bengaluru - KSPCB",11-05-2024 17:00:00,12.921418,77.502466,NO2,16,17,17
India,Karnataka,Bengaluru,"Sanegurava Halli, Bengaluru - KSPCB",11-05-2024 17:00:00,12.990328,77.5431385,PM10,34,100,49
India,Karnataka,Bengaluru,"Silk Board, Bengaluru - KSPCB",11-05-2024 17:00:00,12.917348,77.622813,PM2.5,26,258,77
India,Karnataka,Bengaluru,"Silk Board, Bengaluru - KSPCB",11-05-2024 17:00:00,12.917348,77.622813,NO2,NA,NA,NA
India,Karnataka,Chamarajanagar,"Urban, Chamarajanagar - KSPCB",11-05-2024 17:00:00,11.55358,76.55521,CO,22,120,22
India,Karnataka,Chikkaballapur,"Chikkaballapur Rural, Chikkaballapur - KSPCB",11-05-2024 17:00:00,13.428828,77.731418,PM2.5,30,90,56
India,Karnataka,Davanagere,"Devaraj Urs Badavane, Davanagere - KSPCB",11-05-2024 17:00:00,14.475800,75.905200,NH3,1,2,2
India,Karnataka,Dharwad,"Kalabhavan, Dharwad - KSPCB",11-05-2024 17:00:00,15.459706,75.008381,PM2.5,35,96,55
India,Karnataka,Dharwad,"Kalabhavan, Dharwad - KSPCB",11-05-2024 17:00:00,15.459706,75.008381,SO2,3,10,4
India,Karnataka,Gadag,"Panchal Nagar, Gadag - KSPCB",11-05-2024 17:00:00,15.411456,75.638133,SO2,7,29,15
India,Karnataka,Gadag,"Panchal Nagar, Gadag - KSPCB",11-05-2024 17:00:00,15.411456,75.638133,OZONE,18,93,71
India,Karnataka,Haveri,"Ashwini Nagar, Haveri - KSPCB",11-05-2024 17:00:00,14.791800,75.389600,PM10,NA,NA,NA
India,Karnataka,Haveri,"Ashwini Nagar, Haveri - KSPCB",11-05-2024 17:00:00,14.791800,75.389600,CO,37,38,38
India,Karnataka,Hubballi,"Lingaraj Nagar, Hubballi - KSPCB",11-05-2024 17:00:00,15.3714823,75.1160168,PM10,49,102,70
India,Karnataka,Hubballi,"Lingaraj Nagar, Hubballi - KSPCB",11-05-2024 17:00:00,15.3714823,75.1160168,NO2,10,10,10
India,Karnataka,Kalaburagi,"Lal Bahadur Shastri Nagar, Kalaburagi - KSPCB",11-05-2024 17:00:00,17.321993,76.822628,PM2.5,9,93,39
India,Karnataka,Kalaburagi,"Lal Bahadur Shastri Nagar, Kalaburagi - KSPCB",11-05-2024 17:00:00,17.321993,76.822628,NH3,2,10,3
India,Karnataka,Kalaburagi,"Lal Bahadur Shastri Nagar, Kalaburagi - KSPCB",11-05-2024 17:00:00,17.321993,76.822628,CO,42,54,46
India,Karnataka,Karwar,"KHB Colony, Karwar - KSPCB",11-05-2024 17:00:00,14.816666,74.141003,NO2,NA,NA,NA
India,Karnataka,Kolar,"Tamaka Ind. Area, Kolar - KSPCB",11-05-2024 17:00:00,13.1276288,78.1570122,PM10,NA,NA,NA
India,Karnataka,Koppal,"Diwator Nagar, Koppal - KSPCB",11-05-2024 17:00:00,15.347630,76.181767,OZONE,20,80,61
India,Karnataka,Madikeri,"Stuart Hill, Madikeri - KSPCB",11-05-2024 17:00:00,12.415911,75.735050,PM10,11,44,22
India,Karnataka,Madikeri,"Stuart Hill, Madikeri - KSPCB",11-05-2024 17:00:00,12.415911,75.735050,NO2,3,9,6
India,Karnataka,Madikeri,"Stuart Hill, Madikeri - KSPCB",11-05-2024 17:00:00,12.415911,75.735050,OZONE,28,42,37
India,Karnataka,Mangalore,"Kadri, Mangalore - KSPCB",11-05-2024 17:00:00,12.889250,74.853000,PM2.5,12,31,23
India,Karnataka,Mangalore,"Kadri, Mangalore - KSPCB",11-05-2024 17:00:00,12.889250,74.853000,NO2,5,6,6
India,Karnataka,Mangalore,"Kadri, Mangalore - KSPCB",11-05-2024 17:00:00,12.889250,74.853000,OZONE,31,33,32
