country,state,city,station,last_update,latitude,longitude,pollutant_id,pollutant_min,pollutant_max,pollutant_avg
India,Andhra_Pradesh,Amaravati,"Secretariat, Amaravati - APPCB",02-04-2024 07:00:00,16.5150833,80.5181667,PM10,18,66,40
India,Andhra_Pradesh,Amaravati,"Secretariat, Amaravati - APPCB",02-04-2024 07:00:00,16.5150833,80.5181667,SO2,6,16,12
India,Andhra_Pradesh,Anantapur,"Gulzarpet, Anantapur - APPCB",02-04-2024 07:00:00,14.675886,77.593027,OZONE,3,59,18
India,Andhra_Pradesh,Chittoor,"Gangineni Cheruvu, Chittoor - APPCB",02-04-2024 07:00:00,13.204880,79.097889,NO2,1,15,5
India,Andhra_Pradesh,Chittoor,"Gangineni Cheruvu, Chittoor - APPCB",02-04-2024 07:00:00,13.204880,79.097889,NH3,1,3,1
India,Andhra_Pradesh,Rajamahendravaram,"Anand Kala Kshetram, Rajamahendravaram - APPCB",02-04-2024 07:00:00,16.9872867,81.7363176,PM10,12,61,29
India,Andhra_Pradesh,Rajamahendravaram,"Anand Kala Kshetram, Rajamahendravaram - APPCB",02-04-2024 07:00:00,16.9872867,81.7363176,NH3,1,5,3
India,Andhra_Pradesh,Tirupati,"Vaikuntapuram, Tirupati - APPCB",02-04-2024 07:00:00,13.615387,79.409230,NO2,NA,NA,NA
India,Andhra_Pradesh,Tirupati,"Vaikuntapuram, Tirupati - APPCB",02-04-2024 07:00:00,13.615387,79.409230,CO,NA,NA,NA
India,Andhra_Pradesh,Tirupati,"Vaikuntapuram, Tirupati - APPCB",02-04-2024 07:00:00,13.615387,79.409230,OZONE,NA,NA,NA
India,Andhra_Pradesh,Vijayawada,"HB Colony, Vijayawada - APPCB",02-04-2024 07:00:00,16.536107,80.594233,PM10,46,68,55
India,Andhra_Pradesh,Vijayawada,"HB Colony, Vijayawada - APPCB",02-04-2024 07:00:00,16.536107,80.594233,SO2,3,4,4
India,Andhra_Pradesh,Vijayawada,"Rajiv Gandhi Park, Vijayawada - APPCB",02-04-2024 07:00:00,16.509717,80.612222,NO2,17,48,30
India,Andhra_Pradesh,Vijayawada,"Rajiv Nagar, Vijayawada - APPCB",02-04-2024 07:00:00,16.554731,80.649110,OZONE,7,29,11
India,Arunachal_Pradesh,Naharlagun,"Naharlagun, Naharlagun - APSPCB",02-04-2024 07:00:00,27.103358,93.679645,PM10,NA,NA,NA
India,Assam,Byrnihat,"Central Academy for SFS, Byrnihat - PCBA",02-04-2024 07:00:00,26.071318,91.87488,PM10,NA,NA,NA
India,Assam,Guwahati,"LGBI Airport, Guwahati - PCBA",02-04-2024 07:00:00,26.10887,91.589544,PM10,53,200,112
India,Assam,Guwahati,"Pan Bazaar, Guwahati - PCBA",02-04-2024 07:00:00,26.187500,91.744194,PM2.5,22,169,58
India,Assam,Guwahati,"Pan Bazaar, Guwahati - PCBA",02-04-2024 07:00:00,26.187500,91.744194,OZONE,17,17,17
India,Assam,Nagaon,"Christianpatty, Nagaon - PCBA",02-04-2024 07:00:00,26.349082,92.68449,OZONE,17,103,28
India,Assam,Nalbari,"Bata Chowk, Nalbari - PCBA",02-04-2024 07:00:00,26.446912,91.439057,NO2,9,65,20
India,Assam,Nalbari,"Bata Chowk, Nalbari - PCBA",02-04-2024 07:00:00,26.446912,91.439057,NH3,1,5,1
India,Assam,Silchar,"Tarapur, Silchar - PCBA",02-04-2024 07:00:00,24.82827,92.79525,OZONE,1,12,2
India,Bihar,Araria,"Kharahiya Basti, Araria - BSPCB",02-04-2024 07:00:00,26.146529,87.454184,PM2.5,29,96,64
India,Bihar,Araria,"Kharahiya Basti, Araria - BSPCB",02-04-2024 07:00:00,26.146529,87.454184,NH3,6,9,8
India,Bihar,Araria,"Kharahiya Basti, Araria - BSPCB",02-04-2024 07:00:00,26.146529,87.454184,OZONE,3,11,9
India,Bihar,Arrah,"New DM Office, Arrah - BSPCB",02-04-2024 07:00:00,25.5626095,84.663264,CO,4,27,10
India,Bihar,Aurangabad,"Gurdeo Nagar, Aurangabad - BSPCB",02-04-2024 07:00:00,24.75746,84.366208,PM10,51,103,82
India,Bihar,Aurangabad,"Gurdeo Nagar, Aurangabad - BSPCB",02-04-2024 07:00:00,24.75746,84.366208,SO2,4,11,8
India,Bihar,Bihar Sharif,"D M Colony, Bihar Sharif - BSPCB",02-04-2024 07:00:00,25.204762,85.514960,PM10,26,118,73
India,Bihar,Bihar Sharif,"D M Colony, Bihar Sharif - BSPCB",02-04-2024 07:00:00,25.204762,85.514960,CO,8,62,37
India,Bihar,Buxar,"Charitra Van, Buxar - BSPCB (Formerly known as Central Jail)",02-04-2024 07:00:00,25.567520,83.966379,NO2,41,134,73
India,Bihar,Buxar,"Charitra Van, Buxar - BSPCB (Formerly known as Central Jail)",02-04-2024 07:00:00,25.567520,83.966379,CO,47,100,57
India,Bihar,Chhapra,"Darshan Nagar, Chhapra - BSPCB",02-04-2024 07:00:00,25.7808257,84.7446768,NH3,7,15,10
India,Bihar,Chhapra,"Darshan Nagar, Chhapra - BSPCB",02-04-2024 07:00:00,25.7808257,84.7446768,CO,30,61,43
India,Bihar,Gaya,"Kareemganj, Gaya - BSPCB",02-04-2024 07:00:00,24.792403,84.992416,CO,8,105,40
India,Bihar,Gaya,"SFTI Kusdihra, Gaya - BSPCB",02-04-2024 07:00:00,24.762518,84.982348,PM2.5,56,81,68
India,Bihar,Gaya,"SFTI Kusdihra, Gaya - BSPCB",02-04-2024 07:00:00,24.762518,84.982348,CO,17,31,24
India,Bihar,Hajipur,"Industrial Area, Hajipur - BSPCB",02-04-2024 07:00:00,25.697189,85.245900,CO,23,59,34
India,Bihar,Katihar,"Mirchaibari, Katihar - BSPCB",02-04-2024 07:00:00,25.560083,87.553265,PM2.5,27,62,37
India,Bihar,Manguraha,"Forest Rest House, Manguraha - BSPCB",02-04-2024 07:00:00,27.308328,84.531742,NH3,NA,NA,NA
India,Bihar,Manguraha,"Forest Rest House, Manguraha - BSPCB",02-04-2024 07:00:00,27.308328,84.531742,OZONE,7,58,18
India,Bihar,Motihari,"Gandak Colony, Motihari - BSPCB",02-04-2024 07:00:00,26.63086,84.90051,CO,6,42,15
India,Bihar,Munger,"Town Hall, Munger - BSPCB",02-04-2024 07:00:00,25.376776,86.471523,PM10,92,227,133
India,Bihar,Munger,"Town Hall, Munger - BSPCB",02-04-2024 07:00:00,25.376776,86.471523,SO2,8,55,35
India,Bihar,Muzaffarpur,"Buddha Colony, Muzaffarpur - BSPCB",02-04-2024 07:00:00,26.11442,85.39813,PM2.5,NA,NA,NA
India,Bihar,Muzaffarpur,"Buddha Colony, Muzaffarpur - BSPCB",02-04-2024 07:00:00,26.11442,85.39813,NO2,NA,NA,NA
India,Bihar,Muzaffarpur,"Buddha Colony, Muzaffarpur - BSPCB",02-04-2024 07:00:00,26.11442,85.39813,OZONE,NA,NA,NA
India,Bihar,Muzaffarpur,"MIT-Daudpur Kothi, Muzaffarpur - BSPCB",02-04-2024 07:00:00,26.1403345,85.3650192,PM10,NA,NA,NA
India,Bihar,Muzaffarpur,"MIT-Daudpur Kothi, Muzaffarpur - BSPCB",02-04-2024 07:00:00,26.1403345,85.3650192,CO,24,114,51
India,Bihar,Muzaffarpur,"Muzaffarpur Collectorate, Muzaffarpur - BSPCB",02-04-2024 07:00:00,26.1209,85.3647,NO2,6,15,10
India,Bihar,Muzaffarpur,"Muzaffarpur Collectorate, Muzaffarpur - BSPCB",02-04-2024 07:00:00,26.1209,85.3647,SO2,7,14,11
India,Bihar,Muzaffarpur,"Muzaffarpur Collectorate, Muzaffarpur - BSPCB",02-04-2024 07:00:00,26.1209,85.3647,CO,30,104,33
India,Bihar,Patna,"Govt. High School Shikarpur, Patna - BSPCB",02-04-2024 07:00:00,25.592539,85.227158,PM2.5,120,230,165
India,Bihar,Patna,"IGSC Planetarium Complex, Patna - BSPCB",02-04-2024 07:00:00,25.610369,85.132568,CO,12,13,12
India,Bihar,Patna,"Muradpur, Patna - BSPCB",02-04-2024 07:00:00,25.619651,85.147382,PM10,205,500,309
India,Bihar,Saharsa,"Police Line, Saharsa - BSPCB",02-04-2024 07:00:00,25.892357,86.590325,NO2,6,8,7
India,Bihar,Saharsa,"Police Line, Saharsa - BSPCB",02-04-2024 07:00:00,25.892357,86.590325,NH3,9,9,9
India,Bihar,Saharsa,"Police Line, Saharsa - BSPCB",02-04-2024 07:00:00,25.892357,86.590325,CO,20,41,27
India,Bihar,Samastipur,"DM Office_Kasipur, Samastipur - BSPCB",02-04-2024 07:00:00,25.859655,85.77944,PM2.5,NA,NA,NA
India,Bihar,Samastipur,"DM Office_Kasipur, Samastipur - BSPCB",02-04-2024 07:00:00,25.859655,85.77944,SO2,NA,NA,NA
India,Bihar,Samastipur,"DM Office_Kasipur, Samastipur - BSPCB",02-04-2024 07:00:00,25.859655,85.77944,CO,7,103,45
India,Bihar,Sasaram,"Dada Peer, Sasaram - BSPCB",02-04-2024 07:00:00,24.952822,84.002396,PM2.5,22,114,36
India,Bihar,Sasaram,"Dada Peer, Sasaram - BSPCB",02-04-2024 07:00:00,24.952822,84.002396,PM10,53,156,95
India,Bihar,Sasaram,"Dada Peer, Sasaram - BSPCB",02-04-2024 07:00:00,24.952822,84.002396,OZONE,39,93,51
India,Chandigarh,Chandigarh,"Sector 22, Chandigarh - CPCC",02-04-2024 07:00:00,30.735567,76.775714,PM2.5,23,127,67
India,Chandigarh,Chandigarh,"Sector 22, Chandigarh - CPCC",02-04-2024 07:00:00,30.735567,76.775714,PM10,59,113,90
India,Chandigarh,Chandigarh,"Sector-25, Chandigarh - CPCC",02-04-2024 07:00:00,30.751462,76.762879,OZONE,2,41,11
India,Chhattisgarh,Bhilai,"32Bungalows, Bhilai - CECB",02-04-2024 07:00:00,21.194815,81.314770,PM10,51,70,60
India,Chhattisgarh,Bhilai,"32Bungalows, Bhilai - CECB",02-04-2024 07:00:00,21.194815,81.314770,SO2,5,20,8
India,Chhattisgarh,Bhilai,"Civic Center, Bhilai - Bhilai Steel Plant",02-04-2024 07:00:00,21.185571,81.343175,NO2,14,18,16
India,Chhattisgarh,Bhilai,"Civic Center, Bhilai - Bhilai Steel Plant",02-04-2024 07:00:00,21.185571,81.343175,NH3,5,5,5
India,Chhattisgarh,Bhilai,"Hathkhoj, Bhilai - CECB",02-04-2024 07:00:00,21.224231,81.408350,NH3,NA,NA,NA
India,Chhattisgarh,Bhilai,"Hathkhoj, Bhilai - CECB",02-04-2024 07:00:00,21.224231,81.408350,SO2,NA,NA,NA
India,Chhattisgarh,Bhilai,"Hathkhoj, Bhilai - CECB",02-04-2024 07:00:00,21.224231,81.408350,OZONE,NA,NA,NA
India,Chhattisgarh,Bilaspur,"Mangala, Bilaspur - NTPC",02-04-2024 07:00:00,22.08815,82.13737,NO2,16,20,17
India,Chhattisgarh,Chhal,"Nawapara SECL Colony, Chhal - CECB",02-04-2024 07:00:00,22.118125,83.140608,NO2,13,44,30
India,Chhattisgarh,Kunjemura,"OP Jindal School, Kunjemura - CECB",02-04-2024 07:00:00,22.126650,83.483212,NO2,NA,NA,NA
India,Chhattisgarh,Raipur,"AIIMS, Raipur - CECB",02-04-2024 07:00:00,21.258815,81.578979,NO2,27,63,44
India,Chhattisgarh,Raipur,"Krishak Nagar, Raipur - CECB",02-04-2024 07:00:00,21.237755,81.705301,PM2.5,NA,NA,NA
India,Chhattisgarh,Raipur,"Krishak Nagar, Raipur - CECB",02-04-2024 07:00:00,21.237755,81.705301,NO2,20,32,27
India,Chhattisgarh,Raipur,"Siltara Phase-II, Raipur - CECB",02-04-2024 07:00:00,21.371751,81.664929,PM2.5,55,229,126
India,Delhi,Delhi,"Alipur, Delhi - DPCC",02-04-2024 07:00:00,28.815329,77.153010,CO,29,54,45
India,Delhi,Delhi,"Alipur, Delhi - DPCC",02-04-2024 07:00:00,28.815329,77.153010,OZONE,9,96,30
India,Delhi,Delhi,"Anand Vihar, Delhi - DPCC",02-04-2024 07:00:00,28.647622,77.3158090,PM10,88,214,145
India,Delhi,Delhi,"Anand Vihar, Delhi - DPCC",02-04-2024 07:00:00,28.647622,77.3158090,NO2,15,108,68
India,Delhi,Delhi,"Anand Vihar, Delhi - DPCC",02-04-2024 07:00:00,28.647622,77.3158090,NH3,1,6,3
India,Delhi,Delhi,"Anand Vihar, Delhi - DPCC",02-04-2024 07:00:00,28.647622,77.3158090,OZONE,6,69,36
India,Delhi,Delhi,"Aya Nagar, Delhi - IMD",02-04-2024 07:00:00,28.4706914,77.1099364,CO,15,61,37
India,Delhi,Delhi,"Burari Crossing, Delhi - IMD",02-04-2024 07:00:00,28.7256504,77.2011573,CO,28,56,40
India,Delhi,Delhi,"CRRI Mathura Road, Delhi - IMD",02-04-2024 07:00:00,28.5512005,77.2735737,PM2.5,NA,NA,NA
India,Delhi,Delhi,"CRRI Mathura Road, Delhi - IMD",02-04-2024 07:00:00,28.5512005,77.2735737,OZONE,1,17,2
India,Delhi,Delhi,"Chandni Chowk, Delhi - IITM",02-04-2024 07:00:00,28.656756,77.227234,PM10,101,194,125
India,Delhi,Delhi,"Chandni Chowk, Delhi - IITM",02-04-2024 07:00:00,28.656756,77.227234,NO2,6,264,48
India,Delhi,Delhi,"Chandni Chowk, Delhi - IITM",02-04-2024 07:00:00,28.656756,77.227234,OZONE,4,7,6
India,Delhi,Delhi,"Dr. Karni Singh Shooting Range, Delhi - DPCC",02-04-2024 07:00:00,28.498571,77.264840,PM2.5,32,217,64
India,Delhi,Delhi,"Dwarka-Sector 8, Delhi - DPCC ",02-04-2024 07:00:00,28.5710274,77.0719006,NO2,8,50,19
India,Delhi,Delhi,"IGI Airport (T3), Delhi - IMD",02-04-2024 07:00:00,28.5627763,77.1180053,OZONE,1,40,7
India,Delhi,Delhi,"ITO, Delhi - CPCB",02-04-2024 07:00:00,28.628624,77.241060,NO2,15,133,59
India,Delhi,Delhi,"Jahangirpuri, Delhi - DPCC",02-04-2024 07:00:00,28.732820,77.170633,PM10,139,286,194
India,Delhi,Delhi,"Jahangirpuri, Delhi - DPCC",02-04-2024 07:00:00,28.732820,77.170633,SO2,10,73,25
India,Delhi,Delhi,"Jawaharlal Nehru Stadium, Delhi - DPCC",02-04-2024 07:00:00,28.580280,77.233829,NO2,23,86,52
India,Delhi,Delhi,"Lodhi Road, Delhi - IITM",02-04-2024 07:00:00,28.588333,77.221667,NO2,69,99,84
India,Delhi,Delhi,"Lodhi Road, Delhi - IITM",02-04-2024 07:00:00,28.588333,77.221667,NH3,7,9,8
India,Delhi,Delhi,"Lodhi Road, Delhi - IITM",02-04-2024 07:00:00,28.588333,77.221667,CO,59,68,66
India,Delhi,Delhi,"Lodhi Road, Delhi - IITM",02-04-2024 07:00:00,28.588333,77.221667,OZONE,15,19,16
India,Delhi,Delhi,"Major Dhyan Chand National Stadium, Delhi - DPCC",02-04-2024 07:00:00,28.611281,77.237738,CO,22,50,33
India,Delhi,Delhi,"Mandir Marg, Delhi - DPCC",02-04-2024 07:00:00,28.636429,77.201067,NH3,6,7,6
India,Delhi,Delhi,"Mandir Marg, Delhi - DPCC",02-04-2024 07:00:00,28.636429,77.201067,CO,56,75,71
India,Delhi,Delhi,"Mundka, Delhi - DPCC",02-04-2024 07:00:00,28.684678,77.076574,OZONE,1,90,11
India,Delhi,Delhi,"NSIT Dwarka, Delhi - CPCB",02-04-2024 07:00:00,28.60909,77.0325413,SO2,2,35,20
India,Delhi,Delhi,"Najafgarh, Delhi - DPCC",02-04-2024 07:00:00,28.570173,76.933762,PM10,66,292,130
India,Delhi,Delhi,"Najafgarh, Delhi - DPCC",02-04-2024 07:00:00,28.570173,76.933762,NH3,3,64,10
India,Delhi,Delhi,"Narela, Delhi - DPCC",02-04-2024 07:00:00,28.822836,77.101981,PM2.5,18,398,119
India,Delhi,Delhi,"Nehru Nagar, Delhi - DPCC",02-04-2024 07:00:00,28.567890,77.250515,OZONE,8,84,31
India,Delhi,Delhi,"New Moti Bagh, Delhi - MHUA",02-04-2024 07:00:00,28.57834,77.18400,PM2.5,22,300,123
India,Delhi,Delhi,"North Campus, DU, Delhi - IMD",02-04-2024 07:00:00,28.6573814,77.1585447,PM2.5,46,190,90
India,Delhi,Delhi,"North Campus, DU, Delhi - IMD",02-04-2024 07:00:00,28.6573814,77.1585447,PM10,76,172,131
India,Delhi,Delhi,"Okhla Phase-2, Delhi - DPCC",02-04-2024 07:00:00,28.530785,77.271255,NO2,35,101,72
India,Delhi,Delhi,"Okhla Phase-2, Delhi - DPCC",02-04-2024 07:00:00,28.530785,77.271255,SO2,8,14,11
India,Delhi,Delhi,"Patparganj, Delhi - DPCC",02-04-2024 07:00:00,28.623763,77.287209,PM10,111,181,137
India,Delhi,Delhi,"Punjabi Bagh, Delhi - DPCC",02-04-2024 07:00:00,28.674045,77.131023,OZONE,1,22,5
India,Delhi,Delhi,"Pusa, Delhi - DPCC",02-04-2024 07:00:00,28.639652,77.146275,NO2,49,111,83
India,Delhi,Delhi,"Pusa, Delhi - IMD",02-04-2024 07:00:00,28.636110,77.173332,PM10,79,172,122
India,Delhi,Delhi,"Rohini, Delhi - DPCC",02-04-2024 07:00:00,28.732528,77.119920,PM10,90,272,136
India,Delhi,Delhi,"Rohini, Delhi - DPCC",02-04-2024 07:00:00,28.732528,77.119920,NH3,1,21,6
India,Delhi,Delhi,"Rohini, Delhi - DPCC",02-04-2024 07:00:00,28.732528,77.119920,OZONE,8,83,31
India,Delhi,Delhi,"Shadipur, Delhi - CPCB",02-04-2024 07:00:00,28.6514781,77.1473105,PM2.5,63,328,217
India,Delhi,Delhi,"Shadipur, Delhi - CPCB",02-04-2024 07:00:00,28.6514781,77.1473105,CO,46,114,78
India,Delhi,Delhi,"Sirifort, Delhi - CPCB",02-04-2024 07:00:00,28.5504249,77.2159377,NH3,6,9,7
India,Delhi,Delhi,"Sirifort, Delhi - CPCB",02-04-2024 07:00:00,28.5504249,77.2159377,SO2,16,25,23
India,Delhi,Delhi,"Sri Aurobindo Marg, Delhi - DPCC",02-04-2024 07:00:00,28.531346,77.190156,NH3,5,8,6
India,Delhi,Delhi,"Sri Aurobindo Marg, Delhi - DPCC",02-04-2024 07:00:00,28.531346,77.190156,SO2,10,26,16
India,Delhi,Delhi,"Sri Aurobindo Marg, Delhi - DPCC",02-04-2024 07:00:00,28.531346,77.190156,CO,6,31,26
India,Delhi,Delhi,"Vivek Vihar, Delhi - DPCC",02-04-2024 07:00:00,28.672342,77.315260,PM10,90,187,132
India,Delhi,Delhi,"Wazirpur, Delhi - DPCC",02-04-2024 07:00:00,28.699793,77.165453,CO,3,63,32
India,Gujarat,Ahmedabad,"Gyaspur, Ahmedabad - IITM",02-04-2024 07:00:00,22.977134,72.553024,PM10,106,206,158
India,Gujarat,Ahmedabad,"Maninagar, Ahmedabad - GPCB",02-04-2024 07:00:00,23.002657,72.591912,SO2,10,74,47
India,Gujarat,Ahmedabad,"Raikhad, Ahmedabad - IITM",02-04-2024 07:00:00,23.020509,72.579261,NO2,26,130,52
India,Gujarat,Ahmedabad,"Raikhad, Ahmedabad - IITM",02-04-2024 07:00:00,23.020509,72.579261,OZONE,8,40,17
India,Gujarat,Ahmedabad,"Rakhial, Ahmedabad - IITM",02-04-2024 07:00:00,23.016834,72.625775,PM10,121,153,136
India,Gujarat,Ahmedabad,"SVPI Airport Hansol, Ahmedabad - IITM",02-04-2024 07:00:00,23.076793,72.627874,OZONE,9,52,17
India,Gujarat,Ahmedabad,"Sardar Vallabhbhai Patel Stadium, Ahmedabad - IITM",02-04-2024 07:00:00,23.043070,72.562968,PM2.5,106,209,152
India,Gujarat,Ahmedabad,"Sardar Vallabhbhai Patel Stadium, Ahmedabad - IITM",02-04-2024 07:00:00,23.043070,72.562968,NH3,6,7,7
India,Gujarat,Ankleshwar,"GIDC, Ankleshwar - GPCB",02-04-2024 07:00:00,21.613267,73.010555,PM2.5,43,111,82
India,Gujarat,Gandhinagar,"GIFT City, Gandhinagar - IITM",02-04-2024 07:00:00,23.163798,72.677768,PM2.5,NA,NA,NA
India,Gujarat,Gandhinagar,"Sector-10, Gandhinagar - GPCB",02-04-2024 07:00:00,23.221714,72.654328,PM2.5,29,71,52
India,Gujarat,Gandhinagar,"Sector-10, Gandhinagar - GPCB",02-04-2024 07:00:00,23.221714,72.654328,SO2,3,10,6
India,Gujarat,Nandesari,"GIDC, Nandesari - Nandesari Ind. Association",02-04-2024 07:00:00,22.410802,73.097923,PM2.5,80,385,240
India,Gujarat,Nandesari,"GIDC, Nandesari - Nandesari Ind. Association",02-04-2024 07:00:00,22.410802,73.097923,SO2,1,15,10
India,Gujarat,Vapi,"Phase-1 GIDC, Vapi - GPCB",02-04-2024 07:00:00,20.362421,72.918013,SO2,51,52,52
India,Gujarat,Vatva,"Phase-4 GIDC, Vatva - GPCB",02-04-2024 07:00:00,22.969611,72.643500,SO2,12,75,33
India,Haryana,Ambala,"Patti Mehar, Ambala - HSPCB",02-04-2024 07:00:00,30.379589,76.778328,SO2,2,100,63
India,Haryana,Ambala,"Patti Mehar, Ambala - HSPCB",02-04-2024 07:00:00,30.379589,76.778328,CO,30,60,46
India,Haryana,Bahadurgarh,"Arya Nagar, Bahadurgarh - HSPCB",02-04-2024 07:00:00,28.6701,76.9254,NO2,32,39,35
India,Haryana,Bahadurgarh,"Arya Nagar, Bahadurgarh - HSPCB",02-04-2024 07:00:00,28.6701,76.9254,NH3,11,12,12
India,Haryana,Bahadurgarh,"Arya Nagar, Bahadurgarh - HSPCB",02-04-2024 07:00:00,28.6701,76.9254,OZONE,38,50,42
India,Haryana,Ballabgarh,"Nathu Colony, Ballabgarh - HSPCB",02-04-2024 07:00:00,28.3419248,77.319699,CO,12,56,37
India,Haryana,Ballabgarh,"Nathu Colony, Ballabgarh - HSPCB",02-04-2024 07:00:00,28.3419248,77.319699,OZONE,7,28,9
India,Haryana,Bhiwani,"H.B. Colony, Bhiwani - HSPCB",02-04-2024 07:00:00,28.806223,76.141105,OZONE,14,92,17
India,Haryana,Dharuhera,"Municipal Corporation Office, Dharuhera -  HSPCB",02-04-2024 07:00:00,28.206800,76.799700,SO2,3,71,23
India,Haryana,Faridabad,"New Industrial Town, Faridabad - HSPCB",02-04-2024 07:00:00,28.39072,77.30059,PM2.5,NA,NA,NA
India,Haryana,Faridabad,"New Industrial Town, Faridabad - HSPCB",02-04-2024 07:00:00,28.39072,77.30059,PM10,NA,NA,NA
India,Haryana,Faridabad,"New Industrial Town, Faridabad - HSPCB",02-04-2024 07:00:00,28.39072,77.30059,SO2,8,9,9
India,Haryana,Faridabad,"New Industrial Town, Faridabad - HSPCB",02-04-2024 07:00:00,28.39072,77.30059,CO,2,20,15
India,Haryana,Faridabad,"Sector 30, Faridabad - HSPCB",02-04-2024 07:00:00,28.4417,77.3217,PM10,137,148,143
India,Haryana,Faridabad,"Sector 30, Faridabad - HSPCB",02-04-2024 07:00:00,28.4417,77.3217,OZONE,13,78,18
India,Haryana,Gurugram,"Sector-51, Gurugram - HSPCB",02-04-2024 07:00:00,28.4227,77.0667,PM2.5,NA,NA,NA
India,Haryana,Gurugram,"Sector-51, Gurugram - HSPCB",02-04-2024 07:00:00,28.4227,77.0667,SO2,3,4,3
India,Haryana,Gurugram,"Sector-51, Gurugram - HSPCB",02-04-2024 07:00:00,28.4227,77.0667,CO,16,52,42
India,Haryana,Gurugram,"Sector-51, Gurugram - HSPCB",02-04-2024 07:00:00,28.4227,77.0667,OZONE,27,67,40
India,Haryana,Gurugram,"Vikas Sadan, Gurugram - HSPCB",02-04-2024 07:00:00,28.4501238,77.0263051,SO2,30,60,41
India,Haryana,Gurugram,"Vikas Sadan, Gurugram - HSPCB",02-04-2024 07:00:00,28.4501238,77.0263051,OZONE,8,68,10
India,Haryana,Hisar,"Urban Estate-II, Hisar - HSPCB",02-04-2024 07:00:00,29.140560,75.744941,NH3,8,10,9
India,Haryana,Jind,"Police Lines, Jind - HSPCB",02-04-2024 07:00:00,29.307814,76.337619,NH3,2,5,4
India,Haryana,Jind,"Police Lines, Jind - HSPCB",02-04-2024 07:00:00,29.307814,76.337619,CO,5,106,42
India,Haryana,Kaithal,"Rishi Nagar, Kaithal - HSPCB",02-04-2024 07:00:00,29.8006,76.4155,NO2,24,26,25
India,Haryana,Karnal,"Sector-12, Karnal - HSPCB",02-04-2024 07:00:00,29.695300,77.002700,NH3,10,13,11
India,Haryana,Karnal,"Sector-12, Karnal - HSPCB",02-04-2024 07:00:00,29.695300,77.002700,CO,13,30,25
India,Haryana,Karnal,"Sector-12, Karnal - HSPCB",02-04-2024 07:00:00,29.695300,77.002700,OZONE,28,36,35
India,Haryana,Kurukshetra,"Sector-7, Kurukshetra - HSPCB",02-04-2024 07:00:00,29.966942,76.875879,PM2.5,30,50,37
India,Haryana,Mandikhera,"General Hospital, Mandikhera - HSPCB",02-04-2024 07:00:00,27.9002,76.9938,NO2,19,24,22
India,Haryana,Narnaul,"Shastri Nagar, Narnaul - HSPCB",02-04-2024 07:00:00,28.060249,76.113115,SO2,12,13,13
India,Haryana,Palwal,"Shyam Nagar, Palwal - HSPCB",02-04-2024 07:00:00,28.1485564,77.3320667,SO2,3,20,14
India,Haryana,Palwal,"Shyam Nagar, Palwal - HSPCB",02-04-2024 07:00:00,28.1485564,77.3320667,CO,20,51,26
India,Haryana,Panchkula,"Sector-6, Panchkula - HSPCB ",02-04-2024 07:00:00,30.7057778,76.8531805555555,OZONE,39,48,44
India,Haryana,Panipat,"Sector-18, Panipat - HSPCB",02-04-2024 07:00:00,29.497973,76.993331,SO2,18,19,19
India,Haryana,Panipat,"Sector-18, Panipat - HSPCB",02-04-2024 07:00:00,29.497973,76.993331,CO,24,26,25
India,Haryana,Rohtak,"MD University, Rohtak - HSPCB",02-04-2024 07:00:00,28.52123,76.37138,NO2,47,55,51
India,Haryana,Rohtak,"MD University, Rohtak - HSPCB",02-04-2024 07:00:00,28.52123,76.37138,OZONE,43,54,48
India,Haryana,Sirsa,"F-Block, Sirsa - HSPCB",02-04-2024 07:00:00,29.536400,75.015800,PM10,39,58,49
India,Haryana,Sirsa,"F-Block, Sirsa - HSPCB",02-04-2024 07:00:00,29.536400,75.015800,NH3,12,13,13
India,Haryana,Sirsa,"F-Block, Sirsa - HSPCB",02-04-2024 07:00:00,29.536400,75.015800,OZONE,26,96,43
India,Haryana,Sonipat,"Murthal, Sonipat - HSPCB",02-04-2024 07:00:00,29.027200,77.062100,PM2.5,37,68,51
India,Haryana,Sonipat,"Murthal, Sonipat - HSPCB",02-04-2024 07:00:00,29.027200,77.062100,OZONE,17,36,20
India,Himachal Pradesh,Baddi,"HIMUDA Complex Phase-1, Baddi - HPPCB",02-04-2024 07:00:00,30.943887,76.801991,NH3,3,5,4
India,Himachal Pradesh,Baddi,"HIMUDA Complex Phase-1, Baddi - HPPCB",02-04-2024 07:00:00,30.943887,76.801991,CO,16,58,41
India,Jammu_and_Kashmir,Srinagar,"Rajbagh, Srinagar - JKSPCB",02-04-2024 07:00:00,34.066206,74.819820,SO2,NA,NA,NA
India,Jharkhand,Pathardih,"Mohalbani Ghat, Pathardih - DMC",02-04-2024 07:00:00,23.669880,86.411725,PM10,NA,NA,NA
India,Jharkhand,Pathardih,"Mohalbani Ghat, Pathardih - DMC",02-04-2024 07:00:00,23.669880,86.411725,OZONE,NA,NA,NA
India,Karnataka,Bagalkot,"Vidayagiri, Bagalkot - KSPCB",02-04-2024 07:00:00,16.172806,75.659694,NO2,9,11,9
India,Karnataka,Bagalkot,"Vidayagiri, Bagalkot - KSPCB",02-04-2024 07:00:00,16.172806,75.659694,OZONE,12,58,22
India,Karnataka,Bengaluru,"BTM Layout, Bengaluru - CPCB",02-04-2024 07:00:00,12.9135218,77.5950804,SO2,9,9,9
India,Karnataka,Bengaluru,"Bapuji Nagar, Bengaluru - KSPCB",02-04-2024 07:00:00,12.951913,77.539784,PM2.5,40,168,93
India,Karnataka,Bengaluru,"Bapuji Nagar, Bengaluru - KSPCB",02-04-2024 07:00:00,12.951913,77.539784,NH3,1,1,1
India,Karnataka,Bengaluru,"Bapuji Nagar, Bengaluru - KSPCB",02-04-2024 07:00:00,12.951913,77.539784,SO2,4,9,6
India,Karnataka,Bengaluru,"Bapuji Nagar, Bengaluru - KSPCB",02-04-2024 07:00:00,12.951913,77.539784,CO,20,53,35
India,Karnataka,Bengaluru,"Hebbal, Bengaluru - KSPCB",02-04-2024 07:00:00,13.029152,77.585901,CO,6,64,14
India,Karnataka,Bengaluru,"Hombegowda Nagar, Bengaluru - KSPCB",02-04-2024 07:00:00,12.938539,77.590100,PM10,54,136,76
India,Karnataka,Bengaluru,"Hombegowda Nagar, Bengaluru - KSPCB",02-04-2024 07:00:00,12.938539,77.590100,NH3,1,2,2
India,Karnataka,Bengaluru,"Hombegowda Nagar, Bengaluru - KSPCB",02-04-2024 07:00:00,12.938539,77.590100,SO2,4,4,4
India,Karnataka,Bengaluru,"Jayanagar 5th Block, Bengaluru - KSPCB",02-04-2024 07:00:00,12.920984,77.584908,OZONE,18,19,18
India,Karnataka,Bengaluru,"Jigani, Bengaluru - KSPCB",02-04-2024 07:00:00,12.7816279,77.6299145,PM2.5,9,182,53
India,Karnataka,Bengaluru,"Jigani, Bengaluru - KSPCB",02-04-2024 07:00:00,12.7816279,77.6299145,OZONE,13,90,23
India,Karnataka,Bengaluru,"Kasturi Nagar, Bengaluru - KSPCB",02-04-2024 07:00:00,13.003872,77.664217,PM10,96,328,143
India,Karnataka,Bengaluru,"Kasturi Nagar, Bengaluru - KSPCB",02-04-2024 07:00:00,13.003872,77.664217,NO2,16,17,17
India,Karnataka,Bengaluru,"Kasturi Nagar, Bengaluru - KSPCB",02-04-2024 07:00:00,13.003872,77.664217,NH3,4,4,4
India,Karnataka,Bengaluru,"Kasturi Nagar, Bengaluru - KSPCB",02-04-2024 07:00:00,13.003872,77.664217,OZONE,7,167,38
India,Karnataka,Bengaluru,"RVCE-Mailasandra, Bengaluru - KSPCB",02-04-2024 07:00:00,12.921418,77.502466,NO2,16,17,17
India,Karnataka,Bengaluru,"Sanegurava Halli, Bengaluru - KSPCB",02-04-2024 07:00:00,12.990328,77.5431385,CO,1,64,5
India,Karnataka,Bidar,"Naubad, Bidar - KSPCB",02-04-2024 07:00:00,17.930306,77.482194,PM10,89,392,134
India,Karnataka,Bidar,"Naubad, Bidar - KSPCB",02-04-2024 07:00:00,17.930306,77.482194,NO2,7,10,8
India,Karnataka,Bidar,"Naubad, Bidar - KSPCB",02-04-2024 07:00:00,17.930306,77.482194,NH3,2,3,3
India,Karnataka,Bidar,"Naubad, Bidar - KSPCB",02-04-2024 07:00:00,17.930306,77.482194,CO,55,103,78
India,Karnataka,Bidar,"Naubad, Bidar - KSPCB",02-04-2024 07:00:00,17.930306,77.482194,OZONE,27,47,31
India,Karnataka,Chikkaballapur,"Chikkaballapur Rural, Chikkaballapur - KSPCB",02-04-2024 07:00:00,13.428828,77.731418,NH3,1,1,1
India,Karnataka,Chikkamagaluru,"Kalyana Nagara, Chikkamagaluru - KSPCB",02-04-2024 07:00:00,13.328028,75.797056,PM2.5,8,51,25
India,Karnataka,Chikkamagaluru,"Kalyana Nagara, Chikkamagaluru - KSPCB",02-04-2024 07:00:00,13.328028,75.797056,NO2,13,19,16
India,Karnataka,Chikkamagaluru,"Kalyana Nagara, Chikkamagaluru - KSPCB",02-04-2024 07:00:00,13.328028,75.797056,CO,11,110,21
India,Karnataka,Davanagere,"Devaraj Urs Badavane, Davanagere - KSPCB",02-04-2024 07:00:00,14.475800,75.905200,PM2.5,NA,NA,NA
India,Karnataka,Davanagere,"Devaraj Urs Badavane, Davanagere - KSPCB",02-04-2024 07:00:00,14.475800,75.905200,PM10,NA,NA,NA
India,Karnataka,Gadag,"Panchal Nagar, Gadag - KSPCB",02-04-2024 07:00:00,15.411456,75.638133,PM2.5,35,64,48
India,Karnataka,Gadag,"Panchal Nagar, Gadag - KSPCB",02-04-2024 07:00:00,15.411456,75.638133,PM10,36,58,48
India,Karnataka,Gadag,"Panchal Nagar, Gadag - KSPCB",02-04-2024 07:00:00,15.411456,75.638133,NH3,1,3,2
India,Karnataka,Gadag,"Panchal Nagar, Gadag - KSPCB",02-04-2024 07:00:00,15.411456,75.638133,SO2,9,19,14
India,Karnataka,Haveri,"Ashwini Nagar, Haveri - KSPCB",02-04-2024 07:00:00,14.791800,75.389600,NO2,28,37,32
India,Karnataka,Haveri,"Ashwini Nagar, Haveri - KSPCB",02-04-2024 07:00:00,14.791800,75.389600,NH3,3,3,3
India,Karnataka,Haveri,"Ashwini Nagar, Haveri - KSPCB",02-04-2024 07:00:00,14.791800,75.389600,SO2,14,14,14
India,Karnataka,Hubballi,"Deshpande Nagar, Hubballi - KSPCB",02-04-2024 07:00:00,15.351773,75.140726,NO2,NA,NA,NA
India,Karnataka,Kalaburagi,"Lal Bahadur Shastri Nagar, Kalaburagi - KSPCB",02-04-2024 07:00:00,17.321993,76.822628,CO,NA,NA,NA
India,Karnataka,Kalaburagi,"Mahatma Basaveswar Colony, Kalaburgi - KSPCB",02-04-2024 07:00:00,17.336318,76.847397,CO,38,68,55
India,Karnataka,Karwar,"KHB Colony, Karwar - KSPCB",02-04-2024 07:00:00,14.816666,74.141003,NH3,2,35,14
India,Karnataka,Kolar,"Tamaka Ind. Area, Kolar - KSPCB",02-04-2024 07:00:00,13.1276288,78.1570122,SO2,12,18,15
India,Karnataka,Koppal,"Diwator Nagar, Koppal - KSPCB",02-04-2024 07:00:00,15.347630,76.181767,CO,96,105,101
India,Karnataka,Madikeri,"Stuart Hill, Madikeri - KSPCB",02-04-2024 07:00:00,12.415911,75.735050,PM10,30,46,39
India,Karnataka,Madikeri,"Stuart Hill, Madikeri - KSPCB",02-04-2024 07:00:00,12.415911,75.735050,SO2,4,4,4
India,Karnataka,Mangalore,"Kadri, Mangalore - KSPCB",02-04-2024 07:00:00,12.889250,74.853000,PM2.5,29,63,45
India,Karnataka,Mysuru,"Hebbal 1st Stage, Mysuru - KSPCB",02-04-2024 07:00:00,12.21041,76.37376,OZONE,9,95,13
India,Karnataka,Raichur,"Haji Colony, Raichur - KSPCB",02-04-2024 07:00:00,16.208139,77.348417,NH3,NA,NA,NA
India,Karnataka,Raichur,"Haji Colony, Raichur - KSPCB",02-04-2024 07:00:00,16.208139,77.348417,OZONE,3,50,24
India,Karnataka,Shivamogga,"Vinoba Nagara, Shivamogga - KSPCB",02-04-2024 07:00:00,13.940000,75.555917,NO2,9,15,13
India,Karnataka,Tumakuru,"Thimmalapura, Tumakuru - KSPCB",02-04-2024 07:00:00,13.377516,77.099072,CO,30,33,31
India,Karnataka,Udupi,"Brahmagiri, Udupi - KSPCB",02-04-2024 07:00:00,13.34194444,74.74694444,PM10,NA,NA,NA
India,Karnataka,Udupi,"Brahmagiri, Udupi - KSPCB",02-04-2024 07:00:00,13.34194444,74.74694444,NO2,28,31,29
India,Karnataka,Udupi,"Brahmagiri, Udupi - KSPCB",02-04-2024 07:00:00,13.34194444,74.74694444,OZONE,23,23,23
India,Karnataka,Vijayapura,"Ibrahimpur, Vijayapura - KSPCB",02-04-2024 07:00:00,16.802639,75.722694,NO2,17,19,19
India,Karnataka,Vijayapura,"Ibrahimpur, Vijayapura - KSPCB",02-04-2024 07:00:00,16.802639,75.722694,OZONE,14,16,15
India,Karnataka,Yadgir,"Collector Office, Yadgir - KSPCB",02-04-2024 07:00:00,16.7602,77.1428,PM10,58,124,81
India,Karnataka,Yadgir,"Collector Office, Yadgir - KSPCB",02-04-2024 07:00:00,16.7602,77.1428,CO,12,26,16
India,Kerala,Eloor,"Udyogamandal, Eloor - Kerala PCB",02-04-2024 07:00:00,10.073232,76.302765,PM10,33,41,36
India,Kerala,Eloor,"Udyogamandal, Eloor - Kerala PCB",02-04-2024 07:00:00,10.073232,76.302765,NH3,1,1,1
India,Kerala,Eloor,"Udyogamandal, Eloor - Kerala PCB",02-04-2024 07:00:00,10.073232,76.302765,CO,8,104,14
India,Kerala,Kannur,"Thavakkara, Kannur - Kerala PCB",02-04-2024 07:00:00,11.875000,75.373200,PM10,59,77,68
India,Kerala,Kannur,"Thavakkara, Kannur - Kerala PCB",02-04-2024 07:00:00,11.875000,75.373200,OZONE,31,36,32
India,Kerala,Kollam,"Polayathode, Kollam - Kerala PCB",02-04-2024 07:00:00,8.8787,76.6073,NH3,1,1,1
India,Kerala,Thiruvananthapuram,"Kariavattom, Thiruvananthapuram - Kerala PCB",02-04-2024 07:00:00,8.563700,76.886500,PM2.5,73,90,81
India,Kerala,Thiruvananthapuram,"Kariavattom, Thiruvananthapuram - Kerala PCB",02-04-2024 07:00:00,8.563700,76.886500,NH3,1,1,1
India,Kerala,Thiruvananthapuram,"Kariavattom, Thiruvananthapuram - Kerala PCB",02-04-2024 07:00:00,8.563700,76.886500,OZONE,27,33,29
India,Kerala,Thiruvananthapuram,"Plammoodu, Thiruvananthapuram - Kerala PCB",02-04-2024 07:00:00,8.5149093,76.9435879,PM10,NA,NA,NA
India,Kerala,Thiruvananthapuram,"Plammoodu, Thiruvananthapuram - Kerala PCB",02-04-2024 07:00:00,8.5149093,76.9435879,NO2,7,9,8
India,Kerala,Thiruvananthapuram,"Plammoodu, Thiruvananthapuram - Kerala PCB",02-04-2024 07:00:00,8.5149093,76.9435879,SO2,4,13,9
India,Kerala,Thiruvananthapuram,"Plammoodu, Thiruvananthapuram - Kerala PCB",02-04-2024 07:00:00,8.5149093,76.9435879,OZONE,8,54,21
India,Kerala,Thrissur,"Corporation Ground, Thrissur - Kerala PCB",02-04-2024 07:00:00,10.532400,76.215900,PM10,59,67,64
India,Kerala,Thrissur,"Corporation Ground, Thrissur - Kerala PCB",02-04-2024 07:00:00,10.532400,76.215900,NO2,7,8,7
India,Kerala,Thrissur,"Corporation Ground, Thrissur - Kerala PCB",02-04-2024 07:00:00,10.532400,76.215900,SO2,1,15,7
India,Kerala,Thrissur,"Corporation Ground, Thrissur - Kerala PCB",02-04-2024 07:00:00,10.532400,76.215900,CO,14,62,23
India,Madhya Pradesh,Bhopal,"Paryavaran Parisar, Bhopal - MPPCB",02-04-2024 07:00:00,23.210494,77.425409,SO2,4,11,7
India,Madhya Pradesh,Bhopal,"T T Nagar, Bhopal - MPPCB",02-04-2024 07:00:00,23.233584,77.400574,CO,16,40,25
India,Madhya Pradesh,Bhopal,"T T Nagar, Bhopal - MPPCB",02-04-2024 07:00:00,23.233584,77.400574,OZONE,55,109,62
India,Madhya Pradesh,Dewas,"Bhopal Chauraha, Dewas - MPPCB",02-04-2024 07:00:00,22.9682591,76.064118,PM10,121,290,184
India,Madhya Pradesh,Dewas,"Bhopal Chauraha, Dewas - MPPCB",02-04-2024 07:00:00,22.9682591,76.064118,CO,17,52,42
India,Madhya Pradesh,Gwalior,"City Center, Gwalior - MPPCB",02-04-2024 07:00:00,26.203442,78.193251,PM10,83,172,115
India,Madhya Pradesh,Gwalior,"City Center, Gwalior - MPPCB",02-04-2024 07:00:00,26.203442,78.193251,NO2,7,22,12
India,Madhya Pradesh,Gwalior,"City Center, Gwalior - MPPCB",02-04-2024 07:00:00,26.203442,78.193251,SO2,20,42,31
India,Madhya Pradesh,Gwalior,"Deen Dayal Nagar, Gwalior - MPPCB",02-04-2024 07:00:00,26.259242,78.216432,PM2.5,33,206,88
India,Madhya Pradesh,Gwalior,"Deen Dayal Nagar, Gwalior - MPPCB",02-04-2024 07:00:00,26.259242,78.216432,CO,16,88,47
India,Madhya Pradesh,Gwalior,"Maharaj Bada, Gwalior - MPPCB",02-04-2024 07:00:00,26.200388,78.147714,CO,28,86,56
India,Madhya Pradesh,Gwalior,"Maharaj Bada, Gwalior - MPPCB",02-04-2024 07:00:00,26.200388,78.147714,OZONE,48,118,74
India,Madhya Pradesh,Indore,"Chhoti Gwaltoli, Indore - MPPCB",02-04-2024 07:00:00,22.4310,75.5213,PM2.5,55,308,125
India,Madhya Pradesh,Indore,"Chhoti Gwaltoli, Indore - MPPCB",02-04-2024 07:00:00,22.4310,75.5213,CO,30,104,75
India,Madhya Pradesh,Indore,"Maguda Nagar, Indore - IMC",02-04-2024 07:00:00,22.7524,75.8872,PM2.5,65,293,115
India,Madhya Pradesh,Indore,"Maguda Nagar, Indore - IMC",02-04-2024 07:00:00,22.7524,75.8872,NH3,1,1,1
India,Madhya Pradesh,Indore,"Regional Park, Indore - IMC",02-04-2024 07:00:00,22.6780,75.8559,SO2,41,50,47
India,Madhya Pradesh,Indore,"Regional Park, Indore - IMC",02-04-2024 07:00:00,22.6780,75.8559,OZONE,12,30,15
India,Madhya Pradesh,Indore,"Residency Area, Indore - IMC",02-04-2024 07:00:00,22.7084,75.8815,PM10,72,161,104
India,Madhya Pradesh,Jabalpur,"Govindh Bhavan Colony, Jabalpur - JMC",02-04-2024 07:00:00,23.163174,79.973061,PM10,73,187,107
India,Madhya Pradesh,Jabalpur,"Govindh Bhavan Colony, Jabalpur - JMC",02-04-2024 07:00:00,23.163174,79.973061,NO2,12,39,25
India,Madhya Pradesh,Jabalpur,"Gupteshwar, Jabalpur - JMC",02-04-2024 07:00:00,23.142888,79.916147,PM2.5,80,304,160
India,Madhya Pradesh,Jabalpur,"Gupteshwar, Jabalpur - JMC",02-04-2024 07:00:00,23.142888,79.916147,NO2,5,41,29
India,Madhya Pradesh,Jabalpur,"Gupteshwar, Jabalpur - JMC",02-04-2024 07:00:00,23.142888,79.916147,CO,10,54,41
India,Madhya Pradesh,Katni,"Gole Bazar, Katni - MPPCB",02-04-2024 07:00:00,23.50016,80.23284,PM2.5,25,329,122
India,Madhya Pradesh,Pithampur,"Sector-2 Industrial Area, Pithampur - MPPCB",02-04-2024 07:00:00,22.624758,75.675238,PM10,115,222,160
India,Madhya Pradesh,Sagar,"Civil Lines, Sagar - MPPCB",02-04-2024 07:00:00,23.838586,78.759431,NH3,2,7,5
India,Madhya Pradesh,Sagar,"Civil Lines, Sagar - MPPCB",02-04-2024 07:00:00,23.838586,78.759431,CO,14,88,32
India,Madhya Pradesh,Sagar,"Deen Dayal Nagar, Sagar - MPPCB",02-04-2024 07:00:00,23.8640158,78.80289321,SO2,8,24,14
India,Madhya Pradesh,Satna,"Bandhavgar Colony, Satna - Birla Cement",02-04-2024 07:00:00,24.58434363,80.8549414,NO2,30,75,46
India,Madhya Pradesh,Singrauli,"Suryakiran Bhawan NCL, Singrauli - MPPCB",02-04-2024 07:00:00,24.108970,82.645580,SO2,33,48,39
India,Madhya Pradesh,Singrauli,"Suryakiran Bhawan NCL, Singrauli - MPPCB",02-04-2024 07:00:00,24.108970,82.645580,OZONE,9,80,14
India,Madhya Pradesh,Ujjain,"Mahakaleshwar Temple, Ujjain - MPPCB",02-04-2024 07:00:00,23.182719 ,75.768218 ,PM2.5,15,500,94
India,Madhya Pradesh,Ujjain,"Mahakaleshwar Temple, Ujjain - MPPCB",02-04-2024 07:00:00,23.182719 ,75.768218 ,OZONE,112,159,116
India,Maharashtra,Ahmednagar,"Tarakpur, Ahmednagar - MPCB",02-04-2024 07:00:00,19.10122,74.73339,NO2,17,101,56
India,Maharashtra,Akola,"Ramdaspeth, Akola - MPCB",02-04-2024 07:00:00,20.719516,77.000253,NH3,4,13,7
India,Maharashtra,Amravati,"Shivneri Colony, Amravati - MPCB",02-04-2024 07:00:00,20.9402359,77.7895248,PM10,30,130,102
India,Maharashtra,Amravati,"Shivneri Colony, Amravati - MPCB",02-04-2024 07:00:00,20.9402359,77.7895248,NO2,14,66,34
India,Maharashtra,Amravati,"Shri Shivaji Science College, Amaravati - MPCB",02-04-2024 07:00:00,20.939198,77.765701,PM10,91,131,113
India,Maharashtra,Amravati,"Shri Shivaji Science College, Amaravati - MPCB",02-04-2024 07:00:00,20.939198,77.765701,NO2,5,70,19
India,Maharashtra,Amravati,"Shri Shivaji Science College, Amaravati - MPCB",02-04-2024 07:00:00,20.939198,77.765701,OZONE,3,103,28
India,Maharashtra,Aurangabad,"MIDC Chilkalthana, Aurangabad - MPCB",02-04-2024 07:00:00,19.875620,75.387310,CO,17,78,20
India,Maharashtra,Aurangabad,"More Chowk Waluj, Aurangabad - MPCB",02-04-2024 07:00:00,19.8389439,75.244448,PM10,66,129,96
India,Maharashtra,Aurangabad,"More Chowk Waluj, Aurangabad - MPCB",02-04-2024 07:00:00,19.8389439,75.244448,NO2,38,46,44
India,Maharashtra,Aurangabad,"More Chowk Waluj, Aurangabad - MPCB",02-04-2024 07:00:00,19.8389439,75.244448,NH3,9,10,9
India,Maharashtra,Aurangabad,"More Chowk Waluj, Aurangabad - MPCB",02-04-2024 07:00:00,19.8389439,75.244448,SO2,1,6,2
India,Maharashtra,Aurangabad,"More Chowk Waluj, Aurangabad - MPCB",02-04-2024 07:00:00,19.8389439,75.244448,OZONE,18,84,42
India,Maharashtra,Aurangabad,"Rachnakar Colony, Aurangabad - MPCB",02-04-2024 07:00:00,19.863756,75.321188,PM2.5,4,300,91
India,Maharashtra,Aurangabad,"Rachnakar Colony, Aurangabad - MPCB",02-04-2024 07:00:00,19.863756,75.321188,PM10,34,135,104
India,Maharashtra,Aurangabad,"Rachnakar Colony, Aurangabad - MPCB",02-04-2024 07:00:00,19.863756,75.321188,CO,9,94,17
India,Maharashtra,Badlapur,"Katrap, Badlapur - MPCB",02-04-2024 07:00:00,19.16485,73.23409,OZONE,2,92,16
India,Maharashtra,Belapur,"CBD Belapur, Belapur - MPCB",02-04-2024 07:00:00,19.0243902,73.0406721,PM2.5,46,179,92
India,Maharashtra,Belapur,"CBD Belapur, Belapur - MPCB",02-04-2024 07:00:00,19.0243902,73.0406721,PM10,111,152,131
India,Maharashtra,Bhiwandi,"Gokul Nagar, Bhiwandi - MPCB",02-04-2024 07:00:00,19.309073,73.057223,SO2,2,19,6
India,Maharashtra,Boisar,"Khaira, Boisar - MPCB",02-04-2024 07:00:00,19.786089,72.757971,NH3,3,9,5
India,Maharashtra,Chandrapur,"Chauhan Colony, Chandrapur - MPCB",02-04-2024 07:00:00,19.962900,79.298714,PM2.5,71,236,149
India,Maharashtra,Chandrapur,"MIDC Khutala, Chandrapur - MPCB",02-04-2024 07:00:00,19.9775302,79.2337086,PM2.5,54,248,127
India,Maharashtra,Chandrapur,"MIDC Khutala, Chandrapur - MPCB",02-04-2024 07:00:00,19.9775302,79.2337086,SO2,20,23,22
India,Maharashtra,Dhule,"Deopur, Dhule - MPCB",02-04-2024 07:00:00,20.918946,74.776388,CO,10,29,20
India,Maharashtra,Jalgaon,"Prabhat Colony, Jalgaon - MPCB",02-04-2024 07:00:00,21.001264,75.565602,PM2.5,40,270,96
India,Maharashtra,Jalgaon,"Prabhat Colony, Jalgaon - MPCB",02-04-2024 07:00:00,21.001264,75.565602,NO2,20,93,36
India,Maharashtra,Jalgaon,"Prabhat Colony, Jalgaon - MPCB",02-04-2024 07:00:00,21.001264,75.565602,OZONE,16,102,23
India,Maharashtra,Kalyan,"Khadakpada, Kalyan - MPCB",02-04-2024 07:00:00,19.25292,73.142019,NO2,30,43,36
India,Maharashtra,Kalyan,"Khadakpada, Kalyan - MPCB",02-04-2024 07:00:00,19.25292,73.142019,NH3,1,1,1
India,Maharashtra,Kalyan,"Khadakpada, Kalyan - MPCB",02-04-2024 07:00:00,19.25292,73.142019,SO2,27,37,32
India,Maharashtra,Kolhapur,"Shivaji University, Kolhapur - MPCB",02-04-2024 07:00:00,16.6870449,74.2505872,PM2.5,61,242,141
India,Maharashtra,Kolhapur,"Shivaji University, Kolhapur - MPCB",02-04-2024 07:00:00,16.6870449,74.2505872,PM10,114,156,139
India,Maharashtra,Kolhapur,"Sinchan Bhavan, Kolhapur - MPCB",02-04-2024 07:00:00,16.7143745,74.2426398,PM10,NA,NA,NA
India,Maharashtra,Kolhapur,"Sinchan Bhavan, Kolhapur - MPCB",02-04-2024 07:00:00,16.7143745,74.2426398,OZONE,16,227,59
India,Maharashtra,Latur,"Sawe Wadi, Latur - MPCB",02-04-2024 07:00:00,18.39963,76.57452,NO2,11,135,46
India,Maharashtra,Latur,"Sawe Wadi, Latur - MPCB",02-04-2024 07:00:00,18.39963,76.57452,OZONE,1,82,21
India,Maharashtra,Mahad,"Kamble Tarf Birwadi, Mahad - MPCB",02-04-2024 07:00:00,18.1023399,73.4783687,PM10,93,130,113
India,Maharashtra,Mahad,"Kamble Tarf Birwadi, Mahad - MPCB",02-04-2024 07:00:00,18.1023399,73.4783687,NH3,7,13,10
India,Maharashtra,Mira-Bhayandar,"Bhayandar West, Mira-Bhayandar - MPCB",02-04-2024 07:00:00,19.296481,72.840923,CO,10,16,10
India,Maharashtra,Mira-Bhayandar,"Bhayandar West, Mira-Bhayandar - MPCB",02-04-2024 07:00:00,19.296481,72.840923,OZONE,4,119,26
India,Maharashtra,Mumbai,"Bandra Kurla Complex, Mumbai - MPCB",02-04-2024 07:00:00,19.065931,72.862131,PM2.5,5,130,76
India,Maharashtra,Mumbai,"Bandra Kurla Complex, Mumbai - MPCB",02-04-2024 07:00:00,19.065931,72.862131,NO2,6,15,10
India,Maharashtra,Mumbai,"Borivali East, Mumbai - MPCB",02-04-2024 07:00:00,19.2243333,72.8658113,PM2.5,18,68,40
India,Maharashtra,Mumbai,"Borivali East, Mumbai - MPCB",02-04-2024 07:00:00,19.2243333,72.8658113,CO,1,50,9
India,Maharashtra,Mumbai,"Borivali East, Mumbai - MPCB",02-04-2024 07:00:00,19.2243333,72.8658113,OZONE,14,16,15
India,Maharashtra,Mumbai,"Byculla, Mumbai - BMC",02-04-2024 07:00:00,18.9767,72.8380,PM10,44,114,94
India,Maharashtra,Mumbai,"Chhatrapati Shivaji Intl. Airport (T2), Mumbai - MPCB",02-04-2024 07:00:00,19.10078,72.87462,OZONE,4,14,5
India,Maharashtra,Mumbai,"Colaba, Mumbai - MPCB",02-04-2024 07:00:00,18.910000,72.820000,SO2,10,11,10
India,Maharashtra,Mumbai,"Colaba, Mumbai - MPCB",02-04-2024 07:00:00,18.910000,72.820000,CO,12,14,13
India,Maharashtra,Mumbai,"Ghatkopar, Mumbai - BMC",02-04-2024 07:00:00,19.083694,72.920967,PM2.5,32,73,56
India,Maharashtra,Mumbai,"Ghatkopar, Mumbai - BMC",02-04-2024 07:00:00,19.083694,72.920967,SO2,1,3,2
India,Maharashtra,Mumbai,"Kandivali East, Mumbai - MPCB",02-04-2024 07:00:00,19.205800,72.868200,NH3,2,17,5
India,Maharashtra,Mumbai,"Kandivali West, Mumbai - BMC",02-04-2024 07:00:00,19.215859,72.831718,PM10,47,99,74
India,Maharashtra,Mumbai,"Khindipada-Bhandup West, Mumbai - IITM",02-04-2024 07:00:00,19.1653323,72.922099,PM2.5,3,181,113
India,Maharashtra,Mumbai,"Khindipada-Bhandup West, Mumbai - IITM",02-04-2024 07:00:00,19.1653323,72.922099,NO2,8,16,12
India,Maharashtra,Mumbai,"Kurla, Mumbai - MPCB",02-04-2024 07:00:00,19.0863,72.8888,PM2.5,101,302,206
India,Maharashtra,Mumbai,"Kurla, Mumbai - MPCB",02-04-2024 07:00:00,19.0863,72.8888,SO2,32,32,32
India,Maharashtra,Mumbai,"Kurla, Mumbai - MPCB",02-04-2024 07:00:00,19.0863,72.8888,CO,8,30,17
India,Maharashtra,Mumbai,"Mazgaon, Mumbai - IITM",02-04-2024 07:00:00,18.96702,72.84214,OZONE,28,99,57
India,Maharashtra,Mumbai,"Mindspace-Malad West, Mumbai - MPCB",02-04-2024 07:00:00,19.1878657,72.8304069,PM10,60,126,107
India,Maharashtra,Mumbai,"Mindspace-Malad West, Mumbai - MPCB",02-04-2024 07:00:00,19.1878657,72.8304069,NO2,8,37,19
India,Maharashtra,Mumbai,"Mindspace-Malad West, Mumbai - MPCB",02-04-2024 07:00:00,19.1878657,72.8304069,NH3,4,5,5
India,Maharashtra,Mumbai,"Mulund West, Mumbai - MPCB",02-04-2024 07:00:00,19.1750,72.9419,SO2,13,13,13
India,Maharashtra,Mumbai,"Navy Nagar-Colaba, Mumbai - IITM",02-04-2024 07:00:00,18.897756,72.813320,CO,20,48,28
India,Maharashtra,Mumbai,"Powai, Mumbai - MPCB",02-04-2024 07:00:00,19.137500,72.915056,PM2.5,28,66,53
India,Maharashtra,Mumbai,"Powai, Mumbai - MPCB",02-04-2024 07:00:00,19.137500,72.915056,NH3,1,1,1
India,Maharashtra,Mumbai,"Sewri, Mumbai - BMC",02-04-2024 07:00:00,19.000084,72.856730,NO2,23,53,35
India,Maharashtra,Mumbai,"Shivaji Nagar, Mumbai - BMC",02-04-2024 07:00:00,19.060498,72.923356,SO2,1,17,6
India,Maharashtra,Mumbai,"Shivaji Nagar, Mumbai - BMC",02-04-2024 07:00:00,19.060498,72.923356,CO,1,96,32
India,Maharashtra,Mumbai,"Shivaji Nagar, Mumbai - BMC",02-04-2024 07:00:00,19.060498,72.923356,OZONE,1,68,14
India,Maharashtra,Mumbai,"Sion, Mumbai - MPCB",02-04-2024 07:00:00,19.047000,72.874600,NH3,1,1,1
India,Maharashtra,Mumbai,"Vasai West, Mumbai - MPCB",02-04-2024 07:00:00,19.383200,72.820400,NO2,23,30,27
India,Maharashtra,Mumbai,"Vile Parle West, Mumbai - MPCB",02-04-2024 07:00:00,19.10861,72.83622,PM2.5,64,109,81
India,Maharashtra,Mumbai,"Worli, Mumbai - MPCB",02-04-2024 07:00:00,18.9936162,72.8128113,PM2.5,34,74,58
India,Maharashtra,Mumbai,"Worli, Mumbai - MPCB",02-04-2024 07:00:00,18.9936162,72.8128113,PM10,89,163,135
India,Maharashtra,Mumbai,"Worli, Mumbai - MPCB",02-04-2024 07:00:00,18.9936162,72.8128113,CO,26,27,26
India,Maharashtra,Nagpur,"Mahal, Nagpur - MPCB",02-04-2024 07:00:00,21.14472,79.107595,NO2,NA,NA,NA
India,Maharashtra,Nagpur,"Mahal, Nagpur - MPCB",02-04-2024 07:00:00,21.14472,79.107595,OZONE,15,71,19
India,Maharashtra,Nagpur,"Opp GPO Civil Lines, Nagpur - MPCB",02-04-2024 07:00:00,21.152875,79.0517531,NO2,23,169,65
India,Maharashtra,Nashik,"Hirawadi, Nashik - MPCB",02-04-2024 07:00:00,20.021503,73.813844,NH3,1,2,1
India,Maharashtra,Nashik,"Pandav Nagari, Nashik - MPCB",02-04-2024 07:00:00,19.9591346,73.7788008,NO2,7,44,15
India,Maharashtra,Nashik,"Pandav Nagari, Nashik - MPCB",02-04-2024 07:00:00,19.9591346,73.7788008,CO,10,48,16
India,Maharashtra,Navi Mumbai,"Kopripada-Vashi, Navi Mumbai - MPCB",02-04-2024 07:00:00,19.090337,73.014232,NO2,11,11,11
India,Maharashtra,Navi Mumbai,"Kopripada-Vashi, Navi Mumbai - MPCB",02-04-2024 07:00:00,19.090337,73.014232,OZONE,11,84,84
India,Maharashtra,Navi Mumbai,"Mahape, Navi Mumbai - MPCB",02-04-2024 07:00:00,19.1135051,73.008978,SO2,26,27,27
India,Maharashtra,Navi Mumbai,"Sanpada, Navi Mumbai - MPCB",02-04-2024 07:00:00,19.0575752,73.0151367,PM10,101,186,135
India,Maharashtra,Parbhani,"Masoom Colony, Parbhani - MPCB",02-04-2024 07:00:00,19.265594,76.761463,PM10,NA,NA,NA
India,Maharashtra,Parbhani,"Masoom Colony, Parbhani - MPCB",02-04-2024 07:00:00,19.265594,76.761463,SO2,NA,NA,NA
India,Maharashtra,Pimpri-Chinchwad,"Gavalinagar, Pimpri Chinchwad - MPCB",02-04-2024 07:00:00,18.63673,73.82487,NO2,12,89,37
India,Maharashtra,Pimpri-Chinchwad,"Gavalinagar, Pimpri Chinchwad - MPCB",02-04-2024 07:00:00,18.63673,73.82487,SO2,7,46,19
India,Maharashtra,Pimpri-Chinchwad,"Park Street Wakad, Pimpri Chinchwad - MPCB",02-04-2024 07:00:00,18.59051,73.77946,CO,22,104,35
India,Maharashtra,Pimpri-Chinchwad,"Park Street Wakad, Pimpri Chinchwad - MPCB",02-04-2024 07:00:00,18.59051,73.77946,OZONE,2,99,25
India,Maharashtra,Pune,"Bhosari, Pune - IITM",02-04-2024 07:00:00,18.640051,73.848956,PM2.5,17,159,60
India,Maharashtra,Pune,"Katraj Dairy, Pune - MPCB",02-04-2024 07:00:00,18.454450,73.854155,OZONE,21,79,41
India,Maharashtra,Pune,"Mhada Colony, Pune - IITM",02-04-2024 07:00:00,18.573040,73.927715,PM10,47,117,81
India,Maharashtra,Pune,"Mhada Colony, Pune - IITM",02-04-2024 07:00:00,18.573040,73.927715,NO2,1,20,14
India,Maharashtra,Pune,"Revenue Colony-Shivajinagar, Pune - IITM",02-04-2024 07:00:00,18.530085,73.849598,PM2.5,18,63,39
India,Maharashtra,Pune,"Revenue Colony-Shivajinagar, Pune - IITM",02-04-2024 07:00:00,18.530085,73.849598,NH3,8,19,13
India,Maharashtra,Pune,"Savitribai Phule Pune University, Pune - MPCB",02-04-2024 07:00:00,18.547056,73.826908,CO,15,74,29
India,Maharashtra,Pune,"Savitribai Phule Pune University, Pune - MPCB",02-04-2024 07:00:00,18.547056,73.826908,OZONE,1,274,50
India,Maharashtra,Sangli,"Vijay Nagar, Sangli - MPCB",02-04-2024 07:00:00, 16.5038,74.3623,NH3,1,2,2
India,Maharashtra,Solapur,"Ratandeep Housing Society, Solapur - MPCB",02-04-2024 07:00:00,17.65439,75.90649,PM2.5,83,198,144
India,Maharashtra,Solapur,"Ratandeep Housing Society, Solapur - MPCB",02-04-2024 07:00:00,17.65439,75.90649,PM10,83,133,111
India,Maharashtra,Solapur,"Ratandeep Housing Society, Solapur - MPCB",02-04-2024 07:00:00,17.65439,75.90649,NH3,8,15,11
India,Maharashtra,Solapur,"Ratandeep Housing Society, Solapur - MPCB",02-04-2024 07:00:00,17.65439,75.90649,OZONE,6,180,60
India,Maharashtra,Solapur,"Solapur, Solapur - MPCB",02-04-2024 07:00:00,17.6599188,75.9063906,PM2.5,53,64,62
India,Maharashtra,Solapur,"Solapur, Solapur - MPCB",02-04-2024 07:00:00,17.6599188,75.9063906,PM10,110,123,120
India,Maharashtra,Thane,"Kasarvadavali, Thane - MPCB",02-04-2024 07:00:00,19.26777,72.97182,SO2,2,15,6
India,Maharashtra,Thane,"Kasarvadavali, Thane - MPCB",02-04-2024 07:00:00,19.26777,72.97182,OZONE,8,102,33
India,Maharashtra,Thane,"Upvan Fort, Thane - MPCB",02-04-2024 07:00:00,19.222279,72.957979,PM10,73,141,113
India,Maharashtra,Thane,"Upvan Fort, Thane - MPCB",02-04-2024 07:00:00,19.222279,72.957979,SO2,1,20,7
India,Maharashtra,Ulhasnagar,"Sidhi Vinayak Nagar, Ulhasnagar - MPCB",02-04-2024 07:00:00,19.235581,73.159121,NH3,2,3,2
India,Manipur,Imphal,"DM College of Science, Imphal - Manipur PCB",02-04-2024 07:00:00,24.8207389,93.9423085,PM2.5,2,35,22
India,Manipur,Imphal,"DM College of Science, Imphal - Manipur PCB",02-04-2024 07:00:00,24.8207389,93.9423085,NH3,2,2,2
India,Manipur,Imphal,"DM College of Science, Imphal - Manipur PCB",02-04-2024 07:00:00,24.8207389,93.9423085,SO2,83,92,90
India,Meghalaya,Shillong,"Lumpyngngad, Shillong - Meghalaya PCB",02-04-2024 07:00:00,25.5586,91.8985,OZONE,82,199,154
India,Mizoram,Aizawl,"Sikulpuikawn, Aizawl - Mizoram PCB",02-04-2024 07:00:00,23.7176342,92.7192841,NH3,1,5,2
India,Mizoram,Aizawl,"Sikulpuikawn, Aizawl - Mizoram PCB",02-04-2024 07:00:00,23.7176342,92.7192841,OZONE,7,48,19
India,Nagaland,Kohima,"PWD Juction, Kohima - NPCB",02-04-2024 07:00:00,25.6635413,94.0989878,CO,3,16,9
India,Odisha,Angul,"Hakimapada, Angul - OSPCB",02-04-2024 07:00:00,20.832874,85.104082,OZONE,6,186,34
India,Odisha,Barbil,"Forest Office, Barbil - OSPCB",02-04-2024 07:00:00,22.1166054,85.3945546,PM10,117,215,155
India,Odisha,Barbil,"Forest Office, Barbil - OSPCB",02-04-2024 07:00:00,22.1166054,85.3945546,SO2,5,23,14
India,Odisha,Brajrajnagar,"GM Office, Brajrajnagar - OSPCB",02-04-2024 07:00:00,21.8004996,83.8396977,PM2.5,46,289,111
India,Odisha,Brajrajnagar,"GM Office, Brajrajnagar - OSPCB",02-04-2024 07:00:00,21.8004996,83.8396977,PM10,65,222,123
India,Odisha,Brajrajnagar,"GM Office, Brajrajnagar - OSPCB",02-04-2024 07:00:00,21.8004996,83.8396977,NO2,13,35,19
India,Odisha,Cuttack,"CDA Area, Cuttack - OSPCB",02-04-2024 07:00:00,20.48891     ,85.84768     ,NO2,12,29,17
India,Odisha,Cuttack,"CDA Area, Cuttack - OSPCB",02-04-2024 07:00:00,20.48891     ,85.84768     ,NH3,1,3,2
India,Odisha,Keonjhar,"Jagamohanpur, Keonjhar - OSPCB",02-04-2024 07:00:00,21.643900,85.599355,NO2,NA,NA,NA
India,Odisha,Keonjhar,"Jagamohanpur, Keonjhar - OSPCB",02-04-2024 07:00:00,21.643900,85.599355,CO,18,74,26
India,Odisha,Nayagarh,"Dabuna, Nayagarh - OSPCB",02-04-2024 07:00:00,21.847279,85.416905,PM2.5,93,318,171
India,Odisha,Nayagarh,"Dabuna, Nayagarh - OSPCB",02-04-2024 07:00:00,21.847279,85.416905,PM10,86,434,169
India,Odisha,Rairangpur,"Divisional Forest Office, Rairangpur - OSPCB",02-04-2024 07:00:00,22.265816,86.174829,OZONE,5,53,15
India,Odisha,Rourkela,"Raghunathpali, Rourkela - OSPCB",02-04-2024 07:00:00,22.220833,84.809444,SO2,1,20,7
India,Odisha,Suakati,"OMC Colony, Suakati - OSPCB",02-04-2024 07:00:00,21.606865,85.510538,PM2.5,45,273,183
India,Odisha,Suakati,"OMC Colony, Suakati - OSPCB",02-04-2024 07:00:00,21.606865,85.510538,PM10,49,403,153
India,Odisha,Suakati,"OMC Colony, Suakati - OSPCB",02-04-2024 07:00:00,21.606865,85.510538,NH3,NA,NA,NA
India,Odisha,Suakati,"OMC Colony, Suakati - OSPCB",02-04-2024 07:00:00,21.606865,85.510538,SO2,1,88,19
India,Odisha,Talcher,"Talcher Coalfields,Talcher - OSPCB",02-04-2024 07:00:00,20.9360711,85.1707021,PM10,63,428,177
India,Odisha,Talcher,"Talcher Coalfields,Talcher - OSPCB",02-04-2024 07:00:00,20.9360711,85.1707021,OZONE,1,15,3
India,Puducherry,Puducherry,"Jawahar Nagar, Puducherry - PPCC",02-04-2024 07:00:00,11.9309,79.8027,SO2,3,12,7
India,Puducherry,Puducherry,"Jawahar Nagar, Puducherry - PPCC",02-04-2024 07:00:00,11.9309,79.8027,OZONE,3,32,9
India,Punjab,Bathinda,"Hardev Nagar, Bathinda - PPCB",02-04-2024 07:00:00,30.233011,74.907758,PM2.5,9,77,39
India,Punjab,Bathinda,"Hardev Nagar, Bathinda - PPCB",02-04-2024 07:00:00,30.233011,74.907758,SO2,4,44,23
India,Punjab,Jalandhar,"Civil Line, Jalandhar - PPCB",02-04-2024 07:00:00,31.321907,75.578914,OZONE,26,67,37
India,Punjab,Khanna,"Kalal Majra, Khanna - PPCB",02-04-2024 07:00:00,30.736056 ,76.209694,PM2.5,30,72,52
India,Punjab,Patiala,"Model Town, Patiala - PPCB",02-04-2024 07:00:00,30.349388,76.366642,NH3,7,7,7
India,Punjab,Patiala,"Model Town, Patiala - PPCB",02-04-2024 07:00:00,30.349388,76.366642,CO,12,26,22
India,Punjab,Rupnagar,"Ratanpura, Rupnagar - Ambuja Cements",02-04-2024 07:00:00,31.0325454,76.5623046,CO,27,80,36
India,Rajasthan,Ajmer,"Civil Lines,  Ajmer - RSPCB",02-04-2024 07:00:00,26.470859,74.646594,PM10,58,107,87
India,Rajasthan,Ajmer,"Civil Lines,  Ajmer - RSPCB",02-04-2024 07:00:00,26.470859,74.646594,OZONE,29,90,46
India,Rajasthan,Alwar,"Moti Doongri, Alwar - RSPCB",02-04-2024 07:00:00,27.554793,76.611536,PM10,48,88,69
India,Rajasthan,Alwar,"Moti Doongri, Alwar - RSPCB",02-04-2024 07:00:00,27.554793,76.611536,NO2,34,49,40
India,Rajasthan,Alwar,"Moti Doongri, Alwar - RSPCB",02-04-2024 07:00:00,27.554793,76.611536,SO2,14,48,32
India,Rajasthan,Alwar,"Moti Doongri, Alwar - RSPCB",02-04-2024 07:00:00,27.554793,76.611536,CO,10,39,29
India,Rajasthan,Barmer,"Railway Colony, Barmer - RSPCB",02-04-2024 07:00:00,25.747299,71.393989,CO,10,44,14
India,Rajasthan,Barmer,"Railway Colony, Barmer - RSPCB",02-04-2024 07:00:00,25.747299,71.393989,OZONE,21,106,72
India,Rajasthan,Bharatpur,"Krishna Nagar, Bharatpur - RSPCB",02-04-2024 07:00:00,27.215415,77.50873,NH3,2,6,4
India,Rajasthan,Bikaner,"MM Ground, Bikaner - RSPCB",02-04-2024 07:00:00,28.018792,73.292658,PM2.5,21,226,75
India,Rajasthan,Bundi,"New Colony, Bundi - RSPCB",02-04-2024 07:00:00,25.435774,75.644272,PM10,88,265,131
India,Rajasthan,Bundi,"New Colony, Bundi - RSPCB",02-04-2024 07:00:00,25.435774,75.644272,NH3,2,2,2
India,Rajasthan,Bundi,"New Colony, Bundi - RSPCB",02-04-2024 07:00:00,25.435774,75.644272,CO,7,72,13
India,Rajasthan,Bundi,"New Colony, Bundi - RSPCB",02-04-2024 07:00:00,25.435774,75.644272,OZONE,33,121,62
India,Rajasthan,Chittorgarh,"Shastri Nagar, Chittorgarh - RSPCB",02-04-2024 07:00:00,24.892047,74.623527,PM2.5,27,127,63
India,Rajasthan,Chittorgarh,"Shastri Nagar, Chittorgarh - RSPCB",02-04-2024 07:00:00,24.892047,74.623527,OZONE,1,128,5
India,Rajasthan,Churu,"Subash Chowk, Churu - RSPCB",02-04-2024 07:00:00,28.296139,74.961696,PM2.5,9,77,35
India,Rajasthan,Dausa,"Khatikan Mohalla, Dausa - RSPCB",02-04-2024 07:00:00,26.895552,76.334753,PM2.5,20,74,39
India,Rajasthan,Dausa,"Khatikan Mohalla, Dausa - RSPCB",02-04-2024 07:00:00,26.895552,76.334753,NH3,3,7,4
India,Rajasthan,Dausa,"Khatikan Mohalla, Dausa - RSPCB",02-04-2024 07:00:00,26.895552,76.334753,SO2,4,20,8
India,Rajasthan,Dholpur,"Raja Ganj, Dholpur - RSPCB",02-04-2024 07:00:00,26.699557,77.898881,PM2.5,28,196,82
India,Rajasthan,Dholpur,"Raja Ganj, Dholpur - RSPCB",02-04-2024 07:00:00,26.699557,77.898881,PM10,111,258,174
India,Rajasthan,Dholpur,"Raja Ganj, Dholpur - RSPCB",02-04-2024 07:00:00,26.699557,77.898881,OZONE,34,94,49
India,Rajasthan,Dungarpur,"Bhoiwada, Dungarpur - RSPCB",02-04-2024 07:00:00,23.837789,73.714926,PM2.5,65,100,76
India,Rajasthan,Dungarpur,"Bhoiwada, Dungarpur - RSPCB",02-04-2024 07:00:00,23.837789,73.714926,SO2,6,8,7
India,Rajasthan,Hanumangarh,"Housing Board, Hanumangarh - RSPCB",02-04-2024 07:00:00,29.610750,74.283608,NH3,5,14,8
India,Rajasthan,Hanumangarh,"Housing Board, Hanumangarh - RSPCB",02-04-2024 07:00:00,29.610750,74.283608,CO,28,99,69
India,Rajasthan,Jaipur,"Mansarovar Sector-12, Jaipur - RSPCB",02-04-2024 07:00:00,26.843698,75.766894,CO,3,66,29
India,Rajasthan,Jaipur,"Police Commissionerate, Jaipur - RSPCB",02-04-2024 07:00:00,26.9164092,75.7994901,PM10,91,158,117
India,Rajasthan,Jaipur,"RIICO Sitapura, Jaipur - RSPCB",02-04-2024 07:00:00,26.786682,75.827928,SO2,10,32,20
India,Rajasthan,Jalore,"Mudtra Sili, Jalore - RSPCB",02-04-2024 07:00:00,25.344694,72.626208,SO2,2,8,4
India,Rajasthan,Jalore,"Mudtra Sili, Jalore - RSPCB",02-04-2024 07:00:00,25.344694,72.626208,CO,10,105,22
India,Rajasthan,Jalore,"Mudtra Sili, Jalore - RSPCB",02-04-2024 07:00:00,25.344694,72.626208,OZONE,8,118,39
India,Rajasthan,Jhunjhunu,"Indra Nagar, Jhunjhunu - RSPCB",02-04-2024 07:00:00,28.108988,75.386577,PM10,54,163,97
India,Rajasthan,Jhunjhunu,"Indra Nagar, Jhunjhunu - RSPCB",02-04-2024 07:00:00,28.108988,75.386577,CO,7,38,21
India,Rajasthan,Jodhpur,"Collectorate, Jodhpur - RSPCB",02-04-2024 07:00:00,26.268249,73.0193853,SO2,2,38,16
India,Rajasthan,Jodhpur,"Digari Kalan, Jodhpur - RSPCB",02-04-2024 07:00:00,26.295810,73.082283,PM2.5,22,96,50
India,Rajasthan,Jodhpur,"Jhalamand, Jodhpur - RSPCB",02-04-2024 07:00:00,26.215415,73.070156,CO,2,60,39
India,Rajasthan,Jodhpur,"Mandor, Jodhpur - RSPCB",02-04-2024 07:00:00,26.358805,73.047444,PM10,103,174,131
India,Rajasthan,Jodhpur,"Mandor, Jodhpur - RSPCB",02-04-2024 07:00:00,26.358805,73.047444,NH3,6,12,8
India,Rajasthan,Jodhpur,"Samrat Ashok Udhyan, Jodhpur - RSPCB",02-04-2024 07:00:00,26.253384,72.976571,PM2.5,20,53,37
India,Rajasthan,Jodhpur,"Samrat Ashok Udhyan, Jodhpur - RSPCB",02-04-2024 07:00:00,26.253384,72.976571,NO2,3,86,22
India,Rajasthan,Karauli,"Satyawati Vihar, Karauli - RSPCB",02-04-2024 07:00:00,26.506177,77.025989,PM2.5,40,119,73
India,Rajasthan,Karauli,"Satyawati Vihar, Karauli - RSPCB",02-04-2024 07:00:00,26.506177,77.025989,CO,2,40,17
India,Rajasthan,Pali,"Indira Colony Vistar, Pali - RSPCB",02-04-2024 07:00:00,25.771061, 73.340227,PM10,109,165,136
India,Rajasthan,Pratapgarh,"Pragati Nagar, Pratapgarh - RSPCB",02-04-2024 07:00:00,24.041198,74.780702,NO2,NA,NA,NA
India,Rajasthan,Rajsamand,"Dhoinda, Rajsamand - RSPCB",02-04-2024 07:00:00,25.036360,73.883502,NO2,7,21,14
India,Rajasthan,Rajsamand,"Dhoinda, Rajsamand - RSPCB",02-04-2024 07:00:00,25.036360,73.883502,OZONE,30,79,35
India,Rajasthan,Sawai Madhopur,"Sahu Nagar, Sawai Madhopur - RSPCB",02-04-2024 07:00:00,26.031443,76.359327,PM10,59,120,95
India,Rajasthan,Sikar,"Radhakishan Pura, Sikar - RSPCB",02-04-2024 07:00:00,27.608912,75.153302,PM10,69,404,131
India,Rajasthan,Sikar,"Radhakishan Pura, Sikar - RSPCB",02-04-2024 07:00:00,27.608912,75.153302,NO2,12,92,28
India,Rajasthan,Sikar,"Radhakishan Pura, Sikar - RSPCB",02-04-2024 07:00:00,27.608912,75.153302,NH3,4,8,7
India,Rajasthan,Sirohi,"Vedhaynath Colony, Sirohi - RSPCB",02-04-2024 07:00:00,24.885261,72.857549,NO2,6,39,15
India,Rajasthan,Sirohi,"Vedhaynath Colony, Sirohi - RSPCB",02-04-2024 07:00:00,24.885261,72.857549,OZONE,26,110,55
India,Rajasthan,Sri Ganganagar,"Old City, Sri Ganganagar - RSPCB",02-04-2024 07:00:00,29.931624,73.864511,SO2,5,10,7
India,Rajasthan,Sri Ganganagar,"Old City, Sri Ganganagar - RSPCB",02-04-2024 07:00:00,29.931624,73.864511,CO,40,108,64
India,Rajasthan,Tonk,"Shastri Nagar, Tonk - RSPCB",02-04-2024 07:00:00,26.159933,75.780517,CO,8,30,16
India,Rajasthan,Udaipur,"Ashok Nagar, Udaipur - RSPCB",02-04-2024 07:00:00,24.5886166,73.6321397,NH3,6,7,7
India,TamilNadu,Chennai,"Alandur Bus Depot, Chennai - CPCB",02-04-2024 07:00:00,12.9099161,80.1076538,OZONE,2,8,4
India,TamilNadu,Chennai,"Arumbakkam, Chennai - TNPCB",02-04-2024 07:00:00,13.0664,80.2112 ,PM2.5,8,30,16
India,TamilNadu,Chennai,"Arumbakkam, Chennai - TNPCB",02-04-2024 07:00:00,13.0664,80.2112 ,SO2,1,8,4
India,TamilNadu,Chennai,"Kodungaiyur, Chennai - TNPCB",02-04-2024 07:00:00,13.1278,80.2642,NO2,5,17,10
India,TamilNadu,Chennai,"Kodungaiyur, Chennai - TNPCB",02-04-2024 07:00:00,13.1278,80.2642,SO2,1,9,4
India,TamilNadu,Chennai,"Kodungaiyur, Chennai - TNPCB",02-04-2024 07:00:00,13.1278,80.2642,OZONE,5,7,6
India,TamilNadu,Chennai,"Perungudi, Chennai - TNPCB",02-04-2024 07:00:00,12.9533,80.2357,PM2.5,11,43,22
India,TamilNadu,Chennai,"Perungudi, Chennai - TNPCB",02-04-2024 07:00:00,12.9533,80.2357,NH3,2,3,2
India,TamilNadu,Chennai,"Perungudi, Chennai - TNPCB",02-04-2024 07:00:00,12.9533,80.2357,SO2,1,7,4
India,TamilNadu,Chennai,"Royapuram, Chennai - TNPCB",02-04-2024 07:00:00,13.1036,80.2909,NO2,8,23,13
India,TamilNadu,Cuddalore,"Semmandalam, Cuddalore - TNPCB",02-04-2024 07:00:00,11.7637683,79.7499835,PM10,3,50,13
India,TamilNadu,Gummidipoondi,"Anthoni Pillai Nagar, Gummidipoondi - TNPCB",02-04-2024 07:00:00,13.4127,80.1081,PM10,39,127,71
India,TamilNadu,Gummidipoondi,"Anthoni Pillai Nagar, Gummidipoondi - TNPCB",02-04-2024 07:00:00,13.4127,80.1081,NH3,2,2,2
India,TamilNadu,Palkalaiperur,"Bharathidasan University, Palkalaiperur - TNPCB",02-04-2024 07:00:00,10.681158,78.741746,SO2,27,29,28
India,TamilNadu,Palkalaiperur,"Bharathidasan University, Palkalaiperur - TNPCB",02-04-2024 07:00:00,10.681158,78.741746,CO,1,8,3
India,TamilNadu,Ramanathapuram,"Chalai Bazaar, Ramanathapuram - TNPCB",02-04-2024 07:00:00,9.36399,78.831977,NH3,1,1,1
India,TamilNadu,Thoothukudi,"Meelavittan, Thoothukudi - TNPCB",02-04-2024 07:00:00,8.816428 ,78.099039,PM10,41,142,67
India,TamilNadu,Virudhunagar,"Collectorate Office, Virudhunagar - TNPCB",02-04-2024 07:00:00,9.559382,77.948828,NO2,3,16,8
India,TamilNadu,Virudhunagar,"Collectorate Office, Virudhunagar - TNPCB",02-04-2024 07:00:00,9.559382,77.948828,SO2,3,9,7
India,Telangana,Hyderabad,"Bollaram Industrial Area, Hyderabad - TSPCB",02-04-2024 07:00:00,17.540891,78.358528,NH3,3,13,5
India,Telangana,Hyderabad,"ECIL Kapra, Hyderabad - TSPCB",02-04-2024 07:00:00,17.470431,78.566959,PM10,58,90,70
India,Telangana,Hyderabad,"ICRISAT Patancheru, Hyderabad - TSPCB",02-04-2024 07:00:00,17.518400,78.278777,PM10,NA,NA,NA
India,Telangana,Hyderabad,"ICRISAT Patancheru, Hyderabad - TSPCB",02-04-2024 07:00:00,17.518400,78.278777,SO2,NA,NA,NA
India,Telangana,Hyderabad,"IITH Kandi, Hyderabad - TSPCB",02-04-2024 07:00:00,17.585705,78.126199,PM10,NA,NA,NA
India,Telangana,Hyderabad,"IITH Kandi, Hyderabad - TSPCB",02-04-2024 07:00:00,17.585705,78.126199,CO,NA,NA,NA
India,Telangana,Hyderabad,"Kompally Municipal Office, Hyderabad - TSPCB",02-04-2024 07:00:00,17.544899,78.486949,NH3,5,6,5
India,Telangana,Hyderabad,"Nacharam_TSIIC IALA, Hyderabad - TSPCB",02-04-2024 07:00:00,17.429398,78.569354,CO,12,52,39
India,Telangana,Hyderabad,"New Malakpet, Hyderabad - TSPCB",02-04-2024 07:00:00,17.37206,78.50864,SO2,1,24,6
India,Telangana,Hyderabad,"Ramachandrapuram, Hyderabad - TSPCB",02-04-2024 07:00:00,17.528544,78.286195,NH3,2,3,2
India,Telangana,Hyderabad,"Ramachandrapuram, Hyderabad - TSPCB",02-04-2024 07:00:00,17.528544,78.286195,SO2,6,31,14
India,Telangana,Hyderabad,"Sanathnagar, Hyderabad - TSPCB",02-04-2024 07:00:00,17.4559458,78.4332152,PM2.5,42,83,71
India,Telangana,Hyderabad,"Sanathnagar, Hyderabad - TSPCB",02-04-2024 07:00:00,17.4559458,78.4332152,NO2,27,32,29
India,Telangana,Hyderabad,"Sanathnagar, Hyderabad - TSPCB",02-04-2024 07:00:00,17.4559458,78.4332152,SO2,4,9,6
India,Telangana,Hyderabad,"Sanathnagar, Hyderabad - TSPCB",02-04-2024 07:00:00,17.4559458,78.4332152,OZONE,14,18,16
India,Telangana,Hyderabad,"Zoo Park, Hyderabad - TSPCB",02-04-2024 07:00:00,17.349694,78.451437,PM2.5,32,110,65
India,Telangana,Hyderabad,"Zoo Park, Hyderabad - TSPCB",02-04-2024 07:00:00,17.349694,78.451437,NH3,1,2,1
India,Tripura,Agartala,"Bardowali, Agartala - Tripura SPCB",02-04-2024 07:00:00,23.8175497,91.2726974,PM2.5,55,102,74
India,Tripura,Agartala,"Bardowali, Agartala - Tripura SPCB",02-04-2024 07:00:00,23.8175497,91.2726974,NH3,1,5,3
India,Uttar_Pradesh,Agra,"Manoharpur, Agra - UPPCB",02-04-2024 07:00:00,27.23711,78.01936,SO2,7,11,9
India,Uttar_Pradesh,Agra,"Manoharpur, Agra - UPPCB",02-04-2024 07:00:00,27.23711,78.01936,CO,6,16,12
India,Uttar_Pradesh,Agra,"Rohta, Agra - UPPCB",02-04-2024 07:00:00,27.106972,78.000111,NH3,NA,NA,NA
India,Uttar_Pradesh,Agra,"Shastripuram, Agra - UPPCB",02-04-2024 07:00:00,27.19862,77.92066,PM2.5,4,82,47
India,Uttar_Pradesh,Agra,"Shastripuram, Agra - UPPCB",02-04-2024 07:00:00,27.19862,77.92066,NH3,NA,NA,NA
India,Uttar_Pradesh,Baghpat,"Sardar Patel Inter College, Baghpat - UPPCB",02-04-2024 07:00:00,28.964949,77.278761,PM10,73,139,105
India,Uttar_Pradesh,Baghpat,"Sardar Patel Inter College, Baghpat - UPPCB",02-04-2024 07:00:00,28.964949,77.278761,CO,16,58,49
India,Uttar_Pradesh,Bareilly,"Civil Lines, Bareilly - UPPCB",02-04-2024 07:00:00,28.359581,79.414455,PM10,31,90,57
India,Uttar_Pradesh,Bareilly,"Rajendra Nagar, Bareilly - UPPCB",02-04-2024 07:00:00,28.38910936,79.42963708,NH3,1,4,1
India,Uttar_Pradesh,Bareilly,"Rajendra Nagar, Bareilly - UPPCB",02-04-2024 07:00:00,28.38910936,79.42963708,SO2,43,46,43
India,Uttar_Pradesh,Bulandshahr,"Yamunapuram, Bulandshahr - UPPCB",02-04-2024 07:00:00,28.406963,77.849831,CO,18,41,34
India,Uttar_Pradesh,Firozabad,"Nagla Bhau, Firozabad - UPPCB",02-04-2024 07:00:00,27.168897,78.376960,PM2.5,18,90,32
India,Uttar_Pradesh,Firozabad,"Nagla Bhau, Firozabad - UPPCB",02-04-2024 07:00:00,27.168897,78.376960,OZONE,16,18,16
India,Uttar_Pradesh,Firozabad,"Vibhab Nagar, Firozabad - UPPCB",02-04-2024 07:00:00,27.1594,78.3953,SO2,13,26,19
India,Uttar_Pradesh,Ghaziabad,"Indirapuram, Ghaziabad - UPPCB",02-04-2024 07:00:00,28.646233,77.358075,NO2,33,76,56
India,Uttar_Pradesh,Ghaziabad,"Loni, Ghaziabad - UPPCB",02-04-2024 07:00:00,28.757294,77.278792,PM2.5,20,123,56
India,Uttar_Pradesh,Ghaziabad,"Loni, Ghaziabad - UPPCB",02-04-2024 07:00:00,28.757294,77.278792,CO,6,56,40
India,Uttar_Pradesh,Ghaziabad,"Sanjay Nagar, Ghaziabad - UPPCB",02-04-2024 07:00:00,28.685382,77.453839,PM10,92,160,123
India,Uttar_Pradesh,Ghaziabad,"Sanjay Nagar, Ghaziabad - UPPCB",02-04-2024 07:00:00,28.685382,77.453839,NO2,24,79,45
India,Uttar_Pradesh,Ghaziabad,"Vasundhara, Ghaziabad - UPPCB",02-04-2024 07:00:00,28.6603346,77.3572563,PM2.5,15,101,54
India,Uttar_Pradesh,Gorakhpur,"Madan Mohan Malaviya University of Technology, Gorakhpur - UPPCB",02-04-2024 07:00:00,26.730136,83.433859,NH3,1,2,1
India,Uttar_Pradesh,Hapur,"Anand Vihar, Hapur - UPPCB",02-04-2024 07:00:00,28.725645,77.749675,NO2,13,405,63
India,Uttar_Pradesh,Hapur,"Anand Vihar, Hapur - UPPCB",02-04-2024 07:00:00,28.725645,77.749675,NH3,7,24,11
India,Uttar_Pradesh,Jhansi,"Shivaji Nagar, Jhansi - UPPCB",02-04-2024 07:00:00,25.4547,78.6039,PM10,2,40,24
India,Uttar_Pradesh,Jhansi,"Shivaji Nagar, Jhansi - UPPCB",02-04-2024 07:00:00,25.4547,78.6039,NH3,6,6,6
India,Uttar_Pradesh,Kanpur,"NSI Kalyanpur, Kanpur - UPPCB",02-04-2024 07:00:00,26.509954,80.249612,PM10,32,154,118
India,Uttar_Pradesh,Kanpur,"NSI Kalyanpur, Kanpur - UPPCB",02-04-2024 07:00:00,26.509954,80.249612,OZONE,16,50,36
India,Uttar_Pradesh,Kanpur,"Nehru Nagar, Kanpur - UPPCB",02-04-2024 07:00:00,26.4703136,80.3229863,PM10,25,62,38
India,Uttar_Pradesh,Kanpur,"Nehru Nagar, Kanpur - UPPCB",02-04-2024 07:00:00,26.4703136,80.3229863,SO2,7,11,9
India,Uttar_Pradesh,Kanpur,"Nehru Nagar, Kanpur - UPPCB",02-04-2024 07:00:00,26.4703136,80.3229863,CO,48,78,61
India,Uttar_Pradesh,Kanpur,"Nehru Nagar, Kanpur - UPPCB",02-04-2024 07:00:00,26.4703136,80.3229863,OZONE,90,235,220
India,Uttar_Pradesh,Khurja,"Kalindi Kunj, Khurja - UPPCB",02-04-2024 07:00:00,28.2348927,77.8683002,CO,24,38,35
India,Uttar_Pradesh,Lucknow,"B R Ambedkar University, Lucknow - UPPCB",02-04-2024 07:00:00,26.766433,80.927299,NO2,11,12,11
India,Uttar_Pradesh,Lucknow,"Gomti Nagar, Lucknow - UPPCB",02-04-2024 07:00:00,26.868120,81.005119,NO2,8,14,12
India,Uttar_Pradesh,Lucknow,"Gomti Nagar, Lucknow - UPPCB",02-04-2024 07:00:00,26.868120,81.005119,SO2,NA,NA,NA
India,Uttar_Pradesh,Lucknow,"Lalbagh, Lucknow - CPCB",02-04-2024 07:00:00,26.8458805,80.9365541,PM10,95,260,145
India,Uttar_Pradesh,Lucknow,"Lalbagh, Lucknow - CPCB",02-04-2024 07:00:00,26.8458805,80.9365541,OZONE,37,65,47
India,Uttar_Pradesh,Meerut,"Ganga Nagar, Meerut - UPPCB",02-04-2024 07:00:00,28.999264,77.7590354,NH3,5,8,6
India,Uttar_Pradesh,Meerut,"Jai Bhim Nagar, Meerut - UPPCB",02-04-2024 07:00:00,28.9535882,77.7622941,NO2,9,36,22
India,Uttar_Pradesh,Meerut,"Jai Bhim Nagar, Meerut - UPPCB",02-04-2024 07:00:00,28.9535882,77.7622941,CO,41,79,54
India,Uttar_Pradesh,Meerut,"Pallavpuram Phase 2, Meerut - UPPCB",02-04-2024 07:00:00,29.063510,77.709723,NH3,6,12,9
India,Uttar_Pradesh,Moradabad,"Buddhi Vihar, Moradabad - UPPCB",02-04-2024 07:00:00,28.83526,78.74460,NH3,2,2,2
India,Uttar_Pradesh,Moradabad,"Employment Office, Moradabad - UPPCB",02-04-2024 07:00:00,28.88528,78.73880,NO2,17,19,19
India,Uttar_Pradesh,Moradabad,"Employment Office, Moradabad - UPPCB",02-04-2024 07:00:00,28.88528,78.73880,NH3,3,4,4
India,Uttar_Pradesh,Moradabad,"Employment Office, Moradabad - UPPCB",02-04-2024 07:00:00,28.88528,78.73880,CO,3,16,12
India,Uttar_Pradesh,Moradabad,"Jigar Colony, Moradabad - UPPCB",02-04-2024 07:00:00,28.856664,78.772638,OZONE,19,46,22
India,Uttar_Pradesh,Moradabad,"Kashiram Nagar, Moradabad - UPPCB",02-04-2024 07:00:00,28.849399,78.742362,PM2.5,32,441,76
India,Uttar_Pradesh,Moradabad,"Transport Nagar, Moradabad - UPPCB",02-04-2024 07:00:00,28.802625,78.753728,PM2.5,14,50,35
India,Uttar_Pradesh,Moradabad,"Transport Nagar, Moradabad - UPPCB",02-04-2024 07:00:00,28.802625,78.753728,CO,39,42,40
India,Uttar_Pradesh,Muzaffarnagar,"New Mandi, Muzaffarnagar - UPPCB",02-04-2024 07:00:00,29.4723508,77.7194031,NO2,17,39,25
India,Uttar_Pradesh,Muzaffarnagar,"New Mandi, Muzaffarnagar - UPPCB",02-04-2024 07:00:00,29.4723508,77.7194031,NH3,9,11,10
India,Uttar_Pradesh,Muzaffarnagar,"New Mandi, Muzaffarnagar - UPPCB",02-04-2024 07:00:00,29.4723508,77.7194031,CO,24,50,36
India,Uttar_Pradesh,Noida,"Sector - 125, Noida - UPPCB",02-04-2024 07:00:00,28.5447608,77.3231257,PM2.5,21,117,43
India,Uttar_Pradesh,Noida,"Sector - 125, Noida - UPPCB",02-04-2024 07:00:00,28.5447608,77.3231257,PM10,61,145,87
India,Uttar_Pradesh,Noida,"Sector - 125, Noida - UPPCB",02-04-2024 07:00:00,28.5447608,77.3231257,OZONE,3,98,38
India,Uttar_Pradesh,Noida,"Sector - 62, Noida - IMD",02-04-2024 07:00:00,28.6245479,77.3577104,NO2,15,29,21
India,Uttar_Pradesh,Noida,"Sector-1, Noida - UPPCB",02-04-2024 07:00:00,28.5898,77.3101,NH3,2,5,3
India,Uttar_Pradesh,Noida,"Sector-1, Noida - UPPCB",02-04-2024 07:00:00,28.5898,77.3101,SO2,8,36,13
India,Uttar_Pradesh,Noida,"Sector-116, Noida - UPPCB",02-04-2024 07:00:00,28.569230,77.393848,PM10,79,169,111
India,Uttar_Pradesh,Noida,"Sector-116, Noida - UPPCB",02-04-2024 07:00:00,28.569230,77.393848,NO2,15,55,31
India,Uttar_Pradesh,Noida,"Sector-116, Noida - UPPCB",02-04-2024 07:00:00,28.569230,77.393848,CO,40,101,70
India,Uttar_Pradesh,Noida,"Sector-116, Noida - UPPCB",02-04-2024 07:00:00,28.569230,77.393848,OZONE,2,36,9
India,Uttar_Pradesh,Prayagraj,"Jhunsi, Prayagraj - UPPCB",02-04-2024 07:00:00,25.425602,81.917152,NH3,5,5,5
India,Uttar_Pradesh,Prayagraj,"Nagar Nigam, Prayagraj - UPPCB",02-04-2024 07:00:00,25.44919916 ,81.82735986 ,NO2,5,5,5
India,Uttar_Pradesh,Prayagraj,"Nagar Nigam, Prayagraj - UPPCB",02-04-2024 07:00:00,25.44919916 ,81.82735986 ,OZONE,11,12,11
India,Uttar_Pradesh,Varanasi,"Ardhali Bazar, Varanasi - UPPCB",02-04-2024 07:00:00,25.3505986,82.9083074,PM2.5,6,24,15
India,Uttar_Pradesh,Varanasi,"Bhelupur, Varanasi - UPPCB",02-04-2024 07:00:00,25.301778,82.996789,SO2,26,27,26
India,Uttar_Pradesh,Varanasi,"Maldahiya, Varanasi - UPPCB",02-04-2024 07:00:00,25.32393,82.99687,PM2.5,22,45,29
India,Uttar_Pradesh,Varanasi,"Maldahiya, Varanasi - UPPCB",02-04-2024 07:00:00,25.32393,82.99687,NH3,1,1,1
India,Uttar_Pradesh,Vrindavan,"Omex Eternity, Vrindavan - UPPCB",02-04-2024 07:00:00,27.5714090,77.6557570,SO2,39,42,40
India,Uttar_Pradesh,Vrindavan,"Omex Eternity, Vrindavan - UPPCB",02-04-2024 07:00:00,27.5714090,77.6557570,OZONE,29,34,32
India,Uttarakhand,Kashipur,"Govt. Girls Inter College, Kashipur - UKPCB",02-04-2024 07:00:00,29.2124114,78.9611753,SO2,3,9,8
India,Uttarakhand,Rishikesh,"Shivaji Nagar, Rishikesh - UKPCB",02-04-2024 07:00:00,30.075911,78.2859547,NO2,6,38,15
India,West_Bengal,Asansol,"Asansol Court Area, Asansol - WBPCB",02-04-2024 07:00:00,23.685297,86.945968,PM10,105,156,129
India,West_Bengal,Barrackpore,"SVSPA Campus, Barrackpore - WBPCB",02-04-2024 07:00:00,22.7605581,88.3617589,SO2,5,15,9
India,West_Bengal,Haldia,"Priyambada Housing Estate, Haldia - WBPCB",02-04-2024 07:00:00,22.06047,88.109737,NO2,10,40,19
India,West_Bengal,Haldia,"Priyambada Housing Estate, Haldia - WBPCB",02-04-2024 07:00:00,22.06047,88.109737,NH3,3,4,3
India,West_Bengal,Haldia,"Priyambada Housing Estate, Haldia - WBPCB",02-04-2024 07:00:00,22.06047,88.109737,SO2,8,26,16
India,West_Bengal,Haldia,"Priyambada Housing Estate, Haldia - WBPCB",02-04-2024 07:00:00,22.06047,88.109737,OZONE,18,137,20
India,West_Bengal,Howrah,"Belur Math, Howrah - WBPCB",02-04-2024 07:00:00,22.629801,88.352017,PM10,71,136,103
India,West_Bengal,Howrah,"Belur Math, Howrah - WBPCB",02-04-2024 07:00:00,22.629801,88.352017,NO2,10,40,20
India,West_Bengal,Howrah,"Belur Math, Howrah - WBPCB",02-04-2024 07:00:00,22.629801,88.352017,NH3,2,4,3
India,West_Bengal,Howrah,"Ghusuri, Howrah - WBPCB",02-04-2024 07:00:00,22.611968,88.347422,OZONE,17,29,19
India,West_Bengal,Howrah,"Padmapukur, Howrah - WBPCB",02-04-2024 07:00:00,22.5687319,88.2797276,OZONE,5,83,9
India,West_Bengal,Kolkata,"Ballygunge, Kolkata - WBPCB",02-04-2024 07:00:00,22.5367507,88.3638022,PM2.5,48,119,81
India,West_Bengal,Kolkata,"Fort William, Kolkata - WBPCB",02-04-2024 07:00:00,22.556640,88.342674,PM2.5,75,170,119
India,West_Bengal,Kolkata,"Fort William, Kolkata - WBPCB",02-04-2024 07:00:00,22.556640,88.342674,SO2,9,34,18
India,West_Bengal,Kolkata,"Fort William, Kolkata - WBPCB",02-04-2024 07:00:00,22.556640,88.342674,CO,16,54,22
India,West_Bengal,Kolkata,"Jadavpur, Kolkata - WBPCB",02-04-2024 07:00:00,22.49929,88.36917,NH3,2,2,2
India,West_Bengal,Kolkata,"Jadavpur, Kolkata - WBPCB",02-04-2024 07:00:00,22.49929,88.36917,SO2,4,35,15
India,West_Bengal,Kolkata,"Rabindra Bharati University, Kolkata - WBPCB",02-04-2024 07:00:00,22.627847,88.380669,SO2,10,41,24
India,West_Bengal,Kolkata,"Rabindra Bharati University, Kolkata - WBPCB",02-04-2024 07:00:00,22.627847,88.380669,CO,28,60,38
India,West_Bengal,Kolkata,"Victoria, Kolkata - WBPCB",02-04-2024 07:00:00,22.5448082,88.3403691,PM2.5,40,99,70
India,West_Bengal,Kolkata,"Victoria, Kolkata - WBPCB",02-04-2024 07:00:00,22.5448082,88.3403691,CO,30,81,36
India,West_Bengal,Siliguri,"Ward-32 Bapupara, Siliguri - WBPCB",02-04-2024 07:00:00,26.6879226,88.4152495,PM10,66,186,98
India,Andhra_Pradesh,Anantapur,"Gulzarpet, Anantapur - APPCB",02-04-2024 07:00:00,14.675886,77.593027,PM2.5,18,62,40
India,Andhra_Pradesh,Kadapa,"Yerramukkapalli, Kadapa - APPCB",02-04-2024 07:00:00,14.465052,78.824187,OZONE,13,82,31
India,Andhra_Pradesh,Tirupati,"Tirumala, Tirupati - APPCB",02-04-2024 07:00:00,13.67,79.35,NH3,1,2,1
India,Andhra_Pradesh,Vijayawada,"HB Colony, Vijayawada - APPCB",02-04-2024 07:00:00,16.536107,80.594233,NH3,4,4,4
India,Andhra_Pradesh,Vijayawada,"Rajiv Gandhi Park, Vijayawada - APPCB",02-04-2024 07:00:00,16.509717,80.612222,NH3,5,7,6
India,Andhra_Pradesh,Vijayawada,"Rajiv Gandhi Park, Vijayawada - APPCB",02-04-2024 07:00:00,16.509717,80.612222,OZONE,2,57,6
India,Andhra_Pradesh,Vijayawada,"Rajiv Nagar, Vijayawada - APPCB",02-04-2024 07:00:00,16.554731,80.649110,CO,37,37,37
India,Andhra_Pradesh,Visakhapatnam,"GVM Corporation, Visakhapatnam - APPCB",02-04-2024 07:00:00,17.72,83.3,PM2.5,32,84,49
India,Andhra_Pradesh,Visakhapatnam,"GVM Corporation, Visakhapatnam - APPCB",02-04-2024 07:00:00,17.72,83.3,NO2,36,49,42
India,Andhra_Pradesh,Visakhapatnam,"GVM Corporation, Visakhapatnam - APPCB",02-04-2024 07:00:00,17.72,83.3,OZONE,8,135,10
India,Assam,Byrnihat,"Central Academy for SFS, Byrnihat - PCBA",02-04-2024 07:00:00,26.071318,91.87488,PM2.5,28,453,260
India,Assam,Guwahati,"IITG, Guwahati - PCBA",02-04-2024 07:00:00,26.2028636,91.70046436,PM10,42,117,70
India,Assam,Guwahati,"IITG, Guwahati - PCBA",02-04-2024 07:00:00,26.2028636,91.70046436,CO,8,20,10
India,Assam,Guwahati,"IITG, Guwahati - PCBA",02-04-2024 07:00:00,26.2028636,91.70046436,OZONE,5,38,10
India,Assam,Guwahati,"LGBI Airport, Guwahati - PCBA",02-04-2024 07:00:00,26.10887,91.589544,OZONE,14,22,16
India,Assam,Guwahati,"Pan Bazaar, Guwahati - PCBA",02-04-2024 07:00:00,26.187500,91.744194,SO2,24,56,38
India,Assam,Guwahati,"Railway Colony, Guwahati - PCBA",02-04-2024 07:00:00,26.181742,91.78063,OZONE,1,40,19
India,Assam,Nagaon,"Christianpatty, Nagaon - PCBA",02-04-2024 07:00:00,26.349082,92.68449,PM2.5,58,93,70
India,Assam,Nalbari,"Bata Chowk, Nalbari - PCBA",02-04-2024 07:00:00,26.446912,91.439057,PM10,36,494,151
India,Assam,Nalbari,"Bata Chowk, Nalbari - PCBA",02-04-2024 07:00:00,26.446912,91.439057,CO,2,116,16
India,Assam,Silchar,"Tarapur, Silchar - PCBA",02-04-2024 07:00:00,24.82827,92.79525,PM2.5,15,37,24
India,Assam,Silchar,"Tarapur, Silchar - PCBA",02-04-2024 07:00:00,24.82827,92.79525,PM10,29,80,50
India,Assam,Sivasagar,"Girls College, Sivasagar - PCBA",02-04-2024 07:00:00,26.987634,94.636574,PM10,34,49,42
India,Assam,Sivasagar,"Girls College, Sivasagar - PCBA",02-04-2024 07:00:00,26.987634,94.636574,SO2,1,5,4
India,Assam,Sivasagar,"Girls College, Sivasagar - PCBA",02-04-2024 07:00:00,26.987634,94.636574,CO,6,10,7
India,Bihar,Araria,"Kharahiya Basti, Araria - BSPCB",02-04-2024 07:00:00,26.146529,87.454184,NO2,5,9,7
India,Bihar,Araria,"Kharahiya Basti, Araria - BSPCB",02-04-2024 07:00:00,26.146529,87.454184,SO2,4,19,15
India,Bihar,Araria,"Kharahiya Basti, Araria - BSPCB",02-04-2024 07:00:00,26.146529,87.454184,CO,8,32,25
India,Bihar,Aurangabad,"Gurdeo Nagar, Aurangabad - BSPCB",02-04-2024 07:00:00,24.75746,84.366208,PM2.5,NA,NA,NA
India,Bihar,Aurangabad,"Gurdeo Nagar, Aurangabad - BSPCB",02-04-2024 07:00:00,24.75746,84.366208,NO2,4,5,5
India,Bihar,Aurangabad,"Gurdeo Nagar, Aurangabad - BSPCB",02-04-2024 07:00:00,24.75746,84.366208,CO,21,76,68
India,Bihar,Bettiah,"Kamalnath Nagar, Bettiah - BSPCB",02-04-2024 07:00:00,26.80365,84.51954,PM2.5,NA,NA,NA
India,Bihar,Bettiah,"Kamalnath Nagar, Bettiah - BSPCB",02-04-2024 07:00:00,26.80365,84.51954,PM10,NA,NA,NA
India,Bihar,Bettiah,"Kamalnath Nagar, Bettiah - BSPCB",02-04-2024 07:00:00,26.80365,84.51954,NH3,NA,NA,NA
India,Bihar,Bettiah,"Kamalnath Nagar, Bettiah - BSPCB",02-04-2024 07:00:00,26.80365,84.51954,CO,NA,NA,NA
India,Bihar,Bhagalpur,"DM Office_Kachari Chowk, Bhagalpur - BSPCB",02-04-2024 07:00:00,25.251013,86.989001,SO2,41,106,50
India,Bihar,Bhagalpur,"DM Office_Kachari Chowk, Bhagalpur - BSPCB",02-04-2024 07:00:00,25.251013,86.989001,OZONE,44,53,47
India,Bihar,Bhagalpur,"Mayaganj, Bhagalpur - BSPCB",02-04-2024 07:00:00,25.265194,87.012947,SO2,11,12,12
India,Bihar,Bhagalpur,"Mayaganj, Bhagalpur - BSPCB",02-04-2024 07:00:00,25.265194,87.012947,CO,8,9,9
India,Bihar,Bihar Sharif,"D M Colony, Bihar Sharif - BSPCB",02-04-2024 07:00:00,25.204762,85.514960,NO2,7,10,9
India,Bihar,Bihar Sharif,"D M Colony, Bihar Sharif - BSPCB",02-04-2024 07:00:00,25.204762,85.514960,NH3,2,2,2
India,Bihar,Buxar,"Charitra Van, Buxar - BSPCB (Formerly known as Central Jail)",02-04-2024 07:00:00,25.567520,83.966379,NH3,NA,NA,NA
India,Bihar,Buxar,"Charitra Van, Buxar - BSPCB (Formerly known as Central Jail)",02-04-2024 07:00:00,25.567520,83.966379,OZONE,30,137,61
India,Bihar,Chhapra,"Darshan Nagar, Chhapra - BSPCB",02-04-2024 07:00:00,25.7808257,84.7446768,PM2.5,92,360,206
India,Bihar,Chhapra,"Darshan Nagar, Chhapra - BSPCB",02-04-2024 07:00:00,25.7808257,84.7446768,NO2,21,30,25
India,Bihar,Chhapra,"Darshan Nagar, Chhapra - BSPCB",02-04-2024 07:00:00,25.7808257,84.7446768,SO2,2,21,7
India,Bihar,Gaya,"Collectorate, Gaya - BSPCB",02-04-2024 07:00:00,24.7955,84.9994,PM2.5,38,76,58
India,Bihar,Katihar,"Mirchaibari, Katihar - BSPCB",02-04-2024 07:00:00,25.560083,87.553265,PM10,100,234,156
India,Bihar,Kishanganj,"SDM Office_Khagra, Kishanganj - BSPCB",02-04-2024 07:00:00,26.0881305,87.93840336,NH3,9,10,10
India,Bihar,Kishanganj,"SDM Office_Khagra, Kishanganj - BSPCB",02-04-2024 07:00:00,26.0881305,87.93840336,OZONE,16,35,17
India,Bihar,Manguraha,"Forest Rest House, Manguraha - BSPCB",02-04-2024 07:00:00,27.308328,84.531742,PM2.5,NA,NA,NA
India,Bihar,Motihari,"Gandak Colony, Motihari - BSPCB",02-04-2024 07:00:00,26.63086,84.90051,PM10,20,118,52
India,Bihar,Munger,"Town Hall, Munger - BSPCB",02-04-2024 07:00:00,25.376776,86.471523,NO2,8,9,9
India,Bihar,Muzaffarpur,"MIT-Daudpur Kothi, Muzaffarpur - BSPCB",02-04-2024 07:00:00,26.1403345,85.3650192,PM2.5,NA,NA,NA
India,Bihar,Muzaffarpur,"MIT-Daudpur Kothi, Muzaffarpur - BSPCB",02-04-2024 07:00:00,26.1403345,85.3650192,NO2,5,10,7
India,Bihar,Muzaffarpur,"MIT-Daudpur Kothi, Muzaffarpur - BSPCB",02-04-2024 07:00:00,26.1403345,85.3650192,NH3,1,3,2
India,Bihar,Muzaffarpur,"MIT-Daudpur Kothi, Muzaffarpur - BSPCB",02-04-2024 07:00:00,26.1403345,85.3650192,SO2,19,33,23
India,Bihar,Patna,"DRM Office Danapur, Patna - BSPCB",02-04-2024 07:00:00,25.586562,85.043586,PM2.5,58,240,124
India,Bihar,Patna,"DRM Office Danapur, Patna - BSPCB",02-04-2024 07:00:00,25.586562,85.043586,NH3,2,3,3
India,Bihar,Patna,"DRM Office Danapur, Patna - BSPCB",02-04-2024 07:00:00,25.586562,85.043586,CO,18,64,30
India,Bihar,Patna,"Govt. High School Shikarpur, Patna - BSPCB",02-04-2024 07:00:00,25.592539,85.227158,NO2,18,21,19
India,Bihar,Patna,"IGSC Planetarium Complex, Patna - BSPCB",02-04-2024 07:00:00,25.610369,85.132568,PM2.5,NA,NA,NA
India,Bihar,Patna,"IGSC Planetarium Complex, Patna - BSPCB",02-04-2024 07:00:00,25.610369,85.132568,NO2,10,10,10
India,Bihar,Patna,"Rajbansi Nagar, Patna - BSPCB",02-04-2024 07:00:00,25.599486,85.113666,NO2,16,43,23
India,Bihar,Patna,"Samanpura, Patna - BSPCB",02-04-2024 07:00:00,25.596727,85.085624,PM2.5,51,210,102
India,Bihar,Patna,"Samanpura, Patna - BSPCB",02-04-2024 07:00:00,25.596727,85.085624,NO2,14,46,33
India,Bihar,Patna,"Samanpura, Patna - BSPCB",02-04-2024 07:00:00,25.596727,85.085624,SO2,6,7,6
India,Bihar,Patna,"Samanpura, Patna - BSPCB",02-04-2024 07:00:00,25.596727,85.085624,OZONE,37,60,58
India,Bihar,Purnia,"Mariam Nagar, Purnia - BSPCB",02-04-2024 07:00:00,25.366336,87.117468,PM2.5,3,75,38
India,Bihar,Purnia,"Mariam Nagar, Purnia - BSPCB",02-04-2024 07:00:00,25.366336,87.117468,NH3,2,2,2
India,Bihar,Purnia,"Mariam Nagar, Purnia - BSPCB",02-04-2024 07:00:00,25.366336,87.117468,SO2,5,10,7
India,Bihar,Rajgir,"Dangi Tola, Rajgir - BSPCB",02-04-2024 07:00:00,25.03280,85.41948,PM2.5,25,55,34
India,Bihar,Rajgir,"Dangi Tola, Rajgir - BSPCB",02-04-2024 07:00:00,25.03280,85.41948,PM10,27,61,38
India,Bihar,Samastipur,"DM Office_Kasipur, Samastipur - BSPCB",02-04-2024 07:00:00,25.859655,85.77944,NO2,NA,NA,NA
India,Bihar,Sasaram,"Dada Peer, Sasaram - BSPCB",02-04-2024 07:00:00,24.952822,84.002396,NO2,7,18,12
India,Bihar,Sasaram,"Dada Peer, Sasaram - BSPCB",02-04-2024 07:00:00,24.952822,84.002396,NH3,2,12,9
India,Bihar,Sasaram,"Dada Peer, Sasaram - BSPCB",02-04-2024 07:00:00,24.952822,84.002396,SO2,NA,NA,NA
India,Chandigarh,Chandigarh,"Sector 22, Chandigarh - CPCC",02-04-2024 07:00:00,30.735567,76.775714,SO2,7,54,16
India,Chandigarh,Chandigarh,"Sector-25, Chandigarh - CPCC",02-04-2024 07:00:00,30.751462,76.762879,PM2.5,92,136,110
India,Chandigarh,Chandigarh,"Sector-53, Chandigarh - CPCC",02-04-2024 07:00:00,30.719859,76.738637,CO,36,64,46
India,Chhattisgarh,Bhilai,"32Bungalows, Bhilai - CECB",02-04-2024 07:00:00,21.194815,81.314770,PM2.5,40,64,52
India,Chhattisgarh,Bhilai,"32Bungalows, Bhilai - CECB",02-04-2024 07:00:00,21.194815,81.314770,NO2,14,36,29
India,Chhattisgarh,Bhilai,"32Bungalows, Bhilai - CECB",02-04-2024 07:00:00,21.194815,81.314770,NH3,6,7,7
India,Chhattisgarh,Bhilai,"Civic Center, Bhilai - Bhilai Steel Plant",02-04-2024 07:00:00,21.185571,81.343175,SO2,8,16,10
India,Chhattisgarh,Bilaspur,"Mangala, Bilaspur - NTPC",02-04-2024 07:00:00,22.08815,82.13737,SO2,13,23,18
India,Chhattisgarh,Chhal,"Nawapara SECL Colony, Chhal - CECB",02-04-2024 07:00:00,22.118125,83.140608,NH3,NA,NA,NA
India,Chhattisgarh,Chhal,"Nawapara SECL Colony, Chhal - CECB",02-04-2024 07:00:00,22.118125,83.140608,SO2,NA,NA,NA
India,Chhattisgarh,Chhal,"Nawapara SECL Colony, Chhal - CECB",02-04-2024 07:00:00,22.118125,83.140608,OZONE,NA,NA,NA
India,Chhattisgarh,Korba,"Rampur, Korba - CECB",02-04-2024 07:00:00,22.368195,82.746431,CO,18,42,37
India,Chhattisgarh,Korba,"Urja Nagar, Korba - CECB",02-04-2024 07:00:00,22.348441,82.549611,PM2.5,21,107,77
India,Chhattisgarh,Korba,"Urja Nagar, Korba - CECB",02-04-2024 07:00:00,22.348441,82.549611,PM10,26,204,82
India,Chhattisgarh,Korba,"Urja Nagar, Korba - CECB",02-04-2024 07:00:00,22.348441,82.549611,SO2,1,25,7
India,Chhattisgarh,Korba,"Urja Nagar, Korba - CECB",02-04-2024 07:00:00,22.348441,82.549611,OZONE,1,70,1
India,Chhattisgarh,Kunjemura,"OP Jindal School, Kunjemura - CECB",02-04-2024 07:00:00,22.126650,83.483212,PM2.5,NA,NA,NA
India,Chhattisgarh,Kunjemura,"OP Jindal School, Kunjemura - CECB",02-04-2024 07:00:00,22.126650,83.483212,CO,63,84,71
India,Chhattisgarh,Milupara,"Govt. Higher Secondary School, Milupara - CECB",02-04-2024 07:00:00,22.1910172,83.5197009,PM10,NA,NA,NA
India,Chhattisgarh,Raipur,"AIIMS, Raipur - CECB",02-04-2024 07:00:00,21.258815,81.578979,CO,28,44,35
India,Chhattisgarh,Raipur,"Bhatagaon New ISBT, Raipur - CECB",02-04-2024 07:00:00,21.219665,81.630094,CO,20,66,49
India,Chhattisgarh,Raipur,"Bhatagaon New ISBT, Raipur - CECB",02-04-2024 07:00:00,21.219665,81.630094,OZONE,NA,NA,NA
India,Chhattisgarh,Raipur,"Krishak Nagar, Raipur - CECB",02-04-2024 07:00:00,21.237755,81.705301,SO2,14,24,18
India,Chhattisgarh,Raipur,"Krishak Nagar, Raipur - CECB",02-04-2024 07:00:00,21.237755,81.705301,OZONE,3,30,5
India,Chhattisgarh,Raipur,"Siltara Phase-II, Raipur - CECB",02-04-2024 07:00:00,21.371751,81.664929,OZONE,3,43,6
India,Delhi,Delhi,"Alipur, Delhi - DPCC",02-04-2024 07:00:00,28.815329,77.153010,NO2,3,53,24
India,Delhi,Delhi,"Ashok Vihar, Delhi - DPCC",02-04-2024 07:00:00,28.695381,77.181665,NO2,8,63,30
India,Delhi,Delhi,"Aya Nagar, Delhi - IMD",02-04-2024 07:00:00,28.4706914,77.1099364,PM2.5,6,315,121
India,Delhi,Delhi,"Bawana, Delhi - DPCC",02-04-2024 07:00:00,28.776200,77.051074,SO2,9,74,24
India,Delhi,Delhi,"Bawana, Delhi - DPCC",02-04-2024 07:00:00,28.776200,77.051074,CO,35,63,53
India,Delhi,Delhi,"Bawana, Delhi - DPCC",02-04-2024 07:00:00,28.776200,77.051074,OZONE,6,118,28
India,Delhi,Delhi,"Burari Crossing, Delhi - IMD",02-04-2024 07:00:00,28.7256504,77.2011573,PM2.5,59,210,112
India,Delhi,Delhi,"CRRI Mathura Road, Delhi - IMD",02-04-2024 07:00:00,28.5512005,77.2735737,PM10,NA,NA,NA
India,Delhi,Delhi,"CRRI Mathura Road, Delhi - IMD",02-04-2024 07:00:00,28.5512005,77.2735737,CO,38,54,50
India,Delhi,Delhi,"Chandni Chowk, Delhi - IITM",02-04-2024 07:00:00,28.656756,77.227234,CO,38,50,50
India,Delhi,Delhi,"DTU, Delhi - CPCB",02-04-2024 07:00:00,28.7500499,77.1112615,NO2,5,13,11
India,Delhi,Delhi,"DTU, Delhi - CPCB",02-04-2024 07:00:00,28.7500499,77.1112615,NH3,10,14,13
India,Delhi,Delhi,"DTU, Delhi - CPCB",02-04-2024 07:00:00,28.7500499,77.1112615,CO,21,46,33
India,Delhi,Delhi,"Dr. Karni Singh Shooting Range, Delhi - DPCC",02-04-2024 07:00:00,28.498571,77.264840,NO2,28,105,60
India,Delhi,Delhi,"Dr. Karni Singh Shooting Range, Delhi - DPCC",02-04-2024 07:00:00,28.498571,77.264840,CO,18,52,35
India,Delhi,Delhi,"IGI Airport (T3), Delhi - IMD",02-04-2024 07:00:00,28.5627763,77.1180053,PM2.5,11,355,101
India,Delhi,Delhi,"IGI Airport (T3), Delhi - IMD",02-04-2024 07:00:00,28.5627763,77.1180053,PM10,47,246,107
India,Delhi,Delhi,"IGI Airport (T3), Delhi - IMD",02-04-2024 07:00:00,28.5627763,77.1180053,NO2,10,57,38
India,Delhi,Delhi,"IGI Airport (T3), Delhi - IMD",02-04-2024 07:00:00,28.5627763,77.1180053,CO,8,55,32
India,Delhi,Delhi,"IHBAS, Dilshad Garden, Delhi - CPCB",02-04-2024 07:00:00,28.6811736,77.3025234,NO2,20,65,42
India,Delhi,Delhi,"IHBAS, Dilshad Garden, Delhi - CPCB",02-04-2024 07:00:00,28.6811736,77.3025234,NH3,9,12,11
India,Delhi,Delhi,"IHBAS, Dilshad Garden, Delhi - CPCB",02-04-2024 07:00:00,28.6811736,77.3025234,OZONE,6,60,9
India,Delhi,Delhi,"ITO, Delhi - CPCB",02-04-2024 07:00:00,28.628624,77.241060,OZONE,13,60,27
India,Delhi,Delhi,"Mandir Marg, Delhi - DPCC",02-04-2024 07:00:00,28.636429,77.201067,NO2,112,120,117
India,Delhi,Delhi,"Mandir Marg, Delhi - DPCC",02-04-2024 07:00:00,28.636429,77.201067,SO2,8,13,11
India,Delhi,Delhi,"Mundka, Delhi - DPCC",02-04-2024 07:00:00,28.684678,77.076574,CO,32,76,51
India,Delhi,Delhi,"NSIT Dwarka, Delhi - CPCB",02-04-2024 07:00:00,28.60909,77.0325413,NO2,50,77,62
India,Delhi,Delhi,"NSIT Dwarka, Delhi - CPCB",02-04-2024 07:00:00,28.60909,77.0325413,CO,28,84,43
India,Delhi,Delhi,"Najafgarh, Delhi - DPCC",02-04-2024 07:00:00,28.570173,76.933762,PM2.5,20,375,125
India,Delhi,Delhi,"Najafgarh, Delhi - DPCC",02-04-2024 07:00:00,28.570173,76.933762,CO,16,79,63
India,Delhi,Delhi,"Narela, Delhi - DPCC",02-04-2024 07:00:00,28.822836,77.101981,PM10,80,318,142
India,Delhi,Delhi,"Narela, Delhi - DPCC",02-04-2024 07:00:00,28.822836,77.101981,NH3,6,9,8
India,Delhi,Delhi,"Narela, Delhi - DPCC",02-04-2024 07:00:00,28.822836,77.101981,CO,44,78,63
India,Delhi,Delhi,"Narela, Delhi - DPCC",02-04-2024 07:00:00,28.822836,77.101981,OZONE,18,122,48
India,Delhi,Delhi,"Nehru Nagar, Delhi - DPCC",02-04-2024 07:00:00,28.567890,77.250515,PM2.5,27,305,93
India,Delhi,Delhi,"North Campus, DU, Delhi - IMD",02-04-2024 07:00:00,28.6573814,77.1585447,NO2,10,36,21
India,Delhi,Delhi,"Patparganj, Delhi - DPCC",02-04-2024 07:00:00,28.623763,77.287209,NO2,19,63,41
India,Delhi,Delhi,"Patparganj, Delhi - DPCC",02-04-2024 07:00:00,28.623763,77.287209,CO,2,42,17
India,Delhi,Delhi,"Patparganj, Delhi - DPCC",02-04-2024 07:00:00,28.623763,77.287209,OZONE,8,80,26
India,Delhi,Delhi,"Punjabi Bagh, Delhi - DPCC",02-04-2024 07:00:00,28.674045,77.131023,PM10,92,197,126
India,Delhi,Delhi,"Pusa, Delhi - DPCC",02-04-2024 07:00:00,28.639652,77.146275,PM2.5,32,305,101
India,Delhi,Delhi,"Pusa, Delhi - DPCC",02-04-2024 07:00:00,28.639652,77.146275,CO,22,77,37
India,Delhi,Delhi,"Pusa, Delhi - DPCC",02-04-2024 07:00:00,28.639652,77.146275,OZONE,11,57,29
India,Delhi,Delhi,"Pusa, Delhi - IMD",02-04-2024 07:00:00,28.636110,77.173332,PM2.5,16,318,138
India,Delhi,Delhi,"R K Puram, Delhi - DPCC",02-04-2024 07:00:00,28.563262,77.186937,NH3,6,12,9
India,Delhi,Delhi,"Rohini, Delhi - DPCC",02-04-2024 07:00:00,28.732528,77.119920,CO,8,45,30
India,Delhi,Delhi,"Sirifort, Delhi - CPCB",02-04-2024 07:00:00,28.5504249,77.2159377,NO2,41,58,49
India,Delhi,Delhi,"Sirifort, Delhi - CPCB",02-04-2024 07:00:00,28.5504249,77.2159377,CO,4,28,20
India,Delhi,Delhi,"Sonia Vihar, Delhi - DPCC",02-04-2024 07:00:00,28.710508,77.249485,NH3,5,8,6
India,Delhi,Delhi,"Sonia Vihar, Delhi - DPCC",02-04-2024 07:00:00,28.710508,77.249485,SO2,10,30,16
India,Delhi,Delhi,"Sri Aurobindo Marg, Delhi - DPCC",02-04-2024 07:00:00,28.531346,77.190156,PM10,99,133,113
India,Delhi,Delhi,"Vivek Vihar, Delhi - DPCC",02-04-2024 07:00:00,28.672342,77.315260,PM2.5,30,244,79
India,Delhi,Delhi,"Vivek Vihar, Delhi - DPCC",02-04-2024 07:00:00,28.672342,77.315260,OZONE,6,87,31
India,Delhi,Delhi,"Wazirpur, Delhi - DPCC",02-04-2024 07:00:00,28.699793,77.165453,PM10,104,198,147
India,Delhi,Delhi,"Wazirpur, Delhi - DPCC",02-04-2024 07:00:00,28.699793,77.165453,NO2,47,115,83
India,Delhi,Delhi,"Wazirpur, Delhi - DPCC",02-04-2024 07:00:00,28.699793,77.165453,OZONE,9,76,28
India,Gujarat,Ahmedabad,"Chandkheda, Ahmedabad - IITM",02-04-2024 07:00:00,23.107969,72.574648,SO2,6,23,10
India,Gujarat,Ahmedabad,"Gyaspur, Ahmedabad - IITM",02-04-2024 07:00:00,22.977134,72.553024,CO,13,53,22
India,Gujarat,Ahmedabad,"Maninagar, Ahmedabad - GPCB",02-04-2024 07:00:00,23.002657,72.591912,PM2.5,57,244,112
India,Gujarat,Ahmedabad,"Maninagar, Ahmedabad - GPCB",02-04-2024 07:00:00,23.002657,72.591912,CO,32,100,64
India,Gujarat,Ahmedabad,"Raikhad, Ahmedabad - IITM",02-04-2024 07:00:00,23.020509,72.579261,NH3,1,6,4
India,Gujarat,Ahmedabad,"Raikhad, Ahmedabad - IITM",02-04-2024 07:00:00,23.020509,72.579261,SO2,5,13,8
India,Gujarat,Ahmedabad,"Rakhial, Ahmedabad - IITM",02-04-2024 07:00:00,23.016834,72.625775,SO2,5,64,12
India,Gujarat,Ahmedabad,"SAC ISRO Satellite, Ahmedabad - IITM",02-04-2024 07:00:00,23.023389,72.515201,PM10,91,110,104
India,Gujarat,Ahmedabad,"SAC ISRO Satellite, Ahmedabad - IITM",02-04-2024 07:00:00,23.023389,72.515201,CO,26,36,34
India,Gujarat,Ahmedabad,"Sardar Vallabhbhai Patel Stadium, Ahmedabad - IITM",02-04-2024 07:00:00,23.043070,72.562968,PM10,103,155,124
India,Gujarat,Ankleshwar,"GIDC, Ankleshwar - GPCB",02-04-2024 07:00:00,21.613267,73.010555,NO2,35,35,35
India,Gujarat,Ankleshwar,"GIDC, Ankleshwar - GPCB",02-04-2024 07:00:00,21.613267,73.010555,OZONE,22,36,26
India,Gujarat,Gandhinagar,"GIFT City, Gandhinagar - IITM",02-04-2024 07:00:00,23.163798,72.677768,NO2,15,222,25
India,Gujarat,Gandhinagar,"GIFT City, Gandhinagar - IITM",02-04-2024 07:00:00,23.163798,72.677768,SO2,9,29,11
India,Gujarat,Gandhinagar,"IIPHG Lekawada, Gandhinagar - IITM",02-04-2024 07:00:00,23.243639,72.68994,PM10,93,135,110
India,Gujarat,Gandhinagar,"IIPHG Lekawada, Gandhinagar - IITM",02-04-2024 07:00:00,23.243639,72.68994,NO2,37,49,41
India,Gujarat,Gandhinagar,"Sector-10, Gandhinagar - GPCB",02-04-2024 07:00:00,23.221714,72.654328,NH3,1,2,1
India,Gujarat,Nandesari,"GIDC, Nandesari - Nandesari Ind. Association",02-04-2024 07:00:00,22.410802,73.097923,PM10,115,417,232
India,Haryana,Ambala,"Patti Mehar, Ambala - HSPCB",02-04-2024 07:00:00,30.379589,76.778328,PM2.5,4,66,35
India,Haryana,Ambala,"Patti Mehar, Ambala - HSPCB",02-04-2024 07:00:00,30.379589,76.778328,NO2,7,21,14
India,Haryana,Bahadurgarh,"Arya Nagar, Bahadurgarh - HSPCB",02-04-2024 07:00:00,28.6701,76.9254,CO,38,60,46
India,Haryana,Ballabgarh,"Nathu Colony, Ballabgarh - HSPCB",02-04-2024 07:00:00,28.3419248,77.319699,SO2,5,24,13
India,Haryana,Charkhi Dadri,"Mini Secretariat, Charkhi Dadri - HSPCB",02-04-2024 07:00:00,28.593883,76.270653,SO2,2,104,21
India,Haryana,Charkhi Dadri,"Mini Secretariat, Charkhi Dadri - HSPCB",02-04-2024 07:00:00,28.593883,76.270653,CO,16,64,43
India,Haryana,Dharuhera,"Municipal Corporation Office, Dharuhera -  HSPCB",02-04-2024 07:00:00,28.206800,76.799700,NO2,46,109,71
India,Haryana,Dharuhera,"Municipal Corporation Office, Dharuhera -  HSPCB",02-04-2024 07:00:00,28.206800,76.799700,CO,70,104,98
India,Haryana,Faridabad,"New Industrial Town, Faridabad - HSPCB",02-04-2024 07:00:00,28.39072,77.30059,NO2,7,15,11
India,Haryana,Faridabad,"Sector 11, Faridabad - HSPCB",02-04-2024 07:00:00,28.376058,77.315741,NH3,6,6,6
India,Haryana,Faridabad,"Sector 11, Faridabad - HSPCB",02-04-2024 07:00:00,28.376058,77.315741,OZONE,4,38,5
India,Haryana,Faridabad,"Sector 30, Faridabad - HSPCB",02-04-2024 07:00:00,28.4417,77.3217,NH3,9,9,9
India,Haryana,Faridabad,"Sector- 16A, Faridabad - HSPCB",02-04-2024 07:00:00,28.4088421,77.3099081,NO2,13,52,32
India,Haryana,Faridabad,"Sector- 16A, Faridabad - HSPCB",02-04-2024 07:00:00,28.4088421,77.3099081,CO,1,80,25
India,Haryana,Faridabad,"Sector- 16A, Faridabad - HSPCB",02-04-2024 07:00:00,28.4088421,77.3099081,OZONE,14,14,14
India,Haryana,Fatehabad,"Huda Sector, Fatehabad - HSPCB",02-04-2024 07:00:00,29.503664,75.467934,PM2.5,19,80,41
India,Haryana,Fatehabad,"Huda Sector, Fatehabad - HSPCB",02-04-2024 07:00:00,29.503664,75.467934,PM10,59,89,69
India,Haryana,Fatehabad,"Huda Sector, Fatehabad - HSPCB",02-04-2024 07:00:00,29.503664,75.467934,SO2,10,11,11
India,Haryana,Gurugram,"Teri Gram, Gurugram - HSPCB",02-04-2024 07:00:00,28.4275,77.1465,NO2,24,52,35
India,Haryana,Gurugram,"Teri Gram, Gurugram - HSPCB",02-04-2024 07:00:00,28.4275,77.1465,SO2,2,4,4
India,Haryana,Hisar,"Urban Estate-II, Hisar - HSPCB",02-04-2024 07:00:00,29.140560,75.744941,SO2,8,81,47
India,Haryana,Hisar,"Urban Estate-II, Hisar - HSPCB",02-04-2024 07:00:00,29.140560,75.744941,CO,40,52,47
India,Haryana,Kaithal,"Rishi Nagar, Kaithal - HSPCB",02-04-2024 07:00:00,29.8006,76.4155,CO,2,48,9
India,Haryana,Karnal,"Sector-12, Karnal - HSPCB",02-04-2024 07:00:00,29.695300,77.002700,PM10,53,90,70
India,Haryana,Karnal,"Sector-12, Karnal - HSPCB",02-04-2024 07:00:00,29.695300,77.002700,NO2,7,12,10
India,Haryana,Karnal,"Sector-12, Karnal - HSPCB",02-04-2024 07:00:00,29.695300,77.002700,SO2,12,13,13
India,Haryana,Kurukshetra,"Sector-7, Kurukshetra - HSPCB",02-04-2024 07:00:00,29.966942,76.875879,NO2,10,10,10
India,Haryana,Kurukshetra,"Sector-7, Kurukshetra - HSPCB",02-04-2024 07:00:00,29.966942,76.875879,NH3,5,5,5
India,Haryana,Kurukshetra,"Sector-7, Kurukshetra - HSPCB",02-04-2024 07:00:00,29.966942,76.875879,SO2,1,82,21
India,Haryana,Manesar,"Sector-2 IMT, Manesar - HSPCB",02-04-2024 07:00:00,28.360699,76.936090,PM2.5,27,82,47
India,Haryana,Manesar,"Sector-2 IMT, Manesar - HSPCB",02-04-2024 07:00:00,28.360699,76.936090,NH3,1,3,2
India,Haryana,Manesar,"Sector-2 IMT, Manesar - HSPCB",02-04-2024 07:00:00,28.360699,76.936090,OZONE,5,45,15
India,Haryana,Narnaul,"Shastri Nagar, Narnaul - HSPCB",02-04-2024 07:00:00,28.060249,76.113115,OZONE,11,64,63
India,Haryana,Palwal,"Shyam Nagar, Palwal - HSPCB",02-04-2024 07:00:00,28.1485564,77.3320667,PM2.5,42,70,53
India,Haryana,Palwal,"Shyam Nagar, Palwal - HSPCB",02-04-2024 07:00:00,28.1485564,77.3320667,OZONE,10,48,23
India,Haryana,Panchkula,"Sector-6, Panchkula - HSPCB ",02-04-2024 07:00:00,30.7057778,76.8531805555555,SO2,11,12,12
India,Haryana,Panipat,"Sector-18, Panipat - HSPCB",02-04-2024 07:00:00,29.497973,76.993331,NH3,2,3,2
India,Haryana,Panipat,"Sector-18, Panipat - HSPCB",02-04-2024 07:00:00,29.497973,76.993331,OZONE,30,30,30
India,Haryana,Rohtak,"MD University, Rohtak - HSPCB",02-04-2024 07:00:00,28.52123,76.37138,SO2,5,8,7
India,Haryana,Sirsa,"F-Block, Sirsa - HSPCB",02-04-2024 07:00:00,29.536400,75.015800,PM2.5,23,55,36
India,Haryana,Sonipat,"Murthal, Sonipat - HSPCB",02-04-2024 07:00:00,29.027200,77.062100,SO2,13,29,20
India,Haryana,Yamuna Nagar,"Gobind Pura, Yamuna Nagar - HSPCB",02-04-2024 07:00:00,30.1480566,77.2893471,NO2,11,29,18
India,Haryana,Yamuna Nagar,"Gobind Pura, Yamuna Nagar - HSPCB",02-04-2024 07:00:00,30.1480566,77.2893471,SO2,4,107,11
India,Haryana,Yamuna Nagar,"Gobind Pura, Yamuna Nagar - HSPCB",02-04-2024 07:00:00,30.1480566,77.2893471,CO,38,50,46
India,Jammu_and_Kashmir,Srinagar,"Rajbagh, Srinagar - JKSPCB",02-04-2024 07:00:00,34.066206,74.819820,OZONE,7,7,7
India,Jharkhand,Dhanbad,"Kalakusuma, Dhanbad - DMC",02-04-2024 07:00:00,23.811548,86.481238,CO,129,133,131
India,Karnataka,Bagalkot,"Vidayagiri, Bagalkot - KSPCB",02-04-2024 07:00:00,16.172806,75.659694,PM10,49,50,50
India,Karnataka,Bagalkot,"Vidayagiri, Bagalkot - KSPCB",02-04-2024 07:00:00,16.172806,75.659694,NH3,1,2,1
India,Karnataka,Bagalkot,"Vidayagiri, Bagalkot - KSPCB",02-04-2024 07:00:00,16.172806,75.659694,SO2,9,9,9
India,Karnataka,Bengaluru,"BTM Layout, Bengaluru - CPCB",02-04-2024 07:00:00,12.9135218,77.5950804,OZONE,22,114,80
India,Karnataka,Bengaluru,"Bapuji Nagar, Bengaluru - KSPCB",02-04-2024 07:00:00,12.951913,77.539784,NO2,8,13,11
India,Karnataka,Bengaluru,"Hebbal, Bengaluru - KSPCB",02-04-2024 07:00:00,13.029152,77.585901,SO2,NA,NA,NA
India,Karnataka,Bengaluru,"Hombegowda Nagar, Bengaluru - KSPCB",02-04-2024 07:00:00,12.938539,77.590100,OZONE,4,5,4
India,Karnataka,Bengaluru,"Jayanagar 5th Block, Bengaluru - KSPCB",02-04-2024 07:00:00,12.920984,77.584908,SO2,NA,NA,NA
India,Karnataka,Bengaluru,"RVCE-Mailasandra, Bengaluru - KSPCB",02-04-2024 07:00:00,12.921418,77.502466,PM10,64,289,102
India,Karnataka,Bengaluru,"Silk Board, Bengaluru - KSPCB",02-04-2024 07:00:00,12.917348,77.622813,NO2,19,48,28
India,Karnataka,Chamarajanagar,"Urban, Chamarajanagar - KSPCB",02-04-2024 07:00:00,11.55358,76.55521,PM10,34,62,43
India,Karnataka,Chikkamagaluru,"Kalyana Nagara, Chikkamagaluru - KSPCB",02-04-2024 07:00:00,13.328028,75.797056,PM10,39,68,46
India,Karnataka,Chikkamagaluru,"Kalyana Nagara, Chikkamagaluru - KSPCB",02-04-2024 07:00:00,13.328028,75.797056,SO2,1,4,2
India,Karnataka,Chikkamagaluru,"Kalyana Nagara, Chikkamagaluru - KSPCB",02-04-2024 07:00:00,13.328028,75.797056,OZONE,10,51,11
India,Karnataka,Dharwad,"Kalabhavan, Dharwad - KSPCB",02-04-2024 07:00:00,15.459706,75.008381,PM2.5,48,70,57
India,Karnataka,Haveri,"Ashwini Nagar, Haveri - KSPCB",02-04-2024 07:00:00,14.791800,75.389600,OZONE,18,20,19
India,Karnataka,Hubballi,"Deshpande Nagar, Hubballi - KSPCB",02-04-2024 07:00:00,15.351773,75.140726,PM2.5,NA,NA,NA
India,Karnataka,Hubballi,"Deshpande Nagar, Hubballi - KSPCB",02-04-2024 07:00:00,15.351773,75.140726,PM10,NA,NA,NA
India,Karnataka,Hubballi,"Deshpande Nagar, Hubballi - KSPCB",02-04-2024 07:00:00,15.351773,75.140726,CO,NA,NA,NA
India,Karnataka,Hubballi,"Lingaraj Nagar, Hubballi - KSPCB",02-04-2024 07:00:00,15.3714823,75.1160168,PM10,NA,NA,NA
India,Karnataka,Kalaburagi,"Mahatma Basaveswar Colony, Kalaburgi - KSPCB",02-04-2024 07:00:00,17.336318,76.847397,PM10,33,93,63
India,Karnataka,Kalaburagi,"Mahatma Basaveswar Colony, Kalaburgi - KSPCB",02-04-2024 07:00:00,17.336318,76.847397,NH3,2,4,3
India,Karnataka,Karwar,"KHB Colony, Karwar - KSPCB",02-04-2024 07:00:00,14.816666,74.141003,SO2,13,19,17
India,Karnataka,Karwar,"KHB Colony, Karwar - KSPCB",02-04-2024 07:00:00,14.816666,74.141003,CO,5,8,8
India,Karnataka,Karwar,"KHB Colony, Karwar - KSPCB",02-04-2024 07:00:00,14.816666,74.141003,OZONE,21,22,22
India,Karnataka,Kolar,"Tamaka Ind. Area, Kolar - KSPCB",02-04-2024 07:00:00,13.1276288,78.1570122,NO2,19,37,25
India,Karnataka,Kolar,"Tamaka Ind. Area, Kolar - KSPCB",02-04-2024 07:00:00,13.1276288,78.1570122,NH3,16,35,25
India,Karnataka,Kolar,"Tamaka Ind. Area, Kolar - KSPCB",02-04-2024 07:00:00,13.1276288,78.1570122,OZONE,13,16,14
India,Karnataka,Koppal,"Diwator Nagar, Koppal - KSPCB",02-04-2024 07:00:00,15.347630,76.181767,PM2.5,21,73,44
India,Karnataka,Mysuru,"Hebbal 1st Stage, Mysuru - KSPCB",02-04-2024 07:00:00,12.21041,76.37376,PM10,31,74,46
India,Karnataka,Mysuru,"Hebbal 1st Stage, Mysuru - KSPCB",02-04-2024 07:00:00,12.21041,76.37376,NO2,7,39,22
