country,state,city,station,last_update,latitude,longitude,pollutant_id,pollutant_min,pollutant_max,pollutant_avg
India,Andhra_Pradesh,Anantapur,"Gulzarpet, Anantapur - APPCB",20-03-2024 20:00:00,14.675886,77.593027,NO2,NA,NA,NA
India,Andhra_Pradesh,Chittoor,"Gangineni Cheruvu, Chittoor - APPCB",20-03-2024 20:00:00,13.204880,79.097889,CO,48,62,58
India,Andhra_Pradesh,Kadapa,"Yerramukkapalli, Kadapa - APPCB",20-03-2024 20:00:00,14.465052,78.824187,NO2,8,8,8
India,Andhra_Pradesh,Rajamahendravaram,"Anand Kala Kshetram, Rajamahendravaram - APPCB",20-03-2024 20:00:00,16.9872867,81.7363176,NO2,11,26,17
India,Andhra_Pradesh,Rajamahendravaram,"Anand Kala Kshetram, Rajamahendravaram - APPCB",20-03-2024 20:00:00,16.9872867,81.7363176,SO2,8,12,11
India,Andhra_Pradesh,Rajamahendravaram,"Anand Kala Kshetram, Rajamahendravaram - APPCB",20-03-2024 20:00:00,16.9872867,81.7363176,CO,18,45,33
India,Andhra_Pradesh,Tirupati,"Vaikuntapuram, Tirupati - APPCB",20-03-2024 20:00:00,13.615387,79.409230,PM10,18,101,59
India,Andhra_Pradesh,Tirupati,"Vaikuntapuram, Tirupati - APPCB",20-03-2024 20:00:00,13.615387,79.409230,CO,9,18,13
India,Andhra_Pradesh,Vijayawada,"HB Colony, Vijayawada - APPCB",20-03-2024 20:00:00,16.536107,80.594233,PM2.5,60,91,76
India,Andhra_Pradesh,Vijayawada,"Kanuru, Vijayawada - APPCB",20-03-2024 20:00:00,16.486692,80.699436,OZONE,28,28,28
India,Andhra_Pradesh,Vijayawada,"Rajiv Gandhi Park, Vijayawada - APPCB",20-03-2024 20:00:00,16.509717,80.612222,NH3,5,7,6
India,Andhra_Pradesh,Vijayawada,"Rajiv Gandhi Park, Vijayawada - APPCB",20-03-2024 20:00:00,16.509717,80.612222,CO,36,54,46
India,Andhra_Pradesh,Visakhapatnam,"GVM Corporation, Visakhapatnam - APPCB",20-03-2024 20:00:00,17.72,83.3,NO2,26,86,45
India,Assam,Byrnihat,"Central Academy for SFS, Byrnihat - PCBA",20-03-2024 20:00:00,26.071318,91.87488,CO,12,41,29
India,Assam,Guwahati,"IITG, Guwahati - PCBA",20-03-2024 20:00:00,26.2028636,91.70046436,NH3,5,5,5
India,Assam,Guwahati,"LGBI Airport, Guwahati - PCBA",20-03-2024 20:00:00,26.10887,91.589544,OZONE,1,20,15
India,Assam,Guwahati,"Pan Bazaar, Guwahati - PCBA",20-03-2024 20:00:00,26.187500,91.744194,PM10,117,278,191
India,Assam,Guwahati,"Pan Bazaar, Guwahati - PCBA",20-03-2024 20:00:00,26.187500,91.744194,CO,54,96,60
India,Assam,Nagaon,"Christianpatty, Nagaon - PCBA",20-03-2024 20:00:00,26.349082,92.68449,NH3,14,27,18
India,Assam,Nagaon,"Christianpatty, Nagaon - PCBA",20-03-2024 20:00:00,26.349082,92.68449,SO2,2,17,9
India,Assam,Nalbari,"Bata Chowk, Nalbari - PCBA",20-03-2024 20:00:00,26.446912,91.439057,NO2,13,40,21
India,Assam,Nalbari,"Bata Chowk, Nalbari - PCBA",20-03-2024 20:00:00,26.446912,91.439057,NH3,1,3,2
India,Bihar,Araria,"Kharahiya Basti, Araria - BSPCB",20-03-2024 20:00:00,26.146529,87.454184,PM10,NA,NA,NA
India,Bihar,Araria,"Kharahiya Basti, Araria - BSPCB",20-03-2024 20:00:00,26.146529,87.454184,CO,15,30,24
India,Bihar,Arrah,"New DM Office, Arrah - BSPCB",20-03-2024 20:00:00,25.5626095,84.663264,PM10,24,143,59
India,Bihar,Bettiah,"Kamalnath Nagar, Bettiah - BSPCB",20-03-2024 20:00:00,26.80365,84.51954,NH3,3,7,3
India,Bihar,Bhagalpur,"DM Office_Kachari Chowk, Bhagalpur - BSPCB",20-03-2024 20:00:00,25.251013,86.989001,PM2.5,NA,NA,NA
India,Bihar,Bhagalpur,"DM Office_Kachari Chowk, Bhagalpur - BSPCB",20-03-2024 20:00:00,25.251013,86.989001,OZONE,41,57,46
India,Bihar,Bhagalpur,"Mayaganj, Bhagalpur - BSPCB",20-03-2024 20:00:00,25.265194,87.012947,NH3,4,8,7
India,Bihar,Bhagalpur,"Mayaganj, Bhagalpur - BSPCB",20-03-2024 20:00:00,25.265194,87.012947,SO2,11,12,12
India,Bihar,Buxar,"Charitra Van, Buxar - BSPCB (Formerly known as Central Jail)",20-03-2024 20:00:00,25.567520,83.966379,NH3,3,3,3
India,Bihar,Buxar,"Charitra Van, Buxar - BSPCB (Formerly known as Central Jail)",20-03-2024 20:00:00,25.567520,83.966379,SO2,15,20,18
India,Bihar,Gaya,"Collectorate, Gaya - BSPCB",20-03-2024 20:00:00,24.7955,84.9994,CO,31,71,49
India,Bihar,Gaya,"SFTI Kusdihra, Gaya - BSPCB",20-03-2024 20:00:00,24.762518,84.982348,NH3,1,6,3
India,Bihar,Hajipur,"Industrial Area, Hajipur - BSPCB",20-03-2024 20:00:00,25.697189,85.245900,CO,33,49,39
India,Bihar,Hajipur,"Industrial Area, Hajipur - BSPCB",20-03-2024 20:00:00,25.697189,85.245900,OZONE,5,74,43
India,Bihar,Katihar,"Mirchaibari, Katihar - BSPCB",20-03-2024 20:00:00,25.560083,87.553265,OZONE,21,27,23
India,Bihar,Kishanganj,"SDM Office_Khagra, Kishanganj - BSPCB",20-03-2024 20:00:00,26.0881305,87.93840336,NH3,12,16,13
India,Bihar,Kishanganj,"SDM Office_Khagra, Kishanganj - BSPCB",20-03-2024 20:00:00,26.0881305,87.93840336,CO,2,14,3
India,Bihar,Manguraha,"Forest Rest House, Manguraha - BSPCB",20-03-2024 20:00:00,27.308328,84.531742,PM2.5,NA,NA,NA
India,Bihar,Motihari,"Gandak Colony, Motihari - BSPCB",20-03-2024 20:00:00,26.63086,84.90051,SO2,12,23,18
India,Bihar,Munger,"Town Hall, Munger - BSPCB",20-03-2024 20:00:00,25.376776,86.471523,NO2,7,9,8
India,Bihar,Munger,"Town Hall, Munger - BSPCB",20-03-2024 20:00:00,25.376776,86.471523,NH3,1,2,2
India,Bihar,Munger,"Town Hall, Munger - BSPCB",20-03-2024 20:00:00,25.376776,86.471523,SO2,3,36,29
India,Bihar,Munger,"Town Hall, Munger - BSPCB",20-03-2024 20:00:00,25.376776,86.471523,CO,2,16,12
India,Bihar,Muzaffarpur,"Buddha Colony, Muzaffarpur - BSPCB",20-03-2024 20:00:00,26.11442,85.39813,PM2.5,41,318,188
India,Bihar,Patna,"Govt. High School Shikarpur, Patna - BSPCB",20-03-2024 20:00:00,25.592539,85.227158,PM10,64,158,114
India,Bihar,Patna,"Govt. High School Shikarpur, Patna - BSPCB",20-03-2024 20:00:00,25.592539,85.227158,NO2,19,22,21
India,Bihar,Patna,"Govt. High School Shikarpur, Patna - BSPCB",20-03-2024 20:00:00,25.592539,85.227158,NH3,5,5,5
India,Bihar,Patna,"IGSC Planetarium Complex, Patna - BSPCB",20-03-2024 20:00:00,25.610369,85.132568,NO2,14,14,14
India,Bihar,Patna,"IGSC Planetarium Complex, Patna - BSPCB",20-03-2024 20:00:00,25.610369,85.132568,CO,12,14,13
India,Bihar,Patna,"Muradpur, Patna - BSPCB",20-03-2024 20:00:00,25.619651,85.147382,PM2.5,6,331,99
India,Bihar,Patna,"Muradpur, Patna - BSPCB",20-03-2024 20:00:00,25.619651,85.147382,NH3,2,5,3
India,Bihar,Patna,"Samanpura, Patna - BSPCB",20-03-2024 20:00:00,25.596727,85.085624,PM2.5,39,188,78
India,Bihar,Patna,"Samanpura, Patna - BSPCB",20-03-2024 20:00:00,25.596727,85.085624,PM10,64,163,108
India,Bihar,Patna,"Samanpura, Patna - BSPCB",20-03-2024 20:00:00,25.596727,85.085624,NH3,10,13,11
India,Bihar,Purnia,"Mariam Nagar, Purnia - BSPCB",20-03-2024 20:00:00,25.366336,87.117468,PM10,NA,NA,NA
India,Bihar,Rajgir,"Dangi Tola, Rajgir - BSPCB",20-03-2024 20:00:00,25.03280,85.41948,PM10,NA,NA,NA
India,Bihar,Rajgir,"Dangi Tola, Rajgir - BSPCB",20-03-2024 20:00:00,25.03280,85.41948,NH3,NA,NA,NA
India,Bihar,Rajgir,"Dangi Tola, Rajgir - BSPCB",20-03-2024 20:00:00,25.03280,85.41948,SO2,NA,NA,NA
India,Bihar,Rajgir,"Dangi Tola, Rajgir - BSPCB",20-03-2024 20:00:00,25.03280,85.41948,OZONE,6,34,20
India,Bihar,Saharsa,"Police Line, Saharsa - BSPCB",20-03-2024 20:00:00,25.892357,86.590325,PM10,NA,NA,NA
India,Bihar,Saharsa,"Police Line, Saharsa - BSPCB",20-03-2024 20:00:00,25.892357,86.590325,SO2,NA,NA,NA
India,Bihar,Samastipur,"DM Office_Kasipur, Samastipur - BSPCB",20-03-2024 20:00:00,25.859655,85.77944,PM2.5,28,183,80
India,Bihar,Siwan,"Chitragupta Nagar, Siwan - BSPCB",20-03-2024 20:00:00,26.2271665,84.3570427,NO2,9,28,16
India,Bihar,Siwan,"Chitragupta Nagar, Siwan - BSPCB",20-03-2024 20:00:00,26.2271665,84.3570427,NH3,1,2,2
India,Bihar,Siwan,"Chitragupta Nagar, Siwan - BSPCB",20-03-2024 20:00:00,26.2271665,84.3570427,OZONE,26,67,43
India,Chandigarh,Chandigarh,"Sector-25, Chandigarh - CPCC",20-03-2024 20:00:00,30.751462,76.762879,PM10,102,145,125
India,Chandigarh,Chandigarh,"Sector-25, Chandigarh - CPCC",20-03-2024 20:00:00,30.751462,76.762879,NO2,7,48,21
India,Chandigarh,Chandigarh,"Sector-25, Chandigarh - CPCC",20-03-2024 20:00:00,30.751462,76.762879,SO2,7,39,13
India,Chandigarh,Chandigarh,"Sector-25, Chandigarh - CPCC",20-03-2024 20:00:00,30.751462,76.762879,OZONE,1,55,43
India,Chandigarh,Chandigarh,"Sector-53, Chandigarh - CPCC",20-03-2024 20:00:00,30.719859,76.738637,PM10,59,203,124
India,Chhattisgarh,Bhilai,"32Bungalows, Bhilai - CECB",20-03-2024 20:00:00,21.194815,81.314770,PM10,17,32,22
India,Chhattisgarh,Bhilai,"32Bungalows, Bhilai - CECB",20-03-2024 20:00:00,21.194815,81.314770,NH3,6,6,6
India,Chhattisgarh,Bhilai,"32Bungalows, Bhilai - CECB",20-03-2024 20:00:00,21.194815,81.314770,SO2,3,6,5
India,Chhattisgarh,Bhilai,"Civic Center, Bhilai - Bhilai Steel Plant",20-03-2024 20:00:00,21.185571,81.343175,PM10,14,66,26
India,Chhattisgarh,Bhilai,"Civic Center, Bhilai - Bhilai Steel Plant",20-03-2024 20:00:00,21.185571,81.343175,CO,26,60,37
India,Chhattisgarh,Bhilai,"Hathkhoj, Bhilai - CECB",20-03-2024 20:00:00,21.224231,81.408350,SO2,10,13,11
India,Chhattisgarh,Bilaspur,"Mangala, Bilaspur - NTPC",20-03-2024 20:00:00,22.08815,82.13737,PM2.5,11,34,19
India,Chhattisgarh,Korba,"Rampur, Korba - CECB",20-03-2024 20:00:00,22.368195,82.746431,OZONE,2,4,4
India,Chhattisgarh,Korba,"Urja Nagar, Korba - CECB",20-03-2024 20:00:00,22.348441,82.549611,SO2,3,31,9
India,Chhattisgarh,Kunjemura,"OP Jindal School, Kunjemura - CECB",20-03-2024 20:00:00,22.126650,83.483212,NH3,2,4,2
India,Chhattisgarh,Kunjemura,"OP Jindal School, Kunjemura - CECB",20-03-2024 20:00:00,22.126650,83.483212,OZONE,12,61,44
India,Chhattisgarh,Raipur,"AIIMS, Raipur - CECB",20-03-2024 20:00:00,21.258815,81.578979,PM2.5,11,27,18
India,Chhattisgarh,Raipur,"AIIMS, Raipur - CECB",20-03-2024 20:00:00,21.258815,81.578979,NO2,40,70,49
India,Chhattisgarh,Raipur,"AIIMS, Raipur - CECB",20-03-2024 20:00:00,21.258815,81.578979,NH3,5,5,5
India,Chhattisgarh,Raipur,"AIIMS, Raipur - CECB",20-03-2024 20:00:00,21.258815,81.578979,CO,22,40,37
India,Chhattisgarh,Raipur,"Bhatagaon New ISBT, Raipur - CECB",20-03-2024 20:00:00,21.219665,81.630094,NH3,3,3,3
India,Chhattisgarh,Raipur,"Bhatagaon New ISBT, Raipur - CECB",20-03-2024 20:00:00,21.219665,81.630094,CO,14,30,26
India,Chhattisgarh,Raipur,"Bhatagaon New ISBT, Raipur - CECB",20-03-2024 20:00:00,21.219665,81.630094,OZONE,3,5,4
India,Chhattisgarh,Raipur,"Krishak Nagar, Raipur - CECB",20-03-2024 20:00:00,21.237755,81.705301,NH3,NA,NA,NA
India,Chhattisgarh,Raipur,"Siltara Phase-II, Raipur - CECB",20-03-2024 20:00:00,21.371751,81.664929,CO,1,33,16
India,Chhattisgarh,Tumidih,"OP Jindal Industrial Park, Tumidih - CECB",20-03-2024 20:00:00,22.06631475,83.33820077,NH3,NA,NA,NA
India,Chhattisgarh,Tumidih,"OP Jindal Industrial Park, Tumidih - CECB",20-03-2024 20:00:00,22.06631475,83.33820077,OZONE,31,60,48
India,Delhi,Delhi,"Aya Nagar, Delhi - IMD",20-03-2024 20:00:00,28.4706914,77.1099364,OZONE,4,41,32
India,Delhi,Delhi,"Bawana, Delhi - DPCC",20-03-2024 20:00:00,28.776200,77.051074,PM2.5,73,455,274
India,Delhi,Delhi,"CRRI Mathura Road, Delhi - IMD",20-03-2024 20:00:00,28.5512005,77.2735737,PM2.5,33,359,209
India,Delhi,Delhi,"Dr. Karni Singh Shooting Range, Delhi - DPCC",20-03-2024 20:00:00,28.498571,77.264840,NO2,30,160,104
India,Delhi,Delhi,"Dr. Karni Singh Shooting Range, Delhi - DPCC",20-03-2024 20:00:00,28.498571,77.264840,SO2,14,91,29
India,Delhi,Delhi,"Dwarka-Sector 8, Delhi - DPCC ",20-03-2024 20:00:00,28.5710274,77.0719006,PM10,110,488,311
India,Delhi,Delhi,"Dwarka-Sector 8, Delhi - DPCC ",20-03-2024 20:00:00,28.5710274,77.0719006,SO2,6,40,17
India,Delhi,Delhi,"Dwarka-Sector 8, Delhi - DPCC ",20-03-2024 20:00:00,28.5710274,77.0719006,CO,20,114,39
India,Delhi,Delhi,"IGI Airport (T3), Delhi - IMD",20-03-2024 20:00:00,28.5627763,77.1180053,NO2,25,71,49
India,Delhi,Delhi,"IGI Airport (T3), Delhi - IMD",20-03-2024 20:00:00,28.5627763,77.1180053,OZONE,6,60,39
India,Delhi,Delhi,"ITO, Delhi - CPCB",20-03-2024 20:00:00,28.628624,77.241060,NH3,3,12,6
India,Delhi,Delhi,"Jahangirpuri, Delhi - DPCC",20-03-2024 20:00:00,28.732820,77.170633,PM2.5,37,421,267
India,Delhi,Delhi,"Jahangirpuri, Delhi - DPCC",20-03-2024 20:00:00,28.732820,77.170633,CO,34,109,55
India,Delhi,Delhi,"Jahangirpuri, Delhi - DPCC",20-03-2024 20:00:00,28.732820,77.170633,OZONE,8,65,50
India,Delhi,Delhi,"Jawaharlal Nehru Stadium, Delhi - DPCC",20-03-2024 20:00:00,28.580280,77.233829,OZONE,1,196,145
India,Delhi,Delhi,"Lodhi Road, Delhi - IITM",20-03-2024 20:00:00,28.588333,77.221667,NO2,82,129,93
India,Delhi,Delhi,"Lodhi Road, Delhi - IITM",20-03-2024 20:00:00,28.588333,77.221667,SO2,21,38,28
India,Delhi,Delhi,"Lodhi Road, Delhi - IMD",20-03-2024 20:00:00,28.5918245,77.2273074,OZONE,9,43,36
India,Delhi,Delhi,"Major Dhyan Chand National Stadium, Delhi - DPCC",20-03-2024 20:00:00,28.611281,77.237738,PM2.5,51,387,203
India,Delhi,Delhi,"Mandir Marg, Delhi - DPCC",20-03-2024 20:00:00,28.636429,77.201067,NO2,118,148,132
India,Delhi,Delhi,"Mandir Marg, Delhi - DPCC",20-03-2024 20:00:00,28.636429,77.201067,OZONE,1,24,17
India,Delhi,Delhi,"Mundka, Delhi - DPCC",20-03-2024 20:00:00,28.684678,77.076574,NH3,3,7,5
India,Delhi,Delhi,"Najafgarh, Delhi - DPCC",20-03-2024 20:00:00,28.570173,76.933762,OZONE,7,168,132
India,Delhi,Delhi,"Narela, Delhi - DPCC",20-03-2024 20:00:00,28.822836,77.101981,NH3,5,8,6
India,Delhi,Delhi,"Narela, Delhi - DPCC",20-03-2024 20:00:00,28.822836,77.101981,SO2,11,83,32
India,Delhi,Delhi,"Narela, Delhi - DPCC",20-03-2024 20:00:00,28.822836,77.101981,OZONE,4,185,135
India,Delhi,Delhi,"Nehru Nagar, Delhi - DPCC",20-03-2024 20:00:00,28.567890,77.250515,PM10,95,421,222
India,Delhi,Delhi,"Nehru Nagar, Delhi - DPCC",20-03-2024 20:00:00,28.567890,77.250515,NO2,10,36,21
India,Delhi,Delhi,"North Campus, DU, Delhi - IMD",20-03-2024 20:00:00,28.6573814,77.1585447,NO2,11,56,32
India,Delhi,Delhi,"Patparganj, Delhi - DPCC",20-03-2024 20:00:00,28.623763,77.287209,NH3,7,13,10
India,Delhi,Delhi,"Punjabi Bagh, Delhi - DPCC",20-03-2024 20:00:00,28.674045,77.131023,PM10,81,349,198
India,Delhi,Delhi,"Punjabi Bagh, Delhi - DPCC",20-03-2024 20:00:00,28.674045,77.131023,OZONE,1,73,34
India,Delhi,Delhi,"Rohini, Delhi - DPCC",20-03-2024 20:00:00,28.732528,77.119920,PM2.5,35,407,242
India,Delhi,Delhi,"Rohini, Delhi - DPCC",20-03-2024 20:00:00,28.732528,77.119920,PM10,78,385,236
India,Delhi,Delhi,"Rohini, Delhi - DPCC",20-03-2024 20:00:00,28.732528,77.119920,NO2,14,83,48
India,Delhi,Delhi,"Rohini, Delhi - DPCC",20-03-2024 20:00:00,28.732528,77.119920,CO,10,105,23
India,Delhi,Delhi,"Shadipur, Delhi - CPCB",20-03-2024 20:00:00,28.6514781,77.1473105,NH3,1,14,10
India,Delhi,Delhi,"Sirifort, Delhi - CPCB",20-03-2024 20:00:00,28.5504249,77.2159377,NO2,11,192,153
India,Delhi,Delhi,"Sirifort, Delhi - CPCB",20-03-2024 20:00:00,28.5504249,77.2159377,NH3,3,9,6
India,Delhi,Delhi,"Sirifort, Delhi - CPCB",20-03-2024 20:00:00,28.5504249,77.2159377,SO2,40,67,47
India,Delhi,Delhi,"Sirifort, Delhi - CPCB",20-03-2024 20:00:00,28.5504249,77.2159377,CO,4,99,18
India,Delhi,Delhi,"Sonia Vihar, Delhi - DPCC",20-03-2024 20:00:00,28.710508,77.249485,NO2,17,86,54
India,Delhi,Delhi,"Sonia Vihar, Delhi - DPCC",20-03-2024 20:00:00,28.710508,77.249485,SO2,9,35,18
India,Delhi,Delhi,"Sonia Vihar, Delhi - DPCC",20-03-2024 20:00:00,28.710508,77.249485,CO,49,100,58
India,Delhi,Delhi,"Sri Aurobindo Marg, Delhi - DPCC",20-03-2024 20:00:00,28.531346,77.190156,SO2,11,47,20
India,Gujarat,Ahmedabad,"Chandkheda, Ahmedabad - IITM",20-03-2024 20:00:00,23.107969,72.574648,PM10,60,202,116
India,Gujarat,Ahmedabad,"Chandkheda, Ahmedabad - IITM",20-03-2024 20:00:00,23.107969,72.574648,OZONE,4,70,49
India,Gujarat,Ahmedabad,"Gyaspur, Ahmedabad - IITM",20-03-2024 20:00:00,22.977134,72.553024,OZONE,8,51,41
India,Gujarat,Ahmedabad,"Maninagar, Ahmedabad - GPCB",20-03-2024 20:00:00,23.002657,72.591912,PM2.5,36,176,80
India,Gujarat,Ahmedabad,"Raikhad, Ahmedabad - IITM",20-03-2024 20:00:00,23.020509,72.579261,PM2.5,43,335,153
India,Gujarat,Ahmedabad,"Raikhad, Ahmedabad - IITM",20-03-2024 20:00:00,23.020509,72.579261,CO,28,160,49
India,Gujarat,Ahmedabad,"SAC ISRO Satellite, Ahmedabad - IITM",20-03-2024 20:00:00,23.023389,72.515201,NO2,17,17,17
India,Gujarat,Ahmedabad,"SAC ISRO Satellite, Ahmedabad - IITM",20-03-2024 20:00:00,23.023389,72.515201,NH3,3,3,3
India,Gujarat,Ahmedabad,"SAC ISRO Satellite, Ahmedabad - IITM",20-03-2024 20:00:00,23.023389,72.515201,SO2,1,10,4
India,Gujarat,Ahmedabad,"SAC ISRO Satellite, Ahmedabad - IITM",20-03-2024 20:00:00,23.023389,72.515201,CO,22,25,24
India,Gujarat,Ahmedabad,"SVPI Airport Hansol, Ahmedabad - IITM",20-03-2024 20:00:00,23.076793,72.627874,PM2.5,26,151,86
India,Gujarat,Ahmedabad,"Sardar Vallabhbhai Patel Stadium, Ahmedabad - IITM",20-03-2024 20:00:00,23.043070,72.562968,PM10,99,195,129
India,Gujarat,Ankleshwar,"GIDC, Ankleshwar - GPCB",20-03-2024 20:00:00,21.613267,73.010555,PM10,49,138,99
India,Gujarat,Ankleshwar,"GIDC, Ankleshwar - GPCB",20-03-2024 20:00:00,21.613267,73.010555,NH3,7,7,7
India,Gujarat,Ankleshwar,"GIDC, Ankleshwar - GPCB",20-03-2024 20:00:00,21.613267,73.010555,SO2,15,111,38
India,Gujarat,Ankleshwar,"GIDC, Ankleshwar - GPCB",20-03-2024 20:00:00,21.613267,73.010555,CO,30,113,50
India,Gujarat,Gandhinagar,"GIFT City, Gandhinagar - IITM",20-03-2024 20:00:00,23.163798,72.677768,NO2,15,16,15
India,Gujarat,Gandhinagar,"GIFT City, Gandhinagar - IITM",20-03-2024 20:00:00,23.163798,72.677768,NH3,4,4,4
India,Gujarat,Gandhinagar,"GIFT City, Gandhinagar - IITM",20-03-2024 20:00:00,23.163798,72.677768,OZONE,6,50,36
India,Gujarat,Gandhinagar,"Sector-10, Gandhinagar - GPCB",20-03-2024 20:00:00,23.221714,72.654328,NH3,1,1,1
India,Gujarat,Surat,"Science Center, Surat - SMC",20-03-2024 20:00:00,21.170046,72.795405,PM10,8,143,49
India,Gujarat,Vapi,"Phase-1 GIDC, Vapi - GPCB",20-03-2024 20:00:00,20.362421,72.918013,NO2,6,6,6
India,Gujarat,Vapi,"Phase-1 GIDC, Vapi - GPCB",20-03-2024 20:00:00,20.362421,72.918013,SO2,46,57,50
India,Gujarat,Vapi,"Phase-1 GIDC, Vapi - GPCB",20-03-2024 20:00:00,20.362421,72.918013,OZONE,1,4,2
India,Gujarat,Vatva,"Phase-4 GIDC, Vatva - GPCB",20-03-2024 20:00:00,22.969611,72.643500,SO2,10,130,44
India,Haryana,Bahadurgarh,"Arya Nagar, Bahadurgarh - HSPCB",20-03-2024 20:00:00,28.6701,76.9254,PM2.5,32,324,174
India,Haryana,Ballabgarh,"Nathu Colony, Ballabgarh - HSPCB",20-03-2024 20:00:00,28.3419248,77.319699,SO2,6,46,22
India,Haryana,Ballabgarh,"Nathu Colony, Ballabgarh - HSPCB",20-03-2024 20:00:00,28.3419248,77.319699,OZONE,1,32,28
India,Haryana,Bhiwani,"H.B. Colony, Bhiwani - HSPCB",20-03-2024 20:00:00,28.806223,76.141105,NH3,6,6,6
India,Haryana,Charkhi Dadri,"Mini Secretariat, Charkhi Dadri - HSPCB",20-03-2024 20:00:00,28.593883,76.270653,PM10,18,143,103
India,Haryana,Charkhi Dadri,"Mini Secretariat, Charkhi Dadri - HSPCB",20-03-2024 20:00:00,28.593883,76.270653,NO2,15,24,18
India,Haryana,Charkhi Dadri,"Mini Secretariat, Charkhi Dadri - HSPCB",20-03-2024 20:00:00,28.593883,76.270653,SO2,32,64,45
India,Haryana,Charkhi Dadri,"Mini Secretariat, Charkhi Dadri - HSPCB",20-03-2024 20:00:00,28.593883,76.270653,CO,30,61,38
India,Haryana,Dharuhera,"Municipal Corporation Office, Dharuhera -  HSPCB",20-03-2024 20:00:00,28.206800,76.799700,PM10,30,439,239
India,Haryana,Dharuhera,"Municipal Corporation Office, Dharuhera -  HSPCB",20-03-2024 20:00:00,28.206800,76.799700,NO2,16,51,38
India,Haryana,Dharuhera,"Municipal Corporation Office, Dharuhera -  HSPCB",20-03-2024 20:00:00,28.206800,76.799700,SO2,18,40,27
India,Haryana,Faridabad,"New Industrial Town, Faridabad - HSPCB",20-03-2024 20:00:00,28.39072,77.30059,PM10,41,366,196
India,Haryana,Faridabad,"New Industrial Town, Faridabad - HSPCB",20-03-2024 20:00:00,28.39072,77.30059,SO2,14,17,15
India,Haryana,Faridabad,"New Industrial Town, Faridabad - HSPCB",20-03-2024 20:00:00,28.39072,77.30059,CO,10,46,18
India,Haryana,Faridabad,"Sector 11, Faridabad - HSPCB",20-03-2024 20:00:00,28.376058,77.315741,PM2.5,175,328,239
India,Haryana,Faridabad,"Sector 11, Faridabad - HSPCB",20-03-2024 20:00:00,28.376058,77.315741,PM10,144,409,225
India,Haryana,Faridabad,"Sector 11, Faridabad - HSPCB",20-03-2024 20:00:00,28.376058,77.315741,NH3,6,6,6
India,Haryana,Faridabad,"Sector- 16A, Faridabad - HSPCB",20-03-2024 20:00:00,28.4088421,77.3099081,NO2,2,17,9
India,Haryana,Faridabad,"Sector- 16A, Faridabad - HSPCB",20-03-2024 20:00:00,28.4088421,77.3099081,OZONE,14,14,14
India,Haryana,Fatehabad,"Huda Sector, Fatehabad - HSPCB",20-03-2024 20:00:00,29.503664,75.467934,NO2,36,38,38
India,Haryana,Fatehabad,"Huda Sector, Fatehabad - HSPCB",20-03-2024 20:00:00,29.503664,75.467934,NH3,12,14,13
India,Haryana,Fatehabad,"Huda Sector, Fatehabad - HSPCB",20-03-2024 20:00:00,29.503664,75.467934,CO,5,8,6
India,Haryana,Fatehabad,"Huda Sector, Fatehabad - HSPCB",20-03-2024 20:00:00,29.503664,75.467934,OZONE,75,102,92
India,Haryana,Gurugram,"Sector-51, Gurugram - HSPCB",20-03-2024 20:00:00,28.4227,77.0667,PM10,107,397,237
India,Haryana,Gurugram,"Teri Gram, Gurugram - HSPCB",20-03-2024 20:00:00,28.4275,77.1465,PM2.5,84,370,225
India,Haryana,Hisar,"Urban Estate-II, Hisar - HSPCB",20-03-2024 20:00:00,29.140560,75.744941,CO,40,64,45
India,Haryana,Jind,"Police Lines, Jind - HSPCB",20-03-2024 20:00:00,29.307814,76.337619,CO,2,110,37
India,Haryana,Jind,"Police Lines, Jind - HSPCB",20-03-2024 20:00:00,29.307814,76.337619,OZONE,15,25,22
India,Haryana,Kaithal,"Rishi Nagar, Kaithal - HSPCB",20-03-2024 20:00:00,29.8006,76.4155,PM10,76,146,112
India,Haryana,Kaithal,"Rishi Nagar, Kaithal - HSPCB",20-03-2024 20:00:00,29.8006,76.4155,CO,2,36,17
India,Haryana,Karnal,"Sector-12, Karnal - HSPCB",20-03-2024 20:00:00,29.695300,77.002700,NH3,10,12,11
India,Haryana,Mandikhera,"General Hospital, Mandikhera - HSPCB",20-03-2024 20:00:00,27.9002,76.9938,PM10,76,122,97
India,Haryana,Mandikhera,"General Hospital, Mandikhera - HSPCB",20-03-2024 20:00:00,27.9002,76.9938,CO,13,36,26
India,Haryana,Manesar,"Sector-2 IMT, Manesar - HSPCB",20-03-2024 20:00:00,28.360699,76.936090,PM2.5,56,171,116
India,Haryana,Manesar,"Sector-2 IMT, Manesar - HSPCB",20-03-2024 20:00:00,28.360699,76.936090,NH3,2,4,3
India,Haryana,Manesar,"Sector-2 IMT, Manesar - HSPCB",20-03-2024 20:00:00,28.360699,76.936090,OZONE,1,56,37
India,Haryana,Narnaul,"Shastri Nagar, Narnaul - HSPCB",20-03-2024 20:00:00,28.060249,76.113115,CO,8,12,8
India,Haryana,Panipat,"Sector-18, Panipat - HSPCB",20-03-2024 20:00:00,29.497973,76.993331,SO2,18,19,19
India,Haryana,Panipat,"Sector-18, Panipat - HSPCB",20-03-2024 20:00:00,29.497973,76.993331,CO,24,26,25
India,Haryana,Rohtak,"MD University, Rohtak - HSPCB",20-03-2024 20:00:00,28.52123,76.37138,SO2,5,9,7
India,Haryana,Rohtak,"MD University, Rohtak - HSPCB",20-03-2024 20:00:00,28.52123,76.37138,CO,NA,NA,NA
India,Haryana,Rohtak,"MD University, Rohtak - HSPCB",20-03-2024 20:00:00,28.52123,76.37138,OZONE,44,56,50
India,Haryana,Sonipat,"Murthal, Sonipat - HSPCB",20-03-2024 20:00:00,29.027200,77.062100,PM10,30,98,76
India,Haryana,Yamuna Nagar,"Gobind Pura, Yamuna Nagar - HSPCB",20-03-2024 20:00:00,30.1480566,77.2893471,PM10,NA,NA,NA
India,Haryana,Yamuna Nagar,"Gobind Pura, Yamuna Nagar - HSPCB",20-03-2024 20:00:00,30.1480566,77.2893471,SO2,1,55,8
India,Himachal Pradesh,Baddi,"HIMUDA Complex Phase-1, Baddi - HPPCB",20-03-2024 20:00:00,30.943887,76.801991,PM2.5,5,200,54
India,Jharkhand,Dhanbad,"Sardar Patel Nagar, Dhanbad - JSPCB",20-03-2024 20:00:00,23.80569,86.44268,SO2,NA,NA,NA
India,Jharkhand,Pathardih,"Mohalbani Ghat, Pathardih - DMC",20-03-2024 20:00:00,23.669880,86.411725,SO2,NA,NA,NA
India,Jharkhand,Pathardih,"Mohalbani Ghat, Pathardih - DMC",20-03-2024 20:00:00,23.669880,86.411725,CO,105,117,54
India,Karnataka,Bagalkot,"Vidayagiri, Bagalkot - KSPCB",20-03-2024 20:00:00,16.172806,75.659694,PM10,45,46,46
India,Karnataka,Bagalkot,"Vidayagiri, Bagalkot - KSPCB",20-03-2024 20:00:00,16.172806,75.659694,SO2,9,10,9
India,Karnataka,Bengaluru,"Hombegowda Nagar, Bengaluru - KSPCB",20-03-2024 20:00:00,12.938539,77.590100,PM2.5,75,152,103
India,Karnataka,Bengaluru,"Jayanagar 5th Block, Bengaluru - KSPCB",20-03-2024 20:00:00,12.920984,77.584908,NO2,8,24,13
India,Karnataka,Bengaluru,"Jigani, Bengaluru - KSPCB",20-03-2024 20:00:00,12.7816279,77.6299145,NH3,4,4,4
India,Karnataka,Bengaluru,"Jigani, Bengaluru - KSPCB",20-03-2024 20:00:00,12.7816279,77.6299145,OZONE,8,94,72
India,Karnataka,Bengaluru,"Kasturi Nagar, Bengaluru - KSPCB",20-03-2024 20:00:00,13.003872,77.664217,SO2,10,10,10
India,Karnataka,Bengaluru,"Kasturi Nagar, Bengaluru - KSPCB",20-03-2024 20:00:00,13.003872,77.664217,OZONE,32,172,126
India,Karnataka,Bengaluru,"Peenya, Bengaluru - CPCB",20-03-2024 20:00:00,13.0270199,77.494094,PM10,59,105,83
India,Karnataka,Bengaluru,"Peenya, Bengaluru - CPCB",20-03-2024 20:00:00,13.0270199,77.494094,SO2,4,9,6
India,Karnataka,Bengaluru,"RVCE-Mailasandra, Bengaluru - KSPCB",20-03-2024 20:00:00,12.921418,77.502466,CO,36,58,53
India,Karnataka,Bengaluru,"RVCE-Mailasandra, Bengaluru - KSPCB",20-03-2024 20:00:00,12.921418,77.502466,OZONE,10,10,10
India,Karnataka,Bengaluru,"Sanegurava Halli, Bengaluru - KSPCB",20-03-2024 20:00:00,12.990328,77.5431385,SO2,2,3,3
India,Karnataka,Bengaluru,"Shivapura_Peenya, Bengaluru - KSPCB",20-03-2024 20:00:00,13.0246342,77.5080115,NH3,4,4,4
India,Karnataka,Bidar,"Naubad, Bidar - KSPCB",20-03-2024 20:00:00,17.930306,77.482194,SO2,15,20,17
India,Karnataka,Chamarajanagar,"Urban, Chamarajanagar - KSPCB",20-03-2024 20:00:00,11.55358,76.55521,PM10,44,63,48
India,Karnataka,Chamarajanagar,"Urban, Chamarajanagar - KSPCB",20-03-2024 20:00:00,11.55358,76.55521,CO,19,120,25
India,Karnataka,Chamarajanagar,"Urban, Chamarajanagar - KSPCB",20-03-2024 20:00:00,11.55358,76.55521,OZONE,25,45,35
India,Karnataka,Chikkaballapur,"Chikkaballapur Rural, Chikkaballapur - KSPCB",20-03-2024 20:00:00,13.428828,77.731418,NH3,1,1,1
India,Karnataka,Chikkaballapur,"Chikkaballapur Rural, Chikkaballapur - KSPCB",20-03-2024 20:00:00,13.428828,77.731418,OZONE,25,26,26
India,Karnataka,Davanagere,"Devaraj Urs Badavane, Davanagere - KSPCB",20-03-2024 20:00:00,14.475800,75.905200,SO2,1,6,5
India,Karnataka,Dharwad,"Kalabhavan, Dharwad - KSPCB",20-03-2024 20:00:00,15.459706,75.008381,PM2.5,38,77,56
India,Karnataka,Gadag,"Panchal Nagar, Gadag - KSPCB",20-03-2024 20:00:00,15.411456,75.638133,PM2.5,22,80,50
India,Karnataka,Hassan,"B.Katihalli, Hassan - KSPCB",20-03-2024 20:00:00,13.008556,76.125258,PM10,45,92,68
India,Karnataka,Hassan,"B.Katihalli, Hassan - KSPCB",20-03-2024 20:00:00,13.008556,76.125258,OZONE,4,34,11
India,Karnataka,Haveri,"Ashwini Nagar, Haveri - KSPCB",20-03-2024 20:00:00,14.791800,75.389600,SO2,NA,NA,NA
India,Karnataka,Haveri,"Ashwini Nagar, Haveri - KSPCB",20-03-2024 20:00:00,14.791800,75.389600,CO,25,37,28
India,Karnataka,Hubballi,"Deshpande Nagar, Hubballi - KSPCB",20-03-2024 20:00:00,15.351773,75.140726,PM10,72,132,101
India,Karnataka,Hubballi,"Deshpande Nagar, Hubballi - KSPCB",20-03-2024 20:00:00,15.351773,75.140726,NO2,26,27,27
India,Karnataka,Hubballi,"Deshpande Nagar, Hubballi - KSPCB",20-03-2024 20:00:00,15.351773,75.140726,CO,69,127,120
India,Karnataka,Hubballi,"Lingaraj Nagar, Hubballi - KSPCB",20-03-2024 20:00:00,15.3714823,75.1160168,NO2,NA,NA,NA
India,Karnataka,Kalaburagi,"Lal Bahadur Shastri Nagar, Kalaburagi - KSPCB",20-03-2024 20:00:00,17.321993,76.822628,PM10,6,112,36
India,Karnataka,Kalaburagi,"Lal Bahadur Shastri Nagar, Kalaburagi - KSPCB",20-03-2024 20:00:00,17.321993,76.822628,NO2,11,12,11
India,Karnataka,Kalaburagi,"Mahatma Basaveswar Colony, Kalaburgi - KSPCB",20-03-2024 20:00:00,17.336318,76.847397,PM10,28,127,65
India,Karnataka,Kalaburagi,"Mahatma Basaveswar Colony, Kalaburgi - KSPCB",20-03-2024 20:00:00,17.336318,76.847397,OZONE,10,24,21
India,Karnataka,Kolar,"Tamaka Ind. Area, Kolar - KSPCB",20-03-2024 20:00:00,13.1276288,78.1570122,PM2.5,33,116,58
India,Karnataka,Kolar,"Tamaka Ind. Area, Kolar - KSPCB",20-03-2024 20:00:00,13.1276288,78.1570122,NO2,20,33,26
India,Karnataka,Kolar,"Tamaka Ind. Area, Kolar - KSPCB",20-03-2024 20:00:00,13.1276288,78.1570122,SO2,9,18,14
India,Karnataka,Koppal,"Diwator Nagar, Koppal - KSPCB",20-03-2024 20:00:00,15.347630,76.181767,PM2.5,26,58,41
India,Karnataka,Koppal,"Diwator Nagar, Koppal - KSPCB",20-03-2024 20:00:00,15.347630,76.181767,NO2,1,23,10
India,Karnataka,Mangalore,"Kadri, Mangalore - KSPCB",20-03-2024 20:00:00,12.889250,74.853000,PM2.5,66,86,72
India,Karnataka,Mangalore,"Kadri, Mangalore - KSPCB",20-03-2024 20:00:00,12.889250,74.853000,SO2,20,23,22
India,Karnataka,Mysuru,"Hebbal 1st Stage, Mysuru - KSPCB",20-03-2024 20:00:00,12.21041,76.37376,OZONE,11,87,74
India,Karnataka,Raichur,"Haji Colony, Raichur - KSPCB",20-03-2024 20:00:00,16.208139,77.348417,CO,103,103,103
India,Karnataka,Ramanagara,"Vijay Nagar, Ramanagara - KSPCB",20-03-2024 20:00:00,12.733409,77.298051,NH3,1,1,1
India,Karnataka,Ramanagara,"Vijay Nagar, Ramanagara - KSPCB",20-03-2024 20:00:00,12.733409,77.298051,SO2,16,34,24
India,Karnataka,Shivamogga,"Vinoba Nagara, Shivamogga - KSPCB",20-03-2024 20:00:00,13.940000,75.555917,PM10,53,75,67
India,Karnataka,Shivamogga,"Vinoba Nagara, Shivamogga - KSPCB",20-03-2024 20:00:00,13.940000,75.555917,CO,20,46,34
India,Karnataka,Tumakuru,"Thimmalapura, Tumakuru - KSPCB",20-03-2024 20:00:00,13.377516,77.099072,PM10,14,37,24
India,Karnataka,Tumakuru,"Thimmalapura, Tumakuru - KSPCB",20-03-2024 20:00:00,13.377516,77.099072,NH3,2,5,3
India,Karnataka,Tumakuru,"Thimmalapura, Tumakuru - KSPCB",20-03-2024 20:00:00,13.377516,77.099072,SO2,9,17,11
India,Karnataka,Tumakuru,"Thimmalapura, Tumakuru - KSPCB",20-03-2024 20:00:00,13.377516,77.099072,OZONE,7,46,35
India,Karnataka,Yadgir,"Collector Office, Yadgir - KSPCB",20-03-2024 20:00:00,16.7602,77.1428,PM10,58,146,86
India,Kerala,Kannur,"Thavakkara, Kannur - Kerala PCB",20-03-2024 20:00:00,11.875000,75.373200,SO2,6,6,6
India,Kerala,Kannur,"Thavakkara, Kannur - Kerala PCB",20-03-2024 20:00:00,11.875000,75.373200,OZONE,31,36,34
India,Kerala,Kollam,"Polayathode, Kollam - Kerala PCB",20-03-2024 20:00:00,8.8787,76.6073,PM10,51,90,69
India,Kerala,Thiruvananthapuram,"Kariavattom, Thiruvananthapuram - Kerala PCB",20-03-2024 20:00:00,8.563700,76.886500,NH3,1,1,1
India,Kerala,Thiruvananthapuram,"Kariavattom, Thiruvananthapuram - Kerala PCB",20-03-2024 20:00:00,8.563700,76.886500,OZONE,27,33,30
India,Kerala,Thiruvananthapuram,"Plammoodu, Thiruvananthapuram - Kerala PCB",20-03-2024 20:00:00,8.5149093,76.9435879,NH3,2,2,2
India,Kerala,Thiruvananthapuram,"Plammoodu, Thiruvananthapuram - Kerala PCB",20-03-2024 20:00:00,8.5149093,76.9435879,SO2,5,13,10
India,Kerala,Thrissur,"Corporation Ground, Thrissur - Kerala PCB",20-03-2024 20:00:00,10.532400,76.215900,PM2.5,43,50,47
India,Kerala,Thrissur,"Corporation Ground, Thrissur - Kerala PCB",20-03-2024 20:00:00,10.532400,76.215900,NO2,6,8,7
India,Kerala,Thrissur,"Corporation Ground, Thrissur - Kerala PCB",20-03-2024 20:00:00,10.532400,76.215900,NH3,NA,NA,NA
India,Kerala,Thrissur,"Corporation Ground, Thrissur - Kerala PCB",20-03-2024 20:00:00,10.532400,76.215900,SO2,1,32,9
India,Kerala,Thrissur,"Corporation Ground, Thrissur - Kerala PCB",20-03-2024 20:00:00,10.532400,76.215900,OZONE,27,31,30
India,Madhya Pradesh,Bhopal,"Idgah Hills, Bhopal - MPPCB",20-03-2024 20:00:00,23.264759,77.381568,SO2,12,20,20
India,Madhya Pradesh,Bhopal,"Paryavaran Parisar, Bhopal - MPPCB",20-03-2024 20:00:00,23.210494,77.425409,PM2.5,18,97,52
India,Madhya Pradesh,Bhopal,"T T Nagar, Bhopal - MPPCB",20-03-2024 20:00:00,23.233584,77.400574,NH3,4,7,6
India,Madhya Pradesh,Bhopal,"T T Nagar, Bhopal - MPPCB",20-03-2024 20:00:00,23.233584,77.400574,OZONE,19,102,81
India,Madhya Pradesh,Dewas,"Bhopal Chauraha, Dewas - MPPCB",20-03-2024 20:00:00,22.9682591,76.064118,PM10,60,298,118
India,Madhya Pradesh,Dewas,"Bhopal Chauraha, Dewas - MPPCB",20-03-2024 20:00:00,22.9682591,76.064118,OZONE,7,81,52
India,Madhya Pradesh,Gwalior,"City Center, Gwalior - MPPCB",20-03-2024 20:00:00,26.203442,78.193251,PM2.5,57,239,122
India,Madhya Pradesh,Gwalior,"Deen Dayal Nagar, Gwalior - MPPCB",20-03-2024 20:00:00,26.259242,78.216432,PM2.5,56,308,152
India,Madhya Pradesh,Indore,"Chhoti Gwaltoli, Indore - MPPCB",20-03-2024 20:00:00,22.4310,75.5213,PM2.5,20,347,168
India,Madhya Pradesh,Indore,"Chhoti Gwaltoli, Indore - MPPCB",20-03-2024 20:00:00,22.4310,75.5213,CO,62,144,80
India,Madhya Pradesh,Indore,"Maguda Nagar, Indore - IMC",20-03-2024 20:00:00,22.7524,75.8872,PM10,NA,NA,NA
India,Madhya Pradesh,Indore,"Maguda Nagar, Indore - IMC",20-03-2024 20:00:00,22.7524,75.8872,NH3,NA,NA,NA
India,Madhya Pradesh,Indore,"Regional Park, Indore - IMC",20-03-2024 20:00:00,22.6780,75.8559,NO2,NA,NA,NA
India,Madhya Pradesh,Indore,"Regional Park, Indore - IMC",20-03-2024 20:00:00,22.6780,75.8559,SO2,42,46,44
India,Madhya Pradesh,Indore,"Residency Area, Indore - IMC",20-03-2024 20:00:00,22.7084,75.8815,NO2,NA,NA,NA
India,Madhya Pradesh,Jabalpur,"Govindh Bhavan Colony, Jabalpur - JMC",20-03-2024 20:00:00,23.163174,79.973061,SO2,8,20,13
India,Madhya Pradesh,Jabalpur,"Gupteshwar, Jabalpur - JMC",20-03-2024 20:00:00,23.142888,79.916147,SO2,1,8,4
India,Madhya Pradesh,Jabalpur,"Gupteshwar, Jabalpur - JMC",20-03-2024 20:00:00,23.142888,79.916147,OZONE,7,78,58
India,Madhya Pradesh,Jabalpur,"Marhatal, Jabalpur - MPPCB",20-03-2024 20:00:00,23.168606,79.932247,NO2,10,112,30
India,Madhya Pradesh,Jabalpur,"Marhatal, Jabalpur - MPPCB",20-03-2024 20:00:00,23.168606,79.932247,NH3,3,5,4
India,Madhya Pradesh,Jabalpur,"Suhagi, Jabalpur - JMC",20-03-2024 20:00:00,23.218135,79.957770,NH3,NA,NA,NA
India,Madhya Pradesh,Katni,"Gole Bazar, Katni - MPPCB",20-03-2024 20:00:00,23.50016,80.23284,PM2.5,27,131,64
India,Madhya Pradesh,Katni,"Gole Bazar, Katni - MPPCB",20-03-2024 20:00:00,23.50016,80.23284,CO,22,86,26
India,Madhya Pradesh,Maihar,"Sahilara, Maihar - KJS Cements",20-03-2024 20:00:00,24.2613009,80.7231783,PM10,24,74,37
India,Madhya Pradesh,Maihar,"Sahilara, Maihar - KJS Cements",20-03-2024 20:00:00,24.2613009,80.7231783,NO2,14,14,14
India,Madhya Pradesh,Mandideep,"Sector-D Industrial Area, Mandideep - MPPCB",20-03-2024 20:00:00,23.108440,77.511428,NO2,3,122,63
India,Madhya Pradesh,Mandideep,"Sector-D Industrial Area, Mandideep - MPPCB",20-03-2024 20:00:00,23.108440,77.511428,CO,10,102,16
India,Madhya Pradesh,Ratlam,"Shasthri Nagar, Ratlam - IPCA Lab",20-03-2024 20:00:00,23.331731,75.045981,PM2.5,15,207,71
India,Madhya Pradesh,Sagar,"Deen Dayal Nagar, Sagar - MPPCB",20-03-2024 20:00:00,23.8640158,78.80289321,PM10,21,60,35
India,Madhya Pradesh,Sagar,"Deen Dayal Nagar, Sagar - MPPCB",20-03-2024 20:00:00,23.8640158,78.80289321,SO2,8,13,11
India,Madhya Pradesh,Sagar,"Deen Dayal Nagar, Sagar - MPPCB",20-03-2024 20:00:00,23.8640158,78.80289321,CO,52,92,71
India,Madhya Pradesh,Satna,"Bandhavgar Colony, Satna - Birla Cement",20-03-2024 20:00:00,24.58434363,80.8549414,CO,30,86,36
India,Madhya Pradesh,Ujjain,"Mahakaleshwar Temple, Ujjain - MPPCB",20-03-2024 20:00:00,23.182719 ,75.768218 ,CO,6,119,34
India,Madhya Pradesh,Ujjain,"Mahakaleshwar Temple, Ujjain - MPPCB",20-03-2024 20:00:00,23.182719 ,75.768218 ,OZONE,129,164,157
India,Maharashtra,Ahmednagar,"Tarakpur, Ahmednagar - MPCB",20-03-2024 20:00:00,19.10122,74.73339,NH3,3,7,5
India,Maharashtra,Amravati,"Shivneri Colony, Amravati - MPCB",20-03-2024 20:00:00,20.9402359,77.7895248,PM2.5,46,96,70
India,Maharashtra,Amravati,"Shivneri Colony, Amravati - MPCB",20-03-2024 20:00:00,20.9402359,77.7895248,NO2,14,34,22
India,Maharashtra,Aurangabad,"MIDC Chilkalthana, Aurangabad - MPCB",20-03-2024 20:00:00,19.875620,75.387310,PM2.5,47,97,67
India,Maharashtra,Aurangabad,"MIDC Chilkalthana, Aurangabad - MPCB",20-03-2024 20:00:00,19.875620,75.387310,SO2,3,21,7
India,Maharashtra,Aurangabad,"More Chowk Waluj, Aurangabad - MPCB",20-03-2024 20:00:00,19.8389439,75.244448,OZONE,10,77,69
India,Maharashtra,Badlapur,"Katrap, Badlapur - MPCB",20-03-2024 20:00:00,19.16485,73.23409,PM10,82,173,124
India,Maharashtra,Badlapur,"Katrap, Badlapur - MPCB",20-03-2024 20:00:00,19.16485,73.23409,OZONE,3,142,76
India,Maharashtra,Belapur,"CBD Belapur, Belapur - MPCB",20-03-2024 20:00:00,19.0243902,73.0406721,PM10,65,225,125
India,Maharashtra,Belapur,"CBD Belapur, Belapur - MPCB",20-03-2024 20:00:00,19.0243902,73.0406721,NO2,12,101,38
India,Maharashtra,Boisar,"Khaira, Boisar - MPCB",20-03-2024 20:00:00,19.786089,72.757971,PM2.5,NA,NA,NA
India,Maharashtra,Boisar,"Khaira, Boisar - MPCB",20-03-2024 20:00:00,19.786089,72.757971,CO,8,54,22
India,Maharashtra,Chandrapur,"Chauhan Colony, Chandrapur - MPCB",20-03-2024 20:00:00,19.962900,79.298714,PM2.5,38,95,61
India,Maharashtra,Chandrapur,"MIDC Khutala, Chandrapur - MPCB",20-03-2024 20:00:00,19.9775302,79.2337086,CO,12,34,21
India,Maharashtra,Dhule,"Deopur, Dhule - MPCB",20-03-2024 20:00:00,20.918946,74.776388,SO2,17,33,21
India,Maharashtra,Dhule,"Deopur, Dhule - MPCB",20-03-2024 20:00:00,20.918946,74.776388,CO,16,100,27
India,Maharashtra,Jalna,"Old MIDC, Jalna - MPCB",20-03-2024 20:00:00,19.854616,75.905894,PM10,58,160,95
India,Maharashtra,Kalyan,"Khadakpada, Kalyan - MPCB",20-03-2024 20:00:00,19.25292,73.142019,PM2.5,32,92,58
India,Maharashtra,Kalyan,"Khadakpada, Kalyan - MPCB",20-03-2024 20:00:00,19.25292,73.142019,PM10,86,284,146
India,Maharashtra,Kalyan,"Khadakpada, Kalyan - MPCB",20-03-2024 20:00:00,19.25292,73.142019,NO2,29,63,43
India,Maharashtra,Kalyan,"Khadakpada, Kalyan - MPCB",20-03-2024 20:00:00,19.25292,73.142019,CO,16,36,19
India,Maharashtra,Kolhapur,"Shivaji University, Kolhapur - MPCB",20-03-2024 20:00:00,16.6870449,74.2505872,NH3,4,12,6
India,Maharashtra,Kolhapur,"Sinchan Bhavan, Kolhapur - MPCB",20-03-2024 20:00:00,16.7143745,74.2426398,PM2.5,45,141,77
India,Maharashtra,Kolhapur,"Sinchan Bhavan, Kolhapur - MPCB",20-03-2024 20:00:00,16.7143745,74.2426398,NO2,16,123,42
India,Maharashtra,Kolhapur,"Sinchan Bhavan, Kolhapur - MPCB",20-03-2024 20:00:00,16.7143745,74.2426398,SO2,1,14,5
India,Maharashtra,Latur,"Sawe Wadi, Latur - MPCB",20-03-2024 20:00:00,18.39963,76.57452,NO2,9,53,18
India,Maharashtra,Mahad,"Kamble Tarf Birwadi, Mahad - MPCB",20-03-2024 20:00:00,18.1023399,73.4783687,PM2.5,71,410,167
India,Maharashtra,Mahad,"Kamble Tarf Birwadi, Mahad - MPCB",20-03-2024 20:00:00,18.1023399,73.4783687,NO2,21,139,40
India,Maharashtra,Mira-Bhayandar,"Bhayandar West, Mira-Bhayandar - MPCB",20-03-2024 20:00:00,19.296481,72.840923,NO2,9,59,22
India,Maharashtra,Mira-Bhayandar,"Bhayandar West, Mira-Bhayandar - MPCB",20-03-2024 20:00:00,19.296481,72.840923,NH3,3,7,4
India,Maharashtra,Mira-Bhayandar,"Bhayandar West, Mira-Bhayandar - MPCB",20-03-2024 20:00:00,19.296481,72.840923,SO2,1,22,7
India,Maharashtra,Mira-Bhayandar,"Bhayandar West, Mira-Bhayandar - MPCB",20-03-2024 20:00:00,19.296481,72.840923,OZONE,2,147,93
India,Maharashtra,Mumbai,"Bandra Kurla Complex, Mumbai - MPCB",20-03-2024 20:00:00,19.065931,72.862131,NH3,2,6,4
India,Maharashtra,Mumbai,"Byculla, Mumbai - BMC",20-03-2024 20:00:00,18.9767,72.8380,PM10,60,121,86
India,Maharashtra,Mumbai,"Byculla, Mumbai - BMC",20-03-2024 20:00:00,18.9767,72.8380,SO2,2,28,9
India,Maharashtra,Mumbai,"Chembur, Mumbai - MPCB",20-03-2024 20:00:00,19.0364585,72.8954371,PM2.5,65,141,100
India,Maharashtra,Mumbai,"Colaba, Mumbai - MPCB",20-03-2024 20:00:00,18.910000,72.820000,CO,13,22,15
India,Maharashtra,Mumbai,"Ghatkopar, Mumbai - BMC",20-03-2024 20:00:00,19.083694,72.920967,PM2.5,38,129,69
India,Maharashtra,Mumbai,"Ghatkopar, Mumbai - BMC",20-03-2024 20:00:00,19.083694,72.920967,NO2,3,266,159
India,Maharashtra,Mumbai,"Ghatkopar, Mumbai - BMC",20-03-2024 20:00:00,19.083694,72.920967,SO2,2,9,4
India,Maharashtra,Mumbai,"Ghatkopar, Mumbai - BMC",20-03-2024 20:00:00,19.083694,72.920967,OZONE,1,48,40
India,Maharashtra,Mumbai,"Kandivali East, Mumbai - MPCB",20-03-2024 20:00:00,19.205800,72.868200,NO2,27,236,70
India,Maharashtra,Mumbai,"Kurla, Mumbai - MPCB",20-03-2024 20:00:00,19.0863,72.8888,PM10,58,151,89
India,Maharashtra,Mumbai,"Kurla, Mumbai - MPCB",20-03-2024 20:00:00,19.0863,72.8888,NH3,2,9,5
India,Maharashtra,Mumbai,"Kurla, Mumbai - MPCB",20-03-2024 20:00:00,19.0863,72.8888,OZONE,28,69,53
India,Maharashtra,Mumbai,"Mazgaon, Mumbai - IITM",20-03-2024 20:00:00,18.96702,72.84214,PM2.5,77,217,125
India,Maharashtra,Mumbai,"Mazgaon, Mumbai - IITM",20-03-2024 20:00:00,18.96702,72.84214,PM10,92,160,120
India,Maharashtra,Mumbai,"Mindspace-Malad West, Mumbai - MPCB",20-03-2024 20:00:00,19.1878657,72.8304069,PM10,NA,NA,NA
India,Maharashtra,Mumbai,"Mindspace-Malad West, Mumbai - MPCB",20-03-2024 20:00:00,19.1878657,72.8304069,OZONE,56,116,70
India,Maharashtra,Mumbai,"Mulund West, Mumbai - MPCB",20-03-2024 20:00:00,19.1750,72.9419,PM10,63,192,100
India,Maharashtra,Mumbai,"Mulund West, Mumbai - MPCB",20-03-2024 20:00:00,19.1750,72.9419,NH3,10,11,10
India,Maharashtra,Mumbai,"Mulund West, Mumbai - MPCB",20-03-2024 20:00:00,19.1750,72.9419,CO,33,34,33
India,Maharashtra,Mumbai,"Mulund West, Mumbai - MPCB",20-03-2024 20:00:00,19.1750,72.9419,OZONE,7,7,7
India,Maharashtra,Mumbai,"Navy Nagar-Colaba, Mumbai - IITM",20-03-2024 20:00:00,18.897756,72.813320,PM10,82,214,126
India,Maharashtra,Mumbai,"Navy Nagar-Colaba, Mumbai - IITM",20-03-2024 20:00:00,18.897756,72.813320,OZONE,5,216,144
India,Maharashtra,Mumbai,"Powai, Mumbai - MPCB",20-03-2024 20:00:00,19.137500,72.915056,NH3,1,1,1
India,Maharashtra,Mumbai,"Powai, Mumbai - MPCB",20-03-2024 20:00:00,19.137500,72.915056,SO2,31,44,36
India,Maharashtra,Mumbai,"Powai, Mumbai - MPCB",20-03-2024 20:00:00,19.137500,72.915056,CO,30,47,42
India,Maharashtra,Mumbai,"Sewri, Mumbai - BMC",20-03-2024 20:00:00,19.000084,72.856730,NH3,2,11,8
India,Maharashtra,Mumbai,"Shivaji Nagar, Mumbai - BMC",20-03-2024 20:00:00,19.060498,72.923356,PM10,104,166,124
India,Maharashtra,Mumbai,"Siddharth Nagar-Worli, Mumbai - IITM",20-03-2024 20:00:00,19.000083,72.813993,PM10,NA,NA,NA
India,Maharashtra,Mumbai,"Siddharth Nagar-Worli, Mumbai - IITM",20-03-2024 20:00:00,19.000083,72.813993,OZONE,16,166,99
India,Maharashtra,Mumbai,"Sion, Mumbai - MPCB",20-03-2024 20:00:00,19.047000,72.874600,OZONE,15,25,18
India,Maharashtra,Mumbai,"Vasai West, Mumbai - MPCB",20-03-2024 20:00:00,19.383200,72.820400,CO,57,102,64
India,Maharashtra,Mumbai,"Vile Parle West, Mumbai - MPCB",20-03-2024 20:00:00,19.10861,72.83622,PM2.5,36,91,62
India,Maharashtra,Mumbai,"Vile Parle West, Mumbai - MPCB",20-03-2024 20:00:00,19.10861,72.83622,NO2,2,49,10
India,Maharashtra,Nagpur,"Ambazari, Nagpur - MPCB",20-03-2024 20:00:00,21.121801,79.04952,PM2.5,58,97,74
India,Maharashtra,Nagpur,"Mahal, Nagpur - MPCB",20-03-2024 20:00:00,21.14472,79.107595,NO2,7,30,16
India,Maharashtra,Nagpur,"Mahal, Nagpur - MPCB",20-03-2024 20:00:00,21.14472,79.107595,NH3,1,7,3
India,Maharashtra,Nagpur,"Mahal, Nagpur - MPCB",20-03-2024 20:00:00,21.14472,79.107595,CO,21,102,61
India,Maharashtra,Nagpur,"Mahal, Nagpur - MPCB",20-03-2024 20:00:00,21.14472,79.107595,OZONE,16,74,60
India,Maharashtra,Nagpur,"Opp GPO Civil Lines, Nagpur - MPCB",20-03-2024 20:00:00,21.152875,79.0517531,PM2.5,44,89,64
India,Maharashtra,Nagpur,"Opp GPO Civil Lines, Nagpur - MPCB",20-03-2024 20:00:00,21.152875,79.0517531,CO,24,64,36
India,Maharashtra,Nagpur,"Ram Nagar, Nagpur - MPCB",20-03-2024 20:00:00,21.143383,79.048912,CO,10,40,18
India,Maharashtra,Nanded,"Sneh Nagar, Nanded - MPCB",20-03-2024 20:00:00,19.173852,77.296291,SO2,5,11,8
India,Maharashtra,Nashik,"Gangapur Road, Nashik - MPCB",20-03-2024 20:00:00,20.0073285,73.7762427,PM2.5,51,192,86
India,Maharashtra,Nashik,"Gangapur Road, Nashik - MPCB",20-03-2024 20:00:00,20.0073285,73.7762427,PM10,48,142,80
India,Maharashtra,Nashik,"Gangapur Road, Nashik - MPCB",20-03-2024 20:00:00,20.0073285,73.7762427,CO,22,24,23
India,Maharashtra,Nashik,"MIDC Ambad, Nashik - MPCB",20-03-2024 20:00:00,19.950220,73.731480,PM2.5,40,93,70
India,Maharashtra,Nashik,"Pandav Nagari, Nashik - MPCB",20-03-2024 20:00:00,19.9591346,73.7788008,NO2,4,72,17
India,Maharashtra,Nashik,"Pandav Nagari, Nashik - MPCB",20-03-2024 20:00:00,19.9591346,73.7788008,SO2,2,24,15
India,Maharashtra,Navi Mumbai,"Kopripada-Vashi, Navi Mumbai - MPCB",20-03-2024 20:00:00,19.090337,73.014232,PM10,66,334,149
India,Maharashtra,Navi Mumbai,"Kopripada-Vashi, Navi Mumbai - MPCB",20-03-2024 20:00:00,19.090337,73.014232,CO,6,88,19
India,Maharashtra,Navi Mumbai,"Mahape, Navi Mumbai - MPCB",20-03-2024 20:00:00,19.1135051,73.008978,PM10,103,456,173
India,Maharashtra,Navi Mumbai,"Mahape, Navi Mumbai - MPCB",20-03-2024 20:00:00,19.1135051,73.008978,NH3,3,5,3
India,Maharashtra,Navi Mumbai,"Nerul, Navi Mumbai - MPCB",20-03-2024 20:00:00,19.008751,73.016620,PM2.5,39,310,150
India,Maharashtra,Navi Mumbai,"Nerul, Navi Mumbai - MPCB",20-03-2024 20:00:00,19.008751,73.016620,OZONE,29,47,35
India,Maharashtra,Navi Mumbai,"Sanpada, Navi Mumbai - MPCB",20-03-2024 20:00:00,19.0575752,73.0151367,PM2.5,41,275,115
India,Maharashtra,Navi Mumbai,"Tondare-Taloja, Navi Mumbai - MPCB",20-03-2024 20:00:00,19.0630,73.1209,CO,6,56,9
India,Maharashtra,Pimpri-Chinchwad,"Gavalinagar, Pimpri Chinchwad - MPCB",20-03-2024 20:00:00,18.63673,73.82487,CO,10,100,27
India,Maharashtra,Pimpri-Chinchwad,"Park Street Wakad, Pimpri Chinchwad - MPCB",20-03-2024 20:00:00,18.59051,73.77946,SO2,10,25,17
India,Maharashtra,Pimpri-Chinchwad,"Thergaon, Pimpri Chinchwad - MPCB",20-03-2024 20:00:00,18.616318,73.765797,SO2,5,10,7
India,Maharashtra,Pune,"Bhosari, Pune - IITM",20-03-2024 20:00:00,18.640051,73.848956,OZONE,4,92,81
India,Maharashtra,Pune,"Katraj Dairy, Pune - MPCB",20-03-2024 20:00:00,18.454450,73.854155,CO,24,104,33
India,Maharashtra,Pune,"Revenue Colony-Shivajinagar, Pune - IITM",20-03-2024 20:00:00,18.530085,73.849598,PM2.5,14,75,53
India,Maharashtra,Pune,"Revenue Colony-Shivajinagar, Pune - IITM",20-03-2024 20:00:00,18.530085,73.849598,PM10,14,85,61
India,Maharashtra,Pune,"Revenue Colony-Shivajinagar, Pune - IITM",20-03-2024 20:00:00,18.530085,73.849598,NH3,7,20,13
India,Maharashtra,Pune,"Revenue Colony-Shivajinagar, Pune - IITM",20-03-2024 20:00:00,18.530085,73.849598,OZONE,1,60,32
India,Maharashtra,Pune,"Savitribai Phule Pune University, Pune - MPCB",20-03-2024 20:00:00,18.547056,73.826908,SO2,6,17,11
India,Maharashtra,Pune,"Transport Nagar-Nigdi, Pune - IITM",20-03-2024 20:00:00,18.664282,73.763966,PM10,39,136,90
India,Maharashtra,Pune,"Transport Nagar-Nigdi, Pune - IITM",20-03-2024 20:00:00,18.664282,73.763966,OZONE,2,55,46
India,Maharashtra,Solapur,"Dnyaneshwar Nagar, Solapur - MPCB",20-03-2024 20:00:00,17.6336264,75.9132495,NO2,7,75,33
India,Maharashtra,Thane,"Kasarvadavali, Thane - MPCB",20-03-2024 20:00:00,19.26777,72.97182,SO2,5,48,12
India,Maharashtra,Thane,"Kasarvadavali, Thane - MPCB",20-03-2024 20:00:00,19.26777,72.97182,CO,8,62,12
India,Maharashtra,Thane,"Kasarvadavali, Thane - MPCB",20-03-2024 20:00:00,19.26777,72.97182,OZONE,2,113,86
India,Maharashtra,Thane,"Pimpleshwar Mandir, Thane - MPCB",20-03-2024 20:00:00,19.192056,72.9585188,CO,8,125,61
India,Maharashtra,Thane,"Upvan Fort, Thane - MPCB",20-03-2024 20:00:00,19.222279,72.957979,CO,6,88,15
India,Maharashtra,Ulhasnagar,"Sidhi Vinayak Nagar, Ulhasnagar - MPCB",20-03-2024 20:00:00,19.235581,73.159121,NH3,2,4,3
India,Maharashtra,Virar,"Bolinj, Virar - MPCB",20-03-2024 20:00:00,19.4458210,72.7988231,SO2,6,56,18
India,Maharashtra,Virar,"Bolinj, Virar - MPCB",20-03-2024 20:00:00,19.4458210,72.7988231,CO,12,74,18
India,Manipur,Imphal,"DM College of Science, Imphal - Manipur PCB",20-03-2024 20:00:00,24.8207389,93.9423085,NH3,NA,NA,NA
India,Mizoram,Aizawl,"Sikulpuikawn, Aizawl - Mizoram PCB",20-03-2024 20:00:00,23.7176342,92.7192841,PM10,30,78,55
India,Odisha,Balasore,"Kalidaspur, Balasore - OSPCB",20-03-2024 20:00:00,21.51161,86.89088,NO2,5,24,14
India,Odisha,Balasore,"Kalidaspur, Balasore - OSPCB",20-03-2024 20:00:00,21.51161,86.89088,OZONE,19,71,51
India,Odisha,Barbil,"Forest Office, Barbil - OSPCB",20-03-2024 20:00:00,22.1166054,85.3945546,SO2,1,4,2
India,Odisha,Baripada,"Meher Colony, Baripada - OSPCB",20-03-2024 20:00:00,21.941841,86.728318,PM2.5,22,81,41
India,Odisha,Baripada,"Meher Colony, Baripada - OSPCB",20-03-2024 20:00:00,21.941841,86.728318,SO2,5,6,5
India,Odisha,Baripada,"Meher Colony, Baripada - OSPCB",20-03-2024 20:00:00,21.941841,86.728318,CO,16,32,20
India,Odisha,Baripada,"Meher Colony, Baripada - OSPCB",20-03-2024 20:00:00,21.941841,86.728318,OZONE,18,43,30
India,Odisha,Bhubaneswar,"Lingraj Mandir, Bhubaneswar - OSPCB",20-03-2024 20:00:00,20.240790,85.836784,NH3,1,3,2
India,Odisha,Brajrajnagar,"GM Office, Brajrajnagar - OSPCB",20-03-2024 20:00:00,21.8004996,83.8396977,PM10,3,41,19
India,Odisha,Brajrajnagar,"GM Office, Brajrajnagar - OSPCB",20-03-2024 20:00:00,21.8004996,83.8396977,NH3,1,2,1
India,Odisha,Brajrajnagar,"GM Office, Brajrajnagar - OSPCB",20-03-2024 20:00:00,21.8004996,83.8396977,SO2,20,22,20
India,Odisha,Byasanagar,"Ferro Chrome Colony, Byasanagar - OSPCB",20-03-2024 20:00:00,20.94185,86.11510,PM2.5,2,75,34
India,Odisha,Byasanagar,"Ferro Chrome Colony, Byasanagar - OSPCB",20-03-2024 20:00:00,20.94185,86.11510,NH3,1,3,2
India,Odisha,Byasanagar,"Ferro Chrome Colony, Byasanagar - OSPCB",20-03-2024 20:00:00,20.94185,86.11510,SO2,4,52,16
India,Odisha,Cuttack,"CDA Area, Cuttack - OSPCB",20-03-2024 20:00:00,20.48891     ,85.84768     ,PM2.5,3,73,28
India,Odisha,Cuttack,"CDA Area, Cuttack - OSPCB",20-03-2024 20:00:00,20.48891     ,85.84768     ,PM10,12,77,35
India,Odisha,Cuttack,"CDA Area, Cuttack - OSPCB",20-03-2024 20:00:00,20.48891     ,85.84768     ,OZONE,11,73,57
India,Odisha,Nayagarh,"Dabuna, Nayagarh - OSPCB",20-03-2024 20:00:00,21.847279,85.416905,SO2,3,6,3
India,Odisha,Rairangpur,"Divisional Forest Office, Rairangpur - OSPCB",20-03-2024 20:00:00,22.265816,86.174829,PM10,21,60,39
India,Odisha,Rairangpur,"Divisional Forest Office, Rairangpur - OSPCB",20-03-2024 20:00:00,22.265816,86.174829,NO2,NA,NA,NA
India,Odisha,Rourkela,"Raghunathpali, Rourkela - OSPCB",20-03-2024 20:00:00,22.220833,84.809444,PM2.5,5,31,23
India,Odisha,Rourkela,"Raghunathpali, Rourkela - OSPCB",20-03-2024 20:00:00,22.220833,84.809444,NO2,16,61,32
India,Odisha,Rourkela,"Raghunathpali, Rourkela - OSPCB",20-03-2024 20:00:00,22.220833,84.809444,OZONE,29,66,55
India,Odisha,Rourkela,"Sector-2, Rourkela - OSPCB",20-03-2024 20:00:00,22.24500000,84.88111111,PM10,28,73,54
India,Odisha,Tensa,"Barsua Iron Ore Mines, Tensa - OSPCB",20-03-2024 20:00:00,21.869985,85.167016,PM2.5,NA,NA,NA
India,Odisha,Tensa,"Barsua Iron Ore Mines, Tensa - OSPCB",20-03-2024 20:00:00,21.869985,85.167016,PM10,23,169,45
India,Odisha,Tensa,"Barsua Iron Ore Mines, Tensa - OSPCB",20-03-2024 20:00:00,21.869985,85.167016,CO,10,22,15
India,Puducherry,Puducherry,"Jawahar Nagar, Puducherry - PPCC",20-03-2024 20:00:00,11.9309,79.8027,PM10,47,108,65
India,Puducherry,Puducherry,"Jawahar Nagar, Puducherry - PPCC",20-03-2024 20:00:00,11.9309,79.8027,NH3,2,4,3
India,Punjab,Amritsar,"Golden Temple, Amritsar - PPCB",20-03-2024 20:00:00,31.620000,74.876512,PM10,86,121,105
India,Punjab,Jalandhar,"Civil Line, Jalandhar - PPCB",20-03-2024 20:00:00,31.321907,75.578914,PM2.5,56,177,100
India,Punjab,Jalandhar,"Civil Line, Jalandhar - PPCB",20-03-2024 20:00:00,31.321907,75.578914,NO2,33,37,35
India,Punjab,Jalandhar,"Civil Line, Jalandhar - PPCB",20-03-2024 20:00:00,31.321907,75.578914,CO,27,109,43
India,Punjab,Khanna,"Kalal Majra, Khanna - PPCB",20-03-2024 20:00:00,30.736056 ,76.209694,NO2,30,30,30
India,Punjab,Khanna,"Kalal Majra, Khanna - PPCB",20-03-2024 20:00:00,30.736056 ,76.209694,CO,12,61,39
India,Punjab,Ludhiana,"Punjab Agricultural University, Ludhiana - PPCB",20-03-2024 20:00:00,30.9028,75.8086,PM2.5,20,182,101
India,Punjab,Ludhiana,"Punjab Agricultural University, Ludhiana - PPCB",20-03-2024 20:00:00,30.9028,75.8086,PM10,27,135,100
India,Punjab,Mandi Gobindgarh,"RIMT University, Mandi Gobindgarh - PPCB",20-03-2024 20:00:00,30.649961,76.331442,PM10,50,241,112
India,Punjab,Patiala,"Model Town, Patiala - PPCB",20-03-2024 20:00:00,30.349388,76.366642,CO,14,82,26
India,Rajasthan,Alwar,"Moti Doongri, Alwar - RSPCB",20-03-2024 20:00:00,27.554793,76.611536,PM2.5,36,72,56
India,Rajasthan,Alwar,"Moti Doongri, Alwar - RSPCB",20-03-2024 20:00:00,27.554793,76.611536,NO2,30,62,48
India,Rajasthan,Banswara,"Rati Talai, Banswara - RSPCB",20-03-2024 20:00:00,23.555190,74.440010,SO2,1,74,20
India,Rajasthan,Barmer,"Railway Colony, Barmer - RSPCB",20-03-2024 20:00:00,25.747299,71.393989,NO2,4,26,11
India,Rajasthan,Barmer,"Railway Colony, Barmer - RSPCB",20-03-2024 20:00:00,25.747299,71.393989,SO2,7,22,11
India,Rajasthan,Barmer,"Railway Colony, Barmer - RSPCB",20-03-2024 20:00:00,25.747299,71.393989,OZONE,38,126,104
India,Rajasthan,Bharatpur,"Krishna Nagar, Bharatpur - RSPCB",20-03-2024 20:00:00,27.215415,77.50873,SO2,7,14,11
India,Rajasthan,Bharatpur,"Krishna Nagar, Bharatpur - RSPCB",20-03-2024 20:00:00,27.215415,77.50873,OZONE,6,162,108
India,Rajasthan,Bhilwara,"Pratap Nagar, Bhilwara - RSPCB",20-03-2024 20:00:00,25.339605,74.618883,CO,8,95,31
India,Rajasthan,Bhiwadi,"Vasundhara Nagar_UIT, Bhiwadi - RSPCB",20-03-2024 20:00:00,28.207266,76.829265,PM2.5,20,213,72
India,Rajasthan,Bhiwadi,"Vasundhara Nagar_UIT, Bhiwadi - RSPCB",20-03-2024 20:00:00,28.207266,76.829265,OZONE,6,97,77
India,Rajasthan,Bikaner,"MM Ground, Bikaner - RSPCB",20-03-2024 20:00:00,28.018792,73.292658,OZONE,3,114,78
India,Rajasthan,Dausa,"Khatikan Mohalla, Dausa - RSPCB",20-03-2024 20:00:00,26.895552,76.334753,NH3,8,85,16
India,Rajasthan,Hanumangarh,"Housing Board, Hanumangarh - RSPCB",20-03-2024 20:00:00,29.610750,74.283608,PM2.5,63,415,214
India,Rajasthan,Hanumangarh,"Housing Board, Hanumangarh - RSPCB",20-03-2024 20:00:00,29.610750,74.283608,SO2,3,24,11
India,Rajasthan,Jaipur,"Police Commissionerate, Jaipur - RSPCB",20-03-2024 20:00:00,26.9164092,75.7994901,PM2.5,48,81,63
India,Rajasthan,Jaipur,"Police Commissionerate, Jaipur - RSPCB",20-03-2024 20:00:00,26.9164092,75.7994901,SO2,15,22,19
India,Rajasthan,Jaipur,"RIICO Sitapura, Jaipur - RSPCB",20-03-2024 20:00:00,26.786682,75.827928,NO2,14,84,28
India,Rajasthan,Jaipur,"Sector-2 Murlipura, Jaipur - RSPCB",20-03-2024 20:00:00,26.960669,75.771817,CO,2,80,30
India,Rajasthan,Jaipur,"Shastri Nagar, Jaipur - RSPCB",20-03-2024 20:00:00,26.9502929,75.730943,NH3,1,9,5
India,Rajasthan,Jaipur,"Shastri Nagar, Jaipur - RSPCB",20-03-2024 20:00:00,26.9502929,75.730943,CO,2,82,32
India,Rajasthan,Jalore,"Mudtra Sili, Jalore - RSPCB",20-03-2024 20:00:00,25.344694,72.626208,CO,16,88,31
India,Rajasthan,Jhalawar,"Rajlaxmi Nagar, Jhalawar - RSPCB",20-03-2024 20:00:00,24.588397,76.172782,PM10,60,189,112
India,Rajasthan,Jodhpur,"Digari Kalan, Jodhpur - RSPCB",20-03-2024 20:00:00,26.295810,73.082283,CO,2,94,20
India,Rajasthan,Jodhpur,"Jhalamand, Jodhpur - RSPCB",20-03-2024 20:00:00,26.215415,73.070156,PM10,37,245,89
India,Rajasthan,Jodhpur,"Mandor, Jodhpur - RSPCB",20-03-2024 20:00:00,26.358805,73.047444,SO2,NA,NA,NA
India,Rajasthan,Karauli,"Satyawati Vihar, Karauli - RSPCB",20-03-2024 20:00:00,26.506177,77.025989,PM10,26,103,49
India,Rajasthan,Karauli,"Satyawati Vihar, Karauli - RSPCB",20-03-2024 20:00:00,26.506177,77.025989,NH3,2,7,3
India,Rajasthan,Karauli,"Satyawati Vihar, Karauli - RSPCB",20-03-2024 20:00:00,26.506177,77.025989,SO2,9,20,13
India,Rajasthan,Kota,"Shrinath Puram, Kota - RSPCB",20-03-2024 20:00:00,25.14389,75.821256,PM10,86,184,111
India,Rajasthan,Kota,"Shrinath Puram, Kota - RSPCB",20-03-2024 20:00:00,25.14389,75.821256,SO2,6,102,24
India,Rajasthan,Pali,"Indira Colony Vistar, Pali - RSPCB",20-03-2024 20:00:00,25.771061, 73.340227,PM10,63,313,142
India,Rajasthan,Pali,"Indira Colony Vistar, Pali - RSPCB",20-03-2024 20:00:00,25.771061, 73.340227,CO,50,103,60
India,Rajasthan,Pratapgarh,"Pragati Nagar, Pratapgarh - RSPCB",20-03-2024 20:00:00,24.041198,74.780702,NO2,5,64,24
India,Rajasthan,Pratapgarh,"Pragati Nagar, Pratapgarh - RSPCB",20-03-2024 20:00:00,24.041198,74.780702,SO2,4,10,6
India,Rajasthan,Rajsamand,"Dhoinda, Rajsamand - RSPCB",20-03-2024 20:00:00,25.036360,73.883502,SO2,5,14,9
India,Rajasthan,Sawai Madhopur,"Sahu Nagar, Sawai Madhopur - RSPCB",20-03-2024 20:00:00,26.031443,76.359327,SO2,1,21,10
India,Rajasthan,Sirohi,"Vedhaynath Colony, Sirohi - RSPCB",20-03-2024 20:00:00,24.885261,72.857549,SO2,5,12,9
India,Rajasthan,Sri Ganganagar,"Old City, Sri Ganganagar - RSPCB",20-03-2024 20:00:00,29.931624,73.864511,CO,36,115,61
India,Rajasthan,Sri Ganganagar,"Old City, Sri Ganganagar - RSPCB",20-03-2024 20:00:00,29.931624,73.864511,OZONE,3,77,60
India,Rajasthan,Tonk,"Shastri Nagar, Tonk - RSPCB",20-03-2024 20:00:00,26.159933,75.780517,OZONE,6,93,89
India,Rajasthan,Udaipur,"Ashok Nagar, Udaipur - RSPCB",20-03-2024 20:00:00,24.5886166,73.6321397,NO2,62,132,91
India,Sikkim,Gangtok,"Zero Point GICI, Gangtok - SSPCB",20-03-2024 20:00:00,27.338530,88.614099,NH3,NA,NA,NA
India,Sikkim,Gangtok,"Zero Point GICI, Gangtok - SSPCB",20-03-2024 20:00:00,27.338530,88.614099,SO2,NA,NA,NA
India,Sikkim,Gangtok,"Zero Point GICI, Gangtok - SSPCB",20-03-2024 20:00:00,27.338530,88.614099,OZONE,NA,NA,NA
India,TamilNadu,Chengalpattu,"Crescent University, Chengalpattu - TNPCB",20-03-2024 20:00:00,12.8777316,80.0834807,CO,28,30,28
India,TamilNadu,Chengalpattu,"Crescent University, Chengalpattu - TNPCB",20-03-2024 20:00:00,12.8777316,80.0834807,OZONE,6,6,6
India,TamilNadu,Chennai,"Alandur Bus Depot, Chennai - CPCB",20-03-2024 20:00:00,12.9099161,80.1076538,PM10,56,89,73
India,TamilNadu,Chennai,"Alandur Bus Depot, Chennai - CPCB",20-03-2024 20:00:00,12.9099161,80.1076538,NO2,6,15,8
India,TamilNadu,Chennai,"Alandur Bus Depot, Chennai - CPCB",20-03-2024 20:00:00,12.9099161,80.1076538,NH3,2,24,8
India,TamilNadu,Chennai,"Arumbakkam, Chennai - TNPCB",20-03-2024 20:00:00,13.0664,80.2112 ,PM2.5,NA,NA,NA
India,TamilNadu,Chennai,"Arumbakkam, Chennai - TNPCB",20-03-2024 20:00:00,13.0664,80.2112 ,NO2,NA,NA,NA
India,TamilNadu,Chennai,"Kodungaiyur, Chennai - TNPCB",20-03-2024 20:00:00,13.1278,80.2642,PM10,59,148,79
India,TamilNadu,Chennai,"Manali, Chennai - CPCB",20-03-2024 20:00:00,13.164544,80.26285,CO,79,113,99
India,TamilNadu,Chennai,"Perungudi, Chennai - TNPCB",20-03-2024 20:00:00,12.9533,80.2357,PM2.5,NA,NA,NA
India,TamilNadu,Chennai,"Perungudi, Chennai - TNPCB",20-03-2024 20:00:00,12.9533,80.2357,NH3,NA,NA,NA
India,TamilNadu,Chennai,"Perungudi, Chennai - TNPCB",20-03-2024 20:00:00,12.9533,80.2357,SO2,NA,NA,NA
India,TamilNadu,Chennai,"Royapuram, Chennai - TNPCB",20-03-2024 20:00:00,13.1036,80.2909,PM10,38,62,52
India,TamilNadu,Chennai,"Velachery Res. Area, Chennai - CPCB",20-03-2024 20:00:00,13.0052189,80.2398125,SO2,11,11,11
India,TamilNadu,Coimbatore,"PSG College of Arts and Science, Coimbatore - TNPCB",20-03-2024 20:00:00,11.0328,77.0349,NH3,1,1,1
India,TamilNadu,Cuddalore,"Kudikadu, Cuddalore - TNPCB",20-03-2024 20:00:00,11.6829898,79.7532099,PM2.5,68,132,83
India,TamilNadu,Cuddalore,"Kudikadu, Cuddalore - TNPCB",20-03-2024 20:00:00,11.6829898,79.7532099,NO2,22,30,26
India,TamilNadu,Cuddalore,"Semmandalam, Cuddalore - TNPCB",20-03-2024 20:00:00,11.7637683,79.7499835,OZONE,1,14,5
India,TamilNadu,Ooty,"Bombay Castel, Ooty - TNPCB",20-03-2024 20:00:00,11.4068288,76.7138973,CO,20,22,20
India,TamilNadu,Palkalaiperur,"Bharathidasan University, Palkalaiperur - TNPCB",20-03-2024 20:00:00,10.681158,78.741746,PM10,35,84,59
India,TamilNadu,Thoothukudi,"Meelavittan, Thoothukudi - TNPCB",20-03-2024 20:00:00,8.816428 ,78.099039,PM10,56,163,87
India,TamilNadu,Thoothukudi,"Meelavittan, Thoothukudi - TNPCB",20-03-2024 20:00:00,8.816428 ,78.099039,CO,2,52,26
India,TamilNadu,Vellore,"Vasanthapuram, Vellore - TNPCB",20-03-2024 20:00:00,12.909494,79.131861,PM10,55,105,79
India,Telangana,Hyderabad,"Bollaram Industrial Area, Hyderabad - TSPCB",20-03-2024 20:00:00,17.540891,78.358528,PM2.5,NA,NA,NA
India,Telangana,Hyderabad,"Bollaram Industrial Area, Hyderabad - TSPCB",20-03-2024 20:00:00,17.540891,78.358528,PM10,NA,NA,NA
India,Telangana,Hyderabad,"Bollaram Industrial Area, Hyderabad - TSPCB",20-03-2024 20:00:00,17.540891,78.358528,NO2,12,28,17
India,Telangana,Hyderabad,"Central University, Hyderabad - TSPCB",20-03-2024 20:00:00,17.460103,78.334361,PM10,62,93,73
India,Telangana,Hyderabad,"ECIL Kapra, Hyderabad - TSPCB",20-03-2024 20:00:00,17.470431,78.566959,OZONE,6,39,31
India,Telangana,Hyderabad,"ICRISAT Patancheru, Hyderabad - TSPCB",20-03-2024 20:00:00,17.518400,78.278777,PM2.5,31,112,60
India,Telangana,Hyderabad,"ICRISAT Patancheru, Hyderabad - TSPCB",20-03-2024 20:00:00,17.518400,78.278777,OZONE,13,97,83
India,Telangana,Hyderabad,"IITH Kandi, Hyderabad - TSPCB",20-03-2024 20:00:00,17.585705,78.126199,PM10,NA,NA,NA
India,Telangana,Hyderabad,"Kompally Municipal Office, Hyderabad - TSPCB",20-03-2024 20:00:00,17.544899,78.486949,SO2,8,22,11
India,Telangana,Hyderabad,"Nacharam_TSIIC IALA, Hyderabad - TSPCB",20-03-2024 20:00:00,17.429398,78.569354,NO2,10,14,12
India,Telangana,Hyderabad,"New Malakpet, Hyderabad - TSPCB",20-03-2024 20:00:00,17.37206,78.50864,OZONE,3,19,15
India,Telangana,Hyderabad,"Somajiguda, Hyderabad - TSPCB",20-03-2024 20:00:00,17.417094,78.457437,CO,9,21,11
India,Telangana,Hyderabad,"Somajiguda, Hyderabad - TSPCB",20-03-2024 20:00:00,17.417094,78.457437,OZONE,9,22,18
India,Telangana,Hyderabad,"Zoo Park, Hyderabad - TSPCB",20-03-2024 20:00:00,17.349694,78.451437,NH3,NA,NA,NA
India,Tripura,Agartala,"Bardowali, Agartala - Tripura SPCB",20-03-2024 20:00:00,23.8175497,91.2726974,NH3,3,5,4
India,Tripura,Agartala,"Bardowali, Agartala - Tripura SPCB",20-03-2024 20:00:00,23.8175497,91.2726974,SO2,28,29,28
India,Tripura,Agartala,"Bardowali, Agartala - Tripura SPCB",20-03-2024 20:00:00,23.8175497,91.2726974,OZONE,1,26,16
India,Uttar_Pradesh,Agra,"Manoharpur, Agra - UPPCB",20-03-2024 20:00:00,27.23711,78.01936,PM10,33,125,77
India,Uttar_Pradesh,Agra,"Rohta, Agra - UPPCB",20-03-2024 20:00:00,27.106972,78.000111,SO2,6,17,11
India,Uttar_Pradesh,Agra,"Rohta, Agra - UPPCB",20-03-2024 20:00:00,27.106972,78.000111,OZONE,14,16,15
India,Uttar_Pradesh,Agra,"Sanjay Palace, Agra - UPPCB",20-03-2024 20:00:00,27.19865833,78.00598056,NO2,31,68,47
India,Uttar_Pradesh,Agra,"Sanjay Palace, Agra - UPPCB",20-03-2024 20:00:00,27.19865833,78.00598056,OZONE,29,75,51
India,Uttar_Pradesh,Agra,"Sector-3B Avas Vikas Colony, Agra - UPPCB",20-03-2024 20:00:00,27.19412,77.96237,NO2,7,35,19
India,Uttar_Pradesh,Agra,"Sector-3B Avas Vikas Colony, Agra - UPPCB",20-03-2024 20:00:00,27.19412,77.96237,CO,11,34,14
India,Uttar_Pradesh,Agra,"Shastripuram, Agra - UPPCB",20-03-2024 20:00:00,27.19862,77.92066,NH3,NA,NA,NA
India,Uttar_Pradesh,Baghpat,"Sardar Patel Inter College, Baghpat - UPPCB",20-03-2024 20:00:00,28.964949,77.278761,NO2,44,179,58
India,Uttar_Pradesh,Bareilly,"Civil Lines, Bareilly - UPPCB",20-03-2024 20:00:00,28.359581,79.414455,SO2,42,45,44
India,Uttar_Pradesh,Bulandshahr,"Yamunapuram, Bulandshahr - UPPCB",20-03-2024 20:00:00,28.406963,77.849831,NO2,13,128,67
India,Uttar_Pradesh,Firozabad,"Nagla Bhau, Firozabad - UPPCB",20-03-2024 20:00:00,27.168897,78.376960,OZONE,16,23,19
India,Uttar_Pradesh,Firozabad,"Vibhab Nagar, Firozabad - UPPCB",20-03-2024 20:00:00,27.1594,78.3953,PM2.5,51,172,93
India,Uttar_Pradesh,Firozabad,"Vibhab Nagar, Firozabad - UPPCB",20-03-2024 20:00:00,27.1594,78.3953,NH3,2,2,2
India,Uttar_Pradesh,Firozabad,"Vibhab Nagar, Firozabad - UPPCB",20-03-2024 20:00:00,27.1594,78.3953,CO,17,36,25
India,Uttar_Pradesh,Firozabad,"Vibhab Nagar, Firozabad - UPPCB",20-03-2024 20:00:00,27.1594,78.3953,OZONE,21,56,47
India,Uttar_Pradesh,Ghaziabad,"Loni, Ghaziabad - UPPCB",20-03-2024 20:00:00,28.757294,77.278792,PM10,71,179,143
India,Uttar_Pradesh,Ghaziabad,"Loni, Ghaziabad - UPPCB",20-03-2024 20:00:00,28.757294,77.278792,SO2,14,43,26
India,Uttar_Pradesh,Ghaziabad,"Loni, Ghaziabad - UPPCB",20-03-2024 20:00:00,28.757294,77.278792,CO,19,91,44
India,Uttar_Pradesh,Ghaziabad,"Vasundhara, Ghaziabad - UPPCB",20-03-2024 20:00:00,28.6603346,77.3572563,NO2,2,110,56
India,Uttar_Pradesh,Ghaziabad,"Vasundhara, Ghaziabad - UPPCB",20-03-2024 20:00:00,28.6603346,77.3572563,NH3,9,16,13
India,Uttar_Pradesh,Gorakhpur,"Madan Mohan Malaviya University of Technology, Gorakhpur - UPPCB",20-03-2024 20:00:00,26.730136,83.433859,PM10,34,164,122
India,Uttar_Pradesh,Gorakhpur,"Madan Mohan Malaviya University of Technology, Gorakhpur - UPPCB",20-03-2024 20:00:00,26.730136,83.433859,NH3,1,2,2
India,Uttar_Pradesh,Greater Noida,"Knowledge Park - III, Greater Noida - UPPCB",20-03-2024 20:00:00,28.47272,77.482000,NO2,19,129,59
India,Uttar_Pradesh,Jhansi,"Shivaji Nagar, Jhansi - UPPCB",20-03-2024 20:00:00,25.4547,78.6039,PM10,16,111,48
India,Uttar_Pradesh,Jhansi,"Shivaji Nagar, Jhansi - UPPCB",20-03-2024 20:00:00,25.4547,78.6039,NH3,6,6,6
India,Uttar_Pradesh,Jhansi,"Shivaji Nagar, Jhansi - UPPCB",20-03-2024 20:00:00,25.4547,78.6039,CO,12,28,16
India,Uttar_Pradesh,Kanpur,"FTI Kidwai Nagar, Kanpur - UPPCB",20-03-2024 20:00:00,26.428282,80.327067,PM2.5,49,203,96
India,Uttar_Pradesh,Kanpur,"FTI Kidwai Nagar, Kanpur - UPPCB",20-03-2024 20:00:00,26.428282,80.327067,PM10,79,214,129
India,Uttar_Pradesh,Kanpur,"FTI Kidwai Nagar, Kanpur - UPPCB",20-03-2024 20:00:00,26.428282,80.327067,NH3,3,4,3
India,Uttar_Pradesh,Kanpur,"Nehru Nagar, Kanpur - UPPCB",20-03-2024 20:00:00,26.4703136,80.3229863,CO,28,60,57
India,Uttar_Pradesh,Khurja,"Kalindi Kunj, Khurja - UPPCB",20-03-2024 20:00:00,28.2348927,77.8683002,PM2.5,17,229,117
India,Uttar_Pradesh,Khurja,"Kalindi Kunj, Khurja - UPPCB",20-03-2024 20:00:00,28.2348927,77.8683002,SO2,32,42,36
India,Uttar_Pradesh,Lucknow,"Gomti Nagar, Lucknow - UPPCB",20-03-2024 20:00:00,26.868120,81.005119,PM2.5,65,392,206
India,Uttar_Pradesh,Lucknow,"Gomti Nagar, Lucknow - UPPCB",20-03-2024 20:00:00,26.868120,81.005119,SO2,2,17,11
India,Uttar_Pradesh,Lucknow,"Kukrail Picnic Spot-1, Lucknow - UPPCB",20-03-2024 20:00:00,26.90723,80.98579,NO2,8,9,8
India,Uttar_Pradesh,Lucknow,"Kukrail Picnic Spot-1, Lucknow - UPPCB",20-03-2024 20:00:00,26.90723,80.98579,NH3,2,2,2
India,Uttar_Pradesh,Lucknow,"Kukrail Picnic Spot-1, Lucknow - UPPCB",20-03-2024 20:00:00,26.90723,80.98579,SO2,32,42,36
India,Uttar_Pradesh,Lucknow,"Lalbagh, Lucknow - CPCB",20-03-2024 20:00:00,26.8458805,80.9365541,PM10,126,291,171
India,Uttar_Pradesh,Lucknow,"Talkatora District Industries Center, Lucknow - CPCB",20-03-2024 20:00:00,26.83399722,80.8917361,PM2.5,82,305,158
India,Uttar_Pradesh,Lucknow,"Talkatora District Industries Center, Lucknow - CPCB",20-03-2024 20:00:00,26.83399722,80.8917361,NH3,12,41,22
India,Uttar_Pradesh,Meerut,"Ganga Nagar, Meerut - UPPCB",20-03-2024 20:00:00,28.999264,77.7590354,PM2.5,22,197,110
India,Uttar_Pradesh,Meerut,"Ganga Nagar, Meerut - UPPCB",20-03-2024 20:00:00,28.999264,77.7590354,SO2,4,50,26
India,Uttar_Pradesh,Moradabad,"Buddhi Vihar, Moradabad - UPPCB",20-03-2024 20:00:00,28.83526,78.74460,PM10,69,245,134
India,Uttar_Pradesh,Moradabad,"Buddhi Vihar, Moradabad - UPPCB",20-03-2024 20:00:00,28.83526,78.74460,CO,25,74,29
India,Uttar_Pradesh,Moradabad,"Eco Herbal Park, Moradabad - UPPCB",20-03-2024 20:00:00,28.840739,78.697531,CO,24,51,42
India,Uttar_Pradesh,Moradabad,"Employment Office, Moradabad - UPPCB",20-03-2024 20:00:00,28.88528,78.73880,NH3,3,4,4
India,Uttar_Pradesh,Moradabad,"Employment Office, Moradabad - UPPCB",20-03-2024 20:00:00,28.88528,78.73880,CO,11,56,19
India,Uttar_Pradesh,Moradabad,"Jigar Colony, Moradabad - UPPCB",20-03-2024 20:00:00,28.856664,78.772638,OZONE,18,42,32
India,Uttar_Pradesh,Moradabad,"Kashiram Nagar, Moradabad - UPPCB",20-03-2024 20:00:00,28.849399,78.742362,NO2,12,61,35
India,Uttar_Pradesh,Moradabad,"Transport Nagar, Moradabad - UPPCB",20-03-2024 20:00:00,28.802625,78.753728,NO2,8,43,26
India,Uttar_Pradesh,Moradabad,"Transport Nagar, Moradabad - UPPCB",20-03-2024 20:00:00,28.802625,78.753728,CO,39,42,40
India,Uttar_Pradesh,Muzaffarnagar,"New Mandi, Muzaffarnagar - UPPCB",20-03-2024 20:00:00,29.4723508,77.7194031,NO2,18,58,38
India,Uttar_Pradesh,Noida,"Sector - 125, Noida - UPPCB",20-03-2024 20:00:00,28.5447608,77.3231257,PM10,47,248,143
India,Uttar_Pradesh,Noida,"Sector - 62, Noida - IMD",20-03-2024 20:00:00,28.6245479,77.3577104,CO,22,45,28
India,Uttar_Pradesh,Noida,"Sector - 62, Noida - IMD",20-03-2024 20:00:00,28.6245479,77.3577104,OZONE,4,31,17
India,Uttar_Pradesh,Noida,"Sector-116, Noida - UPPCB",20-03-2024 20:00:00,28.569230,77.393848,PM2.5,26,347,197
India,Uttar_Pradesh,Prayagraj,"Jhunsi, Prayagraj - UPPCB",20-03-2024 20:00:00,25.425602,81.917152,PM10,58,175,112
India,Uttar_Pradesh,Prayagraj,"Jhunsi, Prayagraj - UPPCB",20-03-2024 20:00:00,25.425602,81.917152,NH3,5,5,5
India,Uttar_Pradesh,Prayagraj,"Jhunsi, Prayagraj - UPPCB",20-03-2024 20:00:00,25.425602,81.917152,SO2,30,32,31
India,Uttar_Pradesh,Prayagraj,"Jhunsi, Prayagraj - UPPCB",20-03-2024 20:00:00,25.425602,81.917152,OZONE,1,29,16
India,Uttar_Pradesh,Prayagraj,"Motilal Nehru NIT, Prayagraj - UPPCB",20-03-2024 20:00:00,25.494,81.863,PM2.5,21,84,55
India,Uttar_Pradesh,Prayagraj,"Motilal Nehru NIT, Prayagraj - UPPCB",20-03-2024 20:00:00,25.494,81.863,PM10,47,296,145
India,Uttar_Pradesh,Prayagraj,"Motilal Nehru NIT, Prayagraj - UPPCB",20-03-2024 20:00:00,25.494,81.863,SO2,21,29,23
India,Uttar_Pradesh,Prayagraj,"Nagar Nigam, Prayagraj - UPPCB",20-03-2024 20:00:00,25.44919916 ,81.82735986 ,SO2,21,107,69
India,Uttar_Pradesh,Varanasi,"Bhelupur, Varanasi - UPPCB",20-03-2024 20:00:00,25.301778,82.996789,NO2,8,8,8
India,Uttar_Pradesh,Varanasi,"Maldahiya, Varanasi - UPPCB",20-03-2024 20:00:00,25.32393,82.99687,PM10,10,50,21
India,Uttar_Pradesh,Vrindavan,"Omex Eternity, Vrindavan - UPPCB",20-03-2024 20:00:00,27.5714090,77.6557570,CO,37,82,45
India,Uttarakhand,Kashipur,"Govt. Girls Inter College, Kashipur - UKPCB",20-03-2024 20:00:00,29.2124114,78.9611753,SO2,7,8,8
India,Uttarakhand,Kashipur,"Govt. Girls Inter College, Kashipur - UKPCB",20-03-2024 20:00:00,29.2124114,78.9611753,CO,18,102,33
India,Uttarakhand,Kashipur,"Govt. Girls Inter College, Kashipur - UKPCB",20-03-2024 20:00:00,29.2124114,78.9611753,OZONE,6,65,48
India,Uttarakhand,Rishikesh,"Shivaji Nagar, Rishikesh - UKPCB",20-03-2024 20:00:00,30.075911,78.2859547,PM10,25,79,46
India,West_Bengal,Barrackpore,"SVSPA Campus, Barrackpore - WBPCB",20-03-2024 20:00:00,22.7605581,88.3617589,CO,6,30,19
India,West_Bengal,Durgapur,"Sidhu Kanhu Indoor Stadium, Durgapur - WBPCB",20-03-2024 20:00:00,23.5404352,87.2892225,PM10,40,119,78
India,West_Bengal,Durgapur,"Sidhu Kanhu Indoor Stadium, Durgapur - WBPCB",20-03-2024 20:00:00,23.5404352,87.2892225,SO2,15,32,25
India,West_Bengal,Haldia,"Priyambada Housing Estate, Haldia - WBPCB",20-03-2024 20:00:00,22.06047,88.109737,PM10,16,69,34
India,West_Bengal,Haldia,"Priyambada Housing Estate, Haldia - WBPCB",20-03-2024 20:00:00,22.06047,88.109737,CO,16,30,25
India,West_Bengal,Howrah,"Padmapukur, Howrah - WBPCB",20-03-2024 20:00:00,22.5687319,88.2797276,SO2,6,17,10
India,West_Bengal,Howrah,"Padmapukur, Howrah - WBPCB",20-03-2024 20:00:00,22.5687319,88.2797276,CO,11,72,37
India,West_Bengal,Kolkata,"Ballygunge, Kolkata - WBPCB",20-03-2024 20:00:00,22.5367507,88.3638022,PM10,22,80,45
India,West_Bengal,Kolkata,"Ballygunge, Kolkata - WBPCB",20-03-2024 20:00:00,22.5367507,88.3638022,CO,2,21,13
India,West_Bengal,Kolkata,"Bidhannagar, Kolkata - WBPCB",20-03-2024 20:00:00,22.58157048,88.41002457,CO,4,24,18
India,West_Bengal,Kolkata,"Jadavpur, Kolkata - WBPCB",20-03-2024 20:00:00,22.49929,88.36917,CO,17,28,20
India,West_Bengal,Kolkata,"Rabindra Bharati University, Kolkata - WBPCB",20-03-2024 20:00:00,22.627847,88.380669,PM10,23,109,49
India,West_Bengal,Kolkata,"Rabindra Bharati University, Kolkata - WBPCB",20-03-2024 20:00:00,22.627847,88.380669,NH3,7,7,7
India,West_Bengal,Kolkata,"Rabindra Bharati University, Kolkata - WBPCB",20-03-2024 20:00:00,22.627847,88.380669,OZONE,11,36,20
India,West_Bengal,Kolkata,"Victoria, Kolkata - WBPCB",20-03-2024 20:00:00,22.5448082,88.3403691,PM10,25,100,55
India,West_Bengal,Kolkata,"Victoria, Kolkata - WBPCB",20-03-2024 20:00:00,22.5448082,88.3403691,OZONE,18,54,31
India,Andhra_Pradesh,Amaravati,"Secretariat, Amaravati - APPCB",20-03-2024 20:00:00,16.5150833,80.5181667,SO2,12,19,15
India,Andhra_Pradesh,Anantapur,"Gulzarpet, Anantapur - APPCB",20-03-2024 20:00:00,14.675886,77.593027,PM10,NA,NA,NA
India,Andhra_Pradesh,Anantapur,"Gulzarpet, Anantapur - APPCB",20-03-2024 20:00:00,14.675886,77.593027,NH3,NA,NA,NA
India,Andhra_Pradesh,Anantapur,"Gulzarpet, Anantapur - APPCB",20-03-2024 20:00:00,14.675886,77.593027,SO2,NA,NA,NA
India,Andhra_Pradesh,Anantapur,"Gulzarpet, Anantapur - APPCB",20-03-2024 20:00:00,14.675886,77.593027,CO,36,53,50
India,Andhra_Pradesh,Chittoor,"Gangineni Cheruvu, Chittoor - APPCB",20-03-2024 20:00:00,13.204880,79.097889,PM10,55,231,96
India,Andhra_Pradesh,Chittoor,"Gangineni Cheruvu, Chittoor - APPCB",20-03-2024 20:00:00,13.204880,79.097889,OZONE,15,123,111
India,Andhra_Pradesh,Kadapa,"Yerramukkapalli, Kadapa - APPCB",20-03-2024 20:00:00,14.465052,78.824187,PM2.5,30,128,57
India,Andhra_Pradesh,Kadapa,"Yerramukkapalli, Kadapa - APPCB",20-03-2024 20:00:00,14.465052,78.824187,SO2,1,3,2
India,Andhra_Pradesh,Kadapa,"Yerramukkapalli, Kadapa - APPCB",20-03-2024 20:00:00,14.465052,78.824187,OZONE,22,83,71
India,Andhra_Pradesh,Rajamahendravaram,"Anand Kala Kshetram, Rajamahendravaram - APPCB",20-03-2024 20:00:00,16.9872867,81.7363176,PM10,14,104,75
India,Andhra_Pradesh,Rajamahendravaram,"Anand Kala Kshetram, Rajamahendravaram - APPCB",20-03-2024 20:00:00,16.9872867,81.7363176,OZONE,13,26,23
India,Andhra_Pradesh,Tirupati,"Tirumala, Tirupati - APPCB",20-03-2024 20:00:00,13.67,79.35,NH3,1,1,1
India,Andhra_Pradesh,Tirupati,"Tirumala, Tirupati - APPCB",20-03-2024 20:00:00,13.67,79.35,CO,18,44,30
India,Andhra_Pradesh,Tirupati,"Vaikuntapuram, Tirupati - APPCB",20-03-2024 20:00:00,13.615387,79.409230,OZONE,15,50,38
India,Andhra_Pradesh,Vijayawada,"HB Colony, Vijayawada - APPCB",20-03-2024 20:00:00,16.536107,80.594233,PM10,65,107,88
India,Andhra_Pradesh,Vijayawada,"HB Colony, Vijayawada - APPCB",20-03-2024 20:00:00,16.536107,80.594233,SO2,3,4,4
India,Andhra_Pradesh,Vijayawada,"Kanuru, Vijayawada - APPCB",20-03-2024 20:00:00,16.486692,80.699436,PM2.5,63,77,70
India,Andhra_Pradesh,Vijayawada,"Kanuru, Vijayawada - APPCB",20-03-2024 20:00:00,16.486692,80.699436,PM10,71,89,79
India,Andhra_Pradesh,Vijayawada,"Rajiv Nagar, Vijayawada - APPCB",20-03-2024 20:00:00,16.554731,80.649110,PM2.5,44,49,46
India,Andhra_Pradesh,Vijayawada,"Rajiv Nagar, Vijayawada - APPCB",20-03-2024 20:00:00,16.554731,80.649110,PM10,61,67,63
India,Andhra_Pradesh,Vijayawada,"Rajiv Nagar, Vijayawada - APPCB",20-03-2024 20:00:00,16.554731,80.649110,SO2,8,16,12
India,Andhra_Pradesh,Vijayawada,"Rajiv Nagar, Vijayawada - APPCB",20-03-2024 20:00:00,16.554731,80.649110,CO,37,37,37
India,Andhra_Pradesh,Visakhapatnam,"GVM Corporation, Visakhapatnam - APPCB",20-03-2024 20:00:00,17.72,83.3,PM2.5,15,92,64
India,Arunachal_Pradesh,Naharlagun,"Naharlagun, Naharlagun - APSPCB",20-03-2024 20:00:00,27.103358,93.679645,SO2,4,4,4
India,Assam,Byrnihat,"Central Academy for SFS, Byrnihat - PCBA",20-03-2024 20:00:00,26.071318,91.87488,PM2.5,147,443,330
India,Assam,Guwahati,"IITG, Guwahati - PCBA",20-03-2024 20:00:00,26.2028636,91.70046436,PM10,119,379,201
India,Assam,Guwahati,"LGBI Airport, Guwahati - PCBA",20-03-2024 20:00:00,26.10887,91.589544,PM10,126,428,249
India,Assam,Guwahati,"Pan Bazaar, Guwahati - PCBA",20-03-2024 20:00:00,26.187500,91.744194,SO2,65,90,77
India,Assam,Nagaon,"Christianpatty, Nagaon - PCBA",20-03-2024 20:00:00,26.349082,92.68449,PM2.5,25,153,71
India,Assam,Nagaon,"Christianpatty, Nagaon - PCBA",20-03-2024 20:00:00,26.349082,92.68449,PM10,23,109,62
India,Assam,Nalbari,"Bata Chowk, Nalbari - PCBA",20-03-2024 20:00:00,26.446912,91.439057,PM10,96,292,151
India,Assam,Silchar,"Tarapur, Silchar - PCBA",20-03-2024 20:00:00,24.82827,92.79525,PM2.5,19,50,36
India,Assam,Sivasagar,"Girls College, Sivasagar - PCBA",20-03-2024 20:00:00,26.987634,94.636574,NH3,2,2,2
India,Assam,Sivasagar,"Girls College, Sivasagar - PCBA",20-03-2024 20:00:00,26.987634,94.636574,CO,8,36,16
India,Assam,Sivasagar,"Girls College, Sivasagar - PCBA",20-03-2024 20:00:00,26.987634,94.636574,OZONE,1,6,3
India,Bihar,Arrah,"New DM Office, Arrah - BSPCB",20-03-2024 20:00:00,25.5626095,84.663264,PM2.5,18,103,42
India,Bihar,Arrah,"New DM Office, Arrah - BSPCB",20-03-2024 20:00:00,25.5626095,84.663264,SO2,14,22,18
India,Bihar,Arrah,"New DM Office, Arrah - BSPCB",20-03-2024 20:00:00,25.5626095,84.663264,CO,2,16,9
India,Bihar,Arrah,"New DM Office, Arrah - BSPCB",20-03-2024 20:00:00,25.5626095,84.663264,OZONE,12,40,13
India,Bihar,Aurangabad,"Gurdeo Nagar, Aurangabad - BSPCB",20-03-2024 20:00:00,24.75746,84.366208,NO2,1,5,5
India,Bihar,Aurangabad,"Gurdeo Nagar, Aurangabad - BSPCB",20-03-2024 20:00:00,24.75746,84.366208,OZONE,1,30,11
India,Bihar,Bettiah,"Kamalnath Nagar, Bettiah - BSPCB",20-03-2024 20:00:00,26.80365,84.51954,NO2,8,8,8
India,Bihar,Bettiah,"Kamalnath Nagar, Bettiah - BSPCB",20-03-2024 20:00:00,26.80365,84.51954,CO,62,68,63
India,Bihar,Bhagalpur,"Mayaganj, Bhagalpur - BSPCB",20-03-2024 20:00:00,25.265194,87.012947,PM2.5,42,393,146
India,Bihar,Bhagalpur,"Mayaganj, Bhagalpur - BSPCB",20-03-2024 20:00:00,25.265194,87.012947,PM10,31,247,89
India,Bihar,Bhagalpur,"Mayaganj, Bhagalpur - BSPCB",20-03-2024 20:00:00,25.265194,87.012947,NO2,2,14,9
India,Bihar,Bihar Sharif,"D M Colony, Bihar Sharif - BSPCB",20-03-2024 20:00:00,25.204762,85.514960,CO,16,67,34
India,Bihar,Bihar Sharif,"D M Colony, Bihar Sharif - BSPCB",20-03-2024 20:00:00,25.204762,85.514960,OZONE,4,4,4
India,Bihar,Gaya,"Collectorate, Gaya - BSPCB",20-03-2024 20:00:00,24.7955,84.9994,PM2.5,31,152,76
India,Bihar,Gaya,"Kareemganj, Gaya - BSPCB",20-03-2024 20:00:00,24.792403,84.992416,PM2.5,2,83,30
India,Bihar,Gaya,"Kareemganj, Gaya - BSPCB",20-03-2024 20:00:00,24.792403,84.992416,PM10,10,117,48
India,Bihar,Gaya,"SFTI Kusdihra, Gaya - BSPCB",20-03-2024 20:00:00,24.762518,84.982348,PM10,37,108,60
India,Bihar,Hajipur,"Industrial Area, Hajipur - BSPCB",20-03-2024 20:00:00,25.697189,85.245900,SO2,6,9,7
India,Bihar,Kishanganj,"SDM Office_Khagra, Kishanganj - BSPCB",20-03-2024 20:00:00,26.0881305,87.93840336,OZONE,27,37,27
India,Bihar,Manguraha,"Forest Rest House, Manguraha - BSPCB",20-03-2024 20:00:00,27.308328,84.531742,OZONE,NA,NA,NA
India,Bihar,Motihari,"Gandak Colony, Motihari - BSPCB",20-03-2024 20:00:00,26.63086,84.90051,NH3,4,16,11
India,Bihar,Muzaffarpur,"Buddha Colony, Muzaffarpur - BSPCB",20-03-2024 20:00:00,26.11442,85.39813,NH3,16,22,18
India,Bihar,Muzaffarpur,"Buddha Colony, Muzaffarpur - BSPCB",20-03-2024 20:00:00,26.11442,85.39813,SO2,1,10,4
India,Bihar,Muzaffarpur,"MIT-Daudpur Kothi, Muzaffarpur - BSPCB",20-03-2024 20:00:00,26.1403345,85.3650192,PM2.5,NA,NA,NA
India,Bihar,Muzaffarpur,"MIT-Daudpur Kothi, Muzaffarpur - BSPCB",20-03-2024 20:00:00,26.1403345,85.3650192,CO,26,116,73
India,Bihar,Muzaffarpur,"Muzaffarpur Collectorate, Muzaffarpur - BSPCB",20-03-2024 20:00:00,26.1209,85.3647,PM2.5,35,304,145
India,Bihar,Patna,"DRM Office Danapur, Patna - BSPCB",20-03-2024 20:00:00,25.586562,85.043586,NH3,2,3,3
India,Bihar,Patna,"DRM Office Danapur, Patna - BSPCB",20-03-2024 20:00:00,25.586562,85.043586,SO2,6,9,7
India,Bihar,Patna,"Govt. High School Shikarpur, Patna - BSPCB",20-03-2024 20:00:00,25.592539,85.227158,PM2.5,36,86,63
India,Bihar,Patna,"Govt. High School Shikarpur, Patna - BSPCB",20-03-2024 20:00:00,25.592539,85.227158,SO2,16,19,18
India,Bihar,Patna,"Govt. High School Shikarpur, Patna - BSPCB",20-03-2024 20:00:00,25.592539,85.227158,OZONE,1,58,44
India,Bihar,Patna,"IGSC Planetarium Complex, Patna - BSPCB",20-03-2024 20:00:00,25.610369,85.132568,SO2,5,6,5
India,Bihar,Patna,"Rajbansi Nagar, Patna - BSPCB",20-03-2024 20:00:00,25.599486,85.113666,CO,14,98,52
India,Bihar,Patna,"Rajbansi Nagar, Patna - BSPCB",20-03-2024 20:00:00,25.599486,85.113666,OZONE,2,39,20
India,Bihar,Patna,"Samanpura, Patna - BSPCB",20-03-2024 20:00:00,25.596727,85.085624,SO2,15,16,15
India,Bihar,Purnia,"Mariam Nagar, Purnia - BSPCB",20-03-2024 20:00:00,25.366336,87.117468,NO2,5,6,6
India,Bihar,Rajgir,"Dangi Tola, Rajgir - BSPCB",20-03-2024 20:00:00,25.03280,85.41948,PM2.5,NA,NA,NA
India,Bihar,Rajgir,"Dangi Tola, Rajgir - BSPCB",20-03-2024 20:00:00,25.03280,85.41948,CO,10,10,10
India,Bihar,Saharsa,"Police Line, Saharsa - BSPCB",20-03-2024 20:00:00,25.892357,86.590325,NH3,NA,NA,NA
India,Bihar,Samastipur,"DM Office_Kasipur, Samastipur - BSPCB",20-03-2024 20:00:00,25.859655,85.77944,PM10,38,148,75
India,Bihar,Sasaram,"Dada Peer, Sasaram - BSPCB",20-03-2024 20:00:00,24.952822,84.002396,CO,78,123,106
India,Bihar,Sasaram,"Dada Peer, Sasaram - BSPCB",20-03-2024 20:00:00,24.952822,84.002396,OZONE,12,64,33
India,Bihar,Siwan,"Chitragupta Nagar, Siwan - BSPCB",20-03-2024 20:00:00,26.2271665,84.3570427,PM10,NA,NA,NA
India,Bihar,Siwan,"Chitragupta Nagar, Siwan - BSPCB",20-03-2024 20:00:00,26.2271665,84.3570427,SO2,3,35,30
India,Bihar,Siwan,"Chitragupta Nagar, Siwan - BSPCB",20-03-2024 20:00:00,26.2271665,84.3570427,CO,31,116,102
India,Chandigarh,Chandigarh,"Sector 22, Chandigarh - CPCC",20-03-2024 20:00:00,30.735567,76.775714,PM2.5,23,103,57
India,Chandigarh,Chandigarh,"Sector-25, Chandigarh - CPCC",20-03-2024 20:00:00,30.751462,76.762879,NH3,13,32,19
India,Chandigarh,Chandigarh,"Sector-25, Chandigarh - CPCC",20-03-2024 20:00:00,30.751462,76.762879,CO,13,62,17
India,Chandigarh,Chandigarh,"Sector-53, Chandigarh - CPCC",20-03-2024 20:00:00,30.719859,76.738637,PM2.5,48,177,91
India,Chandigarh,Chandigarh,"Sector-53, Chandigarh - CPCC",20-03-2024 20:00:00,30.719859,76.738637,SO2,9,54,16
India,Chandigarh,Chandigarh,"Sector-53, Chandigarh - CPCC",20-03-2024 20:00:00,30.719859,76.738637,CO,36,109,45
India,Chandigarh,Chandigarh,"Sector-53, Chandigarh - CPCC",20-03-2024 20:00:00,30.719859,76.738637,OZONE,5,79,63
India,Chhattisgarh,Bhilai,"32Bungalows, Bhilai - CECB",20-03-2024 20:00:00,21.194815,81.314770,CO,12,30,13
India,Chhattisgarh,Bhilai,"Civic Center, Bhilai - Bhilai Steel Plant",20-03-2024 20:00:00,21.185571,81.343175,PM2.5,8,38,19
India,Chhattisgarh,Bhilai,"Civic Center, Bhilai - Bhilai Steel Plant",20-03-2024 20:00:00,21.185571,81.343175,NO2,15,18,17
India,Chhattisgarh,Bhilai,"Civic Center, Bhilai - Bhilai Steel Plant",20-03-2024 20:00:00,21.185571,81.343175,SO2,7,26,12
India,Chhattisgarh,Bhilai,"Hathkhoj, Bhilai - CECB",20-03-2024 20:00:00,21.224231,81.408350,CO,8,68,13
India,Chhattisgarh,Chhal,"Nawapara SECL Colony, Chhal - CECB",20-03-2024 20:00:00,22.118125,83.140608,PM2.5,NA,NA,NA
India,Chhattisgarh,Chhal,"Nawapara SECL Colony, Chhal - CECB",20-03-2024 20:00:00,22.118125,83.140608,NO2,12,26,18
India,Chhattisgarh,Chhal,"Nawapara SECL Colony, Chhal - CECB",20-03-2024 20:00:00,22.118125,83.140608,SO2,NA,NA,NA
India,Chhattisgarh,Korba,"Rampur, Korba - CECB",20-03-2024 20:00:00,22.368195,82.746431,PM2.5,10,20,14
India,Chhattisgarh,Korba,"Urja Nagar, Korba - CECB",20-03-2024 20:00:00,22.348441,82.549611,NH3,2,8,6
India,Chhattisgarh,Kunjemura,"OP Jindal School, Kunjemura - CECB",20-03-2024 20:00:00,22.126650,83.483212,PM10,9,54,29
India,Chhattisgarh,Kunjemura,"OP Jindal School, Kunjemura - CECB",20-03-2024 20:00:00,22.126650,83.483212,SO2,4,35,10
India,Chhattisgarh,Milupara,"Govt. Higher Secondary School, Milupara - CECB",20-03-2024 20:00:00,22.1910172,83.5197009,PM10,NA,NA,NA
India,Chhattisgarh,Milupara,"Govt. Higher Secondary School, Milupara - CECB",20-03-2024 20:00:00,22.1910172,83.5197009,SO2,NA,NA,NA
India,Chhattisgarh,Milupara,"Govt. Higher Secondary School, Milupara - CECB",20-03-2024 20:00:00,22.1910172,83.5197009,OZONE,NA,NA,NA
India,Chhattisgarh,Raipur,"AIIMS, Raipur - CECB",20-03-2024 20:00:00,21.258815,81.578979,PM10,12,69,29
India,Chhattisgarh,Raipur,"Bhatagaon New ISBT, Raipur - CECB",20-03-2024 20:00:00,21.219665,81.630094,PM2.5,1,26,17
India,Chhattisgarh,Raipur,"Krishak Nagar, Raipur - CECB",20-03-2024 20:00:00,21.237755,81.705301,CO,21,34,29
India,Chhattisgarh,Raipur,"Siltara Phase-II, Raipur - CECB",20-03-2024 20:00:00,21.371751,81.664929,PM10,24,140,65
India,Delhi,Delhi,"Alipur, Delhi - DPCC",20-03-2024 20:00:00,28.815329,77.153010,NO2,7,110,54
India,Delhi,Delhi,"Ashok Vihar, Delhi - DPCC",20-03-2024 20:00:00,28.695381,77.181665,PM2.5,25,349,202
India,Delhi,Delhi,"Ashok Vihar, Delhi - DPCC",20-03-2024 20:00:00,28.695381,77.181665,NO2,7,130,73
India,Delhi,Delhi,"Bawana, Delhi - DPCC",20-03-2024 20:00:00,28.776200,77.051074,PM10,120,426,248
India,Delhi,Delhi,"Bawana, Delhi - DPCC",20-03-2024 20:00:00,28.776200,77.051074,NO2,16,84,45
India,Delhi,Delhi,"CRRI Mathura Road, Delhi - IMD",20-03-2024 20:00:00,28.5512005,77.2735737,OZONE,2,77,47
India,Delhi,Delhi,"Chandni Chowk, Delhi - IITM",20-03-2024 20:00:00,28.656756,77.227234,CO,60,113,85
India,Delhi,Delhi,"DTU, Delhi - CPCB",20-03-2024 20:00:00,28.7500499,77.1112615,PM10,78,412,239
India,Delhi,Delhi,"DTU, Delhi - CPCB",20-03-2024 20:00:00,28.7500499,77.1112615,OZONE,26,116,55
India,Delhi,Delhi,"Dr. Karni Singh Shooting Range, Delhi - DPCC",20-03-2024 20:00:00,28.498571,77.264840,PM2.5,54,358,199
India,Delhi,Delhi,"Dr. Karni Singh Shooting Range, Delhi - DPCC",20-03-2024 20:00:00,28.498571,77.264840,PM10,91,294,194
India,Delhi,Delhi,"Dr. Karni Singh Shooting Range, Delhi - DPCC",20-03-2024 20:00:00,28.498571,77.264840,NH3,6,10,8
India,Delhi,Delhi,"Dr. Karni Singh Shooting Range, Delhi - DPCC",20-03-2024 20:00:00,28.498571,77.264840,CO,26,108,45
India,Delhi,Delhi,"IHBAS, Dilshad Garden, Delhi - CPCB",20-03-2024 20:00:00,28.6811736,77.3025234,NO2,29,53,39
India,Delhi,Delhi,"IHBAS, Dilshad Garden, Delhi - CPCB",20-03-2024 20:00:00,28.6811736,77.3025234,SO2,3,24,13
India,Delhi,Delhi,"Jawaharlal Nehru Stadium, Delhi - DPCC",20-03-2024 20:00:00,28.580280,77.233829,NH3,5,12,8
India,Delhi,Delhi,"Lodhi Road, Delhi - IITM",20-03-2024 20:00:00,28.588333,77.221667,OZONE,15,38,21
India,Delhi,Delhi,"Major Dhyan Chand National Stadium, Delhi - DPCC",20-03-2024 20:00:00,28.611281,77.237738,NH3,7,11,8
India,Delhi,Delhi,"Major Dhyan Chand National Stadium, Delhi - DPCC",20-03-2024 20:00:00,28.611281,77.237738,SO2,8,51,17
India,Delhi,Delhi,"Major Dhyan Chand National Stadium, Delhi - DPCC",20-03-2024 20:00:00,28.611281,77.237738,CO,35,109,44
India,Delhi,Delhi,"Mandir Marg, Delhi - DPCC",20-03-2024 20:00:00,28.636429,77.201067,PM2.5,32,323,179
India,Delhi,Delhi,"Mundka, Delhi - DPCC",20-03-2024 20:00:00,28.684678,77.076574,PM2.5,52,500,285
India,Delhi,Delhi,"Mundka, Delhi - DPCC",20-03-2024 20:00:00,28.684678,77.076574,NO2,19,103,52
India,Delhi,Delhi,"NSIT Dwarka, Delhi - CPCB",20-03-2024 20:00:00,28.60909,77.0325413,PM10,109,429,242
India,Delhi,Delhi,"Najafgarh, Delhi - DPCC",20-03-2024 20:00:00,28.570173,76.933762,SO2,8,15,11
India,Delhi,Delhi,"Nehru Nagar, Delhi - DPCC",20-03-2024 20:00:00,28.567890,77.250515,PM2.5,44,438,251
India,Delhi,Delhi,"New Moti Bagh, Delhi - MHUA",20-03-2024 20:00:00,28.57834,77.18400,NO2,1,6,3
India,Delhi,Delhi,"North Campus, DU, Delhi - IMD",20-03-2024 20:00:00,28.6573814,77.1585447,PM2.5,68,345,216
India,Delhi,Delhi,"North Campus, DU, Delhi - IMD",20-03-2024 20:00:00,28.6573814,77.1585447,CO,28,121,44
India,Delhi,Delhi,"North Campus, DU, Delhi - IMD",20-03-2024 20:00:00,28.6573814,77.1585447,OZONE,2,33,27
India,Delhi,Delhi,"Okhla Phase-2, Delhi - DPCC",20-03-2024 20:00:00,28.530785,77.271255,PM10,92,338,202
India,Delhi,Delhi,"Okhla Phase-2, Delhi - DPCC",20-03-2024 20:00:00,28.530785,77.271255,OZONE,10,128,95
India,Delhi,Delhi,"Pusa, Delhi - DPCC",20-03-2024 20:00:00,28.639652,77.146275,PM2.5,27,339,197
India,Delhi,Delhi,"Pusa, Delhi - DPCC",20-03-2024 20:00:00,28.639652,77.146275,PM10,62,420,222
India,Delhi,Delhi,"Pusa, Delhi - IMD",20-03-2024 20:00:00,28.636110,77.173332,NO2,NA,NA,NA
India,Delhi,Delhi,"R K Puram, Delhi - DPCC",20-03-2024 20:00:00,28.563262,77.186937,NH3,1,4,3
India,Delhi,Delhi,"R K Puram, Delhi - DPCC",20-03-2024 20:00:00,28.563262,77.186937,SO2,6,49,23
India,Delhi,Delhi,"Rohini, Delhi - DPCC",20-03-2024 20:00:00,28.732528,77.119920,SO2,8,85,26
India,Delhi,Delhi,"Shadipur, Delhi - CPCB",20-03-2024 20:00:00,28.6514781,77.1473105,CO,48,90,75
India,Delhi,Delhi,"Sonia Vihar, Delhi - DPCC",20-03-2024 20:00:00,28.710508,77.249485,PM2.5,42,320,216
India,Delhi,Delhi,"Sonia Vihar, Delhi - DPCC",20-03-2024 20:00:00,28.710508,77.249485,OZONE,23,168,155
India,Delhi,Delhi,"Sri Aurobindo Marg, Delhi - DPCC",20-03-2024 20:00:00,28.531346,77.190156,PM2.5,38,353,189
India,Delhi,Delhi,"Sri Aurobindo Marg, Delhi - DPCC",20-03-2024 20:00:00,28.531346,77.190156,NO2,20,103,61
India,Delhi,Delhi,"Sri Aurobindo Marg, Delhi - DPCC",20-03-2024 20:00:00,28.531346,77.190156,NH3,6,10,7
India,Delhi,Delhi,"Sri Aurobindo Marg, Delhi - DPCC",20-03-2024 20:00:00,28.531346,77.190156,CO,7,78,15
India,Delhi,Delhi,"Vivek Vihar, Delhi - DPCC",20-03-2024 20:00:00,28.672342,77.315260,PM2.5,NA,NA,NA
India,Delhi,Delhi,"Vivek Vihar, Delhi - DPCC",20-03-2024 20:00:00,28.672342,77.315260,CO,24,58,37
India,Delhi,Delhi,"Vivek Vihar, Delhi - DPCC",20-03-2024 20:00:00,28.672342,77.315260,OZONE,1,60,44
India,Delhi,Delhi,"Wazirpur, Delhi - DPCC",20-03-2024 20:00:00,28.699793,77.165453,CO,6,117,41
India,Gujarat,Ahmedabad,"Chandkheda, Ahmedabad - IITM",20-03-2024 20:00:00,23.107969,72.574648,NH3,15,15,15
India,Gujarat,Ahmedabad,"Chandkheda, Ahmedabad - IITM",20-03-2024 20:00:00,23.107969,72.574648,SO2,4,41,13
India,Gujarat,Ahmedabad,"Maninagar, Ahmedabad - GPCB",20-03-2024 20:00:00,23.002657,72.591912,NO2,25,139,60
India,Gujarat,Ahmedabad,"Maninagar, Ahmedabad - GPCB",20-03-2024 20:00:00,23.002657,72.591912,CO,8,106,57
India,Gujarat,Ahmedabad,"Maninagar, Ahmedabad - GPCB",20-03-2024 20:00:00,23.002657,72.591912,OZONE,5,43,26
India,Gujarat,Ahmedabad,"Raikhad, Ahmedabad - IITM",20-03-2024 20:00:00,23.020509,72.579261,NO2,16,182,70
India,Gujarat,Ahmedabad,"Rakhial, Ahmedabad - IITM",20-03-2024 20:00:00,23.016834,72.625775,SO2,5,10,7
India,Gujarat,Ahmedabad,"Rakhial, Ahmedabad - IITM",20-03-2024 20:00:00,23.016834,72.625775,CO,10,105,17
India,Gujarat,Ahmedabad,"Rakhial, Ahmedabad - IITM",20-03-2024 20:00:00,23.016834,72.625775,OZONE,3,83,55
India,Gujarat,Ahmedabad,"SAC ISRO Satellite, Ahmedabad - IITM",20-03-2024 20:00:00,23.023389,72.515201,PM2.5,129,135,133
India,Gujarat,Ahmedabad,"SVPI Airport Hansol, Ahmedabad - IITM",20-03-2024 20:00:00,23.076793,72.627874,CO,23,109,27
India,Gujarat,Ahmedabad,"Sardar Vallabhbhai Patel Stadium, Ahmedabad - IITM",20-03-2024 20:00:00,23.043070,72.562968,NH3,2,2,2
India,Gujarat,Ankleshwar,"GIDC, Ankleshwar - GPCB",20-03-2024 20:00:00,21.613267,73.010555,NO2,36,38,37
India,Gujarat,Gandhinagar,"GIFT City, Gandhinagar - IITM",20-03-2024 20:00:00,23.163798,72.677768,PM10,90,179,119
India,Gujarat,Gandhinagar,"GIFT City, Gandhinagar - IITM",20-03-2024 20:00:00,23.163798,72.677768,SO2,8,11,10
India,Gujarat,Gandhinagar,"Sector-10, Gandhinagar - GPCB",20-03-2024 20:00:00,23.221714,72.654328,PM2.5,29,73,49
India,Gujarat,Gandhinagar,"Sector-10, Gandhinagar - GPCB",20-03-2024 20:00:00,23.221714,72.654328,PM10,55,101,77
India,Gujarat,Gandhinagar,"Sector-10, Gandhinagar - GPCB",20-03-2024 20:00:00,23.221714,72.654328,SO2,4,29,10
India,Gujarat,Nandesari,"GIDC, Nandesari - Nandesari Ind. Association",20-03-2024 20:00:00,22.410802,73.097923,NO2,1,55,24
India,Gujarat,Surat,"Science Center, Surat - SMC",20-03-2024 20:00:00,21.170046,72.795405,NO2,32,50,40
India,Gujarat,Vapi,"Phase-1 GIDC, Vapi - GPCB",20-03-2024 20:00:00,20.362421,72.918013,CO,69,106,84
India,Gujarat,Vatva,"Phase-4 GIDC, Vatva - GPCB",20-03-2024 20:00:00,22.969611,72.643500,NO2,56,354,164
India,Gujarat,Vatva,"Phase-4 GIDC, Vatva - GPCB",20-03-2024 20:00:00,22.969611,72.643500,CO,7,135,21
India,Haryana,Ambala,"Patti Mehar, Ambala - HSPCB",20-03-2024 20:00:00,30.379589,76.778328,PM10,37,85,54
India,Haryana,Ambala,"Patti Mehar, Ambala - HSPCB",20-03-2024 20:00:00,30.379589,76.778328,OZONE,48,67,56
India,Haryana,Bahadurgarh,"Arya Nagar, Bahadurgarh - HSPCB",20-03-2024 20:00:00,28.6701,76.9254,PM10,50,192,133
India,Haryana,Bahadurgarh,"Arya Nagar, Bahadurgarh - HSPCB",20-03-2024 20:00:00,28.6701,76.9254,NO2,31,39,36
India,Haryana,Ballabgarh,"Nathu Colony, Ballabgarh - HSPCB",20-03-2024 20:00:00,28.3419248,77.319699,PM2.5,166,403,297
India,Haryana,Ballabgarh,"Nathu Colony, Ballabgarh - HSPCB",20-03-2024 20:00:00,28.3419248,77.319699,PM10,127,427,229
India,Haryana,Ballabgarh,"Nathu Colony, Ballabgarh - HSPCB",20-03-2024 20:00:00,28.3419248,77.319699,NH3,1,2,2
India,Haryana,Ballabgarh,"Nathu Colony, Ballabgarh - HSPCB",20-03-2024 20:00:00,28.3419248,77.319699,CO,34,117,61
India,Haryana,Bhiwani,"H.B. Colony, Bhiwani - HSPCB",20-03-2024 20:00:00,28.806223,76.141105,PM10,57,110,80
India,Haryana,Dharuhera,"Municipal Corporation Office, Dharuhera -  HSPCB",20-03-2024 20:00:00,28.206800,76.799700,OZONE,13,199,57
India,Haryana,Faridabad,"New Industrial Town, Faridabad - HSPCB",20-03-2024 20:00:00,28.39072,77.30059,NO2,14,43,20
India,Haryana,Faridabad,"New Industrial Town, Faridabad - HSPCB",20-03-2024 20:00:00,28.39072,77.30059,NH3,3,8,5
India,Haryana,Faridabad,"New Industrial Town, Faridabad - HSPCB",20-03-2024 20:00:00,28.39072,77.30059,OZONE,6,223,25
India,Haryana,Faridabad,"Sector 11, Faridabad - HSPCB",20-03-2024 20:00:00,28.376058,77.315741,NO2,30,32,31
India,Haryana,Faridabad,"Sector 11, Faridabad - HSPCB",20-03-2024 20:00:00,28.376058,77.315741,CO,34,68,42
India,Haryana,Fatehabad,"Huda Sector, Fatehabad - HSPCB",20-03-2024 20:00:00,29.503664,75.467934,PM2.5,44,97,70
India,Haryana,Fatehabad,"Huda Sector, Fatehabad - HSPCB",20-03-2024 20:00:00,29.503664,75.467934,SO2,5,14,9
India,Haryana,Gurugram,"Vikas Sadan, Gurugram - HSPCB",20-03-2024 20:00:00,28.4501238,77.0263051,NO2,5,25,14
India,Haryana,Gurugram,"Vikas Sadan, Gurugram - HSPCB",20-03-2024 20:00:00,28.4501238,77.0263051,SO2,22,56,37
India,Haryana,Hisar,"Urban Estate-II, Hisar - HSPCB",20-03-2024 20:00:00,29.140560,75.744941,PM2.5,25,117,69
India,Haryana,Hisar,"Urban Estate-II, Hisar - HSPCB",20-03-2024 20:00:00,29.140560,75.744941,PM10,52,126,98
India,Haryana,Hisar,"Urban Estate-II, Hisar - HSPCB",20-03-2024 20:00:00,29.140560,75.744941,SO2,NA,NA,NA
India,Haryana,Jind,"Police Lines, Jind - HSPCB",20-03-2024 20:00:00,29.307814,76.337619,PM2.5,38,88,61
India,Haryana,Jind,"Police Lines, Jind - HSPCB",20-03-2024 20:00:00,29.307814,76.337619,PM10,60,103,82
India,Haryana,Jind,"Police Lines, Jind - HSPCB",20-03-2024 20:00:00,29.307814,76.337619,NO2,7,15,11
India,Haryana,Jind,"Police Lines, Jind - HSPCB",20-03-2024 20:00:00,29.307814,76.337619,NH3,2,5,4
India,Haryana,Jind,"Police Lines, Jind - HSPCB",20-03-2024 20:00:00,29.307814,76.337619,SO2,4,31,19
India,Haryana,Karnal,"Sector-12, Karnal - HSPCB",20-03-2024 20:00:00,29.695300,77.002700,SO2,8,13,12
India,Haryana,Kurukshetra,"Sector-7, Kurukshetra - HSPCB",20-03-2024 20:00:00,29.966942,76.875879,CO,2,70,4
India,Haryana,Kurukshetra,"Sector-7, Kurukshetra - HSPCB",20-03-2024 20:00:00,29.966942,76.875879,OZONE,11,73,71
India,Haryana,Mandikhera,"General Hospital, Mandikhera - HSPCB",20-03-2024 20:00:00,27.9002,76.9938,PM2.5,17,54,34
India,Haryana,Mandikhera,"General Hospital, Mandikhera - HSPCB",20-03-2024 20:00:00,27.9002,76.9938,NO2,18,23,20
India,Haryana,Narnaul,"Shastri Nagar, Narnaul - HSPCB",20-03-2024 20:00:00,28.060249,76.113115,PM2.5,24,111,54
India,Haryana,Narnaul,"Shastri Nagar, Narnaul - HSPCB",20-03-2024 20:00:00,28.060249,76.113115,NH3,4,24,11
India,Haryana,Narnaul,"Shastri Nagar, Narnaul - HSPCB",20-03-2024 20:00:00,28.060249,76.113115,OZONE,32,52,44
India,Haryana,Palwal,"Shyam Nagar, Palwal - HSPCB",20-03-2024 20:00:00,28.1485564,77.3320667,PM10,96,155,122
India,Haryana,Palwal,"Shyam Nagar, Palwal - HSPCB",20-03-2024 20:00:00,28.1485564,77.3320667,NO2,23,24,24
India,Haryana,Palwal,"Shyam Nagar, Palwal - HSPCB",20-03-2024 20:00:00,28.1485564,77.3320667,NH3,8,9,9
India,Haryana,Panchkula,"Sector-6, Panchkula - HSPCB ",20-03-2024 20:00:00,30.7057778,76.8531805555555,CO,3,12,6
India,Haryana,Panipat,"Sector-18, Panipat - HSPCB",20-03-2024 20:00:00,29.497973,76.993331,NH3,2,3,3
India,Haryana,Sirsa,"F-Block, Sirsa - HSPCB",20-03-2024 20:00:00,29.536400,75.015800,PM10,62,144,97
India,Haryana,Sirsa,"F-Block, Sirsa - HSPCB",20-03-2024 20:00:00,29.536400,75.015800,NO2,10,10,10
India,Haryana,Sonipat,"Murthal, Sonipat - HSPCB",20-03-2024 20:00:00,29.027200,77.062100,SO2,13,29,20
India,Haryana,Sonipat,"Murthal, Sonipat - HSPCB",20-03-2024 20:00:00,29.027200,77.062100,OZONE,17,36,33
India,Haryana,Yamuna Nagar,"Gobind Pura, Yamuna Nagar - HSPCB",20-03-2024 20:00:00,30.1480566,77.2893471,NO2,11,29,19
India,Jharkhand,Dhanbad,"Kalakusuma, Dhanbad - DMC",20-03-2024 20:00:00,23.811548,86.481238,NO2,14,229,78
India,Jharkhand,Dhanbad,"Kalakusuma, Dhanbad - DMC",20-03-2024 20:00:00,23.811548,86.481238,OZONE,10,25,22
India,Jharkhand,Dhanbad,"Sardar Patel Nagar, Dhanbad - JSPCB",20-03-2024 20:00:00,23.80569,86.44268,PM10,NA,NA,NA
India,Jharkhand,Pathardih,"Mohalbani Ghat, Pathardih - DMC",20-03-2024 20:00:00,23.669880,86.411725,PM2.5,NA,NA,NA
India,Jharkhand,Pathardih,"Mohalbani Ghat, Pathardih - DMC",20-03-2024 20:00:00,23.669880,86.411725,NO2,NA,NA,NA
India,Karnataka,Bagalkot,"Vidayagiri, Bagalkot - KSPCB",20-03-2024 20:00:00,16.172806,75.659694,PM2.5,25,37,36
India,Karnataka,Bengaluru,"BTM Layout, Bengaluru - CPCB",20-03-2024 20:00:00,12.9135218,77.5950804,PM10,63,91,81
India,Karnataka,Bengaluru,"Hombegowda Nagar, Bengaluru - KSPCB",20-03-2024 20:00:00,12.938539,77.590100,PM10,84,132,103
India,Karnataka,Bengaluru,"Hombegowda Nagar, Bengaluru - KSPCB",20-03-2024 20:00:00,12.938539,77.590100,SO2,3,4,3
India,Karnataka,Bengaluru,"Hombegowda Nagar, Bengaluru - KSPCB",20-03-2024 20:00:00,12.938539,77.590100,CO,12,14,13
India,Karnataka,Bengaluru,"Jayanagar 5th Block, Bengaluru - KSPCB",20-03-2024 20:00:00,12.920984,77.584908,NH3,3,5,4
India,Karnataka,Bengaluru,"Jayanagar 5th Block, Bengaluru - KSPCB",20-03-2024 20:00:00,12.920984,77.584908,SO2,16,40,27
India,Karnataka,Bengaluru,"Jayanagar 5th Block, Bengaluru - KSPCB",20-03-2024 20:00:00,12.920984,77.584908,CO,14,54,24
India,Karnataka,Bengaluru,"Jigani, Bengaluru - KSPCB",20-03-2024 20:00:00,12.7816279,77.6299145,PM2.5,45,259,125
India,Karnataka,Bengaluru,"Jigani, Bengaluru - KSPCB",20-03-2024 20:00:00,12.7816279,77.6299145,PM10,63,141,103
India,Karnataka,Bengaluru,"Jigani, Bengaluru - KSPCB",20-03-2024 20:00:00,12.7816279,77.6299145,NO2,31,32,32
India,Karnataka,Bengaluru,"Kasturi Nagar, Bengaluru - KSPCB",20-03-2024 20:00:00,13.003872,77.664217,PM10,125,223,171
India,Karnataka,Bengaluru,"Peenya, Bengaluru - CPCB",20-03-2024 20:00:00,13.0270199,77.494094,NO2,10,24,14
India,Karnataka,Bengaluru,"RVCE-Mailasandra, Bengaluru - KSPCB",20-03-2024 20:00:00,12.921418,77.502466,SO2,10,22,16
India,Karnataka,Bengaluru,"Silk Board, Bengaluru - KSPCB",20-03-2024 20:00:00,12.917348,77.622813,PM2.5,66,122,84
India,Karnataka,Bengaluru,"Silk Board, Bengaluru - KSPCB",20-03-2024 20:00:00,12.917348,77.622813,PM10,87,131,106
India,Karnataka,Bengaluru,"Silk Board, Bengaluru - KSPCB",20-03-2024 20:00:00,12.917348,77.622813,OZONE,29,31,29
India,Karnataka,Bidar,"Naubad, Bidar - KSPCB",20-03-2024 20:00:00,17.930306,77.482194,PM2.5,33,88,66
India,Karnataka,Bidar,"Naubad, Bidar - KSPCB",20-03-2024 20:00:00,17.930306,77.482194,PM10,73,104,90
India,Karnataka,Chikkamagaluru,"Kalyana Nagara, Chikkamagaluru - KSPCB",20-03-2024 20:00:00,13.328028,75.797056,NO2,15,29,21
India,Karnataka,Chikkamagaluru,"Kalyana Nagara, Chikkamagaluru - KSPCB",20-03-2024 20:00:00,13.328028,75.797056,CO,11,116,40
India,Karnataka,Davanagere,"Devaraj Urs Badavane, Davanagere - KSPCB",20-03-2024 20:00:00,14.475800,75.905200,NH3,1,1,1
India,Karnataka,Davanagere,"Devaraj Urs Badavane, Davanagere - KSPCB",20-03-2024 20:00:00,14.475800,75.905200,CO,17,26,23
India,Karnataka,Hassan,"B.Katihalli, Hassan - KSPCB",20-03-2024 20:00:00,13.008556,76.125258,NO2,8,36,18
India,Karnataka,Hassan,"B.Katihalli, Hassan - KSPCB",20-03-2024 20:00:00,13.008556,76.125258,NH3,2,5,4
India,Karnataka,Haveri,"Ashwini Nagar, Haveri - KSPCB",20-03-2024 20:00:00,14.791800,75.389600,NO2,NA,NA,NA
India,Karnataka,Haveri,"Ashwini Nagar, Haveri - KSPCB",20-03-2024 20:00:00,14.791800,75.389600,OZONE,19,22,21
India,Karnataka,Kalaburagi,"Lal Bahadur Shastri Nagar, Kalaburagi - KSPCB",20-03-2024 20:00:00,17.321993,76.822628,PM2.5,5,117,33
India,Karnataka,Kalaburagi,"Lal Bahadur Shastri Nagar, Kalaburagi - KSPCB",20-03-2024 20:00:00,17.321993,76.822628,CO,36,46,37
India,Karnataka,Kalaburagi,"Mahatma Basaveswar Colony, Kalaburgi - KSPCB",20-03-2024 20:00:00,17.336318,76.847397,PM2.5,26,99,48
India,Karnataka,Karwar,"KHB Colony, Karwar - KSPCB",20-03-2024 20:00:00,14.816666,74.141003,PM2.5,75,247,106
India,Karnataka,Karwar,"KHB Colony, Karwar - KSPCB",20-03-2024 20:00:00,14.816666,74.141003,OZONE,21,22,21
