country,state,city,station,last_update,latitude,longitude,pollutant_id,pollutant_min,pollutant_max,pollutant_avg
India,Andhra_Pradesh,Amaravati,"Secretariat, Amaravati - APPCB",01-06-2024 06:00:00,16.5150833,80.5181667,PM10,66,138,106
India,Andhra_Pradesh,Amaravati,"Secretariat, Amaravati - APPCB",01-06-2024 06:00:00,16.5150833,80.5181667,SO2,13,21,15
India,Andhra_Pradesh,Amaravati,"Secretariat, Amaravati - APPCB",01-06-2024 06:00:00,16.5150833,80.5181667,OZONE,34,97,39
India,Andhra_Pradesh,Anantapur,"Gulzarpet, Anantapur - APPCB",01-06-2024 06:00:00,14.675886,77.593027,PM10,47,326,101
India,Andhra_Pradesh,Anantapur,"Gulzarpet, Anantapur - APPCB",01-06-2024 06:00:00,14.675886,77.593027,CO,26,57,35
India,Andhra_Pradesh,Anantapur,"Gulzarpet, Anantapur - APPCB",01-06-2024 06:00:00,14.675886,77.593027,OZONE,2,2,2
India,Andhra_Pradesh,Chittoor,"Gangineni Cheruvu, Chittoor - APPCB",01-06-2024 06:00:00,13.204880,79.097889,PM10,16,81,51
India,Andhra_Pradesh,Chittoor,"Gangineni Cheruvu, Chittoor - APPCB",01-06-2024 06:00:00,13.204880,79.097889,SO2,5,21,12
India,Andhra_Pradesh,Kadapa,"Yerramukkapalli, Kadapa - APPCB",01-06-2024 06:00:00,14.465052,78.824187,PM10,48,108,69
India,Andhra_Pradesh,Kadapa,"Yerramukkapalli, Kadapa - APPCB",01-06-2024 06:00:00,14.465052,78.824187,NH3,3,3,3
India,Andhra_Pradesh,Vijayawada,"HB Colony, Vijayawada - APPCB",01-06-2024 06:00:00,16.536107,80.594233,PM10,58,79,69
India,Andhra_Pradesh,Vijayawada,"HB Colony, Vijayawada - APPCB",01-06-2024 06:00:00,16.536107,80.594233,NH3,5,5,5
India,Andhra_Pradesh,Vijayawada,"Rajiv Gandhi Park, Vijayawada - APPCB",01-06-2024 06:00:00,16.509717,80.612222,PM10,58,82,70
India,Andhra_Pradesh,Vijayawada,"Rajiv Gandhi Park, Vijayawada - APPCB",01-06-2024 06:00:00,16.509717,80.612222,CO,42,42,42
India,Andhra_Pradesh,Vijayawada,"Rajiv Nagar, Vijayawada - APPCB",01-06-2024 06:00:00,16.554731,80.649110,NO2,10,10,10
India,Andhra_Pradesh,Vijayawada,"Rajiv Nagar, Vijayawada - APPCB",01-06-2024 06:00:00,16.554731,80.649110,SO2,14,24,17
India,Andhra_Pradesh,Vijayawada,"Rajiv Nagar, Vijayawada - APPCB",01-06-2024 06:00:00,16.554731,80.649110,CO,38,38,38
India,Arunachal_Pradesh,Naharlagun,"Naharlagun, Naharlagun - APSPCB",01-06-2024 06:00:00,27.103358,93.679645,PM10,2,49,26
India,Arunachal_Pradesh,Naharlagun,"Naharlagun, Naharlagun - APSPCB",01-06-2024 06:00:00,27.103358,93.679645,SO2,4,4,4
India,Arunachal_Pradesh,Naharlagun,"Naharlagun, Naharlagun - APSPCB",01-06-2024 06:00:00,27.103358,93.679645,OZONE,2,3,3
India,Assam,Byrnihat,"Central Academy for SFS, Byrnihat - PCBA",01-06-2024 06:00:00,26.071318,91.87488,SO2,8,42,26
India,Assam,Byrnihat,"Central Academy for SFS, Byrnihat - PCBA",01-06-2024 06:00:00,26.071318,91.87488,CO,4,22,6
India,Assam,Guwahati,"IITG, Guwahati - PCBA",01-06-2024 06:00:00,26.2028636,91.70046436,PM2.5,4,45,15
India,Assam,Guwahati,"IITG, Guwahati - PCBA",01-06-2024 06:00:00,26.2028636,91.70046436,NH3,5,5,5
India,Assam,Guwahati,"Pan Bazaar, Guwahati - PCBA",01-06-2024 06:00:00,26.187500,91.744194,CO,18,43,26
India,Assam,Guwahati,"Railway Colony, Guwahati - PCBA",01-06-2024 06:00:00,26.181742,91.78063,CO,20,66,26
India,Assam,Nagaon,"Christianpatty, Nagaon - PCBA",01-06-2024 06:00:00,26.349082,92.68449,PM2.5,48,143,72
India,Assam,Nalbari,"Bata Chowk, Nalbari - PCBA",01-06-2024 06:00:00,26.446912,91.439057,PM2.5,3,82,17
India,Assam,Nalbari,"Bata Chowk, Nalbari - PCBA",01-06-2024 06:00:00,26.446912,91.439057,CO,8,83,30
India,Assam,Nalbari,"Bata Chowk, Nalbari - PCBA",01-06-2024 06:00:00,26.446912,91.439057,OZONE,6,59,25
India,Assam,Silchar,"Tarapur, Silchar - PCBA",01-06-2024 06:00:00,24.82827,92.79525,PM10,44,44,44
India,Bihar,Araria,"Kharahiya Basti, Araria - BSPCB",01-06-2024 06:00:00,26.146529,87.454184,PM2.5,7,51,30
India,Bihar,Araria,"Kharahiya Basti, Araria - BSPCB",01-06-2024 06:00:00,26.146529,87.454184,OZONE,1,10,8
India,Bihar,Arrah,"New DM Office, Arrah - BSPCB",01-06-2024 06:00:00,25.5626095,84.663264,PM10,26,103,57
India,Bihar,Aurangabad,"Gurdeo Nagar, Aurangabad - BSPCB",01-06-2024 06:00:00,24.75746,84.366208,NO2,2,37,14
India,Bihar,Aurangabad,"Gurdeo Nagar, Aurangabad - BSPCB",01-06-2024 06:00:00,24.75746,84.366208,CO,12,31,17
India,Bihar,Bhagalpur,"DM Office_Kachari Chowk, Bhagalpur - BSPCB",01-06-2024 06:00:00,25.251013,86.989001,PM10,16,107,68
India,Bihar,Bhagalpur,"Mayaganj, Bhagalpur - BSPCB",01-06-2024 06:00:00,25.265194,87.012947,PM10,27,108,64
India,Bihar,Bhagalpur,"Mayaganj, Bhagalpur - BSPCB",01-06-2024 06:00:00,25.265194,87.012947,SO2,9,12,12
India,Bihar,Bhagalpur,"Mayaganj, Bhagalpur - BSPCB",01-06-2024 06:00:00,25.265194,87.012947,OZONE,12,20,13
India,Bihar,Bihar Sharif,"D M Colony, Bihar Sharif - BSPCB",01-06-2024 06:00:00,25.204762,85.514960,NO2,10,13,11
India,Bihar,Bihar Sharif,"D M Colony, Bihar Sharif - BSPCB",01-06-2024 06:00:00,25.204762,85.514960,NH3,3,5,4
India,Bihar,Gaya,"Collectorate, Gaya - BSPCB",01-06-2024 06:00:00,24.7955,84.9994,PM2.5,35,247,96
India,Bihar,Gaya,"Collectorate, Gaya - BSPCB",01-06-2024 06:00:00,24.7955,84.9994,OZONE,41,83,63
India,Bihar,Gaya,"Kareemganj, Gaya - BSPCB",01-06-2024 06:00:00,24.792403,84.992416,SO2,9,10,10
India,Bihar,Gaya,"SFTI Kusdihra, Gaya - BSPCB",01-06-2024 06:00:00,24.762518,84.982348,NH3,2,5,3
India,Bihar,Hajipur,"Industrial Area, Hajipur - BSPCB",01-06-2024 06:00:00,25.697189,85.245900,NO2,13,34,23
India,Bihar,Katihar,"Mirchaibari, Katihar - BSPCB",01-06-2024 06:00:00,25.560083,87.553265,CO,23,40,26
India,Bihar,Motihari,"Gandak Colony, Motihari - BSPCB",01-06-2024 06:00:00,26.63086,84.90051,PM2.5,17,47,29
India,Bihar,Motihari,"Gandak Colony, Motihari - BSPCB",01-06-2024 06:00:00,26.63086,84.90051,PM10,22,62,39
India,Bihar,Motihari,"Gandak Colony, Motihari - BSPCB",01-06-2024 06:00:00,26.63086,84.90051,CO,10,42,17
India,Bihar,Munger,"Town Hall, Munger - BSPCB",01-06-2024 06:00:00,25.376776,86.471523,PM2.5,22,127,63
India,Bihar,Munger,"Town Hall, Munger - BSPCB",01-06-2024 06:00:00,25.376776,86.471523,NO2,4,6,5
India,Bihar,Munger,"Town Hall, Munger - BSPCB",01-06-2024 06:00:00,25.376776,86.471523,CO,5,95,28
India,Bihar,Muzaffarpur,"Buddha Colony, Muzaffarpur - BSPCB",01-06-2024 06:00:00,26.11442,85.39813,NH3,4,10,7
India,Bihar,Muzaffarpur,"Buddha Colony, Muzaffarpur - BSPCB",01-06-2024 06:00:00,26.11442,85.39813,OZONE,70,262,100
India,Bihar,Muzaffarpur,"MIT-Daudpur Kothi, Muzaffarpur - BSPCB",01-06-2024 06:00:00,26.1403345,85.3650192,CO,6,55,34
India,Bihar,Patna,"DRM Office Danapur, Patna - BSPCB",01-06-2024 06:00:00,25.586562,85.043586,PM2.5,18,171,72
India,Bihar,Patna,"DRM Office Danapur, Patna - BSPCB",01-06-2024 06:00:00,25.586562,85.043586,NO2,16,19,17
India,Bihar,Patna,"DRM Office Danapur, Patna - BSPCB",01-06-2024 06:00:00,25.586562,85.043586,OZONE,12,47,19
India,Bihar,Patna,"Govt. High School Shikarpur, Patna - BSPCB",01-06-2024 06:00:00,25.592539,85.227158,NO2,18,40,35
India,Bihar,Patna,"Govt. High School Shikarpur, Patna - BSPCB",01-06-2024 06:00:00,25.592539,85.227158,NH3,4,5,4
India,Bihar,Patna,"IGSC Planetarium Complex, Patna - BSPCB",01-06-2024 06:00:00,25.610369,85.132568,SO2,5,6,5
India,Bihar,Patna,"IGSC Planetarium Complex, Patna - BSPCB",01-06-2024 06:00:00,25.610369,85.132568,OZONE,32,90,59
India,Bihar,Patna,"Muradpur, Patna - BSPCB",01-06-2024 06:00:00,25.619651,85.147382,NH3,11,15,14
India,Bihar,Patna,"Muradpur, Patna - BSPCB",01-06-2024 06:00:00,25.619651,85.147382,SO2,5,8,6
India,Bihar,Patna,"Rajbansi Nagar, Patna - BSPCB",01-06-2024 06:00:00,25.599486,85.113666,NO2,12,38,19
India,Bihar,Patna,"Rajbansi Nagar, Patna - BSPCB",01-06-2024 06:00:00,25.599486,85.113666,OZONE,8,62,14
India,Bihar,Patna,"Samanpura, Patna - BSPCB",01-06-2024 06:00:00,25.596727,85.085624,PM10,67,130,104
India,Bihar,Patna,"Samanpura, Patna - BSPCB",01-06-2024 06:00:00,25.596727,85.085624,SO2,4,9,5
India,Bihar,Rajgir,"Dangi Tola, Rajgir - BSPCB",01-06-2024 06:00:00,25.03280,85.41948,NH3,2,2,2
India,Bihar,Saharsa,"Police Line, Saharsa - BSPCB",01-06-2024 06:00:00,25.892357,86.590325,PM10,NA,NA,NA
India,Bihar,Saharsa,"Police Line, Saharsa - BSPCB",01-06-2024 06:00:00,25.892357,86.590325,SO2,16,16,16
India,Bihar,Samastipur,"DM Office_Kasipur, Samastipur - BSPCB",01-06-2024 06:00:00,25.859655,85.77944,PM10,NA,NA,NA
India,Bihar,Sasaram,"Dada Peer, Sasaram - BSPCB",01-06-2024 06:00:00,24.952822,84.002396,PM2.5,13,61,26
India,Bihar,Sasaram,"Dada Peer, Sasaram - BSPCB",01-06-2024 06:00:00,24.952822,84.002396,PM10,34,144,68
India,Bihar,Sasaram,"Dada Peer, Sasaram - BSPCB",01-06-2024 06:00:00,24.952822,84.002396,CO,48,105,78
India,Bihar,Siwan,"Chitragupta Nagar, Siwan - BSPCB",01-06-2024 06:00:00,26.2271665,84.3570427,PM2.5,NA,NA,NA
India,Bihar,Siwan,"Chitragupta Nagar, Siwan - BSPCB",01-06-2024 06:00:00,26.2271665,84.3570427,NH3,1,2,1
India,Bihar,Siwan,"Chitragupta Nagar, Siwan - BSPCB",01-06-2024 06:00:00,26.2271665,84.3570427,OZONE,6,67,18
India,Chandigarh,Chandigarh,"Sector 22, Chandigarh - CPCC",01-06-2024 06:00:00,30.735567,76.775714,PM10,77,185,126
India,Chandigarh,Chandigarh,"Sector 22, Chandigarh - CPCC",01-06-2024 06:00:00,30.735567,76.775714,NH3,8,40,15
India,Chandigarh,Chandigarh,"Sector 22, Chandigarh - CPCC",01-06-2024 06:00:00,30.735567,76.775714,OZONE,4,251,38
India,Chandigarh,Chandigarh,"Sector-25, Chandigarh - CPCC",01-06-2024 06:00:00,30.751462,76.762879,PM2.5,98,228,166
India,Chandigarh,Chandigarh,"Sector-25, Chandigarh - CPCC",01-06-2024 06:00:00,30.751462,76.762879,PM10,106,379,164
India,Chandigarh,Chandigarh,"Sector-25, Chandigarh - CPCC",01-06-2024 06:00:00,30.751462,76.762879,CO,10,62,51
India,Chandigarh,Chandigarh,"Sector-53, Chandigarh - CPCC",01-06-2024 06:00:00,30.719859,76.738637,CO,31,119,70
India,Chhattisgarh,Bhilai,"Civic Center, Bhilai - Bhilai Steel Plant",01-06-2024 06:00:00,21.185571,81.343175,CO,17,57,39
India,Chhattisgarh,Bilaspur,"Mangala, Bilaspur - NTPC",01-06-2024 06:00:00,22.08815,82.13737,NO2,16,19,17
India,Chhattisgarh,Bilaspur,"Mangala, Bilaspur - NTPC",01-06-2024 06:00:00,22.08815,82.13737,CO,28,40,36
India,Chhattisgarh,Chhal,"Nawapara SECL Colony, Chhal - CECB",01-06-2024 06:00:00,22.118125,83.140608,NO2,13,44,23
India,Chhattisgarh,Chhal,"Nawapara SECL Colony, Chhal - CECB",01-06-2024 06:00:00,22.118125,83.140608,SO2,10,57,22
India,Chhattisgarh,Korba,"Rampur, Korba - CECB",01-06-2024 06:00:00,22.368195,82.746431,NO2,16,39,27
India,Chhattisgarh,Korba,"Rampur, Korba - CECB",01-06-2024 06:00:00,22.368195,82.746431,OZONE,8,31,12
India,Chhattisgarh,Milupara,"Govt. Higher Secondary School, Milupara - CECB",01-06-2024 06:00:00,22.1910172,83.5197009,PM10,49,102,79
India,Chhattisgarh,Milupara,"Govt. Higher Secondary School, Milupara - CECB",01-06-2024 06:00:00,22.1910172,83.5197009,SO2,11,33,17
India,Chhattisgarh,Milupara,"Govt. Higher Secondary School, Milupara - CECB",01-06-2024 06:00:00,22.1910172,83.5197009,CO,14,60,30
India,Chhattisgarh,Raipur,"Bhatagaon New ISBT, Raipur - CECB",01-06-2024 06:00:00,21.219665,81.630094,NH3,2,3,3
India,Chhattisgarh,Raipur,"Bhatagaon New ISBT, Raipur - CECB",01-06-2024 06:00:00,21.219665,81.630094,SO2,1,3,2
India,Chhattisgarh,Raipur,"Krishak Nagar, Raipur - CECB",01-06-2024 06:00:00,21.237755,81.705301,PM10,60,106,82
India,Chhattisgarh,Raipur,"Siltara Phase-II, Raipur - CECB",01-06-2024 06:00:00,21.371751,81.664929,NH3,3,3,3
India,Chhattisgarh,Tumidih,"OP Jindal Industrial Park, Tumidih - CECB",01-06-2024 06:00:00,22.06631475,83.33820077,PM10,42,157,93
India,Chhattisgarh,Tumidih,"OP Jindal Industrial Park, Tumidih - CECB",01-06-2024 06:00:00,22.06631475,83.33820077,NH3,1,1,1
India,Chhattisgarh,Tumidih,"OP Jindal Industrial Park, Tumidih - CECB",01-06-2024 06:00:00,22.06631475,83.33820077,SO2,5,11,7
India,Delhi,Delhi,"Alipur, Delhi - DPCC",01-06-2024 06:00:00,28.815329,77.153010,CO,25,104,82
India,Delhi,Delhi,"Anand Vihar, Delhi - DPCC",01-06-2024 06:00:00,28.647622,77.3158090,PM10,174,447,294
India,Delhi,Delhi,"Anand Vihar, Delhi - DPCC",01-06-2024 06:00:00,28.647622,77.3158090,CO,68,143,119
India,Delhi,Delhi,"Aya Nagar, Delhi - IMD",01-06-2024 06:00:00,28.4706914,77.1099364,OZONE,3,71,11
India,Delhi,Delhi,"Bawana, Delhi - DPCC",01-06-2024 06:00:00,28.776200,77.051074,PM10,152,487,293
India,Delhi,Delhi,"Bawana, Delhi - DPCC",01-06-2024 06:00:00,28.776200,77.051074,SO2,18,113,44
India,Delhi,Delhi,"Bawana, Delhi - DPCC",01-06-2024 06:00:00,28.776200,77.051074,OZONE,3,194,10
India,Delhi,Delhi,"Burari Crossing, Delhi - IMD",01-06-2024 06:00:00,28.7256504,77.2011573,PM2.5,74,366,183
India,Delhi,Delhi,"DTU, Delhi - CPCB",01-06-2024 06:00:00,28.7500499,77.1112615,CO,8,104,68
India,Delhi,Delhi,"Dr. Karni Singh Shooting Range, Delhi - DPCC",01-06-2024 06:00:00,28.498571,77.264840,NH3,6,7,6
India,Delhi,Delhi,"Dr. Karni Singh Shooting Range, Delhi - DPCC",01-06-2024 06:00:00,28.498571,77.264840,OZONE,22,265,73
India,Delhi,Delhi,"IGI Airport (T3), Delhi - IMD",01-06-2024 06:00:00,28.5627763,77.1180053,PM10,89,304,159
India,Delhi,Delhi,"IGI Airport (T3), Delhi - IMD",01-06-2024 06:00:00,28.5627763,77.1180053,CO,37,112,91
India,Delhi,Delhi,"IHBAS, Dilshad Garden, Delhi - CPCB",01-06-2024 06:00:00,28.6811736,77.3025234,PM2.5,67,309,152
India,Delhi,Delhi,"IHBAS, Dilshad Garden, Delhi - CPCB",01-06-2024 06:00:00,28.6811736,77.3025234,PM10,126,178,155
India,Delhi,Delhi,"IHBAS, Dilshad Garden, Delhi - CPCB",01-06-2024 06:00:00,28.6811736,77.3025234,SO2,1,21,13
India,Delhi,Delhi,"ITO, Delhi - CPCB",01-06-2024 06:00:00,28.628624,77.241060,PM2.5,133,290,219
India,Delhi,Delhi,"ITO, Delhi - CPCB",01-06-2024 06:00:00,28.628624,77.241060,NO2,18,97,58
India,Delhi,Delhi,"Lodhi Road, Delhi - IITM",01-06-2024 06:00:00,28.588333,77.221667,PM2.5,49,316,126
India,Delhi,Delhi,"Major Dhyan Chand National Stadium, Delhi - DPCC",01-06-2024 06:00:00,28.611281,77.237738,PM10,NA,NA,NA
India,Delhi,Delhi,"Mandir Marg, Delhi - DPCC",01-06-2024 06:00:00,28.636429,77.201067,OZONE,9,143,24
India,Delhi,Delhi,"Mundka, Delhi - DPCC",01-06-2024 06:00:00,28.684678,77.076574,SO2,8,44,22
India,Delhi,Delhi,"NSIT Dwarka, Delhi - CPCB",01-06-2024 06:00:00,28.60909,77.0325413,NO2,48,89,61
India,Delhi,Delhi,"NSIT Dwarka, Delhi - CPCB",01-06-2024 06:00:00,28.60909,77.0325413,OZONE,10,86,18
India,Delhi,Delhi,"Najafgarh, Delhi - DPCC",01-06-2024 06:00:00,28.570173,76.933762,PM10,105,268,172
India,Delhi,Delhi,"Najafgarh, Delhi - DPCC",01-06-2024 06:00:00,28.570173,76.933762,SO2,11,27,19
India,Delhi,Delhi,"Narela, Delhi - DPCC",01-06-2024 06:00:00,28.822836,77.101981,PM2.5,43,344,194
India,Delhi,Delhi,"Nehru Nagar, Delhi - DPCC",01-06-2024 06:00:00,28.567890,77.250515,NO2,8,115,47
India,Delhi,Delhi,"Nehru Nagar, Delhi - DPCC",01-06-2024 06:00:00,28.567890,77.250515,SO2,4,10,8
India,Delhi,Delhi,"Okhla Phase-2, Delhi - DPCC",01-06-2024 06:00:00,28.530785,77.271255,NH3,10,17,13
India,Delhi,Delhi,"Patparganj, Delhi - DPCC",01-06-2024 06:00:00,28.623763,77.287209,PM10,167,414,262
India,Delhi,Delhi,"Punjabi Bagh, Delhi - DPCC",01-06-2024 06:00:00,28.674045,77.131023,PM10,119,370,218
India,Delhi,Delhi,"Punjabi Bagh, Delhi - DPCC",01-06-2024 06:00:00,28.674045,77.131023,NO2,16,143,67
India,Delhi,Delhi,"Punjabi Bagh, Delhi - DPCC",01-06-2024 06:00:00,28.674045,77.131023,SO2,14,38,26
India,Delhi,Delhi,"Pusa, Delhi - DPCC",01-06-2024 06:00:00,28.639652,77.146275,SO2,5,23,14
India,Delhi,Delhi,"Pusa, Delhi - DPCC",01-06-2024 06:00:00,28.639652,77.146275,OZONE,6,154,12
India,Delhi,Delhi,"Pusa, Delhi - IMD",01-06-2024 06:00:00,28.636110,77.173332,NO2,15,69,39
India,Delhi,Delhi,"R K Puram, Delhi - DPCC",01-06-2024 06:00:00,28.563262,77.186937,NO2,20,196,96
India,Delhi,Delhi,"R K Puram, Delhi - DPCC",01-06-2024 06:00:00,28.563262,77.186937,NH3,5,11,8
India,Delhi,Delhi,"R K Puram, Delhi - DPCC",01-06-2024 06:00:00,28.563262,77.186937,CO,12,148,96
India,Delhi,Delhi,"Shadipur, Delhi - CPCB",01-06-2024 06:00:00,28.6514781,77.1473105,CO,40,182,50
India,Delhi,Delhi,"Sirifort, Delhi - CPCB",01-06-2024 06:00:00,28.5504249,77.2159377,SO2,41,48,44
India,Delhi,Delhi,"Sirifort, Delhi - CPCB",01-06-2024 06:00:00,28.5504249,77.2159377,CO,12,120,100
India,Delhi,Delhi,"Sonia Vihar, Delhi - DPCC",01-06-2024 06:00:00,28.710508,77.249485,PM10,141,431,240
India,Delhi,Delhi,"Sonia Vihar, Delhi - DPCC",01-06-2024 06:00:00,28.710508,77.249485,CO,14,142,96
India,Delhi,Delhi,"Sonia Vihar, Delhi - DPCC",01-06-2024 06:00:00,28.710508,77.249485,OZONE,3,235,10
India,Delhi,Delhi,"Sri Aurobindo Marg, Delhi - DPCC",01-06-2024 06:00:00,28.531346,77.190156,PM2.5,52,170,85
India,Delhi,Delhi,"Sri Aurobindo Marg, Delhi - DPCC",01-06-2024 06:00:00,28.531346,77.190156,NH3,6,16,9
India,Delhi,Delhi,"Sri Aurobindo Marg, Delhi - DPCC",01-06-2024 06:00:00,28.531346,77.190156,OZONE,1,154,9
India,Delhi,Delhi,"Vivek Vihar, Delhi - DPCC",01-06-2024 06:00:00,28.672342,77.315260,NO2,29,173,79
India,Delhi,Delhi,"Wazirpur, Delhi - DPCC",01-06-2024 06:00:00,28.699793,77.165453,SO2,17,65,28
India,Delhi,Delhi,"Wazirpur, Delhi - DPCC",01-06-2024 06:00:00,28.699793,77.165453,OZONE,1,61,4
India,Gujarat,Ahmedabad,"Chandkheda, Ahmedabad - IITM",01-06-2024 06:00:00,23.107969,72.574648,SO2,5,31,25
India,Gujarat,Ahmedabad,"Gyaspur, Ahmedabad - IITM",01-06-2024 06:00:00,22.977134,72.553024,PM10,82,182,128
India,Gujarat,Ahmedabad,"Gyaspur, Ahmedabad - IITM",01-06-2024 06:00:00,22.977134,72.553024,SO2,27,29,27
India,Gujarat,Ahmedabad,"Maninagar, Ahmedabad - GPCB",01-06-2024 06:00:00,23.002657,72.591912,PM2.5,NA,NA,NA
India,Gujarat,Ahmedabad,"Sardar Vallabhbhai Patel Stadium, Ahmedabad - IITM",01-06-2024 06:00:00,23.043070,72.562968,SO2,16,27,20
India,Gujarat,Ankleshwar,"GIDC, Ankleshwar - GPCB",01-06-2024 06:00:00,21.613267,73.010555,PM2.5,18,60,33
India,Gujarat,Gandhinagar,"GIFT City, Gandhinagar - IITM",01-06-2024 06:00:00,23.163798,72.677768,NH3,7,9,8
India,Gujarat,Gandhinagar,"Sector-10, Gandhinagar - GPCB",01-06-2024 06:00:00,23.221714,72.654328,PM2.5,39,70,52
India,Gujarat,Vatva,"Phase-4 GIDC, Vatva - GPCB",01-06-2024 06:00:00,22.969611,72.643500,CO,34,36,35
India,Haryana,Ambala,"Patti Mehar, Ambala - HSPCB",01-06-2024 06:00:00,30.379589,76.778328,CO,30,60,38
India,Haryana,Ballabgarh,"Nathu Colony, Ballabgarh - HSPCB",01-06-2024 06:00:00,28.3419248,77.319699,SO2,5,108,19
India,Haryana,Ballabgarh,"Nathu Colony, Ballabgarh - HSPCB",01-06-2024 06:00:00,28.3419248,77.319699,OZONE,9,59,14
India,Haryana,Bhiwani,"H.B. Colony, Bhiwani - HSPCB",01-06-2024 06:00:00,28.806223,76.141105,PM10,85,141,115
India,Haryana,Bhiwani,"H.B. Colony, Bhiwani - HSPCB",01-06-2024 06:00:00,28.806223,76.141105,CO,55,88,68
India,Haryana,Bhiwani,"H.B. Colony, Bhiwani - HSPCB",01-06-2024 06:00:00,28.806223,76.141105,OZONE,6,63,12
India,Haryana,Charkhi Dadri,"Mini Secretariat, Charkhi Dadri - HSPCB",01-06-2024 06:00:00,28.593883,76.270653,NH3,6,8,7
India,Haryana,Charkhi Dadri,"Mini Secretariat, Charkhi Dadri - HSPCB",01-06-2024 06:00:00,28.593883,76.270653,CO,11,84,37
India,Haryana,Faridabad,"Sector 11, Faridabad - HSPCB",01-06-2024 06:00:00,28.376058,77.315741,PM2.5,98,314,219
India,Haryana,Faridabad,"Sector 11, Faridabad - HSPCB",01-06-2024 06:00:00,28.376058,77.315741,OZONE,5,32,8
India,Haryana,Faridabad,"Sector 30, Faridabad - HSPCB",01-06-2024 06:00:00,28.4417,77.3217,PM2.5,216,255,235
India,Haryana,Faridabad,"Sector 30, Faridabad - HSPCB",01-06-2024 06:00:00,28.4417,77.3217,NO2,3,32,10
India,Haryana,Faridabad,"Sector 30, Faridabad - HSPCB",01-06-2024 06:00:00,28.4417,77.3217,NH3,4,12,6
India,Haryana,Faridabad,"Sector- 16A, Faridabad - HSPCB",01-06-2024 06:00:00,28.4088421,77.3099081,NO2,1,20,10
India,Haryana,Faridabad,"Sector- 16A, Faridabad - HSPCB",01-06-2024 06:00:00,28.4088421,77.3099081,CO,35,102,66
India,Haryana,Gurugram,"Sector-51, Gurugram - HSPCB",01-06-2024 06:00:00,28.4227,77.0667,CO,20,110,88
India,Haryana,Gurugram,"Sector-51, Gurugram - HSPCB",01-06-2024 06:00:00,28.4227,77.0667,OZONE,29,67,30
India,Haryana,Gurugram,"Teri Gram, Gurugram - HSPCB",01-06-2024 06:00:00,28.4275,77.1465,NO2,14,45,32
India,Haryana,Gurugram,"Teri Gram, Gurugram - HSPCB",01-06-2024 06:00:00,28.4275,77.1465,SO2,4,7,6
India,Haryana,Gurugram,"Teri Gram, Gurugram - HSPCB",01-06-2024 06:00:00,28.4275,77.1465,OZONE,11,150,37
India,Haryana,Gurugram,"Vikas Sadan, Gurugram - HSPCB",01-06-2024 06:00:00,28.4501238,77.0263051,CO,68,151,102
India,Haryana,Hisar,"Urban Estate-II, Hisar - HSPCB",01-06-2024 06:00:00,29.140560,75.744941,PM10,91,188,132
India,Haryana,Hisar,"Urban Estate-II, Hisar - HSPCB",01-06-2024 06:00:00,29.140560,75.744941,SO2,NA,NA,NA
India,Haryana,Jind,"Police Lines, Jind - HSPCB",01-06-2024 06:00:00,29.307814,76.337619,NH3,NA,NA,NA
India,Haryana,Kaithal,"Rishi Nagar, Kaithal - HSPCB",01-06-2024 06:00:00,29.8006,76.4155,PM10,128,484,250
India,Haryana,Kaithal,"Rishi Nagar, Kaithal - HSPCB",01-06-2024 06:00:00,29.8006,76.4155,OZONE,12,35,14
India,Haryana,Karnal,"Sector-12, Karnal - HSPCB",01-06-2024 06:00:00,29.695300,77.002700,OZONE,27,34,28
India,Haryana,Kurukshetra,"Sector-7, Kurukshetra - HSPCB",01-06-2024 06:00:00,29.966942,76.875879,PM2.5,82,326,174
India,Haryana,Kurukshetra,"Sector-7, Kurukshetra - HSPCB",01-06-2024 06:00:00,29.966942,76.875879,NH3,2,5,5
India,Haryana,Mandikhera,"General Hospital, Mandikhera - HSPCB",01-06-2024 06:00:00,27.9002,76.9938,SO2,31,38,34
India,Haryana,Manesar,"Sector-2 IMT, Manesar - HSPCB",01-06-2024 06:00:00,28.360699,76.936090,OZONE,6,99,23
India,Haryana,Narnaul,"Shastri Nagar, Narnaul - HSPCB",01-06-2024 06:00:00,28.060249,76.113115,PM2.5,13,88,44
India,Haryana,Narnaul,"Shastri Nagar, Narnaul - HSPCB",01-06-2024 06:00:00,28.060249,76.113115,SO2,12,58,29
India,Haryana,Palwal,"Shyam Nagar, Palwal - HSPCB",01-06-2024 06:00:00,28.1485564,77.3320667,PM2.5,59,99,75
India,Haryana,Palwal,"Shyam Nagar, Palwal - HSPCB",01-06-2024 06:00:00,28.1485564,77.3320667,NO2,23,25,24
India,Haryana,Palwal,"Shyam Nagar, Palwal - HSPCB",01-06-2024 06:00:00,28.1485564,77.3320667,CO,14,42,32
India,Haryana,Panchkula,"Sector-6, Panchkula - HSPCB ",01-06-2024 06:00:00,30.7057778,76.8531805555555,CO,6,26,24
India,Haryana,Panipat,"Sector-18, Panipat - HSPCB",01-06-2024 06:00:00,29.432304,76.972765,PM10,101,103,102
India,Haryana,Panipat,"Sector-18, Panipat - HSPCB",01-06-2024 06:00:00,29.432304,76.972765,SO2,18,19,19
India,Haryana,Panipat,"Sector-18, Panipat - HSPCB",01-06-2024 06:00:00,29.432304,76.972765,OZONE,30,30,30
India,Haryana,Rohtak,"MD University, Rohtak - HSPCB",01-06-2024 06:00:00,28.52123,76.37138,PM2.5,5,486,249
India,Haryana,Rohtak,"MD University, Rohtak - HSPCB",01-06-2024 06:00:00,28.52123,76.37138,SO2,6,8,7
India,Haryana,Rohtak,"MD University, Rohtak - HSPCB",01-06-2024 06:00:00,28.52123,76.37138,OZONE,45,55,49
India,Haryana,Sirsa,"F-Block, Sirsa - HSPCB",01-06-2024 06:00:00,29.536400,75.015800,NO2,9,11,10
India,Haryana,Sirsa,"F-Block, Sirsa - HSPCB",01-06-2024 06:00:00,29.536400,75.015800,NH3,12,13,13
India,Haryana,Yamuna Nagar,"Gobind Pura, Yamuna Nagar - HSPCB",01-06-2024 06:00:00,30.1480566,77.2893471,NO2,11,20,16
India,Himachal Pradesh,Baddi,"HIMUDA Complex Phase-1, Baddi - HPPCB",01-06-2024 06:00:00,30.943887,76.801991,PM10,96,205,138
India,Himachal Pradesh,Baddi,"HIMUDA Complex Phase-1, Baddi - HPPCB",01-06-2024 06:00:00,30.943887,76.801991,NO2,8,79,29
India,Jharkhand,Dhanbad,"Sardar Patel Nagar, Dhanbad - JSPCB",01-06-2024 06:00:00,23.80569,86.44268,PM10,NA,NA,NA
India,Karnataka,Belgaum,"Ramteerth Nagar, Belgaum - KSPCB",01-06-2024 06:00:00,15.888653,74.541751,PM10,22,64,33
India,Karnataka,Belgaum,"Ramteerth Nagar, Belgaum - KSPCB",01-06-2024 06:00:00,15.888653,74.541751,NH3,6,11,9
India,Karnataka,Bengaluru,"Bapuji Nagar, Bengaluru - KSPCB",01-06-2024 06:00:00,12.951913,77.539784,CO,3,94,34
India,Karnataka,Bengaluru,"Hebbal, Bengaluru - KSPCB",01-06-2024 06:00:00,13.029152,77.585901,NO2,4,5,5
India,Karnataka,Bengaluru,"Hombegowda Nagar, Bengaluru - KSPCB",01-06-2024 06:00:00,12.938539,77.590100,PM2.5,22,62,39
India,Karnataka,Bengaluru,"Hombegowda Nagar, Bengaluru - KSPCB",01-06-2024 06:00:00,12.938539,77.590100,NO2,8,34,18
India,Karnataka,Bengaluru,"Hombegowda Nagar, Bengaluru - KSPCB",01-06-2024 06:00:00,12.938539,77.590100,NH3,1,2,1
India,Karnataka,Bengaluru,"Hombegowda Nagar, Bengaluru - KSPCB",01-06-2024 06:00:00,12.938539,77.590100,OZONE,10,42,18
India,Karnataka,Bengaluru,"Jayanagar 5th Block, Bengaluru - KSPCB",01-06-2024 06:00:00,12.920984,77.584908,PM10,34,111,73
India,Karnataka,Bengaluru,"Jayanagar 5th Block, Bengaluru - KSPCB",01-06-2024 06:00:00,12.920984,77.584908,NO2,10,18,13
India,Karnataka,Bengaluru,"Jayanagar 5th Block, Bengaluru - KSPCB",01-06-2024 06:00:00,12.920984,77.584908,SO2,6,16,12
India,Karnataka,Bengaluru,"Jayanagar 5th Block, Bengaluru - KSPCB",01-06-2024 06:00:00,12.920984,77.584908,CO,21,22,21
India,Karnataka,Bengaluru,"Jigani, Bengaluru - KSPCB",01-06-2024 06:00:00,12.7816279,77.6299145,PM2.5,39,41,40
India,Karnataka,Bengaluru,"Jigani, Bengaluru - KSPCB",01-06-2024 06:00:00,12.7816279,77.6299145,NH3,3,4,3
India,Karnataka,Bengaluru,"Jigani, Bengaluru - KSPCB",01-06-2024 06:00:00,12.7816279,77.6299145,CO,26,54,33
India,Karnataka,Bengaluru,"Jigani, Bengaluru - KSPCB",01-06-2024 06:00:00,12.7816279,77.6299145,OZONE,13,67,23
India,Karnataka,Bengaluru,"Kasturi Nagar, Bengaluru - KSPCB",01-06-2024 06:00:00,13.003872,77.664217,PM2.5,11,40,26
India,Karnataka,Bengaluru,"Kasturi Nagar, Bengaluru - KSPCB",01-06-2024 06:00:00,13.003872,77.664217,SO2,10,10,10
India,Karnataka,Bengaluru,"Shivapura_Peenya, Bengaluru - KSPCB",01-06-2024 06:00:00,13.0246342,77.5080115,NO2,15,16,15
India,Karnataka,Bidar,"Naubad, Bidar - KSPCB",01-06-2024 06:00:00,17.930306,77.482194,PM2.5,39,82,59
India,Karnataka,Bidar,"Naubad, Bidar - KSPCB",01-06-2024 06:00:00,17.930306,77.482194,NH3,2,3,3
India,Karnataka,Bidar,"Naubad, Bidar - KSPCB",01-06-2024 06:00:00,17.930306,77.482194,SO2,13,27,17
India,Karnataka,Bidar,"Naubad, Bidar - KSPCB",01-06-2024 06:00:00,17.930306,77.482194,OZONE,25,34,28
India,Karnataka,Chikkaballapur,"Chikkaballapur Rural, Chikkaballapur - KSPCB",01-06-2024 06:00:00,13.428828,77.731418,PM10,35,96,64
India,Karnataka,Chikkaballapur,"Chikkaballapur Rural, Chikkaballapur - KSPCB",01-06-2024 06:00:00,13.428828,77.731418,NO2,5,11,8
India,Karnataka,Chikkaballapur,"Chikkaballapur Rural, Chikkaballapur - KSPCB",01-06-2024 06:00:00,13.428828,77.731418,NH3,1,1,1
India,Karnataka,Chikkamagaluru,"Kalyana Nagara, Chikkamagaluru - KSPCB",01-06-2024 06:00:00,13.328028,75.797056,NO2,15,27,22
India,Karnataka,Chikkamagaluru,"Kalyana Nagara, Chikkamagaluru - KSPCB",01-06-2024 06:00:00,13.328028,75.797056,CO,11,144,48
India,Karnataka,Davanagere,"Devaraj Urs Badavane, Davanagere - KSPCB",01-06-2024 06:00:00,14.475800,75.905200,PM2.5,16,64,35
India,Karnataka,Davanagere,"Devaraj Urs Badavane, Davanagere - KSPCB",01-06-2024 06:00:00,14.475800,75.905200,PM10,31,71,52
India,Karnataka,Davanagere,"Devaraj Urs Badavane, Davanagere - KSPCB",01-06-2024 06:00:00,14.475800,75.905200,NH3,1,2,1
India,Karnataka,Davanagere,"Devaraj Urs Badavane, Davanagere - KSPCB",01-06-2024 06:00:00,14.475800,75.905200,SO2,1,18,6
India,Karnataka,Dharwad,"Kalabhavan, Dharwad - KSPCB",01-06-2024 06:00:00,15.459706,75.008381,NH3,3,3,3
India,Karnataka,Dharwad,"Kalabhavan, Dharwad - KSPCB",01-06-2024 06:00:00,15.459706,75.008381,OZONE,29,36,29
India,Karnataka,Gadag,"Panchal Nagar, Gadag - KSPCB",01-06-2024 06:00:00,15.411456,75.638133,CO,38,48,47
India,Karnataka,Haveri,"Ashwini Nagar, Haveri - KSPCB",01-06-2024 06:00:00,14.791800,75.389600,PM10,NA,NA,NA
India,Karnataka,Hubballi,"Lingaraj Nagar, Hubballi - KSPCB",01-06-2024 06:00:00,15.3714823,75.1160168,PM10,52,90,73
India,Karnataka,Hubballi,"Lingaraj Nagar, Hubballi - KSPCB",01-06-2024 06:00:00,15.3714823,75.1160168,NO2,12,20,15
India,Karnataka,Kalaburagi,"Lal Bahadur Shastri Nagar, Kalaburagi - KSPCB",01-06-2024 06:00:00,17.321993,76.822628,NH3,2,2,2
India,Karnataka,Kalaburagi,"Mahatma Basaveswar Colony, Kalaburgi - KSPCB",01-06-2024 06:00:00,17.336318,76.847397,SO2,2,56,14
India,Karnataka,Kalaburagi,"Mahatma Basaveswar Colony, Kalaburgi - KSPCB",01-06-2024 06:00:00,17.336318,76.847397,OZONE,18,57,40
India,Karnataka,Kolar,"Tamaka Ind. Area, Kolar - KSPCB",01-06-2024 06:00:00,13.1276288,78.1570122,NO2,21,58,31
India,Karnataka,Kolar,"Tamaka Ind. Area, Kolar - KSPCB",01-06-2024 06:00:00,13.1276288,78.1570122,CO,10,22,12
India,Karnataka,Koppal,"Diwator Nagar, Koppal - KSPCB",01-06-2024 06:00:00,15.347630,76.181767,OZONE,8,24,14
India,Karnataka,Madikeri,"Stuart Hill, Madikeri - KSPCB",01-06-2024 06:00:00,12.415911,75.735050,PM2.5,26,46,33
India,Karnataka,Mangalore,"Kadri, Mangalore - KSPCB",01-06-2024 06:00:00,12.889250,74.853000,PM10,19,55,37
India,Karnataka,Mangalore,"Kadri, Mangalore - KSPCB",01-06-2024 06:00:00,12.889250,74.853000,SO2,23,63,34
India,Karnataka,Mangalore,"Kadri, Mangalore - KSPCB",01-06-2024 06:00:00,12.889250,74.853000,CO,34,44,36
India,Karnataka,Mysuru,"Hebbal 1st Stage, Mysuru - KSPCB",01-06-2024 06:00:00,12.21041,76.37376,PM10,28,76,42
India,Karnataka,Raichur,"Haji Colony, Raichur - KSPCB",01-06-2024 06:00:00,16.208139,77.348417,SO2,71,84,77
India,Karnataka,Udupi,"Brahmagiri, Udupi - KSPCB",01-06-2024 06:00:00,13.34194444,74.74694444,PM10,NA,NA,NA
India,Karnataka,Udupi,"Brahmagiri, Udupi - KSPCB",01-06-2024 06:00:00,13.34194444,74.74694444,NO2,NA,NA,NA
India,Karnataka,Yadgir,"Collector Office, Yadgir - KSPCB",01-06-2024 06:00:00,16.7602,77.1428,NH3,1,2,2
India,Kerala,Eloor,"Udyogamandal, Eloor - Kerala PCB",01-06-2024 06:00:00,10.073232,76.302765,NH3,1,1,1
India,Kerala,Eloor,"Udyogamandal, Eloor - Kerala PCB",01-06-2024 06:00:00,10.073232,76.302765,CO,32,112,53
India,Kerala,Eloor,"Udyogamandal, Eloor - Kerala PCB",01-06-2024 06:00:00,10.073232,76.302765,OZONE,11,13,11
India,Kerala,Kannur,"Thavakkara, Kannur - Kerala PCB",01-06-2024 06:00:00,11.875000,75.373200,PM2.5,33,53,43
India,Kerala,Kannur,"Thavakkara, Kannur - Kerala PCB",01-06-2024 06:00:00,11.875000,75.373200,SO2,NA,NA,NA
India,Kerala,Kollam,"Polayathode, Kollam - Kerala PCB",01-06-2024 06:00:00,8.8787,76.6073,CO,14,18,16
India,Kerala,Thiruvananthapuram,"Kariavattom, Thiruvananthapuram - Kerala PCB",01-06-2024 06:00:00,8.563700,76.886500,PM2.5,31,49,41
India,Kerala,Thiruvananthapuram,"Kariavattom, Thiruvananthapuram - Kerala PCB",01-06-2024 06:00:00,8.563700,76.886500,NH3,NA,NA,NA
India,Kerala,Thiruvananthapuram,"Plammoodu, Thiruvananthapuram - Kerala PCB",01-06-2024 06:00:00,8.5149093,76.9435879,CO,10,39,20
India,Kerala,Thrissur,"Corporation Ground, Thrissur - Kerala PCB",01-06-2024 06:00:00,10.532400,76.215900,PM10,60,71,64
India,Kerala,Thrissur,"Corporation Ground, Thrissur - Kerala PCB",01-06-2024 06:00:00,10.532400,76.215900,OZONE,27,33,29
India,Madhya Pradesh,Bhopal,"Idgah Hills, Bhopal - MPPCB",01-06-2024 06:00:00,23.264759,77.381568,SO2,1,8,4
India,Madhya Pradesh,Bhopal,"Idgah Hills, Bhopal - MPPCB",01-06-2024 06:00:00,23.264759,77.381568,OZONE,23,64,41
India,Madhya Pradesh,Bhopal,"Paryavaran Parisar, Bhopal - MPPCB",01-06-2024 06:00:00,23.210494,77.425409,CO,8,46,15
India,Madhya Pradesh,Bhopal,"T T Nagar, Bhopal - MPPCB",01-06-2024 06:00:00,23.233584,77.400574,PM2.5,28,67,44
India,Madhya Pradesh,Bhopal,"T T Nagar, Bhopal - MPPCB",01-06-2024 06:00:00,23.233584,77.400574,NO2,10,35,21
India,Madhya Pradesh,Bhopal,"T T Nagar, Bhopal - MPPCB",01-06-2024 06:00:00,23.233584,77.400574,OZONE,21,73,54
India,Madhya Pradesh,Gwalior,"City Center, Gwalior - MPPCB",01-06-2024 06:00:00,26.203442,78.193251,NO2,4,32,10
India,Madhya Pradesh,Gwalior,"City Center, Gwalior - MPPCB",01-06-2024 06:00:00,26.203442,78.193251,CO,28,72,42
India,Madhya Pradesh,Gwalior,"City Center, Gwalior - MPPCB",01-06-2024 06:00:00,26.203442,78.193251,OZONE,31,59,43
India,Madhya Pradesh,Gwalior,"Deen Dayal Nagar, Gwalior - MPPCB",01-06-2024 06:00:00,26.259242,78.216432,SO2,9,22,16
India,Madhya Pradesh,Gwalior,"Deen Dayal Nagar, Gwalior - MPPCB",01-06-2024 06:00:00,26.259242,78.216432,OZONE,46,132,78
India,Madhya Pradesh,Gwalior,"Phool Bagh, Gwalior - Mondelez Ind. Food",01-06-2024 06:00:00,26.210536,78.171,CO,79,100,87
India,Madhya Pradesh,Indore,"Chhoti Gwaltoli, Indore - MPPCB",01-06-2024 06:00:00,22.4310,75.5213,PM2.5,25,74,44
India,Madhya Pradesh,Indore,"Chhoti Gwaltoli, Indore - MPPCB",01-06-2024 06:00:00,22.4310,75.5213,PM10,69,135,104
India,Madhya Pradesh,Indore,"Chhoti Gwaltoli, Indore - MPPCB",01-06-2024 06:00:00,22.4310,75.5213,NO2,35,100,50
India,Madhya Pradesh,Indore,"Chhoti Gwaltoli, Indore - MPPCB",01-06-2024 06:00:00,22.4310,75.5213,NH3,4,7,5
India,Madhya Pradesh,Indore,"Maguda Nagar, Indore - IMC",01-06-2024 06:00:00,22.7524,75.8872,NO2,3,6,4
India,Madhya Pradesh,Indore,"Maguda Nagar, Indore - IMC",01-06-2024 06:00:00,22.7524,75.8872,SO2,30,34,32
India,Madhya Pradesh,Indore,"Regional Park, Indore - IMC",01-06-2024 06:00:00,22.6780,75.8559,SO2,55,58,57
India,Madhya Pradesh,Indore,"Residency Area, Indore - IMC",01-06-2024 06:00:00,22.7084,75.8815,NO2,28,44,34
India,Madhya Pradesh,Jabalpur,"Govindh Bhavan Colony, Jabalpur - JMC",01-06-2024 06:00:00,23.163174,79.973061,PM10,69,133,104
India,Madhya Pradesh,Jabalpur,"Govindh Bhavan Colony, Jabalpur - JMC",01-06-2024 06:00:00,23.163174,79.973061,NO2,3,45,16
India,Madhya Pradesh,Jabalpur,"Govindh Bhavan Colony, Jabalpur - JMC",01-06-2024 06:00:00,23.163174,79.973061,SO2,13,19,16
India,Madhya Pradesh,Jabalpur,"Govindh Bhavan Colony, Jabalpur - JMC",01-06-2024 06:00:00,23.163174,79.973061,CO,14,36,28
India,Madhya Pradesh,Jabalpur,"Govindh Bhavan Colony, Jabalpur - JMC",01-06-2024 06:00:00,23.163174,79.973061,OZONE,7,96,25
India,Madhya Pradesh,Jabalpur,"Gupteshwar, Jabalpur - JMC",01-06-2024 06:00:00,23.142888,79.916147,PM2.5,45,91,69
India,Madhya Pradesh,Jabalpur,"Gupteshwar, Jabalpur - JMC",01-06-2024 06:00:00,23.142888,79.916147,CO,18,48,28
India,Madhya Pradesh,Jabalpur,"Marhatal, Jabalpur - MPPCB",01-06-2024 06:00:00,23.168606,79.932247,PM2.5,41,75,57
India,Madhya Pradesh,Jabalpur,"Marhatal, Jabalpur - MPPCB",01-06-2024 06:00:00,23.168606,79.932247,PM10,75,150,120
India,Madhya Pradesh,Jabalpur,"Marhatal, Jabalpur - MPPCB",01-06-2024 06:00:00,23.168606,79.932247,CO,19,102,41
India,Madhya Pradesh,Jabalpur,"Suhagi, Jabalpur - JMC",01-06-2024 06:00:00,23.218135,79.957770,NO2,39,44,42
India,Madhya Pradesh,Jabalpur,"Suhagi, Jabalpur - JMC",01-06-2024 06:00:00,23.218135,79.957770,SO2,14,18,16
India,Madhya Pradesh,Katni,"Gole Bazar, Katni - MPPCB",01-06-2024 06:00:00,23.50016,80.23284,SO2,20,106,42
India,Madhya Pradesh,Maihar,"Sahilara, Maihar - KJS Cements",01-06-2024 06:00:00,24.2613009,80.7231783,NO2,13,29,23
India,Madhya Pradesh,Sagar,"Deen Dayal Nagar, Sagar - MPPCB",01-06-2024 06:00:00,23.8640158,78.80289321,NO2,11,24,22
India,Madhya Pradesh,Satna,"Bandhavgar Colony, Satna - Birla Cement",01-06-2024 06:00:00,24.58434363,80.8549414,PM2.5,6,74,34
India,Madhya Pradesh,Satna,"Bandhavgar Colony, Satna - Birla Cement",01-06-2024 06:00:00,24.58434363,80.8549414,SO2,2,4,3
India,Madhya Pradesh,Singrauli,"Suryakiran Bhawan NCL, Singrauli - MPPCB",01-06-2024 06:00:00,24.108970,82.645580,PM2.5,62,341,198
India,Madhya Pradesh,Singrauli,"Suryakiran Bhawan NCL, Singrauli - MPPCB",01-06-2024 06:00:00,24.108970,82.645580,NH3,3,4,3
India,Madhya Pradesh,Ujjain,"Mahakaleshwar Temple, Ujjain - MPPCB",01-06-2024 06:00:00,23.182719 ,75.768218 ,PM10,74,126,106
India,Madhya Pradesh,Ujjain,"Mahakaleshwar Temple, Ujjain - MPPCB",01-06-2024 06:00:00,23.182719 ,75.768218 ,CO,10,26,20
India,Maharashtra,Ahmednagar,"Tarakpur, Ahmednagar - MPCB",01-06-2024 06:00:00,19.10122,74.73339,OZONE,15,88,35
India,Maharashtra,Akola,"Ramdaspeth, Akola - MPCB",01-06-2024 06:00:00,20.719516,77.000253,OZONE,13,83,19
India,Maharashtra,Amravati,"Shivneri Colony, Amravati - MPCB",01-06-2024 06:00:00,20.9402359,77.7895248,NH3,1,5,3
India,Maharashtra,Amravati,"Shivneri Colony, Amravati - MPCB",01-06-2024 06:00:00,20.9402359,77.7895248,OZONE,11,73,24
India,Maharashtra,Amravati,"Shri Shivaji Science College, Amaravati - MPCB",01-06-2024 06:00:00,20.939198,77.765701,NO2,4,35,12
India,Maharashtra,Aurangabad,"MIDC Chilkalthana, Aurangabad - MPCB",01-06-2024 06:00:00,19.875620,75.387310,PM2.5,31,84,58
India,Maharashtra,Aurangabad,"MIDC Chilkalthana, Aurangabad - MPCB",01-06-2024 06:00:00,19.875620,75.387310,SO2,1,3,1
India,Maharashtra,Aurangabad,"MIDC Chilkalthana, Aurangabad - MPCB",01-06-2024 06:00:00,19.875620,75.387310,CO,20,60,55
India,Maharashtra,Aurangabad,"Rachnakar Colony, Aurangabad - MPCB",01-06-2024 06:00:00,19.863756,75.321188,PM10,63,132,112
India,Maharashtra,Badlapur,"Katrap, Badlapur - MPCB",01-06-2024 06:00:00,19.16485,73.23409,PM10,69,88,80
India,Maharashtra,Belapur,"CBD Belapur, Belapur - MPCB",01-06-2024 06:00:00,19.0243902,73.0406721,NO2,29,61,37
India,Maharashtra,Boisar,"Khaira, Boisar - MPCB",01-06-2024 06:00:00,19.786089,72.757971,NO2,19,44,31
India,Maharashtra,Boisar,"Khaira, Boisar - MPCB",01-06-2024 06:00:00,19.786089,72.757971,NH3,3,16,9
India,Maharashtra,Chandrapur,"Chauhan Colony, Chandrapur - MPCB",01-06-2024 06:00:00,19.962900,79.298714,NO2,16,82,32
India,Maharashtra,Chandrapur,"Chauhan Colony, Chandrapur - MPCB",01-06-2024 06:00:00,19.962900,79.298714,NH3,1,6,3
India,Maharashtra,Chandrapur,"Chauhan Colony, Chandrapur - MPCB",01-06-2024 06:00:00,19.962900,79.298714,CO,25,46,28
India,Maharashtra,Chandrapur,"MIDC Khutala, Chandrapur - MPCB",01-06-2024 06:00:00,19.9775302,79.2337086,SO2,2,75,23
India,Maharashtra,Chandrapur,"MIDC Khutala, Chandrapur - MPCB",01-06-2024 06:00:00,19.9775302,79.2337086,OZONE,3,59,13
India,Maharashtra,Dhule,"Deopur, Dhule - MPCB",01-06-2024 06:00:00,20.918946,74.776388,SO2,13,24,19
India,Maharashtra,Dhule,"Deopur, Dhule - MPCB",01-06-2024 06:00:00,20.918946,74.776388,CO,5,48,15
India,Maharashtra,Jalgaon,"Prabhat Colony, Jalgaon - MPCB",01-06-2024 06:00:00,21.001264,75.565602,PM2.5,35,88,52
India,Maharashtra,Jalgaon,"Prabhat Colony, Jalgaon - MPCB",01-06-2024 06:00:00,21.001264,75.565602,PM10,31,170,98
India,Maharashtra,Jalgaon,"Prabhat Colony, Jalgaon - MPCB",01-06-2024 06:00:00,21.001264,75.565602,NH3,1,14,7
India,Maharashtra,Kalyan,"Khadakpada, Kalyan - MPCB",01-06-2024 06:00:00,19.25292,73.142019,NO2,21,29,25
India,Maharashtra,Kolhapur,"Shivaji University, Kolhapur - MPCB",01-06-2024 06:00:00,16.6870449,74.2505872,NO2,10,28,19
India,Maharashtra,Kolhapur,"Sinchan Bhavan, Kolhapur - MPCB",01-06-2024 06:00:00,16.7143745,74.2426398,NO2,5,11,8
India,Maharashtra,Kolhapur,"Sinchan Bhavan, Kolhapur - MPCB",01-06-2024 06:00:00,16.7143745,74.2426398,SO2,1,2,1
India,Maharashtra,Latur,"Sawe Wadi, Latur - MPCB",01-06-2024 06:00:00,18.39963,76.57452,PM2.5,29,98,59
India,Maharashtra,Malegaon,"Mahesh Nagar, Malegaon - MPCB",01-06-2024 06:00:00,20.555712,74.529236,PM2.5,37,87,66
India,Maharashtra,Malegaon,"Mahesh Nagar, Malegaon - MPCB",01-06-2024 06:00:00,20.555712,74.529236,SO2,4,12,8
India,Maharashtra,Malegaon,"Mahesh Nagar, Malegaon - MPCB",01-06-2024 06:00:00,20.555712,74.529236,OZONE,18,88,26
India,Maharashtra,Mira-Bhayandar,"Bhayandar West, Mira-Bhayandar - MPCB",01-06-2024 06:00:00,19.296481,72.840923,PM10,26,165,66
India,Maharashtra,Mumbai,"Bandra Kurla Complex, Mumbai - MPCB",01-06-2024 06:00:00,19.065931,72.862131,NH3,6,13,9
India,Maharashtra,Mumbai,"Bandra Kurla Complex, Mumbai - MPCB",01-06-2024 06:00:00,19.065931,72.862131,SO2,3,4,4
India,Maharashtra,Mumbai,"Borivali East, Mumbai - IITM",01-06-2024 06:00:00,19.23241,72.86895,CO,50,71,58
India,Maharashtra,Mumbai,"Borivali East, Mumbai - MPCB",01-06-2024 06:00:00,19.2243333,72.8658113,NO2,2,8,5
India,Maharashtra,Mumbai,"Borivali East, Mumbai - MPCB",01-06-2024 06:00:00,19.2243333,72.8658113,OZONE,14,16,15
India,Maharashtra,Mumbai,"Byculla, Mumbai - BMC",01-06-2024 06:00:00,18.9767,72.8380,PM2.5,6,22,12
India,Maharashtra,Mumbai,"Chakala-Andheri East, Mumbai - IITM",01-06-2024 06:00:00,19.11074,72.86084,PM2.5,13,41,29
India,Maharashtra,Mumbai,"Chakala-Andheri East, Mumbai - IITM",01-06-2024 06:00:00,19.11074,72.86084,OZONE,15,35,21
India,Maharashtra,Mumbai,"Chembur, Mumbai - MPCB",01-06-2024 06:00:00,19.0364585,72.8954371,PM10,33,58,50
India,Maharashtra,Mumbai,"Chembur, Mumbai - MPCB",01-06-2024 06:00:00,19.0364585,72.8954371,CO,17,22,19
India,Maharashtra,Mumbai,"Chhatrapati Shivaji Intl. Airport (T2), Mumbai - MPCB",01-06-2024 06:00:00,19.10078,72.87462,PM2.5,27,50,38
India,Maharashtra,Mumbai,"Chhatrapati Shivaji Intl. Airport (T2), Mumbai - MPCB",01-06-2024 06:00:00,19.10078,72.87462,OZONE,12,13,13
India,Maharashtra,Mumbai,"Colaba, Mumbai - MPCB",01-06-2024 06:00:00,18.910000,72.820000,CO,12,14,13
India,Maharashtra,Mumbai,"Deonar, Mumbai - IITM",01-06-2024 06:00:00,19.04946,72.9230,PM10,51,95,70
India,Maharashtra,Mumbai,"Kandivali East, Mumbai - MPCB",01-06-2024 06:00:00,19.205800,72.868200,PM10,46,416,136
India,Maharashtra,Mumbai,"Kandivali East, Mumbai - MPCB",01-06-2024 06:00:00,19.205800,72.868200,OZONE,30,30,30
India,Maharashtra,Mumbai,"Kandivali West, Mumbai - BMC",01-06-2024 06:00:00,19.215859,72.831718,PM10,19,47,29
India,Maharashtra,Mumbai,"Kherwadi_Bandra East, Mumbai - MPCB",01-06-2024 06:00:00,19.0632143,72.8456324,SO2,1,4,2
India,Maharashtra,Mumbai,"Kurla, Mumbai - MPCB",01-06-2024 06:00:00,19.0863,72.8888,PM2.5,14,200,47
India,Maharashtra,Mumbai,"Kurla, Mumbai - MPCB",01-06-2024 06:00:00,19.0863,72.8888,PM10,85,212,106
India,Maharashtra,Mumbai,"Kurla, Mumbai - MPCB",01-06-2024 06:00:00,19.0863,72.8888,OZONE,27,28,28
India,Maharashtra,Mumbai,"Mindspace-Malad West, Mumbai - MPCB",01-06-2024 06:00:00,19.1878657,72.8304069,OZONE,7,55,10
India,Maharashtra,Mumbai,"Mulund West, Mumbai - MPCB",01-06-2024 06:00:00,19.1750,72.9419,PM10,38,92,64
India,Maharashtra,Mumbai,"Mulund West, Mumbai - MPCB",01-06-2024 06:00:00,19.1750,72.9419,SO2,12,13,13
India,Maharashtra,Mumbai,"Navy Nagar-Colaba, Mumbai - IITM",01-06-2024 06:00:00,18.897756,72.813320,NO2,34,70,53
India,Maharashtra,Mumbai,"Siddharth Nagar-Worli, Mumbai - IITM",01-06-2024 06:00:00,19.000083,72.813993,PM2.5,50,67,59
India,Maharashtra,Mumbai,"Sion, Mumbai - MPCB",01-06-2024 06:00:00,19.047000,72.874600,NO2,86,103,94
India,Maharashtra,Mumbai,"Vasai West, Mumbai - MPCB",01-06-2024 06:00:00,19.383200,72.820400,PM2.5,15,53,27
India,Maharashtra,Mumbai,"Vasai West, Mumbai - MPCB",01-06-2024 06:00:00,19.383200,72.820400,PM10,48,95,71
India,Maharashtra,Mumbai,"Vasai West, Mumbai - MPCB",01-06-2024 06:00:00,19.383200,72.820400,SO2,20,20,20
India,Maharashtra,Mumbai,"Vile Parle West, Mumbai - MPCB",01-06-2024 06:00:00,19.10861,72.83622,PM10,53,144,97
India,Maharashtra,Mumbai,"Vile Parle West, Mumbai - MPCB",01-06-2024 06:00:00,19.10861,72.83622,CO,32,32,32
India,Maharashtra,Mumbai,"Vile Parle West, Mumbai - MPCB",01-06-2024 06:00:00,19.10861,72.83622,OZONE,11,13,12
India,Maharashtra,Nagpur,"Mahal, Nagpur - MPCB",01-06-2024 06:00:00,21.14472,79.107595,PM2.5,47,74,60
India,Maharashtra,Nagpur,"Mahal, Nagpur - MPCB",01-06-2024 06:00:00,21.14472,79.107595,PM10,88,123,108
India,Maharashtra,Nagpur,"Mahal, Nagpur - MPCB",01-06-2024 06:00:00,21.14472,79.107595,NO2,6,44,21
India,Maharashtra,Nagpur,"Mahal, Nagpur - MPCB",01-06-2024 06:00:00,21.14472,79.107595,NH3,3,9,6
India,Maharashtra,Nagpur,"Mahal, Nagpur - MPCB",01-06-2024 06:00:00,21.14472,79.107595,CO,4,74,25
India,Maharashtra,Nagpur,"Opp GPO Civil Lines, Nagpur - MPCB",01-06-2024 06:00:00,21.152875,79.0517531,NH3,2,9,4
India,Maharashtra,Nanded,"Sneh Nagar, Nanded - MPCB",01-06-2024 06:00:00,19.173852,77.296291,NO2,20,65,30
India,Maharashtra,Nanded,"Sneh Nagar, Nanded - MPCB",01-06-2024 06:00:00,19.173852,77.296291,OZONE,33,142,55
India,Maharashtra,Nashik,"Gangapur Road, Nashik - MPCB",01-06-2024 06:00:00,20.0073285,73.7762427,SO2,NA,NA,NA
India,Maharashtra,Nashik,"Hirawadi, Nashik - MPCB",01-06-2024 06:00:00,20.021503,73.813844,NH3,3,7,4
India,Maharashtra,Nashik,"MIDC Ambad, Nashik - MPCB",01-06-2024 06:00:00,19.950220,73.731480,NO2,9,28,17
India,Maharashtra,Nashik,"Pandav Nagari, Nashik - MPCB",01-06-2024 06:00:00,19.9591346,73.7788008,PM10,34,110,66
India,Maharashtra,Nashik,"Pandav Nagari, Nashik - MPCB",01-06-2024 06:00:00,19.9591346,73.7788008,OZONE,15,62,25
India,Maharashtra,Navi Mumbai,"Mahape, Navi Mumbai - MPCB",01-06-2024 06:00:00,19.1135051,73.008978,CO,20,40,32
India,Maharashtra,Navi Mumbai,"Sanpada, Navi Mumbai - MPCB",01-06-2024 06:00:00,19.0575752,73.0151367,NO2,9,35,20
India,Maharashtra,Navi Mumbai,"Sanpada, Navi Mumbai - MPCB",01-06-2024 06:00:00,19.0575752,73.0151367,CO,1,8,3
India,Maharashtra,Navi Mumbai,"Sector-19A Nerul, Navi Mumbai - IITM",01-06-2024 06:00:00,19.044,73.0325,NO2,6,22,14
India,Maharashtra,Navi Mumbai,"Sector-19A Nerul, Navi Mumbai - IITM",01-06-2024 06:00:00,19.044,73.0325,NH3,12,27,16
India,Maharashtra,Navi Mumbai,"Sector-19A Nerul, Navi Mumbai - IITM",01-06-2024 06:00:00,19.044,73.0325,CO,22,132,77
India,Maharashtra,Navi Mumbai,"Sector-19A Nerul, Navi Mumbai - IITM",01-06-2024 06:00:00,19.044,73.0325,OZONE,2,25,6
India,Maharashtra,Navi Mumbai,"Tondare-Taloja, Navi Mumbai - MPCB",01-06-2024 06:00:00,19.0630,73.1209,PM2.5,18,44,27
India,Maharashtra,Navi Mumbai,"Tondare-Taloja, Navi Mumbai - MPCB",01-06-2024 06:00:00,19.0630,73.1209,SO2,1,49,23
India,Maharashtra,Parbhani,"Masoom Colony, Parbhani - MPCB",01-06-2024 06:00:00,19.265594,76.761463,CO,6,68,40
India,Maharashtra,Pimpri-Chinchwad,"Gavalinagar, Pimpri Chinchwad - MPCB",01-06-2024 06:00:00,18.63673,73.82487,NH3,NA,NA,NA
India,Maharashtra,Pimpri-Chinchwad,"Gavalinagar, Pimpri Chinchwad - MPCB",01-06-2024 06:00:00,18.63673,73.82487,SO2,1,3,2
India,Maharashtra,Pimpri-Chinchwad,"Park Street Wakad, Pimpri Chinchwad - MPCB",01-06-2024 06:00:00,18.59051,73.77946,PM2.5,51,191,116
India,Maharashtra,Pimpri-Chinchwad,"Park Street Wakad, Pimpri Chinchwad - MPCB",01-06-2024 06:00:00,18.59051,73.77946,PM10,61,135,105
India,Maharashtra,Pimpri-Chinchwad,"Park Street Wakad, Pimpri Chinchwad - MPCB",01-06-2024 06:00:00,18.59051,73.77946,NO2,14,33,24
India,Maharashtra,Pimpri-Chinchwad,"Park Street Wakad, Pimpri Chinchwad - MPCB",01-06-2024 06:00:00,18.59051,73.77946,NH3,2,4,3
India,Maharashtra,Pune,"Alandi, Pune - IITM",01-06-2024 06:00:00,18.675076,73.892743,PM2.5,18,32,22
India,Maharashtra,Pune,"Alandi, Pune - IITM",01-06-2024 06:00:00,18.675076,73.892743,PM10,32,73,50
India,Maharashtra,Pune,"Hadapsar, Pune - IITM",01-06-2024 06:00:00,18.501793,73.927532,PM10,64,178,83
India,Maharashtra,Pune,"Hadapsar, Pune - IITM",01-06-2024 06:00:00,18.501793,73.927532,NO2,2,16,7
India,Maharashtra,Pune,"Karve Road, Pune - MPCB",01-06-2024 06:00:00,18.5011743,73.8165527,NO2,1,9,6
India,Maharashtra,Pune,"Karve Road, Pune - MPCB",01-06-2024 06:00:00,18.5011743,73.8165527,OZONE,7,47,21
India,Maharashtra,Pune,"Mhada Colony, Pune - IITM",01-06-2024 06:00:00,18.573040,73.927715,PM2.5,20,56,34
India,Maharashtra,Pune,"Revenue Colony-Shivajinagar, Pune - IITM",01-06-2024 06:00:00,18.530085,73.849598,PM10,40,63,51
India,Maharashtra,Pune,"Revenue Colony-Shivajinagar, Pune - IITM",01-06-2024 06:00:00,18.530085,73.849598,NO2,5,22,12
India,Maharashtra,Pune,"Savitribai Phule Pune University, Pune - MPCB",01-06-2024 06:00:00,18.547056,73.826908,PM10,41,112,83
India,Maharashtra,Pune,"Transport Nagar-Nigdi, Pune - IITM",01-06-2024 06:00:00,18.664282,73.763966,PM10,35,83,53
India,Maharashtra,Pune,"Transport Nagar-Nigdi, Pune - IITM",01-06-2024 06:00:00,18.664282,73.763966,NO2,16,23,19
India,Maharashtra,Solapur,"Dnyaneshwar Nagar, Solapur - MPCB",01-06-2024 06:00:00,17.6336264,75.9132495,SO2,1,2,1
India,Maharashtra,Solapur,"Ratandeep Housing Society, Solapur - MPCB",01-06-2024 06:00:00,17.65439,75.90649,NO2,4,83,24
India,Maharashtra,Solapur,"Ratandeep Housing Society, Solapur - MPCB",01-06-2024 06:00:00,17.65439,75.90649,NH3,6,16,9
India,Maharashtra,Solapur,"Ratandeep Housing Society, Solapur - MPCB",01-06-2024 06:00:00,17.65439,75.90649,CO,12,74,24
India,Maharashtra,Solapur,"Solapur, Solapur - MPCB",01-06-2024 06:00:00,17.6599188,75.9063906,PM2.5,61,80,74
India,Maharashtra,Solapur,"Solapur, Solapur - MPCB",01-06-2024 06:00:00,17.6599188,75.9063906,SO2,104,108,106
India,Maharashtra,Thane,"Upvan Fort, Thane - MPCB",01-06-2024 06:00:00,19.222279,72.957979,NH3,3,4,4
India,Maharashtra,Ulhasnagar,"Sidhi Vinayak Nagar, Ulhasnagar - MPCB",01-06-2024 06:00:00,19.235581,73.159121,OZONE,5,84,14
India,Maharashtra,Virar,"Bolinj, Virar - MPCB",01-06-2024 06:00:00,19.4458210,72.7988231,PM2.5,19,88,47
India,Maharashtra,Virar,"Bolinj, Virar - MPCB",01-06-2024 06:00:00,19.4458210,72.7988231,PM10,47,96,71
India,Maharashtra,Virar,"Bolinj, Virar - MPCB",01-06-2024 06:00:00,19.4458210,72.7988231,OZONE,15,37,28
India,Meghalaya,Shillong,"Lumpyngngad, Shillong - Meghalaya PCB",01-06-2024 06:00:00,25.5586,91.8985,PM2.5,NA,NA,NA
India,Meghalaya,Shillong,"Lumpyngngad, Shillong - Meghalaya PCB",01-06-2024 06:00:00,25.5586,91.8985,NO2,1,2,1
India,Meghalaya,Shillong,"Lumpyngngad, Shillong - Meghalaya PCB",01-06-2024 06:00:00,25.5586,91.8985,SO2,37,37,37
India,Nagaland,Kohima,"PWD Juction, Kohima - NPCB",01-06-2024 06:00:00,25.6635413,94.0989878,SO2,36,37,36
India,Nagaland,Kohima,"PWD Juction, Kohima - NPCB",01-06-2024 06:00:00,25.6635413,94.0989878,OZONE,5,20,7
India,Odisha,Angul,"Hakimapada, Angul - OSPCB",01-06-2024 06:00:00,20.832874,85.104082,PM2.5,17,233,65
India,Odisha,Angul,"Hakimapada, Angul - OSPCB",01-06-2024 06:00:00,20.832874,85.104082,NO2,2,14,5
India,Odisha,Balasore,"Kalidaspur, Balasore - OSPCB",01-06-2024 06:00:00,21.51161,86.89088,PM2.5,7,33,17
India,Odisha,Balasore,"Kalidaspur, Balasore - OSPCB",01-06-2024 06:00:00,21.51161,86.89088,NO2,3,8,6
India,Odisha,Barbil,"Forest Office, Barbil - OSPCB",01-06-2024 06:00:00,22.1166054,85.3945546,NH3,2,2,2
India,Odisha,Barbil,"Forest Office, Barbil - OSPCB",01-06-2024 06:00:00,22.1166054,85.3945546,OZONE,7,79,33
India,Odisha,Baripada,"Meher Colony, Baripada - OSPCB",01-06-2024 06:00:00,21.941841,86.728318,NO2,1,4,1
India,Odisha,Baripada,"Meher Colony, Baripada - OSPCB",01-06-2024 06:00:00,21.941841,86.728318,OZONE,44,93,51
India,Odisha,Bhubaneswar,"Lingraj Mandir, Bhubaneswar - OSPCB",01-06-2024 06:00:00,20.240790,85.836784,PM2.5,17,57,38
India,Odisha,Bhubaneswar,"Patia, Bhubaneswar - OSPCB",01-06-2024 06:00:00,20.34652,85.81630,NH3,3,33,7
India,Odisha,Bileipada,"Tata Township, Bileipada - OSPCB",01-06-2024 06:00:00,22.06156703,85.47409613,NH3,12,12,12
India,Odisha,Bileipada,"Tata Township, Bileipada - OSPCB",01-06-2024 06:00:00,22.06156703,85.47409613,CO,12,16,13
India,Odisha,Bileipada,"Tata Township, Bileipada - OSPCB",01-06-2024 06:00:00,22.06156703,85.47409613,OZONE,29,192,47
India,Odisha,Brajrajnagar,"GM Office, Brajrajnagar - OSPCB",01-06-2024 06:00:00,21.8004996,83.8396977,PM2.5,12,78,46
India,Odisha,Byasanagar,"Ferro Chrome Colony, Byasanagar - OSPCB",01-06-2024 06:00:00,20.94185,86.11510,PM10,11,109,67
India,Odisha,Byasanagar,"Ferro Chrome Colony, Byasanagar - OSPCB",01-06-2024 06:00:00,20.94185,86.11510,NO2,4,7,5
India,Odisha,Cuttack,"CDA Area, Cuttack - OSPCB",01-06-2024 06:00:00,20.48891     ,85.84768     ,CO,10,24,12
India,Odisha,Nayagarh,"Dabuna, Nayagarh - OSPCB",01-06-2024 06:00:00,21.847279,85.416905,PM2.5,NA,NA,NA
India,Odisha,Nayagarh,"Dabuna, Nayagarh - OSPCB",01-06-2024 06:00:00,21.847279,85.416905,PM10,NA,NA,NA
India,Odisha,Rairangpur,"Divisional Forest Office, Rairangpur - OSPCB",01-06-2024 06:00:00,22.265816,86.174829,PM10,52,96,70
India,Odisha,Rairangpur,"Divisional Forest Office, Rairangpur - OSPCB",01-06-2024 06:00:00,22.265816,86.174829,OZONE,1,11,4
India,Odisha,Rourkela,"Fertilizer Township, Rourkela - OSPCB",01-06-2024 06:00:00,22.18972222,84.86277778,NO2,1,26,16
India,Odisha,Rourkela,"Fertilizer Township, Rourkela - OSPCB",01-06-2024 06:00:00,22.18972222,84.86277778,SO2,9,16,12
India,Odisha,Rourkela,"Fertilizer Township, Rourkela - OSPCB",01-06-2024 06:00:00,22.18972222,84.86277778,CO,12,36,18
India,Odisha,Rourkela,"Raghunathpali, Rourkela - OSPCB",01-06-2024 06:00:00,22.220833,84.809444,NO2,22,69,38
India,Odisha,Suakati,"OMC Colony, Suakati - OSPCB",01-06-2024 06:00:00,21.606865,85.510538,PM2.5,45,83,64
India,Odisha,Suakati,"OMC Colony, Suakati - OSPCB",01-06-2024 06:00:00,21.606865,85.510538,PM10,52,109,87
India,Odisha,Suakati,"OMC Colony, Suakati - OSPCB",01-06-2024 06:00:00,21.606865,85.510538,SO2,3,6,5
India,Odisha,Talcher,"Talcher Coalfields,Talcher - OSPCB",01-06-2024 06:00:00,20.9360711,85.1707021,SO2,18,24,22
India,Puducherry,Puducherry,"Jawahar Nagar, Puducherry - PPCC",01-06-2024 06:00:00,11.9309,79.8027,NO2,4,19,8
India,Puducherry,Puducherry,"Jawahar Nagar, Puducherry - PPCC",01-06-2024 06:00:00,11.9309,79.8027,NH3,3,5,4
India,Punjab,Amritsar,"Golden Temple, Amritsar - PPCB",01-06-2024 06:00:00,31.620000,74.876512,PM2.5,61,247,126
India,Punjab,Amritsar,"Golden Temple, Amritsar - PPCB",01-06-2024 06:00:00,31.620000,74.876512,NH3,5,13,8
India,Punjab,Amritsar,"Golden Temple, Amritsar - PPCB",01-06-2024 06:00:00,31.620000,74.876512,OZONE,45,60,53
India,Punjab,Bathinda,"Hardev Nagar, Bathinda - PPCB",01-06-2024 06:00:00,30.233011,74.907758,PM10,47,347,155
India,Punjab,Jalandhar,"Civil Line, Jalandhar - PPCB",01-06-2024 06:00:00,31.321907,75.578914,SO2,9,20,11
India,Punjab,Khanna,"Kalal Majra, Khanna - PPCB",01-06-2024 06:00:00,30.736056 ,76.209694,SO2,10,54,22
India,Punjab,Mandi Gobindgarh,"RIMT University, Mandi Gobindgarh - PPCB",01-06-2024 06:00:00,30.649961,76.331442,PM2.5,80,354,169
India,Punjab,Mandi Gobindgarh,"RIMT University, Mandi Gobindgarh - PPCB",01-06-2024 06:00:00,30.649961,76.331442,PM10,94,330,145
India,Punjab,Mandi Gobindgarh,"RIMT University, Mandi Gobindgarh - PPCB",01-06-2024 06:00:00,30.649961,76.331442,NO2,28,28,28
India,Punjab,Rupnagar,"Ratanpura, Rupnagar - Ambuja Cements",01-06-2024 06:00:00,31.0325454,76.5623046,SO2,6,9,7
India,Rajasthan,Ajmer,"Civil Lines,  Ajmer - RSPCB",01-06-2024 06:00:00,26.470859,74.646594,OZONE,21,77,56
India,Rajasthan,Alwar,"Moti Doongri, Alwar - RSPCB",01-06-2024 06:00:00,27.554793,76.611536,PM2.5,65,129,91
India,Rajasthan,Alwar,"Moti Doongri, Alwar - RSPCB",01-06-2024 06:00:00,27.554793,76.611536,PM10,71,130,102
India,Rajasthan,Banswara,"Rati Talai, Banswara - RSPCB",01-06-2024 06:00:00,23.555190,74.440010,SO2,1,18,9
India,Rajasthan,Banswara,"Rati Talai, Banswara - RSPCB",01-06-2024 06:00:00,23.555190,74.440010,CO,16,46,29
India,Rajasthan,Baran,"Bamboliya, Baran - RSPCB",01-06-2024 06:00:00,25.106006,76.469948,PM2.5,17,54,31
India,Rajasthan,Baran,"Bamboliya, Baran - RSPCB",01-06-2024 06:00:00,25.106006,76.469948,CO,14,24,17
India,Rajasthan,Barmer,"Railway Colony, Barmer - RSPCB",01-06-2024 06:00:00,25.747299,71.393989,NH3,1,30,8
India,Rajasthan,Bharatpur,"Krishna Nagar, Bharatpur - RSPCB",01-06-2024 06:00:00,27.215415,77.50873,NO2,8,87,33
India,Rajasthan,Bhilwara,"Pratap Nagar, Bhilwara - RSPCB",01-06-2024 06:00:00,25.339605,74.618883,CO,15,32,27
India,Rajasthan,Bhiwadi,"Vasundhara Nagar_UIT, Bhiwadi - RSPCB",01-06-2024 06:00:00,28.207266,76.829265,NH3,NA,NA,NA
India,Rajasthan,Bhiwadi,"Vasundhara Nagar_UIT, Bhiwadi - RSPCB",01-06-2024 06:00:00,28.207266,76.829265,CO,NA,NA,NA
India,Rajasthan,Bikaner,"MM Ground, Bikaner - RSPCB",01-06-2024 06:00:00,28.018792,73.292658,OZONE,25,79,52
India,Rajasthan,Bundi,"New Colony, Bundi - RSPCB",01-06-2024 06:00:00,25.435774,75.644272,PM2.5,27,79,49
India,Rajasthan,Bundi,"New Colony, Bundi - RSPCB",01-06-2024 06:00:00,25.435774,75.644272,SO2,8,12,9
India,Rajasthan,Chittorgarh,"Shastri Nagar, Chittorgarh - RSPCB",01-06-2024 06:00:00,24.892047,74.623527,NO2,8,14,14
India,Rajasthan,Chittorgarh,"Shastri Nagar, Chittorgarh - RSPCB",01-06-2024 06:00:00,24.892047,74.623527,OZONE,8,95,64
India,Rajasthan,Churu,"Subash Chowk, Churu - RSPCB",01-06-2024 06:00:00,28.296139,74.961696,PM10,66,400,167
India,Rajasthan,Dausa,"Khatikan Mohalla, Dausa - RSPCB",01-06-2024 06:00:00,26.895552,76.334753,NH3,3,16,6
India,Rajasthan,Dausa,"Khatikan Mohalla, Dausa - RSPCB",01-06-2024 06:00:00,26.895552,76.334753,SO2,1,9,4
India,Rajasthan,Dholpur,"Raja Ganj, Dholpur - RSPCB",01-06-2024 06:00:00,26.699557,77.898881,NH3,3,14,8
India,Rajasthan,Dholpur,"Raja Ganj, Dholpur - RSPCB",01-06-2024 06:00:00,26.699557,77.898881,CO,5,38,13
India,Rajasthan,Dungarpur,"Bhoiwada, Dungarpur - RSPCB",01-06-2024 06:00:00,23.837789,73.714926,PM10,98,146,117
India,Rajasthan,Jaipur,"Adarsh Nagar, Jaipur - RSPCB",01-06-2024 06:00:00,26.902909,75.836858,PM10,89,161,121
India,Rajasthan,Jaipur,"Adarsh Nagar, Jaipur - RSPCB",01-06-2024 06:00:00,26.902909,75.836858,CO,2,90,54
India,Rajasthan,Jaipur,"Mansarovar Sector-12, Jaipur - RSPCB",01-06-2024 06:00:00,26.843698,75.766894,PM2.5,27,76,49
India,Rajasthan,Jaipur,"Mansarovar Sector-12, Jaipur - RSPCB",01-06-2024 06:00:00,26.843698,75.766894,CO,7,30,16
India,Rajasthan,Jaipur,"Police Commissionerate, Jaipur - RSPCB",01-06-2024 06:00:00,26.9164092,75.7994901,OZONE,23,80,40
India,Rajasthan,Jaipur,"RIICO Sitapura, Jaipur - RSPCB",01-06-2024 06:00:00,26.786682,75.827928,PM2.5,28,122,55
India,Rajasthan,Jaipur,"RIICO Sitapura, Jaipur - RSPCB",01-06-2024 06:00:00,26.786682,75.827928,NH3,1,2,1
India,Rajasthan,Jaipur,"RIICO Sitapura, Jaipur - RSPCB",01-06-2024 06:00:00,26.786682,75.827928,CO,32,94,46
India,Rajasthan,Jaisalmer,"Sadar Bazar, Jaisalmer - RSPCB",01-06-2024 06:00:00,26.912329,70.909168,NH3,2,19,8
India,Rajasthan,Jalore,"Mudtra Sili, Jalore - RSPCB",01-06-2024 06:00:00,25.344694,72.626208,NH3,3,7,5
India,Rajasthan,Jhalawar,"Rajlaxmi Nagar, Jhalawar - RSPCB",01-06-2024 06:00:00,24.588397,76.172782,NH3,1,2,2
India,Rajasthan,Jhunjhunu,"Indra Nagar, Jhunjhunu - RSPCB",01-06-2024 06:00:00,28.108988,75.386577,PM2.5,24,289,72
India,Rajasthan,Jhunjhunu,"Indra Nagar, Jhunjhunu - RSPCB",01-06-2024 06:00:00,28.108988,75.386577,PM10,39,235,142
India,Rajasthan,Jhunjhunu,"Indra Nagar, Jhunjhunu - RSPCB",01-06-2024 06:00:00,28.108988,75.386577,NO2,10,35,15
India,Rajasthan,Jhunjhunu,"Indra Nagar, Jhunjhunu - RSPCB",01-06-2024 06:00:00,28.108988,75.386577,NH3,16,33,27
India,Rajasthan,Jodhpur,"Collectorate, Jodhpur - RSPCB",01-06-2024 06:00:00,26.268249,73.0193853,PM10,42,167,110
India,Rajasthan,Jodhpur,"Collectorate, Jodhpur - RSPCB",01-06-2024 06:00:00,26.268249,73.0193853,OZONE,3,63,26
India,Rajasthan,Jodhpur,"Digari Kalan, Jodhpur - RSPCB",01-06-2024 06:00:00,26.295810,73.082283,NH3,1,4,2
India,Rajasthan,Jodhpur,"Jhalamand, Jodhpur - RSPCB",01-06-2024 06:00:00,26.215415,73.070156,PM10,66,107,80
India,Rajasthan,Jodhpur,"Mandor, Jodhpur - RSPCB",01-06-2024 06:00:00,26.358805,73.047444,NH3,2,10,5
India,Rajasthan,Jodhpur,"Mandor, Jodhpur - RSPCB",01-06-2024 06:00:00,26.358805,73.047444,SO2,1,4,2
India,Rajasthan,Jodhpur,"Mandor, Jodhpur - RSPCB",01-06-2024 06:00:00,26.358805,73.047444,CO,14,20,20
India,Rajasthan,Jodhpur,"Samrat Ashok Udhyan, Jodhpur - RSPCB",01-06-2024 06:00:00,26.253384,72.976571,PM2.5,15,39,28
India,Rajasthan,Karauli,"Satyawati Vihar, Karauli - RSPCB",01-06-2024 06:00:00,26.506177,77.025989,CO,6,16,8
India,Rajasthan,Karauli,"Satyawati Vihar, Karauli - RSPCB",01-06-2024 06:00:00,26.506177,77.025989,OZONE,50,122,71
India,Rajasthan,Kota,"Nayapura, Kota - RSPCB",01-06-2024 06:00:00,25.196024,75.855668,NO2,15,72,25
India,Rajasthan,Kota,"Shrinath Puram, Kota - RSPCB",01-06-2024 06:00:00,25.14389,75.821256,NO2,14,31,19
India,Rajasthan,Nagaur,"Karni Colony, Nagaur - RSPCB",01-06-2024 06:00:00,27.213494,73.734444,PM2.5,32,63,42
India,Rajasthan,Pali,"Indira Colony Vistar, Pali - RSPCB",01-06-2024 06:00:00,25.771061, 73.340227,NO2,26,89,45
India,Rajasthan,Pratapgarh,"Pragati Nagar, Pratapgarh - RSPCB",01-06-2024 06:00:00,24.041198,74.780702,NH3,7,20,10
India,Rajasthan,Rajsamand,"Dhoinda, Rajsamand - RSPCB",01-06-2024 06:00:00,25.036360,73.883502,NO2,3,25,10
India,Rajasthan,Rajsamand,"Dhoinda, Rajsamand - RSPCB",01-06-2024 06:00:00,25.036360,73.883502,OZONE,22,96,54
India,Rajasthan,Sawai Madhopur,"Sahu Nagar, Sawai Madhopur - RSPCB",01-06-2024 06:00:00,26.031443,76.359327,NH3,15,25,19
India,Rajasthan,Sri Ganganagar,"Old City, Sri Ganganagar - RSPCB",01-06-2024 06:00:00,29.931624,73.864511,NO2,13,94,35
India,Rajasthan,Udaipur,"Ashok Nagar, Udaipur - RSPCB",01-06-2024 06:00:00,24.5886166,73.6321397,SO2,1,14,7
India,Sikkim,Gangtok,"Zero Point GICI, Gangtok - SSPCB",01-06-2024 06:00:00,27.338530,88.614099,PM10,14,24,19
India,TamilNadu,Ariyalur,"Keelapalur, Ariyalur - TNPCB",01-06-2024 06:00:00,11.06825,79.07033,NO2,NA,NA,NA
India,TamilNadu,Chennai,"Alandur Bus Depot, Chennai - CPCB",01-06-2024 06:00:00,12.9099161,80.1076538,PM2.5,23,42,25
India,TamilNadu,Chennai,"Alandur Bus Depot, Chennai - CPCB",01-06-2024 06:00:00,12.9099161,80.1076538,PM10,23,42,25
India,TamilNadu,Chennai,"Alandur Bus Depot, Chennai - CPCB",01-06-2024 06:00:00,12.9099161,80.1076538,SO2,1,17,4
India,TamilNadu,Chennai,"Alandur Bus Depot, Chennai - CPCB",01-06-2024 06:00:00,12.9099161,80.1076538,OZONE,1,25,4
India,TamilNadu,Chennai,"Kodungaiyur, Chennai - TNPCB",01-06-2024 06:00:00,13.1278,80.2642,PM10,40,131,75
India,TamilNadu,Chennai,"Kodungaiyur, Chennai - TNPCB",01-06-2024 06:00:00,13.1278,80.2642,NH3,5,8,6
India,TamilNadu,Chennai,"Kodungaiyur, Chennai - TNPCB",01-06-2024 06:00:00,13.1278,80.2642,SO2,1,8,4
India,TamilNadu,Chennai,"Kodungaiyur, Chennai - TNPCB",01-06-2024 06:00:00,13.1278,80.2642,OZONE,32,102,47
India,TamilNadu,Coimbatore,"PSG College of Arts and Science, Coimbatore - TNPCB",01-06-2024 06:00:00,11.0328,77.0349,NO2,1,3,1
India,TamilNadu,Coimbatore,"PSG College of Arts and Science, Coimbatore - TNPCB",01-06-2024 06:00:00,11.0328,77.0349,NH3,1,1,1
India,TamilNadu,Cuddalore,"Semmandalam, Cuddalore - TNPCB",01-06-2024 06:00:00,11.7637683,79.7499835,NH3,2,3,3
India,TamilNadu,Gummidipoondi,"Anthoni Pillai Nagar, Gummidipoondi - TNPCB",01-06-2024 06:00:00,13.4127,80.1081,PM10,74,126,96
India,TamilNadu,Ooty,"Bombay Castel, Ooty - TNPCB",01-06-2024 06:00:00,11.4068288,76.7138973,PM2.5,10,78,46
India,TamilNadu,Thoothukudi,"Meelavittan, Thoothukudi - TNPCB",01-06-2024 06:00:00,8.816428 ,78.099039,CO,13,119,66
India,TamilNadu,Thoothukudi,"Meelavittan, Thoothukudi - TNPCB",01-06-2024 06:00:00,8.816428 ,78.099039,OZONE,1,5,2
India,Telangana,Hyderabad,"Central University, Hyderabad - TSPCB",01-06-2024 06:00:00,17.460103,78.334361,PM2.5,32,127,61
India,Telangana,Hyderabad,"Central University, Hyderabad - TSPCB",01-06-2024 06:00:00,17.460103,78.334361,PM10,80,146,111
India,Telangana,Hyderabad,"Central University, Hyderabad - TSPCB",01-06-2024 06:00:00,17.460103,78.334361,SO2,4,28,9
India,Telangana,Hyderabad,"Central University, Hyderabad - TSPCB",01-06-2024 06:00:00,17.460103,78.334361,CO,12,96,47
India,Telangana,Hyderabad,"ECIL Kapra, Hyderabad - TSPCB",01-06-2024 06:00:00,17.470431,78.566959,PM2.5,NA,NA,NA
India,Telangana,Hyderabad,"ECIL Kapra, Hyderabad - TSPCB",01-06-2024 06:00:00,17.470431,78.566959,NH3,NA,NA,NA
India,Telangana,Hyderabad,"ECIL Kapra, Hyderabad - TSPCB",01-06-2024 06:00:00,17.470431,78.566959,SO2,NA,NA,NA
India,Telangana,Hyderabad,"IITH Kandi, Hyderabad - TSPCB",01-06-2024 06:00:00,17.585705,78.126199,NH3,5,7,6
India,Telangana,Hyderabad,"IITH Kandi, Hyderabad - TSPCB",01-06-2024 06:00:00,17.585705,78.126199,OZONE,14,29,20
India,Telangana,Hyderabad,"Kokapet, Hyderabad - TSPCB",01-06-2024 06:00:00,17.393559,78.339194,PM2.5,84,247,162
India,Telangana,Hyderabad,"Kokapet, Hyderabad - TSPCB",01-06-2024 06:00:00,17.393559,78.339194,CO,19,30,28
India,Telangana,Hyderabad,"Kokapet, Hyderabad - TSPCB",01-06-2024 06:00:00,17.393559,78.339194,OZONE,2,4,2
India,Telangana,Hyderabad,"Kompally Municipal Office, Hyderabad - TSPCB",01-06-2024 06:00:00,17.544899,78.486949,PM2.5,42,87,64
India,Telangana,Hyderabad,"Ramachandrapuram, Hyderabad - TSPCB",01-06-2024 06:00:00,17.528544,78.286195,NO2,11,12,12
India,Telangana,Hyderabad,"Ramachandrapuram, Hyderabad - TSPCB",01-06-2024 06:00:00,17.528544,78.286195,CO,21,25,22
India,Telangana,Hyderabad,"Ramachandrapuram, Hyderabad - TSPCB",01-06-2024 06:00:00,17.528544,78.286195,OZONE,6,71,11
India,Telangana,Hyderabad,"Sanathnagar, Hyderabad - TSPCB",01-06-2024 06:00:00,17.4559458,78.4332152,PM2.5,40,183,78
India,Telangana,Hyderabad,"Somajiguda, Hyderabad - TSPCB",01-06-2024 06:00:00,17.417094,78.457437,PM10,NA,NA,NA
India,Telangana,Hyderabad,"Somajiguda, Hyderabad - TSPCB",01-06-2024 06:00:00,17.417094,78.457437,OZONE,NA,NA,NA
India,Telangana,Hyderabad,"Zoo Park, Hyderabad - TSPCB",01-06-2024 06:00:00,17.349694,78.451437,NO2,7,31,17
India,Telangana,Hyderabad,"Zoo Park, Hyderabad - TSPCB",01-06-2024 06:00:00,17.349694,78.451437,NH3,1,2,1
India,Telangana,Hyderabad,"Zoo Park, Hyderabad - TSPCB",01-06-2024 06:00:00,17.349694,78.451437,SO2,1,16,5
India,Tripura,Agartala,"Bardowali, Agartala - Tripura SPCB",01-06-2024 06:00:00,23.8175497,91.2726974,SO2,39,44,42
India,Uttar_Pradesh,Agra,"Manoharpur, Agra - UPPCB",01-06-2024 06:00:00,27.23711,78.01936,PM2.5,35,79,49
India,Uttar_Pradesh,Agra,"Manoharpur, Agra - UPPCB",01-06-2024 06:00:00,27.23711,78.01936,SO2,19,27,23
India,Uttar_Pradesh,Agra,"Rohta, Agra - UPPCB",01-06-2024 06:00:00,27.106972,78.000111,PM2.5,NA,NA,NA
India,Uttar_Pradesh,Agra,"Sanjay Palace, Agra - UPPCB",01-06-2024 06:00:00,27.19865833,78.00598056,CO,6,109,73
India,Uttar_Pradesh,Agra,"Sanjay Palace, Agra - UPPCB",01-06-2024 06:00:00,27.19865833,78.00598056,OZONE,13,74,32
India,Uttar_Pradesh,Agra,"Shahjahan Garden, Agra - UPPCB",01-06-2024 06:00:00,27.169338,78.03582,NH3,1,28,7
India,Uttar_Pradesh,Agra,"Shastripuram, Agra - UPPCB",01-06-2024 06:00:00,27.19862,77.92066,PM10,NA,NA,NA
India,Uttar_Pradesh,Baghpat,"Sardar Patel Inter College, Baghpat - UPPCB",01-06-2024 06:00:00,28.964949,77.278761,OZONE,3,169,10
India,Uttar_Pradesh,Bareilly,"Rajendra Nagar, Bareilly - UPPCB",01-06-2024 06:00:00,28.38910936,79.42963708,PM2.5,16,38,25
India,Uttar_Pradesh,Bareilly,"Rajendra Nagar, Bareilly - UPPCB",01-06-2024 06:00:00,28.38910936,79.42963708,NO2,2,3,2
India,Uttar_Pradesh,Bulandshahr,"Yamunapuram, Bulandshahr - UPPCB",01-06-2024 06:00:00,28.406963,77.849831,PM10,107,246,167
India,Uttar_Pradesh,Firozabad,"Nagla Bhau, Firozabad - UPPCB",01-06-2024 06:00:00,27.168897,78.376960,OZONE,15,18,16
India,Uttar_Pradesh,Ghaziabad,"Indirapuram, Ghaziabad - UPPCB",01-06-2024 06:00:00,28.646233,77.358075,PM2.5,NA,NA,NA
India,Uttar_Pradesh,Ghaziabad,"Indirapuram, Ghaziabad - UPPCB",01-06-2024 06:00:00,28.646233,77.358075,PM10,165,420,262
India,Uttar_Pradesh,Ghaziabad,"Indirapuram, Ghaziabad - UPPCB",01-06-2024 06:00:00,28.646233,77.358075,CO,29,141,100
India,Uttar_Pradesh,Ghaziabad,"Loni, Ghaziabad - UPPCB",01-06-2024 06:00:00,28.757294,77.278792,SO2,13,73,30
India,Uttar_Pradesh,Gorakhpur,"Madan Mohan Malaviya University of Technology, Gorakhpur - UPPCB",01-06-2024 06:00:00,26.730136,83.433859,NO2,11,11,11
India,Uttar_Pradesh,Greater Noida,"Knowledge Park - III, Greater Noida - UPPCB",01-06-2024 06:00:00,28.47272,77.482000,PM2.5,73,309,183
India,Uttar_Pradesh,Greater Noida,"Knowledge Park - III, Greater Noida - UPPCB",01-06-2024 06:00:00,28.47272,77.482000,SO2,5,49,24
India,Uttar_Pradesh,Hapur,"Anand Vihar, Hapur - UPPCB",01-06-2024 06:00:00,28.725645,77.749675,CO,26,96,83
India,Uttar_Pradesh,Jhansi,"Shivaji Nagar, Jhansi - UPPCB",01-06-2024 06:00:00,25.4547,78.6039,NO2,2,50,10
India,Uttar_Pradesh,Jhansi,"Shivaji Nagar, Jhansi - UPPCB",01-06-2024 06:00:00,25.4547,78.6039,SO2,18,22,20
India,Uttar_Pradesh,Kanpur,"Nehru Nagar, Kanpur - UPPCB",01-06-2024 06:00:00,26.4703136,80.3229863,OZONE,14,185,24
India,Uttar_Pradesh,Khurja,"Kalindi Kunj, Khurja - UPPCB",01-06-2024 06:00:00,28.2348927,77.8683002,NO2,15,26,20
India,Uttar_Pradesh,Khurja,"Kalindi Kunj, Khurja - UPPCB",01-06-2024 06:00:00,28.2348927,77.8683002,OZONE,93,229,98
India,Uttar_Pradesh,Lucknow,"B R Ambedkar University, Lucknow - UPPCB",01-06-2024 06:00:00,26.766433,80.927299,NH3,12,16,15
India,Uttar_Pradesh,Lucknow,"B R Ambedkar University, Lucknow - UPPCB",01-06-2024 06:00:00,26.766433,80.927299,CO,20,39,32
India,Uttar_Pradesh,Lucknow,"Kendriya Vidyalaya, Lucknow - CPCB",01-06-2024 06:00:00,26.906111,80.948222,NH3,3,17,12
India,Uttar_Pradesh,Lucknow,"Kukrail Picnic Spot-1, Lucknow - UPPCB",01-06-2024 06:00:00,26.90723,80.98579,PM2.5,33,161,66
India,Uttar_Pradesh,Lucknow,"Kukrail Picnic Spot-1, Lucknow - UPPCB",01-06-2024 06:00:00,26.90723,80.98579,CO,10,40,26
India,Uttar_Pradesh,Lucknow,"Lalbagh, Lucknow - CPCB",01-06-2024 06:00:00,26.8458805,80.9365541,SO2,1,15,8
India,Uttar_Pradesh,Lucknow,"Lalbagh, Lucknow - CPCB",01-06-2024 06:00:00,26.8458805,80.9365541,OZONE,19,145,41
India,Uttar_Pradesh,Lucknow,"Talkatora District Industries Center, Lucknow - CPCB",01-06-2024 06:00:00,26.83399722,80.8917361,NH3,4,30,13
India,Uttar_Pradesh,Meerut,"Ganga Nagar, Meerut - UPPCB",01-06-2024 06:00:00,28.999264,77.7590354,PM2.5,42,163,85
India,Uttar_Pradesh,Meerut,"Ganga Nagar, Meerut - UPPCB",01-06-2024 06:00:00,28.999264,77.7590354,NH3,8,15,11
India,Uttar_Pradesh,Meerut,"Ganga Nagar, Meerut - UPPCB",01-06-2024 06:00:00,28.999264,77.7590354,CO,11,176,59
India,Uttar_Pradesh,Meerut,"Jai Bhim Nagar, Meerut - UPPCB",01-06-2024 06:00:00,28.9535882,77.7622941,SO2,9,13,11
India,Uttar_Pradesh,Meerut,"Pallavpuram Phase 2, Meerut - UPPCB",01-06-2024 06:00:00,29.063510,77.709723,NH3,4,9,6
India,Uttar_Pradesh,Meerut,"Pallavpuram Phase 2, Meerut - UPPCB",01-06-2024 06:00:00,29.063510,77.709723,SO2,13,59,36
India,Uttar_Pradesh,Meerut,"Pallavpuram Phase 2, Meerut - UPPCB",01-06-2024 06:00:00,29.063510,77.709723,CO,35,103,72
India,Uttar_Pradesh,Meerut,"Pallavpuram Phase 2, Meerut - UPPCB",01-06-2024 06:00:00,29.063510,77.709723,OZONE,2,145,16
India,Uttar_Pradesh,Moradabad,"Buddhi Vihar, Moradabad - UPPCB",01-06-2024 06:00:00,28.83526,78.74460,PM10,77,189,119
India,Uttar_Pradesh,Moradabad,"Eco Herbal Park, Moradabad - UPPCB",01-06-2024 06:00:00,28.840739,78.697531,PM2.5,38,157,77
India,Uttar_Pradesh,Moradabad,"Eco Herbal Park, Moradabad - UPPCB",01-06-2024 06:00:00,28.840739,78.697531,CO,37,108,72
India,Uttar_Pradesh,Moradabad,"Jigar Colony, Moradabad - UPPCB",01-06-2024 06:00:00,28.856664,78.772638,NH3,5,6,6
India,Uttar_Pradesh,Moradabad,"Transport Nagar, Moradabad - UPPCB",01-06-2024 06:00:00,28.802625,78.753728,NH3,5,5,5
India,Uttar_Pradesh,Muzaffarnagar,"New Mandi, Muzaffarnagar - UPPCB",01-06-2024 06:00:00,29.4723508,77.7194031,PM2.5,90,320,192
India,Uttar_Pradesh,Muzaffarnagar,"New Mandi, Muzaffarnagar - UPPCB",01-06-2024 06:00:00,29.4723508,77.7194031,NO2,16,43,26
India,Uttar_Pradesh,Muzaffarnagar,"New Mandi, Muzaffarnagar - UPPCB",01-06-2024 06:00:00,29.4723508,77.7194031,SO2,19,93,45
India,Uttar_Pradesh,Muzaffarnagar,"New Mandi, Muzaffarnagar - UPPCB",01-06-2024 06:00:00,29.4723508,77.7194031,CO,24,56,44
India,Uttar_Pradesh,Noida,"Sector - 125, Noida - UPPCB",01-06-2024 06:00:00,28.5447608,77.3231257,PM10,NA,NA,NA
India,Uttar_Pradesh,Noida,"Sector - 125, Noida - UPPCB",01-06-2024 06:00:00,28.5447608,77.3231257,OZONE,2,52,8
India,Uttar_Pradesh,Noida,"Sector - 62, Noida - IMD",01-06-2024 06:00:00,28.6245479,77.3577104,PM10,155,402,228
India,Uttar_Pradesh,Noida,"Sector-1, Noida - UPPCB",01-06-2024 06:00:00,28.5898,77.3101,PM2.5,48,250,115
India,Uttar_Pradesh,Noida,"Sector-1, Noida - UPPCB",01-06-2024 06:00:00,28.5898,77.3101,NO2,20,188,82
India,Uttar_Pradesh,Prayagraj,"Jhunsi, Prayagraj - UPPCB",01-06-2024 06:00:00,25.425602,81.917152,NH3,5,5,5
India,Uttar_Pradesh,Prayagraj,"Jhunsi, Prayagraj - UPPCB",01-06-2024 06:00:00,25.425602,81.917152,OZONE,1,119,29
India,Uttar_Pradesh,Prayagraj,"Nagar Nigam, Prayagraj - UPPCB",01-06-2024 06:00:00,25.44919916 ,81.82735986 ,OZONE,10,12,11
India,Uttar_Pradesh,Varanasi,"Bhelupur, Varanasi - UPPCB",01-06-2024 06:00:00,25.301778,82.996789,PM2.5,7,21,10
India,Uttar_Pradesh,Varanasi,"Bhelupur, Varanasi - UPPCB",01-06-2024 06:00:00,25.301778,82.996789,SO2,30,31,31
India,Uttar_Pradesh,Varanasi,"IESD Banaras Hindu University, Varanasi - UPPCB",01-06-2024 06:00:00,25.262326,82.995408,PM10,12,47,30
India,Uttar_Pradesh,Varanasi,"IESD Banaras Hindu University, Varanasi - UPPCB",01-06-2024 06:00:00,25.262326,82.995408,NH3,1,2,1
India,Uttar_Pradesh,Varanasi,"IESD Banaras Hindu University, Varanasi - UPPCB",01-06-2024 06:00:00,25.262326,82.995408,OZONE,NA,NA,NA
India,Uttar_Pradesh,Varanasi,"Maldahiya, Varanasi - UPPCB",01-06-2024 06:00:00,25.32393,82.99687,OZONE,2,22,8
India,Uttar_Pradesh,Vrindavan,"Omex Eternity, Vrindavan - UPPCB",01-06-2024 06:00:00,27.5714090,77.6557570,NO2,12,12,12
India,Uttar_Pradesh,Vrindavan,"Omex Eternity, Vrindavan - UPPCB",01-06-2024 06:00:00,27.5714090,77.6557570,CO,20,60,54
India,Uttarakhand,Dehradun,"Doon University, Dehradun - UKPCB",01-06-2024 06:00:00,30.269444,78.044167,PM10,82,164,117
India,Uttarakhand,Dehradun,"Doon University, Dehradun - UKPCB",01-06-2024 06:00:00,30.269444,78.044167,CO,16,49,37
India,Uttarakhand,Kashipur,"Govt. Girls Inter College, Kashipur - UKPCB",01-06-2024 06:00:00,29.2124114,78.9611753,PM2.5,49,231,113
India,Uttarakhand,Kashipur,"Govt. Girls Inter College, Kashipur - UKPCB",01-06-2024 06:00:00,29.2124114,78.9611753,NO2,10,45,20
India,West_Bengal,Asansol,"Asansol Court Area, Asansol - WBPCB",01-06-2024 06:00:00,23.685297,86.945968,SO2,11,14,13
India,West_Bengal,Durgapur,"Sidhu Kanhu Indoor Stadium, Durgapur - WBPCB",01-06-2024 06:00:00,23.5404352,87.2892225,PM10,57,127,89
India,West_Bengal,Durgapur,"Sidhu Kanhu Indoor Stadium, Durgapur - WBPCB",01-06-2024 06:00:00,23.5404352,87.2892225,SO2,13,33,24
India,West_Bengal,Haldia,"Priyambada Housing Estate, Haldia - WBPCB",01-06-2024 06:00:00,22.06047,88.109737,SO2,10,20,14
India,West_Bengal,Howrah,"Belur Math, Howrah - WBPCB",01-06-2024 06:00:00,22.629801,88.352017,NH3,1,2,2
India,West_Bengal,Howrah,"Belur Math, Howrah - WBPCB",01-06-2024 06:00:00,22.629801,88.352017,CO,2,30,7
India,West_Bengal,Howrah,"Ghusuri, Howrah - WBPCB",01-06-2024 06:00:00,22.611968,88.347422,NH3,9,10,10
India,West_Bengal,Howrah,"Padmapukur, Howrah - WBPCB",01-06-2024 06:00:00,22.5687319,88.2797276,OZONE,19,36,20
India,West_Bengal,Kolkata,"Ballygunge, Kolkata - WBPCB",01-06-2024 06:00:00,22.5367507,88.3638022,PM2.5,17,63,43
India,West_Bengal,Kolkata,"Ballygunge, Kolkata - WBPCB",01-06-2024 06:00:00,22.5367507,88.3638022,NH3,8,29,12
India,West_Bengal,Kolkata,"Ballygunge, Kolkata - WBPCB",01-06-2024 06:00:00,22.5367507,88.3638022,SO2,2,15,7
India,West_Bengal,Kolkata,"Bidhannagar, Kolkata - WBPCB",01-06-2024 06:00:00,22.58157048,88.41002457,NH3,8,8,8
India,West_Bengal,Kolkata,"Bidhannagar, Kolkata - WBPCB",01-06-2024 06:00:00,22.58157048,88.41002457,OZONE,9,47,14
India,West_Bengal,Kolkata,"Fort William, Kolkata - WBPCB",01-06-2024 06:00:00,22.556640,88.342674,PM2.5,36,86,61
India,West_Bengal,Kolkata,"Fort William, Kolkata - WBPCB",01-06-2024 06:00:00,22.556640,88.342674,CO,12,42,22
India,West_Bengal,Kolkata,"Jadavpur, Kolkata - WBPCB",01-06-2024 06:00:00,22.49929,88.36917,NH3,1,5,4
India,West_Bengal,Kolkata,"Jadavpur, Kolkata - WBPCB",01-06-2024 06:00:00,22.49929,88.36917,CO,7,47,22
India,West_Bengal,Kolkata,"Rabindra Bharati University, Kolkata - WBPCB",01-06-2024 06:00:00,22.627847,88.380669,SO2,7,11,9
India,West_Bengal,Kolkata,"Rabindra Sarobar, Kolkata - WBPCB",01-06-2024 06:00:00,22.51106,88.35142,PM2.5,17,44,31
India,West_Bengal,Kolkata,"Rabindra Sarobar, Kolkata - WBPCB",01-06-2024 06:00:00,22.51106,88.35142,NO2,40,52,44
India,West_Bengal,Kolkata,"Rabindra Sarobar, Kolkata - WBPCB",01-06-2024 06:00:00,22.51106,88.35142,NH3,8,9,8
India,West_Bengal,Kolkata,"Victoria, Kolkata - WBPCB",01-06-2024 06:00:00,22.5448082,88.3403691,NH3,6,6,6
India,West_Bengal,Kolkata,"Victoria, Kolkata - WBPCB",01-06-2024 06:00:00,22.5448082,88.3403691,CO,22,61,42
India,West_Bengal,Siliguri,"Ward-32 Bapupara, Siliguri - WBPCB",01-06-2024 06:00:00,26.6879226,88.4152495,PM10,23,77,42
India,Andhra_Pradesh,Amaravati,"Secretariat, Amaravati - APPCB",01-06-2024 06:00:00,16.5150833,80.5181667,PM2.5,35,82,56
India,Andhra_Pradesh,Amaravati,"Secretariat, Amaravati - APPCB",01-06-2024 06:00:00,16.5150833,80.5181667,NO2,3,13,8
India,Andhra_Pradesh,Amaravati,"Secretariat, Amaravati - APPCB",01-06-2024 06:00:00,16.5150833,80.5181667,CO,16,76,50
India,Andhra_Pradesh,Anantapur,"Gulzarpet, Anantapur - APPCB",01-06-2024 06:00:00,14.675886,77.593027,NO2,12,13,12
India,Andhra_Pradesh,Chittoor,"Gangineni Cheruvu, Chittoor - APPCB",01-06-2024 06:00:00,13.204880,79.097889,PM2.5,14,80,49
India,Andhra_Pradesh,Chittoor,"Gangineni Cheruvu, Chittoor - APPCB",01-06-2024 06:00:00,13.204880,79.097889,CO,18,42,22
India,Andhra_Pradesh,Kadapa,"Yerramukkapalli, Kadapa - APPCB",01-06-2024 06:00:00,14.465052,78.824187,PM2.5,47,97,63
India,Andhra_Pradesh,Kadapa,"Yerramukkapalli, Kadapa - APPCB",01-06-2024 06:00:00,14.465052,78.824187,SO2,2,3,2
India,Andhra_Pradesh,Rajamahendravaram,"Anand Kala Kshetram, Rajamahendravaram - APPCB",01-06-2024 06:00:00,16.9872867,81.7363176,PM10,55,105,79
India,Andhra_Pradesh,Rajamahendravaram,"Anand Kala Kshetram, Rajamahendravaram - APPCB",01-06-2024 06:00:00,16.9872867,81.7363176,SO2,11,12,11
India,Andhra_Pradesh,Tirupati,"Vaikuntapuram, Tirupati - APPCB",01-06-2024 06:00:00,13.615387,79.409230,PM10,14,131,60
India,Andhra_Pradesh,Vijayawada,"HB Colony, Vijayawada - APPCB",01-06-2024 06:00:00,16.536107,80.594233,SO2,6,8,7
India,Andhra_Pradesh,Vijayawada,"Kanuru, Vijayawada - APPCB",01-06-2024 06:00:00,16.486692,80.699436,OZONE,40,40,40
India,Andhra_Pradesh,Vijayawada,"Rajiv Nagar, Vijayawada - APPCB",01-06-2024 06:00:00,16.554731,80.649110,PM10,53,124,62
India,Andhra_Pradesh,Visakhapatnam,"GVM Corporation, Visakhapatnam - APPCB",01-06-2024 06:00:00,17.72,83.3,PM10,32,119,76
India,Andhra_Pradesh,Visakhapatnam,"GVM Corporation, Visakhapatnam - APPCB",01-06-2024 06:00:00,17.72,83.3,NO2,3,49,36
India,Andhra_Pradesh,Visakhapatnam,"GVM Corporation, Visakhapatnam - APPCB",01-06-2024 06:00:00,17.72,83.3,OZONE,13,181,181
India,Assam,Guwahati,"Railway Colony, Guwahati - PCBA",01-06-2024 06:00:00,26.181742,91.78063,OZONE,2,18,9
India,Assam,Nagaon,"Christianpatty, Nagaon - PCBA",01-06-2024 06:00:00,26.349082,92.68449,PM10,56,115,76
India,Assam,Nalbari,"Bata Chowk, Nalbari - PCBA",01-06-2024 06:00:00,26.446912,91.439057,SO2,5,12,8
India,Assam,Silchar,"Tarapur, Silchar - PCBA",01-06-2024 06:00:00,24.82827,92.79525,CO,22,45,31
India,Assam,Silchar,"Tarapur, Silchar - PCBA",01-06-2024 06:00:00,24.82827,92.79525,OZONE,NA,NA,NA
India,Bihar,Araria,"Kharahiya Basti, Araria - BSPCB",01-06-2024 06:00:00,26.146529,87.454184,PM10,20,67,42
India,Bihar,Araria,"Kharahiya Basti, Araria - BSPCB",01-06-2024 06:00:00,26.146529,87.454184,NO2,6,11,8
India,Bihar,Arrah,"New DM Office, Arrah - BSPCB",01-06-2024 06:00:00,25.5626095,84.663264,PM2.5,18,45,33
India,Bihar,Arrah,"New DM Office, Arrah - BSPCB",01-06-2024 06:00:00,25.5626095,84.663264,NH3,4,30,9
India,Bihar,Aurangabad,"Gurdeo Nagar, Aurangabad - BSPCB",01-06-2024 06:00:00,24.75746,84.366208,PM10,NA,NA,NA
India,Bihar,Bhagalpur,"DM Office_Kachari Chowk, Bhagalpur - BSPCB",01-06-2024 06:00:00,25.251013,86.989001,NH3,3,7,6
India,Bihar,Bhagalpur,"Mayaganj, Bhagalpur - BSPCB",01-06-2024 06:00:00,25.265194,87.012947,NO2,4,10,7
India,Bihar,Bihar Sharif,"D M Colony, Bihar Sharif - BSPCB",01-06-2024 06:00:00,25.204762,85.514960,PM2.5,NA,NA,NA
India,Bihar,Bihar Sharif,"D M Colony, Bihar Sharif - BSPCB",01-06-2024 06:00:00,25.204762,85.514960,PM10,NA,NA,NA
India,Bihar,Bihar Sharif,"D M Colony, Bihar Sharif - BSPCB",01-06-2024 06:00:00,25.204762,85.514960,OZONE,9,65,26
India,Bihar,Gaya,"Collectorate, Gaya - BSPCB",01-06-2024 06:00:00,24.7955,84.9994,CO,122,145,133
India,Bihar,Gaya,"Kareemganj, Gaya - BSPCB",01-06-2024 06:00:00,24.792403,84.992416,PM10,20,108,61
India,Bihar,Gaya,"Kareemganj, Gaya - BSPCB",01-06-2024 06:00:00,24.792403,84.992416,OZONE,11,27,20
India,Bihar,Gaya,"SFTI Kusdihra, Gaya - BSPCB",01-06-2024 06:00:00,24.762518,84.982348,PM2.5,17,214,74
India,Bihar,Gaya,"SFTI Kusdihra, Gaya - BSPCB",01-06-2024 06:00:00,24.762518,84.982348,SO2,6,13,8
India,Bihar,Hajipur,"Industrial Area, Hajipur - BSPCB",01-06-2024 06:00:00,25.697189,85.245900,PM10,50,110,80
India,Bihar,Hajipur,"Industrial Area, Hajipur - BSPCB",01-06-2024 06:00:00,25.697189,85.245900,NH3,12,14,13
India,Bihar,Hajipur,"Industrial Area, Hajipur - BSPCB",01-06-2024 06:00:00,25.697189,85.245900,CO,18,30,29
India,Bihar,Katihar,"Mirchaibari, Katihar - BSPCB",01-06-2024 06:00:00,25.560083,87.553265,PM10,NA,NA,NA
India,Bihar,Katihar,"Mirchaibari, Katihar - BSPCB",01-06-2024 06:00:00,25.560083,87.553265,SO2,NA,NA,NA
India,Bihar,Kishanganj,"SDM Office_Khagra, Kishanganj - BSPCB",01-06-2024 06:00:00,26.0881305,87.93840336,PM10,NA,NA,NA
India,Bihar,Kishanganj,"SDM Office_Khagra, Kishanganj - BSPCB",01-06-2024 06:00:00,26.0881305,87.93840336,SO2,6,6,6
India,Bihar,Kishanganj,"SDM Office_Khagra, Kishanganj - BSPCB",01-06-2024 06:00:00,26.0881305,87.93840336,OZONE,50,61,54
India,Bihar,Motihari,"Gandak Colony, Motihari - BSPCB",01-06-2024 06:00:00,26.63086,84.90051,NO2,17,42,31
India,Bihar,Motihari,"Gandak Colony, Motihari - BSPCB",01-06-2024 06:00:00,26.63086,84.90051,NH3,2,7,5
India,Bihar,Munger,"Town Hall, Munger - BSPCB",01-06-2024 06:00:00,25.376776,86.471523,SO2,22,29,25
India,Bihar,Muzaffarpur,"Buddha Colony, Muzaffarpur - BSPCB",01-06-2024 06:00:00,26.11442,85.39813,PM2.5,22,58,44
India,Bihar,Muzaffarpur,"Buddha Colony, Muzaffarpur - BSPCB",01-06-2024 06:00:00,26.11442,85.39813,PM10,20,65,48
India,Bihar,Muzaffarpur,"MIT-Daudpur Kothi, Muzaffarpur - BSPCB",01-06-2024 06:00:00,26.1403345,85.3650192,NH3,1,1,1
India,Bihar,Muzaffarpur,"Muzaffarpur Collectorate, Muzaffarpur - BSPCB",01-06-2024 06:00:00,26.1209,85.3647,PM2.5,25,325,92
India,Bihar,Muzaffarpur,"Muzaffarpur Collectorate, Muzaffarpur - BSPCB",01-06-2024 06:00:00,26.1209,85.3647,NO2,32,52,36
India,Bihar,Patna,"DRM Office Danapur, Patna - BSPCB",01-06-2024 06:00:00,25.586562,85.043586,PM10,62,103,82
India,Bihar,Patna,"Govt. High School Shikarpur, Patna - BSPCB",01-06-2024 06:00:00,25.592539,85.227158,PM2.5,28,60,42
India,Bihar,Patna,"Govt. High School Shikarpur, Patna - BSPCB",01-06-2024 06:00:00,25.592539,85.227158,OZONE,1,59,2
India,Bihar,Patna,"Muradpur, Patna - BSPCB",01-06-2024 06:00:00,25.619651,85.147382,PM10,94,187,132
India,Bihar,Patna,"Muradpur, Patna - BSPCB",01-06-2024 06:00:00,25.619651,85.147382,OZONE,5,62,6
India,Bihar,Patna,"Rajbansi Nagar, Patna - BSPCB",01-06-2024 06:00:00,25.599486,85.113666,NH3,2,4,3
India,Bihar,Patna,"Samanpura, Patna - BSPCB",01-06-2024 06:00:00,25.596727,85.085624,NO2,15,181,40
India,Bihar,Rajgir,"Dangi Tola, Rajgir - BSPCB",01-06-2024 06:00:00,25.03280,85.41948,NO2,14,15,15
India,Bihar,Rajgir,"Dangi Tola, Rajgir - BSPCB",01-06-2024 06:00:00,25.03280,85.41948,OZONE,31,48,34
India,Bihar,Saharsa,"Police Line, Saharsa - BSPCB",01-06-2024 06:00:00,25.892357,86.590325,NH3,9,9,9
India,Bihar,Samastipur,"DM Office_Kasipur, Samastipur - BSPCB",01-06-2024 06:00:00,25.859655,85.77944,PM2.5,NA,NA,NA
India,Bihar,Samastipur,"DM Office_Kasipur, Samastipur - BSPCB",01-06-2024 06:00:00,25.859655,85.77944,NO2,NA,NA,NA
India,Bihar,Samastipur,"DM Office_Kasipur, Samastipur - BSPCB",01-06-2024 06:00:00,25.859655,85.77944,NH3,NA,NA,NA
India,Bihar,Samastipur,"DM Office_Kasipur, Samastipur - BSPCB",01-06-2024 06:00:00,25.859655,85.77944,OZONE,2,6,3
India,Bihar,Sasaram,"Dada Peer, Sasaram - BSPCB",01-06-2024 06:00:00,24.952822,84.002396,NO2,8,51,29
India,Bihar,Sasaram,"Dada Peer, Sasaram - BSPCB",01-06-2024 06:00:00,24.952822,84.002396,NH3,6,17,12
India,Bihar,Siwan,"Chitragupta Nagar, Siwan - BSPCB",01-06-2024 06:00:00,26.2271665,84.3570427,PM10,NA,NA,NA
India,Bihar,Siwan,"Chitragupta Nagar, Siwan - BSPCB",01-06-2024 06:00:00,26.2271665,84.3570427,SO2,20,33,27
India,Chandigarh,Chandigarh,"Sector-25, Chandigarh - CPCC",01-06-2024 06:00:00,30.751462,76.762879,SO2,5,18,11
India,Chandigarh,Chandigarh,"Sector-53, Chandigarh - CPCC",01-06-2024 06:00:00,30.719859,76.738637,NH3,5,8,6
India,Chhattisgarh,Bhilai,"32Bungalows, Bhilai - CECB",01-06-2024 06:00:00,21.194815,81.314770,PM10,74,123,103
India,Chhattisgarh,Bhilai,"32Bungalows, Bhilai - CECB",01-06-2024 06:00:00,21.194815,81.314770,NO2,11,25,19
India,Chhattisgarh,Bhilai,"Civic Center, Bhilai - Bhilai Steel Plant",01-06-2024 06:00:00,21.185571,81.343175,PM10,43,112,70
India,Chhattisgarh,Bhilai,"Civic Center, Bhilai - Bhilai Steel Plant",01-06-2024 06:00:00,21.185571,81.343175,NO2,6,10,7
India,Chhattisgarh,Bhilai,"Civic Center, Bhilai - Bhilai Steel Plant",01-06-2024 06:00:00,21.185571,81.343175,NH3,1,104,8
India,Chhattisgarh,Bhilai,"Hathkhoj, Bhilai - CECB",01-06-2024 06:00:00,21.224231,81.408350,PM10,72,181,122
India,Chhattisgarh,Bhilai,"Hathkhoj, Bhilai - CECB",01-06-2024 06:00:00,21.224231,81.408350,NO2,6,55,23
India,Chhattisgarh,Bhilai,"Hathkhoj, Bhilai - CECB",01-06-2024 06:00:00,21.224231,81.408350,NH3,8,9,9
India,Chhattisgarh,Bilaspur,"Mangala, Bilaspur - NTPC",01-06-2024 06:00:00,22.08815,82.13737,PM2.5,39,99,66
India,Chhattisgarh,Chhal,"Nawapara SECL Colony, Chhal - CECB",01-06-2024 06:00:00,22.118125,83.140608,PM2.5,52,103,84
India,Chhattisgarh,Korba,"Rampur, Korba - CECB",01-06-2024 06:00:00,22.368195,82.746431,CO,10,24,19
India,Chhattisgarh,Korba,"Urja Nagar, Korba - CECB",01-06-2024 06:00:00,22.348441,82.549611,PM2.5,NA,NA,NA
India,Chhattisgarh,Korba,"Urja Nagar, Korba - CECB",01-06-2024 06:00:00,22.348441,82.549611,NO2,41,61,51
India,Chhattisgarh,Kunjemura,"OP Jindal School, Kunjemura - CECB",01-06-2024 06:00:00,22.126650,83.483212,PM2.5,40,87,59
India,Chhattisgarh,Kunjemura,"OP Jindal School, Kunjemura - CECB",01-06-2024 06:00:00,22.126650,83.483212,NO2,12,78,32
India,Chhattisgarh,Kunjemura,"OP Jindal School, Kunjemura - CECB",01-06-2024 06:00:00,22.126650,83.483212,OZONE,6,63,11
India,Chhattisgarh,Milupara,"Govt. Higher Secondary School, Milupara - CECB",01-06-2024 06:00:00,22.1910172,83.5197009,NO2,13,60,26
India,Chhattisgarh,Milupara,"Govt. Higher Secondary School, Milupara - CECB",01-06-2024 06:00:00,22.1910172,83.5197009,OZONE,12,55,19
India,Chhattisgarh,Raipur,"AIIMS, Raipur - CECB",01-06-2024 06:00:00,21.258815,81.578979,NO2,22,48,34
India,Chhattisgarh,Raipur,"AIIMS, Raipur - CECB",01-06-2024 06:00:00,21.258815,81.578979,NH3,6,6,6
India,Chhattisgarh,Raipur,"Bhatagaon New ISBT, Raipur - CECB",01-06-2024 06:00:00,21.219665,81.630094,PM2.5,42,58,51
India,Chhattisgarh,Raipur,"Bhatagaon New ISBT, Raipur - CECB",01-06-2024 06:00:00,21.219665,81.630094,NO2,3,14,10
India,Chhattisgarh,Raipur,"Bhatagaon New ISBT, Raipur - CECB",01-06-2024 06:00:00,21.219665,81.630094,CO,13,54,44
India,Chhattisgarh,Raipur,"Bhatagaon New ISBT, Raipur - CECB",01-06-2024 06:00:00,21.219665,81.630094,OZONE,3,9,4
India,Chhattisgarh,Raipur,"Krishak Nagar, Raipur - CECB",01-06-2024 06:00:00,21.237755,81.705301,CO,22,42,36
India,Chhattisgarh,Raipur,"Siltara Phase-II, Raipur - CECB",01-06-2024 06:00:00,21.371751,81.664929,PM10,69,185,122
India,Chhattisgarh,Raipur,"Siltara Phase-II, Raipur - CECB",01-06-2024 06:00:00,21.371751,81.664929,SO2,26,96,57
India,Chhattisgarh,Raipur,"Siltara Phase-II, Raipur - CECB",01-06-2024 06:00:00,21.371751,81.664929,CO,2,63,47
India,Chhattisgarh,Tumidih,"OP Jindal Industrial Park, Tumidih - CECB",01-06-2024 06:00:00,22.06631475,83.33820077,NO2,14,68,32
India,Delhi,Delhi,"Alipur, Delhi - DPCC",01-06-2024 06:00:00,28.815329,77.153010,NO2,7,104,40
India,Delhi,Delhi,"Anand Vihar, Delhi - DPCC",01-06-2024 06:00:00,28.647622,77.3158090,PM2.5,80,349,217
India,Delhi,Delhi,"Ashok Vihar, Delhi - DPCC",01-06-2024 06:00:00,28.695381,77.181665,NO2,17,178,74
India,Delhi,Delhi,"Ashok Vihar, Delhi - DPCC",01-06-2024 06:00:00,28.695381,77.181665,SO2,24,42,32
India,Delhi,Delhi,"Burari Crossing, Delhi - IMD",01-06-2024 06:00:00,28.7256504,77.2011573,PM10,140,428,249
India,Delhi,Delhi,"Burari Crossing, Delhi - IMD",01-06-2024 06:00:00,28.7256504,77.2011573,OZONE,6,99,14
India,Delhi,Delhi,"Chandni Chowk, Delhi - IITM",01-06-2024 06:00:00,28.656756,77.227234,PM10,132,320,213
India,Delhi,Delhi,"Chandni Chowk, Delhi - IITM",01-06-2024 06:00:00,28.656756,77.227234,CO,52,103,59
India,Delhi,Delhi,"DTU, Delhi - CPCB",01-06-2024 06:00:00,28.7500499,77.1112615,PM2.5,130,397,249
India,Delhi,Delhi,"DTU, Delhi - CPCB",01-06-2024 06:00:00,28.7500499,77.1112615,SO2,38,61,45
India,Delhi,Delhi,"Dr. Karni Singh Shooting Range, Delhi - DPCC",01-06-2024 06:00:00,28.498571,77.264840,PM2.5,75,265,163
India,Delhi,Delhi,"Dwarka-Sector 8, Delhi - DPCC ",01-06-2024 06:00:00,28.5710274,77.0719006,PM2.5,47,293,126
India,Delhi,Delhi,"Dwarka-Sector 8, Delhi - DPCC ",01-06-2024 06:00:00,28.5710274,77.0719006,PM10,129,500,281
India,Delhi,Delhi,"Dwarka-Sector 8, Delhi - DPCC ",01-06-2024 06:00:00,28.5710274,77.0719006,NO2,17,150,60
India,Delhi,Delhi,"IGI Airport (T3), Delhi - IMD",01-06-2024 06:00:00,28.5627763,77.1180053,PM2.5,45,291,108
India,Delhi,Delhi,"IGI Airport (T3), Delhi - IMD",01-06-2024 06:00:00,28.5627763,77.1180053,NO2,22,87,46
India,Delhi,Delhi,"IHBAS, Dilshad Garden, Delhi - CPCB",01-06-2024 06:00:00,28.6811736,77.3025234,NO2,6,34,25
India,Delhi,Delhi,"IHBAS, Dilshad Garden, Delhi - CPCB",01-06-2024 06:00:00,28.6811736,77.3025234,NH3,1,9,5
India,Delhi,Delhi,"ITO, Delhi - CPCB",01-06-2024 06:00:00,28.628624,77.241060,OZONE,2,93,4
India,Delhi,Delhi,"Jahangirpuri, Delhi - DPCC",01-06-2024 06:00:00,28.732820,77.170633,OZONE,2,178,15
India,Delhi,Delhi,"Jawaharlal Nehru Stadium, Delhi - DPCC",01-06-2024 06:00:00,28.580280,77.233829,OZONE,3,276,16
India,Delhi,Delhi,"Lodhi Road, Delhi - IITM",01-06-2024 06:00:00,28.588333,77.221667,NO2,5,131,49
India,Delhi,Delhi,"Lodhi Road, Delhi - IMD",01-06-2024 06:00:00,28.5918245,77.2273074,PM2.5,31,243,94
India,Delhi,Delhi,"Lodhi Road, Delhi - IMD",01-06-2024 06:00:00,28.5918245,77.2273074,PM10,107,225,154
India,Delhi,Delhi,"Lodhi Road, Delhi - IMD",01-06-2024 06:00:00,28.5918245,77.2273074,NO2,4,28,13
India,Delhi,Delhi,"Lodhi Road, Delhi - IMD",01-06-2024 06:00:00,28.5918245,77.2273074,OZONE,32,94,45
India,Delhi,Delhi,"Major Dhyan Chand National Stadium, Delhi - DPCC",01-06-2024 06:00:00,28.611281,77.237738,SO2,NA,NA,NA
India,Delhi,Delhi,"Mandir Marg, Delhi - DPCC",01-06-2024 06:00:00,28.636429,77.201067,SO2,11,23,16
India,Delhi,Delhi,"Mundka, Delhi - DPCC",01-06-2024 06:00:00,28.684678,77.076574,PM2.5,50,405,197
India,Delhi,Delhi,"NSIT Dwarka, Delhi - CPCB",01-06-2024 06:00:00,28.60909,77.0325413,PM10,125,231,178
India,Delhi,Delhi,"NSIT Dwarka, Delhi - CPCB",01-06-2024 06:00:00,28.60909,77.0325413,NH3,12,15,13
India,Delhi,Delhi,"NSIT Dwarka, Delhi - CPCB",01-06-2024 06:00:00,28.60909,77.0325413,CO,34,60,41
India,Delhi,Delhi,"Najafgarh, Delhi - DPCC",01-06-2024 06:00:00,28.570173,76.933762,PM2.5,30,145,70
India,Delhi,Delhi,"Narela, Delhi - DPCC",01-06-2024 06:00:00,28.822836,77.101981,PM10,162,416,290
India,Delhi,Delhi,"Narela, Delhi - DPCC",01-06-2024 06:00:00,28.822836,77.101981,SO2,21,100,45
India,Delhi,Delhi,"Nehru Nagar, Delhi - DPCC",01-06-2024 06:00:00,28.567890,77.250515,OZONE,2,279,11
India,Delhi,Delhi,"New Moti Bagh, Delhi - MHUA",01-06-2024 06:00:00,28.57834,77.18400,NO2,NA,NA,NA
India,Delhi,Delhi,"North Campus, DU, Delhi - IMD",01-06-2024 06:00:00,28.6573814,77.1585447,PM10,78,342,210
India,Delhi,Delhi,"North Campus, DU, Delhi - IMD",01-06-2024 06:00:00,28.6573814,77.1585447,CO,47,140,113
India,Delhi,Delhi,"North Campus, DU, Delhi - IMD",01-06-2024 06:00:00,28.6573814,77.1585447,OZONE,7,69,15
India,Delhi,Delhi,"Okhla Phase-2, Delhi - DPCC",01-06-2024 06:00:00,28.530785,77.271255,PM2.5,48,369,156
India,Delhi,Delhi,"Okhla Phase-2, Delhi - DPCC",01-06-2024 06:00:00,28.530785,77.271255,PM10,153,436,272
India,Delhi,Delhi,"Pusa, Delhi - DPCC",01-06-2024 06:00:00,28.639652,77.146275,NO2,43,130,88
India,Delhi,Delhi,"Pusa, Delhi - IMD",01-06-2024 06:00:00,28.636110,77.173332,CO,63,113,108
India,Delhi,Delhi,"R K Puram, Delhi - DPCC",01-06-2024 06:00:00,28.563262,77.186937,PM10,130,429,213
India,Delhi,Delhi,"Shadipur, Delhi - CPCB",01-06-2024 06:00:00,28.6514781,77.1473105,PM2.5,305,500,402
India,Delhi,Delhi,"Sirifort, Delhi - CPCB",01-06-2024 06:00:00,28.5504249,77.2159377,PM10,145,500,263
India,Delhi,Delhi,"Sirifort, Delhi - CPCB",01-06-2024 06:00:00,28.5504249,77.2159377,NO2,3,63,41
India,Delhi,Delhi,"Sirifort, Delhi - CPCB",01-06-2024 06:00:00,28.5504249,77.2159377,OZONE,6,101,8
India,Delhi,Delhi,"Sonia Vihar, Delhi - DPCC",01-06-2024 06:00:00,28.710508,77.249485,PM2.5,65,316,162
India,Delhi,Delhi,"Sonia Vihar, Delhi - DPCC",01-06-2024 06:00:00,28.710508,77.249485,NO2,16,130,60
India,Delhi,Delhi,"Sri Aurobindo Marg, Delhi - DPCC",01-06-2024 06:00:00,28.531346,77.190156,SO2,3,68,20
India,Delhi,Delhi,"Vivek Vihar, Delhi - DPCC",01-06-2024 06:00:00,28.672342,77.315260,PM2.5,65,223,121
India,Delhi,Delhi,"Vivek Vihar, Delhi - DPCC",01-06-2024 06:00:00,28.672342,77.315260,NH3,15,17,16
India,Delhi,Delhi,"Vivek Vihar, Delhi - DPCC",01-06-2024 06:00:00,28.672342,77.315260,CO,58,128,107
India,Delhi,Delhi,"Wazirpur, Delhi - DPCC",01-06-2024 06:00:00,28.699793,77.165453,NO2,30,98,55
India,Gujarat,Ahmedabad,"Gyaspur, Ahmedabad - IITM",01-06-2024 06:00:00,22.977134,72.553024,PM2.5,77,305,158
India,Gujarat,Ahmedabad,"Maninagar, Ahmedabad - GPCB",01-06-2024 06:00:00,23.002657,72.591912,NO2,31,52,38
India,Gujarat,Ahmedabad,"Raikhad, Ahmedabad - IITM",01-06-2024 06:00:00,23.020509,72.579261,OZONE,18,72,24
India,Gujarat,Ahmedabad,"Sardar Vallabhbhai Patel Stadium, Ahmedabad - IITM",01-06-2024 06:00:00,23.043070,72.562968,NO2,35,38,37
India,Gujarat,Ankleshwar,"GIDC, Ankleshwar - GPCB",01-06-2024 06:00:00,21.613267,73.010555,PM10,43,87,59
India,Gujarat,Ankleshwar,"GIDC, Ankleshwar - GPCB",01-06-2024 06:00:00,21.613267,73.010555,NO2,17,36,32
India,Gujarat,Gandhinagar,"Sector-10, Gandhinagar - GPCB",01-06-2024 06:00:00,23.221714,72.654328,PM10,34,100,60
India,Gujarat,Surat,"Science Center, Surat - SMC",01-06-2024 06:00:00,21.170046,72.795405,NO2,14,21,18
India,Gujarat,Surat,"Science Center, Surat - SMC",01-06-2024 06:00:00,21.170046,72.795405,SO2,10,13,11
India,Gujarat,Vapi,"Phase-1 GIDC, Vapi - GPCB",01-06-2024 06:00:00,20.362421,72.918013,PM10,37,82,57
India,Gujarat,Vapi,"Phase-1 GIDC, Vapi - GPCB",01-06-2024 06:00:00,20.362421,72.918013,NO2,6,7,6
India,Gujarat,Vapi,"Phase-1 GIDC, Vapi - GPCB",01-06-2024 06:00:00,20.362421,72.918013,SO2,45,48,46
India,Gujarat,Vatva,"Phase-4 GIDC, Vatva - GPCB",01-06-2024 06:00:00,22.969611,72.643500,SO2,16,39,24
India,Haryana,Ambala,"Patti Mehar, Ambala - HSPCB",01-06-2024 06:00:00,30.379589,76.778328,OZONE,43,74,50
India,Haryana,Ballabgarh,"Nathu Colony, Ballabgarh - HSPCB",01-06-2024 06:00:00,28.3419248,77.319699,PM10,138,291,211
India,Haryana,Ballabgarh,"Nathu Colony, Ballabgarh - HSPCB",01-06-2024 06:00:00,28.3419248,77.319699,NO2,11,13,12
India,Haryana,Charkhi Dadri,"Mini Secretariat, Charkhi Dadri - HSPCB",01-06-2024 06:00:00,28.593883,76.270653,SO2,7,30,17
India,Haryana,Dharuhera,"Municipal Corporation Office, Dharuhera -  HSPCB",01-06-2024 06:00:00,28.206800,76.799700,PM2.5,137,278,172
India,Haryana,Dharuhera,"Municipal Corporation Office, Dharuhera -  HSPCB",01-06-2024 06:00:00,28.206800,76.799700,NH3,9,26,20
India,Haryana,Faridabad,"New Industrial Town, Faridabad - HSPCB",01-06-2024 06:00:00,28.39072,77.30059,PM10,174,500,317
India,Haryana,Faridabad,"New Industrial Town, Faridabad - HSPCB",01-06-2024 06:00:00,28.39072,77.30059,NO2,2,22,12
India,Haryana,Faridabad,"Sector 11, Faridabad - HSPCB",01-06-2024 06:00:00,28.376058,77.315741,NO2,30,32,31
India,Haryana,Faridabad,"Sector- 16A, Faridabad - HSPCB",01-06-2024 06:00:00,28.4088421,77.3099081,PM2.5,42,332,139
India,Haryana,Gurugram,"NISE Gwal Pahari, Gurugram - IMD",01-06-2024 06:00:00,28.422681,77.148944,CO,102,117,114
India,Haryana,Gurugram,"Sector-51, Gurugram - HSPCB",01-06-2024 06:00:00,28.4227,77.0667,NO2,13,29,23
India,Haryana,Gurugram,"Teri Gram, Gurugram - HSPCB",01-06-2024 06:00:00,28.4275,77.1465,PM2.5,70,353,233
India,Haryana,Gurugram,"Teri Gram, Gurugram - HSPCB",01-06-2024 06:00:00,28.4275,77.1465,PM10,76,238,145
India,Haryana,Gurugram,"Teri Gram, Gurugram - HSPCB",01-06-2024 06:00:00,28.4275,77.1465,NH3,25,41,32
India,Haryana,Gurugram,"Vikas Sadan, Gurugram - HSPCB",01-06-2024 06:00:00,28.4501238,77.0263051,NO2,5,27,13
India,Haryana,Gurugram,"Vikas Sadan, Gurugram - HSPCB",01-06-2024 06:00:00,28.4501238,77.0263051,SO2,NA,NA,NA
India,Haryana,Gurugram,"Vikas Sadan, Gurugram - HSPCB",01-06-2024 06:00:00,28.4501238,77.0263051,OZONE,8,69,10
India,Haryana,Hisar,"Urban Estate-II, Hisar - HSPCB",01-06-2024 06:00:00,29.140560,75.744941,NH3,4,5,4
India,Haryana,Hisar,"Urban Estate-II, Hisar - HSPCB",01-06-2024 06:00:00,29.140560,75.744941,OZONE,25,146,61
India,Haryana,Jind,"Police Lines, Jind - HSPCB",01-06-2024 06:00:00,29.307814,76.337619,PM2.5,76,203,113
India,Haryana,Jind,"Police Lines, Jind - HSPCB",01-06-2024 06:00:00,29.307814,76.337619,SO2,4,109,30
India,Haryana,Jind,"Police Lines, Jind - HSPCB",01-06-2024 06:00:00,29.307814,76.337619,CO,1,62,15
India,Haryana,Kaithal,"Rishi Nagar, Kaithal - HSPCB",01-06-2024 06:00:00,29.8006,76.4155,SO2,17,47,31
India,Haryana,Karnal,"Sector-12, Karnal - HSPCB",01-06-2024 06:00:00,29.695300,77.002700,CO,16,49,32
India,Haryana,Kurukshetra,"Sector-7, Kurukshetra - HSPCB",01-06-2024 06:00:00,29.966942,76.875879,NO2,10,98,16
India,Haryana,Kurukshetra,"Sector-7, Kurukshetra - HSPCB",01-06-2024 06:00:00,29.966942,76.875879,OZONE,44,128,116
India,Haryana,Mandikhera,"General Hospital, Mandikhera - HSPCB",01-06-2024 06:00:00,27.9002,76.9938,CO,21,44,36
India,Haryana,Mandikhera,"General Hospital, Mandikhera - HSPCB",01-06-2024 06:00:00,27.9002,76.9938,OZONE,23,32,27
India,Haryana,Manesar,"Sector-2 IMT, Manesar - HSPCB",01-06-2024 06:00:00,28.360699,76.936090,PM10,57,132,96
India,Haryana,Manesar,"Sector-2 IMT, Manesar - HSPCB",01-06-2024 06:00:00,28.360699,76.936090,NO2,18,26,21
India,Haryana,Manesar,"Sector-2 IMT, Manesar - HSPCB",01-06-2024 06:00:00,28.360699,76.936090,NH3,2,5,4
India,Haryana,Manesar,"Sector-2 IMT, Manesar - HSPCB",01-06-2024 06:00:00,28.360699,76.936090,CO,13,51,39
India,Haryana,Narnaul,"Shastri Nagar, Narnaul - HSPCB",01-06-2024 06:00:00,28.060249,76.113115,NO2,14,87,51
India,Haryana,Panipat,"Sector-18, Panipat - HSPCB",01-06-2024 06:00:00,29.432304,76.972765,NO2,31,32,31
India,Haryana,Rohtak,"MD University, Rohtak - HSPCB",01-06-2024 06:00:00,28.52123,76.37138,NO2,45,55,50
India,Haryana,Yamuna Nagar,"Gobind Pura, Yamuna Nagar - HSPCB",01-06-2024 06:00:00,30.1480566,77.2893471,PM2.5,75,145,104
India,Haryana,Yamuna Nagar,"Gobind Pura, Yamuna Nagar - HSPCB",01-06-2024 06:00:00,30.1480566,77.2893471,CO,27,57,43
India,Himachal Pradesh,Baddi,"HIMUDA Complex Phase-1, Baddi - HPPCB",01-06-2024 06:00:00,30.943887,76.801991,NH3,3,6,4
India,Himachal Pradesh,Baddi,"HIMUDA Complex Phase-1, Baddi - HPPCB",01-06-2024 06:00:00,30.943887,76.801991,SO2,14,118,44
India,Himachal Pradesh,Baddi,"HIMUDA Complex Phase-1, Baddi - HPPCB",01-06-2024 06:00:00,30.943887,76.801991,CO,10,62,52
India,Jammu_and_Kashmir,Srinagar,"Rajbagh, Srinagar - JKSPCB",01-06-2024 06:00:00,34.066206,74.819820,SO2,NA,NA,NA
India,Jammu_and_Kashmir,Srinagar,"Rajbagh, Srinagar - JKSPCB",01-06-2024 06:00:00,34.066206,74.819820,OZONE,12,15,14
India,Jharkhand,Dhanbad,"Sardar Patel Nagar, Dhanbad - JSPCB",01-06-2024 06:00:00,23.80569,86.44268,PM2.5,NA,NA,NA
India,Jharkhand,Dhanbad,"Sardar Patel Nagar, Dhanbad - JSPCB",01-06-2024 06:00:00,23.80569,86.44268,SO2,NA,NA,NA
India,Karnataka,Bagalkot,"Vidayagiri, Bagalkot - KSPCB",01-06-2024 06:00:00,16.172806,75.659694,PM10,42,46,45
India,Karnataka,Bagalkot,"Vidayagiri, Bagalkot - KSPCB",01-06-2024 06:00:00,16.172806,75.659694,CO,22,50,34
India,Karnataka,Bengaluru,"Bapuji Nagar, Bengaluru - KSPCB",01-06-2024 06:00:00,12.951913,77.539784,PM10,49,119,87
India,Karnataka,Bengaluru,"Bapuji Nagar, Bengaluru - KSPCB",01-06-2024 06:00:00,12.951913,77.539784,NH3,1,1,1
India,Karnataka,Bengaluru,"Hebbal, Bengaluru - KSPCB",01-06-2024 06:00:00,13.029152,77.585901,PM10,36,85,64
India,Karnataka,Bengaluru,"Hebbal, Bengaluru - KSPCB",01-06-2024 06:00:00,13.029152,77.585901,NH3,1,1,1
India,Karnataka,Bengaluru,"Hebbal, Bengaluru - KSPCB",01-06-2024 06:00:00,13.029152,77.585901,SO2,16,31,25
India,Karnataka,Bengaluru,"Jayanagar 5th Block, Bengaluru - KSPCB",01-06-2024 06:00:00,12.920984,77.584908,PM2.5,35,77,53
India,Karnataka,Bengaluru,"Kasturi Nagar, Bengaluru - KSPCB",01-06-2024 06:00:00,13.003872,77.664217,PM10,16,52,33
India,Karnataka,Bengaluru,"Kasturi Nagar, Bengaluru - KSPCB",01-06-2024 06:00:00,13.003872,77.664217,CO,24,26,25
India,Karnataka,Bengaluru,"Peenya, Bengaluru - CPCB",01-06-2024 06:00:00,13.0270199,77.494094,PM10,42,71,49
