country,state,city,station,last_update,latitude,longitude,pollutant_id,pollutant_min,pollutant_max,pollutant_avg
India,Andhra_Pradesh,Anantapur,"Gulzarpet, Anantapur - APPCB",07-03-2024 13:00:00,14.675886,77.593027,PM10,NA,NA,NA
India,Andhra_Pradesh,Anantapur,"Gulzarpet, Anantapur - APPCB",07-03-2024 13:00:00,14.675886,77.593027,OZONE,6,70,38
India,Andhra_Pradesh,Rajamahendravaram,"Anand Kala Kshetram, Rajamahendravaram - APPCB",07-03-2024 13:00:00,16.9872867,81.7363176,NH3,3,5,4
India,Andhra_Pradesh,Tirupati,"Tirumala, Tirupati - APPCB",07-03-2024 13:00:00,13.67,79.35,SO2,1,15,6
India,Andhra_Pradesh,Tirupati,"Tirumala, Tirupati - APPCB",07-03-2024 13:00:00,13.67,79.35,CO,29,59,34
India,Andhra_Pradesh,Tirupati,"Vaikuntapuram, Tirupati - APPCB",07-03-2024 13:00:00,13.615387,79.409230,CO,10,16,13
India,Andhra_Pradesh,Vijayawada,"HB Colony, Vijayawada - APPCB",07-03-2024 13:00:00,16.536107,80.594233,NO2,5,20,11
India,Andhra_Pradesh,Vijayawada,"HB Colony, Vijayawada - APPCB",07-03-2024 13:00:00,16.536107,80.594233,CO,26,42,36
India,Andhra_Pradesh,Vijayawada,"Kanuru, Vijayawada - APPCB",07-03-2024 13:00:00,16.486692,80.699436,NH3,NA,NA,NA
India,Andhra_Pradesh,Vijayawada,"Kanuru, Vijayawada - APPCB",07-03-2024 13:00:00,16.486692,80.699436,CO,37,42,40
India,Andhra_Pradesh,Vijayawada,"Rajiv Gandhi Park, Vijayawada - APPCB",07-03-2024 13:00:00,16.509717,80.612222,NO2,6,61,34
India,Andhra_Pradesh,Vijayawada,"Rajiv Nagar, Vijayawada - APPCB",07-03-2024 13:00:00,16.554731,80.649110,PM10,69,122,76
India,Andhra_Pradesh,Vijayawada,"Rajiv Nagar, Vijayawada - APPCB",07-03-2024 13:00:00,16.554731,80.649110,SO2,8,23,15
India,Andhra_Pradesh,Visakhapatnam,"GVM Corporation, Visakhapatnam - APPCB",07-03-2024 13:00:00,17.72,83.3,CO,6,36,26
India,Arunachal_Pradesh,Naharlagun,"Naharlagun, Naharlagun - APSPCB",07-03-2024 13:00:00,27.103358,93.679645,PM10,47,119,79
India,Arunachal_Pradesh,Naharlagun,"Naharlagun, Naharlagun - APSPCB",07-03-2024 13:00:00,27.103358,93.679645,CO,10,42,12
India,Assam,Byrnihat,"Central Academy for SFS, Byrnihat - PCBA",07-03-2024 13:00:00,26.071318,91.87488,PM10,NA,NA,NA
India,Assam,Guwahati,"IITG, Guwahati - PCBA",07-03-2024 13:00:00,26.2028636,91.70046436,SO2,12,14,13
India,Assam,Guwahati,"LGBI Airport, Guwahati - PCBA",07-03-2024 13:00:00,26.10887,91.589544,SO2,12,14,13
India,Assam,Guwahati,"LGBI Airport, Guwahati - PCBA",07-03-2024 13:00:00,26.10887,91.589544,OZONE,7,78,38
India,Assam,Guwahati,"Railway Colony, Guwahati - PCBA",07-03-2024 13:00:00,26.181742,91.78063,NO2,3,4,3
India,Assam,Nagaon,"Christianpatty, Nagaon - PCBA",07-03-2024 13:00:00,26.349082,92.68449,PM2.5,60,339,183
India,Assam,Silchar,"Tarapur, Silchar - PCBA",07-03-2024 13:00:00,24.82827,92.79525,PM10,55,70,60
India,Assam,Silchar,"Tarapur, Silchar - PCBA",07-03-2024 13:00:00,24.82827,92.79525,SO2,1,19,8
India,Assam,Sivasagar,"Girls College, Sivasagar - PCBA",07-03-2024 13:00:00,26.987634,94.636574,NH3,2,2,2
India,Assam,Sivasagar,"Girls College, Sivasagar - PCBA",07-03-2024 13:00:00,26.987634,94.636574,SO2,3,6,5
India,Assam,Sivasagar,"Girls College, Sivasagar - PCBA",07-03-2024 13:00:00,26.987634,94.636574,CO,2,22,10
India,Bihar,Araria,"Kharahiya Basti, Araria - BSPCB",07-03-2024 13:00:00,26.146529,87.454184,NH3,7,8,7
India,Bihar,Araria,"Kharahiya Basti, Araria - BSPCB",07-03-2024 13:00:00,26.146529,87.454184,SO2,14,17,16
India,Bihar,Bettiah,"Kamalnath Nagar, Bettiah - BSPCB",07-03-2024 13:00:00,26.80365,84.51954,SO2,10,18,15
India,Bihar,Bhagalpur,"DM Office_Kachari Chowk, Bhagalpur - BSPCB",07-03-2024 13:00:00,25.251013,86.989001,OZONE,26,46,35
India,Bihar,Gaya,"Collectorate, Gaya - BSPCB",07-03-2024 13:00:00,24.7955,84.9994,NO2,1,4,2
India,Bihar,Gaya,"Kareemganj, Gaya - BSPCB",07-03-2024 13:00:00,24.792403,84.992416,SO2,6,11,9
India,Bihar,Gaya,"SFTI Kusdihra, Gaya - BSPCB",07-03-2024 13:00:00,24.762518,84.982348,PM2.5,32,188,64
India,Bihar,Gaya,"SFTI Kusdihra, Gaya - BSPCB",07-03-2024 13:00:00,24.762518,84.982348,CO,21,49,37
India,Bihar,Hajipur,"Industrial Area, Hajipur - BSPCB",07-03-2024 13:00:00,25.697189,85.245900,NO2,36,63,51
India,Bihar,Katihar,"Mirchaibari, Katihar - BSPCB",07-03-2024 13:00:00,25.560083,87.553265,PM10,48,129,88
India,Bihar,Katihar,"Mirchaibari, Katihar - BSPCB",07-03-2024 13:00:00,25.560083,87.553265,SO2,15,20,17
India,Bihar,Katihar,"Mirchaibari, Katihar - BSPCB",07-03-2024 13:00:00,25.560083,87.553265,CO,2,110,108
India,Bihar,Kishanganj,"SDM Office_Khagra, Kishanganj - BSPCB",07-03-2024 13:00:00,26.0881305,87.93840336,NO2,NA,NA,NA
India,Bihar,Kishanganj,"SDM Office_Khagra, Kishanganj - BSPCB",07-03-2024 13:00:00,26.0881305,87.93840336,SO2,NA,NA,NA
India,Bihar,Kishanganj,"SDM Office_Khagra, Kishanganj - BSPCB",07-03-2024 13:00:00,26.0881305,87.93840336,CO,4,8,8
India,Bihar,Manguraha,"Forest Rest House, Manguraha - BSPCB",07-03-2024 13:00:00,27.308328,84.531742,SO2,3,3,3
India,Bihar,Manguraha,"Forest Rest House, Manguraha - BSPCB",07-03-2024 13:00:00,27.308328,84.531742,CO,16,80,41
India,Bihar,Muzaffarpur,"Buddha Colony, Muzaffarpur - BSPCB",07-03-2024 13:00:00,26.11442,85.39813,PM2.5,106,211,157
India,Bihar,Muzaffarpur,"Buddha Colony, Muzaffarpur - BSPCB",07-03-2024 13:00:00,26.11442,85.39813,CO,12,32,22
India,Bihar,Muzaffarpur,"Buddha Colony, Muzaffarpur - BSPCB",07-03-2024 13:00:00,26.11442,85.39813,OZONE,38,81,46
India,Bihar,Muzaffarpur,"MIT-Daudpur Kothi, Muzaffarpur - BSPCB",07-03-2024 13:00:00,26.1403345,85.3650192,OZONE,13,69,36
India,Bihar,Muzaffarpur,"Muzaffarpur Collectorate, Muzaffarpur - BSPCB",07-03-2024 13:00:00,26.1209,85.3647,PM2.5,52,296,102
India,Bihar,Patna,"DRM Office Danapur, Patna - BSPCB",07-03-2024 13:00:00,25.586562,85.043586,PM2.5,85,160,115
India,Bihar,Patna,"DRM Office Danapur, Patna - BSPCB",07-03-2024 13:00:00,25.586562,85.043586,CO,26,102,32
India,Bihar,Patna,"Muradpur, Patna - BSPCB",07-03-2024 13:00:00,25.619651,85.147382,NH3,2,4,3
India,Bihar,Patna,"Rajbansi Nagar, Patna - BSPCB",07-03-2024 13:00:00,25.599486,85.113666,SO2,6,19,13
India,Bihar,Rajgir,"Dangi Tola, Rajgir - BSPCB",07-03-2024 13:00:00,25.03280,85.41948,PM2.5,10,95,49
India,Bihar,Rajgir,"Dangi Tola, Rajgir - BSPCB",07-03-2024 13:00:00,25.03280,85.41948,PM10,11,104,55
India,Bihar,Rajgir,"Dangi Tola, Rajgir - BSPCB",07-03-2024 13:00:00,25.03280,85.41948,NH3,1,2,1
India,Bihar,Rajgir,"Dangi Tola, Rajgir - BSPCB",07-03-2024 13:00:00,25.03280,85.41948,CO,8,11,10
India,Bihar,Saharsa,"Police Line, Saharsa - BSPCB",07-03-2024 13:00:00,25.892357,86.590325,PM2.5,25,107,65
India,Bihar,Saharsa,"Police Line, Saharsa - BSPCB",07-03-2024 13:00:00,25.892357,86.590325,PM10,55,123,91
India,Bihar,Saharsa,"Police Line, Saharsa - BSPCB",07-03-2024 13:00:00,25.892357,86.590325,OZONE,20,60,37
India,Bihar,Samastipur,"DM Office_Kasipur, Samastipur - BSPCB",07-03-2024 13:00:00,25.859655,85.77944,SO2,1,18,8
India,Bihar,Sasaram,"Dada Peer, Sasaram - BSPCB",07-03-2024 13:00:00,24.952822,84.002396,PM10,33,106,67
India,Bihar,Siwan,"Chitragupta Nagar, Siwan - BSPCB",07-03-2024 13:00:00,26.2271665,84.3570427,NO2,12,59,22
India,Bihar,Siwan,"Chitragupta Nagar, Siwan - BSPCB",07-03-2024 13:00:00,26.2271665,84.3570427,SO2,4,34,29
India,Bihar,Siwan,"Chitragupta Nagar, Siwan - BSPCB",07-03-2024 13:00:00,26.2271665,84.3570427,OZONE,32,98,58
India,Chandigarh,Chandigarh,"Sector 22, Chandigarh - CPCC",07-03-2024 13:00:00,30.735567,76.775714,PM2.5,50,237,148
India,Chandigarh,Chandigarh,"Sector 22, Chandigarh - CPCC",07-03-2024 13:00:00,30.735567,76.775714,NH3,4,7,6
India,Chandigarh,Chandigarh,"Sector 22, Chandigarh - CPCC",07-03-2024 13:00:00,30.735567,76.775714,SO2,5,30,10
India,Chandigarh,Chandigarh,"Sector-53, Chandigarh - CPCC",07-03-2024 13:00:00,30.719859,76.738637,PM10,69,250,136
India,Chandigarh,Chandigarh,"Sector-53, Chandigarh - CPCC",07-03-2024 13:00:00,30.719859,76.738637,NO2,26,109,60
India,Chandigarh,Chandigarh,"Sector-53, Chandigarh - CPCC",07-03-2024 13:00:00,30.719859,76.738637,NH3,4,5,4
India,Chandigarh,Chandigarh,"Sector-53, Chandigarh - CPCC",07-03-2024 13:00:00,30.719859,76.738637,CO,38,113,46
India,Chandigarh,Chandigarh,"Sector-53, Chandigarh - CPCC",07-03-2024 13:00:00,30.719859,76.738637,OZONE,3,73,30
India,Chhattisgarh,Bhilai,"32Bungalows, Bhilai - CECB",07-03-2024 13:00:00,21.194815,81.314770,PM2.5,9,20,15
India,Chhattisgarh,Bhilai,"32Bungalows, Bhilai - CECB",07-03-2024 13:00:00,21.194815,81.314770,SO2,5,9,7
India,Chhattisgarh,Bhilai,"Civic Center, Bhilai - Bhilai Steel Plant",07-03-2024 13:00:00,21.185571,81.343175,PM2.5,NA,NA,NA
India,Chhattisgarh,Bhilai,"Civic Center, Bhilai - Bhilai Steel Plant",07-03-2024 13:00:00,21.185571,81.343175,NH3,NA,NA,NA
India,Chhattisgarh,Bilaspur,"Mangala, Bilaspur - NTPC",07-03-2024 13:00:00,22.08815,82.13737,NO2,NA,NA,NA
India,Chhattisgarh,Chhal,"Nawapara SECL Colony, Chhal - CECB",07-03-2024 13:00:00,22.118125,83.140608,PM10,30,168,53
India,Chhattisgarh,Korba,"Rampur, Korba - CECB",07-03-2024 13:00:00,22.368195,82.746431,NH3,2,12,4
India,Chhattisgarh,Kunjemura,"OP Jindal School, Kunjemura - CECB",07-03-2024 13:00:00,22.126650,83.483212,CO,21,38,29
India,Chhattisgarh,Kunjemura,"OP Jindal School, Kunjemura - CECB",07-03-2024 13:00:00,22.126650,83.483212,OZONE,26,77,53
India,Chhattisgarh,Milupara,"Govt. Higher Secondary School, Milupara - CECB",07-03-2024 13:00:00,22.1910172,83.5197009,SO2,13,29,20
India,Chhattisgarh,Milupara,"Govt. Higher Secondary School, Milupara - CECB",07-03-2024 13:00:00,22.1910172,83.5197009,CO,17,38,22
India,Chhattisgarh,Raipur,"AIIMS, Raipur - CECB",07-03-2024 13:00:00,21.258815,81.578979,SO2,4,31,11
India,Chhattisgarh,Raipur,"Bhatagaon New ISBT, Raipur - CECB",07-03-2024 13:00:00,21.219665,81.630094,PM2.5,30,60,41
India,Chhattisgarh,Raipur,"Bhatagaon New ISBT, Raipur - CECB",07-03-2024 13:00:00,21.219665,81.630094,NH3,3,3,3
India,Chhattisgarh,Raipur,"Krishak Nagar, Raipur - CECB",07-03-2024 13:00:00,21.237755,81.705301,NH3,NA,NA,NA
India,Chhattisgarh,Raipur,"Siltara Phase-II, Raipur - CECB",07-03-2024 13:00:00,21.371751,81.664929,CO,25,57,28
India,Chhattisgarh,Tumidih,"OP Jindal Industrial Park, Tumidih - CECB",07-03-2024 13:00:00,22.06631475,83.33820077,SO2,5,27,9
India,Delhi,Delhi,"Alipur, Delhi - DPCC",07-03-2024 13:00:00,28.815329,77.153010,NO2,17,90,52
India,Delhi,Delhi,"Alipur, Delhi - DPCC",07-03-2024 13:00:00,28.815329,77.153010,NH3,5,8,6
India,Delhi,Delhi,"Alipur, Delhi - DPCC",07-03-2024 13:00:00,28.815329,77.153010,CO,26,84,49
India,Delhi,Delhi,"Ashok Vihar, Delhi - DPCC",07-03-2024 13:00:00,28.695381,77.181665,NH3,7,11,9
India,Delhi,Delhi,"Aya Nagar, Delhi - IMD",07-03-2024 13:00:00,28.4706914,77.1099364,PM2.5,80,305,191
India,Delhi,Delhi,"Aya Nagar, Delhi - IMD",07-03-2024 13:00:00,28.4706914,77.1099364,NO2,22,38,30
India,Delhi,Delhi,"Bawana, Delhi - DPCC",07-03-2024 13:00:00,28.776200,77.051074,PM2.5,48,383,215
India,Delhi,Delhi,"Bawana, Delhi - DPCC",07-03-2024 13:00:00,28.776200,77.051074,NO2,12,80,38
India,Delhi,Delhi,"Bawana, Delhi - DPCC",07-03-2024 13:00:00,28.776200,77.051074,CO,16,60,36
India,Delhi,Delhi,"Chandni Chowk, Delhi - IITM",07-03-2024 13:00:00,28.656756,77.227234,PM10,104,430,170
India,Delhi,Delhi,"Chandni Chowk, Delhi - IITM",07-03-2024 13:00:00,28.656756,77.227234,NO2,NA,NA,NA
India,Delhi,Delhi,"Chandni Chowk, Delhi - IITM",07-03-2024 13:00:00,28.656756,77.227234,OZONE,21,118,86
India,Delhi,Delhi,"DTU, Delhi - CPCB",07-03-2024 13:00:00,28.7500499,77.1112615,PM10,96,320,145
India,Delhi,Delhi,"DTU, Delhi - CPCB",07-03-2024 13:00:00,28.7500499,77.1112615,OZONE,28,48,33
India,Delhi,Delhi,"Dr. Karni Singh Shooting Range, Delhi - DPCC",07-03-2024 13:00:00,28.498571,77.264840,PM2.5,60,256,149
India,Delhi,Delhi,"Dr. Karni Singh Shooting Range, Delhi - DPCC",07-03-2024 13:00:00,28.498571,77.264840,CO,24,107,53
India,Delhi,Delhi,"Dwarka-Sector 8, Delhi - DPCC ",07-03-2024 13:00:00,28.5710274,77.0719006,NO2,14,92,54
India,Delhi,Delhi,"Dwarka-Sector 8, Delhi - DPCC ",07-03-2024 13:00:00,28.5710274,77.0719006,NH3,6,8,7
India,Delhi,Delhi,"Dwarka-Sector 8, Delhi - DPCC ",07-03-2024 13:00:00,28.5710274,77.0719006,SO2,1,16,8
India,Delhi,Delhi,"IGI Airport (T3), Delhi - IMD",07-03-2024 13:00:00,28.5627763,77.1180053,NO2,21,64,43
India,Delhi,Delhi,"IGI Airport (T3), Delhi - IMD",07-03-2024 13:00:00,28.5627763,77.1180053,OZONE,3,54,29
India,Delhi,Delhi,"IHBAS, Dilshad Garden, Delhi - CPCB",07-03-2024 13:00:00,28.6811736,77.3025234,NH3,3,10,8
India,Delhi,Delhi,"Jahangirpuri, Delhi - DPCC",07-03-2024 13:00:00,28.732820,77.170633,PM10,119,410,241
India,Delhi,Delhi,"Lodhi Road, Delhi - IITM",07-03-2024 13:00:00,28.588333,77.221667,OZONE,15,17,16
India,Delhi,Delhi,"Lodhi Road, Delhi - IMD",07-03-2024 13:00:00,28.5918245,77.2273074,PM2.5,47,303,129
India,Delhi,Delhi,"Lodhi Road, Delhi - IMD",07-03-2024 13:00:00,28.5918245,77.2273074,PM10,70,177,112
India,Delhi,Delhi,"Lodhi Road, Delhi - IMD",07-03-2024 13:00:00,28.5918245,77.2273074,NO2,3,14,8
India,Delhi,Delhi,"Major Dhyan Chand National Stadium, Delhi - DPCC",07-03-2024 13:00:00,28.611281,77.237738,NO2,33,146,93
India,Delhi,Delhi,"Major Dhyan Chand National Stadium, Delhi - DPCC",07-03-2024 13:00:00,28.611281,77.237738,CO,84,117,101
India,Delhi,Delhi,"Major Dhyan Chand National Stadium, Delhi - DPCC",07-03-2024 13:00:00,28.611281,77.237738,OZONE,2,167,165
India,Delhi,Delhi,"Mandir Marg, Delhi - DPCC",07-03-2024 13:00:00,28.636429,77.201067,PM10,76,155,120
India,Delhi,Delhi,"Mandir Marg, Delhi - DPCC",07-03-2024 13:00:00,28.636429,77.201067,SO2,5,14,9
India,Delhi,Delhi,"Mandir Marg, Delhi - DPCC",07-03-2024 13:00:00,28.636429,77.201067,CO,45,102,61
India,Delhi,Delhi,"NSIT Dwarka, Delhi - CPCB",07-03-2024 13:00:00,28.60909,77.0325413,PM2.5,145,404,279
India,Delhi,Delhi,"Najafgarh, Delhi - DPCC",07-03-2024 13:00:00,28.570173,76.933762,PM2.5,65,380,193
India,Delhi,Delhi,"Najafgarh, Delhi - DPCC",07-03-2024 13:00:00,28.570173,76.933762,NO2,7,27,16
India,Delhi,Delhi,"Narela, Delhi - DPCC",07-03-2024 13:00:00,28.822836,77.101981,PM2.5,63,314,190
India,Delhi,Delhi,"Narela, Delhi - DPCC",07-03-2024 13:00:00,28.822836,77.101981,PM10,83,178,142
India,Delhi,Delhi,"Narela, Delhi - DPCC",07-03-2024 13:00:00,28.822836,77.101981,SO2,6,60,15
India,Delhi,Delhi,"Nehru Nagar, Delhi - DPCC",07-03-2024 13:00:00,28.567890,77.250515,SO2,8,21,12
India,Delhi,Delhi,"New Moti Bagh, Delhi - MHUA",07-03-2024 13:00:00,28.57834,77.18400,PM2.5,59,319,197
India,Delhi,Delhi,"Okhla Phase-2, Delhi - DPCC",07-03-2024 13:00:00,28.530785,77.271255,OZONE,9,146,44
India,Delhi,Delhi,"Patparganj, Delhi - DPCC",07-03-2024 13:00:00,28.623763,77.287209,PM2.5,51,142,84
India,Delhi,Delhi,"Patparganj, Delhi - DPCC",07-03-2024 13:00:00,28.623763,77.287209,CO,14,58,25
India,Delhi,Delhi,"Punjabi Bagh, Delhi - DPCC",07-03-2024 13:00:00,28.674045,77.131023,NH3,2,2,2
India,Delhi,Delhi,"Pusa, Delhi - DPCC",07-03-2024 13:00:00,28.639652,77.146275,NO2,14,162,105
India,Delhi,Delhi,"Pusa, Delhi - IMD",07-03-2024 13:00:00,28.636110,77.173332,PM2.5,NA,NA,NA
India,Delhi,Delhi,"Pusa, Delhi - IMD",07-03-2024 13:00:00,28.636110,77.173332,PM10,NA,NA,NA
India,Delhi,Delhi,"R K Puram, Delhi - DPCC",07-03-2024 13:00:00,28.563262,77.186937,NO2,22,85,48
India,Delhi,Delhi,"R K Puram, Delhi - DPCC",07-03-2024 13:00:00,28.563262,77.186937,OZONE,9,185,152
India,Delhi,Delhi,"Rohini, Delhi - DPCC",07-03-2024 13:00:00,28.732528,77.119920,PM2.5,62,316,182
India,Delhi,Delhi,"Rohini, Delhi - DPCC",07-03-2024 13:00:00,28.732528,77.119920,CO,18,80,41
India,Delhi,Delhi,"Shadipur, Delhi - CPCB",07-03-2024 13:00:00,28.6514781,77.1473105,PM10,122,266,183
India,Delhi,Delhi,"Shadipur, Delhi - CPCB",07-03-2024 13:00:00,28.6514781,77.1473105,NH3,3,10,7
India,Delhi,Delhi,"Sirifort, Delhi - CPCB",07-03-2024 13:00:00,28.5504249,77.2159377,NH3,7,12,10
India,Delhi,Delhi,"Sonia Vihar, Delhi - DPCC",07-03-2024 13:00:00,28.710508,77.249485,PM2.5,66,317,169
India,Delhi,Delhi,"Sonia Vihar, Delhi - DPCC",07-03-2024 13:00:00,28.710508,77.249485,NO2,26,106,59
India,Delhi,Delhi,"Sri Aurobindo Marg, Delhi - DPCC",07-03-2024 13:00:00,28.531346,77.190156,PM10,82,184,125
India,Delhi,Delhi,"Sri Aurobindo Marg, Delhi - DPCC",07-03-2024 13:00:00,28.531346,77.190156,SO2,9,23,15
India,Delhi,Delhi,"Sri Aurobindo Marg, Delhi - DPCC",07-03-2024 13:00:00,28.531346,77.190156,CO,16,57,33
India,Delhi,Delhi,"Vivek Vihar, Delhi - DPCC",07-03-2024 13:00:00,28.672342,77.315260,PM2.5,67,304,176
India,Delhi,Delhi,"Vivek Vihar, Delhi - DPCC",07-03-2024 13:00:00,28.672342,77.315260,NH3,4,6,5
India,Delhi,Delhi,"Wazirpur, Delhi - DPCC",07-03-2024 13:00:00,28.699793,77.165453,PM2.5,70,374,201
India,Gujarat,Ahmedabad,"Chandkheda, Ahmedabad - IITM",07-03-2024 13:00:00,23.107969,72.574648,PM10,NA,NA,NA
India,Gujarat,Ahmedabad,"Gyaspur, Ahmedabad - IITM",07-03-2024 13:00:00,22.977134,72.553024,PM10,65,156,96
India,Gujarat,Ahmedabad,"Gyaspur, Ahmedabad - IITM",07-03-2024 13:00:00,22.977134,72.553024,SO2,3,5,4
India,Gujarat,Ahmedabad,"Gyaspur, Ahmedabad - IITM",07-03-2024 13:00:00,22.977134,72.553024,CO,22,38,27
India,Gujarat,Ahmedabad,"Maninagar, Ahmedabad - GPCB",07-03-2024 13:00:00,23.002657,72.591912,PM2.5,3,119,59
India,Gujarat,Ahmedabad,"Maninagar, Ahmedabad - GPCB",07-03-2024 13:00:00,23.002657,72.591912,PM10,64,147,103
India,Gujarat,Ahmedabad,"Maninagar, Ahmedabad - GPCB",07-03-2024 13:00:00,23.002657,72.591912,NO2,17,17,17
India,Gujarat,Ahmedabad,"Raikhad, Ahmedabad - IITM",07-03-2024 13:00:00,23.020509,72.579261,NO2,47,128,78
India,Gujarat,Ahmedabad,"SAC ISRO Satellite, Ahmedabad - IITM",07-03-2024 13:00:00,23.023389,72.515201,NH3,3,3,3
India,Gujarat,Ahmedabad,"SAC ISRO Satellite, Ahmedabad - IITM",07-03-2024 13:00:00,23.023389,72.515201,OZONE,12,27,15
India,Gujarat,Ahmedabad,"SVPI Airport Hansol, Ahmedabad - IITM",07-03-2024 13:00:00,23.076793,72.627874,PM10,NA,NA,NA
India,Gujarat,Ahmedabad,"SVPI Airport Hansol, Ahmedabad - IITM",07-03-2024 13:00:00,23.076793,72.627874,OZONE,6,47,25
India,Gujarat,Ahmedabad,"Sardar Vallabhbhai Patel Stadium, Ahmedabad - IITM",07-03-2024 13:00:00,23.043070,72.562968,SO2,1,11,5
India,Gujarat,Ahmedabad,"Sardar Vallabhbhai Patel Stadium, Ahmedabad - IITM",07-03-2024 13:00:00,23.043070,72.562968,OZONE,15,23,19
India,Gujarat,Ankleshwar,"GIDC, Ankleshwar - GPCB",07-03-2024 13:00:00,21.613267,73.010555,PM10,54,118,96
India,Gujarat,Ankleshwar,"GIDC, Ankleshwar - GPCB",07-03-2024 13:00:00,21.613267,73.010555,NH3,7,7,7
India,Gujarat,Gandhinagar,"IIPHG Lekawada, Gandhinagar - IITM",07-03-2024 13:00:00,23.243639,72.68994,SO2,11,11,11
India,Gujarat,Nandesari,"GIDC, Nandesari - Nandesari Ind. Association",07-03-2024 13:00:00,22.410802,73.097923,SO2,2,14,7
India,Gujarat,Vapi,"Phase-1 GIDC, Vapi - GPCB",07-03-2024 13:00:00,20.362421,72.918013,PM2.5,31,314,112
India,Gujarat,Vapi,"Phase-1 GIDC, Vapi - GPCB",07-03-2024 13:00:00,20.362421,72.918013,PM10,62,212,117
India,Gujarat,Vapi,"Phase-1 GIDC, Vapi - GPCB",07-03-2024 13:00:00,20.362421,72.918013,SO2,46,47,47
India,Gujarat,Vatva,"Phase-4 GIDC, Vatva - GPCB",07-03-2024 13:00:00,22.969611,72.643500,NO2,20,120,55
India,Gujarat,Vatva,"Phase-4 GIDC, Vatva - GPCB",07-03-2024 13:00:00,22.969611,72.643500,SO2,3,15,6
India,Haryana,Ambala,"Patti Mehar, Ambala - HSPCB",07-03-2024 13:00:00,30.379589,76.778328,SO2,1,25,12
India,Haryana,Bahadurgarh,"Arya Nagar, Bahadurgarh - HSPCB",07-03-2024 13:00:00,28.6701,76.9254,NO2,32,41,36
India,Haryana,Ballabgarh,"Nathu Colony, Ballabgarh - HSPCB",07-03-2024 13:00:00,28.3419248,77.319699,NH3,1,2,1
India,Haryana,Charkhi Dadri,"Mini Secretariat, Charkhi Dadri - HSPCB",07-03-2024 13:00:00,28.593883,76.270653,PM10,44,158,102
India,Haryana,Charkhi Dadri,"Mini Secretariat, Charkhi Dadri - HSPCB",07-03-2024 13:00:00,28.593883,76.270653,NH3,6,6,6
India,Haryana,Dharuhera,"Municipal Corporation Office, Dharuhera -  HSPCB",07-03-2024 13:00:00,28.206800,76.799700,PM2.5,34,305,133
India,Haryana,Dharuhera,"Municipal Corporation Office, Dharuhera -  HSPCB",07-03-2024 13:00:00,28.206800,76.799700,CO,12,57,38
India,Haryana,Dharuhera,"Municipal Corporation Office, Dharuhera -  HSPCB",07-03-2024 13:00:00,28.206800,76.799700,OZONE,10,74,33
India,Haryana,Faridabad,"New Industrial Town, Faridabad - HSPCB",07-03-2024 13:00:00,28.39072,77.30059,SO2,13,20,15
India,Haryana,Faridabad,"Sector 11, Faridabad - HSPCB",07-03-2024 13:00:00,28.376058,77.315741,PM10,86,178,144
India,Haryana,Faridabad,"Sector 11, Faridabad - HSPCB",07-03-2024 13:00:00,28.376058,77.315741,SO2,8,9,9
India,Haryana,Faridabad,"Sector 11, Faridabad - HSPCB",07-03-2024 13:00:00,28.376058,77.315741,OZONE,3,7,3
India,Haryana,Faridabad,"Sector 30, Faridabad - HSPCB",07-03-2024 13:00:00,28.4417,77.3217,OZONE,5,50,17
India,Haryana,Gurugram,"Sector-51, Gurugram - HSPCB",07-03-2024 13:00:00,28.4227,77.0667,PM10,101,252,158
India,Haryana,Gurugram,"Sector-51, Gurugram - HSPCB",07-03-2024 13:00:00,28.4227,77.0667,NO2,13,29,23
India,Haryana,Gurugram,"Sector-51, Gurugram - HSPCB",07-03-2024 13:00:00,28.4227,77.0667,CO,22,68,59
India,Haryana,Gurugram,"Sector-51, Gurugram - HSPCB",07-03-2024 13:00:00,28.4227,77.0667,OZONE,27,67,47
India,Haryana,Gurugram,"Teri Gram, Gurugram - HSPCB",07-03-2024 13:00:00,28.4275,77.1465,SO2,3,5,4
India,Haryana,Gurugram,"Teri Gram, Gurugram - HSPCB",07-03-2024 13:00:00,28.4275,77.1465,OZONE,10,33,33
India,Haryana,Hisar,"Urban Estate-II, Hisar - HSPCB",07-03-2024 13:00:00,29.140560,75.744941,PM2.5,49,322,126
India,Haryana,Hisar,"Urban Estate-II, Hisar - HSPCB",07-03-2024 13:00:00,29.140560,75.744941,PM10,56,218,94
India,Haryana,Kaithal,"Rishi Nagar, Kaithal - HSPCB",07-03-2024 13:00:00,29.8006,76.4155,PM10,56,105,86
India,Haryana,Kaithal,"Rishi Nagar, Kaithal - HSPCB",07-03-2024 13:00:00,29.8006,76.4155,OZONE,7,16,13
India,Haryana,Karnal,"Sector-12, Karnal - HSPCB",07-03-2024 13:00:00,29.695300,77.002700,OZONE,30,40,33
India,Haryana,Mandikhera,"General Hospital, Mandikhera - HSPCB",07-03-2024 13:00:00,27.9002,76.9938,PM10,62,150,98
India,Haryana,Manesar,"Sector-2 IMT, Manesar - HSPCB",07-03-2024 13:00:00,28.360699,76.936090,NO2,15,22,18
India,Haryana,Manesar,"Sector-2 IMT, Manesar - HSPCB",07-03-2024 13:00:00,28.360699,76.936090,NH3,1,1,1
India,Haryana,Manesar,"Sector-2 IMT, Manesar - HSPCB",07-03-2024 13:00:00,28.360699,76.936090,CO,13,36,31
India,Haryana,Narnaul,"Shastri Nagar, Narnaul - HSPCB",07-03-2024 13:00:00,28.060249,76.113115,NH3,5,18,11
India,Haryana,Narnaul,"Shastri Nagar, Narnaul - HSPCB",07-03-2024 13:00:00,28.060249,76.113115,CO,8,20,14
India,Haryana,Palwal,"Shyam Nagar, Palwal - HSPCB",07-03-2024 13:00:00,28.1485564,77.3320667,PM2.5,NA,NA,NA
India,Haryana,Panchkula,"Sector-6, Panchkula - HSPCB ",07-03-2024 13:00:00,30.7057778,76.8531805555555,SO2,11,12,12
India,Haryana,Panipat,"Sector-18, Panipat - HSPCB",07-03-2024 13:00:00,29.497973,76.993331,PM10,94,97,95
India,Haryana,Panipat,"Sector-18, Panipat - HSPCB",07-03-2024 13:00:00,29.497973,76.993331,NH3,2,3,2
India,Haryana,Rohtak,"MD University, Rohtak - HSPCB",07-03-2024 13:00:00,28.52123,76.37138,SO2,5,8,7
India,Haryana,Rohtak,"MD University, Rohtak - HSPCB",07-03-2024 13:00:00,28.52123,76.37138,OZONE,43,55,49
India,Haryana,Sirsa,"F-Block, Sirsa - HSPCB",07-03-2024 13:00:00,29.536400,75.015800,SO2,1,15,9
India,Haryana,Sirsa,"F-Block, Sirsa - HSPCB",07-03-2024 13:00:00,29.536400,75.015800,OZONE,48,132,90
India,Haryana,Sonipat,"Murthal, Sonipat - HSPCB",07-03-2024 13:00:00,29.027200,77.062100,NH3,NA,NA,NA
India,Haryana,Yamuna Nagar,"Gobind Pura, Yamuna Nagar - HSPCB",07-03-2024 13:00:00,30.1480566,77.2893471,CO,38,64,53
India,Jharkhand,Dhanbad,"Sardar Patel Nagar, Dhanbad - JSPCB",07-03-2024 13:00:00,23.80569,86.44268,NO2,NA,NA,NA
India,Jharkhand,Dhanbad,"Sardar Patel Nagar, Dhanbad - JSPCB",07-03-2024 13:00:00,23.80569,86.44268,SO2,NA,NA,NA
India,Jharkhand,Dhanbad,"Sardar Patel Nagar, Dhanbad - JSPCB",07-03-2024 13:00:00,23.80569,86.44268,OZONE,NA,NA,NA
India,Karnataka,Bagalkot,"Vidayagiri, Bagalkot - KSPCB",07-03-2024 13:00:00,16.172806,75.659694,NH3,1,2,1
India,Karnataka,Bagalkot,"Vidayagiri, Bagalkot - KSPCB",07-03-2024 13:00:00,16.172806,75.659694,SO2,8,9,9
India,Karnataka,Bagalkot,"Vidayagiri, Bagalkot - KSPCB",07-03-2024 13:00:00,16.172806,75.659694,OZONE,10,55,27
India,Karnataka,Belgaum,"Ramteerth Nagar, Belgaum - KSPCB",07-03-2024 13:00:00,15.888653,74.541751,NH3,33,34,34
India,Karnataka,Bengaluru,"BTM Layout, Bengaluru - CPCB",07-03-2024 13:00:00,12.9135218,77.5950804,NH3,NA,NA,NA
India,Karnataka,Bengaluru,"Bapuji Nagar, Bengaluru - KSPCB",07-03-2024 13:00:00,12.951913,77.539784,NO2,10,12,11
India,Karnataka,Bengaluru,"Bapuji Nagar, Bengaluru - KSPCB",07-03-2024 13:00:00,12.951913,77.539784,OZONE,3,18,16
India,Karnataka,Bengaluru,"Hombegowda Nagar, Bengaluru - KSPCB",07-03-2024 13:00:00,12.938539,77.590100,PM2.5,56,168,104
India,Karnataka,Bengaluru,"Hombegowda Nagar, Bengaluru - KSPCB",07-03-2024 13:00:00,12.938539,77.590100,PM10,68,107,92
India,Karnataka,Bengaluru,"Hombegowda Nagar, Bengaluru - KSPCB",07-03-2024 13:00:00,12.938539,77.590100,SO2,3,4,4
India,Karnataka,Bengaluru,"Hombegowda Nagar, Bengaluru - KSPCB",07-03-2024 13:00:00,12.938539,77.590100,OZONE,4,5,5
India,Karnataka,Bengaluru,"Jayanagar 5th Block, Bengaluru - KSPCB",07-03-2024 13:00:00,12.920984,77.584908,PM10,87,389,127
India,Karnataka,Bengaluru,"Jigani, Bengaluru - KSPCB",07-03-2024 13:00:00,12.7816279,77.6299145,NH3,4,4,4
India,Karnataka,Bengaluru,"Kasturi Nagar, Bengaluru - KSPCB",07-03-2024 13:00:00,13.003872,77.664217,PM2.5,48,285,146
India,Karnataka,Bengaluru,"Kasturi Nagar, Bengaluru - KSPCB",07-03-2024 13:00:00,13.003872,77.664217,NO2,16,17,17
India,Karnataka,Bengaluru,"Sanegurava Halli, Bengaluru - KSPCB",07-03-2024 13:00:00,12.990328,77.5431385,NO2,22,33,27
India,Karnataka,Bengaluru,"Shivapura_Peenya, Bengaluru - KSPCB",07-03-2024 13:00:00,13.0246342,77.5080115,SO2,8,35,18
India,Karnataka,Bengaluru,"Shivapura_Peenya, Bengaluru - KSPCB",07-03-2024 13:00:00,13.0246342,77.5080115,OZONE,53,56,54
India,Karnataka,Bengaluru,"Silk Board, Bengaluru - KSPCB",07-03-2024 13:00:00,12.917348,77.622813,PM10,96,210,129
India,Karnataka,Bidar,"Naubad, Bidar - KSPCB",07-03-2024 13:00:00,17.930306,77.482194,NH3,2,3,3
India,Karnataka,Chikkaballapur,"Chikkaballapur Rural, Chikkaballapur - KSPCB",07-03-2024 13:00:00,13.428828,77.731418,PM2.5,52,282,119
India,Karnataka,Chikkaballapur,"Chikkaballapur Rural, Chikkaballapur - KSPCB",07-03-2024 13:00:00,13.428828,77.731418,NO2,3,15,8
India,Karnataka,Chikkaballapur,"Chikkaballapur Rural, Chikkaballapur - KSPCB",07-03-2024 13:00:00,13.428828,77.731418,OZONE,24,26,25
India,Karnataka,Davanagere,"Devaraj Urs Badavane, Davanagere - KSPCB",07-03-2024 13:00:00,14.475800,75.905200,NO2,3,48,13
India,Karnataka,Davanagere,"Devaraj Urs Badavane, Davanagere - KSPCB",07-03-2024 13:00:00,14.475800,75.905200,NH3,1,1,1
India,Karnataka,Davanagere,"Devaraj Urs Badavane, Davanagere - KSPCB",07-03-2024 13:00:00,14.475800,75.905200,OZONE,20,27,23
India,Karnataka,Dharwad,"Kalabhavan, Dharwad - KSPCB",07-03-2024 13:00:00,15.459706,75.008381,PM2.5,42,77,57
India,Karnataka,Gadag,"Panchal Nagar, Gadag - KSPCB",07-03-2024 13:00:00,15.411456,75.638133,PM2.5,NA,NA,NA
India,Karnataka,Gadag,"Panchal Nagar, Gadag - KSPCB",07-03-2024 13:00:00,15.411456,75.638133,NO2,4,22,11
India,Karnataka,Hassan,"B.Katihalli, Hassan - KSPCB",07-03-2024 13:00:00,13.008556,76.125258,CO,NA,NA,NA
India,Karnataka,Haveri,"Ashwini Nagar, Haveri - KSPCB",07-03-2024 13:00:00,14.791800,75.389600,SO2,NA,NA,NA
India,Karnataka,Haveri,"Ashwini Nagar, Haveri - KSPCB",07-03-2024 13:00:00,14.791800,75.389600,CO,NA,NA,NA
India,Karnataka,Haveri,"Ashwini Nagar, Haveri - KSPCB",07-03-2024 13:00:00,14.791800,75.389600,OZONE,NA,NA,NA
India,Karnataka,Hubballi,"Deshpande Nagar, Hubballi - KSPCB",07-03-2024 13:00:00,15.351773,75.140726,PM2.5,27,92,54
India,Karnataka,Hubballi,"Lingaraj Nagar, Hubballi - KSPCB",07-03-2024 13:00:00,15.3714823,75.1160168,CO,32,64,49
India,Karnataka,Kalaburagi,"Mahatma Basaveswar Colony, Kalaburgi - KSPCB",07-03-2024 13:00:00,17.336318,76.847397,OZONE,12,25,15
India,Karnataka,Karwar,"KHB Colony, Karwar - KSPCB",07-03-2024 13:00:00,14.816666,74.141003,SO2,18,18,18
India,Karnataka,Karwar,"KHB Colony, Karwar - KSPCB",07-03-2024 13:00:00,14.816666,74.141003,CO,7,8,7
India,Karnataka,Kolar,"Tamaka Ind. Area, Kolar - KSPCB",07-03-2024 13:00:00,13.1276288,78.1570122,OZONE,7,12,10
India,Karnataka,Koppal,"Diwator Nagar, Koppal - KSPCB",07-03-2024 13:00:00,15.347630,76.181767,PM10,27,77,36
India,Karnataka,Madikeri,"Stuart Hill, Madikeri - KSPCB",07-03-2024 13:00:00,12.415911,75.735050,PM2.5,12,54,31
India,Karnataka,Madikeri,"Stuart Hill, Madikeri - KSPCB",07-03-2024 13:00:00,12.415911,75.735050,PM10,13,59,36
India,Karnataka,Mangalore,"Kadri, Mangalore - KSPCB",07-03-2024 13:00:00,12.889250,74.853000,NO2,5,6,6
India,Karnataka,Mysuru,"Hebbal 1st Stage, Mysuru - KSPCB",07-03-2024 13:00:00,12.21041,76.37376,OZONE,6,91,29
India,Karnataka,Raichur,"Haji Colony, Raichur - KSPCB",07-03-2024 13:00:00,16.208139,77.348417,PM2.5,15,71,33
India,Karnataka,Raichur,"Haji Colony, Raichur - KSPCB",07-03-2024 13:00:00,16.208139,77.348417,OZONE,2,48,21
India,Karnataka,Ramanagara,"Vijay Nagar, Ramanagara - KSPCB",07-03-2024 13:00:00,12.733409,77.298051,NO2,3,21,8
India,Karnataka,Ramanagara,"Vijay Nagar, Ramanagara - KSPCB",07-03-2024 13:00:00,12.733409,77.298051,SO2,26,37,30
India,Karnataka,Ramanagara,"Vijay Nagar, Ramanagara - KSPCB",07-03-2024 13:00:00,12.733409,77.298051,OZONE,28,30,29
India,Karnataka,Shivamogga,"Vinoba Nagara, Shivamogga - KSPCB",07-03-2024 13:00:00,13.940000,75.555917,PM2.5,35,57,43
India,Karnataka,Shivamogga,"Vinoba Nagara, Shivamogga - KSPCB",07-03-2024 13:00:00,13.940000,75.555917,PM10,50,80,62
India,Karnataka,Shivamogga,"Vinoba Nagara, Shivamogga - KSPCB",07-03-2024 13:00:00,13.940000,75.555917,SO2,2,13,7
India,Karnataka,Udupi,"Brahmagiri, Udupi - KSPCB",07-03-2024 13:00:00,13.34194444,74.74694444,NH3,1,1,1
India,Karnataka,Vijayapura,"Ibrahimpur, Vijayapura - KSPCB",07-03-2024 13:00:00,16.802639,75.722694,OZONE,14,16,15
India,Karnataka,Yadgir,"Collector Office, Yadgir - KSPCB",07-03-2024 13:00:00,16.7602,77.1428,SO2,8,24,17
India,Karnataka,Yadgir,"Collector Office, Yadgir - KSPCB",07-03-2024 13:00:00,16.7602,77.1428,CO,22,22,22
India,Kerala,Eloor,"Udyogamandal, Eloor - Kerala PCB",07-03-2024 13:00:00,10.073232,76.302765,NH3,1,1,1
India,Kerala,Eloor,"Udyogamandal, Eloor - Kerala PCB",07-03-2024 13:00:00,10.073232,76.302765,SO2,1,7,2
India,Kerala,Eloor,"Udyogamandal, Eloor - Kerala PCB",07-03-2024 13:00:00,10.073232,76.302765,CO,6,124,77
India,Kerala,Kochi,"Vyttila, Kochi - Kerala PCB",07-03-2024 13:00:00,9.969447,76.321186,PM10,43,116,71
India,Kerala,Thiruvananthapuram,"Kariavattom, Thiruvananthapuram - Kerala PCB",07-03-2024 13:00:00,8.563700,76.886500,PM10,82,94,88
India,Kerala,Thiruvananthapuram,"Kariavattom, Thiruvananthapuram - Kerala PCB",07-03-2024 13:00:00,8.563700,76.886500,OZONE,28,32,30
India,Kerala,Thiruvananthapuram,"Plammoodu, Thiruvananthapuram - Kerala PCB",07-03-2024 13:00:00,8.5149093,76.9435879,PM2.5,17,153,50
India,Kerala,Thiruvananthapuram,"Plammoodu, Thiruvananthapuram - Kerala PCB",07-03-2024 13:00:00,8.5149093,76.9435879,PM10,45,85,61
India,Kerala,Thiruvananthapuram,"Plammoodu, Thiruvananthapuram - Kerala PCB",07-03-2024 13:00:00,8.5149093,76.9435879,NO2,8,10,9
India,Kerala,Thiruvananthapuram,"Plammoodu, Thiruvananthapuram - Kerala PCB",07-03-2024 13:00:00,8.5149093,76.9435879,NH3,2,2,2
India,Kerala,Thiruvananthapuram,"Plammoodu, Thiruvananthapuram - Kerala PCB",07-03-2024 13:00:00,8.5149093,76.9435879,SO2,1,18,9
India,Kerala,Thrissur,"Corporation Ground, Thrissur - Kerala PCB",07-03-2024 13:00:00,10.532400,76.215900,NH3,NA,NA,NA
India,Kerala,Thrissur,"Corporation Ground, Thrissur - Kerala PCB",07-03-2024 13:00:00,10.532400,76.215900,CO,14,100,26
India,Madhya Pradesh,Bhopal,"Idgah Hills, Bhopal - MPPCB",07-03-2024 13:00:00,23.264759,77.381568,PM10,56,131,93
India,Madhya Pradesh,Bhopal,"Paryavaran Parisar, Bhopal - MPPCB",07-03-2024 13:00:00,23.210494,77.425409,OZONE,11,89,51
India,Madhya Pradesh,Bhopal,"T T Nagar, Bhopal - MPPCB",07-03-2024 13:00:00,23.233584,77.400574,SO2,26,51,41
India,Madhya Pradesh,Dewas,"Bhopal Chauraha, Dewas - MPPCB",07-03-2024 13:00:00,22.9682591,76.064118,PM10,59,159,102
India,Madhya Pradesh,Gwalior,"City Center, Gwalior - MPPCB",07-03-2024 13:00:00,26.203442,78.193251,CO,13,120,30
India,Madhya Pradesh,Gwalior,"Deen Dayal Nagar, Gwalior - MPPCB",07-03-2024 13:00:00,26.259242,78.216432,PM2.5,47,342,167
India,Madhya Pradesh,Gwalior,"Maharaj Bada, Gwalior - MPPCB",07-03-2024 13:00:00,26.200388,78.147714,PM2.5,53,213,106
India,Madhya Pradesh,Gwalior,"Maharaj Bada, Gwalior - MPPCB",07-03-2024 13:00:00,26.200388,78.147714,SO2,15,31,19
India,Madhya Pradesh,Indore,"Chhoti Gwaltoli, Indore - MPPCB",07-03-2024 13:00:00,22.4310,75.5213,NO2,55,132,84
India,Madhya Pradesh,Indore,"Chhoti Gwaltoli, Indore - MPPCB",07-03-2024 13:00:00,22.4310,75.5213,NH3,2,4,3
India,Madhya Pradesh,Indore,"Chhoti Gwaltoli, Indore - MPPCB",07-03-2024 13:00:00,22.4310,75.5213,SO2,15,62,26
India,Madhya Pradesh,Indore,"Maguda Nagar, Indore - IMC",07-03-2024 13:00:00,22.7524,75.8872,NH3,1,1,1
India,Madhya Pradesh,Indore,"Regional Park, Indore - IMC",07-03-2024 13:00:00,22.6780,75.8559,NH3,1,2,1
India,Madhya Pradesh,Indore,"Residency Area, Indore - IMC",07-03-2024 13:00:00,22.7084,75.8815,PM10,38,126,69
India,Madhya Pradesh,Jabalpur,"Gupteshwar, Jabalpur - JMC",07-03-2024 13:00:00,23.142888,79.916147,PM2.5,57,120,85
India,Madhya Pradesh,Jabalpur,"Gupteshwar, Jabalpur - JMC",07-03-2024 13:00:00,23.142888,79.916147,PM10,47,92,69
India,Madhya Pradesh,Jabalpur,"Gupteshwar, Jabalpur - JMC",07-03-2024 13:00:00,23.142888,79.916147,SO2,3,9,6
India,Madhya Pradesh,Jabalpur,"Marhatal, Jabalpur - MPPCB",07-03-2024 13:00:00,23.168606,79.932247,NO2,15,56,28
India,Madhya Pradesh,Jabalpur,"Suhagi, Jabalpur - JMC",07-03-2024 13:00:00,23.218135,79.957770,PM2.5,35,322,136
India,Madhya Pradesh,Jabalpur,"Suhagi, Jabalpur - JMC",07-03-2024 13:00:00,23.218135,79.957770,CO,36,107,48
India,Madhya Pradesh,Katni,"Gole Bazar, Katni - MPPCB",07-03-2024 13:00:00,23.50016,80.23284,NO2,34,64,47
India,Madhya Pradesh,Pithampur,"Sector-2 Industrial Area, Pithampur - MPPCB",07-03-2024 13:00:00,22.624758,75.675238,OZONE,32,79,49
India,Madhya Pradesh,Ratlam,"Shasthri Nagar, Ratlam - IPCA Lab",07-03-2024 13:00:00,23.331731,75.045981,SO2,36,43,37
India,Madhya Pradesh,Sagar,"Civil Lines, Sagar - MPPCB",07-03-2024 13:00:00,23.838586,78.759431,PM10,NA,NA,NA
India,Madhya Pradesh,Sagar,"Civil Lines, Sagar - MPPCB",07-03-2024 13:00:00,23.838586,78.759431,NH3,5,10,7
India,Madhya Pradesh,Sagar,"Civil Lines, Sagar - MPPCB",07-03-2024 13:00:00,23.838586,78.759431,CO,13,22,18
India,Madhya Pradesh,Satna,"Bandhavgar Colony, Satna - Birla Cement",07-03-2024 13:00:00,24.58434363,80.8549414,SO2,1,6,2
India,Madhya Pradesh,Ujjain,"Mahakaleshwar Temple, Ujjain - MPPCB",07-03-2024 13:00:00,23.182719 ,75.768218 ,SO2,6,20,11
India,Madhya Pradesh,Ujjain,"Mahakaleshwar Temple, Ujjain - MPPCB",07-03-2024 13:00:00,23.182719 ,75.768218 ,OZONE,128,154,141
India,Maharashtra,Ahmednagar,"Tarakpur, Ahmednagar - MPCB",07-03-2024 13:00:00,19.10122,74.73339,OZONE,50,176,115
India,Maharashtra,Akola,"Ramdaspeth, Akola - MPCB",07-03-2024 13:00:00,20.719516,77.000253,PM2.5,12,173,69
India,Maharashtra,Akola,"Ramdaspeth, Akola - MPCB",07-03-2024 13:00:00,20.719516,77.000253,OZONE,6,126,51
India,Maharashtra,Amravati,"Shivneri Colony, Amravati - MPCB",07-03-2024 13:00:00,20.9402359,77.7895248,NO2,12,76,36
India,Maharashtra,Aurangabad,"MIDC Chilkalthana, Aurangabad - MPCB",07-03-2024 13:00:00,19.875620,75.387310,NO2,10,30,16
India,Maharashtra,Aurangabad,"More Chowk Waluj, Aurangabad - MPCB",07-03-2024 13:00:00,19.8389439,75.244448,NO2,33,35,34
India,Maharashtra,Aurangabad,"Rachnakar Colony, Aurangabad - MPCB",07-03-2024 13:00:00,19.863756,75.321188,PM2.5,36,93,73
India,Maharashtra,Aurangabad,"Rachnakar Colony, Aurangabad - MPCB",07-03-2024 13:00:00,19.863756,75.321188,PM10,82,136,106
India,Maharashtra,Aurangabad,"Rachnakar Colony, Aurangabad - MPCB",07-03-2024 13:00:00,19.863756,75.321188,NO2,14,79,34
India,Maharashtra,Aurangabad,"Rachnakar Colony, Aurangabad - MPCB",07-03-2024 13:00:00,19.863756,75.321188,OZONE,17,89,48
India,Maharashtra,Badlapur,"Katrap, Badlapur - MPCB",07-03-2024 13:00:00,19.16485,73.23409,PM10,49,214,135
India,Maharashtra,Badlapur,"Katrap, Badlapur - MPCB",07-03-2024 13:00:00,19.16485,73.23409,NO2,3,25,12
India,Maharashtra,Belapur,"CBD Belapur, Belapur - MPCB",07-03-2024 13:00:00,19.0243902,73.0406721,NH3,17,54,34
India,Maharashtra,Belapur,"CBD Belapur, Belapur - MPCB",07-03-2024 13:00:00,19.0243902,73.0406721,CO,16,72,51
India,Maharashtra,Bhiwandi,"Gokul Nagar, Bhiwandi - MPCB",07-03-2024 13:00:00,19.309073,73.057223,NO2,25,104,55
India,Maharashtra,Boisar,"Khaira, Boisar - MPCB",07-03-2024 13:00:00,19.786089,72.757971,NO2,NA,NA,NA
India,Maharashtra,Boisar,"Khaira, Boisar - MPCB",07-03-2024 13:00:00,19.786089,72.757971,CO,14,18,16
India,Maharashtra,Dhule,"Deopur, Dhule - MPCB",07-03-2024 13:00:00,20.918946,74.776388,SO2,5,22,13
India,Maharashtra,Dhule,"Deopur, Dhule - MPCB",07-03-2024 13:00:00,20.918946,74.776388,CO,13,44,33
India,Maharashtra,Kalyan,"Khadakpada, Kalyan - MPCB",07-03-2024 13:00:00,19.25292,73.142019,OZONE,6,40,17
India,Maharashtra,Latur,"Sawe Wadi, Latur - MPCB",07-03-2024 13:00:00,18.39963,76.57452,SO2,3,22,11
India,Maharashtra,Malegaon,"Mahesh Nagar, Malegaon - MPCB",07-03-2024 13:00:00,20.555712,74.529236,CO,6,40,18
India,Maharashtra,Mira-Bhayandar,"Bhayandar West, Mira-Bhayandar - MPCB",07-03-2024 13:00:00,19.296481,72.840923,PM10,125,266,163
India,Maharashtra,Mira-Bhayandar,"Bhayandar West, Mira-Bhayandar - MPCB",07-03-2024 13:00:00,19.296481,72.840923,NO2,14,89,44
India,Maharashtra,Mira-Bhayandar,"Bhayandar West, Mira-Bhayandar - MPCB",07-03-2024 13:00:00,19.296481,72.840923,NH3,3,8,4
India,Maharashtra,Mumbai,"Bandra Kurla Complex, Mumbai - MPCB",07-03-2024 13:00:00,19.065931,72.862131,NO2,13,49,33
India,Maharashtra,Mumbai,"Bandra Kurla Complex, Mumbai - MPCB",07-03-2024 13:00:00,19.065931,72.862131,SO2,1,19,8
India,Maharashtra,Mumbai,"Borivali East, Mumbai - IITM",07-03-2024 13:00:00,19.23241,72.86895,NO2,NA,NA,NA
India,Maharashtra,Mumbai,"Borivali East, Mumbai - IITM",07-03-2024 13:00:00,19.23241,72.86895,NH3,NA,NA,NA
India,Maharashtra,Mumbai,"Borivali East, Mumbai - MPCB",07-03-2024 13:00:00,19.2243333,72.8658113,PM10,35,154,71
India,Maharashtra,Mumbai,"Byculla, Mumbai - BMC",07-03-2024 13:00:00,18.9767,72.8380,CO,2,39,28
India,Maharashtra,Mumbai,"Chembur, Mumbai - MPCB",07-03-2024 13:00:00,19.0364585,72.8954371,NH3,4,5,4
India,Maharashtra,Mumbai,"Chhatrapati Shivaji Intl. Airport (T2), Mumbai - MPCB",07-03-2024 13:00:00,19.10078,72.87462,PM10,64,128,93
India,Maharashtra,Mumbai,"Chhatrapati Shivaji Intl. Airport (T2), Mumbai - MPCB",07-03-2024 13:00:00,19.10078,72.87462,NH3,1,4,2
India,Maharashtra,Mumbai,"Chhatrapati Shivaji Intl. Airport (T2), Mumbai - MPCB",07-03-2024 13:00:00,19.10078,72.87462,SO2,24,28,26
India,Maharashtra,Mumbai,"Chhatrapati Shivaji Intl. Airport (T2), Mumbai - MPCB",07-03-2024 13:00:00,19.10078,72.87462,OZONE,4,24,13
India,Maharashtra,Mumbai,"Colaba, Mumbai - MPCB",07-03-2024 13:00:00,18.910000,72.820000,NO2,18,28,21
India,Maharashtra,Mumbai,"Colaba, Mumbai - MPCB",07-03-2024 13:00:00,18.910000,72.820000,OZONE,5,11,9
India,Maharashtra,Mumbai,"Ghatkopar, Mumbai - BMC",07-03-2024 13:00:00,19.083694,72.920967,PM10,74,125,98
India,Maharashtra,Mumbai,"Ghatkopar, Mumbai - BMC",07-03-2024 13:00:00,19.083694,72.920967,NO2,5,379,153
India,Maharashtra,Mumbai,"Kandivali West, Mumbai - BMC",07-03-2024 13:00:00,19.215859,72.831718,NO2,12,58,26
India,Maharashtra,Mumbai,"Kherwadi_Bandra East, Mumbai - MPCB",07-03-2024 13:00:00,19.0632143,72.8456324,NH3,3,17,7
India,Maharashtra,Mumbai,"Kherwadi_Bandra East, Mumbai - MPCB",07-03-2024 13:00:00,19.0632143,72.8456324,SO2,11,43,19
India,Maharashtra,Mumbai,"Kherwadi_Bandra East, Mumbai - MPCB",07-03-2024 13:00:00,19.0632143,72.8456324,OZONE,1,131,32
India,Maharashtra,Mumbai,"Kurla, Mumbai - MPCB",07-03-2024 13:00:00,19.0863,72.8888,PM2.5,40,201,99
India,Maharashtra,Mumbai,"Kurla, Mumbai - MPCB",07-03-2024 13:00:00,19.0863,72.8888,CO,8,42,26
India,Maharashtra,Mumbai,"Mulund West, Mumbai - MPCB",07-03-2024 13:00:00,19.1750,72.9419,PM10,53,187,100
India,Maharashtra,Mumbai,"Mulund West, Mumbai - MPCB",07-03-2024 13:00:00,19.1750,72.9419,NH3,9,10,10
India,Maharashtra,Mumbai,"Mulund West, Mumbai - MPCB",07-03-2024 13:00:00,19.1750,72.9419,CO,28,28,28
India,Maharashtra,Mumbai,"Navy Nagar-Colaba, Mumbai - IITM",07-03-2024 13:00:00,18.897756,72.813320,OZONE,32,153,65
India,Maharashtra,Mumbai,"Powai, Mumbai - MPCB",07-03-2024 13:00:00,19.137500,72.915056,OZONE,23,143,51
India,Maharashtra,Mumbai,"Sewri, Mumbai - BMC",07-03-2024 13:00:00,19.000084,72.856730,PM10,65,122,96
India,Maharashtra,Mumbai,"Sewri, Mumbai - BMC",07-03-2024 13:00:00,19.000084,72.856730,OZONE,3,92,38
India,Maharashtra,Mumbai,"Shivaji Nagar, Mumbai - BMC",07-03-2024 13:00:00,19.060498,72.923356,CO,2,100,24
India,Maharashtra,Mumbai,"Siddharth Nagar-Worli, Mumbai - IITM",07-03-2024 13:00:00,19.000083,72.813993,NO2,NA,NA,NA
India,Maharashtra,Mumbai,"Vasai West, Mumbai - MPCB",07-03-2024 13:00:00,19.383200,72.820400,PM2.5,49,224,109
India,Maharashtra,Nagpur,"Ambazari, Nagpur - MPCB",07-03-2024 13:00:00,21.121801,79.04952,NH3,3,5,3
India,Maharashtra,Nagpur,"Mahal, Nagpur - MPCB",07-03-2024 13:00:00,21.14472,79.107595,PM2.5,54,89,69
India,Maharashtra,Nagpur,"Opp GPO Civil Lines, Nagpur - MPCB",07-03-2024 13:00:00,21.152875,79.0517531,SO2,9,111,29
India,Maharashtra,Nagpur,"Ram Nagar, Nagpur - MPCB",07-03-2024 13:00:00,21.143383,79.048912,NH3,5,8,6
India,Maharashtra,Nanded,"Sneh Nagar, Nanded - MPCB",07-03-2024 13:00:00,19.173852,77.296291,PM10,69,141,102
India,Maharashtra,Nashik,"Gangapur Road, Nashik - MPCB",07-03-2024 13:00:00,20.0073285,73.7762427,SO2,1,33,6
India,Maharashtra,Nashik,"Hirawadi, Nashik - MPCB",07-03-2024 13:00:00,20.021503,73.813844,PM10,52,112,83
India,Maharashtra,Nashik,"Hirawadi, Nashik - MPCB",07-03-2024 13:00:00,20.021503,73.813844,NO2,5,140,41
India,Maharashtra,Nashik,"Hirawadi, Nashik - MPCB",07-03-2024 13:00:00,20.021503,73.813844,NH3,1,2,1
India,Maharashtra,Nashik,"MIDC Ambad, Nashik - MPCB",07-03-2024 13:00:00,19.950220,73.731480,CO,16,54,28
India,Maharashtra,Nashik,"Pandav Nagari, Nashik - MPCB",07-03-2024 13:00:00,19.9591346,73.7788008,CO,10,38,23
India,Maharashtra,Navi Mumbai,"Kopripada-Vashi, Navi Mumbai - MPCB",07-03-2024 13:00:00,19.090337,73.014232,PM2.5,24,306,131
India,Maharashtra,Navi Mumbai,"Mahape, Navi Mumbai - MPCB",07-03-2024 13:00:00,19.1135051,73.008978,NO2,37,39,38
India,Maharashtra,Navi Mumbai,"Mahape, Navi Mumbai - MPCB",07-03-2024 13:00:00,19.1135051,73.008978,SO2,26,27,27
India,Maharashtra,Navi Mumbai,"Nerul, Navi Mumbai - MPCB",07-03-2024 13:00:00,19.008751,73.016620,OZONE,37,59,57
India,Maharashtra,Navi Mumbai,"Sanpada, Navi Mumbai - MPCB",07-03-2024 13:00:00,19.0575752,73.0151367,PM10,65,305,157
India,Maharashtra,Navi Mumbai,"Sanpada, Navi Mumbai - MPCB",07-03-2024 13:00:00,19.0575752,73.0151367,NO2,2,32,12
India,Maharashtra,Navi Mumbai,"Sanpada, Navi Mumbai - MPCB",07-03-2024 13:00:00,19.0575752,73.0151367,NH3,1,5,3
India,Maharashtra,Navi Mumbai,"Sanpada, Navi Mumbai - MPCB",07-03-2024 13:00:00,19.0575752,73.0151367,CO,2,100,17
India,Maharashtra,Navi Mumbai,"Sector-19A Nerul, Navi Mumbai - IITM",07-03-2024 13:00:00,19.044,73.0325,NH3,1,12,5
India,Maharashtra,Navi Mumbai,"Sector-19A Nerul, Navi Mumbai - IITM",07-03-2024 13:00:00,19.044,73.0325,CO,1,100,54
India,Maharashtra,Navi Mumbai,"Tondare-Taloja, Navi Mumbai - MPCB",07-03-2024 13:00:00,19.0630,73.1209,NO2,28,155,91
India,Maharashtra,Parbhani,"Masoom Colony, Parbhani - MPCB",07-03-2024 13:00:00,19.265594,76.761463,OZONE,24,84,36
India,Maharashtra,Pimpri-Chinchwad,"Park Street Wakad, Pimpri Chinchwad - MPCB",07-03-2024 13:00:00,18.59051,73.77946,CO,10,71,47
India,Maharashtra,Pimpri-Chinchwad,"Thergaon, Pimpri Chinchwad - MPCB",07-03-2024 13:00:00,18.616318,73.765797,PM2.5,128,328,200
India,Maharashtra,Pimpri-Chinchwad,"Thergaon, Pimpri Chinchwad - MPCB",07-03-2024 13:00:00,18.616318,73.765797,NH3,3,16,8
India,Maharashtra,Pimpri-Chinchwad,"Thergaon, Pimpri Chinchwad - MPCB",07-03-2024 13:00:00,18.616318,73.765797,OZONE,2,302,156
India,Maharashtra,Pune,"Bhosari, Pune - IITM",07-03-2024 13:00:00,18.640051,73.848956,PM2.5,17,146,69
India,Maharashtra,Pune,"Bhosari, Pune - IITM",07-03-2024 13:00:00,18.640051,73.848956,OZONE,2,151,39
India,Maharashtra,Pune,"Karve Road, Pune - MPCB",07-03-2024 13:00:00,18.5011743,73.8165527,OZONE,8,8,8
India,Maharashtra,Pune,"Katraj Dairy, Pune - MPCB",07-03-2024 13:00:00,18.454450,73.854155,NO2,NA,NA,NA
India,Maharashtra,Pune,"Katraj Dairy, Pune - MPCB",07-03-2024 13:00:00,18.454450,73.854155,CO,NA,NA,NA
India,Maharashtra,Pune,"Mhada Colony, Pune - IITM",07-03-2024 13:00:00,18.573040,73.927715,CO,121,143,130
India,Maharashtra,Pune,"Mhada Colony, Pune - IITM",07-03-2024 13:00:00,18.573040,73.927715,OZONE,6,36,15
India,Maharashtra,Pune,"Savitribai Phule Pune University, Pune - MPCB",07-03-2024 13:00:00,18.547056,73.826908,PM2.5,43,160,87
India,Maharashtra,Pune,"Savitribai Phule Pune University, Pune - MPCB",07-03-2024 13:00:00,18.547056,73.826908,SO2,3,14,7
India,Maharashtra,Sangli,"Vijay Nagar, Sangli - MPCB",07-03-2024 13:00:00, 16.5038,74.3623,PM10,72,162,102
India,Maharashtra,Sangli,"Vijay Nagar, Sangli - MPCB",07-03-2024 13:00:00, 16.5038,74.3623,NO2,35,87,57
India,Maharashtra,Sangli,"Vijay Nagar, Sangli - MPCB",07-03-2024 13:00:00, 16.5038,74.3623,OZONE,4,26,18
India,Maharashtra,Solapur,"Dnyaneshwar Nagar, Solapur - MPCB",07-03-2024 13:00:00,17.6336264,75.9132495,PM10,69,288,142
India,Maharashtra,Thane,"Kasarvadavali, Thane - MPCB",07-03-2024 13:00:00,19.26777,72.97182,PM2.5,42,264,109
India,Maharashtra,Thane,"Kasarvadavali, Thane - MPCB",07-03-2024 13:00:00,19.26777,72.97182,CO,12,94,56
India,Maharashtra,Thane,"Pimpleshwar Mandir, Thane - MPCB",07-03-2024 13:00:00,19.192056,72.9585188,NH3,3,3,3
India,Maharashtra,Thane,"Pimpleshwar Mandir, Thane - MPCB",07-03-2024 13:00:00,19.192056,72.9585188,OZONE,1,79,19
India,Maharashtra,Thane,"Upvan Fort, Thane - MPCB",07-03-2024 13:00:00,19.222279,72.957979,SO2,7,79,25
India,Maharashtra,Virar,"Bolinj, Virar - MPCB",07-03-2024 13:00:00,19.4458210,72.7988231,SO2,10,32,18
India,Maharashtra,Virar,"Bolinj, Virar - MPCB",07-03-2024 13:00:00,19.4458210,72.7988231,CO,12,106,26
India,Manipur,Imphal,"Manipur University, Imphal - Manipur PCB",07-03-2024 13:00:00,24.7524239,93.9286218,NO2,7,29,13
India,Manipur,Imphal,"Manipur University, Imphal - Manipur PCB",07-03-2024 13:00:00,24.7524239,93.9286218,CO,8,28,18
India,Meghalaya,Shillong,"Lumpyngngad, Shillong - Meghalaya PCB",07-03-2024 13:00:00,25.5586,91.8985,PM2.5,18,226,88
India,Mizoram,Aizawl,"Sikulpuikawn, Aizawl - Mizoram PCB",07-03-2024 13:00:00,23.7176342,92.7192841,PM2.5,34,66,45
India,Nagaland,Kohima,"PWD Juction, Kohima - NPCB",07-03-2024 13:00:00,25.6635413,94.0989878,NO2,3,4,3
India,Nagaland,Kohima,"PWD Juction, Kohima - NPCB",07-03-2024 13:00:00,25.6635413,94.0989878,NH3,NA,NA,NA
India,Nagaland,Kohima,"PWD Juction, Kohima - NPCB",07-03-2024 13:00:00,25.6635413,94.0989878,SO2,28,30,29
India,Odisha,Angul,"Hakimapada, Angul - OSPCB",07-03-2024 13:00:00,20.832874,85.104082,SO2,12,114,65
India,Odisha,Balasore,"Kalidaspur, Balasore - OSPCB",07-03-2024 13:00:00,21.51161,86.89088,CO,48,105,64
India,Odisha,Barbil,"Forest Office, Barbil - OSPCB",07-03-2024 13:00:00,22.1166054,85.3945546,PM2.5,5,240,89
India,Odisha,Bileipada,"Tata Township, Bileipada - OSPCB",07-03-2024 13:00:00,22.06156703,85.47409613,PM10,43,239,144
India,Odisha,Bileipada,"Tata Township, Bileipada - OSPCB",07-03-2024 13:00:00,22.06156703,85.47409613,OZONE,19,25,21
India,Odisha,Brajrajnagar,"GM Office, Brajrajnagar - OSPCB",07-03-2024 13:00:00,21.8004996,83.8396977,PM10,19,171,63
India,Odisha,Byasanagar,"Ferro Chrome Colony, Byasanagar - OSPCB",07-03-2024 13:00:00,20.94185,86.11510,NH3,2,4,2
India,Odisha,Byasanagar,"Ferro Chrome Colony, Byasanagar - OSPCB",07-03-2024 13:00:00,20.94185,86.11510,OZONE,27,111,44
India,Odisha,Cuttack,"CDA Area, Cuttack - OSPCB",07-03-2024 13:00:00,20.48891     ,85.84768     ,OZONE,20,142,42
India,Odisha,Nayagarh,"Dabuna, Nayagarh - OSPCB",07-03-2024 13:00:00,21.847279,85.416905,CO,3,29,28
India,Odisha,Nayagarh,"Dabuna, Nayagarh - OSPCB",07-03-2024 13:00:00,21.847279,85.416905,OZONE,1,46,5
India,Odisha,Rairangpur,"Divisional Forest Office, Rairangpur - OSPCB",07-03-2024 13:00:00,22.265816,86.174829,NO2,7,8,7
India,Odisha,Rairangpur,"Divisional Forest Office, Rairangpur - OSPCB",07-03-2024 13:00:00,22.265816,86.174829,OZONE,12,49,17
India,Odisha,Rourkela,"Fertilizer Township, Rourkela - OSPCB",07-03-2024 13:00:00,22.18972222,84.86277778,PM10,62,173,108
India,Odisha,Rourkela,"Raghunathpali, Rourkela - OSPCB",07-03-2024 13:00:00,22.220833,84.809444,PM2.5,34,172,66
India,Odisha,Rourkela,"Sector-2, Rourkela - OSPCB",07-03-2024 13:00:00,22.24500000,84.88111111,PM2.5,40,171,84
India,Odisha,Rourkela,"Sector-2, Rourkela - OSPCB",07-03-2024 13:00:00,22.24500000,84.88111111,PM10,63,135,96
India,Odisha,Suakati,"OMC Colony, Suakati - OSPCB",07-03-2024 13:00:00,21.606865,85.510538,PM10,17,122,95
India,Odisha,Suakati,"OMC Colony, Suakati - OSPCB",07-03-2024 13:00:00,21.606865,85.510538,NO2,NA,NA,NA
India,Odisha,Talcher,"Talcher Coalfields,Talcher - OSPCB",07-03-2024 13:00:00,20.9360711,85.1707021,PM10,NA,NA,NA
India,Odisha,Tensa,"Barsua Iron Ore Mines, Tensa - OSPCB",07-03-2024 13:00:00,21.869985,85.167016,PM10,54,109,82
India,Odisha,Tensa,"Barsua Iron Ore Mines, Tensa - OSPCB",07-03-2024 13:00:00,21.869985,85.167016,NO2,32,53,40
India,Odisha,Tensa,"Barsua Iron Ore Mines, Tensa - OSPCB",07-03-2024 13:00:00,21.869985,85.167016,NH3,6,8,7
India,Odisha,Tensa,"Barsua Iron Ore Mines, Tensa - OSPCB",07-03-2024 13:00:00,21.869985,85.167016,SO2,12,19,14
India,Odisha,Tensa,"Barsua Iron Ore Mines, Tensa - OSPCB",07-03-2024 13:00:00,21.869985,85.167016,CO,8,28,25
India,Odisha,Tensa,"Barsua Iron Ore Mines, Tensa - OSPCB",07-03-2024 13:00:00,21.869985,85.167016,OZONE,7,31,11
India,Puducherry,Puducherry,"Jawahar Nagar, Puducherry - PPCC",07-03-2024 13:00:00,11.9309,79.8027,CO,16,80,45
India,Punjab,Bathinda,"Hardev Nagar, Bathinda - PPCB",07-03-2024 13:00:00,30.233011,74.907758,PM2.5,11,253,111
India,Punjab,Ludhiana,"Punjab Agricultural University, Ludhiana - PPCB",07-03-2024 13:00:00,30.9028,75.8086,PM2.5,41,124,78
India,Punjab,Mandi Gobindgarh,"RIMT University, Mandi Gobindgarh - PPCB",07-03-2024 13:00:00,30.649961,76.331442,SO2,5,78,23
India,Punjab,Patiala,"Model Town, Patiala - PPCB",07-03-2024 13:00:00,30.349388,76.366642,NH3,5,6,5
India,Rajasthan,Alwar,"Moti Doongri, Alwar - RSPCB",07-03-2024 13:00:00,27.554793,76.611536,PM10,35,101,72
India,Rajasthan,Alwar,"Moti Doongri, Alwar - RSPCB",07-03-2024 13:00:00,27.554793,76.611536,NH3,5,8,6
India,Rajasthan,Alwar,"Moti Doongri, Alwar - RSPCB",07-03-2024 13:00:00,27.554793,76.611536,SO2,14,52,30
India,Rajasthan,Alwar,"Moti Doongri, Alwar - RSPCB",07-03-2024 13:00:00,27.554793,76.611536,CO,22,82,40
India,Rajasthan,Baran,"Bamboliya, Baran - RSPCB",07-03-2024 13:00:00,25.106006,76.469948,PM2.5,NA,NA,NA
India,Rajasthan,Baran,"Bamboliya, Baran - RSPCB",07-03-2024 13:00:00,25.106006,76.469948,NH3,NA,NA,NA
India,Rajasthan,Baran,"Bamboliya, Baran - RSPCB",07-03-2024 13:00:00,25.106006,76.469948,SO2,7,26,13
India,Rajasthan,Barmer,"Railway Colony, Barmer - RSPCB",07-03-2024 13:00:00,25.747299,71.393989,CO,8,117,17
India,Rajasthan,Barmer,"Railway Colony, Barmer - RSPCB",07-03-2024 13:00:00,25.747299,71.393989,OZONE,1,122,71
India,Rajasthan,Bharatpur,"Krishna Nagar, Bharatpur - RSPCB",07-03-2024 13:00:00,27.215415,77.50873,SO2,1,6,2
India,Rajasthan,Bharatpur,"Krishna Nagar, Bharatpur - RSPCB",07-03-2024 13:00:00,27.215415,77.50873,OZONE,2,99,46
India,Rajasthan,Bhilwara,"Pratap Nagar, Bhilwara - RSPCB",07-03-2024 13:00:00,25.339605,74.618883,PM10,51,188,109
India,Rajasthan,Bhilwara,"Pratap Nagar, Bhilwara - RSPCB",07-03-2024 13:00:00,25.339605,74.618883,NO2,20,149,64
India,Rajasthan,Bhiwadi,"RIICO Ind. Area III, Bhiwadi - RSPCB",07-03-2024 13:00:00,28.194909,76.862296,SO2,4,34,17
India,Rajasthan,Bhiwadi,"RIICO Ind. Area III, Bhiwadi - RSPCB",07-03-2024 13:00:00,28.194909,76.862296,OZONE,1,59,18
India,Rajasthan,Bhiwadi,"Vasundhara Nagar_UIT, Bhiwadi - RSPCB",07-03-2024 13:00:00,28.207266,76.829265,CO,16,55,39
India,Rajasthan,Bikaner,"MM Ground, Bikaner - RSPCB",07-03-2024 13:00:00,28.018792,73.292658,NH3,7,16,10
India,Rajasthan,Bundi,"New Colony, Bundi - RSPCB",07-03-2024 13:00:00,25.435774,75.644272,PM10,70,202,113
India,Rajasthan,Churu,"Subash Chowk, Churu - RSPCB",07-03-2024 13:00:00,28.296139,74.961696,CO,18,59,35
India,Rajasthan,Churu,"Subash Chowk, Churu - RSPCB",07-03-2024 13:00:00,28.296139,74.961696,OZONE,54,119,89
India,Rajasthan,Dausa,"Khatikan Mohalla, Dausa - RSPCB",07-03-2024 13:00:00,26.895552,76.334753,PM2.5,21,146,73
India,Rajasthan,Dausa,"Khatikan Mohalla, Dausa - RSPCB",07-03-2024 13:00:00,26.895552,76.334753,CO,79,122,104
India,Rajasthan,Dholpur,"Raja Ganj, Dholpur - RSPCB",07-03-2024 13:00:00,26.699557,77.898881,PM2.5,37,316,161
India,Rajasthan,Dholpur,"Raja Ganj, Dholpur - RSPCB",07-03-2024 13:00:00,26.699557,77.898881,OZONE,1,143,54
India,Rajasthan,Dungarpur,"Bhoiwada, Dungarpur - RSPCB",07-03-2024 13:00:00,23.837789,73.714926,PM10,60,500,122
India,Rajasthan,Hanumangarh,"Housing Board, Hanumangarh - RSPCB",07-03-2024 13:00:00,29.610750,74.283608,NO2,12,110,40
India,Rajasthan,Hanumangarh,"Housing Board, Hanumangarh - RSPCB",07-03-2024 13:00:00,29.610750,74.283608,NH3,6,11,8
India,Rajasthan,Jaipur,"Adarsh Nagar, Jaipur - RSPCB",07-03-2024 13:00:00,26.902909,75.836858,PM2.5,36,116,67
India,Rajasthan,Jaipur,"Adarsh Nagar, Jaipur - RSPCB",07-03-2024 13:00:00,26.902909,75.836858,SO2,1,24,16
India,Rajasthan,Jaipur,"Police Commissionerate, Jaipur - RSPCB",07-03-2024 13:00:00,26.9164092,75.7994901,PM10,66,185,117
India,Rajasthan,Jaipur,"Police Commissionerate, Jaipur - RSPCB",07-03-2024 13:00:00,26.9164092,75.7994901,NH3,4,8,6
India,Rajasthan,Jaipur,"RIICO Sitapura, Jaipur - RSPCB",07-03-2024 13:00:00,26.786682,75.827928,NH3,1,2,1
India,Rajasthan,Jaisalmer,"Sadar Bazar, Jaisalmer - RSPCB",07-03-2024 13:00:00,26.912329,70.909168,PM10,47,337,93
India,Rajasthan,Jalore,"Mudtra Sili, Jalore - RSPCB",07-03-2024 13:00:00,25.344694,72.626208,PM2.5,29,307,90
India,Rajasthan,Jalore,"Mudtra Sili, Jalore - RSPCB",07-03-2024 13:00:00,25.344694,72.626208,PM10,61,469,144
India,Rajasthan,Jhalawar,"Rajlaxmi Nagar, Jhalawar - RSPCB",07-03-2024 13:00:00,24.588397,76.172782,PM2.5,20,310,98
India,Rajasthan,Jhalawar,"Rajlaxmi Nagar, Jhalawar - RSPCB",07-03-2024 13:00:00,24.588397,76.172782,OZONE,19,121,57
India,Rajasthan,Jhunjhunu,"Indra Nagar, Jhunjhunu - RSPCB",07-03-2024 13:00:00,28.108988,75.386577,SO2,2,13,5
India,Rajasthan,Jodhpur,"Collectorate, Jodhpur - RSPCB",07-03-2024 13:00:00,26.268249,73.0193853,PM2.5,25,146,90
India,Rajasthan,Jodhpur,"Digari Kalan, Jodhpur - RSPCB",07-03-2024 13:00:00,26.295810,73.082283,PM10,39,188,82
India,Rajasthan,Jodhpur,"Digari Kalan, Jodhpur - RSPCB",07-03-2024 13:00:00,26.295810,73.082283,NH3,5,10,7
India,Rajasthan,Jodhpur,"Jhalamand, Jodhpur - RSPCB",07-03-2024 13:00:00,26.215415,73.070156,SO2,5,12,7
India,Rajasthan,Jodhpur,"Samrat Ashok Udhyan, Jodhpur - RSPCB",07-03-2024 13:00:00,26.253384,72.976571,NH3,5,24,7
India,Rajasthan,Jodhpur,"Samrat Ashok Udhyan, Jodhpur - RSPCB",07-03-2024 13:00:00,26.253384,72.976571,SO2,2,39,7
India,Rajasthan,Kota,"Dhanmandi, Kota - RSPCB",07-03-2024 13:00:00,25.164090,75.858137,NO2,48,161,84
India,Rajasthan,Kota,"Dhanmandi, Kota - RSPCB",07-03-2024 13:00:00,25.164090,75.858137,CO,10,103,40
India,Rajasthan,Kota,"Dhanmandi, Kota - RSPCB",07-03-2024 13:00:00,25.164090,75.858137,OZONE,15,133,51
India,Rajasthan,Kota,"Nayapura, Kota - RSPCB",07-03-2024 13:00:00,25.196024,75.855668,PM2.5,33,172,76
India,Rajasthan,Kota,"Nayapura, Kota - RSPCB",07-03-2024 13:00:00,25.196024,75.855668,PM10,82,500,122
India,Rajasthan,Kota,"Nayapura, Kota - RSPCB",07-03-2024 13:00:00,25.196024,75.855668,OZONE,2,145,56
India,Rajasthan,Pali,"Indira Colony Vistar, Pali - RSPCB",07-03-2024 13:00:00,25.771061, 73.340227,NO2,19,70,40
India,Rajasthan,Pratapgarh,"Pragati Nagar, Pratapgarh - RSPCB",07-03-2024 13:00:00,24.041198,74.780702,PM2.5,22,95,52
India,Rajasthan,Pratapgarh,"Pragati Nagar, Pratapgarh - RSPCB",07-03-2024 13:00:00,24.041198,74.780702,SO2,4,14,7
India,Rajasthan,Rajsamand,"Dhoinda, Rajsamand - RSPCB",07-03-2024 13:00:00,25.036360,73.883502,PM2.5,25,107,55
India,Rajasthan,Sikar,"Radhakishan Pura, Sikar - RSPCB",07-03-2024 13:00:00,27.608912,75.153302,PM2.5,10,335,126
India,Rajasthan,Sikar,"Radhakishan Pura, Sikar - RSPCB",07-03-2024 13:00:00,27.608912,75.153302,NO2,6,79,34
India,Rajasthan,Sikar,"Radhakishan Pura, Sikar - RSPCB",07-03-2024 13:00:00,27.608912,75.153302,NH3,1,8,5
India,Rajasthan,Sikar,"Radhakishan Pura, Sikar - RSPCB",07-03-2024 13:00:00,27.608912,75.153302,OZONE,6,115,61
India,Rajasthan,Sirohi,"Vedhaynath Colony, Sirohi - RSPCB",07-03-2024 13:00:00,24.885261,72.857549,PM10,32,136,67
India,Rajasthan,Sri Ganganagar,"Old City, Sri Ganganagar - RSPCB",07-03-2024 13:00:00,29.931624,73.864511,NO2,34,276,101
India,Rajasthan,Sri Ganganagar,"Old City, Sri Ganganagar - RSPCB",07-03-2024 13:00:00,29.931624,73.864511,NH3,6,54,17
India,Rajasthan,Tonk,"Shastri Nagar, Tonk - RSPCB",07-03-2024 13:00:00,26.159933,75.780517,NH3,4,14,8
India,Rajasthan,Tonk,"Shastri Nagar, Tonk - RSPCB",07-03-2024 13:00:00,26.159933,75.780517,CO,12,40,23
India,Rajasthan,Tonk,"Shastri Nagar, Tonk - RSPCB",07-03-2024 13:00:00,26.159933,75.780517,OZONE,12,104,53
India,Sikkim,Gangtok,"Zero Point GICI, Gangtok - SSPCB",07-03-2024 13:00:00,27.338530,88.614099,PM2.5,19,39,32
India,Sikkim,Gangtok,"Zero Point GICI, Gangtok - SSPCB",07-03-2024 13:00:00,27.338530,88.614099,PM10,48,69,62
India,Sikkim,Gangtok,"Zero Point GICI, Gangtok - SSPCB",07-03-2024 13:00:00,27.338530,88.614099,SO2,10,11,10
India,Sikkim,Gangtok,"Zero Point GICI, Gangtok - SSPCB",07-03-2024 13:00:00,27.338530,88.614099,OZONE,33,90,54
India,TamilNadu,Ariyalur,"Keelapalur, Ariyalur - TNPCB",07-03-2024 13:00:00,11.06825,79.07033,NO2,60,98,71
India,TamilNadu,Chengalpattu,"Crescent University, Chengalpattu - TNPCB",07-03-2024 13:00:00,12.8777316,80.0834807,PM2.5,37,354,97
India,TamilNadu,Chennai,"Alandur Bus Depot, Chennai - CPCB",07-03-2024 13:00:00,12.9099161,80.1076538,PM2.5,33,63,45
India,TamilNadu,Chennai,"Alandur Bus Depot, Chennai - CPCB",07-03-2024 13:00:00,12.9099161,80.1076538,NO2,14,64,26
India,TamilNadu,Chennai,"Alandur Bus Depot, Chennai - CPCB",07-03-2024 13:00:00,12.9099161,80.1076538,CO,83,105,99
India,TamilNadu,Chennai,"Arumbakkam, Chennai - TNPCB",07-03-2024 13:00:00,13.0664,80.2112 ,PM10,41,116,70
India,TamilNadu,Chennai,"Kodungaiyur, Chennai - TNPCB",07-03-2024 13:00:00,13.1278,80.2642,PM10,38,149,78
India,TamilNadu,Chennai,"Perungudi, Chennai - TNPCB",07-03-2024 13:00:00,12.9533,80.2357,PM10,46,112,73
India,TamilNadu,Chennai,"Royapuram, Chennai - TNPCB",07-03-2024 13:00:00,13.1036,80.2909,SO2,1,5,2
India,TamilNadu,Chennai,"Velachery Res. Area, Chennai - CPCB",07-03-2024 13:00:00,13.0052189,80.2398125,PM2.5,40,104,72
India,TamilNadu,Chennai,"Velachery Res. Area, Chennai - CPCB",07-03-2024 13:00:00,13.0052189,80.2398125,PM10,65,111,82
India,TamilNadu,Chennai,"Velachery Res. Area, Chennai - CPCB",07-03-2024 13:00:00,13.0052189,80.2398125,NO2,9,38,20
India,TamilNadu,Chennai,"Velachery Res. Area, Chennai - CPCB",07-03-2024 13:00:00,13.0052189,80.2398125,OZONE,1,17,3
India,TamilNadu,Coimbatore,"PSG College of Arts and Science, Coimbatore - TNPCB",07-03-2024 13:00:00,11.0328,77.0349,NO2,NA,NA,NA
India,TamilNadu,Coimbatore,"PSG College of Arts and Science, Coimbatore - TNPCB",07-03-2024 13:00:00,11.0328,77.0349,CO,5,5,5
India,TamilNadu,Cuddalore,"Kudikadu, Cuddalore - TNPCB",07-03-2024 13:00:00,11.6829898,79.7532099,PM2.5,NA,NA,NA
India,TamilNadu,Cuddalore,"Semmandalam, Cuddalore - TNPCB",07-03-2024 13:00:00,11.7637683,79.7499835,NO2,8,30,15
India,TamilNadu,Cuddalore,"Semmandalam, Cuddalore - TNPCB",07-03-2024 13:00:00,11.7637683,79.7499835,NH3,1,7,2
India,TamilNadu,Gummidipoondi,"Anthoni Pillai Nagar, Gummidipoondi - TNPCB",07-03-2024 13:00:00,13.4127,80.1081,NO2,10,19,14
India,TamilNadu,Gummidipoondi,"Anthoni Pillai Nagar, Gummidipoondi - TNPCB",07-03-2024 13:00:00,13.4127,80.1081,NH3,1,2,2
India,TamilNadu,Kanchipuram,"Kilambi, Kanchipuram - TNPCB",07-03-2024 13:00:00,12.864618,79.659968,NO2,NA,NA,NA
India,TamilNadu,Kanchipuram,"Kilambi, Kanchipuram - TNPCB",07-03-2024 13:00:00,12.864618,79.659968,CO,19,22,20
India,TamilNadu,Ooty,"Bombay Castel, Ooty - TNPCB",07-03-2024 13:00:00,11.4068288,76.7138973,OZONE,5,6,5
India,TamilNadu,Palkalaiperur,"Bharathidasan University, Palkalaiperur - TNPCB",07-03-2024 13:00:00,10.681158,78.741746,PM2.5,24,50,31
India,TamilNadu,Palkalaiperur,"Bharathidasan University, Palkalaiperur - TNPCB",07-03-2024 13:00:00,10.681158,78.741746,SO2,27,29,28
India,TamilNadu,Tirupur,"Kumaran College, Tirupur - TNPCB",07-03-2024 13:00:00,11.0973603,77.3228673,NH3,NA,NA,NA
India,TamilNadu,Tirupur,"Kumaran College, Tirupur - TNPCB",07-03-2024 13:00:00,11.0973603,77.3228673,SO2,17,18,18
India,TamilNadu,Tirupur,"Kumaran College, Tirupur - TNPCB",07-03-2024 13:00:00,11.0973603,77.3228673,OZONE,6,7,7
India,TamilNadu,Vellore,"Vasanthapuram, Vellore - TNPCB",07-03-2024 13:00:00,12.909494,79.131861,OZONE,1,2,1
India,Telangana,Hyderabad,"Bollaram Industrial Area, Hyderabad - TSPCB",07-03-2024 13:00:00,17.540891,78.358528,SO2,6,56,12
India,Telangana,Hyderabad,"Bollaram Industrial Area, Hyderabad - TSPCB",07-03-2024 13:00:00,17.540891,78.358528,OZONE,33,39,36
India,Telangana,Hyderabad,"Central University, Hyderabad - TSPCB",07-03-2024 13:00:00,17.460103,78.334361,CO,6,39,16
India,Telangana,Hyderabad,"Central University, Hyderabad - TSPCB",07-03-2024 13:00:00,17.460103,78.334361,OZONE,3,4,3
India,Telangana,Hyderabad,"ECIL Kapra, Hyderabad - TSPCB",07-03-2024 13:00:00,17.470431,78.566959,PM2.5,37,53,41
India,Telangana,Hyderabad,"ECIL Kapra, Hyderabad - TSPCB",07-03-2024 13:00:00,17.470431,78.566959,CO,21,50,38
India,Telangana,Hyderabad,"ICRISAT Patancheru, Hyderabad - TSPCB",07-03-2024 13:00:00,17.518400,78.278777,PM2.5,33,92,62
India,Telangana,Hyderabad,"ICRISAT Patancheru, Hyderabad - TSPCB",07-03-2024 13:00:00,17.518400,78.278777,NO2,15,17,16
India,Telangana,Hyderabad,"ICRISAT Patancheru, Hyderabad - TSPCB",07-03-2024 13:00:00,17.518400,78.278777,NH3,2,2,2
India,Telangana,Hyderabad,"ICRISAT Patancheru, Hyderabad - TSPCB",07-03-2024 13:00:00,17.518400,78.278777,CO,22,73,53
India,Telangana,Hyderabad,"IITH Kandi, Hyderabad - TSPCB",07-03-2024 13:00:00,17.585705,78.126199,CO,2,28,17
India,Telangana,Hyderabad,"Kompally Municipal Office, Hyderabad - TSPCB",07-03-2024 13:00:00,17.544899,78.486949,NO2,NA,NA,NA
India,Telangana,Hyderabad,"Kompally Municipal Office, Hyderabad - TSPCB",07-03-2024 13:00:00,17.544899,78.486949,NH3,NA,NA,NA
India,Telangana,Hyderabad,"Nacharam_TSIIC IALA, Hyderabad - TSPCB",07-03-2024 13:00:00,17.429398,78.569354,PM10,69,87,78
India,Telangana,Hyderabad,"New Malakpet, Hyderabad - TSPCB",07-03-2024 13:00:00,17.37206,78.50864,SO2,7,26,15
India,Telangana,Hyderabad,"Sanathnagar, Hyderabad - TSPCB",07-03-2024 13:00:00,17.4559458,78.4332152,SO2,2,8,6
India,Tripura,Agartala,"Bardowali, Agartala - Tripura SPCB",07-03-2024 13:00:00,23.8175497,91.2726974,CO,23,103,29
India,Uttar_Pradesh,Agra,"Manoharpur, Agra - UPPCB",07-03-2024 13:00:00,27.23711,78.01936,PM2.5,10,87,38
India,Uttar_Pradesh,Agra,"Rohta, Agra - UPPCB",07-03-2024 13:00:00,27.106972,78.000111,PM10,NA,NA,NA
India,Uttar_Pradesh,Agra,"Rohta, Agra - UPPCB",07-03-2024 13:00:00,27.106972,78.000111,CO,2,28,12
India,Uttar_Pradesh,Agra,"Sector-3B Avas Vikas Colony, Agra - UPPCB",07-03-2024 13:00:00,27.19412,77.96237,PM2.5,11,74,36
India,Uttar_Pradesh,Agra,"Shahjahan Garden, Agra - UPPCB",07-03-2024 13:00:00,27.169338,78.03582,OZONE,1,9,1
India,Uttar_Pradesh,Agra,"Shastripuram, Agra - UPPCB",07-03-2024 13:00:00,27.19862,77.92066,PM2.5,12,93,61
India,Uttar_Pradesh,Agra,"Shastripuram, Agra - UPPCB",07-03-2024 13:00:00,27.19862,77.92066,NH3,1,10,1
India,Uttar_Pradesh,Baghpat,"Sardar Patel Inter College, Baghpat - UPPCB",07-03-2024 13:00:00,28.964949,77.278761,SO2,24,64,34
India,Uttar_Pradesh,Baghpat,"Sardar Patel Inter College, Baghpat - UPPCB",07-03-2024 13:00:00,28.964949,77.278761,OZONE,2,75,37
India,Uttar_Pradesh,Bareilly,"Rajendra Nagar, Bareilly - UPPCB",07-03-2024 13:00:00,28.38910936,79.42963708,PM10,33,66,51
India,Uttar_Pradesh,Bulandshahr,"Yamunapuram, Bulandshahr - UPPCB",07-03-2024 13:00:00,28.406963,77.849831,NO2,35,117,76
India,Uttar_Pradesh,Firozabad,"Nagla Bhau, Firozabad - UPPCB",07-03-2024 13:00:00,27.168897,78.376960,PM2.5,24,85,49
India,Uttar_Pradesh,Firozabad,"Nagla Bhau, Firozabad - UPPCB",07-03-2024 13:00:00,27.168897,78.376960,NO2,17,17,17
India,Uttar_Pradesh,Firozabad,"Nagla Bhau, Firozabad - UPPCB",07-03-2024 13:00:00,27.168897,78.376960,SO2,13,23,16
India,Uttar_Pradesh,Firozabad,"Vibhab Nagar, Firozabad - UPPCB",07-03-2024 13:00:00,27.1594,78.3953,PM2.5,36,170,60
India,Uttar_Pradesh,Firozabad,"Vibhab Nagar, Firozabad - UPPCB",07-03-2024 13:00:00,27.1594,78.3953,OZONE,20,134,25
India,Uttar_Pradesh,Ghaziabad,"Indirapuram, Ghaziabad - UPPCB",07-03-2024 13:00:00,28.646233,77.358075,PM2.5,34,286,102
India,Uttar_Pradesh,Ghaziabad,"Indirapuram, Ghaziabad - UPPCB",07-03-2024 13:00:00,28.646233,77.358075,NH3,6,9,7
India,Uttar_Pradesh,Ghaziabad,"Loni, Ghaziabad - UPPCB",07-03-2024 13:00:00,28.757294,77.278792,PM2.5,47,301,126
India,Uttar_Pradesh,Ghaziabad,"Loni, Ghaziabad - UPPCB",07-03-2024 13:00:00,28.757294,77.278792,NH3,1,6,2
India,Uttar_Pradesh,Ghaziabad,"Loni, Ghaziabad - UPPCB",07-03-2024 13:00:00,28.757294,77.278792,SO2,10,27,17
India,Uttar_Pradesh,Ghaziabad,"Loni, Ghaziabad - UPPCB",07-03-2024 13:00:00,28.757294,77.278792,OZONE,1,103,48
India,Uttar_Pradesh,Ghaziabad,"Sanjay Nagar, Ghaziabad - UPPCB",07-03-2024 13:00:00,28.685382,77.453839,NH3,NA,NA,NA
India,Uttar_Pradesh,Ghaziabad,"Sanjay Nagar, Ghaziabad - UPPCB",07-03-2024 13:00:00,28.685382,77.453839,OZONE,3,144,92
India,Uttar_Pradesh,Gorakhpur,"Madan Mohan Malaviya University of Technology, Gorakhpur - UPPCB",07-03-2024 13:00:00,26.730136,83.433859,PM2.5,50,200,106
India,Uttar_Pradesh,Gorakhpur,"Madan Mohan Malaviya University of Technology, Gorakhpur - UPPCB",07-03-2024 13:00:00,26.730136,83.433859,NH3,1,2,1
India,Uttar_Pradesh,Gorakhpur,"Madan Mohan Malaviya University of Technology, Gorakhpur - UPPCB",07-03-2024 13:00:00,26.730136,83.433859,OZONE,18,54,33
India,Uttar_Pradesh,Greater Noida,"Knowledge Park - V, Greater Noida - UPPCB",07-03-2024 13:00:00,28.557054,77.453663,SO2,12,38,21
India,Uttar_Pradesh,Jhansi,"Shivaji Nagar, Jhansi - UPPCB",07-03-2024 13:00:00,25.4547,78.6039,PM10,20,435,82
India,Uttar_Pradesh,Jhansi,"Shivaji Nagar, Jhansi - UPPCB",07-03-2024 13:00:00,25.4547,78.6039,CO,12,25,22
India,Uttar_Pradesh,Kanpur,"FTI Kidwai Nagar, Kanpur - UPPCB",07-03-2024 13:00:00,26.428282,80.327067,PM2.5,12,83,60
India,Uttar_Pradesh,Kanpur,"FTI Kidwai Nagar, Kanpur - UPPCB",07-03-2024 13:00:00,26.428282,80.327067,NO2,15,19,15
India,Uttar_Pradesh,Kanpur,"FTI Kidwai Nagar, Kanpur - UPPCB",07-03-2024 13:00:00,26.428282,80.327067,NH3,2,3,2
India,Uttar_Pradesh,Kanpur,"FTI Kidwai Nagar, Kanpur - UPPCB",07-03-2024 13:00:00,26.428282,80.327067,OZONE,4,10,6
India,Uttar_Pradesh,Kanpur,"Nehru Nagar, Kanpur - UPPCB",07-03-2024 13:00:00,26.4703136,80.3229863,NO2,16,35,27
India,Uttar_Pradesh,Khurja,"Kalindi Kunj, Khurja - UPPCB",07-03-2024 13:00:00,28.2348927,77.8683002,PM10,28,95,68
India,Uttar_Pradesh,Khurja,"Kalindi Kunj, Khurja - UPPCB",07-03-2024 13:00:00,28.2348927,77.8683002,NH3,1,2,1
India,Uttar_Pradesh,Lucknow,"B R Ambedkar University, Lucknow - UPPCB",07-03-2024 13:00:00,26.766433,80.927299,NH3,5,7,5
India,Uttar_Pradesh,Lucknow,"Kendriya Vidyalaya, Lucknow - CPCB",07-03-2024 13:00:00,26.906111,80.948222,CO,14,83,32
India,Uttar_Pradesh,Lucknow,"Kukrail Picnic Spot-1, Lucknow - UPPCB",07-03-2024 13:00:00,26.90723,80.98579,NO2,8,9,8
India,Uttar_Pradesh,Lucknow,"Lalbagh, Lucknow - CPCB",07-03-2024 13:00:00,26.8458805,80.9365541,NO2,12,41,24
India,Uttar_Pradesh,Lucknow,"Lalbagh, Lucknow - CPCB",07-03-2024 13:00:00,26.8458805,80.9365541,NH3,9,12,10
India,Uttar_Pradesh,Meerut,"Jai Bhim Nagar, Meerut - UPPCB",07-03-2024 13:00:00,28.9535882,77.7622941,PM2.5,30,98,61
India,Uttar_Pradesh,Meerut,"Jai Bhim Nagar, Meerut - UPPCB",07-03-2024 13:00:00,28.9535882,77.7622941,OZONE,39,108,67
India,Uttar_Pradesh,Meerut,"Pallavpuram Phase 2, Meerut - UPPCB",07-03-2024 13:00:00,29.063510,77.709723,PM10,69,148,105
India,Uttar_Pradesh,Meerut,"Pallavpuram Phase 2, Meerut - UPPCB",07-03-2024 13:00:00,29.063510,77.709723,NO2,22,77,48
India,Uttar_Pradesh,Moradabad,"Buddhi Vihar, Moradabad - UPPCB",07-03-2024 13:00:00,28.83526,78.74460,PM2.5,22,83,44
India,Uttar_Pradesh,Moradabad,"Buddhi Vihar, Moradabad - UPPCB",07-03-2024 13:00:00,28.83526,78.74460,NH3,2,2,2
India,Uttar_Pradesh,Moradabad,"Buddhi Vihar, Moradabad - UPPCB",07-03-2024 13:00:00,28.83526,78.74460,OZONE,15,40,22
India,Uttar_Pradesh,Moradabad,"Eco Herbal Park, Moradabad - UPPCB",07-03-2024 13:00:00,28.840739,78.697531,PM10,40,110,68
India,Uttar_Pradesh,Moradabad,"Eco Herbal Park, Moradabad - UPPCB",07-03-2024 13:00:00,28.840739,78.697531,CO,6,74,44
India,Uttar_Pradesh,Moradabad,"Jigar Colony, Moradabad - UPPCB",07-03-2024 13:00:00,28.856664,78.772638,NO2,NA,NA,NA
India,Uttar_Pradesh,Moradabad,"Jigar Colony, Moradabad - UPPCB",07-03-2024 13:00:00,28.856664,78.772638,SO2,NA,NA,NA
India,Uttar_Pradesh,Moradabad,"Kashiram Nagar, Moradabad - UPPCB",07-03-2024 13:00:00,28.849399,78.742362,SO2,32,40,36
India,Uttar_Pradesh,Moradabad,"Transport Nagar, Moradabad - UPPCB",07-03-2024 13:00:00,28.802625,78.753728,SO2,42,52,47
India,Uttar_Pradesh,Moradabad,"Transport Nagar, Moradabad - UPPCB",07-03-2024 13:00:00,28.802625,78.753728,OZONE,17,46,25
India,Uttar_Pradesh,Muzaffarnagar,"New Mandi, Muzaffarnagar - UPPCB",07-03-2024 13:00:00,29.4723508,77.7194031,PM10,NA,NA,NA
India,Uttar_Pradesh,Noida,"Sector - 125, Noida - UPPCB",07-03-2024 13:00:00,28.5447608,77.3231257,PM2.5,47,126,85
India,Uttar_Pradesh,Noida,"Sector - 125, Noida - UPPCB",07-03-2024 13:00:00,28.5447608,77.3231257,PM10,72,206,123
India,Uttar_Pradesh,Noida,"Sector - 62, Noida - IMD",07-03-2024 13:00:00,28.6245479,77.3577104,PM10,100,298,185
India,Uttar_Pradesh,Noida,"Sector - 62, Noida - IMD",07-03-2024 13:00:00,28.6245479,77.3577104,CO,18,30,26
India,Uttar_Pradesh,Noida,"Sector-1, Noida - UPPCB",07-03-2024 13:00:00,28.5898,77.3101,PM10,112,196,150
India,Uttar_Pradesh,Prayagraj,"Motilal Nehru NIT, Prayagraj - UPPCB",07-03-2024 13:00:00,25.494,81.863,PM2.5,17,50,33
India,Uttar_Pradesh,Prayagraj,"Nagar Nigam, Prayagraj - UPPCB",07-03-2024 13:00:00,25.44919916 ,81.82735986 ,PM2.5,27,90,51
India,Uttar_Pradesh,Prayagraj,"Nagar Nigam, Prayagraj - UPPCB",07-03-2024 13:00:00,25.44919916 ,81.82735986 ,PM10,21,500,119
India,Uttar_Pradesh,Prayagraj,"Nagar Nigam, Prayagraj - UPPCB",07-03-2024 13:00:00,25.44919916 ,81.82735986 ,CO,7,31,16
India,Uttar_Pradesh,Varanasi,"Ardhali Bazar, Varanasi - UPPCB",07-03-2024 13:00:00,25.3505986,82.9083074,SO2,9,23,13
India,Uttar_Pradesh,Varanasi,"Bhelupur, Varanasi - UPPCB",07-03-2024 13:00:00,25.301778,82.996789,NH3,1,2,1
India,Uttar_Pradesh,Varanasi,"IESD Banaras Hindu University, Varanasi - UPPCB",07-03-2024 13:00:00,25.262326,82.995408,PM10,15,39,28
India,Uttar_Pradesh,Varanasi,"IESD Banaras Hindu University, Varanasi - UPPCB",07-03-2024 13:00:00,25.262326,82.995408,OZONE,NA,NA,NA
India,Uttar_Pradesh,Varanasi,"Maldahiya, Varanasi - UPPCB",07-03-2024 13:00:00,25.32393,82.99687,SO2,38,55,49
India,Uttar_Pradesh,Vrindavan,"Omex Eternity, Vrindavan - UPPCB",07-03-2024 13:00:00,27.5714090,77.6557570,NH3,2,3,2
India,Uttarakhand,Dehradun,"Doon University, Dehradun - UKPCB",07-03-2024 13:00:00,30.269444,78.044167,CO,30,44,36
India,Uttarakhand,Kashipur,"Govt. Girls Inter College, Kashipur - UKPCB",07-03-2024 13:00:00,29.2124114,78.9611753,NH3,2,8,5
India,Uttarakhand,Rishikesh,"Shivaji Nagar, Rishikesh - UKPCB",07-03-2024 13:00:00,30.075911,78.2859547,PM10,61,91,73
India,Uttarakhand,Rishikesh,"Shivaji Nagar, Rishikesh - UKPCB",07-03-2024 13:00:00,30.075911,78.2859547,SO2,3,5,4
India,West_Bengal,Asansol,"Asansol Court Area, Asansol - WBPCB",07-03-2024 13:00:00,23.685297,86.945968,PM2.5,63,247,118
India,West_Bengal,Asansol,"Asansol Court Area, Asansol - WBPCB",07-03-2024 13:00:00,23.685297,86.945968,CO,12,56,29
India,West_Bengal,Barrackpore,"SVSPA Campus, Barrackpore - WBPCB",07-03-2024 13:00:00,22.7605581,88.3617589,PM2.5,57,298,123
India,West_Bengal,Barrackpore,"SVSPA Campus, Barrackpore - WBPCB",07-03-2024 13:00:00,22.7605581,88.3617589,NO2,11,84,35
India,West_Bengal,Durgapur,"Sidhu Kanhu Indoor Stadium, Durgapur - WBPCB",07-03-2024 13:00:00,23.5404352,87.2892225,PM2.5,63,309,119
India,West_Bengal,Haldia,"Priyambada Housing Estate, Haldia - WBPCB",07-03-2024 13:00:00,22.06047,88.109737,NH3,3,4,4
India,West_Bengal,Howrah,"Belur Math, Howrah - WBPCB",07-03-2024 13:00:00,22.629801,88.352017,CO,3,54,9
India,West_Bengal,Howrah,"Ghusuri, Howrah - WBPCB",07-03-2024 13:00:00,22.611968,88.347422,CO,2,52,13
India,West_Bengal,Howrah,"Padmapukur, Howrah - WBPCB",07-03-2024 13:00:00,22.5687319,88.2797276,NO2,NA,NA,NA
India,West_Bengal,Kolkata,"Ballygunge, Kolkata - WBPCB",07-03-2024 13:00:00,22.5367507,88.3638022,SO2,6,38,21
India,West_Bengal,Kolkata,"Ballygunge, Kolkata - WBPCB",07-03-2024 13:00:00,22.5367507,88.3638022,OZONE,4,64,30
India,West_Bengal,Kolkata,"Bidhannagar, Kolkata - WBPCB",07-03-2024 13:00:00,22.58157048,88.41002457,CO,1,116,62
India,West_Bengal,Kolkata,"Fort William, Kolkata - WBPCB",07-03-2024 13:00:00,22.556640,88.342674,NO2,31,142,83
India,West_Bengal,Kolkata,"Fort William, Kolkata - WBPCB",07-03-2024 13:00:00,22.556640,88.342674,NH3,5,12,7
India,West_Bengal,Kolkata,"Jadavpur, Kolkata - WBPCB",07-03-2024 13:00:00,22.49929,88.36917,NH3,2,4,3
India,West_Bengal,Kolkata,"Rabindra Bharati University, Kolkata - WBPCB",07-03-2024 13:00:00,22.627847,88.380669,PM10,73,161,108
India,West_Bengal,Kolkata,"Rabindra Bharati University, Kolkata - WBPCB",07-03-2024 13:00:00,22.627847,88.380669,CO,26,77,34
India,West_Bengal,Kolkata,"Rabindra Bharati University, Kolkata - WBPCB",07-03-2024 13:00:00,22.627847,88.380669,OZONE,1,55,29
India,West_Bengal,Kolkata,"Rabindra Sarobar, Kolkata - WBPCB",07-03-2024 13:00:00,22.51106,88.35142,PM2.5,71,140,94
India,West_Bengal,Kolkata,"Rabindra Sarobar, Kolkata - WBPCB",07-03-2024 13:00:00,22.51106,88.35142,PM10,69,109,92
India,West_Bengal,Kolkata,"Rabindra Sarobar, Kolkata - WBPCB",07-03-2024 13:00:00,22.51106,88.35142,NO2,30,154,78
India,West_Bengal,Siliguri,"Ward-32 Bapupara, Siliguri - WBPCB",07-03-2024 13:00:00,26.6879226,88.4152495,NH3,9,15,12
India,Andhra_Pradesh,Chittoor,"Gangineni Cheruvu, Chittoor - APPCB",07-03-2024 13:00:00,13.204880,79.097889,NH3,NA,NA,NA
India,Andhra_Pradesh,Chittoor,"Gangineni Cheruvu, Chittoor - APPCB",07-03-2024 13:00:00,13.204880,79.097889,SO2,NA,NA,NA
India,Andhra_Pradesh,Chittoor,"Gangineni Cheruvu, Chittoor - APPCB",07-03-2024 13:00:00,13.204880,79.097889,OZONE,17,131,74
India,Andhra_Pradesh,Rajamahendravaram,"Anand Kala Kshetram, Rajamahendravaram - APPCB",07-03-2024 13:00:00,16.9872867,81.7363176,NO2,10,31,20
India,Andhra_Pradesh,Tirupati,"Tirumala, Tirupati - APPCB",07-03-2024 13:00:00,13.67,79.35,PM10,40,132,66
India,Andhra_Pradesh,Tirupati,"Vaikuntapuram, Tirupati - APPCB",07-03-2024 13:00:00,13.615387,79.409230,OZONE,2,43,17
India,Andhra_Pradesh,Vijayawada,"Kanuru, Vijayawada - APPCB",07-03-2024 13:00:00,16.486692,80.699436,OZONE,29,33,31
India,Andhra_Pradesh,Vijayawada,"Rajiv Gandhi Park, Vijayawada - APPCB",07-03-2024 13:00:00,16.509717,80.612222,SO2,2,12,5
India,Andhra_Pradesh,Vijayawada,"Rajiv Gandhi Park, Vijayawada - APPCB",07-03-2024 13:00:00,16.509717,80.612222,CO,32,38,35
India,Assam,Byrnihat,"Central Academy for SFS, Byrnihat - PCBA",07-03-2024 13:00:00,26.071318,91.87488,PM2.5,NA,NA,NA
India,Assam,Byrnihat,"Central Academy for SFS, Byrnihat - PCBA",07-03-2024 13:00:00,26.071318,91.87488,NO2,40,102,56
India,Assam,Byrnihat,"Central Academy for SFS, Byrnihat - PCBA",07-03-2024 13:00:00,26.071318,91.87488,OZONE,5,18,12
India,Assam,Guwahati,"Railway Colony, Guwahati - PCBA",07-03-2024 13:00:00,26.181742,91.78063,OZONE,1,25,13
India,Assam,Nagaon,"Christianpatty, Nagaon - PCBA",07-03-2024 13:00:00,26.349082,92.68449,SO2,6,38,24
India,Assam,Nagaon,"Christianpatty, Nagaon - PCBA",07-03-2024 13:00:00,26.349082,92.68449,CO,10,102,25
India,Assam,Nagaon,"Christianpatty, Nagaon - PCBA",07-03-2024 13:00:00,26.349082,92.68449,OZONE,3,127,66
India,Assam,Nalbari,"Bata Chowk, Nalbari - PCBA",07-03-2024 13:00:00,26.446912,91.439057,PM10,96,187,138
India,Assam,Silchar,"Tarapur, Silchar - PCBA",07-03-2024 13:00:00,24.82827,92.79525,NO2,21,41,32
India,Bihar,Araria,"Kharahiya Basti, Araria - BSPCB",07-03-2024 13:00:00,26.146529,87.454184,NO2,6,18,7
India,Bihar,Araria,"Kharahiya Basti, Araria - BSPCB",07-03-2024 13:00:00,26.146529,87.454184,OZONE,8,10,10
India,Bihar,Aurangabad,"Gurdeo Nagar, Aurangabad - BSPCB",07-03-2024 13:00:00,24.75746,84.366208,PM2.5,20,147,67
India,Bihar,Aurangabad,"Gurdeo Nagar, Aurangabad - BSPCB",07-03-2024 13:00:00,24.75746,84.366208,NO2,4,5,5
India,Bihar,Aurangabad,"Gurdeo Nagar, Aurangabad - BSPCB",07-03-2024 13:00:00,24.75746,84.366208,CO,52,74,69
India,Bihar,Bettiah,"Kamalnath Nagar, Bettiah - BSPCB",07-03-2024 13:00:00,26.80365,84.51954,PM10,74,183,106
India,Bihar,Bhagalpur,"DM Office_Kachari Chowk, Bhagalpur - BSPCB",07-03-2024 13:00:00,25.251013,86.989001,PM2.5,35,213,80
India,Bihar,Bihar Sharif,"D M Colony, Bihar Sharif - BSPCB",07-03-2024 13:00:00,25.204762,85.514960,NH3,2,2,2
India,Bihar,Chhapra,"Darshan Nagar, Chhapra - BSPCB",07-03-2024 13:00:00,25.7808257,84.7446768,PM2.5,62,270,126
India,Bihar,Chhapra,"Darshan Nagar, Chhapra - BSPCB",07-03-2024 13:00:00,25.7808257,84.7446768,PM10,60,153,102
India,Bihar,Chhapra,"Darshan Nagar, Chhapra - BSPCB",07-03-2024 13:00:00,25.7808257,84.7446768,NO2,19,30,24
India,Bihar,Chhapra,"Darshan Nagar, Chhapra - BSPCB",07-03-2024 13:00:00,25.7808257,84.7446768,SO2,6,79,30
India,Bihar,Gaya,"Kareemganj, Gaya - BSPCB",07-03-2024 13:00:00,24.792403,84.992416,PM2.5,7,103,51
India,Bihar,Gaya,"Kareemganj, Gaya - BSPCB",07-03-2024 13:00:00,24.792403,84.992416,CO,13,108,49
India,Bihar,Gaya,"SFTI Kusdihra, Gaya - BSPCB",07-03-2024 13:00:00,24.762518,84.982348,OZONE,1,60,26
India,Bihar,Katihar,"Mirchaibari, Katihar - BSPCB",07-03-2024 13:00:00,25.560083,87.553265,PM2.5,55,227,115
India,Bihar,Katihar,"Mirchaibari, Katihar - BSPCB",07-03-2024 13:00:00,25.560083,87.553265,NO2,9,27,16
India,Bihar,Katihar,"Mirchaibari, Katihar - BSPCB",07-03-2024 13:00:00,25.560083,87.553265,OZONE,17,22,20
India,Bihar,Kishanganj,"SDM Office_Khagra, Kishanganj - BSPCB",07-03-2024 13:00:00,26.0881305,87.93840336,PM2.5,NA,NA,NA
India,Bihar,Manguraha,"Forest Rest House, Manguraha - BSPCB",07-03-2024 13:00:00,27.308328,84.531742,PM2.5,35,150,60
India,Bihar,Manguraha,"Forest Rest House, Manguraha - BSPCB",07-03-2024 13:00:00,27.308328,84.531742,PM10,38,123,78
India,Bihar,Munger,"Town Hall, Munger - BSPCB",07-03-2024 13:00:00,25.376776,86.471523,PM10,73,222,115
India,Bihar,Muzaffarpur,"Buddha Colony, Muzaffarpur - BSPCB",07-03-2024 13:00:00,26.11442,85.39813,NO2,26,69,39
India,Bihar,Muzaffarpur,"Buddha Colony, Muzaffarpur - BSPCB",07-03-2024 13:00:00,26.11442,85.39813,NH3,6,24,13
India,Bihar,Muzaffarpur,"MIT-Daudpur Kothi, Muzaffarpur - BSPCB",07-03-2024 13:00:00,26.1403345,85.3650192,PM2.5,38,90,60
India,Bihar,Muzaffarpur,"MIT-Daudpur Kothi, Muzaffarpur - BSPCB",07-03-2024 13:00:00,26.1403345,85.3650192,NO2,5,8,6
India,Bihar,Muzaffarpur,"MIT-Daudpur Kothi, Muzaffarpur - BSPCB",07-03-2024 13:00:00,26.1403345,85.3650192,CO,23,71,26
India,Bihar,Patna,"DRM Office Danapur, Patna - BSPCB",07-03-2024 13:00:00,25.586562,85.043586,PM10,95,184,132
India,Bihar,Patna,"DRM Office Danapur, Patna - BSPCB",07-03-2024 13:00:00,25.586562,85.043586,NO2,14,102,44
India,Bihar,Patna,"DRM Office Danapur, Patna - BSPCB",07-03-2024 13:00:00,25.586562,85.043586,OZONE,1,61,32
India,Bihar,Patna,"Govt. High School Shikarpur, Patna - BSPCB",07-03-2024 13:00:00,25.592539,85.227158,SO2,6,9,7
India,Bihar,Patna,"Govt. High School Shikarpur, Patna - BSPCB",07-03-2024 13:00:00,25.592539,85.227158,CO,28,54,36
India,Bihar,Patna,"Muradpur, Patna - BSPCB",07-03-2024 13:00:00,25.619651,85.147382,CO,26,87,34
India,Bihar,Patna,"Rajbansi Nagar, Patna - BSPCB",07-03-2024 13:00:00,25.599486,85.113666,NH3,2,4,4
India,Bihar,Patna,"Samanpura, Patna - BSPCB",07-03-2024 13:00:00,25.596727,85.085624,PM2.5,53,348,181
India,Bihar,Patna,"Samanpura, Patna - BSPCB",07-03-2024 13:00:00,25.596727,85.085624,PM10,132,440,201
India,Bihar,Rajgir,"Dangi Tola, Rajgir - BSPCB",07-03-2024 13:00:00,25.03280,85.41948,NO2,1,1,1
India,Bihar,Rajgir,"Dangi Tola, Rajgir - BSPCB",07-03-2024 13:00:00,25.03280,85.41948,OZONE,20,25,23
India,Bihar,Saharsa,"Police Line, Saharsa - BSPCB",07-03-2024 13:00:00,25.892357,86.590325,NO2,5,9,7
India,Bihar,Samastipur,"DM Office_Kasipur, Samastipur - BSPCB",07-03-2024 13:00:00,25.859655,85.77944,PM2.5,28,92,57
India,Bihar,Samastipur,"DM Office_Kasipur, Samastipur - BSPCB",07-03-2024 13:00:00,25.859655,85.77944,NH3,3,4,4
India,Bihar,Sasaram,"Dada Peer, Sasaram - BSPCB",07-03-2024 13:00:00,24.952822,84.002396,NH3,8,10,9
India,Bihar,Siwan,"Chitragupta Nagar, Siwan - BSPCB",07-03-2024 13:00:00,26.2271665,84.3570427,PM10,NA,NA,NA
India,Chandigarh,Chandigarh,"Sector 22, Chandigarh - CPCC",07-03-2024 13:00:00,30.735567,76.775714,PM10,59,217,122
India,Chandigarh,Chandigarh,"Sector 22, Chandigarh - CPCC",07-03-2024 13:00:00,30.735567,76.775714,OZONE,2,164,57
India,Chandigarh,Chandigarh,"Sector-25, Chandigarh - CPCC",07-03-2024 13:00:00,30.751462,76.762879,NO2,7,45,17
India,Chhattisgarh,Bhilai,"32Bungalows, Bhilai - CECB",07-03-2024 13:00:00,21.194815,81.314770,NO2,26,36,32
India,Chhattisgarh,Bhilai,"Civic Center, Bhilai - Bhilai Steel Plant",07-03-2024 13:00:00,21.185571,81.343175,NO2,NA,NA,NA
India,Chhattisgarh,Bhilai,"Hathkhoj, Bhilai - CECB",07-03-2024 13:00:00,21.224231,81.408350,OZONE,35,46,38
India,Chhattisgarh,Chhal,"Nawapara SECL Colony, Chhal - CECB",07-03-2024 13:00:00,22.118125,83.140608,OZONE,1,29,13
India,Chhattisgarh,Korba,"Rampur, Korba - CECB",07-03-2024 13:00:00,22.368195,82.746431,NO2,33,99,47
India,Chhattisgarh,Korba,"Rampur, Korba - CECB",07-03-2024 13:00:00,22.368195,82.746431,OZONE,2,29,5
India,Chhattisgarh,Korba,"Urja Nagar, Korba - CECB",07-03-2024 13:00:00,22.348441,82.549611,NO2,26,66,55
India,Chhattisgarh,Korba,"Urja Nagar, Korba - CECB",07-03-2024 13:00:00,22.348441,82.549611,NH3,2,6,5
India,Chhattisgarh,Korba,"Urja Nagar, Korba - CECB",07-03-2024 13:00:00,22.348441,82.549611,OZONE,1,79,1
India,Chhattisgarh,Kunjemura,"OP Jindal School, Kunjemura - CECB",07-03-2024 13:00:00,22.126650,83.483212,NO2,11,67,35
India,Chhattisgarh,Raipur,"AIIMS, Raipur - CECB",07-03-2024 13:00:00,21.258815,81.578979,CO,28,66,34
India,Chhattisgarh,Raipur,"Siltara Phase-II, Raipur - CECB",07-03-2024 13:00:00,21.371751,81.664929,SO2,12,76,25
India,Chhattisgarh,Raipur,"Siltara Phase-II, Raipur - CECB",07-03-2024 13:00:00,21.371751,81.664929,OZONE,3,45,4
India,Chhattisgarh,Tumidih,"OP Jindal Industrial Park, Tumidih - CECB",07-03-2024 13:00:00,22.06631475,83.33820077,NH3,2,3,2
India,Chhattisgarh,Tumidih,"OP Jindal Industrial Park, Tumidih - CECB",07-03-2024 13:00:00,22.06631475,83.33820077,CO,16,42,22
India,Chhattisgarh,Tumidih,"OP Jindal Industrial Park, Tumidih - CECB",07-03-2024 13:00:00,22.06631475,83.33820077,OZONE,26,84,38
India,Delhi,Delhi,"Alipur, Delhi - DPCC",07-03-2024 13:00:00,28.815329,77.153010,OZONE,4,115,44
India,Delhi,Delhi,"Anand Vihar, Delhi - DPCC",07-03-2024 13:00:00,28.647622,77.3158090,OZONE,11,55,12
India,Delhi,Delhi,"Ashok Vihar, Delhi - DPCC",07-03-2024 13:00:00,28.695381,77.181665,NO2,16,109,62
India,Delhi,Delhi,"Ashok Vihar, Delhi - DPCC",07-03-2024 13:00:00,28.695381,77.181665,SO2,17,38,26
India,Delhi,Delhi,"Ashok Vihar, Delhi - DPCC",07-03-2024 13:00:00,28.695381,77.181665,CO,4,70,29
India,Delhi,Delhi,"Bawana, Delhi - DPCC",07-03-2024 13:00:00,28.776200,77.051074,NH3,5,7,6
India,Delhi,Delhi,"CRRI Mathura Road, Delhi - IMD",07-03-2024 13:00:00,28.5512005,77.2735737,PM2.5,66,304,156
India,Delhi,Delhi,"CRRI Mathura Road, Delhi - IMD",07-03-2024 13:00:00,28.5512005,77.2735737,PM10,70,210,135
India,Delhi,Delhi,"Chandni Chowk, Delhi - IITM",07-03-2024 13:00:00,28.656756,77.227234,NH3,NA,NA,NA
India,Delhi,Delhi,"DTU, Delhi - CPCB",07-03-2024 13:00:00,28.7500499,77.1112615,PM2.5,42,174,69
India,Delhi,Delhi,"DTU, Delhi - CPCB",07-03-2024 13:00:00,28.7500499,77.1112615,NH3,9,13,11
India,Delhi,Delhi,"DTU, Delhi - CPCB",07-03-2024 13:00:00,28.7500499,77.1112615,SO2,25,28,26
India,Delhi,Delhi,"Dr. Karni Singh Shooting Range, Delhi - DPCC",07-03-2024 13:00:00,28.498571,77.264840,SO2,7,20,12
India,Delhi,Delhi,"Dwarka-Sector 8, Delhi - DPCC ",07-03-2024 13:00:00,28.5710274,77.0719006,OZONE,1,80,27
India,Delhi,Delhi,"IHBAS, Dilshad Garden, Delhi - CPCB",07-03-2024 13:00:00,28.6811736,77.3025234,NO2,15,56,37
India,Delhi,Delhi,"IHBAS, Dilshad Garden, Delhi - CPCB",07-03-2024 13:00:00,28.6811736,77.3025234,SO2,10,27,19
India,Delhi,Delhi,"Jahangirpuri, Delhi - DPCC",07-03-2024 13:00:00,28.732820,77.170633,PM2.5,72,363,254
India,Delhi,Delhi,"Jahangirpuri, Delhi - DPCC",07-03-2024 13:00:00,28.732820,77.170633,CO,47,140,70
India,Delhi,Delhi,"Lodhi Road, Delhi - IITM",07-03-2024 13:00:00,28.588333,77.221667,PM2.5,42,314,92
India,Delhi,Delhi,"Lodhi Road, Delhi - IITM",07-03-2024 13:00:00,28.588333,77.221667,PM10,59,405,106
India,Delhi,Delhi,"Lodhi Road, Delhi - IITM",07-03-2024 13:00:00,28.588333,77.221667,SO2,19,38,27
India,Delhi,Delhi,"Lodhi Road, Delhi - IMD",07-03-2024 13:00:00,28.5918245,77.2273074,CO,19,47,42
India,Delhi,Delhi,"Major Dhyan Chand National Stadium, Delhi - DPCC",07-03-2024 13:00:00,28.611281,77.237738,PM2.5,63,259,159
India,Delhi,Delhi,"Mandir Marg, Delhi - DPCC",07-03-2024 13:00:00,28.636429,77.201067,OZONE,10,10,10
India,Delhi,Delhi,"Mundka, Delhi - DPCC",07-03-2024 13:00:00,28.684678,77.076574,PM10,109,500,236
India,Delhi,Delhi,"Mundka, Delhi - DPCC",07-03-2024 13:00:00,28.684678,77.076574,NH3,4,7,5
India,Delhi,Delhi,"Mundka, Delhi - DPCC",07-03-2024 13:00:00,28.684678,77.076574,CO,18,98,59
India,Delhi,Delhi,"Mundka, Delhi - DPCC",07-03-2024 13:00:00,28.684678,77.076574,OZONE,42,48,44
India,Delhi,Delhi,"NSIT Dwarka, Delhi - CPCB",07-03-2024 13:00:00,28.60909,77.0325413,NO2,41,64,52
India,Delhi,Delhi,"Najafgarh, Delhi - DPCC",07-03-2024 13:00:00,28.570173,76.933762,CO,1,73,36
India,Delhi,Delhi,"Nehru Nagar, Delhi - DPCC",07-03-2024 13:00:00,28.567890,77.250515,PM2.5,75,336,181
India,Delhi,Delhi,"New Moti Bagh, Delhi - MHUA",07-03-2024 13:00:00,28.57834,77.18400,CO,20,71,50
India,Delhi,Delhi,"North Campus, DU, Delhi - IMD",07-03-2024 13:00:00,28.6573814,77.1585447,PM2.5,NA,NA,NA
India,Delhi,Delhi,"North Campus, DU, Delhi - IMD",07-03-2024 13:00:00,28.6573814,77.1585447,NO2,NA,NA,NA
India,Delhi,Delhi,"Okhla Phase-2, Delhi - DPCC",07-03-2024 13:00:00,28.530785,77.271255,CO,34,96,64
India,Delhi,Delhi,"Punjabi Bagh, Delhi - DPCC",07-03-2024 13:00:00,28.674045,77.131023,NO2,16,34,24
India,Delhi,Delhi,"Punjabi Bagh, Delhi - DPCC",07-03-2024 13:00:00,28.674045,77.131023,CO,24,87,34
India,Delhi,Delhi,"Pusa, Delhi - DPCC",07-03-2024 13:00:00,28.639652,77.146275,PM2.5,83,341,172
India,Delhi,Delhi,"Pusa, Delhi - DPCC",07-03-2024 13:00:00,28.639652,77.146275,SO2,9,26,16
India,Delhi,Delhi,"R K Puram, Delhi - DPCC",07-03-2024 13:00:00,28.563262,77.186937,NH3,2,4,3
India,Delhi,Delhi,"R K Puram, Delhi - DPCC",07-03-2024 13:00:00,28.563262,77.186937,CO,22,112,60
India,Delhi,Delhi,"Sirifort, Delhi - CPCB",07-03-2024 13:00:00,28.5504249,77.2159377,NO2,108,200,172
India,Delhi,Delhi,"Sonia Vihar, Delhi - DPCC",07-03-2024 13:00:00,28.710508,77.249485,NH3,4,9,5
India,Delhi,Delhi,"Sonia Vihar, Delhi - DPCC",07-03-2024 13:00:00,28.710508,77.249485,OZONE,16,129,61
India,Delhi,Delhi,"Wazirpur, Delhi - DPCC",07-03-2024 13:00:00,28.699793,77.165453,PM10,126,355,195
India,Gujarat,Ahmedabad,"Chandkheda, Ahmedabad - IITM",07-03-2024 13:00:00,23.107969,72.574648,SO2,NA,NA,NA
India,Gujarat,Ahmedabad,"Chandkheda, Ahmedabad - IITM",07-03-2024 13:00:00,23.107969,72.574648,CO,23,72,50
India,Gujarat,Ahmedabad,"Gyaspur, Ahmedabad - IITM",07-03-2024 13:00:00,22.977134,72.553024,OZONE,2,80,19
India,Gujarat,Ahmedabad,"Raikhad, Ahmedabad - IITM",07-03-2024 13:00:00,23.020509,72.579261,PM2.5,19,78,47
India,Gujarat,Ahmedabad,"Raikhad, Ahmedabad - IITM",07-03-2024 13:00:00,23.020509,72.579261,NH3,1,2,1
India,Gujarat,Ahmedabad,"Raikhad, Ahmedabad - IITM",07-03-2024 13:00:00,23.020509,72.579261,CO,22,96,44
India,Gujarat,Ahmedabad,"Rakhial, Ahmedabad - IITM",07-03-2024 13:00:00,23.016834,72.625775,PM2.5,65,404,180
India,Gujarat,Ahmedabad,"SAC ISRO Bopal, Ahmedabad - IITM",07-03-2024 13:00:00,23.041137,72.456691,PM2.5,55,188,100
India,Gujarat,Ahmedabad,"SAC ISRO Bopal, Ahmedabad - IITM",07-03-2024 13:00:00,23.041137,72.456691,NO2,12,13,12
India,Gujarat,Ahmedabad,"SAC ISRO Bopal, Ahmedabad - IITM",07-03-2024 13:00:00,23.041137,72.456691,NH3,3,4,4
India,Gujarat,Gandhinagar,"IIPHG Lekawada, Gandhinagar - IITM",07-03-2024 13:00:00,23.243639,72.68994,OZONE,23,26,26
India,Gujarat,Gandhinagar,"Sector-10, Gandhinagar - GPCB",07-03-2024 13:00:00,23.221714,72.654328,PM10,32,107,68
India,Gujarat,Gandhinagar,"Sector-10, Gandhinagar - GPCB",07-03-2024 13:00:00,23.221714,72.654328,NH3,1,2,1
India,Gujarat,Gandhinagar,"Sector-10, Gandhinagar - GPCB",07-03-2024 13:00:00,23.221714,72.654328,SO2,4,37,8
India,Gujarat,Nandesari,"GIDC, Nandesari - Nandesari Ind. Association",07-03-2024 13:00:00,22.410802,73.097923,NO2,7,77,32
India,Gujarat,Surat,"Science Center, Surat - SMC",07-03-2024 13:00:00,21.170046,72.795405,PM10,26,112,67
India,Gujarat,Surat,"Science Center, Surat - SMC",07-03-2024 13:00:00,21.170046,72.795405,CO,40,84,72
India,Gujarat,Vatva,"Phase-4 GIDC, Vatva - GPCB",07-03-2024 13:00:00,22.969611,72.643500,PM2.5,60,288,124
India,Haryana,Ambala,"Patti Mehar, Ambala - HSPCB",07-03-2024 13:00:00,30.379589,76.778328,CO,29,60,52
India,Haryana,Bahadurgarh,"Arya Nagar, Bahadurgarh - HSPCB",07-03-2024 13:00:00,28.6701,76.9254,OZONE,37,68,44
India,Haryana,Ballabgarh,"Nathu Colony, Ballabgarh - HSPCB",07-03-2024 13:00:00,28.3419248,77.319699,PM2.5,7,222,100
India,Haryana,Ballabgarh,"Nathu Colony, Ballabgarh - HSPCB",07-03-2024 13:00:00,28.3419248,77.319699,NO2,10,13,12
India,Haryana,Ballabgarh,"Nathu Colony, Ballabgarh - HSPCB",07-03-2024 13:00:00,28.3419248,77.319699,CO,6,115,49
India,Haryana,Ballabgarh,"Nathu Colony, Ballabgarh - HSPCB",07-03-2024 13:00:00,28.3419248,77.319699,OZONE,1,29,11
India,Haryana,Bhiwani,"H.B. Colony, Bhiwani - HSPCB",07-03-2024 13:00:00,28.806223,76.141105,OZONE,3,17,11
India,Haryana,Dharuhera,"Municipal Corporation Office, Dharuhera -  HSPCB",07-03-2024 13:00:00,28.206800,76.799700,NH3,9,26,19
India,Haryana,Faridabad,"New Industrial Town, Faridabad - HSPCB",07-03-2024 13:00:00,28.39072,77.30059,PM2.5,140,347,271
India,Haryana,Faridabad,"New Industrial Town, Faridabad - HSPCB",07-03-2024 13:00:00,28.39072,77.30059,PM10,129,253,172
India,Haryana,Faridabad,"Sector 11, Faridabad - HSPCB",07-03-2024 13:00:00,28.376058,77.315741,PM2.5,130,279,209
India,Haryana,Faridabad,"Sector 30, Faridabad - HSPCB",07-03-2024 13:00:00,28.4417,77.3217,SO2,2,9,4
India,Haryana,Fatehabad,"Huda Sector, Fatehabad - HSPCB",07-03-2024 13:00:00,29.503664,75.467934,CO,5,10,7
India,Haryana,Gurugram,"Sector-51, Gurugram - HSPCB",07-03-2024 13:00:00,28.4227,77.0667,SO2,3,4,4
India,Haryana,Gurugram,"Vikas Sadan, Gurugram - HSPCB",07-03-2024 13:00:00,28.4501238,77.0263051,PM2.5,62,212,107
India,Haryana,Hisar,"Urban Estate-II, Hisar - HSPCB",07-03-2024 13:00:00,29.140560,75.744941,NO2,3,106,44
India,Haryana,Jind,"Police Lines, Jind - HSPCB",07-03-2024 13:00:00,29.307814,76.337619,NH3,2,5,4
India,Haryana,Kaithal,"Rishi Nagar, Kaithal - HSPCB",07-03-2024 13:00:00,29.8006,76.4155,NH3,8,8,8
India,Haryana,Karnal,"Sector-12, Karnal - HSPCB",07-03-2024 13:00:00,29.695300,77.002700,NO2,7,12,10
India,Haryana,Karnal,"Sector-12, Karnal - HSPCB",07-03-2024 13:00:00,29.695300,77.002700,NH3,10,13,11
India,Haryana,Kurukshetra,"Sector-7, Kurukshetra - HSPCB",07-03-2024 13:00:00,29.966942,76.875879,PM2.5,39,82,62
India,Haryana,Mandikhera,"General Hospital, Mandikhera - HSPCB",07-03-2024 13:00:00,27.9002,76.9938,NO2,17,22,19
India,Haryana,Mandikhera,"General Hospital, Mandikhera - HSPCB",07-03-2024 13:00:00,27.9002,76.9938,NH3,18,21,20
India,Haryana,Mandikhera,"General Hospital, Mandikhera - HSPCB",07-03-2024 13:00:00,27.9002,76.9938,CO,22,50,39
India,Haryana,Narnaul,"Shastri Nagar, Narnaul - HSPCB",07-03-2024 13:00:00,28.060249,76.113115,SO2,12,46,16
India,Haryana,Palwal,"Shyam Nagar, Palwal - HSPCB",07-03-2024 13:00:00,28.1485564,77.3320667,PM10,NA,NA,NA
India,Haryana,Palwal,"Shyam Nagar, Palwal - HSPCB",07-03-2024 13:00:00,28.1485564,77.3320667,NO2,NA,NA,NA
India,Haryana,Palwal,"Shyam Nagar, Palwal - HSPCB",07-03-2024 13:00:00,28.1485564,77.3320667,NH3,NA,NA,NA
India,Haryana,Panipat,"Sector-18, Panipat - HSPCB",07-03-2024 13:00:00,29.497973,76.993331,PM2.5,129,137,133
India,Haryana,Rohtak,"MD University, Rohtak - HSPCB",07-03-2024 13:00:00,28.52123,76.37138,PM2.5,20,359,198
India,Haryana,Rohtak,"MD University, Rohtak - HSPCB",07-03-2024 13:00:00,28.52123,76.37138,NO2,47,54,51
India,Haryana,Rohtak,"MD University, Rohtak - HSPCB",07-03-2024 13:00:00,28.52123,76.37138,CO,19,64,46
India,Haryana,Sonipat,"Murthal, Sonipat - HSPCB",07-03-2024 13:00:00,29.027200,77.062100,OZONE,34,35,35
India,Haryana,Yamuna Nagar,"Gobind Pura, Yamuna Nagar - HSPCB",07-03-2024 13:00:00,30.1480566,77.2893471,PM2.5,56,106,71
India,Haryana,Yamuna Nagar,"Gobind Pura, Yamuna Nagar - HSPCB",07-03-2024 13:00:00,30.1480566,77.2893471,PM10,74,124,92
India,Haryana,Yamuna Nagar,"Gobind Pura, Yamuna Nagar - HSPCB",07-03-2024 13:00:00,30.1480566,77.2893471,NO2,11,29,18
India,Haryana,Yamuna Nagar,"Gobind Pura, Yamuna Nagar - HSPCB",07-03-2024 13:00:00,30.1480566,77.2893471,NH3,1,6,4
India,Himachal Pradesh,Baddi,"HIMUDA Complex Phase-1, Baddi - HPPCB",07-03-2024 13:00:00,30.943887,76.801991,SO2,NA,NA,NA
India,Jharkhand,Dhanbad,"Kalakusuma, Dhanbad - DMC",07-03-2024 13:00:00,23.811548,86.481238,NO2,152,179,154
India,Jharkhand,Pathardih,"Mohalbani Ghat, Pathardih - DMC",07-03-2024 13:00:00,23.669880,86.411725,PM10,NA,NA,NA
India,Jharkhand,Pathardih,"Mohalbani Ghat, Pathardih - DMC",07-03-2024 13:00:00,23.669880,86.411725,CO,28,144,29
India,Jharkhand,Pathardih,"Mohalbani Ghat, Pathardih - DMC",07-03-2024 13:00:00,23.669880,86.411725,OZONE,NA,NA,NA
India,Karnataka,Bagalkot,"Vidayagiri, Bagalkot - KSPCB",07-03-2024 13:00:00,16.172806,75.659694,PM10,46,46,46
India,Karnataka,Bagalkot,"Vidayagiri, Bagalkot - KSPCB",07-03-2024 13:00:00,16.172806,75.659694,CO,18,51,39
India,Karnataka,Belgaum,"Ramteerth Nagar, Belgaum - KSPCB",07-03-2024 13:00:00,15.888653,74.541751,CO,34,62,53
India,Karnataka,Bengaluru,"BTM Layout, Bengaluru - CPCB",07-03-2024 13:00:00,12.9135218,77.5950804,PM2.5,NA,NA,NA
India,Karnataka,Bengaluru,"BTM Layout, Bengaluru - CPCB",07-03-2024 13:00:00,12.9135218,77.5950804,OZONE,34,43,38
India,Karnataka,Bengaluru,"Bapuji Nagar, Bengaluru - KSPCB",07-03-2024 13:00:00,12.951913,77.539784,PM2.5,98,232,161
India,Karnataka,Bengaluru,"Bapuji Nagar, Bengaluru - KSPCB",07-03-2024 13:00:00,12.951913,77.539784,SO2,5,9,7
India,Karnataka,Bengaluru,"Hebbal, Bengaluru - KSPCB",07-03-2024 13:00:00,13.029152,77.585901,PM2.5,52,167,89
India,Karnataka,Bengaluru,"Hebbal, Bengaluru - KSPCB",07-03-2024 13:00:00,13.029152,77.585901,CO,10,31,22
India,Karnataka,Bengaluru,"Hebbal, Bengaluru - KSPCB",07-03-2024 13:00:00,13.029152,77.585901,OZONE,9,90,25
India,Karnataka,Bengaluru,"Hombegowda Nagar, Bengaluru - KSPCB",07-03-2024 13:00:00,12.938539,77.590100,CO,15,20,17
India,Karnataka,Bengaluru,"Jayanagar 5th Block, Bengaluru - KSPCB",07-03-2024 13:00:00,12.920984,77.584908,NO2,11,26,15
India,Karnataka,Bengaluru,"Jayanagar 5th Block, Bengaluru - KSPCB",07-03-2024 13:00:00,12.920984,77.584908,SO2,17,37,25
India,Karnataka,Bengaluru,"Jayanagar 5th Block, Bengaluru - KSPCB",07-03-2024 13:00:00,12.920984,77.584908,OZONE,28,29,28
India,Karnataka,Bengaluru,"Kasturi Nagar, Bengaluru - KSPCB",07-03-2024 13:00:00,13.003872,77.664217,CO,22,26,25
India,Karnataka,Bengaluru,"Kasturi Nagar, Bengaluru - KSPCB",07-03-2024 13:00:00,13.003872,77.664217,OZONE,5,175,165
India,Karnataka,Bengaluru,"Peenya, Bengaluru - CPCB",07-03-2024 13:00:00,13.0270199,77.494094,NO2,15,70,25
India,Karnataka,Bengaluru,"Peenya, Bengaluru - CPCB",07-03-2024 13:00:00,13.0270199,77.494094,SO2,10,24,16
India,Karnataka,Bengaluru,"RVCE-Mailasandra, Bengaluru - KSPCB",07-03-2024 13:00:00,12.921418,77.502466,PM10,NA,NA,NA
India,Karnataka,Bengaluru,"RVCE-Mailasandra, Bengaluru - KSPCB",07-03-2024 13:00:00,12.921418,77.502466,CO,39,54,39
India,Karnataka,Bengaluru,"Sanegurava Halli, Bengaluru - KSPCB",07-03-2024 13:00:00,12.990328,77.5431385,CO,4,121,32
India,Karnataka,Bengaluru,"Shivapura_Peenya, Bengaluru - KSPCB",07-03-2024 13:00:00,13.0246342,77.5080115,NO2,15,16,15
India,Karnataka,Bengaluru,"Shivapura_Peenya, Bengaluru - KSPCB",07-03-2024 13:00:00,13.0246342,77.5080115,NH3,4,4,4
India,Karnataka,Bengaluru,"Silk Board, Bengaluru - KSPCB",07-03-2024 13:00:00,12.917348,77.622813,OZONE,27,32,30
India,Karnataka,Bidar,"Naubad, Bidar - KSPCB",07-03-2024 13:00:00,17.930306,77.482194,PM2.5,32,413,94
India,Karnataka,Bidar,"Naubad, Bidar - KSPCB",07-03-2024 13:00:00,17.930306,77.482194,SO2,14,20,17
India,Karnataka,Bidar,"Naubad, Bidar - KSPCB",07-03-2024 13:00:00,17.930306,77.482194,OZONE,10,44,38
India,Karnataka,Chamarajanagar,"Urban, Chamarajanagar - KSPCB",07-03-2024 13:00:00,11.55358,76.55521,PM2.5,22,50,32
India,Karnataka,Chamarajanagar,"Urban, Chamarajanagar - KSPCB",07-03-2024 13:00:00,11.55358,76.55521,NO2,19,35,28
India,Karnataka,Chikkamagaluru,"Kalyana Nagara, Chikkamagaluru - KSPCB",07-03-2024 13:00:00,13.328028,75.797056,PM2.5,37,81,59
India,Karnataka,Chikkamagaluru,"Kalyana Nagara, Chikkamagaluru - KSPCB",07-03-2024 13:00:00,13.328028,75.797056,NO2,22,35,28
India,Karnataka,Chikkamagaluru,"Kalyana Nagara, Chikkamagaluru - KSPCB",07-03-2024 13:00:00,13.328028,75.797056,NH3,3,6,4
India,Karnataka,Chikkamagaluru,"Kalyana Nagara, Chikkamagaluru - KSPCB",07-03-2024 13:00:00,13.328028,75.797056,CO,11,104,31
India,Karnataka,Davanagere,"Devaraj Urs Badavane, Davanagere - KSPCB",07-03-2024 13:00:00,14.475800,75.905200,PM2.5,24,65,38
India,Karnataka,Dharwad,"Kalabhavan, Dharwad - KSPCB",07-03-2024 13:00:00,15.459706,75.008381,NH3,2,2,2
India,Karnataka,Dharwad,"Kalabhavan, Dharwad - KSPCB",07-03-2024 13:00:00,15.459706,75.008381,SO2,3,37,8
India,Karnataka,Dharwad,"Kalabhavan, Dharwad - KSPCB",07-03-2024 13:00:00,15.459706,75.008381,CO,29,92,49
India,Karnataka,Gadag,"Panchal Nagar, Gadag - KSPCB",07-03-2024 13:00:00,15.411456,75.638133,SO2,15,24,17
India,Karnataka,Gadag,"Panchal Nagar, Gadag - KSPCB",07-03-2024 13:00:00,15.411456,75.638133,CO,40,54,46
India,Karnataka,Hassan,"B.Katihalli, Hassan - KSPCB",07-03-2024 13:00:00,13.008556,76.125258,NH3,NA,NA,NA
India,Karnataka,Haveri,"Ashwini Nagar, Haveri - KSPCB",07-03-2024 13:00:00,14.791800,75.389600,NO2,NA,NA,NA
India,Karnataka,Kalaburagi,"Lal Bahadur Shastri Nagar, Kalaburagi - KSPCB",07-03-2024 13:00:00,17.321993,76.822628,SO2,11,13,12
India,Karnataka,Kalaburagi,"Mahatma Basaveswar Colony, Kalaburgi - KSPCB",07-03-2024 13:00:00,17.336318,76.847397,SO2,5,14,9
India,Karnataka,Karwar,"KHB Colony, Karwar - KSPCB",07-03-2024 13:00:00,14.816666,74.141003,PM2.5,28,157,50
India,Karnataka,Karwar,"KHB Colony, Karwar - KSPCB",07-03-2024 13:00:00,14.816666,74.141003,OZONE,22,22,22
