country,state,city,station,last_update,latitude,longitude,pollutant_id,pollutant_min,pollutant_max,pollutant_avg
India,Andhra_Pradesh,Chittoor,"Gangineni Cheruvu, Chittoor - APPCB",10-04-2024 14:00:00,13.204880,79.097889,PM10,NA,NA,NA
India,Andhra_Pradesh,Chittoor,"Gangineni Cheruvu, Chittoor - APPCB",10-04-2024 14:00:00,13.204880,79.097889,OZONE,56,80,72
India,Andhra_Pradesh,Kadapa,"Yerramukkapalli, Kadapa - APPCB",10-04-2024 14:00:00,14.465052,78.824187,OZONE,13,71,32
India,Andhra_Pradesh,Rajamahendravaram,"Anand Kala Kshetram, Rajamahendravaram - APPCB",10-04-2024 14:00:00,16.9872867,81.7363176,NH3,NA,NA,NA
India,Andhra_Pradesh,Tirupati,"Tirumala, Tirupati - APPCB",10-04-2024 14:00:00,13.67,79.35,SO2,2,13,6
India,Andhra_Pradesh,Tirupati,"Vaikuntapuram, Tirupati - APPCB",10-04-2024 14:00:00,13.615387,79.409230,PM2.5,13,346,102
India,Andhra_Pradesh,Tirupati,"Vaikuntapuram, Tirupati - APPCB",10-04-2024 14:00:00,13.615387,79.409230,NH3,2,3,2
India,Andhra_Pradesh,Vijayawada,"HB Colony, Vijayawada - APPCB",10-04-2024 14:00:00,16.536107,80.594233,PM2.5,40,70,51
India,Andhra_Pradesh,Vijayawada,"HB Colony, Vijayawada - APPCB",10-04-2024 14:00:00,16.536107,80.594233,CO,37,40,39
India,Andhra_Pradesh,Vijayawada,"Kanuru, Vijayawada - APPCB",10-04-2024 14:00:00,16.486692,80.699436,NH3,NA,NA,NA
India,Andhra_Pradesh,Vijayawada,"Kanuru, Vijayawada - APPCB",10-04-2024 14:00:00,16.486692,80.699436,SO2,NA,NA,NA
India,Andhra_Pradesh,Vijayawada,"Kanuru, Vijayawada - APPCB",10-04-2024 14:00:00,16.486692,80.699436,CO,22,34,28
India,Andhra_Pradesh,Vijayawada,"Rajiv Gandhi Park, Vijayawada - APPCB",10-04-2024 14:00:00,16.509717,80.612222,PM10,50,78,65
India,Andhra_Pradesh,Vijayawada,"Rajiv Gandhi Park, Vijayawada - APPCB",10-04-2024 14:00:00,16.509717,80.612222,CO,38,43,39
India,Andhra_Pradesh,Vijayawada,"Rajiv Nagar, Vijayawada - APPCB",10-04-2024 14:00:00,16.554731,80.649110,SO2,10,29,16
India,Andhra_Pradesh,Visakhapatnam,"GVM Corporation, Visakhapatnam - APPCB",10-04-2024 14:00:00,17.72,83.3,PM2.5,53,157,89
India,Andhra_Pradesh,Visakhapatnam,"GVM Corporation, Visakhapatnam - APPCB",10-04-2024 14:00:00,17.72,83.3,SO2,8,30,17
India,Andhra_Pradesh,Visakhapatnam,"GVM Corporation, Visakhapatnam - APPCB",10-04-2024 14:00:00,17.72,83.3,CO,8,96,37
India,Arunachal_Pradesh,Naharlagun,"Naharlagun, Naharlagun - APSPCB",10-04-2024 14:00:00,27.103358,93.679645,PM2.5,79,190,125
India,Arunachal_Pradesh,Naharlagun,"Naharlagun, Naharlagun - APSPCB",10-04-2024 14:00:00,27.103358,93.679645,NO2,3,3,3
India,Arunachal_Pradesh,Naharlagun,"Naharlagun, Naharlagun - APSPCB",10-04-2024 14:00:00,27.103358,93.679645,OZONE,2,2,2
India,Assam,Byrnihat,"Central Academy for SFS, Byrnihat - PCBA",10-04-2024 14:00:00,26.071318,91.87488,PM2.5,90,500,350
India,Assam,Byrnihat,"Central Academy for SFS, Byrnihat - PCBA",10-04-2024 14:00:00,26.071318,91.87488,SO2,6,10,8
India,Assam,Byrnihat,"Central Academy for SFS, Byrnihat - PCBA",10-04-2024 14:00:00,26.071318,91.87488,CO,37,102,57
India,Assam,Guwahati,"IITG, Guwahati - PCBA",10-04-2024 14:00:00,26.2028636,91.70046436,CO,16,34,21
India,Assam,Guwahati,"LGBI Airport, Guwahati - PCBA",10-04-2024 14:00:00,26.10887,91.589544,NH3,2,8,5
India,Assam,Guwahati,"Pan Bazaar, Guwahati - PCBA",10-04-2024 14:00:00,26.187500,91.744194,PM2.5,NA,NA,NA
India,Assam,Guwahati,"Pan Bazaar, Guwahati - PCBA",10-04-2024 14:00:00,26.187500,91.744194,SO2,47,78,60
India,Assam,Guwahati,"Railway Colony, Guwahati - PCBA",10-04-2024 14:00:00,26.181742,91.78063,NO2,3,4,3
India,Assam,Nagaon,"Christianpatty, Nagaon - PCBA",10-04-2024 14:00:00,26.349082,92.68449,OZONE,23,168,83
India,Assam,Nalbari,"Bata Chowk, Nalbari - PCBA",10-04-2024 14:00:00,26.446912,91.439057,NH3,1,1,1
India,Assam,Sivasagar,"Girls College, Sivasagar - PCBA",10-04-2024 14:00:00,26.987634,94.636574,NH3,1,2,1
India,Bihar,Araria,"Kharahiya Basti, Araria - BSPCB",10-04-2024 14:00:00,26.146529,87.454184,PM2.5,56,318,169
India,Bihar,Arrah,"New DM Office, Arrah - BSPCB",10-04-2024 14:00:00,25.5626095,84.663264,SO2,15,21,19
India,Bihar,Arrah,"New DM Office, Arrah - BSPCB",10-04-2024 14:00:00,25.5626095,84.663264,CO,4,14,9
India,Bihar,Arrah,"New DM Office, Arrah - BSPCB",10-04-2024 14:00:00,25.5626095,84.663264,OZONE,8,54,26
India,Bihar,Bettiah,"Kamalnath Nagar, Bettiah - BSPCB",10-04-2024 14:00:00,26.80365,84.51954,SO2,5,24,13
India,Bihar,Bettiah,"Kamalnath Nagar, Bettiah - BSPCB",10-04-2024 14:00:00,26.80365,84.51954,CO,62,66,63
India,Bihar,Bhagalpur,"DM Office_Kachari Chowk, Bhagalpur - BSPCB",10-04-2024 14:00:00,25.251013,86.989001,NH3,8,11,10
India,Bihar,Bhagalpur,"Mayaganj, Bhagalpur - BSPCB",10-04-2024 14:00:00,25.265194,87.012947,PM2.5,63,332,190
India,Bihar,Bhagalpur,"Mayaganj, Bhagalpur - BSPCB",10-04-2024 14:00:00,25.265194,87.012947,NO2,3,10,7
India,Bihar,Bhagalpur,"Mayaganj, Bhagalpur - BSPCB",10-04-2024 14:00:00,25.265194,87.012947,NH3,6,8,7
India,Bihar,Bhagalpur,"Mayaganj, Bhagalpur - BSPCB",10-04-2024 14:00:00,25.265194,87.012947,OZONE,12,59,32
India,Bihar,Buxar,"Charitra Van, Buxar - BSPCB (Formerly known as Central Jail)",10-04-2024 14:00:00,25.567520,83.966379,PM2.5,22,130,58
India,Bihar,Buxar,"Charitra Van, Buxar - BSPCB (Formerly known as Central Jail)",10-04-2024 14:00:00,25.567520,83.966379,NO2,34,198,89
India,Bihar,Chhapra,"Darshan Nagar, Chhapra - BSPCB",10-04-2024 14:00:00,25.7808257,84.7446768,PM10,81,278,144
India,Bihar,Chhapra,"Darshan Nagar, Chhapra - BSPCB",10-04-2024 14:00:00,25.7808257,84.7446768,NH3,8,14,11
India,Bihar,Gaya,"Collectorate, Gaya - BSPCB",10-04-2024 14:00:00,24.7955,84.9994,SO2,3,48,20
India,Bihar,Gaya,"Collectorate, Gaya - BSPCB",10-04-2024 14:00:00,24.7955,84.9994,OZONE,50,88,70
India,Bihar,Gaya,"Kareemganj, Gaya - BSPCB",10-04-2024 14:00:00,24.792403,84.992416,NO2,30,31,30
India,Bihar,Gaya,"Kareemganj, Gaya - BSPCB",10-04-2024 14:00:00,24.792403,84.992416,NH3,1,4,3
India,Bihar,Gaya,"SFTI Kusdihra, Gaya - BSPCB",10-04-2024 14:00:00,24.762518,84.982348,PM10,69,107,92
India,Bihar,Gaya,"SFTI Kusdihra, Gaya - BSPCB",10-04-2024 14:00:00,24.762518,84.982348,SO2,6,11,8
India,Bihar,Hajipur,"Industrial Area, Hajipur - BSPCB",10-04-2024 14:00:00,25.697189,85.245900,NH3,1,8,5
India,Bihar,Kishanganj,"SDM Office_Khagra, Kishanganj - BSPCB",10-04-2024 14:00:00,26.0881305,87.93840336,CO,4,12,6
India,Bihar,Manguraha,"Forest Rest House, Manguraha - BSPCB",10-04-2024 14:00:00,27.308328,84.531742,NO2,14,31,22
India,Bihar,Motihari,"Gandak Colony, Motihari - BSPCB",10-04-2024 14:00:00,26.63086,84.90051,PM2.5,37,423,98
India,Bihar,Motihari,"Gandak Colony, Motihari - BSPCB",10-04-2024 14:00:00,26.63086,84.90051,SO2,6,18,11
India,Bihar,Munger,"Town Hall, Munger - BSPCB",10-04-2024 14:00:00,25.376776,86.471523,SO2,6,55,31
India,Bihar,Muzaffarpur,"MIT-Daudpur Kothi, Muzaffarpur - BSPCB",10-04-2024 14:00:00,26.1403345,85.3650192,PM10,1,204,112
India,Bihar,Muzaffarpur,"MIT-Daudpur Kothi, Muzaffarpur - BSPCB",10-04-2024 14:00:00,26.1403345,85.3650192,NO2,3,8,7
India,Bihar,Muzaffarpur,"Muzaffarpur Collectorate, Muzaffarpur - BSPCB",10-04-2024 14:00:00,26.1209,85.3647,PM2.5,NA,NA,NA
India,Bihar,Muzaffarpur,"Muzaffarpur Collectorate, Muzaffarpur - BSPCB",10-04-2024 14:00:00,26.1209,85.3647,NO2,9,46,15
India,Bihar,Patna,"DRM Office Danapur, Patna - BSPCB",10-04-2024 14:00:00,25.586562,85.043586,NO2,8,101,50
India,Bihar,Patna,"Govt. High School Shikarpur, Patna - BSPCB",10-04-2024 14:00:00,25.592539,85.227158,NO2,18,27,22
India,Bihar,Patna,"Govt. High School Shikarpur, Patna - BSPCB",10-04-2024 14:00:00,25.592539,85.227158,SO2,8,12,10
India,Bihar,Patna,"IGSC Planetarium Complex, Patna - BSPCB",10-04-2024 14:00:00,25.610369,85.132568,NO2,11,12,11
India,Bihar,Patna,"Muradpur, Patna - BSPCB",10-04-2024 14:00:00,25.619651,85.147382,PM10,158,500,308
India,Bihar,Patna,"Rajbansi Nagar, Patna - BSPCB",10-04-2024 14:00:00,25.599486,85.113666,SO2,6,17,10
India,Bihar,Patna,"Rajbansi Nagar, Patna - BSPCB",10-04-2024 14:00:00,25.599486,85.113666,CO,4,114,25
India,Bihar,Patna,"Samanpura, Patna - BSPCB",10-04-2024 14:00:00,25.596727,85.085624,OZONE,18,81,31
India,Bihar,Sasaram,"Dada Peer, Sasaram - BSPCB",10-04-2024 14:00:00,24.952822,84.002396,NO2,NA,NA,NA
India,Bihar,Sasaram,"Dada Peer, Sasaram - BSPCB",10-04-2024 14:00:00,24.952822,84.002396,NH3,NA,NA,NA
India,Bihar,Siwan,"Chitragupta Nagar, Siwan - BSPCB",10-04-2024 14:00:00,26.2271665,84.3570427,PM2.5,NA,NA,NA
India,Bihar,Siwan,"Chitragupta Nagar, Siwan - BSPCB",10-04-2024 14:00:00,26.2271665,84.3570427,NO2,16,170,41
India,Bihar,Siwan,"Chitragupta Nagar, Siwan - BSPCB",10-04-2024 14:00:00,26.2271665,84.3570427,CO,26,161,82
India,Chandigarh,Chandigarh,"Sector-53, Chandigarh - CPCC",10-04-2024 14:00:00,30.719859,76.738637,SO2,7,19,12
India,Chhattisgarh,Bhilai,"32Bungalows, Bhilai - CECB",10-04-2024 14:00:00,21.194815,81.314770,PM2.5,22,47,31
India,Chhattisgarh,Bhilai,"32Bungalows, Bhilai - CECB",10-04-2024 14:00:00,21.194815,81.314770,OZONE,4,14,7
India,Chhattisgarh,Bhilai,"Civic Center, Bhilai - Bhilai Steel Plant",10-04-2024 14:00:00,21.185571,81.343175,NO2,15,16,16
India,Chhattisgarh,Bhilai,"Civic Center, Bhilai - Bhilai Steel Plant",10-04-2024 14:00:00,21.185571,81.343175,CO,30,58,41
India,Chhattisgarh,Bilaspur,"Mangala, Bilaspur - NTPC",10-04-2024 14:00:00,22.08815,82.13737,SO2,16,24,19
India,Chhattisgarh,Chhal,"Nawapara SECL Colony, Chhal - CECB",10-04-2024 14:00:00,22.118125,83.140608,PM2.5,29,84,54
India,Chhattisgarh,Chhal,"Nawapara SECL Colony, Chhal - CECB",10-04-2024 14:00:00,22.118125,83.140608,NO2,20,48,29
India,Chhattisgarh,Korba,"Urja Nagar, Korba - CECB",10-04-2024 14:00:00,22.348441,82.549611,SO2,2,7,4
India,Chhattisgarh,Kunjemura,"OP Jindal School, Kunjemura - CECB",10-04-2024 14:00:00,22.126650,83.483212,PM2.5,31,148,72
India,Chhattisgarh,Kunjemura,"OP Jindal School, Kunjemura - CECB",10-04-2024 14:00:00,22.126650,83.483212,SO2,1,32,10
India,Chhattisgarh,Raipur,"AIIMS, Raipur - CECB",10-04-2024 14:00:00,21.258815,81.578979,PM10,28,109,43
India,Chhattisgarh,Raipur,"Bhatagaon New ISBT, Raipur - CECB",10-04-2024 14:00:00,21.219665,81.630094,SO2,1,4,2
India,Chhattisgarh,Raipur,"Siltara Phase-II, Raipur - CECB",10-04-2024 14:00:00,21.371751,81.664929,PM2.5,25,82,48
India,Chhattisgarh,Raipur,"Siltara Phase-II, Raipur - CECB",10-04-2024 14:00:00,21.371751,81.664929,OZONE,3,36,10
India,Chhattisgarh,Tumidih,"OP Jindal Industrial Park, Tumidih - CECB",10-04-2024 14:00:00,22.06631475,83.33820077,PM2.5,27,120,61
India,Chhattisgarh,Tumidih,"OP Jindal Industrial Park, Tumidih - CECB",10-04-2024 14:00:00,22.06631475,83.33820077,PM10,32,240,117
India,Delhi,Delhi,"Alipur, Delhi - DPCC",10-04-2024 14:00:00,28.815329,77.153010,SO2,14,117,41
India,Delhi,Delhi,"Anand Vihar, Delhi - DPCC",10-04-2024 14:00:00,28.647622,77.3158090,PM2.5,67,351,239
India,Delhi,Delhi,"Anand Vihar, Delhi - DPCC",10-04-2024 14:00:00,28.647622,77.3158090,NO2,43,153,110
India,Delhi,Delhi,"Anand Vihar, Delhi - DPCC",10-04-2024 14:00:00,28.647622,77.3158090,NH3,2,10,5
India,Delhi,Delhi,"Anand Vihar, Delhi - DPCC",10-04-2024 14:00:00,28.647622,77.3158090,OZONE,6,229,229
India,Delhi,Delhi,"Ashok Vihar, Delhi - DPCC",10-04-2024 14:00:00,28.695381,77.181665,NO2,18,139,83
India,Delhi,Delhi,"Ashok Vihar, Delhi - DPCC",10-04-2024 14:00:00,28.695381,77.181665,SO2,24,53,36
India,Delhi,Delhi,"Ashok Vihar, Delhi - DPCC",10-04-2024 14:00:00,28.695381,77.181665,OZONE,2,40,16
India,Delhi,Delhi,"Aya Nagar, Delhi - IMD",10-04-2024 14:00:00,28.4706914,77.1099364,PM2.5,50,321,182
India,Delhi,Delhi,"Bawana, Delhi - DPCC",10-04-2024 14:00:00,28.776200,77.051074,PM10,120,500,274
India,Delhi,Delhi,"Bawana, Delhi - DPCC",10-04-2024 14:00:00,28.776200,77.051074,CO,12,83,62
India,Delhi,Delhi,"CRRI Mathura Road, Delhi - IMD",10-04-2024 14:00:00,28.5512005,77.2735737,PM2.5,NA,NA,NA
India,Delhi,Delhi,"CRRI Mathura Road, Delhi - IMD",10-04-2024 14:00:00,28.5512005,77.2735737,CO,64,78,78
India,Delhi,Delhi,"Chandni Chowk, Delhi - IITM",10-04-2024 14:00:00,28.656756,77.227234,NH3,7,28,14
India,Delhi,Delhi,"DTU, Delhi - CPCB",10-04-2024 14:00:00,28.7500499,77.1112615,NH3,14,35,22
India,Delhi,Delhi,"DTU, Delhi - CPCB",10-04-2024 14:00:00,28.7500499,77.1112615,SO2,33,39,35
India,Delhi,Delhi,"Dwarka-Sector 8, Delhi - DPCC ",10-04-2024 14:00:00,28.5710274,77.0719006,PM10,90,464,214
India,Delhi,Delhi,"Dwarka-Sector 8, Delhi - DPCC ",10-04-2024 14:00:00,28.5710274,77.0719006,NO2,20,114,74
India,Delhi,Delhi,"Dwarka-Sector 8, Delhi - DPCC ",10-04-2024 14:00:00,28.5710274,77.0719006,OZONE,2,156,154
India,Delhi,Delhi,"IHBAS, Dilshad Garden, Delhi - CPCB",10-04-2024 14:00:00,28.6811736,77.3025234,NO2,NA,NA,NA
India,Delhi,Delhi,"ITO, Delhi - CPCB",10-04-2024 14:00:00,28.628624,77.241060,SO2,9,35,23
India,Delhi,Delhi,"ITO, Delhi - CPCB",10-04-2024 14:00:00,28.628624,77.241060,CO,30,108,67
India,Delhi,Delhi,"ITO, Delhi - CPCB",10-04-2024 14:00:00,28.628624,77.241060,OZONE,12,114,61
India,Delhi,Delhi,"Jahangirpuri, Delhi - DPCC",10-04-2024 14:00:00,28.732820,77.170633,NH3,6,18,12
India,Delhi,Delhi,"Jawaharlal Nehru Stadium, Delhi - DPCC",10-04-2024 14:00:00,28.580280,77.233829,NO2,26,160,103
India,Delhi,Delhi,"Lodhi Road, Delhi - IITM",10-04-2024 14:00:00,28.588333,77.221667,PM10,140,264,190
India,Delhi,Delhi,"Lodhi Road, Delhi - IITM",10-04-2024 14:00:00,28.588333,77.221667,OZONE,15,20,17
India,Delhi,Delhi,"Lodhi Road, Delhi - IMD",10-04-2024 14:00:00,28.5918245,77.2273074,PM2.5,32,315,131
India,Delhi,Delhi,"Lodhi Road, Delhi - IMD",10-04-2024 14:00:00,28.5918245,77.2273074,PM10,70,238,123
India,Delhi,Delhi,"Major Dhyan Chand National Stadium, Delhi - DPCC",10-04-2024 14:00:00,28.611281,77.237738,PM10,76,209,143
India,Delhi,Delhi,"Mundka, Delhi - DPCC",10-04-2024 14:00:00,28.684678,77.076574,PM2.5,78,353,222
India,Delhi,Delhi,"NSIT Dwarka, Delhi - CPCB",10-04-2024 14:00:00,28.60909,77.0325413,NO2,54,82,68
India,Delhi,Delhi,"Najafgarh, Delhi - DPCC",10-04-2024 14:00:00,28.570173,76.933762,SO2,12,18,15
India,Delhi,Delhi,"Najafgarh, Delhi - DPCC",10-04-2024 14:00:00,28.570173,76.933762,CO,28,86,63
India,Delhi,Delhi,"Narela, Delhi - DPCC",10-04-2024 14:00:00,28.822836,77.101981,NO2,16,109,63
India,Delhi,Delhi,"Narela, Delhi - DPCC",10-04-2024 14:00:00,28.822836,77.101981,OZONE,6,242,203
India,Delhi,Delhi,"Nehru Nagar, Delhi - DPCC",10-04-2024 14:00:00,28.567890,77.250515,PM2.5,38,329,210
India,Delhi,Delhi,"Nehru Nagar, Delhi - DPCC",10-04-2024 14:00:00,28.567890,77.250515,NO2,9,25,12
India,Delhi,Delhi,"Nehru Nagar, Delhi - DPCC",10-04-2024 14:00:00,28.567890,77.250515,CO,50,72,57
India,Delhi,Delhi,"New Moti Bagh, Delhi - MHUA",10-04-2024 14:00:00,28.57834,77.18400,NO2,7,36,15
India,Delhi,Delhi,"Okhla Phase-2, Delhi - DPCC",10-04-2024 14:00:00,28.530785,77.271255,OZONE,9,144,73
India,Delhi,Delhi,"Patparganj, Delhi - DPCC",10-04-2024 14:00:00,28.623763,77.287209,PM2.5,42,297,157
India,Delhi,Delhi,"Patparganj, Delhi - DPCC",10-04-2024 14:00:00,28.623763,77.287209,NH3,8,11,9
India,Delhi,Delhi,"Punjabi Bagh, Delhi - DPCC",10-04-2024 14:00:00,28.674045,77.131023,PM2.5,39,302,171
India,Delhi,Delhi,"Punjabi Bagh, Delhi - DPCC",10-04-2024 14:00:00,28.674045,77.131023,SO2,23,33,29
India,Delhi,Delhi,"Punjabi Bagh, Delhi - DPCC",10-04-2024 14:00:00,28.674045,77.131023,CO,26,92,51
India,Delhi,Delhi,"Pusa, Delhi - IMD",10-04-2024 14:00:00,28.636110,77.173332,NO2,NA,NA,NA
India,Delhi,Delhi,"R K Puram, Delhi - DPCC",10-04-2024 14:00:00,28.563262,77.186937,PM10,99,476,198
India,Delhi,Delhi,"Rohini, Delhi - DPCC",10-04-2024 14:00:00,28.732528,77.119920,NO2,12,137,75
India,Delhi,Delhi,"Shadipur, Delhi - CPCB",10-04-2024 14:00:00,28.6514781,77.1473105,OZONE,7,186,122
India,Delhi,Delhi,"Sirifort, Delhi - CPCB",10-04-2024 14:00:00,28.5504249,77.2159377,PM10,77,242,164
India,Delhi,Delhi,"Sirifort, Delhi - CPCB",10-04-2024 14:00:00,28.5504249,77.2159377,NH3,1,8,4
India,Delhi,Delhi,"Sirifort, Delhi - CPCB",10-04-2024 14:00:00,28.5504249,77.2159377,SO2,25,44,29
India,Delhi,Delhi,"Sonia Vihar, Delhi - DPCC",10-04-2024 14:00:00,28.710508,77.249485,OZONE,10,239,196
India,Delhi,Delhi,"Sri Aurobindo Marg, Delhi - DPCC",10-04-2024 14:00:00,28.531346,77.190156,PM2.5,33,328,156
India,Delhi,Delhi,"Vivek Vihar, Delhi - DPCC",10-04-2024 14:00:00,28.672342,77.315260,NH3,15,16,15
India,Delhi,Delhi,"Vivek Vihar, Delhi - DPCC",10-04-2024 14:00:00,28.672342,77.315260,CO,8,105,43
India,Gujarat,Ahmedabad,"Gyaspur, Ahmedabad - IITM",10-04-2024 14:00:00,22.977134,72.553024,NH3,10,14,13
India,Gujarat,Ahmedabad,"Raikhad, Ahmedabad - IITM",10-04-2024 14:00:00,23.020509,72.579261,NO2,37,238,83
India,Gujarat,Ahmedabad,"Raikhad, Ahmedabad - IITM",10-04-2024 14:00:00,23.020509,72.579261,CO,9,164,25
India,Gujarat,Ahmedabad,"Rakhial, Ahmedabad - IITM",10-04-2024 14:00:00,23.016834,72.625775,PM2.5,63,306,138
India,Gujarat,Ahmedabad,"Rakhial, Ahmedabad - IITM",10-04-2024 14:00:00,23.016834,72.625775,NH3,2,4,2
India,Gujarat,Ahmedabad,"Rakhial, Ahmedabad - IITM",10-04-2024 14:00:00,23.016834,72.625775,CO,17,120,29
India,Gujarat,Ahmedabad,"SAC ISRO Satellite, Ahmedabad - IITM",10-04-2024 14:00:00,23.023389,72.515201,PM2.5,72,109,99
India,Gujarat,Ahmedabad,"SAC ISRO Satellite, Ahmedabad - IITM",10-04-2024 14:00:00,23.023389,72.515201,CO,28,33,31
India,Gujarat,Ahmedabad,"SVPI Airport Hansol, Ahmedabad - IITM",10-04-2024 14:00:00,23.076793,72.627874,PM10,102,341,152
India,Gujarat,Ahmedabad,"SVPI Airport Hansol, Ahmedabad - IITM",10-04-2024 14:00:00,23.076793,72.627874,OZONE,7,61,22
India,Gujarat,Gandhinagar,"Sector-10, Gandhinagar - GPCB",10-04-2024 14:00:00,23.221714,72.654328,PM2.5,42,85,58
India,Gujarat,Gandhinagar,"Sector-10, Gandhinagar - GPCB",10-04-2024 14:00:00,23.221714,72.654328,CO,22,94,28
India,Gujarat,Surat,"Science Center, Surat - SMC",10-04-2024 14:00:00,21.170046,72.795405,NO2,20,45,35
India,Gujarat,Vapi,"Phase-1 GIDC, Vapi - GPCB",10-04-2024 14:00:00,20.362421,72.918013,NH3,2,2,2
India,Gujarat,Vapi,"Phase-1 GIDC, Vapi - GPCB",10-04-2024 14:00:00,20.362421,72.918013,SO2,51,53,52
India,Haryana,Ambala,"Patti Mehar, Ambala - HSPCB",10-04-2024 14:00:00,30.379589,76.778328,NH3,5,12,8
India,Haryana,Ambala,"Patti Mehar, Ambala - HSPCB",10-04-2024 14:00:00,30.379589,76.778328,OZONE,40,70,50
India,Haryana,Ballabgarh,"Nathu Colony, Ballabgarh - HSPCB",10-04-2024 14:00:00,28.3419248,77.319699,PM10,96,224,170
India,Haryana,Ballabgarh,"Nathu Colony, Ballabgarh - HSPCB",10-04-2024 14:00:00,28.3419248,77.319699,CO,4,96,44
India,Haryana,Bhiwani,"H.B. Colony, Bhiwani - HSPCB",10-04-2024 14:00:00,28.806223,76.141105,CO,30,66,50
India,Haryana,Charkhi Dadri,"Mini Secretariat, Charkhi Dadri - HSPCB",10-04-2024 14:00:00,28.593883,76.270653,SO2,8,104,32
India,Haryana,Dharuhera,"Municipal Corporation Office, Dharuhera -  HSPCB",10-04-2024 14:00:00,28.206800,76.799700,CO,8,69,36
India,Haryana,Dharuhera,"Municipal Corporation Office, Dharuhera -  HSPCB",10-04-2024 14:00:00,28.206800,76.799700,OZONE,2,38,19
India,Haryana,Faridabad,"New Industrial Town, Faridabad - HSPCB",10-04-2024 14:00:00,28.39072,77.30059,OZONE,2,186,65
India,Haryana,Faridabad,"Sector 11, Faridabad - HSPCB",10-04-2024 14:00:00,28.376058,77.315741,NO2,30,33,31
India,Haryana,Faridabad,"Sector 30, Faridabad - HSPCB",10-04-2024 14:00:00,28.4417,77.3217,NH3,9,9,9
India,Haryana,Faridabad,"Sector- 16A, Faridabad - HSPCB",10-04-2024 14:00:00,28.4088421,77.3099081,PM2.5,45,339,214
India,Haryana,Faridabad,"Sector- 16A, Faridabad - HSPCB",10-04-2024 14:00:00,28.4088421,77.3099081,NO2,12,61,32
India,Haryana,Faridabad,"Sector- 16A, Faridabad - HSPCB",10-04-2024 14:00:00,28.4088421,77.3099081,OZONE,14,14,14
India,Haryana,Fatehabad,"Huda Sector, Fatehabad - HSPCB",10-04-2024 14:00:00,29.503664,75.467934,PM2.5,1,77,37
India,Haryana,Fatehabad,"Huda Sector, Fatehabad - HSPCB",10-04-2024 14:00:00,29.503664,75.467934,SO2,10,11,11
India,Haryana,Gurugram,"Sector-51, Gurugram - HSPCB",10-04-2024 14:00:00,28.4227,77.0667,PM2.5,12,406,280
India,Haryana,Gurugram,"Sector-51, Gurugram - HSPCB",10-04-2024 14:00:00,28.4227,77.0667,NH3,7,14,9
India,Haryana,Gurugram,"Teri Gram, Gurugram - HSPCB",10-04-2024 14:00:00,28.4275,77.1465,CO,14,39,33
India,Haryana,Gurugram,"Vikas Sadan, Gurugram - HSPCB",10-04-2024 14:00:00,28.4501238,77.0263051,CO,54,148,106
India,Haryana,Hisar,"Urban Estate-II, Hisar - HSPCB",10-04-2024 14:00:00,29.140560,75.744941,SO2,13,72,38
India,Haryana,Jind,"Police Lines, Jind - HSPCB",10-04-2024 14:00:00,29.307814,76.337619,PM2.5,32,177,66
India,Haryana,Jind,"Police Lines, Jind - HSPCB",10-04-2024 14:00:00,29.307814,76.337619,PM10,34,146,77
India,Haryana,Kaithal,"Rishi Nagar, Kaithal - HSPCB",10-04-2024 14:00:00,29.8006,76.4155,PM2.5,36,129,68
India,Haryana,Karnal,"Sector-12, Karnal - HSPCB",10-04-2024 14:00:00,29.695300,77.002700,PM2.5,21,188,40
India,Haryana,Karnal,"Sector-12, Karnal - HSPCB",10-04-2024 14:00:00,29.695300,77.002700,CO,24,70,37
India,Haryana,Kurukshetra,"Sector-7, Kurukshetra - HSPCB",10-04-2024 14:00:00,29.966942,76.875879,CO,9,36,23
India,Haryana,Mandikhera,"General Hospital, Mandikhera - HSPCB",10-04-2024 14:00:00,27.9002,76.9938,PM2.5,26,106,70
India,Haryana,Mandikhera,"General Hospital, Mandikhera - HSPCB",10-04-2024 14:00:00,27.9002,76.9938,NO2,20,23,21
India,Haryana,Manesar,"Sector-2 IMT, Manesar - HSPCB",10-04-2024 14:00:00,28.360699,76.936090,CO,10,56,39
India,Haryana,Narnaul,"Shastri Nagar, Narnaul - HSPCB",10-04-2024 14:00:00,28.060249,76.113115,SO2,13,14,13
India,Haryana,Palwal,"Shyam Nagar, Palwal - HSPCB",10-04-2024 14:00:00,28.1485564,77.3320667,SO2,5,21,12
India,Haryana,Palwal,"Shyam Nagar, Palwal - HSPCB",10-04-2024 14:00:00,28.1485564,77.3320667,CO,20,36,30
India,Haryana,Rohtak,"MD University, Rohtak - HSPCB",10-04-2024 14:00:00,28.52123,76.37138,PM2.5,5,415,196
India,Haryana,Rohtak,"MD University, Rohtak - HSPCB",10-04-2024 14:00:00,28.52123,76.37138,SO2,6,8,7
India,Haryana,Rohtak,"MD University, Rohtak - HSPCB",10-04-2024 14:00:00,28.52123,76.37138,OZONE,44,55,47
India,Haryana,Sonipat,"Murthal, Sonipat - HSPCB",10-04-2024 14:00:00,29.027200,77.062100,PM2.5,15,48,42
India,Haryana,Sonipat,"Murthal, Sonipat - HSPCB",10-04-2024 14:00:00,29.027200,77.062100,SO2,13,29,20
India,Haryana,Sonipat,"Murthal, Sonipat - HSPCB",10-04-2024 14:00:00,29.027200,77.062100,CO,4,50,41
India,Jharkhand,Dhanbad,"Sardar Patel Nagar, Dhanbad - JSPCB",10-04-2024 14:00:00,23.80569,86.44268,CO,100,193,146
India,Karnataka,Belgaum,"Ramteerth Nagar, Belgaum - KSPCB",10-04-2024 14:00:00,15.888653,74.541751,NO2,26,30,28
India,Karnataka,Belgaum,"Ramteerth Nagar, Belgaum - KSPCB",10-04-2024 14:00:00,15.888653,74.541751,SO2,9,10,9
India,Karnataka,Bengaluru,"BTM Layout, Bengaluru - CPCB",10-04-2024 14:00:00,12.9135218,77.5950804,PM10,NA,NA,NA
India,Karnataka,Bengaluru,"BTM Layout, Bengaluru - CPCB",10-04-2024 14:00:00,12.9135218,77.5950804,NO2,NA,NA,NA
India,Karnataka,Bengaluru,"Hombegowda Nagar, Bengaluru - KSPCB",10-04-2024 14:00:00,12.938539,77.590100,NH3,1,2,2
India,Karnataka,Bengaluru,"Hombegowda Nagar, Bengaluru - KSPCB",10-04-2024 14:00:00,12.938539,77.590100,OZONE,4,5,4
India,Karnataka,Bengaluru,"Kasturi Nagar, Bengaluru - KSPCB",10-04-2024 14:00:00,13.003872,77.664217,PM10,76,146,108
India,Karnataka,Bengaluru,"Sanegurava Halli, Bengaluru - KSPCB",10-04-2024 14:00:00,12.990328,77.5431385,PM10,36,53,42
India,Karnataka,Bengaluru,"Shivapura_Peenya, Bengaluru - KSPCB",10-04-2024 14:00:00,13.0246342,77.5080115,PM10,54,83,67
India,Karnataka,Bengaluru,"Shivapura_Peenya, Bengaluru - KSPCB",10-04-2024 14:00:00,13.0246342,77.5080115,NO2,15,16,16
India,Karnataka,Bengaluru,"Shivapura_Peenya, Bengaluru - KSPCB",10-04-2024 14:00:00,13.0246342,77.5080115,SO2,3,13,9
India,Karnataka,Bengaluru,"Silk Board, Bengaluru - KSPCB",10-04-2024 14:00:00,12.917348,77.622813,PM2.5,35,85,57
India,Karnataka,Bidar,"Naubad, Bidar - KSPCB",10-04-2024 14:00:00,17.930306,77.482194,CO,68,90,81
India,Karnataka,Chamarajanagar,"Urban, Chamarajanagar - KSPCB",10-04-2024 14:00:00,11.55358,76.55521,PM10,35,65,47
India,Karnataka,Chamarajanagar,"Urban, Chamarajanagar - KSPCB",10-04-2024 14:00:00,11.55358,76.55521,SO2,2,9,5
India,Karnataka,Davanagere,"Devaraj Urs Badavane, Davanagere - KSPCB",10-04-2024 14:00:00,14.475800,75.905200,PM10,47,95,63
India,Karnataka,Davanagere,"Devaraj Urs Badavane, Davanagere - KSPCB",10-04-2024 14:00:00,14.475800,75.905200,NH3,1,2,1
India,Karnataka,Dharwad,"Kalabhavan, Dharwad - KSPCB",10-04-2024 14:00:00,15.459706,75.008381,PM10,60,121,96
India,Karnataka,Dharwad,"Kalabhavan, Dharwad - KSPCB",10-04-2024 14:00:00,15.459706,75.008381,NH3,3,3,3
India,Karnataka,Gadag,"Panchal Nagar, Gadag - KSPCB",10-04-2024 14:00:00,15.411456,75.638133,PM2.5,17,43,30
India,Karnataka,Gadag,"Panchal Nagar, Gadag - KSPCB",10-04-2024 14:00:00,15.411456,75.638133,PM10,43,53,48
India,Karnataka,Gadag,"Panchal Nagar, Gadag - KSPCB",10-04-2024 14:00:00,15.411456,75.638133,NH3,2,3,2
India,Karnataka,Hassan,"B.Katihalli, Hassan - KSPCB",10-04-2024 14:00:00,13.008556,76.125258,NH3,NA,NA,NA
India,Karnataka,Hassan,"B.Katihalli, Hassan - KSPCB",10-04-2024 14:00:00,13.008556,76.125258,SO2,NA,NA,NA
India,Karnataka,Hassan,"B.Katihalli, Hassan - KSPCB",10-04-2024 14:00:00,13.008556,76.125258,CO,16,18,17
India,Karnataka,Hubballi,"Deshpande Nagar, Hubballi - KSPCB",10-04-2024 14:00:00,15.351773,75.140726,PM2.5,45,66,57
India,Karnataka,Hubballi,"Deshpande Nagar, Hubballi - KSPCB",10-04-2024 14:00:00,15.351773,75.140726,NO2,26,27,26
India,Karnataka,Hubballi,"Deshpande Nagar, Hubballi - KSPCB",10-04-2024 14:00:00,15.351773,75.140726,CO,2,26,6
India,Karnataka,Hubballi,"Lingaraj Nagar, Hubballi - KSPCB",10-04-2024 14:00:00,15.3714823,75.1160168,CO,10,38,24
India,Karnataka,Kalaburagi,"Mahatma Basaveswar Colony, Kalaburgi - KSPCB",10-04-2024 14:00:00,17.336318,76.847397,OZONE,11,23,15
India,Karnataka,Karwar,"KHB Colony, Karwar - KSPCB",10-04-2024 14:00:00,14.816666,74.141003,SO2,14,20,19
India,Karnataka,Karwar,"KHB Colony, Karwar - KSPCB",10-04-2024 14:00:00,14.816666,74.141003,OZONE,21,22,21
India,Karnataka,Kolar,"Tamaka Ind. Area, Kolar - KSPCB",10-04-2024 14:00:00,13.1276288,78.1570122,SO2,12,18,15
India,Karnataka,Kolar,"Tamaka Ind. Area, Kolar - KSPCB",10-04-2024 14:00:00,13.1276288,78.1570122,OZONE,13,32,14
India,Karnataka,Koppal,"Diwator Nagar, Koppal - KSPCB",10-04-2024 14:00:00,15.347630,76.181767,NO2,28,68,50
India,Karnataka,Madikeri,"Stuart Hill, Madikeri - KSPCB",10-04-2024 14:00:00,12.415911,75.735050,PM10,26,51,37
India,Karnataka,Mysuru,"Hebbal 1st Stage, Mysuru - KSPCB",10-04-2024 14:00:00,12.21041,76.37376,OZONE,49,89,68
India,Karnataka,Ramanagara,"Vijay Nagar, Ramanagara - KSPCB",10-04-2024 14:00:00,12.733409,77.298051,OZONE,27,31,29
India,Karnataka,Shivamogga,"Vinoba Nagara, Shivamogga - KSPCB",10-04-2024 14:00:00,13.940000,75.555917,PM2.5,23,44,32
India,Karnataka,Shivamogga,"Vinoba Nagara, Shivamogga - KSPCB",10-04-2024 14:00:00,13.940000,75.555917,SO2,3,11,8
India,Karnataka,Shivamogga,"Vinoba Nagara, Shivamogga - KSPCB",10-04-2024 14:00:00,13.940000,75.555917,CO,12,40,24
India,Karnataka,Vijayapura,"Ibrahimpur, Vijayapura - KSPCB",10-04-2024 14:00:00,16.802639,75.722694,OZONE,14,16,15
India,Karnataka,Yadgir,"Collector Office, Yadgir - KSPCB",10-04-2024 14:00:00,16.7602,77.1428,SO2,NA,NA,NA
India,Kerala,Eloor,"Udyogamandal, Eloor - Kerala PCB",10-04-2024 14:00:00,10.073232,76.302765,PM10,35,52,42
India,Kerala,Kollam,"Polayathode, Kollam - Kerala PCB",10-04-2024 14:00:00,8.8787,76.6073,NO2,NA,NA,NA
India,Kerala,Kollam,"Polayathode, Kollam - Kerala PCB",10-04-2024 14:00:00,8.8787,76.6073,OZONE,39,41,40
India,Kerala,Thiruvananthapuram,"Kariavattom, Thiruvananthapuram - Kerala PCB",10-04-2024 14:00:00,8.563700,76.886500,PM10,77,100,87
India,Kerala,Thiruvananthapuram,"Kariavattom, Thiruvananthapuram - Kerala PCB",10-04-2024 14:00:00,8.563700,76.886500,NO2,9,10,9
India,Kerala,Thiruvananthapuram,"Plammoodu, Thiruvananthapuram - Kerala PCB",10-04-2024 14:00:00,8.5149093,76.9435879,NO2,8,10,9
India,Kerala,Thiruvananthapuram,"Plammoodu, Thiruvananthapuram - Kerala PCB",10-04-2024 14:00:00,8.5149093,76.9435879,NH3,1,1,1
India,Kerala,Thiruvananthapuram,"Plammoodu, Thiruvananthapuram - Kerala PCB",10-04-2024 14:00:00,8.5149093,76.9435879,SO2,6,14,11
India,Kerala,Thrissur,"Corporation Ground, Thrissur - Kerala PCB",10-04-2024 14:00:00,10.532400,76.215900,PM2.5,43,51,48
India,Madhya Pradesh,Bhopal,"Paryavaran Parisar, Bhopal - MPPCB",10-04-2024 14:00:00,23.210494,77.425409,SO2,8,18,11
India,Madhya Pradesh,Bhopal,"Paryavaran Parisar, Bhopal - MPPCB",10-04-2024 14:00:00,23.210494,77.425409,CO,18,32,27
India,Madhya Pradesh,Dewas,"Bhopal Chauraha, Dewas - MPPCB",10-04-2024 14:00:00,22.9682591,76.064118,SO2,16,28,22
India,Madhya Pradesh,Dewas,"Bhopal Chauraha, Dewas - MPPCB",10-04-2024 14:00:00,22.9682591,76.064118,CO,15,24,16
India,Madhya Pradesh,Gwalior,"City Center, Gwalior - MPPCB",10-04-2024 14:00:00,26.203442,78.193251,NH3,4,13,8
India,Madhya Pradesh,Gwalior,"City Center, Gwalior - MPPCB",10-04-2024 14:00:00,26.203442,78.193251,SO2,9,78,38
India,Madhya Pradesh,Gwalior,"City Center, Gwalior - MPPCB",10-04-2024 14:00:00,26.203442,78.193251,OZONE,9,61,42
India,Madhya Pradesh,Gwalior,"Deen Dayal Nagar, Gwalior - MPPCB",10-04-2024 14:00:00,26.259242,78.216432,OZONE,37,165,94
India,Madhya Pradesh,Gwalior,"Maharaj Bada, Gwalior - MPPCB",10-04-2024 14:00:00,26.200388,78.147714,OZONE,13,134,90
India,Madhya Pradesh,Gwalior,"Phool Bagh, Gwalior - Mondelez Ind. Food",10-04-2024 14:00:00,26.210536,78.171,NO2,NA,NA,NA
India,Madhya Pradesh,Indore,"Maguda Nagar, Indore - IMC",10-04-2024 14:00:00,22.7524,75.8872,NH3,1,2,2
India,Madhya Pradesh,Indore,"Maguda Nagar, Indore - IMC",10-04-2024 14:00:00,22.7524,75.8872,OZONE,35,40,38
India,Madhya Pradesh,Indore,"Regional Park, Indore - IMC",10-04-2024 14:00:00,22.6780,75.8559,NH3,1,4,2
India,Madhya Pradesh,Jabalpur,"Suhagi, Jabalpur - JMC",10-04-2024 14:00:00,23.218135,79.957770,PM2.5,20,90,54
India,Madhya Pradesh,Katni,"Gole Bazar, Katni - MPPCB",10-04-2024 14:00:00,23.50016,80.23284,NO2,13,98,38
India,Madhya Pradesh,Katni,"Gole Bazar, Katni - MPPCB",10-04-2024 14:00:00,23.50016,80.23284,NH3,1,5,4
India,Madhya Pradesh,Katni,"Gole Bazar, Katni - MPPCB",10-04-2024 14:00:00,23.50016,80.23284,OZONE,21,127,77
India,Madhya Pradesh,Pithampur,"Sector-2 Industrial Area, Pithampur - MPPCB",10-04-2024 14:00:00,22.624758,75.675238,NH3,3,14,4
India,Madhya Pradesh,Ratlam,"Shasthri Nagar, Ratlam - IPCA Lab",10-04-2024 14:00:00,23.331731,75.045981,NO2,18,102,32
India,Madhya Pradesh,Satna,"Bandhavgar Colony, Satna - Birla Cement",10-04-2024 14:00:00,24.58434363,80.8549414,SO2,1,9,2
India,Madhya Pradesh,Ujjain,"Mahakaleshwar Temple, Ujjain - MPPCB",10-04-2024 14:00:00,23.182719 ,75.768218 ,NH3,5,8,7
India,Madhya Pradesh,Ujjain,"Mahakaleshwar Temple, Ujjain - MPPCB",10-04-2024 14:00:00,23.182719 ,75.768218 ,OZONE,72,135,86
India,Maharashtra,Ahmednagar,"Tarakpur, Ahmednagar - MPCB",10-04-2024 14:00:00,19.10122,74.73339,OZONE,60,155,99
India,Maharashtra,Akola,"Ramdaspeth, Akola - MPCB",10-04-2024 14:00:00,20.719516,77.000253,PM2.5,2,76,41
India,Maharashtra,Akola,"Ramdaspeth, Akola - MPCB",10-04-2024 14:00:00,20.719516,77.000253,PM10,30,149,63
India,Maharashtra,Akola,"Ramdaspeth, Akola - MPCB",10-04-2024 14:00:00,20.719516,77.000253,NH3,4,18,11
India,Maharashtra,Amravati,"Shri Shivaji Science College, Amaravati - MPCB",10-04-2024 14:00:00,20.939198,77.765701,PM2.5,2,124,74
India,Maharashtra,Amravati,"Shri Shivaji Science College, Amaravati - MPCB",10-04-2024 14:00:00,20.939198,77.765701,NH3,8,11,10
India,Maharashtra,Aurangabad,"MIDC Chilkalthana, Aurangabad - MPCB",10-04-2024 14:00:00,19.875620,75.387310,PM10,50,164,89
India,Maharashtra,Aurangabad,"MIDC Chilkalthana, Aurangabad - MPCB",10-04-2024 14:00:00,19.875620,75.387310,NO2,7,167,21
India,Maharashtra,Aurangabad,"MIDC Chilkalthana, Aurangabad - MPCB",10-04-2024 14:00:00,19.875620,75.387310,NH3,4,4,4
India,Maharashtra,Aurangabad,"More Chowk Waluj, Aurangabad - MPCB",10-04-2024 14:00:00,19.8389439,75.244448,NO2,40,46,43
India,Maharashtra,Aurangabad,"More Chowk Waluj, Aurangabad - MPCB",10-04-2024 14:00:00,19.8389439,75.244448,SO2,1,4,2
India,Maharashtra,Aurangabad,"Rachnakar Colony, Aurangabad - MPCB",10-04-2024 14:00:00,19.863756,75.321188,PM10,66,182,93
India,Maharashtra,Aurangabad,"Rachnakar Colony, Aurangabad - MPCB",10-04-2024 14:00:00,19.863756,75.321188,CO,4,102,16
India,Maharashtra,Belapur,"CBD Belapur, Belapur - MPCB",10-04-2024 14:00:00,19.0243902,73.0406721,PM2.5,29,76,55
India,Maharashtra,Belapur,"CBD Belapur, Belapur - MPCB",10-04-2024 14:00:00,19.0243902,73.0406721,OZONE,17,132,80
India,Maharashtra,Bhiwandi,"Gokul Nagar, Bhiwandi - MPCB",10-04-2024 14:00:00,19.309073,73.057223,NO2,11,52,24
India,Maharashtra,Bhiwandi,"Gokul Nagar, Bhiwandi - MPCB",10-04-2024 14:00:00,19.309073,73.057223,NH3,3,5,4
India,Maharashtra,Bhiwandi,"Gokul Nagar, Bhiwandi - MPCB",10-04-2024 14:00:00,19.309073,73.057223,CO,10,60,34
India,Maharashtra,Chandrapur,"Chauhan Colony, Chandrapur - MPCB",10-04-2024 14:00:00,19.962900,79.298714,NH3,3,5,4
India,Maharashtra,Chandrapur,"Chauhan Colony, Chandrapur - MPCB",10-04-2024 14:00:00,19.962900,79.298714,OZONE,9,10,9
India,Maharashtra,Chandrapur,"MIDC Khutala, Chandrapur - MPCB",10-04-2024 14:00:00,19.9775302,79.2337086,NH3,1,16,2
India,Maharashtra,Chandrapur,"MIDC Khutala, Chandrapur - MPCB",10-04-2024 14:00:00,19.9775302,79.2337086,CO,8,86,46
India,Maharashtra,Dhule,"Deopur, Dhule - MPCB",10-04-2024 14:00:00,20.918946,74.776388,PM2.5,70,256,148
India,Maharashtra,Dhule,"Deopur, Dhule - MPCB",10-04-2024 14:00:00,20.918946,74.776388,SO2,20,54,30
India,Maharashtra,Kalyan,"Khadakpada, Kalyan - MPCB",10-04-2024 14:00:00,19.25292,73.142019,NH3,1,1,1
India,Maharashtra,Kolhapur,"Shivaji University, Kolhapur - MPCB",10-04-2024 14:00:00,16.6870449,74.2505872,SO2,4,15,8
India,Maharashtra,Kolhapur,"Shivaji University, Kolhapur - MPCB",10-04-2024 14:00:00,16.6870449,74.2505872,CO,30,69,50
India,Maharashtra,Kolhapur,"Sinchan Bhavan, Kolhapur - MPCB",10-04-2024 14:00:00,16.7143745,74.2426398,CO,22,101,39
India,Maharashtra,Latur,"Sawe Wadi, Latur - MPCB",10-04-2024 14:00:00,18.39963,76.57452,PM2.5,52,116,72
India,Maharashtra,Latur,"Sawe Wadi, Latur - MPCB",10-04-2024 14:00:00,18.39963,76.57452,NO2,21,53,33
India,Maharashtra,Malegaon,"Mahesh Nagar, Malegaon - MPCB",10-04-2024 14:00:00,20.555712,74.529236,PM2.5,44,187,104
India,Maharashtra,Malegaon,"Mahesh Nagar, Malegaon - MPCB",10-04-2024 14:00:00,20.555712,74.529236,NO2,2,51,17
India,Maharashtra,Malegaon,"Mahesh Nagar, Malegaon - MPCB",10-04-2024 14:00:00,20.555712,74.529236,SO2,4,17,9
India,Maharashtra,Malegaon,"Mahesh Nagar, Malegaon - MPCB",10-04-2024 14:00:00,20.555712,74.529236,CO,16,70,24
India,Maharashtra,Mumbai,"Bandra Kurla Complex, Mumbai - MPCB",10-04-2024 14:00:00,19.065931,72.862131,PM2.5,NA,NA,NA
India,Maharashtra,Mumbai,"Borivali East, Mumbai - IITM",10-04-2024 14:00:00,19.23241,72.86895,PM10,47,117,86
India,Maharashtra,Mumbai,"Borivali East, Mumbai - MPCB",10-04-2024 14:00:00,19.2243333,72.8658113,PM10,37,140,67
India,Maharashtra,Mumbai,"Chakala-Andheri East, Mumbai - IITM",10-04-2024 14:00:00,19.11074,72.86084,PM2.5,41,178,83
India,Maharashtra,Mumbai,"Chembur, Mumbai - MPCB",10-04-2024 14:00:00,19.0364585,72.8954371,NH3,2,3,3
India,Maharashtra,Mumbai,"Chhatrapati Shivaji Intl. Airport (T2), Mumbai - MPCB",10-04-2024 14:00:00,19.10078,72.87462,NO2,6,54,17
India,Maharashtra,Mumbai,"Chhatrapati Shivaji Intl. Airport (T2), Mumbai - MPCB",10-04-2024 14:00:00,19.10078,72.87462,CO,38,70,57
India,Maharashtra,Mumbai,"Colaba, Mumbai - MPCB",10-04-2024 14:00:00,18.910000,72.820000,PM10,54,96,69
India,Maharashtra,Mumbai,"Colaba, Mumbai - MPCB",10-04-2024 14:00:00,18.910000,72.820000,CO,12,14,13
India,Maharashtra,Mumbai,"Ghatkopar, Mumbai - BMC",10-04-2024 14:00:00,19.083694,72.920967,PM10,30,89,55
India,Maharashtra,Mumbai,"Kandivali West, Mumbai - BMC",10-04-2024 14:00:00,19.215859,72.831718,NO2,9,43,20
India,Maharashtra,Mumbai,"Kandivali West, Mumbai - BMC",10-04-2024 14:00:00,19.215859,72.831718,OZONE,7,53,29
India,Maharashtra,Mumbai,"Kherwadi_Bandra East, Mumbai - MPCB",10-04-2024 14:00:00,19.0632143,72.8456324,SO2,5,10,7
India,Maharashtra,Mumbai,"Khindipada-Bhandup West, Mumbai - IITM",10-04-2024 14:00:00,19.1653323,72.922099,PM10,28,110,71
India,Maharashtra,Mumbai,"Kurla, Mumbai - MPCB",10-04-2024 14:00:00,19.0863,72.8888,NH3,2,2,2
India,Maharashtra,Mumbai,"Mindspace-Malad West, Mumbai - MPCB",10-04-2024 14:00:00,19.1878657,72.8304069,PM2.5,33,80,55
India,Maharashtra,Mumbai,"Mindspace-Malad West, Mumbai - MPCB",10-04-2024 14:00:00,19.1878657,72.8304069,CO,8,28,19
India,Maharashtra,Mumbai,"Mindspace-Malad West, Mumbai - MPCB",10-04-2024 14:00:00,19.1878657,72.8304069,OZONE,12,71,36
India,Maharashtra,Mumbai,"Mulund West, Mumbai - MPCB",10-04-2024 14:00:00,19.1750,72.9419,PM10,60,180,106
India,Maharashtra,Mumbai,"Mulund West, Mumbai - MPCB",10-04-2024 14:00:00,19.1750,72.9419,CO,36,36,36
India,Maharashtra,Mumbai,"Navy Nagar-Colaba, Mumbai - IITM",10-04-2024 14:00:00,18.897756,72.813320,PM2.5,42,94,57
India,Maharashtra,Mumbai,"Navy Nagar-Colaba, Mumbai - IITM",10-04-2024 14:00:00,18.897756,72.813320,CO,3,31,17
India,Maharashtra,Mumbai,"Powai, Mumbai - MPCB",10-04-2024 14:00:00,19.137500,72.915056,PM10,57,146,97
India,Maharashtra,Mumbai,"Sewri, Mumbai - BMC",10-04-2024 14:00:00,19.000084,72.856730,PM10,27,88,56
India,Maharashtra,Mumbai,"Shivaji Nagar, Mumbai - BMC",10-04-2024 14:00:00,19.060498,72.923356,NO2,39,104,65
India,Maharashtra,Mumbai,"Shivaji Nagar, Mumbai - BMC",10-04-2024 14:00:00,19.060498,72.923356,OZONE,7,49,24
India,Maharashtra,Mumbai,"Sion, Mumbai - MPCB",10-04-2024 14:00:00,19.047000,72.874600,PM2.5,35,86,54
India,Maharashtra,Mumbai,"Sion, Mumbai - MPCB",10-04-2024 14:00:00,19.047000,72.874600,PM10,72,335,109
India,Maharashtra,Mumbai,"Vasai West, Mumbai - MPCB",10-04-2024 14:00:00,19.383200,72.820400,OZONE,24,53,42
India,Maharashtra,Mumbai,"Vile Parle West, Mumbai - MPCB",10-04-2024 14:00:00,19.10861,72.83622,NH3,NA,NA,NA
India,Maharashtra,Mumbai,"Vile Parle West, Mumbai - MPCB",10-04-2024 14:00:00,19.10861,72.83622,OZONE,3,3,3
India,Maharashtra,Nagpur,"Ambazari, Nagpur - MPCB",10-04-2024 14:00:00,21.121801,79.04952,NH3,3,6,4
India,Maharashtra,Nagpur,"Ambazari, Nagpur - MPCB",10-04-2024 14:00:00,21.121801,79.04952,SO2,1,19,10
India,Maharashtra,Nagpur,"Mahal, Nagpur - MPCB",10-04-2024 14:00:00,21.14472,79.107595,NO2,8,32,16
India,Maharashtra,Nagpur,"Mahal, Nagpur - MPCB",10-04-2024 14:00:00,21.14472,79.107595,SO2,1,18,7
India,Maharashtra,Nagpur,"Mahal, Nagpur - MPCB",10-04-2024 14:00:00,21.14472,79.107595,OZONE,16,71,43
India,Maharashtra,Nanded,"Sneh Nagar, Nanded - MPCB",10-04-2024 14:00:00,19.173852,77.296291,PM2.5,38,105,73
India,Maharashtra,Nanded,"Sneh Nagar, Nanded - MPCB",10-04-2024 14:00:00,19.173852,77.296291,OZONE,23,148,53
India,Maharashtra,Nashik,"Gangapur Road, Nashik - MPCB",10-04-2024 14:00:00,20.0073285,73.7762427,PM10,46,118,73
India,Maharashtra,Nashik,"Gangapur Road, Nashik - MPCB",10-04-2024 14:00:00,20.0073285,73.7762427,SO2,1,8,5
India,Maharashtra,Nashik,"Gangapur Road, Nashik - MPCB",10-04-2024 14:00:00,20.0073285,73.7762427,CO,42,121,81
India,Maharashtra,Nashik,"Hirawadi, Nashik - MPCB",10-04-2024 14:00:00,20.021503,73.813844,PM2.5,37,73,51
India,Maharashtra,Nashik,"Hirawadi, Nashik - MPCB",10-04-2024 14:00:00,20.021503,73.813844,PM10,62,94,74
India,Maharashtra,Nashik,"Hirawadi, Nashik - MPCB",10-04-2024 14:00:00,20.021503,73.813844,OZONE,5,88,54
India,Maharashtra,Nashik,"MIDC Ambad, Nashik - MPCB",10-04-2024 14:00:00,19.950220,73.731480,OZONE,3,120,70
India,Maharashtra,Nashik,"Pandav Nagari, Nashik - MPCB",10-04-2024 14:00:00,19.9591346,73.7788008,PM2.5,43,83,64
India,Maharashtra,Navi Mumbai,"Kopripada-Vashi, Navi Mumbai - MPCB",10-04-2024 14:00:00,19.090337,73.014232,PM2.5,31,140,62
India,Maharashtra,Navi Mumbai,"Kopripada-Vashi, Navi Mumbai - MPCB",10-04-2024 14:00:00,19.090337,73.014232,CO,10,37,28
India,Maharashtra,Navi Mumbai,"Nerul, Navi Mumbai - MPCB",10-04-2024 14:00:00,19.008751,73.016620,PM2.5,52,150,74
India,Maharashtra,Navi Mumbai,"Nerul, Navi Mumbai - MPCB",10-04-2024 14:00:00,19.008751,73.016620,SO2,17,18,18
India,Maharashtra,Navi Mumbai,"Sanpada, Navi Mumbai - MPCB",10-04-2024 14:00:00,19.0575752,73.0151367,NH3,3,9,5
India,Maharashtra,Navi Mumbai,"Sanpada, Navi Mumbai - MPCB",10-04-2024 14:00:00,19.0575752,73.0151367,CO,2,16,8
India,Maharashtra,Navi Mumbai,"Sector-19A Nerul, Navi Mumbai - IITM",10-04-2024 14:00:00,19.044,73.0325,PM10,52,120,87
India,Maharashtra,Navi Mumbai,"Sector-2E Kalamboli, Navi Mumbai - MPCB",10-04-2024 14:00:00,19.02579,73.10297,NO2,22,59,39
India,Maharashtra,Parbhani,"Masoom Colony, Parbhani - MPCB",10-04-2024 14:00:00,19.265594,76.761463,CO,23,42,35
India,Maharashtra,Parbhani,"Masoom Colony, Parbhani - MPCB",10-04-2024 14:00:00,19.265594,76.761463,OZONE,19,78,36
India,Maharashtra,Pimpri-Chinchwad,"Gavalinagar, Pimpri Chinchwad - MPCB",10-04-2024 14:00:00,18.63673,73.82487,OZONE,4,301,218
India,Maharashtra,Pimpri-Chinchwad,"Park Street Wakad, Pimpri Chinchwad - MPCB",10-04-2024 14:00:00,18.59051,73.77946,SO2,10,26,15
India,Maharashtra,Pimpri-Chinchwad,"Thergaon, Pimpri Chinchwad - MPCB",10-04-2024 14:00:00,18.616318,73.765797,PM2.5,83,330,135
India,Maharashtra,Pimpri-Chinchwad,"Thergaon, Pimpri Chinchwad - MPCB",10-04-2024 14:00:00,18.616318,73.765797,PM10,79,200,107
India,Maharashtra,Pimpri-Chinchwad,"Thergaon, Pimpri Chinchwad - MPCB",10-04-2024 14:00:00,18.616318,73.765797,CO,16,80,41
India,Maharashtra,Pune,"Bhosari, Pune - IITM",10-04-2024 14:00:00,18.640051,73.848956,NO2,6,8,6
India,Maharashtra,Pune,"Karve Road, Pune - MPCB",10-04-2024 14:00:00,18.5011743,73.8165527,NO2,2,2,2
India,Maharashtra,Pune,"Karve Road, Pune - MPCB",10-04-2024 14:00:00,18.5011743,73.8165527,OZONE,7,7,7
India,Maharashtra,Pune,"Mhada Colony, Pune - IITM",10-04-2024 14:00:00,18.573040,73.927715,PM2.5,27,131,68
India,Maharashtra,Pune,"Mhada Colony, Pune - IITM",10-04-2024 14:00:00,18.573040,73.927715,PM10,41,118,79
India,Maharashtra,Pune,"Mhada Colony, Pune - IITM",10-04-2024 14:00:00,18.573040,73.927715,CO,32,58,46
India,Maharashtra,Pune,"Revenue Colony-Shivajinagar, Pune - IITM",10-04-2024 14:00:00,18.530085,73.849598,CO,108,118,113
India,Maharashtra,Pune,"Revenue Colony-Shivajinagar, Pune - IITM",10-04-2024 14:00:00,18.530085,73.849598,OZONE,1,63,24
India,Maharashtra,Pune,"Transport Nagar-Nigdi, Pune - IITM",10-04-2024 14:00:00,18.664282,73.763966,PM10,34,105,77
India,Maharashtra,Pune,"Transport Nagar-Nigdi, Pune - IITM",10-04-2024 14:00:00,18.664282,73.763966,OZONE,6,80,40
India,Maharashtra,Sangli,"Vijay Nagar, Sangli - MPCB",10-04-2024 14:00:00, 16.5038,74.3623,SO2,5,24,9
India,Maharashtra,Sangli,"Vijay Nagar, Sangli - MPCB",10-04-2024 14:00:00, 16.5038,74.3623,CO,12,54,29
India,Maharashtra,Solapur,"Dnyaneshwar Nagar, Solapur - MPCB",10-04-2024 14:00:00,17.6336264,75.9132495,NO2,5,60,23
India,Maharashtra,Solapur,"Dnyaneshwar Nagar, Solapur - MPCB",10-04-2024 14:00:00,17.6336264,75.9132495,OZONE,10,71,19
India,Maharashtra,Solapur,"Ratandeep Housing Society, Solapur - MPCB",10-04-2024 14:00:00,17.65439,75.90649,PM2.5,NA,NA,NA
India,Maharashtra,Solapur,"Ratandeep Housing Society, Solapur - MPCB",10-04-2024 14:00:00,17.65439,75.90649,NH3,NA,NA,NA
India,Maharashtra,Solapur,"Ratandeep Housing Society, Solapur - MPCB",10-04-2024 14:00:00,17.65439,75.90649,SO2,NA,NA,NA
India,Maharashtra,Solapur,"Ratandeep Housing Society, Solapur - MPCB",10-04-2024 14:00:00,17.65439,75.90649,OZONE,14,119,76
India,Maharashtra,Thane,"Pimpleshwar Mandir, Thane - MPCB",10-04-2024 14:00:00,19.192056,72.9585188,SO2,2,32,9
India,Maharashtra,Thane,"Pimpleshwar Mandir, Thane - MPCB",10-04-2024 14:00:00,19.192056,72.9585188,OZONE,3,62,25
India,Maharashtra,Ulhasnagar,"Sidhi Vinayak Nagar, Ulhasnagar - MPCB",10-04-2024 14:00:00,19.235581,73.159121,PM2.5,73,164,101
India,Maharashtra,Ulhasnagar,"Sidhi Vinayak Nagar, Ulhasnagar - MPCB",10-04-2024 14:00:00,19.235581,73.159121,NH3,2,4,2
India,Maharashtra,Virar,"Bolinj, Virar - MPCB",10-04-2024 14:00:00,19.4458210,72.7988231,PM10,19,125,87
India,Maharashtra,Virar,"Bolinj, Virar - MPCB",10-04-2024 14:00:00,19.4458210,72.7988231,NO2,11,48,27
India,Manipur,Imphal,"DM College of Science, Imphal - Manipur PCB",10-04-2024 14:00:00,24.8207389,93.9423085,NO2,7,8,7
India,Manipur,Imphal,"DM College of Science, Imphal - Manipur PCB",10-04-2024 14:00:00,24.8207389,93.9423085,CO,6,7,6
India,Manipur,Imphal,"DM College of Science, Imphal - Manipur PCB",10-04-2024 14:00:00,24.8207389,93.9423085,OZONE,2,44,28
India,Mizoram,Aizawl,"Sikulpuikawn, Aizawl - Mizoram PCB",10-04-2024 14:00:00,23.7176342,92.7192841,PM2.5,NA,NA,NA
India,Mizoram,Aizawl,"Sikulpuikawn, Aizawl - Mizoram PCB",10-04-2024 14:00:00,23.7176342,92.7192841,CO,19,24,21
India,Odisha,Angul,"Hakimapada, Angul - OSPCB",10-04-2024 14:00:00,20.832874,85.104082,NO2,1,1,1
India,Odisha,Barbil,"Forest Office, Barbil - OSPCB",10-04-2024 14:00:00,22.1166054,85.3945546,CO,21,70,39
India,Odisha,Baripada,"Meher Colony, Baripada - OSPCB",10-04-2024 14:00:00,21.941841,86.728318,NH3,1,1,1
India,Odisha,Bhubaneswar,"Lingraj Mandir, Bhubaneswar - OSPCB",10-04-2024 14:00:00,20.240790,85.836784,PM2.5,60,137,91
India,Odisha,Bhubaneswar,"Lingraj Mandir, Bhubaneswar - OSPCB",10-04-2024 14:00:00,20.240790,85.836784,OZONE,4,155,50
India,Odisha,Bhubaneswar,"Patia, Bhubaneswar - OSPCB",10-04-2024 14:00:00,20.34652,85.81630,SO2,6,127,58
India,Odisha,Bhubaneswar,"Patia, Bhubaneswar - OSPCB",10-04-2024 14:00:00,20.34652,85.81630,CO,54,118,110
India,Odisha,Bileipada,"Tata Township, Bileipada - OSPCB",10-04-2024 14:00:00,22.06156703,85.47409613,CO,NA,NA,NA
India,Odisha,Brajrajnagar,"GM Office, Brajrajnagar - OSPCB",10-04-2024 14:00:00,21.8004996,83.8396977,CO,62,96,87
India,Odisha,Byasanagar,"Ferro Chrome Colony, Byasanagar - OSPCB",10-04-2024 14:00:00,20.94185,86.11510,NO2,17,51,27
India,Odisha,Byasanagar,"Ferro Chrome Colony, Byasanagar - OSPCB",10-04-2024 14:00:00,20.94185,86.11510,SO2,10,98,40
India,Odisha,Keonjhar,"Jagamohanpur, Keonjhar - OSPCB",10-04-2024 14:00:00,21.643900,85.599355,NH3,7,10,8
India,Odisha,Keonjhar,"Jagamohanpur, Keonjhar - OSPCB",10-04-2024 14:00:00,21.643900,85.599355,CO,12,72,32
India,Odisha,Keonjhar,"Jagamohanpur, Keonjhar - OSPCB",10-04-2024 14:00:00,21.643900,85.599355,OZONE,9,33,16
India,Odisha,Nayagarh,"Dabuna, Nayagarh - OSPCB",10-04-2024 14:00:00,21.847279,85.416905,SO2,NA,NA,NA
India,Odisha,Nayagarh,"Dabuna, Nayagarh - OSPCB",10-04-2024 14:00:00,21.847279,85.416905,OZONE,NA,NA,NA
India,Odisha,Rourkela,"Sector-2, Rourkela - OSPCB",10-04-2024 14:00:00,22.24500000,84.88111111,PM10,NA,NA,NA
India,Odisha,Talcher,"Talcher Coalfields,Talcher - OSPCB",10-04-2024 14:00:00,20.9360711,85.1707021,OZONE,1,12,7
India,Puducherry,Puducherry,"Jawahar Nagar, Puducherry - PPCC",10-04-2024 14:00:00,11.9309,79.8027,PM10,44,149,66
India,Puducherry,Puducherry,"Jawahar Nagar, Puducherry - PPCC",10-04-2024 14:00:00,11.9309,79.8027,NH3,1,10,5
India,Punjab,Amritsar,"Golden Temple, Amritsar - PPCB",10-04-2024 14:00:00,31.620000,74.876512,PM2.5,104,257,160
India,Punjab,Amritsar,"Golden Temple, Amritsar - PPCB",10-04-2024 14:00:00,31.620000,74.876512,NH3,4,5,5
India,Punjab,Amritsar,"Golden Temple, Amritsar - PPCB",10-04-2024 14:00:00,31.620000,74.876512,SO2,6,51,23
India,Punjab,Bathinda,"Hardev Nagar, Bathinda - PPCB",10-04-2024 14:00:00,30.233011,74.907758,PM2.5,26,137,81
India,Punjab,Bathinda,"Hardev Nagar, Bathinda - PPCB",10-04-2024 14:00:00,30.233011,74.907758,PM10,20,183,104
India,Punjab,Jalandhar,"Civil Line, Jalandhar - PPCB",10-04-2024 14:00:00,31.321907,75.578914,SO2,9,20,12
India,Punjab,Khanna,"Kalal Majra, Khanna - PPCB",10-04-2024 14:00:00,30.736056 ,76.209694,NO2,31,36,34
India,Punjab,Ludhiana,"Punjab Agricultural University, Ludhiana - PPCB",10-04-2024 14:00:00,30.9028,75.8086,CO,3,80,50
India,Punjab,Patiala,"Model Town, Patiala - PPCB",10-04-2024 14:00:00,30.349388,76.366642,PM2.5,49,113,74
India,Punjab,Patiala,"Model Town, Patiala - PPCB",10-04-2024 14:00:00,30.349388,76.366642,NO2,22,29,25
India,Punjab,Patiala,"Model Town, Patiala - PPCB",10-04-2024 14:00:00,30.349388,76.366642,SO2,3,100,23
India,Punjab,Rupnagar,"Ratanpura, Rupnagar - Ambuja Cements",10-04-2024 14:00:00,31.0325454,76.5623046,PM2.5,60,133,81
India,Punjab,Rupnagar,"Ratanpura, Rupnagar - Ambuja Cements",10-04-2024 14:00:00,31.0325454,76.5623046,PM10,61,113,82
India,Rajasthan,Ajmer,"Civil Lines,  Ajmer - RSPCB",10-04-2024 14:00:00,26.470859,74.646594,NH3,4,4,4
India,Rajasthan,Alwar,"Moti Doongri, Alwar - RSPCB",10-04-2024 14:00:00,27.554793,76.611536,NO2,32,91,50
India,Rajasthan,Alwar,"Moti Doongri, Alwar - RSPCB",10-04-2024 14:00:00,27.554793,76.611536,SO2,2,81,16
India,Rajasthan,Banswara,"Rati Talai, Banswara - RSPCB",10-04-2024 14:00:00,23.555190,74.440010,PM2.5,51,296,96
India,Rajasthan,Banswara,"Rati Talai, Banswara - RSPCB",10-04-2024 14:00:00,23.555190,74.440010,NH3,2,37,9
India,Rajasthan,Barmer,"Railway Colony, Barmer - RSPCB",10-04-2024 14:00:00,25.747299,71.393989,NH3,8,30,14
India,Rajasthan,Barmer,"Railway Colony, Barmer - RSPCB",10-04-2024 14:00:00,25.747299,71.393989,CO,12,127,21
India,Rajasthan,Bharatpur,"Krishna Nagar, Bharatpur - RSPCB",10-04-2024 14:00:00,27.215415,77.50873,CO,13,145,47
India,Rajasthan,Bhilwara,"Pratap Nagar, Bhilwara - RSPCB",10-04-2024 14:00:00,25.339605,74.618883,NO2,NA,NA,NA
India,Rajasthan,Bhilwara,"Pratap Nagar, Bhilwara - RSPCB",10-04-2024 14:00:00,25.339605,74.618883,SO2,NA,NA,NA
India,Rajasthan,Bhiwadi,"Vasundhara Nagar_UIT, Bhiwadi - RSPCB",10-04-2024 14:00:00,28.207266,76.829265,OZONE,8,154,74
India,Rajasthan,Bikaner,"MM Ground, Bikaner - RSPCB",10-04-2024 14:00:00,28.018792,73.292658,CO,17,148,43
India,Rajasthan,Bikaner,"MM Ground, Bikaner - RSPCB",10-04-2024 14:00:00,28.018792,73.292658,OZONE,1,86,58
India,Rajasthan,Bundi,"New Colony, Bundi - RSPCB",10-04-2024 14:00:00,25.435774,75.644272,PM10,60,460,143
India,Rajasthan,Bundi,"New Colony, Bundi - RSPCB",10-04-2024 14:00:00,25.435774,75.644272,NO2,9,143,38
India,Rajasthan,Chittorgarh,"Shastri Nagar, Chittorgarh - RSPCB",10-04-2024 14:00:00,24.892047,74.623527,PM2.5,42,207,111
India,Rajasthan,Chittorgarh,"Shastri Nagar, Chittorgarh - RSPCB",10-04-2024 14:00:00,24.892047,74.623527,NO2,16,124,63
India,Rajasthan,Chittorgarh,"Shastri Nagar, Chittorgarh - RSPCB",10-04-2024 14:00:00,24.892047,74.623527,NH3,6,9,7
India,Rajasthan,Churu,"Subash Chowk, Churu - RSPCB",10-04-2024 14:00:00,28.296139,74.961696,CO,NA,NA,NA
India,Rajasthan,Dausa,"Khatikan Mohalla, Dausa - RSPCB",10-04-2024 14:00:00,26.895552,76.334753,PM2.5,16,83,41
India,Rajasthan,Dausa,"Khatikan Mohalla, Dausa - RSPCB",10-04-2024 14:00:00,26.895552,76.334753,PM10,94,214,137
India,Rajasthan,Dausa,"Khatikan Mohalla, Dausa - RSPCB",10-04-2024 14:00:00,26.895552,76.334753,NO2,22,117,52
India,Rajasthan,Dausa,"Khatikan Mohalla, Dausa - RSPCB",10-04-2024 14:00:00,26.895552,76.334753,NH3,2,8,4
India,Rajasthan,Dungarpur,"Bhoiwada, Dungarpur - RSPCB",10-04-2024 14:00:00,23.837789,73.714926,NH3,4,5,4
India,Rajasthan,Hanumangarh,"Housing Board, Hanumangarh - RSPCB",10-04-2024 14:00:00,29.610750,74.283608,NO2,13,46,28
India,Rajasthan,Hanumangarh,"Housing Board, Hanumangarh - RSPCB",10-04-2024 14:00:00,29.610750,74.283608,NH3,4,9,6
India,Rajasthan,Jaipur,"Adarsh Nagar, Jaipur - RSPCB",10-04-2024 14:00:00,26.902909,75.836858,CO,22,68,33
India,Rajasthan,Jaipur,"Mansarovar Sector-12, Jaipur - RSPCB",10-04-2024 14:00:00,26.843698,75.766894,PM10,67,184,121
India,Rajasthan,Jaipur,"RIICO Sitapura, Jaipur - RSPCB",10-04-2024 14:00:00,26.786682,75.827928,CO,25,98,46
India,Rajasthan,Jaipur,"Sector-2 Murlipura, Jaipur - RSPCB",10-04-2024 14:00:00,26.960669,75.771817,PM2.5,34,68,47
India,Rajasthan,Jaipur,"Sector-2 Murlipura, Jaipur - RSPCB",10-04-2024 14:00:00,26.960669,75.771817,NH3,2,18,7
India,Rajasthan,Jaipur,"Sector-2 Murlipura, Jaipur - RSPCB",10-04-2024 14:00:00,26.960669,75.771817,CO,21,98,44
India,Rajasthan,Jaisalmer,"Sadar Bazar, Jaisalmer - RSPCB",10-04-2024 14:00:00,26.912329,70.909168,SO2,3,13,5
India,Rajasthan,Jalore,"Mudtra Sili, Jalore - RSPCB",10-04-2024 14:00:00,25.344694,72.626208,NO2,10,166,56
India,Rajasthan,Jhalawar,"Rajlaxmi Nagar, Jhalawar - RSPCB",10-04-2024 14:00:00,24.588397,76.172782,NO2,17,73,24
India,Rajasthan,Jhunjhunu,"Indra Nagar, Jhunjhunu - RSPCB",10-04-2024 14:00:00,28.108988,75.386577,PM10,43,236,115
India,Rajasthan,Jhunjhunu,"Indra Nagar, Jhunjhunu - RSPCB",10-04-2024 14:00:00,28.108988,75.386577,NO2,16,91,42
India,Rajasthan,Jhunjhunu,"Indra Nagar, Jhunjhunu - RSPCB",10-04-2024 14:00:00,28.108988,75.386577,NH3,5,10,6
India,Rajasthan,Jhunjhunu,"Indra Nagar, Jhunjhunu - RSPCB",10-04-2024 14:00:00,28.108988,75.386577,OZONE,25,113,66
India,Rajasthan,Jodhpur,"Jhalamand, Jodhpur - RSPCB",10-04-2024 14:00:00,26.215415,73.070156,SO2,1,14,5
India,Rajasthan,Jodhpur,"Mandor, Jodhpur - RSPCB",10-04-2024 14:00:00,26.358805,73.047444,PM2.5,8,76,33
India,Rajasthan,Jodhpur,"Samrat Ashok Udhyan, Jodhpur - RSPCB",10-04-2024 14:00:00,26.253384,72.976571,PM10,59,286,137
India,Rajasthan,Jodhpur,"Samrat Ashok Udhyan, Jodhpur - RSPCB",10-04-2024 14:00:00,26.253384,72.976571,CO,10,119,37
India,Rajasthan,Karauli,"Satyawati Vihar, Karauli - RSPCB",10-04-2024 14:00:00,26.506177,77.025989,NH3,NA,NA,NA
India,Rajasthan,Kota,"Nayapura, Kota - RSPCB",10-04-2024 14:00:00,25.196024,75.855668,OZONE,4,148,63
India,Rajasthan,Kota,"Shrinath Puram, Kota - RSPCB",10-04-2024 14:00:00,25.14389,75.821256,NO2,10,147,55
India,Rajasthan,Pali,"Indira Colony Vistar, Pali - RSPCB",10-04-2024 14:00:00,25.771061, 73.340227,PM2.5,25,369,178
India,Rajasthan,Pali,"Indira Colony Vistar, Pali - RSPCB",10-04-2024 14:00:00,25.771061, 73.340227,CO,16,124,41
India,Rajasthan,Pratapgarh,"Pragati Nagar, Pratapgarh - RSPCB",10-04-2024 14:00:00,24.041198,74.780702,OZONE,13,167,80
India,Rajasthan,Rajsamand,"Dhoinda, Rajsamand - RSPCB",10-04-2024 14:00:00,25.036360,73.883502,PM2.5,25,341,160
India,Rajasthan,Sikar,"Radhakishan Pura, Sikar - RSPCB",10-04-2024 14:00:00,27.608912,75.153302,NO2,9,110,30
India,Rajasthan,Sirohi,"Vedhaynath Colony, Sirohi - RSPCB",10-04-2024 14:00:00,24.885261,72.857549,SO2,1,12,6
India,Rajasthan,Sirohi,"Vedhaynath Colony, Sirohi - RSPCB",10-04-2024 14:00:00,24.885261,72.857549,OZONE,10,159,159
India,Rajasthan,Tonk,"Shastri Nagar, Tonk - RSPCB",10-04-2024 14:00:00,26.159933,75.780517,PM2.5,20,140,65
India,Rajasthan,Tonk,"Shastri Nagar, Tonk - RSPCB",10-04-2024 14:00:00,26.159933,75.780517,PM10,79,338,155
India,Rajasthan,Tonk,"Shastri Nagar, Tonk - RSPCB",10-04-2024 14:00:00,26.159933,75.780517,NH3,4,24,9
India,Rajasthan,Udaipur,"Ashok Nagar, Udaipur - RSPCB",10-04-2024 14:00:00,24.5886166,73.6321397,PM10,102,322,159
India,Sikkim,Gangtok,"Zero Point GICI, Gangtok - SSPCB",10-04-2024 14:00:00,27.338530,88.614099,SO2,10,12,11
India,Sikkim,Gangtok,"Zero Point GICI, Gangtok - SSPCB",10-04-2024 14:00:00,27.338530,88.614099,CO,12,22,17
India,TamilNadu,Chengalpattu,"Crescent University, Chengalpattu - TNPCB",10-04-2024 14:00:00,12.8777316,80.0834807,PM2.5,NA,NA,NA
India,TamilNadu,Chengalpattu,"Crescent University, Chengalpattu - TNPCB",10-04-2024 14:00:00,12.8777316,80.0834807,PM10,NA,NA,NA
India,TamilNadu,Chengalpattu,"Crescent University, Chengalpattu - TNPCB",10-04-2024 14:00:00,12.8777316,80.0834807,CO,26,29,27
India,TamilNadu,Chennai,"Alandur Bus Depot, Chennai - CPCB",10-04-2024 14:00:00,12.9099161,80.1076538,NH3,1,25,7
India,TamilNadu,Chennai,"Kodungaiyur, Chennai - TNPCB",10-04-2024 14:00:00,13.1278,80.2642,NO2,5,18,10
India,TamilNadu,Chennai,"Manali, Chennai - CPCB",10-04-2024 14:00:00,13.164544,80.26285,SO2,2,11,7
India,TamilNadu,Chennai,"Manali, Chennai - CPCB",10-04-2024 14:00:00,13.164544,80.26285,OZONE,21,51,37
India,TamilNadu,Chennai,"Perungudi, Chennai - TNPCB",10-04-2024 14:00:00,12.9533,80.2357,PM10,49,88,67
India,TamilNadu,Chennai,"Velachery Res. Area, Chennai - CPCB",10-04-2024 14:00:00,13.0052189,80.2398125,OZONE,6,37,21
India,TamilNadu,Cuddalore,"Semmandalam, Cuddalore - TNPCB",10-04-2024 14:00:00,11.7637683,79.7499835,PM2.5,22,73,44
India,TamilNadu,Cuddalore,"Semmandalam, Cuddalore - TNPCB",10-04-2024 14:00:00,11.7637683,79.7499835,OZONE,1,3,2
India,TamilNadu,Gummidipoondi,"Anthoni Pillai Nagar, Gummidipoondi - TNPCB",10-04-2024 14:00:00,13.4127,80.1081,PM2.5,30,223,72
India,TamilNadu,Gummidipoondi,"Anthoni Pillai Nagar, Gummidipoondi - TNPCB",10-04-2024 14:00:00,13.4127,80.1081,SO2,1,107,20
India,TamilNadu,Kanchipuram,"Kilambi, Kanchipuram - TNPCB",10-04-2024 14:00:00,12.864618,79.659968,PM2.5,NA,NA,NA
India,TamilNadu,Ramanathapuram,"Chalai Bazaar, Ramanathapuram - TNPCB",10-04-2024 14:00:00,9.36399,78.831977,OZONE,14,14,14
India,TamilNadu,Salem,"Sona College of Technology, Salem - TNPCB",10-04-2024 14:00:00,11.679111,78.125052,NO2,7,10,8
India,TamilNadu,Salem,"Sona College of Technology, Salem - TNPCB",10-04-2024 14:00:00,11.679111,78.125052,CO,60,63,61
India,TamilNadu,Tirupur,"Kumaran College, Tirupur - TNPCB",10-04-2024 14:00:00,11.0973603,77.3228673,PM10,63,178,115
India,TamilNadu,Vellore,"Vasanthapuram, Vellore - TNPCB",10-04-2024 14:00:00,12.909494,79.131861,CO,NA,NA,NA
India,TamilNadu,Virudhunagar,"Collectorate Office, Virudhunagar - TNPCB",10-04-2024 14:00:00,9.559382,77.948828,CO,27,28,28
India,TamilNadu,Virudhunagar,"Collectorate Office, Virudhunagar - TNPCB",10-04-2024 14:00:00,9.559382,77.948828,OZONE,5,6,6
India,Telangana,Hyderabad,"Bollaram Industrial Area, Hyderabad - TSPCB",10-04-2024 14:00:00,17.540891,78.358528,SO2,8,23,16
India,Telangana,Hyderabad,"Central University, Hyderabad - TSPCB",10-04-2024 14:00:00,17.460103,78.334361,PM10,42,78,60
India,Telangana,Hyderabad,"ICRISAT Patancheru, Hyderabad - TSPCB",10-04-2024 14:00:00,17.518400,78.278777,CO,20,63,38
India,Telangana,Hyderabad,"Kokapet, Hyderabad - TSPCB",10-04-2024 14:00:00,17.393559,78.339194,CO,22,28,23
India,Telangana,Hyderabad,"Kokapet, Hyderabad - TSPCB",10-04-2024 14:00:00,17.393559,78.339194,OZONE,3,7,5
India,Telangana,Hyderabad,"Nacharam_TSIIC IALA, Hyderabad - TSPCB",10-04-2024 14:00:00,17.429398,78.569354,SO2,9,31,20
India,Telangana,Hyderabad,"Nacharam_TSIIC IALA, Hyderabad - TSPCB",10-04-2024 14:00:00,17.429398,78.569354,OZONE,22,75,22
India,Telangana,Hyderabad,"Ramachandrapuram, Hyderabad - TSPCB",10-04-2024 14:00:00,17.528544,78.286195,NO2,NA,NA,NA
India,Telangana,Hyderabad,"Sanathnagar, Hyderabad - TSPCB",10-04-2024 14:00:00,17.4559458,78.4332152,PM2.5,36,68,55
India,Telangana,Hyderabad,"Somajiguda, Hyderabad - TSPCB",10-04-2024 14:00:00,17.417094,78.457437,PM2.5,26,60,44
India,Telangana,Hyderabad,"Zoo Park, Hyderabad - TSPCB",10-04-2024 14:00:00,17.349694,78.451437,NO2,24,33,29
India,Telangana,Hyderabad,"Zoo Park, Hyderabad - TSPCB",10-04-2024 14:00:00,17.349694,78.451437,OZONE,18,36,24
India,Tripura,Agartala,"Bardowali, Agartala - Tripura SPCB",10-04-2024 14:00:00,23.8175497,91.2726974,NH3,2,3,2
India,Uttar_Pradesh,Agra,"Rohta, Agra - UPPCB",10-04-2024 14:00:00,27.106972,78.000111,NH3,1,1,1
India,Uttar_Pradesh,Agra,"Rohta, Agra - UPPCB",10-04-2024 14:00:00,27.106972,78.000111,SO2,4,33,10
India,Uttar_Pradesh,Agra,"Rohta, Agra - UPPCB",10-04-2024 14:00:00,27.106972,78.000111,CO,6,60,13
India,Uttar_Pradesh,Agra,"Sanjay Palace, Agra - UPPCB",10-04-2024 14:00:00,27.19865833,78.00598056,PM2.5,5,53,25
India,Uttar_Pradesh,Agra,"Sanjay Palace, Agra - UPPCB",10-04-2024 14:00:00,27.19865833,78.00598056,PM10,31,110,58
India,Uttar_Pradesh,Agra,"Sector-3B Avas Vikas Colony, Agra - UPPCB",10-04-2024 14:00:00,27.19412,77.96237,NO2,51,54,53
India,Uttar_Pradesh,Agra,"Shahjahan Garden, Agra - UPPCB",10-04-2024 14:00:00,27.169338,78.03582,CO,16,110,39
India,Uttar_Pradesh,Agra,"Shastripuram, Agra - UPPCB",10-04-2024 14:00:00,27.19862,77.92066,PM2.5,31,168,64
India,Uttar_Pradesh,Bareilly,"Civil Lines, Bareilly - UPPCB",10-04-2024 14:00:00,28.359581,79.414455,PM2.5,4,15,9
India,Uttar_Pradesh,Bareilly,"Rajendra Nagar, Bareilly - UPPCB",10-04-2024 14:00:00,28.38910936,79.42963708,PM2.5,14,60,32
India,Uttar_Pradesh,Bareilly,"Rajendra Nagar, Bareilly - UPPCB",10-04-2024 14:00:00,28.38910936,79.42963708,NH3,1,1,1
India,Uttar_Pradesh,Bareilly,"Rajendra Nagar, Bareilly - UPPCB",10-04-2024 14:00:00,28.38910936,79.42963708,SO2,45,58,48
India,Uttar_Pradesh,Bulandshahr,"Yamunapuram, Bulandshahr - UPPCB",10-04-2024 14:00:00,28.406963,77.849831,NO2,12,81,30
India,Uttar_Pradesh,Firozabad,"Vibhab Nagar, Firozabad - UPPCB",10-04-2024 14:00:00,27.1594,78.3953,SO2,13,68,29
India,Uttar_Pradesh,Ghaziabad,"Indirapuram, Ghaziabad - UPPCB",10-04-2024 14:00:00,28.646233,77.358075,PM10,116,367,197
India,Uttar_Pradesh,Ghaziabad,"Loni, Ghaziabad - UPPCB",10-04-2024 14:00:00,28.757294,77.278792,OZONE,1,172,152
India,Uttar_Pradesh,Ghaziabad,"Sanjay Nagar, Ghaziabad - UPPCB",10-04-2024 14:00:00,28.685382,77.453839,NH3,8,12,10
India,Uttar_Pradesh,Ghaziabad,"Sanjay Nagar, Ghaziabad - UPPCB",10-04-2024 14:00:00,28.685382,77.453839,OZONE,5,230,67
India,Uttar_Pradesh,Ghaziabad,"Vasundhara, Ghaziabad - UPPCB",10-04-2024 14:00:00,28.6603346,77.3572563,SO2,7,86,47
India,Uttar_Pradesh,Gorakhpur,"Madan Mohan Malaviya University of Technology, Gorakhpur - UPPCB",10-04-2024 14:00:00,26.730136,83.433859,PM10,42,129,86
India,Uttar_Pradesh,Greater Noida,"Knowledge Park - V, Greater Noida - UPPCB",10-04-2024 14:00:00,28.557054,77.453663,CO,36,104,63
India,Uttar_Pradesh,Hapur,"Anand Vihar, Hapur - UPPCB",10-04-2024 14:00:00,28.725645,77.749675,PM2.5,32,192,90
India,Uttar_Pradesh,Jhansi,"Shivaji Nagar, Jhansi - UPPCB",10-04-2024 14:00:00,25.4547,78.6039,NO2,1,72,19
India,Uttar_Pradesh,Jhansi,"Shivaji Nagar, Jhansi - UPPCB",10-04-2024 14:00:00,25.4547,78.6039,NH3,6,6,6
India,Uttar_Pradesh,Jhansi,"Shivaji Nagar, Jhansi - UPPCB",10-04-2024 14:00:00,25.4547,78.6039,SO2,13,18,14
India,Uttar_Pradesh,Kanpur,"FTI Kidwai Nagar, Kanpur - UPPCB",10-04-2024 14:00:00,26.428282,80.327067,NO2,14,15,15
India,Uttar_Pradesh,Kanpur,"NSI Kalyanpur, Kanpur - UPPCB",10-04-2024 14:00:00,26.509954,80.249612,PM10,70,164,112
India,Uttar_Pradesh,Kanpur,"NSI Kalyanpur, Kanpur - UPPCB",10-04-2024 14:00:00,26.509954,80.249612,SO2,19,30,23
India,Uttar_Pradesh,Kanpur,"NSI Kalyanpur, Kanpur - UPPCB",10-04-2024 14:00:00,26.509954,80.249612,CO,32,88,43
India,Uttar_Pradesh,Kanpur,"NSI Kalyanpur, Kanpur - UPPCB",10-04-2024 14:00:00,26.509954,80.249612,OZONE,33,59,48
India,Uttar_Pradesh,Khurja,"Kalindi Kunj, Khurja - UPPCB",10-04-2024 14:00:00,28.2348927,77.8683002,PM2.5,26,152,77
India,Uttar_Pradesh,Khurja,"Kalindi Kunj, Khurja - UPPCB",10-04-2024 14:00:00,28.2348927,77.8683002,CO,40,57,53
India,Uttar_Pradesh,Lucknow,"B R Ambedkar University, Lucknow - UPPCB",10-04-2024 14:00:00,26.766433,80.927299,NO2,11,12,11
India,Uttar_Pradesh,Lucknow,"B R Ambedkar University, Lucknow - UPPCB",10-04-2024 14:00:00,26.766433,80.927299,SO2,32,53,36
India,Uttar_Pradesh,Lucknow,"Kukrail Picnic Spot-1, Lucknow - UPPCB",10-04-2024 14:00:00,26.90723,80.98579,NO2,8,9,8
India,Uttar_Pradesh,Lucknow,"Kukrail Picnic Spot-1, Lucknow - UPPCB",10-04-2024 14:00:00,26.90723,80.98579,NH3,2,2,2
India,Uttar_Pradesh,Lucknow,"Kukrail Picnic Spot-1, Lucknow - UPPCB",10-04-2024 14:00:00,26.90723,80.98579,SO2,24,30,26
India,Uttar_Pradesh,Lucknow,"Lalbagh, Lucknow - CPCB",10-04-2024 14:00:00,26.8458805,80.9365541,PM10,87,150,119
India,Uttar_Pradesh,Lucknow,"Lalbagh, Lucknow - CPCB",10-04-2024 14:00:00,26.8458805,80.9365541,NH3,2,25,21
India,Uttar_Pradesh,Lucknow,"Lalbagh, Lucknow - CPCB",10-04-2024 14:00:00,26.8458805,80.9365541,CO,11,106,37
India,Uttar_Pradesh,Lucknow,"Talkatora District Industries Center, Lucknow - CPCB",10-04-2024 14:00:00,26.83399722,80.8917361,SO2,1,31,6
India,Uttar_Pradesh,Lucknow,"Talkatora District Industries Center, Lucknow - CPCB",10-04-2024 14:00:00,26.83399722,80.8917361,CO,1,46,20
India,Uttar_Pradesh,Meerut,"Ganga Nagar, Meerut - UPPCB",10-04-2024 14:00:00,28.999264,77.7590354,NO2,19,134,41
India,Uttar_Pradesh,Meerut,"Ganga Nagar, Meerut - UPPCB",10-04-2024 14:00:00,28.999264,77.7590354,NH3,6,11,8
India,Uttar_Pradesh,Meerut,"Jai Bhim Nagar, Meerut - UPPCB",10-04-2024 14:00:00,28.9535882,77.7622941,PM10,40,185,100
India,Uttar_Pradesh,Meerut,"Jai Bhim Nagar, Meerut - UPPCB",10-04-2024 14:00:00,28.9535882,77.7622941,NO2,4,39,19
India,Uttar_Pradesh,Meerut,"Jai Bhim Nagar, Meerut - UPPCB",10-04-2024 14:00:00,28.9535882,77.7622941,NH3,7,14,9
India,Uttar_Pradesh,Meerut,"Pallavpuram Phase 2, Meerut - UPPCB",10-04-2024 14:00:00,29.063510,77.709723,NH3,8,14,10
India,Uttar_Pradesh,Meerut,"Pallavpuram Phase 2, Meerut - UPPCB",10-04-2024 14:00:00,29.063510,77.709723,SO2,13,47,29
India,Uttar_Pradesh,Meerut,"Pallavpuram Phase 2, Meerut - UPPCB",10-04-2024 14:00:00,29.063510,77.709723,OZONE,4,124,71
India,Uttar_Pradesh,Moradabad,"Eco Herbal Park, Moradabad - UPPCB",10-04-2024 14:00:00,28.840739,78.697531,NO2,7,47,24
India,Uttar_Pradesh,Moradabad,"Eco Herbal Park, Moradabad - UPPCB",10-04-2024 14:00:00,28.840739,78.697531,OZONE,8,190,95
India,Uttar_Pradesh,Moradabad,"Employment Office, Moradabad - UPPCB",10-04-2024 14:00:00,28.88528,78.73880,PM10,49,191,110
India,Uttar_Pradesh,Moradabad,"Jigar Colony, Moradabad - UPPCB",10-04-2024 14:00:00,28.856664,78.772638,PM2.5,9,88,44
India,Uttar_Pradesh,Moradabad,"Jigar Colony, Moradabad - UPPCB",10-04-2024 14:00:00,28.856664,78.772638,OZONE,18,165,24
India,Uttar_Pradesh,Moradabad,"Kashiram Nagar, Moradabad - UPPCB",10-04-2024 14:00:00,28.849399,78.742362,PM10,59,177,108
India,Uttar_Pradesh,Moradabad,"Kashiram Nagar, Moradabad - UPPCB",10-04-2024 14:00:00,28.849399,78.742362,OZONE,14,70,34
India,Uttar_Pradesh,Muzaffarnagar,"New Mandi, Muzaffarnagar - UPPCB",10-04-2024 14:00:00,29.4723508,77.7194031,PM10,72,411,194
India,Uttar_Pradesh,Noida,"Sector - 125, Noida - UPPCB",10-04-2024 14:00:00,28.5447608,77.3231257,PM2.5,33,304,120
India,Uttar_Pradesh,Noida,"Sector - 62, Noida - IMD",10-04-2024 14:00:00,28.6245479,77.3577104,PM10,100,243,158
India,Uttar_Pradesh,Noida,"Sector - 62, Noida - IMD",10-04-2024 14:00:00,28.6245479,77.3577104,CO,64,82,74
India,Uttar_Pradesh,Noida,"Sector-1, Noida - UPPCB",10-04-2024 14:00:00,28.5898,77.3101,PM10,123,271,175
India,Uttar_Pradesh,Noida,"Sector-116, Noida - UPPCB",10-04-2024 14:00:00,28.569230,77.393848,PM2.5,60,359,179
India,Uttar_Pradesh,Noida,"Sector-116, Noida - UPPCB",10-04-2024 14:00:00,28.569230,77.393848,PM10,118,398,209
India,Uttar_Pradesh,Prayagraj,"Jhunsi, Prayagraj - UPPCB",10-04-2024 14:00:00,25.425602,81.917152,CO,5,17,11
India,Uttar_Pradesh,Prayagraj,"Jhunsi, Prayagraj - UPPCB",10-04-2024 14:00:00,25.425602,81.917152,OZONE,6,49,20
India,Uttar_Pradesh,Prayagraj,"Nagar Nigam, Prayagraj - UPPCB",10-04-2024 14:00:00,25.44919916 ,81.82735986 ,PM2.5,23,74,38
India,Uttar_Pradesh,Prayagraj,"Nagar Nigam, Prayagraj - UPPCB",10-04-2024 14:00:00,25.44919916 ,81.82735986 ,SO2,18,63,39
India,Uttar_Pradesh,Varanasi,"Ardhali Bazar, Varanasi - UPPCB",10-04-2024 14:00:00,25.3505986,82.9083074,NO2,15,39,26
India,Uttar_Pradesh,Varanasi,"Bhelupur, Varanasi - UPPCB",10-04-2024 14:00:00,25.301778,82.996789,NO2,8,8,8
India,Uttar_Pradesh,Varanasi,"Bhelupur, Varanasi - UPPCB",10-04-2024 14:00:00,25.301778,82.996789,CO,7,80,15
India,Uttar_Pradesh,Varanasi,"Maldahiya, Varanasi - UPPCB",10-04-2024 14:00:00,25.32393,82.99687,PM10,13,62,35
India,Uttar_Pradesh,Varanasi,"Maldahiya, Varanasi - UPPCB",10-04-2024 14:00:00,25.32393,82.99687,NH3,1,2,1
India,Uttar_Pradesh,Vrindavan,"Omex Eternity, Vrindavan - UPPCB",10-04-2024 14:00:00,27.5714090,77.6557570,PM10,22,193,108
India,Uttarakhand,Kashipur,"Govt. Girls Inter College, Kashipur - UKPCB",10-04-2024 14:00:00,29.2124114,78.9611753,PM10,51,115,86
India,Uttarakhand,Kashipur,"Govt. Girls Inter College, Kashipur - UKPCB",10-04-2024 14:00:00,29.2124114,78.9611753,NH3,5,8,6
India,Uttarakhand,Kashipur,"Govt. Girls Inter College, Kashipur - UKPCB",10-04-2024 14:00:00,29.2124114,78.9611753,CO,22,79,45
India,Uttarakhand,Rishikesh,"Shivaji Nagar, Rishikesh - UKPCB",10-04-2024 14:00:00,30.075911,78.2859547,NO2,9,46,19
India,Uttarakhand,Rishikesh,"Shivaji Nagar, Rishikesh - UKPCB",10-04-2024 14:00:00,30.075911,78.2859547,SO2,3,5,4
India,West_Bengal,Asansol,"Asansol Court Area, Asansol - WBPCB",10-04-2024 14:00:00,23.685297,86.945968,PM10,112,171,133
India,West_Bengal,Asansol,"Asansol Court Area, Asansol - WBPCB",10-04-2024 14:00:00,23.685297,86.945968,NO2,31,59,46
India,West_Bengal,Barrackpore,"SVSPA Campus, Barrackpore - WBPCB",10-04-2024 14:00:00,22.7605581,88.3617589,PM10,74,213,136
India,West_Bengal,Barrackpore,"SVSPA Campus, Barrackpore - WBPCB",10-04-2024 14:00:00,22.7605581,88.3617589,CO,18,81,38
India,West_Bengal,Durgapur,"PCBL Residential Complex, Durgapur - WBPCB",10-04-2024 14:00:00,23.5087640,87.3544400,PM2.5,180,387,306
India,West_Bengal,Durgapur,"Sidhu Kanhu Indoor Stadium, Durgapur - WBPCB",10-04-2024 14:00:00,23.5404352,87.2892225,NH3,4,5,4
India,West_Bengal,Haldia,"Priyambada Housing Estate, Haldia - WBPCB",10-04-2024 14:00:00,22.06047,88.109737,PM10,35,127,79
India,West_Bengal,Haldia,"Priyambada Housing Estate, Haldia - WBPCB",10-04-2024 14:00:00,22.06047,88.109737,CO,22,42,37
India,West_Bengal,Howrah,"Belur Math, Howrah - WBPCB",10-04-2024 14:00:00,22.629801,88.352017,NO2,12,50,28
India,West_Bengal,Howrah,"Belur Math, Howrah - WBPCB",10-04-2024 14:00:00,22.629801,88.352017,SO2,3,15,9
India,West_Bengal,Howrah,"Belur Math, Howrah - WBPCB",10-04-2024 14:00:00,22.629801,88.352017,OZONE,5,101,40
India,West_Bengal,Howrah,"Ghusuri, Howrah - WBPCB",10-04-2024 14:00:00,22.611968,88.347422,PM10,72,241,156
India,West_Bengal,Howrah,"Ghusuri, Howrah - WBPCB",10-04-2024 14:00:00,22.611968,88.347422,NH3,2,4,3
India,West_Bengal,Howrah,"Ghusuri, Howrah - WBPCB",10-04-2024 14:00:00,22.611968,88.347422,SO2,5,6,6
India,West_Bengal,Howrah,"Padmapukur, Howrah - WBPCB",10-04-2024 14:00:00,22.5687319,88.2797276,NH3,1,2,1
India,West_Bengal,Kolkata,"Ballygunge, Kolkata - WBPCB",10-04-2024 14:00:00,22.5367507,88.3638022,NO2,37,156,87
India,West_Bengal,Kolkata,"Ballygunge, Kolkata - WBPCB",10-04-2024 14:00:00,22.5367507,88.3638022,OZONE,4,115,49
India,West_Bengal,Kolkata,"Bidhannagar, Kolkata - WBPCB",10-04-2024 14:00:00,22.58157048,88.41002457,NH3,NA,NA,NA
India,West_Bengal,Kolkata,"Fort William, Kolkata - WBPCB",10-04-2024 14:00:00,22.556640,88.342674,SO2,15,55,23
India,West_Bengal,Kolkata,"Fort William, Kolkata - WBPCB",10-04-2024 14:00:00,22.556640,88.342674,OZONE,30,52,41
India,West_Bengal,Kolkata,"Jadavpur, Kolkata - WBPCB",10-04-2024 14:00:00,22.49929,88.36917,PM2.5,41,103,72
India,West_Bengal,Kolkata,"Jadavpur, Kolkata - WBPCB",10-04-2024 14:00:00,22.49929,88.36917,SO2,13,103,23
India,West_Bengal,Kolkata,"Victoria, Kolkata - WBPCB",10-04-2024 14:00:00,22.5448082,88.3403691,OZONE,8,82,34
India,West_Bengal,Siliguri,"Ward-32 Bapupara, Siliguri - WBPCB",10-04-2024 14:00:00,26.6879226,88.4152495,PM10,75,188,105
India,West_Bengal,Siliguri,"Ward-32 Bapupara, Siliguri - WBPCB",10-04-2024 14:00:00,26.6879226,88.4152495,NO2,10,89,47
India,West_Bengal,Siliguri,"Ward-32 Bapupara, Siliguri - WBPCB",10-04-2024 14:00:00,26.6879226,88.4152495,CO,1,94,21
India,Andhra_Pradesh,Amaravati,"Secretariat, Amaravati - APPCB",10-04-2024 14:00:00,16.5150833,80.5181667,OZONE,28,71,52
India,Andhra_Pradesh,Anantapur,"Gulzarpet, Anantapur - APPCB",10-04-2024 14:00:00,14.675886,77.593027,OZONE,6,36,19
India,Andhra_Pradesh,Chittoor,"Gangineni Cheruvu, Chittoor - APPCB",10-04-2024 14:00:00,13.204880,79.097889,NH3,NA,NA,NA
India,Andhra_Pradesh,Kadapa,"Yerramukkapalli, Kadapa - APPCB",10-04-2024 14:00:00,14.465052,78.824187,NO2,8,8,8
India,Andhra_Pradesh,Rajamahendravaram,"Anand Kala Kshetram, Rajamahendravaram - APPCB",10-04-2024 14:00:00,16.9872867,81.7363176,PM10,NA,NA,NA
India,Andhra_Pradesh,Tirupati,"Vaikuntapuram, Tirupati - APPCB",10-04-2024 14:00:00,13.615387,79.409230,OZONE,4,39,14
India,Andhra_Pradesh,Vijayawada,"HB Colony, Vijayawada - APPCB",10-04-2024 14:00:00,16.536107,80.594233,NO2,4,27,10
India,Andhra_Pradesh,Vijayawada,"Kanuru, Vijayawada - APPCB",10-04-2024 14:00:00,16.486692,80.699436,PM10,NA,NA,NA
India,Andhra_Pradesh,Vijayawada,"Rajiv Gandhi Park, Vijayawada - APPCB",10-04-2024 14:00:00,16.509717,80.612222,NO2,5,50,23
India,Andhra_Pradesh,Vijayawada,"Rajiv Gandhi Park, Vijayawada - APPCB",10-04-2024 14:00:00,16.509717,80.612222,SO2,6,11,8
India,Andhra_Pradesh,Vijayawada,"Rajiv Nagar, Vijayawada - APPCB",10-04-2024 14:00:00,16.554731,80.649110,CO,43,44,44
India,Andhra_Pradesh,Visakhapatnam,"GVM Corporation, Visakhapatnam - APPCB",10-04-2024 14:00:00,17.72,83.3,NH3,3,8,5
India,Arunachal_Pradesh,Naharlagun,"Naharlagun, Naharlagun - APSPCB",10-04-2024 14:00:00,27.103358,93.679645,SO2,4,4,4
India,Assam,Byrnihat,"Central Academy for SFS, Byrnihat - PCBA",10-04-2024 14:00:00,26.071318,91.87488,PM10,77,500,294
India,Assam,Byrnihat,"Central Academy for SFS, Byrnihat - PCBA",10-04-2024 14:00:00,26.071318,91.87488,NH3,4,8,8
India,Assam,Guwahati,"IITG, Guwahati - PCBA",10-04-2024 14:00:00,26.2028636,91.70046436,NH3,5,6,5
India,Assam,Guwahati,"IITG, Guwahati - PCBA",10-04-2024 14:00:00,26.2028636,91.70046436,OZONE,2,39,19
India,Assam,Guwahati,"Pan Bazaar, Guwahati - PCBA",10-04-2024 14:00:00,26.187500,91.744194,PM10,NA,NA,NA
India,Assam,Guwahati,"Railway Colony, Guwahati - PCBA",10-04-2024 14:00:00,26.181742,91.78063,PM2.5,130,333,256
India,Assam,Guwahati,"Railway Colony, Guwahati - PCBA",10-04-2024 14:00:00,26.181742,91.78063,SO2,52,78,60
India,Assam,Guwahati,"Railway Colony, Guwahati - PCBA",10-04-2024 14:00:00,26.181742,91.78063,OZONE,3,25,13
India,Assam,Nagaon,"Christianpatty, Nagaon - PCBA",10-04-2024 14:00:00,26.349082,92.68449,NO2,8,91,26
India,Assam,Nagaon,"Christianpatty, Nagaon - PCBA",10-04-2024 14:00:00,26.349082,92.68449,SO2,3,102,24
India,Assam,Silchar,"Tarapur, Silchar - PCBA",10-04-2024 14:00:00,24.82827,92.79525,PM10,46,81,60
India,Assam,Sivasagar,"Girls College, Sivasagar - PCBA",10-04-2024 14:00:00,26.987634,94.636574,SO2,1,8,6
India,Bihar,Araria,"Kharahiya Basti, Araria - BSPCB",10-04-2024 14:00:00,26.146529,87.454184,NO2,6,10,7
India,Bihar,Araria,"Kharahiya Basti, Araria - BSPCB",10-04-2024 14:00:00,26.146529,87.454184,CO,27,34,28
India,Bihar,Araria,"Kharahiya Basti, Araria - BSPCB",10-04-2024 14:00:00,26.146529,87.454184,OZONE,9,12,10
India,Bihar,Arrah,"New DM Office, Arrah - BSPCB",10-04-2024 14:00:00,25.5626095,84.663264,PM10,71,153,107
India,Bihar,Arrah,"New DM Office, Arrah - BSPCB",10-04-2024 14:00:00,25.5626095,84.663264,NH3,3,7,4
India,Bihar,Aurangabad,"Gurdeo Nagar, Aurangabad - BSPCB",10-04-2024 14:00:00,24.75746,84.366208,NO2,NA,NA,NA
India,Bihar,Aurangabad,"Gurdeo Nagar, Aurangabad - BSPCB",10-04-2024 14:00:00,24.75746,84.366208,CO,NA,NA,NA
India,Bihar,Bettiah,"Kamalnath Nagar, Bettiah - BSPCB",10-04-2024 14:00:00,26.80365,84.51954,PM2.5,82,318,159
India,Bihar,Bettiah,"Kamalnath Nagar, Bettiah - BSPCB",10-04-2024 14:00:00,26.80365,84.51954,PM10,93,220,131
India,Bihar,Bhagalpur,"DM Office_Kachari Chowk, Bhagalpur - BSPCB",10-04-2024 14:00:00,25.251013,86.989001,PM2.5,78,302,182
India,Bihar,Bhagalpur,"DM Office_Kachari Chowk, Bhagalpur - BSPCB",10-04-2024 14:00:00,25.251013,86.989001,OZONE,40,51,46
India,Bihar,Bhagalpur,"Mayaganj, Bhagalpur - BSPCB",10-04-2024 14:00:00,25.265194,87.012947,PM10,54,187,114
India,Bihar,Bhagalpur,"Mayaganj, Bhagalpur - BSPCB",10-04-2024 14:00:00,25.265194,87.012947,CO,8,10,9
India,Bihar,Bihar Sharif,"D M Colony, Bihar Sharif - BSPCB",10-04-2024 14:00:00,25.204762,85.514960,PM2.5,33,312,72
India,Bihar,Bihar Sharif,"D M Colony, Bihar Sharif - BSPCB",10-04-2024 14:00:00,25.204762,85.514960,SO2,1,11,5
India,Bihar,Bihar Sharif,"D M Colony, Bihar Sharif - BSPCB",10-04-2024 14:00:00,25.204762,85.514960,CO,42,101,53
India,Bihar,Chhapra,"Darshan Nagar, Chhapra - BSPCB",10-04-2024 14:00:00,25.7808257,84.7446768,NO2,21,32,27
India,Bihar,Gaya,"Kareemganj, Gaya - BSPCB",10-04-2024 14:00:00,24.792403,84.992416,PM10,56,187,106
India,Bihar,Hajipur,"Industrial Area, Hajipur - BSPCB",10-04-2024 14:00:00,25.697189,85.245900,PM10,128,500,278
India,Bihar,Hajipur,"Industrial Area, Hajipur - BSPCB",10-04-2024 14:00:00,25.697189,85.245900,CO,24,88,46
India,Bihar,Katihar,"Mirchaibari, Katihar - BSPCB",10-04-2024 14:00:00,25.560083,87.553265,NH3,6,10,8
India,Bihar,Katihar,"Mirchaibari, Katihar - BSPCB",10-04-2024 14:00:00,25.560083,87.553265,OZONE,10,18,13
India,Bihar,Kishanganj,"SDM Office_Khagra, Kishanganj - BSPCB",10-04-2024 14:00:00,26.0881305,87.93840336,SO2,1,4,2
India,Bihar,Manguraha,"Forest Rest House, Manguraha - BSPCB",10-04-2024 14:00:00,27.308328,84.531742,CO,2,110,30
India,Bihar,Motihari,"Gandak Colony, Motihari - BSPCB",10-04-2024 14:00:00,26.63086,84.90051,PM10,35,413,90
India,Bihar,Munger,"Town Hall, Munger - BSPCB",10-04-2024 14:00:00,25.376776,86.471523,PM2.5,77,338,181
India,Bihar,Munger,"Town Hall, Munger - BSPCB",10-04-2024 14:00:00,25.376776,86.471523,CO,2,2,2
India,Bihar,Munger,"Town Hall, Munger - BSPCB",10-04-2024 14:00:00,25.376776,86.471523,OZONE,27,39,28
India,Bihar,Muzaffarpur,"Muzaffarpur Collectorate, Muzaffarpur - BSPCB",10-04-2024 14:00:00,26.1209,85.3647,OZONE,40,132,48
India,Bihar,Patna,"DRM Office Danapur, Patna - BSPCB",10-04-2024 14:00:00,25.586562,85.043586,NH3,3,3,3
India,Bihar,Patna,"DRM Office Danapur, Patna - BSPCB",10-04-2024 14:00:00,25.586562,85.043586,CO,8,137,29
India,Bihar,Patna,"Govt. High School Shikarpur, Patna - BSPCB",10-04-2024 14:00:00,25.592539,85.227158,PM2.5,58,263,150
India,Bihar,Patna,"Govt. High School Shikarpur, Patna - BSPCB",10-04-2024 14:00:00,25.592539,85.227158,PM10,122,275,182
India,Bihar,Patna,"IGSC Planetarium Complex, Patna - BSPCB",10-04-2024 14:00:00,25.610369,85.132568,SO2,5,6,6
India,Bihar,Patna,"Muradpur, Patna - BSPCB",10-04-2024 14:00:00,25.619651,85.147382,NO2,1,20,14
India,Bihar,Patna,"Muradpur, Patna - BSPCB",10-04-2024 14:00:00,25.619651,85.147382,OZONE,2,82,43
India,Bihar,Patna,"Samanpura, Patna - BSPCB",10-04-2024 14:00:00,25.596727,85.085624,PM10,108,500,271
India,Bihar,Rajgir,"Dangi Tola, Rajgir - BSPCB",10-04-2024 14:00:00,25.03280,85.41948,NO2,19,37,23
India,Bihar,Rajgir,"Dangi Tola, Rajgir - BSPCB",10-04-2024 14:00:00,25.03280,85.41948,NH3,1,2,2
India,Bihar,Rajgir,"Dangi Tola, Rajgir - BSPCB",10-04-2024 14:00:00,25.03280,85.41948,CO,20,60,28
India,Bihar,Rajgir,"Dangi Tola, Rajgir - BSPCB",10-04-2024 14:00:00,25.03280,85.41948,OZONE,32,36,34
India,Bihar,Saharsa,"Police Line, Saharsa - BSPCB",10-04-2024 14:00:00,25.892357,86.590325,NO2,6,9,7
India,Bihar,Saharsa,"Police Line, Saharsa - BSPCB",10-04-2024 14:00:00,25.892357,86.590325,SO2,16,17,16
India,Bihar,Saharsa,"Police Line, Saharsa - BSPCB",10-04-2024 14:00:00,25.892357,86.590325,OZONE,10,67,32
India,Bihar,Samastipur,"DM Office_Kasipur, Samastipur - BSPCB",10-04-2024 14:00:00,25.859655,85.77944,PM2.5,47,373,231
India,Bihar,Samastipur,"DM Office_Kasipur, Samastipur - BSPCB",10-04-2024 14:00:00,25.859655,85.77944,CO,1,37,27
India,Bihar,Siwan,"Chitragupta Nagar, Siwan - BSPCB",10-04-2024 14:00:00,26.2271665,84.3570427,PM10,NA,NA,NA
India,Chandigarh,Chandigarh,"Sector 22, Chandigarh - CPCC",10-04-2024 14:00:00,30.735567,76.775714,NH3,5,10,7
India,Chandigarh,Chandigarh,"Sector 22, Chandigarh - CPCC",10-04-2024 14:00:00,30.735567,76.775714,SO2,5,30,10
India,Chandigarh,Chandigarh,"Sector-25, Chandigarh - CPCC",10-04-2024 14:00:00,30.751462,76.762879,PM10,72,166,111
India,Chandigarh,Chandigarh,"Sector-25, Chandigarh - CPCC",10-04-2024 14:00:00,30.751462,76.762879,CO,9,58,25
India,Chandigarh,Chandigarh,"Sector-53, Chandigarh - CPCC",10-04-2024 14:00:00,30.719859,76.738637,NO2,10,122,54
India,Chandigarh,Chandigarh,"Sector-53, Chandigarh - CPCC",10-04-2024 14:00:00,30.719859,76.738637,CO,34,112,48
India,Chhattisgarh,Bhilai,"Civic Center, Bhilai - Bhilai Steel Plant",10-04-2024 14:00:00,21.185571,81.343175,OZONE,7,54,32
India,Chhattisgarh,Bhilai,"Hathkhoj, Bhilai - CECB",10-04-2024 14:00:00,21.224231,81.408350,PM2.5,20,89,39
India,Chhattisgarh,Bhilai,"Hathkhoj, Bhilai - CECB",10-04-2024 14:00:00,21.224231,81.408350,PM10,28,101,58
India,Chhattisgarh,Bhilai,"Hathkhoj, Bhilai - CECB",10-04-2024 14:00:00,21.224231,81.408350,OZONE,4,21,15
India,Chhattisgarh,Bilaspur,"Mangala, Bilaspur - NTPC",10-04-2024 14:00:00,22.08815,82.13737,PM10,30,96,53
India,Chhattisgarh,Chhal,"Nawapara SECL Colony, Chhal - CECB",10-04-2024 14:00:00,22.118125,83.140608,NH3,2,2,2
India,Chhattisgarh,Chhal,"Nawapara SECL Colony, Chhal - CECB",10-04-2024 14:00:00,22.118125,83.140608,SO2,8,21,15
India,Chhattisgarh,Korba,"Rampur, Korba - CECB",10-04-2024 14:00:00,22.368195,82.746431,NH3,NA,NA,NA
India,Chhattisgarh,Korba,"Rampur, Korba - CECB",10-04-2024 14:00:00,22.368195,82.746431,CO,14,38,29
India,Chhattisgarh,Kunjemura,"OP Jindal School, Kunjemura - CECB",10-04-2024 14:00:00,22.126650,83.483212,PM10,36,343,131
India,Chhattisgarh,Kunjemura,"OP Jindal School, Kunjemura - CECB",10-04-2024 14:00:00,22.126650,83.483212,NO2,34,101,73
India,Chhattisgarh,Milupara,"Govt. Higher Secondary School, Milupara - CECB",10-04-2024 14:00:00,22.1910172,83.5197009,PM10,40,100,64
India,Chhattisgarh,Milupara,"Govt. Higher Secondary School, Milupara - CECB",10-04-2024 14:00:00,22.1910172,83.5197009,NO2,32,80,52
India,Chhattisgarh,Raipur,"Bhatagaon New ISBT, Raipur - CECB",10-04-2024 14:00:00,21.219665,81.630094,OZONE,3,7,4
India,Chhattisgarh,Tumidih,"OP Jindal Industrial Park, Tumidih - CECB",10-04-2024 14:00:00,22.06631475,83.33820077,NH3,1,3,3
India,Delhi,Delhi,"Alipur, Delhi - DPCC",10-04-2024 14:00:00,28.815329,77.153010,PM2.5,51,374,220
India,Delhi,Delhi,"Alipur, Delhi - DPCC",10-04-2024 14:00:00,28.815329,77.153010,PM10,97,290,179
India,Delhi,Delhi,"Alipur, Delhi - DPCC",10-04-2024 14:00:00,28.815329,77.153010,OZONE,7,256,256
India,Delhi,Delhi,"Anand Vihar, Delhi - DPCC",10-04-2024 14:00:00,28.647622,77.3158090,SO2,1,125,25
India,Delhi,Delhi,"Ashok Vihar, Delhi - DPCC",10-04-2024 14:00:00,28.695381,77.181665,PM2.5,42,310,164
India,Delhi,Delhi,"Ashok Vihar, Delhi - DPCC",10-04-2024 14:00:00,28.695381,77.181665,NH3,1,18,7
India,Delhi,Delhi,"Ashok Vihar, Delhi - DPCC",10-04-2024 14:00:00,28.695381,77.181665,CO,8,75,36
India,Delhi,Delhi,"Bawana, Delhi - DPCC",10-04-2024 14:00:00,28.776200,77.051074,SO2,11,53,29
India,Delhi,Delhi,"Bawana, Delhi - DPCC",10-04-2024 14:00:00,28.776200,77.051074,OZONE,5,230,62
India,Delhi,Delhi,"Burari Crossing, Delhi - IMD",10-04-2024 14:00:00,28.7256504,77.2011573,PM10,NA,NA,NA
India,Delhi,Delhi,"Burari Crossing, Delhi - IMD",10-04-2024 14:00:00,28.7256504,77.2011573,NO2,NA,NA,NA
India,Delhi,Delhi,"Burari Crossing, Delhi - IMD",10-04-2024 14:00:00,28.7256504,77.2011573,OZONE,20,196,181
India,Delhi,Delhi,"CRRI Mathura Road, Delhi - IMD",10-04-2024 14:00:00,28.5512005,77.2735737,NO2,NA,NA,NA
India,Delhi,Delhi,"Chandni Chowk, Delhi - IITM",10-04-2024 14:00:00,28.656756,77.227234,PM2.5,139,315,257
India,Delhi,Delhi,"Chandni Chowk, Delhi - IITM",10-04-2024 14:00:00,28.656756,77.227234,PM10,113,212,152
India,Delhi,Delhi,"DTU, Delhi - CPCB",10-04-2024 14:00:00,28.7500499,77.1112615,PM10,84,500,239
India,Delhi,Delhi,"DTU, Delhi - CPCB",10-04-2024 14:00:00,28.7500499,77.1112615,NO2,11,34,22
India,Delhi,Delhi,"Dr. Karni Singh Shooting Range, Delhi - DPCC",10-04-2024 14:00:00,28.498571,77.264840,OZONE,4,260,260
India,Delhi,Delhi,"IGI Airport (T3), Delhi - IMD",10-04-2024 14:00:00,28.5627763,77.1180053,PM2.5,NA,NA,NA
India,Delhi,Delhi,"IHBAS, Dilshad Garden, Delhi - CPCB",10-04-2024 14:00:00,28.6811736,77.3025234,CO,22,58,35
India,Delhi,Delhi,"IHBAS, Dilshad Garden, Delhi - CPCB",10-04-2024 14:00:00,28.6811736,77.3025234,OZONE,9,49,18
India,Delhi,Delhi,"Jahangirpuri, Delhi - DPCC",10-04-2024 14:00:00,28.732820,77.170633,PM2.5,53,399,234
India,Delhi,Delhi,"Jahangirpuri, Delhi - DPCC",10-04-2024 14:00:00,28.732820,77.170633,SO2,14,98,54
India,Delhi,Delhi,"Jahangirpuri, Delhi - DPCC",10-04-2024 14:00:00,28.732820,77.170633,CO,33,110,89
India,Delhi,Delhi,"Jawaharlal Nehru Stadium, Delhi - DPCC",10-04-2024 14:00:00,28.580280,77.233829,CO,24,108,57
India,Delhi,Delhi,"Lodhi Road, Delhi - IITM",10-04-2024 14:00:00,28.588333,77.221667,PM2.5,223,378,319
India,Delhi,Delhi,"Lodhi Road, Delhi - IITM",10-04-2024 14:00:00,28.588333,77.221667,NO2,65,142,102
India,Delhi,Delhi,"Major Dhyan Chand National Stadium, Delhi - DPCC",10-04-2024 14:00:00,28.611281,77.237738,PM2.5,51,311,171
India,Delhi,Delhi,"Major Dhyan Chand National Stadium, Delhi - DPCC",10-04-2024 14:00:00,28.611281,77.237738,CO,7,102,44
India,Delhi,Delhi,"Major Dhyan Chand National Stadium, Delhi - DPCC",10-04-2024 14:00:00,28.611281,77.237738,OZONE,2,259,93
India,Delhi,Delhi,"Mundka, Delhi - DPCC",10-04-2024 14:00:00,28.684678,77.076574,NH3,2,4,3
India,Delhi,Delhi,"Mundka, Delhi - DPCC",10-04-2024 14:00:00,28.684678,77.076574,CO,12,86,54
India,Delhi,Delhi,"Mundka, Delhi - DPCC",10-04-2024 14:00:00,28.684678,77.076574,OZONE,1,266,101
India,Delhi,Delhi,"NSIT Dwarka, Delhi - CPCB",10-04-2024 14:00:00,28.60909,77.0325413,CO,22,68,40
India,Delhi,Delhi,"NSIT Dwarka, Delhi - CPCB",10-04-2024 14:00:00,28.60909,77.0325413,OZONE,3,182,152
India,Delhi,Delhi,"Narela, Delhi - DPCC",10-04-2024 14:00:00,28.822836,77.101981,NH3,5,14,8
India,Delhi,Delhi,"Nehru Nagar, Delhi - DPCC",10-04-2024 14:00:00,28.567890,77.250515,NH3,3,3,3
India,Delhi,Delhi,"Nehru Nagar, Delhi - DPCC",10-04-2024 14:00:00,28.567890,77.250515,OZONE,1,247,238
India,Delhi,Delhi,"Okhla Phase-2, Delhi - DPCC",10-04-2024 14:00:00,28.530785,77.271255,NH3,6,11,8
India,Delhi,Delhi,"Patparganj, Delhi - DPCC",10-04-2024 14:00:00,28.623763,77.287209,NO2,31,102,64
India,Delhi,Delhi,"Pusa, Delhi - DPCC",10-04-2024 14:00:00,28.639652,77.146275,NO2,29,156,109
India,Delhi,Delhi,"Pusa, Delhi - DPCC",10-04-2024 14:00:00,28.639652,77.146275,SO2,8,37,23
India,Delhi,Delhi,"Pusa, Delhi - IMD",10-04-2024 14:00:00,28.636110,77.173332,CO,75,102,100
India,Delhi,Delhi,"Rohini, Delhi - DPCC",10-04-2024 14:00:00,28.732528,77.119920,PM10,87,415,223
India,Delhi,Delhi,"Rohini, Delhi - DPCC",10-04-2024 14:00:00,28.732528,77.119920,SO2,11,47,25
India,Delhi,Delhi,"Rohini, Delhi - DPCC",10-04-2024 14:00:00,28.732528,77.119920,OZONE,6,250,79
India,Delhi,Delhi,"Sonia Vihar, Delhi - DPCC",10-04-2024 14:00:00,28.710508,77.249485,NH3,5,6,5
India,Delhi,Delhi,"Sonia Vihar, Delhi - DPCC",10-04-2024 14:00:00,28.710508,77.249485,CO,49,110,99
India,Delhi,Delhi,"Sri Aurobindo Marg, Delhi - DPCC",10-04-2024 14:00:00,28.531346,77.190156,PM10,86,257,149
India,Delhi,Delhi,"Sri Aurobindo Marg, Delhi - DPCC",10-04-2024 14:00:00,28.531346,77.190156,SO2,12,40,18
India,Delhi,Delhi,"Sri Aurobindo Marg, Delhi - DPCC",10-04-2024 14:00:00,28.531346,77.190156,CO,8,98,41
India,Delhi,Delhi,"Vivek Vihar, Delhi - DPCC",10-04-2024 14:00:00,28.672342,77.315260,OZONE,3,218,76
India,Delhi,Delhi,"Wazirpur, Delhi - DPCC",10-04-2024 14:00:00,28.699793,77.165453,PM2.5,51,321,198
India,Delhi,Delhi,"Wazirpur, Delhi - DPCC",10-04-2024 14:00:00,28.699793,77.165453,NO2,64,209,135
India,Delhi,Delhi,"Wazirpur, Delhi - DPCC",10-04-2024 14:00:00,28.699793,77.165453,OZONE,6,222,222
India,Gujarat,Ahmedabad,"Chandkheda, Ahmedabad - IITM",10-04-2024 14:00:00,23.107969,72.574648,PM10,61,232,122
India,Gujarat,Ahmedabad,"Chandkheda, Ahmedabad - IITM",10-04-2024 14:00:00,23.107969,72.574648,CO,1,115,15
India,Gujarat,Ahmedabad,"Gyaspur, Ahmedabad - IITM",10-04-2024 14:00:00,22.977134,72.553024,PM10,94,440,192
India,Gujarat,Ahmedabad,"Gyaspur, Ahmedabad - IITM",10-04-2024 14:00:00,22.977134,72.553024,NO2,20,67,36
India,Gujarat,Ahmedabad,"Maninagar, Ahmedabad - GPCB",10-04-2024 14:00:00,23.002657,72.591912,PM2.5,7,334,181
India,Gujarat,Ahmedabad,"Maninagar, Ahmedabad - GPCB",10-04-2024 14:00:00,23.002657,72.591912,NO2,27,113,57
India,Gujarat,Ahmedabad,"Maninagar, Ahmedabad - GPCB",10-04-2024 14:00:00,23.002657,72.591912,SO2,NA,NA,NA
India,Gujarat,Ahmedabad,"Raikhad, Ahmedabad - IITM",10-04-2024 14:00:00,23.020509,72.579261,NH3,1,5,3
India,Gujarat,Ahmedabad,"Raikhad, Ahmedabad - IITM",10-04-2024 14:00:00,23.020509,72.579261,SO2,7,45,16
India,Gujarat,Ahmedabad,"Rakhial, Ahmedabad - IITM",10-04-2024 14:00:00,23.016834,72.625775,PM10,84,203,128
India,Gujarat,Ahmedabad,"Rakhial, Ahmedabad - IITM",10-04-2024 14:00:00,23.016834,72.625775,NO2,6,62,18
India,Gujarat,Ahmedabad,"Rakhial, Ahmedabad - IITM",10-04-2024 14:00:00,23.016834,72.625775,SO2,8,87,23
India,Gujarat,Ahmedabad,"SVPI Airport Hansol, Ahmedabad - IITM",10-04-2024 14:00:00,23.076793,72.627874,PM2.5,70,306,121
India,Gujarat,Ahmedabad,"SVPI Airport Hansol, Ahmedabad - IITM",10-04-2024 14:00:00,23.076793,72.627874,NH3,4,5,4
India,Gujarat,Ahmedabad,"SVPI Airport Hansol, Ahmedabad - IITM",10-04-2024 14:00:00,23.076793,72.627874,SO2,6,25,14
India,Gujarat,Ahmedabad,"Sardar Vallabhbhai Patel Stadium, Ahmedabad - IITM",10-04-2024 14:00:00,23.043070,72.562968,PM2.5,68,273,134
India,Gujarat,Ankleshwar,"GIDC, Ankleshwar - GPCB",10-04-2024 14:00:00,21.613267,73.010555,PM10,52,86,68
India,Gujarat,Ankleshwar,"GIDC, Ankleshwar - GPCB",10-04-2024 14:00:00,21.613267,73.010555,CO,48,84,74
India,Gujarat,Gandhinagar,"Sector-10, Gandhinagar - GPCB",10-04-2024 14:00:00,23.221714,72.654328,NO2,16,27,20
India,Gujarat,Gandhinagar,"Sector-10, Gandhinagar - GPCB",10-04-2024 14:00:00,23.221714,72.654328,SO2,6,13,7
India,Gujarat,Gandhinagar,"Sector-10, Gandhinagar - GPCB",10-04-2024 14:00:00,23.221714,72.654328,OZONE,2,85,32
India,Gujarat,Nandesari,"GIDC, Nandesari - Nandesari Ind. Association",10-04-2024 14:00:00,22.410802,73.097923,PM2.5,87,375,230
India,Gujarat,Nandesari,"GIDC, Nandesari - Nandesari Ind. Association",10-04-2024 14:00:00,22.410802,73.097923,NO2,4,62,20
India,Gujarat,Surat,"Science Center, Surat - SMC",10-04-2024 14:00:00,21.170046,72.795405,PM10,NA,NA,NA
India,Gujarat,Vapi,"Phase-1 GIDC, Vapi - GPCB",10-04-2024 14:00:00,20.362421,72.918013,PM10,42,90,61
India,Gujarat,Vatva,"Phase-4 GIDC, Vatva - GPCB",10-04-2024 14:00:00,22.969611,72.643500,PM2.5,18,224,108
India,Haryana,Ambala,"Patti Mehar, Ambala - HSPCB",10-04-2024 14:00:00,30.379589,76.778328,PM10,35,102,62
India,Haryana,Ambala,"Patti Mehar, Ambala - HSPCB",10-04-2024 14:00:00,30.379589,76.778328,NO2,8,21,14
India,Haryana,Ambala,"Patti Mehar, Ambala - HSPCB",10-04-2024 14:00:00,30.379589,76.778328,SO2,6,100,64
India,Haryana,Bahadurgarh,"Arya Nagar, Bahadurgarh - HSPCB",10-04-2024 14:00:00,28.6701,76.9254,PM10,64,399,169
India,Haryana,Bahadurgarh,"Arya Nagar, Bahadurgarh - HSPCB",10-04-2024 14:00:00,28.6701,76.9254,NH3,11,12,11
India,Haryana,Bahadurgarh,"Arya Nagar, Bahadurgarh - HSPCB",10-04-2024 14:00:00,28.6701,76.9254,SO2,4,82,25
India,Haryana,Bahadurgarh,"Arya Nagar, Bahadurgarh - HSPCB",10-04-2024 14:00:00,28.6701,76.9254,CO,38,60,50
India,Haryana,Ballabgarh,"Nathu Colony, Ballabgarh - HSPCB",10-04-2024 14:00:00,28.3419248,77.319699,PM2.5,71,310,221
India,Haryana,Ballabgarh,"Nathu Colony, Ballabgarh - HSPCB",10-04-2024 14:00:00,28.3419248,77.319699,NO2,11,13,12
India,Haryana,Ballabgarh,"Nathu Colony, Ballabgarh - HSPCB",10-04-2024 14:00:00,28.3419248,77.319699,SO2,6,44,26
India,Haryana,Bhiwani,"H.B. Colony, Bhiwani - HSPCB",10-04-2024 14:00:00,28.806223,76.141105,NO2,6,11,9
India,Haryana,Charkhi Dadri,"Mini Secretariat, Charkhi Dadri - HSPCB",10-04-2024 14:00:00,28.593883,76.270653,NH3,6,8,7
India,Haryana,Dharuhera,"Municipal Corporation Office, Dharuhera -  HSPCB",10-04-2024 14:00:00,28.206800,76.799700,PM2.5,15,308,149
India,Haryana,Dharuhera,"Municipal Corporation Office, Dharuhera -  HSPCB",10-04-2024 14:00:00,28.206800,76.799700,NO2,45,113,70
India,Haryana,Faridabad,"New Industrial Town, Faridabad - HSPCB",10-04-2024 14:00:00,28.39072,77.30059,CO,12,77,33
India,Haryana,Faridabad,"Sector 11, Faridabad - HSPCB",10-04-2024 14:00:00,28.376058,77.315741,PM2.5,65,469,279
India,Haryana,Faridabad,"Sector 11, Faridabad - HSPCB",10-04-2024 14:00:00,28.376058,77.315741,CO,29,69,43
India,Haryana,Faridabad,"Sector 11, Faridabad - HSPCB",10-04-2024 14:00:00,28.376058,77.315741,OZONE,4,27,11
India,Haryana,Faridabad,"Sector 30, Faridabad - HSPCB",10-04-2024 14:00:00,28.4417,77.3217,PM2.5,NA,NA,NA
India,Haryana,Faridabad,"Sector- 16A, Faridabad - HSPCB",10-04-2024 14:00:00,28.4088421,77.3099081,SO2,6,27,21
India,Haryana,Fatehabad,"Huda Sector, Fatehabad - HSPCB",10-04-2024 14:00:00,29.503664,75.467934,PM10,47,112,70
India,Haryana,Fatehabad,"Huda Sector, Fatehabad - HSPCB",10-04-2024 14:00:00,29.503664,75.467934,OZONE,31,92,74
India,Haryana,Gurugram,"Sector-51, Gurugram - HSPCB",10-04-2024 14:00:00,28.4227,77.0667,PM10,10,327,182
India,Haryana,Gurugram,"Sector-51, Gurugram - HSPCB",10-04-2024 14:00:00,28.4227,77.0667,CO,29,85,66
India,Haryana,Gurugram,"Teri Gram, Gurugram - HSPCB",10-04-2024 14:00:00,28.4275,77.1465,NO2,33,72,45
India,Haryana,Gurugram,"Teri Gram, Gurugram - HSPCB",10-04-2024 14:00:00,28.4275,77.1465,SO2,3,5,4
India,Haryana,Gurugram,"Teri Gram, Gurugram - HSPCB",10-04-2024 14:00:00,28.4275,77.1465,OZONE,6,45,21
India,Haryana,Gurugram,"Vikas Sadan, Gurugram - HSPCB",10-04-2024 14:00:00,28.4501238,77.0263051,PM2.5,91,500,237
India,Haryana,Hisar,"Urban Estate-II, Hisar - HSPCB",10-04-2024 14:00:00,29.140560,75.744941,PM2.5,34,253,95
India,Haryana,Hisar,"Urban Estate-II, Hisar - HSPCB",10-04-2024 14:00:00,29.140560,75.744941,NH3,9,12,10
India,Haryana,Hisar,"Urban Estate-II, Hisar - HSPCB",10-04-2024 14:00:00,29.140560,75.744941,CO,15,48,30
India,Haryana,Jind,"Police Lines, Jind - HSPCB",10-04-2024 14:00:00,29.307814,76.337619,SO2,3,66,16
India,Haryana,Karnal,"Sector-12, Karnal - HSPCB",10-04-2024 14:00:00,29.695300,77.002700,SO2,5,28,13
India,Haryana,Mandikhera,"General Hospital, Mandikhera - HSPCB",10-04-2024 14:00:00,27.9002,76.9938,SO2,32,38,35
India,Haryana,Manesar,"Sector-2 IMT, Manesar - HSPCB",10-04-2024 14:00:00,28.360699,76.936090,PM10,51,145,97
India,Haryana,Narnaul,"Shastri Nagar, Narnaul - HSPCB",10-04-2024 14:00:00,28.060249,76.113115,PM10,37,141,69
India,Haryana,Narnaul,"Shastri Nagar, Narnaul - HSPCB",10-04-2024 14:00:00,28.060249,76.113115,NO2,12,75,35
India,Haryana,Narnaul,"Shastri Nagar, Narnaul - HSPCB",10-04-2024 14:00:00,28.060249,76.113115,CO,7,50,35
India,Haryana,Palwal,"Shyam Nagar, Palwal - HSPCB",10-04-2024 14:00:00,28.1485564,77.3320667,PM2.5,60,96,76
India,Haryana,Panchkula,"Sector-6, Panchkula - HSPCB ",10-04-2024 14:00:00,30.7057778,76.8531805555555,SO2,2,13,4
India,Haryana,Panchkula,"Sector-6, Panchkula - HSPCB ",10-04-2024 14:00:00,30.7057778,76.8531805555555,CO,3,24,13
India,Haryana,Sirsa,"F-Block, Sirsa - HSPCB",10-04-2024 14:00:00,29.536400,75.015800,PM2.5,24,83,47
India,Haryana,Sirsa,"F-Block, Sirsa - HSPCB",10-04-2024 14:00:00,29.536400,75.015800,CO,28,46,43
India,Haryana,Sirsa,"F-Block, Sirsa - HSPCB",10-04-2024 14:00:00,29.536400,75.015800,OZONE,52,144,89
India,Haryana,Sonipat,"Murthal, Sonipat - HSPCB",10-04-2024 14:00:00,29.027200,77.062100,NH3,7,10,9
India,Haryana,Yamuna Nagar,"Gobind Pura, Yamuna Nagar - HSPCB",10-04-2024 14:00:00,30.1480566,77.2893471,PM10,68,132,98
India,Himachal Pradesh,Baddi,"HIMUDA Complex Phase-1, Baddi - HPPCB",10-04-2024 14:00:00,30.943887,76.801991,CO,10,56,22
India,Jharkhand,Dhanbad,"Kalakusuma, Dhanbad - DMC",10-04-2024 14:00:00,23.811548,86.481238,PM10,58,327,142
India,Jharkhand,Dhanbad,"Sardar Patel Nagar, Dhanbad - JSPCB",10-04-2024 14:00:00,23.80569,86.44268,PM2.5,3,301,84
India,Jharkhand,Dhanbad,"Sardar Patel Nagar, Dhanbad - JSPCB",10-04-2024 14:00:00,23.80569,86.44268,NO2,NA,NA,NA
India,Jharkhand,Pathardih,"Mohalbani Ghat, Pathardih - DMC",10-04-2024 14:00:00,23.669880,86.411725,OZONE,11,35,20
India,Karnataka,Bagalkot,"Vidayagiri, Bagalkot - KSPCB",10-04-2024 14:00:00,16.172806,75.659694,NO2,9,10,9
India,Karnataka,Bagalkot,"Vidayagiri, Bagalkot - KSPCB",10-04-2024 14:00:00,16.172806,75.659694,NH3,1,2,1
India,Karnataka,Bagalkot,"Vidayagiri, Bagalkot - KSPCB",10-04-2024 14:00:00,16.172806,75.659694,CO,17,57,35
India,Karnataka,Belgaum,"Ramteerth Nagar, Belgaum - KSPCB",10-04-2024 14:00:00,15.888653,74.541751,PM2.5,30,72,44
India,Karnataka,Bengaluru,"BTM Layout, Bengaluru - CPCB",10-04-2024 14:00:00,12.9135218,77.5950804,SO2,NA,NA,NA
India,Karnataka,Bengaluru,"Bapuji Nagar, Bengaluru - KSPCB",10-04-2024 14:00:00,12.951913,77.539784,NO2,7,11,11
India,Karnataka,Bengaluru,"Bapuji Nagar, Bengaluru - KSPCB",10-04-2024 14:00:00,12.951913,77.539784,NH3,1,1,1
India,Karnataka,Bengaluru,"Hebbal, Bengaluru - KSPCB",10-04-2024 14:00:00,13.029152,77.585901,PM2.5,NA,NA,NA
India,Karnataka,Bengaluru,"Hebbal, Bengaluru - KSPCB",10-04-2024 14:00:00,13.029152,77.585901,SO2,NA,NA,NA
India,Karnataka,Bengaluru,"Hebbal, Bengaluru - KSPCB",10-04-2024 14:00:00,13.029152,77.585901,OZONE,12,98,50
India,Karnataka,Bengaluru,"Hombegowda Nagar, Bengaluru - KSPCB",10-04-2024 14:00:00,12.938539,77.590100,NO2,8,20,13
India,Karnataka,Bengaluru,"Jayanagar 5th Block, Bengaluru - KSPCB",10-04-2024 14:00:00,12.920984,77.584908,PM10,73,124,96
India,Karnataka,Bengaluru,"Kasturi Nagar, Bengaluru - KSPCB",10-04-2024 14:00:00,13.003872,77.664217,NO2,16,17,17
India,Karnataka,Bengaluru,"Kasturi Nagar, Bengaluru - KSPCB",10-04-2024 14:00:00,13.003872,77.664217,OZONE,19,100,48
India,Karnataka,Bengaluru,"Peenya, Bengaluru - CPCB",10-04-2024 14:00:00,13.0270199,77.494094,PM10,NA,NA,NA
India,Karnataka,Bengaluru,"RVCE-Mailasandra, Bengaluru - KSPCB",10-04-2024 14:00:00,12.921418,77.502466,PM2.5,29,152,93
India,Karnataka,Bengaluru,"Silk Board, Bengaluru - KSPCB",10-04-2024 14:00:00,12.917348,77.622813,SO2,3,11,8
India,Karnataka,Bengaluru,"Silk Board, Bengaluru - KSPCB",10-04-2024 14:00:00,12.917348,77.622813,CO,13,28,17
India,Karnataka,Bidar,"Naubad, Bidar - KSPCB",10-04-2024 14:00:00,17.930306,77.482194,NO2,7,8,8
India,Karnataka,Bidar,"Naubad, Bidar - KSPCB",10-04-2024 14:00:00,17.930306,77.482194,NH3,2,3,3
India,Karnataka,Chikkamagaluru,"Kalyana Nagara, Chikkamagaluru - KSPCB",10-04-2024 14:00:00,13.328028,75.797056,NH3,2,3,2
India,Karnataka,Chikkamagaluru,"Kalyana Nagara, Chikkamagaluru - KSPCB",10-04-2024 14:00:00,13.328028,75.797056,SO2,1,9,2
India,Karnataka,Chikkamagaluru,"Kalyana Nagara, Chikkamagaluru - KSPCB",10-04-2024 14:00:00,13.328028,75.797056,CO,4,109,20
India,Karnataka,Davanagere,"Devaraj Urs Badavane, Davanagere - KSPCB",10-04-2024 14:00:00,14.475800,75.905200,NO2,12,16,13
India,Karnataka,Dharwad,"Kalabhavan, Dharwad - KSPCB",10-04-2024 14:00:00,15.459706,75.008381,OZONE,2,73,16
India,Karnataka,Hassan,"B.Katihalli, Hassan - KSPCB",10-04-2024 14:00:00,13.008556,76.125258,NO2,NA,NA,NA
India,Karnataka,Haveri,"Ashwini Nagar, Haveri - KSPCB",10-04-2024 14:00:00,14.791800,75.389600,OZONE,18,26,20
India,Karnataka,Hubballi,"Deshpande Nagar, Hubballi - KSPCB",10-04-2024 14:00:00,15.351773,75.140726,OZONE,1,10,2
India,Karnataka,Hubballi,"Lingaraj Nagar, Hubballi - KSPCB",10-04-2024 14:00:00,15.3714823,75.1160168,NO2,5,13,10
India,Karnataka,Hubballi,"Lingaraj Nagar, Hubballi - KSPCB",10-04-2024 14:00:00,15.3714823,75.1160168,NH3,2,4,3
India,Karnataka,Kalaburagi,"Lal Bahadur Shastri Nagar, Kalaburagi - KSPCB",10-04-2024 14:00:00,17.321993,76.822628,SO2,13,16,15
India,Karnataka,Kolar,"Tamaka Ind. Area, Kolar - KSPCB",10-04-2024 14:00:00,13.1276288,78.1570122,NO2,7,20,14
India,Karnataka,Koppal,"Diwator Nagar, Koppal - KSPCB",10-04-2024 14:00:00,15.347630,76.181767,PM2.5,20,65,42
India,Karnataka,Madikeri,"Stuart Hill, Madikeri - KSPCB",10-04-2024 14:00:00,12.415911,75.735050,PM2.5,28,58,40
India,Karnataka,Madikeri,"Stuart Hill, Madikeri - KSPCB",10-04-2024 14:00:00,12.415911,75.735050,NH3,1,2,1
India,Karnataka,Madikeri,"Stuart Hill, Madikeri - KSPCB",10-04-2024 14:00:00,12.415911,75.735050,OZONE,26,65,43
India,Karnataka,Mangalore,"Kadri, Mangalore - KSPCB",10-04-2024 14:00:00,12.889250,74.853000,OZONE,30,34,32
India,Karnataka,Tumakuru,"Thimmalapura, Tumakuru - KSPCB",10-04-2024 14:00:00,13.377516,77.099072,PM10,NA,NA,NA
India,Karnataka,Tumakuru,"Thimmalapura, Tumakuru - KSPCB",10-04-2024 14:00:00,13.377516,77.099072,SO2,8,13,9
India,Karnataka,Tumakuru,"Thimmalapura, Tumakuru - KSPCB",10-04-2024 14:00:00,13.377516,77.099072,OZONE,13,54,34
India,Karnataka,Yadgir,"Collector Office, Yadgir - KSPCB",10-04-2024 14:00:00,16.7602,77.1428,PM2.5,NA,NA,NA
India,Karnataka,Yadgir,"Collector Office, Yadgir - KSPCB",10-04-2024 14:00:00,16.7602,77.1428,CO,16,20,18
India,Kerala,Eloor,"Udyogamandal, Eloor - Kerala PCB",10-04-2024 14:00:00,10.073232,76.302765,NH3,1,1,1
