country,state,city,station,last_update,latitude,longitude,pollutant_id,pollutant_min,pollutant_max,pollutant_avg
India,Andhra_Pradesh,Anantapur,"Gulzarpet, Anantapur - APPCB",10-03-2024 09:00:00,14.675886,77.593027,PM10,70,95,83
India,Andhra_Pradesh,Anantapur,"Gulzarpet, Anantapur - APPCB",10-03-2024 09:00:00,14.675886,77.593027,OZONE,7,62,15
India,Andhra_Pradesh,Chittoor,"Gangineni Cheruvu, Chittoor - APPCB",10-03-2024 09:00:00,13.204880,79.097889,PM10,47,72,60
India,Andhra_Pradesh,Kadapa,"Yerramukkapalli, Kadapa - APPCB",10-03-2024 09:00:00,14.465052,78.824187,SO2,2,3,2
India,Andhra_Pradesh,Kadapa,"Yerramukkapalli, Kadapa - APPCB",10-03-2024 09:00:00,14.465052,78.824187,OZONE,14,86,21
India,Andhra_Pradesh,Rajamahendravaram,"Anand Kala Kshetram, Rajamahendravaram - APPCB",10-03-2024 09:00:00,16.9872867,81.7363176,NH3,3,6,4
India,Andhra_Pradesh,Rajamahendravaram,"Anand Kala Kshetram, Rajamahendravaram - APPCB",10-03-2024 09:00:00,16.9872867,81.7363176,OZONE,14,30,17
India,Andhra_Pradesh,Tirupati,"Tirumala, Tirupati - APPCB",10-03-2024 09:00:00,13.67,79.35,PM2.5,49,124,76
India,Andhra_Pradesh,Tirupati,"Vaikuntapuram, Tirupati - APPCB",10-03-2024 09:00:00,13.615387,79.409230,NH3,2,3,3
India,Andhra_Pradesh,Vijayawada,"HB Colony, Vijayawada - APPCB",10-03-2024 09:00:00,16.536107,80.594233,NH3,4,4,4
India,Andhra_Pradesh,Vijayawada,"HB Colony, Vijayawada - APPCB",10-03-2024 09:00:00,16.536107,80.594233,CO,31,38,31
India,Andhra_Pradesh,Vijayawada,"Kanuru, Vijayawada - APPCB",10-03-2024 09:00:00,16.486692,80.699436,PM2.5,62,73,68
India,Andhra_Pradesh,Vijayawada,"Rajiv Gandhi Park, Vijayawada - APPCB",10-03-2024 09:00:00,16.509717,80.612222,OZONE,2,55,4
India,Andhra_Pradesh,Vijayawada,"Rajiv Nagar, Vijayawada - APPCB",10-03-2024 09:00:00,16.554731,80.649110,CO,34,34,34
India,Arunachal_Pradesh,Naharlagun,"Naharlagun, Naharlagun - APSPCB",10-03-2024 09:00:00,27.103358,93.679645,PM2.5,62,192,85
India,Assam,Guwahati,"Pan Bazaar, Guwahati - PCBA",10-03-2024 09:00:00,26.187500,91.744194,PM2.5,70,290,172
India,Assam,Guwahati,"Pan Bazaar, Guwahati - PCBA",10-03-2024 09:00:00,26.187500,91.744194,SO2,66,90,79
India,Assam,Guwahati,"Railway Colony, Guwahati - PCBA",10-03-2024 09:00:00,26.181742,91.78063,PM10,94,419,196
India,Assam,Nagaon,"Christianpatty, Nagaon - PCBA",10-03-2024 09:00:00,26.349082,92.68449,PM10,103,407,173
India,Assam,Nalbari,"Bata Chowk, Nalbari - PCBA",10-03-2024 09:00:00,26.446912,91.439057,PM10,95,426,196
India,Assam,Silchar,"Tarapur, Silchar - PCBA",10-03-2024 09:00:00,24.82827,92.79525,OZONE,NA,NA,NA
India,Assam,Sivasagar,"Girls College, Sivasagar - PCBA",10-03-2024 09:00:00,26.987634,94.636574,CO,26,42,32
India,Bihar,Araria,"Kharahiya Basti, Araria - BSPCB",10-03-2024 09:00:00,26.146529,87.454184,OZONE,9,11,10
India,Bihar,Arrah,"New DM Office, Arrah - BSPCB",10-03-2024 09:00:00,25.5626095,84.663264,PM2.5,40,123,72
India,Bihar,Arrah,"New DM Office, Arrah - BSPCB",10-03-2024 09:00:00,25.5626095,84.663264,CO,4,17,11
India,Bihar,Aurangabad,"Gurdeo Nagar, Aurangabad - BSPCB",10-03-2024 09:00:00,24.75746,84.366208,PM2.5,8,140,67
India,Bihar,Aurangabad,"Gurdeo Nagar, Aurangabad - BSPCB",10-03-2024 09:00:00,24.75746,84.366208,PM10,49,153,83
India,Bihar,Aurangabad,"Gurdeo Nagar, Aurangabad - BSPCB",10-03-2024 09:00:00,24.75746,84.366208,NH3,6,8,7
India,Bihar,Bettiah,"Kamalnath Nagar, Bettiah - BSPCB",10-03-2024 09:00:00,26.80365,84.51954,SO2,9,16,12
India,Bihar,Bettiah,"Kamalnath Nagar, Bettiah - BSPCB",10-03-2024 09:00:00,26.80365,84.51954,OZONE,6,18,8
India,Bihar,Bhagalpur,"DM Office_Kachari Chowk, Bhagalpur - BSPCB",10-03-2024 09:00:00,25.251013,86.989001,PM2.5,43,147,72
India,Bihar,Bhagalpur,"DM Office_Kachari Chowk, Bhagalpur - BSPCB",10-03-2024 09:00:00,25.251013,86.989001,PM10,90,160,120
India,Bihar,Bhagalpur,"DM Office_Kachari Chowk, Bhagalpur - BSPCB",10-03-2024 09:00:00,25.251013,86.989001,NH3,7,9,8
India,Bihar,Bhagalpur,"Mayaganj, Bhagalpur - BSPCB",10-03-2024 09:00:00,25.265194,87.012947,CO,8,10,9
India,Bihar,Bhagalpur,"Mayaganj, Bhagalpur - BSPCB",10-03-2024 09:00:00,25.265194,87.012947,OZONE,26,101,45
India,Bihar,Bihar Sharif,"D M Colony, Bihar Sharif - BSPCB",10-03-2024 09:00:00,25.204762,85.514960,PM10,NA,NA,NA
India,Bihar,Bihar Sharif,"D M Colony, Bihar Sharif - BSPCB",10-03-2024 09:00:00,25.204762,85.514960,NO2,NA,NA,NA
India,Bihar,Buxar,"Charitra Van, Buxar - BSPCB (Formerly known as Central Jail)",10-03-2024 09:00:00,25.567520,83.966379,PM10,NA,NA,NA
India,Bihar,Gaya,"Collectorate, Gaya - BSPCB",10-03-2024 09:00:00,24.7955,84.9994,NO2,1,3,2
India,Bihar,Gaya,"Kareemganj, Gaya - BSPCB",10-03-2024 09:00:00,24.792403,84.992416,NO2,30,31,30
India,Bihar,Gaya,"SFTI Kusdihra, Gaya - BSPCB",10-03-2024 09:00:00,24.762518,84.982348,CO,16,39,28
India,Bihar,Hajipur,"Industrial Area, Hajipur - BSPCB",10-03-2024 09:00:00,25.697189,85.245900,OZONE,7,52,17
India,Bihar,Katihar,"Mirchaibari, Katihar - BSPCB",10-03-2024 09:00:00,25.560083,87.553265,NO2,11,29,20
India,Bihar,Katihar,"Mirchaibari, Katihar - BSPCB",10-03-2024 09:00:00,25.560083,87.553265,SO2,20,24,22
India,Bihar,Katihar,"Mirchaibari, Katihar - BSPCB",10-03-2024 09:00:00,25.560083,87.553265,CO,12,108,83
India,Bihar,Katihar,"Mirchaibari, Katihar - BSPCB",10-03-2024 09:00:00,25.560083,87.553265,OZONE,22,26,25
India,Bihar,Kishanganj,"SDM Office_Khagra, Kishanganj - BSPCB",10-03-2024 09:00:00,26.0881305,87.93840336,SO2,21,38,33
India,Bihar,Kishanganj,"SDM Office_Khagra, Kishanganj - BSPCB",10-03-2024 09:00:00,26.0881305,87.93840336,OZONE,12,29,27
India,Bihar,Manguraha,"Forest Rest House, Manguraha - BSPCB",10-03-2024 09:00:00,27.308328,84.531742,SO2,3,3,3
India,Bihar,Motihari,"Gandak Colony, Motihari - BSPCB",10-03-2024 09:00:00,26.63086,84.90051,NO2,43,92,75
India,Bihar,Munger,"Town Hall, Munger - BSPCB",10-03-2024 09:00:00,25.376776,86.471523,NH3,1,2,2
India,Bihar,Muzaffarpur,"Buddha Colony, Muzaffarpur - BSPCB",10-03-2024 09:00:00,26.11442,85.39813,SO2,NA,NA,NA
India,Bihar,Patna,"DRM Office Danapur, Patna - BSPCB",10-03-2024 09:00:00,25.586562,85.043586,NH3,3,4,4
India,Bihar,Patna,"DRM Office Danapur, Patna - BSPCB",10-03-2024 09:00:00,25.586562,85.043586,SO2,8,11,9
India,Bihar,Patna,"Govt. High School Shikarpur, Patna - BSPCB",10-03-2024 09:00:00,25.592539,85.227158,PM10,114,163,136
India,Bihar,Patna,"Muradpur, Patna - BSPCB",10-03-2024 09:00:00,25.619651,85.147382,PM2.5,71,289,145
India,Bihar,Patna,"Muradpur, Patna - BSPCB",10-03-2024 09:00:00,25.619651,85.147382,SO2,8,16,12
India,Bihar,Patna,"Rajbansi Nagar, Patna - BSPCB",10-03-2024 09:00:00,25.599486,85.113666,SO2,1,11,5
India,Bihar,Patna,"Rajbansi Nagar, Patna - BSPCB",10-03-2024 09:00:00,25.599486,85.113666,CO,27,88,60
India,Bihar,Patna,"Samanpura, Patna - BSPCB",10-03-2024 09:00:00,25.596727,85.085624,PM2.5,46,438,176
India,Bihar,Patna,"Samanpura, Patna - BSPCB",10-03-2024 09:00:00,25.596727,85.085624,NH3,2,8,4
India,Bihar,Patna,"Samanpura, Patna - BSPCB",10-03-2024 09:00:00,25.596727,85.085624,CO,70,141,110
India,Bihar,Purnia,"Mariam Nagar, Purnia - BSPCB",10-03-2024 09:00:00,25.366336,87.117468,PM2.5,28,160,85
India,Bihar,Rajgir,"Dangi Tola, Rajgir - BSPCB",10-03-2024 09:00:00,25.03280,85.41948,PM10,30,98,55
India,Bihar,Rajgir,"Dangi Tola, Rajgir - BSPCB",10-03-2024 09:00:00,25.03280,85.41948,SO2,3,4,4
India,Bihar,Saharsa,"Police Line, Saharsa - BSPCB",10-03-2024 09:00:00,25.892357,86.590325,PM10,41,161,92
India,Bihar,Saharsa,"Police Line, Saharsa - BSPCB",10-03-2024 09:00:00,25.892357,86.590325,SO2,16,17,16
India,Bihar,Samastipur,"DM Office_Kasipur, Samastipur - BSPCB",10-03-2024 09:00:00,25.859655,85.77944,PM2.5,17,93,54
India,Bihar,Samastipur,"DM Office_Kasipur, Samastipur - BSPCB",10-03-2024 09:00:00,25.859655,85.77944,CO,18,54,24
India,Bihar,Sasaram,"Dada Peer, Sasaram - BSPCB",10-03-2024 09:00:00,24.952822,84.002396,SO2,21,27,24
India,Bihar,Sasaram,"Dada Peer, Sasaram - BSPCB",10-03-2024 09:00:00,24.952822,84.002396,OZONE,20,96,41
India,Bihar,Siwan,"Chitragupta Nagar, Siwan - BSPCB",10-03-2024 09:00:00,26.2271665,84.3570427,PM2.5,37,190,95
India,Bihar,Siwan,"Chitragupta Nagar, Siwan - BSPCB",10-03-2024 09:00:00,26.2271665,84.3570427,NO2,11,48,20
India,Bihar,Siwan,"Chitragupta Nagar, Siwan - BSPCB",10-03-2024 09:00:00,26.2271665,84.3570427,OZONE,46,109,59
India,Chandigarh,Chandigarh,"Sector 22, Chandigarh - CPCC",10-03-2024 09:00:00,30.735567,76.775714,PM2.5,50,302,134
India,Chandigarh,Chandigarh,"Sector-25, Chandigarh - CPCC",10-03-2024 09:00:00,30.751462,76.762879,PM2.5,89,198,135
India,Chandigarh,Chandigarh,"Sector-25, Chandigarh - CPCC",10-03-2024 09:00:00,30.751462,76.762879,NO2,7,54,18
India,Chandigarh,Chandigarh,"Sector-25, Chandigarh - CPCC",10-03-2024 09:00:00,30.751462,76.762879,CO,14,53,27
India,Chandigarh,Chandigarh,"Sector-53, Chandigarh - CPCC",10-03-2024 09:00:00,30.719859,76.738637,NH3,5,7,5
India,Chandigarh,Chandigarh,"Sector-53, Chandigarh - CPCC",10-03-2024 09:00:00,30.719859,76.738637,SO2,9,17,12
India,Chandigarh,Chandigarh,"Sector-53, Chandigarh - CPCC",10-03-2024 09:00:00,30.719859,76.738637,CO,37,109,49
India,Chhattisgarh,Bhilai,"Civic Center, Bhilai - Bhilai Steel Plant",10-03-2024 09:00:00,21.185571,81.343175,PM10,NA,NA,NA
India,Chhattisgarh,Bhilai,"Hathkhoj, Bhilai - CECB",10-03-2024 09:00:00,21.224231,81.408350,SO2,17,50,30
India,Chhattisgarh,Bilaspur,"Mangala, Bilaspur - NTPC",10-03-2024 09:00:00,22.08815,82.13737,PM2.5,17,52,28
India,Chhattisgarh,Bilaspur,"Mangala, Bilaspur - NTPC",10-03-2024 09:00:00,22.08815,82.13737,SO2,13,21,18
India,Chhattisgarh,Chhal,"Nawapara SECL Colony, Chhal - CECB",10-03-2024 09:00:00,22.118125,83.140608,NO2,13,44,24
India,Chhattisgarh,Korba,"Rampur, Korba - CECB",10-03-2024 09:00:00,22.368195,82.746431,CO,10,26,21
India,Chhattisgarh,Korba,"Urja Nagar, Korba - CECB",10-03-2024 09:00:00,22.348441,82.549611,PM2.5,11,80,36
India,Chhattisgarh,Korba,"Urja Nagar, Korba - CECB",10-03-2024 09:00:00,22.348441,82.549611,NH3,5,9,6
India,Chhattisgarh,Kunjemura,"OP Jindal School, Kunjemura - CECB",10-03-2024 09:00:00,22.126650,83.483212,PM2.5,25,246,63
India,Chhattisgarh,Kunjemura,"OP Jindal School, Kunjemura - CECB",10-03-2024 09:00:00,22.126650,83.483212,PM10,30,429,142
India,Chhattisgarh,Milupara,"Govt. Higher Secondary School, Milupara - CECB",10-03-2024 09:00:00,22.1910172,83.5197009,SO2,NA,NA,NA
India,Chhattisgarh,Raipur,"AIIMS, Raipur - CECB",10-03-2024 09:00:00,21.258815,81.578979,CO,29,67,45
India,Chhattisgarh,Raipur,"Bhatagaon New ISBT, Raipur - CECB",10-03-2024 09:00:00,21.219665,81.630094,NH3,3,3,3
India,Chhattisgarh,Raipur,"Siltara Phase-II, Raipur - CECB",10-03-2024 09:00:00,21.371751,81.664929,PM10,61,173,110
India,Chhattisgarh,Raipur,"Siltara Phase-II, Raipur - CECB",10-03-2024 09:00:00,21.371751,81.664929,NO2,46,83,60
India,Chhattisgarh,Tumidih,"OP Jindal Industrial Park, Tumidih - CECB",10-03-2024 09:00:00,22.06631475,83.33820077,PM10,28,427,110
India,Chhattisgarh,Tumidih,"OP Jindal Industrial Park, Tumidih - CECB",10-03-2024 09:00:00,22.06631475,83.33820077,NH3,1,3,2
India,Delhi,Delhi,"Anand Vihar, Delhi - DPCC",10-03-2024 09:00:00,28.647622,77.3158090,PM2.5,48,440,172
India,Delhi,Delhi,"Anand Vihar, Delhi - DPCC",10-03-2024 09:00:00,28.647622,77.3158090,SO2,17,29,24
India,Delhi,Delhi,"Anand Vihar, Delhi - DPCC",10-03-2024 09:00:00,28.647622,77.3158090,CO,49,103,84
India,Delhi,Delhi,"Anand Vihar, Delhi - DPCC",10-03-2024 09:00:00,28.647622,77.3158090,OZONE,10,54,13
India,Delhi,Delhi,"Aya Nagar, Delhi - IMD",10-03-2024 09:00:00,28.4706914,77.1099364,OZONE,1,29,4
India,Delhi,Delhi,"Burari Crossing, Delhi - IMD",10-03-2024 09:00:00,28.7256504,77.2011573,PM10,70,381,159
India,Delhi,Delhi,"CRRI Mathura Road, Delhi - IMD",10-03-2024 09:00:00,28.5512005,77.2735737,PM10,70,185,129
India,Delhi,Delhi,"CRRI Mathura Road, Delhi - IMD",10-03-2024 09:00:00,28.5512005,77.2735737,CO,6,110,98
India,Delhi,Delhi,"CRRI Mathura Road, Delhi - IMD",10-03-2024 09:00:00,28.5512005,77.2735737,OZONE,10,53,15
India,Delhi,Delhi,"DTU, Delhi - CPCB",10-03-2024 09:00:00,28.7500499,77.1112615,PM10,68,234,137
India,Delhi,Delhi,"DTU, Delhi - CPCB",10-03-2024 09:00:00,28.7500499,77.1112615,NO2,24,44,35
India,Delhi,Delhi,"Dr. Karni Singh Shooting Range, Delhi - DPCC",10-03-2024 09:00:00,28.498571,77.264840,PM2.5,32,308,151
India,Delhi,Delhi,"Dr. Karni Singh Shooting Range, Delhi - DPCC",10-03-2024 09:00:00,28.498571,77.264840,SO2,2,24,11
India,Delhi,Delhi,"IGI Airport (T3), Delhi - IMD",10-03-2024 09:00:00,28.5627763,77.1180053,OZONE,1,56,1
India,Delhi,Delhi,"IHBAS, Dilshad Garden, Delhi - CPCB",10-03-2024 09:00:00,28.6811736,77.3025234,NO2,NA,NA,NA
India,Delhi,Delhi,"ITO, Delhi - CPCB",10-03-2024 09:00:00,28.628624,77.241060,PM10,52,188,104
India,Delhi,Delhi,"Jahangirpuri, Delhi - DPCC",10-03-2024 09:00:00,28.732820,77.170633,OZONE,1,8,2
India,Delhi,Delhi,"Jawaharlal Nehru Stadium, Delhi - DPCC",10-03-2024 09:00:00,28.580280,77.233829,PM2.5,22,332,115
India,Delhi,Delhi,"Jawaharlal Nehru Stadium, Delhi - DPCC",10-03-2024 09:00:00,28.580280,77.233829,PM10,65,237,130
India,Delhi,Delhi,"Lodhi Road, Delhi - IMD",10-03-2024 09:00:00,28.5918245,77.2273074,CO,13,47,43
India,Delhi,Delhi,"Major Dhyan Chand National Stadium, Delhi - DPCC",10-03-2024 09:00:00,28.611281,77.237738,OZONE,2,148,6
India,Delhi,Delhi,"Mandir Marg, Delhi - DPCC",10-03-2024 09:00:00,28.636429,77.201067,NH3,8,11,10
India,Delhi,Delhi,"Mundka, Delhi - DPCC",10-03-2024 09:00:00,28.684678,77.076574,NO2,19,95,56
India,Delhi,Delhi,"Mundka, Delhi - DPCC",10-03-2024 09:00:00,28.684678,77.076574,SO2,8,78,25
India,Delhi,Delhi,"NSIT Dwarka, Delhi - CPCB",10-03-2024 09:00:00,28.60909,77.0325413,SO2,17,22,20
India,Delhi,Delhi,"Najafgarh, Delhi - DPCC",10-03-2024 09:00:00,28.570173,76.933762,PM10,42,431,145
India,Delhi,Delhi,"Narela, Delhi - DPCC",10-03-2024 09:00:00,28.822836,77.101981,NO2,11,76,32
India,Delhi,Delhi,"Narela, Delhi - DPCC",10-03-2024 09:00:00,28.822836,77.101981,OZONE,22,129,51
India,Delhi,Delhi,"Nehru Nagar, Delhi - DPCC",10-03-2024 09:00:00,28.567890,77.250515,NH3,6,11,8
India,Delhi,Delhi,"Nehru Nagar, Delhi - DPCC",10-03-2024 09:00:00,28.567890,77.250515,CO,38,102,62
India,Delhi,Delhi,"Nehru Nagar, Delhi - DPCC",10-03-2024 09:00:00,28.567890,77.250515,OZONE,2,179,5
India,Delhi,Delhi,"North Campus, DU, Delhi - IMD",10-03-2024 09:00:00,28.6573814,77.1585447,PM10,84,204,141
India,Delhi,Delhi,"Okhla Phase-2, Delhi - DPCC",10-03-2024 09:00:00,28.530785,77.271255,PM2.5,28,315,148
India,Delhi,Delhi,"Okhla Phase-2, Delhi - DPCC",10-03-2024 09:00:00,28.530785,77.271255,NO2,48,199,117
India,Delhi,Delhi,"Okhla Phase-2, Delhi - DPCC",10-03-2024 09:00:00,28.530785,77.271255,NH3,6,10,8
India,Delhi,Delhi,"Okhla Phase-2, Delhi - DPCC",10-03-2024 09:00:00,28.530785,77.271255,SO2,9,18,13
India,Delhi,Delhi,"Patparganj, Delhi - DPCC",10-03-2024 09:00:00,28.623763,77.287209,PM2.5,29,166,72
India,Delhi,Delhi,"Patparganj, Delhi - DPCC",10-03-2024 09:00:00,28.623763,77.287209,SO2,17,20,18
India,Delhi,Delhi,"Punjabi Bagh, Delhi - DPCC",10-03-2024 09:00:00,28.674045,77.131023,PM2.5,36,363,184
India,Delhi,Delhi,"Punjabi Bagh, Delhi - DPCC",10-03-2024 09:00:00,28.674045,77.131023,PM10,70,227,139
India,Delhi,Delhi,"Pusa, Delhi - DPCC",10-03-2024 09:00:00,28.639652,77.146275,PM10,103,302,182
India,Delhi,Delhi,"R K Puram, Delhi - DPCC",10-03-2024 09:00:00,28.563262,77.186937,PM10,78,225,149
India,Delhi,Delhi,"R K Puram, Delhi - DPCC",10-03-2024 09:00:00,28.563262,77.186937,CO,14,104,69
India,Delhi,Delhi,"Rohini, Delhi - DPCC",10-03-2024 09:00:00,28.732528,77.119920,NO2,15,86,46
India,Delhi,Delhi,"Rohini, Delhi - DPCC",10-03-2024 09:00:00,28.732528,77.119920,SO2,4,30,12
India,Delhi,Delhi,"Rohini, Delhi - DPCC",10-03-2024 09:00:00,28.732528,77.119920,CO,10,70,47
India,Delhi,Delhi,"Shadipur, Delhi - CPCB",10-03-2024 09:00:00,28.6514781,77.1473105,PM10,117,205,153
India,Delhi,Delhi,"Sirifort, Delhi - CPCB",10-03-2024 09:00:00,28.5504249,77.2159377,NO2,158,217,192
India,Delhi,Delhi,"Sirifort, Delhi - CPCB",10-03-2024 09:00:00,28.5504249,77.2159377,NH3,7,13,10
India,Delhi,Delhi,"Sirifort, Delhi - CPCB",10-03-2024 09:00:00,28.5504249,77.2159377,SO2,38,44,40
India,Delhi,Delhi,"Sirifort, Delhi - CPCB",10-03-2024 09:00:00,28.5504249,77.2159377,CO,5,66,51
India,Delhi,Delhi,"Sri Aurobindo Marg, Delhi - DPCC",10-03-2024 09:00:00,28.531346,77.190156,PM2.5,40,315,141
India,Delhi,Delhi,"Sri Aurobindo Marg, Delhi - DPCC",10-03-2024 09:00:00,28.531346,77.190156,CO,14,56,45
India,Delhi,Delhi,"Vivek Vihar, Delhi - DPCC",10-03-2024 09:00:00,28.672342,77.315260,SO2,29,39,33
India,Delhi,Delhi,"Vivek Vihar, Delhi - DPCC",10-03-2024 09:00:00,28.672342,77.315260,OZONE,2,48,9
India,Gujarat,Ahmedabad,"Chandkheda, Ahmedabad - IITM",10-03-2024 09:00:00,23.107969,72.574648,NO2,63,79,72
India,Gujarat,Ahmedabad,"Gyaspur, Ahmedabad - IITM",10-03-2024 09:00:00,22.977134,72.553024,CO,24,26,24
India,Gujarat,Ahmedabad,"Maninagar, Ahmedabad - GPCB",10-03-2024 09:00:00,23.002657,72.591912,SO2,44,106,60
India,Gujarat,Ahmedabad,"Raikhad, Ahmedabad - IITM",10-03-2024 09:00:00,23.020509,72.579261,NO2,50,130,76
India,Gujarat,Ahmedabad,"Raikhad, Ahmedabad - IITM",10-03-2024 09:00:00,23.020509,72.579261,NH3,1,1,1
India,Gujarat,Ahmedabad,"Raikhad, Ahmedabad - IITM",10-03-2024 09:00:00,23.020509,72.579261,SO2,4,8,6
India,Gujarat,Ahmedabad,"SAC ISRO Satellite, Ahmedabad - IITM",10-03-2024 09:00:00,23.023389,72.515201,NO2,17,17,17
India,Gujarat,Ahmedabad,"SAC ISRO Satellite, Ahmedabad - IITM",10-03-2024 09:00:00,23.023389,72.515201,NH3,3,3,3
India,Gujarat,Ahmedabad,"SAC ISRO Satellite, Ahmedabad - IITM",10-03-2024 09:00:00,23.023389,72.515201,CO,34,36,36
India,Gujarat,Ahmedabad,"Sardar Vallabhbhai Patel Stadium, Ahmedabad - IITM",10-03-2024 09:00:00,23.043070,72.562968,PM2.5,70,129,95
India,Gujarat,Ankleshwar,"GIDC, Ankleshwar - GPCB",10-03-2024 09:00:00,21.613267,73.010555,NO2,37,37,37
India,Gujarat,Ankleshwar,"GIDC, Ankleshwar - GPCB",10-03-2024 09:00:00,21.613267,73.010555,NH3,7,7,7
India,Gujarat,Ankleshwar,"GIDC, Ankleshwar - GPCB",10-03-2024 09:00:00,21.613267,73.010555,OZONE,20,32,21
India,Gujarat,Gandhinagar,"GIFT City, Gandhinagar - IITM",10-03-2024 09:00:00,23.163798,72.677768,PM10,65,116,85
India,Gujarat,Gandhinagar,"GIFT City, Gandhinagar - IITM",10-03-2024 09:00:00,23.163798,72.677768,NH3,3,3,3
India,Gujarat,Gandhinagar,"IIPHG Lekawada, Gandhinagar - IITM",10-03-2024 09:00:00,23.243639,72.68994,PM2.5,77,305,169
India,Gujarat,Gandhinagar,"IIPHG Lekawada, Gandhinagar - IITM",10-03-2024 09:00:00,23.243639,72.68994,NO2,26,30,28
India,Gujarat,Gandhinagar,"Sector-10, Gandhinagar - GPCB",10-03-2024 09:00:00,23.221714,72.654328,PM10,23,110,67
India,Gujarat,Surat,"Science Center, Surat - SMC",10-03-2024 09:00:00,21.170046,72.795405,PM2.5,12,93,44
India,Gujarat,Surat,"Science Center, Surat - SMC",10-03-2024 09:00:00,21.170046,72.795405,NO2,30,53,42
India,Gujarat,Surat,"Science Center, Surat - SMC",10-03-2024 09:00:00,21.170046,72.795405,SO2,19,30,23
India,Gujarat,Vapi,"Phase-1 GIDC, Vapi - GPCB",10-03-2024 09:00:00,20.362421,72.918013,PM10,52,226,112
India,Gujarat,Vapi,"Phase-1 GIDC, Vapi - GPCB",10-03-2024 09:00:00,20.362421,72.918013,SO2,47,48,47
India,Gujarat,Vatva,"Phase-4 GIDC, Vatva - GPCB",10-03-2024 09:00:00,22.969611,72.643500,CO,NA,NA,NA
India,Haryana,Ambala,"Patti Mehar, Ambala - HSPCB",10-03-2024 09:00:00,30.379589,76.778328,PM2.5,29,150,67
India,Haryana,Ambala,"Patti Mehar, Ambala - HSPCB",10-03-2024 09:00:00,30.379589,76.778328,PM10,28,90,52
India,Haryana,Ambala,"Patti Mehar, Ambala - HSPCB",10-03-2024 09:00:00,30.379589,76.778328,SO2,1,28,11
India,Haryana,Ballabgarh,"Nathu Colony, Ballabgarh - HSPCB",10-03-2024 09:00:00,28.3419248,77.319699,PM10,130,210,171
India,Haryana,Ballabgarh,"Nathu Colony, Ballabgarh - HSPCB",10-03-2024 09:00:00,28.3419248,77.319699,NO2,2,13,12
India,Haryana,Charkhi Dadri,"Mini Secretariat, Charkhi Dadri - HSPCB",10-03-2024 09:00:00,28.593883,76.270653,SO2,12,15,13
India,Haryana,Dharuhera,"Municipal Corporation Office, Dharuhera -  HSPCB",10-03-2024 09:00:00,28.206800,76.799700,NO2,45,111,70
India,Haryana,Dharuhera,"Municipal Corporation Office, Dharuhera -  HSPCB",10-03-2024 09:00:00,28.206800,76.799700,SO2,32,56,41
India,Haryana,Dharuhera,"Municipal Corporation Office, Dharuhera -  HSPCB",10-03-2024 09:00:00,28.206800,76.799700,CO,13,57,41
India,Haryana,Faridabad,"New Industrial Town, Faridabad - HSPCB",10-03-2024 09:00:00,28.39072,77.30059,PM2.5,14,322,151
India,Haryana,Faridabad,"New Industrial Town, Faridabad - HSPCB",10-03-2024 09:00:00,28.39072,77.30059,NO2,15,22,18
India,Haryana,Faridabad,"New Industrial Town, Faridabad - HSPCB",10-03-2024 09:00:00,28.39072,77.30059,NH3,3,5,4
India,Haryana,Faridabad,"Sector 30, Faridabad - HSPCB",10-03-2024 09:00:00,28.4417,77.3217,PM2.5,94,99,97
India,Haryana,Fatehabad,"Huda Sector, Fatehabad - HSPCB",10-03-2024 09:00:00,29.503664,75.467934,NO2,37,38,38
India,Haryana,Gurugram,"Teri Gram, Gurugram - HSPCB",10-03-2024 09:00:00,28.4275,77.1465,NH3,16,22,19
India,Haryana,Gurugram,"Teri Gram, Gurugram - HSPCB",10-03-2024 09:00:00,28.4275,77.1465,SO2,3,5,4
India,Haryana,Gurugram,"Vikas Sadan, Gurugram - HSPCB",10-03-2024 09:00:00,28.4501238,77.0263051,NO2,5,25,13
India,Haryana,Gurugram,"Vikas Sadan, Gurugram - HSPCB",10-03-2024 09:00:00,28.4501238,77.0263051,CO,54,140,98
India,Haryana,Hisar,"Urban Estate-II, Hisar - HSPCB",10-03-2024 09:00:00,29.140560,75.744941,NO2,22,49,31
India,Haryana,Hisar,"Urban Estate-II, Hisar - HSPCB",10-03-2024 09:00:00,29.140560,75.744941,CO,40,148,70
India,Haryana,Jind,"Police Lines, Jind - HSPCB",10-03-2024 09:00:00,29.307814,76.337619,CO,8,98,34
India,Haryana,Kaithal,"Rishi Nagar, Kaithal - HSPCB",10-03-2024 09:00:00,29.8006,76.4155,PM2.5,26,88,55
India,Haryana,Kaithal,"Rishi Nagar, Kaithal - HSPCB",10-03-2024 09:00:00,29.8006,76.4155,NH3,8,8,8
India,Haryana,Kaithal,"Rishi Nagar, Kaithal - HSPCB",10-03-2024 09:00:00,29.8006,76.4155,SO2,11,43,27
India,Haryana,Kaithal,"Rishi Nagar, Kaithal - HSPCB",10-03-2024 09:00:00,29.8006,76.4155,CO,9,44,19
India,Haryana,Karnal,"Sector-12, Karnal - HSPCB",10-03-2024 09:00:00,29.695300,77.002700,SO2,NA,NA,NA
India,Haryana,Karnal,"Sector-12, Karnal - HSPCB",10-03-2024 09:00:00,29.695300,77.002700,CO,NA,NA,NA
India,Haryana,Mandikhera,"General Hospital, Mandikhera - HSPCB",10-03-2024 09:00:00,27.9002,76.9938,NO2,17,21,19
India,Haryana,Narnaul,"Shastri Nagar, Narnaul - HSPCB",10-03-2024 09:00:00,28.060249,76.113115,NO2,16,58,35
India,Haryana,Narnaul,"Shastri Nagar, Narnaul - HSPCB",10-03-2024 09:00:00,28.060249,76.113115,OZONE,23,54,52
India,Haryana,Palwal,"Shyam Nagar, Palwal - HSPCB",10-03-2024 09:00:00,28.1485564,77.3320667,OZONE,5,31,15
India,Haryana,Panchkula,"Sector-6, Panchkula - HSPCB ",10-03-2024 09:00:00,30.7057778,76.8531805555555,CO,NA,NA,NA
India,Haryana,Rohtak,"MD University, Rohtak - HSPCB",10-03-2024 09:00:00,28.52123,76.37138,SO2,6,9,7
India,Haryana,Rohtak,"MD University, Rohtak - HSPCB",10-03-2024 09:00:00,28.52123,76.37138,OZONE,41,53,50
India,Haryana,Yamuna Nagar,"Gobind Pura, Yamuna Nagar - HSPCB",10-03-2024 09:00:00,30.1480566,77.2893471,NO2,11,28,18
India,Haryana,Yamuna Nagar,"Gobind Pura, Yamuna Nagar - HSPCB",10-03-2024 09:00:00,30.1480566,77.2893471,NH3,1,6,4
India,Himachal Pradesh,Baddi,"HIMUDA Complex Phase-1, Baddi - HPPCB",10-03-2024 09:00:00,30.943887,76.801991,NO2,9,46,26
India,Jharkhand,Dhanbad,"Kalakusuma, Dhanbad - DMC",10-03-2024 09:00:00,23.811548,86.481238,PM2.5,3,93,14
India,Jharkhand,Dhanbad,"Kalakusuma, Dhanbad - DMC",10-03-2024 09:00:00,23.811548,86.481238,NO2,13,14,14
India,Jharkhand,Dhanbad,"Sardar Patel Nagar, Dhanbad - JSPCB",10-03-2024 09:00:00,23.80569,86.44268,OZONE,11,31,12
India,Jharkhand,Pathardih,"Mohalbani Ghat, Pathardih - DMC",10-03-2024 09:00:00,23.669880,86.411725,PM10,52,187,85
India,Karnataka,Bagalkot,"Vidayagiri, Bagalkot - KSPCB",10-03-2024 09:00:00,16.172806,75.659694,CO,23,58,38
India,Karnataka,Belgaum,"Ramteerth Nagar, Belgaum - KSPCB",10-03-2024 09:00:00,15.888653,74.541751,PM2.5,NA,NA,NA
India,Karnataka,Belgaum,"Ramteerth Nagar, Belgaum - KSPCB",10-03-2024 09:00:00,15.888653,74.541751,NH3,33,34,34
India,Karnataka,Belgaum,"Ramteerth Nagar, Belgaum - KSPCB",10-03-2024 09:00:00,15.888653,74.541751,SO2,8,9,8
India,Karnataka,Bengaluru,"BTM Layout, Bengaluru - CPCB",10-03-2024 09:00:00,12.9135218,77.5950804,PM2.5,NA,NA,NA
India,Karnataka,Bengaluru,"BTM Layout, Bengaluru - CPCB",10-03-2024 09:00:00,12.9135218,77.5950804,CO,NA,NA,NA
India,Karnataka,Bengaluru,"BTM Layout, Bengaluru - CPCB",10-03-2024 09:00:00,12.9135218,77.5950804,OZONE,NA,NA,NA
India,Karnataka,Bengaluru,"Bapuji Nagar, Bengaluru - KSPCB",10-03-2024 09:00:00,12.951913,77.539784,PM2.5,98,287,154
India,Karnataka,Bengaluru,"Hombegowda Nagar, Bengaluru - KSPCB",10-03-2024 09:00:00,12.938539,77.590100,PM10,60,140,90
India,Karnataka,Bengaluru,"Hombegowda Nagar, Bengaluru - KSPCB",10-03-2024 09:00:00,12.938539,77.590100,SO2,3,4,4
India,Karnataka,Bengaluru,"Hombegowda Nagar, Bengaluru - KSPCB",10-03-2024 09:00:00,12.938539,77.590100,CO,16,19,18
India,Karnataka,Bengaluru,"Jayanagar 5th Block, Bengaluru - KSPCB",10-03-2024 09:00:00,12.920984,77.584908,NH3,3,5,4
India,Karnataka,Bengaluru,"Jayanagar 5th Block, Bengaluru - KSPCB",10-03-2024 09:00:00,12.920984,77.584908,CO,16,52,22
India,Karnataka,Bengaluru,"Kasturi Nagar, Bengaluru - KSPCB",10-03-2024 09:00:00,13.003872,77.664217,PM10,129,208,153
India,Karnataka,Bengaluru,"Peenya, Bengaluru - CPCB",10-03-2024 09:00:00,13.0270199,77.494094,NH3,2,4,3
India,Karnataka,Bengaluru,"Peenya, Bengaluru - CPCB",10-03-2024 09:00:00,13.0270199,77.494094,CO,20,60,28
India,Karnataka,Bengaluru,"RVCE-Mailasandra, Bengaluru - KSPCB",10-03-2024 09:00:00,12.921418,77.502466,PM10,115,170,138
India,Karnataka,Bengaluru,"Shivapura_Peenya, Bengaluru - KSPCB",10-03-2024 09:00:00,13.0246342,77.5080115,CO,24,68,30
India,Karnataka,Bengaluru,"Silk Board, Bengaluru - KSPCB",10-03-2024 09:00:00,12.917348,77.622813,SO2,6,47,13
India,Karnataka,Bengaluru,"Silk Board, Bengaluru - KSPCB",10-03-2024 09:00:00,12.917348,77.622813,CO,18,44,33
India,Karnataka,Bengaluru,"Silk Board, Bengaluru - KSPCB",10-03-2024 09:00:00,12.917348,77.622813,OZONE,26,34,30
India,Karnataka,Bidar,"Naubad, Bidar - KSPCB",10-03-2024 09:00:00,17.930306,77.482194,NO2,7,8,8
India,Karnataka,Bidar,"Naubad, Bidar - KSPCB",10-03-2024 09:00:00,17.930306,77.482194,NH3,3,3,3
India,Karnataka,Chamarajanagar,"Urban, Chamarajanagar - KSPCB",10-03-2024 09:00:00,11.55358,76.55521,NH3,1,2,1
India,Karnataka,Chikkamagaluru,"Kalyana Nagara, Chikkamagaluru - KSPCB",10-03-2024 09:00:00,13.328028,75.797056,PM10,NA,NA,NA
India,Karnataka,Davanagere,"Devaraj Urs Badavane, Davanagere - KSPCB",10-03-2024 09:00:00,14.475800,75.905200,PM10,59,147,84
India,Karnataka,Davanagere,"Devaraj Urs Badavane, Davanagere - KSPCB",10-03-2024 09:00:00,14.475800,75.905200,NO2,13,19,15
India,Karnataka,Davanagere,"Devaraj Urs Badavane, Davanagere - KSPCB",10-03-2024 09:00:00,14.475800,75.905200,OZONE,22,28,23
India,Karnataka,Gadag,"Panchal Nagar, Gadag - KSPCB",10-03-2024 09:00:00,15.411456,75.638133,NO2,6,20,14
India,Karnataka,Gadag,"Panchal Nagar, Gadag - KSPCB",10-03-2024 09:00:00,15.411456,75.638133,NH3,1,3,2
India,Karnataka,Gadag,"Panchal Nagar, Gadag - KSPCB",10-03-2024 09:00:00,15.411456,75.638133,OZONE,38,86,49
India,Karnataka,Hassan,"B.Katihalli, Hassan - KSPCB",10-03-2024 09:00:00,13.008556,76.125258,NO2,NA,NA,NA
India,Karnataka,Hassan,"B.Katihalli, Hassan - KSPCB",10-03-2024 09:00:00,13.008556,76.125258,OZONE,NA,NA,NA
India,Karnataka,Haveri,"Ashwini Nagar, Haveri - KSPCB",10-03-2024 09:00:00,14.791800,75.389600,CO,NA,NA,NA
India,Karnataka,Haveri,"Ashwini Nagar, Haveri - KSPCB",10-03-2024 09:00:00,14.791800,75.389600,OZONE,NA,NA,NA
India,Karnataka,Hubballi,"Deshpande Nagar, Hubballi - KSPCB",10-03-2024 09:00:00,15.351773,75.140726,PM2.5,50,130,75
India,Karnataka,Hubballi,"Lingaraj Nagar, Hubballi - KSPCB",10-03-2024 09:00:00,15.3714823,75.1160168,NO2,16,16,16
India,Karnataka,Hubballi,"Lingaraj Nagar, Hubballi - KSPCB",10-03-2024 09:00:00,15.3714823,75.1160168,SO2,1,38,8
India,Karnataka,Hubballi,"Lingaraj Nagar, Hubballi - KSPCB",10-03-2024 09:00:00,15.3714823,75.1160168,CO,46,185,105
India,Karnataka,Kalaburagi,"Lal Bahadur Shastri Nagar, Kalaburagi - KSPCB",10-03-2024 09:00:00,17.321993,76.822628,CO,40,86,41
India,Karnataka,Kalaburagi,"Mahatma Basaveswar Colony, Kalaburgi - KSPCB",10-03-2024 09:00:00,17.336318,76.847397,NO2,8,27,19
India,Karnataka,Kalaburagi,"Mahatma Basaveswar Colony, Kalaburgi - KSPCB",10-03-2024 09:00:00,17.336318,76.847397,NH3,2,4,3
India,Karnataka,Kolar,"Tamaka Ind. Area, Kolar - KSPCB",10-03-2024 09:00:00,13.1276288,78.1570122,PM10,NA,NA,NA
India,Karnataka,Koppal,"Diwator Nagar, Koppal - KSPCB",10-03-2024 09:00:00,15.347630,76.181767,CO,52,70,56
India,Karnataka,Madikeri,"Stuart Hill, Madikeri - KSPCB",10-03-2024 09:00:00,12.415911,75.735050,NO2,2,6,4
India,Karnataka,Madikeri,"Stuart Hill, Madikeri - KSPCB",10-03-2024 09:00:00,12.415911,75.735050,SO2,4,5,4
India,Karnataka,Mangalore,"Kadri, Mangalore - KSPCB",10-03-2024 09:00:00,12.889250,74.853000,PM2.5,55,82,66
India,Karnataka,Mangalore,"Kadri, Mangalore - KSPCB",10-03-2024 09:00:00,12.889250,74.853000,CO,36,46,44
India,Karnataka,Raichur,"Haji Colony, Raichur - KSPCB",10-03-2024 09:00:00,16.208139,77.348417,SO2,67,81,73
India,Karnataka,Ramanagara,"Vijay Nagar, Ramanagara - KSPCB",10-03-2024 09:00:00,12.733409,77.298051,SO2,7,35,21
India,Karnataka,Shivamogga,"Vinoba Nagara, Shivamogga - KSPCB",10-03-2024 09:00:00,13.940000,75.555917,PM2.5,30,52,39
India,Karnataka,Shivamogga,"Vinoba Nagara, Shivamogga - KSPCB",10-03-2024 09:00:00,13.940000,75.555917,SO2,2,13,6
India,Karnataka,Vijayapura,"Ibrahimpur, Vijayapura - KSPCB",10-03-2024 09:00:00,16.802639,75.722694,OZONE,14,16,15
India,Karnataka,Yadgir,"Collector Office, Yadgir - KSPCB",10-03-2024 09:00:00,16.7602,77.1428,NO2,4,9,6
India,Karnataka,Yadgir,"Collector Office, Yadgir - KSPCB",10-03-2024 09:00:00,16.7602,77.1428,NH3,1,1,1
India,Karnataka,Yadgir,"Collector Office, Yadgir - KSPCB",10-03-2024 09:00:00,16.7602,77.1428,OZONE,18,19,19
India,Kerala,Eloor,"Udyogamandal, Eloor - Kerala PCB",10-03-2024 09:00:00,10.073232,76.302765,NH3,1,1,1
India,Kerala,Eloor,"Udyogamandal, Eloor - Kerala PCB",10-03-2024 09:00:00,10.073232,76.302765,SO2,1,9,3
India,Kerala,Eloor,"Udyogamandal, Eloor - Kerala PCB",10-03-2024 09:00:00,10.073232,76.302765,CO,10,123,31
India,Kerala,Kannur,"Thavakkara, Kannur - Kerala PCB",10-03-2024 09:00:00,11.875000,75.373200,PM10,63,74,70
India,Kerala,Kannur,"Thavakkara, Kannur - Kerala PCB",10-03-2024 09:00:00,11.875000,75.373200,SO2,5,7,6
India,Kerala,Kochi,"Vyttila, Kochi - Kerala PCB",10-03-2024 09:00:00,9.969447,76.321186,NO2,1,2,1
India,Kerala,Kollam,"Polayathode, Kollam - Kerala PCB",10-03-2024 09:00:00,8.8787,76.6073,NH3,1,1,1
India,Kerala,Kollam,"Polayathode, Kollam - Kerala PCB",10-03-2024 09:00:00,8.8787,76.6073,SO2,1,20,4
India,Kerala,Kollam,"Polayathode, Kollam - Kerala PCB",10-03-2024 09:00:00,8.8787,76.6073,CO,4,30,25
India,Kerala,Kollam,"Polayathode, Kollam - Kerala PCB",10-03-2024 09:00:00,8.8787,76.6073,OZONE,31,36,32
India,Kerala,Thiruvananthapuram,"Plammoodu, Thiruvananthapuram - Kerala PCB",10-03-2024 09:00:00,8.5149093,76.9435879,PM2.5,22,70,42
India,Kerala,Thiruvananthapuram,"Plammoodu, Thiruvananthapuram - Kerala PCB",10-03-2024 09:00:00,8.5149093,76.9435879,NO2,8,10,9
India,Kerala,Thiruvananthapuram,"Plammoodu, Thiruvananthapuram - Kerala PCB",10-03-2024 09:00:00,8.5149093,76.9435879,NH3,2,2,2
India,Kerala,Thiruvananthapuram,"Plammoodu, Thiruvananthapuram - Kerala PCB",10-03-2024 09:00:00,8.5149093,76.9435879,CO,12,25,21
India,Kerala,Thrissur,"Corporation Ground, Thrissur - Kerala PCB",10-03-2024 09:00:00,10.532400,76.215900,PM10,59,68,63
India,Kerala,Thrissur,"Corporation Ground, Thrissur - Kerala PCB",10-03-2024 09:00:00,10.532400,76.215900,CO,14,46,14
India,Madhya Pradesh,Bhopal,"Paryavaran Parisar, Bhopal - MPPCB",10-03-2024 09:00:00,23.210494,77.425409,PM10,59,189,90
India,Madhya Pradesh,Bhopal,"T T Nagar, Bhopal - MPPCB",10-03-2024 09:00:00,23.233584,77.400574,SO2,28,60,42
India,Madhya Pradesh,Dewas,"Bhopal Chauraha, Dewas - MPPCB",10-03-2024 09:00:00,22.9682591,76.064118,CO,4,44,22
India,Madhya Pradesh,Gwalior,"Maharaj Bada, Gwalior - MPPCB",10-03-2024 09:00:00,26.200388,78.147714,PM2.5,33,250,110
India,Madhya Pradesh,Gwalior,"Maharaj Bada, Gwalior - MPPCB",10-03-2024 09:00:00,26.200388,78.147714,PM10,86,305,167
India,Madhya Pradesh,Gwalior,"Maharaj Bada, Gwalior - MPPCB",10-03-2024 09:00:00,26.200388,78.147714,CO,9,129,15
India,Madhya Pradesh,Indore,"Chhoti Gwaltoli, Indore - MPPCB",10-03-2024 09:00:00,22.4310,75.5213,CO,52,121,66
India,Madhya Pradesh,Indore,"Maguda Nagar, Indore - IMC",10-03-2024 09:00:00,22.7524,75.8872,OZONE,NA,NA,NA
India,Madhya Pradesh,Indore,"Regional Park, Indore - IMC",10-03-2024 09:00:00,22.6780,75.8559,OZONE,9,18,11
India,Madhya Pradesh,Jabalpur,"Govindh Bhavan Colony, Jabalpur - JMC",10-03-2024 09:00:00,23.163174,79.973061,CO,8,22,12
India,Madhya Pradesh,Jabalpur,"Gupteshwar, Jabalpur - JMC",10-03-2024 09:00:00,23.142888,79.916147,PM2.5,57,197,99
India,Madhya Pradesh,Jabalpur,"Gupteshwar, Jabalpur - JMC",10-03-2024 09:00:00,23.142888,79.916147,PM10,47,115,75
India,Madhya Pradesh,Jabalpur,"Gupteshwar, Jabalpur - JMC",10-03-2024 09:00:00,23.142888,79.916147,CO,8,104,20
India,Madhya Pradesh,Jabalpur,"Marhatal, Jabalpur - MPPCB",10-03-2024 09:00:00,23.168606,79.932247,PM2.5,31,99,61
India,Madhya Pradesh,Jabalpur,"Marhatal, Jabalpur - MPPCB",10-03-2024 09:00:00,23.168606,79.932247,PM10,71,148,100
India,Madhya Pradesh,Jabalpur,"Marhatal, Jabalpur - MPPCB",10-03-2024 09:00:00,23.168606,79.932247,NO2,12,63,29
India,Madhya Pradesh,Jabalpur,"Suhagi, Jabalpur - JMC",10-03-2024 09:00:00,23.218135,79.957770,CO,36,111,58
India,Madhya Pradesh,Katni,"Gole Bazar, Katni - MPPCB",10-03-2024 09:00:00,23.50016,80.23284,NO2,31,67,41
India,Madhya Pradesh,Mandideep,"Sector-D Industrial Area, Mandideep - MPPCB",10-03-2024 09:00:00,23.108440,77.511428,NH3,6,8,7
India,Madhya Pradesh,Mandideep,"Sector-D Industrial Area, Mandideep - MPPCB",10-03-2024 09:00:00,23.108440,77.511428,OZONE,20,28,24
India,Madhya Pradesh,Ratlam,"Shasthri Nagar, Ratlam - IPCA Lab",10-03-2024 09:00:00,23.331731,75.045981,PM2.5,27,73,51
India,Madhya Pradesh,Ratlam,"Shasthri Nagar, Ratlam - IPCA Lab",10-03-2024 09:00:00,23.331731,75.045981,PM10,67,194,123
India,Madhya Pradesh,Sagar,"Civil Lines, Sagar - MPPCB",10-03-2024 09:00:00,23.838586,78.759431,OZONE,48,70,50
India,Madhya Pradesh,Satna,"Bandhavgar Colony, Satna - Birla Cement",10-03-2024 09:00:00,24.58434363,80.8549414,OZONE,61,92,74
India,Madhya Pradesh,Singrauli,"Suryakiran Bhawan NCL, Singrauli - MPPCB",10-03-2024 09:00:00,24.108970,82.645580,PM10,82,188,125
India,Madhya Pradesh,Ujjain,"Mahakaleshwar Temple, Ujjain - MPPCB",10-03-2024 09:00:00,23.182719 ,75.768218 ,OZONE,140,153,143
India,Maharashtra,Ahmednagar,"Tarakpur, Ahmednagar - MPCB",10-03-2024 09:00:00,19.10122,74.73339,PM2.5,42,144,83
India,Maharashtra,Ahmednagar,"Tarakpur, Ahmednagar - MPCB",10-03-2024 09:00:00,19.10122,74.73339,SO2,11,18,15
India,Maharashtra,Akola,"Ramdaspeth, Akola - MPCB",10-03-2024 09:00:00,20.719516,77.000253,PM10,56,262,108
India,Maharashtra,Akola,"Ramdaspeth, Akola - MPCB",10-03-2024 09:00:00,20.719516,77.000253,NH3,4,14,8
India,Maharashtra,Akola,"Ramdaspeth, Akola - MPCB",10-03-2024 09:00:00,20.719516,77.000253,CO,23,121,50
India,Maharashtra,Amravati,"Shivneri Colony, Amravati - MPCB",10-03-2024 09:00:00,20.9402359,77.7895248,CO,12,50,17
India,Maharashtra,Amravati,"Shri Shivaji Science College, Amaravati - MPCB",10-03-2024 09:00:00,20.939198,77.765701,PM2.5,56,85,73
India,Maharashtra,Aurangabad,"MIDC Chilkalthana, Aurangabad - MPCB",10-03-2024 09:00:00,19.875620,75.387310,PM2.5,43,192,84
India,Maharashtra,Aurangabad,"MIDC Chilkalthana, Aurangabad - MPCB",10-03-2024 09:00:00,19.875620,75.387310,PM10,63,259,106
India,Maharashtra,Aurangabad,"Rachnakar Colony, Aurangabad - MPCB",10-03-2024 09:00:00,19.863756,75.321188,CO,15,116,30
India,Maharashtra,Badlapur,"Katrap, Badlapur - MPCB",10-03-2024 09:00:00,19.16485,73.23409,PM2.5,35,290,130
India,Maharashtra,Badlapur,"Katrap, Badlapur - MPCB",10-03-2024 09:00:00,19.16485,73.23409,PM10,45,204,118
India,Maharashtra,Badlapur,"Katrap, Badlapur - MPCB",10-03-2024 09:00:00,19.16485,73.23409,SO2,8,32,21
India,Maharashtra,Belapur,"CBD Belapur, Belapur - MPCB",10-03-2024 09:00:00,19.0243902,73.0406721,PM2.5,48,111,78
India,Maharashtra,Belapur,"CBD Belapur, Belapur - MPCB",10-03-2024 09:00:00,19.0243902,73.0406721,CO,18,70,46
India,Maharashtra,Belapur,"CBD Belapur, Belapur - MPCB",10-03-2024 09:00:00,19.0243902,73.0406721,OZONE,3,107,6
India,Maharashtra,Boisar,"Khaira, Boisar - MPCB",10-03-2024 09:00:00,19.786089,72.757971,PM10,NA,NA,NA
India,Maharashtra,Chandrapur,"Chauhan Colony, Chandrapur - MPCB",10-03-2024 09:00:00,19.962900,79.298714,CO,23,24,24
India,Maharashtra,Chandrapur,"MIDC Khutala, Chandrapur - MPCB",10-03-2024 09:00:00,19.9775302,79.2337086,OZONE,NA,NA,NA
India,Maharashtra,Dhule,"Deopur, Dhule - MPCB",10-03-2024 09:00:00,20.918946,74.776388,NO2,6,46,13
India,Maharashtra,Jalgaon,"Prabhat Colony, Jalgaon - MPCB",10-03-2024 09:00:00,21.001264,75.565602,PM10,116,157,134
India,Maharashtra,Jalgaon,"Prabhat Colony, Jalgaon - MPCB",10-03-2024 09:00:00,21.001264,75.565602,OZONE,18,151,75
India,Maharashtra,Kolhapur,"Shivaji University, Kolhapur - MPCB",10-03-2024 09:00:00,16.6870449,74.2505872,NH3,4,9,6
India,Maharashtra,Kolhapur,"Shivaji University, Kolhapur - MPCB",10-03-2024 09:00:00,16.6870449,74.2505872,OZONE,26,111,41
India,Maharashtra,Kolhapur,"Sinchan Bhavan, Kolhapur - MPCB",10-03-2024 09:00:00,16.7143745,74.2426398,NH3,7,8,8
India,Maharashtra,Latur,"Sawe Wadi, Latur - MPCB",10-03-2024 09:00:00,18.39963,76.57452,PM10,54,93,74
India,Maharashtra,Latur,"Sawe Wadi, Latur - MPCB",10-03-2024 09:00:00,18.39963,76.57452,OZONE,32,89,37
India,Maharashtra,Malegaon,"Mahesh Nagar, Malegaon - MPCB",10-03-2024 09:00:00,20.555712,74.529236,PM2.5,84,205,128
India,Maharashtra,Malegaon,"Mahesh Nagar, Malegaon - MPCB",10-03-2024 09:00:00,20.555712,74.529236,PM10,138,199,168
India,Maharashtra,Malegaon,"Mahesh Nagar, Malegaon - MPCB",10-03-2024 09:00:00,20.555712,74.529236,SO2,11,32,17
India,Maharashtra,Mumbai,"Bandra Kurla Complex, Mumbai - MPCB",10-03-2024 09:00:00,19.065931,72.862131,NH3,4,6,5
India,Maharashtra,Mumbai,"Borivali East, Mumbai - MPCB",10-03-2024 09:00:00,19.2243333,72.8658113,PM2.5,35,293,111
India,Maharashtra,Mumbai,"Borivali East, Mumbai - MPCB",10-03-2024 09:00:00,19.2243333,72.8658113,PM10,68,197,110
India,Maharashtra,Mumbai,"Borivali East, Mumbai - MPCB",10-03-2024 09:00:00,19.2243333,72.8658113,SO2,6,9,7
India,Maharashtra,Mumbai,"Borivali East, Mumbai - MPCB",10-03-2024 09:00:00,19.2243333,72.8658113,CO,1,70,1
India,Maharashtra,Mumbai,"Byculla, Mumbai - BMC",10-03-2024 09:00:00,18.9767,72.8380,PM2.5,22,76,42
India,Maharashtra,Mumbai,"Chakala-Andheri East, Mumbai - IITM",10-03-2024 09:00:00,19.11074,72.86084,NO2,97,167,132
India,Maharashtra,Mumbai,"Chembur, Mumbai - MPCB",10-03-2024 09:00:00,19.0364585,72.8954371,NO2,42,121,81
India,Maharashtra,Mumbai,"Chembur, Mumbai - MPCB",10-03-2024 09:00:00,19.0364585,72.8954371,NH3,3,7,4
India,Maharashtra,Mumbai,"Chembur, Mumbai - MPCB",10-03-2024 09:00:00,19.0364585,72.8954371,OZONE,3,300,5
India,Maharashtra,Mumbai,"Chhatrapati Shivaji Intl. Airport (T2), Mumbai - MPCB",10-03-2024 09:00:00,19.10078,72.87462,NH3,1,11,2
India,Maharashtra,Mumbai,"Colaba, Mumbai - MPCB",10-03-2024 09:00:00,18.910000,72.820000,PM2.5,24,79,38
India,Maharashtra,Mumbai,"Ghatkopar, Mumbai - BMC",10-03-2024 09:00:00,19.083694,72.920967,PM2.5,46,109,76
India,Maharashtra,Mumbai,"Kandivali East, Mumbai - MPCB",10-03-2024 09:00:00,19.205800,72.868200,PM10,99,156,125
India,Maharashtra,Mumbai,"Kandivali West, Mumbai - BMC",10-03-2024 09:00:00,19.215859,72.831718,NO2,NA,NA,NA
India,Maharashtra,Mumbai,"Khindipada-Bhandup West, Mumbai - IITM",10-03-2024 09:00:00,19.1653323,72.922099,NO2,2,11,6
India,Maharashtra,Mumbai,"Khindipada-Bhandup West, Mumbai - IITM",10-03-2024 09:00:00,19.1653323,72.922099,SO2,1,6,3
India,Maharashtra,Mumbai,"Kurla, Mumbai - MPCB",10-03-2024 09:00:00,19.0863,72.8888,PM10,64,122,93
India,Maharashtra,Mumbai,"Kurla, Mumbai - MPCB",10-03-2024 09:00:00,19.0863,72.8888,NO2,16,37,23
India,Maharashtra,Mumbai,"Kurla, Mumbai - MPCB",10-03-2024 09:00:00,19.0863,72.8888,OZONE,28,74,28
India,Maharashtra,Mumbai,"Mulund West, Mumbai - MPCB",10-03-2024 09:00:00,19.1750,72.9419,OZONE,7,7,7
India,Maharashtra,Mumbai,"Powai, Mumbai - MPCB",10-03-2024 09:00:00,19.137500,72.915056,SO2,29,36,31
India,Maharashtra,Mumbai,"Shivaji Nagar, Mumbai - BMC",10-03-2024 09:00:00,19.060498,72.923356,SO2,7,49,17
India,Maharashtra,Mumbai,"Shivaji Nagar, Mumbai - BMC",10-03-2024 09:00:00,19.060498,72.923356,OZONE,1,157,3
India,Maharashtra,Mumbai,"Siddharth Nagar-Worli, Mumbai - IITM",10-03-2024 09:00:00,19.000083,72.813993,OZONE,29,162,52
India,Maharashtra,Mumbai,"Vile Parle West, Mumbai - MPCB",10-03-2024 09:00:00,19.10861,72.83622,PM10,54,125,78
India,Maharashtra,Mumbai,"Vile Parle West, Mumbai - MPCB",10-03-2024 09:00:00,19.10861,72.83622,NO2,5,27,13
India,Maharashtra,Mumbai,"Worli, Mumbai - MPCB",10-03-2024 09:00:00,18.9936162,72.8128113,SO2,11,12,11
India,Maharashtra,Nagpur,"Ambazari, Nagpur - MPCB",10-03-2024 09:00:00,21.121801,79.04952,PM2.5,60,241,111
India,Maharashtra,Nagpur,"Ambazari, Nagpur - MPCB",10-03-2024 09:00:00,21.121801,79.04952,NO2,13,134,44
India,Maharashtra,Nagpur,"Ambazari, Nagpur - MPCB",10-03-2024 09:00:00,21.121801,79.04952,CO,11,118,17
India,Maharashtra,Nagpur,"Mahal, Nagpur - MPCB",10-03-2024 09:00:00,21.14472,79.107595,CO,17,122,29
India,Maharashtra,Nagpur,"Opp GPO Civil Lines, Nagpur - MPCB",10-03-2024 09:00:00,21.152875,79.0517531,SO2,5,128,43
India,Maharashtra,Nagpur,"Ram Nagar, Nagpur - MPCB",10-03-2024 09:00:00,21.143383,79.048912,SO2,17,113,46
India,Maharashtra,Nanded,"Sneh Nagar, Nanded - MPCB",10-03-2024 09:00:00,19.173852,77.296291,PM10,82,312,144
India,Maharashtra,Nanded,"Sneh Nagar, Nanded - MPCB",10-03-2024 09:00:00,19.173852,77.296291,SO2,6,16,8
India,Maharashtra,Nanded,"Sneh Nagar, Nanded - MPCB",10-03-2024 09:00:00,19.173852,77.296291,OZONE,3,178,19
India,Maharashtra,Nashik,"Hirawadi, Nashik - MPCB",10-03-2024 09:00:00,20.021503,73.813844,PM10,60,120,85
India,Maharashtra,Nashik,"Hirawadi, Nashik - MPCB",10-03-2024 09:00:00,20.021503,73.813844,SO2,1,24,5
India,Maharashtra,Navi Mumbai,"Kopripada-Vashi, Navi Mumbai - MPCB",10-03-2024 09:00:00,19.090337,73.014232,PM2.5,32,197,88
India,Maharashtra,Navi Mumbai,"Mahape, Navi Mumbai - MPCB",10-03-2024 09:00:00,19.1135051,73.008978,NO2,37,41,38
India,Maharashtra,Navi Mumbai,"Nerul, Navi Mumbai - MPCB",10-03-2024 09:00:00,19.008751,73.016620,PM2.5,28,249,111
India,Maharashtra,Navi Mumbai,"Nerul, Navi Mumbai - MPCB",10-03-2024 09:00:00,19.008751,73.016620,PM10,94,476,187
India,Maharashtra,Navi Mumbai,"Sanpada, Navi Mumbai - MPCB",10-03-2024 09:00:00,19.0575752,73.0151367,NH3,4,37,17
India,Maharashtra,Navi Mumbai,"Sector-19A Nerul, Navi Mumbai - IITM",10-03-2024 09:00:00,19.044,73.0325,PM10,95,280,164
India,Maharashtra,Navi Mumbai,"Sector-19A Nerul, Navi Mumbai - IITM",10-03-2024 09:00:00,19.044,73.0325,NH3,1,10,5
India,Maharashtra,Navi Mumbai,"Sector-2E Kalamboli, Navi Mumbai - MPCB",10-03-2024 09:00:00,19.02579,73.10297,PM2.5,NA,NA,NA
India,Maharashtra,Navi Mumbai,"Sector-2E Kalamboli, Navi Mumbai - MPCB",10-03-2024 09:00:00,19.02579,73.10297,NO2,11,95,49
India,Maharashtra,Navi Mumbai,"Sector-2E Kalamboli, Navi Mumbai - MPCB",10-03-2024 09:00:00,19.02579,73.10297,CO,10,76,61
India,Maharashtra,Navi Mumbai,"Tondare-Taloja, Navi Mumbai - MPCB",10-03-2024 09:00:00,19.0630,73.1209,SO2,13,100,45
India,Maharashtra,Navi Mumbai,"Tondare-Taloja, Navi Mumbai - MPCB",10-03-2024 09:00:00,19.0630,73.1209,OZONE,1,135,8
India,Maharashtra,Parbhani,"Masoom Colony, Parbhani - MPCB",10-03-2024 09:00:00,19.265594,76.761463,NH3,1,11,7
India,Maharashtra,Parbhani,"Masoom Colony, Parbhani - MPCB",10-03-2024 09:00:00,19.265594,76.761463,OZONE,4,148,49
India,Maharashtra,Pimpri-Chinchwad,"Gavalinagar, Pimpri Chinchwad - MPCB",10-03-2024 09:00:00,18.63673,73.82487,NH3,1,16,5
India,Maharashtra,Pimpri-Chinchwad,"Gavalinagar, Pimpri Chinchwad - MPCB",10-03-2024 09:00:00,18.63673,73.82487,OZONE,1,170,3
India,Maharashtra,Pimpri-Chinchwad,"Park Street Wakad, Pimpri Chinchwad - MPCB",10-03-2024 09:00:00,18.59051,73.77946,NO2,52,138,86
India,Maharashtra,Pimpri-Chinchwad,"Thergaon, Pimpri Chinchwad - MPCB",10-03-2024 09:00:00,18.616318,73.765797,NH3,3,17,10
India,Maharashtra,Pimpri-Chinchwad,"Thergaon, Pimpri Chinchwad - MPCB",10-03-2024 09:00:00,18.616318,73.765797,OZONE,1,147,5
India,Maharashtra,Pune,"Bhosari, Pune - IITM",10-03-2024 09:00:00,18.640051,73.848956,PM2.5,13,266,75
India,Maharashtra,Pune,"Katraj Dairy, Pune - MPCB",10-03-2024 09:00:00,18.454450,73.854155,PM10,61,212,107
India,Maharashtra,Pune,"Revenue Colony-Shivajinagar, Pune - IITM",10-03-2024 09:00:00,18.530085,73.849598,NH3,9,19,13
India,Maharashtra,Pune,"Savitribai Phule Pune University, Pune - MPCB",10-03-2024 09:00:00,18.547056,73.826908,CO,14,76,51
India,Maharashtra,Sangli,"Vijay Nagar, Sangli - MPCB",10-03-2024 09:00:00, 16.5038,74.3623,SO2,11,28,18
India,Maharashtra,Sangli,"Vijay Nagar, Sangli - MPCB",10-03-2024 09:00:00, 16.5038,74.3623,OZONE,122,122,122
India,Maharashtra,Solapur,"Dnyaneshwar Nagar, Solapur - MPCB",10-03-2024 09:00:00,17.6336264,75.9132495,PM2.5,94,202,135
India,Maharashtra,Solapur,"Ratandeep Housing Society, Solapur - MPCB",10-03-2024 09:00:00,17.65439,75.90649,CO,18,73,22
India,Maharashtra,Solapur,"Solapur, Solapur - MPCB",10-03-2024 09:00:00,17.6599188,75.9063906,SO2,33,39,36
India,Maharashtra,Thane,"Kasarvadavali, Thane - MPCB",10-03-2024 09:00:00,19.26777,72.97182,OZONE,2,171,14
India,Maharashtra,Thane,"Pimpleshwar Mandir, Thane - MPCB",10-03-2024 09:00:00,19.192056,72.9585188,PM10,93,434,217
India,Maharashtra,Thane,"Pimpleshwar Mandir, Thane - MPCB",10-03-2024 09:00:00,19.192056,72.9585188,NH3,3,3,3
India,Maharashtra,Thane,"Pimpleshwar Mandir, Thane - MPCB",10-03-2024 09:00:00,19.192056,72.9585188,OZONE,1,59,3
India,Maharashtra,Ulhasnagar,"Sidhi Vinayak Nagar, Ulhasnagar - MPCB",10-03-2024 09:00:00,19.235581,73.159121,PM10,80,157,117
India,Maharashtra,Ulhasnagar,"Sidhi Vinayak Nagar, Ulhasnagar - MPCB",10-03-2024 09:00:00,19.235581,73.159121,NH3,2,3,3
India,Maharashtra,Ulhasnagar,"Sidhi Vinayak Nagar, Ulhasnagar - MPCB",10-03-2024 09:00:00,19.235581,73.159121,OZONE,5,66,33
India,Maharashtra,Virar,"Bolinj, Virar - MPCB",10-03-2024 09:00:00,19.4458210,72.7988231,PM2.5,84,160,114
India,Maharashtra,Virar,"Bolinj, Virar - MPCB",10-03-2024 09:00:00,19.4458210,72.7988231,NO2,9,51,25
India,Manipur,Imphal,"DM College of Science, Imphal - Manipur PCB",10-03-2024 09:00:00,24.8207389,93.9423085,SO2,85,91,88
India,Manipur,Imphal,"Manipur University, Imphal - Manipur PCB",10-03-2024 09:00:00,24.7524239,93.9286218,SO2,71,77,74
India,Meghalaya,Shillong,"Lumpyngngad, Shillong - Meghalaya PCB",10-03-2024 09:00:00,25.5586,91.8985,OZONE,72,120,99
India,Odisha,Angul,"Hakimapada, Angul - OSPCB",10-03-2024 09:00:00,20.832874,85.104082,PM10,88,398,174
India,Odisha,Angul,"Hakimapada, Angul - OSPCB",10-03-2024 09:00:00,20.832874,85.104082,OZONE,18,163,61
India,Odisha,Balasore,"Kalidaspur, Balasore - OSPCB",10-03-2024 09:00:00,21.51161,86.89088,PM10,96,199,128
India,Odisha,Balasore,"Kalidaspur, Balasore - OSPCB",10-03-2024 09:00:00,21.51161,86.89088,OZONE,4,126,35
India,Odisha,Barbil,"Forest Office, Barbil - OSPCB",10-03-2024 09:00:00,22.1166054,85.3945546,NO2,5,15,8
India,Odisha,Barbil,"Forest Office, Barbil - OSPCB",10-03-2024 09:00:00,22.1166054,85.3945546,SO2,2,36,10
India,Odisha,Barbil,"Forest Office, Barbil - OSPCB",10-03-2024 09:00:00,22.1166054,85.3945546,OZONE,8,173,19
India,Odisha,Baripada,"Meher Colony, Baripada - OSPCB",10-03-2024 09:00:00,21.941841,86.728318,NO2,1,1,1
India,Odisha,Bhubaneswar,"Lingraj Mandir, Bhubaneswar - OSPCB",10-03-2024 09:00:00,20.240790,85.836784,NH3,NA,NA,NA
India,Odisha,Bhubaneswar,"Patia, Bhubaneswar - OSPCB",10-03-2024 09:00:00,20.34652,85.81630,PM2.5,55,150,88
India,Odisha,Bhubaneswar,"Patia, Bhubaneswar - OSPCB",10-03-2024 09:00:00,20.34652,85.81630,CO,52,100,93
India,Odisha,Brajrajnagar,"GM Office, Brajrajnagar - OSPCB",10-03-2024 09:00:00,21.8004996,83.8396977,SO2,15,17,15
India,Odisha,Byasanagar,"Ferro Chrome Colony, Byasanagar - OSPCB",10-03-2024 09:00:00,20.94185,86.11510,SO2,7,21,14
India,Odisha,Byasanagar,"Ferro Chrome Colony, Byasanagar - OSPCB",10-03-2024 09:00:00,20.94185,86.11510,OZONE,24,188,62
India,Odisha,Cuttack,"CDA Area, Cuttack - OSPCB",10-03-2024 09:00:00,20.48891     ,85.84768     ,SO2,5,38,11
India,Odisha,Keonjhar,"Jagamohanpur, Keonjhar - OSPCB",10-03-2024 09:00:00,21.643900,85.599355,PM10,88,111,99
India,Odisha,Keonjhar,"Jagamohanpur, Keonjhar - OSPCB",10-03-2024 09:00:00,21.643900,85.599355,NO2,18,107,55
India,Odisha,Keonjhar,"Jagamohanpur, Keonjhar - OSPCB",10-03-2024 09:00:00,21.643900,85.599355,OZONE,1,43,6
India,Odisha,Rourkela,"Fertilizer Township, Rourkela - OSPCB",10-03-2024 09:00:00,22.18972222,84.86277778,NO2,8,76,26
India,Odisha,Rourkela,"Fertilizer Township, Rourkela - OSPCB",10-03-2024 09:00:00,22.18972222,84.86277778,CO,15,24,20
India,Odisha,Rourkela,"Raghunathpali, Rourkela - OSPCB",10-03-2024 09:00:00,22.220833,84.809444,NO2,20,164,59
India,Odisha,Rourkela,"Raghunathpali, Rourkela - OSPCB",10-03-2024 09:00:00,22.220833,84.809444,NH3,1,3,2
India,Odisha,Rourkela,"Raghunathpali, Rourkela - OSPCB",10-03-2024 09:00:00,22.220833,84.809444,SO2,2,16,5
India,Odisha,Rourkela,"Raghunathpali, Rourkela - OSPCB",10-03-2024 09:00:00,22.220833,84.809444,CO,20,64,36
India,Odisha,Rourkela,"Sector-2, Rourkela - OSPCB",10-03-2024 09:00:00,22.24500000,84.88111111,PM2.5,NA,NA,NA
India,Odisha,Rourkela,"Sector-2, Rourkela - OSPCB",10-03-2024 09:00:00,22.24500000,84.88111111,PM10,67,115,90
India,Odisha,Talcher,"Talcher Coalfields,Talcher - OSPCB",10-03-2024 09:00:00,20.9360711,85.1707021,NH3,7,7,7
India,Odisha,Talcher,"Talcher Coalfields,Talcher - OSPCB",10-03-2024 09:00:00,20.9360711,85.1707021,SO2,15,63,32
India,Odisha,Tensa,"Barsua Iron Ore Mines, Tensa - OSPCB",10-03-2024 09:00:00,21.869985,85.167016,PM10,73,110,89
India,Odisha,Tensa,"Barsua Iron Ore Mines, Tensa - OSPCB",10-03-2024 09:00:00,21.869985,85.167016,SO2,11,18,14
India,Punjab,Jalandhar,"Civil Line, Jalandhar - PPCB",10-03-2024 09:00:00,31.321907,75.578914,PM2.5,71,170,114
India,Punjab,Jalandhar,"Civil Line, Jalandhar - PPCB",10-03-2024 09:00:00,31.321907,75.578914,SO2,10,21,13
India,Punjab,Khanna,"Kalal Majra, Khanna - PPCB",10-03-2024 09:00:00,30.736056 ,76.209694,PM2.5,37,133,76
India,Punjab,Ludhiana,"Punjab Agricultural University, Ludhiana - PPCB",10-03-2024 09:00:00,30.9028,75.8086,NO2,21,21,21
India,Punjab,Ludhiana,"Punjab Agricultural University, Ludhiana - PPCB",10-03-2024 09:00:00,30.9028,75.8086,SO2,7,14,10
India,Punjab,Patiala,"Model Town, Patiala - PPCB",10-03-2024 09:00:00,30.349388,76.366642,NO2,9,16,13
India,Punjab,Patiala,"Model Town, Patiala - PPCB",10-03-2024 09:00:00,30.349388,76.366642,NH3,5,5,5
India,Punjab,Rupnagar,"Ratanpura, Rupnagar - Ambuja Cements",10-03-2024 09:00:00,31.0325454,76.5623046,PM2.5,26,304,122
India,Punjab,Rupnagar,"Ratanpura, Rupnagar - Ambuja Cements",10-03-2024 09:00:00,31.0325454,76.5623046,SO2,3,12,8
India,Punjab,Rupnagar,"Ratanpura, Rupnagar - Ambuja Cements",10-03-2024 09:00:00,31.0325454,76.5623046,CO,31,58,45
India,Rajasthan,Alwar,"Moti Doongri, Alwar - RSPCB",10-03-2024 09:00:00,27.554793,76.611536,NH3,5,7,6
India,Rajasthan,Alwar,"Moti Doongri, Alwar - RSPCB",10-03-2024 09:00:00,27.554793,76.611536,SO2,10,43,28
India,Rajasthan,Banswara,"Rati Talai, Banswara - RSPCB",10-03-2024 09:00:00,23.555190,74.440010,PM2.5,26,266,69
India,Rajasthan,Banswara,"Rati Talai, Banswara - RSPCB",10-03-2024 09:00:00,23.555190,74.440010,PM10,26,280,116
India,Rajasthan,Banswara,"Rati Talai, Banswara - RSPCB",10-03-2024 09:00:00,23.555190,74.440010,NH3,4,7,5
India,Rajasthan,Baran,"Bamboliya, Baran - RSPCB",10-03-2024 09:00:00,25.106006,76.469948,NO2,NA,NA,NA
India,Rajasthan,Bharatpur,"Krishna Nagar, Bharatpur - RSPCB",10-03-2024 09:00:00,27.215415,77.50873,PM2.5,NA,NA,NA
India,Rajasthan,Bharatpur,"Krishna Nagar, Bharatpur - RSPCB",10-03-2024 09:00:00,27.215415,77.50873,SO2,1,6,2
India,Rajasthan,Bhilwara,"Pratap Nagar, Bhilwara - RSPCB",10-03-2024 09:00:00,25.339605,74.618883,CO,16,98,26
India,Rajasthan,Bhilwara,"Pratap Nagar, Bhilwara - RSPCB",10-03-2024 09:00:00,25.339605,74.618883,OZONE,7,104,56
India,Rajasthan,Bhiwadi,"RIICO Ind. Area III, Bhiwadi - RSPCB",10-03-2024 09:00:00,28.194909,76.862296,PM2.5,2,97,38
India,Rajasthan,Bhiwadi,"RIICO Ind. Area III, Bhiwadi - RSPCB",10-03-2024 09:00:00,28.194909,76.862296,SO2,8,29,18
India,Rajasthan,Bhiwadi,"Vasundhara Nagar_UIT, Bhiwadi - RSPCB",10-03-2024 09:00:00,28.207266,76.829265,PM10,88,280,138
India,Rajasthan,Bhiwadi,"Vasundhara Nagar_UIT, Bhiwadi - RSPCB",10-03-2024 09:00:00,28.207266,76.829265,CO,15,54,37
India,Rajasthan,Bundi,"New Colony, Bundi - RSPCB",10-03-2024 09:00:00,25.435774,75.644272,CO,14,44,21
India,Rajasthan,Chittorgarh,"Shastri Nagar, Chittorgarh - RSPCB",10-03-2024 09:00:00,24.892047,74.623527,PM10,86,187,137
India,Rajasthan,Chittorgarh,"Shastri Nagar, Chittorgarh - RSPCB",10-03-2024 09:00:00,24.892047,74.623527,NH3,4,10,7
India,Rajasthan,Dausa,"Khatikan Mohalla, Dausa - RSPCB",10-03-2024 09:00:00,26.895552,76.334753,PM10,105,274,129
India,Rajasthan,Dausa,"Khatikan Mohalla, Dausa - RSPCB",10-03-2024 09:00:00,26.895552,76.334753,NO2,34,118,53
India,Rajasthan,Dausa,"Khatikan Mohalla, Dausa - RSPCB",10-03-2024 09:00:00,26.895552,76.334753,CO,2,111,31
India,Rajasthan,Dholpur,"Raja Ganj, Dholpur - RSPCB",10-03-2024 09:00:00,26.699557,77.898881,PM10,113,416,183
India,Rajasthan,Dholpur,"Raja Ganj, Dholpur - RSPCB",10-03-2024 09:00:00,26.699557,77.898881,OZONE,20,164,58
India,Rajasthan,Dungarpur,"Bhoiwada, Dungarpur - RSPCB",10-03-2024 09:00:00,23.837789,73.714926,SO2,10,21,13
India,Rajasthan,Hanumangarh,"Housing Board, Hanumangarh - RSPCB",10-03-2024 09:00:00,29.610750,74.283608,PM2.5,48,451,245
India,Rajasthan,Hanumangarh,"Housing Board, Hanumangarh - RSPCB",10-03-2024 09:00:00,29.610750,74.283608,NH3,9,28,16
India,Rajasthan,Jaipur,"Adarsh Nagar, Jaipur - RSPCB",10-03-2024 09:00:00,26.902909,75.836858,SO2,10,41,18
India,Rajasthan,Jaipur,"Mansarovar Sector-12, Jaipur - RSPCB",10-03-2024 09:00:00,26.843698,75.766894,PM10,26,264,75
India,Rajasthan,Jaipur,"Police Commissionerate, Jaipur - RSPCB",10-03-2024 09:00:00,26.9164092,75.7994901,PM10,81,140,100
India,Rajasthan,Jaipur,"Police Commissionerate, Jaipur - RSPCB",10-03-2024 09:00:00,26.9164092,75.7994901,SO2,15,24,19
India,Rajasthan,Jaipur,"RIICO Sitapura, Jaipur - RSPCB",10-03-2024 09:00:00,26.786682,75.827928,PM2.5,37,370,94
India,Rajasthan,Jaipur,"Sector-2 Murlipura, Jaipur - RSPCB",10-03-2024 09:00:00,26.960669,75.771817,PM2.5,35,116,49
India,Rajasthan,Jaipur,"Shastri Nagar, Jaipur - RSPCB",10-03-2024 09:00:00,26.9502929,75.730943,NH3,2,15,6
India,Rajasthan,Jaisalmer,"Sadar Bazar, Jaisalmer - RSPCB",10-03-2024 09:00:00,26.912329,70.909168,PM10,43,150,80
India,Rajasthan,Jalore,"Mudtra Sili, Jalore - RSPCB",10-03-2024 09:00:00,25.344694,72.626208,OZONE,29,141,67
India,Rajasthan,Jhalawar,"Rajlaxmi Nagar, Jhalawar - RSPCB",10-03-2024 09:00:00,24.588397,76.172782,PM2.5,27,84,45
India,Rajasthan,Jhalawar,"Rajlaxmi Nagar, Jhalawar - RSPCB",10-03-2024 09:00:00,24.588397,76.172782,CO,20,35,26
India,Rajasthan,Jhunjhunu,"Indra Nagar, Jhunjhunu - RSPCB",10-03-2024 09:00:00,28.108988,75.386577,PM2.5,16,317,77
India,Rajasthan,Jhunjhunu,"Indra Nagar, Jhunjhunu - RSPCB",10-03-2024 09:00:00,28.108988,75.386577,PM10,44,203,100
India,Rajasthan,Jhunjhunu,"Indra Nagar, Jhunjhunu - RSPCB",10-03-2024 09:00:00,28.108988,75.386577,NH3,11,17,13
India,Rajasthan,Jhunjhunu,"Indra Nagar, Jhunjhunu - RSPCB",10-03-2024 09:00:00,28.108988,75.386577,SO2,3,10,5
India,Rajasthan,Jhunjhunu,"Indra Nagar, Jhunjhunu - RSPCB",10-03-2024 09:00:00,28.108988,75.386577,CO,12,34,30
India,Rajasthan,Jodhpur,"Collectorate, Jodhpur - RSPCB",10-03-2024 09:00:00,26.268249,73.0193853,OZONE,50,133,72
India,Rajasthan,Jodhpur,"Digari Kalan, Jodhpur - RSPCB",10-03-2024 09:00:00,26.295810,73.082283,PM2.5,16,61,35
India,Rajasthan,Jodhpur,"Digari Kalan, Jodhpur - RSPCB",10-03-2024 09:00:00,26.295810,73.082283,PM10,46,96,63
India,Rajasthan,Jodhpur,"Jhalamand, Jodhpur - RSPCB",10-03-2024 09:00:00,26.215415,73.070156,PM10,47,284,76
India,Rajasthan,Jodhpur,"Jhalamand, Jodhpur - RSPCB",10-03-2024 09:00:00,26.215415,73.070156,CO,12,28,21
India,Rajasthan,Jodhpur,"Jhalamand, Jodhpur - RSPCB",10-03-2024 09:00:00,26.215415,73.070156,OZONE,62,102,67
India,Rajasthan,Jodhpur,"Mandor, Jodhpur - RSPCB",10-03-2024 09:00:00,26.358805,73.047444,PM10,32,85,56
India,Rajasthan,Jodhpur,"Mandor, Jodhpur - RSPCB",10-03-2024 09:00:00,26.358805,73.047444,OZONE,77,123,84
India,Rajasthan,Jodhpur,"Samrat Ashok Udhyan, Jodhpur - RSPCB",10-03-2024 09:00:00,26.253384,72.976571,CO,26,39,31
India,Rajasthan,Jodhpur,"Samrat Ashok Udhyan, Jodhpur - RSPCB",10-03-2024 09:00:00,26.253384,72.976571,OZONE,81,156,101
India,Rajasthan,Kota,"Dhanmandi, Kota - RSPCB",10-03-2024 09:00:00,25.164090,75.858137,NO2,43,173,75
India,Rajasthan,Kota,"Nayapura, Kota - RSPCB",10-03-2024 09:00:00,25.196024,75.855668,OZONE,9,172,59
India,Rajasthan,Kota,"Shrinath Puram, Kota - RSPCB",10-03-2024 09:00:00,25.14389,75.821256,PM2.5,89,313,194
India,Rajasthan,Kota,"Shrinath Puram, Kota - RSPCB",10-03-2024 09:00:00,25.14389,75.821256,PM10,92,197,132
India,Rajasthan,Nagaur,"Karni Colony, Nagaur - RSPCB",10-03-2024 09:00:00,27.213494,73.734444,PM2.5,13,106,45
India,Rajasthan,Pali,"Indira Colony Vistar, Pali - RSPCB",10-03-2024 09:00:00,25.771061, 73.340227,PM10,68,123,94
India,Rajasthan,Pali,"Indira Colony Vistar, Pali - RSPCB",10-03-2024 09:00:00,25.771061, 73.340227,NH3,6,16,13
India,Rajasthan,Pali,"Indira Colony Vistar, Pali - RSPCB",10-03-2024 09:00:00,25.771061, 73.340227,OZONE,26,75,36
India,Rajasthan,Pratapgarh,"Pragati Nagar, Pratapgarh - RSPCB",10-03-2024 09:00:00,24.041198,74.780702,NO2,8,41,17
India,Rajasthan,Pratapgarh,"Pragati Nagar, Pratapgarh - RSPCB",10-03-2024 09:00:00,24.041198,74.780702,SO2,3,23,7
India,Rajasthan,Rajsamand,"Dhoinda, Rajsamand - RSPCB",10-03-2024 09:00:00,25.036360,73.883502,PM10,33,143,77
India,Rajasthan,Rajsamand,"Dhoinda, Rajsamand - RSPCB",10-03-2024 09:00:00,25.036360,73.883502,OZONE,37,91,51
India,Rajasthan,Sawai Madhopur,"Sahu Nagar, Sawai Madhopur - RSPCB",10-03-2024 09:00:00,26.031443,76.359327,NH3,4,45,26
India,Rajasthan,Sawai Madhopur,"Sahu Nagar, Sawai Madhopur - RSPCB",10-03-2024 09:00:00,26.031443,76.359327,SO2,5,36,13
India,Rajasthan,Sikar,"Radhakishan Pura, Sikar - RSPCB",10-03-2024 09:00:00,27.608912,75.153302,NH3,1,7,4
India,Rajasthan,Sikar,"Radhakishan Pura, Sikar - RSPCB",10-03-2024 09:00:00,27.608912,75.153302,OZONE,9,157,49
India,Rajasthan,Sirohi,"Vedhaynath Colony, Sirohi - RSPCB",10-03-2024 09:00:00,24.885261,72.857549,NO2,8,74,23
India,Rajasthan,Sri Ganganagar,"Old City, Sri Ganganagar - RSPCB",10-03-2024 09:00:00,29.931624,73.864511,NO2,28,138,58
India,Rajasthan,Udaipur,"Ashok Nagar, Udaipur - RSPCB",10-03-2024 09:00:00,24.5886166,73.6321397,OZONE,5,71,18
India,TamilNadu,Ariyalur,"Keelapalur, Ariyalur - TNPCB",10-03-2024 09:00:00,11.06825,79.07033,SO2,33,62,36
India,TamilNadu,Chengalpattu,"Crescent University, Chengalpattu - TNPCB",10-03-2024 09:00:00,12.8777316,80.0834807,CO,28,30,30
India,TamilNadu,Chennai,"Alandur Bus Depot, Chennai - CPCB",10-03-2024 09:00:00,12.9099161,80.1076538,OZONE,3,10,5
India,TamilNadu,Chennai,"Arumbakkam, Chennai - TNPCB",10-03-2024 09:00:00,13.0664,80.2112 ,PM10,38,116,69
India,TamilNadu,Chennai,"Kodungaiyur, Chennai - TNPCB",10-03-2024 09:00:00,13.1278,80.2642,PM2.5,12,42,24
India,TamilNadu,Chennai,"Perungudi, Chennai - TNPCB",10-03-2024 09:00:00,12.9533,80.2357,NH3,2,3,2
India,TamilNadu,Chennai,"Perungudi, Chennai - TNPCB",10-03-2024 09:00:00,12.9533,80.2357,OZONE,4,8,7
India,TamilNadu,Chennai,"Velachery Res. Area, Chennai - CPCB",10-03-2024 09:00:00,13.0052189,80.2398125,NO2,6,28,12
India,TamilNadu,Chennai,"Velachery Res. Area, Chennai - CPCB",10-03-2024 09:00:00,13.0052189,80.2398125,NH3,9,13,11
India,TamilNadu,Coimbatore,"PSG College of Arts and Science, Coimbatore - TNPCB",10-03-2024 09:00:00,11.0328,77.0349,NO2,4,7,5
India,TamilNadu,Coimbatore,"PSG College of Arts and Science, Coimbatore - TNPCB",10-03-2024 09:00:00,11.0328,77.0349,SO2,15,27,21
India,TamilNadu,Coimbatore,"PSG College of Arts and Science, Coimbatore - TNPCB",10-03-2024 09:00:00,11.0328,77.0349,CO,5,5,5
India,TamilNadu,Coimbatore,"PSG College of Arts and Science, Coimbatore - TNPCB",10-03-2024 09:00:00,11.0328,77.0349,OZONE,3,5,4
India,TamilNadu,Cuddalore,"Kudikadu, Cuddalore - TNPCB",10-03-2024 09:00:00,11.6829898,79.7532099,SO2,10,17,12
India,TamilNadu,Gummidipoondi,"Anthoni Pillai Nagar, Gummidipoondi - TNPCB",10-03-2024 09:00:00,13.4127,80.1081,PM10,56,119,89
India,TamilNadu,Gummidipoondi,"Anthoni Pillai Nagar, Gummidipoondi - TNPCB",10-03-2024 09:00:00,13.4127,80.1081,SO2,1,91,17
India,TamilNadu,Ooty,"Bombay Castel, Ooty - TNPCB",10-03-2024 09:00:00,11.4068288,76.7138973,PM2.5,NA,NA,NA
India,TamilNadu,Palkalaiperur,"Bharathidasan University, Palkalaiperur - TNPCB",10-03-2024 09:00:00,10.681158,78.741746,PM2.5,27,49,37
India,TamilNadu,Palkalaiperur,"Bharathidasan University, Palkalaiperur - TNPCB",10-03-2024 09:00:00,10.681158,78.741746,PM10,33,62,46
India,TamilNadu,Palkalaiperur,"Bharathidasan University, Palkalaiperur - TNPCB",10-03-2024 09:00:00,10.681158,78.741746,OZONE,1,1,1
India,TamilNadu,Thoothukudi,"Meelavittan, Thoothukudi - TNPCB",10-03-2024 09:00:00,8.816428 ,78.099039,PM10,40,159,94
India,TamilNadu,Tirupur,"Kumaran College, Tirupur - TNPCB",10-03-2024 09:00:00,11.0973603,77.3228673,SO2,18,19,18
India,TamilNadu,Vellore,"Vasanthapuram, Vellore - TNPCB",10-03-2024 09:00:00,12.909494,79.131861,PM10,NA,NA,NA
India,TamilNadu,Vellore,"Vasanthapuram, Vellore - TNPCB",10-03-2024 09:00:00,12.909494,79.131861,NH3,NA,NA,NA
India,Telangana,Hyderabad,"Bollaram Industrial Area, Hyderabad - TSPCB",10-03-2024 09:00:00,17.540891,78.358528,PM10,61,120,95
India,Telangana,Hyderabad,"Bollaram Industrial Area, Hyderabad - TSPCB",10-03-2024 09:00:00,17.540891,78.358528,NH3,2,4,2
India,Telangana,Hyderabad,"Bollaram Industrial Area, Hyderabad - TSPCB",10-03-2024 09:00:00,17.540891,78.358528,CO,6,60,28
India,Telangana,Hyderabad,"Central University, Hyderabad - TSPCB",10-03-2024 09:00:00,17.460103,78.334361,PM10,66,100,87
India,Telangana,Hyderabad,"Central University, Hyderabad - TSPCB",10-03-2024 09:00:00,17.460103,78.334361,NH3,2,9,6
India,Telangana,Hyderabad,"Central University, Hyderabad - TSPCB",10-03-2024 09:00:00,17.460103,78.334361,OZONE,3,4,3
India,Telangana,Hyderabad,"ECIL Kapra, Hyderabad - TSPCB",10-03-2024 09:00:00,17.470431,78.566959,PM10,57,79,67
India,Telangana,Hyderabad,"IITH Kandi, Hyderabad - TSPCB",10-03-2024 09:00:00,17.585705,78.126199,OZONE,34,34,34
India,Telangana,Hyderabad,"Kokapet, Hyderabad - TSPCB",10-03-2024 09:00:00,17.393559,78.339194,NO2,8,8,8
India,Telangana,Hyderabad,"Kokapet, Hyderabad - TSPCB",10-03-2024 09:00:00,17.393559,78.339194,OZONE,2,9,3
India,Telangana,Hyderabad,"Kompally Municipal Office, Hyderabad - TSPCB",10-03-2024 09:00:00,17.544899,78.486949,NO2,NA,NA,NA
India,Telangana,Hyderabad,"Nacharam_TSIIC IALA, Hyderabad - TSPCB",10-03-2024 09:00:00,17.429398,78.569354,PM10,68,102,79
India,Telangana,Hyderabad,"New Malakpet, Hyderabad - TSPCB",10-03-2024 09:00:00,17.37206,78.50864,OZONE,2,26,5
India,Telangana,Hyderabad,"Sanathnagar, Hyderabad - TSPCB",10-03-2024 09:00:00,17.4559458,78.4332152,NO2,28,31,29
India,Telangana,Hyderabad,"Zoo Park, Hyderabad - TSPCB",10-03-2024 09:00:00,17.349694,78.451437,CO,32,71,40
India,Tripura,Agartala,"Bardowali, Agartala - Tripura SPCB",10-03-2024 09:00:00,23.8175497,91.2726974,NH3,2,3,2
India,Tripura,Agartala,"Bardowali, Agartala - Tripura SPCB",10-03-2024 09:00:00,23.8175497,91.2726974,SO2,27,28,27
India,Uttar_Pradesh,Agra,"Manoharpur, Agra - UPPCB",10-03-2024 09:00:00,27.23711,78.01936,NH3,1,1,1
India,Uttar_Pradesh,Agra,"Manoharpur, Agra - UPPCB",10-03-2024 09:00:00,27.23711,78.01936,OZONE,NA,NA,NA
India,Uttar_Pradesh,Agra,"Rohta, Agra - UPPCB",10-03-2024 09:00:00,27.106972,78.000111,OZONE,14,18,16
India,Uttar_Pradesh,Agra,"Shastripuram, Agra - UPPCB",10-03-2024 09:00:00,27.19862,77.92066,NH3,1,2,1
India,Uttar_Pradesh,Baghpat,"Sardar Patel Inter College, Baghpat - UPPCB",10-03-2024 09:00:00,28.964949,77.278761,NH3,1,4,2
India,Uttar_Pradesh,Bareilly,"Civil Lines, Bareilly - UPPCB",10-03-2024 09:00:00,28.359581,79.414455,NO2,12,20,15
India,Uttar_Pradesh,Bareilly,"Civil Lines, Bareilly - UPPCB",10-03-2024 09:00:00,28.359581,79.414455,NH3,1,3,1
India,Uttar_Pradesh,Bareilly,"Rajendra Nagar, Bareilly - UPPCB",10-03-2024 09:00:00,28.38910936,79.42963708,PM10,37,91,51
India,Uttar_Pradesh,Bulandshahr,"Yamunapuram, Bulandshahr - UPPCB",10-03-2024 09:00:00,28.406963,77.849831,PM10,89,149,122
India,Uttar_Pradesh,Bulandshahr,"Yamunapuram, Bulandshahr - UPPCB",10-03-2024 09:00:00,28.406963,77.849831,CO,22,68,56
India,Uttar_Pradesh,Firozabad,"Nagla Bhau, Firozabad - UPPCB",10-03-2024 09:00:00,27.168897,78.376960,PM10,NA,NA,NA
India,Uttar_Pradesh,Firozabad,"Nagla Bhau, Firozabad - UPPCB",10-03-2024 09:00:00,27.168897,78.376960,NH3,2,2,2
India,Uttar_Pradesh,Firozabad,"Vibhab Nagar, Firozabad - UPPCB",10-03-2024 09:00:00,27.1594,78.3953,NH3,2,2,2
India,Uttar_Pradesh,Ghaziabad,"Indirapuram, Ghaziabad - UPPCB",10-03-2024 09:00:00,28.646233,77.358075,NO2,37,81,59
India,Uttar_Pradesh,Ghaziabad,"Indirapuram, Ghaziabad - UPPCB",10-03-2024 09:00:00,28.646233,77.358075,NH3,6,9,8
India,Uttar_Pradesh,Ghaziabad,"Sanjay Nagar, Ghaziabad - UPPCB",10-03-2024 09:00:00,28.685382,77.453839,OZONE,2,94,42
India,Uttar_Pradesh,Ghaziabad,"Vasundhara, Ghaziabad - UPPCB",10-03-2024 09:00:00,28.6603346,77.3572563,SO2,1,28,13
India,Uttar_Pradesh,Greater Noida,"Knowledge Park - III, Greater Noida - UPPCB",10-03-2024 09:00:00,28.47272,77.482000,NO2,31,145,83
India,Uttar_Pradesh,Greater Noida,"Knowledge Park - V, Greater Noida - UPPCB",10-03-2024 09:00:00,28.557054,77.453663,NO2,18,42,29
India,Uttar_Pradesh,Hapur,"Anand Vihar, Hapur - UPPCB",10-03-2024 09:00:00,28.725645,77.749675,PM2.5,27,174,79
India,Uttar_Pradesh,Hapur,"Anand Vihar, Hapur - UPPCB",10-03-2024 09:00:00,28.725645,77.749675,NO2,5,73,33
India,Uttar_Pradesh,Hapur,"Anand Vihar, Hapur - UPPCB",10-03-2024 09:00:00,28.725645,77.749675,NH3,3,14,10
India,Uttar_Pradesh,Jhansi,"Shivaji Nagar, Jhansi - UPPCB",10-03-2024 09:00:00,25.4547,78.6039,PM2.5,32,500,85
India,Uttar_Pradesh,Jhansi,"Shivaji Nagar, Jhansi - UPPCB",10-03-2024 09:00:00,25.4547,78.6039,OZONE,2,18,5
India,Uttar_Pradesh,Kanpur,"FTI Kidwai Nagar, Kanpur - UPPCB",10-03-2024 09:00:00,26.428282,80.327067,PM2.5,47,120,75
India,Uttar_Pradesh,Kanpur,"FTI Kidwai Nagar, Kanpur - UPPCB",10-03-2024 09:00:00,26.428282,80.327067,NH3,1,1,1
India,Uttar_Pradesh,Kanpur,"NSI Kalyanpur, Kanpur - UPPCB",10-03-2024 09:00:00,26.509954,80.249612,PM2.5,32,95,59
India,Uttar_Pradesh,Kanpur,"NSI Kalyanpur, Kanpur - UPPCB",10-03-2024 09:00:00,26.509954,80.249612,NH3,1,1,1
India,Uttar_Pradesh,Kanpur,"NSI Kalyanpur, Kanpur - UPPCB",10-03-2024 09:00:00,26.509954,80.249612,SO2,19,20,20
India,Uttar_Pradesh,Khurja,"Kalindi Kunj, Khurja - UPPCB",10-03-2024 09:00:00,28.2348927,77.8683002,NO2,11,23,15
India,Uttar_Pradesh,Khurja,"Kalindi Kunj, Khurja - UPPCB",10-03-2024 09:00:00,28.2348927,77.8683002,OZONE,15,21,16
India,Uttar_Pradesh,Lucknow,"B R Ambedkar University, Lucknow - UPPCB",10-03-2024 09:00:00,26.766433,80.927299,SO2,27,32,30
India,Uttar_Pradesh,Lucknow,"Gomti Nagar, Lucknow - UPPCB",10-03-2024 09:00:00,26.868120,81.005119,PM2.5,54,151,84
India,Uttar_Pradesh,Lucknow,"Gomti Nagar, Lucknow - UPPCB",10-03-2024 09:00:00,26.868120,81.005119,OZONE,28,38,29
India,Uttar_Pradesh,Lucknow,"Kendriya Vidyalaya, Lucknow - CPCB",10-03-2024 09:00:00,26.906111,80.948222,OZONE,18,37,23
India,Uttar_Pradesh,Lucknow,"Kukrail Picnic Spot-1, Lucknow - UPPCB",10-03-2024 09:00:00,26.90723,80.98579,PM10,42,77,58
India,Uttar_Pradesh,Lucknow,"Kukrail Picnic Spot-1, Lucknow - UPPCB",10-03-2024 09:00:00,26.90723,80.98579,SO2,31,35,33
India,Uttar_Pradesh,Lucknow,"Lalbagh, Lucknow - CPCB",10-03-2024 09:00:00,26.8458805,80.9365541,NO2,6,19,10
India,Uttar_Pradesh,Lucknow,"Lalbagh, Lucknow - CPCB",10-03-2024 09:00:00,26.8458805,80.9365541,SO2,1,25,7
India,Uttar_Pradesh,Lucknow,"Talkatora District Industries Center, Lucknow - CPCB",10-03-2024 09:00:00,26.83399722,80.8917361,NO2,30,54,38
India,Uttar_Pradesh,Meerut,"Jai Bhim Nagar, Meerut - UPPCB",10-03-2024 09:00:00,28.9535882,77.7622941,PM2.5,25,90,52
India,Uttar_Pradesh,Meerut,"Pallavpuram Phase 2, Meerut - UPPCB",10-03-2024 09:00:00,29.063510,77.709723,NH3,9,12,10
India,Uttar_Pradesh,Meerut,"Pallavpuram Phase 2, Meerut - UPPCB",10-03-2024 09:00:00,29.063510,77.709723,OZONE,20,89,27
India,Uttar_Pradesh,Moradabad,"Buddhi Vihar, Moradabad - UPPCB",10-03-2024 09:00:00,28.83526,78.74460,PM2.5,28,112,64
India,Uttar_Pradesh,Moradabad,"Buddhi Vihar, Moradabad - UPPCB",10-03-2024 09:00:00,28.83526,78.74460,CO,22,32,30
India,Uttar_Pradesh,Moradabad,"Eco Herbal Park, Moradabad - UPPCB",10-03-2024 09:00:00,28.840739,78.697531,NH3,4,67,10
India,Uttar_Pradesh,Moradabad,"Eco Herbal Park, Moradabad - UPPCB",10-03-2024 09:00:00,28.840739,78.697531,CO,10,56,33
India,Uttar_Pradesh,Moradabad,"Employment Office, Moradabad - UPPCB",10-03-2024 09:00:00,28.88528,78.73880,CO,9,22,22
India,Uttar_Pradesh,Moradabad,"Jigar Colony, Moradabad - UPPCB",10-03-2024 09:00:00,28.856664,78.772638,SO2,18,22,20
India,Uttar_Pradesh,Moradabad,"Kashiram Nagar, Moradabad - UPPCB",10-03-2024 09:00:00,28.849399,78.742362,PM10,40,114,80
India,Uttar_Pradesh,Moradabad,"Kashiram Nagar, Moradabad - UPPCB",10-03-2024 09:00:00,28.849399,78.742362,NO2,13,28,19
India,Uttar_Pradesh,Moradabad,"Transport Nagar, Moradabad - UPPCB",10-03-2024 09:00:00,28.802625,78.753728,PM2.5,17,75,48
India,Uttar_Pradesh,Moradabad,"Transport Nagar, Moradabad - UPPCB",10-03-2024 09:00:00,28.802625,78.753728,PM10,43,99,68
India,Uttar_Pradesh,Moradabad,"Transport Nagar, Moradabad - UPPCB",10-03-2024 09:00:00,28.802625,78.753728,SO2,42,51,45
India,Uttar_Pradesh,Noida,"Sector - 125, Noida - UPPCB",10-03-2024 09:00:00,28.5447608,77.3231257,PM10,55,158,104
India,Uttar_Pradesh,Noida,"Sector - 125, Noida - UPPCB",10-03-2024 09:00:00,28.5447608,77.3231257,SO2,4,41,18
India,Uttar_Pradesh,Noida,"Sector - 125, Noida - UPPCB",10-03-2024 09:00:00,28.5447608,77.3231257,OZONE,5,124,8
India,Uttar_Pradesh,Noida,"Sector-1, Noida - UPPCB",10-03-2024 09:00:00,28.5898,77.3101,NO2,29,118,74
India,Uttar_Pradesh,Prayagraj,"Jhunsi, Prayagraj - UPPCB",10-03-2024 09:00:00,25.425602,81.917152,SO2,30,31,30
India,Uttar_Pradesh,Prayagraj,"Motilal Nehru NIT, Prayagraj - UPPCB",10-03-2024 09:00:00,25.494,81.863,OZONE,6,47,7
India,Uttar_Pradesh,Prayagraj,"Nagar Nigam, Prayagraj - UPPCB",10-03-2024 09:00:00,25.44919916 ,81.82735986 ,NH3,2,8,5
India,Uttar_Pradesh,Varanasi,"Ardhali Bazar, Varanasi - UPPCB",10-03-2024 09:00:00,25.3505986,82.9083074,PM10,12,48,28
India,Uttar_Pradesh,Varanasi,"Ardhali Bazar, Varanasi - UPPCB",10-03-2024 09:00:00,25.3505986,82.9083074,SO2,7,21,13
India,Uttar_Pradesh,Varanasi,"Bhelupur, Varanasi - UPPCB",10-03-2024 09:00:00,25.301778,82.996789,PM10,20,42,28
India,Uttar_Pradesh,Varanasi,"Bhelupur, Varanasi - UPPCB",10-03-2024 09:00:00,25.301778,82.996789,SO2,24,26,25
India,Uttar_Pradesh,Varanasi,"Maldahiya, Varanasi - UPPCB",10-03-2024 09:00:00,25.32393,82.99687,NH3,1,1,1
India,Uttar_Pradesh,Vrindavan,"Omex Eternity, Vrindavan - UPPCB",10-03-2024 09:00:00,27.5714090,77.6557570,CO,30,62,59
India,Uttarakhand,Dehradun,"Doon University, Dehradun - UKPCB",10-03-2024 09:00:00,30.269444,78.044167,PM10,66,129,88
India,Uttarakhand,Dehradun,"Doon University, Dehradun - UKPCB",10-03-2024 09:00:00,30.269444,78.044167,SO2,1,2,1
India,Uttarakhand,Kashipur,"Govt. Girls Inter College, Kashipur - UKPCB",10-03-2024 09:00:00,29.2124114,78.9611753,PM2.5,55,102,78
India,Uttarakhand,Kashipur,"Govt. Girls Inter College, Kashipur - UKPCB",10-03-2024 09:00:00,29.2124114,78.9611753,CO,22,58,36
India,West_Bengal,Durgapur,"Sidhu Kanhu Indoor Stadium, Durgapur - WBPCB",10-03-2024 09:00:00,23.5404352,87.2892225,PM10,88,180,126
India,West_Bengal,Haldia,"Priyambada Housing Estate, Haldia - WBPCB",10-03-2024 09:00:00,22.06047,88.109737,NO2,16,94,41
India,West_Bengal,Howrah,"Belur Math, Howrah - WBPCB",10-03-2024 09:00:00,22.629801,88.352017,SO2,13,21,16
India,West_Bengal,Howrah,"Ghusuri, Howrah - WBPCB",10-03-2024 09:00:00,22.611968,88.347422,OZONE,14,23,17
India,West_Bengal,Kolkata,"Bidhannagar, Kolkata - WBPCB",10-03-2024 09:00:00,22.58157048,88.41002457,PM10,76,181,122
India,West_Bengal,Kolkata,"Bidhannagar, Kolkata - WBPCB",10-03-2024 09:00:00,22.58157048,88.41002457,OZONE,5,23,6
India,West_Bengal,Kolkata,"Jadavpur, Kolkata - WBPCB",10-03-2024 09:00:00,22.49929,88.36917,PM10,58,157,115
India,West_Bengal,Kolkata,"Jadavpur, Kolkata - WBPCB",10-03-2024 09:00:00,22.49929,88.36917,NO2,2,13,6
India,West_Bengal,Kolkata,"Jadavpur, Kolkata - WBPCB",10-03-2024 09:00:00,22.49929,88.36917,OZONE,14,110,16
India,West_Bengal,Kolkata,"Rabindra Sarobar, Kolkata - WBPCB",10-03-2024 09:00:00,22.51106,88.35142,NO2,31,131,83
India,West_Bengal,Kolkata,"Rabindra Sarobar, Kolkata - WBPCB",10-03-2024 09:00:00,22.51106,88.35142,SO2,15,100,34
India,West_Bengal,Kolkata,"Rabindra Sarobar, Kolkata - WBPCB",10-03-2024 09:00:00,22.51106,88.35142,OZONE,3,92,11
India,West_Bengal,Siliguri,"Ward-32 Bapupara, Siliguri - WBPCB",10-03-2024 09:00:00,26.6879226,88.4152495,NH3,3,18,14
India,West_Bengal,Siliguri,"Ward-32 Bapupara, Siliguri - WBPCB",10-03-2024 09:00:00,26.6879226,88.4152495,SO2,13,19,16
India,West_Bengal,Siliguri,"Ward-32 Bapupara, Siliguri - WBPCB",10-03-2024 09:00:00,26.6879226,88.4152495,CO,20,76,54
India,Andhra_Pradesh,Chittoor,"Gangineni Cheruvu, Chittoor - APPCB",10-03-2024 09:00:00,13.204880,79.097889,OZONE,18,115,27
India,Andhra_Pradesh,Kadapa,"Yerramukkapalli, Kadapa - APPCB",10-03-2024 09:00:00,14.465052,78.824187,CO,9,22,13
India,Andhra_Pradesh,Rajamahendravaram,"Anand Kala Kshetram, Rajamahendravaram - APPCB",10-03-2024 09:00:00,16.9872867,81.7363176,PM2.5,40,81,58
India,Andhra_Pradesh,Rajamahendravaram,"Anand Kala Kshetram, Rajamahendravaram - APPCB",10-03-2024 09:00:00,16.9872867,81.7363176,NO2,9,32,17
India,Andhra_Pradesh,Tirupati,"Vaikuntapuram, Tirupati - APPCB",10-03-2024 09:00:00,13.615387,79.409230,OZONE,6,46,7
India,Andhra_Pradesh,Vijayawada,"Kanuru, Vijayawada - APPCB",10-03-2024 09:00:00,16.486692,80.699436,PM10,70,83,77
India,Andhra_Pradesh,Vijayawada,"Kanuru, Vijayawada - APPCB",10-03-2024 09:00:00,16.486692,80.699436,NO2,14,16,14
India,Andhra_Pradesh,Vijayawada,"Rajiv Gandhi Park, Vijayawada - APPCB",10-03-2024 09:00:00,16.509717,80.612222,NO2,2,50,30
India,Andhra_Pradesh,Vijayawada,"Rajiv Gandhi Park, Vijayawada - APPCB",10-03-2024 09:00:00,16.509717,80.612222,SO2,1,5,2
India,Andhra_Pradesh,Vijayawada,"Rajiv Nagar, Vijayawada - APPCB",10-03-2024 09:00:00,16.554731,80.649110,PM10,70,73,71
India,Andhra_Pradesh,Vijayawada,"Rajiv Nagar, Vijayawada - APPCB",10-03-2024 09:00:00,16.554731,80.649110,SO2,7,14,10
India,Andhra_Pradesh,Vijayawada,"Rajiv Nagar, Vijayawada - APPCB",10-03-2024 09:00:00,16.554731,80.649110,OZONE,6,30,7
India,Andhra_Pradesh,Visakhapatnam,"GVM Corporation, Visakhapatnam - APPCB",10-03-2024 09:00:00,17.72,83.3,PM2.5,38,123,64
India,Andhra_Pradesh,Visakhapatnam,"GVM Corporation, Visakhapatnam - APPCB",10-03-2024 09:00:00,17.72,83.3,OZONE,NA,NA,NA
India,Arunachal_Pradesh,Naharlagun,"Naharlagun, Naharlagun - APSPCB",10-03-2024 09:00:00,27.103358,93.679645,PM10,59,123,80
India,Arunachal_Pradesh,Naharlagun,"Naharlagun, Naharlagun - APSPCB",10-03-2024 09:00:00,27.103358,93.679645,OZONE,2,2,2
India,Assam,Byrnihat,"Central Academy for SFS, Byrnihat - PCBA",10-03-2024 09:00:00,26.071318,91.87488,PM2.5,NA,NA,NA
India,Assam,Byrnihat,"Central Academy for SFS, Byrnihat - PCBA",10-03-2024 09:00:00,26.071318,91.87488,NO2,49,125,71
India,Assam,Guwahati,"IITG, Guwahati - PCBA",10-03-2024 09:00:00,26.2028636,91.70046436,PM10,NA,NA,NA
India,Assam,Guwahati,"LGBI Airport, Guwahati - PCBA",10-03-2024 09:00:00,26.10887,91.589544,PM10,74,314,158
India,Assam,Guwahati,"LGBI Airport, Guwahati - PCBA",10-03-2024 09:00:00,26.10887,91.589544,NH3,1,4,2
India,Assam,Guwahati,"LGBI Airport, Guwahati - PCBA",10-03-2024 09:00:00,26.10887,91.589544,OZONE,9,78,19
India,Assam,Nalbari,"Bata Chowk, Nalbari - PCBA",10-03-2024 09:00:00,26.446912,91.439057,PM2.5,77,331,219
India,Assam,Nalbari,"Bata Chowk, Nalbari - PCBA",10-03-2024 09:00:00,26.446912,91.439057,SO2,4,8,6
India,Assam,Nalbari,"Bata Chowk, Nalbari - PCBA",10-03-2024 09:00:00,26.446912,91.439057,CO,56,117,100
India,Assam,Sivasagar,"Girls College, Sivasagar - PCBA",10-03-2024 09:00:00,26.987634,94.636574,NH3,2,3,3
India,Assam,Sivasagar,"Girls College, Sivasagar - PCBA",10-03-2024 09:00:00,26.987634,94.636574,OZONE,1,17,2
India,Bihar,Araria,"Kharahiya Basti, Araria - BSPCB",10-03-2024 09:00:00,26.146529,87.454184,PM10,83,183,121
India,Bihar,Araria,"Kharahiya Basti, Araria - BSPCB",10-03-2024 09:00:00,26.146529,87.454184,NO2,6,7,7
India,Bihar,Araria,"Kharahiya Basti, Araria - BSPCB",10-03-2024 09:00:00,26.146529,87.454184,SO2,16,18,17
India,Bihar,Aurangabad,"Gurdeo Nagar, Aurangabad - BSPCB",10-03-2024 09:00:00,24.75746,84.366208,SO2,6,12,8
India,Bihar,Bettiah,"Kamalnath Nagar, Bettiah - BSPCB",10-03-2024 09:00:00,26.80365,84.51954,NH3,3,6,3
India,Bihar,Bhagalpur,"DM Office_Kachari Chowk, Bhagalpur - BSPCB",10-03-2024 09:00:00,25.251013,86.989001,CO,42,82,48
India,Bihar,Bhagalpur,"Mayaganj, Bhagalpur - BSPCB",10-03-2024 09:00:00,25.265194,87.012947,SO2,11,12,12
India,Bihar,Bihar Sharif,"D M Colony, Bihar Sharif - BSPCB",10-03-2024 09:00:00,25.204762,85.514960,NH3,NA,NA,NA
India,Bihar,Bihar Sharif,"D M Colony, Bihar Sharif - BSPCB",10-03-2024 09:00:00,25.204762,85.514960,CO,NA,NA,NA
India,Bihar,Chhapra,"Darshan Nagar, Chhapra - BSPCB",10-03-2024 09:00:00,25.7808257,84.7446768,PM2.5,90,310,150
India,Bihar,Chhapra,"Darshan Nagar, Chhapra - BSPCB",10-03-2024 09:00:00,25.7808257,84.7446768,OZONE,11,43,19
India,Bihar,Gaya,"Kareemganj, Gaya - BSPCB",10-03-2024 09:00:00,24.792403,84.992416,CO,8,109,42
India,Bihar,Hajipur,"Industrial Area, Hajipur - BSPCB",10-03-2024 09:00:00,25.697189,85.245900,SO2,6,8,7
India,Bihar,Katihar,"Mirchaibari, Katihar - BSPCB",10-03-2024 09:00:00,25.560083,87.553265,NH3,3,5,4
India,Bihar,Manguraha,"Forest Rest House, Manguraha - BSPCB",10-03-2024 09:00:00,27.308328,84.531742,PM10,NA,NA,NA
India,Bihar,Manguraha,"Forest Rest House, Manguraha - BSPCB",10-03-2024 09:00:00,27.308328,84.531742,CO,34,82,46
India,Bihar,Motihari,"Gandak Colony, Motihari - BSPCB",10-03-2024 09:00:00,26.63086,84.90051,PM10,35,105,59
India,Bihar,Munger,"Town Hall, Munger - BSPCB",10-03-2024 09:00:00,25.376776,86.471523,PM2.5,67,247,122
India,Bihar,Munger,"Town Hall, Munger - BSPCB",10-03-2024 09:00:00,25.376776,86.471523,OZONE,10,17,12
India,Bihar,Muzaffarpur,"Buddha Colony, Muzaffarpur - BSPCB",10-03-2024 09:00:00,26.11442,85.39813,NO2,NA,NA,NA
India,Bihar,Muzaffarpur,"Buddha Colony, Muzaffarpur - BSPCB",10-03-2024 09:00:00,26.11442,85.39813,NH3,NA,NA,NA
India,Bihar,Muzaffarpur,"MIT-Daudpur Kothi, Muzaffarpur - BSPCB",10-03-2024 09:00:00,26.1403345,85.3650192,PM10,57,143,102
India,Bihar,Patna,"IGSC Planetarium Complex, Patna - BSPCB",10-03-2024 09:00:00,25.610369,85.132568,NO2,14,14,14
India,Bihar,Patna,"IGSC Planetarium Complex, Patna - BSPCB",10-03-2024 09:00:00,25.610369,85.132568,OZONE,9,29,15
India,Bihar,Patna,"Muradpur, Patna - BSPCB",10-03-2024 09:00:00,25.619651,85.147382,OZONE,1,36,4
India,Bihar,Patna,"Rajbansi Nagar, Patna - BSPCB",10-03-2024 09:00:00,25.599486,85.113666,PM10,107,181,136
India,Bihar,Patna,"Rajbansi Nagar, Patna - BSPCB",10-03-2024 09:00:00,25.599486,85.113666,NO2,19,46,30
India,Bihar,Patna,"Rajbansi Nagar, Patna - BSPCB",10-03-2024 09:00:00,25.599486,85.113666,OZONE,4,108,20
India,Bihar,Patna,"Samanpura, Patna - BSPCB",10-03-2024 09:00:00,25.596727,85.085624,OZONE,10,45,31
India,Bihar,Purnia,"Mariam Nagar, Purnia - BSPCB",10-03-2024 09:00:00,25.366336,87.117468,SO2,15,22,18
India,Bihar,Rajgir,"Dangi Tola, Rajgir - BSPCB",10-03-2024 09:00:00,25.03280,85.41948,NO2,1,1,1
India,Bihar,Saharsa,"Police Line, Saharsa - BSPCB",10-03-2024 09:00:00,25.892357,86.590325,NO2,6,9,7
India,Bihar,Sasaram,"Dada Peer, Sasaram - BSPCB",10-03-2024 09:00:00,24.952822,84.002396,PM10,30,125,70
India,Bihar,Siwan,"Chitragupta Nagar, Siwan - BSPCB",10-03-2024 09:00:00,26.2271665,84.3570427,PM10,78,134,106
India,Chandigarh,Chandigarh,"Sector 22, Chandigarh - CPCC",10-03-2024 09:00:00,30.735567,76.775714,PM10,59,175,109
India,Chandigarh,Chandigarh,"Sector-25, Chandigarh - CPCC",10-03-2024 09:00:00,30.751462,76.762879,SO2,5,51,10
India,Chandigarh,Chandigarh,"Sector-25, Chandigarh - CPCC",10-03-2024 09:00:00,30.751462,76.762879,OZONE,1,68,5
India,Chandigarh,Chandigarh,"Sector-53, Chandigarh - CPCC",10-03-2024 09:00:00,30.719859,76.738637,NO2,26,97,48
India,Chhattisgarh,Bhilai,"Civic Center, Bhilai - Bhilai Steel Plant",10-03-2024 09:00:00,21.185571,81.343175,NO2,NA,NA,NA
India,Chhattisgarh,Bhilai,"Civic Center, Bhilai - Bhilai Steel Plant",10-03-2024 09:00:00,21.185571,81.343175,CO,NA,NA,NA
India,Chhattisgarh,Bhilai,"Civic Center, Bhilai - Bhilai Steel Plant",10-03-2024 09:00:00,21.185571,81.343175,OZONE,NA,NA,NA
India,Chhattisgarh,Bhilai,"Hathkhoj, Bhilai - CECB",10-03-2024 09:00:00,21.224231,81.408350,PM2.5,40,179,81
India,Chhattisgarh,Bhilai,"Hathkhoj, Bhilai - CECB",10-03-2024 09:00:00,21.224231,81.408350,OZONE,31,43,35
India,Chhattisgarh,Bilaspur,"Mangala, Bilaspur - NTPC",10-03-2024 09:00:00,22.08815,82.13737,NO2,18,23,21
India,Chhattisgarh,Chhal,"Nawapara SECL Colony, Chhal - CECB",10-03-2024 09:00:00,22.118125,83.140608,PM10,45,96,72
India,Chhattisgarh,Chhal,"Nawapara SECL Colony, Chhal - CECB",10-03-2024 09:00:00,22.118125,83.140608,NH3,1,2,2
India,Chhattisgarh,Korba,"Rampur, Korba - CECB",10-03-2024 09:00:00,22.368195,82.746431,NH3,1,5,2
India,Chhattisgarh,Korba,"Urja Nagar, Korba - CECB",10-03-2024 09:00:00,22.348441,82.549611,OZONE,1,2,1
India,Chhattisgarh,Kunjemura,"OP Jindal School, Kunjemura - CECB",10-03-2024 09:00:00,22.126650,83.483212,OZONE,4,84,10
India,Chhattisgarh,Raipur,"AIIMS, Raipur - CECB",10-03-2024 09:00:00,21.258815,81.578979,OZONE,1,19,1
India,Chhattisgarh,Raipur,"Bhatagaon New ISBT, Raipur - CECB",10-03-2024 09:00:00,21.219665,81.630094,PM2.5,8,70,39
India,Chhattisgarh,Raipur,"Bhatagaon New ISBT, Raipur - CECB",10-03-2024 09:00:00,21.219665,81.630094,OZONE,3,6,3
India,Chhattisgarh,Raipur,"Krishak Nagar, Raipur - CECB",10-03-2024 09:00:00,21.237755,81.705301,NO2,20,41,33
India,Chhattisgarh,Raipur,"Krishak Nagar, Raipur - CECB",10-03-2024 09:00:00,21.237755,81.705301,OZONE,5,43,5
India,Chhattisgarh,Raipur,"Siltara Phase-II, Raipur - CECB",10-03-2024 09:00:00,21.371751,81.664929,PM2.5,39,108,64
India,Chhattisgarh,Raipur,"Siltara Phase-II, Raipur - CECB",10-03-2024 09:00:00,21.371751,81.664929,NH3,3,3,3
India,Chhattisgarh,Tumidih,"OP Jindal Industrial Park, Tumidih - CECB",10-03-2024 09:00:00,22.06631475,83.33820077,OZONE,5,83,21
India,Delhi,Delhi,"Alipur, Delhi - DPCC",10-03-2024 09:00:00,28.815329,77.153010,NO2,13,100,43
India,Delhi,Delhi,"Alipur, Delhi - DPCC",10-03-2024 09:00:00,28.815329,77.153010,CO,33,114,54
India,Delhi,Delhi,"Anand Vihar, Delhi - DPCC",10-03-2024 09:00:00,28.647622,77.3158090,NO2,66,168,111
India,Delhi,Delhi,"Ashok Vihar, Delhi - DPCC",10-03-2024 09:00:00,28.695381,77.181665,OZONE,5,18,6
India,Delhi,Delhi,"Bawana, Delhi - DPCC",10-03-2024 09:00:00,28.776200,77.051074,NH3,5,7,6
India,Delhi,Delhi,"Burari Crossing, Delhi - IMD",10-03-2024 09:00:00,28.7256504,77.2011573,NO2,12,22,15
India,Delhi,Delhi,"Burari Crossing, Delhi - IMD",10-03-2024 09:00:00,28.7256504,77.2011573,OZONE,2,47,7
India,Delhi,Delhi,"DTU, Delhi - CPCB",10-03-2024 09:00:00,28.7500499,77.1112615,PM2.5,26,231,98
India,Delhi,Delhi,"DTU, Delhi - CPCB",10-03-2024 09:00:00,28.7500499,77.1112615,NH3,9,12,10
India,Delhi,Delhi,"Dr. Karni Singh Shooting Range, Delhi - DPCC",10-03-2024 09:00:00,28.498571,77.264840,CO,21,102,51
India,Delhi,Delhi,"Dwarka-Sector 8, Delhi - DPCC ",10-03-2024 09:00:00,28.5710274,77.0719006,PM2.5,47,351,205
India,Delhi,Delhi,"Dwarka-Sector 8, Delhi - DPCC ",10-03-2024 09:00:00,28.5710274,77.0719006,PM10,100,330,221
India,Delhi,Delhi,"Dwarka-Sector 8, Delhi - DPCC ",10-03-2024 09:00:00,28.5710274,77.0719006,NO2,12,87,43
India,Delhi,Delhi,"Dwarka-Sector 8, Delhi - DPCC ",10-03-2024 09:00:00,28.5710274,77.0719006,SO2,4,22,8
India,Delhi,Delhi,"Dwarka-Sector 8, Delhi - DPCC ",10-03-2024 09:00:00,28.5710274,77.0719006,CO,20,106,62
India,Delhi,Delhi,"IHBAS, Dilshad Garden, Delhi - CPCB",10-03-2024 09:00:00,28.6811736,77.3025234,PM2.5,NA,NA,NA
India,Delhi,Delhi,"IHBAS, Dilshad Garden, Delhi - CPCB",10-03-2024 09:00:00,28.6811736,77.3025234,SO2,NA,NA,NA
India,Delhi,Delhi,"ITO, Delhi - CPCB",10-03-2024 09:00:00,28.628624,77.241060,SO2,1,18,12
India,Delhi,Delhi,"ITO, Delhi - CPCB",10-03-2024 09:00:00,28.628624,77.241060,OZONE,14,69,16
India,Delhi,Delhi,"Major Dhyan Chand National Stadium, Delhi - DPCC",10-03-2024 09:00:00,28.611281,77.237738,NO2,26,158,91
India,Delhi,Delhi,"Mandir Marg, Delhi - DPCC",10-03-2024 09:00:00,28.636429,77.201067,CO,44,104,99
India,Delhi,Delhi,"NSIT Dwarka, Delhi - CPCB",10-03-2024 09:00:00,28.60909,77.0325413,PM10,143,276,196
India,Delhi,Delhi,"NSIT Dwarka, Delhi - CPCB",10-03-2024 09:00:00,28.60909,77.0325413,CO,28,76,36
India,Delhi,Delhi,"NSIT Dwarka, Delhi - CPCB",10-03-2024 09:00:00,28.60909,77.0325413,OZONE,17,89,20
India,Delhi,Delhi,"Najafgarh, Delhi - DPCC",10-03-2024 09:00:00,28.570173,76.933762,SO2,11,17,14
India,Delhi,Delhi,"Nehru Nagar, Delhi - DPCC",10-03-2024 09:00:00,28.567890,77.250515,PM2.5,36,364,167
India,Delhi,Delhi,"Nehru Nagar, Delhi - DPCC",10-03-2024 09:00:00,28.567890,77.250515,PM10,86,330,152
India,Delhi,Delhi,"New Moti Bagh, Delhi - MHUA",10-03-2024 09:00:00,28.57834,77.18400,PM2.5,35,350,173
India,Delhi,Delhi,"New Moti Bagh, Delhi - MHUA",10-03-2024 09:00:00,28.57834,77.18400,NO2,1,7,4
India,Delhi,Delhi,"Patparganj, Delhi - DPCC",10-03-2024 09:00:00,28.623763,77.287209,NO2,34,74,56
India,Delhi,Delhi,"Punjabi Bagh, Delhi - DPCC",10-03-2024 09:00:00,28.674045,77.131023,NH3,2,2,2
India,Delhi,Delhi,"Pusa, Delhi - DPCC",10-03-2024 09:00:00,28.639652,77.146275,PM2.5,39,327,156
India,Delhi,Delhi,"Pusa, Delhi - DPCC",10-03-2024 09:00:00,28.639652,77.146275,NO2,68,184,108
India,Delhi,Delhi,"Pusa, Delhi - DPCC",10-03-2024 09:00:00,28.639652,77.146275,NH3,6,11,9
India,Delhi,Delhi,"Pusa, Delhi - IMD",10-03-2024 09:00:00,28.636110,77.173332,NO2,11,44,27
India,Delhi,Delhi,"Rohini, Delhi - DPCC",10-03-2024 09:00:00,28.732528,77.119920,NH3,6,9,8
India,Delhi,Delhi,"Rohini, Delhi - DPCC",10-03-2024 09:00:00,28.732528,77.119920,OZONE,5,111,11
India,Delhi,Delhi,"Shadipur, Delhi - CPCB",10-03-2024 09:00:00,28.6514781,77.1473105,CO,33,100,38
India,Delhi,Delhi,"Sirifort, Delhi - CPCB",10-03-2024 09:00:00,28.5504249,77.2159377,OZONE,14,79,15
India,Delhi,Delhi,"Sonia Vihar, Delhi - DPCC",10-03-2024 09:00:00,28.710508,77.249485,PM10,61,220,128
India,Delhi,Delhi,"Sonia Vihar, Delhi - DPCC",10-03-2024 09:00:00,28.710508,77.249485,SO2,8,27,14
India,Delhi,Delhi,"Sonia Vihar, Delhi - DPCC",10-03-2024 09:00:00,28.710508,77.249485,OZONE,15,124,25
India,Delhi,Delhi,"Sri Aurobindo Marg, Delhi - DPCC",10-03-2024 09:00:00,28.531346,77.190156,NH3,5,8,6
India,Delhi,Delhi,"Vivek Vihar, Delhi - DPCC",10-03-2024 09:00:00,28.672342,77.315260,NO2,30,90,58
India,Delhi,Delhi,"Wazirpur, Delhi - DPCC",10-03-2024 09:00:00,28.699793,77.165453,NO2,47,174,112
India,Delhi,Delhi,"Wazirpur, Delhi - DPCC",10-03-2024 09:00:00,28.699793,77.165453,SO2,12,58,29
India,Gujarat,Ahmedabad,"Chandkheda, Ahmedabad - IITM",10-03-2024 09:00:00,23.107969,72.574648,OZONE,16,68,28
India,Gujarat,Ahmedabad,"Gyaspur, Ahmedabad - IITM",10-03-2024 09:00:00,22.977134,72.553024,NH3,4,4,4
India,Gujarat,Ahmedabad,"Gyaspur, Ahmedabad - IITM",10-03-2024 09:00:00,22.977134,72.553024,SO2,3,6,4
India,Gujarat,Ahmedabad,"Raikhad, Ahmedabad - IITM",10-03-2024 09:00:00,23.020509,72.579261,PM2.5,16,58,33
India,Gujarat,Ahmedabad,"Raikhad, Ahmedabad - IITM",10-03-2024 09:00:00,23.020509,72.579261,PM10,15,51,30
India,Gujarat,Ahmedabad,"Rakhial, Ahmedabad - IITM",10-03-2024 09:00:00,23.016834,72.625775,PM10,31,500,178
India,Gujarat,Ahmedabad,"Rakhial, Ahmedabad - IITM",10-03-2024 09:00:00,23.016834,72.625775,NO2,25,103,48
India,Gujarat,Ahmedabad,"Rakhial, Ahmedabad - IITM",10-03-2024 09:00:00,23.016834,72.625775,NH3,12,24,21
India,Gujarat,Ahmedabad,"SAC ISRO Satellite, Ahmedabad - IITM",10-03-2024 09:00:00,23.023389,72.515201,SO2,2,11,5
India,Gujarat,Ankleshwar,"GIDC, Ankleshwar - GPCB",10-03-2024 09:00:00,21.613267,73.010555,PM2.5,19,137,68
India,Gujarat,Ankleshwar,"GIDC, Ankleshwar - GPCB",10-03-2024 09:00:00,21.613267,73.010555,SO2,6,139,52
India,Gujarat,Ankleshwar,"GIDC, Ankleshwar - GPCB",10-03-2024 09:00:00,21.613267,73.010555,CO,68,112,89
India,Gujarat,Gandhinagar,"GIFT City, Gandhinagar - IITM",10-03-2024 09:00:00,23.163798,72.677768,CO,22,35,32
India,Gujarat,Gandhinagar,"IIPHG Lekawada, Gandhinagar - IITM",10-03-2024 09:00:00,23.243639,72.68994,PM10,62,139,99
India,Gujarat,Gandhinagar,"IIPHG Lekawada, Gandhinagar - IITM",10-03-2024 09:00:00,23.243639,72.68994,CO,22,24,23
India,Gujarat,Gandhinagar,"IIPHG Lekawada, Gandhinagar - IITM",10-03-2024 09:00:00,23.243639,72.68994,OZONE,3,54,9
India,Gujarat,Gandhinagar,"Sector-10, Gandhinagar - GPCB",10-03-2024 09:00:00,23.221714,72.654328,CO,42,99,54
India,Gujarat,Nandesari,"GIDC, Nandesari - Nandesari Ind. Association",10-03-2024 09:00:00,22.410802,73.097923,PM2.5,57,385,213
India,Gujarat,Surat,"Science Center, Surat - SMC",10-03-2024 09:00:00,21.170046,72.795405,CO,44,88,80
India,Gujarat,Vapi,"Phase-1 GIDC, Vapi - GPCB",10-03-2024 09:00:00,20.362421,72.918013,PM2.5,22,319,102
India,Gujarat,Vapi,"Phase-1 GIDC, Vapi - GPCB",10-03-2024 09:00:00,20.362421,72.918013,NH3,8,10,9
India,Gujarat,Vapi,"Phase-1 GIDC, Vapi - GPCB",10-03-2024 09:00:00,20.362421,72.918013,CO,1,184,30
India,Haryana,Bahadurgarh,"Arya Nagar, Bahadurgarh - HSPCB",10-03-2024 09:00:00,28.6701,76.9254,PM2.5,36,311,164
India,Haryana,Ballabgarh,"Nathu Colony, Ballabgarh - HSPCB",10-03-2024 09:00:00,28.3419248,77.319699,SO2,3,133,18
India,Haryana,Bhiwani,"H.B. Colony, Bhiwani - HSPCB",10-03-2024 09:00:00,28.806223,76.141105,PM10,25,494,107
India,Haryana,Bhiwani,"H.B. Colony, Bhiwani - HSPCB",10-03-2024 09:00:00,28.806223,76.141105,SO2,8,15,11
India,Haryana,Charkhi Dadri,"Mini Secretariat, Charkhi Dadri - HSPCB",10-03-2024 09:00:00,28.593883,76.270653,NO2,12,15,13
India,Haryana,Charkhi Dadri,"Mini Secretariat, Charkhi Dadri - HSPCB",10-03-2024 09:00:00,28.593883,76.270653,OZONE,13,17,15
India,Haryana,Faridabad,"Sector 11, Faridabad - HSPCB",10-03-2024 09:00:00,28.376058,77.315741,NH3,6,6,6
India,Haryana,Fatehabad,"Huda Sector, Fatehabad - HSPCB",10-03-2024 09:00:00,29.503664,75.467934,SO2,5,16,12
India,Haryana,Fatehabad,"Huda Sector, Fatehabad - HSPCB",10-03-2024 09:00:00,29.503664,75.467934,CO,5,54,9
India,Haryana,Gurugram,"Sector-51, Gurugram - HSPCB",10-03-2024 09:00:00,28.4227,77.0667,NH3,7,14,9
India,Haryana,Gurugram,"Teri Gram, Gurugram - HSPCB",10-03-2024 09:00:00,28.4275,77.1465,OZONE,10,33,29
India,Haryana,Hisar,"Urban Estate-II, Hisar - HSPCB",10-03-2024 09:00:00,29.140560,75.744941,NH3,9,20,12
India,Haryana,Hisar,"Urban Estate-II, Hisar - HSPCB",10-03-2024 09:00:00,29.140560,75.744941,SO2,2,54,28
India,Haryana,Jind,"Police Lines, Jind - HSPCB",10-03-2024 09:00:00,29.307814,76.337619,PM10,39,101,74
India,Haryana,Jind,"Police Lines, Jind - HSPCB",10-03-2024 09:00:00,29.307814,76.337619,SO2,4,131,33
India,Haryana,Karnal,"Sector-12, Karnal - HSPCB",10-03-2024 09:00:00,29.695300,77.002700,PM2.5,NA,NA,NA
India,Haryana,Kurukshetra,"Sector-7, Kurukshetra - HSPCB",10-03-2024 09:00:00,29.966942,76.875879,CO,1,140,18
India,Haryana,Mandikhera,"General Hospital, Mandikhera - HSPCB",10-03-2024 09:00:00,27.9002,76.9938,SO2,32,37,34
India,Haryana,Narnaul,"Shastri Nagar, Narnaul - HSPCB",10-03-2024 09:00:00,28.060249,76.113115,PM10,30,108,52
India,Haryana,Palwal,"Shyam Nagar, Palwal - HSPCB",10-03-2024 09:00:00,28.1485564,77.3320667,NH3,9,9,9
India,Haryana,Panchkula,"Sector-6, Panchkula - HSPCB ",10-03-2024 09:00:00,30.7057778,76.8531805555555,PM2.5,NA,NA,NA
India,Haryana,Panipat,"Sector-18, Panipat - HSPCB",10-03-2024 09:00:00,29.497973,76.993331,PM10,NA,NA,NA
India,Haryana,Panipat,"Sector-18, Panipat - HSPCB",10-03-2024 09:00:00,29.497973,76.993331,NO2,NA,NA,NA
India,Haryana,Panipat,"Sector-18, Panipat - HSPCB",10-03-2024 09:00:00,29.497973,76.993331,CO,NA,NA,NA
India,Haryana,Rohtak,"MD University, Rohtak - HSPCB",10-03-2024 09:00:00,28.52123,76.37138,NO2,45,56,52
India,Haryana,Sirsa,"F-Block, Sirsa - HSPCB",10-03-2024 09:00:00,29.536400,75.015800,PM10,27,60,41
India,Haryana,Sirsa,"F-Block, Sirsa - HSPCB",10-03-2024 09:00:00,29.536400,75.015800,NH3,12,13,13
India,Haryana,Yamuna Nagar,"Gobind Pura, Yamuna Nagar - HSPCB",10-03-2024 09:00:00,30.1480566,77.2893471,CO,34,102,50
India,Haryana,Yamuna Nagar,"Gobind Pura, Yamuna Nagar - HSPCB",10-03-2024 09:00:00,30.1480566,77.2893471,OZONE,23,44,26
India,Jharkhand,Dhanbad,"Kalakusuma, Dhanbad - DMC",10-03-2024 09:00:00,23.811548,86.481238,CO,126,133,132
India,Jharkhand,Dhanbad,"Sardar Patel Nagar, Dhanbad - JSPCB",10-03-2024 09:00:00,23.80569,86.44268,PM2.5,13,228,53
India,Jharkhand,Dhanbad,"Sardar Patel Nagar, Dhanbad - JSPCB",10-03-2024 09:00:00,23.80569,86.44268,CO,144,185,168
India,Jharkhand,Pathardih,"Mohalbani Ghat, Pathardih - DMC",10-03-2024 09:00:00,23.669880,86.411725,CO,105,137,120
India,Karnataka,Belgaum,"Ramteerth Nagar, Belgaum - KSPCB",10-03-2024 09:00:00,15.888653,74.541751,OZONE,17,20,18
India,Karnataka,Bengaluru,"BTM Layout, Bengaluru - CPCB",10-03-2024 09:00:00,12.9135218,77.5950804,PM10,NA,NA,NA
India,Karnataka,Bengaluru,"Bapuji Nagar, Bengaluru - KSPCB",10-03-2024 09:00:00,12.951913,77.539784,PM10,72,127,90
India,Karnataka,Bengaluru,"Bapuji Nagar, Bengaluru - KSPCB",10-03-2024 09:00:00,12.951913,77.539784,NO2,10,12,11
India,Karnataka,Bengaluru,"Bapuji Nagar, Bengaluru - KSPCB",10-03-2024 09:00:00,12.951913,77.539784,NH3,1,1,1
India,Karnataka,Bengaluru,"Jayanagar 5th Block, Bengaluru - KSPCB",10-03-2024 09:00:00,12.920984,77.584908,OZONE,28,28,28
India,Karnataka,Bengaluru,"Jigani, Bengaluru - KSPCB",10-03-2024 09:00:00,12.7816279,77.6299145,CO,49,71,60
India,Karnataka,Bengaluru,"Jigani, Bengaluru - KSPCB",10-03-2024 09:00:00,12.7816279,77.6299145,OZONE,20,52,29
India,Karnataka,Bengaluru,"Kasturi Nagar, Bengaluru - KSPCB",10-03-2024 09:00:00,13.003872,77.664217,SO2,10,10,10
India,Karnataka,Bengaluru,"Kasturi Nagar, Bengaluru - KSPCB",10-03-2024 09:00:00,13.003872,77.664217,OZONE,38,143,52
India,Karnataka,Bengaluru,"Peenya, Bengaluru - CPCB",10-03-2024 09:00:00,13.0270199,77.494094,PM2.5,43,83,56
India,Karnataka,Bengaluru,"Peenya, Bengaluru - CPCB",10-03-2024 09:00:00,13.0270199,77.494094,PM10,53,102,69
India,Karnataka,Bengaluru,"Peenya, Bengaluru - CPCB",10-03-2024 09:00:00,13.0270199,77.494094,NO2,13,30,22
India,Karnataka,Bengaluru,"RVCE-Mailasandra, Bengaluru - KSPCB",10-03-2024 09:00:00,12.921418,77.502466,PM2.5,255,327,298
India,Karnataka,Bengaluru,"Shivapura_Peenya, Bengaluru - KSPCB",10-03-2024 09:00:00,13.0246342,77.5080115,PM2.5,11,209,86
India,Karnataka,Bengaluru,"Shivapura_Peenya, Bengaluru - KSPCB",10-03-2024 09:00:00,13.0246342,77.5080115,PM10,51,120,85
India,Karnataka,Bengaluru,"Shivapura_Peenya, Bengaluru - KSPCB",10-03-2024 09:00:00,13.0246342,77.5080115,SO2,6,28,12
India,Karnataka,Bengaluru,"Shivapura_Peenya, Bengaluru - KSPCB",10-03-2024 09:00:00,13.0246342,77.5080115,OZONE,53,55,55
India,Karnataka,Bidar,"Naubad, Bidar - KSPCB",10-03-2024 09:00:00,17.930306,77.482194,PM2.5,42,166,76
India,Karnataka,Bidar,"Naubad, Bidar - KSPCB",10-03-2024 09:00:00,17.930306,77.482194,PM10,79,130,100
India,Karnataka,Chamarajanagar,"Urban, Chamarajanagar - KSPCB",10-03-2024 09:00:00,11.55358,76.55521,PM2.5,26,40,31
India,Karnataka,Chamarajanagar,"Urban, Chamarajanagar - KSPCB",10-03-2024 09:00:00,11.55358,76.55521,PM10,44,51,46
India,Karnataka,Chamarajanagar,"Urban, Chamarajanagar - KSPCB",10-03-2024 09:00:00,11.55358,76.55521,CO,19,23,20
India,Karnataka,Chikkamagaluru,"Kalyana Nagara, Chikkamagaluru - KSPCB",10-03-2024 09:00:00,13.328028,75.797056,NH3,NA,NA,NA
India,Karnataka,Chikkamagaluru,"Kalyana Nagara, Chikkamagaluru - KSPCB",10-03-2024 09:00:00,13.328028,75.797056,CO,4,12,12
India,Karnataka,Dharwad,"Kalabhavan, Dharwad - KSPCB",10-03-2024 09:00:00,15.459706,75.008381,PM2.5,47,74,56
India,Karnataka,Dharwad,"Kalabhavan, Dharwad - KSPCB",10-03-2024 09:00:00,15.459706,75.008381,NH3,2,2,2
India,Karnataka,Dharwad,"Kalabhavan, Dharwad - KSPCB",10-03-2024 09:00:00,15.459706,75.008381,SO2,2,14,6
India,Karnataka,Gadag,"Panchal Nagar, Gadag - KSPCB",10-03-2024 09:00:00,15.411456,75.638133,PM10,40,73,55
India,Karnataka,Gadag,"Panchal Nagar, Gadag - KSPCB",10-03-2024 09:00:00,15.411456,75.638133,SO2,9,20,16
India,Karnataka,Hassan,"B.Katihalli, Hassan - KSPCB",10-03-2024 09:00:00,13.008556,76.125258,PM2.5,NA,NA,NA
India,Karnataka,Haveri,"Ashwini Nagar, Haveri - KSPCB",10-03-2024 09:00:00,14.791800,75.389600,PM2.5,NA,NA,NA
India,Karnataka,Haveri,"Ashwini Nagar, Haveri - KSPCB",10-03-2024 09:00:00,14.791800,75.389600,NO2,NA,NA,NA
India,Karnataka,Hubballi,"Deshpande Nagar, Hubballi - KSPCB",10-03-2024 09:00:00,15.351773,75.140726,PM10,79,138,92
India,Karnataka,Hubballi,"Deshpande Nagar, Hubballi - KSPCB",10-03-2024 09:00:00,15.351773,75.140726,NO2,25,27,26
India,Karnataka,Hubballi,"Lingaraj Nagar, Hubballi - KSPCB",10-03-2024 09:00:00,15.3714823,75.1160168,PM10,47,68,57
India,Karnataka,Kalaburagi,"Lal Bahadur Shastri Nagar, Kalaburagi - KSPCB",10-03-2024 09:00:00,17.321993,76.822628,NO2,12,12,12
India,Karnataka,Kalaburagi,"Mahatma Basaveswar Colony, Kalaburgi - KSPCB",10-03-2024 09:00:00,17.336318,76.847397,PM10,24,89,50
India,Karnataka,Karwar,"KHB Colony, Karwar - KSPCB",10-03-2024 09:00:00,14.816666,74.141003,PM2.5,50,143,73
India,Karnataka,Kolar,"Tamaka Ind. Area, Kolar - KSPCB",10-03-2024 09:00:00,13.1276288,78.1570122,PM2.5,NA,NA,NA
India,Karnataka,Koppal,"Diwator Nagar, Koppal - KSPCB",10-03-2024 09:00:00,15.347630,76.181767,PM2.5,24,82,44
India,Karnataka,Koppal,"Diwator Nagar, Koppal - KSPCB",10-03-2024 09:00:00,15.347630,76.181767,SO2,64,65,64
India,Karnataka,Madikeri,"Stuart Hill, Madikeri - KSPCB",10-03-2024 09:00:00,12.415911,75.735050,OZONE,29,42,34
India,Karnataka,Mangalore,"Kadri, Mangalore - KSPCB",10-03-2024 09:00:00,12.889250,74.853000,OZONE,29,32,31
India,Karnataka,Mysuru,"Hebbal 1st Stage, Mysuru - KSPCB",10-03-2024 09:00:00,12.21041,76.37376,NO2,11,32,21
India,Karnataka,Mysuru,"Hebbal 1st Stage, Mysuru - KSPCB",10-03-2024 09:00:00,12.21041,76.37376,NH3,1,2,2
India,Karnataka,Mysuru,"Hebbal 1st Stage, Mysuru - KSPCB",10-03-2024 09:00:00,12.21041,76.37376,SO2,1,3,1
India,Karnataka,Ramanagara,"Vijay Nagar, Ramanagara - KSPCB",10-03-2024 09:00:00,12.733409,77.298051,CO,6,26,21
India,Karnataka,Shivamogga,"Vinoba Nagara, Shivamogga - KSPCB",10-03-2024 09:00:00,13.940000,75.555917,PM10,53,84,68
India,Karnataka,Shivamogga,"Vinoba Nagara, Shivamogga - KSPCB",10-03-2024 09:00:00,13.940000,75.555917,NO2,10,19,13
India,Karnataka,Tumakuru,"Thimmalapura, Tumakuru - KSPCB",10-03-2024 09:00:00,13.377516,77.099072,PM10,14,40,27
India,Karnataka,Tumakuru,"Thimmalapura, Tumakuru - KSPCB",10-03-2024 09:00:00,13.377516,77.099072,NO2,18,88,38
India,Karnataka,Tumakuru,"Thimmalapura, Tumakuru - KSPCB",10-03-2024 09:00:00,13.377516,77.099072,OZONE,7,41,27
