country,state,city,station,last_update,latitude,longitude,pollutant_id,pollutant_min,pollutant_max,pollutant_avg
India,Andhra_Pradesh,Amaravati,"Secretariat, Amaravati - APPCB",09-05-2024 14:00:00,16.5150833,80.5181667,PM2.5,2,28,18
India,Andhra_Pradesh,Chittoor,"Gangineni Cheruvu, Chittoor - APPCB",09-05-2024 14:00:00,13.204880,79.097889,NO2,1,13,4
India,Andhra_Pradesh,Chittoor,"Gangineni Cheruvu, Chittoor - APPCB",09-05-2024 14:00:00,13.204880,79.097889,NH3,1,2,1
India,Andhra_Pradesh,Kadapa,"Yerramukkapalli, Kadapa - APPCB",09-05-2024 14:00:00,14.465052,78.824187,PM2.5,NA,NA,NA
India,Andhra_Pradesh,Kadapa,"Yerramukkapalli, Kadapa - APPCB",09-05-2024 14:00:00,14.465052,78.824187,NO2,12,13,12
India,Andhra_Pradesh,Kadapa,"Yerramukkapalli, Kadapa - APPCB",09-05-2024 14:00:00,14.465052,78.824187,OZONE,3,71,24
India,Andhra_Pradesh,Rajamahendravaram,"Anand Kala Kshetram, Rajamahendravaram - APPCB",09-05-2024 14:00:00,16.9872867,81.7363176,OZONE,25,71,41
India,Andhra_Pradesh,Tirupati,"Tirumala, Tirupati - APPCB",09-05-2024 14:00:00,13.67,79.35,PM2.5,13,60,29
India,Andhra_Pradesh,Tirupati,"Tirumala, Tirupati - APPCB",09-05-2024 14:00:00,13.67,79.35,NO2,14,39,25
India,Andhra_Pradesh,Vijayawada,"HB Colony, Vijayawada - APPCB",09-05-2024 14:00:00,16.536107,80.594233,NO2,7,17,10
India,Andhra_Pradesh,Vijayawada,"HB Colony, Vijayawada - APPCB",09-05-2024 14:00:00,16.536107,80.594233,CO,32,44,35
India,Andhra_Pradesh,Vijayawada,"Kanuru, Vijayawada - APPCB",09-05-2024 14:00:00,16.486692,80.699436,CO,39,44,39
India,Andhra_Pradesh,Vijayawada,"Rajiv Gandhi Park, Vijayawada - APPCB",09-05-2024 14:00:00,16.509717,80.612222,SO2,6,12,8
India,Andhra_Pradesh,Vijayawada,"Rajiv Nagar, Vijayawada - APPCB",09-05-2024 14:00:00,16.554731,80.649110,PM10,59,69,62
India,Andhra_Pradesh,Vijayawada,"Rajiv Nagar, Vijayawada - APPCB",09-05-2024 14:00:00,16.554731,80.649110,NH3,2,3,3
India,Andhra_Pradesh,Visakhapatnam,"GVM Corporation, Visakhapatnam - APPCB",09-05-2024 14:00:00,17.72,83.3,SO2,11,16,13
India,Arunachal_Pradesh,Naharlagun,"Naharlagun, Naharlagun - APSPCB",09-05-2024 14:00:00,27.103358,93.679645,PM10,NA,NA,NA
India,Arunachal_Pradesh,Naharlagun,"Naharlagun, Naharlagun - APSPCB",09-05-2024 14:00:00,27.103358,93.679645,OZONE,2,2,2
India,Assam,Byrnihat,"Central Academy for SFS, Byrnihat - PCBA",09-05-2024 14:00:00,26.071318,91.87488,NO2,16,79,31
India,Assam,Guwahati,"IITG, Guwahati - PCBA",09-05-2024 14:00:00,26.2028636,91.70046436,PM2.5,30,173,88
India,Assam,Guwahati,"IITG, Guwahati - PCBA",09-05-2024 14:00:00,26.2028636,91.70046436,SO2,12,13,13
India,Assam,Guwahati,"IITG, Guwahati - PCBA",09-05-2024 14:00:00,26.2028636,91.70046436,CO,8,18,13
India,Assam,Guwahati,"LGBI Airport, Guwahati - PCBA",09-05-2024 14:00:00,26.10887,91.589544,PM10,5,137,75
India,Assam,Guwahati,"LGBI Airport, Guwahati - PCBA",09-05-2024 14:00:00,26.10887,91.589544,OZONE,9,26,16
India,Assam,Guwahati,"Railway Colony, Guwahati - PCBA",09-05-2024 14:00:00,26.181742,91.78063,NO2,3,4,3
India,Assam,Guwahati,"Railway Colony, Guwahati - PCBA",09-05-2024 14:00:00,26.181742,91.78063,SO2,7,11,10
India,Assam,Nalbari,"Bata Chowk, Nalbari - PCBA",09-05-2024 14:00:00,26.446912,91.439057,SO2,9,16,13
India,Assam,Nalbari,"Bata Chowk, Nalbari - PCBA",09-05-2024 14:00:00,26.446912,91.439057,CO,44,104,83
India,Assam,Silchar,"Tarapur, Silchar - PCBA",09-05-2024 14:00:00,24.82827,92.79525,PM2.5,31,43,36
India,Assam,Silchar,"Tarapur, Silchar - PCBA",09-05-2024 14:00:00,24.82827,92.79525,SO2,3,9,5
India,Assam,Sivasagar,"Girls College, Sivasagar - PCBA",09-05-2024 14:00:00,26.987634,94.636574,OZONE,1,18,9
India,Bihar,Araria,"Kharahiya Basti, Araria - BSPCB",09-05-2024 14:00:00,26.146529,87.454184,PM2.5,12,77,37
India,Bihar,Araria,"Kharahiya Basti, Araria - BSPCB",09-05-2024 14:00:00,26.146529,87.454184,NH3,6,7,6
India,Bihar,Arrah,"New DM Office, Arrah - BSPCB",09-05-2024 14:00:00,25.5626095,84.663264,PM2.5,15,33,23
India,Bihar,Aurangabad,"Gurdeo Nagar, Aurangabad - BSPCB",09-05-2024 14:00:00,24.75746,84.366208,PM2.5,NA,NA,NA
India,Bihar,Bettiah,"Kamalnath Nagar, Bettiah - BSPCB",09-05-2024 14:00:00,26.80365,84.51954,OZONE,1,12,7
India,Bihar,Bhagalpur,"DM Office_Kachari Chowk, Bhagalpur - BSPCB",09-05-2024 14:00:00,25.251013,86.989001,OZONE,41,49,47
India,Bihar,Bhagalpur,"Mayaganj, Bhagalpur - BSPCB",09-05-2024 14:00:00,25.265194,87.012947,PM10,31,143,101
India,Bihar,Bihar Sharif,"D M Colony, Bihar Sharif - BSPCB",09-05-2024 14:00:00,25.204762,85.514960,CO,50,64,61
India,Bihar,Bihar Sharif,"D M Colony, Bihar Sharif - BSPCB",09-05-2024 14:00:00,25.204762,85.514960,OZONE,54,73,64
India,Bihar,Buxar,"Charitra Van, Buxar - BSPCB (Formerly known as Central Jail)",09-05-2024 14:00:00,25.567520,83.966379,NH3,3,4,3
India,Bihar,Chhapra,"Darshan Nagar, Chhapra - BSPCB",09-05-2024 14:00:00,25.7808257,84.7446768,CO,32,60,45
India,Bihar,Chhapra,"Darshan Nagar, Chhapra - BSPCB",09-05-2024 14:00:00,25.7808257,84.7446768,OZONE,1,16,5
India,Bihar,Gaya,"Collectorate, Gaya - BSPCB",09-05-2024 14:00:00,24.7955,84.9994,OZONE,46,88,58
India,Bihar,Gaya,"Kareemganj, Gaya - BSPCB",09-05-2024 14:00:00,24.792403,84.992416,SO2,3,11,8
India,Bihar,Gaya,"Kareemganj, Gaya - BSPCB",09-05-2024 14:00:00,24.792403,84.992416,CO,6,25,19
India,Bihar,Gaya,"SFTI Kusdihra, Gaya - BSPCB",09-05-2024 14:00:00,24.762518,84.982348,PM2.5,18,176,49
India,Bihar,Hajipur,"Industrial Area, Hajipur - BSPCB",09-05-2024 14:00:00,25.697189,85.245900,PM2.5,24,66,38
India,Bihar,Katihar,"Mirchaibari, Katihar - BSPCB",09-05-2024 14:00:00,25.560083,87.553265,SO2,22,38,34
India,Bihar,Kishanganj,"SDM Office_Khagra, Kishanganj - BSPCB",09-05-2024 14:00:00,26.0881305,87.93840336,NO2,27,30,28
India,Bihar,Kishanganj,"SDM Office_Khagra, Kishanganj - BSPCB",09-05-2024 14:00:00,26.0881305,87.93840336,SO2,NA,NA,NA
India,Bihar,Motihari,"Gandak Colony, Motihari - BSPCB",09-05-2024 14:00:00,26.63086,84.90051,CO,2,36,19
India,Bihar,Munger,"Town Hall, Munger - BSPCB",09-05-2024 14:00:00,25.376776,86.471523,OZONE,27,41,32
India,Bihar,Muzaffarpur,"Buddha Colony, Muzaffarpur - BSPCB",09-05-2024 14:00:00,26.11442,85.39813,SO2,4,7,5
India,Bihar,Muzaffarpur,"Buddha Colony, Muzaffarpur - BSPCB",09-05-2024 14:00:00,26.11442,85.39813,CO,20,46,24
India,Bihar,Muzaffarpur,"Muzaffarpur Collectorate, Muzaffarpur - BSPCB",09-05-2024 14:00:00,26.1209,85.3647,SO2,4,10,9
India,Bihar,Muzaffarpur,"Muzaffarpur Collectorate, Muzaffarpur - BSPCB",09-05-2024 14:00:00,26.1209,85.3647,OZONE,42,90,48
India,Bihar,Patna,"DRM Office Danapur, Patna - BSPCB",09-05-2024 14:00:00,25.586562,85.043586,NH3,2,3,3
India,Bihar,Patna,"Muradpur, Patna - BSPCB",09-05-2024 14:00:00,25.619651,85.147382,CO,44,82,64
India,Bihar,Patna,"Rajbansi Nagar, Patna - BSPCB",09-05-2024 14:00:00,25.599486,85.113666,PM10,74,153,108
India,Bihar,Patna,"Rajbansi Nagar, Patna - BSPCB",09-05-2024 14:00:00,25.599486,85.113666,OZONE,22,63,41
India,Bihar,Patna,"Samanpura, Patna - BSPCB",09-05-2024 14:00:00,25.596727,85.085624,NH3,NA,NA,NA
India,Bihar,Purnia,"Mariam Nagar, Purnia - BSPCB",09-05-2024 14:00:00,25.366336,87.117468,NO2,4,7,6
India,Bihar,Purnia,"Mariam Nagar, Purnia - BSPCB",09-05-2024 14:00:00,25.366336,87.117468,SO2,8,31,15
India,Bihar,Rajgir,"Dangi Tola, Rajgir - BSPCB",09-05-2024 14:00:00,25.03280,85.41948,PM2.5,5,57,28
India,Bihar,Saharsa,"Police Line, Saharsa - BSPCB",09-05-2024 14:00:00,25.892357,86.590325,PM2.5,5,280,58
India,Bihar,Saharsa,"Police Line, Saharsa - BSPCB",09-05-2024 14:00:00,25.892357,86.590325,PM10,5,153,50
India,Bihar,Samastipur,"DM Office_Kasipur, Samastipur - BSPCB",09-05-2024 14:00:00,25.859655,85.77944,OZONE,1,12,3
India,Bihar,Siwan,"Chitragupta Nagar, Siwan - BSPCB",09-05-2024 14:00:00,26.2271665,84.3570427,PM2.5,NA,NA,NA
India,Chandigarh,Chandigarh,"Sector 22, Chandigarh - CPCC",09-05-2024 14:00:00,30.735567,76.775714,NH3,7,16,11
India,Chandigarh,Chandigarh,"Sector-53, Chandigarh - CPCC",09-05-2024 14:00:00,30.719859,76.738637,NO2,10,70,26
India,Chhattisgarh,Bhilai,"32Bungalows, Bhilai - CECB",09-05-2024 14:00:00,21.194815,81.314770,PM10,24,68,46
India,Chhattisgarh,Bhilai,"32Bungalows, Bhilai - CECB",09-05-2024 14:00:00,21.194815,81.314770,CO,12,38,22
India,Chhattisgarh,Bhilai,"Civic Center, Bhilai - Bhilai Steel Plant",09-05-2024 14:00:00,21.185571,81.343175,PM10,13,49,32
India,Chhattisgarh,Bhilai,"Civic Center, Bhilai - Bhilai Steel Plant",09-05-2024 14:00:00,21.185571,81.343175,SO2,9,12,10
India,Chhattisgarh,Bhilai,"Hathkhoj, Bhilai - CECB",09-05-2024 14:00:00,21.224231,81.408350,NH3,8,9,8
India,Chhattisgarh,Bilaspur,"Mangala, Bilaspur - NTPC",09-05-2024 14:00:00,22.08815,82.13737,PM10,23,73,42
India,Chhattisgarh,Bilaspur,"Mangala, Bilaspur - NTPC",09-05-2024 14:00:00,22.08815,82.13737,SO2,8,15,13
India,Chhattisgarh,Chhal,"Nawapara SECL Colony, Chhal - CECB",09-05-2024 14:00:00,22.118125,83.140608,OZONE,24,92,55
India,Chhattisgarh,Korba,"Rampur, Korba - CECB",09-05-2024 14:00:00,22.368195,82.746431,NO2,16,43,33
India,Chhattisgarh,Milupara,"Govt. Higher Secondary School, Milupara - CECB",09-05-2024 14:00:00,22.1910172,83.5197009,PM2.5,NA,NA,NA
India,Chhattisgarh,Milupara,"Govt. Higher Secondary School, Milupara - CECB",09-05-2024 14:00:00,22.1910172,83.5197009,NH3,NA,NA,NA
India,Chhattisgarh,Milupara,"Govt. Higher Secondary School, Milupara - CECB",09-05-2024 14:00:00,22.1910172,83.5197009,SO2,NA,NA,NA
India,Chhattisgarh,Raipur,"Bhatagaon New ISBT, Raipur - CECB",09-05-2024 14:00:00,21.219665,81.630094,PM2.5,11,44,22
India,Chhattisgarh,Raipur,"Krishak Nagar, Raipur - CECB",09-05-2024 14:00:00,21.237755,81.705301,SO2,12,24,15
India,Chhattisgarh,Raipur,"Siltara Phase-II, Raipur - CECB",09-05-2024 14:00:00,21.371751,81.664929,NO2,35,67,46
India,Delhi,Delhi,"Alipur, Delhi - DPCC",09-05-2024 14:00:00,28.815329,77.153010,SO2,16,32,23
India,Delhi,Delhi,"Anand Vihar, Delhi - DPCC",09-05-2024 14:00:00,28.647622,77.3158090,NO2,20,80,40
India,Delhi,Delhi,"Ashok Vihar, Delhi - DPCC",09-05-2024 14:00:00,28.695381,77.181665,OZONE,51,141,87
India,Delhi,Delhi,"Bawana, Delhi - DPCC",09-05-2024 14:00:00,28.776200,77.051074,NO2,21,58,29
India,Delhi,Delhi,"Bawana, Delhi - DPCC",09-05-2024 14:00:00,28.776200,77.051074,SO2,7,17,12
India,Delhi,Delhi,"Bawana, Delhi - DPCC",09-05-2024 14:00:00,28.776200,77.051074,CO,28,52,32
India,Delhi,Delhi,"Burari Crossing, Delhi - IMD",09-05-2024 14:00:00,28.7256504,77.2011573,CO,34,46,37
India,Delhi,Delhi,"Chandni Chowk, Delhi - IITM",09-05-2024 14:00:00,28.656756,77.227234,PM10,133,240,189
India,Delhi,Delhi,"DTU, Delhi - CPCB",09-05-2024 14:00:00,28.7500499,77.1112615,PM10,121,213,164
India,Delhi,Delhi,"Dr. Karni Singh Shooting Range, Delhi - DPCC",09-05-2024 14:00:00,28.498571,77.264840,NO2,16,37,21
India,Delhi,Delhi,"Dr. Karni Singh Shooting Range, Delhi - DPCC",09-05-2024 14:00:00,28.498571,77.264840,OZONE,84,240,222
India,Delhi,Delhi,"Dwarka-Sector 8, Delhi - DPCC ",09-05-2024 14:00:00,28.5710274,77.0719006,SO2,2,8,6
India,Delhi,Delhi,"IGI Airport (T3), Delhi - IMD",09-05-2024 14:00:00,28.5627763,77.1180053,NO2,30,80,47
India,Delhi,Delhi,"IHBAS, Dilshad Garden, Delhi - CPCB",09-05-2024 14:00:00,28.6811736,77.3025234,PM10,96,167,133
India,Delhi,Delhi,"ITO, Delhi - CPCB",09-05-2024 14:00:00,28.628624,77.241060,OZONE,16,52,27
India,Delhi,Delhi,"Jahangirpuri, Delhi - DPCC",09-05-2024 14:00:00,28.732820,77.170633,NH3,8,20,14
India,Delhi,Delhi,"Jahangirpuri, Delhi - DPCC",09-05-2024 14:00:00,28.732820,77.170633,SO2,23,42,32
India,Delhi,Delhi,"Jawaharlal Nehru Stadium, Delhi - DPCC",09-05-2024 14:00:00,28.580280,77.233829,CO,42,86,53
India,Delhi,Delhi,"Lodhi Road, Delhi - IITM",09-05-2024 14:00:00,28.588333,77.221667,PM10,51,154,96
India,Delhi,Delhi,"Lodhi Road, Delhi - IMD",09-05-2024 14:00:00,28.5918245,77.2273074,PM2.5,52,119,84
India,Delhi,Delhi,"Major Dhyan Chand National Stadium, Delhi - DPCC",09-05-2024 14:00:00,28.611281,77.237738,CO,57,83,63
India,Delhi,Delhi,"Major Dhyan Chand National Stadium, Delhi - DPCC",09-05-2024 14:00:00,28.611281,77.237738,OZONE,38,159,159
India,Delhi,Delhi,"NSIT Dwarka, Delhi - CPCB",09-05-2024 14:00:00,28.60909,77.0325413,NO2,16,27,22
India,Delhi,Delhi,"NSIT Dwarka, Delhi - CPCB",09-05-2024 14:00:00,28.60909,77.0325413,NH3,19,21,19
India,Delhi,Delhi,"Najafgarh, Delhi - DPCC",09-05-2024 14:00:00,28.570173,76.933762,NH3,10,12,11
India,Delhi,Delhi,"North Campus, DU, Delhi - IMD",09-05-2024 14:00:00,28.6573814,77.1585447,NO2,15,38,23
India,Delhi,Delhi,"North Campus, DU, Delhi - IMD",09-05-2024 14:00:00,28.6573814,77.1585447,CO,74,109,87
India,Delhi,Delhi,"Okhla Phase-2, Delhi - DPCC",09-05-2024 14:00:00,28.530785,77.271255,NH3,13,21,17
India,Delhi,Delhi,"Punjabi Bagh, Delhi - DPCC",09-05-2024 14:00:00,28.674045,77.131023,SO2,8,27,17
India,Delhi,Delhi,"Punjabi Bagh, Delhi - DPCC",09-05-2024 14:00:00,28.674045,77.131023,CO,34,78,48
India,Delhi,Delhi,"Pusa, Delhi - DPCC",09-05-2024 14:00:00,28.639652,77.146275,SO2,11,15,12
India,Delhi,Delhi,"R K Puram, Delhi - DPCC",09-05-2024 14:00:00,28.563262,77.186937,PM2.5,80,325,133
India,Delhi,Delhi,"R K Puram, Delhi - DPCC",09-05-2024 14:00:00,28.563262,77.186937,PM10,120,196,162
India,Delhi,Delhi,"Rohini, Delhi - DPCC",09-05-2024 14:00:00,28.732528,77.119920,CO,32,67,42
India,Delhi,Delhi,"Shadipur, Delhi - CPCB",09-05-2024 14:00:00,28.6514781,77.1473105,NO2,58,80,66
India,Delhi,Delhi,"Shadipur, Delhi - CPCB",09-05-2024 14:00:00,28.6514781,77.1473105,SO2,15,23,18
India,Delhi,Delhi,"Sri Aurobindo Marg, Delhi - DPCC",09-05-2024 14:00:00,28.531346,77.190156,SO2,14,23,19
India,Delhi,Delhi,"Wazirpur, Delhi - DPCC",09-05-2024 14:00:00,28.699793,77.165453,NH3,5,15,13
India,Gujarat,Ahmedabad,"Chandkheda, Ahmedabad - IITM",09-05-2024 14:00:00,23.107969,72.574648,PM2.5,44,435,137
India,Gujarat,Ahmedabad,"Chandkheda, Ahmedabad - IITM",09-05-2024 14:00:00,23.107969,72.574648,PM10,46,433,120
India,Gujarat,Ahmedabad,"Gyaspur, Ahmedabad - IITM",09-05-2024 14:00:00,22.977134,72.553024,PM2.5,91,250,148
India,Gujarat,Ahmedabad,"Gyaspur, Ahmedabad - IITM",09-05-2024 14:00:00,22.977134,72.553024,PM10,99,159,125
India,Gujarat,Ahmedabad,"Gyaspur, Ahmedabad - IITM",09-05-2024 14:00:00,22.977134,72.553024,OZONE,20,127,54
India,Gujarat,Ahmedabad,"Maninagar, Ahmedabad - GPCB",09-05-2024 14:00:00,23.002657,72.591912,SO2,1,108,51
India,Gujarat,Ahmedabad,"Raikhad, Ahmedabad - IITM",09-05-2024 14:00:00,23.020509,72.579261,PM2.5,NA,NA,NA
India,Gujarat,Ahmedabad,"Rakhial, Ahmedabad - IITM",09-05-2024 14:00:00,23.016834,72.625775,PM2.5,31,398,114
India,Gujarat,Ahmedabad,"SVPI Airport Hansol, Ahmedabad - IITM",09-05-2024 14:00:00,23.076793,72.627874,PM2.5,42,93,68
India,Gujarat,Ahmedabad,"SVPI Airport Hansol, Ahmedabad - IITM",09-05-2024 14:00:00,23.076793,72.627874,PM10,77,120,103
India,Gujarat,Ahmedabad,"Sardar Vallabhbhai Patel Stadium, Ahmedabad - IITM",09-05-2024 14:00:00,23.043070,72.562968,NO2,20,33,28
India,Gujarat,Ahmedabad,"Sardar Vallabhbhai Patel Stadium, Ahmedabad - IITM",09-05-2024 14:00:00,23.043070,72.562968,CO,24,74,44
India,Gujarat,Ankleshwar,"GIDC, Ankleshwar - GPCB",09-05-2024 14:00:00,21.613267,73.010555,PM2.5,25,57,38
India,Gujarat,Gandhinagar,"Sector-10, Gandhinagar - GPCB",09-05-2024 14:00:00,23.221714,72.654328,PM10,59,59,59
India,Gujarat,Vatva,"Phase-4 GIDC, Vatva - GPCB",09-05-2024 14:00:00,22.969611,72.643500,CO,34,36,36
India,Haryana,Bahadurgarh,"Arya Nagar, Bahadurgarh - HSPCB",09-05-2024 14:00:00,28.6701,76.9254,OZONE,32,39,37
India,Haryana,Bhiwani,"H.B. Colony, Bhiwani - HSPCB",09-05-2024 14:00:00,28.806223,76.141105,PM2.5,90,236,151
India,Haryana,Charkhi Dadri,"Mini Secretariat, Charkhi Dadri - HSPCB",09-05-2024 14:00:00,28.593883,76.270653,PM10,NA,NA,NA
India,Haryana,Dharuhera,"Municipal Corporation Office, Dharuhera -  HSPCB",09-05-2024 14:00:00,28.206800,76.799700,PM10,116,177,148
India,Haryana,Dharuhera,"Municipal Corporation Office, Dharuhera -  HSPCB",09-05-2024 14:00:00,28.206800,76.799700,SO2,3,6,4
India,Haryana,Dharuhera,"Municipal Corporation Office, Dharuhera -  HSPCB",09-05-2024 14:00:00,28.206800,76.799700,OZONE,27,59,38
India,Haryana,Faridabad,"New Industrial Town, Faridabad - HSPCB",09-05-2024 14:00:00,28.39072,77.30059,NH3,3,5,4
India,Haryana,Faridabad,"New Industrial Town, Faridabad - HSPCB",09-05-2024 14:00:00,28.39072,77.30059,CO,6,39,14
India,Haryana,Faridabad,"Sector- 16A, Faridabad - HSPCB",09-05-2024 14:00:00,28.4088421,77.3099081,PM2.5,42,112,72
India,Haryana,Fatehabad,"Huda Sector, Fatehabad - HSPCB",09-05-2024 14:00:00,29.503664,75.467934,CO,5,14,7
India,Haryana,Gurugram,"NISE Gwal Pahari, Gurugram - IMD",09-05-2024 14:00:00,28.422681,77.148944,PM10,110,196,168
India,Haryana,Gurugram,"NISE Gwal Pahari, Gurugram - IMD",09-05-2024 14:00:00,28.422681,77.148944,NO2,8,22,14
India,Haryana,Gurugram,"Sector-51, Gurugram - HSPCB",09-05-2024 14:00:00,28.4227,77.0667,NO2,13,29,23
India,Haryana,Gurugram,"Teri Gram, Gurugram - HSPCB",09-05-2024 14:00:00,28.4275,77.1465,CO,14,46,36
India,Haryana,Gurugram,"Vikas Sadan, Gurugram - HSPCB",09-05-2024 14:00:00,28.4501238,77.0263051,OZONE,7,68,33
India,Haryana,Hisar,"Urban Estate-II, Hisar - HSPCB",09-05-2024 14:00:00,29.140560,75.744941,PM2.5,78,318,139
India,Haryana,Hisar,"Urban Estate-II, Hisar - HSPCB",09-05-2024 14:00:00,29.140560,75.744941,OZONE,28,199,174
India,Haryana,Jind,"Police Lines, Jind - HSPCB",09-05-2024 14:00:00,29.307814,76.337619,PM10,101,171,135
India,Haryana,Jind,"Police Lines, Jind - HSPCB",09-05-2024 14:00:00,29.307814,76.337619,SO2,6,22,13
India,Haryana,Jind,"Police Lines, Jind - HSPCB",09-05-2024 14:00:00,29.307814,76.337619,CO,3,78,19
India,Haryana,Kaithal,"Rishi Nagar, Kaithal - HSPCB",09-05-2024 14:00:00,29.8006,76.4155,PM2.5,61,154,92
India,Haryana,Karnal,"Sector-12, Karnal - HSPCB",09-05-2024 14:00:00,29.695300,77.002700,NO2,7,12,10
India,Haryana,Karnal,"Sector-12, Karnal - HSPCB",09-05-2024 14:00:00,29.695300,77.002700,NH3,10,13,11
India,Haryana,Karnal,"Sector-12, Karnal - HSPCB",09-05-2024 14:00:00,29.695300,77.002700,SO2,12,13,12
India,Haryana,Karnal,"Sector-12, Karnal - HSPCB",09-05-2024 14:00:00,29.695300,77.002700,OZONE,31,37,35
India,Haryana,Kurukshetra,"Sector-7, Kurukshetra - HSPCB",09-05-2024 14:00:00,29.966942,76.875879,PM10,92,168,129
India,Haryana,Kurukshetra,"Sector-7, Kurukshetra - HSPCB",09-05-2024 14:00:00,29.966942,76.875879,NO2,8,10,10
India,Haryana,Mandikhera,"General Hospital, Mandikhera - HSPCB",09-05-2024 14:00:00,27.9002,76.9938,NH3,15,19,18
India,Haryana,Narnaul,"Shastri Nagar, Narnaul - HSPCB",09-05-2024 14:00:00,28.060249,76.113115,PM2.5,81,167,111
India,Haryana,Palwal,"Shyam Nagar, Palwal - HSPCB",09-05-2024 14:00:00,28.1485564,77.3320667,NO2,23,25,24
India,Haryana,Palwal,"Shyam Nagar, Palwal - HSPCB",09-05-2024 14:00:00,28.1485564,77.3320667,SO2,8,15,11
India,Haryana,Panchkula,"Sector-6, Panchkula - HSPCB ",09-05-2024 14:00:00,30.7057778,76.8531805555555,NO2,9,11,10
India,Haryana,Panipat,"Sector-18, Panipat - HSPCB",09-05-2024 14:00:00,29.497973,76.993331,NH3,2,3,2
India,Haryana,Rohtak,"MD University, Rohtak - HSPCB",09-05-2024 14:00:00,28.52123,76.37138,NO2,47,55,51
India,Haryana,Rohtak,"MD University, Rohtak - HSPCB",09-05-2024 14:00:00,28.52123,76.37138,OZONE,45,54,49
India,Jammu_and_Kashmir,Srinagar,"Rajbagh, Srinagar - JKSPCB",09-05-2024 14:00:00,34.066206,74.819820,CO,20,26,25
India,Jammu_and_Kashmir,Srinagar,"Rajbagh, Srinagar - JKSPCB",09-05-2024 14:00:00,34.066206,74.819820,OZONE,15,23,15
India,Jharkhand,Dhanbad,"Kalakusuma, Dhanbad - DMC",09-05-2024 14:00:00,23.811548,86.481238,OZONE,28,70,39
India,Jharkhand,Dhanbad,"Sardar Patel Nagar, Dhanbad - JSPCB",09-05-2024 14:00:00,23.80569,86.44268,PM2.5,3,106,33
India,Karnataka,Bagalkot,"Vidayagiri, Bagalkot - KSPCB",09-05-2024 14:00:00,16.172806,75.659694,NO2,9,10,9
India,Karnataka,Belgaum,"Ramteerth Nagar, Belgaum - KSPCB",09-05-2024 14:00:00,15.888653,74.541751,NH3,2,5,3
India,Karnataka,Bengaluru,"BTM Layout, Bengaluru - CPCB",09-05-2024 14:00:00,12.9135218,77.5950804,PM10,NA,NA,NA
India,Karnataka,Bengaluru,"Bapuji Nagar, Bengaluru - KSPCB",09-05-2024 14:00:00,12.951913,77.539784,SO2,5,10,8
India,Karnataka,Bengaluru,"Jayanagar 5th Block, Bengaluru - KSPCB",09-05-2024 14:00:00,12.920984,77.584908,PM2.5,24,76,52
India,Karnataka,Bengaluru,"Kasturi Nagar, Bengaluru - KSPCB",09-05-2024 14:00:00,13.003872,77.664217,OZONE,3,115,59
India,Karnataka,Bengaluru,"Peenya, Bengaluru - CPCB",09-05-2024 14:00:00,13.0270199,77.494094,CO,28,42,34
India,Karnataka,Bengaluru,"Peenya, Bengaluru - CPCB",09-05-2024 14:00:00,13.0270199,77.494094,OZONE,11,155,60
India,Karnataka,Bengaluru,"RVCE-Mailasandra, Bengaluru - KSPCB",09-05-2024 14:00:00,12.921418,77.502466,CO,26,71,33
India,Karnataka,Bengaluru,"Silk Board, Bengaluru - KSPCB",09-05-2024 14:00:00,12.917348,77.622813,CO,10,18,12
India,Karnataka,Bidar,"Naubad, Bidar - KSPCB",09-05-2024 14:00:00,17.930306,77.482194,OZONE,34,45,40
India,Karnataka,Chamarajanagar,"Urban, Chamarajanagar - KSPCB",09-05-2024 14:00:00,11.55358,76.55521,NH3,2,3,2
India,Karnataka,Chamarajanagar,"Urban, Chamarajanagar - KSPCB",09-05-2024 14:00:00,11.55358,76.55521,SO2,3,8,5
India,Karnataka,Chamarajanagar,"Urban, Chamarajanagar - KSPCB",09-05-2024 14:00:00,11.55358,76.55521,CO,19,120,26
India,Karnataka,Chikkaballapur,"Chikkaballapur Rural, Chikkaballapur - KSPCB",09-05-2024 14:00:00,13.428828,77.731418,NO2,6,14,9
India,Karnataka,Chikkaballapur,"Chikkaballapur Rural, Chikkaballapur - KSPCB",09-05-2024 14:00:00,13.428828,77.731418,NH3,1,1,1
India,Karnataka,Chikkamagaluru,"Kalyana Nagara, Chikkamagaluru - KSPCB",09-05-2024 14:00:00,13.328028,75.797056,NH3,3,4,4
India,Karnataka,Dharwad,"Kalabhavan, Dharwad - KSPCB",09-05-2024 14:00:00,15.459706,75.008381,NH3,3,3,3
India,Karnataka,Gadag,"Panchal Nagar, Gadag - KSPCB",09-05-2024 14:00:00,15.411456,75.638133,PM10,27,42,35
India,Karnataka,Gadag,"Panchal Nagar, Gadag - KSPCB",09-05-2024 14:00:00,15.411456,75.638133,NH3,1,3,2
India,Karnataka,Haveri,"Ashwini Nagar, Haveri - KSPCB",09-05-2024 14:00:00,14.791800,75.389600,SO2,14,14,14
India,Karnataka,Hubballi,"Deshpande Nagar, Hubballi - KSPCB",09-05-2024 14:00:00,15.351773,75.140726,NH3,5,6,5
India,Karnataka,Hubballi,"Lingaraj Nagar, Hubballi - KSPCB",09-05-2024 14:00:00,15.3714823,75.1160168,PM2.5,30,59,43
India,Karnataka,Hubballi,"Lingaraj Nagar, Hubballi - KSPCB",09-05-2024 14:00:00,15.3714823,75.1160168,NH3,2,2,2
India,Karnataka,Hubballi,"Lingaraj Nagar, Hubballi - KSPCB",09-05-2024 14:00:00,15.3714823,75.1160168,CO,1,35,4
India,Karnataka,Kalaburagi,"Lal Bahadur Shastri Nagar, Kalaburagi - KSPCB",09-05-2024 14:00:00,17.321993,76.822628,PM2.5,NA,NA,NA
India,Karnataka,Kalaburagi,"Lal Bahadur Shastri Nagar, Kalaburagi - KSPCB",09-05-2024 14:00:00,17.321993,76.822628,NH3,2,2,2
India,Karnataka,Kalaburagi,"Mahatma Basaveswar Colony, Kalaburgi - KSPCB",09-05-2024 14:00:00,17.336318,76.847397,PM2.5,26,69,44
India,Karnataka,Kalaburagi,"Mahatma Basaveswar Colony, Kalaburgi - KSPCB",09-05-2024 14:00:00,17.336318,76.847397,OZONE,12,26,15
India,Karnataka,Karwar,"KHB Colony, Karwar - KSPCB",09-05-2024 14:00:00,14.816666,74.141003,OZONE,NA,NA,NA
India,Karnataka,Kolar,"Tamaka Ind. Area, Kolar - KSPCB",09-05-2024 14:00:00,13.1276288,78.1570122,PM2.5,NA,NA,NA
India,Karnataka,Kolar,"Tamaka Ind. Area, Kolar - KSPCB",09-05-2024 14:00:00,13.1276288,78.1570122,OZONE,15,91,57
India,Karnataka,Koppal,"Diwator Nagar, Koppal - KSPCB",09-05-2024 14:00:00,15.347630,76.181767,PM2.5,12,75,31
India,Karnataka,Mangalore,"Kadri, Mangalore - KSPCB",09-05-2024 14:00:00,12.889250,74.853000,PM10,43,61,50
India,Karnataka,Mangalore,"Kadri, Mangalore - KSPCB",09-05-2024 14:00:00,12.889250,74.853000,SO2,16,19,17
India,Karnataka,Mangalore,"Kadri, Mangalore - KSPCB",09-05-2024 14:00:00,12.889250,74.853000,CO,37,42,39
India,Karnataka,Mysuru,"Hebbal 1st Stage, Mysuru - KSPCB",09-05-2024 14:00:00,12.21041,76.37376,PM10,29,71,42
India,Karnataka,Mysuru,"Hebbal 1st Stage, Mysuru - KSPCB",09-05-2024 14:00:00,12.21041,76.37376,SO2,1,5,2
India,Karnataka,Raichur,"Haji Colony, Raichur - KSPCB",09-05-2024 14:00:00,16.208139,77.348417,PM2.5,12,37,22
India,Karnataka,Raichur,"Haji Colony, Raichur - KSPCB",09-05-2024 14:00:00,16.208139,77.348417,OZONE,3,34,13
India,Karnataka,Ramanagara,"Vijay Nagar, Ramanagara - KSPCB",09-05-2024 14:00:00,12.733409,77.298051,OZONE,24,40,31
India,Karnataka,Tumakuru,"Thimmalapura, Tumakuru - KSPCB",09-05-2024 14:00:00,13.377516,77.099072,PM10,73,139,100
India,Karnataka,Udupi,"Brahmagiri, Udupi - KSPCB",09-05-2024 14:00:00,13.34194444,74.74694444,NO2,28,30,29
India,Karnataka,Udupi,"Brahmagiri, Udupi - KSPCB",09-05-2024 14:00:00,13.34194444,74.74694444,NH3,1,1,1
India,Karnataka,Udupi,"Brahmagiri, Udupi - KSPCB",09-05-2024 14:00:00,13.34194444,74.74694444,SO2,8,12,10
India,Karnataka,Vijayapura,"Ibrahimpur, Vijayapura - KSPCB",09-05-2024 14:00:00,16.802639,75.722694,PM10,41,44,42
India,Karnataka,Yadgir,"Collector Office, Yadgir - KSPCB",09-05-2024 14:00:00,16.7602,77.1428,SO2,1,48,17
India,Kerala,Eloor,"Udyogamandal, Eloor - Kerala PCB",09-05-2024 14:00:00,10.073232,76.302765,PM2.5,25,42,31
India,Kerala,Eloor,"Udyogamandal, Eloor - Kerala PCB",09-05-2024 14:00:00,10.073232,76.302765,OZONE,11,20,15
India,Kerala,Kannur,"Thavakkara, Kannur - Kerala PCB",09-05-2024 14:00:00,11.875000,75.373200,PM10,61,93,70
India,Kerala,Kollam,"Polayathode, Kollam - Kerala PCB",09-05-2024 14:00:00,8.8787,76.6073,SO2,1,28,5
India,Kerala,Thiruvananthapuram,"Plammoodu, Thiruvananthapuram - Kerala PCB",09-05-2024 14:00:00,8.5149093,76.9435879,CO,14,47,24
India,Kerala,Thiruvananthapuram,"Plammoodu, Thiruvananthapuram - Kerala PCB",09-05-2024 14:00:00,8.5149093,76.9435879,OZONE,8,55,17
India,Kerala,Thrissur,"Corporation Ground, Thrissur - Kerala PCB",09-05-2024 14:00:00,10.532400,76.215900,PM2.5,45,52,48
India,Madhya Pradesh,Bhopal,"Idgah Hills, Bhopal - MPPCB",09-05-2024 14:00:00,23.264759,77.381568,CO,12,42,22
India,Madhya Pradesh,Bhopal,"Paryavaran Parisar, Bhopal - MPPCB",09-05-2024 14:00:00,23.210494,77.425409,PM2.5,32,97,55
India,Madhya Pradesh,Bhopal,"T T Nagar, Bhopal - MPPCB",09-05-2024 14:00:00,23.233584,77.400574,PM10,91,185,122
India,Madhya Pradesh,Bhopal,"T T Nagar, Bhopal - MPPCB",09-05-2024 14:00:00,23.233584,77.400574,SO2,8,24,20
India,Madhya Pradesh,Dewas,"Bhopal Chauraha, Dewas - MPPCB",09-05-2024 14:00:00,22.9682591,76.064118,NO2,9,15,13
India,Madhya Pradesh,Dewas,"Bhopal Chauraha, Dewas - MPPCB",09-05-2024 14:00:00,22.9682591,76.064118,OZONE,22,138,34
India,Madhya Pradesh,Gwalior,"Deen Dayal Nagar, Gwalior - MPPCB",09-05-2024 14:00:00,26.259242,78.216432,OZONE,86,209,106
India,Madhya Pradesh,Gwalior,"Maharaj Bada, Gwalior - MPPCB",09-05-2024 14:00:00,26.200388,78.147714,OZONE,85,195,188
India,Madhya Pradesh,Gwalior,"Phool Bagh, Gwalior - Mondelez Ind. Food",09-05-2024 14:00:00,26.210536,78.171,PM10,62,185,102
India,Madhya Pradesh,Gwalior,"Phool Bagh, Gwalior - Mondelez Ind. Food",09-05-2024 14:00:00,26.210536,78.171,CO,63,86,69
India,Madhya Pradesh,Indore,"Chhoti Gwaltoli, Indore - MPPCB",09-05-2024 14:00:00,22.4310,75.5213,PM10,62,175,112
India,Madhya Pradesh,Indore,"Chhoti Gwaltoli, Indore - MPPCB",09-05-2024 14:00:00,22.4310,75.5213,NH3,3,7,5
India,Madhya Pradesh,Indore,"Maguda Nagar, Indore - IMC",09-05-2024 14:00:00,22.7524,75.8872,SO2,29,35,32
India,Madhya Pradesh,Indore,"Regional Park, Indore - IMC",09-05-2024 14:00:00,22.6780,75.8559,OZONE,8,29,13
India,Madhya Pradesh,Jabalpur,"Govindh Bhavan Colony, Jabalpur - JMC",09-05-2024 14:00:00,23.163174,79.973061,NH3,13,18,15
India,Madhya Pradesh,Jabalpur,"Gupteshwar, Jabalpur - JMC",09-05-2024 14:00:00,23.142888,79.916147,CO,10,31,16
India,Madhya Pradesh,Jabalpur,"Suhagi, Jabalpur - JMC",09-05-2024 14:00:00,23.218135,79.957770,PM2.5,17,321,49
India,Madhya Pradesh,Mandideep,"Sector-D Industrial Area, Mandideep - MPPCB",09-05-2024 14:00:00,23.108440,77.511428,OZONE,10,46,28
India,Madhya Pradesh,Pithampur,"Sector-2 Industrial Area, Pithampur - MPPCB",09-05-2024 14:00:00,22.624758,75.675238,NO2,6,34,21
India,Madhya Pradesh,Pithampur,"Sector-2 Industrial Area, Pithampur - MPPCB",09-05-2024 14:00:00,22.624758,75.675238,NH3,1,1,1
India,Madhya Pradesh,Ratlam,"Shasthri Nagar, Ratlam - IPCA Lab",09-05-2024 14:00:00,23.331731,75.045981,NO2,35,36,35
India,Madhya Pradesh,Sagar,"Civil Lines, Sagar - MPPCB",09-05-2024 14:00:00,23.838586,78.759431,PM2.5,NA,NA,NA
India,Madhya Pradesh,Sagar,"Civil Lines, Sagar - MPPCB",09-05-2024 14:00:00,23.838586,78.759431,PM10,NA,NA,NA
India,Madhya Pradesh,Sagar,"Civil Lines, Sagar - MPPCB",09-05-2024 14:00:00,23.838586,78.759431,NH3,NA,NA,NA
India,Madhya Pradesh,Sagar,"Deen Dayal Nagar, Sagar - MPPCB",09-05-2024 14:00:00,23.8640158,78.80289321,PM2.5,10,47,24
India,Madhya Pradesh,Sagar,"Deen Dayal Nagar, Sagar - MPPCB",09-05-2024 14:00:00,23.8640158,78.80289321,PM10,32,114,85
India,Madhya Pradesh,Satna,"Bandhavgar Colony, Satna - Birla Cement",09-05-2024 14:00:00,24.58434363,80.8549414,PM10,23,83,41
India,Madhya Pradesh,Singrauli,"Suryakiran Bhawan NCL, Singrauli - MPPCB",09-05-2024 14:00:00,24.108970,82.645580,PM2.5,31,223,78
India,Madhya Pradesh,Singrauli,"Suryakiran Bhawan NCL, Singrauli - MPPCB",09-05-2024 14:00:00,24.108970,82.645580,PM10,42,181,93
India,Madhya Pradesh,Ujjain,"Mahakaleshwar Temple, Ujjain - MPPCB",09-05-2024 14:00:00,23.182719 ,75.768218 ,SO2,11,24,15
India,Maharashtra,Akola,"Ramdaspeth, Akola - MPCB",09-05-2024 14:00:00,20.719516,77.000253,NO2,8,110,24
India,Maharashtra,Amravati,"Shivneri Colony, Amravati - MPCB",09-05-2024 14:00:00,20.9402359,77.7895248,CO,10,30,22
India,Maharashtra,Aurangabad,"MIDC Chilkalthana, Aurangabad - MPCB",09-05-2024 14:00:00,19.875620,75.387310,NO2,6,42,16
India,Maharashtra,Aurangabad,"MIDC Chilkalthana, Aurangabad - MPCB",09-05-2024 14:00:00,19.875620,75.387310,SO2,1,19,7
India,Maharashtra,Aurangabad,"More Chowk Waluj, Aurangabad - MPCB",09-05-2024 14:00:00,19.8389439,75.244448,NO2,40,47,44
India,Maharashtra,Aurangabad,"More Chowk Waluj, Aurangabad - MPCB",09-05-2024 14:00:00,19.8389439,75.244448,NH3,9,10,9
India,Maharashtra,Aurangabad,"More Chowk Waluj, Aurangabad - MPCB",09-05-2024 14:00:00,19.8389439,75.244448,CO,12,62,37
India,Maharashtra,Aurangabad,"More Chowk Waluj, Aurangabad - MPCB",09-05-2024 14:00:00,19.8389439,75.244448,OZONE,33,121,74
India,Maharashtra,Aurangabad,"Rachnakar Colony, Aurangabad - MPCB",09-05-2024 14:00:00,19.863756,75.321188,PM2.5,95,226,154
India,Maharashtra,Badlapur,"Katrap, Badlapur - MPCB",09-05-2024 14:00:00,19.16485,73.23409,NH3,1,2,1
India,Maharashtra,Badlapur,"Katrap, Badlapur - MPCB",09-05-2024 14:00:00,19.16485,73.23409,CO,13,34,25
India,Maharashtra,Bhiwandi,"Gokul Nagar, Bhiwandi - MPCB",09-05-2024 14:00:00,19.309073,73.057223,PM10,44,84,70
India,Maharashtra,Boisar,"Khaira, Boisar - MPCB",09-05-2024 14:00:00,19.786089,72.757971,NO2,16,55,25
India,Maharashtra,Boisar,"Khaira, Boisar - MPCB",09-05-2024 14:00:00,19.786089,72.757971,SO2,2,20,10
India,Maharashtra,Chandrapur,"Chauhan Colony, Chandrapur - MPCB",09-05-2024 14:00:00,19.962900,79.298714,CO,22,26,24
India,Maharashtra,Dhule,"Deopur, Dhule - MPCB",09-05-2024 14:00:00,20.918946,74.776388,PM10,106,136,122
India,Maharashtra,Jalna,"Old MIDC, Jalna - MPCB",09-05-2024 14:00:00,19.854616,75.905894,SO2,2,11,5
India,Maharashtra,Kalyan,"Khadakpada, Kalyan - MPCB",09-05-2024 14:00:00,19.25292,73.142019,NH3,NA,NA,NA
India,Maharashtra,Kalyan,"Khadakpada, Kalyan - MPCB",09-05-2024 14:00:00,19.25292,73.142019,SO2,NA,NA,NA
India,Maharashtra,Kalyan,"Khadakpada, Kalyan - MPCB",09-05-2024 14:00:00,19.25292,73.142019,OZONE,12,14,13
India,Maharashtra,Kolhapur,"Shivaji University, Kolhapur - MPCB",09-05-2024 14:00:00,16.6870449,74.2505872,PM2.5,73,156,97
India,Maharashtra,Kolhapur,"Shivaji University, Kolhapur - MPCB",09-05-2024 14:00:00,16.6870449,74.2505872,OZONE,29,123,59
India,Maharashtra,Kolhapur,"Sinchan Bhavan, Kolhapur - MPCB",09-05-2024 14:00:00,16.7143745,74.2426398,NO2,6,27,11
India,Maharashtra,Kolhapur,"Sinchan Bhavan, Kolhapur - MPCB",09-05-2024 14:00:00,16.7143745,74.2426398,NH3,7,8,8
India,Maharashtra,Latur,"Sawe Wadi, Latur - MPCB",09-05-2024 14:00:00,18.39963,76.57452,PM2.5,20,152,58
India,Maharashtra,Latur,"Sawe Wadi, Latur - MPCB",09-05-2024 14:00:00,18.39963,76.57452,NH3,5,9,8
India,Maharashtra,Malegaon,"Mahesh Nagar, Malegaon - MPCB",09-05-2024 14:00:00,20.555712,74.529236,NH3,3,8,6
India,Maharashtra,Mira-Bhayandar,"Bhayandar West, Mira-Bhayandar - MPCB",09-05-2024 14:00:00,19.296481,72.840923,CO,16,29,20
India,Maharashtra,Mumbai,"Bandra Kurla Complex, Mumbai - MPCB",09-05-2024 14:00:00,19.065931,72.862131,NH3,10,10,10
India,Maharashtra,Mumbai,"Borivali East, Mumbai - MPCB",09-05-2024 14:00:00,19.2243333,72.8658113,PM2.5,5,22,15
India,Maharashtra,Mumbai,"Borivali East, Mumbai - MPCB",09-05-2024 14:00:00,19.2243333,72.8658113,OZONE,15,16,15
India,Maharashtra,Mumbai,"Byculla, Mumbai - BMC",09-05-2024 14:00:00,18.9767,72.8380,OZONE,17,43,26
India,Maharashtra,Mumbai,"Chakala-Andheri East, Mumbai - IITM",09-05-2024 14:00:00,19.11074,72.86084,NH3,4,11,8
India,Maharashtra,Mumbai,"Chembur, Mumbai - MPCB",09-05-2024 14:00:00,19.0364585,72.8954371,PM2.5,27,57,39
India,Maharashtra,Mumbai,"Chembur, Mumbai - MPCB",09-05-2024 14:00:00,19.0364585,72.8954371,PM10,32,64,52
India,Maharashtra,Mumbai,"Chhatrapati Shivaji Intl. Airport (T2), Mumbai - MPCB",09-05-2024 14:00:00,19.10078,72.87462,NO2,NA,NA,NA
India,Maharashtra,Mumbai,"Colaba, Mumbai - MPCB",09-05-2024 14:00:00,18.910000,72.820000,NH3,NA,NA,NA
India,Maharashtra,Mumbai,"Colaba, Mumbai - MPCB",09-05-2024 14:00:00,18.910000,72.820000,SO2,NA,NA,NA
India,Maharashtra,Mumbai,"Colaba, Mumbai - MPCB",09-05-2024 14:00:00,18.910000,72.820000,CO,12,14,12
India,Maharashtra,Mumbai,"Deonar, Mumbai - IITM",09-05-2024 14:00:00,19.04946,72.9230,OZONE,1,41,18
India,Maharashtra,Mumbai,"Ghatkopar, Mumbai - BMC",09-05-2024 14:00:00,19.083694,72.920967,SO2,1,2,1
India,Maharashtra,Mumbai,"Kandivali East, Mumbai - MPCB",09-05-2024 14:00:00,19.205800,72.868200,PM2.5,10,34,23
India,Maharashtra,Mumbai,"Kandivali East, Mumbai - MPCB",09-05-2024 14:00:00,19.205800,72.868200,SO2,7,9,8
India,Maharashtra,Mumbai,"Kandivali East, Mumbai - MPCB",09-05-2024 14:00:00,19.205800,72.868200,OZONE,29,31,30
India,Maharashtra,Mumbai,"Kandivali West, Mumbai - BMC",09-05-2024 14:00:00,19.215859,72.831718,PM2.5,10,22,17
India,Maharashtra,Mumbai,"Khindipada-Bhandup West, Mumbai - IITM",09-05-2024 14:00:00,19.1653323,72.922099,NO2,3,9,5
India,Maharashtra,Mumbai,"Khindipada-Bhandup West, Mumbai - IITM",09-05-2024 14:00:00,19.1653323,72.922099,SO2,1,8,5
India,Maharashtra,Mumbai,"Khindipada-Bhandup West, Mumbai - IITM",09-05-2024 14:00:00,19.1653323,72.922099,OZONE,2,15,8
India,Maharashtra,Mumbai,"Kurla, Mumbai - MPCB",09-05-2024 14:00:00,19.0863,72.8888,PM10,40,150,97
India,Maharashtra,Mumbai,"Kurla, Mumbai - MPCB",09-05-2024 14:00:00,19.0863,72.8888,NO2,10,17,14
India,Maharashtra,Mumbai,"Kurla, Mumbai - MPCB",09-05-2024 14:00:00,19.0863,72.8888,SO2,32,32,32
India,Maharashtra,Mumbai,"Mindspace-Malad West, Mumbai - MPCB",09-05-2024 14:00:00,19.1878657,72.8304069,NO2,11,36,20
India,Maharashtra,Mumbai,"Mindspace-Malad West, Mumbai - MPCB",09-05-2024 14:00:00,19.1878657,72.8304069,OZONE,20,128,44
India,Maharashtra,Mumbai,"Navy Nagar-Colaba, Mumbai - IITM",09-05-2024 14:00:00,18.897756,72.813320,CO,17,36,28
India,Maharashtra,Mumbai,"Navy Nagar-Colaba, Mumbai - IITM",09-05-2024 14:00:00,18.897756,72.813320,OZONE,32,64,46
India,Maharashtra,Mumbai,"Powai, Mumbai - MPCB",09-05-2024 14:00:00,19.137500,72.915056,CO,28,37,33
India,Maharashtra,Mumbai,"Sewri, Mumbai - BMC",09-05-2024 14:00:00,19.000084,72.856730,PM2.5,NA,NA,NA
India,Maharashtra,Mumbai,"Siddharth Nagar-Worli, Mumbai - IITM",09-05-2024 14:00:00,19.000083,72.813993,PM10,33,70,55
India,Maharashtra,Mumbai,"Siddharth Nagar-Worli, Mumbai - IITM",09-05-2024 14:00:00,19.000083,72.813993,NO2,17,97,25
India,Maharashtra,Mumbai,"Sion, Mumbai - MPCB",09-05-2024 14:00:00,19.047000,72.874600,CO,72,76,74
India,Maharashtra,Mumbai,"Sion, Mumbai - MPCB",09-05-2024 14:00:00,19.047000,72.874600,OZONE,72,93,84
India,Maharashtra,Mumbai,"Vile Parle West, Mumbai - MPCB",09-05-2024 14:00:00,19.10861,72.83622,PM2.5,11,33,22
India,Maharashtra,Nagpur,"Mahal, Nagpur - MPCB",09-05-2024 14:00:00,21.14472,79.107595,CO,11,112,22
India,Maharashtra,Nagpur,"Opp GPO Civil Lines, Nagpur - MPCB",09-05-2024 14:00:00,21.152875,79.0517531,CO,14,105,27
India,Maharashtra,Nagpur,"Opp GPO Civil Lines, Nagpur - MPCB",09-05-2024 14:00:00,21.152875,79.0517531,OZONE,8,75,42
India,Maharashtra,Nanded,"Sneh Nagar, Nanded - MPCB",09-05-2024 14:00:00,19.173852,77.296291,PM2.5,35,123,59
India,Maharashtra,Nashik,"Hirawadi, Nashik - MPCB",09-05-2024 14:00:00,20.021503,73.813844,CO,10,46,26
India,Maharashtra,Nashik,"Pandav Nagari, Nashik - MPCB",09-05-2024 14:00:00,19.9591346,73.7788008,PM10,NA,NA,NA
India,Maharashtra,Nashik,"Pandav Nagari, Nashik - MPCB",09-05-2024 14:00:00,19.9591346,73.7788008,NH3,NA,NA,NA
India,Maharashtra,Navi Mumbai,"Kopripada-Vashi, Navi Mumbai - MPCB",09-05-2024 14:00:00,19.090337,73.014232,PM10,28,90,62
India,Maharashtra,Navi Mumbai,"Kopripada-Vashi, Navi Mumbai - MPCB",09-05-2024 14:00:00,19.090337,73.014232,SO2,1,37,4
India,Maharashtra,Navi Mumbai,"Kopripada-Vashi, Navi Mumbai - MPCB",09-05-2024 14:00:00,19.090337,73.014232,CO,1,14,10
India,Maharashtra,Navi Mumbai,"Mahape, Navi Mumbai - MPCB",09-05-2024 14:00:00,19.1135051,73.008978,PM2.5,14,80,39
India,Maharashtra,Navi Mumbai,"Mahape, Navi Mumbai - MPCB",09-05-2024 14:00:00,19.1135051,73.008978,PM10,34,170,81
India,Maharashtra,Navi Mumbai,"Mahape, Navi Mumbai - MPCB",09-05-2024 14:00:00,19.1135051,73.008978,CO,105,108,107
India,Maharashtra,Navi Mumbai,"Sanpada, Navi Mumbai - MPCB",09-05-2024 14:00:00,19.0575752,73.0151367,NH3,1,6,2
India,Maharashtra,Navi Mumbai,"Tondare-Taloja, Navi Mumbai - MPCB",09-05-2024 14:00:00,19.0630,73.1209,PM2.5,NA,NA,NA
India,Maharashtra,Parbhani,"Masoom Colony, Parbhani - MPCB",09-05-2024 14:00:00,19.265594,76.761463,NH3,3,5,4
India,Maharashtra,Parbhani,"Masoom Colony, Parbhani - MPCB",09-05-2024 14:00:00,19.265594,76.761463,SO2,6,17,7
India,Maharashtra,Parbhani,"Masoom Colony, Parbhani - MPCB",09-05-2024 14:00:00,19.265594,76.761463,CO,18,41,28
India,Maharashtra,Parbhani,"Masoom Colony, Parbhani - MPCB",09-05-2024 14:00:00,19.265594,76.761463,OZONE,36,156,53
India,Maharashtra,Pimpri-Chinchwad,"Gavalinagar, Pimpri Chinchwad - MPCB",09-05-2024 14:00:00,18.63673,73.82487,NH3,1,2,1
India,Maharashtra,Pimpri-Chinchwad,"Gavalinagar, Pimpri Chinchwad - MPCB",09-05-2024 14:00:00,18.63673,73.82487,CO,12,22,18
India,Maharashtra,Pimpri-Chinchwad,"Thergaon, Pimpri Chinchwad - MPCB",09-05-2024 14:00:00,18.616318,73.765797,PM10,30,108,62
India,Maharashtra,Pune,"Alandi, Pune - IITM",09-05-2024 14:00:00,18.675076,73.892743,NO2,8,19,12
India,Maharashtra,Pune,"Karve Road, Pune - MPCB",09-05-2024 14:00:00,18.5011743,73.8165527,OZONE,11,180,74
India,Maharashtra,Pune,"Katraj Dairy, Pune - MPCB",09-05-2024 14:00:00,18.454450,73.854155,NO2,11,29,19
India,Maharashtra,Pune,"Katraj Dairy, Pune - MPCB",09-05-2024 14:00:00,18.454450,73.854155,CO,12,38,30
India,Maharashtra,Pune,"Katraj Dairy, Pune - MPCB",09-05-2024 14:00:00,18.454450,73.854155,OZONE,31,84,49
India,Maharashtra,Pune,"Mhada Colony, Pune - IITM",09-05-2024 14:00:00,18.573040,73.927715,OZONE,19,101,61
India,Maharashtra,Pune,"Revenue Colony-Shivajinagar, Pune - IITM",09-05-2024 14:00:00,18.530085,73.849598,NO2,82,207,164
India,Maharashtra,Pune,"Revenue Colony-Shivajinagar, Pune - IITM",09-05-2024 14:00:00,18.530085,73.849598,OZONE,15,96,41
India,Maharashtra,Pune,"Savitribai Phule Pune University, Pune - MPCB",09-05-2024 14:00:00,18.547056,73.826908,NH3,2,3,2
India,Maharashtra,Pune,"Savitribai Phule Pune University, Pune - MPCB",09-05-2024 14:00:00,18.547056,73.826908,OZONE,12,234,193
India,Maharashtra,Sangli,"Vijay Nagar, Sangli - MPCB",09-05-2024 14:00:00, 16.5038,74.3623,PM10,37,79,61
India,Maharashtra,Solapur,"Solapur, Solapur - MPCB",09-05-2024 14:00:00,17.6599188,75.9063906,SO2,103,107,105
India,Maharashtra,Thane,"Kasarvadavali, Thane - MPCB",09-05-2024 14:00:00,19.26777,72.97182,PM10,38,85,58
India,Maharashtra,Thane,"Kasarvadavali, Thane - MPCB",09-05-2024 14:00:00,19.26777,72.97182,CO,4,40,21
India,Maharashtra,Thane,"Upvan Fort, Thane - MPCB",09-05-2024 14:00:00,19.222279,72.957979,PM2.5,13,52,31
India,Maharashtra,Thane,"Upvan Fort, Thane - MPCB",09-05-2024 14:00:00,19.222279,72.957979,SO2,3,7,5
India,Maharashtra,Ulhasnagar,"Sidhi Vinayak Nagar, Ulhasnagar - MPCB",09-05-2024 14:00:00,19.235581,73.159121,SO2,NA,NA,NA
India,Maharashtra,Virar,"Bolinj, Virar - MPCB",09-05-2024 14:00:00,19.4458210,72.7988231,PM2.5,11,85,38
India,Maharashtra,Virar,"Bolinj, Virar - MPCB",09-05-2024 14:00:00,19.4458210,72.7988231,NH3,9,9,9
India,Manipur,Imphal,"Manipur University, Imphal - Manipur PCB",09-05-2024 14:00:00,24.7524239,93.9286218,SO2,89,95,93
India,Meghalaya,Shillong,"Lumpyngngad, Shillong - Meghalaya PCB",09-05-2024 14:00:00,25.5586,91.8985,NO2,NA,NA,NA
India,Nagaland,Kohima,"PWD Juction, Kohima - NPCB",09-05-2024 14:00:00,25.6635413,94.0989878,NO2,3,4,3
India,Nagaland,Kohima,"PWD Juction, Kohima - NPCB",09-05-2024 14:00:00,25.6635413,94.0989878,CO,6,25,12
India,Odisha,Bhubaneswar,"Patia, Bhubaneswar - OSPCB",09-05-2024 14:00:00,20.34652,85.81630,NO2,NA,NA,NA
India,Odisha,Bileipada,"Tata Township, Bileipada - OSPCB",09-05-2024 14:00:00,22.06156703,85.47409613,SO2,NA,NA,NA
India,Odisha,Bileipada,"Tata Township, Bileipada - OSPCB",09-05-2024 14:00:00,22.06156703,85.47409613,CO,16,30,24
India,Odisha,Bileipada,"Tata Township, Bileipada - OSPCB",09-05-2024 14:00:00,22.06156703,85.47409613,OZONE,18,71,40
India,Odisha,Brajrajnagar,"GM Office, Brajrajnagar - OSPCB",09-05-2024 14:00:00,21.8004996,83.8396977,CO,30,94,92
India,Odisha,Byasanagar,"Ferro Chrome Colony, Byasanagar - OSPCB",09-05-2024 14:00:00,20.94185,86.11510,NH3,2,3,2
India,Odisha,Cuttack,"CDA Area, Cuttack - OSPCB",09-05-2024 14:00:00,20.48891     ,85.84768     ,NO2,14,77,28
India,Odisha,Keonjhar,"Jagamohanpur, Keonjhar - OSPCB",09-05-2024 14:00:00,21.643900,85.599355,SO2,7,9,8
India,Odisha,Nayagarh,"Dabuna, Nayagarh - OSPCB",09-05-2024 14:00:00,21.847279,85.416905,PM2.5,41,93,59
India,Odisha,Nayagarh,"Dabuna, Nayagarh - OSPCB",09-05-2024 14:00:00,21.847279,85.416905,CO,8,22,15
India,Odisha,Rairangpur,"Divisional Forest Office, Rairangpur - OSPCB",09-05-2024 14:00:00,22.265816,86.174829,CO,12,18,16
India,Odisha,Rairangpur,"Divisional Forest Office, Rairangpur - OSPCB",09-05-2024 14:00:00,22.265816,86.174829,OZONE,1,22,11
India,Odisha,Rourkela,"Fertilizer Township, Rourkela - OSPCB",09-05-2024 14:00:00,22.18972222,84.86277778,SO2,4,13,10
India,Odisha,Rourkela,"Raghunathpali, Rourkela - OSPCB",09-05-2024 14:00:00,22.220833,84.809444,NO2,17,52,29
India,Odisha,Rourkela,"Sector-2, Rourkela - OSPCB",09-05-2024 14:00:00,22.24500000,84.88111111,PM2.5,2,137,61
India,Odisha,Rourkela,"Sector-2, Rourkela - OSPCB",09-05-2024 14:00:00,22.24500000,84.88111111,PM10,37,89,63
India,Odisha,Rourkela,"Sector-2, Rourkela - OSPCB",09-05-2024 14:00:00,22.24500000,84.88111111,CO,14,102,40
India,Odisha,Suakati,"OMC Colony, Suakati - OSPCB",09-05-2024 14:00:00,21.606865,85.510538,NH3,NA,NA,NA
India,Odisha,Talcher,"Talcher Coalfields,Talcher - OSPCB",09-05-2024 14:00:00,20.9360711,85.1707021,PM2.5,6,154,50
India,Odisha,Talcher,"Talcher Coalfields,Talcher - OSPCB",09-05-2024 14:00:00,20.9360711,85.1707021,SO2,31,43,37
India,Odisha,Talcher,"Talcher Coalfields,Talcher - OSPCB",09-05-2024 14:00:00,20.9360711,85.1707021,OZONE,1,43,30
India,Puducherry,Puducherry,"Jawahar Nagar, Puducherry - PPCC",09-05-2024 14:00:00,11.9309,79.8027,PM2.5,2,98,23
India,Puducherry,Puducherry,"Jawahar Nagar, Puducherry - PPCC",09-05-2024 14:00:00,11.9309,79.8027,SO2,1,15,6
India,Puducherry,Puducherry,"Jawahar Nagar, Puducherry - PPCC",09-05-2024 14:00:00,11.9309,79.8027,CO,16,40,25
India,Punjab,Amritsar,"Golden Temple, Amritsar - PPCB",09-05-2024 14:00:00,31.620000,74.876512,SO2,6,32,16
India,Punjab,Bathinda,"Hardev Nagar, Bathinda - PPCB",09-05-2024 14:00:00,30.233011,74.907758,PM10,NA,NA,NA
India,Punjab,Bathinda,"Hardev Nagar, Bathinda - PPCB",09-05-2024 14:00:00,30.233011,74.907758,NO2,25,32,28
India,Punjab,Bathinda,"Hardev Nagar, Bathinda - PPCB",09-05-2024 14:00:00,30.233011,74.907758,SO2,2,77,23
India,Punjab,Jalandhar,"Civil Line, Jalandhar - PPCB",09-05-2024 14:00:00,31.321907,75.578914,SO2,9,17,11
India,Punjab,Khanna,"Kalal Majra, Khanna - PPCB",09-05-2024 14:00:00,30.736056 ,76.209694,SO2,4,23,10
India,Punjab,Khanna,"Kalal Majra, Khanna - PPCB",09-05-2024 14:00:00,30.736056 ,76.209694,OZONE,43,47,45
India,Punjab,Ludhiana,"Punjab Agricultural University, Ludhiana - PPCB",09-05-2024 14:00:00,30.9028,75.8086,PM2.5,62,203,124
India,Punjab,Ludhiana,"Punjab Agricultural University, Ludhiana - PPCB",09-05-2024 14:00:00,30.9028,75.8086,NO2,19,25,20
India,Punjab,Mandi Gobindgarh,"RIMT University, Mandi Gobindgarh - PPCB",09-05-2024 14:00:00,30.649961,76.331442,PM2.5,55,151,92
India,Punjab,Mandi Gobindgarh,"RIMT University, Mandi Gobindgarh - PPCB",09-05-2024 14:00:00,30.649961,76.331442,NH3,6,6,6
India,Punjab,Patiala,"Model Town, Patiala - PPCB",09-05-2024 14:00:00,30.349388,76.366642,NH3,6,7,6
India,Punjab,Patiala,"Model Town, Patiala - PPCB",09-05-2024 14:00:00,30.349388,76.366642,CO,19,57,30
India,Rajasthan,Ajmer,"Civil Lines,  Ajmer - RSPCB",09-05-2024 14:00:00,26.470859,74.646594,NO2,4,97,22
India,Rajasthan,Ajmer,"Civil Lines,  Ajmer - RSPCB",09-05-2024 14:00:00,26.470859,74.646594,SO2,4,24,10
India,Rajasthan,Ajmer,"Civil Lines,  Ajmer - RSPCB",09-05-2024 14:00:00,26.470859,74.646594,OZONE,46,118,80
India,Rajasthan,Alwar,"Moti Doongri, Alwar - RSPCB",09-05-2024 14:00:00,27.554793,76.611536,PM10,81,129,106
India,Rajasthan,Alwar,"Moti Doongri, Alwar - RSPCB",09-05-2024 14:00:00,27.554793,76.611536,NO2,29,45,39
India,Rajasthan,Alwar,"Moti Doongri, Alwar - RSPCB",09-05-2024 14:00:00,27.554793,76.611536,SO2,3,52,20
India,Rajasthan,Alwar,"Moti Doongri, Alwar - RSPCB",09-05-2024 14:00:00,27.554793,76.611536,OZONE,15,22,19
India,Rajasthan,Banswara,"Rati Talai, Banswara - RSPCB",09-05-2024 14:00:00,23.555190,74.440010,PM2.5,121,333,247
India,Rajasthan,Banswara,"Rati Talai, Banswara - RSPCB",09-05-2024 14:00:00,23.555190,74.440010,NO2,10,52,21
India,Rajasthan,Banswara,"Rati Talai, Banswara - RSPCB",09-05-2024 14:00:00,23.555190,74.440010,NH3,2,10,5
India,Rajasthan,Banswara,"Rati Talai, Banswara - RSPCB",09-05-2024 14:00:00,23.555190,74.440010,OZONE,14,142,45
India,Rajasthan,Baran,"Bamboliya, Baran - RSPCB",09-05-2024 14:00:00,25.106006,76.469948,PM2.5,9,58,34
India,Rajasthan,Baran,"Bamboliya, Baran - RSPCB",09-05-2024 14:00:00,25.106006,76.469948,SO2,4,10,6
India,Rajasthan,Barmer,"Railway Colony, Barmer - RSPCB",09-05-2024 14:00:00,25.747299,71.393989,OZONE,36,100,56
India,Rajasthan,Bhilwara,"Pratap Nagar, Bhilwara - RSPCB",09-05-2024 14:00:00,25.339605,74.618883,PM10,38,110,71
India,Rajasthan,Bhilwara,"Pratap Nagar, Bhilwara - RSPCB",09-05-2024 14:00:00,25.339605,74.618883,CO,16,104,35
India,Rajasthan,Bhiwadi,"Vasundhara Nagar_UIT, Bhiwadi - RSPCB",09-05-2024 14:00:00,28.207266,76.829265,NH3,14,20,16
India,Rajasthan,Bhiwadi,"Vasundhara Nagar_UIT, Bhiwadi - RSPCB",09-05-2024 14:00:00,28.207266,76.829265,CO,26,38,30
India,Rajasthan,Bikaner,"MM Ground, Bikaner - RSPCB",09-05-2024 14:00:00,28.018792,73.292658,NO2,24,159,59
India,Rajasthan,Bikaner,"MM Ground, Bikaner - RSPCB",09-05-2024 14:00:00,28.018792,73.292658,NH3,10,15,12
India,Rajasthan,Bikaner,"MM Ground, Bikaner - RSPCB",09-05-2024 14:00:00,28.018792,73.292658,SO2,7,12,9
India,Rajasthan,Bundi,"New Colony, Bundi - RSPCB",09-05-2024 14:00:00,25.435774,75.644272,NO2,6,136,33
India,Rajasthan,Bundi,"New Colony, Bundi - RSPCB",09-05-2024 14:00:00,25.435774,75.644272,OZONE,10,151,112
India,Rajasthan,Chittorgarh,"Shastri Nagar, Chittorgarh - RSPCB",09-05-2024 14:00:00,24.892047,74.623527,NO2,10,68,31
India,Rajasthan,Dausa,"Khatikan Mohalla, Dausa - RSPCB",09-05-2024 14:00:00,26.895552,76.334753,SO2,2,4,2
India,Rajasthan,Hanumangarh,"Housing Board, Hanumangarh - RSPCB",09-05-2024 14:00:00,29.610750,74.283608,PM2.5,37,318,150
India,Rajasthan,Hanumangarh,"Housing Board, Hanumangarh - RSPCB",09-05-2024 14:00:00,29.610750,74.283608,CO,41,123,58
India,Rajasthan,Jaipur,"Adarsh Nagar, Jaipur - RSPCB",09-05-2024 14:00:00,26.902909,75.836858,CO,10,58,44
India,Rajasthan,Jaipur,"Police Commissionerate, Jaipur - RSPCB",09-05-2024 14:00:00,26.9164092,75.7994901,SO2,5,72,21
India,Rajasthan,Jaipur,"Police Commissionerate, Jaipur - RSPCB",09-05-2024 14:00:00,26.9164092,75.7994901,OZONE,79,133,102
India,Rajasthan,Jaipur,"RIICO Sitapura, Jaipur - RSPCB",09-05-2024 14:00:00,26.786682,75.827928,OZONE,36,86,54
India,Rajasthan,Jaipur,"Sector-2 Murlipura, Jaipur - RSPCB",09-05-2024 14:00:00,26.960669,75.771817,PM10,112,223,154
India,Rajasthan,Jaipur,"Sector-2 Murlipura, Jaipur - RSPCB",09-05-2024 14:00:00,26.960669,75.771817,NH3,2,9,5
India,Rajasthan,Jaipur,"Shastri Nagar, Jaipur - RSPCB",09-05-2024 14:00:00,26.9502929,75.730943,PM2.5,30,175,108
India,Rajasthan,Jaipur,"Shastri Nagar, Jaipur - RSPCB",09-05-2024 14:00:00,26.9502929,75.730943,SO2,3,42,18
India,Rajasthan,Jaipur,"Shastri Nagar, Jaipur - RSPCB",09-05-2024 14:00:00,26.9502929,75.730943,OZONE,46,156,81
India,Rajasthan,Jaisalmer,"Sadar Bazar, Jaisalmer - RSPCB",09-05-2024 14:00:00,26.912329,70.909168,SO2,2,9,3
India,Rajasthan,Jhalawar,"Rajlaxmi Nagar, Jhalawar - RSPCB",09-05-2024 14:00:00,24.588397,76.172782,NH3,1,8,2
India,Rajasthan,Jhalawar,"Rajlaxmi Nagar, Jhalawar - RSPCB",09-05-2024 14:00:00,24.588397,76.172782,CO,12,28,24
India,Rajasthan,Jhalawar,"Rajlaxmi Nagar, Jhalawar - RSPCB",09-05-2024 14:00:00,24.588397,76.172782,OZONE,50,104,81
India,Rajasthan,Jhunjhunu,"Indra Nagar, Jhunjhunu - RSPCB",09-05-2024 14:00:00,28.108988,75.386577,PM10,98,188,152
India,Rajasthan,Jodhpur,"Digari Kalan, Jodhpur - RSPCB",09-05-2024 14:00:00,26.295810,73.082283,PM2.5,7,61,35
India,Rajasthan,Jodhpur,"Digari Kalan, Jodhpur - RSPCB",09-05-2024 14:00:00,26.295810,73.082283,NH3,3,12,6
India,Rajasthan,Jodhpur,"Digari Kalan, Jodhpur - RSPCB",09-05-2024 14:00:00,26.295810,73.082283,OZONE,15,114,52
India,Rajasthan,Jodhpur,"Jhalamand, Jodhpur - RSPCB",09-05-2024 14:00:00,26.215415,73.070156,PM10,36,304,105
India,Rajasthan,Jodhpur,"Mandor, Jodhpur - RSPCB",09-05-2024 14:00:00,26.358805,73.047444,NO2,19,43,27
India,Rajasthan,Jodhpur,"Mandor, Jodhpur - RSPCB",09-05-2024 14:00:00,26.358805,73.047444,NH3,13,24,18
India,Rajasthan,Jodhpur,"Samrat Ashok Udhyan, Jodhpur - RSPCB",09-05-2024 14:00:00,26.253384,72.976571,PM2.5,3,52,26
India,Rajasthan,Karauli,"Satyawati Vihar, Karauli - RSPCB",09-05-2024 14:00:00,26.506177,77.025989,CO,3,72,28
India,Rajasthan,Kota,"Dhanmandi, Kota - RSPCB",09-05-2024 14:00:00,25.164090,75.858137,NH3,1,39,5
India,Rajasthan,Kota,"Nayapura, Kota - RSPCB",09-05-2024 14:00:00,25.196024,75.855668,PM2.5,31,104,65
India,Rajasthan,Kota,"Nayapura, Kota - RSPCB",09-05-2024 14:00:00,25.196024,75.855668,NH3,2,8,3
India,Rajasthan,Kota,"Nayapura, Kota - RSPCB",09-05-2024 14:00:00,25.196024,75.855668,CO,16,91,35
India,Rajasthan,Kota,"Nayapura, Kota - RSPCB",09-05-2024 14:00:00,25.196024,75.855668,OZONE,10,192,190
India,Rajasthan,Kota,"Shrinath Puram, Kota - RSPCB",09-05-2024 14:00:00,25.14389,75.821256,NO2,13,53,25
India,Rajasthan,Kota,"Shrinath Puram, Kota - RSPCB",09-05-2024 14:00:00,25.14389,75.821256,CO,1,107,53
India,Rajasthan,Nagaur,"Karni Colony, Nagaur - RSPCB",09-05-2024 14:00:00,27.213494,73.734444,SO2,3,10,5
India,Rajasthan,Nagaur,"Karni Colony, Nagaur - RSPCB",09-05-2024 14:00:00,27.213494,73.734444,OZONE,26,66,38
India,Rajasthan,Pali,"Indira Colony Vistar, Pali - RSPCB",09-05-2024 14:00:00,25.771061, 73.340227,PM2.5,29,356,126
India,Rajasthan,Pali,"Indira Colony Vistar, Pali - RSPCB",09-05-2024 14:00:00,25.771061, 73.340227,NO2,22,101,46
India,Rajasthan,Pali,"Indira Colony Vistar, Pali - RSPCB",09-05-2024 14:00:00,25.771061, 73.340227,OZONE,15,87,54
India,Rajasthan,Rajsamand,"Dhoinda, Rajsamand - RSPCB",09-05-2024 14:00:00,25.036360,73.883502,PM10,40,192,74
India,Rajasthan,Rajsamand,"Dhoinda, Rajsamand - RSPCB",09-05-2024 14:00:00,25.036360,73.883502,NH3,1,4,2
India,Rajasthan,Sikar,"Radhakishan Pura, Sikar - RSPCB",09-05-2024 14:00:00,27.608912,75.153302,PM2.5,32,172,77
India,Rajasthan,Sikar,"Radhakishan Pura, Sikar - RSPCB",09-05-2024 14:00:00,27.608912,75.153302,OZONE,52,96,64
India,Rajasthan,Sirohi,"Vedhaynath Colony, Sirohi - RSPCB",09-05-2024 14:00:00,24.885261,72.857549,PM2.5,17,40,26
India,Rajasthan,Sri Ganganagar,"Old City, Sri Ganganagar - RSPCB",09-05-2024 14:00:00,29.931624,73.864511,PM2.5,58,382,260
India,Rajasthan,Tonk,"Shastri Nagar, Tonk - RSPCB",09-05-2024 14:00:00,26.159933,75.780517,PM2.5,35,147,73
India,Rajasthan,Tonk,"Shastri Nagar, Tonk - RSPCB",09-05-2024 14:00:00,26.159933,75.780517,SO2,1,15,7
India,Rajasthan,Tonk,"Shastri Nagar, Tonk - RSPCB",09-05-2024 14:00:00,26.159933,75.780517,OZONE,26,139,88
India,Rajasthan,Udaipur,"Ashok Nagar, Udaipur - RSPCB",09-05-2024 14:00:00,24.5886166,73.6321397,NO2,19,111,61
India,Rajasthan,Udaipur,"Ashok Nagar, Udaipur - RSPCB",09-05-2024 14:00:00,24.5886166,73.6321397,CO,7,105,50
India,Sikkim,Gangtok,"Zero Point GICI, Gangtok - SSPCB",09-05-2024 14:00:00,27.338530,88.614099,PM10,10,37,17
India,TamilNadu,Ariyalur,"Keelapalur, Ariyalur - TNPCB",09-05-2024 14:00:00,11.06825,79.07033,PM2.5,24,184,59
India,TamilNadu,Ariyalur,"Keelapalur, Ariyalur - TNPCB",09-05-2024 14:00:00,11.06825,79.07033,NO2,4,6,5
India,TamilNadu,Ariyalur,"Keelapalur, Ariyalur - TNPCB",09-05-2024 14:00:00,11.06825,79.07033,SO2,25,28,27
India,TamilNadu,Chennai,"Alandur Bus Depot, Chennai - CPCB",09-05-2024 14:00:00,12.9099161,80.1076538,PM2.5,28,71,39
India,TamilNadu,Chennai,"Alandur Bus Depot, Chennai - CPCB",09-05-2024 14:00:00,12.9099161,80.1076538,PM10,28,71,39
India,TamilNadu,Chennai,"Kodungaiyur, Chennai - TNPCB",09-05-2024 14:00:00,13.1278,80.2642,SO2,2,7,4
India,TamilNadu,Chennai,"Manali, Chennai - CPCB",09-05-2024 14:00:00,13.164544,80.26285,NO2,8,10,9
India,TamilNadu,Chennai,"Perungudi, Chennai - TNPCB",09-05-2024 14:00:00,12.9533,80.2357,PM2.5,2,35,13
India,TamilNadu,Chennai,"Perungudi, Chennai - TNPCB",09-05-2024 14:00:00,12.9533,80.2357,NH3,2,2,2
India,TamilNadu,Chennai,"Royapuram, Chennai - TNPCB",09-05-2024 14:00:00,13.1036,80.2909,NO2,8,20,12
India,TamilNadu,Chennai,"Velachery Res. Area, Chennai - CPCB",09-05-2024 14:00:00,13.0052189,80.2398125,SO2,11,11,11
India,TamilNadu,Cuddalore,"Kudikadu, Cuddalore - TNPCB",09-05-2024 14:00:00,11.6829898,79.7532099,NO2,NA,NA,NA
India,TamilNadu,Gummidipoondi,"Anthoni Pillai Nagar, Gummidipoondi - TNPCB",09-05-2024 14:00:00,13.4127,80.1081,PM2.5,8,93,34
India,TamilNadu,Palkalaiperur,"Bharathidasan University, Palkalaiperur - TNPCB",09-05-2024 14:00:00,10.681158,78.741746,PM10,23,46,31
India,TamilNadu,Salem,"Sona College of Technology, Salem - TNPCB",09-05-2024 14:00:00,11.679111,78.125052,CO,46,48,47
India,Telangana,Hyderabad,"Bollaram Industrial Area, Hyderabad - TSPCB",09-05-2024 14:00:00,17.540891,78.358528,CO,6,114,35
India,Telangana,Hyderabad,"Central University, Hyderabad - TSPCB",09-05-2024 14:00:00,17.460103,78.334361,PM2.5,14,37,26
India,Telangana,Hyderabad,"Central University, Hyderabad - TSPCB",09-05-2024 14:00:00,17.460103,78.334361,CO,8,35,11
India,Telangana,Hyderabad,"ECIL Kapra, Hyderabad - TSPCB",09-05-2024 14:00:00,17.470431,78.566959,SO2,1,20,10
India,Telangana,Hyderabad,"ECIL Kapra, Hyderabad - TSPCB",09-05-2024 14:00:00,17.470431,78.566959,CO,2,24,17
India,Telangana,Hyderabad,"ICRISAT Patancheru, Hyderabad - TSPCB",09-05-2024 14:00:00,17.518400,78.278777,NH3,2,2,2
India,Telangana,Hyderabad,"ICRISAT Patancheru, Hyderabad - TSPCB",09-05-2024 14:00:00,17.518400,78.278777,SO2,9,30,17
India,Telangana,Hyderabad,"IITH Kandi, Hyderabad - TSPCB",09-05-2024 14:00:00,17.585705,78.126199,OZONE,19,56,20
India,Telangana,Hyderabad,"Kokapet, Hyderabad - TSPCB",09-05-2024 14:00:00,17.393559,78.339194,NO2,NA,NA,NA
India,Telangana,Hyderabad,"Kokapet, Hyderabad - TSPCB",09-05-2024 14:00:00,17.393559,78.339194,NH3,NA,NA,NA
India,Telangana,Hyderabad,"New Malakpet, Hyderabad - TSPCB",09-05-2024 14:00:00,17.37206,78.50864,OZONE,51,92,77
India,Telangana,Hyderabad,"Ramachandrapuram, Hyderabad - TSPCB",09-05-2024 14:00:00,17.528544,78.286195,NO2,8,11,9
India,Telangana,Hyderabad,"Ramachandrapuram, Hyderabad - TSPCB",09-05-2024 14:00:00,17.528544,78.286195,SO2,14,17,16
India,Telangana,Hyderabad,"Ramachandrapuram, Hyderabad - TSPCB",09-05-2024 14:00:00,17.528544,78.286195,OZONE,40,122,65
India,Telangana,Hyderabad,"Sanathnagar, Hyderabad - TSPCB",09-05-2024 14:00:00,17.4559458,78.4332152,SO2,8,25,17
India,Telangana,Hyderabad,"Sanathnagar, Hyderabad - TSPCB",09-05-2024 14:00:00,17.4559458,78.4332152,CO,32,44,35
India,Telangana,Hyderabad,"Somajiguda, Hyderabad - TSPCB",09-05-2024 14:00:00,17.417094,78.457437,SO2,NA,NA,NA
India,Telangana,Hyderabad,"Zoo Park, Hyderabad - TSPCB",09-05-2024 14:00:00,17.349694,78.451437,NH3,1,1,1
India,Telangana,Hyderabad,"Zoo Park, Hyderabad - TSPCB",09-05-2024 14:00:00,17.349694,78.451437,SO2,1,5,2
India,Telangana,Hyderabad,"Zoo Park, Hyderabad - TSPCB",09-05-2024 14:00:00,17.349694,78.451437,OZONE,11,39,22
India,Tripura,Agartala,"Bardowali, Agartala - Tripura SPCB",09-05-2024 14:00:00,23.8175497,91.2726974,PM2.5,55,228,133
India,Uttar_Pradesh,Agra,"Manoharpur, Agra - UPPCB",09-05-2024 14:00:00,27.23711,78.01936,NH3,3,3,3
India,Uttar_Pradesh,Agra,"Rohta, Agra - UPPCB",09-05-2024 14:00:00,27.106972,78.000111,PM2.5,24,51,37
India,Uttar_Pradesh,Agra,"Rohta, Agra - UPPCB",09-05-2024 14:00:00,27.106972,78.000111,NO2,7,7,7
India,Uttar_Pradesh,Agra,"Rohta, Agra - UPPCB",09-05-2024 14:00:00,27.106972,78.000111,SO2,5,7,6
India,Uttar_Pradesh,Agra,"Sanjay Palace, Agra - UPPCB",09-05-2024 14:00:00,27.19865833,78.00598056,PM10,35,95,63
India,Uttar_Pradesh,Agra,"Sanjay Palace, Agra - UPPCB",09-05-2024 14:00:00,27.19865833,78.00598056,OZONE,30,114,48
India,Uttar_Pradesh,Agra,"Sector-3B Avas Vikas Colony, Agra - UPPCB",09-05-2024 14:00:00,27.19412,77.96237,PM10,44,83,60
India,Uttar_Pradesh,Agra,"Sector-3B Avas Vikas Colony, Agra - UPPCB",09-05-2024 14:00:00,27.19412,77.96237,NO2,42,44,44
India,Uttar_Pradesh,Agra,"Shahjahan Garden, Agra - UPPCB",09-05-2024 14:00:00,27.169338,78.03582,PM10,58,115,85
India,Uttar_Pradesh,Agra,"Shahjahan Garden, Agra - UPPCB",09-05-2024 14:00:00,27.169338,78.03582,NH3,12,19,15
India,Uttar_Pradesh,Agra,"Shahjahan Garden, Agra - UPPCB",09-05-2024 14:00:00,27.169338,78.03582,CO,16,20,16
India,Uttar_Pradesh,Bareilly,"Rajendra Nagar, Bareilly - UPPCB",09-05-2024 14:00:00,28.38910936,79.42963708,PM2.5,15,23,19
India,Uttar_Pradesh,Bareilly,"Rajendra Nagar, Bareilly - UPPCB",09-05-2024 14:00:00,28.38910936,79.42963708,NH3,1,2,1
India,Uttar_Pradesh,Bulandshahr,"Yamunapuram, Bulandshahr - UPPCB",09-05-2024 14:00:00,28.406963,77.849831,NO2,3,21,8
India,Uttar_Pradesh,Bulandshahr,"Yamunapuram, Bulandshahr - UPPCB",09-05-2024 14:00:00,28.406963,77.849831,NH3,15,20,17
India,Uttar_Pradesh,Firozabad,"Vibhab Nagar, Firozabad - UPPCB",09-05-2024 14:00:00,27.1594,78.3953,PM2.5,40,88,65
India,Uttar_Pradesh,Firozabad,"Vibhab Nagar, Firozabad - UPPCB",09-05-2024 14:00:00,27.1594,78.3953,SO2,5,25,11
India,Uttar_Pradesh,Ghaziabad,"Loni, Ghaziabad - UPPCB",09-05-2024 14:00:00,28.757294,77.278792,PM10,92,179,136
India,Uttar_Pradesh,Ghaziabad,"Loni, Ghaziabad - UPPCB",09-05-2024 14:00:00,28.757294,77.278792,CO,32,94,42
India,Uttar_Pradesh,Ghaziabad,"Sanjay Nagar, Ghaziabad - UPPCB",09-05-2024 14:00:00,28.685382,77.453839,PM10,76,174,119
India,Uttar_Pradesh,Ghaziabad,"Sanjay Nagar, Ghaziabad - UPPCB",09-05-2024 14:00:00,28.685382,77.453839,SO2,20,74,39
India,Uttar_Pradesh,Gorakhpur,"Madan Mohan Malaviya University of Technology, Gorakhpur - UPPCB",09-05-2024 14:00:00,26.730136,83.433859,NH3,1,2,2
India,Uttar_Pradesh,Gorakhpur,"Madan Mohan Malaviya University of Technology, Gorakhpur - UPPCB",09-05-2024 14:00:00,26.730136,83.433859,OZONE,8,43,21
India,Uttar_Pradesh,Greater Noida,"Knowledge Park - III, Greater Noida - UPPCB",09-05-2024 14:00:00,28.47272,77.482000,PM2.5,54,130,82
India,Uttar_Pradesh,Greater Noida,"Knowledge Park - V, Greater Noida - UPPCB",09-05-2024 14:00:00,28.557054,77.453663,PM10,126,310,194
India,Uttar_Pradesh,Greater Noida,"Knowledge Park - V, Greater Noida - UPPCB",09-05-2024 14:00:00,28.557054,77.453663,SO2,23,41,29
India,Uttar_Pradesh,Greater Noida,"Knowledge Park - V, Greater Noida - UPPCB",09-05-2024 14:00:00,28.557054,77.453663,OZONE,42,121,73
India,Uttar_Pradesh,Hapur,"Anand Vihar, Hapur - UPPCB",09-05-2024 14:00:00,28.725645,77.749675,PM2.5,31,65,43
India,Uttar_Pradesh,Hapur,"Anand Vihar, Hapur - UPPCB",09-05-2024 14:00:00,28.725645,77.749675,NH3,5,8,6
India,Uttar_Pradesh,Hapur,"Anand Vihar, Hapur - UPPCB",09-05-2024 14:00:00,28.725645,77.749675,CO,24,29,27
India,Uttar_Pradesh,Jhansi,"Shivaji Nagar, Jhansi - UPPCB",09-05-2024 14:00:00,25.4547,78.6039,SO2,16,27,19
India,Uttar_Pradesh,Kanpur,"FTI Kidwai Nagar, Kanpur - UPPCB",09-05-2024 14:00:00,26.428282,80.327067,NO2,17,18,18
India,Uttar_Pradesh,Kanpur,"FTI Kidwai Nagar, Kanpur - UPPCB",09-05-2024 14:00:00,26.428282,80.327067,SO2,25,26,26
India,Uttar_Pradesh,Kanpur,"FTI Kidwai Nagar, Kanpur - UPPCB",09-05-2024 14:00:00,26.428282,80.327067,CO,30,36,31
India,Uttar_Pradesh,Kanpur,"Nehru Nagar, Kanpur - UPPCB",09-05-2024 14:00:00,26.4703136,80.3229863,PM10,33,114,59
India,Uttar_Pradesh,Kanpur,"Nehru Nagar, Kanpur - UPPCB",09-05-2024 14:00:00,26.4703136,80.3229863,SO2,9,12,10
India,Uttar_Pradesh,Khurja,"Kalindi Kunj, Khurja - UPPCB",09-05-2024 14:00:00,28.2348927,77.8683002,CO,13,43,36
India,Uttar_Pradesh,Lucknow,"B R Ambedkar University, Lucknow - UPPCB",09-05-2024 14:00:00,26.766433,80.927299,PM10,14,186,64
India,Uttar_Pradesh,Lucknow,"B R Ambedkar University, Lucknow - UPPCB",09-05-2024 14:00:00,26.766433,80.927299,NO2,11,12,11
India,Uttar_Pradesh,Lucknow,"B R Ambedkar University, Lucknow - UPPCB",09-05-2024 14:00:00,26.766433,80.927299,NH3,5,7,6
India,Uttar_Pradesh,Lucknow,"B R Ambedkar University, Lucknow - UPPCB",09-05-2024 14:00:00,26.766433,80.927299,CO,24,29,27
India,Uttar_Pradesh,Lucknow,"Gomti Nagar, Lucknow - UPPCB",09-05-2024 14:00:00,26.868120,81.005119,SO2,6,13,10
India,Uttar_Pradesh,Lucknow,"Kendriya Vidyalaya, Lucknow - CPCB",09-05-2024 14:00:00,26.906111,80.948222,PM2.5,34,226,95
India,Uttar_Pradesh,Lucknow,"Kendriya Vidyalaya, Lucknow - CPCB",09-05-2024 14:00:00,26.906111,80.948222,NH3,3,20,14
India,Uttar_Pradesh,Lucknow,"Kukrail Picnic Spot-1, Lucknow - UPPCB",09-05-2024 14:00:00,26.90723,80.98579,NO2,8,9,8
India,Uttar_Pradesh,Lucknow,"Lalbagh, Lucknow - CPCB",09-05-2024 14:00:00,26.8458805,80.9365541,PM10,57,135,98
India,Uttar_Pradesh,Lucknow,"Talkatora District Industries Center, Lucknow - CPCB",09-05-2024 14:00:00,26.83399722,80.8917361,PM10,65,163,120
India,Uttar_Pradesh,Meerut,"Jai Bhim Nagar, Meerut - UPPCB",09-05-2024 14:00:00,28.9535882,77.7622941,PM2.5,38,94,63
India,Uttar_Pradesh,Meerut,"Jai Bhim Nagar, Meerut - UPPCB",09-05-2024 14:00:00,28.9535882,77.7622941,NH3,5,16,9
India,Uttar_Pradesh,Meerut,"Pallavpuram Phase 2, Meerut - UPPCB",09-05-2024 14:00:00,29.063510,77.709723,PM10,77,178,126
India,Uttar_Pradesh,Moradabad,"Buddhi Vihar, Moradabad - UPPCB",09-05-2024 14:00:00,28.83526,78.74460,PM2.5,30,60,41
India,Uttar_Pradesh,Moradabad,"Buddhi Vihar, Moradabad - UPPCB",09-05-2024 14:00:00,28.83526,78.74460,PM10,48,127,90
India,Uttar_Pradesh,Moradabad,"Eco Herbal Park, Moradabad - UPPCB",09-05-2024 14:00:00,28.840739,78.697531,PM2.5,NA,NA,NA
India,Uttar_Pradesh,Moradabad,"Eco Herbal Park, Moradabad - UPPCB",09-05-2024 14:00:00,28.840739,78.697531,SO2,NA,NA,NA
India,Uttar_Pradesh,Moradabad,"Eco Herbal Park, Moradabad - UPPCB",09-05-2024 14:00:00,28.840739,78.697531,CO,2,16,10
India,Uttar_Pradesh,Moradabad,"Employment Office, Moradabad - UPPCB",09-05-2024 14:00:00,28.88528,78.73880,PM10,54,147,99
India,Uttar_Pradesh,Moradabad,"Kashiram Nagar, Moradabad - UPPCB",09-05-2024 14:00:00,28.849399,78.742362,PM2.5,29,72,48
India,Uttar_Pradesh,Moradabad,"Transport Nagar, Moradabad - UPPCB",09-05-2024 14:00:00,28.802625,78.753728,OZONE,28,127,51
India,Uttar_Pradesh,Noida,"Sector - 125, Noida - UPPCB",09-05-2024 14:00:00,28.5447608,77.3231257,PM2.5,38,142,55
India,Uttar_Pradesh,Noida,"Sector - 62, Noida - IMD",09-05-2024 14:00:00,28.6245479,77.3577104,OZONE,37,147,59
India,Uttar_Pradesh,Noida,"Sector-1, Noida - UPPCB",09-05-2024 14:00:00,28.5898,77.3101,PM10,117,224,176
India,Uttar_Pradesh,Noida,"Sector-1, Noida - UPPCB",09-05-2024 14:00:00,28.5898,77.3101,NO2,8,184,28
India,Uttar_Pradesh,Noida,"Sector-1, Noida - UPPCB",09-05-2024 14:00:00,28.5898,77.3101,CO,31,62,44
India,Uttar_Pradesh,Noida,"Sector-116, Noida - UPPCB",09-05-2024 14:00:00,28.569230,77.393848,PM2.5,58,220,97
India,Uttar_Pradesh,Noida,"Sector-116, Noida - UPPCB",09-05-2024 14:00:00,28.569230,77.393848,NO2,15,43,21
India,Uttar_Pradesh,Noida,"Sector-116, Noida - UPPCB",09-05-2024 14:00:00,28.569230,77.393848,SO2,9,49,31
India,Uttar_Pradesh,Noida,"Sector-116, Noida - UPPCB",09-05-2024 14:00:00,28.569230,77.393848,OZONE,45,103,69
India,Uttar_Pradesh,Prayagraj,"Jhunsi, Prayagraj - UPPCB",09-05-2024 14:00:00,25.425602,81.917152,PM10,45,100,75
India,Uttar_Pradesh,Prayagraj,"Jhunsi, Prayagraj - UPPCB",09-05-2024 14:00:00,25.425602,81.917152,CO,9,22,12
India,Uttar_Pradesh,Prayagraj,"Motilal Nehru NIT, Prayagraj - UPPCB",09-05-2024 14:00:00,25.494,81.863,PM2.5,21,56,30
India,Uttar_Pradesh,Prayagraj,"Motilal Nehru NIT, Prayagraj - UPPCB",09-05-2024 14:00:00,25.494,81.863,SO2,23,38,27
India,Uttar_Pradesh,Prayagraj,"Nagar Nigam, Prayagraj - UPPCB",09-05-2024 14:00:00,25.44919916 ,81.82735986 ,PM10,25,72,42
India,Uttar_Pradesh,Prayagraj,"Nagar Nigam, Prayagraj - UPPCB",09-05-2024 14:00:00,25.44919916 ,81.82735986 ,NH3,7,11,9
India,Uttar_Pradesh,Prayagraj,"Nagar Nigam, Prayagraj - UPPCB",09-05-2024 14:00:00,25.44919916 ,81.82735986 ,OZONE,11,12,11
India,Uttar_Pradesh,Varanasi,"Ardhali Bazar, Varanasi - UPPCB",09-05-2024 14:00:00,25.3505986,82.9083074,PM10,20,49,32
India,Uttar_Pradesh,Varanasi,"Bhelupur, Varanasi - UPPCB",09-05-2024 14:00:00,25.301778,82.996789,SO2,28,29,28
India,Uttar_Pradesh,Varanasi,"IESD Banaras Hindu University, Varanasi - UPPCB",09-05-2024 14:00:00,25.262326,82.995408,SO2,17,19,18
India,Uttar_Pradesh,Vrindavan,"Omex Eternity, Vrindavan - UPPCB",09-05-2024 14:00:00,27.5714090,77.6557570,CO,34,40,34
India,Uttarakhand,Dehradun,"Doon University, Dehradun - UKPCB",09-05-2024 14:00:00,30.269444,78.044167,SO2,1,1,1
India,Uttarakhand,Rishikesh,"Shivaji Nagar, Rishikesh - UKPCB",09-05-2024 14:00:00,30.075911,78.2859547,NO2,8,35,19
India,West_Bengal,Asansol,"Asansol Court Area, Asansol - WBPCB",09-05-2024 14:00:00,23.685297,86.945968,CO,5,32,16
India,West_Bengal,Barrackpore,"SVSPA Campus, Barrackpore - WBPCB",09-05-2024 14:00:00,22.7605581,88.3617589,CO,16,28,23
India,West_Bengal,Durgapur,"PCBL Residential Complex, Durgapur - WBPCB",09-05-2024 14:00:00,23.5087640,87.3544400,NH3,1,2,2
India,West_Bengal,Durgapur,"Sidhu Kanhu Indoor Stadium, Durgapur - WBPCB",09-05-2024 14:00:00,23.5404352,87.2892225,PM10,30,95,70
India,West_Bengal,Durgapur,"Sidhu Kanhu Indoor Stadium, Durgapur - WBPCB",09-05-2024 14:00:00,23.5404352,87.2892225,NH3,5,6,5
India,West_Bengal,Haldia,"Priyambada Housing Estate, Haldia - WBPCB",09-05-2024 14:00:00,22.06047,88.109737,PM2.5,9,11,9
India,West_Bengal,Haldia,"Priyambada Housing Estate, Haldia - WBPCB",09-05-2024 14:00:00,22.06047,88.109737,OZONE,18,52,28
India,West_Bengal,Howrah,"Belur Math, Howrah - WBPCB",09-05-2024 14:00:00,22.629801,88.352017,SO2,7,8,7
India,West_Bengal,Howrah,"Belur Math, Howrah - WBPCB",09-05-2024 14:00:00,22.629801,88.352017,CO,2,10,7
India,West_Bengal,Howrah,"Padmapukur, Howrah - WBPCB",09-05-2024 14:00:00,22.5687319,88.2797276,CO,6,20,13
India,West_Bengal,Kolkata,"Ballygunge, Kolkata - WBPCB",09-05-2024 14:00:00,22.5367507,88.3638022,NO2,15,28,20
India,West_Bengal,Kolkata,"Bidhannagar, Kolkata - WBPCB",09-05-2024 14:00:00,22.58157048,88.41002457,NO2,16,26,18
India,West_Bengal,Kolkata,"Bidhannagar, Kolkata - WBPCB",09-05-2024 14:00:00,22.58157048,88.41002457,OZONE,24,63,40
India,West_Bengal,Kolkata,"Rabindra Bharati University, Kolkata - WBPCB",09-05-2024 14:00:00,22.627847,88.380669,NH3,10,10,10
India,West_Bengal,Kolkata,"Rabindra Bharati University, Kolkata - WBPCB",09-05-2024 14:00:00,22.627847,88.380669,OZONE,3,30,10
India,West_Bengal,Kolkata,"Victoria, Kolkata - WBPCB",09-05-2024 14:00:00,22.5448082,88.3403691,PM2.5,16,36,24
India,West_Bengal,Kolkata,"Victoria, Kolkata - WBPCB",09-05-2024 14:00:00,22.5448082,88.3403691,CO,6,19,11
India,Andhra_Pradesh,Amaravati,"Secretariat, Amaravati - APPCB",09-05-2024 14:00:00,16.5150833,80.5181667,PM10,10,96,32
India,Andhra_Pradesh,Amaravati,"Secretariat, Amaravati - APPCB",09-05-2024 14:00:00,16.5150833,80.5181667,NO2,4,10,7
India,Andhra_Pradesh,Amaravati,"Secretariat, Amaravati - APPCB",09-05-2024 14:00:00,16.5150833,80.5181667,NH3,3,4,4
India,Andhra_Pradesh,Amaravati,"Secretariat, Amaravati - APPCB",09-05-2024 14:00:00,16.5150833,80.5181667,CO,12,34,20
India,Andhra_Pradesh,Anantapur,"Gulzarpet, Anantapur - APPCB",09-05-2024 14:00:00,14.675886,77.593027,PM10,31,79,53
India,Andhra_Pradesh,Anantapur,"Gulzarpet, Anantapur - APPCB",09-05-2024 14:00:00,14.675886,77.593027,SO2,2,4,3
India,Andhra_Pradesh,Anantapur,"Gulzarpet, Anantapur - APPCB",09-05-2024 14:00:00,14.675886,77.593027,CO,21,62,54
India,Andhra_Pradesh,Chittoor,"Gangineni Cheruvu, Chittoor - APPCB",09-05-2024 14:00:00,13.204880,79.097889,PM10,20,135,74
India,Andhra_Pradesh,Chittoor,"Gangineni Cheruvu, Chittoor - APPCB",09-05-2024 14:00:00,13.204880,79.097889,CO,20,34,26
India,Andhra_Pradesh,Kadapa,"Yerramukkapalli, Kadapa - APPCB",09-05-2024 14:00:00,14.465052,78.824187,NH3,3,3,3
India,Andhra_Pradesh,Tirupati,"Vaikuntapuram, Tirupati - APPCB",09-05-2024 14:00:00,13.615387,79.409230,PM10,13,196,72
India,Andhra_Pradesh,Tirupati,"Vaikuntapuram, Tirupati - APPCB",09-05-2024 14:00:00,13.615387,79.409230,NO2,14,24,19
India,Andhra_Pradesh,Vijayawada,"HB Colony, Vijayawada - APPCB",09-05-2024 14:00:00,16.536107,80.594233,PM2.5,36,69,48
India,Andhra_Pradesh,Vijayawada,"HB Colony, Vijayawada - APPCB",09-05-2024 14:00:00,16.536107,80.594233,PM10,39,87,57
India,Andhra_Pradesh,Vijayawada,"Kanuru, Vijayawada - APPCB",09-05-2024 14:00:00,16.486692,80.699436,PM10,49,77,63
India,Andhra_Pradesh,Vijayawada,"Rajiv Gandhi Park, Vijayawada - APPCB",09-05-2024 14:00:00,16.509717,80.612222,OZONE,15,122,34
India,Andhra_Pradesh,Vijayawada,"Rajiv Nagar, Vijayawada - APPCB",09-05-2024 14:00:00,16.554731,80.649110,NO2,12,13,12
India,Andhra_Pradesh,Vijayawada,"Rajiv Nagar, Vijayawada - APPCB",09-05-2024 14:00:00,16.554731,80.649110,OZONE,16,36,20
India,Andhra_Pradesh,Visakhapatnam,"GVM Corporation, Visakhapatnam - APPCB",09-05-2024 14:00:00,17.72,83.3,PM2.5,10,76,40
India,Andhra_Pradesh,Visakhapatnam,"GVM Corporation, Visakhapatnam - APPCB",09-05-2024 14:00:00,17.72,83.3,NH3,3,7,4
India,Andhra_Pradesh,Visakhapatnam,"GVM Corporation, Visakhapatnam - APPCB",09-05-2024 14:00:00,17.72,83.3,CO,8,64,22
India,Assam,Byrnihat,"Central Academy for SFS, Byrnihat - PCBA",09-05-2024 14:00:00,26.071318,91.87488,CO,12,59,36
India,Assam,Byrnihat,"Central Academy for SFS, Byrnihat - PCBA",09-05-2024 14:00:00,26.071318,91.87488,OZONE,11,127,35
India,Assam,Guwahati,"LGBI Airport, Guwahati - PCBA",09-05-2024 14:00:00,26.10887,91.589544,PM2.5,5,267,73
India,Assam,Guwahati,"Pan Bazaar, Guwahati - PCBA",09-05-2024 14:00:00,26.187500,91.744194,NH3,2,3,3
India,Assam,Guwahati,"Railway Colony, Guwahati - PCBA",09-05-2024 14:00:00,26.181742,91.78063,OZONE,1,32,17
India,Assam,Nagaon,"Christianpatty, Nagaon - PCBA",09-05-2024 14:00:00,26.349082,92.68449,OZONE,3,83,52
India,Assam,Silchar,"Tarapur, Silchar - PCBA",09-05-2024 14:00:00,24.82827,92.79525,NO2,16,16,16
India,Assam,Silchar,"Tarapur, Silchar - PCBA",09-05-2024 14:00:00,24.82827,92.79525,OZONE,1,9,3
India,Bihar,Arrah,"New DM Office, Arrah - BSPCB",09-05-2024 14:00:00,25.5626095,84.663264,NH3,5,9,7
India,Bihar,Arrah,"New DM Office, Arrah - BSPCB",09-05-2024 14:00:00,25.5626095,84.663264,OZONE,5,147,39
India,Bihar,Aurangabad,"Gurdeo Nagar, Aurangabad - BSPCB",09-05-2024 14:00:00,24.75746,84.366208,PM10,23,83,55
India,Bihar,Aurangabad,"Gurdeo Nagar, Aurangabad - BSPCB",09-05-2024 14:00:00,24.75746,84.366208,NH3,2,34,11
India,Bihar,Aurangabad,"Gurdeo Nagar, Aurangabad - BSPCB",09-05-2024 14:00:00,24.75746,84.366208,CO,4,54,13
India,Bihar,Bhagalpur,"DM Office_Kachari Chowk, Bhagalpur - BSPCB",09-05-2024 14:00:00,25.251013,86.989001,NH3,5,11,8
India,Bihar,Bhagalpur,"Mayaganj, Bhagalpur - BSPCB",09-05-2024 14:00:00,25.265194,87.012947,PM2.5,37,277,156
India,Bihar,Bhagalpur,"Mayaganj, Bhagalpur - BSPCB",09-05-2024 14:00:00,25.265194,87.012947,CO,8,10,9
India,Bihar,Buxar,"Charitra Van, Buxar - BSPCB (Formerly known as Central Jail)",09-05-2024 14:00:00,25.567520,83.966379,PM2.5,NA,NA,NA
India,Bihar,Buxar,"Charitra Van, Buxar - BSPCB (Formerly known as Central Jail)",09-05-2024 14:00:00,25.567520,83.966379,CO,54,78,63
India,Bihar,Chhapra,"Darshan Nagar, Chhapra - BSPCB",09-05-2024 14:00:00,25.7808257,84.7446768,PM2.5,27,65,41
India,Bihar,Chhapra,"Darshan Nagar, Chhapra - BSPCB",09-05-2024 14:00:00,25.7808257,84.7446768,NO2,NA,NA,NA
India,Bihar,Gaya,"Kareemganj, Gaya - BSPCB",09-05-2024 14:00:00,24.792403,84.992416,PM2.5,NA,NA,NA
India,Bihar,Gaya,"SFTI Kusdihra, Gaya - BSPCB",09-05-2024 14:00:00,24.762518,84.982348,NO2,21,59,31
India,Bihar,Gaya,"SFTI Kusdihra, Gaya - BSPCB",09-05-2024 14:00:00,24.762518,84.982348,CO,20,42,35
India,Bihar,Hajipur,"Industrial Area, Hajipur - BSPCB",09-05-2024 14:00:00,25.697189,85.245900,PM10,75,115,91
India,Bihar,Hajipur,"Industrial Area, Hajipur - BSPCB",09-05-2024 14:00:00,25.697189,85.245900,SO2,5,6,5
India,Bihar,Katihar,"Mirchaibari, Katihar - BSPCB",09-05-2024 14:00:00,25.560083,87.553265,NO2,10,23,17
India,Bihar,Kishanganj,"SDM Office_Khagra, Kishanganj - BSPCB",09-05-2024 14:00:00,26.0881305,87.93840336,NH3,8,10,9
India,Bihar,Kishanganj,"SDM Office_Khagra, Kishanganj - BSPCB",09-05-2024 14:00:00,26.0881305,87.93840336,OZONE,44,69,55
India,Bihar,Manguraha,"Forest Rest House, Manguraha - BSPCB",09-05-2024 14:00:00,27.308328,84.531742,PM2.5,NA,NA,NA
India,Bihar,Munger,"Town Hall, Munger - BSPCB",09-05-2024 14:00:00,25.376776,86.471523,CO,54,86,58
India,Bihar,Muzaffarpur,"Buddha Colony, Muzaffarpur - BSPCB",09-05-2024 14:00:00,26.11442,85.39813,PM2.5,31,101,68
India,Bihar,Muzaffarpur,"Buddha Colony, Muzaffarpur - BSPCB",09-05-2024 14:00:00,26.11442,85.39813,PM10,32,113,78
India,Bihar,Muzaffarpur,"Buddha Colony, Muzaffarpur - BSPCB",09-05-2024 14:00:00,26.11442,85.39813,NO2,11,23,16
India,Bihar,Muzaffarpur,"MIT-Daudpur Kothi, Muzaffarpur - BSPCB",09-05-2024 14:00:00,26.1403345,85.3650192,SO2,4,4,4
India,Bihar,Muzaffarpur,"Muzaffarpur Collectorate, Muzaffarpur - BSPCB",09-05-2024 14:00:00,26.1209,85.3647,NO2,28,42,36
India,Bihar,Muzaffarpur,"Muzaffarpur Collectorate, Muzaffarpur - BSPCB",09-05-2024 14:00:00,26.1209,85.3647,CO,16,50,38
India,Bihar,Patna,"DRM Office Danapur, Patna - BSPCB",09-05-2024 14:00:00,25.586562,85.043586,NO2,11,434,116
India,Bihar,Patna,"DRM Office Danapur, Patna - BSPCB",09-05-2024 14:00:00,25.586562,85.043586,SO2,5,13,8
India,Bihar,Patna,"DRM Office Danapur, Patna - BSPCB",09-05-2024 14:00:00,25.586562,85.043586,OZONE,19,42,25
India,Bihar,Patna,"Govt. High School Shikarpur, Patna - BSPCB",09-05-2024 14:00:00,25.592539,85.227158,PM2.5,61,84,68
India,Bihar,Patna,"Govt. High School Shikarpur, Patna - BSPCB",09-05-2024 14:00:00,25.592539,85.227158,PM10,56,91,74
India,Bihar,Patna,"Govt. High School Shikarpur, Patna - BSPCB",09-05-2024 14:00:00,25.592539,85.227158,NH3,5,5,5
India,Bihar,Patna,"Govt. High School Shikarpur, Patna - BSPCB",09-05-2024 14:00:00,25.592539,85.227158,SO2,9,16,11
India,Bihar,Patna,"IGSC Planetarium Complex, Patna - BSPCB",09-05-2024 14:00:00,25.610369,85.132568,NO2,11,11,11
India,Bihar,Patna,"Muradpur, Patna - BSPCB",09-05-2024 14:00:00,25.619651,85.147382,PM2.5,72,96,84
India,Bihar,Patna,"Muradpur, Patna - BSPCB",09-05-2024 14:00:00,25.619651,85.147382,PM10,74,155,120
India,Bihar,Patna,"Muradpur, Patna - BSPCB",09-05-2024 14:00:00,25.619651,85.147382,SO2,4,7,5
India,Bihar,Patna,"Rajbansi Nagar, Patna - BSPCB",09-05-2024 14:00:00,25.599486,85.113666,NH3,2,8,3
India,Bihar,Patna,"Rajbansi Nagar, Patna - BSPCB",09-05-2024 14:00:00,25.599486,85.113666,CO,26,58,39
India,Bihar,Patna,"Samanpura, Patna - BSPCB",09-05-2024 14:00:00,25.596727,85.085624,PM2.5,60,103,79
India,Bihar,Rajgir,"Dangi Tola, Rajgir - BSPCB",09-05-2024 14:00:00,25.03280,85.41948,PM10,6,63,31
India,Bihar,Rajgir,"Dangi Tola, Rajgir - BSPCB",09-05-2024 14:00:00,25.03280,85.41948,OZONE,31,37,34
India,Bihar,Saharsa,"Police Line, Saharsa - BSPCB",09-05-2024 14:00:00,25.892357,86.590325,CO,52,55,55
India,Bihar,Samastipur,"DM Office_Kasipur, Samastipur - BSPCB",09-05-2024 14:00:00,25.859655,85.77944,SO2,9,10,10
India,Bihar,Samastipur,"DM Office_Kasipur, Samastipur - BSPCB",09-05-2024 14:00:00,25.859655,85.77944,CO,20,22,22
India,Bihar,Sasaram,"Dada Peer, Sasaram - BSPCB",09-05-2024 14:00:00,24.952822,84.002396,PM10,17,72,43
India,Bihar,Sasaram,"Dada Peer, Sasaram - BSPCB",09-05-2024 14:00:00,24.952822,84.002396,OZONE,24,83,58
India,Bihar,Siwan,"Chitragupta Nagar, Siwan - BSPCB",09-05-2024 14:00:00,26.2271665,84.3570427,CO,72,132,126
India,Chandigarh,Chandigarh,"Sector 22, Chandigarh - CPCC",09-05-2024 14:00:00,30.735567,76.775714,NO2,9,60,25
India,Chandigarh,Chandigarh,"Sector 22, Chandigarh - CPCC",09-05-2024 14:00:00,30.735567,76.775714,CO,32,66,35
India,Chandigarh,Chandigarh,"Sector 22, Chandigarh - CPCC",09-05-2024 14:00:00,30.735567,76.775714,OZONE,78,232,132
India,Chandigarh,Chandigarh,"Sector-25, Chandigarh - CPCC",09-05-2024 14:00:00,30.751462,76.762879,CO,22,41,25
India,Chandigarh,Chandigarh,"Sector-53, Chandigarh - CPCC",09-05-2024 14:00:00,30.719859,76.738637,PM2.5,53,153,95
India,Chandigarh,Chandigarh,"Sector-53, Chandigarh - CPCC",09-05-2024 14:00:00,30.719859,76.738637,PM10,84,169,137
India,Chandigarh,Chandigarh,"Sector-53, Chandigarh - CPCC",09-05-2024 14:00:00,30.719859,76.738637,CO,36,80,45
India,Chhattisgarh,Bhilai,"32Bungalows, Bhilai - CECB",09-05-2024 14:00:00,21.194815,81.314770,NO2,19,30,26
India,Chhattisgarh,Bhilai,"Civic Center, Bhilai - Bhilai Steel Plant",09-05-2024 14:00:00,21.185571,81.343175,PM2.5,15,33,24
India,Chhattisgarh,Bhilai,"Civic Center, Bhilai - Bhilai Steel Plant",09-05-2024 14:00:00,21.185571,81.343175,NO2,10,15,13
India,Chhattisgarh,Bhilai,"Hathkhoj, Bhilai - CECB",09-05-2024 14:00:00,21.224231,81.408350,PM2.5,4,50,23
India,Chhattisgarh,Bilaspur,"Mangala, Bilaspur - NTPC",09-05-2024 14:00:00,22.08815,82.13737,PM2.5,17,68,42
India,Chhattisgarh,Chhal,"Nawapara SECL Colony, Chhal - CECB",09-05-2024 14:00:00,22.118125,83.140608,NO2,14,81,32
India,Chhattisgarh,Korba,"Rampur, Korba - CECB",09-05-2024 14:00:00,22.368195,82.746431,OZONE,9,46,11
India,Chhattisgarh,Raipur,"Bhatagaon New ISBT, Raipur - CECB",09-05-2024 14:00:00,21.219665,81.630094,PM10,13,86,45
India,Chhattisgarh,Raipur,"Bhatagaon New ISBT, Raipur - CECB",09-05-2024 14:00:00,21.219665,81.630094,SO2,1,4,2
India,Chhattisgarh,Raipur,"Bhatagaon New ISBT, Raipur - CECB",09-05-2024 14:00:00,21.219665,81.630094,CO,13,76,26
India,Chhattisgarh,Raipur,"Krishak Nagar, Raipur - CECB",09-05-2024 14:00:00,21.237755,81.705301,NO2,16,17,16
India,Chhattisgarh,Raipur,"Siltara Phase-II, Raipur - CECB",09-05-2024 14:00:00,21.371751,81.664929,SO2,15,45,25
India,Chhattisgarh,Tumidih,"OP Jindal Industrial Park, Tumidih - CECB",09-05-2024 14:00:00,22.06631475,83.33820077,OZONE,8,69,40
India,Delhi,Delhi,"Alipur, Delhi - DPCC",09-05-2024 14:00:00,28.815329,77.153010,PM10,105,249,167
India,Delhi,Delhi,"Alipur, Delhi - DPCC",09-05-2024 14:00:00,28.815329,77.153010,NH3,9,12,10
India,Delhi,Delhi,"Anand Vihar, Delhi - DPCC",09-05-2024 14:00:00,28.647622,77.3158090,PM2.5,NA,NA,NA
India,Delhi,Delhi,"Anand Vihar, Delhi - DPCC",09-05-2024 14:00:00,28.647622,77.3158090,NH3,7,23,13
India,Delhi,Delhi,"Ashok Vihar, Delhi - DPCC",09-05-2024 14:00:00,28.695381,77.181665,NO2,21,72,32
India,Delhi,Delhi,"Aya Nagar, Delhi - IMD",09-05-2024 14:00:00,28.4706914,77.1099364,PM10,21,173,128
India,Delhi,Delhi,"Bawana, Delhi - DPCC",09-05-2024 14:00:00,28.776200,77.051074,PM10,131,325,202
India,Delhi,Delhi,"Bawana, Delhi - DPCC",09-05-2024 14:00:00,28.776200,77.051074,NH3,8,20,13
India,Delhi,Delhi,"Burari Crossing, Delhi - IMD",09-05-2024 14:00:00,28.7256504,77.2011573,NO2,10,13,11
India,Delhi,Delhi,"CRRI Mathura Road, Delhi - IMD",09-05-2024 14:00:00,28.5512005,77.2735737,CO,8,20,9
India,Delhi,Delhi,"Chandni Chowk, Delhi - IITM",09-05-2024 14:00:00,28.656756,77.227234,NO2,20,235,121
India,Delhi,Delhi,"Chandni Chowk, Delhi - IITM",09-05-2024 14:00:00,28.656756,77.227234,NH3,17,54,32
India,Delhi,Delhi,"Chandni Chowk, Delhi - IITM",09-05-2024 14:00:00,28.656756,77.227234,SO2,5,28,16
India,Delhi,Delhi,"Chandni Chowk, Delhi - IITM",09-05-2024 14:00:00,28.656756,77.227234,CO,49,74,55
India,Delhi,Delhi,"Dr. Karni Singh Shooting Range, Delhi - DPCC",09-05-2024 14:00:00,28.498571,77.264840,PM2.5,55,138,84
India,Delhi,Delhi,"Dr. Karni Singh Shooting Range, Delhi - DPCC",09-05-2024 14:00:00,28.498571,77.264840,NH3,9,19,13
India,Delhi,Delhi,"Dwarka-Sector 8, Delhi - DPCC ",09-05-2024 14:00:00,28.5710274,77.0719006,PM10,122,232,173
India,Delhi,Delhi,"Dwarka-Sector 8, Delhi - DPCC ",09-05-2024 14:00:00,28.5710274,77.0719006,CO,51,84,56
India,Delhi,Delhi,"IGI Airport (T3), Delhi - IMD",09-05-2024 14:00:00,28.5627763,77.1180053,PM10,100,173,138
India,Delhi,Delhi,"IGI Airport (T3), Delhi - IMD",09-05-2024 14:00:00,28.5627763,77.1180053,CO,38,56,40
India,Delhi,Delhi,"IGI Airport (T3), Delhi - IMD",09-05-2024 14:00:00,28.5627763,77.1180053,OZONE,15,44,25
India,Delhi,Delhi,"IHBAS, Dilshad Garden, Delhi - CPCB",09-05-2024 14:00:00,28.6811736,77.3025234,NO2,24,42,37
India,Delhi,Delhi,"ITO, Delhi - CPCB",09-05-2024 14:00:00,28.628624,77.241060,CO,34,111,59
India,Delhi,Delhi,"Jahangirpuri, Delhi - DPCC",09-05-2024 14:00:00,28.732820,77.170633,PM2.5,65,158,94
India,Delhi,Delhi,"Jahangirpuri, Delhi - DPCC",09-05-2024 14:00:00,28.732820,77.170633,PM10,131,294,191
India,Delhi,Delhi,"Jahangirpuri, Delhi - DPCC",09-05-2024 14:00:00,28.732820,77.170633,OZONE,23,97,58
India,Delhi,Delhi,"Jawaharlal Nehru Stadium, Delhi - DPCC",09-05-2024 14:00:00,28.580280,77.233829,NH3,12,18,14
India,Delhi,Delhi,"Lodhi Road, Delhi - IITM",09-05-2024 14:00:00,28.588333,77.221667,PM2.5,57,310,111
India,Delhi,Delhi,"Lodhi Road, Delhi - IITM",09-05-2024 14:00:00,28.588333,77.221667,NO2,12,47,22
India,Delhi,Delhi,"Lodhi Road, Delhi - IMD",09-05-2024 14:00:00,28.5918245,77.2273074,PM10,93,293,148
India,Delhi,Delhi,"Lodhi Road, Delhi - IMD",09-05-2024 14:00:00,28.5918245,77.2273074,OZONE,29,59,42
India,Delhi,Delhi,"Mundka, Delhi - DPCC",09-05-2024 14:00:00,28.684678,77.076574,NO2,30,71,41
India,Delhi,Delhi,"NSIT Dwarka, Delhi - CPCB",09-05-2024 14:00:00,28.60909,77.0325413,SO2,13,30,18
India,Delhi,Delhi,"Najafgarh, Delhi - DPCC",09-05-2024 14:00:00,28.570173,76.933762,SO2,10,20,16
India,Delhi,Delhi,"Najafgarh, Delhi - DPCC",09-05-2024 14:00:00,28.570173,76.933762,OZONE,43,100,65
India,Delhi,Delhi,"New Moti Bagh, Delhi - MHUA",09-05-2024 14:00:00,28.57834,77.18400,NO2,6,22,10
India,Delhi,Delhi,"North Campus, DU, Delhi - IMD",09-05-2024 14:00:00,28.6573814,77.1585447,PM10,115,197,158
India,Delhi,Delhi,"Okhla Phase-2, Delhi - DPCC",09-05-2024 14:00:00,28.530785,77.271255,CO,55,84,66
India,Delhi,Delhi,"Pusa, Delhi - IMD",09-05-2024 14:00:00,28.636110,77.173332,OZONE,14,40,27
India,Delhi,Delhi,"R K Puram, Delhi - DPCC",09-05-2024 14:00:00,28.563262,77.186937,NO2,1,13,4
India,Delhi,Delhi,"R K Puram, Delhi - DPCC",09-05-2024 14:00:00,28.563262,77.186937,OZONE,66,161,161
India,Delhi,Delhi,"Rohini, Delhi - DPCC",09-05-2024 14:00:00,28.732528,77.119920,PM2.5,51,123,84
India,Delhi,Delhi,"Rohini, Delhi - DPCC",09-05-2024 14:00:00,28.732528,77.119920,NO2,19,75,34
India,Delhi,Delhi,"Shadipur, Delhi - CPCB",09-05-2024 14:00:00,28.6514781,77.1473105,CO,38,89,61
India,Delhi,Delhi,"Sirifort, Delhi - CPCB",09-05-2024 14:00:00,28.5504249,77.2159377,PM10,105,193,151
India,Delhi,Delhi,"Sonia Vihar, Delhi - DPCC",09-05-2024 14:00:00,28.710508,77.249485,NO2,22,50,31
India,Delhi,Delhi,"Sonia Vihar, Delhi - DPCC",09-05-2024 14:00:00,28.710508,77.249485,CO,50,85,56
India,Delhi,Delhi,"Sri Aurobindo Marg, Delhi - DPCC",09-05-2024 14:00:00,28.531346,77.190156,PM2.5,55,127,82
India,Delhi,Delhi,"Sri Aurobindo Marg, Delhi - DPCC",09-05-2024 14:00:00,28.531346,77.190156,NH3,9,14,11
India,Delhi,Delhi,"Vivek Vihar, Delhi - DPCC",09-05-2024 14:00:00,28.672342,77.315260,CO,24,50,28
India,Delhi,Delhi,"Vivek Vihar, Delhi - DPCC",09-05-2024 14:00:00,28.672342,77.315260,OZONE,50,95,89
India,Delhi,Delhi,"Wazirpur, Delhi - DPCC",09-05-2024 14:00:00,28.699793,77.165453,PM2.5,69,167,114
India,Delhi,Delhi,"Wazirpur, Delhi - DPCC",09-05-2024 14:00:00,28.699793,77.165453,NO2,21,66,34
India,Gujarat,Ahmedabad,"Chandkheda, Ahmedabad - IITM",09-05-2024 14:00:00,23.107969,72.574648,NO2,23,29,24
India,Gujarat,Ahmedabad,"Chandkheda, Ahmedabad - IITM",09-05-2024 14:00:00,23.107969,72.574648,NH3,1,15,2
India,Gujarat,Ahmedabad,"Gyaspur, Ahmedabad - IITM",09-05-2024 14:00:00,22.977134,72.553024,NO2,20,70,30
India,Gujarat,Ahmedabad,"Gyaspur, Ahmedabad - IITM",09-05-2024 14:00:00,22.977134,72.553024,CO,37,52,46
India,Gujarat,Ahmedabad,"Maninagar, Ahmedabad - GPCB",09-05-2024 14:00:00,23.002657,72.591912,CO,60,104,79
India,Gujarat,Ahmedabad,"Raikhad, Ahmedabad - IITM",09-05-2024 14:00:00,23.020509,72.579261,NO2,NA,NA,NA
India,Gujarat,Ahmedabad,"Raikhad, Ahmedabad - IITM",09-05-2024 14:00:00,23.020509,72.579261,NH3,NA,NA,NA
India,Gujarat,Ahmedabad,"Raikhad, Ahmedabad - IITM",09-05-2024 14:00:00,23.020509,72.579261,CO,14,42,22
India,Gujarat,Ahmedabad,"Rakhial, Ahmedabad - IITM",09-05-2024 14:00:00,23.016834,72.625775,NO2,20,61,30
India,Gujarat,Ahmedabad,"SVPI Airport Hansol, Ahmedabad - IITM",09-05-2024 14:00:00,23.076793,72.627874,SO2,4,31,13
India,Gujarat,Ahmedabad,"SVPI Airport Hansol, Ahmedabad - IITM",09-05-2024 14:00:00,23.076793,72.627874,CO,26,64,40
India,Gujarat,Ahmedabad,"Sardar Vallabhbhai Patel Stadium, Ahmedabad - IITM",09-05-2024 14:00:00,23.043070,72.562968,PM10,70,132,99
India,Gujarat,Ahmedabad,"Sardar Vallabhbhai Patel Stadium, Ahmedabad - IITM",09-05-2024 14:00:00,23.043070,72.562968,NH3,1,2,1
India,Gujarat,Ahmedabad,"Sardar Vallabhbhai Patel Stadium, Ahmedabad - IITM",09-05-2024 14:00:00,23.043070,72.562968,SO2,3,46,25
India,Gujarat,Ahmedabad,"Sardar Vallabhbhai Patel Stadium, Ahmedabad - IITM",09-05-2024 14:00:00,23.043070,72.562968,OZONE,24,64,36
India,Gujarat,Ankleshwar,"GIDC, Ankleshwar - GPCB",09-05-2024 14:00:00,21.613267,73.010555,NO2,35,36,36
India,Gujarat,Ankleshwar,"GIDC, Ankleshwar - GPCB",09-05-2024 14:00:00,21.613267,73.010555,OZONE,17,38,28
India,Gujarat,Gandhinagar,"Sector-10, Gandhinagar - GPCB",09-05-2024 14:00:00,23.221714,72.654328,NO2,17,29,20
India,Gujarat,Nandesari,"GIDC, Nandesari - Nandesari Ind. Association",09-05-2024 14:00:00,22.410802,73.097923,NO2,1,25,13
India,Haryana,Ambala,"Patti Mehar, Ambala - HSPCB",09-05-2024 14:00:00,30.379589,76.778328,PM2.5,25,69,53
India,Haryana,Ambala,"Patti Mehar, Ambala - HSPCB",09-05-2024 14:00:00,30.379589,76.778328,NH3,5,12,8
India,Haryana,Bahadurgarh,"Arya Nagar, Bahadurgarh - HSPCB",09-05-2024 14:00:00,28.6701,76.9254,PM10,129,192,160
India,Haryana,Bahadurgarh,"Arya Nagar, Bahadurgarh - HSPCB",09-05-2024 14:00:00,28.6701,76.9254,SO2,16,21,18
India,Haryana,Bahadurgarh,"Arya Nagar, Bahadurgarh - HSPCB",09-05-2024 14:00:00,28.6701,76.9254,CO,88,101,97
India,Haryana,Bhiwani,"H.B. Colony, Bhiwani - HSPCB",09-05-2024 14:00:00,28.806223,76.141105,NH3,1,6,6
India,Haryana,Charkhi Dadri,"Mini Secretariat, Charkhi Dadri - HSPCB",09-05-2024 14:00:00,28.593883,76.270653,CO,6,74,19
India,Haryana,Faridabad,"New Industrial Town, Faridabad - HSPCB",09-05-2024 14:00:00,28.39072,77.30059,NO2,8,18,13
India,Haryana,Faridabad,"New Industrial Town, Faridabad - HSPCB",09-05-2024 14:00:00,28.39072,77.30059,OZONE,27,173,68
India,Haryana,Faridabad,"Sector 30, Faridabad - HSPCB",09-05-2024 14:00:00,28.4417,77.3217,PM10,198,224,209
India,Haryana,Faridabad,"Sector 30, Faridabad - HSPCB",09-05-2024 14:00:00,28.4417,77.3217,OZONE,58,62,60
India,Haryana,Faridabad,"Sector- 16A, Faridabad - HSPCB",09-05-2024 14:00:00,28.4088421,77.3099081,SO2,15,27,22
India,Haryana,Faridabad,"Sector- 16A, Faridabad - HSPCB",09-05-2024 14:00:00,28.4088421,77.3099081,CO,32,114,52
India,Haryana,Gurugram,"NISE Gwal Pahari, Gurugram - IMD",09-05-2024 14:00:00,28.422681,77.148944,PM2.5,61,141,102
India,Haryana,Gurugram,"NISE Gwal Pahari, Gurugram - IMD",09-05-2024 14:00:00,28.422681,77.148944,OZONE,49,103,78
India,Haryana,Gurugram,"Sector-51, Gurugram - HSPCB",09-05-2024 14:00:00,28.4227,77.0667,PM2.5,66,215,122
India,Haryana,Gurugram,"Teri Gram, Gurugram - HSPCB",09-05-2024 14:00:00,28.4275,77.1465,PM10,138,252,200
India,Haryana,Gurugram,"Vikas Sadan, Gurugram - HSPCB",09-05-2024 14:00:00,28.4501238,77.0263051,PM2.5,28,97,63
India,Haryana,Hisar,"Urban Estate-II, Hisar - HSPCB",09-05-2024 14:00:00,29.140560,75.744941,SO2,1,43,30
India,Haryana,Jind,"Police Lines, Jind - HSPCB",09-05-2024 14:00:00,29.307814,76.337619,NO2,8,17,12
India,Haryana,Kaithal,"Rishi Nagar, Kaithal - HSPCB",09-05-2024 14:00:00,29.8006,76.4155,CO,26,66,34
India,Haryana,Kaithal,"Rishi Nagar, Kaithal - HSPCB",09-05-2024 14:00:00,29.8006,76.4155,OZONE,22,36,26
India,Haryana,Kurukshetra,"Sector-7, Kurukshetra - HSPCB",09-05-2024 14:00:00,29.966942,76.875879,PM2.5,58,192,108
India,Haryana,Mandikhera,"General Hospital, Mandikhera - HSPCB",09-05-2024 14:00:00,27.9002,76.9938,NO2,19,23,21
India,Haryana,Mandikhera,"General Hospital, Mandikhera - HSPCB",09-05-2024 14:00:00,27.9002,76.9938,OZONE,22,32,28
India,Haryana,Manesar,"Sector-2 IMT, Manesar - HSPCB",09-05-2024 14:00:00,28.360699,76.936090,PM10,90,121,106
India,Haryana,Manesar,"Sector-2 IMT, Manesar - HSPCB",09-05-2024 14:00:00,28.360699,76.936090,SO2,16,22,12
India,Haryana,Narnaul,"Shastri Nagar, Narnaul - HSPCB",09-05-2024 14:00:00,28.060249,76.113115,PM10,95,139,116
India,Haryana,Narnaul,"Shastri Nagar, Narnaul - HSPCB",09-05-2024 14:00:00,28.060249,76.113115,SO2,13,13,13
India,Haryana,Palwal,"Shyam Nagar, Palwal - HSPCB",09-05-2024 14:00:00,28.1485564,77.3320667,PM10,73,144,106
India,Haryana,Panchkula,"Sector-6, Panchkula - HSPCB ",09-05-2024 14:00:00,30.7057778,76.8531805555555,SO2,2,84,31
India,Haryana,Panipat,"Sector-18, Panipat - HSPCB",09-05-2024 14:00:00,29.497973,76.993331,PM10,79,81,80
India,Haryana,Panipat,"Sector-18, Panipat - HSPCB",09-05-2024 14:00:00,29.497973,76.993331,CO,24,26,25
India,Haryana,Rohtak,"MD University, Rohtak - HSPCB",09-05-2024 14:00:00,28.52123,76.37138,SO2,5,8,7
India,Haryana,Sirsa,"F-Block, Sirsa - HSPCB",09-05-2024 14:00:00,29.536400,75.015800,PM2.5,37,210,103
India,Haryana,Yamuna Nagar,"Gobind Pura, Yamuna Nagar - HSPCB",09-05-2024 14:00:00,30.1480566,77.2893471,PM2.5,57,158,107
India,Haryana,Yamuna Nagar,"Gobind Pura, Yamuna Nagar - HSPCB",09-05-2024 14:00:00,30.1480566,77.2893471,NH3,1,6,4
India,Haryana,Yamuna Nagar,"Gobind Pura, Yamuna Nagar - HSPCB",09-05-2024 14:00:00,30.1480566,77.2893471,OZONE,23,42,28
India,Himachal Pradesh,Baddi,"HIMUDA Complex Phase-1, Baddi - HPPCB",09-05-2024 14:00:00,30.943887,76.801991,NO2,12,43,20
India,Himachal Pradesh,Baddi,"HIMUDA Complex Phase-1, Baddi - HPPCB",09-05-2024 14:00:00,30.943887,76.801991,SO2,11,70,25
India,Jharkhand,Dhanbad,"Kalakusuma, Dhanbad - DMC",09-05-2024 14:00:00,23.811548,86.481238,SO2,NA,NA,NA
India,Jharkhand,Dhanbad,"Sardar Patel Nagar, Dhanbad - JSPCB",09-05-2024 14:00:00,23.80569,86.44268,SO2,NA,NA,NA
India,Karnataka,Bagalkot,"Vidayagiri, Bagalkot - KSPCB",09-05-2024 14:00:00,16.172806,75.659694,SO2,9,10,9
India,Karnataka,Bagalkot,"Vidayagiri, Bagalkot - KSPCB",09-05-2024 14:00:00,16.172806,75.659694,CO,18,50,33
India,Karnataka,Belgaum,"Ramteerth Nagar, Belgaum - KSPCB",09-05-2024 14:00:00,15.888653,74.541751,PM10,11,51,31
India,Karnataka,Bengaluru,"BTM Layout, Bengaluru - CPCB",09-05-2024 14:00:00,12.9135218,77.5950804,NH3,NA,NA,NA
India,Karnataka,Bengaluru,"Hebbal, Bengaluru - KSPCB",09-05-2024 14:00:00,13.029152,77.585901,PM2.5,23,72,48
India,Karnataka,Bengaluru,"Hombegowda Nagar, Bengaluru - KSPCB",09-05-2024 14:00:00,12.938539,77.590100,PM10,25,78,47
India,Karnataka,Bengaluru,"Hombegowda Nagar, Bengaluru - KSPCB",09-05-2024 14:00:00,12.938539,77.590100,NO2,15,39,25
India,Karnataka,Bengaluru,"Jayanagar 5th Block, Bengaluru - KSPCB",09-05-2024 14:00:00,12.920984,77.584908,PM10,41,96,64
India,Karnataka,Bengaluru,"Peenya, Bengaluru - CPCB",09-05-2024 14:00:00,13.0270199,77.494094,NH3,2,5,3
India,Karnataka,Bengaluru,"RVCE-Mailasandra, Bengaluru - KSPCB",09-05-2024 14:00:00,12.921418,77.502466,SO2,6,13,8
India,Karnataka,Bengaluru,"Shivapura_Peenya, Bengaluru - KSPCB",09-05-2024 14:00:00,13.0246342,77.5080115,PM2.5,4,43,18
India,Karnataka,Bengaluru,"Shivapura_Peenya, Bengaluru - KSPCB",09-05-2024 14:00:00,13.0246342,77.5080115,NH3,4,4,4
India,Karnataka,Bengaluru,"Shivapura_Peenya, Bengaluru - KSPCB",09-05-2024 14:00:00,13.0246342,77.5080115,CO,22,65,27
India,Karnataka,Bidar,"Naubad, Bidar - KSPCB",09-05-2024 14:00:00,17.930306,77.482194,PM2.5,NA,NA,NA
India,Karnataka,Bidar,"Naubad, Bidar - KSPCB",09-05-2024 14:00:00,17.930306,77.482194,SO2,NA,NA,NA
India,Karnataka,Bidar,"Naubad, Bidar - KSPCB",09-05-2024 14:00:00,17.930306,77.482194,CO,66,84,68
India,Karnataka,Chamarajanagar,"Urban, Chamarajanagar - KSPCB",09-05-2024 14:00:00,11.55358,76.55521,PM2.5,25,45,32
India,Karnataka,Chamarajanagar,"Urban, Chamarajanagar - KSPCB",09-05-2024 14:00:00,11.55358,76.55521,PM10,38,58,46
India,Karnataka,Chikkaballapur,"Chikkaballapur Rural, Chikkaballapur - KSPCB",09-05-2024 14:00:00,13.428828,77.731418,PM2.5,22,58,41
India,Karnataka,Chikkamagaluru,"Kalyana Nagara, Chikkamagaluru - KSPCB",09-05-2024 14:00:00,13.328028,75.797056,PM10,31,77,49
India,Karnataka,Davanagere,"Devaraj Urs Badavane, Davanagere - KSPCB",09-05-2024 14:00:00,14.475800,75.905200,PM10,42,104,64
India,Karnataka,Davanagere,"Devaraj Urs Badavane, Davanagere - KSPCB",09-05-2024 14:00:00,14.475800,75.905200,OZONE,19,20,19
India,Karnataka,Dharwad,"Kalabhavan, Dharwad - KSPCB",09-05-2024 14:00:00,15.459706,75.008381,PM2.5,45,79,59
India,Karnataka,Hassan,"B.Katihalli, Hassan - KSPCB",09-05-2024 14:00:00,13.008556,76.125258,NH3,NA,NA,NA
India,Karnataka,Haveri,"Ashwini Nagar, Haveri - KSPCB",09-05-2024 14:00:00,14.791800,75.389600,NH3,3,3,3
India,Karnataka,Hubballi,"Deshpande Nagar, Hubballi - KSPCB",09-05-2024 14:00:00,15.351773,75.140726,PM10,38,93,60
India,Karnataka,Hubballi,"Lingaraj Nagar, Hubballi - KSPCB",09-05-2024 14:00:00,15.3714823,75.1160168,PM10,49,87,66
India,Karnataka,Hubballi,"Lingaraj Nagar, Hubballi - KSPCB",09-05-2024 14:00:00,15.3714823,75.1160168,OZONE,21,72,38
India,Karnataka,Kalaburagi,"Lal Bahadur Shastri Nagar, Kalaburagi - KSPCB",09-05-2024 14:00:00,17.321993,76.822628,OZONE,21,71,60
India,Karnataka,Karwar,"KHB Colony, Karwar - KSPCB",09-05-2024 14:00:00,14.816666,74.141003,SO2,NA,NA,NA
India,Karnataka,Kolar,"Tamaka Ind. Area, Kolar - KSPCB",09-05-2024 14:00:00,13.1276288,78.1570122,NH3,18,34,28
India,Karnataka,Madikeri,"Stuart Hill, Madikeri - KSPCB",09-05-2024 14:00:00,12.415911,75.735050,NO2,3,20,8
India,Karnataka,Mangalore,"Kadri, Mangalore - KSPCB",09-05-2024 14:00:00,12.889250,74.853000,PM2.5,16,38,27
India,Karnataka,Mangalore,"Kadri, Mangalore - KSPCB",09-05-2024 14:00:00,12.889250,74.853000,NO2,5,6,6
India,Karnataka,Mangalore,"Kadri, Mangalore - KSPCB",09-05-2024 14:00:00,12.889250,74.853000,OZONE,31,33,32
India,Karnataka,Raichur,"Haji Colony, Raichur - KSPCB",09-05-2024 14:00:00,16.208139,77.348417,NO2,25,52,37
India,Karnataka,Raichur,"Haji Colony, Raichur - KSPCB",09-05-2024 14:00:00,16.208139,77.348417,NH3,1,3,2
India,Karnataka,Raichur,"Haji Colony, Raichur - KSPCB",09-05-2024 14:00:00,16.208139,77.348417,CO,95,110,102
India,Karnataka,Shivamogga,"Vinoba Nagara, Shivamogga - KSPCB",09-05-2024 14:00:00,13.940000,75.555917,NO2,10,37,15
India,Karnataka,Shivamogga,"Vinoba Nagara, Shivamogga - KSPCB",09-05-2024 14:00:00,13.940000,75.555917,CO,12,38,24
India,Karnataka,Tumakuru,"Thimmalapura, Tumakuru - KSPCB",09-05-2024 14:00:00,13.377516,77.099072,SO2,7,13,8
India,Karnataka,Udupi,"Brahmagiri, Udupi - KSPCB",09-05-2024 14:00:00,13.34194444,74.74694444,PM10,NA,NA,NA
India,Karnataka,Yadgir,"Collector Office, Yadgir - KSPCB",09-05-2024 14:00:00,16.7602,77.1428,PM2.5,16,54,35
India,Kerala,Eloor,"Udyogamandal, Eloor - Kerala PCB",09-05-2024 14:00:00,10.073232,76.302765,NH3,1,1,1
India,Kerala,Eloor,"Udyogamandal, Eloor - Kerala PCB",09-05-2024 14:00:00,10.073232,76.302765,SO2,NA,NA,NA
India,Kerala,Eloor,"Udyogamandal, Eloor - Kerala PCB",09-05-2024 14:00:00,10.073232,76.302765,CO,18,104,42
India,Kerala,Kannur,"Thavakkara, Kannur - Kerala PCB",09-05-2024 14:00:00,11.875000,75.373200,NH3,1,1,1
India,Kerala,Kannur,"Thavakkara, Kannur - Kerala PCB",09-05-2024 14:00:00,11.875000,75.373200,CO,30,36,33
India,Kerala,Kollam,"Polayathode, Kollam - Kerala PCB",09-05-2024 14:00:00,8.8787,76.6073,PM2.5,38,187,105
India,Kerala,Kollam,"Polayathode, Kollam - Kerala PCB",09-05-2024 14:00:00,8.8787,76.6073,NO2,8,9,8
India,Kerala,Thiruvananthapuram,"Plammoodu, Thiruvananthapuram - Kerala PCB",09-05-2024 14:00:00,8.5149093,76.9435879,PM10,13,55,32
India,Kerala,Thiruvananthapuram,"Plammoodu, Thiruvananthapuram - Kerala PCB",09-05-2024 14:00:00,8.5149093,76.9435879,SO2,6,22,12
India,Madhya Pradesh,Bhopal,"Idgah Hills, Bhopal - MPPCB",09-05-2024 14:00:00,23.264759,77.381568,PM2.5,25,57,41
India,Madhya Pradesh,Bhopal,"Idgah Hills, Bhopal - MPPCB",09-05-2024 14:00:00,23.264759,77.381568,NH3,4,9,6
India,Madhya Pradesh,Bhopal,"Idgah Hills, Bhopal - MPPCB",09-05-2024 14:00:00,23.264759,77.381568,SO2,2,22,10
India,Madhya Pradesh,Bhopal,"Paryavaran Parisar, Bhopal - MPPCB",09-05-2024 14:00:00,23.210494,77.425409,OZONE,3,94,55
India,Madhya Pradesh,Bhopal,"T T Nagar, Bhopal - MPPCB",09-05-2024 14:00:00,23.233584,77.400574,PM2.5,30,82,47
India,Madhya Pradesh,Dewas,"Bhopal Chauraha, Dewas - MPPCB",09-05-2024 14:00:00,22.9682591,76.064118,PM2.5,23,64,44
India,Madhya Pradesh,Dewas,"Bhopal Chauraha, Dewas - MPPCB",09-05-2024 14:00:00,22.9682591,76.064118,CO,10,28,17
India,Madhya Pradesh,Gwalior,"City Center, Gwalior - MPPCB",09-05-2024 14:00:00,26.203442,78.193251,CO,31,53,47
India,Madhya Pradesh,Gwalior,"Deen Dayal Nagar, Gwalior - MPPCB",09-05-2024 14:00:00,26.259242,78.216432,PM2.5,67,109,84
India,Madhya Pradesh,Gwalior,"Maharaj Bada, Gwalior - MPPCB",09-05-2024 14:00:00,26.200388,78.147714,PM10,66,237,124
India,Madhya Pradesh,Gwalior,"Maharaj Bada, Gwalior - MPPCB",09-05-2024 14:00:00,26.200388,78.147714,NO2,1,32,7
India,Madhya Pradesh,Gwalior,"Phool Bagh, Gwalior - Mondelez Ind. Food",09-05-2024 14:00:00,26.210536,78.171,PM2.5,66,324,142
India,Madhya Pradesh,Gwalior,"Phool Bagh, Gwalior - Mondelez Ind. Food",09-05-2024 14:00:00,26.210536,78.171,NO2,4,5,4
India,Madhya Pradesh,Indore,"Chhoti Gwaltoli, Indore - MPPCB",09-05-2024 14:00:00,22.4310,75.5213,SO2,12,30,19
India,Madhya Pradesh,Indore,"Chhoti Gwaltoli, Indore - MPPCB",09-05-2024 14:00:00,22.4310,75.5213,CO,20,116,62
India,Madhya Pradesh,Indore,"Chhoti Gwaltoli, Indore - MPPCB",09-05-2024 14:00:00,22.4310,75.5213,OZONE,11,100,58
India,Madhya Pradesh,Indore,"Maguda Nagar, Indore - IMC",09-05-2024 14:00:00,22.7524,75.8872,PM2.5,31,113,60
India,Madhya Pradesh,Indore,"Residency Area, Indore - IMC",09-05-2024 14:00:00,22.7084,75.8815,PM2.5,22,97,50
India,Madhya Pradesh,Indore,"Residency Area, Indore - IMC",09-05-2024 14:00:00,22.7084,75.8815,OZONE,9,21,12
India,Madhya Pradesh,Jabalpur,"Gupteshwar, Jabalpur - JMC",09-05-2024 14:00:00,23.142888,79.916147,NO2,1,20,6
India,Madhya Pradesh,Jabalpur,"Gupteshwar, Jabalpur - JMC",09-05-2024 14:00:00,23.142888,79.916147,OZONE,98,179,173
