country,state,city,station,last_update,latitude,longitude,pollutant_id,pollutant_min,pollutant_max,pollutant_avg
India,Andhra_Pradesh,Amaravati,"Secretariat, Amaravati - APPCB",17-01-2024 02:00:00,16.5150833,80.5181667,PM2.5,65,173,95
India,Andhra_Pradesh,Amaravati,"Secretariat, Amaravati - APPCB",17-01-2024 02:00:00,16.5150833,80.5181667,NO2,8,19,12
India,Andhra_Pradesh,Amaravati,"Secretariat, Amaravati - APPCB",17-01-2024 02:00:00,16.5150833,80.5181667,OZONE,4,55,28
India,Andhra_Pradesh,Anantapur,"Gulzarpet, Anantapur - APPCB",17-01-2024 02:00:00,14.675886,77.593027,CO,29,50,37
India,Andhra_Pradesh,Chittoor,"Gangineni Cheruvu, Chittoor - APPCB",17-01-2024 02:00:00,13.204880,79.097889,OZONE,10,128,85
India,Andhra_Pradesh,Rajamahendravaram,"Anand Kala Kshetram, Rajamahendravaram - APPCB",17-01-2024 02:00:00,16.9872867,81.7363176,CO,6,115,14
India,Andhra_Pradesh,Vijayawada,"HB Colony, Vijayawada - APPCB",17-01-2024 02:00:00,16.536107,80.594233,NO2,NA,NA,NA
India,Andhra_Pradesh,Vijayawada,"Kanuru, Vijayawada - APPCB",17-01-2024 02:00:00,16.486692,80.699436,PM10,NA,NA,NA
India,Andhra_Pradesh,Vijayawada,"Rajiv Gandhi Park, Vijayawada - APPCB",17-01-2024 02:00:00,16.509717,80.612222,PM2.5,NA,NA,NA
India,Andhra_Pradesh,Vijayawada,"Rajiv Gandhi Park, Vijayawada - APPCB",17-01-2024 02:00:00,16.509717,80.612222,NO2,NA,NA,NA
India,Arunachal_Pradesh,Naharlagun,"Naharlagun, Naharlagun - APSPCB",17-01-2024 02:00:00,27.103358,93.679645,PM2.5,45,309,99
India,Arunachal_Pradesh,Naharlagun,"Naharlagun, Naharlagun - APSPCB",17-01-2024 02:00:00,27.103358,93.679645,PM10,44,181,82
India,Arunachal_Pradesh,Naharlagun,"Naharlagun, Naharlagun - APSPCB",17-01-2024 02:00:00,27.103358,93.679645,SO2,3,3,3
India,Arunachal_Pradesh,Naharlagun,"Naharlagun, Naharlagun - APSPCB",17-01-2024 02:00:00,27.103358,93.679645,OZONE,2,2,2
India,Assam,Guwahati,"IITG, Guwahati - PCBA",17-01-2024 02:00:00,26.2028636,91.70046436,OZONE,6,16,9
India,Assam,Guwahati,"Pan Bazaar, Guwahati - PCBA",17-01-2024 02:00:00,26.187500,91.744194,PM2.5,85,289,165
India,Assam,Nagaon,"Christianpatty, Nagaon - PCBA",17-01-2024 02:00:00,26.349082,92.68449,SO2,1,10,5
India,Assam,Nagaon,"Christianpatty, Nagaon - PCBA",17-01-2024 02:00:00,26.349082,92.68449,CO,8,12,12
India,Assam,Nalbari,"Bata Chowk, Nalbari - PCBA",17-01-2024 02:00:00,26.446912,91.439057,NH3,8,10,9
India,Assam,Silchar,"Tarapur, Silchar - PCBA",17-01-2024 02:00:00,24.82827,92.79525,PM2.5,32,41,36
India,Assam,Sivasagar,"Girls College, Sivasagar - PCBA",17-01-2024 02:00:00,26.987634,94.636574,PM2.5,15,89,41
India,Assam,Sivasagar,"Girls College, Sivasagar - PCBA",17-01-2024 02:00:00,26.987634,94.636574,CO,2,56,25
India,Bihar,Araria,"Kharahiya Basti, Araria - BSPCB",17-01-2024 02:00:00,26.146529,87.454184,PM10,98,295,159
India,Bihar,Aurangabad,"Gurdeo Nagar, Aurangabad - BSPCB",17-01-2024 02:00:00,24.75746,84.366208,PM2.5,72,310,189
India,Bihar,Aurangabad,"Gurdeo Nagar, Aurangabad - BSPCB",17-01-2024 02:00:00,24.75746,84.366208,NH3,5,10,7
India,Bihar,Bettiah,"Kamalnath Nagar, Bettiah - BSPCB",17-01-2024 02:00:00,26.80365,84.51954,NH3,3,4,3
India,Bihar,Bettiah,"Kamalnath Nagar, Bettiah - BSPCB",17-01-2024 02:00:00,26.80365,84.51954,OZONE,NA,NA,NA
India,Bihar,Bhagalpur,"Mayaganj, Bhagalpur - BSPCB",17-01-2024 02:00:00,25.265194,87.012947,PM10,141,419,192
India,Bihar,Bihar Sharif,"D M Colony, Bihar Sharif - BSPCB",17-01-2024 02:00:00,25.204762,85.514960,OZONE,2,7,5
India,Bihar,Chhapra,"Darshan Nagar, Chhapra - BSPCB",17-01-2024 02:00:00,25.7808257,84.7446768,PM2.5,197,351,300
India,Bihar,Chhapra,"Darshan Nagar, Chhapra - BSPCB",17-01-2024 02:00:00,25.7808257,84.7446768,CO,32,44,37
India,Bihar,Gaya,"Collectorate, Gaya - BSPCB",17-01-2024 02:00:00,24.7955,84.9994,NO2,17,21,18
India,Bihar,Gaya,"SFTI Kusdihra, Gaya - BSPCB",17-01-2024 02:00:00,24.762518,84.982348,PM2.5,NA,NA,NA
India,Bihar,Gaya,"SFTI Kusdihra, Gaya - BSPCB",17-01-2024 02:00:00,24.762518,84.982348,OZONE,11,73,19
India,Bihar,Hajipur,"Industrial Area, Hajipur - BSPCB",17-01-2024 02:00:00,25.697189,85.245900,SO2,6,11,6
India,Bihar,Hajipur,"Industrial Area, Hajipur - BSPCB",17-01-2024 02:00:00,25.697189,85.245900,CO,55,78,66
India,Bihar,Katihar,"Mirchaibari, Katihar - BSPCB",17-01-2024 02:00:00,25.560083,87.553265,SO2,18,24,21
India,Bihar,Katihar,"Mirchaibari, Katihar - BSPCB",17-01-2024 02:00:00,25.560083,87.553265,OZONE,2,26,24
India,Bihar,Kishanganj,"SDM Office_Khagra, Kishanganj - BSPCB",17-01-2024 02:00:00,26.0881305,87.93840336,OZONE,15,37,36
India,Bihar,Manguraha,"Forest Rest House, Manguraha - BSPCB",17-01-2024 02:00:00,27.308328,84.531742,PM10,NA,NA,NA
India,Bihar,Motihari,"Gandak Colony, Motihari - BSPCB",17-01-2024 02:00:00,26.63086,84.90051,CO,40,114,58
India,Bihar,Motihari,"Gandak Colony, Motihari - BSPCB",17-01-2024 02:00:00,26.63086,84.90051,OZONE,24,70,52
India,Bihar,Munger,"Town Hall, Munger - BSPCB",17-01-2024 02:00:00,25.376776,86.471523,PM2.5,220,313,282
India,Bihar,Muzaffarpur,"Buddha Colony, Muzaffarpur - BSPCB",17-01-2024 02:00:00,26.11442,85.39813,PM2.5,137,307,218
India,Bihar,Muzaffarpur,"Buddha Colony, Muzaffarpur - BSPCB",17-01-2024 02:00:00,26.11442,85.39813,NH3,17,23,20
India,Bihar,Muzaffarpur,"Buddha Colony, Muzaffarpur - BSPCB",17-01-2024 02:00:00,26.11442,85.39813,CO,46,78,64
India,Bihar,Patna,"DRM Office Danapur, Patna - BSPCB",17-01-2024 02:00:00,25.586562,85.043586,PM2.5,327,355,340
India,Bihar,Patna,"DRM Office Danapur, Patna - BSPCB",17-01-2024 02:00:00,25.586562,85.043586,SO2,6,7,6
India,Bihar,Patna,"DRM Office Danapur, Patna - BSPCB",17-01-2024 02:00:00,25.586562,85.043586,OZONE,3,21,7
India,Bihar,Patna,"Govt. High School Shikarpur, Patna - BSPCB",17-01-2024 02:00:00,25.592539,85.227158,SO2,2,8,5
India,Bihar,Patna,"Govt. High School Shikarpur, Patna - BSPCB",17-01-2024 02:00:00,25.592539,85.227158,CO,10,60,34
India,Bihar,Patna,"Govt. High School Shikarpur, Patna - BSPCB",17-01-2024 02:00:00,25.592539,85.227158,OZONE,8,40,13
India,Bihar,Patna,"IGSC Planetarium Complex, Patna - BSPCB",17-01-2024 02:00:00,25.610369,85.132568,OZONE,13,14,14
India,Bihar,Patna,"Muradpur, Patna - BSPCB",17-01-2024 02:00:00,25.619651,85.147382,PM2.5,224,325,289
India,Bihar,Patna,"Muradpur, Patna - BSPCB",17-01-2024 02:00:00,25.619651,85.147382,PM10,273,394,325
India,Bihar,Patna,"Muradpur, Patna - BSPCB",17-01-2024 02:00:00,25.619651,85.147382,NO2,6,22,11
India,Bihar,Patna,"Rajbansi Nagar, Patna - BSPCB",17-01-2024 02:00:00,25.599486,85.113666,CO,26,68,45
India,Bihar,Purnia,"Mariam Nagar, Purnia - BSPCB",17-01-2024 02:00:00,25.366336,87.117468,PM2.5,72,170,112
India,Bihar,Purnia,"Mariam Nagar, Purnia - BSPCB",17-01-2024 02:00:00,25.366336,87.117468,NO2,12,13,13
India,Bihar,Purnia,"Mariam Nagar, Purnia - BSPCB",17-01-2024 02:00:00,25.366336,87.117468,CO,48,80,73
India,Bihar,Rajgir,"Dangi Tola, Rajgir - BSPCB",17-01-2024 02:00:00,25.03280,85.41948,NO2,6,17,8
India,Bihar,Rajgir,"Dangi Tola, Rajgir - BSPCB",17-01-2024 02:00:00,25.03280,85.41948,NH3,1,20,3
India,Bihar,Rajgir,"Dangi Tola, Rajgir - BSPCB",17-01-2024 02:00:00,25.03280,85.41948,CO,10,16,12
India,Bihar,Rajgir,"Dangi Tola, Rajgir - BSPCB",17-01-2024 02:00:00,25.03280,85.41948,OZONE,21,24,23
India,Bihar,Saharsa,"Police Line, Saharsa - BSPCB",17-01-2024 02:00:00,25.892357,86.590325,NO2,5,8,7
India,Bihar,Sasaram,"Dada Peer, Sasaram - BSPCB",17-01-2024 02:00:00,24.952822,84.002396,CO,26,53,41
India,Bihar,Siwan,"Chitragupta Nagar, Siwan - BSPCB",17-01-2024 02:00:00,26.2271665,84.3570427,PM2.5,48,137,81
India,Bihar,Siwan,"Chitragupta Nagar, Siwan - BSPCB",17-01-2024 02:00:00,26.2271665,84.3570427,SO2,24,35,29
India,Chhattisgarh,Bhilai,"32Bungalows, Bhilai - CECB",17-01-2024 02:00:00,21.194815,81.314770,PM10,79,146,116
India,Chhattisgarh,Bhilai,"Civic Center, Bhilai - Bhilai Steel Plant",17-01-2024 02:00:00,21.185571,81.343175,NO2,NA,NA,NA
India,Chhattisgarh,Bhilai,"Civic Center, Bhilai - Bhilai Steel Plant",17-01-2024 02:00:00,21.185571,81.343175,NH3,NA,NA,NA
India,Chhattisgarh,Bhilai,"Civic Center, Bhilai - Bhilai Steel Plant",17-01-2024 02:00:00,21.185571,81.343175,CO,28,52,47
India,Chhattisgarh,Bhilai,"Hathkhoj, Bhilai - CECB",17-01-2024 02:00:00,21.224231,81.408350,PM2.5,96,321,172
India,Chhattisgarh,Bhilai,"Hathkhoj, Bhilai - CECB",17-01-2024 02:00:00,21.224231,81.408350,CO,28,67,44
India,Chhattisgarh,Bilaspur,"Mangala, Bilaspur - NTPC",17-01-2024 02:00:00,22.08815,82.13737,PM2.5,30,156,77
India,Chhattisgarh,Korba,"Rampur, Korba - CECB",17-01-2024 02:00:00,22.368195,82.746431,NH3,3,6,4
India,Chhattisgarh,Korba,"Urja Nagar, Korba - CECB",17-01-2024 02:00:00,22.348441,82.549611,SO2,4,12,7
India,Chhattisgarh,Kunjemura,"OP Jindal School, Kunjemura - CECB",17-01-2024 02:00:00,22.126650,83.483212,NH3,1,5,2
India,Chhattisgarh,Milupara,"Govt. Higher Secondary School, Milupara - CECB",17-01-2024 02:00:00,22.1910172,83.5197009,PM2.5,18,81,44
India,Chhattisgarh,Milupara,"Govt. Higher Secondary School, Milupara - CECB",17-01-2024 02:00:00,22.1910172,83.5197009,SO2,10,76,21
India,Chhattisgarh,Raipur,"Bhatagaon New ISBT, Raipur - CECB",17-01-2024 02:00:00,21.219665,81.630094,SO2,NA,NA,NA
India,Chhattisgarh,Raipur,"Krishak Nagar, Raipur - CECB",17-01-2024 02:00:00,21.237755,81.705301,NH3,1,1,1
India,Chhattisgarh,Raipur,"Krishak Nagar, Raipur - CECB",17-01-2024 02:00:00,21.237755,81.705301,CO,30,49,42
India,Chhattisgarh,Raipur,"Siltara Phase-II, Raipur - CECB",17-01-2024 02:00:00,21.371751,81.664929,PM2.5,NA,NA,NA
India,Chhattisgarh,Raipur,"Siltara Phase-II, Raipur - CECB",17-01-2024 02:00:00,21.371751,81.664929,NO2,12,32,18
India,Delhi,Delhi,"Anand Vihar, Delhi - DPCC",17-01-2024 02:00:00,28.647622,77.3158090,PM10,206,427,350
India,Delhi,Delhi,"Anand Vihar, Delhi - DPCC",17-01-2024 02:00:00,28.647622,77.3158090,NO2,60,125,96
India,Delhi,Delhi,"Anand Vihar, Delhi - DPCC",17-01-2024 02:00:00,28.647622,77.3158090,NH3,9,17,12
India,Delhi,Delhi,"Anand Vihar, Delhi - DPCC",17-01-2024 02:00:00,28.647622,77.3158090,CO,36,160,67
India,Delhi,Delhi,"Ashok Vihar, Delhi - DPCC",17-01-2024 02:00:00,28.695381,77.181665,NO2,54,135,95
India,Delhi,Delhi,"Ashok Vihar, Delhi - DPCC",17-01-2024 02:00:00,28.695381,77.181665,CO,52,105,90
India,Delhi,Delhi,"Aya Nagar, Delhi - IMD",17-01-2024 02:00:00,28.4706914,77.1099364,OZONE,3,29,6
India,Delhi,Delhi,"Bawana, Delhi - DPCC",17-01-2024 02:00:00,28.776200,77.051074,PM2.5,348,496,427
India,Delhi,Delhi,"Burari Crossing, Delhi - IMD",17-01-2024 02:00:00,28.7256504,77.2011573,CO,82,101,95
India,Delhi,Delhi,"CRRI Mathura Road, Delhi - IMD",17-01-2024 02:00:00,28.5512005,77.2735737,PM10,NA,NA,NA
India,Delhi,Delhi,"CRRI Mathura Road, Delhi - IMD",17-01-2024 02:00:00,28.5512005,77.2735737,OZONE,1,5,3
India,Delhi,Delhi,"DTU, Delhi - CPCB",17-01-2024 02:00:00,28.7500499,77.1112615,PM2.5,150,350,277
India,Delhi,Delhi,"DTU, Delhi - CPCB",17-01-2024 02:00:00,28.7500499,77.1112615,PM10,193,500,375
India,Delhi,Delhi,"DTU, Delhi - CPCB",17-01-2024 02:00:00,28.7500499,77.1112615,CO,75,101,94
India,Delhi,Delhi,"Dr. Karni Singh Shooting Range, Delhi - DPCC",17-01-2024 02:00:00,28.498571,77.264840,PM2.5,326,428,368
India,Delhi,Delhi,"Dr. Karni Singh Shooting Range, Delhi - DPCC",17-01-2024 02:00:00,28.498571,77.264840,SO2,2,6,4
India,Delhi,Delhi,"Dwarka-Sector 8, Delhi - DPCC ",17-01-2024 02:00:00,28.5710274,77.0719006,PM2.5,369,443,408
India,Delhi,Delhi,"Dwarka-Sector 8, Delhi - DPCC ",17-01-2024 02:00:00,28.5710274,77.0719006,NH3,7,12,9
India,Delhi,Delhi,"IHBAS, Dilshad Garden, Delhi - CPCB",17-01-2024 02:00:00,28.6811736,77.3025234,PM10,167,246,213
India,Delhi,Delhi,"ITO, Delhi - CPCB",17-01-2024 02:00:00,28.628624,77.241060,OZONE,18,21,19
India,Delhi,Delhi,"Jahangirpuri, Delhi - DPCC",17-01-2024 02:00:00,28.732820,77.170633,PM2.5,354,500,439
India,Delhi,Delhi,"Jahangirpuri, Delhi - DPCC",17-01-2024 02:00:00,28.732820,77.170633,SO2,14,19,16
India,Delhi,Delhi,"Jawaharlal Nehru Stadium, Delhi - DPCC",17-01-2024 02:00:00,28.580280,77.233829,CO,32,119,88
India,Delhi,Delhi,"Lodhi Road, Delhi - IMD",17-01-2024 02:00:00,28.5918245,77.2273074,CO,36,76,43
India,Delhi,Delhi,"Major Dhyan Chand National Stadium, Delhi - DPCC",17-01-2024 02:00:00,28.611281,77.237738,NH3,14,17,15
India,Delhi,Delhi,"Mandir Marg, Delhi - DPCC",17-01-2024 02:00:00,28.636429,77.201067,NO2,89,130,106
India,Delhi,Delhi,"Mundka, Delhi - DPCC",17-01-2024 02:00:00,28.684678,77.076574,CO,70,105,94
India,Delhi,Delhi,"NSIT Dwarka, Delhi - CPCB",17-01-2024 02:00:00,28.60909,77.0325413,PM10,202,414,305
India,Delhi,Delhi,"NSIT Dwarka, Delhi - CPCB",17-01-2024 02:00:00,28.60909,77.0325413,OZONE,13,95,28
India,Delhi,Delhi,"Najafgarh, Delhi - DPCC",17-01-2024 02:00:00,28.570173,76.933762,SO2,4,14,8
India,Delhi,Delhi,"Narela, Delhi - DPCC",17-01-2024 02:00:00,28.822836,77.101981,NH3,10,14,12
India,Delhi,Delhi,"Narela, Delhi - DPCC",17-01-2024 02:00:00,28.822836,77.101981,OZONE,5,93,20
India,Delhi,Delhi,"Nehru Nagar, Delhi - DPCC",17-01-2024 02:00:00,28.567890,77.250515,NO2,12,103,56
India,Delhi,Delhi,"Nehru Nagar, Delhi - DPCC",17-01-2024 02:00:00,28.567890,77.250515,SO2,2,7,5
India,Delhi,Delhi,"Nehru Nagar, Delhi - DPCC",17-01-2024 02:00:00,28.567890,77.250515,OZONE,2,21,7
India,Delhi,Delhi,"Okhla Phase-2, Delhi - DPCC",17-01-2024 02:00:00,28.530785,77.271255,PM2.5,356,450,386
India,Delhi,Delhi,"Patparganj, Delhi - DPCC",17-01-2024 02:00:00,28.623763,77.287209,CO,41,84,68
India,Delhi,Delhi,"Patparganj, Delhi - DPCC",17-01-2024 02:00:00,28.623763,77.287209,OZONE,17,31,24
India,Delhi,Delhi,"Punjabi Bagh, Delhi - DPCC",17-01-2024 02:00:00,28.674045,77.131023,NO2,69,119,94
India,Delhi,Delhi,"Punjabi Bagh, Delhi - DPCC",17-01-2024 02:00:00,28.674045,77.131023,NH3,6,9,7
India,Delhi,Delhi,"Pusa, Delhi - DPCC",17-01-2024 02:00:00,28.639652,77.146275,PM2.5,345,423,385
India,Delhi,Delhi,"Pusa, Delhi - DPCC",17-01-2024 02:00:00,28.639652,77.146275,NH3,26,34,30
India,Delhi,Delhi,"R K Puram, Delhi - DPCC",17-01-2024 02:00:00,28.563262,77.186937,NH3,6,12,9
India,Delhi,Delhi,"Rohini, Delhi - DPCC",17-01-2024 02:00:00,28.732528,77.119920,SO2,5,15,8
India,Delhi,Delhi,"Rohini, Delhi - DPCC",17-01-2024 02:00:00,28.732528,77.119920,CO,89,109,106
India,Delhi,Delhi,"Shadipur, Delhi - CPCB",17-01-2024 02:00:00,28.6514781,77.1473105,NO2,40,81,56
India,Delhi,Delhi,"Sirifort, Delhi - CPCB",17-01-2024 02:00:00,28.5504249,77.2159377,NH3,7,10,8
India,Delhi,Delhi,"Sirifort, Delhi - CPCB",17-01-2024 02:00:00,28.5504249,77.2159377,SO2,27,36,29
India,Delhi,Delhi,"Sonia Vihar, Delhi - DPCC",17-01-2024 02:00:00,28.710508,77.249485,NH3,7,13,10
India,Delhi,Delhi,"Vivek Vihar, Delhi - DPCC",17-01-2024 02:00:00,28.672342,77.315260,SO2,7,8,8
India,Delhi,Delhi,"Wazirpur, Delhi - DPCC",17-01-2024 02:00:00,28.699793,77.165453,CO,15,82,65
India,Delhi,Delhi,"Wazirpur, Delhi - DPCC",17-01-2024 02:00:00,28.699793,77.165453,OZONE,3,76,8
India,Gujarat,Ahmedabad,"Chandkheda, Ahmedabad - IITM",17-01-2024 02:00:00,23.107969,72.574648,CO,1,94,54
India,Gujarat,Ahmedabad,"Gyaspur, Ahmedabad - IITM",17-01-2024 02:00:00,22.977134,72.553024,PM10,71,238,134
India,Gujarat,Ahmedabad,"Gyaspur, Ahmedabad - IITM",17-01-2024 02:00:00,22.977134,72.553024,SO2,8,8,8
India,Gujarat,Ahmedabad,"Raikhad, Ahmedabad - IITM",17-01-2024 02:00:00,23.020509,72.579261,PM2.5,89,322,150
India,Gujarat,Ahmedabad,"Raikhad, Ahmedabad - IITM",17-01-2024 02:00:00,23.020509,72.579261,NO2,12,17,14
India,Gujarat,Ahmedabad,"Raikhad, Ahmedabad - IITM",17-01-2024 02:00:00,23.020509,72.579261,NH3,3,4,4
India,Gujarat,Ahmedabad,"Rakhial, Ahmedabad - IITM",17-01-2024 02:00:00,23.016834,72.625775,PM2.5,68,341,193
India,Gujarat,Ahmedabad,"Rakhial, Ahmedabad - IITM",17-01-2024 02:00:00,23.016834,72.625775,OZONE,1,63,11
India,Gujarat,Ahmedabad,"SAC ISRO Bopal, Ahmedabad - IITM",17-01-2024 02:00:00,23.041137,72.456691,PM10,58,181,99
India,Gujarat,Ahmedabad,"SAC ISRO Satellite, Ahmedabad - IITM",17-01-2024 02:00:00,23.023389,72.515201,NO2,23,27,25
India,Gujarat,Ahmedabad,"SAC ISRO Satellite, Ahmedabad - IITM",17-01-2024 02:00:00,23.023389,72.515201,OZONE,2,16,4
India,Gujarat,Ahmedabad,"SVPI Airport Hansol, Ahmedabad - IITM",17-01-2024 02:00:00,23.076793,72.627874,NH3,3,4,4
India,Gujarat,Ahmedabad,"Sardar Vallabhbhai Patel Stadium, Ahmedabad - IITM",17-01-2024 02:00:00,23.043070,72.562968,NH3,3,3,3
India,Gujarat,Ahmedabad,"Sardar Vallabhbhai Patel Stadium, Ahmedabad - IITM",17-01-2024 02:00:00,23.043070,72.562968,SO2,3,8,6
India,Gujarat,Ankleshwar,"GIDC, Ankleshwar - GPCB",17-01-2024 02:00:00,21.613267,73.010555,NO2,33,34,34
India,Gujarat,Ankleshwar,"GIDC, Ankleshwar - GPCB",17-01-2024 02:00:00,21.613267,73.010555,SO2,9,114,34
India,Gujarat,Gandhinagar,"GIFT City, Gandhinagar - IITM",17-01-2024 02:00:00,23.163798,72.677768,NO2,7,11,9
India,Gujarat,Gandhinagar,"IIPHG Lekawada, Gandhinagar - IITM",17-01-2024 02:00:00,23.243639,72.68994,PM2.5,99,319,220
India,Gujarat,Gandhinagar,"IIPHG Lekawada, Gandhinagar - IITM",17-01-2024 02:00:00,23.243639,72.68994,CO,34,73,57
India,Gujarat,Surat,"Science Center, Surat - SMC",17-01-2024 02:00:00,21.170046,72.795405,SO2,15,22,18
India,Gujarat,Vapi,"Phase-1 GIDC, Vapi - GPCB",17-01-2024 02:00:00,20.362421,72.918013,CO,1,189,162
India,Gujarat,Vapi,"Phase-1 GIDC, Vapi - GPCB",17-01-2024 02:00:00,20.362421,72.918013,OZONE,1,5,1
India,Haryana,Bahadurgarh,"Arya Nagar, Bahadurgarh - HSPCB",17-01-2024 02:00:00,28.6701,76.9254,PM10,157,412,224
India,Haryana,Bahadurgarh,"Arya Nagar, Bahadurgarh - HSPCB",17-01-2024 02:00:00,28.6701,76.9254,SO2,NA,NA,NA
India,Haryana,Dharuhera,"Municipal Corporation Office, Dharuhera -  HSPCB",17-01-2024 02:00:00,28.206800,76.799700,PM10,131,376,234
India,Haryana,Dharuhera,"Municipal Corporation Office, Dharuhera -  HSPCB",17-01-2024 02:00:00,28.206800,76.799700,NO2,45,110,70
India,Haryana,Dharuhera,"Municipal Corporation Office, Dharuhera -  HSPCB",17-01-2024 02:00:00,28.206800,76.799700,SO2,6,30,14
India,Haryana,Faridabad,"New Industrial Town, Faridabad - HSPCB",17-01-2024 02:00:00,28.39072,77.30059,NO2,1,17,9
India,Haryana,Faridabad,"Sector 11, Faridabad - HSPCB",17-01-2024 02:00:00,28.376058,77.315741,PM2.5,21,329,226
India,Haryana,Faridabad,"Sector 11, Faridabad - HSPCB",17-01-2024 02:00:00,28.376058,77.315741,CO,50,73,59
India,Haryana,Faridabad,"Sector 30, Faridabad - HSPCB",17-01-2024 02:00:00,28.4417,77.3217,PM10,130,144,133
India,Haryana,Fatehabad,"Huda Sector, Fatehabad - HSPCB",17-01-2024 02:00:00,29.503664,75.467934,CO,5,10,7
India,Haryana,Gurugram,"Sector-51, Gurugram - HSPCB",17-01-2024 02:00:00,28.4227,77.0667,NO2,13,104,52
India,Haryana,Gurugram,"Teri Gram, Gurugram - HSPCB",17-01-2024 02:00:00,28.4275,77.1465,NO2,12,54,33
India,Haryana,Hisar,"Urban Estate-II, Hisar - HSPCB",17-01-2024 02:00:00,29.140560,75.744941,PM2.5,93,327,234
India,Haryana,Hisar,"Urban Estate-II, Hisar - HSPCB",17-01-2024 02:00:00,29.140560,75.744941,NH3,3,4,3
India,Haryana,Hisar,"Urban Estate-II, Hisar - HSPCB",17-01-2024 02:00:00,29.140560,75.744941,SO2,4,46,22
India,Haryana,Jind,"Police Lines, Jind - HSPCB",17-01-2024 02:00:00,29.307814,76.337619,NO2,5,17,12
India,Haryana,Kaithal,"Rishi Nagar, Kaithal - HSPCB",17-01-2024 02:00:00,29.8006,76.4155,OZONE,6,17,12
India,Haryana,Karnal,"Sector-12, Karnal - HSPCB",17-01-2024 02:00:00,29.695300,77.002700,PM10,62,152,105
India,Haryana,Karnal,"Sector-12, Karnal - HSPCB",17-01-2024 02:00:00,29.695300,77.002700,NO2,7,12,10
India,Haryana,Karnal,"Sector-12, Karnal - HSPCB",17-01-2024 02:00:00,29.695300,77.002700,CO,65,103,100
India,Haryana,Kurukshetra,"Sector-7, Kurukshetra - HSPCB",17-01-2024 02:00:00,29.966942,76.875879,PM2.5,81,338,236
India,Haryana,Kurukshetra,"Sector-7, Kurukshetra - HSPCB",17-01-2024 02:00:00,29.966942,76.875879,CO,26,104,68
India,Haryana,Manesar,"Sector-2 IMT, Manesar - HSPCB",17-01-2024 02:00:00,28.360699,76.936090,NH3,3,19,8
India,Haryana,Narnaul,"Shastri Nagar, Narnaul - HSPCB",17-01-2024 02:00:00,28.060249,76.113115,NH3,5,15,11
India,Haryana,Palwal,"Shyam Nagar, Palwal - HSPCB",17-01-2024 02:00:00,28.1485564,77.3320667,PM10,97,163,115
India,Haryana,Palwal,"Shyam Nagar, Palwal - HSPCB",17-01-2024 02:00:00,28.1485564,77.3320667,OZONE,1,3,1
India,Haryana,Panchkula,"Sector-6, Panchkula - HSPCB ",17-01-2024 02:00:00,30.7057778,76.8531805555555,NO2,28,30,29
India,Haryana,Panchkula,"Sector-6, Panchkula - HSPCB ",17-01-2024 02:00:00,30.7057778,76.8531805555555,SO2,11,12,12
India,Haryana,Panipat,"Sector-18, Panipat - HSPCB",17-01-2024 02:00:00,29.497973,76.993331,PM10,104,109,107
India,Haryana,Sirsa,"F-Block, Sirsa - HSPCB",17-01-2024 02:00:00,29.536400,75.015800,NH3,12,13,13
India,Haryana,Sirsa,"F-Block, Sirsa - HSPCB",17-01-2024 02:00:00,29.536400,75.015800,SO2,4,49,15
India,Haryana,Sirsa,"F-Block, Sirsa - HSPCB",17-01-2024 02:00:00,29.536400,75.015800,CO,60,86,78
India,Haryana,Sonipat,"Murthal, Sonipat - HSPCB",17-01-2024 02:00:00,29.027200,77.062100,PM2.5,190,317,270
India,Haryana,Yamuna Nagar,"Gobind Pura, Yamuna Nagar - HSPCB",17-01-2024 02:00:00,30.1480566,77.2893471,OZONE,5,15,6
India,Jharkhand,Dhanbad,"Kalakusuma, Dhanbad - DMC",17-01-2024 02:00:00,23.811548,86.481238,PM2.5,NA,NA,NA
India,Jharkhand,Dhanbad,"Kalakusuma, Dhanbad - DMC",17-01-2024 02:00:00,23.811548,86.481238,PM10,50,416,166
India,Jharkhand,Dhanbad,"Kalakusuma, Dhanbad - DMC",17-01-2024 02:00:00,23.811548,86.481238,OZONE,19,42,26
India,Jharkhand,Pathardih,"Mohalbani Ghat, Pathardih - DMC",17-01-2024 02:00:00,23.669880,86.411725,CO,60,106,89
India,Karnataka,Bagalkot,"Vidayagiri, Bagalkot - KSPCB",17-01-2024 02:00:00,16.172806,75.659694,SO2,NA,NA,NA
India,Karnataka,Belgaum,"Ramteerth Nagar, Belgaum - KSPCB",17-01-2024 02:00:00,15.888653,74.541751,PM2.5,31,263,55
India,Karnataka,Belgaum,"Ramteerth Nagar, Belgaum - KSPCB",17-01-2024 02:00:00,15.888653,74.541751,PM10,33,134,55
India,Karnataka,Belgaum,"Ramteerth Nagar, Belgaum - KSPCB",17-01-2024 02:00:00,15.888653,74.541751,NH3,33,34,33
India,Karnataka,Belgaum,"Ramteerth Nagar, Belgaum - KSPCB",17-01-2024 02:00:00,15.888653,74.541751,SO2,8,9,8
India,Karnataka,Bengaluru,"BTM Layout, Bengaluru - CPCB",17-01-2024 02:00:00,12.9135218,77.5950804,CO,16,42,30
India,Karnataka,Bengaluru,"Bapuji Nagar, Bengaluru - KSPCB",17-01-2024 02:00:00,12.951913,77.539784,OZONE,11,25,14
India,Karnataka,Bengaluru,"Hebbal, Bengaluru - KSPCB",17-01-2024 02:00:00,13.029152,77.585901,NH3,NA,NA,NA
India,Karnataka,Bengaluru,"Hombegowda Nagar, Bengaluru - KSPCB",17-01-2024 02:00:00,12.938539,77.590100,PM10,83,146,103
India,Karnataka,Bengaluru,"Hombegowda Nagar, Bengaluru - KSPCB",17-01-2024 02:00:00,12.938539,77.590100,OZONE,4,5,4
India,Karnataka,Bengaluru,"Jayanagar 5th Block, Bengaluru - KSPCB",17-01-2024 02:00:00,12.920984,77.584908,CO,6,110,35
India,Karnataka,Bengaluru,"Jigani, Bengaluru - KSPCB",17-01-2024 02:00:00,12.7816279,77.6299145,NO2,NA,NA,NA
India,Karnataka,Bengaluru,"Kasturi Nagar, Bengaluru - KSPCB",17-01-2024 02:00:00,13.003872,77.664217,NH3,3,4,4
India,Karnataka,Bengaluru,"Kasturi Nagar, Bengaluru - KSPCB",17-01-2024 02:00:00,13.003872,77.664217,SO2,10,10,10
India,Karnataka,Bengaluru,"Kasturi Nagar, Bengaluru - KSPCB",17-01-2024 02:00:00,13.003872,77.664217,CO,24,25,24
India,Karnataka,Bengaluru,"Peenya, Bengaluru - CPCB",17-01-2024 02:00:00,13.0270199,77.494094,OZONE,36,38,37
India,Karnataka,Bengaluru,"RVCE-Mailasandra, Bengaluru - KSPCB",17-01-2024 02:00:00,12.921418,77.502466,NH3,4,4,4
India,Karnataka,Bengaluru,"RVCE-Mailasandra, Bengaluru - KSPCB",17-01-2024 02:00:00,12.921418,77.502466,CO,44,116,70
India,Karnataka,Bengaluru,"Shivapura_Peenya, Bengaluru - KSPCB",17-01-2024 02:00:00,13.0246342,77.5080115,NO2,15,16,15
India,Karnataka,Bengaluru,"Shivapura_Peenya, Bengaluru - KSPCB",17-01-2024 02:00:00,13.0246342,77.5080115,OZONE,14,196,85
India,Karnataka,Bengaluru,"Silk Board, Bengaluru - KSPCB",17-01-2024 02:00:00,12.917348,77.622813,PM2.5,62,298,94
India,Karnataka,Bengaluru,"Silk Board, Bengaluru - KSPCB",17-01-2024 02:00:00,12.917348,77.622813,PM10,88,234,116
India,Karnataka,Bengaluru,"Silk Board, Bengaluru - KSPCB",17-01-2024 02:00:00,12.917348,77.622813,NO2,13,40,20
India,Karnataka,Chamarajanagar,"Urban, Chamarajanagar - KSPCB",17-01-2024 02:00:00,11.55358,76.55521,NO2,23,29,28
India,Karnataka,Chikkaballapur,"Chikkaballapur Rural, Chikkaballapur - KSPCB",17-01-2024 02:00:00,13.428828,77.731418,OZONE,24,25,25
India,Karnataka,Chikkamagaluru,"Kalyana Nagara, Chikkamagaluru - KSPCB",17-01-2024 02:00:00,13.328028,75.797056,PM2.5,33,97,52
India,Karnataka,Davanagere,"Devaraj Urs Badavane, Davanagere - KSPCB",17-01-2024 02:00:00,14.475800,75.905200,PM10,58,166,97
India,Karnataka,Davanagere,"Devaraj Urs Badavane, Davanagere - KSPCB",17-01-2024 02:00:00,14.475800,75.905200,NO2,8,15,12
India,Karnataka,Davanagere,"Devaraj Urs Badavane, Davanagere - KSPCB",17-01-2024 02:00:00,14.475800,75.905200,OZONE,16,38,21
India,Karnataka,Dharwad,"Kalabhavan, Dharwad - KSPCB",17-01-2024 02:00:00,15.459706,75.008381,SO2,3,12,6
India,Karnataka,Hassan,"B.Katihalli, Hassan - KSPCB",17-01-2024 02:00:00,13.008556,76.125258,PM2.5,82,163,114
India,Karnataka,Haveri,"Ashwini Nagar, Haveri - KSPCB",17-01-2024 02:00:00,14.791800,75.389600,NO2,19,43,32
India,Karnataka,Kalaburagi,"Lal Bahadur Shastri Nagar, Kalaburagi - KSPCB",17-01-2024 02:00:00,17.321993,76.822628,NO2,11,12,11
India,Karnataka,Kolar,"Tamaka Ind. Area, Kolar - KSPCB",17-01-2024 02:00:00,13.1276288,78.1570122,OZONE,15,21,17
India,Karnataka,Mangalore,"Kadri, Mangalore - KSPCB",17-01-2024 02:00:00,12.889250,74.853000,NO2,8,11,10
India,Karnataka,Mysuru,"Hebbal 1st Stage, Mysuru - KSPCB",17-01-2024 02:00:00,12.21041,76.37376,NH3,1,5,2
India,Karnataka,Mysuru,"Hebbal 1st Stage, Mysuru - KSPCB",17-01-2024 02:00:00,12.21041,76.37376,SO2,1,6,3
India,Karnataka,Ramanagara,"Vijay Nagar, Ramanagara - KSPCB",17-01-2024 02:00:00,12.733409,77.298051,NH3,1,1,1
India,Karnataka,Ramanagara,"Vijay Nagar, Ramanagara - KSPCB",17-01-2024 02:00:00,12.733409,77.298051,CO,8,50,30
India,Karnataka,Shivamogga,"Vinoba Nagara, Shivamogga - KSPCB",17-01-2024 02:00:00,13.940000,75.555917,PM2.5,37,64,43
India,Karnataka,Shivamogga,"Vinoba Nagara, Shivamogga - KSPCB",17-01-2024 02:00:00,13.940000,75.555917,PM10,56,86,64
India,Karnataka,Shivamogga,"Vinoba Nagara, Shivamogga - KSPCB",17-01-2024 02:00:00,13.940000,75.555917,NH3,3,23,8
India,Karnataka,Shivamogga,"Vinoba Nagara, Shivamogga - KSPCB",17-01-2024 02:00:00,13.940000,75.555917,SO2,4,11,7
India,Karnataka,Tumakuru,"Thimmalapura, Tumakuru - KSPCB",17-01-2024 02:00:00,13.377516,77.099072,PM2.5,74,318,123
India,Karnataka,Tumakuru,"Thimmalapura, Tumakuru - KSPCB",17-01-2024 02:00:00,13.377516,77.099072,PM10,122,412,173
India,Karnataka,Udupi,"Brahmagiri, Udupi - KSPCB",17-01-2024 02:00:00,13.34194444,74.74694444,NO2,11,14,13
India,Karnataka,Udupi,"Brahmagiri, Udupi - KSPCB",17-01-2024 02:00:00,13.34194444,74.74694444,CO,40,46,43
India,Karnataka,Vijayapura,"Ibrahimpur, Vijayapura - KSPCB",17-01-2024 02:00:00,16.802639,75.722694,PM2.5,26,31,30
India,Karnataka,Vijayapura,"Ibrahimpur, Vijayapura - KSPCB",17-01-2024 02:00:00,16.802639,75.722694,NO2,17,19,19
India,Kerala,Eloor,"Udyogamandal, Eloor - Kerala PCB",17-01-2024 02:00:00,10.073232,76.302765,NO2,4,4,4
India,Kerala,Kannur,"Thavakkara, Kannur - Kerala PCB",17-01-2024 02:00:00,11.875000,75.373200,PM10,56,68,63
India,Kerala,Kannur,"Thavakkara, Kannur - Kerala PCB",17-01-2024 02:00:00,11.875000,75.373200,NO2,6,7,6
India,Kerala,Kochi,"Vyttila, Kochi - Kerala PCB",17-01-2024 02:00:00,9.969447,76.321186,CO,42,46,44
India,Kerala,Kollam,"Polayathode, Kollam - Kerala PCB",17-01-2024 02:00:00,8.8787,76.6073,NO2,8,9,8
India,Kerala,Thiruvananthapuram,"Kariavattom, Thiruvananthapuram - Kerala PCB",17-01-2024 02:00:00,8.563700,76.886500,OZONE,28,32,30
India,Kerala,Thiruvananthapuram,"Plammoodu, Thiruvananthapuram - Kerala PCB",17-01-2024 02:00:00,8.5149093,76.9435879,PM2.5,57,143,91
India,Kerala,Thrissur,"Corporation Ground, Thrissur - Kerala PCB",17-01-2024 02:00:00,10.532400,76.215900,PM10,55,61,58
India,Kerala,Thrissur,"Corporation Ground, Thrissur - Kerala PCB",17-01-2024 02:00:00,10.532400,76.215900,NH3,1,1,1
India,Kerala,Thrissur,"Corporation Ground, Thrissur - Kerala PCB",17-01-2024 02:00:00,10.532400,76.215900,CO,14,125,76
India,Madhya Pradesh,Bhopal,"Paryavaran Parisar, Bhopal - MPPCB",17-01-2024 02:00:00,23.210494,77.425409,PM10,81,417,177
India,Madhya Pradesh,Bhopal,"Paryavaran Parisar, Bhopal - MPPCB",17-01-2024 02:00:00,23.210494,77.425409,NO2,22,118,57
India,Madhya Pradesh,Bhopal,"T T Nagar, Bhopal - MPPCB",17-01-2024 02:00:00,23.233584,77.400574,SO2,14,56,31
India,Madhya Pradesh,Damoh,"Shrivastav Colony, Damoh - MPPCB",17-01-2024 02:00:00,23.81748678,79.446246,PM2.5,8,32,21
India,Madhya Pradesh,Damoh,"Shrivastav Colony, Damoh - MPPCB",17-01-2024 02:00:00,23.81748678,79.446246,NO2,7,7,7
India,Madhya Pradesh,Dewas,"Bhopal Chauraha, Dewas - MPPCB",17-01-2024 02:00:00,22.9682591,76.064118,SO2,36,47,41
India,Madhya Pradesh,Dewas,"Bhopal Chauraha, Dewas - MPPCB",17-01-2024 02:00:00,22.9682591,76.064118,CO,17,58,35
India,Madhya Pradesh,Gwalior,"City Center, Gwalior - MPPCB",17-01-2024 02:00:00,26.203442,78.193251,OZONE,18,20,19
India,Madhya Pradesh,Gwalior,"Deen Dayal Nagar, Gwalior - MPPCB",17-01-2024 02:00:00,26.259242,78.216432,NO2,23,63,42
India,Madhya Pradesh,Gwalior,"Maharaj Bada, Gwalior - MPPCB",17-01-2024 02:00:00,26.200388,78.147714,NO2,24,88,58
India,Madhya Pradesh,Gwalior,"Maharaj Bada, Gwalior - MPPCB",17-01-2024 02:00:00,26.200388,78.147714,SO2,11,27,18
India,Madhya Pradesh,Gwalior,"Phool Bagh, Gwalior - Mondelez Ind. Food",17-01-2024 02:00:00,26.210536,78.171,NO2,4,5,4
India,Madhya Pradesh,Indore,"Chhoti Gwaltoli, Indore - MPPCB",17-01-2024 02:00:00,22.4310,75.5213,CO,68,127,111
India,Madhya Pradesh,Indore,"Regional Park, Indore - IMC",17-01-2024 02:00:00,22.6780,75.8559,NO2,5,9,7
India,Madhya Pradesh,Indore,"Residency Area, Indore - IMC",17-01-2024 02:00:00,22.7084,75.8815,NO2,31,56,39
India,Madhya Pradesh,Indore,"Residency Area, Indore - IMC",17-01-2024 02:00:00,22.7084,75.8815,CO,12,21,17
India,Madhya Pradesh,Jabalpur,"Govindh Bhavan Colony, Jabalpur - JMC",17-01-2024 02:00:00,23.163174,79.973061,PM2.5,42,78,52
India,Madhya Pradesh,Jabalpur,"Govindh Bhavan Colony, Jabalpur - JMC",17-01-2024 02:00:00,23.163174,79.973061,NH3,5,6,5
India,Madhya Pradesh,Jabalpur,"Govindh Bhavan Colony, Jabalpur - JMC",17-01-2024 02:00:00,23.163174,79.973061,OZONE,10,160,42
India,Madhya Pradesh,Jabalpur,"Gupteshwar, Jabalpur - JMC",17-01-2024 02:00:00,23.142888,79.916147,OZONE,3,149,19
India,Madhya Pradesh,Jabalpur,"Marhatal, Jabalpur - MPPCB",17-01-2024 02:00:00,23.168606,79.932247,NH3,4,5,4
India,Madhya Pradesh,Jabalpur,"Suhagi, Jabalpur - JMC",17-01-2024 02:00:00,23.218135,79.957770,PM2.5,50,257,122
India,Madhya Pradesh,Jabalpur,"Suhagi, Jabalpur - JMC",17-01-2024 02:00:00,23.218135,79.957770,NH3,4,4,4
India,Madhya Pradesh,Jabalpur,"Suhagi, Jabalpur - JMC",17-01-2024 02:00:00,23.218135,79.957770,CO,30,106,86
India,Madhya Pradesh,Katni,"Gole Bazar, Katni - MPPCB",17-01-2024 02:00:00,23.50016,80.23284,PM10,78,150,107
India,Madhya Pradesh,Mandideep,"Sector-D Industrial Area, Mandideep - MPPCB",17-01-2024 02:00:00,23.108440,77.511428,PM2.5,39,306,129
India,Madhya Pradesh,Mandideep,"Sector-D Industrial Area, Mandideep - MPPCB",17-01-2024 02:00:00,23.108440,77.511428,NH3,2,9,6
India,Madhya Pradesh,Mandideep,"Sector-D Industrial Area, Mandideep - MPPCB",17-01-2024 02:00:00,23.108440,77.511428,SO2,29,107,56
India,Madhya Pradesh,Mandideep,"Sector-D Industrial Area, Mandideep - MPPCB",17-01-2024 02:00:00,23.108440,77.511428,OZONE,1,20,19
India,Madhya Pradesh,Pithampur,"Sector-2 Industrial Area, Pithampur - MPPCB",17-01-2024 02:00:00,22.624758,75.675238,PM2.5,51,282,132
India,Madhya Pradesh,Ratlam,"Shasthri Nagar, Ratlam - IPCA Lab",17-01-2024 02:00:00,23.331731,75.045981,SO2,13,14,13
India,Madhya Pradesh,Sagar,"Civil Lines, Sagar - MPPCB",17-01-2024 02:00:00,23.838586,78.759431,PM10,73,124,97
India,Madhya Pradesh,Satna,"Bandhavgar Colony, Satna - Birla Cement",17-01-2024 02:00:00,24.58434363,80.8549414,SO2,3,13,5
India,Madhya Pradesh,Satna,"Bandhavgar Colony, Satna - Birla Cement",17-01-2024 02:00:00,24.58434363,80.8549414,OZONE,57,87,68
India,Madhya Pradesh,Ujjain,"Mahakaleshwar Temple, Ujjain - MPPCB",17-01-2024 02:00:00,23.182719 ,75.768218 ,CO,6,118,94
India,Maharashtra,Ahmednagar,"Tarakpur, Ahmednagar - MPCB",17-01-2024 02:00:00,19.10122,74.73339,PM2.5,33,237,89
India,Maharashtra,Ahmednagar,"Tarakpur, Ahmednagar - MPCB",17-01-2024 02:00:00,19.10122,74.73339,CO,11,141,82
India,Maharashtra,Akola,"Ramdaspeth, Akola - MPCB",17-01-2024 02:00:00,20.719516,77.000253,PM10,59,230,133
India,Maharashtra,Amravati,"Shivneri Colony, Amravati - MPCB",17-01-2024 02:00:00,20.9402359,77.7895248,PM10,61,120,96
India,Maharashtra,Amravati,"Shivneri Colony, Amravati - MPCB",17-01-2024 02:00:00,20.9402359,77.7895248,NO2,17,103,47
India,Maharashtra,Amravati,"Shivneri Colony, Amravati - MPCB",17-01-2024 02:00:00,20.9402359,77.7895248,SO2,1,29,8
India,Maharashtra,Amravati,"Shivneri Colony, Amravati - MPCB",17-01-2024 02:00:00,20.9402359,77.7895248,CO,15,53,34
India,Maharashtra,Amravati,"Shivneri Colony, Amravati - MPCB",17-01-2024 02:00:00,20.9402359,77.7895248,OZONE,1,109,28
India,Maharashtra,Amravati,"Shri Shivaji Science College, Amaravati - MPCB",17-01-2024 02:00:00,20.939198,77.765701,PM10,78,442,164
India,Maharashtra,Amravati,"Shri Shivaji Science College, Amaravati - MPCB",17-01-2024 02:00:00,20.939198,77.765701,CO,21,123,87
India,Maharashtra,Aurangabad,"MIDC Chilkalthana, Aurangabad - MPCB",17-01-2024 02:00:00,19.875620,75.387310,NO2,9,134,44
India,Maharashtra,Aurangabad,"MIDC Chilkalthana, Aurangabad - MPCB",17-01-2024 02:00:00,19.875620,75.387310,SO2,3,12,6
India,Maharashtra,Aurangabad,"Rachnakar Colony, Aurangabad - MPCB",17-01-2024 02:00:00,19.863756,75.321188,NO2,19,135,69
India,Maharashtra,Aurangabad,"Rachnakar Colony, Aurangabad - MPCB",17-01-2024 02:00:00,19.863756,75.321188,CO,16,118,77
India,Maharashtra,Badlapur,"Katrap, Badlapur - MPCB",17-01-2024 02:00:00,19.16485,73.23409,SO2,15,112,38
India,Maharashtra,Badlapur,"Katrap, Badlapur - MPCB",17-01-2024 02:00:00,19.16485,73.23409,CO,24,74,37
India,Maharashtra,Badlapur,"Katrap, Badlapur - MPCB",17-01-2024 02:00:00,19.16485,73.23409,OZONE,1,303,101
India,Maharashtra,Belapur,"CBD Belapur, Belapur - MPCB",17-01-2024 02:00:00,19.0243902,73.0406721,PM10,64,149,119
India,Maharashtra,Belapur,"CBD Belapur, Belapur - MPCB",17-01-2024 02:00:00,19.0243902,73.0406721,CO,18,62,36
India,Maharashtra,Belapur,"CBD Belapur, Belapur - MPCB",17-01-2024 02:00:00,19.0243902,73.0406721,OZONE,16,170,68
India,Maharashtra,Bhiwandi,"Gokul Nagar, Bhiwandi - MPCB",17-01-2024 02:00:00,19.309073,73.057223,NO2,14,57,36
India,Maharashtra,Bhiwandi,"Gokul Nagar, Bhiwandi - MPCB",17-01-2024 02:00:00,19.309073,73.057223,NH3,1,3,1
India,Maharashtra,Bhiwandi,"Gokul Nagar, Bhiwandi - MPCB",17-01-2024 02:00:00,19.309073,73.057223,OZONE,9,244,28
India,Maharashtra,Boisar,"Khaira, Boisar - MPCB",17-01-2024 02:00:00,19.786089,72.757971,PM2.5,NA,NA,NA
India,Maharashtra,Chandrapur,"Chauhan Colony, Chandrapur - MPCB",17-01-2024 02:00:00,19.962900,79.298714,SO2,4,61,18
India,Maharashtra,Chandrapur,"MIDC Khutala, Chandrapur - MPCB",17-01-2024 02:00:00,19.9775302,79.2337086,PM2.5,NA,NA,NA
India,Maharashtra,Chandrapur,"MIDC Khutala, Chandrapur - MPCB",17-01-2024 02:00:00,19.9775302,79.2337086,SO2,NA,NA,NA
India,Maharashtra,Chandrapur,"MIDC Khutala, Chandrapur - MPCB",17-01-2024 02:00:00,19.9775302,79.2337086,CO,19,74,54
India,Maharashtra,Jalgaon,"Prabhat Colony, Jalgaon - MPCB",17-01-2024 02:00:00,21.001264,75.565602,NH3,4,10,7
India,Maharashtra,Jalna,"Old MIDC, Jalna - MPCB",17-01-2024 02:00:00,19.854616,75.905894,PM2.5,57,170,94
India,Maharashtra,Jalna,"Old MIDC, Jalna - MPCB",17-01-2024 02:00:00,19.854616,75.905894,NH3,6,8,7
India,Maharashtra,Kalyan,"Khadakpada, Kalyan - MPCB",17-01-2024 02:00:00,19.25292,73.142019,PM2.5,33,119,54
India,Maharashtra,Kalyan,"Khadakpada, Kalyan - MPCB",17-01-2024 02:00:00,19.25292,73.142019,PM10,70,154,99
India,Maharashtra,Kolhapur,"Shivaji University, Kolhapur - MPCB",17-01-2024 02:00:00,16.6870449,74.2505872,CO,74,110,98
India,Maharashtra,Kolhapur,"Sinchan Bhavan, Kolhapur - MPCB",17-01-2024 02:00:00,16.7143745,74.2426398,PM10,NA,NA,NA
India,Maharashtra,Mahad,"Kamble Tarf Birwadi, Mahad - MPCB",17-01-2024 02:00:00,18.1023399,73.4783687,PM10,45,90,68
India,Maharashtra,Malegaon,"Mahesh Nagar, Malegaon - MPCB",17-01-2024 02:00:00,20.555712,74.529236,NH3,9,9,9
India,Maharashtra,Mira-Bhayandar,"Bhayandar West, Mira-Bhayandar - MPCB",17-01-2024 02:00:00,19.296481,72.840923,PM2.5,52,84,65
India,Maharashtra,Mira-Bhayandar,"Bhayandar West, Mira-Bhayandar - MPCB",17-01-2024 02:00:00,19.296481,72.840923,PM10,91,120,104
India,Maharashtra,Mira-Bhayandar,"Bhayandar West, Mira-Bhayandar - MPCB",17-01-2024 02:00:00,19.296481,72.840923,CO,12,48,31
India,Maharashtra,Mumbai,"Bandra Kurla Complex, Mumbai - MPCB",17-01-2024 02:00:00,19.065931,72.862131,PM10,90,172,121
India,Maharashtra,Mumbai,"Bandra Kurla Complex, Mumbai - MPCB",17-01-2024 02:00:00,19.065931,72.862131,NO2,16,67,40
India,Maharashtra,Mumbai,"Bandra Kurla Complex, Mumbai - MPCB",17-01-2024 02:00:00,19.065931,72.862131,SO2,3,16,7
India,Maharashtra,Mumbai,"Borivali East, Mumbai - MPCB",17-01-2024 02:00:00,19.2243333,72.8658113,NO2,5,40,13
India,Maharashtra,Mumbai,"Borivali East, Mumbai - MPCB",17-01-2024 02:00:00,19.2243333,72.8658113,OZONE,6,9,8
India,Maharashtra,Mumbai,"Byculla, Mumbai - BMC",17-01-2024 02:00:00,18.9767,72.8380,PM10,43,107,65
India,Maharashtra,Mumbai,"Byculla, Mumbai - BMC",17-01-2024 02:00:00,18.9767,72.8380,SO2,2,11,5
India,Maharashtra,Mumbai,"Byculla, Mumbai - BMC",17-01-2024 02:00:00,18.9767,72.8380,OZONE,10,93,72
India,Maharashtra,Mumbai,"Chembur, Mumbai - MPCB",17-01-2024 02:00:00,19.0364585,72.8954371,SO2,1,21,7
India,Maharashtra,Mumbai,"Chhatrapati Shivaji Intl. Airport (T2), Mumbai - MPCB",17-01-2024 02:00:00,19.10078,72.87462,PM2.5,19,38,26
India,Maharashtra,Mumbai,"Chhatrapati Shivaji Intl. Airport (T2), Mumbai - MPCB",17-01-2024 02:00:00,19.10078,72.87462,PM10,50,100,74
India,Maharashtra,Mumbai,"Kandivali West, Mumbai - BMC",17-01-2024 02:00:00,19.215859,72.831718,PM10,57,89,72
India,Maharashtra,Mumbai,"Kandivali West, Mumbai - BMC",17-01-2024 02:00:00,19.215859,72.831718,SO2,5,16,10
India,Maharashtra,Mumbai,"Kherwadi_Bandra East, Mumbai - MPCB",17-01-2024 02:00:00,19.0632143,72.8456324,SO2,3,99,38
India,Maharashtra,Mumbai,"Malad West, Mumbai - IITM",17-01-2024 02:00:00,19.19709,72.82204,CO,22,110,74
India,Maharashtra,Mumbai,"Mazgaon, Mumbai - IITM",17-01-2024 02:00:00,18.96702,72.84214,SO2,11,25,17
India,Maharashtra,Mumbai,"Mazgaon, Mumbai - IITM",17-01-2024 02:00:00,18.96702,72.84214,OZONE,18,112,91
India,Maharashtra,Mumbai,"Mindspace-Malad West, Mumbai - MPCB",17-01-2024 02:00:00,19.1878657,72.8304069,NO2,6,50,23
India,Maharashtra,Mumbai,"Mindspace-Malad West, Mumbai - MPCB",17-01-2024 02:00:00,19.1878657,72.8304069,CO,22,58,47
India,Maharashtra,Mumbai,"Mulund West, Mumbai - MPCB",17-01-2024 02:00:00,19.1750,72.9419,PM10,33,122,78
India,Maharashtra,Mumbai,"Navy Nagar-Colaba, Mumbai - IITM",17-01-2024 02:00:00,18.897756,72.813320,PM10,40,103,62
India,Maharashtra,Mumbai,"Navy Nagar-Colaba, Mumbai - IITM",17-01-2024 02:00:00,18.897756,72.813320,OZONE,8,141,108
India,Maharashtra,Mumbai,"Powai, Mumbai - MPCB",17-01-2024 02:00:00,19.137500,72.915056,SO2,13,15,14
India,Maharashtra,Mumbai,"Powai, Mumbai - MPCB",17-01-2024 02:00:00,19.137500,72.915056,OZONE,27,61,44
India,Maharashtra,Mumbai,"Sewri, Mumbai - BMC",17-01-2024 02:00:00,19.000084,72.856730,PM10,81,133,100
India,Maharashtra,Mumbai,"Sewri, Mumbai - BMC",17-01-2024 02:00:00,19.000084,72.856730,NH3,3,15,9
India,Maharashtra,Mumbai,"Sewri, Mumbai - BMC",17-01-2024 02:00:00,19.000084,72.856730,OZONE,1,111,65
India,Maharashtra,Mumbai,"Siddharth Nagar-Worli, Mumbai - IITM",17-01-2024 02:00:00,19.000083,72.813993,NH3,NA,NA,NA
India,Maharashtra,Mumbai,"Sion, Mumbai - MPCB",17-01-2024 02:00:00,19.047000,72.874600,PM10,55,155,92
India,Maharashtra,Mumbai,"Sion, Mumbai - MPCB",17-01-2024 02:00:00,19.047000,72.874600,NO2,15,66,38
India,Maharashtra,Mumbai,"Sion, Mumbai - MPCB",17-01-2024 02:00:00,19.047000,72.874600,CO,11,46,30
India,Maharashtra,Mumbai,"Vasai West, Mumbai - MPCB",17-01-2024 02:00:00,19.383200,72.820400,SO2,18,18,18
India,Maharashtra,Mumbai,"Vile Parle West, Mumbai - MPCB",17-01-2024 02:00:00,19.10861,72.83622,NO2,5,34,18
India,Maharashtra,Mumbai,"Worli, Mumbai - MPCB",17-01-2024 02:00:00,18.9936162,72.8128113,NO2,14,15,14
India,Maharashtra,Nagpur,"Mahal, Nagpur - MPCB",17-01-2024 02:00:00,21.14472,79.107595,PM10,48,193,114
India,Maharashtra,Nagpur,"Opp GPO Civil Lines, Nagpur - MPCB",17-01-2024 02:00:00,21.152875,79.0517531,PM10,48,160,100
India,Maharashtra,Nagpur,"Ram Nagar, Nagpur - MPCB",17-01-2024 02:00:00,21.143383,79.048912,PM2.5,71,302,119
India,Maharashtra,Nagpur,"Ram Nagar, Nagpur - MPCB",17-01-2024 02:00:00,21.143383,79.048912,NH3,6,6,6
India,Maharashtra,Nagpur,"Ram Nagar, Nagpur - MPCB",17-01-2024 02:00:00,21.143383,79.048912,CO,16,104,66
India,Maharashtra,Nagpur,"Ram Nagar, Nagpur - MPCB",17-01-2024 02:00:00,21.143383,79.048912,OZONE,1,87,27
India,Maharashtra,Nanded,"Sneh Nagar, Nanded - MPCB",17-01-2024 02:00:00,19.173852,77.296291,PM2.5,52,309,145
India,Maharashtra,Nanded,"Sneh Nagar, Nanded - MPCB",17-01-2024 02:00:00,19.173852,77.296291,CO,37,46,41
India,Maharashtra,Nashik,"Gangapur Road, Nashik - MPCB",17-01-2024 02:00:00,20.0073285,73.7762427,PM10,45,137,83
India,Maharashtra,Nashik,"Gangapur Road, Nashik - MPCB",17-01-2024 02:00:00,20.0073285,73.7762427,SO2,1,14,4
India,Maharashtra,Nashik,"Gangapur Road, Nashik - MPCB",17-01-2024 02:00:00,20.0073285,73.7762427,CO,18,18,18
India,Maharashtra,Nashik,"Hirawadi, Nashik - MPCB",17-01-2024 02:00:00,20.021503,73.813844,SO2,NA,NA,NA
India,Maharashtra,Nashik,"Hirawadi, Nashik - MPCB",17-01-2024 02:00:00,20.021503,73.813844,CO,12,48,34
India,Maharashtra,Nashik,"MIDC Ambad, Nashik - MPCB",17-01-2024 02:00:00,19.950220,73.731480,NO2,20,125,59
India,Maharashtra,Nashik,"MIDC Ambad, Nashik - MPCB",17-01-2024 02:00:00,19.950220,73.731480,OZONE,6,62,17
India,Maharashtra,Navi Mumbai,"Kopripada-Vashi, Navi Mumbai - MPCB",17-01-2024 02:00:00,19.090337,73.014232,PM2.5,33,411,91
India,Maharashtra,Navi Mumbai,"Kopripada-Vashi, Navi Mumbai - MPCB",17-01-2024 02:00:00,19.090337,73.014232,CO,17,95,54
India,Maharashtra,Navi Mumbai,"Mahape, Navi Mumbai - MPCB",17-01-2024 02:00:00,19.1135051,73.008978,PM10,68,348,125
India,Maharashtra,Navi Mumbai,"Nerul, Navi Mumbai - MPCB",17-01-2024 02:00:00,19.008751,73.016620,PM10,66,160,114
India,Maharashtra,Navi Mumbai,"Nerul, Navi Mumbai - MPCB",17-01-2024 02:00:00,19.008751,73.016620,NO2,19,33,25
India,Maharashtra,Navi Mumbai,"Nerul, Navi Mumbai - MPCB",17-01-2024 02:00:00,19.008751,73.016620,NH3,3,5,4
India,Maharashtra,Navi Mumbai,"Nerul, Navi Mumbai - MPCB",17-01-2024 02:00:00,19.008751,73.016620,SO2,1,8,6
India,Maharashtra,Navi Mumbai,"Sanpada, Navi Mumbai - MPCB",17-01-2024 02:00:00,19.0575752,73.0151367,NO2,1,44,20
India,Maharashtra,Navi Mumbai,"Sanpada, Navi Mumbai - MPCB",17-01-2024 02:00:00,19.0575752,73.0151367,OZONE,2,176,42
India,Maharashtra,Navi Mumbai,"Sector-19A Nerul, Navi Mumbai - IITM",17-01-2024 02:00:00,19.044,73.0325,PM2.5,93,326,203
India,Maharashtra,Navi Mumbai,"Sector-19A Nerul, Navi Mumbai - IITM",17-01-2024 02:00:00,19.044,73.0325,NH3,7,36,16
India,Maharashtra,Navi Mumbai,"Sector-2E Kalamboli, Navi Mumbai - MPCB",17-01-2024 02:00:00,19.02579,73.10297,CO,6,70,46
India,Maharashtra,Navi Mumbai,"Tondare-Taloja, Navi Mumbai - MPCB",17-01-2024 02:00:00,19.0630,73.1209,OZONE,1,148,14
India,Maharashtra,Parbhani,"Masoom Colony, Parbhani - MPCB",17-01-2024 02:00:00,19.265594,76.761463,PM10,68,169,107
India,Maharashtra,Parbhani,"Masoom Colony, Parbhani - MPCB",17-01-2024 02:00:00,19.265594,76.761463,NO2,14,73,39
India,Maharashtra,Parbhani,"Masoom Colony, Parbhani - MPCB",17-01-2024 02:00:00,19.265594,76.761463,CO,22,116,87
India,Maharashtra,Pimpri-Chinchwad,"Gavalinagar, Pimpri Chinchwad - MPCB",17-01-2024 02:00:00,18.63673,73.82487,SO2,4,18,10
India,Maharashtra,Pimpri-Chinchwad,"Park Street Wakad, Pimpri Chinchwad - MPCB",17-01-2024 02:00:00,18.59051,73.77946,PM10,97,136,113
India,Maharashtra,Pimpri-Chinchwad,"Park Street Wakad, Pimpri Chinchwad - MPCB",17-01-2024 02:00:00,18.59051,73.77946,NO2,52,141,88
India,Maharashtra,Pimpri-Chinchwad,"Thergaon, Pimpri Chinchwad - MPCB",17-01-2024 02:00:00,18.616318,73.765797,SO2,5,8,6
India,Maharashtra,Pune,"Alandi, Pune - IITM",17-01-2024 02:00:00,18.675076,73.892743,PM10,53,119,83
India,Maharashtra,Pune,"Bhosari, Pune - IITM",17-01-2024 02:00:00,18.640051,73.848956,OZONE,NA,NA,NA
India,Maharashtra,Pune,"Karve Road, Pune - MPCB",17-01-2024 02:00:00,18.5011743,73.8165527,PM10,97,104,98
India,Maharashtra,Pune,"Karve Road, Pune - MPCB",17-01-2024 02:00:00,18.5011743,73.8165527,NO2,2,2,2
India,Maharashtra,Pune,"Katraj Dairy, Pune - MPCB",17-01-2024 02:00:00,18.454450,73.854155,NO2,33,52,42
India,Maharashtra,Pune,"Mhada Colony, Pune - IITM",17-01-2024 02:00:00,18.573040,73.927715,NO2,47,128,90
India,Maharashtra,Pune,"Revenue Colony-Shivajinagar, Pune - IITM",17-01-2024 02:00:00,18.530085,73.849598,CO,88,113,106
India,Maharashtra,Pune,"Savitribai Phule Pune University, Pune - MPCB",17-01-2024 02:00:00,18.547056,73.826908,PM10,NA,NA,NA
India,Maharashtra,Pune,"Savitribai Phule Pune University, Pune - MPCB",17-01-2024 02:00:00,18.547056,73.826908,NH3,NA,NA,NA
India,Maharashtra,Pune,"Savitribai Phule Pune University, Pune - MPCB",17-01-2024 02:00:00,18.547056,73.826908,SO2,NA,NA,NA
India,Maharashtra,Pune,"Transport Nagar-Nigdi, Pune - IITM",17-01-2024 02:00:00,18.664282,73.763966,CO,33,65,52
India,Maharashtra,Sangli,"Vijay Nagar, Sangli - MPCB",17-01-2024 02:00:00, 16.5038,74.3623,PM2.5,67,215,112
India,Maharashtra,Sangli,"Vijay Nagar, Sangli - MPCB",17-01-2024 02:00:00, 16.5038,74.3623,NH3,1,4,2
India,Maharashtra,Solapur,"Ratandeep Housing Society, Solapur - MPCB",17-01-2024 02:00:00,17.65439,75.90649,PM10,68,163,117
India,Maharashtra,Solapur,"Solapur, Solapur - MPCB",17-01-2024 02:00:00,17.6599188,75.9063906,PM10,94,194,138
India,Maharashtra,Solapur,"Solapur, Solapur - MPCB",17-01-2024 02:00:00,17.6599188,75.9063906,OZONE,32,81,35
India,Maharashtra,Thane,"Kasarvadavali, Thane - MPCB",17-01-2024 02:00:00,19.26777,72.97182,NO2,29,56,40
India,Maharashtra,Ulhasnagar,"Sidhi Vinayak Nagar, Ulhasnagar - MPCB",17-01-2024 02:00:00,19.235581,73.159121,PM2.5,85,300,145
India,Maharashtra,Ulhasnagar,"Sidhi Vinayak Nagar, Ulhasnagar - MPCB",17-01-2024 02:00:00,19.235581,73.159121,PM10,109,155,127
India,Maharashtra,Ulhasnagar,"Sidhi Vinayak Nagar, Ulhasnagar - MPCB",17-01-2024 02:00:00,19.235581,73.159121,NO2,16,72,34
India,Maharashtra,Ulhasnagar,"Sidhi Vinayak Nagar, Ulhasnagar - MPCB",17-01-2024 02:00:00,19.235581,73.159121,SO2,17,90,40
India,Maharashtra,Virar,"Bolinj, Virar - MPCB",17-01-2024 02:00:00,19.4458210,72.7988231,NH3,4,5,4
India,Manipur,Imphal,"DM College of Science, Imphal - Manipur PCB",17-01-2024 02:00:00,24.8207389,93.9423085,NH3,2,2,2
India,Manipur,Imphal,"Manipur University, Imphal - Manipur PCB",17-01-2024 02:00:00,24.7524239,93.9286218,NO2,6,29,13
India,Manipur,Imphal,"Manipur University, Imphal - Manipur PCB",17-01-2024 02:00:00,24.7524239,93.9286218,OZONE,NA,NA,NA
India,Meghalaya,Shillong,"JN Stadium, Shillong - Meghalaya PCB",17-01-2024 02:00:00,25.5803419,91.8942571,CO,10,88,66
India,Nagaland,Kohima,"PWD Juction, Kohima - NPCB",17-01-2024 02:00:00,25.6635413,94.0989878,SO2,86,93,88
India,Odisha,Angul,"Hakimapada, Angul - OSPCB",17-01-2024 02:00:00,20.832874,85.104082,NO2,15,66,33
India,Odisha,Angul,"Hakimapada, Angul - OSPCB",17-01-2024 02:00:00,20.832874,85.104082,CO,10,100,36
India,Odisha,Balasore,"Kalidaspur, Balasore - OSPCB",17-01-2024 02:00:00,21.51161,86.89088,NH3,4,9,6
India,Odisha,Barbil,"Forest Office, Barbil - OSPCB",17-01-2024 02:00:00,22.1166054,85.3945546,PM2.5,73,328,194
India,Odisha,Barbil,"Forest Office, Barbil - OSPCB",17-01-2024 02:00:00,22.1166054,85.3945546,SO2,1,35,10
India,Odisha,Barbil,"Forest Office, Barbil - OSPCB",17-01-2024 02:00:00,22.1166054,85.3945546,CO,40,92,64
India,Odisha,Bhubaneswar,"Lingraj Mandir, Bhubaneswar - OSPCB",17-01-2024 02:00:00,20.240790,85.836784,NO2,14,45,25
India,Odisha,Bhubaneswar,"Lingraj Mandir, Bhubaneswar - OSPCB",17-01-2024 02:00:00,20.240790,85.836784,NH3,3,8,4
India,Odisha,Bhubaneswar,"Lingraj Mandir, Bhubaneswar - OSPCB",17-01-2024 02:00:00,20.240790,85.836784,CO,55,91,73
India,Odisha,Bhubaneswar,"Patia, Bhubaneswar - OSPCB",17-01-2024 02:00:00,20.34652,85.81630,SO2,7,16,10
India,Odisha,Bhubaneswar,"Patia, Bhubaneswar - OSPCB",17-01-2024 02:00:00,20.34652,85.81630,CO,20,55,33
India,Odisha,Bileipada,"Tata Township, Bileipada - OSPCB",17-01-2024 02:00:00,22.06156703,85.47409613,SO2,6,39,15
India,Odisha,Brajrajnagar,"GM Office, Brajrajnagar - OSPCB",17-01-2024 02:00:00,21.8004996,83.8396977,CO,50,104,83
India,Odisha,Byasanagar,"Ferro Chrome Colony, Byasanagar - OSPCB",17-01-2024 02:00:00,20.94185,86.11510,PM2.5,273,344,319
India,Odisha,Byasanagar,"Ferro Chrome Colony, Byasanagar - OSPCB",17-01-2024 02:00:00,20.94185,86.11510,CO,66,119,105
India,Odisha,Cuttack,"CDA Area, Cuttack - OSPCB",17-01-2024 02:00:00,20.48891     ,85.84768     ,PM2.5,190,345,310
India,Odisha,Cuttack,"CDA Area, Cuttack - OSPCB",17-01-2024 02:00:00,20.48891     ,85.84768     ,NO2,23,35,29
India,Odisha,Nayagarh,"Dabuna, Nayagarh - OSPCB",17-01-2024 02:00:00,21.847279,85.416905,PM10,NA,NA,NA
India,Odisha,Nayagarh,"Dabuna, Nayagarh - OSPCB",17-01-2024 02:00:00,21.847279,85.416905,SO2,NA,NA,NA
India,Odisha,Rairangpur,"Divisional Forest Office, Rairangpur - OSPCB",17-01-2024 02:00:00,22.265816,86.174829,NH3,3,3,3
India,Odisha,Rairangpur,"Divisional Forest Office, Rairangpur - OSPCB",17-01-2024 02:00:00,22.265816,86.174829,SO2,2,18,10
India,Odisha,Rourkela,"Fertilizer Township, Rourkela - OSPCB",17-01-2024 02:00:00,22.18972222,84.86277778,PM2.5,55,309,161
India,Odisha,Rourkela,"Fertilizer Township, Rourkela - OSPCB",17-01-2024 02:00:00,22.18972222,84.86277778,SO2,12,13,13
India,Odisha,Rourkela,"Sector-2, Rourkela - OSPCB",17-01-2024 02:00:00,22.24500000,84.88111111,NO2,33,34,33
India,Odisha,Tensa,"Barsua Iron Ore Mines, Tensa - OSPCB",17-01-2024 02:00:00,21.869985,85.167016,PM2.5,NA,NA,NA
India,Odisha,Tensa,"Barsua Iron Ore Mines, Tensa - OSPCB",17-01-2024 02:00:00,21.869985,85.167016,CO,26,32,29
India,Puducherry,Puducherry,"Jawahar Nagar, Puducherry - PPCC",17-01-2024 02:00:00,11.9309,79.8027,PM10,43,92,60
India,Puducherry,Puducherry,"Jawahar Nagar, Puducherry - PPCC",17-01-2024 02:00:00,11.9309,79.8027,SO2,3,9,6
India,Puducherry,Puducherry,"Jawahar Nagar, Puducherry - PPCC",17-01-2024 02:00:00,11.9309,79.8027,OZONE,19,65,51
India,Punjab,Jalandhar,"Civil Line, Jalandhar - PPCB",17-01-2024 02:00:00,31.321907,75.578914,NH3,2,9,4
India,Punjab,Khanna,"Kalal Majra, Khanna - PPCB",17-01-2024 02:00:00,30.736056 ,76.209694,PM2.5,14,427,164
India,Punjab,Khanna,"Kalal Majra, Khanna - PPCB",17-01-2024 02:00:00,30.736056 ,76.209694,NO2,29,44,31
India,Punjab,Khanna,"Kalal Majra, Khanna - PPCB",17-01-2024 02:00:00,30.736056 ,76.209694,SO2,6,56,20
India,Punjab,Ludhiana,"Punjab Agricultural University, Ludhiana - PPCB",17-01-2024 02:00:00,30.9028,75.8086,CO,24,148,129
India,Rajasthan,Alwar,"Moti Doongri, Alwar - RSPCB",17-01-2024 02:00:00,27.554793,76.611536,CO,50,104,87
India,Rajasthan,Banswara,"Rati Talai, Banswara - RSPCB",17-01-2024 02:00:00,23.555190,74.440010,OZONE,8,127,38
India,Rajasthan,Baran,"Bamboliya, Baran - RSPCB",17-01-2024 02:00:00,25.106006,76.469948,PM10,78,142,112
India,Rajasthan,Barmer,"Railway Colony, Barmer - RSPCB",17-01-2024 02:00:00,25.747299,71.393989,SO2,10,27,16
India,Rajasthan,Barmer,"Railway Colony, Barmer - RSPCB",17-01-2024 02:00:00,25.747299,71.393989,CO,4,66,35
India,Rajasthan,Bharatpur,"Krishna Nagar, Bharatpur - RSPCB",17-01-2024 02:00:00,27.215415,77.50873,CO,74,128,115
India,Rajasthan,Bhilwara,"Pratap Nagar, Bhilwara - RSPCB",17-01-2024 02:00:00,25.339605,74.618883,SO2,1,32,11
India,Rajasthan,Bhiwadi,"RIICO Ind. Area III, Bhiwadi - RSPCB",17-01-2024 02:00:00,28.194909,76.862296,PM10,127,427,260
India,Rajasthan,Bhiwadi,"RIICO Ind. Area III, Bhiwadi - RSPCB",17-01-2024 02:00:00,28.194909,76.862296,SO2,2,23,11
India,Rajasthan,Bhiwadi,"RIICO Ind. Area III, Bhiwadi - RSPCB",17-01-2024 02:00:00,28.194909,76.862296,CO,18,132,68
India,Rajasthan,Bikaner,"MM Ground, Bikaner - RSPCB",17-01-2024 02:00:00,28.018792,73.292658,PM10,113,410,224
India,Rajasthan,Bundi,"New Colony, Bundi - RSPCB",17-01-2024 02:00:00,25.435774,75.644272,PM10,110,218,140
India,Rajasthan,Bundi,"New Colony, Bundi - RSPCB",17-01-2024 02:00:00,25.435774,75.644272,NO2,19,79,36
India,Rajasthan,Bundi,"New Colony, Bundi - RSPCB",17-01-2024 02:00:00,25.435774,75.644272,NH3,4,5,4
India,Rajasthan,Bundi,"New Colony, Bundi - RSPCB",17-01-2024 02:00:00,25.435774,75.644272,SO2,2,31,7
India,Rajasthan,Bundi,"New Colony, Bundi - RSPCB",17-01-2024 02:00:00,25.435774,75.644272,OZONE,14,157,71
India,Rajasthan,Chittorgarh,"Shastri Nagar, Chittorgarh - RSPCB",17-01-2024 02:00:00,24.892047,74.623527,SO2,NA,NA,NA
India,Rajasthan,Chittorgarh,"Shastri Nagar, Chittorgarh - RSPCB",17-01-2024 02:00:00,24.892047,74.623527,CO,NA,NA,NA
India,Rajasthan,Chittorgarh,"Shastri Nagar, Chittorgarh - RSPCB",17-01-2024 02:00:00,24.892047,74.623527,OZONE,NA,NA,NA
India,Rajasthan,Churu,"Subash Chowk, Churu - RSPCB",17-01-2024 02:00:00,28.296139,74.961696,PM2.5,56,396,265
India,Rajasthan,Churu,"Subash Chowk, Churu - RSPCB",17-01-2024 02:00:00,28.296139,74.961696,SO2,6,16,10
India,Rajasthan,Dausa,"Khatikan Mohalla, Dausa - RSPCB",17-01-2024 02:00:00,26.895552,76.334753,OZONE,6,100,33
India,Rajasthan,Dungarpur,"Bhoiwada, Dungarpur - RSPCB",17-01-2024 02:00:00,23.837789,73.714926,PM2.5,70,314,117
India,Rajasthan,Dungarpur,"Bhoiwada, Dungarpur - RSPCB",17-01-2024 02:00:00,23.837789,73.714926,SO2,4,7,6
India,Rajasthan,Hanumangarh,"Housing Board, Hanumangarh - RSPCB",17-01-2024 02:00:00,29.610750,74.283608,PM2.5,173,377,289
India,Rajasthan,Jaipur,"Adarsh Nagar, Jaipur - RSPCB",17-01-2024 02:00:00,26.902909,75.836858,OZONE,34,96,61
India,Rajasthan,Jaipur,"Mansarovar Sector-12, Jaipur - RSPCB",17-01-2024 02:00:00,26.843698,75.766894,SO2,3,11,6
India,Rajasthan,Jaipur,"Mansarovar Sector-12, Jaipur - RSPCB",17-01-2024 02:00:00,26.843698,75.766894,CO,23,79,56
India,Rajasthan,Jaipur,"RIICO Sitapura, Jaipur - RSPCB",17-01-2024 02:00:00,26.786682,75.827928,PM10,108,238,153
India,Rajasthan,Jaipur,"RIICO Sitapura, Jaipur - RSPCB",17-01-2024 02:00:00,26.786682,75.827928,NH3,2,8,4
India,Rajasthan,Jaipur,"Shastri Nagar, Jaipur - RSPCB",17-01-2024 02:00:00,26.9502929,75.730943,PM2.5,NA,NA,NA
India,Rajasthan,Jaipur,"Shastri Nagar, Jaipur - RSPCB",17-01-2024 02:00:00,26.9502929,75.730943,SO2,NA,NA,NA
India,Rajasthan,Jalore,"Mudtra Sili, Jalore - RSPCB",17-01-2024 02:00:00,25.344694,72.626208,NO2,24,111,62
India,Rajasthan,Jalore,"Mudtra Sili, Jalore - RSPCB",17-01-2024 02:00:00,25.344694,72.626208,SO2,7,16,11
India,Rajasthan,Jalore,"Mudtra Sili, Jalore - RSPCB",17-01-2024 02:00:00,25.344694,72.626208,CO,36,120,88
India,Rajasthan,Jhunjhunu,"Indra Nagar, Jhunjhunu - RSPCB",17-01-2024 02:00:00,28.108988,75.386577,PM2.5,78,465,296
India,Rajasthan,Jhunjhunu,"Indra Nagar, Jhunjhunu - RSPCB",17-01-2024 02:00:00,28.108988,75.386577,PM10,105,401,221
India,Rajasthan,Jodhpur,"Digari Kalan, Jodhpur - RSPCB",17-01-2024 02:00:00,26.295810,73.082283,NH3,5,14,8
India,Rajasthan,Jodhpur,"Digari Kalan, Jodhpur - RSPCB",17-01-2024 02:00:00,26.295810,73.082283,CO,10,132,97
India,Rajasthan,Jodhpur,"Mandor, Jodhpur - RSPCB",17-01-2024 02:00:00,26.358805,73.047444,NH3,6,24,11
India,Rajasthan,Jodhpur,"Samrat Ashok Udhyan, Jodhpur - RSPCB",17-01-2024 02:00:00,26.253384,72.976571,PM10,58,447,193
India,Rajasthan,Jodhpur,"Samrat Ashok Udhyan, Jodhpur - RSPCB",17-01-2024 02:00:00,26.253384,72.976571,NO2,11,150,90
India,Rajasthan,Karauli,"Satyawati Vihar, Karauli - RSPCB",17-01-2024 02:00:00,26.506177,77.025989,PM2.5,101,372,277
India,Rajasthan,Karauli,"Satyawati Vihar, Karauli - RSPCB",17-01-2024 02:00:00,26.506177,77.025989,NH3,8,9,8
India,Rajasthan,Karauli,"Satyawati Vihar, Karauli - RSPCB",17-01-2024 02:00:00,26.506177,77.025989,OZONE,18,61,26
India,Rajasthan,Kota,"Dhanmandi, Kota - RSPCB",17-01-2024 02:00:00,25.164090,75.858137,SO2,2,121,31
India,Rajasthan,Kota,"Nayapura, Kota - RSPCB",17-01-2024 02:00:00,25.196024,75.855668,NO2,30,93,58
India,Rajasthan,Kota,"Nayapura, Kota - RSPCB",17-01-2024 02:00:00,25.196024,75.855668,SO2,3,7,4
India,Rajasthan,Kota,"Nayapura, Kota - RSPCB",17-01-2024 02:00:00,25.196024,75.855668,CO,5,58,15
India,Rajasthan,Kota,"Shrinath Puram, Kota - RSPCB",17-01-2024 02:00:00,25.14389,75.821256,OZONE,13,99,43
India,Rajasthan,Nagaur,"Karni Colony, Nagaur - RSPCB",17-01-2024 02:00:00,27.213494,73.734444,NO2,20,120,45
India,Rajasthan,Pali,"Indira Colony Vistar, Pali - RSPCB",17-01-2024 02:00:00,25.771061, 73.340227,NO2,18,69,40
India,Rajasthan,Sawai Madhopur,"Sahu Nagar, Sawai Madhopur - RSPCB",17-01-2024 02:00:00,26.031443,76.359327,NO2,23,24,24
India,Rajasthan,Sikar,"Radhakishan Pura, Sikar - RSPCB",17-01-2024 02:00:00,27.608912,75.153302,NH3,2,4,3
India,Rajasthan,Sirohi,"Vedhaynath Colony, Sirohi - RSPCB",17-01-2024 02:00:00,24.885261,72.857549,PM2.5,33,318,75
India,Rajasthan,Sirohi,"Vedhaynath Colony, Sirohi - RSPCB",17-01-2024 02:00:00,24.885261,72.857549,PM10,56,203,100
India,Rajasthan,Sirohi,"Vedhaynath Colony, Sirohi - RSPCB",17-01-2024 02:00:00,24.885261,72.857549,NO2,7,80,34
India,Rajasthan,Tonk,"Shastri Nagar, Tonk - RSPCB",17-01-2024 02:00:00,26.159933,75.780517,PM2.5,97,293,171
India,Rajasthan,Tonk,"Shastri Nagar, Tonk - RSPCB",17-01-2024 02:00:00,26.159933,75.780517,NH3,5,16,8
India,Rajasthan,Tonk,"Shastri Nagar, Tonk - RSPCB",17-01-2024 02:00:00,26.159933,75.780517,SO2,1,12,4
India,Rajasthan,Tonk,"Shastri Nagar, Tonk - RSPCB",17-01-2024 02:00:00,26.159933,75.780517,OZONE,16,97,56
India,Rajasthan,Udaipur,"Ashok Nagar, Udaipur - RSPCB",17-01-2024 02:00:00,24.5886166,73.6321397,PM10,79,162,118
India,Rajasthan,Udaipur,"Ashok Nagar, Udaipur - RSPCB",17-01-2024 02:00:00,24.5886166,73.6321397,NH3,5,16,9
India,Rajasthan,Udaipur,"Ashok Nagar, Udaipur - RSPCB",17-01-2024 02:00:00,24.5886166,73.6321397,CO,38,117,99
India,TamilNadu,Ariyalur,"Keelapalur, Ariyalur - TNPCB",17-01-2024 02:00:00,11.06825,79.07033,NO2,11,28,19
India,TamilNadu,Chennai,"Alandur Bus Depot, Chennai - CPCB",17-01-2024 02:00:00,12.9099161,80.1076538,OZONE,17,29,20
India,TamilNadu,Chennai,"Arumbakkam, Chennai - TNPCB",17-01-2024 02:00:00,13.0664,80.2112 ,NH3,2,5,3
India,TamilNadu,Chennai,"Gandhi Nagar_Ennore, Chennai - TNPCB",17-01-2024 02:00:00,13.218341,80.32027,PM10,17,145,55
India,TamilNadu,Chennai,"Gandhi Nagar_Ennore, Chennai - TNPCB",17-01-2024 02:00:00,13.218341,80.32027,SO2,25,27,26
India,TamilNadu,Chennai,"Gandhi Nagar_Ennore, Chennai - TNPCB",17-01-2024 02:00:00,13.218341,80.32027,OZONE,2,3,2
India,TamilNadu,Chennai,"Kodungaiyur, Chennai - TNPCB",17-01-2024 02:00:00,13.1278,80.2642,NO2,6,26,13
India,TamilNadu,Chennai,"Kodungaiyur, Chennai - TNPCB",17-01-2024 02:00:00,13.1278,80.2642,NH3,3,6,4
India,TamilNadu,Chennai,"Manali, Chennai - CPCB",17-01-2024 02:00:00,13.164544,80.26285,PM2.5,20,347,189
India,TamilNadu,Chennai,"Perungudi, Chennai - TNPCB",17-01-2024 02:00:00,12.9533,80.2357,PM2.5,22,301,88
India,TamilNadu,Chennai,"Perungudi, Chennai - TNPCB",17-01-2024 02:00:00,12.9533,80.2357,OZONE,6,17,11
India,TamilNadu,Chennai,"Royapuram, Chennai - TNPCB",17-01-2024 02:00:00,13.1036,80.2909,PM2.5,15,208,49
India,TamilNadu,Chennai,"Royapuram, Chennai - TNPCB",17-01-2024 02:00:00,13.1036,80.2909,OZONE,9,10,9
India,TamilNadu,Chennai,"Velachery Res. Area, Chennai - CPCB",17-01-2024 02:00:00,13.0052189,80.2398125,SO2,11,11,11
India,TamilNadu,Cuddalore,"Kudikadu, Cuddalore - TNPCB",17-01-2024 02:00:00,11.6829898,79.7532099,PM10,56,136,94
India,TamilNadu,Cuddalore,"Semmandalam, Cuddalore - TNPCB",17-01-2024 02:00:00,11.7637683,79.7499835,PM2.5,NA,NA,NA
India,TamilNadu,Cuddalore,"Semmandalam, Cuddalore - TNPCB",17-01-2024 02:00:00,11.7637683,79.7499835,PM10,NA,NA,NA
India,TamilNadu,Gummidipoondi,"Anthoni Pillai Nagar, Gummidipoondi - TNPCB",17-01-2024 02:00:00,13.4127,80.1081,NO2,9,12,10
India,TamilNadu,Ramanathapuram,"Chalai Bazaar, Ramanathapuram - TNPCB",17-01-2024 02:00:00,9.36399,78.831977,PM2.5,NA,NA,NA
India,TamilNadu,Ramanathapuram,"Chalai Bazaar, Ramanathapuram - TNPCB",17-01-2024 02:00:00,9.36399,78.831977,PM10,52,115,76
India,TamilNadu,Ramanathapuram,"Chalai Bazaar, Ramanathapuram - TNPCB",17-01-2024 02:00:00,9.36399,78.831977,CO,2,7,4
India,TamilNadu,Thoothukudi,"Meelavittan, Thoothukudi - TNPCB",17-01-2024 02:00:00,8.816428 ,78.099039,CO,2,24,14
India,TamilNadu,Tiruchirappalli,"St Joseph College, Tiruchirappalli - TNPCB",17-01-2024 02:00:00,10.830158,78.691849,PM10,53,113,83
India,TamilNadu,Tirupur,"Kumaran College, Tirupur - TNPCB",17-01-2024 02:00:00,11.0973603,77.3228673,PM2.5,43,88,58
India,TamilNadu,Tirupur,"Kumaran College, Tirupur - TNPCB",17-01-2024 02:00:00,11.0973603,77.3228673,SO2,19,20,19
India,Telangana,Hyderabad,"Bollaram Industrial Area, Hyderabad - TSPCB",17-01-2024 02:00:00,17.540891,78.358528,OZONE,37,40,39
India,Telangana,Hyderabad,"ECIL Kapra, Hyderabad - TSPCB",17-01-2024 02:00:00,17.470431,78.566959,NO2,16,16,16
India,Telangana,Hyderabad,"ECIL Kapra, Hyderabad - TSPCB",17-01-2024 02:00:00,17.470431,78.566959,SO2,NA,NA,NA
India,Telangana,Hyderabad,"ICRISAT Patancheru, Hyderabad - TSPCB",17-01-2024 02:00:00,17.518400,78.278777,OZONE,9,104,78
India,Telangana,Hyderabad,"IITH Kandi, Hyderabad - TSPCB",17-01-2024 02:00:00,17.585705,78.126199,NO2,NA,NA,NA
India,Telangana,Hyderabad,"Kompally Municipal Office, Hyderabad - TSPCB",17-01-2024 02:00:00,17.544899,78.486949,SO2,9,40,17
India,Telangana,Hyderabad,"Nacharam_TSIIC IALA, Hyderabad - TSPCB",17-01-2024 02:00:00,17.429398,78.569354,SO2,3,15,9
India,Telangana,Hyderabad,"Nacharam_TSIIC IALA, Hyderabad - TSPCB",17-01-2024 02:00:00,17.429398,78.569354,CO,20,26,21
India,Telangana,Hyderabad,"Ramachandrapuram, Hyderabad - TSPCB",17-01-2024 02:00:00,17.528544,78.286195,PM10,70,74,72
India,Telangana,Hyderabad,"Somajiguda, Hyderabad - TSPCB",17-01-2024 02:00:00,17.417094,78.457437,OZONE,5,26,16
India,Telangana,Hyderabad,"Zoo Park, Hyderabad - TSPCB",17-01-2024 02:00:00,17.349694,78.451437,PM10,65,158,101
India,Telangana,Hyderabad,"Zoo Park, Hyderabad - TSPCB",17-01-2024 02:00:00,17.349694,78.451437,OZONE,4,35,22
India,Tripura,Agartala,"Bardowali, Agartala - Tripura SPCB",17-01-2024 02:00:00,23.8175497,91.2726974,PM10,139,449,249
India,Uttar_Pradesh,Agra,"Rohta, Agra - UPPCB",17-01-2024 02:00:00,27.106972,78.000111,PM2.5,40,310,95
India,Uttar_Pradesh,Agra,"Rohta, Agra - UPPCB",17-01-2024 02:00:00,27.106972,78.000111,SO2,11,27,16
India,Uttar_Pradesh,Agra,"Sector-3B Avas Vikas Colony, Agra - UPPCB",17-01-2024 02:00:00,27.19412,77.96237,PM2.5,37,138,76
India,Uttar_Pradesh,Agra,"Sector-3B Avas Vikas Colony, Agra - UPPCB",17-01-2024 02:00:00,27.19412,77.96237,NO2,24,56,39
India,Uttar_Pradesh,Agra,"Shahjahan Garden, Agra - UPPCB",17-01-2024 02:00:00,27.169338,78.03582,PM2.5,NA,NA,NA
India,Uttar_Pradesh,Agra,"Shastripuram, Agra - UPPCB",17-01-2024 02:00:00,27.19862,77.92066,CO,9,19,13
India,Uttar_Pradesh,Baghpat,"Sardar Patel Inter College, Baghpat - UPPCB",17-01-2024 02:00:00,28.964949,77.278761,PM2.5,117,324,231
India,Uttar_Pradesh,Bareilly,"Civil Lines, Bareilly - UPPCB",17-01-2024 02:00:00,28.359581,79.414455,PM10,40,94,60
India,Uttar_Pradesh,Bulandshahr,"Yamunapuram, Bulandshahr - UPPCB",17-01-2024 02:00:00,28.406963,77.849831,PM10,84,194,142
India,Uttar_Pradesh,Bulandshahr,"Yamunapuram, Bulandshahr - UPPCB",17-01-2024 02:00:00,28.406963,77.849831,SO2,6,10,8
India,Uttar_Pradesh,Firozabad,"Vibhab Nagar, Firozabad - UPPCB",17-01-2024 02:00:00,27.1594,78.3953,OZONE,22,52,39
India,Uttar_Pradesh,Ghaziabad,"Loni, Ghaziabad - UPPCB",17-01-2024 02:00:00,28.757294,77.278792,CO,16,106,72
India,Uttar_Pradesh,Ghaziabad,"Sanjay Nagar, Ghaziabad - UPPCB",17-01-2024 02:00:00,28.685382,77.453839,CO,32,64,44
India,Uttar_Pradesh,Ghaziabad,"Vasundhara, Ghaziabad - UPPCB",17-01-2024 02:00:00,28.6603346,77.3572563,PM10,126,196,167
India,Uttar_Pradesh,Ghaziabad,"Vasundhara, Ghaziabad - UPPCB",17-01-2024 02:00:00,28.6603346,77.3572563,OZONE,3,163,33
India,Uttar_Pradesh,Gorakhpur,"Madan Mohan Malaviya University of Technology, Gorakhpur - UPPCB",17-01-2024 02:00:00,26.730136,83.433859,SO2,39,41,40
India,Uttar_Pradesh,Gorakhpur,"Madan Mohan Malaviya University of Technology, Gorakhpur - UPPCB",17-01-2024 02:00:00,26.730136,83.433859,OZONE,4,10,4
India,Uttar_Pradesh,Greater Noida,"Knowledge Park - III, Greater Noida - UPPCB",17-01-2024 02:00:00,28.47272,77.482000,CO,56,90,76
India,Uttar_Pradesh,Greater Noida,"Knowledge Park - III, Greater Noida - UPPCB",17-01-2024 02:00:00,28.47272,77.482000,OZONE,1,21,16
India,Uttar_Pradesh,Greater Noida,"Knowledge Park - V, Greater Noida - UPPCB",17-01-2024 02:00:00,28.557054,77.453663,PM10,103,358,218
India,Uttar_Pradesh,Kanpur,"NSI Kalyanpur, Kanpur - UPPCB",17-01-2024 02:00:00,26.509954,80.249612,PM2.5,42,308,139
India,Uttar_Pradesh,Kanpur,"NSI Kalyanpur, Kanpur - UPPCB",17-01-2024 02:00:00,26.509954,80.249612,CO,43,104,86
India,Uttar_Pradesh,Kanpur,"Nehru Nagar, Kanpur - UPPCB",17-01-2024 02:00:00,26.4703136,80.3229863,CO,4,113,62
India,Uttar_Pradesh,Khurja,"Kalindi Kunj, Khurja - UPPCB",17-01-2024 02:00:00,28.2348927,77.8683002,SO2,40,48,44
India,Uttar_Pradesh,Lucknow,"B R Ambedkar University, Lucknow - UPPCB",17-01-2024 02:00:00,26.766433,80.927299,PM2.5,35,139,80
India,Uttar_Pradesh,Lucknow,"B R Ambedkar University, Lucknow - UPPCB",17-01-2024 02:00:00,26.766433,80.927299,NO2,11,13,12
India,Uttar_Pradesh,Lucknow,"B R Ambedkar University, Lucknow - UPPCB",17-01-2024 02:00:00,26.766433,80.927299,NH3,5,7,6
India,Uttar_Pradesh,Lucknow,"B R Ambedkar University, Lucknow - UPPCB",17-01-2024 02:00:00,26.766433,80.927299,CO,17,32,26
India,Uttar_Pradesh,Lucknow,"Gomti Nagar, Lucknow - UPPCB",17-01-2024 02:00:00,26.868120,81.005119,SO2,NA,NA,NA
India,Uttar_Pradesh,Lucknow,"Kendriya Vidyalaya, Lucknow - CPCB",17-01-2024 02:00:00,26.906111,80.948222,PM10,100,152,128
India,Uttar_Pradesh,Lucknow,"Lalbagh, Lucknow - CPCB",17-01-2024 02:00:00,26.8458805,80.9365541,NH3,11,13,12
India,Uttar_Pradesh,Lucknow,"Lalbagh, Lucknow - CPCB",17-01-2024 02:00:00,26.8458805,80.9365541,CO,54,112,87
India,Uttar_Pradesh,Lucknow,"Talkatora District Industries Center, Lucknow - CPCB",17-01-2024 02:00:00,26.83399722,80.8917361,CO,8,62,31
India,Uttar_Pradesh,Meerut,"Ganga Nagar, Meerut - UPPCB",17-01-2024 02:00:00,28.999264,77.7590354,NH3,6,12,9
India,Uttar_Pradesh,Meerut,"Jai Bhim Nagar, Meerut - UPPCB",17-01-2024 02:00:00,28.9535882,77.7622941,PM2.5,69,316,196
India,Uttar_Pradesh,Meerut,"Jai Bhim Nagar, Meerut - UPPCB",17-01-2024 02:00:00,28.9535882,77.7622941,PM10,50,151,105
India,Uttar_Pradesh,Meerut,"Jai Bhim Nagar, Meerut - UPPCB",17-01-2024 02:00:00,28.9535882,77.7622941,SO2,3,10,7
India,Uttar_Pradesh,Meerut,"Pallavpuram Phase 2, Meerut - UPPCB",17-01-2024 02:00:00,29.063510,77.709723,PM10,84,205,139
India,Uttar_Pradesh,Meerut,"Pallavpuram Phase 2, Meerut - UPPCB",17-01-2024 02:00:00,29.063510,77.709723,NH3,3,4,3
India,Uttar_Pradesh,Meerut,"Pallavpuram Phase 2, Meerut - UPPCB",17-01-2024 02:00:00,29.063510,77.709723,SO2,1,4,2
India,Uttar_Pradesh,Moradabad,"Buddhi Vihar, Moradabad - UPPCB",17-01-2024 02:00:00,28.83526,78.74460,NO2,23,24,23
India,Uttar_Pradesh,Moradabad,"Buddhi Vihar, Moradabad - UPPCB",17-01-2024 02:00:00,28.83526,78.74460,OZONE,12,16,13
India,Uttar_Pradesh,Moradabad,"Eco Herbal Park, Moradabad - UPPCB",17-01-2024 02:00:00,28.840739,78.697531,NH3,5,9,7
India,Uttar_Pradesh,Moradabad,"Employment Office, Moradabad - UPPCB",17-01-2024 02:00:00,28.88528,78.73880,PM2.5,59,303,144
India,Uttar_Pradesh,Moradabad,"Employment Office, Moradabad - UPPCB",17-01-2024 02:00:00,28.88528,78.73880,NO2,24,26,26
India,Uttar_Pradesh,Moradabad,"Jigar Colony, Moradabad - UPPCB",17-01-2024 02:00:00,28.856664,78.772638,CO,24,74,64
India,Uttar_Pradesh,Moradabad,"Jigar Colony, Moradabad - UPPCB",17-01-2024 02:00:00,28.856664,78.772638,OZONE,9,301,57
India,Uttar_Pradesh,Moradabad,"Kashiram Nagar, Moradabad - UPPCB",17-01-2024 02:00:00,28.849399,78.742362,NH3,3,4,4
India,Uttar_Pradesh,Moradabad,"Kashiram Nagar, Moradabad - UPPCB",17-01-2024 02:00:00,28.849399,78.742362,OZONE,11,232,26
India,Uttar_Pradesh,Muzaffarnagar,"New Mandi, Muzaffarnagar - UPPCB",17-01-2024 02:00:00,29.4723508,77.7194031,PM2.5,132,399,298
India,Uttar_Pradesh,Noida,"Sector - 62, Noida - IMD",17-01-2024 02:00:00,28.6245479,77.3577104,PM2.5,300,387,348
India,Uttar_Pradesh,Noida,"Sector-1, Noida - UPPCB",17-01-2024 02:00:00,28.5898,77.3101,NO2,41,81,60
India,Uttar_Pradesh,Noida,"Sector-1, Noida - UPPCB",17-01-2024 02:00:00,28.5898,77.3101,OZONE,1,3,2
India,Uttar_Pradesh,Noida,"Sector-116, Noida - UPPCB",17-01-2024 02:00:00,28.569230,77.393848,PM2.5,257,373,330
India,Uttar_Pradesh,Noida,"Sector-116, Noida - UPPCB",17-01-2024 02:00:00,28.569230,77.393848,SO2,14,19,16
India,Uttar_Pradesh,Prayagraj,"Jhunsi, Prayagraj - UPPCB",17-01-2024 02:00:00,25.425602,81.917152,CO,37,70,54
India,Uttar_Pradesh,Prayagraj,"Nagar Nigam, Prayagraj - UPPCB",17-01-2024 02:00:00,25.44919916 ,81.82735986 ,PM10,56,162,124
India,Uttar_Pradesh,Prayagraj,"Nagar Nigam, Prayagraj - UPPCB",17-01-2024 02:00:00,25.44919916 ,81.82735986 ,NH3,2,8,5
India,Uttar_Pradesh,Varanasi,"Ardhali Bazar, Varanasi - UPPCB",17-01-2024 02:00:00,25.3505986,82.9083074,SO2,13,18,15
India,Uttar_Pradesh,Varanasi,"Bhelupur, Varanasi - UPPCB",17-01-2024 02:00:00,25.301778,82.996789,PM2.5,28,55,39
India,Uttar_Pradesh,Varanasi,"Bhelupur, Varanasi - UPPCB",17-01-2024 02:00:00,25.301778,82.996789,SO2,20,21,20
India,Uttar_Pradesh,Varanasi,"IESD Banaras Hindu University, Varanasi - UPPCB",17-01-2024 02:00:00,25.262326,82.995408,NO2,2,3,2
India,Uttarakhand,Kashipur,"Govt. Girls Inter College, Kashipur - UKPCB",17-01-2024 02:00:00,29.2124114,78.9611753,PM2.5,NA,NA,NA
India,Uttarakhand,Rishikesh,"Shivaji Nagar, Rishikesh - UKPCB",17-01-2024 02:00:00,30.075911,78.2859547,PM2.5,24,92,57
India,Uttarakhand,Rishikesh,"Shivaji Nagar, Rishikesh - UKPCB",17-01-2024 02:00:00,30.075911,78.2859547,PM10,54,128,84
India,Uttarakhand,Rishikesh,"Shivaji Nagar, Rishikesh - UKPCB",17-01-2024 02:00:00,30.075911,78.2859547,CO,41,72,52
India,West_Bengal,Barrackpore,"SVSPA Campus, Barrackpore - WBPCB",17-01-2024 02:00:00,22.7605581,88.3617589,PM2.5,196,324,260
India,West_Bengal,Barrackpore,"SVSPA Campus, Barrackpore - WBPCB",17-01-2024 02:00:00,22.7605581,88.3617589,CO,73,110,103
India,West_Bengal,Durgapur,"Sidhu Kanhu Indoor Stadium, Durgapur - WBPCB",17-01-2024 02:00:00,23.5404352,87.2892225,PM2.5,180,332,280
India,West_Bengal,Durgapur,"Sidhu Kanhu Indoor Stadium, Durgapur - WBPCB",17-01-2024 02:00:00,23.5404352,87.2892225,NO2,27,59,36
India,West_Bengal,Durgapur,"Sidhu Kanhu Indoor Stadium, Durgapur - WBPCB",17-01-2024 02:00:00,23.5404352,87.2892225,OZONE,2,49,7
India,West_Bengal,Haldia,"Priyambada Housing Estate, Haldia - WBPCB",17-01-2024 02:00:00,22.06047,88.109737,SO2,4,42,15
India,West_Bengal,Kolkata,"Bidhannagar, Kolkata - WBPCB",17-01-2024 02:00:00,22.58157048,88.41002457,PM10,158,193,171
India,West_Bengal,Kolkata,"Fort William, Kolkata - WBPCB",17-01-2024 02:00:00,22.556640,88.342674,NH3,10,13,11
India,West_Bengal,Kolkata,"Jadavpur, Kolkata - WBPCB",17-01-2024 02:00:00,22.49929,88.36917,PM10,162,210,179
India,West_Bengal,Kolkata,"Jadavpur, Kolkata - WBPCB",17-01-2024 02:00:00,22.49929,88.36917,NO2,2,8,6
India,West_Bengal,Kolkata,"Rabindra Bharati University, Kolkata - WBPCB",17-01-2024 02:00:00,22.627847,88.380669,PM10,122,178,139
India,West_Bengal,Kolkata,"Rabindra Bharati University, Kolkata - WBPCB",17-01-2024 02:00:00,22.627847,88.380669,NH3,7,8,7
India,West_Bengal,Kolkata,"Rabindra Sarobar, Kolkata - WBPCB",17-01-2024 02:00:00,22.51106,88.35142,PM2.5,NA,NA,NA
India,West_Bengal,Kolkata,"Victoria, Kolkata - WBPCB",17-01-2024 02:00:00,22.5448082,88.3403691,PM10,146,183,160
India,West_Bengal,Kolkata,"Victoria, Kolkata - WBPCB",17-01-2024 02:00:00,22.5448082,88.3403691,NO2,1,13,5
India,Andhra_Pradesh,Amaravati,"Secretariat, Amaravati - APPCB",17-01-2024 02:00:00,16.5150833,80.5181667,PM10,66,111,85
India,Andhra_Pradesh,Anantapur,"Gulzarpet, Anantapur - APPCB",17-01-2024 02:00:00,14.675886,77.593027,NH3,2,3,3
India,Andhra_Pradesh,Chittoor,"Gangineni Cheruvu, Chittoor - APPCB",17-01-2024 02:00:00,13.204880,79.097889,PM2.5,49,86,67
India,Andhra_Pradesh,Chittoor,"Gangineni Cheruvu, Chittoor - APPCB",17-01-2024 02:00:00,13.204880,79.097889,NH3,1,2,2
India,Andhra_Pradesh,Kadapa,"Yerramukkapalli, Kadapa - APPCB",17-01-2024 02:00:00,14.465052,78.824187,OZONE,32,64,50
India,Andhra_Pradesh,Rajamahendravaram,"Anand Kala Kshetram, Rajamahendravaram - APPCB",17-01-2024 02:00:00,16.9872867,81.7363176,PM2.5,95,246,144
India,Andhra_Pradesh,Rajamahendravaram,"Anand Kala Kshetram, Rajamahendravaram - APPCB",17-01-2024 02:00:00,16.9872867,81.7363176,PM10,65,132,99
India,Andhra_Pradesh,Rajamahendravaram,"Anand Kala Kshetram, Rajamahendravaram - APPCB",17-01-2024 02:00:00,16.9872867,81.7363176,NH3,3,14,6
India,Andhra_Pradesh,Rajamahendravaram,"Anand Kala Kshetram, Rajamahendravaram - APPCB",17-01-2024 02:00:00,16.9872867,81.7363176,OZONE,4,8,6
India,Andhra_Pradesh,Tirupati,"Vaikuntapuram, Tirupati - APPCB",17-01-2024 02:00:00,13.615387,79.409230,PM10,17,54,27
India,Andhra_Pradesh,Tirupati,"Vaikuntapuram, Tirupati - APPCB",17-01-2024 02:00:00,13.615387,79.409230,NH3,2,3,3
India,Andhra_Pradesh,Vijayawada,"HB Colony, Vijayawada - APPCB",17-01-2024 02:00:00,16.536107,80.594233,PM10,NA,NA,NA
India,Andhra_Pradesh,Vijayawada,"HB Colony, Vijayawada - APPCB",17-01-2024 02:00:00,16.536107,80.594233,NH3,NA,NA,NA
India,Andhra_Pradesh,Vijayawada,"Kanuru, Vijayawada - APPCB",17-01-2024 02:00:00,16.486692,80.699436,CO,NA,NA,NA
India,Andhra_Pradesh,Vijayawada,"Rajiv Gandhi Park, Vijayawada - APPCB",17-01-2024 02:00:00,16.509717,80.612222,PM10,NA,NA,NA
India,Andhra_Pradesh,Visakhapatnam,"GVM Corporation, Visakhapatnam - APPCB",17-01-2024 02:00:00,17.72,83.3,SO2,8,13,11
India,Assam,Guwahati,"IITG, Guwahati - PCBA",17-01-2024 02:00:00,26.2028636,91.70046436,NH3,NA,NA,NA
India,Assam,Guwahati,"IITG, Guwahati - PCBA",17-01-2024 02:00:00,26.2028636,91.70046436,CO,23,30,26
India,Assam,Guwahati,"LGBI Airport, Guwahati - PCBA",17-01-2024 02:00:00,26.10887,91.589544,OZONE,8,35,16
India,Assam,Guwahati,"Pan Bazaar, Guwahati - PCBA",17-01-2024 02:00:00,26.187500,91.744194,NO2,1,7,3
India,Assam,Guwahati,"Pan Bazaar, Guwahati - PCBA",17-01-2024 02:00:00,26.187500,91.744194,SO2,52,59,55
India,Assam,Nagaon,"Christianpatty, Nagaon - PCBA",17-01-2024 02:00:00,26.349082,92.68449,PM2.5,NA,NA,NA
India,Assam,Nagaon,"Christianpatty, Nagaon - PCBA",17-01-2024 02:00:00,26.349082,92.68449,OZONE,3,25,7
India,Assam,Nalbari,"Bata Chowk, Nalbari - PCBA",17-01-2024 02:00:00,26.446912,91.439057,PM2.5,27,87,53
India,Assam,Nalbari,"Bata Chowk, Nalbari - PCBA",17-01-2024 02:00:00,26.446912,91.439057,PM10,54,95,67
India,Assam,Sivasagar,"Girls College, Sivasagar - PCBA",17-01-2024 02:00:00,26.987634,94.636574,NO2,22,41,30
India,Bihar,Araria,"Kharahiya Basti, Araria - BSPCB",17-01-2024 02:00:00,26.146529,87.454184,PM2.5,107,317,205
India,Bihar,Arrah,"New DM Office, Arrah - BSPCB",17-01-2024 02:00:00,25.5626095,84.663264,CO,2,20,10
India,Bihar,Aurangabad,"Gurdeo Nagar, Aurangabad - BSPCB",17-01-2024 02:00:00,24.75746,84.366208,NO2,6,13,8
India,Bihar,Bettiah,"Kamalnath Nagar, Bettiah - BSPCB",17-01-2024 02:00:00,26.80365,84.51954,PM10,17,131,45
India,Bihar,Bhagalpur,"DM Office_Kachari Chowk, Bhagalpur - BSPCB",17-01-2024 02:00:00,25.251013,86.989001,NH3,3,6,4
India,Bihar,Bhagalpur,"Mayaganj, Bhagalpur - BSPCB",17-01-2024 02:00:00,25.265194,87.012947,SO2,10,13,12
India,Bihar,Bhagalpur,"Mayaganj, Bhagalpur - BSPCB",17-01-2024 02:00:00,25.265194,87.012947,OZONE,28,41,29
India,Bihar,Bihar Sharif,"D M Colony, Bihar Sharif - BSPCB",17-01-2024 02:00:00,25.204762,85.514960,NH3,2,2,2
India,Bihar,Chhapra,"Darshan Nagar, Chhapra - BSPCB",17-01-2024 02:00:00,25.7808257,84.7446768,NH3,10,16,13
India,Bihar,Gaya,"Collectorate, Gaya - BSPCB",17-01-2024 02:00:00,24.7955,84.9994,SO2,16,27,19
India,Bihar,Gaya,"Collectorate, Gaya - BSPCB",17-01-2024 02:00:00,24.7955,84.9994,OZONE,46,74,62
India,Bihar,Gaya,"Kareemganj, Gaya - BSPCB",17-01-2024 02:00:00,24.792403,84.992416,PM10,105,191,150
India,Bihar,Gaya,"Kareemganj, Gaya - BSPCB",17-01-2024 02:00:00,24.792403,84.992416,NO2,30,31,30
India,Bihar,Gaya,"Kareemganj, Gaya - BSPCB",17-01-2024 02:00:00,24.792403,84.992416,CO,13,104,51
India,Bihar,Gaya,"SFTI Kusdihra, Gaya - BSPCB",17-01-2024 02:00:00,24.762518,84.982348,NO2,NA,NA,NA
India,Bihar,Gaya,"SFTI Kusdihra, Gaya - BSPCB",17-01-2024 02:00:00,24.762518,84.982348,SO2,NA,NA,NA
India,Bihar,Hajipur,"Industrial Area, Hajipur - BSPCB",17-01-2024 02:00:00,25.697189,85.245900,NH3,7,12,8
India,Bihar,Katihar,"Mirchaibari, Katihar - BSPCB",17-01-2024 02:00:00,25.560083,87.553265,PM10,102,153,128
India,Bihar,Katihar,"Mirchaibari, Katihar - BSPCB",17-01-2024 02:00:00,25.560083,87.553265,NO2,17,24,19
India,Bihar,Katihar,"Mirchaibari, Katihar - BSPCB",17-01-2024 02:00:00,25.560083,87.553265,CO,6,32,10
India,Bihar,Kishanganj,"SDM Office_Khagra, Kishanganj - BSPCB",17-01-2024 02:00:00,26.0881305,87.93840336,NO2,28,30,29
India,Bihar,Manguraha,"Forest Rest House, Manguraha - BSPCB",17-01-2024 02:00:00,27.308328,84.531742,OZONE,2,42,31
India,Bihar,Motihari,"Gandak Colony, Motihari - BSPCB",17-01-2024 02:00:00,26.63086,84.90051,SO2,1,9,5
India,Bihar,Munger,"Town Hall, Munger - BSPCB",17-01-2024 02:00:00,25.376776,86.471523,PM10,161,224,191
India,Bihar,Munger,"Town Hall, Munger - BSPCB",17-01-2024 02:00:00,25.376776,86.471523,OZONE,10,13,10
India,Bihar,Muzaffarpur,"MIT-Daudpur Kothi, Muzaffarpur - BSPCB",17-01-2024 02:00:00,26.1403345,85.3650192,CO,31,78,66
India,Bihar,Muzaffarpur,"MIT-Daudpur Kothi, Muzaffarpur - BSPCB",17-01-2024 02:00:00,26.1403345,85.3650192,OZONE,3,7,4
India,Bihar,Patna,"Govt. High School Shikarpur, Patna - BSPCB",17-01-2024 02:00:00,25.592539,85.227158,PM10,46,139,93
India,Bihar,Patna,"Muradpur, Patna - BSPCB",17-01-2024 02:00:00,25.619651,85.147382,SO2,2,5,4
India,Bihar,Patna,"Muradpur, Patna - BSPCB",17-01-2024 02:00:00,25.619651,85.147382,CO,75,102,90
India,Bihar,Patna,"Rajbansi Nagar, Patna - BSPCB",17-01-2024 02:00:00,25.599486,85.113666,PM10,112,428,231
India,Bihar,Patna,"Rajbansi Nagar, Patna - BSPCB",17-01-2024 02:00:00,25.599486,85.113666,OZONE,5,25,7
India,Bihar,Patna,"Samanpura, Patna - BSPCB",17-01-2024 02:00:00,25.596727,85.085624,PM2.5,229,323,301
India,Bihar,Patna,"Samanpura, Patna - BSPCB",17-01-2024 02:00:00,25.596727,85.085624,NH3,3,3,3
India,Bihar,Patna,"Samanpura, Patna - BSPCB",17-01-2024 02:00:00,25.596727,85.085624,CO,103,113,107
India,Bihar,Purnia,"Mariam Nagar, Purnia - BSPCB",17-01-2024 02:00:00,25.366336,87.117468,OZONE,10,13,11
India,Bihar,Rajgir,"Dangi Tola, Rajgir - BSPCB",17-01-2024 02:00:00,25.03280,85.41948,SO2,4,7,5
India,Bihar,Saharsa,"Police Line, Saharsa - BSPCB",17-01-2024 02:00:00,25.892357,86.590325,OZONE,2,3,2
India,Bihar,Samastipur,"DM Office_Kasipur, Samastipur - BSPCB",17-01-2024 02:00:00,25.859655,85.77944,PM10,57,160,103
India,Bihar,Siwan,"Chitragupta Nagar, Siwan - BSPCB",17-01-2024 02:00:00,26.2271665,84.3570427,PM10,45,107,75
India,Bihar,Siwan,"Chitragupta Nagar, Siwan - BSPCB",17-01-2024 02:00:00,26.2271665,84.3570427,OZONE,4,16,6
India,Chandigarh,Chandigarh,"Sector-53, Chandigarh - CPCC",17-01-2024 02:00:00,30.719859,76.738637,PM2.5,287,500,391
India,Chandigarh,Chandigarh,"Sector-53, Chandigarh - CPCC",17-01-2024 02:00:00,30.719859,76.738637,NO2,32,106,60
India,Chhattisgarh,Bhilai,"32Bungalows, Bhilai - CECB",17-01-2024 02:00:00,21.194815,81.314770,SO2,10,15,12
India,Chhattisgarh,Bhilai,"32Bungalows, Bhilai - CECB",17-01-2024 02:00:00,21.194815,81.314770,OZONE,4,6,4
India,Chhattisgarh,Bhilai,"Civic Center, Bhilai - Bhilai Steel Plant",17-01-2024 02:00:00,21.185571,81.343175,PM10,82,115,102
India,Chhattisgarh,Bhilai,"Hathkhoj, Bhilai - CECB",17-01-2024 02:00:00,21.224231,81.408350,OZONE,11,31,21
India,Chhattisgarh,Chhal,"Nawapara SECL Colony, Chhal - CECB",17-01-2024 02:00:00,22.118125,83.140608,NH3,2,2,2
India,Chhattisgarh,Chhal,"Nawapara SECL Colony, Chhal - CECB",17-01-2024 02:00:00,22.118125,83.140608,OZONE,6,81,27
India,Chhattisgarh,Korba,"Rampur, Korba - CECB",17-01-2024 02:00:00,22.368195,82.746431,NO2,39,69,50
India,Chhattisgarh,Kunjemura,"OP Jindal School, Kunjemura - CECB",17-01-2024 02:00:00,22.126650,83.483212,CO,32,52,42
India,Chhattisgarh,Milupara,"Govt. Higher Secondary School, Milupara - CECB",17-01-2024 02:00:00,22.1910172,83.5197009,NO2,15,82,31
India,Chhattisgarh,Milupara,"Govt. Higher Secondary School, Milupara - CECB",17-01-2024 02:00:00,22.1910172,83.5197009,NH3,1,2,1
India,Chhattisgarh,Raipur,"AIIMS, Raipur - CECB",17-01-2024 02:00:00,21.258815,81.578979,PM2.5,42,101,60
India,Chhattisgarh,Raipur,"AIIMS, Raipur - CECB",17-01-2024 02:00:00,21.258815,81.578979,CO,30,60,50
India,Chhattisgarh,Raipur,"AIIMS, Raipur - CECB",17-01-2024 02:00:00,21.258815,81.578979,OZONE,1,5,2
India,Chhattisgarh,Raipur,"Bhatagaon New ISBT, Raipur - CECB",17-01-2024 02:00:00,21.219665,81.630094,NO2,66,105,81
India,Chhattisgarh,Raipur,"Bhatagaon New ISBT, Raipur - CECB",17-01-2024 02:00:00,21.219665,81.630094,CO,22,76,57
India,Chhattisgarh,Raipur,"Krishak Nagar, Raipur - CECB",17-01-2024 02:00:00,21.237755,81.705301,OZONE,2,9,4
India,Chhattisgarh,Raipur,"Siltara Phase-II, Raipur - CECB",17-01-2024 02:00:00,21.371751,81.664929,CO,20,66,48
India,Delhi,Delhi,"Alipur, Delhi - DPCC",17-01-2024 02:00:00,28.815329,77.153010,NH3,1,3,1
India,Delhi,Delhi,"Alipur, Delhi - DPCC",17-01-2024 02:00:00,28.815329,77.153010,OZONE,3,63,15
India,Delhi,Delhi,"Ashok Vihar, Delhi - DPCC",17-01-2024 02:00:00,28.695381,77.181665,SO2,8,29,18
India,Delhi,Delhi,"Ashok Vihar, Delhi - DPCC",17-01-2024 02:00:00,28.695381,77.181665,OZONE,4,13,5
India,Delhi,Delhi,"Bawana, Delhi - DPCC",17-01-2024 02:00:00,28.776200,77.051074,PM10,188,471,366
India,Delhi,Delhi,"Bawana, Delhi - DPCC",17-01-2024 02:00:00,28.776200,77.051074,NO2,14,47,30
India,Delhi,Delhi,"Bawana, Delhi - DPCC",17-01-2024 02:00:00,28.776200,77.051074,NH3,4,6,5
India,Delhi,Delhi,"Bawana, Delhi - DPCC",17-01-2024 02:00:00,28.776200,77.051074,OZONE,4,54,10
India,Delhi,Delhi,"Burari Crossing, Delhi - IMD",17-01-2024 02:00:00,28.7256504,77.2011573,OZONE,22,36,27
India,Delhi,Delhi,"DTU, Delhi - CPCB",17-01-2024 02:00:00,28.7500499,77.1112615,NO2,11,112,60
India,Delhi,Delhi,"DTU, Delhi - CPCB",17-01-2024 02:00:00,28.7500499,77.1112615,SO2,26,28,27
India,Delhi,Delhi,"DTU, Delhi - CPCB",17-01-2024 02:00:00,28.7500499,77.1112615,OZONE,27,34,28
India,Delhi,Delhi,"Dr. Karni Singh Shooting Range, Delhi - DPCC",17-01-2024 02:00:00,28.498571,77.264840,NO2,37,79,58
India,Delhi,Delhi,"Dr. Karni Singh Shooting Range, Delhi - DPCC",17-01-2024 02:00:00,28.498571,77.264840,CO,65,105,87
India,Delhi,Delhi,"Dwarka-Sector 8, Delhi - DPCC ",17-01-2024 02:00:00,28.5710274,77.0719006,NO2,10,51,31
India,Delhi,Delhi,"IGI Airport (T3), Delhi - IMD",17-01-2024 02:00:00,28.5627763,77.1180053,PM2.5,330,422,371
India,Delhi,Delhi,"IGI Airport (T3), Delhi - IMD",17-01-2024 02:00:00,28.5627763,77.1180053,OZONE,7,47,9
India,Delhi,Delhi,"IHBAS, Dilshad Garden, Delhi - CPCB",17-01-2024 02:00:00,28.6811736,77.3025234,PM2.5,318,364,340
India,Delhi,Delhi,"IHBAS, Dilshad Garden, Delhi - CPCB",17-01-2024 02:00:00,28.6811736,77.3025234,SO2,2,33,14
India,Delhi,Delhi,"ITO, Delhi - CPCB",17-01-2024 02:00:00,28.628624,77.241060,NH3,6,23,10
India,Delhi,Delhi,"ITO, Delhi - CPCB",17-01-2024 02:00:00,28.628624,77.241060,SO2,2,23,16
India,Delhi,Delhi,"Jahangirpuri, Delhi - DPCC",17-01-2024 02:00:00,28.732820,77.170633,PM10,204,497,407
India,Delhi,Delhi,"Jahangirpuri, Delhi - DPCC",17-01-2024 02:00:00,28.732820,77.170633,CO,72,103,96
India,Delhi,Delhi,"Jawaharlal Nehru Stadium, Delhi - DPCC",17-01-2024 02:00:00,28.580280,77.233829,PM2.5,337,459,376
India,Delhi,Delhi,"Lodhi Road, Delhi - IITM",17-01-2024 02:00:00,28.588333,77.221667,PM10,34,246,80
India,Delhi,Delhi,"Lodhi Road, Delhi - IMD",17-01-2024 02:00:00,28.5918245,77.2273074,NO2,5,9,6
India,Delhi,Delhi,"Lodhi Road, Delhi - IMD",17-01-2024 02:00:00,28.5918245,77.2273074,OZONE,14,39,19
India,Delhi,Delhi,"Major Dhyan Chand National Stadium, Delhi - DPCC",17-01-2024 02:00:00,28.611281,77.237738,PM2.5,349,453,385
India,Delhi,Delhi,"Mandir Marg, Delhi - DPCC",17-01-2024 02:00:00,28.636429,77.201067,PM2.5,349,439,386
India,Delhi,Delhi,"Mandir Marg, Delhi - DPCC",17-01-2024 02:00:00,28.636429,77.201067,PM10,204,354,260
India,Delhi,Delhi,"Mandir Marg, Delhi - DPCC",17-01-2024 02:00:00,28.636429,77.201067,NH3,13,16,15
India,Delhi,Delhi,"Mandir Marg, Delhi - DPCC",17-01-2024 02:00:00,28.636429,77.201067,SO2,1,17,8
India,Delhi,Delhi,"Mundka, Delhi - DPCC",17-01-2024 02:00:00,28.684678,77.076574,PM2.5,404,464,434
India,Delhi,Delhi,"Mundka, Delhi - DPCC",17-01-2024 02:00:00,28.684678,77.076574,NH3,8,13,10
India,Delhi,Delhi,"NSIT Dwarka, Delhi - CPCB",17-01-2024 02:00:00,28.60909,77.0325413,NH3,5,6,5
India,Delhi,Delhi,"Nehru Nagar, Delhi - DPCC",17-01-2024 02:00:00,28.567890,77.250515,NH3,20,25,22
India,Delhi,Delhi,"North Campus, DU, Delhi - IMD",17-01-2024 02:00:00,28.6573814,77.1585447,CO,58,88,70
India,Delhi,Delhi,"Okhla Phase-2, Delhi - DPCC",17-01-2024 02:00:00,28.530785,77.271255,PM10,196,414,252
India,Delhi,Delhi,"Patparganj, Delhi - DPCC",17-01-2024 02:00:00,28.623763,77.287209,PM2.5,349,434,396
India,Delhi,Delhi,"Patparganj, Delhi - DPCC",17-01-2024 02:00:00,28.623763,77.287209,NO2,46,73,60
India,Delhi,Delhi,"Patparganj, Delhi - DPCC",17-01-2024 02:00:00,28.623763,77.287209,SO2,10,17,13
India,Delhi,Delhi,"Pusa, Delhi - IMD",17-01-2024 02:00:00,28.636110,77.173332,PM10,168,239,193
India,Delhi,Delhi,"Pusa, Delhi - IMD",17-01-2024 02:00:00,28.636110,77.173332,NO2,38,64,51
India,Delhi,Delhi,"R K Puram, Delhi - DPCC",17-01-2024 02:00:00,28.563262,77.186937,PM10,224,426,279
India,Delhi,Delhi,"Shadipur, Delhi - CPCB",17-01-2024 02:00:00,28.6514781,77.1473105,NH3,13,23,18
India,Delhi,Delhi,"Sirifort, Delhi - CPCB",17-01-2024 02:00:00,28.5504249,77.2159377,NO2,125,163,150
India,Delhi,Delhi,"Sirifort, Delhi - CPCB",17-01-2024 02:00:00,28.5504249,77.2159377,OZONE,21,53,31
India,Delhi,Delhi,"Sonia Vihar, Delhi - DPCC",17-01-2024 02:00:00,28.710508,77.249485,SO2,5,10,7
India,Delhi,Delhi,"Vivek Vihar, Delhi - DPCC",17-01-2024 02:00:00,28.672342,77.315260,PM10,252,411,348
India,Delhi,Delhi,"Vivek Vihar, Delhi - DPCC",17-01-2024 02:00:00,28.672342,77.315260,NO2,43,104,79
India,Delhi,Delhi,"Vivek Vihar, Delhi - DPCC",17-01-2024 02:00:00,28.672342,77.315260,NH3,5,13,9
India,Delhi,Delhi,"Wazirpur, Delhi - DPCC",17-01-2024 02:00:00,28.699793,77.165453,PM10,245,477,405
India,Delhi,Delhi,"Wazirpur, Delhi - DPCC",17-01-2024 02:00:00,28.699793,77.165453,NO2,129,336,235
India,Delhi,Delhi,"Wazirpur, Delhi - DPCC",17-01-2024 02:00:00,28.699793,77.165453,NH3,5,7,6
India,Gujarat,Ahmedabad,"Gyaspur, Ahmedabad - IITM",17-01-2024 02:00:00,22.977134,72.553024,NO2,10,12,11
India,Gujarat,Ahmedabad,"Gyaspur, Ahmedabad - IITM",17-01-2024 02:00:00,22.977134,72.553024,CO,14,28,18
India,Gujarat,Ahmedabad,"Raikhad, Ahmedabad - IITM",17-01-2024 02:00:00,23.020509,72.579261,CO,26,110,74
India,Gujarat,Ahmedabad,"Rakhial, Ahmedabad - IITM",17-01-2024 02:00:00,23.016834,72.625775,PM10,84,287,154
India,Gujarat,Ahmedabad,"Rakhial, Ahmedabad - IITM",17-01-2024 02:00:00,23.016834,72.625775,NO2,9,138,35
India,Gujarat,Ahmedabad,"Rakhial, Ahmedabad - IITM",17-01-2024 02:00:00,23.016834,72.625775,NH3,1,8,5
India,Gujarat,Ahmedabad,"SAC ISRO Bopal, Ahmedabad - IITM",17-01-2024 02:00:00,23.041137,72.456691,NH3,3,5,4
India,Gujarat,Ahmedabad,"SAC ISRO Bopal, Ahmedabad - IITM",17-01-2024 02:00:00,23.041137,72.456691,SO2,5,11,8
India,Gujarat,Ahmedabad,"SAC ISRO Bopal, Ahmedabad - IITM",17-01-2024 02:00:00,23.041137,72.456691,CO,21,46,22
India,Gujarat,Ahmedabad,"SAC ISRO Bopal, Ahmedabad - IITM",17-01-2024 02:00:00,23.041137,72.456691,OZONE,19,24,23
India,Gujarat,Ahmedabad,"SAC ISRO Satellite, Ahmedabad - IITM",17-01-2024 02:00:00,23.023389,72.515201,PM2.5,68,108,80
India,Gujarat,Ahmedabad,"SAC ISRO Satellite, Ahmedabad - IITM",17-01-2024 02:00:00,23.023389,72.515201,NH3,2,3,3
India,Gujarat,Ahmedabad,"SVPI Airport Hansol, Ahmedabad - IITM",17-01-2024 02:00:00,23.076793,72.627874,PM10,53,152,95
India,Gujarat,Ahmedabad,"SVPI Airport Hansol, Ahmedabad - IITM",17-01-2024 02:00:00,23.076793,72.627874,SO2,4,7,6
India,Gujarat,Ahmedabad,"Sardar Vallabhbhai Patel Stadium, Ahmedabad - IITM",17-01-2024 02:00:00,23.043070,72.562968,CO,14,120,81
India,Gujarat,Ankleshwar,"GIDC, Ankleshwar - GPCB",17-01-2024 02:00:00,21.613267,73.010555,PM2.5,62,241,113
India,Gujarat,Gandhinagar,"GIFT City, Gandhinagar - IITM",17-01-2024 02:00:00,23.163798,72.677768,PM10,60,138,94
India,Gujarat,Gandhinagar,"IIPHG Lekawada, Gandhinagar - IITM",17-01-2024 02:00:00,23.243639,72.68994,OZONE,16,32,19
India,Gujarat,Surat,"Science Center, Surat - SMC",17-01-2024 02:00:00,21.170046,72.795405,PM10,20,114,62
India,Gujarat,Vapi,"Phase-1 GIDC, Vapi - GPCB",17-01-2024 02:00:00,20.362421,72.918013,PM2.5,79,420,238
India,Gujarat,Vapi,"Phase-1 GIDC, Vapi - GPCB",17-01-2024 02:00:00,20.362421,72.918013,PM10,102,430,189
India,Gujarat,Vatva,"Phase-4 GIDC, Vatva - GPCB",17-01-2024 02:00:00,22.969611,72.643500,NO2,30,282,88
India,Gujarat,Vatva,"Phase-4 GIDC, Vatva - GPCB",17-01-2024 02:00:00,22.969611,72.643500,OZONE,6,43,12
India,Haryana,Ambala,"Patti Mehar, Ambala - HSPCB",17-01-2024 02:00:00,30.379589,76.778328,NH3,5,12,8
India,Haryana,Ambala,"Patti Mehar, Ambala - HSPCB",17-01-2024 02:00:00,30.379589,76.778328,CO,29,60,42
India,Haryana,Bahadurgarh,"Arya Nagar, Bahadurgarh - HSPCB",17-01-2024 02:00:00,28.6701,76.9254,NH3,11,13,12
India,Haryana,Bhiwani,"H.B. Colony, Bhiwani - HSPCB",17-01-2024 02:00:00,28.806223,76.141105,NH3,6,6,6
India,Haryana,Bhiwani,"H.B. Colony, Bhiwani - HSPCB",17-01-2024 02:00:00,28.806223,76.141105,SO2,5,87,21
India,Haryana,Charkhi Dadri,"Mini Secretariat, Charkhi Dadri - HSPCB",17-01-2024 02:00:00,28.593883,76.270653,NH3,5,7,6
India,Haryana,Dharuhera,"Municipal Corporation Office, Dharuhera -  HSPCB",17-01-2024 02:00:00,28.206800,76.799700,OZONE,1,45,17
India,Haryana,Faridabad,"New Industrial Town, Faridabad - HSPCB",17-01-2024 02:00:00,28.39072,77.30059,OZONE,26,72,56
India,Haryana,Faridabad,"Sector 11, Faridabad - HSPCB",17-01-2024 02:00:00,28.376058,77.315741,NO2,30,32,31
India,Haryana,Faridabad,"Sector 30, Faridabad - HSPCB",17-01-2024 02:00:00,28.4417,77.3217,NO2,30,33,31
India,Haryana,Faridabad,"Sector- 16A, Faridabad - HSPCB",17-01-2024 02:00:00,28.4088421,77.3099081,NO2,10,51,27
India,Haryana,Fatehabad,"Huda Sector, Fatehabad - HSPCB",17-01-2024 02:00:00,29.503664,75.467934,NO2,28,32,30
India,Haryana,Fatehabad,"Huda Sector, Fatehabad - HSPCB",17-01-2024 02:00:00,29.503664,75.467934,SO2,3,13,8
India,Haryana,Gurugram,"NISE Gwal Pahari, Gurugram - IMD",17-01-2024 02:00:00,28.422681,77.148944,PM10,168,370,279
India,Haryana,Gurugram,"Sector-51, Gurugram - HSPCB",17-01-2024 02:00:00,28.4227,77.0667,SO2,2,80,6
India,Haryana,Gurugram,"Sector-51, Gurugram - HSPCB",17-01-2024 02:00:00,28.4227,77.0667,CO,58,132,98
India,Haryana,Gurugram,"Sector-51, Gurugram - HSPCB",17-01-2024 02:00:00,28.4227,77.0667,OZONE,27,67,51
India,Haryana,Gurugram,"Teri Gram, Gurugram - HSPCB",17-01-2024 02:00:00,28.4275,77.1465,PM2.5,303,438,352
India,Haryana,Gurugram,"Teri Gram, Gurugram - HSPCB",17-01-2024 02:00:00,28.4275,77.1465,CO,57,98,68
India,Haryana,Gurugram,"Vikas Sadan, Gurugram - HSPCB",17-01-2024 02:00:00,28.4501238,77.0263051,PM2.5,166,326,282
India,Haryana,Gurugram,"Vikas Sadan, Gurugram - HSPCB",17-01-2024 02:00:00,28.4501238,77.0263051,NO2,5,25,14
India,Haryana,Gurugram,"Vikas Sadan, Gurugram - HSPCB",17-01-2024 02:00:00,28.4501238,77.0263051,SO2,18,29,26
India,Haryana,Jind,"Police Lines, Jind - HSPCB",17-01-2024 02:00:00,29.307814,76.337619,SO2,1,21,8
India,Haryana,Jind,"Police Lines, Jind - HSPCB",17-01-2024 02:00:00,29.307814,76.337619,CO,1,94,16
India,Haryana,Kaithal,"Rishi Nagar, Kaithal - HSPCB",17-01-2024 02:00:00,29.8006,76.4155,PM10,NA,NA,NA
India,Haryana,Kaithal,"Rishi Nagar, Kaithal - HSPCB",17-01-2024 02:00:00,29.8006,76.4155,NH3,8,8,8
India,Haryana,Karnal,"Sector-12, Karnal - HSPCB",17-01-2024 02:00:00,29.695300,77.002700,NH3,10,13,11
India,Haryana,Karnal,"Sector-12, Karnal - HSPCB",17-01-2024 02:00:00,29.695300,77.002700,SO2,NA,NA,NA
India,Haryana,Karnal,"Sector-12, Karnal - HSPCB",17-01-2024 02:00:00,29.695300,77.002700,OZONE,30,32,32
India,Haryana,Manesar,"Sector-2 IMT, Manesar - HSPCB",17-01-2024 02:00:00,28.360699,76.936090,SO2,8,24,19
India,Haryana,Narnaul,"Shastri Nagar, Narnaul - HSPCB",17-01-2024 02:00:00,28.060249,76.113115,PM10,61,260,132
India,Haryana,Narnaul,"Shastri Nagar, Narnaul - HSPCB",17-01-2024 02:00:00,28.060249,76.113115,NO2,17,48,33
India,Haryana,Palwal,"Shyam Nagar, Palwal - HSPCB",17-01-2024 02:00:00,28.1485564,77.3320667,CO,20,26,21
India,Haryana,Panipat,"Sector-18, Panipat - HSPCB",17-01-2024 02:00:00,29.497973,76.993331,NH3,2,3,2
India,Haryana,Rohtak,"MD University, Rohtak - HSPCB",17-01-2024 02:00:00,28.52123,76.37138,PM2.5,114,334,255
India,Haryana,Rohtak,"MD University, Rohtak - HSPCB",17-01-2024 02:00:00,28.52123,76.37138,NO2,32,53,41
India,Haryana,Rohtak,"MD University, Rohtak - HSPCB",17-01-2024 02:00:00,28.52123,76.37138,CO,24,48,29
India,Haryana,Sirsa,"F-Block, Sirsa - HSPCB",17-01-2024 02:00:00,29.536400,75.015800,PM2.5,27,164,71
India,Haryana,Sonipat,"Murthal, Sonipat - HSPCB",17-01-2024 02:00:00,29.027200,77.062100,PM10,109,187,145
India,Haryana,Sonipat,"Murthal, Sonipat - HSPCB",17-01-2024 02:00:00,29.027200,77.062100,NH3,2,10,9
India,Himachal Pradesh,Baddi,"HIMUDA Complex Phase-1, Baddi - HPPCB",17-01-2024 02:00:00,30.943887,76.801991,NH3,7,15,10
India,Jharkhand,Dhanbad,"Kalakusuma, Dhanbad - DMC",17-01-2024 02:00:00,23.811548,86.481238,SO2,102,114,109
India,Jharkhand,Pathardih,"Mohalbani Ghat, Pathardih - DMC",17-01-2024 02:00:00,23.669880,86.411725,PM2.5,NA,NA,NA
India,Karnataka,Bagalkot,"Vidayagiri, Bagalkot - KSPCB",17-01-2024 02:00:00,16.172806,75.659694,PM2.5,24,36,35
India,Karnataka,Bagalkot,"Vidayagiri, Bagalkot - KSPCB",17-01-2024 02:00:00,16.172806,75.659694,NH3,1,2,1
India,Karnataka,Bagalkot,"Vidayagiri, Bagalkot - KSPCB",17-01-2024 02:00:00,16.172806,75.659694,CO,27,57,43
India,Karnataka,Belgaum,"Ramteerth Nagar, Belgaum - KSPCB",17-01-2024 02:00:00,15.888653,74.541751,OZONE,19,20,19
India,Karnataka,Bengaluru,"Bapuji Nagar, Bengaluru - KSPCB",17-01-2024 02:00:00,12.951913,77.539784,NO2,NA,NA,NA
India,Karnataka,Bengaluru,"City Railway Station, Bengaluru - KSPCB",17-01-2024 02:00:00,12.9756843,77.5660749,CO,51,92,77
India,Karnataka,Bengaluru,"Hombegowda Nagar, Bengaluru - KSPCB",17-01-2024 02:00:00,12.938539,77.590100,NH3,2,2,2
India,Karnataka,Bengaluru,"Jayanagar 5th Block, Bengaluru - KSPCB",17-01-2024 02:00:00,12.920984,77.584908,NH3,2,4,3
India,Karnataka,Bengaluru,"Jigani, Bengaluru - KSPCB",17-01-2024 02:00:00,12.7816279,77.6299145,PM2.5,NA,NA,NA
India,Karnataka,Bengaluru,"Jigani, Bengaluru - KSPCB",17-01-2024 02:00:00,12.7816279,77.6299145,CO,58,101,74
India,Karnataka,Bengaluru,"Kasturi Nagar, Bengaluru - KSPCB",17-01-2024 02:00:00,13.003872,77.664217,PM2.5,66,234,130
India,Karnataka,Bengaluru,"Kasturi Nagar, Bengaluru - KSPCB",17-01-2024 02:00:00,13.003872,77.664217,PM10,91,219,149
India,Karnataka,Bengaluru,"Kasturi Nagar, Bengaluru - KSPCB",17-01-2024 02:00:00,13.003872,77.664217,OZONE,21,141,69
India,Karnataka,Bengaluru,"Peenya, Bengaluru - CPCB",17-01-2024 02:00:00,13.0270199,77.494094,PM2.5,92,199,117
India,Karnataka,Bengaluru,"Peenya, Bengaluru - CPCB",17-01-2024 02:00:00,13.0270199,77.494094,PM10,115,173,131
India,Karnataka,Bengaluru,"Peenya, Bengaluru - CPCB",17-01-2024 02:00:00,13.0270199,77.494094,CO,28,56,42
India,Karnataka,Bengaluru,"RVCE-Mailasandra, Bengaluru - KSPCB",17-01-2024 02:00:00,12.921418,77.502466,NO2,31,31,31
India,Karnataka,Bengaluru,"Shivapura_Peenya, Bengaluru - KSPCB",17-01-2024 02:00:00,13.0246342,77.5080115,PM2.5,17,158,49
India,Karnataka,Bengaluru,"Shivapura_Peenya, Bengaluru - KSPCB",17-01-2024 02:00:00,13.0246342,77.5080115,SO2,3,15,8
India,Karnataka,Bengaluru,"Silk Board, Bengaluru - KSPCB",17-01-2024 02:00:00,12.917348,77.622813,NH3,2,3,3
India,Karnataka,Bengaluru,"Silk Board, Bengaluru - KSPCB",17-01-2024 02:00:00,12.917348,77.622813,SO2,7,11,9
India,Karnataka,Bidar,"Naubad, Bidar - KSPCB",17-01-2024 02:00:00,17.930306,77.482194,PM10,74,113,101
India,Karnataka,Bidar,"Naubad, Bidar - KSPCB",17-01-2024 02:00:00,17.930306,77.482194,SO2,13,24,16
India,Karnataka,Chamarajanagar,"Urban, Chamarajanagar - KSPCB",17-01-2024 02:00:00,11.55358,76.55521,SO2,2,9,5
India,Karnataka,Chikkaballapur,"Chikkaballapur Rural, Chikkaballapur - KSPCB",17-01-2024 02:00:00,13.428828,77.731418,PM10,76,128,97
India,Karnataka,Chikkaballapur,"Chikkaballapur Rural, Chikkaballapur - KSPCB",17-01-2024 02:00:00,13.428828,77.731418,SO2,18,26,22
India,Karnataka,Chikkaballapur,"Chikkaballapur Rural, Chikkaballapur - KSPCB",17-01-2024 02:00:00,13.428828,77.731418,CO,3,18,11
India,Karnataka,Chikkamagaluru,"Kalyana Nagara, Chikkamagaluru - KSPCB",17-01-2024 02:00:00,13.328028,75.797056,NO2,4,32,20
India,Karnataka,Chikkamagaluru,"Kalyana Nagara, Chikkamagaluru - KSPCB",17-01-2024 02:00:00,13.328028,75.797056,CO,11,105,32
India,Karnataka,Davanagere,"Devaraj Urs Badavane, Davanagere - KSPCB",17-01-2024 02:00:00,14.475800,75.905200,PM2.5,64,182,102
India,Karnataka,Davanagere,"Devaraj Urs Badavane, Davanagere - KSPCB",17-01-2024 02:00:00,14.475800,75.905200,CO,10,18,15
India,Karnataka,Dharwad,"Kalabhavan, Dharwad - KSPCB",17-01-2024 02:00:00,15.459706,75.008381,PM2.5,40,73,55
India,Karnataka,Dharwad,"Kalabhavan, Dharwad - KSPCB",17-01-2024 02:00:00,15.459706,75.008381,NO2,17,36,26
India,Karnataka,Dharwad,"Kalabhavan, Dharwad - KSPCB",17-01-2024 02:00:00,15.459706,75.008381,NH3,3,3,3
India,Karnataka,Gadag,"Panchal Nagar, Gadag - KSPCB",17-01-2024 02:00:00,15.411456,75.638133,PM10,51,80,63
India,Karnataka,Gadag,"Panchal Nagar, Gadag - KSPCB",17-01-2024 02:00:00,15.411456,75.638133,NO2,6,18,12
India,Karnataka,Gadag,"Panchal Nagar, Gadag - KSPCB",17-01-2024 02:00:00,15.411456,75.638133,CO,54,68,57
India,Karnataka,Hassan,"B.Katihalli, Hassan - KSPCB",17-01-2024 02:00:00,13.008556,76.125258,CO,16,27,23
India,Karnataka,Haveri,"Ashwini Nagar, Haveri - KSPCB",17-01-2024 02:00:00,14.791800,75.389600,PM10,NA,NA,NA
India,Karnataka,Haveri,"Ashwini Nagar, Haveri - KSPCB",17-01-2024 02:00:00,14.791800,75.389600,OZONE,18,21,19
India,Karnataka,Hubballi,"Lingaraj Nagar, Hubballi - KSPCB",17-01-2024 02:00:00,15.3714823,75.1160168,PM10,50,105,74
India,Karnataka,Hubballi,"Lingaraj Nagar, Hubballi - KSPCB",17-01-2024 02:00:00,15.3714823,75.1160168,NO2,16,16,16
India,Karnataka,Karwar,"KHB Colony, Karwar - KSPCB",17-01-2024 02:00:00,14.816666,74.141003,PM2.5,22,123,52
India,Karnataka,Karwar,"KHB Colony, Karwar - KSPCB",17-01-2024 02:00:00,14.816666,74.141003,SO2,17,18,18
India,Karnataka,Kolar,"Tamaka Ind. Area, Kolar - KSPCB",17-01-2024 02:00:00,13.1276288,78.1570122,NO2,NA,NA,NA
India,Karnataka,Kolar,"Tamaka Ind. Area, Kolar - KSPCB",17-01-2024 02:00:00,13.1276288,78.1570122,NH3,NA,NA,NA
India,Karnataka,Madikeri,"Stuart Hill, Madikeri - KSPCB",17-01-2024 02:00:00,12.415911,75.735050,PM2.5,39,65,52
India,Karnataka,Madikeri,"Stuart Hill, Madikeri - KSPCB",17-01-2024 02:00:00,12.415911,75.735050,OZONE,32,50,36
India,Karnataka,Mangalore,"Kadri, Mangalore - KSPCB",17-01-2024 02:00:00,12.889250,74.853000,NH3,2,3,3
India,Karnataka,Mysuru,"Hebbal 1st Stage, Mysuru - KSPCB",17-01-2024 02:00:00,12.21041,76.37376,PM10,56,95,77
India,Karnataka,Mysuru,"Hebbal 1st Stage, Mysuru - KSPCB",17-01-2024 02:00:00,12.21041,76.37376,NO2,11,63,35
