country,state,city,station,last_update,latitude,longitude,pollutant_id,pollutant_min,pollutant_max,pollutant_avg
India,Andhra_Pradesh,Amaravati,"Secretariat, Amaravati - APPCB",18-05-2024 20:00:00,16.5150833,80.5181667,PM2.5,2,10,4
India,Andhra_Pradesh,Amaravati,"Secretariat, Amaravati - APPCB",18-05-2024 20:00:00,16.5150833,80.5181667,OZONE,1,18,10
India,Andhra_Pradesh,Chittoor,"Gangineni Cheruvu, Chittoor - APPCB",18-05-2024 20:00:00,13.204880,79.097889,PM10,20,163,70
India,Andhra_Pradesh,Kadapa,"Yerramukkapalli, Kadapa - APPCB",18-05-2024 20:00:00,14.465052,78.824187,PM10,NA,NA,NA
India,Andhra_Pradesh,Kadapa,"Yerramukkapalli, Kadapa - APPCB",18-05-2024 20:00:00,14.465052,78.824187,NH3,3,3,3
India,Andhra_Pradesh,Rajamahendravaram,"Anand Kala Kshetram, Rajamahendravaram - APPCB",18-05-2024 20:00:00,16.9872867,81.7363176,OZONE,14,39,30
India,Andhra_Pradesh,Tirupati,"Tirumala, Tirupati - APPCB",18-05-2024 20:00:00,13.67,79.35,PM2.5,12,56,36
India,Andhra_Pradesh,Vijayawada,"HB Colony, Vijayawada - APPCB",18-05-2024 20:00:00,16.536107,80.594233,PM2.5,38,41,39
India,Andhra_Pradesh,Vijayawada,"HB Colony, Vijayawada - APPCB",18-05-2024 20:00:00,16.536107,80.594233,CO,30,38,38
India,Arunachal_Pradesh,Naharlagun,"Naharlagun, Naharlagun - APSPCB",18-05-2024 20:00:00,27.103358,93.679645,PM10,NA,NA,NA
India,Assam,Byrnihat,"Central Academy for SFS, Byrnihat - PCBA",18-05-2024 20:00:00,26.071318,91.87488,OZONE,22,102,23
India,Assam,Guwahati,"IITG, Guwahati - PCBA",18-05-2024 20:00:00,26.2028636,91.70046436,PM2.5,NA,NA,NA
India,Assam,Guwahati,"IITG, Guwahati - PCBA",18-05-2024 20:00:00,26.2028636,91.70046436,PM10,NA,NA,NA
India,Assam,Guwahati,"IITG, Guwahati - PCBA",18-05-2024 20:00:00,26.2028636,91.70046436,NO2,NA,NA,NA
India,Assam,Guwahati,"IITG, Guwahati - PCBA",18-05-2024 20:00:00,26.2028636,91.70046436,NH3,NA,NA,NA
India,Assam,Guwahati,"LGBI Airport, Guwahati - PCBA",18-05-2024 20:00:00,26.10887,91.589544,NO2,10,32,16
India,Assam,Guwahati,"Pan Bazaar, Guwahati - PCBA",18-05-2024 20:00:00,26.187500,91.744194,PM2.5,20,85,38
India,Assam,Guwahati,"Railway Colony, Guwahati - PCBA",18-05-2024 20:00:00,26.181742,91.78063,PM10,NA,NA,NA
India,Assam,Nagaon,"Christianpatty, Nagaon - PCBA",18-05-2024 20:00:00,26.349082,92.68449,PM2.5,55,150,72
India,Assam,Nagaon,"Christianpatty, Nagaon - PCBA",18-05-2024 20:00:00,26.349082,92.68449,NO2,1,16,5
India,Assam,Nagaon,"Christianpatty, Nagaon - PCBA",18-05-2024 20:00:00,26.349082,92.68449,SO2,1,37,16
India,Assam,Nagaon,"Christianpatty, Nagaon - PCBA",18-05-2024 20:00:00,26.349082,92.68449,OZONE,1,81,45
India,Assam,Nalbari,"Bata Chowk, Nalbari - PCBA",18-05-2024 20:00:00,26.446912,91.439057,SO2,8,13,11
India,Assam,Silchar,"Tarapur, Silchar - PCBA",18-05-2024 20:00:00,24.82827,92.79525,PM10,40,73,54
India,Assam,Silchar,"Tarapur, Silchar - PCBA",18-05-2024 20:00:00,24.82827,92.79525,OZONE,1,19,10
India,Assam,Sivasagar,"Girls College, Sivasagar - PCBA",18-05-2024 20:00:00,26.987634,94.636574,NO2,8,18,12
India,Bihar,Araria,"Kharahiya Basti, Araria - BSPCB",18-05-2024 20:00:00,26.146529,87.454184,CO,16,30,21
India,Bihar,Arrah,"New DM Office, Arrah - BSPCB",18-05-2024 20:00:00,25.5626095,84.663264,PM2.5,40,117,71
India,Bihar,Arrah,"New DM Office, Arrah - BSPCB",18-05-2024 20:00:00,25.5626095,84.663264,NO2,9,32,15
India,Bihar,Aurangabad,"Gurdeo Nagar, Aurangabad - BSPCB",18-05-2024 20:00:00,24.75746,84.366208,PM2.5,NA,NA,NA
India,Bihar,Aurangabad,"Gurdeo Nagar, Aurangabad - BSPCB",18-05-2024 20:00:00,24.75746,84.366208,SO2,13,22,18
India,Bihar,Bettiah,"Kamalnath Nagar, Bettiah - BSPCB",18-05-2024 20:00:00,26.80365,84.51954,NO2,33,44,38
India,Bihar,Bettiah,"Kamalnath Nagar, Bettiah - BSPCB",18-05-2024 20:00:00,26.80365,84.51954,NH3,16,42,28
India,Bihar,Bhagalpur,"DM Office_Kachari Chowk, Bhagalpur - BSPCB",18-05-2024 20:00:00,25.251013,86.989001,PM10,115,290,154
India,Bihar,Bhagalpur,"DM Office_Kachari Chowk, Bhagalpur - BSPCB",18-05-2024 20:00:00,25.251013,86.989001,NH3,7,12,9
India,Bihar,Bhagalpur,"DM Office_Kachari Chowk, Bhagalpur - BSPCB",18-05-2024 20:00:00,25.251013,86.989001,SO2,33,105,61
India,Bihar,Bhagalpur,"Mayaganj, Bhagalpur - BSPCB",18-05-2024 20:00:00,25.265194,87.012947,PM2.5,95,329,219
India,Bihar,Bhagalpur,"Mayaganj, Bhagalpur - BSPCB",18-05-2024 20:00:00,25.265194,87.012947,OZONE,10,63,48
India,Bihar,Bihar Sharif,"D M Colony, Bihar Sharif - BSPCB",18-05-2024 20:00:00,25.204762,85.514960,PM10,18,132,76
India,Bihar,Bihar Sharif,"D M Colony, Bihar Sharif - BSPCB",18-05-2024 20:00:00,25.204762,85.514960,CO,44,75,56
India,Bihar,Buxar,"Charitra Van, Buxar - BSPCB (Formerly known as Central Jail)",18-05-2024 20:00:00,25.567520,83.966379,NH3,3,4,3
India,Bihar,Gaya,"Collectorate, Gaya - BSPCB",18-05-2024 20:00:00,24.7955,84.9994,PM2.5,62,255,102
India,Bihar,Gaya,"Kareemganj, Gaya - BSPCB",18-05-2024 20:00:00,24.792403,84.992416,PM2.5,3,47,15
India,Bihar,Gaya,"SFTI Kusdihra, Gaya - BSPCB",18-05-2024 20:00:00,24.762518,84.982348,PM10,51,97,74
India,Bihar,Gaya,"SFTI Kusdihra, Gaya - BSPCB",18-05-2024 20:00:00,24.762518,84.982348,CO,16,38,22
India,Bihar,Hajipur,"Industrial Area, Hajipur - BSPCB",18-05-2024 20:00:00,25.697189,85.245900,NO2,34,59,44
India,Bihar,Kishanganj,"SDM Office_Khagra, Kishanganj - BSPCB",18-05-2024 20:00:00,26.0881305,87.93840336,NH3,9,10,9
India,Bihar,Kishanganj,"SDM Office_Khagra, Kishanganj - BSPCB",18-05-2024 20:00:00,26.0881305,87.93840336,CO,12,28,12
India,Bihar,Manguraha,"Forest Rest House, Manguraha - BSPCB",18-05-2024 20:00:00,27.308328,84.531742,CO,39,53,46
India,Bihar,Motihari,"Gandak Colony, Motihari - BSPCB",18-05-2024 20:00:00,26.63086,84.90051,PM10,149,208,177
India,Bihar,Motihari,"Gandak Colony, Motihari - BSPCB",18-05-2024 20:00:00,26.63086,84.90051,SO2,4,21,10
India,Bihar,Munger,"Town Hall, Munger - BSPCB",18-05-2024 20:00:00,25.376776,86.471523,NO2,4,6,5
India,Bihar,Munger,"Town Hall, Munger - BSPCB",18-05-2024 20:00:00,25.376776,86.471523,NH3,3,3,3
India,Bihar,Muzaffarpur,"Buddha Colony, Muzaffarpur - BSPCB",18-05-2024 20:00:00,26.11442,85.39813,CO,24,68,31
India,Bihar,Muzaffarpur,"MIT-Daudpur Kothi, Muzaffarpur - BSPCB",18-05-2024 20:00:00,26.1403345,85.3650192,CO,9,114,93
India,Bihar,Muzaffarpur,"Muzaffarpur Collectorate, Muzaffarpur - BSPCB",18-05-2024 20:00:00,26.1209,85.3647,SO2,5,10,9
India,Bihar,Muzaffarpur,"Muzaffarpur Collectorate, Muzaffarpur - BSPCB",18-05-2024 20:00:00,26.1209,85.3647,OZONE,59,97,78
India,Bihar,Patna,"DRM Office Danapur, Patna - BSPCB",18-05-2024 20:00:00,25.586562,85.043586,NH3,2,3,3
India,Bihar,Patna,"DRM Office Danapur, Patna - BSPCB",18-05-2024 20:00:00,25.586562,85.043586,SO2,8,22,13
India,Bihar,Patna,"DRM Office Danapur, Patna - BSPCB",18-05-2024 20:00:00,25.586562,85.043586,OZONE,5,79,62
India,Bihar,Patna,"Govt. High School Shikarpur, Patna - BSPCB",18-05-2024 20:00:00,25.592539,85.227158,NH3,4,5,5
India,Bihar,Patna,"IGSC Planetarium Complex, Patna - BSPCB",18-05-2024 20:00:00,25.610369,85.132568,NO2,10,11,11
India,Bihar,Patna,"IGSC Planetarium Complex, Patna - BSPCB",18-05-2024 20:00:00,25.610369,85.132568,OZONE,44,45,44
India,Bihar,Patna,"Muradpur, Patna - BSPCB",18-05-2024 20:00:00,25.619651,85.147382,SO2,6,13,8
India,Bihar,Patna,"Rajbansi Nagar, Patna - BSPCB",18-05-2024 20:00:00,25.599486,85.113666,PM2.5,16,274,156
India,Bihar,Patna,"Rajbansi Nagar, Patna - BSPCB",18-05-2024 20:00:00,25.599486,85.113666,CO,13,115,38
India,Bihar,Patna,"Samanpura, Patna - BSPCB",18-05-2024 20:00:00,25.596727,85.085624,CO,14,139,25
India,Bihar,Purnia,"Mariam Nagar, Purnia - BSPCB",18-05-2024 20:00:00,25.366336,87.117468,CO,34,82,37
India,Bihar,Rajgir,"Dangi Tola, Rajgir - BSPCB",18-05-2024 20:00:00,25.03280,85.41948,PM10,31,142,66
India,Bihar,Rajgir,"Dangi Tola, Rajgir - BSPCB",18-05-2024 20:00:00,25.03280,85.41948,OZONE,27,49,35
India,Bihar,Saharsa,"Police Line, Saharsa - BSPCB",18-05-2024 20:00:00,25.892357,86.590325,PM2.5,87,332,212
India,Bihar,Saharsa,"Police Line, Saharsa - BSPCB",18-05-2024 20:00:00,25.892357,86.590325,NO2,7,7,7
India,Bihar,Saharsa,"Police Line, Saharsa - BSPCB",18-05-2024 20:00:00,25.892357,86.590325,NH3,9,9,9
India,Bihar,Siwan,"Chitragupta Nagar, Siwan - BSPCB",18-05-2024 20:00:00,26.2271665,84.3570427,PM10,77,151,115
India,Bihar,Siwan,"Chitragupta Nagar, Siwan - BSPCB",18-05-2024 20:00:00,26.2271665,84.3570427,NH3,2,42,6
India,Bihar,Siwan,"Chitragupta Nagar, Siwan - BSPCB",18-05-2024 20:00:00,26.2271665,84.3570427,CO,1,159,81
India,Chandigarh,Chandigarh,"Sector 22, Chandigarh - CPCC",18-05-2024 20:00:00,30.735567,76.775714,PM10,139,223,180
India,Chandigarh,Chandigarh,"Sector 22, Chandigarh - CPCC",18-05-2024 20:00:00,30.735567,76.775714,OZONE,4,223,174
India,Chandigarh,Chandigarh,"Sector-53, Chandigarh - CPCC",18-05-2024 20:00:00,30.719859,76.738637,SO2,10,44,24
India,Chandigarh,Chandigarh,"Sector-53, Chandigarh - CPCC",18-05-2024 20:00:00,30.719859,76.738637,CO,32,111,43
India,Chandigarh,Chandigarh,"Sector-53, Chandigarh - CPCC",18-05-2024 20:00:00,30.719859,76.738637,OZONE,9,93,67
India,Chhattisgarh,Bhilai,"32Bungalows, Bhilai - CECB",18-05-2024 20:00:00,21.194815,81.314770,PM10,12,58,30
India,Chhattisgarh,Bhilai,"32Bungalows, Bhilai - CECB",18-05-2024 20:00:00,21.194815,81.314770,NO2,16,22,20
India,Chhattisgarh,Bhilai,"Hathkhoj, Bhilai - CECB",18-05-2024 20:00:00,21.224231,81.408350,NH3,8,9,9
India,Chhattisgarh,Chhal,"Nawapara SECL Colony, Chhal - CECB",18-05-2024 20:00:00,22.118125,83.140608,NH3,2,2,2
India,Chhattisgarh,Chhal,"Nawapara SECL Colony, Chhal - CECB",18-05-2024 20:00:00,22.118125,83.140608,SO2,16,27,22
India,Chhattisgarh,Chhal,"Nawapara SECL Colony, Chhal - CECB",18-05-2024 20:00:00,22.118125,83.140608,OZONE,8,67,56
India,Chhattisgarh,Korba,"Rampur, Korba - CECB",18-05-2024 20:00:00,22.368195,82.746431,NO2,24,35,32
India,Chhattisgarh,Korba,"Urja Nagar, Korba - CECB",18-05-2024 20:00:00,22.348441,82.549611,SO2,1,3,2
India,Chhattisgarh,Kunjemura,"OP Jindal School, Kunjemura - CECB",18-05-2024 20:00:00,22.126650,83.483212,SO2,2,7,5
India,Chhattisgarh,Kunjemura,"OP Jindal School, Kunjemura - CECB",18-05-2024 20:00:00,22.126650,83.483212,OZONE,4,30,21
India,Chhattisgarh,Milupara,"Govt. Higher Secondary School, Milupara - CECB",18-05-2024 20:00:00,22.1910172,83.5197009,SO2,2,39,14
India,Chhattisgarh,Raipur,"AIIMS, Raipur - CECB",18-05-2024 20:00:00,21.258815,81.578979,SO2,3,9,5
India,Chhattisgarh,Raipur,"Bhatagaon New ISBT, Raipur - CECB",18-05-2024 20:00:00,21.219665,81.630094,PM2.5,NA,NA,NA
India,Chhattisgarh,Raipur,"Bhatagaon New ISBT, Raipur - CECB",18-05-2024 20:00:00,21.219665,81.630094,NO2,3,6,5
India,Chhattisgarh,Raipur,"Krishak Nagar, Raipur - CECB",18-05-2024 20:00:00,21.237755,81.705301,NO2,16,16,16
India,Chhattisgarh,Raipur,"Krishak Nagar, Raipur - CECB",18-05-2024 20:00:00,21.237755,81.705301,NH3,1,1,1
India,Chhattisgarh,Raipur,"Krishak Nagar, Raipur - CECB",18-05-2024 20:00:00,21.237755,81.705301,SO2,11,20,14
India,Chhattisgarh,Raipur,"Krishak Nagar, Raipur - CECB",18-05-2024 20:00:00,21.237755,81.705301,CO,12,25,20
India,Chhattisgarh,Raipur,"Krishak Nagar, Raipur - CECB",18-05-2024 20:00:00,21.237755,81.705301,OZONE,5,70,43
India,Chhattisgarh,Raipur,"Siltara Phase-II, Raipur - CECB",18-05-2024 20:00:00,21.371751,81.664929,CO,6,32,19
India,Chhattisgarh,Tumidih,"OP Jindal Industrial Park, Tumidih - CECB",18-05-2024 20:00:00,22.06631475,83.33820077,PM2.5,NA,NA,NA
India,Chhattisgarh,Tumidih,"OP Jindal Industrial Park, Tumidih - CECB",18-05-2024 20:00:00,22.06631475,83.33820077,NH3,NA,NA,NA
India,Delhi,Delhi,"Alipur, Delhi - DPCC",18-05-2024 20:00:00,28.815329,77.153010,SO2,13,66,33
India,Delhi,Delhi,"Ashok Vihar, Delhi - DPCC",18-05-2024 20:00:00,28.695381,77.181665,NO2,15,171,82
India,Delhi,Delhi,"Aya Nagar, Delhi - IMD",18-05-2024 20:00:00,28.4706914,77.1099364,PM10,40,464,204
India,Delhi,Delhi,"Bawana, Delhi - DPCC",18-05-2024 20:00:00,28.776200,77.051074,PM10,185,421,309
India,Delhi,Delhi,"Bawana, Delhi - DPCC",18-05-2024 20:00:00,28.776200,77.051074,CO,56,101,62
India,Delhi,Delhi,"CRRI Mathura Road, Delhi - IMD",18-05-2024 20:00:00,28.5512005,77.2735737,PM10,153,430,303
India,Delhi,Delhi,"CRRI Mathura Road, Delhi - IMD",18-05-2024 20:00:00,28.5512005,77.2735737,CO,20,136,39
India,Delhi,Delhi,"Chandni Chowk, Delhi - IITM",18-05-2024 20:00:00,28.656756,77.227234,PM2.5,NA,NA,NA
India,Delhi,Delhi,"Chandni Chowk, Delhi - IITM",18-05-2024 20:00:00,28.656756,77.227234,CO,47,131,59
India,Delhi,Delhi,"DTU, Delhi - CPCB",18-05-2024 20:00:00,28.7500499,77.1112615,NO2,NA,NA,NA
India,Delhi,Delhi,"Dr. Karni Singh Shooting Range, Delhi - DPCC",18-05-2024 20:00:00,28.498571,77.264840,PM2.5,73,334,207
India,Delhi,Delhi,"Dr. Karni Singh Shooting Range, Delhi - DPCC",18-05-2024 20:00:00,28.498571,77.264840,NO2,31,133,75
India,Delhi,Delhi,"Dr. Karni Singh Shooting Range, Delhi - DPCC",18-05-2024 20:00:00,28.498571,77.264840,NH3,5,14,8
India,Delhi,Delhi,"Dr. Karni Singh Shooting Range, Delhi - DPCC",18-05-2024 20:00:00,28.498571,77.264840,SO2,16,94,39
India,Delhi,Delhi,"Dwarka-Sector 8, Delhi - DPCC ",18-05-2024 20:00:00,28.5710274,77.0719006,PM10,162,500,332
India,Delhi,Delhi,"Dwarka-Sector 8, Delhi - DPCC ",18-05-2024 20:00:00,28.5710274,77.0719006,NO2,23,156,78
India,Delhi,Delhi,"Dwarka-Sector 8, Delhi - DPCC ",18-05-2024 20:00:00,28.5710274,77.0719006,SO2,3,19,12
India,Delhi,Delhi,"IHBAS, Dilshad Garden, Delhi - CPCB",18-05-2024 20:00:00,28.6811736,77.3025234,NH3,4,8,6
India,Delhi,Delhi,"IHBAS, Dilshad Garden, Delhi - CPCB",18-05-2024 20:00:00,28.6811736,77.3025234,CO,10,98,48
India,Delhi,Delhi,"Jahangirpuri, Delhi - DPCC",18-05-2024 20:00:00,28.732820,77.170633,PM2.5,80,417,272
India,Delhi,Delhi,"Jahangirpuri, Delhi - DPCC",18-05-2024 20:00:00,28.732820,77.170633,NO2,15,70,39
India,Delhi,Delhi,"Jawaharlal Nehru Stadium, Delhi - DPCC",18-05-2024 20:00:00,28.580280,77.233829,NO2,3,43,20
India,Delhi,Delhi,"Jawaharlal Nehru Stadium, Delhi - DPCC",18-05-2024 20:00:00,28.580280,77.233829,SO2,14,79,48
India,Delhi,Delhi,"Jawaharlal Nehru Stadium, Delhi - DPCC",18-05-2024 20:00:00,28.580280,77.233829,OZONE,1,230,172
India,Delhi,Delhi,"Lodhi Road, Delhi - IITM",18-05-2024 20:00:00,28.588333,77.221667,SO2,15,49,31
India,Delhi,Delhi,"Major Dhyan Chand National Stadium, Delhi - DPCC",18-05-2024 20:00:00,28.611281,77.237738,PM2.5,77,318,219
India,Delhi,Delhi,"Major Dhyan Chand National Stadium, Delhi - DPCC",18-05-2024 20:00:00,28.611281,77.237738,NH3,9,12,10
India,Delhi,Delhi,"Mandir Marg, Delhi - DPCC",18-05-2024 20:00:00,28.636429,77.201067,PM2.5,70,311,211
India,Delhi,Delhi,"Mandir Marg, Delhi - DPCC",18-05-2024 20:00:00,28.636429,77.201067,CO,3,111,29
India,Delhi,Delhi,"Mandir Marg, Delhi - DPCC",18-05-2024 20:00:00,28.636429,77.201067,OZONE,1,37,21
India,Delhi,Delhi,"Najafgarh, Delhi - DPCC",18-05-2024 20:00:00,28.570173,76.933762,PM10,113,346,208
India,Delhi,Delhi,"Najafgarh, Delhi - DPCC",18-05-2024 20:00:00,28.570173,76.933762,NO2,9,49,24
India,Delhi,Delhi,"Najafgarh, Delhi - DPCC",18-05-2024 20:00:00,28.570173,76.933762,NH3,6,23,10
India,Delhi,Delhi,"Nehru Nagar, Delhi - DPCC",18-05-2024 20:00:00,28.567890,77.250515,PM10,138,332,227
India,Delhi,Delhi,"North Campus, DU, Delhi - IMD",18-05-2024 20:00:00,28.6573814,77.1585447,PM2.5,98,361,269
India,Delhi,Delhi,"North Campus, DU, Delhi - IMD",18-05-2024 20:00:00,28.6573814,77.1585447,NO2,13,77,41
India,Delhi,Delhi,"North Campus, DU, Delhi - IMD",18-05-2024 20:00:00,28.6573814,77.1585447,CO,50,154,67
India,Delhi,Delhi,"Okhla Phase-2, Delhi - DPCC",18-05-2024 20:00:00,28.530785,77.271255,PM10,157,436,289
India,Delhi,Delhi,"Okhla Phase-2, Delhi - DPCC",18-05-2024 20:00:00,28.530785,77.271255,NH3,12,18,15
India,Delhi,Delhi,"Punjabi Bagh, Delhi - DPCC",18-05-2024 20:00:00,28.674045,77.131023,OZONE,2,50,35
India,Delhi,Delhi,"Pusa, Delhi - DPCC",18-05-2024 20:00:00,28.639652,77.146275,CO,4,121,44
India,Delhi,Delhi,"Pusa, Delhi - IMD",18-05-2024 20:00:00,28.636110,77.173332,OZONE,3,70,70
India,Delhi,Delhi,"R K Puram, Delhi - DPCC",18-05-2024 20:00:00,28.563262,77.186937,PM2.5,63,348,256
India,Delhi,Delhi,"R K Puram, Delhi - DPCC",18-05-2024 20:00:00,28.563262,77.186937,NH3,5,35,12
India,Delhi,Delhi,"R K Puram, Delhi - DPCC",18-05-2024 20:00:00,28.563262,77.186937,OZONE,16,264,158
India,Delhi,Delhi,"Rohini, Delhi - DPCC",18-05-2024 20:00:00,28.732528,77.119920,NO2,17,269,87
India,Delhi,Delhi,"Sonia Vihar, Delhi - DPCC",18-05-2024 20:00:00,28.710508,77.249485,PM2.5,75,339,235
India,Delhi,Delhi,"Sonia Vihar, Delhi - DPCC",18-05-2024 20:00:00,28.710508,77.249485,NO2,16,128,70
India,Delhi,Delhi,"Sri Aurobindo Marg, Delhi - DPCC",18-05-2024 20:00:00,28.531346,77.190156,PM2.5,NA,NA,NA
India,Delhi,Delhi,"Sri Aurobindo Marg, Delhi - DPCC",18-05-2024 20:00:00,28.531346,77.190156,NO2,9,77,38
India,Delhi,Delhi,"Sri Aurobindo Marg, Delhi - DPCC",18-05-2024 20:00:00,28.531346,77.190156,NH3,8,14,10
India,Delhi,Delhi,"Sri Aurobindo Marg, Delhi - DPCC",18-05-2024 20:00:00,28.531346,77.190156,CO,8,98,18
India,Gujarat,Ahmedabad,"Chandkheda, Ahmedabad - IITM",18-05-2024 20:00:00,23.107969,72.574648,SO2,1,52,18
India,Gujarat,Ahmedabad,"Raikhad, Ahmedabad - IITM",18-05-2024 20:00:00,23.020509,72.579261,CO,9,76,25
India,Gujarat,Ahmedabad,"Rakhial, Ahmedabad - IITM",18-05-2024 20:00:00,23.016834,72.625775,PM10,81,133,103
India,Gujarat,Ahmedabad,"Rakhial, Ahmedabad - IITM",18-05-2024 20:00:00,23.016834,72.625775,NO2,75,262,141
India,Gujarat,Ahmedabad,"Rakhial, Ahmedabad - IITM",18-05-2024 20:00:00,23.016834,72.625775,CO,50,117,76
India,Gujarat,Ahmedabad,"SVPI Airport Hansol, Ahmedabad - IITM",18-05-2024 20:00:00,23.076793,72.627874,SO2,4,16,7
India,Gujarat,Ahmedabad,"SVPI Airport Hansol, Ahmedabad - IITM",18-05-2024 20:00:00,23.076793,72.627874,OZONE,8,64,56
India,Gujarat,Ahmedabad,"Sardar Vallabhbhai Patel Stadium, Ahmedabad - IITM",18-05-2024 20:00:00,23.043070,72.562968,PM10,86,132,108
India,Gujarat,Ahmedabad,"Sardar Vallabhbhai Patel Stadium, Ahmedabad - IITM",18-05-2024 20:00:00,23.043070,72.562968,NO2,29,68,54
India,Gujarat,Ankleshwar,"GIDC, Ankleshwar - GPCB",18-05-2024 20:00:00,21.613267,73.010555,PM2.5,42,92,62
India,Gujarat,Ankleshwar,"GIDC, Ankleshwar - GPCB",18-05-2024 20:00:00,21.613267,73.010555,OZONE,21,37,35
India,Gujarat,Surat,"Science Center, Surat - SMC",18-05-2024 20:00:00,21.170046,72.795405,PM10,16,57,31
India,Gujarat,Vatva,"Phase-4 GIDC, Vatva - GPCB",18-05-2024 20:00:00,22.969611,72.643500,NO2,22,84,44
India,Haryana,Ambala,"Patti Mehar, Ambala - HSPCB",18-05-2024 20:00:00,30.379589,76.778328,OZONE,37,66,46
India,Haryana,Bahadurgarh,"Arya Nagar, Bahadurgarh - HSPCB",18-05-2024 20:00:00,28.6701,76.9254,NH3,8,10,9
India,Haryana,Bahadurgarh,"Arya Nagar, Bahadurgarh - HSPCB",18-05-2024 20:00:00,28.6701,76.9254,OZONE,32,40,37
India,Haryana,Ballabgarh,"Nathu Colony, Ballabgarh - HSPCB",18-05-2024 20:00:00,28.3419248,77.319699,SO2,4,78,31
India,Haryana,Ballabgarh,"Nathu Colony, Ballabgarh - HSPCB",18-05-2024 20:00:00,28.3419248,77.319699,CO,4,126,37
India,Haryana,Bhiwani,"H.B. Colony, Bhiwani - HSPCB",18-05-2024 20:00:00,28.806223,76.141105,CO,8,34,20
India,Haryana,Charkhi Dadri,"Mini Secretariat, Charkhi Dadri - HSPCB",18-05-2024 20:00:00,28.593883,76.270653,PM2.5,70,185,116
India,Haryana,Charkhi Dadri,"Mini Secretariat, Charkhi Dadri - HSPCB",18-05-2024 20:00:00,28.593883,76.270653,PM10,56,109,82
India,Haryana,Charkhi Dadri,"Mini Secretariat, Charkhi Dadri - HSPCB",18-05-2024 20:00:00,28.593883,76.270653,SO2,7,35,17
India,Haryana,Dharuhera,"Municipal Corporation Office, Dharuhera -  HSPCB",18-05-2024 20:00:00,28.206800,76.799700,PM2.5,51,313,159
India,Haryana,Dharuhera,"Municipal Corporation Office, Dharuhera -  HSPCB",18-05-2024 20:00:00,28.206800,76.799700,NO2,47,112,79
India,Haryana,Dharuhera,"Municipal Corporation Office, Dharuhera -  HSPCB",18-05-2024 20:00:00,28.206800,76.799700,SO2,8,22,13
India,Haryana,Dharuhera,"Municipal Corporation Office, Dharuhera -  HSPCB",18-05-2024 20:00:00,28.206800,76.799700,OZONE,3,49,42
India,Haryana,Faridabad,"New Industrial Town, Faridabad - HSPCB",18-05-2024 20:00:00,28.39072,77.30059,SO2,11,13,12
India,Haryana,Faridabad,"New Industrial Town, Faridabad - HSPCB",18-05-2024 20:00:00,28.39072,77.30059,OZONE,1,137,82
India,Haryana,Faridabad,"Sector 30, Faridabad - HSPCB",18-05-2024 20:00:00,28.4417,77.3217,PM10,195,223,208
India,Haryana,Faridabad,"Sector- 16A, Faridabad - HSPCB",18-05-2024 20:00:00,28.4088421,77.3099081,OZONE,NA,NA,NA
India,Haryana,Fatehabad,"Huda Sector, Fatehabad - HSPCB",18-05-2024 20:00:00,29.503664,75.467934,PM2.5,63,284,146
India,Haryana,Gurugram,"Teri Gram, Gurugram - HSPCB",18-05-2024 20:00:00,28.4275,77.1465,OZONE,29,105,82
India,Haryana,Gurugram,"Vikas Sadan, Gurugram - HSPCB",18-05-2024 20:00:00,28.4501238,77.0263051,NO2,5,26,14
India,Haryana,Gurugram,"Vikas Sadan, Gurugram - HSPCB",18-05-2024 20:00:00,28.4501238,77.0263051,SO2,7,64,24
India,Haryana,Hisar,"Urban Estate-II, Hisar - HSPCB",18-05-2024 20:00:00,29.140560,75.744941,NH3,NA,NA,NA
India,Haryana,Jind,"Police Lines, Jind - HSPCB",18-05-2024 20:00:00,29.307814,76.337619,SO2,4,101,26
India,Haryana,Kaithal,"Rishi Nagar, Kaithal - HSPCB",18-05-2024 20:00:00,29.8006,76.4155,NO2,24,26,25
India,Haryana,Kurukshetra,"Sector-7, Kurukshetra - HSPCB",18-05-2024 20:00:00,29.966942,76.875879,PM2.5,124,316,237
India,Haryana,Kurukshetra,"Sector-7, Kurukshetra - HSPCB",18-05-2024 20:00:00,29.966942,76.875879,NO2,9,10,10
India,Haryana,Mandikhera,"General Hospital, Mandikhera - HSPCB",18-05-2024 20:00:00,27.9002,76.9938,NO2,19,24,22
India,Haryana,Manesar,"Sector-2 IMT, Manesar - HSPCB",18-05-2024 20:00:00,28.360699,76.936090,PM10,64,174,119
India,Haryana,Narnaul,"Shastri Nagar, Narnaul - HSPCB",18-05-2024 20:00:00,28.060249,76.113115,NH3,NA,NA,NA
India,Haryana,Palwal,"Shyam Nagar, Palwal - HSPCB",18-05-2024 20:00:00,28.1485564,77.3320667,PM10,101,129,117
India,Haryana,Palwal,"Shyam Nagar, Palwal - HSPCB",18-05-2024 20:00:00,28.1485564,77.3320667,OZONE,6,64,29
India,Haryana,Panipat,"Sector-18, Panipat - HSPCB",18-05-2024 20:00:00,29.432304,76.972765,PM10,88,92,90
India,Haryana,Panipat,"Sector-18, Panipat - HSPCB",18-05-2024 20:00:00,29.432304,76.972765,NH3,2,3,2
India,Haryana,Panipat,"Sector-18, Panipat - HSPCB",18-05-2024 20:00:00,29.432304,76.972765,SO2,18,19,19
India,Haryana,Sonipat,"Murthal, Sonipat - HSPCB",18-05-2024 20:00:00,29.027200,77.062100,PM10,117,381,158
India,Himachal Pradesh,Baddi,"HIMUDA Complex Phase-1, Baddi - HPPCB",18-05-2024 20:00:00,30.943887,76.801991,NH3,4,7,6
India,Himachal Pradesh,Baddi,"HIMUDA Complex Phase-1, Baddi - HPPCB",18-05-2024 20:00:00,30.943887,76.801991,SO2,2,121,49
India,Jharkhand,Dhanbad,"Kalakusuma, Dhanbad - DMC",18-05-2024 20:00:00,23.811548,86.481238,PM2.5,NA,NA,NA
India,Jharkhand,Dhanbad,"Sardar Patel Nagar, Dhanbad - JSPCB",18-05-2024 20:00:00,23.80569,86.44268,CO,128,152,136
India,Jharkhand,Jorapokhar,"Tata Stadium, Jorapokhar - JSPCB",18-05-2024 20:00:00,23.707909,86.414670,NO2,NA,NA,NA
India,Jharkhand,Jorapokhar,"Tata Stadium, Jorapokhar - JSPCB",18-05-2024 20:00:00,23.707909,86.414670,OZONE,1,13,8
India,Karnataka,Bagalkot,"Vidayagiri, Bagalkot - KSPCB",18-05-2024 20:00:00,16.172806,75.659694,NO2,9,10,9
India,Karnataka,Belgaum,"Ramteerth Nagar, Belgaum - KSPCB",18-05-2024 20:00:00,15.888653,74.541751,NO2,26,94,48
India,Karnataka,Bengaluru,"Hombegowda Nagar, Bengaluru - KSPCB",18-05-2024 20:00:00,12.938539,77.590100,PM2.5,14,42,25
India,Karnataka,Bengaluru,"Jayanagar 5th Block, Bengaluru - KSPCB",18-05-2024 20:00:00,12.920984,77.584908,NO2,18,30,22
India,Karnataka,Bengaluru,"Jayanagar 5th Block, Bengaluru - KSPCB",18-05-2024 20:00:00,12.920984,77.584908,CO,20,23,22
India,Karnataka,Bengaluru,"Kasturi Nagar, Bengaluru - KSPCB",18-05-2024 20:00:00,13.003872,77.664217,PM10,51,52,52
India,Karnataka,Bengaluru,"Kasturi Nagar, Bengaluru - KSPCB",18-05-2024 20:00:00,13.003872,77.664217,NO2,16,17,17
India,Karnataka,Bengaluru,"Kasturi Nagar, Bengaluru - KSPCB",18-05-2024 20:00:00,13.003872,77.664217,NH3,3,4,4
India,Karnataka,Bengaluru,"Sanegurava Halli, Bengaluru - KSPCB",18-05-2024 20:00:00,12.990328,77.5431385,CO,8,40,28
India,Karnataka,Bengaluru,"Shivapura_Peenya, Bengaluru - KSPCB",18-05-2024 20:00:00,13.0246342,77.5080115,SO2,3,12,6
India,Karnataka,Bidar,"Naubad, Bidar - KSPCB",18-05-2024 20:00:00,17.930306,77.482194,NH3,2,3,3
India,Karnataka,Davanagere,"Devaraj Urs Badavane, Davanagere - KSPCB",18-05-2024 20:00:00,14.475800,75.905200,NO2,7,18,12
India,Karnataka,Davanagere,"Devaraj Urs Badavane, Davanagere - KSPCB",18-05-2024 20:00:00,14.475800,75.905200,SO2,1,94,10
India,Karnataka,Dharwad,"Kalabhavan, Dharwad - KSPCB",18-05-2024 20:00:00,15.459706,75.008381,PM10,NA,NA,NA
India,Karnataka,Dharwad,"Kalabhavan, Dharwad - KSPCB",18-05-2024 20:00:00,15.459706,75.008381,SO2,NA,NA,NA
India,Karnataka,Dharwad,"Kalabhavan, Dharwad - KSPCB",18-05-2024 20:00:00,15.459706,75.008381,OZONE,2,13,6
India,Karnataka,Gadag,"Panchal Nagar, Gadag - KSPCB",18-05-2024 20:00:00,15.411456,75.638133,NH3,1,3,2
India,Karnataka,Gadag,"Panchal Nagar, Gadag - KSPCB",18-05-2024 20:00:00,15.411456,75.638133,SO2,6,20,14
India,Karnataka,Hassan,"B.Katihalli, Hassan - KSPCB",18-05-2024 20:00:00,13.008556,76.125258,PM10,21,99,58
India,Karnataka,Haveri,"Ashwini Nagar, Haveri - KSPCB",18-05-2024 20:00:00,14.791800,75.389600,NH3,3,4,3
India,Karnataka,Haveri,"Ashwini Nagar, Haveri - KSPCB",18-05-2024 20:00:00,14.791800,75.389600,CO,38,40,38
India,Karnataka,Haveri,"Ashwini Nagar, Haveri - KSPCB",18-05-2024 20:00:00,14.791800,75.389600,OZONE,38,72,66
India,Karnataka,Hubballi,"Lingaraj Nagar, Hubballi - KSPCB",18-05-2024 20:00:00,15.3714823,75.1160168,PM10,48,85,59
India,Karnataka,Hubballi,"Lingaraj Nagar, Hubballi - KSPCB",18-05-2024 20:00:00,15.3714823,75.1160168,NO2,10,10,10
India,Karnataka,Kalaburagi,"Lal Bahadur Shastri Nagar, Kalaburagi - KSPCB",18-05-2024 20:00:00,17.321993,76.822628,OZONE,11,93,82
India,Karnataka,Karwar,"KHB Colony, Karwar - KSPCB",18-05-2024 20:00:00,14.816666,74.141003,PM2.5,27,60,41
India,Karnataka,Kolar,"Tamaka Ind. Area, Kolar - KSPCB",18-05-2024 20:00:00,13.1276288,78.1570122,NO2,16,27,21
India,Karnataka,Kolar,"Tamaka Ind. Area, Kolar - KSPCB",18-05-2024 20:00:00,13.1276288,78.1570122,CO,4,18,14
India,Karnataka,Kolar,"Tamaka Ind. Area, Kolar - KSPCB",18-05-2024 20:00:00,13.1276288,78.1570122,OZONE,11,47,36
India,Karnataka,Koppal,"Diwator Nagar, Koppal - KSPCB",18-05-2024 20:00:00,15.347630,76.181767,PM10,10,30,18
India,Karnataka,Koppal,"Diwator Nagar, Koppal - KSPCB",18-05-2024 20:00:00,15.347630,76.181767,SO2,27,28,27
India,Karnataka,Koppal,"Diwator Nagar, Koppal - KSPCB",18-05-2024 20:00:00,15.347630,76.181767,OZONE,18,60,51
India,Karnataka,Mysuru,"Hebbal 1st Stage, Mysuru - KSPCB",18-05-2024 20:00:00,12.21041,76.37376,PM2.5,NA,NA,NA
India,Karnataka,Mysuru,"Hebbal 1st Stage, Mysuru - KSPCB",18-05-2024 20:00:00,12.21041,76.37376,NH3,NA,NA,NA
India,Karnataka,Mysuru,"Hebbal 1st Stage, Mysuru - KSPCB",18-05-2024 20:00:00,12.21041,76.37376,SO2,NA,NA,NA
India,Karnataka,Mysuru,"Hebbal 1st Stage, Mysuru - KSPCB",18-05-2024 20:00:00,12.21041,76.37376,OZONE,26,59,41
India,Karnataka,Raichur,"Haji Colony, Raichur - KSPCB",18-05-2024 20:00:00,16.208139,77.348417,OZONE,1,17,7
India,Karnataka,Ramanagara,"Vijay Nagar, Ramanagara - KSPCB",18-05-2024 20:00:00,12.733409,77.298051,PM10,24,39,30
India,Karnataka,Ramanagara,"Vijay Nagar, Ramanagara - KSPCB",18-05-2024 20:00:00,12.733409,77.298051,SO2,31,50,38
India,Karnataka,Ramanagara,"Vijay Nagar, Ramanagara - KSPCB",18-05-2024 20:00:00,12.733409,77.298051,OZONE,24,32,29
India,Karnataka,Shivamogga,"Vinoba Nagara, Shivamogga - KSPCB",18-05-2024 20:00:00,13.940000,75.555917,PM2.5,28,48,38
India,Karnataka,Shivamogga,"Vinoba Nagara, Shivamogga - KSPCB",18-05-2024 20:00:00,13.940000,75.555917,SO2,2,11,4
India,Karnataka,Udupi,"Brahmagiri, Udupi - KSPCB",18-05-2024 20:00:00,13.34194444,74.74694444,NO2,28,32,30
India,Karnataka,Udupi,"Brahmagiri, Udupi - KSPCB",18-05-2024 20:00:00,13.34194444,74.74694444,CO,48,52,48
India,Karnataka,Vijayapura,"Ibrahimpur, Vijayapura - KSPCB",18-05-2024 20:00:00,16.802639,75.722694,SO2,NA,NA,NA
India,Karnataka,Vijayapura,"Ibrahimpur, Vijayapura - KSPCB",18-05-2024 20:00:00,16.802639,75.722694,OZONE,14,16,15
India,Kerala,Kollam,"Polayathode, Kollam - Kerala PCB",18-05-2024 20:00:00,8.8787,76.6073,NO2,NA,NA,NA
India,Kerala,Kollam,"Polayathode, Kollam - Kerala PCB",18-05-2024 20:00:00,8.8787,76.6073,CO,15,17,16
India,Kerala,Thiruvananthapuram,"Kariavattom, Thiruvananthapuram - Kerala PCB",18-05-2024 20:00:00,8.563700,76.886500,NH3,1,1,1
India,Kerala,Thiruvananthapuram,"Kariavattom, Thiruvananthapuram - Kerala PCB",18-05-2024 20:00:00,8.563700,76.886500,OZONE,28,32,30
India,Kerala,Thiruvananthapuram,"Plammoodu, Thiruvananthapuram - Kerala PCB",18-05-2024 20:00:00,8.5149093,76.9435879,PM10,8,164,42
India,Kerala,Thiruvananthapuram,"Plammoodu, Thiruvananthapuram - Kerala PCB",18-05-2024 20:00:00,8.5149093,76.9435879,NO2,8,10,9
India,Kerala,Thrissur,"Corporation Ground, Thrissur - Kerala PCB",18-05-2024 20:00:00,10.532400,76.215900,PM2.5,46,50,48
India,Kerala,Thrissur,"Corporation Ground, Thrissur - Kerala PCB",18-05-2024 20:00:00,10.532400,76.215900,OZONE,29,32,30
India,Madhya Pradesh,Bhopal,"Idgah Hills, Bhopal - MPPCB",18-05-2024 20:00:00,23.264759,77.381568,PM2.5,60,140,82
India,Madhya Pradesh,Bhopal,"Idgah Hills, Bhopal - MPPCB",18-05-2024 20:00:00,23.264759,77.381568,CO,16,74,26
India,Madhya Pradesh,Bhopal,"Idgah Hills, Bhopal - MPPCB",18-05-2024 20:00:00,23.264759,77.381568,OZONE,44,131,112
India,Madhya Pradesh,Bhopal,"Paryavaran Parisar, Bhopal - MPPCB",18-05-2024 20:00:00,23.210494,77.425409,OZONE,52,131,108
India,Madhya Pradesh,Bhopal,"T T Nagar, Bhopal - MPPCB",18-05-2024 20:00:00,23.233584,77.400574,CO,7,44,21
India,Madhya Pradesh,Dewas,"Bhopal Chauraha, Dewas - MPPCB",18-05-2024 20:00:00,22.9682591,76.064118,PM10,42,144,82
India,Madhya Pradesh,Dewas,"Bhopal Chauraha, Dewas - MPPCB",18-05-2024 20:00:00,22.9682591,76.064118,CO,14,40,23
India,Madhya Pradesh,Gwalior,"Deen Dayal Nagar, Gwalior - MPPCB",18-05-2024 20:00:00,26.259242,78.216432,PM2.5,NA,NA,NA
India,Madhya Pradesh,Gwalior,"Deen Dayal Nagar, Gwalior - MPPCB",18-05-2024 20:00:00,26.259242,78.216432,NH3,NA,NA,NA
India,Madhya Pradesh,Gwalior,"Maharaj Bada, Gwalior - MPPCB",18-05-2024 20:00:00,26.200388,78.147714,PM2.5,18,140,51
India,Madhya Pradesh,Gwalior,"Phool Bagh, Gwalior - Mondelez Ind. Food",18-05-2024 20:00:00,26.210536,78.171,PM10,26,158,85
India,Madhya Pradesh,Indore,"Chhoti Gwaltoli, Indore - MPPCB",18-05-2024 20:00:00,22.4310,75.5213,PM2.5,38,82,63
India,Madhya Pradesh,Indore,"Chhoti Gwaltoli, Indore - MPPCB",18-05-2024 20:00:00,22.4310,75.5213,NO2,53,131,73
India,Madhya Pradesh,Indore,"Regional Park, Indore - IMC",18-05-2024 20:00:00,22.6780,75.8559,PM2.5,NA,NA,NA
India,Madhya Pradesh,Indore,"Regional Park, Indore - IMC",18-05-2024 20:00:00,22.6780,75.8559,PM10,NA,NA,NA
India,Madhya Pradesh,Indore,"Regional Park, Indore - IMC",18-05-2024 20:00:00,22.6780,75.8559,SO2,49,53,52
India,Madhya Pradesh,Indore,"Regional Park, Indore - IMC",18-05-2024 20:00:00,22.6780,75.8559,OZONE,11,29,22
India,Madhya Pradesh,Indore,"Residency Area, Indore - IMC",18-05-2024 20:00:00,22.7084,75.8815,PM10,40,77,52
India,Madhya Pradesh,Indore,"Residency Area, Indore - IMC",18-05-2024 20:00:00,22.7084,75.8815,CO,13,14,13
India,Madhya Pradesh,Indore,"Residency Area, Indore - IMC",18-05-2024 20:00:00,22.7084,75.8815,OZONE,10,22,20
India,Madhya Pradesh,Jabalpur,"Govindh Bhavan Colony, Jabalpur - JMC",18-05-2024 20:00:00,23.163174,79.973061,NO2,8,37,14
India,Madhya Pradesh,Jabalpur,"Govindh Bhavan Colony, Jabalpur - JMC",18-05-2024 20:00:00,23.163174,79.973061,SO2,34,78,45
India,Madhya Pradesh,Jabalpur,"Gupteshwar, Jabalpur - JMC",18-05-2024 20:00:00,23.142888,79.916147,SO2,8,58,20
India,Madhya Pradesh,Jabalpur,"Gupteshwar, Jabalpur - JMC",18-05-2024 20:00:00,23.142888,79.916147,CO,15,70,31
India,Madhya Pradesh,Jabalpur,"Marhatal, Jabalpur - MPPCB",18-05-2024 20:00:00,23.168606,79.932247,PM2.5,40,148,77
India,Madhya Pradesh,Jabalpur,"Marhatal, Jabalpur - MPPCB",18-05-2024 20:00:00,23.168606,79.932247,NO2,14,117,42
India,Madhya Pradesh,Jabalpur,"Suhagi, Jabalpur - JMC",18-05-2024 20:00:00,23.218135,79.957770,NO2,38,45,41
India,Madhya Pradesh,Katni,"Gole Bazar, Katni - MPPCB",18-05-2024 20:00:00,23.50016,80.23284,CO,14,70,22
India,Madhya Pradesh,Pithampur,"Sector-2 Industrial Area, Pithampur - MPPCB",18-05-2024 20:00:00,22.624758,75.675238,OZONE,23,68,55
India,Madhya Pradesh,Sagar,"Civil Lines, Sagar - MPPCB",18-05-2024 20:00:00,23.838586,78.759431,PM2.5,48,92,72
India,Madhya Pradesh,Sagar,"Civil Lines, Sagar - MPPCB",18-05-2024 20:00:00,23.838586,78.759431,PM10,58,108,86
India,Madhya Pradesh,Sagar,"Civil Lines, Sagar - MPPCB",18-05-2024 20:00:00,23.838586,78.759431,NO2,6,13,9
India,Madhya Pradesh,Sagar,"Civil Lines, Sagar - MPPCB",18-05-2024 20:00:00,23.838586,78.759431,SO2,2,14,8
India,Madhya Pradesh,Sagar,"Deen Dayal Nagar, Sagar - MPPCB",18-05-2024 20:00:00,23.8640158,78.80289321,PM10,103,133,116
India,Madhya Pradesh,Satna,"Bandhavgar Colony, Satna - Birla Cement",18-05-2024 20:00:00,24.58434363,80.8549414,PM2.5,36,69,53
India,Madhya Pradesh,Singrauli,"Suryakiran Bhawan NCL, Singrauli - MPPCB",18-05-2024 20:00:00,24.108970,82.645580,PM2.5,31,90,49
India,Madhya Pradesh,Singrauli,"Suryakiran Bhawan NCL, Singrauli - MPPCB",18-05-2024 20:00:00,24.108970,82.645580,NO2,12,34,20
India,Madhya Pradesh,Singrauli,"Suryakiran Bhawan NCL, Singrauli - MPPCB",18-05-2024 20:00:00,24.108970,82.645580,OZONE,41,87,72
India,Maharashtra,Ahmednagar,"Tarakpur, Ahmednagar - MPCB",18-05-2024 20:00:00,19.10122,74.73339,PM10,80,140,100
India,Maharashtra,Ahmednagar,"Tarakpur, Ahmednagar - MPCB",18-05-2024 20:00:00,19.10122,74.73339,NH3,2,9,5
India,Maharashtra,Ahmednagar,"Tarakpur, Ahmednagar - MPCB",18-05-2024 20:00:00,19.10122,74.73339,OZONE,35,152,129
India,Maharashtra,Amravati,"Shri Shivaji Science College, Amaravati - MPCB",18-05-2024 20:00:00,20.939198,77.765701,OZONE,2,76,55
India,Maharashtra,Aurangabad,"MIDC Chilkalthana, Aurangabad - MPCB",18-05-2024 20:00:00,19.875620,75.387310,NH3,5,6,5
India,Maharashtra,Aurangabad,"MIDC Chilkalthana, Aurangabad - MPCB",18-05-2024 20:00:00,19.875620,75.387310,CO,38,66,42
India,Maharashtra,Aurangabad,"More Chowk Waluj, Aurangabad - MPCB",18-05-2024 20:00:00,19.8389439,75.244448,PM10,52,98,72
India,Maharashtra,Aurangabad,"Rachnakar Colony, Aurangabad - MPCB",18-05-2024 20:00:00,19.863756,75.321188,PM2.5,74,164,98
India,Maharashtra,Aurangabad,"Rachnakar Colony, Aurangabad - MPCB",18-05-2024 20:00:00,19.863756,75.321188,PM10,102,161,115
India,Maharashtra,Belapur,"CBD Belapur, Belapur - MPCB",18-05-2024 20:00:00,19.0243902,73.0406721,SO2,2,8,5
India,Maharashtra,Bhiwandi,"Gokul Nagar, Bhiwandi - MPCB",18-05-2024 20:00:00,19.309073,73.057223,PM10,64,120,95
India,Maharashtra,Bhiwandi,"Gokul Nagar, Bhiwandi - MPCB",18-05-2024 20:00:00,19.309073,73.057223,OZONE,22,170,99
India,Maharashtra,Boisar,"Khaira, Boisar - MPCB",18-05-2024 20:00:00,19.786089,72.757971,NH3,NA,NA,NA
India,Maharashtra,Chandrapur,"Chauhan Colony, Chandrapur - MPCB",18-05-2024 20:00:00,19.962900,79.298714,PM2.5,3,28,12
India,Maharashtra,Chandrapur,"Chauhan Colony, Chandrapur - MPCB",18-05-2024 20:00:00,19.962900,79.298714,CO,24,27,25
India,Maharashtra,Chandrapur,"MIDC Khutala, Chandrapur - MPCB",18-05-2024 20:00:00,19.9775302,79.2337086,PM2.5,1,32,7
India,Maharashtra,Jalna,"Old MIDC, Jalna - MPCB",18-05-2024 20:00:00,19.854616,75.905894,PM10,41,86,51
India,Maharashtra,Jalna,"Old MIDC, Jalna - MPCB",18-05-2024 20:00:00,19.854616,75.905894,NO2,14,46,23
India,Maharashtra,Jalna,"Old MIDC, Jalna - MPCB",18-05-2024 20:00:00,19.854616,75.905894,OZONE,1,140,79
India,Maharashtra,Kalyan,"Khadakpada, Kalyan - MPCB",18-05-2024 20:00:00,19.25292,73.142019,PM10,74,125,102
India,Maharashtra,Kalyan,"Khadakpada, Kalyan - MPCB",18-05-2024 20:00:00,19.25292,73.142019,SO2,21,114,51
India,Maharashtra,Kolhapur,"Shivaji University, Kolhapur - MPCB",18-05-2024 20:00:00,16.6870449,74.2505872,PM2.5,80,166,117
India,Maharashtra,Kolhapur,"Shivaji University, Kolhapur - MPCB",18-05-2024 20:00:00,16.6870449,74.2505872,CO,60,89,74
India,Maharashtra,Latur,"Sawe Wadi, Latur - MPCB",18-05-2024 20:00:00,18.39963,76.57452,PM2.5,21,153,54
India,Maharashtra,Latur,"Sawe Wadi, Latur - MPCB",18-05-2024 20:00:00,18.39963,76.57452,NO2,13,121,40
India,Maharashtra,Mahad,"Kamble Tarf Birwadi, Mahad - MPCB",18-05-2024 20:00:00,18.1023399,73.4783687,SO2,6,102,42
India,Maharashtra,Malegaon,"Mahesh Nagar, Malegaon - MPCB",18-05-2024 20:00:00,20.555712,74.529236,PM10,86,164,114
India,Maharashtra,Malegaon,"Mahesh Nagar, Malegaon - MPCB",18-05-2024 20:00:00,20.555712,74.529236,NO2,5,38,17
India,Maharashtra,Mumbai,"Bandra Kurla Complex, Mumbai - MPCB",18-05-2024 20:00:00,19.065931,72.862131,PM10,81,111,99
India,Maharashtra,Mumbai,"Borivali East, Mumbai - IITM",18-05-2024 20:00:00,19.23241,72.86895,PM2.5,22,63,43
India,Maharashtra,Mumbai,"Borivali East, Mumbai - MPCB",18-05-2024 20:00:00,19.2243333,72.8658113,NO2,9,23,12
India,Maharashtra,Mumbai,"Byculla, Mumbai - BMC",18-05-2024 20:00:00,18.9767,72.8380,CO,5,16,10
India,Maharashtra,Mumbai,"Chakala-Andheri East, Mumbai - IITM",18-05-2024 20:00:00,19.11074,72.86084,NO2,38,55,44
India,Maharashtra,Mumbai,"Chembur, Mumbai - MPCB",18-05-2024 20:00:00,19.0364585,72.8954371,PM10,55,93,69
India,Maharashtra,Mumbai,"Colaba, Mumbai - MPCB",18-05-2024 20:00:00,18.910000,72.820000,PM2.5,25,49,36
India,Maharashtra,Mumbai,"Deonar, Mumbai - IITM",18-05-2024 20:00:00,19.04946,72.9230,OZONE,5,192,103
India,Maharashtra,Mumbai,"Ghatkopar, Mumbai - BMC",18-05-2024 20:00:00,19.083694,72.920967,NH3,2,10,4
India,Maharashtra,Mumbai,"Ghatkopar, Mumbai - BMC",18-05-2024 20:00:00,19.083694,72.920967,SO2,1,4,1
India,Maharashtra,Mumbai,"Ghatkopar, Mumbai - BMC",18-05-2024 20:00:00,19.083694,72.920967,CO,4,11,9
India,Maharashtra,Mumbai,"Kandivali East, Mumbai - MPCB",18-05-2024 20:00:00,19.205800,72.868200,PM2.5,27,500,191
India,Maharashtra,Mumbai,"Kherwadi_Bandra East, Mumbai - MPCB",18-05-2024 20:00:00,19.0632143,72.8456324,PM2.5,26,86,44
India,Maharashtra,Mumbai,"Khindipada-Bhandup West, Mumbai - IITM",18-05-2024 20:00:00,19.1653323,72.922099,PM2.5,23,85,51
India,Maharashtra,Mumbai,"Khindipada-Bhandup West, Mumbai - IITM",18-05-2024 20:00:00,19.1653323,72.922099,PM10,24,102,60
India,Maharashtra,Mumbai,"Khindipada-Bhandup West, Mumbai - IITM",18-05-2024 20:00:00,19.1653323,72.922099,NO2,5,31,8
India,Maharashtra,Mumbai,"Kurla, Mumbai - MPCB",18-05-2024 20:00:00,19.0863,72.8888,SO2,32,32,32
India,Maharashtra,Mumbai,"Mindspace-Malad West, Mumbai - MPCB",18-05-2024 20:00:00,19.1878657,72.8304069,CO,20,25,21
India,Maharashtra,Mumbai,"Mulund West, Mumbai - MPCB",18-05-2024 20:00:00,19.1750,72.9419,CO,39,39,39
India,Maharashtra,Mumbai,"Navy Nagar-Colaba, Mumbai - IITM",18-05-2024 20:00:00,18.897756,72.813320,OZONE,45,72,66
India,Maharashtra,Mumbai,"Sion, Mumbai - MPCB",18-05-2024 20:00:00,19.047000,72.874600,PM10,68,107,85
India,Maharashtra,Mumbai,"Vile Parle West, Mumbai - MPCB",18-05-2024 20:00:00,19.10861,72.83622,NH3,11,11,11
India,Maharashtra,Mumbai,"Worli, Mumbai - MPCB",18-05-2024 20:00:00,18.9936162,72.8128113,NH3,NA,NA,NA
India,Maharashtra,Mumbai,"Worli, Mumbai - MPCB",18-05-2024 20:00:00,18.9936162,72.8128113,OZONE,2,6,4
India,Maharashtra,Nagpur,"Opp GPO Civil Lines, Nagpur - MPCB",18-05-2024 20:00:00,21.152875,79.0517531,PM2.5,8,118,34
India,Maharashtra,Nanded,"Sneh Nagar, Nanded - MPCB",18-05-2024 20:00:00,19.173852,77.296291,NH3,1,2,2
India,Maharashtra,Nashik,"Gangapur Road, Nashik - MPCB",18-05-2024 20:00:00,20.0073285,73.7762427,OZONE,43,153,133
India,Maharashtra,Nashik,"MIDC Ambad, Nashik - MPCB",18-05-2024 20:00:00,19.950220,73.731480,PM10,NA,NA,NA
India,Maharashtra,Nashik,"MIDC Ambad, Nashik - MPCB",18-05-2024 20:00:00,19.950220,73.731480,NH3,NA,NA,NA
India,Maharashtra,Nashik,"Pandav Nagari, Nashik - MPCB",18-05-2024 20:00:00,19.9591346,73.7788008,CO,10,28,20
India,Maharashtra,Navi Mumbai,"Kopripada-Vashi, Navi Mumbai - MPCB",18-05-2024 20:00:00,19.090337,73.014232,PM10,51,500,199
India,Maharashtra,Navi Mumbai,"Mahape, Navi Mumbai - MPCB",18-05-2024 20:00:00,19.1135051,73.008978,NO2,84,87,85
India,Maharashtra,Navi Mumbai,"Mahape, Navi Mumbai - MPCB",18-05-2024 20:00:00,19.1135051,73.008978,CO,4,9,8
India,Maharashtra,Navi Mumbai,"Mahape, Navi Mumbai - MPCB",18-05-2024 20:00:00,19.1135051,73.008978,OZONE,37,60,50
India,Maharashtra,Navi Mumbai,"Nerul, Navi Mumbai - MPCB",18-05-2024 20:00:00,19.008751,73.016620,NH3,3,3,3
India,Maharashtra,Navi Mumbai,"Sector-19A Nerul, Navi Mumbai - IITM",18-05-2024 20:00:00,19.044,73.0325,CO,34,47,39
India,Maharashtra,Navi Mumbai,"Sector-2E Kalamboli, Navi Mumbai - MPCB",18-05-2024 20:00:00,19.02579,73.10297,SO2,1,21,7
India,Maharashtra,Navi Mumbai,"Tondare-Taloja, Navi Mumbai - MPCB",18-05-2024 20:00:00,19.0630,73.1209,PM10,78,111,96
India,Maharashtra,Navi Mumbai,"Tondare-Taloja, Navi Mumbai - MPCB",18-05-2024 20:00:00,19.0630,73.1209,NO2,24,62,43
India,Maharashtra,Navi Mumbai,"Tondare-Taloja, Navi Mumbai - MPCB",18-05-2024 20:00:00,19.0630,73.1209,OZONE,2,85,46
India,Maharashtra,Parbhani,"Masoom Colony, Parbhani - MPCB",18-05-2024 20:00:00,19.265594,76.761463,OZONE,10,154,116
India,Maharashtra,Pimpri-Chinchwad,"Gavalinagar, Pimpri Chinchwad - MPCB",18-05-2024 20:00:00,18.63673,73.82487,PM2.5,49,84,69
India,Maharashtra,Pimpri-Chinchwad,"Gavalinagar, Pimpri Chinchwad - MPCB",18-05-2024 20:00:00,18.63673,73.82487,PM10,71,108,94
India,Maharashtra,Pimpri-Chinchwad,"Thergaon, Pimpri Chinchwad - MPCB",18-05-2024 20:00:00,18.616318,73.765797,PM10,45,75,62
India,Maharashtra,Pimpri-Chinchwad,"Thergaon, Pimpri Chinchwad - MPCB",18-05-2024 20:00:00,18.616318,73.765797,NO2,15,88,42
India,Maharashtra,Pune,"Bhosari, Pune - IITM",18-05-2024 20:00:00,18.640051,73.848956,OZONE,4,98,79
India,Maharashtra,Pune,"Karve Road, Pune - MPCB",18-05-2024 20:00:00,18.5011743,73.8165527,NO2,3,13,8
India,Maharashtra,Pune,"Mhada Colony, Pune - IITM",18-05-2024 20:00:00,18.573040,73.927715,CO,11,122,30
India,Maharashtra,Pune,"Mhada Colony, Pune - IITM",18-05-2024 20:00:00,18.573040,73.927715,OZONE,6,245,164
India,Maharashtra,Pune,"Revenue Colony-Shivajinagar, Pune - IITM",18-05-2024 20:00:00,18.530085,73.849598,PM10,53,108,74
India,Maharashtra,Pune,"Revenue Colony-Shivajinagar, Pune - IITM",18-05-2024 20:00:00,18.530085,73.849598,CO,20,91,48
India,Maharashtra,Pune,"Transport Nagar-Nigdi, Pune - IITM",18-05-2024 20:00:00,18.664282,73.763966,PM2.5,55,112,78
India,Maharashtra,Solapur,"Dnyaneshwar Nagar, Solapur - MPCB",18-05-2024 20:00:00,17.6336264,75.9132495,OZONE,17,77,58
India,Maharashtra,Solapur,"Solapur, Solapur - MPCB",18-05-2024 20:00:00,17.6599188,75.9063906,NO2,53,54,54
India,Maharashtra,Thane,"Kasarvadavali, Thane - MPCB",18-05-2024 20:00:00,19.26777,72.97182,NO2,10,48,24
India,Maharashtra,Thane,"Upvan Fort, Thane - MPCB",18-05-2024 20:00:00,19.222279,72.957979,PM10,52,116,76
India,Maharashtra,Ulhasnagar,"Sidhi Vinayak Nagar, Ulhasnagar - MPCB",18-05-2024 20:00:00,19.235581,73.159121,NH3,1,2,2
India,Maharashtra,Ulhasnagar,"Sidhi Vinayak Nagar, Ulhasnagar - MPCB",18-05-2024 20:00:00,19.235581,73.159121,SO2,10,16,12
India,Maharashtra,Ulhasnagar,"Sidhi Vinayak Nagar, Ulhasnagar - MPCB",18-05-2024 20:00:00,19.235581,73.159121,OZONE,2,153,91
India,Manipur,Imphal,"DM College of Science, Imphal - Manipur PCB",18-05-2024 20:00:00,24.8207389,93.9423085,PM2.5,12,37,21
India,Manipur,Imphal,"Manipur University, Imphal - Manipur PCB",18-05-2024 20:00:00,24.7524239,93.9286218,NH3,1,1,1
India,Manipur,Imphal,"Manipur University, Imphal - Manipur PCB",18-05-2024 20:00:00,24.7524239,93.9286218,CO,9,18,12
India,Meghalaya,Shillong,"Lumpyngngad, Shillong - Meghalaya PCB",18-05-2024 20:00:00,25.5586,91.8985,PM2.5,37,103,73
India,Mizoram,Aizawl,"Sikulpuikawn, Aizawl - Mizoram PCB",18-05-2024 20:00:00,23.7176342,92.7192841,OZONE,5,110,14
India,Nagaland,Kohima,"PWD Juction, Kohima - NPCB",18-05-2024 20:00:00,25.6635413,94.0989878,NH3,1,1,1
India,Odisha,Angul,"Hakimapada, Angul - OSPCB",18-05-2024 20:00:00,20.832874,85.104082,PM10,25,175,62
India,Odisha,Angul,"Hakimapada, Angul - OSPCB",18-05-2024 20:00:00,20.832874,85.104082,SO2,7,131,29
India,Odisha,Balasore,"Kalidaspur, Balasore - OSPCB",18-05-2024 20:00:00,21.51161,86.89088,SO2,13,29,18
India,Odisha,Balasore,"Kalidaspur, Balasore - OSPCB",18-05-2024 20:00:00,21.51161,86.89088,OZONE,10,66,49
India,Odisha,Barbil,"Forest Office, Barbil - OSPCB",18-05-2024 20:00:00,22.1166054,85.3945546,SO2,4,23,13
India,Odisha,Baripada,"Meher Colony, Baripada - OSPCB",18-05-2024 20:00:00,21.941841,86.728318,PM2.5,7,92,58
India,Odisha,Bhubaneswar,"Lingraj Mandir, Bhubaneswar - OSPCB",18-05-2024 20:00:00,20.240790,85.836784,PM10,7,79,28
India,Odisha,Bhubaneswar,"Lingraj Mandir, Bhubaneswar - OSPCB",18-05-2024 20:00:00,20.240790,85.836784,NO2,3,27,11
India,Odisha,Bileipada,"Tata Township, Bileipada - OSPCB",18-05-2024 20:00:00,22.06156703,85.47409613,PM10,87,442,195
India,Odisha,Byasanagar,"Ferro Chrome Colony, Byasanagar - OSPCB",18-05-2024 20:00:00,20.94185,86.11510,PM10,16,126,54
India,Odisha,Byasanagar,"Ferro Chrome Colony, Byasanagar - OSPCB",18-05-2024 20:00:00,20.94185,86.11510,OZONE,21,117,87
India,Odisha,Cuttack,"CDA Area, Cuttack - OSPCB",18-05-2024 20:00:00,20.48891     ,85.84768     ,OZONE,2,70,53
India,Odisha,Keonjhar,"Jagamohanpur, Keonjhar - OSPCB",18-05-2024 20:00:00,21.643900,85.599355,PM10,59,85,73
India,Odisha,Nayagarh,"Dabuna, Nayagarh - OSPCB",18-05-2024 20:00:00,21.847279,85.416905,CO,14,28,18
India,Odisha,Rairangpur,"Divisional Forest Office, Rairangpur - OSPCB",18-05-2024 20:00:00,22.265816,86.174829,NO2,NA,NA,NA
India,Odisha,Rourkela,"Raghunathpali, Rourkela - OSPCB",18-05-2024 20:00:00,22.220833,84.809444,PM2.5,61,303,137
India,Odisha,Rourkela,"Sector-2, Rourkela - OSPCB",18-05-2024 20:00:00,22.24500000,84.88111111,PM10,73,151,113
India,Odisha,Suakati,"OMC Colony, Suakati - OSPCB",18-05-2024 20:00:00,21.606865,85.510538,CO,19,24,23
India,Odisha,Talcher,"Talcher Coalfields,Talcher - OSPCB",18-05-2024 20:00:00,20.9360711,85.1707021,SO2,27,77,36
India,Odisha,Tensa,"Barsua Iron Ore Mines, Tensa - OSPCB",18-05-2024 20:00:00,21.869985,85.167016,NO2,9,82,29
India,Puducherry,Puducherry,"Jawahar Nagar, Puducherry - PPCC",18-05-2024 20:00:00,11.9309,79.8027,SO2,1,12,7
India,Puducherry,Puducherry,"Jawahar Nagar, Puducherry - PPCC",18-05-2024 20:00:00,11.9309,79.8027,CO,13,34,20
India,Punjab,Amritsar,"Golden Temple, Amritsar - PPCB",18-05-2024 20:00:00,31.620000,74.876512,PM2.5,75,148,108
India,Punjab,Bathinda,"Hardev Nagar, Bathinda - PPCB",18-05-2024 20:00:00,30.233011,74.907758,PM10,NA,NA,NA
India,Punjab,Bathinda,"Hardev Nagar, Bathinda - PPCB",18-05-2024 20:00:00,30.233011,74.907758,CO,2,159,81
India,Punjab,Jalandhar,"Civil Line, Jalandhar - PPCB",18-05-2024 20:00:00,31.321907,75.578914,NO2,43,47,46
India,Punjab,Jalandhar,"Civil Line, Jalandhar - PPCB",18-05-2024 20:00:00,31.321907,75.578914,CO,11,95,29
India,Punjab,Khanna,"Kalal Majra, Khanna - PPCB",18-05-2024 20:00:00,30.736056 ,76.209694,PM2.5,58,282,182
India,Punjab,Khanna,"Kalal Majra, Khanna - PPCB",18-05-2024 20:00:00,30.736056 ,76.209694,SO2,9,82,26
India,Punjab,Khanna,"Kalal Majra, Khanna - PPCB",18-05-2024 20:00:00,30.736056 ,76.209694,OZONE,42,47,44
India,Punjab,Ludhiana,"Punjab Agricultural University, Ludhiana - PPCB",18-05-2024 20:00:00,30.9028,75.8086,CO,27,85,39
India,Punjab,Mandi Gobindgarh,"RIMT University, Mandi Gobindgarh - PPCB",18-05-2024 20:00:00,30.649961,76.331442,SO2,20,106,44
India,Punjab,Patiala,"Model Town, Patiala - PPCB",18-05-2024 20:00:00,30.349388,76.366642,PM10,141,272,179
India,Punjab,Patiala,"Model Town, Patiala - PPCB",18-05-2024 20:00:00,30.349388,76.366642,NO2,23,30,27
India,Punjab,Patiala,"Model Town, Patiala - PPCB",18-05-2024 20:00:00,30.349388,76.366642,NH3,6,7,6
India,Punjab,Patiala,"Model Town, Patiala - PPCB",18-05-2024 20:00:00,30.349388,76.366642,CO,11,94,22
India,Punjab,Rupnagar,"Ratanpura, Rupnagar - Ambuja Cements",18-05-2024 20:00:00,31.0325454,76.5623046,CO,25,63,29
India,Rajasthan,Ajmer,"Civil Lines,  Ajmer - RSPCB",18-05-2024 20:00:00,26.470859,74.646594,CO,5,109,67
India,Rajasthan,Banswara,"Rati Talai, Banswara - RSPCB",18-05-2024 20:00:00,23.555190,74.440010,NO2,13,47,21
India,Rajasthan,Banswara,"Rati Talai, Banswara - RSPCB",18-05-2024 20:00:00,23.555190,74.440010,CO,2,58,47
India,Rajasthan,Baran,"Bamboliya, Baran - RSPCB",18-05-2024 20:00:00,25.106006,76.469948,NO2,2,96,18
India,Rajasthan,Baran,"Bamboliya, Baran - RSPCB",18-05-2024 20:00:00,25.106006,76.469948,NH3,3,6,4
India,Rajasthan,Barmer,"Railway Colony, Barmer - RSPCB",18-05-2024 20:00:00,25.747299,71.393989,PM10,59,136,93
India,Rajasthan,Barmer,"Railway Colony, Barmer - RSPCB",18-05-2024 20:00:00,25.747299,71.393989,NO2,1,33,6
India,Rajasthan,Barmer,"Railway Colony, Barmer - RSPCB",18-05-2024 20:00:00,25.747299,71.393989,SO2,1,6,3
India,Rajasthan,Bharatpur,"Krishna Nagar, Bharatpur - RSPCB",18-05-2024 20:00:00,27.215415,77.50873,OZONE,18,235,167
India,Rajasthan,Bhilwara,"Pratap Nagar, Bhilwara - RSPCB",18-05-2024 20:00:00,25.339605,74.618883,NO2,12,87,31
India,Rajasthan,Bhilwara,"Pratap Nagar, Bhilwara - RSPCB",18-05-2024 20:00:00,25.339605,74.618883,NH3,1,4,2
India,Rajasthan,Bhiwadi,"RIICO Ind. Area III, Bhiwadi - RSPCB",18-05-2024 20:00:00,28.194909,76.862296,SO2,4,24,13
India,Rajasthan,Bhiwadi,"Vasundhara Nagar_UIT, Bhiwadi - RSPCB",18-05-2024 20:00:00,28.207266,76.829265,NO2,8,129,58
India,Rajasthan,Bhiwadi,"Vasundhara Nagar_UIT, Bhiwadi - RSPCB",18-05-2024 20:00:00,28.207266,76.829265,SO2,4,52,18
India,Rajasthan,Bhiwadi,"Vasundhara Nagar_UIT, Bhiwadi - RSPCB",18-05-2024 20:00:00,28.207266,76.829265,CO,11,123,17
India,Rajasthan,Bikaner,"MM Ground, Bikaner - RSPCB",18-05-2024 20:00:00,28.018792,73.292658,SO2,2,9,4
India,Rajasthan,Chittorgarh,"Shastri Nagar, Chittorgarh - RSPCB",18-05-2024 20:00:00,24.892047,74.623527,CO,2,57,20
India,Rajasthan,Dholpur,"Raja Ganj, Dholpur - RSPCB",18-05-2024 20:00:00,26.699557,77.898881,NH3,5,8,6
India,Rajasthan,Dungarpur,"Bhoiwada, Dungarpur - RSPCB",18-05-2024 20:00:00,23.837789,73.714926,PM10,55,131,95
India,Rajasthan,Dungarpur,"Bhoiwada, Dungarpur - RSPCB",18-05-2024 20:00:00,23.837789,73.714926,CO,6,115,87
India,Rajasthan,Hanumangarh,"Housing Board, Hanumangarh - RSPCB",18-05-2024 20:00:00,29.610750,74.283608,NH3,10,26,15
India,Rajasthan,Hanumangarh,"Housing Board, Hanumangarh - RSPCB",18-05-2024 20:00:00,29.610750,74.283608,SO2,6,43,18
India,Rajasthan,Jaipur,"RIICO Sitapura, Jaipur - RSPCB",18-05-2024 20:00:00,26.786682,75.827928,NO2,26,305,80
India,Rajasthan,Jaipur,"RIICO Sitapura, Jaipur - RSPCB",18-05-2024 20:00:00,26.786682,75.827928,SO2,5,42,15
India,Rajasthan,Jaipur,"Sector-2 Murlipura, Jaipur - RSPCB",18-05-2024 20:00:00,26.960669,75.771817,PM2.5,66,306,135
India,Rajasthan,Jaipur,"Shastri Nagar, Jaipur - RSPCB",18-05-2024 20:00:00,26.9502929,75.730943,NH3,5,16,8
India,Rajasthan,Jaipur,"Shastri Nagar, Jaipur - RSPCB",18-05-2024 20:00:00,26.9502929,75.730943,CO,16,56,25
India,Rajasthan,Jaisalmer,"Sadar Bazar, Jaisalmer - RSPCB",18-05-2024 20:00:00,26.912329,70.909168,CO,12,52,18
India,Rajasthan,Jalore,"Mudtra Sili, Jalore - RSPCB",18-05-2024 20:00:00,25.344694,72.626208,SO2,2,13,6
India,Rajasthan,Jhunjhunu,"Indra Nagar, Jhunjhunu - RSPCB",18-05-2024 20:00:00,28.108988,75.386577,NH3,14,28,22
India,Rajasthan,Jhunjhunu,"Indra Nagar, Jhunjhunu - RSPCB",18-05-2024 20:00:00,28.108988,75.386577,SO2,3,11,6
India,Rajasthan,Jodhpur,"Collectorate, Jodhpur - RSPCB",18-05-2024 20:00:00,26.268249,73.0193853,PM10,51,276,133
India,Rajasthan,Jodhpur,"Collectorate, Jodhpur - RSPCB",18-05-2024 20:00:00,26.268249,73.0193853,SO2,9,17,11
India,Rajasthan,Jodhpur,"Collectorate, Jodhpur - RSPCB",18-05-2024 20:00:00,26.268249,73.0193853,CO,4,136,75
India,Rajasthan,Jodhpur,"Digari Kalan, Jodhpur - RSPCB",18-05-2024 20:00:00,26.295810,73.082283,NH3,3,11,5
India,Rajasthan,Jodhpur,"Jhalamand, Jodhpur - RSPCB",18-05-2024 20:00:00,26.215415,73.070156,PM10,43,165,94
India,Rajasthan,Jodhpur,"Jhalamand, Jodhpur - RSPCB",18-05-2024 20:00:00,26.215415,73.070156,OZONE,28,108,103
India,Rajasthan,Jodhpur,"Mandor, Jodhpur - RSPCB",18-05-2024 20:00:00,26.358805,73.047444,PM10,45,130,77
India,Rajasthan,Karauli,"Satyawati Vihar, Karauli - RSPCB",18-05-2024 20:00:00,26.506177,77.025989,PM10,78,446,141
India,Rajasthan,Kota,"Nayapura, Kota - RSPCB",18-05-2024 20:00:00,25.196024,75.855668,NH3,2,12,4
India,Rajasthan,Kota,"Nayapura, Kota - RSPCB",18-05-2024 20:00:00,25.196024,75.855668,OZONE,5,135,121
India,Rajasthan,Kota,"Shrinath Puram, Kota - RSPCB",18-05-2024 20:00:00,25.14389,75.821256,PM10,56,133,90
India,Rajasthan,Kota,"Shrinath Puram, Kota - RSPCB",18-05-2024 20:00:00,25.14389,75.821256,NO2,12,120,29
India,Rajasthan,Nagaur,"Karni Colony, Nagaur - RSPCB",18-05-2024 20:00:00,27.213494,73.734444,CO,12,54,17
India,Rajasthan,Pali,"Indira Colony Vistar, Pali - RSPCB",18-05-2024 20:00:00,25.771061, 73.340227,NH3,NA,NA,NA
India,Rajasthan,Pali,"Indira Colony Vistar, Pali - RSPCB",18-05-2024 20:00:00,25.771061, 73.340227,SO2,NA,NA,NA
India,Rajasthan,Pratapgarh,"Pragati Nagar, Pratapgarh - RSPCB",18-05-2024 20:00:00,24.041198,74.780702,PM10,47,117,81
India,Rajasthan,Pratapgarh,"Pragati Nagar, Pratapgarh - RSPCB",18-05-2024 20:00:00,24.041198,74.780702,CO,3,26,12
India,Rajasthan,Rajsamand,"Dhoinda, Rajsamand - RSPCB",18-05-2024 20:00:00,25.036360,73.883502,CO,16,29,20
India,Rajasthan,Sawai Madhopur,"Sahu Nagar, Sawai Madhopur - RSPCB",18-05-2024 20:00:00,26.031443,76.359327,PM2.5,NA,NA,NA
India,Rajasthan,Sawai Madhopur,"Sahu Nagar, Sawai Madhopur - RSPCB",18-05-2024 20:00:00,26.031443,76.359327,SO2,NA,NA,NA
India,Rajasthan,Sawai Madhopur,"Sahu Nagar, Sawai Madhopur - RSPCB",18-05-2024 20:00:00,26.031443,76.359327,OZONE,7,144,76
India,Rajasthan,Sikar,"Radhakishan Pura, Sikar - RSPCB",18-05-2024 20:00:00,27.608912,75.153302,PM10,95,327,154
India,Rajasthan,Sikar,"Radhakishan Pura, Sikar - RSPCB",18-05-2024 20:00:00,27.608912,75.153302,NO2,1,104,49
India,Rajasthan,Sikar,"Radhakishan Pura, Sikar - RSPCB",18-05-2024 20:00:00,27.608912,75.153302,NH3,5,15,10
India,Rajasthan,Sikar,"Radhakishan Pura, Sikar - RSPCB",18-05-2024 20:00:00,27.608912,75.153302,SO2,4,12,6
India,Rajasthan,Sirohi,"Vedhaynath Colony, Sirohi - RSPCB",18-05-2024 20:00:00,24.885261,72.857549,OZONE,51,134,130
India,Rajasthan,Sri Ganganagar,"Old City, Sri Ganganagar - RSPCB",18-05-2024 20:00:00,29.931624,73.864511,PM2.5,77,378,198
India,Rajasthan,Sri Ganganagar,"Old City, Sri Ganganagar - RSPCB",18-05-2024 20:00:00,29.931624,73.864511,NH3,18,43,26
India,Rajasthan,Udaipur,"Ashok Nagar, Udaipur - RSPCB",18-05-2024 20:00:00,24.5886166,73.6321397,PM10,74,121,97
India,Rajasthan,Udaipur,"Ashok Nagar, Udaipur - RSPCB",18-05-2024 20:00:00,24.5886166,73.6321397,NH3,2,5,3
India,Sikkim,Gangtok,"Zero Point GICI, Gangtok - SSPCB",18-05-2024 20:00:00,27.338530,88.614099,NO2,1,8,3
India,Sikkim,Gangtok,"Zero Point GICI, Gangtok - SSPCB",18-05-2024 20:00:00,27.338530,88.614099,OZONE,21,104,66
India,TamilNadu,Chennai,"Alandur Bus Depot, Chennai - CPCB",18-05-2024 20:00:00,12.9099161,80.1076538,PM10,23,23,23
India,TamilNadu,Chennai,"Kodungaiyur, Chennai - TNPCB",18-05-2024 20:00:00,13.1278,80.2642,PM10,9,42,23
India,TamilNadu,Chennai,"Kodungaiyur, Chennai - TNPCB",18-05-2024 20:00:00,13.1278,80.2642,SO2,1,6,3
India,TamilNadu,Chennai,"Kodungaiyur, Chennai - TNPCB",18-05-2024 20:00:00,13.1278,80.2642,CO,16,50,24
India,TamilNadu,Chennai,"Manali, Chennai - CPCB",18-05-2024 20:00:00,13.164544,80.26285,PM2.5,2,24,13
India,TamilNadu,Chennai,"Manali, Chennai - CPCB",18-05-2024 20:00:00,13.164544,80.26285,PM10,2,26,14
India,TamilNadu,Chennai,"Manali, Chennai - CPCB",18-05-2024 20:00:00,13.164544,80.26285,NO2,NA,NA,NA
India,TamilNadu,Chennai,"Manali, Chennai - CPCB",18-05-2024 20:00:00,13.164544,80.26285,CO,64,108,100
India,TamilNadu,Chennai,"Perungudi, Chennai - TNPCB",18-05-2024 20:00:00,12.9533,80.2357,CO,13,34,17
India,TamilNadu,Chennai,"Royapuram, Chennai - TNPCB",18-05-2024 20:00:00,13.1036,80.2909,SO2,3,10,6
India,TamilNadu,Chennai,"Velachery Res. Area, Chennai - CPCB",18-05-2024 20:00:00,13.0052189,80.2398125,PM2.5,10,24,17
India,TamilNadu,Coimbatore,"PSG College of Arts and Science, Coimbatore - TNPCB",18-05-2024 20:00:00,11.0328,77.0349,CO,32,46,35
India,TamilNadu,Cuddalore,"Semmandalam, Cuddalore - TNPCB",18-05-2024 20:00:00,11.7637683,79.7499835,PM2.5,12,71,29
India,TamilNadu,Gummidipoondi,"Anthoni Pillai Nagar, Gummidipoondi - TNPCB",18-05-2024 20:00:00,13.4127,80.1081,PM2.5,4,194,33
India,TamilNadu,Gummidipoondi,"Anthoni Pillai Nagar, Gummidipoondi - TNPCB",18-05-2024 20:00:00,13.4127,80.1081,SO2,1,99,23
India,TamilNadu,Palkalaiperur,"Bharathidasan University, Palkalaiperur - TNPCB",18-05-2024 20:00:00,10.681158,78.741746,SO2,28,29,29
India,TamilNadu,Ramanathapuram,"Chalai Bazaar, Ramanathapuram - TNPCB",18-05-2024 20:00:00,9.36399,78.831977,NH3,1,1,1
India,TamilNadu,Salem,"Sona College of Technology, Salem - TNPCB",18-05-2024 20:00:00,11.679111,78.125052,PM2.5,8,41,28
India,TamilNadu,Thoothukudi,"Meelavittan, Thoothukudi - TNPCB",18-05-2024 20:00:00,8.816428 ,78.099039,PM10,25,125,55
India,TamilNadu,Thoothukudi,"Meelavittan, Thoothukudi - TNPCB",18-05-2024 20:00:00,8.816428 ,78.099039,SO2,4,11,6
India,TamilNadu,Thoothukudi,"Meelavittan, Thoothukudi - TNPCB",18-05-2024 20:00:00,8.816428 ,78.099039,OZONE,1,8,5
India,TamilNadu,Vellore,"Vasanthapuram, Vellore - TNPCB",18-05-2024 20:00:00,12.909494,79.131861,NO2,6,22,11
India,Telangana,Hyderabad,"Bollaram Industrial Area, Hyderabad - TSPCB",18-05-2024 20:00:00,17.540891,78.358528,PM10,18,66,39
India,Telangana,Hyderabad,"Central University, Hyderabad - TSPCB",18-05-2024 20:00:00,17.460103,78.334361,NO2,14,32,22
India,Telangana,Hyderabad,"Central University, Hyderabad - TSPCB",18-05-2024 20:00:00,17.460103,78.334361,NH3,2,5,4
India,Telangana,Hyderabad,"ECIL Kapra, Hyderabad - TSPCB",18-05-2024 20:00:00,17.470431,78.566959,NO2,15,61,30
India,Telangana,Hyderabad,"ICRISAT Patancheru, Hyderabad - TSPCB",18-05-2024 20:00:00,17.518400,78.278777,PM10,7,155,45
India,Telangana,Hyderabad,"ICRISAT Patancheru, Hyderabad - TSPCB",18-05-2024 20:00:00,17.518400,78.278777,NH3,2,2,2
India,Telangana,Hyderabad,"ICRISAT Patancheru, Hyderabad - TSPCB",18-05-2024 20:00:00,17.518400,78.278777,CO,8,48,28
India,Telangana,Hyderabad,"ICRISAT Patancheru, Hyderabad - TSPCB",18-05-2024 20:00:00,17.518400,78.278777,OZONE,1,46,30
India,Telangana,Hyderabad,"IITH Kandi, Hyderabad - TSPCB",18-05-2024 20:00:00,17.585705,78.126199,NO2,NA,NA,NA
India,Telangana,Hyderabad,"IITH Kandi, Hyderabad - TSPCB",18-05-2024 20:00:00,17.585705,78.126199,NH3,NA,NA,NA
India,Telangana,Hyderabad,"IITH Kandi, Hyderabad - TSPCB",18-05-2024 20:00:00,17.585705,78.126199,OZONE,NA,NA,NA
India,Telangana,Hyderabad,"Kokapet, Hyderabad - TSPCB",18-05-2024 20:00:00,17.393559,78.339194,PM2.5,45,80,58
India,Telangana,Hyderabad,"Kokapet, Hyderabad - TSPCB",18-05-2024 20:00:00,17.393559,78.339194,CO,16,26,16
India,Telangana,Hyderabad,"Kompally Municipal Office, Hyderabad - TSPCB",18-05-2024 20:00:00,17.544899,78.486949,PM2.5,NA,NA,NA
India,Telangana,Hyderabad,"Kompally Municipal Office, Hyderabad - TSPCB",18-05-2024 20:00:00,17.544899,78.486949,SO2,NA,NA,NA
India,Telangana,Hyderabad,"Kompally Municipal Office, Hyderabad - TSPCB",18-05-2024 20:00:00,17.544899,78.486949,OZONE,23,50,38
India,Telangana,Hyderabad,"New Malakpet, Hyderabad - TSPCB",18-05-2024 20:00:00,17.37206,78.50864,OZONE,12,38,32
India,Telangana,Hyderabad,"Ramachandrapuram, Hyderabad - TSPCB",18-05-2024 20:00:00,17.528544,78.286195,PM2.5,NA,NA,NA
India,Telangana,Hyderabad,"Sanathnagar, Hyderabad - TSPCB",18-05-2024 20:00:00,17.4559458,78.4332152,NO2,26,105,34
India,Telangana,Hyderabad,"Sanathnagar, Hyderabad - TSPCB",18-05-2024 20:00:00,17.4559458,78.4332152,CO,26,38,36
India,Telangana,Hyderabad,"Sanathnagar, Hyderabad - TSPCB",18-05-2024 20:00:00,17.4559458,78.4332152,OZONE,12,80,32
India,Telangana,Hyderabad,"Zoo Park, Hyderabad - TSPCB",18-05-2024 20:00:00,17.349694,78.451437,PM2.5,18,85,35
India,Telangana,Hyderabad,"Zoo Park, Hyderabad - TSPCB",18-05-2024 20:00:00,17.349694,78.451437,NO2,18,45,25
India,Telangana,Hyderabad,"Zoo Park, Hyderabad - TSPCB",18-05-2024 20:00:00,17.349694,78.451437,OZONE,8,23,17
India,Tripura,Agartala,"Bardowali, Agartala - Tripura SPCB",18-05-2024 20:00:00,23.8175497,91.2726974,PM2.5,35,87,65
India,Tripura,Agartala,"Bardowali, Agartala - Tripura SPCB",18-05-2024 20:00:00,23.8175497,91.2726974,PM10,52,112,77
India,Tripura,Agartala,"Bardowali, Agartala - Tripura SPCB",18-05-2024 20:00:00,23.8175497,91.2726974,NO2,4,12,7
India,Tripura,Agartala,"Bardowali, Agartala - Tripura SPCB",18-05-2024 20:00:00,23.8175497,91.2726974,NH3,2,3,2
India,Tripura,Agartala,"Bardowali, Agartala - Tripura SPCB",18-05-2024 20:00:00,23.8175497,91.2726974,CO,9,44,20
India,Uttar_Pradesh,Agra,"Manoharpur, Agra - UPPCB",18-05-2024 20:00:00,27.23711,78.01936,NO2,34,35,35
India,Uttar_Pradesh,Agra,"Manoharpur, Agra - UPPCB",18-05-2024 20:00:00,27.23711,78.01936,NH3,2,5,3
India,Uttar_Pradesh,Agra,"Sanjay Palace, Agra - UPPCB",18-05-2024 20:00:00,27.19865833,78.00598056,NO2,10,43,27
India,Uttar_Pradesh,Agra,"Sector-3B Avas Vikas Colony, Agra - UPPCB",18-05-2024 20:00:00,27.19412,77.96237,PM2.5,21,51,34
India,Uttar_Pradesh,Agra,"Sector-3B Avas Vikas Colony, Agra - UPPCB",18-05-2024 20:00:00,27.19412,77.96237,CO,10,37,13
India,Uttar_Pradesh,Agra,"Shahjahan Garden, Agra - UPPCB",18-05-2024 20:00:00,27.169338,78.03582,PM10,53,136,99
India,Uttar_Pradesh,Agra,"Shastripuram, Agra - UPPCB",18-05-2024 20:00:00,27.19862,77.92066,PM10,65,180,125
India,Uttar_Pradesh,Agra,"Shastripuram, Agra - UPPCB",18-05-2024 20:00:00,27.19862,77.92066,CO,10,34,13
India,Uttar_Pradesh,Baghpat,"Sardar Patel Inter College, Baghpat - UPPCB",18-05-2024 20:00:00,28.964949,77.278761,PM2.5,117,301,177
India,Uttar_Pradesh,Baghpat,"Sardar Patel Inter College, Baghpat - UPPCB",18-05-2024 20:00:00,28.964949,77.278761,NH3,NA,NA,NA
India,Uttar_Pradesh,Bareilly,"Civil Lines, Bareilly - UPPCB",18-05-2024 20:00:00,28.359581,79.414455,PM10,22,36,30
India,Uttar_Pradesh,Bareilly,"Civil Lines, Bareilly - UPPCB",18-05-2024 20:00:00,28.359581,79.414455,CO,18,101,33
India,Uttar_Pradesh,Bareilly,"Rajendra Nagar, Bareilly - UPPCB",18-05-2024 20:00:00,28.38910936,79.42963708,CO,22,88,32
India,Uttar_Pradesh,Firozabad,"Nagla Bhau, Firozabad - UPPCB",18-05-2024 20:00:00,27.168897,78.376960,NO2,17,17,17
India,Uttar_Pradesh,Firozabad,"Nagla Bhau, Firozabad - UPPCB",18-05-2024 20:00:00,27.168897,78.376960,NH3,2,2,2
India,Uttar_Pradesh,Firozabad,"Vibhab Nagar, Firozabad - UPPCB",18-05-2024 20:00:00,27.1594,78.3953,NO2,11,14,14
India,Uttar_Pradesh,Firozabad,"Vibhab Nagar, Firozabad - UPPCB",18-05-2024 20:00:00,27.1594,78.3953,NH3,1,2,2
India,Uttar_Pradesh,Ghaziabad,"Indirapuram, Ghaziabad - UPPCB",18-05-2024 20:00:00,28.646233,77.358075,PM2.5,63,377,214
India,Uttar_Pradesh,Ghaziabad,"Indirapuram, Ghaziabad - UPPCB",18-05-2024 20:00:00,28.646233,77.358075,NH3,9,23,17
India,Uttar_Pradesh,Ghaziabad,"Indirapuram, Ghaziabad - UPPCB",18-05-2024 20:00:00,28.646233,77.358075,OZONE,1,43,28
India,Uttar_Pradesh,Ghaziabad,"Loni, Ghaziabad - UPPCB",18-05-2024 20:00:00,28.757294,77.278792,PM2.5,63,337,218
India,Uttar_Pradesh,Ghaziabad,"Loni, Ghaziabad - UPPCB",18-05-2024 20:00:00,28.757294,77.278792,NO2,18,119,72
India,Uttar_Pradesh,Ghaziabad,"Loni, Ghaziabad - UPPCB",18-05-2024 20:00:00,28.757294,77.278792,SO2,6,51,30
India,Uttar_Pradesh,Ghaziabad,"Sanjay Nagar, Ghaziabad - UPPCB",18-05-2024 20:00:00,28.685382,77.453839,NH3,10,21,14
India,Uttar_Pradesh,Ghaziabad,"Sanjay Nagar, Ghaziabad - UPPCB",18-05-2024 20:00:00,28.685382,77.453839,OZONE,2,196,126
India,Uttar_Pradesh,Ghaziabad,"Vasundhara, Ghaziabad - UPPCB",18-05-2024 20:00:00,28.6603346,77.3572563,OZONE,24,171,135
India,Uttar_Pradesh,Gorakhpur,"Madan Mohan Malaviya University of Technology, Gorakhpur - UPPCB",18-05-2024 20:00:00,26.730136,83.433859,OZONE,1,10,2
India,Uttar_Pradesh,Greater Noida,"Knowledge Park - III, Greater Noida - UPPCB",18-05-2024 20:00:00,28.47272,77.482000,OZONE,3,187,130
India,Uttar_Pradesh,Greater Noida,"Knowledge Park - V, Greater Noida - UPPCB",18-05-2024 20:00:00,28.557054,77.453663,PM2.5,81,340,260
India,Uttar_Pradesh,Greater Noida,"Knowledge Park - V, Greater Noida - UPPCB",18-05-2024 20:00:00,28.557054,77.453663,PM10,194,487,377
India,Uttar_Pradesh,Jhansi,"Shivaji Nagar, Jhansi - UPPCB",18-05-2024 20:00:00,25.4547,78.6039,CO,4,86,23
India,Uttar_Pradesh,Jhansi,"Shivaji Nagar, Jhansi - UPPCB",18-05-2024 20:00:00,25.4547,78.6039,OZONE,12,53,33
India,Uttar_Pradesh,Kanpur,"FTI Kidwai Nagar, Kanpur - UPPCB",18-05-2024 20:00:00,26.428282,80.327067,OZONE,6,51,40
India,Uttar_Pradesh,Kanpur,"NSI Kalyanpur, Kanpur - UPPCB",18-05-2024 20:00:00,26.509954,80.249612,NH3,2,13,4
India,Uttar_Pradesh,Kanpur,"NSI Kalyanpur, Kanpur - UPPCB",18-05-2024 20:00:00,26.509954,80.249612,OZONE,9,69,38
India,Uttar_Pradesh,Kanpur,"Nehru Nagar, Kanpur - UPPCB",18-05-2024 20:00:00,26.4703136,80.3229863,OZONE,6,170,104
India,Uttar_Pradesh,Lucknow,"B R Ambedkar University, Lucknow - UPPCB",18-05-2024 20:00:00,26.766433,80.927299,NO2,11,12,11
India,Uttar_Pradesh,Lucknow,"Kendriya Vidyalaya, Lucknow - CPCB",18-05-2024 20:00:00,26.906111,80.948222,OZONE,2,149,112
India,Uttar_Pradesh,Lucknow,"Kukrail Picnic Spot-1, Lucknow - UPPCB",18-05-2024 20:00:00,26.90723,80.98579,PM2.5,56,300,134
India,Uttar_Pradesh,Lucknow,"Lalbagh, Lucknow - CPCB",18-05-2024 20:00:00,26.8458805,80.9365541,NO2,14,15,15
India,Uttar_Pradesh,Meerut,"Jai Bhim Nagar, Meerut - UPPCB",18-05-2024 20:00:00,28.9535882,77.7622941,NH3,9,22,14
India,Uttar_Pradesh,Meerut,"Pallavpuram Phase 2, Meerut - UPPCB",18-05-2024 20:00:00,29.063510,77.709723,PM2.5,42,308,199
India,Uttar_Pradesh,Meerut,"Pallavpuram Phase 2, Meerut - UPPCB",18-05-2024 20:00:00,29.063510,77.709723,NO2,30,206,86
India,Uttar_Pradesh,Meerut,"Pallavpuram Phase 2, Meerut - UPPCB",18-05-2024 20:00:00,29.063510,77.709723,CO,12,112,39
India,Uttar_Pradesh,Meerut,"Pallavpuram Phase 2, Meerut - UPPCB",18-05-2024 20:00:00,29.063510,77.709723,OZONE,2,81,64
India,Uttar_Pradesh,Moradabad,"Buddhi Vihar, Moradabad - UPPCB",18-05-2024 20:00:00,28.83526,78.74460,NO2,16,23,23
India,Uttar_Pradesh,Moradabad,"Buddhi Vihar, Moradabad - UPPCB",18-05-2024 20:00:00,28.83526,78.74460,SO2,22,43,31
India,Uttar_Pradesh,Moradabad,"Eco Herbal Park, Moradabad - UPPCB",18-05-2024 20:00:00,28.840739,78.697531,NO2,18,86,44
India,Uttar_Pradesh,Moradabad,"Jigar Colony, Moradabad - UPPCB",18-05-2024 20:00:00,28.856664,78.772638,PM10,126,170,146
India,Uttar_Pradesh,Moradabad,"Jigar Colony, Moradabad - UPPCB",18-05-2024 20:00:00,28.856664,78.772638,OZONE,14,48,35
India,Uttar_Pradesh,Moradabad,"Kashiram Nagar, Moradabad - UPPCB",18-05-2024 20:00:00,28.849399,78.742362,NO2,12,14,12
India,Uttar_Pradesh,Moradabad,"Kashiram Nagar, Moradabad - UPPCB",18-05-2024 20:00:00,28.849399,78.742362,NH3,3,4,4
India,Uttar_Pradesh,Moradabad,"Transport Nagar, Moradabad - UPPCB",18-05-2024 20:00:00,28.802625,78.753728,OZONE,12,66,45
India,Uttar_Pradesh,Muzaffarnagar,"New Mandi, Muzaffarnagar - UPPCB",18-05-2024 20:00:00,29.4723508,77.7194031,PM10,163,500,321
India,Uttar_Pradesh,Muzaffarnagar,"New Mandi, Muzaffarnagar - UPPCB",18-05-2024 20:00:00,29.4723508,77.7194031,CO,22,112,38
India,Uttar_Pradesh,Noida,"Sector - 125, Noida - UPPCB",18-05-2024 20:00:00,28.5447608,77.3231257,NO2,26,226,135
India,Uttar_Pradesh,Noida,"Sector - 62, Noida - IMD",18-05-2024 20:00:00,28.6245479,77.3577104,NO2,NA,NA,NA
India,Uttar_Pradesh,Noida,"Sector-1, Noida - UPPCB",18-05-2024 20:00:00,28.5898,77.3101,PM10,NA,NA,NA
India,Uttar_Pradesh,Noida,"Sector-1, Noida - UPPCB",18-05-2024 20:00:00,28.5898,77.3101,NH3,1,13,7
India,Uttar_Pradesh,Prayagraj,"Jhunsi, Prayagraj - UPPCB",18-05-2024 20:00:00,25.425602,81.917152,PM10,52,124,72
India,Uttar_Pradesh,Prayagraj,"Motilal Nehru NIT, Prayagraj - UPPCB",18-05-2024 20:00:00,25.494,81.863,CO,3,32,17
India,Uttar_Pradesh,Prayagraj,"Nagar Nigam, Prayagraj - UPPCB",18-05-2024 20:00:00,25.44919916 ,81.82735986 ,PM10,NA,NA,NA
India,Uttar_Pradesh,Varanasi,"Ardhali Bazar, Varanasi - UPPCB",18-05-2024 20:00:00,25.3505986,82.9083074,SO2,15,53,24
India,Uttar_Pradesh,Varanasi,"IESD Banaras Hindu University, Varanasi - UPPCB",18-05-2024 20:00:00,25.262326,82.995408,NH3,1,2,1
India,Uttar_Pradesh,Varanasi,"IESD Banaras Hindu University, Varanasi - UPPCB",18-05-2024 20:00:00,25.262326,82.995408,SO2,18,20,19
India,Uttar_Pradesh,Varanasi,"IESD Banaras Hindu University, Varanasi - UPPCB",18-05-2024 20:00:00,25.262326,82.995408,CO,3,20,5
India,Uttar_Pradesh,Varanasi,"Maldahiya, Varanasi - UPPCB",18-05-2024 20:00:00,25.32393,82.99687,SO2,24,26,25
India,Uttar_Pradesh,Vrindavan,"Omex Eternity, Vrindavan - UPPCB",18-05-2024 20:00:00,27.5714090,77.6557570,NO2,2,3,3
India,Uttarakhand,Kashipur,"Govt. Girls Inter College, Kashipur - UKPCB",18-05-2024 20:00:00,29.2124114,78.9611753,CO,23,104,37
India,Uttarakhand,Kashipur,"Govt. Girls Inter College, Kashipur - UKPCB",18-05-2024 20:00:00,29.2124114,78.9611753,OZONE,34,157,116
India,Uttarakhand,Rishikesh,"Shivaji Nagar, Rishikesh - UKPCB",18-05-2024 20:00:00,30.075911,78.2859547,NH3,NA,NA,NA
India,Uttarakhand,Rishikesh,"Shivaji Nagar, Rishikesh - UKPCB",18-05-2024 20:00:00,30.075911,78.2859547,SO2,NA,NA,NA
India,West_Bengal,Asansol,"Asansol Court Area, Asansol - WBPCB",18-05-2024 20:00:00,23.685297,86.945968,PM2.5,130,287,210
India,West_Bengal,Asansol,"Asansol Court Area, Asansol - WBPCB",18-05-2024 20:00:00,23.685297,86.945968,NO2,17,45,32
India,West_Bengal,Asansol,"Asansol Court Area, Asansol - WBPCB",18-05-2024 20:00:00,23.685297,86.945968,NH3,9,14,11
India,West_Bengal,Asansol,"Asansol Court Area, Asansol - WBPCB",18-05-2024 20:00:00,23.685297,86.945968,CO,26,92,37
India,West_Bengal,Asansol,"Asansol Court Area, Asansol - WBPCB",18-05-2024 20:00:00,23.685297,86.945968,OZONE,51,194,161
India,West_Bengal,Barrackpore,"SVSPA Campus, Barrackpore - WBPCB",18-05-2024 20:00:00,22.7605581,88.3617589,CO,2,22,17
India,West_Bengal,Barrackpore,"SVSPA Campus, Barrackpore - WBPCB",18-05-2024 20:00:00,22.7605581,88.3617589,OZONE,6,66,56
India,West_Bengal,Durgapur,"PCBL Residential Complex, Durgapur - WBPCB",18-05-2024 20:00:00,23.5087640,87.3544400,PM2.5,108,301,205
India,West_Bengal,Durgapur,"PCBL Residential Complex, Durgapur - WBPCB",18-05-2024 20:00:00,23.5087640,87.3544400,NH3,NA,NA,NA
India,West_Bengal,Durgapur,"PCBL Residential Complex, Durgapur - WBPCB",18-05-2024 20:00:00,23.5087640,87.3544400,CO,43,94,66
India,West_Bengal,Durgapur,"Sidhu Kanhu Indoor Stadium, Durgapur - WBPCB",18-05-2024 20:00:00,23.5404352,87.2892225,NO2,26,45,35
India,West_Bengal,Durgapur,"Sidhu Kanhu Indoor Stadium, Durgapur - WBPCB",18-05-2024 20:00:00,23.5404352,87.2892225,CO,39,115,56
India,West_Bengal,Durgapur,"Sidhu Kanhu Indoor Stadium, Durgapur - WBPCB",18-05-2024 20:00:00,23.5404352,87.2892225,OZONE,11,50,39
India,West_Bengal,Haldia,"Priyambada Housing Estate, Haldia - WBPCB",18-05-2024 20:00:00,22.06047,88.109737,CO,18,26,22
India,West_Bengal,Howrah,"Belur Math, Howrah - WBPCB",18-05-2024 20:00:00,22.629801,88.352017,PM2.5,15,80,41
India,West_Bengal,Howrah,"Belur Math, Howrah - WBPCB",18-05-2024 20:00:00,22.629801,88.352017,PM10,34,106,65
India,West_Bengal,Howrah,"Belur Math, Howrah - WBPCB",18-05-2024 20:00:00,22.629801,88.352017,NO2,5,23,11
India,West_Bengal,Howrah,"Belur Math, Howrah - WBPCB",18-05-2024 20:00:00,22.629801,88.352017,NH3,1,2,1
India,West_Bengal,Howrah,"Belur Math, Howrah - WBPCB",18-05-2024 20:00:00,22.629801,88.352017,CO,2,44,18
India,West_Bengal,Howrah,"Ghusuri, Howrah - WBPCB",18-05-2024 20:00:00,22.611968,88.347422,PM10,29,126,70
India,West_Bengal,Howrah,"Padmapukur, Howrah - WBPCB",18-05-2024 20:00:00,22.5687319,88.2797276,NO2,5,31,15
India,West_Bengal,Howrah,"Padmapukur, Howrah - WBPCB",18-05-2024 20:00:00,22.5687319,88.2797276,CO,8,50,26
India,West_Bengal,Kolkata,"Bidhannagar, Kolkata - WBPCB",18-05-2024 20:00:00,22.58157048,88.41002457,NH3,8,9,8
India,West_Bengal,Kolkata,"Bidhannagar, Kolkata - WBPCB",18-05-2024 20:00:00,22.58157048,88.41002457,CO,17,32,28
India,West_Bengal,Kolkata,"Fort William, Kolkata - WBPCB",18-05-2024 20:00:00,22.556640,88.342674,SO2,7,9,8
India,West_Bengal,Kolkata,"Jadavpur, Kolkata - WBPCB",18-05-2024 20:00:00,22.49929,88.36917,PM2.5,14,60,29
India,West_Bengal,Kolkata,"Jadavpur, Kolkata - WBPCB",18-05-2024 20:00:00,22.49929,88.36917,SO2,4,10,6
India,West_Bengal,Kolkata,"Rabindra Bharati University, Kolkata - WBPCB",18-05-2024 20:00:00,22.627847,88.380669,CO,20,48,37
India,West_Bengal,Kolkata,"Victoria, Kolkata - WBPCB",18-05-2024 20:00:00,22.5448082,88.3403691,PM2.5,16,184,54
India,West_Bengal,Kolkata,"Victoria, Kolkata - WBPCB",18-05-2024 20:00:00,22.5448082,88.3403691,NO2,21,30,22
India,West_Bengal,Siliguri,"Ward-32 Bapupara, Siliguri - WBPCB",18-05-2024 20:00:00,26.6879226,88.4152495,PM2.5,49,95,70
India,West_Bengal,Siliguri,"Ward-32 Bapupara, Siliguri - WBPCB",18-05-2024 20:00:00,26.6879226,88.4152495,CO,18,49,22
India,Andhra_Pradesh,Amaravati,"Secretariat, Amaravati - APPCB",18-05-2024 20:00:00,16.5150833,80.5181667,CO,4,102,24
India,Andhra_Pradesh,Anantapur,"Gulzarpet, Anantapur - APPCB",18-05-2024 20:00:00,14.675886,77.593027,NH3,4,4,4
India,Andhra_Pradesh,Anantapur,"Gulzarpet, Anantapur - APPCB",18-05-2024 20:00:00,14.675886,77.593027,SO2,3,5,4
India,Andhra_Pradesh,Kadapa,"Yerramukkapalli, Kadapa - APPCB",18-05-2024 20:00:00,14.465052,78.824187,PM2.5,NA,NA,NA
India,Andhra_Pradesh,Kadapa,"Yerramukkapalli, Kadapa - APPCB",18-05-2024 20:00:00,14.465052,78.824187,SO2,2,2,2
India,Andhra_Pradesh,Rajamahendravaram,"Anand Kala Kshetram, Rajamahendravaram - APPCB",18-05-2024 20:00:00,16.9872867,81.7363176,NH3,2,3,3
India,Andhra_Pradesh,Tirupati,"Tirumala, Tirupati - APPCB",18-05-2024 20:00:00,13.67,79.35,PM10,19,48,33
India,Andhra_Pradesh,Tirupati,"Vaikuntapuram, Tirupati - APPCB",18-05-2024 20:00:00,13.615387,79.409230,NH3,2,3,3
India,Andhra_Pradesh,Tirupati,"Vaikuntapuram, Tirupati - APPCB",18-05-2024 20:00:00,13.615387,79.409230,OZONE,5,24,18
India,Andhra_Pradesh,Vijayawada,"HB Colony, Vijayawada - APPCB",18-05-2024 20:00:00,16.536107,80.594233,SO2,4,6,5
India,Andhra_Pradesh,Vijayawada,"Kanuru, Vijayawada - APPCB",18-05-2024 20:00:00,16.486692,80.699436,OZONE,29,29,29
India,Andhra_Pradesh,Vijayawada,"Rajiv Gandhi Park, Vijayawada - APPCB",18-05-2024 20:00:00,16.509717,80.612222,SO2,6,10,7
India,Andhra_Pradesh,Vijayawada,"Rajiv Nagar, Vijayawada - APPCB",18-05-2024 20:00:00,16.554731,80.649110,PM2.5,42,60,44
India,Andhra_Pradesh,Vijayawada,"Rajiv Nagar, Vijayawada - APPCB",18-05-2024 20:00:00,16.554731,80.649110,NH3,2,3,2
India,Andhra_Pradesh,Vijayawada,"Rajiv Nagar, Vijayawada - APPCB",18-05-2024 20:00:00,16.554731,80.649110,CO,36,36,36
India,Arunachal_Pradesh,Naharlagun,"Naharlagun, Naharlagun - APSPCB",18-05-2024 20:00:00,27.103358,93.679645,SO2,NA,NA,NA
India,Arunachal_Pradesh,Naharlagun,"Naharlagun, Naharlagun - APSPCB",18-05-2024 20:00:00,27.103358,93.679645,CO,12,20,15
India,Assam,Guwahati,"IITG, Guwahati - PCBA",18-05-2024 20:00:00,26.2028636,91.70046436,OZONE,17,23,20
India,Assam,Guwahati,"Pan Bazaar, Guwahati - PCBA",18-05-2024 20:00:00,26.187500,91.744194,NH3,2,4,3
India,Assam,Nagaon,"Christianpatty, Nagaon - PCBA",18-05-2024 20:00:00,26.349082,92.68449,NH3,1,3,2
India,Assam,Silchar,"Tarapur, Silchar - PCBA",18-05-2024 20:00:00,24.82827,92.79525,PM2.5,26,45,38
India,Assam,Sivasagar,"Girls College, Sivasagar - PCBA",18-05-2024 20:00:00,26.987634,94.636574,PM10,44,66,53
India,Assam,Sivasagar,"Girls College, Sivasagar - PCBA",18-05-2024 20:00:00,26.987634,94.636574,CO,22,28,25
India,Bihar,Araria,"Kharahiya Basti, Araria - BSPCB",18-05-2024 20:00:00,26.146529,87.454184,PM2.5,40,364,127
India,Bihar,Arrah,"New DM Office, Arrah - BSPCB",18-05-2024 20:00:00,25.5626095,84.663264,PM10,72,157,121
India,Bihar,Aurangabad,"Gurdeo Nagar, Aurangabad - BSPCB",18-05-2024 20:00:00,24.75746,84.366208,OZONE,47,130,99
India,Bihar,Bettiah,"Kamalnath Nagar, Bettiah - BSPCB",18-05-2024 20:00:00,26.80365,84.51954,PM10,NA,NA,NA
India,Bihar,Bettiah,"Kamalnath Nagar, Bettiah - BSPCB",18-05-2024 20:00:00,26.80365,84.51954,CO,73,98,83
India,Bihar,Bhagalpur,"DM Office_Kachari Chowk, Bhagalpur - BSPCB",18-05-2024 20:00:00,25.251013,86.989001,CO,41,98,54
India,Bihar,Bhagalpur,"DM Office_Kachari Chowk, Bhagalpur - BSPCB",18-05-2024 20:00:00,25.251013,86.989001,OZONE,45,60,47
India,Bihar,Buxar,"Charitra Van, Buxar - BSPCB (Formerly known as Central Jail)",18-05-2024 20:00:00,25.567520,83.966379,SO2,3,23,10
India,Bihar,Gaya,"Kareemganj, Gaya - BSPCB",18-05-2024 20:00:00,24.792403,84.992416,PM10,10,78,32
India,Bihar,Gaya,"Kareemganj, Gaya - BSPCB",18-05-2024 20:00:00,24.792403,84.992416,SO2,2,12,8
India,Bihar,Gaya,"Kareemganj, Gaya - BSPCB",18-05-2024 20:00:00,24.792403,84.992416,OZONE,10,35,19
India,Bihar,Gaya,"SFTI Kusdihra, Gaya - BSPCB",18-05-2024 20:00:00,24.762518,84.982348,PM2.5,21,137,74
India,Bihar,Hajipur,"Industrial Area, Hajipur - BSPCB",18-05-2024 20:00:00,25.697189,85.245900,PM2.5,166,323,248
India,Bihar,Katihar,"Mirchaibari, Katihar - BSPCB",18-05-2024 20:00:00,25.560083,87.553265,NO2,10,23,18
India,Bihar,Katihar,"Mirchaibari, Katihar - BSPCB",18-05-2024 20:00:00,25.560083,87.553265,NH3,NA,NA,NA
India,Bihar,Kishanganj,"SDM Office_Khagra, Kishanganj - BSPCB",18-05-2024 20:00:00,26.0881305,87.93840336,PM2.5,33,147,60
India,Bihar,Kishanganj,"SDM Office_Khagra, Kishanganj - BSPCB",18-05-2024 20:00:00,26.0881305,87.93840336,PM10,85,315,154
India,Bihar,Manguraha,"Forest Rest House, Manguraha - BSPCB",18-05-2024 20:00:00,27.308328,84.531742,NH3,3,4,3
India,Bihar,Manguraha,"Forest Rest House, Manguraha - BSPCB",18-05-2024 20:00:00,27.308328,84.531742,OZONE,1,69,22
India,Bihar,Motihari,"Gandak Colony, Motihari - BSPCB",18-05-2024 20:00:00,26.63086,84.90051,PM2.5,160,287,222
India,Bihar,Munger,"Town Hall, Munger - BSPCB",18-05-2024 20:00:00,25.376776,86.471523,CO,4,90,75
India,Bihar,Munger,"Town Hall, Munger - BSPCB",18-05-2024 20:00:00,25.376776,86.471523,OZONE,24,32,27
India,Bihar,Muzaffarpur,"MIT-Daudpur Kothi, Muzaffarpur - BSPCB",18-05-2024 20:00:00,26.1403345,85.3650192,PM2.5,187,387,313
India,Bihar,Muzaffarpur,"Muzaffarpur Collectorate, Muzaffarpur - BSPCB",18-05-2024 20:00:00,26.1209,85.3647,PM2.5,82,320,186
India,Bihar,Patna,"IGSC Planetarium Complex, Patna - BSPCB",18-05-2024 20:00:00,25.610369,85.132568,CO,9,21,11
India,Bihar,Patna,"Rajbansi Nagar, Patna - BSPCB",18-05-2024 20:00:00,25.599486,85.113666,PM10,131,308,192
India,Bihar,Patna,"Samanpura, Patna - BSPCB",18-05-2024 20:00:00,25.596727,85.085624,NO2,2,64,29
India,Bihar,Rajgir,"Dangi Tola, Rajgir - BSPCB",18-05-2024 20:00:00,25.03280,85.41948,PM2.5,28,193,63
India,Bihar,Rajgir,"Dangi Tola, Rajgir - BSPCB",18-05-2024 20:00:00,25.03280,85.41948,SO2,2,6,4
India,Bihar,Sasaram,"Dada Peer, Sasaram - BSPCB",18-05-2024 20:00:00,24.952822,84.002396,NO2,6,96,49
India,Bihar,Sasaram,"Dada Peer, Sasaram - BSPCB",18-05-2024 20:00:00,24.952822,84.002396,CO,30,88,68
India,Chandigarh,Chandigarh,"Sector 22, Chandigarh - CPCC",18-05-2024 20:00:00,30.735567,76.775714,PM2.5,62,329,262
India,Chandigarh,Chandigarh,"Sector-25, Chandigarh - CPCC",18-05-2024 20:00:00,30.751462,76.762879,NO2,3,48,21
India,Chandigarh,Chandigarh,"Sector-25, Chandigarh - CPCC",18-05-2024 20:00:00,30.751462,76.762879,SO2,10,48,17
India,Chhattisgarh,Bhilai,"32Bungalows, Bhilai - CECB",18-05-2024 20:00:00,21.194815,81.314770,PM2.5,10,49,26
India,Chhattisgarh,Bhilai,"32Bungalows, Bhilai - CECB",18-05-2024 20:00:00,21.194815,81.314770,NH3,6,6,6
India,Chhattisgarh,Bhilai,"32Bungalows, Bhilai - CECB",18-05-2024 20:00:00,21.194815,81.314770,CO,11,22,13
India,Chhattisgarh,Bhilai,"Hathkhoj, Bhilai - CECB",18-05-2024 20:00:00,21.224231,81.408350,PM2.5,6,48,19
India,Chhattisgarh,Bhilai,"Hathkhoj, Bhilai - CECB",18-05-2024 20:00:00,21.224231,81.408350,PM10,23,69,48
India,Chhattisgarh,Bhilai,"Hathkhoj, Bhilai - CECB",18-05-2024 20:00:00,21.224231,81.408350,OZONE,18,35,32
India,Chhattisgarh,Bilaspur,"Mangala, Bilaspur - NTPC",18-05-2024 20:00:00,22.08815,82.13737,NO2,14,22,18
India,Chhattisgarh,Chhal,"Nawapara SECL Colony, Chhal - CECB",18-05-2024 20:00:00,22.118125,83.140608,NO2,9,37,23
India,Chhattisgarh,Korba,"Rampur, Korba - CECB",18-05-2024 20:00:00,22.368195,82.746431,PM10,29,118,74
India,Chhattisgarh,Korba,"Rampur, Korba - CECB",18-05-2024 20:00:00,22.368195,82.746431,OZONE,8,13,11
India,Chhattisgarh,Kunjemura,"OP Jindal School, Kunjemura - CECB",18-05-2024 20:00:00,22.126650,83.483212,CO,16,49,22
India,Chhattisgarh,Milupara,"Govt. Higher Secondary School, Milupara - CECB",18-05-2024 20:00:00,22.1910172,83.5197009,PM10,32,108,69
India,Chhattisgarh,Milupara,"Govt. Higher Secondary School, Milupara - CECB",18-05-2024 20:00:00,22.1910172,83.5197009,NH3,1,2,1
India,Chhattisgarh,Raipur,"AIIMS, Raipur - CECB",18-05-2024 20:00:00,21.258815,81.578979,PM10,15,53,30
India,Chhattisgarh,Raipur,"AIIMS, Raipur - CECB",18-05-2024 20:00:00,21.258815,81.578979,NH3,6,6,6
India,Chhattisgarh,Raipur,"AIIMS, Raipur - CECB",18-05-2024 20:00:00,21.258815,81.578979,CO,18,24,23
India,Chhattisgarh,Raipur,"Bhatagaon New ISBT, Raipur - CECB",18-05-2024 20:00:00,21.219665,81.630094,SO2,1,3,2
India,Chhattisgarh,Raipur,"Krishak Nagar, Raipur - CECB",18-05-2024 20:00:00,21.237755,81.705301,PM2.5,5,30,15
India,Chhattisgarh,Raipur,"Siltara Phase-II, Raipur - CECB",18-05-2024 20:00:00,21.371751,81.664929,PM10,39,69,50
India,Chhattisgarh,Raipur,"Siltara Phase-II, Raipur - CECB",18-05-2024 20:00:00,21.371751,81.664929,SO2,7,57,17
India,Delhi,Delhi,"Anand Vihar, Delhi - DPCC",18-05-2024 20:00:00,28.647622,77.3158090,SO2,NA,NA,NA
India,Delhi,Delhi,"Ashok Vihar, Delhi - DPCC",18-05-2024 20:00:00,28.695381,77.181665,SO2,18,66,37
India,Delhi,Delhi,"Ashok Vihar, Delhi - DPCC",18-05-2024 20:00:00,28.695381,77.181665,CO,14,138,44
India,Delhi,Delhi,"Ashok Vihar, Delhi - DPCC",18-05-2024 20:00:00,28.695381,77.181665,OZONE,5,250,162
India,Delhi,Delhi,"Bawana, Delhi - DPCC",18-05-2024 20:00:00,28.776200,77.051074,PM2.5,83,404,271
India,Delhi,Delhi,"Bawana, Delhi - DPCC",18-05-2024 20:00:00,28.776200,77.051074,SO2,11,77,44
India,Delhi,Delhi,"Burari Crossing, Delhi - IMD",18-05-2024 20:00:00,28.7256504,77.2011573,OZONE,7,110,83
India,Delhi,Delhi,"Chandni Chowk, Delhi - IITM",18-05-2024 20:00:00,28.656756,77.227234,NH3,21,25,22
India,Delhi,Delhi,"DTU, Delhi - CPCB",18-05-2024 20:00:00,28.7500499,77.1112615,PM2.5,100,376,285
India,Delhi,Delhi,"DTU, Delhi - CPCB",18-05-2024 20:00:00,28.7500499,77.1112615,CO,8,101,16
India,Delhi,Delhi,"Dr. Karni Singh Shooting Range, Delhi - DPCC",18-05-2024 20:00:00,28.498571,77.264840,PM10,150,382,222
India,Delhi,Delhi,"Dwarka-Sector 8, Delhi - DPCC ",18-05-2024 20:00:00,28.5710274,77.0719006,PM2.5,73,342,235
India,Delhi,Delhi,"IGI Airport (T3), Delhi - IMD",18-05-2024 20:00:00,28.5627763,77.1180053,PM10,122,224,177
India,Delhi,Delhi,"IHBAS, Dilshad Garden, Delhi - CPCB",18-05-2024 20:00:00,28.6811736,77.3025234,OZONE,18,24,20
India,Delhi,Delhi,"Jahangirpuri, Delhi - DPCC",18-05-2024 20:00:00,28.732820,77.170633,CO,26,136,62
India,Delhi,Delhi,"Jahangirpuri, Delhi - DPCC",18-05-2024 20:00:00,28.732820,77.170633,OZONE,4,137,100
India,Delhi,Delhi,"Jawaharlal Nehru Stadium, Delhi - DPCC",18-05-2024 20:00:00,28.580280,77.233829,PM2.5,33,278,154
India,Delhi,Delhi,"Jawaharlal Nehru Stadium, Delhi - DPCC",18-05-2024 20:00:00,28.580280,77.233829,PM10,135,316,215
India,Delhi,Delhi,"Lodhi Road, Delhi - IMD",18-05-2024 20:00:00,28.5918245,77.2273074,PM2.5,38,301,171
India,Delhi,Delhi,"Lodhi Road, Delhi - IMD",18-05-2024 20:00:00,28.5918245,77.2273074,PM10,120,221,171
India,Delhi,Delhi,"Lodhi Road, Delhi - IMD",18-05-2024 20:00:00,28.5918245,77.2273074,CO,14,51,18
India,Delhi,Delhi,"Lodhi Road, Delhi - IMD",18-05-2024 20:00:00,28.5918245,77.2273074,OZONE,4,77,54
India,Delhi,Delhi,"Major Dhyan Chand National Stadium, Delhi - DPCC",18-05-2024 20:00:00,28.611281,77.237738,NO2,19,169,94
India,Delhi,Delhi,"Mandir Marg, Delhi - DPCC",18-05-2024 20:00:00,28.636429,77.201067,NH3,7,11,9
India,Delhi,Delhi,"Mandir Marg, Delhi - DPCC",18-05-2024 20:00:00,28.636429,77.201067,SO2,9,37,14
India,Delhi,Delhi,"Mundka, Delhi - DPCC",18-05-2024 20:00:00,28.684678,77.076574,NH3,6,10,8
India,Delhi,Delhi,"Mundka, Delhi - DPCC",18-05-2024 20:00:00,28.684678,77.076574,SO2,12,69,34
India,Delhi,Delhi,"Mundka, Delhi - DPCC",18-05-2024 20:00:00,28.684678,77.076574,CO,36,98,42
India,Delhi,Delhi,"NSIT Dwarka, Delhi - CPCB",18-05-2024 20:00:00,28.60909,77.0325413,NO2,26,70,40
India,Delhi,Delhi,"NSIT Dwarka, Delhi - CPCB",18-05-2024 20:00:00,28.60909,77.0325413,NH3,7,9,7
India,Delhi,Delhi,"NSIT Dwarka, Delhi - CPCB",18-05-2024 20:00:00,28.60909,77.0325413,SO2,1,49,17
India,Delhi,Delhi,"NSIT Dwarka, Delhi - CPCB",18-05-2024 20:00:00,28.60909,77.0325413,CO,25,68,41
India,Delhi,Delhi,"Najafgarh, Delhi - DPCC",18-05-2024 20:00:00,28.570173,76.933762,SO2,10,26,17
India,Delhi,Delhi,"Nehru Nagar, Delhi - DPCC",18-05-2024 20:00:00,28.567890,77.250515,PM2.5,75,332,235
India,Delhi,Delhi,"Nehru Nagar, Delhi - DPCC",18-05-2024 20:00:00,28.567890,77.250515,NH3,4,9,6
India,Delhi,Delhi,"New Moti Bagh, Delhi - MHUA",18-05-2024 20:00:00,28.57834,77.18400,PM2.5,69,343,219
India,Delhi,Delhi,"Okhla Phase-2, Delhi - DPCC",18-05-2024 20:00:00,28.530785,77.271255,SO2,5,30,16
India,Delhi,Delhi,"Patparganj, Delhi - DPCC",18-05-2024 20:00:00,28.623763,77.287209,PM2.5,93,333,249
India,Delhi,Delhi,"Patparganj, Delhi - DPCC",18-05-2024 20:00:00,28.623763,77.287209,NH3,7,10,8
India,Delhi,Delhi,"Patparganj, Delhi - DPCC",18-05-2024 20:00:00,28.623763,77.287209,CO,16,88,37
India,Delhi,Delhi,"Punjabi Bagh, Delhi - DPCC",18-05-2024 20:00:00,28.674045,77.131023,PM2.5,55,361,248
India,Delhi,Delhi,"Pusa, Delhi - DPCC",18-05-2024 20:00:00,28.639652,77.146275,PM10,185,454,275
India,Delhi,Delhi,"Pusa, Delhi - DPCC",18-05-2024 20:00:00,28.639652,77.146275,NH3,5,10,8
India,Delhi,Delhi,"Rohini, Delhi - DPCC",18-05-2024 20:00:00,28.732528,77.119920,PM2.5,50,406,260
India,Delhi,Delhi,"Shadipur, Delhi - CPCB",18-05-2024 20:00:00,28.6514781,77.1473105,PM10,215,500,382
India,Delhi,Delhi,"Sirifort, Delhi - CPCB",18-05-2024 20:00:00,28.5504249,77.2159377,PM10,143,446,259
India,Delhi,Delhi,"Sonia Vihar, Delhi - DPCC",18-05-2024 20:00:00,28.710508,77.249485,PM10,139,428,284
India,Delhi,Delhi,"Sonia Vihar, Delhi - DPCC",18-05-2024 20:00:00,28.710508,77.249485,NH3,6,12,8
India,Delhi,Delhi,"Sonia Vihar, Delhi - DPCC",18-05-2024 20:00:00,28.710508,77.249485,CO,51,132,59
India,Delhi,Delhi,"Sri Aurobindo Marg, Delhi - DPCC",18-05-2024 20:00:00,28.531346,77.190156,OZONE,2,134,90
India,Delhi,Delhi,"Vivek Vihar, Delhi - DPCC",18-05-2024 20:00:00,28.672342,77.315260,PM2.5,69,307,204
India,Delhi,Delhi,"Vivek Vihar, Delhi - DPCC",18-05-2024 20:00:00,28.672342,77.315260,PM10,171,406,266
India,Delhi,Delhi,"Vivek Vihar, Delhi - DPCC",18-05-2024 20:00:00,28.672342,77.315260,SO2,27,67,45
India,Delhi,Delhi,"Wazirpur, Delhi - DPCC",18-05-2024 20:00:00,28.699793,77.165453,PM2.5,73,362,248
India,Delhi,Delhi,"Wazirpur, Delhi - DPCC",18-05-2024 20:00:00,28.699793,77.165453,SO2,12,69,33
India,Gujarat,Ahmedabad,"Chandkheda, Ahmedabad - IITM",18-05-2024 20:00:00,23.107969,72.574648,NO2,46,69,55
India,Gujarat,Ahmedabad,"Chandkheda, Ahmedabad - IITM",18-05-2024 20:00:00,23.107969,72.574648,CO,2,84,17
India,Gujarat,Ahmedabad,"Gyaspur, Ahmedabad - IITM",18-05-2024 20:00:00,22.977134,72.553024,CO,46,56,50
India,Gujarat,Ahmedabad,"Maninagar, Ahmedabad - GPCB",18-05-2024 20:00:00,23.002657,72.591912,PM2.5,18,141,66
India,Gujarat,Ahmedabad,"Maninagar, Ahmedabad - GPCB",18-05-2024 20:00:00,23.002657,72.591912,PM10,48,232,103
India,Gujarat,Ahmedabad,"Maninagar, Ahmedabad - GPCB",18-05-2024 20:00:00,23.002657,72.591912,CO,59,105,91
India,Gujarat,Ahmedabad,"Raikhad, Ahmedabad - IITM",18-05-2024 20:00:00,23.020509,72.579261,NH3,NA,NA,NA
India,Gujarat,Ahmedabad,"Raikhad, Ahmedabad - IITM",18-05-2024 20:00:00,23.020509,72.579261,OZONE,4,92,72
India,Gujarat,Ahmedabad,"Rakhial, Ahmedabad - IITM",18-05-2024 20:00:00,23.016834,72.625775,OZONE,4,126,98
India,Gujarat,Ahmedabad,"SVPI Airport Hansol, Ahmedabad - IITM",18-05-2024 20:00:00,23.076793,72.627874,NH3,4,6,5
India,Gujarat,Ankleshwar,"GIDC, Ankleshwar - GPCB",18-05-2024 20:00:00,21.613267,73.010555,NO2,25,36,32
India,Gujarat,Ankleshwar,"GIDC, Ankleshwar - GPCB",18-05-2024 20:00:00,21.613267,73.010555,SO2,NA,NA,NA
India,Gujarat,Gandhinagar,"Sector-10, Gandhinagar - GPCB",18-05-2024 20:00:00,23.221714,72.654328,NO2,13,17,16
India,Gujarat,Gandhinagar,"Sector-10, Gandhinagar - GPCB",18-05-2024 20:00:00,23.221714,72.654328,NH3,3,4,4
India,Gujarat,Surat,"Science Center, Surat - SMC",18-05-2024 20:00:00,21.170046,72.795405,CO,16,30,25
India,Gujarat,Vapi,"Phase-1 GIDC, Vapi - GPCB",18-05-2024 20:00:00,20.362421,72.918013,NO2,6,7,6
India,Gujarat,Vapi,"Phase-1 GIDC, Vapi - GPCB",18-05-2024 20:00:00,20.362421,72.918013,NH3,2,2,2
India,Gujarat,Vapi,"Phase-1 GIDC, Vapi - GPCB",18-05-2024 20:00:00,20.362421,72.918013,OZONE,1,5,2
India,Haryana,Ambala,"Patti Mehar, Ambala - HSPCB",18-05-2024 20:00:00,30.379589,76.778328,NH3,5,12,8
India,Haryana,Ambala,"Patti Mehar, Ambala - HSPCB",18-05-2024 20:00:00,30.379589,76.778328,CO,30,61,41
India,Haryana,Bahadurgarh,"Arya Nagar, Bahadurgarh - HSPCB",18-05-2024 20:00:00,28.6701,76.9254,CO,88,102,98
India,Haryana,Bhiwani,"H.B. Colony, Bhiwani - HSPCB",18-05-2024 20:00:00,28.806223,76.141105,NO2,6,12,9
India,Haryana,Charkhi Dadri,"Mini Secretariat, Charkhi Dadri - HSPCB",18-05-2024 20:00:00,28.593883,76.270653,NH3,6,8,7
India,Haryana,Charkhi Dadri,"Mini Secretariat, Charkhi Dadri - HSPCB",18-05-2024 20:00:00,28.593883,76.270653,OZONE,13,18,16
India,Haryana,Faridabad,"New Industrial Town, Faridabad - HSPCB",18-05-2024 20:00:00,28.39072,77.30059,PM10,187,500,311
India,Haryana,Faridabad,"New Industrial Town, Faridabad - HSPCB",18-05-2024 20:00:00,28.39072,77.30059,NO2,8,25,16
India,Haryana,Faridabad,"Sector 30, Faridabad - HSPCB",18-05-2024 20:00:00,28.4417,77.3217,OZONE,58,62,59
India,Haryana,Faridabad,"Sector- 16A, Faridabad - HSPCB",18-05-2024 20:00:00,28.4088421,77.3099081,NO2,NA,NA,NA
India,Haryana,Faridabad,"Sector- 16A, Faridabad - HSPCB",18-05-2024 20:00:00,28.4088421,77.3099081,SO2,NA,NA,NA
India,Haryana,Fatehabad,"Huda Sector, Fatehabad - HSPCB",18-05-2024 20:00:00,29.503664,75.467934,PM10,121,172,139
India,Haryana,Fatehabad,"Huda Sector, Fatehabad - HSPCB",18-05-2024 20:00:00,29.503664,75.467934,CO,5,18,8
India,Haryana,Gurugram,"NISE Gwal Pahari, Gurugram - IMD",18-05-2024 20:00:00,28.422681,77.148944,PM2.5,16,342,208
India,Haryana,Gurugram,"Sector-51, Gurugram - HSPCB",18-05-2024 20:00:00,28.4227,77.0667,CO,24,160,37
India,Haryana,Gurugram,"Sector-51, Gurugram - HSPCB",18-05-2024 20:00:00,28.4227,77.0667,OZONE,15,55,47
India,Haryana,Gurugram,"Teri Gram, Gurugram - HSPCB",18-05-2024 20:00:00,28.4275,77.1465,NO2,NA,NA,NA
India,Haryana,Gurugram,"Vikas Sadan, Gurugram - HSPCB",18-05-2024 20:00:00,28.4501238,77.0263051,CO,54,150,111
India,Haryana,Gurugram,"Vikas Sadan, Gurugram - HSPCB",18-05-2024 20:00:00,28.4501238,77.0263051,OZONE,8,69,50
India,Haryana,Hisar,"Urban Estate-II, Hisar - HSPCB",18-05-2024 20:00:00,29.140560,75.744941,PM10,NA,NA,NA
India,Haryana,Hisar,"Urban Estate-II, Hisar - HSPCB",18-05-2024 20:00:00,29.140560,75.744941,SO2,NA,NA,NA
India,Haryana,Hisar,"Urban Estate-II, Hisar - HSPCB",18-05-2024 20:00:00,29.140560,75.744941,CO,25,52,29
India,Haryana,Kaithal,"Rishi Nagar, Kaithal - HSPCB",18-05-2024 20:00:00,29.8006,76.4155,SO2,17,109,64
India,Haryana,Karnal,"Sector-12, Karnal - HSPCB",18-05-2024 20:00:00,29.695300,77.002700,PM2.5,115,308,212
India,Haryana,Karnal,"Sector-12, Karnal - HSPCB",18-05-2024 20:00:00,29.695300,77.002700,NO2,7,12,10
India,Haryana,Kurukshetra,"Sector-7, Kurukshetra - HSPCB",18-05-2024 20:00:00,29.966942,76.875879,PM10,131,469,194
India,Haryana,Kurukshetra,"Sector-7, Kurukshetra - HSPCB",18-05-2024 20:00:00,29.966942,76.875879,SO2,2,3,3
India,Haryana,Kurukshetra,"Sector-7, Kurukshetra - HSPCB",18-05-2024 20:00:00,29.966942,76.875879,OZONE,29,105,89
India,Haryana,Mandikhera,"General Hospital, Mandikhera - HSPCB",18-05-2024 20:00:00,27.9002,76.9938,CO,4,28,11
India,Haryana,Manesar,"Sector-2 IMT, Manesar - HSPCB",18-05-2024 20:00:00,28.360699,76.936090,NH3,1,4,2
India,Haryana,Narnaul,"Shastri Nagar, Narnaul - HSPCB",18-05-2024 20:00:00,28.060249,76.113115,CO,16,40,19
India,Haryana,Narnaul,"Shastri Nagar, Narnaul - HSPCB",18-05-2024 20:00:00,28.060249,76.113115,OZONE,53,70,56
India,Haryana,Palwal,"Shyam Nagar, Palwal - HSPCB",18-05-2024 20:00:00,28.1485564,77.3320667,NO2,23,25,24
India,Haryana,Panchkula,"Sector-6, Panchkula - HSPCB ",18-05-2024 20:00:00,30.7057778,76.8531805555555,PM2.5,139,315,237
India,Haryana,Panchkula,"Sector-6, Panchkula - HSPCB ",18-05-2024 20:00:00,30.7057778,76.8531805555555,NO2,10,11,10
India,Haryana,Sirsa,"F-Block, Sirsa - HSPCB",18-05-2024 20:00:00,29.536400,75.015800,SO2,NA,NA,NA
India,Haryana,Sonipat,"Murthal, Sonipat - HSPCB",18-05-2024 20:00:00,29.027200,77.062100,NO2,37,44,40
India,Haryana,Sonipat,"Murthal, Sonipat - HSPCB",18-05-2024 20:00:00,29.027200,77.062100,SO2,13,29,20
India,Haryana,Sonipat,"Murthal, Sonipat - HSPCB",18-05-2024 20:00:00,29.027200,77.062100,CO,2,36,16
India,Haryana,Yamuna Nagar,"Gobind Pura, Yamuna Nagar - HSPCB",18-05-2024 20:00:00,30.1480566,77.2893471,SO2,NA,NA,NA
India,Haryana,Yamuna Nagar,"Gobind Pura, Yamuna Nagar - HSPCB",18-05-2024 20:00:00,30.1480566,77.2893471,CO,27,42,31
India,Haryana,Yamuna Nagar,"Gobind Pura, Yamuna Nagar - HSPCB",18-05-2024 20:00:00,30.1480566,77.2893471,OZONE,54,73,64
India,Jharkhand,Dhanbad,"Kalakusuma, Dhanbad - DMC",18-05-2024 20:00:00,23.811548,86.481238,NO2,13,15,14
India,Jharkhand,Dhanbad,"Kalakusuma, Dhanbad - DMC",18-05-2024 20:00:00,23.811548,86.481238,OZONE,44,87,69
India,Jharkhand,Dhanbad,"Sardar Patel Nagar, Dhanbad - JSPCB",18-05-2024 20:00:00,23.80569,86.44268,PM2.5,NA,NA,NA
India,Jharkhand,Jorapokhar,"Tata Stadium, Jorapokhar - JSPCB",18-05-2024 20:00:00,23.707909,86.414670,NH3,NA,NA,NA
India,Jharkhand,Pathardih,"Mohalbani Ghat, Pathardih - DMC",18-05-2024 20:00:00,23.669880,86.411725,PM2.5,NA,NA,NA
India,Jharkhand,Pathardih,"Mohalbani Ghat, Pathardih - DMC",18-05-2024 20:00:00,23.669880,86.411725,OZONE,56,77,67
India,Karnataka,Bagalkot,"Vidayagiri, Bagalkot - KSPCB",18-05-2024 20:00:00,16.172806,75.659694,CO,22,52,35
India,Karnataka,Bengaluru,"Bapuji Nagar, Bengaluru - KSPCB",18-05-2024 20:00:00,12.951913,77.539784,PM2.5,13,40,29
India,Karnataka,Bengaluru,"Bapuji Nagar, Bengaluru - KSPCB",18-05-2024 20:00:00,12.951913,77.539784,NH3,1,1,1
India,Karnataka,Bengaluru,"Bapuji Nagar, Bengaluru - KSPCB",18-05-2024 20:00:00,12.951913,77.539784,SO2,5,7,6
India,Karnataka,Bengaluru,"Bapuji Nagar, Bengaluru - KSPCB",18-05-2024 20:00:00,12.951913,77.539784,CO,9,50,36
India,Karnataka,Bengaluru,"Hebbal, Bengaluru - KSPCB",18-05-2024 20:00:00,13.029152,77.585901,SO2,16,24,20
India,Karnataka,Bengaluru,"Hebbal, Bengaluru - KSPCB",18-05-2024 20:00:00,13.029152,77.585901,OZONE,7,246,82
India,Karnataka,Bengaluru,"Jayanagar 5th Block, Bengaluru - KSPCB",18-05-2024 20:00:00,12.920984,77.584908,SO2,9,25,17
India,Karnataka,Bengaluru,"Jayanagar 5th Block, Bengaluru - KSPCB",18-05-2024 20:00:00,12.920984,77.584908,OZONE,27,29,28
India,Karnataka,Bengaluru,"Kasturi Nagar, Bengaluru - KSPCB",18-05-2024 20:00:00,13.003872,77.664217,OZONE,4,77,36
India,Karnataka,Bengaluru,"Peenya, Bengaluru - CPCB",18-05-2024 20:00:00,13.0270199,77.494094,NH3,3,4,3
India,Karnataka,Bengaluru,"Sanegurava Halli, Bengaluru - KSPCB",18-05-2024 20:00:00,12.990328,77.5431385,PM10,34,54,39
India,Karnataka,Bengaluru,"Shivapura_Peenya, Bengaluru - KSPCB",18-05-2024 20:00:00,13.0246342,77.5080115,PM2.5,2,83,34
India,Karnataka,Bengaluru,"Shivapura_Peenya, Bengaluru - KSPCB",18-05-2024 20:00:00,13.0246342,77.5080115,CO,23,52,33
India,Karnataka,Bengaluru,"Silk Board, Bengaluru - KSPCB",18-05-2024 20:00:00,12.917348,77.622813,PM2.5,18,62,37
India,Karnataka,Bengaluru,"Silk Board, Bengaluru - KSPCB",18-05-2024 20:00:00,12.917348,77.622813,PM10,47,119,85
India,Karnataka,Bengaluru,"Silk Board, Bengaluru - KSPCB",18-05-2024 20:00:00,12.917348,77.622813,NH3,NA,NA,NA
India,Karnataka,Bengaluru,"Silk Board, Bengaluru - KSPCB",18-05-2024 20:00:00,12.917348,77.622813,SO2,7,18,13
India,Karnataka,Chamarajanagar,"Urban, Chamarajanagar - KSPCB",18-05-2024 20:00:00,11.55358,76.55521,PM2.5,20,45,28
India,Karnataka,Chamarajanagar,"Urban, Chamarajanagar - KSPCB",18-05-2024 20:00:00,11.55358,76.55521,NH3,2,2,2
India,Karnataka,Chamarajanagar,"Urban, Chamarajanagar - KSPCB",18-05-2024 20:00:00,11.55358,76.55521,SO2,2,7,4
India,Karnataka,Chikkamagaluru,"Kalyana Nagara, Chikkamagaluru - KSPCB",18-05-2024 20:00:00,13.328028,75.797056,NO2,NA,NA,NA
India,Karnataka,Hassan,"B.Katihalli, Hassan - KSPCB",18-05-2024 20:00:00,13.008556,76.125258,PM2.5,22,83,39
India,Karnataka,Hassan,"B.Katihalli, Hassan - KSPCB",18-05-2024 20:00:00,13.008556,76.125258,CO,2,8,5
India,Karnataka,Haveri,"Ashwini Nagar, Haveri - KSPCB",18-05-2024 20:00:00,14.791800,75.389600,NO2,23,40,32
India,Karnataka,Hubballi,"Deshpande Nagar, Hubballi - KSPCB",18-05-2024 20:00:00,15.351773,75.140726,PM10,NA,NA,NA
India,Karnataka,Hubballi,"Deshpande Nagar, Hubballi - KSPCB",18-05-2024 20:00:00,15.351773,75.140726,NO2,23,26,25
India,Karnataka,Kalaburagi,"Lal Bahadur Shastri Nagar, Kalaburagi - KSPCB",18-05-2024 20:00:00,17.321993,76.822628,SO2,11,15,14
India,Karnataka,Karwar,"KHB Colony, Karwar - KSPCB",18-05-2024 20:00:00,14.816666,74.141003,NH3,1,7,2
India,Karnataka,Karwar,"KHB Colony, Karwar - KSPCB",18-05-2024 20:00:00,14.816666,74.141003,SO2,22,23,22
India,Karnataka,Kolar,"Tamaka Ind. Area, Kolar - KSPCB",18-05-2024 20:00:00,13.1276288,78.1570122,PM10,18,51,29
India,Karnataka,Kolar,"Tamaka Ind. Area, Kolar - KSPCB",18-05-2024 20:00:00,13.1276288,78.1570122,NH3,5,17,13
India,Karnataka,Kolar,"Tamaka Ind. Area, Kolar - KSPCB",18-05-2024 20:00:00,13.1276288,78.1570122,SO2,10,13,10
India,Karnataka,Koppal,"Diwator Nagar, Koppal - KSPCB",18-05-2024 20:00:00,15.347630,76.181767,CO,57,58,58
India,Karnataka,Madikeri,"Stuart Hill, Madikeri - KSPCB",18-05-2024 20:00:00,12.415911,75.735050,NH3,1,1,1
India,Karnataka,Mangalore,"Kadri, Mangalore - KSPCB",18-05-2024 20:00:00,12.889250,74.853000,PM2.5,9,42,28
India,Karnataka,Mangalore,"Kadri, Mangalore - KSPCB",18-05-2024 20:00:00,12.889250,74.853000,SO2,8,10,9
India,Karnataka,Mysuru,"Hebbal 1st Stage, Mysuru - KSPCB",18-05-2024 20:00:00,12.21041,76.37376,NO2,NA,NA,NA
India,Karnataka,Raichur,"Haji Colony, Raichur - KSPCB",18-05-2024 20:00:00,16.208139,77.348417,NO2,12,41,23
India,Karnataka,Raichur,"Haji Colony, Raichur - KSPCB",18-05-2024 20:00:00,16.208139,77.348417,CO,91,104,101
India,Karnataka,Ramanagara,"Vijay Nagar, Ramanagara - KSPCB",18-05-2024 20:00:00,12.733409,77.298051,PM2.5,17,51,32
India,Karnataka,Vijayapura,"Ibrahimpur, Vijayapura - KSPCB",18-05-2024 20:00:00,16.802639,75.722694,NH3,2,2,2
India,Kerala,Kannur,"Thavakkara, Kannur - Kerala PCB",18-05-2024 20:00:00,11.875000,75.373200,NO2,6,7,6
India,Kerala,Kannur,"Thavakkara, Kannur - Kerala PCB",18-05-2024 20:00:00,11.875000,75.373200,NH3,1,1,1
India,Kerala,Kannur,"Thavakkara, Kannur - Kerala PCB",18-05-2024 20:00:00,11.875000,75.373200,SO2,1,4,2
India,Kerala,Thiruvananthapuram,"Kariavattom, Thiruvananthapuram - Kerala PCB",18-05-2024 20:00:00,8.563700,76.886500,PM10,84,94,88
India,Kerala,Thiruvananthapuram,"Plammoodu, Thiruvananthapuram - Kerala PCB",18-05-2024 20:00:00,8.5149093,76.9435879,NH3,1,1,1
India,Madhya Pradesh,Bhopal,"Idgah Hills, Bhopal - MPPCB",18-05-2024 20:00:00,23.264759,77.381568,NH3,5,6,5
India,Madhya Pradesh,Bhopal,"Paryavaran Parisar, Bhopal - MPPCB",18-05-2024 20:00:00,23.210494,77.425409,NH3,4,9,6
India,Madhya Pradesh,Bhopal,"T T Nagar, Bhopal - MPPCB",18-05-2024 20:00:00,23.233584,77.400574,PM10,64,160,98
India,Madhya Pradesh,Bhopal,"T T Nagar, Bhopal - MPPCB",18-05-2024 20:00:00,23.233584,77.400574,SO2,9,23,18
