country,state,city,station,last_update,latitude,longitude,pollutant_id,pollutant_min,pollutant_max,pollutant_avg
India,Andhra_Pradesh,Amaravati,"Secretariat, Amaravati - APPCB",18-05-2024 01:00:00,16.5150833,80.5181667,NH3,2,4,3
India,Andhra_Pradesh,Amaravati,"Secretariat, Amaravati - APPCB",18-05-2024 01:00:00,16.5150833,80.5181667,OZONE,1,26,9
India,Andhra_Pradesh,Anantapur,"Gulzarpet, Anantapur - APPCB",18-05-2024 01:00:00,14.675886,77.593027,PM10,44,72,56
India,Andhra_Pradesh,Chittoor,"Gangineni Cheruvu, Chittoor - APPCB",18-05-2024 01:00:00,13.204880,79.097889,PM2.5,9,237,77
India,Andhra_Pradesh,Kadapa,"Yerramukkapalli, Kadapa - APPCB",18-05-2024 01:00:00,14.465052,78.824187,NO2,12,13,12
India,Andhra_Pradesh,Kadapa,"Yerramukkapalli, Kadapa - APPCB",18-05-2024 01:00:00,14.465052,78.824187,SO2,2,2,2
India,Andhra_Pradesh,Rajamahendravaram,"Anand Kala Kshetram, Rajamahendravaram - APPCB",18-05-2024 01:00:00,16.9872867,81.7363176,NO2,13,48,25
India,Andhra_Pradesh,Tirupati,"Tirumala, Tirupati - APPCB",18-05-2024 01:00:00,13.67,79.35,OZONE,6,21,15
India,Andhra_Pradesh,Vijayawada,"Kanuru, Vijayawada - APPCB",18-05-2024 01:00:00,16.486692,80.699436,CO,37,40,40
India,Andhra_Pradesh,Vijayawada,"Rajiv Gandhi Park, Vijayawada - APPCB",18-05-2024 01:00:00,16.509717,80.612222,CO,36,44,36
India,Andhra_Pradesh,Vijayawada,"Rajiv Nagar, Vijayawada - APPCB",18-05-2024 01:00:00,16.554731,80.649110,PM2.5,42,58,45
India,Andhra_Pradesh,Vijayawada,"Rajiv Nagar, Vijayawada - APPCB",18-05-2024 01:00:00,16.554731,80.649110,SO2,16,23,17
India,Andhra_Pradesh,Vijayawada,"Rajiv Nagar, Vijayawada - APPCB",18-05-2024 01:00:00,16.554731,80.649110,CO,36,36,36
India,Andhra_Pradesh,Vijayawada,"Rajiv Nagar, Vijayawada - APPCB",18-05-2024 01:00:00,16.554731,80.649110,OZONE,15,27,17
India,Andhra_Pradesh,Visakhapatnam,"GVM Corporation, Visakhapatnam - APPCB",18-05-2024 01:00:00,17.72,83.3,PM2.5,2,53,24
India,Andhra_Pradesh,Visakhapatnam,"GVM Corporation, Visakhapatnam - APPCB",18-05-2024 01:00:00,17.72,83.3,SO2,8,14,11
India,Arunachal_Pradesh,Naharlagun,"Naharlagun, Naharlagun - APSPCB",18-05-2024 01:00:00,27.103358,93.679645,OZONE,NA,NA,NA
India,Assam,Byrnihat,"Central Academy for SFS, Byrnihat - PCBA",18-05-2024 01:00:00,26.071318,91.87488,PM10,100,500,167
India,Assam,Byrnihat,"Central Academy for SFS, Byrnihat - PCBA",18-05-2024 01:00:00,26.071318,91.87488,NO2,25,48,38
India,Assam,Guwahati,"Pan Bazaar, Guwahati - PCBA",18-05-2024 01:00:00,26.187500,91.744194,NO2,1,5,2
India,Assam,Guwahati,"Pan Bazaar, Guwahati - PCBA",18-05-2024 01:00:00,26.187500,91.744194,NH3,2,8,4
India,Assam,Nagaon,"Christianpatty, Nagaon - PCBA",18-05-2024 01:00:00,26.349082,92.68449,NO2,1,12,5
India,Assam,Nagaon,"Christianpatty, Nagaon - PCBA",18-05-2024 01:00:00,26.349082,92.68449,SO2,NA,NA,NA
India,Assam,Nalbari,"Bata Chowk, Nalbari - PCBA",18-05-2024 01:00:00,26.446912,91.439057,SO2,8,11,10
India,Bihar,Araria,"Kharahiya Basti, Araria - BSPCB",18-05-2024 01:00:00,26.146529,87.454184,PM10,62,412,144
India,Bihar,Arrah,"New DM Office, Arrah - BSPCB",18-05-2024 01:00:00,25.5626095,84.663264,SO2,5,43,18
India,Bihar,Arrah,"New DM Office, Arrah - BSPCB",18-05-2024 01:00:00,25.5626095,84.663264,OZONE,3,57,14
India,Bihar,Aurangabad,"Gurdeo Nagar, Aurangabad - BSPCB",18-05-2024 01:00:00,24.75746,84.366208,SO2,14,22,16
India,Bihar,Bettiah,"Kamalnath Nagar, Bettiah - BSPCB",18-05-2024 01:00:00,26.80365,84.51954,NH3,3,42,22
India,Bihar,Bhagalpur,"DM Office_Kachari Chowk, Bhagalpur - BSPCB",18-05-2024 01:00:00,25.251013,86.989001,PM2.5,43,312,135
India,Bihar,Bhagalpur,"DM Office_Kachari Chowk, Bhagalpur - BSPCB",18-05-2024 01:00:00,25.251013,86.989001,NH3,NA,NA,NA
India,Bihar,Bhagalpur,"Mayaganj, Bhagalpur - BSPCB",18-05-2024 01:00:00,25.265194,87.012947,PM2.5,67,329,165
India,Bihar,Bhagalpur,"Mayaganj, Bhagalpur - BSPCB",18-05-2024 01:00:00,25.265194,87.012947,PM10,58,187,110
India,Bihar,Bihar Sharif,"D M Colony, Bihar Sharif - BSPCB",18-05-2024 01:00:00,25.204762,85.514960,OZONE,30,66,50
India,Bihar,Buxar,"Charitra Van, Buxar - BSPCB (Formerly known as Central Jail)",18-05-2024 01:00:00,25.567520,83.966379,PM10,NA,NA,NA
India,Bihar,Buxar,"Charitra Van, Buxar - BSPCB (Formerly known as Central Jail)",18-05-2024 01:00:00,25.567520,83.966379,NH3,3,3,3
India,Bihar,Gaya,"Collectorate, Gaya - BSPCB",18-05-2024 01:00:00,24.7955,84.9994,CO,1,1,1
India,Bihar,Gaya,"Kareemganj, Gaya - BSPCB",18-05-2024 01:00:00,24.792403,84.992416,NH3,3,4,4
India,Bihar,Gaya,"SFTI Kusdihra, Gaya - BSPCB",18-05-2024 01:00:00,24.762518,84.982348,PM2.5,50,189,111
India,Bihar,Gaya,"SFTI Kusdihra, Gaya - BSPCB",18-05-2024 01:00:00,24.762518,84.982348,PM10,69,107,89
India,Bihar,Kishanganj,"SDM Office_Khagra, Kishanganj - BSPCB",18-05-2024 01:00:00,26.0881305,87.93840336,PM2.5,25,147,62
India,Bihar,Kishanganj,"SDM Office_Khagra, Kishanganj - BSPCB",18-05-2024 01:00:00,26.0881305,87.93840336,SO2,18,19,19
India,Bihar,Kishanganj,"SDM Office_Khagra, Kishanganj - BSPCB",18-05-2024 01:00:00,26.0881305,87.93840336,OZONE,31,93,33
India,Bihar,Manguraha,"Forest Rest House, Manguraha - BSPCB",18-05-2024 01:00:00,27.308328,84.531742,PM2.5,40,83,59
India,Bihar,Motihari,"Gandak Colony, Motihari - BSPCB",18-05-2024 01:00:00,26.63086,84.90051,NO2,21,54,34
India,Bihar,Munger,"Town Hall, Munger - BSPCB",18-05-2024 01:00:00,25.376776,86.471523,NO2,5,6,5
India,Bihar,Munger,"Town Hall, Munger - BSPCB",18-05-2024 01:00:00,25.376776,86.471523,SO2,14,35,18
India,Bihar,Muzaffarpur,"Buddha Colony, Muzaffarpur - BSPCB",18-05-2024 01:00:00,26.11442,85.39813,NH3,8,13,10
India,Bihar,Muzaffarpur,"Buddha Colony, Muzaffarpur - BSPCB",18-05-2024 01:00:00,26.11442,85.39813,CO,32,75,56
India,Bihar,Muzaffarpur,"MIT-Daudpur Kothi, Muzaffarpur - BSPCB",18-05-2024 01:00:00,26.1403345,85.3650192,NH3,NA,NA,NA
India,Bihar,Muzaffarpur,"Muzaffarpur Collectorate, Muzaffarpur - BSPCB",18-05-2024 01:00:00,26.1209,85.3647,PM2.5,76,231,127
India,Bihar,Muzaffarpur,"Muzaffarpur Collectorate, Muzaffarpur - BSPCB",18-05-2024 01:00:00,26.1209,85.3647,OZONE,44,64,64
India,Bihar,Patna,"DRM Office Danapur, Patna - BSPCB",18-05-2024 01:00:00,25.586562,85.043586,PM2.5,139,333,251
India,Bihar,Patna,"Muradpur, Patna - BSPCB",18-05-2024 01:00:00,25.619651,85.147382,SO2,5,13,8
India,Bihar,Patna,"Muradpur, Patna - BSPCB",18-05-2024 01:00:00,25.619651,85.147382,CO,60,146,108
India,Bihar,Patna,"Samanpura, Patna - BSPCB",18-05-2024 01:00:00,25.596727,85.085624,NO2,1,64,18
India,Bihar,Patna,"Samanpura, Patna - BSPCB",18-05-2024 01:00:00,25.596727,85.085624,SO2,2,4,3
India,Bihar,Purnia,"Mariam Nagar, Purnia - BSPCB",18-05-2024 01:00:00,25.366336,87.117468,NO2,5,6,6
India,Bihar,Rajgir,"Dangi Tola, Rajgir - BSPCB",18-05-2024 01:00:00,25.03280,85.41948,PM2.5,43,193,75
India,Bihar,Saharsa,"Police Line, Saharsa - BSPCB",18-05-2024 01:00:00,25.892357,86.590325,SO2,16,17,16
India,Bihar,Samastipur,"DM Office_Kasipur, Samastipur - BSPCB",18-05-2024 01:00:00,25.859655,85.77944,NH3,4,4,4
India,Bihar,Samastipur,"DM Office_Kasipur, Samastipur - BSPCB",18-05-2024 01:00:00,25.859655,85.77944,SO2,2,54,22
India,Bihar,Samastipur,"DM Office_Kasipur, Samastipur - BSPCB",18-05-2024 01:00:00,25.859655,85.77944,CO,2,141,100
India,Bihar,Sasaram,"Dada Peer, Sasaram - BSPCB",18-05-2024 01:00:00,24.952822,84.002396,NH3,7,39,18
India,Bihar,Sasaram,"Dada Peer, Sasaram - BSPCB",18-05-2024 01:00:00,24.952822,84.002396,OZONE,7,109,41
India,Bihar,Siwan,"Chitragupta Nagar, Siwan - BSPCB",18-05-2024 01:00:00,26.2271665,84.3570427,SO2,14,35,29
India,Bihar,Siwan,"Chitragupta Nagar, Siwan - BSPCB",18-05-2024 01:00:00,26.2271665,84.3570427,CO,114,169,147
India,Chandigarh,Chandigarh,"Sector 22, Chandigarh - CPCC",18-05-2024 01:00:00,30.735567,76.775714,NO2,28,143,58
India,Chandigarh,Chandigarh,"Sector 22, Chandigarh - CPCC",18-05-2024 01:00:00,30.735567,76.775714,SO2,14,87,30
India,Chandigarh,Chandigarh,"Sector-25, Chandigarh - CPCC",18-05-2024 01:00:00,30.751462,76.762879,PM2.5,114,217,160
India,Chandigarh,Chandigarh,"Sector-25, Chandigarh - CPCC",18-05-2024 01:00:00,30.751462,76.762879,NH3,11,32,20
India,Chandigarh,Chandigarh,"Sector-25, Chandigarh - CPCC",18-05-2024 01:00:00,30.751462,76.762879,CO,17,74,47
India,Chandigarh,Chandigarh,"Sector-53, Chandigarh - CPCC",18-05-2024 01:00:00,30.719859,76.738637,PM2.5,113,354,275
India,Chandigarh,Chandigarh,"Sector-53, Chandigarh - CPCC",18-05-2024 01:00:00,30.719859,76.738637,OZONE,6,92,38
India,Chhattisgarh,Bhilai,"32Bungalows, Bhilai - CECB",18-05-2024 01:00:00,21.194815,81.314770,PM10,29,84,54
India,Chhattisgarh,Bhilai,"32Bungalows, Bhilai - CECB",18-05-2024 01:00:00,21.194815,81.314770,SO2,1,5,3
India,Chhattisgarh,Bhilai,"32Bungalows, Bhilai - CECB",18-05-2024 01:00:00,21.194815,81.314770,OZONE,7,31,14
India,Chhattisgarh,Bhilai,"Hathkhoj, Bhilai - CECB",18-05-2024 01:00:00,21.224231,81.408350,PM2.5,15,84,38
India,Chhattisgarh,Chhal,"Nawapara SECL Colony, Chhal - CECB",18-05-2024 01:00:00,22.118125,83.140608,PM10,22,88,59
India,Chhattisgarh,Chhal,"Nawapara SECL Colony, Chhal - CECB",18-05-2024 01:00:00,22.118125,83.140608,NH3,2,2,2
India,Chhattisgarh,Milupara,"Govt. Higher Secondary School, Milupara - CECB",18-05-2024 01:00:00,22.1910172,83.5197009,NO2,14,68,43
India,Chhattisgarh,Milupara,"Govt. Higher Secondary School, Milupara - CECB",18-05-2024 01:00:00,22.1910172,83.5197009,CO,5,40,7
India,Chhattisgarh,Milupara,"Govt. Higher Secondary School, Milupara - CECB",18-05-2024 01:00:00,22.1910172,83.5197009,OZONE,11,80,16
India,Chhattisgarh,Raipur,"AIIMS, Raipur - CECB",18-05-2024 01:00:00,21.258815,81.578979,NO2,10,35,15
India,Chhattisgarh,Raipur,"Bhatagaon New ISBT, Raipur - CECB",18-05-2024 01:00:00,21.219665,81.630094,SO2,1,2,2
India,Chhattisgarh,Raipur,"Krishak Nagar, Raipur - CECB",18-05-2024 01:00:00,21.237755,81.705301,PM10,19,62,39
India,Chhattisgarh,Raipur,"Krishak Nagar, Raipur - CECB",18-05-2024 01:00:00,21.237755,81.705301,NO2,16,16,16
India,Chhattisgarh,Raipur,"Krishak Nagar, Raipur - CECB",18-05-2024 01:00:00,21.237755,81.705301,SO2,9,16,12
India,Chhattisgarh,Raipur,"Siltara Phase-II, Raipur - CECB",18-05-2024 01:00:00,21.371751,81.664929,NO2,32,52,39
India,Chhattisgarh,Raipur,"Siltara Phase-II, Raipur - CECB",18-05-2024 01:00:00,21.371751,81.664929,CO,18,40,22
India,Chhattisgarh,Raipur,"Siltara Phase-II, Raipur - CECB",18-05-2024 01:00:00,21.371751,81.664929,OZONE,4,37,11
India,Chhattisgarh,Tumidih,"OP Jindal Industrial Park, Tumidih - CECB",18-05-2024 01:00:00,22.06631475,83.33820077,PM2.5,32,244,70
India,Delhi,Delhi,"Anand Vihar, Delhi - DPCC",18-05-2024 01:00:00,28.647622,77.3158090,NH3,3,16,11
India,Delhi,Delhi,"Ashok Vihar, Delhi - DPCC",18-05-2024 01:00:00,28.695381,77.181665,PM10,119,402,217
India,Delhi,Delhi,"Ashok Vihar, Delhi - DPCC",18-05-2024 01:00:00,28.695381,77.181665,CO,28,138,90
India,Delhi,Delhi,"Aya Nagar, Delhi - IMD",18-05-2024 01:00:00,28.4706914,77.1099364,PM2.5,10,456,167
India,Delhi,Delhi,"Bawana, Delhi - DPCC",18-05-2024 01:00:00,28.776200,77.051074,CO,40,107,72
India,Delhi,Delhi,"Burari Crossing, Delhi - IMD",18-05-2024 01:00:00,28.7256504,77.2011573,PM2.5,69,326,181
India,Delhi,Delhi,"Burari Crossing, Delhi - IMD",18-05-2024 01:00:00,28.7256504,77.2011573,OZONE,9,157,38
India,Delhi,Delhi,"CRRI Mathura Road, Delhi - IMD",18-05-2024 01:00:00,28.5512005,77.2735737,PM2.5,84,346,188
India,Delhi,Delhi,"Chandni Chowk, Delhi - IITM",18-05-2024 01:00:00,28.656756,77.227234,PM10,162,401,237
India,Delhi,Delhi,"DTU, Delhi - CPCB",18-05-2024 01:00:00,28.7500499,77.1112615,PM2.5,121,376,244
India,Delhi,Delhi,"DTU, Delhi - CPCB",18-05-2024 01:00:00,28.7500499,77.1112615,PM10,106,439,208
India,Delhi,Delhi,"Dwarka-Sector 8, Delhi - DPCC ",18-05-2024 01:00:00,28.5710274,77.0719006,PM10,119,500,276
India,Delhi,Delhi,"Dwarka-Sector 8, Delhi - DPCC ",18-05-2024 01:00:00,28.5710274,77.0719006,NO2,31,159,89
India,Delhi,Delhi,"IHBAS, Dilshad Garden, Delhi - CPCB",18-05-2024 01:00:00,28.6811736,77.3025234,PM10,88,444,168
India,Delhi,Delhi,"IHBAS, Dilshad Garden, Delhi - CPCB",18-05-2024 01:00:00,28.6811736,77.3025234,NH3,4,9,7
India,Delhi,Delhi,"Jahangirpuri, Delhi - DPCC",18-05-2024 01:00:00,28.732820,77.170633,SO2,14,113,59
India,Delhi,Delhi,"Jawaharlal Nehru Stadium, Delhi - DPCC",18-05-2024 01:00:00,28.580280,77.233829,NH3,7,12,10
India,Delhi,Delhi,"Lodhi Road, Delhi - IITM",18-05-2024 01:00:00,28.588333,77.221667,SO2,12,42,27
India,Delhi,Delhi,"Major Dhyan Chand National Stadium, Delhi - DPCC",18-05-2024 01:00:00,28.611281,77.237738,PM2.5,68,297,183
India,Delhi,Delhi,"Major Dhyan Chand National Stadium, Delhi - DPCC",18-05-2024 01:00:00,28.611281,77.237738,CO,125,183,170
India,Delhi,Delhi,"Mandir Marg, Delhi - DPCC",18-05-2024 01:00:00,28.636429,77.201067,NO2,43,146,104
India,Delhi,Delhi,"Mandir Marg, Delhi - DPCC",18-05-2024 01:00:00,28.636429,77.201067,NH3,7,12,9
India,Delhi,Delhi,"Mundka, Delhi - DPCC",18-05-2024 01:00:00,28.684678,77.076574,PM10,153,434,267
India,Delhi,Delhi,"Mundka, Delhi - DPCC",18-05-2024 01:00:00,28.684678,77.076574,OZONE,3,177,53
India,Delhi,Delhi,"NSIT Dwarka, Delhi - CPCB",18-05-2024 01:00:00,28.60909,77.0325413,NH3,7,16,9
India,Delhi,Delhi,"Narela, Delhi - DPCC",18-05-2024 01:00:00,28.822836,77.101981,PM2.5,51,341,222
India,Delhi,Delhi,"Narela, Delhi - DPCC",18-05-2024 01:00:00,28.822836,77.101981,NH3,7,13,9
India,Delhi,Delhi,"Narela, Delhi - DPCC",18-05-2024 01:00:00,28.822836,77.101981,OZONE,7,242,56
India,Delhi,Delhi,"Nehru Nagar, Delhi - DPCC",18-05-2024 01:00:00,28.567890,77.250515,PM2.5,57,328,173
India,Delhi,Delhi,"North Campus, DU, Delhi - IMD",18-05-2024 01:00:00,28.6573814,77.1585447,PM2.5,96,308,200
India,Delhi,Delhi,"North Campus, DU, Delhi - IMD",18-05-2024 01:00:00,28.6573814,77.1585447,NO2,15,82,47
India,Delhi,Delhi,"North Campus, DU, Delhi - IMD",18-05-2024 01:00:00,28.6573814,77.1585447,CO,60,154,115
India,Delhi,Delhi,"Okhla Phase-2, Delhi - DPCC",18-05-2024 01:00:00,28.530785,77.271255,NH3,10,17,13
India,Delhi,Delhi,"Patparganj, Delhi - DPCC",18-05-2024 01:00:00,28.623763,77.287209,PM10,145,424,257
India,Delhi,Delhi,"Patparganj, Delhi - DPCC",18-05-2024 01:00:00,28.623763,77.287209,CO,34,88,52
India,Delhi,Delhi,"Punjabi Bagh, Delhi - DPCC",18-05-2024 01:00:00,28.674045,77.131023,PM10,107,428,200
India,Delhi,Delhi,"R K Puram, Delhi - DPCC",18-05-2024 01:00:00,28.563262,77.186937,SO2,3,50,19
India,Delhi,Delhi,"Rohini, Delhi - DPCC",18-05-2024 01:00:00,28.732528,77.119920,PM2.5,55,406,205
India,Delhi,Delhi,"Rohini, Delhi - DPCC",18-05-2024 01:00:00,28.732528,77.119920,CO,15,154,86
India,Delhi,Delhi,"Sirifort, Delhi - CPCB",18-05-2024 01:00:00,28.5504249,77.2159377,PM2.5,50,318,184
India,Delhi,Delhi,"Sirifort, Delhi - CPCB",18-05-2024 01:00:00,28.5504249,77.2159377,PM10,120,436,208
India,Delhi,Delhi,"Sirifort, Delhi - CPCB",18-05-2024 01:00:00,28.5504249,77.2159377,NO2,15,63,42
India,Delhi,Delhi,"Sirifort, Delhi - CPCB",18-05-2024 01:00:00,28.5504249,77.2159377,SO2,26,37,30
India,Delhi,Delhi,"Sirifort, Delhi - CPCB",18-05-2024 01:00:00,28.5504249,77.2159377,OZONE,4,158,28
India,Delhi,Delhi,"Sonia Vihar, Delhi - DPCC",18-05-2024 01:00:00,28.710508,77.249485,OZONE,5,209,45
India,Delhi,Delhi,"Vivek Vihar, Delhi - DPCC",18-05-2024 01:00:00,28.672342,77.315260,NO2,44,192,116
India,Delhi,Delhi,"Vivek Vihar, Delhi - DPCC",18-05-2024 01:00:00,28.672342,77.315260,NH3,13,15,15
India,Delhi,Delhi,"Wazirpur, Delhi - DPCC",18-05-2024 01:00:00,28.699793,77.165453,NO2,33,100,62
India,Gujarat,Ahmedabad,"Chandkheda, Ahmedabad - IITM",18-05-2024 01:00:00,23.107969,72.574648,NH3,12,17,14
India,Gujarat,Ahmedabad,"Gyaspur, Ahmedabad - IITM",18-05-2024 01:00:00,22.977134,72.553024,PM10,65,393,120
India,Gujarat,Ahmedabad,"Gyaspur, Ahmedabad - IITM",18-05-2024 01:00:00,22.977134,72.553024,NH3,6,8,7
India,Gujarat,Ahmedabad,"Maninagar, Ahmedabad - GPCB",18-05-2024 01:00:00,23.002657,72.591912,CO,64,104,83
India,Gujarat,Ahmedabad,"Raikhad, Ahmedabad - IITM",18-05-2024 01:00:00,23.020509,72.579261,CO,2,70,40
India,Gujarat,Ahmedabad,"Rakhial, Ahmedabad - IITM",18-05-2024 01:00:00,23.016834,72.625775,PM10,53,140,93
India,Gujarat,Ahmedabad,"Rakhial, Ahmedabad - IITM",18-05-2024 01:00:00,23.016834,72.625775,OZONE,7,79,38
India,Gujarat,Ahmedabad,"SVPI Airport Hansol, Ahmedabad - IITM",18-05-2024 01:00:00,23.076793,72.627874,SO2,3,11,6
India,Gujarat,Ahmedabad,"Sardar Vallabhbhai Patel Stadium, Ahmedabad - IITM",18-05-2024 01:00:00,23.043070,72.562968,NO2,68,68,68
India,Gujarat,Ahmedabad,"Sardar Vallabhbhai Patel Stadium, Ahmedabad - IITM",18-05-2024 01:00:00,23.043070,72.562968,SO2,NA,NA,NA
India,Gujarat,Ahmedabad,"Sardar Vallabhbhai Patel Stadium, Ahmedabad - IITM",18-05-2024 01:00:00,23.043070,72.562968,CO,36,84,58
India,Gujarat,Gandhinagar,"Sector-10, Gandhinagar - GPCB",18-05-2024 01:00:00,23.221714,72.654328,PM10,36,116,77
India,Gujarat,Vatva,"Phase-4 GIDC, Vatva - GPCB",18-05-2024 01:00:00,22.969611,72.643500,PM10,46,113,67
India,Haryana,Ambala,"Patti Mehar, Ambala - HSPCB",18-05-2024 01:00:00,30.379589,76.778328,PM10,NA,NA,NA
India,Haryana,Ambala,"Patti Mehar, Ambala - HSPCB",18-05-2024 01:00:00,30.379589,76.778328,NH3,NA,NA,NA
India,Haryana,Bahadurgarh,"Arya Nagar, Bahadurgarh - HSPCB",18-05-2024 01:00:00,28.6701,76.9254,NO2,20,25,22
India,Haryana,Ballabgarh,"Nathu Colony, Ballabgarh - HSPCB",18-05-2024 01:00:00,28.3419248,77.319699,PM2.5,53,324,187
India,Haryana,Bhiwani,"H.B. Colony, Bhiwani - HSPCB",18-05-2024 01:00:00,28.806223,76.141105,CO,1,94,11
India,Haryana,Charkhi Dadri,"Mini Secretariat, Charkhi Dadri - HSPCB",18-05-2024 01:00:00,28.593883,76.270653,OZONE,14,17,15
India,Haryana,Dharuhera,"Municipal Corporation Office, Dharuhera -  HSPCB",18-05-2024 01:00:00,28.206800,76.799700,PM2.5,47,351,175
India,Haryana,Faridabad,"New Industrial Town, Faridabad - HSPCB",18-05-2024 01:00:00,28.39072,77.30059,SO2,11,15,12
India,Haryana,Faridabad,"New Industrial Town, Faridabad - HSPCB",18-05-2024 01:00:00,28.39072,77.30059,OZONE,1,131,33
India,Haryana,Faridabad,"Sector 11, Faridabad - HSPCB",18-05-2024 01:00:00,28.376058,77.315741,SO2,1,9,4
India,Haryana,Faridabad,"Sector 30, Faridabad - HSPCB",18-05-2024 01:00:00,28.4417,77.3217,NO2,30,32,31
India,Haryana,Faridabad,"Sector 30, Faridabad - HSPCB",18-05-2024 01:00:00,28.4417,77.3217,SO2,5,6,6
India,Haryana,Faridabad,"Sector- 16A, Faridabad - HSPCB",18-05-2024 01:00:00,28.4088421,77.3099081,CO,60,123,98
India,Haryana,Gurugram,"Sector-51, Gurugram - HSPCB",18-05-2024 01:00:00,28.4227,77.0667,PM10,104,500,224
India,Haryana,Gurugram,"Teri Gram, Gurugram - HSPCB",18-05-2024 01:00:00,28.4275,77.1465,PM2.5,NA,NA,NA
India,Haryana,Gurugram,"Teri Gram, Gurugram - HSPCB",18-05-2024 01:00:00,28.4275,77.1465,PM10,NA,NA,NA
India,Haryana,Kaithal,"Rishi Nagar, Kaithal - HSPCB",18-05-2024 01:00:00,29.8006,76.4155,PM2.5,70,302,187
India,Haryana,Karnal,"Sector-12, Karnal - HSPCB",18-05-2024 01:00:00,29.695300,77.002700,NH3,10,13,11
India,Haryana,Karnal,"Sector-12, Karnal - HSPCB",18-05-2024 01:00:00,29.695300,77.002700,OZONE,27,36,30
India,Haryana,Kurukshetra,"Sector-7, Kurukshetra - HSPCB",18-05-2024 01:00:00,29.966942,76.875879,PM2.5,126,310,245
India,Haryana,Kurukshetra,"Sector-7, Kurukshetra - HSPCB",18-05-2024 01:00:00,29.966942,76.875879,CO,12,76,42
India,Haryana,Mandikhera,"General Hospital, Mandikhera - HSPCB",18-05-2024 01:00:00,27.9002,76.9938,PM2.5,19,61,39
India,Haryana,Mandikhera,"General Hospital, Mandikhera - HSPCB",18-05-2024 01:00:00,27.9002,76.9938,OZONE,23,31,28
India,Haryana,Manesar,"Sector-2 IMT, Manesar - HSPCB",18-05-2024 01:00:00,28.360699,76.936090,PM2.5,NA,NA,NA
India,Haryana,Manesar,"Sector-2 IMT, Manesar - HSPCB",18-05-2024 01:00:00,28.360699,76.936090,SO2,NA,NA,NA
India,Haryana,Manesar,"Sector-2 IMT, Manesar - HSPCB",18-05-2024 01:00:00,28.360699,76.936090,OZONE,3,101,32
India,Haryana,Narnaul,"Shastri Nagar, Narnaul - HSPCB",18-05-2024 01:00:00,28.060249,76.113115,NH3,NA,NA,NA
India,Haryana,Narnaul,"Shastri Nagar, Narnaul - HSPCB",18-05-2024 01:00:00,28.060249,76.113115,CO,NA,NA,NA
India,Haryana,Palwal,"Shyam Nagar, Palwal - HSPCB",18-05-2024 01:00:00,28.1485564,77.3320667,NO2,23,24,24
India,Haryana,Panchkula,"Sector-6, Panchkula - HSPCB ",18-05-2024 01:00:00,30.7057778,76.8531805555555,PM2.5,167,315,254
India,Haryana,Rohtak,"MD University, Rohtak - HSPCB",18-05-2024 01:00:00,28.52123,76.37138,PM2.5,13,500,240
India,Haryana,Sirsa,"F-Block, Sirsa - HSPCB",18-05-2024 01:00:00,29.536400,75.015800,PM2.5,74,309,169
India,Haryana,Sirsa,"F-Block, Sirsa - HSPCB",18-05-2024 01:00:00,29.536400,75.015800,SO2,37,87,76
India,Haryana,Sirsa,"F-Block, Sirsa - HSPCB",18-05-2024 01:00:00,29.536400,75.015800,CO,60,96,66
India,Haryana,Yamuna Nagar,"Gobind Pura, Yamuna Nagar - HSPCB",18-05-2024 01:00:00,30.1480566,77.2893471,SO2,3,12,7
India,Jharkhand,Dhanbad,"Kalakusuma, Dhanbad - DMC",18-05-2024 01:00:00,23.811548,86.481238,NO2,13,14,14
India,Jharkhand,Dhanbad,"Kalakusuma, Dhanbad - DMC",18-05-2024 01:00:00,23.811548,86.481238,OZONE,70,71,71
India,Jharkhand,Dhanbad,"Sardar Patel Nagar, Dhanbad - JSPCB",18-05-2024 01:00:00,23.80569,86.44268,SO2,NA,NA,NA
India,Jharkhand,Jorapokhar,"Tata Stadium, Jorapokhar - JSPCB",18-05-2024 01:00:00,23.707909,86.414670,NO2,NA,NA,NA
India,Jharkhand,Jorapokhar,"Tata Stadium, Jorapokhar - JSPCB",18-05-2024 01:00:00,23.707909,86.414670,SO2,NA,NA,NA
India,Jharkhand,Pathardih,"Mohalbani Ghat, Pathardih - DMC",18-05-2024 01:00:00,23.669880,86.411725,PM2.5,NA,NA,NA
India,Jharkhand,Pathardih,"Mohalbani Ghat, Pathardih - DMC",18-05-2024 01:00:00,23.669880,86.411725,SO2,NA,NA,NA
India,Karnataka,Belgaum,"Ramteerth Nagar, Belgaum - KSPCB",18-05-2024 01:00:00,15.888653,74.541751,PM2.5,10,44,21
India,Karnataka,Belgaum,"Ramteerth Nagar, Belgaum - KSPCB",18-05-2024 01:00:00,15.888653,74.541751,NO2,27,80,50
India,Karnataka,Belgaum,"Ramteerth Nagar, Belgaum - KSPCB",18-05-2024 01:00:00,15.888653,74.541751,CO,28,40,32
India,Karnataka,Belgaum,"Ramteerth Nagar, Belgaum - KSPCB",18-05-2024 01:00:00,15.888653,74.541751,OZONE,19,20,20
India,Karnataka,Bengaluru,"Bapuji Nagar, Bengaluru - KSPCB",18-05-2024 01:00:00,12.951913,77.539784,PM10,18,104,61
India,Karnataka,Bengaluru,"Hebbal, Bengaluru - KSPCB",18-05-2024 01:00:00,13.029152,77.585901,NH3,1,1,1
India,Karnataka,Bengaluru,"Hebbal, Bengaluru - KSPCB",18-05-2024 01:00:00,13.029152,77.585901,SO2,11,29,20
India,Karnataka,Bengaluru,"Jayanagar 5th Block, Bengaluru - KSPCB",18-05-2024 01:00:00,12.920984,77.584908,PM10,24,82,48
India,Karnataka,Bengaluru,"Jayanagar 5th Block, Bengaluru - KSPCB",18-05-2024 01:00:00,12.920984,77.584908,SO2,13,25,19
India,Karnataka,Bengaluru,"Kasturi Nagar, Bengaluru - KSPCB",18-05-2024 01:00:00,13.003872,77.664217,PM2.5,7,23,15
India,Karnataka,Bengaluru,"Kasturi Nagar, Bengaluru - KSPCB",18-05-2024 01:00:00,13.003872,77.664217,NO2,16,17,17
India,Karnataka,Bengaluru,"Kasturi Nagar, Bengaluru - KSPCB",18-05-2024 01:00:00,13.003872,77.664217,NH3,3,4,4
India,Karnataka,Bengaluru,"Kasturi Nagar, Bengaluru - KSPCB",18-05-2024 01:00:00,13.003872,77.664217,CO,25,26,25
India,Karnataka,Bengaluru,"Kasturi Nagar, Bengaluru - KSPCB",18-05-2024 01:00:00,13.003872,77.664217,OZONE,9,54,18
India,Karnataka,Bengaluru,"Peenya, Bengaluru - CPCB",18-05-2024 01:00:00,13.0270199,77.494094,NH3,3,4,3
India,Karnataka,Bengaluru,"RVCE-Mailasandra, Bengaluru - KSPCB",18-05-2024 01:00:00,12.921418,77.502466,CO,44,56,50
India,Karnataka,Bengaluru,"RVCE-Mailasandra, Bengaluru - KSPCB",18-05-2024 01:00:00,12.921418,77.502466,OZONE,39,39,39
India,Karnataka,Bengaluru,"Silk Board, Bengaluru - KSPCB",18-05-2024 01:00:00,12.917348,77.622813,PM10,34,136,72
India,Karnataka,Chikkaballapur,"Chikkaballapur Rural, Chikkaballapur - KSPCB",18-05-2024 01:00:00,13.428828,77.731418,PM10,9,60,33
India,Karnataka,Chikkamagaluru,"Kalyana Nagara, Chikkamagaluru - KSPCB",18-05-2024 01:00:00,13.328028,75.797056,PM10,23,65,50
India,Karnataka,Chikkamagaluru,"Kalyana Nagara, Chikkamagaluru - KSPCB",18-05-2024 01:00:00,13.328028,75.797056,NH3,2,5,4
India,Karnataka,Dharwad,"Kalabhavan, Dharwad - KSPCB",18-05-2024 01:00:00,15.459706,75.008381,PM2.5,NA,NA,NA
India,Karnataka,Dharwad,"Kalabhavan, Dharwad - KSPCB",18-05-2024 01:00:00,15.459706,75.008381,OZONE,NA,NA,NA
India,Karnataka,Gadag,"Panchal Nagar, Gadag - KSPCB",18-05-2024 01:00:00,15.411456,75.638133,NH3,1,3,2
India,Karnataka,Haveri,"Ashwini Nagar, Haveri - KSPCB",18-05-2024 01:00:00,14.791800,75.389600,PM10,NA,NA,NA
India,Karnataka,Kalaburagi,"Lal Bahadur Shastri Nagar, Kalaburagi - KSPCB",18-05-2024 01:00:00,17.321993,76.822628,NO2,10,11,11
India,Karnataka,Kalaburagi,"Lal Bahadur Shastri Nagar, Kalaburagi - KSPCB",18-05-2024 01:00:00,17.321993,76.822628,CO,42,54,46
India,Karnataka,Kalaburagi,"Mahatma Basaveswar Colony, Kalaburgi - KSPCB",18-05-2024 01:00:00,17.336318,76.847397,NO2,8,17,12
India,Karnataka,Kolar,"Tamaka Ind. Area, Kolar - KSPCB",18-05-2024 01:00:00,13.1276288,78.1570122,CO,5,16,7
India,Karnataka,Kolar,"Tamaka Ind. Area, Kolar - KSPCB",18-05-2024 01:00:00,13.1276288,78.1570122,OZONE,13,40,18
India,Karnataka,Madikeri,"Stuart Hill, Madikeri - KSPCB",18-05-2024 01:00:00,12.415911,75.735050,PM10,7,28,19
India,Karnataka,Madikeri,"Stuart Hill, Madikeri - KSPCB",18-05-2024 01:00:00,12.415911,75.735050,CO,4,96,26
India,Karnataka,Mangalore,"Kadri, Mangalore - KSPCB",18-05-2024 01:00:00,12.889250,74.853000,PM10,44,60,52
India,Karnataka,Mysuru,"Hebbal 1st Stage, Mysuru - KSPCB",18-05-2024 01:00:00,12.21041,76.37376,NO2,NA,NA,NA
India,Karnataka,Mysuru,"Hebbal 1st Stage, Mysuru - KSPCB",18-05-2024 01:00:00,12.21041,76.37376,NH3,NA,NA,NA
India,Karnataka,Raichur,"Haji Colony, Raichur - KSPCB",18-05-2024 01:00:00,16.208139,77.348417,NO2,NA,NA,NA
India,Karnataka,Shivamogga,"Vinoba Nagara, Shivamogga - KSPCB",18-05-2024 01:00:00,13.940000,75.555917,NH3,3,19,7
India,Karnataka,Udupi,"Brahmagiri, Udupi - KSPCB",18-05-2024 01:00:00,13.34194444,74.74694444,NO2,27,31,30
India,Karnataka,Vijayapura,"Ibrahimpur, Vijayapura - KSPCB",18-05-2024 01:00:00,16.802639,75.722694,PM2.5,26,31,30
India,Karnataka,Yadgir,"Collector Office, Yadgir - KSPCB",18-05-2024 01:00:00,16.7602,77.1428,NO2,5,8,6
India,Kerala,Eloor,"Udyogamandal, Eloor - Kerala PCB",18-05-2024 01:00:00,10.073232,76.302765,PM10,32,40,37
India,Kerala,Eloor,"Udyogamandal, Eloor - Kerala PCB",18-05-2024 01:00:00,10.073232,76.302765,CO,19,94,51
India,Kerala,Eloor,"Udyogamandal, Eloor - Kerala PCB",18-05-2024 01:00:00,10.073232,76.302765,OZONE,12,18,18
India,Kerala,Kannur,"Thavakkara, Kannur - Kerala PCB",18-05-2024 01:00:00,11.875000,75.373200,PM2.5,62,73,68
India,Kerala,Kannur,"Thavakkara, Kannur - Kerala PCB",18-05-2024 01:00:00,11.875000,75.373200,NO2,6,7,6
India,Kerala,Kannur,"Thavakkara, Kannur - Kerala PCB",18-05-2024 01:00:00,11.875000,75.373200,SO2,1,4,1
India,Kerala,Kannur,"Thavakkara, Kannur - Kerala PCB",18-05-2024 01:00:00,11.875000,75.373200,CO,30,34,32
India,Kerala,Kollam,"Polayathode, Kollam - Kerala PCB",18-05-2024 01:00:00,8.8787,76.6073,NO2,NA,NA,NA
India,Kerala,Kollam,"Polayathode, Kollam - Kerala PCB",18-05-2024 01:00:00,8.8787,76.6073,CO,14,16,16
India,Kerala,Thiruvananthapuram,"Kariavattom, Thiruvananthapuram - Kerala PCB",18-05-2024 01:00:00,8.563700,76.886500,PM2.5,78,89,82
India,Kerala,Thiruvananthapuram,"Kariavattom, Thiruvananthapuram - Kerala PCB",18-05-2024 01:00:00,8.563700,76.886500,SO2,1,16,7
India,Kerala,Thiruvananthapuram,"Plammoodu, Thiruvananthapuram - Kerala PCB",18-05-2024 01:00:00,8.5149093,76.9435879,NO2,NA,NA,NA
India,Kerala,Thiruvananthapuram,"Plammoodu, Thiruvananthapuram - Kerala PCB",18-05-2024 01:00:00,8.5149093,76.9435879,NH3,NA,NA,NA
India,Kerala,Thiruvananthapuram,"Plammoodu, Thiruvananthapuram - Kerala PCB",18-05-2024 01:00:00,8.5149093,76.9435879,SO2,NA,NA,NA
India,Kerala,Thrissur,"Corporation Ground, Thrissur - Kerala PCB",18-05-2024 01:00:00,10.532400,76.215900,PM10,59,69,64
India,Madhya Pradesh,Bhopal,"Idgah Hills, Bhopal - MPPCB",18-05-2024 01:00:00,23.264759,77.381568,PM2.5,60,140,88
India,Madhya Pradesh,Bhopal,"Idgah Hills, Bhopal - MPPCB",18-05-2024 01:00:00,23.264759,77.381568,NO2,12,80,28
India,Madhya Pradesh,Bhopal,"T T Nagar, Bhopal - MPPCB",18-05-2024 01:00:00,23.233584,77.400574,PM10,58,193,108
India,Madhya Pradesh,Bhopal,"T T Nagar, Bhopal - MPPCB",18-05-2024 01:00:00,23.233584,77.400574,NH3,1,4,3
India,Madhya Pradesh,Bhopal,"T T Nagar, Bhopal - MPPCB",18-05-2024 01:00:00,23.233584,77.400574,CO,2,50,28
India,Madhya Pradesh,Dewas,"Bhopal Chauraha, Dewas - MPPCB",18-05-2024 01:00:00,22.9682591,76.064118,SO2,11,52,23
India,Madhya Pradesh,Dewas,"Bhopal Chauraha, Dewas - MPPCB",18-05-2024 01:00:00,22.9682591,76.064118,CO,10,40,34
India,Madhya Pradesh,Gwalior,"City Center, Gwalior - MPPCB",18-05-2024 01:00:00,26.203442,78.193251,CO,12,110,59
India,Madhya Pradesh,Gwalior,"City Center, Gwalior - MPPCB",18-05-2024 01:00:00,26.203442,78.193251,OZONE,1,62,28
India,Madhya Pradesh,Indore,"Chhoti Gwaltoli, Indore - MPPCB",18-05-2024 01:00:00,22.4310,75.5213,CO,1,166,93
India,Madhya Pradesh,Indore,"Chhoti Gwaltoli, Indore - MPPCB",18-05-2024 01:00:00,22.4310,75.5213,OZONE,39,171,77
India,Madhya Pradesh,Indore,"Regional Park, Indore - IMC",18-05-2024 01:00:00,22.6780,75.8559,NH3,1,3,2
India,Madhya Pradesh,Indore,"Residency Area, Indore - IMC",18-05-2024 01:00:00,22.7084,75.8815,PM2.5,36,68,48
India,Madhya Pradesh,Indore,"Residency Area, Indore - IMC",18-05-2024 01:00:00,22.7084,75.8815,OZONE,11,24,18
India,Madhya Pradesh,Jabalpur,"Gupteshwar, Jabalpur - JMC",18-05-2024 01:00:00,23.142888,79.916147,PM2.5,35,80,60
India,Madhya Pradesh,Jabalpur,"Gupteshwar, Jabalpur - JMC",18-05-2024 01:00:00,23.142888,79.916147,PM10,38,101,74
India,Madhya Pradesh,Jabalpur,"Gupteshwar, Jabalpur - JMC",18-05-2024 01:00:00,23.142888,79.916147,NO2,2,16,8
India,Madhya Pradesh,Jabalpur,"Gupteshwar, Jabalpur - JMC",18-05-2024 01:00:00,23.142888,79.916147,CO,13,38,29
India,Madhya Pradesh,Jabalpur,"Marhatal, Jabalpur - MPPCB",18-05-2024 01:00:00,23.168606,79.932247,PM10,42,131,82
India,Madhya Pradesh,Jabalpur,"Suhagi, Jabalpur - JMC",18-05-2024 01:00:00,23.218135,79.957770,PM2.5,NA,NA,NA
India,Madhya Pradesh,Jabalpur,"Suhagi, Jabalpur - JMC",18-05-2024 01:00:00,23.218135,79.957770,NH3,NA,NA,NA
India,Madhya Pradesh,Katni,"Gole Bazar, Katni - MPPCB",18-05-2024 01:00:00,23.50016,80.23284,CO,15,111,26
India,Madhya Pradesh,Maihar,"Sahilara, Maihar - KJS Cements",18-05-2024 01:00:00,24.2613009,80.7231783,NO2,9,9,9
India,Madhya Pradesh,Pithampur,"Sector-2 Industrial Area, Pithampur - MPPCB",18-05-2024 01:00:00,22.624758,75.675238,NO2,11,28,18
India,Madhya Pradesh,Pithampur,"Sector-2 Industrial Area, Pithampur - MPPCB",18-05-2024 01:00:00,22.624758,75.675238,SO2,10,14,12
India,Madhya Pradesh,Pithampur,"Sector-2 Industrial Area, Pithampur - MPPCB",18-05-2024 01:00:00,22.624758,75.675238,CO,32,46,37
India,Madhya Pradesh,Sagar,"Civil Lines, Sagar - MPPCB",18-05-2024 01:00:00,23.838586,78.759431,NH3,3,4,4
India,Madhya Pradesh,Satna,"Bandhavgar Colony, Satna - Birla Cement",18-05-2024 01:00:00,24.58434363,80.8549414,PM10,35,71,48
India,Madhya Pradesh,Satna,"Bandhavgar Colony, Satna - Birla Cement",18-05-2024 01:00:00,24.58434363,80.8549414,OZONE,17,42,27
India,Madhya Pradesh,Singrauli,"Suryakiran Bhawan NCL, Singrauli - MPPCB",18-05-2024 01:00:00,24.108970,82.645580,OZONE,9,85,57
India,Madhya Pradesh,Ujjain,"Mahakaleshwar Temple, Ujjain - MPPCB",18-05-2024 01:00:00,23.182719 ,75.768218 ,SO2,5,18,10
India,Maharashtra,Amravati,"Shivneri Colony, Amravati - MPCB",18-05-2024 01:00:00,20.9402359,77.7895248,OZONE,20,90,40
India,Maharashtra,Amravati,"Shri Shivaji Science College, Amaravati - MPCB",18-05-2024 01:00:00,20.939198,77.765701,NH3,1,2,1
India,Maharashtra,Amravati,"Shri Shivaji Science College, Amaravati - MPCB",18-05-2024 01:00:00,20.939198,77.765701,SO2,1,4,3
India,Maharashtra,Amravati,"Shri Shivaji Science College, Amaravati - MPCB",18-05-2024 01:00:00,20.939198,77.765701,CO,10,57,26
India,Maharashtra,Aurangabad,"MIDC Chilkalthana, Aurangabad - MPCB",18-05-2024 01:00:00,19.875620,75.387310,NO2,6,26,13
India,Maharashtra,Aurangabad,"MIDC Chilkalthana, Aurangabad - MPCB",18-05-2024 01:00:00,19.875620,75.387310,NH3,5,6,5
India,Maharashtra,Aurangabad,"More Chowk Waluj, Aurangabad - MPCB",18-05-2024 01:00:00,19.8389439,75.244448,PM10,42,83,61
India,Maharashtra,Aurangabad,"Rachnakar Colony, Aurangabad - MPCB",18-05-2024 01:00:00,19.863756,75.321188,NO2,5,52,25
India,Maharashtra,Badlapur,"Katrap, Badlapur - MPCB",18-05-2024 01:00:00,19.16485,73.23409,NO2,7,41,13
India,Maharashtra,Badlapur,"Katrap, Badlapur - MPCB",18-05-2024 01:00:00,19.16485,73.23409,NH3,1,5,2
India,Maharashtra,Badlapur,"Katrap, Badlapur - MPCB",18-05-2024 01:00:00,19.16485,73.23409,OZONE,1,209,77
India,Maharashtra,Belapur,"CBD Belapur, Belapur - MPCB",18-05-2024 01:00:00,19.0243902,73.0406721,NH3,2,4,2
India,Maharashtra,Boisar,"Khaira, Boisar - MPCB",18-05-2024 01:00:00,19.786089,72.757971,NO2,NA,NA,NA
India,Maharashtra,Boisar,"Khaira, Boisar - MPCB",18-05-2024 01:00:00,19.786089,72.757971,SO2,NA,NA,NA
India,Maharashtra,Chandrapur,"Chauhan Colony, Chandrapur - MPCB",18-05-2024 01:00:00,19.962900,79.298714,PM2.5,3,76,25
India,Maharashtra,Chandrapur,"Chauhan Colony, Chandrapur - MPCB",18-05-2024 01:00:00,19.962900,79.298714,NO2,7,17,11
India,Maharashtra,Chandrapur,"MIDC Khutala, Chandrapur - MPCB",18-05-2024 01:00:00,19.9775302,79.2337086,PM2.5,3,47,14
India,Maharashtra,Jalna,"Old MIDC, Jalna - MPCB",18-05-2024 01:00:00,19.854616,75.905894,PM2.5,34,53,42
India,Maharashtra,Jalna,"Old MIDC, Jalna - MPCB",18-05-2024 01:00:00,19.854616,75.905894,PM10,43,65,52
India,Maharashtra,Jalna,"Old MIDC, Jalna - MPCB",18-05-2024 01:00:00,19.854616,75.905894,NH3,1,2,1
India,Maharashtra,Jalna,"Old MIDC, Jalna - MPCB",18-05-2024 01:00:00,19.854616,75.905894,SO2,5,7,6
India,Maharashtra,Jalna,"Old MIDC, Jalna - MPCB",18-05-2024 01:00:00,19.854616,75.905894,CO,20,29,25
India,Maharashtra,Kolhapur,"Shivaji University, Kolhapur - MPCB",18-05-2024 01:00:00,16.6870449,74.2505872,PM2.5,68,136,99
India,Maharashtra,Kolhapur,"Shivaji University, Kolhapur - MPCB",18-05-2024 01:00:00,16.6870449,74.2505872,NO2,27,40,33
India,Maharashtra,Kolhapur,"Shivaji University, Kolhapur - MPCB",18-05-2024 01:00:00,16.6870449,74.2505872,CO,60,90,73
India,Maharashtra,Kolhapur,"Sinchan Bhavan, Kolhapur - MPCB",18-05-2024 01:00:00,16.7143745,74.2426398,PM10,NA,NA,NA
India,Maharashtra,Kolhapur,"Sinchan Bhavan, Kolhapur - MPCB",18-05-2024 01:00:00,16.7143745,74.2426398,SO2,NA,NA,NA
India,Maharashtra,Latur,"Sawe Wadi, Latur - MPCB",18-05-2024 01:00:00,18.39963,76.57452,NO2,7,121,32
India,Maharashtra,Latur,"Sawe Wadi, Latur - MPCB",18-05-2024 01:00:00,18.39963,76.57452,CO,8,98,40
India,Maharashtra,Malegaon,"Mahesh Nagar, Malegaon - MPCB",18-05-2024 01:00:00,20.555712,74.529236,OZONE,33,104,72
India,Maharashtra,Mumbai,"Bandra Kurla Complex, Mumbai - MPCB",18-05-2024 01:00:00,19.065931,72.862131,PM10,81,150,120
India,Maharashtra,Mumbai,"Byculla, Mumbai - BMC",18-05-2024 01:00:00,18.9767,72.8380,CO,5,40,11
India,Maharashtra,Mumbai,"Byculla, Mumbai - BMC",18-05-2024 01:00:00,18.9767,72.8380,OZONE,35,128,69
India,Maharashtra,Mumbai,"Chakala-Andheri East, Mumbai - IITM",18-05-2024 01:00:00,19.11074,72.86084,NH3,8,17,11
India,Maharashtra,Mumbai,"Chembur, Mumbai - MPCB",18-05-2024 01:00:00,19.0364585,72.8954371,OZONE,7,133,47
India,Maharashtra,Mumbai,"Chhatrapati Shivaji Intl. Airport (T2), Mumbai - MPCB",18-05-2024 01:00:00,19.10078,72.87462,NO2,1,34,16
India,Maharashtra,Mumbai,"Colaba, Mumbai - MPCB",18-05-2024 01:00:00,18.910000,72.820000,PM2.5,29,62,47
India,Maharashtra,Mumbai,"Ghatkopar, Mumbai - BMC",18-05-2024 01:00:00,19.083694,72.920967,PM10,36,73,53
India,Maharashtra,Mumbai,"Kandivali East, Mumbai - MPCB",18-05-2024 01:00:00,19.205800,72.868200,PM10,21,498,122
India,Maharashtra,Mumbai,"Kandivali West, Mumbai - BMC",18-05-2024 01:00:00,19.215859,72.831718,PM2.5,33,65,47
India,Maharashtra,Mumbai,"Kandivali West, Mumbai - BMC",18-05-2024 01:00:00,19.215859,72.831718,NH3,1,3,2
India,Maharashtra,Mumbai,"Kherwadi_Bandra East, Mumbai - MPCB",18-05-2024 01:00:00,19.0632143,72.8456324,NO2,7,80,29
India,Maharashtra,Mumbai,"Kherwadi_Bandra East, Mumbai - MPCB",18-05-2024 01:00:00,19.0632143,72.8456324,OZONE,6,178,91
India,Maharashtra,Mumbai,"Kurla, Mumbai - MPCB",18-05-2024 01:00:00,19.0863,72.8888,NO2,NA,NA,NA
India,Maharashtra,Mumbai,"Mindspace-Malad West, Mumbai - MPCB",18-05-2024 01:00:00,19.1878657,72.8304069,PM10,40,89,59
India,Maharashtra,Mumbai,"Navy Nagar-Colaba, Mumbai - IITM",18-05-2024 01:00:00,18.897756,72.813320,NO2,131,149,141
India,Maharashtra,Mumbai,"Navy Nagar-Colaba, Mumbai - IITM",18-05-2024 01:00:00,18.897756,72.813320,SO2,1,3,2
India,Maharashtra,Mumbai,"Powai, Mumbai - MPCB",18-05-2024 01:00:00,19.137500,72.915056,PM2.5,26,59,42
India,Maharashtra,Mumbai,"Sewri, Mumbai - BMC",18-05-2024 01:00:00,19.000084,72.856730,PM10,NA,NA,NA
India,Maharashtra,Mumbai,"Siddharth Nagar-Worli, Mumbai - IITM",18-05-2024 01:00:00,19.000083,72.813993,NO2,NA,NA,NA
India,Maharashtra,Mumbai,"Sion, Mumbai - MPCB",18-05-2024 01:00:00,19.047000,72.874600,PM2.5,39,74,56
India,Maharashtra,Mumbai,"Sion, Mumbai - MPCB",18-05-2024 01:00:00,19.047000,72.874600,CO,38,40,39
India,Maharashtra,Mumbai,"Sion, Mumbai - MPCB",18-05-2024 01:00:00,19.047000,72.874600,OZONE,66,97,76
India,Maharashtra,Mumbai,"Vasai West, Mumbai - MPCB",18-05-2024 01:00:00,19.383200,72.820400,PM2.5,34,132,56
India,Maharashtra,Mumbai,"Vasai West, Mumbai - MPCB",18-05-2024 01:00:00,19.383200,72.820400,PM10,80,152,106
India,Maharashtra,Mumbai,"Vile Parle West, Mumbai - MPCB",18-05-2024 01:00:00,19.10861,72.83622,NO2,NA,NA,NA
India,Maharashtra,Mumbai,"Vile Parle West, Mumbai - MPCB",18-05-2024 01:00:00,19.10861,72.83622,SO2,NA,NA,NA
India,Maharashtra,Mumbai,"Vile Parle West, Mumbai - MPCB",18-05-2024 01:00:00,19.10861,72.83622,OZONE,2,3,3
India,Maharashtra,Mumbai,"Worli, Mumbai - MPCB",18-05-2024 01:00:00,18.9936162,72.8128113,PM2.5,25,62,39
India,Maharashtra,Nagpur,"Ambazari, Nagpur - MPCB",18-05-2024 01:00:00,21.121801,79.04952,NO2,7,33,14
India,Maharashtra,Nagpur,"Ambazari, Nagpur - MPCB",18-05-2024 01:00:00,21.121801,79.04952,NH3,2,6,3
India,Maharashtra,Nagpur,"Ambazari, Nagpur - MPCB",18-05-2024 01:00:00,21.121801,79.04952,SO2,3,35,17
India,Maharashtra,Nagpur,"Ambazari, Nagpur - MPCB",18-05-2024 01:00:00,21.121801,79.04952,OZONE,13,87,40
India,Maharashtra,Nagpur,"Mahal, Nagpur - MPCB",18-05-2024 01:00:00,21.14472,79.107595,NO2,6,34,17
India,Maharashtra,Nagpur,"Mahal, Nagpur - MPCB",18-05-2024 01:00:00,21.14472,79.107595,OZONE,9,73,34
India,Maharashtra,Nagpur,"Opp GPO Civil Lines, Nagpur - MPCB",18-05-2024 01:00:00,21.152875,79.0517531,NO2,16,93,34
India,Maharashtra,Nanded,"Sneh Nagar, Nanded - MPCB",18-05-2024 01:00:00,19.173852,77.296291,SO2,3,6,5
India,Maharashtra,Nashik,"Gangapur Road, Nashik - MPCB",18-05-2024 01:00:00,20.0073285,73.7762427,PM2.5,50,79,65
India,Maharashtra,Nashik,"Gangapur Road, Nashik - MPCB",18-05-2024 01:00:00,20.0073285,73.7762427,PM10,63,101,83
India,Maharashtra,Nashik,"Gangapur Road, Nashik - MPCB",18-05-2024 01:00:00,20.0073285,73.7762427,SO2,3,12,6
India,Maharashtra,Navi Mumbai,"Kopripada-Vashi, Navi Mumbai - MPCB",18-05-2024 01:00:00,19.090337,73.014232,NO2,28,98,57
India,Maharashtra,Navi Mumbai,"Sector-19A Nerul, Navi Mumbai - IITM",18-05-2024 01:00:00,19.044,73.0325,CO,10,107,107
India,Maharashtra,Navi Mumbai,"Sector-19A Nerul, Navi Mumbai - IITM",18-05-2024 01:00:00,19.044,73.0325,OZONE,1,134,24
India,Maharashtra,Navi Mumbai,"Tondare-Taloja, Navi Mumbai - MPCB",18-05-2024 01:00:00,19.0630,73.1209,NO2,33,87,53
India,Maharashtra,Navi Mumbai,"Tondare-Taloja, Navi Mumbai - MPCB",18-05-2024 01:00:00,19.0630,73.1209,CO,10,41,17
India,Maharashtra,Parbhani,"Masoom Colony, Parbhani - MPCB",18-05-2024 01:00:00,19.265594,76.761463,NH3,3,7,6
India,Maharashtra,Parbhani,"Masoom Colony, Parbhani - MPCB",18-05-2024 01:00:00,19.265594,76.761463,CO,17,109,55
India,Maharashtra,Pimpri-Chinchwad,"Gavalinagar, Pimpri Chinchwad - MPCB",18-05-2024 01:00:00,18.63673,73.82487,OZONE,8,148,56
India,Maharashtra,Pimpri-Chinchwad,"Park Street Wakad, Pimpri Chinchwad - MPCB",18-05-2024 01:00:00,18.59051,73.77946,NH3,4,11,6
India,Maharashtra,Pimpri-Chinchwad,"Thergaon, Pimpri Chinchwad - MPCB",18-05-2024 01:00:00,18.616318,73.765797,PM10,43,67,59
India,Maharashtra,Pune,"Bhosari, Pune - IITM",18-05-2024 01:00:00,18.640051,73.848956,PM10,NA,NA,NA
India,Maharashtra,Pune,"Karve Road, Pune - MPCB",18-05-2024 01:00:00,18.5011743,73.8165527,SO2,9,18,13
India,Maharashtra,Pune,"Mhada Colony, Pune - IITM",18-05-2024 01:00:00,18.573040,73.927715,PM2.5,22,70,44
India,Maharashtra,Pune,"Mhada Colony, Pune - IITM",18-05-2024 01:00:00,18.573040,73.927715,PM10,40,106,63
India,Maharashtra,Pune,"Revenue Colony-Shivajinagar, Pune - IITM",18-05-2024 01:00:00,18.530085,73.849598,OZONE,1,83,47
India,Maharashtra,Pune,"Savitribai Phule Pune University, Pune - MPCB",18-05-2024 01:00:00,18.547056,73.826908,PM2.5,52,90,71
India,Maharashtra,Pune,"Savitribai Phule Pune University, Pune - MPCB",18-05-2024 01:00:00,18.547056,73.826908,CO,14,47,25
India,Maharashtra,Pune,"Transport Nagar-Nigdi, Pune - IITM",18-05-2024 01:00:00,18.664282,73.763966,NO2,7,27,13
India,Maharashtra,Sangli,"Vijay Nagar, Sangli - MPCB",18-05-2024 01:00:00, 16.5038,74.3623,OZONE,20,129,68
India,Maharashtra,Solapur,"Dnyaneshwar Nagar, Solapur - MPCB",18-05-2024 01:00:00,17.6336264,75.9132495,SO2,1,2,2
India,Maharashtra,Solapur,"Ratandeep Housing Society, Solapur - MPCB",18-05-2024 01:00:00,17.65439,75.90649,SO2,2,12,8
India,Maharashtra,Thane,"Kasarvadavali, Thane - MPCB",18-05-2024 01:00:00,19.26777,72.97182,OZONE,1,172,50
India,Maharashtra,Ulhasnagar,"Sidhi Vinayak Nagar, Ulhasnagar - MPCB",18-05-2024 01:00:00,19.235581,73.159121,NO2,22,58,30
India,Maharashtra,Ulhasnagar,"Sidhi Vinayak Nagar, Ulhasnagar - MPCB",18-05-2024 01:00:00,19.235581,73.159121,SO2,1,18,13
India,Maharashtra,Virar,"Bolinj, Virar - MPCB",18-05-2024 01:00:00,19.4458210,72.7988231,NH3,9,9,9
India,Manipur,Imphal,"Manipur University, Imphal - Manipur PCB",18-05-2024 01:00:00,24.7524239,93.9286218,PM2.5,55,129,76
India,Manipur,Imphal,"Manipur University, Imphal - Manipur PCB",18-05-2024 01:00:00,24.7524239,93.9286218,SO2,95,101,98
India,Meghalaya,Shillong,"Lumpyngngad, Shillong - Meghalaya PCB",18-05-2024 01:00:00,25.5586,91.8985,PM10,33,94,54
India,Meghalaya,Shillong,"Lumpyngngad, Shillong - Meghalaya PCB",18-05-2024 01:00:00,25.5586,91.8985,SO2,37,39,38
India,Meghalaya,Shillong,"Lumpyngngad, Shillong - Meghalaya PCB",18-05-2024 01:00:00,25.5586,91.8985,OZONE,5,60,37
India,Mizoram,Aizawl,"Sikulpuikawn, Aizawl - Mizoram PCB",18-05-2024 01:00:00,23.7176342,92.7192841,NH3,1,4,2
India,Mizoram,Aizawl,"Sikulpuikawn, Aizawl - Mizoram PCB",18-05-2024 01:00:00,23.7176342,92.7192841,OZONE,3,110,56
India,Nagaland,Kohima,"PWD Juction, Kohima - NPCB",18-05-2024 01:00:00,25.6635413,94.0989878,NO2,3,4,3
India,Nagaland,Kohima,"PWD Juction, Kohima - NPCB",18-05-2024 01:00:00,25.6635413,94.0989878,SO2,34,45,36
India,Nagaland,Kohima,"PWD Juction, Kohima - NPCB",18-05-2024 01:00:00,25.6635413,94.0989878,OZONE,9,20,12
India,Odisha,Balasore,"Kalidaspur, Balasore - OSPCB",18-05-2024 01:00:00,21.51161,86.89088,OZONE,7,48,14
India,Odisha,Baripada,"Meher Colony, Baripada - OSPCB",18-05-2024 01:00:00,21.941841,86.728318,NH3,1,3,2
India,Odisha,Bhubaneswar,"Lingraj Mandir, Bhubaneswar - OSPCB",18-05-2024 01:00:00,20.240790,85.836784,PM2.5,5,90,28
India,Odisha,Bhubaneswar,"Lingraj Mandir, Bhubaneswar - OSPCB",18-05-2024 01:00:00,20.240790,85.836784,CO,52,100,66
India,Odisha,Bhubaneswar,"Patia, Bhubaneswar - OSPCB",18-05-2024 01:00:00,20.34652,85.81630,NO2,4,5,4
India,Odisha,Bileipada,"Tata Township, Bileipada - OSPCB",18-05-2024 01:00:00,22.06156703,85.47409613,PM10,102,284,168
India,Odisha,Bileipada,"Tata Township, Bileipada - OSPCB",18-05-2024 01:00:00,22.06156703,85.47409613,CO,17,35,22
India,Odisha,Brajrajnagar,"GM Office, Brajrajnagar - OSPCB",18-05-2024 01:00:00,21.8004996,83.8396977,PM2.5,7,61,31
India,Odisha,Brajrajnagar,"GM Office, Brajrajnagar - OSPCB",18-05-2024 01:00:00,21.8004996,83.8396977,PM10,10,85,43
India,Odisha,Brajrajnagar,"GM Office, Brajrajnagar - OSPCB",18-05-2024 01:00:00,21.8004996,83.8396977,CO,56,92,86
India,Odisha,Byasanagar,"Ferro Chrome Colony, Byasanagar - OSPCB",18-05-2024 01:00:00,20.94185,86.11510,PM10,7,48,28
India,Odisha,Cuttack,"CDA Area, Cuttack - OSPCB",18-05-2024 01:00:00,20.48891     ,85.84768     ,CO,14,26,23
India,Odisha,Keonjhar,"Jagamohanpur, Keonjhar - OSPCB",18-05-2024 01:00:00,21.643900,85.599355,NH3,2,3,3
India,Odisha,Keonjhar,"Jagamohanpur, Keonjhar - OSPCB",18-05-2024 01:00:00,21.643900,85.599355,OZONE,2,17,16
India,Odisha,Nayagarh,"Dabuna, Nayagarh - OSPCB",18-05-2024 01:00:00,21.847279,85.416905,NH3,NA,NA,NA
India,Odisha,Rairangpur,"Divisional Forest Office, Rairangpur - OSPCB",18-05-2024 01:00:00,22.265816,86.174829,PM2.5,50,98,73
India,Odisha,Rairangpur,"Divisional Forest Office, Rairangpur - OSPCB",18-05-2024 01:00:00,22.265816,86.174829,NO2,NA,NA,NA
India,Odisha,Rairangpur,"Divisional Forest Office, Rairangpur - OSPCB",18-05-2024 01:00:00,22.265816,86.174829,NH3,NA,NA,NA
India,Odisha,Rairangpur,"Divisional Forest Office, Rairangpur - OSPCB",18-05-2024 01:00:00,22.265816,86.174829,CO,14,22,16
India,Odisha,Rourkela,"Fertilizer Township, Rourkela - OSPCB",18-05-2024 01:00:00,22.18972222,84.86277778,PM2.5,18,172,59
India,Odisha,Rourkela,"Fertilizer Township, Rourkela - OSPCB",18-05-2024 01:00:00,22.18972222,84.86277778,PM10,53,131,90
India,Odisha,Rourkela,"Raghunathpali, Rourkela - OSPCB",18-05-2024 01:00:00,22.220833,84.809444,PM10,52,124,84
India,Odisha,Suakati,"OMC Colony, Suakati - OSPCB",18-05-2024 01:00:00,21.606865,85.510538,NO2,5,6,5
India,Odisha,Suakati,"OMC Colony, Suakati - OSPCB",18-05-2024 01:00:00,21.606865,85.510538,CO,19,23,20
India,Odisha,Suakati,"OMC Colony, Suakati - OSPCB",18-05-2024 01:00:00,21.606865,85.510538,OZONE,14,77,48
India,Odisha,Talcher,"Talcher Coalfields,Talcher - OSPCB",18-05-2024 01:00:00,20.9360711,85.1707021,NO2,18,21,20
India,Odisha,Talcher,"Talcher Coalfields,Talcher - OSPCB",18-05-2024 01:00:00,20.9360711,85.1707021,NH3,3,4,3
India,Odisha,Tensa,"Barsua Iron Ore Mines, Tensa - OSPCB",18-05-2024 01:00:00,21.869985,85.167016,PM10,50,116,78
India,Odisha,Tensa,"Barsua Iron Ore Mines, Tensa - OSPCB",18-05-2024 01:00:00,21.869985,85.167016,NH3,1,3,2
India,Puducherry,Puducherry,"Jawahar Nagar, Puducherry - PPCC",18-05-2024 01:00:00,11.9309,79.8027,PM2.5,2,18,5
India,Puducherry,Puducherry,"Jawahar Nagar, Puducherry - PPCC",18-05-2024 01:00:00,11.9309,79.8027,PM10,2,39,17
India,Puducherry,Puducherry,"Jawahar Nagar, Puducherry - PPCC",18-05-2024 01:00:00,11.9309,79.8027,NO2,2,26,13
India,Puducherry,Puducherry,"Jawahar Nagar, Puducherry - PPCC",18-05-2024 01:00:00,11.9309,79.8027,NH3,2,4,3
India,Punjab,Amritsar,"Golden Temple, Amritsar - PPCB",18-05-2024 01:00:00,31.620000,74.876512,SO2,NA,NA,NA
India,Punjab,Amritsar,"Golden Temple, Amritsar - PPCB",18-05-2024 01:00:00,31.620000,74.876512,OZONE,43,70,61
India,Punjab,Bathinda,"Hardev Nagar, Bathinda - PPCB",18-05-2024 01:00:00,30.233011,74.907758,NO2,23,31,27
India,Punjab,Jalandhar,"Civil Line, Jalandhar - PPCB",18-05-2024 01:00:00,31.321907,75.578914,CO,15,95,64
India,Punjab,Jalandhar,"Civil Line, Jalandhar - PPCB",18-05-2024 01:00:00,31.321907,75.578914,OZONE,14,89,44
India,Punjab,Khanna,"Kalal Majra, Khanna - PPCB",18-05-2024 01:00:00,30.736056 ,76.209694,PM2.5,60,380,210
India,Punjab,Ludhiana,"Punjab Agricultural University, Ludhiana - PPCB",18-05-2024 01:00:00,30.9028,75.8086,PM2.5,75,315,204
India,Punjab,Mandi Gobindgarh,"RIMT University, Mandi Gobindgarh - PPCB",18-05-2024 01:00:00,30.649961,76.331442,NO2,23,28,26
India,Punjab,Mandi Gobindgarh,"RIMT University, Mandi Gobindgarh - PPCB",18-05-2024 01:00:00,30.649961,76.331442,SO2,20,105,42
India,Punjab,Patiala,"Model Town, Patiala - PPCB",18-05-2024 01:00:00,30.349388,76.366642,PM10,137,209,172
India,Punjab,Patiala,"Model Town, Patiala - PPCB",18-05-2024 01:00:00,30.349388,76.366642,NO2,26,31,28
India,Rajasthan,Ajmer,"Civil Lines,  Ajmer - RSPCB",18-05-2024 01:00:00,26.470859,74.646594,SO2,4,61,13
India,Rajasthan,Ajmer,"Civil Lines,  Ajmer - RSPCB",18-05-2024 01:00:00,26.470859,74.646594,CO,5,104,26
India,Rajasthan,Ajmer,"Civil Lines,  Ajmer - RSPCB",18-05-2024 01:00:00,26.470859,74.646594,OZONE,4,111,39
India,Rajasthan,Alwar,"Moti Doongri, Alwar - RSPCB",18-05-2024 01:00:00,27.554793,76.611536,SO2,2,46,18
India,Rajasthan,Alwar,"Moti Doongri, Alwar - RSPCB",18-05-2024 01:00:00,27.554793,76.611536,OZONE,13,78,41
India,Rajasthan,Banswara,"Rati Talai, Banswara - RSPCB",18-05-2024 01:00:00,23.555190,74.440010,PM2.5,134,305,198
India,Rajasthan,Banswara,"Rati Talai, Banswara - RSPCB",18-05-2024 01:00:00,23.555190,74.440010,NO2,13,47,28
India,Rajasthan,Banswara,"Rati Talai, Banswara - RSPCB",18-05-2024 01:00:00,23.555190,74.440010,CO,2,60,11
India,Rajasthan,Baran,"Bamboliya, Baran - RSPCB",18-05-2024 01:00:00,25.106006,76.469948,PM2.5,26,85,58
India,Rajasthan,Barmer,"Railway Colony, Barmer - RSPCB",18-05-2024 01:00:00,25.747299,71.393989,PM2.5,16,48,30
India,Rajasthan,Barmer,"Railway Colony, Barmer - RSPCB",18-05-2024 01:00:00,25.747299,71.393989,NH3,5,17,10
India,Rajasthan,Barmer,"Railway Colony, Barmer - RSPCB",18-05-2024 01:00:00,25.747299,71.393989,SO2,1,13,3
India,Rajasthan,Bharatpur,"Krishna Nagar, Bharatpur - RSPCB",18-05-2024 01:00:00,27.215415,77.50873,SO2,4,19,8
India,Rajasthan,Bhilwara,"Pratap Nagar, Bhilwara - RSPCB",18-05-2024 01:00:00,25.339605,74.618883,SO2,5,17,11
India,Rajasthan,Bhiwadi,"RIICO Ind. Area III, Bhiwadi - RSPCB",18-05-2024 01:00:00,28.194909,76.862296,PM2.5,88,321,218
India,Rajasthan,Bhiwadi,"RIICO Ind. Area III, Bhiwadi - RSPCB",18-05-2024 01:00:00,28.194909,76.862296,SO2,3,25,14
India,Rajasthan,Bhiwadi,"Vasundhara Nagar_UIT, Bhiwadi - RSPCB",18-05-2024 01:00:00,28.207266,76.829265,NO2,8,129,54
India,Rajasthan,Bhiwadi,"Vasundhara Nagar_UIT, Bhiwadi - RSPCB",18-05-2024 01:00:00,28.207266,76.829265,SO2,4,31,13
India,Rajasthan,Bhiwadi,"Vasundhara Nagar_UIT, Bhiwadi - RSPCB",18-05-2024 01:00:00,28.207266,76.829265,CO,15,123,51
India,Rajasthan,Bikaner,"MM Ground, Bikaner - RSPCB",18-05-2024 01:00:00,28.018792,73.292658,PM10,81,351,159
India,Rajasthan,Bikaner,"MM Ground, Bikaner - RSPCB",18-05-2024 01:00:00,28.018792,73.292658,SO2,1,14,4
India,Rajasthan,Bundi,"New Colony, Bundi - RSPCB",18-05-2024 01:00:00,25.435774,75.644272,PM10,75,470,147
India,Rajasthan,Bundi,"New Colony, Bundi - RSPCB",18-05-2024 01:00:00,25.435774,75.644272,CO,14,74,35
India,Rajasthan,Chittorgarh,"Shastri Nagar, Chittorgarh - RSPCB",18-05-2024 01:00:00,24.892047,74.623527,PM2.5,5,163,84
India,Rajasthan,Dausa,"Khatikan Mohalla, Dausa - RSPCB",18-05-2024 01:00:00,26.895552,76.334753,PM2.5,42,344,94
India,Rajasthan,Dausa,"Khatikan Mohalla, Dausa - RSPCB",18-05-2024 01:00:00,26.895552,76.334753,NH3,2,53,12
India,Rajasthan,Dholpur,"Raja Ganj, Dholpur - RSPCB",18-05-2024 01:00:00,26.699557,77.898881,CO,12,56,34
India,Rajasthan,Dungarpur,"Bhoiwada, Dungarpur - RSPCB",18-05-2024 01:00:00,23.837789,73.714926,PM10,63,129,93
India,Rajasthan,Dungarpur,"Bhoiwada, Dungarpur - RSPCB",18-05-2024 01:00:00,23.837789,73.714926,NH3,2,3,2
India,Rajasthan,Dungarpur,"Bhoiwada, Dungarpur - RSPCB",18-05-2024 01:00:00,23.837789,73.714926,SO2,4,6,5
India,Rajasthan,Hanumangarh,"Housing Board, Hanumangarh - RSPCB",18-05-2024 01:00:00,29.610750,74.283608,PM2.5,40,423,183
India,Rajasthan,Hanumangarh,"Housing Board, Hanumangarh - RSPCB",18-05-2024 01:00:00,29.610750,74.283608,NO2,7,72,31
India,Rajasthan,Hanumangarh,"Housing Board, Hanumangarh - RSPCB",18-05-2024 01:00:00,29.610750,74.283608,NH3,9,19,12
India,Rajasthan,Jaipur,"Mansarovar Sector-12, Jaipur - RSPCB",18-05-2024 01:00:00,26.843698,75.766894,PM2.5,32,233,89
India,Rajasthan,Jaipur,"Mansarovar Sector-12, Jaipur - RSPCB",18-05-2024 01:00:00,26.843698,75.766894,NH3,3,8,5
India,Rajasthan,Jaipur,"Mansarovar Sector-12, Jaipur - RSPCB",18-05-2024 01:00:00,26.843698,75.766894,SO2,7,24,14
India,Rajasthan,Jaipur,"Police Commissionerate, Jaipur - RSPCB",18-05-2024 01:00:00,26.9164092,75.7994901,PM2.5,85,310,169
India,Rajasthan,Jaipur,"Police Commissionerate, Jaipur - RSPCB",18-05-2024 01:00:00,26.9164092,75.7994901,CO,20,79,53
India,Rajasthan,Jaipur,"RIICO Sitapura, Jaipur - RSPCB",18-05-2024 01:00:00,26.786682,75.827928,CO,20,117,72
India,Rajasthan,Jaipur,"Sector-2 Murlipura, Jaipur - RSPCB",18-05-2024 01:00:00,26.960669,75.771817,OZONE,5,260,48
India,Rajasthan,Jaipur,"Shastri Nagar, Jaipur - RSPCB",18-05-2024 01:00:00,26.9502929,75.730943,NO2,18,91,51
India,Rajasthan,Jaipur,"Shastri Nagar, Jaipur - RSPCB",18-05-2024 01:00:00,26.9502929,75.730943,NH3,1,16,4
India,Rajasthan,Jaipur,"Shastri Nagar, Jaipur - RSPCB",18-05-2024 01:00:00,26.9502929,75.730943,SO2,6,62,26
India,Rajasthan,Jaisalmer,"Sadar Bazar, Jaisalmer - RSPCB",18-05-2024 01:00:00,26.912329,70.909168,PM10,47,159,83
India,Rajasthan,Jaisalmer,"Sadar Bazar, Jaisalmer - RSPCB",18-05-2024 01:00:00,26.912329,70.909168,OZONE,49,113,106
India,Rajasthan,Jalore,"Mudtra Sili, Jalore - RSPCB",18-05-2024 01:00:00,25.344694,72.626208,PM10,95,326,158
India,Rajasthan,Jalore,"Mudtra Sili, Jalore - RSPCB",18-05-2024 01:00:00,25.344694,72.626208,NH3,6,12,9
India,Rajasthan,Jhalawar,"Rajlaxmi Nagar, Jhalawar - RSPCB",18-05-2024 01:00:00,24.588397,76.172782,PM2.5,30,198,59
India,Rajasthan,Jhunjhunu,"Indra Nagar, Jhunjhunu - RSPCB",18-05-2024 01:00:00,28.108988,75.386577,PM10,88,432,162
India,Rajasthan,Jhunjhunu,"Indra Nagar, Jhunjhunu - RSPCB",18-05-2024 01:00:00,28.108988,75.386577,NH3,14,28,22
India,Rajasthan,Jhunjhunu,"Indra Nagar, Jhunjhunu - RSPCB",18-05-2024 01:00:00,28.108988,75.386577,SO2,4,15,7
India,Rajasthan,Jodhpur,"Collectorate, Jodhpur - RSPCB",18-05-2024 01:00:00,26.268249,73.0193853,PM10,69,276,150
India,Rajasthan,Jodhpur,"Digari Kalan, Jodhpur - RSPCB",18-05-2024 01:00:00,26.295810,73.082283,NH3,3,15,6
India,Rajasthan,Jodhpur,"Samrat Ashok Udhyan, Jodhpur - RSPCB",18-05-2024 01:00:00,26.253384,72.976571,PM10,70,292,135
India,Rajasthan,Karauli,"Satyawati Vihar, Karauli - RSPCB",18-05-2024 01:00:00,26.506177,77.025989,PM2.5,28,113,56
India,Rajasthan,Kota,"Dhanmandi, Kota - RSPCB",18-05-2024 01:00:00,25.164090,75.858137,CO,6,114,49
India,Rajasthan,Kota,"Nayapura, Kota - RSPCB",18-05-2024 01:00:00,25.196024,75.855668,PM2.5,25,199,89
India,Rajasthan,Kota,"Nayapura, Kota - RSPCB",18-05-2024 01:00:00,25.196024,75.855668,PM10,68,227,138
India,Rajasthan,Kota,"Nayapura, Kota - RSPCB",18-05-2024 01:00:00,25.196024,75.855668,OZONE,5,165,59
India,Rajasthan,Pali,"Indira Colony Vistar, Pali - RSPCB",18-05-2024 01:00:00,25.771061, 73.340227,PM10,93,196,137
India,Rajasthan,Pali,"Indira Colony Vistar, Pali - RSPCB",18-05-2024 01:00:00,25.771061, 73.340227,NH3,3,14,7
India,Rajasthan,Pali,"Indira Colony Vistar, Pali - RSPCB",18-05-2024 01:00:00,25.771061, 73.340227,SO2,8,11,9
India,Rajasthan,Pali,"Indira Colony Vistar, Pali - RSPCB",18-05-2024 01:00:00,25.771061, 73.340227,CO,28,66,39
India,Rajasthan,Pratapgarh,"Pragati Nagar, Pratapgarh - RSPCB",18-05-2024 01:00:00,24.041198,74.780702,NO2,8,38,21
India,Rajasthan,Rajsamand,"Dhoinda, Rajsamand - RSPCB",18-05-2024 01:00:00,25.036360,73.883502,OZONE,15,52,41
India,Rajasthan,Sikar,"Radhakishan Pura, Sikar - RSPCB",18-05-2024 01:00:00,27.608912,75.153302,PM10,105,206,135
India,Rajasthan,Sikar,"Radhakishan Pura, Sikar - RSPCB",18-05-2024 01:00:00,27.608912,75.153302,SO2,4,12,6
India,Rajasthan,Sirohi,"Vedhaynath Colony, Sirohi - RSPCB",18-05-2024 01:00:00,24.885261,72.857549,PM10,25,110,70
India,Rajasthan,Sirohi,"Vedhaynath Colony, Sirohi - RSPCB",18-05-2024 01:00:00,24.885261,72.857549,SO2,4,14,9
India,Rajasthan,Sirohi,"Vedhaynath Colony, Sirohi - RSPCB",18-05-2024 01:00:00,24.885261,72.857549,OZONE,53,142,111
India,Rajasthan,Tonk,"Shastri Nagar, Tonk - RSPCB",18-05-2024 01:00:00,26.159933,75.780517,CO,NA,NA,NA
India,Rajasthan,Udaipur,"Ashok Nagar, Udaipur - RSPCB",18-05-2024 01:00:00,24.5886166,73.6321397,NH3,2,25,7
India,Sikkim,Gangtok,"Zero Point GICI, Gangtok - SSPCB",18-05-2024 01:00:00,27.338530,88.614099,CO,9,23,17
India,TamilNadu,Ariyalur,"Keelapalur, Ariyalur - TNPCB",18-05-2024 01:00:00,11.06825,79.07033,NO2,8,9,8
India,TamilNadu,Chennai,"Alandur Bus Depot, Chennai - CPCB",18-05-2024 01:00:00,12.9099161,80.1076538,NH3,8,27,10
India,TamilNadu,Chennai,"Arumbakkam, Chennai - TNPCB",18-05-2024 01:00:00,13.0664,80.2112 ,PM2.5,3,73,26
India,TamilNadu,Chennai,"Arumbakkam, Chennai - TNPCB",18-05-2024 01:00:00,13.0664,80.2112 ,PM10,6,61,30
India,TamilNadu,Chennai,"Manali, Chennai - CPCB",18-05-2024 01:00:00,13.164544,80.26285,OZONE,13,18,16
India,TamilNadu,Chennai,"Perungudi, Chennai - TNPCB",18-05-2024 01:00:00,12.9533,80.2357,SO2,1,7,3
India,TamilNadu,Chennai,"Royapuram, Chennai - TNPCB",18-05-2024 01:00:00,13.1036,80.2909,PM10,6,59,24
India,TamilNadu,Chennai,"Royapuram, Chennai - TNPCB",18-05-2024 01:00:00,13.1036,80.2909,NO2,7,22,11
India,TamilNadu,Chennai,"Royapuram, Chennai - TNPCB",18-05-2024 01:00:00,13.1036,80.2909,OZONE,6,14,12
India,TamilNadu,Chennai,"Velachery Res. Area, Chennai - CPCB",18-05-2024 01:00:00,13.0052189,80.2398125,PM2.5,9,22,15
India,TamilNadu,Chennai,"Velachery Res. Area, Chennai - CPCB",18-05-2024 01:00:00,13.0052189,80.2398125,NH3,11,23,17
India,TamilNadu,Chennai,"Velachery Res. Area, Chennai - CPCB",18-05-2024 01:00:00,13.0052189,80.2398125,OZONE,17,46,34
India,TamilNadu,Cuddalore,"Kudikadu, Cuddalore - TNPCB",18-05-2024 01:00:00,11.6829898,79.7532099,NH3,3,4,4
India,TamilNadu,Cuddalore,"Semmandalam, Cuddalore - TNPCB",18-05-2024 01:00:00,11.7637683,79.7499835,NO2,6,25,12
India,TamilNadu,Cuddalore,"Semmandalam, Cuddalore - TNPCB",18-05-2024 01:00:00,11.7637683,79.7499835,OZONE,1,2,2
India,TamilNadu,Gummidipoondi,"Anthoni Pillai Nagar, Gummidipoondi - TNPCB",18-05-2024 01:00:00,13.4127,80.1081,PM2.5,8,52,27
India,TamilNadu,Ooty,"Bombay Castel, Ooty - TNPCB",18-05-2024 01:00:00,11.4068288,76.7138973,NO2,NA,NA,NA
India,TamilNadu,Ooty,"Bombay Castel, Ooty - TNPCB",18-05-2024 01:00:00,11.4068288,76.7138973,SO2,NA,NA,NA
India,TamilNadu,Palkalaiperur,"Bharathidasan University, Palkalaiperur - TNPCB",18-05-2024 01:00:00,10.681158,78.741746,PM2.5,4,25,11
India,TamilNadu,Ramanathapuram,"Chalai Bazaar, Ramanathapuram - TNPCB",18-05-2024 01:00:00,9.36399,78.831977,PM10,4,57,20
India,TamilNadu,Ramanathapuram,"Chalai Bazaar, Ramanathapuram - TNPCB",18-05-2024 01:00:00,9.36399,78.831977,SO2,7,11,9
India,TamilNadu,Salem,"Sona College of Technology, Salem - TNPCB",18-05-2024 01:00:00,11.679111,78.125052,PM2.5,NA,NA,NA
India,TamilNadu,Salem,"Sona College of Technology, Salem - TNPCB",18-05-2024 01:00:00,11.679111,78.125052,SO2,NA,NA,NA
India,TamilNadu,Salem,"Sona College of Technology, Salem - TNPCB",18-05-2024 01:00:00,11.679111,78.125052,CO,38,46,43
India,TamilNadu,Tirupur,"Kumaran College, Tirupur - TNPCB",18-05-2024 01:00:00,11.0973603,77.3228673,SO2,NA,NA,NA
India,TamilNadu,Vellore,"Vasanthapuram, Vellore - TNPCB",18-05-2024 01:00:00,12.909494,79.131861,PM2.5,13,51,30
India,TamilNadu,Vellore,"Vasanthapuram, Vellore - TNPCB",18-05-2024 01:00:00,12.909494,79.131861,PM10,14,43,30
India,TamilNadu,Vellore,"Vasanthapuram, Vellore - TNPCB",18-05-2024 01:00:00,12.909494,79.131861,NO2,4,17,11
India,TamilNadu,Vellore,"Vasanthapuram, Vellore - TNPCB",18-05-2024 01:00:00,12.909494,79.131861,SO2,NA,NA,NA
India,TamilNadu,Vellore,"Vasanthapuram, Vellore - TNPCB",18-05-2024 01:00:00,12.909494,79.131861,OZONE,NA,NA,NA
India,Telangana,Hyderabad,"Bollaram Industrial Area, Hyderabad - TSPCB",18-05-2024 01:00:00,17.540891,78.358528,PM10,19,60,40
India,Telangana,Hyderabad,"Bollaram Industrial Area, Hyderabad - TSPCB",18-05-2024 01:00:00,17.540891,78.358528,CO,NA,NA,NA
India,Telangana,Hyderabad,"Bollaram Industrial Area, Hyderabad - TSPCB",18-05-2024 01:00:00,17.540891,78.358528,OZONE,27,37,34
India,Telangana,Hyderabad,"Central University, Hyderabad - TSPCB",18-05-2024 01:00:00,17.460103,78.334361,CO,11,26,20
India,Telangana,Hyderabad,"ECIL Kapra, Hyderabad - TSPCB",18-05-2024 01:00:00,17.470431,78.566959,SO2,NA,NA,NA
India,Telangana,Hyderabad,"IITH Kandi, Hyderabad - TSPCB",18-05-2024 01:00:00,17.585705,78.126199,NO2,NA,NA,NA
India,Telangana,Hyderabad,"Kompally Municipal Office, Hyderabad - TSPCB",18-05-2024 01:00:00,17.544899,78.486949,NO2,11,12,11
India,Telangana,Hyderabad,"New Malakpet, Hyderabad - TSPCB",18-05-2024 01:00:00,17.37206,78.50864,NO2,16,28,21
India,Telangana,Hyderabad,"New Malakpet, Hyderabad - TSPCB",18-05-2024 01:00:00,17.37206,78.50864,CO,12,28,23
India,Telangana,Hyderabad,"New Malakpet, Hyderabad - TSPCB",18-05-2024 01:00:00,17.37206,78.50864,OZONE,8,29,20
India,Telangana,Hyderabad,"Sanathnagar, Hyderabad - TSPCB",18-05-2024 01:00:00,17.4559458,78.4332152,OZONE,13,17,15
India,Telangana,Hyderabad,"Somajiguda, Hyderabad - TSPCB",18-05-2024 01:00:00,17.417094,78.457437,PM2.5,NA,NA,NA
India,Telangana,Hyderabad,"Zoo Park, Hyderabad - TSPCB",18-05-2024 01:00:00,17.349694,78.451437,PM10,10,158,108
India,Tripura,Agartala,"Bardowali, Agartala - Tripura SPCB",18-05-2024 01:00:00,23.8175497,91.2726974,PM10,79,120,95
India,Tripura,Agartala,"Bardowali, Agartala - Tripura SPCB",18-05-2024 01:00:00,23.8175497,91.2726974,CO,14,32,24
India,Tripura,Agartala,"Bardowali, Agartala - Tripura SPCB",18-05-2024 01:00:00,23.8175497,91.2726974,OZONE,1,30,10
India,Uttar_Pradesh,Agra,"Manoharpur, Agra - UPPCB",18-05-2024 01:00:00,27.23711,78.01936,SO2,18,27,23
India,Uttar_Pradesh,Agra,"Manoharpur, Agra - UPPCB",18-05-2024 01:00:00,27.23711,78.01936,OZONE,1,81,8
India,Uttar_Pradesh,Agra,"Sanjay Palace, Agra - UPPCB",18-05-2024 01:00:00,27.19865833,78.00598056,NO2,15,39,23
India,Uttar_Pradesh,Agra,"Sector-3B Avas Vikas Colony, Agra - UPPCB",18-05-2024 01:00:00,27.19412,77.96237,NH3,6,26,13
India,Uttar_Pradesh,Agra,"Sector-3B Avas Vikas Colony, Agra - UPPCB",18-05-2024 01:00:00,27.19412,77.96237,OZONE,9,17,10
India,Uttar_Pradesh,Agra,"Shahjahan Garden, Agra - UPPCB",18-05-2024 01:00:00,27.169338,78.03582,PM10,40,124,87
India,Uttar_Pradesh,Baghpat,"Sardar Patel Inter College, Baghpat - UPPCB",18-05-2024 01:00:00,28.964949,77.278761,NH3,1,12,6
India,Uttar_Pradesh,Baghpat,"Sardar Patel Inter College, Baghpat - UPPCB",18-05-2024 01:00:00,28.964949,77.278761,CO,44,113,75
India,Uttar_Pradesh,Bareilly,"Civil Lines, Bareilly - UPPCB",18-05-2024 01:00:00,28.359581,79.414455,SO2,23,34,26
India,Uttar_Pradesh,Bareilly,"Rajendra Nagar, Bareilly - UPPCB",18-05-2024 01:00:00,28.38910936,79.42963708,CO,14,88,42
India,Uttar_Pradesh,Bulandshahr,"Yamunapuram, Bulandshahr - UPPCB",18-05-2024 01:00:00,28.406963,77.849831,PM2.5,31,337,180
India,Uttar_Pradesh,Bulandshahr,"Yamunapuram, Bulandshahr - UPPCB",18-05-2024 01:00:00,28.406963,77.849831,PM10,96,357,187
India,Uttar_Pradesh,Bulandshahr,"Yamunapuram, Bulandshahr - UPPCB",18-05-2024 01:00:00,28.406963,77.849831,SO2,17,71,40
India,Uttar_Pradesh,Firozabad,"Vibhab Nagar, Firozabad - UPPCB",18-05-2024 01:00:00,27.1594,78.3953,SO2,1,88,28
India,Uttar_Pradesh,Ghaziabad,"Loni, Ghaziabad - UPPCB",18-05-2024 01:00:00,28.757294,77.278792,PM10,114,426,228
India,Uttar_Pradesh,Ghaziabad,"Sanjay Nagar, Ghaziabad - UPPCB",18-05-2024 01:00:00,28.685382,77.453839,OZONE,2,197,18
India,Uttar_Pradesh,Ghaziabad,"Vasundhara, Ghaziabad - UPPCB",18-05-2024 01:00:00,28.6603346,77.3572563,PM2.5,44,304,128
India,Uttar_Pradesh,Ghaziabad,"Vasundhara, Ghaziabad - UPPCB",18-05-2024 01:00:00,28.6603346,77.3572563,NO2,36,146,92
India,Uttar_Pradesh,Ghaziabad,"Vasundhara, Ghaziabad - UPPCB",18-05-2024 01:00:00,28.6603346,77.3572563,NH3,5,13,8
India,Uttar_Pradesh,Gorakhpur,"Madan Mohan Malaviya University of Technology, Gorakhpur - UPPCB",18-05-2024 01:00:00,26.730136,83.433859,PM2.5,82,320,225
India,Uttar_Pradesh,Greater Noida,"Knowledge Park - III, Greater Noida - UPPCB",18-05-2024 01:00:00,28.47272,77.482000,SO2,4,46,22
India,Uttar_Pradesh,Greater Noida,"Knowledge Park - V, Greater Noida - UPPCB",18-05-2024 01:00:00,28.557054,77.453663,PM10,165,487,341
India,Uttar_Pradesh,Greater Noida,"Knowledge Park - V, Greater Noida - UPPCB",18-05-2024 01:00:00,28.557054,77.453663,NH3,4,6,5
India,Uttar_Pradesh,Greater Noida,"Knowledge Park - V, Greater Noida - UPPCB",18-05-2024 01:00:00,28.557054,77.453663,CO,24,108,78
India,Uttar_Pradesh,Kanpur,"FTI Kidwai Nagar, Kanpur - UPPCB",18-05-2024 01:00:00,26.428282,80.327067,PM2.5,71,307,168
India,Uttar_Pradesh,Kanpur,"NSI Kalyanpur, Kanpur - UPPCB",18-05-2024 01:00:00,26.509954,80.249612,PM2.5,15,350,178
India,Uttar_Pradesh,Kanpur,"NSI Kalyanpur, Kanpur - UPPCB",18-05-2024 01:00:00,26.509954,80.249612,NO2,17,20,17
India,Uttar_Pradesh,Kanpur,"Nehru Nagar, Kanpur - UPPCB",18-05-2024 01:00:00,26.4703136,80.3229863,PM10,79,177,122
India,Uttar_Pradesh,Kanpur,"Nehru Nagar, Kanpur - UPPCB",18-05-2024 01:00:00,26.4703136,80.3229863,NO2,9,65,29
India,Uttar_Pradesh,Kanpur,"Nehru Nagar, Kanpur - UPPCB",18-05-2024 01:00:00,26.4703136,80.3229863,CO,16,102,67
India,Uttar_Pradesh,Lucknow,"B R Ambedkar University, Lucknow - UPPCB",18-05-2024 01:00:00,26.766433,80.927299,PM2.5,66,287,181
India,Uttar_Pradesh,Lucknow,"Kukrail Picnic Spot-1, Lucknow - UPPCB",18-05-2024 01:00:00,26.90723,80.98579,PM10,73,186,121
India,Uttar_Pradesh,Lucknow,"Kukrail Picnic Spot-1, Lucknow - UPPCB",18-05-2024 01:00:00,26.90723,80.98579,NO2,13,14,13
India,Uttar_Pradesh,Lucknow,"Lalbagh, Lucknow - CPCB",18-05-2024 01:00:00,26.8458805,80.9365541,PM2.5,NA,NA,NA
India,Uttar_Pradesh,Lucknow,"Lalbagh, Lucknow - CPCB",18-05-2024 01:00:00,26.8458805,80.9365541,CO,2,124,64
India,Uttar_Pradesh,Lucknow,"Talkatora District Industries Center, Lucknow - CPCB",18-05-2024 01:00:00,26.83399722,80.8917361,PM10,144,405,216
India,Uttar_Pradesh,Lucknow,"Talkatora District Industries Center, Lucknow - CPCB",18-05-2024 01:00:00,26.83399722,80.8917361,CO,2,97,38
India,Uttar_Pradesh,Meerut,"Ganga Nagar, Meerut - UPPCB",18-05-2024 01:00:00,28.999264,77.7590354,PM10,151,391,202
India,Uttar_Pradesh,Meerut,"Ganga Nagar, Meerut - UPPCB",18-05-2024 01:00:00,28.999264,77.7590354,CO,38,103,90
India,Uttar_Pradesh,Meerut,"Pallavpuram Phase 2, Meerut - UPPCB",18-05-2024 01:00:00,29.063510,77.709723,PM2.5,79,305,182
India,Uttar_Pradesh,Meerut,"Pallavpuram Phase 2, Meerut - UPPCB",18-05-2024 01:00:00,29.063510,77.709723,SO2,11,47,33
India,Uttar_Pradesh,Moradabad,"Buddhi Vihar, Moradabad - UPPCB",18-05-2024 01:00:00,28.83526,78.74460,PM2.5,58,304,145
India,Uttar_Pradesh,Moradabad,"Buddhi Vihar, Moradabad - UPPCB",18-05-2024 01:00:00,28.83526,78.74460,OZONE,11,66,32
India,Uttar_Pradesh,Moradabad,"Employment Office, Moradabad - UPPCB",18-05-2024 01:00:00,28.88528,78.73880,NO2,17,17,17
India,Uttar_Pradesh,Moradabad,"Jigar Colony, Moradabad - UPPCB",18-05-2024 01:00:00,28.856664,78.772638,NO2,17,18,18
India,Uttar_Pradesh,Moradabad,"Kashiram Nagar, Moradabad - UPPCB",18-05-2024 01:00:00,28.849399,78.742362,PM2.5,69,250,175
India,Uttar_Pradesh,Moradabad,"Kashiram Nagar, Moradabad - UPPCB",18-05-2024 01:00:00,28.849399,78.742362,PM10,98,201,150
India,Uttar_Pradesh,Moradabad,"Kashiram Nagar, Moradabad - UPPCB",18-05-2024 01:00:00,28.849399,78.742362,SO2,32,68,47
India,Uttar_Pradesh,Moradabad,"Kashiram Nagar, Moradabad - UPPCB",18-05-2024 01:00:00,28.849399,78.742362,OZONE,18,166,84
India,Uttar_Pradesh,Moradabad,"Transport Nagar, Moradabad - UPPCB",18-05-2024 01:00:00,28.802625,78.753728,NH3,5,5,5
India,Uttar_Pradesh,Muzaffarnagar,"New Mandi, Muzaffarnagar - UPPCB",18-05-2024 01:00:00,29.4723508,77.7194031,NH3,12,19,14
India,Uttar_Pradesh,Noida,"Sector - 125, Noida - UPPCB",18-05-2024 01:00:00,28.5447608,77.3231257,NH3,1,8,4
India,Uttar_Pradesh,Noida,"Sector - 125, Noida - UPPCB",18-05-2024 01:00:00,28.5447608,77.3231257,CO,28,125,87
India,Uttar_Pradesh,Noida,"Sector - 62, Noida - IMD",18-05-2024 01:00:00,28.6245479,77.3577104,PM10,131,419,223
India,Uttar_Pradesh,Noida,"Sector-1, Noida - UPPCB",18-05-2024 01:00:00,28.5898,77.3101,PM2.5,64,325,151
India,Uttar_Pradesh,Noida,"Sector-1, Noida - UPPCB",18-05-2024 01:00:00,28.5898,77.3101,NO2,22,208,111
India,Uttar_Pradesh,Noida,"Sector-1, Noida - UPPCB",18-05-2024 01:00:00,28.5898,77.3101,NH3,1,18,8
India,Uttar_Pradesh,Noida,"Sector-1, Noida - UPPCB",18-05-2024 01:00:00,28.5898,77.3101,OZONE,2,264,49
India,Uttar_Pradesh,Noida,"Sector-116, Noida - UPPCB",18-05-2024 01:00:00,28.569230,77.393848,PM2.5,81,382,227
India,Uttar_Pradesh,Noida,"Sector-116, Noida - UPPCB",18-05-2024 01:00:00,28.569230,77.393848,NO2,32,166,107
India,Uttar_Pradesh,Noida,"Sector-116, Noida - UPPCB",18-05-2024 01:00:00,28.569230,77.393848,SO2,3,47,22
India,Uttar_Pradesh,Prayagraj,"Motilal Nehru NIT, Prayagraj - UPPCB",18-05-2024 01:00:00,25.494,81.863,NO2,11,12,11
India,Uttar_Pradesh,Prayagraj,"Nagar Nigam, Prayagraj - UPPCB",18-05-2024 01:00:00,25.44919916 ,81.82735986 ,PM10,NA,NA,NA
India,Uttar_Pradesh,Prayagraj,"Nagar Nigam, Prayagraj - UPPCB",18-05-2024 01:00:00,25.44919916 ,81.82735986 ,OZONE,11,12,11
India,Uttar_Pradesh,Varanasi,"Ardhali Bazar, Varanasi - UPPCB",18-05-2024 01:00:00,25.3505986,82.9083074,PM2.5,NA,NA,NA
India,Uttar_Pradesh,Varanasi,"Maldahiya, Varanasi - UPPCB",18-05-2024 01:00:00,25.32393,82.99687,SO2,24,26,24
India,Uttar_Pradesh,Varanasi,"Maldahiya, Varanasi - UPPCB",18-05-2024 01:00:00,25.32393,82.99687,OZONE,1,23,9
India,Uttarakhand,Dehradun,"Doon University, Dehradun - UKPCB",18-05-2024 01:00:00,30.269444,78.044167,PM2.5,75,316,161
India,Uttarakhand,Dehradun,"Doon University, Dehradun - UKPCB",18-05-2024 01:00:00,30.269444,78.044167,OZONE,57,235,124
India,Uttarakhand,Kashipur,"Govt. Girls Inter College, Kashipur - UKPCB",18-05-2024 01:00:00,29.2124114,78.9611753,PM10,113,244,151
India,Uttarakhand,Kashipur,"Govt. Girls Inter College, Kashipur - UKPCB",18-05-2024 01:00:00,29.2124114,78.9611753,CO,17,104,70
India,Uttarakhand,Rishikesh,"Shivaji Nagar, Rishikesh - UKPCB",18-05-2024 01:00:00,30.075911,78.2859547,PM10,73,126,103
India,West_Bengal,Asansol,"Asansol Court Area, Asansol - WBPCB",18-05-2024 01:00:00,23.685297,86.945968,CO,22,92,39
India,West_Bengal,Barrackpore,"SVSPA Campus, Barrackpore - WBPCB",18-05-2024 01:00:00,22.7605581,88.3617589,NH3,2,3,2
India,West_Bengal,Durgapur,"PCBL Residential Complex, Durgapur - WBPCB",18-05-2024 01:00:00,23.5087640,87.3544400,CO,38,68,50
India,West_Bengal,Durgapur,"Sidhu Kanhu Indoor Stadium, Durgapur - WBPCB",18-05-2024 01:00:00,23.5404352,87.2892225,NO2,24,46,32
India,West_Bengal,Haldia,"Priyambada Housing Estate, Haldia - WBPCB",18-05-2024 01:00:00,22.06047,88.109737,PM10,6,32,15
India,West_Bengal,Haldia,"Priyambada Housing Estate, Haldia - WBPCB",18-05-2024 01:00:00,22.06047,88.109737,NH3,4,5,4
India,West_Bengal,Haldia,"Priyambada Housing Estate, Haldia - WBPCB",18-05-2024 01:00:00,22.06047,88.109737,OZONE,24,30,26
India,West_Bengal,Howrah,"Belur Math, Howrah - WBPCB",18-05-2024 01:00:00,22.629801,88.352017,PM2.5,15,88,39
India,West_Bengal,Howrah,"Belur Math, Howrah - WBPCB",18-05-2024 01:00:00,22.629801,88.352017,NO2,5,15,9
India,West_Bengal,Howrah,"Belur Math, Howrah - WBPCB",18-05-2024 01:00:00,22.629801,88.352017,NH3,1,16,2
India,West_Bengal,Howrah,"Ghusuri, Howrah - WBPCB",18-05-2024 01:00:00,22.611968,88.347422,NH3,3,3,3
India,West_Bengal,Howrah,"Ghusuri, Howrah - WBPCB",18-05-2024 01:00:00,22.611968,88.347422,CO,11,23,15
India,West_Bengal,Kolkata,"Bidhannagar, Kolkata - WBPCB",18-05-2024 01:00:00,22.58157048,88.41002457,CO,16,26,20
India,West_Bengal,Kolkata,"Fort William, Kolkata - WBPCB",18-05-2024 01:00:00,22.556640,88.342674,SO2,7,9,8
India,West_Bengal,Kolkata,"Jadavpur, Kolkata - WBPCB",18-05-2024 01:00:00,22.49929,88.36917,PM2.5,7,36,19
India,West_Bengal,Kolkata,"Jadavpur, Kolkata - WBPCB",18-05-2024 01:00:00,22.49929,88.36917,NO2,47,50,48
India,West_Bengal,Kolkata,"Rabindra Bharati University, Kolkata - WBPCB",18-05-2024 01:00:00,22.627847,88.380669,PM10,26,75,48
India,West_Bengal,Kolkata,"Rabindra Sarobar, Kolkata - WBPCB",18-05-2024 01:00:00,22.51106,88.35142,PM10,28,52,37
India,West_Bengal,Kolkata,"Rabindra Sarobar, Kolkata - WBPCB",18-05-2024 01:00:00,22.51106,88.35142,SO2,7,19,10
India,West_Bengal,Kolkata,"Rabindra Sarobar, Kolkata - WBPCB",18-05-2024 01:00:00,22.51106,88.35142,CO,12,24,19
India,West_Bengal,Kolkata,"Victoria, Kolkata - WBPCB",18-05-2024 01:00:00,22.5448082,88.3403691,PM2.5,24,59,38
India,West_Bengal,Kolkata,"Victoria, Kolkata - WBPCB",18-05-2024 01:00:00,22.5448082,88.3403691,NH3,6,6,6
India,West_Bengal,Kolkata,"Victoria, Kolkata - WBPCB",18-05-2024 01:00:00,22.5448082,88.3403691,OZONE,10,52,19
India,West_Bengal,Siliguri,"Ward-32 Bapupara, Siliguri - WBPCB",18-05-2024 01:00:00,26.6879226,88.4152495,NH3,6,12,9
India,Andhra_Pradesh,Amaravati,"Secretariat, Amaravati - APPCB",18-05-2024 01:00:00,16.5150833,80.5181667,SO2,10,14,11
India,Andhra_Pradesh,Amaravati,"Secretariat, Amaravati - APPCB",18-05-2024 01:00:00,16.5150833,80.5181667,CO,8,40,21
India,Andhra_Pradesh,Kadapa,"Yerramukkapalli, Kadapa - APPCB",18-05-2024 01:00:00,14.465052,78.824187,OZONE,8,41,14
India,Andhra_Pradesh,Tirupati,"Tirumala, Tirupati - APPCB",18-05-2024 01:00:00,13.67,79.35,NO2,19,38,27
India,Andhra_Pradesh,Vijayawada,"HB Colony, Vijayawada - APPCB",18-05-2024 01:00:00,16.536107,80.594233,PM2.5,38,55,44
India,Andhra_Pradesh,Vijayawada,"HB Colony, Vijayawada - APPCB",18-05-2024 01:00:00,16.536107,80.594233,NO2,9,22,14
India,Andhra_Pradesh,Vijayawada,"HB Colony, Vijayawada - APPCB",18-05-2024 01:00:00,16.536107,80.594233,NH3,3,4,4
India,Andhra_Pradesh,Vijayawada,"HB Colony, Vijayawada - APPCB",18-05-2024 01:00:00,16.536107,80.594233,SO2,5,6,6
India,Andhra_Pradesh,Vijayawada,"Kanuru, Vijayawada - APPCB",18-05-2024 01:00:00,16.486692,80.699436,PM10,45,55,49
India,Andhra_Pradesh,Vijayawada,"Kanuru, Vijayawada - APPCB",18-05-2024 01:00:00,16.486692,80.699436,NO2,21,25,23
India,Andhra_Pradesh,Vijayawada,"Kanuru, Vijayawada - APPCB",18-05-2024 01:00:00,16.486692,80.699436,NH3,1,1,1
India,Andhra_Pradesh,Vijayawada,"Kanuru, Vijayawada - APPCB",18-05-2024 01:00:00,16.486692,80.699436,SO2,2,5,2
India,Andhra_Pradesh,Visakhapatnam,"GVM Corporation, Visakhapatnam - APPCB",18-05-2024 01:00:00,17.72,83.3,PM10,23,114,53
India,Andhra_Pradesh,Visakhapatnam,"GVM Corporation, Visakhapatnam - APPCB",18-05-2024 01:00:00,17.72,83.3,OZONE,13,203,83
India,Arunachal_Pradesh,Naharlagun,"Naharlagun, Naharlagun - APSPCB",18-05-2024 01:00:00,27.103358,93.679645,NO2,NA,NA,NA
India,Arunachal_Pradesh,Naharlagun,"Naharlagun, Naharlagun - APSPCB",18-05-2024 01:00:00,27.103358,93.679645,CO,NA,NA,NA
India,Assam,Byrnihat,"Central Academy for SFS, Byrnihat - PCBA",18-05-2024 01:00:00,26.071318,91.87488,NH3,21,28,24
India,Assam,Guwahati,"IITG, Guwahati - PCBA",18-05-2024 01:00:00,26.2028636,91.70046436,NO2,1,3,2
India,Assam,Guwahati,"IITG, Guwahati - PCBA",18-05-2024 01:00:00,26.2028636,91.70046436,CO,10,12,11
India,Assam,Guwahati,"IITG, Guwahati - PCBA",18-05-2024 01:00:00,26.2028636,91.70046436,OZONE,8,65,29
India,Assam,Guwahati,"LGBI Airport, Guwahati - PCBA",18-05-2024 01:00:00,26.10887,91.589544,NH3,1,3,2
India,Assam,Guwahati,"Pan Bazaar, Guwahati - PCBA",18-05-2024 01:00:00,26.187500,91.744194,CO,20,37,26
India,Assam,Guwahati,"Railway Colony, Guwahati - PCBA",18-05-2024 01:00:00,26.181742,91.78063,NO2,NA,NA,NA
India,Assam,Nalbari,"Bata Chowk, Nalbari - PCBA",18-05-2024 01:00:00,26.446912,91.439057,PM10,35,227,95
India,Assam,Sivasagar,"Girls College, Sivasagar - PCBA",18-05-2024 01:00:00,26.987634,94.636574,PM10,38,64,50
India,Assam,Sivasagar,"Girls College, Sivasagar - PCBA",18-05-2024 01:00:00,26.987634,94.636574,NO2,8,18,12
India,Bihar,Araria,"Kharahiya Basti, Araria - BSPCB",18-05-2024 01:00:00,26.146529,87.454184,PM2.5,38,364,125
India,Bihar,Araria,"Kharahiya Basti, Araria - BSPCB",18-05-2024 01:00:00,26.146529,87.454184,SO2,11,17,15
India,Bihar,Araria,"Kharahiya Basti, Araria - BSPCB",18-05-2024 01:00:00,26.146529,87.454184,CO,19,30,25
India,Bihar,Araria,"Kharahiya Basti, Araria - BSPCB",18-05-2024 01:00:00,26.146529,87.454184,OZONE,7,10,9
India,Bihar,Arrah,"New DM Office, Arrah - BSPCB",18-05-2024 01:00:00,25.5626095,84.663264,PM2.5,40,117,73
India,Bihar,Arrah,"New DM Office, Arrah - BSPCB",18-05-2024 01:00:00,25.5626095,84.663264,NH3,7,16,11
India,Bihar,Aurangabad,"Gurdeo Nagar, Aurangabad - BSPCB",18-05-2024 01:00:00,24.75746,84.366208,NH3,3,25,13
India,Bihar,Bhagalpur,"DM Office_Kachari Chowk, Bhagalpur - BSPCB",18-05-2024 01:00:00,25.251013,86.989001,CO,20,98,79
India,Bihar,Bihar Sharif,"D M Colony, Bihar Sharif - BSPCB",18-05-2024 01:00:00,25.204762,85.514960,NH3,NA,NA,NA
India,Bihar,Bihar Sharif,"D M Colony, Bihar Sharif - BSPCB",18-05-2024 01:00:00,25.204762,85.514960,SO2,NA,NA,NA
India,Bihar,Buxar,"Charitra Van, Buxar - BSPCB (Formerly known as Central Jail)",18-05-2024 01:00:00,25.567520,83.966379,SO2,8,23,14
India,Bihar,Gaya,"Kareemganj, Gaya - BSPCB",18-05-2024 01:00:00,24.792403,84.992416,SO2,2,10,7
India,Bihar,Gaya,"Kareemganj, Gaya - BSPCB",18-05-2024 01:00:00,24.792403,84.992416,CO,4,24,12
India,Bihar,Gaya,"SFTI Kusdihra, Gaya - BSPCB",18-05-2024 01:00:00,24.762518,84.982348,NO2,24,68,41
India,Bihar,Gaya,"SFTI Kusdihra, Gaya - BSPCB",18-05-2024 01:00:00,24.762518,84.982348,OZONE,4,72,29
India,Bihar,Hajipur,"Industrial Area, Hajipur - BSPCB",18-05-2024 01:00:00,25.697189,85.245900,PM2.5,83,293,154
India,Bihar,Hajipur,"Industrial Area, Hajipur - BSPCB",18-05-2024 01:00:00,25.697189,85.245900,NH3,18,24,22
India,Bihar,Hajipur,"Industrial Area, Hajipur - BSPCB",18-05-2024 01:00:00,25.697189,85.245900,SO2,7,10,9
India,Bihar,Hajipur,"Industrial Area, Hajipur - BSPCB",18-05-2024 01:00:00,25.697189,85.245900,CO,44,96,70
India,Bihar,Hajipur,"Industrial Area, Hajipur - BSPCB",18-05-2024 01:00:00,25.697189,85.245900,OZONE,9,146,25
India,Bihar,Katihar,"Mirchaibari, Katihar - BSPCB",18-05-2024 01:00:00,25.560083,87.553265,NH3,1,16,3
India,Bihar,Katihar,"Mirchaibari, Katihar - BSPCB",18-05-2024 01:00:00,25.560083,87.553265,SO2,9,13,11
India,Bihar,Kishanganj,"SDM Office_Khagra, Kishanganj - BSPCB",18-05-2024 01:00:00,26.0881305,87.93840336,NH3,9,10,9
India,Bihar,Manguraha,"Forest Rest House, Manguraha - BSPCB",18-05-2024 01:00:00,27.308328,84.531742,PM10,34,117,79
India,Bihar,Motihari,"Gandak Colony, Motihari - BSPCB",18-05-2024 01:00:00,26.63086,84.90051,OZONE,12,41,28
India,Bihar,Munger,"Town Hall, Munger - BSPCB",18-05-2024 01:00:00,25.376776,86.471523,NH3,2,3,3
India,Bihar,Muzaffarpur,"Buddha Colony, Muzaffarpur - BSPCB",18-05-2024 01:00:00,26.11442,85.39813,SO2,6,12,8
India,Bihar,Muzaffarpur,"MIT-Daudpur Kothi, Muzaffarpur - BSPCB",18-05-2024 01:00:00,26.1403345,85.3650192,SO2,6,8,7
India,Bihar,Muzaffarpur,"MIT-Daudpur Kothi, Muzaffarpur - BSPCB",18-05-2024 01:00:00,26.1403345,85.3650192,OZONE,3,39,10
India,Bihar,Patna,"DRM Office Danapur, Patna - BSPCB",18-05-2024 01:00:00,25.586562,85.043586,NH3,2,3,3
India,Bihar,Patna,"Govt. High School Shikarpur, Patna - BSPCB",18-05-2024 01:00:00,25.592539,85.227158,NH3,4,5,5
India,Bihar,Patna,"Govt. High School Shikarpur, Patna - BSPCB",18-05-2024 01:00:00,25.592539,85.227158,SO2,8,11,10
India,Bihar,Patna,"Muradpur, Patna - BSPCB",18-05-2024 01:00:00,25.619651,85.147382,PM10,17,499,311
India,Bihar,Patna,"Rajbansi Nagar, Patna - BSPCB",18-05-2024 01:00:00,25.599486,85.113666,NH3,2,6,5
India,Bihar,Patna,"Rajbansi Nagar, Patna - BSPCB",18-05-2024 01:00:00,25.599486,85.113666,OZONE,2,149,17
India,Bihar,Purnia,"Mariam Nagar, Purnia - BSPCB",18-05-2024 01:00:00,25.366336,87.117468,PM2.5,40,140,85
India,Bihar,Rajgir,"Dangi Tola, Rajgir - BSPCB",18-05-2024 01:00:00,25.03280,85.41948,NH3,3,3,3
India,Bihar,Saharsa,"Police Line, Saharsa - BSPCB",18-05-2024 01:00:00,25.892357,86.590325,NO2,7,7,7
India,Bihar,Saharsa,"Police Line, Saharsa - BSPCB",18-05-2024 01:00:00,25.892357,86.590325,CO,54,55,54
India,Bihar,Saharsa,"Police Line, Saharsa - BSPCB",18-05-2024 01:00:00,25.892357,86.590325,OZONE,13,62,24
India,Bihar,Siwan,"Chitragupta Nagar, Siwan - BSPCB",18-05-2024 01:00:00,26.2271665,84.3570427,OZONE,19,112,40
India,Chandigarh,Chandigarh,"Sector-25, Chandigarh - CPCC",18-05-2024 01:00:00,30.751462,76.762879,NO2,8,48,25
India,Chandigarh,Chandigarh,"Sector-53, Chandigarh - CPCC",18-05-2024 01:00:00,30.719859,76.738637,SO2,14,91,28
India,Chhattisgarh,Bhilai,"Civic Center, Bhilai - Bhilai Steel Plant",18-05-2024 01:00:00,21.185571,81.343175,PM2.5,20,40,30
India,Chhattisgarh,Bhilai,"Civic Center, Bhilai - Bhilai Steel Plant",18-05-2024 01:00:00,21.185571,81.343175,NO2,12,18,14
India,Chhattisgarh,Bhilai,"Civic Center, Bhilai - Bhilai Steel Plant",18-05-2024 01:00:00,21.185571,81.343175,CO,17,44,38
India,Chhattisgarh,Bhilai,"Hathkhoj, Bhilai - CECB",18-05-2024 01:00:00,21.224231,81.408350,NH3,8,9,9
India,Chhattisgarh,Bhilai,"Hathkhoj, Bhilai - CECB",18-05-2024 01:00:00,21.224231,81.408350,CO,12,78,26
India,Chhattisgarh,Bhilai,"Hathkhoj, Bhilai - CECB",18-05-2024 01:00:00,21.224231,81.408350,OZONE,19,35,25
India,Chhattisgarh,Bilaspur,"Mangala, Bilaspur - NTPC",18-05-2024 01:00:00,22.08815,82.13737,PM2.5,41,70,54
India,Chhattisgarh,Chhal,"Nawapara SECL Colony, Chhal - CECB",18-05-2024 01:00:00,22.118125,83.140608,SO2,8,29,16
India,Chhattisgarh,Chhal,"Nawapara SECL Colony, Chhal - CECB",18-05-2024 01:00:00,22.118125,83.140608,CO,25,77,38
India,Chhattisgarh,Korba,"Rampur, Korba - CECB",18-05-2024 01:00:00,22.368195,82.746431,PM2.5,31,71,52
India,Chhattisgarh,Korba,"Rampur, Korba - CECB",18-05-2024 01:00:00,22.368195,82.746431,PM10,57,113,86
India,Chhattisgarh,Korba,"Rampur, Korba - CECB",18-05-2024 01:00:00,22.368195,82.746431,NH3,1,2,1
India,Chhattisgarh,Korba,"Rampur, Korba - CECB",18-05-2024 01:00:00,22.368195,82.746431,OZONE,9,35,14
India,Chhattisgarh,Korba,"Urja Nagar, Korba - CECB",18-05-2024 01:00:00,22.348441,82.549611,CO,32,121,43
India,Chhattisgarh,Kunjemura,"OP Jindal School, Kunjemura - CECB",18-05-2024 01:00:00,22.126650,83.483212,PM10,52,219,105
India,Chhattisgarh,Kunjemura,"OP Jindal School, Kunjemura - CECB",18-05-2024 01:00:00,22.126650,83.483212,CO,24,80,32
India,Chhattisgarh,Kunjemura,"OP Jindal School, Kunjemura - CECB",18-05-2024 01:00:00,22.126650,83.483212,OZONE,4,31,19
India,Chhattisgarh,Milupara,"Govt. Higher Secondary School, Milupara - CECB",18-05-2024 01:00:00,22.1910172,83.5197009,SO2,NA,NA,NA
India,Chhattisgarh,Raipur,"AIIMS, Raipur - CECB",18-05-2024 01:00:00,21.258815,81.578979,PM2.5,30,71,42
India,Chhattisgarh,Raipur,"AIIMS, Raipur - CECB",18-05-2024 01:00:00,21.258815,81.578979,NH3,6,6,6
India,Chhattisgarh,Raipur,"Bhatagaon New ISBT, Raipur - CECB",18-05-2024 01:00:00,21.219665,81.630094,PM10,NA,NA,NA
India,Chhattisgarh,Raipur,"Bhatagaon New ISBT, Raipur - CECB",18-05-2024 01:00:00,21.219665,81.630094,CO,17,31,24
India,Chhattisgarh,Raipur,"Bhatagaon New ISBT, Raipur - CECB",18-05-2024 01:00:00,21.219665,81.630094,OZONE,3,5,4
India,Chhattisgarh,Raipur,"Krishak Nagar, Raipur - CECB",18-05-2024 01:00:00,21.237755,81.705301,NH3,1,1,1
India,Chhattisgarh,Raipur,"Siltara Phase-II, Raipur - CECB",18-05-2024 01:00:00,21.371751,81.664929,PM2.5,48,200,95
India,Chhattisgarh,Raipur,"Siltara Phase-II, Raipur - CECB",18-05-2024 01:00:00,21.371751,81.664929,PM10,39,121,72
India,Delhi,Delhi,"Alipur, Delhi - DPCC",18-05-2024 01:00:00,28.815329,77.153010,NO2,4,125,65
India,Delhi,Delhi,"Alipur, Delhi - DPCC",18-05-2024 01:00:00,28.815329,77.153010,CO,40,106,62
India,Delhi,Delhi,"Anand Vihar, Delhi - DPCC",18-05-2024 01:00:00,28.647622,77.3158090,SO2,9,52,30
India,Delhi,Delhi,"Anand Vihar, Delhi - DPCC",18-05-2024 01:00:00,28.647622,77.3158090,OZONE,10,210,29
India,Delhi,Delhi,"Ashok Vihar, Delhi - DPCC",18-05-2024 01:00:00,28.695381,77.181665,NH3,6,20,14
India,Delhi,Delhi,"Ashok Vihar, Delhi - DPCC",18-05-2024 01:00:00,28.695381,77.181665,SO2,18,51,30
India,Delhi,Delhi,"Ashok Vihar, Delhi - DPCC",18-05-2024 01:00:00,28.695381,77.181665,OZONE,5,257,46
India,Delhi,Delhi,"Aya Nagar, Delhi - IMD",18-05-2024 01:00:00,28.4706914,77.1099364,OZONE,4,76,24
India,Delhi,Delhi,"Bawana, Delhi - DPCC",18-05-2024 01:00:00,28.776200,77.051074,PM2.5,75,359,256
India,Delhi,Delhi,"Burari Crossing, Delhi - IMD",18-05-2024 01:00:00,28.7256504,77.2011573,CO,40,104,68
India,Delhi,Delhi,"CRRI Mathura Road, Delhi - IMD",18-05-2024 01:00:00,28.5512005,77.2735737,OZONE,4,126,21
India,Delhi,Delhi,"Dr. Karni Singh Shooting Range, Delhi - DPCC",18-05-2024 01:00:00,28.498571,77.264840,NO2,21,144,54
India,Delhi,Delhi,"Dwarka-Sector 8, Delhi - DPCC ",18-05-2024 01:00:00,28.5710274,77.0719006,CO,39,184,109
India,Delhi,Delhi,"IHBAS, Dilshad Garden, Delhi - CPCB",18-05-2024 01:00:00,28.6811736,77.3025234,SO2,3,36,18
India,Delhi,Delhi,"ITO, Delhi - CPCB",18-05-2024 01:00:00,28.628624,77.241060,PM2.5,92,314,203
India,Delhi,Delhi,"ITO, Delhi - CPCB",18-05-2024 01:00:00,28.628624,77.241060,SO2,3,25,12
India,Delhi,Delhi,"Jahangirpuri, Delhi - DPCC",18-05-2024 01:00:00,28.732820,77.170633,NH3,1,3,2
India,Delhi,Delhi,"Lodhi Road, Delhi - IMD",18-05-2024 01:00:00,28.5918245,77.2273074,NO2,9,41,25
India,Delhi,Delhi,"Lodhi Road, Delhi - IMD",18-05-2024 01:00:00,28.5918245,77.2273074,OZONE,4,73,16
India,Delhi,Delhi,"Mandir Marg, Delhi - DPCC",18-05-2024 01:00:00,28.636429,77.201067,PM10,84,213,136
India,Delhi,Delhi,"Mandir Marg, Delhi - DPCC",18-05-2024 01:00:00,28.636429,77.201067,SO2,5,16,9
India,Delhi,Delhi,"Mundka, Delhi - DPCC",18-05-2024 01:00:00,28.684678,77.076574,NO2,42,134,84
India,Delhi,Delhi,"Mundka, Delhi - DPCC",18-05-2024 01:00:00,28.684678,77.076574,CO,35,80,58
India,Delhi,Delhi,"Najafgarh, Delhi - DPCC",18-05-2024 01:00:00,28.570173,76.933762,CO,22,67,55
India,Delhi,Delhi,"Narela, Delhi - DPCC",18-05-2024 01:00:00,28.822836,77.101981,NO2,13,152,70
India,Delhi,Delhi,"Nehru Nagar, Delhi - DPCC",18-05-2024 01:00:00,28.567890,77.250515,NO2,8,84,40
India,Delhi,Delhi,"Nehru Nagar, Delhi - DPCC",18-05-2024 01:00:00,28.567890,77.250515,CO,32,95,62
India,Delhi,Delhi,"New Moti Bagh, Delhi - MHUA",18-05-2024 01:00:00,28.57834,77.18400,PM2.5,64,322,148
India,Delhi,Delhi,"Punjabi Bagh, Delhi - DPCC",18-05-2024 01:00:00,28.674045,77.131023,NO2,42,93,63
India,Delhi,Delhi,"Punjabi Bagh, Delhi - DPCC",18-05-2024 01:00:00,28.674045,77.131023,NH3,3,5,4
India,Delhi,Delhi,"Punjabi Bagh, Delhi - DPCC",18-05-2024 01:00:00,28.674045,77.131023,CO,20,116,74
India,Delhi,Delhi,"Pusa, Delhi - DPCC",18-05-2024 01:00:00,28.639652,77.146275,PM2.5,70,312,141
India,Delhi,Delhi,"Pusa, Delhi - IMD",18-05-2024 01:00:00,28.636110,77.173332,PM2.5,NA,NA,NA
India,Delhi,Delhi,"Pusa, Delhi - IMD",18-05-2024 01:00:00,28.636110,77.173332,CO,NA,NA,NA
India,Delhi,Delhi,"R K Puram, Delhi - DPCC",18-05-2024 01:00:00,28.563262,77.186937,PM10,112,429,222
India,Delhi,Delhi,"R K Puram, Delhi - DPCC",18-05-2024 01:00:00,28.563262,77.186937,OZONE,16,248,71
India,Delhi,Delhi,"Rohini, Delhi - DPCC",18-05-2024 01:00:00,28.732528,77.119920,NO2,18,269,106
India,Delhi,Delhi,"Rohini, Delhi - DPCC",18-05-2024 01:00:00,28.732528,77.119920,OZONE,4,276,52
India,Delhi,Delhi,"Shadipur, Delhi - CPCB",18-05-2024 01:00:00,28.6514781,77.1473105,NO2,59,351,176
India,Delhi,Delhi,"Shadipur, Delhi - CPCB",18-05-2024 01:00:00,28.6514781,77.1473105,NH3,8,10,8
India,Delhi,Delhi,"Shadipur, Delhi - CPCB",18-05-2024 01:00:00,28.6514781,77.1473105,SO2,3,104,28
India,Delhi,Delhi,"Shadipur, Delhi - CPCB",18-05-2024 01:00:00,28.6514781,77.1473105,CO,32,116,82
India,Delhi,Delhi,"Sirifort, Delhi - CPCB",18-05-2024 01:00:00,28.5504249,77.2159377,CO,16,164,103
India,Delhi,Delhi,"Sri Aurobindo Marg, Delhi - DPCC",18-05-2024 01:00:00,28.531346,77.190156,NO2,7,80,35
India,Delhi,Delhi,"Vivek Vihar, Delhi - DPCC",18-05-2024 01:00:00,28.672342,77.315260,CO,16,133,87
India,Gujarat,Ahmedabad,"Chandkheda, Ahmedabad - IITM",18-05-2024 01:00:00,23.107969,72.574648,NO2,52,69,59
India,Gujarat,Ahmedabad,"Chandkheda, Ahmedabad - IITM",18-05-2024 01:00:00,23.107969,72.574648,CO,2,62,24
India,Gujarat,Ahmedabad,"Gyaspur, Ahmedabad - IITM",18-05-2024 01:00:00,22.977134,72.553024,NO2,38,50,45
India,Gujarat,Ahmedabad,"Gyaspur, Ahmedabad - IITM",18-05-2024 01:00:00,22.977134,72.553024,CO,38,56,48
India,Gujarat,Ahmedabad,"Raikhad, Ahmedabad - IITM",18-05-2024 01:00:00,23.020509,72.579261,PM2.5,4,305,129
India,Gujarat,Ahmedabad,"Raikhad, Ahmedabad - IITM",18-05-2024 01:00:00,23.020509,72.579261,SO2,NA,NA,NA
India,Gujarat,Ahmedabad,"Rakhial, Ahmedabad - IITM",18-05-2024 01:00:00,23.016834,72.625775,NO2,37,239,111
India,Gujarat,Ahmedabad,"Rakhial, Ahmedabad - IITM",18-05-2024 01:00:00,23.016834,72.625775,NH3,15,42,22
India,Gujarat,Ahmedabad,"Rakhial, Ahmedabad - IITM",18-05-2024 01:00:00,23.016834,72.625775,SO2,8,21,12
India,Gujarat,Ahmedabad,"SVPI Airport Hansol, Ahmedabad - IITM",18-05-2024 01:00:00,23.076793,72.627874,PM10,108,168,121
India,Gujarat,Ahmedabad,"SVPI Airport Hansol, Ahmedabad - IITM",18-05-2024 01:00:00,23.076793,72.627874,NO2,31,42,38
India,Gujarat,Ahmedabad,"SVPI Airport Hansol, Ahmedabad - IITM",18-05-2024 01:00:00,23.076793,72.627874,NH3,5,6,5
India,Gujarat,Ahmedabad,"Sardar Vallabhbhai Patel Stadium, Ahmedabad - IITM",18-05-2024 01:00:00,23.043070,72.562968,NH3,6,6,6
India,Gujarat,Ankleshwar,"GIDC, Ankleshwar - GPCB",18-05-2024 01:00:00,21.613267,73.010555,CO,4,104,53
India,Gujarat,Ankleshwar,"GIDC, Ankleshwar - GPCB",18-05-2024 01:00:00,21.613267,73.010555,OZONE,22,42,32
India,Gujarat,Gandhinagar,"Sector-10, Gandhinagar - GPCB",18-05-2024 01:00:00,23.221714,72.654328,OZONE,3,52,25
India,Gujarat,Surat,"Science Center, Surat - SMC",18-05-2024 01:00:00,21.170046,72.795405,CO,5,30,21
India,Gujarat,Vapi,"Phase-1 GIDC, Vapi - GPCB",18-05-2024 01:00:00,20.362421,72.918013,PM10,51,82,68
India,Haryana,Ambala,"Patti Mehar, Ambala - HSPCB",18-05-2024 01:00:00,30.379589,76.778328,NO2,NA,NA,NA
India,Haryana,Bahadurgarh,"Arya Nagar, Bahadurgarh - HSPCB",18-05-2024 01:00:00,28.6701,76.9254,SO2,2,118,35
India,Haryana,Bahadurgarh,"Arya Nagar, Bahadurgarh - HSPCB",18-05-2024 01:00:00,28.6701,76.9254,OZONE,34,40,37
India,Haryana,Charkhi Dadri,"Mini Secretariat, Charkhi Dadri - HSPCB",18-05-2024 01:00:00,28.593883,76.270653,NO2,15,23,18
India,Haryana,Charkhi Dadri,"Mini Secretariat, Charkhi Dadri - HSPCB",18-05-2024 01:00:00,28.593883,76.270653,NH3,6,8,7
India,Haryana,Dharuhera,"Municipal Corporation Office, Dharuhera -  HSPCB",18-05-2024 01:00:00,28.206800,76.799700,PM10,58,455,173
India,Haryana,Dharuhera,"Municipal Corporation Office, Dharuhera -  HSPCB",18-05-2024 01:00:00,28.206800,76.799700,SO2,4,99,16
India,Haryana,Faridabad,"New Industrial Town, Faridabad - HSPCB",18-05-2024 01:00:00,28.39072,77.30059,PM2.5,94,500,294
India,Haryana,Faridabad,"New Industrial Town, Faridabad - HSPCB",18-05-2024 01:00:00,28.39072,77.30059,NO2,11,24,17
India,Haryana,Faridabad,"New Industrial Town, Faridabad - HSPCB",18-05-2024 01:00:00,28.39072,77.30059,CO,3,144,65
India,Haryana,Faridabad,"Sector 30, Faridabad - HSPCB",18-05-2024 01:00:00,28.4417,77.3217,PM2.5,248,306,287
India,Haryana,Faridabad,"Sector- 16A, Faridabad - HSPCB",18-05-2024 01:00:00,28.4088421,77.3099081,NO2,1,27,11
India,Haryana,Gurugram,"Sector-51, Gurugram - HSPCB",18-05-2024 01:00:00,28.4227,77.0667,NO2,13,29,23
India,Haryana,Gurugram,"Sector-51, Gurugram - HSPCB",18-05-2024 01:00:00,28.4227,77.0667,NH3,7,14,9
India,Haryana,Gurugram,"Sector-51, Gurugram - HSPCB",18-05-2024 01:00:00,28.4227,77.0667,SO2,3,8,4
India,Haryana,Gurugram,"Teri Gram, Gurugram - HSPCB",18-05-2024 01:00:00,28.4275,77.1465,NO2,NA,NA,NA
India,Haryana,Gurugram,"Teri Gram, Gurugram - HSPCB",18-05-2024 01:00:00,28.4275,77.1465,NH3,NA,NA,NA
India,Haryana,Gurugram,"Teri Gram, Gurugram - HSPCB",18-05-2024 01:00:00,28.4275,77.1465,SO2,NA,NA,NA
India,Haryana,Gurugram,"Vikas Sadan, Gurugram - HSPCB",18-05-2024 01:00:00,28.4501238,77.0263051,OZONE,8,69,22
India,Haryana,Hisar,"Urban Estate-II, Hisar - HSPCB",18-05-2024 01:00:00,29.140560,75.744941,NO2,22,42,28
India,Haryana,Hisar,"Urban Estate-II, Hisar - HSPCB",18-05-2024 01:00:00,29.140560,75.744941,NH3,8,17,11
India,Haryana,Hisar,"Urban Estate-II, Hisar - HSPCB",18-05-2024 01:00:00,29.140560,75.744941,CO,20,84,35
India,Haryana,Hisar,"Urban Estate-II, Hisar - HSPCB",18-05-2024 01:00:00,29.140560,75.744941,OZONE,25,203,100
India,Haryana,Jind,"Police Lines, Jind - HSPCB",18-05-2024 01:00:00,29.307814,76.337619,NH3,NA,NA,NA
India,Haryana,Karnal,"Sector-12, Karnal - HSPCB",18-05-2024 01:00:00,29.695300,77.002700,NO2,7,12,10
India,Haryana,Karnal,"Sector-12, Karnal - HSPCB",18-05-2024 01:00:00,29.695300,77.002700,SO2,12,13,12
India,Haryana,Kurukshetra,"Sector-7, Kurukshetra - HSPCB",18-05-2024 01:00:00,29.966942,76.875879,NH3,5,5,5
India,Haryana,Kurukshetra,"Sector-7, Kurukshetra - HSPCB",18-05-2024 01:00:00,29.966942,76.875879,SO2,2,3,2
India,Haryana,Kurukshetra,"Sector-7, Kurukshetra - HSPCB",18-05-2024 01:00:00,29.966942,76.875879,OZONE,4,101,90
India,Haryana,Mandikhera,"General Hospital, Mandikhera - HSPCB",18-05-2024 01:00:00,27.9002,76.9938,PM10,51,128,97
India,Haryana,Mandikhera,"General Hospital, Mandikhera - HSPCB",18-05-2024 01:00:00,27.9002,76.9938,NO2,18,24,21
India,Haryana,Mandikhera,"General Hospital, Mandikhera - HSPCB",18-05-2024 01:00:00,27.9002,76.9938,NH3,17,20,18
India,Haryana,Mandikhera,"General Hospital, Mandikhera - HSPCB",18-05-2024 01:00:00,27.9002,76.9938,CO,2,50,11
India,Haryana,Manesar,"Sector-2 IMT, Manesar - HSPCB",18-05-2024 01:00:00,28.360699,76.936090,CO,12,98,50
India,Haryana,Narnaul,"Shastri Nagar, Narnaul - HSPCB",18-05-2024 01:00:00,28.060249,76.113115,PM10,NA,NA,NA
India,Haryana,Palwal,"Shyam Nagar, Palwal - HSPCB",18-05-2024 01:00:00,28.1485564,77.3320667,NH3,8,9,9
India,Haryana,Panchkula,"Sector-6, Panchkula - HSPCB ",18-05-2024 01:00:00,30.7057778,76.8531805555555,OZONE,30,63,42
India,Haryana,Panipat,"Sector-18, Panipat - HSPCB",18-05-2024 01:00:00,29.432304,76.972765,NO2,31,32,31
India,Haryana,Rohtak,"MD University, Rohtak - HSPCB",18-05-2024 01:00:00,28.52123,76.37138,OZONE,44,60,50
India,Haryana,Sirsa,"F-Block, Sirsa - HSPCB",18-05-2024 01:00:00,29.536400,75.015800,OZONE,17,78,64
India,Haryana,Sonipat,"Murthal, Sonipat - HSPCB",18-05-2024 01:00:00,29.027200,77.062100,NO2,37,44,40
India,Haryana,Sonipat,"Murthal, Sonipat - HSPCB",18-05-2024 01:00:00,29.027200,77.062100,CO,16,137,24
India,Haryana,Yamuna Nagar,"Gobind Pura, Yamuna Nagar - HSPCB",18-05-2024 01:00:00,30.1480566,77.2893471,OZONE,52,76,60
India,Himachal Pradesh,Baddi,"HIMUDA Complex Phase-1, Baddi - HPPCB",18-05-2024 01:00:00,30.943887,76.801991,PM10,127,409,179
India,Jammu_and_Kashmir,Srinagar,"Rajbagh, Srinagar - JKSPCB",18-05-2024 01:00:00,34.066206,74.819820,CO,20,28,20
India,Jharkhand,Jorapokhar,"Tata Stadium, Jorapokhar - JSPCB",18-05-2024 01:00:00,23.707909,86.414670,PM10,NA,NA,NA
India,Jharkhand,Jorapokhar,"Tata Stadium, Jorapokhar - JSPCB",18-05-2024 01:00:00,23.707909,86.414670,NH3,NA,NA,NA
India,Karnataka,Bagalkot,"Vidayagiri, Bagalkot - KSPCB",18-05-2024 01:00:00,16.172806,75.659694,PM10,46,46,46
India,Karnataka,Bagalkot,"Vidayagiri, Bagalkot - KSPCB",18-05-2024 01:00:00,16.172806,75.659694,SO2,NA,NA,NA
India,Karnataka,Bengaluru,"Bapuji Nagar, Bengaluru - KSPCB",18-05-2024 01:00:00,12.951913,77.539784,CO,4,84,51
India,Karnataka,Bengaluru,"Bapuji Nagar, Bengaluru - KSPCB",18-05-2024 01:00:00,12.951913,77.539784,OZONE,10,24,20
India,Karnataka,Bengaluru,"Hebbal, Bengaluru - KSPCB",18-05-2024 01:00:00,13.029152,77.585901,PM10,NA,NA,NA
India,Karnataka,Bengaluru,"Hebbal, Bengaluru - KSPCB",18-05-2024 01:00:00,13.029152,77.585901,CO,7,35,18
India,Karnataka,Bengaluru,"Hombegowda Nagar, Bengaluru - KSPCB",18-05-2024 01:00:00,12.938539,77.590100,PM2.5,11,32,24
India,Karnataka,Bengaluru,"Hombegowda Nagar, Bengaluru - KSPCB",18-05-2024 01:00:00,12.938539,77.590100,PM10,17,48,36
India,Karnataka,Bengaluru,"Hombegowda Nagar, Bengaluru - KSPCB",18-05-2024 01:00:00,12.938539,77.590100,NO2,9,25,18
India,Karnataka,Bengaluru,"Hombegowda Nagar, Bengaluru - KSPCB",18-05-2024 01:00:00,12.938539,77.590100,NH3,2,2,2
India,Karnataka,Bengaluru,"Jayanagar 5th Block, Bengaluru - KSPCB",18-05-2024 01:00:00,12.920984,77.584908,NO2,19,26,22
India,Karnataka,Bengaluru,"Kasturi Nagar, Bengaluru - KSPCB",18-05-2024 01:00:00,13.003872,77.664217,SO2,10,10,10
India,Karnataka,Bengaluru,"Peenya, Bengaluru - CPCB",18-05-2024 01:00:00,13.0270199,77.494094,PM10,43,57,50
India,Karnataka,Bengaluru,"Peenya, Bengaluru - CPCB",18-05-2024 01:00:00,13.0270199,77.494094,SO2,13,17,15
India,Karnataka,Bengaluru,"Shivapura_Peenya, Bengaluru - KSPCB",18-05-2024 01:00:00,13.0246342,77.5080115,SO2,3,8,4
India,Karnataka,Bengaluru,"Shivapura_Peenya, Bengaluru - KSPCB",18-05-2024 01:00:00,13.0246342,77.5080115,OZONE,53,55,54
India,Karnataka,Bengaluru,"Silk Board, Bengaluru - KSPCB",18-05-2024 01:00:00,12.917348,77.622813,NH3,NA,NA,NA
India,Karnataka,Bengaluru,"Silk Board, Bengaluru - KSPCB",18-05-2024 01:00:00,12.917348,77.622813,CO,6,14,10
India,Karnataka,Bidar,"Naubad, Bidar - KSPCB",18-05-2024 01:00:00,17.930306,77.482194,PM2.5,11,55,33
India,Karnataka,Bidar,"Naubad, Bidar - KSPCB",18-05-2024 01:00:00,17.930306,77.482194,NO2,7,8,8
India,Karnataka,Bidar,"Naubad, Bidar - KSPCB",18-05-2024 01:00:00,17.930306,77.482194,CO,61,89,80
India,Karnataka,Chamarajanagar,"Urban, Chamarajanagar - KSPCB",18-05-2024 01:00:00,11.55358,76.55521,PM10,31,58,41
India,Karnataka,Chamarajanagar,"Urban, Chamarajanagar - KSPCB",18-05-2024 01:00:00,11.55358,76.55521,SO2,2,8,4
India,Karnataka,Chamarajanagar,"Urban, Chamarajanagar - KSPCB",18-05-2024 01:00:00,11.55358,76.55521,OZONE,14,35,20
India,Karnataka,Davanagere,"Devaraj Urs Badavane, Davanagere - KSPCB",18-05-2024 01:00:00,14.475800,75.905200,NO2,11,14,13
India,Karnataka,Gadag,"Panchal Nagar, Gadag - KSPCB",18-05-2024 01:00:00,15.411456,75.638133,NO2,4,31,15
India,Karnataka,Gadag,"Panchal Nagar, Gadag - KSPCB",18-05-2024 01:00:00,15.411456,75.638133,SO2,9,23,14
India,Karnataka,Hassan,"B.Katihalli, Hassan - KSPCB",18-05-2024 01:00:00,13.008556,76.125258,NH3,4,11,6
India,Karnataka,Hassan,"B.Katihalli, Hassan - KSPCB",18-05-2024 01:00:00,13.008556,76.125258,SO2,1,2,1
India,Karnataka,Hassan,"B.Katihalli, Hassan - KSPCB",18-05-2024 01:00:00,13.008556,76.125258,CO,2,4,4
India,Karnataka,Haveri,"Ashwini Nagar, Haveri - KSPCB",18-05-2024 01:00:00,14.791800,75.389600,NH3,NA,NA,NA
India,Karnataka,Haveri,"Ashwini Nagar, Haveri - KSPCB",18-05-2024 01:00:00,14.791800,75.389600,OZONE,32,78,65
India,Karnataka,Hubballi,"Deshpande Nagar, Hubballi - KSPCB",18-05-2024 01:00:00,15.351773,75.140726,NO2,23,26,25
India,Karnataka,Hubballi,"Deshpande Nagar, Hubballi - KSPCB",18-05-2024 01:00:00,15.351773,75.140726,NH3,4,6,5
India,Karnataka,Hubballi,"Lingaraj Nagar, Hubballi - KSPCB",18-05-2024 01:00:00,15.3714823,75.1160168,OZONE,18,82,41
India,Karnataka,Kalaburagi,"Lal Bahadur Shastri Nagar, Kalaburagi - KSPCB",18-05-2024 01:00:00,17.321993,76.822628,NH3,2,2,2
India,Karnataka,Kalaburagi,"Mahatma Basaveswar Colony, Kalaburgi - KSPCB",18-05-2024 01:00:00,17.336318,76.847397,SO2,2,8,4
India,Karnataka,Karwar,"KHB Colony, Karwar - KSPCB",18-05-2024 01:00:00,14.816666,74.141003,PM10,22,70,43
India,Karnataka,Koppal,"Diwator Nagar, Koppal - KSPCB",18-05-2024 01:00:00,15.347630,76.181767,NH3,6,10,8
India,Karnataka,Koppal,"Diwator Nagar, Koppal - KSPCB",18-05-2024 01:00:00,15.347630,76.181767,SO2,26,28,27
India,Karnataka,Mangalore,"Kadri, Mangalore - KSPCB",18-05-2024 01:00:00,12.889250,74.853000,PM2.5,4,40,25
India,Karnataka,Mangalore,"Kadri, Mangalore - KSPCB",18-05-2024 01:00:00,12.889250,74.853000,NH3,1,2,2
India,Karnataka,Mangalore,"Kadri, Mangalore - KSPCB",18-05-2024 01:00:00,12.889250,74.853000,OZONE,31,33,32
India,Karnataka,Mysuru,"Hebbal 1st Stage, Mysuru - KSPCB",18-05-2024 01:00:00,12.21041,76.37376,PM2.5,NA,NA,NA
India,Karnataka,Mysuru,"Hebbal 1st Stage, Mysuru - KSPCB",18-05-2024 01:00:00,12.21041,76.37376,CO,NA,NA,NA
India,Karnataka,Raichur,"Haji Colony, Raichur - KSPCB",18-05-2024 01:00:00,16.208139,77.348417,PM10,NA,NA,NA
India,Karnataka,Ramanagara,"Vijay Nagar, Ramanagara - KSPCB",18-05-2024 01:00:00,12.733409,77.298051,PM2.5,17,46,34
India,Karnataka,Ramanagara,"Vijay Nagar, Ramanagara - KSPCB",18-05-2024 01:00:00,12.733409,77.298051,CO,10,33,17
India,Karnataka,Ramanagara,"Vijay Nagar, Ramanagara - KSPCB",18-05-2024 01:00:00,12.733409,77.298051,OZONE,28,38,29
India,Karnataka,Shivamogga,"Vinoba Nagara, Shivamogga - KSPCB",18-05-2024 01:00:00,13.940000,75.555917,PM2.5,27,53,38
