country,state,city,station,last_update,latitude,longitude,pollutant_id,pollutant_min,pollutant_max,pollutant_avg
India,Andhra_Pradesh,Amaravati,"Secretariat, Amaravati - APPCB",02-06-2024 22:00:00,16.5150833,80.5181667,NO2,3,14,7
India,Andhra_Pradesh,Amaravati,"Secretariat, Amaravati - APPCB",02-06-2024 22:00:00,16.5150833,80.5181667,SO2,12,19,14
India,Andhra_Pradesh,Amaravati,"Secretariat, Amaravati - APPCB",02-06-2024 22:00:00,16.5150833,80.5181667,OZONE,25,45,38
India,Andhra_Pradesh,Anantapur,"Gulzarpet, Anantapur - APPCB",02-06-2024 22:00:00,14.675886,77.593027,NO2,12,13,12
India,Andhra_Pradesh,Anantapur,"Gulzarpet, Anantapur - APPCB",02-06-2024 22:00:00,14.675886,77.593027,SO2,5,13,7
India,Andhra_Pradesh,Anantapur,"Gulzarpet, Anantapur - APPCB",02-06-2024 22:00:00,14.675886,77.593027,CO,19,60,40
India,Andhra_Pradesh,Chittoor,"Gangineni Cheruvu, Chittoor - APPCB",02-06-2024 22:00:00,13.204880,79.097889,PM2.5,NA,NA,NA
India,Andhra_Pradesh,Chittoor,"Gangineni Cheruvu, Chittoor - APPCB",02-06-2024 22:00:00,13.204880,79.097889,OZONE,NA,NA,NA
India,Andhra_Pradesh,Kadapa,"Yerramukkapalli, Kadapa - APPCB",02-06-2024 22:00:00,14.465052,78.824187,PM10,29,73,34
India,Andhra_Pradesh,Kadapa,"Yerramukkapalli, Kadapa - APPCB",02-06-2024 22:00:00,14.465052,78.824187,NH3,3,4,3
India,Andhra_Pradesh,Kadapa,"Yerramukkapalli, Kadapa - APPCB",02-06-2024 22:00:00,14.465052,78.824187,OZONE,7,65,64
India,Andhra_Pradesh,Rajamahendravaram,"Anand Kala Kshetram, Rajamahendravaram - APPCB",02-06-2024 22:00:00,16.9872867,81.7363176,NO2,8,28,16
India,Andhra_Pradesh,Tirupati,"Vaikuntapuram, Tirupati - APPCB",02-06-2024 22:00:00,13.615387,79.409230,NH3,NA,NA,NA
India,Andhra_Pradesh,Tirupati,"Vaikuntapuram, Tirupati - APPCB",02-06-2024 22:00:00,13.615387,79.409230,OZONE,7,28,13
India,Andhra_Pradesh,Vijayawada,"HB Colony, Vijayawada - APPCB",02-06-2024 22:00:00,16.536107,80.594233,PM10,45,131,70
India,Andhra_Pradesh,Vijayawada,"Kanuru, Vijayawada - APPCB",02-06-2024 22:00:00,16.486692,80.699436,OZONE,40,40,40
India,Andhra_Pradesh,Vijayawada,"Rajiv Gandhi Park, Vijayawada - APPCB",02-06-2024 22:00:00,16.509717,80.612222,SO2,6,7,7
India,Andhra_Pradesh,Vijayawada,"Rajiv Nagar, Vijayawada - APPCB",02-06-2024 22:00:00,16.554731,80.649110,NO2,10,10,10
India,Andhra_Pradesh,Vijayawada,"Rajiv Nagar, Vijayawada - APPCB",02-06-2024 22:00:00,16.554731,80.649110,NH3,2,2,2
India,Andhra_Pradesh,Vijayawada,"Rajiv Nagar, Vijayawada - APPCB",02-06-2024 22:00:00,16.554731,80.649110,CO,38,38,38
India,Andhra_Pradesh,Visakhapatnam,"GVM Corporation, Visakhapatnam - APPCB",02-06-2024 22:00:00,17.72,83.3,PM2.5,NA,NA,NA
India,Assam,Byrnihat,"Central Academy for SFS, Byrnihat - PCBA",02-06-2024 22:00:00,26.071318,91.87488,PM10,26,169,64
India,Assam,Byrnihat,"Central Academy for SFS, Byrnihat - PCBA",02-06-2024 22:00:00,26.071318,91.87488,OZONE,23,95,25
India,Assam,Guwahati,"IITG, Guwahati - PCBA",02-06-2024 22:00:00,26.2028636,91.70046436,PM10,26,61,40
India,Assam,Guwahati,"IITG, Guwahati - PCBA",02-06-2024 22:00:00,26.2028636,91.70046436,NH3,5,5,5
India,Assam,Guwahati,"IITG, Guwahati - PCBA",02-06-2024 22:00:00,26.2028636,91.70046436,SO2,12,14,13
India,Assam,Guwahati,"Railway Colony, Guwahati - PCBA",02-06-2024 22:00:00,26.181742,91.78063,NO2,3,3,3
India,Assam,Guwahati,"Railway Colony, Guwahati - PCBA",02-06-2024 22:00:00,26.181742,91.78063,SO2,7,14,12
India,Assam,Nalbari,"Bata Chowk, Nalbari - PCBA",02-06-2024 22:00:00,26.446912,91.439057,SO2,4,9,7
India,Assam,Nalbari,"Bata Chowk, Nalbari - PCBA",02-06-2024 22:00:00,26.446912,91.439057,CO,14,48,38
India,Assam,Silchar,"Tarapur, Silchar - PCBA",02-06-2024 22:00:00,24.82827,92.79525,NH3,1,1,1
India,Assam,Silchar,"Tarapur, Silchar - PCBA",02-06-2024 22:00:00,24.82827,92.79525,CO,25,60,54
India,Bihar,Aurangabad,"Gurdeo Nagar, Aurangabad - BSPCB",02-06-2024 22:00:00,24.75746,84.366208,NH3,2,29,14
India,Bihar,Bettiah,"Kamalnath Nagar, Bettiah - BSPCB",02-06-2024 22:00:00,26.80365,84.51954,NH3,23,30,27
India,Bihar,Bhagalpur,"DM Office_Kachari Chowk, Bhagalpur - BSPCB",02-06-2024 22:00:00,25.251013,86.989001,CO,15,70,39
India,Bihar,Bhagalpur,"Mayaganj, Bhagalpur - BSPCB",02-06-2024 22:00:00,25.265194,87.012947,PM2.5,19,120,58
India,Bihar,Bhagalpur,"Mayaganj, Bhagalpur - BSPCB",02-06-2024 22:00:00,25.265194,87.012947,NO2,2,11,7
India,Bihar,Bhagalpur,"Mayaganj, Bhagalpur - BSPCB",02-06-2024 22:00:00,25.265194,87.012947,SO2,11,12,12
India,Bihar,Bihar Sharif,"D M Colony, Bihar Sharif - BSPCB",02-06-2024 22:00:00,25.204762,85.514960,NH3,4,5,4
India,Bihar,Buxar,"Charitra Van, Buxar - BSPCB (Formerly known as Central Jail)",02-06-2024 22:00:00,25.567520,83.966379,NO2,NA,NA,NA
India,Bihar,Buxar,"Charitra Van, Buxar - BSPCB (Formerly known as Central Jail)",02-06-2024 22:00:00,25.567520,83.966379,NH3,NA,NA,NA
India,Bihar,Buxar,"Charitra Van, Buxar - BSPCB (Formerly known as Central Jail)",02-06-2024 22:00:00,25.567520,83.966379,CO,36,85,56
India,Bihar,Gaya,"SFTI Kusdihra, Gaya - BSPCB",02-06-2024 22:00:00,24.762518,84.982348,NH3,1,5,3
India,Bihar,Hajipur,"Industrial Area, Hajipur - BSPCB",02-06-2024 22:00:00,25.697189,85.245900,PM2.5,63,172,105
India,Bihar,Hajipur,"Industrial Area, Hajipur - BSPCB",02-06-2024 22:00:00,25.697189,85.245900,SO2,6,7,7
India,Bihar,Hajipur,"Industrial Area, Hajipur - BSPCB",02-06-2024 22:00:00,25.697189,85.245900,CO,20,36,26
India,Bihar,Motihari,"Gandak Colony, Motihari - BSPCB",02-06-2024 22:00:00,26.63086,84.90051,PM2.5,16,83,34
India,Bihar,Munger,"Town Hall, Munger - BSPCB",02-06-2024 22:00:00,25.376776,86.471523,CO,42,64,50
India,Bihar,Muzaffarpur,"Buddha Colony, Muzaffarpur - BSPCB",02-06-2024 22:00:00,26.11442,85.39813,CO,10,38,22
India,Bihar,Muzaffarpur,"MIT-Daudpur Kothi, Muzaffarpur - BSPCB",02-06-2024 22:00:00,26.1403345,85.3650192,NO2,3,6,5
India,Bihar,Muzaffarpur,"MIT-Daudpur Kothi, Muzaffarpur - BSPCB",02-06-2024 22:00:00,26.1403345,85.3650192,CO,8,82,15
India,Bihar,Muzaffarpur,"Muzaffarpur Collectorate, Muzaffarpur - BSPCB",02-06-2024 22:00:00,26.1209,85.3647,NO2,27,54,35
India,Bihar,Muzaffarpur,"Muzaffarpur Collectorate, Muzaffarpur - BSPCB",02-06-2024 22:00:00,26.1209,85.3647,CO,36,51,44
India,Bihar,Patna,"Govt. High School Shikarpur, Patna - BSPCB",02-06-2024 22:00:00,25.592539,85.227158,OZONE,1,59,33
India,Bihar,Patna,"IGSC Planetarium Complex, Patna - BSPCB",02-06-2024 22:00:00,25.610369,85.132568,NO2,13,13,13
India,Bihar,Patna,"IGSC Planetarium Complex, Patna - BSPCB",02-06-2024 22:00:00,25.610369,85.132568,SO2,5,7,6
India,Bihar,Patna,"Muradpur, Patna - BSPCB",02-06-2024 22:00:00,25.619651,85.147382,CO,26,78,51
India,Bihar,Patna,"Muradpur, Patna - BSPCB",02-06-2024 22:00:00,25.619651,85.147382,OZONE,5,61,39
India,Bihar,Patna,"Rajbansi Nagar, Patna - BSPCB",02-06-2024 22:00:00,25.599486,85.113666,NH3,2,3,2
India,Bihar,Patna,"Samanpura, Patna - BSPCB",02-06-2024 22:00:00,25.596727,85.085624,NH3,7,15,10
India,Bihar,Patna,"Samanpura, Patna - BSPCB",02-06-2024 22:00:00,25.596727,85.085624,OZONE,44,116,93
India,Bihar,Rajgir,"Dangi Tola, Rajgir - BSPCB",02-06-2024 22:00:00,25.03280,85.41948,PM2.5,22,63,34
India,Bihar,Saharsa,"Police Line, Saharsa - BSPCB",02-06-2024 22:00:00,25.892357,86.590325,NO2,6,8,7
India,Bihar,Saharsa,"Police Line, Saharsa - BSPCB",02-06-2024 22:00:00,25.892357,86.590325,OZONE,33,82,54
India,Chandigarh,Chandigarh,"Sector 22, Chandigarh - CPCC",02-06-2024 22:00:00,30.735567,76.775714,PM2.5,57,183,95
India,Chandigarh,Chandigarh,"Sector 22, Chandigarh - CPCC",02-06-2024 22:00:00,30.735567,76.775714,PM10,117,304,151
India,Chandigarh,Chandigarh,"Sector 22, Chandigarh - CPCC",02-06-2024 22:00:00,30.735567,76.775714,SO2,9,34,17
India,Chandigarh,Chandigarh,"Sector-25, Chandigarh - CPCC",02-06-2024 22:00:00,30.751462,76.762879,CO,18,30,21
India,Chandigarh,Chandigarh,"Sector-25, Chandigarh - CPCC",02-06-2024 22:00:00,30.751462,76.762879,OZONE,4,47,37
India,Chandigarh,Chandigarh,"Sector-53, Chandigarh - CPCC",02-06-2024 22:00:00,30.719859,76.738637,PM10,120,190,146
India,Chandigarh,Chandigarh,"Sector-53, Chandigarh - CPCC",02-06-2024 22:00:00,30.719859,76.738637,NH3,6,8,7
India,Chhattisgarh,Bhilai,"Civic Center, Bhilai - Bhilai Steel Plant",02-06-2024 22:00:00,21.185571,81.343175,PM2.5,34,48,39
India,Chhattisgarh,Bhilai,"Civic Center, Bhilai - Bhilai Steel Plant",02-06-2024 22:00:00,21.185571,81.343175,PM10,55,105,66
India,Chhattisgarh,Bilaspur,"Mangala, Bilaspur - NTPC",02-06-2024 22:00:00,22.08815,82.13737,PM10,41,127,64
India,Chhattisgarh,Korba,"Rampur, Korba - CECB",02-06-2024 22:00:00,22.368195,82.746431,CO,15,24,21
India,Chhattisgarh,Korba,"Urja Nagar, Korba - CECB",02-06-2024 22:00:00,22.348441,82.549611,NO2,38,55,50
India,Chhattisgarh,Korba,"Urja Nagar, Korba - CECB",02-06-2024 22:00:00,22.348441,82.549611,SO2,7,11,9
India,Chhattisgarh,Kunjemura,"OP Jindal School, Kunjemura - CECB",02-06-2024 22:00:00,22.126650,83.483212,PM2.5,24,88,41
India,Chhattisgarh,Kunjemura,"OP Jindal School, Kunjemura - CECB",02-06-2024 22:00:00,22.126650,83.483212,NO2,20,90,47
India,Chhattisgarh,Kunjemura,"OP Jindal School, Kunjemura - CECB",02-06-2024 22:00:00,22.126650,83.483212,NH3,2,3,2
India,Chhattisgarh,Raipur,"Krishak Nagar, Raipur - CECB",02-06-2024 22:00:00,21.237755,81.705301,NO2,8,8,8
India,Chhattisgarh,Raipur,"Siltara Phase-II, Raipur - CECB",02-06-2024 22:00:00,21.371751,81.664929,PM2.5,38,93,63
India,Chhattisgarh,Tumidih,"OP Jindal Industrial Park, Tumidih - CECB",02-06-2024 22:00:00,22.06631475,83.33820077,OZONE,15,84,63
India,Delhi,Delhi,"Anand Vihar, Delhi - DPCC",02-06-2024 22:00:00,28.647622,77.3158090,CO,102,111,103
India,Delhi,Delhi,"Ashok Vihar, Delhi - DPCC",02-06-2024 22:00:00,28.695381,77.181665,PM10,89,194,124
India,Delhi,Delhi,"Ashok Vihar, Delhi - DPCC",02-06-2024 22:00:00,28.695381,77.181665,CO,26,72,39
India,Delhi,Delhi,"Aya Nagar, Delhi - IMD",02-06-2024 22:00:00,28.4706914,77.1099364,PM10,87,178,117
India,Delhi,Delhi,"Bawana, Delhi - DPCC",02-06-2024 22:00:00,28.776200,77.051074,PM10,111,218,144
India,Delhi,Delhi,"Bawana, Delhi - DPCC",02-06-2024 22:00:00,28.776200,77.051074,OZONE,3,129,93
India,Delhi,Delhi,"Burari Crossing, Delhi - IMD",02-06-2024 22:00:00,28.7256504,77.2011573,PM10,120,370,166
India,Delhi,Delhi,"Burari Crossing, Delhi - IMD",02-06-2024 22:00:00,28.7256504,77.2011573,CO,33,55,40
India,Delhi,Delhi,"CRRI Mathura Road, Delhi - IMD",02-06-2024 22:00:00,28.5512005,77.2735737,NO2,NA,NA,NA
India,Delhi,Delhi,"CRRI Mathura Road, Delhi - IMD",02-06-2024 22:00:00,28.5512005,77.2735737,CO,24,46,35
India,Delhi,Delhi,"Chandni Chowk, Delhi - IITM",02-06-2024 22:00:00,28.656756,77.227234,PM2.5,268,329,306
India,Delhi,Delhi,"Chandni Chowk, Delhi - IITM",02-06-2024 22:00:00,28.656756,77.227234,CO,52,72,57
India,Delhi,Delhi,"DTU, Delhi - CPCB",02-06-2024 22:00:00,28.7500499,77.1112615,PM2.5,65,239,112
India,Delhi,Delhi,"DTU, Delhi - CPCB",02-06-2024 22:00:00,28.7500499,77.1112615,NH3,12,16,13
India,Delhi,Delhi,"Dr. Karni Singh Shooting Range, Delhi - DPCC",02-06-2024 22:00:00,28.498571,77.264840,PM2.5,52,177,94
India,Delhi,Delhi,"Dr. Karni Singh Shooting Range, Delhi - DPCC",02-06-2024 22:00:00,28.498571,77.264840,NO2,21,97,43
India,Delhi,Delhi,"Dr. Karni Singh Shooting Range, Delhi - DPCC",02-06-2024 22:00:00,28.498571,77.264840,SO2,14,25,18
India,Delhi,Delhi,"Dwarka-Sector 8, Delhi - DPCC ",02-06-2024 22:00:00,28.5710274,77.0719006,SO2,10,25,17
India,Delhi,Delhi,"Dwarka-Sector 8, Delhi - DPCC ",02-06-2024 22:00:00,28.5710274,77.0719006,CO,16,49,29
India,Delhi,Delhi,"Dwarka-Sector 8, Delhi - DPCC ",02-06-2024 22:00:00,28.5710274,77.0719006,OZONE,17,189,109
India,Delhi,Delhi,"ITO, Delhi - CPCB",02-06-2024 22:00:00,28.628624,77.241060,PM2.5,75,183,106
India,Delhi,Delhi,"ITO, Delhi - CPCB",02-06-2024 22:00:00,28.628624,77.241060,SO2,1,15,7
India,Delhi,Delhi,"ITO, Delhi - CPCB",02-06-2024 22:00:00,28.628624,77.241060,CO,24,79,34
India,Delhi,Delhi,"Jahangirpuri, Delhi - DPCC",02-06-2024 22:00:00,28.732820,77.170633,NH3,NA,NA,NA
India,Delhi,Delhi,"Jawaharlal Nehru Stadium, Delhi - DPCC",02-06-2024 22:00:00,28.580280,77.233829,PM10,81,175,113
India,Delhi,Delhi,"Lodhi Road, Delhi - IITM",02-06-2024 22:00:00,28.588333,77.221667,PM10,20,427,105
India,Delhi,Delhi,"Lodhi Road, Delhi - IMD",02-06-2024 22:00:00,28.5918245,77.2273074,CO,25,31,29
India,Delhi,Delhi,"Lodhi Road, Delhi - IMD",02-06-2024 22:00:00,28.5918245,77.2273074,OZONE,57,89,78
India,Delhi,Delhi,"Mandir Marg, Delhi - DPCC",02-06-2024 22:00:00,28.636429,77.201067,SO2,7,22,14
India,Delhi,Delhi,"Mundka, Delhi - DPCC",02-06-2024 22:00:00,28.684678,77.076574,PM2.5,45,203,84
India,Delhi,Delhi,"Mundka, Delhi - DPCC",02-06-2024 22:00:00,28.684678,77.076574,NH3,7,11,8
India,Delhi,Delhi,"Mundka, Delhi - DPCC",02-06-2024 22:00:00,28.684678,77.076574,CO,38,66,44
India,Delhi,Delhi,"NSIT Dwarka, Delhi - CPCB",02-06-2024 22:00:00,28.60909,77.0325413,PM10,106,244,152
India,Delhi,Delhi,"NSIT Dwarka, Delhi - CPCB",02-06-2024 22:00:00,28.60909,77.0325413,NH3,5,13,12
India,Delhi,Delhi,"NSIT Dwarka, Delhi - CPCB",02-06-2024 22:00:00,28.60909,77.0325413,CO,36,60,53
India,Delhi,Delhi,"Najafgarh, Delhi - DPCC",02-06-2024 22:00:00,28.570173,76.933762,NO2,5,44,16
India,Delhi,Delhi,"Najafgarh, Delhi - DPCC",02-06-2024 22:00:00,28.570173,76.933762,OZONE,10,123,95
India,Delhi,Delhi,"Narela, Delhi - DPCC",02-06-2024 22:00:00,28.822836,77.101981,PM2.5,47,139,65
India,Delhi,Delhi,"Narela, Delhi - DPCC",02-06-2024 22:00:00,28.822836,77.101981,PM10,116,294,147
India,Delhi,Delhi,"Narela, Delhi - DPCC",02-06-2024 22:00:00,28.822836,77.101981,NO2,2,71,20
India,Delhi,Delhi,"North Campus, DU, Delhi - IMD",02-06-2024 22:00:00,28.6573814,77.1585447,CO,48,108,76
India,Delhi,Delhi,"Okhla Phase-2, Delhi - DPCC",02-06-2024 22:00:00,28.530785,77.271255,NH3,9,15,12
India,Delhi,Delhi,"Patparganj, Delhi - DPCC",02-06-2024 22:00:00,28.623763,77.287209,PM10,119,443,185
India,Delhi,Delhi,"Patparganj, Delhi - DPCC",02-06-2024 22:00:00,28.623763,77.287209,CO,25,72,47
India,Delhi,Delhi,"Punjabi Bagh, Delhi - DPCC",02-06-2024 22:00:00,28.674045,77.131023,NO2,6,77,31
India,Delhi,Delhi,"Punjabi Bagh, Delhi - DPCC",02-06-2024 22:00:00,28.674045,77.131023,CO,38,55,44
India,Delhi,Delhi,"Pusa, Delhi - DPCC",02-06-2024 22:00:00,28.639652,77.146275,PM2.5,32,85,49
India,Delhi,Delhi,"Pusa, Delhi - DPCC",02-06-2024 22:00:00,28.639652,77.146275,NH3,3,7,6
India,Delhi,Delhi,"Pusa, Delhi - DPCC",02-06-2024 22:00:00,28.639652,77.146275,OZONE,8,112,64
India,Delhi,Delhi,"Pusa, Delhi - IMD",02-06-2024 22:00:00,28.636110,77.173332,PM10,78,141,119
India,Delhi,Delhi,"Pusa, Delhi - IMD",02-06-2024 22:00:00,28.636110,77.173332,NO2,15,29,18
India,Delhi,Delhi,"Pusa, Delhi - IMD",02-06-2024 22:00:00,28.636110,77.173332,CO,68,84,72
India,Delhi,Delhi,"R K Puram, Delhi - DPCC",02-06-2024 22:00:00,28.563262,77.186937,NO2,13,140,61
India,Delhi,Delhi,"Rohini, Delhi - DPCC",02-06-2024 22:00:00,28.732528,77.119920,PM2.5,40,207,68
India,Delhi,Delhi,"Shadipur, Delhi - CPCB",02-06-2024 22:00:00,28.6514781,77.1473105,OZONE,11,45,24
India,Delhi,Delhi,"Sirifort, Delhi - CPCB",02-06-2024 22:00:00,28.5504249,77.2159377,OZONE,3,58,43
India,Delhi,Delhi,"Sonia Vihar, Delhi - DPCC",02-06-2024 22:00:00,28.710508,77.249485,PM2.5,47,250,90
India,Delhi,Delhi,"Sonia Vihar, Delhi - DPCC",02-06-2024 22:00:00,28.710508,77.249485,SO2,12,37,18
India,Delhi,Delhi,"Sri Aurobindo Marg, Delhi - DPCC",02-06-2024 22:00:00,28.531346,77.190156,SO2,7,21,14
India,Delhi,Delhi,"Vivek Vihar, Delhi - DPCC",02-06-2024 22:00:00,28.672342,77.315260,PM2.5,47,90,62
India,Delhi,Delhi,"Vivek Vihar, Delhi - DPCC",02-06-2024 22:00:00,28.672342,77.315260,NO2,6,77,31
India,Delhi,Delhi,"Vivek Vihar, Delhi - DPCC",02-06-2024 22:00:00,28.672342,77.315260,SO2,11,31,17
India,Delhi,Delhi,"Wazirpur, Delhi - DPCC",02-06-2024 22:00:00,28.699793,77.165453,PM2.5,33,163,73
India,Delhi,Delhi,"Wazirpur, Delhi - DPCC",02-06-2024 22:00:00,28.699793,77.165453,PM10,107,254,133
India,Gujarat,Ahmedabad,"Chandkheda, Ahmedabad - IITM",02-06-2024 22:00:00,23.107969,72.574648,NH3,1,6,3
India,Gujarat,Ahmedabad,"Gyaspur, Ahmedabad - IITM",02-06-2024 22:00:00,22.977134,72.553024,PM2.5,72,330,164
India,Gujarat,Ahmedabad,"Gyaspur, Ahmedabad - IITM",02-06-2024 22:00:00,22.977134,72.553024,NH3,4,5,5
India,Gujarat,Ahmedabad,"Maninagar, Ahmedabad - GPCB",02-06-2024 22:00:00,23.002657,72.591912,CO,61,102,92
India,Gujarat,Ahmedabad,"Raikhad, Ahmedabad - IITM",02-06-2024 22:00:00,23.020509,72.579261,CO,39,61,50
India,Gujarat,Ahmedabad,"SVPI Airport Hansol, Ahmedabad - IITM",02-06-2024 22:00:00,23.076793,72.627874,PM10,60,118,80
India,Gujarat,Ahmedabad,"SVPI Airport Hansol, Ahmedabad - IITM",02-06-2024 22:00:00,23.076793,72.627874,NO2,35,42,38
India,Gujarat,Ahmedabad,"SVPI Airport Hansol, Ahmedabad - IITM",02-06-2024 22:00:00,23.076793,72.627874,NH3,5,5,5
India,Gujarat,Ahmedabad,"Sardar Vallabhbhai Patel Stadium, Ahmedabad - IITM",02-06-2024 22:00:00,23.043070,72.562968,NH3,NA,NA,NA
India,Gujarat,Ankleshwar,"GIDC, Ankleshwar - GPCB",02-06-2024 22:00:00,21.613267,73.010555,PM2.5,24,63,36
India,Gujarat,Ankleshwar,"GIDC, Ankleshwar - GPCB",02-06-2024 22:00:00,21.613267,73.010555,CO,22,102,41
India,Gujarat,Gandhinagar,"GIFT City, Gandhinagar - IITM",02-06-2024 22:00:00,23.163798,72.677768,PM10,NA,NA,NA
India,Gujarat,Gandhinagar,"Sector-10, Gandhinagar - GPCB",02-06-2024 22:00:00,23.221714,72.654328,NH3,2,2,2
India,Gujarat,Gandhinagar,"Sector-10, Gandhinagar - GPCB",02-06-2024 22:00:00,23.221714,72.654328,CO,10,20,13
India,Gujarat,Vatva,"Phase-4 GIDC, Vatva - GPCB",02-06-2024 22:00:00,22.969611,72.643500,CO,35,36,35
India,Haryana,Bahadurgarh,"Arya Nagar, Bahadurgarh - HSPCB",02-06-2024 22:00:00,28.6701,76.9254,CO,88,102,98
India,Haryana,Ballabgarh,"Nathu Colony, Ballabgarh - HSPCB",02-06-2024 22:00:00,28.3419248,77.319699,PM10,78,170,110
India,Haryana,Bhiwani,"H.B. Colony, Bhiwani - HSPCB",02-06-2024 22:00:00,28.806223,76.141105,PM2.5,NA,NA,NA
India,Haryana,Bhiwani,"H.B. Colony, Bhiwani - HSPCB",02-06-2024 22:00:00,28.806223,76.141105,NO2,5,10,7
India,Haryana,Bhiwani,"H.B. Colony, Bhiwani - HSPCB",02-06-2024 22:00:00,28.806223,76.141105,NH3,4,6,6
India,Haryana,Bhiwani,"H.B. Colony, Bhiwani - HSPCB",02-06-2024 22:00:00,28.806223,76.141105,SO2,4,13,8
India,Haryana,Dharuhera,"Municipal Corporation Office, Dharuhera -  HSPCB",02-06-2024 22:00:00,28.206800,76.799700,PM2.5,81,175,107
India,Haryana,Faridabad,"New Industrial Town, Faridabad - HSPCB",02-06-2024 22:00:00,28.39072,77.30059,CO,2,34,13
India,Haryana,Faridabad,"Sector 30, Faridabad - HSPCB",02-06-2024 22:00:00,28.4417,77.3217,OZONE,16,51,29
India,Haryana,Gurugram,"NISE Gwal Pahari, Gurugram - IMD",02-06-2024 22:00:00,28.422681,77.148944,PM2.5,2,74,34
India,Haryana,Gurugram,"Teri Gram, Gurugram - HSPCB",02-06-2024 22:00:00,28.4275,77.1465,SO2,4,7,6
India,Haryana,Jind,"Police Lines, Jind - HSPCB",02-06-2024 22:00:00,29.307814,76.337619,PM2.5,35,82,54
India,Haryana,Jind,"Police Lines, Jind - HSPCB",02-06-2024 22:00:00,29.307814,76.337619,NH3,NA,NA,NA
India,Haryana,Jind,"Police Lines, Jind - HSPCB",02-06-2024 22:00:00,29.307814,76.337619,CO,1,95,31
India,Haryana,Kaithal,"Rishi Nagar, Kaithal - HSPCB",02-06-2024 22:00:00,29.8006,76.4155,NO2,24,26,25
India,Haryana,Kaithal,"Rishi Nagar, Kaithal - HSPCB",02-06-2024 22:00:00,29.8006,76.4155,NH3,8,8,8
India,Haryana,Karnal,"Sector-12, Karnal - HSPCB",02-06-2024 22:00:00,29.695300,77.002700,PM2.5,131,199,161
India,Haryana,Karnal,"Sector-12, Karnal - HSPCB",02-06-2024 22:00:00,29.695300,77.002700,PM10,102,172,133
India,Haryana,Kurukshetra,"Sector-7, Kurukshetra - HSPCB",02-06-2024 22:00:00,29.966942,76.875879,NH3,5,5,5
India,Haryana,Mandikhera,"General Hospital, Mandikhera - HSPCB",02-06-2024 22:00:00,27.9002,76.9938,PM10,30,102,68
India,Haryana,Mandikhera,"General Hospital, Mandikhera - HSPCB",02-06-2024 22:00:00,27.9002,76.9938,NO2,20,22,21
India,Haryana,Narnaul,"Shastri Nagar, Narnaul - HSPCB",02-06-2024 22:00:00,28.060249,76.113115,NO2,16,76,47
India,Haryana,Narnaul,"Shastri Nagar, Narnaul - HSPCB",02-06-2024 22:00:00,28.060249,76.113115,CO,10,28,15
India,Haryana,Palwal,"Shyam Nagar, Palwal - HSPCB",02-06-2024 22:00:00,28.1485564,77.3320667,NO2,NA,NA,NA
India,Haryana,Palwal,"Shyam Nagar, Palwal - HSPCB",02-06-2024 22:00:00,28.1485564,77.3320667,SO2,NA,NA,NA
India,Haryana,Palwal,"Shyam Nagar, Palwal - HSPCB",02-06-2024 22:00:00,28.1485564,77.3320667,CO,20,32,24
India,Haryana,Palwal,"Shyam Nagar, Palwal - HSPCB",02-06-2024 22:00:00,28.1485564,77.3320667,OZONE,29,61,38
India,Haryana,Panchkula,"Sector-6, Panchkula - HSPCB ",02-06-2024 22:00:00,30.7057778,76.8531805555555,SO2,2,43,9
India,Himachal Pradesh,Baddi,"HIMUDA Complex Phase-1, Baddi - HPPCB",02-06-2024 22:00:00,30.943887,76.801991,PM2.5,52,320,146
India,Jammu_and_Kashmir,Srinagar,"Rajbagh, Srinagar - JKSPCB",02-06-2024 22:00:00,34.066206,74.819820,SO2,NA,NA,NA
India,Karnataka,Bagalkot,"Vidayagiri, Bagalkot - KSPCB",02-06-2024 22:00:00,16.172806,75.659694,CO,22,55,40
India,Karnataka,Belgaum,"Ramteerth Nagar, Belgaum - KSPCB",02-06-2024 22:00:00,15.888653,74.541751,NO2,3,42,21
India,Karnataka,Belgaum,"Ramteerth Nagar, Belgaum - KSPCB",02-06-2024 22:00:00,15.888653,74.541751,CO,34,58,49
India,Karnataka,Belgaum,"Ramteerth Nagar, Belgaum - KSPCB",02-06-2024 22:00:00,15.888653,74.541751,OZONE,17,22,19
India,Karnataka,Bengaluru,"Hebbal, Bengaluru - KSPCB",02-06-2024 22:00:00,13.029152,77.585901,PM2.5,5,29,14
India,Karnataka,Bengaluru,"Hombegowda Nagar, Bengaluru - KSPCB",02-06-2024 22:00:00,12.938539,77.590100,PM10,11,37,24
India,Karnataka,Bengaluru,"Kasturi Nagar, Bengaluru - KSPCB",02-06-2024 22:00:00,13.003872,77.664217,NO2,16,17,17
India,Karnataka,Bengaluru,"Kasturi Nagar, Bengaluru - KSPCB",02-06-2024 22:00:00,13.003872,77.664217,OZONE,7,63,47
India,Karnataka,Bengaluru,"Peenya, Bengaluru - CPCB",02-06-2024 22:00:00,13.0270199,77.494094,PM2.5,33,43,39
India,Karnataka,Bengaluru,"RVCE-Mailasandra, Bengaluru - KSPCB",02-06-2024 22:00:00,12.921418,77.502466,SO2,7,11,8
India,Karnataka,Bengaluru,"Shivapura_Peenya, Bengaluru - KSPCB",02-06-2024 22:00:00,13.0246342,77.5080115,PM10,21,76,42
India,Karnataka,Bengaluru,"Shivapura_Peenya, Bengaluru - KSPCB",02-06-2024 22:00:00,13.0246342,77.5080115,NH3,4,4,4
India,Karnataka,Bengaluru,"Shivapura_Peenya, Bengaluru - KSPCB",02-06-2024 22:00:00,13.0246342,77.5080115,SO2,2,7,4
India,Karnataka,Bengaluru,"Silk Board, Bengaluru - KSPCB",02-06-2024 22:00:00,12.917348,77.622813,NH3,NA,NA,NA
India,Karnataka,Chamarajanagar,"Urban, Chamarajanagar - KSPCB",02-06-2024 22:00:00,11.55358,76.55521,NO2,25,29,29
India,Karnataka,Chamarajanagar,"Urban, Chamarajanagar - KSPCB",02-06-2024 22:00:00,11.55358,76.55521,NH3,1,2,2
India,Karnataka,Chikkaballapur,"Chikkaballapur Rural, Chikkaballapur - KSPCB",02-06-2024 22:00:00,13.428828,77.731418,SO2,18,23,21
India,Karnataka,Chikkamagaluru,"Kalyana Nagara, Chikkamagaluru - KSPCB",02-06-2024 22:00:00,13.328028,75.797056,PM2.5,16,37,22
India,Karnataka,Chikkamagaluru,"Kalyana Nagara, Chikkamagaluru - KSPCB",02-06-2024 22:00:00,13.328028,75.797056,OZONE,12,38,24
India,Karnataka,Dharwad,"Kalabhavan, Dharwad - KSPCB",02-06-2024 22:00:00,15.459706,75.008381,NO2,2,10,6
India,Karnataka,Gadag,"Panchal Nagar, Gadag - KSPCB",02-06-2024 22:00:00,15.411456,75.638133,SO2,9,21,14
India,Karnataka,Gadag,"Panchal Nagar, Gadag - KSPCB",02-06-2024 22:00:00,15.411456,75.638133,OZONE,3,10,4
India,Karnataka,Haveri,"Ashwini Nagar, Haveri - KSPCB",02-06-2024 22:00:00,14.791800,75.389600,NH3,NA,NA,NA
India,Karnataka,Hubballi,"Lingaraj Nagar, Hubballi - KSPCB",02-06-2024 22:00:00,15.3714823,75.1160168,NH3,2,4,3
India,Karnataka,Kalaburagi,"Mahatma Basaveswar Colony, Kalaburgi - KSPCB",02-06-2024 22:00:00,17.336318,76.847397,CO,26,60,32
India,Karnataka,Kalaburagi,"Mahatma Basaveswar Colony, Kalaburgi - KSPCB",02-06-2024 22:00:00,17.336318,76.847397,OZONE,19,72,65
India,Karnataka,Karwar,"KHB Colony, Karwar - KSPCB",02-06-2024 22:00:00,14.816666,74.141003,NH3,1,11,3
India,Karnataka,Karwar,"KHB Colony, Karwar - KSPCB",02-06-2024 22:00:00,14.816666,74.141003,OZONE,21,23,22
India,Karnataka,Kolar,"Tamaka Ind. Area, Kolar - KSPCB",02-06-2024 22:00:00,13.1276288,78.1570122,PM10,NA,NA,NA
India,Karnataka,Kolar,"Tamaka Ind. Area, Kolar - KSPCB",02-06-2024 22:00:00,13.1276288,78.1570122,CO,10,14,10
India,Karnataka,Koppal,"Diwator Nagar, Koppal - KSPCB",02-06-2024 22:00:00,15.347630,76.181767,PM10,10,27,17
India,Karnataka,Koppal,"Diwator Nagar, Koppal - KSPCB",02-06-2024 22:00:00,15.347630,76.181767,NH3,6,9,8
India,Karnataka,Koppal,"Diwator Nagar, Koppal - KSPCB",02-06-2024 22:00:00,15.347630,76.181767,OZONE,10,25,21
India,Karnataka,Madikeri,"Stuart Hill, Madikeri - KSPCB",02-06-2024 22:00:00,12.415911,75.735050,SO2,4,4,4
India,Karnataka,Raichur,"Haji Colony, Raichur - KSPCB",02-06-2024 22:00:00,16.208139,77.348417,NH3,1,4,3
India,Karnataka,Ramanagara,"Vijay Nagar, Ramanagara - KSPCB",02-06-2024 22:00:00,12.733409,77.298051,PM2.5,9,44,21
India,Karnataka,Ramanagara,"Vijay Nagar, Ramanagara - KSPCB",02-06-2024 22:00:00,12.733409,77.298051,NO2,9,15,12
India,Karnataka,Shivamogga,"Vinoba Nagara, Shivamogga - KSPCB",02-06-2024 22:00:00,13.940000,75.555917,NO2,17,64,35
India,Karnataka,Shivamogga,"Vinoba Nagara, Shivamogga - KSPCB",02-06-2024 22:00:00,13.940000,75.555917,OZONE,3,62,43
India,Karnataka,Tumakuru,"Thimmalapura, Tumakuru - KSPCB",02-06-2024 22:00:00,13.377516,77.099072,PM2.5,24,38,32
India,Karnataka,Tumakuru,"Thimmalapura, Tumakuru - KSPCB",02-06-2024 22:00:00,13.377516,77.099072,PM10,37,139,87
India,Karnataka,Tumakuru,"Thimmalapura, Tumakuru - KSPCB",02-06-2024 22:00:00,13.377516,77.099072,SO2,5,21,8
India,Karnataka,Udupi,"Brahmagiri, Udupi - KSPCB",02-06-2024 22:00:00,13.34194444,74.74694444,SO2,16,18,17
India,Karnataka,Udupi,"Brahmagiri, Udupi - KSPCB",02-06-2024 22:00:00,13.34194444,74.74694444,CO,49,53,50
India,Karnataka,Udupi,"Brahmagiri, Udupi - KSPCB",02-06-2024 22:00:00,13.34194444,74.74694444,OZONE,23,24,23
India,Karnataka,Vijayapura,"Ibrahimpur, Vijayapura - KSPCB",02-06-2024 22:00:00,16.802639,75.722694,NH3,2,2,2
India,Karnataka,Vijayapura,"Ibrahimpur, Vijayapura - KSPCB",02-06-2024 22:00:00,16.802639,75.722694,CO,121,144,132
India,Karnataka,Vijayapura,"Ibrahimpur, Vijayapura - KSPCB",02-06-2024 22:00:00,16.802639,75.722694,OZONE,14,16,15
India,Kerala,Kannur,"Thavakkara, Kannur - Kerala PCB",02-06-2024 22:00:00,11.875000,75.373200,PM10,49,59,55
India,Kerala,Kollam,"Polayathode, Kollam - Kerala PCB",02-06-2024 22:00:00,8.8787,76.6073,NH3,NA,NA,NA
India,Kerala,Kollam,"Polayathode, Kollam - Kerala PCB",02-06-2024 22:00:00,8.8787,76.6073,SO2,NA,NA,NA
India,Kerala,Kollam,"Polayathode, Kollam - Kerala PCB",02-06-2024 22:00:00,8.8787,76.6073,OZONE,31,33,33
India,Kerala,Thiruvananthapuram,"Kariavattom, Thiruvananthapuram - Kerala PCB",02-06-2024 22:00:00,8.563700,76.886500,PM2.5,41,47,44
India,Kerala,Thiruvananthapuram,"Plammoodu, Thiruvananthapuram - Kerala PCB",02-06-2024 22:00:00,8.5149093,76.9435879,NO2,8,11,9
India,Kerala,Thiruvananthapuram,"Plammoodu, Thiruvananthapuram - Kerala PCB",02-06-2024 22:00:00,8.5149093,76.9435879,NH3,1,1,1
India,Kerala,Thiruvananthapuram,"Plammoodu, Thiruvananthapuram - Kerala PCB",02-06-2024 22:00:00,8.5149093,76.9435879,SO2,6,12,9
India,Kerala,Thrissur,"Corporation Ground, Thrissur - Kerala PCB",02-06-2024 22:00:00,10.532400,76.215900,NH3,NA,NA,NA
India,Madhya Pradesh,Bhopal,"Idgah Hills, Bhopal - MPPCB",02-06-2024 22:00:00,23.264759,77.381568,PM10,81,157,107
India,Madhya Pradesh,Bhopal,"Idgah Hills, Bhopal - MPPCB",02-06-2024 22:00:00,23.264759,77.381568,SO2,1,10,4
India,Madhya Pradesh,Bhopal,"Paryavaran Parisar, Bhopal - MPPCB",02-06-2024 22:00:00,23.210494,77.425409,CO,10,107,49
India,Madhya Pradesh,Dewas,"Bhopal Chauraha, Dewas - MPPCB",02-06-2024 22:00:00,22.9682591,76.064118,NO2,12,14,13
India,Madhya Pradesh,Gwalior,"City Center, Gwalior - MPPCB",02-06-2024 22:00:00,26.203442,78.193251,PM10,23,78,48
India,Madhya Pradesh,Gwalior,"City Center, Gwalior - MPPCB",02-06-2024 22:00:00,26.203442,78.193251,NO2,6,22,13
India,Madhya Pradesh,Gwalior,"Deen Dayal Nagar, Gwalior - MPPCB",02-06-2024 22:00:00,26.259242,78.216432,NO2,20,75,40
India,Madhya Pradesh,Gwalior,"Maharaj Bada, Gwalior - MPPCB",02-06-2024 22:00:00,26.200388,78.147714,NO2,19,97,34
India,Madhya Pradesh,Indore,"Chhoti Gwaltoli, Indore - MPPCB",02-06-2024 22:00:00,22.4310,75.5213,CO,8,104,32
India,Madhya Pradesh,Indore,"Maguda Nagar, Indore - IMC",02-06-2024 22:00:00,22.7524,75.8872,NH3,2,3,2
India,Madhya Pradesh,Indore,"Regional Park, Indore - IMC",02-06-2024 22:00:00,22.6780,75.8559,PM10,26,53,37
India,Madhya Pradesh,Indore,"Residency Area, Indore - IMC",02-06-2024 22:00:00,22.7084,75.8815,PM2.5,29,62,39
India,Madhya Pradesh,Indore,"Residency Area, Indore - IMC",02-06-2024 22:00:00,22.7084,75.8815,NO2,23,58,42
India,Madhya Pradesh,Indore,"Residency Area, Indore - IMC",02-06-2024 22:00:00,22.7084,75.8815,CO,4,14,12
India,Madhya Pradesh,Jabalpur,"Govindh Bhavan Colony, Jabalpur - JMC",02-06-2024 22:00:00,23.163174,79.973061,OZONE,5,88,64
India,Madhya Pradesh,Katni,"Gole Bazar, Katni - MPPCB",02-06-2024 22:00:00,23.50016,80.23284,PM2.5,35,67,50
India,Madhya Pradesh,Katni,"Gole Bazar, Katni - MPPCB",02-06-2024 22:00:00,23.50016,80.23284,SO2,24,68,34
India,Madhya Pradesh,Pithampur,"Sector-2 Industrial Area, Pithampur - MPPCB",02-06-2024 22:00:00,22.624758,75.675238,NO2,4,19,12
India,Madhya Pradesh,Pithampur,"Sector-2 Industrial Area, Pithampur - MPPCB",02-06-2024 22:00:00,22.624758,75.675238,NH3,1,2,2
India,Madhya Pradesh,Pithampur,"Sector-2 Industrial Area, Pithampur - MPPCB",02-06-2024 22:00:00,22.624758,75.675238,CO,42,50,44
India,Madhya Pradesh,Pithampur,"Sector-2 Industrial Area, Pithampur - MPPCB",02-06-2024 22:00:00,22.624758,75.675238,OZONE,12,47,42
India,Madhya Pradesh,Ratlam,"Shasthri Nagar, Ratlam - IPCA Lab",02-06-2024 22:00:00,23.331731,75.045981,PM2.5,23,62,41
India,Madhya Pradesh,Ratlam,"Shasthri Nagar, Ratlam - IPCA Lab",02-06-2024 22:00:00,23.331731,75.045981,NO2,13,13,13
India,Madhya Pradesh,Sagar,"Civil Lines, Sagar - MPPCB",02-06-2024 22:00:00,23.838586,78.759431,PM2.5,36,72,50
India,Madhya Pradesh,Ujjain,"Mahakaleshwar Temple, Ujjain - MPPCB",02-06-2024 22:00:00,23.182719 ,75.768218 ,OZONE,73,75,74
India,Maharashtra,Ahmednagar,"Tarakpur, Ahmednagar - MPCB",02-06-2024 22:00:00,19.10122,74.73339,PM2.5,13,75,39
India,Maharashtra,Ahmednagar,"Tarakpur, Ahmednagar - MPCB",02-06-2024 22:00:00,19.10122,74.73339,NO2,11,28,19
India,Maharashtra,Akola,"Ramdaspeth, Akola - MPCB",02-06-2024 22:00:00,20.719516,77.000253,PM2.5,19,78,47
India,Maharashtra,Amravati,"Shivneri Colony, Amravati - MPCB",02-06-2024 22:00:00,20.9402359,77.7895248,CO,13,28,19
India,Maharashtra,Amravati,"Shri Shivaji Science College, Amaravati - MPCB",02-06-2024 22:00:00,20.939198,77.765701,PM10,76,118,95
India,Maharashtra,Aurangabad,"MIDC Chilkalthana, Aurangabad - MPCB",02-06-2024 22:00:00,19.875620,75.387310,PM2.5,39,75,60
India,Maharashtra,Aurangabad,"MIDC Chilkalthana, Aurangabad - MPCB",02-06-2024 22:00:00,19.875620,75.387310,NO2,2,32,7
India,Maharashtra,Aurangabad,"MIDC Chilkalthana, Aurangabad - MPCB",02-06-2024 22:00:00,19.875620,75.387310,NH3,5,6,5
India,Maharashtra,Aurangabad,"MIDC Chilkalthana, Aurangabad - MPCB",02-06-2024 22:00:00,19.875620,75.387310,OZONE,14,79,65
India,Maharashtra,Aurangabad,"More Chowk Waluj, Aurangabad - MPCB",02-06-2024 22:00:00,19.8389439,75.244448,NH3,9,10,9
India,Maharashtra,Aurangabad,"Rachnakar Colony, Aurangabad - MPCB",02-06-2024 22:00:00,19.863756,75.321188,NO2,12,90,20
India,Maharashtra,Badlapur,"Katrap, Badlapur - MPCB",02-06-2024 22:00:00,19.16485,73.23409,NO2,12,30,17
India,Maharashtra,Badlapur,"Katrap, Badlapur - MPCB",02-06-2024 22:00:00,19.16485,73.23409,SO2,13,21,17
India,Maharashtra,Belapur,"CBD Belapur, Belapur - MPCB",02-06-2024 22:00:00,19.0243902,73.0406721,PM2.5,26,54,41
India,Maharashtra,Belapur,"CBD Belapur, Belapur - MPCB",02-06-2024 22:00:00,19.0243902,73.0406721,PM10,41,107,71
India,Maharashtra,Belapur,"CBD Belapur, Belapur - MPCB",02-06-2024 22:00:00,19.0243902,73.0406721,OZONE,11,62,46
India,Maharashtra,Bhiwandi,"Gokul Nagar, Bhiwandi - MPCB",02-06-2024 22:00:00,19.309073,73.057223,NH3,1,3,2
India,Maharashtra,Bhiwandi,"Gokul Nagar, Bhiwandi - MPCB",02-06-2024 22:00:00,19.309073,73.057223,SO2,9,18,14
India,Maharashtra,Boisar,"Khaira, Boisar - MPCB",02-06-2024 22:00:00,19.786089,72.757971,NH3,1,16,6
India,Maharashtra,Boisar,"Khaira, Boisar - MPCB",02-06-2024 22:00:00,19.786089,72.757971,SO2,3,11,6
India,Maharashtra,Chandrapur,"Chauhan Colony, Chandrapur - MPCB",02-06-2024 22:00:00,19.962900,79.298714,PM2.5,58,178,110
India,Maharashtra,Chandrapur,"Chauhan Colony, Chandrapur - MPCB",02-06-2024 22:00:00,19.962900,79.298714,SO2,8,86,35
India,Maharashtra,Chandrapur,"MIDC Khutala, Chandrapur - MPCB",02-06-2024 22:00:00,19.9775302,79.2337086,PM2.5,34,70,53
India,Maharashtra,Chandrapur,"MIDC Khutala, Chandrapur - MPCB",02-06-2024 22:00:00,19.9775302,79.2337086,SO2,12,99,44
India,Maharashtra,Chandrapur,"MIDC Khutala, Chandrapur - MPCB",02-06-2024 22:00:00,19.9775302,79.2337086,OZONE,14,64,55
India,Maharashtra,Dhule,"Deopur, Dhule - MPCB",02-06-2024 22:00:00,20.918946,74.776388,NO2,10,25,15
India,Maharashtra,Dhule,"Deopur, Dhule - MPCB",02-06-2024 22:00:00,20.918946,74.776388,CO,25,40,33
India,Maharashtra,Jalgaon,"Prabhat Colony, Jalgaon - MPCB",02-06-2024 22:00:00,21.001264,75.565602,OZONE,7,142,95
India,Maharashtra,Jalna,"Old MIDC, Jalna - MPCB",02-06-2024 22:00:00,19.854616,75.905894,NH3,1,2,1
India,Maharashtra,Kalyan,"Khadakpada, Kalyan - MPCB",02-06-2024 22:00:00,19.25292,73.142019,PM10,43,110,74
India,Maharashtra,Kolhapur,"Shivaji University, Kolhapur - MPCB",02-06-2024 22:00:00,16.6870449,74.2505872,PM2.5,39,68,56
India,Maharashtra,Kolhapur,"Shivaji University, Kolhapur - MPCB",02-06-2024 22:00:00,16.6870449,74.2505872,NH3,2,4,3
India,Maharashtra,Kolhapur,"Sinchan Bhavan, Kolhapur - MPCB",02-06-2024 22:00:00,16.7143745,74.2426398,PM2.5,19,34,26
India,Maharashtra,Latur,"Sawe Wadi, Latur - MPCB",02-06-2024 22:00:00,18.39963,76.57452,NH3,4,18,10
India,Maharashtra,Malegaon,"Mahesh Nagar, Malegaon - MPCB",02-06-2024 22:00:00,20.555712,74.529236,NO2,13,36,21
India,Maharashtra,Malegaon,"Mahesh Nagar, Malegaon - MPCB",02-06-2024 22:00:00,20.555712,74.529236,OZONE,15,86,66
India,Maharashtra,Mira-Bhayandar,"Bhayandar West, Mira-Bhayandar - MPCB",02-06-2024 22:00:00,19.296481,72.840923,NO2,16,27,19
India,Maharashtra,Mira-Bhayandar,"Bhayandar West, Mira-Bhayandar - MPCB",02-06-2024 22:00:00,19.296481,72.840923,NH3,4,4,4
India,Maharashtra,Mumbai,"Bandra Kurla Complex, Mumbai - MPCB",02-06-2024 22:00:00,19.065931,72.862131,PM2.5,49,67,58
India,Maharashtra,Mumbai,"Bandra Kurla Complex, Mumbai - MPCB",02-06-2024 22:00:00,19.065931,72.862131,NH3,5,8,6
India,Maharashtra,Mumbai,"Chakala-Andheri East, Mumbai - IITM",02-06-2024 22:00:00,19.11074,72.86084,PM10,32,247,71
India,Maharashtra,Mumbai,"Chakala-Andheri East, Mumbai - IITM",02-06-2024 22:00:00,19.11074,72.86084,CO,12,22,17
India,Maharashtra,Mumbai,"Chembur, Mumbai - MPCB",02-06-2024 22:00:00,19.0364585,72.8954371,NO2,12,28,18
India,Maharashtra,Mumbai,"Chembur, Mumbai - MPCB",02-06-2024 22:00:00,19.0364585,72.8954371,NH3,5,7,6
India,Maharashtra,Mumbai,"Chembur, Mumbai - MPCB",02-06-2024 22:00:00,19.0364585,72.8954371,CO,18,25,21
India,Maharashtra,Mumbai,"Chhatrapati Shivaji Intl. Airport (T2), Mumbai - MPCB",02-06-2024 22:00:00,19.10078,72.87462,NH3,1,11,3
India,Maharashtra,Mumbai,"Colaba, Mumbai - MPCB",02-06-2024 22:00:00,18.910000,72.820000,NO2,19,21,20
India,Maharashtra,Mumbai,"Colaba, Mumbai - MPCB",02-06-2024 22:00:00,18.910000,72.820000,OZONE,10,11,10
India,Maharashtra,Mumbai,"Deonar, Mumbai - IITM",02-06-2024 22:00:00,19.04946,72.9230,OZONE,16,56,40
India,Maharashtra,Mumbai,"Ghatkopar, Mumbai - BMC",02-06-2024 22:00:00,19.083694,72.920967,NH3,2,19,9
India,Maharashtra,Mumbai,"Kandivali East, Mumbai - MPCB",02-06-2024 22:00:00,19.205800,72.868200,SO2,7,8,8
India,Maharashtra,Mumbai,"Kandivali West, Mumbai - BMC",02-06-2024 22:00:00,19.215859,72.831718,NO2,7,52,17
India,Maharashtra,Mumbai,"Kandivali West, Mumbai - BMC",02-06-2024 22:00:00,19.215859,72.831718,OZONE,13,31,26
India,Maharashtra,Mumbai,"Khindipada-Bhandup West, Mumbai - IITM",02-06-2024 22:00:00,19.1653323,72.922099,PM10,13,69,32
India,Maharashtra,Mumbai,"Khindipada-Bhandup West, Mumbai - IITM",02-06-2024 22:00:00,19.1653323,72.922099,NO2,4,10,6
India,Maharashtra,Mumbai,"Khindipada-Bhandup West, Mumbai - IITM",02-06-2024 22:00:00,19.1653323,72.922099,NH3,9,12,10
India,Maharashtra,Mumbai,"Mindspace-Malad West, Mumbai - MPCB",02-06-2024 22:00:00,19.1878657,72.8304069,PM2.5,12,44,23
India,Maharashtra,Mumbai,"Navy Nagar-Colaba, Mumbai - IITM",02-06-2024 22:00:00,18.897756,72.813320,NH3,12,14,13
India,Maharashtra,Mumbai,"Powai, Mumbai - MPCB",02-06-2024 22:00:00,19.137500,72.915056,PM10,32,70,51
India,Maharashtra,Mumbai,"Powai, Mumbai - MPCB",02-06-2024 22:00:00,19.137500,72.915056,SO2,14,15,14
India,Maharashtra,Mumbai,"Siddharth Nagar-Worli, Mumbai - IITM",02-06-2024 22:00:00,19.000083,72.813993,NO2,18,41,31
India,Maharashtra,Mumbai,"Siddharth Nagar-Worli, Mumbai - IITM",02-06-2024 22:00:00,19.000083,72.813993,OZONE,24,61,42
India,Maharashtra,Mumbai,"Sion, Mumbai - MPCB",02-06-2024 22:00:00,19.047000,72.874600,NH3,7,9,8
India,Maharashtra,Mumbai,"Sion, Mumbai - MPCB",02-06-2024 22:00:00,19.047000,72.874600,OZONE,54,61,58
India,Maharashtra,Mumbai,"Vasai West, Mumbai - MPCB",02-06-2024 22:00:00,19.383200,72.820400,CO,6,15,8
India,Maharashtra,Mumbai,"Vasai West, Mumbai - MPCB",02-06-2024 22:00:00,19.383200,72.820400,OZONE,13,30,27
India,Maharashtra,Mumbai,"Vile Parle West, Mumbai - MPCB",02-06-2024 22:00:00,19.10861,72.83622,PM10,33,136,76
India,Maharashtra,Mumbai,"Vile Parle West, Mumbai - MPCB",02-06-2024 22:00:00,19.10861,72.83622,NH3,11,11,11
India,Maharashtra,Mumbai,"Vile Parle West, Mumbai - MPCB",02-06-2024 22:00:00,19.10861,72.83622,SO2,14,14,14
India,Maharashtra,Mumbai,"Worli, Mumbai - MPCB",02-06-2024 22:00:00,18.9936162,72.8128113,NO2,12,13,13
India,Maharashtra,Nagpur,"Ambazari, Nagpur - MPCB",02-06-2024 22:00:00,21.121801,79.04952,PM10,64,112,86
India,Maharashtra,Nagpur,"Ambazari, Nagpur - MPCB",02-06-2024 22:00:00,21.121801,79.04952,SO2,9,23,14
India,Maharashtra,Nagpur,"Opp GPO Civil Lines, Nagpur - MPCB",02-06-2024 22:00:00,21.152875,79.0517531,PM2.5,32,127,65
India,Maharashtra,Nanded,"Sneh Nagar, Nanded - MPCB",02-06-2024 22:00:00,19.173852,77.296291,NH3,1,2,2
India,Maharashtra,Nanded,"Sneh Nagar, Nanded - MPCB",02-06-2024 22:00:00,19.173852,77.296291,SO2,NA,NA,NA
India,Maharashtra,Nashik,"Hirawadi, Nashik - MPCB",02-06-2024 22:00:00,20.021503,73.813844,PM2.5,12,42,25
India,Maharashtra,Nashik,"Hirawadi, Nashik - MPCB",02-06-2024 22:00:00,20.021503,73.813844,PM10,22,65,40
India,Maharashtra,Nashik,"MIDC Ambad, Nashik - MPCB",02-06-2024 22:00:00,19.950220,73.731480,PM10,12,380,65
India,Maharashtra,Nashik,"Pandav Nagari, Nashik - MPCB",02-06-2024 22:00:00,19.9591346,73.7788008,PM2.5,22,46,33
India,Maharashtra,Navi Mumbai,"Kopripada-Vashi, Navi Mumbai - MPCB",02-06-2024 22:00:00,19.090337,73.014232,OZONE,153,164,158
India,Maharashtra,Navi Mumbai,"Mahape, Navi Mumbai - MPCB",02-06-2024 22:00:00,19.1135051,73.008978,PM2.5,18,68,31
India,Maharashtra,Navi Mumbai,"Nerul, Navi Mumbai - MPCB",02-06-2024 22:00:00,19.008751,73.016620,NO2,14,20,16
India,Maharashtra,Navi Mumbai,"Sanpada, Navi Mumbai - MPCB",02-06-2024 22:00:00,19.0575752,73.0151367,PM10,38,97,61
India,Maharashtra,Navi Mumbai,"Tondare-Taloja, Navi Mumbai - MPCB",02-06-2024 22:00:00,19.0630,73.1209,PM2.5,18,41,30
India,Maharashtra,Navi Mumbai,"Tondare-Taloja, Navi Mumbai - MPCB",02-06-2024 22:00:00,19.0630,73.1209,PM10,42,73,60
India,Maharashtra,Navi Mumbai,"Tondare-Taloja, Navi Mumbai - MPCB",02-06-2024 22:00:00,19.0630,73.1209,CO,4,20,8
India,Maharashtra,Pune,"Alandi, Pune - IITM",02-06-2024 22:00:00,18.675076,73.892743,PM2.5,17,30,22
India,Maharashtra,Pune,"Alandi, Pune - IITM",02-06-2024 22:00:00,18.675076,73.892743,CO,40,58,51
India,Maharashtra,Pune,"Bhosari, Pune - IITM",02-06-2024 22:00:00,18.640051,73.848956,OZONE,24,92,75
India,Maharashtra,Sangli,"Vijay Nagar, Sangli - MPCB",02-06-2024 22:00:00, 16.5038,74.3623,NH3,2,4,4
India,Maharashtra,Solapur,"Dnyaneshwar Nagar, Solapur - MPCB",02-06-2024 22:00:00,17.6336264,75.9132495,PM2.5,14,134,63
India,Maharashtra,Solapur,"Ratandeep Housing Society, Solapur - MPCB",02-06-2024 22:00:00,17.65439,75.90649,OZONE,13,86,70
India,Maharashtra,Solapur,"Solapur, Solapur - MPCB",02-06-2024 22:00:00,17.6599188,75.9063906,PM2.5,79,79,79
India,Maharashtra,Solapur,"Solapur, Solapur - MPCB",02-06-2024 22:00:00,17.6599188,75.9063906,NO2,55,56,55
India,Maharashtra,Thane,"Kasarvadavali, Thane - MPCB",02-06-2024 22:00:00,19.26777,72.97182,NH3,3,6,4
India,Maharashtra,Thane,"Kasarvadavali, Thane - MPCB",02-06-2024 22:00:00,19.26777,72.97182,OZONE,12,52,25
India,Maharashtra,Thane,"Upvan Fort, Thane - MPCB",02-06-2024 22:00:00,19.222279,72.957979,SO2,6,11,9
India,Maharashtra,Thane,"Upvan Fort, Thane - MPCB",02-06-2024 22:00:00,19.222279,72.957979,CO,11,42,20
India,Maharashtra,Thane,"Upvan Fort, Thane - MPCB",02-06-2024 22:00:00,19.222279,72.957979,OZONE,9,93,34
India,Maharashtra,Ulhasnagar,"Sidhi Vinayak Nagar, Ulhasnagar - MPCB",02-06-2024 22:00:00,19.235581,73.159121,SO2,7,25,10
India,Maharashtra,Virar,"Bolinj, Virar - MPCB",02-06-2024 22:00:00,19.4458210,72.7988231,NO2,7,28,15
India,Maharashtra,Virar,"Bolinj, Virar - MPCB",02-06-2024 22:00:00,19.4458210,72.7988231,NH3,9,9,9
India,Maharashtra,Virar,"Bolinj, Virar - MPCB",02-06-2024 22:00:00,19.4458210,72.7988231,OZONE,17,48,42
India,Manipur,Imphal,"Manipur University, Imphal - Manipur PCB",02-06-2024 22:00:00,24.7524239,93.9286218,PM2.5,17,54,38
India,Manipur,Imphal,"Manipur University, Imphal - Manipur PCB",02-06-2024 22:00:00,24.7524239,93.9286218,SO2,96,102,99
India,Meghalaya,Shillong,"Lumpyngngad, Shillong - Meghalaya PCB",02-06-2024 22:00:00,25.5586,91.8985,NO2,1,2,1
India,Mizoram,Aizawl,"Sikulpuikawn, Aizawl - Mizoram PCB",02-06-2024 22:00:00,23.7176342,92.7192841,OZONE,2,8,5
India,Odisha,Angul,"Hakimapada, Angul - OSPCB",02-06-2024 22:00:00,20.832874,85.104082,SO2,8,97,27
India,Odisha,Barbil,"Forest Office, Barbil - OSPCB",02-06-2024 22:00:00,22.1166054,85.3945546,CO,20,54,31
India,Odisha,Baripada,"Meher Colony, Baripada - OSPCB",02-06-2024 22:00:00,21.941841,86.728318,OZONE,55,86,72
India,Odisha,Bhubaneswar,"Lingraj Mandir, Bhubaneswar - OSPCB",02-06-2024 22:00:00,20.240790,85.836784,PM2.5,26,60,40
India,Odisha,Bhubaneswar,"Lingraj Mandir, Bhubaneswar - OSPCB",02-06-2024 22:00:00,20.240790,85.836784,CO,50,57,55
India,Odisha,Bhubaneswar,"Lingraj Mandir, Bhubaneswar - OSPCB",02-06-2024 22:00:00,20.240790,85.836784,OZONE,30,50,41
India,Odisha,Bhubaneswar,"Patia, Bhubaneswar - OSPCB",02-06-2024 22:00:00,20.34652,85.81630,PM10,51,80,64
India,Odisha,Bhubaneswar,"Patia, Bhubaneswar - OSPCB",02-06-2024 22:00:00,20.34652,85.81630,NH3,2,12,3
India,Odisha,Byasanagar,"Ferro Chrome Colony, Byasanagar - OSPCB",02-06-2024 22:00:00,20.94185,86.11510,PM10,42,126,71
India,Odisha,Byasanagar,"Ferro Chrome Colony, Byasanagar - OSPCB",02-06-2024 22:00:00,20.94185,86.11510,SO2,2,5,3
India,Odisha,Cuttack,"CDA Area, Cuttack - OSPCB",02-06-2024 22:00:00,20.48891     ,85.84768     ,NH3,1,21,3
India,Odisha,Nayagarh,"Dabuna, Nayagarh - OSPCB",02-06-2024 22:00:00,21.847279,85.416905,NO2,4,5,4
India,Odisha,Nayagarh,"Dabuna, Nayagarh - OSPCB",02-06-2024 22:00:00,21.847279,85.416905,SO2,1,4,2
India,Odisha,Rairangpur,"Divisional Forest Office, Rairangpur - OSPCB",02-06-2024 22:00:00,22.265816,86.174829,SO2,13,13,13
India,Odisha,Rairangpur,"Divisional Forest Office, Rairangpur - OSPCB",02-06-2024 22:00:00,22.265816,86.174829,OZONE,2,18,12
India,Odisha,Rourkela,"Fertilizer Township, Rourkela - OSPCB",02-06-2024 22:00:00,22.18972222,84.86277778,SO2,12,15,13
India,Odisha,Suakati,"OMC Colony, Suakati - OSPCB",02-06-2024 22:00:00,21.606865,85.510538,NO2,6,12,5
India,Odisha,Suakati,"OMC Colony, Suakati - OSPCB",02-06-2024 22:00:00,21.606865,85.510538,CO,9,14,10
India,Odisha,Talcher,"Talcher Coalfields,Talcher - OSPCB",02-06-2024 22:00:00,20.9360711,85.1707021,NH3,3,4,3
India,Odisha,Talcher,"Talcher Coalfields,Talcher - OSPCB",02-06-2024 22:00:00,20.9360711,85.1707021,OZONE,23,27,25
India,Odisha,Tensa,"Barsua Iron Ore Mines, Tensa - OSPCB",02-06-2024 22:00:00,21.869985,85.167016,NO2,2,83,19
India,Odisha,Tensa,"Barsua Iron Ore Mines, Tensa - OSPCB",02-06-2024 22:00:00,21.869985,85.167016,OZONE,1,169,60
India,Puducherry,Puducherry,"Jawahar Nagar, Puducherry - PPCC",02-06-2024 22:00:00,11.9309,79.8027,PM2.5,NA,NA,NA
India,Puducherry,Puducherry,"Jawahar Nagar, Puducherry - PPCC",02-06-2024 22:00:00,11.9309,79.8027,NO2,NA,NA,NA
India,Punjab,Amritsar,"Golden Temple, Amritsar - PPCB",02-06-2024 22:00:00,31.620000,74.876512,PM10,112,163,127
India,Punjab,Amritsar,"Golden Temple, Amritsar - PPCB",02-06-2024 22:00:00,31.620000,74.876512,SO2,9,21,14
India,Punjab,Amritsar,"Golden Temple, Amritsar - PPCB",02-06-2024 22:00:00,31.620000,74.876512,OZONE,39,61,51
India,Punjab,Jalandhar,"Civil Line, Jalandhar - PPCB",02-06-2024 22:00:00,31.321907,75.578914,NO2,28,38,34
India,Punjab,Jalandhar,"Civil Line, Jalandhar - PPCB",02-06-2024 22:00:00,31.321907,75.578914,CO,18,54,35
India,Punjab,Khanna,"Kalal Majra, Khanna - PPCB",02-06-2024 22:00:00,30.736056 ,76.209694,NH3,12,13,13
India,Punjab,Khanna,"Kalal Majra, Khanna - PPCB",02-06-2024 22:00:00,30.736056 ,76.209694,SO2,4,41,14
India,Punjab,Khanna,"Kalal Majra, Khanna - PPCB",02-06-2024 22:00:00,30.736056 ,76.209694,OZONE,5,55,42
India,Punjab,Ludhiana,"Punjab Agricultural University, Ludhiana - PPCB",02-06-2024 22:00:00,30.9028,75.8086,PM2.5,107,238,165
India,Punjab,Mandi Gobindgarh,"RIMT University, Mandi Gobindgarh - PPCB",02-06-2024 22:00:00,30.649961,76.331442,PM2.5,84,359,261
India,Punjab,Mandi Gobindgarh,"RIMT University, Mandi Gobindgarh - PPCB",02-06-2024 22:00:00,30.649961,76.331442,PM10,99,345,197
India,Rajasthan,Ajmer,"Civil Lines,  Ajmer - RSPCB",02-06-2024 22:00:00,26.470859,74.646594,NH3,5,5,5
India,Rajasthan,Ajmer,"Civil Lines,  Ajmer - RSPCB",02-06-2024 22:00:00,26.470859,74.646594,OZONE,9,83,61
India,Rajasthan,Alwar,"Moti Doongri, Alwar - RSPCB",02-06-2024 22:00:00,27.554793,76.611536,PM2.5,36,105,60
India,Rajasthan,Alwar,"Moti Doongri, Alwar - RSPCB",02-06-2024 22:00:00,27.554793,76.611536,CO,35,39,37
India,Rajasthan,Banswara,"Rati Talai, Banswara - RSPCB",02-06-2024 22:00:00,23.555190,74.440010,PM2.5,21,77,50
India,Rajasthan,Banswara,"Rati Talai, Banswara - RSPCB",02-06-2024 22:00:00,23.555190,74.440010,CO,28,44,37
India,Rajasthan,Baran,"Bamboliya, Baran - RSPCB",02-06-2024 22:00:00,25.106006,76.469948,PM2.5,6,48,23
India,Rajasthan,Barmer,"Railway Colony, Barmer - RSPCB",02-06-2024 22:00:00,25.747299,71.393989,OZONE,14,70,62
India,Rajasthan,Bhilwara,"Pratap Nagar, Bhilwara - RSPCB",02-06-2024 22:00:00,25.339605,74.618883,PM10,35,70,50
India,Rajasthan,Bhilwara,"Pratap Nagar, Bhilwara - RSPCB",02-06-2024 22:00:00,25.339605,74.618883,SO2,9,24,13
India,Rajasthan,Bhilwara,"Pratap Nagar, Bhilwara - RSPCB",02-06-2024 22:00:00,25.339605,74.618883,OZONE,48,85,79
India,Rajasthan,Dausa,"Khatikan Mohalla, Dausa - RSPCB",02-06-2024 22:00:00,26.895552,76.334753,PM2.5,21,80,49
India,Rajasthan,Dausa,"Khatikan Mohalla, Dausa - RSPCB",02-06-2024 22:00:00,26.895552,76.334753,NO2,1,41,19
India,Rajasthan,Dungarpur,"Bhoiwada, Dungarpur - RSPCB",02-06-2024 22:00:00,23.837789,73.714926,PM2.5,35,80,47
India,Rajasthan,Dungarpur,"Bhoiwada, Dungarpur - RSPCB",02-06-2024 22:00:00,23.837789,73.714926,PM10,78,194,108
India,Rajasthan,Dungarpur,"Bhoiwada, Dungarpur - RSPCB",02-06-2024 22:00:00,23.837789,73.714926,NO2,7,18,10
India,Rajasthan,Dungarpur,"Bhoiwada, Dungarpur - RSPCB",02-06-2024 22:00:00,23.837789,73.714926,NH3,1,3,2
India,Rajasthan,Dungarpur,"Bhoiwada, Dungarpur - RSPCB",02-06-2024 22:00:00,23.837789,73.714926,OZONE,17,83,69
India,Rajasthan,Hanumangarh,"Housing Board, Hanumangarh - RSPCB",02-06-2024 22:00:00,29.610750,74.283608,NO2,2,47,10
India,Rajasthan,Jaipur,"Adarsh Nagar, Jaipur - RSPCB",02-06-2024 22:00:00,26.902909,75.836858,NH3,3,6,4
India,Rajasthan,Jaipur,"Mansarovar Sector-12, Jaipur - RSPCB",02-06-2024 22:00:00,26.843698,75.766894,NH3,1,23,3
India,Rajasthan,Jaipur,"Mansarovar Sector-12, Jaipur - RSPCB",02-06-2024 22:00:00,26.843698,75.766894,SO2,NA,NA,NA
India,Rajasthan,Jaipur,"Police Commissionerate, Jaipur - RSPCB",02-06-2024 22:00:00,26.9164092,75.7994901,CO,16,62,33
India,Rajasthan,Jaipur,"RIICO Sitapura, Jaipur - RSPCB",02-06-2024 22:00:00,26.786682,75.827928,PM2.5,20,75,42
India,Rajasthan,Jaipur,"Sector-2 Murlipura, Jaipur - RSPCB",02-06-2024 22:00:00,26.960669,75.771817,PM2.5,32,71,51
India,Rajasthan,Jaipur,"Sector-2 Murlipura, Jaipur - RSPCB",02-06-2024 22:00:00,26.960669,75.771817,NO2,6,33,16
India,Rajasthan,Jaipur,"Sector-2 Murlipura, Jaipur - RSPCB",02-06-2024 22:00:00,26.960669,75.771817,NH3,1,5,2
India,Rajasthan,Jaipur,"Sector-2 Murlipura, Jaipur - RSPCB",02-06-2024 22:00:00,26.960669,75.771817,OZONE,14,98,66
India,Rajasthan,Jaipur,"Shastri Nagar, Jaipur - RSPCB",02-06-2024 22:00:00,26.9502929,75.730943,PM2.5,52,116,80
India,Rajasthan,Jaipur,"Shastri Nagar, Jaipur - RSPCB",02-06-2024 22:00:00,26.9502929,75.730943,NO2,12,48,26
India,Rajasthan,Jaipur,"Shastri Nagar, Jaipur - RSPCB",02-06-2024 22:00:00,26.9502929,75.730943,SO2,7,41,20
India,Rajasthan,Jaipur,"Shastri Nagar, Jaipur - RSPCB",02-06-2024 22:00:00,26.9502929,75.730943,OZONE,18,61,44
India,Rajasthan,Jalore,"Mudtra Sili, Jalore - RSPCB",02-06-2024 22:00:00,25.344694,72.626208,NO2,4,32,11
India,Rajasthan,Jalore,"Mudtra Sili, Jalore - RSPCB",02-06-2024 22:00:00,25.344694,72.626208,NH3,3,6,4
India,Rajasthan,Jalore,"Mudtra Sili, Jalore - RSPCB",02-06-2024 22:00:00,25.344694,72.626208,OZONE,38,99,88
India,Rajasthan,Jhalawar,"Rajlaxmi Nagar, Jhalawar - RSPCB",02-06-2024 22:00:00,24.588397,76.172782,NH3,1,3,2
India,Rajasthan,Jhunjhunu,"Indra Nagar, Jhunjhunu - RSPCB",02-06-2024 22:00:00,28.108988,75.386577,SO2,3,6,5
India,Rajasthan,Jodhpur,"Collectorate, Jodhpur - RSPCB",02-06-2024 22:00:00,26.268249,73.0193853,OZONE,12,69,55
India,Rajasthan,Jodhpur,"Digari Kalan, Jodhpur - RSPCB",02-06-2024 22:00:00,26.295810,73.082283,OZONE,35,92,84
India,Rajasthan,Jodhpur,"Jhalamand, Jodhpur - RSPCB",02-06-2024 22:00:00,26.215415,73.070156,NO2,2,17,7
India,Rajasthan,Jodhpur,"Jhalamand, Jodhpur - RSPCB",02-06-2024 22:00:00,26.215415,73.070156,CO,8,15,9
India,Rajasthan,Jodhpur,"Jhalamand, Jodhpur - RSPCB",02-06-2024 22:00:00,26.215415,73.070156,OZONE,23,61,55
India,Rajasthan,Jodhpur,"Samrat Ashok Udhyan, Jodhpur - RSPCB",02-06-2024 22:00:00,26.253384,72.976571,NO2,2,21,5
India,Rajasthan,Karauli,"Satyawati Vihar, Karauli - RSPCB",02-06-2024 22:00:00,26.506177,77.025989,SO2,6,17,14
India,Rajasthan,Kota,"Dhanmandi, Kota - RSPCB",02-06-2024 22:00:00,25.164090,75.858137,CO,2,26,15
India,Rajasthan,Kota,"Nayapura, Kota - RSPCB",02-06-2024 22:00:00,25.196024,75.855668,PM2.5,34,74,46
India,Rajasthan,Nagaur,"Karni Colony, Nagaur - RSPCB",02-06-2024 22:00:00,27.213494,73.734444,NH3,4,16,10
India,Rajasthan,Pali,"Indira Colony Vistar, Pali - RSPCB",02-06-2024 22:00:00,25.771061, 73.340227,NH3,6,11,8
India,Rajasthan,Pali,"Indira Colony Vistar, Pali - RSPCB",02-06-2024 22:00:00,25.771061, 73.340227,SO2,5,11,8
India,Rajasthan,Pali,"Indira Colony Vistar, Pali - RSPCB",02-06-2024 22:00:00,25.771061, 73.340227,CO,18,62,42
India,Rajasthan,Pratapgarh,"Pragati Nagar, Pratapgarh - RSPCB",02-06-2024 22:00:00,24.041198,74.780702,PM2.5,7,31,20
India,Rajasthan,Pratapgarh,"Pragati Nagar, Pratapgarh - RSPCB",02-06-2024 22:00:00,24.041198,74.780702,NH3,4,5,5
India,Rajasthan,Pratapgarh,"Pragati Nagar, Pratapgarh - RSPCB",02-06-2024 22:00:00,24.041198,74.780702,OZONE,20,96,89
India,Rajasthan,Rajsamand,"Dhoinda, Rajsamand - RSPCB",02-06-2024 22:00:00,25.036360,73.883502,NO2,2,17,7
India,Rajasthan,Rajsamand,"Dhoinda, Rajsamand - RSPCB",02-06-2024 22:00:00,25.036360,73.883502,OZONE,41,106,98
India,Rajasthan,Sikar,"Radhakishan Pura, Sikar - RSPCB",02-06-2024 22:00:00,27.608912,75.153302,PM10,40,211,90
India,Rajasthan,Sikar,"Radhakishan Pura, Sikar - RSPCB",02-06-2024 22:00:00,27.608912,75.153302,OZONE,52,69,61
India,Rajasthan,Sirohi,"Vedhaynath Colony, Sirohi - RSPCB",02-06-2024 22:00:00,24.885261,72.857549,PM2.5,20,63,33
India,Rajasthan,Sirohi,"Vedhaynath Colony, Sirohi - RSPCB",02-06-2024 22:00:00,24.885261,72.857549,NO2,3,18,8
India,Rajasthan,Sri Ganganagar,"Old City, Sri Ganganagar - RSPCB",02-06-2024 22:00:00,29.931624,73.864511,NO2,NA,NA,NA
India,Rajasthan,Sri Ganganagar,"Old City, Sri Ganganagar - RSPCB",02-06-2024 22:00:00,29.931624,73.864511,SO2,NA,NA,NA
India,Rajasthan,Sri Ganganagar,"Old City, Sri Ganganagar - RSPCB",02-06-2024 22:00:00,29.931624,73.864511,CO,6,120,63
India,Rajasthan,Tonk,"Shastri Nagar, Tonk - RSPCB",02-06-2024 22:00:00,26.159933,75.780517,PM10,45,111,77
India,Rajasthan,Tonk,"Shastri Nagar, Tonk - RSPCB",02-06-2024 22:00:00,26.159933,75.780517,SO2,2,8,5
India,Rajasthan,Udaipur,"Ashok Nagar, Udaipur - RSPCB",02-06-2024 22:00:00,24.5886166,73.6321397,OZONE,24,44,39
India,TamilNadu,Ariyalur,"Keelapalur, Ariyalur - TNPCB",02-06-2024 22:00:00,11.06825,79.07033,PM2.5,19,41,29
India,TamilNadu,Chennai,"Alandur Bus Depot, Chennai - CPCB",02-06-2024 22:00:00,12.9099161,80.1076538,PM2.5,23,91,36
India,TamilNadu,Chennai,"Alandur Bus Depot, Chennai - CPCB",02-06-2024 22:00:00,12.9099161,80.1076538,PM10,23,91,36
India,TamilNadu,Chennai,"Alandur Bus Depot, Chennai - CPCB",02-06-2024 22:00:00,12.9099161,80.1076538,OZONE,3,16,8
India,TamilNadu,Chennai,"Kodungaiyur, Chennai - TNPCB",02-06-2024 22:00:00,13.1278,80.2642,NO2,9,26,15
India,TamilNadu,Chennai,"Kodungaiyur, Chennai - TNPCB",02-06-2024 22:00:00,13.1278,80.2642,NH3,3,6,5
India,TamilNadu,Chennai,"Perungudi, Chennai - TNPCB",02-06-2024 22:00:00,12.9533,80.2357,SO2,2,8,4
India,TamilNadu,Chennai,"Royapuram, Chennai - TNPCB",02-06-2024 22:00:00,13.1036,80.2909,PM2.5,14,75,29
India,TamilNadu,Gummidipoondi,"Anthoni Pillai Nagar, Gummidipoondi - TNPCB",02-06-2024 22:00:00,13.4127,80.1081,NH3,4,6,5
India,TamilNadu,Ramanathapuram,"Chalai Bazaar, Ramanathapuram - TNPCB",02-06-2024 22:00:00,9.36399,78.831977,PM10,NA,NA,NA
India,TamilNadu,Tirupur,"Kumaran College, Tirupur - TNPCB",02-06-2024 22:00:00,11.0973603,77.3228673,PM2.5,5,16,9
India,Telangana,Hyderabad,"Bollaram Industrial Area, Hyderabad - TSPCB",02-06-2024 22:00:00,17.540891,78.358528,SO2,13,46,25
India,Telangana,Hyderabad,"Central University, Hyderabad - TSPCB",02-06-2024 22:00:00,17.460103,78.334361,CO,14,38,23
India,Telangana,Hyderabad,"Central University, Hyderabad - TSPCB",02-06-2024 22:00:00,17.460103,78.334361,OZONE,3,4,4
India,Telangana,Hyderabad,"ICRISAT Patancheru, Hyderabad - TSPCB",02-06-2024 22:00:00,17.518400,78.278777,PM2.5,20,114,47
India,Telangana,Hyderabad,"ICRISAT Patancheru, Hyderabad - TSPCB",02-06-2024 22:00:00,17.518400,78.278777,PM10,49,148,86
India,Telangana,Hyderabad,"ICRISAT Patancheru, Hyderabad - TSPCB",02-06-2024 22:00:00,17.518400,78.278777,NO2,15,18,16
India,Telangana,Hyderabad,"ICRISAT Patancheru, Hyderabad - TSPCB",02-06-2024 22:00:00,17.518400,78.278777,SO2,12,32,20
India,Telangana,Hyderabad,"ICRISAT Patancheru, Hyderabad - TSPCB",02-06-2024 22:00:00,17.518400,78.278777,CO,28,74,40
India,Telangana,Hyderabad,"ICRISAT Patancheru, Hyderabad - TSPCB",02-06-2024 22:00:00,17.518400,78.278777,OZONE,10,46,36
India,Telangana,Hyderabad,"Kokapet, Hyderabad - TSPCB",02-06-2024 22:00:00,17.393559,78.339194,NO2,10,10,10
India,Telangana,Hyderabad,"Kokapet, Hyderabad - TSPCB",02-06-2024 22:00:00,17.393559,78.339194,NH3,2,2,2
India,Telangana,Hyderabad,"Kokapet, Hyderabad - TSPCB",02-06-2024 22:00:00,17.393559,78.339194,OZONE,2,4,3
India,Telangana,Hyderabad,"Kompally Municipal Office, Hyderabad - TSPCB",02-06-2024 22:00:00,17.544899,78.486949,PM10,NA,NA,NA
India,Telangana,Hyderabad,"Kompally Municipal Office, Hyderabad - TSPCB",02-06-2024 22:00:00,17.544899,78.486949,NO2,NA,NA,NA
India,Telangana,Hyderabad,"Kompally Municipal Office, Hyderabad - TSPCB",02-06-2024 22:00:00,17.544899,78.486949,OZONE,NA,NA,NA
India,Telangana,Hyderabad,"New Malakpet, Hyderabad - TSPCB",02-06-2024 22:00:00,17.37206,78.50864,SO2,NA,NA,NA
India,Telangana,Hyderabad,"New Malakpet, Hyderabad - TSPCB",02-06-2024 22:00:00,17.37206,78.50864,CO,6,20,13
India,Telangana,Hyderabad,"New Malakpet, Hyderabad - TSPCB",02-06-2024 22:00:00,17.37206,78.50864,OZONE,16,47,36
India,Telangana,Hyderabad,"Ramachandrapuram, Hyderabad - TSPCB",02-06-2024 22:00:00,17.528544,78.286195,NO2,10,11,11
India,Telangana,Hyderabad,"Sanathnagar, Hyderabad - TSPCB",02-06-2024 22:00:00,17.4559458,78.4332152,SO2,2,8,5
India,Telangana,Hyderabad,"Somajiguda, Hyderabad - TSPCB",02-06-2024 22:00:00,17.417094,78.457437,PM2.5,44,81,58
India,Telangana,Hyderabad,"Somajiguda, Hyderabad - TSPCB",02-06-2024 22:00:00,17.417094,78.457437,PM10,64,77,70
India,Telangana,Hyderabad,"Somajiguda, Hyderabad - TSPCB",02-06-2024 22:00:00,17.417094,78.457437,SO2,16,19,17
India,Telangana,Hyderabad,"Somajiguda, Hyderabad - TSPCB",02-06-2024 22:00:00,17.417094,78.457437,CO,22,53,42
India,Telangana,Hyderabad,"Zoo Park, Hyderabad - TSPCB",02-06-2024 22:00:00,17.349694,78.451437,NH3,1,1,1
India,Telangana,Hyderabad,"Zoo Park, Hyderabad - TSPCB",02-06-2024 22:00:00,17.349694,78.451437,CO,20,78,35
India,Tripura,Agartala,"Bardowali, Agartala - Tripura SPCB",02-06-2024 22:00:00,23.8175497,91.2726974,PM2.5,34,91,70
India,Tripura,Agartala,"Bardowali, Agartala - Tripura SPCB",02-06-2024 22:00:00,23.8175497,91.2726974,SO2,35,37,36
India,Uttar_Pradesh,Agra,"Manoharpur, Agra - UPPCB",02-06-2024 22:00:00,27.23711,78.01936,PM2.5,20,65,37
India,Uttar_Pradesh,Agra,"Manoharpur, Agra - UPPCB",02-06-2024 22:00:00,27.23711,78.01936,NH3,3,3,3
India,Uttar_Pradesh,Agra,"Shahjahan Garden, Agra - UPPCB",02-06-2024 22:00:00,27.169338,78.03582,NO2,19,19,19
India,Uttar_Pradesh,Agra,"Shastripuram, Agra - UPPCB",02-06-2024 22:00:00,27.19862,77.92066,PM2.5,7,47,26
India,Uttar_Pradesh,Baghpat,"Sardar Patel Inter College, Baghpat - UPPCB",02-06-2024 22:00:00,28.964949,77.278761,OZONE,3,63,50
India,Uttar_Pradesh,Bareilly,"Civil Lines, Bareilly - UPPCB",02-06-2024 22:00:00,28.359581,79.414455,PM2.5,NA,NA,NA
India,Uttar_Pradesh,Bareilly,"Civil Lines, Bareilly - UPPCB",02-06-2024 22:00:00,28.359581,79.414455,PM10,NA,NA,NA
India,Uttar_Pradesh,Bareilly,"Civil Lines, Bareilly - UPPCB",02-06-2024 22:00:00,28.359581,79.414455,CO,9,89,25
India,Uttar_Pradesh,Bareilly,"Rajendra Nagar, Bareilly - UPPCB",02-06-2024 22:00:00,28.38910936,79.42963708,NO2,2,8,2
India,Uttar_Pradesh,Bareilly,"Rajendra Nagar, Bareilly - UPPCB",02-06-2024 22:00:00,28.38910936,79.42963708,SO2,47,54,50
India,Uttar_Pradesh,Bareilly,"Rajendra Nagar, Bareilly - UPPCB",02-06-2024 22:00:00,28.38910936,79.42963708,OZONE,1,4,1
India,Uttar_Pradesh,Bulandshahr,"Yamunapuram, Bulandshahr - UPPCB",02-06-2024 22:00:00,28.406963,77.849831,CO,22,55,36
India,Uttar_Pradesh,Firozabad,"Vibhab Nagar, Firozabad - UPPCB",02-06-2024 22:00:00,27.1594,78.3953,SO2,4,29,14
India,Uttar_Pradesh,Firozabad,"Vibhab Nagar, Firozabad - UPPCB",02-06-2024 22:00:00,27.1594,78.3953,OZONE,7,46,32
India,Uttar_Pradesh,Ghaziabad,"Indirapuram, Ghaziabad - UPPCB",02-06-2024 22:00:00,28.646233,77.358075,NH3,9,27,14
India,Uttar_Pradesh,Ghaziabad,"Loni, Ghaziabad - UPPCB",02-06-2024 22:00:00,28.757294,77.278792,OZONE,1,52,37
India,Uttar_Pradesh,Ghaziabad,"Sanjay Nagar, Ghaziabad - UPPCB",02-06-2024 22:00:00,28.685382,77.453839,OZONE,4,150,98
India,Uttar_Pradesh,Ghaziabad,"Vasundhara, Ghaziabad - UPPCB",02-06-2024 22:00:00,28.6603346,77.3572563,NO2,16,84,38
India,Uttar_Pradesh,Ghaziabad,"Vasundhara, Ghaziabad - UPPCB",02-06-2024 22:00:00,28.6603346,77.3572563,OZONE,15,126,91
India,Uttar_Pradesh,Greater Noida,"Knowledge Park - III, Greater Noida - UPPCB",02-06-2024 22:00:00,28.47272,77.482000,PM10,110,235,151
India,Uttar_Pradesh,Greater Noida,"Knowledge Park - III, Greater Noida - UPPCB",02-06-2024 22:00:00,28.47272,77.482000,OZONE,5,272,175
India,Uttar_Pradesh,Greater Noida,"Knowledge Park - V, Greater Noida - UPPCB",02-06-2024 22:00:00,28.557054,77.453663,OZONE,3,205,114
India,Uttar_Pradesh,Jhansi,"Shivaji Nagar, Jhansi - UPPCB",02-06-2024 22:00:00,25.4547,78.6039,NO2,1,100,14
India,Uttar_Pradesh,Kanpur,"FTI Kidwai Nagar, Kanpur - UPPCB",02-06-2024 22:00:00,26.428282,80.327067,PM2.5,44,186,81
India,Uttar_Pradesh,Kanpur,"FTI Kidwai Nagar, Kanpur - UPPCB",02-06-2024 22:00:00,26.428282,80.327067,SO2,13,13,13
India,Uttar_Pradesh,Kanpur,"NSI Kalyanpur, Kanpur - UPPCB",02-06-2024 22:00:00,26.509954,80.249612,PM2.5,8,142,74
India,Uttar_Pradesh,Kanpur,"Nehru Nagar, Kanpur - UPPCB",02-06-2024 22:00:00,26.4703136,80.3229863,OZONE,116,268,209
India,Uttar_Pradesh,Khurja,"Kalindi Kunj, Khurja - UPPCB",02-06-2024 22:00:00,28.2348927,77.8683002,PM10,75,215,145
India,Uttar_Pradesh,Lucknow,"Gomti Nagar, Lucknow - UPPCB",02-06-2024 22:00:00,26.868120,81.005119,PM10,27,144,105
India,Uttar_Pradesh,Lucknow,"Gomti Nagar, Lucknow - UPPCB",02-06-2024 22:00:00,26.868120,81.005119,OZONE,43,53,50
India,Uttar_Pradesh,Lucknow,"Kendriya Vidyalaya, Lucknow - CPCB",02-06-2024 22:00:00,26.906111,80.948222,PM10,120,154,138
India,Uttar_Pradesh,Lucknow,"Kendriya Vidyalaya, Lucknow - CPCB",02-06-2024 22:00:00,26.906111,80.948222,CO,2,42,25
India,Uttar_Pradesh,Lucknow,"Kukrail Picnic Spot-1, Lucknow - UPPCB",02-06-2024 22:00:00,26.90723,80.98579,PM10,75,124,102
India,Uttar_Pradesh,Lucknow,"Kukrail Picnic Spot-1, Lucknow - UPPCB",02-06-2024 22:00:00,26.90723,80.98579,CO,5,31,22
India,Uttar_Pradesh,Lucknow,"Lalbagh, Lucknow - CPCB",02-06-2024 22:00:00,26.8458805,80.9365541,CO,6,110,70
India,Uttar_Pradesh,Lucknow,"Lalbagh, Lucknow - CPCB",02-06-2024 22:00:00,26.8458805,80.9365541,OZONE,31,160,113
India,Uttar_Pradesh,Lucknow,"Talkatora District Industries Center, Lucknow - CPCB",02-06-2024 22:00:00,26.83399722,80.8917361,PM2.5,140,275,206
India,Uttar_Pradesh,Lucknow,"Talkatora District Industries Center, Lucknow - CPCB",02-06-2024 22:00:00,26.83399722,80.8917361,CO,8,37,27
India,Uttar_Pradesh,Meerut,"Ganga Nagar, Meerut - UPPCB",02-06-2024 22:00:00,28.999264,77.7590354,NH3,8,21,12
India,Uttar_Pradesh,Meerut,"Jai Bhim Nagar, Meerut - UPPCB",02-06-2024 22:00:00,28.9535882,77.7622941,PM2.5,48,208,92
India,Uttar_Pradesh,Meerut,"Pallavpuram Phase 2, Meerut - UPPCB",02-06-2024 22:00:00,29.063510,77.709723,CO,20,88,43
India,Uttar_Pradesh,Moradabad,"Eco Herbal Park, Moradabad - UPPCB",02-06-2024 22:00:00,28.840739,78.697531,NH3,7,17,9
India,Uttar_Pradesh,Moradabad,"Eco Herbal Park, Moradabad - UPPCB",02-06-2024 22:00:00,28.840739,78.697531,SO2,2,40,16
India,Uttar_Pradesh,Moradabad,"Eco Herbal Park, Moradabad - UPPCB",02-06-2024 22:00:00,28.840739,78.697531,CO,20,72,38
India,Uttar_Pradesh,Moradabad,"Employment Office, Moradabad - UPPCB",02-06-2024 22:00:00,28.88528,78.73880,NO2,17,17,17
India,Uttar_Pradesh,Moradabad,"Employment Office, Moradabad - UPPCB",02-06-2024 22:00:00,28.88528,78.73880,NH3,4,4,4
India,Uttar_Pradesh,Moradabad,"Employment Office, Moradabad - UPPCB",02-06-2024 22:00:00,28.88528,78.73880,CO,13,48,25
India,Uttar_Pradesh,Moradabad,"Jigar Colony, Moradabad - UPPCB",02-06-2024 22:00:00,28.856664,78.772638,PM10,100,370,169
India,Uttar_Pradesh,Moradabad,"Jigar Colony, Moradabad - UPPCB",02-06-2024 22:00:00,28.856664,78.772638,NH3,6,6,6
India,Uttar_Pradesh,Moradabad,"Jigar Colony, Moradabad - UPPCB",02-06-2024 22:00:00,28.856664,78.772638,SO2,19,22,20
India,Uttar_Pradesh,Moradabad,"Kashiram Nagar, Moradabad - UPPCB",02-06-2024 22:00:00,28.849399,78.742362,NO2,12,13,12
India,Uttar_Pradesh,Muzaffarnagar,"New Mandi, Muzaffarnagar - UPPCB",02-06-2024 22:00:00,29.4723508,77.7194031,NO2,9,41,19
India,Uttar_Pradesh,Noida,"Sector-1, Noida - UPPCB",02-06-2024 22:00:00,28.5898,77.3101,NO2,13,92,44
India,Uttar_Pradesh,Noida,"Sector-1, Noida - UPPCB",02-06-2024 22:00:00,28.5898,77.3101,NH3,5,13,8
India,Uttar_Pradesh,Noida,"Sector-116, Noida - UPPCB",02-06-2024 22:00:00,28.569230,77.393848,NH3,9,19,12
India,Uttar_Pradesh,Prayagraj,"Jhunsi, Prayagraj - UPPCB",02-06-2024 22:00:00,25.425602,81.917152,CO,4,56,7
India,Uttar_Pradesh,Prayagraj,"Motilal Nehru NIT, Prayagraj - UPPCB",02-06-2024 22:00:00,25.494,81.863,OZONE,8,91,65
India,Uttar_Pradesh,Prayagraj,"Nagar Nigam, Prayagraj - UPPCB",02-06-2024 22:00:00,25.44919916 ,81.82735986 ,NH3,1,6,2
India,Uttar_Pradesh,Prayagraj,"Nagar Nigam, Prayagraj - UPPCB",02-06-2024 22:00:00,25.44919916 ,81.82735986 ,CO,16,106,26
India,Uttar_Pradesh,Varanasi,"Bhelupur, Varanasi - UPPCB",02-06-2024 22:00:00,25.301778,82.996789,SO2,30,31,31
India,Uttar_Pradesh,Varanasi,"Bhelupur, Varanasi - UPPCB",02-06-2024 22:00:00,25.301778,82.996789,CO,15,54,17
India,Uttar_Pradesh,Varanasi,"IESD Banaras Hindu University, Varanasi - UPPCB",02-06-2024 22:00:00,25.262326,82.995408,PM2.5,NA,NA,NA
India,Uttar_Pradesh,Varanasi,"IESD Banaras Hindu University, Varanasi - UPPCB",02-06-2024 22:00:00,25.262326,82.995408,NO2,2,2,2
India,Uttar_Pradesh,Vrindavan,"Omex Eternity, Vrindavan - UPPCB",02-06-2024 22:00:00,27.5714090,77.6557570,PM2.5,12,68,29
India,Uttarakhand,Kashipur,"Govt. Girls Inter College, Kashipur - UKPCB",02-06-2024 22:00:00,29.2124114,78.9611753,NH3,1,4,3
India,Uttarakhand,Kashipur,"Govt. Girls Inter College, Kashipur - UKPCB",02-06-2024 22:00:00,29.2124114,78.9611753,CO,1,41,14
India,Uttarakhand,Kashipur,"Govt. Girls Inter College, Kashipur - UKPCB",02-06-2024 22:00:00,29.2124114,78.9611753,OZONE,34,114,94
India,Uttarakhand,Rishikesh,"Shivaji Nagar, Rishikesh - UKPCB",02-06-2024 22:00:00,30.075911,78.2859547,NO2,8,72,27
India,West_Bengal,Asansol,"Asansol Court Area, Asansol - WBPCB",02-06-2024 22:00:00,23.685297,86.945968,PM10,63,121,90
India,West_Bengal,Asansol,"Asansol Court Area, Asansol - WBPCB",02-06-2024 22:00:00,23.685297,86.945968,OZONE,11,86,59
India,West_Bengal,Barrackpore,"SVSPA Campus, Barrackpore - WBPCB",02-06-2024 22:00:00,22.7605581,88.3617589,PM10,42,86,66
India,West_Bengal,Durgapur,"PCBL Residential Complex, Durgapur - WBPCB",02-06-2024 22:00:00,23.5087640,87.3544400,SO2,8,20,10
India,West_Bengal,Durgapur,"Sidhu Kanhu Indoor Stadium, Durgapur - WBPCB",02-06-2024 22:00:00,23.5404352,87.2892225,PM10,69,119,98
India,West_Bengal,Durgapur,"Sidhu Kanhu Indoor Stadium, Durgapur - WBPCB",02-06-2024 22:00:00,23.5404352,87.2892225,NH3,4,6,5
India,West_Bengal,Howrah,"Belur Math, Howrah - WBPCB",02-06-2024 22:00:00,22.629801,88.352017,PM10,61,90,71
India,West_Bengal,Howrah,"Belur Math, Howrah - WBPCB",02-06-2024 22:00:00,22.629801,88.352017,NO2,4,13,7
India,West_Bengal,Howrah,"Belur Math, Howrah - WBPCB",02-06-2024 22:00:00,22.629801,88.352017,CO,2,14,3
India,West_Bengal,Howrah,"Ghusuri, Howrah - WBPCB",02-06-2024 22:00:00,22.611968,88.347422,PM2.5,NA,NA,NA
India,West_Bengal,Howrah,"Ghusuri, Howrah - WBPCB",02-06-2024 22:00:00,22.611968,88.347422,NH3,NA,NA,NA
India,West_Bengal,Howrah,"Padmapukur, Howrah - WBPCB",02-06-2024 22:00:00,22.5687319,88.2797276,PM10,58,86,73
India,West_Bengal,Kolkata,"Ballygunge, Kolkata - WBPCB",02-06-2024 22:00:00,22.5367507,88.3638022,PM2.5,23,38,29
India,West_Bengal,Kolkata,"Ballygunge, Kolkata - WBPCB",02-06-2024 22:00:00,22.5367507,88.3638022,OZONE,25,53,41
India,West_Bengal,Kolkata,"Fort William, Kolkata - WBPCB",02-06-2024 22:00:00,22.556640,88.342674,NH3,1,1,1
India,West_Bengal,Kolkata,"Fort William, Kolkata - WBPCB",02-06-2024 22:00:00,22.556640,88.342674,SO2,4,5,4
India,West_Bengal,Kolkata,"Jadavpur, Kolkata - WBPCB",02-06-2024 22:00:00,22.49929,88.36917,PM2.5,41,61,50
India,West_Bengal,Kolkata,"Rabindra Bharati University, Kolkata - WBPCB",02-06-2024 22:00:00,22.627847,88.380669,PM10,49,73,58
India,West_Bengal,Kolkata,"Rabindra Sarobar, Kolkata - WBPCB",02-06-2024 22:00:00,22.51106,88.35142,PM10,34,50,42
India,West_Bengal,Kolkata,"Rabindra Sarobar, Kolkata - WBPCB",02-06-2024 22:00:00,22.51106,88.35142,NH3,7,8,8
India,West_Bengal,Kolkata,"Rabindra Sarobar, Kolkata - WBPCB",02-06-2024 22:00:00,22.51106,88.35142,CO,17,22,19
India,West_Bengal,Siliguri,"Ward-32 Bapupara, Siliguri - WBPCB",02-06-2024 22:00:00,26.6879226,88.4152495,CO,20,40,32
India,Andhra_Pradesh,Amaravati,"Secretariat, Amaravati - APPCB",02-06-2024 22:00:00,16.5150833,80.5181667,NH3,3,4,4
India,Andhra_Pradesh,Anantapur,"Gulzarpet, Anantapur - APPCB",02-06-2024 22:00:00,14.675886,77.593027,OZONE,8,46,30
India,Andhra_Pradesh,Chittoor,"Gangineni Cheruvu, Chittoor - APPCB",02-06-2024 22:00:00,13.204880,79.097889,SO2,NA,NA,NA
India,Andhra_Pradesh,Kadapa,"Yerramukkapalli, Kadapa - APPCB",02-06-2024 22:00:00,14.465052,78.824187,PM2.5,32,67,36
India,Andhra_Pradesh,Rajamahendravaram,"Anand Kala Kshetram, Rajamahendravaram - APPCB",02-06-2024 22:00:00,16.9872867,81.7363176,NH3,6,12,8
India,Andhra_Pradesh,Rajamahendravaram,"Anand Kala Kshetram, Rajamahendravaram - APPCB",02-06-2024 22:00:00,16.9872867,81.7363176,CO,4,45,25
India,Andhra_Pradesh,Tirupati,"Tirumala, Tirupati - APPCB",02-06-2024 22:00:00,13.67,79.35,PM10,36,70,49
India,Andhra_Pradesh,Tirupati,"Tirumala, Tirupati - APPCB",02-06-2024 22:00:00,13.67,79.35,NH3,1,2,1
India,Andhra_Pradesh,Tirupati,"Tirumala, Tirupati - APPCB",02-06-2024 22:00:00,13.67,79.35,OZONE,24,60,47
India,Andhra_Pradesh,Tirupati,"Vaikuntapuram, Tirupati - APPCB",02-06-2024 22:00:00,13.615387,79.409230,PM2.5,NA,NA,NA
India,Andhra_Pradesh,Tirupati,"Vaikuntapuram, Tirupati - APPCB",02-06-2024 22:00:00,13.615387,79.409230,SO2,NA,NA,NA
India,Andhra_Pradesh,Tirupati,"Vaikuntapuram, Tirupati - APPCB",02-06-2024 22:00:00,13.615387,79.409230,CO,10,16,13
India,Andhra_Pradesh,Vijayawada,"Rajiv Gandhi Park, Vijayawada - APPCB",02-06-2024 22:00:00,16.509717,80.612222,PM10,53,79,65
India,Andhra_Pradesh,Vijayawada,"Rajiv Gandhi Park, Vijayawada - APPCB",02-06-2024 22:00:00,16.509717,80.612222,NO2,21,51,28
India,Andhra_Pradesh,Vijayawada,"Rajiv Gandhi Park, Vijayawada - APPCB",02-06-2024 22:00:00,16.509717,80.612222,OZONE,23,51,41
India,Andhra_Pradesh,Visakhapatnam,"GVM Corporation, Visakhapatnam - APPCB",02-06-2024 22:00:00,17.72,83.3,PM10,NA,NA,NA
India,Andhra_Pradesh,Visakhapatnam,"GVM Corporation, Visakhapatnam - APPCB",02-06-2024 22:00:00,17.72,83.3,NH3,NA,NA,NA
India,Andhra_Pradesh,Visakhapatnam,"GVM Corporation, Visakhapatnam - APPCB",02-06-2024 22:00:00,17.72,83.3,CO,NA,NA,NA
India,Assam,Byrnihat,"Central Academy for SFS, Byrnihat - PCBA",02-06-2024 22:00:00,26.071318,91.87488,PM2.5,25,288,71
India,Assam,Byrnihat,"Central Academy for SFS, Byrnihat - PCBA",02-06-2024 22:00:00,26.071318,91.87488,NH3,13,18,15
India,Assam,Guwahati,"IITG, Guwahati - PCBA",02-06-2024 22:00:00,26.2028636,91.70046436,OZONE,17,58,35
India,Assam,Guwahati,"LGBI Airport, Guwahati - PCBA",02-06-2024 22:00:00,26.10887,91.589544,PM2.5,NA,NA,NA
India,Assam,Guwahati,"LGBI Airport, Guwahati - PCBA",02-06-2024 22:00:00,26.10887,91.589544,NO2,NA,NA,NA
India,Assam,Guwahati,"LGBI Airport, Guwahati - PCBA",02-06-2024 22:00:00,26.10887,91.589544,SO2,NA,NA,NA
India,Assam,Guwahati,"Pan Bazaar, Guwahati - PCBA",02-06-2024 22:00:00,26.187500,91.744194,SO2,34,45,39
India,Assam,Nagaon,"Christianpatty, Nagaon - PCBA",02-06-2024 22:00:00,26.349082,92.68449,PM2.5,45,336,99
India,Assam,Nagaon,"Christianpatty, Nagaon - PCBA",02-06-2024 22:00:00,26.349082,92.68449,PM10,52,213,88
India,Assam,Silchar,"Tarapur, Silchar - PCBA",02-06-2024 22:00:00,24.82827,92.79525,PM2.5,32,50,38
India,Assam,Silchar,"Tarapur, Silchar - PCBA",02-06-2024 22:00:00,24.82827,92.79525,SO2,1,5,2
India,Assam,Sivasagar,"Girls College, Sivasagar - PCBA",02-06-2024 22:00:00,26.987634,94.636574,PM2.5,35,50,36
India,Assam,Sivasagar,"Girls College, Sivasagar - PCBA",02-06-2024 22:00:00,26.987634,94.636574,NH3,2,3,2
India,Bihar,Araria,"Kharahiya Basti, Araria - BSPCB",02-06-2024 22:00:00,26.146529,87.454184,NO2,5,9,7
India,Bihar,Arrah,"New DM Office, Arrah - BSPCB",02-06-2024 22:00:00,25.5626095,84.663264,OZONE,5,44,17
India,Bihar,Aurangabad,"Gurdeo Nagar, Aurangabad - BSPCB",02-06-2024 22:00:00,24.75746,84.366208,PM2.5,NA,NA,NA
India,Bihar,Aurangabad,"Gurdeo Nagar, Aurangabad - BSPCB",02-06-2024 22:00:00,24.75746,84.366208,NO2,1,21,8
India,Bihar,Bettiah,"Kamalnath Nagar, Bettiah - BSPCB",02-06-2024 22:00:00,26.80365,84.51954,CO,56,78,67
India,Bihar,Bhagalpur,"DM Office_Kachari Chowk, Bhagalpur - BSPCB",02-06-2024 22:00:00,25.251013,86.989001,SO2,18,53,32
India,Bihar,Bhagalpur,"Mayaganj, Bhagalpur - BSPCB",02-06-2024 22:00:00,25.265194,87.012947,CO,20,39,32
India,Bihar,Bhagalpur,"Mayaganj, Bhagalpur - BSPCB",02-06-2024 22:00:00,25.265194,87.012947,OZONE,11,44,33
India,Bihar,Bihar Sharif,"D M Colony, Bihar Sharif - BSPCB",02-06-2024 22:00:00,25.204762,85.514960,PM2.5,17,72,42
India,Bihar,Bihar Sharif,"D M Colony, Bihar Sharif - BSPCB",02-06-2024 22:00:00,25.204762,85.514960,NO2,11,12,11
India,Bihar,Bihar Sharif,"D M Colony, Bihar Sharif - BSPCB",02-06-2024 22:00:00,25.204762,85.514960,OZONE,3,41,11
India,Bihar,Buxar,"Charitra Van, Buxar - BSPCB (Formerly known as Central Jail)",02-06-2024 22:00:00,25.567520,83.966379,OZONE,4,60,31
India,Bihar,Chhapra,"Darshan Nagar, Chhapra - BSPCB",02-06-2024 22:00:00,25.7808257,84.7446768,PM2.5,24,60,44
India,Bihar,Gaya,"Kareemganj, Gaya - BSPCB",02-06-2024 22:00:00,24.792403,84.992416,PM2.5,16,92,41
India,Bihar,Gaya,"Kareemganj, Gaya - BSPCB",02-06-2024 22:00:00,24.792403,84.992416,CO,22,22,22
India,Bihar,Gaya,"SFTI Kusdihra, Gaya - BSPCB",02-06-2024 22:00:00,24.762518,84.982348,PM10,47,92,73
India,Bihar,Gaya,"SFTI Kusdihra, Gaya - BSPCB",02-06-2024 22:00:00,24.762518,84.982348,NO2,8,23,14
India,Bihar,Gaya,"SFTI Kusdihra, Gaya - BSPCB",02-06-2024 22:00:00,24.762518,84.982348,SO2,8,15,9
India,Bihar,Katihar,"Mirchaibari, Katihar - BSPCB",02-06-2024 22:00:00,25.560083,87.553265,NH3,1,2,1
India,Bihar,Kishanganj,"SDM Office_Khagra, Kishanganj - BSPCB",02-06-2024 22:00:00,26.0881305,87.93840336,PM2.5,4,45,22
India,Bihar,Motihari,"Gandak Colony, Motihari - BSPCB",02-06-2024 22:00:00,26.63086,84.90051,NH3,4,8,6
India,Bihar,Motihari,"Gandak Colony, Motihari - BSPCB",02-06-2024 22:00:00,26.63086,84.90051,CO,16,45,29
India,Bihar,Munger,"Town Hall, Munger - BSPCB",02-06-2024 22:00:00,25.376776,86.471523,SO2,20,34,26
India,Bihar,Muzaffarpur,"Buddha Colony, Muzaffarpur - BSPCB",02-06-2024 22:00:00,26.11442,85.39813,NO2,11,31,15
India,Bihar,Patna,"DRM Office Danapur, Patna - BSPCB",02-06-2024 22:00:00,25.586562,85.043586,NO2,13,19,17
India,Bihar,Patna,"DRM Office Danapur, Patna - BSPCB",02-06-2024 22:00:00,25.586562,85.043586,SO2,1,5,2
India,Bihar,Patna,"DRM Office Danapur, Patna - BSPCB",02-06-2024 22:00:00,25.586562,85.043586,CO,20,38,31
India,Bihar,Patna,"DRM Office Danapur, Patna - BSPCB",02-06-2024 22:00:00,25.586562,85.043586,OZONE,20,56,48
India,Bihar,Patna,"Govt. High School Shikarpur, Patna - BSPCB",02-06-2024 22:00:00,25.592539,85.227158,NO2,34,37,35
India,Bihar,Patna,"Govt. High School Shikarpur, Patna - BSPCB",02-06-2024 22:00:00,25.592539,85.227158,NH3,5,5,5
India,Bihar,Patna,"Muradpur, Patna - BSPCB",02-06-2024 22:00:00,25.619651,85.147382,PM10,89,179,137
India,Bihar,Patna,"Muradpur, Patna - BSPCB",02-06-2024 22:00:00,25.619651,85.147382,NH3,12,15,14
India,Bihar,Patna,"Muradpur, Patna - BSPCB",02-06-2024 22:00:00,25.619651,85.147382,SO2,5,8,6
India,Bihar,Patna,"Rajbansi Nagar, Patna - BSPCB",02-06-2024 22:00:00,25.599486,85.113666,OZONE,8,68,51
India,Bihar,Patna,"Samanpura, Patna - BSPCB",02-06-2024 22:00:00,25.596727,85.085624,NO2,8,20,12
India,Bihar,Rajgir,"Dangi Tola, Rajgir - BSPCB",02-06-2024 22:00:00,25.03280,85.41948,SO2,2,9,5
India,Bihar,Saharsa,"Police Line, Saharsa - BSPCB",02-06-2024 22:00:00,25.892357,86.590325,PM2.5,NA,NA,NA
India,Bihar,Saharsa,"Police Line, Saharsa - BSPCB",02-06-2024 22:00:00,25.892357,86.590325,NH3,9,9,9
India,Bihar,Saharsa,"Police Line, Saharsa - BSPCB",02-06-2024 22:00:00,25.892357,86.590325,CO,54,55,55
India,Bihar,Samastipur,"DM Office_Kasipur, Samastipur - BSPCB",02-06-2024 22:00:00,25.859655,85.77944,PM10,7,44,21
India,Bihar,Samastipur,"DM Office_Kasipur, Samastipur - BSPCB",02-06-2024 22:00:00,25.859655,85.77944,SO2,15,79,55
India,Bihar,Samastipur,"DM Office_Kasipur, Samastipur - BSPCB",02-06-2024 22:00:00,25.859655,85.77944,OZONE,1,157,3
India,Bihar,Sasaram,"Dada Peer, Sasaram - BSPCB",02-06-2024 22:00:00,24.952822,84.002396,PM2.5,8,28,17
India,Bihar,Sasaram,"Dada Peer, Sasaram - BSPCB",02-06-2024 22:00:00,24.952822,84.002396,CO,54,94,76
India,Bihar,Siwan,"Chitragupta Nagar, Siwan - BSPCB",02-06-2024 22:00:00,26.2271665,84.3570427,NH3,1,2,1
India,Bihar,Siwan,"Chitragupta Nagar, Siwan - BSPCB",02-06-2024 22:00:00,26.2271665,84.3570427,CO,76,140,117
India,Chandigarh,Chandigarh,"Sector-25, Chandigarh - CPCC",02-06-2024 22:00:00,30.751462,76.762879,PM2.5,161,281,199
India,Chandigarh,Chandigarh,"Sector-25, Chandigarh - CPCC",02-06-2024 22:00:00,30.751462,76.762879,NO2,3,26,12
India,Chhattisgarh,Bhilai,"32Bungalows, Bhilai - CECB",02-06-2024 22:00:00,21.194815,81.314770,PM10,79,133,98
India,Chhattisgarh,Bhilai,"32Bungalows, Bhilai - CECB",02-06-2024 22:00:00,21.194815,81.314770,NO2,13,22,17
India,Chhattisgarh,Bhilai,"32Bungalows, Bhilai - CECB",02-06-2024 22:00:00,21.194815,81.314770,SO2,11,16,13
India,Chhattisgarh,Bhilai,"32Bungalows, Bhilai - CECB",02-06-2024 22:00:00,21.194815,81.314770,OZONE,13,51,41
India,Chhattisgarh,Bhilai,"Civic Center, Bhilai - Bhilai Steel Plant",02-06-2024 22:00:00,21.185571,81.343175,OZONE,19,70,42
India,Chhattisgarh,Bilaspur,"Mangala, Bilaspur - NTPC",02-06-2024 22:00:00,22.08815,82.13737,CO,32,37,36
India,Chhattisgarh,Korba,"Rampur, Korba - CECB",02-06-2024 22:00:00,22.368195,82.746431,SO2,9,14,11
India,Chhattisgarh,Korba,"Rampur, Korba - CECB",02-06-2024 22:00:00,22.368195,82.746431,OZONE,NA,NA,NA
India,Chhattisgarh,Korba,"Urja Nagar, Korba - CECB",02-06-2024 22:00:00,22.348441,82.549611,CO,20,67,22
India,Chhattisgarh,Kunjemura,"OP Jindal School, Kunjemura - CECB",02-06-2024 22:00:00,22.126650,83.483212,PM10,22,220,54
India,Chhattisgarh,Milupara,"Govt. Higher Secondary School, Milupara - CECB",02-06-2024 22:00:00,22.1910172,83.5197009,PM2.5,29,76,42
India,Chhattisgarh,Milupara,"Govt. Higher Secondary School, Milupara - CECB",02-06-2024 22:00:00,22.1910172,83.5197009,OZONE,14,52,44
India,Chhattisgarh,Raipur,"AIIMS, Raipur - CECB",02-06-2024 22:00:00,21.258815,81.578979,NO2,NA,NA,NA
India,Chhattisgarh,Raipur,"AIIMS, Raipur - CECB",02-06-2024 22:00:00,21.258815,81.578979,CO,NA,NA,NA
India,Chhattisgarh,Raipur,"Bhatagaon New ISBT, Raipur - CECB",02-06-2024 22:00:00,21.219665,81.630094,SO2,1,3,2
India,Chhattisgarh,Raipur,"Krishak Nagar, Raipur - CECB",02-06-2024 22:00:00,21.237755,81.705301,PM10,33,122,53
India,Chhattisgarh,Raipur,"Siltara Phase-II, Raipur - CECB",02-06-2024 22:00:00,21.371751,81.664929,NO2,26,73,40
India,Chhattisgarh,Raipur,"Siltara Phase-II, Raipur - CECB",02-06-2024 22:00:00,21.371751,81.664929,NH3,3,3,3
India,Delhi,Delhi,"Alipur, Delhi - DPCC",02-06-2024 22:00:00,28.815329,77.153010,CO,40,60,51
India,Delhi,Delhi,"Anand Vihar, Delhi - DPCC",02-06-2024 22:00:00,28.647622,77.3158090,PM10,NA,NA,NA
India,Delhi,Delhi,"Ashok Vihar, Delhi - DPCC",02-06-2024 22:00:00,28.695381,77.181665,NH3,13,20,17
India,Delhi,Delhi,"Ashok Vihar, Delhi - DPCC",02-06-2024 22:00:00,28.695381,77.181665,SO2,14,29,21
India,Delhi,Delhi,"Aya Nagar, Delhi - IMD",02-06-2024 22:00:00,28.4706914,77.1099364,PM2.5,14,102,53
India,Delhi,Delhi,"Aya Nagar, Delhi - IMD",02-06-2024 22:00:00,28.4706914,77.1099364,CO,98,107,101
India,Delhi,Delhi,"Aya Nagar, Delhi - IMD",02-06-2024 22:00:00,28.4706914,77.1099364,OZONE,2,58,46
India,Delhi,Delhi,"Bawana, Delhi - DPCC",02-06-2024 22:00:00,28.776200,77.051074,CO,32,56,38
India,Delhi,Delhi,"CRRI Mathura Road, Delhi - IMD",02-06-2024 22:00:00,28.5512005,77.2735737,OZONE,13,52,30
India,Delhi,Delhi,"DTU, Delhi - CPCB",02-06-2024 22:00:00,28.7500499,77.1112615,PM10,101,500,146
India,Delhi,Delhi,"DTU, Delhi - CPCB",02-06-2024 22:00:00,28.7500499,77.1112615,OZONE,35,119,94
India,Delhi,Delhi,"Dr. Karni Singh Shooting Range, Delhi - DPCC",02-06-2024 22:00:00,28.498571,77.264840,PM10,75,215,122
India,Delhi,Delhi,"Dwarka-Sector 8, Delhi - DPCC ",02-06-2024 22:00:00,28.5710274,77.0719006,NH3,6,9,8
India,Delhi,Delhi,"IGI Airport (T3), Delhi - IMD",02-06-2024 22:00:00,28.5627763,77.1180053,PM10,74,141,96
India,Delhi,Delhi,"IHBAS, Dilshad Garden, Delhi - CPCB",02-06-2024 22:00:00,28.6811736,77.3025234,CO,8,82,16
India,Delhi,Delhi,"ITO, Delhi - CPCB",02-06-2024 22:00:00,28.628624,77.241060,NO2,25,71,59
India,Delhi,Delhi,"ITO, Delhi - CPCB",02-06-2024 22:00:00,28.628624,77.241060,NH3,6,8,7
India,Delhi,Delhi,"Jahangirpuri, Delhi - DPCC",02-06-2024 22:00:00,28.732820,77.170633,CO,NA,NA,NA
India,Delhi,Delhi,"Jawaharlal Nehru Stadium, Delhi - DPCC",02-06-2024 22:00:00,28.580280,77.233829,SO2,13,31,20
India,Delhi,Delhi,"Lodhi Road, Delhi - IMD",02-06-2024 22:00:00,28.5918245,77.2273074,PM2.5,10,275,69
India,Delhi,Delhi,"Lodhi Road, Delhi - IMD",02-06-2024 22:00:00,28.5918245,77.2273074,PM10,51,139,107
India,Delhi,Delhi,"Mandir Marg, Delhi - DPCC",02-06-2024 22:00:00,28.636429,77.201067,PM10,39,167,109
India,Delhi,Delhi,"Mandir Marg, Delhi - DPCC",02-06-2024 22:00:00,28.636429,77.201067,CO,16,48,33
India,Delhi,Delhi,"Mandir Marg, Delhi - DPCC",02-06-2024 22:00:00,28.636429,77.201067,OZONE,12,122,87
India,Delhi,Delhi,"NSIT Dwarka, Delhi - CPCB",02-06-2024 22:00:00,28.60909,77.0325413,PM2.5,83,308,185
India,Delhi,Delhi,"NSIT Dwarka, Delhi - CPCB",02-06-2024 22:00:00,28.60909,77.0325413,NO2,46,65,56
India,Delhi,Delhi,"NSIT Dwarka, Delhi - CPCB",02-06-2024 22:00:00,28.60909,77.0325413,SO2,1,46,18
India,Delhi,Delhi,"NSIT Dwarka, Delhi - CPCB",02-06-2024 22:00:00,28.60909,77.0325413,OZONE,10,90,52
India,Delhi,Delhi,"Najafgarh, Delhi - DPCC",02-06-2024 22:00:00,28.570173,76.933762,CO,40,57,41
India,Delhi,Delhi,"Narela, Delhi - DPCC",02-06-2024 22:00:00,28.822836,77.101981,NH3,3,5,4
India,Delhi,Delhi,"Narela, Delhi - DPCC",02-06-2024 22:00:00,28.822836,77.101981,SO2,12,29,19
India,Delhi,Delhi,"Narela, Delhi - DPCC",02-06-2024 22:00:00,28.822836,77.101981,CO,28,57,38
India,Delhi,Delhi,"Nehru Nagar, Delhi - DPCC",02-06-2024 22:00:00,28.567890,77.250515,PM10,84,185,119
India,Delhi,Delhi,"Nehru Nagar, Delhi - DPCC",02-06-2024 22:00:00,28.567890,77.250515,NO2,4,53,25
India,Delhi,Delhi,"North Campus, DU, Delhi - IMD",02-06-2024 22:00:00,28.6573814,77.1585447,PM2.5,22,244,104
India,Delhi,Delhi,"Punjabi Bagh, Delhi - DPCC",02-06-2024 22:00:00,28.674045,77.131023,NH3,5,7,6
India,Delhi,Delhi,"Pusa, Delhi - IMD",02-06-2024 22:00:00,28.636110,77.173332,PM2.5,6,246,92
India,Delhi,Delhi,"Pusa, Delhi - IMD",02-06-2024 22:00:00,28.636110,77.173332,OZONE,4,50,34
India,Delhi,Delhi,"R K Puram, Delhi - DPCC",02-06-2024 22:00:00,28.563262,77.186937,NH3,4,26,11
India,Delhi,Delhi,"Rohini, Delhi - DPCC",02-06-2024 22:00:00,28.732528,77.119920,NO2,9,147,44
India,Delhi,Delhi,"Rohini, Delhi - DPCC",02-06-2024 22:00:00,28.732528,77.119920,NH3,4,6,5
India,Delhi,Delhi,"Shadipur, Delhi - CPCB",02-06-2024 22:00:00,28.6514781,77.1473105,SO2,3,68,27
India,Delhi,Delhi,"Shadipur, Delhi - CPCB",02-06-2024 22:00:00,28.6514781,77.1473105,CO,38,73,54
India,Delhi,Delhi,"Sonia Vihar, Delhi - DPCC",02-06-2024 22:00:00,28.710508,77.249485,NO2,13,79,37
India,Delhi,Delhi,"Wazirpur, Delhi - DPCC",02-06-2024 22:00:00,28.699793,77.165453,NH3,12,15,14
India,Delhi,Delhi,"Wazirpur, Delhi - DPCC",02-06-2024 22:00:00,28.699793,77.165453,CO,103,122,108
India,Delhi,Delhi,"Wazirpur, Delhi - DPCC",02-06-2024 22:00:00,28.699793,77.165453,OZONE,2,50,37
India,Gujarat,Ahmedabad,"Chandkheda, Ahmedabad - IITM",02-06-2024 22:00:00,23.107969,72.574648,SO2,14,20,18
India,Gujarat,Ahmedabad,"Maninagar, Ahmedabad - GPCB",02-06-2024 22:00:00,23.002657,72.591912,SO2,4,57,35
India,Gujarat,Ahmedabad,"SVPI Airport Hansol, Ahmedabad - IITM",02-06-2024 22:00:00,23.076793,72.627874,PM2.5,33,77,46
India,Gujarat,Ahmedabad,"SVPI Airport Hansol, Ahmedabad - IITM",02-06-2024 22:00:00,23.076793,72.627874,SO2,3,9,5
India,Gujarat,Ahmedabad,"Sardar Vallabhbhai Patel Stadium, Ahmedabad - IITM",02-06-2024 22:00:00,23.043070,72.562968,CO,46,50,49
India,Gujarat,Ahmedabad,"Sardar Vallabhbhai Patel Stadium, Ahmedabad - IITM",02-06-2024 22:00:00,23.043070,72.562968,OZONE,NA,NA,NA
India,Gujarat,Ankleshwar,"GIDC, Ankleshwar - GPCB",02-06-2024 22:00:00,21.613267,73.010555,NO2,35,36,36
India,Gujarat,Gandhinagar,"GIFT City, Gandhinagar - IITM",02-06-2024 22:00:00,23.163798,72.677768,SO2,NA,NA,NA
India,Gujarat,Gandhinagar,"GIFT City, Gandhinagar - IITM",02-06-2024 22:00:00,23.163798,72.677768,OZONE,NA,NA,NA
India,Gujarat,Gandhinagar,"Sector-10, Gandhinagar - GPCB",02-06-2024 22:00:00,23.221714,72.654328,PM10,33,77,51
India,Gujarat,Vatva,"Phase-4 GIDC, Vatva - GPCB",02-06-2024 22:00:00,22.969611,72.643500,PM2.5,28,46,36
India,Gujarat,Vatva,"Phase-4 GIDC, Vatva - GPCB",02-06-2024 22:00:00,22.969611,72.643500,NO2,24,91,38
India,Haryana,Ambala,"Patti Mehar, Ambala - HSPCB",02-06-2024 22:00:00,30.379589,76.778328,NH3,5,12,9
India,Haryana,Bahadurgarh,"Arya Nagar, Bahadurgarh - HSPCB",02-06-2024 22:00:00,28.6701,76.9254,OZONE,32,42,37
India,Haryana,Ballabgarh,"Nathu Colony, Ballabgarh - HSPCB",02-06-2024 22:00:00,28.3419248,77.319699,NO2,11,13,13
India,Haryana,Bhiwani,"H.B. Colony, Bhiwani - HSPCB",02-06-2024 22:00:00,28.806223,76.141105,CO,25,125,31
India,Haryana,Dharuhera,"Municipal Corporation Office, Dharuhera -  HSPCB",02-06-2024 22:00:00,28.206800,76.799700,NO2,45,110,72
India,Haryana,Dharuhera,"Municipal Corporation Office, Dharuhera -  HSPCB",02-06-2024 22:00:00,28.206800,76.799700,NH3,9,26,19
India,Haryana,Dharuhera,"Municipal Corporation Office, Dharuhera -  HSPCB",02-06-2024 22:00:00,28.206800,76.799700,OZONE,15,52,34
India,Haryana,Faridabad,"New Industrial Town, Faridabad - HSPCB",02-06-2024 22:00:00,28.39072,77.30059,PM2.5,70,301,136
India,Haryana,Faridabad,"Sector 11, Faridabad - HSPCB",02-06-2024 22:00:00,28.376058,77.315741,NH3,6,6,6
India,Haryana,Faridabad,"Sector 11, Faridabad - HSPCB",02-06-2024 22:00:00,28.376058,77.315741,OZONE,8,29,21
India,Haryana,Fatehabad,"Huda Sector, Fatehabad - HSPCB",02-06-2024 22:00:00,29.503664,75.467934,SO2,1,16,7
India,Haryana,Gurugram,"Sector-51, Gurugram - HSPCB",02-06-2024 22:00:00,28.4227,77.0667,PM10,84,192,122
India,Haryana,Gurugram,"Sector-51, Gurugram - HSPCB",02-06-2024 22:00:00,28.4227,77.0667,SO2,2,4,3
India,Haryana,Gurugram,"Teri Gram, Gurugram - HSPCB",02-06-2024 22:00:00,28.4275,77.1465,PM10,69,152,104
India,Haryana,Gurugram,"Teri Gram, Gurugram - HSPCB",02-06-2024 22:00:00,28.4275,77.1465,OZONE,73,137,83
India,Haryana,Gurugram,"Vikas Sadan, Gurugram - HSPCB",02-06-2024 22:00:00,28.4501238,77.0263051,NO2,5,26,14
India,Haryana,Gurugram,"Vikas Sadan, Gurugram - HSPCB",02-06-2024 22:00:00,28.4501238,77.0263051,OZONE,8,41,28
India,Haryana,Hisar,"Urban Estate-II, Hisar - HSPCB",02-06-2024 22:00:00,29.140560,75.744941,PM2.5,38,272,137
India,Haryana,Hisar,"Urban Estate-II, Hisar - HSPCB",02-06-2024 22:00:00,29.140560,75.744941,NO2,9,11,10
India,Haryana,Hisar,"Urban Estate-II, Hisar - HSPCB",02-06-2024 22:00:00,29.140560,75.744941,NH3,4,4,4
India,Haryana,Hisar,"Urban Estate-II, Hisar - HSPCB",02-06-2024 22:00:00,29.140560,75.744941,SO2,6,48,30
India,Haryana,Hisar,"Urban Estate-II, Hisar - HSPCB",02-06-2024 22:00:00,29.140560,75.744941,OZONE,15,82,69
India,Haryana,Kaithal,"Rishi Nagar, Kaithal - HSPCB",02-06-2024 22:00:00,29.8006,76.4155,CO,7,46,30
India,Haryana,Karnal,"Sector-12, Karnal - HSPCB",02-06-2024 22:00:00,29.695300,77.002700,NO2,7,12,10
India,Haryana,Karnal,"Sector-12, Karnal - HSPCB",02-06-2024 22:00:00,29.695300,77.002700,CO,22,67,39
India,Haryana,Mandikhera,"General Hospital, Mandikhera - HSPCB",02-06-2024 22:00:00,27.9002,76.9938,PM2.5,17,63,27
India,Haryana,Mandikhera,"General Hospital, Mandikhera - HSPCB",02-06-2024 22:00:00,27.9002,76.9938,CO,17,64,17
India,Haryana,Manesar,"Sector-2 IMT, Manesar - HSPCB",02-06-2024 22:00:00,28.360699,76.936090,SO2,NA,NA,NA
India,Haryana,Narnaul,"Shastri Nagar, Narnaul - HSPCB",02-06-2024 22:00:00,28.060249,76.113115,NH3,5,24,15
India,Haryana,Narnaul,"Shastri Nagar, Narnaul - HSPCB",02-06-2024 22:00:00,28.060249,76.113115,OZONE,28,58,46
India,Haryana,Panipat,"Sector-18, Panipat - HSPCB",02-06-2024 22:00:00,29.432304,76.972765,PM2.5,152,156,154
India,Haryana,Panipat,"Sector-18, Panipat - HSPCB",02-06-2024 22:00:00,29.432304,76.972765,OZONE,30,30,30
India,Haryana,Rohtak,"MD University, Rohtak - HSPCB",02-06-2024 22:00:00,28.52123,76.37138,OZONE,45,52,49
India,Himachal Pradesh,Baddi,"HIMUDA Complex Phase-1, Baddi - HPPCB",02-06-2024 22:00:00,30.943887,76.801991,PM10,121,257,173
India,Karnataka,Bengaluru,"Hombegowda Nagar, Bengaluru - KSPCB",02-06-2024 22:00:00,12.938539,77.590100,NH3,1,2,1
India,Karnataka,Bengaluru,"Hombegowda Nagar, Bengaluru - KSPCB",02-06-2024 22:00:00,12.938539,77.590100,SO2,2,4,3
India,Karnataka,Bengaluru,"Hombegowda Nagar, Bengaluru - KSPCB",02-06-2024 22:00:00,12.938539,77.590100,OZONE,19,49,37
India,Karnataka,Bengaluru,"Jayanagar 5th Block, Bengaluru - KSPCB",02-06-2024 22:00:00,12.920984,77.584908,NO2,NA,NA,NA
India,Karnataka,Bengaluru,"Jayanagar 5th Block, Bengaluru - KSPCB",02-06-2024 22:00:00,12.920984,77.584908,OZONE,NA,NA,NA
India,Karnataka,Bengaluru,"Jigani, Bengaluru - KSPCB",02-06-2024 22:00:00,12.7816279,77.6299145,PM10,NA,NA,NA
India,Karnataka,Bengaluru,"Jigani, Bengaluru - KSPCB",02-06-2024 22:00:00,12.7816279,77.6299145,SO2,7,9,7
India,Karnataka,Bengaluru,"Jigani, Bengaluru - KSPCB",02-06-2024 22:00:00,12.7816279,77.6299145,CO,34,74,55
India,Karnataka,Bengaluru,"Kasturi Nagar, Bengaluru - KSPCB",02-06-2024 22:00:00,13.003872,77.664217,NH3,3,4,4
India,Karnataka,Bengaluru,"Peenya, Bengaluru - CPCB",02-06-2024 22:00:00,13.0270199,77.494094,PM10,42,55,50
India,Karnataka,Bengaluru,"Peenya, Bengaluru - CPCB",02-06-2024 22:00:00,13.0270199,77.494094,NO2,19,27,22
India,Karnataka,Bengaluru,"Peenya, Bengaluru - CPCB",02-06-2024 22:00:00,13.0270199,77.494094,SO2,12,17,14
India,Karnataka,Bengaluru,"RVCE-Mailasandra, Bengaluru - KSPCB",02-06-2024 22:00:00,12.921418,77.502466,OZONE,39,39,39
India,Karnataka,Bengaluru,"Silk Board, Bengaluru - KSPCB",02-06-2024 22:00:00,12.917348,77.622813,PM2.5,NA,NA,NA
India,Karnataka,Chamarajanagar,"Urban, Chamarajanagar - KSPCB",02-06-2024 22:00:00,11.55358,76.55521,PM10,34,53,45
India,Karnataka,Chamarajanagar,"Urban, Chamarajanagar - KSPCB",02-06-2024 22:00:00,11.55358,76.55521,SO2,2,5,4
India,Karnataka,Chikkaballapur,"Chikkaballapur Rural, Chikkaballapur - KSPCB",02-06-2024 22:00:00,13.428828,77.731418,PM10,10,41,22
India,Karnataka,Chikkaballapur,"Chikkaballapur Rural, Chikkaballapur - KSPCB",02-06-2024 22:00:00,13.428828,77.731418,OZONE,24,25,25
India,Karnataka,Chikkamagaluru,"Kalyana Nagara, Chikkamagaluru - KSPCB",02-06-2024 22:00:00,13.328028,75.797056,PM10,21,376,62
India,Karnataka,Chikkamagaluru,"Kalyana Nagara, Chikkamagaluru - KSPCB",02-06-2024 22:00:00,13.328028,75.797056,NH3,2,4,4
India,Karnataka,Davanagere,"Devaraj Urs Badavane, Davanagere - KSPCB",02-06-2024 22:00:00,14.475800,75.905200,NH3,1,2,1
India,Karnataka,Davanagere,"Devaraj Urs Badavane, Davanagere - KSPCB",02-06-2024 22:00:00,14.475800,75.905200,CO,19,20,20
India,Karnataka,Gadag,"Panchal Nagar, Gadag - KSPCB",02-06-2024 22:00:00,15.411456,75.638133,PM10,28,38,32
India,Karnataka,Gadag,"Panchal Nagar, Gadag - KSPCB",02-06-2024 22:00:00,15.411456,75.638133,NO2,7,29,14
India,Karnataka,Gadag,"Panchal Nagar, Gadag - KSPCB",02-06-2024 22:00:00,15.411456,75.638133,NH3,2,3,2
India,Karnataka,Haveri,"Ashwini Nagar, Haveri - KSPCB",02-06-2024 22:00:00,14.791800,75.389600,PM10,NA,NA,NA
India,Karnataka,Haveri,"Ashwini Nagar, Haveri - KSPCB",02-06-2024 22:00:00,14.791800,75.389600,SO2,13,14,14
India,Karnataka,Kalaburagi,"Mahatma Basaveswar Colony, Kalaburgi - KSPCB",02-06-2024 22:00:00,17.336318,76.847397,NO2,11,16,13
India,Karnataka,Kalaburagi,"Mahatma Basaveswar Colony, Kalaburgi - KSPCB",02-06-2024 22:00:00,17.336318,76.847397,NH3,3,4,3
India,Karnataka,Karwar,"KHB Colony, Karwar - KSPCB",02-06-2024 22:00:00,14.816666,74.141003,PM10,14,47,27
India,Karnataka,Karwar,"KHB Colony, Karwar - KSPCB",02-06-2024 22:00:00,14.816666,74.141003,CO,8,10,9
India,Karnataka,Koppal,"Diwator Nagar, Koppal - KSPCB",02-06-2024 22:00:00,15.347630,76.181767,CO,7,8,8
India,Karnataka,Mangalore,"Kadri, Mangalore - KSPCB",02-06-2024 22:00:00,12.889250,74.853000,PM2.5,NA,NA,NA
India,Karnataka,Mangalore,"Kadri, Mangalore - KSPCB",02-06-2024 22:00:00,12.889250,74.853000,PM10,NA,NA,NA
India,Karnataka,Mysuru,"Hebbal 1st Stage, Mysuru - KSPCB",02-06-2024 22:00:00,12.21041,76.37376,NH3,1,3,2
India,Karnataka,Mysuru,"Hebbal 1st Stage, Mysuru - KSPCB",02-06-2024 22:00:00,12.21041,76.37376,SO2,1,4,2
India,Karnataka,Mysuru,"Hebbal 1st Stage, Mysuru - KSPCB",02-06-2024 22:00:00,12.21041,76.37376,OZONE,9,64,55
India,Karnataka,Shivamogga,"Vinoba Nagara, Shivamogga - KSPCB",02-06-2024 22:00:00,13.940000,75.555917,PM2.5,24,54,33
India,Karnataka,Tumakuru,"Thimmalapura, Tumakuru - KSPCB",02-06-2024 22:00:00,13.377516,77.099072,CO,30,34,31
India,Karnataka,Udupi,"Brahmagiri, Udupi - KSPCB",02-06-2024 22:00:00,13.34194444,74.74694444,NH3,1,1,1
India,Karnataka,Yadgir,"Collector Office, Yadgir - KSPCB",02-06-2024 22:00:00,16.7602,77.1428,PM2.5,NA,NA,NA
India,Kerala,Kannur,"Thavakkara, Kannur - Kerala PCB",02-06-2024 22:00:00,11.875000,75.373200,OZONE,29,33,30
India,Kerala,Kollam,"Polayathode, Kollam - Kerala PCB",02-06-2024 22:00:00,8.8787,76.6073,PM2.5,NA,NA,NA
India,Kerala,Kollam,"Polayathode, Kollam - Kerala PCB",02-06-2024 22:00:00,8.8787,76.6073,NO2,NA,NA,NA
India,Kerala,Thiruvananthapuram,"Kariavattom, Thiruvananthapuram - Kerala PCB",02-06-2024 22:00:00,8.563700,76.886500,PM10,57,64,61
India,Kerala,Thiruvananthapuram,"Kariavattom, Thiruvananthapuram - Kerala PCB",02-06-2024 22:00:00,8.563700,76.886500,SO2,1,7,4
India,Kerala,Thrissur,"Corporation Ground, Thrissur - Kerala PCB",02-06-2024 22:00:00,10.532400,76.215900,PM10,55,69,64
India,Kerala,Thrissur,"Corporation Ground, Thrissur - Kerala PCB",02-06-2024 22:00:00,10.532400,76.215900,CO,14,103,41
India,Madhya Pradesh,Bhopal,"Paryavaran Parisar, Bhopal - MPPCB",02-06-2024 22:00:00,23.210494,77.425409,PM10,61,163,88
India,Madhya Pradesh,Bhopal,"Paryavaran Parisar, Bhopal - MPPCB",02-06-2024 22:00:00,23.210494,77.425409,NH3,3,6,4
India,Madhya Pradesh,Bhopal,"Paryavaran Parisar, Bhopal - MPPCB",02-06-2024 22:00:00,23.210494,77.425409,SO2,5,14,10
India,Madhya Pradesh,Dewas,"Bhopal Chauraha, Dewas - MPPCB",02-06-2024 22:00:00,22.9682591,76.064118,CO,24,40,31
India,Madhya Pradesh,Dewas,"Bhopal Chauraha, Dewas - MPPCB",02-06-2024 22:00:00,22.9682591,76.064118,OZONE,9,31,25
India,Madhya Pradesh,Gwalior,"City Center, Gwalior - MPPCB",02-06-2024 22:00:00,26.203442,78.193251,SO2,6,25,19
India,Madhya Pradesh,Gwalior,"Maharaj Bada, Gwalior - MPPCB",02-06-2024 22:00:00,26.200388,78.147714,NH3,3,16,6
India,Madhya Pradesh,Gwalior,"Phool Bagh, Gwalior - Mondelez Ind. Food",02-06-2024 22:00:00,26.210536,78.171,PM10,65,151,109
India,Madhya Pradesh,Gwalior,"Phool Bagh, Gwalior - Mondelez Ind. Food",02-06-2024 22:00:00,26.210536,78.171,CO,70,93,90
India,Madhya Pradesh,Indore,"Chhoti Gwaltoli, Indore - MPPCB",02-06-2024 22:00:00,22.4310,75.5213,NO2,38,91,51
India,Madhya Pradesh,Indore,"Regional Park, Indore - IMC",02-06-2024 22:00:00,22.6780,75.8559,CO,22,29,23
India,Madhya Pradesh,Indore,"Regional Park, Indore - IMC",02-06-2024 22:00:00,22.6780,75.8559,OZONE,6,16,13
India,Madhya Pradesh,Indore,"Residency Area, Indore - IMC",02-06-2024 22:00:00,22.7084,75.8815,NH3,NA,NA,NA
India,Madhya Pradesh,Jabalpur,"Govindh Bhavan Colony, Jabalpur - JMC",02-06-2024 22:00:00,23.163174,79.973061,NH3,3,3,3
India,Madhya Pradesh,Jabalpur,"Govindh Bhavan Colony, Jabalpur - JMC",02-06-2024 22:00:00,23.163174,79.973061,CO,16,28,20
India,Madhya Pradesh,Jabalpur,"Gupteshwar, Jabalpur - JMC",02-06-2024 22:00:00,23.142888,79.916147,NH3,4,5,5
India,Madhya Pradesh,Jabalpur,"Marhatal, Jabalpur - MPPCB",02-06-2024 22:00:00,23.168606,79.932247,OZONE,14,52,40
India,Madhya Pradesh,Jabalpur,"Suhagi, Jabalpur - JMC",02-06-2024 22:00:00,23.218135,79.957770,PM10,79,149,113
India,Madhya Pradesh,Jabalpur,"Suhagi, Jabalpur - JMC",02-06-2024 22:00:00,23.218135,79.957770,NH3,2,2,2
India,Madhya Pradesh,Katni,"Gole Bazar, Katni - MPPCB",02-06-2024 22:00:00,23.50016,80.23284,NO2,24,52,36
India,Madhya Pradesh,Maihar,"Sahilara, Maihar - KJS Cements",02-06-2024 22:00:00,24.2613009,80.7231783,SO2,12,13,13
India,Madhya Pradesh,Mandideep,"Sector-D Industrial Area, Mandideep - MPPCB",02-06-2024 22:00:00,23.108440,77.511428,PM2.5,54,162,84
India,Madhya Pradesh,Mandideep,"Sector-D Industrial Area, Mandideep - MPPCB",02-06-2024 22:00:00,23.108440,77.511428,NO2,12,16,14
India,Madhya Pradesh,Mandideep,"Sector-D Industrial Area, Mandideep - MPPCB",02-06-2024 22:00:00,23.108440,77.511428,NH3,5,11,7
India,Madhya Pradesh,Mandideep,"Sector-D Industrial Area, Mandideep - MPPCB",02-06-2024 22:00:00,23.108440,77.511428,CO,28,72,40
India,Madhya Pradesh,Pithampur,"Sector-2 Industrial Area, Pithampur - MPPCB",02-06-2024 22:00:00,22.624758,75.675238,PM2.5,17,102,39
India,Madhya Pradesh,Sagar,"Civil Lines, Sagar - MPPCB",02-06-2024 22:00:00,23.838586,78.759431,CO,15,56,19
India,Madhya Pradesh,Sagar,"Deen Dayal Nagar, Sagar - MPPCB",02-06-2024 22:00:00,23.8640158,78.80289321,NO2,21,24,23
India,Madhya Pradesh,Sagar,"Deen Dayal Nagar, Sagar - MPPCB",02-06-2024 22:00:00,23.8640158,78.80289321,SO2,10,13,11
India,Madhya Pradesh,Satna,"Bandhavgar Colony, Satna - Birla Cement",02-06-2024 22:00:00,24.58434363,80.8549414,NO2,24,51,40
India,Madhya Pradesh,Satna,"Bandhavgar Colony, Satna - Birla Cement",02-06-2024 22:00:00,24.58434363,80.8549414,OZONE,NA,NA,NA
India,Madhya Pradesh,Singrauli,"Suryakiran Bhawan NCL, Singrauli - MPPCB",02-06-2024 22:00:00,24.108970,82.645580,PM10,70,158,121
India,Madhya Pradesh,Ujjain,"Mahakaleshwar Temple, Ujjain - MPPCB",02-06-2024 22:00:00,23.182719 ,75.768218 ,PM2.5,39,84,55
India,Madhya Pradesh,Ujjain,"Mahakaleshwar Temple, Ujjain - MPPCB",02-06-2024 22:00:00,23.182719 ,75.768218 ,NO2,14,32,18
India,Madhya Pradesh,Ujjain,"Mahakaleshwar Temple, Ujjain - MPPCB",02-06-2024 22:00:00,23.182719 ,75.768218 ,SO2,6,13,8
India,Maharashtra,Ahmednagar,"Tarakpur, Ahmednagar - MPCB",02-06-2024 22:00:00,19.10122,74.73339,NH3,6,10,8
India,Maharashtra,Akola,"Ramdaspeth, Akola - MPCB",02-06-2024 22:00:00,20.719516,77.000253,NO2,8,82,18
India,Maharashtra,Amravati,"Shivneri Colony, Amravati - MPCB",02-06-2024 22:00:00,20.9402359,77.7895248,PM2.5,44,67,57
India,Maharashtra,Amravati,"Shivneri Colony, Amravati - MPCB",02-06-2024 22:00:00,20.9402359,77.7895248,PM10,70,122,96
India,Maharashtra,Amravati,"Shivneri Colony, Amravati - MPCB",02-06-2024 22:00:00,20.9402359,77.7895248,NO2,4,15,10
India,Maharashtra,Amravati,"Shivneri Colony, Amravati - MPCB",02-06-2024 22:00:00,20.9402359,77.7895248,OZONE,19,76,67
India,Maharashtra,Aurangabad,"Rachnakar Colony, Aurangabad - MPCB",02-06-2024 22:00:00,19.863756,75.321188,PM2.5,66,128,86
India,Maharashtra,Aurangabad,"Rachnakar Colony, Aurangabad - MPCB",02-06-2024 22:00:00,19.863756,75.321188,CO,17,100,31
India,Maharashtra,Badlapur,"Katrap, Badlapur - MPCB",02-06-2024 22:00:00,19.16485,73.23409,NH3,2,4,3
India,Maharashtra,Badlapur,"Katrap, Badlapur - MPCB",02-06-2024 22:00:00,19.16485,73.23409,CO,23,46,28
India,Maharashtra,Belapur,"CBD Belapur, Belapur - MPCB",02-06-2024 22:00:00,19.0243902,73.0406721,NH3,1,2,2
India,Maharashtra,Bhiwandi,"Gokul Nagar, Bhiwandi - MPCB",02-06-2024 22:00:00,19.309073,73.057223,PM10,40,80,59
India,Maharashtra,Bhiwandi,"Gokul Nagar, Bhiwandi - MPCB",02-06-2024 22:00:00,19.309073,73.057223,NO2,5,44,12
India,Maharashtra,Chandrapur,"Chauhan Colony, Chandrapur - MPCB",02-06-2024 22:00:00,19.962900,79.298714,PM10,50,130,93
India,Maharashtra,Jalgaon,"Prabhat Colony, Jalgaon - MPCB",02-06-2024 22:00:00,21.001264,75.565602,NO2,8,57,17
India,Maharashtra,Jalgaon,"Prabhat Colony, Jalgaon - MPCB",02-06-2024 22:00:00,21.001264,75.565602,NH3,6,9,8
India,Maharashtra,Jalgaon,"Prabhat Colony, Jalgaon - MPCB",02-06-2024 22:00:00,21.001264,75.565602,CO,17,54,30
India,Maharashtra,Jalna,"Old MIDC, Jalna - MPCB",02-06-2024 22:00:00,19.854616,75.905894,PM2.5,20,85,41
